latitude,longitude,altitude(feet),ascent(feet),speed(mph),distance(feet),time(millisecond),datetime(utc),satellites,gpslevel,voltage(v),max_altitude(feet),max_ascent(feet),max_speed(mph),max_distance(feet), xSpeed(mph), ySpeed(mph), zSpeed(mph), compass_heading(degrees), pitch(degrees), roll(degrees),isPhoto,isVideo,rc_elevator,rc_aileron,rc_throttle,rc_rudder,gimbal_heading(degrees),gimbal_pitch(degrees),battery_percent,voltageCell1,voltageCell2,voltageCell3,voltageCell4,voltageCell5,voltageCell6,current(A),battery_temperature(f),flycStateRaw,flycState,message
38.4804975,-120.3416459,4558.5637787481,0,0.223694,0,3100,2018-07-07 00:34:49,12,0,0,4558.5637787481,0,0.223694,0,0,0,0,104.7, -1.1, -1.1,1,0,1024,1024,1024,1024,105.9,-90,97,4.221,4.22,4.22,4.207,4.197,4.217,0,84.2,11,AutoTakeoff,DJI_0586.jpg Starting Mission from Lat/Long: 38.48050/-120.34165 Camera: Zenmuse X3 - Overlap: 90/90 - Active Connection: No
38.4804976,-120.3416458,4558.5637787481,0,0.223694,0.046334647152,3200,2018-07-07 00:34:49,11,0,0,4558.5637787481,0,0.223694,0.046334647152,0,0,0,104.6, -0.6, -0.5,0,0,1024,1024,1024,1024,105.9,-89.9,97,4.221,4.22,4.22,4.207,4.197,4.217,0,84.2,11,AutoTakeoff,
38.4804977,-120.3416456,4558.5637787481,0,0.223694,0.11254429494,3300,2018-07-07 00:34:49,11,0,0,4558.5637787481,0,0.223694,0.11254429494,0,0,0,104.6, -0.2, -0.1,0,0,1024,1024,1024,1024,105.8,-89.9,97,4.221,4.22,4.22,4.207,4.197,4.217,0,84.2,11,AutoTakeoff,
38.4804977,-120.3416454,4558.8918627481,0.328084,0.223694,0.160368443452,3400,2018-07-07 00:34:49,11,0,0,4558.8918627481,0.328084,0.223694,0.160368443452,0,0,0,104.5, 0.1, 0,0,0,1024,1024,1024,1024,105.8,-89.9,97,4.221,4.22,4.22,4.207,4.197,4.217,0,84.2,11,AutoTakeoff,
38.4804978,-120.3416452,4558.8918627481,0.328084,0.3131716,0.227928813068,3500,2018-07-07 00:34:49,11,0,0,4558.8918627481,0.328084,0.3131716,0.227928813068,0,0,0,104.5, 0.5, 0.4,0,0,1024,1024,1024,1024,105.8,-89.9,97,4.221,4.22,4.22,4.207,4.197,4.217,0,84.2,11,AutoTakeoff,
38.4804979,-120.341645,4559.2199467481,0.656168,0.3131716,0.295589576388,3600,2018-07-07 00:34:49,12,0,0,4559.2199467481,0.656168,0.3131716,0.295589576388,0,0,0,104.4, 0.9, 1,0,0,1024,1024,1024,1024,105.8,-89.9,97,4.221,4.22,4.22,4.207,4.197,4.217,0,84.2,11,AutoTakeoff,
38.4804981,-120.3416446,4559.5480307481,0.984252,0.223694,0.43102363584,3700,2018-07-07 00:34:49,13,0,0,4559.5480307481,0.984252,0.3131716,0.43102363584,0,0,0,104.4, 1.8, 1.2,0,0,1024,1024,1024,1024,105.8,-89.9,97,4.221,4.22,4.22,4.207,4.197,4.217,0,84.2,11,AutoTakeoff,
38.4804982,-120.3416445,4559.5480307481,0.984252,0.223694,0.4744586766,3800,2018-07-07 00:34:49,13,0,0,4559.5480307481,0.984252,0.3131716,0.4744586766,0,0,0,104.4, 1.5, 1.4,0,0,1024,1024,1024,1024,105.8,-89.9,97,4.221,4.22,4.22,4.207,4.197,4.217,0,84.2,11,AutoTakeoff,
38.4804983,-120.3416444,4559.5480307481,0.984252,0,0.51839568588,3900,2018-07-07 00:34:49,13,0,0,4559.5480307481,0.984252,0.3131716,0.51839568588,0,0,0,104.4, 1, 1,0,0,1024,1024,1024,1024,105.7,-89.9,97,4.221,4.22,4.22,4.207,4.197,4.217,0,84.2,11,AutoTakeoff,
38.4804984,-120.3416443,4559.8761147481,1.312336,0,0.56271983428,4000,2018-07-07 00:34:50,13,0,25.363,4559.8761147481,1.312336,0.3131716,0.56271983428,0,0,0,104.5, 0.6, 0.9,0,0,1024,1024,1024,1024,105.7,-90,97,4.221,4.22,4.22,4.207,4.197,4.217,4.49,84.2,11,AutoTakeoff,
38.4804985,-120.3416442,4559.8761147481,1.312336,0,0.60734253912,4100,2018-07-07 00:34:50,13,0,25.363,4559.8761147481,1.312336,0.3131716,0.60734253912,0,0,-0.223694,104.6, 0.5, 1,0,0,1024,1024,1024,1024,105.7,-90,97,4.221,4.22,4.22,4.207,4.197,4.217,4.49,84.2,11,AutoTakeoff,
38.4804985,-120.3416441,4560.2041987481,1.64042,0,0.63040684432,4200,2018-07-07 00:34:50,13,0,25.363,4560.2041987481,1.64042,0.3131716,0.63040684432,0,0,-0.223694,104.6, 0.5, 1.2,0,0,1024,1024,1024,1024,105.7,-89.9,97,4.221,4.22,4.22,4.207,4.197,4.217,4.49,84.2,11,AutoTakeoff,
38.4804986,-120.3416441,4560.5322827481,1.968504,0,0.65220146444,4300,2018-07-07 00:34:50,13,0,25.363,4560.5322827481,1.968504,0.3131716,0.65220146444,0,0,-0.223694,104.6, 0.6, 1.2,0,0,1024,1024,1024,1024,105.7,-89.9,97,4.221,4.22,4.22,4.207,4.197,4.217,4.49,84.2,11,AutoTakeoff,
38.4804986,-120.341644,4560.5322827481,1.968504,0,0.67494424732,4400,2018-07-07 00:34:50,13,0,25.363,4560.5322827481,1.968504,0.3131716,0.67494424732,0,0,-0.223694,104.5, 0.7, 1.2,0,0,1024,1024,1024,1024,105.7,-89.9,97,4.221,4.22,4.22,4.207,4.197,4.217,4.49,84.2,11,AutoTakeoff,
38.4804987,-120.3416439,4560.8603667481,2.296588,0,0.71970802828,4500,2018-07-07 00:34:50,13,0,25.363,4560.8603667481,2.296588,0.3131716,0.71970802828,0,0,-0.223694,104.4, 0.7, 1.2,0,0,1024,1024,1024,1024,105.7,-89.9,97,4.221,4.22,4.22,4.207,4.197,4.217,4.49,84.2,11,AutoTakeoff,
38.4804987,-120.3416439,4560.8603667481,2.296588,0,0.71970802828,4600,2018-07-07 00:34:50,13,0,25.363,4560.8603667481,2.296588,0.3131716,0.71970802828,0,0,0,104.3, 0.8, 1.1,0,0,1024,1024,1024,1024,105.7,-89.9,97,4.221,4.22,4.22,4.207,4.197,4.217,4.49,84.2,11,AutoTakeoff,
38.4804987,-120.3416438,4561.1884507481,2.624672,0,0.74258204476,4700,2018-07-07 00:34:50,12,0,25.363,4561.1884507481,2.624672,0.3131716,0.74258204476,0,0,0,104.3, 1, 1,0,0,1024,1024,1024,1024,105.7,-89.9,97,4.221,4.22,4.22,4.207,4.197,4.217,4.49,84.2,11,AutoTakeoff,
38.4804987,-120.3416438,4561.1884507481,2.624672,0,0.74258204476,4800,2018-07-07 00:34:50,12,0,25.363,4561.1884507481,2.624672,0.3131716,0.74258204476,0,0,0,104.3, 1, 1.1,0,0,1024,1024,1024,1024,105.7,-89.9,97,4.221,4.22,4.22,4.207,4.197,4.217,4.49,84.2,11,AutoTakeoff,
38.4804988,-120.3416438,4561.5165347481,2.952756,0,0.76465881712,4900,2018-07-07 00:34:50,11,0,25.363,4561.5165347481,2.952756,0.3131716,0.76465881712,0,0,0,104.5, 0.9, 1.2,0,0,1024,1024,1024,1024,105.7,-89.9,97,4.221,4.22,4.22,4.207,4.197,4.217,4.49,84.2,6,P-GPS,
38.4804988,-120.3416437,4561.5165347481,2.952756,0,0.78726380472,5000,2018-07-07 00:34:51,11,0,24.506,4561.5165347481,2.952756,0.3131716,0.78726380472,0,0,0,104.6, 0.7, 1.4,0,0,1024,1024,1024,1024,105.7,-89.9,97,4.045,4.048,4.063,4.08,4.074,4.085,16.33,84.2,14,Waypoint,
38.4804989,-120.3416437,4561.8446187481,3.28084,0,0.80976708628,5200,2018-07-07 00:34:51,12,0,24.506,4561.8446187481,3.28084,0.3131716,0.80976708628,0,0,0,104.8, 0.6, 1.3,0,0,1024,1024,1024,1024,105.7,-90,97,4.045,4.048,4.063,4.08,4.074,4.085,16.33,84.2,14,Waypoint,
38.4804989,-120.3416438,4561.8446187481,3.28084,0,0.787811705,5300,2018-07-07 00:34:51,12,0,24.506,4561.8446187481,3.28084,0.3131716,0.80976708628,0,0,0,105, 0.4, 0.9,0,0,1024,1024,1024,1024,105.7,-90,97,4.045,4.048,4.063,4.08,4.074,4.085,16.33,84.2,14,Waypoint,
38.4804989,-120.3416437,4561.8446187481,3.28084,0,0.80976708628,5400,2018-07-07 00:34:51,11,0,24.506,4561.8446187481,3.28084,0.3131716,0.80976708628,0,0,0,105.3, 0.4, 0.8,0,0,1024,1024,1024,1024,105.7,-89.9,97,4.045,4.048,4.063,4.08,4.074,4.085,16.33,84.2,14,Waypoint,
38.4804989,-120.3416435,4562.1727027481,3.608924,0,0.85485238956,5500,2018-07-07 00:34:51,11,0,24.506,4562.1727027481,3.608924,0.3131716,0.85485238956,0,0,0,105.5, 0.7, 0.6,0,0,1024,1024,1024,1024,105.7,-90,97,4.045,4.048,4.063,4.08,4.074,4.085,16.33,84.2,14,Waypoint,
38.4804989,-120.3416435,4562.1727027481,3.608924,0,0.85485238956,5600,2018-07-07 00:34:51,11,0,24.506,4562.1727027481,3.608924,0.3131716,0.85485238956,0,0,-0.223694,105.8, 1, 0.4,0,0,1024,1024,1024,1024,105.7,-89.9,97,4.045,4.048,4.063,4.08,4.074,4.085,16.33,84.2,14,Waypoint,
38.4804989,-120.3416435,4562.5007867481,3.937008,0,0.85485238956,5700,2018-07-07 00:34:51,11,0,24.506,4562.5007867481,3.937008,0.3131716,0.85485238956,0,0,-0.223694,106.1, 1, 0.2,0,0,1024,1024,1024,1024,105.7,-89.9,97,4.045,4.048,4.063,4.08,4.074,4.085,16.33,84.2,14,Waypoint,
38.4804989,-120.3416435,4562.5007867481,3.937008,0,0.85485238956,5800,2018-07-07 00:34:51,11,0,24.506,4562.5007867481,3.937008,0.3131716,0.85485238956,0,0,-0.223694,106.5, 0.8, 0.2,0,0,1024,1024,1024,1024,105.7,-89.9,97,4.045,4.048,4.063,4.08,4.074,4.085,16.33,84.2,14,Waypoint,
38.4804989,-120.3416434,4562.8288707481,4.265092,0,0.8779199756,5900,2018-07-07 00:34:51,11,0,24.506,4562.8288707481,4.265092,0.3131716,0.8779199756,0,0,-0.223694,106.9, 0.7, 0.4,0,0,1024,1024,1024,1024,105.7,-89.9,97,4.045,4.048,4.063,4.08,4.074,4.085,16.33,84.2,14,Waypoint,
38.4804989,-120.3416433,4563.4850387481,4.92126,0,0.90130252228,6000,2018-07-07 00:34:52,11,0,24.506,4563.4850387481,4.92126,0.3131716,0.90130252228,0,0,-0.223694,107.4, 0.8, 0.5,0,0,1024,1024,1024,1024,105.7,-89.9,97,4.045,4.048,4.063,4.08,4.074,4.085,16.33,84.2,14,Waypoint,
38.4804989,-120.341643,4564.1412067481,5.577428,0,0.97311026736,6100,2018-07-07 00:34:52,12,0,24.506,4564.1412067481,5.577428,0.3131716,0.97311026736,0,0,-0.447388,108.3, 1.5, 0.7,0,0,1024,1024,1024,1024,105.8,-89.9,97,4.045,4.048,4.063,4.08,4.074,4.085,16.33,84.2,14,Waypoint,
38.4804989,-120.3416428,4564.7973747481,6.233596,0,1.02216866788,6200,2018-07-07 00:34:52,12,0,24.506,4564.7973747481,6.233596,0.3131716,1.02216866788,0,0,-0.447388,108.4, 1.6, 0.9,0,0,1024,1024,1024,1024,105.8,-89.9,97,4.045,4.048,4.063,4.08,4.074,4.085,16.33,84.2,14,Waypoint,
38.4804989,-120.3416427,4565.4535427481,6.889764,0,1.04700790752,6300,2018-07-07 00:34:52,12,0,24.506,4565.4535427481,6.889764,0.3131716,1.04700790752,0,0,-0.447388,108.2, 1.5, 1.4,0,0,1024,1024,1024,1024,105.9,-89.9,97,4.045,4.048,4.063,4.08,4.074,4.085,16.33,84.2,14,Waypoint,
38.480499,-120.3416425,4566.4377947481,7.874016,0,1.11467523252,6400,2018-07-07 00:34:52,12,0,24.506,4566.4377947481,7.874016,0.3131716,1.11467523252,0,0,-0.447388,108, 1.6, 1.8,0,0,1024,1024,1024,1024,105.9,-89.9,97,4.045,4.048,4.063,4.08,4.074,4.085,16.33,84.2,14,Waypoint,
38.4804991,-120.3416424,4567.0939627481,8.530184,0,1.15760830476,6500,2018-07-07 00:34:52,12,0,24.506,4567.0939627481,8.530184,0.3131716,1.15760830476,0,0,-0.671082,107.9, 1.6, 2.1,0,0,1024,1024,1024,1024,106,-89.9,97,4.045,4.048,4.063,4.08,4.074,4.085,16.33,84.2,14,Waypoint,
38.480499,-120.3416421,4568.0782147481,9.514436,0,1.21549872656,6600,2018-07-07 00:34:52,12,0,24.506,4568.0782147481,9.514436,0.3131716,1.21549872656,0,0,-0.671082,107.8, 1.6, 2.1,0,0,1024,1024,1024,1024,106,-89.9,97,4.045,4.048,4.063,4.08,4.074,4.085,16.33,84.2,14,Waypoint,
38.4804991,-120.3416421,4569.0624667481,10.498688,0,1.23235568248,6700,2018-07-07 00:34:52,13,0,24.506,4569.0624667481,10.498688,0.3131716,1.23235568248,0,0,-0.671082,107.7, 1.7, 2.2,0,0,1024,1024,1024,1024,106,-89.9,97,4.045,4.048,4.063,4.08,4.074,4.085,16.33,84.2,14,Waypoint,
38.4804993,-120.3416422,4570.0467187481,11.48294,0,1.24420279572,6800,2018-07-07 00:34:52,13,0,24.506,4570.0467187481,11.48294,0.3131716,1.24420279572,0,0,-0.671082,107.7, 1.5, 2.4,0,0,1024,1024,1024,1024,106.1,-89.9,97,4.045,4.048,4.063,4.08,4.074,4.085,16.33,84.2,14,Waypoint,
38.4804995,-120.3416423,4571.0309707481,12.467192,0,1.26081696948,6900,2018-07-07 00:34:52,13,0,24.506,4571.0309707481,12.467192,0.3131716,1.26081696948,0,0,-0.671082,107.7, 1.1, 2.5,0,0,1024,1024,1024,1024,106.1,-90,97,4.045,4.048,4.063,4.08,4.074,4.085,16.33,84.2,14,Waypoint,
38.4804997,-120.3416423,4572.0152227481,13.451444,0,1.30440620972,7000,2018-07-07 00:34:53,13,0,23.782,4572.0152227481,13.451444,0.3131716,1.30440620972,0,0,-0.671082,107.7, 0.7, 2.8,0,0,1024,1024,1024,1024,106.1,-90,97,3.948,3.954,3.953,3.951,3.958,3.959,22.427,84.2,14,Waypoint,
38.4804999,-120.3416425,4573.3275587481,14.76378,0,1.30756893948,7110,2018-07-07 00:34:53,11,0,23.782,4573.3275587481,14.76378,0.3131716,1.30756893948,0,0,-0.671082,107.8, 0.3, 3,0,0,1024,1024,1024,1024,106.2,-90,97,3.948,3.954,3.953,3.951,3.958,3.959,22.427,84.2,14,Waypoint,
38.4805,-120.3416426,4574.3118107481,15.748032,0,1.31160437268,7200,2018-07-07 00:34:53,11,0,23.782,4574.3118107481,15.748032,0.3131716,1.31160437268,0,0,-0.671082,107.7, 0.1, 3.1,0,0,1024,1024,1024,1024,106.2,-90,97,3.948,3.954,3.953,3.951,3.958,3.959,22.427,84.2,14,Waypoint,
38.4805002,-120.3416428,4575.2960627481,16.732284,0,1.32451119724,7300,2018-07-07 00:34:53,11,0,23.782,4575.2960627481,16.732284,0.3131716,1.32451119724,0,0,-0.671082,107.7, 0.1, 3,0,0,1024,1024,1024,1024,106.2,-90,97,3.948,3.954,3.953,3.951,3.958,3.959,22.427,84.2,14,Waypoint,
38.4805003,-120.3416431,4576.6083987481,18.04462,0,1.29736880792,7500,2018-07-07 00:34:53,11,0,23.782,4576.6083987481,18.04462,0.3131716,1.32451119724,0,0,-0.671082,107.6, -0.1, 2.9,0,0,1024,1024,1024,1024,106.3,-90,97,3.948,3.954,3.953,3.951,3.958,3.959,22.427,84.2,14,Waypoint,
38.4805004,-120.3416433,4577.5926507481,19.028872,0,1.29264767916,7600,2018-07-07 00:34:53,13,0,23.782,4577.5926507481,19.028872,0.3131716,1.32451119724,0,0,-0.671082,107.6, -0.3, 2.8,0,0,1024,1024,1024,1024,106.3,-90,97,3.948,3.954,3.953,3.951,3.958,3.959,22.427,84.2,14,Waypoint,
38.4805005,-120.3416434,4578.9049867481,20.341208,0,1.3068569972,7700,2018-07-07 00:34:53,13,0,23.782,4578.9049867481,20.341208,0.3131716,1.32451119724,0,0,-0.671082,107.7, -0.4, 2.5,0,0,1024,1024,1024,1024,106.3,-90,97,3.948,3.954,3.953,3.951,3.958,3.959,22.427,84.2,14,Waypoint,
38.4805006,-120.3416436,4579.8892387481,21.32546,0,1.30796264028,7800,2018-07-07 00:34:53,13,0,23.782,4579.8892387481,21.32546,0.3131716,1.32451119724,0,0,-0.671082,107.7, -0.5, 2.4,0,0,1024,1024,1024,1024,106.3,-90,97,3.948,3.954,3.953,3.951,3.958,3.959,22.427,84.2,14,Waypoint,
38.4805008,-120.3416438,4580.8734907481,22.309712,0,1.34512471496,7900,2018-07-07 00:34:53,13,0,23.782,4580.8734907481,22.309712,0.3131716,1.34512471496,0,0,-0.671082,107.8, -0.7, 2.4,0,0,1024,1024,1024,1024,106.4,-90,97,3.948,3.954,3.953,3.951,3.958,3.959,22.427,84.2,14,Waypoint,
38.4805009,-120.341644,4582.8419947481,24.278216,0,1.35399282548,8000,2018-07-07 00:34:54,11,0,23.782,4582.8419947481,24.278216,0.3131716,1.35399282548,0,0,-0.671082,107.9, -0.7, 2.6,0,0,1024,1024,1024,1024,106.4,-90,97,3.948,3.954,3.953,3.951,3.958,3.959,22.427,84.2,14,Waypoint,
38.4805008,-120.3416441,4584.1543307481,25.590552,0,1.3091699894,8100,2018-07-07 00:34:54,11,0,23.782,4584.1543307481,25.590552,0.3131716,1.35399282548,0,0,-0.671082,107.9, -0.6, 2.5,0,0,1024,1024,1024,1024,106.4,-89.9,97,3.948,3.954,3.953,3.951,3.958,3.959,22.427,84.2,14,Waypoint,
38.4805007,-120.3416441,4585.1385827481,26.574804,0,1.27569557888,8200,2018-07-07 00:34:54,11,0,23.782,4585.1385827481,26.574804,0.3131716,1.35399282548,0,0,-0.671082,108, -0.3, 2.4,0,0,1024,1024,1024,1024,106.4,-89.9,97,3.948,3.954,3.953,3.951,3.958,3.959,22.427,84.2,14,Waypoint,
38.4805006,-120.3416441,4586.1228347481,27.559056,0,1.24239177204,8300,2018-07-07 00:34:54,14,0,23.782,4586.1228347481,27.559056,0.3131716,1.35399282548,0,0,-0.671082,108, 0, 2.2,0,0,1024,1024,1024,1024,106.5,-89.9,97,3.948,3.954,3.953,3.951,3.958,3.959,22.427,84.2,14,Waypoint,
38.4805006,-120.3416442,4587.1070867481,28.543308,0,1.23084649608,8400,2018-07-07 00:34:54,14,0,23.782,4587.1070867481,28.543308,0.3131716,1.35399282548,0,0,-0.671082,108, 0.3, 1.9,0,0,1024,1024,1024,1024,106.5,-89.9,97,3.948,3.954,3.953,3.951,3.958,3.959,22.427,84.2,14,Waypoint,
38.4805004,-120.3416441,4588.0913387481,29.52756,0.223694,1.17634846284,8500,2018-07-07 00:34:54,15,0,23.782,4588.0913387481,29.52756,0.3131716,1.35399282548,0,0,-0.671082,107.9, 0.3, 1.7,0,0,1024,1024,1024,1024,106.5,-90,97,3.948,3.954,3.953,3.951,3.958,3.959,22.427,84.2,14,Waypoint,
38.4805002,-120.3416441,4589.4036747481,30.839896,0.223694,1.11117457624,8600,2018-07-07 00:34:54,15,0,23.782,4589.4036747481,30.839896,0.3131716,1.35399282548,0,0,-0.671082,107.8, 0.3, 1.4,0,0,1024,1024,1024,1024,106.6,-90,97,3.948,3.954,3.953,3.951,3.958,3.959,22.427,84.2,14,Waypoint,
38.4805,-120.3416441,4590.3879267481,31.824148,0.223694,1.04702759256,8700,2018-07-07 00:34:54,15,0,23.782,4590.3879267481,31.824148,0.3131716,1.35399282548,0,0,-0.671082,107.8, 0.5, 1,0,0,1024,1024,1024,1024,106.6,-89.9,97,3.948,3.954,3.953,3.951,3.958,3.959,22.427,84.2,14,Waypoint,
38.4804999,-120.341644,4591.3721787481,32.8084,0.223694,1.03015751328,8800,2018-07-07 00:34:54,15,0,23.782,4591.3721787481,32.8084,0.3131716,1.35399282548,0,0,-0.671082,107.8, 0.8, 0.9,0,0,1024,1024,1024,1024,106.6,-89.9,97,3.948,3.954,3.953,3.951,3.958,3.959,22.427,84.2,14,Waypoint,
38.4804998,-120.341644,4592.3564307481,33.792652,0,0.99933074064,8900,2018-07-07 00:34:54,15,0,23.782,4592.3564307481,33.792652,0.3131716,1.35399282548,0,0,-0.671082,107.8, 1, 0.8,0,0,1024,1024,1024,1024,106.6,-89.9,97,3.948,3.954,3.953,3.951,3.958,3.959,22.427,84.2,14,Waypoint,
38.4804996,-120.341644,4593.3406827481,34.776904,0,0.93889110616,9000,2018-07-07 00:34:55,15,0,23.952,4593.3406827481,34.776904,0.3131716,1.35399282548,0,0,-0.671082,107.8, 1, 0.8,0,0,1024,1024,1024,1024,106.6,-89.9,97,3.948,3.954,3.953,3.951,3.958,3.959,17.989,84.2,14,Waypoint,
38.4804995,-120.3416439,4594.6530187481,36.08924,0,0.9266896622,9100,2018-07-07 00:34:55,15,0,23.952,4594.6530187481,36.08924,0.3131716,1.35399282548,0,0,-0.671082,107.8, 1, 0.8,0,0,1024,1024,1024,1024,106.6,-89.9,97,3.948,3.954,3.953,3.951,3.958,3.959,17.989,84.2,14,Waypoint,
38.4804992,-120.3416438,4595.6372707481,37.073492,0,0.8628117074,9200,2018-07-07 00:34:55,15,0,23.952,4595.6372707481,37.073492,0.3131716,1.35399282548,0,0,-0.671082,107.8, 1, 0.7,0,0,1024,1024,1024,1024,106.6,-89.9,97,3.948,3.954,3.953,3.951,3.958,3.959,17.989,84.2,14,Waypoint,
38.4804991,-120.3416436,4596.6215227481,38.057744,0,0.8788058024,9300,2018-07-07 00:34:55,15,0,23.952,4596.6215227481,38.057744,0.3131716,1.35399282548,0,0,-0.671082,107.8, 1.2, 0.5,0,0,1024,1024,1024,1024,106.7,-89.9,97,3.948,3.954,3.953,3.951,3.958,3.959,17.989,84.2,14,Waypoint,
38.4804989,-120.3416434,4598.5900267481,40.026248,0,0.8779199756,9500,2018-07-07 00:34:55,15,0,23.952,4598.5900267481,40.026248,0.3131716,1.35399282548,0,0,-0.671082,107.9, 1.4, 0.6,0,0,1024,1024,1024,1024,106.7,-89.9,97,3.948,3.954,3.953,3.951,3.958,3.959,17.989,84.2,14,Waypoint,
38.4804987,-120.3416433,4599.5742787481,41.0105,0,0.86204727168,9600,2018-07-07 00:34:55,15,0,23.952,4599.5742787481,41.0105,0.3131716,1.35399282548,0,0,-0.671082,108, 1.5, 0.7,0,0,1024,1024,1024,1024,106.7,-89.9,97,3.948,3.954,3.953,3.951,3.958,3.959,17.989,84.2,14,Waypoint,
38.4804986,-120.3416432,4600.5585307481,41.994752,0,0.86933401732,9800,2018-07-07 00:34:55,15,0,23.952,4600.5585307481,41.994752,0.3131716,1.35399282548,0,0,-0.671082,108.1, 1.6, 0.8,0,0,1024,1024,1024,1024,106.7,-89.9,97,3.948,3.954,3.953,3.951,3.958,3.959,17.989,84.2,14,Waypoint,
38.4804985,-120.341643,4601.5427827481,42.979004,0,0.9050689266,9900,2018-07-07 00:34:55,15,0,23.952,4601.5427827481,42.979004,0.3131716,1.35399282548,0,0,-0.671082,108.2, 1.6, 1,0,0,1024,1024,1024,1024,106.8,-89.9,97,3.948,3.954,3.953,3.951,3.958,3.959,17.989,84.2,14,Waypoint,
38.4804984,-120.3416429,4602.5270347481,43.963256,0,0.91759845456,10000,2018-07-07 00:34:56,15,0,23.952,4602.5270347481,43.963256,0.3131716,1.35399282548,0,0,-0.671082,108.2, 1.7, 1.2,0,0,1024,1024,1024,1024,106.8,-89.9,97,3.988,3.987,3.992,3.993,3.989,4.017,17.989,84.2,14,Waypoint,
38.4804983,-120.3416428,4603.5112867481,44.947508,0,0.93226380936,10100,2018-07-07 00:34:56,15,0,23.952,4603.5112867481,44.947508,0.3131716,1.35399282548,0,0,-0.671082,108.2, 1.9, 1.3,0,0,1024,1024,1024,1024,106.8,-89.9,97,3.988,3.987,3.992,3.993,3.989,4.017,17.989,84.2,14,Waypoint,
38.4804982,-120.3416427,4604.4955387481,45.93176,0,0.94896984664,10200,2018-07-07 00:34:56,15,0,23.952,4604.4955387481,45.93176,0.3131716,1.35399282548,0,0,-0.671082,108.1, 2, 1.3,0,0,1024,1024,1024,1024,106.8,-89.9,97,3.988,3.987,3.992,3.993,3.989,4.017,17.989,84.2,14,Waypoint,
38.4804982,-120.3416425,4605.4797907481,46.916012,0,1.004101082,10300,2018-07-07 00:34:56,15,0,23.952,4605.4797907481,46.916012,0.3131716,1.35399282548,0,0,-0.671082,108, 2, 1.2,0,0,1024,1024,1024,1024,106.8,-89.9,97,3.988,3.987,3.992,3.993,3.989,4.017,17.989,84.2,14,Waypoint,
38.4804981,-120.3416424,4606.4640427481,47.900264,0,1.02333008524,10400,2018-07-07 00:34:56,15,0,23.952,4606.4640427481,47.900264,0.3131716,1.35399282548,0,0,-0.671082,107.9, 2.1, 1.3,0,0,1024,1024,1024,1024,106.8,-89.9,97,3.988,3.987,3.992,3.993,3.989,4.017,17.989,84.2,14,Waypoint,
38.480498,-120.3416424,4607.4482947481,48.884516,0,1.01614832648,10500,2018-07-07 00:34:56,15,0,23.952,4607.4482947481,48.884516,0.3131716,1.35399282548,0,0,-0.671082,107.8, 2.1, 1.3,0,0,1024,1024,1024,1024,106.8,-89.9,97,3.988,3.987,3.992,3.993,3.989,4.017,17.989,84.2,14,Waypoint,
38.4804979,-120.3416423,4609.4167987481,50.85302,0,1.03850725108,10600,2018-07-07 00:34:56,16,0,23.952,4609.4167987481,50.85302,0.3131716,1.35399282548,0,0,-0.671082,107.7, 1.8, 1.1,0,0,1024,1024,1024,1024,106.8,-89.9,97,3.988,3.987,3.992,3.993,3.989,4.017,17.989,84.2,14,Waypoint,
38.4804979,-120.3416422,4610.4010507481,51.837272,0,1.06679137272,10700,2018-07-07 00:34:56,17,0,23.952,4610.4010507481,51.837272,0.3131716,1.35399282548,0,0,-0.671082,107.8, 1.7, 1,0,0,1024,1024,1024,1024,106.8,-89.9,97,3.988,3.987,3.992,3.993,3.989,4.017,17.989,84.2,14,Waypoint,
38.4804979,-120.3416422,4611.3853027481,52.821524,0,1.06679137272,10800,2018-07-07 00:34:56,17,0,23.952,4611.3853027481,52.821524,0.3131716,1.35399282548,0,0,-0.671082,107.8, 1.5, 1,0,0,1024,1024,1024,1024,106.8,-89.9,97,3.988,3.987,3.992,3.993,3.989,4.017,17.989,84.2,14,Waypoint,
38.4804979,-120.3416422,4612.3695547481,53.805776,0,1.06679137272,10900,2018-07-07 00:34:56,16,0,23.952,4612.3695547481,53.805776,0.3131716,1.35399282548,0,0,-0.671082,107.8, 1.5, 1.1,0,0,1024,1024,1024,1024,106.8,-89.9,97,3.988,3.987,3.992,3.993,3.989,4.017,17.989,84.2,14,Waypoint,
38.4804979,-120.3416422,4613.3538067481,54.790028,0,1.06679137272,11000,2018-07-07 00:34:57,16,0,23.961,4613.3538067481,54.790028,0.3131716,1.35399282548,0,0,-0.671082,107.8, 1.6, 1.4,0,0,1024,1024,1024,1024,106.8,-89.9,97,3.989,3.992,3.987,3.995,3.997,4.012,18.014,84.2,14,Waypoint,
38.4804979,-120.3416422,4614.3380587481,55.77428,0,1.06679137272,11100,2018-07-07 00:34:57,15,0,23.961,4614.3380587481,55.77428,0.3131716,1.35399282548,0,0,-0.671082,107.8, 1.5, 1.6,0,0,1024,1024,1024,1024,106.8,-89.9,97,3.989,3.992,3.987,3.995,3.997,4.012,18.014,84.2,14,Waypoint,
38.480498,-120.3416422,4615.3223107481,56.758532,0,1.0723917666,11200,2018-07-07 00:34:57,15,0,23.961,4615.3223107481,56.758532,0.3131716,1.35399282548,0,0,-0.671082,107.9, 1.3, 1.7,0,0,1024,1024,1024,1024,106.8,-89.9,97,3.989,3.992,3.987,3.995,3.997,4.012,18.014,84.2,14,Waypoint,
38.480498,-120.3416422,4616.3065627481,57.742784,0,1.0723917666,11300,2018-07-07 00:34:57,15,0,23.961,4616.3065627481,57.742784,0.3131716,1.35399282548,0,0,-0.671082,107.9, 1.1, 1.6,0,0,1024,1024,1024,1024,106.8,-89.9,97,3.989,3.992,3.987,3.995,3.997,4.012,18.014,84.2,14,Waypoint,
38.4804981,-120.3416422,4617.2908147481,58.727036,0,1.07919622876,11400,2018-07-07 00:34:57,15,0,23.961,4617.2908147481,58.727036,0.3131716,1.35399282548,0,0,-0.671082,107.9, 1.1, 1.7,0,0,1024,1024,1024,1024,106.8,-89.9,97,3.989,3.992,3.987,3.995,3.997,4.012,18.014,84.2,14,Waypoint,
38.4804982,-120.3416422,4618.2750667481,59.711288,0,1.08718507416,11500,2018-07-07 00:34:57,15,0,23.961,4618.2750667481,59.711288,0.3131716,1.35399282548,0,0,-0.671082,107.9, 1, 1.9,0,0,1024,1024,1024,1024,106.8,-89.9,97,3.989,3.992,3.987,3.995,3.997,4.012,18.014,84.2,14,Waypoint,
38.4804982,-120.3416422,4619.5874027481,61.023624,0.223694,1.08718507416,11600,2018-07-07 00:34:57,15,0,23.961,4619.5874027481,61.023624,0.3131716,1.35399282548,0,0,-0.671082,107.9, 1.1, 2.1,0,0,1024,1024,1024,1024,106.8,-89.9,97,3.989,3.992,3.987,3.995,3.997,4.012,18.014,84.2,14,Waypoint,
38.4804983,-120.3416422,4620.5716547481,62.007876,0,1.09632877524,11700,2018-07-07 00:34:57,15,0,23.961,4620.5716547481,62.007876,0.3131716,1.35399282548,0,0,-0.671082,108, 1.1, 2.3,0,0,1024,1024,1024,1024,106.8,-89.9,97,3.989,3.992,3.987,3.995,3.997,4.012,18.014,84.2,14,Waypoint,
38.4804984,-120.3416422,4621.2278227481,62.664044,0,1.10660436612,11800,2018-07-07 00:34:57,15,0,23.961,4621.2278227481,62.664044,0.3131716,1.35399282548,0,0,-0.671082,108, 1.4, 2.5,0,0,1024,1024,1024,1024,106.8,-89.9,97,3.989,3.992,3.987,3.995,3.997,4.012,18.014,84.2,14,Waypoint,
38.4804984,-120.3416422,4622.2120747481,63.648296,0,1.10660436612,11900,2018-07-07 00:34:57,17,0,23.961,4622.2120747481,63.648296,0.3131716,1.35399282548,0,0,-0.671082,107.9, 1.5, 2.4,0,0,1024,1024,1024,1024,106.8,-89.9,97,3.989,3.992,3.987,3.995,3.997,4.012,18.014,84.2,14,Waypoint,
38.4804985,-120.3416422,4623.1963267481,64.632548,0,1.11797247672,12000,2018-07-07 00:34:58,17,0,23.891,4623.1963267481,64.632548,0.3131716,1.35399282548,0,0,-0.671082,107.8, 1.6, 2.3,0,0,1024,1024,1024,1024,106.8,-89.9,96,3.975,3.978,3.978,3.983,3.984,4.005,18.382,84.2,14,Waypoint,
38.4804986,-120.3416422,4624.1805787481,65.6168,0,1.13040357948,12110,2018-07-07 00:34:58,16,0,23.891,4624.1805787481,65.6168,0.3131716,1.35399282548,0,0,-0.671082,107.7, 1.5, 2.3,0,0,1024,1024,1024,1024,106.8,-89.9,96,3.975,3.978,3.978,3.983,3.984,4.005,18.382,84.2,14,Waypoint,
38.4804986,-120.3416422,4624.1805787481,65.6168,0,1.13040357948,12200,2018-07-07 00:34:58,16,0,23.891,4624.1805787481,65.6168,0.3131716,1.35399282548,0,0,-0.671082,107.7, 1.5, 2.3,0,0,1024,1024,1024,1024,106.8,-89.9,96,3.975,3.978,3.978,3.983,3.984,4.005,18.382,84.2,14,Waypoint,
38.4804987,-120.3416422,4625.1648307481,66.601052,0,1.14386814684,12300,2018-07-07 00:34:58,16,0,23.891,4625.1648307481,66.601052,0.3131716,1.35399282548,0,0,-0.671082,107.6, 1.4, 2.3,0,0,1024,1024,1024,1024,106.8,-89.9,96,3.975,3.978,3.978,3.983,3.984,4.005,18.382,84.2,14,Waypoint,
38.4804988,-120.3416423,4627.1333347481,68.569556,0,1.13232615172,12500,2018-07-07 00:34:58,16,0,23.891,4627.1333347481,68.569556,0.3131716,1.35399282548,0,0,-0.671082,107.5, 1.1, 2.2,0,0,1024,1024,1024,1024,106.8,-90,96,3.975,3.978,3.978,3.983,3.984,4.005,18.382,84.2,14,Waypoint,
38.4804989,-120.3416423,4628.1175867481,69.553808,0,1.14808730708,12600,2018-07-07 00:34:58,17,0,23.891,4628.1175867481,69.553808,0.3131716,1.35399282548,0,0,-0.671082,107.5, 1, 2.1,0,0,1024,1024,1024,1024,106.8,-90,96,3.975,3.978,3.978,3.983,3.984,4.005,18.382,84.2,14,Waypoint,
38.480499,-120.3416423,4629.1018387481,70.53806,0,1.16477694016,12700,2018-07-07 00:34:58,17,0,23.891,4629.1018387481,70.53806,0.3131716,1.35399282548,0,0,-0.671082,107.6, 0.8, 2.1,0,0,1024,1024,1024,1024,106.8,-90,96,3.975,3.978,3.978,3.983,3.984,4.005,18.382,84.2,14,Waypoint,
38.4804991,-120.3416423,4631.0703427481,72.506564,0,1.18235896172,12800,2018-07-07 00:34:58,17,0,23.891,4631.0703427481,72.506564,0.3131716,1.35399282548,0,0,-0.671082,107.9, 0.8, 2.2,0,0,1024,1024,1024,1024,106.8,-89.9,96,3.975,3.978,3.978,3.983,3.984,4.005,18.382,84.2,14,Waypoint,
38.4804992,-120.3416424,4632.0545947481,73.490816,0,1.176427203,12900,2018-07-07 00:34:58,17,0,23.891,4632.0545947481,73.490816,0.3131716,1.35399282548,0,0,-0.671082,108, 1.1, 2.1,0,0,1024,1024,1024,1024,106.8,-89.9,96,3.975,3.978,3.978,3.983,3.984,4.005,18.382,84.2,14,Waypoint,
38.4804992,-120.3416425,4633.0388467481,74.475068,0,1.15225725472,13000,2018-07-07 00:34:59,17,0,23.871,4633.0388467481,74.475068,0.3131716,1.35399282548,0,0,-0.671082,108, 1.1, 2,0,0,1024,1024,1024,1024,106.8,-89.9,96,3.971,3.983,3.97,3.978,3.987,4.001,18.156,84.2,14,Waypoint,
38.4804993,-120.3416425,4634.0230987481,75.45932,0,1.17229990628,13100,2018-07-07 00:34:59,17,0,23.871,4634.0230987481,75.45932,0.3131716,1.35399282548,0,0,-0.671082,108, 1, 2,0,0,1024,1024,1024,1024,106.8,-90,96,3.971,3.983,3.97,3.978,3.987,4.001,18.156,84.2,14,Waypoint,
38.4804994,-120.3416426,4635.0073507481,76.443572,0,1.16999347576,13200,2018-07-07 00:34:59,17,0,23.871,4635.0073507481,76.443572,0.3131716,1.35399282548,0,0,-0.671082,108, 0.9, 2,0,0,1024,1024,1024,1024,106.8,-90,96,3.971,3.983,3.97,3.978,3.987,4.001,18.156,84.2,14,Waypoint,
38.4804994,-120.3416426,4635.9916027481,77.427824,0,1.16999347576,13300,2018-07-07 00:34:59,17,0,23.871,4635.9916027481,77.427824,0.3131716,1.35399282548,0,0,-0.671082,108.1, 0.9, 2.2,0,0,1024,1024,1024,1024,106.8,-90,96,3.971,3.983,3.97,3.978,3.987,4.001,18.156,84.2,14,Waypoint,
38.4804995,-120.3416427,4636.9758547481,78.412076,0,1.1695210348,13400,2018-07-07 00:34:59,17,0,23.871,4636.9758547481,78.412076,0.3131716,1.35399282548,0,0,-0.671082,108.1, 0.8, 2.2,0,0,1024,1024,1024,1024,106.8,-90,96,3.971,3.983,3.97,3.978,3.987,4.001,18.156,84.2,14,Waypoint,
38.4804996,-120.3416427,4638.2881907481,79.724412,0,1.19262471008,13500,2018-07-07 00:34:59,16,0,23.871,4638.2881907481,79.724412,0.3131716,1.35399282548,0,0,-0.671082,108.1, 0.8, 2.3,0,0,1024,1024,1024,1024,106.9,-90,96,3.971,3.983,3.97,3.978,3.987,4.001,18.156,84.2,14,Waypoint,
38.4804996,-120.3416428,4638.9443587481,80.38058,0,1.1708825834,13600,2018-07-07 00:34:59,16,0,23.871,4638.9443587481,80.38058,0.3131716,1.35399282548,0,0,-0.671082,108.1, 0.7, 2.2,0,0,1024,1024,1024,1024,106.8,-90,96,3.971,3.983,3.97,3.978,3.987,4.001,18.156,84.2,14,Waypoint,
38.4804997,-120.3416428,4639.9286107481,81.364832,0,1.19507549756,13700,2018-07-07 00:34:59,17,0,23.871,4639.9286107481,81.364832,0.3131716,1.35399282548,0,0,-0.671082,108.1, 0.7, 2.2,0,0,1024,1024,1024,1024,106.8,-90,96,3.971,3.983,3.97,3.978,3.987,4.001,18.156,84.2,14,Waypoint,
38.4804998,-120.3416429,4641.2409467481,82.677168,0,1.199311062,13800,2018-07-07 00:34:59,17,0,23.871,4641.2409467481,82.677168,0.3131716,1.35399282548,0,0,-0.671082,108, 0.6, 2.2,0,0,1024,1024,1024,1024,106.8,-89.9,96,3.971,3.983,3.97,3.978,3.987,4.001,18.156,84.2,14,Waypoint,
38.4804998,-120.3416429,4643.2094507481,84.645672,0,1.199311062,14000,2018-07-07 00:35:00,17,0,23.839,4643.2094507481,84.645672,0.3131716,1.35399282548,0,0,-0.671082,107.8, 0.7, 2.3,0,0,1024,1024,1024,1024,106.8,-89.9,96,3.965,3.966,3.968,3.977,3.972,3.998,18.164,84.2,14,Waypoint,
38.4804999,-120.341643,4644.1937027481,85.629924,0,1.20531171836,14100,2018-07-07 00:35:00,17,0,23.839,4644.1937027481,85.629924,0.3131716,1.35399282548,0,0,-0.671082,107.8, 0.7, 2.3,0,0,1024,1024,1024,1024,106.8,-89.9,96,3.965,3.966,3.968,3.977,3.972,3.998,18.164,84.2,14,Waypoint,
38.4804999,-120.3416431,4645.1779547481,86.614176,0,1.18586617968,14300,2018-07-07 00:35:00,17,0,23.839,4645.1779547481,86.614176,0.3131716,1.35399282548,0,0,-0.671082,107.7, 0.6, 2.2,0,0,1024,1024,1024,1024,106.8,-90,96,3.965,3.966,3.968,3.977,3.972,3.998,18.164,84.2,14,Waypoint,
38.4804999,-120.3416431,4646.1622067481,87.598428,0,1.18586617968,14400,2018-07-07 00:35:00,17,0,23.839,4646.1622067481,87.598428,0.3131716,1.35399282548,0,0,-0.671082,107.7, 0.6, 2.2,0,0,1024,1024,1024,1024,106.8,-89.9,96,3.965,3.966,3.968,3.977,3.972,3.998,18.164,84.2,14,Waypoint,
38.4804999,-120.3416432,4647.1464587481,88.58268,0,1.1667979376,14500,2018-07-07 00:35:00,17,0,23.839,4647.1464587481,88.58268,0.3131716,1.35399282548,0,0,-0.671082,107.7, 0.6, 2.1,0,0,1024,1024,1024,1024,106.8,-90,96,3.965,3.966,3.968,3.977,3.972,3.998,18.164,84.2,14,Waypoint,
38.4804999,-120.3416432,4648.1307107481,89.566932,0,1.1667979376,14600,2018-07-07 00:35:00,17,0,23.839,4648.1307107481,89.566932,0.3131716,1.35399282548,0,0,-0.671082,107.8, 0.5, 2,0,0,1024,1024,1024,1024,106.8,-90,96,3.965,3.966,3.968,3.977,3.972,3.998,18.164,84.2,14,Waypoint,
38.4804999,-120.3416432,4649.1149627481,90.551184,0,1.1667979376,14700,2018-07-07 00:35:00,17,0,23.839,4649.1149627481,90.551184,0.3131716,1.35399282548,0,0,-0.671082,107.8, 0.4, 1.9,0,0,1024,1024,1024,1024,106.8,-90,96,3.965,3.966,3.968,3.977,3.972,3.998,18.164,84.2,14,Waypoint,
38.4804999,-120.3416433,4650.0992147481,91.535436,0,1.14812011548,14800,2018-07-07 00:35:00,17,0,23.839,4650.0992147481,91.535436,0.3131716,1.35399282548,0,0,-0.671082,107.8, 0.5, 1.9,0,0,1024,1024,1024,1024,106.8,-89.9,96,3.965,3.966,3.968,3.977,3.972,3.998,18.164,84.2,14,Waypoint,
38.4804999,-120.3416433,4650.7553827481,92.191604,0,1.14812011548,14900,2018-07-07 00:35:00,17,0,23.839,4650.7553827481,92.191604,0.3131716,1.35399282548,0,0,-0.671082,107.8, 0.7, 2,0,0,1024,1024,1024,1024,106.8,-89.9,96,3.965,3.966,3.968,3.977,3.972,3.998,18.164,84.2,14,Waypoint,
38.4804999,-120.3416433,4651.7396347481,93.175856,0,1.14812011548,15000,2018-07-07 00:35:01,17,0,23.845,4651.7396347481,93.175856,0.3131716,1.35399282548,0,0,-0.671082,107.8, 0.7, 2,0,0,1024,1024,1024,1024,106.8,-89.9,96,3.967,3.974,3.96,3.968,3.975,3.991,18.262,84.2,14,Waypoint,
38.4804999,-120.3416434,4653.7081387481,95.14436,0,1.12985896004,15100,2018-07-07 00:35:01,17,0,23.845,4653.7081387481,95.14436,0.3131716,1.35399282548,0,0,-0.671082,107.9, 0.7, 1.6,0,0,1024,1024,1024,1024,106.8,-89.9,96,3.967,3.974,3.96,3.968,3.975,3.991,18.262,84.2,14,Waypoint,
38.4804998,-120.3416434,4655.6766427481,97.112864,0,1.10182418224,15300,2018-07-07 00:35:01,17,0,23.845,4655.6766427481,97.112864,0.3131716,1.35399282548,0,0,-0.671082,107.9, 1, 1.5,0,0,1024,1024,1024,1024,106.8,-89.9,96,3.967,3.974,3.96,3.968,3.975,3.991,18.262,84.2,14,Waypoint,
38.4804998,-120.3416434,4656.6608947481,98.097116,0,1.10182418224,15400,2018-07-07 00:35:01,17,0,23.845,4656.6608947481,98.097116,0.3131716,1.35399282548,0,0,-0.671082,108, 1.1, 1.6,0,0,1024,1024,1024,1024,106.8,-89.9,96,3.967,3.974,3.96,3.968,3.975,3.991,18.262,84.2,14,Waypoint,
38.4804997,-120.3416434,4657.6451467481,99.081368,0,1.07429793464,15500,2018-07-07 00:35:01,17,0,23.845,4657.6451467481,99.081368,0.3131716,1.35399282548,0,0,-0.671082,107.9, 1.2, 1.6,0,0,1024,1024,1024,1024,106.9,-89.9,96,3.967,3.974,3.96,3.968,3.975,3.991,18.262,84.2,14,Waypoint,
38.4804997,-120.3416433,4658.6293987481,100.06562,0,1.0934875678,15600,2018-07-07 00:35:01,17,0,23.845,4658.6293987481,100.06562,0.3131716,1.35399282548,0,0,-0.671082,107.8, 1.3, 1.6,0,0,1024,1024,1024,1024,106.9,-89.9,96,3.967,3.974,3.96,3.968,3.975,3.991,18.262,84.2,14,Waypoint,
38.4804997,-120.3416433,4659.6136507481,101.049872,0,1.0934875678,15700,2018-07-07 00:35:01,17,0,23.845,4659.6136507481,101.049872,0.3131716,1.35399282548,0,0,-0.671082,107.8, 1.4, 1.5,0,0,1024,1024,1024,1024,106.8,-89.9,96,3.967,3.974,3.96,3.968,3.975,3.991,18.262,84.2,14,Waypoint,
38.4804996,-120.3416433,4660.5979027481,102.034124,0,1.0669947848,15800,2018-07-07 00:35:01,17,0,23.845,4660.5979027481,102.034124,0.3131716,1.35399282548,0,0,-0.671082,107.8, 1.4, 1.5,0,0,1024,1024,1024,1024,106.8,-89.9,96,3.967,3.974,3.96,3.968,3.975,3.991,18.262,84.2,14,Waypoint,
38.4804996,-120.3416433,4661.5821547481,103.018376,0,1.0669947848,15900,2018-07-07 00:35:01,17,0,23.845,4661.5821547481,103.018376,0.3131716,1.35399282548,0,0,-0.671082,107.7, 1.4, 1.4,0,0,1024,1024,1024,1024,106.8,-89.9,96,3.967,3.974,3.96,3.968,3.975,3.991,18.262,84.2,14,Waypoint,
38.4804995,-120.3416433,4662.5664067481,104.002628,0,1.04110567636,16000,2018-07-07 00:35:02,17,0,23.854,4662.5664067481,104.002628,0.3131716,1.35399282548,0,0,-0.671082,107.6, 1.4, 1.3,0,0,1024,1024,1024,1024,106.8,-89.9,96,3.966,3.968,3.973,3.973,3.97,3.99,17.839,86,14,Waypoint,
38.4804994,-120.3416433,4663.5506587481,104.98688,0,1.01586617424,16100,2018-07-07 00:35:02,17,0,23.854,4663.5506587481,104.98688,0.3131716,1.35399282548,0,0,-0.671082,107.6, 1.3, 1.3,0,0,1024,1024,1024,1024,106.8,-89.9,96,3.966,3.968,3.973,3.973,3.97,3.99,17.839,86,14,Waypoint,
38.4804994,-120.3416433,4664.5349107481,105.971132,0,1.01586617424,16200,2018-07-07 00:35:02,17,0,23.854,4664.5349107481,105.971132,0.3131716,1.35399282548,0,0,-0.671082,107.6, 1.5, 1.3,0,0,1024,1024,1024,1024,106.8,-89.9,96,3.966,3.968,3.973,3.973,3.97,3.99,17.839,86,14,Waypoint,
38.4804994,-120.3416433,4665.5191627481,106.955384,0,1.01586617424,16300,2018-07-07 00:35:02,17,0,23.854,4665.5191627481,106.955384,0.3131716,1.35399282548,0,0,-0.671082,107.7, 1.5, 1.3,0,0,1024,1024,1024,1024,106.8,-89.9,96,3.966,3.968,3.973,3.973,3.97,3.99,17.839,86,14,Waypoint,
38.4804993,-120.3416433,4666.5034147481,107.939636,0,0.99132877188,16500,2018-07-07 00:35:02,17,0,23.854,4666.5034147481,107.939636,0.3131716,1.35399282548,0,0,-0.671082,107.8, 1.7, 1.1,0,0,1024,1024,1024,1024,106.8,-89.9,96,3.966,3.968,3.973,3.973,3.97,3.99,17.839,86,14,Waypoint,
38.4804992,-120.3416433,4667.4876667481,108.923888,0,0.96754596272,16600,2018-07-07 00:35:02,17,0,23.854,4667.4876667481,108.923888,0.3131716,1.35399282548,0,0,-0.671082,107.9, 1.8, 0.8,0,0,1024,1024,1024,1024,106.9,-89.9,96,3.966,3.968,3.973,3.973,3.97,3.99,17.839,86,14,Waypoint,
38.480499,-120.3416433,4669.4561707481,110.892392,0,0.92246722112,16700,2018-07-07 00:35:02,17,0,23.854,4669.4561707481,110.892392,0.3131716,1.35399282548,0,0,-0.671082,108.3, 1.6, 0.5,0,0,1024,1024,1024,1024,106.9,-89.9,96,3.966,3.968,3.973,3.973,3.97,3.99,17.839,86,14,Waypoint,
38.480499,-120.3416434,4670.7685067481,112.204728,0,0.89963585556,16900,2018-07-07 00:35:02,17,0,23.854,4670.7685067481,112.204728,0.3131716,1.35399282548,0,0,-0.671082,108.4, 1.4, 0.5,0,0,1024,1024,1024,1024,106.8,-89.9,96,3.966,3.968,3.973,3.973,3.97,3.99,17.839,86,14,Waypoint,
38.480499,-120.3416434,4671.7527587481,113.18898,0,0.89963585556,17000,2018-07-07 00:35:03,17,0,23.793,4671.7527587481,113.18898,0.3131716,1.35399282548,0,0,-0.671082,108.4, 1.2, 0.7,0,0,1024,1024,1024,1024,106.8,-90,96,3.966,3.968,3.973,3.973,3.97,3.99,18.391,86,14,Waypoint,
38.480499,-120.3416434,4672.7370107481,114.173232,0,0.89963585556,17100,2018-07-07 00:35:03,17,0,23.793,4672.7370107481,114.173232,0.3131716,1.35399282548,0,0,-0.671082,108.2, 0.9, 0.9,0,0,1024,1024,1024,1024,106.8,-90,96,3.966,3.968,3.973,3.973,3.97,3.99,18.391,86,14,Waypoint,
38.480499,-120.3416435,4673.7212627481,115.157484,0,0.87713913568,17200,2018-07-07 00:35:03,17,0,23.793,4673.7212627481,115.157484,0.3131716,1.35399282548,0,0,-0.671082,108, 0.7, 1.3,0,0,1024,1024,1024,1024,106.8,-90,96,3.966,3.968,3.973,3.973,3.97,3.99,18.391,86,14,Waypoint,
38.4804991,-120.3416435,4674.7055147481,116.141736,0,0.90035435952,17300,2018-07-07 00:35:03,17,0,23.793,4674.7055147481,116.141736,0.3131716,1.35399282548,0,0,-0.671082,107.9, 0.6, 1.5,0,0,1024,1024,1024,1024,106.8,-90,96,3.966,3.968,3.973,3.973,3.97,3.99,18.391,86,14,Waypoint,
38.4804991,-120.3416435,4675.6897667481,117.125988,0,0.90035435952,17400,2018-07-07 00:35:03,17,0,23.793,4675.6897667481,117.125988,0.3131716,1.35399282548,0,0,-0.671082,108, 0.7, 1.8,0,0,1024,1024,1024,1024,106.8,-90,96,3.966,3.968,3.973,3.973,3.97,3.99,18.391,86,14,Waypoint,
38.4804992,-120.3416435,4677.9863547481,119.422576,0,0.92442916344,17500,2018-07-07 00:35:03,17,0,23.793,4677.9863547481,119.422576,0.3131716,1.35399282548,0,0,-0.671082,108, 0.7, 2.4,0,0,1024,1024,1024,1024,106.8,-90,96,3.966,3.968,3.973,3.973,3.97,3.99,18.391,86,14,Waypoint,
38.4804993,-120.3416435,4678.9706067481,120.406828,0,0.9492946498,17700,2018-07-07 00:35:03,17,0,23.793,4678.9706067481,120.406828,0.3131716,1.35399282548,0,0,-0.671082,108, 0.6, 2.6,0,0,1024,1024,1024,1024,106.8,-90,96,3.966,3.968,3.973,3.973,3.97,3.99,18.391,86,14,Waypoint,
38.4804994,-120.3416434,4680.9391107481,122.375332,0,0.99518047804,17800,2018-07-07 00:35:03,17,0,23.793,4680.9391107481,122.375332,0.3131716,1.35399282548,0,0,-0.671082,108.1, 0.9, 2.7,0,0,1024,1024,1024,1024,106.8,-89.9,96,3.966,3.968,3.973,3.973,3.97,3.99,18.391,86,14,Waypoint,
38.4804994,-120.3416434,4681.9233627481,123.359584,0,0.99518047804,17900,2018-07-07 00:35:03,17,0,23.793,4681.9233627481,123.359584,0.3131716,1.35399282548,0,0,-0.671082,108.1, 1.2, 2.7,0,0,1024,1024,1024,1024,106.8,-89.9,96,3.966,3.968,3.973,3.973,3.97,3.99,18.391,86,14,Waypoint,
38.4804995,-120.3416433,4682.9076147481,124.343836,0,1.04110567636,18000,2018-07-07 00:35:04,17,0,23.793,4682.9076147481,124.343836,0.3131716,1.35399282548,0,0,-0.671082,108.2, 1.3, 2.8,0,0,1024,1024,1024,1024,106.8,-89.9,96,3.963,3.956,3.962,3.964,3.976,3.979,18.391,86,14,Waypoint,
38.4804995,-120.3416433,4683.8918667481,125.328088,0,1.04110567636,18100,2018-07-07 00:35:04,17,0,23.793,4683.8918667481,125.328088,0.3131716,1.35399282548,0,0,-0.671082,108.1, 1.3, 2.9,0,0,1024,1024,1024,1024,106.8,-89.9,96,3.963,3.956,3.962,3.964,3.976,3.979,18.391,86,14,Waypoint,
38.4804996,-120.3416432,4685.5322867481,126.968508,0,1.08706696392,18300,2018-07-07 00:35:04,17,0,23.793,4685.5322867481,126.968508,0.3131716,1.35399282548,0,0,-0.671082,107.8, 1.4, 2.9,0,0,1024,1024,1024,1024,106.8,-89.9,96,3.963,3.956,3.962,3.964,3.976,3.979,18.391,86,14,Waypoint,
38.4804996,-120.3416432,4686.5165387481,127.95276,0,1.08706696392,18400,2018-07-07 00:35:04,17,0,23.793,4686.5165387481,127.95276,0.3131716,1.35399282548,0,0,-0.671082,107.6, 1.5, 2.5,0,0,1024,1024,1024,1024,106.8,-89.9,96,3.963,3.956,3.962,3.964,3.976,3.979,18.391,86,14,Waypoint,
38.4804996,-120.3416432,4687.5007907481,128.937012,0,1.08706696392,18500,2018-07-07 00:35:04,17,0,23.793,4687.5007907481,128.937012,0.3131716,1.35399282548,0,0,-0.671082,107.6, 1.2, 2.5,0,0,1024,1024,1024,1024,106.8,-90,96,3.963,3.956,3.962,3.964,3.976,3.979,18.391,86,14,Waypoint,
38.4804996,-120.3416432,4688.4850427481,129.921264,0,1.08706696392,18600,2018-07-07 00:35:04,17,0,23.793,4688.4850427481,129.921264,0.3131716,1.35399282548,0,0,-0.671082,107.5, 0.9, 2.5,0,0,1024,1024,1024,1024,106.8,-90,96,3.963,3.956,3.962,3.964,3.976,3.979,18.391,86,14,Waypoint,
38.4804997,-120.3416433,4689.4692947481,130.905516,0,1.0934875678,18700,2018-07-07 00:35:04,17,0,23.793,4689.4692947481,130.905516,0.3131716,1.35399282548,0,0,-0.671082,107.5, 0.5, 2.5,0,0,1024,1024,1024,1024,106.8,-90,96,3.963,3.956,3.962,3.964,3.976,3.979,18.391,86,14,Waypoint,
38.4804997,-120.3416433,4690.4535467481,131.889768,0,1.0934875678,18800,2018-07-07 00:35:04,17,0,23.793,4690.4535467481,131.889768,0.3131716,1.35399282548,0,0,-0.671082,107.5, 0.6, 2.8,0,0,1024,1024,1024,1024,106.9,-90,96,3.963,3.956,3.962,3.964,3.976,3.979,18.391,86,14,Waypoint,
38.4804998,-120.3416433,4691.4377987481,132.87402,0,1.12054465528,18900,2018-07-07 00:35:04,17,0,23.793,4691.4377987481,132.87402,0.3131716,1.35399282548,0,0,-0.671082,107.5, 0.7, 3.2,0,0,1024,1024,1024,1024,106.8,-89.9,96,3.963,3.956,3.962,3.964,3.976,3.979,18.391,86,14,Waypoint,
38.4804998,-120.3416433,4692.4220507481,133.858272,0,1.12054465528,19000,2018-07-07 00:35:05,17,0,23.812,4692.4220507481,133.858272,0.3131716,1.35399282548,0,0,-0.671082,107.5, 0.9, 2.9,0,0,1024,1024,1024,1024,106.8,-89.9,96,3.96,3.963,3.951,3.959,3.962,3.985,17.277,86,14,Waypoint,
38.4804998,-120.3416433,4693.4063027481,134.842524,0,1.12054465528,19200,2018-07-07 00:35:05,17,0,23.812,4693.4063027481,134.842524,0.3131716,1.35399282548,0,0,-0.671082,107.6, 1.1, 2.5,0,0,1024,1024,1024,1024,106.8,-89.9,96,3.96,3.963,3.951,3.959,3.962,3.985,17.277,86,14,Waypoint,
38.4804998,-120.3416433,4694.3905547481,135.826776,0,1.12054465528,19300,2018-07-07 00:35:05,17,0,23.812,4694.3905547481,135.826776,0.3131716,1.35399282548,0,0,-0.671082,107.8, 1, 2.4,0,0,1024,1024,1024,1024,106.8,-90,96,3.96,3.963,3.951,3.959,3.962,3.985,17.277,86,14,Waypoint,
38.4804997,-120.3416434,4695.3748067481,136.811028,0,1.07429793464,19400,2018-07-07 00:35:05,17,0,23.812,4695.3748067481,136.811028,0.3131716,1.35399282548,0,0,-0.671082,108, 0.9, 2.3,0,0,1024,1024,1024,1024,106.8,-90,96,3.96,3.963,3.951,3.959,3.962,3.985,17.277,86,14,Waypoint,
38.4804997,-120.3416434,4696.0309747481,137.467196,0,1.07429793464,19500,2018-07-07 00:35:05,17,0,23.812,4696.0309747481,137.467196,0.3131716,1.35399282548,0,0,-0.671082,108.2, 0.7, 2,0,0,1024,1024,1024,1024,106.8,-90,96,3.96,3.963,3.951,3.959,3.962,3.985,17.277,86,14,Waypoint,
38.4804996,-120.3416434,4697.0152267481,138.451448,0,1.04731630648,19600,2018-07-07 00:35:05,17,0,23.812,4697.0152267481,138.451448,0.3131716,1.35399282548,0,0,-0.671082,108.4, 0.5, 1.7,0,0,1024,1024,1024,1024,106.9,-90,96,3.96,3.963,3.951,3.959,3.962,3.985,17.277,86,14,Waypoint,
38.4804995,-120.3416435,4698.9837307481,140.419952,0,1.00116144936,19800,2018-07-07 00:35:05,17,0,23.812,4698.9837307481,140.419952,0.3131716,1.35399282548,0,0,-0.671082,108.1, 1.1, 1.3,0,0,1024,1024,1024,1024,106.8,-89.9,96,3.96,3.963,3.951,3.959,3.962,3.985,17.277,86,14,Waypoint,
38.4804994,-120.3416435,4699.9679827481,141.404204,0,0.97489176348,19900,2018-07-07 00:35:05,17,0,23.812,4699.9679827481,141.404204,0.3131716,1.35399282548,0,0,-0.671082,107.9, 1.3, 1,0,0,1024,1024,1024,1024,106.8,-89.9,96,3.96,3.963,3.951,3.959,3.962,3.985,17.277,86,14,Waypoint,
38.4804993,-120.3416435,4700.9522347481,142.388456,0,0.9492946498,20000,2018-07-07 00:35:06,17,0,23.812,4700.9522347481,142.388456,0.3131716,1.35399282548,0,0,-0.671082,107.7, 1.3, 0.8,0,0,1024,1024,1024,1024,106.8,-89.9,96,3.964,3.972,3.955,3.976,3.967,3.995,17.277,86,14,Waypoint,
38.4804993,-120.3416436,4701.9364867481,143.372708,0,0.92888126332,20100,2018-07-07 00:35:06,17,0,23.812,4701.9364867481,143.372708,0.3131716,1.35399282548,0,0,-0.671082,107.6, 1.3, 0.7,0,0,1024,1024,1024,1024,106.8,-90,96,3.964,3.972,3.955,3.976,3.967,3.995,17.277,86,14,Waypoint,
38.4804992,-120.3416437,4703.9049907481,145.341212,0,0.88290357156,20200,2018-07-07 00:35:06,17,0,23.812,4703.9049907481,145.341212,0.3131716,1.35399282548,0,0,-0.671082,107.4, 0.7, 0.5,0,0,1024,1024,1024,1024,106.8,-90,96,3.964,3.972,3.955,3.976,3.967,3.995,17.277,86,14,Waypoint,
38.4804991,-120.3416438,4705.8734947481,147.309716,0,0.83696853072,20400,2018-07-07 00:35:06,17,0,23.812,4705.8734947481,147.309716,0.3131716,1.35399282548,0,0,-0.671082,107.3, 0.7, 0.7,0,0,1024,1024,1024,1024,106.8,-90,96,3.964,3.972,3.955,3.976,3.967,3.995,17.277,86,14,Waypoint,
38.480499,-120.3416438,4706.8577467481,148.293968,0,0.8119422832,20500,2018-07-07 00:35:06,17,0,23.812,4706.8577467481,148.293968,0.3131716,1.35399282548,0,0,-0.671082,107.3, 0.9, 0.6,0,0,1024,1024,1024,1024,106.8,-89.9,96,3.964,3.972,3.955,3.976,3.967,3.995,17.277,86,14,Waypoint,
38.4804989,-120.3416438,4708.8262507481,150.262472,0,0.787811705,20700,2018-07-07 00:35:06,17,0,23.812,4708.8262507481,150.262472,0.3131716,1.35399282548,0,0,-0.671082,107.7, 1.2, 0.4,0,0,1024,1024,1024,1024,106.9,-89.9,96,3.964,3.972,3.955,3.976,3.967,3.995,17.277,86,14,Waypoint,
38.4804989,-120.3416438,4709.8105027481,151.246724,0,0.787811705,20800,2018-07-07 00:35:06,17,0,23.812,4709.8105027481,151.246724,0.3131716,1.35399282548,0,0,-0.671082,107.9, 1.3, 0.4,0,0,1024,1024,1024,1024,106.8,-89.9,96,3.964,3.972,3.955,3.976,3.967,3.995,17.277,86,14,Waypoint,
38.4804989,-120.3416438,4710.7947547481,152.230976,0,0.787811705,20900,2018-07-07 00:35:06,17,0,23.812,4710.7947547481,152.230976,0.3131716,1.35399282548,0,0,-0.671082,108, 1.4, 0.6,0,0,1024,1024,1024,1024,106.8,-89.9,96,3.964,3.972,3.955,3.976,3.967,3.995,17.277,86,14,Waypoint,
38.4804989,-120.3416437,4711.7790067481,153.215228,0,0.80976708628,21000,2018-07-07 00:35:07,17,0,23.784,4711.7790067481,153.215228,0.3131716,1.35399282548,0,0,-0.671082,108.1, 1.6, 0.8,0,0,1024,1024,1024,1024,106.8,-89.9,96,3.94,3.937,3.953,3.967,3.97,3.979,18.885,86,14,Waypoint,
38.4804989,-120.3416437,4712.7632587481,154.19948,0,0.80976708628,21100,2018-07-07 00:35:07,17,0,23.784,4712.7632587481,154.19948,0.3131716,1.35399282548,0,0,-0.671082,108.1, 1.7, 1,0,0,1024,1024,1024,1024,106.9,-89.9,96,3.94,3.937,3.953,3.967,3.97,3.979,18.885,86,14,Waypoint,
38.4804989,-120.3416437,4713.7475107481,155.183732,0,0.80976708628,21200,2018-07-07 00:35:07,17,0,23.784,4713.7475107481,155.183732,0.3131716,1.35399282548,0,0,-0.671082,108.1, 1.7, 0.8,0,0,1024,1024,1024,1024,106.8,-89.9,96,3.94,3.937,3.953,3.967,3.97,3.979,18.885,86,14,Waypoint,
38.4804988,-120.3416437,4714.7317627481,156.167984,0,0.78726380472,21300,2018-07-07 00:35:07,17,0,23.784,4714.7317627481,156.167984,0.3131716,1.35399282548,0,0,-0.671082,108.1, 1.7, 0.8,0,0,1024,1024,1024,1024,106.8,-89.9,96,3.94,3.937,3.953,3.967,3.97,3.979,18.885,86,14,Waypoint,
38.4804988,-120.3416438,4715.7160147481,157.152236,0,0.76465881712,21500,2018-07-07 00:35:07,17,0,23.784,4715.7160147481,157.152236,0.3131716,1.35399282548,0,0,-0.671082,108.1, 1.5, 0.8,0,0,1024,1024,1024,1024,106.8,-89.9,96,3.94,3.937,3.953,3.967,3.97,3.979,18.885,86,14,Waypoint,
38.4804987,-120.3416438,4716.7002667481,158.136488,0,0.74258204476,21600,2018-07-07 00:35:07,18,0,23.784,4716.7002667481,158.136488,0.3131716,1.35399282548,0,0,-0.671082,108, 1.4, 0.7,0,0,1024,1024,1024,1024,106.9,-90,96,3.94,3.937,3.953,3.967,3.97,3.979,18.885,86,14,Waypoint,
38.4804987,-120.3416438,4717.6845187481,159.12074,0,0.74258204476,21700,2018-07-07 00:35:07,18,0,23.784,4717.6845187481,159.12074,0.3131716,1.35399282548,0,0,-0.671082,107.9, 1.4, 0.5,0,0,1024,1024,1024,1024,106.8,-89.9,96,3.94,3.937,3.953,3.967,3.97,3.979,18.885,86,14,Waypoint,
38.4804986,-120.3416439,4718.6687707481,160.104992,0,0.6981135394,21800,2018-07-07 00:35:07,18,0,23.784,4718.6687707481,160.104992,0.3131716,1.35399282548,0,0,-0.671082,107.9, 1.5, 0.2,0,0,1024,1024,1024,1024,106.9,-89.9,96,3.94,3.937,3.953,3.967,3.97,3.979,18.885,86,14,Waypoint,
38.4804986,-120.3416439,4719.6530227481,161.089244,0,0.6981135394,21900,2018-07-07 00:35:07,18,0,23.784,4719.6530227481,161.089244,0.3131716,1.35399282548,0,0,-0.671082,107.9, 1.5, 0.2,0,0,1024,1024,1024,1024,106.8,-89.9,96,3.94,3.937,3.953,3.967,3.97,3.979,18.885,86,14,Waypoint,
38.4804985,-120.3416439,4720.6372747481,162.073496,0,0.67779857812,22000,2018-07-07 00:35:08,18,0,23.657,4720.6372747481,162.073496,0.3131716,1.35399282548,0,0,-0.671082,108, 1.4, 0.3,0,0,1024,1024,1024,1024,106.9,-89.9,96,3.936,3.939,3.934,3.943,3.946,3.963,18.94,86,14,Waypoint,
38.4804984,-120.341644,4722.6057787481,164.042,0,0.63427495468,22100,2018-07-07 00:35:08,18,0,23.657,4722.6057787481,164.042,0.3131716,1.35399282548,0,0,-0.671082,108.1, 1.5, -0.2,0,0,1024,1024,1024,1024,106.9,-89.9,96,3.936,3.939,3.934,3.943,3.946,3.963,18.94,86,14,Waypoint,
38.4804983,-120.341644,4723.5900307481,165.026252,0,0.61617784124,22200,2018-07-07 00:35:08,18,0,23.657,4723.5900307481,165.026252,0.3131716,1.35399282548,0,0,-0.671082,108, 1.3, -0.5,0,0,1024,1024,1024,1024,106.9,-89.9,96,3.936,3.939,3.934,3.943,3.946,3.963,18.94,86,14,Waypoint,
38.4804983,-120.3416441,4724.5742827481,166.010504,0,0.59117784044,22300,2018-07-07 00:35:08,18,0,23.657,4724.5742827481,166.010504,0.3131716,1.35399282548,0,0,-0.671082,107.9, 1.1, -0.8,0,0,1024,1024,1024,1024,106.9,-90,96,3.936,3.939,3.934,3.943,3.946,3.963,18.94,86,14,Waypoint,
38.4804983,-120.3416441,4725.5585347481,166.994756,0,0.59117784044,22400,2018-07-07 00:35:08,18,0,23.657,4725.5585347481,166.994756,0.3131716,1.35399282548,0,0,-0.671082,107.7, 0.8, -0.7,0,0,1024,1024,1024,1024,106.9,-90,96,3.936,3.939,3.934,3.943,3.946,3.963,18.94,86,14,Waypoint,
38.4804983,-120.3416441,4726.5427867481,167.979008,0,0.59117784044,22500,2018-07-07 00:35:08,18,0,23.657,4726.5427867481,167.979008,0.3131716,1.35399282548,0,0,-0.671082,107.5, 0.9, -0.3,0,0,1024,1024,1024,1024,106.9,-90,96,3.936,3.939,3.934,3.943,3.946,3.963,18.94,86,14,Waypoint,
38.4804983,-120.3416441,4727.5270387481,168.96326,0,0.59117784044,22600,2018-07-07 00:35:08,18,0,23.657,4727.5270387481,168.96326,0.3131716,1.35399282548,0,0,-0.671082,107.5, 1.1, 0,0,0,1024,1024,1024,1024,106.9,-89.9,96,3.936,3.939,3.934,3.943,3.946,3.963,18.94,86,14,Waypoint,
38.4804983,-120.3416441,4728.5112907481,169.947512,0,0.59117784044,22700,2018-07-07 00:35:08,18,0,23.657,4728.5112907481,169.947512,0.3131716,1.35399282548,0,0,-0.671082,107.6, 1.3, 0.2,0,0,1024,1024,1024,1024,106.9,-89.9,96,3.936,3.939,3.934,3.943,3.946,3.963,18.94,86,14,Waypoint,
38.4804983,-120.3416441,4729.4955427481,170.931764,0,0.59117784044,22800,2018-07-07 00:35:08,18,0,23.657,4729.4955427481,170.931764,0.3131716,1.35399282548,0,0,-0.671082,107.7, 1.4, 0.4,0,0,1024,1024,1024,1024,106.9,-89.9,96,3.936,3.939,3.934,3.943,3.946,3.963,18.94,86,14,Waypoint,
38.4804983,-120.3416441,4730.4797947481,171.916016,0,0.59117784044,22900,2018-07-07 00:35:08,18,0,23.657,4730.4797947481,171.916016,0.3131716,1.35399282548,0,0,-0.671082,107.9, 1.6, 0.4,0,0,1024,1024,1024,1024,106.9,-89.9,96,3.936,3.939,3.934,3.943,3.946,3.963,18.94,86,14,Waypoint,
38.4804983,-120.3416441,4731.4640467481,172.900268,0,0.59117784044,23000,2018-07-07 00:35:09,18,0,23.705,4731.4640467481,172.900268,0.3131716,1.35399282548,0,0,-0.671082,108, 1.5, 0.4,0,0,1024,1024,1024,1024,106.9,-89.9,95,3.946,3.944,3.936,3.949,3.948,3.974,18.279,86,14,Waypoint,
38.4804983,-120.3416441,4732.4482987481,173.88452,0,0.59117784044,23100,2018-07-07 00:35:09,18,0,23.705,4732.4482987481,173.88452,0.3131716,1.35399282548,0,0,-0.671082,108.1, 1.3, 0.3,0,0,1024,1024,1024,1024,106.9,-90,95,3.946,3.944,3.936,3.949,3.948,3.974,18.279,86,14,Waypoint,
38.4804983,-120.3416442,4734.4168027481,175.853024,0,0.566519047,23300,2018-07-07 00:35:09,18,0,23.705,4734.4168027481,175.853024,0.3131716,1.35399282548,0,0,-0.671082,107.9, 0.8, 0.1,0,0,1024,1024,1024,1024,106.9,-90,95,3.946,3.944,3.936,3.949,3.948,3.974,18.279,86,14,Waypoint,
38.4804983,-120.3416442,4735.4010547481,176.837276,0,0.566519047,23500,2018-07-07 00:35:09,18,0,23.705,4735.4010547481,176.837276,0.3131716,1.35399282548,0,0,-0.671082,107.8, 0.9, 0.3,0,0,1024,1024,1024,1024,106.8,-90,95,3.946,3.944,3.936,3.949,3.948,3.974,18.279,86,14,Waypoint,
38.4804983,-120.3416442,4736.3853067481,177.821528,0,0.566519047,23600,2018-07-07 00:35:09,18,0,23.705,4736.3853067481,177.821528,0.3131716,1.35399282548,0,0,-0.671082,107.7, 1.1, 0.5,0,0,1024,1024,1024,1024,106.9,-90,95,3.946,3.944,3.936,3.949,3.948,3.974,18.279,86,14,Waypoint,
38.4804983,-120.3416442,4737.3695587481,178.80578,0,0.566519047,23700,2018-07-07 00:35:09,18,0,23.705,4737.3695587481,178.80578,0.3131716,1.35399282548,0,0,-0.671082,107.7, 1, 0.8,0,0,1024,1024,1024,1024,106.9,-90,95,3.946,3.944,3.936,3.949,3.948,3.974,18.279,86,14,Waypoint,
38.4804984,-120.3416442,4738.3538107481,179.790032,0,0.58615159356,23800,2018-07-07 00:35:09,18,0,23.705,4738.3538107481,179.790032,0.3131716,1.35399282548,0,0,-0.671082,107.7, 1, 0.9,0,0,1024,1024,1024,1024,106.9,-89.9,95,3.946,3.944,3.936,3.949,3.948,3.974,18.279,86,14,Waypoint,
38.4804984,-120.3416442,4739.3380627481,180.774284,0,0.58615159356,23900,2018-07-07 00:35:09,18,0,23.705,4739.3380627481,180.774284,0.3131716,1.35399282548,0,0,-0.671082,107.8, 1.1, 0.8,0,0,1024,1024,1024,1024,106.9,-89.9,95,3.946,3.944,3.936,3.949,3.948,3.974,18.279,86,14,Waypoint,
38.4804984,-120.3416441,4740.3223147481,181.758536,0,0.61001970456,24000,2018-07-07 00:35:10,18,0,23.676,4740.3223147481,181.758536,0.3131716,1.35399282548,0,0,-0.671082,108, 1.3, 0.8,0,0,1024,1024,1024,1024,106.9,-89.9,95,3.934,3.936,3.931,3.94,3.949,3.962,18.441,86,14,Waypoint,
38.4804984,-120.3416441,4741.3065667481,182.742788,0,0.61001970456,24100,2018-07-07 00:35:10,18,0,23.676,4741.3065667481,182.742788,0.3131716,1.35399282548,0,0,-0.671082,108.1, 1.3, 0.9,0,0,1024,1024,1024,1024,106.9,-89.9,95,3.934,3.936,3.931,3.94,3.949,3.962,18.441,86,14,Waypoint,
38.4804984,-120.3416441,4742.2908187481,183.72704,0,0.61001970456,24200,2018-07-07 00:35:10,18,0,23.676,4742.2908187481,183.72704,0.3131716,1.35399282548,0,0,-0.671082,108.2, 1.2, 0.7,0,0,1024,1024,1024,1024,106.9,-89.9,95,3.934,3.936,3.931,3.94,3.949,3.962,18.441,86,14,Waypoint,
38.4804985,-120.3416442,4744.2593227481,185.695544,0,0.60734253912,24300,2018-07-07 00:35:10,18,0,23.676,4744.2593227481,185.695544,0.3131716,1.35399282548,0,0,-0.671082,108.3, 1.1, 0.2,0,0,1024,1024,1024,1024,106.9,-90,95,3.934,3.936,3.931,3.94,3.949,3.962,18.441,86,14,Waypoint,
38.4804985,-120.3416442,4745.2435747481,186.679796,0,0.60734253912,24400,2018-07-07 00:35:10,18,0,23.676,4745.2435747481,186.679796,0.3131716,1.35399282548,0,0,-0.671082,108.3, 1, 0.4,0,0,1024,1024,1024,1024,106.9,-90,95,3.934,3.936,3.931,3.94,3.949,3.962,18.441,86,14,Waypoint,
38.4804986,-120.3416442,4746.2278267481,187.664048,0,0.62993440336,24500,2018-07-07 00:35:10,18,0,23.676,4746.2278267481,187.664048,0.3131716,1.35399282548,0,0,-0.671082,108.3, 1, 0.8,0,0,1024,1024,1024,1024,106.9,-90,95,3.934,3.936,3.931,3.94,3.949,3.962,18.441,86,14,Waypoint,
38.4804986,-120.3416442,4747.2120787481,188.6483,0,0.62993440336,24600,2018-07-07 00:35:10,18,0,23.676,4747.2120787481,188.6483,0.3131716,1.35399282548,0,0,-0.671082,108.3, 0.9, 1.3,0,0,1024,1024,1024,1024,106.9,-90,95,3.934,3.936,3.931,3.94,3.949,3.962,18.441,86,14,Waypoint,
38.4804987,-120.3416442,4748.1963307481,189.632552,0,0.65378611016,24700,2018-07-07 00:35:10,18,0,23.676,4748.1963307481,189.632552,0.3131716,1.35399282548,0,0,-0.671082,108.2, 0.9, 1.5,0,0,1024,1024,1024,1024,106.9,-90,95,3.934,3.936,3.931,3.94,3.949,3.962,18.441,86,14,Waypoint,
38.4804987,-120.3416443,4749.5086667481,190.944888,0,0.63286091264,24800,2018-07-07 00:35:10,18,0,23.676,4749.5086667481,190.944888,0.3131716,1.35399282548,0,0,-0.671082,108.1, 0.8, 1.3,0,0,1024,1024,1024,1024,106.9,-90,95,3.934,3.936,3.931,3.94,3.949,3.962,18.441,86,14,Waypoint,
38.4804988,-120.3416443,4750.1648347481,191.601056,0,0.65862863,24900,2018-07-07 00:35:10,18,0,23.676,4750.1648347481,191.601056,0.3131716,1.35399282548,0,0,-0.671082,107.9, 0.6, 0.9,0,0,1024,1024,1024,1024,106.9,-90,95,3.934,3.936,3.931,3.94,3.949,3.962,18.441,86,14,Waypoint,
38.4804988,-120.3416444,4752.1333387481,193.56956,0,0.63914372124,25100,2018-07-07 00:35:11,18,0,23.676,4752.1333387481,193.56956,0.3131716,1.35399282548,0,0,-0.671082,107.6, 0.4, 0.8,0,0,1024,1024,1024,1024,106.9,-90,95,3.934,3.936,3.931,3.94,3.949,3.962,18.441,86,14,Waypoint,
38.4804989,-120.3416445,4753.1175907481,194.553812,0,0.64868440396,25200,2018-07-07 00:35:11,18,0,23.676,4753.1175907481,194.553812,0.3131716,1.35399282548,0,0,-0.671082,107.5, 0.4, 0.9,0,0,1024,1024,1024,1024,106.9,-90,95,3.934,3.936,3.931,3.94,3.949,3.962,18.441,86,14,Waypoint,
38.4804989,-120.3416445,4754.1018427481,195.538064,0,0.64868440396,25300,2018-07-07 00:35:11,18,0,23.676,4754.1018427481,195.538064,0.3131716,1.35399282548,0,0,-0.671082,107.5, 0.4, 0.9,0,0,1024,1024,1024,1024,106.9,-90,95,3.934,3.936,3.931,3.94,3.949,3.962,18.441,86,14,Waypoint,
38.4804989,-120.3416445,4755.0860947481,196.522316,0,0.64868440396,25400,2018-07-07 00:35:11,18,0,23.676,4755.0860947481,196.522316,0.3131716,1.35399282548,0,0,-0.671082,107.6, 0.5, 1,0,0,1024,1024,1024,1024,106.9,-90,95,3.934,3.936,3.931,3.94,3.949,3.962,18.441,86,14,Waypoint,
38.480499,-120.3416445,4756.0703467481,197.506568,0,0.67778545476,25500,2018-07-07 00:35:11,18,0,23.676,4756.0703467481,197.506568,0.3131716,1.35399282548,0,0,-0.671082,107.8, 0.5, 0.9,0,0,1024,1024,1024,1024,106.9,-90,95,3.934,3.936,3.931,3.94,3.949,3.962,18.441,86,14,Waypoint,
38.480499,-120.3416445,4757.0545987481,198.49082,0,0.67778545476,25600,2018-07-07 00:35:11,18,0,23.676,4757.0545987481,198.49082,0.3131716,1.35399282548,0,0,-0.671082,107.9, 0.6, 1,0,0,1024,1024,1024,1024,106.9,-90,95,3.934,3.936,3.931,3.94,3.949,3.962,18.441,86,14,Waypoint,
38.480499,-120.3416446,4758.0388507481,199.475072,0,0.66133860384,25800,2018-07-07 00:35:11,18,0,23.676,4758.0388507481,199.475072,0.3131716,1.35399282548,0,0,-0.671082,108, 0.5, 1.1,0,0,1024,1024,1024,1024,106.9,-90,95,3.934,3.936,3.931,3.94,3.949,3.962,18.441,86,14,Waypoint,
38.4804991,-120.3416446,4760.0073547481,201.443576,0,0.69183401164,25900,2018-07-07 00:35:11,18,0,23.676,4760.0073547481,201.443576,0.3131716,1.35399282548,0,0,-0.671082,108.1, 0.4, 1,0,0,1024,1024,1024,1024,106.9,-90,95,3.934,3.936,3.931,3.94,3.949,3.962,18.441,86,14,Waypoint,
38.4804991,-120.3416447,4761.9758587481,203.41208,0,0.6769357172,26200,2018-07-07 00:35:12,18,0,23.676,4761.9758587481,203.41208,0.3131716,1.35399282548,0,0,-0.671082,108, 0, 0.7,0,0,1024,1024,1024,1024,106.9,-90,95,3.934,3.936,3.931,3.94,3.949,3.962,18.441,86,14,Waypoint,
38.4804991,-120.3416447,4762.9601107481,204.396332,0,0.6769357172,26300,2018-07-07 00:35:12,18,0,23.676,4762.9601107481,204.396332,0.3131716,1.35399282548,0,0,-0.671082,107.9, -0.2, 0.3,0,0,1024,1024,1024,1024,106.9,-90,95,3.934,3.936,3.931,3.94,3.949,3.962,18.441,86,14,Waypoint,
38.4804991,-120.3416447,4764.9286147481,206.364836,0,0.6769357172,26400,2018-07-07 00:35:12,18,0,23.676,4764.9286147481,206.364836,0.3131716,1.35399282548,0,0,-0.671082,107.7, 0.1, 0.7,0,0,1024,1024,1024,1024,106.9,-90,95,3.934,3.936,3.931,3.94,3.949,3.962,18.441,86,14,Waypoint,
38.4804991,-120.3416447,4765.9128667481,207.349088,0,0.6769357172,26500,2018-07-07 00:35:12,19,0,23.676,4765.9128667481,207.349088,0.3131716,1.35399282548,0,0,-0.671082,107.6, 0.2, 1.1,0,0,1024,1024,1024,1024,106.9,-89.9,95,3.934,3.936,3.931,3.94,3.949,3.962,18.441,86,14,Waypoint,
