latitude,longitude,altitude(feet),ascent(feet),speed(mph),distance(feet),time(millisecond),datetime(utc),satellites,gpslevel,voltage(v),max_altitude(feet),max_ascent(feet),max_speed(mph),max_distance(feet), xSpeed(mph), ySpeed(mph), zSpeed(mph), compass_heading(degrees), pitch(degrees), roll(degrees),isPhoto,isVideo,rc_elevator,rc_aileron,rc_throttle,rc_rudder,gimbal_heading(degrees),gimbal_pitch(degrees),battery_percent,voltageCell1,voltageCell2,voltageCell3,voltageCell4,voltageCell5,voltageCell6,current(A),battery_temperature(f),flycStateRaw,flycState,message
38.4803662,-120.3385615,4529.0165947317,0,0.223694,0,3000,2018-07-06 23:02:29,13,0,25.849,4529.0165947317,0,0.223694,0,0,0,0,74.5, -1.1, 0.5,1,0,1024,1024,1024,1024,73.7,-89.9,100,4.283,4.319,4.294,4.314,4.32,4.292,4.078,82.4,11,AutoTakeoff,DJI_0001.jpg Starting Mission from Lat/Long: 38.48035/-120.33855 Camera: Zenmuse X3 - Overlap: 90/90 - Active Connection: No
38.4803662,-120.3385614,4529.0165947317,0,0.223694,0.028561188578,3200,2018-07-06 23:02:29,13,0,25.849,4529.0165947317,0,0.223694,0.028561188578,0,0,0,74.5, -0.4, 0.5,0,0,1024,1024,1024,1024,73.7,-89.9,100,4.283,4.319,4.294,4.314,4.32,4.292,4.078,82.4,11,AutoTakeoff,
38.4803663,-120.3385613,4529.0165947317,0,0.223694,0.067779857812,3300,2018-07-06 23:02:29,13,0,25.849,4529.0165947317,0,0.223694,0.067779857812,0,0,0,74.6, 0, 0.1,0,0,1024,1024,1024,1024,73.7,-89.9,100,4.283,4.319,4.294,4.314,4.32,4.292,4.078,82.4,11,AutoTakeoff,
38.4803664,-120.3385611,4529.0165947317,0,0.223694,0.135559715624,3400,2018-07-06 23:02:29,13,0,25.849,4529.0165947317,0,0.223694,0.135559715624,0,0,0,74.6, 0.2, 0.2,0,0,1024,1024,1024,1024,73.7,-89.9,100,4.283,4.319,4.294,4.314,4.32,4.292,4.078,82.4,11,AutoTakeoff,
38.4803665,-120.338561,4529.0165947317,0,0.223694,0.179927499196,3500,2018-07-06 23:02:29,13,0,25.849,4529.0165947317,0,0.223694,0.179927499196,0,0,0,74.5, 0.6, 0.2,0,0,1024,1024,1024,1024,73.7,-89.9,100,4.283,4.319,4.294,4.314,4.32,4.292,4.078,82.4,11,AutoTakeoff,
38.4803666,-120.3385609,4529.3446787317,0.328084,0.223694,0.225089246048,3600,2018-07-06 23:02:30,13,0,25.849,4529.3446787317,0.328084,0.223694,0.225089246048,0,0,0,74.4, 1.1, 0.1,0,0,1024,1024,1024,1024,73.7,-89.9,100,4.283,4.319,4.294,4.314,4.32,4.292,4.078,82.4,11,AutoTakeoff,
38.4803667,-120.3385607,4529.3446787317,0.328084,0.223694,0.2923802587,3700,2018-07-06 23:02:30,13,0,25.849,4529.3446787317,0.328084,0.223694,0.2923802587,0,0,0,74.4, 1.4, 0.4,0,0,1024,1024,1024,1024,73.7,-89.9,100,4.283,4.319,4.294,4.314,4.32,4.292,4.078,82.4,11,AutoTakeoff,
38.4803668,-120.3385606,4529.6727627317,0.656168,0.223694,0.33763452524,3800,2018-07-06 23:02:30,12,0,25.849,4529.6727627317,0.656168,0.223694,0.33763452524,0,0,0,74.3, 1.6, 0.5,0,0,1024,1024,1024,1024,73.7,-89.9,100,4.283,4.319,4.294,4.314,4.32,4.292,4.078,82.4,11,AutoTakeoff,
38.4803669,-120.3385603,4529.6727627317,0.656168,0.223694,0.4274278352,3900,2018-07-06 23:02:30,12,0,25.849,4529.6727627317,0.656168,0.223694,0.4274278352,0,0,0,74.2, 1.7, 0.2,0,0,1024,1024,1024,1024,73.7,-89.9,100,4.283,4.319,4.294,4.314,4.32,4.292,4.078,82.4,11,AutoTakeoff,
38.480367,-120.3385603,4530.0008467317,0.984252,0,0.45017717976,4000,2018-07-06 23:02:30,12,0,25.255,4530.0008467317,0.984252,0.223694,0.45017717976,0,0,0,74.1, 1.7, 0.1,0,0,1024,1024,1024,1024,73.7,-89.9,100,4.173,4.191,4.156,4.19,4.182,4.173,10.286,82.4,11,AutoTakeoff,
38.480367,-120.3385602,4530.0008467317,0.984252,0,0.47228676052,4100,2018-07-06 23:02:30,11,0,25.255,4530.0008467317,0.984252,0.223694,0.47228676052,0,0,0,74, 1.6, -0.1,0,0,1024,1024,1024,1024,73.7,-89.9,100,4.173,4.191,4.156,4.19,4.182,4.173,10.286,82.4,11,AutoTakeoff,
38.4803669,-120.3385601,4530.3289307317,1.312336,0,0.4744586766,4200,2018-07-06 23:02:30,11,0,25.255,4530.3289307317,1.312336,0.223694,0.4744586766,0,0,0,74, 1.5, -0.2,0,0,1024,1024,1024,1024,73.7,-89.9,100,4.173,4.191,4.156,4.19,4.182,4.173,10.286,82.4,11,AutoTakeoff,
38.4803669,-120.33856,4530.3289307317,1.312336,0,0.49876642016,4300,2018-07-06 23:02:30,11,0,25.255,4530.3289307317,1.312336,0.223694,0.49876642016,0,0,-0.223694,74, 1.5, -0.2,0,0,1024,1024,1024,1024,73.7,-89.9,100,4.173,4.191,4.156,4.19,4.182,4.173,10.286,82.4,11,AutoTakeoff,
38.480367,-120.33856,4530.6570147317,1.64042,0,0.51839568588,4400,2018-07-06 23:02:30,11,0,25.255,4530.6570147317,1.64042,0.223694,0.51839568588,0,0,-0.223694,74.1, 1.5, -0.2,0,0,1024,1024,1024,1024,73.7,-89.9,100,4.173,4.191,4.156,4.19,4.182,4.173,10.286,82.4,11,AutoTakeoff,
38.4803671,-120.33856,4530.9850987317,1.968504,0,0.53978348184,4500,2018-07-06 23:02:30,10,0,25.255,4530.9850987317,1.968504,0.223694,0.53978348184,0,0,-0.223694,74.1, 1.5, -0.1,0,0,1024,1024,1024,1024,73.7,-89.9,100,4.173,4.191,4.156,4.19,4.182,4.173,10.286,82.4,11,AutoTakeoff,
38.4803673,-120.33856,4530.9850987317,1.968504,0,0.58703742036,4600,2018-07-06 23:02:31,10,0,25.255,4530.9850987317,1.968504,0.223694,0.58703742036,0,0,-0.223694,74.2, 1.7, 0.2,0,0,1024,1024,1024,1024,73.7,-89.9,100,4.173,4.191,4.156,4.19,4.182,4.173,10.286,82.4,11,AutoTakeoff,
38.4803674,-120.33856,4531.3131827317,2.296588,0,0.61255907472,4700,2018-07-06 23:02:31,10,0,25.255,4531.3131827317,2.296588,0.223694,0.61255907472,0,0,0,74.3, 1.8, 0.5,0,0,1024,1024,1024,1024,73.7,-89.9,100,4.173,4.191,4.156,4.19,4.182,4.173,10.286,82.4,11,AutoTakeoff,
38.4803675,-120.3385601,4531.3131827317,2.296588,0,0.62036419308,4800,2018-07-06 23:02:31,10,0,25.255,4531.3131827317,2.296588,0.223694,0.62036419308,0,0,-0.223694,74.3, 1.8, 0.8,0,0,1024,1024,1024,1024,73.7,-89.9,100,4.173,4.191,4.156,4.19,4.182,4.173,10.286,82.4,11,AutoTakeoff,
38.4803675,-120.3385601,4531.6412667317,2.624672,0,0.62036419308,4900,2018-07-06 23:02:31,10,0,25.255,4531.6412667317,2.624672,0.223694,0.62036419308,0,0,0,74.4, 1.7, 1,0,0,1024,1024,1024,1024,73.7,-89.9,100,4.173,4.191,4.156,4.19,4.182,4.173,10.286,82.4,11,AutoTakeoff,
38.4803675,-120.3385602,4531.6412667317,2.624672,0,0.60234910064,5000,2018-07-06 23:02:31,10,0,24.712,4531.6412667317,2.624672,0.223694,0.62036419308,0,0,-0.223694,74.4, 1.5, 1,0,0,1024,1024,1024,1024,73.7,-89.9,100,4.104,4.126,4.097,4.113,4.116,4.103,16.306,82.4,11,AutoTakeoff,
38.4803675,-120.3385603,4531.9693507317,2.952756,0,0.58517718408,5100,2018-07-06 23:02:31,10,0,24.712,4531.9693507317,2.952756,0.223694,0.62036419308,0,0,0,74.5, 1.4, 1,0,0,1024,1024,1024,1024,73.7,-89.9,100,4.104,4.126,4.097,4.113,4.116,4.103,16.306,82.4,14,Waypoint,
38.4803674,-120.3385603,4531.9693507317,2.952756,0,0.55601379732,5200,2018-07-06 23:02:31,10,0,24.712,4531.9693507317,2.952756,0.223694,0.62036419308,0,0,0,74.5, 1.1, 0.8,0,0,1024,1024,1024,1024,73.7,-89.9,100,4.104,4.126,4.097,4.113,4.116,4.103,16.306,82.4,14,Waypoint,
38.4803673,-120.3385604,4532.2974347317,3.28084,0,0.50968177484,5300,2018-07-06 23:02:31,10,0,24.712,4532.2974347317,3.28084,0.223694,0.62036419308,0,0,0,74.6, 0.1, 0,0,0,1024,1024,1024,1024,73.7,-90,100,4.104,4.126,4.097,4.113,4.116,4.103,16.306,82.4,14,Waypoint,
38.4803672,-120.3385603,4532.2974347317,3.28084,0,0.50058072468,5500,2018-07-06 23:02:31,10,0,24.712,4532.2974347317,3.28084,0.223694,0.62036419308,0,0,0,74.7, -0.3, -0.5,0,0,1024,1024,1024,1024,73.7,-90,100,4.104,4.126,4.097,4.113,4.116,4.103,16.306,82.4,14,Waypoint,
38.4803671,-120.3385603,4532.2974347317,3.28084,0,0.47464568448,5600,2018-07-06 23:02:32,11,0,24.712,4532.2974347317,3.28084,0.223694,0.62036419308,0,0,0,74.7, -0.3, -0.8,0,0,1024,1024,1024,1024,73.7,-90,100,4.104,4.126,4.097,4.113,4.116,4.103,16.306,82.4,14,Waypoint,
38.480367,-120.3385604,4532.6255187317,3.608924,0,0.42883531556,5700,2018-07-06 23:02:32,11,0,24.712,4532.6255187317,3.608924,0.223694,0.62036419308,0,0,0,74.8, -0.1, -0.9,0,0,1024,1024,1024,1024,73.7,-89.9,100,4.104,4.126,4.097,4.113,4.116,4.103,16.306,82.4,14,Waypoint,
38.480367,-120.3385604,4532.6255187317,3.608924,0,0.42883531556,5800,2018-07-06 23:02:32,11,0,24.712,4532.6255187317,3.608924,0.223694,0.62036419308,0,0,-0.223694,74.8, 0.1, -0.9,0,0,1024,1024,1024,1024,73.7,-89.9,100,4.104,4.126,4.097,4.113,4.116,4.103,16.306,82.4,14,Waypoint,
38.480367,-120.3385604,4532.9536027317,3.937008,0,0.42883531556,5900,2018-07-06 23:02:32,11,0,24.712,4532.9536027317,3.937008,0.223694,0.62036419308,0,0,-0.223694,74.9, 0.2, -0.8,0,0,1024,1024,1024,1024,73.7,-89.9,100,4.104,4.126,4.097,4.113,4.116,4.103,16.306,82.4,14,Waypoint,
38.480367,-120.3385604,4533.2816867317,4.265092,0,0.42883531556,6000,2018-07-06 23:02:32,12,0,24.553,4533.2816867317,4.265092,0.223694,0.62036419308,0,0,-0.223694,74.9, 0.4, -0.6,0,0,1024,1024,1024,1024,73.7,-89.9,98,4.071,4.105,4.097,4.091,4.095,4.09,16.349,82.4,14,Waypoint,
38.4803671,-120.3385604,4533.6097707317,4.593176,0,0.45445211428,6100,2018-07-06 23:02:32,12,0,24.553,4533.6097707317,4.593176,0.223694,0.62036419308,0,0,-0.223694,74.9, 0.5, -0.4,0,0,1024,1024,1024,1024,73.7,-89.9,98,4.071,4.105,4.097,4.091,4.095,4.09,16.349,82.4,14,Waypoint,
38.4803672,-120.3385603,4533.9378547317,4.92126,0,0.50058072468,6200,2018-07-06 23:02:32,12,0,24.553,4533.9378547317,4.92126,0.223694,0.62036419308,0,0,-0.223694,74.9, 0.7, -0.1,0,0,1024,1024,1024,1024,73.7,-89.9,98,4.071,4.105,4.097,4.091,4.095,4.09,16.349,82.4,14,Waypoint,
38.4803674,-120.3385603,4534.2659387317,5.249344,0,0.55601379732,6300,2018-07-06 23:02:32,12,0,24.553,4534.2659387317,5.249344,0.223694,0.62036419308,0,0,-0.447388,74.9, 0.7, 0.2,0,0,1024,1024,1024,1024,73.7,-89.9,98,4.071,4.105,4.097,4.091,4.095,4.09,16.349,82.4,14,Waypoint,
38.4803678,-120.3385604,4535.5782747317,6.56168,0,0.66293309208,6400,2018-07-06 23:02:32,11,0,24.553,4535.5782747317,6.56168,0.223694,0.66293309208,0,0,-0.447388,74.7, 1.1, 0.8,0,0,1024,1024,1024,1024,73.7,-89.9,98,4.071,4.105,4.097,4.091,4.095,4.09,16.349,82.4,14,Waypoint,
38.4803681,-120.3385605,4536.5625267317,7.545932,0,0.74974739932,6500,2018-07-06 23:02:32,12,0,24.553,4536.5625267317,7.545932,0.223694,0.74974739932,0,0,-0.447388,74.4, 1, 1,0,0,1024,1024,1024,1024,73.7,-89.9,98,4.071,4.105,4.097,4.091,4.095,4.09,16.349,82.4,14,Waypoint,
38.4803684,-120.3385605,4537.2186947317,8.2021,0.223694,0.8519685312,6600,2018-07-06 23:02:33,12,0,24.553,4537.2186947317,8.2021,0.223694,0.8519685312,0,0,-0.671082,74.3, 1, 1.3,0,0,1024,1024,1024,1024,73.7,-89.9,98,4.071,4.105,4.097,4.091,4.095,4.09,16.349,82.4,14,Waypoint,
38.4803687,-120.3385606,4538.2029467317,9.186352,0,0.94765094896,6700,2018-07-06 23:02:33,11,0,24.553,4538.2029467317,9.186352,0.223694,0.94765094896,0,0,-0.671082,74.2, 0.8, 1.6,0,0,1024,1024,1024,1024,73.7,-89.9,98,4.071,4.105,4.097,4.091,4.095,4.09,16.349,82.4,14,Waypoint,
38.4803689,-120.3385607,4539.1871987317,10.170604,0,1.01124347068,6800,2018-07-06 23:02:33,11,0,24.553,4539.1871987317,10.170604,0.223694,1.01124347068,0,0,-0.671082,74.2, 0.8, 1.9,0,0,1024,1024,1024,1024,73.7,-89.9,98,4.071,4.105,4.097,4.091,4.095,4.09,16.349,82.4,14,Waypoint,
38.4803691,-120.3385608,4540.1714507317,11.154856,0,1.0767880922,6900,2018-07-06 23:02:33,11,0,24.553,4540.1714507317,11.154856,0.223694,1.0767880922,0,0,-0.671082,74.3, 0.8, 2.2,0,0,1024,1024,1024,1024,73.7,-89.9,98,4.071,4.105,4.097,4.091,4.095,4.09,16.349,82.4,14,Waypoint,
38.4803692,-120.3385608,4541.1557027317,12.139108,0,1.11265751592,7000,2018-07-06 23:02:33,11,0,24.464,4541.1557027317,12.139108,0.223694,1.11265751592,0,0,-0.671082,74.4, 0.7, 2.3,0,0,1024,1024,1024,1024,73.7,-89.9,98,4.023,4.078,4.031,4.062,4.058,4.019,16.53,82.4,14,Waypoint,
38.4803693,-120.3385609,4542.1399547317,13.12336,0,1.14394032532,7100,2018-07-06 23:02:33,12,0,24.464,4542.1399547317,13.12336,0.223694,1.14394032532,0,0,-0.671082,74.5, 0.8, 2.1,0,0,1024,1024,1024,1024,73.7,-89.9,98,4.023,4.078,4.031,4.062,4.058,4.019,16.53,82.4,14,Waypoint,
38.4803694,-120.3385609,4543.1242067317,14.107612,0,1.18002628448,7200,2018-07-06 23:02:33,12,0,24.464,4543.1242067317,14.107612,0.223694,1.18002628448,0,0,-0.671082,74.6, 0.9, 1.9,0,0,1024,1024,1024,1024,73.7,-89.9,98,4.023,4.078,4.031,4.062,4.058,4.019,16.53,82.4,14,Waypoint,
38.4803694,-120.3385609,4544.4365427317,15.419948,0,1.18002628448,7300,2018-07-06 23:02:33,11,0,24.464,4544.4365427317,15.419948,0.223694,1.18002628448,0,0,-0.671082,74.6, 0.8, 1.7,0,0,1024,1024,1024,1024,73.7,-89.9,98,4.023,4.078,4.031,4.062,4.058,4.019,16.53,82.4,14,Waypoint,
38.4803694,-120.3385609,4545.4207947317,16.4042,0,1.18002628448,7400,2018-07-06 23:02:33,11,0,24.464,4545.4207947317,16.4042,0.223694,1.18002628448,0,0,-0.671082,74.6, 0.7, 1.6,0,0,1024,1024,1024,1024,73.7,-89.9,98,4.023,4.078,4.031,4.062,4.058,4.019,16.53,82.4,14,Waypoint,
38.4803695,-120.338561,4546.7331307317,17.716536,0,1.21244098368,7600,2018-07-06 23:02:34,11,0,24.464,4546.7331307317,17.716536,0.223694,1.21244098368,0,0,-0.671082,74.6, 0.6, 1.4,0,0,1024,1024,1024,1024,73.7,-89.9,98,4.023,4.078,4.031,4.062,4.058,4.019,16.53,82.4,14,Waypoint,
38.4803697,-120.3385612,4547.7173827317,18.700788,0,1.27984584148,7700,2018-07-06 23:02:34,11,0,24.464,4547.7173827317,18.700788,0.223694,1.27984584148,0,0,-0.671082,74.6, 0.4, 1.3,0,0,1024,1024,1024,1024,73.7,-89.9,98,4.023,4.078,4.031,4.062,4.058,4.019,16.53,82.4,14,Waypoint,
38.4803697,-120.3385613,4548.7016347317,19.68504,0,1.27825135324,7800,2018-07-06 23:02:34,11,0,24.464,4548.7016347317,19.68504,0.223694,1.27984584148,0,0,-0.671082,74.6, 0.1, 1.6,0,0,1024,1024,1024,1024,73.7,-90,98,4.023,4.078,4.031,4.062,4.058,4.019,16.53,82.4,14,Waypoint,
38.4803696,-120.3385613,4550.0139707317,20.997376,0,1.24180122084,7900,2018-07-06 23:02:34,11,0,24.464,4550.0139707317,20.997376,0.223694,1.27984584148,0,0,-0.671082,74.6, 0, 1.8,0,0,1024,1024,1024,1024,73.7,-90,98,4.023,4.078,4.031,4.062,4.058,4.019,16.53,82.4,14,Waypoint,
38.4803695,-120.3385614,4550.9982227317,21.981628,0,1.20434058972,8000,2018-07-06 23:02:34,13,0,23.871,4550.9982227317,21.981628,0.223694,1.27984584148,0,0,-0.671082,74.7, -0.1, 1.6,0,0,1024,1024,1024,1024,73.7,-90,98,3.95,3.992,3.975,3.978,4.002,3.991,23.12,82.4,14,Waypoint,
38.4803693,-120.3385615,4551.9824747317,22.96588,0.223694,1.13103350076,8100,2018-07-06 23:02:34,13,0,23.871,4551.9824747317,22.96588,0.223694,1.27984584148,0,0,-0.671082,74.7, -0.1, 1.2,0,0,1024,1024,1024,1024,73.7,-90,98,3.95,3.992,3.975,3.978,4.002,3.991,23.12,82.4,14,Waypoint,
38.480369,-120.3385617,4554.2790627317,25.262468,0.223694,1.02317260492,8200,2018-07-06 23:02:34,13,0,23.871,4554.2790627317,25.262468,0.223694,1.27984584148,0,0,-0.671082,74.7, -0.2, 0.6,0,0,1024,1024,1024,1024,73.7,-90,98,3.95,3.992,3.975,3.978,4.002,3.991,23.12,82.4,14,Waypoint,
38.4803687,-120.3385617,4555.2633147317,26.24672,0.223694,0.9139107904,8300,2018-07-06 23:02:34,12,0,23.871,4555.2633147317,26.24672,0.223694,1.27984584148,0,0,-0.671082,74.7, -0.5, 0.3,0,0,1024,1024,1024,1024,73.7,-90,98,3.95,3.992,3.975,3.978,4.002,3.991,23.12,82.4,14,Waypoint,
38.4803684,-120.3385616,4556.2475667317,27.230972,0.223694,0.80317587872,8400,2018-07-06 23:02:34,12,0,23.871,4556.2475667317,27.230972,0.223694,1.27984584148,0,0,-0.671082,74.6, -0.5, 0,0,0,1024,1024,1024,1024,73.7,-90,98,3.95,3.992,3.975,3.978,4.002,3.991,23.12,82.4,14,Waypoint,
38.4803682,-120.3385616,4557.2318187317,28.215224,0.223694,0.73025920972,8500,2018-07-06 23:02:34,12,0,23.871,4557.2318187317,28.215224,0.223694,1.27984584148,0,0,-0.671082,74.6, -0.3, -0.7,0,0,1024,1024,1024,1024,73.7,-90,98,3.95,3.992,3.975,3.978,4.002,3.991,23.12,82.4,14,Waypoint,
38.480368,-120.3385616,4558.2160707317,29.199476,0.223694,0.6573491024,8600,2018-07-06 23:02:35,12,0,23.871,4558.2160707317,29.199476,0.223694,1.27984584148,0,0,-0.671082,74.6, -0.1, -1,0,0,1024,1024,1024,1024,73.7,-89.9,98,3.95,3.992,3.975,3.978,4.002,3.991,23.12,82.4,14,Waypoint,
38.4803677,-120.3385616,4559.5284067317,30.511812,0.223694,0.54801839024,8700,2018-07-06 23:02:35,11,0,23.871,4559.5284067317,30.511812,0.223694,1.27984584148,0,0,-0.671082,74.6, 0, -1.1,0,0,1024,1024,1024,1024,73.7,-89.9,98,3.95,3.992,3.975,3.978,4.002,3.991,23.12,82.4,14,Waypoint,
38.4803674,-120.3385615,4560.5126587317,31.496064,0.223694,0.43781825548,8800,2018-07-06 23:02:35,11,0,23.871,4560.5126587317,31.496064,0.223694,1.27984584148,0,0,-0.671082,74.7, 0, -1.4,0,0,1024,1024,1024,1024,73.7,-89.9,98,3.95,3.992,3.975,3.978,4.002,3.991,23.12,82.4,14,Waypoint,
38.4803671,-120.3385613,4561.4969107317,32.480316,0.223694,0.33329725476,8900,2018-07-06 23:02:35,12,0,23.871,4561.4969107317,32.480316,0.223694,1.27984584148,0,0,-0.671082,74.8, 0.2, -1.7,0,0,1024,1024,1024,1024,73.7,-89.9,98,3.95,3.992,3.975,3.978,4.002,3.991,23.12,82.4,14,Waypoint,
38.4803668,-120.3385611,4562.4811627317,33.464568,0.3131716,0.246927829424,9000,2018-07-06 23:02:35,12,0,24.132,4562.4811627317,33.464568,0.3131716,1.27984584148,0,0,-0.671082,74.8, 0.5, -2,0,0,1024,1024,1024,1024,73.7,-89.9,98,3.95,3.992,3.975,3.978,4.002,3.991,19.257,82.4,14,Waypoint,
38.4803666,-120.3385611,4563.4654147317,34.44882,0,0.185338260524,9100,2018-07-06 23:02:35,12,0,24.132,4563.4654147317,34.44882,0.3131716,1.27984584148,0,0,-0.671082,74.9, 0.8, -2,0,0,1024,1024,1024,1024,73.7,-89.9,98,3.95,3.992,3.975,3.978,4.002,3.991,19.257,82.4,14,Waypoint,
38.4803664,-120.3385611,4564.4496667317,35.433072,0,0.135559715624,9200,2018-07-06 23:02:35,12,0,24.132,4564.4496667317,35.433072,0.3131716,1.27984584148,0,0,-0.671082,74.9, 1, -1.9,0,0,1024,1024,1024,1024,73.7,-89.9,98,3.95,3.992,3.975,3.978,4.002,3.991,19.257,82.4,14,Waypoint,
38.4803662,-120.338561,4565.4339187317,36.417324,0,0.142806106932,9300,2018-07-06 23:02:35,14,0,24.132,4565.4339187317,36.417324,0.3131716,1.27984584148,0,0,-0.671082,74.8, 0.8, -1.8,0,0,1024,1024,1024,1024,73.7,-89.9,98,3.95,3.992,3.975,3.978,4.002,3.991,19.257,82.4,14,Waypoint,
38.480366,-120.3385608,4566.7462547317,37.72966,0,0.212828418884,9400,2018-07-06 23:02:35,14,0,24.132,4566.7462547317,37.72966,0.3131716,1.27984584148,0,0,-0.671082,74.8, 0.7, -1.6,0,0,1024,1024,1024,1024,73.7,-89.9,98,3.95,3.992,3.975,3.978,4.002,3.991,19.257,82.4,14,Waypoint,
38.4803657,-120.3385608,4567.7305067317,38.713912,0,0.270647646456,9500,2018-07-06 23:02:35,12,0,24.132,4567.7305067317,38.713912,0.3131716,1.27984584148,0,0,-0.671082,74.8, 0.5, -1.7,0,0,1024,1024,1024,1024,73.7,-90,98,3.95,3.992,3.975,3.978,4.002,3.991,19.257,82.4,14,Waypoint,
38.4803655,-120.3385608,4568.7147587317,39.698164,0,0.324341873896,9700,2018-07-06 23:02:36,12,0,24.132,4568.7147587317,39.698164,0.3131716,1.27984584148,0,0,-0.671082,74.7, 0.3, -1.8,0,0,1024,1024,1024,1024,73.7,-90,98,3.95,3.992,3.975,3.978,4.002,3.991,19.257,82.4,14,Waypoint,
38.4803652,-120.3385606,4569.6990107317,40.682416,0,0.44630578856,9800,2018-07-06 23:02:36,13,0,24.132,4569.6990107317,40.682416,0.3131716,1.27984584148,0,0,-0.671082,74.5, 0, -2.1,0,0,1024,1024,1024,1024,73.7,-90,98,3.95,3.992,3.975,3.978,4.002,3.991,19.257,82.4,14,Waypoint,
38.4803651,-120.3385603,4570.6832627317,41.666668,0,0.52776576492,9900,2018-07-06 23:02:36,13,0,24.132,4570.6832627317,41.666668,0.3131716,1.27984584148,0,0,-0.671082,74.4, 0, -2.4,0,0,1024,1024,1024,1024,73.7,-89.9,98,3.95,3.992,3.975,3.978,4.002,3.991,19.257,82.4,14,Waypoint,
38.480365,-120.3385602,4571.9955987317,42.979004,0,0.57406169816,10000,2018-07-06 23:02:36,12,0,24.132,4571.9955987317,42.979004,0.3131716,1.27984584148,0,0,-0.671082,74.3, 0.4, -2.6,0,0,1024,1024,1024,1024,73.7,-89.9,98,4.004,4.039,4.032,4.024,4.023,4.028,19.257,82.4,14,Waypoint,
38.4803649,-120.3385601,4572.9798507317,43.963256,0,0.62036419308,10100,2018-07-06 23:02:36,12,0,24.132,4572.9798507317,43.963256,0.3131716,1.27984584148,0,0,-0.671082,74.3, 0.7, -2.5,0,0,1024,1024,1024,1024,73.7,-89.9,98,4.004,4.039,4.032,4.024,4.023,4.028,19.257,82.4,14,Waypoint,
38.4803648,-120.33856,4573.9641027317,44.947508,0,0.66666996884,10200,2018-07-06 23:02:36,13,0,24.132,4573.9641027317,44.947508,0.3131716,1.27984584148,0,0,-0.671082,74.4, 0.7, -2.2,0,0,1024,1024,1024,1024,73.7,-89.9,98,4.004,4.039,4.032,4.024,4.023,4.028,19.257,82.4,14,Waypoint,
38.4803647,-120.3385599,4574.9483547317,45.93176,0,0.71297902544,10300,2018-07-06 23:02:36,13,0,24.132,4574.9483547317,45.93176,0.3131716,1.27984584148,0,0,-0.671082,74.4, 0.7, -2.1,0,0,1024,1024,1024,1024,73.7,-89.9,98,4.004,4.039,4.032,4.024,4.023,4.028,19.257,82.4,14,Waypoint,
38.4803646,-120.3385598,4575.9326067317,46.916012,0,0.75929136288,10400,2018-07-06 23:02:36,13,0,24.132,4575.9326067317,46.916012,0.3131716,1.27984584148,0,0,-0.671082,74.4, 1, -2.1,0,0,1024,1024,1024,1024,73.7,-89.9,98,4.004,4.039,4.032,4.024,4.023,4.028,19.257,82.4,14,Waypoint,
38.4803646,-120.3385597,4576.9168587317,47.900264,0,0.77786419812,10500,2018-07-06 23:02:36,13,0,24.132,4576.9168587317,47.900264,0.3131716,1.27984584148,0,0,-0.671082,74.4, 1.1, -2.1,0,0,1024,1024,1024,1024,73.7,-89.9,98,4.004,4.039,4.032,4.024,4.023,4.028,19.257,82.4,14,Waypoint,
38.4803645,-120.3385594,4578.8853627317,49.868768,0,0.8628117074,10600,2018-07-06 23:02:37,13,0,24.132,4578.8853627317,49.868768,0.3131716,1.27984584148,0,0,-0.671082,74.5, 1, -2.1,0,0,1024,1024,1024,1024,73.7,-89.9,98,4.004,4.039,4.032,4.024,4.023,4.028,19.257,82.4,14,Waypoint,
38.4803645,-120.3385592,4580.8538667317,51.837272,0.223694,0.90345475332,10800,2018-07-06 23:02:37,13,0,24.132,4580.8538667317,51.837272,0.3131716,1.27984584148,0,0,-0.671082,74.5, 1, -1.8,0,0,1024,1024,1024,1024,73.7,-89.9,98,4.004,4.039,4.032,4.024,4.023,4.028,19.257,82.4,14,Waypoint,
38.4803645,-120.3385592,4581.8381187317,52.821524,0.223694,0.90345475332,10900,2018-07-06 23:02:37,14,0,24.132,4581.8381187317,52.821524,0.3131716,1.27984584148,0,0,-0.671082,74.5, 0.9, -1.9,0,0,1024,1024,1024,1024,73.7,-89.9,98,4.004,4.039,4.032,4.024,4.023,4.028,19.257,82.4,14,Waypoint,
38.4803646,-120.3385591,4582.8223707317,53.805776,0.223694,0.90035764036,11000,2018-07-06 23:02:37,14,0,24.136,4582.8223707317,53.805776,0.3131716,1.27984584148,0,0,-0.671082,74.6, 0.7, -1.8,0,0,1024,1024,1024,1024,73.7,-89.9,98,4,4.034,4.032,4.021,4.019,4.018,18.777,82.4,14,Waypoint,
38.4803646,-120.3385591,4583.8066227317,54.790028,0.223694,0.90035764036,11100,2018-07-06 23:02:37,11,0,24.136,4583.8066227317,54.790028,0.3131716,1.27984584148,0,0,-0.671082,74.6, 0.7, -1.7,0,0,1024,1024,1024,1024,73.7,-89.9,98,4,4.034,4.032,4.021,4.019,4.018,18.777,82.4,14,Waypoint,
38.4803647,-120.3385591,4584.7908747317,55.77428,0.223694,0.87714241652,11200,2018-07-06 23:02:37,11,0,24.136,4584.7908747317,55.77428,0.3131716,1.27984584148,0,0,-0.671082,74.6, 0.4, -1.5,0,0,1024,1024,1024,1024,73.7,-90,98,4,4.034,4.032,4.021,4.019,4.018,18.777,82.4,14,Waypoint,
38.4803648,-120.3385592,4585.7751267317,56.758532,0.223694,0.83212601088,11300,2018-07-06 23:02:37,11,0,24.136,4585.7751267317,56.758532,0.3131716,1.27984584148,0,0,-0.671082,74.6, 0.3, -1.2,0,0,1024,1024,1024,1024,73.7,-89.9,98,4,4.034,4.032,4.021,4.019,4.018,18.777,82.4,14,Waypoint,
38.480365,-120.3385592,4586.7593787317,57.742784,0.223694,0.78943900164,11400,2018-07-06 23:02:37,11,0,24.136,4586.7593787317,57.742784,0.3131716,1.27984584148,0,0,-0.671082,74.5, 0.3, -1,0,0,1024,1024,1024,1024,73.7,-89.9,98,4,4.034,4.032,4.021,4.019,4.018,18.777,82.4,14,Waypoint,
38.4803652,-120.3385593,4587.7436307317,58.727036,0.223694,0.7265912306,11500,2018-07-06 23:02:37,12,0,24.136,4587.7436307317,58.727036,0.3131716,1.27984584148,0,0,-0.671082,74.5, 0.3, -0.7,0,0,1024,1024,1024,1024,73.7,-89.9,98,4,4.034,4.032,4.021,4.019,4.018,18.777,82.4,14,Waypoint,
38.4803653,-120.3385594,4588.7278827317,59.711288,0.223694,0.68378611112,11600,2018-07-06 23:02:38,12,0,24.136,4588.7278827317,59.711288,0.3131716,1.27984584148,0,0,-0.671082,74.4, 0.3, -0.4,0,0,1024,1024,1024,1024,73.7,-89.9,98,4,4.034,4.032,4.021,4.019,4.018,18.777,82.4,14,Waypoint,
38.4803655,-120.3385594,4589.7121347317,60.69554,0.223694,0.65189634632,11700,2018-07-06 23:02:38,11,0,24.136,4589.7121347317,60.69554,0.3131716,1.27984584148,0,0,-0.671082,74.3, 0.4, -0.3,0,0,1024,1024,1024,1024,73.7,-89.9,98,4,4.034,4.032,4.021,4.019,4.018,18.777,82.4,14,Waypoint,
38.4803656,-120.3385594,4590.6963867317,61.679792,0.223694,0.6384842724,11800,2018-07-06 23:02:38,11,0,24.136,4590.6963867317,61.679792,0.3131716,1.27984584148,0,0,-0.671082,74.3, 0.4, -0.3,0,0,1024,1024,1024,1024,73.7,-89.9,98,4,4.034,4.032,4.021,4.019,4.018,18.777,82.4,14,Waypoint,
38.4803657,-120.3385594,4591.6806387317,62.664044,0.223694,0.62691274972,11900,2018-07-06 23:02:38,12,0,24.136,4591.6806387317,62.664044,0.3131716,1.27984584148,0,0,-0.671082,74.3, 0.7, -0.3,0,0,1024,1024,1024,1024,73.7,-89.9,98,4,4.034,4.032,4.021,4.019,4.018,18.777,82.4,14,Waypoint,
38.4803659,-120.3385594,4592.6648907317,63.648296,0.223694,0.60969162056,12000,2018-07-06 23:02:38,12,0,24.158,4592.6648907317,63.648296,0.3131716,1.27984584148,0,0,-0.671082,74.4, 0.8, -0.5,0,0,1024,1024,1024,1024,73.7,-89.9,98,3.985,4.013,4.03,4.015,4.028,4.026,19.385,82.4,14,Waypoint,
38.480366,-120.3385594,4593.6491427317,64.632548,0.223694,0.60420605608,12100,2018-07-06 23:02:38,11,0,24.158,4593.6491427317,64.632548,0.3131716,1.27984584148,0,0,-0.671082,74.3, 0.8, -0.9,0,0,1024,1024,1024,1024,73.7,-89.9,98,3.985,4.013,4.03,4.015,4.028,4.026,19.385,82.4,14,Waypoint,
38.4803662,-120.3385595,4594.6333947317,65.6168,0.223694,0.57122377156,12200,2018-07-06 23:02:38,11,0,24.158,4594.6333947317,65.6168,0.3131716,1.27984584148,0,0,-0.671082,74.2, 0.8, -1.1,0,0,1024,1024,1024,1024,73.7,-89.9,98,3.985,4.013,4.03,4.015,4.028,4.026,19.385,82.4,14,Waypoint,
38.4803665,-120.3385595,4596.2738147317,67.25722,0.223694,0.58161747268,12400,2018-07-06 23:02:38,11,0,24.158,4596.2738147317,67.25722,0.3131716,1.27984584148,0,0,-0.671082,74.2, 1.1, 0,0,0,1024,1024,1024,1024,73.7,-89.9,98,3.985,4.013,4.03,4.015,4.028,4.026,19.385,82.4,14,Waypoint,
38.4803666,-120.3385595,4597.2580667317,68.241472,0.223694,0.58957350968,12500,2018-07-06 23:02:38,11,0,24.158,4597.2580667317,68.241472,0.3131716,1.27984584148,0,0,-0.671082,74.3, 1.3, 0.1,0,0,1024,1024,1024,1024,73.7,-89.9,98,3.985,4.013,4.03,4.015,4.028,4.026,19.385,82.4,14,Waypoint,
38.4803668,-120.3385595,4598.2423187317,69.225724,0.223694,0.61173230304,12700,2018-07-06 23:02:39,11,0,24.158,4598.2423187317,69.225724,0.3131716,1.27984584148,0,0,-0.671082,74.4, 1.4, 0.2,0,0,1024,1024,1024,1024,73.7,-89.9,98,3.985,4.013,4.03,4.015,4.028,4.026,19.385,82.4,14,Waypoint,
38.4803669,-120.3385595,4599.2265707317,70.209976,0,0.62571852396,12800,2018-07-06 23:02:39,10,0,24.158,4599.2265707317,70.209976,0.3131716,1.27984584148,0,0,-0.671082,74.5, 1.4, 0.2,0,0,1024,1024,1024,1024,73.7,-89.9,98,3.985,4.013,4.03,4.015,4.028,4.026,19.385,82.4,14,Waypoint,
38.480367,-120.3385595,4600.2108227317,71.194228,0,0.64147639848,12900,2018-07-06 23:02:39,10,0,24.158,4600.2108227317,71.194228,0.3131716,1.27984584148,0,0,-0.671082,74.6, 1.1, 0.1,0,0,1024,1024,1024,1024,73.7,-89.9,98,3.985,4.013,4.03,4.015,4.028,4.026,19.385,82.4,14,Waypoint,
38.4803671,-120.3385595,4601.1950747317,72.17848,0,0.65887797384,13000,2018-07-06 23:02:39,10,0,24.016,4601.1950747317,72.17848,0.3131716,1.27984584148,0,0,-0.671082,74.5, 0.9, 0.1,0,0,1024,1024,1024,1024,73.7,-90,98,3.973,4.018,4.011,4.006,4.007,4.01,19.185,82.4,14,Waypoint,
38.4803673,-120.3385595,4602.1793267317,73.162732,0,0.69811682024,13100,2018-07-06 23:02:39,10,0,24.016,4602.1793267317,73.162732,0.3131716,1.27984584148,0,0,-0.671082,74.4, 0.9, 0,0,0,1024,1024,1024,1024,73.7,-89.9,98,3.973,4.018,4.011,4.006,4.007,4.01,19.185,82.4,14,Waypoint,
38.4803674,-120.3385594,4603.1635787317,74.146984,0,0.74258204476,13200,2018-07-06 23:02:39,11,0,24.016,4603.1635787317,74.146984,0.3131716,1.27984584148,0,0,-0.671082,74.4, 1.2, 0.1,0,0,1024,1024,1024,1024,73.7,-89.9,98,3.973,4.018,4.011,4.006,4.007,4.01,19.185,82.4,14,Waypoint,
38.4803676,-120.3385592,4605.1320827317,76.115488,0,0.83212601088,13300,2018-07-06 23:02:39,11,0,24.016,4605.1320827317,76.115488,0.3131716,1.27984584148,0,0,-0.671082,74.5, 1.8, 0.7,0,0,1024,1024,1024,1024,73.7,-89.9,98,3.973,4.018,4.011,4.006,4.007,4.01,19.185,82.4,14,Waypoint,
38.4803677,-120.3385592,4606.1163347317,77.09974,0,0.85500658904,13400,2018-07-06 23:02:39,11,0,24.016,4606.1163347317,77.09974,0.3131716,1.27984584148,0,0,-0.671082,74.7, 1.8, 1,0,0,1024,1024,1024,1024,73.7,-89.9,98,3.973,4.018,4.011,4.006,4.007,4.01,19.185,82.4,14,Waypoint,
38.4803678,-120.3385592,4607.1005867317,78.083992,0,0.8788058024,13500,2018-07-06 23:02:39,11,0,24.016,4607.1005867317,78.083992,0.3131716,1.27984584148,0,0,-0.671082,74.8, 1.6, 1.1,0,0,1024,1024,1024,1024,73.7,-89.9,98,3.973,4.018,4.011,4.006,4.007,4.01,19.185,82.4,14,Waypoint,
38.4803679,-120.3385592,4608.0848387317,79.068244,0,0.90345475332,13600,2018-07-06 23:02:40,11,0,24.016,4608.0848387317,79.068244,0.3131716,1.27984584148,0,0,-0.671082,75, 1.2, 0.7,0,0,1024,1024,1024,1024,73.7,-89.9,98,3.973,4.018,4.011,4.006,4.007,4.01,19.185,82.4,14,Waypoint,
38.4803679,-120.3385592,4609.0690907317,80.052496,0,0.90345475332,13700,2018-07-06 23:02:40,11,0,24.016,4609.0690907317,80.052496,0.3131716,1.27984584148,0,0,-0.671082,75.1, 1, 0.5,0,0,1024,1024,1024,1024,73.7,-89.9,98,3.973,4.018,4.011,4.006,4.007,4.01,19.185,82.4,14,Waypoint,
38.480368,-120.3385593,4609.7252587317,80.708664,0,0.9089075094,13800,2018-07-06 23:02:40,11,0,24.016,4609.7252587317,80.708664,0.3131716,1.27984584148,0,0,-0.671082,75.2, 0.9, 0.6,0,0,1024,1024,1024,1024,73.7,-89.9,98,3.973,4.018,4.011,4.006,4.007,4.01,19.185,82.4,14,Waypoint,
38.4803681,-120.3385594,4610.7095107317,81.692916,0,0.91667325768,13900,2018-07-06 23:02:40,12,0,24.016,4610.7095107317,81.692916,0.3131716,1.27984584148,0,0,-0.671082,75.2, 0.9, 0.7,0,0,1024,1024,1024,1024,73.7,-89.9,98,3.973,4.018,4.011,4.006,4.007,4.01,19.185,82.4,14,Waypoint,
38.4803681,-120.3385594,4611.6937627317,82.677168,0,0.91667325768,14000,2018-07-06 23:02:40,12,0,23.92,4611.6937627317,82.677168,0.3131716,1.27984584148,0,0,-0.671082,75.3, 1, 0.8,0,0,1024,1024,1024,1024,73.7,-89.9,97,3.965,4.001,3.991,3.99,3.989,3.986,20.137,82.4,14,Waypoint,
38.4803683,-120.3385595,4612.6780147317,83.66142,0,0.95568572612,14100,2018-07-06 23:02:40,13,0,23.92,4612.6780147317,83.66142,0.3131716,1.27984584148,0,0,-0.671082,75.4, 1.2, 0.9,0,0,1024,1024,1024,1024,73.7,-89.9,97,3.965,4.001,3.991,3.99,3.989,3.986,20.137,82.4,14,Waypoint,
38.4803684,-120.3385596,4613.6622667317,84.645672,0,0.9688976688,14200,2018-07-06 23:02:40,13,0,23.92,4613.6622667317,84.645672,0.3131716,1.27984584148,0,0,-0.671082,75.4, 1.2, 1.1,0,0,1024,1024,1024,1024,73.7,-89.9,97,3.965,4.001,3.991,3.99,3.989,3.986,20.137,82.4,14,Waypoint,
38.4803685,-120.3385595,4615.6307707317,86.614176,0,1.0151247044,14400,2018-07-06 23:02:40,13,0,23.92,4615.6307707317,86.614176,0.3131716,1.27984584148,0,0,-0.671082,74.9, 1.1, 1.1,0,0,1024,1024,1024,1024,73.7,-89.9,97,3.965,4.001,3.991,3.99,3.989,3.986,20.137,82.4,14,Waypoint,
38.4803686,-120.3385595,4616.6150227317,87.598428,0,1.04548559776,14500,2018-07-06 23:02:40,12,0,23.92,4616.6150227317,87.598428,0.3131716,1.27984584148,0,0,-0.671082,74.6, 1.4, 0.9,0,0,1024,1024,1024,1024,73.7,-89.9,97,3.965,4.001,3.991,3.99,3.989,3.986,20.137,82.4,14,Waypoint,
38.4803686,-120.3385594,4617.5992747317,88.58268,0,1.06136158252,14600,2018-07-06 23:02:41,12,0,23.92,4617.5992747317,88.58268,0.3131716,1.27984584148,0,0,-0.671082,74.3, 1.7, 0.6,0,0,1024,1024,1024,1024,73.7,-89.9,97,3.965,4.001,3.991,3.99,3.989,3.986,20.137,82.4,14,Waypoint,
38.4803686,-120.3385594,4618.5835267317,89.566932,0,1.06136158252,14800,2018-07-06 23:02:41,13,0,23.92,4618.5835267317,89.566932,0.3131716,1.27984584148,0,0,-0.671082,74.1, 1.9, 0.3,0,0,1024,1024,1024,1024,73.7,-89.9,97,3.965,4.001,3.991,3.99,3.989,3.986,20.137,82.4,14,Waypoint,
38.4803686,-120.3385594,4619.5677787317,90.551184,0,1.06136158252,14900,2018-07-06 23:02:41,13,0,23.92,4619.5677787317,90.551184,0.3131716,1.27984584148,0,0,-0.671082,74, 2, 0.3,0,0,1024,1024,1024,1024,73.7,-89.9,97,3.965,4.001,3.991,3.99,3.989,3.986,20.137,82.4,14,Waypoint,
38.4803685,-120.3385594,4620.5520307317,91.535436,0,1.03146656844,15000,2018-07-06 23:02:41,13,0,23.871,4620.5520307317,91.535436,0.3131716,1.27984584148,0,0,-0.671082,73.9, 2.1, 0.2,0,0,1024,1024,1024,1024,73.7,-89.9,97,3.95,4.002,3.974,3.975,3.968,3.982,20.613,82.4,14,Waypoint,
38.4803684,-120.3385595,4621.5362827317,92.519688,0,0.98517719688,15100,2018-07-06 23:02:41,13,0,23.871,4621.5362827317,92.519688,0.3131716,1.27984584148,0,0,-0.671082,74, 2.1, 0.1,0,0,1024,1024,1024,1024,73.7,-89.9,97,3.95,4.002,3.974,3.975,3.968,3.982,20.613,82.4,14,Waypoint,
38.4803683,-120.3385596,4622.5205347317,93.50394,0,0.938894387,15200,2018-07-06 23:02:41,12,0,23.871,4622.5205347317,93.50394,0.3131716,1.27984584148,0,0,-0.671082,74, 1.7, 0,0,0,1024,1024,1024,1024,73.7,-89.9,97,3.95,4.002,3.974,3.975,3.968,3.982,20.613,82.4,14,Waypoint,
38.4803682,-120.3385597,4623.5047867317,94.488192,0,0.89261485796,15300,2018-07-06 23:02:41,12,0,23.871,4623.5047867317,94.488192,0.3131716,1.27984584148,0,0,-0.671082,74.1, 1.3, -0.2,0,0,1024,1024,1024,1024,73.7,-89.9,97,3.95,4.002,3.974,3.975,3.968,3.982,20.613,82.4,14,Waypoint,
38.4803681,-120.3385597,4624.4890387317,95.472444,0,0.86304464704,15400,2018-07-06 23:02:41,13,0,23.871,4624.4890387317,95.472444,0.3131716,1.27984584148,0,0,-0.671082,74.2, 1.1, -0.3,0,0,1024,1024,1024,1024,73.7,-90,97,3.95,4.002,3.974,3.975,3.968,3.982,20.613,82.4,14,Waypoint,
38.480368,-120.3385598,4626.4575427317,97.440948,0,0.81672574792,15500,2018-07-06 23:02:41,13,0,23.871,4626.4575427317,97.440948,0.3131716,1.27984584148,0,0,-0.671082,74.5, 0.7, -0.5,0,0,1024,1024,1024,1024,73.7,-90,97,3.95,4.002,3.974,3.975,3.968,3.982,20.613,82.4,14,Waypoint,
38.4803678,-120.3385599,4628.4260467317,99.409452,0,0.74135172976,15700,2018-07-06 23:02:42,13,0,23.871,4628.4260467317,99.409452,0.3131716,1.27984584148,0,0,-0.671082,74.7, 0.8, -0.2,0,0,1024,1024,1024,1024,73.7,-90,97,3.95,4.002,3.974,3.975,3.968,3.982,20.613,82.4,14,Waypoint,
38.4803677,-120.3385599,4629.4102987317,100.393704,0,0.71297902544,15800,2018-07-06 23:02:42,13,0,23.871,4629.4102987317,100.393704,0.3131716,1.27984584148,0,0,-0.671082,74.7, 1, -0.2,0,0,1024,1024,1024,1024,73.7,-89.9,97,3.95,4.002,3.974,3.975,3.968,3.982,20.613,82.4,14,Waypoint,
38.4803677,-120.3385599,4630.3945507317,101.377956,0,0.71297902544,15900,2018-07-06 23:02:42,13,0,23.871,4630.3945507317,101.377956,0.3131716,1.27984584148,0,0,-0.671082,74.6, 1.2, -0.5,0,0,1024,1024,1024,1024,73.7,-89.9,97,3.95,4.002,3.974,3.975,3.968,3.982,20.613,82.4,14,Waypoint,
38.4803677,-120.3385598,4631.3788027317,102.362208,0,0.73161419664,16000,2018-07-06 23:02:42,13,0,23.895,4631.3788027317,102.362208,0.3131716,1.27984584148,0,0,-0.671082,74.6, 1.5, -0.5,0,0,1024,1024,1024,1024,73.7,-89.9,97,3.954,4.002,3.984,3.98,3.979,3.983,19.537,82.4,14,Waypoint,
38.4803676,-120.3385598,4632.3630547317,103.34646,0,0.70473755536,16100,2018-07-06 23:02:42,14,0,23.895,4632.3630547317,103.34646,0.3131716,1.27984584148,0,0,-0.671082,74.5, 1.5, -0.4,0,0,1024,1024,1024,1024,73.7,-89.9,97,3.954,4.002,3.984,3.98,3.979,3.983,19.537,82.4,14,Waypoint,
38.4803676,-120.3385598,4633.3473067317,104.330712,0,0.70473755536,16200,2018-07-06 23:02:42,14,0,23.895,4633.3473067317,104.330712,0.3131716,1.27984584148,0,0,-0.671082,74.5, 1.3, -0.3,0,0,1024,1024,1024,1024,73.7,-89.9,97,3.954,4.002,3.984,3.98,3.979,3.983,19.537,82.4,14,Waypoint,
38.4803675,-120.3385598,4634.3315587317,105.314964,0,0.67875986424,16300,2018-07-06 23:02:42,14,0,23.895,4634.3315587317,105.314964,0.3131716,1.27984584148,0,0,-0.671082,74.5, 1.3, -0.2,0,0,1024,1024,1024,1024,73.7,-89.9,97,3.954,4.002,3.984,3.98,3.979,3.983,19.537,82.4,14,Waypoint,
38.4803674,-120.3385599,4635.3158107317,106.299216,0,0.63286419348,16400,2018-07-06 23:02:42,14,0,23.895,4635.3158107317,106.299216,0.3131716,1.27984584148,0,0,-0.671082,74.5, 1.1, -0.2,0,0,1024,1024,1024,1024,73.7,-89.9,97,3.954,4.002,3.984,3.98,3.979,3.983,19.537,82.4,14,Waypoint,
38.4803674,-120.3385598,4636.3000627317,107.283468,0,0.65378611016,16500,2018-07-06 23:02:42,14,0,23.895,4636.3000627317,107.283468,0.3131716,1.27984584148,0,0,-0.671082,74.6, 1.1, -0.2,0,0,1024,1024,1024,1024,73.7,-89.9,97,3.954,4.002,3.984,3.98,3.979,3.983,19.537,82.4,14,Waypoint,
38.4803673,-120.3385597,4637.2843147317,108.26772,0,0.65220474528,16600,2018-07-06 23:02:43,14,0,23.895,4637.2843147317,108.26772,0.3131716,1.27984584148,0,0,-0.671082,74.6, 1.4, -0.4,0,0,1024,1024,1024,1024,73.7,-89.9,97,3.954,4.002,3.984,3.98,3.979,3.983,19.537,82.4,14,Waypoint,
38.4803672,-120.3385597,4638.2685667317,109.251972,0,0.63041012516,16700,2018-07-06 23:02:43,14,0,23.895,4638.2685667317,109.251972,0.3131716,1.27984584148,0,0,-0.671082,74.6, 1.7, -0.6,0,0,1024,1024,1024,1024,73.7,-89.9,97,3.954,4.002,3.984,3.98,3.979,3.983,19.537,82.4,14,Waypoint,
38.4803672,-120.3385597,4639.2528187317,110.236224,0,0.63041012516,16800,2018-07-06 23:02:43,14,0,23.895,4639.2528187317,110.236224,0.3131716,1.27984584148,0,0,-0.671082,74.6, 1.9, -0.8,0,0,1024,1024,1024,1024,73.7,-89.9,97,3.954,4.002,3.984,3.98,3.979,3.983,19.537,82.4,14,Waypoint,
38.4803671,-120.3385596,4640.2370707317,111.220476,0,0.63427495468,17000,2018-07-06 23:02:43,14,0,23.81,4640.2370707317,111.220476,0.3131716,1.27984584148,0,0,-0.671082,74.6, 1.9, -0.6,0,0,1024,1024,1024,1024,73.7,-89.9,97,3.946,3.982,3.979,3.972,3.971,3.961,20.355,82.4,14,Waypoint,
38.4803669,-120.3385595,4642.2055747317,113.18898,0,0.62571852396,17100,2018-07-06 23:02:43,14,0,23.81,4642.2055747317,113.18898,0.3131716,1.27984584148,0,0,-0.671082,74.3, 1.8, -0.6,0,0,1024,1024,1024,1024,73.7,-89.9,97,3.946,3.982,3.979,3.972,3.971,3.961,20.355,82.4,14,Waypoint,
38.4803669,-120.3385594,4643.1898267317,114.173232,0,0.65189634632,17200,2018-07-06 23:02:43,14,0,23.81,4643.1898267317,114.173232,0.3131716,1.27984584148,0,0,-0.671082,74.1, 2.1, -0.7,0,0,1024,1024,1024,1024,73.7,-89.9,97,3.946,3.982,3.979,3.972,3.971,3.961,20.355,82.4,14,Waypoint,
38.4803668,-120.3385594,4644.1740787317,115.157484,0,0.6384842724,17300,2018-07-06 23:02:43,14,0,23.81,4644.1740787317,115.157484,0.3131716,1.27984584148,0,0,-0.671082,74, 2.4, -0.8,0,0,1024,1024,1024,1024,73.7,-89.9,97,3.946,3.982,3.979,3.972,3.971,3.961,20.355,82.4,14,Waypoint,
38.4803668,-120.3385592,4645.4864147317,116.46982,0,0.692421282,17500,2018-07-06 23:02:43,14,0,23.81,4645.4864147317,116.46982,0.3131716,1.27984584148,0,0,-0.671082,73.9, 2.3, -1,0,0,1024,1024,1024,1024,73.7,-89.9,97,3.946,3.982,3.979,3.972,3.971,3.961,20.355,82.4,14,Waypoint,
38.4803668,-120.3385592,4646.4706667317,117.454072,0,0.692421282,17600,2018-07-06 23:02:44,14,0,23.81,4646.4706667317,117.454072,0.3131716,1.27984584148,0,0,-0.671082,74, 2.3, -1.1,0,0,1024,1024,1024,1024,73.7,-89.9,97,3.946,3.982,3.979,3.972,3.971,3.961,20.355,82.4,14,Waypoint,
38.4803667,-120.3385591,4647.4549187317,118.438324,0,0.70932745052,17700,2018-07-06 23:02:44,14,0,23.81,4647.4549187317,118.438324,0.3131716,1.27984584148,0,0,-0.671082,74.1, 2.4, -1.1,0,0,1024,1024,1024,1024,73.7,-89.9,97,3.946,3.982,3.979,3.972,3.971,3.961,20.355,82.4,14,Waypoint,
38.4803666,-120.3385591,4648.4391707317,119.422576,0,0.70083335576,17800,2018-07-06 23:02:44,14,0,23.81,4648.4391707317,119.422576,0.3131716,1.27984584148,0,0,-0.671082,74.3, 2.4, -1.2,0,0,1024,1024,1024,1024,73.7,-89.9,97,3.946,3.982,3.979,3.972,3.971,3.961,20.355,82.4,14,Waypoint,
38.4803666,-120.338559,4649.4234227317,120.406828,0,0.72879267424,17900,2018-07-06 23:02:44,14,0,23.81,4649.4234227317,120.406828,0.3131716,1.27984584148,0,0,-0.671082,74.4, 2.2, -1.3,0,0,1024,1024,1024,1024,73.7,-89.9,97,3.946,3.982,3.979,3.972,3.971,3.961,20.355,82.4,14,Waypoint,
38.4803665,-120.338559,4651.7200107317,122.703416,0,0.72236878952,18000,2018-07-06 23:02:44,14,0,23.794,4651.7200107317,122.703416,0.3131716,1.27984584148,0,0,-0.671082,74.7, 2, -1.4,0,0,1024,1024,1024,1024,73.7,-89.9,97,3.938,3.987,3.954,3.963,3.962,3.963,20.59,82.4,14,Waypoint,
38.4803664,-120.3385589,4652.7042627317,123.687668,0,0.74616800288,18100,2018-07-06 23:02:44,14,0,23.794,4652.7042627317,123.687668,0.3131716,1.27984584148,0,0,-0.671082,74.8, 2.1, -1.3,0,0,1024,1024,1024,1024,73.7,-89.9,97,3.938,3.987,3.954,3.963,3.962,3.963,20.59,82.4,14,Waypoint,
38.4803664,-120.3385588,4653.6885147317,124.67192,0,0.77459648148,18200,2018-07-06 23:02:44,14,0,23.794,4653.6885147317,124.67192,0.3131716,1.27984584148,0,0,-0.671082,74.8, 2.2, -1.4,0,0,1024,1024,1024,1024,73.7,-89.9,97,3.938,3.987,3.954,3.963,3.962,3.963,20.59,82.4,14,Waypoint,
38.4803663,-120.3385586,4655.6570187317,126.640424,0,0.82907811052,18400,2018-07-06 23:02:44,14,0,23.794,4655.6570187317,126.640424,0.3131716,1.27984584148,0,0,-0.671082,74.7, 2.7, -1.4,0,0,1024,1024,1024,1024,73.7,-89.9,97,3.938,3.987,3.954,3.963,3.962,3.963,20.59,82.4,14,Waypoint,
38.4803663,-120.3385585,4656.6412707317,127.624676,0,0.857611576,18500,2018-07-06 23:02:44,13,0,23.794,4656.6412707317,127.624676,0.3131716,1.27984584148,0,0,-0.671082,74.6, 2.8, -1.4,0,0,1024,1024,1024,1024,73.7,-89.9,97,3.938,3.987,3.954,3.963,3.962,3.963,20.59,82.4,14,Waypoint,
38.4803662,-120.3385585,4657.6255227317,128.608928,0,0.85683729776,18600,2018-07-06 23:02:45,13,0,23.794,4657.6255227317,128.608928,0.3131716,1.27984584148,0,0,-0.671082,74.5, 2.8, -1.6,0,0,1024,1024,1024,1024,73.7,-89.9,97,3.938,3.987,3.954,3.963,3.962,3.963,20.59,82.4,14,Waypoint,
38.4803662,-120.3385585,4658.6097747317,129.59318,0,0.85683729776,18700,2018-07-06 23:02:45,13,0,23.794,4658.6097747317,129.59318,0.3131716,1.27984584148,0,0,-0.671082,74.5, 2.7, -1.8,0,0,1024,1024,1024,1024,73.7,-89.9,97,3.938,3.987,3.954,3.963,3.962,3.963,20.59,82.4,14,Waypoint,
38.4803662,-120.3385584,4659.2659427317,130.249348,0,0.88539700996,18800,2018-07-06 23:02:45,13,0,23.794,4659.2659427317,130.249348,0.3131716,1.27984584148,0,0,-0.671082,74.4, 2.6, -1.9,0,0,1024,1024,1024,1024,73.7,-89.9,97,3.938,3.987,3.954,3.963,3.962,3.963,20.59,82.4,14,Waypoint,
38.4803662,-120.3385584,4660.5782787317,131.561684,0,0.88539700996,18900,2018-07-06 23:02:45,13,0,23.794,4660.5782787317,131.561684,0.3131716,1.27984584148,0,0,-0.671082,74.3, 2.5, -1.7,0,0,1024,1024,1024,1024,73.7,-89.9,97,3.938,3.987,3.954,3.963,3.962,3.963,20.59,82.4,14,Waypoint,
38.4803662,-120.3385584,4661.5625307317,132.545936,0,0.88539700996,19000,2018-07-06 23:02:45,13,0,23.809,4661.5625307317,132.545936,0.3131716,1.27984584148,0,0,-0.671082,74.2, 2.5, -1.4,0,0,1024,1024,1024,1024,73.7,-89.9,97,3.944,3.988,3.976,3.963,3.973,3.967,19.859,82.4,14,Waypoint,
38.4803662,-120.3385584,4662.5467827317,133.530188,0,0.88539700996,19100,2018-07-06 23:02:45,13,0,23.809,4662.5467827317,133.530188,0.3131716,1.27984584148,0,0,-0.671082,74.3, 2.5, -1.3,0,0,1024,1024,1024,1024,73.7,-89.9,97,3.944,3.988,3.976,3.963,3.973,3.967,19.859,82.4,14,Waypoint,
38.4803663,-120.3385585,4663.2029507317,134.186356,0,0.857611576,19200,2018-07-06 23:02:45,13,0,23.809,4663.2029507317,134.186356,0.3131716,1.27984584148,0,0,-0.671082,74.3, 2.4, -1.3,0,0,1024,1024,1024,1024,73.7,-89.9,97,3.944,3.988,3.976,3.963,3.973,3.967,19.859,82.4,14,Waypoint,
38.4803663,-120.3385585,4664.1872027317,135.170608,0,0.857611576,19400,2018-07-06 23:02:45,13,0,23.809,4664.1872027317,135.170608,0.3131716,1.27984584148,0,0,-0.671082,74.3, 2.3, -1.3,0,0,1024,1024,1024,1024,73.7,-89.9,97,3.944,3.988,3.976,3.963,3.973,3.967,19.859,82.4,14,Waypoint,
38.4803664,-120.3385586,4666.1557067317,137.139112,0,0.83148296624,19500,2018-07-06 23:02:45,13,0,23.809,4666.1557067317,137.139112,0.3131716,1.27984584148,0,0,-0.671082,74.3, 2.1, -1,0,0,1024,1024,1024,1024,73.7,-90,97,3.944,3.988,3.976,3.963,3.973,3.967,19.859,82.4,14,Waypoint,
38.4803664,-120.3385586,4666.1557067317,137.139112,0,0.83148296624,19600,2018-07-06 23:02:46,13,0,23.809,4666.1557067317,137.139112,0.3131716,1.27984584148,0,0,-0.671082,74.3, 2.1, -1,0,0,1024,1024,1024,1024,73.7,-90,97,3.944,3.988,3.976,3.963,3.973,3.967,19.859,82.4,14,Waypoint,
38.4803664,-120.3385587,4667.1399587317,138.123364,0,0.8030348026,19700,2018-07-06 23:02:46,13,0,23.809,4667.1399587317,138.123364,0.3131716,1.27984584148,0,0,-0.671082,74.3, 1.8, -0.9,0,0,1024,1024,1024,1024,73.7,-89.9,97,3.944,3.988,3.976,3.963,3.973,3.967,19.859,82.4,14,Waypoint,
38.4803664,-120.3385587,4668.1242107317,139.107616,0,0.8030348026,19800,2018-07-06 23:02:46,14,0,23.809,4668.1242107317,139.107616,0.3131716,1.27984584148,0,0,-0.671082,74.2, 1.5, -0.9,0,0,1024,1024,1024,1024,73.7,-90,97,3.944,3.988,3.976,3.963,3.973,3.967,19.859,82.4,14,Waypoint,
38.4803665,-120.3385588,4669.1084627317,140.091868,0,0.77888125852,19900,2018-07-06 23:02:46,14,0,23.809,4669.1084627317,140.091868,0.3131716,1.27984584148,0,0,-0.671082,74.1, 1.5, -0.9,0,0,1024,1024,1024,1024,73.7,-89.9,97,3.944,3.988,3.976,3.963,3.973,3.967,19.859,82.4,14,Waypoint,
38.4803665,-120.3385588,4670.0927147317,141.07612,0,0.77888125852,20000,2018-07-06 23:02:46,14,0,23.787,4670.0927147317,141.07612,0.3131716,1.27984584148,0,0,-0.671082,74, 1.7, -0.9,0,0,1024,1024,1024,1024,73.7,-89.9,97,3.944,3.988,3.976,3.963,3.973,3.967,19.889,84.2,14,Waypoint,
38.4803665,-120.3385589,4671.0769667317,142.060372,0,0.75061354108,20100,2018-07-06 23:02:46,14,0,23.787,4671.0769667317,142.060372,0.3131716,1.27984584148,0,0,-0.671082,74.1, 1.9, -0.9,0,0,1024,1024,1024,1024,73.7,-89.9,97,3.944,3.988,3.976,3.963,3.973,3.967,19.889,84.2,14,Waypoint,
38.4803666,-120.3385589,4672.0612187317,143.044624,0,0.75679464364,20200,2018-07-06 23:02:46,14,0,23.787,4672.0612187317,143.044624,0.3131716,1.27984584148,0,0,-0.671082,74.2, 2, -0.9,0,0,1024,1024,1024,1024,73.7,-89.9,97,3.944,3.988,3.976,3.963,3.973,3.967,19.889,84.2,14,Waypoint,
38.4803666,-120.338559,4674.0297227317,145.013128,0,0.72879267424,20300,2018-07-06 23:02:46,14,0,23.787,4674.0297227317,145.013128,0.3131716,1.27984584148,0,0,-0.671082,74.7, 2.2, -0.5,0,0,1024,1024,1024,1024,73.7,-89.9,97,3.944,3.988,3.976,3.963,3.973,3.967,19.889,84.2,14,Waypoint,
38.4803667,-120.3385591,4675.0139747317,145.99738,0,0.70932745052,20400,2018-07-06 23:02:46,14,0,23.787,4675.0139747317,145.99738,0.3131716,1.27984584148,0,0,-0.671082,74.9, 2.2, -0.4,0,0,1024,1024,1024,1024,73.7,-89.9,97,3.944,3.988,3.976,3.963,3.973,3.967,19.889,84.2,14,Waypoint,
38.4803668,-120.3385591,4675.9982267317,146.981632,0,0.71957679468,20500,2018-07-06 23:02:46,14,0,23.787,4675.9982267317,146.981632,0.3131716,1.27984584148,0,0,-0.671082,75, 2.1, -0.2,0,0,1024,1024,1024,1024,73.7,-89.9,97,3.944,3.988,3.976,3.963,3.973,3.967,19.889,84.2,14,Waypoint,
38.480367,-120.3385593,4677.6386467317,148.622052,0.223694,0.69282810616,20700,2018-07-06 23:02:47,14,0,23.787,4677.6386467317,148.622052,0.3131716,1.27984584148,0,0,-0.671082,75.1, 1.9, 0.3,0,0,1024,1024,1024,1024,73.7,-89.9,97,3.944,3.988,3.976,3.963,3.973,3.967,19.889,84.2,14,Waypoint,
38.4803671,-120.3385594,4678.6228987317,149.606304,0.223694,0.68378611112,20800,2018-07-06 23:02:47,14,0,23.787,4678.6228987317,149.606304,0.3131716,1.27984584148,0,0,-0.671082,75.1, 2, 0.5,0,0,1024,1024,1024,1024,73.7,-89.9,97,3.944,3.988,3.976,3.963,3.973,3.967,19.889,84.2,14,Waypoint,
38.4803672,-120.3385595,4679.6071507317,150.590556,0.223694,0.67779857812,20900,2018-07-06 23:02:47,14,0,23.787,4679.6071507317,150.590556,0.3131716,1.27984584148,0,0,-0.671082,75, 2.2, 0.6,0,0,1024,1024,1024,1024,73.7,-89.9,97,3.944,3.988,3.976,3.963,3.973,3.967,19.889,84.2,14,Waypoint,
38.4803673,-120.3385595,4680.5914027317,151.574808,0.223694,0.69811682024,21000,2018-07-06 23:02:47,14,0,23.787,4680.5914027317,151.574808,0.3131716,1.27984584148,0,0,-0.671082,74.8, 2.2, 0.7,0,0,1024,1024,1024,1024,73.7,-89.9,97,3.934,3.978,3.974,3.965,3.97,3.954,19.889,84.2,14,Waypoint,
38.4803674,-120.3385596,4681.5756547317,152.55906,0,0.69725724016,21100,2018-07-06 23:02:47,14,0,23.787,4681.5756547317,152.55906,0.3131716,1.27984584148,0,0,-0.671082,74.6, 2.1, 0.7,0,0,1024,1024,1024,1024,73.7,-89.9,97,3.934,3.978,3.974,3.965,3.97,3.954,19.889,84.2,14,Waypoint,
38.4803675,-120.3385596,4682.5599067317,153.543312,0,0.72072836952,21200,2018-07-06 23:02:47,14,0,23.787,4682.5599067317,153.543312,0.3131716,1.27984584148,0,0,-0.671082,74.6, 2.1, 0.8,0,0,1024,1024,1024,1024,73.7,-89.9,97,3.934,3.978,3.974,3.965,3.97,3.954,19.889,84.2,14,Waypoint,
38.4803676,-120.3385597,4684.5284107317,155.511816,0,0.72471130928,21400,2018-07-06 23:02:47,14,0,23.787,4684.5284107317,155.511816,0.3131716,1.27984584148,0,0,-0.671082,74.6, 2.1, 0.6,0,0,1024,1024,1024,1024,73.7,-89.9,97,3.934,3.978,3.974,3.965,3.97,3.954,19.889,84.2,14,Waypoint,
38.4803676,-120.3385597,4685.5126627317,156.496068,0,0.72471130928,21500,2018-07-06 23:02:47,14,0,23.787,4685.5126627317,156.496068,0.3131716,1.27984584148,0,0,-0.671082,74.6, 2.1, 0.5,0,0,1024,1024,1024,1024,73.7,-89.9,97,3.934,3.978,3.974,3.965,3.97,3.954,19.889,84.2,14,Waypoint,
38.4803677,-120.3385597,4686.4969147317,157.48032,0,0.75087272744,21600,2018-07-06 23:02:48,14,0,23.787,4686.4969147317,157.48032,0.3131716,1.27984584148,0,0,-0.671082,74.6, 2.2, 0.5,0,0,1024,1024,1024,1024,73.7,-89.9,97,3.934,3.978,3.974,3.965,3.97,3.954,19.889,84.2,14,Waypoint,
38.4803677,-120.3385598,4688.4654187317,159.448824,0,0.73161419664,21800,2018-07-06 23:02:48,14,0,23.787,4688.4654187317,159.448824,0.3131716,1.27984584148,0,0,-0.671082,74.7, 2.4, 0.5,0,0,1024,1024,1024,1024,73.7,-89.9,97,3.934,3.978,3.974,3.965,3.97,3.954,19.889,84.2,14,Waypoint,
38.4803678,-120.3385598,4689.4496707317,160.433076,0,0.75929136288,22000,2018-07-06 23:02:48,14,0,23.751,4689.4496707317,160.433076,0.3131716,1.27984584148,0,0,-0.671082,74.7, 2.3, 0.4,0,0,1024,1024,1024,1024,73.7,-89.9,97,3.93,3.974,3.96,3.946,3.959,3.952,20.291,84.2,14,Waypoint,
38.4803678,-120.3385598,4690.4339227317,161.417328,0,0.75929136288,22100,2018-07-06 23:02:48,14,0,23.751,4690.4339227317,161.417328,0.3131716,1.27984584148,0,0,-0.671082,74.6, 2.3, 0.3,0,0,1024,1024,1024,1024,73.7,-89.9,97,3.93,3.974,3.96,3.946,3.959,3.952,20.291,84.2,14,Waypoint,
38.4803678,-120.3385598,4691.4181747317,162.40158,0,0.75929136288,22200,2018-07-06 23:02:48,14,0,23.751,4691.4181747317,162.40158,0.3131716,1.27984584148,0,0,-0.671082,74.6, 2.3, 0.2,0,0,1024,1024,1024,1024,73.7,-89.9,97,3.93,3.974,3.96,3.946,3.959,3.952,20.291,84.2,14,Waypoint,
38.4803678,-120.3385598,4692.4024267317,163.385832,0,0.75929136288,22300,2018-07-06 23:02:48,14,0,23.751,4692.4024267317,163.385832,0.3131716,1.27984584148,0,0,-0.671082,74.6, 2.3, 0.3,0,0,1024,1024,1024,1024,73.7,-89.9,97,3.93,3.974,3.96,3.946,3.959,3.952,20.291,84.2,14,Waypoint,
38.4803678,-120.3385598,4694.3709307317,165.354336,0,0.75929136288,22500,2018-07-06 23:02:48,14,0,23.751,4694.3709307317,165.354336,0.3131716,1.27984584148,0,0,-0.671082,74.6, 2.3, 0.3,0,0,1024,1024,1024,1024,73.7,-89.9,97,3.93,3.974,3.96,3.946,3.959,3.952,20.291,84.2,14,Waypoint,
38.4803678,-120.3385599,4695.3551827317,166.338588,0,0.74135172976,22600,2018-07-06 23:02:49,14,0,23.751,4695.3551827317,166.338588,0.3131716,1.27984584148,0,0,-0.671082,74.6, 2.2, 0.4,0,0,1024,1024,1024,1024,73.7,-89.9,97,3.93,3.974,3.96,3.946,3.959,3.952,20.291,84.2,14,Waypoint,
38.4803678,-120.3385599,4696.6675187317,167.650924,0,0.74135172976,22700,2018-07-06 23:02:49,14,0,23.751,4696.6675187317,167.650924,0.3131716,1.27984584148,0,0,-0.671082,74.6, 2.1, 0.4,0,0,1024,1024,1024,1024,73.7,-89.9,97,3.93,3.974,3.96,3.946,3.959,3.952,20.291,84.2,14,Waypoint,
38.4803677,-120.3385599,4697.6517707317,168.635176,0,0.71297902544,22800,2018-07-06 23:02:49,14,0,23.751,4697.6517707317,168.635176,0.3131716,1.27984584148,0,0,-0.671082,74.7, 2, 0.1,0,0,1024,1024,1024,1024,73.7,-89.9,97,3.93,3.974,3.96,3.946,3.959,3.952,20.291,84.2,14,Waypoint,
38.4803677,-120.3385599,4698.6360227317,169.619428,0,0.71297902544,22900,2018-07-06 23:02:49,14,0,23.751,4698.6360227317,169.619428,0.3131716,1.27984584148,0,0,-0.671082,74.7, 2, 0,0,0,1024,1024,1024,1024,73.7,-90,97,3.93,3.974,3.96,3.946,3.959,3.952,20.291,84.2,14,Waypoint,
38.4803676,-120.33856,4700.6045267317,171.587932,0,0.66666996884,23000,2018-07-06 23:02:49,14,0,23.661,4700.6045267317,171.587932,0.3131716,1.27984584148,0,0,-0.671082,74.7, 1.9, -0.1,0,0,1024,1024,1024,1024,73.7,-89.9,97,3.92,3.956,3.946,3.94,3.955,3.94,20.837,84.2,14,Waypoint,
38.4803675,-120.3385601,4702.5730307317,173.556436,0,0.62036419308,23200,2018-07-06 23:02:49,14,0,23.661,4702.5730307317,173.556436,0.3131716,1.27984584148,0,0,-0.671082,74.7, 1.7, -0.2,0,0,1024,1024,1024,1024,73.7,-90,97,3.92,3.956,3.946,3.94,3.955,3.94,20.837,84.2,14,Waypoint,
38.4803674,-120.3385601,4703.5572827317,174.540688,0,0.59293308984,23300,2018-07-06 23:02:49,14,0,23.661,4703.5572827317,174.540688,0.3131716,1.27984584148,0,0,-0.671082,74.6, 1.5, -0.2,0,0,1024,1024,1024,1024,73.7,-90,97,3.92,3.956,3.946,3.94,3.955,3.94,20.837,84.2,14,Waypoint,
38.4803674,-120.3385602,4704.5415347317,175.52494,0,0.57406169816,23400,2018-07-06 23:02:49,14,0,23.661,4704.5415347317,175.52494,0.3131716,1.27984584148,0,0,-0.671082,74.6, 1.4, -0.4,0,0,1024,1024,1024,1024,73.7,-90,97,3.92,3.956,3.946,3.94,3.955,3.94,20.837,84.2,14,Waypoint,
38.4803673,-120.3385602,4705.5257867317,176.509192,0,0.54674542432,23500,2018-07-06 23:02:49,14,0,23.661,4705.5257867317,176.509192,0.3131716,1.27984584148,0,0,-0.671082,74.6, 1.2, -0.5,0,0,1024,1024,1024,1024,73.7,-90,97,3.92,3.956,3.946,3.94,3.955,3.94,20.837,84.2,14,Waypoint,
38.4803673,-120.3385603,4706.5100387317,177.493444,0,0.52776576492,23600,2018-07-06 23:02:50,14,0,23.661,4706.5100387317,177.493444,0.3131716,1.27984584148,0,0,-0.671082,74.5, 1.3, -0.5,0,0,1024,1024,1024,1024,73.7,-90,97,3.92,3.956,3.946,3.94,3.955,3.94,20.837,84.2,14,Waypoint,
38.4803672,-120.3385603,4707.4942907317,178.477696,0,0.50058072468,23700,2018-07-06 23:02:50,14,0,23.661,4707.4942907317,178.477696,0.3131716,1.27984584148,0,0,-0.671082,74.5, 1.4, -0.1,0,0,1024,1024,1024,1024,73.7,-89.9,97,3.92,3.956,3.946,3.94,3.955,3.94,20.837,84.2,14,Waypoint,
38.4803672,-120.3385603,4708.4785427317,179.461948,0,0.50058072468,23800,2018-07-06 23:02:50,14,0,23.661,4708.4785427317,179.461948,0.3131716,1.27984584148,0,0,-0.671082,74.5, 1.5, 0,0,0,1024,1024,1024,1024,73.7,-89.9,97,3.92,3.956,3.946,3.94,3.955,3.94,20.837,84.2,14,Waypoint,
38.4803672,-120.3385603,4709.4627947317,180.4462,0,0.50058072468,23900,2018-07-06 23:02:50,14,0,23.661,4709.4627947317,180.4462,0.3131716,1.27984584148,0,0,-0.671082,74.5, 1.5, 0.1,0,0,1024,1024,1024,1024,73.7,-90,97,3.92,3.956,3.946,3.94,3.955,3.94,20.837,84.2,14,Waypoint,
38.4803672,-120.3385603,4710.7751307317,181.758536,0,0.50058072468,24000,2018-07-06 23:02:50,14,0,23.687,4710.7751307317,181.758536,0.3131716,1.27984584148,0,0,-0.671082,74.5, 1.5, 0,0,0,1024,1024,1024,1024,73.7,-89.9,97,3.92,3.963,3.955,3.94,3.949,3.952,20.498,84.2,14,Waypoint,
38.4803671,-120.3385603,4711.7593827317,182.742788,0,0.47464568448,24100,2018-07-06 23:02:50,14,0,23.687,4711.7593827317,182.742788,0.3131716,1.27984584148,0,0,-0.671082,74.5, 1.6, 0.1,0,0,1024,1024,1024,1024,73.7,-89.9,97,3.92,3.963,3.955,3.94,3.949,3.952,20.498,84.2,14,Waypoint,
38.4803671,-120.3385603,4712.7436347317,183.72704,0,0.47464568448,24200,2018-07-06 23:02:50,14,0,23.687,4712.7436347317,183.72704,0.3131716,1.27984584148,0,0,-0.671082,74.5, 1.8, 0.1,0,0,1024,1024,1024,1024,73.7,-89.9,97,3.92,3.963,3.955,3.94,3.949,3.952,20.498,84.2,14,Waypoint,
38.4803671,-120.3385602,4713.3998027317,184.383208,0,0.49566602636,24400,2018-07-06 23:02:50,13,0,23.687,4713.3998027317,184.383208,0.3131716,1.27984584148,0,0,-0.671082,74.4, 1.9, 0,0,0,1024,1024,1024,1024,73.7,-89.9,97,3.92,3.963,3.955,3.94,3.949,3.952,20.498,84.2,14,Waypoint,
38.480367,-120.3385602,4714.3840547317,185.36746,0,0.47228676052,24500,2018-07-06 23:02:50,13,0,23.687,4714.3840547317,185.36746,0.3131716,1.27984584148,0,0,-0.671082,74.4, 1.9, 0,0,0,1024,1024,1024,1024,73.7,-89.9,97,3.92,3.963,3.955,3.94,3.949,3.952,20.498,84.2,14,Waypoint,
38.480367,-120.3385602,4715.3683067317,186.351712,0,0.47228676052,24600,2018-07-06 23:02:51,13,0,23.687,4715.3683067317,186.351712,0.3131716,1.27984584148,0,0,-0.671082,74.5, 2, -0.2,0,0,1024,1024,1024,1024,73.7,-89.9,97,3.92,3.963,3.955,3.94,3.949,3.952,20.498,84.2,14,Waypoint,
38.4803669,-120.3385602,4716.3525587317,187.335964,0,0.45065290156,24700,2018-07-06 23:02:51,13,0,23.687,4716.3525587317,187.335964,0.3131716,1.27984584148,0,0,-0.671082,74.6, 2.1, -0.3,0,0,1024,1024,1024,1024,73.7,-89.9,97,3.92,3.963,3.955,3.94,3.949,3.952,20.498,84.2,14,Waypoint,
38.4803669,-120.3385601,4717.3368107317,188.320216,0,0.4744586766,24800,2018-07-06 23:02:51,13,0,23.687,4717.3368107317,188.320216,0.3131716,1.27984584148,0,0,-0.671082,74.6, 2.1, -0.4,0,0,1024,1024,1024,1024,73.7,-89.9,97,3.92,3.963,3.955,3.94,3.949,3.952,20.498,84.2,14,Waypoint,
38.4803669,-120.3385601,4718.3210627317,189.304468,0,0.4744586766,24900,2018-07-06 23:02:51,13,0,23.687,4718.3210627317,189.304468,0.3131716,1.27984584148,0,0,-0.671082,74.6, 2.2, -0.3,0,0,1024,1024,1024,1024,73.7,-89.9,97,3.92,3.963,3.955,3.94,3.949,3.952,20.498,84.2,14,Waypoint,
38.4803669,-120.3385601,4719.3053147317,190.28872,0,0.4744586766,25000,2018-07-06 23:02:51,13,0,23.744,4719.3053147317,190.28872,0.3131716,1.27984584148,0,0,-0.671082,74.6, 2.2, -0.2,0,0,1024,1024,1024,1024,73.7,-89.9,96,3.935,3.981,3.958,3.95,3.96,3.957,18.841,84.2,14,Waypoint,
38.4803669,-120.3385601,4720.2895667317,191.272972,0,0.4744586766,25100,2018-07-06 23:02:51,13,0,23.744,4720.2895667317,191.272972,0.3131716,1.27984584148,0,0,-0.671082,74.5, 2.2, -0.3,0,0,1024,1024,1024,1024,73.7,-89.9,96,3.935,3.981,3.958,3.95,3.96,3.957,18.841,84.2,14,Waypoint,
38.4803669,-120.3385601,4721.2738187317,192.257224,0,0.4744586766,25200,2018-07-06 23:02:51,13,0,23.744,4721.2738187317,192.257224,0.3131716,1.27984584148,0,0,-0.671082,74.5, 2, -0.2,0,0,1024,1024,1024,1024,73.7,-89.9,96,3.935,3.981,3.958,3.95,3.96,3.957,18.841,84.2,14,Waypoint,
38.4803668,-120.3385601,4722.2580707317,193.241476,0,0.45585959464,25300,2018-07-06 23:02:51,13,0,23.744,4722.2580707317,193.241476,0.3131716,1.27984584148,0,0,-0.671082,74.4, 1.9, -0.1,0,0,1024,1024,1024,1024,73.7,-89.9,96,3.935,3.981,3.958,3.95,3.96,3.957,18.841,84.2,14,Waypoint,
38.4803669,-120.3385601,4724.2265747317,195.20998,0,0.4744586766,25400,2018-07-06 23:02:51,13,0,23.744,4724.2265747317,195.20998,0.3131716,1.27984584148,0,0,-0.671082,74.5, 2, -0.1,0,0,1024,1024,1024,1024,73.7,-89.9,96,3.935,3.981,3.958,3.95,3.96,3.957,18.841,84.2,14,Waypoint,
38.480367,-120.3385601,4727.1793307317,198.162736,0,0.49505579012,25700,2018-07-06 23:02:52,14,0,23.744,4727.1793307317,198.162736,0.3131716,1.27984584148,0,0,-0.671082,74.7, 2, 0.1,0,0,1024,1024,1024,1024,73.7,-89.9,96,3.935,3.981,3.958,3.95,3.96,3.957,18.841,84.2,14,Waypoint,
38.480367,-120.3385601,4728.1635827317,199.146988,0,0.49505579012,25800,2018-07-06 23:02:52,14,0,23.744,4728.1635827317,199.146988,0.3131716,1.27984584148,0,0,-0.671082,74.7, 2, 0.4,0,0,1024,1024,1024,1024,73.7,-89.9,96,3.935,3.981,3.958,3.95,3.96,3.957,18.841,84.2,14,Waypoint,
38.480367,-120.3385601,4729.1478347317,200.13124,0,0.49505579012,25900,2018-07-06 23:02:52,14,0,23.744,4729.1478347317,200.13124,0.3131716,1.27984584148,0,0,-0.671082,74.7, 2.1, 0.5,0,0,1024,1024,1024,1024,73.7,-89.9,96,3.935,3.981,3.958,3.95,3.96,3.957,18.841,84.2,14,Waypoint,
38.4803671,-120.3385601,4730.1320867317,201.115492,0,0.5174048722,26000,2018-07-06 23:02:52,14,0,23.784,4730.1320867317,201.115492,0.3131716,1.27984584148,0,0,-0.671082,74.6, 2.1, 0.4,0,0,1024,1024,1024,1024,73.7,-89.9,96,3.939,3.986,3.967,3.961,3.954,3.962,18.382,84.2,14,Waypoint,
38.4803671,-120.3385601,4730.7882547317,201.77166,0,0.5174048722,26100,2018-07-06 23:02:52,14,0,23.784,4730.7882547317,201.77166,0.3131716,1.27984584148,0,0,-0.671082,74.6, 2.1, 0.5,0,0,1024,1024,1024,1024,73.7,-89.9,96,3.939,3.986,3.967,3.961,3.954,3.962,18.382,84.2,14,Waypoint,
38.4803672,-120.3385601,4731.7725067317,202.755912,0,0.54129594908,26200,2018-07-06 23:02:52,14,0,23.784,4731.7725067317,202.755912,0.3131716,1.27984584148,0,0,-0.671082,74.6, 2.2, 0.5,0,0,1024,1024,1024,1024,73.7,-89.9,96,3.939,3.986,3.967,3.961,3.954,3.962,18.382,84.2,14,Waypoint,
38.4803673,-120.3385601,4733.7410107317,204.724416,0,0.56652888952,26400,2018-07-06 23:02:52,14,0,23.784,4733.7410107317,204.724416,0.3131716,1.27984584148,0,0,-0.671082,74.5, 2.2, 0.6,0,0,1024,1024,1024,1024,73.7,-89.9,96,3.939,3.986,3.967,3.961,3.954,3.962,18.382,84.2,14,Waypoint,
