Latitude, Longitude, Altitude (m), Time, Sats, Speed (m/s), Range (m), Battery (%), Roll (deg), Pitch (deg), Yaw (deg), Images, HD Signal (%), RC Signal (%), Battery Temp (C), Battery Voltage (mV), Battery Current (mA), Battery Energy (mAh), Battery Capacity (mAh), Battery Discharges, flyState, timestamp (Unix), LastUpdate (ms), radioChannel, Rc_elevator, Rc_aileron, Rc_throttle, Rc_rudder, Rc_gyro, Dronetype, Battery_Cell1 (mV), Battery_Cell2 (mV), Battery_Cell3 (mV), Battery_Cell4 (mV), Battery_Cell5 (mV), Battery_Cell6 (mV), Video, isFlying, elapsedTime (ms), gimbalPitch (deg), gimbalRoll (deg), gimbalYaw (deg), VelocityX (m/s), VelocityY (m/s), VelocityZ (m/s), GroundSmear (cm), App Version, Aircraft Name, Aircraft Firmware, Aircraft Serial Number, Battery Serial Number, Battery Lifetime (%), App_Tip, App_Warning, CurrentFlightStartingIndex, CurrentFlightLastVisitedWaypoint, PreviousFlightEndingWaypointIndex
38.4803336, -120.3385664, 0.000, 16:58:52.993, 14, 0.10, 0.13, 100, -0.900, -0.900, 75.600, 1209, 100, 100, 28, 25961, -3868, 5339, 5339, 19, 11, 1530921532.993, 79, 0, 1024, 1024, 1024, 1024, 0, 6, 4267, 4276, 4326, 4326, 4331, 4325, 0, 1, 3101, -89.900, 0.000, 76.700, 0.100, 0.000, -0.100, 0.0, MapPilot_2.8.1_04242018, Dendroctonus I, , 041DDC1887, 1058163200563, 96, DJI_0206.jpg, Starting Mission from Lat/Long: 38.48033/-120.33857 Camera: Zenmuse X3 - Overlap: 90/90 - Active Connection: No, 45, 45, 45
38.4803338, -120.3385663, 0.000, 16:58:53.093, 14, 0.10, 0.14, 100, -0.500, -0.600, 75.600, 1209, 100, 100, 28, 25961, -3868, 5339, 5339, 19, 11, 1530921533.093, 85, 0, 1024, 1024, 1024, 1024, 0, 6, 4267, 4276, 4326, 4326, 4331, 4325, 0, 1, 3201, -89.900, 0.000, 76.700, 0.100, 0.000, -0.300, 0.0, , , , , , 96, , , 45, 45, 45
38.4803339, -120.3385662, 0.000, 16:58:53.193, 14, 0.14, 0.16, 100, 0.000, 0.000, 75.600, 1209, 100, 100, 28, 25429, -8190, 5339, 5339, 19, 11, 1530921533.193, 89, 0, 1024, 1024, 1024, 1024, 0, 6, 4217, 4244, 4234, 4239, 4205, 4304, 0, 1, 3301, -89.900, 0.000, 76.700, 0.100, 0.100, -0.400, 0.0, , , , , , 96, , , 45, 45, 45
38.4803341, -120.3385660, 0.100, 16:58:53.293, 14, 0.14, 0.18, 100, 0.400, 0.600, 75.700, 1209, 100, 100, 28, 25429, -8190, 5339, 5339, 19, 11, 1530921533.293, 78, 0, 1024, 1024, 1024, 1024, 0, 6, 4217, 4244, 4234, 4239, 4205, 4304, 0, 1, 3401, -89.900, 0.000, 76.700, 0.100, 0.100, -0.400, 0.0, , , , , , 96, , , 45, 45, 45
38.4803342, -120.3385658, 0.100, 16:58:53.393, 14, 0.14, 0.20, 100, 1.000, 1.300, 75.700, 1209, 100, 100, 28, 25429, -8190, 5339, 5339, 19, 11, 1530921533.393, 70, 0, 1024, 1024, 1024, 1024, 0, 6, 4217, 4244, 4234, 4239, 4205, 4304, 0, 1, 3501, -89.900, 0.000, 76.700, 0.100, 0.100, -0.300, 0.0, , , , , , 96, , , 45, 45, 45
38.4803344, -120.3385657, 0.200, 16:58:53.492, 13, 0.14, 0.22, 100, 1.300, 1.900, 75.800, 1209, 100, 100, 28, 25429, -8190, 5339, 5339, 19, 11, 1530921533.492, 72, 0, 1024, 1024, 1024, 1024, 0, 6, 4217, 4244, 4234, 4239, 4205, 4304, 0, 1, 3600, -89.900, 0.000, 76.700, 0.100, 0.100, -0.300, 0.0, , , , , , 96, , , 45, 45, 45
38.4803346, -120.3385656, 0.200, 16:58:53.593, 13, 0.14, 0.24, 100, 1.400, 2.100, 75.900, 1209, 100, 100, 28, 25429, -8190, 5339, 5339, 19, 11, 1530921533.593, 76, 0, 1024, 1024, 1024, 1024, 0, 6, 4217, 4244, 4234, 4239, 4205, 4304, 0, 1, 3701, -89.900, 0.000, 76.700, 0.100, 0.100, -0.300, 0.0, , , , , , 96, , , 45, 45, 45
38.4803347, -120.3385655, 0.200, 16:58:53.693, 12, 0.14, 0.25, 100, 1.100, 1.800, 76.000, 1209, 100, 100, 28, 25429, -8190, 5339, 5339, 19, 11, 1530921533.693, 53, 0, 1024, 1024, 1024, 1024, 0, 6, 4217, 4244, 4234, 4239, 4205, 4304, 0, 1, 3801, -89.900, 0.000, 76.700, 0.100, 0.100, -0.400, 0.0, , , , , , 96, , , 45, 45, 45
38.4803348, -120.3385653, 0.300, 16:58:53.793, 12, 0.10, 0.27, 100, 0.600, 1.500, 76.100, 1209, 100, 100, 28, 25429, -8190, 5339, 5339, 19, 11, 1530921533.793, 47, 0, 1024, 1024, 1024, 1024, 0, 6, 4217, 4244, 4234, 4239, 4205, 4304, 0, 1, 3901, -89.900, 0.000, 76.700, 0.000, 0.100, -0.400, 0.0, , , , , , 96, , , 45, 45, 45
38.4803350, -120.3385652, 0.300, 16:58:53.893, 13, 0.10, 0.29, 100, 0.400, 1.200, 76.300, 1209, 100, 100, 28, 25429, -8190, 5339, 5339, 19, 11, 1530921533.893, 60, 0, 1024, 1024, 1024, 1024, 0, 6, 4217, 4244, 4234, 4239, 4205, 4304, 0, 1, 4001, -89.900, 0.000, 76.700, 0.100, 0.000, -0.400, 0.0, , , , , , 96, , , 45, 45, 45
38.4803351, -120.3385651, 0.400, 16:58:53.993, 13, 0.14, 0.31, 100, 0.700, 1.300, 76.500, 1209, 100, 100, 28, 25429, -8190, 5339, 5339, 19, 11, 1530921533.993, 49, 0, 1024, 1024, 1024, 1024, 0, 6, 4217, 4244, 4234, 4239, 4205, 4304, 0, 1, 4101, -89.900, 0.000, 76.700, 0.100, 0.100, -0.400, 0.0, , , , , , 96, , , 45, 45, 45
38.4803353, -120.3385650, 0.400, 16:58:54.093, 14, 0.14, 0.33, 100, 1.100, 1.300, 76.500, 1209, 100, 100, 28, 25429, -8190, 5339, 5339, 19, 11, 1530921534.093, 40, 0, 1024, 1024, 1024, 1024, 0, 6, 4217, 4244, 4234, 4239, 4205, 4304, 0, 1, 4201, -89.900, 0.000, 76.700, 0.100, 0.100, -0.400, 0.0, , , , , , 96, , , 45, 45, 45
38.4803354, -120.3385649, 0.500, 16:58:54.193, 14, 0.14, 0.35, 100, 1.200, 1.200, 76.400, 1209, 100, 100, 28, 24785, -16101, 5339, 5339, 19, 11, 1530921534.193, 47, 0, 1024, 1024, 1024, 1024, 0, 6, 4119, 4117, 4137, 4116, 4131, 4120, 0, 1, 4301, -89.900, 0.000, 76.700, 0.100, 0.100, -0.500, 0.0, , , , , , 96, , , 45, 45, 45
38.4803356, -120.3385648, 0.600, 16:58:54.293, 14, 0.10, 0.37, 100, 1.200, 1.300, 76.100, 1209, 100, 100, 28, 24785, -16101, 5339, 5339, 19, 11, 1530921534.293, 40, 0, 1024, 1024, 1024, 1024, 0, 6, 4119, 4117, 4137, 4116, 4131, 4120, 0, 1, 4401, -89.900, 0.000, 76.700, 0.000, 0.100, -0.500, 0.0, , , , , , 96, , , 45, 45, 45
38.4803357, -120.3385647, 0.600, 16:58:54.393, 14, 0.10, 0.39, 100, 1.400, 1.800, 75.800, 1209, 100, 100, 28, 24785, -16101, 5339, 5339, 19, 11, 1530921534.393, 46, 0, 1024, 1024, 1024, 1024, 0, 6, 4119, 4117, 4137, 4116, 4131, 4120, 0, 1, 4501, -89.900, 0.000, 76.700, 0.000, 0.100, -0.500, 0.0, , , , , , 96, , , 45, 45, 45
38.4803359, -120.3385645, 0.700, 16:58:54.492, 15, 0.10, 0.41, 100, 1.800, 2.300, 75.500, 1209, 100, 100, 28, 24785, -16101, 5339, 5339, 19, 11, 1530921534.492, 18, 0, 1024, 1024, 1024, 1024, 0, 6, 4119, 4117, 4137, 4116, 4131, 4120, 0, 1, 4600, -89.900, 0.000, 76.700, 0.000, 0.100, -0.500, 0.0, , , , , , 96, , , 45, 45, 45
38.4803361, -120.3385644, 0.700, 16:58:54.592, 15, 0.10, 0.43, 100, 1.700, 2.600, 75.400, 1209, 100, 100, 28, 24785, -16101, 5339, 5339, 19, 11, 1530921534.592, 9, 0, 1024, 1024, 1024, 1024, 0, 6, 4119, 4117, 4137, 4116, 4131, 4120, 0, 1, 4700, -89.900, 0.000, 76.700, 0.000, 0.100, -0.400, 0.0, , , , , , 96, , , 45, 45, 45
38.4803361, -120.3385643, 0.800, 16:58:54.692, 15, 0.00, 0.44, 100, 1.400, 2.700, 75.500, 1209, 100, 100, 28, 24785, -16101, 5339, 5339, 19, 11, 1530921534.693, 18, 0, 1024, 1024, 1024, 1024, 0, 6, 4119, 4117, 4137, 4116, 4131, 4120, 0, 1, 4801, -89.900, 0.000, 76.700, 0.000, 0.000, -0.400, 0.0, , , , , , 96, , , 45, 45, 45
38.4803361, -120.3385642, 0.800, 16:58:54.793, 15, 0.00, 0.44, 100, 1.200, 2.600, 75.600, 1209, 100, 100, 28, 24785, -16101, 5339, 5339, 19, 11, 1530921534.793, 21, 0, 1024, 1024, 1024, 1024, 0, 6, 4119, 4117, 4137, 4116, 4131, 4120, 0, 1, 4901, -89.900, 0.000, 76.700, 0.000, 0.000, -0.400, 0.0, , , , , , 96, , , 45, 45, 45
38.4803363, -120.3385642, 0.900, 16:58:54.892, 12, 0.00, 0.46, 100, 1.000, 2.500, 75.600, 1209, 100, 100, 28, 24785, -16101, 5339, 5339, 19, 14, 1530921534.893, 12, 0, 1024, 1024, 1024, 1024, 0, 6, 4119, 4117, 4137, 4116, 4131, 4120, 0, 1, 5001, -89.900, 0.000, 76.700, 0.000, 0.000, -0.400, 0.0, , , , , , 96, , , 45, 45, 45
38.4803364, -120.3385642, 0.900, 16:58:54.992, 12, 0.00, 0.47, 100, 1.100, 2.500, 75.500, 1209, 100, 100, 28, 24785, -16101, 5339, 5339, 19, 14, 1530921534.993, 18, 0, 1024, 1024, 1024, 1024, 0, 6, 4119, 4117, 4137, 4116, 4131, 4120, 0, 1, 5101, -89.900, 0.000, 76.700, 0.000, 0.000, -0.300, 0.0, , , , , , 96, , , 45, 45, 45
38.4803366, -120.3385641, 1.000, 16:58:55.092, 15, 0.00, 0.49, 100, 0.600, 1.800, 75.000, 1209, 100, 100, 28, 24785, -16101, 5339, 5339, 19, 14, 1530921535.093, 7, 0, 1024, 1024, 1024, 1024, 0, 6, 4119, 4117, 4137, 4116, 4131, 4120, 0, 1, 5201, -89.900, 0.000, 76.700, 0.000, 0.000, -0.300, 0.0, , , , , , 96, , , 45, 45, 45
38.4803367, -120.3385641, 1.100, 16:58:55.192, 15, 0.00, 0.50, 100, 0.700, 1.600, 74.700, 1209, 100, 100, 28, 24631, -16033, 5339, 5339, 19, 14, 1530921535.193, 9, 0, 1024, 1024, 1024, 1024, 0, 6, 4103, 4095, 4103, 4102, 4111, 4113, 0, 1, 5301, -90.000, 0.000, 76.600, 0.000, 0.000, -0.300, 0.0, , , , , , 96, , , 45, 45, 45
38.4803368, -120.3385640, 1.100, 16:58:55.293, 15, 0.00, 0.51, 100, 0.900, 1.500, 74.600, 1209, 100, 100, 28, 24631, -16033, 5339, 5339, 19, 14, 1530921535.293, 15, 0, 1024, 1024, 1024, 1024, 0, 6, 4103, 4095, 4103, 4102, 4111, 4113, 0, 1, 5401, -90.000, 0.000, 76.600, 0.000, 0.000, -0.400, 0.0, , , , , , 96, , , 45, 45, 45
38.4803368, -120.3385640, 1.100, 16:58:55.392, 15, 0.00, 0.51, 100, 0.900, 1.500, 74.600, 1209, 100, 100, 28, 24631, -16033, 5339, 5339, 19, 14, 1530921535.393, 115, 0, 1024, 1024, 1024, 1024, 0, 6, 4103, 4095, 4103, 4102, 4111, 4113, 0, 1, 5501, -90.000, 0.000, 76.600, 0.000, 0.000, -0.400, 0.0, , , , , , 96, , , 45, 45, 45
38.4803368, -120.3385640, 1.200, 16:58:55.492, 15, 0.00, 0.52, 100, 0.900, 1.500, 74.500, 1209, 100, 100, 28, 24631, -16033, 5339, 5339, 19, 14, 1530921535.493, 88, 0, 1024, 1024, 1024, 1024, 0, 6, 4103, 4095, 4103, 4102, 4111, 4113, 0, 1, 5600, -90.000, 0.000, 76.500, 0.000, 0.000, -0.500, 0.0, , , , , , 96, , , 45, 45, 45
38.4803369, -120.3385639, 1.300, 16:58:55.592, 15, 0.00, 0.53, 100, 0.900, 1.500, 74.400, 1209, 100, 100, 28, 24631, -16033, 5339, 5339, 19, 14, 1530921535.593, 79, 0, 1024, 1024, 1024, 1024, 0, 6, 4103, 4095, 4103, 4102, 4111, 4113, 0, 1, 5701, -90.000, 0.000, 76.500, 0.000, 0.000, -0.700, 0.0, , , , , , 96, , , 45, 45, 45
38.4803370, -120.3385638, 1.300, 16:58:55.693, 13, 0.00, 0.54, 100, 0.900, 1.600, 74.100, 1209, 100, 100, 28, 24631, -16033, 5339, 5339, 19, 14, 1530921535.693, 80, 0, 1024, 1024, 1024, 1024, 0, 6, 4103, 4095, 4103, 4102, 4111, 4113, 0, 1, 5801, -90.000, 0.000, 76.400, 0.000, 0.000, -0.900, 0.0, , , , , , 96, , , 45, 45, 45
38.4803370, -120.3385637, 1.400, 16:58:55.792, 13, 0.00, 0.55, 100, 0.800, 1.900, 73.700, 1209, 100, 100, 28, 24631, -16033, 5339, 5339, 19, 14, 1530921535.793, 86, 0, 1024, 1024, 1024, 1024, 0, 6, 4103, 4095, 4103, 4102, 4111, 4113, 0, 1, 5901, -89.900, 0.000, 76.400, 0.000, 0.000, -1.100, 0.0, , , , , , 96, , , 45, 45, 45
38.4803370, -120.3385637, 1.600, 16:58:55.892, 11, 0.00, 0.55, 100, 0.800, 2.000, 73.400, 1209, 100, 100, 28, 24631, -16033, 5339, 5339, 19, 14, 1530921535.893, 89, 0, 1024, 1024, 1024, 1024, 0, 6, 4103, 4095, 4103, 4102, 4111, 4113, 0, 1, 6001, -89.900, 0.000, 76.300, 0.000, 0.000, -1.300, 0.0, , , , , , 96, , , 45, 45, 45
38.4803371, -120.3385636, 1.700, 16:58:55.992, 11, 0.00, 0.56, 100, 0.700, 2.200, 72.900, 1209, 100, 100, 28, 24631, -16033, 5339, 5339, 19, 14, 1530921535.993, 80, 0, 1024, 1024, 1024, 1024, 0, 6, 4103, 4095, 4103, 4102, 4111, 4113, 0, 1, 6101, -89.900, 0.000, 76.200, 0.000, 0.000, -1.500, 0.0, , , , , , 96, , , 45, 45, 45
38.4803371, -120.3385634, 1.900, 16:58:56.092, 11, 0.00, 0.57, 100, 0.700, 2.100, 72.600, 1209, 100, 100, 28, 24631, -16033, 5339, 5339, 19, 14, 1530921536.093, 81, 0, 1024, 1024, 1024, 1024, 0, 6, 4103, 4095, 4103, 4102, 4111, 4113, 0, 1, 6201, -89.900, 0.000, 76.100, 0.000, 0.000, -1.800, 0.0, , , , , , 96, , , 45, 45, 45
38.4803371, -120.3385632, 2.100, 16:58:56.192, 11, 0.00, 0.58, 100, 1.100, 2.300, 72.600, 1209, 100, 100, 28, 24514, -17433, 5232, 5339, 19, 14, 1530921536.193, 77, 0, 1024, 1024, 1024, 1024, 0, 6, 4058, 4107, 4068, 4061, 4056, 4083, 0, 1, 6300, -89.900, 0.000, 76.000, 0.000, 0.000, -1.900, 0.0, , , , , , 96, , , 45, 45, 45
38.4803375, -120.3385632, 2.300, 16:58:56.292, 11, 0.00, 0.62, 100, 1.300, 2.400, 72.900, 1209, 100, 100, 28, 24514, -17433, 5232, 5339, 19, 14, 1530921536.293, 68, 0, 1024, 1024, 1024, 1024, 0, 6, 4058, 4107, 4068, 4061, 4056, 4083, 0, 1, 6400, -89.900, 0.000, 75.900, 0.000, 0.000, -2.200, 0.0, , , , , , 96, , , 45, 45, 45
38.4803379, -120.3385632, 2.500, 16:58:56.392, 11, 0.00, 0.66, 100, 1.500, 2.600, 73.300, 1209, 100, 100, 28, 24514, -17433, 5232, 5339, 19, 14, 1530921536.393, 70, 0, 1024, 1024, 1024, 1024, 0, 6, 4058, 4107, 4068, 4061, 4056, 4083, 0, 1, 6500, -89.900, 0.000, 75.900, 0.000, 0.000, -2.400, 0.0, , , , , , 96, , , 45, 45, 45
38.4803380, -120.3385630, 2.800, 16:58:56.492, 12, 0.00, 0.67, 100, 1.800, 2.700, 74.000, 1209, 100, 100, 28, 24514, -17433, 5232, 5339, 19, 14, 1530921536.493, 55, 0, 1024, 1024, 1024, 1024, 0, 6, 4058, 4107, 4068, 4061, 4056, 4083, 0, 1, 6601, -89.900, 0.000, 75.800, 0.000, 0.000, -2.700, 0.0, , , , , , 96, , , 45, 45, 45
38.4803381, -120.3385628, 3.000, 16:58:56.592, 12, 0.00, 0.69, 100, 1.700, 2.900, 74.500, 1209, 100, 100, 28, 24514, -17433, 5232, 5339, 19, 14, 1530921536.593, 59, 0, 1024, 1024, 1024, 1024, 0, 6, 4058, 4107, 4068, 4061, 4056, 4083, 0, 1, 6701, -89.900, 0.000, 75.700, 0.000, 0.000, -2.800, 0.0, , , , , , 96, , , 45, 45, 45
38.4803382, -120.3385627, 3.300, 16:58:56.692, 10, 0.00, 0.71, 98, 1.700, 3.200, 74.800, 1209, 100, 100, 28, 24514, -17433, 5232, 5339, 19, 14, 1530921536.693, 37, 0, 1024, 1024, 1024, 1024, 0, 6, 4058, 4107, 4068, 4061, 4056, 4083, 0, 1, 6800, -89.900, 0.000, 75.600, 0.000, 0.000, -2.900, 0.0, , , , , , 96, , , 45, 45, 45
38.4803384, -120.3385626, 3.600, 16:58:56.792, 10, 0.00, 0.73, 98, 1.700, 3.300, 74.800, 1209, 100, 100, 28, 24514, -17433, 5232, 5339, 19, 14, 1530921536.793, 51, 0, 1024, 1024, 1024, 1024, 0, 6, 4058, 4107, 4068, 4061, 4056, 4083, 0, 1, 6900, -89.900, 0.000, 75.600, 0.000, 0.000, -3.000, 0.0, , , , , , 96, , , 45, 45, 45
38.4803386, -120.3385625, 4.000, 16:58:56.893, 12, 0.00, 0.75, 98, 1.900, 3.300, 74.700, 1209, 100, 100, 28, 24514, -17433, 5232, 5339, 19, 14, 1530921536.893, 45, 0, 1024, 1024, 1024, 1024, 0, 6, 4058, 4107, 4068, 4061, 4056, 4083, 0, 1, 7001, -89.900, 0.000, 75.500, 0.000, 0.000, -3.100, 0.0, , , , , , 96, , , 45, 45, 45
38.4803388, -120.3385624, 4.300, 16:58:56.992, 12, 0.00, 0.77, 98, 2.300, 3.300, 74.500, 1209, 100, 100, 28, 24514, -17433, 5232, 5339, 19, 14, 1530921536.993, 45, 0, 1024, 1024, 1024, 1024, 0, 6, 4058, 4107, 4068, 4061, 4056, 4083, 0, 1, 7100, -89.900, 0.000, 75.400, 0.000, 0.000, -3.100, 0.0, , , , , , 96, , , 45, 45, 45
38.4803391, -120.3385624, 4.600, 16:58:57.092, 14, 0.00, 0.81, 98, 2.500, 3.300, 74.200, 1209, 100, 100, 28, 24514, -17433, 5232, 5339, 19, 14, 1530921537.093, 42, 0, 1024, 1024, 1024, 1024, 0, 6, 4058, 4107, 4068, 4061, 4056, 4083, 0, 1, 7200, -89.900, 0.000, 75.400, 0.000, 0.000, -3.200, 0.0, , , , , , 96, , , 45, 45, 45
38.4803394, -120.3385625, 5.000, 16:58:57.192, 14, 0.00, 0.84, 98, 3.300, 3.500, 74.000, 1209, 100, 100, 28, 24023, -23103, 5232, 5339, 19, 14, 1530921537.193, 39, 0, 1024, 1024, 1024, 1024, 0, 6, 4058, 4107, 4068, 4061, 4056, 4083, 0, 1, 7300, -89.900, 0.000, 75.300, 0.000, 0.000, -3.300, 0.0, , , , , , 96, , , 45, 45, 45
38.4803397, -120.3385626, 5.300, 16:58:57.292, 14, 0.00, 0.86, 98, 3.900, 3.500, 73.700, 1209, 100, 100, 28, 24023, -23103, 5232, 5339, 19, 14, 1530921537.293, 15, 0, 1024, 1024, 1024, 1024, 0, 6, 4058, 4107, 4068, 4061, 4056, 4083, 0, 1, 7400, -89.900, 0.000, 75.300, 0.000, 0.000, -3.300, 0.0, , , , , , 96, , , 45, 45, 45
38.4803399, -120.3385627, 5.700, 16:58:57.392, 14, 0.00, 0.88, 98, 4.400, 3.300, 73.500, 1209, 100, 100, 28, 24023, -23103, 5232, 5339, 19, 14, 1530921537.393, 33, 0, 1024, 1024, 1024, 1024, 0, 6, 4058, 4107, 4068, 4061, 4056, 4083, 0, 1, 7500, -89.900, 0.000, 75.200, 0.000, 0.000, -3.200, 0.0, , , , , , 96, , , 45, 45, 45
38.4803400, -120.3385627, 6.000, 16:58:57.491, 14, 0.00, 0.89, 98, 4.600, 3.200, 73.300, 1209, 100, 100, 28, 24023, -23103, 5232, 5339, 19, 14, 1530921537.492, 12, 0, 1024, 1024, 1024, 1024, 0, 6, 4058, 4107, 4068, 4061, 4056, 4083, 0, 1, 7599, -89.900, 0.000, 75.200, 0.000, 0.000, -3.200, 0.0, , , , , , 96, , , 45, 45, 45
38.4803400, -120.3385627, 6.300, 16:58:57.592, 14, 0.00, 0.89, 98, 4.500, 3.200, 73.400, 1209, 100, 100, 28, 24023, -23103, 5232, 5339, 19, 14, 1530921537.592, 1, 0, 1024, 1024, 1024, 1024, 0, 6, 4058, 4107, 4068, 4061, 4056, 4083, 0, 1, 7700, -89.900, 0.000, 75.100, 0.000, 0.000, -3.100, 0.0, , , , , , 96, , , 45, 45, 45
38.4803396, -120.3385629, 7.000, 16:58:57.692, 14, 0.10, 0.84, 98, 2.600, 2.800, 73.600, 1209, 100, 100, 28, 24023, -23103, 5232, 5339, 19, 14, 1530921537.693, 15, 0, 1024, 1024, 1024, 1024, 0, 6, 3999, 3989, 4008, 3999, 4032, 4000, 0, 1, 7800, -89.900, 0.000, 75.100, -0.100, 0.000, -3.200, 0.0, , , , , , 96, , , 45, 45, 45
38.4803396, -120.3385629, 7.000, 16:58:57.792, 14, 0.10, 0.84, 98, 2.600, 2.800, 73.600, 1209, 100, 100, 28, 24023, -23103, 5232, 5339, 19, 14, 1530921537.792, 114, 0, 1024, 1024, 1024, 1024, 0, 6, 3999, 3989, 4008, 3999, 4032, 4000, 0, 1, 7900, -89.900, 0.000, 75.100, -0.100, 0.000, -3.200, 0.0, , , , , , 96, , , 45, 45, 45
38.4803393, -120.3385629, 7.300, 16:58:57.892, 15, 0.20, 0.81, 98, 1.600, 2.500, 73.600, 1209, 100, 100, 28, 24023, -23103, 5232, 5339, 19, 14, 1530921537.893, 96, 0, 1024, 1024, 1024, 1024, 0, 6, 3999, 3989, 4008, 3999, 4032, 4000, 0, 1, 8000, -90.000, 0.000, 75.000, -0.200, 0.000, -3.100, 0.1, , , , , , 96, , , 45, 45, 45
38.4803389, -120.3385630, 7.600, 16:58:57.992, 15, 0.20, 0.77, 98, 0.700, 2.300, 73.600, 1209, 100, 100, 28, 24023, -23103, 5232, 5339, 19, 14, 1530921537.993, 87, 0, 1024, 1024, 1024, 1024, 0, 6, 3999, 3989, 4008, 3999, 4032, 4000, 0, 1, 8100, -90.000, 0.000, 75.000, -0.200, 0.000, -3.100, 0.1, , , , , , 96, , , 45, 45, 45
38.4803387, -120.3385631, 7.900, 16:58:58.092, 14, 0.20, 0.74, 98, 0.500, 1.900, 73.500, 1209, 100, 100, 28, 24023, -23103, 5232, 5339, 19, 14, 1530921538.093, 90, 0, 1024, 1024, 1024, 1024, 0, 6, 3999, 3989, 4008, 3999, 4032, 4000, 0, 1, 8200, -90.000, 0.000, 75.000, -0.200, 0.000, -3.100, 0.1, , , , , , 96, , , 45, 45, 45
38.4803387, -120.3385631, 7.900, 16:58:58.192, 14, 0.20, 0.74, 98, 0.500, 1.900, 73.500, 1209, 100, 100, 28, 24023, -23103, 5232, 5339, 19, 14, 1530921538.193, 190, 0, 1024, 1024, 1024, 1024, 0, 6, 3999, 3989, 4008, 3999, 4032, 4000, 0, 1, 8300, -90.000, 0.000, 75.000, -0.200, 0.000, -3.100, 0.1, , , , , , 96, , , 45, 45, 45
38.4803381, -120.3385636, 8.600, 16:58:58.292, 14, 0.14, 0.67, 98, 0.600, 0.900, 73.200, 1209, 100, 99, 28, 24023, -23103, 5232, 5339, 19, 14, 1530921538.293, 98, 0, 1024, 1024, 1024, 1024, 0, 6, 3999, 3989, 4008, 3999, 4032, 4000, 0, 1, 8400, -90.000, 0.000, 74.900, -0.100, -0.100, -3.100, 0.0, , , , , , 96, , , 45, 45, 45
38.4803378, -120.3385638, 8.900, 16:58:58.392, 14, 0.22, 0.63, 98, 0.700, 0.600, 73.000, 1209, 100, 99, 28, 24023, -23103, 5232, 5339, 19, 14, 1530921538.393, 87, 0, 1024, 1024, 1024, 1024, 0, 6, 3999, 3989, 4008, 3999, 4032, 4000, 0, 1, 8500, -90.000, 0.000, 74.900, -0.200, -0.100, -3.100, 0.1, , , , , , 96, , , 45, 45, 45
38.4803375, -120.3385640, 9.200, 16:58:58.492, 13, 0.20, 0.59, 98, 0.500, 0.300, 72.800, 1209, 100, 99, 28, 24023, -23103, 5232, 5339, 19, 14, 1530921538.492, 95, 0, 1024, 1024, 1024, 1024, 0, 6, 3999, 3989, 4008, 3999, 4032, 4000, 0, 1, 8600, -90.000, 0.000, 74.800, -0.200, 0.000, -3.200, 0.1, , , , , , 96, , , 45, 45, 45
38.4803371, -120.3385642, 9.600, 16:58:58.592, 13, 0.20, 0.55, 98, 0.200, 0.000, 72.700, 1209, 100, 99, 28, 24023, -23103, 5232, 5339, 19, 14, 1530921538.593, 57, 0, 1024, 1024, 1024, 1024, 0, 6, 3999, 3989, 4008, 3999, 4032, 4000, 0, 1, 8700, -90.000, 0.000, 74.800, -0.200, 0.000, -3.200, 0.1, , , , , , 96, , , 45, 45, 45
38.4803368, -120.3385643, 9.900, 16:58:58.691, 14, 0.20, 0.51, 98, 0.000, -0.200, 72.800, 1209, 100, 99, 28, 24222, -19439, 5232, 5339, 19, 14, 1530921538.692, 67, 0, 1024, 1024, 1024, 1024, 0, 6, 4032, 4026, 4036, 4038, 4049, 4041, 0, 1, 8799, -90.000, 0.000, 74.800, -0.200, 0.000, -3.100, 0.1, , , , , , 96, , , 45, 45, 45
38.4803366, -120.3385644, 10.300, 16:58:58.792, 14, 0.10, 0.48, 98, -0.500, -0.400, 72.800, 1209, 100, 99, 28, 24222, -19439, 5232, 5339, 19, 14, 1530921538.793, 61, 0, 1024, 1024, 1024, 1024, 0, 6, 4032, 4026, 4036, 4038, 4049, 4041, 0, 1, 8900, -90.000, 0.000, 74.800, -0.100, 0.000, -3.100, 0.0, , , , , , 96, , , 45, 45, 45
38.4803363, -120.3385645, 10.600, 16:58:58.891, 16, 0.10, 0.44, 98, -1.000, -0.300, 72.900, 1209, 100, 99, 28, 24222, -19439, 5232, 5339, 19, 14, 1530921538.892, 64, 0, 1024, 1024, 1024, 1024, 0, 6, 4032, 4026, 4036, 4038, 4049, 4041, 0, 1, 9000, -90.000, 0.000, 74.700, -0.100, 0.000, -3.100, 0.0, , , , , , 96, , , 45, 45, 45
38.4803359, -120.3385646, 10.900, 16:58:58.992, 16, 0.10, 0.41, 98, -1.500, -0.200, 72.900, 1209, 100, 99, 28, 24222, -19439, 5232, 5339, 19, 14, 1530921538.993, 36, 0, 1024, 1024, 1024, 1024, 0, 6, 4032, 4026, 4036, 4038, 4049, 4041, 0, 1, 9100, -89.900, 0.000, 74.700, -0.100, 0.000, -3.000, 0.0, , , , , , 96, , , 45, 45, 45
38.4803356, -120.3385646, 11.200, 16:58:59.092, 16, 0.10, 0.38, 98, -1.600, 0.000, 73.100, 1209, 100, 99, 28, 24222, -19439, 5232, 5339, 19, 14, 1530921539.093, 64, 0, 1024, 1024, 1024, 1024, 0, 6, 4032, 4026, 4036, 4038, 4049, 4041, 0, 1, 9201, -90.000, 0.000, 74.700, -0.100, 0.000, -3.000, 0.0, , , , , , 96, , , 45, 45, 45
38.4803354, -120.3385646, 11.500, 16:58:59.192, 16, 0.10, 0.35, 98, -1.100, 0.400, 73.100, 1209, 100, 99, 28, 24222, -19439, 5232, 5339, 19, 14, 1530921539.192, 56, 0, 1024, 1024, 1024, 1024, 0, 6, 4032, 4026, 4036, 4038, 4049, 4041, 0, 1, 9300, -89.900, 0.000, 74.700, -0.100, 0.000, -3.000, 0.0, , , , , , 96, , , 45, 45, 45
38.4803350, -120.3385647, 11.900, 16:58:59.292, 16, 0.00, 0.32, 98, -0.900, 0.600, 73.200, 1209, 100, 99, 28, 24222, -19439, 5232, 5339, 19, 14, 1530921539.292, 56, 0, 1024, 1024, 1024, 1024, 0, 6, 4032, 4026, 4036, 4038, 4049, 4041, 0, 1, 9400, -90.000, 0.000, 74.600, 0.000, 0.000, -2.900, 0.0, , , , , , 96, , , 45, 45, 45
38.4803347, -120.3385648, 12.200, 16:58:59.391, 16, 0.00, 0.28, 98, -1.000, 0.500, 73.300, 1209, 100, 99, 28, 24222, -19439, 5232, 5339, 19, 14, 1530921539.392, 46, 0, 1024, 1024, 1024, 1024, 0, 6, 4032, 4026, 4036, 4038, 4049, 4041, 0, 1, 9499, -90.000, 0.000, 74.600, 0.000, 0.000, -2.900, 0.0, , , , , , 96, , , 45, 45, 45
38.4803346, -120.3385648, 12.500, 16:58:59.492, 14, 0.00, 0.26, 98, -1.400, 0.000, 73.400, 1209, 100, 99, 28, 24222, -19439, 5232, 5339, 19, 14, 1530921539.493, 47, 0, 1024, 1024, 1024, 1024, 0, 6, 4032, 4026, 4036, 4038, 4049, 4041, 0, 1, 9600, -90.000, 0.000, 74.600, 0.000, 0.000, -3.000, 0.0, , , , , , 96, , , 45, 45, 45
38.4803345, -120.3385649, 12.800, 16:58:59.592, 14, 0.00, 0.25, 98, -1.500, -0.100, 73.300, 1209, 100, 99, 28, 24222, -19439, 5232, 5339, 19, 14, 1530921539.592, 16, 0, 1024, 1024, 1024, 1024, 0, 6, 4032, 4026, 4036, 4038, 4049, 4041, 0, 1, 9700, -90.000, 0.000, 74.600, 0.000, 0.000, -2.900, 0.0, , , , , , 96, , , 45, 45, 45
38.4803345, -120.3385649, 13.100, 16:58:59.692, 15, 0.00, 0.25, 98, -1.300, -0.300, 73.200, 1209, 100, 99, 28, 24240, -18578, 5232, 5339, 19, 14, 1530921539.692, 26, 0, 1024, 1024, 1024, 1024, 0, 6, 4027, 4021, 4055, 4047, 4057, 4051, 0, 1, 9800, -90.000, 0.000, 74.600, 0.000, 0.000, -2.900, 0.0, , , , , , 96, , , 45, 45, 45
38.4803346, -120.3385649, 13.400, 16:58:59.792, 15, 0.00, 0.26, 98, -1.100, -0.200, 73.100, 1209, 100, 100, 28, 24240, -18578, 5232, 5339, 19, 14, 1530921539.793, 29, 0, 1024, 1024, 1024, 1024, 0, 6, 4027, 4021, 4055, 4047, 4057, 4051, 0, 1, 9901, -90.000, 0.000, 74.500, 0.000, 0.000, -2.900, 0.0, , , , , , 96, , , 45, 45, 45
38.4803345, -120.3385649, 13.700, 16:58:59.892, 16, 0.00, 0.26, 98, -0.700, 0.000, 73.100, 1209, 100, 100, 28, 24240, -18578, 5232, 5339, 19, 14, 1530921539.892, 30, 0, 1024, 1024, 1024, 1024, 0, 6, 4027, 4021, 4055, 4047, 4057, 4051, 0, 1, 10000, -90.000, 0.000, 74.500, 0.000, 0.000, -2.900, 0.0, , , , , , 96, , , 45, 45, 45
38.4803345, -120.3385649, 13.700, 16:58:59.992, 16, 0.00, 0.26, 98, -0.700, 0.000, 73.100, 1209, 100, 100, 28, 24240, -18578, 5232, 5339, 19, 14, 1530921539.993, 130, 0, 1024, 1024, 1024, 1024, 0, 6, 4027, 4021, 4055, 4047, 4057, 4051, 0, 1, 10100, -90.000, 0.000, 74.500, 0.000, 0.000, -2.900, 0.0, , , , , , 96, , , 45, 45, 45
38.4803344, -120.3385647, 14.600, 16:59:00.091, 16, 0.00, 0.25, 98, 0.000, 0.600, 72.900, 1209, 100, 100, 28, 24240, -18578, 5232, 5339, 19, 14, 1530921540.092, 6, 0, 1024, 1024, 1024, 1024, 0, 6, 4027, 4021, 4055, 4047, 4057, 4051, 0, 1, 10199, -89.900, 0.000, 74.500, 0.000, 0.000, -2.900, 0.0, , , , , , 96, , , 45, 45, 45
38.4803344, -120.3385647, 14.600, 16:59:00.192, 16, 0.00, 0.25, 98, 0.000, 0.600, 72.900, 1209, 100, 100, 28, 24240, -18578, 5232, 5339, 19, 14, 1530921540.192, 107, 0, 1024, 1024, 1024, 1024, 0, 6, 4027, 4021, 4055, 4047, 4057, 4051, 0, 1, 10300, -89.900, 0.000, 74.500, 0.000, 0.000, -2.900, 0.0, , , , , , 96, , , 45, 45, 45
38.4803344, -120.3385645, 15.200, 16:59:00.292, 16, 0.00, 0.26, 98, -0.300, 1.600, 73.100, 1209, 100, 100, 28, 24240, -18578, 5232, 5339, 19, 14, 1530921540.292, 10, 0, 1024, 1024, 1024, 1024, 0, 6, 4027, 4021, 4055, 4047, 4057, 4051, 0, 1, 10400, -89.900, 0.000, 74.500, 0.000, 0.000, -2.900, 0.0, , , , , , 96, , , 45, 45, 45
38.4803344, -120.3385644, 15.500, 16:59:00.392, 16, 0.00, 0.27, 98, -0.400, 1.800, 73.300, 1209, 100, 100, 28, 24240, -18578, 5232, 5339, 19, 14, 1530921540.393, 7, 0, 1024, 1024, 1024, 1024, 0, 6, 4027, 4021, 4055, 4047, 4057, 4051, 0, 1, 10500, -89.900, 0.000, 74.400, 0.000, 0.000, -2.900, 0.0, , , , , , 96, , , 45, 45, 45
38.4803344, -120.3385644, 15.500, 16:59:00.491, 16, 0.00, 0.27, 98, -0.400, 1.800, 73.300, 1209, 100, 100, 28, 24240, -18578, 5232, 5339, 19, 14, 1530921540.492, 106, 0, 1024, 1024, 1024, 1024, 0, 6, 4027, 4021, 4055, 4047, 4057, 4051, 0, 1, 10600, -89.900, 0.000, 74.400, 0.000, 0.000, -2.900, 0.0, , , , , , 96, , , 45, 45, 45
38.4803344, -120.3385644, 15.800, 16:59:00.592, 16, 0.10, 0.27, 98, -0.200, 1.800, 73.500, 1209, 100, 100, 28, 24240, -18578, 5232, 5339, 19, 14, 1530921540.592, 87, 0, 1024, 1024, 1024, 1024, 0, 6, 4027, 4021, 4055, 4047, 4057, 4051, 0, 1, 10700, -89.900, 0.000, 74.400, 0.100, 0.000, -2.900, 0.0, , , , , , 96, , , 45, 45, 45
38.4803345, -120.3385644, 16.100, 16:59:00.692, 16, 0.10, 0.27, 98, -0.100, 1.700, 73.700, 1209, 100, 100, 28, 24240, -18578, 5232, 5339, 19, 14, 1530921540.693, 89, 0, 1024, 1024, 1024, 1024, 0, 6, 4027, 4021, 4055, 4047, 4057, 4051, 0, 1, 10800, -89.900, 0.000, 74.400, 0.100, 0.000, -2.900, 0.0, , , , , , 96, , , 45, 45, 45
38.4803345, -120.3385644, 16.400, 16:59:00.792, 16, 0.10, 0.28, 98, -0.200, 1.400, 73.800, 1209, 100, 100, 28, 24252, -17888, 5232, 5339, 19, 14, 1530921540.792, 75, 0, 1024, 1024, 1024, 1024, 0, 6, 4033, 4029, 4046, 4040, 4057, 4051, 0, 1, 10900, -89.900, 0.000, 74.400, 0.100, 0.000, -2.900, 0.0, , , , , , 96, , , 45, 45, 45
38.4803346, -120.3385644, 16.700, 16:59:00.892, 16, 0.10, 0.28, 98, 0.000, 1.200, 73.900, 1209, 100, 100, 28, 24252, -17888, 5232, 5339, 19, 14, 1530921540.892, 89, 0, 1024, 1024, 1024, 1024, 0, 6, 4033, 4029, 4046, 4040, 4057, 4051, 0, 1, 11000, -90.000, 0.000, 74.400, 0.100, 0.000, -2.900, 0.0, , , , , , 96, , , 45, 45, 45
38.4803346, -120.3385644, 17.000, 16:59:00.992, 16, 0.10, 0.28, 98, 0.300, 0.800, 73.900, 1209, 100, 100, 28, 24252, -17888, 5232, 5339, 19, 14, 1530921540.992, 78, 0, 1024, 1024, 1024, 1024, 0, 6, 4033, 4029, 4046, 4040, 4057, 4051, 0, 1, 11100, -90.000, 0.000, 74.400, 0.100, 0.000, -2.900, 0.0, , , , , , 96, , , 45, 45, 45
38.4803348, -120.3385644, 17.300, 16:59:01.092, 16, 0.10, 0.30, 98, 0.500, 0.600, 73.900, 1209, 100, 100, 28, 24252, -17888, 5232, 5339, 19, 14, 1530921541.093, 71, 0, 1024, 1024, 1024, 1024, 0, 6, 4033, 4029, 4046, 4040, 4057, 4051, 0, 1, 11200, -90.000, 0.000, 74.300, 0.100, 0.000, -2.900, 0.0, , , , , , 96, , , 45, 45, 45
38.4803350, -120.3385643, 17.600, 16:59:01.192, 16, 0.10, 0.33, 98, 0.800, 0.900, 73.900, 1209, 100, 100, 28, 24252, -17888, 5232, 5339, 19, 14, 1530921541.192, 73, 0, 1024, 1024, 1024, 1024, 0, 6, 4033, 4029, 4046, 4040, 4057, 4051, 0, 1, 11300, -89.900, 0.000, 74.300, 0.100, 0.000, -2.900, 0.0, , , , , , 96, , , 45, 45, 45
38.4803352, -120.3385642, 17.800, 16:59:01.292, 16, 0.10, 0.34, 98, 1.200, 1.400, 73.800, 1209, 100, 98, 28, 24252, -17888, 5232, 5339, 19, 14, 1530921541.292, 68, 0, 1024, 1024, 1024, 1024, 0, 6, 4033, 4029, 4046, 4040, 4057, 4051, 0, 1, 11400, -89.900, 0.000, 74.300, 0.100, 0.000, -2.800, 0.0, , , , , , 96, , , 45, 45, 45
38.4803353, -120.3385643, 18.100, 16:59:01.392, 16, 0.10, 0.36, 98, 1.200, 1.800, 73.500, 1209, 100, 98, 28, 24252, -17888, 5232, 5339, 19, 14, 1530921541.392, 72, 0, 1024, 1024, 1024, 1024, 0, 6, 4033, 4029, 4046, 4040, 4057, 4051, 0, 1, 11500, -89.900, 0.000, 74.300, 0.100, 0.000, -2.900, 0.0, , , , , , 96, , , 45, 45, 45
38.4803353, -120.3385642, 18.400, 16:59:01.492, 15, 0.10, 0.36, 98, 1.200, 1.800, 73.300, 1209, 100, 98, 28, 24252, -17888, 5232, 5339, 19, 14, 1530921541.492, 76, 0, 1024, 1024, 1024, 1024, 0, 6, 4033, 4029, 4046, 4040, 4057, 4051, 0, 1, 11600, -89.900, 0.000, 74.300, 0.100, 0.000, -2.900, 0.0, , , , , , 96, , , 45, 45, 45
38.4803353, -120.3385642, 18.700, 16:59:01.592, 15, 0.10, 0.36, 98, 1.300, 1.500, 73.200, 1209, 100, 98, 28, 24252, -17888, 5232, 5339, 19, 14, 1530921541.592, 43, 0, 1024, 1024, 1024, 1024, 0, 6, 4033, 4029, 4046, 4040, 4057, 4051, 0, 1, 11700, -90.000, 0.000, 74.300, 0.100, 0.000, -2.900, 0.0, , , , , , 96, , , 45, 45, 45
38.4803355, -120.3385642, 19.000, 16:59:01.692, 15, 0.10, 0.38, 98, 1.000, 1.300, 73.200, 1209, 100, 98, 28, 24196, -18648, 5232, 5339, 19, 14, 1530921541.692, 59, 0, 1024, 1024, 1024, 1024, 0, 6, 4020, 4016, 4034, 4028, 4045, 4035, 0, 1, 11800, -90.000, 0.000, 74.300, 0.100, 0.000, -2.900, 0.0, , , , , , 96, , , 45, 45, 45
38.4803357, -120.3385642, 19.300, 16:59:01.792, 15, 0.10, 0.40, 98, 1.100, 1.200, 73.300, 1209, 100, 98, 28, 24196, -18648, 5232, 5339, 19, 14, 1530921541.792, 39, 0, 1024, 1024, 1024, 1024, 0, 6, 4020, 4016, 4034, 4028, 4045, 4035, 0, 1, 11900, -90.000, 0.000, 74.300, 0.100, 0.000, -2.900, 0.0, , , , , , 96, , , 45, 45, 45
38.4803358, -120.3385642, 19.600, 16:59:01.891, 16, 0.10, 0.41, 98, 1.300, 1.400, 73.400, 1209, 100, 98, 28, 24196, -18648, 5232, 5339, 19, 14, 1530921541.892, 43, 0, 1024, 1024, 1024, 1024, 0, 6, 4020, 4016, 4034, 4028, 4045, 4035, 0, 1, 11999, -89.900, 0.000, 74.300, 0.100, 0.000, -2.900, 0.0, , , , , , 96, , , 45, 45, 45
38.4803360, -120.3385642, 19.900, 16:59:01.992, 16, 0.00, 0.43, 98, 1.300, 1.300, 73.500, 1209, 100, 98, 28, 24196, -18648, 5232, 5339, 19, 14, 1530921541.993, 31, 0, 1024, 1024, 1024, 1024, 0, 6, 4020, 4016, 4034, 4028, 4045, 4035, 0, 1, 12100, -90.000, 0.000, 74.300, 0.000, 0.000, -2.900, 0.0, , , , , , 96, , , 45, 45, 45
38.4803361, -120.3385642, 20.200, 16:59:02.091, 16, 0.00, 0.44, 98, 1.100, 1.100, 73.500, 1209, 100, 98, 28, 24196, -18648, 5232, 5339, 19, 14, 1530921542.091, 12, 0, 1024, 1024, 1024, 1024, 0, 6, 4020, 4016, 4034, 4028, 4045, 4035, 0, 1, 12199, -89.900, 0.000, 74.300, 0.000, 0.000, -3.000, 0.0, , , , , , 96, , , 45, 45, 45
38.4803363, -120.3385643, 20.500, 16:59:02.192, 16, 0.00, 0.46, 98, 1.200, 1.100, 73.500, 1209, 100, 98, 28, 24196, -18648, 5232, 5339, 19, 14, 1530921542.192, 19, 0, 1024, 1024, 1024, 1024, 0, 6, 4020, 4016, 4034, 4028, 4045, 4035, 0, 1, 12300, -89.900, 0.000, 74.300, 0.000, 0.000, -3.000, 0.0, , , , , , 96, , , 45, 45, 45
38.4803364, -120.3385643, 20.800, 16:59:02.292, 16, 0.00, 0.47, 98, 1.600, 1.400, 73.500, 1209, 100, 96, 28, 24196, -18648, 5232, 5339, 19, 14, 1530921542.292, 21, 0, 1024, 1024, 1024, 1024, 0, 6, 4020, 4016, 4034, 4028, 4045, 4035, 0, 1, 12400, -89.900, 0.000, 74.200, 0.000, 0.000, -3.000, 0.0, , , , , , 96, , , 45, 45, 45
38.4803366, -120.3385643, 21.100, 16:59:02.392, 16, 0.00, 0.48, 98, 1.800, 1.500, 73.400, 1209, 100, 96, 28, 24196, -18648, 5232, 5339, 19, 14, 1530921542.392, 13, 0, 1024, 1024, 1024, 1024, 0, 6, 4020, 4016, 4034, 4028, 4045, 4035, 0, 1, 12500, -89.900, 0.000, 74.200, 0.000, 0.000, -3.000, 0.0, , , , , , 96, , , 45, 45, 45
38.4803367, -120.3385643, 21.400, 16:59:02.492, 16, 0.00, 0.50, 98, 1.700, 1.400, 73.200, 1209, 100, 96, 28, 24196, -18648, 5232, 5339, 19, 14, 1530921542.492, 6, 0, 1024, 1024, 1024, 1024, 0, 6, 4020, 4016, 4034, 4028, 4045, 4035, 0, 1, 12600, -89.900, 0.000, 74.200, 0.000, 0.000, -2.900, 0.0, , , , , , 96, , , 45, 45, 45
38.4803369, -120.3385642, 21.700, 16:59:02.595, 16, 0.00, 0.52, 98, 1.700, 1.700, 73.100, 1209, 100, 96, 28, 24196, -18648, 5232, 5339, 19, 14, 1530921542.595, 1, 0, 1024, 1024, 1024, 1024, 0, 6, 4020, 4016, 4034, 4028, 4045, 4035, 0, 1, 12703, -89.900, 0.000, 74.200, 0.000, 0.000, -2.900, 0.0, , , , , , 96, , , 45, 45, 45
38.4803370, -120.3385642, 22.000, 16:59:02.692, 16, 0.00, 0.54, 98, 1.600, 1.900, 73.100, 1209, 100, 96, 28, 24129, -19374, 5232, 5339, 19, 14, 1530921542.693, 2, 0, 1024, 1024, 1024, 1024, 0, 6, 4020, 4016, 4034, 4028, 4045, 4035, 0, 1, 12800, -89.900, 0.000, 74.200, 0.000, 0.000, -2.900, 0.0, , , , , , 96, , , 45, 45, 45
38.4803373, -120.3385642, 22.600, 16:59:02.791, 15, 0.00, 0.56, 98, 1.400, 1.700, 73.300, 1209, 100, 96, 28, 24129, -19374, 5232, 5339, 19, 14, 1530921542.792, 13, 0, 1024, 1024, 1024, 1024, 0, 6, 4020, 4016, 4034, 4028, 4045, 4035, 0, 1, 12900, -89.900, 0.000, 74.200, 0.000, 0.000, -2.900, 0.0, , , , , , 96, , , 45, 45, 45
38.4803374, -120.3385642, 22.900, 16:59:02.892, 15, 0.00, 0.57, 98, 1.500, 1.500, 73.400, 1209, 100, 96, 28, 24129, -19374, 5232, 5339, 19, 14, 1530921542.892, 8, 0, 1024, 1024, 1024, 1024, 0, 6, 4020, 4016, 4034, 4028, 4045, 4035, 0, 1, 13000, -90.000, 0.000, 74.200, 0.000, 0.000, -3.000, 0.0, , , , , , 96, , , 45, 45, 45
38.4803375, -120.3385642, 23.200, 16:59:02.992, 14, 0.00, 0.59, 98, 1.700, 1.300, 73.400, 1209, 100, 96, 28, 24129, -19374, 5232, 5339, 19, 14, 1530921542.992, 11, 0, 1024, 1024, 1024, 1024, 0, 6, 4020, 4016, 4034, 4028, 4045, 4035, 0, 1, 13100, -90.000, 0.000, 74.200, 0.000, 0.000, -3.000, 0.0, , , , , , 96, , , 45, 45, 45
38.4803376, -120.3385642, 23.500, 16:59:03.092, 14, 0.00, 0.60, 98, 1.800, 1.100, 73.300, 1209, 100, 96, 28, 24129, -19374, 5232, 5339, 19, 14, 1530921543.092, 6, 0, 1024, 1024, 1024, 1024, 0, 6, 4020, 4016, 4034, 4028, 4045, 4035, 0, 1, 13200, -90.000, 0.000, 74.200, 0.000, 0.000, -2.900, 0.0, , , , , , 96, , , 45, 45, 45
38.4803376, -120.3385642, 23.500, 16:59:03.192, 14, 0.00, 0.60, 98, 1.800, 1.100, 73.300, 1209, 100, 96, 28, 24129, -19374, 5232, 5339, 19, 14, 1530921543.192, 106, 0, 1024, 1024, 1024, 1024, 0, 6, 4020, 4016, 4034, 4028, 4045, 4035, 0, 1, 13300, -90.000, 0.000, 74.200, 0.000, 0.000, -2.900, 0.0, , , , , , 96, , , 45, 45, 45
38.4803379, -120.3385642, 24.100, 16:59:03.292, 15, 0.00, 0.62, 98, 1.700, 1.800, 73.200, 1209, 100, 96, 28, 24129, -19374, 5232, 5339, 19, 14, 1530921543.292, 3, 0, 1024, 1024, 1024, 1024, 0, 6, 4007, 4003, 4023, 4017, 4031, 4026, 0, 1, 13400, -89.900, 0.000, 74.200, 0.000, 0.000, -2.900, 0.0, , , , , , 96, , , 45, 45, 45
38.4803379, -120.3385642, 24.100, 16:59:03.392, 15, 0.00, 0.62, 98, 1.700, 1.800, 73.200, 1209, 100, 96, 28, 24129, -19374, 5232, 5339, 19, 14, 1530921543.392, 103, 0, 1024, 1024, 1024, 1024, 0, 6, 4007, 4003, 4023, 4017, 4031, 4026, 0, 1, 13500, -89.900, 0.000, 74.200, 0.000, 0.000, -2.900, 0.0, , , , , , 96, , , 45, 45, 45
38.4803379, -120.3385642, 24.400, 16:59:03.492, 15, 0.00, 0.63, 98, 1.800, 1.900, 73.200, 1209, 100, 96, 28, 24129, -19374, 5232, 5339, 19, 14, 1530921543.492, 69, 0, 1024, 1024, 1024, 1024, 0, 6, 4007, 4003, 4023, 4017, 4031, 4026, 0, 1, 13600, -89.900, 0.000, 74.200, 0.000, 0.000, -2.900, 0.0, , , , , , 96, , , 45, 45, 45
38.4803379, -120.3385643, 24.700, 16:59:03.592, 15, 0.00, 0.63, 98, 1.800, 1.800, 73.200, 1209, 100, 96, 28, 24129, -19374, 5232, 5339, 19, 14, 1530921543.592, 86, 0, 1024, 1024, 1024, 1024, 0, 6, 4007, 4003, 4023, 4017, 4031, 4026, 0, 1, 13700, -89.900, 0.000, 74.200, 0.000, 0.000, -2.900, 0.0, , , , , , 96, , , 45, 45, 45
38.4803380, -120.3385643, 25.000, 16:59:03.692, 15, 0.00, 0.63, 98, 1.500, 1.600, 73.200, 1209, 100, 96, 28, 24129, -19374, 5232, 5339, 19, 14, 1530921543.692, 85, 0, 1024, 1024, 1024, 1024, 0, 6, 4007, 4003, 4023, 4017, 4031, 4026, 0, 1, 13800, -89.900, 0.000, 74.200, 0.000, 0.000, -3.000, 0.0, , , , , , 96, , , 45, 45, 45
38.4803380, -120.3385644, 25.300, 16:59:03.791, 15, 0.00, 0.63, 98, 1.500, 1.100, 73.200, 1209, 100, 98, 28, 24129, -19374, 5232, 5339, 19, 14, 1530921543.792, 76, 0, 1024, 1024, 1024, 1024, 0, 6, 4007, 4003, 4023, 4017, 4031, 4026, 0, 1, 13900, -90.000, 0.000, 74.200, 0.000, 0.000, -3.000, 0.0, , , , , , 96, , , 45, 45, 45
38.4803380, -120.3385644, 25.600, 16:59:03.892, 15, 0.00, 0.63, 98, 1.500, 0.900, 73.200, 1209, 100, 98, 28, 24129, -19374, 5232, 5339, 19, 14, 1530921543.892, 45, 0, 1024, 1024, 1024, 1024, 0, 6, 4007, 4003, 4023, 4017, 4031, 4026, 0, 1, 14000, -90.000, 0.000, 74.200, 0.000, 0.000, -3.000, 0.0, , , , , , 96, , , 45, 45, 45
38.4803380, -120.3385645, 25.900, 16:59:03.992, 15, 0.00, 0.63, 98, 1.600, 1.000, 73.100, 1209, 100, 98, 28, 24129, -19374, 5232, 5339, 19, 14, 1530921543.992, 72, 0, 1024, 1024, 1024, 1024, 0, 6, 4007, 4003, 4023, 4017, 4031, 4026, 0, 1, 14100, -90.000, 0.000, 74.200, 0.000, 0.000, -3.000, 0.0, , , , , , 96, , , 45, 45, 45
38.4803380, -120.3385645, 26.200, 16:59:04.092, 15, 0.00, 0.64, 98, 1.500, 0.900, 73.000, 1209, 100, 98, 28, 24129, -19374, 5232, 5339, 19, 14, 1530921544.092, 63, 0, 1024, 1024, 1024, 1024, 0, 6, 4007, 4003, 4023, 4017, 4031, 4026, 0, 1, 14200, -90.000, 0.000, 74.200, 0.000, 0.000, -2.900, 0.0, , , , , , 96, , , 45, 45, 45
38.4803381, -120.3385646, 26.500, 16:59:04.192, 15, 0.00, 0.64, 98, 1.500, 0.700, 73.000, 1209, 100, 98, 28, 24091, -19169, 5232, 5339, 19, 14, 1530921544.192, 66, 0, 1024, 1024, 1024, 1024, 0, 6, 3998, 4004, 4026, 4019, 4019, 4020, 0, 1, 14300, -90.000, 0.000, 74.200, 0.000, 0.000, -2.900, 0.0, , , , , , 96, , , 45, 45, 45
38.4803380, -120.3385645, 26.800, 16:59:04.291, 15, 0.00, 0.63, 98, 1.400, 0.700, 73.000, 1209, 100, 98, 28, 24091, -19169, 5232, 5339, 19, 14, 1530921544.291, 41, 0, 1024, 1024, 1024, 1024, 0, 6, 3998, 4004, 4026, 4019, 4019, 4020, 0, 1, 14399, -90.000, 0.000, 74.200, 0.000, 0.000, -2.900, 0.0, , , , , , 96, , , 45, 45, 45
38.4803380, -120.3385645, 27.100, 16:59:04.392, 15, 0.00, 0.63, 98, 1.200, 1.000, 73.100, 1209, 100, 98, 28, 24091, -19169, 5232, 5339, 19, 14, 1530921544.392, 31, 0, 1024, 1024, 1024, 1024, 0, 6, 3998, 4004, 4026, 4019, 4019, 4020, 0, 1, 14500, -89.900, 0.000, 74.200, 0.000, 0.000, -2.900, 0.0, , , , , , 96, , , 45, 45, 45
38.4803380, -120.3385645, 27.400, 16:59:04.492, 15, 0.00, 0.63, 98, 1.200, 1.400, 73.200, 1209, 100, 98, 28, 24091, -19169, 5232, 5339, 19, 14, 1530921544.492, 45, 0, 1024, 1024, 1024, 1024, 0, 6, 3998, 4004, 4026, 4019, 4019, 4020, 0, 1, 14600, -89.900, 0.000, 74.200, 0.000, 0.000, -2.900, 0.0, , , , , , 96, , , 45, 45, 45
38.4803379, -120.3385645, 27.700, 16:59:04.592, 15, 0.10, 0.63, 98, 1.200, 1.600, 73.400, 1209, 100, 98, 28, 24091, -19169, 5232, 5339, 19, 14, 1530921544.592, 23, 0, 1024, 1024, 1024, 1024, 0, 6, 3998, 4004, 4026, 4019, 4019, 4020, 0, 1, 14700, -89.900, 0.000, 74.200, -0.100, 0.000, -2.900, 0.1, , , , , , 96, , , 45, 45, 45
38.4803379, -120.3385645, 28.000, 16:59:04.692, 15, 0.10, 0.62, 98, 1.100, 1.600, 73.500, 1209, 100, 98, 28, 24091, -19169, 5232, 5339, 19, 14, 1530921544.692, 22, 0, 1024, 1024, 1024, 1024, 0, 6, 3998, 4004, 4026, 4019, 4019, 4020, 0, 1, 14800, -89.900, 0.000, 74.200, -0.100, 0.000, -3.000, 0.1, , , , , , 96, , , 45, 45, 45
38.4803378, -120.3385645, 28.300, 16:59:04.792, 15, 0.10, 0.61, 98, 0.900, 1.300, 73.500, 1209, 100, 98, 28, 24091, -19169, 5232, 5339, 19, 14, 1530921544.792, 36, 0, 1024, 1024, 1024, 1024, 0, 6, 3998, 4004, 4026, 4019, 4019, 4020, 0, 1, 14900, -89.900, 0.000, 74.200, -0.100, 0.000, -3.000, 0.1, , , , , , 96, , , 45, 45, 45
38.4803378, -120.3385645, 28.600, 16:59:04.891, 15, 0.10, 0.61, 98, 0.600, 1.000, 73.500, 1209, 100, 98, 28, 24091, -19169, 5232, 5339, 19, 14, 1530921544.892, 10, 0, 1024, 1024, 1024, 1024, 0, 6, 3998, 4004, 4026, 4019, 4019, 4020, 0, 1, 15000, -90.000, 0.000, 74.200, -0.100, 0.000, -3.000, 0.1, , , , , , 96, , , 45, 45, 45
38.4803378, -120.3385646, 28.900, 16:59:04.992, 15, 0.00, 0.61, 98, 0.700, 0.900, 73.500, 1209, 100, 98, 28, 24091, -19169, 5232, 5339, 19, 14, 1530921544.992, 15, 0, 1024, 1024, 1024, 1024, 0, 6, 3998, 4004, 4026, 4019, 4019, 4020, 0, 1, 15100, -90.000, 0.000, 74.200, 0.000, 0.000, -2.900, 0.0, , , , , , 96, , , 45, 45, 45
38.4803378, -120.3385646, 29.200, 16:59:05.092, 15, 0.00, 0.61, 98, 0.900, 0.800, 73.500, 1209, 100, 98, 28, 24091, -19169, 5232, 5339, 19, 14, 1530921545.092, 9, 0, 1024, 1024, 1024, 1024, 0, 6, 3998, 4004, 4026, 4019, 4019, 4020, 0, 1, 15200, -90.000, 0.000, 74.200, 0.000, 0.000, -2.900, 0.0, , , , , , 96, , , 45, 45, 45
38.4803377, -120.3385646, 29.500, 16:59:05.197, 15, 0.00, 0.60, 98, 1.000, 0.700, 73.400, 1209, 100, 98, 28, 24091, -19169, 5232, 5339, 19, 14, 1530921545.197, 3, 0, 1024, 1024, 1024, 1024, 0, 6, 3998, 4004, 4026, 4019, 4019, 4020, 0, 1, 15305, -90.000, 0.000, 74.200, 0.000, 0.000, -3.000, 0.0, , , , , , 96, , , 45, 45, 45
38.4803377, -120.3385647, 30.100, 16:59:05.292, 15, 0.00, 0.59, 98, 0.800, 0.800, 73.300, 1209, 100, 99, 28, 24088, -19040, 5232, 5339, 19, 14, 1530921545.292, 2, 0, 1024, 1024, 1024, 1024, 0, 6, 3998, 4000, 4021, 4016, 4035, 4022, 0, 1, 15400, -90.000, 0.000, 74.200, 0.000, 0.000, -3.000, 0.0, , , , , , 96, , , 45, 45, 45
38.4803377, -120.3385647, 30.100, 16:59:05.391, 15, 0.00, 0.59, 98, 0.800, 0.800, 73.300, 1209, 100, 99, 28, 24088, -19040, 5232, 5339, 19, 14, 1530921545.391, 101, 0, 1024, 1024, 1024, 1024, 0, 6, 3998, 4000, 4021, 4016, 4035, 4022, 0, 1, 15499, -90.000, 0.000, 74.200, 0.000, 0.000, -3.000, 0.0, , , , , , 96, , , 45, 45, 45
38.4803375, -120.3385648, 30.700, 16:59:05.492, 15, 0.10, 0.57, 98, 0.700, 0.600, 73.100, 1209, 100, 99, 28, 24088, -19040, 5232, 5339, 19, 14, 1530921545.492, 2, 0, 1024, 1024, 1024, 1024, 0, 6, 3998, 4000, 4021, 4016, 4035, 4022, 0, 1, 15600, -90.000, 0.000, 74.200, -0.100, 0.000, -2.900, 0.1, , , , , , 96, , , 45, 45, 45
38.4803375, -120.3385648, 30.700, 16:59:05.591, 15, 0.10, 0.57, 98, 0.700, 0.600, 73.100, 1209, 100, 99, 28, 24088, -19040, 5232, 5339, 19, 14, 1530921545.592, 101, 0, 1024, 1024, 1024, 1024, 0, 6, 3998, 4000, 4021, 4016, 4035, 4022, 0, 1, 15700, -90.000, 0.000, 74.200, -0.100, 0.000, -2.900, 0.1, , , , , , 96, , , 45, 45, 45
38.4803374, -120.3385648, 31.100, 16:59:05.692, 15, 0.10, 0.56, 98, 0.500, 0.300, 73.000, 1209, 100, 99, 28, 24088, -19040, 5232, 5339, 19, 14, 1530921545.692, 86, 0, 1024, 1024, 1024, 1024, 0, 6, 3998, 4000, 4021, 4016, 4035, 4022, 0, 1, 15800, -90.000, 0.000, 74.200, -0.100, 0.000, -3.000, 0.1, , , , , , 96, , , 45, 45, 45
38.4803374, -120.3385648, 31.100, 16:59:05.791, 15, 0.10, 0.56, 98, 0.500, 0.300, 73.000, 1209, 100, 99, 28, 24088, -19040, 5232, 5339, 19, 14, 1530921545.792, 186, 0, 1024, 1024, 1024, 1024, 0, 6, 3998, 4000, 4021, 4016, 4035, 4022, 0, 1, 15900, -90.000, 0.000, 74.200, -0.100, 0.000, -3.000, 0.1, , , , , , 96, , , 45, 45, 45
38.4803372, -120.3385649, 31.700, 16:59:05.891, 15, 0.10, 0.54, 98, 0.300, 0.100, 73.000, 1209, 100, 98, 28, 24088, -19040, 5232, 5339, 19, 14, 1530921545.891, 76, 0, 1024, 1024, 1024, 1024, 0, 6, 3998, 4000, 4021, 4016, 4035, 4022, 0, 1, 15999, -90.000, 0.000, 74.200, -0.100, 0.000, -3.000, 0.1, , , , , , 96, , , 45, 45, 45
38.4803372, -120.3385650, 32.000, 16:59:05.992, 15, 0.00, 0.53, 98, 0.300, 0.000, 73.100, 1209, 100, 98, 28, 24088, -19040, 5232, 5339, 19, 14, 1530921545.992, 84, 0, 1024, 1024, 1024, 1024, 0, 6, 3998, 4000, 4021, 4016, 4035, 4022, 0, 1, 16100, -90.000, 0.000, 74.200, 0.000, 0.000, -2.900, 0.0, , , , , , 96, , , 45, 45, 45
38.4803371, -120.3385650, 32.300, 16:59:06.092, 15, 0.00, 0.52, 98, 0.400, 0.000, 73.100, 1209, 100, 98, 28, 24088, -19040, 5232, 5339, 19, 14, 1530921546.092, 89, 0, 1024, 1024, 1024, 1024, 0, 6, 3998, 4000, 4021, 4016, 4035, 4022, 0, 1, 16200, -90.000, 0.000, 74.200, 0.000, 0.000, -2.900, 0.0, , , , , , 96, , , 45, 45, 45
38.4803369, -120.3385650, 32.600, 16:59:06.192, 15, 0.00, 0.51, 98, 0.400, 0.100, 73.100, 1209, 100, 98, 28, 24085, -18471, 5178, 5339, 19, 14, 1530921546.192, 69, 0, 1024, 1024, 1024, 1024, 0, 6, 4007, 3997, 4020, 4010, 4026, 4021, 0, 1, 16300, -90.000, 0.000, 74.200, 0.000, 0.000, -2.800, 0.0, , , , , , 96, , , 45, 45, 45
38.4803369, -120.3385650, 32.900, 16:59:06.292, 15, 0.00, 0.50, 98, 0.300, 0.200, 73.100, 1209, 100, 98, 28, 24085, -18471, 5178, 5339, 19, 14, 1530921546.292, 78, 0, 1024, 1024, 1024, 1024, 0, 6, 4007, 3997, 4020, 4010, 4026, 4021, 0, 1, 16400, -90.000, 0.000, 74.200, 0.000, 0.000, -2.800, 0.0, , , , , , 96, , , 45, 45, 45
38.4803368, -120.3385651, 33.100, 16:59:06.392, 15, 0.00, 0.49, 98, 0.300, 0.500, 73.100, 1209, 100, 98, 28, 24085, -18471, 5178, 5339, 19, 14, 1530921546.392, 76, 0, 1024, 1024, 1024, 1024, 0, 6, 4007, 3997, 4020, 4010, 4026, 4021, 0, 1, 16500, -90.000, 0.000, 74.200, 0.000, 0.000, -2.800, 0.0, , , , , , 96, , , 45, 45, 45
38.4803367, -120.3385650, 33.400, 16:59:06.492, 15, 0.00, 0.48, 98, 0.400, 0.500, 73.000, 1209, 100, 98, 28, 24085, -18471, 5178, 5339, 19, 14, 1530921546.492, 57, 0, 1024, 1024, 1024, 1024, 0, 6, 4007, 3997, 4020, 4010, 4026, 4021, 0, 1, 16600, -90.000, 0.000, 74.200, 0.000, 0.000, -2.900, 0.0, , , , , , 96, , , 45, 45, 45
38.4803366, -120.3385650, 33.700, 16:59:06.592, 15, 0.00, 0.47, 98, 0.100, 0.300, 73.000, 1209, 100, 98, 28, 24085, -18471, 5178, 5339, 19, 14, 1530921546.592, 61, 0, 1024, 1024, 1024, 1024, 0, 6, 4007, 3997, 4020, 4010, 4026, 4021, 0, 1, 16700, -90.000, 0.000, 74.200, 0.000, 0.000, -3.000, 0.0, , , , , , 96, , , 45, 45, 45
38.4803365, -120.3385650, 34.000, 16:59:06.692, 15, 0.00, 0.46, 97, -0.100, 0.200, 73.100, 1209, 100, 98, 28, 24085, -18471, 5178, 5339, 19, 14, 1530921546.692, 41, 0, 1024, 1024, 1024, 1024, 0, 6, 4007, 3997, 4020, 4010, 4026, 4021, 0, 1, 16800, -90.000, 0.000, 74.200, 0.000, 0.000, -2.900, 0.0, , , , , , 96, , , 45, 45, 45
38.4803364, -120.3385650, 34.300, 16:59:06.792, 15, 0.00, 0.45, 97, -0.200, 0.300, 73.200, 1209, 100, 98, 28, 24085, -18471, 5178, 5339, 19, 14, 1530921546.792, 52, 0, 1024, 1024, 1024, 1024, 0, 6, 4007, 3997, 4020, 4010, 4026, 4021, 0, 1, 16900, -90.000, 0.000, 74.200, 0.000, 0.000, -2.900, 0.0, , , , , , 96, , , 45, 45, 45
38.4803364, -120.3385650, 34.600, 16:59:06.892, 15, 0.00, 0.45, 97, -0.200, 0.300, 73.200, 1209, 100, 98, 28, 24085, -18471, 5178, 5339, 19, 14, 1530921546.892, 56, 0, 1024, 1024, 1024, 1024, 0, 6, 4007, 3997, 4020, 4010, 4026, 4021, 0, 1, 17000, -90.000, 0.000, 74.200, 0.000, 0.000, -2.900, 0.0, , , , , , 96, , , 45, 45, 45
38.4803364, -120.3385649, 34.900, 16:59:06.992, 15, 0.00, 0.45, 97, 0.000, 0.400, 73.300, 1209, 100, 98, 28, 24085, -18471, 5178, 5339, 19, 14, 1530921546.992, 56, 0, 1024, 1024, 1024, 1024, 0, 6, 4007, 3997, 4020, 4010, 4026, 4021, 0, 1, 17100, -89.900, 0.000, 74.200, 0.000, 0.000, -2.900, 0.0, , , , , , 96, , , 45, 45, 45
38.4803363, -120.3385648, 35.200, 16:59:07.091, 15, 0.00, 0.44, 97, 0.000, 0.700, 73.300, 1209, 100, 98, 28, 24085, -18471, 5178, 5339, 19, 14, 1530921547.092, 25, 0, 1024, 1024, 1024, 1024, 0, 6, 4007, 3997, 4020, 4010, 4026, 4021, 0, 1, 17199, -89.900, 0.000, 74.200, 0.000, 0.000, -2.900, 0.0, , , , , , 96, , , 45, 45, 45
38.4803363, -120.3385648, 35.500, 16:59:07.192, 15, 0.00, 0.44, 97, 0.200, 1.000, 73.300, 1209, 100, 98, 29, 24024, -18812, 5178, 5339, 19, 14, 1530921547.192, 26, 0, 1024, 1024, 1024, 1024, 0, 6, 3990, 3995, 4009, 3994, 4016, 4010, 0, 1, 17300, -89.900, 0.000, 74.200, 0.000, 0.000, -3.000, 0.0, , , , , , 96, , , 45, 45, 45
38.4803363, -120.3385648, 35.800, 16:59:07.291, 15, 0.00, 0.44, 97, 0.400, 1.100, 73.300, 1209, 100, 99, 29, 24024, -18812, 5178, 5339, 19, 14, 1530921547.292, 42, 0, 1024, 1024, 1024, 1024, 0, 6, 3990, 3995, 4009, 3994, 4016, 4010, 0, 1, 17399, -89.900, 0.000, 74.200, 0.000, 0.000, -3.000, 0.0, , , , , , 96, , , 45, 45, 45
38.4803362, -120.3385648, 36.100, 16:59:07.392, 15, 0.00, 0.44, 97, 0.500, 1.100, 73.300, 1209, 100, 99, 29, 24024, -18812, 5178, 5339, 19, 14, 1530921547.392, 9, 0, 1024, 1024, 1024, 1024, 0, 6, 3990, 3995, 4009, 3994, 4016, 4010, 0, 1, 17500, -90.000, 0.000, 74.200, 0.000, 0.000, -3.000, 0.0, , , , , , 96, , , 45, 45, 45
38.4803362, -120.3385648, 36.400, 16:59:07.491, 15, 0.00, 0.43, 97, 0.500, 1.000, 73.300, 1209, 100, 99, 29, 24024, -18812, 5178, 5339, 19, 14, 1530921547.492, 23, 0, 1024, 1024, 1024, 1024, 0, 6, 3990, 3995, 4009, 3994, 4016, 4010, 0, 1, 17599, -89.900, 0.000, 74.200, 0.000, 0.000, -3.000, 0.0, , , , , , 96, , , 45, 45, 45
38.4803362, -120.3385648, 36.700, 16:59:07.592, 15, 0.00, 0.43, 97, 0.400, 0.900, 73.300, 1209, 100, 99, 29, 24024, -18812, 5178, 5339, 19, 14, 1530921547.592, 13, 0, 1024, 1024, 1024, 1024, 0, 6, 3990, 3995, 4009, 3994, 4016, 4010, 0, 1, 17700, -89.900, 0.000, 74.200, 0.000, 0.000, -3.000, 0.0, , , , , , 96, , , 45, 45, 45
38.4803362, -120.3385647, 37.300, 16:59:07.693, 15, 0.00, 0.43, 97, 0.200, 0.500, 73.200, 1209, 100, 99, 29, 24024, -18812, 5178, 5339, 19, 14, 1530921547.693, 3, 0, 1024, 1024, 1024, 1024, 0, 6, 3990, 3995, 4009, 3994, 4016, 4010, 0, 1, 17801, -90.000, 0.000, 74.200, 0.000, 0.000, -2.900, 0.0, , , , , , 96, , , 45, 45, 45
38.4803362, -120.3385647, 37.300, 16:59:07.792, 15, 0.00, 0.43, 97, 0.200, 0.500, 73.200, 1209, 100, 98, 29, 24024, -18812, 5178, 5339, 19, 14, 1530921547.792, 102, 0, 1024, 1024, 1024, 1024, 0, 6, 3990, 3995, 4009, 3994, 4016, 4010, 0, 1, 17900, -90.000, 0.000, 74.200, 0.000, 0.000, -2.900, 0.0, , , , , , 96, , , 45, 45, 45
38.4803362, -120.3385647, 37.300, 16:59:07.892, 15, 0.00, 0.43, 97, 0.200, 0.500, 73.200, 1209, 100, 98, 29, 24024, -18812, 5178, 5339, 19, 14, 1530921547.892, 202, 0, 1024, 1024, 1024, 1024, 0, 6, 3990, 3995, 4009, 3994, 4016, 4010, 0, 1, 18000, -90.000, 0.000, 74.200, 0.000, 0.000, -2.900, 0.0, , , , , , 96, , , 45, 45, 45
38.4803361, -120.3385648, 37.900, 16:59:07.993, 15, 0.00, 0.42, 97, 0.500, 0.300, 73.100, 1209, 100, 98, 29, 24024, -18812, 5178, 5339, 19, 14, 1530921547.994, 2, 0, 1024, 1024, 1024, 1024, 0, 6, 3990, 3995, 4009, 3994, 4016, 4010, 0, 1, 18101, -90.000, 0.000, 74.200, 0.000, 0.000, -2.900, 0.0, , , , , , 96, , , 45, 45, 45
38.4803362, -120.3385648, 38.500, 16:59:08.091, 16, 0.00, 0.43, 97, 0.700, 0.400, 73.000, 1209, 100, 98, 29, 24024, -18812, 5178, 5339, 19, 14, 1530921548.091, 6, 0, 1024, 1024, 1024, 1024, 0, 6, 3990, 3995, 4009, 3994, 4016, 4010, 0, 1, 18199, -89.900, 0.000, 74.200, 0.000, 0.000, -2.900, 0.0, , , , , , 96, , , 45, 45, 45
38.4803362, -120.3385648, 38.500, 16:59:08.192, 16, 0.00, 0.43, 97, 0.700, 0.400, 73.000, 1209, 100, 98, 29, 24024, -18812, 5178, 5339, 19, 14, 1530921548.192, 106, 0, 1024, 1024, 1024, 1024, 0, 6, 3990, 3995, 4009, 3994, 4016, 4010, 0, 1, 18300, -89.900, 0.000, 74.200, 0.000, 0.000, -2.900, 0.0, , , , , , 96, , , 45, 45, 45
38.4803362, -120.3385648, 38.800, 16:59:08.292, 16, 0.00, 0.43, 97, 1.100, 0.800, 72.900, 1209, 100, 98, 29, 24015, -18899, 5178, 5339, 19, 14, 1530921548.292, 72, 0, 1024, 1024, 1024, 1024, 0, 6, 3990, 3995, 4009, 3994, 4016, 4010, 0, 1, 18400, -89.900, 0.000, 74.200, 0.000, 0.000, -2.900, 0.0, , , , , , 96, , , 45, 45, 45
38.4803363, -120.3385647, 39.100, 16:59:08.392, 16, 0.00, 0.44, 97, 1.600, 1.100, 72.900, 1209, 100, 98, 29, 24015, -18899, 5178, 5339, 19, 14, 1530921548.392, 85, 0, 1024, 1024, 1024, 1024, 0, 6, 3990, 3995, 4009, 3994, 4016, 4010, 0, 1, 18500, -89.900, 0.000, 74.200, 0.000, 0.000, -2.900, 0.0, , , , , , 96, , , 45, 45, 45
38.4803363, -120.3385647, 39.400, 16:59:08.492, 16, 0.00, 0.44, 97, 1.800, 1.500, 72.900, 1209, 100, 98, 29, 24015, -18899, 5178, 5339, 19, 14, 1530921548.492, 69, 0, 1024, 1024, 1024, 1024, 0, 6, 3990, 3995, 4009, 3994, 4016, 4010, 0, 1, 18600, -89.900, 0.000, 74.200, 0.000, 0.000, -2.900, 0.0, , , , , , 96, , , 45, 45, 45
38.4803363, -120.3385646, 39.700, 16:59:08.592, 16, 0.00, 0.45, 97, 1.800, 1.600, 73.000, 1209, 100, 98, 29, 24015, -18899, 5178, 5339, 19, 14, 1530921548.592, 84, 0, 1024, 1024, 1024, 1024, 0, 6, 3990, 3995, 4009, 3994, 4016, 4010, 0, 1, 18700, -89.900, 0.000, 74.300, 0.000, 0.000, -2.900, 0.0, , , , , , 96, , , 45, 45, 45
38.4803363, -120.3385645, 40.000, 16:59:08.692, 16, 0.00, 0.45, 97, 1.400, 1.600, 72.900, 1209, 100, 98, 29, 24015, -18899, 5178, 5339, 19, 14, 1530921548.692, 70, 0, 1024, 1024, 1024, 1024, 0, 6, 3990, 3995, 4009, 3994, 4016, 4010, 0, 1, 18800, -89.900, 0.000, 74.200, 0.000, 0.000, -2.900, 0.0, , , , , , 96, , , 45, 45, 45
38.4803364, -120.3385645, 40.300, 16:59:08.792, 16, 0.00, 0.46, 97, 1.200, 1.700, 73.000, 1209, 100, 98, 29, 24015, -18899, 5178, 5339, 19, 14, 1530921548.792, 71, 0, 1024, 1024, 1024, 1024, 0, 6, 3993, 3986, 4011, 3998, 4018, 4011, 0, 1, 18900, -90.000, 0.000, 74.200, 0.000, 0.000, -2.900, 0.0, , , , , , 96, , , 45, 45, 45
38.4803364, -120.3385644, 40.600, 16:59:08.891, 16, 0.00, 0.46, 97, 1.200, 1.900, 73.200, 1209, 100, 98, 29, 24015, -18899, 5178, 5339, 19, 14, 1530921548.892, 60, 0, 1024, 1024, 1024, 1024, 0, 6, 3993, 3986, 4011, 3998, 4018, 4011, 0, 1, 19000, -89.900, 0.000, 74.200, 0.000, 0.000, -2.900, 0.0, , , , , , 96, , , 45, 45, 45
38.4803364, -120.3385643, 40.900, 16:59:08.991, 16, 0.00, 0.47, 97, 1.500, 2.100, 73.400, 1209, 100, 98, 29, 24015, -18899, 5178, 5339, 19, 14, 1530921548.992, 47, 0, 1024, 1024, 1024, 1024, 0, 6, 3993, 3986, 4011, 3998, 4018, 4011, 0, 1, 19100, -89.900, 0.000, 74.200, 0.000, 0.000, -2.900, 0.0, , , , , , 96, , , 45, 45, 45
38.4803365, -120.3385643, 41.200, 16:59:09.091, 17, 0.00, 0.48, 97, 1.500, 2.400, 73.500, 1209, 100, 98, 29, 24015, -18899, 5178, 5339, 19, 14, 1530921549.092, 48, 0, 1024, 1024, 1024, 1024, 0, 6, 3993, 3986, 4011, 3998, 4018, 4011, 0, 1, 19199, -89.900, 0.000, 74.200, 0.000, 0.000, -2.800, 0.0, , , , , , 96, , , 45, 45, 45
38.4803365, -120.3385642, 41.500, 16:59:09.192, 17, 0.00, 0.48, 97, 1.400, 2.400, 73.500, 1209, 100, 98, 29, 24015, -18899, 5178, 5339, 19, 14, 1530921549.192, 48, 0, 1024, 1024, 1024, 1024, 0, 6, 3993, 3986, 4011, 3998, 4018, 4011, 0, 1, 19300, -89.900, 0.000, 74.200, 0.000, 0.000, -2.900, 0.0, , , , , , 96, , , 45, 45, 45
38.4803365, -120.3385642, 41.700, 16:59:09.292, 17, 0.00, 0.48, 97, 1.200, 2.200, 73.500, 1209, 100, 98, 29, 24015, -18899, 5178, 5339, 19, 14, 1530921549.292, 50, 0, 1024, 1024, 1024, 1024, 0, 6, 3993, 3986, 4011, 3998, 4018, 4011, 0, 1, 19400, -89.900, 0.000, 74.200, 0.000, 0.000, -2.900, 0.0, , , , , , 96, , , 45, 45, 45
38.4803365, -120.3385642, 42.000, 16:59:09.391, 17, 0.00, 0.48, 97, 1.500, 2.000, 73.500, 1209, 100, 98, 29, 24015, -18899, 5178, 5339, 19, 14, 1530921549.391, 45, 0, 1024, 1024, 1024, 1024, 0, 6, 3993, 3986, 4011, 3998, 4018, 4011, 0, 1, 19499, -89.900, 0.000, 74.200, 0.000, 0.000, -3.000, 0.0, , , , , , 96, , , 45, 45, 45
38.4803366, -120.3385641, 42.300, 16:59:09.492, 17, 0.00, 0.49, 97, 1.300, 2.000, 73.400, 1209, 100, 98, 29, 24015, -18899, 5178, 5339, 19, 14, 1530921549.492, 26, 0, 1024, 1024, 1024, 1024, 0, 6, 3993, 3986, 4011, 3998, 4018, 4011, 0, 1, 19600, -89.900, 0.000, 74.200, 0.000, 0.000, -2.900, 0.0, , , , , , 96, , , 45, 45, 45
38.4803366, -120.3385640, 42.600, 16:59:09.592, 17, 0.00, 0.50, 97, 1.100, 1.900, 73.300, 1209, 100, 98, 29, 24015, -18899, 5178, 5339, 19, 14, 1530921549.592, 30, 0, 1024, 1024, 1024, 1024, 0, 6, 3993, 3986, 4011, 3998, 4018, 4011, 0, 1, 19700, -89.900, 0.000, 74.200, 0.000, 0.000, -2.900, 0.0, , , , , , 96, , , 45, 45, 45
38.4803367, -120.3385640, 42.900, 16:59:09.692, 17, 0.00, 0.50, 97, 1.000, 2.100, 73.200, 1209, 100, 98, 29, 23959, -19663, 5178, 5339, 19, 14, 1530921549.692, 7, 0, 1024, 1024, 1024, 1024, 0, 6, 3986, 3976, 4000, 3986, 4006, 3995, 0, 1, 19800, -89.900, 0.000, 74.200, 0.000, 0.000, -3.000, 0.0, , , , , , 96, , , 45, 45, 45
38.4803367, -120.3385639, 43.200, 16:59:09.792, 17, 0.00, 0.51, 97, 1.000, 2.200, 73.200, 1209, 100, 98, 29, 23959, -19663, 5178, 5339, 19, 14, 1530921549.792, 19, 0, 1024, 1024, 1024, 1024, 0, 6, 3986, 3976, 4000, 3986, 4006, 3995, 0, 1, 19900, -90.000, 0.000, 74.200, 0.000, 0.000, -3.000, 0.0, , , , , , 96, , , 45, 45, 45
38.4803368, -120.3385638, 43.800, 16:59:09.892, 17, 0.00, 0.53, 97, 1.600, 2.400, 73.400, 1209, 100, 98, 29, 23959, -19663, 5178, 5339, 19, 14, 1530921549.892, 6, 0, 1024, 1024, 1024, 1024, 0, 6, 3986, 3976, 4000, 3986, 4006, 3995, 0, 1, 20000, -89.900, 0.000, 74.200, 0.000, 0.000, -3.000, 0.0, , , , , , 96, , , 45, 45, 45
38.4803369, -120.3385637, 44.100, 16:59:09.994, 17, 0.00, 0.54, 97, 2.000, 2.700, 73.600, 1209, 100, 98, 29, 23959, -19663, 5178, 5339, 19, 14, 1530921549.994, 2, 0, 1024, 1024, 1024, 1024, 0, 6, 3986, 3976, 4000, 3986, 4006, 3995, 0, 1, 20102, -89.900, 0.000, 74.200, 0.000, 0.000, -3.000, 0.0, , , , , , 96, , , 45, 45, 45
38.4803370, -120.3385636, 44.400, 16:59:10.092, 17, 0.00, 0.55, 97, 2.500, 2.700, 73.800, 1209, 100, 98, 29, 23959, -19663, 5178, 5339, 19, 14, 1530921550.092, 4, 0, 1024, 1024, 1024, 1024, 0, 6, 3986, 3976, 4000, 3986, 4006, 3995, 0, 1, 20200, -89.900, 0.000, 74.200, 0.000, 0.000, -3.100, 0.0, , , , , , 96, , , 45, 45, 45
38.4803371, -120.3385636, 44.700, 16:59:10.191, 17, 0.00, 0.56, 97, 2.700, 2.800, 73.900, 1209, 100, 98, 29, 23959, -19663, 5178, 5339, 19, 14, 1530921550.191, 5, 0, 1024, 1024, 1024, 1024, 0, 6, 3986, 3976, 4000, 3986, 4006, 3995, 0, 1, 20299, -89.900, 0.000, 74.200, 0.000, 0.000, -3.000, 0.0, , , , , , 96, , , 45, 45, 45
38.4803371, -120.3385636, 44.700, 16:59:10.291, 17, 0.00, 0.56, 97, 2.700, 2.800, 73.900, 1209, 100, 98, 29, 23959, -19663, 5178, 5339, 19, 14, 1530921550.292, 105, 0, 1024, 1024, 1024, 1024, 0, 6, 3986, 3976, 4000, 3986, 4006, 3995, 0, 1, 20400, -89.900, 0.000, 74.200, 0.000, 0.000, -3.000, 0.0, , , , , , 96, , , 45, 45, 45
38.4803372, -120.3385635, 45.000, 16:59:10.392, 17, 0.00, 0.57, 97, 2.600, 3.000, 74.000, 1209, 100, 99, 29, 23959, -19663, 5178, 5339, 19, 14, 1530921550.392, 79, 0, 1024, 1024, 1024, 1024, 0, 6, 3986, 3976, 4000, 3986, 4006, 3995, 0, 1, 20500, -89.900, 0.000, 74.200, 0.000, 0.000, -3.100, 0.0, , , , , , 96, , , 45, 45, 45
38.4803373, -120.3385634, 45.400, 16:59:10.492, 17, 0.00, 0.59, 97, 2.700, 3.100, 74.000, 1209, 100, 99, 29, 23959, -19663, 5178, 5339, 19, 14, 1530921550.492, 85, 0, 1024, 1024, 1024, 1024, 0, 6, 3986, 3976, 4000, 3986, 4006, 3995, 0, 1, 20600, -89.900, 0.000, 74.200, 0.000, 0.000, -3.100, 0.0, , , , , , 96, , , 45, 45, 45
38.4803374, -120.3385634, 45.700, 16:59:10.592, 17, 0.00, 0.60, 97, 2.800, 3.200, 73.900, 1209, 100, 99, 29, 23959, -19663, 5178, 5339, 19, 14, 1530921550.592, 77, 0, 1024, 1024, 1024, 1024, 0, 6, 3986, 3976, 4000, 3986, 4006, 3995, 0, 1, 20700, -90.000, 0.000, 74.200, 0.000, 0.000, -3.000, 0.0, , , , , , 96, , , 45, 45, 45
38.4803375, -120.3385633, 46.000, 16:59:10.692, 17, 0.00, 0.61, 97, 2.800, 3.000, 73.800, 1209, 100, 99, 29, 23897, -20090, 5178, 5339, 19, 14, 1530921550.692, 71, 0, 1024, 1024, 1024, 1024, 0, 6, 3976, 3967, 3986, 3987, 3997, 3997, 0, 1, 20800, -89.900, 0.000, 74.200, 0.000, 0.000, -3.000, 0.0, , , , , , 96, , , 45, 45, 45
38.4803375, -120.3385633, 46.300, 16:59:10.792, 17, 0.00, 0.61, 97, 2.700, 3.200, 73.800, 1209, 100, 98, 29, 23897, -20090, 5178, 5339, 19, 14, 1530921550.792, 68, 0, 1024, 1024, 1024, 1024, 0, 6, 3976, 3967, 3986, 3987, 3997, 3997, 0, 1, 20900, -89.900, 0.000, 74.200, 0.000, 0.000, -3.000, 0.0, , , , , , 96, , , 45, 45, 45
38.4803376, -120.3385632, 46.600, 16:59:10.892, 17, 0.00, 0.62, 97, 2.400, 3.200, 73.700, 1209, 100, 98, 29, 23897, -20090, 5178, 5339, 19, 14, 1530921550.892, 70, 0, 1024, 1024, 1024, 1024, 0, 6, 3976, 3967, 3986, 3987, 3997, 3997, 0, 1, 21000, -89.900, 0.000, 74.200, 0.000, 0.000, -2.900, 0.0, , , , , , 96, , , 45, 45, 45
