latitude,longitude,altitude(feet),ascent(feet),speed(mph),distance(feet),time(millisecond),datetime(utc),satellites,gpslevel,voltage(v),max_altitude(feet),max_ascent(feet),max_speed(mph),max_distance(feet), xSpeed(mph), ySpeed(mph), zSpeed(mph), compass_heading(degrees), pitch(degrees), roll(degrees),isPhoto,isVideo,rc_elevator,rc_aileron,rc_throttle,rc_rudder,gimbal_heading(degrees),gimbal_pitch(degrees),battery_percent,voltageCell1,voltageCell2,voltageCell3,voltageCell4,voltageCell5,voltageCell6,current(A),battery_temperature(f),flycStateRaw,flycState,message
38.48035,-120.3385765,4527.5451826111,0,0,0,2930,2018-07-06 23:40:00,12,0,0,4527.5451826111,0,0,0,0,0,0,77.7, -1.1, 0,1,0,1024,1024,1024,1024,78.2,-89.9,100,4.279,4.303,4.28,4.266,4.303,4.305,0,82.4,11,AutoTakeoff,DJI_0777.jpg Starting Mission from Lat/Long: 38.48035/-120.33858 Camera: Zenmuse X3 - Overlap: 90/90 - Active Connection: No
38.48035,-120.3385764,4527.5451826111,0,0,0.028561188578,3000,2018-07-06 23:40:00,12,0,25.807,4527.5451826111,0,0,0.028561188578,0,0,0,77.8, -0.5, -0.1,0,0,1024,1024,1024,1024,78.2,-89.9,100,4.279,4.303,4.28,4.266,4.303,4.305,3.182,82.4,11,AutoTakeoff,
38.4803501,-120.3385763,4527.5451826111,0,0,0.067779857812,3100,2018-07-06 23:40:00,12,0,25.807,4527.5451826111,0,0,0.067779857812,0,0,0,77.9, -0.1, 0,0,0,1024,1024,1024,1024,78.2,-89.9,100,4.279,4.303,4.28,4.266,4.303,4.305,3.182,82.4,11,AutoTakeoff,
38.4803502,-120.3385762,4527.5451826111,0,0.223694,0.112544623024,3200,2018-07-06 23:40:00,12,0,25.807,4527.5451826111,0,0.223694,0.112544623024,0,0,0,77.8, 0.2, 0.2,0,0,1024,1024,1024,1024,78.2,-89.9,100,4.279,4.303,4.28,4.266,4.303,4.305,3.182,82.4,11,AutoTakeoff,
38.4803503,-120.3385761,4527.8732666111,0.328084,0.223694,0.158215884328,3300,2018-07-06 23:40:00,12,0,25.807,4527.8732666111,0.328084,0.223694,0.158215884328,0,0,0,77.7, 0.3, 0.4,0,0,1024,1024,1024,1024,78.2,-89.9,100,4.279,4.303,4.28,4.266,4.303,4.305,3.182,82.4,11,AutoTakeoff,
38.4803507,-120.3385758,4527.8732666111,0.328084,0.223694,0.32434220198,3400,2018-07-06 23:40:00,12,0,25.807,4527.8732666111,0.328084,0.223694,0.32434220198,0,0,0,77.5, 0.8, 0.6,0,0,1024,1024,1024,1024,78.2,-89.9,100,4.279,4.303,4.28,4.266,4.303,4.305,3.182,82.4,11,AutoTakeoff,
38.4803509,-120.3385757,4528.2013506111,0.656168,0.223694,0.40003938288,3500,2018-07-06 23:40:00,12,0,25.807,4528.2013506111,0.656168,0.223694,0.40003938288,0,0,0,77.5, 1.2, 1,0,0,1024,1024,1024,1024,78.2,-89.9,100,4.279,4.303,4.28,4.266,4.303,4.305,3.182,82.4,11,AutoTakeoff,
38.480351,-120.3385756,4528.2013506111,0.656168,0.223694,0.44630578856,3600,2018-07-06 23:40:00,13,0,25.807,4528.2013506111,0.656168,0.223694,0.44630578856,0,0,0,77.4, 1.3, 1.4,0,0,1024,1024,1024,1024,78.2,-89.9,100,4.279,4.303,4.28,4.266,4.303,4.305,3.182,82.4,11,AutoTakeoff,
38.4803511,-120.3385755,4528.5294346111,0.984252,0.223694,0.49258859844,3800,2018-07-06 23:40:01,13,0,25.807,4528.5294346111,0.984252,0.223694,0.49258859844,0,0,0,77.4, 1.3, 1.6,0,0,1024,1024,1024,1024,78.2,-89.9,100,4.279,4.303,4.28,4.266,4.303,4.305,3.182,82.4,11,AutoTakeoff,
38.4803512,-120.3385754,4528.5294346111,0.984252,0,0.53887797,3900,2018-07-06 23:40:01,12,0,25.807,4528.5294346111,0.984252,0.223694,0.53887797,0,0,0,77.5, 1.3, 1.5,0,0,1024,1024,1024,1024,78.2,-89.9,100,4.279,4.303,4.28,4.266,4.303,4.305,3.182,82.4,11,AutoTakeoff,
38.4803513,-120.3385753,4528.8575186111,1.312336,0,0.58517718408,4000,2018-07-06 23:40:01,12,0,24.866,4528.8575186111,1.312336,0.223694,0.58517718408,0,0,0,77.6, 1.2, 1.4,0,0,1024,1024,1024,1024,78.2,-89.9,100,4.279,4.303,4.28,4.266,4.303,4.305,13.238,82.4,11,AutoTakeoff,
38.4803513,-120.3385753,4528.8575186111,1.312336,0,0.58517718408,4100,2018-07-06 23:40:01,12,0,24.866,4528.8575186111,1.312336,0.223694,0.58517718408,0,0,0,77.7, 1.2, 1.4,0,0,1024,1024,1024,1024,78.2,-89.9,100,4.279,4.303,4.28,4.266,4.303,4.305,13.238,82.4,11,AutoTakeoff,
38.4803513,-120.3385752,4529.1856026111,1.64042,0,0.60234910064,4200,2018-07-06 23:40:01,12,0,24.866,4529.1856026111,1.64042,0.223694,0.60234910064,0,0,0,77.8, 1.4, 1.4,0,0,1024,1024,1024,1024,78.2,-89.9,100,4.279,4.303,4.28,4.266,4.303,4.305,13.238,82.4,11,AutoTakeoff,
38.4803514,-120.3385751,4529.1856026111,1.64042,0,0.64868440396,4300,2018-07-06 23:40:01,11,0,24.866,4529.1856026111,1.64042,0.223694,0.64868440396,0,0,0,77.8, 1.5, 1.4,0,0,1024,1024,1024,1024,78.2,-89.9,100,4.279,4.303,4.28,4.266,4.303,4.305,13.238,82.4,11,AutoTakeoff,
38.4803515,-120.3385751,4529.5136866111,1.968504,0,0.67778545476,4400,2018-07-06 23:40:01,11,0,24.866,4529.5136866111,1.968504,0.223694,0.67778545476,0,0,0,77.8, 1.6, 1.4,0,0,1024,1024,1024,1024,78.2,-89.9,100,4.279,4.303,4.28,4.266,4.303,4.305,13.238,82.4,11,AutoTakeoff,
38.4803516,-120.3385751,4529.5136866111,1.968504,0,0.70757220112,4500,2018-07-06 23:40:01,12,0,24.866,4529.5136866111,1.968504,0.223694,0.70757220112,0,0,0,77.8, 1.7, 1.8,0,0,1024,1024,1024,1024,78.2,-89.9,100,4.279,4.303,4.28,4.266,4.303,4.305,13.238,82.4,11,AutoTakeoff,
38.4803517,-120.3385751,4529.8417706111,2.296588,0,0.73796262204,4600,2018-07-06 23:40:01,12,0,24.866,4529.8417706111,2.296588,0.223694,0.73796262204,0,0,0,77.7, 1.7, 2.2,0,0,1024,1024,1024,1024,78.2,-89.9,100,4.279,4.303,4.28,4.266,4.303,4.305,13.238,82.4,11,AutoTakeoff,
38.4803518,-120.3385751,4529.8417706111,2.296588,0,0.7688812582,4700,2018-07-06 23:40:01,12,0,24.866,4529.8417706111,2.296588,0.223694,0.7688812582,0,0,0,77.7, 1.7, 2.3,0,0,1024,1024,1024,1024,78.2,-89.9,100,4.279,4.303,4.28,4.266,4.303,4.305,13.238,82.4,11,AutoTakeoff,
38.4803519,-120.3385751,4530.1698546111,2.624672,0,0.80026905448,4800,2018-07-06 23:40:02,12,0,24.866,4530.1698546111,2.624672,0.223694,0.80026905448,0,0,0,77.6, 1.6, 2.3,0,0,1024,1024,1024,1024,78.2,-89.9,100,4.279,4.303,4.28,4.266,4.303,4.305,13.238,82.4,11,AutoTakeoff,
38.4803519,-120.3385751,4530.1698546111,2.624672,0,0.80026905448,4900,2018-07-06 23:40:02,12,0,24.866,4530.1698546111,2.624672,0.223694,0.80026905448,0,0,0,77.6, 1.5, 2.3,0,0,1024,1024,1024,1024,78.2,-89.9,100,4.279,4.303,4.28,4.266,4.303,4.305,13.238,82.4,11,AutoTakeoff,
38.4803518,-120.3385751,4530.4979386111,2.952756,0,0.7688812582,5000,2018-07-06 23:40:02,12,0,24.866,4530.4979386111,2.952756,0.223694,0.80026905448,0,0,0,77.6, 1.5, 2.2,0,0,1024,1024,1024,1024,78.2,-89.9,100,4.147,4.16,4.134,4.13,4.134,4.16,13.238,82.4,11,AutoTakeoff,
38.4803518,-120.3385751,4530.4979386111,2.952756,0,0.7688812582,5100,2018-07-06 23:40:02,12,0,24.866,4530.4979386111,2.952756,0.223694,0.80026905448,0,0,0,77.6, 1.5, 2.1,0,0,1024,1024,1024,1024,78.2,-89.9,100,4.147,4.16,4.134,4.13,4.134,4.16,13.238,82.4,14,Waypoint,
38.4803518,-120.3385751,4530.4979386111,2.952756,0,0.7688812582,5200,2018-07-06 23:40:02,12,0,24.866,4530.4979386111,2.952756,0.223694,0.80026905448,0,0,0,77.6, 1.1, 1.5,0,0,1024,1024,1024,1024,78.2,-89.9,100,4.147,4.16,4.134,4.13,4.134,4.16,13.238,82.4,14,Waypoint,
38.4803518,-120.3385751,4530.8260226111,3.28084,0,0.7688812582,5300,2018-07-06 23:40:02,11,0,24.866,4530.8260226111,3.28084,0.223694,0.80026905448,0,0,0,77.6, 0.2, 0.5,0,0,1024,1024,1024,1024,78.2,-89.9,100,4.147,4.16,4.134,4.13,4.134,4.16,13.238,82.4,14,Waypoint,
38.4803518,-120.338575,4530.8260226111,3.28084,0,0.78411419832,5400,2018-07-06 23:40:02,10,0,24.866,4530.8260226111,3.28084,0.223694,0.80026905448,0,0,0,77.5, 0, 0.5,0,0,1024,1024,1024,1024,78.2,-90,100,4.147,4.16,4.134,4.13,4.134,4.16,13.238,82.4,14,Waypoint,
38.4803519,-120.338575,4531.1541066111,3.608924,0,0.81491472424,5600,2018-07-06 23:40:02,10,0,24.866,4531.1541066111,3.608924,0.223694,0.81491472424,0,0,0,77.4, 0.3, 0.7,0,0,1024,1024,1024,1024,78.2,-89.9,100,4.147,4.16,4.134,4.13,4.134,4.16,13.238,82.4,14,Waypoint,
38.4803519,-120.3385749,4531.1541066111,3.608924,0,0.83028545964,5700,2018-07-06 23:40:02,12,0,24.866,4531.1541066111,3.608924,0.223694,0.83028545964,0,0,-0.223694,77.2, 0.6, 0.6,0,0,1024,1024,1024,1024,78.2,-89.9,100,4.147,4.16,4.134,4.13,4.134,4.16,13.238,82.4,14,Waypoint,
38.4803519,-120.3385749,4531.4821906111,3.937008,0,0.83028545964,5800,2018-07-06 23:40:03,12,0,24.866,4531.4821906111,3.937008,0.223694,0.83028545964,0,0,-0.223694,77, 1, 0.6,0,0,1024,1024,1024,1024,78.2,-89.9,100,4.147,4.16,4.134,4.13,4.134,4.16,13.238,82.4,14,Waypoint,
38.4803519,-120.3385748,4531.8102746111,4.265092,0,0.8463418906,5900,2018-07-06 23:40:03,12,0,24.866,4531.8102746111,4.265092,0.223694,0.8463418906,0,0,-0.223694,76.9, 1.2, 0.8,0,0,1024,1024,1024,1024,78.2,-89.9,100,4.147,4.16,4.134,4.13,4.134,4.16,13.238,82.4,14,Waypoint,
38.480352,-120.3385747,4532.1383586111,4.593176,0,0.89261485796,6000,2018-07-06 23:40:03,12,0,24.673,4532.1383586111,4.593176,0.223694,0.89261485796,0,0,-0.223694,77, 1.1, 0.9,0,0,1024,1024,1024,1024,78.2,-89.9,100,4.091,4.12,4.115,4.099,4.103,4.123,15.503,82.4,14,Waypoint,
38.4803521,-120.3385746,4532.4664426111,4.92126,0,0.938894387,6100,2018-07-06 23:40:03,11,0,24.673,4532.4664426111,4.92126,0.223694,0.938894387,0,0,-0.223694,77.1, 1.2, 1,0,0,1024,1024,1024,1024,78.2,-89.9,100,4.091,4.12,4.115,4.099,4.103,4.123,15.503,82.4,14,Waypoint,
38.4803522,-120.3385746,4533.1226106111,5.577428,0,0.9688976688,6200,2018-07-06 23:40:03,11,0,24.673,4533.1226106111,5.577428,0.223694,0.9688976688,0,0,-0.447388,77.3, 1.4, 1.4,0,0,1024,1024,1024,1024,78.2,-89.9,100,4.091,4.12,4.115,4.099,4.103,4.123,15.503,82.4,14,Waypoint,
38.4803524,-120.3385745,4533.4506946111,5.905512,0,1.04548559776,6300,2018-07-06 23:40:03,11,0,24.673,4533.4506946111,5.905512,0.223694,1.04548559776,0,0,-0.447388,77.5, 1.5, 1.7,0,0,1024,1024,1024,1024,78.1,-89.9,100,4.091,4.12,4.115,4.099,4.103,4.123,15.503,82.4,14,Waypoint,
38.4803525,-120.3385744,4534.1068626111,6.56168,0,1.09165685908,6400,2018-07-06 23:40:03,11,0,24.673,4534.1068626111,6.56168,0.223694,1.09165685908,0,0,-0.447388,77.6, 1.5, 2.1,0,0,1024,1024,1024,1024,78.1,-89.9,100,4.091,4.12,4.115,4.099,4.103,4.123,15.503,82.4,14,Waypoint,
38.4803528,-120.3385743,4535.0911146111,7.545932,0,1.19935043208,6500,2018-07-06 23:40:03,11,0,24.673,4535.0911146111,7.545932,0.223694,1.19935043208,0,0,-0.447388,77.6, 1.5, 2.4,0,0,1024,1024,1024,1024,78.1,-89.9,100,4.091,4.12,4.115,4.099,4.103,4.123,15.503,82.4,14,Waypoint,
38.4803531,-120.3385742,4535.7472826111,8.2021,0.223694,1.30796264028,6600,2018-07-06 23:40:03,11,0,24.673,4535.7472826111,8.2021,0.223694,1.30796264028,0,0,-0.447388,77.7, 1.4, 2.8,0,0,1024,1024,1024,1024,78.1,-89.9,100,4.091,4.12,4.115,4.099,4.103,4.123,15.503,82.4,14,Waypoint,
38.4803534,-120.3385743,4536.4034506111,8.858268,0.223694,1.3905512256,6700,2018-07-06 23:40:03,11,0,24.673,4536.4034506111,8.858268,0.223694,1.3905512256,0,0,-0.671082,77.6, 1.3, 3.2,0,0,1024,1024,1024,1024,78.1,-89.9,100,4.091,4.12,4.115,4.099,4.103,4.123,15.503,82.4,14,Waypoint,
38.4803538,-120.3385743,4537.3877026111,9.84252,0.223694,1.52216868388,6800,2018-07-06 23:40:04,11,0,24.673,4537.3877026111,9.84252,0.223694,1.52216868388,0,0,-0.671082,77.6, 1.3, 3.7,0,0,1024,1024,1024,1024,78.1,-89.9,100,4.091,4.12,4.115,4.099,4.103,4.123,15.503,82.4,14,Waypoint,
38.4803542,-120.3385743,4538.3719546111,10.826772,0,1.65619099788,6900,2018-07-06 23:40:04,11,0,24.673,4538.3719546111,10.826772,0.223694,1.65619099788,0,0,-0.671082,77.5, 1.4, 4,0,0,1024,1024,1024,1024,78.1,-89.9,100,4.091,4.12,4.115,4.099,4.103,4.123,15.503,82.4,14,Waypoint,
38.4803545,-120.3385743,4539.3562066111,11.811024,0,1.75795281216,7000,2018-07-06 23:40:04,11,0,24.568,4539.3562066111,11.811024,0.223694,1.75795281216,0,0,-0.671082,77.4, 1.5, 4.3,0,0,1024,1024,1024,1024,78,-89.9,100,4.073,4.099,4.105,4.087,4.124,4.101,16.249,82.4,14,Waypoint,
38.4803549,-120.3385743,4540.6685426111,13.12336,0,1.89497053308,7100,2018-07-06 23:40:04,12,0,24.568,4540.6685426111,13.12336,0.223694,1.89497053308,0,0,-0.671082,77.3, 1.6, 4.5,0,0,1024,1024,1024,1024,78,-89.9,100,4.073,4.099,4.105,4.087,4.124,4.101,16.249,82.4,14,Waypoint,
38.4803552,-120.3385741,4541.6527946111,14.107612,0,2.01725072072,7200,2018-07-06 23:40:04,12,0,24.568,4541.6527946111,14.107612,0.223694,2.01725072072,0,0,-0.671082,77.2, 1.7, 4.7,0,0,1024,1024,1024,1024,78,-89.9,100,4.073,4.099,4.105,4.087,4.124,4.101,16.249,82.4,14,Waypoint,
38.4803555,-120.3385741,4542.6370466111,15.091864,0,2.12051844056,7300,2018-07-06 23:40:04,11,0,24.568,4542.6370466111,15.091864,0.223694,2.12051844056,0,0,-0.671082,77.1, 2, 4.8,0,0,1024,1024,1024,1024,78,-89.9,100,4.073,4.099,4.105,4.087,4.124,4.101,16.249,82.4,14,Waypoint,
38.4803557,-120.3385741,4543.6212986111,16.076116,0,2.1896982328,7400,2018-07-06 23:40:04,11,0,24.568,4543.6212986111,16.076116,0.223694,2.1896982328,0,0,-0.671082,77.1, 2.1, 4.6,0,0,1024,1024,1024,1024,78,-89.9,100,4.073,4.099,4.105,4.087,4.124,4.101,16.249,82.4,14,Waypoint,
38.4803558,-120.3385744,4545.9178866111,18.372704,0.223694,2.19948497852,7500,2018-07-06 23:40:04,12,0,24.568,4545.9178866111,18.372704,0.223694,2.19948497852,0,0,-0.671082,77, 1.5, 4,0,0,1024,1024,1024,1024,78,-89.9,100,4.073,4.099,4.105,4.087,4.124,4.101,16.249,82.4,14,Waypoint,
38.4803556,-120.3385745,4546.9021386111,19.356956,0.223694,2.1215059734,7700,2018-07-06 23:40:04,12,0,24.568,4546.9021386111,19.356956,0.223694,2.19948497852,0,0,-0.671082,77, 1, 3.7,0,0,1024,1024,1024,1024,78,-89.9,100,4.073,4.099,4.105,4.087,4.124,4.101,16.249,82.4,14,Waypoint,
38.480355,-120.3385746,4549.1987266111,21.653544,0.447388,1.90325137324,7800,2018-07-06 23:40:05,12,0,24.568,4549.1987266111,21.653544,0.447388,2.19948497852,0,0,-0.671082,76.9, 0.5, 2.1,0,0,1024,1024,1024,1024,78,-90,100,4.073,4.099,4.105,4.087,4.124,4.101,16.249,82.4,14,Waypoint,
38.4803545,-120.3385747,4550.1829786111,22.637796,0.447388,1.72042984508,8000,2018-07-06 23:40:05,12,0,24.303,4550.1829786111,22.637796,0.447388,2.19948497852,0,0,-0.671082,76.9, 0.3, 1.1,0,0,1024,1024,1024,1024,78,-90,98,4.029,4.048,4.031,4.019,4.026,4.041,18.808,82.4,14,Waypoint,
38.4803542,-120.3385748,4551.4953146111,23.950132,0.447388,1.60745083884,8100,2018-07-06 23:40:05,12,0,24.303,4551.4953146111,23.950132,0.447388,2.19948497852,0,0,-0.671082,76.9, 0.2, 0.3,0,0,1024,1024,1024,1024,78,-90,98,4.029,4.048,4.031,4.019,4.026,4.041,18.808,82.4,14,Waypoint,
38.4803538,-120.3385748,4552.4795666111,24.934384,0.447388,1.46898954832,8200,2018-07-06 23:40:05,12,0,24.303,4552.4795666111,24.934384,0.447388,2.19948497852,0,0,-0.671082,76.9, 0.2, 0,0,0,1024,1024,1024,1024,78,-90,98,4.029,4.048,4.031,4.019,4.026,4.041,18.808,82.4,14,Waypoint,
38.4803534,-120.3385749,4553.4638186111,25.918636,0.447388,1.32198495044,8300,2018-07-06 23:40:05,13,0,24.303,4553.4638186111,25.918636,0.447388,2.19948497852,0,0,-0.671082,77, 0.1, -0.1,0,0,1024,1024,1024,1024,78,-90,98,4.029,4.048,4.031,4.019,4.026,4.041,18.808,82.4,14,Waypoint,
38.480353,-120.3385751,4554.4480706111,26.902888,0.447388,1.16529859372,8400,2018-07-06 23:40:05,13,0,24.303,4554.4480706111,26.902888,0.447388,2.19948497852,0,0,-0.671082,77.1, -0.2, -0.5,0,0,1024,1024,1024,1024,78,-90,98,4.029,4.048,4.031,4.019,4.026,4.041,18.808,82.4,14,Waypoint,
38.4803526,-120.3385751,4555.4323226111,27.88714,0.447388,1.02943900932,8500,2018-07-06 23:40:05,14,0,24.303,4555.4323226111,27.88714,0.447388,2.19948497852,0,0,-0.671082,77.1, -0.5, -1,0,0,1024,1024,1024,1024,78,-89.9,98,4.029,4.048,4.031,4.019,4.026,4.041,18.808,82.4,14,Waypoint,
38.4803522,-120.3385751,4556.7446586111,29.199476,0.447388,0.8967519972,8600,2018-07-06 23:40:05,14,0,24.303,4556.7446586111,29.199476,0.447388,2.19948497852,0,0,-0.671082,77.2, -0.4, -1.1,0,0,1024,1024,1024,1024,78,-90,98,4.029,4.048,4.031,4.019,4.026,4.041,18.808,82.4,14,Waypoint,
38.4803519,-120.3385752,4557.7289106111,30.183728,0.223694,0.78638782044,8700,2018-07-06 23:40:05,12,0,24.303,4557.7289106111,30.183728,0.447388,2.19948497852,0,0,-0.671082,77.2, -0.2, -1,0,0,1024,1024,1024,1024,78,-89.9,98,4.029,4.048,4.031,4.019,4.026,4.041,18.808,82.4,14,Waypoint,
38.4803515,-120.3385752,4558.7131626111,31.16798,0.223694,0.66133860384,8800,2018-07-06 23:40:06,12,0,24.303,4558.7131626111,31.16798,0.447388,2.19948497852,0,0,-0.671082,77.1, -0.1, -1.2,0,0,1024,1024,1024,1024,78,-89.9,98,4.029,4.048,4.031,4.019,4.026,4.041,18.808,82.4,14,Waypoint,
38.4803512,-120.3385753,4560.0254986111,32.480316,0.223694,0.55601379732,8900,2018-07-06 23:40:06,13,0,24.303,4560.0254986111,32.480316,0.447388,2.19948497852,0,0,-0.671082,77.1, 0, -1.2,0,0,1024,1024,1024,1024,78,-89.9,98,4.029,4.048,4.031,4.019,4.026,4.041,18.808,82.4,14,Waypoint,
38.4803508,-120.3385754,4561.0097506111,33.464568,0.223694,0.42883531556,9000,2018-07-06 23:40:06,13,0,24.008,4561.0097506111,33.464568,0.447388,2.19948497852,0,0,-0.671082,77.1, 0, -1.4,0,0,1024,1024,1024,1024,78,-89.9,98,4.012,4.047,4.012,3.997,4.035,4.034,18.629,82.4,14,Waypoint,
38.4803505,-120.3385753,4561.9940026111,34.44882,0.223694,0.38826116728,9100,2018-07-06 23:40:06,13,0,24.008,4561.9940026111,34.44882,0.447388,2.19948497852,0,0,-0.671082,77, -0.1, -1.6,0,0,1024,1024,1024,1024,78,-89.9,98,4.012,4.047,4.012,3.997,4.035,4.034,18.629,82.4,14,Waypoint,
38.4803502,-120.3385753,4562.9782546111,35.433072,0,0.35041667788,9200,2018-07-06 23:40:06,13,0,24.008,4562.9782546111,35.433072,0.447388,2.19948497852,0,0,-0.671082,77, -0.1, -1.7,0,0,1024,1024,1024,1024,78,-90,98,4.012,4.047,4.012,3.997,4.035,4.034,18.629,82.4,14,Waypoint,
38.48035,-120.3385753,4564.2905906111,36.745408,0,0.3427329506,9300,2018-07-06 23:40:06,13,0,24.008,4564.2905906111,36.745408,0.447388,2.19948497852,0,0,-0.671082,76.9, -0.2, -1.6,0,0,1024,1024,1024,1024,78,-89.9,98,4.012,4.047,4.012,3.997,4.035,4.034,18.629,82.4,14,Waypoint,
38.4803498,-120.3385753,4565.2748426111,37.72966,0,0.35041667788,9400,2018-07-06 23:40:06,13,0,24.008,4565.2748426111,37.72966,0.447388,2.19948497852,0,0,-0.671082,76.8, -0.2, -1.4,0,0,1024,1024,1024,1024,78,-89.9,98,4.012,4.047,4.012,3.997,4.035,4.034,18.629,82.4,14,Waypoint,
38.4803496,-120.3385753,4566.2590946111,38.713912,0,0.37251313528,9500,2018-07-06 23:40:06,14,0,24.008,4566.2590946111,38.713912,0.447388,2.19948497852,0,0,-0.671082,76.8, -0.2, -1.3,0,0,1024,1024,1024,1024,78,-89.9,98,4.012,4.047,4.012,3.997,4.035,4.034,18.629,82.4,14,Waypoint,
38.4803494,-120.3385753,4567.2433466111,39.698164,0,0.40667980304,9600,2018-07-06 23:40:06,14,0,24.008,4567.2433466111,39.698164,0.447388,2.19948497852,0,0,-0.671082,76.8, -0.2, -1.3,0,0,1024,1024,1024,1024,78,-89.9,98,4.012,4.047,4.012,3.997,4.035,4.034,18.629,82.4,14,Waypoint,
38.4803491,-120.3385751,4569.5399346111,41.994752,0,0.5174048722,9700,2018-07-06 23:40:06,14,0,24.008,4569.5399346111,41.994752,0.447388,2.19948497852,0,0,-0.671082,76.9, 0, -1.1,0,0,1024,1024,1024,1024,78,-89.9,98,4.012,4.047,4.012,3.997,4.035,4.034,18.629,82.4,14,Waypoint,
38.4803489,-120.338575,4570.5241866111,42.979004,0,0.58703742036,9800,2018-07-06 23:40:07,13,0,24.008,4570.5241866111,42.979004,0.447388,2.19948497852,0,0,-0.671082,77, 0.2, -1.1,0,0,1024,1024,1024,1024,78,-89.9,98,4.012,4.047,4.012,3.997,4.035,4.034,18.629,82.4,14,Waypoint,
38.4803487,-120.3385749,4571.5084386111,43.963256,0,0.65863191084,9900,2018-07-06 23:40:07,13,0,24.008,4571.5084386111,43.963256,0.447388,2.19948497852,0,0,-0.671082,77.1, 0.2, -1.2,0,0,1024,1024,1024,1024,78,-89.9,98,4.012,4.047,4.012,3.997,4.035,4.034,18.629,82.4,14,Waypoint,
38.4803487,-120.3385749,4573.4769426111,45.93176,0.223694,0.65863191084,10100,2018-07-06 23:40:07,16,0,24.008,4573.4769426111,45.93176,0.447388,2.19948497852,0,0,-0.671082,77, 0.2, -1.2,0,0,1024,1024,1024,1024,78,-89.9,98,4.012,4.047,4.012,3.997,4.035,4.034,18.629,82.4,14,Waypoint,
38.4803487,-120.3385749,4574.4611946111,46.916012,0.223694,0.65863191084,10200,2018-07-06 23:40:07,15,0,24.008,4574.4611946111,46.916012,0.447388,2.19948497852,0,0,-0.671082,76.9, 0.3, -0.9,0,0,1024,1024,1024,1024,78,-89.9,98,4.012,4.047,4.012,3.997,4.035,4.034,18.629,82.4,14,Waypoint,
38.4803488,-120.3385749,4575.4454466111,47.900264,0.223694,0.63286419348,10300,2018-07-06 23:40:07,15,0,24.008,4575.4454466111,47.900264,0.447388,2.19948497852,0,0,-0.671082,76.9, 0.4, -0.4,0,0,1024,1024,1024,1024,78,-89.9,98,4.012,4.047,4.012,3.997,4.035,4.034,18.629,82.4,14,Waypoint,
38.4803488,-120.3385749,4575.4454466111,47.900264,0.223694,0.63286419348,10400,2018-07-06 23:40:07,15,0,24.008,4575.4454466111,47.900264,0.447388,2.19948497852,0,0,-0.671082,76.9, 0.4, -0.4,0,0,1024,1024,1024,1024,78,-89.9,98,4.012,4.047,4.012,3.997,4.035,4.034,18.629,82.4,14,Waypoint,
38.480349,-120.3385749,4576.4296986111,48.884516,0.447388,0.5847605174,10500,2018-07-06 23:40:07,15,0,24.008,4576.4296986111,48.884516,0.447388,2.19948497852,0,0,-0.671082,76.9, 0.5, 0,0,0,1024,1024,1024,1024,78,-89.9,98,4.012,4.047,4.012,3.997,4.035,4.034,18.629,82.4,14,Waypoint,
38.4803491,-120.3385749,4577.4139506111,49.868768,0.447388,0.56271983428,10600,2018-07-06 23:40:07,15,0,24.008,4577.4139506111,49.868768,0.447388,2.19948497852,0,0,-0.671082,76.9, 0.6, 0.5,0,0,1024,1024,1024,1024,78,-89.9,98,4.012,4.047,4.012,3.997,4.035,4.034,18.629,82.4,14,Waypoint,
38.4803493,-120.3385747,4578.3982026111,50.85302,0.447388,0.57404529396,10700,2018-07-06 23:40:07,16,0,24.008,4578.3982026111,50.85302,0.447388,2.19948497852,0,0,-0.671082,76.9, 0.8, 1,0,0,1024,1024,1024,1024,78,-89.9,98,4.012,4.047,4.012,3.997,4.035,4.034,18.629,82.4,14,Waypoint,
38.4803494,-120.3385744,4579.3824546111,51.837272,0.447388,0.6384842724,10800,2018-07-06 23:40:08,16,0,24.008,4579.3824546111,51.837272,0.447388,2.19948497852,0,0,-0.671082,77, 1.3, 1.1,0,0,1024,1024,1024,1024,78,-89.9,98,4.012,4.047,4.012,3.997,4.035,4.034,18.629,82.4,14,Waypoint,
38.4803495,-120.3385743,4580.3667066111,52.821524,0.447388,0.65429135952,10900,2018-07-06 23:40:08,14,0,24.008,4580.3667066111,52.821524,0.447388,2.19948497852,0,0,-0.671082,77.1, 1.8, 1.3,0,0,1024,1024,1024,1024,78,-89.9,98,4.012,4.047,4.012,3.997,4.035,4.034,18.629,82.4,14,Waypoint,
38.4803496,-120.3385742,4581.3509586111,53.805776,0.447388,0.67292324988,11000,2018-07-06 23:40:08,14,0,24.251,4581.3509586111,53.805776,0.447388,2.19948497852,0,0,-0.671082,77.1, 2, 1.3,0,0,1024,1024,1024,1024,78,-89.9,98,4.016,4.049,4.051,4.041,4.042,4.056,17.644,82.4,14,Waypoint,
38.4803498,-120.3385742,4582.3352106111,54.790028,0.223694,0.66094818388,11100,2018-07-06 23:40:08,15,0,24.251,4582.3352106111,54.790028,0.447388,2.19948497852,0,0,-0.671082,77.2, 2, 1.1,0,0,1024,1024,1024,1024,78,-89.9,98,4.016,4.049,4.051,4.041,4.042,4.056,17.644,82.4,14,Waypoint,
38.4803499,-120.3385742,4583.6475466111,56.102364,0.223694,0.65791996856,11200,2018-07-06 23:40:08,15,0,24.251,4583.6475466111,56.102364,0.447388,2.19948497852,0,0,-0.671082,77.2, 1.7, 0.9,0,0,1024,1024,1024,1024,78,-89.9,98,4.016,4.049,4.051,4.041,4.042,4.056,17.644,82.4,14,Waypoint,
38.4803501,-120.3385742,4584.6317986111,57.086616,0.223694,0.65791996856,11300,2018-07-06 23:40:08,16,0,24.251,4584.6317986111,57.086616,0.447388,2.19948497852,0,0,-0.671082,77.2, 1.4, 0.9,0,0,1024,1024,1024,1024,78,-89.9,98,4.016,4.049,4.051,4.041,4.042,4.056,17.644,82.4,14,Waypoint,
38.4803502,-120.3385743,4585.6160506111,58.070868,0.223694,0.63256891788,11400,2018-07-06 23:40:08,16,0,24.251,4585.6160506111,58.070868,0.447388,2.19948497852,0,0,-0.671082,77.2, 1.1, 0.8,0,0,1024,1024,1024,1024,78,-89.9,98,4.016,4.049,4.051,4.041,4.042,4.056,17.644,82.4,14,Waypoint,
38.4803503,-120.3385743,4586.6003026111,59.05512,0.223694,0.63780841936,11500,2018-07-06 23:40:08,16,0,24.251,4586.6003026111,59.05512,0.447388,2.19948497852,0,0,-0.671082,77.2, 0.9, 0.9,0,0,1024,1024,1024,1024,78,-89.9,98,4.016,4.049,4.051,4.041,4.042,4.056,17.644,82.4,14,Waypoint,
38.4803505,-120.3385743,4587.5845546111,60.039372,0.223694,0.65429135952,11600,2018-07-06 23:40:08,16,0,24.251,4587.5845546111,60.039372,0.447388,2.19948497852,0,0,-0.671082,77.1, 0.9, 0.9,0,0,1024,1024,1024,1024,78,-89.9,98,4.016,4.049,4.051,4.041,4.042,4.056,17.644,82.4,14,Waypoint,
38.4803507,-120.3385743,4588.5688066111,61.023624,0.223694,0.67826773824,11700,2018-07-06 23:40:08,16,0,24.251,4588.5688066111,61.023624,0.447388,2.19948497852,0,0,-0.671082,77, 0.9, 1.2,0,0,1024,1024,1024,1024,78,-90,98,4.016,4.049,4.051,4.041,4.042,4.056,17.644,82.4,14,Waypoint,
38.4803509,-120.3385744,4589.5530586111,62.007876,0.223694,0.68378611112,11800,2018-07-06 23:40:09,16,0,24.251,4589.5530586111,62.007876,0.447388,2.19948497852,0,0,-0.671082,77, 0.9, 1.5,0,0,1024,1024,1024,1024,78,-89.9,98,4.016,4.049,4.051,4.041,4.042,4.056,17.644,82.4,14,Waypoint,
38.4803511,-120.3385743,4590.5373106111,62.992128,0.223694,0.74558073252,11900,2018-07-06 23:40:09,15,0,24.251,4590.5373106111,62.992128,0.447388,2.19948497852,0,0,-0.671082,77, 1.1, 1.6,0,0,1024,1024,1024,1024,78,-89.9,98,4.016,4.049,4.051,4.041,4.042,4.056,17.644,82.4,14,Waypoint,
38.4803513,-120.3385742,4591.5215626111,63.97638,0.223694,0.81024280808,12000,2018-07-06 23:40:09,15,0,24.183,4591.5215626111,63.97638,0.447388,2.19948497852,0,0,-0.671082,77.1, 1.4, 1.8,0,0,1024,1024,1024,1024,78,-89.9,98,4.005,4.039,4.046,4.024,4.034,4.054,18.181,82.4,14,Waypoint,
38.4803515,-120.3385743,4592.1777306111,64.632548,0.223694,0.83326446236,12100,2018-07-06 23:40:09,16,0,24.183,4592.1777306111,64.632548,0.447388,2.19948497852,0,0,-0.671082,77.1, 1.5, 2,0,0,1024,1024,1024,1024,78,-89.9,98,4.005,4.039,4.046,4.024,4.034,4.054,18.181,82.4,14,Waypoint,
38.4803517,-120.3385744,4593.1619826111,65.6168,0.223694,0.8628117074,12200,2018-07-06 23:40:09,16,0,24.183,4593.1619826111,65.6168,0.447388,2.19948497852,0,0,-0.671082,77.2, 1.5, 2.2,0,0,1024,1024,1024,1024,78,-89.9,98,4.005,4.039,4.046,4.024,4.034,4.054,18.181,82.4,14,Waypoint,
38.480352,-120.3385744,4595.1304866111,67.585304,0,0.94456367852,12400,2018-07-06 23:40:09,17,0,24.183,4595.1304866111,67.585304,0.447388,2.19948497852,0,0,-0.671082,77.3, 1.1, 2.2,0,0,1024,1024,1024,1024,78,-89.9,98,4.005,4.039,4.046,4.024,4.034,4.054,18.181,82.4,14,Waypoint,
38.4803522,-120.3385745,4596.1147386111,68.569556,0,0.98517719688,12500,2018-07-06 23:40:09,17,0,24.183,4596.1147386111,68.569556,0.447388,2.19948497852,0,0,-0.671082,77.3, 0.8, 2,0,0,1024,1024,1024,1024,78,-89.9,98,4.005,4.039,4.046,4.024,4.034,4.054,18.181,82.4,14,Waypoint,
38.4803524,-120.3385745,4597.0989906111,69.553808,0,1.04548559776,12600,2018-07-06 23:40:09,17,0,24.183,4597.0989906111,69.553808,0.447388,2.19948497852,0,0,-0.671082,77.3, 0.6, 1.9,0,0,1024,1024,1024,1024,78,-90,98,4.005,4.039,4.046,4.024,4.034,4.054,18.181,82.4,14,Waypoint,
38.4803525,-120.3385746,4598.0832426111,70.53806,0,1.06134517832,12700,2018-07-06 23:40:09,16,0,24.183,4598.0832426111,70.53806,0.447388,2.19948497852,0,0,-0.671082,77.3, 0.5, 1.9,0,0,1024,1024,1024,1024,78,-90,98,4.005,4.039,4.046,4.024,4.034,4.054,18.181,82.4,14,Waypoint,
38.4803527,-120.3385746,4599.0674946111,71.522312,0,1.12467523284,12800,2018-07-06 23:40:10,16,0,24.183,4599.0674946111,71.522312,0.447388,2.19948497852,0,0,-0.671082,77.3, 0.5, 1.6,0,0,1024,1024,1024,1024,78,-90,98,4.005,4.039,4.046,4.024,4.034,4.054,18.181,82.4,14,Waypoint,
38.4803528,-120.3385746,4600.0517466111,72.506564,0,1.15676512888,12900,2018-07-06 23:40:10,16,0,24.183,4600.0517466111,72.506564,0.447388,2.19948497852,0,0,-0.671082,77.3, 0.5, 1.4,0,0,1024,1024,1024,1024,78,-90,98,4.005,4.039,4.046,4.024,4.034,4.054,18.181,82.4,14,Waypoint,
38.4803529,-120.3385746,4601.0359986111,73.490816,0,1.1891076496,13000,2018-07-06 23:40:10,16,0,24.179,4601.0359986111,73.490816,0.447388,2.19948497852,0,0,-0.671082,77.3, 0.5, 1.4,0,0,1024,1024,1024,1024,78,-90,98,4.006,4.033,4.023,4.024,4.024,4.036,18.441,82.4,14,Waypoint,
38.480353,-120.3385747,4602.0202506111,74.475068,0,1.20927169224,13100,2018-07-06 23:40:10,15,0,24.179,4602.0202506111,74.475068,0.447388,2.19948497852,0,0,-0.671082,77.2, 0.5, 1.4,0,0,1024,1024,1024,1024,78,-89.9,98,4.006,4.033,4.023,4.024,4.024,4.036,18.441,82.4,14,Waypoint,
38.4803533,-120.3385748,4603.9887546111,76.443572,0,1.29821854548,13300,2018-07-06 23:40:10,14,0,24.179,4603.9887546111,76.443572,0.447388,2.19948497852,0,0,-0.671082,76.9, 0.7, 2,0,0,1024,1024,1024,1024,78,-89.9,98,4.006,4.033,4.023,4.024,4.024,4.036,18.441,82.4,14,Waypoint,
38.4803534,-120.3385748,4604.6449226111,77.09974,0,1.33212602688,13400,2018-07-06 23:40:10,14,0,24.179,4604.6449226111,77.09974,0.447388,2.19948497852,0,0,-0.671082,76.8, 0.7, 2.4,0,0,1024,1024,1024,1024,78,-89.9,98,4.006,4.033,4.023,4.024,4.024,4.036,18.441,82.4,14,Waypoint,
38.4803536,-120.3385748,4605.9572586111,78.412076,0,1.4003281288,13500,2018-07-06 23:40:10,15,0,24.179,4605.9572586111,78.412076,0.447388,2.19948497852,0,0,-0.671082,76.7, 0.8, 2.7,0,0,1024,1024,1024,1024,78,-89.9,98,4.006,4.033,4.023,4.024,4.024,4.036,18.441,82.4,14,Waypoint,
38.4803537,-120.3385748,4606.9415106111,79.396328,0,1.43460634512,13600,2018-07-06 23:40:10,15,0,24.179,4606.9415106111,79.396328,0.447388,2.19948497852,0,0,-0.671082,76.6, 0.9, 2.9,0,0,1024,1024,1024,1024,78,-89.9,98,4.006,4.033,4.023,4.024,4.024,4.036,18.441,82.4,14,Waypoint,
38.4803538,-120.3385748,4607.9257626111,80.38058,0,1.46898954832,13700,2018-07-06 23:40:10,15,0,24.179,4607.9257626111,80.38058,0.447388,2.19948497852,0,0,-0.671082,76.6, 1, 2.9,0,0,1024,1024,1024,1024,78,-89.9,98,4.006,4.033,4.023,4.024,4.024,4.036,18.441,82.4,14,Waypoint,
38.4803538,-120.3385747,4608.9100146111,81.364832,0,1.478674588,13800,2018-07-06 23:40:11,15,0,24.179,4608.9100146111,81.364832,0.447388,2.19948497852,0,0,-0.671082,76.7, 1.1, 2.7,0,0,1024,1024,1024,1024,78,-89.9,98,4.006,4.033,4.023,4.024,4.024,4.036,18.441,82.4,14,Waypoint,
38.4803538,-120.3385747,4609.8942666111,82.349084,0,1.478674588,13900,2018-07-06 23:40:11,16,0,24.179,4609.8942666111,82.349084,0.447388,2.19948497852,0,0,-0.671082,76.7, 1.2, 2.3,0,0,1024,1024,1024,1024,78,-89.9,98,4.006,4.033,4.023,4.024,4.024,4.036,18.441,82.4,14,Waypoint,
38.4803539,-120.3385746,4610.8785186111,83.333336,0,1.52288062616,14000,2018-07-06 23:40:11,16,0,24.142,4610.8785186111,83.333336,0.447388,2.19948497852,0,0,-0.671082,76.8, 1.3, 2.2,0,0,1024,1024,1024,1024,78,-89.9,98,3.994,4.019,4.032,4.024,4.017,4.038,18.565,82.4,14,Waypoint,
38.4803538,-120.3385747,4611.8627706111,84.317588,0,1.478674588,14100,2018-07-06 23:40:11,16,0,24.142,4611.8627706111,84.317588,0.447388,2.19948497852,0,0,-0.671082,76.9, 1.3, 2.1,0,0,1024,1024,1024,1024,78,-89.9,98,3.994,4.019,4.032,4.024,4.017,4.038,18.565,82.4,14,Waypoint,
38.4803538,-120.3385747,4612.8470226111,85.30184,0.223694,1.478674588,14200,2018-07-06 23:40:11,16,0,24.142,4612.8470226111,85.30184,0.447388,2.19948497852,0,0,-0.671082,77, 1, 1.8,0,0,1024,1024,1024,1024,78,-89.9,98,3.994,4.019,4.032,4.024,4.017,4.038,18.565,82.4,14,Waypoint,
38.4803538,-120.3385747,4613.8312746111,86.286092,0.223694,1.478674588,14300,2018-07-06 23:40:11,16,0,24.142,4613.8312746111,86.286092,0.447388,2.19948497852,0,0,-0.671082,77.1, 0.8, 1.6,0,0,1024,1024,1024,1024,78,-89.9,98,3.994,4.019,4.032,4.024,4.017,4.038,18.565,82.4,14,Waypoint,
38.4803537,-120.3385747,4615.4716946111,87.926512,0.223694,1.44452432444,14400,2018-07-06 23:40:11,16,0,24.142,4615.4716946111,87.926512,0.447388,2.19948497852,0,0,-0.671082,77.3, 0.8, 0.9,0,0,1024,1024,1024,1024,78,-89.9,98,3.994,4.019,4.032,4.024,4.017,4.038,18.565,82.4,14,Waypoint,
38.4803536,-120.3385747,4616.4559466111,88.910764,0.223694,1.41048560944,14600,2018-07-06 23:40:11,16,0,24.142,4616.4559466111,88.910764,0.447388,2.19948497852,0,0,-0.671082,77.3, 1, 0.9,0,0,1024,1024,1024,1024,78,-89.9,98,3.994,4.019,4.032,4.024,4.017,4.038,18.565,82.4,14,Waypoint,
38.4803535,-120.3385747,4618.4244506111,90.879268,0.223694,1.3765748472,14700,2018-07-06 23:40:11,16,0,24.142,4618.4244506111,90.879268,0.447388,2.19948497852,0,0,-0.671082,77.2, 0.9, 0.9,0,0,1024,1024,1024,1024,78,-89.9,98,3.994,4.019,4.032,4.024,4.017,4.038,18.565,82.4,14,Waypoint,
38.4803535,-120.3385747,4619.4087026111,91.86352,0,1.3765748472,14900,2018-07-06 23:40:12,16,0,24.142,4619.4087026111,91.86352,0.447388,2.19948497852,0,0,-0.671082,77.1, 0.8, 1.1,0,0,1024,1024,1024,1024,78,-89.9,98,3.994,4.019,4.032,4.024,4.017,4.038,18.565,82.4,14,Waypoint,
38.4803534,-120.3385747,4620.3929546111,92.847772,0,1.3427985994,15000,2018-07-06 23:40:12,16,0,24.121,4620.3929546111,92.847772,0.447388,2.19948497852,0,0,-0.671082,77, 0.7, 1.3,0,0,1024,1024,1024,1024,78,-89.9,98,3.994,4.019,4.032,4.024,4.017,4.038,18.415,82.4,14,Waypoint,
38.4803534,-120.3385748,4621.7052906111,94.160108,0,1.33212602688,15100,2018-07-06 23:40:12,16,0,24.121,4621.7052906111,94.160108,0.447388,2.19948497852,0,0,-0.671082,76.9, 0.5, 1.4,0,0,1024,1024,1024,1024,78,-90,98,3.994,4.019,4.032,4.024,4.017,4.038,18.415,82.4,14,Waypoint,
38.4803533,-120.3385748,4622.6895426111,95.14436,0,1.29821854548,15200,2018-07-06 23:40:12,16,0,24.121,4622.6895426111,95.14436,0.447388,2.19948497852,0,0,-0.671082,76.9, 0.4, 1.4,0,0,1024,1024,1024,1024,78,-90,98,3.994,4.019,4.032,4.024,4.017,4.038,18.415,82.4,14,Waypoint,
38.4803533,-120.3385747,4623.6737946111,96.128612,0,1.3091699894,15300,2018-07-06 23:40:12,16,0,24.121,4623.6737946111,96.128612,0.447388,2.19948497852,0,0,-0.671082,76.9, 0.3, 1.4,0,0,1024,1024,1024,1024,78,-89.9,98,3.994,4.019,4.032,4.024,4.017,4.038,18.415,82.4,14,Waypoint,
38.4803533,-120.3385747,4624.6580466111,97.112864,0,1.3091699894,15400,2018-07-06 23:40:12,16,0,24.121,4624.6580466111,97.112864,0.447388,2.19948497852,0,0,-0.671082,76.9, 0.5, 1.5,0,0,1024,1024,1024,1024,78,-89.9,98,3.994,4.019,4.032,4.024,4.017,4.038,18.415,82.4,14,Waypoint,
38.4803533,-120.3385747,4625.6422986111,98.097116,0,1.3091699894,15500,2018-07-06 23:40:12,16,0,24.121,4625.6422986111,98.097116,0.447388,2.19948497852,0,0,-0.671082,77, 0.7, 1.6,0,0,1024,1024,1024,1024,78,-89.9,98,3.994,4.019,4.032,4.024,4.017,4.038,18.415,82.4,14,Waypoint,
38.4803533,-120.3385746,4626.6265506111,99.081368,0,1.32064636772,15600,2018-07-06 23:40:12,16,0,24.121,4626.6265506111,99.081368,0.447388,2.19948497852,0,0,-0.671082,77.1, 0.8, 1.6,0,0,1024,1024,1024,1024,78,-89.9,98,3.994,4.019,4.032,4.024,4.017,4.038,18.415,82.4,14,Waypoint,
38.4803532,-120.3385746,4627.6108026111,100.06562,0,1.28747051364,15700,2018-07-06 23:40:12,16,0,24.121,4627.6108026111,100.06562,0.447388,2.19948497852,0,0,-0.671082,77.2, 0.7, 1.4,0,0,1024,1024,1024,1024,78,-89.9,98,3.994,4.019,4.032,4.024,4.017,4.038,18.415,82.4,14,Waypoint,
38.4803531,-120.3385747,4628.5950546111,101.049872,0.223694,1.24239177204,15800,2018-07-06 23:40:13,16,0,24.121,4628.5950546111,101.049872,0.447388,2.19948497852,0,0,-0.671082,77.3, 0.7, 1,0,0,1024,1024,1024,1024,78,-89.9,98,3.994,4.019,4.032,4.024,4.017,4.038,18.415,82.4,14,Waypoint,
38.480353,-120.3385746,4629.5793066111,102.034124,0.223694,1.2216863908,15900,2018-07-06 23:40:13,16,0,24.121,4629.5793066111,102.034124,0.447388,2.19948497852,0,0,-0.671082,77.4, 0.6, 0.6,0,0,1024,1024,1024,1024,78,-89.9,98,3.994,4.019,4.032,4.024,4.017,4.038,18.415,82.4,14,Waypoint,
38.4803529,-120.3385746,4630.5635586111,103.018376,0,1.1891076496,16000,2018-07-06 23:40:13,16,0,24.121,4630.5635586111,103.018376,0.447388,2.19948497852,0,0,-0.671082,77.4, 0.6, 0.4,0,0,1024,1024,1024,1024,78,-89.9,98,3.997,4.029,4.028,4.01,4.019,4.035,18.415,84.2,14,Waypoint,
38.4803528,-120.3385746,4631.2197266111,103.674544,0,1.15676512888,16100,2018-07-06 23:40:13,16,0,24.121,4631.2197266111,103.674544,0.447388,2.19948497852,0,0,-0.671082,77.3, 0.5, 0.3,0,0,1024,1024,1024,1024,78,-89.9,98,3.997,4.029,4.028,4.01,4.019,4.035,18.415,84.2,14,Waypoint,
38.4803528,-120.3385746,4632.5320626111,104.98688,0,1.15676512888,16200,2018-07-06 23:40:13,16,0,24.121,4632.5320626111,104.98688,0.447388,2.19948497852,0,0,-0.671082,77.3, 0.5, 0.6,0,0,1024,1024,1024,1024,78,-89.9,98,3.997,4.029,4.028,4.01,4.019,4.035,18.415,84.2,14,Waypoint,
38.4803527,-120.3385746,4633.5163146111,105.971132,0,1.12467523284,16300,2018-07-06 23:40:13,16,0,24.121,4633.5163146111,105.971132,0.447388,2.19948497852,0,0,-0.671082,77.2, 0.6, 0.8,0,0,1024,1024,1024,1024,78,-89.9,98,3.997,4.029,4.028,4.01,4.019,4.035,18.415,84.2,14,Waypoint,
38.4803525,-120.3385745,4635.4848186111,107.939636,0,1.07622706856,16500,2018-07-06 23:40:13,16,0,24.121,4635.4848186111,107.939636,0.447388,2.19948497852,0,0,-0.671082,77.2, 0.7, 0.7,0,0,1024,1024,1024,1024,78,-89.9,98,3.997,4.029,4.028,4.01,4.019,4.035,18.415,84.2,14,Waypoint,
38.4803525,-120.3385745,4637.1252386111,109.580056,0,1.07622706856,16600,2018-07-06 23:40:13,16,0,24.121,4637.1252386111,109.580056,0.447388,2.19948497852,0,0,-0.671082,77.1, 0.8, 1,0,0,1024,1024,1024,1024,78,-89.9,98,3.997,4.029,4.028,4.01,4.019,4.035,18.415,84.2,14,Waypoint,
38.4803524,-120.3385744,4639.4218266111,111.876644,0,1.06136158252,16800,2018-07-06 23:40:14,16,0,24.121,4639.4218266111,111.876644,0.447388,2.19948497852,0,0,-0.671082,76.9, 1.1, 1.1,0,0,1024,1024,1024,1024,78,-89.9,98,3.997,4.029,4.028,4.01,4.019,4.035,18.415,84.2,14,Waypoint,
38.4803523,-120.3385743,4640.4060786111,112.860896,0,1.04833008604,16900,2018-07-06 23:40:14,16,0,24.121,4640.4060786111,112.860896,0.447388,2.19948497852,0,0,-0.671082,76.8, 1.1, 0.9,0,0,1024,1024,1024,1024,78,-89.9,98,3.997,4.029,4.028,4.01,4.019,4.035,18.415,84.2,14,Waypoint,
38.4803523,-120.3385743,4641.3903306111,113.845148,0,1.04833008604,17100,2018-07-06 23:40:14,16,0,24.121,4641.3903306111,113.845148,0.447388,2.19948497852,0,0,-0.671082,76.7, 1, 0.8,0,0,1024,1024,1024,1024,78,-89.9,98,3.997,4.029,4.028,4.01,4.019,4.035,18.415,84.2,14,Waypoint,
38.4803522,-120.3385743,4642.3745826111,114.8294,0,1.01936026884,17200,2018-07-06 23:40:14,16,0,24.121,4642.3745826111,114.8294,0.447388,2.19948497852,0,0,-0.671082,76.8, 0.9, 0.7,0,0,1024,1024,1024,1024,78,-89.9,98,3.997,4.029,4.028,4.01,4.019,4.035,18.415,84.2,14,Waypoint,
38.4803522,-120.3385742,4643.3588346111,115.813652,0,1.03721131928,17300,2018-07-06 23:40:14,16,0,24.121,4643.3588346111,115.813652,0.447388,2.19948497852,0,0,-0.671082,76.9, 0.9, 0.6,0,0,1024,1024,1024,1024,78,-89.9,98,3.997,4.029,4.028,4.01,4.019,4.035,18.415,84.2,14,Waypoint,
38.4803521,-120.3385742,4644.3430866111,116.797904,0,1.00923887744,17400,2018-07-06 23:40:14,16,0,24.121,4644.3430866111,116.797904,0.447388,2.19948497852,0,0,-0.671082,77, 0.9, 0.5,0,0,1024,1024,1024,1024,78,-89.9,98,3.997,4.029,4.028,4.01,4.019,4.035,18.415,84.2,14,Waypoint,
38.4803521,-120.3385742,4645.3273386111,117.782156,0,1.00923887744,17500,2018-07-06 23:40:14,16,0,24.121,4645.3273386111,117.782156,0.447388,2.19948497852,0,0,-0.671082,77.1, 1, 0.5,0,0,1024,1024,1024,1024,78,-89.9,98,3.997,4.029,4.028,4.01,4.019,4.035,18.415,84.2,14,Waypoint,
38.480352,-120.3385742,4646.3115906111,118.766408,0,0.98182745924,17600,2018-07-06 23:40:14,16,0,24.121,4646.3115906111,118.766408,0.447388,2.19948497852,0,0,-0.671082,77.2, 1, 0.5,0,0,1024,1024,1024,1024,78,-89.9,98,3.997,4.029,4.028,4.01,4.019,4.035,18.415,84.2,14,Waypoint,
38.480352,-120.3385742,4647.2958426111,119.75066,0,0.98182745924,17700,2018-07-06 23:40:14,16,0,24.121,4647.2958426111,119.75066,0.447388,2.19948497852,0,0,-0.671082,77.2, 1, 0.6,0,0,1024,1024,1024,1024,78,-89.9,98,3.997,4.029,4.028,4.01,4.019,4.035,18.415,84.2,14,Waypoint,
38.480352,-120.3385742,4648.2800946111,120.734912,0,0.98182745924,17800,2018-07-06 23:40:15,16,0,24.121,4648.2800946111,120.734912,0.447388,2.19948497852,0,0,-0.671082,77.2, 0.9, 0.9,0,0,1024,1024,1024,1024,78,-89.9,98,3.997,4.029,4.028,4.01,4.019,4.035,18.415,84.2,14,Waypoint,
38.480352,-120.3385741,4649.2643466111,121.719164,0,1.0011647302,17900,2018-07-06 23:40:15,16,0,24.121,4649.2643466111,121.719164,0.447388,2.19948497852,0,0,-0.671082,77.1, 0.8, 1,0,0,1024,1024,1024,1024,78,-89.9,98,3.997,4.029,4.028,4.01,4.019,4.035,18.415,84.2,14,Waypoint,
38.4803519,-120.3385741,4650.2485986111,122.703416,0,0.97489176348,18000,2018-07-06 23:40:15,16,0,24.091,4650.2485986111,122.703416,0.447388,2.19948497852,0,0,-0.671082,77.1, 0.8, 1,0,0,1024,1024,1024,1024,78,-89.9,97,3.988,4.021,4.027,4.003,4.018,4.037,17.592,84.2,14,Waypoint,
38.4803519,-120.3385741,4651.2328506111,123.687668,0,0.97489176348,18100,2018-07-06 23:40:15,16,0,24.091,4651.2328506111,123.687668,0.447388,2.19948497852,0,0,-0.671082,77, 0.8, 0.9,0,0,1024,1024,1024,1024,78,-89.9,97,3.988,4.021,4.027,4.003,4.018,4.037,17.592,84.2,14,Waypoint,
38.4803518,-120.3385742,4652.2171026111,124.67192,0,0.92888126332,18200,2018-07-06 23:40:15,16,0,24.091,4652.2171026111,124.67192,0.447388,2.19948497852,0,0,-0.671082,77, 0.8, 0.6,0,0,1024,1024,1024,1024,78,-89.9,97,3.988,4.021,4.027,4.003,4.018,4.037,17.592,84.2,14,Waypoint,
38.4803518,-120.3385742,4653.2013546111,125.656172,0,0.92888126332,18300,2018-07-06 23:40:15,16,0,24.091,4653.2013546111,125.656172,0.447388,2.19948497852,0,0,-0.671082,77, 0.8, 0.5,0,0,1024,1024,1024,1024,78,-89.9,97,3.988,4.021,4.027,4.003,4.018,4.037,17.592,84.2,14,Waypoint,
38.4803518,-120.3385742,4654.1856066111,126.640424,0,0.92888126332,18400,2018-07-06 23:40:15,16,0,24.091,4654.1856066111,126.640424,0.447388,2.19948497852,0,0,-0.671082,77, 0.9, 0.4,0,0,1024,1024,1024,1024,78,-89.9,97,3.988,4.021,4.027,4.003,4.018,4.037,17.592,84.2,14,Waypoint,
38.4803518,-120.3385742,4655.1698586111,127.624676,0,0.92888126332,18500,2018-07-06 23:40:15,16,0,24.091,4655.1698586111,127.624676,0.447388,2.19948497852,0,0,-0.671082,77, 0.9, 0.4,0,0,1024,1024,1024,1024,78,-89.9,97,3.988,4.021,4.027,4.003,4.018,4.037,17.592,84.2,14,Waypoint,
38.4803518,-120.3385742,4656.1541106111,128.608928,0,0.92888126332,18600,2018-07-06 23:40:15,16,0,24.091,4656.1541106111,128.608928,0.447388,2.19948497852,0,0,-0.671082,76.9, 0.9, 0.6,0,0,1024,1024,1024,1024,78,-89.9,97,3.988,4.021,4.027,4.003,4.018,4.037,17.592,84.2,14,Waypoint,
38.4803517,-120.3385742,4657.1383626111,129.59318,0,0.90345475332,18700,2018-07-06 23:40:15,16,0,24.091,4657.1383626111,129.59318,0.447388,2.19948497852,0,0,-0.671082,76.9, 0.8, 0.7,0,0,1024,1024,1024,1024,78,-89.9,97,3.988,4.021,4.027,4.003,4.018,4.037,17.592,84.2,14,Waypoint,
38.4803517,-120.3385742,4658.1226146111,130.577432,0,0.90345475332,18800,2018-07-06 23:40:16,16,0,24.091,4658.1226146111,130.577432,0.447388,2.19948497852,0,0,-0.671082,76.9, 0.8, 0.7,0,0,1024,1024,1024,1024,78,-89.9,97,3.988,4.021,4.027,4.003,4.018,4.037,17.592,84.2,14,Waypoint,
38.4803517,-120.3385742,4660.0911186111,132.545936,0,0.90345475332,18900,2018-07-06 23:40:16,16,0,24.091,4660.0911186111,132.545936,0.447388,2.19948497852,0,0,-0.671082,77.2, 0.6, 0.4,0,0,1024,1024,1024,1024,78,-89.9,97,3.988,4.021,4.027,4.003,4.018,4.037,17.592,84.2,14,Waypoint,
38.4803517,-120.3385743,4662.0596226111,134.51444,0,0.8829068524,19100,2018-07-06 23:40:16,16,0,24.091,4662.0596226111,134.51444,0.447388,2.19948497852,0,0,-0.671082,77.4, 0.5, 0.3,0,0,1024,1024,1024,1024,78,-89.9,97,3.988,4.021,4.027,4.003,4.018,4.037,17.592,84.2,14,Waypoint,
38.4803516,-120.3385743,4663.0438746111,135.498692,0,0.85766735028,19200,2018-07-06 23:40:16,17,0,24.091,4663.0438746111,135.498692,0.447388,2.19948497852,0,0,-0.671082,77.4, 0.5, 0.4,0,0,1024,1024,1024,1024,78,-89.9,97,3.988,4.021,4.027,4.003,4.018,4.037,17.592,84.2,14,Waypoint,
38.4803516,-120.3385743,4664.6842946111,137.139112,0,0.85766735028,19400,2018-07-06 23:40:16,16,0,24.091,4664.6842946111,137.139112,0.447388,2.19948497852,0,0,-0.671082,77.3, 0.5, 0.5,0,0,1024,1024,1024,1024,78,-89.9,97,3.988,4.021,4.027,4.003,4.018,4.037,17.592,84.2,14,Waypoint,
38.4803516,-120.3385744,4665.6685466111,138.123364,0,0.83696853072,19600,2018-07-06 23:40:16,16,0,24.091,4665.6685466111,138.123364,0.447388,2.19948497852,0,0,-0.671082,77.2, 0.5, 0.7,0,0,1024,1024,1024,1024,78,-89.9,97,3.988,4.021,4.027,4.003,4.018,4.037,17.592,84.2,14,Waypoint,
38.4803517,-120.3385744,4666.6527986111,139.107616,0,0.8628117074,19700,2018-07-06 23:40:16,17,0,24.091,4666.6527986111,139.107616,0.447388,2.19948497852,0,0,-0.671082,77, 0.7, 0.9,0,0,1024,1024,1024,1024,78,-89.9,97,3.988,4.021,4.027,4.003,4.018,4.037,17.592,84.2,14,Waypoint,
38.4803517,-120.3385744,4667.9651346111,140.419952,0,0.8628117074,19800,2018-07-06 23:40:17,17,0,24.091,4667.9651346111,140.419952,0.447388,2.19948497852,0,0,-0.671082,76.9, 0.7, 0.8,0,0,1024,1024,1024,1024,78,-89.9,97,3.988,4.021,4.027,4.003,4.018,4.037,17.592,84.2,14,Waypoint,
38.4803517,-120.3385744,4668.9493866111,141.404204,0,0.8628117074,19900,2018-07-06 23:40:17,17,0,24.091,4668.9493866111,141.404204,0.447388,2.19948497852,0,0,-0.671082,76.9, 0.9, 0.6,0,0,1024,1024,1024,1024,78,-89.9,97,3.988,4.021,4.027,4.003,4.018,4.037,17.592,84.2,14,Waypoint,
38.4803517,-120.3385744,4670.9178906111,143.372708,0,0.8628117074,20100,2018-07-06 23:40:17,17,0,24.091,4670.9178906111,143.372708,0.447388,2.19948497852,0,0,-0.671082,76.9, 1, 0.7,0,0,1024,1024,1024,1024,78,-89.9,97,3.988,4.021,4.027,4.003,4.018,4.037,17.592,84.2,14,Waypoint,
38.4803517,-120.3385744,4671.9021426111,144.35696,0,0.8628117074,20200,2018-07-06 23:40:17,17,0,24.091,4671.9021426111,144.35696,0.447388,2.19948497852,0,0,-0.671082,76.9, 0.8, 0.9,0,0,1024,1024,1024,1024,78,-89.9,97,3.988,4.021,4.027,4.003,4.018,4.037,17.592,84.2,14,Waypoint,
38.4803517,-120.3385744,4672.8863946111,145.341212,0,0.8628117074,20300,2018-07-06 23:40:17,17,0,24.091,4672.8863946111,145.341212,0.447388,2.19948497852,0,0,-0.671082,76.9, 0.6, 1.2,0,0,1024,1024,1024,1024,78,-89.9,97,3.988,4.021,4.027,4.003,4.018,4.037,17.592,84.2,14,Waypoint,
38.4803517,-120.3385745,4673.8706466111,146.325464,0,0.8432086884,20400,2018-07-06 23:40:17,17,0,24.091,4673.8706466111,146.325464,0.447388,2.19948497852,0,0,-0.671082,77, 0.5, 1.3,0,0,1024,1024,1024,1024,78,-90,97,3.988,4.021,4.027,4.003,4.018,4.037,17.592,84.2,14,Waypoint,
38.4803518,-120.3385745,4674.8548986111,147.309716,0,0.87039700948,20500,2018-07-06 23:40:17,17,0,24.091,4674.8548986111,147.309716,0.447388,2.19948497852,0,0,-0.671082,77.1, 0.4, 1.1,0,0,1024,1024,1024,1024,78,-89.9,97,3.988,4.021,4.027,4.003,4.018,4.037,17.592,84.2,14,Waypoint,
38.4803518,-120.3385745,4675.8391506111,148.293968,0,0.87039700948,20600,2018-07-06 23:40:17,17,0,24.091,4675.8391506111,148.293968,0.447388,2.19948497852,0,0,-0.671082,77.2, 0.5, 0.9,0,0,1024,1024,1024,1024,78,-89.9,97,3.988,4.021,4.027,4.003,4.018,4.037,17.592,84.2,14,Waypoint,
38.4803518,-120.3385745,4676.8234026111,149.27822,0,0.87039700948,20700,2018-07-06 23:40:17,17,0,24.091,4676.8234026111,149.27822,0.447388,2.19948497852,0,0,-0.671082,77.4, 0.6, 0.8,0,0,1024,1024,1024,1024,78,-89.9,97,3.988,4.021,4.027,4.003,4.018,4.037,17.592,84.2,14,Waypoint,
38.4803518,-120.3385745,4678.7919066111,151.246724,0,0.87039700948,20900,2018-07-06 23:40:18,17,0,24.091,4678.7919066111,151.246724,0.447388,2.19948497852,0,0,-0.671082,77.4, 0.8, 0.7,0,0,1024,1024,1024,1024,78,-89.9,97,3.988,4.021,4.027,4.003,4.018,4.037,17.592,84.2,14,Waypoint,
38.4803518,-120.3385745,4679.7761586111,152.230976,0,0.87039700948,21000,2018-07-06 23:40:18,17,0,24.043,4679.7761586111,152.230976,0.447388,2.19948497852,0,0,-0.671082,77.3, 0.9, 0.7,0,0,1024,1024,1024,1024,78,-89.9,97,3.979,4.008,4.015,3.998,4.005,4.029,18.162,84.2,14,Waypoint,
38.4803518,-120.3385746,4681.7446626111,154.19948,0,0.85192588028,21100,2018-07-06 23:40:18,17,0,24.043,4681.7446626111,154.19948,0.447388,2.19948497852,0,0,-0.671082,77.1, 0.6, 0.7,0,0,1024,1024,1024,1024,78,-89.9,97,3.979,4.008,4.015,3.998,4.005,4.029,18.162,84.2,14,Waypoint,
38.4803518,-120.3385746,4682.7289146111,155.183732,0,0.85192588028,21310,2018-07-06 23:40:18,17,0,24.043,4682.7289146111,155.183732,0.447388,2.19948497852,0,0,-0.671082,77, 0.5, 0.6,0,0,1024,1024,1024,1024,78,-90,97,3.979,4.008,4.015,3.998,4.005,4.029,18.162,84.2,14,Waypoint,
38.4803518,-120.3385746,4682.7289146111,155.183732,0,0.85192588028,21400,2018-07-06 23:40:18,17,0,24.043,4682.7289146111,155.183732,0.447388,2.19948497852,0,0,-0.671082,77, 0.5, 0.6,0,0,1024,1024,1024,1024,78,-90,97,3.979,4.008,4.015,3.998,4.005,4.029,18.162,84.2,14,Waypoint,
38.4803518,-120.3385747,4685.3535866111,157.808404,0,0.8340223364,21500,2018-07-06 23:40:18,17,0,24.043,4685.3535866111,157.808404,0.447388,2.19948497852,0,0,-0.671082,76.9, 0.4, 0.6,0,0,1024,1024,1024,1024,78,-89.9,97,3.979,4.008,4.015,3.998,4.005,4.029,18.162,84.2,14,Waypoint,
38.4803518,-120.3385747,4686.6659226111,159.12074,0,0.8340223364,21700,2018-07-06 23:40:18,17,0,24.043,4686.6659226111,159.12074,0.447388,2.19948497852,0,0,-0.671082,76.9, 0.4, 0.7,0,0,1024,1024,1024,1024,78,-89.9,97,3.979,4.008,4.015,3.998,4.005,4.029,18.162,84.2,14,Waypoint,
38.4803518,-120.3385748,4687.6501746111,160.104992,0,0.81672574792,21800,2018-07-06 23:40:19,17,0,24.043,4687.6501746111,160.104992,0.447388,2.19948497852,0,0,-0.671082,77, 0.4, 0.7,0,0,1024,1024,1024,1024,78,-89.9,97,3.979,4.008,4.015,3.998,4.005,4.029,18.162,84.2,14,Waypoint,
38.4803518,-120.3385748,4688.6344266111,161.089244,0,0.81672574792,21900,2018-07-06 23:40:19,17,0,24.043,4688.6344266111,161.089244,0.447388,2.19948497852,0,0,-0.671082,77, 0.4, 0.7,0,0,1024,1024,1024,1024,78,-89.9,97,3.979,4.008,4.015,3.998,4.005,4.029,18.162,84.2,14,Waypoint,
38.4803518,-120.3385748,4689.6186786111,162.073496,0,0.81672574792,22000,2018-07-06 23:40:19,17,0,24.021,4689.6186786111,162.073496,0.447388,2.19948497852,0,0,-0.671082,77.1, 0.6, 0.4,0,0,1024,1024,1024,1024,78,-89.9,97,3.981,4.016,4.01,4,4.006,4.025,18.036,84.2,14,Waypoint,
38.4803518,-120.3385748,4690.2748466111,162.729664,0,0.81672574792,22100,2018-07-06 23:40:19,17,0,24.021,4690.2748466111,162.729664,0.447388,2.19948497852,0,0,-0.671082,77.1, 0.6, 0.3,0,0,1024,1024,1024,1024,78,-89.9,97,3.981,4.016,4.01,4,4.006,4.025,18.036,84.2,14,Waypoint,
38.4803518,-120.3385748,4691.2590986111,163.713916,0,0.81672574792,22200,2018-07-06 23:40:19,17,0,24.021,4691.2590986111,163.713916,0.447388,2.19948497852,0,0,-0.671082,77, 0.6, 0.5,0,0,1024,1024,1024,1024,78,-89.9,97,3.981,4.016,4.01,4,4.006,4.025,18.036,84.2,14,Waypoint,
38.4803519,-120.3385749,4692.2433506111,164.698168,0,0.83028545964,22300,2018-07-06 23:40:19,17,0,24.021,4692.2433506111,164.698168,0.447388,2.19948497852,0,0,-0.671082,77, 0.5, 0.8,0,0,1024,1024,1024,1024,78,-89.9,97,3.981,4.016,4.01,4,4.006,4.025,18.036,84.2,14,Waypoint,
38.4803519,-120.3385749,4693.2276026111,165.68242,0,0.83028545964,22400,2018-07-06 23:40:19,17,0,24.021,4693.2276026111,165.68242,0.447388,2.19948497852,0,0,-0.671082,76.9, 0.3, 1.2,0,0,1024,1024,1024,1024,78,-90,97,3.981,4.016,4.01,4,4.006,4.025,18.036,84.2,14,Waypoint,
38.4803519,-120.3385749,4694.2118546111,166.666672,0,0.83028545964,22500,2018-07-06 23:40:19,17,0,24.021,4694.2118546111,166.666672,0.447388,2.19948497852,0,0,-0.671082,76.9, 0.2, 1.6,0,0,1024,1024,1024,1024,78,-90,97,3.981,4.016,4.01,4,4.006,4.025,18.036,84.2,14,Waypoint,
38.4803519,-120.338575,4695.1961066111,167.650924,0,0.81491472424,22600,2018-07-06 23:40:19,17,0,24.021,4695.1961066111,167.650924,0.447388,2.19948497852,0,0,-0.671082,76.9, 0.2, 1.7,0,0,1024,1024,1024,1024,78,-89.9,97,3.981,4.016,4.01,4,4.006,4.025,18.036,84.2,14,Waypoint,
38.4803519,-120.3385749,4697.1646106111,169.619428,0,0.83028545964,22800,2018-07-06 23:40:20,17,0,24.021,4697.1646106111,169.619428,0.447388,2.19948497852,0,0,-0.671082,76.9, 0.5, 1.2,0,0,1024,1024,1024,1024,78,-89.9,97,3.981,4.016,4.01,4,4.006,4.025,18.036,84.2,14,Waypoint,
38.4803519,-120.3385749,4698.1488626111,170.60368,0,0.83028545964,22900,2018-07-06 23:40:20,17,0,24.021,4698.1488626111,170.60368,0.447388,2.19948497852,0,0,-0.671082,77, 0.6, 0.7,0,0,1024,1024,1024,1024,78,-89.9,97,3.981,4.016,4.01,4,4.006,4.025,18.036,84.2,14,Waypoint,
38.4803519,-120.3385749,4699.1331146111,171.587932,0,0.83028545964,23000,2018-07-06 23:40:20,17,0,24.05,4699.1331146111,171.587932,0.447388,2.19948497852,0,0,-0.671082,77.1, 0.8, 0.5,0,0,1024,1024,1024,1024,78,-89.9,97,3.988,4.015,4.007,3.996,4,4.028,17.911,84.2,14,Waypoint,
38.4803519,-120.3385748,4700.1173666111,172.572184,0,0.8463418906,23100,2018-07-06 23:40:20,17,0,24.05,4700.1173666111,172.572184,0.447388,2.19948497852,0,0,-0.671082,77.1, 0.9, 0.5,0,0,1024,1024,1024,1024,78,-89.9,97,3.988,4.015,4.007,3.996,4,4.028,17.911,84.2,14,Waypoint,
38.4803519,-120.3385748,4701.1016186111,173.556436,0,0.8463418906,23200,2018-07-06 23:40:20,17,0,24.05,4701.1016186111,173.556436,0.447388,2.19948497852,0,0,-0.671082,77.1, 0.8, 0.7,0,0,1024,1024,1024,1024,78,-89.9,97,3.988,4.015,4.007,3.996,4,4.028,17.911,84.2,14,Waypoint,
38.4803519,-120.3385748,4702.7420386111,175.196856,0,0.8463418906,23400,2018-07-06 23:40:20,17,0,24.05,4702.7420386111,175.196856,0.447388,2.19948497852,0,0,-0.671082,77.1, 0.7, 0.6,0,0,1024,1024,1024,1024,78,-89.9,97,3.988,4.015,4.007,3.996,4,4.028,17.911,84.2,14,Waypoint,
38.4803519,-120.3385747,4703.7262906111,176.181108,0,0.86304464704,23510,2018-07-06 23:40:20,17,0,24.05,4703.7262906111,176.181108,0.447388,2.19948497852,0,0,-0.671082,77.2, 0.8, 0.6,0,0,1024,1024,1024,1024,78,-89.9,97,3.988,4.015,4.007,3.996,4,4.028,17.911,84.2,14,Waypoint,
38.4803519,-120.3385747,4706.0228786111,178.477696,0,0.86304464704,23600,2018-07-06 23:40:20,17,0,24.05,4706.0228786111,178.477696,0.447388,2.19948497852,0,0,-0.671082,77.3, 0.9, 0.5,0,0,1024,1024,1024,1024,78,-89.9,97,3.988,4.015,4.007,3.996,4,4.028,17.911,84.2,14,Waypoint,
38.4803519,-120.3385746,4707.9913826111,180.4462,0,0.88035763972,23900,2018-07-06 23:40:21,17,0,24.05,4707.9913826111,180.4462,0.447388,2.19948497852,0,0,-0.671082,77.4, 1, 0.9,0,0,1024,1024,1024,1024,78,-89.9,97,3.988,4.015,4.007,3.996,4,4.028,17.911,84.2,14,Waypoint,
38.4803519,-120.3385746,4708.9756346111,181.430452,0,0.88035763972,24000,2018-07-06 23:40:21,17,0,23.958,4708.9756346111,181.430452,0.447388,2.19948497852,0,0,-0.671082,77.5, 1.1, 1,0,0,1024,1024,1024,1024,78,-89.9,97,3.972,4,3.991,3.976,3.983,4.008,18.432,84.2,14,Waypoint,
38.4803519,-120.3385745,4709.9598866111,182.414704,0,0.8982447794,24100,2018-07-06 23:40:21,17,0,23.958,4709.9598866111,182.414704,0.447388,2.19948497852,0,0,-0.671082,77.5, 1.3, 1.1,0,0,1024,1024,1024,1024,78,-89.9,97,3.972,4,3.991,3.976,3.983,4.008,18.432,84.2,14,Waypoint,
38.4803519,-120.3385745,4710.9441386111,183.398956,0,0.8982447794,24200,2018-07-06 23:40:21,17,0,23.958,4710.9441386111,183.398956,0.447388,2.19948497852,0,0,-0.671082,77.5, 1.5, 1.1,0,0,1024,1024,1024,1024,78,-89.9,97,3.972,4,3.991,3.976,3.983,4.008,18.432,84.2,14,Waypoint,
38.4803519,-120.3385744,4712.9126426111,185.36746,0,0.91667325768,24400,2018-07-06 23:40:21,17,0,23.958,4712.9126426111,185.36746,0.447388,2.19948497852,0,0,-0.671082,77.5, 1.5, 0.7,0,0,1024,1024,1024,1024,78,-89.9,97,3.972,4,3.991,3.976,3.983,4.008,18.432,84.2,14,Waypoint,
38.4803519,-120.3385744,4713.8968946111,186.351712,0,0.91667325768,24500,2018-07-06 23:40:21,17,0,23.958,4713.8968946111,186.351712,0.447388,2.19948497852,0,0,-0.671082,77.4, 1.4, 0.8,0,0,1024,1024,1024,1024,78,-89.9,97,3.972,4,3.991,3.976,3.983,4.008,18.432,84.2,14,Waypoint,
38.4803519,-120.3385744,4714.8811466111,187.335964,0,0.91667325768,24600,2018-07-06 23:40:21,17,0,23.958,4714.8811466111,187.335964,0.447388,2.19948497852,0,0,-0.671082,77.2, 1.5, 0.9,0,0,1024,1024,1024,1024,78,-89.9,97,3.972,4,3.991,3.976,3.983,4.008,18.432,84.2,14,Waypoint,
38.4803519,-120.3385743,4716.1934826111,188.6483,0,0.93561026616,24700,2018-07-06 23:40:21,17,0,23.958,4716.1934826111,188.6483,0.447388,2.19948497852,0,0,-0.671082,77.1, 1.6, 1,0,0,1024,1024,1024,1024,78,-89.9,97,3.972,4,3.991,3.976,3.983,4.008,18.432,84.2,14,Waypoint,
38.4803519,-120.3385743,4717.1777346111,189.632552,0,0.93561026616,24800,2018-07-06 23:40:22,17,0,23.958,4717.1777346111,189.632552,0.447388,2.19948497852,0,0,-0.671082,77, 1.5, 1.2,0,0,1024,1024,1024,1024,78,-89.9,97,3.972,4,3.991,3.976,3.983,4.008,18.432,84.2,14,Waypoint,
38.4803519,-120.3385743,4718.1619866111,190.616804,0,0.93561026616,24900,2018-07-06 23:40:22,17,0,23.958,4718.1619866111,190.616804,0.447388,2.19948497852,0,0,-0.671082,76.9, 1.4, 1.2,0,0,1024,1024,1024,1024,78,-89.9,97,3.972,4,3.991,3.976,3.983,4.008,18.432,84.2,14,Waypoint,
38.4803519,-120.3385743,4719.1462386111,191.601056,0,0.93561026616,25000,2018-07-06 23:40:22,17,0,23.981,4719.1462386111,191.601056,0.447388,2.19948497852,0,0,-0.671082,76.9, 1.4, 1.2,0,0,1024,1024,1024,1024,78,-89.9,97,3.977,3.998,4.002,3.985,3.994,4.012,18.365,84.2,14,Waypoint,
38.4803519,-120.3385743,4720.1304906111,192.585308,0,0.93561026616,25100,2018-07-06 23:40:22,17,0,23.981,4720.1304906111,192.585308,0.447388,2.19948497852,0,0,-0.671082,76.9, 1.4, 1,0,0,1024,1024,1024,1024,78,-89.9,97,3.977,3.998,4.002,3.985,3.994,4.012,18.365,84.2,14,Waypoint,
38.4803518,-120.3385743,4722.0989946111,194.553812,0,0.9089075094,25200,2018-07-06 23:40:22,17,0,23.981,4722.0989946111,194.553812,0.447388,2.19948497852,0,0,-0.671082,77, 1.4, 0.8,0,0,1024,1024,1024,1024,78,-89.9,97,3.977,3.998,4.002,3.985,3.994,4.012,18.365,84.2,14,Waypoint,
38.4803518,-120.3385744,4723.7394146111,196.194232,0,0.8894029156,25400,2018-07-06 23:40:22,17,0,23.981,4723.7394146111,196.194232,0.447388,2.19948497852,0,0,-0.671082,77.2, 1.4, 0.9,0,0,1024,1024,1024,1024,78,-89.9,97,3.977,3.998,4.002,3.985,3.994,4.012,18.365,84.2,14,Waypoint,
38.4803518,-120.3385744,4724.7236666111,197.178484,0,0.8894029156,25600,2018-07-06 23:40:22,17,0,23.981,4724.7236666111,197.178484,0.447388,2.19948497852,0,0,-0.671082,77.2, 1.2, 1.1,0,0,1024,1024,1024,1024,78,-89.9,97,3.977,3.998,4.002,3.985,3.994,4.012,18.365,84.2,14,Waypoint,
38.4803518,-120.3385745,4727.0202546111,199.475072,0,0.87039700948,25700,2018-07-06 23:40:23,17,0,23.981,4727.0202546111,199.475072,0.447388,2.19948497852,0,0,-0.671082,77, 0.9, 1,0,0,1024,1024,1024,1024,78,-89.9,97,3.977,3.998,4.002,3.985,3.994,4.012,18.365,84.2,14,Waypoint,
38.4803518,-120.3385745,4727.0202546111,199.475072,0,0.87039700948,25800,2018-07-06 23:40:23,17,0,23.981,4727.0202546111,199.475072,0.447388,2.19948497852,0,0,-0.671082,77, 0.9, 1,0,0,1024,1024,1024,1024,78,-89.9,97,3.977,3.998,4.002,3.985,3.994,4.012,18.365,84.2,14,Waypoint,
38.4803518,-120.3385745,4728.0045066111,200.459324,0,0.87039700948,25900,2018-07-06 23:40:23,17,0,23.981,4728.0045066111,200.459324,0.447388,2.19948497852,0,0,-0.671082,77, 0.9, 1,0,0,1024,1024,1024,1024,78,-90,97,3.977,3.998,4.002,3.985,3.994,4.012,18.365,84.2,14,Waypoint,
38.4803518,-120.3385746,4728.9887586111,201.443576,0,0.85192588028,26000,2018-07-06 23:40:23,17,0,24.007,4728.9887586111,201.443576,0.447388,2.19948497852,0,0,-0.671082,76.9, 0.8, 1.1,0,0,1024,1024,1024,1024,78,-90,97,3.977,3.998,4.002,3.985,3.994,4.012,17.622,84.2,14,Waypoint,
38.4803518,-120.3385746,4729.9730106111,202.427828,0,0.85192588028,26100,2018-07-06 23:40:23,17,0,24.007,4729.9730106111,202.427828,0.447388,2.19948497852,0,0,-0.671082,76.9, 1, 1.2,0,0,1024,1024,1024,1024,78,-89.9,97,3.977,3.998,4.002,3.985,3.994,4.012,17.622,84.2,14,Waypoint,
38.4803518,-120.3385746,4730.9572626111,203.41208,0,0.85192588028,26200,2018-07-06 23:40:23,17,0,24.007,4730.9572626111,203.41208,0.447388,2.19948497852,0,0,-0.671082,77, 1.1, 1.2,0,0,1024,1024,1024,1024,78,-89.9,97,3.977,3.998,4.002,3.985,3.994,4.012,17.622,84.2,14,Waypoint,
38.4803518,-120.3385747,4731.9415146111,204.396332,0,0.8340223364,26300,2018-07-06 23:40:23,17,0,24.007,4731.9415146111,204.396332,0.447388,2.19948497852,0,0,-0.671082,77, 1.1, 1.2,0,0,1024,1024,1024,1024,78,-89.9,97,3.977,3.998,4.002,3.985,3.994,4.012,17.622,84.2,14,Waypoint,
38.4803518,-120.3385747,4732.9257666111,205.380584,0,0.8340223364,26400,2018-07-06 23:40:23,17,0,24.007,4732.9257666111,205.380584,0.447388,2.19948497852,0,0,-0.671082,77, 1.1, 1.1,0,0,1024,1024,1024,1024,78,-89.9,97,3.977,3.998,4.002,3.985,3.994,4.012,17.622,84.2,14,Waypoint,
38.4803518,-120.3385748,4733.9100186111,206.364836,0,0.81672574792,26500,2018-07-06 23:40:23,17,0,24.007,4733.9100186111,206.364836,0.447388,2.19948497852,0,0,-0.671082,77, 1, 0.8,0,0,1024,1024,1024,1024,78,-89.9,97,3.977,3.998,4.002,3.985,3.994,4.012,17.622,84.2,14,Waypoint,
38.4803518,-120.3385748,4734.8942706111,207.349088,0,0.81672574792,26600,2018-07-06 23:40:23,17,0,24.007,4734.8942706111,207.349088,0.447388,2.19948497852,0,0,-0.671082,77, 0.8, 0.8,0,0,1024,1024,1024,1024,78,-89.9,97,3.977,3.998,4.002,3.985,3.994,4.012,17.622,84.2,14,Waypoint,
38.4803518,-120.3385748,4735.8785226111,208.33334,0,0.81672574792,26700,2018-07-06 23:40:23,17,0,24.007,4735.8785226111,208.33334,0.447388,2.19948497852,0,0,-0.671082,77, 0.7, 1,0,0,1024,1024,1024,1024,78,-90,97,3.977,3.998,4.002,3.985,3.994,4.012,17.622,84.2,14,Waypoint,
