latitude,longitude,altitude(feet),ascent(feet),speed(mph),distance(feet),time(millisecond),datetime(utc),satellites,gpslevel,voltage(v),max_altitude(feet),max_ascent(feet),max_speed(mph),max_distance(feet), xSpeed(mph), ySpeed(mph), zSpeed(mph), compass_heading(degrees), pitch(degrees), roll(degrees),isPhoto,isVideo,rc_elevator,rc_aileron,rc_throttle,rc_rudder,gimbal_heading(degrees),gimbal_pitch(degrees),battery_percent,voltageCell1,voltageCell2,voltageCell3,voltageCell4,voltageCell5,voltageCell6,current(A),battery_temperature(f),flycStateRaw,flycState,message
38.480343,-120.3385622,4525.9820578892,0,0,0,3040,2018-07-06 23:21:22,9,0,25.75,4525.9820578892,0,0,0,0,0,0,74.6, 0.3, -0.8,1,0,1024,1024,1024,1024,74.8,-89.9,98,4.294,4.284,4.302,4.283,4.284,4.269,2.883,82.4,11,AutoTakeoff,DJI_0373.jpg Starting Mission from Lat/Long: 38.48034/-120.33856 Camera: Zenmuse X3 - Overlap: 90/90 - Active Connection: No
38.480343,-120.3385623,4525.9820578892,0,0.223694,0.028561188578,3100,2018-07-06 23:21:22,9,0,25.75,4525.9820578892,0,0.223694,0.028561188578,0,0,0,74.7, 0.1, -0.6,0,0,1024,1024,1024,1024,74.8,-89.9,98,4.294,4.284,4.302,4.283,4.284,4.269,2.883,82.4,11,AutoTakeoff,
38.4803432,-120.3385623,4525.9820578892,0,0.223694,0.078360238728,3200,2018-07-06 23:21:22,9,0,25.75,4525.9820578892,0,0.223694,0.078360238728,0,0,0,74.7, 0, -0.3,0,0,1024,1024,1024,1024,74.8,-89.9,98,4.294,4.284,4.302,4.283,4.284,4.269,2.883,82.4,11,AutoTakeoff,
38.4803437,-120.3385621,4525.9820578892,0,0.223694,0.25698655678,3400,2018-07-06 23:21:22,9,0,25.75,4525.9820578892,0,0.223694,0.25698655678,0,0,0,74.3, 0.5, 1.2,0,0,1024,1024,1024,1024,74.8,-89.9,98,4.294,4.284,4.302,4.283,4.284,4.269,2.883,82.4,11,AutoTakeoff,
38.4803442,-120.3385619,4526.3101418892,0.328084,0.447388,0.44612534236,3700,2018-07-06 23:21:23,8,0,25.75,4526.3101418892,0.328084,0.447388,0.44612534236,0,0,0,74.2, 1, 2,0,0,1024,1024,1024,1024,74.8,-89.9,98,4.294,4.284,4.302,4.283,4.284,4.269,2.883,82.4,11,AutoTakeoff,
38.4803445,-120.3385619,4526.3101418892,0.328084,0.223694,0.55394030644,3800,2018-07-06 23:21:23,7,0,25.75,4526.3101418892,0.328084,0.447388,0.55394030644,0,0,0,74.4, 1, 2,0,0,1024,1024,1024,1024,74.8,-89.9,98,4.294,4.284,4.302,4.283,4.284,4.269,2.883,82.4,11,AutoTakeoff,
38.4803446,-120.3385619,4526.6382258892,0.656168,0.223694,0.59001314224,3900,2018-07-06 23:21:23,7,0,25.75,4526.6382258892,0.656168,0.447388,0.59001314224,0,0,-0.223694,74.6, 1, 1.9,0,0,1024,1024,1024,1024,74.8,-89.9,98,4.294,4.284,4.302,4.283,4.284,4.269,2.883,82.4,11,AutoTakeoff,
38.4803449,-120.3385619,4526.9663098892,0.984252,0.223694,0.698490836,4000,2018-07-06 23:21:23,8,0,24.847,4526.9663098892,0.984252,0.447388,0.698490836,0,0,-0.223694,74.7, 1, 1.9,0,0,1024,1024,1024,1024,74.8,-89.9,98,4.294,4.284,4.302,4.283,4.284,4.269,10.867,82.4,11,AutoTakeoff,
38.4803452,-120.3385618,4526.9663098892,0.984252,0.223694,0.81075789996,4100,2018-07-06 23:21:23,8,0,24.847,4526.9663098892,0.984252,0.447388,0.81075789996,0,0,-0.223694,74.7, 0.9, 1.9,0,0,1024,1024,1024,1024,74.8,-89.9,98,4.294,4.284,4.302,4.283,4.284,4.269,10.867,82.4,11,AutoTakeoff,
38.4803453,-120.3385618,4527.2943938892,1.312336,0.223694,0.84689635256,4200,2018-07-06 23:21:23,9,0,24.847,4527.2943938892,1.312336,0.447388,0.84689635256,0,0,-0.223694,74.7, 1, 1.9,0,0,1024,1024,1024,1024,74.8,-89.9,98,4.294,4.284,4.302,4.283,4.284,4.269,10.867,82.4,11,AutoTakeoff,
38.4803454,-120.3385618,4527.6224778892,1.64042,0.223694,0.88306105188,4300,2018-07-06 23:21:23,9,0,24.847,4527.6224778892,1.64042,0.447388,0.88306105188,0,0,-0.223694,74.6, 1.1, 2.1,0,0,1024,1024,1024,1024,74.8,-89.9,98,4.294,4.284,4.302,4.283,4.284,4.269,10.867,82.4,11,AutoTakeoff,
38.4803456,-120.3385617,4527.6224778892,1.64042,0.223694,0.95929793096,4400,2018-07-06 23:21:23,9,0,24.847,4527.6224778892,1.64042,0.447388,0.95929793096,0,0,-0.223694,74.5, 1.1, 2,0,0,1024,1024,1024,1024,74.8,-89.9,98,4.294,4.284,4.302,4.283,4.284,4.269,10.867,82.4,11,AutoTakeoff,
38.4803458,-120.3385616,4527.9505618892,1.968504,0.223694,1.03585305152,4500,2018-07-06 23:21:24,9,0,24.847,4527.9505618892,1.968504,0.447388,1.03585305152,0,0,-0.223694,74.5, 1.2, 1.9,0,0,1024,1024,1024,1024,74.8,-89.9,98,4.294,4.284,4.302,4.283,4.284,4.269,10.867,82.4,11,AutoTakeoff,
38.4803461,-120.3385616,4528.2786458892,2.296588,0.223694,1.14394032532,4600,2018-07-06 23:21:24,10,0,24.847,4528.2786458892,2.296588,0.447388,1.14394032532,0,0,-0.223694,74.6, 1.2, 2.3,0,0,1024,1024,1024,1024,74.8,-89.9,98,4.294,4.284,4.302,4.283,4.284,4.269,10.867,82.4,11,AutoTakeoff,
38.4803463,-120.3385616,4528.6067298892,2.624672,0.223694,1.21613849036,4700,2018-07-06 23:21:24,10,0,24.847,4528.6067298892,2.624672,0.447388,1.21613849036,0,0,-0.223694,74.8, 1.1, 2.6,0,0,1024,1024,1024,1024,74.8,-89.9,98,4.294,4.284,4.302,4.283,4.284,4.269,10.867,82.4,11,AutoTakeoff,
38.4803465,-120.3385616,4528.6067298892,2.624672,0.223694,1.2884186764,4800,2018-07-06 23:21:24,11,0,24.847,4528.6067298892,2.624672,0.447388,1.2884186764,0,0,-0.223694,74.9, 1, 2.8,0,0,1024,1024,1024,1024,74.8,-89.9,98,4.294,4.284,4.302,4.283,4.284,4.269,10.867,82.4,11,AutoTakeoff,
38.4803467,-120.3385615,4528.9348138892,2.952756,0.223694,1.36466867884,4900,2018-07-06 23:21:24,11,0,24.847,4528.9348138892,2.952756,0.447388,1.36466867884,0,0,-0.223694,75, 1.1, 2.7,0,0,1024,1024,1024,1024,74.8,-89.9,98,4.294,4.284,4.302,4.283,4.284,4.269,10.867,82.4,14,Waypoint,
38.4803469,-120.3385615,4529.2628978892,3.28084,0.223694,1.43688980976,5000,2018-07-06 23:21:24,9,0,24.847,4529.2628978892,3.28084,0.447388,1.43688980976,0,0,0,75.1, 1.4, 2.7,0,0,1024,1024,1024,1024,74.8,-89.9,98,4.143,4.117,4.136,4.155,4.12,4.121,10.867,82.4,14,Waypoint,
38.4803471,-120.3385615,4529.2628978892,3.28084,0.223694,1.50918311916,5100,2018-07-06 23:21:24,9,0,24.847,4529.2628978892,3.28084,0.447388,1.50918311916,0,0,0,75.3, 1.8, 3.2,0,0,1024,1024,1024,1024,74.8,-89.9,98,4.143,4.117,4.136,4.155,4.12,4.121,10.867,82.4,14,Waypoint,
38.4803472,-120.3385616,4529.5909818892,3.608924,0.223694,1.54191934068,5200,2018-07-06 23:21:24,10,0,24.847,4529.5909818892,3.608924,0.447388,1.54191934068,0,0,0,75.4, 1.8, 3.3,0,0,1024,1024,1024,1024,74.8,-89.9,98,4.143,4.117,4.136,4.155,4.12,4.121,10.867,82.4,14,Waypoint,
38.4803473,-120.3385616,4529.5909818892,3.608924,0.223694,1.5781824652,5300,2018-07-06 23:21:24,10,0,24.847,4529.5909818892,3.608924,0.447388,1.5781824652,0,0,0,75.4, 1.2, 3,0,0,1024,1024,1024,1024,74.8,-89.9,98,4.143,4.117,4.136,4.155,4.12,4.121,10.867,82.4,14,Waypoint,
38.4803474,-120.3385617,4529.9190658892,3.937008,0.223694,1.61167656076,5400,2018-07-06 23:21:24,10,0,24.847,4529.9190658892,3.937008,0.447388,1.61167656076,0,0,0,75.5, 0.8, 2.7,0,0,1024,1024,1024,1024,74.8,-89.9,98,4.143,4.117,4.136,4.155,4.12,4.121,10.867,82.4,14,Waypoint,
38.4803474,-120.3385618,4530.2471498892,4.265092,0,1.60939637696,5500,2018-07-06 23:21:25,10,0,24.847,4530.2471498892,4.265092,0.447388,1.61167656076,0,0,-0.223694,75.7, 0.6, 2.8,0,0,1024,1024,1024,1024,74.8,-89.9,98,4.143,4.117,4.136,4.155,4.12,4.121,10.867,82.4,14,Waypoint,
38.4803475,-120.3385617,4530.5752338892,4.593176,0,1.64802170628,5600,2018-07-06 23:21:25,10,0,24.847,4530.5752338892,4.593176,0.447388,1.64802170628,0,0,-0.223694,75.9, 0.7, 2.9,0,0,1024,1024,1024,1024,74.8,-89.9,98,4.143,4.117,4.136,4.155,4.12,4.121,10.867,82.4,14,Waypoint,
38.4803475,-120.3385617,4530.9033178892,4.92126,0,1.64802170628,5700,2018-07-06 23:21:25,10,0,24.847,4530.9033178892,4.92126,0.447388,1.64802170628,0,0,-0.223694,76.1, 0.4, 2.5,0,0,1024,1024,1024,1024,74.8,-90,98,4.143,4.117,4.136,4.155,4.12,4.121,10.867,82.4,14,Waypoint,
38.4803476,-120.3385616,4531.2314018892,5.249344,0,1.68703417472,5800,2018-07-06 23:21:25,11,0,24.847,4531.2314018892,5.249344,0.447388,1.68703417472,0,0,-0.223694,76.1, 0.6, 2.2,0,0,1024,1024,1024,1024,74.9,-89.9,98,4.143,4.117,4.136,4.155,4.12,4.121,10.867,82.4,14,Waypoint,
38.4803478,-120.3385616,4531.5594858892,5.577428,0,1.75964244476,6000,2018-07-06 23:21:25,11,0,24.569,4531.5594858892,5.577428,0.447388,1.75964244476,0,0,-0.223694,75.9, 1.1, 2.5,0,0,1024,1024,1024,1024,74.9,-89.9,98,4.103,4.089,4.079,4.088,4.099,4.099,16.809,82.4,14,Waypoint,
38.480348,-120.3385616,4532.8718218892,6.889764,0,1.83227696152,6100,2018-07-06 23:21:25,11,0,24.569,4532.8718218892,6.889764,0.447388,1.83227696152,0,0,-0.447388,75.4, 1.1, 3.2,0,0,1024,1024,1024,1024,74.9,-90,98,4.103,4.089,4.079,4.088,4.099,4.099,16.809,82.4,14,Waypoint,
38.4803488,-120.3385615,4534.1841578892,8.2021,0.223694,2.12555124912,6300,2018-07-06 23:21:25,11,0,24.569,4534.1841578892,8.2021,0.447388,2.12555124912,0,0,-0.447388,75.3, 0.8, 3.8,0,0,1024,1024,1024,1024,74.9,-89.9,98,4.103,4.089,4.079,4.088,4.099,4.099,16.809,82.4,14,Waypoint,
38.4803491,-120.3385615,4534.8403258892,8.858268,0,2.23454403476,6400,2018-07-06 23:21:25,10,0,24.569,4534.8403258892,8.858268,0.447388,2.23454403476,0,0,-0.447388,75.5, 1.2, 4.5,0,0,1024,1024,1024,1024,74.9,-89.9,98,4.103,4.089,4.079,4.088,4.099,4.099,16.809,82.4,14,Waypoint,
38.4803493,-120.3385615,4535.4964938892,9.514436,0,2.30723104496,6500,2018-07-06 23:21:26,10,0,24.569,4535.4964938892,9.514436,0.447388,2.30723104496,0,0,-0.447388,75.7, 1.2, 4.6,0,0,1024,1024,1024,1024,74.9,-89.9,98,4.103,4.089,4.079,4.088,4.099,4.099,16.809,82.4,14,Waypoint,
38.4803495,-120.3385615,4536.4807458892,10.498688,0,2.37993445936,6600,2018-07-06 23:21:26,13,0,24.569,4536.4807458892,10.498688,0.447388,2.37993445936,0,0,-0.671082,75.9, 1.2, 4.4,0,0,1024,1024,1024,1024,74.9,-89.9,98,4.103,4.089,4.079,4.088,4.099,4.099,16.809,82.4,14,Waypoint,
38.4803498,-120.3385614,4537.4649978892,11.48294,0,2.49147645768,6700,2018-07-06 23:21:26,13,0,24.569,4537.4649978892,11.48294,0.447388,2.49147645768,0,0,-0.671082,76, 1.5, 4.2,0,0,1024,1024,1024,1024,74.9,-89.9,98,4.103,4.089,4.079,4.088,4.099,4.099,16.809,82.4,14,Waypoint,
38.48035,-120.3385613,4538.4492498892,12.467192,0,2.56685047584,6800,2018-07-06 23:21:26,11,0,24.569,4538.4492498892,12.467192,0.447388,2.56685047584,0,0,-0.671082,76, 1.9, 4,0,0,1024,1024,1024,1024,74.9,-89.9,98,4.103,4.089,4.079,4.088,4.099,4.099,16.809,82.4,14,Waypoint,
38.4803502,-120.3385611,4539.4335018892,13.451444,0,2.6456365676,6900,2018-07-06 23:21:26,11,0,24.569,4539.4335018892,13.451444,0.447388,2.6456365676,0,0,-0.671082,75.8, 2.1, 3.9,0,0,1024,1024,1024,1024,74.9,-89.9,98,4.103,4.089,4.079,4.088,4.099,4.099,16.809,82.4,14,Waypoint,
38.4803505,-120.3385613,4540.4177538892,14.435696,0,2.74841872312,7000,2018-07-06 23:21:26,12,0,24.521,4540.4177538892,14.435696,0.447388,2.74841872312,0,0,-0.671082,75.7, 2.1, 4,0,0,1024,1024,1024,1024,74.9,-89.9,98,4.081,4.055,4.09,4.148,4.136,4.074,15.128,82.4,14,Waypoint,
38.4803508,-120.3385616,4541.7300898892,15.748032,0,2.85098106236,7100,2018-07-06 23:21:26,12,0,24.521,4541.7300898892,15.748032,0.447388,2.85098106236,0,0,-0.671082,75.7, 1.7, 4.3,0,0,1024,1024,1024,1024,74.9,-89.9,98,4.081,4.055,4.09,4.148,4.136,4.074,15.128,82.4,14,Waypoint,
38.4803509,-120.3385616,4542.7143418892,16.732284,0,2.8874016672,7200,2018-07-06 23:21:26,11,0,24.521,4542.7143418892,16.732284,0.447388,2.8874016672,0,0,-0.671082,75.7, 1.2, 4.7,0,0,1024,1024,1024,1024,74.9,-89.9,98,4.081,4.055,4.09,4.148,4.136,4.074,15.128,82.4,14,Waypoint,
38.4803509,-120.3385615,4544.0266778892,18.04462,0,2.88923565676,7300,2018-07-06 23:21:26,11,0,24.521,4544.0266778892,18.04462,0.447388,2.88923565676,0,0,-0.671082,75.8, 1, 4.8,0,0,1024,1024,1024,1024,74.9,-89.9,98,4.081,4.055,4.09,4.148,4.136,4.074,15.128,82.4,14,Waypoint,
38.4803509,-120.3385616,4545.0109298892,19.028872,0.223694,2.8874016672,7400,2018-07-06 23:21:26,10,0,24.521,4545.0109298892,19.028872,0.447388,2.88923565676,0,0,-0.671082,76, 1, 4.8,0,0,1024,1024,1024,1024,74.9,-89.9,98,4.081,4.055,4.09,4.148,4.136,4.074,15.128,82.4,14,Waypoint,
38.4803509,-120.3385616,4545.9951818892,20.013124,0.223694,2.8874016672,7500,2018-07-06 23:21:27,10,0,24.521,4545.9951818892,20.013124,0.447388,2.88923565676,0,0,-0.671082,76.2, 1.2, 4.5,0,0,1024,1024,1024,1024,74.9,-89.9,98,4.081,4.055,4.09,4.148,4.136,4.074,15.128,82.4,14,Waypoint,
38.4803508,-120.3385616,4547.3075178892,21.32546,0.223694,2.85098106236,7600,2018-07-06 23:21:27,13,0,24.521,4547.3075178892,21.32546,0.447388,2.88923565676,0,0,-0.671082,76.2, 1.1, 4,0,0,1024,1024,1024,1024,74.9,-89.9,98,4.081,4.055,4.09,4.148,4.136,4.074,15.128,82.4,14,Waypoint,
38.4803506,-120.3385615,4548.2917698892,22.309712,0.447388,2.7800525824,7700,2018-07-06 23:21:27,13,0,24.521,4548.2917698892,22.309712,0.447388,2.88923565676,0,0,-0.671082,76.2, 0.9, 3.1,0,0,1024,1024,1024,1024,74.9,-90,98,4.081,4.055,4.09,4.148,4.136,4.074,15.128,82.4,14,Waypoint,
38.4803502,-120.3385615,4549.2760218892,23.293964,0.447388,2.63451123916,7800,2018-07-06 23:21:27,14,0,24.521,4549.2760218892,23.293964,0.447388,2.88923565676,0,0,-0.671082,76.2, 0.9, 2.5,0,0,1024,1024,1024,1024,74.9,-89.9,98,4.081,4.055,4.09,4.148,4.136,4.074,15.128,82.4,14,Waypoint,
38.4803498,-120.3385614,4550.5883578892,24.6063,0.447388,2.49147645768,7900,2018-07-06 23:21:27,14,0,24.521,4550.5883578892,24.6063,0.447388,2.88923565676,0,0,-0.671082,76.3, 0.8, 1.9,0,0,1024,1024,1024,1024,74.9,-90,98,4.081,4.055,4.09,4.148,4.136,4.074,15.128,82.4,14,Waypoint,
38.4803491,-120.3385614,4552.5568618892,26.574804,0.447388,2.23728025532,8100,2018-07-06 23:21:27,13,0,24.521,4552.5568618892,26.574804,0.447388,2.88923565676,0,0,-0.671082,76.6, 0.9, 0.9,0,0,1024,1024,1024,1024,74.9,-89.9,98,4.081,4.055,4.09,4.148,4.136,4.074,15.128,82.4,14,Waypoint,
38.4803487,-120.3385615,4553.8691978892,27.88714,0.447388,2.08922906948,8200,2018-07-06 23:21:27,14,0,24.521,4553.8691978892,27.88714,0.447388,2.88923565676,0,0,-0.671082,76.6, 0.8, 0.6,0,0,1024,1024,1024,1024,74.9,-90,98,4.081,4.055,4.09,4.148,4.136,4.074,15.128,82.4,14,Waypoint,
38.4803483,-120.3385615,4554.8534498892,28.871392,0.447388,1.94400924856,8400,2018-07-06 23:21:27,14,0,24.521,4554.8534498892,28.871392,0.447388,2.88923565676,0,0,-0.671082,76.4, 0.4, 0.2,0,0,1024,1024,1024,1024,74.9,-90,98,4.081,4.055,4.09,4.148,4.136,4.074,15.128,82.4,14,Waypoint,
38.4803479,-120.3385616,4556.1657858892,30.183728,0.447388,1.79595806272,8500,2018-07-06 23:21:28,14,0,24.521,4556.1657858892,30.183728,0.447388,2.88923565676,0,0,-0.671082,76.2, 0.1, 0.1,0,0,1024,1024,1024,1024,74.9,-90,98,4.081,4.055,4.09,4.148,4.136,4.074,15.128,82.4,14,Waypoint,
38.4803473,-120.3385617,4558.4623738892,32.480316,0.223694,1.57533797692,8600,2018-07-06 23:21:28,15,0,24.521,4558.4623738892,32.480316,0.447388,2.88923565676,0,0,-0.671082,75.9, 0, 0.1,0,0,1024,1024,1024,1024,74.9,-90,98,4.081,4.055,4.09,4.148,4.136,4.074,15.128,82.4,14,Waypoint,
38.480347,-120.3385617,4559.4466258892,33.464568,0.223694,1.46636815716,8700,2018-07-06 23:21:28,15,0,24.521,4559.4466258892,33.464568,0.447388,2.88923565676,0,0,-0.671082,75.8, 0, 0.1,0,0,1024,1024,1024,1024,74.9,-90,98,4.081,4.055,4.09,4.148,4.136,4.074,15.128,82.4,14,Waypoint,
38.4803466,-120.3385617,4560.7589618892,34.776904,0.223694,1.32119754884,8800,2018-07-06 23:21:28,12,0,24.521,4560.7589618892,34.776904,0.447388,2.88923565676,0,0,-0.671082,75.7, 0.1, 0,0,0,1024,1024,1024,1024,74.9,-89.9,98,4.081,4.055,4.09,4.148,4.136,4.074,15.128,82.4,14,Waypoint,
38.4803463,-120.3385618,4561.7432138892,35.761156,0,1.20941276836,8900,2018-07-06 23:21:28,12,0,24.521,4561.7432138892,35.761156,0.447388,2.88923565676,0,0,-0.671082,75.8, 0.2, 0.1,0,0,1024,1024,1024,1024,74.9,-89.9,98,4.081,4.055,4.09,4.148,4.136,4.074,15.128,82.4,14,Waypoint,
38.4803461,-120.3385618,4563.0555498892,37.073492,0,1.13678809412,9000,2018-07-06 23:21:28,12,0,24.083,4563.0555498892,37.073492,0.447388,2.88923565676,0,0,-0.671082,75.9, 0.4, 0.1,0,0,1024,1024,1024,1024,74.9,-89.9,98,4.036,4.013,4.006,4.008,4.041,4.029,20.719,82.4,14,Waypoint,
38.4803459,-120.3385618,4564.0398018892,38.057744,0,1.06421263248,9100,2018-07-06 23:21:28,12,0,24.083,4564.0398018892,38.057744,0.447388,2.88923565676,0,0,-0.671082,76.1, 0.6, 0.4,0,0,1024,1024,1024,1024,74.9,-89.9,98,4.036,4.013,4.006,4.008,4.041,4.029,20.719,82.4,14,Waypoint,
38.4803457,-120.3385618,4565.0240538892,39.041996,0,0.99169622596,9200,2018-07-06 23:21:28,13,0,24.083,4565.0240538892,39.041996,0.447388,2.88923565676,0,0,-0.671082,76.1, 0.8, 0.7,0,0,1024,1024,1024,1024,74.9,-89.9,98,4.036,4.013,4.006,4.008,4.041,4.029,20.719,82.4,14,Waypoint,
38.4803455,-120.3385618,4566.3363898892,40.354332,0,0.91924871708,9300,2018-07-06 23:21:28,13,0,24.083,4566.3363898892,40.354332,0.447388,2.88923565676,0,0,-0.671082,75.9, 0.9, 1.1,0,0,1024,1024,1024,1024,74.9,-89.9,98,4.036,4.013,4.006,4.008,4.041,4.029,20.719,82.4,14,Waypoint,
38.4803453,-120.3385617,4567.3206418892,41.338584,0,0.85121721884,9400,2018-07-06 23:21:28,13,0,24.083,4567.3206418892,41.338584,0.447388,2.88923565676,0,0,-0.671082,75.6, 0.9, 1,0,0,1024,1024,1024,1024,74.9,-89.9,98,4.036,4.013,4.006,4.008,4.041,4.029,20.719,82.4,14,Waypoint,
38.4803451,-120.3385616,4568.3048938892,42.322836,0,0.78511485452,9500,2018-07-06 23:21:29,13,0,24.083,4568.3048938892,42.322836,0.447388,2.88923565676,0,0,-0.671082,75.4, 0.8, 0.5,0,0,1024,1024,1024,1024,74.9,-89.9,98,4.036,4.013,4.006,4.008,4.041,4.029,20.719,82.4,14,Waypoint,
38.4803449,-120.3385615,4569.2891458892,43.307088,0,0.72146983936,9600,2018-07-06 23:21:29,12,0,24.083,4569.2891458892,43.307088,0.447388,2.88923565676,0,0,-0.671082,75.3, 1, 0.2,0,0,1024,1024,1024,1024,74.9,-89.9,98,4.036,4.013,4.006,4.008,4.041,4.029,20.719,82.4,14,Waypoint,
38.4803448,-120.3385613,4570.2733978892,44.29134,0.223694,0.70524280472,9700,2018-07-06 23:21:29,12,0,24.083,4570.2733978892,44.29134,0.447388,2.88923565676,0,0,-0.671082,75.3, 1.5, 0.4,0,0,1024,1024,1024,1024,74.9,-89.9,98,4.036,4.013,4.006,4.008,4.041,4.029,20.719,82.4,14,Waypoint,
38.4803447,-120.3385611,4571.5857338892,45.603676,0.223694,0.6952756128,9800,2018-07-06 23:21:29,12,0,24.083,4571.5857338892,45.603676,0.447388,2.88923565676,0,0,-0.671082,75.4, 1.9, 1,0,0,1024,1024,1024,1024,74.9,-89.9,98,4.036,4.013,4.006,4.008,4.041,4.029,20.719,82.4,14,Waypoint,
38.4803448,-120.3385609,4572.5699858892,46.587928,0.223694,0.75442259632,9900,2018-07-06 23:21:29,12,0,24.083,4572.5699858892,46.587928,0.447388,2.88923565676,0,0,-0.671082,75.5, 2.3, 1.7,0,0,1024,1024,1024,1024,74.9,-89.9,98,4.036,4.013,4.006,4.008,4.041,4.029,20.719,82.4,14,Waypoint,
38.4803448,-120.3385608,4573.5542378892,47.57218,0.223694,0.7688812582,10000,2018-07-06 23:21:29,14,0,24.195,4573.5542378892,47.57218,0.447388,2.88923565676,0,0,-0.671082,75.6, 2.6, 1.9,0,0,1024,1024,1024,1024,74.9,-89.9,98,4.052,4.033,4.024,4.029,4.051,4.052,17.817,82.4,14,Waypoint,
38.4803448,-120.3385608,4574.2104058892,48.228348,0.223694,0.7688812582,10100,2018-07-06 23:21:29,14,0,24.195,4574.2104058892,48.228348,0.447388,2.88923565676,0,0,-0.671082,75.8, 2.5, 2.1,0,0,1024,1024,1024,1024,74.9,-89.9,98,4.052,4.033,4.024,4.029,4.051,4.052,17.817,82.4,14,Waypoint,
38.4803448,-120.3385607,4575.1946578892,49.2126,0.223694,0.78411419832,10200,2018-07-06 23:21:29,15,0,24.195,4575.1946578892,49.2126,0.447388,2.88923565676,0,0,-0.671082,75.9, 2.4, 2.2,0,0,1024,1024,1024,1024,74.9,-89.9,98,4.052,4.033,4.024,4.029,4.051,4.052,17.817,82.4,14,Waypoint,
38.4803448,-120.3385606,4576.1789098892,50.196852,0.223694,0.80007548492,10400,2018-07-06 23:21:29,15,0,24.195,4576.1789098892,50.196852,0.447388,2.88923565676,0,0,-0.671082,76.1, 2.4, 2.4,0,0,1024,1024,1024,1024,74.9,-89.9,98,4.052,4.033,4.024,4.029,4.051,4.052,17.817,82.4,14,Waypoint,
38.4803449,-120.3385605,4577.1631618892,51.181104,0.447388,0.8463418906,10500,2018-07-06 23:21:30,15,0,24.195,4577.1631618892,51.181104,0.447388,2.88923565676,0,0,-0.671082,76.2, 2.6, 2.4,0,0,1024,1024,1024,1024,74.9,-89.9,98,4.052,4.033,4.024,4.029,4.051,4.052,17.817,82.4,14,Waypoint,
38.4803449,-120.3385603,4578.1474138892,52.165356,0.447388,0.88035763972,10600,2018-07-06 23:21:30,15,0,24.195,4578.1474138892,52.165356,0.447388,2.88923565676,0,0,-0.671082,76.2, 3, 2.2,0,0,1024,1024,1024,1024,74.9,-89.9,98,4.052,4.033,4.024,4.029,4.051,4.052,17.817,82.4,14,Waypoint,
38.4803453,-120.3385602,4580.1159178892,54.13386,0.447388,1.0151247044,10700,2018-07-06 23:21:30,14,0,24.195,4580.1159178892,54.13386,0.447388,2.88923565676,0,0,-0.671082,76.1, 3.2, 2.9,0,0,1024,1024,1024,1024,74.9,-89.9,98,4.052,4.033,4.024,4.029,4.051,4.052,17.817,82.4,14,Waypoint,
38.4803455,-120.3385602,4580.7720858892,54.790028,0.447388,1.07622706856,10800,2018-07-06 23:21:30,13,0,24.195,4580.7720858892,54.790028,0.447388,2.88923565676,0,0,-0.671082,76, 3.4, 3.3,0,0,1024,1024,1024,1024,74.9,-89.9,98,4.052,4.033,4.024,4.029,4.051,4.052,17.817,82.4,14,Waypoint,
38.4803457,-120.3385601,4581.7563378892,55.77428,0.447388,1.15332024688,10900,2018-07-06 23:21:30,13,0,24.195,4581.7563378892,55.77428,0.447388,2.88923565676,0,0,-0.671082,75.9, 3.6, 3.5,0,0,1024,1024,1024,1024,74.9,-89.9,98,4.052,4.033,4.024,4.029,4.051,4.052,17.817,82.4,14,Waypoint,
38.4803458,-120.3385602,4582.7405898892,56.758532,0.447388,1.17043638916,11000,2018-07-06 23:21:30,14,0,24.309,4582.7405898892,56.758532,0.447388,2.88923565676,0,0,-0.671082,75.8, 3.5, 3.7,0,0,1024,1024,1024,1024,74.9,-89.9,98,4.055,4.042,4.044,4.05,4.065,4.064,16.055,82.4,14,Waypoint,
38.480346,-120.3385603,4583.7248418892,57.742784,0.223694,1.2216863908,11100,2018-07-06 23:21:30,14,0,24.309,4583.7248418892,57.742784,0.447388,2.88923565676,0,0,-0.671082,75.7, 3, 3.8,0,0,1024,1024,1024,1024,74.9,-89.9,98,4.055,4.042,4.044,4.05,4.065,4.064,16.055,82.4,14,Waypoint,
38.4803462,-120.3385605,4584.7090938892,58.727036,0.223694,1.26445542104,11200,2018-07-06 23:21:30,15,0,24.309,4584.7090938892,58.727036,0.447388,2.88923565676,0,0,-0.671082,75.6, 2.4, 3.8,0,0,1024,1024,1024,1024,74.9,-89.9,98,4.055,4.042,4.044,4.05,4.065,4.064,16.055,82.4,14,Waypoint,
38.4803464,-120.3385607,4585.6933458892,59.711288,0.447388,1.3123852126,11300,2018-07-06 23:21:30,15,0,24.309,4585.6933458892,59.711288,0.447388,2.88923565676,0,0,-0.671082,75.7, 1.8, 4.2,0,0,1024,1024,1024,1024,74.9,-89.9,98,4.055,4.042,4.044,4.05,4.065,4.064,16.055,82.4,14,Waypoint,
38.4803466,-120.3385609,4586.6775978892,60.69554,0.223694,1.3649278652,11400,2018-07-06 23:21:30,14,0,24.309,4586.6775978892,60.69554,0.447388,2.88923565676,0,0,-0.671082,75.8, 1.4, 4.4,0,0,1024,1024,1024,1024,74.9,-90,98,4.055,4.042,4.044,4.05,4.065,4.064,16.055,82.4,14,Waypoint,
38.4803469,-120.338561,4587.6618498892,61.679792,0.223694,1.46360897072,11500,2018-07-06 23:21:31,14,0,24.309,4587.6618498892,61.679792,0.447388,2.88923565676,0,0,-0.671082,75.8, 1.2, 4.8,0,0,1024,1024,1024,1024,74.9,-90,98,4.055,4.042,4.044,4.05,4.065,4.064,16.055,82.4,14,Waypoint,
38.4803471,-120.3385612,4588.6461018892,62.664044,0.223694,1.52290359204,11600,2018-07-06 23:21:31,14,0,24.309,4588.6461018892,62.664044,0.447388,2.88923565676,0,0,-0.671082,75.8, 0.9, 4.9,0,0,1024,1024,1024,1024,74.9,-90,98,4.055,4.042,4.044,4.05,4.065,4.064,16.055,82.4,14,Waypoint,
38.4803473,-120.3385613,4589.3022698892,63.320212,0.223694,1.58977039208,11700,2018-07-06 23:21:31,14,0,24.309,4589.3022698892,63.320212,0.447388,2.88923565676,0,0,-0.671082,75.8, 0.8, 4.8,0,0,1024,1024,1024,1024,74.9,-90,98,4.055,4.042,4.044,4.05,4.065,4.064,16.055,82.4,14,Waypoint,
38.4803474,-120.3385614,4590.2865218892,64.304464,0.223694,1.62151579992,11800,2018-07-06 23:21:31,13,0,24.309,4590.2865218892,64.304464,0.447388,2.88923565676,0,0,-0.671082,75.8, 1, 4.7,0,0,1024,1024,1024,1024,74.9,-90,98,4.055,4.042,4.044,4.05,4.065,4.064,16.055,82.4,14,Waypoint,
38.4803478,-120.3385616,4592.2550258892,66.272968,0.223694,1.75964244476,12000,2018-07-06 23:21:31,14,0,24.237,4592.2550258892,66.272968,0.447388,2.88923565676,0,0,-0.671082,75.7, 1.2, 4.8,0,0,1024,1024,1024,1024,74.9,-89.9,98,4.044,4.017,4.027,4.033,4.052,4.044,17.254,82.4,14,Waypoint,
38.480348,-120.3385617,4593.2392778892,67.25722,0.223694,1.82982945488,12100,2018-07-06 23:21:31,14,0,24.237,4593.2392778892,67.25722,0.447388,2.88923565676,0,0,-0.671082,75.6, 1.4, 4.9,0,0,1024,1024,1024,1024,74.9,-89.9,98,4.044,4.017,4.027,4.033,4.052,4.044,17.254,82.4,14,Waypoint,
38.4803482,-120.3385617,4593.8954458892,67.913388,0.223694,1.90258536272,12200,2018-07-06 23:21:31,14,0,24.237,4593.8954458892,67.913388,0.447388,2.88923565676,0,0,-0.671082,75.5, 1.7, 5,0,0,1024,1024,1024,1024,74.9,-89.9,98,4.044,4.017,4.027,4.033,4.052,4.044,17.254,82.4,14,Waypoint,
38.4803483,-120.3385618,4594.8796978892,68.89764,0,1.9370735528,12300,2018-07-06 23:21:31,14,0,24.237,4594.8796978892,68.89764,0.447388,2.88923565676,0,0,-0.671082,75.1, 2.2, 4.9,0,0,1024,1024,1024,1024,74.9,-89.9,98,4.044,4.017,4.027,4.033,4.052,4.044,17.254,82.4,14,Waypoint,
38.4803485,-120.3385618,4595.8639498892,69.881892,0,2.00992132416,12400,2018-07-06 23:21:31,15,0,24.237,4595.8639498892,69.881892,0.447388,2.88923565676,0,0,-0.671082,74.9, 2.4, 4.5,0,0,1024,1024,1024,1024,74.9,-89.9,98,4.044,4.017,4.027,4.033,4.052,4.044,17.254,82.4,14,Waypoint,
38.4803486,-120.3385618,4596.8482018892,70.866144,0,2.04634849068,12500,2018-07-06 23:21:32,15,0,24.237,4596.8482018892,70.866144,0.447388,2.88923565676,0,0,-0.671082,74.8, 2.3, 4.3,0,0,1024,1024,1024,1024,74.9,-89.9,98,4.044,4.017,4.027,4.033,4.052,4.044,17.254,82.4,14,Waypoint,
38.4803486,-120.3385618,4597.5043698892,71.522312,0,2.04634849068,12610,2018-07-06 23:21:32,14,0,24.237,4597.5043698892,71.522312,0.447388,2.88923565676,0,0,-0.671082,75, 2.1, 4.4,0,0,1024,1024,1024,1024,74.9,-89.9,98,4.044,4.017,4.027,4.033,4.052,4.044,17.254,82.4,14,Waypoint,
38.4803486,-120.3385618,4598.4886218892,72.506564,0,2.04634849068,12700,2018-07-06 23:21:32,14,0,24.237,4598.4886218892,72.506564,0.447388,2.88923565676,0,0,-0.671082,75.2, 2, 3.9,0,0,1024,1024,1024,1024,74.9,-89.9,98,4.044,4.017,4.027,4.033,4.052,4.044,17.254,82.4,14,Waypoint,
38.4803487,-120.3385618,4599.4728738892,73.490816,0,2.0827756572,12800,2018-07-06 23:21:32,14,0,24.237,4599.4728738892,73.490816,0.447388,2.88923565676,0,0,-0.671082,75.3, 2.1, 3.5,0,0,1024,1024,1024,1024,74.9,-89.9,98,4.044,4.017,4.027,4.033,4.052,4.044,17.254,82.4,14,Waypoint,
38.4803487,-120.3385618,4600.4571258892,74.475068,0,2.0827756572,12900,2018-07-06 23:21:32,14,0,24.237,4600.4571258892,74.475068,0.447388,2.88923565676,0,0,-0.671082,75.4, 2.1, 3.7,0,0,1024,1024,1024,1024,74.9,-89.9,98,4.044,4.017,4.027,4.033,4.052,4.044,17.254,82.4,14,Waypoint,
38.4803489,-120.338562,4602.4256298892,76.443572,0,2.15336949148,13000,2018-07-06 23:21:32,15,0,24.13,4602.4256298892,76.443572,0.447388,2.88923565676,0,0,-0.671082,75.6, 1.7, 3.7,0,0,1024,1024,1024,1024,74.9,-89.9,98,4.027,4.013,4.005,4.014,4.035,4.024,18.062,82.4,14,Waypoint,
38.4803488,-120.3385621,4604.3941338892,78.412076,0,2.11631896536,13300,2018-07-06 23:21:32,16,0,24.13,4604.3941338892,78.412076,0.447388,2.88923565676,0,0,-0.671082,75.4, 2, 4.2,0,0,1024,1024,1024,1024,74.9,-89.9,98,4.027,4.013,4.005,4.014,4.035,4.024,18.062,82.4,14,Waypoint,
38.4803488,-120.3385622,4605.3783858892,79.396328,0,2.1161253958,13400,2018-07-06 23:21:32,17,0,24.13,4605.3783858892,79.396328,0.447388,2.88923565676,0,0,-0.671082,75.2, 2.2, 3.6,0,0,1024,1024,1024,1024,74.9,-89.9,98,4.027,4.013,4.005,4.014,4.035,4.024,18.062,82.4,14,Waypoint,
38.4803487,-120.3385622,4606.3626378892,80.38058,0,2.079642455,13500,2018-07-06 23:21:33,17,0,24.13,4606.3626378892,80.38058,0.447388,2.88923565676,0,0,-0.671082,75, 2.1, 3.2,0,0,1024,1024,1024,1024,74.9,-89.9,98,4.027,4.013,4.005,4.014,4.035,4.024,18.062,82.4,14,Waypoint,
38.4803487,-120.3385622,4607.3468898892,81.364832,0,2.079642455,13600,2018-07-06 23:21:33,16,0,24.13,4607.3468898892,81.364832,0.447388,2.88923565676,0,0,-0.671082,75, 2.1, 3.3,0,0,1024,1024,1024,1024,74.9,-89.9,98,4.027,4.013,4.005,4.014,4.035,4.024,18.062,82.4,14,Waypoint,
38.4803486,-120.3385623,4608.3311418892,82.349084,0,2.0433563646,13700,2018-07-06 23:21:33,16,0,24.13,4608.3311418892,82.349084,0.447388,2.88923565676,0,0,-0.671082,75.2, 1.9, 3.2,0,0,1024,1024,1024,1024,74.9,-89.9,98,4.027,4.013,4.005,4.014,4.035,4.024,18.062,82.4,14,Waypoint,
38.4803485,-120.3385623,4609.3153938892,83.333336,0,2.0068734238,13800,2018-07-06 23:21:33,18,0,24.13,4609.3153938892,83.333336,0.447388,2.88923565676,0,0,-0.671082,75.5, 1.1, 3.2,0,0,1024,1024,1024,1024,74.9,-89.9,98,4.027,4.013,4.005,4.014,4.035,4.024,18.062,82.4,14,Waypoint,
38.4803485,-120.3385623,4610.2996458892,84.317588,0,2.0068734238,13900,2018-07-06 23:21:33,18,0,24.13,4610.2996458892,84.317588,0.447388,2.88923565676,0,0,-0.671082,76, 1.1, 3.2,0,0,1024,1024,1024,1024,74.9,-89.9,98,4.027,4.013,4.005,4.014,4.035,4.024,18.062,82.4,14,Waypoint,
38.4803484,-120.3385623,4611.6119818892,85.629924,0,1.97039376384,14000,2018-07-06 23:21:33,17,0,24.062,4611.6119818892,85.629924,0.447388,2.88923565676,0,0,-0.671082,76.3, 1.1, 3.5,0,0,1024,1024,1024,1024,74.9,-89.9,98,4.025,3.999,4.008,4.008,4.032,4.017,18.726,82.4,14,Waypoint,
38.4803483,-120.3385623,4612.5962338892,86.614176,0,1.93391410388,14100,2018-07-06 23:21:33,17,0,24.062,4612.5962338892,86.614176,0.447388,2.88923565676,0,0,-0.671082,76.4, 1.2, 3.2,0,0,1024,1024,1024,1024,74.9,-89.9,98,4.025,3.999,4.008,4.008,4.032,4.017,18.726,82.4,14,Waypoint,
38.4803482,-120.3385622,4613.5804858892,87.598428,0,1.89721790848,14200,2018-07-06 23:21:33,17,0,24.062,4613.5804858892,87.598428,0.447388,2.88923565676,0,0,-0.671082,76.6, 1.7, 2.9,0,0,1024,1024,1024,1024,74.9,-89.9,98,4.025,3.999,4.008,4.008,4.032,4.017,18.726,82.4,14,Waypoint,
38.4803481,-120.3385621,4614.5647378892,88.58268,0,1.86095150312,14300,2018-07-06 23:21:33,17,0,24.062,4614.5647378892,88.58268,0.447388,2.88923565676,0,0,-0.671082,76.5, 2.2, 2.6,0,0,1024,1024,1024,1024,74.9,-89.9,98,4.025,3.999,4.008,4.008,4.032,4.017,18.726,82.4,14,Waypoint,
38.4803479,-120.3385621,4615.5489898892,89.566932,0,1.78798890236,14400,2018-07-06 23:21:33,17,0,24.062,4615.5489898892,89.566932,0.447388,2.88923565676,0,0,-0.671082,76.2, 2.4, 2.3,0,0,1024,1024,1024,1024,74.9,-89.9,98,4.025,3.999,4.008,4.008,4.032,4.017,18.726,82.4,14,Waypoint,
38.4803478,-120.338562,4616.5332418892,90.551184,0,1.75220806132,14500,2018-07-06 23:21:34,17,0,24.062,4616.5332418892,90.551184,0.447388,2.88923565676,0,0,-0.671082,75.9, 2.3, 2,0,0,1024,1024,1024,1024,74.9,-89.9,98,4.025,3.999,4.008,4.008,4.032,4.017,18.726,82.4,14,Waypoint,
38.4803477,-120.338562,4617.8455778892,91.86352,0,1.71574480556,14600,2018-07-06 23:21:34,17,0,24.062,4617.8455778892,91.86352,0.447388,2.88923565676,0,0,-0.671082,75.9, 2.1, 1.9,0,0,1024,1024,1024,1024,74.9,-89.9,98,4.025,3.999,4.008,4.008,4.032,4.017,18.726,82.4,14,Waypoint,
38.4803477,-120.338562,4618.8298298892,92.847772,0,1.71574480556,14700,2018-07-06 23:21:34,17,0,24.062,4618.8298298892,92.847772,0.447388,2.88923565676,0,0,-0.671082,75.9, 1.9, 2.3,0,0,1024,1024,1024,1024,74.9,-89.9,98,4.025,3.999,4.008,4.008,4.032,4.017,18.726,82.4,14,Waypoint,
38.4803476,-120.3385619,4619.8140818892,93.832024,0,1.68049217976,14800,2018-07-06 23:21:34,17,0,24.062,4619.8140818892,93.832024,0.447388,2.88923565676,0,0,-0.671082,76, 1.9, 2.7,0,0,1024,1024,1024,1024,74.9,-89.9,98,4.025,3.999,4.008,4.008,4.032,4.017,18.726,82.4,14,Waypoint,
38.4803476,-120.3385618,4620.7983338892,94.816276,0,1.68219165488,14900,2018-07-06 23:21:34,17,0,24.062,4620.7983338892,94.816276,0.447388,2.88923565676,0,0,-0.671082,76.1, 2.2, 3,0,0,1024,1024,1024,1024,74.9,-89.9,98,4.025,3.999,4.008,4.008,4.032,4.017,18.726,82.4,14,Waypoint,
38.4803475,-120.3385618,4621.7825858892,95.800528,0,1.64579401592,15000,2018-07-06 23:21:34,17,0,24.107,4621.7825858892,95.800528,0.447388,2.88923565676,0,0,-0.671082,76.3, 2.4, 3.1,0,0,1024,1024,1024,1024,74.9,-89.9,97,4.025,3.999,4.008,4.008,4.032,4.017,17.655,82.4,14,Waypoint,
38.4803475,-120.3385616,4623.7510898892,97.769032,0,1.65074152264,15200,2018-07-06 23:21:34,17,0,24.107,4623.7510898892,97.769032,0.447388,2.88923565676,0,0,-0.671082,76.5, 2.6, 3,0,0,1024,1024,1024,1024,74.9,-89.9,97,4.025,3.999,4.008,4.008,4.032,4.017,17.655,82.4,14,Waypoint,
38.4803475,-120.3385616,4624.7353418892,98.753284,0,1.65074152264,15300,2018-07-06 23:21:34,17,0,24.107,4624.7353418892,98.753284,0.447388,2.88923565676,0,0,-0.671082,76.6, 2.6, 3.2,0,0,1024,1024,1024,1024,74.9,-89.9,97,4.025,3.999,4.008,4.008,4.032,4.017,17.655,82.4,14,Waypoint,
38.4803476,-120.3385615,4626.7038458892,100.721788,0,1.6901739386,15400,2018-07-06 23:21:34,17,0,24.107,4626.7038458892,100.721788,0.447388,2.88923565676,0,0,-0.671082,76.3, 2.7, 3.5,0,0,1024,1024,1024,1024,74.9,-89.9,97,4.025,3.999,4.008,4.008,4.032,4.017,17.655,82.4,14,Waypoint,
38.4803477,-120.3385615,4627.6880978892,101.70604,0,1.72640753556,15510,2018-07-06 23:21:35,17,0,24.107,4627.6880978892,101.70604,0.447388,2.88923565676,0,0,-0.671082,76.1, 2.9, 4,0,0,1024,1024,1024,1024,74.9,-89.9,97,4.025,3.999,4.008,4.008,4.032,4.017,17.655,82.4,14,Waypoint,
38.4803477,-120.3385615,4627.6880978892,101.70604,0,1.72640753556,15600,2018-07-06 23:21:35,17,0,24.107,4627.6880978892,101.70604,0.447388,2.88923565676,0,0,-0.671082,76.1, 2.9, 4,0,0,1024,1024,1024,1024,74.9,-89.9,97,4.025,3.999,4.008,4.008,4.032,4.017,17.655,82.4,14,Waypoint,
38.4803478,-120.3385614,4628.6723498892,102.690292,0.223694,1.76611882292,15700,2018-07-06 23:21:35,17,0,24.107,4628.6723498892,102.690292,0.447388,2.88923565676,0,0,-0.671082,75.9, 2.8, 4.6,0,0,1024,1024,1024,1024,74.9,-89.9,97,4.025,3.999,4.008,4.008,4.032,4.017,17.655,82.4,14,Waypoint,
38.4803479,-120.3385613,4629.6566018892,103.674544,0.223694,1.80614835176,15800,2018-07-06 23:21:35,17,0,24.107,4629.6566018892,103.674544,0.447388,2.88923565676,0,0,-0.671082,76, 3, 4.8,0,0,1024,1024,1024,1024,74.9,-89.9,97,4.025,3.999,4.008,4.008,4.032,4.017,17.655,82.4,14,Waypoint,
38.4803479,-120.3385612,4630.6408538892,104.658796,0.223694,1.8104331288,15900,2018-07-06 23:21:35,17,0,24.107,4630.6408538892,104.658796,0.447388,2.88923565676,0,0,-0.671082,76.1, 3.3, 4.7,0,0,1024,1024,1024,1024,74.9,-89.9,97,4.025,3.999,4.008,4.008,4.032,4.017,17.655,82.4,14,Waypoint,
38.480348,-120.3385611,4631.6251058892,105.643048,0,1.85110242144,16000,2018-07-06 23:21:35,17,0,24.107,4631.6251058892,105.643048,0.447388,2.88923565676,0,0,-0.671082,76.3, 3.7, 4.5,0,0,1024,1024,1024,1024,74.9,-89.9,97,4.034,4.007,3.998,4.008,4.034,4.025,17.655,82.4,14,Waypoint,
38.4803481,-120.338561,4632.6093578892,106.6273,0,1.89203418128,16100,2018-07-06 23:21:35,17,0,24.107,4632.6093578892,106.6273,0.447388,2.88923565676,0,0,-0.671082,76.3, 4.1, 4.2,0,0,1024,1024,1024,1024,74.9,-89.9,97,4.034,4.007,3.998,4.008,4.034,4.025,17.655,82.4,14,Waypoint,
38.4803481,-120.3385609,4633.5936098892,107.611552,0,1.89741475888,16200,2018-07-06 23:21:35,17,0,24.107,4633.5936098892,107.611552,0.447388,2.88923565676,0,0,-0.671082,76.3, 4, 4.3,0,0,1024,1024,1024,1024,74.9,-89.9,97,4.034,4.007,3.998,4.008,4.034,4.025,17.655,82.4,14,Waypoint,
38.4803482,-120.3385608,4634.5778618892,108.595804,0,1.938894419,16300,2018-07-06 23:21:35,17,0,24.107,4634.5778618892,108.595804,0.447388,2.88923565676,0,0,-0.671082,76.1, 3.9, 4.6,0,0,1024,1024,1024,1024,74.9,-89.9,97,4.034,4.007,3.998,4.008,4.034,4.025,17.655,82.4,14,Waypoint,
38.4803483,-120.3385607,4635.5621138892,109.580056,0,1.98059061456,16400,2018-07-06 23:21:35,17,0,24.107,4635.5621138892,109.580056,0.447388,2.88923565676,0,0,-0.671082,75.7, 3.9, 4.8,0,0,1024,1024,1024,1024,74.9,-89.9,97,4.034,4.007,3.998,4.008,4.034,4.025,17.655,82.4,14,Waypoint,
38.4803483,-120.3385606,4636.5463658892,110.564308,0,1.98696528668,16500,2018-07-06 23:21:36,17,0,24.107,4636.5463658892,110.564308,0.447388,2.88923565676,0,0,-0.671082,75.4, 3.6, 4.6,0,0,1024,1024,1024,1024,74.9,-89.9,97,4.034,4.007,3.998,4.008,4.034,4.025,17.655,82.4,14,Waypoint,
38.4803484,-120.3385606,4637.5306178892,111.54856,0,2.0224902222,16600,2018-07-06 23:21:36,17,0,24.107,4637.5306178892,111.54856,0.447388,2.88923565676,0,0,-0.671082,75.4, 3.5, 4.5,0,0,1024,1024,1024,1024,74.9,-89.9,97,4.034,4.007,3.998,4.008,4.034,4.025,17.655,82.4,14,Waypoint,
38.4803484,-120.3385606,4638.5148698892,112.532812,0,2.0224902222,16700,2018-07-06 23:21:36,17,0,24.107,4638.5148698892,112.532812,0.447388,2.88923565676,0,0,-0.671082,75.6, 3.5, 4.4,0,0,1024,1024,1024,1024,74.9,-89.9,97,4.034,4.007,3.998,4.008,4.034,4.025,17.655,82.4,14,Waypoint,
38.4803485,-120.3385605,4639.4991218892,113.517064,0,2.06457683772,16800,2018-07-06 23:21:36,17,0,24.107,4639.4991218892,113.517064,0.447388,2.88923565676,0,0,-0.671082,75.8, 3.5, 4.4,0,0,1024,1024,1024,1024,74.9,-89.9,97,4.034,4.007,3.998,4.008,4.034,4.025,17.655,82.4,14,Waypoint,
38.4803485,-120.3385604,4640.4833738892,114.501316,0,2.07147972508,16900,2018-07-06 23:21:36,17,0,24.107,4640.4833738892,114.501316,0.447388,2.88923565676,0,0,-0.671082,76.1, 3.6, 4.4,0,0,1024,1024,1024,1024,74.9,-89.9,97,4.034,4.007,3.998,4.008,4.034,4.025,17.655,82.4,14,Waypoint,
38.4803486,-120.3385603,4641.4676258892,115.485568,0,2.1139928498,17000,2018-07-06 23:21:36,17,0,24.129,4641.4676258892,115.485568,0.447388,2.88923565676,0,0,-0.671082,76.4, 3.7, 4.6,0,0,1024,1024,1024,1024,74.9,-89.9,97,4.026,4.014,4.01,4.004,4.04,4.022,17.114,82.4,14,Waypoint,
38.4803486,-120.3385603,4642.4518778892,116.46982,0,2.1139928498,17100,2018-07-06 23:21:36,17,0,24.129,4642.4518778892,116.46982,0.447388,2.88923565676,0,0,-0.671082,76.6, 3.7, 4.9,0,0,1024,1024,1024,1024,74.9,-89.9,97,4.026,4.014,4.01,4.004,4.04,4.022,17.114,82.4,14,Waypoint,
38.4803487,-120.3385603,4643.4361298892,117.454072,0,2.149278284,17200,2018-07-06 23:21:36,17,0,24.129,4643.4361298892,117.454072,0.447388,2.88923565676,0,0,-0.671082,76.7, 3.6, 5.2,0,0,1024,1024,1024,1024,74.9,-89.9,97,4.026,4.014,4.01,4.004,4.04,4.022,17.114,82.4,14,Waypoint,
38.4803488,-120.3385602,4644.4203818892,118.438324,0,2.19187014888,17300,2018-07-06 23:21:36,17,0,24.129,4644.4203818892,118.438324,0.447388,2.88923565676,0,0,-0.671082,76.7, 3.4, 5.5,0,0,1024,1024,1024,1024,74.9,-89.9,97,4.026,4.014,4.01,4.004,4.04,4.022,17.114,82.4,14,Waypoint,
38.4803488,-120.3385603,4645.4046338892,119.422576,0,2.18459980744,17400,2018-07-06 23:21:36,17,0,24.129,4645.4046338892,119.422576,0.447388,2.88923565676,0,0,-0.671082,76.7, 3.4, 5.5,0,0,1024,1024,1024,1024,74.9,-89.9,97,4.026,4.014,4.01,4.004,4.04,4.022,17.114,82.4,14,Waypoint,
38.4803488,-120.3385603,4646.3888858892,120.406828,0,2.18459980744,17500,2018-07-06 23:21:37,17,0,24.129,4646.3888858892,120.406828,0.447388,2.88923565676,0,0,-0.671082,76.6, 3.3, 5.4,0,0,1024,1024,1024,1024,74.9,-89.9,97,4.026,4.014,4.01,4.004,4.04,4.022,17.114,82.4,14,Waypoint,
38.4803488,-120.3385603,4647.3731378892,121.39108,0,2.18459980744,17610,2018-07-06 23:21:37,17,0,24.129,4647.3731378892,121.39108,0.447388,2.88923565676,0,0,-0.671082,76.5, 3.2, 4.9,0,0,1024,1024,1024,1024,74.9,-89.9,97,4.026,4.014,4.01,4.004,4.04,4.022,17.114,82.4,14,Waypoint,
38.4803488,-120.3385603,4647.3731378892,121.39108,0,2.18459980744,17700,2018-07-06 23:21:37,17,0,24.129,4647.3731378892,121.39108,0.447388,2.88923565676,0,0,-0.671082,76.5, 3.2, 4.9,0,0,1024,1024,1024,1024,74.9,-89.9,97,4.026,4.014,4.01,4.004,4.04,4.022,17.114,82.4,14,Waypoint,
38.4803488,-120.3385604,4649.6697258892,123.687668,0,2.17768051588,17800,2018-07-06 23:21:37,17,0,24.129,4649.6697258892,123.687668,0.447388,2.88923565676,0,0,-0.671082,76.2, 2.6, 5.2,0,0,1024,1024,1024,1024,74.9,-90,97,4.026,4.014,4.01,4.004,4.04,4.022,17.114,82.4,14,Waypoint,
38.4803488,-120.3385605,4650.3258938892,124.343836,0,2.17111555504,17900,2018-07-06 23:21:37,17,0,24.129,4650.3258938892,124.343836,0.447388,2.88923565676,0,0,-0.671082,76.1, 2.3, 5.3,0,0,1024,1024,1024,1024,74.9,-90,97,4.026,4.014,4.01,4.004,4.04,4.022,17.114,82.4,14,Waypoint,
38.4803488,-120.3385606,4652.2943978892,126.31234,0,2.16490820576,18100,2018-07-06 23:21:37,18,0,24.129,4652.2943978892,126.31234,0.447388,2.88923565676,0,0,-0.671082,76, 2.4, 5,0,0,1024,1024,1024,1024,74.9,-89.9,97,4.026,4.014,4.01,4.004,4.04,4.022,17.114,82.4,14,Waypoint,
38.4803488,-120.3385606,4652.9505658892,126.968508,0,2.16490820576,18200,2018-07-06 23:21:37,18,0,24.129,4652.9505658892,126.968508,0.447388,2.88923565676,0,0,-0.671082,76, 2.7, 4.9,0,0,1024,1024,1024,1024,74.9,-89.9,97,4.026,4.014,4.01,4.004,4.04,4.022,17.114,82.4,14,Waypoint,
38.4803489,-120.3385607,4653.9348178892,127.95276,0,2.19482946656,18300,2018-07-06 23:21:37,18,0,24.129,4653.9348178892,127.95276,0.447388,2.88923565676,0,0,-0.671082,76.1, 2.7, 5,0,0,1024,1024,1024,1024,74.9,-89.9,97,4.026,4.014,4.01,4.004,4.04,4.022,17.114,82.4,14,Waypoint,
38.4803489,-120.3385607,4654.9190698892,128.937012,0,2.19482946656,18400,2018-07-06 23:21:37,18,0,24.129,4654.9190698892,128.937012,0.447388,2.88923565676,0,0,-0.671082,76.2, 2.7, 5.6,0,0,1024,1024,1024,1024,74.9,-89.9,97,4.026,4.014,4.01,4.004,4.04,4.022,17.114,82.4,14,Waypoint,
38.4803489,-120.3385608,4655.9033218892,129.921264,0,2.1894357656,18500,2018-07-06 23:21:38,18,0,24.129,4655.9033218892,129.921264,0.447388,2.88923565676,0,0,-0.671082,76.2, 2.7, 6,0,0,1024,1024,1024,1024,74.9,-89.9,97,4.026,4.014,4.01,4.004,4.04,4.022,17.114,82.4,14,Waypoint,
38.480349,-120.3385609,4656.8875738892,130.905516,0,2.22036096344,18600,2018-07-06 23:21:38,18,0,24.129,4656.8875738892,130.905516,0.447388,2.88923565676,0,0,-0.671082,76, 2.6, 5.8,0,0,1024,1024,1024,1024,74.9,-89.9,97,4.026,4.014,4.01,4.004,4.04,4.022,17.114,82.4,14,Waypoint,
38.480349,-120.338561,4657.8718258892,131.889768,0,2.2157645066,18700,2018-07-06 23:21:38,18,0,24.129,4657.8718258892,131.889768,0.447388,2.88923565676,0,0,-0.671082,75.6, 2.7, 5.8,0,0,1024,1024,1024,1024,74.9,-89.9,97,4.026,4.014,4.01,4.004,4.04,4.022,17.114,82.4,14,Waypoint,
38.4803489,-120.338561,4658.8560778892,132.87402,0,2.1797244792,18800,2018-07-06 23:21:38,18,0,24.129,4658.8560778892,132.87402,0.447388,2.88923565676,0,0,-0.671082,75.1, 2.8, 5.7,0,0,1024,1024,1024,1024,74.9,-89.9,97,4.026,4.014,4.01,4.004,4.04,4.022,17.114,82.4,14,Waypoint,
38.4803488,-120.338561,4659.8403298892,133.858272,0,2.143700856,18900,2018-07-06 23:21:38,18,0,24.129,4659.8403298892,133.858272,0.447388,2.88923565676,0,0,-0.671082,74.8, 2.7, 5.4,0,0,1024,1024,1024,1024,74.9,-89.9,97,4.026,4.014,4.01,4.004,4.04,4.022,17.114,82.4,14,Waypoint,
38.4803487,-120.3385609,4660.4964978892,134.51444,0,2.11252631432,19000,2018-07-06 23:21:38,18,0,24.156,4660.4964978892,134.51444,0.447388,2.88923565676,0,0,-0.671082,74.7, 2.6, 4.7,0,0,1024,1024,1024,1024,74.9,-89.9,97,4.038,4.014,4.014,4.014,4.046,4.029,16.289,84.2,14,Waypoint,
38.4803486,-120.3385609,4661.4807498892,135.498692,0.223694,2.07662080136,19100,2018-07-06 23:21:38,18,0,24.156,4661.4807498892,135.498692,0.447388,2.88923565676,0,0,-0.671082,74.8, 2.6, 4.1,0,0,1024,1024,1024,1024,74.9,-89.9,97,4.038,4.014,4.014,4.014,4.046,4.029,16.289,84.2,14,Waypoint,
38.4803484,-120.3385609,4662.4650018892,136.482944,0.223694,2.00486883056,19200,2018-07-06 23:21:38,18,0,24.156,4662.4650018892,136.482944,0.447388,2.88923565676,0,0,-0.671082,75, 2.7, 3.5,0,0,1024,1024,1024,1024,74.9,-89.9,97,4.038,4.014,4.014,4.014,4.046,4.029,16.289,84.2,14,Waypoint,
38.4803483,-120.3385608,4663.1211698892,137.139112,0.223694,1.97460964324,19300,2018-07-06 23:21:38,18,0,24.156,4663.1211698892,137.139112,0.447388,2.88923565676,0,0,-0.671082,75.3, 2.9, 3.1,0,0,1024,1024,1024,1024,74.9,-89.9,97,4.038,4.014,4.014,4.014,4.046,4.029,16.289,84.2,14,Waypoint,
38.4803481,-120.3385608,4664.1054218892,138.123364,0.223694,1.90320872232,19400,2018-07-06 23:21:38,18,0,24.156,4664.1054218892,138.123364,0.447388,2.88923565676,0,0,-0.671082,75.5, 3.4, 2.6,0,0,1024,1024,1024,1024,74.9,-89.9,97,4.038,4.014,4.014,4.014,4.046,4.029,16.289,84.2,14,Waypoint,
38.4803479,-120.3385607,4665.0896738892,139.107616,0.223694,1.83837932392,19500,2018-07-06 23:21:39,18,0,24.156,4665.0896738892,139.107616,0.447388,2.88923565676,0,0,-0.671082,75.9, 3.8, 1.9,0,0,1024,1024,1024,1024,74.9,-89.9,97,4.038,4.014,4.014,4.014,4.046,4.029,16.289,84.2,14,Waypoint,
38.4803478,-120.3385607,4666.0739258892,140.091868,0.223694,1.80291672436,19600,2018-07-06 23:21:39,18,0,24.156,4666.0739258892,140.091868,0.447388,2.88923565676,0,0,-0.671082,76.3, 3.7, 1.7,0,0,1024,1024,1024,1024,74.9,-89.9,97,4.038,4.014,4.014,4.014,4.046,4.029,16.289,84.2,14,Waypoint,
38.4803476,-120.3385607,4668.0424298892,142.060372,0,1.73212603968,19800,2018-07-06 23:21:39,18,0,24.156,4668.0424298892,142.060372,0.447388,2.88923565676,0,0,-0.671082,76.8, 3.1, 2.1,0,0,1024,1024,1024,1024,74.9,-89.9,97,4.038,4.014,4.014,4.014,4.046,4.029,16.289,84.2,14,Waypoint,
38.4803476,-120.3385608,4669.0266818892,143.044624,0,1.72528220744,19900,2018-07-06 23:21:39,18,0,24.156,4669.0266818892,143.044624,0.447388,2.88923565676,0,0,-0.671082,76.8, 3, 2.5,0,0,1024,1024,1024,1024,74.9,-89.9,97,4.038,4.014,4.014,4.014,4.046,4.029,16.289,84.2,14,Waypoint,
38.4803476,-120.3385609,4670.3390178892,144.35696,0,1.71888785028,20000,2018-07-06 23:21:39,18,0,24.004,4670.3390178892,144.35696,0.447388,2.88923565676,0,0,-0.671082,76.6, 2.8, 3.1,0,0,1024,1024,1024,1024,74.9,-89.9,97,4.003,3.988,3.985,3.985,4.026,4.004,17.352,84.2,14,Waypoint,
38.4803476,-120.338561,4671.3232698892,145.341212,0,1.71294624904,20100,2018-07-06 23:21:39,18,0,24.004,4671.3232698892,145.341212,0.447388,2.88923565676,0,0,-0.671082,76.5, 2.6, 3.8,0,0,1024,1024,1024,1024,74.9,-90,97,4.003,3.988,3.985,3.985,4.026,4.004,17.352,84.2,14,Waypoint,
38.4803476,-120.3385611,4672.6356058892,146.653548,0,1.70746068456,20200,2018-07-06 23:21:39,18,0,24.004,4672.6356058892,146.653548,0.447388,2.88923565676,0,0,-0.671082,76.4, 2.5, 4,0,0,1024,1024,1024,1024,74.9,-90,97,4.003,3.988,3.985,3.985,4.026,4.004,17.352,84.2,14,Waypoint,
38.4803476,-120.3385611,4673.6198578892,147.6378,0,1.70746068456,20300,2018-07-06 23:21:39,18,0,24.004,4673.6198578892,147.6378,0.447388,2.88923565676,0,0,-0.671082,76.1, 2.4, 4.2,0,0,1024,1024,1024,1024,74.9,-90,97,4.003,3.988,3.985,3.985,4.026,4.004,17.352,84.2,14,Waypoint,
38.4803475,-120.3385612,4675.5883618892,149.606304,0,1.66647971212,20500,2018-07-06 23:21:40,18,0,24.004,4675.5883618892,149.606304,0.447388,2.88923565676,0,0,-0.671082,75.9, 2.3, 3.9,0,0,1024,1024,1024,1024,74.9,-90,97,4.003,3.988,3.985,3.985,4.026,4.004,17.352,84.2,14,Waypoint,
38.4803475,-120.3385613,4676.5726138892,150.590556,0,1.66182420016,20600,2018-07-06 23:21:40,18,0,24.004,4676.5726138892,150.590556,0.447388,2.88923565676,0,0,-0.671082,75.9, 2.4, 3.8,0,0,1024,1024,1024,1024,74.9,-90,97,4.003,3.988,3.985,3.985,4.026,4.004,17.352,84.2,14,Waypoint,
38.4803474,-120.3385614,4677.5568658892,151.574808,0,1.62151579992,20700,2018-07-06 23:21:40,18,0,24.004,4677.5568658892,151.574808,0.447388,2.88923565676,0,0,-0.671082,75.9, 2.4, 3.8,0,0,1024,1024,1024,1024,74.9,-90,97,4.003,3.988,3.985,3.985,4.026,4.004,17.352,84.2,14,Waypoint,
38.4803474,-120.3385614,4678.5411178892,152.55906,0,1.62151579992,20800,2018-07-06 23:21:40,18,0,24.004,4678.5411178892,152.55906,0.447388,2.88923565676,0,0,-0.671082,76, 2.3, 3.7,0,0,1024,1024,1024,1024,74.9,-90,97,4.003,3.988,3.985,3.985,4.026,4.004,17.352,84.2,14,Waypoint,
38.4803473,-120.3385615,4679.5253698892,153.543312,0,1.58153876452,20900,2018-07-06 23:21:40,18,0,24.004,4679.5253698892,153.543312,0.447388,2.88923565676,0,0,-0.671082,76.1, 2.1, 3.6,0,0,1024,1024,1024,1024,74.9,-90,97,4.003,3.988,3.985,3.985,4.026,4.004,17.352,84.2,14,Waypoint,
38.4803473,-120.3385616,4680.5096218892,154.527564,0,1.5781824652,21000,2018-07-06 23:21:40,18,0,23.946,4680.5096218892,154.527564,0.447388,2.88923565676,0,0,-0.671082,76.3, 2, 3.5,0,0,1024,1024,1024,1024,74.9,-90,97,3.999,3.986,3.976,3.984,4.02,3.996,18.08,84.2,14,Waypoint,
38.4803473,-120.3385617,4681.8219578892,155.8399,0,1.57533797692,21100,2018-07-06 23:21:40,18,0,23.946,4681.8219578892,155.8399,0.447388,2.88923565676,0,0,-0.671082,76.4, 1.9, 3.6,0,0,1024,1024,1024,1024,74.9,-90,97,3.999,3.986,3.976,3.984,4.02,3.996,18.08,84.2,14,Waypoint,
38.4803473,-120.3385617,4682.8062098892,156.824152,0,1.57533797692,21200,2018-07-06 23:21:40,18,0,23.946,4682.8062098892,156.824152,0.447388,2.88923565676,0,0,-0.671082,76.5, 1.8, 3.8,0,0,1024,1024,1024,1024,74.9,-90,97,3.999,3.986,3.976,3.984,4.02,3.996,18.08,84.2,14,Waypoint,
38.4803473,-120.3385618,4683.7904618892,157.808404,0,1.57300529968,21300,2018-07-06 23:21:40,18,0,23.946,4683.7904618892,157.808404,0.447388,2.88923565676,0,0,-0.671082,76.6, 1.9, 4.2,0,0,1024,1024,1024,1024,74.9,-90,97,3.999,3.986,3.976,3.984,4.02,3.996,18.08,84.2,14,Waypoint,
38.4803473,-120.3385618,4684.7747138892,158.792656,0,1.57300529968,21400,2018-07-06 23:21:40,18,0,23.946,4684.7747138892,158.792656,0.447388,2.88923565676,0,0,-0.671082,76.5, 2, 4.2,0,0,1024,1024,1024,1024,74.9,-90,97,3.999,3.986,3.976,3.984,4.02,3.996,18.08,84.2,14,Waypoint,
38.4803473,-120.3385618,4685.7589658892,159.776908,0,1.57300529968,21500,2018-07-06 23:21:41,18,0,23.946,4685.7589658892,159.776908,0.447388,2.88923565676,0,0,-0.671082,76.2, 1.9, 4.3,0,0,1024,1024,1024,1024,74.9,-90,97,3.999,3.986,3.976,3.984,4.02,3.996,18.08,84.2,14,Waypoint,
38.4803473,-120.3385619,4686.7432178892,160.76116,0,1.57119099516,21600,2018-07-06 23:21:41,18,0,23.946,4686.7432178892,160.76116,0.447388,2.88923565676,0,0,-0.671082,75.9, 2, 4,0,0,1024,1024,1024,1024,74.9,-90,97,3.999,3.986,3.976,3.984,4.02,3.996,18.08,84.2,14,Waypoint,
38.4803473,-120.3385619,4687.7274698892,161.745412,0,1.57119099516,21700,2018-07-06 23:21:41,18,0,23.946,4687.7274698892,161.745412,0.447388,2.88923565676,0,0,-0.671082,75.7, 2.3, 3.9,0,0,1024,1024,1024,1024,74.9,-89.9,97,3.999,3.986,3.976,3.984,4.02,3.996,18.08,84.2,14,Waypoint,
38.4803473,-120.3385619,4688.7117218892,162.729664,0,1.57119099516,21800,2018-07-06 23:21:41,18,0,23.946,4688.7117218892,162.729664,0.447388,2.88923565676,0,0,-0.671082,75.4, 2.6, 3.8,0,0,1024,1024,1024,1024,74.9,-89.9,97,3.999,3.986,3.976,3.984,4.02,3.996,18.08,84.2,14,Waypoint,
38.4803473,-120.3385619,4689.6959738892,163.713916,0,1.57119099516,21900,2018-07-06 23:21:41,18,0,23.946,4689.6959738892,163.713916,0.447388,2.88923565676,0,0,-0.671082,75.3, 3, 3.8,0,0,1024,1024,1024,1024,74.9,-89.9,97,3.999,3.986,3.976,3.984,4.02,3.996,18.08,84.2,14,Waypoint,
38.4803472,-120.3385619,4690.6802258892,164.698168,0,1.5347605478,22000,2018-07-06 23:21:41,18,0,24.127,4690.6802258892,164.698168,0.447388,2.88923565676,0,0,-0.671082,75.3, 3.2, 3.7,0,0,1024,1024,1024,1024,74.9,-89.9,97,4.032,4.009,4.009,4.003,4.044,4.028,15.5,84.2,14,Waypoint,
38.4803472,-120.3385619,4691.6644778892,165.68242,0,1.5347605478,22100,2018-07-06 23:21:41,18,0,24.127,4691.6644778892,165.68242,0.447388,2.88923565676,0,0,-0.671082,75.3, 3.2, 3.5,0,0,1024,1024,1024,1024,74.9,-89.9,97,4.032,4.009,4.009,4.003,4.044,4.028,15.5,84.2,14,Waypoint,
38.4803472,-120.3385619,4692.3206458892,166.338588,0,1.5347605478,22200,2018-07-06 23:21:41,18,0,24.127,4692.3206458892,166.338588,0.447388,2.88923565676,0,0,-0.671082,75.4, 3.1, 3.4,0,0,1024,1024,1024,1024,74.9,-89.9,97,4.032,4.009,4.009,4.003,4.044,4.028,15.5,84.2,14,Waypoint,
38.4803472,-120.338562,4693.3048978892,167.32284,0,1.5334318076,22300,2018-07-06 23:21:41,18,0,24.127,4693.3048978892,167.32284,0.447388,2.88923565676,0,0,-0.671082,75.5, 2.9, 3.4,0,0,1024,1024,1024,1024,74.9,-89.9,97,4.032,4.009,4.009,4.003,4.044,4.028,15.5,84.2,14,Waypoint,
38.4803472,-120.338562,4694.2891498892,168.307092,0,1.5334318076,22400,2018-07-06 23:21:41,18,0,24.127,4694.2891498892,168.307092,0.447388,2.88923565676,0,0,-0.671082,75.6, 2.6, 3.4,0,0,1024,1024,1024,1024,74.9,-89.9,97,4.032,4.009,4.009,4.003,4.044,4.028,15.5,84.2,14,Waypoint,
38.4803472,-120.3385621,4696.2576538892,170.275596,0,1.53263456348,22600,2018-07-06 23:21:42,18,0,24.127,4696.2576538892,170.275596,0.447388,2.88923565676,0,0,-0.671082,75.7, 2.5, 3.6,0,0,1024,1024,1024,1024,74.9,-89.9,97,4.032,4.009,4.009,4.003,4.044,4.028,15.5,84.2,14,Waypoint,
38.4803472,-120.3385621,4696.9138218892,170.931764,0,1.53263456348,22800,2018-07-06 23:21:42,18,0,24.127,4696.9138218892,170.931764,0.447388,2.88923565676,0,0,-0.671082,75.7, 2.5, 3.6,0,0,1024,1024,1024,1024,74.9,-89.9,97,4.032,4.009,4.009,4.003,4.044,4.028,15.5,84.2,14,Waypoint,
38.4803473,-120.3385622,4698.8823258892,172.900268,0,1.56885175624,22900,2018-07-06 23:21:42,18,0,24.127,4698.8823258892,172.900268,0.447388,2.88923565676,0,0,-0.671082,75.4, 2.8, 3.8,0,0,1024,1024,1024,1024,74.9,-89.9,97,4.032,4.009,4.009,4.003,4.044,4.028,15.5,84.2,14,Waypoint,
38.4803473,-120.3385623,4700.5227458892,174.540688,0,1.5691109426,23100,2018-07-06 23:21:42,18,0,24.127,4700.5227458892,174.540688,0.447388,2.88923565676,0,0,-0.671082,75.3, 3.1, 3.9,0,0,1024,1024,1024,1024,74.9,-89.9,97,4.032,4.009,4.009,4.003,4.044,4.028,15.5,84.2,14,Waypoint,
38.4803473,-120.3385623,4701.5069978892,175.52494,0,1.5691109426,23200,2018-07-06 23:21:42,18,0,24.127,4701.5069978892,175.52494,0.447388,2.88923565676,0,0,-0.671082,75.4, 3.1, 4,0,0,1024,1024,1024,1024,74.9,-89.9,97,4.032,4.009,4.009,4.003,4.044,4.028,15.5,84.2,14,Waypoint,
38.4803473,-120.3385623,4702.4912498892,176.509192,0,1.5691109426,23300,2018-07-06 23:21:42,18,0,24.127,4702.4912498892,176.509192,0.447388,2.88923565676,0,0,-0.671082,75.6, 2.8, 3.9,0,0,1024,1024,1024,1024,74.9,-89.9,97,4.032,4.009,4.009,4.003,4.044,4.028,15.5,84.2,14,Waypoint,
38.4803473,-120.3385623,4703.4755018892,177.493444,0,1.5691109426,23400,2018-07-06 23:21:42,18,0,24.127,4703.4755018892,177.493444,0.447388,2.88923565676,0,0,-0.671082,75.9, 2.5, 3.8,0,0,1024,1024,1024,1024,74.9,-90,97,4.032,4.009,4.009,4.003,4.044,4.028,15.5,84.2,14,Waypoint,
38.4803473,-120.3385623,4704.4597538892,178.477696,0,1.5691109426,23500,2018-07-06 23:21:43,18,0,24.127,4704.4597538892,178.477696,0.447388,2.88923565676,0,0,-0.671082,76.2, 2.2, 3.6,0,0,1024,1024,1024,1024,74.9,-90,97,4.032,4.009,4.009,4.003,4.044,4.028,15.5,84.2,14,Waypoint,
38.4803473,-120.3385623,4705.4440058892,179.461948,0,1.5691109426,23600,2018-07-06 23:21:43,18,0,24.127,4705.4440058892,179.461948,0.447388,2.88923565676,0,0,-0.671082,76.5, 2.2, 3,0,0,1024,1024,1024,1024,74.9,-89.9,97,4.032,4.009,4.009,4.003,4.044,4.028,15.5,84.2,14,Waypoint,
38.4803473,-120.3385623,4706.1001738892,180.118116,0,1.5691109426,23700,2018-07-06 23:21:43,18,0,24.127,4706.1001738892,180.118116,0.447388,2.88923565676,0,0,-0.671082,76.6, 2.6, 2.9,0,0,1024,1024,1024,1024,74.9,-89.9,97,4.032,4.009,4.009,4.003,4.044,4.028,15.5,84.2,14,Waypoint,
38.4803472,-120.3385623,4707.0844258892,181.102368,0,1.53263456348,23800,2018-07-06 23:21:43,18,0,24.127,4707.0844258892,181.102368,0.447388,2.88923565676,0,0,-0.671082,76.4, 3.1, 3,0,0,1024,1024,1024,1024,74.9,-89.9,97,4.032,4.009,4.009,4.003,4.044,4.028,15.5,84.2,14,Waypoint,
38.4803472,-120.3385623,4708.0686778892,182.08662,0,1.53263456348,23900,2018-07-06 23:21:43,18,0,24.127,4708.0686778892,182.08662,0.447388,2.88923565676,0,0,-0.671082,76.1, 3.2, 3.2,0,0,1024,1024,1024,1024,74.9,-89.9,97,4.032,4.009,4.009,4.003,4.044,4.028,15.5,84.2,14,Waypoint,
38.4803472,-120.3385622,4709.0529298892,183.070872,0,1.53236881544,24000,2018-07-06 23:21:43,18,0,24.065,4709.0529298892,183.070872,0.447388,2.88923565676,0,0,-0.671082,75.8, 3.1, 3.1,0,0,1024,1024,1024,1024,74.9,-89.9,97,4.02,4.008,3.989,3.993,4.014,4.017,17.068,84.2,14,Waypoint,
38.4803471,-120.3385622,4710.0371818892,184.055124,0,1.4958825938,24100,2018-07-06 23:21:43,18,0,24.065,4710.0371818892,184.055124,0.447388,2.88923565676,0,0,-0.671082,75.6, 3, 3.1,0,0,1024,1024,1024,1024,74.9,-89.9,97,4.02,4.008,3.989,3.993,4.014,4.017,17.068,84.2,14,Waypoint,
38.4803471,-120.3385621,4711.0214338892,185.039376,0,1.49615490352,24200,2018-07-06 23:21:43,18,0,24.065,4711.0214338892,185.039376,0.447388,2.88923565676,0,0,-0.671082,75.5, 2.9, 3,0,0,1024,1024,1024,1024,74.9,-89.9,97,4.02,4.008,3.989,3.993,4.014,4.017,17.068,84.2,14,Waypoint,
38.4803471,-120.3385621,4712.0056858892,186.023628,0,1.49615490352,24300,2018-07-06 23:21:43,18,0,24.065,4712.0056858892,186.023628,0.447388,2.88923565676,0,0,-0.671082,75.4, 3, 3.1,0,0,1024,1024,1024,1024,74.9,-89.9,97,4.02,4.008,3.989,3.993,4.014,4.017,17.068,84.2,14,Waypoint,
38.4803471,-120.338562,4712.9899378892,187.00788,0,1.49697183268,24400,2018-07-06 23:21:43,18,0,24.065,4712.9899378892,187.00788,0.447388,2.88923565676,0,0,-0.671082,75.4, 3, 3.2,0,0,1024,1024,1024,1024,74.9,-89.9,97,4.02,4.008,3.989,3.993,4.014,4.017,17.068,84.2,14,Waypoint,
38.480347,-120.338562,4714.3022738892,188.320216,0,1.4605151386,24500,2018-07-06 23:21:44,18,0,24.065,4714.3022738892,188.320216,0.447388,2.88923565676,0,0,-0.671082,75.4, 2.9, 2.9,0,0,1024,1024,1024,1024,74.9,-89.9,97,4.02,4.008,3.989,3.993,4.014,4.017,17.068,84.2,14,Waypoint,
38.480347,-120.3385619,4715.2865258892,189.304468,0,1.4619094956,24600,2018-07-06 23:21:44,18,0,24.065,4715.2865258892,189.304468,0.447388,2.88923565676,0,0,-0.671082,75.4, 3, 2.6,0,0,1024,1024,1024,1024,74.9,-89.9,97,4.02,4.008,3.989,3.993,4.014,4.017,17.068,84.2,14,Waypoint,
38.4803469,-120.3385619,4716.2707778892,190.28872,0,1.42548889076,24700,2018-07-06 23:21:44,18,0,24.065,4716.2707778892,190.28872,0.447388,2.88923565676,0,0,-0.671082,75.3, 3.2, 2.4,0,0,1024,1024,1024,1024,74.9,-89.9,97,4.02,4.008,3.989,3.993,4.014,4.017,17.068,84.2,14,Waypoint,
38.4803468,-120.3385618,4717.2550298892,191.272972,0,1.3911253726,24800,2018-07-06 23:21:44,18,0,24.065,4717.2550298892,191.272972,0.447388,2.88923565676,0,0,-0.671082,75.3, 3.3, 2.2,0,0,1024,1024,1024,1024,74.9,-89.9,97,4.02,4.008,3.989,3.993,4.014,4.017,17.068,84.2,14,Waypoint,
38.4803466,-120.3385616,4720.5358698892,194.553812,0,1.3245899374,25000,2018-07-06 23:21:44,18,0,24.009,4720.5358698892,194.553812,0.447388,2.88923565676,0,0,-0.671082,75.4, 3.3, 2.1,0,0,1024,1024,1024,1024,74.9,-89.9,97,4.003,3.997,3.985,3.994,4.025,4.013,17.032,84.2,14,Waypoint,
38.4803465,-120.3385615,4722.5043738892,196.522316,0,1.29252956892,25300,2018-07-06 23:21:44,18,0,24.009,4722.5043738892,196.522316,0.447388,2.88923565676,0,0,-0.671082,75.8, 3.3, 1.9,0,0,1024,1024,1024,1024,74.9,-89.9,97,4.003,3.997,3.985,3.994,4.025,4.013,17.032,84.2,14,Waypoint,
38.4803464,-120.3385614,4723.8167098892,197.834652,0,1.26135502724,25400,2018-07-06 23:21:44,18,0,24.009,4723.8167098892,197.834652,0.447388,2.88923565676,0,0,-0.671082,76, 3.3, 1.8,0,0,1024,1024,1024,1024,74.9,-89.9,97,4.003,3.997,3.985,3.994,4.025,4.013,17.032,84.2,14,Waypoint,
38.4803463,-120.3385614,4724.8009618892,198.818904,0,1.2254921652,25500,2018-07-06 23:21:45,18,0,24.009,4724.8009618892,198.818904,0.447388,2.88923565676,0,0,-0.671082,76.1, 3.2, 1.6,0,0,1024,1024,1024,1024,74.9,-89.9,97,4.003,3.997,3.985,3.994,4.025,4.013,17.032,84.2,14,Waypoint,
38.4803462,-120.3385614,4725.7852138892,199.803156,0,1.1896653924,25600,2018-07-06 23:21:45,18,0,24.009,4725.7852138892,199.803156,0.447388,2.88923565676,0,0,-0.671082,76.1, 3.1, 1.6,0,0,1024,1024,1024,1024,74.9,-89.9,97,4.003,3.997,3.985,3.994,4.025,4.013,17.032,84.2,14,Waypoint,
38.4803461,-120.3385613,4726.7694658892,200.787408,0,1.1598753652,25700,2018-07-06 23:21:45,18,0,24.009,4726.7694658892,200.787408,0.447388,2.88923565676,0,0,-0.671082,76, 3.1, 1.5,0,0,1024,1024,1024,1024,74.9,-89.9,97,4.003,3.997,3.985,3.994,4.025,4.013,17.032,84.2,14,Waypoint,
38.480346,-120.3385613,4727.7537178892,201.77166,0,1.1243274638,25800,2018-07-06 23:21:45,18,0,24.009,4727.7537178892,201.77166,0.447388,2.88923565676,0,0,-0.671082,75.8, 3.2, 1.5,0,0,1024,1024,1024,1024,74.9,-89.9,97,4.003,3.997,3.985,3.994,4.025,4.013,17.032,84.2,14,Waypoint,
38.4803459,-120.3385613,4728.7379698892,202.755912,0,1.08883861752,25900,2018-07-06 23:21:45,18,0,24.009,4728.7379698892,202.755912,0.447388,2.88923565676,0,0,-0.671082,75.6, 3.3, 1.5,0,0,1024,1024,1024,1024,74.9,-89.9,97,4.003,3.997,3.985,3.994,4.025,4.013,17.032,84.2,14,Waypoint,
38.4803458,-120.3385612,4729.7222218892,203.740164,0,1.06075134628,26000,2018-07-06 23:21:45,18,0,24.085,4729.7222218892,203.740164,0.447388,2.88923565676,0,0,-0.671082,75.4, 3.5, 1.5,0,0,1024,1024,1024,1024,74.9,-89.9,97,4.003,3.997,3.985,3.994,4.025,4.013,16.003,84.2,14,Waypoint,
38.4803458,-120.3385612,4730.7064738892,204.724416,0,1.06075134628,26100,2018-07-06 23:21:45,18,0,24.085,4730.7064738892,204.724416,0.447388,2.88923565676,0,0,-0.671082,75.2, 3.3, 1.5,0,0,1024,1024,1024,1024,74.9,-89.9,97,4.003,3.997,3.985,3.994,4.025,4.013,16.003,84.2,14,Waypoint,
