Latitude, Longitude, Altitude (m), Time, Sats, Speed (m/s), Range (m), Battery (%), Roll (deg), Pitch (deg), Yaw (deg), Images, HD Signal (%), RC Signal (%), Battery Temp (C), Battery Voltage (mV), Battery Current (mA), Battery Energy (mAh), Battery Capacity (mAh), Battery Discharges, flyState, timestamp (Unix), LastUpdate (ms), radioChannel, Rc_elevator, Rc_aileron, Rc_throttle, Rc_rudder, Rc_gyro, Dronetype, Battery_Cell1 (mV), Battery_Cell2 (mV), Battery_Cell3 (mV), Battery_Cell4 (mV), Battery_Cell5 (mV), Battery_Cell6 (mV), Video, isFlying, elapsedTime (ms), gimbalPitch (deg), gimbalRoll (deg), gimbalYaw (deg), VelocityX (m/s), VelocityY (m/s), VelocityZ (m/s), GroundSmear (cm), App Version, Aircraft Name, Aircraft Firmware, Aircraft Serial Number, Battery Serial Number, Battery Lifetime (%), App_Tip, App_Warning, CurrentFlightStartingIndex, CurrentFlightLastVisitedWaypoint, PreviousFlightEndingWaypointIndex
36.7935171, -118.9150255, 0.000, 12:43:03.082, 11, 0.00, 0.02, 97, -1.400, 0.400, -134.900, 985, 100, 100, 18, 25449, -3929, 4292, 4425, 5, 11, 1523821383.084, 50, 0, 1024, 1024, 1024, 1024, 0, 6, 4254, 4234, 4244, 4222, 4266, 4245, 0, 1, 3002, -90.000, 0.000, -136.200, 0.000, 0.000, -0.100, 0.0, MapPilot_2.7.4_02272018, Dendroctonus I, 1.3.1.00, 041DDC1887, 9971171300641, 99, DJI_0238.jpg, Starting Mission from Lat/Long: 36.79352/-118.91503 Camera: Zenmuse X3 - Overlap: 90/90 - Active Connection: Yes, 67, 67, 67
36.7935170, -118.9150254, 0.000, 12:43:03.183, 11, 0.10, 0.03, 97, -0.900, 0.000, -134.700, 985, 100, 100, 18, 25449, -3929, 4292, 4425, 5, 11, 1523821383.183, 26, 0, 1024, 1024, 1024, 1024, 0, 6, 4254, 4234, 4244, 4222, 4266, 4245, 0, 1, 3101, -90.000, 0.000, -136.200, 0.000, 0.100, -0.300, 0.0, , , , , , 99, , , 67, 67, 67
36.7935169, -118.9150253, 0.000, 12:43:03.283, 11, 0.14, 0.05, 97, -0.300, 0.000, -134.700, 985, 100, 100, 18, 25449, -3929, 4292, 4425, 5, 11, 1523821383.283, 50, 0, 1024, 1024, 1024, 1024, 0, 6, 4254, 4234, 4244, 4222, 4266, 4245, 0, 1, 3201, -90.000, 0.000, -136.200, -0.100, 0.100, -0.400, 0.0, , , , , , 99, , , 67, 67, 67
36.7935168, -118.9150251, 0.100, 12:43:03.383, 11, 0.14, 0.07, 97, 0.500, -0.100, -134.600, 985, 100, 100, 18, 25449, -3929, 4292, 4425, 5, 11, 1523821383.383, 39, 0, 1024, 1024, 1024, 1024, 0, 6, 4254, 4234, 4244, 4222, 4266, 4245, 0, 1, 3301, -90.000, 0.000, -136.200, -0.100, 0.100, -0.300, 0.0, , , , , , 99, , , 67, 67, 67
36.7935167, -118.9150249, 0.100, 12:43:03.483, 12, 0.14, 0.09, 97, 1.500, -0.100, -134.600, 985, 100, 100, 18, 25449, -3929, 4292, 4425, 5, 11, 1523821383.484, 46, 0, 1024, 1024, 1024, 1024, 0, 6, 4254, 4234, 4244, 4222, 4266, 4245, 0, 1, 3402, -89.900, 0.000, -136.100, -0.100, 0.100, -0.300, 0.0, , , , , , 99, , , 67, 67, 67
36.7935166, -118.9150248, 0.100, 12:43:03.583, 12, 0.14, 0.10, 97, 2.100, 0.000, -134.600, 985, 100, 100, 18, 25449, -3929, 4292, 4425, 5, 11, 1523821383.584, 30, 0, 1024, 1024, 1024, 1024, 0, 6, 4254, 4234, 4244, 4222, 4266, 4245, 0, 1, 3502, -89.900, 0.000, -136.100, -0.100, 0.100, -0.300, 0.0, , , , , , 99, , , 67, 67, 67
36.7935165, -118.9150247, 0.200, 12:43:03.683, 13, 0.10, 0.12, 97, 2.100, 0.300, -134.700, 985, 100, 100, 18, 25449, -3929, 4292, 4425, 5, 11, 1523821383.684, 30, 0, 1024, 1024, 1024, 1024, 0, 6, 4254, 4234, 4244, 4222, 4266, 4245, 0, 1, 3601, -89.900, 0.000, -136.100, -0.100, 0.000, -0.400, 0.0, , , , , , 99, , , 67, 67, 67
36.7935164, -118.9150246, 0.200, 12:43:03.783, 13, 0.10, 0.13, 97, 1.800, 0.400, -134.800, 985, 100, 100, 18, 25449, -3929, 4292, 4425, 5, 11, 1523821383.784, 30, 0, 1024, 1024, 1024, 1024, 0, 6, 4254, 4234, 4244, 4222, 4266, 4245, 0, 1, 3702, -90.000, 0.000, -136.100, -0.100, 0.000, -0.400, 0.0, , , , , , 99, , , 67, 67, 67
36.7935164, -118.9150245, 0.300, 12:43:03.883, 12, 0.10, 0.14, 97, 1.300, 0.400, -134.900, 985, 100, 100, 18, 24961, -9245, 4292, 4425, 5, 11, 1523821383.885, 19, 0, 1024, 1024, 1024, 1024, 0, 6, 4073, 4125, 4099, 4144, 4138, 4052, 0, 1, 3803, -90.000, 0.000, -136.100, -0.100, 0.000, -0.300, 0.0, , , , , , 99, , , 67, 67, 67
36.7935163, -118.9150245, 0.300, 12:43:03.987, 12, 0.00, 0.14, 97, 1.200, 0.400, -135.000, 985, 100, 100, 18, 24961, -9245, 4292, 4425, 5, 11, 1523821383.988, 10, 0, 1024, 1024, 1024, 1024, 0, 6, 4073, 4125, 4099, 4144, 4138, 4052, 0, 1, 3906, -90.000, 0.000, -136.100, 0.000, 0.000, -0.400, 0.0, , , , , , 99, , , 67, 67, 67
36.7935162, -118.9150245, 0.300, 12:43:04.084, 11, 0.00, 0.15, 97, 1.500, 0.400, -135.100, 985, 100, 100, 18, 24961, -9245, 4292, 4425, 5, 11, 1523821384.084, 9, 0, 1024, 1024, 1024, 1024, 0, 6, 4073, 4125, 4099, 4144, 4138, 4052, 0, 1, 4002, -89.900, 0.000, -136.000, 0.000, 0.000, -0.400, 0.0, , , , , , 99, , , 67, 67, 67
36.7935161, -118.9150244, 0.400, 12:43:04.183, 11, 0.00, 0.16, 97, 1.700, 0.400, -135.200, 985, 100, 100, 18, 24961, -9245, 4292, 4425, 5, 11, 1523821384.184, 22, 0, 1024, 1024, 1024, 1024, 0, 6, 4073, 4125, 4099, 4144, 4138, 4052, 0, 1, 4102, -89.900, 0.000, -136.000, 0.000, 0.000, -0.400, 0.0, , , , , , 99, , , 67, 67, 67
36.7935161, -118.9150244, 0.400, 12:43:04.283, 11, 0.00, 0.16, 97, 1.700, 0.400, -135.200, 985, 100, 100, 18, 24961, -9245, 4292, 4425, 5, 11, 1523821384.284, 121, 0, 1024, 1024, 1024, 1024, 0, 6, 4073, 4125, 4099, 4144, 4138, 4052, 0, 1, 4201, -89.900, 0.000, -136.000, 0.000, 0.000, -0.400, 0.0, , , , , , 99, , , 67, 67, 67
36.7935159, -118.9150244, 0.500, 12:43:04.383, 13, 0.00, 0.19, 97, 1.400, 0.700, -135.300, 985, 100, 100, 18, 24961, -9245, 4292, 4425, 5, 11, 1523821384.384, 78, 0, 1024, 1024, 1024, 1024, 0, 6, 4073, 4125, 4099, 4144, 4138, 4052, 0, 1, 4302, -89.900, 0.000, -136.000, 0.000, 0.000, -0.500, 0.0, , , , , , 99, , , 67, 67, 67
36.7935159, -118.9150244, 0.500, 12:43:04.483, 13, 0.00, 0.19, 97, 1.400, 0.700, -135.300, 985, 100, 100, 18, 24961, -9245, 4292, 4425, 5, 11, 1523821384.484, 178, 0, 1024, 1024, 1024, 1024, 0, 6, 4073, 4125, 4099, 4144, 4138, 4052, 0, 1, 4402, -89.900, 0.000, -136.000, 0.000, 0.000, -0.500, 0.0, , , , , , 99, , , 67, 67, 67
36.7935157, -118.9150245, 0.600, 12:43:04.582, 13, 0.00, 0.19, 97, 1.100, 0.900, -135.200, 985, 100, 100, 18, 24961, -9245, 4292, 4425, 5, 11, 1523821384.584, 82, 0, 1024, 1024, 1024, 1024, 0, 6, 4073, 4125, 4099, 4144, 4138, 4052, 0, 1, 4501, -89.900, 0.000, -136.000, 0.000, 0.000, -0.500, 0.0, , , , , , 99, , , 67, 67, 67
36.7935156, -118.9150244, 0.700, 12:43:04.682, 13, 0.00, 0.20, 97, 1.100, 1.000, -135.100, 985, 100, 100, 18, 24961, -9245, 4292, 4425, 5, 11, 1523821384.683, 65, 0, 1024, 1024, 1024, 1024, 0, 6, 4073, 4125, 4099, 4144, 4138, 4052, 0, 1, 4600, -89.900, 0.000, -136.000, 0.000, 0.000, -0.500, 0.0, , , , , , 99, , , 67, 67, 67
36.7935156, -118.9150243, 0.700, 12:43:04.783, 13, 0.00, 0.21, 97, 1.100, 1.000, -135.000, 985, 100, 100, 18, 24961, -9245, 4292, 4425, 5, 11, 1523821384.784, 61, 0, 1024, 1024, 1024, 1024, 0, 6, 4073, 4125, 4099, 4144, 4138, 4052, 0, 1, 4702, -89.900, 0.000, -136.000, 0.000, 0.000, -0.500, 0.0, , , , , , 99, , , 67, 67, 67
36.7935154, -118.9150243, 0.800, 12:43:04.883, 13, 0.00, 0.23, 97, 1.400, 1.000, -134.900, 985, 100, 100, 18, 24181, -16215, 4248, 4425, 5, 11, 1523821384.883, 63, 0, 1024, 1024, 1024, 1024, 0, 6, 4010, 4019, 4032, 4031, 4027, 4024, 0, 1, 4801, -89.900, 0.000, -136.000, 0.000, 0.000, -0.500, 0.0, , , , , , 99, , , 67, 67, 67
36.7935153, -118.9150244, 0.900, 12:43:04.982, 13, 0.00, 0.24, 97, 1.600, 1.200, -134.800, 985, 100, 100, 18, 24181, -16215, 4248, 4425, 5, 11, 1523821384.983, 68, 0, 1024, 1024, 1024, 1024, 0, 6, 4010, 4019, 4032, 4031, 4027, 4024, 0, 1, 4901, -89.900, 0.000, -136.000, 0.000, 0.000, -0.500, 0.0, , , , , , 99, , , 67, 67, 67
36.7935152, -118.9150244, 0.900, 12:43:05.083, 15, 0.00, 0.25, 97, 1.800, 1.500, -134.900, 985, 100, 100, 18, 24181, -16215, 4248, 4425, 5, 14, 1523821385.084, 68, 0, 1024, 1024, 1024, 1024, 0, 6, 4010, 4019, 4032, 4031, 4027, 4024, 0, 1, 5002, -89.900, 0.000, -136.000, 0.000, 0.000, -0.400, 0.0, , , , , , 99, , , 67, 67, 67
36.7935151, -118.9150244, 1.000, 12:43:05.183, 15, 0.00, 0.25, 97, 1.600, 1.500, -134.900, 985, 100, 100, 18, 24181, -16215, 4248, 4425, 5, 14, 1523821385.184, 45, 0, 1029, 1024, 1024, 1024, 0, 6, 4010, 4019, 4032, 4031, 4027, 4024, 0, 1, 5101, -89.900, 0.000, -136.000, 0.000, 0.000, -0.300, 0.0, , , , , , 99, , , 67, 67, 67
36.7935150, -118.9150244, 1.000, 12:43:05.283, 14, 0.00, 0.27, 97, 1.100, 1.300, -135.000, 985, 100, 100, 18, 24181, -16215, 4248, 4425, 5, 14, 1523821385.284, 72, 0, 1024, 1024, 1024, 1024, 0, 6, 4010, 4019, 4032, 4031, 4027, 4024, 0, 1, 5202, -89.900, 0.000, -136.000, 0.000, 0.000, -0.200, 0.0, , , , , , 99, , , 67, 67, 67
36.7935148, -118.9150244, 1.000, 12:43:05.383, 14, 0.00, 0.28, 97, 1.000, 1.100, -135.200, 985, 100, 100, 18, 24181, -16215, 4248, 4425, 5, 14, 1523821385.383, 45, 0, 1024, 1024, 1024, 1024, 0, 6, 4010, 4019, 4032, 4031, 4027, 4024, 0, 1, 5301, -90.000, 0.000, -136.000, 0.000, 0.000, -0.200, 0.0, , , , , , 99, , , 67, 67, 67
36.7935147, -118.9150243, 1.100, 12:43:05.483, 15, 0.00, 0.29, 97, 1.100, 1.100, -135.200, 985, 100, 100, 18, 24181, -16215, 4248, 4425, 5, 14, 1523821385.484, 65, 0, 1024, 1024, 1024, 1024, 0, 6, 4010, 4019, 4032, 4031, 4027, 4024, 0, 1, 5402, -90.000, 0.000, -136.000, 0.000, 0.000, -0.300, 0.0, , , , , , 99, , , 67, 67, 67
36.7935146, -118.9150242, 1.100, 12:43:05.583, 15, 0.00, 0.31, 97, 1.200, 0.900, -135.100, 985, 100, 100, 18, 24181, -16215, 4248, 4425, 5, 14, 1523821385.583, 58, 0, 1024, 1024, 1024, 1024, 0, 6, 4010, 4019, 4032, 4031, 4027, 4024, 0, 1, 5501, -90.000, 0.000, -136.000, 0.000, 0.000, -0.400, 0.0, , , , , , 99, , , 67, 67, 67
36.7935145, -118.9150241, 1.200, 12:43:05.683, 14, 0.00, 0.32, 97, 1.500, 0.800, -135.000, 985, 100, 100, 18, 24181, -16215, 4248, 4425, 5, 14, 1523821385.684, 41, 0, 1024, 1024, 1024, 1024, 0, 6, 4010, 4019, 4032, 4031, 4027, 4024, 0, 1, 5602, -90.000, 0.000, -136.000, 0.000, 0.000, -0.700, 0.0, , , , , , 99, , , 67, 67, 67
36.7935144, -118.9150240, 1.300, 12:43:05.783, 14, 0.00, 0.33, 97, 1.800, 0.800, -134.900, 985, 100, 100, 18, 24181, -16215, 4248, 4425, 5, 14, 1523821385.784, 28, 0, 1024, 1024, 1024, 1024, 0, 6, 4010, 4019, 4032, 4031, 4027, 4024, 0, 1, 5702, -89.900, 0.000, -136.000, 0.000, 0.000, -0.800, 0.0, , , , , , 99, , , 67, 67, 67
36.7935143, -118.9150239, 1.400, 12:43:05.883, 15, 0.00, 0.35, 96, 2.000, 0.800, -134.900, 985, 100, 100, 18, 24049, -17371, 4248, 4425, 5, 14, 1523821385.884, 39, 0, 1024, 1024, 1024, 1024, 0, 6, 4010, 4019, 4032, 4031, 4027, 4024, 0, 1, 5802, -90.000, 0.000, -136.000, 0.000, 0.000, -0.900, 0.0, , , , , , 99, , , 67, 67, 67
36.7935142, -118.9150238, 1.500, 12:43:05.983, 15, 0.00, 0.36, 96, 2.200, 0.700, -134.800, 985, 100, 100, 18, 24049, -17371, 4248, 4425, 5, 14, 1523821385.984, 31, 0, 1024, 1024, 1024, 1024, 0, 6, 4010, 4019, 4032, 4031, 4027, 4024, 0, 1, 5902, -90.000, 0.000, -136.000, 0.000, 0.000, -1.100, 0.0, , , , , , 99, , , 67, 67, 67
36.7935142, -118.9150237, 1.600, 12:43:06.082, 14, 0.00, 0.37, 96, 2.300, 0.500, -134.800, 985, 100, 100, 18, 24049, -17371, 4248, 4425, 5, 14, 1523821386.083, 32, 0, 1024, 1024, 1024, 1024, 0, 6, 4010, 4019, 4032, 4031, 4027, 4024, 0, 1, 6000, -90.000, 0.000, -136.000, 0.000, 0.000, -1.400, 0.0, , , , , , 99, , , 67, 67, 67
36.7935142, -118.9150237, 1.800, 12:43:06.183, 14, 0.00, 0.37, 96, 2.000, 0.400, -134.700, 985, 100, 100, 18, 24049, -17371, 4248, 4425, 5, 14, 1523821386.184, 34, 0, 1024, 1024, 1024, 1024, 0, 6, 4010, 4019, 4032, 4031, 4027, 4024, 0, 1, 6102, -90.000, 0.000, -136.000, 0.000, 0.000, -1.600, 0.0, , , , , , 99, , , 67, 67, 67
36.7935142, -118.9150236, 1.900, 12:43:06.282, 15, 0.00, 0.37, 96, 1.700, 0.500, -134.600, 985, 100, 100, 18, 24049, -17371, 4248, 4425, 5, 14, 1523821386.283, 39, 0, 1024, 1024, 1024, 1024, 0, 6, 4010, 4019, 4032, 4031, 4027, 4024, 0, 1, 6201, -90.000, 0.000, -136.000, 0.000, 0.000, -1.700, 0.0, , , , , , 99, , , 67, 67, 67
36.7935142, -118.9150236, 2.100, 12:43:06.390, 15, 0.00, 0.38, 96, 1.900, 0.500, -134.500, 985, 100, 100, 18, 24049, -17371, 4248, 4425, 5, 14, 1523821386.390, 4, 0, 1024, 1024, 1024, 1024, 0, 6, 4010, 4019, 4032, 4031, 4027, 4024, 0, 1, 6308, -90.000, 0.000, -136.000, 0.000, 0.000, -2.000, 0.0, , , , , , 99, , , 67, 67, 67
36.7935142, -118.9150236, 2.100, 12:43:06.483, 15, 0.00, 0.38, 96, 1.900, 0.500, -134.500, 985, 100, 100, 18, 24049, -17371, 4248, 4425, 5, 14, 1523821386.484, 97, 0, 1024, 1024, 1024, 1024, 0, 6, 3949, 4011, 4010, 4008, 4010, 4002, 0, 1, 6401, -89.900, 0.000, -136.000, 0.000, 0.000, -2.000, 0.0, , , , , , 99, , , 67, 67, 67
36.7935141, -118.9150236, 2.600, 12:43:06.582, 15, 0.00, 0.38, 96, 1.600, 0.500, -134.300, 985, 100, 100, 18, 24049, -17371, 4248, 4425, 5, 14, 1523821386.583, 8, 0, 1024, 1024, 1024, 1024, 0, 6, 3949, 4011, 4010, 4008, 4010, 4002, 0, 1, 6501, -90.000, 0.000, -136.000, 0.000, 0.000, -2.500, 0.0, , , , , , 99, , , 67, 67, 67
36.7935141, -118.9150238, 3.200, 12:43:06.699, 13, 0.00, 0.38, 96, 1.700, 0.500, -134.400, 985, 100, 100, 18, 24049, -17371, 4248, 4425, 5, 14, 1523821386.699, 14, 0, 1024, 1024, 1024, 1024, 0, 6, 3949, 4011, 4010, 4008, 4010, 4002, 0, 1, 6617, -90.000, 0.000, -136.000, 0.000, 0.000, -2.800, 0.0, , , , , , 99, , , 67, 67, 67
36.7935141, -118.9150238, 3.200, 12:43:06.783, 13, 0.00, 0.38, 96, 1.700, 0.500, -134.400, 985, 100, 100, 18, 24049, -17371, 4248, 4425, 5, 14, 1523821386.784, 98, 0, 1024, 1024, 1024, 1024, 0, 6, 3949, 4011, 4010, 4008, 4010, 4002, 0, 1, 6701, -90.000, 0.000, -136.000, 0.000, 0.000, -2.800, 0.0, , , , , , 99, , , 67, 67, 67
36.7935143, -118.9150240, 3.800, 12:43:06.883, 14, 0.00, 0.35, 96, 1.100, 0.200, -135.200, 985, 100, 100, 18, 24049, -17371, 4248, 4425, 5, 14, 1523821386.884, 8, 0, 1024, 1024, 1024, 1024, 0, 6, 3949, 4011, 4010, 4008, 4010, 4002, 0, 1, 6802, -90.000, 0.000, -136.000, 0.000, 0.000, -3.100, 0.0, , , , , , 99, , , 67, 67, 67
36.7935143, -118.9150240, 3.800, 12:43:06.983, 14, 0.00, 0.35, 96, 1.100, 0.200, -135.200, 985, 100, 100, 18, 24049, -17371, 4248, 4425, 5, 14, 1523821386.984, 107, 0, 1024, 1024, 1024, 1024, 0, 6, 3949, 4011, 4010, 4008, 4010, 4002, 0, 1, 6901, -90.000, 0.000, -136.000, 0.000, 0.000, -3.100, 0.0, , , , , , 99, , , 67, 67, 67
36.7935143, -118.9150242, 4.200, 12:43:07.083, 15, 0.00, 0.34, 96, 0.600, 0.500, -135.700, 985, 100, 100, 18, 24049, -17371, 4248, 4425, 5, 14, 1523821387.084, 88, 0, 1024, 1024, 1024, 1024, 0, 6, 3949, 4011, 4010, 4008, 4010, 4002, 0, 1, 7002, -89.900, 0.000, -136.000, 0.000, 0.000, -3.100, 0.0, , , , , , 99, , , 67, 67, 67
36.7935143, -118.9150243, 4.500, 12:43:07.182, 15, 0.00, 0.34, 96, 0.300, 0.800, -135.900, 985, 100, 100, 18, 24049, -17371, 4248, 4425, 5, 14, 1523821387.182, 86, 0, 1024, 1024, 1024, 1024, 0, 6, 3949, 4011, 4010, 4008, 4010, 4002, 0, 1, 7100, -89.900, 0.000, -136.000, 0.000, 0.000, -3.200, 0.0, , , , , , 99, , , 67, 67, 67
36.7935142, -118.9150244, 4.800, 12:43:07.283, 15, 0.00, 0.34, 96, 0.400, 1.200, -136.000, 985, 100, 100, 18, 24049, -17371, 4248, 4425, 5, 14, 1523821387.283, 78, 0, 1024, 1024, 1024, 1024, 0, 6, 3949, 4011, 4010, 4008, 4010, 4002, 0, 1, 7201, -89.900, 0.000, -136.000, 0.000, 0.000, -3.200, 0.0, , , , , , 99, , , 67, 67, 67
36.7935141, -118.9150244, 5.200, 12:43:07.383, 15, 0.00, 0.35, 96, 0.600, 1.500, -135.900, 985, 100, 100, 18, 23322, -23159, 4248, 4425, 5, 14, 1523821387.383, 62, 0, 1024, 1024, 1024, 1024, 0, 6, 3856, 3890, 3886, 3889, 3945, 3957, 0, 1, 7301, -89.900, 0.000, -136.000, 0.000, 0.000, -3.200, 0.0, , , , , , 99, , , 67, 67, 67
36.7935140, -118.9150245, 5.500, 12:43:07.483, 16, 0.00, 0.36, 96, 1.100, 1.500, -135.600, 985, 100, 100, 18, 23322, -23159, 4248, 4425, 5, 14, 1523821387.484, 87, 0, 1024, 1024, 1024, 1024, 0, 6, 3856, 3890, 3886, 3889, 3945, 3957, 0, 1, 7402, -89.900, 0.000, -136.000, 0.000, 0.000, -3.200, 0.0, , , , , , 99, , , 67, 67, 67
36.7935138, -118.9150246, 5.800, 12:43:07.583, 16, 0.00, 0.38, 96, 1.600, 1.700, -135.300, 985, 100, 100, 18, 23322, -23159, 4248, 4425, 5, 14, 1523821387.584, 70, 0, 1024, 1024, 1024, 1024, 0, 6, 3856, 3890, 3886, 3889, 3945, 3957, 0, 1, 7502, -89.900, 0.000, -136.000, 0.000, 0.000, -3.200, 0.0, , , , , , 99, , , 67, 67, 67
36.7935137, -118.9150246, 6.200, 12:43:07.683, 15, 0.00, 0.39, 96, 1.800, 2.200, -135.000, 985, 100, 100, 18, 23322, -23159, 4248, 4425, 5, 14, 1523821387.683, 66, 0, 1024, 1024, 1024, 1024, 0, 6, 3856, 3890, 3886, 3889, 3945, 3957, 0, 1, 7601, -89.900, 0.000, -136.000, 0.000, 0.000, -3.200, 0.0, , , , , , 99, , , 67, 67, 67
36.7935135, -118.9150247, 6.500, 12:43:07.783, 15, 0.00, 0.41, 96, 1.900, 2.600, -134.800, 985, 100, 100, 18, 23322, -23159, 4248, 4425, 5, 14, 1523821387.785, 63, 0, 1024, 1024, 1024, 1024, 0, 6, 3856, 3890, 3886, 3889, 3945, 3957, 0, 1, 7702, -89.900, 0.000, -136.000, 0.000, 0.000, -3.100, 0.0, , , , , , 99, , , 67, 67, 67
36.7935134, -118.9150247, 6.800, 12:43:07.883, 14, 0.00, 0.42, 96, 2.100, 2.800, -134.600, 985, 100, 100, 18, 23322, -23159, 4248, 4425, 5, 14, 1523821387.884, 35, 0, 1024, 1024, 1024, 1024, 0, 6, 3856, 3890, 3886, 3889, 3945, 3957, 0, 1, 7801, -89.900, 0.000, -136.000, 0.000, 0.000, -3.100, 0.0, , , , , , 99, , , 67, 67, 67
36.7935133, -118.9150247, 7.200, 12:43:07.983, 14, 0.00, 0.43, 96, 2.000, 2.700, -134.500, 985, 100, 100, 18, 23322, -23159, 4248, 4425, 5, 14, 1523821387.984, 52, 0, 1024, 1024, 1024, 1024, 0, 6, 3856, 3890, 3886, 3889, 3945, 3957, 0, 1, 7902, -89.900, 0.000, -136.000, 0.000, 0.000, -3.100, 0.0, , , , , , 99, , , 67, 67, 67
36.7935132, -118.9150246, 7.500, 12:43:08.083, 15, 0.00, 0.44, 96, 2.000, 2.400, -134.500, 985, 100, 100, 18, 23322, -23159, 4248, 4425, 5, 14, 1523821388.085, 48, 0, 1024, 1024, 1024, 1024, 0, 6, 3856, 3890, 3886, 3889, 3945, 3957, 0, 1, 8003, -89.900, 0.000, -136.000, 0.000, 0.000, -3.100, 0.0, , , , , , 99, , , 67, 67, 67
36.7935131, -118.9150245, 7.800, 12:43:08.183, 15, 0.00, 0.46, 96, 1.700, 2.200, -134.500, 985, 100, 100, 18, 23322, -23159, 4248, 4425, 5, 14, 1523821388.184, 45, 0, 1024, 1024, 1024, 1024, 0, 6, 3856, 3890, 3886, 3889, 3945, 3957, 0, 1, 8101, -89.900, 0.000, -136.000, 0.000, 0.000, -2.900, 0.0, , , , , , 99, , , 67, 67, 67
36.7935130, -118.9150244, 8.100, 12:43:08.282, 15, 0.00, 0.47, 96, 1.500, 2.000, -134.700, 985, 100, 100, 18, 23322, -23159, 4248, 4425, 5, 14, 1523821388.283, 45, 0, 1024, 1024, 1024, 1024, 0, 6, 3856, 3890, 3886, 3889, 3945, 3957, 0, 1, 8201, -89.900, 0.000, -136.000, 0.000, 0.000, -3.000, 0.0, , , , , , 99, , , 67, 67, 67
36.7935130, -118.9150243, 8.400, 12:43:08.383, 15, 0.00, 0.48, 96, 1.500, 1.800, -134.800, 985, 100, 100, 18, 23541, -18781, 4248, 4425, 5, 14, 1523821388.384, 27, 0, 1024, 1024, 1024, 1024, 0, 6, 3911, 3917, 3937, 3931, 3936, 3934, 0, 1, 8301, -89.900, 0.000, -136.000, 0.000, 0.000, -3.000, 0.0, , , , , , 99, , , 67, 67, 67
36.7935129, -118.9150242, 8.700, 12:43:08.483, 14, 0.00, 0.49, 96, 1.600, 1.500, -134.900, 985, 100, 100, 18, 23541, -18781, 4248, 4425, 5, 14, 1523821388.483, 47, 0, 1024, 1024, 1024, 1024, 0, 6, 3911, 3917, 3937, 3931, 3936, 3934, 0, 1, 8401, -90.000, 0.000, -136.000, 0.000, 0.000, -3.100, 0.0, , , , , , 99, , , 67, 67, 67
36.7935128, -118.9150241, 9.000, 12:43:08.583, 14, 0.00, 0.50, 96, 1.800, 1.400, -135.000, 985, 100, 100, 18, 23541, -18781, 4248, 4425, 5, 14, 1523821388.584, 27, 0, 1024, 1024, 1024, 1024, 0, 6, 3911, 3917, 3937, 3931, 3936, 3934, 0, 1, 8501, -89.900, 0.000, -136.000, 0.000, 0.000, -3.100, 0.0, , , , , , 99, , , 67, 67, 67
36.7935127, -118.9150240, 9.300, 12:43:08.683, 16, 0.00, 0.51, 96, 2.000, 1.500, -135.100, 985, 100, 100, 18, 23541, -18781, 4248, 4425, 5, 14, 1523821388.684, 39, 0, 1024, 1024, 1024, 1024, 0, 6, 3911, 3917, 3937, 3931, 3936, 3934, 0, 1, 8601, -89.900, 0.000, -136.000, 0.000, 0.000, -3.100, 0.0, , , , , , 99, , , 67, 67, 67
36.7935127, -118.9150239, 9.700, 12:43:08.787, 16, 0.00, 0.52, 96, 2.100, 1.600, -135.100, 985, 100, 100, 18, 23541, -18781, 4248, 4425, 5, 14, 1523821388.787, 9, 0, 1024, 1024, 1024, 1024, 0, 6, 3911, 3917, 3937, 3931, 3936, 3934, 0, 1, 8705, -89.900, 0.000, -136.000, 0.000, 0.000, -3.100, 0.0, , , , , , 99, , , 67, 67, 67
36.7935126, -118.9150238, 10.000, 12:43:08.883, 16, 0.00, 0.53, 96, 2.200, 1.600, -135.100, 985, 100, 100, 18, 23541, -18781, 4248, 4425, 5, 14, 1523821388.884, 16, 0, 1024, 1024, 1024, 1024, 0, 6, 3911, 3917, 3937, 3931, 3936, 3934, 0, 1, 8801, -89.900, 0.000, -136.000, 0.000, 0.000, -3.100, 0.0, , , , , , 99, , , 67, 67, 67
36.7935125, -118.9150236, 10.300, 12:43:08.983, 16, 0.00, 0.54, 96, 2.500, 1.600, -135.000, 985, 100, 99, 18, 23541, -18781, 4248, 4425, 5, 14, 1523821388.984, 18, 0, 1024, 1024, 1024, 1024, 0, 6, 3911, 3917, 3937, 3931, 3936, 3934, 0, 1, 8902, -89.900, 0.000, -136.000, 0.000, 0.000, -3.100, 0.0, , , , , , 99, , , 67, 67, 67
36.7935125, -118.9150235, 10.600, 12:43:09.089, 16, 0.00, 0.55, 96, 2.800, 1.500, -134.900, 985, 100, 99, 18, 23541, -18781, 4248, 4425, 5, 14, 1523821389.089, 10, 0, 1024, 1024, 1024, 1024, 0, 6, 3911, 3917, 3937, 3931, 3936, 3934, 0, 1, 9007, -89.900, 0.000, -136.000, 0.000, 0.000, -3.000, 0.0, , , , , , 99, , , 67, 67, 67
36.7935124, -118.9150235, 10.900, 12:43:09.188, 16, 0.00, 0.56, 96, 2.700, 1.600, -134.800, 985, 100, 99, 18, 23541, -18781, 4248, 4425, 5, 14, 1523821389.189, 5, 0, 1024, 1024, 1024, 1024, 0, 6, 3911, 3917, 3937, 3931, 3936, 3934, 0, 1, 9106, -89.900, 0.000, -136.000, 0.000, 0.000, -3.000, 0.0, , , , , , 99, , , 67, 67, 67
36.7935123, -118.9150234, 11.300, 12:43:09.288, 16, 0.00, 0.57, 96, 2.300, 1.900, -134.700, 985, 100, 99, 18, 23541, -18781, 4248, 4425, 5, 14, 1523821389.289, 7, 0, 1024, 1024, 1024, 1024, 0, 6, 3911, 3917, 3937, 3931, 3936, 3934, 0, 1, 9206, -89.900, 0.000, -136.000, 0.000, 0.000, -3.000, 0.0, , , , , , 99, , , 67, 67, 67
36.7935122, -118.9150233, 11.600, 12:43:09.383, 16, 0.00, 0.59, 96, 2.300, 2.100, -134.600, 985, 100, 99, 18, 23541, -18781, 4248, 4425, 5, 14, 1523821389.384, 75, 0, 1024, 1024, 1024, 1024, 0, 6, 3911, 3917, 3937, 3931, 3936, 3934, 0, 1, 9301, -89.900, 0.000, -136.000, 0.000, 0.000, -3.100, 0.0, , , , , , 99, , , 67, 67, 67
36.7935122, -118.9150233, 11.600, 12:43:09.482, 16, 0.00, 0.59, 96, 2.300, 2.100, -134.600, 985, 100, 99, 18, 23567, -18545, 4248, 4425, 5, 14, 1523821389.483, 175, 0, 1024, 1024, 1024, 1024, 0, 6, 3911, 3917, 3937, 3931, 3936, 3934, 0, 1, 9401, -89.900, 0.000, -136.000, 0.000, 0.000, -3.100, 0.0, , , , , , 99, , , 67, 67, 67
36.7935120, -118.9150231, 12.200, 12:43:09.583, 16, 0.00, 0.62, 96, 3.300, 1.600, -134.200, 985, 100, 96, 18, 23567, -18545, 4248, 4425, 5, 14, 1523821389.584, 93, 0, 1024, 1024, 1024, 1024, 0, 6, 3916, 3931, 3939, 3937, 3934, 3931, 0, 1, 9502, -89.900, 0.000, -136.000, 0.000, 0.000, -3.000, 0.0, , , , , , 99, , , 67, 67, 67
36.7935119, -118.9150229, 12.600, 12:43:09.683, 16, 0.00, 0.63, 96, 3.500, 1.500, -134.200, 985, 100, 96, 18, 23567, -18545, 4248, 4425, 5, 14, 1523821389.684, 95, 0, 1024, 1024, 1024, 1024, 0, 6, 3916, 3931, 3939, 3937, 3934, 3931, 0, 1, 9602, -89.900, 0.000, -136.000, 0.000, 0.000, -3.000, 0.0, , , , , , 99, , , 67, 67, 67
36.7935119, -118.9150228, 12.900, 12:43:09.783, 16, 0.10, 0.64, 96, 3.600, 1.300, -134.300, 985, 100, 96, 18, 23567, -18545, 4248, 4425, 5, 14, 1523821389.784, 72, 0, 1024, 1024, 1024, 1024, 0, 6, 3916, 3931, 3939, 3937, 3934, 3931, 0, 1, 9701, -89.900, 0.000, -136.000, 0.100, 0.000, -3.000, 0.0, , , , , , 99, , , 67, 67, 67
36.7935119, -118.9150228, 13.200, 12:43:09.883, 15, 0.10, 0.64, 96, 3.400, 1.200, -134.500, 985, 100, 96, 18, 23567, -18545, 4248, 4425, 5, 14, 1523821389.884, 86, 0, 1024, 1024, 1024, 1024, 0, 6, 3916, 3931, 3939, 3937, 3934, 3931, 0, 1, 9802, -90.000, 0.000, -136.000, 0.100, 0.000, -3.000, 0.0, , , , , , 99, , , 67, 67, 67
36.7935119, -118.9150227, 13.500, 12:43:09.983, 15, 0.10, 0.63, 96, 3.200, 0.800, -134.700, 985, 100, 95, 18, 23567, -18545, 4248, 4425, 5, 14, 1523821389.983, 84, 0, 1024, 1024, 1024, 1024, 0, 6, 3916, 3931, 3939, 3937, 3934, 3931, 0, 1, 9901, -90.000, 0.000, -136.000, 0.100, 0.000, -2.900, 0.0, , , , , , 99, , , 67, 67, 67
36.7935120, -118.9150227, 13.800, 12:43:10.083, 16, 0.10, 0.62, 96, 3.000, 0.700, -134.900, 985, 100, 95, 18, 23567, -18545, 4248, 4425, 5, 14, 1523821390.085, 84, 0, 1024, 1024, 1024, 1024, 0, 6, 3916, 3931, 3939, 3937, 3934, 3931, 0, 1, 10003, -90.000, 0.000, -136.000, 0.100, 0.000, -2.900, 0.0, , , , , , 99, , , 67, 67, 67
36.7935122, -118.9150227, 14.100, 12:43:10.183, 16, 0.10, 0.61, 96, 2.600, 0.700, -135.000, 985, 100, 95, 18, 23567, -18545, 4248, 4425, 5, 14, 1523821390.184, 89, 0, 1024, 1024, 1024, 1024, 0, 6, 3916, 3931, 3939, 3937, 3934, 3931, 0, 1, 10102, -90.000, 0.000, -136.000, 0.100, 0.000, -2.900, 0.0, , , , , , 99, , , 67, 67, 67
36.7935123, -118.9150228, 14.400, 12:43:10.283, 14, 0.10, 0.60, 96, 2.200, 0.500, -135.200, 985, 100, 95, 18, 23567, -18545, 4248, 4425, 5, 14, 1523821390.283, 74, 0, 1024, 1024, 1024, 1024, 0, 6, 3916, 3931, 3939, 3937, 3934, 3931, 0, 1, 10201, -90.000, 0.000, -136.000, 0.100, 0.000, -2.900, 0.0, , , , , , 99, , , 67, 67, 67
36.7935124, -118.9150228, 14.700, 12:43:10.383, 14, 0.10, 0.58, 96, 2.000, 0.300, -135.400, 985, 100, 95, 18, 23606, -17584, 4248, 4425, 5, 14, 1523821390.384, 60, 0, 1024, 1024, 1024, 1024, 0, 6, 3912, 3929, 3943, 3937, 3941, 3931, 0, 1, 10301, -90.000, 0.000, -136.000, 0.100, 0.000, -2.800, 0.0, , , , , , 99, , , 67, 67, 67
36.7935126, -118.9150228, 15.000, 12:43:10.483, 15, 0.20, 0.57, 96, 1.900, 0.100, -135.500, 985, 100, 95, 18, 23606, -17584, 4248, 4425, 5, 14, 1523821390.483, 63, 0, 1024, 1024, 1024, 1024, 0, 6, 3912, 3929, 3943, 3937, 3941, 3931, 0, 1, 10401, -90.000, 0.000, -136.000, 0.200, 0.000, -2.800, 0.0, , , , , , 99, , , 67, 67, 67
36.7935127, -118.9150229, 15.300, 12:43:10.583, 15, 0.20, 0.55, 96, 1.700, 0.100, -135.500, 985, 100, 95, 18, 23606, -17584, 4248, 4425, 5, 14, 1523821390.584, 67, 0, 1024, 1024, 1024, 1024, 0, 6, 3912, 3929, 3943, 3937, 3941, 3931, 0, 1, 10501, -90.000, 0.000, -136.000, 0.200, 0.000, -2.800, 0.0, , , , , , 99, , , 67, 67, 67
36.7935129, -118.9150229, 15.600, 12:43:10.683, 15, 0.20, 0.53, 96, 1.400, 0.100, -135.400, 985, 100, 95, 18, 23606, -17584, 4248, 4425, 5, 14, 1523821390.684, 55, 0, 1024, 1024, 1024, 1024, 0, 6, 3912, 3929, 3943, 3937, 3941, 3931, 0, 1, 10602, -90.000, 0.000, -136.000, 0.200, 0.000, -2.900, 0.0, , , , , , 99, , , 67, 67, 67
36.7935131, -118.9150230, 15.900, 12:43:10.783, 15, 0.20, 0.51, 96, 1.100, 0.000, -135.300, 985, 100, 95, 18, 23606, -17584, 4248, 4425, 5, 14, 1523821390.784, 57, 0, 1024, 1024, 1024, 1024, 0, 6, 3912, 3929, 3943, 3937, 3941, 3931, 0, 1, 10702, -90.000, 0.000, -136.000, 0.200, 0.000, -2.900, 0.0, , , , , , 99, , , 67, 67, 67
36.7935132, -118.9150230, 16.200, 12:43:10.883, 15, 0.20, 0.49, 96, 1.100, 0.100, -135.100, 985, 100, 95, 18, 23606, -17584, 4248, 4425, 5, 14, 1523821390.883, 11, 0, 1024, 1024, 1024, 1024, 0, 6, 3912, 3929, 3943, 3937, 3941, 3931, 0, 1, 10801, -90.000, 0.000, -136.000, 0.200, 0.000, -2.900, 0.0, , , , , , 99, , , 67, 67, 67
36.7935134, -118.9150231, 16.500, 12:43:10.983, 15, 0.10, 0.47, 96, 1.000, 0.100, -135.000, 985, 100, 98, 18, 23606, -17584, 4248, 4425, 5, 14, 1523821390.984, 37, 0, 1024, 1024, 1024, 1024, 0, 6, 3912, 3929, 3943, 3937, 3941, 3931, 0, 1, 10901, -90.000, 0.000, -136.000, 0.100, 0.000, -2.900, 0.0, , , , , , 99, , , 67, 67, 67
36.7935136, -118.9150232, 16.800, 12:43:11.083, 16, 0.10, 0.45, 96, 0.900, 0.100, -134.800, 985, 100, 98, 18, 23606, -17584, 4248, 4425, 5, 14, 1523821391.083, 34, 0, 1024, 1024, 1024, 1024, 0, 6, 3912, 3929, 3943, 3937, 3941, 3931, 0, 1, 11001, -90.000, 0.000, -136.000, 0.100, 0.000, -2.900, 0.0, , , , , , 99, , , 67, 67, 67
36.7935138, -118.9150233, 17.100, 12:43:11.183, 16, 0.10, 0.43, 96, 0.600, 0.000, -134.800, 985, 100, 98, 18, 23606, -17584, 4248, 4425, 5, 14, 1523821391.184, 33, 0, 1024, 1024, 1024, 1024, 0, 6, 3912, 3929, 3943, 3937, 3941, 3931, 0, 1, 11101, -90.000, 0.000, -136.000, 0.100, 0.000, -2.900, 0.0, , , , , , 99, , , 67, 67, 67
36.7935139, -118.9150234, 17.400, 12:43:11.283, 16, 0.10, 0.41, 96, 0.300, 0.000, -134.900, 985, 100, 98, 18, 23606, -17584, 4248, 4425, 5, 14, 1523821391.284, 26, 0, 1024, 1024, 1024, 1024, 0, 6, 3912, 3929, 3943, 3937, 3941, 3931, 0, 1, 11201, -90.000, 0.000, -136.000, 0.100, 0.000, -2.900, 0.0, , , , , , 99, , , 67, 67, 67
36.7935141, -118.9150235, 17.700, 12:43:11.391, 16, 0.10, 0.39, 96, 0.000, -0.300, -135.000, 985, 100, 98, 18, 23531, -18346, 4248, 4425, 5, 14, 1523821391.392, 6, 0, 1024, 1024, 1024, 1024, 0, 6, 3912, 3929, 3943, 3937, 3941, 3931, 0, 1, 11310, -90.000, 0.000, -136.000, 0.100, 0.000, -2.800, 0.0, , , , , , 99, , , 67, 67, 67
36.7935143, -118.9150236, 18.000, 12:43:11.483, 16, 0.10, 0.37, 96, -0.100, -0.500, -135.100, 985, 100, 98, 18, 23531, -18346, 4248, 4425, 5, 14, 1523821391.483, 22, 0, 1024, 1024, 1024, 1024, 0, 6, 3912, 3929, 3943, 3937, 3941, 3931, 0, 1, 11401, -90.000, 0.000, -136.000, 0.100, 0.000, -2.800, 0.0, , , , , , 99, , , 67, 67, 67
36.7935144, -118.9150236, 18.300, 12:43:11.583, 16, 0.10, 0.36, 96, 0.000, -0.500, -135.100, 985, 100, 98, 18, 23531, -18346, 4248, 4425, 5, 14, 1523821391.584, 35, 0, 1024, 1024, 1024, 1024, 0, 6, 3912, 3929, 3943, 3937, 3941, 3931, 0, 1, 11502, -90.000, 0.000, -136.000, 0.100, 0.000, -2.900, 0.0, , , , , , 99, , , 67, 67, 67
36.7935145, -118.9150237, 18.600, 12:43:11.683, 16, 0.10, 0.35, 96, 0.000, -0.300, -135.100, 985, 100, 98, 18, 23531, -18346, 4248, 4425, 5, 14, 1523821391.684, 24, 0, 1024, 1024, 1024, 1024, 0, 6, 3912, 3929, 3943, 3937, 3941, 3931, 0, 1, 11601, -90.000, 0.000, -136.000, 0.100, 0.000, -2.900, 0.0, , , , , , 99, , , 67, 67, 67
36.7935146, -118.9150237, 18.900, 12:43:11.783, 16, 0.10, 0.34, 96, 0.000, -0.300, -135.000, 985, 100, 98, 18, 23531, -18346, 4248, 4425, 5, 14, 1523821391.784, 26, 0, 1024, 1024, 1024, 1024, 0, 6, 3912, 3929, 3943, 3937, 3941, 3931, 0, 1, 11702, -90.000, 0.000, -136.000, 0.100, 0.000, -2.900, 0.0, , , , , , 99, , , 67, 67, 67
36.7935146, -118.9150237, 19.200, 12:43:11.883, 16, 0.00, 0.33, 96, 0.300, -0.300, -135.000, 985, 100, 98, 18, 23531, -18346, 4248, 4425, 5, 14, 1523821391.883, 26, 0, 1024, 1024, 1024, 1024, 0, 6, 3904, 3926, 3923, 3926, 3927, 3917, 0, 1, 11801, -89.900, 0.000, -136.000, 0.000, 0.000, -2.900, 0.0, , , , , , 99, , , 67, 67, 67
36.7935148, -118.9150238, 19.500, 12:43:11.983, 16, 0.00, 0.31, 96, 0.700, -0.400, -134.900, 985, 100, 99, 18, 23531, -18346, 4248, 4425, 5, 14, 1523821391.983, 25, 0, 1024, 1024, 1024, 1024, 0, 6, 3904, 3926, 3923, 3926, 3927, 3917, 0, 1, 11901, -90.000, 0.000, -136.000, 0.000, 0.000, -2.900, 0.0, , , , , , 99, , , 67, 67, 67
36.7935148, -118.9150238, 19.500, 12:43:12.083, 16, 0.00, 0.31, 96, 0.700, -0.400, -134.900, 985, 100, 99, 18, 23531, -18346, 4248, 4425, 5, 14, 1523821392.084, 126, 0, 1024, 1024, 1024, 1024, 0, 6, 3904, 3926, 3923, 3926, 3927, 3917, 0, 1, 12002, -90.000, 0.000, -136.000, 0.000, 0.000, -2.900, 0.0, , , , , , 99, , , 67, 67, 67
36.7935149, -118.9150238, 20.100, 12:43:12.183, 16, 0.00, 0.30, 96, 0.800, -0.300, -134.700, 985, 100, 99, 18, 23531, -18346, 4248, 4425, 5, 14, 1523821392.184, 14, 0, 1024, 1024, 1024, 1024, 0, 6, 3904, 3926, 3923, 3926, 3927, 3917, 0, 1, 12102, -89.900, 0.000, -136.000, 0.000, 0.000, -3.000, 0.0, , , , , , 99, , , 67, 67, 67
36.7935149, -118.9150238, 20.400, 12:43:12.290, 16, 0.00, 0.30, 96, 0.800, -0.200, -134.700, 985, 100, 99, 18, 23531, -18346, 4248, 4425, 5, 14, 1523821392.290, 5, 0, 1024, 1024, 1024, 1024, 0, 6, 3904, 3926, 3923, 3926, 3927, 3917, 0, 1, 12208, -89.900, 0.000, -136.000, 0.000, 0.000, -3.000, 0.0, , , , , , 99, , , 67, 67, 67
36.7935149, -118.9150238, 20.700, 12:43:12.383, 16, 0.00, 0.30, 96, 0.900, -0.300, -134.900, 985, 100, 99, 18, 23531, -18346, 4248, 4425, 5, 14, 1523821392.384, 66, 0, 1024, 1024, 1024, 1024, 0, 6, 3904, 3926, 3923, 3926, 3927, 3917, 0, 1, 12302, -90.000, 0.000, -136.000, 0.000, 0.000, -2.900, 0.0, , , , , , 99, , , 67, 67, 67
36.7935149, -118.9150238, 21.000, 12:43:12.483, 16, 0.00, 0.30, 96, 1.200, -0.600, -135.100, 985, 100, 97, 18, 23531, -18346, 4248, 4425, 5, 14, 1523821392.485, 86, 0, 1024, 1024, 1024, 1024, 0, 6, 3904, 3926, 3923, 3926, 3927, 3917, 0, 1, 12402, -90.000, 0.000, -136.000, 0.000, 0.000, -2.900, 0.0, , , , , , 99, , , 67, 67, 67
36.7935149, -118.9150238, 21.700, 12:43:12.597, 16, 0.00, 0.30, 96, 1.200, -0.200, -134.900, 985, 100, 97, 18, 23531, -18346, 4248, 4425, 5, 14, 1523821392.598, 10, 0, 1024, 1024, 1024, 1024, 0, 6, 3904, 3926, 3923, 3926, 3927, 3917, 0, 1, 12516, -89.900, 0.000, -136.000, 0.000, 0.000, -2.900, 0.0, , , , , , 99, , , 67, 67, 67
36.7935149, -118.9150238, 21.700, 12:43:12.683, 16, 0.00, 0.30, 96, 1.200, -0.200, -134.900, 985, 100, 97, 18, 23531, -18346, 4248, 4425, 5, 14, 1523821392.683, 96, 0, 1024, 1024, 1024, 1024, 0, 6, 3904, 3926, 3923, 3926, 3927, 3917, 0, 1, 12601, -89.900, 0.000, -136.000, 0.000, 0.000, -2.900, 0.0, , , , , , 99, , , 67, 67, 67
36.7935149, -118.9150237, 22.000, 12:43:12.783, 16, 0.00, 0.30, 96, 0.600, 0.000, -134.300, 985, 100, 97, 18, 23531, -18346, 4248, 4425, 5, 14, 1523821392.783, 88, 0, 1024, 1024, 1024, 1024, 0, 6, 3904, 3926, 3923, 3926, 3927, 3917, 0, 1, 12701, -89.900, 0.000, -135.900, 0.000, 0.000, -2.900, 0.0, , , , , , 99, , , 67, 67, 67
36.7935149, -118.9150237, 22.300, 12:43:12.883, 16, 0.00, 0.30, 96, 0.500, -0.200, -133.700, 985, 100, 97, 18, 23499, -18042, 4203, 4425, 5, 14, 1523821392.884, 76, 0, 1024, 1024, 1024, 1024, 0, 6, 3904, 3917, 3917, 3924, 3922, 3911, 0, 1, 12801, -90.000, 0.000, -136.000, 0.000, 0.000, -2.900, 0.0, , , , , , 99, , , 67, 67, 67
36.7935149, -118.9150236, 22.600, 12:43:12.982, 16, 0.00, 0.31, 96, 0.800, -0.200, -133.300, 985, 100, 95, 18, 23499, -18042, 4203, 4425, 5, 14, 1523821392.983, 77, 0, 1024, 1024, 1024, 1024, 0, 6, 3904, 3917, 3917, 3924, 3922, 3911, 0, 1, 12901, -89.900, 0.000, -136.000, 0.000, 0.000, -2.900, 0.0, , , , , , 99, , , 67, 67, 67
36.7935149, -118.9150236, 22.900, 12:43:13.083, 16, 0.00, 0.32, 96, 1.500, -0.300, -133.200, 985, 100, 95, 18, 23499, -18042, 4203, 4425, 5, 14, 1523821393.084, 67, 0, 1024, 1024, 1024, 1024, 0, 6, 3904, 3917, 3917, 3924, 3922, 3911, 0, 1, 13002, -90.000, 0.000, -135.900, 0.000, 0.000, -2.900, 0.0, , , , , , 99, , , 67, 67, 67
36.7935148, -118.9150234, 23.200, 12:43:13.183, 16, 0.00, 0.32, 96, 2.100, -0.600, -133.600, 985, 100, 95, 18, 23499, -18042, 4203, 4425, 5, 14, 1523821393.184, 69, 0, 1024, 1024, 1024, 1024, 0, 6, 3904, 3917, 3917, 3924, 3922, 3911, 0, 1, 13101, -90.000, 0.000, -135.900, 0.000, 0.000, -2.800, 0.0, , , , , , 99, , , 67, 67, 67
36.7935148, -118.9150233, 23.500, 12:43:13.282, 16, 0.00, 0.33, 96, 2.800, -0.700, -134.200, 985, 100, 95, 18, 23499, -18042, 4203, 4425, 5, 14, 1523821393.283, 61, 0, 1024, 1024, 1024, 1024, 0, 6, 3904, 3917, 3917, 3924, 3922, 3911, 0, 1, 13201, -90.000, 0.000, -135.900, 0.000, 0.000, -2.800, 0.0, , , , , , 99, , , 67, 67, 67
36.7935148, -118.9150232, 23.800, 12:43:13.383, 16, 0.00, 0.34, 96, 3.200, -1.000, -134.900, 985, 100, 95, 18, 23499, -18042, 4203, 4425, 5, 14, 1523821393.384, 22, 0, 1024, 1024, 1024, 1024, 0, 6, 3904, 3917, 3917, 3924, 3922, 3911, 0, 1, 13302, -90.000, 0.000, -135.900, 0.000, 0.000, -2.800, 0.0, , , , , , 99, , , 67, 67, 67
36.7935148, -118.9150231, 24.100, 12:43:13.483, 16, 0.00, 0.35, 96, 3.100, -1.000, -135.500, 985, 100, 94, 18, 23499, -18042, 4203, 4425, 5, 14, 1523821393.484, 61, 0, 1024, 1024, 1024, 1024, 0, 6, 3904, 3917, 3917, 3924, 3922, 3911, 0, 1, 13402, -90.000, 0.000, -135.900, 0.000, 0.000, -2.800, 0.0, , , , , , 99, , , 67, 67, 67
36.7935149, -118.9150230, 24.400, 12:43:13.583, 16, 0.00, 0.35, 96, 2.700, -1.300, -135.900, 985, 100, 94, 18, 23499, -18042, 4203, 4425, 5, 14, 1523821393.585, 44, 0, 1024, 1024, 1024, 1024, 0, 6, 3904, 3917, 3917, 3924, 3922, 3911, 0, 1, 13503, -90.000, 0.000, -135.900, 0.000, 0.000, -2.800, 0.0, , , , , , 99, , , 67, 67, 67
36.7935149, -118.9150230, 24.700, 12:43:13.682, 16, 0.00, 0.35, 96, 2.400, -1.700, -136.100, 985, 100, 94, 18, 23499, -18042, 4203, 4425, 5, 14, 1523821393.683, 32, 0, 1024, 1024, 1024, 1024, 0, 6, 3904, 3917, 3917, 3924, 3922, 3911, 0, 1, 13601, -90.000, 0.000, -135.900, 0.000, 0.000, -2.800, 0.0, , , , , , 99, , , 67, 67, 67
36.7935149, -118.9150229, 25.000, 12:43:13.783, 16, 0.00, 0.35, 96, 2.100, -1.700, -136.100, 985, 100, 94, 18, 23499, -18042, 4203, 4425, 5, 14, 1523821393.784, 45, 0, 1024, 1024, 1024, 1024, 0, 6, 3904, 3917, 3917, 3924, 3922, 3911, 0, 1, 13701, -89.900, 0.000, -135.900, 0.000, 0.000, -2.800, 0.0, , , , , , 99, , , 67, 67, 67
36.7935149, -118.9150229, 25.300, 12:43:13.882, 16, 0.00, 0.35, 95, 1.900, -1.600, -136.100, 985, 100, 94, 18, 23508, -17884, 4203, 4425, 5, 14, 1523821393.883, 45, 0, 1024, 1024, 1024, 1024, 0, 6, 3903, 3917, 3915, 3923, 3928, 3910, 0, 1, 13800, -90.000, 0.000, -135.900, 0.000, 0.000, -2.700, 0.0, , , , , , 99, , , 67, 67, 67
36.7935150, -118.9150229, 25.500, 12:43:13.983, 16, 0.00, 0.35, 95, 1.600, -1.900, -136.100, 985, 100, 94, 18, 23508, -17884, 4203, 4425, 5, 14, 1523821393.985, 25, 0, 1024, 1024, 1024, 1024, 0, 6, 3903, 3917, 3915, 3923, 3928, 3910, 0, 1, 13903, -90.000, 0.000, -135.900, 0.000, 0.000, -2.700, 0.0, , , , , , 99, , , 67, 67, 67
36.7935151, -118.9150229, 25.800, 12:43:14.083, 16, 0.00, 0.34, 95, 1.100, -2.100, -135.900, 985, 100, 94, 18, 23508, -17884, 4203, 4425, 5, 14, 1523821394.084, 26, 0, 1024, 1024, 1024, 1024, 0, 6, 3903, 3917, 3915, 3923, 3928, 3910, 0, 1, 14001, -90.000, 0.000, -135.900, 0.000, 0.000, -2.700, 0.0, , , , , , 99, , , 67, 67, 67
36.7935151, -118.9150229, 26.200, 12:43:14.183, 16, 0.00, 0.34, 95, 1.100, -2.000, -135.600, 985, 100, 94, 18, 23508, -17884, 4203, 4425, 5, 14, 1523821394.183, 25, 0, 1024, 1024, 1024, 1024, 0, 6, 3903, 3917, 3915, 3923, 3928, 3910, 0, 1, 14101, -89.900, 0.000, -135.900, 0.000, 0.000, -2.800, 0.0, , , , , , 99, , , 67, 67, 67
36.7935151, -118.9150229, 26.200, 12:43:14.283, 16, 0.00, 0.34, 95, 1.100, -2.000, -135.600, 985, 100, 94, 18, 23508, -17884, 4203, 4425, 5, 14, 1523821394.283, 125, 0, 1024, 1024, 1024, 1024, 0, 6, 3903, 3917, 3915, 3923, 3928, 3910, 0, 1, 14201, -89.900, 0.000, -135.900, 0.000, 0.000, -2.800, 0.0, , , , , , 99, , , 67, 67, 67
36.7935151, -118.9150229, 26.800, 12:43:14.383, 16, 0.00, 0.34, 95, 1.000, -1.200, -135.000, 985, 100, 94, 18, 23508, -17884, 4203, 4425, 5, 14, 1523821394.383, 22, 0, 1024, 1024, 1024, 1024, 0, 6, 3903, 3917, 3915, 3923, 3928, 3910, 0, 1, 14301, -89.900, 0.000, -135.900, 0.000, 0.000, -2.700, 0.0, , , , , , 99, , , 67, 67, 67
36.7935151, -118.9150228, 27.300, 12:43:14.488, 16, 0.00, 0.34, 95, 1.600, -1.100, -134.300, 985, 100, 94, 18, 23508, -17884, 4203, 4425, 5, 14, 1523821394.489, 7, 0, 1024, 1024, 1024, 1024, 0, 6, 3903, 3917, 3915, 3923, 3928, 3910, 0, 1, 14407, -89.900, 0.000, -135.900, 0.000, 0.000, -2.700, 0.0, , , , , , 99, , , 67, 67, 67
36.7935151, -118.9150228, 27.300, 12:43:14.583, 16, 0.00, 0.34, 95, 1.600, -1.100, -134.300, 985, 100, 94, 18, 23508, -17884, 4203, 4425, 5, 14, 1523821394.583, 102, 0, 1024, 1024, 1024, 1024, 0, 6, 3903, 3917, 3915, 3923, 3928, 3910, 0, 1, 14501, -89.900, 0.000, -135.900, 0.000, 0.000, -2.700, 0.0, , , , , , 99, , , 67, 67, 67
36.7935151, -118.9150228, 27.300, 12:43:14.683, 16, 0.00, 0.34, 95, 1.600, -1.100, -134.300, 985, 100, 94, 18, 23508, -17884, 4203, 4425, 5, 14, 1523821394.684, 202, 0, 1024, 1024, 1024, 1024, 0, 6, 3903, 3917, 3915, 3923, 3928, 3910, 0, 1, 14601, -89.900, 0.000, -135.900, 0.000, 0.000, -2.700, 0.0, , , , , , 99, , , 67, 67, 67
36.7935151, -118.9150228, 27.600, 12:43:14.782, 16, 0.00, 0.35, 95, 1.400, -1.200, -134.200, 985, 100, 94, 18, 23508, -17884, 4203, 4425, 5, 14, 1523821394.783, 79, 0, 1024, 1024, 1024, 1024, 0, 6, 3903, 3917, 3915, 3923, 3928, 3910, 0, 1, 14700, -90.000, 0.000, -135.900, 0.000, 0.000, -2.600, 0.0, , , , , , 99, , , 67, 67, 67
36.7935152, -118.9150228, 28.300, 12:43:14.897, 16, 0.00, 0.34, 95, 0.000, -1.500, -134.300, 985, 100, 94, 18, 23452, -18143, 4203, 4425, 5, 14, 1523821394.898, 12, 0, 1024, 1024, 1024, 1024, 0, 6, 3903, 3917, 3915, 3923, 3928, 3910, 0, 1, 14816, -89.900, 0.000, -135.900, 0.000, 0.000, -2.700, 0.0, , , , , , 99, , , 67, 67, 67
36.7935152, -118.9150228, 28.300, 12:43:14.983, 16, 0.00, 0.34, 95, 0.000, -1.500, -134.300, 985, 100, 94, 18, 23452, -18143, 4203, 4425, 5, 14, 1523821394.984, 98, 0, 1024, 1024, 1024, 1024, 0, 6, 3879, 3900, 3904, 3909, 3919, 3883, 0, 1, 14902, -89.900, 0.000, -135.900, 0.000, 0.000, -2.700, 0.0, , , , , , 99, , , 67, 67, 67
36.7935152, -118.9150229, 28.600, 12:43:15.091, 16, 0.00, 0.33, 95, -0.100, -1.300, -134.300, 985, 100, 94, 18, 23452, -18143, 4203, 4425, 5, 14, 1523821395.092, 6, 0, 1024, 1024, 1024, 1024, 0, 6, 3879, 3900, 3904, 3909, 3919, 3883, 0, 1, 15010, -90.000, 0.000, -135.900, 0.000, 0.000, -2.800, 0.0, , , , , , 99, , , 67, 67, 67
36.7935152, -118.9150229, 28.900, 12:43:15.183, 16, 0.00, 0.33, 95, 0.000, -1.000, -134.200, 985, 100, 94, 18, 23452, -18143, 4203, 4425, 5, 14, 1523821395.183, 85, 0, 1024, 1024, 1024, 1024, 0, 6, 3879, 3900, 3904, 3909, 3919, 3883, 0, 1, 15101, -89.900, 0.000, -135.900, 0.000, 0.000, -2.900, 0.0, , , , , , 99, , , 67, 67, 67
36.7935151, -118.9150230, 29.400, 12:43:15.292, 16, 0.00, 0.33, 95, 0.600, -0.200, -134.300, 985, 100, 94, 18, 23452, -18143, 4203, 4425, 5, 14, 1523821395.292, 10, 0, 1024, 1024, 1024, 1024, 0, 6, 3879, 3900, 3904, 3909, 3919, 3883, 0, 1, 15210, -89.900, 0.000, -135.900, 0.000, 0.000, -3.000, 0.0, , , , , , 99, , , 67, 67, 67
36.7935151, -118.9150230, 29.400, 12:43:15.383, 16, 0.00, 0.33, 95, 0.600, -0.200, -134.300, 985, 100, 94, 18, 23452, -18143, 4203, 4425, 5, 14, 1523821395.383, 101, 0, 1024, 1024, 1024, 1024, 0, 6, 3879, 3900, 3904, 3909, 3919, 3883, 0, 1, 15301, -89.900, 0.000, -135.900, 0.000, 0.000, -3.000, 0.0, , , , , , 99, , , 67, 67, 67
36.7935150, -118.9150230, 29.700, 12:43:15.483, 16, 0.00, 0.34, 95, 1.200, -0.100, -134.600, 985, 100, 94, 18, 23452, -18143, 4203, 4425, 5, 14, 1523821395.484, 80, 0, 1024, 1024, 1024, 1024, 0, 6, 3879, 3900, 3904, 3909, 3919, 3883, 0, 1, 15401, -89.900, 0.000, -135.900, 0.000, 0.000, -3.000, 0.0, , , , , , 99, , , 67, 67, 67
36.7935150, -118.9150230, 29.700, 12:43:15.583, 16, 0.00, 0.34, 95, 1.200, -0.100, -134.600, 985, 100, 94, 18, 23452, -18143, 4203, 4425, 5, 14, 1523821395.584, 180, 0, 1024, 1024, 1024, 1024, 0, 6, 3879, 3900, 3904, 3909, 3919, 3883, 0, 1, 15501, -89.900, 0.000, -135.900, 0.000, 0.000, -3.000, 0.0, , , , , , 99, , , 67, 67, 67
36.7935149, -118.9150230, 30.300, 12:43:15.683, 16, 0.00, 0.35, 95, 1.400, -0.300, -135.200, 985, 100, 94, 18, 23452, -18143, 4203, 4425, 5, 14, 1523821395.683, 90, 0, 1024, 1024, 1024, 1024, 0, 6, 3879, 3900, 3904, 3909, 3919, 3883, 0, 1, 15601, -89.900, 0.000, -135.900, 0.000, 0.000, -3.100, 0.0, , , , , , 99, , , 67, 67, 67
36.7935149, -118.9150231, 30.600, 12:43:15.783, 16, 0.00, 0.34, 95, 1.300, -0.300, -135.400, 985, 100, 94, 18, 23452, -18143, 4203, 4425, 5, 14, 1523821395.783, 59, 0, 1024, 1024, 1024, 1024, 0, 6, 3879, 3900, 3904, 3909, 3919, 3883, 0, 1, 15701, -89.900, 0.000, -135.900, 0.000, 0.000, -3.200, 0.0, , , , , , 99, , , 67, 67, 67
36.7935149, -118.9150231, 30.900, 12:43:15.883, 16, 0.00, 0.34, 95, 1.100, -0.300, -135.500, 985, 100, 94, 18, 23132, -22279, 4203, 4425, 5, 14, 1523821395.883, 63, 0, 1024, 1024, 1024, 1024, 0, 6, 3803, 3839, 3836, 3842, 3837, 3822, 0, 1, 15801, -89.900, 0.000, -135.900, 0.000, 0.000, -3.200, 0.0, , , , , , 99, , , 67, 67, 67
36.7935149, -118.9150231, 30.900, 12:43:15.983, 16, 0.00, 0.34, 95, 1.100, -0.300, -135.500, 985, 100, 91, 18, 23132, -22279, 4203, 4425, 5, 14, 1523821395.984, 164, 0, 1024, 1024, 1024, 1024, 0, 6, 3803, 3839, 3836, 3842, 3837, 3822, 0, 1, 15902, -89.900, 0.000, -135.900, 0.000, 0.000, -3.200, 0.0, , , , , , 99, , , 67, 67, 67
36.7935148, -118.9150232, 31.600, 12:43:16.083, 16, 0.00, 0.34, 95, 1.200, -0.500, -135.600, 985, 100, 91, 18, 23132, -22279, 4203, 4425, 5, 14, 1523821396.083, 64, 0, 1024, 1024, 1024, 1024, 0, 6, 3803, 3839, 3836, 3842, 3837, 3822, 0, 1, 16001, -89.900, 0.000, -135.900, 0.000, 0.000, -3.100, 0.0, , , , , , 99, , , 67, 67, 67
36.7935148, -118.9150232, 31.900, 12:43:16.183, 16, 0.00, 0.34, 95, 1.100, -0.500, -135.600, 985, 100, 91, 18, 23132, -22279, 4203, 4425, 5, 14, 1523821396.184, 60, 0, 1024, 1024, 1024, 1024, 0, 6, 3803, 3839, 3836, 3842, 3837, 3822, 0, 1, 16101, -89.900, 0.000, -135.900, 0.000, 0.000, -3.100, 0.0, , , , , , 99, , , 67, 67, 67
36.7935147, -118.9150233, 32.200, 12:43:16.283, 16, 0.00, 0.35, 95, 1.200, 0.100, -135.500, 985, 100, 91, 18, 23132, -22279, 4203, 4425, 5, 14, 1523821396.283, 37, 0, 1024, 1024, 1024, 1024, 0, 6, 3803, 3839, 3836, 3842, 3837, 3822, 0, 1, 16201, -89.900, 0.000, -135.900, 0.000, 0.000, -3.100, 0.0, , , , , , 99, , , 67, 67, 67
36.7935147, -118.9150233, 32.500, 12:43:16.383, 16, 0.00, 0.35, 95, 0.700, 0.800, -135.500, 985, 100, 91, 18, 23132, -22279, 4203, 4425, 5, 14, 1523821396.384, 41, 0, 1024, 1024, 1024, 1024, 0, 6, 3803, 3839, 3836, 3842, 3837, 3822, 0, 1, 16301, -89.900, 0.000, -135.900, 0.000, 0.000, -3.000, 0.0, , , , , , 99, , , 67, 67, 67
36.7935146, -118.9150233, 32.800, 12:43:16.483, 16, 0.00, 0.35, 95, 0.600, 0.400, -135.400, 985, 100, 91, 18, 23132, -22279, 4203, 4425, 5, 14, 1523821396.485, 28, 0, 1024, 1024, 1024, 1024, 0, 6, 3803, 3839, 3836, 3842, 3837, 3822, 0, 1, 16403, -89.900, 0.000, -135.900, 0.000, 0.000, -3.000, 0.0, , , , , , 99, , , 67, 67, 67
36.7935146, -118.9150233, 33.100, 12:43:16.583, 16, 0.00, 0.35, 95, 1.000, -0.200, -135.500, 985, 100, 91, 18, 23132, -22279, 4203, 4425, 5, 14, 1523821396.584, 37, 0, 1024, 1024, 1024, 1024, 0, 6, 3803, 3839, 3836, 3842, 3837, 3822, 0, 1, 16501, -89.900, 0.000, -135.900, 0.000, 0.000, -3.100, 0.0, , , , , , 99, , , 67, 67, 67
36.7935146, -118.9150232, 33.400, 12:43:16.683, 16, 0.00, 0.36, 95, 1.500, -0.800, -135.500, 985, 100, 91, 18, 23132, -22279, 4203, 4425, 5, 14, 1523821396.683, 36, 0, 1024, 1024, 1024, 1024, 0, 6, 3803, 3839, 3836, 3842, 3837, 3822, 0, 1, 16601, -90.000, 0.000, -135.900, 0.000, 0.000, -3.100, 0.0, , , , , , 99, , , 67, 67, 67
36.7935146, -118.9150231, 33.700, 12:43:16.782, 16, 0.00, 0.37, 95, 1.700, -1.300, -135.600, 985, 100, 91, 18, 23132, -22279, 4203, 4425, 5, 14, 1523821396.783, 45, 0, 1024, 1024, 1024, 1024, 0, 6, 3803, 3839, 3836, 3842, 3837, 3822, 0, 1, 16701, -90.000, 0.000, -135.900, 0.000, 0.000, -3.100, 0.0, , , , , , 99, , , 67, 67, 67
36.7935145, -118.9150230, 34.000, 12:43:16.883, 16, 0.00, 0.38, 95, 1.800, -1.500, -135.500, 985, 100, 91, 18, 23147, -20242, 4203, 4425, 5, 14, 1523821396.885, 17, 0, 1024, 1024, 1024, 1024, 0, 6, 3803, 3839, 3836, 3842, 3837, 3822, 0, 1, 16803, -90.000, 0.000, -135.900, 0.000, 0.000, -3.000, 0.0, , , , , , 99, , , 67, 67, 67
36.7935145, -118.9150229, 34.300, 12:43:16.982, 16, 0.00, 0.38, 95, 1.700, -1.600, -135.400, 985, 100, 89, 18, 23147, -20242, 4203, 4425, 5, 14, 1523821396.983, 36, 0, 1024, 1024, 1024, 1024, 0, 6, 3803, 3839, 3836, 3842, 3837, 3822, 0, 1, 16901, -90.000, 0.000, -135.900, 0.000, 0.000, -3.000, 0.0, , , , , , 99, , , 67, 67, 67
36.7935145, -118.9150227, 34.600, 12:43:17.083, 16, 0.00, 0.39, 95, 1.900, -1.700, -135.300, 985, 100, 89, 18, 23147, -20242, 4203, 4425, 5, 14, 1523821397.084, 27, 0, 1024, 1024, 1024, 1024, 0, 6, 3803, 3839, 3836, 3842, 3837, 3822, 0, 1, 17001, -90.000, 0.000, -135.900, 0.000, 0.000, -3.000, 0.0, , , , , , 99, , , 67, 67, 67
36.7935145, -118.9150226, 34.900, 12:43:17.183, 16, 0.00, 0.40, 95, 2.200, -1.800, -135.200, 985, 100, 89, 18, 23147, -20242, 4203, 4425, 5, 14, 1523821397.184, 20, 0, 1024, 1024, 1024, 1024, 0, 6, 3803, 3839, 3836, 3842, 3837, 3822, 0, 1, 17102, -90.000, 0.000, -135.900, 0.000, 0.000, -3.000, 0.0, , , , , , 99, , , 67, 67, 67
36.7935145, -118.9150226, 34.900, 12:43:17.283, 16, 0.00, 0.40, 95, 2.200, -1.800, -135.200, 985, 100, 89, 18, 23147, -20242, 4203, 4425, 5, 14, 1523821397.284, 120, 0, 1024, 1024, 1024, 1024, 0, 6, 3803, 3839, 3836, 3842, 3837, 3822, 0, 1, 17201, -90.000, 0.000, -135.900, 0.000, 0.000, -3.000, 0.0, , , , , , 99, , , 67, 67, 67
36.7935145, -118.9150225, 35.200, 12:43:17.382, 16, 0.00, 0.41, 95, 2.600, -2.100, -135.100, 985, 100, 89, 18, 23147, -20242, 4203, 4425, 5, 14, 1523821397.383, 74, 0, 1024, 1024, 1024, 1024, 0, 6, 3803, 3839, 3836, 3842, 3837, 3822, 0, 1, 17301, -90.000, 0.000, -135.900, 0.000, 0.000, -3.000, 0.0, , , , , , 99, , , 67, 67, 67
36.7935144, -118.9150222, 35.800, 12:43:17.483, 16, 0.00, 0.43, 95, 2.600, -2.400, -135.000, 985, 100, 93, 18, 23147, -20242, 4203, 4425, 5, 14, 1523821397.485, 18, 0, 1024, 1024, 1024, 1024, 0, 6, 3803, 3839, 3836, 3842, 3837, 3822, 0, 1, 17403, -89.900, 0.000, -135.900, 0.000, 0.000, -3.000, 0.0, , , , , , 99, , , 67, 67, 67
36.7935144, -118.9150222, 35.800, 12:43:17.583, 16, 0.00, 0.43, 95, 2.600, -2.400, -135.000, 985, 100, 93, 18, 23147, -20242, 4203, 4425, 5, 14, 1523821397.583, 117, 0, 1024, 1024, 1024, 1024, 0, 6, 3803, 3839, 3836, 3842, 3837, 3822, 0, 1, 17501, -89.900, 0.000, -135.900, 0.000, 0.000, -3.000, 0.0, , , , , , 99, , , 67, 67, 67
36.7935144, -118.9150221, 36.400, 12:43:17.683, 16, 0.00, 0.44, 95, 2.700, -1.400, -134.100, 985, 100, 93, 18, 23147, -20242, 4203, 4425, 5, 14, 1523821397.684, 90, 0, 1024, 1024, 1024, 1024, 0, 6, 3803, 3839, 3836, 3842, 3837, 3822, 0, 1, 17601, -89.900, 0.000, -135.900, 0.000, 0.000, -3.000, 0.0, , , , , , 99, , , 67, 67, 67
36.7935144, -118.9150221, 36.700, 12:43:17.783, 16, 0.00, 0.45, 95, 2.800, -1.200, -133.900, 985, 100, 93, 18, 23147, -20242, 4203, 4425, 5, 14, 1523821397.784, 73, 0, 1024, 1024, 1024, 1024, 0, 6, 3803, 3839, 3836, 3842, 3837, 3822, 0, 1, 17701, -89.900, 0.000, -135.900, 0.000, 0.000, -3.000, 0.0, , , , , , 99, , , 67, 67, 67
36.7935144, -118.9150220, 37.000, 12:43:17.883, 16, 0.00, 0.45, 95, 2.400, -1.400, -134.000, 985, 100, 93, 18, 23147, -20242, 4203, 4425, 5, 14, 1523821397.884, 88, 0, 1024, 1024, 1024, 1024, 0, 6, 3861, 3859, 3879, 3878, 3879, 3865, 0, 1, 17802, -90.000, 0.000, -135.900, 0.000, 0.000, -3.100, 0.0, , , , , , 99, , , 67, 67, 67
36.7935144, -118.9150220, 37.300, 12:43:17.983, 16, 0.00, 0.45, 95, 2.000, -1.500, -134.300, 985, 100, 95, 18, 23147, -20242, 4203, 4425, 5, 14, 1523821397.983, 61, 0, 1024, 1024, 1024, 1024, 0, 6, 3861, 3859, 3879, 3878, 3879, 3865, 0, 1, 17901, -90.000, 0.000, -135.900, 0.000, 0.000, -3.100, 0.0, , , , , , 99, , , 67, 67, 67
36.7935144, -118.9150219, 37.600, 12:43:18.083, 16, 0.00, 0.45, 95, 1.900, -1.700, -134.500, 985, 100, 95, 18, 23147, -20242, 4203, 4425, 5, 14, 1523821398.083, 55, 0, 1024, 1024, 1024, 1024, 0, 6, 3861, 3859, 3879, 3878, 3879, 3865, 0, 1, 18001, -90.000, 0.000, -135.900, 0.000, 0.000, -3.100, 0.0, , , , , , 99, , , 67, 67, 67
36.7935145, -118.9150219, 37.900, 12:43:18.183, 16, 0.00, 0.45, 95, 2.400, -1.800, -134.800, 985, 100, 95, 18, 23147, -20242, 4203, 4425, 5, 14, 1523821398.183, 77, 0, 1024, 1024, 1024, 1024, 0, 6, 3861, 3859, 3879, 3878, 3879, 3865, 0, 1, 18101, -90.000, 0.000, -135.900, 0.000, 0.000, -3.000, 0.0, , , , , , 99, , , 67, 67, 67
36.7935145, -118.9150219, 38.200, 12:43:18.283, 16, 0.00, 0.45, 95, 2.500, -2.000, -135.200, 985, 100, 95, 18, 23147, -20242, 4203, 4425, 5, 14, 1523821398.284, 73, 0, 1024, 1024, 1024, 1024, 0, 6, 3861, 3859, 3879, 3878, 3879, 3865, 0, 1, 18201, -90.000, 0.000, -135.900, 0.000, 0.000, -2.900, 0.0, , , , , , 99, , , 67, 67, 67
36.7935145, -118.9150219, 38.500, 12:43:18.383, 16, 0.00, 0.45, 95, 2.500, -2.000, -135.500, 985, 100, 95, 18, 23248, -18979, 4203, 4425, 5, 14, 1523821398.384, 74, 0, 1024, 1024, 1024, 1024, 0, 6, 3862, 3871, 3876, 3887, 3873, 3880, 0, 1, 18302, -90.000, 0.000, -135.900, 0.000, 0.000, -3.000, 0.0, , , , , , 99, , , 67, 67, 67
36.7935145, -118.9150219, 38.900, 12:43:18.483, 16, 0.00, 0.45, 95, 2.100, -2.100, -135.700, 985, 100, 95, 18, 23248, -18979, 4203, 4425, 5, 14, 1523821398.483, 53, 0, 1024, 1024, 1024, 1024, 0, 6, 3862, 3871, 3876, 3887, 3873, 3880, 0, 1, 18401, -90.000, 0.000, -135.900, 0.000, 0.000, -3.000, 0.0, , , , , , 99, , , 67, 67, 67
36.7935146, -118.9150219, 39.200, 12:43:18.583, 16, 0.00, 0.44, 95, 2.200, -1.700, -135.700, 985, 100, 95, 18, 23248, -18979, 4203, 4425, 5, 14, 1523821398.583, 57, 0, 1024, 1024, 1024, 1024, 0, 6, 3862, 3871, 3876, 3887, 3873, 3880, 0, 1, 18501, -89.900, 0.000, -135.900, 0.000, 0.000, -3.000, 0.0, , , , , , 99, , , 67, 67, 67
36.7935146, -118.9150220, 39.500, 12:43:18.683, 16, 0.00, 0.44, 95, 2.000, -1.500, -135.600, 985, 100, 95, 18, 23248, -18979, 4203, 4425, 5, 14, 1523821398.684, 49, 0, 1024, 1024, 1024, 1024, 0, 6, 3862, 3871, 3876, 3887, 3873, 3880, 0, 1, 18602, -89.900, 0.000, -135.900, 0.000, 0.000, -3.000, 0.0, , , , , , 99, , , 67, 67, 67
36.7935146, -118.9150220, 39.800, 12:43:18.783, 16, 0.00, 0.44, 95, 1.600, -1.700, -135.500, 985, 100, 95, 18, 23248, -18979, 4203, 4425, 5, 14, 1523821398.784, 50, 0, 1024, 1024, 1024, 1024, 0, 6, 3862, 3871, 3876, 3887, 3873, 3880, 0, 1, 18702, -90.000, 0.000, -135.900, 0.000, 0.000, -3.000, 0.0, , , , , , 99, , , 67, 67, 67
36.7935146, -118.9150220, 39.800, 12:43:18.883, 16, 0.00, 0.44, 95, 1.600, -1.700, -135.500, 985, 100, 95, 18, 23248, -18979, 4203, 4425, 5, 14, 1523821398.884, 150, 0, 1024, 1024, 1024, 1024, 0, 6, 3862, 3871, 3876, 3887, 3873, 3880, 0, 1, 18802, -90.000, 0.000, -135.900, 0.000, 0.000, -3.000, 0.0, , , , , , 99, , , 67, 67, 67
36.7935146, -118.9150220, 40.400, 12:43:18.983, 16, 0.00, 0.44, 95, 1.600, -1.700, -135.000, 985, 100, 93, 18, 23248, -18979, 4203, 4425, 5, 14, 1523821398.983, 38, 0, 1024, 1024, 1024, 1024, 0, 6, 3862, 3871, 3876, 3887, 3873, 3880, 0, 1, 18901, -90.000, 0.000, -135.900, 0.000, 0.000, -3.000, 0.0, , , , , , 99, , , 67, 67, 67
36.7935146, -118.9150220, 40.400, 12:43:19.083, 16, 0.00, 0.44, 95, 1.600, -1.700, -135.000, 985, 100, 93, 18, 23248, -18979, 4203, 4425, 5, 14, 1523821399.083, 138, 0, 1024, 1024, 1024, 1024, 0, 6, 3862, 3871, 3876, 3887, 3873, 3880, 0, 1, 19001, -90.000, 0.000, -135.900, 0.000, 0.000, -3.000, 0.0, , , , , , 99, , , 67, 67, 67
36.7935146, -118.9150220, 40.400, 12:43:19.183, 16, 0.00, 0.44, 95, 1.600, -1.700, -135.000, 985, 100, 93, 18, 23248, -18979, 4203, 4425, 5, 14, 1523821399.184, 239, 0, 1024, 1024, 1024, 1024, 0, 6, 3862, 3871, 3876, 3887, 3873, 3880, 0, 1, 19102, -90.000, 0.000, -135.900, 0.000, 0.000, -3.000, 0.0, , , , , , 99, , , 67, 67, 67
36.7935147, -118.9150220, 41.300, 12:43:19.283, 16, 0.00, 0.43, 95, 1.800, -1.600, -134.800, 985, 100, 93, 18, 23248, -18979, 4203, 4425, 5, 14, 1523821399.283, 42, 0, 1024, 1024, 1024, 1024, 0, 6, 3862, 3871, 3876, 3887, 3873, 3880, 0, 1, 19201, -89.900, 0.000, -135.900, 0.000, 0.000, -3.000, 0.0, , , , , , 99, , , 67, 67, 67
36.7935147, -118.9150221, 41.600, 12:43:19.383, 16, 0.00, 0.43, 95, 2.300, -1.300, -135.000, 985, 100, 93, 19, 23279, -18156, 4203, 4425, 5, 14, 1523821399.384, 17, 0, 1024, 1024, 1024, 1024, 0, 6, 3862, 3871, 3876, 3887, 3873, 3880, 0, 1, 19302, -89.900, 0.000, -135.900, 0.000, 0.000, -3.000, 0.0, , , , , , 99, , , 67, 67, 67
36.7935146, -118.9150222, 41.900, 12:43:19.485, 16, 0.00, 0.42, 95, 2.100, -1.100, -135.200, 985, 100, 94, 19, 23279, -18156, 4203, 4425, 5, 14, 1523821399.486, 18, 0, 1024, 1024, 1024, 1024, 0, 6, 3871, 3876, 3896, 3893, 3894, 3883, 0, 1, 19404, -89.900, 0.000, -135.900, 0.000, 0.000, -3.000, 0.0, , , , , , 99, , , 67, 67, 67
36.7935146, -118.9150222, 41.900, 12:43:19.583, 16, 0.00, 0.42, 95, 2.100, -1.100, -135.200, 985, 100, 94, 19, 23279, -18156, 4203, 4425, 5, 14, 1523821399.583, 116, 0, 1024, 1024, 1024, 1024, 0, 6, 3871, 3876, 3896, 3893, 3894, 3883, 0, 1, 19501, -89.900, 0.000, -135.900, 0.000, 0.000, -3.000, 0.0, , , , , , 99, , , 67, 67, 67
36.7935147, -118.9150223, 42.500, 12:43:19.691, 16, 0.00, 0.41, 95, 1.800, -1.100, -135.400, 985, 100, 94, 19, 23279, -18156, 4203, 4425, 5, 14, 1523821399.691, 8, 0, 1024, 1024, 1024, 1024, 0, 6, 3871, 3876, 3896, 3893, 3894, 3883, 0, 1, 19609, -89.900, 0.000, -135.900, 0.000, 0.000, -3.000, 0.0, , , , , , 99, , , 67, 67, 67
36.7935147, -118.9150223, 42.800, 12:43:19.783, 16, 0.00, 0.40, 95, 1.600, -1.400, -135.100, 985, 100, 94, 19, 23279, -18156, 4203, 4425, 5, 14, 1523821399.783, 12, 0, 1024, 1024, 1024, 1024, 0, 6, 3871, 3876, 3896, 3893, 3894, 3883, 0, 1, 19701, -89.900, 0.000, -135.900, 0.000, 0.000, -3.000, 0.0, , , , , , 99, , , 67, 67, 67
36.7935148, -118.9150224, 43.200, 12:43:19.889, 17, 0.00, 0.40, 95, 2.500, -1.600, -134.600, 985, 100, 94, 19, 23279, -18156, 4203, 4425, 5, 14, 1523821399.889, 8, 0, 1024, 1024, 1024, 1024, 0, 6, 3871, 3876, 3896, 3893, 3894, 3883, 0, 1, 19807, -89.900, 0.000, -135.900, 0.000, 0.000, -3.000, 0.0, , , , , , 99, , , 67, 67, 67
36.7935148, -118.9150225, 43.700, 12:43:19.989, 17, 0.10, 0.39, 95, 2.200, -1.200, -134.400, 985, 100, 93, 19, 23279, -18156, 4203, 4425, 5, 14, 1523821399.990, 9, 0, 1024, 1024, 1024, 1024, 0, 6, 3871, 3876, 3896, 3893, 3894, 3883, 0, 1, 19908, -89.900, 0.000, -135.900, 0.000, -0.100, -2.900, 0.0, , , , , , 99, , , 67, 67, 67
36.7935148, -118.9150225, 43.700, 12:43:20.083, 17, 0.10, 0.39, 95, 2.200, -1.200, -134.400, 985, 100, 93, 19, 23279, -18156, 4203, 4425, 5, 14, 1523821400.083, 103, 0, 1024, 1024, 1024, 1024, 0, 6, 3871, 3876, 3896, 3893, 3894, 3883, 0, 1, 20001, -89.900, 0.000, -135.900, 0.000, -0.100, -2.900, 0.0, , , , , , 99, , , 67, 67, 67
36.7935149, -118.9150226, 44.300, 12:43:20.185, 17, 0.00, 0.37, 95, 1.400, -1.000, -134.600, 985, 100, 93, 19, 23279, -18156, 4203, 4425, 5, 14, 1523821400.186, 7, 0, 1024, 1024, 1024, 1024, 0, 6, 3871, 3876, 3896, 3893, 3894, 3883, 0, 1, 20104, -89.900, 0.000, -135.900, 0.000, 0.000, -2.900, 0.0, , , , , , 99, , , 67, 67, 67
36.7935149, -118.9150226, 44.300, 12:43:20.283, 17, 0.00, 0.37, 95, 1.400, -1.000, -134.600, 985, 100, 93, 19, 23279, -18156, 4203, 4425, 5, 14, 1523821400.284, 105, 0, 1024, 1024, 1024, 1024, 0, 6, 3871, 3876, 3896, 3893, 3894, 3883, 0, 1, 20201, -89.900, 0.000, -135.900, 0.000, 0.000, -2.900, 0.0, , , , , , 99, , , 67, 67, 67
36.7935149, -118.9150227, 44.700, 12:43:20.383, 17, 0.00, 0.36, 95, 1.600, -1.100, -134.300, 985, 100, 93, 19, 23397, -17033, 4159, 4425, 5, 14, 1523821400.383, 94, 0, 1024, 1024, 1024, 1024, 0, 6, 3893, 3897, 3910, 3905, 3889, 3888, 0, 1, 20301, -89.900, 0.000, -135.900, 0.000, 0.000, -3.000, 0.0, , , , , , 99, , , 67, 67, 67
36.7935150, -118.9150228, 45.000, 12:43:20.483, 17, 0.10, 0.36, 95, 1.500, -1.200, -134.000, 985, 100, 96, 19, 23397, -17033, 4159, 4425, 5, 14, 1523821400.484, 83, 0, 1024, 1024, 1024, 1024, 0, 6, 3893, 3897, 3910, 3905, 3889, 3888, 0, 1, 20402, -90.000, 0.000, -135.900, 0.100, 0.000, -2.900, 0.0, , , , , , 99, , , 67, 67, 67
36.7935150, -118.9150229, 45.300, 12:43:20.583, 17, 0.10, 0.35, 95, 1.000, -1.600, -134.100, 985, 100, 96, 19, 23397, -17033, 4159, 4425, 5, 14, 1523821400.584, 64, 0, 1024, 1024, 1024, 1024, 0, 6, 3893, 3897, 3910, 3905, 3889, 3888, 0, 1, 20501, -90.000, 0.000, -135.900, 0.100, 0.000, -2.800, 0.0, , , , , , 99, , , 67, 67, 67
36.7935152, -118.9150229, 45.500, 12:43:20.683, 17, 0.10, 0.33, 95, 0.200, -2.100, -134.400, 985, 100, 96, 19, 23397, -17033, 4159, 4425, 5, 14, 1523821400.684, 70, 0, 1024, 1024, 1024, 1024, 0, 6, 3893, 3897, 3910, 3905, 3889, 3888, 0, 1, 20602, -90.000, 0.000, -135.900, 0.100, 0.000, -2.800, 0.0, , , , , , 99, , , 67, 67, 67
36.7935153, -118.9150230, 45.800, 12:43:20.783, 17, 0.10, 0.32, 95, -0.600, -2.800, -134.800, 985, 100, 96, 19, 23397, -17033, 4159, 4425, 5, 14, 1523821400.784, 73, 0, 1024, 1024, 1024, 1024, 0, 6, 3893, 3897, 3910, 3905, 3889, 3888, 0, 1, 20701, -90.000, 0.000, -135.900, 0.100, 0.000, -2.700, 0.0, , , , , , 99, , , 67, 67, 67
36.7935154, -118.9150230, 46.100, 12:43:20.882, 17, 0.10, 0.31, 95, -1.200, -3.100, -135.100, 985, 100, 96, 19, 23397, -17033, 4159, 4425, 5, 14, 1523821400.883, 59, 0, 1024, 1024, 1024, 1024, 0, 6, 3893, 3897, 3910, 3905, 3889, 3888, 0, 1, 20801, -90.000, 0.000, -135.900, 0.100, 0.000, -2.600, 0.0, , , , , , 99, , , 67, 67, 67
