latitude,longitude,altitude(feet),ascent(feet),speed(mph),distance(feet),time(millisecond),datetime(utc),satellites,gpslevel,voltage(v),max_altitude(feet),max_ascent(feet),max_speed(mph),max_distance(feet), xSpeed(mph), ySpeed(mph), zSpeed(mph), compass_heading(degrees), pitch(degrees), roll(degrees),isPhoto,isVideo,rc_elevator,rc_aileron,rc_throttle,rc_rudder,gimbal_heading(degrees),gimbal_pitch(degrees),battery_percent,voltageCell1,voltageCell2,voltageCell3,voltageCell4,voltageCell5,voltageCell6,current(A),battery_temperature(f),flycStateRaw,flycState,message
36.7935171,-118.9150255,5303.4053708245,0,0,0,3000,2018-04-15 19:43:03,11,0,25.449,5303.4053708245,0,0,0,0,0,0,225.1, 0.4, -1.4,1,0,1024,1024,1024,1024,223.8,-90,97,4.254,4.234,4.244,4.222,0,0,3.929,64.4,11,AutoTakeoff,DJI_0238.jpg Starting Mission from Lat/Long: 36.79352/-118.91503 Camera: Zenmuse X3 - Overlap: 90/90 - Active Connection: Yes
36.793517,-118.9150254,5303.4053708245,0,0.223694,0.046741799396,3100,2018-04-15 19:43:03,11,0,25.449,5303.4053708245,0,0.223694,0.046741799396,0,0,0,225.3, 0, -0.9,0,0,1024,1024,1024,1024,223.8,-90,97,4.254,4.234,4.244,4.222,0,0,3.929,64.4,11,AutoTakeoff,
36.7935169,-118.9150253,5303.4053708245,0,0.3131716,0.093483598792,3200,2018-04-15 19:43:03,11,0,25.449,5303.4053708245,0,0.3131716,0.093483598792,0,0,0,225.3, 0, -0.3,0,0,1024,1024,1024,1024,223.8,-90,97,4.254,4.234,4.244,4.222,0,0,3.929,64.4,11,AutoTakeoff,
36.7935168,-118.9150251,5303.7334548245,0.328084,0.3131716,0.160120411948,3300,2018-04-15 19:43:03,11,0,25.449,5303.7334548245,0.328084,0.3131716,0.160120411948,0,0,0,225.4, -0.1, 0.5,0,0,1024,1024,1024,1024,223.8,-90,97,4.254,4.234,4.244,4.222,0,0,3.929,64.4,11,AutoTakeoff,
36.7935167,-118.9150249,5303.7334548245,0.328084,0.3131716,0.228099744832,3400,2018-04-15 19:43:03,12,0,25.449,5303.7334548245,0.328084,0.3131716,0.228099744832,0,0,0,225.4, -0.1, 1.5,0,0,1024,1024,1024,1024,223.9,-89.9,97,4.254,4.234,4.244,4.222,0,0,3.929,64.4,11,AutoTakeoff,
36.7935166,-118.9150248,5303.7334548245,0.328084,0.3131716,0.2740567673,3500,2018-04-15 19:43:04,12,0,25.449,5303.7334548245,0.328084,0.3131716,0.2740567673,0,0,0,225.4, 0, 2.1,0,0,1024,1024,1024,1024,223.9,-89.9,97,4.254,4.234,4.244,4.222,0,0,3.929,64.4,11,AutoTakeoff,
36.7935165,-118.9150247,5304.0615388245,0.656168,0.223694,0.32024115198,3600,2018-04-15 19:43:04,13,0,25.449,5304.0615388245,0.656168,0.3131716,0.32024115198,0,0,0,225.3, 0.3, 2.1,0,0,1024,1024,1024,1024,223.9,-89.9,97,4.254,4.234,4.244,4.222,0,0,3.929,64.4,11,AutoTakeoff,
36.7935164,-118.9150246,5304.0615388245,0.656168,0.223694,0.3665682532,3700,2018-04-15 19:43:04,13,0,25.449,5304.0615388245,0.656168,0.3131716,0.3665682532,0,0,0,225.2, 0.4, 1.8,0,0,1024,1024,1024,1024,223.9,-90,97,4.254,4.234,4.244,4.222,0,0,3.929,64.4,11,AutoTakeoff,
36.7935164,-118.9150245,5304.3896228245,0.984252,0.223694,0.38806103604,3800,2018-04-15 19:43:04,12,0,25.449,5304.3896228245,0.984252,0.3131716,0.38806103604,0,0,0,225.1, 0.4, 1.3,0,0,1024,1024,1024,1024,223.9,-90,97,4.254,4.234,4.244,4.222,0,0,3.929,64.4,11,AutoTakeoff,
36.7935163,-118.9150245,5304.3896228245,0.984252,0,0.41298557752,3910,2018-04-15 19:43:04,12,0,25.449,5304.3896228245,0.984252,0.3131716,0.41298557752,0,0,0,225, 0.4, 1.2,0,0,1024,1024,1024,1024,223.9,-90,97,4.254,4.234,4.244,4.222,0,0,3.929,64.4,11,AutoTakeoff,
36.7935162,-118.9150245,5304.3896228245,0.984252,0,0.43953085396,4000,2018-04-15 19:43:04,11,0,24.961,5304.3896228245,0.984252,0.3131716,0.43953085396,0,0,0,224.9, 0.4, 1.5,0,0,1024,1024,1024,1024,224,-89.9,97,4.073,4.125,4.099,4.144,0,0,9.245,64.4,11,AutoTakeoff,
36.7935161,-118.9150244,5304.7177068245,1.312336,0,0.48621392632,4100,2018-04-15 19:43:04,11,0,24.961,5304.7177068245,1.312336,0.3131716,0.48621392632,0,0,0,224.8, 0.4, 1.7,0,0,1024,1024,1024,1024,224,-89.9,97,4.073,4.125,4.099,4.144,0,0,9.245,64.4,11,AutoTakeoff,
36.7935159,-118.9150244,5305.0457908245,1.64042,0,0.54311681528,4300,2018-04-15 19:43:04,13,0,24.961,5305.0457908245,1.64042,0.3131716,0.54311681528,0,0,-0.223694,224.7, 0.7, 1.4,0,0,1024,1024,1024,1024,224,-89.9,97,4.073,4.125,4.099,4.144,0,0,9.245,64.4,11,AutoTakeoff,
36.7935157,-118.9150245,5305.3738748245,1.968504,0,0.58844818156,4500,2018-04-15 19:43:05,13,0,24.961,5305.3738748245,1.968504,0.3131716,0.58844818156,0,0,-0.223694,224.8, 0.9, 1.1,0,0,1024,1024,1024,1024,224,-89.9,97,4.073,4.125,4.099,4.144,0,0,9.245,64.4,11,AutoTakeoff,
36.7935156,-118.9150244,5305.7019588245,2.296588,0,0.63466537464,4600,2018-04-15 19:43:05,13,0,24.961,5305.7019588245,2.296588,0.3131716,0.63466537464,0,0,-0.223694,224.9, 1, 1.1,0,0,1024,1024,1024,1024,224,-89.9,97,4.073,4.125,4.099,4.144,0,0,9.245,64.4,11,AutoTakeoff,
36.7935156,-118.9150243,5305.7019588245,2.296588,0,0.64994752736,4700,2018-04-15 19:43:05,13,0,24.961,5305.7019588245,2.296588,0.3131716,0.64994752736,0,0,-0.223694,225, 1, 1.1,0,0,1024,1024,1024,1024,224,-89.9,97,4.073,4.125,4.099,4.144,0,0,9.245,64.4,11,AutoTakeoff,
36.7935154,-118.9150243,5306.0300428245,2.624672,0,0.71248033776,4800,2018-04-15 19:43:05,13,0,24.961,5306.0300428245,2.624672,0.3131716,0.71248033776,0,0,-0.223694,225.1, 1, 1.4,0,0,1024,1024,1024,1024,224,-89.9,97,4.073,4.125,4.099,4.144,0,0,9.245,64.4,11,AutoTakeoff,
36.7935153,-118.9150244,5306.3581268245,2.952756,0,0.7311515982,4900,2018-04-15 19:43:05,13,0,24.961,5306.3581268245,2.952756,0.3131716,0.7311515982,0,0,-0.223694,225.2, 1.2, 1.6,0,0,1024,1024,1024,1024,224,-89.9,97,4.073,4.125,4.099,4.144,0,0,9.245,64.4,11,AutoTakeoff,
36.7935152,-118.9150244,5306.3581268245,2.952756,0,0.7640912318,5000,2018-04-15 19:43:05,15,0,24.181,5306.3581268245,2.952756,0.3131716,0.7640912318,0,0,0,225.1, 1.5, 1.8,0,0,1024,1024,1024,1024,224,-89.9,97,4.01,4.019,4.032,4.031,0,0,16.215,64.4,14,Waypoint,
36.7935151,-118.9150244,5306.6862108245,3.28084,0,0.79733926436,5100,2018-04-15 19:43:05,15,0,24.181,5306.6862108245,3.28084,0.3131716,0.79733926436,0,0,0,225.1, 1.5, 1.6,0,0,1029,1024,1024,1024,224,-89.9,97,4.01,4.019,4.032,4.031,0,0,16.215,64.4,14,Waypoint,
36.793515,-118.9150244,5306.6862108245,3.28084,0,0.83085960664,5200,2018-04-15 19:43:05,14,0,24.181,5306.6862108245,3.28084,0.3131716,0.83085960664,0,0,0,225, 1.3, 1.1,0,0,1024,1024,1024,1024,224,-89.9,97,4.01,4.019,4.032,4.031,0,0,16.215,64.4,14,Waypoint,
36.7935148,-118.9150244,5306.6862108245,3.28084,0,0.89859254844,5300,2018-04-15 19:43:05,14,0,24.181,5306.6862108245,3.28084,0.3131716,0.89859254844,0,0,0,224.8, 1.1, 1,0,0,1024,1024,1024,1024,224,-90,97,4.01,4.019,4.032,4.031,0,0,16.215,64.4,14,Waypoint,
36.7935147,-118.9150243,5307.0142948245,3.608924,0,0.94322181496,5400,2018-04-15 19:43:05,15,0,24.181,5307.0142948245,3.608924,0.3131716,0.94322181496,0,0,0,224.8, 1.1, 1.1,0,0,1024,1024,1024,1024,224,-90,97,4.01,4.019,4.032,4.031,0,0,16.215,64.4,14,Waypoint,
36.7935146,-118.9150242,5307.0142948245,3.608924,0,0.98804465104,5500,2018-04-15 19:43:06,15,0,24.181,5307.0142948245,3.608924,0.3131716,0.98804465104,0,0,0,224.9, 0.9, 1.2,0,0,1024,1024,1024,1024,224,-90,97,4.01,4.019,4.032,4.031,0,0,16.215,64.4,14,Waypoint,
36.7935145,-118.9150241,5307.3423788245,3.937008,0,1.03304137164,5600,2018-04-15 19:43:06,14,0,24.181,5307.3423788245,3.937008,0.3131716,1.03304137164,0,0,-0.223694,225, 0.8, 1.5,0,0,1024,1024,1024,1024,224,-90,97,4.01,4.019,4.032,4.031,0,0,16.215,64.4,14,Waypoint,
36.7935144,-118.915024,5307.6704628245,4.265092,0,1.0781824492,5700,2018-04-15 19:43:06,14,0,24.181,5307.6704628245,4.265092,0.3131716,1.0781824492,0,0,-0.223694,225.1, 0.8, 1.8,0,0,1024,1024,1024,1024,224,-89.9,97,4.01,4.019,4.032,4.031,0,0,16.215,64.4,14,Waypoint,
36.7935143,-118.9150239,5307.9985468245,4.593176,0,1.12345476036,5800,2018-04-15 19:43:06,15,0,24.181,5307.9985468245,4.593176,0.3131716,1.12345476036,0,0,-0.223694,225.1, 0.8, 2,0,0,1024,1024,1024,1024,224,-90,97,4.01,4.019,4.032,4.031,0,0,16.215,64.4,14,Waypoint,
36.7935142,-118.9150238,5308.3266308245,4.92126,0,1.16884518176,5900,2018-04-15 19:43:06,15,0,24.181,5308.3266308245,4.92126,0.3131716,1.16884518176,0,0,-0.223694,225.2, 0.7, 2.2,0,0,1024,1024,1024,1024,224,-90,97,4.01,4.019,4.032,4.031,0,0,16.215,64.4,14,Waypoint,
36.7935142,-118.9150237,5308.6547148245,5.249344,0,1.18155843676,6000,2018-04-15 19:43:06,14,0,24.049,5308.6547148245,5.249344,0.3131716,1.18155843676,0,0,-0.223694,225.2, 0.5, 2.3,0,0,1024,1024,1024,1024,224,-90,96,4.01,4.019,4.032,4.031,0,0,17.371,64.4,14,Waypoint,
36.7935142,-118.9150237,5309.3108828245,5.905512,0,1.18155843676,6100,2018-04-15 19:43:06,14,0,24.049,5309.3108828245,5.905512,0.3131716,1.18155843676,0,0,-0.447388,225.3, 0.4, 2,0,0,1024,1024,1024,1024,224,-90,96,4.01,4.019,4.032,4.031,0,0,17.371,64.4,14,Waypoint,
36.7935142,-118.9150236,5309.6389668245,6.233596,0,1.1948491196,6200,2018-04-15 19:43:06,15,0,24.049,5309.6389668245,6.233596,0.3131716,1.1948491196,0,0,-0.447388,225.4, 0.5, 1.7,0,0,1024,1024,1024,1024,224,-90,96,4.01,4.019,4.032,4.031,0,0,17.371,64.4,14,Waypoint,
36.7935142,-118.9150236,5310.2951348245,6.889764,0,1.1948491196,6310,2018-04-15 19:43:06,15,0,24.049,5310.2951348245,6.889764,0.3131716,1.1948491196,0,0,-0.447388,225.5, 0.5, 1.9,0,0,1024,1024,1024,1024,224,-90,96,4.01,4.019,4.032,4.031,0,0,17.371,64.4,14,Waypoint,
36.7935142,-118.9150236,5310.2951348245,6.889764,0,1.1948491196,6400,2018-04-15 19:43:06,15,0,24.049,5310.2951348245,6.889764,0.3131716,1.1948491196,0,0,-0.447388,225.5, 0.5, 1.9,0,0,1024,1024,1024,1024,224,-89.9,96,4.01,4.019,4.032,4.031,0,0,17.371,64.4,14,Waypoint,
36.7935141,-118.9150236,5311.9355548245,8.530184,0,1.22727366132,6500,2018-04-15 19:43:07,15,0,24.049,5311.9355548245,8.530184,0.3131716,1.22727366132,0,0,-0.671082,225.7, 0.5, 1.6,0,0,1024,1024,1024,1024,224,-90,96,4.01,4.019,4.032,4.031,0,0,17.371,64.4,14,Waypoint,
36.7935141,-118.9150238,5313.9040588245,10.498688,0,1.20197182324,6620,2018-04-15 19:43:07,13,0,24.049,5313.9040588245,10.498688,0.3131716,1.22727366132,0,0,-0.671082,225.6, 0.5, 1.7,0,0,1024,1024,1024,1024,224,-90,96,4.01,4.019,4.032,4.031,0,0,17.371,64.4,14,Waypoint,
36.7935141,-118.9150238,5313.9040588245,10.498688,0,1.20197182324,6700,2018-04-15 19:43:07,13,0,24.049,5313.9040588245,10.498688,0.3131716,1.22727366132,0,0,-0.671082,225.6, 0.5, 1.7,0,0,1024,1024,1024,1024,224,-90,96,4.01,4.019,4.032,4.031,0,0,17.371,64.4,14,Waypoint,
36.7935143,-118.915024,5315.8725628245,12.467192,0,1.11161748964,6800,2018-04-15 19:43:07,14,0,24.049,5315.8725628245,12.467192,0.3131716,1.22727366132,0,0,-0.671082,224.8, 0.2, 1.1,0,0,1024,1024,1024,1024,224,-90,96,4.01,4.019,4.032,4.031,0,0,17.371,64.4,14,Waypoint,
36.7935143,-118.9150242,5317.1848988245,13.779528,0,1.08990160968,7000,2018-04-15 19:43:07,15,0,24.049,5317.1848988245,13.779528,0.3131716,1.22727366132,0,0,-0.671082,224.3, 0.5, 0.6,0,0,1024,1024,1024,1024,224,-89.9,96,3.949,4.011,4.01,4.008,0,0,17.371,64.4,14,Waypoint,
36.7935143,-118.9150243,5318.1691508245,14.76378,0,1.0800689322,7100,2018-04-15 19:43:07,15,0,24.049,5318.1691508245,14.76378,0.3131716,1.22727366132,0,0,-0.671082,224.1, 0.8, 0.3,0,0,1024,1024,1024,1024,224,-89.9,96,3.949,4.011,4.01,4.008,0,0,17.371,64.4,14,Waypoint,
36.7935142,-118.9150244,5319.1534028245,15.748032,0,1.10579727948,7200,2018-04-15 19:43:07,15,0,24.049,5319.1534028245,15.748032,0.3131716,1.22727366132,0,0,-0.671082,224, 1.2, 0.4,0,0,1024,1024,1024,1024,224,-89.9,96,3.949,4.011,4.01,4.008,0,0,17.371,64.4,14,Waypoint,
36.7935141,-118.9150244,5320.4657388245,17.060368,0,1.14075791052,7300,2018-04-15 19:43:07,15,0,24.049,5320.4657388245,17.060368,0.3131716,1.22727366132,0,0,-0.671082,224.1, 1.5, 0.6,0,0,1024,1024,1024,1024,224,-89.9,96,3.949,4.011,4.01,4.008,0,0,17.371,64.4,14,Waypoint,
36.793514,-118.9150245,5321.4499908245,18.04462,0,1.1681594862,7400,2018-04-15 19:43:07,16,0,24.049,5321.4499908245,18.04462,0.3131716,1.22727366132,0,0,-0.671082,224.4, 1.5, 1.1,0,0,1024,1024,1024,1024,224,-89.9,96,3.949,4.011,4.01,4.008,0,0,17.371,64.4,14,Waypoint,
36.7935138,-118.9150246,5322.4342428245,19.028872,0,1.2323819292,7500,2018-04-15 19:43:08,16,0,24.049,5322.4342428245,19.028872,0.3131716,1.2323819292,0,0,-0.671082,224.7, 1.7, 1.6,0,0,1024,1024,1024,1024,224,-89.9,96,3.949,4.011,4.01,4.008,0,0,17.371,64.4,14,Waypoint,
36.7935137,-118.9150246,5323.7465788245,20.341208,0,1.26805122168,7600,2018-04-15 19:43:08,15,0,24.049,5323.7465788245,20.341208,0.3131716,1.26805122168,0,0,-0.671082,225, 2.2, 1.8,0,0,1024,1024,1024,1024,224,-89.9,96,3.949,4.011,4.01,4.008,0,0,17.371,64.4,14,Waypoint,
36.7935135,-118.9150247,5324.7308308245,21.32546,0,1.33409453088,7700,2018-04-15 19:43:08,15,0,24.049,5324.7308308245,21.32546,0.3131716,1.33409453088,0,0,-0.671082,225.2, 2.6, 1.9,0,0,1024,1024,1024,1024,224,-89.9,96,3.949,4.011,4.01,4.008,0,0,17.371,64.4,14,Waypoint,
36.7935134,-118.9150247,5325.7150828245,22.309712,0,1.3700295714,7800,2018-04-15 19:43:08,14,0,24.049,5325.7150828245,22.309712,0.3131716,1.3700295714,0,0,-0.671082,225.4, 2.8, 2.1,0,0,1024,1024,1024,1024,224,-89.9,96,3.949,4.011,4.01,4.008,0,0,17.371,64.4,14,Waypoint,
36.7935133,-118.9150247,5327.0274188245,23.622048,0,1.40599085864,7900,2018-04-15 19:43:08,14,0,24.049,5327.0274188245,23.622048,0.3131716,1.40599085864,0,0,-0.671082,225.5, 2.7, 2,0,0,1024,1024,1024,1024,224,-89.9,96,3.949,4.011,4.01,4.008,0,0,17.371,64.4,14,Waypoint,
36.7935132,-118.9150246,5328.0116708245,24.6063,0,1.44700463948,8000,2018-04-15 19:43:08,15,0,23.322,5328.0116708245,24.6063,0.3131716,1.44700463948,0,0,-0.671082,225.5, 2.4, 2,0,0,1024,1024,1024,1024,224,-89.9,96,3.856,3.89,3.886,3.889,0,0,23.159,64.4,14,Waypoint,
36.7935131,-118.9150245,5328.9959228245,25.590552,0,1.48835634684,8100,2018-04-15 19:43:08,15,0,23.322,5328.9959228245,25.590552,0.3131716,1.48835634684,0,0,-0.671082,225.5, 2.2, 1.7,0,0,1024,1024,1024,1024,224,-89.9,96,3.856,3.89,3.886,3.889,0,0,23.159,64.4,14,Waypoint,
36.793513,-118.9150244,5329.9801748245,26.574804,0,1.53001645316,8200,2018-04-15 19:43:08,15,0,23.322,5329.9801748245,26.574804,0.3131716,1.53001645316,0,0,-0.671082,225.3, 2, 1.5,0,0,1024,1024,1024,1024,224,-89.9,96,3.856,3.89,3.886,3.889,0,0,23.159,64.4,14,Waypoint,
36.793513,-118.9150243,5330.9644268245,27.559056,0,1.53642065284,8300,2018-04-15 19:43:08,15,0,23.322,5330.9644268245,27.559056,0.3131716,1.53642065284,0,0,-0.671082,225.2, 1.8, 1.5,0,0,1024,1024,1024,1024,224,-89.9,96,3.856,3.89,3.886,3.889,0,0,23.159,64.4,14,Waypoint,
36.7935129,-118.9150242,5331.9486788245,28.543308,0,1.57873692716,8400,2018-04-15 19:43:08,14,0,23.322,5331.9486788245,28.543308,0.3131716,1.57873692716,0,0,-0.671082,225.1, 1.5, 1.6,0,0,1024,1024,1024,1024,224,-90,96,3.856,3.89,3.886,3.889,0,0,23.159,64.4,14,Waypoint,
36.7935128,-118.9150241,5332.9329308245,29.52756,0,1.62129926448,8500,2018-04-15 19:43:09,14,0,23.322,5332.9329308245,29.52756,0.3131716,1.62129926448,0,0,-0.671082,225, 1.4, 1.8,0,0,1024,1024,1024,1024,224,-89.9,96,3.856,3.89,3.886,3.889,0,0,23.159,64.4,14,Waypoint,
36.7935127,-118.915024,5333.9171828245,30.511812,0,1.66408469892,8600,2018-04-15 19:43:09,16,0,23.322,5333.9171828245,30.511812,0.3131716,1.66408469892,0,0,-0.671082,224.9, 1.5, 2,0,0,1024,1024,1024,1024,224,-89.9,96,3.856,3.89,3.886,3.889,0,0,23.159,64.4,14,Waypoint,
36.7935127,-118.9150239,5335.2295188245,31.824148,0,1.67201777004,8710,2018-04-15 19:43:09,16,0,23.322,5335.2295188245,31.824148,0.3131716,1.67201777004,0,0,-0.671082,224.9, 1.6, 2.1,0,0,1024,1024,1024,1024,224,-89.9,96,3.856,3.89,3.886,3.889,0,0,23.159,64.4,14,Waypoint,
36.7935126,-118.9150238,5336.2137708245,32.8084,0,1.71530845384,8800,2018-04-15 19:43:09,16,0,23.322,5336.2137708245,32.8084,0.3131716,1.71530845384,0,0,-0.671082,224.9, 1.6, 2.2,0,0,1024,1024,1024,1024,224,-89.9,96,3.856,3.89,3.886,3.889,0,0,23.159,64.4,14,Waypoint,
36.7935125,-118.9150236,5337.1980228245,33.792652,0,1.7677329962,8900,2018-04-15 19:43:09,16,0,23.322,5337.1980228245,33.792652,0.3131716,1.7677329962,0,0,-0.671082,225, 1.6, 2.5,0,0,1024,1024,1024,1024,224,-89.9,96,3.856,3.89,3.886,3.889,0,0,23.159,64.4,14,Waypoint,
36.7935125,-118.9150235,5338.1822748245,34.776904,0,1.77712604112,9010,2018-04-15 19:43:09,16,0,23.541,5338.1822748245,34.776904,0.3131716,1.77712604112,0,0,-0.671082,225.1, 1.5, 2.8,0,0,1024,1024,1024,1024,224,-89.9,96,3.911,3.917,3.937,3.931,0,0,18.781,64.4,14,Waypoint,
36.7935124,-118.9150235,5339.1665268245,35.761156,0,1.81162079288,9110,2018-04-15 19:43:09,16,0,23.541,5339.1665268245,35.761156,0.3131716,1.81162079288,0,0,-0.671082,225.2, 1.6, 2.7,0,0,1024,1024,1024,1024,224,-89.9,96,3.911,3.917,3.937,3.931,0,0,18.781,64.4,14,Waypoint,
36.7935123,-118.9150234,5340.4788628245,37.073492,0,1.85564638484,9210,2018-04-15 19:43:09,16,0,23.541,5340.4788628245,37.073492,0.3131716,1.85564638484,0,0,-0.671082,225.3, 1.9, 2.3,0,0,1024,1024,1024,1024,224,-89.9,96,3.911,3.917,3.937,3.931,0,0,18.781,64.4,14,Waypoint,
36.7935122,-118.9150233,5341.4631148245,38.057744,0,1.8998032104,9300,2018-04-15 19:43:09,16,0,23.541,5341.4631148245,38.057744,0.3131716,1.8998032104,0,0,-0.671082,225.4, 2.1, 2.3,0,0,1024,1024,1024,1024,224,-89.9,96,3.911,3.917,3.937,3.931,0,0,18.781,64.4,14,Waypoint,
36.793512,-118.9150231,5343.4316188245,40.026248,0,1.98847119224,9500,2018-04-15 19:43:10,16,0,23.541,5343.4316188245,40.026248,0.3131716,1.98847119224,0,0,-0.671082,225.8, 1.6, 3.3,0,0,1024,1024,1024,1024,224,-89.9,96,3.911,3.917,3.937,3.931,0,0,18.781,64.4,14,Waypoint,
36.7935119,-118.9150229,5344.7439548245,41.338584,0,2.04364835936,9600,2018-04-15 19:43:10,16,0,23.541,5344.7439548245,41.338584,0.3131716,2.04364835936,0,0,-0.671082,225.8, 1.5, 3.5,0,0,1024,1024,1024,1024,224,-89.9,96,3.911,3.917,3.937,3.931,0,0,18.781,64.4,14,Waypoint,
36.7935119,-118.9150228,5345.7282068245,42.322836,0.223694,2.05468510512,9700,2018-04-15 19:43:10,16,0,23.541,5345.7282068245,42.322836,0.3131716,2.05468510512,0,0,-0.671082,225.7, 1.3, 3.6,0,0,1024,1024,1024,1024,224,-89.9,96,3.911,3.917,3.937,3.931,0,0,18.781,64.4,14,Waypoint,
36.7935119,-118.9150228,5346.7124588245,43.307088,0.223694,2.05468510512,9800,2018-04-15 19:43:10,15,0,23.541,5346.7124588245,43.307088,0.3131716,2.05468510512,0,0,-0.671082,225.5, 1.2, 3.4,0,0,1024,1024,1024,1024,224,-90,96,3.911,3.917,3.937,3.931,0,0,18.781,64.4,14,Waypoint,
36.7935119,-118.9150227,5347.6967108245,44.29134,0.223694,2.06607946244,9900,2018-04-15 19:43:10,15,0,23.541,5347.6967108245,44.29134,0.3131716,2.06607946244,0,0,-0.671082,225.3, 0.8, 3.2,0,0,1024,1024,1024,1024,224,-90,96,3.911,3.917,3.937,3.931,0,0,18.781,64.4,14,Waypoint,
36.793512,-118.9150227,5348.6809628245,45.275592,0.223694,2.0326280178,10000,2018-04-15 19:43:10,16,0,23.567,5348.6809628245,45.275592,0.3131716,2.06607946244,0,0,-0.671082,225.1, 0.7, 3,0,0,1024,1024,1024,1024,224,-90,96,3.916,3.931,3.939,3.937,0,0,18.545,64.4,14,Waypoint,
36.7935122,-118.9150227,5349.6652148245,46.259844,0.223694,1.96604993168,10100,2018-04-15 19:43:10,16,0,23.567,5349.6652148245,46.259844,0.3131716,2.06607946244,0,0,-0.671082,225, 0.7, 2.6,0,0,1024,1024,1024,1024,224,-90,96,3.916,3.931,3.939,3.937,0,0,18.545,64.4,14,Waypoint,
36.7935123,-118.9150228,5350.6494668245,47.244096,0.223694,1.92074809296,10200,2018-04-15 19:43:10,14,0,23.567,5350.6494668245,47.244096,0.3131716,2.06607946244,0,0,-0.671082,224.8, 0.5, 2.2,0,0,1024,1024,1024,1024,224,-90,96,3.916,3.931,3.939,3.937,0,0,18.545,64.4,14,Waypoint,
36.7935124,-118.9150228,5351.6337188245,48.228348,0.223694,1.88754271132,10300,2018-04-15 19:43:10,14,0,23.567,5351.6337188245,48.228348,0.3131716,2.06607946244,0,0,-0.671082,224.6, 0.3, 2,0,0,1024,1024,1024,1024,224,-90,96,3.916,3.931,3.939,3.937,0,0,18.545,64.4,14,Waypoint,
36.7935126,-118.9150228,5352.6179708245,49.2126,0.447388,1.8215059638,10400,2018-04-15 19:43:10,15,0,23.567,5352.6179708245,49.2126,0.447388,2.06607946244,0,0,-0.671082,224.5, 0.1, 1.9,0,0,1024,1024,1024,1024,224,-90,96,3.916,3.931,3.939,3.937,0,0,18.545,64.4,14,Waypoint,
36.7935127,-118.9150229,5353.6022228245,50.196852,0.447388,1.77599743216,10500,2018-04-15 19:43:11,15,0,23.567,5353.6022228245,50.196852,0.447388,2.06607946244,0,0,-0.671082,224.5, 0.1, 1.7,0,0,1024,1024,1024,1024,224,-90,96,3.916,3.931,3.939,3.937,0,0,18.545,64.4,14,Waypoint,
36.7935129,-118.9150229,5354.5864748245,51.181104,0.447388,1.71032485788,10600,2018-04-15 19:43:11,15,0,23.567,5354.5864748245,51.181104,0.447388,2.06607946244,0,0,-0.671082,224.6, 0.1, 1.4,0,0,1024,1024,1024,1024,224,-90,96,3.916,3.931,3.939,3.937,0,0,18.545,64.4,14,Waypoint,
36.7935131,-118.915023,5355.5707268245,52.165356,0.447388,1.63198167952,10700,2018-04-15 19:43:11,15,0,23.567,5355.5707268245,52.165356,0.447388,2.06607946244,0,0,-0.671082,224.7, 0, 1.1,0,0,1024,1024,1024,1024,224,-90,96,3.916,3.931,3.939,3.937,0,0,18.545,64.4,14,Waypoint,
36.7935132,-118.915023,5356.5549788245,53.149608,0.447388,1.59943902756,10800,2018-04-15 19:43:11,15,0,23.567,5356.5549788245,53.149608,0.447388,2.06607946244,0,0,-0.671082,224.9, 0.1, 1.1,0,0,1024,1024,1024,1024,224,-90,96,3.916,3.931,3.939,3.937,0,0,18.545,64.4,14,Waypoint,
36.7935134,-118.9150231,5357.5392308245,54.13386,0.223694,1.52119755524,10900,2018-04-15 19:43:11,15,0,23.567,5357.5392308245,54.13386,0.447388,2.06607946244,0,0,-0.671082,225, 0.1, 1,0,0,1024,1024,1024,1024,224,-90,96,3.916,3.931,3.939,3.937,0,0,18.545,64.4,14,Waypoint,
36.7935136,-118.9150232,5358.5234828245,55.118112,0.223694,1.442995453,11000,2018-04-15 19:43:11,16,0,23.606,5358.5234828245,55.118112,0.447388,2.06607946244,0,0,-0.671082,225.2, 0.1, 0.9,0,0,1024,1024,1024,1024,224,-90,96,3.912,3.929,3.943,3.937,0,0,17.584,64.4,14,Waypoint,
36.7935138,-118.9150233,5359.5077348245,56.102364,0.223694,1.36483928252,11100,2018-04-15 19:43:11,16,0,23.606,5359.5077348245,56.102364,0.447388,2.06607946244,0,0,-0.671082,225.2, 0, 0.6,0,0,1024,1024,1024,1024,224,-90,96,3.912,3.929,3.943,3.937,0,0,17.584,64.4,14,Waypoint,
36.7935139,-118.9150234,5360.4919868245,57.086616,0.223694,1.31892064588,11200,2018-04-15 19:43:11,16,0,23.606,5360.4919868245,57.086616,0.447388,2.06607946244,0,0,-0.671082,225.1, 0, 0.3,0,0,1024,1024,1024,1024,224,-90,96,3.912,3.929,3.943,3.937,0,0,17.584,64.4,14,Waypoint,
36.7935141,-118.9150235,5361.4762388245,58.070868,0.223694,1.24076119456,11310,2018-04-15 19:43:11,16,0,23.606,5361.4762388245,58.070868,0.447388,2.06607946244,0,0,-0.671082,225, -0.3, 0,0,0,1024,1024,1024,1024,224,-90,96,3.912,3.929,3.943,3.937,0,0,17.584,64.4,14,Waypoint,
36.7935143,-118.9150236,5362.4604908245,59.05512,0.223694,1.1626640792,11400,2018-04-15 19:43:11,16,0,23.606,5362.4604908245,59.05512,0.447388,2.06607946244,0,0,-0.671082,224.9, -0.5, -0.1,0,0,1024,1024,1024,1024,224,-90,96,3.912,3.929,3.943,3.937,0,0,17.584,64.4,14,Waypoint,
36.7935144,-118.9150236,5363.4447428245,60.039372,0.223694,1.130741506,11500,2018-04-15 19:43:12,16,0,23.606,5363.4447428245,60.039372,0.447388,2.06607946244,0,0,-0.671082,224.9, -0.5, 0,0,0,1024,1024,1024,1024,224,-90,96,3.912,3.929,3.943,3.937,0,0,17.584,64.4,14,Waypoint,
36.7935145,-118.9150237,5364.4289948245,61.023624,0.223694,1.08463586148,11600,2018-04-15 19:43:12,16,0,23.606,5364.4289948245,61.023624,0.447388,2.06607946244,0,0,-0.671082,224.9, -0.3, 0,0,0,1024,1024,1024,1024,224,-90,96,3.912,3.929,3.943,3.937,0,0,17.584,64.4,14,Waypoint,
36.7935146,-118.9150237,5365.4132468245,62.007876,0.223694,1.05287733028,11700,2018-04-15 19:43:12,16,0,23.606,5365.4132468245,62.007876,0.447388,2.06607946244,0,0,-0.671082,225, -0.3, 0,0,0,1024,1024,1024,1024,224,-90,96,3.912,3.929,3.943,3.937,0,0,17.584,64.4,14,Waypoint,
36.7935146,-118.9150237,5366.3974988245,62.992128,0,1.05287733028,11800,2018-04-15 19:43:12,16,0,23.606,5366.3974988245,62.992128,0.447388,2.06607946244,0,0,-0.671082,225, -0.3, 0.3,0,0,1024,1024,1024,1024,224,-89.9,96,3.912,3.929,3.943,3.937,0,0,17.584,64.4,14,Waypoint,
36.7935148,-118.9150238,5367.3817508245,63.97638,0,0.9751312648,11900,2018-04-15 19:43:12,16,0,23.606,5367.3817508245,63.97638,0.447388,2.06607946244,0,0,-0.671082,225.1, -0.4, 0.7,0,0,1024,1024,1024,1024,224,-90,96,3.912,3.929,3.943,3.937,0,0,17.584,64.4,14,Waypoint,
36.7935149,-118.9150238,5369.3502548245,65.944884,0,0.94391735304,12100,2018-04-15 19:43:12,16,0,23.606,5369.3502548245,65.944884,0.447388,2.06607946244,0,0,-0.671082,225.3, -0.3, 0.8,0,0,1024,1024,1024,1024,224,-89.9,96,3.912,3.929,3.943,3.937,0,0,17.584,64.4,14,Waypoint,
36.7935149,-118.9150238,5370.3345068245,66.929136,0,0.94391735304,12210,2018-04-15 19:43:12,16,0,23.606,5370.3345068245,66.929136,0.447388,2.06607946244,0,0,-0.671082,225.3, -0.2, 0.8,0,0,1024,1024,1024,1024,224,-89.9,96,3.912,3.929,3.943,3.937,0,0,17.584,64.4,14,Waypoint,
36.7935149,-118.9150238,5371.3187588245,67.913388,0,0.94391735304,12300,2018-04-15 19:43:12,16,0,23.606,5371.3187588245,67.913388,0.447388,2.06607946244,0,0,-0.671082,225.1, -0.3, 0.9,0,0,1024,1024,1024,1024,224,-90,96,3.912,3.929,3.943,3.937,0,0,17.584,64.4,14,Waypoint,
36.7935149,-118.9150238,5372.3030108245,68.89764,0,0.94391735304,12400,2018-04-15 19:43:12,16,0,23.606,5372.3030108245,68.89764,0.447388,2.06607946244,0,0,-0.671082,224.9, -0.6, 1.2,0,0,1024,1024,1024,1024,224,-90,96,3.912,3.929,3.943,3.937,0,0,17.584,64.4,14,Waypoint,
36.7935149,-118.9150238,5374.5995988245,71.194228,0,0.94391735304,12520,2018-04-15 19:43:13,16,0,23.606,5374.5995988245,71.194228,0.447388,2.06607946244,0,0,-0.671082,225.1, -0.2, 1.2,0,0,1024,1024,1024,1024,224,-89.9,96,3.912,3.929,3.943,3.937,0,0,17.584,64.4,14,Waypoint,
36.7935149,-118.9150238,5374.5995988245,71.194228,0,0.94391735304,12600,2018-04-15 19:43:13,16,0,23.606,5374.5995988245,71.194228,0.447388,2.06607946244,0,0,-0.671082,225.1, -0.2, 1.2,0,0,1024,1024,1024,1024,224,-89.9,96,3.912,3.929,3.943,3.937,0,0,17.584,64.4,14,Waypoint,
36.7935149,-118.9150237,5375.5838508245,72.17848,0,0.9596128916,12700,2018-04-15 19:43:13,16,0,23.606,5375.5838508245,72.17848,0.447388,2.06607946244,0,0,-0.671082,225.7, 0, 0.6,0,0,1024,1024,1024,1024,224.1,-89.9,96,3.912,3.929,3.943,3.937,0,0,17.584,64.4,14,Waypoint,
36.7935149,-118.9150237,5376.5681028245,73.162732,0,0.9596128916,12800,2018-04-15 19:43:13,16,0,23.606,5376.5681028245,73.162732,0.447388,2.06607946244,0,0,-0.671082,226.3, -0.2, 0.5,0,0,1024,1024,1024,1024,224,-90,96,3.912,3.929,3.943,3.937,0,0,17.584,64.4,14,Waypoint,
36.7935149,-118.9150236,5377.5523548245,74.146984,0,0.97593178976,12900,2018-04-15 19:43:13,16,0,23.606,5377.5523548245,74.146984,0.447388,2.06607946244,0,0,-0.671082,226.7, -0.2, 0.8,0,0,1024,1024,1024,1024,224,-89.9,96,3.912,3.929,3.943,3.937,0,0,17.584,64.4,14,Waypoint,
36.7935149,-118.9150236,5378.5366068245,75.131236,0,0.97593178976,13000,2018-04-15 19:43:13,16,0,23.499,5378.5366068245,75.131236,0.447388,2.06607946244,0,0,-0.671082,226.8, -0.3, 1.5,0,0,1024,1024,1024,1024,224.1,-90,96,3.904,3.917,3.917,3.924,0,0,18.042,64.4,14,Waypoint,
36.7935148,-118.9150234,5379.5208588245,76.115488,0,1.039534154,13100,2018-04-15 19:43:13,16,0,23.499,5379.5208588245,76.115488,0.447388,2.06607946244,0,0,-0.671082,226.4, -0.6, 2.1,0,0,1024,1024,1024,1024,224.1,-90,96,3.904,3.917,3.917,3.924,0,0,18.042,64.4,14,Waypoint,
36.7935148,-118.9150233,5380.5051108245,77.09974,0,1.05704399708,13200,2018-04-15 19:43:13,16,0,23.499,5380.5051108245,77.09974,0.447388,2.06607946244,0,0,-0.671082,225.8, -0.7, 2.8,0,0,1024,1024,1024,1024,224.1,-90,96,3.904,3.917,3.917,3.924,0,0,18.042,64.4,14,Waypoint,
36.7935148,-118.9150232,5381.4893628245,78.083992,0,1.07505908952,13300,2018-04-15 19:43:13,16,0,23.499,5381.4893628245,78.083992,0.447388,2.06607946244,0,0,-0.671082,225.1, -1, 3.2,0,0,1024,1024,1024,1024,224.1,-90,96,3.904,3.917,3.917,3.924,0,0,18.042,64.4,14,Waypoint,
36.7935148,-118.9150231,5382.4736148245,79.068244,0,1.09355974628,13400,2018-04-15 19:43:13,16,0,23.499,5382.4736148245,79.068244,0.447388,2.06607946244,0,0,-0.671082,224.5, -1, 3.1,0,0,1024,1024,1024,1024,224.1,-90,96,3.904,3.917,3.917,3.924,0,0,18.042,64.4,14,Waypoint,
36.7935149,-118.915023,5383.4578668245,80.052496,0,1.08526578276,13500,2018-04-15 19:43:14,16,0,23.499,5383.4578668245,80.052496,0.447388,2.06607946244,0,0,-0.671082,224.1, -1.3, 2.7,0,0,1024,1024,1024,1024,224.1,-90,96,3.904,3.917,3.917,3.924,0,0,18.042,64.4,14,Waypoint,
36.7935149,-118.915023,5384.4421188245,81.036748,0,1.08526578276,13600,2018-04-15 19:43:14,16,0,23.499,5384.4421188245,81.036748,0.447388,2.06607946244,0,0,-0.671082,223.9, -1.7, 2.4,0,0,1024,1024,1024,1024,224.1,-90,96,3.904,3.917,3.917,3.924,0,0,18.042,64.4,14,Waypoint,
36.7935149,-118.9150229,5385.4263708245,82.021,0,1.10514111148,13700,2018-04-15 19:43:14,16,0,23.499,5385.4263708245,82.021,0.447388,2.06607946244,0,0,-0.671082,223.9, -1.7, 2.1,0,0,1024,1024,1024,1024,224.1,-89.9,96,3.904,3.917,3.917,3.924,0,0,18.042,64.4,14,Waypoint,
36.7935149,-118.9150229,5386.4106228245,83.005252,0,1.10514111148,13800,2018-04-15 19:43:14,16,0,23.499,5386.4106228245,83.005252,0.447388,2.06607946244,0,0,-0.671082,223.9, -1.6, 1.9,0,0,1024,1024,1024,1024,224.1,-90,96,3.904,3.917,3.917,3.924,0,0,18.042,64.4,14,Waypoint,
36.793515,-118.9150229,5387.0667908245,83.66142,0,1.07893376156,13900,2018-04-15 19:43:14,16,0,23.499,5387.0667908245,83.66142,0.447388,2.06607946244,0,0,-0.671082,223.9, -1.9, 1.6,0,0,1024,1024,1024,1024,224.1,-90,96,3.904,3.917,3.917,3.924,0,0,18.042,64.4,14,Waypoint,
36.7935151,-118.9150229,5388.0510428245,84.645672,0,1.05333664788,14000,2018-04-15 19:43:14,16,0,23.508,5388.0510428245,84.645672,0.447388,2.06607946244,0,0,-0.671082,224.1, -2.1, 1.1,0,0,1024,1024,1024,1024,224.1,-90,95,3.903,3.917,3.915,3.923,0,0,17.884,64.4,14,Waypoint,
36.7935151,-118.9150229,5389.3633788245,85.958008,0,1.05333664788,14100,2018-04-15 19:43:14,16,0,23.508,5389.3633788245,85.958008,0.447388,2.06607946244,0,0,-0.671082,224.4, -2, 1.1,0,0,1024,1024,1024,1024,224.1,-89.9,95,3.903,3.917,3.915,3.923,0,0,17.884,64.4,14,Waypoint,
36.7935151,-118.9150229,5391.3318828245,87.926512,0,1.05333664788,14300,2018-04-15 19:43:14,16,0,23.508,5391.3318828245,87.926512,0.447388,2.06607946244,0,0,-0.671082,225, -1.2, 1,0,0,1024,1024,1024,1024,224.1,-89.9,95,3.903,3.917,3.915,3.923,0,0,17.884,64.4,14,Waypoint,
36.7935151,-118.9150228,5392.9723028245,89.566932,0,1.07459977192,14410,2018-04-15 19:43:14,16,0,23.508,5392.9723028245,89.566932,0.447388,2.06607946244,0,0,-0.671082,225.7, -1.1, 1.6,0,0,1024,1024,1024,1024,224.1,-89.9,95,3.903,3.917,3.915,3.923,0,0,17.884,64.4,14,Waypoint,
36.7935151,-118.9150228,5393.9565548245,90.551184,0,1.07459977192,14700,2018-04-15 19:43:15,16,0,23.508,5393.9565548245,90.551184,0.447388,2.06607946244,0,0,-0.671082,225.8, -1.2, 1.4,0,0,1024,1024,1024,1024,224.1,-90,95,3.903,3.917,3.915,3.923,0,0,17.884,64.4,14,Waypoint,
36.7935152,-118.9150228,5396.2531428245,92.847772,0,1.05016735644,14820,2018-04-15 19:43:15,16,0,23.508,5396.2531428245,92.847772,0.447388,2.06607946244,0,0,-0.671082,225.7, -1.5, 0,0,0,1024,1024,1024,1024,224.1,-89.9,95,3.903,3.917,3.915,3.923,0,0,17.884,64.4,14,Waypoint,
36.7935152,-118.9150228,5396.2531428245,92.847772,0,1.05016735644,14900,2018-04-15 19:43:15,16,0,23.508,5396.2531428245,92.847772,0.447388,2.06607946244,0,0,-0.671082,225.7, -1.5, 0,0,0,1024,1024,1024,1024,224.1,-89.9,95,3.903,3.917,3.915,3.923,0,0,17.884,64.4,14,Waypoint,
36.7935152,-118.9150229,5397.2373948245,93.832024,0,1.02839898304,15010,2018-04-15 19:43:15,16,0,23.452,5397.2373948245,93.832024,0.447388,2.06607946244,0,0,-0.671082,225.7, -1.3, -0.1,0,0,1024,1024,1024,1024,224.1,-90,95,3.879,3.9,3.904,3.909,0,0,18.143,64.4,14,Waypoint,
36.7935152,-118.9150229,5398.2216468245,94.816276,0,1.02839898304,15100,2018-04-15 19:43:15,16,0,23.452,5398.2216468245,94.816276,0.447388,2.06607946244,0,0,-0.671082,225.8, -1, 0,0,0,1024,1024,1024,1024,224.1,-89.9,95,3.879,3.9,3.904,3.909,0,0,18.143,64.4,14,Waypoint,
36.7935151,-118.915023,5399.8620668245,96.456696,0,1.0324639438,15210,2018-04-15 19:43:15,16,0,23.452,5399.8620668245,96.456696,0.447388,2.06607946244,0,0,-0.671082,225.7, -0.2, 0.6,0,0,1024,1024,1024,1024,224.1,-89.9,95,3.879,3.9,3.904,3.909,0,0,18.143,64.4,14,Waypoint,
36.793515,-118.915023,5400.8463188245,97.440948,0,1.05856630684,15400,2018-04-15 19:43:15,16,0,23.452,5400.8463188245,97.440948,0.447388,2.06607946244,0,0,-0.671082,225.4, -0.1, 1.2,0,0,1024,1024,1024,1024,224.1,-89.9,95,3.879,3.9,3.904,3.909,0,0,18.143,64.4,14,Waypoint,
36.7935149,-118.915023,5402.8148228245,99.409452,0,1.08526578276,15600,2018-04-15 19:43:16,16,0,23.452,5402.8148228245,99.409452,0.447388,2.06607946244,0,0,-0.671082,224.8, -0.3, 1.4,0,0,1024,1024,1024,1024,224.1,-89.9,95,3.879,3.9,3.904,3.909,0,0,18.143,64.4,14,Waypoint,
36.7935149,-118.9150231,5403.7990748245,100.393704,0,1.06582024408,15700,2018-04-15 19:43:16,16,0,23.452,5403.7990748245,100.393704,0.447388,2.06607946244,0,0,-0.671082,224.6, -0.3, 1.3,0,0,1024,1024,1024,1024,224.1,-89.9,95,3.879,3.9,3.904,3.909,0,0,18.143,64.4,14,Waypoint,
36.7935149,-118.9150231,5404.7833268245,101.377956,0,1.06582024408,15800,2018-04-15 19:43:16,16,0,23.452,5404.7833268245,101.377956,0.447388,2.06607946244,0,0,-0.671082,224.5, -0.3, 1.1,0,0,1024,1024,1024,1024,224.1,-89.9,95,3.879,3.9,3.904,3.909,0,0,18.143,64.4,14,Waypoint,
36.7935148,-118.9150232,5407.0799148245,103.674544,0,1.07505908952,16000,2018-04-15 19:43:16,16,0,23.132,5407.0799148245,103.674544,0.447388,2.06607946244,0,0,-0.671082,224.4, -0.5, 1.2,0,0,1024,1024,1024,1024,224.1,-89.9,95,3.803,3.839,3.836,3.842,0,0,22.279,64.4,14,Waypoint,
36.7935148,-118.9150232,5408.0641668245,104.658796,0,1.07505908952,16100,2018-04-15 19:43:16,16,0,23.132,5408.0641668245,104.658796,0.447388,2.06607946244,0,0,-0.671082,224.4, -0.5, 1.1,0,0,1024,1024,1024,1024,224.1,-89.9,95,3.803,3.839,3.836,3.842,0,0,22.279,64.4,14,Waypoint,
36.7935147,-118.9150233,5409.0484188245,105.643048,0,1.08623363056,16200,2018-04-15 19:43:16,16,0,23.132,5409.0484188245,105.643048,0.447388,2.06607946244,0,0,-0.671082,224.5, 0.1, 1.2,0,0,1024,1024,1024,1024,224.1,-89.9,95,3.803,3.839,3.836,3.842,0,0,22.279,64.4,14,Waypoint,
36.7935147,-118.9150233,5410.0326708245,106.6273,0,1.08623363056,16300,2018-04-15 19:43:16,16,0,23.132,5410.0326708245,106.6273,0.447388,2.06607946244,0,0,-0.671082,224.5, 0.8, 0.7,0,0,1024,1024,1024,1024,224.1,-89.9,95,3.803,3.839,3.836,3.842,0,0,22.279,64.4,14,Waypoint,
36.7935146,-118.9150233,5411.0169228245,107.611552,0,1.11585305408,16400,2018-04-15 19:43:16,16,0,23.132,5411.0169228245,107.611552,0.447388,2.06607946244,0,0,-0.671082,224.6, 0.4, 0.6,0,0,1024,1024,1024,1024,224.1,-89.9,95,3.803,3.839,3.836,3.842,0,0,22.279,64.4,14,Waypoint,
36.7935146,-118.9150233,5412.0011748245,108.595804,0,1.11585305408,16500,2018-04-15 19:43:17,16,0,23.132,5412.0011748245,108.595804,0.447388,2.06607946244,0,0,-0.671082,224.5, -0.2, 1,0,0,1024,1024,1024,1024,224.1,-89.9,95,3.803,3.839,3.836,3.842,0,0,22.279,64.4,14,Waypoint,
36.7935146,-118.9150232,5412.9854268245,109.580056,0,1.13293638796,16600,2018-04-15 19:43:17,16,0,23.132,5412.9854268245,109.580056,0.447388,2.06607946244,0,0,-0.671082,224.5, -0.8, 1.5,0,0,1024,1024,1024,1024,224.1,-90,95,3.803,3.839,3.836,3.842,0,0,22.279,64.4,14,Waypoint,
36.7935146,-118.9150231,5413.9696788245,110.564308,0,1.15050528616,16700,2018-04-15 19:43:17,16,0,23.132,5413.9696788245,110.564308,0.447388,2.06607946244,0,0,-0.671082,224.4, -1.3, 1.7,0,0,1024,1024,1024,1024,224.1,-90,95,3.803,3.839,3.836,3.842,0,0,22.279,64.4,14,Waypoint,
36.7935145,-118.915023,5414.9539308245,111.54856,0,1.19724085196,16800,2018-04-15 19:43:17,16,0,23.132,5414.9539308245,111.54856,0.447388,2.06607946244,0,0,-0.671082,224.5, -1.5, 1.8,0,0,1024,1024,1024,1024,224.1,-90,95,3.803,3.839,3.836,3.842,0,0,22.279,64.4,14,Waypoint,
36.7935145,-118.9150229,5415.9381828245,112.532812,0,1.21528547196,16900,2018-04-15 19:43:17,16,0,23.132,5415.9381828245,112.532812,0.447388,2.06607946244,0,0,-0.671082,224.6, -1.6, 1.7,0,0,1024,1024,1024,1024,224.1,-90,95,3.803,3.839,3.836,3.842,0,0,22.279,64.4,14,Waypoint,
36.7935145,-118.9150227,5416.9224348245,113.517064,0,1.2526411162,17000,2018-04-15 19:43:17,16,0,23.147,5416.9224348245,113.517064,0.447388,2.06607946244,0,0,-0.671082,224.7, -1.7, 1.9,0,0,1024,1024,1024,1024,224.1,-90,95,3.803,3.839,3.836,3.842,0,0,20.242,64.4,14,Waypoint,
36.7935145,-118.9150226,5417.9066868245,114.501316,0,1.2719160512,17100,2018-04-15 19:43:17,16,0,23.147,5417.9066868245,114.501316,0.447388,2.06607946244,0,0,-0.671082,224.8, -1.8, 2.2,0,0,1024,1024,1024,1024,224.1,-90,95,3.803,3.839,3.836,3.842,0,0,20.242,64.4,14,Waypoint,
36.7935145,-118.9150225,5418.8909388245,115.485568,0,1.29156172112,17300,2018-04-15 19:43:17,16,0,23.147,5418.8909388245,115.485568,0.447388,2.06607946244,0,0,-0.671082,224.9, -2.1, 2.6,0,0,1024,1024,1024,1024,224.1,-90,95,3.803,3.839,3.836,3.842,0,0,20.242,64.4,14,Waypoint,
36.7935144,-118.9150222,5420.8594428245,117.454072,0,1.3784121176,17400,2018-04-15 19:43:17,16,0,23.147,5420.8594428245,117.454072,0.447388,2.06607946244,0,0,-0.671082,225, -2.4, 2.6,0,0,1024,1024,1024,1024,224.1,-89.9,95,3.803,3.839,3.836,3.842,0,0,20.242,64.4,14,Waypoint,
36.7935144,-118.9150221,5422.8279468245,119.422576,0,1.39900595028,17600,2018-04-15 19:43:18,16,0,23.147,5422.8279468245,119.422576,0.447388,2.06607946244,0,0,-0.671082,225.9, -1.4, 2.7,0,0,1024,1024,1024,1024,224.1,-89.9,95,3.803,3.839,3.836,3.842,0,0,20.242,64.4,14,Waypoint,
36.7935144,-118.9150221,5423.8121988245,120.406828,0,1.39900595028,17700,2018-04-15 19:43:18,16,0,23.147,5423.8121988245,120.406828,0.447388,2.06607946244,0,0,-0.671082,226.1, -1.2, 2.8,0,0,1024,1024,1024,1024,224.1,-89.9,95,3.803,3.839,3.836,3.842,0,0,20.242,64.4,14,Waypoint,
36.7935144,-118.915022,5424.7964508245,121.39108,0,1.41990162024,17800,2018-04-15 19:43:18,16,0,23.147,5424.7964508245,121.39108,0.447388,2.06607946244,0,0,-0.671082,226, -1.4, 2.4,0,0,1024,1024,1024,1024,224.1,-90,95,3.803,3.839,3.836,3.842,0,0,20.242,64.4,14,Waypoint,
36.7935144,-118.915022,5425.7807028245,122.375332,0,1.41990162024,17900,2018-04-15 19:43:18,16,0,23.147,5425.7807028245,122.375332,0.447388,2.06607946244,0,0,-0.671082,225.7, -1.5, 2,0,0,1024,1024,1024,1024,224.1,-90,95,3.803,3.839,3.836,3.842,0,0,20.242,64.4,14,Waypoint,
36.7935144,-118.9150219,5426.7649548245,123.359584,0,1.44108600412,18000,2018-04-15 19:43:18,16,0,23.147,5426.7649548245,123.359584,0.447388,2.06607946244,0,0,-0.671082,225.5, -1.7, 1.9,0,0,1024,1024,1024,1024,224.1,-90,95,3.861,3.859,3.879,3.878,0,0,20.242,64.4,14,Waypoint,
36.7935145,-118.9150219,5427.7492068245,124.343836,0,1.41639440228,18100,2018-04-15 19:43:18,16,0,23.147,5427.7492068245,124.343836,0.447388,2.06607946244,0,0,-0.671082,225.2, -1.8, 2.4,0,0,1024,1024,1024,1024,224.1,-90,95,3.861,3.859,3.879,3.878,0,0,20.242,64.4,14,Waypoint,
36.7935145,-118.9150219,5428.7334588245,125.328088,0,1.41639440228,18200,2018-04-15 19:43:18,16,0,23.147,5428.7334588245,125.328088,0.447388,2.06607946244,0,0,-0.671082,224.8, -2, 2.5,0,0,1024,1024,1024,1024,224.1,-90,95,3.861,3.859,3.879,3.878,0,0,20.242,64.4,14,Waypoint,
36.7935145,-118.9150219,5429.7177108245,126.31234,0,1.41639440228,18300,2018-04-15 19:43:18,16,0,23.147,5429.7177108245,126.31234,0.447388,2.06607946244,0,0,-0.671082,224.5, -2, 2.5,0,0,1024,1024,1024,1024,224.1,-90,95,3.861,3.859,3.879,3.878,0,0,20.242,64.4,14,Waypoint,
36.7935145,-118.9150219,5431.0300468245,127.624676,0,1.41639440228,18400,2018-04-15 19:43:18,16,0,23.147,5431.0300468245,127.624676,0.447388,2.06607946244,0,0,-0.671082,224.3, -2.1, 2.1,0,0,1024,1024,1024,1024,224.1,-90,95,3.861,3.859,3.879,3.878,0,0,20.242,64.4,14,Waypoint,
36.7935146,-118.9150219,5432.0142988245,128.608928,0,1.392224454,18500,2018-04-15 19:43:19,16,0,23.147,5432.0142988245,128.608928,0.447388,2.06607946244,0,0,-0.671082,224.3, -1.7, 2.2,0,0,1024,1024,1024,1024,224.1,-89.9,95,3.861,3.859,3.879,3.878,0,0,20.242,64.4,14,Waypoint,
36.7935146,-118.915022,5432.9985508245,129.59318,0,1.37028547692,18600,2018-04-15 19:43:19,16,0,23.147,5432.9985508245,129.59318,0.447388,2.06607946244,0,0,-0.671082,224.4, -1.5, 2,0,0,1024,1024,1024,1024,224.1,-89.9,95,3.861,3.859,3.879,3.878,0,0,20.242,64.4,14,Waypoint,
36.7935146,-118.915022,5433.9828028245,130.577432,0,1.37028547692,18700,2018-04-15 19:43:19,16,0,23.147,5433.9828028245,130.577432,0.447388,2.06607946244,0,0,-0.671082,224.5, -1.7, 1.6,0,0,1024,1024,1024,1024,224.1,-90,95,3.861,3.859,3.879,3.878,0,0,20.242,64.4,14,Waypoint,
36.7935146,-118.915022,5435.9513068245,132.545936,0,1.37028547692,18900,2018-04-15 19:43:19,16,0,23.147,5435.9513068245,132.545936,0.447388,2.06607946244,0,0,-0.671082,225, -1.7, 1.6,0,0,1024,1024,1024,1024,224.1,-90,95,3.861,3.859,3.879,3.878,0,0,20.242,64.4,14,Waypoint,
36.7935147,-118.915022,5438.9040628245,135.498692,0,1.34627300896,19200,2018-04-15 19:43:19,16,0,23.147,5438.9040628245,135.498692,0.447388,2.06607946244,0,0,-0.671082,225.2, -1.6, 1.8,0,0,1024,1024,1024,1024,224.1,-89.9,95,3.861,3.859,3.879,3.878,0,0,20.242,64.4,14,Waypoint,
36.7935147,-118.9150221,5439.8883148245,136.482944,0,1.32421592164,19300,2018-04-15 19:43:19,16,0,23.147,5439.8883148245,136.482944,0.447388,2.06607946244,0,0,-0.671082,225, -1.3, 2.3,0,0,1024,1024,1024,1024,224.1,-89.9,95,3.861,3.859,3.879,3.878,0,0,20.242,64.4,14,Waypoint,
36.7935146,-118.9150222,5440.8725668245,137.467196,0,1.3272474178,19400,2018-04-15 19:43:19,16,0,23.147,5440.8725668245,137.467196,0.447388,2.06607946244,0,0,-0.671082,224.8, -1.1, 2.1,0,0,1024,1024,1024,1024,224.1,-89.9,95,3.861,3.859,3.879,3.878,0,0,20.242,64.4,14,Waypoint,
36.7935147,-118.9150223,5442.8410708245,139.4357,0,1.28096460792,19610,2018-04-15 19:43:20,16,0,23.147,5442.8410708245,139.4357,0.447388,2.06607946244,0,0,-0.671082,224.6, -1.1, 1.8,0,0,1024,1024,1024,1024,224.1,-89.9,95,3.861,3.859,3.879,3.878,0,0,20.242,64.4,14,Waypoint,
36.7935147,-118.9150223,5443.8253228245,140.419952,0,1.28096460792,19700,2018-04-15 19:43:20,16,0,23.147,5443.8253228245,140.419952,0.447388,2.06607946244,0,0,-0.671082,224.9, -1.4, 1.6,0,0,1024,1024,1024,1024,224.1,-89.9,95,3.861,3.859,3.879,3.878,0,0,20.242,64.4,14,Waypoint,
36.7935148,-118.9150224,5445.1376588245,141.732288,0,1.23471788728,19810,2018-04-15 19:43:20,17,0,23.147,5445.1376588245,141.732288,0.447388,2.06607946244,0,0,-0.671082,225.4, -1.6, 2.5,0,0,1024,1024,1024,1024,224.1,-89.9,95,3.861,3.859,3.879,3.878,0,0,20.242,64.4,14,Waypoint,
36.7935148,-118.9150225,5446.7780788245,143.372708,0.223694,1.21344820156,19910,2018-04-15 19:43:20,17,0,23.147,5446.7780788245,143.372708,0.447388,2.06607946244,0,0,-0.671082,225.6, -1.2, 2.2,0,0,1024,1024,1024,1024,224.1,-89.9,95,3.861,3.859,3.879,3.878,0,0,20.242,64.4,14,Waypoint,
36.7935149,-118.9150226,5448.7465828245,145.341212,0,1.16712930244,20100,2018-04-15 19:43:20,17,0,23.147,5448.7465828245,145.341212,0.447388,2.06607946244,0,0,-0.671082,225.4, -1, 1.4,0,0,1024,1024,1024,1024,224.1,-89.9,95,3.861,3.859,3.879,3.878,0,0,20.242,64.4,14,Waypoint,
36.7935149,-118.9150227,5450.0589188245,146.653548,0,1.14609255636,20300,2018-04-15 19:43:20,17,0,23.147,5450.0589188245,146.653548,0.447388,2.06607946244,0,0,-0.671082,225.7, -1.1, 1.6,0,0,1024,1024,1024,1024,224.1,-89.9,95,3.861,3.859,3.879,3.878,0,0,20.242,64.4,14,Waypoint,
36.793515,-118.9150228,5451.0431708245,147.6378,0.223694,1.09970147876,20400,2018-04-15 19:43:20,17,0,23.147,5451.0431708245,147.6378,0.447388,2.06607946244,0,0,-0.671082,226, -1.2, 1.5,0,0,1024,1024,1024,1024,224.1,-90,95,3.861,3.859,3.879,3.878,0,0,20.242,64.4,14,Waypoint,
36.793515,-118.9150229,5452.0274228245,148.622052,0.223694,1.07893376156,20500,2018-04-15 19:43:21,17,0,23.147,5452.0274228245,148.622052,0.447388,2.06607946244,0,0,-0.671082,225.9, -1.6, 1,0,0,1024,1024,1024,1024,224.1,-90,95,3.861,3.859,3.879,3.878,0,0,20.242,64.4,14,Waypoint,
36.7935152,-118.9150229,5452.6835908245,149.27822,0.223694,1.02839898304,20600,2018-04-15 19:43:21,17,0,23.147,5452.6835908245,149.27822,0.447388,2.06607946244,0,0,-0.671082,225.6, -2.1, 0.2,0,0,1024,1024,1024,1024,224.1,-90,95,3.861,3.859,3.879,3.878,0,0,20.242,64.4,14,Waypoint,
36.7935153,-118.915023,5453.6678428245,150.262472,0.223694,0.9822506876,20700,2018-04-15 19:43:21,17,0,23.147,5453.6678428245,150.262472,0.447388,2.06607946244,0,0,-0.671082,225.2, -2.8, -0.6,0,0,1024,1024,1024,1024,224.1,-90,95,3.861,3.859,3.879,3.878,0,0,20.242,64.4,14,Waypoint,
36.7935154,-118.915023,5454.6520948245,151.246724,0.223694,0.95824150048,20800,2018-04-15 19:43:21,17,0,23.147,5454.6520948245,151.246724,0.447388,2.06607946244,0,0,-0.671082,224.9, -3.1, -1.2,0,0,1024,1024,1024,1024,224.1,-90,95,3.861,3.859,3.879,3.878,0,0,20.242,64.4,14,Waypoint,
36.7935155,-118.9150229,5455.3082628245,151.902892,0.223694,0.9580380884,20900,2018-04-15 19:43:21,17,0,23.147,5455.3082628245,151.902892,0.447388,2.06607946244,0,0,-0.671082,224.8, -3, -0.6,0,0,1024,1024,1024,1024,224.1,-90,95,3.861,3.859,3.879,3.878,0,0,20.242,64.4,14,Waypoint,
36.7935156,-118.9150229,5456.2925148245,152.887144,0,0.9362533108,21000,2018-04-15 19:43:21,17,0,23.397,5456.2925148245,152.887144,0.447388,2.06607946244,0,0,-0.671082,224.8, -3.1, 0.2,0,0,1024,1024,1024,1024,224.1,-89.9,95,3.893,3.897,3.91,3.905,0,0,17.033,66.2,14,Waypoint,
36.7935157,-118.9150228,5457.2767668245,153.871396,0,0.93979333716,21100,2018-04-15 19:43:21,17,0,23.397,5457.2767668245,153.871396,0.447388,2.06607946244,0,0,-0.671082,224.8, -3.1, 1,0,0,1024,1024,1024,1024,224.1,-89.9,95,3.893,3.897,3.91,3.905,0,0,17.033,66.2,14,Waypoint,
36.7935157,-118.9150228,5458.2610188245,154.855648,0,0.93979333716,21200,2018-04-15 19:43:21,17,0,23.397,5458.2610188245,154.855648,0.447388,2.06607946244,0,0,-0.671082,224.7, -3.1, 0.8,0,0,1024,1024,1024,1024,224.1,-90,95,3.893,3.897,3.91,3.905,0,0,17.033,66.2,14,Waypoint,
36.7935158,-118.9150227,5459.2452708245,155.8399,0,0.94562995152,21300,2018-04-15 19:43:21,17,0,23.397,5459.2452708245,155.8399,0.447388,2.06607946244,0,0,-0.671082,224.6, -2.8, 0.9,0,0,1024,1024,1024,1024,224.1,-90,95,3.893,3.897,3.91,3.905,0,0,17.033,66.2,14,Waypoint,
36.7935159,-118.9150226,5460.2295228245,156.824152,0,0.95372706464,21400,2018-04-15 19:43:21,17,0,23.397,5460.2295228245,156.824152,0.447388,2.06607946244,0,0,-0.671082,224.6, -2.9, 1.1,0,0,1024,1024,1024,1024,224.1,-90,95,3.893,3.897,3.91,3.905,0,0,17.033,66.2,14,Waypoint,
36.793516,-118.9150225,5461.2137748245,157.808404,0,0.9640256214,21500,2018-04-15 19:43:22,17,0,23.397,5461.2137748245,157.808404,0.447388,2.06607946244,0,0,-0.671082,224.7, -3.4, 1.3,0,0,1024,1024,1024,1024,224.1,-90,95,3.893,3.897,3.91,3.905,0,0,17.033,66.2,14,Waypoint,
36.7935161,-118.9150225,5462.1980268245,158.792656,0.223694,0.94941604088,21600,2018-04-15 19:43:22,17,0,23.397,5462.1980268245,158.792656,0.447388,2.06607946244,0,0,-0.671082,224.7, -4.1, 1.3,0,0,1024,1024,1024,1024,224.1,-90,95,3.893,3.897,3.91,3.905,0,0,17.033,66.2,14,Waypoint,
36.7935162,-118.9150224,5463.1822788245,159.776908,0.223694,0.96341538516,21700,2018-04-15 19:43:22,17,0,23.397,5463.1822788245,159.776908,0.447388,2.06607946244,0,0,-0.671082,224.8, -4.6, 1.2,0,0,1024,1024,1024,1024,224.1,-90,95,3.893,3.897,3.91,3.905,0,0,17.033,66.2,14,Waypoint,
36.7935164,-118.9150224,5464.1665308245,160.76116,0.223694,0.94104989888,21800,2018-04-15 19:43:22,17,0,23.397,5464.1665308245,160.76116,0.447388,2.06607946244,0,0,-0.671082,224.6, -4.9, 0.7,0,0,1024,1024,1024,1024,224.1,-90,95,3.893,3.897,3.91,3.905,0,0,17.033,66.2,14,Waypoint,
36.7935166,-118.9150222,5467.1192868245,163.713916,0,0.98126971644,22010,2018-04-15 19:43:22,17,0,23.104,5467.1192868245,163.713916,0.447388,2.06607946244,0,0,-0.671082,223.7, -5, 1.2,0,0,1024,1024,1024,1024,224.1,-90,94,3.823,3.846,3.853,3.848,0,0,20.493,66.2,14,Waypoint,
36.7935166,-118.9150222,5468.1035388245,164.698168,0,0.98126971644,22220,2018-04-15 19:43:22,17,0,23.104,5468.1035388245,164.698168,0.447388,2.06607946244,0,0,-0.671082,223.6, -4.6, 2.1,0,0,1024,1024,1024,1024,224.1,-89.9,94,3.823,3.846,3.853,3.848,0,0,20.493,66.2,14,Waypoint,
36.7935165,-118.9150222,5469.4158748245,166.010504,0,0.98870409988,22300,2018-04-15 19:43:22,17,0,23.104,5469.4158748245,166.010504,0.447388,2.06607946244,0,0,-0.671082,223.8, -3.7, 2,0,0,1024,1024,1024,1024,224.1,-89.9,94,3.823,3.846,3.853,3.848,0,0,20.493,66.2,14,Waypoint,
36.7935165,-118.9150222,5470.4001268245,166.994756,0,0.98870409988,22400,2018-04-15 19:43:22,17,0,23.104,5470.4001268245,166.994756,0.447388,2.06607946244,0,0,-0.671082,224, -2.9, 1.7,0,0,1024,1024,1024,1024,224.1,-89.9,94,3.823,3.846,3.853,3.848,0,0,20.493,66.2,14,Waypoint,
36.7935164,-118.9150222,5471.0562948245,167.650924,0.223694,0.99741801092,22500,2018-04-15 19:43:23,17,0,23.104,5471.0562948245,167.650924,0.447388,2.06607946244,0,0,-0.671082,224.2, -2.2, 2,0,0,1024,1024,1024,1024,224.1,-89.9,94,3.823,3.846,3.853,3.848,0,0,20.493,66.2,14,Waypoint,
36.793516,-118.9150221,5474.3371348245,170.931764,0.223694,1.0713911104,22710,2018-04-15 19:43:23,17,0,23.104,5474.3371348245,170.931764,0.447388,2.06607946244,0,0,-0.671082,224.5, -2.3, 4.3,0,0,1024,1024,1024,1024,224.1,-89.9,94,3.823,3.846,3.853,3.848,0,0,20.493,66.2,14,Waypoint,
36.793516,-118.9150221,5474.3371348245,170.931764,0.223694,1.0713911104,22800,2018-04-15 19:43:23,17,0,23.104,5474.3371348245,170.931764,0.447388,2.06607946244,0,0,-0.671082,224.5, -2.3, 4.3,0,0,1024,1024,1024,1024,224.1,-89.9,94,3.823,3.846,3.853,3.848,0,0,20.493,66.2,14,Waypoint,
36.7935159,-118.9150221,5475.3213868245,171.916016,0.223694,1.08558402424,22900,2018-04-15 19:43:23,17,0,23.104,5475.3213868245,171.916016,0.447388,2.06607946244,0,0,-0.671082,224.7, -1.8, 4.5,0,0,1024,1024,1024,1024,224.1,-89.9,94,3.823,3.846,3.853,3.848,0,0,20.493,66.2,14,Waypoint,
36.7935157,-118.9150221,5476.3056388245,172.900268,0.223694,1.1170111906,23000,2018-04-15 19:43:23,17,0,23.062,5476.3056388245,172.900268,0.447388,2.06607946244,0,0,-0.671082,225, -1.2, 4.4,0,0,1024,1024,1024,1024,224.1,-89.9,94,3.823,3.846,3.853,3.848,0,0,20.41,66.2,14,Waypoint,
36.7935155,-118.9150221,5477.2898908245,173.88452,0.223694,1.15220804212,23100,2018-04-15 19:43:23,17,0,23.062,5477.2898908245,173.88452,0.447388,2.06607946244,0,0,-0.671082,225.3, -1.2, 4.1,0,0,1024,1024,1024,1024,224.1,-89.9,94,3.823,3.846,3.853,3.848,0,0,20.41,66.2,14,Waypoint,
36.7935153,-118.9150221,5478.2741428245,174.868772,0.223694,1.19083993312,23200,2018-04-15 19:43:23,17,0,23.062,5478.2741428245,174.868772,0.447388,2.06607946244,0,0,-0.671082,225.7, -1.1, 3.9,0,0,1024,1024,1024,1024,224.1,-89.9,94,3.823,3.846,3.853,3.848,0,0,20.41,66.2,14,Waypoint,
36.7935151,-118.9150222,5478.9303108245,175.52494,0.447388,1.20916342452,23300,2018-04-15 19:43:23,17,0,23.062,5478.9303108245,175.52494,0.447388,2.06607946244,0,0,-0.671082,226.1, -0.4, 4.1,0,0,1024,1024,1024,1024,224.1,-89.9,94,3.823,3.846,3.853,3.848,0,0,20.41,66.2,14,Waypoint,
36.7935149,-118.9150222,5479.9145628245,176.509192,0.447388,1.25454728424,23400,2018-04-15 19:43:23,17,0,23.062,5479.9145628245,176.509192,0.447388,2.06607946244,0,0,-0.671082,226.1, 0.1, 5,0,0,1024,1024,1024,1024,224.1,-89.9,94,3.823,3.846,3.853,3.848,0,0,20.41,66.2,14,Waypoint,
36.7935145,-118.9150223,5481.8830668245,178.477696,0.223694,1.33190949144,23600,2018-04-15 19:43:24,17,0,23.062,5481.8830668245,178.477696,0.447388,2.06607946244,0,0,-0.671082,225.7, 0.4, 5.5,0,0,1024,1024,1024,1024,224.1,-89.9,94,3.823,3.846,3.853,3.848,0,0,20.41,66.2,14,Waypoint,
36.7935141,-118.9150223,5483.8515708245,180.4462,0.223694,1.4395013584,23800,2018-04-15 19:43:24,17,0,23.062,5483.8515708245,180.4462,0.447388,2.06607946244,0,0,-0.671082,225.3, 0.5, 5.5,0,0,1024,1024,1024,1024,224.1,-89.9,94,3.823,3.846,3.853,3.848,0,0,20.41,66.2,14,Waypoint,
36.7935139,-118.9150224,5484.8358228245,181.430452,0.223694,1.47764768508,23900,2018-04-15 19:43:24,17,0,23.062,5484.8358228245,181.430452,0.447388,2.06607946244,0,0,-0.671082,225.2, 1, 4.7,0,0,1024,1024,1024,1024,224.1,-89.9,94,3.823,3.846,3.853,3.848,0,0,20.41,66.2,14,Waypoint,
36.7935138,-118.9150224,5485.4919908245,182.08662,0.223694,1.506643749,24000,2018-04-15 19:43:24,17,0,23.065,5485.4919908245,182.08662,0.447388,2.06607946244,0,0,-0.671082,224.9, 0.8, 4.4,0,0,1024,1024,1024,1024,224.1,-89.9,94,3.839,3.835,3.85,3.842,0,0,20.123,66.2,14,Waypoint,
36.7935136,-118.9150225,5486.4762428245,183.070872,0.223694,1.54884847476,24110,2018-04-15 19:43:24,17,0,23.065,5486.4762428245,183.070872,0.447388,2.06607946244,0,0,-0.671082,224.7, 0.7, 4.8,0,0,1024,1024,1024,1024,224.1,-89.9,94,3.839,3.835,3.85,3.842,0,0,20.123,66.2,14,Waypoint,
36.7935135,-118.9150225,5487.4604948245,184.055124,0.223694,1.57906501116,24210,2018-04-15 19:43:24,17,0,23.065,5487.4604948245,184.055124,0.447388,2.06607946244,0,0,-0.671082,224.7, 0.9, 5.4,0,0,1024,1024,1024,1024,224.1,-89.9,94,3.839,3.835,3.85,3.842,0,0,20.123,66.2,14,Waypoint,
36.7935133,-118.9150225,5488.7728308245,185.36746,0.223694,1.64026251968,24300,2018-04-15 19:43:24,17,0,23.065,5488.7728308245,185.36746,0.447388,2.06607946244,0,0,-0.671082,224.7, 0.8, 5.9,0,0,1024,1024,1024,1024,224.1,-89.9,94,3.839,3.835,3.85,3.842,0,0,20.123,66.2,14,Waypoint,
36.793513,-118.9150225,5490.7413348245,187.335964,0.223694,1.73376645968,24410,2018-04-15 19:43:24,17,0,23.065,5490.7413348245,187.335964,0.447388,2.06607946244,0,0,-0.671082,225.1, 1, 6.3,0,0,1024,1024,1024,1024,224.1,-89.9,94,3.839,3.835,3.85,3.842,0,0,20.123,66.2,14,Waypoint,
36.793513,-118.9150225,5490.7413348245,187.335964,0.223694,1.73376645968,24500,2018-04-15 19:43:25,17,0,23.065,5490.7413348245,187.335964,0.447388,2.06607946244,0,0,-0.671082,225.1, 1, 6.3,0,0,1024,1024,1024,1024,224.1,-89.9,94,3.839,3.835,3.85,3.842,0,0,20.123,66.2,14,Waypoint,
36.7935128,-118.9150225,5491.7255868245,188.320216,0.223694,1.79709979504,24600,2018-04-15 19:43:25,17,0,23.065,5491.7255868245,188.320216,0.447388,2.06607946244,0,0,-0.671082,225.3, 1.3, 6.5,0,0,1024,1024,1024,1024,224.1,-89.9,94,3.839,3.835,3.85,3.842,0,0,20.123,66.2,14,Waypoint,
36.7935127,-118.9150225,5492.3817548245,188.976384,0.223694,1.82903877244,24700,2018-04-15 19:43:25,17,0,23.065,5492.3817548245,188.976384,0.447388,2.06607946244,0,0,-0.671082,225.6, 1.1, 6.4,0,0,1024,1024,1024,1024,224.1,-89.9,94,3.839,3.835,3.85,3.842,0,0,20.123,66.2,14,Waypoint,
36.7935123,-118.9150225,5494.3502588245,190.944888,0.223694,1.95837932776,24900,2018-04-15 19:43:25,17,0,23.065,5494.3502588245,190.944888,0.447388,2.06607946244,0,0,-0.671082,225.6, 1.3, 6.5,0,0,1024,1024,1024,1024,224.1,-89.9,94,3.839,3.835,3.85,3.842,0,0,20.123,66.2,14,Waypoint,
36.7935121,-118.9150225,5495.3345108245,191.92914,0.223694,2.02389442172,25000,2018-04-15 19:43:25,17,0,22.93,5495.3345108245,191.92914,0.447388,2.06607946244,0,0,-0.671082,225.7, 1.6, 6.9,0,0,1024,1024,1024,1024,224.1,-90,94,3.811,3.821,3.829,3.823,0,0,21.82,66.2,14,Waypoint,
36.7935119,-118.9150225,5496.3187628245,192.913392,0.223694,2.08990492252,25100,2018-04-15 19:43:25,17,0,22.93,5496.3187628245,192.913392,0.447388,2.08990492252,0,0,-0.671082,225.7, 1.8, 7.2,0,0,1024,1024,1024,1024,224.1,-89.9,94,3.811,3.821,3.829,3.823,0,0,21.82,66.2,14,Waypoint,
36.7935118,-118.9150224,5497.3030148245,193.897644,0,2.13531174812,25200,2018-04-15 19:43:25,17,0,22.93,5497.3030148245,193.897644,0.447388,2.13531174812,0,0,-0.671082,225.7, 2.3, 7.5,0,0,1024,1024,1024,1024,224.1,-89.9,94,3.811,3.821,3.829,3.823,0,0,21.82,66.2,14,Waypoint,
36.7935117,-118.9150224,5498.2872668245,194.881896,0,2.1684055812,25300,2018-04-15 19:43:25,17,0,22.93,5498.2872668245,194.881896,0.447388,2.1684055812,0,0,-0.671082,225.6, 2.2, 7.7,0,0,1024,1024,1024,1024,224.1,-89.9,94,3.811,3.821,3.829,3.823,0,0,21.82,66.2,14,Waypoint,
36.7935116,-118.9150224,5498.9434348245,195.538064,0,2.201607682,25400,2018-04-15 19:43:25,17,0,22.93,5498.9434348245,195.538064,0.447388,2.201607682,0,0,-0.671082,225.4, 1.7, 7.4,0,0,1024,1024,1024,1024,224.1,-90,94,3.811,3.821,3.829,3.823,0,0,21.82,66.2,14,Waypoint,
36.7935116,-118.9150223,5499.9276868245,196.522316,0,2.21378944092,25500,2018-04-15 19:43:26,17,0,22.93,5499.9276868245,196.522316,0.447388,2.21378944092,0,0,-0.671082,225.2, 1.4, 6.8,0,0,1024,1024,1024,1024,224.1,-90,94,3.811,3.821,3.829,3.823,0,0,21.82,66.2,14,Waypoint,
36.7935116,-118.9150223,5500.9119388245,197.506568,0,2.21378944092,25600,2018-04-15 19:43:26,17,0,22.93,5500.9119388245,197.506568,0.447388,2.21378944092,0,0,-0.671082,224.9, 0.9, 6.2,0,0,1024,1024,1024,1024,224.1,-90,94,3.811,3.821,3.829,3.823,0,0,21.82,66.2,14,Waypoint,
36.7935116,-118.9150223,5501.8961908245,198.49082,0,2.21378944092,25700,2018-04-15 19:43:26,17,0,22.93,5501.8961908245,198.49082,0.447388,2.21378944092,0,0,-0.671082,224.8, 0.6, 5.8,0,0,1024,1024,1024,1024,224.1,-90,94,3.811,3.821,3.829,3.823,0,0,21.82,66.2,14,Waypoint,
36.7935116,-118.9150224,5502.8804428245,199.475072,0,2.201607682,25800,2018-04-15 19:43:26,17,0,22.93,5502.8804428245,199.475072,0.447388,2.21378944092,0,0,-0.671082,224.8, 0.3, 5.8,0,0,1024,1024,1024,1024,224.1,-90,94,3.811,3.821,3.829,3.823,0,0,21.82,66.2,14,Waypoint,
36.7935116,-118.9150224,5503.8646948245,200.459324,0,2.201607682,25900,2018-04-15 19:43:26,17,0,22.93,5503.8646948245,200.459324,0.447388,2.21378944092,0,0,-0.671082,224.9, 0.3, 6.1,0,0,1024,1024,1024,1024,224.1,-90,94,3.811,3.821,3.829,3.823,0,0,21.82,66.2,14,Waypoint,
36.7935117,-118.9150224,5504.8489468245,201.443576,0,2.1684055812,26000,2018-04-15 19:43:26,17,0,22.909,5504.8489468245,201.443576,0.447388,2.21378944092,0,0,-0.671082,225.2, 0.3, 6.2,0,0,1024,1024,1024,1024,224.1,-90,94,3.803,3.815,3.832,3.807,0,0,21.067,66.2,14,Waypoint,
36.7935117,-118.9150224,5505.8331988245,202.427828,0,2.1684055812,26100,2018-04-15 19:43:26,17,0,22.909,5505.8331988245,202.427828,0.447388,2.21378944092,0,0,-0.671082,225.4, 0.3, 6.2,0,0,1024,1024,1024,1024,224.1,-90,94,3.803,3.815,3.832,3.807,0,0,21.067,66.2,14,Waypoint,
36.7935117,-118.9150225,5506.8174508245,203.41208,0.223694,2.1563648984,26200,2018-04-15 19:43:26,17,0,22.909,5506.8174508245,203.41208,0.447388,2.21378944092,0,0,-0.671082,225.6, 0.1, 6.2,0,0,1024,1024,1024,1024,224.1,-90,94,3.803,3.815,3.832,3.807,0,0,21.067,66.2,14,Waypoint,
36.7935118,-118.9150225,5507.8017028245,204.396332,0.223694,2.1230807766,26300,2018-04-15 19:43:26,17,0,22.909,5507.8017028245,204.396332,0.447388,2.21378944092,0,0,-0.671082,225.6, 0.3, 5.8,0,0,1024,1024,1024,1024,224.1,-90,94,3.803,3.815,3.832,3.807,0,0,21.067,66.2,14,Waypoint,
36.7935119,-118.9150225,5509.1140388245,205.708668,0.223694,2.08990492252,26400,2018-04-15 19:43:26,17,0,22.909,5509.1140388245,205.708668,0.447388,2.21378944092,0,0,-0.671082,225.5, 0.3, 5.5,0,0,1024,1024,1024,1024,224.1,-90,94,3.803,3.815,3.832,3.807,0,0,21.067,66.2,14,Waypoint,
36.793512,-118.9150226,5510.0982908245,206.69292,0.223694,2.04456371372,26510,2018-04-15 19:43:27,17,0,22.909,5510.0982908245,206.69292,0.447388,2.21378944092,0,0,-0.671082,225.3, 0.4, 5.2,0,0,1024,1024,1024,1024,224.1,-90,94,3.803,3.815,3.832,3.807,0,0,21.067,66.2,14,Waypoint,
36.793512,-118.9150227,5511.0825428245,207.677172,0.223694,2.0326280178,26610,2018-04-15 19:43:27,17,0,22.909,5511.0825428245,207.677172,0.447388,2.21378944092,0,0,-0.671082,225.1, 0.4, 5.2,0,0,1024,1024,1024,1024,224.1,-90,94,3.803,3.815,3.832,3.807,0,0,21.067,66.2,14,Waypoint,
36.7935121,-118.9150227,5512.0667948245,208.661424,0.223694,1.99928156004,26700,2018-04-15 19:43:27,17,0,22.909,5512.0667948245,208.661424,0.447388,2.21378944092,0,0,-0.671082,225, 0.1, 5.3,0,0,1024,1024,1024,1024,224.1,-90,94,3.803,3.815,3.832,3.807,0,0,21.067,66.2,14,Waypoint,
36.7935123,-118.9150227,5514.0352988245,210.629928,0,1.93293313272,26900,2018-04-15 19:43:27,17,0,22.909,5514.0352988245,210.629928,0.447388,2.21378944092,0,0,-0.671082,225.1, -0.2, 5.5,0,0,1024,1024,1024,1024,224.1,-89.9,94,3.803,3.815,3.832,3.807,0,0,21.067,66.2,14,Waypoint,
36.7935123,-118.9150227,5515.0195508245,211.61418,0,1.93293313272,27000,2018-04-15 19:43:27,17,0,22.785,5515.0195508245,211.61418,0.447388,2.21378944092,0,0,-0.671082,225.1, -0.1, 5.5,0,0,1024,1024,1024,1024,224.1,-89.9,94,3.78,3.79,3.81,3.817,0,0,22.247,66.2,14,Waypoint,
36.7935124,-118.9150227,5516.3318868245,212.926516,0,1.89993772484,27100,2018-04-15 19:43:27,17,0,22.785,5516.3318868245,212.926516,0.447388,2.21378944092,0,0,-0.671082,225.1, 0, 5.8,0,0,1024,1024,1024,1024,224.1,-90,94,3.78,3.79,3.81,3.817,0,0,22.247,66.2,14,Waypoint,
