Latitude, Longitude, Altitude (m), Time, Sats, Speed (m/s), Range (m), Battery (%), Roll (deg), Pitch (deg), Yaw (deg), Images, HD Signal (%), RC Signal (%), Battery Temp (C), Battery Voltage (mV), Battery Current (mA), Battery Energy (mAh), Battery Capacity (mAh), Battery Discharges, flyState, timestamp (Unix), LastUpdate (ms), radioChannel, Rc_elevator, Rc_aileron, Rc_throttle, Rc_rudder, Rc_gyro, Dronetype, Battery_Cell1 (mV), Battery_Cell2 (mV), Battery_Cell3 (mV), Battery_Cell4 (mV), Battery_Cell5 (mV), Battery_Cell6 (mV), Video, isFlying, elapsedTime (ms), gimbalPitch (deg), gimbalRoll (deg), gimbalYaw (deg), VelocityX (m/s), VelocityY (m/s), VelocityZ (m/s), GroundSmear (cm), App Version, Aircraft Name, Aircraft Firmware, Aircraft Serial Number, Battery Serial Number, Battery Lifetime (%), App_Tip, App_Warning, CurrentFlightStartingIndex, CurrentFlightLastVisitedWaypoint, PreviousFlightEndingWaypointIndex
36.7935261, -118.9150099, 0.000, 12:16:33.603, 14, 0.10, 0.09, 100, 1.700, 1.700, -134.000, 762, 100, 100, 16, 25565, -3164, 5491, 5491, 11, 11, 1523819793.603, 78, 0, 1024, 1024, 1024, 1024, 0, 6, 4287, 4295, 4114, 4298, 4204, 4271, 0, 1, 3101, -89.900, 0.000, -135.500, 0.100, 0.000, -0.100, 0.0, MapPilot_2.7.4_02272018, Dendroctonus I, 1.3.1.00, 041DDC1887, 1058171200140, 98, DJI_0016.jpg, Starting Mission from Lat/Long: 36.79353/-118.91501 Camera: Zenmuse X3 - Overlap: 90/90 - Active Connection: Yes, 55, 55, 55
36.7935262, -118.9150100, 0.000, 12:16:33.702, 14, 0.10, 0.10, 100, 1.200, 1.300, -133.800, 762, 100, 100, 16, 25565, -3164, 5491, 5491, 11, 11, 1523819793.703, 77, 0, 1024, 1024, 1024, 1024, 0, 6, 4267, 4282, 4233, 4252, 4238, 4230, 0, 1, 3201, -89.900, 0.000, -135.400, 0.100, 0.000, -0.200, 0.0, , , , , , 98, , , 55, 55, 55
36.7935264, -118.9150100, 0.000, 12:16:33.803, 14, 0.20, 0.12, 100, 0.600, 0.700, -133.800, 762, 100, 100, 16, 25565, -3164, 5491, 5491, 11, 11, 1523819793.803, 38, 0, 1024, 1024, 1024, 1024, 0, 6, 4267, 4282, 4233, 4252, 4238, 4230, 0, 1, 3301, -90.000, 0.000, -135.400, 0.200, 0.000, -0.300, 0.0, , , , , , 98, , , 55, 55, 55
36.7935266, -118.9150101, 0.000, 12:16:33.903, 14, 0.20, 0.14, 100, 0.100, 0.000, -133.800, 762, 100, 100, 16, 25565, -3164, 5491, 5491, 11, 11, 1523819793.903, 55, 0, 1024, 1024, 1024, 1024, 0, 6, 4267, 4282, 4233, 4252, 4238, 4230, 0, 1, 3401, -90.000, 0.000, -135.400, 0.200, 0.000, -0.300, 0.0, , , , , , 98, , , 55, 55, 55
36.7935268, -118.9150101, 0.100, 12:16:34.003, 14, 0.20, 0.16, 100, -0.400, -0.400, -133.800, 762, 100, 100, 16, 25565, -3164, 5491, 5491, 11, 11, 1523819794.003, 42, 0, 1024, 1024, 1024, 1024, 0, 6, 4267, 4282, 4233, 4252, 4238, 4230, 0, 1, 3501, -90.000, 0.000, -135.400, 0.200, 0.000, -0.400, 0.0, , , , , , 98, , , 55, 55, 55
36.7935270, -118.9150102, 0.100, 12:16:34.103, 13, 0.20, 0.19, 100, -1.100, -0.700, -133.800, 762, 100, 100, 16, 25565, -3164, 5491, 5491, 11, 11, 1523819794.104, 57, 0, 1024, 1024, 1024, 1024, 0, 6, 4267, 4282, 4233, 4252, 4238, 4230, 0, 1, 3602, -90.000, 0.000, -135.300, 0.200, 0.000, -0.300, 0.0, , , , , , 98, , , 55, 55, 55
36.7935273, -118.9150103, 0.200, 12:16:34.202, 13, 0.10, 0.22, 100, -1.700, -0.700, -133.800, 762, 100, 100, 16, 25565, -3164, 5491, 5491, 11, 11, 1523819794.203, 40, 0, 1024, 1024, 1024, 1024, 0, 6, 4267, 4282, 4233, 4252, 4238, 4230, 0, 1, 3701, -89.900, 0.000, -135.300, 0.100, 0.000, -0.400, 0.0, , , , , , 98, , , 55, 55, 55
36.7935274, -118.9150105, 0.200, 12:16:34.303, 12, 0.10, 0.24, 100, -1.900, -0.500, -133.800, 762, 100, 100, 16, 25565, -3164, 5491, 5491, 11, 11, 1523819794.303, 39, 0, 1024, 1024, 1024, 1024, 0, 6, 4267, 4282, 4233, 4252, 4238, 4230, 0, 1, 3801, -89.900, 0.000, -135.300, 0.100, 0.000, -0.400, 0.0, , , , , , 98, , , 55, 55, 55
36.7935276, -118.9150106, 0.300, 12:16:34.402, 12, 0.10, 0.26, 100, -1.900, -0.400, -133.800, 762, 100, 100, 16, 25565, -3164, 5491, 5491, 11, 11, 1523819794.402, 38, 0, 1024, 1024, 1024, 1024, 0, 6, 4267, 4282, 4233, 4252, 4238, 4230, 0, 1, 3900, -89.900, 0.000, -135.300, 0.100, 0.000, -0.400, 0.0, , , , , , 98, , , 55, 55, 55
36.7935278, -118.9150107, 0.300, 12:16:34.503, 12, 0.10, 0.28, 100, -1.700, -0.300, -133.800, 762, 100, 100, 16, 25565, -3164, 5491, 5491, 11, 11, 1523819794.504, 32, 0, 1024, 1024, 1024, 1024, 0, 6, 4267, 4282, 4233, 4252, 4238, 4230, 0, 1, 4001, -89.900, 0.000, -135.300, 0.100, 0.000, -0.400, 0.0, , , , , , 98, , , 55, 55, 55
36.7935279, -118.9150108, 0.300, 12:16:34.603, 12, 0.10, 0.30, 100, -1.500, -0.100, -133.900, 762, 100, 100, 16, 25565, -3164, 5491, 5491, 11, 11, 1523819794.604, 10, 0, 1024, 1024, 1024, 1024, 0, 6, 4267, 4282, 4233, 4252, 4238, 4230, 0, 1, 4102, -89.900, 0.000, -135.300, 0.100, 0.000, -0.400, 0.0, , , , , , 98, , , 55, 55, 55
36.7935280, -118.9150109, 0.400, 12:16:34.702, 13, 0.10, 0.31, 100, -1.400, 0.000, -133.800, 762, 100, 100, 16, 24489, -10072, 5491, 5491, 11, 11, 1523819794.703, 14, 0, 1024, 1024, 1024, 1024, 0, 6, 4078, 4081, 4028, 4057, 4021, 4028, 0, 1, 4201, -89.900, 0.000, -135.200, 0.100, 0.000, -0.400, 0.0, , , , , , 98, , , 55, 55, 55
36.7935281, -118.9150110, 0.500, 12:16:34.813, 13, 0.10, 0.33, 100, -1.300, 0.100, -133.700, 762, 100, 100, 16, 24489, -10072, 5491, 5491, 11, 11, 1523819794.814, 11, 0, 1024, 1024, 1024, 1024, 0, 6, 4078, 4081, 4028, 4057, 4021, 4028, 0, 1, 4312, -89.900, 0.000, -135.200, 0.100, 0.000, -0.500, 0.0, , , , , , 98, , , 55, 55, 55
36.7935283, -118.9150111, 0.500, 12:16:34.904, 12, 0.10, 0.35, 100, -1.300, 0.000, -133.700, 762, 100, 100, 16, 24489, -10072, 5491, 5491, 11, 11, 1523819794.904, 4, 0, 1024, 1024, 1024, 1024, 0, 6, 4078, 4081, 4028, 4057, 4021, 4028, 0, 1, 4402, -89.900, 0.000, -135.200, 0.100, 0.000, -0.600, 0.0, , , , , , 98, , , 55, 55, 55
36.7935284, -118.9150111, 0.600, 12:16:35.006, 12, 0.10, 0.36, 100, -1.600, -0.200, -133.700, 762, 100, 100, 16, 24489, -10072, 5491, 5491, 11, 11, 1523819795.006, 10, 0, 1024, 1024, 1024, 1024, 0, 6, 4078, 4081, 4028, 4057, 4021, 4028, 0, 1, 4504, -90.000, 0.000, -135.200, 0.100, 0.000, -0.600, 0.0, , , , , , 98, , , 55, 55, 55
36.7935286, -118.9150112, 0.700, 12:16:35.102, 12, 0.10, 0.38, 100, -1.800, -0.400, -133.700, 762, 100, 100, 16, 24489, -10072, 5491, 5491, 11, 11, 1523819795.102, 10, 0, 1024, 1024, 1024, 1024, 0, 6, 4078, 4081, 4028, 4057, 4021, 4028, 0, 1, 4600, -90.000, 0.000, -135.200, 0.100, 0.000, -0.500, 0.0, , , , , , 98, , , 55, 55, 55
36.7935288, -118.9150113, 0.800, 12:16:35.204, 11, 0.00, 0.41, 100, -1.700, -0.900, -133.800, 762, 100, 100, 16, 24489, -10072, 5491, 5491, 11, 11, 1523819795.204, 4, 0, 1024, 1024, 1024, 1024, 0, 6, 4078, 4081, 4028, 4057, 4021, 4028, 0, 1, 4702, -90.000, 0.000, -135.200, 0.000, 0.000, -0.500, 0.0, , , , , , 98, , , 55, 55, 55
36.7935288, -118.9150113, 0.800, 12:16:35.303, 11, 0.00, 0.41, 100, -1.700, -0.900, -133.800, 762, 100, 100, 16, 24489, -10072, 5491, 5491, 11, 11, 1523819795.303, 103, 0, 1024, 1024, 1024, 1024, 0, 6, 4078, 4081, 4028, 4057, 4021, 4028, 0, 1, 4801, -90.000, 0.000, -135.200, 0.000, 0.000, -0.500, 0.0, , , , , , 98, , , 55, 55, 55
36.7935289, -118.9150113, 0.800, 12:16:35.403, 11, 0.00, 0.42, 100, -1.900, -0.900, -134.000, 762, 100, 100, 16, 24489, -10072, 5491, 5491, 11, 11, 1523819795.404, 83, 0, 1024, 1024, 1024, 1024, 0, 6, 4078, 4081, 4028, 4057, 4021, 4028, 0, 1, 4901, -89.900, 0.000, -135.100, 0.000, 0.000, -0.500, 0.0, , , , , , 98, , , 55, 55, 55
36.7935290, -118.9150115, 0.900, 12:16:35.503, 12, 0.00, 0.43, 100, -2.100, -1.100, -134.200, 762, 100, 100, 16, 24489, -10072, 5491, 5491, 11, 14, 1523819795.503, 80, 0, 1024, 1024, 1024, 1024, 0, 6, 4078, 4081, 4028, 4057, 4021, 4028, 0, 1, 5001, -89.900, 0.000, -135.100, 0.000, 0.000, -0.400, 0.0, , , , , , 98, , , 55, 55, 55
36.7935291, -118.9150117, 0.900, 12:16:35.603, 12, 0.00, 0.45, 100, -2.500, -1.100, -134.400, 762, 100, 100, 16, 24489, -10072, 5491, 5491, 11, 14, 1523819795.604, 80, 0, 1024, 1024, 1024, 1024, 0, 6, 4078, 4081, 4028, 4057, 4021, 4028, 0, 1, 5101, -90.000, 0.000, -135.100, 0.000, 0.000, -0.400, 0.0, , , , , , 98, , , 55, 55, 55
36.7935292, -118.9150117, 1.000, 12:16:35.702, 12, 0.00, 0.46, 100, -2.100, -0.900, -134.600, 762, 100, 100, 16, 23719, -17206, 5491, 5491, 11, 14, 1523819795.703, 58, 0, 1024, 1024, 1024, 1024, 0, 6, 3921, 3937, 3951, 3968, 3934, 3951, 0, 1, 5201, -89.900, 0.000, -135.100, 0.000, 0.000, -0.300, 0.0, , , , , , 98, , , 55, 55, 55
36.7935294, -118.9150117, 1.000, 12:16:35.803, 12, 0.00, 0.48, 100, -1.800, -0.700, -134.900, 762, 100, 100, 16, 23719, -17206, 5491, 5491, 11, 14, 1523819795.803, 71, 0, 1024, 1024, 1024, 1024, 0, 6, 3921, 3937, 3951, 3968, 3934, 3951, 0, 1, 5301, -89.900, 0.000, -135.100, 0.000, 0.000, -0.200, 0.0, , , , , , 98, , , 55, 55, 55
36.7935294, -118.9150118, 1.100, 12:16:35.902, 11, 0.00, 0.49, 100, -1.600, -0.700, -135.200, 762, 100, 100, 16, 23719, -17206, 5491, 5491, 11, 14, 1523819795.903, 70, 0, 1024, 1024, 1024, 1024, 0, 6, 3921, 3937, 3951, 3968, 3934, 3951, 0, 1, 5401, -89.900, 0.000, -135.100, 0.000, 0.000, -0.300, 0.0, , , , , , 98, , , 55, 55, 55
36.7935295, -118.9150119, 1.100, 12:16:36.003, 11, 0.00, 0.50, 100, -1.600, -0.600, -135.400, 762, 100, 100, 16, 23719, -17206, 5491, 5491, 11, 14, 1523819796.003, 50, 0, 1024, 1024, 1024, 1024, 0, 6, 3921, 3937, 3951, 3968, 3934, 3951, 0, 1, 5501, -89.900, 0.000, -135.100, 0.000, 0.000, -0.400, 0.0, , , , , , 98, , , 55, 55, 55
36.7935295, -118.9150120, 1.200, 12:16:36.103, 10, 0.00, 0.50, 100, -1.400, -0.500, -135.400, 762, 100, 100, 16, 23719, -17206, 5491, 5491, 11, 14, 1523819796.103, 55, 0, 1024, 1024, 1024, 1024, 0, 6, 3921, 3937, 3951, 3968, 3934, 3951, 0, 1, 5601, -89.900, 0.000, -135.100, 0.000, 0.000, -0.500, 0.0, , , , , , 98, , , 55, 55, 55
36.7935294, -118.9150121, 1.200, 12:16:36.202, 10, 0.00, 0.50, 100, -1.200, -0.400, -135.300, 762, 100, 100, 16, 23719, -17206, 5491, 5491, 11, 14, 1523819796.203, 56, 0, 1024, 1024, 1024, 1024, 0, 6, 3921, 3937, 3951, 3968, 3934, 3951, 0, 1, 5701, -89.900, 0.000, -135.100, 0.000, 0.000, -0.700, 0.0, , , , , , 98, , , 55, 55, 55
36.7935294, -118.9150122, 1.300, 12:16:36.303, 11, 0.00, 0.50, 100, -1.200, -0.300, -135.100, 762, 100, 100, 16, 23719, -17206, 5491, 5491, 11, 14, 1523819796.303, 56, 0, 1024, 1024, 1024, 1024, 0, 6, 3921, 3937, 3951, 3968, 3934, 3951, 0, 1, 5801, -89.900, 0.000, -135.100, 0.000, 0.000, -0.800, 0.0, , , , , , 98, , , 55, 55, 55
36.7935294, -118.9150122, 1.400, 12:16:36.403, 11, 0.00, 0.51, 100, -1.500, -0.200, -134.800, 762, 100, 100, 16, 23719, -17206, 5491, 5491, 11, 14, 1523819796.404, 25, 0, 1024, 1024, 1024, 1024, 0, 6, 3921, 3937, 3951, 3968, 3934, 3951, 0, 1, 5901, -89.900, 0.000, -135.100, 0.000, 0.000, -1.000, 0.0, , , , , , 98, , , 55, 55, 55
36.7935295, -118.9150123, 1.600, 12:16:36.503, 11, 0.00, 0.52, 100, -1.700, -0.300, -134.500, 762, 100, 100, 16, 23719, -17206, 5491, 5491, 11, 14, 1523819796.503, 22, 0, 1024, 1024, 1024, 1024, 0, 6, 3921, 3937, 3951, 3968, 3934, 3951, 0, 1, 6001, -90.000, 0.000, -135.100, 0.000, 0.000, -1.200, 0.0, , , , , , 98, , , 55, 55, 55
36.7935296, -118.9150123, 1.700, 12:16:36.602, 11, 0.00, 0.53, 100, -1.500, -0.500, -134.200, 762, 100, 100, 16, 23719, -17206, 5491, 5491, 11, 14, 1523819796.603, 47, 0, 1024, 1024, 1024, 1024, 0, 6, 3921, 3937, 3951, 3968, 3934, 3951, 0, 1, 6101, -90.000, 0.000, -135.100, 0.000, 0.000, -1.300, 0.0, , , , , , 98, , , 55, 55, 55
36.7935297, -118.9150124, 1.800, 12:16:36.707, 12, 0.00, 0.55, 100, -1.300, -0.400, -134.000, 762, 100, 100, 16, 23719, -17206, 5491, 5491, 11, 14, 1523819796.709, 6, 0, 1024, 1024, 1024, 1024, 0, 6, 3921, 3937, 3951, 3968, 3934, 3951, 0, 1, 6206, -90.000, 0.000, -135.100, 0.000, 0.000, -1.600, 0.0, , , , , , 98, , , 55, 55, 55
36.7935299, -118.9150125, 2.000, 12:16:36.814, 12, 0.00, 0.57, 100, -1.500, -0.500, -133.900, 762, 100, 100, 16, 23657, -16464, 5491, 5491, 11, 14, 1523819796.815, 13, 0, 1024, 1024, 1024, 1024, 0, 6, 3915, 3935, 3948, 3959, 3928, 3944, 0, 1, 6313, -89.900, 0.000, -135.100, 0.000, 0.000, -1.800, 0.0, , , , , , 98, , , 55, 55, 55
36.7935300, -118.9150126, 2.200, 12:16:36.903, 12, 0.00, 0.58, 100, -1.700, -0.600, -133.700, 762, 100, 100, 16, 23657, -16464, 5491, 5491, 11, 14, 1523819796.903, 18, 0, 1024, 1024, 1024, 1024, 0, 6, 3915, 3935, 3948, 3959, 3928, 3944, 0, 1, 6401, -90.000, 0.000, -135.100, 0.000, 0.000, -2.100, 0.0, , , , , , 98, , , 55, 55, 55
36.7935301, -118.9150127, 2.500, 12:16:37.004, 12, 0.00, 0.60, 100, -1.800, -0.600, -133.600, 762, 100, 100, 16, 23657, -16464, 5491, 5491, 11, 14, 1523819797.004, 12, 0, 1024, 1024, 1024, 1024, 0, 6, 3915, 3935, 3948, 3959, 3928, 3944, 0, 1, 6502, -89.900, 0.000, -135.100, 0.000, 0.000, -2.300, 0.0, , , , , , 98, , , 55, 55, 55
36.7935304, -118.9150128, 2.700, 12:16:37.103, 13, 0.00, 0.63, 100, -1.800, -0.400, -133.600, 762, 100, 100, 16, 23657, -16464, 5491, 5491, 11, 14, 1523819797.103, 16, 0, 1024, 1024, 1024, 1024, 0, 6, 3915, 3935, 3948, 3959, 3928, 3944, 0, 1, 6601, -90.000, 0.000, -135.100, 0.000, 0.000, -2.500, 0.0, , , , , , 98, , , 55, 55, 55
36.7935306, -118.9150129, 3.000, 12:16:37.202, 13, 0.00, 0.66, 100, -2.100, -0.500, -133.900, 762, 100, 100, 16, 23657, -16464, 5491, 5491, 11, 14, 1523819797.203, 24, 0, 1024, 1024, 1024, 1024, 0, 6, 3915, 3935, 3948, 3959, 3928, 3944, 0, 1, 6701, -90.000, 0.000, -135.100, 0.000, 0.000, -2.700, 0.0, , , , , , 98, , , 55, 55, 55
36.7935308, -118.9150132, 3.300, 12:16:37.303, 12, 0.00, 0.69, 100, -2.500, -0.800, -134.100, 762, 100, 100, 16, 23657, -16464, 5491, 5491, 11, 14, 1523819797.304, 20, 0, 1024, 1024, 1024, 1024, 0, 6, 3915, 3935, 3948, 3959, 3928, 3944, 0, 1, 6802, -89.900, 0.000, -135.100, 0.000, 0.000, -2.900, 0.0, , , , , , 98, , , 55, 55, 55
36.7935310, -118.9150135, 3.600, 12:16:37.417, 12, 0.00, 0.71, 100, -2.800, -1.000, -134.300, 762, 100, 100, 16, 23657, -16464, 5491, 5491, 11, 14, 1523819797.418, 5, 0, 1024, 1024, 1024, 1024, 0, 6, 3915, 3935, 3948, 3959, 3928, 3944, 0, 1, 6916, -89.900, 0.000, -135.100, 0.000, 0.000, -3.000, 0.0, , , , , , 98, , , 55, 55, 55
36.7935310, -118.9150138, 4.000, 12:16:37.503, 12, 0.00, 0.74, 100, -3.200, -0.600, -134.500, 762, 100, 100, 16, 23657, -16464, 5491, 5491, 11, 14, 1523819797.503, 82, 0, 1024, 1024, 1024, 1024, 0, 6, 3915, 3935, 3948, 3959, 3928, 3944, 0, 1, 7001, -89.900, 0.000, -135.100, 0.000, 0.000, -3.100, 0.0, , , , , , 98, , , 55, 55, 55
36.7935310, -118.9150138, 4.000, 12:16:37.603, 12, 0.00, 0.74, 100, -3.200, -0.600, -134.500, 762, 100, 100, 16, 23657, -16464, 5491, 5491, 11, 14, 1523819797.603, 182, 0, 1024, 1024, 1024, 1024, 0, 6, 3915, 3935, 3948, 3959, 3928, 3944, 0, 1, 7101, -89.900, 0.000, -135.100, 0.000, 0.000, -3.100, 0.0, , , , , , 98, , , 55, 55, 55
36.7935312, -118.9150145, 4.600, 12:16:37.702, 14, 0.00, 0.79, 100, -3.500, 0.700, -134.500, 762, 100, 100, 16, 23657, -16464, 5491, 5491, 11, 14, 1523819797.703, 81, 0, 1024, 1024, 1024, 1024, 0, 6, 3915, 3935, 3948, 3959, 3928, 3944, 0, 1, 7201, -89.900, 0.000, -135.100, 0.000, 0.000, -3.100, 0.0, , , , , , 98, , , 55, 55, 55
36.7935313, -118.9150148, 4.900, 12:16:37.803, 14, 0.00, 0.82, 100, -3.500, 1.000, -134.300, 762, 100, 100, 16, 23131, -20731, 5491, 5491, 11, 14, 1523819797.803, 86, 0, 1024, 1024, 1024, 1024, 0, 6, 3805, 3804, 3823, 3835, 3796, 3815, 0, 1, 7301, -89.900, 0.000, -135.100, 0.000, 0.000, -3.200, 0.0, , , , , , 98, , , 55, 55, 55
36.7935315, -118.9150149, 5.300, 12:16:37.902, 14, 0.00, 0.83, 100, -3.500, 0.900, -134.100, 762, 100, 100, 16, 23131, -20731, 5491, 5491, 11, 14, 1523819797.903, 96, 0, 1024, 1024, 1024, 1024, 0, 6, 3805, 3804, 3823, 3835, 3796, 3815, 0, 1, 7401, -89.900, 0.000, -135.100, 0.000, 0.000, -3.200, 0.0, , , , , , 98, , , 55, 55, 55
36.7935316, -118.9150150, 5.600, 12:16:38.003, 14, 0.00, 0.85, 100, -3.300, 0.500, -134.000, 762, 100, 100, 16, 23131, -20731, 5491, 5491, 11, 14, 1523819798.003, 86, 0, 1024, 1024, 1024, 1024, 0, 6, 3805, 3804, 3823, 3835, 3796, 3815, 0, 1, 7501, -89.900, 0.000, -135.100, 0.000, 0.000, -3.200, 0.0, , , , , , 98, , , 55, 55, 55
36.7935316, -118.9150150, 6.000, 12:16:38.103, 14, 0.10, 0.85, 100, -3.300, 0.000, -134.000, 762, 100, 100, 16, 23131, -20731, 5491, 5491, 11, 14, 1523819798.103, 88, 0, 1024, 1024, 1024, 1024, 0, 6, 3805, 3804, 3823, 3835, 3796, 3815, 0, 1, 7601, -90.000, 0.000, -135.100, 0.000, 0.100, -3.300, 0.0, , , , , , 98, , , 55, 55, 55
36.7935317, -118.9150150, 6.300, 12:16:38.202, 14, 0.14, 0.86, 100, -3.000, -0.300, -134.100, 762, 100, 100, 16, 23131, -20731, 5491, 5491, 11, 14, 1523819798.203, 80, 0, 1024, 1024, 1024, 1024, 0, 6, 3805, 3804, 3823, 3835, 3796, 3815, 0, 1, 7701, -90.000, 0.000, -135.100, -0.100, 0.100, -3.300, 0.0, , , , , , 98, , , 55, 55, 55
36.7935316, -118.9150150, 6.600, 12:16:38.303, 13, 0.14, 0.85, 100, -2.600, -0.500, -134.200, 762, 100, 100, 16, 23131, -20731, 5491, 5491, 11, 14, 1523819798.304, 76, 0, 1024, 1024, 1024, 1024, 0, 6, 3805, 3804, 3823, 3835, 3796, 3815, 0, 1, 7802, -90.000, 0.000, -135.100, -0.100, 0.100, -3.200, 0.0, , , , , , 98, , , 55, 55, 55
36.7935315, -118.9150149, 7.000, 12:16:38.403, 13, 0.14, 0.83, 100, -2.200, -0.600, -134.200, 762, 100, 100, 16, 23131, -20731, 5491, 5491, 11, 14, 1523819798.404, 37, 0, 1024, 1024, 1024, 1024, 0, 6, 3805, 3804, 3823, 3835, 3796, 3815, 0, 1, 7902, -90.000, 0.000, -135.100, -0.100, 0.100, -3.200, 0.0, , , , , , 98, , , 55, 55, 55
36.7935315, -118.9150148, 7.300, 12:16:38.503, 13, 0.14, 0.83, 100, -1.900, -0.500, -134.200, 762, 100, 100, 16, 23131, -20731, 5491, 5491, 11, 14, 1523819798.504, 54, 0, 1024, 1024, 1024, 1024, 0, 6, 3805, 3804, 3823, 3835, 3796, 3815, 0, 1, 8001, -90.000, 0.000, -135.100, -0.100, 0.100, -3.100, 0.0, , , , , , 98, , , 55, 55, 55
36.7935315, -118.9150147, 7.600, 12:16:38.603, 13, 0.14, 0.82, 100, -1.500, -0.500, -134.200, 762, 100, 100, 16, 23131, -20731, 5491, 5491, 11, 14, 1523819798.603, 56, 0, 1024, 1024, 1024, 1024, 0, 6, 3805, 3804, 3823, 3835, 3796, 3815, 0, 1, 8101, -89.900, 0.000, -135.100, -0.100, 0.100, -3.100, 0.0, , , , , , 98, , , 55, 55, 55
36.7935314, -118.9150145, 8.000, 12:16:38.704, 13, 0.14, 0.80, 100, -1.100, -0.300, -134.300, 762, 100, 100, 16, 23131, -20731, 5491, 5491, 11, 14, 1523819798.705, 5, 0, 1024, 1024, 1024, 1024, 0, 6, 3805, 3804, 3823, 3835, 3796, 3815, 0, 1, 8202, -89.900, 0.000, -135.100, -0.100, 0.100, -3.100, 0.0, , , , , , 98, , , 55, 55, 55
36.7935313, -118.9150143, 8.300, 12:16:38.802, 13, 0.14, 0.78, 100, -0.800, -0.300, -134.400, 762, 100, 100, 16, 23131, -20731, 5491, 5491, 11, 14, 1523819798.803, 34, 0, 1024, 1070, 1024, 1024, 0, 6, 3805, 3804, 3823, 3835, 3796, 3815, 0, 1, 8301, -89.900, 0.000, -135.100, -0.100, 0.100, -3.100, 0.0, , , , , , 98, , , 55, 55, 55
36.7935310, -118.9150140, 8.600, 12:16:38.905, 15, 0.28, 0.74, 100, -0.500, -0.300, -134.600, 762, 100, 100, 16, 23131, -20731, 5491, 5491, 11, 14, 1523819798.906, 8, 0, 1024, 1275, 1024, 1024, 0, 6, 3805, 3804, 3823, 3835, 3796, 3815, 0, 1, 8404, -89.900, 0.000, -135.100, -0.200, 0.200, -3.100, 0.0, , , , , , 98, , , 55, 55, 55
36.7935306, -118.9150137, 8.900, 12:16:39.003, 15, 0.28, 0.70, 100, -0.100, -0.100, -134.800, 762, 100, 100, 16, 23131, -20731, 5491, 5491, 11, 14, 1523819799.004, 24, 0, 1024, 1361, 1024, 1024, 0, 6, 3805, 3804, 3823, 3835, 3796, 3815, 0, 1, 8502, -89.900, 0.500, -135.100, -0.200, 0.200, -3.100, 0.0, , , , , , 98, , , 55, 55, 55
36.7935302, -118.9150133, 9.300, 12:16:39.103, 14, 0.28, 0.63, 100, 0.600, 0.000, -134.900, 762, 100, 100, 16, 23131, -20731, 5491, 5491, 11, 14, 1523819799.103, 18, 0, 1041, 1419, 1024, 1024, 0, 6, 3805, 3804, 3823, 3835, 3796, 3815, 0, 1, 8601, -89.900, 3.600, -135.100, -0.200, 0.200, -3.100, 0.0, , , , , , 98, , , 55, 55, 55
36.7935302, -118.9150133, 9.300, 12:16:39.203, 14, 0.28, 0.63, 100, 0.600, 0.000, -134.900, 762, 100, 100, 16, 23131, -20731, 5491, 5491, 11, 14, 1523819799.203, 118, 0, 1041, 1419, 1024, 1024, 0, 6, 3805, 3804, 3823, 3835, 3796, 3815, 0, 1, 8701, -89.900, 3.600, -135.100, -0.200, 0.200, -3.100, 0.0, , , , , , 98, , , 55, 55, 55
36.7935297, -118.9150129, 9.600, 12:16:39.303, 14, 0.28, 0.56, 98, 1.500, 0.300, -134.900, 762, 100, 100, 16, 22738, -25247, 5381, 5491, 11, 14, 1523819799.303, 67, 0, 1024, 1438, 1024, 1024, 0, 6, 3766, 3791, 3795, 3810, 3765, 3826, 0, 1, 8801, -89.900, 6.000, -135.100, -0.200, 0.200, -3.100, 0.0, , , , , , 98, , , 55, 55, 55
36.7935291, -118.9150124, 9.900, 12:16:39.403, 15, 0.28, 0.49, 98, 2.700, 0.600, -134.900, 762, 100, 93, 16, 22738, -25247, 5381, 5491, 11, 14, 1523819799.404, 55, 0, 1024, 1461, 1024, 1024, 0, 6, 3766, 3791, 3795, 3810, 3765, 3826, 0, 1, 8901, -89.900, 7.600, -135.100, -0.200, 0.200, -3.100, 0.0, , , , , , 98, , , 55, 55, 55
36.7935286, -118.9150119, 10.200, 12:16:39.514, 15, 0.28, 0.42, 98, 3.900, 0.900, -134.900, 762, 100, 93, 16, 22738, -25247, 5381, 5491, 11, 14, 1523819799.515, 12, 0, 1024, 1505, 1024, 1024, 0, 6, 3766, 3791, 3795, 3810, 3765, 3826, 0, 1, 9013, -89.900, 9.600, -135.100, -0.200, 0.200, -3.100, 0.0, , , , , , 98, , , 55, 55, 55
36.7935282, -118.9150115, 10.600, 12:16:39.603, 13, 0.28, 0.36, 98, 4.800, 0.600, -134.800, 762, 100, 93, 16, 22738, -25247, 5381, 5491, 11, 14, 1523819799.604, 26, 0, 1024, 1505, 1024, 1024, 0, 6, 3766, 3791, 3795, 3810, 3765, 3826, 0, 1, 9102, -89.900, 9.600, -135.100, -0.200, 0.200, -3.100, 0.0, , , , , , 98, , , 55, 55, 55
36.7935278, -118.9150111, 10.900, 12:16:39.703, 13, 0.22, 0.30, 98, 4.700, 0.100, -134.800, 762, 100, 93, 16, 22738, -25247, 5381, 5491, 11, 14, 1523819799.704, 48, 0, 1024, 1587, 1024, 1024, 0, 6, 3766, 3791, 3795, 3810, 3765, 3826, 0, 1, 9202, -90.000, 10.700, -135.100, -0.200, 0.100, -3.100, 0.0, , , , , , 98, , , 55, 55, 55
36.7935272, -118.9150104, 11.600, 12:16:39.802, 15, 0.14, 0.21, 98, 3.800, -0.100, -134.800, 762, 100, 95, 16, 22738, -25247, 5381, 5491, 11, 14, 1523819799.803, 78, 0, 1024, 1580, 1024, 1024, 0, 6, 3766, 3791, 3795, 3810, 3765, 3826, 0, 1, 9301, -89.900, 11.900, -135.100, -0.100, 0.100, -3.000, 0.0, , , , , , 98, , , 55, 55, 55
36.7935269, -118.9150101, 11.900, 12:16:39.903, 15, 0.14, 0.18, 98, 3.600, 0.100, -134.700, 762, 100, 95, 16, 22738, -25247, 5381, 5491, 11, 14, 1523819799.904, 34, 0, 1024, 1601, 1024, 1024, 0, 6, 3766, 3791, 3795, 3810, 3765, 3826, 0, 1, 9402, -89.900, 12.300, -135.100, -0.100, 0.100, -3.000, 0.0, , , , , , 98, , , 55, 55, 55
36.7935269, -118.9150101, 11.900, 12:16:40.002, 15, 0.14, 0.18, 98, 3.600, 0.100, -134.700, 762, 100, 95, 16, 22738, -25247, 5381, 5491, 11, 14, 1523819800.003, 133, 0, 1024, 1621, 1024, 1024, 0, 6, 3766, 3791, 3795, 3810, 3765, 3826, 0, 1, 9501, -89.900, 12.800, -135.100, -0.100, 0.100, -3.000, 0.0, , , , , , 98, , , 55, 55, 55
36.7935264, -118.9150096, 12.500, 12:16:40.103, 14, 0.00, 0.11, 98, 3.300, 0.400, -134.500, 762, 100, 95, 16, 22738, -25247, 5381, 5491, 11, 14, 1523819800.103, 68, 0, 1024, 1631, 1024, 1024, 0, 6, 3766, 3791, 3795, 3810, 3765, 3826, 0, 1, 9601, -89.900, 13.300, -135.100, 0.000, 0.000, -2.900, 0.0, , , , , , 98, , , 55, 55, 55
36.7935262, -118.9150093, 12.800, 12:16:40.202, 14, 0.00, 0.08, 98, 3.200, 0.100, -134.300, 762, 100, 95, 16, 23080, -19383, 5381, 5491, 11, 14, 1523819800.203, 39, 0, 1024, 1657, 1024, 1024, 0, 6, 3840, 3854, 3848, 3870, 3824, 3866, 0, 1, 9701, -89.900, 13.700, -135.100, 0.000, 0.000, -2.900, 0.0, , , , , , 98, , , 55, 55, 55
36.7935259, -118.9150089, 13.100, 12:16:40.303, 15, 0.00, 0.05, 98, 3.500, 0.000, -134.100, 762, 100, 98, 16, 23080, -19383, 5381, 5491, 11, 14, 1523819800.303, 80, 0, 1024, 1684, 1024, 1024, 0, 6, 3840, 3854, 3848, 3870, 3824, 3866, 0, 1, 9801, -90.000, 14.300, -135.100, 0.000, 0.000, -2.900, 0.0, , , , , , 98, , , 55, 55, 55
36.7935256, -118.9150086, 13.500, 12:16:40.403, 15, 0.00, 0.07, 98, 3.800, -0.100, -134.000, 762, 100, 98, 16, 23080, -19383, 5381, 5491, 11, 14, 1523819800.404, 74, 0, 1024, 1684, 1024, 1024, 0, 6, 3840, 3854, 3848, 3870, 3824, 3866, 0, 1, 9901, -89.900, 14.800, -135.100, 0.000, 0.000, -2.900, 0.0, , , , , , 98, , , 55, 55, 55
36.7935252, -118.9150083, 13.800, 12:16:40.503, 15, 0.00, 0.09, 98, 4.400, -0.100, -133.900, 762, 100, 98, 16, 23080, -19383, 5381, 5491, 11, 14, 1523819800.503, 58, 0, 1024, 1684, 1024, 1024, 0, 6, 3840, 3854, 3848, 3870, 3824, 3866, 0, 1, 10001, -89.900, 14.900, -135.100, 0.000, 0.000, -2.900, 0.0, , , , , , 98, , , 55, 55, 55
36.7935249, -118.9150081, 14.100, 12:16:40.603, 15, 0.00, 0.13, 98, 4.900, 0.000, -133.900, 762, 100, 98, 16, 23080, -19383, 5381, 5491, 11, 14, 1523819800.603, 80, 0, 1024, 1684, 1024, 1024, 0, 6, 3840, 3854, 3848, 3870, 3824, 3866, 0, 1, 10101, -89.900, 15.000, -135.100, 0.000, 0.000, -2.800, 0.0, , , , , , 98, , , 55, 55, 55
36.7935247, -118.9150078, 14.400, 12:16:40.702, 15, 0.00, 0.16, 98, 5.000, 0.500, -133.900, 762, 100, 98, 16, 23080, -19383, 5381, 5491, 11, 14, 1523819800.703, 66, 0, 1024, 1684, 1024, 1024, 0, 6, 3840, 3854, 3848, 3870, 3824, 3866, 0, 1, 10201, -89.900, 15.000, -135.100, 0.000, 0.000, -2.800, 0.0, , , , , , 98, , , 55, 55, 55
36.7935246, -118.9150076, 14.700, 12:16:40.803, 15, 0.00, 0.19, 98, 5.000, 0.400, -134.000, 762, 100, 97, 16, 23080, -19383, 5381, 5491, 11, 14, 1523819800.804, 56, 0, 1024, 1684, 1024, 1024, 0, 6, 3840, 3854, 3848, 3870, 3824, 3866, 0, 1, 10302, -89.900, 15.000, -135.100, 0.000, 0.000, -2.900, 0.0, , , , , , 98, , , 55, 55, 55
36.7935245, -118.9150074, 15.000, 12:16:40.902, 15, 0.10, 0.21, 98, 4.400, 0.100, -134.100, 762, 100, 97, 16, 23080, -19383, 5381, 5491, 11, 14, 1523819800.903, 38, 0, 1024, 1684, 1024, 1024, 0, 6, 3840, 3854, 3848, 3870, 3824, 3866, 0, 1, 10401, -89.900, 14.900, -135.100, 0.100, 0.000, -2.800, 0.0, , , , , , 98, , , 55, 55, 55
36.7935244, -118.9150072, 15.300, 12:16:41.002, 15, 0.10, 0.22, 98, 3.700, -0.200, -134.300, 762, 100, 97, 16, 23080, -19383, 5381, 5491, 11, 14, 1523819801.003, 50, 0, 1024, 1653, 1024, 1024, 0, 6, 3840, 3854, 3848, 3870, 3824, 3866, 0, 1, 10501, -90.000, 14.900, -135.100, 0.100, 0.000, -2.800, 0.0, , , , , , 98, , , 55, 55, 55
36.7935244, -118.9150072, 15.300, 12:16:41.103, 15, 0.10, 0.22, 98, 3.700, -0.200, -134.300, 762, 100, 97, 16, 23080, -19383, 5381, 5491, 11, 14, 1523819801.103, 150, 0, 1024, 1647, 1024, 1024, 0, 6, 3840, 3854, 3848, 3870, 3824, 3866, 0, 1, 10601, -90.000, 14.700, -135.100, 0.100, 0.000, -2.800, 0.0, , , , , , 98, , , 55, 55, 55
36.7935245, -118.9150072, 15.800, 12:16:41.202, 15, 0.22, 0.22, 98, 2.300, -0.800, -134.500, 762, 100, 97, 16, 23115, -18710, 5381, 5491, 11, 14, 1523819801.203, 55, 0, 1024, 1650, 1024, 1024, 0, 6, 3823, 3845, 3862, 3881, 3836, 3880, 0, 1, 10701, -90.000, 14.300, -135.100, 0.200, -0.100, -2.800, 0.0, , , , , , 98, , , 55, 55, 55
36.7935245, -118.9150073, 16.100, 12:16:41.303, 15, 0.22, 0.21, 98, 1.800, -0.700, -134.700, 762, 100, 95, 16, 23115, -18710, 5381, 5491, 11, 14, 1523819801.303, 70, 0, 1024, 1628, 1024, 1024, 0, 6, 3823, 3845, 3862, 3881, 3836, 3880, 0, 1, 10801, -90.000, 14.300, -135.100, 0.200, -0.100, -2.800, 0.0, , , , , , 98, , , 55, 55, 55
36.7935246, -118.9150073, 16.400, 12:16:41.403, 15, 0.22, 0.20, 98, 1.600, -0.600, -134.800, 762, 100, 95, 16, 23115, -18710, 5381, 5491, 11, 14, 1523819801.403, 49, 0, 1024, 1548, 1024, 1024, 0, 6, 3823, 3845, 3862, 3881, 3836, 3880, 0, 1, 10901, -90.000, 14.000, -135.100, 0.200, -0.100, -2.800, 0.0, , , , , , 98, , , 55, 55, 55
36.7935247, -118.9150074, 16.700, 12:16:41.503, 16, 0.22, 0.19, 98, 1.600, -0.400, -134.800, 762, 100, 95, 16, 23115, -18710, 5381, 5491, 11, 14, 1523819801.503, 51, 0, 1024, 1521, 1024, 1024, 0, 6, 3823, 3845, 3862, 3881, 3836, 3880, 0, 1, 11001, -89.900, 12.800, -135.100, 0.200, -0.100, -2.800, 0.0, , , , , , 98, , , 55, 55, 55
36.7935248, -118.9150075, 17.000, 12:16:41.603, 16, 0.22, 0.18, 98, 1.400, -0.300, -134.800, 762, 100, 95, 16, 23115, -18710, 5381, 5491, 11, 14, 1523819801.604, 33, 0, 1024, 1439, 1024, 1024, 0, 6, 3823, 3845, 3862, 3881, 3836, 3880, 0, 1, 11102, -89.900, 11.700, -135.100, 0.200, -0.100, -2.800, 0.0, , , , , , 98, , , 55, 55, 55
36.7935249, -118.9150076, 17.300, 12:16:41.702, 15, 0.22, 0.16, 98, 1.300, -0.300, -134.700, 762, 100, 95, 16, 23115, -18710, 5381, 5491, 11, 14, 1523819801.703, 31, 0, 1024, 1349, 1024, 1024, 0, 6, 3823, 3845, 3862, 3881, 3836, 3880, 0, 1, 11201, -89.900, 10.100, -135.100, 0.200, -0.100, -2.900, 0.0, , , , , , 98, , , 55, 55, 55
36.7935251, -118.9150078, 17.600, 12:16:41.803, 15, 0.22, 0.14, 98, 1.000, -0.200, -134.700, 762, 100, 97, 16, 23115, -18710, 5381, 5491, 11, 14, 1523819801.803, 41, 0, 1024, 1260, 1024, 1024, 0, 6, 3823, 3845, 3862, 3881, 3836, 3880, 0, 1, 11301, -89.900, 8.300, -135.100, 0.200, -0.100, -2.900, 0.0, , , , , , 98, , , 55, 55, 55
36.7935253, -118.9150080, 17.900, 12:16:41.903, 15, 0.22, 0.12, 98, 0.600, -0.200, -134.700, 762, 100, 97, 16, 23115, -18710, 5381, 5491, 11, 14, 1523819801.903, 40, 0, 1024, 1182, 1024, 1024, 0, 6, 3823, 3845, 3862, 3881, 3836, 3880, 0, 1, 11401, -89.900, 6.400, -135.100, 0.200, -0.100, -3.000, 0.0, , , , , , 98, , , 55, 55, 55
36.7935255, -118.9150082, 18.200, 12:16:42.003, 15, 0.22, 0.10, 98, 0.500, -0.200, -134.600, 762, 100, 97, 16, 23115, -18710, 5381, 5491, 11, 14, 1523819802.003, 20, 0, 1024, 1072, 1024, 1024, 0, 6, 3823, 3845, 3862, 3881, 3836, 3880, 0, 1, 11501, -89.900, 4.500, -135.100, 0.200, -0.100, -2.900, 0.0, , , , , , 98, , , 55, 55, 55
36.7935255, -118.9150082, 18.200, 12:16:42.103, 15, 0.22, 0.10, 98, 0.500, -0.200, -134.600, 762, 100, 97, 16, 23115, -18710, 5381, 5491, 11, 14, 1523819802.103, 120, 0, 1024, 1024, 1024, 1024, 0, 6, 3823, 3845, 3862, 3881, 3836, 3880, 0, 1, 11601, -89.900, 0.800, -135.100, 0.200, -0.100, -2.900, 0.0, , , , , , 98, , , 55, 55, 55
36.7935258, -118.9150086, 18.800, 12:16:42.202, 16, 0.22, 0.07, 98, 0.300, 0.000, -134.300, 762, 100, 97, 16, 23042, -19264, 5381, 5491, 11, 14, 1523819802.203, 18, 0, 1024, 1024, 1024, 1024, 0, 6, 3823, 3845, 3862, 3881, 3836, 3880, 0, 1, 11701, -89.900, 0.300, -135.100, 0.200, -0.100, -2.800, 0.0, , , , , , 98, , , 55, 55, 55
36.7935260, -118.9150089, 19.100, 12:16:42.303, 16, 0.22, 0.07, 98, 0.300, 0.000, -134.300, 762, 100, 97, 16, 23042, -19264, 5381, 5491, 11, 14, 1523819802.303, 20, 0, 1024, 1024, 1024, 1024, 0, 6, 3819, 3837, 3844, 3864, 3817, 3857, 0, 1, 11801, -89.900, 0.300, -135.100, 0.200, -0.100, -2.900, 0.0, , , , , , 98, , , 55, 55, 55
36.7935264, -118.9150093, 19.700, 12:16:42.404, 16, 0.22, 0.10, 98, 0.200, -0.200, -134.400, 762, 100, 97, 16, 23042, -19264, 5381, 5491, 11, 14, 1523819802.404, 4, 0, 1024, 1024, 1024, 1024, 0, 6, 3819, 3837, 3844, 3864, 3817, 3857, 0, 1, 11902, -89.900, 0.000, -135.100, 0.200, -0.100, -2.900, 0.0, , , , , , 98, , , 55, 55, 55
36.7935264, -118.9150093, 19.700, 12:16:42.503, 16, 0.22, 0.10, 98, 0.200, -0.200, -134.400, 762, 100, 97, 16, 23042, -19264, 5381, 5491, 11, 14, 1523819802.503, 103, 0, 1024, 1024, 1024, 1024, 0, 6, 3819, 3837, 3844, 3864, 3817, 3857, 0, 1, 12001, -89.900, 0.000, -135.100, 0.200, -0.100, -2.900, 0.0, , , , , , 98, , , 55, 55, 55
36.7935266, -118.9150095, 20.000, 12:16:42.603, 16, 0.22, 0.13, 98, 0.000, -0.300, -134.500, 762, 100, 97, 16, 23042, -19264, 5381, 5491, 11, 14, 1523819802.603, 86, 0, 1024, 1024, 1024, 1024, 0, 6, 3819, 3837, 3844, 3864, 3817, 3857, 0, 1, 12101, -90.000, 0.000, -135.100, 0.200, -0.100, -2.900, 0.0, , , , , , 98, , , 55, 55, 55
36.7935268, -118.9150097, 20.300, 12:16:42.702, 16, 0.22, 0.15, 98, -0.300, -0.500, -134.400, 762, 100, 97, 16, 23042, -19264, 5381, 5491, 11, 14, 1523819802.703, 55, 0, 1024, 1024, 1024, 1024, 0, 6, 3819, 3837, 3844, 3864, 3817, 3857, 0, 1, 12201, -90.000, 0.000, -135.100, 0.200, -0.100, -2.900, 0.0, , , , , , 98, , , 55, 55, 55
36.7935268, -118.9150097, 20.300, 12:16:42.803, 16, 0.22, 0.15, 98, -0.300, -0.500, -134.400, 762, 100, 99, 16, 23042, -19264, 5381, 5491, 11, 14, 1523819802.803, 155, 0, 1024, 1024, 1024, 1024, 0, 6, 3819, 3837, 3844, 3864, 3817, 3857, 0, 1, 12301, -90.000, 0.000, -135.100, 0.200, -0.100, -2.900, 0.0, , , , , , 98, , , 55, 55, 55
36.7935272, -118.9150101, 20.900, 12:16:42.903, 16, 0.14, 0.20, 98, -0.400, -0.600, -134.300, 762, 100, 99, 16, 23042, -19264, 5381, 5491, 11, 14, 1523819802.903, 71, 0, 1024, 1024, 1024, 1024, 0, 6, 3819, 3837, 3844, 3864, 3817, 3857, 0, 1, 12401, -90.000, 0.000, -135.100, 0.100, -0.100, -2.900, 0.0, , , , , , 98, , , 55, 55, 55
36.7935273, -118.9150103, 21.200, 12:16:43.003, 16, 0.14, 0.23, 98, -0.400, -0.400, -134.300, 762, 100, 99, 16, 23042, -19264, 5381, 5491, 11, 14, 1523819803.003, 79, 0, 1024, 1024, 1024, 1024, 0, 6, 3819, 3837, 3844, 3864, 3817, 3857, 0, 1, 12501, -89.900, 0.000, -135.100, 0.100, -0.100, -2.900, 0.0, , , , , , 98, , , 55, 55, 55
36.7935275, -118.9150106, 21.500, 12:16:43.103, 16, 0.14, 0.26, 98, -0.400, 0.000, -134.300, 762, 100, 99, 16, 23042, -19264, 5381, 5491, 11, 14, 1523819803.103, 87, 0, 1024, 1024, 1024, 1024, 0, 6, 3819, 3837, 3844, 3864, 3817, 3857, 0, 1, 12601, -89.900, 0.000, -135.100, 0.100, -0.100, -2.800, 0.0, , , , , , 98, , , 55, 55, 55
36.7935277, -118.9150109, 21.800, 12:16:43.202, 16, 0.14, 0.29, 98, -0.500, 0.200, -134.400, 762, 100, 99, 16, 23079, -18443, 5381, 5491, 11, 14, 1523819803.203, 86, 0, 1024, 1022, 1024, 1024, 0, 6, 3822, 3855, 3844, 3868, 3820, 3870, 0, 1, 12701, -89.900, 0.000, -135.100, 0.100, -0.100, -2.900, 0.0, , , , , , 98, , , 55, 55, 55
36.7935280, -118.9150111, 22.100, 12:16:43.303, 16, 0.14, 0.32, 98, -0.800, 0.200, -134.500, 762, 100, 99, 16, 23079, -18443, 5381, 5491, 11, 14, 1523819803.303, 85, 0, 1024, 1021, 1024, 1024, 0, 6, 3822, 3855, 3844, 3868, 3820, 3870, 0, 1, 12801, -89.900, 0.000, -135.100, 0.100, -0.100, -2.900, 0.0, , , , , , 98, , , 55, 55, 55
36.7935282, -118.9150113, 22.400, 12:16:43.403, 16, 0.14, 0.35, 98, -1.100, 0.000, -134.600, 762, 100, 99, 16, 23079, -18443, 5381, 5491, 11, 14, 1523819803.403, 80, 0, 1024, 992, 1024, 1024, 0, 6, 3822, 3855, 3844, 3868, 3820, 3870, 0, 1, 12901, -89.900, 0.000, -135.100, 0.100, -0.100, -2.800, 0.0, , , , , , 98, , , 55, 55, 55
36.7935284, -118.9150116, 22.700, 12:16:43.503, 16, 0.14, 0.38, 98, -1.600, -0.100, -134.700, 762, 100, 99, 16, 23079, -18443, 5381, 5491, 11, 14, 1523819803.504, 81, 0, 1024, 899, 1024, 1024, 0, 6, 3822, 3855, 3844, 3868, 3820, 3870, 0, 1, 13001, -89.900, 0.000, -135.100, 0.100, -0.100, -2.900, 0.0, , , , , , 98, , , 55, 55, 55
36.7935284, -118.9150116, 22.700, 12:16:43.603, 16, 0.14, 0.38, 98, -1.600, -0.100, -134.700, 762, 100, 99, 16, 23079, -18443, 5381, 5491, 11, 14, 1523819803.603, 180, 0, 1024, 854, 1024, 1024, 0, 6, 3822, 3855, 3844, 3868, 3820, 3870, 0, 1, 13101, -89.900, 0.000, -135.100, 0.100, -0.100, -2.900, 0.0, , , , , , 98, , , 55, 55, 55
36.7935288, -118.9150119, 23.300, 12:16:43.702, 16, 0.10, 0.43, 98, -2.100, -0.100, -134.600, 762, 100, 99, 16, 23079, -18443, 5381, 5491, 11, 14, 1523819803.702, 27, 0, 1024, 1024, 1024, 1024, 0, 6, 3822, 3855, 3844, 3868, 3820, 3870, 0, 1, 13200, -90.000, -2.200, -135.100, 0.100, 0.000, -2.900, 0.0, , , , , , 98, , , 55, 55, 55
36.7935290, -118.9150121, 23.600, 12:16:43.803, 16, 0.10, 0.46, 98, -2.500, -0.600, -134.400, 762, 100, 95, 16, 23079, -18443, 5381, 5491, 11, 14, 1523819803.803, 46, 0, 1024, 1024, 1024, 1024, 0, 6, 3822, 3855, 3844, 3868, 3820, 3870, 0, 1, 13301, -90.000, -1.400, -135.100, 0.100, 0.000, -2.900, 0.0, , , , , , 98, , , 55, 55, 55
36.7935292, -118.9150122, 23.900, 12:16:43.903, 16, 0.10, 0.49, 98, -2.500, -1.000, -134.300, 762, 100, 95, 16, 23079, -18443, 5381, 5491, 11, 14, 1523819803.903, 59, 0, 1024, 1024, 1024, 1024, 0, 6, 3822, 3855, 3844, 3868, 3820, 3870, 0, 1, 13401, -90.000, -0.500, -135.100, 0.100, 0.000, -2.900, 0.0, , , , , , 98, , , 55, 55, 55
36.7935294, -118.9150124, 24.200, 12:16:44.003, 16, 0.10, 0.52, 98, -2.500, -1.200, -134.100, 762, 100, 95, 16, 23079, -18443, 5381, 5491, 11, 14, 1523819804.003, 29, 0, 1024, 1024, 1024, 1024, 0, 6, 3822, 3855, 3844, 3868, 3820, 3870, 0, 1, 13501, -90.000, -0.200, -135.100, 0.100, 0.000, -2.900, 0.0, , , , , , 98, , , 55, 55, 55
36.7935296, -118.9150125, 24.500, 12:16:44.103, 16, 0.00, 0.54, 98, -2.200, -1.200, -134.000, 762, 100, 95, 16, 23079, -18443, 5381, 5491, 11, 14, 1523819804.103, 46, 0, 1024, 1024, 1024, 1024, 0, 6, 3822, 3855, 3844, 3868, 3820, 3870, 0, 1, 13601, -90.000, 0.000, -135.100, 0.000, 0.000, -2.800, 0.0, , , , , , 98, , , 55, 55, 55
36.7935298, -118.9150126, 24.800, 12:16:44.202, 16, 0.00, 0.56, 98, -1.800, -0.900, -134.000, 762, 100, 95, 16, 23064, -18482, 5381, 5491, 11, 14, 1523819804.203, 50, 0, 1024, 878, 1024, 1024, 0, 6, 3822, 3855, 3844, 3868, 3820, 3870, 0, 1, 13701, -89.900, 0.000, -135.100, 0.000, 0.000, -2.800, 0.0, , , , , , 98, , , 55, 55, 55
36.7935299, -118.9150127, 25.100, 12:16:44.303, 16, 0.00, 0.58, 98, -1.500, -0.600, -134.000, 762, 100, 95, 16, 23064, -18482, 5381, 5491, 11, 14, 1523819804.303, 42, 0, 1024, 851, 1024, 1024, 0, 6, 3822, 3855, 3844, 3868, 3820, 3870, 0, 1, 13801, -89.900, 0.000, -135.100, 0.000, 0.000, -2.800, 0.0, , , , , , 98, , , 55, 55, 55
36.7935300, -118.9150128, 25.400, 12:16:44.403, 16, 0.00, 0.60, 98, -1.700, -0.600, -133.900, 762, 100, 95, 16, 23064, -18482, 5381, 5491, 11, 14, 1523819804.404, 44, 0, 1024, 890, 1024, 1024, 0, 6, 3822, 3855, 3844, 3868, 3820, 3870, 0, 1, 13902, -89.900, -2.500, -135.100, 0.000, 0.000, -2.800, 0.0, , , , , , 98, , , 55, 55, 55
36.7935302, -118.9150129, 25.700, 12:16:44.503, 16, 0.00, 0.61, 98, -1.700, -0.600, -133.800, 762, 100, 95, 16, 23064, -18482, 5381, 5491, 11, 14, 1523819804.503, 33, 0, 1024, 929, 1024, 1024, 0, 6, 3822, 3855, 3844, 3868, 3820, 3870, 0, 1, 14001, -89.900, -2.600, -135.100, 0.000, 0.000, -2.800, 0.0, , , , , , 98, , , 55, 55, 55
36.7935303, -118.9150130, 26.000, 12:16:44.602, 16, 0.00, 0.63, 98, -1.900, -0.700, -133.700, 762, 100, 95, 16, 23064, -18482, 5381, 5491, 11, 14, 1523819804.602, 12, 0, 1024, 979, 1024, 1024, 0, 6, 3822, 3855, 3844, 3868, 3820, 3870, 0, 1, 14100, -89.900, -1.900, -135.100, 0.000, 0.000, -2.800, 0.0, , , , , , 98, , , 55, 55, 55
36.7935304, -118.9150131, 26.300, 12:16:44.702, 16, 0.00, 0.64, 98, -2.100, -0.600, -133.600, 762, 100, 95, 16, 23064, -18482, 5381, 5491, 11, 14, 1523819804.703, 21, 0, 1024, 1024, 1024, 1024, 0, 6, 3818, 3836, 3848, 3867, 3828, 3863, 0, 1, 14201, -89.900, -1.300, -135.100, 0.000, 0.000, -2.900, 0.0, , , , , , 98, , , 55, 55, 55
36.7935305, -118.9150132, 26.600, 12:16:44.803, 16, 0.00, 0.66, 98, -2.300, -0.500, -133.600, 762, 100, 92, 16, 23064, -18482, 5381, 5491, 11, 14, 1523819804.803, 28, 0, 1024, 1024, 1024, 1024, 0, 6, 3818, 3836, 3848, 3867, 3828, 3863, 0, 1, 14301, -89.900, -0.400, -135.100, 0.000, 0.000, -2.900, 0.0, , , , , , 98, , , 55, 55, 55
36.7935306, -118.9150132, 26.900, 12:16:44.903, 16, 0.00, 0.67, 98, -2.200, -0.500, -133.700, 762, 100, 92, 16, 23064, -18482, 5381, 5491, 11, 14, 1523819804.903, 32, 0, 1024, 1024, 1024, 1024, 0, 6, 3818, 3836, 3848, 3867, 3828, 3863, 0, 1, 14401, -89.900, -0.100, -135.100, 0.000, 0.000, -2.900, 0.0, , , , , , 98, , , 55, 55, 55
36.7935306, -118.9150132, 26.900, 12:16:45.003, 16, 0.00, 0.67, 98, -2.200, -0.500, -133.700, 762, 100, 92, 16, 23064, -18482, 5381, 5491, 11, 14, 1523819805.003, 132, 0, 1024, 1024, 1024, 1024, 0, 6, 3818, 3836, 3848, 3867, 3828, 3863, 0, 1, 14501, -89.900, -0.100, -135.100, 0.000, 0.000, -2.900, 0.0, , , , , , 98, , , 55, 55, 55
36.7935306, -118.9150132, 26.900, 12:16:45.102, 16, 0.00, 0.67, 98, -2.200, -0.500, -133.700, 762, 100, 92, 16, 23064, -18482, 5381, 5491, 11, 14, 1523819805.102, 231, 0, 1024, 1024, 1024, 1024, 0, 6, 3818, 3836, 3848, 3867, 3828, 3863, 0, 1, 14600, -89.900, 0.000, -135.100, 0.000, 0.000, -2.900, 0.0, , , , , , 98, , , 55, 55, 55
36.7935308, -118.9150132, 27.500, 12:16:45.202, 16, 0.00, 0.68, 98, -1.700, -0.600, -133.800, 762, 100, 92, 16, 23064, -18482, 5381, 5491, 11, 14, 1523819805.203, 94, 0, 1024, 1024, 1024, 1024, 0, 6, 3818, 3836, 3848, 3867, 3828, 3863, 0, 1, 14701, -89.900, 0.000, -135.100, 0.000, 0.000, -2.800, 0.0, , , , , , 98, , , 55, 55, 55
36.7935308, -118.9150132, 28.100, 12:16:45.308, 17, 0.00, 0.69, 98, -1.200, -0.600, -133.800, 762, 100, 97, 16, 23064, -18482, 5381, 5491, 11, 14, 1523819805.308, 4, 0, 1024, 1024, 1024, 1024, 0, 6, 3818, 3836, 3848, 3867, 3828, 3863, 0, 1, 14806, -89.900, 0.000, -135.100, 0.000, 0.000, -2.800, 0.0, , , , , , 98, , , 55, 55, 55
36.7935309, -118.9150132, 28.400, 12:16:45.403, 17, 0.00, 0.69, 98, -1.000, -0.600, -134.000, 762, 100, 97, 16, 23064, -18482, 5381, 5491, 11, 14, 1523819805.403, 89, 0, 1024, 1024, 1024, 1024, 0, 6, 3818, 3836, 3848, 3867, 3828, 3863, 0, 1, 14901, -90.000, 0.000, -135.100, 0.000, 0.000, -2.800, 0.0, , , , , , 98, , , 55, 55, 55
36.7935309, -118.9150132, 28.400, 12:16:45.503, 17, 0.00, 0.69, 98, -1.000, -0.600, -134.000, 762, 100, 97, 16, 23064, -18482, 5381, 5491, 11, 14, 1523819805.503, 189, 0, 1024, 1024, 1024, 1024, 0, 6, 3818, 3836, 3848, 3867, 3828, 3863, 0, 1, 15001, -90.000, 0.000, -135.100, 0.000, 0.000, -2.800, 0.0, , , , , , 98, , , 55, 55, 55
36.7935309, -118.9150132, 29.200, 12:16:45.607, 17, 0.00, 0.70, 98, -1.300, -0.400, -134.500, 762, 100, 97, 16, 23064, -18482, 5381, 5491, 11, 14, 1523819805.607, 6, 0, 1024, 1024, 1024, 1024, 0, 6, 3818, 3836, 3848, 3867, 3828, 3863, 0, 1, 15105, -89.900, 0.000, -135.100, 0.000, 0.000, -2.800, 0.0, , , , , , 98, , , 55, 55, 55
36.7935309, -118.9150132, 29.200, 12:16:45.702, 17, 0.00, 0.70, 98, -1.300, -0.400, -134.500, 762, 100, 97, 16, 23064, -18482, 5381, 5491, 11, 14, 1523819805.703, 102, 0, 1024, 1024, 1024, 1024, 0, 6, 3818, 3836, 3848, 3867, 3828, 3863, 0, 1, 15201, -89.900, 0.000, -135.100, 0.000, 0.000, -2.800, 0.0, , , , , , 98, , , 55, 55, 55
36.7935309, -118.9150132, 29.500, 12:16:45.802, 17, 0.10, 0.70, 98, -1.300, -0.200, -134.700, 762, 100, 91, 16, 23006, -18712, 5381, 5491, 11, 14, 1523819805.802, 96, 0, 1024, 1024, 1024, 1024, 0, 6, 3807, 3827, 3847, 3858, 3811, 3843, 0, 1, 15300, -89.900, 0.000, -135.100, -0.100, 0.000, -2.900, 0.0, , , , , , 98, , , 55, 55, 55
36.7935309, -118.9150132, 29.800, 12:16:45.903, 17, 0.10, 0.69, 98, -1.100, 0.000, -134.900, 762, 100, 91, 16, 23006, -18712, 5381, 5491, 11, 14, 1523819805.903, 70, 0, 1024, 1024, 1024, 1024, 0, 6, 3807, 3827, 3847, 3858, 3811, 3843, 0, 1, 15401, -89.900, 0.000, -135.100, -0.100, 0.000, -2.900, 0.0, , , , , , 98, , , 55, 55, 55
36.7935308, -118.9150133, 30.100, 12:16:46.003, 17, 0.10, 0.69, 98, -1.000, 0.000, -135.000, 762, 100, 91, 16, 23006, -18712, 5381, 5491, 11, 14, 1523819806.004, 87, 0, 1024, 1024, 1024, 1024, 0, 6, 3807, 3827, 3847, 3858, 3811, 3843, 0, 1, 15502, -89.900, 0.000, -135.100, -0.100, 0.000, -2.900, 0.0, , , , , , 98, , , 55, 55, 55
36.7935308, -118.9150132, 30.400, 12:16:46.103, 17, 0.10, 0.68, 98, -0.900, 0.100, -135.000, 762, 100, 91, 16, 23006, -18712, 5381, 5491, 11, 14, 1523819806.103, 67, 0, 1024, 1024, 1024, 1024, 0, 6, 3807, 3827, 3847, 3858, 3811, 3843, 0, 1, 15601, -89.900, 0.000, -135.100, -0.100, 0.000, -2.900, 0.0, , , , , , 98, , , 55, 55, 55
36.7935307, -118.9150132, 30.700, 12:16:46.202, 17, 0.10, 0.68, 98, -1.000, 0.100, -134.900, 762, 100, 91, 16, 23006, -18712, 5381, 5491, 11, 14, 1523819806.203, 46, 0, 1024, 1024, 1024, 1024, 0, 6, 3807, 3827, 3847, 3858, 3811, 3843, 0, 1, 15701, -89.900, 0.000, -135.100, -0.100, 0.000, -2.900, 0.0, , , , , , 98, , , 55, 55, 55
36.7935306, -118.9150131, 31.000, 12:16:46.302, 17, 0.10, 0.67, 98, -0.900, 0.000, -134.900, 762, 100, 89, 16, 23006, -18712, 5381, 5491, 11, 14, 1523819806.303, 87, 0, 1024, 1024, 1024, 1024, 0, 6, 3807, 3827, 3847, 3858, 3811, 3843, 0, 1, 15801, -89.900, 0.000, -135.100, -0.100, 0.000, -2.900, 0.0, , , , , , 98, , , 55, 55, 55
36.7935306, -118.9150131, 31.300, 12:16:46.403, 17, 0.10, 0.66, 98, -0.700, 0.100, -134.800, 762, 100, 89, 16, 23006, -18712, 5381, 5491, 11, 14, 1523819806.403, 61, 0, 1024, 1024, 1024, 1024, 0, 6, 3807, 3827, 3847, 3858, 3811, 3843, 0, 1, 15901, -89.900, 0.000, -135.100, -0.100, 0.000, -2.900, 0.0, , , , , , 98, , , 55, 55, 55
36.7935305, -118.9150130, 31.600, 12:16:46.503, 17, 0.10, 0.65, 98, -0.500, 0.200, -134.700, 762, 100, 89, 16, 23006, -18712, 5381, 5491, 11, 14, 1523819806.503, 53, 0, 1024, 1024, 1024, 1024, 0, 6, 3807, 3827, 3847, 3858, 3811, 3843, 0, 1, 16001, -89.900, 0.000, -135.100, -0.100, 0.000, -3.000, 0.0, , , , , , 98, , , 55, 55, 55
36.7935305, -118.9150130, 31.600, 12:16:46.603, 17, 0.10, 0.65, 98, -0.500, 0.200, -134.700, 762, 100, 89, 16, 23006, -18712, 5381, 5491, 11, 14, 1523819806.603, 153, 0, 1024, 1024, 1024, 1024, 0, 6, 3807, 3827, 3847, 3858, 3811, 3843, 0, 1, 16101, -89.900, 0.000, -135.100, -0.100, 0.000, -3.000, 0.0, , , , , , 98, , , 55, 55, 55
36.7935303, -118.9150129, 32.200, 12:16:46.702, 17, 0.10, 0.63, 98, -0.400, 0.000, -134.500, 762, 100, 89, 16, 22917, -19364, 5381, 5491, 11, 14, 1523819806.703, 62, 0, 1024, 1024, 1024, 1024, 0, 6, 3790, 3814, 3832, 3846, 3790, 3842, 0, 1, 16201, -89.900, 0.000, -135.100, -0.100, 0.000, -2.900, 0.0, , , , , , 98, , , 55, 55, 55
36.7935302, -118.9150128, 32.500, 12:16:46.802, 17, 0.10, 0.61, 98, -0.300, 0.000, -134.300, 762, 100, 91, 16, 22917, -19364, 5381, 5491, 11, 14, 1523819806.803, 62, 0, 1024, 1024, 1024, 1024, 0, 6, 3790, 3814, 3832, 3846, 3790, 3842, 0, 1, 16301, -89.900, 0.000, -135.100, -0.100, 0.000, -2.900, 0.0, , , , , , 98, , , 55, 55, 55
36.7935302, -118.9150127, 32.800, 12:16:46.903, 17, 0.10, 0.60, 98, -0.200, 0.000, -134.200, 762, 100, 91, 16, 22917, -19364, 5381, 5491, 11, 14, 1523819806.903, 65, 0, 1024, 1024, 1024, 1024, 0, 6, 3790, 3814, 3832, 3846, 3790, 3842, 0, 1, 16401, -89.900, 0.000, -135.100, -0.100, 0.000, -2.900, 0.0, , , , , , 98, , , 55, 55, 55
36.7935301, -118.9150127, 33.100, 12:16:47.003, 17, 0.10, 0.59, 98, -0.200, 0.200, -134.100, 762, 100, 91, 16, 22917, -19364, 5381, 5491, 11, 14, 1523819807.003, 41, 0, 1024, 1024, 1024, 1024, 0, 6, 3790, 3814, 3832, 3846, 3790, 3842, 0, 1, 16501, -89.900, 0.000, -135.100, -0.100, 0.000, -2.900, 0.0, , , , , , 98, , , 55, 55, 55
36.7935301, -118.9150127, 33.100, 12:16:47.103, 17, 0.10, 0.59, 98, -0.200, 0.200, -134.100, 762, 100, 91, 16, 22917, -19364, 5381, 5491, 11, 14, 1523819807.103, 141, 0, 1024, 1024, 1024, 1024, 0, 6, 3790, 3814, 3832, 3846, 3790, 3842, 0, 1, 16601, -89.900, 0.000, -135.100, -0.100, 0.000, -2.900, 0.0, , , , , , 98, , , 55, 55, 55
36.7935298, -118.9150126, 33.700, 12:16:47.202, 17, 0.10, 0.56, 98, 0.000, 0.700, -133.900, 762, 100, 91, 16, 22917, -19364, 5381, 5491, 11, 14, 1523819807.203, 26, 0, 1024, 1024, 1024, 1024, 0, 6, 3790, 3814, 3832, 3846, 3790, 3842, 0, 1, 16701, -89.900, 0.000, -135.100, -0.100, 0.000, -2.900, 0.0, , , , , , 98, , , 55, 55, 55
36.7935297, -118.9150125, 34.000, 12:16:47.303, 17, 0.10, 0.55, 98, 0.100, 0.800, -133.900, 762, 100, 97, 16, 22917, -19364, 5381, 5491, 11, 14, 1523819807.303, 34, 0, 1024, 1024, 1024, 1024, 0, 6, 3790, 3814, 3832, 3846, 3790, 3842, 0, 1, 16801, -89.900, 0.000, -135.100, -0.100, 0.000, -2.900, 0.0, , , , , , 98, , , 55, 55, 55
36.7935296, -118.9150124, 34.300, 12:16:47.403, 17, 0.10, 0.54, 98, 0.200, 0.800, -134.000, 762, 100, 97, 16, 22917, -19364, 5381, 5491, 11, 14, 1523819807.403, 34, 0, 1024, 1024, 1024, 1024, 0, 6, 3790, 3814, 3832, 3846, 3790, 3842, 0, 1, 16901, -89.900, 0.000, -135.100, -0.100, 0.000, -2.900, 0.0, , , , , , 98, , , 55, 55, 55
36.7935295, -118.9150124, 34.600, 12:16:47.503, 17, 0.10, 0.53, 98, 0.300, 0.800, -134.100, 762, 100, 97, 16, 22917, -19364, 5381, 5491, 11, 14, 1523819807.503, 26, 0, 1024, 1024, 1024, 1024, 0, 6, 3790, 3814, 3832, 3846, 3790, 3842, 0, 1, 17001, -89.900, 0.000, -135.100, -0.100, 0.000, -2.800, 0.0, , , , , , 98, , , 55, 55, 55
36.7935294, -118.9150124, 34.900, 12:16:47.603, 17, 0.10, 0.51, 98, 0.300, 0.700, -134.300, 762, 100, 97, 16, 22917, -19364, 5381, 5491, 11, 14, 1523819807.603, 19, 0, 1024, 1024, 1024, 1024, 0, 6, 3790, 3814, 3832, 3846, 3790, 3842, 0, 1, 17101, -89.900, 0.000, -135.100, -0.100, 0.000, -2.900, 0.0, , , , , , 98, , , 55, 55, 55
36.7935293, -118.9150123, 35.100, 12:16:47.702, 17, 0.10, 0.50, 98, 0.200, 0.800, -134.600, 762, 100, 97, 16, 22955, -18652, 5381, 5491, 11, 14, 1523819807.703, 20, 0, 1024, 1024, 1024, 1024, 0, 6, 3789, 3828, 3837, 3864, 3803, 3855, 0, 1, 17201, -89.900, 0.000, -135.100, -0.100, 0.000, -2.900, 0.0, , , , , , 98, , , 55, 55, 55
36.7935292, -118.9150122, 35.400, 12:16:47.803, 17, 0.10, 0.49, 98, 0.400, 1.100, -134.800, 762, 100, 97, 16, 22955, -18652, 5381, 5491, 11, 14, 1523819807.803, 11, 0, 1024, 1024, 1024, 1024, 0, 6, 3789, 3828, 3837, 3864, 3803, 3855, 0, 1, 17301, -89.900, 0.000, -135.100, -0.100, 0.000, -2.900, 0.0, , , , , , 98, , , 55, 55, 55
36.7935291, -118.9150122, 35.700, 12:16:47.903, 17, 0.10, 0.48, 98, 0.700, 1.300, -134.900, 762, 100, 97, 16, 22955, -18652, 5381, 5491, 11, 14, 1523819807.903, 23, 0, 1024, 1024, 1024, 1024, 0, 6, 3789, 3828, 3837, 3864, 3803, 3855, 0, 1, 17401, -89.900, 0.000, -135.100, -0.100, 0.000, -2.900, 0.0, , , , , , 98, , , 55, 55, 55
36.7935291, -118.9150122, 35.700, 12:16:48.003, 17, 0.10, 0.48, 98, 0.700, 1.300, -134.900, 762, 100, 97, 16, 22955, -18652, 5381, 5491, 11, 14, 1523819808.003, 123, 0, 1024, 1024, 1024, 1024, 0, 6, 3789, 3828, 3837, 3864, 3803, 3855, 0, 1, 17501, -89.900, 0.000, -135.100, -0.100, 0.000, -2.900, 0.0, , , , , , 98, , , 55, 55, 55
36.7935290, -118.9150121, 36.000, 12:16:48.103, 17, 0.00, 0.46, 98, 0.800, 1.400, -135.000, 762, 100, 97, 16, 22955, -18652, 5381, 5491, 11, 14, 1523819808.103, 71, 0, 1024, 1024, 1024, 1024, 0, 6, 3789, 3828, 3837, 3864, 3803, 3855, 0, 1, 17601, -89.900, 0.000, -135.100, 0.000, 0.000, -2.900, 0.0, , , , , , 98, , , 55, 55, 55
36.7935288, -118.9150120, 36.600, 12:16:48.204, 17, 0.00, 0.44, 98, 0.800, 1.100, -135.100, 762, 100, 97, 16, 22955, -18652, 5381, 5491, 11, 14, 1523819808.204, 5, 0, 1024, 1024, 1024, 1024, 0, 6, 3789, 3828, 3837, 3864, 3803, 3855, 0, 1, 17702, -89.900, 0.000, -135.100, 0.000, 0.000, -3.000, 0.0, , , , , , 98, , , 55, 55, 55
36.7935288, -118.9150120, 36.600, 12:16:48.303, 17, 0.00, 0.44, 98, 0.800, 1.100, -135.100, 762, 100, 97, 16, 22955, -18652, 5381, 5491, 11, 14, 1523819808.303, 104, 0, 1024, 1024, 1024, 1024, 0, 6, 3789, 3828, 3837, 3864, 3803, 3855, 0, 1, 17801, -89.900, 0.000, -135.100, 0.000, 0.000, -3.000, 0.0, , , , , , 98, , , 55, 55, 55
36.7935287, -118.9150119, 37.300, 12:16:48.408, 17, 0.00, 0.42, 98, 0.600, 0.700, -135.000, 762, 100, 97, 16, 22955, -18652, 5381, 5491, 11, 14, 1523819808.409, 5, 0, 1024, 1024, 1024, 1024, 0, 6, 3789, 3828, 3837, 3864, 3803, 3855, 0, 1, 17907, -89.900, 0.000, -135.100, 0.000, 0.000, -3.000, 0.0, , , , , , 98, , , 55, 55, 55
36.7935286, -118.9150118, 37.600, 12:16:48.503, 17, 0.00, 0.42, 98, 0.800, 0.500, -134.900, 762, 100, 97, 16, 22955, -18652, 5381, 5491, 11, 14, 1523819808.503, 91, 0, 1024, 1024, 1024, 1024, 0, 6, 3789, 3828, 3837, 3864, 3803, 3855, 0, 1, 18001, -89.900, 0.000, -135.100, 0.000, 0.000, -3.000, 0.0, , , , , , 98, , , 55, 55, 55
36.7935286, -118.9150117, 37.900, 12:16:48.602, 17, 0.00, 0.41, 98, 0.800, 0.500, -134.700, 762, 100, 97, 16, 22955, -18652, 5381, 5491, 11, 14, 1523819808.603, 84, 0, 1024, 1024, 1024, 1024, 0, 6, 3789, 3828, 3837, 3864, 3803, 3855, 0, 1, 18101, -89.900, 0.000, -135.100, 0.000, 0.000, -3.000, 0.0, , , , , , 98, , , 55, 55, 55
36.7935285, -118.9150117, 38.200, 12:16:48.703, 17, 0.00, 0.40, 98, 0.800, 0.300, -134.500, 762, 100, 97, 16, 22973, -18360, 5326, 5491, 11, 14, 1523819808.703, 84, 0, 1024, 1024, 1024, 1024, 0, 6, 3797, 3824, 3832, 3854, 3803, 3850, 0, 1, 18201, -90.000, 0.000, -135.100, 0.000, 0.000, -3.000, 0.0, , , , , , 98, , , 55, 55, 55
36.7935285, -118.9150116, 38.500, 12:16:48.803, 17, 0.00, 0.39, 98, 0.800, 0.000, -134.300, 762, 100, 95, 16, 22973, -18360, 5326, 5491, 11, 14, 1523819808.804, 72, 0, 1024, 1024, 1024, 1024, 0, 6, 3797, 3824, 3832, 3854, 3803, 3850, 0, 1, 18301, -90.000, 0.000, -135.100, 0.000, 0.000, -2.900, 0.0, , , , , , 98, , , 55, 55, 55
36.7935285, -118.9150116, 38.800, 12:16:48.903, 17, 0.00, 0.39, 98, 0.700, 0.100, -134.100, 762, 100, 95, 16, 22973, -18360, 5326, 5491, 11, 14, 1523819808.903, 67, 0, 1024, 1024, 1024, 1024, 0, 6, 3797, 3824, 3832, 3854, 3803, 3850, 0, 1, 18401, -90.000, 0.000, -135.100, 0.000, 0.000, -2.900, 0.0, , , , , , 98, , , 55, 55, 55
36.7935284, -118.9150115, 39.100, 12:16:49.002, 17, 0.00, 0.38, 98, 0.700, 0.200, -134.000, 762, 100, 95, 16, 22973, -18360, 5326, 5491, 11, 14, 1523819809.003, 34, 0, 1024, 1024, 1024, 1024, 0, 6, 3797, 3824, 3832, 3854, 3803, 3850, 0, 1, 18501, -89.900, 0.000, -135.100, 0.000, 0.000, -2.900, 0.0, , , , , , 98, , , 55, 55, 55
36.7935283, -118.9150115, 39.400, 12:16:49.103, 17, 0.00, 0.37, 98, 0.900, 0.500, -133.800, 762, 100, 95, 16, 22973, -18360, 5326, 5491, 11, 14, 1523819809.104, 46, 0, 1024, 1024, 1024, 1024, 0, 6, 3797, 3824, 3832, 3854, 3803, 3850, 0, 1, 18602, -89.900, 0.000, -135.100, 0.000, 0.000, -2.900, 0.0, , , , , , 98, , , 55, 55, 55
36.7935283, -118.9150115, 39.700, 12:16:49.202, 17, 0.00, 0.37, 97, 1.100, 0.700, -133.800, 762, 100, 95, 16, 22973, -18360, 5326, 5491, 11, 14, 1523819809.203, 31, 0, 1024, 1024, 1024, 1024, 0, 6, 3797, 3824, 3832, 3854, 3803, 3850, 0, 1, 18701, -89.900, 0.000, -135.100, 0.000, 0.000, -2.900, 0.0, , , , , , 98, , , 55, 55, 55
36.7935282, -118.9150115, 40.000, 12:16:49.303, 17, 0.00, 0.36, 97, 1.100, 0.800, -133.800, 762, 100, 96, 16, 22973, -18360, 5326, 5491, 11, 14, 1523819809.304, 49, 0, 1024, 1024, 1024, 1024, 0, 6, 3797, 3824, 3832, 3854, 3803, 3850, 0, 1, 18801, -89.900, 0.000, -135.100, 0.000, 0.000, -2.900, 0.0, , , , , , 98, , , 55, 55, 55
36.7935282, -118.9150114, 40.300, 12:16:49.403, 17, 0.00, 0.35, 97, 1.000, 0.800, -133.900, 762, 100, 96, 16, 22973, -18360, 5326, 5491, 11, 14, 1523819809.406, 52, 0, 1024, 1024, 1024, 1024, 0, 6, 3797, 3824, 3832, 3854, 3803, 3850, 0, 1, 18904, -89.900, 0.000, -135.100, 0.000, 0.000, -2.900, 0.0, , , , , , 98, , , 55, 55, 55
36.7935282, -118.9150114, 40.500, 12:16:49.503, 17, 0.00, 0.35, 97, 1.000, 0.700, -134.100, 762, 100, 96, 16, 22973, -18360, 5326, 5491, 11, 14, 1523819809.503, 45, 0, 1024, 1024, 1024, 1024, 0, 6, 3797, 3824, 3832, 3854, 3803, 3850, 0, 1, 19001, -89.900, 0.000, -135.100, 0.000, 0.000, -2.900, 0.0, , , , , , 98, , , 55, 55, 55
36.7935281, -118.9150113, 40.800, 12:16:49.603, 17, 0.00, 0.35, 97, 1.000, 0.600, -134.300, 762, 100, 96, 16, 22973, -18360, 5326, 5491, 11, 14, 1523819809.604, 50, 0, 1024, 1024, 1024, 1024, 0, 6, 3797, 3824, 3832, 3854, 3803, 3850, 0, 1, 19101, -89.900, 0.000, -135.100, 0.000, 0.000, -2.900, 0.0, , , , , , 98, , , 55, 55, 55
36.7935281, -118.9150113, 41.100, 12:16:49.703, 17, 0.00, 0.34, 97, 1.000, 0.500, -134.500, 762, 100, 96, 16, 23006, -18025, 5326, 5491, 11, 14, 1523819809.703, 37, 0, 1024, 1024, 1024, 1024, 0, 6, 3797, 3824, 3832, 3854, 3803, 3850, 0, 1, 19201, -89.900, 0.000, -135.100, 0.000, 0.000, -2.900, 0.0, , , , , , 98, , , 55, 55, 55
36.7935281, -118.9150113, 41.400, 12:16:49.803, 17, 0.00, 0.34, 97, 0.900, 0.300, -134.600, 762, 100, 98, 16, 23006, -18025, 5326, 5491, 11, 14, 1523819809.805, 25, 0, 1024, 1024, 1024, 1024, 0, 6, 3797, 3824, 3832, 3854, 3803, 3850, 0, 1, 19303, -90.000, 0.000, -135.100, 0.000, 0.000, -3.000, 0.0, , , , , , 98, , , 55, 55, 55
36.7935281, -118.9150113, 41.700, 12:16:49.903, 17, 0.00, 0.34, 97, 0.900, 0.200, -134.700, 762, 100, 98, 16, 23006, -18025, 5326, 5491, 11, 14, 1523819809.903, 16, 0, 1024, 1024, 1024, 1024, 0, 6, 3797, 3824, 3832, 3854, 3803, 3850, 0, 1, 19401, -89.900, 0.000, -135.100, 0.000, 0.000, -3.000, 0.0, , , , , , 98, , , 55, 55, 55
36.7935282, -118.9150113, 42.100, 12:16:50.024, 17, 0.00, 0.34, 97, 0.800, 0.200, -134.700, 762, 100, 98, 16, 23006, -18025, 5326, 5491, 11, 14, 1523819810.024, 7, 0, 1024, 1024, 1024, 1024, 0, 6, 3797, 3824, 3832, 3854, 3803, 3850, 0, 1, 19522, -89.900, 0.000, -135.100, 0.000, 0.000, -3.000, 0.0, , , , , , 98, , , 55, 55, 55
36.7935282, -118.9150113, 42.400, 12:16:50.118, 17, 0.00, 0.35, 97, 0.600, 0.200, -134.700, 762, 100, 98, 16, 23006, -18025, 5326, 5491, 11, 14, 1523819810.119, 18, 0, 1024, 1024, 1024, 1024, 0, 6, 3797, 3824, 3832, 3854, 3803, 3850, 0, 1, 19617, -89.900, 0.000, -135.100, 0.000, 0.000, -3.000, 0.0, , , , , , 98, , , 55, 55, 55
36.7935282, -118.9150113, 42.700, 12:16:50.207, 17, 0.00, 0.35, 97, 0.500, 0.400, -134.600, 762, 100, 98, 16, 23006, -18025, 5326, 5491, 11, 14, 1523819810.208, 4, 0, 1024, 1024, 1024, 1024, 0, 6, 3797, 3824, 3832, 3854, 3803, 3850, 0, 1, 19706, -89.900, 0.000, -135.100, 0.000, 0.000, -2.900, 0.0, , , , , , 98, , , 55, 55, 55
36.7935282, -118.9150113, 43.300, 12:16:50.306, 17, 0.00, 0.35, 97, 0.600, 0.800, -134.500, 762, 100, 100, 16, 23006, -18025, 5326, 5491, 11, 14, 1523819810.306, 4, 0, 1024, 1024, 1024, 1024, 0, 6, 3808, 3834, 3841, 3863, 3803, 3857, 0, 1, 19804, -89.900, 0.000, -135.100, 0.000, 0.000, -3.000, 0.0, , , , , , 98, , , 55, 55, 55
36.7935282, -118.9150113, 43.300, 12:16:50.403, 17, 0.00, 0.35, 97, 0.600, 0.800, -134.500, 762, 100, 100, 16, 23006, -18025, 5326, 5491, 11, 14, 1523819810.403, 101, 0, 1024, 1024, 1024, 1024, 0, 6, 3808, 3834, 3841, 3863, 3803, 3857, 0, 1, 19901, -89.900, 0.000, -135.100, 0.000, 0.000, -3.000, 0.0, , , , , , 98, , , 55, 55, 55
36.7935282, -118.9150113, 43.900, 12:16:50.507, 17, 0.00, 0.35, 97, 0.900, 0.500, -134.400, 762, 100, 100, 16, 23006, -18025, 5326, 5491, 11, 14, 1523819810.508, 4, 0, 1024, 1024, 1024, 1024, 0, 6, 3808, 3834, 3841, 3863, 3803, 3857, 0, 1, 20006, -89.900, 0.000, -135.100, 0.000, 0.000, -3.000, 0.0, , , , , , 98, , , 55, 55, 55
36.7935282, -118.9150113, 43.900, 12:16:50.603, 17, 0.00, 0.35, 97, 0.900, 0.500, -134.400, 762, 100, 100, 16, 23006, -18025, 5326, 5491, 11, 14, 1523819810.603, 100, 0, 1024, 1024, 1024, 1024, 0, 6, 3808, 3834, 3841, 3863, 3803, 3857, 0, 1, 20101, -89.900, 0.000, -135.100, 0.000, 0.000, -3.000, 0.0, , , , , , 98, , , 55, 55, 55
36.7935282, -118.9150113, 44.200, 12:16:50.702, 17, 0.00, 0.35, 97, 0.900, 0.400, -134.500, 762, 100, 100, 16, 23006, -18025, 5326, 5491, 11, 14, 1523819810.703, 73, 0, 1024, 1024, 1024, 1024, 0, 6, 3808, 3834, 3841, 3863, 3803, 3857, 0, 1, 20201, -89.900, 0.000, -135.100, 0.000, 0.000, -3.000, 0.0, , , , , , 98, , , 55, 55, 55
36.7935282, -118.9150113, 44.500, 12:16:50.803, 17, 0.00, 0.35, 97, 1.000, 0.500, -134.500, 762, 100, 99, 16, 23006, -18025, 5326, 5491, 11, 14, 1523819810.803, 74, 0, 1024, 1024, 1024, 1024, 0, 6, 3808, 3834, 3841, 3863, 3803, 3857, 0, 1, 20301, -89.900, 0.000, -135.100, 0.000, 0.000, -3.000, 0.0, , , , , , 98, , , 55, 55, 55
36.7935282, -118.9150112, 44.800, 12:16:50.903, 17, 0.00, 0.35, 97, 1.100, 0.400, -134.600, 762, 100, 99, 16, 23006, -18025, 5326, 5491, 11, 14, 1523819810.903, 80, 0, 1024, 1024, 1024, 1024, 0, 6, 3808, 3834, 3841, 3863, 3803, 3857, 0, 1, 20401, -89.900, 0.000, -135.100, 0.000, 0.000, -3.000, 0.0, , , , , , 98, , , 55, 55, 55
36.7935282, -118.9150112, 45.100, 12:16:51.003, 17, 0.00, 0.35, 97, 1.000, 0.300, -134.700, 762, 100, 99, 16, 23006, -18025, 5326, 5491, 11, 14, 1523819811.003, 51, 0, 1024, 1024, 1024, 1024, 0, 6, 3808, 3834, 3841, 3863, 3803, 3857, 0, 1, 20501, -90.000, 0.000, -135.100, 0.000, 0.000, -3.000, 0.0, , , , , , 98, , , 55, 55, 55
36.7935282, -118.9150112, 45.400, 12:16:51.103, 17, 0.00, 0.35, 97, 1.000, 0.300, -134.700, 762, 100, 99, 16, 23006, -18025, 5326, 5491, 11, 14, 1523819811.103, 70, 0, 1024, 1024, 1024, 1024, 0, 6, 3808, 3834, 3841, 3863, 3803, 3857, 0, 1, 20601, -89.900, 0.000, -135.100, 0.000, 0.000, -3.000, 0.0, , , , , , 98, , , 55, 55, 55
36.7935282, -118.9150112, 45.700, 12:16:51.202, 17, 0.00, 0.35, 97, 1.000, 0.300, -134.700, 762, 100, 99, 16, 22921, -18386, 5326, 5491, 11, 14, 1523819811.203, 55, 0, 1024, 1024, 1024, 1024, 0, 6, 3799, 3816, 3839, 3849, 3797, 3843, 0, 1, 20701, -89.900, 0.000, -135.100, 0.000, 0.000, -3.000, 0.0, , , , , , 98, , , 55, 55, 55
36.7935282, -118.9150112, 46.000, 12:16:51.303, 17, 0.00, 0.35, 97, 1.000, 0.300, -134.600, 762, 100, 99, 16, 22921, -18386, 5326, 5491, 11, 14, 1523819811.303, 38, 0, 1024, 1024, 1024, 1024, 0, 6, 3799, 3816, 3839, 3849, 3797, 3843, 0, 1, 20801, -89.900, 0.000, -135.100, 0.000, 0.000, -2.900, 0.0, , , , , , 98, , , 55, 55, 55
