Latitude, Longitude, Altitude (m), Time, Sats, Speed (m/s), Range (m), Battery (%), Roll (deg), Pitch (deg), Yaw (deg), Images, HD Signal (%), RC Signal (%), Battery Temp (C), Battery Voltage (mV), Battery Current (mA), Battery Energy (mAh), Battery Capacity (mAh), Battery Discharges, flyState, timestamp (Unix), LastUpdate (ms), radioChannel, Rc_elevator, Rc_aileron, Rc_throttle, Rc_rudder, Rc_gyro, Dronetype, Battery_Cell1 (mV), Battery_Cell2 (mV), Battery_Cell3 (mV), Battery_Cell4 (mV), Battery_Cell5 (mV), Battery_Cell6 (mV), Video, isFlying, elapsedTime (ms), gimbalPitch (deg), gimbalRoll (deg), gimbalYaw (deg), VelocityX (m/s), VelocityY (m/s), VelocityZ (m/s), GroundSmear (cm), App Version, Aircraft Name, Aircraft Firmware, Aircraft Serial Number, Battery Serial Number, Battery Lifetime (%), App_Tip, App_Warning, CurrentFlightStartingIndex, CurrentFlightLastVisitedWaypoint, PreviousFlightEndingWaypointIndex
36.7935585, -118.9149959, 0.000, 10:34:14.532, 11, 0.10, 0.08, 98, 0.800, 3.300, -131.300, 2, 100, 100, 16, 25701, -1307, 5437, 5548, 8, 11, 1523813654.533, 113, 0, 1024, 1024, 1024, 1024, 0, 6, 4272, 4285, 4281, 4280, 4286, 4287, 0, 1, 2942, -89.900, 0.000, -132.900, 0.100, 0.000, -0.100, 0.0, MapPilot_2.7.4_02272018, Dendroctonus I, , 041DDC1887, 1058163200459, 98, DJI_0001.jpg, Starting Mission from Lat/Long: 36.79353/-118.91500 Camera: Zenmuse X3 - Overlap: 90/90 - Active Connection: Yes, 0, 0, 0
36.7935585, -118.9149959, 0.000, 10:34:14.591, 11, 0.10, 0.08, 98, 0.800, 3.300, -131.300, 2, 100, 100, 16, 25311, -3820, 5437, 5548, 8, 11, 1523813654.591, 172, 0, 1024, 1024, 1024, 1024, 0, 6, 4272, 4285, 4281, 4280, 4286, 4287, 0, 1, 3001, -90.000, 0.000, -132.900, 0.100, 0.000, -0.100, 0.0, , , , , , 98, , , 0, 0, 0
36.7935589, -118.9149956, 0.000, 10:34:14.691, 12, 0.22, 0.13, 98, 0.500, 1.100, -131.100, 2, 100, 100, 16, 25311, -3820, 5437, 5548, 8, 11, 1523813654.692, 45, 0, 1024, 1024, 1024, 1024, 0, 6, 4250, 4225, 4198, 4215, 4235, 4233, 0, 1, 3102, -90.000, 0.000, -132.900, 0.200, 0.100, -0.300, 0.0, , , , , , 98, , , 0, 0, 0
36.7935591, -118.9149954, 0.000, 10:34:14.790, 12, 0.22, 0.16, 98, -0.100, -0.300, -131.100, 2, 100, 100, 16, 25311, -3820, 5437, 5548, 8, 11, 1523813654.790, 51, 0, 1024, 1024, 1024, 1024, 0, 6, 4250, 4225, 4198, 4215, 4235, 4233, 0, 1, 3200, -90.000, 0.000, -132.800, 0.200, 0.100, -0.400, 0.0, , , , , , 98, , , 0, 0, 0
36.7935594, -118.9149953, 0.100, 10:34:14.891, 12, 0.22, 0.19, 98, -0.200, -1.600, -131.200, 2, 100, 100, 16, 25311, -3820, 5437, 5548, 8, 11, 1523813654.891, 49, 0, 1024, 1024, 1024, 1024, 0, 6, 4250, 4225, 4198, 4215, 4235, 4233, 0, 1, 3301, -90.000, 0.000, -132.800, 0.200, 0.100, -0.400, 0.0, , , , , , 98, , , 0, 0, 0
36.7935596, -118.9149951, 0.100, 10:34:14.991, 12, 0.22, 0.22, 98, -0.600, -2.300, -131.400, 2, 100, 100, 16, 25311, -3820, 5437, 5548, 8, 11, 1523813654.991, 49, 0, 1024, 1024, 1024, 1024, 0, 6, 4250, 4225, 4198, 4215, 4235, 4233, 0, 1, 3401, -90.000, 0.000, -132.800, 0.200, 0.100, -0.400, 0.0, , , , , , 98, , , 0, 0, 0
36.7935598, -118.9149950, 0.200, 10:34:15.091, 11, 0.10, 0.24, 98, -0.800, -2.400, -131.500, 2, 100, 100, 16, 25311, -3820, 5437, 5548, 8, 11, 1523813655.091, 46, 0, 1024, 1024, 1024, 1024, 0, 6, 4250, 4225, 4198, 4215, 4235, 4233, 0, 1, 3501, -90.000, 0.000, -132.800, 0.100, 0.000, -0.400, 0.0, , , , , , 98, , , 0, 0, 0
36.7935599, -118.9149949, 0.200, 10:34:15.191, 11, 0.10, 0.26, 98, -0.800, -2.200, -131.700, 2, 100, 100, 16, 25311, -3820, 5437, 5548, 8, 11, 1523813655.191, 40, 0, 1024, 1024, 1024, 1024, 0, 6, 4250, 4225, 4198, 4215, 4235, 4233, 0, 1, 3601, -89.900, 0.000, -132.800, 0.100, 0.000, -0.300, 0.0, , , , , , 98, , , 0, 0, 0
36.7935601, -118.9149949, 0.200, 10:34:15.291, 12, 0.10, 0.27, 98, -0.800, -2.000, -131.800, 2, 100, 100, 16, 25311, -3820, 5437, 5548, 8, 11, 1523813655.292, 52, 0, 1024, 1024, 1024, 1024, 0, 6, 4250, 4225, 4198, 4215, 4235, 4233, 0, 1, 3701, -89.900, 0.000, -132.700, 0.100, 0.000, -0.400, 0.0, , , , , , 98, , , 0, 0, 0
36.7935601, -118.9149948, 0.300, 10:34:15.391, 12, 0.00, 0.28, 98, -0.400, -1.400, -131.800, 2, 100, 100, 16, 25311, -3820, 5437, 5548, 8, 11, 1523813655.392, 31, 0, 1024, 1024, 1024, 1024, 0, 6, 4250, 4225, 4198, 4215, 4235, 4233, 0, 1, 3801, -89.900, 0.000, -132.700, 0.000, 0.000, -0.400, 0.0, , , , , , 98, , , 0, 0, 0
36.7935602, -118.9149948, 0.300, 10:34:15.491, 12, 0.00, 0.29, 98, -0.400, -0.800, -131.700, 2, 100, 100, 16, 24937, -5268, 5437, 5548, 8, 11, 1523813655.492, 32, 0, 1024, 1024, 1024, 1024, 0, 6, 4250, 4225, 4198, 4215, 4235, 4233, 0, 1, 3902, -89.900, 0.000, -132.700, 0.000, 0.000, -0.300, 0.0, , , , , , 98, , , 0, 0, 0
36.7935603, -118.9149948, 0.400, 10:34:15.591, 12, 0.00, 0.29, 98, -0.400, -0.300, -131.700, 2, 100, 100, 16, 24937, -5268, 5437, 5548, 8, 11, 1523813655.591, 36, 0, 1024, 1024, 1024, 1024, 0, 6, 4088, 4093, 4107, 4080, 4133, 4060, 0, 1, 4001, -89.900, 0.000, -132.700, 0.000, 0.000, -0.400, 0.0, , , , , , 98, , , 0, 0, 0
36.7935603, -118.9149948, 0.400, 10:34:15.692, 12, 0.00, 0.30, 98, -0.300, 0.000, -131.600, 2, 100, 100, 16, 24937, -5268, 5437, 5548, 8, 11, 1523813655.693, 5, 0, 1024, 1024, 1024, 1024, 0, 6, 4088, 4093, 4107, 4080, 4133, 4060, 0, 1, 4102, -89.900, 0.000, -132.700, 0.000, 0.000, -0.400, 0.0, , , , , , 98, , , 0, 0, 0
36.7935603, -118.9149948, 0.400, 10:34:15.791, 12, 0.00, 0.30, 98, -0.300, 0.000, -131.600, 2, 100, 100, 16, 24937, -5268, 5437, 5548, 8, 11, 1523813655.791, 103, 0, 1024, 1024, 1024, 1024, 0, 6, 4088, 4093, 4107, 4080, 4133, 4060, 0, 1, 4201, -89.900, 0.000, -132.700, 0.000, 0.000, -0.400, 0.0, , , , , , 98, , , 0, 0, 0
36.7935603, -118.9149947, 0.500, 10:34:15.891, 12, 0.00, 0.30, 98, -0.400, -0.100, -131.400, 2, 100, 100, 16, 24937, -5268, 5437, 5548, 8, 11, 1523813655.892, 82, 0, 1024, 1024, 1024, 1024, 0, 6, 4088, 4093, 4107, 4080, 4133, 4060, 0, 1, 4301, -89.900, 0.000, -132.700, 0.000, 0.000, -0.500, 0.0, , , , , , 98, , , 0, 0, 0
36.7935604, -118.9149946, 0.600, 10:34:15.995, 12, 0.00, 0.32, 98, -0.400, -0.300, -131.300, 2, 100, 100, 16, 24937, -5268, 5437, 5548, 8, 11, 1523813655.995, 5, 0, 1024, 1024, 1024, 1024, 0, 6, 4088, 4093, 4107, 4080, 4133, 4060, 0, 1, 4405, -89.900, 0.000, -132.600, 0.000, 0.000, -0.400, 0.0, , , , , , 98, , , 0, 0, 0
36.7935604, -118.9149946, 0.600, 10:34:16.091, 12, 0.00, 0.32, 98, -0.400, -0.300, -131.300, 2, 100, 100, 16, 24937, -5268, 5437, 5548, 8, 11, 1523813656.091, 101, 0, 1024, 1024, 1024, 1024, 0, 6, 4088, 4093, 4107, 4080, 4133, 4060, 0, 1, 4501, -89.900, 0.000, -132.600, 0.000, 0.000, -0.400, 0.0, , , , , , 98, , , 0, 0, 0
36.7935605, -118.9149945, 0.700, 10:34:16.196, 11, 0.00, 0.33, 98, -0.700, -0.500, -131.200, 2, 100, 100, 16, 24937, -5268, 5437, 5548, 8, 11, 1523813656.197, 4, 0, 1024, 1024, 1024, 1024, 0, 6, 4088, 4093, 4107, 4080, 4133, 4060, 0, 1, 4607, -89.900, 0.000, -132.600, 0.000, 0.000, -0.400, 0.0, , , , , , 98, , , 0, 0, 0
36.7935605, -118.9149945, 0.700, 10:34:16.291, 11, 0.00, 0.33, 98, -0.700, -0.500, -131.200, 2, 100, 100, 16, 24937, -5268, 5437, 5548, 8, 11, 1523813656.292, 98, 0, 1024, 1024, 1024, 1024, 0, 6, 4088, 4093, 4107, 4080, 4133, 4060, 0, 1, 4701, -89.900, 0.000, -132.600, 0.000, 0.000, -0.400, 0.0, , , , , , 98, , , 0, 0, 0
36.7935605, -118.9149945, 0.700, 10:34:16.390, 11, 0.00, 0.33, 98, -0.400, -0.700, -131.300, 2, 100, 100, 16, 24937, -5268, 5437, 5548, 8, 11, 1523813656.390, 73, 0, 1024, 1024, 1024, 1024, 0, 6, 4088, 4093, 4107, 4080, 4133, 4060, 0, 1, 4800, -89.900, 0.000, -132.600, 0.000, 0.000, -0.500, 0.0, , , , , , 98, , , 0, 0, 0
36.7935606, -118.9149944, 0.800, 10:34:16.491, 11, 0.00, 0.35, 98, -0.100, -0.900, -131.300, 2, 100, 100, 16, 24937, -5268, 5437, 5548, 8, 11, 1523813656.492, 66, 0, 1024, 1024, 1024, 1024, 0, 6, 4088, 4093, 4107, 4080, 4133, 4060, 0, 1, 4901, -90.000, 0.000, -132.600, 0.000, 0.000, -0.400, 0.0, , , , , , 98, , , 0, 0, 0
36.7935607, -118.9149943, 0.800, 10:34:16.591, 11, 0.00, 0.36, 98, -0.100, -1.000, -131.200, 2, 100, 100, 16, 23640, -17163, 5437, 5548, 8, 11, 1523813656.592, 92, 0, 1024, 1024, 1024, 1024, 0, 6, 3867, 3900, 3937, 3908, 3912, 3957, 0, 1, 5002, -90.000, 0.000, -132.500, 0.000, 0.000, -0.400, 0.0, , , , , , 98, , , 0, 0, 0
36.7935608, -118.9149945, 0.900, 10:34:16.691, 11, 0.00, 0.37, 98, -0.300, -1.000, -131.200, 2, 100, 100, 16, 23640, -17163, 5437, 5548, 8, 14, 1523813656.691, 34, 0, 1024, 1024, 1024, 1024, 0, 6, 3867, 3900, 3937, 3908, 3912, 3957, 0, 1, 5101, -89.900, 0.000, -132.500, 0.000, 0.000, -0.300, 0.0, , , , , , 98, , , 0, 0, 0
36.7935608, -118.9149945, 0.900, 10:34:16.791, 11, 0.00, 0.37, 98, -0.300, -1.000, -131.200, 2, 100, 100, 16, 23640, -17163, 5437, 5548, 8, 14, 1523813656.791, 134, 0, 1024, 1024, 1024, 1024, 0, 6, 3867, 3900, 3937, 3908, 3912, 3957, 0, 1, 5201, -89.900, 0.000, -132.500, 0.000, 0.000, -0.300, 0.0, , , , , , 98, , , 0, 0, 0
36.7935609, -118.9149945, 1.000, 10:34:16.891, 11, 0.00, 0.37, 98, -0.300, -0.500, -131.300, 2, 100, 100, 16, 23640, -17163, 5437, 5548, 8, 14, 1523813656.891, 69, 0, 1024, 1024, 1024, 1024, 0, 6, 3867, 3900, 3937, 3908, 3912, 3957, 0, 1, 5301, -89.900, 0.000, -132.500, 0.000, 0.000, -0.300, 0.0, , , , , , 98, , , 0, 0, 0
36.7935610, -118.9149944, 1.100, 10:34:16.991, 11, 0.00, 0.39, 98, -0.600, -0.200, -131.700, 2, 100, 100, 16, 23640, -17163, 5437, 5548, 8, 14, 1523813656.991, 50, 0, 1024, 1024, 1024, 1024, 0, 6, 3867, 3900, 3937, 3908, 3912, 3957, 0, 1, 5401, -89.900, 0.000, -132.500, 0.000, 0.000, -0.300, 0.0, , , , , , 98, , , 0, 0, 0
36.7935611, -118.9149943, 1.100, 10:34:17.091, 10, 0.00, 0.40, 98, -0.800, -0.300, -132.000, 2, 100, 100, 16, 23640, -17163, 5437, 5548, 8, 14, 1523813657.091, 70, 0, 1024, 1024, 1024, 1024, 0, 6, 3867, 3900, 3937, 3908, 3912, 3957, 0, 1, 5501, -89.900, 0.000, -132.500, 0.000, 0.000, -0.400, 0.0, , , , , , 98, , , 0, 0, 0
36.7935612, -118.9149943, 1.200, 10:34:17.191, 10, 0.00, 0.41, 98, -1.200, -0.500, -132.300, 2, 100, 100, 16, 23640, -17163, 5437, 5548, 8, 14, 1523813657.191, 61, 0, 1024, 1024, 1024, 1024, 0, 6, 3867, 3900, 3937, 3908, 3912, 3957, 0, 1, 5601, -89.900, 0.000, -132.500, 0.000, 0.000, -0.500, 0.0, , , , , , 98, , , 0, 0, 0
36.7935614, -118.9149943, 1.200, 10:34:17.299, 10, 0.00, 0.42, 98, -1.400, -0.700, -132.500, 2, 100, 100, 16, 23640, -17163, 5437, 5548, 8, 14, 1523813657.299, 7, 0, 1024, 1024, 1024, 1024, 0, 6, 3867, 3900, 3937, 3908, 3912, 3957, 0, 1, 5709, -90.000, 0.000, -132.500, 0.000, 0.000, -0.700, 0.0, , , , , , 98, , , 0, 0, 0
36.7935614, -118.9149942, 1.300, 10:34:17.391, 10, 0.00, 0.44, 98, -1.400, -0.800, -132.700, 2, 100, 100, 16, 23640, -17163, 5437, 5548, 8, 14, 1523813657.391, 18, 0, 1024, 1024, 1024, 1024, 0, 6, 3867, 3900, 3937, 3908, 3912, 3957, 0, 1, 5801, -90.000, 0.000, -132.500, 0.000, 0.000, -0.800, 0.0, , , , , , 98, , , 0, 0, 0
36.7935615, -118.9149941, 1.400, 10:34:17.491, 10, 0.00, 0.45, 98, -1.200, -1.000, -132.600, 2, 100, 100, 16, 23333, -16525, 5437, 5548, 8, 14, 1523813657.494, 36, 0, 1024, 1024, 1024, 1024, 0, 6, 3856, 3856, 3921, 3896, 3893, 3920, 0, 1, 5903, -90.000, 0.000, -132.500, 0.000, 0.000, -1.100, 0.0, , , , , , 98, , , 0, 0, 0
36.7935616, -118.9149941, 1.500, 10:34:17.591, 10, 0.00, 0.45, 98, -0.800, -1.200, -132.500, 2, 100, 100, 16, 23333, -16525, 5437, 5548, 8, 14, 1523813657.591, 24, 0, 1024, 1024, 1024, 1024, 0, 6, 3856, 3856, 3921, 3896, 3893, 3920, 0, 1, 6001, -90.000, 0.000, -132.500, 0.000, 0.000, -1.300, 0.0, , , , , , 98, , , 0, 0, 0
36.7935617, -118.9149941, 1.700, 10:34:17.690, 11, 0.00, 0.46, 98, -0.900, -1.000, -132.400, 2, 100, 100, 16, 23333, -16525, 5437, 5548, 8, 14, 1523813657.691, 10, 0, 1024, 1024, 1024, 1024, 0, 6, 3856, 3856, 3921, 3896, 3893, 3920, 0, 1, 6101, -89.900, 0.000, -132.500, 0.000, 0.000, -1.500, 0.0, , , , , , 98, , , 0, 0, 0
36.7935617, -118.9149942, 1.900, 10:34:17.793, 11, 0.00, 0.46, 98, -1.200, -0.800, -132.400, 2, 100, 100, 16, 23333, -16525, 5437, 5548, 8, 14, 1523813657.793, 7, 0, 1024, 1024, 1024, 1024, 0, 6, 3856, 3856, 3921, 3896, 3893, 3920, 0, 1, 6203, -89.900, 0.000, -132.500, 0.000, 0.000, -1.700, 0.0, , , , , , 98, , , 0, 0, 0
36.7935617, -118.9149944, 2.100, 10:34:17.891, 12, 0.00, 0.46, 98, -1.400, -0.500, -132.300, 2, 100, 100, 16, 23333, -16525, 5437, 5548, 8, 14, 1523813657.892, 20, 0, 1024, 1024, 1024, 1024, 0, 6, 3856, 3856, 3921, 3896, 3893, 3920, 0, 1, 6301, -89.900, 0.000, -132.500, 0.000, 0.000, -1.900, 0.0, , , , , , 98, , , 0, 0, 0
36.7935618, -118.9149946, 2.300, 10:34:17.991, 12, 0.00, 0.46, 98, -1.500, -0.300, -132.200, 2, 100, 100, 16, 23333, -16525, 5437, 5548, 8, 14, 1523813657.991, 24, 0, 1024, 1024, 1024, 1024, 0, 6, 3856, 3856, 3921, 3896, 3893, 3920, 0, 1, 6401, -89.900, 0.000, -132.500, 0.000, 0.000, -2.200, 0.0, , , , , , 98, , , 0, 0, 0
36.7935619, -118.9149948, 2.500, 10:34:18.101, 12, 0.00, 0.46, 98, -1.300, -0.100, -132.000, 2, 100, 100, 16, 23333, -16525, 5437, 5548, 8, 14, 1523813658.102, 5, 0, 1024, 1024, 1024, 1024, 0, 6, 3856, 3856, 3921, 3896, 3893, 3920, 0, 1, 6512, -89.900, 0.000, -132.500, 0.000, 0.000, -2.300, 0.0, , , , , , 98, , , 0, 0, 0
36.7935619, -118.9149948, 2.500, 10:34:18.190, 12, 0.00, 0.46, 98, -1.300, -0.100, -132.000, 2, 100, 100, 16, 23333, -16525, 5437, 5548, 8, 14, 1523813658.191, 94, 0, 1024, 1024, 1024, 1024, 0, 6, 3856, 3856, 3921, 3896, 3893, 3920, 0, 1, 6601, -89.900, 0.000, -132.500, 0.000, 0.000, -2.300, 0.0, , , , , , 98, , , 0, 0, 0
36.7935619, -118.9149950, 2.800, 10:34:18.291, 12, 0.00, 0.46, 98, -1.500, 0.000, -132.000, 2, 100, 100, 16, 23333, -16525, 5437, 5548, 8, 14, 1523813658.292, 80, 0, 1024, 1024, 1024, 1024, 0, 6, 3856, 3856, 3921, 3896, 3893, 3920, 0, 1, 6702, -89.900, 0.000, -132.500, 0.000, 0.000, -2.600, 0.0, , , , , , 98, , , 0, 0, 0
36.7935621, -118.9149952, 3.000, 10:34:18.391, 11, 0.00, 0.47, 98, -1.800, -0.100, -132.000, 2, 100, 100, 16, 23333, -16525, 5437, 5548, 8, 14, 1523813658.392, 78, 0, 1024, 1024, 1024, 1024, 0, 6, 3856, 3856, 3921, 3896, 3893, 3920, 0, 1, 6801, -89.900, 0.000, -132.500, 0.000, 0.000, -2.800, 0.0, , , , , , 98, , , 0, 0, 0
36.7935623, -118.9149953, 3.400, 10:34:18.491, 11, 0.00, 0.49, 98, -2.400, 0.000, -132.100, 2, 100, 100, 16, 23333, -16525, 5437, 5548, 8, 14, 1523813658.491, 86, 0, 1024, 1024, 1024, 1024, 0, 6, 3856, 3856, 3921, 3896, 3893, 3920, 0, 1, 6901, -89.900, 0.000, -132.500, 0.000, 0.000, -3.000, 0.0, , , , , , 98, , , 0, 0, 0
36.7935625, -118.9149954, 3.700, 10:34:18.591, 13, 0.00, 0.51, 98, -3.000, -0.300, -132.200, 2, 100, 100, 16, 22568, -23460, 5437, 5548, 8, 14, 1523813658.592, 92, 0, 1024, 1024, 1024, 1024, 0, 6, 3856, 3856, 3921, 3896, 3893, 3920, 0, 1, 7002, -89.900, 0.000, -132.500, 0.000, 0.000, -3.100, 0.0, , , , , , 98, , , 0, 0, 0
36.7935627, -118.9149956, 4.400, 10:34:18.690, 13, 0.00, 0.53, 98, -3.000, -0.700, -132.400, 2, 100, 100, 16, 22568, -23460, 5437, 5548, 8, 14, 1523813658.691, 26, 0, 1024, 1024, 1024, 1024, 0, 6, 3856, 3856, 3921, 3896, 3893, 3920, 0, 1, 7101, -89.900, 0.000, -132.500, 0.000, 0.000, -3.200, 0.0, , , , , , 98, , , 0, 0, 0
36.7935627, -118.9149958, 4.700, 10:34:18.791, 13, 0.00, 0.53, 98, -2.900, -0.700, -132.400, 2, 100, 100, 16, 22568, -23460, 5437, 5548, 8, 14, 1523813658.792, 59, 0, 1024, 1024, 1024, 1024, 0, 6, 3856, 3856, 3921, 3896, 3893, 3920, 0, 1, 7202, -89.900, 0.000, -132.500, 0.000, 0.000, -3.200, 0.0, , , , , , 98, , , 0, 0, 0
36.7935627, -118.9149959, 5.000, 10:34:18.891, 13, 0.00, 0.53, 98, -2.500, -0.400, -132.400, 2, 100, 100, 16, 22568, -23460, 5437, 5548, 8, 14, 1523813658.892, 65, 0, 1024, 1024, 1024, 1024, 0, 6, 3856, 3856, 3921, 3896, 3893, 3920, 0, 1, 7302, -89.900, 0.000, -132.500, 0.000, 0.000, -3.200, 0.0, , , , , , 98, , , 0, 0, 0
36.7935627, -118.9149959, 5.000, 10:34:18.991, 13, 0.00, 0.53, 98, -2.500, -0.400, -132.400, 2, 100, 100, 16, 22568, -23460, 5437, 5548, 8, 14, 1523813658.992, 165, 0, 1024, 1024, 1024, 1024, 0, 6, 3856, 3856, 3921, 3896, 3893, 3920, 0, 1, 7402, -89.900, 0.000, -132.500, 0.000, 0.000, -3.200, 0.0, , , , , , 98, , , 0, 0, 0
36.7935626, -118.9149961, 5.700, 10:34:19.091, 13, 0.00, 0.52, 98, -2.800, 0.200, -132.100, 2, 100, 100, 16, 22568, -23460, 5437, 5548, 8, 14, 1523813659.092, 57, 0, 1024, 1024, 1024, 1024, 0, 6, 3731, 3760, 3767, 3750, 3736, 3783, 0, 1, 7502, -89.900, 0.000, -132.500, 0.000, 0.000, -3.200, 0.0, , , , , , 98, , , 0, 0, 0
36.7935627, -118.9149961, 6.100, 10:34:19.191, 13, 0.00, 0.53, 98, -2.800, 0.200, -132.000, 2, 100, 100, 16, 22568, -23460, 5437, 5548, 8, 14, 1523813659.193, 45, 0, 1024, 1024, 1024, 1024, 0, 6, 3731, 3760, 3767, 3750, 3736, 3783, 0, 1, 7602, -89.900, 0.000, -132.500, 0.000, 0.000, -3.300, 0.0, , , , , , 98, , , 0, 0, 0
36.7935628, -118.9149960, 6.400, 10:34:19.291, 13, 0.00, 0.54, 98, -3.000, -0.200, -131.900, 2, 100, 100, 16, 22568, -23460, 5437, 5548, 8, 14, 1523813659.292, 28, 0, 1024, 1024, 1024, 1024, 0, 6, 3731, 3760, 3767, 3750, 3736, 3783, 0, 1, 7702, -89.900, 0.000, -132.500, 0.000, 0.000, -3.300, 0.0, , , , , , 98, , , 0, 0, 0
36.7935627, -118.9149958, 6.800, 10:34:19.391, 13, 0.00, 0.53, 98, -3.000, -0.400, -132.000, 2, 100, 100, 16, 22568, -23460, 5437, 5548, 8, 14, 1523813659.392, 46, 0, 1024, 1024, 1024, 1024, 0, 6, 3731, 3760, 3767, 3750, 3736, 3783, 0, 1, 7802, -89.900, 0.000, -132.500, 0.000, 0.000, -3.200, 0.0, , , , , , 98, , , 0, 0, 0
36.7935626, -118.9149956, 7.100, 10:34:19.491, 13, 0.00, 0.52, 98, -2.800, -0.300, -132.100, 2, 100, 100, 16, 22568, -23460, 5437, 5548, 8, 14, 1523813659.492, 48, 0, 1024, 1024, 1024, 1024, 0, 6, 3731, 3760, 3767, 3750, 3736, 3783, 0, 1, 7902, -89.900, 0.000, -132.500, 0.000, 0.000, -3.200, 0.0, , , , , , 98, , , 0, 0, 0
36.7935624, -118.9149955, 7.400, 10:34:19.591, 13, 0.10, 0.50, 98, -2.200, -0.100, -132.300, 2, 100, 100, 16, 22568, -23460, 5437, 5548, 8, 14, 1523813659.592, 43, 0, 1024, 1024, 1024, 1024, 0, 6, 3731, 3760, 3767, 3750, 3736, 3783, 0, 1, 8002, -89.900, 0.000, -132.500, -0.100, 0.000, -3.100, 0.0, , , , , , 98, , , 0, 0, 0
36.7935623, -118.9149953, 7.800, 10:34:19.691, 14, 0.10, 0.49, 98, -1.700, -0.200, -132.500, 2, 100, 100, 16, 22568, -23460, 5437, 5548, 8, 14, 1523813659.694, 23, 0, 1024, 1024, 1024, 1024, 0, 6, 3731, 3760, 3767, 3750, 3736, 3783, 0, 1, 8103, -89.900, 0.000, -132.500, -0.100, 0.000, -3.100, 0.0, , , , , , 98, , , 0, 0, 0
36.7935622, -118.9149951, 8.100, 10:34:19.791, 14, 0.10, 0.48, 98, -1.300, -0.100, -132.600, 2, 100, 100, 16, 22568, -23460, 5437, 5548, 8, 14, 1523813659.793, 29, 0, 1024, 1024, 1024, 1024, 0, 6, 3731, 3760, 3767, 3750, 3736, 3783, 0, 1, 8203, -89.900, 0.000, -132.500, -0.100, 0.000, -3.000, 0.0, , , , , , 98, , , 0, 0, 0
36.7935621, -118.9149949, 8.400, 10:34:19.891, 14, 0.00, 0.48, 98, -1.200, -0.200, -132.600, 2, 100, 100, 16, 22568, -23460, 5437, 5548, 8, 14, 1523813659.892, 29, 0, 1024, 1024, 1024, 1024, 0, 6, 3731, 3760, 3767, 3750, 3736, 3783, 0, 1, 8302, -89.900, 0.000, -132.500, 0.000, 0.000, -3.000, 0.0, , , , , , 98, , , 0, 0, 0
36.7935620, -118.9149947, 8.700, 10:34:19.992, 14, 0.00, 0.48, 98, -1.000, -0.500, -132.600, 2, 100, 100, 16, 22812, -19868, 5437, 5548, 8, 14, 1523813659.993, 30, 0, 1024, 1024, 1024, 1024, 0, 6, 3731, 3760, 3767, 3750, 3736, 3783, 0, 1, 8403, -89.900, 0.000, -132.500, 0.000, 0.000, -3.100, 0.0, , , , , , 98, , , 0, 0, 0
36.7935619, -118.9149945, 9.000, 10:34:20.091, 14, 0.00, 0.47, 98, -0.600, -0.800, -132.500, 2, 100, 100, 16, 22812, -19868, 5437, 5548, 8, 14, 1523813660.092, 26, 0, 1024, 1024, 1024, 1024, 0, 6, 3777, 3809, 3813, 3750, 3736, 3783, 0, 1, 8502, -90.000, 0.000, -132.500, 0.000, 0.000, -3.100, 0.0, , , , , , 98, , , 0, 0, 0
36.7935619, -118.9149943, 9.400, 10:34:20.191, 14, 0.00, 0.48, 98, -0.500, -0.900, -132.500, 2, 100, 100, 16, 22812, -19868, 5437, 5548, 8, 14, 1523813660.192, 23, 0, 1024, 1024, 1024, 1024, 0, 6, 3777, 3809, 3813, 3750, 3736, 3783, 0, 1, 8601, -90.000, 0.000, -132.500, 0.000, 0.000, -3.000, 0.0, , , , , , 98, , , 0, 0, 0
36.7935619, -118.9149942, 9.700, 10:34:20.290, 14, 0.00, 0.48, 98, -0.700, -1.000, -132.400, 2, 100, 100, 16, 22812, -19868, 5437, 5548, 8, 14, 1523813660.290, 9, 0, 1024, 1024, 1024, 1024, 0, 6, 3777, 3809, 3813, 3750, 3736, 3783, 0, 1, 8700, -90.000, 0.000, -132.500, 0.000, 0.000, -3.000, 0.0, , , , , , 98, , , 0, 0, 0
36.7935619, -118.9149941, 10.000, 10:34:20.391, 14, 0.00, 0.49, 98, -0.800, -0.900, -132.400, 2, 100, 100, 16, 22812, -19868, 5437, 5548, 8, 14, 1523813660.391, 3, 0, 1024, 1024, 1024, 1024, 0, 6, 3777, 3809, 3813, 3750, 3736, 3783, 0, 1, 8801, -90.000, 0.000, -132.500, 0.000, 0.000, -3.000, 0.0, , , , , , 98, , , 0, 0, 0
36.7935619, -118.9149939, 10.300, 10:34:20.492, 14, 0.00, 0.50, 98, -1.100, -0.900, -132.400, 2, 100, 100, 16, 22812, -19868, 5437, 5548, 8, 14, 1523813660.492, 9, 0, 1024, 1024, 1024, 1024, 0, 6, 3777, 3809, 3813, 3750, 3736, 3783, 0, 1, 8902, -90.000, 0.000, -132.500, 0.000, 0.000, -2.900, 0.0, , , , , , 98, , , 0, 0, 0
36.7935619, -118.9149939, 10.300, 10:34:20.591, 14, 0.00, 0.50, 98, -1.100, -0.900, -132.400, 2, 100, 100, 16, 22812, -19868, 5437, 5548, 8, 14, 1523813660.591, 108, 0, 1024, 1024, 1024, 1024, 0, 6, 3777, 3809, 3813, 3750, 3736, 3783, 0, 1, 9001, -90.000, 0.000, -132.500, 0.000, 0.000, -2.900, 0.0, , , , , , 98, , , 0, 0, 0
36.7935619, -118.9149938, 10.600, 10:34:20.691, 14, 0.00, 0.50, 98, -1.300, -0.900, -132.400, 2, 100, 100, 16, 22812, -19868, 5437, 5548, 8, 14, 1523813660.691, 86, 0, 1024, 1024, 1024, 1024, 0, 6, 3777, 3809, 3813, 3750, 3736, 3783, 0, 1, 9101, -89.900, 0.000, -132.500, 0.000, 0.000, -3.000, 0.0, , , , , , 98, , , 0, 0, 0
36.7935619, -118.9149937, 10.900, 10:34:20.791, 14, 0.00, 0.50, 98, -1.300, -0.900, -132.300, 2, 100, 100, 16, 22812, -19868, 5437, 5548, 8, 14, 1523813660.792, 72, 0, 1024, 1024, 1024, 1024, 0, 6, 3777, 3809, 3813, 3750, 3736, 3783, 0, 1, 9202, -90.000, 0.000, -132.500, 0.000, 0.000, -3.000, 0.0, , , , , , 98, , , 0, 0, 0
36.7935618, -118.9149937, 11.200, 10:34:20.891, 14, 0.00, 0.49, 98, -1.300, -0.900, -132.300, 2, 100, 100, 16, 22812, -19868, 5437, 5548, 8, 14, 1523813660.891, 87, 0, 1024, 1024, 1024, 1024, 0, 6, 3777, 3809, 3813, 3750, 3736, 3783, 0, 1, 9301, -89.900, 0.000, -132.500, 0.000, 0.000, -3.000, 0.0, , , , , , 98, , , 0, 0, 0
36.7935617, -118.9149937, 11.500, 10:34:20.990, 13, 0.00, 0.49, 98, -1.200, -0.600, -132.300, 2, 100, 100, 16, 22812, -19868, 5437, 5548, 8, 14, 1523813660.991, 78, 0, 1024, 1024, 1024, 1024, 0, 6, 3777, 3809, 3813, 3750, 3736, 3783, 0, 1, 9400, -89.900, 0.000, -132.500, 0.000, 0.000, -2.900, 0.0, , , , , , 98, , , 0, 0, 0
36.7935617, -118.9149937, 11.800, 10:34:21.090, 13, 0.00, 0.48, 98, -1.100, -0.400, -132.300, 2, 100, 100, 16, 22978, -18578, 5437, 5548, 8, 14, 1523813661.091, 66, 0, 1024, 1024, 1024, 1024, 0, 6, 3808, 3839, 3831, 3818, 3827, 3854, 0, 1, 9500, -89.900, 0.000, -132.500, 0.000, 0.000, -2.900, 0.0, , , , , , 98, , , 0, 0, 0
36.7935615, -118.9149935, 12.400, 10:34:21.191, 14, 0.00, 0.47, 98, -0.700, -0.100, -132.400, 2, 100, 100, 16, 22978, -18578, 5437, 5548, 8, 14, 1523813661.191, 58, 0, 1024, 1024, 1024, 1024, 0, 6, 3808, 3839, 3831, 3818, 3827, 3854, 0, 1, 9601, -89.900, 0.000, -132.500, 0.000, 0.000, -2.900, 0.0, , , , , , 98, , , 0, 0, 0
36.7935614, -118.9149934, 12.700, 10:34:21.291, 14, 0.10, 0.47, 98, -0.500, 0.000, -132.500, 2, 100, 100, 16, 22978, -18578, 5437, 5548, 8, 14, 1523813661.291, 61, 0, 1024, 1024, 1024, 1024, 0, 6, 3808, 3839, 3831, 3818, 3827, 3854, 0, 1, 9701, -89.900, 0.000, -132.500, -0.100, 0.000, -2.900, 0.0, , , , , , 98, , , 0, 0, 0
36.7935613, -118.9149933, 13.000, 10:34:21.391, 14, 0.00, 0.47, 98, -0.100, 0.200, -132.600, 2, 100, 100, 16, 22978, -18578, 5437, 5548, 8, 14, 1523813661.392, 74, 0, 1024, 1024, 1024, 1024, 0, 6, 3808, 3839, 3831, 3818, 3827, 3854, 0, 1, 9801, -89.900, 0.000, -132.500, 0.000, 0.000, -2.900, 0.0, , , , , , 98, , , 0, 0, 0
36.7935613, -118.9149933, 13.300, 10:34:21.490, 14, 0.00, 0.47, 98, 0.100, 0.100, -132.600, 2, 100, 100, 16, 22978, -18578, 5437, 5548, 8, 14, 1523813661.490, 64, 0, 1024, 1024, 1024, 1024, 0, 6, 3808, 3839, 3831, 3818, 3827, 3854, 0, 1, 9900, -89.900, 0.000, -132.500, 0.000, 0.000, -2.900, 0.0, , , , , , 98, , , 0, 0, 0
36.7935612, -118.9149933, 13.600, 10:34:21.591, 14, 0.00, 0.46, 98, 0.000, 0.000, -132.600, 2, 100, 99, 16, 22978, -18578, 5437, 5548, 8, 14, 1523813661.591, 46, 0, 1024, 1024, 1024, 1024, 0, 6, 3808, 3839, 3831, 3818, 3827, 3854, 0, 1, 10001, -89.900, 0.000, -132.500, 0.000, 0.000, -2.900, 0.0, , , , , , 98, , , 0, 0, 0
36.7935612, -118.9149934, 13.900, 10:34:21.691, 13, 0.00, 0.45, 98, -0.300, 0.000, -132.600, 2, 100, 99, 16, 22978, -18578, 5437, 5548, 8, 14, 1523813661.691, 20, 0, 1024, 1024, 1024, 1024, 0, 6, 3808, 3839, 3831, 3818, 3827, 3854, 0, 1, 10101, -89.900, 0.000, -132.500, 0.000, 0.000, -3.000, 0.0, , , , , , 98, , , 0, 0, 0
36.7935611, -118.9149934, 14.200, 10:34:21.791, 13, 0.00, 0.45, 98, -0.600, -0.100, -132.600, 2, 100, 99, 16, 22978, -18578, 5437, 5548, 8, 14, 1523813661.791, 23, 0, 1024, 1024, 1024, 1024, 0, 6, 3808, 3839, 3831, 3818, 3827, 3854, 0, 1, 10201, -89.900, 0.000, -132.500, 0.000, 0.000, -3.000, 0.0, , , , , , 98, , , 0, 0, 0
36.7935611, -118.9149935, 14.500, 10:34:21.891, 14, 0.00, 0.44, 98, -0.800, -0.100, -132.800, 2, 100, 99, 16, 22978, -18578, 5437, 5548, 8, 14, 1523813661.891, 37, 0, 1024, 1024, 1024, 1024, 0, 6, 3808, 3839, 3831, 3818, 3827, 3854, 0, 1, 10301, -89.900, 0.000, -132.500, 0.000, 0.000, -3.000, 0.0, , , , , , 98, , , 0, 0, 0
36.7935611, -118.9149936, 14.800, 10:34:21.991, 14, 0.00, 0.43, 98, -0.900, 0.000, -133.000, 2, 100, 99, 16, 22978, -18578, 5437, 5548, 8, 14, 1523813661.991, 18, 0, 1024, 1024, 1024, 1024, 0, 6, 3808, 3839, 3831, 3818, 3827, 3854, 0, 1, 10401, -89.900, 0.000, -132.500, 0.000, 0.000, -3.000, 0.0, , , , , , 98, , , 0, 0, 0
36.7935611, -118.9149937, 15.100, 10:34:22.091, 14, 0.10, 0.43, 98, -1.100, 0.300, -133.100, 2, 100, 97, 16, 22936, -19072, 5381, 5548, 8, 14, 1523813662.092, 29, 0, 1024, 1024, 1024, 1024, 0, 6, 3795, 3827, 3829, 3797, 3818, 3844, 0, 1, 10502, -89.900, 0.000, -132.500, 0.000, -0.100, -3.000, 0.0, , , , , , 98, , , 0, 0, 0
36.7935611, -118.9149937, 15.400, 10:34:22.191, 14, 0.00, 0.42, 98, -1.100, 0.700, -133.100, 2, 100, 97, 16, 22936, -19072, 5381, 5548, 8, 14, 1523813662.191, 7, 0, 1024, 1024, 1024, 1024, 0, 6, 3795, 3827, 3829, 3797, 3818, 3844, 0, 1, 10601, -89.900, 0.000, -132.500, 0.000, 0.000, -3.000, 0.0, , , , , , 98, , , 0, 0, 0
36.7935611, -118.9149938, 15.700, 10:34:22.291, 13, 0.00, 0.42, 98, -0.900, 0.700, -132.800, 2, 100, 97, 16, 22936, -19072, 5381, 5548, 8, 14, 1523813662.291, 25, 0, 1024, 1024, 1024, 1024, 0, 6, 3795, 3827, 3829, 3797, 3818, 3844, 0, 1, 10701, -89.900, 0.000, -132.500, 0.000, 0.000, -3.000, 0.0, , , , , , 98, , , 0, 0, 0
36.7935611, -118.9149938, 15.700, 10:34:22.391, 13, 0.00, 0.42, 98, -0.900, 0.700, -132.800, 2, 100, 97, 16, 22936, -19072, 5381, 5548, 8, 14, 1523813662.391, 125, 0, 1024, 1024, 1024, 1024, 0, 6, 3795, 3827, 3829, 3797, 3818, 3844, 0, 1, 10801, -89.900, 0.000, -132.500, 0.000, 0.000, -3.000, 0.0, , , , , , 98, , , 0, 0, 0
36.7935611, -118.9149939, 16.300, 10:34:22.493, 13, 0.00, 0.42, 97, -1.200, 0.300, -132.200, 2, 100, 97, 16, 22936, -19072, 5381, 5548, 8, 14, 1523813662.493, 4, 0, 1024, 1024, 1024, 1024, 0, 6, 3795, 3827, 3829, 3797, 3818, 3844, 0, 1, 10903, -89.900, 0.000, -132.500, 0.000, 0.000, -2.900, 0.0, , , , , , 98, , , 0, 0, 0
36.7935611, -118.9149940, 16.600, 10:34:22.595, 13, 0.00, 0.41, 97, -1.000, 0.200, -132.000, 2, 100, 97, 16, 22936, -19072, 5381, 5548, 8, 14, 1523813662.596, 8, 0, 1024, 1024, 1024, 1024, 0, 6, 3795, 3827, 3829, 3797, 3818, 3844, 0, 1, 11006, -89.900, 0.000, -132.500, 0.000, 0.000, -3.000, 0.0, , , , , , 98, , , 0, 0, 0
36.7935611, -118.9149940, 16.600, 10:34:22.691, 13, 0.00, 0.41, 97, -1.000, 0.200, -132.000, 2, 100, 97, 16, 22936, -19072, 5381, 5548, 8, 14, 1523813662.691, 104, 0, 1024, 1024, 1024, 1024, 0, 6, 3795, 3827, 3829, 3797, 3818, 3844, 0, 1, 11101, -89.900, 0.000, -132.500, 0.000, 0.000, -3.000, 0.0, , , , , , 98, , , 0, 0, 0
36.7935611, -118.9149940, 16.600, 10:34:22.791, 13, 0.00, 0.41, 97, -1.000, 0.200, -132.000, 2, 100, 97, 16, 22936, -19072, 5381, 5548, 8, 14, 1523813662.791, 204, 0, 1024, 1024, 1024, 1024, 0, 6, 3795, 3827, 3829, 3797, 3818, 3844, 0, 1, 11201, -89.900, 0.000, -132.500, 0.000, 0.000, -3.000, 0.0, , , , , , 98, , , 0, 0, 0
36.7935611, -118.9149941, 17.200, 10:34:22.891, 13, 0.00, 0.41, 97, -0.800, 0.400, -132.100, 2, 100, 97, 16, 22936, -19072, 5381, 5548, 8, 14, 1523813662.891, 74, 0, 1024, 1024, 1024, 1024, 0, 6, 3795, 3827, 3829, 3797, 3818, 3844, 0, 1, 11301, -89.900, 0.000, -132.500, 0.000, 0.000, -3.000, 0.0, , , , , , 98, , , 0, 0, 0
36.7935611, -118.9149942, 17.500, 10:34:22.991, 13, 0.00, 0.40, 97, -1.200, 0.400, -132.300, 2, 100, 97, 16, 22936, -19072, 5381, 5548, 8, 14, 1523813662.991, 96, 0, 1024, 1024, 1024, 1024, 0, 6, 3795, 3827, 3829, 3797, 3818, 3844, 0, 1, 11401, -89.900, 0.000, -132.500, 0.000, 0.000, -3.000, 0.0, , , , , , 98, , , 0, 0, 0
36.7935611, -118.9149944, 17.800, 10:34:23.091, 13, 0.00, 0.39, 97, -1.400, 0.600, -132.500, 2, 100, 98, 16, 22888, -19089, 5381, 5548, 8, 14, 1523813663.092, 87, 0, 1024, 1024, 1024, 1024, 0, 6, 3789, 3824, 3818, 3811, 3821, 3850, 0, 1, 11501, -89.900, 0.000, -132.500, 0.000, 0.000, -3.000, 0.0, , , , , , 98, , , 0, 0, 0
36.7935611, -118.9149945, 18.100, 10:34:23.190, 13, 0.00, 0.39, 97, -1.600, 0.900, -132.500, 2, 100, 98, 16, 22888, -19089, 5381, 5548, 8, 14, 1523813663.191, 54, 0, 1024, 1024, 1024, 1024, 0, 6, 3789, 3824, 3818, 3811, 3821, 3850, 0, 1, 11600, -89.900, 0.000, -132.500, 0.000, 0.000, -3.000, 0.0, , , , , , 98, , , 0, 0, 0
36.7935611, -118.9149946, 18.400, 10:34:23.291, 13, 0.00, 0.38, 97, -1.400, 1.100, -132.500, 2, 100, 98, 16, 22888, -19089, 5381, 5548, 8, 14, 1523813663.291, 83, 0, 1024, 1024, 1024, 1024, 0, 6, 3789, 3824, 3818, 3811, 3821, 3850, 0, 1, 11701, -89.900, 0.000, -132.500, 0.000, 0.000, -3.000, 0.0, , , , , , 98, , , 0, 0, 0
36.7935611, -118.9149948, 19.100, 10:34:23.391, 13, 0.00, 0.38, 97, -1.200, 1.200, -132.400, 2, 100, 98, 16, 22888, -19089, 5381, 5548, 8, 14, 1523813663.392, 74, 0, 1024, 1024, 1024, 1024, 0, 6, 3789, 3824, 3818, 3811, 3821, 3850, 0, 1, 11801, -89.900, 0.000, -132.500, 0.000, 0.000, -2.900, 0.0, , , , , , 98, , , 0, 0, 0
36.7935611, -118.9149948, 19.400, 10:34:23.491, 13, 0.00, 0.38, 97, -1.300, 0.800, -132.500, 2, 100, 98, 16, 22888, -19089, 5381, 5548, 8, 14, 1523813663.491, 66, 0, 1024, 1024, 1024, 1024, 0, 6, 3789, 3824, 3818, 3811, 3821, 3850, 0, 1, 11901, -89.900, 0.000, -132.500, 0.000, 0.000, -3.000, 0.0, , , , , , 98, , , 0, 0, 0
36.7935611, -118.9149948, 19.700, 10:34:23.591, 13, 0.00, 0.38, 97, -1.400, 0.500, -132.600, 2, 100, 99, 16, 22888, -19089, 5381, 5548, 8, 14, 1523813663.592, 30, 0, 1024, 1024, 1024, 1024, 0, 6, 3789, 3824, 3818, 3811, 3821, 3850, 0, 1, 12002, -90.000, 0.000, -132.500, 0.000, 0.000, -2.900, 0.0, , , , , , 98, , , 0, 0, 0
36.7935611, -118.9149948, 19.700, 10:34:23.691, 13, 0.00, 0.38, 97, -1.400, 0.500, -132.600, 2, 100, 99, 16, 22888, -19089, 5381, 5548, 8, 14, 1523813663.691, 130, 0, 1024, 1024, 1024, 1024, 0, 6, 3789, 3824, 3818, 3811, 3821, 3850, 0, 1, 12101, -90.000, 0.000, -132.500, 0.000, 0.000, -2.900, 0.0, , , , , , 98, , , 0, 0, 0
36.7935611, -118.9149949, 20.000, 10:34:23.791, 13, 0.00, 0.38, 97, -1.200, 0.300, -132.700, 2, 100, 99, 16, 22888, -19089, 5381, 5548, 8, 14, 1523813663.791, 48, 0, 1024, 1024, 1024, 1024, 0, 6, 3789, 3824, 3818, 3811, 3821, 3850, 0, 1, 12201, -90.000, 0.000, -132.500, 0.000, 0.000, -3.000, 0.0, , , , , , 98, , , 0, 0, 0
36.7935612, -118.9149950, 20.500, 10:34:23.891, 14, 0.00, 0.38, 97, -1.100, 0.200, -133.000, 2, 100, 99, 16, 22888, -19089, 5381, 5548, 8, 14, 1523813663.891, 19, 0, 1024, 1024, 1024, 1024, 0, 6, 3789, 3824, 3818, 3811, 3821, 3850, 0, 1, 12301, -90.000, 0.000, -132.500, 0.000, 0.000, -2.900, 0.0, , , , , , 98, , , 0, 0, 0
36.7935612, -118.9149951, 20.800, 10:34:23.991, 14, 0.00, 0.38, 97, -1.300, 0.200, -133.000, 2, 100, 99, 16, 22888, -19089, 5381, 5548, 8, 14, 1523813663.992, 45, 0, 1024, 1024, 1024, 1024, 0, 6, 3789, 3824, 3818, 3811, 3821, 3850, 0, 1, 12401, -90.000, 0.000, -132.500, 0.000, 0.000, -2.900, 0.0, , , , , , 98, , , 0, 0, 0
36.7935613, -118.9149951, 21.100, 10:34:24.091, 14, 0.00, 0.39, 97, -1.400, 0.200, -133.000, 2, 100, 98, 16, 22903, -18456, 5381, 5548, 8, 14, 1523813664.091, 36, 0, 1024, 1024, 1024, 1024, 0, 6, 3790, 3822, 3824, 3805, 3826, 3847, 0, 1, 12501, -89.900, 0.000, -132.500, 0.000, 0.000, -2.900, 0.0, , , , , , 98, , , 0, 0, 0
36.7935613, -118.9149951, 21.400, 10:34:24.191, 14, 0.00, 0.39, 97, -1.500, 0.100, -132.900, 2, 100, 98, 16, 22903, -18456, 5381, 5548, 8, 14, 1523813664.191, 47, 0, 1024, 1024, 1024, 1024, 0, 6, 3790, 3822, 3824, 3805, 3826, 3847, 0, 1, 12601, -90.000, 0.000, -132.500, 0.000, 0.000, -2.900, 0.0, , , , , , 98, , , 0, 0, 0
36.7935614, -118.9149951, 21.700, 10:34:24.291, 14, 0.00, 0.40, 97, -1.700, 0.000, -132.800, 2, 100, 98, 16, 22903, -18456, 5381, 5548, 8, 14, 1523813664.291, 44, 0, 1024, 1024, 1024, 1024, 0, 6, 3790, 3822, 3824, 3805, 3826, 3847, 0, 1, 12701, -90.000, 0.000, -132.500, 0.000, 0.000, -3.000, 0.0, , , , , , 98, , , 0, 0, 0
36.7935614, -118.9149952, 22.000, 10:34:24.391, 14, 0.00, 0.40, 97, -1.700, -0.100, -132.600, 2, 100, 98, 16, 22903, -18456, 5381, 5548, 8, 14, 1523813664.391, 34, 0, 1024, 1024, 1024, 1024, 0, 6, 3790, 3822, 3824, 3805, 3826, 3847, 0, 1, 12801, -90.000, 0.000, -132.500, 0.000, 0.000, -3.000, 0.0, , , , , , 98, , , 0, 0, 0
36.7935615, -118.9149952, 22.300, 10:34:24.491, 14, 0.00, 0.40, 97, -1.600, -0.100, -132.600, 2, 100, 98, 16, 22903, -18456, 5381, 5548, 8, 14, 1523813664.491, 15, 0, 1024, 1024, 1024, 1024, 0, 6, 3790, 3822, 3824, 3805, 3826, 3847, 0, 1, 12901, -90.000, 0.000, -132.500, 0.000, 0.000, -2.900, 0.0, , , , , , 98, , , 0, 0, 0
36.7935615, -118.9149953, 22.700, 10:34:24.591, 14, 0.00, 0.41, 97, -1.500, 0.000, -132.500, 2, 100, 98, 16, 22903, -18456, 5381, 5548, 8, 14, 1523813664.591, 21, 0, 1024, 1024, 1024, 1024, 0, 6, 3790, 3822, 3824, 3805, 3826, 3847, 0, 1, 13001, -89.900, 0.000, -132.500, 0.000, 0.000, -3.000, 0.0, , , , , , 98, , , 0, 0, 0
36.7935615, -118.9149953, 22.900, 10:34:24.691, 14, 0.00, 0.41, 97, -1.400, 0.100, -132.500, 2, 100, 98, 16, 22903, -18456, 5381, 5548, 8, 14, 1523813664.692, 17, 0, 1024, 1024, 1024, 1024, 0, 6, 3790, 3822, 3824, 3805, 3826, 3847, 0, 1, 13101, -89.900, 0.000, -132.500, 0.000, 0.000, -2.900, 0.0, , , , , , 98, , , 0, 0, 0
36.7935615, -118.9149954, 23.200, 10:34:24.791, 14, 0.00, 0.41, 97, -1.300, 0.200, -132.500, 2, 100, 98, 16, 22903, -18456, 5381, 5548, 8, 14, 1523813664.792, 18, 0, 1024, 1024, 1024, 1024, 0, 6, 3790, 3822, 3824, 3805, 3826, 3847, 0, 1, 13202, -89.900, 0.000, -132.500, 0.000, 0.000, -2.800, 0.0, , , , , , 98, , , 0, 0, 0
36.7935615, -118.9149955, 23.500, 10:34:24.903, 14, 0.00, 0.40, 97, -1.100, 0.400, -132.500, 2, 100, 98, 16, 22903, -18456, 5381, 5548, 8, 14, 1523813664.904, 4, 0, 1024, 1024, 1024, 1024, 0, 6, 3790, 3822, 3824, 3805, 3826, 3847, 0, 1, 13313, -89.900, 0.000, -132.500, 0.000, 0.000, -2.900, 0.0, , , , , , 98, , , 0, 0, 0
36.7935615, -118.9149955, 23.500, 10:34:24.991, 14, 0.00, 0.40, 97, -1.100, 0.400, -132.500, 2, 100, 98, 16, 22903, -18456, 5381, 5548, 8, 14, 1523813664.991, 91, 0, 1024, 1024, 1024, 1024, 0, 6, 3790, 3822, 3824, 3805, 3826, 3847, 0, 1, 13401, -89.900, 0.000, -132.500, 0.000, 0.000, -2.900, 0.0, , , , , , 98, , , 0, 0, 0
36.7935615, -118.9149955, 24.100, 10:34:25.090, 14, 0.00, 0.40, 97, -1.100, 0.600, -132.600, 2, 100, 98, 16, 22878, -18337, 5381, 5548, 8, 14, 1523813665.090, 11, 0, 1024, 1024, 1024, 1024, 0, 6, 3790, 3822, 3824, 3805, 3826, 3847, 0, 1, 13500, -89.900, 0.000, -132.500, 0.000, 0.000, -2.900, 0.0, , , , , , 98, , , 0, 0, 0
36.7935615, -118.9149955, 24.100, 10:34:25.191, 14, 0.00, 0.40, 97, -1.100, 0.600, -132.600, 2, 100, 98, 16, 22878, -18337, 5381, 5548, 8, 14, 1523813665.191, 111, 0, 1024, 1024, 1024, 1024, 0, 6, 3790, 3822, 3824, 3805, 3826, 3847, 0, 1, 13601, -89.900, 0.000, -132.500, 0.000, 0.000, -2.900, 0.0, , , , , , 98, , , 0, 0, 0
36.7935615, -118.9149955, 24.700, 10:34:25.302, 14, 0.00, 0.40, 97, -1.100, 0.500, -132.700, 2, 100, 98, 16, 22878, -18337, 5381, 5548, 8, 14, 1523813665.304, 12, 0, 1024, 1024, 1024, 1024, 0, 6, 3790, 3822, 3824, 3805, 3826, 3847, 0, 1, 13714, -89.900, 0.000, -132.500, 0.000, 0.000, -3.000, 0.0, , , , , , 98, , , 0, 0, 0
36.7935615, -118.9149955, 24.700, 10:34:25.391, 14, 0.00, 0.40, 97, -1.100, 0.500, -132.700, 2, 100, 98, 16, 22878, -18337, 5381, 5548, 8, 14, 1523813665.391, 99, 0, 1024, 1024, 1024, 1024, 0, 6, 3790, 3822, 3824, 3805, 3826, 3847, 0, 1, 13801, -89.900, 0.000, -132.500, 0.000, 0.000, -3.000, 0.0, , , , , , 98, , , 0, 0, 0
36.7935615, -118.9149955, 25.000, 10:34:25.491, 14, 0.00, 0.40, 97, -1.500, 0.600, -132.500, 2, 100, 98, 16, 22878, -18337, 5381, 5548, 8, 14, 1523813665.492, 86, 0, 1024, 1024, 1024, 1024, 0, 6, 3790, 3822, 3824, 3805, 3826, 3847, 0, 1, 13902, -89.900, 0.000, -132.500, 0.000, 0.000, -3.000, 0.0, , , , , , 98, , , 0, 0, 0
36.7935615, -118.9149956, 25.300, 10:34:25.591, 14, 0.00, 0.40, 97, -1.900, 0.500, -132.300, 2, 100, 94, 16, 22878, -18337, 5381, 5548, 8, 14, 1523813665.591, 66, 0, 1024, 1024, 1024, 1024, 0, 6, 3779, 3824, 3816, 3802, 3824, 3844, 0, 1, 14001, -89.900, 0.000, -132.500, 0.000, 0.000, -2.900, 0.0, , , , , , 98, , , 0, 0, 0
36.7935616, -118.9149956, 25.800, 10:34:25.691, 14, 0.00, 0.41, 97, -1.500, 0.400, -132.400, 2, 100, 94, 16, 22878, -18337, 5381, 5548, 8, 14, 1523813665.691, 62, 0, 1024, 1024, 1024, 1024, 0, 6, 3779, 3824, 3816, 3802, 3824, 3844, 0, 1, 14101, -89.900, 0.000, -132.500, 0.000, 0.000, -2.900, 0.0, , , , , , 98, , , 0, 0, 0
36.7935616, -118.9149956, 25.800, 10:34:25.791, 14, 0.00, 0.41, 97, -1.500, 0.400, -132.400, 2, 100, 94, 16, 22878, -18337, 5381, 5548, 8, 14, 1523813665.791, 161, 0, 1024, 1024, 1024, 1024, 0, 6, 3779, 3824, 3816, 3802, 3824, 3844, 0, 1, 14201, -89.900, 0.000, -132.500, 0.000, 0.000, -2.900, 0.0, , , , , , 98, , , 0, 0, 0
36.7935616, -118.9149956, 26.100, 10:34:25.891, 14, 0.00, 0.41, 97, -1.200, 0.600, -132.600, 2, 100, 94, 16, 22878, -18337, 5381, 5548, 8, 14, 1523813665.891, 73, 0, 1024, 1024, 1024, 1024, 0, 6, 3779, 3824, 3816, 3802, 3824, 3844, 0, 1, 14301, -89.900, 0.000, -132.500, 0.000, 0.000, -3.000, 0.0, , , , , , 98, , , 0, 0, 0
36.7935617, -118.9149956, 26.800, 10:34:25.991, 14, 0.00, 0.42, 97, -1.600, 0.800, -133.300, 2, 100, 94, 16, 22878, -18337, 5381, 5548, 8, 14, 1523813665.991, 51, 0, 1024, 1024, 1024, 1024, 0, 6, 3779, 3824, 3816, 3802, 3824, 3844, 0, 1, 14401, -89.900, 0.000, -132.500, 0.000, 0.000, -3.000, 0.0, , , , , , 98, , , 0, 0, 0
36.7935617, -118.9149956, 27.100, 10:34:26.091, 14, 0.00, 0.42, 97, -2.200, 0.600, -133.700, 2, 100, 93, 16, 22878, -18337, 5381, 5548, 8, 14, 1523813666.091, 63, 0, 1024, 1024, 1024, 1024, 0, 6, 3779, 3824, 3816, 3802, 3824, 3844, 0, 1, 14501, -89.900, 0.000, -132.500, 0.000, 0.000, -3.000, 0.0, , , , , , 98, , , 0, 0, 0
36.7935618, -118.9149957, 27.400, 10:34:26.191, 14, 0.00, 0.43, 97, -2.400, 0.400, -133.800, 2, 100, 93, 16, 22878, -18337, 5381, 5548, 8, 14, 1523813666.191, 52, 0, 1024, 1024, 1024, 1024, 0, 6, 3779, 3824, 3816, 3802, 3824, 3844, 0, 1, 14601, -89.900, 0.000, -132.500, 0.000, 0.000, -3.100, 0.0, , , , , , 98, , , 0, 0, 0
36.7935619, -118.9149957, 27.700, 10:34:26.291, 14, 0.00, 0.44, 97, -2.200, 0.000, -133.700, 2, 100, 93, 16, 22878, -18337, 5381, 5548, 8, 14, 1523813666.291, 75, 0, 1024, 1024, 1024, 1024, 0, 6, 3779, 3824, 3816, 3802, 3824, 3844, 0, 1, 14701, -90.000, 0.000, -132.500, 0.000, 0.000, -3.000, 0.0, , , , , , 98, , , 0, 0, 0
36.7935619, -118.9149957, 28.000, 10:34:26.391, 14, 0.00, 0.45, 97, -2.000, -0.200, -133.300, 2, 100, 93, 16, 22878, -18337, 5381, 5548, 8, 14, 1523813666.391, 42, 0, 1024, 1024, 1024, 1024, 0, 6, 3779, 3824, 3816, 3802, 3824, 3844, 0, 1, 14801, -90.000, 0.000, -132.500, 0.000, 0.000, -2.900, 0.0, , , , , , 98, , , 0, 0, 0
36.7935620, -118.9149956, 28.300, 10:34:26.491, 14, 0.00, 0.45, 97, -1.800, -0.400, -132.900, 2, 100, 93, 16, 22878, -18337, 5381, 5548, 8, 14, 1523813666.491, 39, 0, 1024, 1024, 1024, 1024, 0, 6, 3779, 3824, 3816, 3802, 3824, 3844, 0, 1, 14901, -90.000, 0.000, -132.500, 0.000, 0.000, -2.900, 0.0, , , , , , 98, , , 0, 0, 0
36.7935620, -118.9149956, 28.300, 10:34:26.591, 14, 0.00, 0.45, 97, -1.800, -0.400, -132.900, 2, 100, 94, 16, 22856, -18527, 5381, 5548, 8, 14, 1523813666.591, 138, 0, 1024, 1024, 1024, 1024, 0, 6, 3779, 3824, 3816, 3802, 3824, 3844, 0, 1, 15001, -90.000, 0.000, -132.500, 0.000, 0.000, -2.900, 0.0, , , , , , 98, , , 0, 0, 0
36.7935621, -118.9149956, 28.900, 10:34:26.691, 14, 0.00, 0.47, 97, -2.900, -0.800, -131.900, 2, 100, 94, 16, 22856, -18527, 5381, 5548, 8, 14, 1523813666.691, 31, 0, 1024, 1024, 1024, 1024, 0, 6, 3786, 3814, 3810, 3795, 3809, 3833, 0, 1, 15101, -90.000, 0.000, -132.500, 0.000, 0.000, -2.900, 0.0, , , , , , 98, , , 0, 0, 0
36.7935622, -118.9149956, 29.200, 10:34:26.791, 14, 0.00, 0.48, 97, -3.000, -0.800, -131.600, 2, 100, 94, 16, 22856, -18527, 5381, 5548, 8, 14, 1523813666.792, 23, 0, 1024, 1024, 1024, 1024, 0, 6, 3786, 3814, 3810, 3795, 3809, 3833, 0, 1, 15201, -90.000, 0.000, -132.500, 0.000, 0.000, -2.800, 0.0, , , , , , 98, , , 0, 0, 0
36.7935623, -118.9149956, 29.500, 10:34:26.890, 14, 0.00, 0.48, 97, -3.100, -0.500, -131.500, 2, 100, 94, 16, 22856, -18527, 5381, 5548, 8, 14, 1523813666.891, 39, 0, 1024, 1024, 1024, 1024, 0, 6, 3786, 3814, 3810, 3795, 3809, 3833, 0, 1, 15301, -90.000, 0.000, -132.500, 0.000, 0.000, -2.800, 0.0, , , , , , 98, , , 0, 0, 0
36.7935623, -118.9149956, 29.800, 10:34:26.990, 14, 0.00, 0.48, 97, -3.300, -0.100, -131.600, 2, 100, 94, 16, 22856, -18527, 5381, 5548, 8, 14, 1523813666.991, 13, 0, 1024, 1024, 1024, 1024, 0, 6, 3786, 3814, 3810, 3795, 3809, 3833, 0, 1, 15401, -89.900, 0.000, -132.500, 0.000, 0.000, -2.900, 0.0, , , , , , 98, , , 0, 0, 0
36.7935623, -118.9149957, 30.100, 10:34:27.091, 14, 0.00, 0.49, 97, -3.100, 0.100, -131.800, 2, 100, 98, 16, 22856, -18527, 5381, 5548, 8, 14, 1523813667.092, 18, 0, 1024, 1024, 1024, 1024, 0, 6, 3786, 3814, 3810, 3795, 3809, 3833, 0, 1, 15501, -89.900, 0.000, -132.500, 0.000, 0.000, -2.900, 0.0, , , , , , 98, , , 0, 0, 0
36.7935623, -118.9149957, 30.400, 10:34:27.190, 14, 0.00, 0.48, 97, -3.000, 0.400, -132.100, 2, 100, 98, 16, 22856, -18527, 5381, 5548, 8, 14, 1523813667.191, 26, 0, 1024, 1024, 1024, 1024, 0, 6, 3786, 3814, 3810, 3795, 3809, 3833, 0, 1, 15601, -89.900, 0.000, -132.500, 0.000, 0.000, -2.900, 0.0, , , , , , 98, , , 0, 0, 0
36.7935623, -118.9149957, 30.400, 10:34:27.291, 14, 0.00, 0.48, 97, -3.000, 0.400, -132.100, 2, 100, 98, 16, 22856, -18527, 5381, 5548, 8, 14, 1523813667.291, 127, 0, 1024, 1024, 1024, 1024, 0, 6, 3786, 3814, 3810, 3795, 3809, 3833, 0, 1, 15701, -89.900, 0.000, -132.500, 0.000, 0.000, -2.900, 0.0, , , , , , 98, , , 0, 0, 0
36.7935622, -118.9149957, 31.000, 10:34:27.390, 14, 0.00, 0.47, 97, -2.800, 0.700, -132.300, 2, 100, 98, 16, 22856, -18527, 5381, 5548, 8, 14, 1523813667.391, 13, 0, 1024, 1024, 1024, 1024, 0, 6, 3786, 3814, 3810, 3795, 3809, 3833, 0, 1, 15801, -89.900, 0.000, -132.500, 0.000, 0.000, -2.900, 0.0, , , , , , 98, , , 0, 0, 0
36.7935621, -118.9149957, 31.200, 10:34:27.491, 14, 0.00, 0.47, 97, -2.300, 0.800, -132.400, 2, 100, 98, 17, 22862, -18377, 5381, 5548, 8, 14, 1523813667.491, 13, 0, 1024, 1024, 1024, 1024, 0, 6, 3786, 3820, 3816, 3798, 3811, 3823, 0, 1, 15901, -89.900, 0.000, -132.500, 0.000, 0.000, -2.900, 0.0, , , , , , 98, , , 0, 0, 0
36.7935621, -118.9149957, 31.200, 10:34:27.590, 14, 0.00, 0.47, 97, -2.300, 0.800, -132.400, 2, 100, 98, 17, 22862, -18377, 5381, 5548, 8, 14, 1523813667.591, 112, 0, 1024, 1024, 1024, 1024, 0, 6, 3786, 3820, 3816, 3798, 3811, 3823, 0, 1, 16000, -89.900, 0.000, -132.500, 0.000, 0.000, -2.900, 0.0, , , , , , 98, , , 0, 0, 0
36.7935621, -118.9149957, 31.500, 10:34:27.690, 14, 0.00, 0.47, 97, -2.000, 0.900, -132.500, 2, 100, 96, 17, 22862, -18377, 5381, 5548, 8, 14, 1523813667.690, 90, 0, 1024, 1024, 1024, 1024, 0, 6, 3786, 3820, 3816, 3798, 3811, 3823, 0, 1, 16100, -89.900, 0.000, -132.500, 0.000, 0.000, -3.000, 0.0, , , , , , 98, , , 0, 0, 0
36.7935621, -118.9149957, 31.500, 10:34:27.791, 14, 0.00, 0.47, 97, -2.000, 0.900, -132.500, 2, 100, 96, 17, 22862, -18377, 5381, 5548, 8, 14, 1523813667.791, 191, 0, 1024, 1024, 1024, 1024, 0, 6, 3786, 3820, 3816, 3798, 3811, 3823, 0, 1, 16201, -89.900, 0.000, -132.500, 0.000, 0.000, -3.000, 0.0, , , , , , 98, , , 0, 0, 0
36.7935621, -118.9149957, 32.200, 10:34:27.891, 14, 0.00, 0.47, 97, -2.800, 0.800, -133.000, 2, 100, 96, 17, 22862, -18377, 5381, 5548, 8, 14, 1523813667.891, 77, 0, 1024, 1024, 1024, 1024, 0, 6, 3786, 3820, 3816, 3798, 3811, 3823, 0, 1, 16301, -89.900, 0.000, -132.500, 0.000, 0.000, -3.000, 0.0, , , , , , 98, , , 0, 0, 0
36.7935622, -118.9149958, 32.400, 10:34:27.991, 14, 0.00, 0.47, 97, -3.200, 0.700, -133.000, 2, 100, 96, 17, 22862, -18377, 5381, 5548, 8, 14, 1523813667.991, 67, 0, 1024, 1024, 1024, 1024, 0, 6, 3786, 3820, 3816, 3798, 3811, 3823, 0, 1, 16401, -89.900, 0.000, -132.500, 0.000, 0.000, -3.000, 0.0, , , , , , 98, , , 0, 0, 0
36.7935622, -118.9149958, 32.700, 10:34:28.091, 14, 0.00, 0.47, 97, -3.200, 0.700, -132.800, 2, 100, 96, 17, 22862, -18377, 5381, 5548, 8, 14, 1523813668.091, 80, 0, 1024, 1024, 1024, 1024, 0, 6, 3786, 3820, 3816, 3798, 3811, 3823, 0, 1, 16501, -89.900, 0.000, -132.500, 0.000, 0.000, -3.000, 0.0, , , , , , 98, , , 0, 0, 0
36.7935622, -118.9149958, 33.300, 10:34:28.191, 14, 0.00, 0.48, 97, -3.300, 0.600, -132.500, 2, 100, 96, 17, 22862, -18377, 5381, 5548, 8, 14, 1523813668.192, 30, 0, 1024, 1024, 1024, 1024, 0, 6, 3786, 3820, 3816, 3798, 3811, 3823, 0, 1, 16601, -89.900, 0.000, -132.500, 0.000, 0.000, -3.000, 0.0, , , , , , 98, , , 0, 0, 0
36.7935622, -118.9149958, 33.300, 10:34:28.291, 14, 0.00, 0.48, 97, -3.300, 0.600, -132.500, 2, 100, 96, 17, 22862, -18377, 5381, 5548, 8, 14, 1523813668.291, 129, 0, 1024, 1024, 1024, 1024, 0, 6, 3786, 3820, 3816, 3798, 3811, 3823, 0, 1, 16701, -89.900, 0.000, -132.500, 0.000, 0.000, -3.000, 0.0, , , , , , 98, , , 0, 0, 0
36.7935622, -118.9149958, 33.600, 10:34:28.390, 14, 0.00, 0.48, 97, -3.100, 0.500, -132.400, 2, 100, 96, 17, 22862, -18377, 5381, 5548, 8, 14, 1523813668.391, 44, 0, 1024, 1024, 1024, 1024, 0, 6, 3786, 3820, 3816, 3798, 3811, 3823, 0, 1, 16801, -89.900, 0.000, -132.500, 0.000, 0.000, -3.000, 0.0, , , , , , 98, , , 0, 0, 0
36.7935623, -118.9149958, 34.200, 10:34:28.491, 14, 0.00, 0.48, 97, -3.100, 0.400, -132.500, 2, 100, 96, 17, 22862, -18377, 5381, 5548, 8, 14, 1523813668.492, 27, 0, 1024, 1024, 1024, 1024, 0, 6, 3786, 3820, 3816, 3798, 3811, 3823, 0, 1, 16901, -89.900, 0.000, -132.500, 0.000, 0.000, -3.000, 0.0, , , , , , 98, , , 0, 0, 0
36.7935623, -118.9149958, 34.500, 10:34:28.590, 14, 0.00, 0.48, 97, -3.200, 0.500, -132.600, 2, 100, 92, 17, 22691, -19404, 5381, 5548, 8, 14, 1523813668.591, 38, 0, 1024, 1024, 1024, 1024, 0, 6, 3750, 3797, 3789, 3768, 3777, 3813, 0, 1, 17001, -89.900, 0.000, -132.500, 0.000, 0.000, -3.000, 0.0, , , , , , 98, , , 0, 0, 0
36.7935623, -118.9149958, 34.500, 10:34:28.691, 14, 0.00, 0.48, 97, -3.200, 0.500, -132.600, 2, 100, 92, 17, 22691, -19404, 5381, 5548, 8, 14, 1523813668.692, 138, 0, 1024, 1024, 1024, 1024, 0, 6, 3750, 3797, 3789, 3768, 3777, 3813, 0, 1, 17101, -89.900, 0.000, -132.500, 0.000, 0.000, -3.000, 0.0, , , , , , 98, , , 0, 0, 0
36.7935622, -118.9149958, 35.100, 10:34:28.791, 14, 0.00, 0.47, 97, -3.400, 0.700, -132.600, 2, 100, 92, 17, 22691, -19404, 5381, 5548, 8, 14, 1523813668.791, 28, 0, 1024, 1024, 1024, 1024, 0, 6, 3750, 3797, 3789, 3768, 3777, 3813, 0, 1, 17201, -89.900, 0.000, -132.500, 0.000, 0.000, -3.100, 0.0, , , , , , 98, , , 0, 0, 0
36.7935622, -118.9149958, 35.400, 10:34:28.891, 14, 0.00, 0.47, 97, -3.500, 0.800, -132.400, 2, 100, 92, 17, 22691, -19404, 5381, 5548, 8, 14, 1523813668.891, 16, 0, 1024, 1024, 1024, 1024, 0, 6, 3750, 3797, 3789, 3768, 3777, 3813, 0, 1, 17301, -89.900, 0.000, -132.500, 0.000, 0.000, -3.000, 0.0, , , , , , 98, , , 0, 0, 0
36.7935622, -118.9149958, 35.400, 10:34:28.991, 14, 0.00, 0.47, 97, -3.500, 0.800, -132.400, 2, 100, 92, 17, 22691, -19404, 5381, 5548, 8, 14, 1523813668.991, 116, 0, 1024, 1024, 1024, 1024, 0, 6, 3750, 3797, 3789, 3768, 3777, 3813, 0, 1, 17401, -89.900, 0.000, -132.500, 0.000, 0.000, -3.000, 0.0, , , , , , 98, , , 0, 0, 0
36.7935622, -118.9149959, 35.700, 10:34:29.091, 14, 0.00, 0.47, 97, -3.500, 0.900, -132.200, 2, 100, 92, 17, 22691, -19404, 5381, 5548, 8, 14, 1523813669.092, 93, 0, 1024, 1024, 1024, 1024, 0, 6, 3750, 3797, 3789, 3768, 3777, 3813, 0, 1, 17501, -89.900, 0.000, -132.500, 0.000, 0.000, -2.900, 0.0, , , , , , 98, , , 0, 0, 0
36.7935622, -118.9149959, 35.700, 10:34:29.191, 14, 0.00, 0.47, 97, -3.500, 0.900, -132.200, 2, 100, 92, 17, 22691, -19404, 5381, 5548, 8, 14, 1523813669.191, 193, 0, 1024, 1024, 1024, 1024, 0, 6, 3750, 3797, 3789, 3768, 3777, 3813, 0, 1, 17601, -89.900, 0.000, -132.500, 0.000, 0.000, -2.900, 0.0, , , , , , 98, , , 0, 0, 0
36.7935623, -118.9149960, 36.600, 10:34:29.291, 14, 0.00, 0.48, 97, -3.500, 0.700, -132.000, 2, 100, 92, 17, 22691, -19404, 5381, 5548, 8, 14, 1523813669.291, 10, 0, 1024, 1024, 1024, 1024, 0, 6, 3750, 3797, 3789, 3768, 3777, 3813, 0, 1, 17701, -89.900, 0.000, -132.500, 0.000, 0.000, -3.000, 0.0, , , , , , 98, , , 0, 0, 0
36.7935623, -118.9149960, 36.900, 10:34:29.413, 14, 0.00, 0.48, 97, -3.700, 0.400, -132.100, 2, 100, 92, 17, 22691, -19404, 5381, 5548, 8, 14, 1523813669.413, 5, 0, 1024, 1024, 1024, 1024, 0, 6, 3750, 3797, 3789, 3768, 3777, 3813, 0, 1, 17823, -90.000, 0.000, -132.500, 0.000, 0.000, -3.000, 0.0, , , , , , 98, , , 0, 0, 0
36.7935623, -118.9149960, 36.900, 10:34:29.491, 14, 0.00, 0.48, 97, -3.700, 0.400, -132.100, 2, 100, 92, 17, 22691, -19404, 5381, 5548, 8, 14, 1523813669.491, 83, 0, 1024, 1024, 1024, 1024, 0, 6, 3750, 3797, 3789, 3768, 3777, 3813, 0, 1, 17901, -90.000, 0.000, -132.500, 0.000, 0.000, -3.000, 0.0, , , , , , 98, , , 0, 0, 0
36.7935623, -118.9149959, 37.500, 10:34:29.597, 14, 0.00, 0.48, 97, -3.700, 0.200, -132.400, 2, 100, 92, 17, 22691, -19404, 5381, 5548, 8, 14, 1523813669.598, 4, 0, 1024, 1024, 1024, 1024, 0, 6, 3750, 3797, 3789, 3768, 3777, 3813, 0, 1, 18007, -89.900, 0.000, -132.500, 0.000, 0.000, -2.900, 0.0, , , , , , 98, , , 0, 0, 0
36.7935623, -118.9149959, 37.500, 10:34:29.691, 14, 0.00, 0.48, 97, -3.700, 0.200, -132.400, 2, 100, 92, 17, 22691, -19404, 5381, 5548, 8, 14, 1523813669.691, 98, 0, 1024, 1024, 1024, 1024, 0, 6, 3750, 3797, 3789, 3768, 3777, 3813, 0, 1, 18101, -89.900, 0.000, -132.500, 0.000, 0.000, -2.900, 0.0, , , , , , 98, , , 0, 0, 0
36.7935623, -118.9149959, 37.800, 10:34:29.791, 14, 0.00, 0.48, 97, -3.600, 0.400, -132.600, 2, 100, 92, 17, 22691, -19404, 5381, 5548, 8, 14, 1523813669.792, 92, 0, 1024, 1024, 1024, 1024, 0, 6, 3750, 3797, 3789, 3768, 3777, 3813, 0, 1, 18202, -89.900, 0.000, -132.500, 0.000, 0.000, -2.900, 0.0, , , , , , 98, , , 0, 0, 0
36.7935623, -118.9149959, 38.100, 10:34:29.891, 14, 0.00, 0.48, 97, -3.300, 0.500, -132.700, 2, 100, 92, 17, 22691, -19404, 5381, 5548, 8, 14, 1523813669.891, 73, 0, 1024, 1024, 1024, 1024, 0, 6, 3750, 3797, 3789, 3768, 3777, 3813, 0, 1, 18301, -89.900, 0.000, -132.500, 0.000, 0.000, -2.900, 0.0, , , , , , 98, , , 0, 0, 0
36.7935622, -118.9149958, 38.600, 10:34:29.991, 14, 0.00, 0.48, 97, -2.800, 0.600, -132.800, 2, 100, 92, 17, 22691, -19404, 5381, 5548, 8, 14, 1523813669.991, 72, 0, 1024, 1024, 1024, 1024, 0, 6, 3750, 3797, 3789, 3768, 3777, 3813, 0, 1, 18401, -89.900, 0.000, -132.500, 0.000, 0.000, -2.900, 0.0, , , , , , 98, , , 0, 0, 0
36.7935622, -118.9149958, 38.600, 10:34:30.091, 14, 0.00, 0.48, 97, -2.800, 0.600, -132.800, 2, 100, 92, 17, 22712, -19123, 5381, 5548, 8, 14, 1523813670.092, 172, 0, 1024, 1024, 1024, 1024, 0, 6, 3750, 3797, 3789, 3768, 3777, 3813, 0, 1, 18501, -89.900, 0.000, -132.500, 0.000, 0.000, -2.900, 0.0, , , , , , 98, , , 0, 0, 0
36.7935622, -118.9149957, 38.900, 10:34:30.191, 14, 0.00, 0.48, 97, -2.800, 0.600, -132.900, 2, 100, 92, 17, 22712, -19123, 5381, 5548, 8, 14, 1523813670.191, 74, 0, 1024, 1024, 1024, 1024, 0, 6, 3764, 3796, 3797, 3769, 3788, 3820, 0, 1, 18601, -89.900, 0.000, -132.500, 0.000, 0.000, -3.000, 0.0, , , , , , 98, , , 0, 0, 0
36.7935622, -118.9149956, 39.500, 10:34:30.291, 14, 0.00, 0.47, 97, -3.100, 0.100, -133.000, 2, 100, 92, 17, 22712, -19123, 5381, 5548, 8, 14, 1523813670.291, 61, 0, 1024, 1024, 1024, 1024, 0, 6, 3764, 3796, 3797, 3769, 3788, 3820, 0, 1, 18701, -90.000, 0.000, -132.500, 0.000, 0.000, -3.000, 0.0, , , , , , 98, , , 0, 0, 0
36.7935622, -118.9149956, 39.800, 10:34:30.391, 14, 0.00, 0.48, 97, -3.100, -0.100, -132.900, 2, 100, 92, 17, 22712, -19123, 5381, 5548, 8, 14, 1523813670.391, 50, 0, 1024, 1024, 1024, 1024, 0, 6, 3764, 3796, 3797, 3769, 3788, 3820, 0, 1, 18801, -89.900, 0.000, -132.500, 0.000, 0.000, -3.000, 0.0, , , , , , 98, , , 0, 0, 0
36.7935622, -118.9149956, 40.100, 10:34:30.491, 14, 0.00, 0.48, 97, -2.700, 0.200, -132.700, 2, 100, 92, 17, 22712, -19123, 5381, 5548, 8, 14, 1523813670.492, 66, 0, 1024, 1024, 1024, 1024, 0, 6, 3764, 3796, 3797, 3769, 3788, 3820, 0, 1, 18902, -89.900, 0.000, -132.500, 0.000, 0.000, -3.000, 0.0, , , , , , 98, , , 0, 0, 0
36.7935622, -118.9149955, 40.400, 10:34:30.591, 14, 0.00, 0.48, 97, -2.700, 0.200, -132.600, 2, 100, 92, 17, 22707, -19003, 5381, 5548, 8, 14, 1523813670.591, 46, 0, 1024, 1024, 1024, 1024, 0, 6, 3764, 3796, 3797, 3769, 3788, 3820, 0, 1, 19001, -89.900, 0.000, -132.500, 0.000, 0.000, -3.000, 0.0, , , , , , 98, , , 0, 0, 0
36.7935623, -118.9149955, 40.700, 10:34:30.691, 14, 0.00, 0.48, 97, -2.900, 0.000, -132.400, 2, 100, 92, 17, 22707, -19003, 5381, 5548, 8, 14, 1523813670.691, 57, 0, 1024, 1024, 1024, 1024, 0, 6, 3764, 3796, 3797, 3769, 3788, 3820, 0, 1, 19101, -90.000, 0.000, -132.500, 0.000, 0.000, -3.000, 0.0, , , , , , 98, , , 0, 0, 0
36.7935623, -118.9149955, 41.000, 10:34:30.791, 14, 0.00, 0.49, 97, -3.100, -0.100, -132.100, 2, 100, 92, 17, 22707, -19003, 5381, 5548, 8, 14, 1523813670.792, 61, 0, 1024, 1024, 1024, 1024, 0, 6, 3764, 3796, 3797, 3769, 3788, 3820, 0, 1, 19201, -90.000, 0.000, -132.500, 0.000, 0.000, -3.000, 0.0, , , , , , 98, , , 0, 0, 0
36.7935623, -118.9149955, 41.300, 10:34:30.890, 14, 0.00, 0.49, 97, -3.400, 0.000, -131.800, 2, 100, 92, 17, 22707, -19003, 5381, 5548, 8, 14, 1523813670.890, 32, 0, 1024, 1024, 1024, 1024, 0, 6, 3764, 3796, 3797, 3769, 3788, 3820, 0, 1, 19300, -89.900, 0.000, -132.500, 0.000, 0.000, -3.000, 0.0, , , , , , 98, , , 0, 0, 0
36.7935623, -118.9149955, 41.600, 10:34:30.991, 14, 0.00, 0.49, 97, -3.500, 0.200, -131.700, 2, 100, 92, 17, 22707, -19003, 5381, 5548, 8, 14, 1523813670.991, 33, 0, 1024, 1024, 1024, 1024, 0, 6, 3764, 3796, 3797, 3769, 3788, 3820, 0, 1, 19401, -89.900, 0.000, -132.500, 0.000, 0.000, -3.000, 0.0, , , , , , 98, , , 0, 0, 0
36.7935623, -118.9149956, 41.900, 10:34:31.091, 14, 0.00, 0.48, 97, -3.500, 0.400, -131.800, 2, 100, 94, 17, 22707, -19003, 5381, 5548, 8, 14, 1523813671.092, 27, 0, 1024, 1024, 1024, 1024, 0, 6, 3763, 3783, 3793, 3770, 3784, 3819, 0, 1, 19501, -89.900, 0.000, -132.500, 0.000, 0.000, -3.000, 0.0, , , , , , 98, , , 0, 0, 0
36.7935622, -118.9149956, 42.200, 10:34:31.191, 14, 0.00, 0.48, 97, -3.400, 0.500, -132.000, 2, 100, 94, 17, 22707, -19003, 5381, 5548, 8, 14, 1523813671.192, 42, 0, 1024, 1024, 1024, 1024, 0, 6, 3763, 3783, 3793, 3770, 3784, 3819, 0, 1, 19601, -89.900, 0.000, -132.500, 0.000, 0.000, -3.100, 0.0, , , , , , 98, , , 0, 0, 0
36.7935622, -118.9149955, 42.500, 10:34:31.291, 14, 0.00, 0.48, 97, -3.300, 0.500, -132.200, 2, 100, 94, 17, 22707, -19003, 5381, 5548, 8, 14, 1523813671.291, 34, 0, 1024, 1024, 1024, 1024, 0, 6, 3763, 3783, 3793, 3770, 3784, 3819, 0, 1, 19701, -89.900, 0.000, -132.500, 0.000, 0.000, -3.100, 0.0, , , , , , 98, , , 0, 0, 0
36.7935622, -118.9149955, 42.800, 10:34:31.391, 14, 0.00, 0.47, 97, -2.900, 0.600, -132.400, 2, 100, 94, 17, 22707, -19003, 5381, 5548, 8, 14, 1523813671.391, 15, 0, 1024, 1024, 1024, 1024, 0, 6, 3763, 3783, 3793, 3770, 3784, 3819, 0, 1, 19801, -89.900, 0.000, -132.500, 0.000, 0.000, -3.100, 0.0, , , , , , 98, , , 0, 0, 0
36.7935621, -118.9149955, 43.100, 10:34:31.491, 14, 0.00, 0.47, 97, -2.600, 0.400, -132.600, 2, 100, 94, 17, 22707, -19003, 5381, 5548, 8, 14, 1523813671.491, 8, 0, 1024, 1024, 1024, 1024, 0, 6, 3763, 3783, 3793, 3770, 3784, 3819, 0, 1, 19901, -89.900, 0.000, -132.500, 0.000, 0.000, -3.100, 0.0, , , , , , 98, , , 0, 0, 0
36.7935621, -118.9149954, 43.400, 10:34:31.590, 14, 0.00, 0.46, 97, -2.400, 0.300, -132.800, 2, 100, 95, 17, 22707, -19003, 5381, 5548, 8, 14, 1523813671.590, 5, 0, 1024, 1024, 1024, 1024, 0, 6, 3763, 3783, 3793, 3770, 3784, 3819, 0, 1, 20000, -89.900, 0.000, -132.500, 0.000, 0.000, -3.000, 0.0, , , , , , 98, , , 0, 0, 0
36.7935621, -118.9149954, 43.400, 10:34:31.691, 14, 0.00, 0.46, 97, -2.400, 0.300, -132.800, 2, 100, 95, 17, 22707, -19003, 5381, 5548, 8, 14, 1523813671.691, 106, 0, 1024, 1024, 1024, 1024, 0, 6, 3763, 3783, 3793, 3770, 3784, 3819, 0, 1, 20101, -89.900, 0.000, -132.500, 0.000, 0.000, -3.000, 0.0, , , , , , 98, , , 0, 0, 0
36.7935620, -118.9149954, 44.000, 10:34:31.797, 14, 0.00, 0.46, 97, -2.500, 0.300, -132.800, 2, 100, 95, 17, 22707, -19003, 5381, 5548, 8, 14, 1523813671.797, 4, 0, 1024, 1024, 1024, 1024, 0, 6, 3763, 3783, 3793, 3770, 3784, 3819, 0, 1, 20207, -89.900, 0.000, -132.500, 0.000, 0.000, -3.000, 0.0, , , , , , 98, , , 0, 0, 0
36.7935620, -118.9149954, 44.300, 10:34:31.891, 14, 0.00, 0.45, 97, -2.500, 0.600, -132.700, 2, 100, 95, 17, 22707, -19003, 5381, 5548, 8, 14, 1523813671.892, 16, 0, 1024, 1024, 1024, 1024, 0, 6, 3763, 3783, 3793, 3770, 3784, 3819, 0, 1, 20301, -89.900, 0.000, -132.500, 0.000, 0.000, -3.000, 0.0, , , , , , 98, , , 0, 0, 0
36.7935620, -118.9149954, 44.600, 10:34:31.993, 14, 0.00, 0.45, 97, -2.500, 0.500, -132.600, 2, 100, 95, 17, 22707, -19003, 5381, 5548, 8, 14, 1523813671.993, 5, 0, 1024, 1024, 1024, 1024, 0, 6, 3763, 3783, 3793, 3770, 3784, 3819, 0, 1, 20403, -89.900, 0.000, -132.500, 0.000, 0.000, -3.000, 0.0, , , , , , 98, , , 0, 0, 0
36.7935620, -118.9149953, 44.900, 10:34:32.097, 14, 0.00, 0.45, 97, -2.800, 0.300, -132.600, 2, 100, 97, 17, 22597, -20208, 5326, 5548, 8, 14, 1523813672.097, 12, 0, 1024, 1024, 1024, 1024, 0, 6, 3721, 3766, 3764, 3747, 3762, 3794, 0, 1, 20507, -90.000, 0.000, -132.500, 0.000, 0.000, -3.000, 0.0, , , , , , 98, , , 0, 0, 0
36.7935619, -118.9149954, 45.200, 10:34:32.191, 14, 0.00, 0.45, 97, -2.800, 0.200, -132.600, 2, 100, 97, 17, 22597, -20208, 5326, 5548, 8, 14, 1523813672.191, 8, 0, 1024, 1024, 1024, 1024, 0, 6, 3721, 3766, 3764, 3747, 3762, 3794, 0, 1, 20601, -89.900, 0.000, -132.500, 0.000, 0.000, -3.000, 0.0, , , , , , 98, , , 0, 0, 0
36.7935619, -118.9149954, 45.500, 10:34:32.297, 14, 0.00, 0.45, 97, -2.700, 0.400, -132.600, 2, 100, 97, 17, 22597, -20208, 5326, 5548, 8, 14, 1523813672.298, 7, 0, 1024, 1024, 1024, 1024, 0, 6, 3721, 3766, 3764, 3747, 3762, 3794, 0, 1, 20707, -89.900, 0.000, -132.500, 0.000, 0.000, -3.000, 0.0, , , , , , 98, , , 0, 0, 0
36.7935619, -118.9149954, 45.500, 10:34:32.391, 14, 0.00, 0.45, 97, -2.700, 0.400, -132.600, 2, 100, 97, 17, 22597, -20208, 5326, 5548, 8, 14, 1523813672.391, 101, 0, 1024, 1024, 1024, 1024, 0, 6, 3721, 3766, 3764, 3747, 3762, 3794, 0, 1, 20801, -89.900, 0.000, -132.500, 0.000, 0.000, -3.000, 0.0, , , , , , 98, , , 0, 0, 0
36.7935618, -118.9149953, 46.100, 10:34:32.492, 14, 0.00, 0.43, 96, -2.600, 0.900, -133.000, 2, 100, 97, 17, 22597, -20208, 5326, 5548, 8, 14, 1523813672.493, 6, 0, 1024, 1024, 1024, 1024, 0, 6, 3721, 3766, 3764, 3747, 3762, 3794, 0, 1, 20902, -89.900, 0.000, -132.500, 0.000, 0.000, -3.000, 0.0, , , , , , 98, , , 0, 0, 0
