Latitude, Longitude, Altitude (m), Time, Sats, Speed (m/s), Range (m), Battery (%), Roll (deg), Pitch (deg), Yaw (deg), Images, HD Signal (%), RC Signal (%), Battery Temp (C), Battery Voltage (mV), Battery Current (mA), Battery Energy (mAh), Battery Capacity (mAh), Battery Discharges, flyState, timestamp (Unix), LastUpdate (ms), radioChannel, Rc_elevator, Rc_aileron, Rc_throttle, Rc_rudder, Rc_gyro, Dronetype, Battery_Cell1 (mV), Battery_Cell2 (mV), Battery_Cell3 (mV), Battery_Cell4 (mV), Battery_Cell5 (mV), Battery_Cell6 (mV), Video, isFlying, elapsedTime (ms), gimbalPitch (deg), gimbalRoll (deg), gimbalYaw (deg), VelocityX (m/s), VelocityY (m/s), VelocityZ (m/s), GroundSmear (cm), App Version, Aircraft Name, Aircraft Firmware, Aircraft Serial Number, Battery Serial Number, Battery Lifetime (%), App_Tip, App_Warning, CurrentFlightStartingIndex, CurrentFlightLastVisitedWaypoint, PreviousFlightEndingWaypointIndex
36.7935416, -118.9150121, 0.000, 11:38:04.808, 14, 0.00, 0.03, 100, -0.600, 1.800, -132.000, 250, 100, 100, 15, 25280, -4084, 5567, 5567, 7, 11, 1523817484.809, 82, 0, 1024, 1024, 1024, 1024, 0, 6, 4228, 4225, 4223, 4259, 4164, 4223, 0, 1, 3143, -89.900, 0.000, -133.000, 0.000, 0.000, -0.100, 0.0, MapPilot_2.7.4_02272018, Dendroctonus I, 1.3.1.00, 041DDC1887, 1058163200445, 99, Photo, Starting Mission from Lat/Long: 36.79354/-118.91501 Camera: Zenmuse X3 - Overlap: 90/90 - Active Connection: Yes, 27, 27, 27
36.7935416, -118.9150120, 0.000, 11:38:04.866, 14, 0.10, 0.02, 100, -0.300, 1.000, -131.800, 250, 100, 100, 15, 25280, -4084, 5567, 5567, 7, 11, 1523817484.867, 37, 0, 1024, 1024, 1024, 1024, 0, 6, 4228, 4225, 4223, 4259, 4164, 4223, 0, 1, 3201, -90.000, 0.000, -133.000, 0.000, 0.100, -0.300, 0.0, , , , , , 99, , , 27, 27, 27
36.7935417, -118.9150118, 0.000, 11:38:04.966, 14, 0.10, 0.03, 100, 0.000, 0.400, -131.700, 250, 100, 100, 15, 25280, -4084, 5567, 5567, 7, 11, 1523817484.967, 25, 0, 1024, 1024, 1024, 1024, 0, 6, 4228, 4225, 4223, 4259, 4164, 4223, 0, 1, 3301, -90.000, 0.000, -133.000, 0.000, 0.100, -0.300, 0.0, , , , , , 99, , , 27, 27, 27
36.7935417, -118.9150116, 0.100, 11:38:05.066, 14, 0.10, 0.03, 100, 0.200, -0.200, -131.700, 250, 100, 100, 15, 23965, -14688, 5567, 5567, 7, 11, 1523817485.067, 23, 0, 1024, 1024, 1024, 1024, 0, 6, 4228, 4225, 4223, 4259, 4164, 4223, 0, 1, 3401, -89.900, 0.000, -133.000, 0.000, 0.100, -0.400, 0.0, , , , , , 99, , , 27, 27, 27
36.7935417, -118.9150115, 0.100, 11:38:05.166, 14, 0.10, 0.05, 100, 0.600, -0.700, -131.700, 250, 100, 100, 15, 23965, -14688, 5567, 5567, 7, 11, 1523817485.167, 20, 0, 1024, 1024, 1024, 1024, 0, 6, 4228, 4225, 4223, 4259, 4164, 4223, 0, 1, 3501, -89.900, 0.000, -133.000, 0.000, 0.100, -0.400, 0.0, , , , , , 99, , , 27, 27, 27
36.7935416, -118.9150112, 0.200, 11:38:05.266, 15, 0.10, 0.07, 100, 1.100, -0.700, -131.900, 250, 100, 100, 15, 23965, -14688, 5567, 5567, 7, 11, 1523817485.267, 19, 0, 1024, 1024, 1024, 1024, 0, 6, 4228, 4225, 4223, 4259, 4164, 4223, 0, 1, 3601, -89.900, 0.000, -133.000, 0.000, 0.100, -0.400, 0.0, , , , , , 99, , , 27, 27, 27
36.7935416, -118.9150110, 0.200, 11:38:05.366, 15, 0.10, 0.09, 100, 1.100, -0.600, -132.100, 250, 100, 100, 15, 23965, -14688, 5567, 5567, 7, 11, 1523817485.366, 28, 0, 1024, 1024, 1024, 1024, 0, 6, 4228, 4225, 4223, 4259, 4164, 4223, 0, 1, 3700, -89.900, 0.000, -133.000, 0.000, 0.100, -0.400, 0.0, , , , , , 99, , , 27, 27, 27
36.7935415, -118.9150109, 0.300, 11:38:05.466, 15, 0.10, 0.10, 100, 1.200, -0.400, -132.100, 250, 100, 100, 15, 23965, -14688, 5567, 5567, 7, 11, 1523817485.467, 33, 0, 1024, 1024, 1024, 1024, 0, 6, 3971, 3997, 3920, 3938, 3962, 4138, 0, 1, 3801, -89.900, 0.000, -133.000, 0.000, 0.100, -0.300, 0.0, , , , , , 99, , , 27, 27, 27
36.7935415, -118.9150108, 0.300, 11:38:05.566, 14, 0.00, 0.11, 100, 1.000, -0.200, -132.100, 250, 100, 100, 15, 23965, -14688, 5567, 5567, 7, 11, 1523817485.567, 11, 0, 1024, 1024, 1024, 1024, 0, 6, 3971, 3997, 3920, 3938, 3962, 4138, 0, 1, 3901, -89.900, 0.000, -133.000, 0.000, 0.000, -0.400, 0.0, , , , , , 99, , , 27, 27, 27
36.7935415, -118.9150108, 0.300, 11:38:05.666, 14, 0.00, 0.11, 100, 1.000, -0.200, -132.100, 250, 100, 100, 15, 23965, -14688, 5567, 5567, 7, 11, 1523817485.667, 111, 0, 1024, 1024, 1024, 1024, 0, 6, 3971, 3997, 3920, 3938, 3962, 4138, 0, 1, 4001, -89.900, 0.000, -133.000, 0.000, 0.000, -0.400, 0.0, , , , , , 99, , , 27, 27, 27
36.7935415, -118.9150108, 0.400, 11:38:05.766, 14, 0.00, 0.11, 100, 1.100, -0.300, -132.100, 250, 100, 100, 15, 23965, -14688, 5567, 5567, 7, 11, 1523817485.767, 93, 0, 1024, 1024, 1024, 1024, 0, 6, 3971, 3997, 3920, 3938, 3962, 4138, 0, 1, 4101, -89.900, 0.000, -133.000, 0.000, 0.000, -0.400, 0.0, , , , , , 99, , , 27, 27, 27
36.7935414, -118.9150107, 0.400, 11:38:05.866, 13, 0.00, 0.12, 100, 1.400, -0.300, -132.000, 250, 100, 100, 15, 23965, -14688, 5567, 5567, 7, 11, 1523817485.867, 77, 0, 1024, 1024, 1024, 1024, 0, 6, 3971, 3997, 3920, 3938, 3962, 4138, 0, 1, 4201, -89.900, 0.000, -133.000, 0.000, 0.000, -0.400, 0.0, , , , , , 99, , , 27, 27, 27
36.7935414, -118.9150106, 0.500, 11:38:05.966, 13, 0.00, 0.13, 100, 1.400, -0.300, -132.000, 250, 100, 100, 15, 23965, -14688, 5567, 5567, 7, 11, 1523817485.967, 90, 0, 1024, 1024, 1024, 1024, 0, 6, 3971, 3997, 3920, 3938, 3962, 4138, 0, 1, 4301, -89.900, 0.000, -133.000, 0.000, 0.000, -0.400, 0.0, , , , , , 99, , , 27, 27, 27
36.7935414, -118.9150105, 0.500, 11:38:06.066, 13, 0.00, 0.14, 100, 1.500, -0.300, -132.100, 250, 100, 100, 15, 23965, -14688, 5567, 5567, 7, 11, 1523817486.067, 78, 0, 1024, 1024, 1024, 1024, 0, 6, 3971, 3997, 3920, 3938, 3962, 4138, 0, 1, 4401, -89.900, 0.000, -133.000, 0.000, 0.000, -0.400, 0.0, , , , , , 99, , , 27, 27, 27
36.7935414, -118.9150105, 0.600, 11:38:06.166, 13, 0.00, 0.14, 100, 1.400, -0.400, -132.200, 250, 100, 100, 15, 23965, -14688, 5567, 5567, 7, 11, 1523817486.167, 88, 0, 1024, 1024, 1024, 1024, 0, 6, 3971, 3997, 3920, 3938, 3962, 4138, 0, 1, 4501, -90.000, 0.000, -133.000, 0.000, 0.000, -0.500, 0.0, , , , , , 99, , , 27, 27, 27
36.7935414, -118.9150104, 0.600, 11:38:06.266, 14, 0.00, 0.14, 100, 1.200, -0.400, -132.300, 250, 100, 100, 15, 23965, -14688, 5567, 5567, 7, 11, 1523817486.267, 68, 0, 1024, 1024, 1024, 1024, 0, 6, 3971, 3997, 3920, 3938, 3962, 4138, 0, 1, 4601, -89.900, 0.000, -133.000, 0.000, 0.000, -0.500, 0.0, , , , , , 99, , , 27, 27, 27
36.7935414, -118.9150103, 0.700, 11:38:06.366, 14, 0.00, 0.15, 100, 0.900, -0.500, -132.300, 250, 100, 100, 15, 23965, -14688, 5567, 5567, 7, 11, 1523817486.367, 83, 0, 1024, 1024, 1024, 1024, 0, 6, 3971, 3997, 3920, 3938, 3962, 4138, 0, 1, 4701, -90.000, 0.000, -133.000, 0.000, 0.000, -0.500, 0.0, , , , , , 99, , , 27, 27, 27
36.7935413, -118.9150102, 0.700, 11:38:06.466, 13, 0.00, 0.16, 100, 0.900, -0.500, -132.400, 250, 100, 100, 15, 23965, -14688, 5567, 5567, 7, 11, 1523817486.467, 55, 0, 1024, 1024, 1024, 1024, 0, 6, 3971, 3997, 3920, 3938, 3962, 4138, 0, 1, 4802, -89.900, 0.000, -133.000, 0.000, 0.000, -0.400, 0.0, , , , , , 99, , , 27, 27, 27
36.7935413, -118.9150102, 0.800, 11:38:06.566, 13, 0.00, 0.17, 100, 1.000, -0.300, -132.300, 250, 100, 100, 15, 23439, -16914, 5455, 5567, 7, 11, 1523817486.567, 59, 0, 1024, 1024, 1024, 1024, 0, 6, 3907, 3885, 3859, 3894, 3932, 3905, 0, 1, 4901, -89.900, 0.000, -133.000, 0.000, 0.000, -0.500, 0.0, , , , , , 99, , , 27, 27, 27
36.7935412, -118.9150102, 0.800, 11:38:06.666, 13, 0.00, 0.17, 100, 1.200, -0.200, -132.200, 250, 100, 100, 15, 23439, -16914, 5455, 5567, 7, 11, 1523817486.667, 56, 0, 1024, 1024, 1024, 1024, 0, 6, 3907, 3885, 3859, 3894, 3932, 3905, 0, 1, 5001, -89.900, 0.000, -133.000, 0.000, 0.000, -0.500, 0.0, , , , , , 99, , , 27, 27, 27
36.7935411, -118.9150102, 0.900, 11:38:06.766, 13, 0.00, 0.18, 100, 1.300, -0.100, -132.100, 250, 100, 100, 15, 23439, -16914, 5455, 5567, 7, 14, 1523817486.767, 70, 0, 1024, 1024, 1024, 1024, 0, 6, 3907, 3885, 3859, 3894, 3932, 3905, 0, 1, 5101, -89.900, 0.000, -133.000, 0.000, 0.000, -0.500, 0.0, , , , , , 99, , , 27, 27, 27
36.7935410, -118.9150102, 0.900, 11:38:06.866, 12, 0.00, 0.18, 100, 1.500, 0.000, -132.100, 250, 100, 100, 15, 23439, -16914, 5455, 5567, 7, 14, 1523817486.867, 59, 0, 1024, 1024, 1024, 1024, 0, 6, 3907, 3885, 3859, 3894, 3932, 3905, 0, 1, 5201, -89.900, 0.000, -133.000, 0.000, 0.000, -0.300, 0.0, , , , , , 99, , , 27, 27, 27
36.7935410, -118.9150102, 1.000, 11:38:06.966, 12, 0.00, 0.19, 100, 1.300, 0.300, -132.000, 250, 100, 100, 15, 23439, -16914, 5455, 5567, 7, 14, 1523817486.967, 44, 0, 1024, 1024, 1024, 1024, 0, 6, 3907, 3885, 3859, 3894, 3932, 3905, 0, 1, 5301, -89.900, 0.000, -133.000, 0.000, 0.000, -0.200, 0.0, , , , , , 99, , , 27, 27, 27
36.7935409, -118.9150101, 1.000, 11:38:07.066, 12, 0.00, 0.19, 98, 1.200, 0.400, -131.800, 250, 100, 100, 15, 23439, -16914, 5455, 5567, 7, 14, 1523817487.067, 57, 0, 1024, 1024, 1024, 1024, 0, 6, 3907, 3885, 3859, 3894, 3932, 3905, 0, 1, 5401, -89.900, 0.000, -133.000, 0.000, 0.000, -0.200, 0.0, , , , , , 99, , , 27, 27, 27
36.7935408, -118.9150100, 1.000, 11:38:07.165, 12, 0.00, 0.21, 98, 1.300, 0.200, -131.800, 250, 100, 100, 15, 23439, -16914, 5455, 5567, 7, 14, 1523817487.166, 10, 0, 1024, 1024, 1024, 1024, 0, 6, 3907, 3885, 3859, 3894, 3932, 3905, 0, 1, 5500, -89.900, 0.000, -133.000, 0.000, 0.000, -0.300, 0.0, , , , , , 99, , , 27, 27, 27
36.7935407, -118.9150099, 1.100, 11:38:07.266, 12, 0.00, 0.23, 98, 1.300, 0.100, -131.700, 250, 100, 100, 15, 23439, -16914, 5455, 5567, 7, 14, 1523817487.267, 18, 0, 1024, 1024, 1024, 1024, 0, 6, 3907, 3885, 3859, 3894, 3932, 3905, 0, 1, 5601, -89.900, 0.000, -133.000, 0.000, 0.000, -0.500, 0.0, , , , , , 99, , , 27, 27, 27
36.7935406, -118.9150098, 1.100, 11:38:07.366, 12, 0.00, 0.24, 98, 1.500, 0.000, -131.600, 250, 100, 100, 15, 23439, -16914, 5455, 5567, 7, 14, 1523817487.366, 14, 0, 1024, 1024, 1024, 1024, 0, 6, 3907, 3885, 3859, 3894, 3932, 3905, 0, 1, 5701, -89.900, 0.000, -133.000, 0.000, 0.000, -0.600, 0.0, , , , , , 99, , , 27, 27, 27
36.7935404, -118.9150097, 1.300, 11:38:07.465, 14, 0.00, 0.26, 98, 1.700, 0.000, -131.500, 250, 100, 100, 15, 23439, -16914, 5455, 5567, 7, 14, 1523817487.466, 7, 0, 1024, 1024, 1024, 1024, 0, 6, 3907, 3885, 3859, 3894, 3932, 3905, 0, 1, 5800, -90.000, 0.000, -133.000, 0.000, 0.000, -0.900, 0.0, , , , , , 99, , , 27, 27, 27
36.7935403, -118.9150097, 1.400, 11:38:07.566, 13, 0.00, 0.26, 98, 1.700, 0.000, -131.500, 250, 100, 100, 15, 23326, -17035, 5455, 5567, 7, 14, 1523817487.567, 14, 0, 1024, 1024, 1024, 1024, 0, 6, 3907, 3885, 3859, 3894, 3932, 3905, 0, 1, 5901, -89.900, 0.000, -133.000, 0.000, 0.000, -1.100, 0.0, , , , , , 99, , , 27, 27, 27
36.7935403, -118.9150096, 1.500, 11:38:07.667, 13, 0.00, 0.27, 98, 1.700, 0.000, -131.600, 250, 100, 100, 15, 23326, -17035, 5455, 5567, 7, 14, 1523817487.667, 6, 0, 1024, 1024, 1024, 1024, 0, 6, 3891, 3872, 3850, 3886, 3924, 3904, 0, 1, 6001, -90.000, 0.000, -133.000, 0.000, 0.000, -1.200, 0.0, , , , , , 99, , , 27, 27, 27
36.7935402, -118.9150096, 1.700, 11:38:07.766, 12, 0.00, 0.27, 98, 1.600, 0.000, -131.700, 250, 100, 100, 15, 23326, -17035, 5455, 5567, 7, 14, 1523817487.766, 18, 0, 1024, 1024, 1024, 1024, 0, 6, 3891, 3872, 3850, 3886, 3924, 3904, 0, 1, 6100, -90.000, 0.000, -133.000, 0.000, 0.000, -1.500, 0.0, , , , , , 99, , , 27, 27, 27
36.7935402, -118.9150096, 1.800, 11:38:07.866, 12, 0.00, 0.28, 98, 1.400, 0.000, -131.900, 250, 100, 100, 15, 23326, -17035, 5455, 5567, 7, 14, 1523817487.867, 8, 0, 1024, 1024, 1024, 1024, 0, 6, 3891, 3872, 3850, 3886, 3924, 3904, 0, 1, 6201, -90.000, 0.000, -133.000, 0.000, 0.000, -1.600, 0.0, , , , , , 99, , , 27, 27, 27
36.7935402, -118.9150095, 2.000, 11:38:07.966, 14, 0.00, 0.28, 98, 1.300, 0.000, -132.000, 250, 100, 100, 15, 23326, -17035, 5455, 5567, 7, 14, 1523817487.967, 17, 0, 1024, 1024, 1024, 1024, 0, 6, 3891, 3872, 3850, 3886, 3924, 3904, 0, 1, 6301, -90.000, 0.000, -133.000, 0.000, 0.000, -1.800, 0.0, , , , , , 99, , , 27, 27, 27
36.7935402, -118.9150096, 2.200, 11:38:08.070, 14, 0.00, 0.28, 98, 1.300, 0.000, -132.200, 250, 100, 100, 15, 23326, -17035, 5455, 5567, 7, 14, 1523817488.071, 4, 0, 1024, 1024, 1024, 1024, 0, 6, 3891, 3872, 3850, 3886, 3924, 3904, 0, 1, 6405, -90.000, 0.000, -133.000, 0.000, 0.000, -2.100, 0.0, , , , , , 99, , , 27, 27, 27
36.7935402, -118.9150096, 2.200, 11:38:08.166, 14, 0.00, 0.28, 98, 1.300, 0.000, -132.200, 250, 100, 100, 15, 23326, -17035, 5455, 5567, 7, 14, 1523817488.167, 100, 0, 1024, 1024, 1024, 1024, 0, 6, 3891, 3872, 3850, 3886, 3924, 3904, 0, 1, 6501, -90.000, 0.000, -133.000, 0.000, 0.000, -2.100, 0.0, , , , , , 99, , , 27, 27, 27
36.7935401, -118.9150097, 2.500, 11:38:08.266, 14, 0.00, 0.28, 98, 1.400, 0.000, -132.300, 250, 100, 100, 15, 23326, -17035, 5455, 5567, 7, 14, 1523817488.267, 93, 0, 1024, 1024, 1024, 1024, 0, 6, 3891, 3872, 3850, 3886, 3924, 3904, 0, 1, 6601, -89.900, 0.000, -133.000, 0.000, 0.000, -2.500, 0.0, , , , , , 99, , , 27, 27, 27
36.7935403, -118.9150103, 3.100, 11:38:08.370, 14, 0.00, 0.23, 98, 0.500, 0.500, -132.500, 250, 100, 100, 15, 23326, -17035, 5455, 5567, 7, 14, 1523817488.371, 5, 0, 1024, 1024, 1024, 1024, 0, 6, 3891, 3872, 3850, 3886, 3924, 3904, 0, 1, 6705, -89.900, 0.000, -133.000, 0.000, 0.000, -2.900, 0.0, , , , , , 99, , , 27, 27, 27
36.7935403, -118.9150103, 3.100, 11:38:08.466, 14, 0.00, 0.23, 98, 0.500, 0.500, -132.500, 250, 100, 100, 15, 23326, -17035, 5455, 5567, 7, 14, 1523817488.467, 101, 0, 1024, 1024, 1024, 1024, 0, 6, 3891, 3872, 3850, 3886, 3924, 3904, 0, 1, 6801, -89.900, 0.000, -133.000, 0.000, 0.000, -2.900, 0.0, , , , , , 99, , , 27, 27, 27
36.7935404, -118.9150105, 3.400, 11:38:08.566, 14, 0.00, 0.20, 98, 0.100, 0.700, -132.600, 250, 100, 100, 15, 22925, -20341, 5455, 5567, 7, 14, 1523817488.567, 79, 0, 1024, 1024, 1024, 1024, 0, 6, 3835, 3755, 3755, 3787, 3835, 3814, 0, 1, 6901, -89.900, 0.000, -133.000, 0.000, 0.000, -3.000, 0.0, , , , , , 99, , , 27, 27, 27
36.7935405, -118.9150108, 3.700, 11:38:08.666, 14, 0.00, 0.18, 98, -0.300, 0.800, -132.700, 250, 100, 100, 15, 22925, -20341, 5455, 5567, 7, 14, 1523817488.667, 84, 0, 1024, 1024, 1024, 1024, 0, 6, 3835, 3755, 3755, 3787, 3835, 3814, 0, 1, 7001, -89.900, 0.000, -133.000, 0.000, 0.000, -3.100, 0.0, , , , , , 99, , , 27, 27, 27
36.7935407, -118.9150110, 4.100, 11:38:08.766, 14, 0.00, 0.15, 98, -0.700, 0.900, -132.700, 250, 100, 100, 15, 22925, -20341, 5455, 5567, 7, 14, 1523817488.767, 54, 0, 1024, 1024, 1024, 1024, 0, 6, 3835, 3755, 3755, 3787, 3835, 3814, 0, 1, 7101, -89.900, 0.000, -133.000, 0.000, 0.000, -3.200, 0.0, , , , , , 99, , , 27, 27, 27
36.7935408, -118.9150113, 4.400, 11:38:08.866, 15, 0.00, 0.13, 98, -0.700, 0.600, -132.500, 250, 100, 100, 15, 22925, -20341, 5455, 5567, 7, 14, 1523817488.866, 66, 0, 1024, 1024, 1024, 1024, 0, 6, 3835, 3755, 3755, 3787, 3835, 3814, 0, 1, 7200, -89.900, 0.000, -133.000, 0.000, 0.000, -3.200, 0.0, , , , , , 99, , , 27, 27, 27
36.7935410, -118.9150115, 4.700, 11:38:08.966, 15, 0.00, 0.11, 98, -0.700, 0.400, -132.300, 250, 100, 100, 15, 22925, -20341, 5455, 5567, 7, 14, 1523817488.967, 50, 0, 1024, 1024, 1024, 1024, 0, 6, 3835, 3755, 3755, 3787, 3835, 3814, 0, 1, 7301, -90.000, 0.000, -133.000, 0.000, 0.000, -3.300, 0.0, , , , , , 99, , , 27, 27, 27
36.7935411, -118.9150117, 5.100, 11:38:09.066, 14, 0.00, 0.08, 98, -0.600, 0.100, -132.100, 250, 100, 100, 15, 22925, -20341, 5455, 5567, 7, 14, 1523817489.067, 71, 0, 1024, 1024, 1024, 1024, 0, 6, 3835, 3755, 3755, 3787, 3835, 3814, 0, 1, 7401, -90.000, 0.000, -133.000, 0.000, 0.000, -3.200, 0.0, , , , , , 99, , , 27, 27, 27
36.7935411, -118.9150120, 5.400, 11:38:09.166, 14, 0.00, 0.08, 98, -0.700, 0.200, -131.900, 250, 100, 100, 15, 22925, -20341, 5455, 5567, 7, 14, 1523817489.167, 34, 0, 1024, 1024, 1024, 1024, 0, 6, 3835, 3755, 3755, 3787, 3835, 3814, 0, 1, 7501, -89.900, 0.000, -133.000, 0.000, 0.000, -3.100, 0.0, , , , , , 99, , , 27, 27, 27
36.7935411, -118.9150123, 5.700, 11:38:09.266, 14, 0.00, 0.09, 98, -0.800, 0.600, -131.800, 250, 100, 100, 15, 22925, -20341, 5455, 5567, 7, 14, 1523817489.267, 52, 0, 1024, 1024, 1024, 1024, 0, 6, 3835, 3755, 3755, 3787, 3835, 3814, 0, 1, 7601, -89.900, 0.000, -133.000, 0.000, 0.000, -3.100, 0.0, , , , , , 99, , , 27, 27, 27
36.7935411, -118.9150123, 6.100, 11:38:09.366, 14, 0.00, 0.09, 98, -0.800, 1.200, -131.700, 250, 100, 100, 15, 22925, -20341, 5455, 5567, 7, 14, 1523817489.367, 26, 0, 1024, 1024, 1024, 1024, 0, 6, 3835, 3755, 3755, 3787, 3835, 3814, 0, 1, 7701, -89.900, 0.000, -133.000, 0.000, 0.000, -3.100, 0.0, , , , , , 99, , , 27, 27, 27
36.7935409, -118.9150123, 6.800, 11:38:09.466, 14, 0.00, 0.11, 98, -0.200, 1.500, -131.600, 250, 100, 100, 15, 22925, -20341, 5455, 5567, 7, 14, 1523817489.467, 44, 0, 1024, 1024, 1024, 1024, 0, 6, 3835, 3755, 3755, 3787, 3835, 3814, 0, 1, 7801, -89.900, 0.000, -133.000, 0.000, 0.000, -3.200, 0.0, , , , , , 99, , , 27, 27, 27
36.7935408, -118.9150123, 7.100, 11:38:09.566, 15, 0.00, 0.12, 98, 0.100, 1.500, -131.600, 250, 100, 100, 15, 22547, -24405, 5455, 5567, 7, 14, 1523817489.567, 24, 0, 1024, 1024, 1024, 1024, 0, 6, 3769, 3762, 3747, 3772, 3820, 3777, 0, 1, 7902, -89.900, 0.000, -133.000, 0.000, 0.000, -3.100, 0.0, , , , , , 99, , , 27, 27, 27
36.7935408, -118.9150123, 7.100, 11:38:09.666, 15, 0.00, 0.12, 98, 0.100, 1.500, -131.600, 250, 100, 100, 15, 22547, -24405, 5455, 5567, 7, 14, 1523817489.667, 124, 0, 1024, 1024, 1024, 1024, 0, 6, 3769, 3762, 3747, 3772, 3820, 3777, 0, 1, 8002, -89.900, 0.000, -133.000, 0.000, 0.000, -3.100, 0.0, , , , , , 99, , , 27, 27, 27
36.7935403, -118.9150119, 7.700, 11:38:09.766, 15, 0.10, 0.17, 98, 1.000, 1.200, -131.700, 250, 100, 100, 15, 22547, -24405, 5455, 5567, 7, 14, 1523817489.767, 11, 0, 1024, 1024, 1024, 1024, 0, 6, 3769, 3762, 3747, 3772, 3820, 3777, 0, 1, 8101, -89.900, 0.000, -133.000, 0.000, 0.100, -3.100, 0.0, , , , , , 99, , , 27, 27, 27
36.7935403, -118.9150119, 7.700, 11:38:09.866, 15, 0.10, 0.17, 98, 1.000, 1.200, -131.700, 250, 100, 100, 15, 22547, -24405, 5455, 5567, 7, 14, 1523817489.867, 111, 0, 1024, 1024, 1024, 1024, 0, 6, 3769, 3762, 3747, 3772, 3820, 3777, 0, 1, 8201, -89.900, 0.000, -133.000, 0.000, 0.100, -3.100, 0.0, , , , , , 99, , , 27, 27, 27
36.7935398, -118.9150113, 8.400, 11:38:09.966, 16, 0.10, 0.24, 98, 2.200, 0.800, -131.900, 250, 100, 100, 15, 22547, -24405, 5455, 5567, 7, 14, 1523817489.966, 16, 0, 1024, 1061, 1024, 1024, 0, 6, 3769, 3762, 3747, 3772, 3820, 3777, 0, 1, 8300, -89.900, 0.000, -133.000, 0.000, 0.100, -3.100, 0.0, , , , , , 99, , , 27, 27, 27
36.7935398, -118.9150113, 8.400, 11:38:10.066, 16, 0.10, 0.24, 98, 2.200, 0.800, -131.900, 250, 100, 100, 15, 22547, -24405, 5455, 5567, 7, 14, 1523817490.067, 117, 0, 1024, 1061, 1024, 1024, 0, 6, 3769, 3762, 3747, 3772, 3820, 3777, 0, 1, 8401, -89.900, 0.000, -133.000, 0.000, 0.100, -3.100, 0.0, , , , , , 99, , , 27, 27, 27
36.7935393, -118.9150108, 9.000, 11:38:10.166, 16, 0.10, 0.30, 98, 3.000, 0.700, -132.000, 250, 100, 100, 15, 22547, -24405, 5455, 5567, 7, 14, 1523817490.167, 7, 0, 1024, 1159, 1024, 1024, 0, 6, 3769, 3762, 3747, 3772, 3820, 3777, 0, 1, 8501, -89.900, 0.800, -133.000, 0.000, 0.100, -3.100, 0.0, , , , , , 99, , , 27, 27, 27
36.7935393, -118.9150108, 9.000, 11:38:10.266, 16, 0.10, 0.30, 98, 3.000, 0.700, -132.000, 250, 100, 100, 15, 22547, -24405, 5455, 5567, 7, 14, 1523817490.268, 109, 0, 1024, 1159, 1024, 1024, 0, 6, 3769, 3762, 3747, 3772, 3820, 3777, 0, 1, 8602, -89.900, 0.800, -133.000, 0.000, 0.100, -3.100, 0.0, , , , , , 99, , , 27, 27, 27
36.7935391, -118.9150105, 9.300, 11:38:10.366, 16, 0.00, 0.33, 98, 3.000, 1.000, -131.900, 250, 100, 100, 15, 22547, -24405, 5455, 5567, 7, 14, 1523817490.366, 57, 0, 1024, 1165, 1024, 1024, 0, 6, 3769, 3762, 3747, 3772, 3820, 3777, 0, 1, 8701, -89.900, 1.500, -133.000, 0.000, 0.000, -3.000, 0.0, , , , , , 99, , , 27, 27, 27
36.7935389, -118.9150103, 9.700, 11:38:10.466, 16, 0.00, 0.36, 98, 2.900, 1.100, -131.900, 250, 100, 100, 15, 22547, -24405, 5455, 5567, 7, 14, 1523817490.467, 92, 0, 1024, 1171, 1024, 1024, 0, 6, 3769, 3762, 3747, 3772, 3820, 3777, 0, 1, 8801, -89.900, 2.200, -133.000, 0.000, 0.000, -3.000, 0.0, , , , , , 99, , , 27, 27, 27
36.7935386, -118.9150100, 10.000, 11:38:10.566, 16, 0.00, 0.40, 98, 2.800, 1.000, -131.900, 250, 100, 100, 15, 22838, -19683, 5455, 5567, 7, 14, 1523817490.567, 73, 0, 1024, 1272, 1024, 1024, 0, 6, 3769, 3762, 3747, 3772, 3820, 3777, 0, 1, 8901, -89.900, 2.500, -133.000, 0.000, 0.000, -3.000, 0.0, , , , , , 99, , , 27, 27, 27
36.7935384, -118.9150097, 10.300, 11:38:10.666, 16, 0.00, 0.44, 98, 2.700, 0.600, -132.100, 250, 100, 100, 15, 22838, -19683, 5455, 5567, 7, 14, 1523817490.667, 64, 0, 1024, 1278, 1024, 1024, 0, 6, 3769, 3762, 3747, 3772, 3820, 3777, 0, 1, 9001, -89.900, 3.400, -133.000, 0.000, 0.000, -3.000, 0.0, , , , , , 99, , , 27, 27, 27
36.7935381, -118.9150094, 10.600, 11:38:10.766, 16, 0.00, 0.47, 98, 3.200, 0.700, -132.200, 250, 100, 100, 15, 22838, -19683, 5455, 5567, 7, 14, 1523817490.767, 78, 0, 1024, 1296, 1024, 1024, 0, 6, 3769, 3762, 3747, 3772, 3820, 3777, 0, 1, 9102, -89.900, 4.600, -133.000, 0.000, 0.000, -3.000, 0.0, , , , , , 99, , , 27, 27, 27
36.7935379, -118.9150091, 10.900, 11:38:10.866, 16, 0.00, 0.50, 98, 4.000, 0.700, -132.300, 250, 100, 100, 15, 22838, -19683, 5455, 5567, 7, 14, 1523817490.867, 75, 0, 1024, 1333, 1024, 1024, 0, 6, 3769, 3762, 3747, 3772, 3820, 3777, 0, 1, 9202, -89.900, 5.200, -133.000, 0.000, 0.000, -3.000, 0.0, , , , , , 99, , , 27, 27, 27
36.7935378, -118.9150088, 11.300, 11:38:10.966, 16, 0.00, 0.53, 98, 4.200, 0.700, -132.400, 250, 100, 100, 15, 22838, -19683, 5455, 5567, 7, 14, 1523817490.967, 45, 0, 1024, 1285, 1024, 1024, 0, 6, 3769, 3762, 3747, 3772, 3820, 3777, 0, 1, 9301, -89.900, 6.000, -133.000, 0.000, 0.000, -3.000, 0.0, , , , , , 99, , , 27, 27, 27
36.7935377, -118.9150084, 11.600, 11:38:11.066, 15, 0.00, 0.56, 98, 4.100, 0.500, -132.400, 250, 100, 100, 15, 22838, -19683, 5455, 5567, 7, 14, 1523817491.067, 58, 0, 1024, 1296, 1024, 1024, 0, 6, 3808, 3798, 3772, 3806, 3850, 3821, 0, 1, 9401, -89.900, 6.000, -133.000, 0.000, 0.000, -3.000, 0.0, , , , , , 99, , , 27, 27, 27
36.7935375, -118.9150083, 11.900, 11:38:11.166, 15, 0.00, 0.58, 98, 3.900, 0.400, -132.400, 250, 100, 100, 15, 22838, -19683, 5455, 5567, 7, 14, 1523817491.167, 25, 0, 1024, 1299, 1024, 1024, 0, 6, 3808, 3798, 3772, 3806, 3850, 3821, 0, 1, 9501, -89.900, 5.700, -133.000, 0.000, 0.000, -2.900, 0.0, , , , , , 99, , , 27, 27, 27
36.7935374, -118.9150081, 12.200, 11:38:11.266, 15, 0.00, 0.60, 98, 3.600, 0.500, -132.300, 250, 100, 100, 15, 22838, -19683, 5455, 5567, 7, 14, 1523817491.266, 39, 0, 1024, 1298, 1024, 1024, 0, 6, 3808, 3798, 3772, 3806, 3850, 3821, 0, 1, 9601, -89.900, 5.800, -133.000, 0.000, 0.000, -2.900, 0.0, , , , , , 99, , , 27, 27, 27
36.7935373, -118.9150079, 12.400, 11:38:11.366, 15, 0.10, 0.62, 98, 3.300, 0.600, -132.200, 250, 100, 100, 15, 22838, -19683, 5455, 5567, 7, 14, 1523817491.366, 23, 0, 1024, 1298, 1024, 1024, 0, 6, 3808, 3798, 3772, 3806, 3850, 3821, 0, 1, 9701, -89.900, 5.800, -133.000, 0.100, 0.000, -2.800, 0.0, , , , , , 99, , , 27, 27, 27
36.7935372, -118.9150078, 12.700, 11:38:11.466, 16, 0.10, 0.64, 98, 3.300, 0.500, -132.100, 250, 100, 100, 15, 22838, -19683, 5455, 5567, 7, 14, 1523817491.466, 29, 0, 1024, 1252, 1024, 1024, 0, 6, 3808, 3798, 3772, 3806, 3850, 3821, 0, 1, 9800, -89.900, 5.800, -133.000, 0.100, 0.000, -2.900, 0.0, , , , , , 99, , , 27, 27, 27
36.7935371, -118.9150076, 13.400, 11:38:11.566, 15, 0.10, 0.65, 98, 3.500, 0.600, -131.900, 250, 100, 100, 16, 22838, -19683, 5455, 5567, 7, 14, 1523817491.567, 26, 0, 1024, 1260, 1024, 1024, 0, 6, 3808, 3798, 3772, 3806, 3850, 3821, 0, 1, 9902, -89.900, 5.000, -133.000, 0.100, 0.000, -2.900, 0.0, , , , , , 99, , , 27, 27, 27
36.7935371, -118.9150076, 13.600, 11:38:11.666, 15, 0.10, 0.65, 98, 3.300, 0.700, -131.900, 250, 100, 100, 16, 22838, -19683, 5455, 5567, 7, 14, 1523817491.667, 25, 0, 1024, 1235, 1024, 1024, 0, 6, 3808, 3798, 3772, 3806, 3850, 3821, 0, 1, 10001, -89.900, 4.800, -133.000, 0.100, 0.000, -2.900, 0.0, , , , , , 99, , , 27, 27, 27
36.7935371, -118.9150076, 13.600, 11:38:11.766, 15, 0.10, 0.65, 98, 3.300, 0.700, -131.900, 250, 100, 100, 16, 22838, -19683, 5455, 5567, 7, 14, 1523817491.767, 126, 0, 1024, 1226, 1024, 1024, 0, 6, 3808, 3798, 3772, 3806, 3850, 3821, 0, 1, 10101, -89.900, 4.800, -133.000, 0.100, 0.000, -2.900, 0.0, , , , , , 99, , , 27, 27, 27
36.7935373, -118.9150076, 14.200, 11:38:11.866, 16, 0.22, 0.64, 98, 2.200, 0.700, -131.800, 250, 100, 100, 16, 22838, -19683, 5455, 5567, 7, 14, 1523817491.866, 32, 0, 1024, 1210, 1024, 1024, 0, 6, 3808, 3798, 3772, 3806, 3850, 3821, 0, 1, 10200, -89.900, 4.100, -133.000, 0.200, -0.100, -2.900, 0.0, , , , , , 99, , , 27, 27, 27
36.7935373, -118.9150076, 14.200, 11:38:11.966, 16, 0.22, 0.64, 98, 2.200, 0.700, -131.800, 250, 100, 100, 16, 22838, -19683, 5455, 5567, 7, 14, 1523817491.967, 133, 0, 1024, 1210, 1024, 1024, 0, 6, 3808, 3798, 3772, 3806, 3850, 3821, 0, 1, 10301, -89.900, 4.100, -133.000, 0.200, -0.100, -2.900, 0.0, , , , , , 99, , , 27, 27, 27
36.7935374, -118.9150077, 14.800, 11:38:12.066, 16, 0.22, 0.62, 98, 1.900, 0.800, -132.000, 250, 100, 100, 16, 22864, -19554, 5455, 5567, 7, 14, 1523817492.067, 23, 0, 1024, 1050, 1024, 1024, 0, 6, 3819, 3789, 3768, 3808, 3856, 3811, 0, 1, 10401, -89.900, 2.400, -133.000, 0.200, -0.100, -2.900, 0.0, , , , , , 99, , , 27, 27, 27
36.7935375, -118.9150078, 15.100, 11:38:12.166, 15, 0.22, 0.61, 98, 1.600, 0.800, -132.100, 250, 100, 100, 16, 22864, -19554, 5455, 5567, 7, 14, 1523817492.166, 15, 0, 1024, 1024, 1024, 1024, 0, 6, 3819, 3789, 3768, 3808, 3856, 3811, 0, 1, 10501, -89.900, 0.900, -133.000, 0.200, -0.100, -2.900, 0.0, , , , , , 99, , , 27, 27, 27
36.7935376, -118.9150079, 15.400, 11:38:12.271, 15, 0.22, 0.59, 98, 1.100, 0.700, -132.100, 250, 100, 100, 16, 22864, -19554, 5455, 5567, 7, 14, 1523817492.272, 7, 0, 1024, 1024, 1024, 1024, 0, 6, 3819, 3789, 3768, 3808, 3856, 3811, 0, 1, 10606, -89.900, 0.300, -133.000, 0.200, -0.100, -2.900, 0.0, , , , , , 99, , , 27, 27, 27
36.7935377, -118.9150081, 15.700, 11:38:12.366, 15, 0.22, 0.57, 98, 0.600, 0.700, -132.000, 250, 100, 100, 16, 22864, -19554, 5455, 5567, 7, 14, 1523817492.367, 27, 0, 1024, 1024, 1024, 1024, 0, 6, 3819, 3789, 3768, 3808, 3856, 3811, 0, 1, 10701, -89.900, 0.100, -133.000, 0.200, -0.100, -3.000, 0.0, , , , , , 99, , , 27, 27, 27
36.7935379, -118.9150083, 16.000, 11:38:12.466, 15, 0.22, 0.55, 98, 0.100, 0.700, -132.000, 250, 100, 100, 16, 22864, -19554, 5455, 5567, 7, 14, 1523817492.467, 20, 0, 1024, 1024, 1024, 1024, 0, 6, 3819, 3789, 3768, 3808, 3856, 3811, 0, 1, 10801, -89.900, 0.000, -133.000, 0.200, -0.100, -2.900, 0.0, , , , , , 99, , , 27, 27, 27
36.7935380, -118.9150085, 16.300, 11:38:12.566, 15, 0.22, 0.53, 98, -0.300, 0.600, -131.900, 250, 100, 99, 16, 22864, -19554, 5455, 5567, 7, 14, 1523817492.567, 19, 0, 1024, 1024, 1024, 1024, 0, 6, 3819, 3789, 3768, 3808, 3856, 3811, 0, 1, 10901, -89.900, 0.000, -133.000, 0.200, -0.100, -3.000, 0.0, , , , , , 99, , , 27, 27, 27
36.7935380, -118.9150085, 16.300, 11:38:12.666, 15, 0.22, 0.53, 98, -0.300, 0.600, -131.900, 250, 100, 99, 16, 22864, -19554, 5455, 5567, 7, 14, 1523817492.667, 119, 0, 1024, 1024, 1024, 1024, 0, 6, 3819, 3789, 3768, 3808, 3856, 3811, 0, 1, 11001, -89.900, 0.000, -133.000, 0.200, -0.100, -3.000, 0.0, , , , , , 99, , , 27, 27, 27
36.7935382, -118.9150087, 16.600, 11:38:12.766, 15, 0.22, 0.50, 98, -0.500, 0.800, -131.800, 250, 100, 99, 16, 22864, -19554, 5455, 5567, 7, 14, 1523817492.767, 86, 0, 1024, 1024, 1024, 1024, 0, 6, 3819, 3789, 3768, 3808, 3856, 3811, 0, 1, 11101, -89.900, 0.000, -133.000, 0.200, -0.100, -2.900, 0.0, , , , , , 99, , , 27, 27, 27
36.7935383, -118.9150088, 16.900, 11:38:12.866, 15, 0.22, 0.48, 98, -0.400, 1.200, -131.800, 250, 100, 99, 16, 22864, -19554, 5455, 5567, 7, 14, 1523817492.867, 88, 0, 1024, 1024, 1024, 1024, 0, 6, 3819, 3789, 3768, 3808, 3856, 3811, 0, 1, 11201, -89.900, 0.000, -133.000, 0.200, -0.100, -2.900, 0.0, , , , , , 99, , , 27, 27, 27
36.7935384, -118.9150091, 17.200, 11:38:12.966, 15, 0.14, 0.46, 98, -0.300, 1.500, -131.800, 250, 100, 99, 16, 22864, -19554, 5455, 5567, 7, 14, 1523817492.967, 75, 0, 1024, 1024, 1024, 1024, 0, 6, 3819, 3789, 3768, 3808, 3856, 3811, 0, 1, 11301, -89.900, 0.000, -133.000, 0.100, -0.100, -3.000, 0.0, , , , , , 99, , , 27, 27, 27
36.7935385, -118.9150092, 17.500, 11:38:13.066, 15, 0.14, 0.44, 98, -0.100, 1.700, -131.900, 250, 100, 99, 16, 22738, -20609, 5455, 5567, 7, 14, 1523817493.067, 89, 0, 1024, 1024, 1024, 1024, 0, 6, 3793, 3772, 3739, 3783, 3830, 3793, 0, 1, 11401, -89.900, 0.000, -133.000, 0.100, -0.100, -3.000, 0.0, , , , , , 99, , , 27, 27, 27
36.7935386, -118.9150093, 17.800, 11:38:13.166, 15, 0.14, 0.43, 98, 0.400, 1.600, -132.000, 250, 100, 99, 16, 22738, -20609, 5455, 5567, 7, 14, 1523817493.167, 74, 0, 1024, 1024, 1024, 1024, 0, 6, 3793, 3772, 3739, 3783, 3830, 3793, 0, 1, 11502, -89.900, 0.000, -133.000, 0.100, -0.100, -3.000, 0.0, , , , , , 99, , , 27, 27, 27
36.7935387, -118.9150094, 18.100, 11:38:13.266, 16, 0.14, 0.42, 98, 0.500, 1.300, -132.100, 250, 100, 99, 16, 22738, -20609, 5455, 5567, 7, 14, 1523817493.267, 73, 0, 1024, 1024, 1024, 1024, 0, 6, 3793, 3772, 3739, 3783, 3830, 3793, 0, 1, 11601, -89.900, 0.000, -133.000, 0.100, -0.100, -3.000, 0.0, , , , , , 99, , , 27, 27, 27
36.7935389, -118.9150096, 18.500, 11:38:13.366, 16, 0.22, 0.39, 98, 0.300, 1.000, -132.100, 250, 100, 99, 16, 22738, -20609, 5455, 5567, 7, 14, 1523817493.367, 55, 0, 1024, 1024, 1024, 1024, 0, 6, 3793, 3772, 3739, 3783, 3830, 3793, 0, 1, 11702, -89.900, 0.000, -133.000, 0.200, -0.100, -3.000, 0.0, , , , , , 99, , , 27, 27, 27
36.7935390, -118.9150098, 18.800, 11:38:13.466, 16, 0.22, 0.37, 98, 0.200, 0.900, -132.000, 250, 100, 99, 16, 22738, -20609, 5455, 5567, 7, 14, 1523817493.467, 72, 0, 1024, 1024, 1024, 1024, 0, 6, 3793, 3772, 3739, 3783, 3830, 3793, 0, 1, 11801, -90.000, 0.000, -133.000, 0.200, -0.100, -2.900, 0.0, , , , , , 99, , , 27, 27, 27
36.7935392, -118.9150100, 19.000, 11:38:13.567, 16, 0.22, 0.34, 98, 0.000, 0.800, -132.000, 250, 100, 99, 16, 22738, -20609, 5455, 5567, 7, 14, 1523817493.567, 80, 0, 1024, 1024, 1024, 1024, 0, 6, 3793, 3772, 3739, 3783, 3830, 3793, 0, 1, 11902, -90.000, 0.000, -133.000, 0.200, -0.100, -2.900, 0.0, , , , , , 99, , , 27, 27, 27
36.7935394, -118.9150101, 19.300, 11:38:13.666, 16, 0.22, 0.32, 98, -0.100, 0.900, -131.900, 250, 100, 99, 16, 22738, -20609, 5455, 5567, 7, 14, 1523817493.667, 76, 0, 1024, 1024, 1024, 1024, 0, 6, 3793, 3772, 3739, 3783, 3830, 3793, 0, 1, 12001, -89.900, 0.000, -133.000, 0.200, -0.100, -2.900, 0.0, , , , , , 99, , , 27, 27, 27
36.7935395, -118.9150103, 19.600, 11:38:13.766, 16, 0.22, 0.30, 98, -0.600, 1.000, -131.900, 250, 100, 99, 16, 22738, -20609, 5455, 5567, 7, 14, 1523817493.767, 67, 0, 1024, 1024, 1024, 1024, 0, 6, 3793, 3772, 3739, 3783, 3830, 3793, 0, 1, 12101, -90.000, 0.000, -133.000, 0.200, -0.100, -2.900, 0.0, , , , , , 99, , , 27, 27, 27
36.7935397, -118.9150104, 19.900, 11:38:13.866, 16, 0.10, 0.28, 98, -1.000, 0.900, -131.900, 250, 100, 99, 16, 22738, -20609, 5455, 5567, 7, 14, 1523817493.867, 52, 0, 1024, 1024, 1024, 1024, 0, 6, 3793, 3772, 3739, 3783, 3830, 3793, 0, 1, 12201, -89.900, 0.000, -133.000, 0.100, 0.000, -3.000, 0.0, , , , , , 99, , , 27, 27, 27
36.7935398, -118.9150106, 20.200, 11:38:13.966, 16, 0.10, 0.26, 98, -1.300, 0.900, -131.900, 250, 100, 99, 16, 22738, -20609, 5455, 5567, 7, 14, 1523817493.967, 27, 0, 1024, 1024, 1024, 1024, 0, 6, 3793, 3772, 3739, 3783, 3830, 3793, 0, 1, 12301, -90.000, 0.000, -133.000, 0.100, 0.000, -3.000, 0.0, , , , , , 99, , , 27, 27, 27
36.7935400, -118.9150107, 20.600, 11:38:14.066, 16, 0.10, 0.24, 98, -1.500, 0.800, -131.900, 250, 100, 99, 16, 22636, -20823, 5455, 5567, 7, 14, 1523817494.067, 42, 0, 1024, 1024, 1024, 1024, 0, 6, 3777, 3754, 3742, 3770, 3811, 3782, 0, 1, 12401, -90.000, 0.000, -133.000, 0.100, 0.000, -3.000, 0.0, , , , , , 99, , , 27, 27, 27
36.7935401, -118.9150108, 20.900, 11:38:14.166, 16, 0.10, 0.22, 98, -1.200, 0.600, -132.000, 250, 100, 100, 16, 22636, -20823, 5455, 5567, 7, 14, 1523817494.166, 11, 0, 1024, 1024, 1024, 1024, 0, 6, 3777, 3754, 3742, 3770, 3811, 3782, 0, 1, 12500, -90.000, 0.000, -133.000, 0.100, 0.000, -3.000, 0.0, , , , , , 99, , , 27, 27, 27
36.7935402, -118.9150109, 21.200, 11:38:14.266, 16, 0.10, 0.21, 98, -1.000, 0.500, -132.000, 250, 100, 100, 16, 22636, -20823, 5455, 5567, 7, 14, 1523817494.267, 38, 0, 1024, 1024, 1024, 1024, 0, 6, 3777, 3754, 3742, 3770, 3811, 3782, 0, 1, 12601, -90.000, 0.000, -133.000, 0.100, 0.000, -3.000, 0.0, , , , , , 99, , , 27, 27, 27
36.7935404, -118.9150111, 21.800, 11:38:14.371, 16, 0.00, 0.18, 98, -0.800, 1.000, -132.000, 250, 100, 100, 16, 22636, -20823, 5455, 5567, 7, 14, 1523817494.372, 5, 0, 1024, 1024, 1024, 1024, 0, 6, 3777, 3754, 3742, 3770, 3811, 3782, 0, 1, 12706, -89.900, 0.000, -133.000, 0.000, 0.000, -2.900, 0.0, , , , , , 99, , , 27, 27, 27
36.7935404, -118.9150111, 21.800, 11:38:14.466, 16, 0.00, 0.18, 98, -0.800, 1.000, -132.000, 250, 100, 100, 16, 22636, -20823, 5455, 5567, 7, 14, 1523817494.467, 100, 0, 1024, 1024, 1024, 1024, 0, 6, 3777, 3754, 3742, 3770, 3811, 3782, 0, 1, 12801, -89.900, 0.000, -133.000, 0.000, 0.000, -2.900, 0.0, , , , , , 99, , , 27, 27, 27
36.7935405, -118.9150113, 22.400, 11:38:14.566, 16, 0.00, 0.16, 98, -0.400, 1.400, -132.100, 250, 100, 100, 16, 22636, -20823, 5455, 5567, 7, 14, 1523817494.567, 22, 0, 1024, 1024, 1024, 1024, 0, 6, 3777, 3754, 3742, 3770, 3811, 3782, 0, 1, 12901, -89.900, 0.000, -133.000, 0.000, 0.000, -3.000, 0.0, , , , , , 99, , , 27, 27, 27
36.7935406, -118.9150114, 22.700, 11:38:14.666, 16, 0.00, 0.15, 98, -0.500, 1.300, -132.100, 250, 100, 100, 16, 22636, -20823, 5455, 5567, 7, 14, 1523817494.666, 15, 0, 1024, 1024, 1024, 1024, 0, 6, 3777, 3754, 3742, 3770, 3811, 3782, 0, 1, 13000, -89.900, 0.000, -133.000, 0.000, 0.000, -3.000, 0.0, , , , , , 99, , , 27, 27, 27
36.7935406, -118.9150114, 22.700, 11:38:14.766, 16, 0.00, 0.15, 98, -0.500, 1.300, -132.100, 250, 100, 100, 16, 22636, -20823, 5455, 5567, 7, 14, 1523817494.767, 116, 0, 1024, 1024, 1024, 1024, 0, 6, 3777, 3754, 3742, 3770, 3811, 3782, 0, 1, 13101, -89.900, 0.000, -133.000, 0.000, 0.000, -3.000, 0.0, , , , , , 99, , , 27, 27, 27
36.7935408, -118.9150115, 23.300, 11:38:14.871, 16, 0.10, 0.13, 98, -0.900, 1.000, -132.000, 250, 100, 100, 16, 22636, -20823, 5455, 5567, 7, 14, 1523817494.872, 8, 0, 1024, 1024, 1024, 1024, 0, 6, 3777, 3754, 3742, 3770, 3811, 3782, 0, 1, 13206, -90.000, 0.000, -133.000, 0.100, 0.000, -2.900, 0.0, , , , , , 99, , , 27, 27, 27
36.7935409, -118.9150116, 23.600, 11:38:14.968, 16, 0.00, 0.11, 98, -1.400, 0.800, -132.000, 250, 100, 100, 16, 22629, -20611, 5455, 5567, 7, 14, 1523817494.969, 8, 0, 1024, 1024, 1024, 1024, 0, 6, 3777, 3754, 3742, 3770, 3811, 3782, 0, 1, 13303, -90.000, 0.000, -133.000, 0.000, 0.000, -2.900, 0.0, , , , , , 99, , , 27, 27, 27
36.7935410, -118.9150117, 23.900, 11:38:15.080, 16, 0.00, 0.10, 98, -1.900, 0.700, -132.100, 250, 100, 99, 16, 22629, -20611, 5455, 5567, 7, 14, 1523817495.081, 14, 0, 1024, 1024, 1024, 1024, 0, 6, 3781, 3763, 3732, 3773, 3819, 3780, 0, 1, 13415, -90.000, 0.000, -133.000, 0.000, 0.000, -2.900, 0.0, , , , , , 99, , , 27, 27, 27
36.7935410, -118.9150117, 23.900, 11:38:15.166, 16, 0.00, 0.10, 98, -1.900, 0.700, -132.100, 250, 100, 99, 16, 22629, -20611, 5455, 5567, 7, 14, 1523817495.167, 100, 0, 1024, 1024, 1024, 1024, 0, 6, 3781, 3763, 3732, 3773, 3819, 3780, 0, 1, 13501, -90.000, 0.000, -133.000, 0.000, 0.000, -2.900, 0.0, , , , , , 99, , , 27, 27, 27
36.7935410, -118.9150117, 23.900, 11:38:15.266, 16, 0.00, 0.10, 98, -1.900, 0.700, -132.100, 250, 100, 99, 16, 22629, -20611, 5455, 5567, 7, 14, 1523817495.266, 199, 0, 1024, 1024, 1024, 1024, 0, 6, 3781, 3763, 3732, 3773, 3819, 3780, 0, 1, 13600, -90.000, 0.000, -133.000, 0.000, 0.000, -2.900, 0.0, , , , , , 99, , , 27, 27, 27
36.7935411, -118.9150117, 24.800, 11:38:15.392, 16, 0.00, 0.09, 98, -1.000, 0.500, -132.300, 250, 100, 99, 16, 22629, -20611, 5455, 5567, 7, 14, 1523817495.392, 5, 0, 1024, 1024, 1024, 1024, 0, 6, 3781, 3763, 3732, 3773, 3819, 3780, 0, 1, 13727, -90.000, 0.000, -133.000, 0.000, 0.000, -2.900, 0.0, , , , , , 99, , , 27, 27, 27
36.7935411, -118.9150117, 24.800, 11:38:15.466, 16, 0.00, 0.09, 98, -1.000, 0.500, -132.300, 250, 100, 99, 16, 22629, -20611, 5455, 5567, 7, 14, 1523817495.467, 80, 0, 1024, 1024, 1024, 1024, 0, 6, 3781, 3763, 3732, 3773, 3819, 3780, 0, 1, 13801, -90.000, 0.000, -133.000, 0.000, 0.000, -2.900, 0.0, , , , , , 99, , , 27, 27, 27
36.7935411, -118.9150117, 25.100, 11:38:15.566, 16, 0.00, 0.08, 98, -0.800, 0.400, -132.300, 250, 100, 99, 16, 22629, -20611, 5455, 5567, 7, 14, 1523817495.567, 79, 0, 1024, 1024, 1024, 1024, 0, 6, 3781, 3763, 3732, 3773, 3819, 3780, 0, 1, 13901, -90.000, 0.000, -133.000, 0.000, 0.000, -2.900, 0.0, , , , , , 99, , , 27, 27, 27
36.7935412, -118.9150117, 25.400, 11:38:15.666, 16, 0.00, 0.08, 98, -0.600, 0.500, -132.300, 250, 100, 97, 16, 22629, -20611, 5455, 5567, 7, 14, 1523817495.667, 96, 0, 1024, 1024, 1024, 1024, 0, 6, 3781, 3763, 3732, 3773, 3819, 3780, 0, 1, 14001, -90.000, 0.000, -133.000, 0.000, 0.000, -2.900, 0.0, , , , , , 99, , , 27, 27, 27
36.7935411, -118.9150117, 25.700, 11:38:15.766, 16, 0.00, 0.08, 98, -0.600, 0.700, -132.200, 250, 100, 97, 16, 22629, -20611, 5455, 5567, 7, 14, 1523817495.767, 96, 0, 1024, 1024, 1024, 1024, 0, 6, 3781, 3763, 3732, 3773, 3819, 3780, 0, 1, 14102, -89.900, 0.000, -133.000, 0.000, 0.000, -2.800, 0.0, , , , , , 99, , , 27, 27, 27
36.7935411, -118.9150117, 26.000, 11:38:15.866, 16, 0.00, 0.09, 98, -0.500, 1.000, -132.100, 250, 100, 97, 16, 22629, -20611, 5455, 5567, 7, 14, 1523817495.867, 77, 0, 1024, 1024, 1024, 1024, 0, 6, 3781, 3763, 3732, 3773, 3819, 3780, 0, 1, 14201, -89.900, 0.000, -133.000, 0.000, 0.000, -2.900, 0.0, , , , , , 99, , , 27, 27, 27
36.7935411, -118.9150118, 26.200, 11:38:15.966, 16, 0.00, 0.09, 98, -0.600, 1.400, -132.100, 250, 100, 97, 16, 22629, -20611, 5455, 5567, 7, 14, 1523817495.967, 85, 0, 1024, 1024, 1024, 1024, 0, 6, 3781, 3763, 3732, 3773, 3819, 3780, 0, 1, 14301, -89.900, 0.000, -133.000, 0.000, 0.000, -2.900, 0.0, , , , , , 99, , , 27, 27, 27
36.7935411, -118.9150118, 26.600, 11:38:16.066, 17, 0.00, 0.09, 98, -0.600, 1.600, -132.100, 250, 100, 97, 16, 22642, -20102, 5455, 5567, 7, 14, 1523817496.067, 65, 0, 1024, 1024, 1024, 1024, 0, 6, 3781, 3763, 3732, 3773, 3819, 3780, 0, 1, 14401, -89.900, 0.000, -133.000, 0.000, 0.000, -3.000, 0.0, , , , , , 99, , , 27, 27, 27
36.7935410, -118.9150117, 26.800, 11:38:16.166, 17, 0.00, 0.10, 98, -0.500, 1.500, -132.200, 250, 100, 98, 16, 22642, -20102, 5455, 5567, 7, 14, 1523817496.167, 25, 0, 1024, 1024, 1024, 1024, 0, 6, 3781, 3763, 3732, 3773, 3819, 3780, 0, 1, 14501, -89.900, 0.000, -133.000, 0.000, 0.000, -2.900, 0.0, , , , , , 99, , , 27, 27, 27
36.7935410, -118.9150117, 27.200, 11:38:16.266, 17, 0.00, 0.10, 98, -0.200, 1.500, -132.200, 250, 100, 98, 16, 22642, -20102, 5455, 5567, 7, 14, 1523817496.267, 66, 0, 1024, 1024, 1024, 1024, 0, 6, 3781, 3763, 3732, 3773, 3819, 3780, 0, 1, 14601, -89.900, 0.000, -133.000, 0.000, 0.000, -3.000, 0.0, , , , , , 99, , , 27, 27, 27
36.7935409, -118.9150117, 27.500, 11:38:16.366, 17, 0.00, 0.11, 98, -0.100, 1.500, -132.200, 250, 100, 98, 16, 22642, -20102, 5455, 5567, 7, 14, 1523817496.366, 68, 0, 1024, 1024, 1024, 1024, 0, 6, 3781, 3763, 3732, 3773, 3819, 3780, 0, 1, 14700, -89.900, 0.000, -133.000, 0.000, 0.000, -3.000, 0.0, , , , , , 99, , , 27, 27, 27
36.7935409, -118.9150116, 27.800, 11:38:16.466, 17, 0.00, 0.11, 98, 0.000, 1.600, -132.300, 250, 100, 98, 16, 22642, -20102, 5455, 5567, 7, 14, 1523817496.466, 11, 0, 1024, 1024, 1024, 1024, 0, 6, 3781, 3763, 3732, 3773, 3819, 3780, 0, 1, 14801, -89.900, 0.000, -133.000, 0.000, 0.000, -3.000, 0.0, , , , , , 99, , , 27, 27, 27
36.7935408, -118.9150116, 28.100, 11:38:16.566, 17, 0.00, 0.12, 98, 0.200, 1.700, -132.200, 250, 100, 98, 16, 22642, -20102, 5455, 5567, 7, 14, 1523817496.567, 36, 0, 1024, 1024, 1024, 1024, 0, 6, 3774, 3756, 3738, 3770, 3829, 3786, 0, 1, 14902, -89.900, 0.000, -133.000, 0.000, 0.000, -3.000, 0.0, , , , , , 99, , , 27, 27, 27
36.7935407, -118.9150116, 28.400, 11:38:16.666, 17, 0.00, 0.13, 98, 0.300, 1.600, -132.200, 250, 100, 98, 16, 22642, -20102, 5455, 5567, 7, 14, 1523817496.667, 38, 0, 1024, 1024, 1024, 1024, 0, 6, 3774, 3756, 3738, 3770, 3829, 3786, 0, 1, 15001, -89.900, 0.000, -133.000, 0.000, 0.000, -3.000, 0.0, , , , , , 99, , , 27, 27, 27
36.7935407, -118.9150116, 28.700, 11:38:16.766, 17, 0.00, 0.13, 98, 0.200, 1.500, -132.100, 250, 100, 98, 16, 22642, -20102, 5455, 5567, 7, 14, 1523817496.766, 25, 0, 1024, 1024, 1024, 1024, 0, 6, 3774, 3756, 3738, 3770, 3829, 3786, 0, 1, 15100, -89.900, 0.000, -133.000, 0.000, 0.000, -3.000, 0.0, , , , , , 99, , , 27, 27, 27
36.7935406, -118.9150115, 29.000, 11:38:16.866, 17, 0.00, 0.14, 98, 0.000, 1.500, -132.000, 250, 100, 98, 16, 22642, -20102, 5455, 5567, 7, 14, 1523817496.867, 24, 0, 1024, 1024, 1024, 1024, 0, 6, 3774, 3756, 3738, 3770, 3829, 3786, 0, 1, 15201, -89.900, 0.000, -133.000, 0.000, 0.000, -3.000, 0.0, , , , , , 99, , , 27, 27, 27
36.7935406, -118.9150115, 29.000, 11:38:16.966, 17, 0.00, 0.14, 98, 0.000, 1.500, -132.000, 250, 100, 98, 16, 22642, -20102, 5455, 5567, 7, 14, 1523817496.967, 124, 0, 1024, 1024, 1024, 1024, 0, 6, 3774, 3756, 3738, 3770, 3829, 3786, 0, 1, 15301, -89.900, 0.000, -133.000, 0.000, 0.000, -3.000, 0.0, , , , , , 99, , , 27, 27, 27
36.7935405, -118.9150114, 29.600, 11:38:17.080, 17, 0.00, 0.16, 98, 0.100, 1.600, -132.000, 250, 100, 98, 16, 22642, -20102, 5455, 5567, 7, 14, 1523817497.080, 14, 0, 1024, 1024, 1024, 1024, 0, 6, 3774, 3756, 3738, 3770, 3829, 3786, 0, 1, 15414, -89.900, 0.000, -133.000, 0.000, 0.000, -2.900, 0.0, , , , , , 99, , , 27, 27, 27
36.7935404, -118.9150113, 30.200, 11:38:17.166, 17, 0.00, 0.18, 98, 0.600, 1.500, -132.100, 250, 100, 98, 16, 22642, -20102, 5455, 5567, 7, 14, 1523817497.166, 20, 0, 1024, 1024, 1024, 1024, 0, 6, 3774, 3756, 3738, 3770, 3829, 3786, 0, 1, 15501, -89.900, 0.000, -133.000, 0.000, 0.000, -2.900, 0.0, , , , , , 99, , , 27, 27, 27
36.7935403, -118.9150112, 30.500, 11:38:17.266, 17, 0.00, 0.19, 98, 0.600, 1.400, -132.200, 250, 100, 98, 16, 22642, -20102, 5455, 5567, 7, 14, 1523817497.266, 12, 0, 1024, 1024, 1024, 1024, 0, 6, 3774, 3756, 3738, 3770, 3829, 3786, 0, 1, 15601, -90.000, 0.000, -133.000, 0.000, 0.000, -2.800, 0.0, , , , , , 99, , , 27, 27, 27
36.7935402, -118.9150112, 30.800, 11:38:17.376, 17, 0.00, 0.19, 98, 0.300, 1.300, -132.200, 250, 100, 98, 16, 22642, -20102, 5455, 5567, 7, 14, 1523817497.377, 15, 0, 1024, 1024, 1024, 1024, 0, 6, 3774, 3756, 3738, 3770, 3829, 3786, 0, 1, 15711, -89.900, 0.000, -133.000, 0.000, 0.000, -2.900, 0.0, , , , , , 99, , , 27, 27, 27
36.7935402, -118.9150112, 30.800, 11:38:17.467, 17, 0.00, 0.19, 98, 0.300, 1.300, -132.200, 250, 100, 98, 16, 22642, -20102, 5455, 5567, 7, 14, 1523817497.467, 106, 0, 1024, 1024, 1024, 1024, 0, 6, 3774, 3756, 3738, 3770, 3829, 3786, 0, 1, 15802, -89.900, 0.000, -133.000, 0.000, 0.000, -2.900, 0.0, , , , , , 99, , , 27, 27, 27
36.7935402, -118.9150111, 31.100, 11:38:17.566, 17, 0.00, 0.20, 98, 0.100, 1.500, -132.200, 250, 100, 98, 16, 22642, -20102, 5455, 5567, 7, 14, 1523817497.566, 93, 0, 1024, 1024, 1024, 1024, 0, 6, 3774, 3756, 3738, 3770, 3829, 3786, 0, 1, 15900, -89.900, 0.000, -133.000, 0.000, 0.000, -2.900, 0.0, , , , , , 99, , , 27, 27, 27
36.7935401, -118.9150111, 31.400, 11:38:17.666, 17, 0.00, 0.21, 98, 0.100, 1.800, -132.100, 250, 100, 96, 16, 22642, -20102, 5455, 5567, 7, 14, 1523817497.667, 68, 0, 1024, 1024, 1024, 1024, 0, 6, 3774, 3756, 3738, 3770, 3829, 3786, 0, 1, 16001, -89.900, 0.000, -133.000, 0.000, 0.000, -2.900, 0.0, , , , , , 99, , , 27, 27, 27
36.7935400, -118.9150110, 32.000, 11:38:17.768, 17, 0.00, 0.22, 98, 0.200, 1.600, -132.100, 250, 100, 96, 16, 22642, -20102, 5455, 5567, 7, 14, 1523817497.769, 4, 0, 1024, 1024, 1024, 1024, 0, 6, 3774, 3756, 3738, 3770, 3829, 3786, 0, 1, 16103, -89.900, 0.000, -133.000, 0.000, 0.000, -2.900, 0.0, , , , , , 99, , , 27, 27, 27
36.7935400, -118.9150110, 32.000, 11:38:17.866, 17, 0.00, 0.22, 98, 0.200, 1.600, -132.100, 250, 100, 96, 16, 22642, -20102, 5455, 5567, 7, 14, 1523817497.867, 102, 0, 1024, 1024, 1024, 1024, 0, 6, 3774, 3756, 3738, 3770, 3829, 3786, 0, 1, 16201, -89.900, 0.000, -133.000, 0.000, 0.000, -2.900, 0.0, , , , , , 99, , , 27, 27, 27
36.7935400, -118.9150110, 32.300, 11:38:17.966, 17, 0.00, 0.22, 98, 0.000, 1.500, -132.100, 250, 100, 96, 16, 22642, -20102, 5455, 5567, 7, 14, 1523817497.966, 65, 0, 1024, 1024, 1024, 1024, 0, 6, 3774, 3756, 3738, 3770, 3829, 3786, 0, 1, 16301, -89.900, 0.000, -133.000, 0.000, 0.000, -2.900, 0.0, , , , , , 99, , , 27, 27, 27
36.7935400, -118.9150109, 32.600, 11:38:18.066, 17, 0.00, 0.23, 97, 0.100, 1.300, -132.300, 250, 100, 96, 16, 22592, -20388, 5399, 5567, 7, 14, 1523817498.067, 85, 0, 1024, 1024, 1024, 1024, 0, 6, 3769, 3741, 3735, 3769, 3816, 3781, 0, 1, 16401, -89.900, 0.000, -133.000, 0.000, 0.000, -2.900, 0.0, , , , , , 99, , , 27, 27, 27
36.7935399, -118.9150109, 32.900, 11:38:18.166, 17, 0.00, 0.24, 97, 0.300, 1.400, -132.400, 250, 100, 96, 16, 22592, -20388, 5399, 5567, 7, 14, 1523817498.167, 74, 0, 1024, 1024, 1024, 1024, 0, 6, 3769, 3741, 3735, 3769, 3816, 3781, 0, 1, 16501, -89.900, 0.000, -133.000, 0.000, 0.000, -2.900, 0.0, , , , , , 99, , , 27, 27, 27
36.7935399, -118.9150108, 33.200, 11:38:18.266, 17, 0.00, 0.24, 97, 0.400, 1.400, -132.500, 250, 100, 96, 16, 22592, -20388, 5399, 5567, 7, 14, 1523817498.267, 72, 0, 1024, 1024, 1024, 1024, 0, 6, 3769, 3741, 3735, 3769, 3816, 3781, 0, 1, 16601, -89.900, 0.000, -133.000, 0.000, 0.000, -2.900, 0.0, , , , , , 99, , , 27, 27, 27
36.7935398, -118.9150108, 33.500, 11:38:18.366, 17, 0.00, 0.25, 97, 0.600, 1.500, -132.400, 250, 100, 96, 16, 22592, -20388, 5399, 5567, 7, 14, 1523817498.366, 69, 0, 1024, 1024, 1024, 1024, 0, 6, 3769, 3741, 3735, 3769, 3816, 3781, 0, 1, 16700, -89.900, 0.000, -133.000, 0.000, 0.000, -2.900, 0.0, , , , , , 99, , , 27, 27, 27
36.7935398, -118.9150107, 33.800, 11:38:18.466, 17, 0.00, 0.25, 97, 0.800, 1.600, -132.200, 250, 100, 96, 16, 22592, -20388, 5399, 5567, 7, 14, 1523817498.467, 71, 0, 1024, 1024, 1024, 1024, 0, 6, 3769, 3741, 3735, 3769, 3816, 3781, 0, 1, 16801, -89.900, 0.000, -133.000, 0.000, 0.000, -2.900, 0.0, , , , , , 99, , , 27, 27, 27
36.7935398, -118.9150107, 33.800, 11:38:18.566, 17, 0.00, 0.25, 97, 0.800, 1.600, -132.200, 250, 100, 96, 16, 22737, -19839, 5399, 5567, 7, 14, 1523817498.567, 171, 0, 1024, 1024, 1024, 1024, 0, 6, 3769, 3741, 3735, 3769, 3816, 3781, 0, 1, 16901, -89.900, 0.000, -133.000, 0.000, 0.000, -2.900, 0.0, , , , , , 99, , , 27, 27, 27
36.7935398, -118.9150106, 34.400, 11:38:18.666, 17, 0.10, 0.25, 97, 0.400, 1.300, -131.700, 250, 100, 97, 16, 22737, -19839, 5399, 5567, 7, 14, 1523817498.666, 55, 0, 1024, 1024, 1024, 1024, 0, 6, 3778, 3758, 3749, 3783, 3830, 3798, 0, 1, 17000, -90.000, 0.000, -133.000, 0.100, 0.000, -3.000, 0.0, , , , , , 99, , , 27, 27, 27
36.7935399, -118.9150106, 34.700, 11:38:18.765, 17, 0.10, 0.25, 97, 0.000, 0.800, -131.600, 250, 100, 97, 16, 22737, -19839, 5399, 5567, 7, 14, 1523817498.766, 36, 0, 1024, 1024, 1024, 1024, 0, 6, 3778, 3758, 3749, 3783, 3830, 3798, 0, 1, 17100, -90.000, 0.000, -133.000, 0.100, 0.000, -2.900, 0.0, , , , , , 99, , , 27, 27, 27
36.7935399, -118.9150106, 35.000, 11:38:18.866, 17, 0.00, 0.25, 97, -0.100, 0.200, -131.600, 250, 100, 97, 16, 22737, -19839, 5399, 5567, 7, 14, 1523817498.867, 40, 0, 1024, 1024, 1024, 1024, 0, 6, 3778, 3758, 3749, 3783, 3830, 3798, 0, 1, 17201, -90.000, 0.000, -133.000, 0.000, 0.000, -2.900, 0.0, , , , , , 99, , , 27, 27, 27
36.7935399, -118.9150105, 35.300, 11:38:18.965, 17, 0.00, 0.25, 97, -0.300, -0.200, -131.900, 250, 100, 97, 16, 22737, -19839, 5399, 5567, 7, 14, 1523817498.966, 49, 0, 1024, 1024, 1024, 1024, 0, 6, 3778, 3758, 3749, 3783, 3830, 3798, 0, 1, 17300, -90.000, 0.000, -133.000, 0.000, 0.000, -3.000, 0.0, , , , , , 99, , , 27, 27, 27
36.7935399, -118.9150105, 35.600, 11:38:19.065, 17, 0.00, 0.25, 97, -0.100, 0.100, -132.200, 250, 100, 97, 16, 22737, -19839, 5399, 5567, 7, 14, 1523817499.066, 35, 0, 1024, 1024, 1024, 1024, 0, 6, 3778, 3758, 3749, 3783, 3830, 3798, 0, 1, 17400, -90.000, 0.000, -133.000, 0.000, 0.000, -2.900, 0.0, , , , , , 99, , , 27, 27, 27
36.7935398, -118.9150105, 35.900, 11:38:19.165, 17, 0.00, 0.26, 97, 0.000, 0.700, -132.500, 250, 100, 97, 16, 22737, -19839, 5399, 5567, 7, 14, 1523817499.166, 27, 0, 1024, 1024, 1024, 1024, 0, 6, 3778, 3758, 3749, 3783, 3830, 3798, 0, 1, 17500, -89.900, 0.000, -133.000, 0.000, 0.000, -2.900, 0.0, , , , , , 99, , , 27, 27, 27
36.7935398, -118.9150105, 36.200, 11:38:19.265, 17, 0.00, 0.26, 97, 0.000, 1.100, -132.700, 250, 100, 97, 16, 22737, -19839, 5399, 5567, 7, 14, 1523817499.266, 20, 0, 1024, 1024, 1024, 1024, 0, 6, 3778, 3758, 3749, 3783, 3830, 3798, 0, 1, 17601, -89.900, 0.000, -133.000, 0.000, 0.000, -2.900, 0.0, , , , , , 99, , , 27, 27, 27
36.7935397, -118.9150105, 36.500, 11:38:19.366, 17, 0.00, 0.27, 97, 0.000, 1.400, -132.900, 250, 100, 97, 16, 22737, -19839, 5399, 5567, 7, 14, 1523817499.366, 34, 0, 1024, 1024, 1024, 1024, 0, 6, 3778, 3758, 3749, 3783, 3830, 3798, 0, 1, 17700, -89.900, 0.000, -133.000, 0.000, 0.000, -2.900, 0.0, , , , , , 99, , , 27, 27, 27
36.7935396, -118.9150106, 37.100, 11:38:19.472, 17, 0.00, 0.28, 97, 0.200, 2.300, -132.600, 250, 100, 97, 16, 22737, -19839, 5399, 5567, 7, 14, 1523817499.473, 6, 0, 1024, 1024, 1024, 1024, 0, 6, 3778, 3758, 3749, 3783, 3830, 3798, 0, 1, 17807, -89.900, 0.000, -133.000, 0.000, 0.000, -2.900, 0.0, , , , , , 99, , , 27, 27, 27
36.7935395, -118.9150106, 37.400, 11:38:19.574, 17, 0.00, 0.29, 97, 0.600, 2.500, -132.300, 250, 100, 97, 16, 22602, -19798, 5399, 5567, 7, 14, 1523817499.575, 15, 0, 1024, 1024, 1024, 1024, 0, 6, 3778, 3758, 3749, 3783, 3830, 3798, 0, 1, 17909, -89.900, 0.000, -133.000, 0.000, 0.000, -3.000, 0.0, , , , , , 99, , , 27, 27, 27
36.7935394, -118.9150106, 37.800, 11:38:19.681, 17, 0.00, 0.30, 97, 0.800, 2.400, -132.100, 250, 100, 97, 16, 22602, -19798, 5399, 5567, 7, 14, 1523817499.682, 5, 0, 1024, 1024, 1024, 1024, 0, 6, 3772, 3753, 3728, 3764, 3813, 3789, 0, 1, 18016, -89.900, 0.000, -133.000, 0.000, 0.000, -3.000, 0.0, , , , , , 99, , , 27, 27, 27
36.7935394, -118.9150106, 37.800, 11:38:19.766, 17, 0.00, 0.30, 97, 0.800, 2.400, -132.100, 250, 100, 97, 16, 22602, -19798, 5399, 5567, 7, 14, 1523817499.766, 90, 0, 1024, 1024, 1024, 1024, 0, 6, 3772, 3753, 3728, 3764, 3813, 3789, 0, 1, 18101, -89.900, 0.000, -133.000, 0.000, 0.000, -3.000, 0.0, , , , , , 99, , , 27, 27, 27
36.7935392, -118.9150105, 38.400, 11:38:19.866, 17, 0.00, 0.32, 97, 1.200, 2.300, -131.800, 250, 100, 97, 16, 22602, -19798, 5399, 5567, 7, 14, 1523817499.867, 13, 0, 1024, 1024, 1024, 1024, 0, 6, 3772, 3753, 3728, 3764, 3813, 3789, 0, 1, 18201, -89.900, 0.000, -133.000, 0.000, 0.000, -2.900, 0.0, , , , , , 99, , , 27, 27, 27
36.7935392, -118.9150105, 38.700, 11:38:19.971, 17, 0.00, 0.33, 97, 1.300, 2.500, -131.800, 250, 100, 97, 16, 22602, -19798, 5399, 5567, 7, 14, 1523817499.972, 12, 0, 1024, 1024, 1024, 1024, 0, 6, 3772, 3753, 3728, 3764, 3813, 3789, 0, 1, 18306, -89.900, 0.000, -133.000, 0.000, 0.000, -2.900, 0.0, , , , , , 99, , , 27, 27, 27
36.7935391, -118.9150104, 39.000, 11:38:20.066, 17, 0.00, 0.34, 97, 1.600, 2.800, -131.800, 250, 100, 98, 16, 22602, -19798, 5399, 5567, 7, 14, 1523817500.066, 7, 0, 1024, 1024, 1024, 1024, 0, 6, 3772, 3753, 3728, 3764, 3813, 3789, 0, 1, 18400, -89.900, 0.000, -133.000, 0.000, 0.000, -2.900, 0.0, , , , , , 99, , , 27, 27, 27
36.7935391, -118.9150104, 39.000, 11:38:20.166, 17, 0.00, 0.34, 97, 1.600, 2.800, -131.800, 250, 100, 98, 16, 22602, -19798, 5399, 5567, 7, 14, 1523817500.168, 109, 0, 1024, 1024, 1024, 1024, 0, 6, 3772, 3753, 3728, 3764, 3813, 3789, 0, 1, 18502, -89.900, 0.000, -133.000, 0.000, 0.000, -2.900, 0.0, , , , , , 99, , , 27, 27, 27
36.7935390, -118.9150104, 39.300, 11:38:20.266, 17, 0.00, 0.34, 97, 1.700, 2.900, -131.900, 250, 100, 98, 16, 22602, -19798, 5399, 5567, 7, 14, 1523817500.266, 84, 0, 1024, 1024, 1024, 1024, 0, 6, 3772, 3753, 3728, 3764, 3813, 3789, 0, 1, 18601, -89.900, 0.000, -133.000, 0.000, 0.000, -2.900, 0.0, , , , , , 99, , , 27, 27, 27
36.7935390, -118.9150104, 39.600, 11:38:20.366, 17, 0.00, 0.34, 97, 1.600, 2.400, -132.000, 250, 100, 98, 16, 22602, -19798, 5399, 5567, 7, 14, 1523817500.366, 96, 0, 1024, 1024, 1024, 1024, 0, 6, 3772, 3753, 3728, 3764, 3813, 3789, 0, 1, 18701, -89.900, 0.000, -133.000, 0.000, 0.000, -2.900, 0.0, , , , , , 99, , , 27, 27, 27
36.7935390, -118.9150104, 39.900, 11:38:20.466, 17, 0.00, 0.34, 97, 1.400, 2.200, -132.100, 250, 100, 98, 16, 22602, -19798, 5399, 5567, 7, 14, 1523817500.466, 65, 0, 1024, 1024, 1024, 1024, 0, 6, 3772, 3753, 3728, 3764, 3813, 3789, 0, 1, 18800, -89.900, 0.000, -133.000, 0.000, 0.000, -3.000, 0.0, , , , , , 99, , , 27, 27, 27
36.7935390, -118.9150104, 39.900, 11:38:20.566, 17, 0.00, 0.34, 97, 1.400, 2.200, -132.100, 250, 100, 98, 16, 22748, -18162, 5399, 5567, 7, 14, 1523817500.566, 165, 0, 1024, 1024, 1024, 1024, 0, 6, 3772, 3753, 3728, 3764, 3813, 3789, 0, 1, 18900, -89.900, 0.000, -133.000, 0.000, 0.000, -3.000, 0.0, , , , , , 99, , , 27, 27, 27
36.7935390, -118.9150105, 40.500, 11:38:20.666, 17, 0.00, 0.34, 97, 0.100, 2.500, -131.900, 250, 100, 98, 16, 22748, -18162, 5399, 5567, 7, 14, 1523817500.666, 68, 0, 1024, 1024, 1024, 1024, 0, 6, 3809, 3783, 3759, 3790, 3842, 3812, 0, 1, 19000, -89.900, 0.000, -133.000, 0.000, 0.000, -2.900, 0.0, , , , , , 99, , , 27, 27, 27
36.7935390, -118.9150105, 40.500, 11:38:20.766, 17, 0.00, 0.34, 97, 0.100, 2.500, -131.900, 250, 100, 98, 16, 22748, -18162, 5399, 5567, 7, 14, 1523817500.766, 168, 0, 1024, 1024, 1024, 1024, 0, 6, 3809, 3783, 3759, 3790, 3842, 3812, 0, 1, 19100, -89.900, 0.000, -133.000, 0.000, 0.000, -2.900, 0.0, , , , , , 99, , , 27, 27, 27
36.7935390, -118.9150107, 41.100, 11:38:20.866, 17, 0.00, 0.33, 97, -0.200, 2.800, -131.700, 250, 100, 98, 16, 22748, -18162, 5399, 5567, 7, 14, 1523817500.867, 72, 0, 1024, 1024, 1024, 1024, 0, 6, 3809, 3783, 3759, 3790, 3842, 3812, 0, 1, 19201, -89.900, 0.000, -133.000, 0.000, 0.000, -2.900, 0.0, , , , , , 99, , , 27, 27, 27
36.7935390, -118.9150107, 41.400, 11:38:20.966, 17, 0.00, 0.33, 97, -0.200, 3.200, -131.700, 250, 100, 98, 16, 22748, -18162, 5399, 5567, 7, 14, 1523817500.966, 55, 0, 1024, 1024, 1024, 1024, 0, 6, 3809, 3783, 3759, 3790, 3842, 3812, 0, 1, 19300, -89.900, 0.000, -133.000, 0.000, 0.000, -2.900, 0.0, , , , , , 99, , , 27, 27, 27
36.7935390, -118.9150107, 41.700, 11:38:21.066, 17, 0.00, 0.33, 97, -0.100, 3.500, -131.800, 250, 100, 98, 16, 22748, -18162, 5399, 5567, 7, 14, 1523817501.066, 61, 0, 1024, 1024, 1024, 1024, 0, 6, 3809, 3783, 3759, 3790, 3842, 3812, 0, 1, 19401, -89.900, 0.000, -133.000, 0.000, 0.000, -2.900, 0.0, , , , , , 99, , , 27, 27, 27
36.7935390, -118.9150108, 42.000, 11:38:21.166, 17, 0.00, 0.34, 97, 0.200, 3.700, -131.800, 250, 100, 95, 16, 22748, -18162, 5399, 5567, 7, 14, 1523817501.166, 72, 0, 1024, 1024, 1024, 1024, 0, 6, 3809, 3783, 3759, 3790, 3842, 3812, 0, 1, 19500, -89.900, 0.000, -133.000, 0.000, 0.000, -2.900, 0.0, , , , , , 99, , , 27, 27, 27
36.7935390, -118.9150108, 42.300, 11:38:21.266, 17, 0.00, 0.34, 97, 0.400, 3.600, -131.800, 250, 100, 95, 16, 22748, -18162, 5399, 5567, 7, 14, 1523817501.266, 46, 0, 1024, 1024, 1024, 1024, 0, 6, 3809, 3783, 3759, 3790, 3842, 3812, 0, 1, 19601, -89.900, 0.000, -133.000, 0.000, 0.000, -2.900, 0.0, , , , , , 99, , , 27, 27, 27
36.7935390, -118.9150109, 42.600, 11:38:21.366, 17, 0.00, 0.33, 97, 0.200, 3.400, -131.800, 250, 100, 95, 16, 22748, -18162, 5399, 5567, 7, 14, 1523817501.366, 49, 0, 1024, 1024, 1024, 1024, 0, 6, 3809, 3783, 3759, 3790, 3842, 3812, 0, 1, 19700, -89.900, 0.000, -133.000, 0.000, 0.000, -3.000, 0.0, , , , , , 99, , , 27, 27, 27
36.7935390, -118.9150109, 42.900, 11:38:21.466, 17, 0.10, 0.33, 97, 0.200, 3.400, -131.900, 250, 100, 95, 16, 22748, -18162, 5399, 5567, 7, 14, 1523817501.466, 44, 0, 1024, 1024, 1024, 1024, 0, 6, 3809, 3783, 3759, 3790, 3842, 3812, 0, 1, 19801, -89.900, 0.000, -133.000, 0.100, 0.000, -2.800, 0.0, , , , , , 99, , , 27, 27, 27
36.7935390, -118.9150110, 43.200, 11:38:21.566, 17, 0.10, 0.33, 97, -0.100, 3.300, -132.000, 250, 100, 95, 16, 22858, -17116, 5399, 5567, 7, 14, 1523817501.567, 34, 0, 1024, 1024, 1024, 1024, 0, 6, 3809, 3783, 3759, 3790, 3842, 3812, 0, 1, 19901, -90.000, 0.000, -133.000, 0.100, 0.000, -2.700, 0.0, , , , , , 99, , , 27, 27, 27
36.7935390, -118.9150110, 43.200, 11:38:21.666, 17, 0.10, 0.33, 97, -0.100, 3.300, -132.000, 250, 100, 95, 16, 22858, -17116, 5399, 5567, 7, 14, 1523817501.667, 134, 0, 1024, 1024, 1024, 1024, 0, 6, 3809, 3783, 3759, 3790, 3842, 3812, 0, 1, 20001, -89.900, 0.000, -133.000, 0.100, 0.000, -2.700, 0.0, , , , , , 99, , , 27, 27, 27
36.7935393, -118.9150112, 43.900, 11:38:21.767, 17, 0.10, 0.30, 97, -1.500, 3.100, -132.200, 250, 100, 95, 16, 22858, -17116, 5399, 5567, 7, 14, 1523817501.769, 25, 0, 1024, 1024, 1024, 1024, 0, 6, 3809, 3783, 3759, 3790, 3842, 3812, 0, 1, 20103, -90.000, 0.000, -133.000, 0.100, 0.000, -2.800, 0.0, , , , , , 99, , , 27, 27, 27
36.7935394, -118.9150113, 44.200, 11:38:21.866, 17, 0.10, 0.28, 97, -1.900, 3.100, -132.200, 250, 100, 95, 16, 22858, -17116, 5399, 5567, 7, 14, 1523817501.866, 47, 0, 1024, 1024, 1024, 1024, 0, 6, 3809, 3783, 3759, 3790, 3842, 3812, 0, 1, 20201, -89.900, 0.000, -133.000, 0.100, 0.000, -2.800, 0.0, , , , , , 99, , , 27, 27, 27
36.7935395, -118.9150114, 44.500, 11:38:21.983, 17, 0.10, 0.27, 97, -2.300, 3.000, -132.200, 250, 100, 95, 16, 22858, -17116, 5399, 5567, 7, 14, 1523817501.983, 13, 0, 1024, 1024, 1024, 1024, 0, 6, 3809, 3783, 3759, 3790, 3842, 3812, 0, 1, 20317, -90.000, 0.000, -133.000, 0.100, 0.000, -2.800, 0.0, , , , , , 99, , , 27, 27, 27
36.7935395, -118.9150115, 44.700, 11:38:22.066, 17, 0.10, 0.26, 97, -2.400, 2.800, -132.300, 250, 100, 96, 16, 22858, -17116, 5399, 5567, 7, 14, 1523817502.067, 28, 0, 1024, 1024, 1024, 1024, 0, 6, 3812, 3793, 3769, 3811, 3855, 3830, 0, 1, 20402, -90.000, 0.000, -133.000, 0.100, 0.000, -2.900, 0.0, , , , , , 99, , , 27, 27, 27
36.7935395, -118.9150115, 44.700, 11:38:22.166, 17, 0.10, 0.26, 97, -2.400, 2.800, -132.300, 250, 100, 96, 16, 22858, -17116, 5399, 5567, 7, 14, 1523817502.166, 126, 0, 1024, 1024, 1024, 1024, 0, 6, 3812, 3793, 3769, 3811, 3855, 3830, 0, 1, 20500, -90.000, 0.000, -133.000, 0.100, 0.000, -2.900, 0.0, , , , , , 99, , , 27, 27, 27
36.7935397, -118.9150115, 45.300, 11:38:22.271, 17, 0.10, 0.24, 97, -2.300, 2.400, -132.300, 250, 100, 96, 16, 22858, -17116, 5399, 5567, 7, 14, 1523817502.271, 4, 0, 1024, 1024, 1024, 1024, 0, 6, 3812, 3793, 3769, 3811, 3855, 3830, 0, 1, 20606, -89.900, 0.000, -133.000, 0.100, 0.000, -3.000, 0.0, , , , , , 99, , , 27, 27, 27
36.7935397, -118.9150115, 45.300, 11:38:22.365, 17, 0.10, 0.24, 97, -2.300, 2.400, -132.300, 250, 100, 96, 16, 22858, -17116, 5399, 5567, 7, 14, 1523817502.366, 99, 0, 1024, 1024, 1024, 1024, 0, 6, 3812, 3793, 3769, 3811, 3855, 3830, 0, 1, 20700, -89.900, 0.000, -133.000, 0.100, 0.000, -3.000, 0.0, , , , , , 99, , , 27, 27, 27
36.7935397, -118.9150115, 45.300, 11:38:22.466, 17, 0.10, 0.24, 97, -2.300, 2.400, -132.300, 250, 100, 96, 16, 22858, -17116, 5399, 5567, 7, 14, 1523817502.466, 199, 0, 1024, 1024, 1024, 1024, 0, 6, 3812, 3793, 3769, 3811, 3855, 3830, 0, 1, 20800, -89.900, 0.000, -133.000, 0.100, 0.000, -3.000, 0.0, , , , , , 99, , , 27, 27, 27
36.7935398, -118.9150116, 45.900, 11:38:22.566, 17, 0.10, 0.23, 97, -1.900, 2.600, -132.300, 250, 100, 96, 16, 22858, -17116, 5399, 5567, 7, 14, 1523817502.566, 40, 0, 1024, 1024, 1024, 1024, 0, 6, 3812, 3793, 3769, 3811, 3855, 3830, 0, 1, 20900, -89.900, 0.000, -133.000, 0.100, 0.000, -3.000, 0.0, , , , , , 99, , , 27, 27, 27
