latitude,longitude,altitude(feet),ascent(feet),speed(mph),distance(feet),time(millisecond),datetime(utc),satellites,gpslevel,voltage(v),max_altitude(feet),max_ascent(feet),max_speed(mph),max_distance(feet), xSpeed(mph), ySpeed(mph), zSpeed(mph), compass_heading(degrees), pitch(degrees), roll(degrees),isPhoto,isVideo,rc_elevator,rc_aileron,rc_throttle,rc_rudder,gimbal_heading(degrees),gimbal_pitch(degrees),battery_percent,voltageCell1,voltageCell2,voltageCell3,voltageCell4,voltageCell5,voltageCell6,current(A),battery_temperature(f),flycStateRaw,flycState,message
36.7935261,-118.9150099,5302.5018580003,0,0.223694,0,3100,2018-04-15 19:16:34,14,0,0,5302.5018580003,0,0.223694,0,0,0,0,226, 1.7, 1.7,1,0,1024,1024,1024,1024,224.5,-89.9,100,4.267,4.282,4.233,4.252,0,0,0,60.8,11,AutoTakeoff,DJI_0016.jpg Starting Mission from Lat/Long: 36.79353/-118.91501 Camera: Zenmuse X3 - Overlap: 90/90 - Active Connection: Yes
36.7935262,-118.91501,5302.5018580003,0,0.223694,0.046741799396,3200,2018-04-15 19:16:34,14,0,0,5302.5018580003,0,0.223694,0.046741799396,0,0,0,226.2, 1.3, 1.2,0,0,1024,1024,1024,1024,224.6,-89.9,100,4.267,4.282,4.233,4.252,0,0,0,60.8,11,AutoTakeoff,
36.7935264,-118.91501,5302.5018580003,0,0.447388,0.113287077116,3300,2018-04-15 19:16:34,14,0,0,5302.5018580003,0,0.447388,0.113287077116,0,0,0,226.2, 0.7, 0.6,0,0,1024,1024,1024,1024,224.6,-90,100,4.267,4.282,4.233,4.252,0,0,0,60.8,11,AutoTakeoff,
36.7935266,-118.9150101,5302.5018580003,0,0.447388,0.19155512424,3400,2018-04-15 19:16:34,14,0,0,5302.5018580003,0,0.447388,0.19155512424,0,0,0,226.2, 0, 0.1,0,0,1024,1024,1024,1024,224.6,-90,100,4.267,4.282,4.233,4.252,0,0,0,60.8,11,AutoTakeoff,
36.7935268,-118.9150101,5302.8299420003,0.328084,0.447388,0.261994102872,3500,2018-04-15 19:16:34,14,0,0,5302.8299420003,0.328084,0.447388,0.261994102872,0,0,0,226.2, -0.4, -0.4,0,0,1024,1024,1024,1024,224.6,-90,100,4.267,4.282,4.233,4.252,0,0,0,60.8,11,AutoTakeoff,
36.793527,-118.9150102,5302.8299420003,0.328084,0.447388,0.3398622156,3600,2018-04-15 19:16:34,13,0,0,5302.8299420003,0.328084,0.447388,0.3398622156,0,0,0,226.2, -0.7, -1.1,0,0,1024,1024,1024,1024,224.7,-90,100,4.267,4.282,4.233,4.252,0,0,0,60.8,11,AutoTakeoff,
36.7935273,-118.9150103,5303.1580260003,0.656168,0.223694,0.4531496208,3700,2018-04-15 19:16:34,13,0,0,5303.1580260003,0.656168,0.447388,0.4531496208,0,0,0,226.2, -0.7, -1.7,0,0,1024,1024,1024,1024,224.7,-89.9,100,4.267,4.282,4.233,4.252,0,0,0,60.8,11,AutoTakeoff,
36.7935274,-118.9150105,5303.1580260003,0.656168,0.223694,0.50566274584,3800,2018-04-15 19:16:34,12,0,0,5303.1580260003,0.656168,0.447388,0.50566274584,0,0,0,226.2, -0.5, -1.9,0,0,1024,1024,1024,1024,224.7,-89.9,100,4.267,4.282,4.233,4.252,0,0,0,60.8,11,AutoTakeoff,
36.7935276,-118.9150106,5303.4861100003,0.984252,0.223694,0.58424214468,3900,2018-04-15 19:16:34,12,0,0,5303.4861100003,0.984252,0.447388,0.58424214468,0,0,0,226.2, -0.4, -1.9,0,0,1024,1024,1024,1024,224.7,-89.9,100,4.267,4.282,4.233,4.252,0,0,0,60.8,11,AutoTakeoff,
36.7935278,-118.9150107,5303.4861100003,0.984252,0.223694,0.66282482436,4000,2018-04-15 19:16:35,12,0,25.565,5303.4861100003,0.984252,0.447388,0.66282482436,0,0,0,226.2, -0.3, -1.7,0,0,1024,1024,1024,1024,224.7,-89.9,100,4.267,4.282,4.233,4.252,0,0,3.164,60.8,11,AutoTakeoff,
36.7935279,-118.9150108,5303.4861100003,0.984252,0.223694,0.7074147208,4100,2018-04-15 19:16:35,12,0,25.565,5303.4861100003,0.984252,0.447388,0.7074147208,0,0,0,226.1, -0.1, -1.5,0,0,1024,1024,1024,1024,224.7,-89.9,100,4.267,4.282,4.233,4.252,0,0,3.164,60.8,11,AutoTakeoff,
36.793528,-118.9150109,5303.8141940003,1.312336,0.223694,0.75227036528,4200,2018-04-15 19:16:35,13,0,25.565,5303.8141940003,1.312336,0.447388,0.75227036528,0,0,0,226.2, 0, -1.4,0,0,1024,1024,1024,1024,224.8,-89.9,100,4.267,4.282,4.233,4.252,0,0,3.164,60.8,11,AutoTakeoff,
36.7935281,-118.915011,5304.1422780003,1.64042,0.223694,0.79733926436,4310,2018-04-15 19:16:35,13,0,25.565,5304.1422780003,1.64042,0.447388,0.79733926436,0,0,-0.223694,226.3, 0.1, -1.3,0,0,1024,1024,1024,1024,224.8,-89.9,100,4.267,4.282,4.233,4.252,0,0,3.164,60.8,11,AutoTakeoff,
36.7935283,-118.9150111,5304.1422780003,1.64042,0.223694,0.87589897816,4400,2018-04-15 19:16:35,12,0,25.565,5304.1422780003,1.64042,0.447388,0.87589897816,0,0,-0.223694,226.3, 0, -1.3,0,0,1024,1024,1024,1024,224.8,-89.9,100,4.267,4.282,4.233,4.252,0,0,3.164,60.8,11,AutoTakeoff,
36.7935284,-118.9150111,5304.4703620003,1.968504,0.223694,0.90945212884,4500,2018-04-15 19:16:35,12,0,25.565,5304.4703620003,1.968504,0.447388,0.90945212884,0,0,-0.223694,226.3, -0.2, -1.6,0,0,1024,1024,1024,1024,224.8,-90,100,4.267,4.282,4.233,4.252,0,0,3.164,60.8,11,AutoTakeoff,
36.7935286,-118.9150112,5304.7984460003,2.296588,0.223694,0.98804465104,4600,2018-04-15 19:16:35,12,0,25.565,5304.7984460003,2.296588,0.447388,0.98804465104,0,0,-0.223694,226.3, -0.4, -1.8,0,0,1024,1024,1024,1024,224.8,-90,100,4.267,4.282,4.233,4.252,0,0,3.164,60.8,11,AutoTakeoff,
36.7935288,-118.9150113,5305.1265300003,2.624672,0,1.06664045408,4700,2018-04-15 19:16:35,11,0,25.565,5305.1265300003,2.624672,0.447388,1.06664045408,0,0,-0.223694,226.2, -0.9, -1.7,0,0,1024,1024,1024,1024,224.8,-90,100,4.267,4.282,4.233,4.252,0,0,3.164,60.8,11,AutoTakeoff,
36.7935289,-118.9150113,5305.1265300003,2.624672,0,1.1004265444,4900,2018-04-15 19:16:35,11,0,25.565,5305.1265300003,2.624672,0.447388,1.1004265444,0,0,-0.223694,226, -0.9, -1.9,0,0,1024,1024,1024,1024,224.9,-89.9,100,4.267,4.282,4.233,4.252,0,0,3.164,60.8,11,AutoTakeoff,
36.793529,-118.9150115,5305.4546140003,2.952756,0,1.15673232048,5000,2018-04-15 19:16:36,12,0,24.489,5305.4546140003,2.952756,0.447388,1.15673232048,0,0,0,225.8, -1.1, -2.1,0,0,1024,1024,1024,1024,224.9,-89.9,100,4.078,4.081,4.028,4.057,0,0,10.072,60.8,14,Waypoint,
36.7935291,-118.9150117,5305.4546140003,2.952756,0,1.2143373092,5100,2018-04-15 19:16:36,12,0,24.489,5305.4546140003,2.952756,0.447388,1.2143373092,0,0,0,225.6, -1.1, -2.5,0,0,1024,1024,1024,1024,224.9,-90,100,4.078,4.081,4.028,4.057,0,0,10.072,60.8,14,Waypoint,
36.7935292,-118.9150117,5305.7826980003,3.28084,0,1.24732287456,5200,2018-04-15 19:16:36,12,0,24.489,5305.7826980003,3.28084,0.447388,1.24732287456,0,0,0,225.4, -0.9, -2.1,0,0,1024,1024,1024,1024,224.9,-89.9,100,4.078,4.081,4.028,4.057,0,0,10.072,60.8,14,Waypoint,
36.7935294,-118.9150117,5305.7826980003,3.28084,0,1.31385174808,5300,2018-04-15 19:16:36,12,0,24.489,5305.7826980003,3.28084,0.447388,1.31385174808,0,0,0,225.1, -0.7, -1.8,0,0,1024,1024,1024,1024,224.9,-89.9,100,4.078,4.081,4.028,4.057,0,0,10.072,60.8,14,Waypoint,
36.7935294,-118.9150118,5306.1107820003,3.608924,0,1.32581697156,5400,2018-04-15 19:16:36,11,0,24.489,5306.1107820003,3.608924,0.447388,1.32581697156,0,0,0,224.8, -0.7, -1.6,0,0,1024,1024,1024,1024,224.9,-89.9,100,4.078,4.081,4.028,4.057,0,0,10.072,60.8,14,Waypoint,
36.7935295,-118.9150119,5306.1107820003,3.608924,0,1.371227078,5500,2018-04-15 19:16:36,11,0,24.489,5306.1107820003,3.608924,0.447388,1.371227078,0,0,0,224.6, -0.6, -1.6,0,0,1024,1024,1024,1024,224.9,-89.9,100,4.078,4.081,4.028,4.057,0,0,10.072,60.8,14,Waypoint,
36.7935295,-118.915012,5306.4388660003,3.937008,0,1.38393049048,5600,2018-04-15 19:16:36,10,0,24.489,5306.4388660003,3.937008,0.447388,1.38393049048,0,0,-0.223694,224.6, -0.5, -1.4,0,0,1024,1024,1024,1024,224.9,-89.9,100,4.078,4.081,4.028,4.057,0,0,10.072,60.8,14,Waypoint,
36.7935294,-118.9150121,5306.4388660003,3.937008,0,1.36483928252,5700,2018-04-15 19:16:36,10,0,24.489,5306.4388660003,3.937008,0.447388,1.38393049048,0,0,-0.223694,224.7, -0.4, -1.2,0,0,1024,1024,1024,1024,224.9,-89.9,100,4.078,4.081,4.028,4.057,0,0,10.072,60.8,14,Waypoint,
36.7935294,-118.9150122,5306.7669500003,4.265092,0,1.3788386268,5800,2018-04-15 19:16:36,11,0,24.489,5306.7669500003,4.265092,0.447388,1.38393049048,0,0,-0.223694,224.9, -0.3, -1.2,0,0,1024,1024,1024,1024,224.9,-89.9,100,4.078,4.081,4.028,4.057,0,0,10.072,60.8,14,Waypoint,
36.7935294,-118.9150122,5307.0950340003,4.593176,0,1.3788386268,5900,2018-04-15 19:16:36,11,0,24.489,5307.0950340003,4.593176,0.447388,1.38393049048,0,0,-0.223694,225.2, -0.2, -1.5,0,0,1024,1024,1024,1024,224.9,-89.9,100,4.078,4.081,4.028,4.057,0,0,10.072,60.8,14,Waypoint,
36.7935295,-118.9150123,5307.7512020003,5.249344,0,1.42495739468,6000,2018-04-15 19:16:37,11,0,23.719,5307.7512020003,5.249344,0.447388,1.42495739468,0,0,-0.223694,225.5, -0.3, -1.7,0,0,1024,1024,1024,1024,224.9,-90,100,3.921,3.937,3.951,3.968,0,0,17.206,60.8,14,Waypoint,
36.7935296,-118.9150123,5308.0792860003,5.577428,0,1.45683075528,6100,2018-04-15 19:16:37,11,0,23.719,5308.0792860003,5.577428,0.447388,1.45683075528,0,0,-0.223694,225.8, -0.5, -1.5,0,0,1024,1024,1024,1024,224.9,-90,100,3.921,3.937,3.951,3.968,0,0,17.206,60.8,14,Waypoint,
36.7935297,-118.9150124,5308.4073700003,5.905512,0,1.50289702972,6210,2018-04-15 19:16:37,12,0,23.719,5308.4073700003,5.905512,0.447388,1.50289702972,0,0,-0.447388,226, -0.4, -1.3,0,0,1024,1024,1024,1024,224.9,-90,100,3.921,3.937,3.951,3.968,0,0,17.206,60.8,14,Waypoint,
36.7935299,-118.9150125,5309.0635380003,6.56168,0,1.58089900072,6310,2018-04-15 19:16:37,12,0,23.719,5309.0635380003,6.56168,0.447388,1.58089900072,0,0,-0.447388,226.1, -0.5, -1.5,0,0,1024,1024,1024,1024,224.9,-89.9,100,3.921,3.937,3.951,3.968,0,0,17.206,60.8,14,Waypoint,
36.79353,-118.9150126,5309.7197060003,7.217848,0,1.62695543264,6400,2018-04-15 19:16:37,12,0,23.719,5309.7197060003,7.217848,0.447388,1.62695543264,0,0,-0.447388,226.3, -0.6, -1.7,0,0,1024,1024,1024,1024,224.9,-90,100,3.921,3.937,3.951,3.968,0,0,17.206,60.8,14,Waypoint,
36.7935301,-118.9150127,5310.7039580003,8.2021,0,1.6730479538,6500,2018-04-15 19:16:37,12,0,23.719,5310.7039580003,8.2021,0.447388,1.6730479538,0,0,-0.447388,226.4, -0.6, -1.8,0,0,1024,1024,1024,1024,224.9,-89.9,100,3.921,3.937,3.951,3.968,0,0,17.206,60.8,14,Waypoint,
36.7935304,-118.9150128,5311.3601260003,8.858268,0,1.78303483396,6600,2018-04-15 19:16:37,13,0,23.719,5311.3601260003,8.858268,0.447388,1.78303483396,0,0,-0.671082,226.4, -0.4, -1.8,0,0,1024,1024,1024,1024,224.9,-90,100,3.921,3.937,3.951,3.968,0,0,17.206,60.8,14,Waypoint,
36.7935306,-118.9150129,5312.3443780003,9.84252,0,1.86114507268,6700,2018-04-15 19:16:37,13,0,23.719,5312.3443780003,9.84252,0.447388,1.86114507268,0,0,-0.671082,226.1, -0.5, -2.1,0,0,1024,1024,1024,1024,224.9,-90,100,3.921,3.937,3.951,3.968,0,0,17.206,60.8,14,Waypoint,
36.7935308,-118.9150132,5313.3286300003,10.826772,0,1.96726384248,6800,2018-04-15 19:16:37,12,0,23.719,5313.3286300003,10.826772,0.447388,1.96726384248,0,0,-0.671082,225.9, -0.8, -2.5,0,0,1024,1024,1024,1024,224.9,-89.9,100,3.921,3.937,3.951,3.968,0,0,17.206,60.8,14,Waypoint,
36.793531,-118.9150135,5314.3128820003,11.811024,0,2.07422578816,6920,2018-04-15 19:16:37,12,0,23.719,5314.3128820003,11.811024,0.447388,2.07422578816,0,0,-0.671082,225.7, -1, -2.8,0,0,1024,1024,1024,1024,224.9,-89.9,100,3.921,3.937,3.951,3.968,0,0,17.206,60.8,14,Waypoint,
36.793531,-118.9150138,5315.6252180003,13.12336,0,2.12001975288,7000,2018-04-15 19:16:38,12,0,23.657,5315.6252180003,13.12336,0.447388,2.12001975288,0,0,-0.671082,225.5, -0.6, -3.2,0,0,1024,1024,1024,1024,224.9,-89.9,100,3.915,3.935,3.948,3.959,0,0,16.464,60.8,14,Waypoint,
36.7935312,-118.9150145,5317.5937220003,15.091864,0,2.29534784248,7200,2018-04-15 19:16:38,14,0,23.657,5317.5937220003,15.091864,0.447388,2.29534784248,0,0,-0.671082,225.5, 0.7, -3.5,0,0,1024,1024,1024,1024,224.9,-89.9,100,3.915,3.935,3.948,3.959,0,0,16.464,60.8,14,Waypoint,
36.7935313,-118.9150148,5318.5779740003,16.076116,0,2.37676516792,7300,2018-04-15 19:16:38,14,0,23.657,5318.5779740003,16.076116,0.447388,2.37676516792,0,0,-0.671082,225.7, 1, -3.5,0,0,1024,1024,1024,1024,224.9,-89.9,100,3.915,3.935,3.948,3.959,0,0,16.464,60.8,14,Waypoint,
36.7935315,-118.9150149,5319.8903100003,17.388452,0,2.45270020972,7400,2018-04-15 19:16:38,14,0,23.657,5319.8903100003,17.388452,0.447388,2.45270020972,0,0,-0.671082,225.9, 0.9, -3.5,0,0,1024,1024,1024,1024,224.9,-89.9,100,3.915,3.935,3.948,3.959,0,0,16.464,60.8,14,Waypoint,
36.7935316,-118.915015,5320.8745620003,18.372704,0,2.4994095288,7500,2018-04-15 19:16:38,14,0,23.657,5320.8745620003,18.372704,0.447388,2.4994095288,0,0,-0.671082,226, 0.5, -3.3,0,0,1024,1024,1024,1024,224.9,-89.9,100,3.915,3.935,3.948,3.959,0,0,16.464,60.8,14,Waypoint,
36.7935316,-118.915015,5322.1868980003,19.68504,0.223694,2.4994095288,7600,2018-04-15 19:16:38,14,0,23.657,5322.1868980003,19.68504,0.447388,2.4994095288,0,0,-0.671082,226, 0, -3.3,0,0,1024,1024,1024,1024,224.9,-90,100,3.915,3.935,3.948,3.959,0,0,16.464,60.8,14,Waypoint,
36.7935317,-118.915015,5323.1711500003,20.669292,0.3131716,2.52879601268,7700,2018-04-15 19:16:38,14,0,23.657,5323.1711500003,20.669292,0.447388,2.52879601268,0,0,-0.671082,225.9, -0.3, -3,0,0,1024,1024,1024,1024,224.9,-90,100,3.915,3.935,3.948,3.959,0,0,16.464,60.8,14,Waypoint,
36.7935316,-118.915015,5324.1554020003,21.653544,0.3131716,2.4994095288,7800,2018-04-15 19:16:38,13,0,23.657,5324.1554020003,21.653544,0.447388,2.52879601268,0,0,-0.671082,225.8, -0.5, -2.6,0,0,1024,1024,1024,1024,224.9,-90,100,3.915,3.935,3.948,3.959,0,0,16.464,60.8,14,Waypoint,
36.7935315,-118.9150149,5325.4677380003,22.96588,0.3131716,2.45270020972,7900,2018-04-15 19:16:38,13,0,23.657,5325.4677380003,22.96588,0.447388,2.52879601268,0,0,-0.671082,225.8, -0.6, -2.2,0,0,1024,1024,1024,1024,224.9,-90,100,3.915,3.935,3.948,3.959,0,0,16.464,60.8,14,Waypoint,
36.7935315,-118.9150148,5326.4519900003,23.950132,0.3131716,2.43541018292,8000,2018-04-15 19:16:39,13,0,23.131,5326.4519900003,23.950132,0.447388,2.52879601268,0,0,-0.671082,225.8, -0.5, -1.9,0,0,1024,1024,1024,1024,224.9,-90,100,3.805,3.804,3.823,3.835,0,0,20.731,60.8,14,Waypoint,
36.7935315,-118.9150147,5327.4362420003,24.934384,0.3131716,2.41834981492,8100,2018-04-15 19:16:39,13,0,23.131,5327.4362420003,24.934384,0.447388,2.52879601268,0,0,-0.671082,225.8, -0.5, -1.5,0,0,1024,1024,1024,1024,224.9,-89.9,100,3.805,3.804,3.823,3.835,0,0,20.731,60.8,14,Waypoint,
36.7935314,-118.9150145,5328.7485780003,26.24672,0.3131716,2.3548885268,8200,2018-04-15 19:16:39,13,0,23.131,5328.7485780003,26.24672,0.447388,2.52879601268,0,0,-0.671082,225.7, -0.3, -1.1,0,0,1024,1024,1024,1024,224.9,-89.9,100,3.805,3.804,3.823,3.835,0,0,20.731,60.8,14,Waypoint,
36.7935313,-118.9150143,5329.7328300003,27.230972,0.3131716,2.29174219932,8300,2018-04-15 19:16:39,13,0,23.131,5329.7328300003,27.230972,0.447388,2.52879601268,0,0,-0.671082,225.6, -0.3, -0.8,0,0,1024,1070,1024,1024,224.9,-89.9,100,3.805,3.804,3.823,3.835,0,0,20.731,60.8,14,Waypoint,
36.793531,-118.915014,5330.7170820003,28.215224,0.6263432,2.15199153868,8400,2018-04-15 19:16:39,15,0,23.131,5330.7170820003,28.215224,0.6263432,2.52879601268,0,0,-0.671082,225.4, -0.3, -0.5,0,0,1024,1275,1024,1024,224.9,-89.9,100,3.805,3.804,3.823,3.835,0,0,20.731,60.8,14,Waypoint,
36.7935306,-118.9150137,5331.7013340003,29.199476,0.6263432,1.98197840988,8500,2018-04-15 19:16:39,15,0,23.131,5331.7013340003,29.199476,0.6263432,2.52879601268,0,0,-0.671082,225.2, -0.1, -0.1,0,0,1024,1361,1024,1024,224.9,-89.9,100,3.805,3.804,3.823,3.835,0,0,20.731,60.8,14,Waypoint,
36.7935302,-118.9150133,5333.0136700003,30.511812,0.6263432,1.79568247216,8600,2018-04-15 19:16:39,14,0,23.131,5333.0136700003,30.511812,0.6263432,2.52879601268,0,0,-0.671082,225.1, 0, 0.6,0,0,1041,1419,1024,1024,224.9,-89.9,100,3.805,3.804,3.823,3.835,0,0,20.731,60.8,14,Waypoint,
36.7935297,-118.9150129,5333.9979220003,31.496064,0.6263432,1.57906501116,8800,2018-04-15 19:16:39,14,0,23.131,5333.9979220003,31.496064,0.6263432,2.52879601268,0,0,-0.671082,225.1, 0.3, 1.5,0,0,1024,1438,1024,1024,224.9,-89.9,100,3.805,3.804,3.823,3.835,0,0,20.731,60.8,14,Waypoint,
36.7935291,-118.9150124,5334.9821740003,32.480316,0.6263432,1.31588914972,8900,2018-04-15 19:16:39,15,0,23.131,5334.9821740003,32.480316,0.6263432,2.52879601268,0,0,-0.671082,225.1, 0.6, 2.7,0,0,1024,1461,1024,1024,224.9,-89.9,100,3.805,3.804,3.823,3.835,0,0,20.731,60.8,14,Waypoint,
36.7935286,-118.9150119,5335.9664260003,33.464568,0.6263432,1.08324806616,9010,2018-04-15 19:16:40,15,0,22.738,5335.9664260003,33.464568,0.6263432,2.52879601268,0,0,-0.671082,225.1, 0.9, 3.9,0,0,1024,1505,1024,1024,224.9,-89.9,98,3.766,3.791,3.795,3.81,0,0,25.247,60.8,14,Waypoint,
36.7935282,-118.9150115,5337.2787620003,34.776904,0.6263432,0.89753611796,9100,2018-04-15 19:16:40,13,0,22.738,5337.2787620003,34.776904,0.6263432,2.52879601268,0,0,-0.671082,225.2, 0.6, 4.8,0,0,1024,1505,1024,1024,224.9,-89.9,98,3.766,3.791,3.795,3.81,0,0,25.247,60.8,14,Waypoint,
36.7935278,-118.9150111,5338.2630140003,35.761156,0.4921268,0.71248033776,9200,2018-04-15 19:16:40,13,0,22.738,5338.2630140003,35.761156,0.6263432,2.52879601268,0,0,-0.671082,225.2, 0.1, 4.7,0,0,1024,1587,1024,1024,224.9,-90,98,3.766,3.791,3.795,3.81,0,0,25.247,60.8,14,Waypoint,
36.7935272,-118.9150104,5340.5596020003,38.057744,0.3131716,0.42709647036,9300,2018-04-15 19:16:40,15,0,22.738,5340.5596020003,38.057744,0.6263432,2.52879601268,0,0,-0.671082,225.2, -0.1, 3.8,0,0,1024,1580,1024,1024,224.9,-89.9,98,3.766,3.791,3.795,3.81,0,0,25.247,60.8,14,Waypoint,
36.7935269,-118.9150101,5341.5438540003,39.041996,0.3131716,0.297671269368,9400,2018-04-15 19:16:40,15,0,22.738,5341.5438540003,39.041996,0.6263432,2.52879601268,0,0,-0.671082,225.3, 0.1, 3.6,0,0,1024,1601,1024,1024,224.9,-89.9,98,3.766,3.791,3.795,3.81,0,0,25.247,60.8,14,Waypoint,
36.7935264,-118.9150096,5343.5123580003,41.0105,0,0.140225070104,9600,2018-04-15 19:16:40,14,0,22.738,5343.5123580003,41.0105,0.6263432,2.52879601268,0,0,-0.671082,225.5, 0.4, 3.3,0,0,1024,1631,1024,1024,224.9,-89.9,98,3.766,3.791,3.795,3.81,0,0,25.247,60.8,14,Waypoint,
36.7935262,-118.9150093,5344.4966100003,41.994752,0,0.179059060848,9700,2018-04-15 19:16:40,14,0,22.738,5344.4966100003,41.994752,0.6263432,2.52879601268,0,0,-0.671082,225.7, 0.1, 3.2,0,0,1024,1657,1024,1024,224.9,-89.9,98,3.766,3.791,3.795,3.81,0,0,25.247,60.8,14,Waypoint,
36.7935259,-118.9150089,5345.4808620003,42.979004,0,0.301145350844,9800,2018-04-15 19:16:40,15,0,22.738,5345.4808620003,42.979004,0.6263432,2.52879601268,0,0,-0.671082,225.9, 0, 3.5,0,0,1024,1684,1024,1024,224.9,-90,98,3.766,3.791,3.795,3.81,0,0,25.247,60.8,14,Waypoint,
36.7935256,-118.9150086,5346.7931980003,44.29134,0,0.4213582812,9900,2018-04-15 19:16:40,15,0,22.738,5346.7931980003,44.29134,0.6263432,2.52879601268,0,0,-0.671082,226, -0.1, 3.8,0,0,1024,1684,1024,1024,224.9,-89.9,98,3.766,3.791,3.795,3.81,0,0,25.247,60.8,14,Waypoint,
36.7935252,-118.9150083,5347.7774500003,45.275592,0,0.571276265,10000,2018-04-15 19:16:41,15,0,23.08,5347.7774500003,45.275592,0.6263432,2.52879601268,0,0,-0.671082,226.1, -0.1, 4.4,0,0,1024,1684,1024,1024,224.9,-89.9,98,3.84,3.854,3.848,3.87,0,0,19.383,60.8,14,Waypoint,
36.7935249,-118.9150081,5348.7617020003,46.259844,0,0.68429792216,10100,2018-04-15 19:16:41,15,0,23.08,5348.7617020003,46.259844,0.6263432,2.52879601268,0,0,-0.671082,226.1, 0, 4.9,0,0,1024,1684,1024,1024,224.9,-89.9,98,3.84,3.854,3.848,3.87,0,0,19.383,60.8,14,Waypoint,
36.7935247,-118.9150078,5349.7459540003,47.244096,0,0.79834976308,10200,2018-04-15 19:16:41,15,0,23.08,5349.7459540003,47.244096,0.6263432,2.52879601268,0,0,-0.671082,226.1, 0.5, 5,0,0,1024,1684,1024,1024,224.9,-89.9,98,3.84,3.854,3.848,3.87,0,0,19.383,60.8,14,Waypoint,
36.7935246,-118.9150076,5350.7302060003,48.228348,0,0.8666502902,10300,2018-04-15 19:16:41,15,0,23.08,5350.7302060003,48.228348,0.6263432,2.52879601268,0,0,-0.671082,226, 0.4, 5,0,0,1024,1684,1024,1024,224.9,-89.9,98,3.84,3.854,3.848,3.87,0,0,19.383,60.8,14,Waypoint,
36.7935245,-118.9150074,5351.7144580003,49.2126,0.223694,0.9350394,10400,2018-04-15 19:16:41,15,0,23.08,5351.7144580003,49.2126,0.6263432,2.52879601268,0,0,-0.671082,225.9, 0.1, 4.4,0,0,1024,1684,1024,1024,224.9,-89.9,98,3.84,3.854,3.848,3.87,0,0,19.383,60.8,14,Waypoint,
36.7935244,-118.9150072,5352.6987100003,50.196852,0.223694,1.00349740744,10500,2018-04-15 19:16:41,15,0,23.08,5352.6987100003,50.196852,0.6263432,2.52879601268,0,0,-0.671082,225.7, -0.2, 3.7,0,0,1024,1653,1024,1024,224.9,-90,98,3.84,3.854,3.848,3.87,0,0,19.383,60.8,14,Waypoint,
36.7935245,-118.9150072,5354.3391300003,51.837272,0.4921268,0.9813648608,10700,2018-04-15 19:16:41,15,0,23.08,5354.3391300003,51.837272,0.6263432,2.52879601268,0,0,-0.671082,225.5, -0.8, 2.3,0,0,1024,1650,1024,1024,224.9,-90,98,3.84,3.854,3.848,3.87,0,0,19.383,60.8,14,Waypoint,
36.7935245,-118.9150073,5355.3233820003,52.821524,0.4921268,0.9580380884,10800,2018-04-15 19:16:41,15,0,23.08,5355.3233820003,52.821524,0.6263432,2.52879601268,0,0,-0.671082,225.3, -0.7, 1.8,0,0,1024,1628,1024,1024,224.9,-90,98,3.84,3.854,3.848,3.87,0,0,19.383,60.8,14,Waypoint,
36.7935246,-118.9150073,5356.3076340003,53.805776,0.4921268,0.9362533108,10900,2018-04-15 19:16:41,15,0,23.08,5356.3076340003,53.805776,0.6263432,2.52879601268,0,0,-0.671082,225.2, -0.6, 1.6,0,0,1024,1548,1024,1024,224.9,-90,98,3.84,3.854,3.848,3.87,0,0,19.383,60.8,14,Waypoint,
36.7935247,-118.9150074,5357.2918860003,54.790028,0.4921268,0.89130908364,11000,2018-04-15 19:16:42,16,0,23.115,5357.2918860003,54.790028,0.6263432,2.52879601268,0,0,-0.671082,225.2, -0.4, 1.6,0,0,1024,1521,1024,1024,224.9,-89.9,98,3.823,3.845,3.862,3.881,0,0,18.71,60.8,14,Waypoint,
36.7935248,-118.9150075,5358.2761380003,55.77428,0.4921268,0.84655842604,11100,2018-04-15 19:16:42,16,0,23.115,5358.2761380003,55.77428,0.6263432,2.52879601268,0,0,-0.671082,225.2, -0.3, 1.4,0,0,1024,1439,1024,1024,224.9,-89.9,98,3.823,3.845,3.862,3.881,0,0,18.71,60.8,14,Waypoint,
36.7935249,-118.9150076,5359.2603900003,56.758532,0.4921268,0.8020341464,11200,2018-04-15 19:16:42,15,0,23.115,5359.2603900003,56.758532,0.6263432,2.52879601268,0,0,-0.671082,225.3, -0.3, 1.3,0,0,1024,1349,1024,1024,224.9,-89.9,98,3.823,3.845,3.862,3.881,0,0,18.71,60.8,14,Waypoint,
36.7935251,-118.9150078,5360.2446420003,57.742784,0.4921268,0.71384188636,11300,2018-04-15 19:16:42,15,0,23.115,5360.2446420003,57.742784,0.6263432,2.52879601268,0,0,-0.671082,225.3, -0.2, 1,0,0,1024,1260,1024,1024,224.9,-89.9,98,3.823,3.845,3.862,3.881,0,0,18.71,60.8,14,Waypoint,
36.7935253,-118.915008,5361.2288940003,58.727036,0.4921268,0.6271817786,11400,2018-04-15 19:16:42,15,0,23.115,5361.2288940003,58.727036,0.6263432,2.52879601268,0,0,-0.671082,225.3, -0.2, 0.6,0,0,1024,1182,1024,1024,224.9,-89.9,98,3.823,3.845,3.862,3.881,0,0,18.71,60.8,14,Waypoint,
36.7935255,-118.9150082,5362.2131460003,59.711288,0.4921268,0.54279201212,11500,2018-04-15 19:16:42,15,0,23.115,5362.2131460003,59.711288,0.6263432,2.52879601268,0,0,-0.671082,225.4, -0.2, 0.5,0,0,1024,1072,1024,1024,224.9,-89.9,98,3.823,3.845,3.862,3.881,0,0,18.71,60.8,14,Waypoint,
36.7935258,-118.9150086,5364.1816500003,61.679792,0.4921268,0.39527888404,11700,2018-04-15 19:16:42,16,0,23.115,5364.1816500003,61.679792,0.6263432,2.52879601268,0,0,-0.671082,225.7, 0, 0.3,0,0,1024,1024,1024,1024,224.9,-89.9,98,3.823,3.845,3.862,3.881,0,0,18.71,60.8,14,Waypoint,
36.793526,-118.9150089,5365.1659020003,62.664044,0.4921268,0.294440298136,11800,2018-04-15 19:16:42,16,0,23.115,5365.1659020003,62.664044,0.6263432,2.52879601268,0,0,-0.671082,225.7, 0, 0.3,0,0,1024,1024,1024,1024,224.9,-89.9,98,3.823,3.845,3.862,3.881,0,0,18.71,60.8,14,Waypoint,
36.7935264,-118.9150093,5367.1344060003,64.632548,0.4921268,0.206667329448,11900,2018-04-15 19:16:42,16,0,23.115,5367.1344060003,64.632548,0.6263432,2.52879601268,0,0,-0.671082,225.6, -0.2, 0.2,0,0,1024,1024,1024,1024,224.9,-89.9,98,3.823,3.845,3.862,3.881,0,0,18.71,60.8,14,Waypoint,
36.7935266,-118.9150095,5368.1186580003,65.6168,0.4921268,0.216649613232,12100,2018-04-15 19:16:43,16,0,23.115,5368.1186580003,65.6168,0.6263432,2.52879601268,0,0,-0.671082,225.5, -0.3, 0,0,0,1024,1024,1024,1024,224.9,-90,98,3.823,3.845,3.862,3.881,0,0,18.71,60.8,14,Waypoint,
36.7935268,-118.9150097,5369.1029100003,66.601052,0.4921268,0.261994102872,12200,2018-04-15 19:16:43,16,0,23.115,5369.1029100003,66.601052,0.6263432,2.52879601268,0,0,-0.671082,225.6, -0.5, -0.3,0,0,1024,1024,1024,1024,224.9,-90,98,3.823,3.845,3.862,3.881,0,0,18.71,60.8,14,Waypoint,
36.7935272,-118.9150101,5371.0714140003,68.569556,0.3131716,0.40556759828,12400,2018-04-15 19:16:43,16,0,23.115,5371.0714140003,68.569556,0.6263432,2.52879601268,0,0,-0.671082,225.7, -0.6, -0.4,0,0,1024,1024,1024,1024,224.9,-90,98,3.823,3.845,3.862,3.881,0,0,18.71,60.8,14,Waypoint,
36.7935273,-118.9150103,5372.0556660003,69.553808,0.3131716,0.4531496208,12500,2018-04-15 19:16:43,16,0,23.115,5372.0556660003,69.553808,0.6263432,2.52879601268,0,0,-0.671082,225.7, -0.4, -0.4,0,0,1024,1024,1024,1024,224.9,-89.9,98,3.823,3.845,3.862,3.881,0,0,18.71,60.8,14,Waypoint,
36.7935275,-118.9150106,5373.0399180003,70.53806,0.3131716,0.5502132722,12600,2018-04-15 19:16:43,16,0,23.115,5373.0399180003,70.53806,0.6263432,2.52879601268,0,0,-0.671082,225.7, 0, -0.4,0,0,1024,1024,1024,1024,224.9,-89.9,98,3.823,3.845,3.862,3.881,0,0,18.71,60.8,14,Waypoint,
36.7935277,-118.9150109,5374.0241700003,71.522312,0.3131716,0.65279201564,12700,2018-04-15 19:16:43,16,0,23.115,5374.0241700003,71.522312,0.6263432,2.52879601268,0,0,-0.671082,225.6, 0.2, -0.5,0,0,1024,1022,1024,1024,224.9,-89.9,98,3.823,3.845,3.862,3.881,0,0,18.71,60.8,14,Waypoint,
36.793528,-118.9150111,5375.0084220003,72.506564,0.3131716,0.77683401436,12800,2018-04-15 19:16:43,16,0,23.115,5375.0084220003,72.506564,0.6263432,2.52879601268,0,0,-0.671082,225.5, 0.2, -0.8,0,0,1024,1021,1024,1024,224.9,-89.9,98,3.823,3.845,3.862,3.881,0,0,18.71,60.8,14,Waypoint,
36.7935282,-118.9150113,5375.9926740003,73.490816,0.3131716,0.86853349236,12900,2018-04-15 19:16:43,16,0,23.115,5375.9926740003,73.490816,0.6263432,2.52879601268,0,0,-0.671082,225.4, 0, -1.1,0,0,1024,992,1024,1024,224.9,-89.9,98,3.823,3.845,3.862,3.881,0,0,18.71,60.8,14,Waypoint,
36.7935284,-118.9150116,5376.9769260003,74.475068,0.3131716,0.9751312648,13000,2018-04-15 19:16:44,16,0,23.079,5376.9769260003,74.475068,0.6263432,2.52879601268,0,0,-0.671082,225.3, -0.1, -1.6,0,0,1024,899,1024,1024,224.9,-89.9,98,3.822,3.855,3.844,3.868,0,0,18.443,60.8,14,Waypoint,
36.7935288,-118.9150119,5378.9454300003,76.443572,0.223694,1.14536749072,13200,2018-04-15 19:16:44,16,0,23.079,5378.9454300003,76.443572,0.6263432,2.52879601268,0,0,-0.671082,225.4, -0.1, -2.1,0,0,1024,1024,1024,1024,224.9,-90,98,3.822,3.855,3.844,3.868,0,0,18.443,60.8,14,Waypoint,
36.793529,-118.9150121,5379.9296820003,77.427824,0.223694,1.23800528896,13300,2018-04-15 19:16:44,16,0,23.079,5379.9296820003,77.427824,0.6263432,2.52879601268,0,0,-0.671082,225.6, -0.6, -2.5,0,0,1024,1024,1024,1024,224.9,-90,98,3.822,3.855,3.844,3.868,0,0,18.443,60.8,14,Waypoint,
36.7935292,-118.9150122,5380.9139340003,78.412076,0.223694,1.31560371664,13400,2018-04-15 19:16:44,16,0,23.079,5380.9139340003,78.412076,0.6263432,2.52879601268,0,0,-0.671082,225.7, -1, -2.5,0,0,1024,1024,1024,1024,224.9,-90,98,3.822,3.855,3.844,3.868,0,0,18.443,60.8,14,Waypoint,
36.7935294,-118.9150124,5381.8981860003,79.396328,0.223694,1.40824151488,13500,2018-04-15 19:16:44,16,0,23.079,5381.8981860003,79.396328,0.6263432,2.52879601268,0,0,-0.671082,225.9, -1.2, -2.5,0,0,1024,1024,1024,1024,224.9,-90,98,3.822,3.855,3.844,3.868,0,0,18.443,60.8,14,Waypoint,
36.7935296,-118.9150125,5382.8824380003,80.38058,0,1.48583994256,13600,2018-04-15 19:16:44,16,0,23.079,5382.8824380003,80.38058,0.6263432,2.52879601268,0,0,-0.671082,226, -1.2, -2.2,0,0,1024,1024,1024,1024,224.9,-90,98,3.822,3.855,3.844,3.868,0,0,18.443,60.8,14,Waypoint,
36.7935298,-118.9150126,5383.8666900003,81.364832,0,1.56353679544,13700,2018-04-15 19:16:44,16,0,23.079,5383.8666900003,81.364832,0.6263432,2.52879601268,0,0,-0.671082,226, -0.9, -1.8,0,0,1024,878,1024,1024,224.9,-89.9,98,3.822,3.855,3.844,3.868,0,0,18.443,60.8,14,Waypoint,
36.7935299,-118.9150127,5384.8509420003,82.349084,0,1.6097933586,13800,2018-04-15 19:16:44,16,0,23.079,5384.8509420003,82.349084,0.6263432,2.52879601268,0,0,-0.671082,226, -0.6, -1.5,0,0,1024,851,1024,1024,224.9,-89.9,98,3.822,3.855,3.844,3.868,0,0,18.443,60.8,14,Waypoint,
36.79353,-118.9150128,5385.8351940003,83.333336,0,1.65607616848,13900,2018-04-15 19:16:44,16,0,23.079,5385.8351940003,83.333336,0.6263432,2.52879601268,0,0,-0.671082,226.1, -0.6, -1.7,0,0,1024,890,1024,1024,224.9,-89.9,98,3.822,3.855,3.844,3.868,0,0,18.443,60.8,14,Waypoint,
36.7935302,-118.9150129,5386.8194460003,84.317588,0,1.73376317884,14000,2018-04-15 19:16:45,16,0,23.064,5386.8194460003,84.317588,0.6263432,2.52879601268,0,0,-0.671082,226.2, -0.6, -1.7,0,0,1024,929,1024,1024,224.9,-89.9,98,3.822,3.855,3.844,3.868,0,0,18.482,60.8,14,Waypoint,
36.7935303,-118.915013,5387.8036980003,85.30184,0,1.78002630368,14100,2018-04-15 19:16:45,16,0,23.064,5387.8036980003,85.30184,0.6263432,2.52879601268,0,0,-0.671082,226.3, -0.7, -1.9,0,0,1024,979,1024,1024,224.9,-89.9,98,3.822,3.855,3.844,3.868,0,0,18.482,60.8,14,Waypoint,
36.7935304,-118.9150131,5388.7879500003,86.286092,0,1.82631567524,14200,2018-04-15 19:16:45,16,0,23.064,5388.7879500003,86.286092,0.6263432,2.52879601268,0,0,-0.671082,226.4, -0.6, -2.1,0,0,1024,1024,1024,1024,224.9,-89.9,98,3.822,3.855,3.844,3.868,0,0,18.482,60.8,14,Waypoint,
36.7935305,-118.9150132,5389.7722020003,87.270344,0,1.87262473184,14300,2018-04-15 19:16:45,16,0,23.064,5389.7722020003,87.270344,0.6263432,2.52879601268,0,0,-0.671082,226.4, -0.5, -2.3,0,0,1024,1024,1024,1024,224.9,-89.9,98,3.822,3.855,3.844,3.868,0,0,18.482,60.8,14,Waypoint,
36.7935306,-118.9150132,5390.7564540003,88.254596,0,1.90399284308,14400,2018-04-15 19:16:45,16,0,23.064,5390.7564540003,88.254596,0.6263432,2.52879601268,0,0,-0.671082,226.3, -0.5, -2.2,0,0,1024,1024,1024,1024,224.9,-89.9,98,3.822,3.855,3.844,3.868,0,0,18.482,60.8,14,Waypoint,
36.7935308,-118.9150132,5392.7249580003,90.2231,0,1.96726384248,14700,2018-04-15 19:16:45,16,0,23.064,5392.7249580003,90.2231,0.6263432,2.52879601268,0,0,-0.671082,226.2, -0.6, -1.7,0,0,1024,1024,1024,1024,224.9,-89.9,98,3.822,3.855,3.844,3.868,0,0,18.482,60.8,14,Waypoint,
36.7935308,-118.9150132,5394.6934620003,92.191604,0,1.96726384248,14810,2018-04-15 19:16:45,17,0,23.064,5394.6934620003,92.191604,0.6263432,2.52879601268,0,0,-0.671082,226.2, -0.6, -1.2,0,0,1024,1024,1024,1024,224.9,-89.9,98,3.822,3.855,3.844,3.868,0,0,18.482,60.8,14,Waypoint,
36.7935309,-118.9150132,5395.6777140003,93.175856,0,1.9991470456,14900,2018-04-15 19:16:45,17,0,23.064,5395.6777140003,93.175856,0.6263432,2.52879601268,0,0,-0.671082,226, -0.6, -1,0,0,1024,1024,1024,1024,224.9,-90,98,3.822,3.855,3.844,3.868,0,0,18.482,60.8,14,Waypoint,
36.7935309,-118.9150132,5398.3023860003,95.800528,0,1.9991470456,15110,2018-04-15 19:16:46,17,0,23.064,5398.3023860003,95.800528,0.6263432,2.52879601268,0,0,-0.671082,225.5, -0.4, -1.3,0,0,1024,1024,1024,1024,224.9,-89.9,98,3.822,3.855,3.844,3.868,0,0,18.482,60.8,14,Waypoint,
36.7935309,-118.9150132,5399.2866380003,96.78478,0.223694,1.9991470456,15300,2018-04-15 19:16:46,17,0,23.064,5399.2866380003,96.78478,0.6263432,2.52879601268,0,0,-0.671082,225.3, -0.2, -1.3,0,0,1024,1024,1024,1024,224.9,-89.9,98,3.822,3.855,3.844,3.868,0,0,18.482,60.8,14,Waypoint,
36.7935309,-118.9150132,5400.2708900003,97.769032,0.223694,1.9991470456,15400,2018-04-15 19:16:46,17,0,23.064,5400.2708900003,97.769032,0.6263432,2.52879601268,0,0,-0.671082,225.1, 0, -1.1,0,0,1024,1024,1024,1024,224.9,-89.9,98,3.822,3.855,3.844,3.868,0,0,18.482,60.8,14,Waypoint,
36.7935308,-118.9150133,5401.2551420003,98.753284,0.223694,1.98174547024,15500,2018-04-15 19:16:46,17,0,23.064,5401.2551420003,98.753284,0.6263432,2.52879601268,0,0,-0.671082,225, 0, -1,0,0,1024,1024,1024,1024,224.9,-89.9,98,3.822,3.855,3.844,3.868,0,0,18.482,60.8,14,Waypoint,
36.7935308,-118.9150132,5402.2393940003,99.737536,0.223694,1.96726384248,15600,2018-04-15 19:16:46,17,0,23.064,5402.2393940003,99.737536,0.6263432,2.52879601268,0,0,-0.671082,225, 0.1, -0.9,0,0,1024,1024,1024,1024,224.9,-89.9,98,3.822,3.855,3.844,3.868,0,0,18.482,60.8,14,Waypoint,
36.7935307,-118.9150132,5403.2236460003,100.721788,0.223694,1.93554468136,15700,2018-04-15 19:16:46,17,0,23.064,5403.2236460003,100.721788,0.6263432,2.52879601268,0,0,-0.671082,225.1, 0.1, -1,0,0,1024,1024,1024,1024,224.9,-89.9,98,3.822,3.855,3.844,3.868,0,0,18.482,60.8,14,Waypoint,
36.7935306,-118.9150131,5404.2078980003,101.70604,0.223694,1.88936685836,15800,2018-04-15 19:16:46,17,0,23.064,5404.2078980003,101.70604,0.6263432,2.52879601268,0,0,-0.671082,225.1, 0, -0.9,0,0,1024,1024,1024,1024,224.9,-89.9,98,3.822,3.855,3.844,3.868,0,0,18.482,60.8,14,Waypoint,
36.7935306,-118.9150131,5405.1921500003,102.690292,0.223694,1.88936685836,15900,2018-04-15 19:16:46,17,0,23.064,5405.1921500003,102.690292,0.6263432,2.52879601268,0,0,-0.671082,225.2, 0.1, -0.7,0,0,1024,1024,1024,1024,224.9,-89.9,98,3.822,3.855,3.844,3.868,0,0,18.482,60.8,14,Waypoint,
36.7935305,-118.915013,5406.1764020003,103.674544,0.223694,1.84321856292,16000,2018-04-15 19:16:47,17,0,23.006,5406.1764020003,103.674544,0.6263432,2.52879601268,0,0,-0.671082,225.3, 0.2, -0.5,0,0,1024,1024,1024,1024,224.9,-89.9,98,3.807,3.827,3.847,3.858,0,0,18.712,60.8,14,Waypoint,
36.7935303,-118.9150129,5408.1449060003,105.643048,0.223694,1.76534126384,16200,2018-04-15 19:16:47,17,0,23.006,5408.1449060003,105.643048,0.6263432,2.52879601268,0,0,-0.671082,225.5, 0, -0.4,0,0,1024,1024,1024,1024,224.9,-89.9,98,3.807,3.827,3.847,3.858,0,0,18.712,60.8,14,Waypoint,
36.7935302,-118.9150128,5409.1291580003,106.6273,0.223694,1.71917984504,16300,2018-04-15 19:16:47,17,0,23.006,5409.1291580003,106.6273,0.6263432,2.52879601268,0,0,-0.671082,225.7, 0, -0.3,0,0,1024,1024,1024,1024,224.9,-89.9,98,3.807,3.827,3.847,3.858,0,0,18.712,60.8,14,Waypoint,
36.7935302,-118.9150127,5410.1134100003,107.611552,0.223694,1.70496724616,16400,2018-04-15 19:16:47,17,0,23.006,5410.1134100003,107.611552,0.6263432,2.52879601268,0,0,-0.671082,225.8, 0, -0.2,0,0,1024,1024,1024,1024,224.9,-89.9,98,3.807,3.827,3.847,3.858,0,0,18.712,60.8,14,Waypoint,
36.7935301,-118.9150127,5411.0976620003,108.595804,0.223694,1.6730479538,16500,2018-04-15 19:16:47,17,0,23.006,5411.0976620003,108.595804,0.6263432,2.52879601268,0,0,-0.671082,225.9, 0.2, -0.2,0,0,1024,1024,1024,1024,224.9,-89.9,98,3.807,3.827,3.847,3.858,0,0,18.712,60.8,14,Waypoint,
36.7935298,-118.9150126,5413.0661660003,110.564308,0.223694,1.56353679544,16700,2018-04-15 19:16:47,17,0,23.006,5413.0661660003,110.564308,0.6263432,2.52879601268,0,0,-0.671082,226.1, 0.7, 0,0,0,1024,1024,1024,1024,224.9,-89.9,98,3.807,3.827,3.847,3.858,0,0,18.712,60.8,14,Waypoint,
36.7935297,-118.9150125,5414.0504180003,111.54856,0.223694,1.51730975984,16800,2018-04-15 19:16:47,17,0,23.006,5414.0504180003,111.54856,0.6263432,2.52879601268,0,0,-0.671082,226.1, 0.8, 0.1,0,0,1024,1024,1024,1024,224.9,-89.9,98,3.807,3.827,3.847,3.858,0,0,18.712,60.8,14,Waypoint,
36.7935296,-118.9150124,5415.0346700003,112.532812,0.223694,1.47111553264,16900,2018-04-15 19:16:47,17,0,23.006,5415.0346700003,112.532812,0.6263432,2.52879601268,0,0,-0.671082,226, 0.8, 0.2,0,0,1024,1024,1024,1024,224.9,-89.9,98,3.807,3.827,3.847,3.858,0,0,18.712,60.8,14,Waypoint,
36.7935295,-118.9150124,5416.0189220003,113.517064,0.223694,1.43956041352,17000,2018-04-15 19:16:48,17,0,22.917,5416.0189220003,113.517064,0.6263432,2.52879601268,0,0,-0.671082,225.9, 0.8, 0.3,0,0,1024,1024,1024,1024,224.9,-89.9,98,3.79,3.814,3.832,3.846,0,0,19.364,60.8,14,Waypoint,
36.7935294,-118.9150124,5417.0031740003,114.501316,0.223694,1.40824151488,17100,2018-04-15 19:16:48,17,0,22.917,5417.0031740003,114.501316,0.6263432,2.52879601268,0,0,-0.671082,225.7, 0.7, 0.3,0,0,1024,1024,1024,1024,224.9,-89.9,98,3.79,3.814,3.832,3.846,0,0,19.364,60.8,14,Waypoint,
36.7935293,-118.9150123,5417.6593420003,115.157484,0.223694,1.3619094924,17200,2018-04-15 19:16:48,17,0,22.917,5417.6593420003,115.157484,0.6263432,2.52879601268,0,0,-0.671082,225.4, 0.8, 0.2,0,0,1024,1024,1024,1024,224.9,-89.9,98,3.79,3.814,3.832,3.846,0,0,19.364,60.8,14,Waypoint,
36.7935292,-118.9150122,5418.6435940003,116.141736,0.223694,1.31560371664,17300,2018-04-15 19:16:48,17,0,22.917,5418.6435940003,116.141736,0.6263432,2.52879601268,0,0,-0.671082,225.2, 1.1, 0.4,0,0,1024,1024,1024,1024,224.9,-89.9,98,3.79,3.814,3.832,3.846,0,0,19.364,60.8,14,Waypoint,
36.7935291,-118.9150122,5419.6278460003,117.125988,0.223694,1.28437340068,17400,2018-04-15 19:16:48,17,0,22.917,5419.6278460003,117.125988,0.6263432,2.52879601268,0,0,-0.671082,225.1, 1.3, 0.7,0,0,1024,1024,1024,1024,224.9,-89.9,98,3.79,3.814,3.832,3.846,0,0,19.364,60.8,14,Waypoint,
36.793529,-118.9150121,5420.6120980003,118.11024,0,1.23800528896,17600,2018-04-15 19:16:48,17,0,22.917,5420.6120980003,118.11024,0.6263432,2.52879601268,0,0,-0.671082,225, 1.4, 0.8,0,0,1024,1024,1024,1024,224.9,-89.9,98,3.79,3.814,3.832,3.846,0,0,19.364,60.8,14,Waypoint,
36.7935288,-118.915012,5422.5806020003,120.078744,0,1.16054465656,17700,2018-04-15 19:16:48,17,0,22.917,5422.5806020003,120.078744,0.6263432,2.52879601268,0,0,-0.671082,224.9, 1.1, 0.8,0,0,1024,1024,1024,1024,224.9,-89.9,98,3.79,3.814,3.832,3.846,0,0,19.364,60.8,14,Waypoint,
36.7935287,-118.9150119,5424.8771900003,122.375332,0,1.11414373644,17910,2018-04-15 19:16:48,17,0,22.917,5424.8771900003,122.375332,0.6263432,2.52879601268,0,0,-0.671082,225, 0.7, 0.6,0,0,1024,1024,1024,1024,224.9,-89.9,98,3.79,3.814,3.832,3.846,0,0,19.364,60.8,14,Waypoint,
36.7935286,-118.9150118,5425.8614420003,123.359584,0,1.06776906304,18000,2018-04-15 19:16:49,17,0,22.955,5425.8614420003,123.359584,0.6263432,2.52879601268,0,0,-0.671082,225.1, 0.5, 0.8,0,0,1024,1024,1024,1024,224.9,-89.9,98,3.789,3.828,3.837,3.864,0,0,18.652,60.8,14,Waypoint,
36.7935286,-118.9150117,5426.8456940003,124.343836,0,1.05287733028,18100,2018-04-15 19:16:49,17,0,22.955,5426.8456940003,124.343836,0.6263432,2.52879601268,0,0,-0.671082,225.3, 0.5, 0.8,0,0,1024,1024,1024,1024,224.9,-89.9,98,3.789,3.828,3.837,3.864,0,0,18.652,60.8,14,Waypoint,
36.7935285,-118.9150117,5427.8299460003,125.328088,0,1.02143047888,18200,2018-04-15 19:16:49,17,0,22.955,5427.8299460003,125.328088,0.6263432,2.52879601268,0,0,-0.671082,225.5, 0.3, 0.8,0,0,1024,1024,1024,1024,224.9,-90,98,3.789,3.828,3.837,3.864,0,0,18.652,60.8,14,Waypoint,
36.7935285,-118.9150116,5428.8141980003,126.31234,0,1.00669950728,18300,2018-04-15 19:16:49,17,0,22.955,5428.8141980003,126.31234,0.6263432,2.52879601268,0,0,-0.671082,225.7, 0, 0.8,0,0,1024,1024,1024,1024,224.9,-90,98,3.789,3.828,3.837,3.864,0,0,18.652,60.8,14,Waypoint,
36.7935285,-118.9150116,5429.7984500003,127.296592,0,1.00669950728,18400,2018-04-15 19:16:49,17,0,22.955,5429.7984500003,127.296592,0.6263432,2.52879601268,0,0,-0.671082,225.9, 0.1, 0.7,0,0,1024,1024,1024,1024,224.9,-90,98,3.789,3.828,3.837,3.864,0,0,18.652,60.8,14,Waypoint,
36.7935284,-118.9150115,5430.7827020003,128.280844,0,0.96057745856,18500,2018-04-15 19:16:49,17,0,22.955,5430.7827020003,128.280844,0.6263432,2.52879601268,0,0,-0.671082,226, 0.2, 0.7,0,0,1024,1024,1024,1024,224.9,-89.9,98,3.789,3.828,3.837,3.864,0,0,18.652,60.8,14,Waypoint,
36.7935283,-118.9150115,5431.7669540003,129.265096,0,0.92887470164,18600,2018-04-15 19:16:49,17,0,22.955,5431.7669540003,129.265096,0.6263432,2.52879601268,0,0,-0.671082,226.2, 0.5, 0.9,0,0,1024,1024,1024,1024,224.9,-89.9,98,3.789,3.828,3.837,3.864,0,0,18.652,60.8,14,Waypoint,
36.7935283,-118.9150115,5432.7512060003,130.249348,0,0.92887470164,18700,2018-04-15 19:16:49,17,0,22.955,5432.7512060003,130.249348,0.6263432,2.52879601268,0,0,-0.671082,226.2, 0.7, 1.1,0,0,1024,1024,1024,1024,224.9,-89.9,98,3.789,3.828,3.837,3.864,0,0,18.652,60.8,14,Waypoint,
36.7935282,-118.9150115,5433.7354580003,131.2336,0,0.89753611796,18800,2018-04-15 19:16:49,17,0,22.955,5433.7354580003,131.2336,0.6263432,2.52879601268,0,0,-0.671082,226.2, 0.8, 1.1,0,0,1024,1024,1024,1024,224.9,-89.9,98,3.789,3.828,3.837,3.864,0,0,18.652,60.8,14,Waypoint,
36.7935282,-118.9150114,5434.7197100003,132.217852,0,0.88267063192,18900,2018-04-15 19:16:49,17,0,22.955,5434.7197100003,132.217852,0.6263432,2.52879601268,0,0,-0.671082,226.1, 0.8, 1,0,0,1024,1024,1024,1024,224.9,-89.9,98,3.789,3.828,3.837,3.864,0,0,18.652,60.8,14,Waypoint,
36.7935282,-118.9150114,5435.3758780003,132.87402,0,0.88267063192,19000,2018-04-15 19:16:50,17,0,22.973,5435.3758780003,132.87402,0.6263432,2.52879601268,0,0,-0.671082,225.9, 0.7, 1,0,0,1024,1024,1024,1024,224.9,-89.9,97,3.797,3.824,3.832,3.854,0,0,18.36,60.8,14,Waypoint,
36.7935281,-118.9150113,5436.3601300003,133.858272,0,0.83652561732,19100,2018-04-15 19:16:50,17,0,22.973,5436.3601300003,133.858272,0.6263432,2.52879601268,0,0,-0.671082,225.7, 0.6, 1,0,0,1024,1024,1024,1024,224.9,-89.9,97,3.797,3.824,3.832,3.854,0,0,18.36,60.8,14,Waypoint,
36.7935281,-118.9150113,5437.3443820003,134.842524,0,0.83652561732,19200,2018-04-15 19:16:50,17,0,22.973,5437.3443820003,134.842524,0.6263432,2.52879601268,0,0,-0.671082,225.5, 0.5, 1,0,0,1024,1024,1024,1024,224.9,-89.9,97,3.797,3.824,3.832,3.854,0,0,18.36,60.8,14,Waypoint,
36.7935281,-118.9150113,5438.3286340003,135.826776,0,0.83652561732,19300,2018-04-15 19:16:50,17,0,22.973,5438.3286340003,135.826776,0.6263432,2.52879601268,0,0,-0.671082,225.4, 0.3, 0.9,0,0,1024,1024,1024,1024,224.9,-90,97,3.797,3.824,3.832,3.854,0,0,18.36,60.8,14,Waypoint,
36.7935281,-118.9150113,5439.3128860003,136.811028,0,0.83652561732,19400,2018-04-15 19:16:50,17,0,22.973,5439.3128860003,136.811028,0.6263432,2.52879601268,0,0,-0.671082,225.3, 0.2, 0.9,0,0,1024,1024,1024,1024,224.9,-89.9,97,3.797,3.824,3.832,3.854,0,0,18.36,60.8,14,Waypoint,
36.7935282,-118.9150113,5440.6252220003,138.123364,0,0.86853349236,19520,2018-04-15 19:16:50,17,0,22.973,5440.6252220003,138.123364,0.6263432,2.52879601268,0,0,-0.671082,225.3, 0.2, 0.8,0,0,1024,1024,1024,1024,224.9,-89.9,97,3.797,3.824,3.832,3.854,0,0,18.36,60.8,14,Waypoint,
36.7935282,-118.9150113,5441.6094740003,139.107616,0,0.86853349236,19620,2018-04-15 19:16:50,17,0,22.973,5441.6094740003,139.107616,0.6263432,2.52879601268,0,0,-0.671082,225.3, 0.2, 0.6,0,0,1024,1024,1024,1024,224.9,-89.9,97,3.797,3.824,3.832,3.854,0,0,18.36,60.8,14,Waypoint,
36.7935282,-118.9150113,5442.5937260003,140.091868,0,0.86853349236,19710,2018-04-15 19:16:50,17,0,22.973,5442.5937260003,140.091868,0.6263432,2.52879601268,0,0,-0.671082,225.4, 0.4, 0.5,0,0,1024,1024,1024,1024,224.9,-89.9,97,3.797,3.824,3.832,3.854,0,0,18.36,60.8,14,Waypoint,
36.7935282,-118.9150113,5444.5622300003,142.060372,0,0.86853349236,19800,2018-04-15 19:16:50,17,0,22.973,5444.5622300003,142.060372,0.6263432,2.52879601268,0,0,-0.671082,225.5, 0.8, 0.6,0,0,1024,1024,1024,1024,224.9,-89.9,97,3.797,3.824,3.832,3.854,0,0,18.36,60.8,14,Waypoint,
36.7935282,-118.9150113,5446.5307340003,144.028876,0,0.86853349236,20010,2018-04-15 19:16:51,17,0,23.006,5446.5307340003,144.028876,0.6263432,2.52879601268,0,0,-0.671082,225.6, 0.5, 0.9,0,0,1024,1024,1024,1024,224.9,-89.9,97,3.808,3.834,3.841,3.863,0,0,18.025,60.8,14,Waypoint,
36.7935282,-118.9150113,5447.5149860003,145.013128,0,0.86853349236,20200,2018-04-15 19:16:51,17,0,23.006,5447.5149860003,145.013128,0.6263432,2.52879601268,0,0,-0.671082,225.5, 0.4, 0.9,0,0,1024,1024,1024,1024,224.9,-89.9,97,3.808,3.834,3.841,3.863,0,0,18.025,60.8,14,Waypoint,
36.7935282,-118.9150113,5448.4992380003,145.99738,0,0.86853349236,20300,2018-04-15 19:16:51,17,0,23.006,5448.4992380003,145.99738,0.6263432,2.52879601268,0,0,-0.671082,225.5, 0.5, 1,0,0,1024,1024,1024,1024,224.9,-89.9,97,3.808,3.834,3.841,3.863,0,0,18.025,60.8,14,Waypoint,
36.7935282,-118.9150112,5449.4834900003,146.981632,0,0.85516078852,20400,2018-04-15 19:16:51,17,0,23.006,5449.4834900003,146.981632,0.6263432,2.52879601268,0,0,-0.671082,225.4, 0.4, 1.1,0,0,1024,1024,1024,1024,224.9,-89.9,97,3.808,3.834,3.841,3.863,0,0,18.025,60.8,14,Waypoint,
36.7935282,-118.9150112,5450.4677420003,147.965884,0,0.85516078852,20500,2018-04-15 19:16:51,17,0,23.006,5450.4677420003,147.965884,0.6263432,2.52879601268,0,0,-0.671082,225.3, 0.3, 1,0,0,1024,1024,1024,1024,224.9,-90,97,3.808,3.834,3.841,3.863,0,0,18.025,60.8,14,Waypoint,
36.7935282,-118.9150112,5451.4519940003,148.950136,0,0.85516078852,20600,2018-04-15 19:16:51,17,0,23.006,5451.4519940003,148.950136,0.6263432,2.52879601268,0,0,-0.671082,225.3, 0.3, 1,0,0,1024,1024,1024,1024,224.9,-89.9,97,3.808,3.834,3.841,3.863,0,0,18.025,60.8,14,Waypoint,
36.7935282,-118.9150112,5452.4362460003,149.934388,0,0.85516078852,20700,2018-04-15 19:16:51,17,0,23.006,5452.4362460003,149.934388,0.6263432,2.52879601268,0,0,-0.671082,225.3, 0.3, 1,0,0,1024,1024,1024,1024,224.9,-89.9,97,3.808,3.834,3.841,3.863,0,0,18.025,60.8,14,Waypoint,
36.7935282,-118.9150112,5453.4204980003,150.91864,0,0.85516078852,20800,2018-04-15 19:16:51,17,0,23.006,5453.4204980003,150.91864,0.6263432,2.52879601268,0,0,-0.671082,225.4, 0.3, 1,0,0,1024,1024,1024,1024,224.9,-89.9,97,3.808,3.834,3.841,3.863,0,0,18.025,60.8,14,Waypoint,
36.7935282,-118.9150112,5454.4047500003,151.902892,0,0.85516078852,20900,2018-04-15 19:16:51,17,0,23.006,5454.4047500003,151.902892,0.6263432,2.52879601268,0,0,-0.671082,225.4, 0.3, 1.1,0,0,1024,1024,1024,1024,224.9,-89.9,97,3.808,3.834,3.841,3.863,0,0,18.025,60.8,14,Waypoint,
36.7935282,-118.9150112,5455.3890020003,152.887144,0,0.85516078852,21000,2018-04-15 19:16:52,17,0,22.921,5455.3890020003,152.887144,0.6263432,2.52879601268,0,0,-0.671082,225.5, 0.4, 1.2,0,0,1024,1024,1024,1024,224.9,-89.9,97,3.799,3.816,3.839,3.849,0,0,18.386,60.8,14,Waypoint,
36.7935282,-118.9150112,5456.3732540003,153.871396,0,0.85516078852,21100,2018-04-15 19:16:52,17,0,22.921,5456.3732540003,153.871396,0.6263432,2.52879601268,0,0,-0.671082,225.6, 0.4, 1.3,0,0,1024,1024,1024,1024,224.9,-89.9,97,3.799,3.816,3.839,3.849,0,0,18.386,60.8,14,Waypoint,
36.7935282,-118.9150112,5457.3575060003,154.855648,0,0.85516078852,21200,2018-04-15 19:16:52,17,0,22.921,5457.3575060003,154.855648,0.6263432,2.52879601268,0,0,-0.671082,225.6, 0.4, 1.4,0,0,1024,1024,1024,1024,224.9,-89.9,97,3.799,3.816,3.839,3.849,0,0,18.386,60.8,14,Waypoint,
36.7935282,-118.9150112,5458.3417580003,155.8399,0,0.85516078852,21300,2018-04-15 19:16:52,17,0,22.921,5458.3417580003,155.8399,0.6263432,2.52879601268,0,0,-0.671082,225.6, 0.3, 1.3,0,0,1024,1024,1024,1024,224.9,-90,97,3.799,3.816,3.839,3.849,0,0,18.386,60.8,14,Waypoint,
36.7935282,-118.9150112,5459.3260100003,156.824152,0,0.85516078852,21400,2018-04-15 19:16:52,17,0,22.921,5459.3260100003,156.824152,0.6263432,2.52879601268,0,0,-0.671082,225.6, 0.2, 1.3,0,0,1024,1024,1024,1024,224.9,-90,97,3.799,3.816,3.839,3.849,0,0,18.386,60.8,14,Waypoint,
36.7935283,-118.9150113,5460.6383460003,158.136488,0,0.90088257476,21500,2018-04-15 19:16:52,17,0,22.921,5460.6383460003,158.136488,0.6263432,2.52879601268,0,0,-0.671082,225.5, 0.1, 1.1,0,0,1024,1024,1024,1024,224.9,-89.9,97,3.799,3.816,3.839,3.849,0,0,18.386,60.8,14,Waypoint,
36.7935283,-118.9150113,5461.2945140003,158.792656,0,0.90088257476,21600,2018-04-15 19:16:52,17,0,22.921,5461.2945140003,158.792656,0.6263432,2.52879601268,0,0,-0.671082,225.4, 0.1, 1,0,0,1024,1024,1024,1024,224.9,-89.9,97,3.799,3.816,3.839,3.849,0,0,18.386,60.8,14,Waypoint,
36.7935284,-118.9150113,5462.2787660003,159.776908,0,0.93353677528,21700,2018-04-15 19:16:52,17,0,22.921,5462.2787660003,159.776908,0.6263432,2.52879601268,0,0,-0.671082,225.3, 0.1, 1,0,0,1024,1024,1024,1024,224.9,-90,97,3.799,3.816,3.839,3.849,0,0,18.386,60.8,14,Waypoint,
36.7935284,-118.9150113,5463.2630180003,160.76116,0,0.93353677528,21810,2018-04-15 19:16:52,17,0,22.921,5463.2630180003,160.76116,0.6263432,2.52879601268,0,0,-0.671082,225.3, 0.1, 0.8,0,0,1024,1024,1024,1024,224.9,-89.9,97,3.799,3.816,3.839,3.849,0,0,18.386,60.8,14,Waypoint,
36.7935285,-118.9150114,5464.5753540003,162.073496,0,0.97918966388,21900,2018-04-15 19:16:52,17,0,22.921,5464.5753540003,162.073496,0.6263432,2.52879601268,0,0,-0.671082,225.3, 0.3, 0.7,0,0,1024,1024,1024,1024,224.9,-89.9,97,3.799,3.816,3.839,3.849,0,0,18.386,60.8,14,Waypoint,
36.7935285,-118.9150114,5465.5596060003,163.057748,0,0.97918966388,22000,2018-04-15 19:16:53,17,0,22.937,5465.5596060003,163.057748,0.6263432,2.52879601268,0,0,-0.671082,225.3, 0.2, 0.8,0,0,1024,1024,1024,1024,224.9,-89.9,97,3.793,3.815,3.842,3.859,0,0,18.057,62.6,14,Waypoint,
36.7935285,-118.9150114,5466.5438580003,164.042,0,0.97918966388,22100,2018-04-15 19:16:53,17,0,22.937,5466.5438580003,164.042,0.6263432,2.52879601268,0,0,-0.671082,225.3, 0.1, 0.9,0,0,1024,1024,1024,1024,224.9,-90,97,3.793,3.815,3.842,3.859,0,0,18.057,62.6,14,Waypoint,
36.7935285,-118.9150114,5467.5281100003,165.026252,0,0.97918966388,22300,2018-04-15 19:16:53,17,0,22.937,5467.5281100003,165.026252,0.6263432,2.52879601268,0,0,-0.671082,225.2, 0, 0.9,0,0,1024,1024,1024,1024,224.9,-90,97,3.793,3.815,3.842,3.859,0,0,18.057,62.6,14,Waypoint,
36.7935286,-118.9150114,5469.4966140003,166.994756,0,1.01194885128,22400,2018-04-15 19:16:53,17,0,22.937,5469.4966140003,166.994756,0.6263432,2.52879601268,0,0,-0.671082,224.7, 0.2, 0.7,0,0,1024,1024,1024,1024,224.9,-89.9,97,3.793,3.815,3.842,3.859,0,0,18.057,62.6,14,Waypoint,
36.7935286,-118.9150114,5470.4808660003,167.979008,0,1.01194885128,22500,2018-04-15 19:16:53,17,0,22.937,5470.4808660003,167.979008,0.6263432,2.52879601268,0,0,-0.671082,224.5, 0.2, 0.8,0,0,1024,1024,1024,1024,224.9,-89.9,97,3.793,3.815,3.842,3.859,0,0,18.057,62.6,14,Waypoint,
36.7935286,-118.9150114,5471.4651180003,168.96326,0,1.01194885128,22600,2018-04-15 19:16:53,17,0,22.937,5471.4651180003,168.96326,0.6263432,2.52879601268,0,0,-0.671082,224.4, 0.2, 0.8,0,0,1024,1024,1024,1024,224.9,-89.9,97,3.793,3.815,3.842,3.859,0,0,18.057,62.6,14,Waypoint,
36.7935286,-118.9150115,5472.4493700003,169.947512,0,1.02494097768,22700,2018-04-15 19:16:53,17,0,22.937,5472.4493700003,169.947512,0.6263432,2.52879601268,0,0,-0.671082,224.4, 0.2, 0.5,0,0,1024,1024,1024,1024,224.9,-89.9,97,3.793,3.815,3.842,3.859,0,0,18.057,62.6,14,Waypoint,
36.7935285,-118.9150115,5474.4178740003,171.916016,0,0.99261158032,22900,2018-04-15 19:16:53,17,0,22.937,5474.4178740003,171.916016,0.6263432,2.52879601268,0,0,-0.671082,224.8, 0.6, 0.5,0,0,1024,1024,1024,1024,224.9,-89.9,97,3.793,3.815,3.842,3.859,0,0,18.057,62.6,14,Waypoint,
36.7935285,-118.9150115,5475.4021260003,172.900268,0,0.99261158032,23000,2018-04-15 19:16:54,17,0,22.996,5475.4021260003,172.900268,0.6263432,2.52879601268,0,0,-0.671082,225.3, 0.8, 0.5,0,0,1024,1024,1024,1024,224.9,-89.9,97,3.815,3.845,3.846,3.851,0,0,17.147,62.6,14,Waypoint,
36.7935285,-118.9150116,5476.3863780003,173.88452,0,1.00669950728,23100,2018-04-15 19:16:54,17,0,22.996,5476.3863780003,173.88452,0.6263432,2.52879601268,0,0,-0.671082,225.9, 1.1, 0.7,0,0,1024,1024,1024,1024,224.9,-89.9,97,3.815,3.845,3.846,3.851,0,0,17.147,62.6,14,Waypoint,
36.7935284,-118.9150116,5477.3706300003,174.868772,0,0.9751312648,23200,2018-04-15 19:16:54,17,0,22.996,5477.3706300003,174.868772,0.6263432,2.52879601268,0,0,-0.671082,226.4, 1.4, 1.1,0,0,1024,1024,1024,1024,224.9,-89.9,97,3.815,3.845,3.846,3.851,0,0,17.147,62.6,14,Waypoint,
36.7935283,-118.9150117,5478.3548820003,175.853024,0,0.9596128916,23300,2018-04-15 19:16:54,17,0,22.996,5478.3548820003,175.853024,0.6263432,2.52879601268,0,0,-0.671082,226.8, 1.6, 1.5,0,0,1024,1024,1024,1024,224.9,-89.9,97,3.815,3.845,3.846,3.851,0,0,17.147,62.6,14,Waypoint,
36.7935282,-118.9150117,5479.3391340003,176.837276,0,0.92931105336,23400,2018-04-15 19:16:54,17,0,22.996,5479.3391340003,176.837276,0.6263432,2.52879601268,0,0,-0.671082,226.9, 2, 1.6,0,0,1024,1024,1024,1024,224.9,-89.9,97,3.815,3.845,3.846,3.851,0,0,17.147,62.6,14,Waypoint,
36.7935281,-118.9150117,5480.3233860003,177.821528,0,0.89946525188,23500,2018-04-15 19:16:54,17,0,22.996,5480.3233860003,177.821528,0.6263432,2.52879601268,0,0,-0.671082,226.9, 2.2, 1.8,0,0,1024,1024,1024,1024,224.9,-89.9,97,3.815,3.845,3.846,3.851,0,0,17.147,62.6,14,Waypoint,
36.7935281,-118.9150118,5480.9795540003,178.477696,0,0.91685698472,23600,2018-04-15 19:16:54,17,0,22.996,5480.9795540003,178.477696,0.6263432,2.52879601268,0,0,-0.671082,226.9, 2.3, 1.3,0,0,1024,1024,1024,1024,224.9,-89.9,97,3.815,3.845,3.846,3.851,0,0,17.147,62.6,14,Waypoint,
36.7935281,-118.9150118,5481.9638060003,179.461948,0,0.91685698472,23700,2018-04-15 19:16:54,17,0,22.996,5481.9638060003,179.461948,0.6263432,2.52879601268,0,0,-0.671082,226.7, 2.5, 0.7,0,0,1024,1024,1024,1024,224.9,-89.9,97,3.815,3.845,3.846,3.851,0,0,17.147,62.6,14,Waypoint,
36.7935281,-118.9150118,5482.9480580003,180.4462,0,0.91685698472,23810,2018-04-15 19:16:54,17,0,22.996,5482.9480580003,180.4462,0.6263432,2.52879601268,0,0,-0.671082,226.4, 2.1, 0.5,0,0,1024,1024,1024,1024,224.9,-89.9,97,3.815,3.845,3.846,3.851,0,0,17.147,62.6,14,Waypoint,
36.7935281,-118.9150117,5484.9165620003,182.414704,0,0.89946525188,24000,2018-04-15 19:16:55,17,0,23.018,5484.9165620003,182.414704,0.6263432,2.52879601268,0,0,-0.671082,226.3, 0.9, 1.7,0,0,1024,1024,1024,1024,224.9,-90,97,3.807,3.834,3.848,3.863,0,0,16.993,62.6,14,Waypoint,
36.7935281,-118.9150116,5485.9008140003,183.398956,0,0.88270015948,24100,2018-04-15 19:16:55,17,0,23.018,5485.9008140003,183.398956,0.6263432,2.52879601268,0,0,-0.671082,226.2, 0.5, 1.9,0,0,1024,1024,1024,1024,224.9,-90,97,3.807,3.834,3.848,3.863,0,0,16.993,62.6,14,Waypoint,
36.7935281,-118.9150115,5486.8850660003,184.383208,0.223694,0.86659779676,24200,2018-04-15 19:16:55,17,0,23.018,5486.8850660003,184.383208,0.6263432,2.52879601268,0,0,-0.671082,226.2, 0.3, 2.4,0,0,1024,1024,1024,1024,224.9,-90,97,3.807,3.834,3.848,3.863,0,0,16.993,62.6,14,Waypoint,
36.7935281,-118.9150111,5489.8378220003,187.335964,0,0.80955711252,24400,2018-04-15 19:16:55,17,0,23.018,5489.8378220003,187.335964,0.6263432,2.52879601268,0,0,-0.671082,226.2, 0, 2.7,0,0,1024,1024,1024,1024,224.9,-90,97,3.807,3.834,3.848,3.863,0,0,16.993,62.6,14,Waypoint,
36.7935283,-118.915011,5491.8063260003,189.304468,0,0.86461945024,24620,2018-04-15 19:16:55,17,0,23.018,5491.8063260003,189.304468,0.6263432,2.52879601268,0,0,-0.671082,225.9, -0.1, 2.2,0,0,1024,1024,1024,1024,224.9,-90,97,3.807,3.834,3.848,3.863,0,0,16.993,62.6,14,Waypoint,
36.7935284,-118.915011,5492.7905780003,190.28872,0,0.89859254844,24710,2018-04-15 19:16:55,17,0,23.018,5492.7905780003,190.28872,0.6263432,2.52879601268,0,0,-0.671082,225.4, -0.4, 2,0,0,1024,1024,1024,1024,224.9,-90,97,3.807,3.834,3.848,3.863,0,0,16.993,62.6,14,Waypoint,
36.7935285,-118.9150109,5493.7748300003,191.272972,0,0.9230971424,24900,2018-04-15 19:16:55,17,0,23.018,5493.7748300003,191.272972,0.6263432,2.52879601268,0,0,-0.671082,225.1, -0.5, 1.6,0,0,1024,1024,1024,1024,224.9,-90,97,3.807,3.834,3.848,3.863,0,0,16.993,62.6,14,Waypoint,
36.7935286,-118.9150109,5494.7590820003,192.257224,0,0.9577756212,25000,2018-04-15 19:16:56,17,0,22.883,5494.7590820003,192.257224,0.6263432,2.52879601268,0,0,-0.671082,224.9, -0.4, 0.9,0,0,1024,1024,1024,1024,224.9,-90,97,3.807,3.834,3.848,3.863,0,0,18.563,62.6,14,Waypoint,
36.7935288,-118.9150108,5495.7433340003,193.241476,0,1.0195866468,25100,2018-04-15 19:16:56,17,0,22.883,5495.7433340003,193.241476,0.6263432,2.52879601268,0,0,-0.671082,224.8, -0.5, 0.5,0,0,1024,1024,1024,1024,224.9,-90,97,3.807,3.834,3.848,3.863,0,0,18.563,62.6,14,Waypoint,
36.7935288,-118.9150108,5496.7275860003,194.225728,0,1.0195866468,25200,2018-04-15 19:16:56,17,0,22.883,5496.7275860003,194.225728,0.6263432,2.52879601268,0,0,-0.671082,224.9, -0.9, 0.4,0,0,1024,1024,1024,1024,224.9,-90,97,3.807,3.834,3.848,3.863,0,0,18.563,62.6,14,Waypoint,
36.7935289,-118.9150107,5497.7118380003,195.20998,0,1.04797575532,25300,2018-04-15 19:16:56,17,0,22.883,5497.7118380003,195.20998,0.6263432,2.52879601268,0,0,-0.671082,225.1, -1.2, 0.8,0,0,1024,1024,1024,1024,224.9,-89.9,97,3.807,3.834,3.848,3.863,0,0,18.563,62.6,14,Waypoint,
36.793529,-118.9150106,5498.6960900003,196.194232,0,1.07764767228,25400,2018-04-15 19:16:56,17,0,22.883,5498.6960900003,196.194232,0.6263432,2.52879601268,0,0,-0.671082,225.2, -1.1, 1.3,0,0,1024,1024,1024,1024,224.9,-89.9,97,3.807,3.834,3.848,3.863,0,0,18.563,62.6,14,Waypoint,
36.793529,-118.9150105,5499.6803420003,197.178484,0,1.07248691096,25500,2018-04-15 19:16:56,17,0,22.883,5499.6803420003,197.178484,0.6263432,2.52879601268,0,0,-0.671082,225.4, -0.9, 1.6,0,0,1024,1024,1024,1024,224.9,-90,97,3.807,3.834,3.848,3.863,0,0,18.563,62.6,14,Waypoint,
36.7935291,-118.9150104,5500.6645940003,198.162736,0,1.10425528468,25600,2018-04-15 19:16:56,17,0,22.883,5500.6645940003,198.162736,0.6263432,2.52879601268,0,0,-0.671082,225.5, -1.1, 1.7,0,0,1024,1024,1024,1024,224.9,-89.9,97,3.807,3.834,3.848,3.863,0,0,18.563,62.6,14,Waypoint,
36.7935291,-118.9150103,5501.6488460003,199.146988,0,1.1007710326,25700,2018-04-15 19:16:56,17,0,22.883,5501.6488460003,199.146988,0.6263432,2.52879601268,0,0,-0.671082,225.6, -1.3, 1.7,0,0,1024,1024,1024,1024,224.9,-89.9,97,3.807,3.834,3.848,3.863,0,0,18.563,62.6,14,Waypoint,
36.7935293,-118.9150102,5503.9454340003,201.443576,0,1.17080384324,25900,2018-04-15 19:16:56,17,0,22.883,5503.9454340003,201.443576,0.6263432,2.52879601268,0,0,-0.671082,225.6, -1.1, 1.4,0,0,1024,1024,1024,1024,224.9,-89.9,97,3.807,3.834,3.848,3.863,0,0,18.563,62.6,14,Waypoint,
36.7935293,-118.9150101,5504.6016020003,202.099744,0,1.1689796962,26000,2018-04-15 19:16:57,17,0,22.883,5504.6016020003,202.099744,0.6263432,2.52879601268,0,0,-0.671082,225.6, -0.9, 1.1,0,0,1024,1024,1024,1024,224.9,-89.9,97,3.781,3.814,3.825,3.844,0,0,18.563,62.6,14,Waypoint,
36.7935294,-118.91501,5505.5858540003,203.083996,0,1.20435699392,26100,2018-04-15 19:16:57,17,0,22.883,5505.5858540003,203.083996,0.6263432,2.52879601268,0,0,-0.671082,225.6, -1.4, 1,0,0,1024,1024,1024,1024,224.9,-89.9,97,3.781,3.814,3.825,3.844,0,0,18.563,62.6,14,Waypoint,
36.7935294,-118.9150098,5507.5543580003,205.0525,0,1.20435699392,26400,2018-04-15 19:16:57,17,0,22.883,5507.5543580003,205.0525,0.6263432,2.52879601268,0,0,-0.671082,225.6, -1.8, 1.9,0,0,1024,1024,1024,1024,224.9,-89.9,97,3.781,3.814,3.825,3.844,0,0,18.563,62.6,14,Waypoint,
36.7935293,-118.9150097,5509.5228620003,207.021004,0,1.1689796962,26500,2018-04-15 19:16:57,17,0,22.883,5509.5228620003,207.021004,0.6263432,2.52879601268,0,0,-0.671082,225.3, -0.7, 2.3,0,0,1024,1024,1024,1024,224.9,-89.9,97,3.781,3.814,3.825,3.844,0,0,18.563,62.6,14,Waypoint,
36.7935293,-118.9150095,5512.4756180003,209.97376,0,1.17335305592,26700,2018-04-15 19:16:57,17,0,22.883,5512.4756180003,209.97376,0.6263432,2.52879601268,0,0,-0.671082,224, -0.9, 1.7,0,0,1024,1024,1024,1024,224.9,-90,97,3.781,3.814,3.825,3.844,0,0,18.563,62.6,14,Waypoint,
36.7935292,-118.9150094,5513.4598700003,210.958012,0,1.14042982652,26900,2018-04-15 19:16:57,17,0,22.883,5513.4598700003,210.958012,0.6263432,2.52879601268,0,0,-0.671082,224, -1.4, 2.5,0,0,1024,1024,1024,1024,224.9,-89.9,97,3.781,3.814,3.825,3.844,0,0,18.563,62.6,14,Waypoint,
36.7935291,-118.9150092,5515.4283740003,212.926516,0,1.11349084928,27100,2018-04-15 19:16:58,17,0,22.883,5515.4283740003,212.926516,0.6263432,2.52879601268,0,0,-0.671082,224.9, -1.9, 3.5,0,0,1024,1024,1024,1024,224.9,-90,97,3.781,3.814,3.825,3.844,0,0,18.563,62.6,14,Waypoint,
36.793529,-118.9150091,5516.4126260003,213.910768,0,1.08357286932,27200,2018-04-15 19:16:58,17,0,22.883,5516.4126260003,213.910768,0.6263432,2.52879601268,0,0,-0.671082,225.7, -1.7, 3.9,0,0,1024,1024,1024,1024,224.9,-89.9,97,3.781,3.814,3.825,3.844,0,0,18.563,62.6,14,Waypoint,
36.793529,-118.9150091,5517.3968780003,214.89502,0,1.08357286932,27300,2018-04-15 19:16:58,17,0,22.883,5517.3968780003,214.89502,0.6263432,2.52879601268,0,0,-0.671082,226.4, -1.2, 4.3,0,0,1024,1024,1024,1024,224.9,-89.9,97,3.781,3.814,3.825,3.844,0,0,18.563,62.6,14,Waypoint,
36.793529,-118.915009,5518.3811300003,215.879272,0,1.09024937872,27400,2018-04-15 19:16:58,17,0,22.883,5518.3811300003,215.879272,0.6263432,2.52879601268,0,0,-0.671082,226.7, -0.9, 4.3,0,0,1024,1024,1024,1024,224.9,-89.9,97,3.781,3.814,3.825,3.844,0,0,18.563,62.6,14,Waypoint,
36.793529,-118.9150089,5519.3653820003,216.863524,0,1.09766079628,27500,2018-04-15 19:16:58,17,0,22.883,5519.3653820003,216.863524,0.6263432,2.52879601268,0,0,-0.671082,226.7, -1.1, 3.9,0,0,1024,1024,1024,1024,224.9,-89.9,97,3.781,3.814,3.825,3.844,0,0,18.563,62.6,14,Waypoint,
