latitude,longitude,altitude(feet),ascent(feet),speed(mph),distance(feet),time(millisecond),datetime(utc),satellites,gpslevel,voltage(v),max_altitude(feet),max_ascent(feet),max_speed(mph),max_distance(feet), xSpeed(mph), ySpeed(mph), zSpeed(mph), compass_heading(degrees), pitch(degrees), roll(degrees),isPhoto,isVideo,rc_elevator,rc_aileron,rc_throttle,rc_rudder,gimbal_heading(degrees),gimbal_pitch(degrees),battery_percent,voltageCell1,voltageCell2,voltageCell3,voltageCell4,voltageCell5,voltageCell6,current(A),battery_temperature(f),flycStateRaw,flycState,message
36.7935264,-118.9150108,5302.5226837883,0,0.223694,0,3120,2018-04-15 18:59:04,13,0,0,5302.5226837883,0,0.223694,0,0,0,0,227.6, 2.1, 1.8,1,0,1024,1024,1024,1024,226.5,-89.9,100,4.187,4.194,4.163,4.169,0,0,0,59,11,AutoTakeoff,DJI_0779.jpg Starting Mission from Lat/Long: 36.79352/-118.91501 Camera: Zenmuse X3 - Overlap: 90/90 - Active Connection: Yes
36.7935266,-118.9150108,5302.5226837883,0,0.223694,0.072969818608,3200,2018-04-15 18:59:04,13,0,0,5302.5226837883,0,0.223694,0.072969818608,0,0,0,227.8, 1.2, 1.2,0,0,1024,1024,1024,1024,226.5,-90,100,4.187,4.194,4.163,4.169,0,0,0,59,11,AutoTakeoff,
36.7935268,-118.9150109,5302.5226837883,0,0.447388,0.148835634684,3300,2018-04-15 18:59:04,13,0,0,5302.5226837883,0,0.447388,0.148835634684,0,0,0,227.9, 0.5, 0.7,0,0,1024,1024,1024,1024,226.5,-90,100,4.187,4.194,4.163,4.169,0,0,0,59,11,AutoTakeoff,
36.793527,-118.9150109,5302.8507677883,0.328084,0.447388,0.220850728852,3400,2018-04-15 18:59:04,14,0,0,5302.8507677883,0.328084,0.447388,0.220850728852,0,0,0,227.8, 0.1, 0.2,0,0,1024,1024,1024,1024,226.5,-90,100,4.187,4.194,4.163,4.169,0,0,0,59,11,AutoTakeoff,
36.7935273,-118.915011,5302.8507677883,0.328084,0.447388,0.33352363272,3500,2018-04-15 18:59:04,14,0,0,5302.8507677883,0.328084,0.447388,0.33352363272,0,0,0,227.7, -0.4, -0.5,0,0,1024,1024,1024,1024,226.5,-90,100,4.187,4.194,4.163,4.169,0,0,0,59,11,AutoTakeoff,
36.7935276,-118.9150111,5303.1788517883,0.656168,0.447388,0.4465059198,3600,2018-04-15 18:59:04,13,0,0,5303.1788517883,0.656168,0.447388,0.4465059198,0,0,0,227.7, -0.8, -1.4,0,0,1024,1024,1024,1024,226.5,-90,100,4.187,4.194,4.163,4.169,0,0,0,59,11,AutoTakeoff,
36.7935279,-118.9150113,5303.1788517883,0.656168,0.447388,0.566437026,3700,2018-04-15 18:59:05,13,0,0,5303.1788517883,0.656168,0.447388,0.566437026,0,0,0,227.6, -0.8, -2.1,0,0,1024,1024,1024,1024,226.5,-89.9,100,4.187,4.194,4.163,4.169,0,0,0,59,11,AutoTakeoff,
36.7935281,-118.9150114,5303.5069357883,0.984252,0.3131716,0.64454070304,3810,2018-04-15 18:59:05,12,0,0,5303.5069357883,0.984252,0.447388,0.64454070304,0,0,0,227.5, -0.5, -2.3,0,0,1024,1024,1024,1024,226.5,-89.9,100,4.187,4.194,4.163,4.169,0,0,0,59,11,AutoTakeoff,
36.7935284,-118.9150116,5303.5069357883,0.984252,0.3131716,0.76622049696,4000,2018-04-15 18:59:05,12,0,25.23,5303.5069357883,0.984252,0.447388,0.76622049696,0,0,0,227.5, -0.2, -2.4,0,0,1024,1024,1024,1024,226.5,-89.9,100,4.187,4.194,4.163,4.169,0,0,4.19,59,11,AutoTakeoff,
36.7935286,-118.9150118,5303.5069357883,0.984252,0.3131716,0.85418965988,4100,2018-04-15 18:59:05,14,0,25.23,5303.5069357883,0.984252,0.447388,0.85418965988,0,0,0,227.4, -0.1, -2.5,0,0,1024,1024,1024,1024,226.5,-89.9,100,4.187,4.194,4.163,4.169,0,0,4.19,59,11,AutoTakeoff,
36.7935288,-118.915012,5303.8350197883,1.312336,0.3131716,0.94322181496,4200,2018-04-15 18:59:05,14,0,25.23,5303.8350197883,1.312336,0.447388,0.94322181496,0,0,0,227.3, 0, -2.6,0,0,1024,1024,1024,1024,226.5,-89.9,100,4.187,4.194,4.163,4.169,0,0,4.19,59,11,AutoTakeoff,
36.793529,-118.9150121,5303.8350197883,1.312336,0.223694,1.02182417968,4300,2018-04-15 18:59:05,14,0,25.23,5303.8350197883,1.312336,0.447388,1.02182417968,0,0,0,227.2, 0, -2.6,0,0,1024,1024,1024,1024,226.5,-89.9,100,4.187,4.194,4.163,4.169,0,0,4.19,59,11,AutoTakeoff,
36.7935291,-118.9150122,5304.1631037883,1.64042,0,1.06664045408,4400,2018-04-15 18:59:05,14,0,25.23,5304.1631037883,1.64042,0.447388,1.06664045408,0,0,0,227.1, 0, -2.3,0,0,1024,1024,1024,1024,226.5,-89.9,100,4.187,4.194,4.163,4.169,0,0,4.19,59,11,AutoTakeoff,
36.7935293,-118.9150124,5304.1631037883,1.64042,0,1.15673232048,4500,2018-04-15 18:59:05,13,0,25.23,5304.1631037883,1.64042,0.447388,1.15673232048,0,0,0,227.1, 0, -1.8,0,0,1024,1024,1024,1024,226.5,-89.9,100,4.187,4.194,4.163,4.169,0,0,4.19,59,11,AutoTakeoff,
36.7935294,-118.9150126,5304.4911877883,1.968504,0,1.2143373092,4600,2018-04-15 18:59:05,13,0,25.23,5304.4911877883,1.968504,0.447388,1.2143373092,0,0,0,227.1, 0.1, -1.6,0,0,1024,1024,1024,1024,226.5,-89.9,100,4.187,4.194,4.163,4.169,0,0,4.19,59,11,AutoTakeoff,
36.7935295,-118.9150128,5304.4911877883,1.968504,0.223694,1.2730643452,4700,2018-04-15 18:59:06,13,0,25.23,5304.4911877883,1.968504,0.447388,1.2730643452,0,0,-0.223694,227.2, 0.1, -1.5,0,0,1024,1024,1024,1024,226.5,-89.9,100,4.187,4.194,4.163,4.169,0,0,4.19,59,11,AutoTakeoff,
36.7935297,-118.915013,5304.8192717883,2.296588,0.223694,1.36483928252,4800,2018-04-15 18:59:06,13,0,25.23,5304.8192717883,2.296588,0.447388,1.36483928252,0,0,-0.223694,227.3, 0.2, -1.4,0,0,1024,1024,1024,1024,226.5,-89.9,100,4.187,4.194,4.163,4.169,0,0,4.19,59,11,AutoTakeoff,
36.7935298,-118.9150131,5304.8192717883,2.296588,0.223694,1.4108104126,4900,2018-04-15 18:59:06,14,0,25.23,5304.8192717883,2.296588,0.447388,1.4108104126,0,0,-0.223694,227.3, 0.3, -1.7,0,0,1024,1024,1024,1024,226.5,-89.9,100,4.187,4.194,4.163,4.169,0,0,4.19,59,11,AutoTakeoff,
36.7935298,-118.9150133,5305.1473557883,2.624672,0,1.43956041352,5000,2018-04-15 18:59:06,14,0,23.918,5305.1473557883,2.624672,0.447388,1.43956041352,0,0,-0.223694,227.4, 0.4, -2,0,0,1024,1024,1024,1024,226.5,-89.9,100,3.901,3.896,3.917,3.956,0,0,13.493,59,11,AutoTakeoff,
36.7935299,-118.9150135,5305.4754397883,2.952756,0,1.50098758084,5100,2018-04-15 18:59:06,14,0,23.918,5305.4754397883,2.952756,0.447388,1.50098758084,0,0,-0.223694,227.4, 0.5, -2.3,0,0,1024,1024,1024,1024,226.5,-89.9,100,3.901,3.896,3.917,3.956,0,0,13.493,59,6,P-GPS,
36.79353,-118.9150136,5305.4754397883,2.952756,0,1.5473917818,5200,2018-04-15 18:59:06,14,0,23.918,5305.4754397883,2.952756,0.447388,1.5473917818,0,0,-0.223694,227.5, 0.5, -2.6,0,0,1024,1024,1024,1024,226.5,-89.9,100,3.901,3.896,3.917,3.956,0,0,13.493,59,14,Waypoint,
36.7935301,-118.9150138,5305.8035237883,3.28084,0,1.60954073392,5300,2018-04-15 18:59:06,14,0,23.918,5305.8035237883,3.28084,0.447388,1.60954073392,0,0,0,227.6, 0.6, -2.3,0,0,1024,1024,1024,1024,226.5,-89.9,100,3.901,3.896,3.917,3.956,0,0,13.493,59,14,Waypoint,
36.7935302,-118.915014,5306.1316077883,3.608924,0,1.67221790128,5400,2018-04-15 18:59:06,14,0,23.918,5306.1316077883,3.608924,0.447388,1.67221790128,0,0,0,227.7, 0.9, -1.4,0,0,1024,1024,1024,1024,226.5,-89.9,100,3.901,3.896,3.917,3.956,0,0,13.493,59,14,Waypoint,
36.7935302,-118.9150141,5306.1316077883,3.608924,0,1.68872708816,5500,2018-04-15 18:59:06,14,0,23.918,5306.1316077883,3.608924,0.447388,1.68872708816,0,0,0,227.6, 0.8, -1.3,0,0,1024,1024,1024,1024,226.5,-89.9,100,3.901,3.896,3.917,3.956,0,0,13.493,59,14,Waypoint,
36.7935303,-118.9150141,5306.4596917883,3.937008,0,1.71880582928,5600,2018-04-15 18:59:06,13,0,23.918,5306.4596917883,3.937008,0.447388,1.71880582928,0,0,-0.223694,227.4, 0.7, -1.3,0,0,1024,1024,1024,1024,226.5,-89.9,100,3.901,3.896,3.917,3.956,0,0,13.493,59,14,Waypoint,
36.7935303,-118.9150141,5306.7877757883,4.265092,0,1.71880582928,5700,2018-04-15 18:59:07,13,0,23.918,5306.7877757883,4.265092,0.447388,1.71880582928,0,0,-0.223694,227.1, 0.5, -1.2,0,0,1024,1024,1024,1024,226.5,-89.9,100,3.901,3.896,3.917,3.956,0,0,13.493,59,14,Waypoint,
36.7935303,-118.9150141,5306.7877757883,4.265092,0,1.71880582928,5800,2018-04-15 18:59:07,13,0,23.918,5306.7877757883,4.265092,0.447388,1.71880582928,0,0,-0.223694,226.8, 0.4, -1.2,0,0,1024,1024,1024,1024,226.5,-89.9,100,3.901,3.896,3.917,3.956,0,0,13.493,59,14,Waypoint,
36.7935304,-118.9150142,5307.4439437883,4.92126,0,1.7654035998,5920,2018-04-15 18:59:07,13,0,23.918,5307.4439437883,4.92126,0.447388,1.7654035998,0,0,-0.223694,226.5, 0.3, -1.2,0,0,1024,1024,1024,1024,226.5,-89.9,100,3.901,3.896,3.917,3.956,0,0,13.493,59,14,Waypoint,
36.7935304,-118.9150142,5307.7720277883,5.249344,0,1.7654035998,6000,2018-04-15 18:59:07,13,0,23.361,5307.7720277883,5.249344,0.447388,1.7654035998,0,0,-0.223694,226.3, 0.3, -1.3,0,0,1024,1024,1024,1024,226.5,-90,98,3.861,3.863,3.863,3.92,0,0,17.381,60.8,14,Waypoint,
36.7935304,-118.9150142,5308.1001117883,5.577428,0,1.7654035998,6100,2018-04-15 18:59:07,13,0,23.361,5308.1001117883,5.577428,0.447388,1.7654035998,0,0,-0.223694,226, 0.3, -1.3,0,0,1024,1024,1024,1024,226.5,-89.9,98,3.861,3.863,3.863,3.92,0,0,17.381,60.8,14,Waypoint,
36.7935304,-118.9150143,5308.4281957883,5.905512,0,1.78200793104,6200,2018-04-15 18:59:07,14,0,23.361,5308.4281957883,5.905512,0.447388,1.78200793104,0,0,-0.447388,225.7, 0.4, -1.1,0,0,1024,1024,1024,1024,226.5,-89.9,98,3.861,3.863,3.863,3.92,0,0,17.381,60.8,14,Waypoint,
36.7935304,-118.9150144,5309.0843637883,6.56168,0,1.7989337846,6300,2018-04-15 18:59:07,14,0,23.361,5309.0843637883,6.56168,0.447388,1.7989337846,0,0,-0.447388,225.6, 0.6, -1,0,0,1024,1024,1024,1024,226.5,-89.9,98,3.861,3.863,3.863,3.92,0,0,17.381,60.8,14,Waypoint,
36.7935305,-118.9150146,5309.7405317883,7.217848,0,1.86288063704,6410,2018-04-15 18:59:07,14,0,23.361,5309.7405317883,7.217848,0.447388,1.86288063704,0,0,-0.447388,225.5, 0.8, -0.8,0,0,1024,1024,1024,1024,226.5,-89.9,98,3.861,3.863,3.863,3.92,0,0,17.381,60.8,14,Waypoint,
36.7935306,-118.9150147,5310.3966997883,7.874016,0,1.90958995612,6500,2018-04-15 18:59:07,14,0,23.361,5310.3966997883,7.874016,0.447388,1.90958995612,0,0,-0.447388,225.7, 0.8, -0.9,0,0,1024,1024,1024,1024,226.5,-89.9,98,3.861,3.863,3.863,3.92,0,0,17.381,60.8,14,Waypoint,
36.7935308,-118.915015,5311.3809517883,8.858268,0,2.02062670508,6600,2018-04-15 18:59:07,14,0,23.361,5311.3809517883,8.858268,0.447388,2.02062670508,0,0,-0.447388,225.9, 0.8, -1.5,0,0,1024,1024,1024,1024,226.5,-89.9,98,3.861,3.863,3.863,3.92,0,0,17.381,60.8,14,Waypoint,
36.7935309,-118.9150152,5312.0371197883,9.514436,0,2.08523956804,6800,2018-04-15 18:59:08,14,0,23.361,5312.0371197883,9.514436,0.447388,2.08523956804,0,0,-0.671082,226.1, 0.9, -2.1,0,0,1024,1024,1024,1024,226.5,-89.9,98,3.861,3.863,3.863,3.92,0,0,17.381,60.8,14,Waypoint,
36.793531,-118.9150156,5313.0213717883,10.498688,0,2.1871227734,6900,2018-04-15 18:59:08,14,0,23.361,5313.0213717883,10.498688,0.447388,2.1871227734,0,0,-0.671082,226.3, 1, -2.7,0,0,1024,1024,1024,1024,226.5,-89.9,98,3.861,3.863,3.863,3.92,0,0,17.381,60.8,14,Waypoint,
36.7935312,-118.915016,5314.0056237883,11.48294,0,2.31845151776,7000,2018-04-15 18:59:08,14,0,23.5,5314.0056237883,11.48294,0.447388,2.31845151776,0,0,-0.671082,226.4, 1.3, -3.2,0,0,1024,1024,1024,1024,226.5,-89.9,98,3.868,3.954,3.851,3.91,0,0,15.943,60.8,14,Waypoint,
36.7935314,-118.9150163,5314.9898757883,12.467192,0,2.43107619328,7100,2018-04-15 18:59:08,14,0,23.5,5314.9898757883,12.467192,0.447388,2.43107619328,0,0,-0.671082,226.5, 1.5, -3.6,0,0,1024,1024,1024,1024,226.5,-89.9,98,3.868,3.954,3.851,3.91,0,0,15.943,60.8,14,Waypoint,
36.7935316,-118.9150166,5315.9741277883,13.451444,0,2.5438321024,7200,2018-04-15 18:59:08,14,0,23.5,5315.9741277883,13.451444,0.447388,2.5438321024,0,0,-0.671082,226.4, 1.7, -4,0,0,1024,1024,1024,1024,226.5,-89.9,98,3.868,3.954,3.851,3.91,0,0,15.943,60.8,14,Waypoint,
36.7935318,-118.9150169,5317.2864637883,14.76378,0,2.65669627924,7300,2018-04-15 18:59:08,14,0,23.5,5317.2864637883,14.76378,0.447388,2.65669627924,0,0,-0.671082,226.4, 1.6, -4.5,0,0,1024,1024,1024,1024,226.5,-89.9,98,3.868,3.954,3.851,3.91,0,0,15.943,60.8,14,Waypoint,
36.793532,-118.9150172,5318.2707157883,15.748032,0,2.76965560044,7400,2018-04-15 18:59:08,14,0,23.5,5318.2707157883,15.748032,0.447388,2.76965560044,0,0,-0.671082,226.3, 1.3, -4.8,0,0,1024,1024,1024,1024,226.5,-89.9,98,3.868,3.954,3.851,3.91,0,0,15.943,60.8,14,Waypoint,
36.7935321,-118.9150175,5319.2549677883,16.732284,0,2.85602699428,7500,2018-04-15 18:59:08,14,0,23.5,5319.2549677883,16.732284,0.447388,2.85602699428,0,0,-0.671082,226.3, 1.2, -4.4,0,0,1024,1024,1024,1024,226.5,-89.9,98,3.868,3.954,3.851,3.91,0,0,15.943,60.8,14,Waypoint,
36.7935323,-118.9150176,5320.5673037883,18.04462,0,2.92932752156,7600,2018-04-15 18:59:08,14,0,23.5,5320.5673037883,18.04462,0.447388,2.92932752156,0,0,-0.671082,226.3, 1.3, -4.2,0,0,1024,1024,1024,1024,226.5,-89.9,98,3.868,3.954,3.851,3.91,0,0,15.943,60.8,14,Waypoint,
36.7935322,-118.9150178,5321.5515557883,19.028872,0,2.94292660336,7700,2018-04-15 18:59:09,14,0,23.5,5321.5515557883,19.028872,0.447388,2.94292660336,0,0,-0.671082,226.2, 1.5, -4.2,0,0,1024,1024,1024,1024,226.5,-89.9,98,3.868,3.954,3.851,3.91,0,0,15.943,60.8,14,Waypoint,
36.7935322,-118.9150179,5322.8638917883,20.341208,0.223694,2.96330718144,7800,2018-04-15 18:59:09,14,0,23.5,5322.8638917883,20.341208,0.447388,2.96330718144,0,0,-0.671082,226.2, 1.6, -4,0,0,1024,1024,1024,1024,226.5,-89.9,98,3.868,3.954,3.851,3.91,0,0,15.943,60.8,14,Waypoint,
36.7935321,-118.9150179,5323.8481437883,21.32546,0.223694,2.93736229872,7900,2018-04-15 18:59:09,15,0,23.5,5323.8481437883,21.32546,0.447388,2.96330718144,0,0,-0.671082,226.1, 1.9, -3.7,0,0,1024,1024,1024,1024,226.5,-89.9,98,3.868,3.954,3.851,3.91,0,0,15.943,60.8,14,Waypoint,
36.7935319,-118.9150176,5326.1447317883,23.622048,0.3131716,2.823818988,8000,2018-04-15 18:59:09,15,0,22.92,5326.1447317883,23.622048,0.447388,2.96330718144,0,0,-0.671082,226.2, 1.8, -3,0,0,1024,1024,1024,1024,226.5,-89.9,98,3.76,3.774,3.75,3.825,0,0,19.406,60.8,14,Waypoint,
36.7935318,-118.9150175,5327.4570677883,24.934384,0.3131716,2.77733932772,8100,2018-04-15 18:59:09,15,0,22.92,5327.4570677883,24.934384,0.447388,2.96330718144,0,0,-0.671082,226.2, 1.8, -2.6,0,0,1024,1024,1024,1024,226.5,-89.9,98,3.76,3.774,3.75,3.825,0,0,19.406,60.8,14,Waypoint,
36.7935316,-118.9150172,5328.4413197883,25.918636,0.3131716,2.66381898288,8200,2018-04-15 18:59:09,15,0,22.92,5328.4413197883,25.918636,0.447388,2.96330718144,0,0,-0.671082,226.1, 1.5, -2.1,0,0,1024,1024,1024,1024,226.5,-89.9,98,3.76,3.774,3.75,3.825,0,0,19.406,60.8,14,Waypoint,
36.7935314,-118.9150168,5329.4255717883,26.902888,0.4921268,2.53001648516,8300,2018-04-15 18:59:09,15,0,22.92,5329.4255717883,26.902888,0.4921268,2.96330718144,0,0,-0.671082,226.1, 1.3, -1.6,0,0,1024,1024,1024,1024,226.5,-89.9,98,3.76,3.774,3.75,3.825,0,0,19.406,60.8,14,Waypoint,
36.7935312,-118.9150164,5330.7379077883,28.215224,0.4921268,2.39666018168,8400,2018-04-15 18:59:09,14,0,22.92,5330.7379077883,28.215224,0.4921268,2.96330718144,0,0,-0.671082,226.1, 1, -1,0,0,1024,1024,1024,1024,226.5,-89.9,98,3.76,3.774,3.75,3.825,0,0,19.406,60.8,14,Waypoint,
36.793531,-118.915016,5331.7221597883,29.199476,0.4921268,2.26383537428,8500,2018-04-15 18:59:09,14,0,22.92,5331.7221597883,29.199476,0.4921268,2.96330718144,0,0,-0.671082,226.2, 0.6, -0.5,0,0,1024,1024,1024,1024,226.5,-90,98,3.76,3.774,3.75,3.825,0,0,19.406,60.8,14,Waypoint,
36.7935308,-118.9150156,5332.7064117883,30.183728,0.4921268,2.13164048816,8600,2018-04-15 18:59:09,15,0,22.92,5332.7064117883,30.183728,0.4921268,2.96330718144,0,0,-0.671082,226.2, 0.3, 0,0,0,1024,1024,1024,1024,226.5,-90,98,3.76,3.774,3.75,3.825,0,0,19.406,60.8,14,Waypoint,
36.7935306,-118.9150152,5334.0187477883,31.496064,0.4921268,2.00020019524,8700,2018-04-15 18:59:10,15,0,22.92,5334.0187477883,31.496064,0.4921268,2.96330718144,0,0,-0.671082,226.2, 0.3, 0.1,0,0,1024,1024,1024,1024,226.5,-90,98,3.76,3.774,3.75,3.825,0,0,19.406,60.8,14,Waypoint,
36.7935304,-118.9150148,5335.0029997883,32.480316,0.3131716,1.869668695,8800,2018-04-15 18:59:10,14,0,22.92,5335.0029997883,32.480316,0.4921268,2.96330718144,0,0,-0.671082,226.3, 0.3, 0,0,0,1024,1024,1024,1024,226.5,-90,98,3.76,3.774,3.75,3.825,0,0,19.406,60.8,14,Waypoint,
36.7935302,-118.9150144,5335.9872517883,33.464568,0.3131716,1.74025924204,8920,2018-04-15 18:59:10,14,0,22.92,5335.9872517883,33.464568,0.4921268,2.96330718144,0,0,-0.671082,226.1, 0.2, 0.4,0,0,1024,1112,1024,1024,226.5,-90,98,3.76,3.774,3.75,3.825,0,0,19.406,60.8,14,Waypoint,
36.79353,-118.915014,5336.9715037883,34.44882,0.3131716,1.61223430356,9000,2018-04-15 18:59:10,15,0,22.456,5336.9715037883,34.44882,0.4921268,2.96330718144,0,0,-0.671082,225.9, 0, 1.1,0,0,1024,1148,1024,1024,226.5,-90,98,3.772,3.79,3.768,3.815,0,0,19.669,60.8,14,Waypoint,
36.7935298,-118.9150136,5337.9557557883,35.433072,0.223694,1.48595477196,9100,2018-04-15 18:59:10,15,0,22.456,5337.9557557883,35.433072,0.4921268,2.96330718144,0,0,-0.671082,225.7, -0.2, 1.3,0,0,1024,1184,1024,1024,226.5,-90,98,3.772,3.79,3.768,3.815,0,0,19.669,60.8,14,Waypoint,
36.7935297,-118.9150133,5338.9400077883,36.417324,0.223694,1.40824151488,9200,2018-04-15 18:59:10,15,0,22.456,5338.9400077883,36.417324,0.4921268,2.96330718144,0,0,-0.671082,225.6, -0.7, 1.6,0,0,1024,1179,1024,1024,226.5,-89.9,98,3.772,3.79,3.768,3.815,0,0,19.669,60.8,14,Waypoint,
36.7935296,-118.915013,5340.2523437883,37.72966,0.223694,1.33276250984,9310,2018-04-15 18:59:10,15,0,22.456,5340.2523437883,37.72966,0.4921268,2.96330718144,0,0,-0.671082,225.5, -0.5, 1.5,0,0,1024,1166,1024,1024,226.5,-89.9,98,3.772,3.79,3.768,3.815,0,0,19.669,60.8,14,Waypoint,
36.7935296,-118.915013,5340.2523437883,37.72966,0.223694,1.33276250984,9400,2018-04-15 18:59:10,15,0,22.456,5340.2523437883,37.72966,0.4921268,2.96330718144,0,0,-0.671082,225.5, -0.5, 1.5,0,0,1024,1166,1024,1024,226.5,-89.9,98,3.772,3.79,3.768,3.815,0,0,19.669,60.8,14,Waypoint,
36.7935295,-118.9150128,5341.2365957883,38.713912,0,1.2730643452,9500,2018-04-15 18:59:10,14,0,22.456,5341.2365957883,38.713912,0.4921268,2.96330718144,0,0,-0.671082,225.6, -0.2, 1.1,0,0,1024,1156,1024,1024,226.5,-89.9,98,3.772,3.79,3.768,3.815,0,0,19.669,60.8,14,Waypoint,
36.7935294,-118.9150126,5342.2208477883,39.698164,0,1.2143373092,9600,2018-04-15 18:59:10,14,0,22.456,5342.2208477883,39.698164,0.4921268,2.96330718144,0,0,-0.671082,225.7, 0.4, 0.5,0,0,1024,1160,1024,1024,226.5,-89.9,98,3.772,3.79,3.768,3.815,0,0,19.669,60.8,14,Waypoint,
36.7935293,-118.9150126,5343.2050997883,40.682416,0,1.18155843676,9700,2018-04-15 18:59:11,14,0,22.456,5343.2050997883,40.682416,0.4921268,2.96330718144,0,0,-0.671082,225.8, 0.8, 0,0,0,1024,1161,1024,1024,226.5,-89.9,98,3.772,3.79,3.768,3.815,0,0,19.669,60.8,14,Waypoint,
36.7935292,-118.9150125,5344.1893517883,41.666668,0,1.1359252332,9800,2018-04-15 18:59:11,14,0,22.456,5344.1893517883,41.666668,0.4921268,2.96330718144,0,0,-0.671082,226, 0.7, -0.5,0,0,1024,1152,1024,1024,226.5,-89.9,98,3.772,3.79,3.768,3.815,0,0,19.669,60.8,14,Waypoint,
36.7935292,-118.9150124,5345.1736037883,42.65092,0,1.12345476036,9900,2018-04-15 18:59:11,15,0,22.456,5345.1736037883,42.65092,0.4921268,2.96330718144,0,0,-0.671082,226.1, 0.6, -0.5,0,0,1024,1147,1024,1024,226.5,-90,98,3.772,3.79,3.768,3.815,0,0,19.669,60.8,14,Waypoint,
36.7935291,-118.9150123,5346.1578557883,43.635172,0,1.0781824492,10000,2018-04-15 18:59:11,15,0,22.761,5346.1578557883,43.635172,0.4921268,2.96330718144,0,0,-0.671082,226.3, 0.4, -0.8,0,0,1024,1132,1024,1024,226.5,-90,98,3.767,3.771,3.761,3.825,0,0,20.142,60.8,14,Waypoint,
36.7935291,-118.9150124,5347.1421077883,44.619424,0,1.090387174,10100,2018-04-15 18:59:11,15,0,22.761,5347.1421077883,44.619424,0.4921268,2.96330718144,0,0,-0.671082,226.4, 0.4, -1,0,0,1024,1138,1024,1024,226.5,-90,98,3.767,3.771,3.761,3.825,0,0,20.142,60.8,14,Waypoint,
36.7935292,-118.9150124,5348.1263597883,45.603676,0,1.12345476036,10200,2018-04-15 18:59:11,15,0,22.761,5348.1263597883,45.603676,0.4921268,2.96330718144,0,0,-0.671082,226.4, 0.3, -0.4,0,0,1024,1161,1024,1024,226.5,-90,98,3.767,3.771,3.761,3.825,0,0,20.142,60.8,14,Waypoint,
36.7935292,-118.9150125,5350.7510317883,48.228348,0,1.1359252332,10400,2018-04-15 18:59:11,16,0,22.761,5350.7510317883,48.228348,0.4921268,2.96330718144,0,0,-0.671082,226.3, 1, -0.7,0,0,1024,1155,1024,1024,226.5,-89.9,98,3.767,3.771,3.761,3.825,0,0,20.142,60.8,14,Waypoint,
36.7935292,-118.9150127,5352.7195357883,50.196852,0,1.1626640792,10600,2018-04-15 18:59:11,16,0,22.761,5352.7195357883,50.196852,0.4921268,2.96330718144,0,0,-0.671082,226.2, 1, -1.2,0,0,1024,1010,1024,1024,226.5,-89.9,98,3.767,3.771,3.761,3.825,0,0,20.142,60.8,14,Waypoint,
36.7935293,-118.9150128,5353.7037877883,51.181104,0,1.20869754524,10700,2018-04-15 18:59:12,16,0,22.761,5353.7037877883,51.181104,0.4921268,2.96330718144,0,0,-0.671082,226.1, 1.1, -1.1,0,0,1024,1024,1024,1024,226.5,-89.9,98,3.767,3.771,3.761,3.825,0,0,20.142,60.8,14,Waypoint,
36.7935293,-118.915013,5354.6880397883,52.165356,0.223694,1.23800528896,10800,2018-04-15 18:59:12,15,0,22.761,5354.6880397883,52.165356,0.4921268,2.96330718144,0,0,-0.671082,225.8, 0.9, -1.5,0,0,1024,1024,1024,1024,226.5,-89.9,98,3.767,3.771,3.761,3.825,0,0,20.142,60.8,14,Waypoint,
36.7935293,-118.9150131,5355.6722917883,53.149608,0.223694,1.25342523696,10900,2018-04-15 18:59:12,15,0,22.761,5355.6722917883,53.149608,0.4921268,2.96330718144,0,0,-0.671082,225.5, 1.1, -1.6,0,0,1024,1024,1024,1024,226.5,-89.9,98,3.767,3.771,3.761,3.825,0,0,20.142,60.8,14,Waypoint,
36.7935293,-118.9150133,5356.6565437883,54.13386,0,1.28569886004,11000,2018-04-15 18:59:12,16,0,22.755,5356.6565437883,54.13386,0.4921268,2.96330718144,0,0,-0.671082,225.2, 1.4, -1.1,0,0,1024,1024,1024,1024,226.5,-89.9,98,3.76,3.774,3.763,3.831,0,0,19.883,60.8,14,Waypoint,
36.7935294,-118.9150134,5357.6407957883,55.118112,0,1.33232615812,11100,2018-04-15 18:59:12,16,0,22.755,5357.6407957883,55.118112,0.4921268,2.96330718144,0,0,-0.671082,224.9, 1.6, -0.8,0,0,1024,1024,1024,1024,226.5,-89.9,98,3.76,3.774,3.763,3.831,0,0,19.883,60.8,14,Waypoint,
36.7935295,-118.9150136,5358.6250477883,56.102364,0,1.3958825906,11200,2018-04-15 18:59:12,15,0,22.755,5358.6250477883,56.102364,0.4921268,2.96330718144,0,0,-0.671082,224.9, 1.4, -1.3,0,0,1024,1024,1024,1024,226.5,-89.9,98,3.76,3.774,3.763,3.831,0,0,19.883,60.8,14,Waypoint,
36.7935295,-118.9150138,5359.6092997883,57.086616,0.223694,1.43091211928,11300,2018-04-15 18:59:12,15,0,22.755,5359.6092997883,57.086616,0.4921268,2.96330718144,0,0,-0.671082,225, 1.4, -2,0,0,1024,1024,1024,1024,226.5,-89.9,98,3.76,3.774,3.763,3.831,0,0,19.883,60.8,14,Waypoint,
36.7935297,-118.915014,5360.5935517883,58.070868,0,1.52438653172,11400,2018-04-15 18:59:12,15,0,22.755,5360.5935517883,58.070868,0.4921268,2.96330718144,0,0,-0.671082,225.3, 1.6, -2.6,0,0,1024,1024,1024,1024,226.5,-89.9,98,3.76,3.774,3.763,3.831,0,0,19.883,60.8,14,Waypoint,
36.7935298,-118.9150142,5361.5778037883,59.05512,0,1.58921921096,11500,2018-04-15 18:59:12,15,0,22.755,5361.5778037883,59.05512,0.4921268,2.96330718144,0,0,-0.671082,225.8, 1.5, -3.1,0,0,1024,1024,1024,1024,226.5,-89.9,98,3.76,3.774,3.763,3.831,0,0,19.883,60.8,14,Waypoint,
36.7935299,-118.9150144,5362.8901397883,60.367456,0,1.6543799742,11600,2018-04-15 18:59:12,16,0,22.755,5362.8901397883,60.367456,0.4921268,2.96330718144,0,0,-0.671082,226.1, 1.2, -3.5,0,0,1024,1024,1024,1024,226.5,-89.9,98,3.76,3.774,3.763,3.831,0,0,19.883,60.8,14,Waypoint,
36.7935301,-118.9150146,5364.8586437883,62.33596,0,1.74785438664,11800,2018-04-15 18:59:13,16,0,22.755,5364.8586437883,62.33596,0.4921268,2.96330718144,0,0,-0.671082,226.7, 0.8, -3.2,0,0,1024,1024,1024,1024,226.5,-90,98,3.76,3.774,3.763,3.831,0,0,19.883,60.8,14,Waypoint,
36.7935302,-118.9150148,5365.8428957883,63.320212,0,1.81328417876,12000,2018-04-15 18:59:13,16,0,22.731,5365.8428957883,63.320212,0.4921268,2.96330718144,0,0,-0.671082,226.7, 0.5, -3,0,0,1024,1024,1024,1024,226.5,-90,98,3.771,3.783,3.774,3.838,0,0,19.798,60.8,14,Waypoint,
36.7935303,-118.9150148,5366.8271477883,64.304464,0,1.84133207992,12100,2018-04-15 18:59:13,16,0,22.731,5366.8271477883,64.304464,0.4921268,2.96330718144,0,0,-0.671082,226.6, 0.6, -2.7,0,0,1024,1024,1024,1024,226.5,-90,98,3.771,3.783,3.774,3.838,0,0,19.798,60.8,14,Waypoint,
36.7935304,-118.9150147,5367.8113997883,65.288716,0,1.85154861568,12200,2018-04-15 18:59:13,16,0,22.731,5367.8113997883,65.288716,0.4921268,2.96330718144,0,0,-0.671082,226.4, 0.4, -2.5,0,0,1024,1024,1024,1024,226.5,-90,98,3.771,3.783,3.774,3.838,0,0,19.798,60.8,14,Waypoint,
36.7935305,-118.9150147,5368.4675677883,65.944884,0,1.88043969272,12300,2018-04-15 18:59:13,16,0,22.731,5368.4675677883,65.944884,0.4921268,2.96330718144,0,0,-0.671082,226.2, 0.1, -1.9,0,0,1024,1024,1024,1024,226.5,-90,98,3.771,3.783,3.774,3.838,0,0,19.798,60.8,14,Waypoint,
36.7935306,-118.9150147,5369.4518197883,66.929136,0,1.90958995612,12400,2018-04-15 18:59:13,16,0,22.731,5369.4518197883,66.929136,0.4921268,2.96330718144,0,0,-0.671082,226, 0, -1.4,0,0,1024,1024,1024,1024,226.5,-90,98,3.771,3.783,3.774,3.838,0,0,19.798,60.8,14,Waypoint,
36.7935306,-118.9150146,5370.4360717883,67.913388,0.223694,1.89230321016,12500,2018-04-15 18:59:13,16,0,22.731,5370.4360717883,67.913388,0.4921268,2.96330718144,0,0,-0.671082,225.9, -0.1, -0.9,0,0,1024,1024,1024,1024,226.5,-90,98,3.771,3.783,3.774,3.838,0,0,19.798,60.8,14,Waypoint,
36.7935306,-118.9150144,5371.4203237883,68.89764,0.223694,1.85861882588,12600,2018-04-15 18:59:13,16,0,22.731,5371.4203237883,68.89764,0.4921268,2.96330718144,0,0,-0.671082,225.7, -0.3, -0.7,0,0,1024,1024,1024,1024,226.5,-90,98,3.771,3.783,3.774,3.838,0,0,19.798,60.8,14,Waypoint,
36.7935307,-118.9150143,5372.4045757883,69.881892,0.223694,1.87270019116,12700,2018-04-15 18:59:14,16,0,22.731,5372.4045757883,69.881892,0.4921268,2.96330718144,0,0,-0.671082,225.7, -0.4, -0.5,0,0,1024,1024,1024,1024,226.5,-90,98,3.771,3.783,3.774,3.838,0,0,19.798,60.8,14,Waypoint,
36.7935307,-118.9150143,5373.0607437883,70.53806,0.223694,1.87270019116,12800,2018-04-15 18:59:14,16,0,22.731,5373.0607437883,70.53806,0.4921268,2.96330718144,0,0,-0.671082,225.8, -0.5, -0.2,0,0,1024,1024,1024,1024,226.5,-90,98,3.771,3.783,3.774,3.838,0,0,19.798,60.8,14,Waypoint,
36.7935307,-118.9150142,5374.0449957883,71.522312,0.223694,1.8569062274,12900,2018-04-15 18:59:14,16,0,22.731,5374.0449957883,71.522312,0.4921268,2.96330718144,0,0,-0.671082,226, -0.6, 0,0,0,1024,1024,1024,1024,226.5,-90,98,3.771,3.783,3.774,3.838,0,0,19.798,60.8,14,Waypoint,
36.7935307,-118.915014,5375.0292477883,72.506564,0.223694,1.82631567524,13000,2018-04-15 18:59:14,16,0,22.866,5375.0292477883,72.506564,0.4921268,2.96330718144,0,0,-0.671082,226.3, -0.7, 0.2,0,0,1024,1024,1024,1024,226.5,-90,98,3.771,3.783,3.774,3.838,0,0,17.716,60.8,14,Waypoint,
36.7935307,-118.915014,5376.0134997883,73.490816,0,1.82631567524,13100,2018-04-15 18:59:14,16,0,22.866,5376.0134997883,73.490816,0.4921268,2.96330718144,0,0,-0.671082,226.6, -0.7, 0.5,0,0,1024,1024,1024,1024,226.5,-90,98,3.771,3.783,3.774,3.838,0,0,17.716,60.8,14,Waypoint,
36.7935307,-118.9150139,5377.9820037883,75.45932,0,1.8115322102,13200,2018-04-15 18:59:14,16,0,22.866,5377.9820037883,75.45932,0.4921268,2.96330718144,0,0,-0.671082,226.9, -0.6, -0.3,0,0,1024,1024,1024,1024,226.5,-90,98,3.771,3.783,3.774,3.838,0,0,17.716,60.8,14,Waypoint,
36.7935307,-118.9150139,5378.9662557883,76.443572,0,1.8115322102,13300,2018-04-15 18:59:14,16,0,22.866,5378.9662557883,76.443572,0.4921268,2.96330718144,0,0,-0.671082,226.9, -0.2, -0.2,0,0,1024,1024,1024,1024,226.5,-89.9,98,3.771,3.783,3.774,3.838,0,0,17.716,60.8,14,Waypoint,
36.7935307,-118.9150139,5380.9347597883,78.412076,0,1.8115322102,13500,2018-04-15 18:59:14,16,0,22.866,5380.9347597883,78.412076,0.4921268,2.96330718144,0,0,-0.671082,226.9, 0.7, 0.3,0,0,1024,1024,1024,1024,226.5,-89.9,98,3.771,3.783,3.774,3.838,0,0,17.716,60.8,14,Waypoint,
36.7935307,-118.915014,5382.2470957883,79.724412,0,1.82631567524,13600,2018-04-15 18:59:14,16,0,22.866,5382.2470957883,79.724412,0.4921268,2.96330718144,0,0,-0.671082,226.7, 0.7, -0.1,0,0,1024,1024,1024,1024,226.5,-89.9,98,3.771,3.783,3.774,3.838,0,0,17.716,60.8,14,Waypoint,
36.7935308,-118.915014,5383.2313477883,80.708664,0,1.85774940328,13700,2018-04-15 18:59:15,16,0,22.866,5383.2313477883,80.708664,0.4921268,2.96330718144,0,0,-0.671082,226.5, 0.4, -0.6,0,0,1024,1024,1024,1024,226.5,-89.9,98,3.771,3.783,3.774,3.838,0,0,17.716,60.8,14,Waypoint,
36.7935308,-118.915014,5384.2155997883,81.692916,0,1.85774940328,13800,2018-04-15 18:59:15,16,0,22.866,5384.2155997883,81.692916,0.4921268,2.96330718144,0,0,-0.671082,226.1, 0.4, -1.2,0,0,1024,1024,1024,1024,226.5,-89.9,98,3.771,3.783,3.774,3.838,0,0,17.716,60.8,14,Waypoint,
36.7935308,-118.915014,5385.1998517883,82.677168,0,1.85774940328,13900,2018-04-15 18:59:15,16,0,22.866,5385.1998517883,82.677168,0.4921268,2.96330718144,0,0,-0.671082,225.8, 0.4, -1.4,0,0,1024,1024,1024,1024,226.5,-89.9,98,3.771,3.783,3.774,3.838,0,0,17.716,60.8,14,Waypoint,
36.7935308,-118.9150141,5386.1841037883,83.66142,0,1.87262473184,14010,2018-04-15 18:59:15,16,0,22.866,5386.1841037883,83.66142,0.4921268,2.96330718144,0,0,-0.671082,225.4, 0.5, -1.2,0,0,1024,1024,1024,1024,226.5,-89.9,98,3.779,3.786,3.788,3.845,0,0,17.716,60.8,14,Waypoint,
36.7935308,-118.9150141,5387.1683557883,84.645672,0,1.87262473184,14100,2018-04-15 18:59:15,16,0,22.866,5387.1683557883,84.645672,0.4921268,2.96330718144,0,0,-0.671082,225, 0.5, -1.6,0,0,1024,1024,1024,1024,226.5,-89.9,98,3.779,3.786,3.788,3.845,0,0,17.716,60.8,14,Waypoint,
36.7935308,-118.9150141,5388.1526077883,85.629924,0,1.87262473184,14200,2018-04-15 18:59:15,16,0,22.866,5388.1526077883,85.629924,0.4921268,2.96330718144,0,0,-0.671082,225, 0.7, -1.6,0,0,1024,1024,1024,1024,226.5,-89.9,98,3.779,3.786,3.788,3.845,0,0,17.716,60.8,14,Waypoint,
36.7935309,-118.9150141,5390.1211117883,87.598428,0,1.90399284308,14420,2018-04-15 18:59:15,16,0,22.866,5390.1211117883,87.598428,0.4921268,2.96330718144,0,0,-0.671082,225.6, 0.1, -1.4,0,0,1024,1024,1024,1024,226.5,-90,98,3.779,3.786,3.788,3.845,0,0,17.716,60.8,14,Waypoint,
36.793531,-118.9150141,5391.1053637883,88.58268,0,1.93554468136,14500,2018-04-15 18:59:15,16,0,22.866,5391.1053637883,88.58268,0.4921268,2.96330718144,0,0,-0.671082,226.1, -0.4, -1.6,0,0,1024,1024,1024,1024,226.5,-90,98,3.779,3.786,3.788,3.845,0,0,17.716,60.8,14,Waypoint,
36.793531,-118.9150141,5392.0896157883,89.566932,0,1.93554468136,14700,2018-04-15 18:59:16,16,0,22.866,5392.0896157883,89.566932,0.4921268,2.96330718144,0,0,-0.671082,226.5, -0.6, -1.6,0,0,1024,1024,1024,1024,226.5,-90,98,3.779,3.786,3.788,3.845,0,0,17.716,60.8,14,Waypoint,
36.7935311,-118.9150141,5393.0738677883,90.551184,0,1.96726384248,14800,2018-04-15 18:59:16,16,0,22.866,5393.0738677883,90.551184,0.4921268,2.96330718144,0,0,-0.671082,226.8, -0.5, -1.7,0,0,1024,1024,1024,1024,226.5,-90,98,3.779,3.786,3.788,3.845,0,0,17.716,60.8,14,Waypoint,
36.7935312,-118.9150141,5394.0581197883,91.535436,0,1.9991470456,14900,2018-04-15 18:59:16,16,0,22.866,5394.0581197883,91.535436,0.4921268,2.96330718144,0,0,-0.671082,226.9, -0.4, -2.1,0,0,1024,1024,1024,1024,226.5,-89.9,98,3.779,3.786,3.788,3.845,0,0,17.716,60.8,14,Waypoint,
36.7935314,-118.9150142,5395.3704557883,92.847772,0,2.077181825,15000,2018-04-15 18:59:16,16,0,22.733,5395.3704557883,92.847772,0.4921268,2.96330718144,0,0,-0.671082,226.7, -0.4, -2.6,0,0,1024,1024,1024,1024,226.5,-90,98,3.767,3.772,3.765,3.832,0,0,19.363,60.8,14,Waypoint,
36.7935315,-118.9150142,5396.3547077883,93.832024,0,2.10929468692,15100,2018-04-15 18:59:16,16,0,22.733,5396.3547077883,93.832024,0.4921268,2.96330718144,0,0,-0.671082,226.4, -0.4, -3,0,0,1024,1024,1024,1024,226.5,-90,98,3.767,3.772,3.765,3.832,0,0,19.363,60.8,14,Waypoint,
36.7935316,-118.9150142,5397.3389597883,94.816276,0,2.1415519058,15200,2018-04-15 18:59:16,16,0,22.733,5397.3389597883,94.816276,0.4921268,2.96330718144,0,0,-0.671082,226.1, -0.9, -3.3,0,0,1024,1024,1024,1024,226.5,-90,98,3.767,3.772,3.765,3.832,0,0,19.363,60.8,14,Waypoint,
36.7935317,-118.9150141,5398.3232117883,95.800528,0,2.1607448198,15300,2018-04-15 18:59:16,16,0,22.733,5398.3232117883,95.800528,0.4921268,2.96330718144,0,0,-0.671082,226.1, -1.3, -3.3,0,0,1024,1024,1024,1024,226.5,-90,98,3.767,3.772,3.765,3.832,0,0,19.363,60.8,14,Waypoint,
36.7935318,-118.9150141,5399.3074637883,96.78478,0,2.1934547946,15400,2018-04-15 18:59:16,16,0,22.733,5399.3074637883,96.78478,0.4921268,2.96330718144,0,0,-0.671082,226.3, -1.6, -3.1,0,0,1024,1024,1024,1024,226.5,-90,98,3.767,3.772,3.765,3.832,0,0,19.363,60.8,14,Waypoint,
36.7935319,-118.9150141,5400.2917157883,97.769032,0,2.22628616048,15500,2018-04-15 18:59:16,16,0,22.733,5400.2917157883,97.769032,0.4921268,2.96330718144,0,0,-0.671082,226.6, -1.7, -3.4,0,0,1024,1024,1024,1024,226.5,-89.9,98,3.767,3.772,3.765,3.832,0,0,19.363,60.8,14,Waypoint,
36.793532,-118.915014,5401.2759677883,98.753284,0,2.24691280156,15600,2018-04-15 18:59:16,16,0,22.733,5401.2759677883,98.753284,0.4921268,2.96330718144,0,0,-0.671082,226.8, -1.3, -3.1,0,0,1024,1024,1024,1024,226.5,-89.9,98,3.767,3.772,3.765,3.832,0,0,19.363,60.8,14,Waypoint,
36.7935321,-118.915014,5402.2602197883,99.737536,0,2.28013786824,15700,2018-04-15 18:59:17,16,0,22.733,5402.2602197883,99.737536,0.4921268,2.96330718144,0,0,-0.671082,226.7, -1.2, -2.6,0,0,1024,1024,1024,1024,226.5,-89.9,98,3.767,3.772,3.765,3.832,0,0,19.363,60.8,14,Waypoint,
36.7935321,-118.915014,5403.2444717883,100.721788,0,2.28013786824,15800,2018-04-15 18:59:17,16,0,22.733,5403.2444717883,100.721788,0.4921268,2.96330718144,0,0,-0.671082,226.4, -1, -2.7,0,0,1024,1024,1024,1024,226.5,-89.9,98,3.767,3.772,3.765,3.832,0,0,19.363,60.8,14,Waypoint,
36.7935321,-118.9150141,5404.8848917883,102.362208,0,2.2922736954,15900,2018-04-15 18:59:17,16,0,22.733,5404.8848917883,102.362208,0.4921268,2.96330718144,0,0,-0.671082,225.8, -0.1, -2.7,0,0,1024,1024,1024,1024,226.5,-89.9,98,3.767,3.772,3.765,3.832,0,0,19.363,60.8,14,Waypoint,
36.7935321,-118.9150141,5405.8691437883,103.34646,0,2.2922736954,16010,2018-04-15 18:59:17,16,0,22.69,5405.8691437883,103.34646,0.4921268,2.96330718144,0,0,-0.671082,225.6, 0, -2.6,0,0,1024,1024,1024,1024,226.5,-89.9,97,3.752,3.764,3.755,3.826,0,0,19.126,60.8,14,Waypoint,
36.7935322,-118.9150141,5406.8533957883,104.330712,0,2.3254265836,16100,2018-04-15 18:59:17,16,0,22.69,5406.8533957883,104.330712,0.4921268,2.96330718144,0,0,-0.671082,225.4, 0.3, -2.6,0,0,1024,1024,1024,1024,226.5,-89.9,97,3.752,3.764,3.755,3.826,0,0,19.126,60.8,14,Waypoint,
36.7935321,-118.9150141,5407.8376477883,105.314964,0,2.2922736954,16200,2018-04-15 18:59:17,16,0,22.69,5407.8376477883,105.314964,0.4921268,2.96330718144,0,0,-0.671082,225.4, 0, -2.8,0,0,1024,1024,1024,1024,226.5,-89.9,97,3.752,3.764,3.755,3.826,0,0,19.126,60.8,14,Waypoint,
36.7935321,-118.9150141,5408.8218997883,106.299216,0.223694,2.2922736954,16310,2018-04-15 18:59:17,16,0,22.69,5408.8218997883,106.299216,0.4921268,2.96330718144,0,0,-0.671082,225.7, -0.3, -2.8,0,0,1024,1024,1024,1024,226.5,-90,97,3.752,3.764,3.755,3.826,0,0,19.126,60.8,14,Waypoint,
36.793532,-118.9150141,5409.8061517883,107.283468,0.223694,2.25922579408,16400,2018-04-15 18:59:17,16,0,22.69,5409.8061517883,107.283468,0.4921268,2.96330718144,0,0,-0.671082,226, -0.5, -2.4,0,0,1024,1024,1024,1024,226.5,-89.9,97,3.752,3.764,3.755,3.826,0,0,19.126,60.8,14,Waypoint,
36.793532,-118.9150141,5410.7904037883,108.26772,0.223694,2.25922579408,16500,2018-04-15 18:59:17,16,0,22.69,5410.7904037883,108.26772,0.4921268,2.96330718144,0,0,-0.671082,225.9, 0.1, -2.5,0,0,1024,1024,1024,1024,226.5,-89.9,97,3.752,3.764,3.755,3.826,0,0,19.126,60.8,14,Waypoint,
36.7935319,-118.9150141,5411.7746557883,109.251972,0.223694,2.22628616048,16600,2018-04-15 18:59:17,16,0,22.69,5411.7746557883,109.251972,0.4921268,2.96330718144,0,0,-0.671082,225.8, 0.6, -2.3,0,0,1024,1024,1024,1024,226.5,-89.9,97,3.752,3.764,3.755,3.826,0,0,19.126,60.8,14,Waypoint,
36.7935319,-118.9150141,5412.4308237883,109.90814,0.223694,2.22628616048,16700,2018-04-15 18:59:18,16,0,22.69,5412.4308237883,109.90814,0.4921268,2.96330718144,0,0,-0.671082,225.7, 0.6, -2.3,0,0,1024,1024,1024,1024,226.5,-89.9,97,3.752,3.764,3.755,3.826,0,0,19.126,60.8,14,Waypoint,
36.7935318,-118.9150142,5413.4150757883,110.892392,0.223694,2.20645348268,16810,2018-04-15 18:59:18,16,0,22.69,5413.4150757883,110.892392,0.4921268,2.96330718144,0,0,-0.671082,225.7, 0.4, -2.1,0,0,1024,1024,1024,1024,226.5,-89.9,97,3.752,3.764,3.755,3.826,0,0,19.126,60.8,14,Waypoint,
36.7935317,-118.9150142,5414.3993277883,111.876644,0.223694,2.17394035828,16910,2018-04-15 18:59:18,16,0,22.69,5414.3993277883,111.876644,0.4921268,2.96330718144,0,0,-0.671082,225.7, 0.5, -1.7,0,0,1024,1024,1024,1024,226.5,-89.9,97,3.752,3.764,3.755,3.826,0,0,19.126,60.8,14,Waypoint,
36.7935317,-118.9150143,5415.3835797883,112.860896,0.223694,2.18744429572,17100,2018-04-15 18:59:18,16,0,22.69,5415.3835797883,112.860896,0.4921268,2.96330718144,0,0,-0.671082,225.8, 0.7, -1.8,0,0,1024,1024,1024,1024,226.5,-89.9,97,3.752,3.764,3.755,3.826,0,0,19.126,60.8,14,Waypoint,
36.7935316,-118.9150143,5416.3678317883,113.845148,0.223694,2.15525925532,17200,2018-04-15 18:59:18,16,0,22.69,5416.3678317883,113.845148,0.4921268,2.96330718144,0,0,-0.671082,226, 0.9, -2.2,0,0,1024,1024,1024,1024,226.5,-89.9,97,3.752,3.764,3.755,3.826,0,0,19.126,60.8,14,Waypoint,
36.7935316,-118.9150144,5417.3520837883,114.8294,0,2.1692750038,17300,2018-04-15 18:59:18,16,0,22.69,5417.3520837883,114.8294,0.4921268,2.96330718144,0,0,-0.671082,226.1, 1, -2.4,0,0,1024,1024,1024,1024,226.5,-89.9,97,3.752,3.764,3.755,3.826,0,0,19.126,60.8,14,Waypoint,
36.7935316,-118.9150144,5418.3363357883,115.813652,0,2.1692750038,17400,2018-04-15 18:59:18,16,0,22.69,5418.3363357883,115.813652,0.4921268,2.96330718144,0,0,-0.671082,226.1, 1.3, -2.5,0,0,1024,1024,1024,1024,226.5,-89.9,97,3.752,3.764,3.755,3.826,0,0,19.126,60.8,14,Waypoint,
36.7935315,-118.9150144,5419.3205877883,116.797904,0,2.13743773244,17500,2018-04-15 18:59:18,16,0,22.69,5419.3205877883,116.797904,0.4921268,2.96330718144,0,0,-0.671082,226.1, 1.3, -2.7,0,0,1024,1024,1024,1024,226.5,-89.9,97,3.752,3.764,3.755,3.826,0,0,19.126,60.8,14,Waypoint,
36.7935315,-118.9150144,5420.3048397883,117.782156,0,2.13743773244,17600,2018-04-15 18:59:18,16,0,22.69,5420.3048397883,117.782156,0.4921268,2.96330718144,0,0,-0.671082,226.1, 0.8, -2.8,0,0,1024,1024,1024,1024,226.5,-90,97,3.752,3.764,3.755,3.826,0,0,19.126,60.8,14,Waypoint,
36.7935315,-118.9150144,5421.2890917883,118.766408,0,2.13743773244,17700,2018-04-15 18:59:19,16,0,22.69,5421.2890917883,118.766408,0.4921268,2.96330718144,0,0,-0.671082,226.1, 0.2, -3.2,0,0,1024,1024,1024,1024,226.5,-90,97,3.752,3.764,3.755,3.826,0,0,19.126,60.8,14,Waypoint,
36.7935315,-118.9150145,5422.6014277883,120.078744,0,2.15196529196,17800,2018-04-15 18:59:19,16,0,22.69,5422.6014277883,120.078744,0.4921268,2.96330718144,0,0,-0.671082,226.2, 0, -3.3,0,0,1024,1024,1024,1024,226.5,-89.9,97,3.752,3.764,3.755,3.826,0,0,19.126,60.8,14,Waypoint,
36.7935314,-118.9150144,5424.5699317883,122.047248,0,2.10575137972,17900,2018-04-15 18:59:19,16,0,22.69,5424.5699317883,122.047248,0.4921268,2.96330718144,0,0,-0.671082,226.3, 0.2, -2.8,0,0,1024,1024,1024,1024,226.5,-89.9,97,3.752,3.764,3.755,3.826,0,0,19.126,60.8,14,Waypoint,
36.7935314,-118.9150144,5425.5541837883,123.0315,0,2.10575137972,18000,2018-04-15 18:59:19,16,0,22.547,5425.5541837883,123.0315,0.4921268,2.96330718144,0,0,-0.671082,226.3, 0, -2.6,0,0,1024,1024,1024,1024,226.5,-90,97,3.726,3.743,3.74,3.803,0,0,20.269,60.8,14,Waypoint,
36.7935313,-118.9150143,5426.2103517883,123.687668,0,2.0595637142,18100,2018-04-15 18:59:19,16,0,22.547,5426.2103517883,123.687668,0.4921268,2.96330718144,0,0,-0.671082,226.3, 0, -2.4,0,0,1024,1024,1024,1024,226.5,-89.9,97,3.726,3.743,3.74,3.803,0,0,20.269,60.8,14,Waypoint,
36.7935313,-118.9150143,5427.5226877883,125.000004,0,2.0595637142,18200,2018-04-15 18:59:19,16,0,22.547,5427.5226877883,125.000004,0.4921268,2.96330718144,0,0,-0.671082,226.2, 0.1, -2.2,0,0,1024,1024,1024,1024,226.5,-89.9,97,3.726,3.743,3.74,3.803,0,0,20.269,60.8,14,Waypoint,
36.7935312,-118.9150143,5428.5069397883,125.984256,0,2.02797578668,18300,2018-04-15 18:59:19,16,0,22.547,5428.5069397883,125.984256,0.4921268,2.96330718144,0,0,-0.671082,226, 0.2, -2,0,0,1024,1024,1024,1024,226.5,-89.9,97,3.726,3.743,3.74,3.803,0,0,20.269,60.8,14,Waypoint,
36.7935311,-118.9150142,5429.4911917883,126.968508,0,1.98174547024,18400,2018-04-15 18:59:19,16,0,22.547,5429.4911917883,126.968508,0.4921268,2.96330718144,0,0,-0.671082,225.8, 0.1, -1.9,0,0,1024,1024,1024,1024,226.5,-89.9,97,3.726,3.743,3.74,3.803,0,0,20.269,60.8,14,Waypoint,
36.7935311,-118.9150142,5430.4754437883,127.95276,0,1.98174547024,18500,2018-04-15 18:59:19,16,0,22.547,5430.4754437883,127.95276,0.4921268,2.96330718144,0,0,-0.671082,225.6, 0.1, -1.8,0,0,1024,1024,1024,1024,226.5,-89.9,97,3.726,3.743,3.74,3.803,0,0,20.269,60.8,14,Waypoint,
36.7935311,-118.9150141,5431.4596957883,128.937012,0,1.96726384248,18600,2018-04-15 18:59:19,16,0,22.547,5431.4596957883,128.937012,0.4921268,2.96330718144,0,0,-0.671082,225.6, 0.1, -1.8,0,0,1024,1024,1024,1024,226.5,-89.9,97,3.726,3.743,3.74,3.803,0,0,20.269,60.8,14,Waypoint,
36.793531,-118.9150141,5432.4439477883,129.921264,0,1.93554468136,18800,2018-04-15 18:59:20,16,0,22.547,5432.4439477883,129.921264,0.4921268,2.96330718144,0,0,-0.671082,225.7, 0.1, -1.5,0,0,1024,1024,1024,1024,226.5,-89.9,97,3.726,3.743,3.74,3.803,0,0,20.269,60.8,14,Waypoint,
36.793531,-118.9150139,5434.4124517883,131.889768,0,1.90710964108,18910,2018-04-15 18:59:20,16,0,22.547,5434.4124517883,131.889768,0.4921268,2.96330718144,0,0,-0.671082,226.1, -0.5, -1.6,0,0,1024,1024,1024,1024,226.5,-90,97,3.726,3.743,3.74,3.803,0,0,20.269,60.8,14,Waypoint,
36.793531,-118.9150137,5435.3967037883,132.87402,0,1.88005911528,19020,2018-04-15 18:59:20,16,0,22.543,5435.3967037883,132.87402,0.4921268,2.96330718144,0,0,-0.671082,226.4, -0.8, -1.4,0,0,1024,1024,1024,1024,226.5,-90,97,3.733,3.734,3.736,3.808,0,0,20.032,60.8,14,Waypoint,
36.793531,-118.9150137,5435.3967037883,132.87402,0,1.88005911528,19100,2018-04-15 18:59:20,16,0,22.543,5435.3967037883,132.87402,0.4921268,2.96330718144,0,0,-0.671082,226.4, -0.8, -1.4,0,0,1024,1024,1024,1024,226.5,-90,97,3.733,3.734,3.736,3.808,0,0,20.032,60.8,14,Waypoint,
36.793531,-118.9150136,5436.3809557883,133.858272,0,1.86707355056,19200,2018-04-15 18:59:20,16,0,22.543,5436.3809557883,133.858272,0.4921268,2.96330718144,0,0,-0.671082,226.7, -1.2, -1,0,0,1024,1024,1024,1024,226.5,-90,97,3.733,3.734,3.736,3.808,0,0,20.032,60.8,14,Waypoint,
36.793531,-118.9150135,5437.3652077883,134.842524,0,1.85445872076,19300,2018-04-15 18:59:20,16,0,22.543,5437.3652077883,134.842524,0.4921268,2.96330718144,0,0,-0.671082,226.7, -1.2, -1.1,0,0,1024,1024,1024,1024,226.5,-90,97,3.733,3.734,3.736,3.808,0,0,20.032,60.8,14,Waypoint,
36.793531,-118.9150134,5438.3494597883,135.826776,0,1.84222118756,19400,2018-04-15 18:59:20,16,0,22.543,5438.3494597883,135.826776,0.4921268,2.96330718144,0,0,-0.671082,226.6, -1.2, -1.6,0,0,1024,1024,1024,1024,226.5,-90,97,3.733,3.734,3.736,3.808,0,0,20.032,60.8,14,Waypoint,
36.7935311,-118.9150133,5439.6617957883,137.139112,0,1.8638780124,19500,2018-04-15 18:59:20,16,0,22.543,5439.6617957883,137.139112,0.4921268,2.96330718144,0,0,-0.671082,226.4, -1.3, -2,0,0,1024,1024,1024,1024,226.5,-90,97,3.733,3.734,3.736,3.808,0,0,20.032,60.8,14,Waypoint,
36.7935312,-118.9150132,5440.6460477883,138.123364,0,1.88644362992,19600,2018-04-15 18:59:20,16,0,22.543,5440.6460477883,138.123364,0.4921268,2.96330718144,0,0,-0.671082,226.2, -1.3, -2.1,0,0,1024,1024,1024,1024,226.5,-90,97,3.733,3.734,3.736,3.808,0,0,20.032,60.8,14,Waypoint,
36.7935313,-118.9150131,5441.6302997883,139.107616,0,1.90988851256,19700,2018-04-15 18:59:21,16,0,22.543,5441.6302997883,139.107616,0.4921268,2.96330718144,0,0,-0.671082,226.2, -1.4, -1.5,0,0,1024,1024,1024,1024,226.5,-90,97,3.733,3.734,3.736,3.808,0,0,20.032,60.8,14,Waypoint,
36.7935313,-118.915013,5442.6145517883,140.091868,0,1.8998032104,19800,2018-04-15 18:59:21,16,0,22.543,5442.6145517883,140.091868,0.4921268,2.96330718144,0,0,-0.671082,226.1, -2.1, -1.7,0,0,1024,1024,1024,1024,226.5,-90,97,3.733,3.734,3.736,3.808,0,0,20.032,60.8,14,Waypoint,
36.7935315,-118.9150129,5443.5988037883,141.07612,0,1.95928155876,19900,2018-04-15 18:59:21,16,0,22.543,5443.5988037883,141.07612,0.4921268,2.96330718144,0,0,-0.671082,226, -2.5, -2.2,0,0,1024,1024,1024,1024,226.5,-90,97,3.733,3.734,3.736,3.808,0,0,20.032,60.8,14,Waypoint,
36.7935316,-118.9150128,5444.5830557883,142.060372,0,1.98516738636,20000,2018-04-15 18:59:21,16,0,22.707,5444.5830557883,142.060372,0.4921268,2.96330718144,0,0,-0.671082,225.7, -3.2, -2.7,0,0,1024,1024,1024,1024,226.5,-90,97,3.762,3.767,3.751,3.832,0,0,18.176,60.8,14,Waypoint,
36.7935317,-118.9150127,5445.5673077883,143.044624,0,2.01180780716,20100,2018-04-15 18:59:21,16,0,22.707,5445.5673077883,143.044624,0.4921268,2.96330718144,0,0,-0.671082,225.5, -3.5, -2.6,0,0,1024,1024,1024,1024,226.5,-89.9,97,3.762,3.767,3.751,3.832,0,0,18.176,60.8,14,Waypoint,
36.7935318,-118.9150126,5446.5515597883,144.028876,0,2.03917001276,20200,2018-04-15 18:59:21,16,0,22.707,5446.5515597883,144.028876,0.4921268,2.96330718144,0,0,-0.671082,225.4, -3.3, -2.2,0,0,1024,1024,1024,1024,226.5,-89.9,97,3.762,3.767,3.751,3.832,0,0,18.176,60.8,14,Waypoint,
36.7935318,-118.9150123,5448.1919797883,145.669296,0,2.01834324044,20300,2018-04-15 18:59:21,16,0,22.707,5448.1919797883,145.669296,0.4921268,2.96330718144,0,0,-0.671082,225.6, -2.9, -1.4,0,0,1024,1024,1024,1024,226.5,-89.9,97,3.762,3.767,3.751,3.832,0,0,18.176,60.8,14,Waypoint,
36.7935316,-118.9150119,5449.8323997883,147.309716,0.223694,1.9242454684,20500,2018-04-15 18:59:21,16,0,22.707,5449.8323997883,147.309716,0.4921268,2.96330718144,0,0,-0.671082,225.8, -2.5, -0.6,0,0,1024,1024,1024,1024,226.5,-89.9,97,3.762,3.767,3.751,3.832,0,0,18.176,60.8,14,Waypoint,
36.7935316,-118.9150118,5450.8166517883,148.293968,0.223694,1.91958339476,20600,2018-04-15 18:59:21,16,0,22.707,5450.8166517883,148.293968,0.4921268,2.96330718144,0,0,-0.671082,226.1, -2.5, -0.4,0,0,1024,1024,1024,1024,226.5,-89.9,97,3.762,3.767,3.751,3.832,0,0,18.176,60.8,14,Waypoint,
36.7935315,-118.9150116,5451.8009037883,149.27822,0.223694,1.87535439072,20700,2018-04-15 18:59:22,16,0,22.707,5451.8009037883,149.27822,0.4921268,2.96330718144,0,0,-0.671082,226.4, -2.4, 0.1,0,0,1024,1024,1024,1024,226.5,-89.9,97,3.762,3.767,3.751,3.832,0,0,18.176,60.8,14,Waypoint,
36.7935314,-118.9150115,5452.7851557883,150.262472,0.223694,1.83567591176,20800,2018-04-15 18:59:22,16,0,22.707,5452.7851557883,150.262472,0.4921268,2.96330718144,0,0,-0.671082,226.6, -2.1, 1,0,0,1024,1024,1024,1024,226.5,-89.9,97,3.762,3.767,3.751,3.832,0,0,18.176,60.8,14,Waypoint,
36.7935313,-118.9150114,5453.7694077883,151.246724,0.223694,1.79633535932,20900,2018-04-15 18:59:22,16,0,22.707,5453.7694077883,151.246724,0.4921268,2.96330718144,0,0,-0.671082,226.8, -1.8, 1.3,0,0,1024,1024,1024,1024,226.5,-89.9,97,3.762,3.767,3.751,3.832,0,0,18.176,60.8,14,Waypoint,
36.7935313,-118.9150113,5454.4255757883,151.902892,0,1.79372052984,21010,2018-04-15 18:59:22,16,0,22.848,5454.4255757883,151.902892,0.4921268,2.96330718144,0,0,-0.671082,226.7, -2.1, 0.9,0,0,1024,1024,1024,1024,226.5,-89.9,97,3.786,3.793,3.788,3.851,0,0,16.766,60.8,14,Waypoint,
36.7935313,-118.9150113,5455.4098277883,152.887144,0,1.79372052984,21100,2018-04-15 18:59:22,16,0,22.848,5455.4098277883,152.887144,0.4921268,2.96330718144,0,0,-0.671082,226.6, -2.3, 0.1,0,0,1024,1024,1024,1024,226.5,-89.9,97,3.786,3.793,3.788,3.851,0,0,16.766,60.8,14,Waypoint,
36.7935313,-118.9150114,5456.3940797883,153.871396,0,1.79633535932,21200,2018-04-15 18:59:22,16,0,22.848,5456.3940797883,153.871396,0.4921268,2.96330718144,0,0,-0.671082,226.5, -2.3, -0.8,0,0,1024,1024,1024,1024,226.5,-89.9,97,3.786,3.793,3.788,3.851,0,0,16.766,60.8,14,Waypoint,
36.7935312,-118.9150114,5457.3783317883,154.855648,0.223694,1.76002958388,21400,2018-04-15 18:59:22,16,0,22.848,5457.3783317883,154.855648,0.4921268,2.96330718144,0,0,-0.671082,226.3, -1.9, -1.2,0,0,1024,1024,1024,1024,226.5,-89.9,97,3.786,3.793,3.788,3.851,0,0,16.766,60.8,14,Waypoint,
36.7935311,-118.9150115,5458.6906677883,156.167984,0.223694,1.72694559332,21500,2018-04-15 18:59:22,16,0,22.848,5458.6906677883,156.167984,0.4921268,2.96330718144,0,0,-0.671082,226.1, -1.2, -1.1,0,0,1024,1024,1024,1024,226.5,-89.9,97,3.786,3.793,3.788,3.851,0,0,16.766,60.8,14,Waypoint,
36.7935309,-118.9150115,5459.6749197883,157.152236,0.223694,1.6545112078,21600,2018-04-15 18:59:22,16,0,22.848,5459.6749197883,157.152236,0.4921268,2.96330718144,0,0,-0.671082,225.9, 0, -0.4,0,0,1024,1024,1024,1024,226.5,-89.9,97,3.786,3.793,3.788,3.851,0,0,16.766,60.8,14,Waypoint,
36.7935307,-118.9150116,5460.6591717883,158.136488,0.223694,1.58616802976,21700,2018-04-15 18:59:23,16,0,22.848,5460.6591717883,158.136488,0.4921268,2.96330718144,0,0,-0.671082,225.7, 0.7, 0.2,0,0,1024,1024,1024,1024,226.5,-89.9,97,3.786,3.793,3.788,3.851,0,0,16.766,60.8,14,Waypoint,
36.7935304,-118.9150116,5462.6276757883,160.104992,0.223694,1.47799545412,21900,2018-04-15 18:59:23,16,0,22.848,5462.6276757883,160.104992,0.4921268,2.96330718144,0,0,-0.671082,225.3, 0.3, 1.9,0,0,1024,1024,1024,1024,226.5,-89.9,97,3.786,3.793,3.788,3.851,0,0,16.766,60.8,14,Waypoint,
36.7935302,-118.9150116,5463.6119277883,161.089244,0.223694,1.40599085864,22000,2018-04-15 18:59:23,16,0,22.646,5463.6119277883,161.089244,0.4921268,2.96330718144,0,0,-0.671082,225.2, 0.1, 2,0,0,1024,1024,1024,1024,226.5,-90,97,3.718,3.722,3.747,3.811,0,0,20.354,62.6,14,Waypoint,
36.7935301,-118.9150116,5464.5961797883,162.073496,0.223694,1.3700295714,22100,2018-04-15 18:59:23,16,0,22.646,5464.5961797883,162.073496,0.4921268,2.96330718144,0,0,-0.671082,225.2, 0, 1.7,0,0,1024,1024,1024,1024,226.5,-90,97,3.718,3.722,3.747,3.811,0,0,20.354,62.6,14,Waypoint,
36.79353,-118.9150116,5465.2523477883,162.729664,0.223694,1.33409453088,22200,2018-04-15 18:59:23,16,0,22.646,5465.2523477883,162.729664,0.4921268,2.96330718144,0,0,-0.671082,225.4, -0.1, 1.3,0,0,1024,1024,1024,1024,226.5,-89.9,97,3.718,3.722,3.747,3.811,0,0,20.354,62.6,14,Waypoint,
36.7935299,-118.9150116,5466.2365997883,163.713916,0.223694,1.29818901792,22300,2018-04-15 18:59:23,16,0,22.646,5466.2365997883,163.713916,0.4921268,2.96330718144,0,0,-0.671082,225.6, -0.1, 1,0,0,1024,1024,1024,1024,226.5,-89.9,97,3.718,3.722,3.747,3.811,0,0,20.354,62.6,14,Waypoint,
36.7935298,-118.9150117,5467.5489357883,165.026252,0.223694,1.26805122168,22400,2018-04-15 18:59:23,16,0,22.646,5467.5489357883,165.026252,0.4921268,2.96330718144,0,0,-0.671082,225.8, 0, 0.9,0,0,1024,1024,1024,1024,226.5,-89.9,97,3.718,3.722,3.747,3.811,0,0,20.354,62.6,14,Waypoint,
36.7935298,-118.9150117,5468.5331877883,166.010504,0.223694,1.26805122168,22500,2018-04-15 18:59:23,16,0,22.646,5468.5331877883,166.010504,0.4921268,2.96330718144,0,0,-0.671082,226, 0, 0.6,0,0,1024,1024,1024,1024,226.5,-89.9,97,3.718,3.722,3.747,3.811,0,0,20.354,62.6,14,Waypoint,
36.7935296,-118.9150118,5470.5016917883,167.979008,0.223694,1.20352037972,22700,2018-04-15 18:59:24,16,0,22.646,5470.5016917883,167.979008,0.4921268,2.96330718144,0,0,-0.671082,226.3, 0.3, 1.1,0,0,1024,1024,1024,1024,226.5,-89.9,97,3.718,3.722,3.747,3.811,0,0,20.354,62.6,14,Waypoint,
36.7935294,-118.9150119,5472.4701957883,169.947512,0,1.14075791052,22800,2018-04-15 18:59:24,16,0,22.646,5472.4701957883,169.947512,0.4921268,2.96330718144,0,0,-0.671082,226.2, 0, 1.6,0,0,1024,1024,1024,1024,226.5,-89.9,97,3.718,3.722,3.747,3.811,0,0,20.354,62.6,14,Waypoint,
36.7935294,-118.9150119,5473.1263637883,170.60368,0,1.14075791052,22900,2018-04-15 18:59:24,16,0,22.646,5473.1263637883,170.60368,0.4921268,2.96330718144,0,0,-0.671082,226.1, 0.3, 1.8,0,0,1024,1024,1024,1024,226.5,-89.9,97,3.718,3.722,3.747,3.811,0,0,20.354,62.6,14,Waypoint,
36.7935293,-118.9150119,5474.1106157883,171.587932,0,1.10579727948,23000,2018-04-15 18:59:24,16,0,22.351,5474.1106157883,171.587932,0.4921268,2.96330718144,0,0,-0.671082,226, 0.1, 1.5,0,0,1024,1024,1024,1024,226.5,-89.9,97,3.699,3.698,3.694,3.773,0,0,21.287,62.6,14,Waypoint,
36.7935292,-118.915012,5475.0948677883,172.572184,0,1.0800689322,23100,2018-04-15 18:59:24,16,0,22.351,5475.0948677883,172.572184,0.4921268,2.96330718144,0,0,-0.671082,226, 0, 1,0,0,1024,1024,1024,1024,226.5,-89.9,97,3.699,3.698,3.694,3.773,0,0,21.287,62.6,14,Waypoint,
36.7935292,-118.915012,5476.0791197883,173.556436,0,1.0800689322,23300,2018-04-15 18:59:24,16,0,22.351,5476.0791197883,173.556436,0.4921268,2.96330718144,0,0,-0.671082,225.9, 0.2, 0.8,0,0,1024,1024,1024,1024,226.5,-89.9,97,3.699,3.698,3.694,3.773,0,0,21.287,62.6,14,Waypoint,
36.7935292,-118.9150121,5477.0633717883,174.540688,0,1.08990160968,23400,2018-04-15 18:59:24,16,0,22.351,5477.0633717883,174.540688,0.4921268,2.96330718144,0,0,-0.671082,225.9, 0.4, 0.7,0,0,1024,1024,1024,1024,226.5,-89.9,97,3.699,3.698,3.694,3.773,0,0,21.287,62.6,14,Waypoint,
36.7935292,-118.9150122,5478.0476237883,175.52494,0,1.1004265444,23500,2018-04-15 18:59:24,16,0,22.351,5478.0476237883,175.52494,0.4921268,2.96330718144,0,0,-0.671082,225.9, 0.4, 0.6,0,0,1024,1024,1024,1024,226.5,-89.9,97,3.699,3.698,3.694,3.773,0,0,21.287,62.6,14,Waypoint,
36.7935291,-118.9150122,5479.0318757883,176.509192,0,1.06664045408,23600,2018-04-15 18:59:24,16,0,22.351,5479.0318757883,176.509192,0.4921268,2.96330718144,0,0,-0.671082,225.9, 0.3, 0.5,0,0,1024,1024,1024,1024,226.5,-89.9,97,3.699,3.698,3.694,3.773,0,0,21.287,62.6,14,Waypoint,
36.7935291,-118.9150123,5480.0161277883,177.493444,0,1.0781824492,23700,2018-04-15 18:59:25,16,0,22.351,5480.0161277883,177.493444,0.4921268,2.96330718144,0,0,-0.671082,225.9, 0.2, 0.7,0,0,1024,1024,1024,1024,226.5,-89.9,97,3.699,3.698,3.694,3.773,0,0,21.287,62.6,14,Waypoint,
36.7935291,-118.9150124,5481.0003797883,178.477696,0,1.090387174,23800,2018-04-15 18:59:25,16,0,22.351,5481.0003797883,178.477696,0.4921268,2.96330718144,0,0,-0.671082,226, 0.6, 1.1,0,0,1024,1024,1024,1024,226.5,-89.9,97,3.699,3.698,3.694,3.773,0,0,21.287,62.6,14,Waypoint,
36.7935291,-118.9150124,5481.9846317883,179.461948,0,1.090387174,23900,2018-04-15 18:59:25,16,0,22.351,5481.9846317883,179.461948,0.4921268,2.96330718144,0,0,-0.671082,226, 0.7, 1.1,0,0,1024,1024,1024,1024,226.5,-89.9,97,3.699,3.698,3.694,3.773,0,0,21.287,62.6,14,Waypoint,
36.7935291,-118.9150125,5482.9688837883,180.4462,0,1.10322838176,24000,2018-04-15 18:59:25,16,0,22.201,5482.9688837883,180.4462,0.4921268,2.96330718144,0,0,-0.671082,226, 0.9, 0.3,0,0,1024,1024,1024,1024,226.5,-89.9,97,3.699,3.698,3.694,3.773,0,0,22.218,62.6,14,Waypoint,
36.7935291,-118.9150126,5483.9531357883,181.430452,0,1.11668638744,24100,2018-04-15 18:59:25,16,0,22.201,5483.9531357883,181.430452,0.4921268,2.96330718144,0,0,-0.671082,226, 0.7, 0.1,0,0,1024,1024,1024,1024,226.5,-89.9,97,3.699,3.698,3.694,3.773,0,0,22.218,62.6,14,Waypoint,
36.7935291,-118.9150127,5484.9373877883,182.414704,0,1.130741506,24200,2018-04-15 18:59:25,16,0,22.201,5484.9373877883,182.414704,0.4921268,2.96330718144,0,0,-0.671082,225.8, 1, 0.4,0,0,1024,1024,1024,1024,226.5,-89.9,97,3.699,3.698,3.694,3.773,0,0,22.218,62.6,14,Waypoint,
36.7935291,-118.9150127,5485.9216397883,183.398956,0,1.130741506,24300,2018-04-15 18:59:25,16,0,22.201,5485.9216397883,183.398956,0.4921268,2.96330718144,0,0,-0.671082,225.4, 0.9, 0.3,0,0,1024,1024,1024,1024,226.5,-89.9,97,3.699,3.698,3.694,3.773,0,0,22.218,62.6,14,Waypoint,
36.7935291,-118.9150128,5487.2339757883,184.711292,0,1.14536749072,24400,2018-04-15 18:59:25,16,0,22.201,5487.2339757883,184.711292,0.4921268,2.96330718144,0,0,-0.671082,225, 0.7, 0.9,0,0,1024,1024,1024,1024,226.5,-89.9,97,3.699,3.698,3.694,3.773,0,0,22.218,62.6,14,Waypoint,
36.7935292,-118.9150128,5488.2182277883,185.695544,0,1.17689308228,24500,2018-04-15 18:59:25,16,0,22.201,5488.2182277883,185.695544,0.4921268,2.96330718144,0,0,-0.671082,224.6, 0.5, 1.5,0,0,1024,1024,1024,1024,226.5,-90,97,3.699,3.698,3.694,3.773,0,0,22.218,62.6,14,Waypoint,
36.7935292,-118.9150129,5489.2024797883,186.679796,0,1.19166998564,24600,2018-04-15 18:59:25,16,0,22.201,5489.2024797883,186.679796,0.4921268,2.96330718144,0,0,-0.671082,224.5, 0.3, 1.3,0,0,1024,1024,1024,1024,226.5,-90,97,3.699,3.698,3.694,3.773,0,0,22.218,62.6,14,Waypoint,
36.7935293,-118.915013,5490.1867317883,187.664048,0,1.23800528896,24700,2018-04-15 18:59:26,16,0,22.201,5490.1867317883,187.664048,0.4921268,2.96330718144,0,0,-0.671082,224.8, 0.1, 0.6,0,0,1024,1024,1024,1024,226.5,-90,97,3.699,3.698,3.694,3.773,0,0,22.218,62.6,14,Waypoint,
36.7935294,-118.915013,5491.1709837883,188.6483,0,1.26933074928,24800,2018-04-15 18:59:26,16,0,22.201,5491.1709837883,188.6483,0.4921268,2.96330718144,0,0,-0.671082,225.2, 0, 0,0,0,1024,1024,1024,1024,226.5,-89.9,97,3.699,3.698,3.694,3.773,0,0,22.218,62.6,14,Waypoint,
36.7935296,-118.9150131,5493.1394877883,190.616804,0,1.34709978064,24900,2018-04-15 18:59:26,16,0,22.201,5493.1394877883,190.616804,0.4921268,2.96330718144,0,0,-0.671082,225.7, -0.1, -1.1,0,0,1024,1024,1024,1024,226.5,-90,97,3.699,3.698,3.694,3.773,0,0,22.218,62.6,14,Waypoint,
36.7935298,-118.9150131,5494.1237397883,191.601056,0,1.4108104126,25000,2018-04-15 18:59:26,16,0,22.201,5494.1237397883,191.601056,0.4921268,2.96330718144,0,0,-0.671082,226, -1.3, -1.2,0,0,1024,1024,1024,1024,226.5,-90,97,3.682,3.673,3.674,3.733,0,0,22.218,62.6,14,Waypoint,
36.7935299,-118.9150131,5495.1079917883,192.585308,0,1.442995453,25100,2018-04-15 18:59:26,16,0,22.201,5495.1079917883,192.585308,0.4921268,2.96330718144,0,0,-0.671082,226.5, -2, -1.3,0,0,1024,1024,1024,1024,226.5,-90,97,3.682,3.673,3.674,3.733,0,0,22.218,62.6,14,Waypoint,
36.79353,-118.915013,5496.0922437883,193.56956,0,1.4623031964,25210,2018-04-15 18:59:26,16,0,22.201,5496.0922437883,193.56956,0.4921268,2.96330718144,0,0,-0.671082,227, -2, -0.9,0,0,1024,1024,1024,1024,226.5,-90,97,3.682,3.673,3.674,3.733,0,0,22.218,62.6,14,Waypoint,
36.79353,-118.915013,5497.0764957883,194.553812,0,1.4623031964,25300,2018-04-15 18:59:26,16,0,22.201,5497.0764957883,194.553812,0.4921268,2.96330718144,0,0,-0.671082,227.3, -1.9, -0.1,0,0,1024,1024,1024,1024,226.5,-89.9,97,3.682,3.673,3.674,3.733,0,0,22.218,62.6,14,Waypoint,
36.7935301,-118.9150129,5498.0607477883,195.538064,0,1.48283469312,25410,2018-04-15 18:59:26,16,0,22.201,5498.0607477883,195.538064,0.4921268,2.96330718144,0,0,-0.671082,227.3, -1.3, 0.5,0,0,1024,1024,1024,1024,226.5,-89.9,97,3.682,3.673,3.674,3.733,0,0,22.218,62.6,14,Waypoint,
36.7935303,-118.9150129,5500.0292517883,197.506568,0,1.54956041704,25600,2018-04-15 18:59:26,16,0,22.201,5500.0292517883,197.506568,0.4921268,2.96330718144,0,0,-0.671082,227, -1.3, 0.3,0,0,1024,1024,1024,1024,226.5,-89.9,97,3.682,3.673,3.674,3.733,0,0,22.218,62.6,14,Waypoint,
36.7935304,-118.9150129,5501.0135037883,198.49082,0,1.58312997192,25800,2018-04-15 18:59:27,16,0,22.201,5501.0135037883,198.49082,0.4921268,2.96330718144,0,0,-0.671082,226.7, -1.6, -0.1,0,0,1024,1024,1024,1024,226.5,-89.9,97,3.682,3.673,3.674,3.733,0,0,22.218,62.6,14,Waypoint,
36.7935306,-118.9150129,5502.9820077883,200.459324,0,1.65063653576,26000,2018-04-15 18:59:27,16,0,22.199,5502.9820077883,200.459324,0.4921268,2.96330718144,0,0,-0.671082,226, -1.8, -1,0,0,1024,1024,1024,1024,226.5,-90,97,3.681,3.683,3.683,3.75,0,0,22.193,62.6,14,Waypoint,
36.7935307,-118.9150129,5503.9662597883,201.443576,0,1.6845637022,26100,2018-04-15 18:59:27,16,0,22.199,5503.9662597883,201.443576,0.4921268,2.96330718144,0,0,-0.671082,225.7, -2, -0.8,0,0,1024,1024,1024,1024,226.5,-90,97,3.681,3.683,3.683,3.75,0,0,22.193,62.6,14,Waypoint,
36.7935307,-118.9150129,5504.9505117883,202.427828,0,1.6845637022,26200,2018-04-15 18:59:27,16,0,22.199,5504.9505117883,202.427828,0.4921268,2.96330718144,0,0,-0.671082,225.3, -2.2, -0.4,0,0,1024,1024,1024,1024,226.5,-89.9,97,3.681,3.683,3.683,3.75,0,0,22.193,62.6,14,Waypoint,
36.7935307,-118.9150129,5505.9347637883,203.41208,0,1.6845637022,26300,2018-04-15 18:59:27,16,0,22.199,5505.9347637883,203.41208,0.4921268,2.96330718144,0,0,-0.671082,225, -1.4, -0.3,0,0,1024,1024,1024,1024,226.5,-89.9,97,3.681,3.683,3.683,3.75,0,0,22.193,62.6,14,Waypoint,
36.7935307,-118.9150129,5506.9190157883,204.396332,0,1.6845637022,26400,2018-04-15 18:59:27,16,0,22.199,5506.9190157883,204.396332,0.4921268,2.96330718144,0,0,-0.671082,224.8, -0.6, -0.2,0,0,1024,1024,1024,1024,226.5,-89.9,97,3.681,3.683,3.683,3.75,0,0,22.193,62.6,14,Waypoint,
