latitude,longitude,altitude(feet),ascent(feet),speed(mph),distance(feet),time(millisecond),datetime(utc),satellites,gpslevel,voltage(v),max_altitude(feet),max_ascent(feet),max_speed(mph),max_distance(feet), xSpeed(mph), ySpeed(mph), zSpeed(mph), compass_heading(degrees), pitch(degrees), roll(degrees),isPhoto,isVideo,rc_elevator,rc_aileron,rc_throttle,rc_rudder,gimbal_heading(degrees),gimbal_pitch(degrees),battery_percent,voltageCell1,voltageCell2,voltageCell3,voltageCell4,voltageCell5,voltageCell6,current(A),battery_temperature(f),flycStateRaw,flycState,message
36.7935451,-118.9149944,5301.3420298792,0,0,0,3040,2018-04-15 18:20:47,14,0,25.148,5301.3420298792,0,0,0,0,0,0,226.7, 1.2, 1.2,1,0,1024,1024,1024,1024,226.1,-89.9,92,4.219,4.205,4.171,4.203,0,0,3.854,68,11,AutoTakeoff,Photo Starting Mission from Lat/Long: 36.79356/-118.91497 Camera: Zenmuse X3 - Overlap: 90/90 - Active Connection: Yes
36.7935452,-118.9149944,5301.3420298792,0,0,0.036484909304,3100,2018-04-15 18:20:47,14,0,25.148,5301.3420298792,0,0,0.036484909304,0,0,0,226.7, 0.8, 1,0,0,1024,1024,1024,1024,226.1,-89.9,92,4.219,4.205,4.171,4.203,0,0,3.854,68,11,AutoTakeoff,
36.7935453,-118.9149944,5301.3420298792,0,0.223694,0.072969818608,3200,2018-04-15 18:20:47,14,0,25.148,5301.3420298792,0,0.223694,0.072969818608,0,0,0,226.8, 0.3, 0.2,0,0,1024,1024,1024,1024,226.1,-90,92,4.219,4.205,4.171,4.203,0,0,3.854,68,11,AutoTakeoff,
36.7935454,-118.9149944,5301.6701138792,0.328084,0.223694,0.109454727912,3300,2018-04-15 18:20:47,14,0,25.148,5301.6701138792,0.328084,0.223694,0.109454727912,0,0,0,226.7, 0, 0,0,0,1024,1024,1024,1024,226,-90,92,4.219,4.205,4.171,4.203,0,0,3.854,68,11,AutoTakeoff,
36.7935455,-118.9149944,5301.6701138792,0.328084,0,0.145939637216,3400,2018-04-15 18:20:47,14,0,25.148,5301.6701138792,0.328084,0.223694,0.145939637216,0,0,0,226.8, -0.1, -0.3,0,0,1024,1024,1024,1024,226,-90,92,4.219,4.205,4.171,4.203,0,0,3.854,68,11,AutoTakeoff,
36.7935456,-118.9149944,5301.9981978792,0.656168,0,0.18242454652,3500,2018-04-15 18:20:47,14,0,25.148,5301.9981978792,0.656168,0.223694,0.18242454652,0,0,0,226.8, -0.2, -0.4,0,0,1024,1024,1024,1024,226.1,-89.9,92,4.219,4.205,4.171,4.203,0,0,3.854,68,11,AutoTakeoff,
36.7935457,-118.9149944,5301.9981978792,0.656168,0,0.218909783908,3600,2018-04-15 18:20:48,14,0,25.148,5301.9981978792,0.656168,0.223694,0.218909783908,0,0,0,226.8, -0.4, -0.6,0,0,1024,1024,1024,1024,226.1,-89.9,92,4.219,4.205,4.171,4.203,0,0,3.854,68,11,AutoTakeoff,
36.7935457,-118.9149944,5302.3262818792,0.984252,0,0.218909783908,3700,2018-04-15 18:20:48,14,0,25.148,5302.3262818792,0.984252,0.223694,0.218909783908,0,0,0,226.7, -0.4, -0.4,0,0,1024,1024,1024,1024,226.1,-90,92,4.219,4.205,4.171,4.203,0,0,3.854,68,11,AutoTakeoff,
36.7935457,-118.9149944,5302.3262818792,0.984252,0,0.218909783908,3800,2018-04-15 18:20:48,14,0,25.148,5302.3262818792,0.984252,0.223694,0.218909783908,0,0,0,226.5, -0.1, 0,0,0,1024,1024,1024,1024,226.1,-89.9,92,4.219,4.205,4.171,4.203,0,0,3.854,68,11,AutoTakeoff,
36.7935457,-118.9149945,5302.6543658792,1.312336,0,0.220850728852,3900,2018-04-15 18:20:48,13,0,25.148,5302.6543658792,1.312336,0.223694,0.220850728852,0,0,0,226.2, 0.2, 0.2,0,0,1024,1024,1024,1024,226.1,-89.9,92,4.219,4.205,4.171,4.203,0,0,3.854,68,11,AutoTakeoff,
36.7935457,-118.9149946,5302.9824498792,1.64042,0,0.226574482316,4000,2018-04-15 18:20:48,13,0,24.559,5302.9824498792,1.64042,0.223694,0.226574482316,0,0,0,225.9, 0.3, 0.2,0,0,1024,1024,1024,1024,226.1,-89.9,92,4.211,4.171,4.207,4.196,0,0,16.529,68,11,AutoTakeoff,
36.7935457,-118.9149946,5302.9824498792,1.64042,0,0.226574482316,4100,2018-04-15 18:20:48,13,0,24.559,5302.9824498792,1.64042,0.223694,0.226574482316,0,0,-0.223694,225.8, 0.3, 0.1,0,0,1024,1024,1024,1024,226.1,-89.9,92,4.211,4.171,4.207,4.196,0,0,16.529,68,11,AutoTakeoff,
36.7935457,-118.9149946,5303.3105338792,1.968504,0,0.226574482316,4200,2018-04-15 18:20:48,13,0,24.559,5303.3105338792,1.968504,0.223694,0.226574482316,0,0,0,225.9, 0.3, 0,0,0,1024,1024,1024,1024,226.1,-89.9,92,4.211,4.171,4.207,4.196,0,0,16.529,68,11,AutoTakeoff,
36.7935458,-118.9149946,5303.3105338792,1.968504,0,0.261994102872,4300,2018-04-15 18:20:48,13,0,24.559,5303.3105338792,1.968504,0.223694,0.261994102872,0,0,0,226.1, 0.3, -0.2,0,0,1024,1024,1024,1024,226.1,-89.9,92,4.211,4.171,4.207,4.196,0,0,16.529,68,11,AutoTakeoff,
36.7935457,-118.9149947,5303.6386178792,2.296588,0,0.23580545374,4410,2018-04-15 18:20:48,13,0,24.559,5303.6386178792,2.296588,0.223694,0.261994102872,0,0,0,226.4, 0.4, -0.3,0,0,1024,1024,1024,1024,226.1,-89.9,92,4.211,4.171,4.207,4.196,0,0,16.529,68,11,AutoTakeoff,
36.7935457,-118.9149947,5303.6386178792,2.296588,0,0.23580545374,4500,2018-04-15 18:20:48,13,0,24.559,5303.6386178792,2.296588,0.223694,0.261994102872,0,0,0,226.4, 0.4, -0.3,0,0,1024,1024,1024,1024,226.1,-89.9,92,4.211,4.171,4.207,4.196,0,0,16.529,68,11,AutoTakeoff,
36.7935458,-118.9149946,5303.9667018792,2.624672,0,0.261994102872,4610,2018-04-15 18:20:49,13,0,24.559,5303.9667018792,2.624672,0.223694,0.261994102872,0,0,0,227, 0.4, -0.3,0,0,1024,1024,1024,1024,226.1,-89.9,92,4.211,4.171,4.207,4.196,0,0,16.529,68,11,AutoTakeoff,
36.7935457,-118.9149947,5303.9667018792,2.624672,0,0.23580545374,4700,2018-04-15 18:20:49,13,0,24.559,5303.9667018792,2.624672,0.223694,0.261994102872,0,0,0,227.3, 0.3, -0.2,0,0,1024,1024,1024,1024,226.1,-89.9,92,4.211,4.171,4.207,4.196,0,0,16.529,68,11,AutoTakeoff,
36.7935457,-118.9149947,5304.2947858792,2.952756,0,0.23580545374,4900,2018-04-15 18:20:49,13,0,24.559,5304.2947858792,2.952756,0.223694,0.261994102872,0,0,0,227.4, 0.3, -0.2,0,0,1024,1024,1024,1024,226.1,-89.9,92,4.211,4.171,4.207,4.196,0,0,16.529,68,6,P-GPS,
36.7935457,-118.9149947,5304.2947858792,2.952756,0,0.23580545374,5000,2018-04-15 18:20:49,14,0,24.559,5304.2947858792,2.952756,0.223694,0.261994102872,0,0,0,227.3, 0.4, -0.3,0,0,1024,1024,1024,1024,226.1,-89.9,92,3.932,3.931,4.007,3.985,0,0,16.529,68,14,Waypoint,
36.7935456,-118.9149947,5304.6228698792,3.28084,0,0.202389442172,5100,2018-04-15 18:20:49,14,0,24.559,5304.6228698792,3.28084,0.223694,0.261994102872,0,0,0,227.2, 1, 0.2,0,0,1024,1024,1024,1024,226.1,-89.9,92,3.932,3.931,4.007,3.985,0,0,16.529,68,14,Waypoint,
36.7935456,-118.9149947,5304.6228698792,3.28084,0,0.202389442172,5200,2018-04-15 18:20:49,14,0,24.559,5304.6228698792,3.28084,0.223694,0.261994102872,0,0,0,227.1, 0.9, 0.3,0,0,1024,1024,1024,1024,226.1,-89.9,92,3.932,3.931,4.007,3.985,0,0,16.529,68,14,Waypoint,
36.7935456,-118.9149947,5304.9509538792,3.608924,0,0.202389442172,5300,2018-04-15 18:20:49,14,0,24.559,5304.9509538792,3.608924,0.223694,0.261994102872,0,0,0,227.1, 0.7, 0.4,0,0,1024,1024,1024,1024,226.1,-89.9,92,3.932,3.931,4.007,3.985,0,0,16.529,68,14,Waypoint,
36.7935455,-118.9149947,5304.9509538792,3.608924,0,0.170238522508,5400,2018-04-15 18:20:49,14,0,24.559,5304.9509538792,3.608924,0.223694,0.261994102872,0,0,-0.223694,227.1, 0.6, 0.5,0,0,1024,1024,1024,1024,226.1,-89.9,92,3.932,3.931,4.007,3.985,0,0,16.529,68,14,Waypoint,
36.7935455,-118.9149948,5305.2790378792,3.937008,0,0.1869668695,5500,2018-04-15 18:20:49,14,0,24.559,5305.2790378792,3.937008,0.223694,0.261994102872,0,0,-0.223694,227.1, 0.8, 0.5,0,0,1024,1024,1024,1024,226.2,-89.9,92,3.932,3.931,4.007,3.985,0,0,16.529,68,14,Waypoint,
36.7935455,-118.9149948,5305.6071218792,4.265092,0,0.1869668695,5600,2018-04-15 18:20:50,14,0,24.559,5305.6071218792,4.265092,0.223694,0.261994102872,0,0,-0.223694,227, 0.8, 0.6,0,0,1024,1024,1024,1024,226.2,-89.9,92,3.932,3.931,4.007,3.985,0,0,16.529,68,14,Waypoint,
36.7935455,-118.9149948,5305.9352058792,4.593176,0,0.1869668695,5700,2018-04-15 18:20:50,14,0,24.559,5305.9352058792,4.593176,0.223694,0.261994102872,0,0,-0.223694,227, 0.8, 0.5,0,0,1024,1024,1024,1024,226.2,-89.9,92,3.932,3.931,4.007,3.985,0,0,16.529,68,14,Waypoint,
36.7935455,-118.9149949,5306.2632898792,4.92126,0,0.206493116844,5800,2018-04-15 18:20:50,14,0,24.559,5306.2632898792,4.92126,0.223694,0.261994102872,0,0,-0.223694,226.9, 0.8, 0.3,0,0,1024,1024,1024,1024,226.2,-89.9,92,3.932,3.931,4.007,3.985,0,0,16.529,68,14,Waypoint,
36.7935455,-118.9149949,5306.9194578792,5.577428,0,0.206493116844,5900,2018-04-15 18:20:50,14,0,24.559,5306.9194578792,5.577428,0.223694,0.261994102872,0,0,-0.223694,226.8, 0.9, 0,0,0,1024,1024,1024,1024,226.2,-89.9,92,3.932,3.931,4.007,3.985,0,0,16.529,68,14,Waypoint,
36.7935455,-118.9149949,5307.2475418792,5.905512,0,0.206493116844,6000,2018-04-15 18:20:50,14,0,23.521,5307.2475418792,5.905512,0.223694,0.261994102872,0,0,-0.447388,226.8, 1, -0.2,0,0,1024,1024,1024,1024,226.2,-89.9,92,3.907,3.902,3.916,3.91,0,0,17.027,68,14,Waypoint,
36.7935456,-118.9149949,5308.5598778792,7.217848,0,0.233708668896,6200,2018-04-15 18:20:50,14,0,23.521,5308.5598778792,7.217848,0.223694,0.261994102872,0,0,-0.447388,226.7, 0.6, 0,0,0,1024,1024,1024,1024,226.2,-90,92,3.907,3.902,3.916,3.91,0,0,17.027,68,14,Waypoint,
36.7935457,-118.914995,5310.2002978792,8.858268,0,0.280450468292,6410,2018-04-15 18:20:50,14,0,23.521,5310.2002978792,8.858268,0.223694,0.280450468292,0,0,-0.671082,226.8, 0.1, -0.8,0,0,1024,1024,1024,1024,226.3,-90,92,3.907,3.902,3.916,3.91,0,0,17.027,68,14,Waypoint,
36.7935457,-118.9149951,5311.1845498792,9.84252,0,0.299582686752,6500,2018-04-15 18:20:50,14,0,23.521,5311.1845498792,9.84252,0.223694,0.299582686752,0,0,-0.671082,227.1, 0.4, -0.8,0,0,1024,1024,1024,1024,226.3,-89.9,92,3.907,3.902,3.916,3.91,0,0,17.027,68,14,Waypoint,
36.7935457,-118.9149952,5312.1688018792,10.826772,0,0.32024115198,6600,2018-04-15 18:20:51,14,0,23.521,5312.1688018792,10.826772,0.223694,0.32024115198,0,0,-0.671082,227.4, 1, -0.7,0,0,1024,1024,1024,1024,226.3,-89.9,92,3.907,3.902,3.916,3.91,0,0,17.027,68,14,Waypoint,
36.7935456,-118.9149954,5314.4653898792,13.12336,0,0.34444554908,6800,2018-04-15 18:20:51,15,0,23.521,5314.4653898792,13.12336,0.223694,0.34444554908,0,0,-0.671082,228.2, 1.2, -0.1,0,0,1024,1024,1024,1024,226.3,-89.9,92,3.907,3.902,3.916,3.91,0,0,17.027,68,14,Waypoint,
36.7935458,-118.9149952,5315.4496418792,14.107612,0,0.34620736016,6900,2018-04-15 18:20:51,14,0,23.521,5315.4496418792,14.107612,0.223694,0.34620736016,0,0,-0.671082,228.4, 0.8, -0.2,0,0,1024,1024,1024,1024,226.3,-90,92,3.907,3.902,3.916,3.91,0,0,17.027,68,14,Waypoint,
36.7935462,-118.9149951,5317.7462298792,16.4042,0,0.4504429278,7100,2018-04-15 18:20:51,14,0,23.521,5317.7462298792,16.4042,0.223694,0.4504429278,0,0,-0.671082,228.2, -0.4, -0.8,0,0,1024,1024,1024,1024,226.3,-90,92,3.907,3.902,3.916,3.91,0,0,17.027,68,14,Waypoint,
36.7935463,-118.9149952,5319.7147338792,18.372704,0,0.49630579016,7300,2018-04-15 18:20:51,14,0,23.521,5319.7147338792,18.372704,0.223694,0.49630579016,0,0,-0.671082,227.8, -0.1, -1.1,0,0,1024,1024,1024,1024,226.3,-89.9,92,3.907,3.902,3.916,3.91,0,0,17.027,68,14,Waypoint,
36.7935463,-118.9149953,5322.0113218792,20.669292,0,0.51071523944,7500,2018-04-15 18:20:51,13,0,23.521,5322.0113218792,20.669292,0.223694,0.51071523944,0,0,-0.671082,227.3, 0.3, -0.9,0,0,1024,1024,1024,1024,226.3,-89.9,92,3.907,3.902,3.916,3.91,0,0,17.027,68,14,Waypoint,
36.7935463,-118.9149954,5323.3236578792,21.981628,0,0.52635500372,7600,2018-04-15 18:20:52,13,0,23.521,5323.3236578792,21.981628,0.223694,0.52635500372,0,0,-0.671082,227, 0.7, -0.6,0,0,1024,1024,1024,1024,226.3,-89.9,92,3.907,3.902,3.916,3.91,0,0,17.027,68,14,Waypoint,
36.7935462,-118.9149955,5324.3079098792,22.96588,0,0.51416012144,7700,2018-04-15 18:20:52,13,0,23.521,5324.3079098792,22.96588,0.223694,0.52635500372,0,0,-0.671082,226.9, 1, -0.5,0,0,1024,1024,1024,1024,226.3,-89.9,92,3.907,3.902,3.916,3.91,0,0,17.027,68,14,Waypoint,
36.7935461,-118.9149956,5325.2921618792,23.950132,0,0.5060039532,7800,2018-04-15 18:20:52,13,0,23.521,5325.2921618792,23.950132,0.223694,0.52635500372,0,0,-0.671082,226.8, 0.9, -0.4,0,0,1024,1024,1024,1024,226.3,-89.9,92,3.907,3.902,3.916,3.91,0,0,17.027,68,14,Waypoint,
36.7935461,-118.9149955,5326.2764138792,24.934384,0,0.48621392632,7900,2018-04-15 18:20:52,14,0,23.521,5326.2764138792,24.934384,0.223694,0.52635500372,0,0,-0.671082,226.8, 0.9, -0.3,0,0,1024,1024,1024,1024,226.3,-89.9,92,3.907,3.902,3.916,3.91,0,0,17.027,68,14,Waypoint,
36.7935461,-118.9149955,5327.5887498792,26.24672,0,0.48621392632,8000,2018-04-15 18:20:52,14,0,22.743,5327.5887498792,26.24672,0.223694,0.52635500372,0,0,-0.671082,226.8, 0.8, -0.3,0,0,1024,1024,1024,1024,226.3,-89.9,92,3.788,3.796,3.787,3.805,0,0,24.912,68,14,Waypoint,
36.7935461,-118.9149954,5328.5730018792,27.230972,0,0.46741799396,8100,2018-04-15 18:20:52,14,0,22.743,5328.5730018792,27.230972,0.223694,0.52635500372,0,0,-0.671082,227, 0.7, -0.2,0,0,1024,1024,1024,1024,226.3,-89.9,92,3.788,3.796,3.787,3.805,0,0,24.912,68,14,Waypoint,
36.793546,-118.9149954,5329.5572538792,28.215224,0,0.43953085396,8200,2018-04-15 18:20:52,14,0,22.743,5329.5572538792,28.215224,0.223694,0.52635500372,0,0,-0.671082,227.2, 0.5, -0.2,0,0,1024,1024,1024,1024,226.3,-89.9,92,3.788,3.796,3.787,3.805,0,0,24.912,68,14,Waypoint,
36.7935461,-118.9149953,5330.5415058792,29.199476,0,0.44973426636,8300,2018-04-15 18:20:52,15,0,22.743,5330.5415058792,29.199476,0.223694,0.52635500372,0,0,-0.671082,227.4, 0.4, -0.4,0,0,1024,1024,1024,1024,226.3,-89.9,92,3.788,3.796,3.787,3.805,0,0,24.912,68,14,Waypoint,
36.7935461,-118.9149952,5331.5257578792,30.183728,0,0.4333005388,8400,2018-04-15 18:20:52,15,0,22.743,5331.5257578792,30.183728,0.223694,0.52635500372,0,0,-0.671082,227.5, 0.5, -0.6,0,0,1024,1024,1024,1024,226.3,-89.9,92,3.788,3.796,3.787,3.805,0,0,24.912,68,14,Waypoint,
36.793546,-118.9149951,5332.8380938792,31.496064,0,0.38684712524,8500,2018-04-15 18:20:52,14,0,22.743,5332.8380938792,31.496064,0.223694,0.52635500372,0,0,-0.671082,227.7, 0.4, -0.7,0,0,1024,1024,1024,1024,226.3,-90,92,3.788,3.796,3.787,3.805,0,0,24.912,68,14,Waypoint,
36.793546,-118.914995,5333.8223458792,32.480316,0,0.3722277022,8600,2018-04-15 18:20:53,14,0,22.743,5333.8223458792,32.480316,0.223694,0.52635500372,0,0,-0.671082,227.6, 0.3, -0.8,0,0,1024,1024,1024,1024,226.3,-90,92,3.788,3.796,3.787,3.805,0,0,24.912,68,14,Waypoint,
36.793546,-118.9149948,5334.8065978792,33.464568,0,0.34854331824,8700,2018-04-15 18:20:53,14,0,22.743,5334.8065978792,33.464568,0.223694,0.52635500372,0,0,-0.671082,227.5, 0.2, -0.9,0,0,1024,1024,1024,1024,226.3,-90,92,3.788,3.796,3.787,3.805,0,0,24.912,68,14,Waypoint,
36.793546,-118.9149946,5335.7908498792,34.44882,0,0.33352363272,8800,2018-04-15 18:20:53,14,0,22.743,5335.7908498792,34.44882,0.223694,0.52635500372,0,0,-0.671082,227.4, 0, -0.6,0,0,1024,1024,1024,1024,226.3,-90,92,3.788,3.796,3.787,3.805,0,0,24.912,68,14,Waypoint,
36.7935459,-118.9149944,5336.7751018792,35.433072,0,0.291879602516,8900,2018-04-15 18:20:53,15,0,22.743,5336.7751018792,35.433072,0.223694,0.52635500372,0,0,-0.671082,227.3, -0.3, -0.3,0,0,1024,1024,1024,1024,226.3,-90,92,3.788,3.796,3.787,3.805,0,0,24.912,68,14,Waypoint,
36.7935458,-118.9149942,5337.7593538792,36.417324,0,0.261994102872,9000,2018-04-15 18:20:53,15,0,23.073,5337.7593538792,36.417324,0.223694,0.52635500372,0,0,-0.671082,227.3, -0.4, 0.1,0,0,1024,1024,1024,1024,226.3,-90,92,3.848,3.843,3.854,3.852,0,0,19.699,68,14,Waypoint,
36.7935459,-118.9149941,5338.7436058792,37.401576,0,0.304756243348,9100,2018-04-15 18:20:53,14,0,23.073,5338.7436058792,37.401576,0.223694,0.52635500372,0,0,-0.671082,227.3, -0.4, 0.2,0,0,1024,1024,1024,1024,226.3,-90,92,3.848,3.843,3.854,3.852,0,0,19.699,68,14,Waypoint,
36.7935459,-118.914994,5339.7278578792,38.385828,0,0.314407162292,9300,2018-04-15 18:20:53,14,0,23.073,5339.7278578792,38.385828,0.223694,0.52635500372,0,0,-0.671082,227.4, -0.4, 0.3,0,0,1024,1024,1024,1024,226.3,-90,92,3.848,3.843,3.854,3.852,0,0,19.699,68,14,Waypoint,
36.7935459,-118.9149939,5340.7121098792,39.37008,0,0.326396335904,9400,2018-04-15 18:20:53,15,0,23.073,5340.7121098792,39.37008,0.223694,0.52635500372,0,0,-0.671082,227.5, -0.5, 0.3,0,0,1024,1024,1024,1024,226.3,-90,92,3.848,3.843,3.854,3.852,0,0,19.699,68,14,Waypoint,
36.7935459,-118.9149938,5341.6963618792,40.354332,0,0.34047573268,9500,2018-04-15 18:20:53,15,0,23.073,5341.6963618792,40.354332,0.223694,0.52635500372,0,0,-0.671082,227.6, -0.7, 0.1,0,0,1024,1024,1024,1024,226.3,-90,92,3.848,3.843,3.854,3.852,0,0,19.699,68,14,Waypoint,
36.7935459,-118.9149937,5342.6806138792,41.338584,0,0.35640093004,9600,2018-04-15 18:20:54,14,0,23.073,5342.6806138792,41.338584,0.223694,0.52635500372,0,0,-0.671082,227.5, -0.6, 0,0,0,1024,1024,1024,1024,226.3,-90,92,3.848,3.843,3.854,3.852,0,0,19.699,68,14,Waypoint,
36.7935459,-118.9149936,5344.6491178792,43.307088,0,0.373933739,9700,2018-04-15 18:20:54,15,0,23.073,5344.6491178792,43.307088,0.223694,0.52635500372,0,0,-0.671082,227.4, -0.6, -0.4,0,0,1024,1024,1024,1024,226.3,-90,92,3.848,3.843,3.854,3.852,0,0,19.699,68,14,Waypoint,
36.7935459,-118.9149935,5346.6176218792,45.275592,0,0.39286090496,9900,2018-04-15 18:20:54,15,0,23.073,5346.6176218792,45.275592,0.223694,0.52635500372,0,0,-0.671082,227.4, -0.6, -0.3,0,0,1024,1024,1024,1024,226.3,-90,92,3.848,3.843,3.854,3.852,0,0,19.699,68,14,Waypoint,
36.793546,-118.9149936,5348.5861258792,47.244096,0,0.40305775568,10220,2018-04-15 18:20:54,16,0,23.073,5348.5861258792,47.244096,0.223694,0.52635500372,0,0,-0.671082,227.5, -0.1, -0.8,0,0,1024,1024,1024,1024,226.3,-89.9,92,3.848,3.843,3.854,3.852,0,0,19.699,68,14,Waypoint,
36.793546,-118.9149937,5349.5703778792,48.228348,0,0.38684712524,10300,2018-04-15 18:20:54,16,0,23.073,5349.5703778792,48.228348,0.223694,0.52635500372,0,0,-0.671082,227.5, 0.4, -0.9,0,0,1024,1024,1024,1024,226.3,-89.9,92,3.848,3.843,3.854,3.852,0,0,19.699,68,14,Waypoint,
36.7935461,-118.9149937,5350.5546298792,49.2126,0,0.41826116824,10400,2018-04-15 18:20:54,15,0,23.073,5350.5546298792,49.2126,0.223694,0.52635500372,0,0,-0.671082,227.6, 0.6, -0.9,0,0,1024,1024,1024,1024,226.3,-89.9,92,3.848,3.843,3.854,3.852,0,0,19.699,68,14,Waypoint,
36.7935461,-118.9149939,5352.1950498792,50.85302,0,0.39300854276,10600,2018-04-15 18:20:55,16,0,23.073,5352.1950498792,50.85302,0.223694,0.52635500372,0,0,-0.671082,227.6, 0.3, -1,0,0,1024,1024,1024,1024,226.3,-89.9,92,3.848,3.843,3.854,3.852,0,0,19.699,68,14,Waypoint,
36.7935461,-118.9149939,5353.1793018792,51.837272,0,0.39300854276,10900,2018-04-15 18:20:55,16,0,23.073,5353.1793018792,51.837272,0.223694,0.52635500372,0,0,-0.671082,227.6, 0.2, -0.9,0,0,1024,1024,1024,1024,226.3,-90,92,3.848,3.843,3.854,3.852,0,0,19.699,68,14,Waypoint,
36.7935461,-118.9149941,5355.1478058792,53.805776,0,0.3752296708,11110,2018-04-15 18:20:55,16,0,23.073,5355.1478058792,53.805776,0.223694,0.52635500372,0,0,-0.671082,227.4, -0.2, -1.1,0,0,1024,1024,1024,1024,226.3,-90,92,3.848,3.843,3.854,3.852,0,0,19.699,68,14,Waypoint,
36.7935461,-118.9149941,5355.1478058792,53.805776,0,0.3752296708,11200,2018-04-15 18:20:55,16,0,23.073,5355.1478058792,53.805776,0.223694,0.52635500372,0,0,-0.671082,227.4, -0.2, -1.1,0,0,1024,1024,1024,1024,226.3,-90,92,3.848,3.843,3.854,3.852,0,0,19.699,68,14,Waypoint,
36.7935462,-118.9149941,5356.1320578792,54.790028,0,0.4107939764,11300,2018-04-15 18:20:55,16,0,23.073,5356.1320578792,54.790028,0.223694,0.52635500372,0,0,-0.671082,227.3, -0.2, -1.2,0,0,1024,1024,1024,1024,226.3,-89.9,92,3.848,3.843,3.854,3.852,0,0,19.699,68,14,Waypoint,
36.7935462,-118.9149943,5358.1005618792,56.758532,0.223694,0.402395026,11400,2018-04-15 18:20:55,16,0,23.073,5358.1005618792,56.758532,0.223694,0.52635500372,0,0,-0.671082,227.2, 0.2, -1.2,0,0,1024,1024,1024,1024,226.3,-89.9,92,3.848,3.843,3.854,3.852,0,0,19.699,68,14,Waypoint,
36.7935462,-118.9149948,5361.0533178792,59.711288,0.223694,0.41800526272,11600,2018-04-15 18:20:56,16,0,23.073,5361.0533178792,59.711288,0.223694,0.52635500372,0,0,-0.671082,226.8, 1.4, -2,0,0,1024,1024,1024,1024,226.4,-89.9,92,3.848,3.843,3.854,3.852,0,0,19.699,68,14,Waypoint,
36.7935462,-118.914995,5362.0375698792,60.69554,0.223694,0.43794948908,11700,2018-04-15 18:20:56,16,0,23.073,5362.0375698792,60.69554,0.223694,0.52635500372,0,0,-0.671082,226.8, 2, -2.2,0,0,1024,1024,1024,1024,226.4,-89.9,92,3.848,3.843,3.854,3.852,0,0,19.699,68,14,Waypoint,
36.7935462,-118.9149953,5363.6779898792,62.33596,0.223694,0.4798064458,11800,2018-04-15 18:20:56,16,0,23.073,5363.6779898792,62.33596,0.223694,0.52635500372,0,0,-0.671082,227, 2, -2.1,0,0,1024,1024,1024,1024,226.3,-89.9,92,3.848,3.843,3.854,3.852,0,0,19.699,68,14,Waypoint,
36.7935463,-118.9149955,5365.6464938792,64.304464,0,0.54311681528,11910,2018-04-15 18:20:56,16,0,23.073,5365.6464938792,64.304464,0.223694,0.54311681528,0,0,-0.671082,227.3, 1.7, -2,0,0,1024,1024,1024,1024,226.4,-89.9,92,3.848,3.843,3.854,3.852,0,0,19.699,68,14,Waypoint,
36.7935462,-118.9149956,5367.6149978792,66.272968,0,0.53291012204,12100,2018-04-15 18:20:56,16,0,23.073,5367.6149978792,66.272968,0.223694,0.54311681528,0,0,-0.671082,227.5, 1.4, -1.9,0,0,1024,1024,1024,1024,226.4,-89.9,92,3.848,3.843,3.854,3.852,0,0,19.699,68,14,Waypoint,
36.7935462,-118.9149957,5368.5992498792,67.25722,0,0.55257219616,12200,2018-04-15 18:20:56,16,0,23.073,5368.5992498792,67.25722,0.223694,0.55257219616,0,0,-0.671082,227.5, 1.5, -1.6,0,0,1024,1024,1024,1024,226.4,-89.9,92,3.848,3.843,3.854,3.852,0,0,19.699,68,14,Waypoint,
36.7935462,-118.9149961,5371.5520058792,70.209976,0,0.63856957424,12500,2018-04-15 18:20:56,16,0,23.073,5371.5520058792,70.209976,0.223694,0.63856957424,0,0,-0.671082,226.8, 2.3, -2.2,0,0,1024,1024,1024,1024,226.3,-89.9,92,3.848,3.843,3.854,3.852,0,0,19.699,68,14,Waypoint,
36.7935462,-118.9149962,5372.5362578792,71.194228,0,0.6615485776,12600,2018-04-15 18:20:57,16,0,23.073,5372.5362578792,71.194228,0.223694,0.6615485776,0,0,-0.671082,226.7, 2, -2.4,0,0,1024,1024,1024,1024,226.4,-89.9,92,3.848,3.843,3.854,3.852,0,0,19.699,68,14,Waypoint,
36.7935462,-118.9149964,5373.5205098792,72.17848,0,0.7088910988,12700,2018-04-15 18:20:57,16,0,23.073,5373.5205098792,72.17848,0.223694,0.7088910988,0,0,-0.671082,226.6, 1.9, -2.4,0,0,1024,1024,1024,1024,226.3,-89.9,92,3.848,3.843,3.854,3.852,0,0,19.699,68,14,Waypoint,
36.7935463,-118.9149965,5374.5047618792,73.162732,0,0.75375002412,12800,2018-04-15 18:20:57,16,0,23.073,5374.5047618792,73.162732,0.223694,0.75375002412,0,0,-0.671082,226.5, 1.9, -2.4,0,0,1024,1024,1024,1024,226.4,-89.9,92,3.848,3.843,3.854,3.852,0,0,19.699,68,14,Waypoint,
36.7935463,-118.9149966,5375.4890138792,74.146984,0,0.77771984116,12900,2018-04-15 18:20:57,16,0,23.073,5375.4890138792,74.146984,0.223694,0.77771984116,0,0,-0.671082,226.8, 1.9, -2.7,0,0,1024,1024,1024,1024,226.4,-89.9,92,3.848,3.843,3.854,3.852,0,0,19.699,68,14,Waypoint,
36.7935464,-118.9149968,5376.8013498792,75.45932,0,0.84655842604,13000,2018-04-15 18:20:57,16,0,22.802,5376.8013498792,75.45932,0.223694,0.84655842604,0,0,-0.671082,227.1, 2.1, -2.8,0,0,1024,1024,1024,1024,226.4,-89.9,92,3.794,3.776,3.799,3.789,0,0,21.527,69.8,14,Waypoint,
36.7935464,-118.914997,5378.7698538792,77.427824,0,0.89555777144,13200,2018-04-15 18:20:57,16,0,22.802,5378.7698538792,77.427824,0.223694,0.89555777144,0,0,-0.671082,227.7, 2.1, -3.1,0,0,1024,1024,1024,1024,226.4,-89.9,92,3.794,3.776,3.799,3.789,0,0,21.527,69.8,14,Waypoint,
36.7935464,-118.914997,5379.7541058792,78.412076,0,0.89555777144,13300,2018-04-15 18:20:57,16,0,22.802,5379.7541058792,78.412076,0.223694,0.89555777144,0,0,-0.671082,227.8, 2.2, -2.8,0,0,1024,1024,1024,1024,226.4,-89.9,92,3.794,3.776,3.799,3.789,0,0,21.527,69.8,14,Waypoint,
36.7935463,-118.9149971,5380.7383578792,79.396328,0,0.9022145958,13400,2018-04-15 18:20:57,16,0,22.802,5380.7383578792,79.396328,0.223694,0.9022145958,0,0,-0.671082,227.8, 2.1, -2.4,0,0,1024,1024,1024,1024,226.4,-89.9,92,3.794,3.776,3.799,3.789,0,0,21.527,69.8,14,Waypoint,
36.7935463,-118.9149971,5381.7226098792,80.38058,0,0.9022145958,13500,2018-04-15 18:20:57,16,0,22.802,5381.7226098792,80.38058,0.223694,0.9022145958,0,0,-0.671082,227.7, 2.2, -1.9,0,0,1024,1024,1024,1024,226.4,-89.9,92,3.794,3.776,3.799,3.789,0,0,21.527,69.8,14,Waypoint,
36.7935463,-118.9149971,5382.7068618792,81.364832,0,0.9022145958,13600,2018-04-15 18:20:58,16,0,22.802,5382.7068618792,81.364832,0.223694,0.9022145958,0,0,-0.671082,227.6, 2.3, -1.5,0,0,1024,1024,1024,1024,226.4,-89.9,92,3.794,3.776,3.799,3.789,0,0,21.527,69.8,14,Waypoint,
36.7935462,-118.9149971,5383.3630298792,82.021,0,0.88508204932,13700,2018-04-15 18:20:58,16,0,22.802,5383.3630298792,82.021,0.223694,0.9022145958,0,0,-0.671082,227.5, 2.3, -1.1,0,0,1024,1024,1024,1024,226.4,-89.9,92,3.794,3.776,3.799,3.789,0,0,21.527,69.8,14,Waypoint,
36.7935462,-118.9149971,5384.3472818792,83.005252,0,0.88508204932,13800,2018-04-15 18:20:58,16,0,22.802,5384.3472818792,83.005252,0.223694,0.9022145958,0,0,-0.671082,227.4, 2.2, -0.9,0,0,1024,1024,1024,1024,226.4,-89.9,92,3.794,3.776,3.799,3.789,0,0,21.527,69.8,14,Waypoint,
36.7935461,-118.9149971,5385.3315338792,83.989504,0,0.86914700944,13900,2018-04-15 18:20:58,16,0,22.802,5385.3315338792,83.989504,0.223694,0.9022145958,0,0,-0.671082,227.4, 2.4, -0.9,0,0,1024,1024,1024,1024,226.4,-89.9,92,3.794,3.776,3.799,3.789,0,0,21.527,69.8,14,Waypoint,
36.7935461,-118.9149972,5386.3157858792,84.973756,0,0.895751341,14000,2018-04-15 18:20:58,16,0,22.799,5386.3157858792,84.973756,0.223694,0.9022145958,0,0,-0.671082,227.3, 2.7, -0.9,0,0,1024,1024,1024,1024,226.4,-89.9,91,3.791,3.776,3.801,3.785,0,0,21.419,69.8,14,Waypoint,
36.793546,-118.9149972,5387.3000378792,85.958008,0,0.88151905708,14100,2018-04-15 18:20:58,16,0,22.799,5387.3000378792,85.958008,0.223694,0.9022145958,0,0,-0.671082,227.1, 2.9, -0.8,0,0,1024,1024,1024,1024,226.4,-89.9,91,3.791,3.776,3.801,3.785,0,0,21.419,69.8,14,Waypoint,
36.7935459,-118.9149972,5388.2842898792,86.94226,0,0.86858926664,14200,2018-04-15 18:20:58,16,0,22.799,5388.2842898792,86.94226,0.223694,0.9022145958,0,0,-0.671082,227, 3.1, -1,0,0,1024,1024,1024,1024,226.4,-89.9,91,3.791,3.776,3.801,3.785,0,0,21.419,69.8,14,Waypoint,
36.7935459,-118.9149972,5389.5966258792,88.254596,0,0.86858926664,14300,2018-04-15 18:20:58,16,0,22.799,5389.5966258792,88.254596,0.223694,0.9022145958,0,0,-0.671082,226.9, 3, -1.5,0,0,1024,1024,1024,1024,226.4,-89.9,91,3.791,3.776,3.801,3.785,0,0,21.419,69.8,14,Waypoint,
36.7935459,-118.9149972,5390.5808778792,89.238848,0,0.86858926664,14410,2018-04-15 18:20:58,16,0,22.799,5390.5808778792,89.238848,0.223694,0.9022145958,0,0,-0.671082,226.9, 3, -1.5,0,0,1024,1024,1024,1024,226.4,-89.9,91,3.791,3.776,3.801,3.785,0,0,21.419,69.8,14,Waypoint,
36.7935459,-118.9149972,5390.5808778792,89.238848,0,0.86858926664,14500,2018-04-15 18:20:58,16,0,22.799,5390.5808778792,89.238848,0.223694,0.9022145958,0,0,-0.671082,226.9, 3, -1.5,0,0,1024,1024,1024,1024,226.4,-89.9,91,3.791,3.776,3.801,3.785,0,0,21.419,69.8,14,Waypoint,
36.7935459,-118.9149972,5391.5651298792,90.2231,0,0.86858926664,14600,2018-04-15 18:20:59,16,0,22.799,5391.5651298792,90.2231,0.223694,0.9022145958,0,0,-0.671082,226.8, 2.7, -1.8,0,0,1024,1024,1024,1024,226.4,-89.9,91,3.791,3.776,3.801,3.785,0,0,21.419,69.8,14,Waypoint,
36.7935458,-118.9149972,5392.5493818792,91.207352,0,0.85701774396,14700,2018-04-15 18:20:59,16,0,22.799,5392.5493818792,91.207352,0.223694,0.9022145958,0,0,-0.671082,226.9, 2.8, -2,0,0,1024,1024,1024,1024,226.4,-89.9,91,3.791,3.776,3.801,3.785,0,0,21.419,69.8,14,Waypoint,
36.7935458,-118.9149971,5394.5178858792,93.175856,0,0.82917325488,14800,2018-04-15 18:20:59,16,0,22.799,5394.5178858792,93.175856,0.223694,0.9022145958,0,0,-0.671082,227.1, 2.6, -1.6,0,0,1024,1024,1024,1024,226.4,-89.9,91,3.791,3.776,3.801,3.785,0,0,21.419,69.8,14,Waypoint,
36.7935457,-118.9149971,5396.8144738792,95.472444,0,0.81867128604,15100,2018-04-15 18:20:59,16,0,22.799,5396.8144738792,95.472444,0.223694,0.9022145958,0,0,-0.671082,227.3, 2.6, -1.7,0,0,1024,1024,1024,1024,226.4,-89.9,91,3.791,3.776,3.801,3.785,0,0,21.419,69.8,14,Waypoint,
36.7935457,-118.9149971,5397.7987258792,96.456696,0,0.81867128604,15200,2018-04-15 18:20:59,16,0,22.799,5397.7987258792,96.456696,0.223694,0.9022145958,0,0,-0.671082,227.4, 2.6, -1.9,0,0,1024,1024,1024,1024,226.4,-89.9,91,3.791,3.776,3.801,3.785,0,0,21.419,69.8,14,Waypoint,
36.7935457,-118.9149972,5399.7672298792,98.4252,0,0.84686026332,15300,2018-04-15 18:20:59,16,0,22.799,5399.7672298792,98.4252,0.223694,0.9022145958,0,0,-0.671082,227.4, 3.5, -2.7,0,0,1024,1024,1024,1024,226.4,-89.9,91,3.791,3.776,3.801,3.785,0,0,21.419,69.8,14,Waypoint,
36.7935457,-118.9149972,5401.7357338792,100.393704,0,0.84686026332,15500,2018-04-15 18:20:59,16,0,22.799,5401.7357338792,100.393704,0.223694,0.9022145958,0,0,-0.671082,227.2, 3.7, -2.6,0,0,1024,1024,1024,1024,226.4,-89.9,91,3.791,3.776,3.801,3.785,0,0,21.419,69.8,14,Waypoint,
36.7935457,-118.9149973,5403.7042378792,102.362208,0,0.87511813824,15700,2018-04-15 18:21:00,16,0,22.799,5403.7042378792,102.362208,0.223694,0.9022145958,0,0,-0.671082,227.1, 3, -2.4,0,0,1024,1024,1024,1024,226.4,-89.9,91,3.791,3.776,3.801,3.785,0,0,21.419,69.8,14,Waypoint,
36.7935456,-118.9149973,5404.6884898792,103.34646,0,0.86671262616,15800,2018-04-15 18:21:00,16,0,22.799,5404.6884898792,103.34646,0.223694,0.9022145958,0,0,-0.671082,227.1, 3.2, -2.4,0,0,1024,1024,1024,1024,226.4,-89.9,91,3.791,3.776,3.801,3.785,0,0,21.419,69.8,14,Waypoint,
36.7935456,-118.9149974,5405.6727418792,104.330712,0,0.89529530424,15900,2018-04-15 18:21:00,16,0,22.799,5405.6727418792,104.330712,0.223694,0.9022145958,0,0,-0.671082,227, 3.6, -2.5,0,0,1024,1024,1024,1024,226.4,-89.9,91,3.791,3.776,3.801,3.785,0,0,21.419,69.8,14,Waypoint,
36.7935456,-118.9149975,5406.6569938792,105.314964,0,0.9239173524,16000,2018-04-15 18:21:00,16,0,22.712,5406.6569938792,105.314964,0.223694,0.9239173524,0,0,-0.671082,227.1, 3.8, -2.6,0,0,1024,1024,1024,1024,226.4,-89.9,91,3.784,3.77,3.786,3.776,0,0,21.174,69.8,14,Waypoint,
36.7935456,-118.9149975,5407.6412458792,106.299216,0,0.9239173524,16100,2018-04-15 18:21:00,16,0,22.712,5407.6412458792,106.299216,0.223694,0.9239173524,0,0,-0.671082,227.1, 3.9, -2.6,0,0,1024,1024,1024,1024,226.4,-89.9,91,3.784,3.77,3.786,3.776,0,0,21.174,69.8,14,Waypoint,
36.7935455,-118.9149976,5408.6254978792,107.283468,0,0.94626971532,16200,2018-04-15 18:21:00,16,0,22.712,5408.6254978792,107.283468,0.223694,0.94626971532,0,0,-0.671082,227.2, 4.1, -2.5,0,0,1024,1024,1024,1024,226.4,-89.9,91,3.784,3.77,3.786,3.776,0,0,21.174,69.8,14,Waypoint,
36.7935455,-118.9149975,5409.6097498792,108.26772,0,0.91741144668,16300,2018-04-15 18:21:00,16,0,22.712,5409.6097498792,108.26772,0.223694,0.94626971532,0,0,-0.671082,227.3, 4.4, -2.2,0,0,1024,1024,1024,1024,226.4,-89.9,91,3.784,3.77,3.786,3.776,0,0,21.174,69.8,14,Waypoint,
36.7935454,-118.9149975,5410.5940018792,109.251972,0,0.912319583,16400,2018-04-15 18:21:00,16,0,22.712,5410.5940018792,109.251972,0.223694,0.94626971532,0,0,-0.671082,227.4, 4.3, -1.7,0,0,1024,1024,1024,1024,226.4,-89.9,91,3.784,3.77,3.786,3.776,0,0,21.174,69.8,14,Waypoint,
36.7935454,-118.9149975,5411.5782538792,110.236224,0,0.912319583,16510,2018-04-15 18:21:01,16,0,22.712,5411.5782538792,110.236224,0.223694,0.94626971532,0,0,-0.671082,227.4, 4.3, -1.3,0,0,1024,1024,1024,1024,226.4,-89.9,91,3.784,3.77,3.786,3.776,0,0,21.174,69.8,14,Waypoint,
36.7935453,-118.9149974,5412.2344218792,110.892392,0,0.8795439914,16600,2018-04-15 18:21:01,16,0,22.712,5412.2344218792,110.892392,0.223694,0.94626971532,0,0,-0.671082,227.5, 4.3, -1,0,0,1024,1024,1024,1024,226.4,-89.9,91,3.784,3.77,3.786,3.776,0,0,21.174,69.8,14,Waypoint,
36.7935453,-118.9149973,5413.2186738792,111.876644,0,0.85043309808,16800,2018-04-15 18:21:01,16,0,22.712,5413.2186738792,111.876644,0.223694,0.94626971532,0,0,-0.671082,227.6, 4.1, -0.7,0,0,1024,1024,1024,1024,226.4,-89.9,91,3.784,3.77,3.786,3.776,0,0,21.174,69.8,14,Waypoint,
36.7935452,-118.9149972,5414.2029258792,112.860896,0,0.81889110232,16900,2018-04-15 18:21:01,16,0,22.712,5414.2029258792,112.860896,0.223694,0.94626971532,0,0,-0.671082,227.5, 3.7, -0.6,0,0,1024,1024,1024,1024,226.4,-89.9,91,3.784,3.77,3.786,3.776,0,0,21.174,69.8,14,Waypoint,
36.7935452,-118.9149971,5415.1871778792,113.845148,0,0.78970474968,17000,2018-04-15 18:21:01,16,0,22.755,5415.1871778792,113.845148,0.223694,0.94626971532,0,0,-0.671082,227.5, 3.4, -0.5,0,0,1024,1024,1024,1024,226.4,-90,91,3.791,3.781,3.792,3.792,0,0,21.174,69.8,14,Waypoint,
36.7935452,-118.914997,5416.1714298792,114.8294,0,0.76052167788,17100,2018-04-15 18:21:01,16,0,22.755,5416.1714298792,114.8294,0.223694,0.94626971532,0,0,-0.671082,227.5, 2.9, -0.7,0,0,1024,1024,1024,1024,226.4,-90,91,3.791,3.781,3.792,3.792,0,0,21.174,69.8,14,Waypoint,
36.7935452,-118.9149969,5417.1556818792,115.813652,0,0.73133860608,17200,2018-04-15 18:21:01,16,0,22.755,5417.1556818792,115.813652,0.223694,0.94626971532,0,0,-0.671082,227.3, 2.6, -0.7,0,0,1024,1024,1024,1024,226.4,-90,91,3.791,3.781,3.792,3.792,0,0,21.174,69.8,14,Waypoint,
36.7935452,-118.9149967,5419.4522698792,118.11024,0,0.672982305,17300,2018-04-15 18:21:01,16,0,22.755,5419.4522698792,118.11024,0.223694,0.94626971532,0,0,-0.671082,227, 3, -0.6,0,0,1024,1024,1024,1024,226.4,-89.9,91,3.791,3.781,3.792,3.792,0,0,21.174,69.8,14,Waypoint,
36.7935451,-118.9149966,5421.4207738792,120.078744,0,0.64277561112,17500,2018-04-15 18:21:01,16,0,22.755,5421.4207738792,120.078744,0.223694,0.94626971532,0,0,-0.671082,226.9, 3.3, -1.2,0,0,1024,1024,1024,1024,226.4,-89.9,91,3.791,3.781,3.792,3.792,0,0,21.174,69.8,14,Waypoint,
36.7935451,-118.9149966,5422.4050258792,121.062996,0,0.64277561112,17600,2018-04-15 18:21:02,16,0,22.755,5422.4050258792,121.062996,0.223694,0.94626971532,0,0,-0.671082,227, 3.6, -1,0,0,1024,1024,1024,1024,226.4,-89.9,91,3.791,3.781,3.792,3.792,0,0,21.174,69.8,14,Waypoint,
36.7935451,-118.9149966,5423.3892778792,122.047248,0,0.64277561112,17700,2018-04-15 18:21:02,16,0,22.755,5423.3892778792,122.047248,0.223694,0.94626971532,0,0,-0.671082,227.2, 3.8, -0.6,0,0,1024,1024,1024,1024,226.4,-89.9,91,3.791,3.781,3.792,3.792,0,0,21.174,69.8,14,Waypoint,
36.793545,-118.9149965,5424.3735298792,123.0315,0,0.61464240812,17800,2018-04-15 18:21:02,16,0,22.755,5424.3735298792,123.0315,0.223694,0.94626971532,0,0,-0.671082,227.4, 4, -0.4,0,0,1024,1024,1024,1024,226.4,-89.9,91,3.791,3.781,3.792,3.792,0,0,21.174,69.8,14,Waypoint,
36.7935449,-118.9149965,5425.3577818792,124.015752,0,0.61788387804,17900,2018-04-15 18:21:02,16,0,22.755,5425.3577818792,124.015752,0.223694,0.94626971532,0,0,-0.671082,227.5, 4.5, -0.1,0,0,1024,1024,1024,1024,226.4,-89.9,91,3.791,3.781,3.792,3.792,0,0,21.174,69.8,14,Waypoint,
36.7935448,-118.9149964,5426.6701178792,125.328088,0,0.5945046122,18000,2018-04-15 18:21:02,16,0,22.779,5426.6701178792,125.328088,0.223694,0.94626971532,0,0,-0.671082,227.5, 4.7, 0,0,0,1024,1024,1024,1024,226.4,-89.9,91,3.785,3.767,3.799,3.794,0,0,20.883,69.8,14,Waypoint,
36.7935448,-118.9149963,5427.6543698792,126.31234,0,0.5658136664,18100,2018-04-15 18:21:02,16,0,22.779,5427.6543698792,126.31234,0.223694,0.94626971532,0,0,-0.671082,227.5, 4.6, -0.4,0,0,1024,1024,1024,1024,226.4,-89.9,91,3.785,3.767,3.799,3.794,0,0,20.883,69.8,14,Waypoint,
36.7935448,-118.9149963,5428.6386218792,127.296592,0,0.5658136664,18200,2018-04-15 18:21:02,16,0,22.779,5428.6386218792,127.296592,0.223694,0.94626971532,0,0,-0.671082,227.4, 4.1, -1.1,0,0,1024,1024,1024,1024,226.4,-89.9,91,3.785,3.767,3.799,3.794,0,0,20.883,69.8,14,Waypoint,
36.7935449,-118.9149962,5429.6228738792,128.280844,0,0.53094489888,18300,2018-04-15 18:21:02,16,0,22.779,5429.6228738792,128.280844,0.223694,0.94626971532,0,0,-0.671082,227.2, 3.3, -1.3,0,0,1024,1024,1024,1024,226.4,-90,91,3.785,3.767,3.799,3.794,0,0,20.883,69.8,14,Waypoint,
36.7935449,-118.9149961,5430.6071258792,129.265096,0,0.50202101344,18400,2018-04-15 18:21:02,16,0,22.779,5430.6071258792,129.265096,0.223694,0.94626971532,0,0,-0.671082,227.2, 3, -1,0,0,1024,1024,1024,1024,226.4,-90,91,3.785,3.767,3.799,3.794,0,0,20.883,69.8,14,Waypoint,
36.793545,-118.914996,5431.5913778792,130.249348,0,0.46889437196,18500,2018-04-15 18:21:02,16,0,22.779,5431.5913778792,130.249348,0.223694,0.94626971532,0,0,-0.671082,227.3, 2.7, -0.6,0,0,1024,1024,1024,1024,226.4,-90,91,3.785,3.767,3.799,3.794,0,0,20.883,69.8,14,Waypoint,
36.793545,-118.9149959,5432.5756298792,131.2336,0,0.43977363612,18620,2018-04-15 18:21:03,16,0,22.779,5432.5756298792,131.2336,0.223694,0.94626971532,0,0,-0.671082,227.5, 2.4, -0.2,0,0,1024,1024,1024,1024,226.4,-90,91,3.785,3.767,3.799,3.794,0,0,20.883,69.8,14,Waypoint,
36.793545,-118.9149959,5432.5756298792,131.2336,0,0.43977363612,18700,2018-04-15 18:21:03,16,0,22.779,5432.5756298792,131.2336,0.223694,0.94626971532,0,0,-0.671082,227.5, 2.4, -0.2,0,0,1024,1024,1024,1024,226.4,-89.9,91,3.785,3.767,3.799,3.794,0,0,20.883,69.8,14,Waypoint,
36.7935451,-118.9149957,5434.2160498792,132.87402,0.223694,0.3798228468,18800,2018-04-15 18:21:03,16,0,22.779,5434.2160498792,132.87402,0.223694,0.94626971532,0,0,-0.671082,227.7, 2, -0.2,0,0,1024,1024,1024,1024,226.4,-90,91,3.785,3.767,3.799,3.794,0,0,20.883,69.8,14,Waypoint,
36.7935452,-118.9149955,5435.2003018792,133.858272,0,0.323452438172,18910,2018-04-15 18:21:03,16,0,22.779,5435.2003018792,133.858272,0.223694,0.94626971532,0,0,-0.671082,227.7, 1.9, 0.1,0,0,1024,1024,1024,1024,226.4,-90,91,3.785,3.767,3.799,3.794,0,0,20.883,69.8,14,Waypoint,
36.7935452,-118.9149954,5436.1845538792,134.842524,0,0.294440298136,19000,2018-04-15 18:21:03,16,0,22.805,5436.1845538792,134.842524,0.223694,0.94626971532,0,0,-0.671082,227.7, 1.8, 0.3,0,0,1024,1024,1024,1024,226.4,-89.9,91,3.798,3.789,3.802,3.799,0,0,19.391,69.8,14,Waypoint,
36.7935452,-118.9149953,5437.1688058792,135.826776,0,0.265473105608,19100,2018-04-15 18:21:03,16,0,22.805,5437.1688058792,135.826776,0.223694,0.94626971532,0,0,-0.671082,227.7, 1.8, 0.1,0,0,1024,1024,1024,1024,226.4,-90,91,3.798,3.789,3.802,3.799,0,0,19.391,69.8,14,Waypoint,
36.7935453,-118.9149952,5438.1530578792,136.811028,0,0.24486221256,19300,2018-04-15 18:21:03,16,0,22.805,5438.1530578792,136.811028,0.223694,0.94626971532,0,0,-0.671082,227.6, 1.8, 0,0,0,1024,1024,1024,1024,226.4,-89.9,91,3.798,3.789,3.802,3.799,0,0,19.391,69.8,14,Waypoint,
36.7935453,-118.9149952,5439.1373098792,137.79528,0,0.24486221256,19400,2018-04-15 18:21:03,16,0,22.805,5439.1373098792,137.79528,0.223694,0.94626971532,0,0,-0.671082,227.5, 1.7, -0.2,0,0,1024,1024,1024,1024,226.4,-89.9,91,3.798,3.789,3.802,3.799,0,0,19.391,69.8,14,Waypoint,
36.7935454,-118.9149951,5440.1215618792,138.779532,0,0.23196687094,19500,2018-04-15 18:21:03,16,0,22.805,5440.1215618792,138.779532,0.223694,0.94626971532,0,0,-0.671082,227.4, 1.8, -0.4,0,0,1024,1024,1024,1024,226.4,-89.9,91,3.798,3.789,3.802,3.799,0,0,19.391,69.8,14,Waypoint,
36.7935454,-118.9149951,5440.7777298792,139.4357,0,0.23196687094,19600,2018-04-15 18:21:04,16,0,22.805,5440.7777298792,139.4357,0.223694,0.94626971532,0,0,-0.671082,227.4, 1.9, -0.5,0,0,1024,1024,1024,1024,226.4,-89.9,91,3.798,3.789,3.802,3.799,0,0,19.391,69.8,14,Waypoint,
36.7935455,-118.9149951,5442.7462338792,141.404204,0,0.251250336124,19700,2018-04-15 18:21:04,16,0,22.805,5442.7462338792,141.404204,0.223694,0.94626971532,0,0,-0.671082,227.4, 2, -0.6,0,0,1024,1024,1024,1024,226.4,-89.9,91,3.798,3.789,3.802,3.799,0,0,19.391,69.8,14,Waypoint,
36.7935456,-118.9149951,5444.7147378792,143.372708,0,0.2740567673,19900,2018-04-15 18:21:04,16,0,22.805,5444.7147378792,143.372708,0.223694,0.94626971532,0,0,-0.671082,227.4, 2, -0.7,0,0,1024,1024,1024,1024,226.4,-89.9,91,3.798,3.789,3.802,3.799,0,0,19.391,69.8,14,Waypoint,
36.7935456,-118.9149951,5446.0270738792,144.685044,0,0.2740567673,20000,2018-04-15 18:21:04,16,0,22.726,5446.0270738792,144.685044,0.223694,0.94626971532,0,0,-0.671082,227.4, 2, -0.7,0,0,1024,1024,1024,1024,226.4,-89.9,91,3.763,3.763,3.775,3.767,0,0,20.533,69.8,14,Waypoint,
36.7935456,-118.914995,5447.0113258792,145.669296,0,0.253001648516,20100,2018-04-15 18:21:04,16,0,22.726,5447.0113258792,145.669296,0.223694,0.94626971532,0,0,-0.671082,227.5, 2.1, -0.6,0,0,1024,1024,1024,1024,226.4,-89.9,91,3.763,3.763,3.775,3.767,0,0,20.533,69.8,14,Waypoint,
36.7935456,-118.914995,5447.9955778792,146.653548,0,0.253001648516,20200,2018-04-15 18:21:04,16,0,22.726,5447.9955778792,146.653548,0.223694,0.94626971532,0,0,-0.671082,227.6, 2.2, -0.3,0,0,1024,1024,1024,1024,226.4,-90,91,3.763,3.763,3.775,3.767,0,0,20.533,69.8,14,Waypoint,
36.7935456,-118.914995,5448.9798298792,147.6378,0,0.253001648516,20300,2018-04-15 18:21:04,16,0,22.726,5448.9798298792,147.6378,0.223694,0.94626971532,0,0,-0.671082,227.6, 2.1, -0.1,0,0,1024,1024,1024,1024,226.4,-89.9,91,3.763,3.763,3.775,3.767,0,0,20.533,69.8,14,Waypoint,
36.7935456,-118.914995,5449.9640818792,148.622052,0,0.253001648516,20400,2018-04-15 18:21:04,16,0,22.726,5449.9640818792,148.622052,0.223694,0.94626971532,0,0,-0.671082,227.5, 2.2, 0,0,0,1024,1024,1024,1024,226.4,-89.9,91,3.763,3.763,3.775,3.767,0,0,20.533,69.8,14,Waypoint,
36.7935456,-118.914995,5450.9483338792,149.606304,0,0.253001648516,20500,2018-04-15 18:21:04,16,0,22.726,5450.9483338792,149.606304,0.223694,0.94626971532,0,0,-0.671082,227.4, 2.3, 0,0,0,1024,1024,1024,1024,226.4,-89.9,91,3.763,3.763,3.775,3.767,0,0,20.533,69.8,14,Waypoint,
36.7935456,-118.914995,5451.9325858792,150.590556,0,0.253001648516,20600,2018-04-15 18:21:05,16,0,22.726,5451.9325858792,150.590556,0.223694,0.94626971532,0,0,-0.671082,227.2, 2.1, 0,0,0,1024,1024,1024,1024,226.4,-89.9,91,3.763,3.763,3.775,3.767,0,0,20.533,69.8,14,Waypoint,
36.7935457,-118.914995,5452.9168378792,151.574808,0,0.280450468292,20700,2018-04-15 18:21:05,16,0,22.726,5452.9168378792,151.574808,0.223694,0.94626971532,0,0,-0.671082,227.1, 2, -0.2,0,0,1024,1024,1024,1024,226.4,-89.9,91,3.763,3.763,3.775,3.767,0,0,20.533,69.8,14,Waypoint,
36.7935457,-118.914995,5453.9010898792,152.55906,0,0.280450468292,20800,2018-04-15 18:21:05,16,0,22.726,5453.9010898792,152.55906,0.223694,0.94626971532,0,0,-0.671082,226.9, 2.1, -0.5,0,0,1024,1024,1024,1024,226.4,-89.9,91,3.763,3.763,3.775,3.767,0,0,20.533,69.8,14,Waypoint,
36.7935457,-118.9149951,5454.8853418792,153.543312,0,0.299582686752,20900,2018-04-15 18:21:05,16,0,22.726,5454.8853418792,153.543312,0.223694,0.94626971532,0,0,-0.671082,226.9, 2.3, -0.6,0,0,1024,1024,1024,1024,226.4,-89.9,91,3.763,3.763,3.775,3.767,0,0,20.533,69.8,14,Waypoint,
36.7935457,-118.9149951,5455.8695938792,154.527564,0,0.299582686752,21000,2018-04-15 18:21:05,16,0,22.537,5455.8695938792,154.527564,0.223694,0.94626971532,0,0,-0.671082,226.9, 2.3, -0.6,0,0,1024,1024,1024,1024,226.4,-89.9,91,3.741,3.737,3.767,3.757,0,0,22.438,69.8,14,Waypoint,
36.7935457,-118.9149952,5458.8223498792,157.48032,0,0.32024115198,21400,2018-04-15 18:21:05,16,0,22.537,5458.8223498792,157.48032,0.223694,0.94626971532,0,0,-0.671082,227.3, 2.5, -0.6,0,0,1024,1024,1024,1024,226.4,-89.9,91,3.741,3.737,3.767,3.757,0,0,22.438,69.8,14,Waypoint,
36.7935457,-118.9149953,5460.7908538792,159.448824,0,0.34214896108,21600,2018-04-15 18:21:06,16,0,22.537,5460.7908538792,159.448824,0.223694,0.94626971532,0,0,-0.671082,227.7, 2.6, -0.3,0,0,1024,1024,1024,1024,226.4,-89.9,91,3.741,3.737,3.767,3.757,0,0,22.438,69.8,14,Waypoint,
36.7935457,-118.9149953,5461.7751058792,160.433076,0,0.34214896108,21700,2018-04-15 18:21:06,16,0,22.537,5461.7751058792,160.433076,0.223694,0.94626971532,0,0,-0.671082,227.8, 2.7, -0.1,0,0,1024,1024,1024,1024,226.4,-89.9,91,3.741,3.737,3.767,3.757,0,0,22.438,69.8,14,Waypoint,
36.7935456,-118.9149955,5464.7278618792,163.385832,0,0.3695538176,21900,2018-04-15 18:21:06,16,0,22.537,5464.7278618792,163.385832,0.223694,0.94626971532,0,0,-0.671082,227.5, 2.9, -0.3,0,0,1024,1024,1024,1024,226.4,-89.9,91,3.741,3.737,3.767,3.757,0,0,22.438,69.8,14,Waypoint,
36.7935455,-118.9149956,5466.6963658792,165.354336,0,0.37976707252,22100,2018-04-15 18:21:06,16,0,22.537,5466.6963658792,165.354336,0.223694,0.94626971532,0,0,-0.671082,227.4, 3.2, 0,0,0,1024,1024,1024,1024,226.4,-89.9,91,3.741,3.737,3.767,3.757,0,0,22.438,69.8,14,Waypoint,
36.7935455,-118.9149956,5467.6806178792,166.338588,0,0.37976707252,22200,2018-04-15 18:21:06,16,0,22.537,5467.6806178792,166.338588,0.223694,0.94626971532,0,0,-0.671082,227.3, 3.4, 0,0,0,1024,1024,1024,1024,226.4,-89.9,91,3.741,3.737,3.767,3.757,0,0,22.438,69.8,14,Waypoint,
36.7935454,-118.9149957,5468.6648698792,167.32284,0,0.39527888404,22300,2018-04-15 18:21:06,16,0,22.537,5468.6648698792,167.32284,0.223694,0.94626971532,0,0,-0.671082,227.1, 3.4, -0.2,0,0,1024,1024,1024,1024,226.4,-89.9,91,3.741,3.737,3.767,3.757,0,0,22.438,69.8,14,Waypoint,
36.7935454,-118.9149958,5469.6491218792,168.307092,0,0.42343177208,22400,2018-04-15 18:21:06,16,0,22.537,5469.6491218792,168.307092,0.223694,0.94626971532,0,0,-0.671082,227.1, 3.5, -0.3,0,0,1024,1024,1024,1024,226.4,-89.9,91,3.741,3.737,3.767,3.757,0,0,22.438,69.8,14,Waypoint,
36.7935454,-118.9149959,5471.6176258792,170.275596,0,0.45171917456,22600,2018-04-15 18:21:07,16,0,22.537,5471.6176258792,170.275596,0.223694,0.94626971532,0,0,-0.671082,227.1, 3.5, -0.4,0,0,1024,1024,1024,1024,226.4,-89.9,91,3.741,3.737,3.767,3.757,0,0,22.438,69.8,14,Waypoint,
36.7935453,-118.914996,5472.6018778792,171.259848,0,0.47313321724,22700,2018-04-15 18:21:07,16,0,22.537,5472.6018778792,171.259848,0.223694,0.94626971532,0,0,-0.671082,227.1, 3.5, -0.3,0,0,1024,1024,1024,1024,226.4,-89.9,91,3.741,3.737,3.767,3.757,0,0,22.438,69.8,14,Waypoint,
36.7935453,-118.914996,5473.5861298792,172.2441,0,0.47313321724,22800,2018-04-15 18:21:07,16,0,22.537,5473.5861298792,172.2441,0.223694,0.94626971532,0,0,-0.671082,227.2, 3.6, -0.3,0,0,1024,1024,1024,1024,226.4,-89.9,91,3.741,3.737,3.767,3.757,0,0,22.438,69.8,14,Waypoint,
36.7935453,-118.9149961,5474.5703818792,173.228352,0,0.50202101344,22900,2018-04-15 18:21:07,16,0,22.537,5474.5703818792,173.228352,0.223694,0.94626971532,0,0,-0.671082,227.3, 3.7, -0.3,0,0,1024,1024,1024,1024,226.4,-89.9,91,3.741,3.737,3.767,3.757,0,0,22.438,69.8,14,Waypoint,
36.7935452,-118.9149961,5475.8827178792,174.540688,0,0.49802823116,23110,2018-04-15 18:21:07,16,0,22.537,5475.8827178792,174.540688,0.223694,0.94626971532,0,0,-0.671082,227.3, 3.8, -0.4,0,0,1024,1024,1024,1024,226.4,-89.9,91,3.741,3.737,3.767,3.757,0,0,22.438,69.8,14,Waypoint,
36.7935452,-118.9149962,5476.8669698792,175.52494,0,0.52717193288,23300,2018-04-15 18:21:07,16,0,22.537,5476.8669698792,175.52494,0.223694,0.94626971532,0,0,-0.671082,227.3, 3.9, -0.6,0,0,1024,1024,1024,1024,226.4,-89.9,91,3.741,3.737,3.767,3.757,0,0,22.438,69.8,14,Waypoint,
36.7935452,-118.9149962,5477.8512218792,176.509192,0,0.52717193288,23400,2018-04-15 18:21:07,16,0,22.537,5477.8512218792,176.509192,0.223694,0.94626971532,0,0,-0.671082,227.3, 3.8, -0.4,0,0,1024,1024,1024,1024,226.4,-89.9,91,3.741,3.737,3.767,3.757,0,0,22.438,69.8,14,Waypoint,
36.7935452,-118.9149962,5478.8354738792,177.493444,0,0.52717193288,23500,2018-04-15 18:21:07,16,0,22.537,5478.8354738792,177.493444,0.223694,0.94626971532,0,0,-0.671082,227.4, 3.6, -0.3,0,0,1024,1024,1024,1024,226.4,-89.9,91,3.741,3.737,3.767,3.757,0,0,22.438,69.8,14,Waypoint,
36.7935452,-118.9149963,5479.8197258792,178.477696,0,0.55632219628,23600,2018-04-15 18:21:08,16,0,22.537,5479.8197258792,178.477696,0.223694,0.94626971532,0,0,-0.671082,227.4, 3.6, -0.3,0,0,1024,1024,1024,1024,226.4,-89.9,91,3.741,3.737,3.767,3.757,0,0,22.438,69.8,14,Waypoint,
36.7935452,-118.9149963,5480.8039778792,179.461948,0,0.55632219628,23700,2018-04-15 18:21:08,16,0,22.537,5480.8039778792,179.461948,0.223694,0.94626971532,0,0,-0.671082,227.4, 3.4, -0.2,0,0,1024,1024,1024,1024,226.4,-89.9,91,3.741,3.737,3.767,3.757,0,0,22.438,69.8,14,Waypoint,
36.7935452,-118.9149963,5481.7882298792,180.4462,0,0.55632219628,23800,2018-04-15 18:21:08,16,0,22.537,5481.7882298792,180.4462,0.223694,0.94626971532,0,0,-0.671082,227.4, 3.3, -0.2,0,0,1024,1024,1024,1024,226.4,-89.9,91,3.741,3.737,3.767,3.757,0,0,22.438,69.8,14,Waypoint,
36.7935452,-118.9149963,5482.7724818792,181.430452,0,0.55632219628,23900,2018-04-15 18:21:08,16,0,22.537,5482.7724818792,181.430452,0.223694,0.94626971532,0,0,-0.671082,227.3, 3.5, -0.2,0,0,1024,1024,1024,1024,226.4,-89.9,91,3.741,3.737,3.767,3.757,0,0,22.438,69.8,14,Waypoint,
36.7935451,-118.9149963,5483.7567338792,182.414704,0,0.55512468968,24000,2018-04-15 18:21:08,16,0,22.546,5483.7567338792,182.414704,0.223694,0.94626971532,0,0,-0.671082,227.3, 3.6, 0,0,0,1024,1024,1024,1024,226.4,-89.9,90,3.75,3.742,3.761,3.755,0,0,21.493,69.8,14,Waypoint,
36.7935451,-118.9149963,5484.7409858792,183.398956,0,0.55512468968,24100,2018-04-15 18:21:08,16,0,22.546,5484.7409858792,183.398956,0.223694,0.94626971532,0,0,-0.671082,227.3, 3.7, -0.1,0,0,1024,1024,1024,1024,226.4,-89.9,90,3.75,3.742,3.761,3.755,0,0,21.493,69.8,14,Waypoint,
36.7935452,-118.9149964,5486.7094898792,185.36746,0,0.58547902136,24300,2018-04-15 18:21:08,16,0,22.546,5486.7094898792,185.36746,0.223694,0.94626971532,0,0,-0.671082,227.3, 3.9, -0.5,0,0,1024,1024,1024,1024,226.4,-89.9,90,3.75,3.742,3.761,3.755,0,0,21.493,69.8,14,Waypoint,
36.7935452,-118.9149964,5488.6779938792,187.335964,0,0.58547902136,24400,2018-04-15 18:21:08,16,0,22.546,5488.6779938792,187.335964,0.223694,0.94626971532,0,0,-0.671082,227.2, 3.5, -0.8,0,0,1024,1024,1024,1024,226.4,-90,90,3.75,3.742,3.761,3.755,0,0,21.493,69.8,14,Waypoint,
36.7935453,-118.9149964,5490.6464978792,189.304468,0,0.58888125244,24500,2018-04-15 18:21:08,17,0,22.546,5490.6464978792,189.304468,0.223694,0.94626971532,0,0,-0.671082,227.2, 3.4, -0.6,0,0,1024,1024,1024,1024,226.4,-89.9,90,3.75,3.742,3.761,3.755,0,0,21.493,69.8,14,Waypoint,
36.7935453,-118.9149964,5491.3026658792,189.960636,0,0.58888125244,24600,2018-04-15 18:21:09,17,0,22.546,5491.3026658792,189.960636,0.223694,0.94626971532,0,0,-0.671082,227.2, 3.4, -0.5,0,0,1024,1024,1024,1024,226.4,-89.9,90,3.75,3.742,3.761,3.755,0,0,21.493,69.8,14,Waypoint,
36.7935453,-118.9149963,5492.2869178792,190.944888,0,0.55990159272,24700,2018-04-15 18:21:09,17,0,22.546,5492.2869178792,190.944888,0.223694,0.94626971532,0,0,-0.671082,227.2, 3.3, -0.3,0,0,1024,1024,1024,1024,226.4,-89.9,90,3.75,3.742,3.761,3.755,0,0,21.493,69.8,14,Waypoint,
36.7935454,-118.9149963,5493.2711698792,191.92914,0,0.5658136664,24800,2018-04-15 18:21:09,17,0,22.546,5493.2711698792,191.92914,0.223694,0.94626971532,0,0,-0.671082,227.1, 3.1, -0.2,0,0,1024,1024,1024,1024,226.4,-89.9,90,3.75,3.742,3.761,3.755,0,0,21.493,69.8,14,Waypoint,
36.7935454,-118.9149962,5494.2554218792,192.913392,0,0.53717849488,24900,2018-04-15 18:21:09,17,0,22.546,5494.2554218792,192.913392,0.223694,0.94626971532,0,0,-0.671082,227.1, 3.1, -0.3,0,0,1024,1024,1024,1024,226.4,-89.9,90,3.75,3.742,3.761,3.755,0,0,21.493,69.8,14,Waypoint,
36.7935454,-118.9149962,5495.2396738792,193.897644,0,0.53717849488,25000,2018-04-15 18:21:09,17,0,22.606,5495.2396738792,193.897644,0.223694,0.94626971532,0,0,-0.671082,227.2, 3.1, -0.5,0,0,1024,1024,1024,1024,226.4,-89.9,90,3.759,3.749,3.771,3.761,0,0,20.767,71.6,14,Waypoint,
36.7935455,-118.9149962,5496.2239258792,194.881896,0,0.54578085736,25100,2018-04-15 18:21:09,17,0,22.606,5496.2239258792,194.881896,0.223694,0.94626971532,0,0,-0.671082,227.2, 3.1, -0.7,0,0,1024,1024,1024,1024,226.4,-90,90,3.759,3.749,3.771,3.761,0,0,20.767,71.6,14,Waypoint,
36.7935455,-118.9149962,5497.2081778792,195.866148,0,0.54578085736,25200,2018-04-15 18:21:09,17,0,22.606,5497.2081778792,195.866148,0.223694,0.94626971532,0,0,-0.671082,227.2, 2.9, -0.8,0,0,1024,1024,1024,1024,226.4,-90,90,3.759,3.749,3.771,3.761,0,0,20.767,71.6,14,Waypoint,
36.7935456,-118.9149962,5498.1924298792,196.8504,0,0.55665028028,25300,2018-04-15 18:21:09,17,0,22.606,5498.1924298792,196.8504,0.223694,0.94626971532,0,0,-0.671082,227.3, 2.8, -1,0,0,1024,1024,1024,1024,226.4,-89.9,90,3.759,3.749,3.771,3.761,0,0,20.767,71.6,14,Waypoint,
36.7935456,-118.9149962,5499.1766818792,197.834652,0,0.55665028028,25400,2018-04-15 18:21:09,17,0,22.606,5499.1766818792,197.834652,0.223694,0.94626971532,0,0,-0.671082,227.3, 2.9, -1.1,0,0,1024,1024,1024,1024,226.4,-89.9,90,3.759,3.749,3.771,3.761,0,0,20.767,71.6,14,Waypoint,
36.7935456,-118.9149961,5500.1609338792,198.818904,0,0.52913059436,25500,2018-04-15 18:21:09,17,0,22.606,5500.1609338792,198.818904,0.223694,0.94626971532,0,0,-0.671082,227.3, 3.1, -1.1,0,0,1024,1024,1024,1024,226.4,-89.9,90,3.759,3.749,3.771,3.761,0,0,20.767,71.6,14,Waypoint,
36.7935457,-118.9149961,5501.1451858792,199.803156,0,0.54279201212,25600,2018-04-15 18:21:10,17,0,22.606,5501.1451858792,199.803156,0.223694,0.94626971532,0,0,-0.671082,227.3, 3, -0.9,0,0,1024,1024,1024,1024,226.4,-89.9,90,3.759,3.749,3.771,3.761,0,0,20.767,71.6,14,Waypoint,
36.7935457,-118.9149961,5502.1294378792,200.787408,0,0.54279201212,25700,2018-04-15 18:21:10,17,0,22.606,5502.1294378792,200.787408,0.223694,0.94626971532,0,0,-0.671082,227.2, 3, -0.8,0,0,1024,1024,1024,1024,226.4,-89.9,90,3.759,3.749,3.771,3.761,0,0,20.767,71.6,14,Waypoint,
36.7935457,-118.9149961,5502.7856058792,201.443576,0,0.54279201212,25800,2018-04-15 18:21:10,17,0,22.606,5502.7856058792,201.443576,0.223694,0.94626971532,0,0,-0.671082,227.2, 3.1, -0.7,0,0,1024,1024,1024,1024,226.4,-89.9,90,3.759,3.749,3.771,3.761,0,0,20.767,71.6,14,Waypoint,
36.7935457,-118.914996,5503.7698578792,202.427828,0,0.5161909614,25900,2018-04-15 18:21:10,17,0,22.606,5503.7698578792,202.427828,0.223694,0.94626971532,0,0,-0.671082,227.2, 3.4, -0.9,0,0,1024,1024,1024,1024,226.4,-89.9,90,3.759,3.749,3.771,3.761,0,0,20.767,71.6,14,Waypoint,
36.7935457,-118.914996,5505.7383618792,204.396332,0,0.5161909614,26100,2018-04-15 18:21:10,17,0,22.606,5505.7383618792,204.396332,0.223694,0.94626971532,0,0,-0.671082,227.6, 3.6, -0.5,0,0,1024,1024,1024,1024,226.4,-89.9,90,3.759,3.749,3.771,3.761,0,0,20.767,71.6,14,Waypoint,
36.7935456,-118.914996,5506.7226138792,205.380584,0,0.50180775884,26300,2018-04-15 18:21:10,17,0,22.606,5506.7226138792,205.380584,0.223694,0.94626971532,0,0,-0.671082,227.7, 3.6, -0.3,0,0,1024,1024,1024,1024,226.4,-89.9,90,3.759,3.749,3.771,3.761,0,0,20.767,71.6,14,Waypoint,
36.7935456,-118.914996,5508.0349498792,206.69292,0,0.50180775884,26400,2018-04-15 18:21:10,17,0,22.606,5508.0349498792,206.69292,0.223694,0.94626971532,0,0,-0.671082,227.7, 3.5, -0.2,0,0,1024,1024,1024,1024,226.4,-89.9,90,3.759,3.749,3.771,3.761,0,0,20.767,71.6,14,Waypoint,
36.7935456,-118.9149959,5509.6753698792,208.33334,0,0.47470802044,26500,2018-04-15 18:21:10,17,0,22.606,5509.6753698792,208.33334,0.223694,0.94626971532,0,0,-0.671082,227.3, 3.4, -0.2,0,0,1024,1024,1024,1024,226.4,-89.9,90,3.759,3.749,3.771,3.761,0,0,20.767,71.6,14,Waypoint,
36.7935456,-118.9149959,5511.9719578792,210.629928,0,0.47470802044,26700,2018-04-15 18:21:11,17,0,22.606,5511.9719578792,210.629928,0.223694,0.94626971532,0,0,-0.671082,226.9, 3.6, -0.2,0,0,1024,1024,1024,1024,226.4,-89.9,90,3.759,3.749,3.771,3.761,0,0,20.767,71.6,14,Waypoint,
36.7935456,-118.9149959,5512.9562098792,211.61418,0,0.47470802044,26800,2018-04-15 18:21:11,17,0,22.606,5512.9562098792,211.61418,0.223694,0.94626971532,0,0,-0.671082,226.9, 3.7, -0.5,0,0,1024,1024,1024,1024,226.4,-89.9,90,3.759,3.749,3.771,3.761,0,0,20.767,71.6,14,Waypoint,
36.7935456,-118.9149959,5513.9404618792,212.598432,0,0.47470802044,26900,2018-04-15 18:21:11,17,0,22.606,5513.9404618792,212.598432,0.223694,0.94626971532,0,0,-0.671082,227, 3.8, -0.6,0,0,1024,1024,1024,1024,226.4,-89.9,90,3.759,3.749,3.771,3.761,0,0,20.767,71.6,14,Waypoint,
36.7935456,-118.9149959,5514.9247138792,213.582684,0,0.47470802044,27000,2018-04-15 18:21:11,17,0,22.501,5514.9247138792,213.582684,0.223694,0.94626971532,0,0,-0.671082,227.2, 3.8, -0.6,0,0,1024,1024,1024,1024,226.4,-89.9,90,3.739,3.735,3.753,3.741,0,0,21.556,71.6,14,Waypoint,
36.7935456,-118.9149959,5515.9089658792,214.566936,0,0.47470802044,27100,2018-04-15 18:21:11,17,0,22.501,5515.9089658792,214.566936,0.223694,0.94626971532,0,0,-0.671082,227.4, 3.7, -0.6,0,0,1024,1024,1024,1024,226.4,-89.9,90,3.739,3.735,3.753,3.741,0,0,21.556,71.6,14,Waypoint,
36.7935455,-118.9149958,5517.8774698792,216.53544,0,0.43429463332,27300,2018-04-15 18:21:11,17,0,22.501,5517.8774698792,216.53544,0.223694,0.94626971532,0,0,-0.671082,227.6, 3.6, -0.4,0,0,1024,1024,1024,1024,226.4,-89.9,90,3.739,3.735,3.753,3.741,0,0,21.556,71.6,14,Waypoint,
36.7935455,-118.9149958,5518.8617218792,217.519692,0,0.43429463332,27400,2018-04-15 18:21:11,17,0,22.501,5518.8617218792,217.519692,0.223694,0.94626971532,0,0,-0.671082,227.6, 3.5, -0.1,0,0,1024,1024,1024,1024,226.4,-89.9,90,3.739,3.735,3.753,3.741,0,0,21.556,71.6,14,Waypoint,
36.7935455,-118.9149958,5519.8459738792,218.503944,0,0.43429463332,27500,2018-04-15 18:21:11,17,0,22.501,5519.8459738792,218.503944,0.223694,0.94626971532,0,0,-0.671082,227.5, 3.5, -0.1,0,0,1024,1024,1024,1024,226.4,-89.9,90,3.739,3.735,3.753,3.741,0,0,21.556,71.6,14,Waypoint,
36.7935455,-118.9149957,5520.8302258792,219.488196,0,0.40689633848,27600,2018-04-15 18:21:12,17,0,22.501,5520.8302258792,219.488196,0.223694,0.94626971532,0,0,-0.671082,227.3, 3.6, -0.1,0,0,1024,1024,1024,1024,226.4,-89.9,90,3.739,3.735,3.753,3.741,0,0,21.556,71.6,14,Waypoint,
36.7935455,-118.9149957,5521.8144778792,220.472448,0,0.40689633848,27700,2018-04-15 18:21:12,17,0,22.501,5521.8144778792,220.472448,0.223694,0.94626971532,0,0,-0.671082,227.2, 3.7, -0.2,0,0,1024,1024,1024,1024,226.4,-89.9,90,3.739,3.735,3.753,3.741,0,0,21.556,71.6,14,Waypoint,
36.7935455,-118.9149957,5522.7987298792,221.4567,0,0.40689633848,27800,2018-04-15 18:21:12,17,0,22.501,5522.7987298792,221.4567,0.223694,0.94626971532,0,0,-0.671082,227.1, 4, -0.4,0,0,1024,1024,1024,1024,226.4,-89.9,90,3.739,3.735,3.753,3.741,0,0,21.556,71.6,14,Waypoint,
36.7935454,-118.9149958,5524.7672338792,223.425204,0,0.42343177208,28000,2018-04-15 18:21:12,17,0,22.446,5524.7672338792,223.425204,0.223694,0.94626971532,0,0,-0.671082,227, 3.9, -0.9,0,0,1024,1024,1024,1024,226.4,-89.9,90,3.738,3.723,3.74,3.74,0,0,22.054,71.6,14,Waypoint,
36.7935454,-118.9149957,5525.7514858792,224.409456,0,0.39527888404,28110,2018-04-15 18:21:12,17,0,22.446,5525.7514858792,224.409456,0.223694,0.94626971532,0,0,-0.671082,227.1, 4, -0.3,0,0,1024,1024,1024,1024,226.4,-89.9,90,3.738,3.723,3.74,3.74,0,0,22.054,71.6,14,Waypoint,
36.7935454,-118.9149957,5526.7357378792,225.393708,0,0.39527888404,28300,2018-04-15 18:21:12,17,0,22.446,5526.7357378792,225.393708,0.223694,0.94626971532,0,0,-0.671082,227.2, 4, 0,0,0,1024,1024,1024,1024,226.4,-89.9,90,3.738,3.723,3.74,3.74,0,0,22.054,71.6,14,Waypoint,
36.7935454,-118.9149957,5527.7199898792,226.37796,0,0.39527888404,28400,2018-04-15 18:21:12,17,0,22.446,5527.7199898792,226.37796,0.223694,0.94626971532,0,0,-0.671082,227.4, 3.8, 0.1,0,0,1024,1024,1024,1024,226.4,-89.9,90,3.738,3.723,3.74,3.74,0,0,22.054,71.6,14,Waypoint,
36.7935454,-118.9149957,5528.7042418792,227.362212,0,0.39527888404,28500,2018-04-15 18:21:12,17,0,22.446,5528.7042418792,227.362212,0.223694,0.94626971532,0,0,-0.671082,227.5, 3.7, -0.1,0,0,1024,1024,1024,1024,226.4,-89.9,90,3.738,3.723,3.74,3.74,0,0,22.054,71.6,14,Waypoint,
36.7935455,-118.9149957,5529.6884938792,228.346464,0,0.40689633848,28600,2018-04-15 18:21:13,17,0,22.446,5529.6884938792,228.346464,0.223694,0.94626971532,0,0,-0.671082,227.5, 3.5, -0.6,0,0,1024,1024,1024,1024,226.4,-89.9,90,3.738,3.723,3.74,3.74,0,0,22.054,71.6,14,Waypoint,
36.7935455,-118.9149956,5531.6569978792,230.314968,0,0.37976707252,28700,2018-04-15 18:21:13,17,0,22.446,5531.6569978792,230.314968,0.223694,0.94626971532,0,0,-0.671082,227.6, 3.6, -0.9,0,0,1024,1024,1024,1024,226.4,-89.9,90,3.738,3.723,3.74,3.74,0,0,22.054,71.6,14,Waypoint,
36.7935455,-118.9149956,5532.6412498792,231.29922,0,0.37976707252,28800,2018-04-15 18:21:13,17,0,22.446,5532.6412498792,231.29922,0.223694,0.94626971532,0,0,-0.671082,227.6, 3.7, -0.9,0,0,1024,1024,1024,1024,226.4,-89.9,90,3.738,3.723,3.74,3.74,0,0,22.054,71.6,14,Waypoint,
36.7935455,-118.9149956,5534.6097538792,233.267724,0,0.37976707252,29000,2018-04-15 18:21:13,17,0,22.477,5534.6097538792,233.267724,0.223694,0.94626971532,0,0,-0.671082,227.7, 3.5, -0.4,0,0,1024,1024,1024,1024,226.4,-89.9,90,3.742,3.732,3.743,3.739,0,0,21.902,71.6,14,Waypoint,
36.7935455,-118.9149955,5535.5940058792,234.251976,0,0.35297245224,29100,2018-04-15 18:21:13,17,0,22.477,5535.5940058792,234.251976,0.223694,0.94626971532,0,0,-0.671082,227.7, 3.3, -0.3,0,0,1024,1024,1024,1024,226.4,-89.9,90,3.742,3.732,3.743,3.739,0,0,21.902,71.6,14,Waypoint,
