latitude,longitude,altitude(feet),ascent(feet),speed(mph),distance(feet),time(millisecond),datetime(utc),satellites,gpslevel,voltage(v),max_altitude(feet),max_ascent(feet),max_speed(mph),max_distance(feet), xSpeed(mph), ySpeed(mph), zSpeed(mph), compass_heading(degrees), pitch(degrees), roll(degrees),isPhoto,isVideo,rc_elevator,rc_aileron,rc_throttle,rc_rudder,gimbal_heading(degrees),gimbal_pitch(degrees),battery_percent,voltageCell1,voltageCell2,voltageCell3,voltageCell4,voltageCell5,voltageCell6,current(A),battery_temperature(f),flycStateRaw,flycState,message
38.8912945,-120.7647947,3085.6532486753,0,0.223694,0,2870,2018-05-22 20:34:09,13,0,0,3085.6532486753,0,0.223694,0,0,0,0,334.6, 1.1, 1.2,1,0,1024,1024,1024,1024,334.5,-90,97,4.228,4.27,4.266,4.277,4.275,4.259,0,82.4,11,AutoTakeoff,DJI_0625.jpg Starting Mission from Lat/Long: 38.89126/-120.76482 Camera: Zenmuse X3 - Overlap: 90/90 - Active Connection: No
38.8912945,-120.7647947,3085.6532486753,0,0.223694,0,2900,2018-05-22 20:34:09,13,0,0,3085.6532486753,0,0.223694,0,0,0,0,334.6, 1.1, 1.2,0,0,1024,1024,1024,1024,334.5,-90,97,4.228,4.27,4.266,4.277,4.275,4.259,0,82.4,11,AutoTakeoff,
38.8912944,-120.7647946,3085.6532486753,0,0.223694,0.046233925364,3100,2018-05-22 20:34:10,13,0,0,3085.6532486753,0,0.223694,0.046233925364,0,0,0,334.8, 0.5, 0.8,0,0,1024,1024,1024,1024,334.5,-90,97,4.228,4.27,4.266,4.277,4.275,4.259,0,82.4,11,AutoTakeoff,
38.8912944,-120.7647944,3085.6532486753,0,0.223694,0.092676840236,3200,2018-05-22 20:34:10,13,0,0,3085.6532486753,0,0.223694,0.092676840236,0,0,0,334.8, 0.2, 0.7,0,0,1024,1024,1024,1024,334.5,-90,97,4.228,4.27,4.266,4.277,4.275,4.259,0,82.4,11,AutoTakeoff,
38.8912943,-120.7647941,3085.9813326753,0.328084,0.223694,0.185353680472,3400,2018-05-22 20:34:10,13,0,0,3085.9813326753,0.328084,0.223694,0.185353680472,0,0,0,334.6, -0.4, -0.4,0,0,1024,1024,1024,1024,334.5,-90,97,4.228,4.27,4.266,4.277,4.275,4.259,0,82.4,11,AutoTakeoff,
38.8912943,-120.7647939,3085.9813326753,0.328084,0.223694,0.23861221236,3600,2018-05-22 20:34:10,13,0,0,3085.9813326753,0.328084,0.223694,0.23861221236,0,0,0,334.5, -0.7, -1.1,0,0,1024,1024,1024,1024,334.5,-89.9,97,4.228,4.27,4.266,4.277,4.275,4.259,0,82.4,11,AutoTakeoff,
38.8912942,-120.7647938,3086.3094166753,0.656168,0.223694,0.278030192624,3810,2018-05-22 20:34:10,13,0,0,3086.3094166753,0.656168,0.223694,0.278030192624,0,0,0,334.4, -0.6, -1.5,0,0,1024,1024,1024,1024,334.5,-89.9,97,4.228,4.27,4.266,4.277,4.275,4.259,0,82.4,11,AutoTakeoff,
38.8912943,-120.7647937,3086.3094166753,0.656168,0.223694,0.293201452952,4000,2018-05-22 20:34:10,13,0,25.516,3086.3094166753,0.656168,0.223694,0.293201452952,0,0,0,334.3, -0.5, -1.4,0,0,1024,1024,1024,1024,334.5,-89.9,97,4.228,4.27,4.266,4.277,4.275,4.259,3.98,82.4,11,AutoTakeoff,
38.8912943,-120.7647935,3086.6375006753,0.984252,0,0.34849738648,4100,2018-05-22 20:34:11,11,0,25.516,3086.6375006753,0.984252,0.223694,0.34849738648,0,0,0,334.1, -0.4, -1.3,0,0,1024,1024,1024,1024,334.5,-89.9,97,4.228,4.27,4.266,4.277,4.275,4.259,3.98,82.4,11,AutoTakeoff,
38.8912944,-120.7647934,3086.9655846753,1.312336,0,0.37096785964,4200,2018-05-22 20:34:11,12,0,25.516,3086.9655846753,1.312336,0.223694,0.37096785964,0,0,0,333.9, 0, -1.1,0,0,1024,1024,1024,1024,334.5,-89.9,97,4.228,4.27,4.266,4.277,4.275,4.259,3.98,82.4,11,AutoTakeoff,
38.8912944,-120.7647933,3086.9655846753,1.312336,0,0.39923885792,4300,2018-05-22 20:34:11,12,0,25.516,3086.9655846753,1.312336,0.223694,0.39923885792,0,0,0,333.8, 0, -1.2,0,0,1024,1024,1024,1024,334.5,-89.9,97,4.228,4.27,4.266,4.277,4.275,4.259,3.98,82.4,11,AutoTakeoff,
38.8912946,-120.7647932,3087.2936686753,1.64042,0,0.42752297956,4500,2018-05-22 20:34:11,12,0,25.516,3087.2936686753,1.64042,0.223694,0.42752297956,0,0,0,333.8, 0.3, -1.1,0,0,1024,1024,1024,1024,334.5,-89.9,97,4.228,4.27,4.266,4.277,4.275,4.259,3.98,82.4,11,AutoTakeoff,
38.8912946,-120.7647932,3087.6217526753,1.968504,0,0.42752297956,4620,2018-05-22 20:34:11,11,0,25.516,3087.6217526753,1.968504,0.223694,0.42752297956,0,0,-0.223694,333.9, 0.4, -1,0,0,1024,1024,1024,1024,334.5,-89.9,97,4.228,4.27,4.266,4.277,4.275,4.259,3.98,82.4,11,AutoTakeoff,
38.8912947,-120.7647932,3087.6217526753,1.968504,0,0.432168649,4700,2018-05-22 20:34:11,11,0,25.516,3087.6217526753,1.968504,0.223694,0.432168649,0,0,-0.223694,333.9, 0.4, -1,0,0,1024,1024,1024,1024,334.5,-89.9,97,4.228,4.27,4.266,4.277,4.275,4.259,3.98,82.4,11,AutoTakeoff,
38.8912947,-120.7647932,3087.9498366753,2.296588,0,0.432168649,4800,2018-05-22 20:34:11,12,0,25.516,3087.9498366753,2.296588,0.223694,0.432168649,0,0,-0.223694,333.9, 0.4, -1,0,0,1024,1024,1024,1024,334.5,-89.9,97,4.228,4.27,4.266,4.277,4.275,4.259,3.98,82.4,11,AutoTakeoff,
38.8912947,-120.7647932,3087.9498366753,2.296588,0,0.432168649,4900,2018-05-22 20:34:11,12,0,25.516,3087.9498366753,2.296588,0.223694,0.432168649,0,0,-0.223694,333.9, 0.5, -1,0,0,1024,1024,1024,1024,334.5,-89.9,97,4.228,4.27,4.266,4.277,4.275,4.259,3.98,82.4,11,AutoTakeoff,
38.8912947,-120.7647933,3088.2779206753,2.624672,0,0.40420933052,5000,2018-05-22 20:34:11,13,0,25.221,3088.2779206753,2.624672,0.223694,0.432168649,0,0,-0.223694,333.9, 0.5, -0.8,0,0,1024,1024,1024,1024,334.5,-89.9,97,4.187,4.156,4.177,4.166,4.183,4.166,6.754,82.4,11,AutoTakeoff,
38.8912945,-120.7647934,3088.6060046753,2.952756,0,0.36916995932,5200,2018-05-22 20:34:12,14,0,25.221,3088.6060046753,2.952756,0.223694,0.432168649,0,0,-0.223694,334, 0.4, -0.6,0,0,1024,1024,1024,1024,334.5,-89.9,97,4.187,4.156,4.177,4.166,4.183,4.166,6.754,82.4,14,Waypoint,
38.8912945,-120.7647934,3088.6060046753,2.952756,0,0.36916995932,5300,2018-05-22 20:34:12,14,0,25.221,3088.6060046753,2.952756,0.223694,0.432168649,0,0,0,334, 0.3, -0.5,0,0,1024,1024,1024,1024,334.5,-89.9,97,4.187,4.156,4.177,4.166,4.183,4.166,6.754,82.4,14,Waypoint,
38.8912945,-120.7647934,3088.9340886753,3.28084,0,0.36916995932,5400,2018-05-22 20:34:12,13,0,25.221,3088.9340886753,3.28084,0.223694,0.432168649,0,0,0,334, 0.3, -0.4,0,0,1024,1024,1024,1024,334.5,-89.9,97,4.187,4.156,4.177,4.166,4.183,4.166,6.754,82.4,14,Waypoint,
38.8912945,-120.7647935,3088.9340886753,3.28084,0,0.34077100828,5500,2018-05-22 20:34:12,13,0,25.221,3088.9340886753,3.28084,0.223694,0.432168649,0,0,0,333.9, 0.4, -0.2,0,0,1024,1024,1024,1024,334.5,-89.9,97,4.187,4.156,4.177,4.166,4.183,4.166,6.754,82.4,14,Waypoint,
38.8912944,-120.7647935,3088.9340886753,3.28084,0,0.34271982724,5610,2018-05-22 20:34:12,13,0,25.221,3088.9340886753,3.28084,0.223694,0.432168649,0,0,0,333.9, 0.3, -0.3,0,0,1024,1024,1024,1024,334.5,-89.9,97,4.187,4.156,4.177,4.166,4.183,4.166,6.754,82.4,14,Waypoint,
38.8912944,-120.7647936,3089.2621726753,3.608924,0,0.314497385392,5730,2018-05-22 20:34:12,10,0,25.221,3089.2621726753,3.608924,0.223694,0.432168649,0,0,-0.223694,333.8, 0.2, -0.4,0,0,1024,1024,1024,1024,334.5,-89.9,97,4.187,4.156,4.177,4.166,4.183,4.166,6.754,82.4,14,Waypoint,
38.8912944,-120.7647936,3089.2621726753,3.608924,0,0.314497385392,5800,2018-05-22 20:34:12,10,0,25.221,3089.2621726753,3.608924,0.223694,0.432168649,0,0,-0.223694,333.8, 0.2, -0.4,0,0,1024,1024,1024,1024,334.5,-89.9,97,4.187,4.156,4.177,4.166,4.183,4.166,6.754,82.4,14,Waypoint,
38.8912943,-120.7647937,3089.5902566753,3.937008,0,0.293201452952,5900,2018-05-22 20:34:12,10,0,25.221,3089.5902566753,3.937008,0.223694,0.432168649,0,0,-0.223694,333.8, 0.1, -0.4,0,0,1024,1024,1024,1024,334.5,-90,97,4.187,4.156,4.177,4.166,4.183,4.166,6.754,82.4,14,Waypoint,
38.8912941,-120.7647939,3090.2464246753,4.593176,0,0.27001805326,6020,2018-05-22 20:34:12,12,0,24.438,3090.2464246753,4.593176,0.223694,0.432168649,0,0,-0.223694,334, 0.1, -0.2,0,0,1024,1024,1024,1024,334.5,-90,96,4.065,4.084,4.095,4.098,4.074,4.083,16.181,82.4,14,Waypoint,
38.8912943,-120.7647939,3091.2306766753,5.577428,0,0.23861221236,6210,2018-05-22 20:34:13,11,0,24.438,3091.2306766753,5.577428,0.223694,0.432168649,0,0,-0.447388,334.4, 0.3, 0,0,0,1024,1024,1024,1024,334.5,-89.9,96,4.065,4.084,4.095,4.098,4.074,4.083,16.181,82.4,14,Waypoint,
38.8912943,-120.7647939,3091.8868446753,6.233596,0,0.23861221236,6500,2018-05-22 20:34:13,10,0,24.438,3091.8868446753,6.233596,0.223694,0.432168649,0,0,-0.447388,334.7, 0.5, -0.4,0,0,1024,1024,1024,1024,334.5,-89.9,96,4.065,4.084,4.095,4.098,4.074,4.083,16.181,82.4,14,Waypoint,
38.8912946,-120.764794,3092.8710966753,7.217848,0,0.202104009092,6600,2018-05-22 20:34:13,12,0,24.438,3092.8710966753,7.217848,0.223694,0.432168649,0,0,-0.447388,335, 0.9, -0.3,0,0,1024,1024,1024,1024,334.5,-89.9,96,4.065,4.084,4.095,4.098,4.074,4.083,16.181,82.4,14,Waypoint,
38.8912948,-120.7647938,3093.8553486753,8.2021,0,0.278030192624,6700,2018-05-22 20:34:13,12,0,24.438,3093.8553486753,8.2021,0.223694,0.432168649,0,0,-0.447388,334.9, 1.1, -0.3,0,0,1024,1024,1024,1024,334.5,-89.9,96,4.065,4.084,4.095,4.098,4.074,4.083,16.181,82.4,14,Waypoint,
38.891295,-120.7647937,3095.4957686753,9.84252,0,0.33752297668,6900,2018-05-22 20:34:13,14,0,24.438,3095.4957686753,9.84252,0.223694,0.432168649,0,0,-0.671082,334.7, 1.1, -1.1,0,0,1024,1024,1024,1024,334.5,-89.9,96,4.065,4.084,4.095,4.098,4.074,4.083,16.181,82.4,14,Waypoint,
38.8912952,-120.7647936,3096.4800206753,10.826772,0,0.40349082656,7000,2018-05-22 20:34:13,14,0,24.438,3096.4800206753,10.826772,0.223694,0.432168649,0,0,-0.671082,334.6, 1, -1.1,0,0,1024,1024,1024,1024,334.5,-89.9,96,4.054,4.073,4.078,4.088,4.061,4.083,16.181,82.4,14,Waypoint,
38.8912957,-120.7647932,3099.7608606753,14.107612,0,0.61084647624,7100,2018-05-22 20:34:14,13,0,24.438,3099.7608606753,14.107612,0.223694,0.61084647624,0,0,-0.671082,334.2, 1.2, -1.5,0,0,1024,1024,1024,1024,334.5,-89.9,96,4.054,4.073,4.078,4.088,4.061,4.083,16.181,82.4,14,Waypoint,
38.8912959,-120.7647931,3100.7451126753,15.091864,0,0.68363191164,7200,2018-05-22 20:34:14,13,0,24.438,3100.7451126753,15.091864,0.223694,0.68363191164,0,0,-0.671082,334.1, 1.4, -1.6,0,0,1024,1024,1024,1024,334.5,-89.9,96,4.054,4.073,4.078,4.088,4.061,4.083,16.181,82.4,14,Waypoint,
38.891296,-120.7647931,3101.7293646753,16.076116,0,0.71130579704,7300,2018-05-22 20:34:14,13,0,24.438,3101.7293646753,16.076116,0.223694,0.71130579704,0,0,-0.671082,334.1, 1.5, -1.5,0,0,1024,1024,1024,1024,334.5,-89.9,96,4.054,4.073,4.078,4.088,4.061,4.083,16.181,82.4,14,Waypoint,
38.8912961,-120.7647931,3103.0417006753,17.388452,0,0.73974411816,7400,2018-05-22 20:34:14,14,0,24.438,3103.0417006753,17.388452,0.223694,0.73974411816,0,0,-0.671082,334.1, 1.7, -1.3,0,0,1024,1024,1024,1024,334.5,-89.9,96,4.054,4.073,4.078,4.088,4.061,4.083,16.181,82.4,14,Waypoint,
38.8912961,-120.7647931,3105.0102046753,19.356956,0,0.73974411816,7500,2018-05-22 20:34:14,15,0,24.438,3105.0102046753,19.356956,0.223694,0.73974411816,0,0,-0.671082,334.2, 1.7, -1,0,0,1024,1024,1024,1024,334.5,-89.9,96,4.054,4.073,4.078,4.088,4.061,4.083,16.181,82.4,14,Waypoint,
38.8912961,-120.7647931,3105.9944566753,20.341208,0,0.73974411816,7600,2018-05-22 20:34:14,15,0,24.438,3105.9944566753,20.341208,0.223694,0.73974411816,0,0,-0.671082,334.2, 1.6, -0.9,0,0,1024,1024,1024,1024,334.5,-89.9,96,4.054,4.073,4.078,4.088,4.061,4.083,16.181,82.4,14,Waypoint,
38.8912958,-120.7647932,3108.2910446753,22.637796,0,0.63750330124,7700,2018-05-22 20:34:14,14,0,24.438,3108.2910446753,22.637796,0.223694,0.73974411816,0,0,-0.671082,334.3, 1, -0.5,0,0,1024,1024,1024,1024,334.5,-89.9,96,4.054,4.073,4.078,4.088,4.061,4.083,16.181,82.4,14,Waypoint,
38.8912954,-120.7647934,3110.5876326753,24.934384,0,0.49407481896,7920,2018-05-22 20:34:14,14,0,24.438,3110.5876326753,24.934384,0.223694,0.73974411816,0,0,-0.671082,334.3, 0.4, 0,0,0,1024,1024,1024,1024,334.5,-90,96,4.054,4.073,4.078,4.088,4.061,4.083,16.181,82.4,14,Waypoint,
38.8912951,-120.7647937,3111.5718846753,25.918636,0.223694,0.35855972276,8100,2018-05-22 20:34:15,14,0,24.438,3111.5718846753,25.918636,0.223694,0.73974411816,0,0,-0.671082,334.3, 0.1, 0.3,0,0,1024,1024,1024,1024,334.5,-90,96,4.054,4.073,4.078,4.088,4.061,4.083,16.181,82.4,14,Waypoint,
38.8912948,-120.7647941,3112.5561366753,26.902888,0.223694,0.202513457924,8200,2018-05-22 20:34:15,14,0,24.438,3112.5561366753,26.902888,0.223694,0.73974411816,0,0,-0.671082,334.3, 0, 0.9,0,0,1024,1024,1024,1024,334.5,-90,96,4.054,4.073,4.078,4.088,4.061,4.083,16.181,82.4,14,Waypoint,
38.8912942,-120.7647943,3114.8527246753,29.199476,0.223694,0.157744099536,8300,2018-05-22 20:34:15,15,0,24.438,3114.8527246753,29.199476,0.223694,0.73974411816,0,0,-0.671082,334.3, -0.5, 1.7,0,0,1024,1024,1024,1024,334.5,-90,96,4.054,4.073,4.078,4.088,4.061,4.083,16.181,82.4,14,Waypoint,
38.891294,-120.7647944,3115.8369766753,30.183728,0,0.2013369487,8500,2018-05-22 20:34:15,15,0,24.438,3115.8369766753,30.183728,0.223694,0.73974411816,0,0,-0.671082,334.3, -0.7, 1.5,0,0,1024,1024,1024,1024,334.5,-89.9,96,4.054,4.073,4.078,4.088,4.061,4.083,16.181,82.4,14,Waypoint,
38.8912938,-120.7647946,3116.8212286753,31.16798,0,0.25696851216,8600,2018-05-22 20:34:15,15,0,24.438,3116.8212286753,31.16798,0.223694,0.73974411816,0,0,-0.671082,334.3, -0.7, 1.4,0,0,1024,1024,1024,1024,334.5,-90,96,4.054,4.073,4.078,4.088,4.061,4.083,16.181,82.4,14,Waypoint,
38.8912937,-120.7647948,3118.1335646753,32.480316,0,0.2932578834,8700,2018-05-22 20:34:15,14,0,24.438,3118.1335646753,32.480316,0.223694,0.73974411816,0,0,-0.671082,334.3, -0.5, 1.4,0,0,1024,1024,1024,1024,334.5,-89.9,96,4.054,4.073,4.078,4.088,4.061,4.083,16.181,82.4,14,Waypoint,
38.8912935,-120.764795,3119.1178166753,33.464568,0,0.37466536632,8800,2018-05-22 20:34:15,14,0,24.438,3119.1178166753,33.464568,0.223694,0.73974411816,0,0,-0.671082,334.3, -0.2, 1.4,0,0,1024,1024,1024,1024,334.5,-89.9,96,4.054,4.073,4.078,4.088,4.061,4.083,16.181,82.4,14,Waypoint,
38.8912934,-120.7647952,3120.1020686753,34.44882,0,0.42571195588,8900,2018-05-22 20:34:15,15,0,24.438,3120.1020686753,34.44882,0.223694,0.73974411816,0,0,-0.671082,334.3, 0, 1.4,0,0,1024,1024,1024,1024,334.5,-89.9,96,4.054,4.073,4.078,4.088,4.061,4.083,16.181,82.4,14,Waypoint,
38.8912932,-120.7647954,3121.0863206753,35.433072,0,0.51427495084,9000,2018-05-22 20:34:15,15,0,23.793,3121.0863206753,35.433072,0.223694,0.73974411816,0,0,-0.671082,334.3, 0, 1.6,0,0,1024,1024,1024,1024,334.5,-89.9,96,3.937,3.959,3.978,3.981,3.959,3.99,17.458,82.4,14,Waypoint,
38.891293,-120.7647955,3122.0705726753,36.417324,0,0.5925525124,9100,2018-05-22 20:34:16,16,0,23.793,3122.0705726753,36.417324,0.223694,0.73974411816,0,0,-0.671082,334.2, -0.1, 1.7,0,0,1024,1024,1024,1024,334.5,-89.9,96,3.937,3.959,3.978,3.981,3.959,3.99,17.458,82.4,14,Waypoint,
38.8912928,-120.7647956,3123.0548246753,37.401576,0,0.67083663564,9300,2018-05-22 20:34:16,16,0,23.793,3123.0548246753,37.401576,0.223694,0.73974411816,0,0,-0.671082,334.2, -0.3, 1.8,0,0,1024,1024,1024,1024,334.5,-89.9,96,3.937,3.959,3.978,3.981,3.959,3.99,17.458,82.4,14,Waypoint,
38.8912927,-120.7647957,3124.3671606753,38.713912,0,0.71549542972,9400,2018-05-22 20:34:16,15,0,23.793,3124.3671606753,38.713912,0.223694,0.73974411816,0,0,-0.671082,334.2, -0.4, 1.7,0,0,1024,1024,1024,1024,334.5,-89.9,96,3.937,3.959,3.978,3.981,3.959,3.99,17.458,82.4,14,Waypoint,
38.8912925,-120.7647958,3125.3514126753,39.698164,0,0.7937500254,9600,2018-05-22 20:34:16,15,0,23.793,3125.3514126753,39.698164,0.223694,0.7937500254,0,0,-0.671082,334.2, -0.5, 1.7,0,0,1024,1024,1024,1024,334.5,-89.9,96,3.937,3.959,3.978,3.981,3.959,3.99,17.458,82.4,14,Waypoint,
38.8912924,-120.7647959,3126.3356646753,40.682416,0,0.83854661476,9700,2018-05-22 20:34:16,16,0,23.793,3126.3356646753,40.682416,0.223694,0.83854661476,0,0,-0.671082,334.1, -0.6, 1.6,0,0,1024,1024,1024,1024,334.5,-89.9,96,3.937,3.959,3.978,3.981,3.959,3.99,17.458,82.4,14,Waypoint,
38.8912923,-120.764796,3127.3199166753,41.666668,0,0.88349412276,9900,2018-05-22 20:34:16,16,0,23.793,3127.3199166753,41.666668,0.223694,0.88349412276,0,0,-0.671082,334.2, -0.5, 1.5,0,0,1024,1024,1024,1024,334.5,-89.9,96,3.937,3.959,3.978,3.981,3.959,3.99,17.458,82.4,14,Waypoint,
38.8912923,-120.7647962,3129.2884206753,43.635172,0,0.9086942548,10000,2018-05-22 20:34:16,15,0,24,3129.2884206753,43.635172,0.223694,0.9086942548,0,0,-0.671082,334.2, -0.2, 1.6,0,0,1024,1024,1024,1024,334.5,-89.9,96,3.987,4.008,4.006,4.021,3.992,4.013,18.198,82.4,14,Waypoint,
38.8912922,-120.7647962,3130.6007566753,44.947508,0,0.9410761456,10100,2018-05-22 20:34:17,16,0,24,3130.6007566753,44.947508,0.223694,0.9410761456,0,0,-0.671082,334.2, 0, 1.7,0,0,1024,1024,1024,1024,334.5,-89.9,96,3.987,4.008,4.006,4.021,3.992,4.013,18.198,82.4,14,Waypoint,
38.8912922,-120.7647962,3132.5692606753,46.916012,0.3131716,0.9410761456,10200,2018-05-22 20:34:17,16,0,24,3132.5692606753,46.916012,0.3131716,0.9410761456,0,0,-0.671082,334.2, -0.1, 1.5,0,0,1024,1024,1024,1024,334.5,-89.9,96,3.987,4.008,4.006,4.021,3.992,4.013,18.198,82.4,14,Waypoint,
38.8912922,-120.7647962,3133.2254286753,47.57218,0.3131716,0.9410761456,10300,2018-05-22 20:34:17,16,0,24,3133.2254286753,47.57218,0.3131716,0.9410761456,0,0,-0.671082,334.2, -0.1, 1.2,0,0,1024,1024,1024,1024,334.5,-89.9,96,3.987,4.008,4.006,4.021,3.992,4.013,18.198,82.4,14,Waypoint,
38.8912922,-120.7647961,3134.2096806753,48.556432,0.3131716,0.92856630268,10400,2018-05-22 20:34:17,16,0,24,3134.2096806753,48.556432,0.3131716,0.9410761456,0,0,-0.671082,334.2, -0.1, 1,0,0,1024,1024,1024,1024,334.5,-89.9,96,3.987,4.008,4.006,4.021,3.992,4.013,18.198,82.4,14,Waypoint,
38.8912922,-120.764796,3135.1939326753,49.540684,0.3131716,0.91676840204,10500,2018-05-22 20:34:17,16,0,24,3135.1939326753,49.540684,0.3131716,0.9410761456,0,0,-0.671082,334.3, 0, 0.8,0,0,1024,1024,1024,1024,334.5,-89.9,96,3.987,4.008,4.006,4.021,3.992,4.013,18.198,82.4,14,Waypoint,
38.8912923,-120.764796,3136.1781846753,50.524936,0.3131716,0.88349412276,10600,2018-05-22 20:34:17,17,0,24,3136.1781846753,50.524936,0.3131716,0.9410761456,0,0,-0.671082,334.3, 0, 0.6,0,0,1024,1024,1024,1024,334.5,-89.9,96,3.987,4.008,4.006,4.021,3.992,4.013,18.198,82.4,14,Waypoint,
38.8912924,-120.7647959,3137.1624366753,51.509188,0.3131716,0.83854661476,10700,2018-05-22 20:34:17,17,0,24,3137.1624366753,51.509188,0.3131716,0.9410761456,0,0,-0.671082,334.4, 0.1, 0.3,0,0,1024,1024,1024,1024,334.5,-89.9,96,3.987,4.008,4.006,4.021,3.992,4.013,18.198,82.4,14,Waypoint,
38.8912925,-120.7647957,3138.1466886753,52.49344,0.3131716,0.78300855524,10800,2018-05-22 20:34:17,17,0,24,3138.1466886753,52.49344,0.3131716,0.9410761456,0,0,-0.671082,334.5, 0.1, 0,0,0,1024,1024,1024,1024,334.5,-89.9,96,3.987,4.008,4.006,4.021,3.992,4.013,18.198,82.4,14,Waypoint,
38.8912926,-120.7647956,3139.1309406753,53.477692,0.3131716,0.7388287638,11000,2018-05-22 20:34:17,17,0,24.052,3139.1309406753,53.477692,0.3131716,0.9410761456,0,0,-0.671082,334.5, 0.2, -0.1,0,0,1024,1024,1024,1024,334.5,-89.9,96,3.984,4.009,4.01,4.036,3.998,4.02,18.013,82.4,14,Waypoint,
38.8912927,-120.7647955,3140.1151926753,54.461944,0.3131716,0.69491143956,11100,2018-05-22 20:34:18,17,0,24.052,3140.1151926753,54.461944,0.3131716,0.9410761456,0,0,-0.671082,334.5, 0.3, -0.1,0,0,1024,1024,1024,1024,334.5,-89.9,96,3.984,4.009,4.01,4.036,3.998,4.02,18.013,82.4,14,Waypoint,
38.8912929,-120.7647954,3141.0994446753,55.446196,0.3131716,0.61667652892,11300,2018-05-22 20:34:18,17,0,24.052,3141.0994446753,55.446196,0.3131716,0.9410761456,0,0,-0.671082,334.5, 0.6, 0,0,0,1024,1024,1024,1024,334.5,-89.9,96,3.984,4.009,4.01,4.036,3.998,4.02,18.013,82.4,14,Waypoint,
38.891293,-120.7647953,3142.0836966753,56.430448,0.3131716,0.57318571388,11400,2018-05-22 20:34:18,17,0,24.052,3142.0836966753,56.430448,0.3131716,0.9410761456,0,0,-0.671082,334.4, 0.9, 0,0,0,1024,1024,1024,1024,334.5,-89.9,96,3.984,4.009,4.01,4.036,3.998,4.02,18.013,82.4,14,Waypoint,
38.8912931,-120.7647952,3143.0679486753,57.4147,0.3131716,0.53015749728,11510,2018-05-22 20:34:18,17,0,24.052,3143.0679486753,57.4147,0.3131716,0.9410761456,0,0,-0.671082,334.3, 1.1, 0,0,0,1024,1024,1024,1024,334.5,-89.9,96,3.984,4.009,4.01,4.036,3.998,4.02,18.013,82.4,14,Waypoint,
38.8912932,-120.7647951,3144.0522006753,58.398952,0.3131716,0.48771655104,11600,2018-05-22 20:34:18,15,0,24.052,3144.0522006753,58.398952,0.3131716,0.9410761456,0,0,-0.671082,334.3, 1.1, -0.1,0,0,1024,1024,1024,1024,334.5,-89.9,96,3.984,4.009,4.01,4.036,3.998,4.02,18.013,82.4,14,Waypoint,
38.8912935,-120.7647949,3146.0207046753,60.367456,0.3131716,0.3692421378,11900,2018-05-22 20:34:18,17,0,24.052,3146.0207046753,60.367456,0.3131716,0.9410761456,0,0,-0.671082,334.2, 1.1, -0.2,0,0,1024,1024,1024,1024,334.5,-89.9,96,3.984,4.009,4.01,4.036,3.998,4.02,18.013,82.4,14,Waypoint,
38.8912936,-120.7647948,3147.0049566753,61.351708,0.223694,0.32958990556,12000,2018-05-22 20:34:18,17,0,23.986,3147.0049566753,61.351708,0.3131716,0.9410761456,0,0,-0.671082,334.2, 1.1, -0.2,0,0,1024,1024,1024,1024,334.5,-89.9,96,3.969,3.995,4.004,4.02,3.989,4.004,18.439,82.4,14,Waypoint,
38.891294,-120.7647944,3150.9419646753,65.288716,0,0.2013369487,12310,2018-05-22 20:34:19,17,0,23.986,3150.9419646753,65.288716,0.3131716,0.9410761456,0,0,-0.671082,334.4, 1.2, -0.4,0,0,1024,1024,1024,1024,334.5,-89.9,96,3.969,3.995,4.004,4.02,3.989,4.004,18.439,82.4,14,Waypoint,
38.8912941,-120.7647943,3151.9262166753,66.272968,0,0.184935701456,12400,2018-05-22 20:34:19,17,0,23.986,3151.9262166753,66.272968,0.3131716,0.9410761456,0,0,-0.671082,334.4, 1.1, -0.4,0,0,1024,1024,1024,1024,334.5,-89.9,96,3.969,3.995,4.004,4.02,3.989,4.004,18.439,82.4,14,Waypoint,
38.8912941,-120.7647942,3152.9104686753,67.25722,0,0.203614835912,12500,2018-05-22 20:34:19,17,0,23.986,3152.9104686753,67.25722,0.3131716,0.9410761456,0,0,-0.671082,334.3, 0.8, -0.4,0,0,1024,1024,1024,1024,334.5,-89.9,96,3.969,3.995,4.004,4.02,3.989,4.004,18.439,82.4,14,Waypoint,
38.8912943,-120.764794,3155.8632246753,70.209976,0,0.211753287616,12700,2018-05-22 20:34:19,17,0,23.986,3155.8632246753,70.209976,0.3131716,0.9410761456,0,0,-0.671082,334.4, 0.7, -0.5,0,0,1024,1024,1024,1024,334.5,-89.9,96,3.969,3.995,4.004,4.02,3.989,4.004,18.439,82.4,14,Waypoint,
38.8912944,-120.7647939,3156.8474766753,71.194228,0,0.230092198964,12800,2018-05-22 20:34:19,17,0,23.986,3156.8474766753,71.194228,0.3131716,0.9410761456,0,0,-0.671082,334.4, 0.8, -0.5,0,0,1024,1024,1024,1024,334.5,-89.9,96,3.969,3.995,4.004,4.02,3.989,4.004,18.439,82.4,14,Waypoint,
38.8912945,-120.7647938,3157.8317286753,72.17848,0,0.255578748336,12900,2018-05-22 20:34:19,17,0,23.986,3157.8317286753,72.17848,0.3131716,0.9410761456,0,0,-0.671082,334.4, 1, -0.6,0,0,1024,1024,1024,1024,334.5,-89.9,96,3.969,3.995,4.004,4.02,3.989,4.004,18.439,82.4,14,Waypoint,
38.8912946,-120.7647937,3159.8002326753,74.146984,0,0.2863107047,13010,2018-05-22 20:34:19,17,0,23.974,3159.8002326753,74.146984,0.3131716,0.9410761456,0,0,-0.671082,334.3, 1.2, -0.8,0,0,1024,1024,1024,1024,334.5,-89.9,96,3.971,3.996,3.998,4.021,3.979,4.005,18.29,84.2,14,Waypoint,
38.8912947,-120.7647937,3160.7844846753,75.131236,0,0.293201452952,13100,2018-05-22 20:34:20,17,0,23.974,3160.7844846753,75.131236,0.3131716,0.9410761456,0,0,-0.671082,334.3, 1.3, -0.7,0,0,1024,1024,1024,1024,334.5,-89.9,96,3.971,3.996,3.998,4.021,3.979,4.005,18.29,84.2,14,Waypoint,
38.8912947,-120.7647937,3161.7687366753,76.115488,0,0.293201452952,13200,2018-05-22 20:34:20,17,0,23.974,3161.7687366753,76.115488,0.3131716,0.9410761456,0,0,-0.671082,334.3, 1.3, -0.5,0,0,1024,1024,1024,1024,334.5,-89.9,96,3.971,3.996,3.998,4.021,3.979,4.005,18.29,84.2,14,Waypoint,
38.8912948,-120.7647937,3163.4091566753,77.755908,0,0.304340232836,13310,2018-05-22 20:34:20,17,0,23.974,3163.4091566753,77.755908,0.3131716,0.9410761456,0,0,-0.671082,334.4, 1.3, -0.2,0,0,1024,1024,1024,1024,334.5,-89.9,96,3.971,3.996,3.998,4.021,3.979,4.005,18.29,84.2,14,Waypoint,
38.8912949,-120.7647937,3164.3934086753,78.74016,0,0.319281834364,13400,2018-05-22 20:34:20,17,0,23.974,3164.3934086753,78.74016,0.3131716,0.9410761456,0,0,-0.671082,334.5, 1.3, -0.2,0,0,1024,1024,1024,1024,334.5,-89.9,96,3.971,3.996,3.998,4.021,3.979,4.005,18.29,84.2,14,Waypoint,
38.8912949,-120.7647937,3165.3776606753,79.724412,0,0.319281834364,13600,2018-05-22 20:34:20,17,0,23.974,3165.3776606753,79.724412,0.3131716,0.9410761456,0,0,-0.671082,334.6, 1.4, -0.2,0,0,1024,1024,1024,1024,334.5,-89.9,96,3.971,3.996,3.998,4.021,3.979,4.005,18.29,84.2,14,Waypoint,
38.8912949,-120.7647938,3167.6742486753,82.021,0,0.29431103304,13700,2018-05-22 20:34:20,17,0,23.974,3167.6742486753,82.021,0.3131716,0.9410761456,0,0,-0.671082,334.6, 1.1, 0,0,0,1024,1024,1024,1024,334.5,-89.9,96,3.971,3.996,3.998,4.021,3.979,4.005,18.29,84.2,14,Waypoint,
38.8912949,-120.7647938,3168.6585006753,83.005252,0,0.29431103304,13800,2018-05-22 20:34:20,17,0,23.974,3168.6585006753,83.005252,0.3131716,0.9410761456,0,0,-0.671082,334.5, 0.9, 0.1,0,0,1024,1024,1024,1024,334.5,-89.9,96,3.971,3.996,3.998,4.021,3.979,4.005,18.29,84.2,14,Waypoint,
38.8912949,-120.7647938,3169.6427526753,83.989504,0,0.29431103304,13900,2018-05-22 20:34:20,17,0,23.974,3169.6427526753,83.989504,0.3131716,0.9410761456,0,0,-0.671082,334.3, 0.7, 0,0,0,1024,1024,1024,1024,334.5,-90,96,3.971,3.996,3.998,4.021,3.979,4.005,18.29,84.2,14,Waypoint,
38.8912949,-120.7647939,3170.6270046753,84.973756,0,0.27001805326,14000,2018-05-22 20:34:20,17,0,23.902,3170.6270046753,84.973756,0.3131716,0.9410761456,0,0,-0.671082,334, 0.8, 0,0,0,1024,1024,1024,1024,334.5,-89.9,96,3.957,3.981,3.993,4.003,3.967,3.993,19.015,84.2,14,Waypoint,
38.891295,-120.7647939,3171.6112566753,85.958008,0,0.291358933208,14100,2018-05-22 20:34:21,17,0,23.902,3171.6112566753,85.958008,0.3131716,0.9410761456,0,0,-0.671082,333.7, 1.2, 0.1,0,0,1024,1024,1024,1024,334.5,-89.9,96,3.957,3.981,3.993,4.003,3.967,3.993,19.015,84.2,14,Waypoint,
38.891295,-120.764794,3172.5955086753,86.94226,0,0.269802830156,14200,2018-05-22 20:34:21,17,0,23.902,3172.5955086753,86.94226,0.3131716,0.9410761456,0,0,-0.671082,333.6, 1.6, 0.4,0,0,1024,1024,1024,1024,334.5,-89.9,96,3.957,3.981,3.993,4.003,3.967,3.993,19.015,84.2,14,Waypoint,
38.891295,-120.7647941,3173.5797606753,87.926512,0,0.249619758644,14300,2018-05-22 20:34:21,17,0,23.902,3173.5797606753,87.926512,0.3131716,0.9410761456,0,0,-0.671082,333.6, 1.8, 0.4,0,0,1024,1024,1024,1024,334.5,-89.9,96,3.957,3.981,3.993,4.003,3.967,3.993,19.015,84.2,14,Waypoint,
38.891295,-120.7647941,3174.5640126753,88.910764,0,0.249619758644,14400,2018-05-22 20:34:21,17,0,23.902,3174.5640126753,88.910764,0.3131716,0.9410761456,0,0,-0.671082,333.7, 1.7, 0.2,0,0,1024,1024,1024,1024,334.5,-89.9,96,3.957,3.981,3.993,4.003,3.967,3.993,19.015,84.2,14,Waypoint,
38.891295,-120.7647942,3175.5482646753,89.895016,0,0.23116962682,14500,2018-05-22 20:34:21,17,0,23.902,3175.5482646753,89.895016,0.3131716,0.9410761456,0,0,-0.671082,333.9, 1.7, 0.4,0,0,1024,1024,1024,1024,334.5,-89.9,96,3.957,3.981,3.993,4.003,3.967,3.993,19.015,84.2,14,Waypoint,
38.8912949,-120.7647942,3176.5325166753,90.879268,0,0.203614835912,14600,2018-05-22 20:34:21,17,0,23.902,3176.5325166753,90.879268,0.3131716,0.9410761456,0,0,-0.671082,334.2, 1.5, 0.5,0,0,1024,1024,1024,1024,334.5,-89.9,96,3.957,3.981,3.993,4.003,3.967,3.993,19.015,84.2,14,Waypoint,
38.8912949,-120.7647942,3178.5010206753,92.847772,0,0.203614835912,14700,2018-05-22 20:34:21,17,0,23.902,3178.5010206753,92.847772,0.3131716,0.9410761456,0,0,-0.671082,334.3, 1, 0.3,0,0,1024,1024,1024,1024,334.5,-89.9,96,3.957,3.981,3.993,4.003,3.967,3.993,19.015,84.2,14,Waypoint,
38.8912949,-120.7647942,3179.4852726753,93.832024,0,0.203614835912,14900,2018-05-22 20:34:21,17,0,23.902,3179.4852726753,93.832024,0.3131716,0.9410761456,0,0,-0.671082,334.4, 1.1, 0.1,0,0,1024,1024,1024,1024,334.5,-89.9,96,3.957,3.981,3.993,4.003,3.967,3.993,19.015,84.2,14,Waypoint,
38.8912948,-120.7647942,3181.4537766753,95.800528,0,0.179279205212,15000,2018-05-22 20:34:21,17,0,23.874,3181.4537766753,95.800528,0.3131716,0.9410761456,0,0,-0.671082,334.6, 0.9, -0.3,0,0,1024,1024,1024,1024,334.5,-90,96,3.955,3.976,3.993,4.002,3.962,3.994,19.012,84.2,14,Waypoint,
38.8912948,-120.7647942,3182.4380286753,96.78478,0,0.179279205212,15100,2018-05-22 20:34:22,17,0,23.874,3182.4380286753,96.78478,0.3131716,0.9410761456,0,0,-0.671082,334.4, 0.6, -0.6,0,0,1024,1024,1024,1024,334.5,-90,96,3.955,3.976,3.993,4.002,3.962,3.994,19.012,84.2,14,Waypoint,
38.8912948,-120.7647942,3183.4222806753,97.769032,0,0.179279205212,15210,2018-05-22 20:34:22,17,0,23.874,3183.4222806753,97.769032,0.3131716,0.9410761456,0,0,-0.671082,334.2, 0.7, -0.8,0,0,1024,1024,1024,1024,334.5,-89.9,96,3.955,3.976,3.993,4.002,3.962,3.994,19.012,84.2,14,Waypoint,
38.8912948,-120.7647941,3184.4065326753,98.753284,0,0.202513457924,15310,2018-05-22 20:34:22,17,0,23.874,3184.4065326753,98.753284,0.3131716,0.9410761456,0,0,-0.671082,333.9, 0.9, -0.7,0,0,1024,1024,1024,1024,334.5,-89.9,96,3.955,3.976,3.993,4.002,3.962,3.994,19.012,84.2,14,Waypoint,
38.8912948,-120.7647941,3185.3907846753,99.737536,0,0.202513457924,15500,2018-05-22 20:34:22,17,0,23.874,3185.3907846753,99.737536,0.3131716,0.9410761456,0,0,-0.671082,333.7, 1.2, -0.1,0,0,1024,1024,1024,1024,334.5,-89.9,96,3.955,3.976,3.993,4.002,3.962,3.994,19.012,84.2,14,Waypoint,
38.8912948,-120.7647941,3186.3750366753,100.721788,0,0.202513457924,15600,2018-05-22 20:34:22,17,0,23.874,3186.3750366753,100.721788,0.3131716,0.9410761456,0,0,-0.671082,333.5, 1.4, 0,0,0,1024,1024,1024,1024,334.5,-89.9,96,3.955,3.976,3.993,4.002,3.962,3.994,19.012,84.2,14,Waypoint,
38.8912947,-120.7647941,3187.6873726753,102.034124,0,0.185353680472,15700,2018-05-22 20:34:22,17,0,23.874,3187.6873726753,102.034124,0.3131716,0.9410761456,0,0,-0.671082,333.6, 1.3, -0.1,0,0,1024,1024,1024,1024,334.5,-89.9,96,3.955,3.976,3.993,4.002,3.962,3.994,19.012,84.2,14,Waypoint,
38.8912947,-120.7647941,3188.6716246753,103.018376,0,0.185353680472,15800,2018-05-22 20:34:22,17,0,23.874,3188.6716246753,103.018376,0.3131716,0.9410761456,0,0,-0.671082,333.9, 1, -0.4,0,0,1024,1024,1024,1024,334.5,-90,96,3.955,3.976,3.993,4.002,3.962,3.994,19.012,84.2,14,Waypoint,
38.8912947,-120.7647941,3189.6558766753,104.002628,0,0.185353680472,15900,2018-05-22 20:34:22,17,0,23.874,3189.6558766753,104.002628,0.3131716,0.9410761456,0,0,-0.671082,334.2, 0.8, -0.5,0,0,1024,1024,1024,1024,334.5,-90,96,3.955,3.976,3.993,4.002,3.962,3.994,19.012,84.2,14,Waypoint,
38.8912946,-120.7647941,3190.6401286753,104.98688,0,0.174248365156,16010,2018-05-22 20:34:22,17,0,23.901,3190.6401286753,104.98688,0.3131716,0.9410761456,0,0,-0.671082,334.4, 0.3, -0.2,0,0,1024,1024,1024,1024,334.5,-90,96,3.955,3.976,3.993,4.002,3.962,3.994,18.213,84.2,14,Waypoint,
38.8912946,-120.7647941,3191.6243806753,105.971132,0,0.174248365156,16300,2018-05-22 20:34:23,17,0,23.901,3191.6243806753,105.971132,0.3131716,0.9410761456,0,0,-0.671082,334.3, 0.6, 0,0,0,1024,1024,1024,1024,334.5,-89.9,96,3.955,3.976,3.993,4.002,3.962,3.994,18.213,84.2,14,Waypoint,
38.8912946,-120.7647941,3192.6086326753,106.955384,0,0.174248365156,16400,2018-05-22 20:34:23,17,0,23.901,3192.6086326753,106.955384,0.3131716,0.9410761456,0,0,-0.671082,334.3, 1.2, -0.2,0,0,1024,1024,1024,1024,334.5,-89.9,96,3.955,3.976,3.993,4.002,3.962,3.994,18.213,84.2,14,Waypoint,
38.8912946,-120.7647941,3193.5928846753,107.939636,0,0.174248365156,16500,2018-05-22 20:34:23,17,0,23.901,3193.5928846753,107.939636,0.3131716,0.9410761456,0,0,-0.671082,334.2, 1.8, -0.4,0,0,1024,1024,1024,1024,334.5,-89.9,96,3.955,3.976,3.993,4.002,3.962,3.994,18.213,84.2,14,Waypoint,
38.8912947,-120.7647941,3194.5771366753,108.923888,0.223694,0.185353680472,16700,2018-05-22 20:34:23,17,0,23.901,3194.5771366753,108.923888,0.3131716,0.9410761456,0,0,-0.671082,334.1, 2.3, -0.7,0,0,1024,1024,1024,1024,334.5,-89.9,96,3.955,3.976,3.993,4.002,3.962,3.994,18.213,84.2,14,Waypoint,
38.8912948,-120.764794,3195.5613886753,109.90814,0.223694,0.226925532196,16900,2018-05-22 20:34:23,17,0,23.901,3195.5613886753,109.90814,0.3131716,0.9410761456,0,0,-0.671082,334.1, 2.8, -1.3,0,0,1024,1024,1024,1024,334.5,-89.9,96,3.955,3.976,3.993,4.002,3.962,3.994,18.213,84.2,14,Waypoint,
38.8912948,-120.7647939,3196.2175566753,110.564308,0.223694,0.252173892584,17000,2018-05-22 20:34:23,17,0,23.901,3196.2175566753,110.564308,0.3131716,0.9410761456,0,0,-0.671082,334.2, 2.8, -2,0,0,1024,1024,1024,1024,334.5,-89.9,95,3.954,3.972,3.991,4.002,3.966,3.983,18.213,84.2,14,Waypoint,
38.8912949,-120.7647938,3197.2018086753,111.54856,0.223694,0.29431103304,17100,2018-05-22 20:34:24,17,0,23.901,3197.2018086753,111.54856,0.3131716,0.9410761456,0,0,-0.671082,334.3, 2.3, -2.4,0,0,1024,1024,1024,1024,334.5,-89.9,95,3.954,3.972,3.991,4.002,3.966,3.983,18.213,84.2,14,Waypoint,
38.8912952,-120.7647936,3200.1545646753,114.501316,0.223694,0.40349082656,17300,2018-05-22 20:34:24,17,0,23.901,3200.1545646753,114.501316,0.3131716,0.9410761456,0,0,-0.671082,334.3, 2.7, -2.2,0,0,1024,1024,1024,1024,334.5,-89.9,95,3.954,3.972,3.991,4.002,3.966,3.983,18.213,84.2,14,Waypoint,
38.8912953,-120.7647936,3201.1388166753,115.485568,0.223694,0.42751641788,17420,2018-05-22 20:34:24,17,0,23.901,3201.1388166753,115.485568,0.3131716,0.9410761456,0,0,-0.671082,334.3, 3, -2,0,0,1024,1024,1024,1024,334.5,-89.9,95,3.954,3.972,3.991,4.002,3.966,3.983,18.213,84.2,14,Waypoint,
38.8912956,-120.7647936,3202.7792366753,117.125988,0.223694,0.50857285092,17510,2018-05-22 20:34:24,17,0,23.901,3202.7792366753,117.125988,0.3131716,0.9410761456,0,0,-0.671082,334.4, 3.7, -1.8,0,0,1024,1024,1024,1024,334.5,-89.9,95,3.954,3.972,3.991,4.002,3.966,3.983,18.213,84.2,14,Waypoint,
38.8912956,-120.7647936,3202.7792366753,117.125988,0.223694,0.50857285092,17600,2018-05-22 20:34:24,17,0,23.901,3202.7792366753,117.125988,0.3131716,0.9410761456,0,0,-0.671082,334.4, 3.7, -1.8,0,0,1024,1024,1024,1024,334.5,-89.9,95,3.954,3.972,3.991,4.002,3.966,3.983,18.213,84.2,14,Waypoint,
38.8912959,-120.7647936,3204.7477406753,119.094492,0.223694,0.59873361496,17800,2018-05-22 20:34:24,17,0,23.901,3204.7477406753,119.094492,0.3131716,0.9410761456,0,0,-0.671082,334.5, 4.2, -1.7,0,0,1024,1024,1024,1024,334.5,-89.9,95,3.954,3.972,3.991,4.002,3.966,3.983,18.213,84.2,14,Waypoint,
38.8912961,-120.7647936,3205.7319926753,120.078744,0.223694,0.66208007368,17900,2018-05-22 20:34:24,17,0,23.901,3205.7319926753,120.078744,0.3131716,0.9410761456,0,0,-0.671082,334.4, 4.5, -1.7,0,0,1024,1024,1024,1024,334.5,-89.9,95,3.954,3.972,3.991,4.002,3.966,3.983,18.213,84.2,14,Waypoint,
38.8912965,-120.7647936,3208.6847486753,123.0315,0.223694,0.7937500254,18000,2018-05-22 20:34:24,17,0,23.852,3208.6847486753,123.0315,0.3131716,0.9410761456,0,0,-0.671082,334.1, 5.2, -2.1,0,0,1024,1024,1024,1024,334.5,-89.9,95,3.961,3.981,3.997,4.004,3.971,3.991,18.597,84.2,14,Waypoint,
38.8912966,-120.7647936,3210.6532526753,125.000004,0,0.82741472464,18110,2018-05-22 20:34:25,17,0,23.852,3210.6532526753,125.000004,0.3131716,0.9410761456,0,0,-0.671082,334, 4.8, -1.8,0,0,1024,1024,1024,1024,334.5,-89.9,95,3.961,3.981,3.997,4.004,3.971,3.991,18.597,84.2,14,Waypoint,
38.8912967,-120.7647936,3211.6375046753,125.984256,0,0.86130908268,18200,2018-05-22 20:34:25,17,0,23.852,3211.6375046753,125.984256,0.3131716,0.9410761456,0,0,-0.671082,334.1, 4.6, -1.8,0,0,1024,1024,1024,1024,334.5,-89.9,95,3.961,3.981,3.997,4.004,3.971,3.991,18.597,84.2,14,Waypoint,
38.8912967,-120.7647936,3212.6217566753,126.968508,0,0.86130908268,18310,2018-05-22 20:34:25,17,0,23.852,3212.6217566753,126.968508,0.3131716,0.9410761456,0,0,-0.671082,334.2, 4.3, -1.7,0,0,1024,1024,1024,1024,334.5,-89.9,95,3.961,3.981,3.997,4.004,3.971,3.991,18.597,84.2,14,Waypoint,
38.8912967,-120.7647935,3213.6060086753,127.95276,0,0.87201118276,18400,2018-05-22 20:34:25,17,0,23.852,3213.6060086753,127.95276,0.3131716,0.9410761456,0,0,-0.671082,334.3, 4.1, -1.7,0,0,1024,1024,1024,1024,334.5,-89.9,95,3.961,3.981,3.997,4.004,3.971,3.991,18.597,84.2,14,Waypoint,
38.8912968,-120.7647935,3214.5902606753,128.937012,0,0.90570540956,18500,2018-05-22 20:34:25,17,0,23.852,3214.5902606753,128.937012,0.3131716,0.9410761456,0,0,-0.671082,334.3, 4, -1.7,0,0,1024,1024,1024,1024,334.5,-89.9,95,3.961,3.981,3.997,4.004,3.971,3.991,18.597,84.2,14,Waypoint,
38.8912968,-120.7647935,3215.5745126753,129.921264,0,0.90570540956,18600,2018-05-22 20:34:25,17,0,23.852,3215.5745126753,129.921264,0.3131716,0.9410761456,0,0,-0.671082,334.4, 3.8, -1.7,0,0,1024,1024,1024,1024,334.5,-89.9,95,3.961,3.981,3.997,4.004,3.971,3.991,18.597,84.2,14,Waypoint,
38.8912968,-120.7647935,3216.5587646753,130.905516,0,0.90570540956,18700,2018-05-22 20:34:25,17,0,23.852,3216.5587646753,130.905516,0.3131716,0.9410761456,0,0,-0.671082,334.5, 3.7, -1.5,0,0,1024,1024,1024,1024,334.5,-89.9,95,3.961,3.981,3.997,4.004,3.971,3.991,18.597,84.2,14,Waypoint,
38.8912968,-120.7647935,3217.5430166753,131.889768,0,0.90570540956,18800,2018-05-22 20:34:25,17,0,23.852,3217.5430166753,131.889768,0.3131716,0.9410761456,0,0,-0.671082,334.5, 3.6, -1.5,0,0,1024,1024,1024,1024,334.5,-90,95,3.961,3.981,3.997,4.004,3.971,3.991,18.597,84.2,14,Waypoint,
38.8912967,-120.7647935,3218.5272686753,132.87402,0,0.87201118276,18900,2018-05-22 20:34:25,17,0,23.852,3218.5272686753,132.87402,0.3131716,0.9410761456,0,0,-0.671082,334.5, 3.4, -1.7,0,0,1024,1024,1024,1024,334.5,-89.9,95,3.961,3.981,3.997,4.004,3.971,3.991,18.597,84.2,14,Waypoint,
38.8912967,-120.7647935,3219.5115206753,133.858272,0,0.87201118276,19000,2018-05-22 20:34:25,17,0,23.695,3219.5115206753,133.858272,0.3131716,0.9410761456,0,0,-0.671082,334.5, 3.3, -1.8,0,0,1024,1024,1024,1024,334.5,-89.9,95,3.933,3.959,3.976,3.99,3.95,3.97,20.353,84.2,14,Waypoint,
38.8912967,-120.7647935,3220.4957726753,134.842524,0,0.87201118276,19100,2018-05-22 20:34:26,17,0,23.695,3220.4957726753,134.842524,0.3131716,0.9410761456,0,0,-0.671082,334.3, 3.2, -1.9,0,0,1024,1024,1024,1024,334.5,-89.9,95,3.933,3.959,3.976,3.99,3.95,3.97,20.353,84.2,14,Waypoint,
38.8912966,-120.7647935,3221.4800246753,135.826776,0,0.83854661476,19200,2018-05-22 20:34:26,17,0,23.695,3221.4800246753,135.826776,0.3131716,0.9410761456,0,0,-0.671082,334.2, 3.3, -1.6,0,0,1024,1024,1024,1024,334.5,-89.9,95,3.933,3.959,3.976,3.99,3.95,3.97,20.353,84.2,14,Waypoint,
38.8912966,-120.7647936,3222.4642766753,136.811028,0,0.82741472464,19300,2018-05-22 20:34:26,17,0,23.695,3222.4642766753,136.811028,0.3131716,0.9410761456,0,0,-0.671082,334.1, 3.5, -1.3,0,0,1024,1024,1024,1024,334.5,-89.9,95,3.933,3.959,3.976,3.99,3.95,3.97,20.353,84.2,14,Waypoint,
38.8912965,-120.7647936,3224.4327806753,138.779532,0,0.7937500254,19400,2018-05-22 20:34:26,17,0,23.695,3224.4327806753,138.779532,0.3131716,0.9410761456,0,0,-0.671082,334.1, 3.7, -0.9,0,0,1024,1024,1024,1024,334.5,-89.9,95,3.933,3.959,3.976,3.99,3.95,3.97,20.353,84.2,14,Waypoint,
38.8912965,-120.7647937,3225.4170326753,139.763784,0,0.78300855524,19500,2018-05-22 20:34:26,17,0,23.695,3225.4170326753,139.763784,0.3131716,0.9410761456,0,0,-0.671082,334.2, 3.6, -0.8,0,0,1024,1024,1024,1024,334.5,-89.9,95,3.933,3.959,3.976,3.99,3.95,3.97,20.353,84.2,14,Waypoint,
38.8912964,-120.7647937,3226.4012846753,140.748036,0,0.74912403972,19600,2018-05-22 20:34:26,17,0,23.695,3226.4012846753,140.748036,0.3131716,0.9410761456,0,0,-0.671082,334.2, 3.5, -0.8,0,0,1024,1024,1024,1024,334.5,-89.9,95,3.933,3.959,3.976,3.99,3.95,3.97,20.353,84.2,14,Waypoint,
38.8912963,-120.7647937,3227.3855366753,141.732288,0,0.71549542972,19720,2018-05-22 20:34:26,17,0,23.695,3227.3855366753,141.732288,0.3131716,0.9410761456,0,0,-0.671082,334.3, 3.2, -0.9,0,0,1024,1024,1024,1024,334.5,-89.9,95,3.933,3.959,3.976,3.99,3.95,3.97,20.353,84.2,14,Waypoint,
38.8912962,-120.7647937,3229.3540406753,143.700792,0,0.68216209532,19910,2018-05-22 20:34:26,17,0,23.695,3229.3540406753,143.700792,0.3131716,0.9410761456,0,0,-0.671082,334.4, 2.9, -1,0,0,1024,1024,1024,1024,334.5,-90,95,3.933,3.959,3.976,3.99,3.95,3.97,20.353,84.2,14,Waypoint,
38.8912961,-120.7647936,3230.3382926753,144.685044,0,0.66208007368,20000,2018-05-22 20:34:26,17,0,23.695,3230.3382926753,144.685044,0.3131716,0.9410761456,0,0,-0.671082,334.5, 2.8, -1.1,0,0,1024,1024,1024,1024,334.5,-90,95,3.919,3.962,3.962,3.978,3.933,3.973,20.353,84.2,14,Waypoint,
38.891296,-120.7647936,3231.3225446753,145.669296,0,0.63014765796,20200,2018-05-22 20:34:27,17,0,23.695,3231.3225446753,145.669296,0.3131716,0.9410761456,0,0,-0.671082,334.5, 2.7, -1.2,0,0,1024,1024,1024,1024,334.5,-90,95,3.919,3.962,3.962,3.978,3.933,3.973,20.353,84.2,14,Waypoint,
38.891296,-120.7647936,3232.3067966753,146.653548,0,0.63014765796,20300,2018-05-22 20:34:27,17,0,23.695,3232.3067966753,146.653548,0.3131716,0.9410761456,0,0,-0.671082,334.5, 2.6, -1.3,0,0,1024,1024,1024,1024,334.5,-89.9,95,3.919,3.962,3.962,3.978,3.933,3.973,20.353,84.2,14,Waypoint,
38.8912959,-120.7647936,3233.2910486753,147.6378,0,0.59873361496,20400,2018-05-22 20:34:27,17,0,23.695,3233.2910486753,147.6378,0.3131716,0.9410761456,0,0,-0.671082,334.4, 2.4, -1.4,0,0,1024,1024,1024,1024,334.5,-89.9,95,3.919,3.962,3.962,3.978,3.933,3.973,20.353,84.2,14,Waypoint,
38.8912958,-120.7647935,3234.2753006753,148.622052,0,0.58402889008,20500,2018-05-22 20:34:27,17,0,23.695,3234.2753006753,148.622052,0.3131716,0.9410761456,0,0,-0.671082,334.3, 2.3, -1.4,0,0,1024,1024,1024,1024,334.5,-89.9,95,3.919,3.962,3.962,3.978,3.933,3.973,20.353,84.2,14,Waypoint,
38.8912957,-120.7647935,3235.2595526753,149.606304,0,0.5548064482,20600,2018-05-22 20:34:27,17,0,23.695,3235.2595526753,149.606304,0.3131716,0.9410761456,0,0,-0.671082,334.3, 2.2, -1.5,0,0,1024,1024,1024,1024,334.5,-89.9,95,3.919,3.962,3.962,3.978,3.933,3.973,20.353,84.2,14,Waypoint,
38.8912957,-120.7647934,3236.2438046753,150.590556,0,0.5726870262,20700,2018-05-22 20:34:27,17,0,23.695,3236.2438046753,150.590556,0.3131716,0.9410761456,0,0,-0.671082,334.3, 2.1, -1.5,0,0,1024,1024,1024,1024,334.5,-90,95,3.919,3.962,3.962,3.978,3.933,3.973,20.353,84.2,14,Waypoint,
38.8912956,-120.7647934,3237.2280566753,151.574808,0,0.54530185472,20800,2018-05-22 20:34:27,17,0,23.695,3237.2280566753,151.574808,0.3131716,0.9410761456,0,0,-0.671082,334.2, 2.1, -1.4,0,0,1024,1024,1024,1024,334.5,-90,95,3.919,3.962,3.962,3.978,3.933,3.973,20.353,84.2,14,Waypoint,
38.8912955,-120.7647934,3238.2123086753,152.55906,0,0.51903873052,20900,2018-05-22 20:34:27,17,0,23.695,3238.2123086753,152.55906,0.3131716,0.9410761456,0,0,-0.671082,334.2, 2, -1.4,0,0,1024,1024,1024,1024,334.5,-90,95,3.919,3.962,3.962,3.978,3.933,3.973,20.353,84.2,14,Waypoint,
38.8912954,-120.7647933,3239.1965606753,153.543312,0,0.51563649944,21000,2018-05-22 20:34:27,17,0,23.677,3239.1965606753,153.543312,0.3131716,0.9410761456,0,0,-0.671082,334.3, 1.9, -1.4,0,0,1024,1024,1024,1024,334.5,-89.9,95,3.918,3.939,3.959,3.971,3.934,3.952,20.296,84.2,14,Waypoint,
38.8912954,-120.7647933,3240.1808126753,154.527564,0,0.51563649944,21100,2018-05-22 20:34:28,17,0,23.677,3240.1808126753,154.527564,0.3131716,0.9410761456,0,0,-0.671082,334.2, 1.9, -1.4,0,0,1024,1024,1024,1024,334.5,-89.9,95,3.918,3.939,3.959,3.971,3.934,3.952,20.296,84.2,14,Waypoint,
38.8912953,-120.7647933,3241.1650646753,155.511816,0,0.49320539636,21200,2018-05-22 20:34:28,17,0,23.677,3241.1650646753,155.511816,0.3131716,0.9410761456,0,0,-0.671082,334.2, 2, -1.5,0,0,1024,1024,1024,1024,334.5,-89.9,95,3.918,3.939,3.959,3.971,3.934,3.952,20.296,84.2,14,Waypoint,
38.8912953,-120.7647932,3242.1493166753,156.496068,0,0.5163714076,21300,2018-05-22 20:34:28,17,0,23.677,3242.1493166753,156.496068,0.3131716,0.9410761456,0,0,-0.671082,334.2, 2.1, -1.6,0,0,1024,1024,1024,1024,334.5,-89.9,95,3.918,3.939,3.959,3.971,3.934,3.952,20.296,84.2,14,Waypoint,
38.8912952,-120.7647932,3243.1335686753,157.48032,0,0.49666012088,21400,2018-05-22 20:34:28,17,0,23.677,3243.1335686753,157.48032,0.3131716,0.9410761456,0,0,-0.671082,334.2, 2, -1.7,0,0,1024,1024,1024,1024,334.5,-89.9,95,3.918,3.939,3.959,3.971,3.934,3.952,20.296,84.2,14,Waypoint,
38.8912952,-120.7647932,3244.1178206753,158.464572,0,0.49666012088,21500,2018-05-22 20:34:28,17,0,23.677,3244.1178206753,158.464572,0.3131716,0.9410761456,0,0,-0.671082,334.2, 2, -1.7,0,0,1024,1024,1024,1024,334.5,-89.9,95,3.918,3.939,3.959,3.971,3.934,3.952,20.296,84.2,14,Waypoint,
38.8912952,-120.7647932,3245.1020726753,159.448824,0,0.49666012088,21600,2018-05-22 20:34:28,17,0,23.677,3245.1020726753,159.448824,0.3131716,0.9410761456,0,0,-0.671082,334.2, 1.9, -1.8,0,0,1024,1024,1024,1024,334.5,-89.9,95,3.918,3.939,3.959,3.971,3.934,3.952,20.296,84.2,14,Waypoint,
38.8912951,-120.7647931,3247.0705766753,161.417328,0,0.504347129,21800,2018-05-22 20:34:28,17,0,23.677,3247.0705766753,161.417328,0.3131716,0.9410761456,0,0,-0.671082,334.3, 1.9, -1.7,0,0,1024,1024,1024,1024,334.5,-89.9,95,3.918,3.939,3.959,3.971,3.934,3.952,20.296,84.2,14,Waypoint,
38.8912951,-120.7647931,3248.0548286753,162.40158,0,0.504347129,21900,2018-05-22 20:34:28,17,0,23.677,3248.0548286753,162.40158,0.3131716,0.9410761456,0,0,-0.671082,334.3, 2, -1.7,0,0,1024,1024,1024,1024,334.5,-89.9,95,3.918,3.939,3.959,3.971,3.934,3.952,20.296,84.2,14,Waypoint,
38.891295,-120.764793,3250.0233326753,164.370084,0,0.516076132,22000,2018-05-22 20:34:28,17,0,23.651,3250.0233326753,164.370084,0.3131716,0.9410761456,0,0,-0.671082,334.3, 2.1, -1.8,0,0,1024,1024,1024,1024,334.5,-89.9,95,3.909,3.942,3.945,3.961,3.918,3.956,20.32,84.2,14,Waypoint,
38.891295,-120.764793,3251.0075846753,165.354336,0,0.516076132,22100,2018-05-22 20:34:29,17,0,23.651,3251.0075846753,165.354336,0.3131716,0.9410761456,0,0,-0.671082,334.4, 2.2, -1.8,0,0,1024,1024,1024,1024,334.5,-89.9,95,3.909,3.942,3.945,3.961,3.918,3.956,20.32,84.2,14,Waypoint,
38.891295,-120.764793,3251.9918366753,166.338588,0,0.516076132,22210,2018-05-22 20:34:29,17,0,23.651,3251.9918366753,166.338588,0.3131716,0.9410761456,0,0,-0.671082,334.4, 2.2, -1.7,0,0,1024,1024,1024,1024,334.5,-89.9,95,3.909,3.942,3.945,3.961,3.918,3.956,20.32,84.2,14,Waypoint,
38.8912951,-120.764793,3252.9760886753,167.32284,0,0.53007547628,22400,2018-05-22 20:34:29,17,0,23.651,3252.9760886753,167.32284,0.3131716,0.9410761456,0,0,-0.671082,334.3, 2.3, -1.5,0,0,1024,1024,1024,1024,334.5,-89.9,95,3.909,3.942,3.945,3.961,3.918,3.956,20.32,84.2,14,Waypoint,
38.8912951,-120.764793,3254.9445926753,169.291344,0,0.53007547628,22500,2018-05-22 20:34:29,17,0,23.651,3254.9445926753,169.291344,0.3131716,0.9410761456,0,0,-0.671082,334.3, 2.4, -1.4,0,0,1024,1024,1024,1024,334.5,-89.9,95,3.909,3.942,3.945,3.961,3.918,3.956,20.32,84.2,14,Waypoint,
38.891295,-120.764793,3255.9288446753,170.275596,0,0.516076132,22700,2018-05-22 20:34:29,17,0,23.651,3255.9288446753,170.275596,0.3131716,0.9410761456,0,0,-0.671082,334.2, 2.3, -1.4,0,0,1024,1024,1024,1024,334.5,-89.9,95,3.909,3.942,3.945,3.961,3.918,3.956,20.32,84.2,14,Waypoint,
38.891295,-120.764793,3256.9130966753,171.259848,0,0.516076132,22800,2018-05-22 20:34:29,17,0,23.651,3256.9130966753,171.259848,0.3131716,0.9410761456,0,0,-0.671082,334.2, 2.2, -1.5,0,0,1024,1024,1024,1024,334.5,-89.9,95,3.909,3.942,3.945,3.961,3.918,3.956,20.32,84.2,14,Waypoint,
38.8912951,-120.764793,3257.8973486753,172.2441,0,0.53007547628,22900,2018-05-22 20:34:29,17,0,23.651,3257.8973486753,172.2441,0.3131716,0.9410761456,0,0,-0.671082,334.1, 2.2, -1.5,0,0,1024,1024,1024,1024,334.5,-89.9,95,3.909,3.942,3.945,3.961,3.918,3.956,20.32,84.2,14,Waypoint,
38.8912951,-120.7647929,3258.8816006753,173.228352,0,0.55605972908,23010,2018-05-22 20:34:29,17,0,23.596,3258.8816006753,173.228352,0.3131716,0.9410761456,0,0,-0.671082,334, 2.1, -1.6,0,0,1024,1024,1024,1024,334.5,-89.9,95,3.904,3.93,3.935,3.957,3.908,3.943,20.405,84.2,14,Waypoint,
38.8912951,-120.7647929,3259.8658526753,174.212604,0,0.55605972908,23200,2018-05-22 20:34:30,17,0,23.596,3259.8658526753,174.212604,0.3131716,0.9410761456,0,0,-0.671082,334, 2.1, -1.7,0,0,1024,1024,1024,1024,334.5,-89.9,95,3.904,3.93,3.935,3.957,3.908,3.943,20.405,84.2,14,Waypoint,
38.8912951,-120.7647929,3260.8501046753,175.196856,0,0.55605972908,23400,2018-05-22 20:34:30,17,0,23.596,3260.8501046753,175.196856,0.3131716,0.9410761456,0,0,-0.671082,334, 2, -1.9,0,0,1024,1024,1024,1024,334.5,-90,95,3.904,3.93,3.935,3.957,3.908,3.943,20.405,84.2,14,Waypoint,
38.8912951,-120.7647928,3261.8343566753,176.181108,0,0.58227364068,23520,2018-05-22 20:34:30,17,0,23.596,3261.8343566753,176.181108,0.3131716,0.9410761456,0,0,-0.671082,333.9, 2.1, -2,0,0,1024,1024,1024,1024,334.5,-89.9,95,3.904,3.93,3.935,3.957,3.908,3.943,20.405,84.2,14,Waypoint,
38.8912952,-120.7647927,3264.1309446753,178.477696,0,0.62273295956,23900,2018-05-22 20:34:30,17,0,23.596,3264.1309446753,178.477696,0.3131716,0.9410761456,0,0,-0.671082,334.2, 2.3, -2.6,0,0,1024,1024,1024,1024,334.5,-89.9,95,3.904,3.93,3.935,3.957,3.908,3.943,20.405,84.2,14,Waypoint,
38.8912952,-120.7647927,3266.0994486753,180.4462,0,0.62273295956,24010,2018-05-22 20:34:30,17,0,23.6,3266.0994486753,180.4462,0.3131716,0.9410761456,0,0,-0.671082,334.3, 2.4, -2.4,0,0,1024,1024,1024,1024,334.5,-89.9,95,3.9,3.931,3.945,3.963,3.925,3.944,20.373,84.2,14,Waypoint,
38.8912953,-120.7647927,3269.0522046753,183.398956,0,0.63856301256,24310,2018-05-22 20:34:31,17,0,23.6,3269.0522046753,183.398956,0.3131716,0.9410761456,0,0,-0.671082,333.8, 2.4, -2.1,0,0,1024,1024,1024,1024,334.5,-89.9,95,3.9,3.931,3.945,3.963,3.925,3.944,20.373,84.2,14,Waypoint,
38.8912953,-120.7647927,3270.0364566753,184.383208,0,0.63856301256,24420,2018-05-22 20:34:31,17,0,23.6,3270.0364566753,184.383208,0.3131716,0.9410761456,0,0,-0.671082,334, 2.4, -2.2,0,0,1024,1024,1024,1024,334.5,-89.9,95,3.9,3.931,3.945,3.963,3.925,3.944,20.373,84.2,14,Waypoint,
38.8912953,-120.7647927,3270.0364566753,184.383208,0,0.63856301256,24500,2018-05-22 20:34:31,17,0,23.6,3270.0364566753,184.383208,0.3131716,0.9410761456,0,0,-0.671082,334, 2.4, -2.2,0,0,1024,1024,1024,1024,334.5,-89.9,95,3.9,3.931,3.945,3.963,3.925,3.944,20.373,84.2,14,Waypoint,
38.8912955,-120.7647927,3272.6611286753,187.00788,0,0.67504595336,24610,2018-05-22 20:34:31,17,0,23.6,3272.6611286753,187.00788,0.3131716,0.9410761456,0,0,-0.671082,334.5, 2.6, -1.9,0,0,1024,1024,1024,1024,334.5,-89.9,95,3.9,3.931,3.945,3.963,3.925,3.944,20.373,84.2,14,Waypoint,
38.8912955,-120.7647928,3273.6453806753,187.992132,0,0.65133204184,24800,2018-05-22 20:34:31,17,0,23.6,3273.6453806753,187.992132,0.3131716,0.9410761456,0,0,-0.671082,334.6, 2.8, -1.7,0,0,1024,1024,1024,1024,334.5,-89.9,95,3.9,3.931,3.945,3.963,3.925,3.944,20.373,84.2,14,Waypoint,
38.8912955,-120.7647928,3274.9577166753,189.304468,0,0.65133204184,24900,2018-05-22 20:34:31,17,0,23.6,3274.9577166753,189.304468,0.3131716,0.9410761456,0,0,-0.671082,334.6, 2.9, -1.8,0,0,1024,1024,1024,1024,334.5,-89.9,95,3.9,3.931,3.945,3.963,3.925,3.944,20.373,84.2,14,Waypoint,
38.8912955,-120.7647928,3277.9104726753,192.257224,0,0.65133204184,25000,2018-05-22 20:34:31,17,0,23.626,3277.9104726753,192.257224,0.3131716,0.9410761456,0,0,-0.671082,334.4, 2.6, -2.1,0,0,1024,1024,1024,1024,334.5,-89.9,95,3.912,3.935,3.948,3.963,3.923,3.948,19.373,84.2,14,Waypoint,
38.8912955,-120.7647928,3278.8947246753,193.241476,0,0.65133204184,25100,2018-05-22 20:34:32,17,0,23.626,3278.8947246753,193.241476,0.3131716,0.9410761456,0,0,-0.671082,334.4, 2.2, -2.3,0,0,1024,1024,1024,1024,334.5,-90,95,3.912,3.935,3.948,3.963,3.923,3.948,19.373,84.2,14,Waypoint,
38.8912955,-120.7647928,3279.8789766753,194.225728,0,0.65133204184,25200,2018-05-22 20:34:32,17,0,23.626,3279.8789766753,194.225728,0.3131716,0.9410761456,0,0,-0.671082,334.4, 1.8, -2.7,0,0,1024,1024,1024,1024,334.5,-89.9,95,3.912,3.935,3.948,3.963,3.923,3.948,19.373,84.2,14,Waypoint,
38.8912955,-120.7647928,3281.8474806753,196.194232,0,0.65133204184,25320,2018-05-22 20:34:32,17,0,23.626,3281.8474806753,196.194232,0.3131716,0.9410761456,0,0,-0.671082,334.3, 2.3, -2.1,0,0,1024,1024,1024,1024,334.5,-89.9,95,3.912,3.935,3.948,3.963,3.923,3.948,19.373,84.2,14,Waypoint,
38.8912955,-120.7647928,3281.8474806753,196.194232,0,0.65133204184,25400,2018-05-22 20:34:32,17,0,23.626,3281.8474806753,196.194232,0.3131716,0.9410761456,0,0,-0.671082,334.3, 2.3, -2.1,0,0,1024,1024,1024,1024,334.5,-89.9,95,3.912,3.935,3.948,3.963,3.923,3.948,19.373,84.2,14,Waypoint,
38.8912955,-120.7647929,3282.5036486753,196.8504,0,0.62801183112,25500,2018-05-22 20:34:32,17,0,23.626,3282.5036486753,196.8504,0.3131716,0.9410761456,0,0,-0.671082,334.2, 2.9, -1.3,0,0,1024,1024,1024,1024,334.5,-89.9,95,3.912,3.935,3.948,3.963,3.923,3.948,19.373,84.2,14,Waypoint,
38.8912955,-120.7647929,3284.8002366753,199.146988,0,0.62801183112,25600,2018-05-22 20:34:32,17,0,23.626,3284.8002366753,199.146988,0.3131716,0.9410761456,0,0,-0.671082,333.8, 2.7, -1.3,0,0,1024,1024,1024,1024,334.5,-89.9,95,3.912,3.935,3.948,3.963,3.923,3.948,19.373,84.2,14,Waypoint,
38.8912955,-120.7647929,3285.7844886753,200.13124,0,0.62801183112,25700,2018-05-22 20:34:32,17,0,23.626,3285.7844886753,200.13124,0.3131716,0.9410761456,0,0,-0.671082,333.8, 2, -2,0,0,1024,1024,1024,1024,334.5,-90,95,3.912,3.935,3.948,3.963,3.923,3.948,19.373,84.2,14,Waypoint,
38.8912954,-120.7647928,3286.7687406753,201.115492,0,0.63162075512,25900,2018-05-22 20:34:32,17,0,23.626,3286.7687406753,201.115492,0.3131716,0.9410761456,0,0,-0.671082,334.1, 1.9, -2.3,0,0,1024,1024,1024,1024,334.5,-90,95,3.912,3.935,3.948,3.963,3.923,3.948,19.373,84.2,14,Waypoint,
38.8912954,-120.7647928,3288.7372446753,203.083996,0,0.63162075512,26300,2018-05-22 20:34:33,17,0,23.626,3288.7372446753,203.083996,0.3131716,0.9410761456,0,0,-0.671082,334.4, 1.6, -2.1,0,0,1024,1024,1024,1024,334.5,-89.9,95,3.912,3.935,3.948,3.963,3.923,3.948,19.373,84.2,14,Waypoint,
38.8912953,-120.7647927,3289.7214966753,204.068248,0,0.63856301256,26400,2018-05-22 20:34:33,17,0,23.626,3289.7214966753,204.068248,0.3131716,0.9410761456,0,0,-0.671082,334.5, 1.8, -2,0,0,1024,1024,1024,1024,334.5,-90,95,3.912,3.935,3.948,3.963,3.923,3.948,19.373,84.2,14,Waypoint,
38.8912953,-120.7647927,3290.7057486753,205.0525,0,0.63856301256,26520,2018-05-22 20:34:33,17,0,23.626,3290.7057486753,205.0525,0.3131716,0.9410761456,0,0,-0.671082,334.5, 1.8, -1.9,0,0,1024,1024,1024,1024,334.5,-89.9,95,3.912,3.935,3.948,3.963,3.923,3.948,19.373,84.2,14,Waypoint,
38.8912953,-120.7647927,3290.7057486753,205.0525,0,0.63856301256,26600,2018-05-22 20:34:33,17,0,23.626,3290.7057486753,205.0525,0.3131716,0.9410761456,0,0,-0.671082,334.5, 1.8, -1.9,0,0,1024,1024,1024,1024,334.5,-89.9,95,3.912,3.935,3.948,3.963,3.923,3.948,19.373,84.2,14,Waypoint,
38.8912953,-120.7647927,3291.6900006753,206.036752,0,0.63856301256,26800,2018-05-22 20:34:33,17,0,23.626,3291.6900006753,206.036752,0.3131716,0.9410761456,0,0,-0.671082,334.4, 1.8, -1.7,0,0,1024,1024,1024,1024,334.5,-89.9,95,3.912,3.935,3.948,3.963,3.923,3.948,19.373,84.2,14,Waypoint,
38.8912953,-120.7647927,3292.6742526753,207.021004,0,0.63856301256,26900,2018-05-22 20:34:33,17,0,23.626,3292.6742526753,207.021004,0.3131716,0.9410761456,0,0,-0.671082,334.4, 1.7, -1.7,0,0,1024,1024,1024,1024,334.5,-89.9,95,3.912,3.935,3.948,3.963,3.923,3.948,19.373,84.2,14,Waypoint,
38.8912952,-120.7647927,3294.3146726753,208.661424,0,0.62273295956,27000,2018-05-22 20:34:33,17,0,23.578,3294.3146726753,208.661424,0.3131716,0.9410761456,0,0,-0.671082,334.4, 1.6, -1.7,0,0,1024,1024,1024,1024,334.5,-89.9,94,3.903,3.927,3.942,3.947,3.901,3.933,20.321,84.2,14,Waypoint,
38.8912952,-120.7647927,3296.2831766753,210.629928,0,0.62273295956,27110,2018-05-22 20:34:34,17,0,23.578,3296.2831766753,210.629928,0.3131716,0.9410761456,0,0,-0.671082,334.3, 2.1, -1.9,0,0,1024,1024,1024,1024,334.5,-89.9,94,3.903,3.927,3.942,3.947,3.901,3.933,20.321,84.2,14,Waypoint,
38.8912953,-120.7647927,3297.2674286753,211.61418,0,0.63856301256,27200,2018-05-22 20:34:34,17,0,23.578,3297.2674286753,211.61418,0.3131716,0.9410761456,0,0,-0.671082,334.2, 2.2, -1.9,0,0,1024,1024,1024,1024,334.5,-89.9,94,3.903,3.927,3.942,3.947,3.901,3.933,20.321,84.2,14,Waypoint,
38.8912953,-120.7647926,3300.2201846753,214.566936,0,0.66394687164,27410,2018-05-22 20:34:34,17,0,23.578,3300.2201846753,214.566936,0.3131716,0.9410761456,0,0,-0.671082,334.1, 2.4, -2.1,0,0,1024,1024,1024,1024,334.5,-89.9,94,3.903,3.927,3.942,3.947,3.901,3.933,20.321,84.2,14,Waypoint,
38.8912954,-120.7647926,3301.5325206753,215.879272,0,0.68077758084,27520,2018-05-22 20:34:34,17,0,23.578,3301.5325206753,215.879272,0.3131716,0.9410761456,0,0,-0.671082,333.7, 2.6, -2.4,0,0,1024,1024,1024,1024,334.5,-89.9,94,3.903,3.927,3.942,3.947,3.901,3.933,20.321,84.2,14,Waypoint,
38.8912954,-120.7647926,3301.5325206753,215.879272,0,0.68077758084,27600,2018-05-22 20:34:34,17,0,23.578,3301.5325206753,215.879272,0.3131716,0.9410761456,0,0,-0.671082,333.7, 2.6, -2.4,0,0,1024,1024,1024,1024,334.5,-89.9,94,3.903,3.927,3.942,3.947,3.901,3.933,20.321,84.2,14,Waypoint,
38.8912956,-120.7647925,3303.5010246753,217.847776,0,0.74254923636,27710,2018-05-22 20:34:34,17,0,23.578,3303.5010246753,217.847776,0.3131716,0.9410761456,0,0,-0.671082,333.2, 3.1, -2.9,0,0,1024,1024,1024,1024,334.5,-89.9,94,3.903,3.927,3.942,3.947,3.901,3.933,20.321,84.2,14,Waypoint,
38.8912958,-120.7647923,3305.4695286753,219.81628,0.223694,0.83034123392,27920,2018-05-22 20:34:34,17,0,23.578,3305.4695286753,219.81628,0.3131716,0.9410761456,0,0,-0.671082,333.3, 3.8, -4.2,0,0,1024,1024,1024,1024,334.5,-89.9,94,3.903,3.927,3.942,3.947,3.901,3.933,20.321,84.2,14,Waypoint,
38.8912958,-120.7647923,3305.4695286753,219.81628,0.223694,0.83034123392,28000,2018-05-22 20:34:34,17,0,23.547,3305.4695286753,219.81628,0.3131716,0.9410761456,0,0,-0.671082,333.3, 3.8, -4.2,0,0,1024,1024,1024,1024,334.5,-89.9,94,3.891,3.916,3.937,3.953,3.903,3.94,20.415,84.2,14,Waypoint,
38.891296,-120.7647921,3307.7661166753,222.112868,0,0.91904858584,28100,2018-05-22 20:34:35,17,0,23.547,3307.7661166753,222.112868,0.3131716,0.9410761456,0,0,-0.671082,333.8, 3.8, -5,0,0,1024,1024,1024,1024,334.5,-89.9,94,3.891,3.916,3.937,3.953,3.903,3.94,20.415,84.2,14,Waypoint,
38.8912961,-120.7647919,3310.7188726753,225.065624,0,0.98641407356,28300,2018-05-22 20:34:35,17,0,23.547,3310.7188726753,225.065624,0.3131716,0.98641407356,0,0,-0.671082,334.4, 3, -4.2,0,0,1024,1024,1024,1024,334.5,-89.9,94,3.891,3.916,3.937,3.953,3.903,3.94,20.415,84.2,14,Waypoint,
38.891296,-120.7647918,3311.7031246753,226.049876,0,0.98879268256,28400,2018-05-22 20:34:35,17,0,23.547,3311.7031246753,226.049876,0.3131716,0.98879268256,0,0,-0.671082,334.5, 2.7, -3.8,0,0,1024,1024,1024,1024,334.5,-90,94,3.891,3.916,3.937,3.953,3.903,3.94,20.415,84.2,14,Waypoint,
38.891296,-120.7647918,3313.6716286753,228.01838,0,0.98879268256,28500,2018-05-22 20:34:35,17,0,23.547,3313.6716286753,228.01838,0.3131716,0.98879268256,0,0,-0.671082,334.4, 2.5, -3.8,0,0,1024,1024,1024,1024,334.5,-89.9,94,3.891,3.916,3.937,3.953,3.903,3.94,20.415,84.2,14,Waypoint,
38.891296,-120.7647918,3314.6558806753,229.002632,0,0.98879268256,28600,2018-05-22 20:34:35,17,0,23.547,3314.6558806753,229.002632,0.3131716,0.98879268256,0,0,-0.671082,334.3, 2.8, -4,0,0,1024,1024,1024,1024,334.5,-89.9,94,3.891,3.916,3.937,3.953,3.903,3.94,20.415,84.2,14,Waypoint,
38.891296,-120.7647917,3315.6401326753,229.986884,0,1.0125656492,28700,2018-05-22 20:34:35,17,0,23.547,3315.6401326753,229.986884,0.3131716,1.0125656492,0,0,-0.671082,334.2, 3, -4.3,0,0,1024,1024,1024,1024,334.5,-89.9,94,3.891,3.916,3.937,3.953,3.903,3.94,20.415,84.2,14,Waypoint,
38.8912961,-120.7647917,3316.6243846753,230.971136,0,1.0327428152,28800,2018-05-22 20:34:35,17,0,23.547,3316.6243846753,230.971136,0.3131716,1.0327428152,0,0,-0.671082,334.2, 3, -4.5,0,0,1024,1024,1024,1024,334.5,-89.9,94,3.891,3.916,3.937,3.953,3.903,3.94,20.415,84.2,14,Waypoint,
38.8912961,-120.7647916,3317.6086366753,231.955388,0,1.05628940388,28920,2018-05-22 20:34:35,17,0,23.547,3317.6086366753,231.955388,0.3131716,1.05628940388,0,0,-0.671082,334.3, 2.9, -4.6,0,0,1024,1024,1024,1024,334.5,-89.9,94,3.891,3.916,3.937,3.953,3.903,3.94,20.415,84.2,14,Waypoint,
38.8912961,-120.7647915,3319.2490566753,233.595808,0,1.08007221304,29010,2018-05-22 20:34:35,17,0,23.7,3319.2490566753,233.595808,0.3131716,1.08007221304,0,0,-0.671082,334.4, 2.8, -4.3,0,0,1024,1024,1024,1024,334.5,-89.9,94,3.925,3.945,3.961,3.981,3.938,3.96,17.955,84.2,14,Waypoint,
38.8912961,-120.7647915,3320.2333086753,234.58006,0,1.08007221304,29100,2018-05-22 20:34:36,17,0,23.7,3320.2333086753,234.58006,0.3131716,1.08007221304,0,0,-0.671082,334.3, 2.7, -4.3,0,0,1024,1024,1024,1024,334.5,-89.9,94,3.925,3.945,3.961,3.981,3.938,3.96,17.955,84.2,14,Waypoint,
