Latitude, Longitude, Altitude (m), Time, Sats, Speed (m/s), Range (m), Battery (%), Roll (deg), Pitch (deg), Yaw (deg), Images, HD Signal (%), RC Signal (%), Battery Temp (C), Battery Voltage (mV), Battery Current (mA), Battery Energy (mAh), Battery Capacity (mAh), Battery Discharges, flyState, timestamp (Unix), LastUpdate (ms), radioChannel, Rc_elevator, Rc_aileron, Rc_throttle, Rc_rudder, Rc_gyro, Dronetype, Battery_Cell1 (mV), Battery_Cell2 (mV), Battery_Cell3 (mV), Battery_Cell4 (mV), Battery_Cell5 (mV), Battery_Cell6 (mV), Video, isFlying, elapsedTime (ms), gimbalPitch (deg), gimbalRoll (deg), gimbalYaw (deg), VelocityX (m/s), VelocityY (m/s), VelocityZ (m/s), GroundSmear (cm), App Version, Aircraft Name, Aircraft Firmware, Aircraft Serial Number, Battery Serial Number, Battery Lifetime (%), App_Tip, App_Warning, CurrentFlightStartingIndex, CurrentFlightLastVisitedWaypoint, PreviousFlightEndingWaypointIndex
38.8913009, -120.7647888, 0.000, 13:00:24.019, 12, 0.00, 0.10, 100, 1.700, 1.900, -29.300, 1222, 100, 100, 24, 25743, -3833, 5510, 5510, 10, 11, 1527019224.019, 73, 0, 1024, 1024, 1024, 1024, 0, 6, 4238, 4302, 4279, 4306, 4313, 4302, 0, 1, 3242, -89.900, 0.000, -29.100, 0.000, 0.000, -0.100, 0.0, MapPilot_2.8.1_04242018, Dendroctonus I, 1.3.1.00, 041DDC1887, 1058171200149, 98, DJI_0225.jpg, Starting Mission from Lat/Long: 38.89131/-120.76479 Camera: Zenmuse X3 - Overlap: 90/90 - Active Connection: No, 47, 47, 47
38.8913009, -120.7647886, 0.000, 13:00:24.107, 12, 0.10, 0.10, 100, 1.500, 1.800, -29.000, 1222, 100, 100, 24, 25743, -3833, 5510, 5510, 10, 11, 1527019224.108, 30, 0, 1024, 1024, 1024, 1024, 0, 6, 4238, 4302, 4279, 4306, 4313, 4302, 0, 1, 3330, -89.900, 0.000, -29.100, 0.000, 0.100, -0.200, 0.0, , , , , , 98, , , 47, 47, 47
38.8913009, -120.7647886, 0.000, 13:00:24.182, 12, 0.10, 0.10, 100, 1.500, 1.800, -29.000, 1222, 100, 100, 24, 25743, -3833, 5510, 5510, 10, 11, 1527019224.183, 105, 0, 1024, 1024, 1024, 1024, 0, 6, 4238, 4302, 4279, 4306, 4313, 4302, 0, 1, 3405, -89.900, 0.000, -29.100, 0.000, 0.100, -0.200, 0.0, , , , , , 98, , , 47, 47, 47
38.8913008, -120.7647885, 0.000, 13:00:24.283, 13, 0.10, 0.11, 100, 0.700, 1.000, -28.900, 1222, 100, 100, 24, 25743, -3833, 5510, 5510, 10, 11, 1527019224.285, 44, 0, 1024, 1024, 1024, 1024, 0, 6, 4238, 4302, 4279, 4306, 4313, 4302, 0, 1, 3507, -90.000, 0.000, -29.100, 0.000, 0.100, -0.300, 0.0, , , , , , 98, , , 47, 47, 47
38.8913008, -120.7647885, 0.000, 13:00:24.382, 13, 0.10, 0.11, 100, 0.700, 1.000, -28.900, 1222, 100, 100, 24, 25743, -3833, 5510, 5510, 10, 11, 1527019224.382, 142, 0, 1024, 1024, 1024, 1024, 0, 6, 4238, 4302, 4279, 4306, 4313, 4302, 0, 1, 3604, -90.000, 0.000, -29.100, 0.000, 0.100, -0.300, 0.0, , , , , , 98, , , 47, 47, 47
38.8913007, -120.7647880, 0.100, 13:00:24.482, 12, 0.20, 0.14, 100, -0.100, -0.300, -28.900, 1222, 100, 100, 24, 25743, -3833, 5510, 5510, 10, 11, 1527019224.482, 90, 0, 1024, 1024, 1024, 1024, 0, 6, 4238, 4302, 4279, 4306, 4313, 4302, 0, 1, 3704, -90.000, 0.000, -29.000, 0.000, 0.200, -0.400, 0.0, , , , , , 98, , , 47, 47, 47
38.8913006, -120.7647875, 0.100, 13:00:24.585, 12, 0.10, 0.17, 100, -1.100, -1.100, -29.100, 1222, 100, 100, 24, 25743, -3833, 5510, 5510, 10, 11, 1527019224.585, 10, 0, 1024, 1024, 1024, 1024, 0, 6, 4238, 4302, 4279, 4306, 4313, 4302, 0, 1, 3807, -90.000, 0.000, -29.100, 0.000, 0.100, -0.400, 0.0, , , , , , 98, , , 47, 47, 47
38.8913006, -120.7647873, 0.200, 13:00:24.690, 12, 0.10, 0.19, 100, -1.500, -1.200, -29.200, 1222, 100, 100, 24, 25551, -3833, 5510, 5510, 10, 11, 1527019224.690, 16, 0, 1024, 1024, 1024, 1024, 0, 6, 4238, 4302, 4279, 4306, 4313, 4302, 0, 1, 3912, -90.000, 0.000, -29.000, 0.000, 0.100, -0.400, 0.0, , , , , , 98, , , 47, 47, 47
38.8913006, -120.7647873, 0.200, 13:00:24.782, 12, 0.10, 0.19, 100, -1.500, -1.200, -29.200, 1222, 100, 100, 24, 25551, -3833, 5510, 5510, 10, 11, 1527019224.782, 109, 0, 1024, 1024, 1024, 1024, 0, 6, 4238, 4302, 4279, 4306, 4313, 4302, 0, 1, 4004, -90.000, 0.000, -29.000, 0.000, 0.100, -0.400, 0.0, , , , , , 98, , , 47, 47, 47
38.8913006, -120.7647871, 0.200, 13:00:24.882, 12, 0.10, 0.20, 100, -1.900, -1.000, -29.300, 1222, 100, 100, 24, 25551, -3833, 5510, 5510, 10, 11, 1527019224.882, 42, 0, 1024, 1024, 1024, 1024, 0, 6, 4228, 4250, 4256, 4244, 4250, 4238, 0, 1, 4104, -89.900, 0.000, -29.100, 0.000, 0.100, -0.400, 0.0, , , , , , 98, , , 47, 47, 47
38.8913006, -120.7647871, 0.200, 13:00:24.982, 12, 0.10, 0.20, 100, -1.900, -1.000, -29.300, 1222, 100, 100, 24, 25551, -3833, 5510, 5510, 10, 11, 1527019224.985, 145, 0, 1024, 1024, 1024, 1024, 0, 6, 4228, 4250, 4256, 4244, 4250, 4238, 0, 1, 4207, -89.900, 0.000, -29.100, 0.000, 0.100, -0.400, 0.0, , , , , , 98, , , 47, 47, 47
38.8913006, -120.7647869, 0.300, 13:00:25.082, 12, 0.00, 0.21, 100, -1.200, -0.400, -29.500, 1222, 100, 100, 24, 25551, -3833, 5510, 5510, 10, 11, 1527019225.083, 32, 0, 1024, 1024, 1024, 1024, 0, 6, 4228, 4250, 4256, 4244, 4250, 4238, 0, 1, 4305, -89.900, 0.000, -29.100, 0.000, 0.000, -0.400, 0.0, , , , , , 98, , , 47, 47, 47
38.8913006, -120.7647869, 0.300, 13:00:25.182, 12, 0.00, 0.21, 100, -1.200, -0.400, -29.500, 1222, 100, 100, 24, 25551, -3833, 5510, 5510, 10, 11, 1527019225.182, 132, 0, 1024, 1024, 1024, 1024, 0, 6, 4228, 4250, 4256, 4244, 4250, 4238, 0, 1, 4404, -89.900, 0.000, -29.100, 0.000, 0.000, -0.400, 0.0, , , , , , 98, , , 47, 47, 47
38.8913005, -120.7647868, 0.400, 13:00:25.278, 11, 0.00, 0.22, 100, -0.900, -0.200, -29.700, 1222, 100, 100, 24, 25551, -3833, 5510, 5510, 10, 11, 1527019225.279, 38, 0, 1024, 1024, 1024, 1024, 0, 6, 4228, 4250, 4256, 4244, 4250, 4238, 0, 1, 4501, -89.900, 0.000, -29.100, 0.000, 0.000, -0.400, 0.0, , , , , , 98, , , 47, 47, 47
38.8913005, -120.7647868, 0.400, 13:00:25.381, 11, 0.00, 0.22, 100, -0.900, -0.200, -29.700, 1222, 100, 100, 24, 25551, -3833, 5510, 5510, 10, 11, 1527019225.382, 142, 0, 1024, 1024, 1024, 1024, 0, 6, 4228, 4250, 4256, 4244, 4250, 4238, 0, 1, 4604, -89.900, 0.000, -29.100, 0.000, 0.000, -0.400, 0.0, , , , , , 98, , , 47, 47, 47
38.8913005, -120.7647868, 0.500, 13:00:25.483, 11, 0.00, 0.22, 100, -0.800, -0.200, -29.700, 1222, 100, 100, 24, 25551, -3833, 5510, 5510, 10, 11, 1527019225.484, 93, 0, 1024, 1024, 1024, 1024, 0, 6, 4228, 4250, 4256, 4244, 4250, 4238, 0, 1, 4706, -89.900, 0.000, -29.100, 0.000, 0.000, -0.500, 0.0, , , , , , 98, , , 47, 47, 47
38.8913005, -120.7647868, 0.500, 13:00:25.583, 11, 0.00, 0.22, 100, -0.800, -0.200, -29.700, 1222, 100, 100, 24, 25551, -3833, 5510, 5510, 10, 11, 1527019225.588, 197, 0, 1024, 1024, 1024, 1024, 0, 6, 4228, 4250, 4256, 4244, 4250, 4238, 0, 1, 4810, -89.900, 0.000, -29.100, 0.000, 0.000, -0.500, 0.0, , , , , , 98, , , 47, 47, 47
38.8913005, -120.7647868, 0.600, 13:00:25.682, 12, 0.00, 0.23, 100, -0.500, -0.200, -29.400, 1222, 100, 100, 24, 25551, -3833, 5510, 5510, 10, 11, 1527019225.683, 46, 0, 1024, 1024, 1024, 1024, 0, 6, 4228, 4250, 4256, 4244, 4250, 4238, 0, 1, 4905, -89.900, 0.000, -29.100, 0.000, 0.000, -0.500, 0.0, , , , , , 98, , , 47, 47, 47
38.8913004, -120.7647867, 0.700, 13:00:25.783, 12, 0.00, 0.23, 100, -0.500, -0.300, -29.200, 1222, 100, 100, 24, 24617, -16331, 5399, 5510, 10, 11, 1527019225.784, 9, 0, 1024, 1024, 1024, 1024, 0, 6, 4228, 4250, 4256, 4244, 4250, 4238, 0, 1, 5007, -89.900, 0.000, -29.000, 0.000, 0.000, -0.500, 0.0, , , , , , 98, , , 47, 47, 47
38.8913004, -120.7647868, 0.700, 13:00:25.880, 13, 0.00, 0.23, 100, -0.500, -0.400, -29.100, 1222, 100, 100, 24, 24617, -16331, 5399, 5510, 10, 11, 1527019225.880, 24, 0, 1024, 1024, 1024, 1024, 0, 6, 4033, 4043, 4083, 4100, 4107, 4070, 0, 1, 5103, -89.900, 0.000, -29.100, 0.000, 0.000, -0.500, 0.0, , , , , , 98, , , 47, 47, 47
38.8913004, -120.7647868, 0.700, 13:00:25.978, 13, 0.00, 0.23, 100, -0.500, -0.400, -29.100, 1222, 100, 100, 24, 24617, -16331, 5399, 5510, 10, 11, 1527019225.978, 122, 0, 1024, 1024, 1024, 1024, 0, 6, 4033, 4043, 4083, 4100, 4107, 4070, 0, 1, 5200, -89.900, 0.000, -29.100, 0.000, 0.000, -0.500, 0.0, , , , , , 98, , , 47, 47, 47
38.8913003, -120.7647869, 0.800, 13:00:26.083, 13, 0.00, 0.23, 100, -0.400, -0.400, -29.000, 1222, 100, 100, 24, 24617, -16331, 5399, 5510, 10, 11, 1527019226.084, 79, 0, 1024, 1024, 1024, 1024, 0, 6, 4033, 4043, 4083, 4100, 4107, 4070, 0, 1, 5306, -89.900, 0.000, -29.000, 0.000, 0.000, -0.500, 0.0, , , , , , 98, , , 47, 47, 47
38.8913003, -120.7647869, 0.800, 13:00:26.179, 13, 0.00, 0.23, 100, -0.400, -0.400, -29.000, 1222, 100, 100, 24, 24617, -16331, 5399, 5510, 10, 11, 1527019226.179, 175, 0, 1024, 1024, 1024, 1024, 0, 6, 4033, 4043, 4083, 4100, 4107, 4070, 0, 1, 5402, -89.900, 0.000, -29.000, 0.000, 0.000, -0.500, 0.0, , , , , , 98, , , 47, 47, 47
38.8913002, -120.7647868, 0.900, 13:00:26.283, 12, 0.00, 0.24, 100, -0.100, -0.400, -28.900, 1222, 100, 100, 24, 24617, -16331, 5399, 5510, 10, 14, 1527019226.285, 62, 0, 1024, 1024, 1024, 1024, 0, 6, 4033, 4043, 4083, 4100, 4107, 4070, 0, 1, 5507, -89.900, 0.000, -29.100, 0.000, 0.000, -0.300, 0.0, , , , , , 98, , , 47, 47, 47
38.8913000, -120.7647870, 1.000, 13:00:26.379, 11, 0.00, 0.25, 100, 0.000, 0.000, -28.800, 1222, 100, 100, 24, 24617, -16331, 5399, 5510, 10, 14, 1527019226.379, 35, 0, 1024, 1024, 1024, 1024, 0, 6, 4033, 4043, 4083, 4100, 4107, 4070, 0, 1, 5601, -89.900, 0.000, -29.100, 0.000, 0.000, -0.300, 0.0, , , , , , 98, , , 47, 47, 47
38.8913000, -120.7647870, 1.100, 13:00:26.479, 11, 0.00, 0.26, 100, 0.100, -0.200, -28.800, 1222, 100, 100, 24, 24617, -16331, 5399, 5510, 10, 14, 1527019226.479, 80, 0, 1024, 1024, 1024, 1024, 0, 6, 4033, 4043, 4083, 4100, 4107, 4070, 0, 1, 5702, -89.900, 0.000, -29.100, 0.000, 0.000, -0.500, 0.0, , , , , , 98, , , 47, 47, 47
38.8912999, -120.7647870, 1.100, 13:00:26.581, 11, 0.00, 0.27, 100, 0.200, -0.400, -28.800, 1222, 100, 100, 24, 24617, -16331, 5399, 5510, 10, 14, 1527019226.583, 97, 0, 1024, 1024, 1024, 1024, 0, 6, 4033, 4043, 4083, 4100, 4107, 4070, 0, 1, 5805, -90.000, 0.000, -29.000, 0.000, 0.000, -0.600, 0.0, , , , , , 98, , , 47, 47, 47
38.8912998, -120.7647870, 1.200, 13:00:26.678, 10, 0.00, 0.27, 98, 0.200, -0.500, -28.800, 1222, 100, 100, 24, 24379, -15447, 5399, 5510, 10, 14, 1527019226.682, 43, 0, 1024, 1024, 1024, 1024, 0, 6, 4102, 4038, 4038, 4125, 4095, 4045, 0, 1, 5904, -90.000, 0.000, -29.100, 0.000, 0.000, -0.700, 0.0, , , , , , 98, , , 47, 47, 47
38.8912998, -120.7647869, 1.300, 13:00:26.783, 10, 0.00, 0.27, 98, 0.200, -0.500, -28.800, 1222, 100, 100, 24, 24379, -15447, 5399, 5510, 10, 14, 1527019226.783, 44, 0, 1024, 1024, 1024, 1024, 0, 6, 4102, 4038, 4038, 4125, 4095, 4045, 0, 1, 6005, -90.000, 0.000, -29.100, 0.000, 0.000, -1.000, 0.0, , , , , , 98, , , 47, 47, 47
38.8912998, -120.7647870, 1.400, 13:00:26.879, 10, 0.00, 0.27, 98, 0.100, -0.600, -28.800, 1222, 100, 100, 24, 24379, -15447, 5399, 5510, 10, 14, 1527019226.880, 24, 0, 1024, 1024, 1024, 1024, 0, 6, 4102, 4038, 4038, 4125, 4095, 4045, 0, 1, 6102, -90.000, 0.000, -29.000, 0.000, 0.000, -1.200, 0.0, , , , , , 98, , , 47, 47, 47
38.8912998, -120.7647870, 1.400, 13:00:26.979, 10, 0.00, 0.27, 98, 0.100, -0.600, -28.800, 1222, 100, 100, 24, 24379, -15447, 5399, 5510, 10, 14, 1527019226.980, 124, 0, 1024, 1024, 1024, 1024, 0, 6, 4102, 4038, 4038, 4125, 4095, 4045, 0, 1, 6202, -90.000, 0.000, -29.000, 0.000, 0.000, -1.200, 0.0, , , , , , 98, , , 47, 47, 47
38.8912998, -120.7647871, 1.700, 13:00:27.080, 12, 0.00, 0.26, 98, 0.000, -0.200, -28.900, 1222, 100, 100, 24, 24379, -15447, 5399, 5510, 10, 14, 1527019227.081, 9, 0, 1024, 1024, 1024, 1024, 0, 6, 4102, 4038, 4038, 4125, 4095, 4045, 0, 1, 6303, -89.900, 0.000, -29.100, 0.000, 0.000, -1.500, 0.0, , , , , , 98, , , 47, 47, 47
38.8912998, -120.7647871, 1.700, 13:00:27.179, 12, 0.00, 0.26, 98, 0.000, -0.200, -28.900, 1222, 100, 100, 24, 24379, -15447, 5399, 5510, 10, 14, 1527019227.180, 108, 0, 1024, 1024, 1024, 1024, 0, 6, 4102, 4038, 4038, 4125, 4095, 4045, 0, 1, 6402, -89.900, 0.000, -29.100, 0.000, 0.000, -1.500, 0.0, , , , , , 98, , , 47, 47, 47
38.8912998, -120.7647870, 1.900, 13:00:27.279, 12, 0.00, 0.27, 98, 0.000, 0.000, -28.900, 1222, 100, 100, 24, 24379, -15447, 5399, 5510, 10, 14, 1527019227.279, 59, 0, 1024, 1024, 1024, 1024, 0, 6, 4102, 4038, 4038, 4125, 4095, 4045, 0, 1, 6501, -89.900, 0.000, -29.100, 0.000, 0.000, -1.800, 0.0, , , , , , 98, , , 47, 47, 47
38.8912999, -120.7647870, 2.800, 13:00:27.488, 12, 0.00, 0.26, 98, 0.000, 0.000, -29.300, 1222, 100, 100, 24, 23872, -21660, 5399, 5510, 10, 14, 1527019227.488, 13, 0, 1024, 1024, 1024, 1024, 0, 6, 4102, 4038, 4038, 4125, 4095, 4045, 0, 1, 6711, -89.900, 0.000, -29.100, 0.000, 0.000, -2.700, 0.0, , , , , , 98, , , 47, 47, 47
38.8912999, -120.7647872, 3.100, 13:00:27.580, 11, 0.00, 0.25, 98, -0.100, 0.000, -29.300, 1222, 100, 99, 24, 23872, -21660, 5399, 5510, 10, 14, 1527019227.582, 50, 0, 1024, 1024, 1024, 1024, 0, 6, 4102, 4038, 4038, 4125, 4095, 4045, 0, 1, 6804, -89.900, 0.000, -29.000, 0.000, 0.000, -2.800, 0.0, , , , , , 98, , , 47, 47, 47
38.8912998, -120.7647874, 3.400, 13:00:27.678, 11, 0.00, 0.25, 98, 0.000, 0.000, -29.200, 1222, 100, 99, 24, 23872, -21660, 5399, 5510, 10, 14, 1527019227.681, 58, 0, 1024, 1024, 1024, 1024, 0, 6, 4102, 4038, 4038, 4125, 4095, 4045, 0, 1, 6903, -89.900, 0.000, -29.100, 0.000, 0.000, -2.900, 0.0, , , , , , 98, , , 47, 47, 47
38.8913001, -120.7647882, 4.100, 13:00:27.779, 12, 0.00, 0.20, 98, 0.700, 0.700, -29.100, 1222, 100, 99, 24, 23872, -21660, 5399, 5510, 10, 14, 1527019227.780, 12, 0, 1024, 1024, 1024, 1024, 0, 6, 4102, 4038, 4038, 4125, 4095, 4045, 0, 1, 7003, -89.900, 0.000, -29.100, 0.000, 0.000, -3.100, 0.0, , , , , , 98, , , 47, 47, 47
38.8913001, -120.7647882, 4.100, 13:00:27.879, 12, 0.00, 0.20, 98, 0.700, 0.700, -29.100, 1222, 100, 99, 24, 23872, -21660, 5399, 5510, 10, 14, 1527019227.879, 111, 0, 1024, 1024, 1024, 1024, 0, 6, 4102, 4038, 4038, 4125, 4095, 4045, 0, 1, 7101, -89.900, 0.000, -29.100, 0.000, 0.000, -3.100, 0.0, , , , , , 98, , , 47, 47, 47
38.8913002, -120.7647884, 4.400, 13:00:27.979, 12, 0.00, 0.19, 98, 1.000, 1.300, -29.000, 1222, 100, 99, 24, 23872, -21660, 5399, 5510, 10, 14, 1527019227.982, 91, 0, 1024, 1024, 1024, 1024, 0, 6, 3951, 3966, 3963, 3973, 3982, 3964, 0, 1, 7204, -89.900, 0.000, -29.000, 0.000, 0.000, -3.100, 0.0, , , , , , 98, , , 47, 47, 47
38.8913002, -120.7647886, 4.700, 13:00:28.079, 12, 0.00, 0.18, 98, 1.100, 1.500, -28.900, 1222, 100, 99, 24, 23872, -21660, 5399, 5510, 10, 14, 1527019228.080, 93, 0, 1024, 1024, 1024, 1024, 0, 6, 3951, 3966, 3963, 3973, 3982, 3964, 0, 1, 7302, -89.900, 0.000, -29.000, 0.000, 0.000, -3.100, 0.0, , , , , , 98, , , 47, 47, 47
38.8913002, -120.7647886, 5.100, 13:00:28.179, 12, 0.00, 0.18, 98, 1.200, 1.400, -28.900, 1222, 100, 99, 24, 23872, -21660, 5399, 5510, 10, 14, 1527019228.180, 87, 0, 1024, 1024, 1024, 1024, 0, 6, 3951, 3966, 3963, 3973, 3982, 3964, 0, 1, 7402, -89.900, 0.000, -29.100, 0.000, 0.000, -3.200, 0.0, , , , , , 98, , , 47, 47, 47
38.8913003, -120.7647886, 5.400, 13:00:28.300, 12, 0.00, 0.17, 98, 1.000, 1.300, -28.800, 1222, 100, 99, 24, 23872, -21660, 5399, 5510, 10, 14, 1527019228.301, 19, 0, 1024, 1024, 1024, 1024, 0, 6, 3951, 3966, 3963, 3973, 3982, 3964, 0, 1, 7523, -89.900, 0.000, -29.000, 0.000, 0.000, -3.200, 0.0, , , , , , 98, , , 47, 47, 47
38.8913003, -120.7647886, 5.400, 13:00:28.378, 12, 0.00, 0.17, 98, 1.000, 1.300, -28.800, 1222, 100, 99, 24, 23872, -21660, 5399, 5510, 10, 14, 1527019228.378, 96, 0, 1024, 1024, 1024, 1024, 0, 6, 3951, 3966, 3963, 3973, 3982, 3964, 0, 1, 7600, -89.900, 0.000, -29.000, 0.000, 0.000, -3.200, 0.0, , , , , , 98, , , 47, 47, 47
38.8913002, -120.7647886, 5.700, 13:00:28.478, 14, 0.00, 0.18, 98, 0.800, 1.100, -28.800, 1222, 100, 99, 24, 23872, -21660, 5399, 5510, 10, 14, 1527019228.479, 96, 0, 1024, 1024, 1024, 1024, 0, 6, 3951, 3966, 3963, 3973, 3982, 3964, 0, 1, 7701, -89.900, 0.000, -29.000, 0.000, 0.000, -3.200, 0.0, , , , , , 98, , , 47, 47, 47
38.8913002, -120.7647886, 6.100, 13:00:28.579, 14, 0.00, 0.18, 98, 0.600, 0.700, -28.700, 1222, 100, 99, 24, 23872, -21660, 5399, 5510, 10, 14, 1527019228.579, 63, 0, 1024, 1024, 1024, 1024, 0, 6, 3951, 3966, 3963, 3973, 3982, 3964, 0, 1, 7802, -90.000, 0.000, -29.100, 0.000, 0.000, -3.200, 0.0, , , , , , 98, , , 47, 47, 47
38.8913000, -120.7647882, 6.700, 13:00:28.679, 14, 0.00, 0.20, 98, 0.200, -0.200, -28.700, 1222, 100, 99, 24, 23872, -21660, 5399, 5510, 10, 14, 1527019228.679, 38, 0, 1024, 1024, 1024, 1024, 0, 6, 3951, 3966, 3963, 3973, 3982, 3964, 0, 1, 7901, -90.000, 0.000, -29.100, 0.000, 0.000, -3.100, 0.0, , , , , , 98, , , 47, 47, 47
38.8912999, -120.7647880, 7.100, 13:00:28.778, 15, 0.10, 0.22, 98, 0.000, -0.500, -28.700, 1222, 100, 99, 24, 23872, -21660, 5399, 5510, 10, 14, 1527019228.779, 57, 0, 1024, 1024, 1024, 1024, 0, 6, 3951, 3966, 3963, 3973, 3982, 3964, 0, 1, 8001, -90.000, 0.000, -29.000, 0.000, 0.100, -3.100, 0.0, , , , , , 98, , , 47, 47, 47
38.8912999, -120.7647880, 7.100, 13:00:28.879, 15, 0.10, 0.22, 98, 0.000, -0.500, -28.700, 1222, 100, 99, 24, 23872, -21660, 5399, 5510, 10, 14, 1527019228.880, 158, 0, 1024, 1024, 1024, 1024, 0, 6, 3951, 3966, 3963, 3973, 3982, 3964, 0, 1, 8102, -90.000, 0.000, -29.000, 0.000, 0.100, -3.100, 0.0, , , , , , 98, , , 47, 47, 47
38.8912998, -120.7647878, 7.700, 13:00:28.978, 14, 0.00, 0.24, 98, -0.400, -1.000, -28.800, 1222, 100, 99, 24, 23748, -21340, 5399, 5510, 10, 14, 1527019228.979, 21, 0, 1024, 1024, 1024, 1024, 0, 6, 3951, 3966, 3963, 3973, 3982, 3964, 0, 1, 8201, -90.000, 0.000, -29.100, 0.000, 0.000, -3.100, 0.0, , , , , , 98, , , 47, 47, 47
38.8912998, -120.7647878, 7.700, 13:00:29.079, 14, 0.00, 0.24, 98, -0.400, -1.000, -28.800, 1222, 100, 99, 24, 23748, -21340, 5399, 5510, 10, 14, 1527019229.080, 122, 0, 1024, 1024, 1024, 1024, 0, 6, 3953, 3933, 3981, 3974, 3985, 3968, 0, 1, 8302, -90.000, 0.000, -29.100, 0.000, 0.000, -3.100, 0.0, , , , , , 98, , , 47, 47, 47
38.8912997, -120.7647877, 8.100, 13:00:29.179, 14, 0.00, 0.25, 98, -0.400, -1.100, -28.900, 1222, 100, 100, 24, 23748, -21340, 5399, 5510, 10, 14, 1527019229.180, 95, 0, 1024, 1024, 1024, 1024, 0, 6, 3953, 3933, 3981, 3974, 3985, 3968, 0, 1, 8402, -90.000, 0.000, -29.100, 0.000, 0.000, -3.100, 0.0, , , , , , 98, , , 47, 47, 47
38.8912997, -120.7647877, 8.100, 13:00:29.279, 14, 0.00, 0.25, 98, -0.400, -1.100, -28.900, 1222, 100, 100, 24, 23748, -21340, 5399, 5510, 10, 14, 1527019229.279, 194, 0, 1024, 1024, 1024, 1024, 0, 6, 3953, 3933, 3981, 3974, 3985, 3968, 0, 1, 8501, -90.000, 0.000, -29.100, 0.000, 0.000, -3.100, 0.0, , , , , , 98, , , 47, 47, 47
38.8912996, -120.7647876, 8.400, 13:00:29.381, 16, 0.00, 0.27, 98, -0.500, -1.000, -29.100, 1222, 100, 100, 24, 23748, -21340, 5399, 5510, 10, 14, 1527019229.382, 75, 0, 1024, 1024, 1024, 1024, 0, 6, 3953, 3933, 3981, 3974, 3985, 3968, 0, 1, 8604, -90.000, 0.000, -29.100, 0.000, 0.000, -3.100, 0.0, , , , , , 98, , , 47, 47, 47
38.8912994, -120.7647876, 9.000, 13:00:29.491, 15, 0.00, 0.29, 98, -0.100, -0.800, -29.300, 1222, 100, 100, 24, 23748, -21340, 5399, 5510, 10, 14, 1527019229.491, 11, 0, 1024, 1024, 1024, 1024, 0, 6, 3953, 3933, 3981, 3974, 3985, 3968, 0, 1, 8713, -90.000, 0.000, -29.100, 0.000, 0.000, -3.100, 0.0, , , , , , 98, , , 47, 47, 47
38.8912994, -120.7647876, 9.000, 13:00:29.579, 15, 0.00, 0.29, 98, -0.100, -0.800, -29.300, 1222, 100, 100, 24, 23748, -21340, 5399, 5510, 10, 14, 1527019229.579, 99, 0, 1024, 1024, 1024, 1024, 0, 6, 3953, 3933, 3981, 3974, 3985, 3968, 0, 1, 8801, -90.000, 0.000, -29.100, 0.000, 0.000, -3.100, 0.0, , , , , , 98, , , 47, 47, 47
38.8912993, -120.7647875, 9.400, 13:00:29.679, 15, 0.00, 0.30, 98, 0.100, -0.700, -29.300, 1222, 100, 100, 24, 23748, -21340, 5399, 5510, 10, 14, 1527019229.679, 78, 0, 1024, 1024, 1024, 1024, 0, 6, 3953, 3933, 3981, 3974, 3985, 3968, 0, 1, 8902, -90.000, 0.000, -29.100, 0.000, 0.000, -3.100, 0.0, , , , , , 98, , , 47, 47, 47
38.8912993, -120.7647876, 9.700, 13:00:29.779, 14, 0.00, 0.30, 98, 0.300, -0.600, -29.100, 1222, 100, 100, 24, 23748, -21340, 5399, 5510, 10, 14, 1527019229.780, 78, 0, 1024, 1024, 1024, 1024, 0, 6, 3953, 3933, 3981, 3974, 3985, 3968, 0, 1, 9002, -90.000, 0.000, -29.100, 0.000, 0.000, -3.000, 0.0, , , , , , 98, , , 47, 47, 47
38.8912994, -120.7647876, 10.000, 13:00:29.879, 14, 0.00, 0.29, 98, 0.400, -0.500, -28.800, 1222, 100, 100, 24, 23748, -21340, 5399, 5510, 10, 14, 1527019229.880, 96, 0, 1024, 1024, 1024, 1024, 0, 6, 3953, 3933, 3981, 3974, 3985, 3968, 0, 1, 9102, -89.900, 0.000, -29.000, 0.000, 0.000, -3.000, 0.0, , , , , , 98, , , 47, 47, 47
38.8912993, -120.7647877, 10.300, 13:00:29.978, 15, 0.00, 0.29, 98, 0.700, -0.300, -28.600, 1222, 100, 100, 24, 23748, -21340, 5399, 5510, 10, 14, 1527019229.978, 61, 0, 1024, 1024, 1024, 1024, 0, 6, 3953, 3933, 3981, 3974, 3985, 3968, 0, 1, 9201, -89.900, 0.000, -29.000, 0.000, 0.000, -3.000, 0.0, , , , , , 98, , , 47, 47, 47
38.8912993, -120.7647878, 10.900, 13:00:30.079, 14, 0.00, 0.29, 98, 0.800, 0.000, -28.300, 1222, 100, 100, 24, 23918, -18093, 5399, 5510, 10, 14, 1527019230.079, 15, 0, 1024, 1024, 1024, 1024, 0, 6, 3953, 3933, 3981, 3974, 3985, 3968, 0, 1, 9301, -89.900, 0.000, -29.100, 0.000, 0.000, -3.000, 0.0, , , , , , 98, , , 47, 47, 47
38.8912993, -120.7647878, 10.900, 13:00:30.179, 14, 0.00, 0.29, 98, 0.800, 0.000, -28.300, 1222, 100, 100, 24, 23918, -18093, 5399, 5510, 10, 14, 1527019230.179, 115, 0, 1024, 1024, 1024, 1024, 0, 6, 3964, 3965, 4007, 3986, 4011, 3990, 0, 1, 9401, -89.900, 0.000, -29.100, 0.000, 0.000, -3.000, 0.0, , , , , , 98, , , 47, 47, 47
38.8912994, -120.7647878, 11.200, 13:00:30.279, 14, 0.00, 0.29, 98, 0.600, 0.100, -28.400, 1222, 100, 100, 24, 23918, -18093, 5399, 5510, 10, 14, 1527019230.280, 29, 0, 1024, 1024, 1024, 1024, 0, 6, 3964, 3965, 4007, 3986, 4011, 3990, 0, 1, 9502, -89.900, 0.000, -29.100, 0.000, 0.000, -3.000, 0.0, , , , , , 98, , , 47, 47, 47
38.8912994, -120.7647878, 11.500, 13:00:30.378, 15, 0.00, 0.28, 98, 0.300, 0.300, -28.500, 1222, 100, 100, 24, 23918, -18093, 5399, 5510, 10, 14, 1527019230.379, 16, 0, 1024, 1024, 1024, 1024, 0, 6, 3964, 3965, 4007, 3986, 4011, 3990, 0, 1, 9601, -89.900, 0.000, -29.100, 0.000, 0.000, -2.900, 0.0, , , , , , 98, , , 47, 47, 47
38.8912994, -120.7647878, 11.500, 13:00:30.479, 15, 0.00, 0.28, 98, 0.300, 0.300, -28.500, 1222, 100, 100, 24, 23918, -18093, 5399, 5510, 10, 14, 1527019230.479, 117, 0, 1024, 1024, 1024, 1024, 0, 6, 3964, 3965, 4007, 3986, 4011, 3990, 0, 1, 9701, -89.900, 0.000, -29.100, 0.000, 0.000, -2.900, 0.0, , , , , , 98, , , 47, 47, 47
38.8912994, -120.7647879, 12.100, 13:00:30.578, 15, 0.00, 0.28, 98, 0.200, 0.400, -28.700, 1222, 100, 100, 24, 23918, -18093, 5399, 5510, 10, 14, 1527019230.579, 61, 0, 1024, 1024, 1024, 1024, 0, 6, 3964, 3965, 4007, 3986, 4011, 3990, 0, 1, 9801, -89.900, 0.000, -29.000, 0.000, 0.000, -2.900, 0.0, , , , , , 98, , , 47, 47, 47
38.8912995, -120.7647880, 12.700, 13:00:30.678, 14, 0.00, 0.26, 98, 0.100, 0.500, -28.800, 1222, 100, 100, 24, 23918, -18093, 5399, 5510, 10, 14, 1527019230.679, 12, 0, 1024, 1024, 1024, 1024, 0, 6, 3964, 3965, 4007, 3986, 4011, 3990, 0, 1, 9901, -89.900, 0.000, -29.100, 0.000, 0.000, -2.900, 0.0, , , , , , 98, , , 47, 47, 47
38.8912995, -120.7647880, 12.700, 13:00:30.779, 14, 0.00, 0.26, 98, 0.100, 0.500, -28.800, 1222, 100, 100, 24, 23918, -18093, 5399, 5510, 10, 14, 1527019230.782, 115, 0, 1024, 1024, 1024, 1024, 0, 6, 3964, 3965, 4007, 3986, 4011, 3990, 0, 1, 10004, -89.900, 0.000, -29.100, 0.000, 0.000, -2.900, 0.0, , , , , , 98, , , 47, 47, 47
38.8912995, -120.7647879, 13.400, 13:00:30.879, 15, 0.00, 0.26, 98, -0.100, 0.300, -28.800, 1222, 100, 100, 24, 23918, -18093, 5399, 5510, 10, 14, 1527019230.881, 64, 0, 1024, 1024, 1024, 1024, 0, 6, 3964, 3965, 4007, 3986, 4011, 3990, 0, 1, 10103, -89.900, 0.000, -29.100, 0.000, 0.000, -3.000, 0.0, , , , , , 98, , , 47, 47, 47
38.8912995, -120.7647879, 13.400, 13:00:30.979, 15, 0.00, 0.26, 98, -0.100, 0.300, -28.800, 1222, 100, 100, 24, 23918, -18093, 5399, 5510, 10, 14, 1527019230.980, 162, 0, 1024, 1024, 1024, 1024, 0, 6, 3964, 3965, 4007, 3986, 4011, 3990, 0, 1, 10202, -89.900, 0.000, -29.100, 0.000, 0.000, -3.000, 0.0, , , , , , 98, , , 47, 47, 47
38.8912996, -120.7647880, 13.700, 13:00:31.079, 15, 0.00, 0.26, 98, -0.200, 0.300, -28.800, 1222, 100, 100, 24, 23918, -18093, 5399, 5510, 10, 14, 1527019231.081, 97, 0, 1024, 1024, 1024, 1024, 0, 6, 3964, 3965, 4007, 3986, 4011, 3990, 0, 1, 10303, -89.900, 0.000, -29.100, 0.000, 0.000, -2.900, 0.0, , , , , , 98, , , 47, 47, 47
38.8912996, -120.7647879, 14.000, 13:00:31.179, 15, 0.00, 0.25, 98, -0.100, 0.400, -28.900, 1222, 100, 100, 24, 23948, -17814, 5399, 5510, 10, 14, 1527019231.179, 94, 0, 1024, 1024, 1024, 1024, 0, 6, 3970, 3969, 4012, 3989, 4011, 3990, 0, 1, 10401, -89.900, 0.000, -29.100, 0.000, 0.000, -3.000, 0.0, , , , , , 98, , , 47, 47, 47
38.8912997, -120.7647879, 14.600, 13:00:31.279, 15, 0.00, 0.25, 98, 0.000, 0.700, -29.100, 1222, 100, 98, 24, 23948, -17814, 5399, 5510, 10, 14, 1527019231.279, 65, 0, 1024, 1024, 1024, 1024, 0, 6, 3970, 3969, 4012, 3989, 4011, 3990, 0, 1, 10501, -89.900, 0.000, -29.100, 0.000, 0.000, -2.900, 0.0, , , , , , 98, , , 47, 47, 47
38.8912997, -120.7647879, 14.600, 13:00:31.379, 15, 0.00, 0.25, 98, 0.000, 0.700, -29.100, 1222, 100, 98, 24, 23948, -17814, 5399, 5510, 10, 14, 1527019231.381, 166, 0, 1024, 1024, 1024, 1024, 0, 6, 3970, 3969, 4012, 3989, 4011, 3990, 0, 1, 10603, -89.900, 0.000, -29.100, 0.000, 0.000, -2.900, 0.0, , , , , , 98, , , 47, 47, 47
38.8912998, -120.7647878, 15.200, 13:00:31.501, 16, 0.00, 0.24, 98, -0.200, 0.800, -29.300, 1222, 100, 98, 24, 23948, -17814, 5399, 5510, 10, 14, 1527019231.501, 14, 0, 1024, 1024, 1024, 1024, 0, 6, 3970, 3969, 4012, 3989, 4011, 3990, 0, 1, 10723, -89.900, 0.000, -29.100, 0.000, 0.000, -2.900, 0.0, , , , , , 98, , , 47, 47, 47
38.8912999, -120.7647878, 15.400, 13:00:31.578, 16, 0.00, 0.23, 98, -0.300, 0.900, -29.400, 1222, 100, 98, 24, 23948, -17814, 5399, 5510, 10, 14, 1527019231.579, 34, 0, 1024, 1024, 1024, 1024, 0, 6, 3970, 3969, 4012, 3989, 4011, 3990, 0, 1, 10801, -89.900, 0.000, -29.100, 0.000, 0.000, -2.900, 0.0, , , , , , 98, , , 47, 47, 47
38.8912999, -120.7647877, 15.700, 13:00:31.679, 16, 0.00, 0.24, 98, -0.500, 1.000, -29.400, 1222, 100, 98, 24, 23948, -17814, 5399, 5510, 10, 14, 1527019231.679, 68, 0, 1024, 1024, 1024, 1024, 0, 6, 3970, 3969, 4012, 3989, 4011, 3990, 0, 1, 10902, -89.900, 0.000, -29.100, 0.000, 0.000, -2.900, 0.0, , , , , , 98, , , 47, 47, 47
38.8912998, -120.7647876, 16.000, 13:00:31.779, 16, 0.00, 0.24, 98, -0.700, 0.800, -29.400, 1222, 100, 98, 24, 23948, -17814, 5399, 5510, 10, 14, 1527019231.779, 27, 0, 1024, 1024, 1024, 1024, 0, 6, 3970, 3969, 4012, 3989, 4011, 3990, 0, 1, 11002, -89.900, 0.000, -29.100, 0.000, 0.000, -3.000, 0.0, , , , , , 98, , , 47, 47, 47
38.8912998, -120.7647876, 16.300, 13:00:31.879, 17, 0.00, 0.24, 98, -0.600, 0.500, -29.400, 1222, 100, 98, 24, 23948, -17814, 5399, 5510, 10, 14, 1527019231.880, 26, 0, 1024, 1024, 1024, 1024, 0, 6, 3970, 3969, 4012, 3989, 4011, 3990, 0, 1, 11102, -89.900, 0.000, -29.100, 0.000, 0.000, -2.900, 0.0, , , , , , 98, , , 47, 47, 47
38.8912998, -120.7647875, 16.600, 13:00:31.979, 17, 0.00, 0.24, 98, -0.400, 0.300, -29.300, 1222, 100, 98, 24, 23948, -17814, 5399, 5510, 10, 14, 1527019231.980, 27, 0, 1024, 1024, 1024, 1024, 0, 6, 3970, 3969, 4012, 3989, 4011, 3990, 0, 1, 11202, -90.000, 0.000, -29.100, 0.000, 0.000, -3.000, 0.0, , , , , , 98, , , 47, 47, 47
38.8912999, -120.7647875, 16.900, 13:00:32.079, 17, 0.00, 0.24, 98, -0.300, 0.200, -29.200, 1222, 100, 98, 24, 23932, -17761, 5399, 5510, 10, 14, 1527019232.080, 18, 0, 1024, 1024, 1024, 1024, 0, 6, 3970, 3969, 4012, 3989, 4011, 3990, 0, 1, 11302, -90.000, 0.000, -29.100, 0.000, 0.000, -2.900, 0.0, , , , , , 98, , , 47, 47, 47
38.8912999, -120.7647875, 17.200, 13:00:32.190, 17, 0.00, 0.24, 98, -0.300, 0.300, -29.100, 1222, 100, 98, 24, 23932, -17761, 5399, 5510, 10, 14, 1527019232.191, 18, 0, 1024, 1024, 1024, 1024, 0, 6, 3967, 3968, 4004, 3986, 4009, 3986, 0, 1, 11413, -89.900, 0.000, -29.100, 0.000, 0.000, -2.900, 0.0, , , , , , 98, , , 47, 47, 47
38.8912999, -120.7647875, 17.200, 13:00:32.279, 17, 0.00, 0.24, 98, -0.300, 0.300, -29.100, 1222, 100, 98, 24, 23932, -17761, 5399, 5510, 10, 14, 1527019232.280, 106, 0, 1024, 1024, 1024, 1024, 0, 6, 3967, 3968, 4004, 3986, 4009, 3986, 0, 1, 11502, -89.900, 0.000, -29.100, 0.000, 0.000, -2.900, 0.0, , , , , , 98, , , 47, 47, 47
38.8913000, -120.7647874, 17.500, 13:00:32.379, 17, 0.00, 0.23, 98, -0.400, 0.700, -29.000, 1222, 100, 98, 24, 23932, -17761, 5399, 5510, 10, 14, 1527019232.379, 54, 0, 1024, 1024, 1024, 1024, 0, 6, 3967, 3968, 4004, 3986, 4009, 3986, 0, 1, 11601, -89.900, 0.000, -29.100, 0.000, 0.000, -3.000, 0.0, , , , , , 98, , , 47, 47, 47
38.8913001, -120.7647874, 17.800, 13:00:32.479, 17, 0.00, 0.23, 98, -0.700, 1.000, -29.000, 1222, 100, 98, 24, 23932, -17761, 5399, 5510, 10, 14, 1527019232.479, 41, 0, 1024, 1024, 1024, 1024, 0, 6, 3967, 3968, 4004, 3986, 4009, 3986, 0, 1, 11701, -89.900, 0.000, -29.100, 0.000, 0.000, -2.900, 0.0, , , , , , 98, , , 47, 47, 47
38.8913001, -120.7647874, 18.100, 13:00:32.579, 17, 0.00, 0.23, 98, -0.800, 1.200, -29.000, 1222, 100, 98, 24, 23932, -17761, 5399, 5510, 10, 14, 1527019232.579, 38, 0, 1024, 1024, 1024, 1024, 0, 6, 3967, 3968, 4004, 3986, 4009, 3986, 0, 1, 11801, -89.900, 0.000, -29.100, 0.000, 0.000, -2.900, 0.0, , , , , , 98, , , 47, 47, 47
38.8913001, -120.7647873, 18.400, 13:00:32.679, 17, 0.00, 0.23, 98, -0.800, 1.000, -29.000, 1222, 100, 98, 24, 23932, -17761, 5399, 5510, 10, 14, 1527019232.679, 74, 0, 1024, 1024, 1024, 1024, 0, 6, 3967, 3968, 4004, 3986, 4009, 3986, 0, 1, 11901, -89.900, 0.000, -29.000, 0.000, 0.000, -2.900, 0.0, , , , , , 98, , , 47, 47, 47
38.8913002, -120.7647873, 19.000, 13:00:32.778, 17, 0.00, 0.22, 98, -0.700, 0.600, -29.000, 1222, 100, 100, 24, 23932, -17761, 5399, 5510, 10, 14, 1527019232.778, 13, 0, 1024, 1024, 1024, 1024, 0, 6, 3967, 3968, 4004, 3986, 4009, 3986, 0, 1, 12000, -89.900, 0.000, -29.100, 0.000, 0.000, -2.900, 0.0, , , , , , 98, , , 47, 47, 47
38.8913002, -120.7647872, 19.300, 13:00:32.879, 17, 0.00, 0.22, 98, -0.600, 0.700, -29.000, 1222, 100, 100, 24, 23932, -17761, 5399, 5510, 10, 14, 1527019232.881, 53, 0, 1024, 1024, 1024, 1024, 0, 6, 3967, 3968, 4004, 3986, 4009, 3986, 0, 1, 12103, -89.900, 0.000, -29.100, 0.000, 0.000, -3.000, 0.0, , , , , , 98, , , 47, 47, 47
38.8913002, -120.7647872, 20.000, 13:00:32.985, 17, 0.00, 0.23, 98, -0.400, 0.700, -28.800, 1222, 100, 100, 24, 23932, -17761, 5399, 5510, 10, 14, 1527019232.986, 7, 0, 1024, 1024, 1024, 1024, 0, 6, 3967, 3968, 4004, 3986, 4009, 3986, 0, 1, 12208, -89.900, 0.000, -29.100, 0.000, 0.000, -3.000, 0.0, , , , , , 98, , , 47, 47, 47
38.8913002, -120.7647872, 20.300, 13:00:33.079, 17, 0.00, 0.23, 98, -0.400, 0.700, -28.700, 1222, 100, 100, 24, 23941, -17531, 5399, 5510, 10, 14, 1527019233.080, 36, 0, 1024, 1024, 1024, 1024, 0, 6, 3967, 3968, 4004, 3986, 4009, 3986, 0, 1, 12302, -89.900, 0.000, -29.000, 0.000, 0.000, -2.900, 0.0, , , , , , 98, , , 47, 47, 47
38.8913002, -120.7647871, 20.600, 13:00:33.179, 17, 0.00, 0.23, 98, -0.500, 0.700, -28.600, 1222, 100, 100, 24, 23941, -17531, 5399, 5510, 10, 14, 1527019233.180, 26, 0, 1024, 1024, 1024, 1024, 0, 6, 3967, 3968, 4004, 3986, 4009, 3986, 0, 1, 12402, -89.900, 0.000, -29.000, 0.000, 0.000, -2.900, 0.0, , , , , , 98, , , 47, 47, 47
38.8913002, -120.7647871, 21.200, 13:00:33.291, 17, 0.00, 0.23, 98, -0.900, 0.700, -28.300, 1222, 100, 100, 24, 23941, -17531, 5399, 5510, 10, 14, 1527019233.292, 11, 0, 1024, 1024, 1024, 1024, 0, 6, 3967, 3968, 4004, 3986, 4009, 3986, 0, 1, 12514, -89.900, 0.000, -29.000, 0.000, 0.000, -2.900, 0.0, , , , , , 98, , , 47, 47, 47
38.8913002, -120.7647871, 21.200, 13:00:33.379, 17, 0.00, 0.23, 98, -0.900, 0.700, -28.300, 1222, 100, 100, 24, 23941, -17531, 5399, 5510, 10, 14, 1527019233.379, 99, 0, 1024, 1024, 1024, 1024, 0, 6, 3967, 3968, 4004, 3986, 4009, 3986, 0, 1, 12601, -89.900, 0.000, -29.000, 0.000, 0.000, -2.900, 0.0, , , , , , 98, , , 47, 47, 47
38.8913002, -120.7647871, 21.800, 13:00:33.478, 17, 0.00, 0.23, 98, -0.600, 0.400, -28.100, 1222, 100, 99, 24, 23941, -17531, 5399, 5510, 10, 14, 1527019233.478, 11, 0, 1024, 1024, 1024, 1024, 0, 6, 3967, 3968, 4004, 3986, 4009, 3986, 0, 1, 12701, -89.900, 0.000, -29.100, 0.000, 0.000, -3.000, 0.0, , , , , , 98, , , 47, 47, 47
38.8913002, -120.7647871, 21.800, 13:00:33.579, 17, 0.00, 0.23, 98, -0.600, 0.400, -28.100, 1222, 100, 99, 24, 23941, -17531, 5399, 5510, 10, 14, 1527019233.580, 112, 0, 1024, 1024, 1024, 1024, 0, 6, 3967, 3968, 4004, 3986, 4009, 3986, 0, 1, 12802, -90.000, 0.000, -29.100, 0.000, 0.000, -3.000, 0.0, , , , , , 98, , , 47, 47, 47
38.8913002, -120.7647872, 22.400, 13:00:33.679, 17, 0.00, 0.23, 98, -0.200, 0.400, -28.400, 1222, 100, 99, 24, 23941, -17531, 5399, 5510, 10, 14, 1527019233.679, 73, 0, 1024, 1024, 1024, 1024, 0, 6, 3975, 3975, 4008, 3994, 4006, 3994, 0, 1, 12901, -89.900, 0.000, -29.000, 0.000, 0.000, -2.900, 0.0, , , , , , 98, , , 47, 47, 47
38.8913002, -120.7647872, 22.700, 13:00:33.779, 17, 0.00, 0.22, 98, -0.100, 0.600, -28.600, 1222, 100, 99, 24, 23941, -17531, 5399, 5510, 10, 14, 1527019233.780, 62, 0, 1024, 1024, 1024, 1024, 0, 6, 3975, 3975, 4008, 3994, 4006, 3994, 0, 1, 13002, -89.900, 0.000, -29.000, 0.000, 0.000, -2.800, 0.0, , , , , , 98, , , 47, 47, 47
38.8913002, -120.7647873, 23.000, 13:00:33.879, 17, 0.00, 0.22, 98, 0.000, 0.700, -28.900, 1222, 100, 99, 24, 23941, -17531, 5399, 5510, 10, 14, 1527019233.880, 61, 0, 1024, 1024, 1024, 1024, 0, 6, 3975, 3975, 4008, 3994, 4006, 3994, 0, 1, 13102, -89.900, 0.000, -29.100, 0.000, 0.000, -2.900, 0.0, , , , , , 98, , , 47, 47, 47
38.8913002, -120.7647873, 23.300, 13:00:33.978, 17, 0.00, 0.22, 98, 0.100, 0.700, -29.200, 1222, 100, 99, 24, 23941, -17531, 5399, 5510, 10, 14, 1527019233.979, 60, 0, 1024, 1024, 1024, 1024, 0, 6, 3975, 3975, 4008, 3994, 4006, 3994, 0, 1, 13201, -89.900, 0.000, -29.100, 0.000, 0.000, -2.900, 0.0, , , , , , 98, , , 47, 47, 47
38.8913002, -120.7647873, 23.600, 13:00:34.079, 17, 0.00, 0.21, 98, 0.200, 0.700, -29.400, 1222, 100, 99, 24, 23941, -17531, 5399, 5510, 10, 14, 1527019234.080, 62, 0, 1024, 1024, 1024, 1024, 0, 6, 3975, 3975, 4008, 3994, 4006, 3994, 0, 1, 13302, -89.900, 0.000, -29.100, 0.000, 0.000, -2.900, 0.0, , , , , , 98, , , 47, 47, 47
38.8913002, -120.7647874, 23.900, 13:00:34.179, 17, 0.00, 0.21, 98, 0.200, 0.900, -29.600, 1222, 100, 99, 24, 23941, -17531, 5399, 5510, 10, 14, 1527019234.180, 77, 0, 1024, 1024, 1024, 1024, 0, 6, 3975, 3975, 4008, 3994, 4006, 3994, 0, 1, 13402, -89.900, 0.000, -29.100, 0.000, 0.000, -2.900, 0.0, , , , , , 98, , , 47, 47, 47
38.8913003, -120.7647874, 24.200, 13:00:34.279, 17, 0.00, 0.21, 98, 0.000, 1.100, -29.700, 1222, 100, 99, 24, 23941, -17531, 5399, 5510, 10, 14, 1527019234.280, 34, 0, 1024, 1024, 1024, 1024, 0, 6, 3975, 3975, 4008, 3994, 4006, 3994, 0, 1, 13502, -89.900, 0.000, -29.100, 0.000, 0.000, -2.900, 0.0, , , , , , 98, , , 47, 47, 47
38.8913003, -120.7647874, 24.500, 13:00:34.379, 17, 0.00, 0.20, 98, -0.200, 1.200, -29.600, 1222, 100, 99, 24, 23918, -17294, 5399, 5510, 10, 14, 1527019234.379, 41, 0, 1024, 1024, 1024, 1024, 0, 6, 3975, 3975, 4008, 3994, 4006, 3994, 0, 1, 13601, -89.900, 0.000, -29.100, 0.000, 0.000, -2.900, 0.0, , , , , , 98, , , 47, 47, 47
38.8913003, -120.7647874, 24.800, 13:00:34.478, 17, 0.00, 0.20, 98, -0.300, 1.200, -29.500, 1222, 100, 99, 24, 23918, -17294, 5399, 5510, 10, 14, 1527019234.478, 56, 0, 1024, 1024, 1024, 1024, 0, 6, 3975, 3975, 4008, 3994, 4006, 3994, 0, 1, 13700, -89.900, 0.000, -29.100, 0.000, 0.000, -2.900, 0.0, , , , , , 98, , , 47, 47, 47
38.8913003, -120.7647874, 25.100, 13:00:34.579, 17, 0.00, 0.20, 98, -0.500, 1.100, -29.400, 1222, 100, 99, 24, 23918, -17294, 5399, 5510, 10, 14, 1527019234.580, 48, 0, 1024, 1024, 1024, 1024, 0, 6, 3969, 3964, 3995, 3991, 4006, 3981, 0, 1, 13802, -89.900, 0.000, -29.100, 0.000, 0.000, -3.000, 0.0, , , , , , 98, , , 47, 47, 47
38.8913004, -120.7647873, 25.400, 13:00:34.679, 17, 0.00, 0.20, 98, -0.600, 0.900, -29.300, 1222, 100, 99, 24, 23918, -17294, 5399, 5510, 10, 14, 1527019234.682, 48, 0, 1024, 1024, 1024, 1024, 0, 6, 3969, 3964, 3995, 3991, 4006, 3981, 0, 1, 13904, -89.900, 0.000, -29.100, 0.000, 0.000, -3.000, 0.0, , , , , , 98, , , 47, 47, 47
38.8913004, -120.7647873, 25.700, 13:00:34.779, 17, 0.00, 0.20, 98, -0.700, 0.900, -29.200, 1222, 100, 99, 24, 23918, -17294, 5399, 5510, 10, 14, 1527019234.779, 22, 0, 1024, 1024, 1024, 1024, 0, 6, 3969, 3964, 3995, 3991, 4006, 3981, 0, 1, 14002, -89.900, 0.000, -29.000, 0.000, 0.000, -3.000, 0.0, , , , , , 98, , , 47, 47, 47
38.8913004, -120.7647873, 26.000, 13:00:34.879, 17, 0.00, 0.20, 98, -0.700, 0.800, -29.200, 1222, 100, 99, 24, 23918, -17294, 5399, 5510, 10, 14, 1527019234.880, 30, 0, 1024, 1024, 1024, 1024, 0, 6, 3969, 3964, 3995, 3991, 4006, 3981, 0, 1, 14102, -89.900, 0.000, -29.100, 0.000, 0.000, -2.900, 0.0, , , , , , 98, , , 47, 47, 47
38.8913004, -120.7647873, 26.300, 13:00:34.979, 17, 0.00, 0.20, 98, -0.700, 0.900, -29.100, 1222, 100, 100, 24, 23918, -17294, 5399, 5510, 10, 14, 1527019234.980, 6, 0, 1024, 1024, 1024, 1024, 0, 6, 3969, 3964, 3995, 3991, 4006, 3981, 0, 1, 14202, -89.900, 0.000, -29.100, 0.000, 0.000, -2.900, 0.0, , , , , , 98, , , 47, 47, 47
38.8913004, -120.7647873, 26.600, 13:00:35.079, 17, 0.00, 0.20, 98, -0.700, 0.900, -29.100, 1222, 100, 100, 24, 23918, -17294, 5399, 5510, 10, 14, 1527019235.079, 18, 0, 1024, 1024, 1024, 1024, 0, 6, 3969, 3964, 3995, 3991, 4006, 3981, 0, 1, 14301, -89.900, 0.000, -29.000, 0.000, 0.000, -2.900, 0.0, , , , , , 98, , , 47, 47, 47
38.8913004, -120.7647873, 26.900, 13:00:35.179, 17, 0.00, 0.20, 98, -0.700, 1.100, -29.100, 1222, 100, 100, 24, 23918, -17294, 5399, 5510, 10, 14, 1527019235.179, 11, 0, 1024, 1024, 1024, 1024, 0, 6, 3969, 3964, 3995, 3991, 4006, 3981, 0, 1, 14401, -89.900, 0.000, -29.000, 0.000, 0.000, -2.900, 0.0, , , , , , 98, , , 47, 47, 47
38.8913004, -120.7647873, 27.200, 13:00:35.304, 17, 0.00, 0.20, 98, -0.600, 1.100, -29.100, 1222, 100, 100, 24, 23918, -17294, 5399, 5510, 10, 14, 1527019235.304, 7, 0, 1024, 1024, 1024, 1024, 0, 6, 3969, 3964, 3995, 3991, 4006, 3981, 0, 1, 14526, -89.900, 0.000, -29.100, 0.000, 0.000, -2.900, 0.0, , , , , , 98, , , 47, 47, 47
38.8913004, -120.7647873, 27.500, 13:00:35.378, 17, 0.00, 0.20, 98, -0.500, 1.100, -29.200, 1222, 100, 100, 25, 23918, -16806, 5399, 5510, 10, 14, 1527019235.379, 12, 0, 1024, 1024, 1024, 1024, 0, 6, 3969, 3964, 3995, 3991, 4006, 3981, 0, 1, 14601, -89.900, 0.000, -29.000, 0.000, 0.000, -2.900, 0.0, , , , , , 98, , , 47, 47, 47
38.8913003, -120.7647873, 27.800, 13:00:35.479, 17, 0.00, 0.21, 98, -0.500, 1.000, -29.200, 1222, 100, 100, 25, 23918, -16806, 5399, 5510, 10, 14, 1527019235.479, 15, 0, 1024, 1024, 1024, 1024, 0, 6, 3969, 3964, 3995, 3991, 4006, 3981, 0, 1, 14702, -89.900, 0.000, -29.100, 0.000, 0.000, -2.900, 0.0, , , , , , 98, , , 47, 47, 47
38.8913003, -120.7647873, 28.100, 13:00:35.578, 17, 0.00, 0.21, 98, -0.400, 0.700, -29.100, 1222, 100, 100, 25, 23918, -16806, 5399, 5510, 10, 14, 1527019235.579, 17, 0, 1024, 1024, 1024, 1024, 0, 6, 3960, 3961, 4007, 3981, 4003, 3984, 0, 1, 14801, -90.000, 0.000, -29.000, 0.000, 0.000, -2.900, 0.0, , , , , , 98, , , 47, 47, 47
38.8913003, -120.7647873, 28.100, 13:00:35.679, 17, 0.00, 0.21, 98, -0.400, 0.700, -29.100, 1222, 100, 100, 25, 23918, -16806, 5399, 5510, 10, 14, 1527019235.679, 118, 0, 1024, 1024, 1024, 1024, 0, 6, 3960, 3961, 4007, 3981, 4003, 3984, 0, 1, 14901, -90.000, 0.000, -29.000, 0.000, 0.000, -2.900, 0.0, , , , , , 98, , , 47, 47, 47
38.8913002, -120.7647872, 28.400, 13:00:35.779, 17, 0.00, 0.22, 98, -0.400, 0.300, -29.000, 1222, 100, 100, 25, 23918, -16806, 5399, 5510, 10, 14, 1527019235.780, 84, 0, 1024, 1024, 1024, 1024, 0, 6, 3960, 3961, 4007, 3981, 4003, 3984, 0, 1, 15002, -90.000, 0.000, -29.000, 0.000, 0.000, -2.800, 0.0, , , , , , 98, , , 47, 47, 47
38.8913002, -120.7647872, 29.000, 13:00:35.879, 17, 0.00, 0.23, 98, -0.500, 0.100, -28.600, 1222, 100, 100, 25, 23918, -16806, 5399, 5510, 10, 14, 1527019235.879, 83, 0, 1024, 1024, 1024, 1024, 0, 6, 3960, 3961, 4007, 3981, 4003, 3984, 0, 1, 15101, -90.000, 0.000, -29.100, 0.000, 0.000, -2.900, 0.0, , , , , , 98, , , 47, 47, 47
38.8913002, -120.7647872, 29.000, 13:00:35.978, 17, 0.00, 0.23, 98, -0.500, 0.100, -28.600, 1222, 100, 100, 25, 23918, -16806, 5399, 5510, 10, 14, 1527019235.983, 187, 0, 1024, 1024, 1024, 1024, 0, 6, 3960, 3961, 4007, 3981, 4003, 3984, 0, 1, 15205, -90.000, 0.000, -29.000, 0.000, 0.000, -2.900, 0.0, , , , , , 98, , , 47, 47, 47
38.8913001, -120.7647871, 29.600, 13:00:36.079, 17, 0.00, 0.24, 98, -0.600, 0.200, -28.400, 1222, 100, 100, 25, 23918, -16806, 5399, 5510, 10, 14, 1527019236.079, 56, 0, 1024, 1024, 1024, 1024, 0, 6, 3960, 3961, 4007, 3981, 4003, 3984, 0, 1, 15301, -90.000, 0.000, -29.100, 0.000, 0.000, -2.900, 0.0, , , , , , 98, , , 47, 47, 47
38.8913000, -120.7647871, 29.900, 13:00:36.179, 17, 0.00, 0.24, 98, -0.600, 0.200, -28.500, 1222, 100, 100, 25, 23918, -16806, 5399, 5510, 10, 14, 1527019236.180, 75, 0, 1024, 1024, 1024, 1024, 0, 6, 3960, 3961, 4007, 3981, 4003, 3984, 0, 1, 15402, -90.000, 0.000, -29.000, 0.000, 0.000, -2.900, 0.0, , , , , , 98, , , 47, 47, 47
38.8913000, -120.7647871, 30.100, 13:00:36.279, 17, 0.00, 0.25, 98, -0.400, 0.200, -28.800, 1222, 100, 100, 25, 23918, -16806, 5399, 5510, 10, 14, 1527019236.279, 56, 0, 1024, 1024, 1024, 1024, 0, 6, 3960, 3961, 4007, 3981, 4003, 3984, 0, 1, 15501, -90.000, 0.000, -29.100, 0.000, 0.000, -2.800, 0.0, , , , , , 98, , , 47, 47, 47
38.8913000, -120.7647871, 30.400, 13:00:36.379, 17, 0.00, 0.25, 98, -0.100, 0.200, -29.000, 1222, 100, 100, 25, 23926, -16598, 5399, 5510, 10, 14, 1527019236.381, 28, 0, 1024, 1024, 1024, 1024, 0, 6, 3960, 3961, 4007, 3981, 4003, 3984, 0, 1, 15603, -90.000, 0.000, -29.100, 0.000, 0.000, -2.900, 0.0, , , , , , 98, , , 47, 47, 47
38.8913000, -120.7647871, 30.400, 13:00:36.479, 17, 0.00, 0.25, 98, -0.100, 0.200, -29.000, 1222, 100, 100, 25, 23926, -16598, 5399, 5510, 10, 14, 1527019236.479, 127, 0, 1024, 1024, 1024, 1024, 0, 6, 3974, 3967, 4000, 3988, 4004, 3983, 0, 1, 15702, -89.900, 0.000, -29.100, 0.000, 0.000, -2.900, 0.0, , , , , , 98, , , 47, 47, 47
38.8913000, -120.7647870, 31.000, 13:00:36.579, 17, 0.00, 0.25, 98, -0.200, 0.500, -29.300, 1222, 100, 100, 25, 23926, -16598, 5399, 5510, 10, 14, 1527019236.580, 41, 0, 1024, 1024, 1024, 1024, 0, 6, 3974, 3967, 4000, 3988, 4004, 3983, 0, 1, 15802, -89.900, 0.000, -29.100, 0.000, 0.000, -3.000, 0.0, , , , , , 98, , , 47, 47, 47
38.8913000, -120.7647869, 31.300, 13:00:36.679, 17, 0.00, 0.25, 98, -0.700, 0.600, -29.400, 1222, 100, 100, 25, 23926, -16598, 5399, 5510, 10, 14, 1527019236.680, 33, 0, 1024, 1024, 1024, 1024, 0, 6, 3974, 3967, 4000, 3988, 4004, 3983, 0, 1, 15902, -89.900, 0.000, -29.100, 0.000, 0.000, -3.000, 0.0, , , , , , 98, , , 47, 47, 47
38.8913000, -120.7647869, 31.600, 13:00:36.779, 17, 0.00, 0.26, 98, -1.200, 0.500, -29.400, 1222, 100, 100, 25, 23926, -16598, 5399, 5510, 10, 14, 1527019236.779, 26, 0, 1024, 1024, 1024, 1024, 0, 6, 3974, 3967, 4000, 3988, 4004, 3983, 0, 1, 16001, -89.900, 0.000, -29.100, 0.000, 0.000, -3.000, 0.0, , , , , , 98, , , 47, 47, 47
38.8913000, -120.7647868, 31.900, 13:00:36.879, 17, 0.00, 0.26, 98, -1.600, 0.500, -29.400, 1222, 100, 100, 25, 23926, -16598, 5399, 5510, 10, 14, 1527019236.879, 40, 0, 1024, 1024, 1024, 1024, 0, 6, 3974, 3967, 4000, 3988, 4004, 3983, 0, 1, 16102, -89.900, 0.000, -29.100, 0.000, 0.000, -2.900, 0.0, , , , , , 98, , , 47, 47, 47
38.8913000, -120.7647867, 32.200, 13:00:36.979, 17, 0.00, 0.27, 98, -1.800, 0.500, -29.200, 1222, 100, 94, 25, 23926, -16598, 5399, 5510, 10, 14, 1527019236.979, 41, 0, 1024, 1024, 1024, 1024, 0, 6, 3974, 3967, 4000, 3988, 4004, 3983, 0, 1, 16202, -89.900, 0.000, -29.100, 0.000, 0.000, -2.900, 0.0, , , , , , 98, , , 47, 47, 47
38.8913000, -120.7647866, 32.500, 13:00:37.078, 17, 0.00, 0.27, 98, -2.000, 0.400, -29.000, 1222, 100, 94, 25, 23926, -16598, 5399, 5510, 10, 14, 1527019237.079, 40, 0, 1024, 1024, 1024, 1024, 0, 6, 3974, 3967, 4000, 3988, 4004, 3983, 0, 1, 16301, -90.000, 0.000, -29.100, 0.000, 0.000, -2.900, 0.0, , , , , , 98, , , 47, 47, 47
38.8913000, -120.7647866, 32.800, 13:00:37.189, 17, 0.00, 0.28, 98, -1.900, 0.300, -28.900, 1222, 100, 94, 25, 23926, -16598, 5399, 5510, 10, 14, 1527019237.190, 15, 0, 1024, 1024, 1024, 1024, 0, 6, 3974, 3967, 4000, 3988, 4004, 3983, 0, 1, 16412, -90.000, 0.000, -29.000, 0.000, 0.000, -3.000, 0.0, , , , , , 98, , , 47, 47, 47
38.8913000, -120.7647865, 33.200, 13:00:37.278, 17, 0.00, 0.28, 98, -1.500, 0.200, -28.900, 1222, 100, 94, 25, 23926, -16598, 5399, 5510, 10, 14, 1527019237.278, 43, 0, 1024, 1024, 1024, 1024, 0, 6, 3974, 3967, 4000, 3988, 4004, 3983, 0, 1, 16501, -89.900, 0.000, -29.100, 0.000, 0.000, -3.000, 0.0, , , , , , 98, , , 47, 47, 47
38.8912999, -120.7647865, 33.500, 13:00:37.379, 17, 0.00, 0.28, 98, -1.400, 0.100, -28.900, 1222, 100, 94, 25, 23857, -17066, 5344, 5510, 10, 14, 1527019237.379, 19, 0, 1024, 1024, 1024, 1024, 0, 6, 3974, 3967, 4000, 3988, 4004, 3983, 0, 1, 16601, -90.000, 0.000, -29.100, 0.000, 0.000, -3.000, 0.0, , , , , , 98, , , 47, 47, 47
38.8912999, -120.7647865, 33.800, 13:00:37.479, 17, 0.00, 0.29, 98, -1.400, 0.100, -28.900, 1222, 100, 94, 25, 23857, -17066, 5344, 5510, 10, 14, 1527019237.479, 38, 0, 1024, 1024, 1024, 1024, 0, 6, 3974, 3967, 4000, 3988, 4004, 3983, 0, 1, 16701, -90.000, 0.000, -29.100, 0.000, 0.000, -3.000, 0.0, , , , , , 98, , , 47, 47, 47
38.8912999, -120.7647865, 34.100, 13:00:37.579, 17, 0.00, 0.29, 98, -1.600, 0.200, -28.900, 1222, 100, 94, 25, 23857, -17066, 5344, 5510, 10, 14, 1527019237.579, 38, 0, 1024, 1024, 1024, 1024, 0, 6, 3955, 3958, 3992, 3981, 3992, 3974, 0, 1, 16801, -90.000, 0.000, -29.000, 0.000, 0.000, -3.000, 0.0, , , , , , 98, , , 47, 47, 47
38.8912998, -120.7647865, 34.400, 13:00:37.679, 17, 0.00, 0.29, 98, -1.300, 0.000, -28.800, 1222, 100, 94, 25, 23857, -17066, 5344, 5510, 10, 14, 1527019237.679, 25, 0, 1024, 1024, 1024, 1024, 0, 6, 3955, 3958, 3992, 3981, 3992, 3974, 0, 1, 16901, -90.000, 0.000, -29.100, 0.000, 0.000, -3.000, 0.0, , , , , , 98, , , 47, 47, 47
38.8912998, -120.7647865, 34.400, 13:00:37.779, 17, 0.00, 0.29, 98, -1.300, 0.000, -28.800, 1222, 100, 94, 25, 23857, -17066, 5344, 5510, 10, 14, 1527019237.779, 125, 0, 1024, 1024, 1024, 1024, 0, 6, 3955, 3958, 3992, 3981, 3992, 3974, 0, 1, 17001, -90.000, 0.000, -29.100, 0.000, 0.000, -3.000, 0.0, , , , , , 98, , , 47, 47, 47
38.8912998, -120.7647866, 34.700, 13:00:37.879, 17, 0.00, 0.30, 98, -1.000, -0.100, -28.700, 1222, 100, 94, 25, 23857, -17066, 5344, 5510, 10, 14, 1527019237.879, 88, 0, 1024, 1024, 1024, 1024, 0, 6, 3955, 3958, 3992, 3981, 3992, 3974, 0, 1, 17101, -90.000, 0.000, -29.100, 0.000, 0.000, -3.000, 0.0, , , , , , 98, , , 47, 47, 47
38.8912997, -120.7647866, 35.000, 13:00:37.978, 17, 0.00, 0.30, 98, -0.800, -0.300, -28.700, 1222, 100, 94, 25, 23857, -17066, 5344, 5510, 10, 14, 1527019237.978, 93, 0, 1024, 1024, 1024, 1024, 0, 6, 3955, 3958, 3992, 3981, 3992, 3974, 0, 1, 17201, -90.000, 0.000, -29.100, 0.000, 0.000, -3.000, 0.0, , , , , , 98, , , 47, 47, 47
38.8912997, -120.7647867, 36.000, 13:00:38.088, 17, 0.00, 0.30, 98, -0.900, -0.100, -28.600, 1222, 100, 98, 25, 23857, -17066, 5344, 5510, 10, 14, 1527019238.089, 13, 0, 1024, 1024, 1024, 1024, 0, 6, 3955, 3958, 3992, 3981, 3992, 3974, 0, 1, 17311, -90.000, 0.000, -29.100, 0.000, 0.000, -2.900, 0.0, , , , , , 98, , , 47, 47, 47
38.8912997, -120.7647867, 36.000, 13:00:38.179, 17, 0.00, 0.30, 98, -0.900, -0.100, -28.600, 1222, 100, 98, 25, 23857, -17066, 5344, 5510, 10, 14, 1527019238.179, 104, 0, 1024, 1024, 1024, 1024, 0, 6, 3955, 3958, 3992, 3981, 3992, 3974, 0, 1, 17402, -90.000, 0.000, -29.100, 0.000, 0.000, -2.900, 0.0, , , , , , 98, , , 47, 47, 47
38.8912997, -120.7647867, 36.000, 13:00:38.279, 17, 0.00, 0.30, 98, -0.900, -0.100, -28.600, 1222, 100, 98, 25, 23857, -17066, 5344, 5510, 10, 14, 1527019238.279, 203, 0, 1024, 1024, 1024, 1024, 0, 6, 3955, 3958, 3992, 3981, 3992, 3974, 0, 1, 17501, -90.000, 0.000, -29.100, 0.000, 0.000, -2.900, 0.0, , , , , , 98, , , 47, 47, 47
38.8912997, -120.7647867, 36.500, 13:00:38.379, 17, 0.00, 0.30, 97, -0.900, 0.100, -28.600, 1222, 100, 98, 25, 23829, -15673, 5344, 5510, 10, 14, 1527019238.379, 69, 0, 1024, 1024, 1024, 1024, 0, 6, 3955, 3958, 3992, 3981, 3992, 3974, 0, 1, 17601, -89.900, 0.000, -29.100, 0.000, 0.000, -2.800, 0.0, , , , , , 98, , , 47, 47, 47
38.8912997, -120.7647867, 36.800, 13:00:38.479, 17, 0.00, 0.29, 97, -1.200, 0.200, -28.600, 1222, 100, 100, 25, 23829, -15673, 5344, 5510, 10, 14, 1527019238.479, 47, 0, 1024, 1024, 1024, 1024, 0, 6, 3955, 3958, 3992, 3981, 3992, 3974, 0, 1, 17701, -89.900, 0.000, -29.100, 0.000, 0.000, -2.900, 0.0, , , , , , 98, , , 47, 47, 47
38.8912997, -120.7647867, 37.100, 13:00:38.579, 17, 0.00, 0.29, 97, -1.400, 0.000, -28.600, 1222, 100, 100, 25, 23829, -15673, 5344, 5510, 10, 14, 1527019238.579, 61, 0, 1024, 1024, 1024, 1024, 0, 6, 3955, 3958, 3992, 3981, 3992, 3974, 0, 1, 17801, -90.000, 0.000, -29.100, 0.000, 0.000, -2.800, 0.0, , , , , , 98, , , 47, 47, 47
38.8912997, -120.7647867, 37.400, 13:00:38.679, 17, 0.00, 0.29, 97, -1.400, -0.100, -28.800, 1222, 100, 100, 25, 23829, -15673, 5344, 5510, 10, 14, 1527019238.679, 82, 0, 1024, 1024, 1024, 1024, 0, 6, 3955, 3958, 3992, 3981, 3992, 3974, 0, 1, 17901, -90.000, 0.000, -29.100, 0.000, 0.000, -2.800, 0.0, , , , , , 98, , , 47, 47, 47
38.8912997, -120.7647867, 37.700, 13:00:38.779, 17, 0.00, 0.29, 97, -1.100, -0.100, -28.900, 1222, 100, 100, 25, 23829, -15673, 5344, 5510, 10, 14, 1527019238.779, 54, 0, 1024, 1024, 1024, 1024, 0, 6, 3955, 3958, 3992, 3981, 3992, 3974, 0, 1, 18001, -89.900, 0.000, -29.100, 0.000, 0.000, -2.800, 0.0, , , , , , 98, , , 47, 47, 47
38.8912997, -120.7647868, 38.000, 13:00:38.879, 17, 0.00, 0.29, 97, -0.400, 0.000, -29.100, 1222, 100, 100, 25, 23829, -15673, 5344, 5510, 10, 14, 1527019238.879, 68, 0, 1024, 1024, 1024, 1024, 0, 6, 3955, 3958, 3992, 3981, 3992, 3974, 0, 1, 18101, -90.000, 0.000, -29.100, 0.000, 0.000, -2.800, 0.0, , , , , , 98, , , 47, 47, 47
38.8912997, -120.7647868, 38.300, 13:00:38.979, 17, 0.00, 0.29, 97, -0.100, 0.100, -29.400, 1222, 100, 100, 25, 23829, -15673, 5344, 5510, 10, 14, 1527019238.979, 59, 0, 1024, 1024, 1024, 1024, 0, 6, 3976, 3974, 3997, 3973, 3989, 3975, 0, 1, 18201, -89.900, 0.000, -29.100, 0.000, 0.000, -2.800, 0.0, , , , , , 98, , , 47, 47, 47
38.8912997, -120.7647868, 38.600, 13:00:39.079, 17, 0.00, 0.29, 97, -0.700, 0.100, -29.900, 1222, 100, 100, 25, 23829, -15673, 5344, 5510, 10, 14, 1527019239.079, 63, 0, 1024, 1024, 1024, 1024, 0, 6, 3976, 3974, 3997, 3973, 3989, 3975, 0, 1, 18301, -89.900, 0.000, -29.100, 0.000, 0.000, -2.900, 0.0, , , , , , 98, , , 47, 47, 47
38.8912998, -120.7647868, 38.900, 13:00:39.179, 17, 0.00, 0.28, 97, -1.700, 0.100, -30.300, 1222, 100, 100, 25, 23829, -15673, 5344, 5510, 10, 14, 1527019239.179, 39, 0, 1024, 1024, 1024, 1024, 0, 6, 3976, 3974, 3997, 3973, 3989, 3975, 0, 1, 18401, -89.900, 0.000, -29.100, 0.000, 0.000, -2.800, 0.0, , , , , , 98, , , 47, 47, 47
38.8912998, -120.7647867, 39.100, 13:00:39.279, 17, 0.00, 0.28, 97, -2.100, 0.200, -30.200, 1222, 100, 100, 25, 23829, -15673, 5344, 5510, 10, 14, 1527019239.279, 64, 0, 1024, 1024, 1024, 1024, 0, 6, 3976, 3974, 3997, 3973, 3989, 3975, 0, 1, 18501, -89.900, 0.000, -29.100, 0.000, 0.000, -2.900, 0.0, , , , , , 98, , , 47, 47, 47
38.8912998, -120.7647867, 39.400, 13:00:39.379, 17, 0.00, 0.28, 97, -2.000, 0.100, -29.800, 1222, 100, 100, 25, 23829, -15673, 5344, 5510, 10, 14, 1527019239.379, 46, 0, 1024, 1024, 1024, 1024, 0, 6, 3976, 3974, 3997, 3973, 3989, 3975, 0, 1, 18601, -90.000, 0.000, -29.100, 0.000, 0.000, -2.900, 0.0, , , , , , 98, , , 47, 47, 47
38.8912999, -120.7647866, 39.700, 13:00:39.479, 17, 0.00, 0.28, 97, -1.800, 0.000, -29.400, 1222, 100, 98, 25, 23829, -15673, 5344, 5510, 10, 14, 1527019239.479, 48, 0, 1024, 1024, 1024, 1024, 0, 6, 3976, 3974, 3997, 3973, 3989, 3975, 0, 1, 18701, -90.000, 0.000, -29.100, 0.000, 0.000, -2.900, 0.0, , , , , , 98, , , 47, 47, 47
38.8912999, -120.7647866, 40.000, 13:00:39.579, 17, 0.00, 0.28, 97, -1.800, 0.000, -28.900, 1222, 100, 98, 25, 23829, -15673, 5344, 5510, 10, 14, 1527019239.579, 28, 0, 1024, 1024, 1024, 1024, 0, 6, 3976, 3974, 3997, 3973, 3989, 3975, 0, 1, 18802, -89.900, 0.000, -29.100, 0.000, 0.000, -2.900, 0.0, , , , , , 98, , , 47, 47, 47
38.8912999, -120.7647866, 40.300, 13:00:39.679, 17, 0.00, 0.28, 97, -1.600, 0.100, -28.500, 1222, 100, 98, 25, 23829, -15673, 5344, 5510, 10, 14, 1527019239.679, 26, 0, 1024, 1024, 1024, 1024, 0, 6, 3976, 3974, 3997, 3973, 3989, 3975, 0, 1, 18901, -89.900, 0.000, -29.000, 0.000, 0.000, -2.900, 0.0, , , , , , 98, , , 47, 47, 47
38.8912999, -120.7647866, 40.600, 13:00:39.778, 17, 0.00, 0.28, 97, -1.800, 0.000, -28.200, 1222, 100, 98, 25, 23829, -15673, 5344, 5510, 10, 14, 1527019239.779, 17, 0, 1024, 1024, 1024, 1024, 0, 6, 3976, 3974, 3997, 3973, 3989, 3975, 0, 1, 19001, -90.000, 0.000, -29.000, 0.000, 0.000, -2.900, 0.0, , , , , , 98, , , 47, 47, 47
38.8912999, -120.7647865, 40.900, 13:00:39.879, 17, 0.00, 0.28, 97, -1.900, -0.100, -27.900, 1222, 100, 98, 25, 23802, -17232, 5344, 5510, 10, 14, 1527019239.879, 29, 0, 1024, 1024, 1024, 1024, 0, 6, 3976, 3974, 3997, 3973, 3989, 3975, 0, 1, 19101, -90.000, 0.000, -29.100, 0.000, 0.000, -2.900, 0.0, , , , , , 98, , , 47, 47, 47
38.8913000, -120.7647865, 41.200, 13:00:39.979, 17, 0.00, 0.28, 97, -2.000, 0.000, -27.800, 1222, 100, 96, 25, 23802, -17232, 5344, 5510, 10, 14, 1527019239.980, 19, 0, 1024, 1024, 1024, 1024, 0, 6, 3948, 3942, 3995, 3965, 3977, 3995, 0, 1, 19202, -89.900, 0.000, -29.000, 0.000, 0.000, -3.000, 0.0, , , , , , 98, , , 47, 47, 47
38.8913000, -120.7647865, 41.200, 13:00:40.079, 17, 0.00, 0.28, 97, -2.000, 0.000, -27.800, 1222, 100, 96, 25, 23802, -17232, 5344, 5510, 10, 14, 1527019240.079, 118, 0, 1024, 1024, 1024, 1024, 0, 6, 3948, 3942, 3995, 3965, 3977, 3995, 0, 1, 19301, -89.900, 0.000, -29.000, 0.000, 0.000, -3.000, 0.0, , , , , , 98, , , 47, 47, 47
38.8913001, -120.7647863, 41.800, 13:00:40.186, 17, 0.00, 0.28, 97, -2.600, 0.300, -28.300, 1222, 100, 96, 25, 23802, -17232, 5344, 5510, 10, 14, 1527019240.187, 14, 0, 1024, 1024, 1024, 1024, 0, 6, 3948, 3942, 3995, 3965, 3977, 3995, 0, 1, 19409, -89.900, 0.000, -29.100, 0.000, 0.000, -3.000, 0.0, , , , , , 98, , , 47, 47, 47
38.8913001, -120.7647863, 41.800, 13:00:40.279, 17, 0.00, 0.28, 97, -2.600, 0.300, -28.300, 1222, 100, 96, 25, 23802, -17232, 5344, 5510, 10, 14, 1527019240.279, 107, 0, 1024, 1024, 1024, 1024, 0, 6, 3948, 3942, 3995, 3965, 3977, 3995, 0, 1, 19502, -89.900, 0.000, -29.100, 0.000, 0.000, -3.000, 0.0, , , , , , 98, , , 47, 47, 47
38.8913002, -120.7647862, 42.400, 13:00:40.392, 17, 0.00, 0.28, 97, -2.800, 0.400, -28.900, 1222, 100, 96, 25, 23802, -17232, 5344, 5510, 10, 14, 1527019240.393, 6, 0, 1024, 1024, 1024, 1024, 0, 6, 3948, 3942, 3995, 3965, 3977, 3995, 0, 1, 19615, -89.900, 0.000, -29.100, 0.000, 0.000, -2.900, 0.0, , , , , , 98, , , 47, 47, 47
38.8913003, -120.7647862, 42.700, 13:00:40.479, 17, 0.00, 0.28, 97, -3.000, 0.700, -29.200, 1222, 100, 96, 25, 23802, -17232, 5344, 5510, 10, 14, 1527019240.479, 83, 0, 1024, 1024, 1024, 1024, 0, 6, 3948, 3942, 3995, 3965, 3977, 3995, 0, 1, 19702, -89.900, 0.000, -29.100, 0.000, 0.000, -2.900, 0.0, , , , , , 98, , , 47, 47, 47
38.8913003, -120.7647862, 42.700, 13:00:40.579, 17, 0.00, 0.28, 97, -3.000, 0.700, -29.200, 1222, 100, 96, 25, 23802, -17232, 5344, 5510, 10, 14, 1527019240.579, 182, 0, 1024, 1024, 1024, 1024, 0, 6, 3948, 3942, 3995, 3965, 3977, 3995, 0, 1, 19801, -89.900, 0.000, -29.100, 0.000, 0.000, -2.900, 0.0, , , , , , 98, , , 47, 47, 47
38.8913004, -120.7647861, 43.300, 13:00:40.679, 17, 0.00, 0.28, 97, -2.800, 0.800, -29.300, 1222, 100, 96, 25, 23802, -17232, 5344, 5510, 10, 14, 1527019240.679, 78, 0, 1024, 1024, 1024, 1024, 0, 6, 3948, 3942, 3995, 3965, 3977, 3995, 0, 1, 19902, -89.900, 0.000, -29.100, 0.000, 0.000, -2.900, 0.0, , , , , , 98, , , 47, 47, 47
38.8913004, -120.7647861, 43.600, 13:00:40.779, 17, 0.00, 0.28, 97, -2.900, 0.600, -29.300, 1222, 100, 96, 25, 23802, -17232, 5344, 5510, 10, 14, 1527019240.779, 91, 0, 1024, 1024, 1024, 1024, 0, 6, 3948, 3942, 3995, 3965, 3977, 3995, 0, 1, 20001, -89.900, 0.000, -29.100, 0.000, 0.000, -3.000, 0.0, , , , , , 98, , , 47, 47, 47
38.8913005, -120.7647859, 43.900, 13:00:40.879, 17, 0.10, 0.28, 97, -3.300, 0.400, -29.200, 1222, 100, 96, 25, 23773, -17217, 5344, 5510, 10, 14, 1527019240.879, 57, 0, 1024, 1024, 1024, 1024, 0, 6, 3943, 3943, 3986, 3965, 3982, 3966, 0, 1, 20101, -89.900, 0.000, -29.100, 0.000, 0.100, -3.000, 0.0, , , , , , 98, , , 47, 47, 47
38.8913006, -120.7647858, 44.200, 13:00:40.979, 17, 0.10, 0.29, 97, -3.800, 0.300, -29.000, 1222, 100, 96, 25, 23773, -17217, 5344, 5510, 10, 14, 1527019240.979, 47, 0, 1024, 1024, 1024, 1024, 0, 6, 3943, 3943, 3986, 3965, 3982, 3966, 0, 1, 20201, -90.000, 0.000, -29.100, 0.000, 0.100, -3.000, 0.0, , , , , , 98, , , 47, 47, 47
38.8913006, -120.7647856, 44.600, 13:00:41.079, 17, 0.10, 0.30, 97, -4.100, 0.300, -28.800, 1222, 100, 96, 25, 23773, -17217, 5344, 5510, 10, 14, 1527019241.079, 65, 0, 1024, 1024, 1024, 1024, 0, 6, 3943, 3943, 3986, 3965, 3982, 3966, 0, 1, 20301, -89.900, 0.000, -29.100, 0.000, 0.100, -2.900, 0.0, , , , , , 98, , , 47, 47, 47
38.8913007, -120.7647855, 44.900, 13:00:41.179, 17, 0.10, 0.31, 97, -4.100, 0.200, -28.700, 1222, 100, 96, 25, 23773, -17217, 5344, 5510, 10, 14, 1527019241.179, 39, 0, 1024, 1024, 1024, 1024, 0, 6, 3943, 3943, 3986, 3965, 3982, 3966, 0, 1, 20401, -90.000, 0.000, -29.100, 0.000, 0.100, -2.900, 0.0, , , , , , 98, , , 47, 47, 47
38.8913007, -120.7647853, 45.200, 13:00:41.279, 17, 0.10, 0.32, 97, -4.300, 0.100, -28.700, 1222, 100, 96, 25, 23773, -17217, 5344, 5510, 10, 14, 1527019241.279, 29, 0, 1024, 1024, 1024, 1024, 0, 6, 3943, 3943, 3986, 3965, 3982, 3966, 0, 1, 20501, -90.000, 0.000, -29.000, 0.000, 0.100, -3.000, 0.0, , , , , , 98, , , 47, 47, 47
38.8913008, -120.7647851, 45.500, 13:00:41.379, 17, 0.10, 0.34, 97, -4.900, 0.100, -28.600, 1222, 100, 96, 25, 23773, -17217, 5344, 5510, 10, 14, 1527019241.379, 26, 0, 1024, 1024, 1024, 1024, 0, 6, 3943, 3943, 3986, 3965, 3982, 3966, 0, 1, 20601, -90.000, 0.000, -29.100, 0.000, 0.100, -3.000, 0.0, , , , , , 98, , , 47, 47, 47
38.8913008, -120.7647850, 45.800, 13:00:41.479, 17, 0.10, 0.35, 97, -5.300, 0.000, -28.700, 1222, 100, 97, 25, 23773, -17217, 5344, 5510, 10, 14, 1527019241.479, 32, 0, 1024, 1024, 1024, 1024, 0, 6, 3943, 3943, 3986, 3965, 3982, 3966, 0, 1, 20701, -90.000, 0.000, -29.100, 0.000, 0.100, -2.900, 0.0, , , , , , 98, , , 47, 47, 47
38.8913008, -120.7647848, 46.100, 13:00:41.579, 17, 0.10, 0.36, 97, -5.600, 0.000, -28.700, 1222, 100, 97, 25, 23773, -17217, 5344, 5510, 10, 14, 1527019241.579, 32, 0, 1024, 1024, 1024, 1024, 0, 6, 3943, 3943, 3986, 3965, 3982, 3966, 0, 1, 20801, -90.000, 0.000, -29.100, 0.000, 0.100, -2.900, 0.0, , , , , , 98, , , 47, 47, 47
38.8913009, -120.7647846, 46.400, 13:00:41.679, 17, 0.10, 0.37, 97, -5.600, 0.000, -28.700, 1222, 100, 97, 25, 23773, -17217, 5344, 5510, 10, 14, 1527019241.679, 34, 0, 1024, 1024, 1024, 1024, 0, 6, 3943, 3943, 3986, 3965, 3982, 3966, 0, 1, 20901, -90.000, 0.000, -29.000, 0.000, 0.100, -2.800, 0.0, , , , , , 98, , , 47, 47, 47
38.8913009, -120.7647845, 46.700, 13:00:41.779, 17, 0.10, 0.38, 97, -5.400, -0.300, -28.700, 1222, 100, 97, 25, 23773, -17217, 5344, 5510, 10, 14, 1527019241.779, 26, 0, 1024, 1024, 1024, 1024, 0, 6, 3943, 3943, 3986, 3965, 3982, 3966, 0, 1, 21001, -90.000, 0.000, -29.100, 0.000, 0.100, -2.800, 0.0, , , , , , 98, , , 47, 47, 47
