latitude,longitude,altitude(feet),ascent(feet),speed(mph),distance(feet),time(millisecond),datetime(utc),satellites,gpslevel,voltage(v),max_altitude(feet),max_ascent(feet),max_speed(mph),max_distance(feet), xSpeed(mph), ySpeed(mph), zSpeed(mph), compass_heading(degrees), pitch(degrees), roll(degrees),isPhoto,isVideo,rc_elevator,rc_aileron,rc_throttle,rc_rudder,gimbal_heading(degrees),gimbal_pitch(degrees),battery_percent,voltageCell1,voltageCell2,voltageCell3,voltageCell4,voltageCell5,voltageCell6,current(A),battery_temperature(f),flycStateRaw,flycState,message
37.3812392,-119.5382651,5079.61699949,0,0.223694,0,3000,2018-06-12 21:35:42,8,0,25.47,5079.61699949,0,0.223694,0,0,0,0,42.5, -1.1, 1.8,1,0,1024,1024,1024,1024,45,-89.9,98,4.232,4.266,4.278,4.175,4.24,4.278,3.953,86,11,AutoTakeoff,DJI_0002.jpg Starting Mission from Lat/Long: 37.38114/-119.53827 Camera: Zenmuse X3 - Overlap: 90/90 - Active Connection: No
37.3812391,-119.538265,5079.61699949,0,0.447388,0.04660105136,3100,2018-06-12 21:35:42,8,0,25.47,5079.61699949,0,0.447388,0.04660105136,0,0,0,42, -1.1, 0.1,0,0,1024,1024,1024,1024,44.9,-89.9,98,4.232,4.266,4.278,4.175,4.24,4.278,3.953,86,11,AutoTakeoff,
37.381239,-119.5382648,5079.61699949,0,0.447388,0.11353018736,3200,2018-06-12 21:35:42,8,0,25.47,5079.61699949,0,0.447388,0.11353018736,0,0,0,41.8, -0.4, -0.6,0,0,1024,1024,1024,1024,44.8,-89.9,98,4.232,4.266,4.278,4.175,4.24,4.278,3.953,86,11,AutoTakeoff,
37.3812389,-119.5382646,5079.61699949,0,0.447388,0.181639441508,3300,2018-06-12 21:35:42,7,0,25.47,5079.61699949,0,0.447388,0.181639441508,0,0,0,41.8, 0.1, -0.8,0,0,1024,1024,1024,1024,44.8,-89.9,98,4.232,4.266,4.278,4.175,4.24,4.278,3.953,86,11,AutoTakeoff,
37.3812389,-119.5382644,5079.94508349,0.328084,0.223694,0.230575466696,3400,2018-06-12 21:35:42,7,0,25.47,5079.94508349,0.328084,0.447388,0.230575466696,0,0,0,42, 0.7, -1.2,0,0,1024,1024,1024,1024,44.7,-89.9,98,4.232,4.266,4.278,4.175,4.24,4.278,3.953,86,11,AutoTakeoff,
37.3812389,-119.5382643,5079.94508349,0.328084,0.223694,0.25646162238,3500,2018-06-12 21:35:43,8,0,25.47,5079.94508349,0.328084,0.447388,0.25646162238,0,0,0,42.2, 1.4, -1.2,0,0,1024,1024,1024,1024,44.7,-89.9,98,4.232,4.266,4.278,4.175,4.24,4.278,3.953,86,11,AutoTakeoff,
37.3812389,-119.5382642,5080.27316749,0.656168,0.223694,0.282950796456,3600,2018-06-12 21:35:43,8,0,25.47,5080.27316749,0.656168,0.447388,0.282950796456,0,0,0,42.4, 1.8, -0.9,0,0,1024,1024,1024,1024,44.6,-89.9,98,4.232,4.266,4.278,4.175,4.24,4.278,3.953,86,11,AutoTakeoff,
37.3812389,-119.5382642,5080.27316749,0.656168,0,0.282950796456,3700,2018-06-12 21:35:43,8,0,25.47,5080.27316749,0.656168,0.447388,0.282950796456,0,0,0,42.6, 1.3, -0.7,0,0,1024,1024,1024,1024,44.6,-89.9,98,4.232,4.266,4.278,4.175,4.24,4.278,3.953,86,11,AutoTakeoff,
37.381239,-119.5382641,5080.27316749,0.656168,0,0.298956374396,3800,2018-06-12 21:35:43,8,0,25.47,5080.27316749,0.656168,0.447388,0.298956374396,0,0,0,42.7, 0.9, -0.3,0,0,1024,1024,1024,1024,44.5,-89.9,98,4.232,4.266,4.278,4.175,4.24,4.278,3.953,86,11,AutoTakeoff,
37.381239,-119.5382641,5080.60125149,0.984252,0,0.298956374396,3900,2018-06-12 21:35:43,8,0,25.47,5080.60125149,0.984252,0.447388,0.298956374396,0,0,0,42.8, 0.6, -0.1,0,0,1024,1024,1024,1024,44.5,-89.9,98,4.232,4.266,4.278,4.175,4.24,4.278,3.953,86,11,AutoTakeoff,
37.381239,-119.5382641,5080.60125149,0.984252,0,0.298956374396,4000,2018-06-12 21:35:43,8,0,25.132,5080.60125149,0.984252,0.447388,0.298956374396,0,0,0,42.7, 0.6, 0,0,0,1024,1024,1024,1024,44.4,-89.9,98,4.179,4.178,4.15,4.162,4.161,4.152,7.853,86,11,AutoTakeoff,
37.381239,-119.5382641,5080.92933549,1.312336,0,0.298956374396,4100,2018-06-12 21:35:43,7,0,25.132,5080.92933549,1.312336,0.447388,0.298956374396,0,0,0,42.6, 0.7, 0.1,0,0,1024,1024,1024,1024,44.4,-89.9,98,4.179,4.178,4.15,4.162,4.161,4.152,7.853,86,11,AutoTakeoff,
37.3812389,-119.538264,5080.92933549,1.312336,0,0.33716536512,4200,2018-06-12 21:35:43,7,0,25.132,5080.92933549,1.312336,0.447388,0.33716536512,0,0,0,42.6, 0.8, 0,0,0,1024,1024,1024,1024,44.4,-89.9,98,4.179,4.178,4.15,4.162,4.161,4.152,7.853,86,11,AutoTakeoff,
37.3812388,-119.538264,5081.25741949,1.64042,0,0.35071195348,4300,2018-06-12 21:35:43,8,0,25.132,5081.25741949,1.64042,0.447388,0.35071195348,0,0,0,42.5, 0.6, 0,0,0,1024,1024,1024,1024,44.3,-89.9,98,4.179,4.178,4.15,4.162,4.161,4.152,7.853,86,11,AutoTakeoff,
37.3812388,-119.538264,5081.58550349,1.968504,0,0.35071195348,4400,2018-06-12 21:35:43,8,0,25.132,5081.58550349,1.968504,0.447388,0.35071195348,0,0,-0.223694,42.4, 0.5, -0.1,0,0,1024,1024,1024,1024,44.3,-89.9,98,4.179,4.178,4.15,4.162,4.161,4.152,7.853,86,11,AutoTakeoff,
37.3812388,-119.538264,5081.58550349,1.968504,0,0.35071195348,4500,2018-06-12 21:35:44,9,0,25.132,5081.58550349,1.968504,0.447388,0.35071195348,0,0,-0.223694,42.4, 0.5, 0,0,0,1024,1024,1024,1024,44.3,-89.9,98,4.179,4.178,4.15,4.162,4.161,4.152,7.853,86,11,AutoTakeoff,
37.3812389,-119.5382641,5081.91358749,2.296588,0,0.309888133276,4600,2018-06-12 21:35:44,9,0,25.132,5081.91358749,2.296588,0.447388,0.35071195348,0,0,-0.223694,42.3, 0.6, 0,0,0,1024,1024,1024,1024,44.2,-89.9,98,4.179,4.178,4.15,4.162,4.161,4.152,7.853,86,11,AutoTakeoff,
37.381239,-119.5382642,5081.91358749,2.296588,0,0.270934063788,4800,2018-06-12 21:35:44,9,0,25.132,5081.91358749,2.296588,0.447388,0.35071195348,0,0,-0.223694,42.3, 0.7, 0.2,0,0,1024,1024,1024,1024,44.2,-89.9,98,4.179,4.178,4.15,4.162,4.161,4.152,7.853,86,11,AutoTakeoff,
37.3812389,-119.5382642,5082.24167149,2.624672,0,0.282950796456,4900,2018-06-12 21:35:44,9,0,25.132,5082.24167149,2.624672,0.447388,0.35071195348,0,0,0,42.3, 0.7, 0.4,0,0,1024,1024,1024,1024,44.2,-89.9,98,4.179,4.178,4.15,4.162,4.161,4.152,7.853,86,11,AutoTakeoff,
37.3812389,-119.5382642,5082.56975549,2.952756,0,0.282950796456,5000,2018-06-12 21:35:44,9,0,24.52,5082.56975549,2.952756,0.447388,0.35071195348,0,0,0,42.5, 0.6, 0.4,0,0,1024,1024,1024,1024,44.1,-89.9,98,4.073,4.072,4.063,4.094,4.091,4.065,16.412,86,14,Waypoint,
37.3812389,-119.5382642,5082.89783949,3.28084,0,0.282950796456,5200,2018-06-12 21:35:44,9,0,24.52,5082.89783949,3.28084,0.447388,0.35071195348,0,0,0,42.6, 0.8, 0.7,0,0,1024,1024,1024,1024,44.1,-89.9,98,4.073,4.072,4.063,4.094,4.091,4.065,16.412,86,14,Waypoint,
37.3812389,-119.5382643,5082.89783949,3.28084,0,0.25646162238,5300,2018-06-12 21:35:44,9,0,24.52,5082.89783949,3.28084,0.447388,0.35071195348,0,0,0,42.7, 0.9, 0.7,0,0,1024,1024,1024,1024,44,-89.9,98,4.073,4.072,4.063,4.094,4.091,4.065,16.412,86,14,Waypoint,
37.381239,-119.5382644,5082.89783949,3.28084,0,0.215660111888,5400,2018-06-12 21:35:44,9,0,24.52,5082.89783949,3.28084,0.447388,0.35071195348,0,0,0,42.8, 0.9, 0.9,0,0,1024,1024,1024,1024,44,-89.9,98,4.073,4.072,4.063,4.094,4.091,4.065,16.412,86,14,Waypoint,
37.381239,-119.5382644,5083.22592349,3.608924,0,0.215660111888,5500,2018-06-12 21:35:45,9,0,24.52,5083.22592349,3.608924,0.447388,0.35071195348,0,0,0,42.9, 0.8, 1.1,0,0,1024,1024,1024,1024,44,-89.9,98,4.073,4.072,4.063,4.094,4.091,4.065,16.412,86,14,Waypoint,
37.381239,-119.5382645,5083.22592349,3.608924,0,0.188633864304,5600,2018-06-12 21:35:45,9,0,24.52,5083.22592349,3.608924,0.447388,0.35071195348,0,0,-0.223694,42.9, 0.6, 1.2,0,0,1024,1024,1024,1024,44,-89.9,98,4.073,4.072,4.063,4.094,4.091,4.065,16.412,86,14,Waypoint,
37.381239,-119.5382645,5083.55400749,3.937008,0,0.188633864304,5700,2018-06-12 21:35:45,9,0,24.52,5083.55400749,3.937008,0.447388,0.35071195348,0,0,-0.223694,42.9, 0.4, 1.2,0,0,1024,1024,1024,1024,43.9,-89.9,98,4.073,4.072,4.063,4.094,4.091,4.065,16.412,86,14,Waypoint,
37.381239,-119.5382646,5083.88209149,4.265092,0,0.162287406768,5800,2018-06-12 21:35:45,9,0,24.52,5083.88209149,4.265092,0.447388,0.35071195348,0,0,-0.223694,42.9, 0.3, 1.1,0,0,1024,1024,1024,1024,43.9,-90,98,4.073,4.072,4.063,4.094,4.091,4.065,16.412,86,14,Waypoint,
37.381239,-119.5382647,5084.21017549,4.593176,0,0.137013455828,5900,2018-06-12 21:35:45,9,0,24.52,5084.21017549,4.593176,0.447388,0.35071195348,0,0,-0.223694,42.9, 0.4, 1.1,0,0,1024,1024,1024,1024,43.9,-89.9,98,4.073,4.072,4.063,4.094,4.091,4.065,16.412,86,14,Waypoint,
37.3812391,-119.5382649,5084.53825949,4.92126,0,0.068506563872,6000,2018-06-12 21:35:45,9,0,24.354,5084.53825949,4.92126,0.447388,0.35071195348,0,0,-0.223694,42.9, 0.5, 1.2,0,0,1024,1024,1024,1024,43.9,-89.9,98,4.045,4.052,4.041,4.085,4.079,4.04,16.539,86,14,Waypoint,
37.3812393,-119.5382652,5085.19442749,5.577428,0,0.04660105136,6100,2018-06-12 21:35:45,8,0,24.354,5085.19442749,5.577428,0.447388,0.35071195348,0,0,-0.447388,42.9, 0.5, 1.7,0,0,1024,1024,1024,1024,43.9,-89.9,98,4.045,4.052,4.041,4.085,4.079,4.04,16.539,86,14,Waypoint,
37.3812393,-119.5382654,5085.52251149,5.905512,0,0.094316932152,6200,2018-06-12 21:35:45,8,0,24.354,5085.52251149,5.905512,0.447388,0.35071195348,0,0,-0.447388,42.8, 0.5, 2.1,0,0,1024,1024,1024,1024,43.8,-90,98,4.045,4.052,4.041,4.085,4.079,4.04,16.539,86,14,Waypoint,
37.3812392,-119.5382657,5086.17867949,6.56168,0,0.17394849638,6300,2018-06-12 21:35:45,8,0,24.354,5086.17867949,6.56168,0.447388,0.35071195348,0,0,-0.447388,42.8, 0.3, 2.2,0,0,1024,1024,1024,1024,43.8,-90,98,4.045,4.052,4.041,4.085,4.079,4.04,16.539,86,14,Waypoint,
37.3812393,-119.5382661,5086.83484749,7.217848,0,0.292201124836,6400,2018-06-12 21:35:45,8,0,24.354,5086.83484749,7.217848,0.447388,0.35071195348,0,0,-0.447388,42.7, 0, 2.2,0,0,1024,1024,1024,1024,43.8,-90,98,4.045,4.052,4.041,4.085,4.079,4.04,16.539,86,14,Waypoint,
37.3812393,-119.5382665,5087.81909949,8.2021,0,0.40751641724,6500,2018-06-12 21:35:46,9,0,24.354,5087.81909949,8.2021,0.447388,0.40751641724,0,0,-0.447388,42.6, -0.3, 2.5,0,0,1024,1024,1024,1024,43.8,-90,98,4.045,4.052,4.041,4.085,4.079,4.04,16.539,86,14,Waypoint,
37.3812393,-119.5382665,5088.47526749,8.858268,0,0.40751641724,6600,2018-06-12 21:35:46,9,0,24.354,5088.47526749,8.858268,0.447388,0.40751641724,0,0,-0.671082,42.5, -0.5, 2.9,0,0,1024,1024,1024,1024,43.8,-90,98,4.045,4.052,4.041,4.085,4.079,4.04,16.539,86,14,Waypoint,
37.3812393,-119.5382664,5089.45951949,9.84252,0,0.37865158692,6700,2018-06-12 21:35:46,9,0,24.354,5089.45951949,9.84252,0.447388,0.40751641724,0,0,-0.671082,42.5, -0.3, 2.5,0,0,1024,1024,1024,1024,43.8,-89.9,98,4.045,4.052,4.041,4.085,4.079,4.04,16.539,86,14,Waypoint,
37.3812394,-119.5382667,5090.44377149,10.826772,0,0.46956694416,6800,2018-06-12 21:35:46,9,0,24.354,5090.44377149,10.826772,0.447388,0.46956694416,0,0,-0.671082,42.5, 0.1, 2,0,0,1024,1024,1024,1024,43.7,-89.9,98,4.045,4.052,4.041,4.085,4.079,4.04,16.539,86,14,Waypoint,
37.3812394,-119.5382669,5091.42802349,11.811024,0,0.52692258904,6900,2018-06-12 21:35:46,8,0,24.354,5091.42802349,11.811024,0.447388,0.52692258904,0,0,-0.671082,42.5, 0.2, 2,0,0,1024,1024,1024,1024,43.7,-89.9,98,4.045,4.052,4.041,4.085,4.079,4.04,16.539,86,14,Waypoint,
37.3812394,-119.5382674,5092.41227549,12.795276,0,0.6707841422,7000,2018-06-12 21:35:46,8,0,24.077,5092.41227549,12.795276,0.447388,0.6707841422,0,0,-0.671082,42.5, 0, 2.2,0,0,1024,1024,1024,1024,43.7,-90,97,4.002,3.989,4.006,4.012,4.008,3.988,18.804,86,14,Waypoint,
37.3812394,-119.5382678,5093.72461149,14.107612,0,0.78616144248,7110,2018-06-12 21:35:46,7,0,24.077,5093.72461149,14.107612,0.447388,0.78616144248,0,0,-0.671082,42.5, -0.3, 2.6,0,0,1024,1024,1024,1024,43.7,-90,97,4.002,3.989,4.006,4.012,4.008,3.988,18.804,86,14,Waypoint,
37.3812395,-119.5382682,5094.70886349,15.091864,0,0.90537404472,7200,2018-06-12 21:35:46,7,0,24.077,5094.70886349,15.091864,0.447388,0.90537404472,0,0,-0.671082,42.5, -0.8, 3.2,0,0,1024,1024,1024,1024,43.7,-90,97,4.002,3.989,4.006,4.012,4.008,3.988,18.804,86,14,Waypoint,
37.3812394,-119.5382688,5096.67736749,17.060368,0,1.07516079556,7400,2018-06-12 21:35:46,7,0,24.077,5096.67736749,17.060368,0.447388,1.07516079556,0,0,-0.671082,42.5, -1.2, 3.6,0,0,1024,1024,1024,1024,43.7,-90,97,4.002,3.989,4.006,4.012,4.008,3.988,18.804,86,14,Waypoint,
37.3812394,-119.538269,5097.98970349,18.372704,0,1.13301840896,7500,2018-06-12 21:35:47,8,0,24.077,5097.98970349,18.372704,0.447388,1.13301840896,0,0,-0.671082,42.5, -1.2, 3.4,0,0,1024,1024,1024,1024,43.6,-90,97,4.002,3.989,4.006,4.012,4.008,3.988,18.804,86,14,Waypoint,
37.3812393,-119.538269,5098.97395549,19.356956,0.223694,1.13125331704,7600,2018-06-12 21:35:47,8,0,24.077,5098.97395549,19.356956,0.447388,1.13301840896,0,0,-0.671082,42.5, -1.2, 3.2,0,0,1024,1024,1024,1024,43.6,-90,97,4.002,3.989,4.006,4.012,4.008,3.988,18.804,86,14,Waypoint,
37.3812392,-119.5382689,5099.95820749,20.341208,0.223694,1.1016732636,7700,2018-06-12 21:35:47,9,0,24.077,5099.95820749,20.341208,0.447388,1.13301840896,0,0,-0.671082,42.6, -1.1, 2.7,0,0,1024,1024,1024,1024,43.6,-89.9,97,4.002,3.989,4.006,4.012,4.008,3.988,18.804,86,14,Waypoint,
37.3812391,-119.5382687,5101.27054349,21.653544,0.223694,1.04432746124,7800,2018-06-12 21:35:47,9,0,24.077,5101.27054349,21.653544,0.447388,1.13301840896,0,0,-0.671082,42.6, -0.8, 2.2,0,0,1024,1024,1024,1024,43.6,-89.9,97,4.002,3.989,4.006,4.012,4.008,3.988,18.804,86,14,Waypoint,
37.381239,-119.5382684,5102.25479549,22.637796,0.447388,0.95949478136,7900,2018-06-12 21:35:47,8,0,24.077,5102.25479549,22.637796,0.447388,1.13301840896,0,0,-0.671082,42.6, -0.4, 1.5,0,0,1024,1024,1024,1024,43.6,-89.9,97,4.002,3.989,4.006,4.012,4.008,3.988,18.804,86,14,Waypoint,
37.381239,-119.5382682,5103.23904749,23.622048,0.447388,0.90169294224,8000,2018-06-12 21:35:47,8,0,23.699,5103.23904749,23.622048,0.447388,1.13301840896,0,0,-0.671082,42.5, 0.1, 1.1,0,0,1024,1024,1024,1024,43.6,-89.9,97,4.002,3.989,4.006,4.012,4.008,3.988,22.848,86,14,Waypoint,
37.3812391,-119.538268,5104.55138349,24.934384,0.447388,0.84154202168,8100,2018-06-12 21:35:47,8,0,23.699,5104.55138349,24.934384,0.447388,1.13301840896,0,0,-0.671082,42.5, 0.5, 0.9,0,0,1024,1024,1024,1024,43.6,-89.9,97,4.002,3.989,4.006,4.012,4.008,3.988,22.848,86,14,Waypoint,
37.3812391,-119.5382677,5105.53563549,25.918636,0.447388,0.7546588168,8200,2018-06-12 21:35:47,8,0,23.699,5105.53563549,25.918636,0.447388,1.13301840896,0,0,-0.671082,42.4, 0.8, 0.9,0,0,1024,1024,1024,1024,43.6,-89.9,97,4.002,3.989,4.006,4.012,4.008,3.988,22.848,86,14,Waypoint,
37.3812391,-119.5382674,5106.51988749,26.902888,0.447388,0.6677985778,8300,2018-06-12 21:35:47,9,0,23.699,5106.51988749,26.902888,0.447388,1.13301840896,0,0,-0.671082,42.4, 1.2, 0.9,0,0,1024,1024,1024,1024,43.6,-89.9,97,4.002,3.989,4.006,4.012,4.008,3.988,22.848,86,14,Waypoint,
37.381239,-119.5382672,5107.50413949,27.88714,0.447388,0.61317587264,8400,2018-06-12 21:35:47,9,0,23.699,5107.50413949,27.88714,0.447388,1.13301840896,0,0,-0.671082,42.4, 1.2, 0.9,0,0,1024,1024,1024,1024,43.6,-89.9,97,4.002,3.989,4.006,4.012,4.008,3.988,22.848,86,14,Waypoint,
37.381239,-119.538267,5108.81647549,29.199476,0.447388,0.55564962408,8500,2018-06-12 21:35:48,8,0,23.699,5108.81647549,29.199476,0.447388,1.13301840896,0,0,-0.671082,42.3, 1.1, 0.7,0,0,1024,1024,1024,1024,43.6,-89.9,97,4.002,3.989,4.006,4.012,4.008,3.988,22.848,86,14,Waypoint,
37.3812389,-119.5382669,5109.80072749,30.183728,0.223694,0.5332021168,8600,2018-06-12 21:35:48,8,0,23.699,5109.80072749,30.183728,0.447388,1.13301840896,0,0,-0.671082,42.3, 0.8, 0.5,0,0,1024,1024,1024,1024,43.6,-89.9,97,4.002,3.989,4.006,4.012,4.008,3.988,22.848,86,14,Waypoint,
37.3812389,-119.5382667,5110.78497949,31.16798,0.223694,0.47660106512,8700,2018-06-12 21:35:48,9,0,23.699,5110.78497949,31.16798,0.447388,1.13301840896,0,0,-0.671082,42.3, 0.6, 0.5,0,0,1024,1024,1024,1024,43.6,-89.9,97,4.002,3.989,4.006,4.012,4.008,3.988,22.848,86,14,Waypoint,
37.3812388,-119.5382664,5111.76923149,32.152232,0.223694,0.40415683708,8800,2018-06-12 21:35:48,9,0,23.699,5111.76923149,32.152232,0.447388,1.13301840896,0,0,-0.671082,42.4, 0.5, 0.3,0,0,1024,1024,1024,1024,43.6,-89.9,97,4.002,3.989,4.006,4.012,4.008,3.988,22.848,86,14,Waypoint,
37.3812386,-119.538266,5112.75348349,33.136484,0.223694,0.34059056208,8900,2018-06-12 21:35:48,9,0,23.699,5112.75348349,33.136484,0.447388,1.13301840896,0,0,-0.671082,42.5, 0.4, 0.1,0,0,1024,1024,1024,1024,43.6,-89.9,97,4.002,3.989,4.006,4.012,4.008,3.988,22.848,86,14,Waypoint,
37.3812386,-119.5382657,5114.06581949,34.44882,0.223694,0.279605980076,9000,2018-06-12 21:35:48,9,0,23.699,5114.06581949,34.44882,0.447388,1.13301840896,0,0,-0.671082,42.5, 0.6, -0.1,0,0,1024,1024,1024,1024,43.6,-89.9,97,3.929,3.958,3.956,3.99,4.003,3.964,22.848,86,14,Waypoint,
37.3812385,-119.5382649,5116.03432349,36.417324,0.223694,0.261894037252,9200,2018-06-12 21:35:48,9,0,23.699,5116.03432349,36.417324,0.447388,1.13301840896,0,0,-0.671082,42.6, 1.2, -0.7,0,0,1024,1024,1024,1024,43.6,-89.9,97,3.929,3.958,3.956,3.99,4.003,3.964,22.848,86,14,Waypoint,
37.3812384,-119.5382646,5117.01857549,37.401576,0.223694,0.325893055048,9400,2018-06-12 21:35:48,9,0,23.699,5117.01857549,37.401576,0.447388,1.13301840896,0,0,-0.671082,42.6, 1.5, -0.9,0,0,1024,1024,1024,1024,43.6,-89.9,97,3.929,3.958,3.956,3.99,4.003,3.964,22.848,86,14,Waypoint,
37.3812384,-119.5382643,5118.00282749,38.385828,0.223694,0.37280841088,9500,2018-06-12 21:35:49,9,0,23.699,5118.00282749,38.385828,0.447388,1.13301840896,0,0,-0.671082,42.6, 1.6, -1,0,0,1024,1024,1024,1024,43.6,-89.9,97,3.929,3.958,3.956,3.99,4.003,3.964,22.848,86,14,Waypoint,
37.3812382,-119.5382638,5120.29941549,40.682416,0.223694,0.5245571034,9600,2018-06-12 21:35:49,9,0,23.699,5120.29941549,40.682416,0.447388,1.13301840896,0,0,-0.671082,42.7, 1.7, -0.7,0,0,1024,1024,1024,1024,43.6,-89.9,97,3.929,3.958,3.956,3.99,4.003,3.964,22.848,86,14,Waypoint,
37.3812381,-119.5382635,5121.28366749,41.666668,0,0.61338256556,9700,2018-06-12 21:35:49,9,0,23.699,5121.28366749,41.666668,0.447388,1.13301840896,0,0,-0.671082,42.7, 1.5, -0.5,0,0,1024,1024,1024,1024,43.6,-89.9,97,3.929,3.958,3.956,3.99,4.003,3.964,22.848,86,14,Waypoint,
37.381238,-119.5382633,5122.26791949,42.65092,0,0.68118112416,9800,2018-06-12 21:35:49,9,0,23.699,5122.26791949,42.65092,0.447388,1.13301840896,0,0,-0.671082,42.8, 1.1, -0.5,0,0,1024,1024,1024,1024,43.6,-89.9,97,3.929,3.958,3.956,3.99,4.003,3.964,22.848,86,14,Waypoint,
37.3812379,-119.5382631,5123.25217149,43.635172,0,0.74911091636,9900,2018-06-12 21:35:49,9,0,23.699,5123.25217149,43.635172,0.447388,1.13301840896,0,0,-0.671082,42.7, 0.9, -0.6,0,0,1024,1024,1024,1024,43.6,-89.9,97,3.929,3.958,3.956,3.99,4.003,3.964,22.848,86,14,Waypoint,
37.3812379,-119.5382629,5124.23642349,44.619424,0,0.79483926428,10000,2018-06-12 21:35:49,9,0,23.977,5124.23642349,44.619424,0.447388,1.13301840896,0,0,-0.671082,42.7, 0.8, -0.7,0,0,1024,1024,1024,1024,43.6,-89.9,97,3.975,3.991,3.982,4.026,4.029,3.984,18.731,86,14,Waypoint,
37.3812379,-119.5382628,5125.22067549,45.603676,0,0.81828414692,10100,2018-06-12 21:35:49,9,0,23.977,5125.22067549,45.603676,0.447388,1.13301840896,0,0,-0.671082,42.6, 0.9, -0.6,0,0,1024,1024,1024,1024,43.6,-89.9,97,3.975,3.991,3.982,4.026,4.029,3.984,18.731,86,14,Waypoint,
37.3812378,-119.5382628,5126.20492749,46.587928,0,0.8399606568,10200,2018-06-12 21:35:49,9,0,23.977,5126.20492749,46.587928,0.447388,1.13301840896,0,0,-0.671082,42.5, 1, -0.6,0,0,1024,1024,1024,1024,43.6,-89.9,97,3.975,3.991,3.982,4.026,4.029,3.984,18.731,86,14,Waypoint,
37.3812379,-119.5382628,5127.18917949,47.57218,0,0.81828414692,10300,2018-06-12 21:35:49,10,0,23.977,5127.18917949,47.57218,0.447388,1.13301840896,0,0,-0.671082,42.4, 1, -0.4,0,0,1024,1024,1024,1024,43.6,-89.9,97,3.975,3.991,3.982,4.026,4.029,3.984,18.731,86,14,Waypoint,
37.3812379,-119.5382626,5128.17343149,48.556432,0,0.86618769176,10400,2018-06-12 21:35:49,10,0,23.977,5128.17343149,48.556432,0.447388,1.13301840896,0,0,-0.671082,42.4, 1, -0.2,0,0,1024,1024,1024,1024,43.6,-89.9,97,3.975,3.991,3.982,4.026,4.029,3.984,18.731,86,14,Waypoint,
37.381238,-119.5382625,5129.15768349,49.540684,0,0.8717027838,10500,2018-06-12 21:35:50,11,0,23.977,5129.15768349,49.540684,0.447388,1.13301840896,0,0,-0.671082,42.5, 1.2, 0,0,0,1024,1024,1024,1024,43.6,-89.9,97,3.975,3.991,3.982,4.026,4.029,3.984,18.731,86,14,Waypoint,
37.3812381,-119.5382625,5130.14193549,50.524936,0,0.85396000108,10600,2018-06-12 21:35:50,11,0,23.977,5130.14193549,50.524936,0.447388,1.13301840896,0,0,-0.671082,42.5, 1.4, 0,0,0,1024,1024,1024,1024,43.6,-89.9,97,3.975,3.991,3.982,4.026,4.029,3.984,18.731,86,14,Waypoint,
37.3812381,-119.5382624,5131.12618749,51.509188,0,0.87965553996,10700,2018-06-12 21:35:50,11,0,23.977,5131.12618749,51.509188,0.447388,1.13301840896,0,0,-0.671082,42.5, 1.5, 0.1,0,0,1024,1024,1024,1024,43.6,-89.9,97,3.975,3.991,3.982,4.026,4.029,3.984,18.731,86,14,Waypoint,
37.3812381,-119.5382625,5132.11043949,52.49344,0,0.85396000108,10800,2018-06-12 21:35:50,11,0,23.977,5132.11043949,52.49344,0.447388,1.13301840896,0,0,-0.671082,42.6, 1.5, 0.1,0,0,1024,1024,1024,1024,43.6,-89.9,97,3.975,3.991,3.982,4.026,4.029,3.984,18.731,86,14,Waypoint,
37.3812381,-119.5382626,5133.09469149,53.477692,0,0.82848099764,10900,2018-06-12 21:35:50,11,0,23.977,5133.09469149,53.477692,0.447388,1.13301840896,0,0,-0.671082,42.7, 1.3, 0.2,0,0,1024,1024,1024,1024,43.6,-89.9,97,3.975,3.991,3.982,4.026,4.029,3.984,18.731,86,14,Waypoint,
37.3812381,-119.5382625,5134.07894349,54.461944,0,0.85396000108,11000,2018-06-12 21:35:50,11,0,23.999,5134.07894349,54.461944,0.447388,1.13301840896,0,0,-0.671082,42.7, 1.1, 0.3,0,0,1024,1024,1024,1024,43.6,-89.9,97,3.992,3.982,3.997,4.019,4.032,3.994,18.148,86,14,Waypoint,
37.381238,-119.5382625,5135.06319549,55.446196,0,0.8717027838,11100,2018-06-12 21:35:50,11,0,23.999,5135.06319549,55.446196,0.447388,1.13301840896,0,0,-0.671082,42.7, 0.9, 0,0,0,1024,1024,1024,1024,43.6,-89.9,97,3.992,3.982,3.997,4.019,4.032,3.994,18.148,86,14,Waypoint,
37.3812381,-119.5382627,5136.04744749,56.430448,0,0.80324149552,11200,2018-06-12 21:35:50,11,0,23.999,5136.04744749,56.430448,0.447388,1.13301840896,0,0,-0.671082,42.7, 0.7, -0.1,0,0,1024,1024,1024,1024,43.6,-89.9,97,3.992,3.982,3.997,4.019,4.032,3.994,18.148,86,14,Waypoint,
37.3812381,-119.5382629,5137.03169949,57.4147,0,0.75357285876,11300,2018-06-12 21:35:50,11,0,23.999,5137.03169949,57.4147,0.447388,1.13301840896,0,0,-0.671082,42.6, 0.5, 0.1,0,0,1024,1024,1024,1024,43.6,-90,97,3.992,3.982,3.997,4.019,4.032,3.994,18.148,86,14,Waypoint,
37.3812381,-119.5382629,5138.01595149,58.398952,0,0.75357285876,11400,2018-06-12 21:35:50,11,0,23.999,5138.01595149,58.398952,0.447388,1.13301840896,0,0,-0.671082,42.6, 0.3, 0.4,0,0,1024,1024,1024,1024,43.6,-90,97,3.992,3.982,3.997,4.019,4.032,3.994,18.148,86,14,Waypoint,
37.3812382,-119.5382629,5139.00020349,59.383204,0,0.73479004976,11500,2018-06-12 21:35:51,11,0,23.999,5139.00020349,59.383204,0.447388,1.13301840896,0,0,-0.671082,42.6, 0.4, 0.6,0,0,1024,1024,1024,1024,43.6,-89.9,97,3.992,3.982,3.997,4.019,4.032,3.994,18.148,86,14,Waypoint,
37.3812382,-119.538263,5139.98445549,60.367456,0,0.70977364476,11600,2018-06-12 21:35:51,11,0,23.999,5139.98445549,60.367456,0.447388,1.13301840896,0,0,-0.671082,42.6, 0.6, 0.6,0,0,1024,1024,1024,1024,43.6,-89.9,97,3.992,3.982,3.997,4.019,4.032,3.994,18.148,86,14,Waypoint,
37.3812382,-119.5382633,5141.95295949,62.33596,0,0.63673886552,11700,2018-06-12 21:35:51,11,0,23.999,5141.95295949,62.33596,0.447388,1.13301840896,0,0,-0.671082,42.5, 0.4, 0.6,0,0,1024,1024,1024,1024,43.6,-89.9,97,3.992,3.982,3.997,4.019,4.032,3.994,18.148,86,14,Waypoint,
37.3812383,-119.5382635,5142.93721149,63.320212,0,0.568323509,11900,2018-06-12 21:35:51,11,0,23.999,5142.93721149,63.320212,0.447388,1.13301840896,0,0,-0.671082,42.4, 0.1, 0.7,0,0,1024,1024,1024,1024,43.6,-89.9,97,3.992,3.982,3.997,4.019,4.032,3.994,18.148,86,14,Waypoint,
37.3812384,-119.538264,5144.90571549,65.288716,0,0.43231300596,12100,2018-06-12 21:35:51,11,0,23.999,5144.90571549,65.288716,0.447388,1.13301840896,0,0,-0.671082,42.3, 0.1, 1.1,0,0,1024,1024,1024,1024,43.6,-90,97,3.992,3.982,3.997,4.019,4.032,3.994,18.148,86,14,Waypoint,
37.3812385,-119.5382642,5145.88996749,66.272968,0,0.36511156024,12200,2018-06-12 21:35:51,11,0,23.999,5145.88996749,66.272968,0.447388,1.13301840896,0,0,-0.671082,42.4, 0, 1.4,0,0,1024,1024,1024,1024,43.6,-90,97,3.992,3.982,3.997,4.019,4.032,3.994,18.148,86,14,Waypoint,
37.3812385,-119.5382645,5146.87421949,67.25722,0,0.309005587316,12300,2018-06-12 21:35:51,11,0,23.999,5146.87421949,67.25722,0.447388,1.13301840896,0,0,-0.671082,42.5, 0, 1.7,0,0,1024,1024,1024,1024,43.6,-90,97,3.992,3.982,3.997,4.019,4.032,3.994,18.148,86,14,Waypoint,
37.3812386,-119.5382646,5147.85847149,68.241472,0,0.262552829924,12400,2018-06-12 21:35:51,11,0,23.999,5147.85847149,68.241472,0.447388,1.13301840896,0,0,-0.671082,42.6, 0, 2.1,0,0,1024,1024,1024,1024,43.6,-89.9,97,3.992,3.982,3.997,4.019,4.032,3.994,18.148,86,14,Waypoint,
37.3812386,-119.5382648,5148.84272349,69.225724,0,0.23555446948,12500,2018-06-12 21:35:52,11,0,23.999,5148.84272349,69.225724,0.447388,1.13301840896,0,0,-0.671082,42.7, 0.1, 2.2,0,0,1024,1024,1024,1024,43.6,-89.9,97,3.992,3.982,3.997,4.019,4.032,3.994,18.148,86,14,Waypoint,
37.3812387,-119.5382649,5149.82697549,70.209976,0,0.191417985128,12600,2018-06-12 21:35:52,11,0,23.999,5149.82697549,70.209976,0.447388,1.13301840896,0,0,-0.671082,42.8, 0.3, 2.2,0,0,1024,1024,1024,1024,43.6,-89.9,97,3.992,3.982,3.997,4.019,4.032,3.994,18.148,86,14,Waypoint,
37.3812388,-119.5382651,5150.81122749,71.194228,0,0.145939637216,12700,2018-06-12 21:35:52,11,0,23.999,5150.81122749,71.194228,0.447388,1.13301840896,0,0,-0.671082,42.8, 0.4, 2,0,0,1024,1024,1024,1024,43.6,-89.9,97,3.992,3.982,3.997,4.019,4.032,3.994,18.148,86,14,Waypoint,
37.3812388,-119.5382652,5151.79547949,72.17848,0,0.148791671428,12800,2018-06-12 21:35:52,11,0,23.999,5151.79547949,72.17848,0.447388,1.13301840896,0,0,-0.671082,42.7, 0.5, 1.8,0,0,1024,1024,1024,1024,43.6,-89.9,97,3.992,3.982,3.997,4.019,4.032,3.994,18.148,86,14,Waypoint,
37.3812388,-119.5382653,5152.77973149,73.162732,0,0.157036422348,12900,2018-06-12 21:35:52,11,0,23.999,5152.77973149,73.162732,0.447388,1.13301840896,0,0,-0.671082,42.6, 0.4, 1.7,0,0,1024,1024,1024,1024,43.6,-90,97,3.992,3.982,3.997,4.019,4.032,3.994,18.148,86,14,Waypoint,
37.3812388,-119.5382654,5153.76398349,74.146984,0,0.169891081552,13000,2018-06-12 21:35:52,11,0,23.941,5153.76398349,74.146984,0.447388,1.13301840896,0,0,-0.671082,42.5, 0.2, 1.6,0,0,1024,1024,1024,1024,43.6,-90,97,3.968,3.974,3.978,4.013,4.021,3.977,18.428,86,14,Waypoint,
37.3812388,-119.5382656,5154.42015149,74.803152,0,0.205696200808,13100,2018-06-12 21:35:52,11,0,23.941,5154.42015149,74.803152,0.447388,1.13301840896,0,0,-0.671082,42.3, 0, 1.6,0,0,1024,1024,1024,1024,43.6,-90,97,3.968,3.974,3.978,4.013,4.021,3.977,18.428,86,14,Waypoint,
37.3812388,-119.5382656,5155.73248749,76.115488,0,0.205696200808,13200,2018-06-12 21:35:52,11,0,23.941,5155.73248749,76.115488,0.447388,1.13301840896,0,0,-0.671082,42.3, 0, 1.5,0,0,1024,1024,1024,1024,43.6,-89.9,97,3.968,3.974,3.978,4.013,4.021,3.977,18.428,86,14,Waypoint,
37.3812388,-119.5382656,5156.38865549,76.771656,0,0.205696200808,13300,2018-06-12 21:35:52,11,0,23.941,5156.38865549,76.771656,0.447388,1.13301840896,0,0,-0.671082,42.2, 0.1, 1.5,0,0,1024,1024,1024,1024,43.6,-89.9,97,3.968,3.974,3.978,4.013,4.021,3.977,18.428,86,14,Waypoint,
37.3812388,-119.5382658,5157.37290749,77.755908,0,0.249966215348,13400,2018-06-12 21:35:52,11,0,23.941,5157.37290749,77.755908,0.447388,1.13301840896,0,0,-0.671082,42.2, 0.2, 1.4,0,0,1024,1024,1024,1024,43.6,-89.9,97,3.968,3.974,3.978,4.013,4.021,3.977,18.428,86,14,Waypoint,
37.3812388,-119.5382659,5158.35715949,78.74016,0,0.274026583572,13500,2018-06-12 21:35:53,11,0,23.941,5158.35715949,78.74016,0.447388,1.13301840896,0,0,-0.671082,42.2, 0.2, 1.3,0,0,1024,1024,1024,1024,43.6,-89.9,97,3.968,3.974,3.978,4.013,4.021,3.977,18.428,86,14,Waypoint,
37.3812388,-119.538266,5159.34141149,79.724412,0,0.298963592244,13600,2018-06-12 21:35:53,11,0,23.941,5159.34141149,79.724412,0.447388,1.13301840896,0,0,-0.671082,42.4, 0.2, 1.4,0,0,1024,1024,1024,1024,43.6,-89.9,97,3.968,3.974,3.978,4.013,4.021,3.977,18.428,86,14,Waypoint,
37.3812389,-119.5382661,5161.30991549,81.692916,0,0.309888133276,13800,2018-06-12 21:35:53,11,0,23.941,5161.30991549,81.692916,0.447388,1.13301840896,0,0,-0.671082,42.7, 0.2, 1.3,0,0,1024,1024,1024,1024,43.6,-89.9,97,3.968,3.974,3.978,4.013,4.021,3.977,18.428,86,14,Waypoint,
37.3812389,-119.5382661,5162.29416749,82.677168,0,0.309888133276,13900,2018-06-12 21:35:53,11,0,23.941,5162.29416749,82.677168,0.447388,1.13301840896,0,0,-0.671082,42.8, 0.3, 1.3,0,0,1024,1024,1024,1024,43.6,-89.9,97,3.968,3.974,3.978,4.013,4.021,3.977,18.428,86,14,Waypoint,
37.3812388,-119.538266,5165.24692349,85.629924,0,0.298963592244,14210,2018-06-12 21:35:53,11,0,23.941,5165.24692349,85.629924,0.447388,1.13301840896,0,0,-0.671082,42.9, 0.4, 1,0,0,1024,1024,1024,1024,43.6,-89.9,97,3.968,3.974,3.978,4.013,4.021,3.977,18.428,86,14,Waypoint,
37.3812387,-119.538266,5166.23117549,86.614176,0,0.318370088928,14300,2018-06-12 21:35:53,11,0,23.941,5166.23117549,86.614176,0.447388,1.13301840896,0,0,-0.671082,42.8, 0.3, 0.7,0,0,1024,1024,1024,1024,43.6,-89.9,97,3.968,3.974,3.978,4.013,4.021,3.977,18.428,86,14,Waypoint,
37.3812387,-119.538266,5167.21542749,87.598428,0,0.318370088928,14500,2018-06-12 21:35:54,11,0,23.941,5167.21542749,87.598428,0.447388,1.13301840896,0,0,-0.671082,42.6, 0.4, 0.6,0,0,1024,1024,1024,1024,43.6,-89.9,97,3.968,3.974,3.978,4.013,4.021,3.977,18.428,86,14,Waypoint,
37.3812387,-119.5382661,5169.18393149,89.566932,0,0.34253281936,14600,2018-06-12 21:35:54,11,0,23.941,5169.18393149,89.566932,0.447388,1.13301840896,0,0,-0.671082,42.3, 0.3, 0.9,0,0,1024,1024,1024,1024,43.6,-89.9,97,3.968,3.974,3.978,4.013,4.021,3.977,18.428,86,14,Waypoint,
37.3812387,-119.538266,5171.15243549,91.535436,0,0.318370088928,14800,2018-06-12 21:35:54,11,0,23.941,5171.15243549,91.535436,0.447388,1.13301840896,0,0,-0.671082,42.4, 0.4, 1.1,0,0,1024,1024,1024,1024,43.6,-89.9,97,3.968,3.974,3.978,4.013,4.021,3.977,18.428,86,14,Waypoint,
37.3812387,-119.538266,5172.13668749,92.519688,0.223694,0.318370088928,14900,2018-06-12 21:35:54,11,0,23.941,5172.13668749,92.519688,0.447388,1.13301840896,0,0,-0.671082,42.5, 0.4, 1.1,0,0,1024,1024,1024,1024,43.6,-89.9,97,3.968,3.974,3.978,4.013,4.021,3.977,18.428,86,14,Waypoint,
37.3812387,-119.538266,5173.12093949,93.50394,0,0.318370088928,15000,2018-06-12 21:35:54,11,0,23.878,5173.12093949,93.50394,0.447388,1.13301840896,0,0,-0.671082,42.6, 0.5, 0.9,0,0,1024,1024,1024,1024,43.6,-89.9,97,3.954,3.97,3.963,4.009,4.012,3.963,18.536,86,14,Waypoint,
37.3812387,-119.538266,5174.10519149,94.488192,0,0.318370088928,15100,2018-06-12 21:35:54,12,0,23.878,5174.10519149,94.488192,0.447388,1.13301840896,0,0,-0.671082,42.6, 0.6, 0.5,0,0,1024,1024,1024,1024,43.6,-89.9,97,3.954,3.97,3.963,4.009,4.012,3.963,18.536,86,14,Waypoint,
37.3812387,-119.538266,5175.08944349,95.472444,0,0.318370088928,15200,2018-06-12 21:35:54,12,0,23.878,5175.08944349,95.472444,0.447388,1.13301840896,0,0,-0.671082,42.6, 0.6, 0.6,0,0,1024,1024,1024,1024,43.6,-89.9,97,3.954,3.97,3.963,4.009,4.012,3.963,18.536,86,14,Waypoint,
37.3812387,-119.538266,5176.07369549,96.456696,0,0.318370088928,15300,2018-06-12 21:35:54,11,0,23.878,5176.07369549,96.456696,0.447388,1.13301840896,0,0,-0.671082,42.7, 0.7, 0.8,0,0,1024,1024,1024,1024,43.6,-89.9,97,3.954,3.97,3.963,4.009,4.012,3.963,18.536,86,14,Waypoint,
37.3812387,-119.5382659,5177.05794749,97.440948,0,0.295077765348,15400,2018-06-12 21:35:54,11,0,23.878,5177.05794749,97.440948,0.447388,1.13301840896,0,0,-0.671082,42.7, 0.8, 1,0,0,1024,1024,1024,1024,43.6,-89.9,97,3.954,3.97,3.963,4.009,4.012,3.963,18.536,86,14,Waypoint,
37.3812387,-119.5382658,5178.04219949,98.4252,0,0.272879929992,15500,2018-06-12 21:35:55,11,0,23.878,5178.04219949,98.4252,0.447388,1.13301840896,0,0,-0.671082,42.7, 0.9, 1.1,0,0,1024,1024,1024,1024,43.6,-89.9,97,3.954,3.97,3.963,4.009,4.012,3.963,18.536,86,14,Waypoint,
37.3812388,-119.5382658,5179.02645149,99.409452,0,0.249966215348,15600,2018-06-12 21:35:55,11,0,23.878,5179.02645149,99.409452,0.447388,1.13301840896,0,0,-0.671082,42.8, 1, 1.1,0,0,1024,1024,1024,1024,43.6,-89.9,97,3.954,3.97,3.963,4.009,4.012,3.963,18.536,86,14,Waypoint,
37.3812388,-119.5382657,5180.01070349,100.393704,0,0.227060702804,15700,2018-06-12 21:35:55,11,0,23.878,5180.01070349,100.393704,0.447388,1.13301840896,0,0,-0.671082,43, 1, 0.8,0,0,1024,1024,1024,1024,43.6,-89.9,97,3.954,3.97,3.963,4.009,4.012,3.963,18.536,86,14,Waypoint,
37.3812388,-119.5382657,5181.32303949,101.70604,0,0.227060702804,15800,2018-06-12 21:35:55,11,0,23.878,5181.32303949,101.70604,0.447388,1.13301840896,0,0,-0.671082,43, 1.2, 0.6,0,0,1024,1024,1024,1024,43.6,-89.9,97,3.954,3.97,3.963,4.009,4.012,3.963,18.536,86,14,Waypoint,
37.3812388,-119.5382657,5182.30729149,102.690292,0,0.227060702804,15900,2018-06-12 21:35:55,12,0,23.878,5182.30729149,102.690292,0.447388,1.13301840896,0,0,-0.671082,43.1, 1.2, 0.8,0,0,1024,1024,1024,1024,43.6,-89.9,97,3.954,3.97,3.963,4.009,4.012,3.963,18.536,86,14,Waypoint,
37.3812388,-119.5382657,5183.29154349,103.674544,0,0.227060702804,16000,2018-06-12 21:35:55,12,0,23.856,5183.29154349,103.674544,0.447388,1.13301840896,0,0,-0.671082,43.1, 1, 1.1,0,0,1024,1024,1024,1024,43.6,-89.9,97,3.955,3.958,3.962,4.006,4.015,3.957,18.657,86,14,Waypoint,
37.3812388,-119.5382657,5184.27579549,104.658796,0,0.227060702804,16100,2018-06-12 21:35:55,12,0,23.856,5184.27579549,104.658796,0.447388,1.13301840896,0,0,-0.671082,43, 0.7, 1.4,0,0,1024,1024,1024,1024,43.6,-89.9,97,3.955,3.958,3.962,4.006,4.015,3.957,18.657,86,14,Waypoint,
37.3812387,-119.5382657,5185.26004749,105.643048,0,0.25206529678,16200,2018-06-12 21:35:55,12,0,23.856,5185.26004749,105.643048,0.447388,1.13301840896,0,0,-0.671082,42.8, 0.6, 1.2,0,0,1024,1024,1024,1024,43.6,-90,97,3.955,3.958,3.962,4.006,4.015,3.957,18.657,86,14,Waypoint,
37.3812387,-119.5382657,5186.24429949,106.6273,0,0.25206529678,16300,2018-06-12 21:35:55,12,0,23.856,5186.24429949,106.6273,0.447388,1.13301840896,0,0,-0.671082,42.7, 0.4, 0.8,0,0,1024,1024,1024,1024,43.6,-90,97,3.955,3.958,3.962,4.006,4.015,3.957,18.657,86,14,Waypoint,
37.3812387,-119.5382656,5187.22855149,107.611552,0,0.233004928716,16400,2018-06-12 21:35:55,12,0,23.856,5187.22855149,107.611552,0.447388,1.13301840896,0,0,-0.671082,42.5, 0.2, 0.7,0,0,1024,1024,1024,1024,43.6,-90,97,3.955,3.958,3.962,4.006,4.015,3.957,18.657,86,14,Waypoint,
37.3812386,-119.5382655,5188.21280349,108.595804,0,0.247728682468,16500,2018-06-12 21:35:56,12,0,23.856,5188.21280349,108.595804,0.447388,1.13301840896,0,0,-0.671082,42.4, 0.2, 0.5,0,0,1024,1024,1024,1024,43.6,-89.9,97,3.955,3.958,3.962,4.006,4.015,3.957,18.657,86,14,Waypoint,
37.3812386,-119.5382655,5189.19705549,109.580056,0,0.247728682468,16600,2018-06-12 21:35:56,12,0,23.856,5189.19705549,109.580056,0.447388,1.13301840896,0,0,-0.671082,42.4, 0.2, 0.4,0,0,1024,1024,1024,1024,43.6,-89.9,97,3.955,3.958,3.962,4.006,4.015,3.957,18.657,86,14,Waypoint,
37.3812385,-119.5382654,5190.18130749,110.564308,0,0.269797908896,16700,2018-06-12 21:35:56,12,0,23.856,5190.18130749,110.564308,0.447388,1.13301840896,0,0,-0.671082,42.5, 0.3, 0.3,0,0,1024,1024,1024,1024,43.6,-89.9,97,3.955,3.958,3.962,4.006,4.015,3.957,18.657,86,14,Waypoint,
37.3812385,-119.5382654,5191.16555949,111.54856,0,0.269797908896,16800,2018-06-12 21:35:56,12,0,23.856,5191.16555949,111.54856,0.447388,1.13301840896,0,0,-0.671082,42.4, 0.4, 0.1,0,0,1024,1024,1024,1024,43.6,-89.9,97,3.955,3.958,3.962,4.006,4.015,3.957,18.657,86,14,Waypoint,
37.3812384,-119.5382653,5192.14981149,112.532812,0,0.297583014772,17000,2018-06-12 21:35:56,12,0,23.872,5192.14981149,112.532812,0.447388,1.13301840896,0,0,-0.671082,42.4, 0.5, 0.2,0,0,1024,1024,1024,1024,43.6,-89.9,97,3.954,3.966,3.972,4,4.013,3.968,18.301,87.8,14,Waypoint,
37.3812384,-119.5382653,5193.13406349,113.517064,0,0.297583014772,17100,2018-06-12 21:35:56,12,0,23.872,5193.13406349,113.517064,0.447388,1.13301840896,0,0,-0.671082,42.4, 0.4, 0.2,0,0,1024,1024,1024,1024,43.6,-90,97,3.954,3.966,3.972,4,4.013,3.968,18.301,87.8,14,Waypoint,
37.3812384,-119.5382653,5194.11831549,114.501316,0,0.297583014772,17200,2018-06-12 21:35:56,12,0,23.872,5194.11831549,114.501316,0.447388,1.13301840896,0,0,-0.671082,42.4, 0.3, 0.3,0,0,1024,1024,1024,1024,43.6,-90,97,3.954,3.966,3.972,4,4.013,3.968,18.301,87.8,14,Waypoint,
37.3812383,-119.5382653,5195.10256749,115.485568,0,0.33344489256,17300,2018-06-12 21:35:56,12,0,23.872,5195.10256749,115.485568,0.447388,1.13301840896,0,0,-0.671082,42.4, 0.1, 0.3,0,0,1024,1024,1024,1024,43.6,-90,97,3.954,3.966,3.972,4,4.013,3.968,18.301,87.8,14,Waypoint,
37.3812384,-119.5382653,5197.07107149,117.454072,0,0.297583014772,17400,2018-06-12 21:35:56,12,0,23.872,5197.07107149,117.454072,0.447388,1.13301840896,0,0,-0.671082,42.4, 0.2, 0.6,0,0,1024,1024,1024,1024,43.6,-89.9,97,3.954,3.966,3.972,4,4.013,3.968,18.301,87.8,14,Waypoint,
37.3812384,-119.5382653,5198.05532349,118.438324,0,0.297583014772,17500,2018-06-12 21:35:57,12,0,23.872,5198.05532349,118.438324,0.447388,1.13301840896,0,0,-0.671082,42.5, 0.1, 0.7,0,0,1024,1024,1024,1024,43.6,-90,97,3.954,3.966,3.972,4,4.013,3.968,18.301,87.8,14,Waypoint,
37.3812383,-119.5382653,5199.03957549,119.422576,0,0.33344489256,17600,2018-06-12 21:35:57,12,0,23.872,5199.03957549,119.422576,0.447388,1.13301840896,0,0,-0.671082,42.5, 0.1, 0.8,0,0,1024,1024,1024,1024,43.6,-90,97,3.954,3.966,3.972,4,4.013,3.968,18.301,87.8,14,Waypoint,
37.3812383,-119.5382652,5200.02382749,120.406828,0,0.329642399,17700,2018-06-12 21:35:57,12,0,23.872,5200.02382749,120.406828,0.447388,1.13301840896,0,0,-0.671082,42.6, 0.1, 0.8,0,0,1024,1024,1024,1024,43.6,-90,97,3.954,3.966,3.972,4,4.013,3.968,18.301,87.8,14,Waypoint,
37.3812383,-119.5382652,5201.00807949,121.39108,0,0.329642399,17800,2018-06-12 21:35:57,12,0,23.872,5201.00807949,121.39108,0.447388,1.13301840896,0,0,-0.671082,42.6, 0.2, 0.7,0,0,1024,1024,1024,1024,43.6,-90,97,3.954,3.966,3.972,4,4.013,3.968,18.301,87.8,14,Waypoint,
37.3812383,-119.5382652,5201.99233149,122.375332,0,0.329642399,17900,2018-06-12 21:35:57,12,0,23.872,5201.99233149,122.375332,0.447388,1.13301840896,0,0,-0.671082,42.6, 0.2, 0.6,0,0,1024,1024,1024,1024,43.6,-89.9,97,3.954,3.966,3.972,4,4.013,3.968,18.301,87.8,14,Waypoint,
37.3812383,-119.5382653,5202.97658349,123.359584,0,0.33344489256,18000,2018-06-12 21:35:57,12,0,23.861,5202.97658349,123.359584,0.447388,1.13301840896,0,0,-0.671082,42.6, 0.2, 0.6,0,0,1024,1024,1024,1024,43.6,-89.9,96,3.959,3.966,3.963,4.004,4.003,3.965,17.928,87.8,14,Waypoint,
37.3812383,-119.5382653,5203.63275149,124.015752,0,0.33344489256,18100,2018-06-12 21:35:57,12,0,23.861,5203.63275149,124.015752,0.447388,1.13301840896,0,0,-0.671082,42.5, 0.1, 0.7,0,0,1024,1024,1024,1024,43.6,-89.9,96,3.959,3.966,3.963,4.004,4.003,3.965,17.928,87.8,14,Waypoint,
37.3812383,-119.5382652,5204.61700349,125.000004,0,0.329642399,18200,2018-06-12 21:35:57,12,0,23.861,5204.61700349,125.000004,0.447388,1.13301840896,0,0,-0.671082,42.5, 0.2, 0.9,0,0,1024,1024,1024,1024,43.6,-89.9,96,3.959,3.966,3.963,4.004,4.003,3.965,17.928,87.8,14,Waypoint,
37.3812383,-119.5382652,5205.60125549,125.984256,0,0.329642399,18300,2018-06-12 21:35:57,12,0,23.861,5205.60125549,125.984256,0.447388,1.13301840896,0,0,-0.671082,42.4, 0.3, 0.7,0,0,1024,1024,1024,1024,43.6,-89.9,96,3.959,3.966,3.963,4.004,4.003,3.965,17.928,87.8,14,Waypoint,
37.3812383,-119.5382651,5206.58550749,126.968508,0,0.3283628714,18400,2018-06-12 21:35:57,12,0,23.861,5206.58550749,126.968508,0.447388,1.13301840896,0,0,-0.671082,42.3, 0.3, 0.7,0,0,1024,1024,1024,1024,43.6,-89.9,96,3.959,3.966,3.963,4.004,4.003,3.965,17.928,87.8,14,Waypoint,
37.3812383,-119.5382651,5207.56975949,127.95276,0,0.3283628714,18500,2018-06-12 21:35:58,12,0,23.861,5207.56975949,127.95276,0.447388,1.13301840896,0,0,-0.671082,42.2, 0.3, 0.7,0,0,1024,1024,1024,1024,43.6,-89.9,96,3.959,3.966,3.963,4.004,4.003,3.965,17.928,87.8,14,Waypoint,
37.3812383,-119.5382651,5208.55401149,128.937012,0,0.3283628714,18600,2018-06-12 21:35:58,12,0,23.861,5208.55401149,128.937012,0.447388,1.13301840896,0,0,-0.671082,42.2, 0.5, 0.4,0,0,1024,1024,1024,1024,43.6,-89.9,96,3.959,3.966,3.963,4.004,4.003,3.965,17.928,87.8,14,Waypoint,
37.3812383,-119.538265,5209.53826349,129.921264,0.223694,0.329642399,18700,2018-06-12 21:35:58,12,0,23.861,5209.53826349,129.921264,0.447388,1.13301840896,0,0,-0.671082,42.3, 0.8, 0.2,0,0,1024,1024,1024,1024,43.6,-89.9,96,3.959,3.966,3.963,4.004,4.003,3.965,17.928,87.8,14,Waypoint,
37.3812384,-119.5382649,5210.52251549,130.905516,0.223694,0.297583014772,18800,2018-06-12 21:35:58,12,0,23.861,5210.52251549,130.905516,0.447388,1.13301840896,0,0,-0.671082,42.5, 1.1, 0.3,0,0,1024,1024,1024,1024,43.6,-89.9,96,3.959,3.966,3.963,4.004,4.003,3.965,17.928,87.8,14,Waypoint,
37.3812384,-119.5382649,5211.50676749,131.889768,0,0.297583014772,18900,2018-06-12 21:35:58,12,0,23.861,5211.50676749,131.889768,0.447388,1.13301840896,0,0,-0.671082,42.7, 1.3, 0.3,0,0,1024,1024,1024,1024,43.6,-89.9,96,3.959,3.966,3.963,4.004,4.003,3.965,17.928,87.8,14,Waypoint,
37.3812385,-119.5382648,5212.49101949,132.87402,0,0.269797908896,19000,2018-06-12 21:35:58,12,0,23.798,5212.49101949,132.87402,0.447388,1.13301840896,0,0,-0.671082,42.8, 1.5, 0.5,0,0,1024,1024,1024,1024,43.6,-89.9,96,3.959,3.966,3.963,4.004,4.003,3.965,18.734,87.8,14,Waypoint,
37.3812386,-119.5382648,5213.47527149,133.858272,0,0.23555446948,19100,2018-06-12 21:35:58,12,0,23.798,5213.47527149,133.858272,0.447388,1.13301840896,0,0,-0.671082,42.9, 1.5, 0.8,0,0,1024,1024,1024,1024,43.6,-89.9,96,3.959,3.966,3.963,4.004,4.003,3.965,18.734,87.8,14,Waypoint,
37.3812386,-119.5382648,5214.45952349,134.842524,0,0.23555446948,19200,2018-06-12 21:35:58,12,0,23.798,5214.45952349,134.842524,0.447388,1.13301840896,0,0,-0.671082,42.9, 1.6, 0.7,0,0,1024,1024,1024,1024,43.6,-89.9,96,3.959,3.966,3.963,4.004,4.003,3.965,18.734,87.8,14,Waypoint,
37.3812387,-119.5382648,5215.44377549,135.826776,0,0.202097119328,19300,2018-06-12 21:35:58,12,0,23.798,5215.44377549,135.826776,0.447388,1.13301840896,0,0,-0.671082,42.7, 1.6, 0.8,0,0,1024,1024,1024,1024,43.6,-89.9,96,3.959,3.966,3.963,4.004,4.003,3.965,18.734,87.8,14,Waypoint,
37.3812387,-119.5382647,5216.42802749,136.811028,0,0.216163720828,19400,2018-06-12 21:35:58,12,0,23.798,5216.42802749,136.811028,0.447388,1.13301840896,0,0,-0.671082,42.6, 1.4, 1,0,0,1024,1024,1024,1024,43.5,-89.9,96,3.959,3.966,3.963,4.004,4.003,3.965,18.734,87.8,14,Waypoint,
37.3812387,-119.5382647,5217.41227949,137.79528,0,0.216163720828,19500,2018-06-12 21:35:59,12,0,23.798,5217.41227949,137.79528,0.447388,1.13301840896,0,0,-0.671082,42.5, 1.3, 1.1,0,0,1024,1024,1024,1024,43.6,-89.9,96,3.959,3.966,3.963,4.004,4.003,3.965,18.734,87.8,14,Waypoint,
37.3812387,-119.5382647,5218.39653149,138.779532,0,0.216163720828,19600,2018-06-12 21:35:59,12,0,23.798,5218.39653149,138.779532,0.447388,1.13301840896,0,0,-0.671082,42.5, 1.2, 1.1,0,0,1024,1024,1024,1024,43.6,-89.9,96,3.959,3.966,3.963,4.004,4.003,3.965,18.734,87.8,14,Waypoint,
37.3812387,-119.5382647,5219.38078349,139.763784,0,0.216163720828,19700,2018-06-12 21:35:59,12,0,23.798,5219.38078349,139.763784,0.447388,1.13301840896,0,0,-0.671082,42.6, 1.3, 1,0,0,1024,1024,1024,1024,43.6,-89.9,96,3.959,3.966,3.963,4.004,4.003,3.965,18.734,87.8,14,Waypoint,
37.3812387,-119.5382646,5220.36503549,140.748036,0,0.233004928716,19800,2018-06-12 21:35:59,12,0,23.798,5220.36503549,140.748036,0.447388,1.13301840896,0,0,-0.671082,42.6, 1.4, 0.8,0,0,1024,1024,1024,1024,43.6,-89.9,96,3.959,3.966,3.963,4.004,4.003,3.965,18.734,87.8,14,Waypoint,
37.3812388,-119.5382646,5223.64587549,144.028876,0,0.205696200808,20100,2018-06-12 21:35:59,12,0,23.798,5223.64587549,144.028876,0.447388,1.13301840896,0,0,-0.671082,42.4, 1.6, 0.8,0,0,1024,1024,1024,1024,43.6,-89.9,96,3.959,3.966,3.963,4.004,4.003,3.965,18.734,87.8,14,Waypoint,
37.3812387,-119.5382646,5224.63012749,145.013128,0,0.233004928716,20200,2018-06-12 21:35:59,12,0,23.798,5224.63012749,145.013128,0.447388,1.13301840896,0,0,-0.671082,42.4, 1.3, 0.8,0,0,1024,1024,1024,1024,43.6,-89.9,96,3.959,3.966,3.963,4.004,4.003,3.965,18.734,87.8,14,Waypoint,
37.3812387,-119.5382646,5225.61437949,145.99738,0,0.233004928716,20300,2018-06-12 21:35:59,12,0,23.798,5225.61437949,145.99738,0.447388,1.13301840896,0,0,-0.671082,42.4, 1.1, 0.7,0,0,1024,1024,1024,1024,43.6,-90,96,3.959,3.966,3.963,4.004,4.003,3.965,18.734,87.8,14,Waypoint,
37.3812387,-119.5382647,5226.59863149,146.981632,0,0.216163720828,20400,2018-06-12 21:35:59,12,0,23.798,5226.59863149,146.981632,0.447388,1.13301840896,0,0,-0.671082,42.5, 0.8, 0.5,0,0,1024,1024,1024,1024,43.6,-89.9,96,3.959,3.966,3.963,4.004,4.003,3.965,18.734,87.8,14,Waypoint,
37.3812386,-119.5382647,5227.58288349,147.965884,0,0.247728682468,20500,2018-06-12 21:36:00,12,0,23.798,5227.58288349,147.965884,0.447388,1.13301840896,0,0,-0.671082,42.6, 0.8, 0.6,0,0,1024,1024,1024,1024,43.6,-90,96,3.959,3.966,3.963,4.004,4.003,3.965,18.734,87.8,14,Waypoint,
37.3812386,-119.5382647,5228.56713549,148.950136,0,0.247728682468,20600,2018-06-12 21:36:00,12,0,23.798,5228.56713549,148.950136,0.447388,1.13301840896,0,0,-0.671082,42.6, 0.8, 0.6,0,0,1024,1024,1024,1024,43.6,-89.9,96,3.959,3.966,3.963,4.004,4.003,3.965,18.734,87.8,14,Waypoint,
37.3812386,-119.5382648,5229.55138749,149.934388,0,0.23555446948,20700,2018-06-12 21:36:00,12,0,23.798,5229.55138749,149.934388,0.447388,1.13301840896,0,0,-0.671082,42.6, 0.8, 0.5,0,0,1024,1024,1024,1024,43.6,-89.9,96,3.959,3.966,3.963,4.004,4.003,3.965,18.734,87.8,14,Waypoint,
37.3812386,-119.5382648,5230.53563949,150.91864,0,0.23555446948,20800,2018-06-12 21:36:00,12,0,23.798,5230.53563949,150.91864,0.447388,1.13301840896,0,0,-0.671082,42.6, 0.8, 0.4,0,0,1024,1024,1024,1024,43.6,-89.9,96,3.959,3.966,3.963,4.004,4.003,3.965,18.734,87.8,14,Waypoint,
37.3812386,-119.5382648,5231.51989149,151.902892,0,0.23555446948,20900,2018-06-12 21:36:00,12,0,23.798,5231.51989149,151.902892,0.447388,1.13301840896,0,0,-0.671082,42.6, 0.9, 0.5,0,0,1024,1024,1024,1024,43.6,-89.9,96,3.959,3.966,3.963,4.004,4.003,3.965,18.734,87.8,14,Waypoint,
37.3812386,-119.5382647,5232.50414349,152.887144,0,0.247728682468,21000,2018-06-12 21:36:00,12,0,23.74,5232.50414349,152.887144,0.447388,1.13301840896,0,0,-0.671082,42.6, 1.2, 0.5,0,0,1024,1024,1024,1024,43.6,-89.9,96,3.935,3.939,3.943,3.984,3.981,3.943,19.217,87.8,14,Waypoint,
37.3812386,-119.5382647,5233.48839549,153.871396,0,0.247728682468,21100,2018-06-12 21:36:00,12,0,23.74,5233.48839549,153.871396,0.447388,1.13301840896,0,0,-0.671082,42.5, 1.1, 0.4,0,0,1024,1024,1024,1024,43.6,-89.9,96,3.935,3.939,3.943,3.984,3.981,3.943,19.217,87.8,14,Waypoint,
37.3812386,-119.5382648,5234.47264749,154.855648,0,0.23555446948,21200,2018-06-12 21:36:00,12,0,23.74,5234.47264749,154.855648,0.447388,1.13301840896,0,0,-0.671082,42.4, 1, 0.4,0,0,1024,1024,1024,1024,43.6,-89.9,96,3.935,3.939,3.943,3.984,3.981,3.943,19.217,87.8,14,Waypoint,
37.3812386,-119.5382648,5235.45689949,155.8399,0,0.23555446948,21300,2018-06-12 21:36:00,12,0,23.74,5235.45689949,155.8399,0.447388,1.13301840896,0,0,-0.671082,42.4, 0.8, 0.6,0,0,1024,1024,1024,1024,43.6,-90,96,3.935,3.939,3.943,3.984,3.981,3.943,19.217,87.8,14,Waypoint,
37.3812386,-119.5382649,5236.44115149,156.824152,0,0.22645834058,21400,2018-06-12 21:36:00,12,0,23.74,5236.44115149,156.824152,0.447388,1.13301840896,0,0,-0.671082,42.4, 0.7, 0.7,0,0,1024,1024,1024,1024,43.6,-90,96,3.935,3.939,3.943,3.984,3.981,3.943,19.217,87.8,14,Waypoint,
37.3812386,-119.5382649,5239.39390749,159.776908,0,0.22645834058,21600,2018-06-12 21:36:01,13,0,23.74,5239.39390749,159.776908,0.447388,1.13301840896,0,0,-0.671082,42.6, 0.6, 1.1,0,0,1024,1024,1024,1024,43.6,-90,96,3.935,3.939,3.943,3.984,3.981,3.943,19.217,87.8,14,Waypoint,
37.3812386,-119.538265,5240.37815949,160.76116,0,0.220821201292,21700,2018-06-12 21:36:01,13,0,23.74,5240.37815949,160.76116,0.447388,1.13301840896,0,0,-0.671082,42.6, 0.7, 1.1,0,0,1024,1024,1024,1024,43.6,-89.9,96,3.935,3.939,3.943,3.984,3.981,3.943,19.217,87.8,14,Waypoint,
37.3812386,-119.538265,5241.36241149,161.745412,0,0.220821201292,21900,2018-06-12 21:36:01,13,0,23.74,5241.36241149,161.745412,0.447388,1.13301840896,0,0,-0.671082,42.6, 0.9, 1.1,0,0,1024,1024,1024,1024,43.6,-89.9,96,3.935,3.939,3.943,3.984,3.981,3.943,19.217,87.8,14,Waypoint,
37.3812386,-119.5382651,5242.34666349,162.729664,0,0.218909783908,22000,2018-06-12 21:36:01,13,0,23.72,5242.34666349,162.729664,0.447388,1.13301840896,0,0,-0.671082,42.5, 0.9, 1.2,0,0,1024,1024,1024,1024,43.6,-89.9,96,3.931,3.933,3.941,3.981,3.986,3.932,19.115,87.8,14,Waypoint,
37.3812387,-119.5382651,5243.33091549,163.713916,0,0.18242454652,22100,2018-06-12 21:36:01,13,0,23.72,5243.33091549,163.713916,0.447388,1.13301840896,0,0,-0.671082,42.5, 1, 1.2,0,0,1024,1024,1024,1024,43.6,-89.9,96,3.931,3.933,3.941,3.981,3.986,3.932,19.115,87.8,14,Waypoint,
37.3812387,-119.5382651,5244.31516749,164.698168,0,0.18242454652,22200,2018-06-12 21:36:01,13,0,23.72,5244.31516749,164.698168,0.447388,1.13301840896,0,0,-0.671082,42.4, 1, 1.2,0,0,1024,1024,1024,1024,43.6,-89.9,96,3.931,3.933,3.941,3.981,3.986,3.932,19.115,87.8,14,Waypoint,
37.3812387,-119.5382652,5245.29941949,165.68242,0,0.184713916672,22300,2018-06-12 21:36:01,14,0,23.72,5245.29941949,165.68242,0.447388,1.13301840896,0,0,-0.671082,42.4, 0.9, 1.2,0,0,1024,1024,1024,1024,43.6,-89.9,96,3.931,3.933,3.941,3.981,3.986,3.932,19.115,87.8,14,Waypoint,
37.3812388,-119.5382652,5246.28367149,166.666672,0,0.148791671428,22400,2018-06-12 21:36:01,14,0,23.72,5246.28367149,166.666672,0.447388,1.13301840896,0,0,-0.671082,42.4, 0.9, 1.3,0,0,1024,1024,1024,1024,43.6,-89.9,96,3.931,3.933,3.941,3.981,3.986,3.932,19.115,87.8,14,Waypoint,
37.3812388,-119.5382653,5247.26792349,167.650924,0,0.157036422348,22500,2018-06-12 21:36:02,14,0,23.72,5247.26792349,167.650924,0.447388,1.13301840896,0,0,-0.671082,42.4, 1, 1.5,0,0,1024,1024,1024,1024,43.5,-89.9,96,3.931,3.933,3.941,3.981,3.986,3.932,19.115,87.8,14,Waypoint,
37.3812389,-119.5382653,5248.25217549,168.635176,0,0.123864177192,22600,2018-06-12 21:36:02,14,0,23.72,5248.25217549,168.635176,0.447388,1.13301840896,0,0,-0.671082,42.4, 1.1, 1.7,0,0,1024,1024,1024,1024,43.5,-89.9,96,3.931,3.933,3.941,3.981,3.986,3.932,19.115,87.8,14,Waypoint,
37.3812389,-119.5382653,5249.23642749,169.619428,0,0.123864177192,22700,2018-06-12 21:36:02,14,0,23.72,5249.23642749,169.619428,0.447388,1.13301840896,0,0,-0.671082,42.5, 1.1, 1.7,0,0,1024,1024,1024,1024,43.6,-89.9,96,3.931,3.933,3.941,3.981,3.986,3.932,19.115,87.8,14,Waypoint,
37.3812389,-119.5382653,5250.22067949,170.60368,0,0.123864177192,22800,2018-06-12 21:36:02,14,0,23.72,5250.22067949,170.60368,0.447388,1.13301840896,0,0,-0.671082,42.6, 1.1, 1.7,0,0,1024,1024,1024,1024,43.6,-89.9,96,3.931,3.933,3.941,3.981,3.986,3.932,19.115,87.8,14,Waypoint,
37.381239,-119.5382653,5251.20493149,171.587932,0,0.09320210272,22900,2018-06-12 21:36:02,14,0,23.72,5251.20493149,171.587932,0.447388,1.13301840896,0,0,-0.671082,42.6, 1.2, 1.5,0,0,1024,1024,1024,1024,43.6,-89.9,96,3.931,3.933,3.941,3.981,3.986,3.932,19.115,87.8,14,Waypoint,
37.381239,-119.5382653,5251.86109949,172.2441,0,0.09320210272,23000,2018-06-12 21:36:02,14,0,23.705,5251.86109949,172.2441,0.447388,1.13301840896,0,0,-0.671082,42.6, 1.4, 1.5,0,0,1024,1024,1024,1024,43.6,-89.9,96,3.931,3.939,3.937,3.972,3.979,3.937,19.404,87.8,14,Waypoint,
37.3812389,-119.5382653,5252.84535149,173.228352,0,0.123864177192,23100,2018-06-12 21:36:02,14,0,23.705,5252.84535149,173.228352,0.447388,1.13301840896,0,0,-0.671082,42.7, 1.4, 1.3,0,0,1024,1024,1024,1024,43.6,-89.9,96,3.931,3.939,3.937,3.972,3.979,3.937,19.404,87.8,14,Waypoint,
37.3812389,-119.5382653,5253.82960349,174.212604,0,0.123864177192,23200,2018-06-12 21:36:02,14,0,23.705,5253.82960349,174.212604,0.447388,1.13301840896,0,0,-0.671082,42.8, 1.4, 1.1,0,0,1024,1024,1024,1024,43.6,-89.9,96,3.931,3.939,3.937,3.972,3.979,3.937,19.404,87.8,14,Waypoint,
37.3812389,-119.5382653,5254.81385549,175.196856,0,0.123864177192,23400,2018-06-12 21:36:02,14,0,23.705,5254.81385549,175.196856,0.447388,1.13301840896,0,0,-0.671082,42.9, 1.5, 1,0,0,1024,1024,1024,1024,43.6,-89.9,96,3.931,3.939,3.937,3.972,3.979,3.937,19.404,87.8,14,Waypoint,
37.3812389,-119.5382654,5255.79810749,176.181108,0,0.13980315408,23500,2018-06-12 21:36:03,14,0,23.705,5255.79810749,176.181108,0.447388,1.13301840896,0,0,-0.671082,43, 1.4, 1,0,0,1024,1024,1024,1024,43.6,-89.9,96,3.931,3.939,3.937,3.972,3.979,3.937,19.404,87.8,14,Waypoint,
37.3812389,-119.5382654,5256.78235949,177.16536,0,0.13980315408,23600,2018-06-12 21:36:03,14,0,23.705,5256.78235949,177.16536,0.447388,1.13301840896,0,0,-0.671082,42.9, 1.3, 1.1,0,0,1024,1024,1024,1024,43.6,-89.9,96,3.931,3.939,3.937,3.972,3.979,3.937,19.404,87.8,14,Waypoint,
37.3812389,-119.5382655,5258.75086349,179.133864,0,0.159462931612,23700,2018-06-12 21:36:03,14,0,23.705,5258.75086349,179.133864,0.447388,1.13301840896,0,0,-0.671082,42.8, 1.1, 1.4,0,0,1024,1024,1024,1024,43.6,-89.9,96,3.931,3.939,3.937,3.972,3.979,3.937,19.404,87.8,14,Waypoint,
37.3812389,-119.5382655,5259.73511549,180.118116,0,0.159462931612,23800,2018-06-12 21:36:03,14,0,23.705,5259.73511549,180.118116,0.447388,1.13301840896,0,0,-0.671082,42.6, 0.8, 1.4,0,0,1024,1024,1024,1024,43.6,-90,96,3.931,3.939,3.937,3.972,3.979,3.937,19.404,87.8,14,Waypoint,
37.3812389,-119.5382656,5260.71936749,181.102368,0,0.181639441508,23900,2018-06-12 21:36:03,14,0,23.705,5260.71936749,181.102368,0.447388,1.13301840896,0,0,-0.671082,42.4, 0.7, 1.4,0,0,1024,1024,1024,1024,43.6,-89.9,96,3.931,3.939,3.937,3.972,3.979,3.937,19.404,87.8,14,Waypoint,
37.3812389,-119.5382655,5261.70361949,182.08662,0,0.159462931612,24000,2018-06-12 21:36:03,14,0,23.639,5261.70361949,182.08662,0.447388,1.13301840896,0,0,-0.671082,42.3, 0.7, 1.2,0,0,1024,1024,1024,1024,43.5,-89.9,96,3.924,3.93,3.92,3.968,3.964,3.928,19.837,87.8,14,Waypoint,
37.3812389,-119.5382655,5262.68787149,183.070872,0,0.159462931612,24100,2018-06-12 21:36:03,14,0,23.639,5262.68787149,183.070872,0.447388,1.13301840896,0,0,-0.671082,42.2, 0.7, 0.8,0,0,1024,1024,1024,1024,43.6,-90,96,3.924,3.93,3.92,3.968,3.964,3.928,19.837,87.8,14,Waypoint,
37.3812389,-119.5382655,5263.67212349,184.055124,0,0.159462931612,24200,2018-06-12 21:36:03,14,0,23.639,5263.67212349,184.055124,0.447388,1.13301840896,0,0,-0.671082,42.3, 0.7, 0.6,0,0,1024,1024,1024,1024,43.6,-89.9,96,3.924,3.93,3.92,3.968,3.964,3.928,19.837,87.8,14,Waypoint,
37.3812389,-119.5382655,5264.65637549,185.039376,0,0.159462931612,24300,2018-06-12 21:36:03,14,0,23.639,5264.65637549,185.039376,0.447388,1.13301840896,0,0,-0.671082,42.4, 0.8, 0.7,0,0,1024,1024,1024,1024,43.6,-89.9,96,3.924,3.93,3.92,3.968,3.964,3.928,19.837,87.8,14,Waypoint,
37.3812389,-119.5382655,5265.64062749,186.023628,0,0.159462931612,24400,2018-06-12 21:36:03,14,0,23.639,5265.64062749,186.023628,0.447388,1.13301840896,0,0,-0.671082,42.5, 1.1, 0.8,0,0,1024,1024,1024,1024,43.6,-89.9,96,3.924,3.93,3.92,3.968,3.964,3.928,19.837,87.8,14,Waypoint,
37.3812389,-119.5382654,5266.62487949,187.00788,0.223694,0.13980315408,24500,2018-06-12 21:36:04,14,0,23.639,5266.62487949,187.00788,0.447388,1.13301840896,0,0,-0.671082,42.7, 1.6, 0.8,0,0,1024,1024,1024,1024,43.6,-89.9,96,3.924,3.93,3.92,3.968,3.964,3.928,19.837,87.8,14,Waypoint,
37.3812389,-119.5382654,5267.93721549,188.320216,0.223694,0.13980315408,24600,2018-06-12 21:36:04,14,0,23.639,5267.93721549,188.320216,0.447388,1.13301840896,0,0,-0.671082,42.7, 1.5, 0.8,0,0,1024,1024,1024,1024,43.6,-89.9,96,3.924,3.93,3.92,3.968,3.964,3.928,19.837,87.8,14,Waypoint,
37.3812389,-119.5382654,5268.92146749,189.304468,0.223694,0.13980315408,24700,2018-06-12 21:36:04,14,0,23.639,5268.92146749,189.304468,0.447388,1.13301840896,0,0,-0.671082,42.6, 1.3, 0.7,0,0,1024,1024,1024,1024,43.6,-89.9,96,3.924,3.93,3.92,3.968,3.964,3.928,19.837,87.8,14,Waypoint,
37.3812389,-119.5382653,5269.90571949,190.28872,0.223694,0.123864177192,24800,2018-06-12 21:36:04,14,0,23.639,5269.90571949,190.28872,0.447388,1.13301840896,0,0,-0.671082,42.5, 1.3, 0.7,0,0,1024,1024,1024,1024,43.5,-89.9,96,3.924,3.93,3.92,3.968,3.964,3.928,19.837,87.8,14,Waypoint,
37.3812389,-119.5382652,5270.88997149,191.272972,0.223694,0.113229334332,24900,2018-06-12 21:36:04,14,0,23.639,5270.88997149,191.272972,0.447388,1.13301840896,0,0,-0.671082,42.6, 1.4, 0.4,0,0,1024,1024,1024,1024,43.6,-89.9,96,3.924,3.93,3.92,3.968,3.964,3.928,19.837,87.8,14,Waypoint,
37.3812389,-119.5382651,5271.87422349,192.257224,0.223694,0.109454727912,25000,2018-06-12 21:36:04,14,0,23.658,5271.87422349,192.257224,0.447388,1.13301840896,0,0,-0.671082,42.8, 1.9, 0.2,0,0,1024,1024,1024,1024,43.6,-89.9,96,3.923,3.929,3.932,3.97,3.976,3.927,19.385,87.8,14,Waypoint,
37.3812389,-119.538265,5272.85847549,193.241476,0.223694,0.113229334332,25100,2018-06-12 21:36:04,14,0,23.658,5272.85847549,193.241476,0.447388,1.13301840896,0,0,-0.671082,43, 2.2, 0,0,0,1024,1024,1024,1024,43.6,-89.9,96,3.923,3.929,3.932,3.97,3.976,3.927,19.385,87.8,14,Waypoint,
37.381239,-119.5382649,5273.84272749,194.225728,0.223694,0.09320210272,25200,2018-06-12 21:36:04,14,0,23.658,5273.84272749,194.225728,0.447388,1.13301840896,0,0,-0.671082,43.2, 2.3, 0.1,0,0,1024,1024,1024,1024,43.6,-89.9,96,3.923,3.929,3.932,3.97,3.976,3.927,19.385,87.8,14,Waypoint,
37.381239,-119.5382649,5274.82697949,195.20998,0.223694,0.09320210272,25300,2018-06-12 21:36:04,14,0,23.658,5274.82697949,195.20998,0.447388,1.13301840896,0,0,-0.671082,43.3, 2.5, 0.3,0,0,1024,1024,1024,1024,43.6,-89.9,96,3.923,3.929,3.932,3.97,3.976,3.927,19.385,87.8,14,Waypoint,
37.381239,-119.5382648,5275.81123149,196.194232,0,0.11353018736,25400,2018-06-12 21:36:04,14,0,23.658,5275.81123149,196.194232,0.447388,1.13301840896,0,0,-0.671082,43.3, 2.6, 0.8,0,0,1024,1024,1024,1024,43.5,-89.9,96,3.923,3.929,3.932,3.97,3.976,3.927,19.385,87.8,14,Waypoint,
37.3812391,-119.5382648,5276.79548349,197.178484,0,0.094316932152,25500,2018-06-12 21:36:05,14,0,23.658,5276.79548349,197.178484,0.447388,1.13301840896,0,0,-0.671082,43.1, 2.6, 1.1,0,0,1024,1024,1024,1024,43.6,-89.9,96,3.923,3.929,3.932,3.97,3.976,3.927,19.385,87.8,14,Waypoint,
37.3812391,-119.5382648,5277.77973549,198.162736,0,0.094316932152,25600,2018-06-12 21:36:05,14,0,23.658,5277.77973549,198.162736,0.447388,1.13301840896,0,0,-0.671082,42.9, 2.5, 1.4,0,0,1024,1024,1024,1024,43.6,-89.9,96,3.923,3.929,3.932,3.97,3.976,3.927,19.385,87.8,14,Waypoint,
37.3812391,-119.5382648,5278.76398749,199.146988,0,0.094316932152,25700,2018-06-12 21:36:05,14,0,23.658,5278.76398749,199.146988,0.447388,1.13301840896,0,0,-0.671082,42.6, 2.4, 1.3,0,0,1024,1024,1024,1024,43.5,-89.9,96,3.923,3.929,3.932,3.97,3.976,3.927,19.385,87.8,14,Waypoint,
37.3812391,-119.5382648,5279.74823949,200.13124,0,0.094316932152,25800,2018-06-12 21:36:05,14,0,23.658,5279.74823949,200.13124,0.447388,1.13301840896,0,0,-0.671082,42.4, 2.3, 1,0,0,1024,1024,1024,1024,43.5,-89.9,96,3.923,3.929,3.932,3.97,3.976,3.927,19.385,87.8,14,Waypoint,
37.3812391,-119.5382648,5280.73249149,201.115492,0,0.094316932152,26000,2018-06-12 21:36:05,14,0,23.644,5280.73249149,201.115492,0.447388,1.13301840896,0,0,-0.671082,42.2, 2.1, 1,0,0,1024,1024,1024,1024,43.5,-89.9,96,3.922,3.93,3.926,3.973,3.968,3.926,19.124,87.8,14,Waypoint,
37.3812391,-119.5382648,5283.02907949,203.41208,0,0.094316932152,26100,2018-06-12 21:36:05,14,0,23.644,5283.02907949,203.41208,0.447388,1.13301840896,0,0,-0.671082,42.1, 1.6, 0.8,0,0,1024,1024,1024,1024,43.5,-90,96,3.922,3.93,3.926,3.973,3.968,3.926,19.124,87.8,14,Waypoint,
37.3812391,-119.5382648,5284.66949949,205.0525,0,0.094316932152,26300,2018-06-12 21:36:05,14,0,23.644,5284.66949949,205.0525,0.447388,1.13301840896,0,0,-0.671082,42.1, 1.6, 0.9,0,0,1024,1024,1024,1024,43.5,-89.9,96,3.922,3.93,3.926,3.973,3.968,3.926,19.124,87.8,14,Waypoint,
37.3812391,-119.5382648,5285.65375149,206.036752,0,0.094316932152,26400,2018-06-12 21:36:05,14,0,23.644,5285.65375149,206.036752,0.447388,1.13301840896,0,0,-0.671082,42.2, 1.8, 0.9,0,0,1024,1024,1024,1024,43.5,-89.9,96,3.922,3.93,3.926,3.973,3.968,3.926,19.124,87.8,14,Waypoint,
37.3812391,-119.5382647,5286.63800349,207.021004,0,0.121569557696,26500,2018-06-12 21:36:06,14,0,23.644,5286.63800349,207.021004,0.447388,1.13301840896,0,0,-0.671082,42.3, 2, 0.8,0,0,1024,1024,1024,1024,43.5,-89.9,96,3.922,3.93,3.926,3.973,3.968,3.926,19.124,87.8,14,Waypoint,
