Latitude, Longitude, Altitude (m), Time, Sats, Speed (m/s), Range (m), Battery (%), Roll (deg), Pitch (deg), Yaw (deg), Images, HD Signal (%), RC Signal (%), Battery Temp (C), Battery Voltage (mV), Battery Current (mA), Battery Energy (mAh), Battery Capacity (mAh), Battery Discharges, flyState, timestamp (Unix), LastUpdate (ms), radioChannel, Rc_elevator, Rc_aileron, Rc_throttle, Rc_rudder, Rc_gyro, Dronetype, Battery_Cell1 (mV), Battery_Cell2 (mV), Battery_Cell3 (mV), Battery_Cell4 (mV), Battery_Cell5 (mV), Battery_Cell6 (mV), Video, isFlying, elapsedTime (ms), gimbalPitch (deg), gimbalRoll (deg), gimbalYaw (deg), VelocityX (m/s), VelocityY (m/s), VelocityZ (m/s), GroundSmear (cm), App Version, Aircraft Name, Aircraft Firmware, Aircraft Serial Number, Battery Serial Number, Battery Lifetime (%), App_Tip, App_Warning, CurrentFlightStartingIndex, CurrentFlightLastVisitedWaypoint, PreviousFlightEndingWaypointIndex
37.3812392, -119.5382651, 0.000, 14:35:42.085, 8, 0.10, 0.17, 98, 1.800, -1.100, 42.500, 2, 100, 100, 30, 25470, -3953, 5288, 5396, 16, 11, 1528839342.085, 89, 0, 1024, 1024, 1024, 1024, 0, 6, 4232, 4266, 4278, 4175, 4240, 4278, 0, 1, 3001, -89.900, 0.000, 45.000, 0.000, 0.100, -0.100, 0.0, MapPilot_2.8.1_04242018, Dendroctonus I, 1.3.1.00, 041DDC1887, 1058163200505, 96, DJI_0002.jpg, Starting Mission from Lat/Long: 37.38114/-119.53827 Camera: Zenmuse X3 - Overlap: 90/90 - Active Connection: No, 0, 0, 0
37.3812391, -119.5382650, 0.000, 14:35:42.184, 8, 0.20, 0.17, 98, 0.100, -1.100, 42.000, 2, 100, 100, 30, 25470, -3953, 5288, 5396, 16, 11, 1528839342.185, 52, 0, 1024, 1024, 1024, 1024, 0, 6, 4232, 4266, 4278, 4175, 4240, 4278, 0, 1, 3101, -89.900, 0.000, 44.900, 0.000, 0.200, -0.300, 0.1, , , , , , 96, , , 0, 0, 0
37.3812390, -119.5382648, 0.000, 14:35:42.285, 8, 0.20, 0.18, 98, -0.600, -0.400, 41.800, 2, 100, 100, 30, 25470, -3953, 5288, 5396, 16, 11, 1528839342.285, 54, 0, 1024, 1024, 1024, 1024, 0, 6, 4232, 4266, 4278, 4175, 4240, 4278, 0, 1, 3201, -89.900, 0.000, 44.800, 0.000, 0.200, -0.300, 0.0, , , , , , 96, , , 0, 0, 0
37.3812389, -119.5382646, 0.000, 14:35:42.384, 7, 0.20, 0.18, 98, -0.800, 0.100, 41.800, 2, 100, 100, 30, 25470, -3953, 5288, 5396, 16, 11, 1528839342.384, 58, 0, 1024, 1024, 1024, 1024, 0, 6, 4232, 4266, 4278, 4175, 4240, 4278, 0, 1, 3300, -89.900, 0.000, 44.800, 0.000, 0.200, -0.400, 0.0, , , , , , 96, , , 0, 0, 0
37.3812389, -119.5382644, 0.100, 14:35:42.484, 7, 0.10, 0.18, 98, -1.200, 0.700, 42.000, 2, 100, 100, 30, 25470, -3953, 5288, 5396, 16, 11, 1528839342.485, 63, 0, 1024, 1024, 1024, 1024, 0, 6, 4232, 4266, 4278, 4175, 4240, 4278, 0, 1, 3401, -89.900, 0.000, 44.700, 0.000, 0.100, -0.400, 0.0, , , , , , 96, , , 0, 0, 0
37.3812389, -119.5382643, 0.100, 14:35:42.585, 8, 0.10, 0.18, 98, -1.200, 1.400, 42.200, 2, 100, 100, 30, 25470, -3953, 5288, 5396, 16, 11, 1528839342.585, 51, 0, 1024, 1024, 1024, 1024, 0, 6, 4232, 4266, 4278, 4175, 4240, 4278, 0, 1, 3501, -89.900, 0.000, 44.700, 0.000, 0.100, -0.300, 0.0, , , , , , 96, , , 0, 0, 0
37.3812389, -119.5382642, 0.200, 14:35:42.684, 8, 0.10, 0.18, 98, -0.900, 1.800, 42.400, 2, 100, 100, 30, 25470, -3953, 5288, 5396, 16, 11, 1528839342.685, 55, 0, 1024, 1024, 1024, 1024, 0, 6, 4232, 4266, 4278, 4175, 4240, 4278, 0, 1, 3601, -89.900, 0.000, 44.600, 0.000, 0.100, -0.300, 0.0, , , , , , 96, , , 0, 0, 0
37.3812389, -119.5382642, 0.200, 14:35:42.784, 8, 0.00, 0.18, 98, -0.700, 1.300, 42.600, 2, 100, 100, 30, 25470, -3953, 5288, 5396, 16, 11, 1528839342.785, 45, 0, 1024, 1024, 1024, 1024, 0, 6, 4232, 4266, 4278, 4175, 4240, 4278, 0, 1, 3701, -89.900, 0.000, 44.600, 0.000, 0.000, -0.300, 0.0, , , , , , 96, , , 0, 0, 0
37.3812390, -119.5382641, 0.200, 14:35:42.885, 8, 0.00, 0.18, 98, -0.300, 0.900, 42.700, 2, 100, 100, 30, 25470, -3953, 5288, 5396, 16, 11, 1528839342.885, 28, 0, 1024, 1024, 1024, 1024, 0, 6, 4232, 4266, 4278, 4175, 4240, 4278, 0, 1, 3801, -89.900, 0.000, 44.500, 0.000, 0.000, -0.300, 0.0, , , , , , 96, , , 0, 0, 0
37.3812390, -119.5382641, 0.300, 14:35:42.984, 8, 0.00, 0.18, 98, -0.100, 0.600, 42.800, 2, 100, 100, 30, 25132, -7853, 5288, 5396, 16, 11, 1528839342.985, 30, 0, 1024, 1024, 1024, 1024, 0, 6, 4179, 4178, 4150, 4162, 4161, 4152, 0, 1, 3901, -89.900, 0.000, 44.500, 0.000, 0.000, -0.400, 0.0, , , , , , 96, , , 0, 0, 0
37.3812390, -119.5382641, 0.300, 14:35:43.084, 8, 0.00, 0.18, 98, 0.000, 0.600, 42.700, 2, 100, 100, 30, 25132, -7853, 5288, 5396, 16, 11, 1528839343.085, 44, 0, 1024, 1024, 1024, 1024, 0, 6, 4179, 4178, 4150, 4162, 4161, 4152, 0, 1, 4000, -89.900, 0.000, 44.400, 0.000, 0.000, -0.400, 0.0, , , , , , 96, , , 0, 0, 0
37.3812390, -119.5382641, 0.400, 14:35:43.184, 7, 0.00, 0.18, 98, 0.100, 0.700, 42.600, 2, 100, 100, 30, 25132, -7853, 5288, 5396, 16, 11, 1528839343.185, 19, 0, 1024, 1024, 1024, 1024, 0, 6, 4179, 4178, 4150, 4162, 4161, 4152, 0, 1, 4100, -89.900, 0.000, 44.400, 0.000, 0.000, -0.400, 0.0, , , , , , 96, , , 0, 0, 0
37.3812389, -119.5382640, 0.400, 14:35:43.284, 7, 0.00, 0.19, 98, 0.000, 0.800, 42.600, 2, 100, 100, 30, 25132, -7853, 5288, 5396, 16, 11, 1528839343.284, 19, 0, 1024, 1024, 1024, 1024, 0, 6, 4179, 4178, 4150, 4162, 4161, 4152, 0, 1, 4200, -89.900, 0.000, 44.400, 0.000, 0.000, -0.400, 0.0, , , , , , 96, , , 0, 0, 0
37.3812388, -119.5382640, 0.500, 14:35:43.384, 8, 0.00, 0.20, 98, 0.000, 0.600, 42.500, 2, 100, 100, 30, 25132, -7853, 5288, 5396, 16, 11, 1528839343.385, 24, 0, 1024, 1024, 1024, 1024, 0, 6, 4179, 4178, 4150, 4162, 4161, 4152, 0, 1, 4300, -89.900, 0.000, 44.300, 0.000, 0.000, -0.400, 0.0, , , , , , 96, , , 0, 0, 0
37.3812388, -119.5382640, 0.600, 14:35:43.484, 8, 0.00, 0.19, 98, -0.100, 0.500, 42.400, 2, 100, 100, 30, 25132, -7853, 5288, 5396, 16, 11, 1528839343.485, 27, 0, 1024, 1024, 1024, 1024, 0, 6, 4179, 4178, 4150, 4162, 4161, 4152, 0, 1, 4400, -89.900, 0.000, 44.300, 0.000, 0.000, -0.500, 0.0, , , , , , 96, , , 0, 0, 0
37.3812388, -119.5382640, 0.600, 14:35:43.584, 9, 0.00, 0.19, 98, 0.000, 0.500, 42.400, 2, 100, 100, 30, 25132, -7853, 5288, 5396, 16, 11, 1528839343.585, 30, 0, 1024, 1024, 1024, 1024, 0, 6, 4179, 4178, 4150, 4162, 4161, 4152, 0, 1, 4500, -89.900, 0.000, 44.300, 0.000, 0.000, -0.500, 0.0, , , , , , 96, , , 0, 0, 0
37.3812389, -119.5382641, 0.700, 14:35:43.684, 9, 0.00, 0.18, 98, 0.000, 0.600, 42.300, 2, 100, 100, 30, 25132, -7853, 5288, 5396, 16, 11, 1528839343.685, 21, 0, 1024, 1024, 1024, 1024, 0, 6, 4179, 4178, 4150, 4162, 4161, 4152, 0, 1, 4600, -89.900, 0.000, 44.200, 0.000, 0.000, -0.500, 0.0, , , , , , 96, , , 0, 0, 0
37.3812389, -119.5382641, 0.700, 14:35:43.784, 9, 0.00, 0.18, 98, 0.000, 0.600, 42.300, 2, 100, 100, 30, 25132, -7853, 5288, 5396, 16, 11, 1528839343.785, 121, 0, 1024, 1024, 1024, 1024, 0, 6, 4179, 4178, 4150, 4162, 4161, 4152, 0, 1, 4700, -89.900, 0.000, 44.200, 0.000, 0.000, -0.500, 0.0, , , , , , 96, , , 0, 0, 0
37.3812390, -119.5382642, 0.700, 14:35:43.884, 9, 0.00, 0.17, 98, 0.200, 0.700, 42.300, 2, 100, 100, 30, 25132, -7853, 5288, 5396, 16, 11, 1528839343.885, 77, 0, 1024, 1024, 1024, 1024, 0, 6, 4179, 4178, 4150, 4162, 4161, 4152, 0, 1, 4801, -89.900, 0.000, 44.200, 0.000, 0.000, -0.500, 0.0, , , , , , 96, , , 0, 0, 0
37.3812389, -119.5382642, 0.800, 14:35:43.984, 9, 0.00, 0.18, 98, 0.400, 0.700, 42.300, 2, 100, 100, 30, 25132, -7853, 5288, 5396, 16, 11, 1528839343.985, 79, 0, 1024, 1024, 1024, 1024, 0, 6, 4179, 4178, 4150, 4162, 4161, 4152, 0, 1, 4900, -89.900, 0.000, 44.200, 0.000, 0.000, -0.400, 0.0, , , , , , 96, , , 0, 0, 0
37.3812389, -119.5382642, 0.900, 14:35:44.084, 9, 0.00, 0.18, 98, 0.400, 0.600, 42.500, 2, 100, 100, 30, 24520, -16412, 5288, 5396, 16, 14, 1528839344.085, 7, 0, 1024, 1024, 1024, 1024, 0, 6, 4073, 4072, 4063, 4094, 4091, 4065, 0, 1, 5000, -89.900, 0.000, 44.100, 0.000, 0.000, -0.400, 0.0, , , , , , 96, , , 0, 0, 0
37.3812389, -119.5382642, 0.900, 14:35:44.184, 9, 0.00, 0.18, 98, 0.400, 0.600, 42.500, 2, 100, 100, 30, 24520, -16412, 5288, 5396, 16, 14, 1528839344.184, 107, 0, 1024, 1024, 1024, 1024, 0, 6, 4073, 4072, 4063, 4094, 4091, 4065, 0, 1, 5100, -89.900, 0.000, 44.100, 0.000, 0.000, -0.400, 0.0, , , , , , 96, , , 0, 0, 0
37.3812389, -119.5382642, 1.000, 14:35:44.284, 9, 0.00, 0.18, 98, 0.700, 0.800, 42.600, 2, 100, 100, 30, 24520, -16412, 5288, 5396, 16, 14, 1528839344.285, 75, 0, 1024, 1024, 1024, 1024, 0, 6, 4073, 4072, 4063, 4094, 4091, 4065, 0, 1, 5200, -89.900, 0.000, 44.100, 0.000, 0.000, -0.200, 0.0, , , , , , 96, , , 0, 0, 0
37.3812389, -119.5382643, 1.000, 14:35:44.384, 9, 0.00, 0.18, 98, 0.700, 0.900, 42.700, 2, 100, 100, 30, 24520, -16412, 5288, 5396, 16, 14, 1528839344.385, 91, 0, 1024, 1024, 1024, 1024, 0, 6, 4073, 4072, 4063, 4094, 4091, 4065, 0, 1, 5301, -89.900, 0.000, 44.000, 0.000, 0.000, -0.100, 0.0, , , , , , 96, , , 0, 0, 0
37.3812390, -119.5382644, 1.000, 14:35:44.484, 9, 0.00, 0.17, 98, 0.900, 0.900, 42.800, 2, 100, 100, 30, 24520, -16412, 5288, 5396, 16, 14, 1528839344.485, 87, 0, 1024, 1024, 1024, 1024, 0, 6, 4073, 4072, 4063, 4094, 4091, 4065, 0, 1, 5400, -89.900, 0.000, 44.000, 0.000, 0.000, -0.300, 0.0, , , , , , 96, , , 0, 0, 0
37.3812390, -119.5382644, 1.100, 14:35:44.584, 9, 0.00, 0.17, 98, 1.100, 0.800, 42.900, 2, 100, 100, 30, 24520, -16412, 5288, 5396, 16, 14, 1528839344.584, 89, 0, 1024, 1024, 1024, 1024, 0, 6, 4073, 4072, 4063, 4094, 4091, 4065, 0, 1, 5500, -89.900, 0.000, 44.000, 0.000, 0.000, -0.400, 0.0, , , , , , 96, , , 0, 0, 0
37.3812390, -119.5382645, 1.100, 14:35:44.684, 9, 0.00, 0.17, 98, 1.200, 0.600, 42.900, 2, 100, 100, 30, 24520, -16412, 5288, 5396, 16, 14, 1528839344.685, 89, 0, 1024, 1024, 1024, 1024, 0, 6, 4073, 4072, 4063, 4094, 4091, 4065, 0, 1, 5600, -89.900, 0.000, 44.000, 0.000, 0.000, -0.500, 0.0, , , , , , 96, , , 0, 0, 0
37.3812390, -119.5382645, 1.200, 14:35:44.784, 9, 0.00, 0.18, 98, 1.200, 0.400, 42.900, 2, 100, 100, 30, 24520, -16412, 5288, 5396, 16, 14, 1528839344.785, 73, 0, 1024, 1024, 1024, 1024, 0, 6, 4073, 4072, 4063, 4094, 4091, 4065, 0, 1, 5700, -89.900, 0.000, 43.900, 0.000, 0.000, -0.700, 0.0, , , , , , 96, , , 0, 0, 0
37.3812390, -119.5382646, 1.300, 14:35:44.884, 9, 0.00, 0.18, 98, 1.100, 0.300, 42.900, 2, 100, 100, 30, 24520, -16412, 5288, 5396, 16, 14, 1528839344.884, 74, 0, 1024, 1024, 1024, 1024, 0, 6, 4073, 4072, 4063, 4094, 4091, 4065, 0, 1, 5800, -90.000, 0.000, 43.900, 0.000, 0.000, -0.900, 0.0, , , , , , 96, , , 0, 0, 0
37.3812390, -119.5382647, 1.400, 14:35:44.984, 9, 0.00, 0.17, 98, 1.100, 0.400, 42.900, 2, 100, 100, 30, 24520, -16412, 5288, 5396, 16, 14, 1528839344.985, 40, 0, 1024, 1024, 1024, 1024, 0, 6, 4073, 4072, 4063, 4094, 4091, 4065, 0, 1, 5901, -89.900, 0.000, 43.900, 0.000, 0.000, -1.100, 0.0, , , , , , 96, , , 0, 0, 0
37.3812391, -119.5382649, 1.500, 14:35:45.084, 9, 0.00, 0.16, 98, 1.200, 0.500, 42.900, 2, 100, 100, 30, 24354, -16539, 5234, 5396, 16, 14, 1528839345.085, 57, 0, 1024, 1024, 1024, 1024, 0, 6, 4045, 4052, 4041, 4085, 4079, 4040, 0, 1, 6000, -89.900, 0.000, 43.900, 0.000, 0.000, -1.300, 0.0, , , , , , 96, , , 0, 0, 0
37.3812393, -119.5382652, 1.700, 14:35:45.184, 8, 0.00, 0.16, 98, 1.700, 0.500, 42.900, 2, 100, 100, 30, 24354, -16539, 5234, 5396, 16, 14, 1528839345.185, 47, 0, 1024, 1024, 1024, 1024, 0, 6, 4045, 4052, 4041, 4085, 4079, 4040, 0, 1, 6101, -89.900, 0.000, 43.900, 0.000, 0.000, -1.500, 0.0, , , , , , 96, , , 0, 0, 0
37.3812393, -119.5382654, 1.800, 14:35:45.284, 8, 0.00, 0.17, 98, 2.100, 0.500, 42.800, 2, 100, 100, 30, 24354, -16539, 5234, 5396, 16, 14, 1528839345.285, 32, 0, 1024, 1024, 1024, 1024, 0, 6, 4045, 4052, 4041, 4085, 4079, 4040, 0, 1, 6200, -90.000, 0.000, 43.800, 0.000, 0.000, -1.700, 0.0, , , , , , 96, , , 0, 0, 0
37.3812392, -119.5382657, 2.000, 14:35:45.384, 8, 0.00, 0.18, 98, 2.200, 0.300, 42.800, 2, 100, 100, 30, 24354, -16539, 5234, 5396, 16, 14, 1528839345.384, 48, 0, 1024, 1024, 1024, 1024, 0, 6, 4045, 4052, 4041, 4085, 4079, 4040, 0, 1, 6300, -90.000, 0.000, 43.800, 0.000, 0.000, -2.000, 0.0, , , , , , 96, , , 0, 0, 0
37.3812393, -119.5382661, 2.200, 14:35:45.484, 8, 0.00, 0.21, 97, 2.200, 0.000, 42.700, 2, 100, 100, 30, 24354, -16539, 5234, 5396, 16, 14, 1528839345.485, 50, 0, 1024, 1024, 1024, 1024, 0, 6, 4045, 4052, 4041, 4085, 4079, 4040, 0, 1, 6401, -90.000, 0.000, 43.800, 0.000, 0.000, -2.200, 0.0, , , , , , 96, , , 0, 0, 0
37.3812393, -119.5382665, 2.500, 14:35:45.584, 9, 0.00, 0.23, 97, 2.500, -0.300, 42.600, 2, 100, 100, 30, 24354, -16539, 5234, 5396, 16, 14, 1528839345.585, 14, 0, 1024, 1024, 1024, 1024, 0, 6, 4045, 4052, 4041, 4085, 4079, 4040, 0, 1, 6500, -90.000, 0.000, 43.800, 0.000, 0.000, -2.400, 0.0, , , , , , 96, , , 0, 0, 0
37.3812393, -119.5382665, 2.700, 14:35:45.684, 9, 0.00, 0.23, 97, 2.900, -0.500, 42.500, 2, 100, 100, 30, 24354, -16539, 5234, 5396, 16, 14, 1528839345.685, 40, 0, 1024, 1024, 1024, 1024, 0, 6, 4045, 4052, 4041, 4085, 4079, 4040, 0, 1, 6601, -90.000, 0.000, 43.800, 0.000, 0.000, -2.600, 0.0, , , , , , 96, , , 0, 0, 0
37.3812393, -119.5382664, 3.000, 14:35:45.784, 9, 0.00, 0.22, 97, 2.500, -0.300, 42.500, 2, 100, 100, 30, 24354, -16539, 5234, 5396, 16, 14, 1528839345.784, 21, 0, 1024, 1024, 1024, 1024, 0, 6, 4045, 4052, 4041, 4085, 4079, 4040, 0, 1, 6700, -89.900, 0.000, 43.800, 0.000, 0.000, -2.800, 0.0, , , , , , 96, , , 0, 0, 0
37.3812394, -119.5382667, 3.300, 14:35:45.884, 9, 0.00, 0.24, 97, 2.000, 0.100, 42.500, 2, 100, 100, 30, 24354, -16539, 5234, 5396, 16, 14, 1528839345.885, 13, 0, 1024, 1024, 1024, 1024, 0, 6, 4045, 4052, 4041, 4085, 4079, 4040, 0, 1, 6801, -89.900, 0.000, 43.700, 0.000, 0.000, -2.900, 0.0, , , , , , 96, , , 0, 0, 0
37.3812394, -119.5382669, 3.600, 14:35:45.984, 8, 0.00, 0.26, 97, 2.000, 0.200, 42.500, 2, 100, 100, 30, 24077, -18804, 5234, 5396, 16, 14, 1528839345.984, 15, 0, 1024, 1024, 1024, 1024, 0, 6, 4002, 3989, 4006, 4012, 4008, 3988, 0, 1, 6900, -89.900, 0.000, 43.700, 0.000, 0.000, -3.000, 0.0, , , , , , 96, , , 0, 0, 0
37.3812394, -119.5382674, 3.900, 14:35:46.084, 8, 0.00, 0.29, 97, 2.200, 0.000, 42.500, 2, 100, 100, 30, 24077, -18804, 5234, 5396, 16, 14, 1528839346.085, 18, 0, 1024, 1024, 1024, 1024, 0, 6, 4002, 3989, 4006, 4012, 4008, 3988, 0, 1, 7001, -90.000, 0.000, 43.700, 0.000, 0.000, -3.100, 0.0, , , , , , 96, , , 0, 0, 0
37.3812394, -119.5382678, 4.300, 14:35:46.189, 7, 0.00, 0.33, 97, 2.600, -0.300, 42.500, 2, 100, 100, 30, 24077, -18804, 5234, 5396, 16, 14, 1528839346.190, 1, 0, 1024, 1024, 1024, 1024, 0, 6, 4002, 3989, 4006, 4012, 4008, 3988, 0, 1, 7105, -90.000, 0.000, 43.700, 0.000, 0.000, -3.200, 0.0, , , , , , 96, , , 0, 0, 0
37.3812395, -119.5382682, 4.600, 14:35:46.284, 7, 0.00, 0.36, 97, 3.200, -0.800, 42.500, 2, 100, 100, 30, 24077, -18804, 5234, 5396, 16, 14, 1528839346.285, 8, 0, 1024, 1024, 1024, 1024, 0, 6, 4002, 3989, 4006, 4012, 4008, 3988, 0, 1, 7200, -90.000, 0.000, 43.700, 0.000, 0.000, -3.200, 0.0, , , , , , 96, , , 0, 0, 0
37.3812395, -119.5382682, 4.600, 14:35:46.384, 7, 0.00, 0.36, 97, 3.200, -0.800, 42.500, 2, 100, 100, 30, 24077, -18804, 5234, 5396, 16, 14, 1528839346.384, 108, 0, 1024, 1024, 1024, 1024, 0, 6, 4002, 3989, 4006, 4012, 4008, 3988, 0, 1, 7300, -90.000, 0.000, 43.700, 0.000, 0.000, -3.200, 0.0, , , , , , 96, , , 0, 0, 0
37.3812394, -119.5382688, 5.200, 14:35:46.484, 7, 0.00, 0.41, 97, 3.600, -1.200, 42.500, 2, 100, 100, 30, 24077, -18804, 5234, 5396, 16, 14, 1528839346.484, 91, 0, 1024, 1024, 1024, 1024, 0, 6, 4002, 3989, 4006, 4012, 4008, 3988, 0, 1, 7400, -90.000, 0.000, 43.700, 0.000, 0.000, -3.100, 0.0, , , , , , 96, , , 0, 0, 0
37.3812394, -119.5382690, 5.600, 14:35:46.584, 8, 0.00, 0.43, 97, 3.400, -1.200, 42.500, 2, 100, 100, 30, 24077, -18804, 5234, 5396, 16, 14, 1528839346.584, 86, 0, 1024, 1024, 1024, 1024, 0, 6, 4002, 3989, 4006, 4012, 4008, 3988, 0, 1, 7500, -90.000, 0.000, 43.600, 0.000, 0.000, -3.200, 0.0, , , , , , 96, , , 0, 0, 0
37.3812393, -119.5382690, 5.900, 14:35:46.684, 8, 0.10, 0.43, 97, 3.200, -1.200, 42.500, 2, 100, 100, 30, 24077, -18804, 5234, 5396, 16, 14, 1528839346.685, 80, 0, 1024, 1024, 1024, 1024, 0, 6, 4002, 3989, 4006, 4012, 4008, 3988, 0, 1, 7600, -90.000, 0.000, 43.600, 0.000, 0.100, -3.200, 0.0, , , , , , 96, , , 0, 0, 0
37.3812392, -119.5382689, 6.200, 14:35:46.784, 9, 0.10, 0.43, 97, 2.700, -1.100, 42.600, 2, 100, 100, 30, 24077, -18804, 5234, 5396, 16, 14, 1528839346.785, 45, 0, 1024, 1024, 1024, 1024, 0, 6, 4002, 3989, 4006, 4012, 4008, 3988, 0, 1, 7700, -89.900, 0.000, 43.600, 0.000, 0.100, -3.200, 0.0, , , , , , 96, , , 0, 0, 0
37.3812391, -119.5382687, 6.600, 14:35:46.884, 9, 0.10, 0.42, 97, 2.200, -0.800, 42.600, 2, 100, 100, 30, 24077, -18804, 5234, 5396, 16, 14, 1528839346.884, 52, 0, 1024, 1024, 1024, 1024, 0, 6, 4002, 3989, 4006, 4012, 4008, 3988, 0, 1, 7800, -89.900, 0.000, 43.600, 0.000, 0.100, -3.200, 0.0, , , , , , 96, , , 0, 0, 0
37.3812390, -119.5382684, 6.900, 14:35:46.984, 8, 0.20, 0.40, 97, 1.500, -0.400, 42.600, 2, 100, 100, 30, 23699, -22848, 5234, 5396, 16, 14, 1528839346.984, 48, 0, 1024, 1024, 1024, 1024, 0, 6, 4002, 3989, 4006, 4012, 4008, 3988, 0, 1, 7900, -89.900, 0.000, 43.600, 0.000, 0.200, -3.200, 0.0, , , , , , 96, , , 0, 0, 0
37.3812390, -119.5382682, 7.200, 14:35:47.084, 8, 0.20, 0.38, 97, 1.100, 0.100, 42.500, 2, 100, 100, 30, 23699, -22848, 5234, 5396, 16, 14, 1528839347.085, 55, 0, 1024, 1024, 1024, 1024, 0, 6, 4002, 3989, 4006, 4012, 4008, 3988, 0, 1, 8000, -89.900, 0.000, 43.600, 0.000, 0.200, -3.200, 0.0, , , , , , 96, , , 0, 0, 0
37.3812391, -119.5382680, 7.600, 14:35:47.184, 8, 0.20, 0.36, 97, 0.900, 0.500, 42.500, 2, 100, 100, 30, 23699, -22848, 5234, 5396, 16, 14, 1528839347.184, 37, 0, 1024, 1024, 1024, 1024, 0, 6, 4002, 3989, 4006, 4012, 4008, 3988, 0, 1, 8100, -89.900, 0.000, 43.600, 0.000, 0.200, -3.200, 0.0, , , , , , 96, , , 0, 0, 0
37.3812391, -119.5382677, 7.900, 14:35:47.284, 8, 0.20, 0.34, 97, 0.900, 0.800, 42.400, 2, 100, 100, 30, 23699, -22848, 5234, 5396, 16, 14, 1528839347.285, 49, 0, 1024, 1024, 1024, 1024, 0, 6, 4002, 3989, 4006, 4012, 4008, 3988, 0, 1, 8200, -89.900, 0.000, 43.600, 0.000, 0.200, -3.100, 0.0, , , , , , 96, , , 0, 0, 0
37.3812391, -119.5382674, 8.200, 14:35:47.383, 9, 0.20, 0.31, 97, 0.900, 1.200, 42.400, 2, 100, 100, 30, 23699, -22848, 5234, 5396, 16, 14, 1528839347.384, 41, 0, 1024, 1024, 1024, 1024, 0, 6, 4002, 3989, 4006, 4012, 4008, 3988, 0, 1, 8300, -89.900, 0.000, 43.600, 0.000, 0.200, -3.200, 0.0, , , , , , 96, , , 0, 0, 0
37.3812390, -119.5382672, 8.500, 14:35:47.484, 9, 0.20, 0.30, 97, 0.900, 1.200, 42.400, 2, 100, 100, 30, 23699, -22848, 5234, 5396, 16, 14, 1528839347.485, 37, 0, 1024, 1024, 1024, 1024, 0, 6, 3929, 3958, 3956, 3990, 4003, 3964, 0, 1, 8400, -89.900, 0.000, 43.600, 0.000, 0.200, -3.100, 0.0, , , , , , 96, , , 0, 0, 0
37.3812390, -119.5382670, 8.900, 14:35:47.584, 8, 0.20, 0.29, 97, 0.700, 1.100, 42.300, 2, 100, 100, 30, 23699, -22848, 5234, 5396, 16, 14, 1528839347.584, 29, 0, 1024, 1024, 1024, 1024, 0, 6, 3929, 3958, 3956, 3990, 4003, 3964, 0, 1, 8500, -89.900, 0.000, 43.600, 0.000, 0.200, -3.100, 0.0, , , , , , 96, , , 0, 0, 0
37.3812389, -119.5382669, 9.200, 14:35:47.684, 8, 0.10, 0.28, 97, 0.500, 0.800, 42.300, 2, 100, 100, 30, 23699, -22848, 5234, 5396, 16, 14, 1528839347.685, 7, 0, 1024, 1024, 1024, 1024, 0, 6, 3929, 3958, 3956, 3990, 4003, 3964, 0, 1, 8600, -89.900, 0.000, 43.600, 0.000, 0.100, -3.100, 0.0, , , , , , 96, , , 0, 0, 0
37.3812389, -119.5382667, 9.500, 14:35:47.784, 9, 0.10, 0.28, 97, 0.500, 0.600, 42.300, 2, 100, 100, 30, 23699, -22848, 5234, 5396, 16, 14, 1528839347.784, 22, 0, 1024, 1024, 1024, 1024, 0, 6, 3929, 3958, 3956, 3990, 4003, 3964, 0, 1, 8700, -89.900, 0.000, 43.600, 0.000, 0.100, -3.100, 0.0, , , , , , 96, , , 0, 0, 0
37.3812388, -119.5382664, 9.800, 14:35:47.884, 9, 0.10, 0.27, 97, 0.300, 0.500, 42.400, 2, 100, 100, 30, 23699, -22848, 5234, 5396, 16, 14, 1528839347.885, 10, 0, 1024, 1024, 1024, 1024, 0, 6, 3929, 3958, 3956, 3990, 4003, 3964, 0, 1, 8801, -89.900, 0.000, 43.600, 0.000, 0.100, -3.100, 0.0, , , , , , 96, , , 0, 0, 0
37.3812386, -119.5382660, 10.100, 14:35:47.984, 9, 0.10, 0.26, 97, 0.100, 0.400, 42.500, 2, 100, 100, 30, 23699, -22848, 5234, 5396, 16, 14, 1528839347.985, 14, 0, 1024, 1024, 1024, 1024, 0, 6, 3929, 3958, 3956, 3990, 4003, 3964, 0, 1, 8901, -89.900, 0.000, 43.600, 0.000, 0.100, -3.100, 0.0, , , , , , 96, , , 0, 0, 0
37.3812386, -119.5382657, 10.500, 14:35:48.084, 9, 0.10, 0.25, 97, -0.100, 0.600, 42.500, 2, 100, 100, 30, 23699, -22848, 5234, 5396, 16, 14, 1528839348.084, 18, 0, 1024, 1024, 1024, 1024, 0, 6, 3929, 3958, 3956, 3990, 4003, 3964, 0, 1, 9000, -89.900, 0.000, 43.600, 0.000, 0.100, -3.100, 0.0, , , , , , 96, , , 0, 0, 0
37.3812386, -119.5382657, 10.500, 14:35:48.184, 9, 0.10, 0.25, 97, -0.100, 0.600, 42.500, 2, 100, 100, 30, 23699, -22848, 5234, 5396, 16, 14, 1528839348.184, 118, 0, 1024, 1024, 1024, 1024, 0, 6, 3929, 3958, 3956, 3990, 4003, 3964, 0, 1, 9100, -89.900, 0.000, 43.600, 0.000, 0.100, -3.100, 0.0, , , , , , 96, , , 0, 0, 0
37.3812385, -119.5382649, 11.100, 14:35:48.284, 9, 0.10, 0.23, 97, -0.700, 1.200, 42.600, 2, 100, 100, 30, 23699, -22848, 5234, 5396, 16, 14, 1528839348.285, 2, 0, 1024, 1024, 1024, 1024, 0, 6, 3929, 3958, 3956, 3990, 4003, 3964, 0, 1, 9200, -89.900, 0.000, 43.600, 0.000, 0.100, -3.100, 0.0, , , , , , 96, , , 0, 0, 0
37.3812385, -119.5382649, 11.100, 14:35:48.384, 9, 0.10, 0.23, 97, -0.700, 1.200, 42.600, 2, 100, 100, 30, 23699, -22848, 5234, 5396, 16, 14, 1528839348.384, 102, 0, 1024, 1024, 1024, 1024, 0, 6, 3929, 3958, 3956, 3990, 4003, 3964, 0, 1, 9300, -89.900, 0.000, 43.600, 0.000, 0.100, -3.100, 0.0, , , , , , 96, , , 0, 0, 0
37.3812384, -119.5382646, 11.400, 14:35:48.484, 9, 0.10, 0.24, 97, -0.900, 1.500, 42.600, 2, 100, 100, 30, 23699, -22848, 5234, 5396, 16, 14, 1528839348.485, 97, 0, 1024, 1024, 1024, 1024, 0, 6, 3929, 3958, 3956, 3990, 4003, 3964, 0, 1, 9400, -89.900, 0.000, 43.600, 0.000, 0.100, -3.000, 0.0, , , , , , 96, , , 0, 0, 0
37.3812384, -119.5382643, 11.700, 14:35:48.584, 9, 0.10, 0.24, 97, -1.000, 1.600, 42.600, 2, 100, 100, 30, 23977, -18731, 5234, 5396, 16, 14, 1528839348.584, 97, 0, 1024, 1024, 1024, 1024, 0, 6, 3975, 3991, 3982, 4026, 4029, 3984, 0, 1, 9500, -89.900, 0.000, 43.600, 0.000, 0.100, -3.000, 0.0, , , , , , 96, , , 0, 0, 0
37.3812382, -119.5382638, 12.400, 14:35:48.684, 9, 0.10, 0.27, 97, -0.700, 1.700, 42.700, 2, 100, 100, 30, 23977, -18731, 5234, 5396, 16, 14, 1528839348.684, 86, 0, 1024, 1024, 1024, 1024, 0, 6, 3975, 3991, 3982, 4026, 4029, 3984, 0, 1, 9600, -89.900, 0.000, 43.600, 0.000, 0.100, -3.000, 0.0, , , , , , 96, , , 0, 0, 0
37.3812381, -119.5382635, 12.700, 14:35:48.784, 9, 0.00, 0.28, 97, -0.500, 1.500, 42.700, 2, 100, 100, 30, 23977, -18731, 5234, 5396, 16, 14, 1528839348.784, 94, 0, 1024, 1024, 1024, 1024, 0, 6, 3975, 3991, 3982, 4026, 4029, 3984, 0, 1, 9700, -89.900, 0.000, 43.600, 0.000, 0.000, -3.000, 0.0, , , , , , 96, , , 0, 0, 0
37.3812380, -119.5382633, 13.000, 14:35:48.884, 9, 0.00, 0.30, 97, -0.500, 1.100, 42.800, 2, 100, 100, 30, 23977, -18731, 5234, 5396, 16, 14, 1528839348.884, 98, 0, 1024, 1024, 1024, 1024, 0, 6, 3975, 3991, 3982, 4026, 4029, 3984, 0, 1, 9800, -89.900, 0.000, 43.600, 0.000, 0.000, -2.900, 0.0, , , , , , 96, , , 0, 0, 0
37.3812379, -119.5382631, 13.300, 14:35:48.984, 9, 0.00, 0.32, 97, -0.600, 0.900, 42.700, 2, 100, 100, 30, 23977, -18731, 5234, 5396, 16, 14, 1528839348.984, 81, 0, 1024, 1024, 1024, 1024, 0, 6, 3975, 3991, 3982, 4026, 4029, 3984, 0, 1, 9900, -89.900, 0.000, 43.600, 0.000, 0.000, -2.900, 0.0, , , , , , 96, , , 0, 0, 0
37.3812379, -119.5382629, 13.600, 14:35:49.084, 9, 0.00, 0.32, 97, -0.700, 0.800, 42.700, 2, 100, 100, 30, 23977, -18731, 5234, 5396, 16, 14, 1528839349.084, 73, 0, 1024, 1024, 1024, 1024, 0, 6, 3975, 3991, 3982, 4026, 4029, 3984, 0, 1, 10000, -89.900, 0.000, 43.600, 0.000, 0.000, -2.900, 0.0, , , , , , 96, , , 0, 0, 0
37.3812379, -119.5382628, 13.900, 14:35:49.184, 9, 0.00, 0.33, 97, -0.600, 0.900, 42.600, 2, 100, 99, 30, 23977, -18731, 5234, 5396, 16, 14, 1528839349.184, 55, 0, 1024, 1024, 1024, 1024, 0, 6, 3975, 3991, 3982, 4026, 4029, 3984, 0, 1, 10100, -89.900, 0.000, 43.600, 0.000, 0.000, -2.900, 0.0, , , , , , 96, , , 0, 0, 0
37.3812378, -119.5382628, 14.200, 14:35:49.284, 9, 0.00, 0.33, 97, -0.600, 1.000, 42.500, 2, 100, 99, 30, 23977, -18731, 5234, 5396, 16, 14, 1528839349.284, 67, 0, 1024, 1024, 1024, 1024, 0, 6, 3975, 3991, 3982, 4026, 4029, 3984, 0, 1, 10200, -89.900, 0.000, 43.600, 0.000, 0.000, -2.900, 0.0, , , , , , 96, , , 0, 0, 0
37.3812379, -119.5382628, 14.500, 14:35:49.384, 10, 0.00, 0.33, 97, -0.400, 1.000, 42.400, 2, 100, 99, 30, 23977, -18731, 5234, 5396, 16, 14, 1528839349.384, 60, 0, 1024, 1024, 1024, 1024, 0, 6, 3975, 3991, 3982, 4026, 4029, 3984, 0, 1, 10300, -89.900, 0.000, 43.600, 0.000, 0.000, -2.900, 0.0, , , , , , 96, , , 0, 0, 0
37.3812379, -119.5382626, 14.800, 14:35:49.484, 10, 0.00, 0.33, 97, -0.200, 1.000, 42.400, 2, 100, 99, 30, 23977, -18731, 5234, 5396, 16, 14, 1528839349.484, 66, 0, 1024, 1024, 1024, 1024, 0, 6, 3975, 3991, 3982, 4026, 4029, 3984, 0, 1, 10400, -89.900, 0.000, 43.600, 0.000, 0.000, -3.000, 0.0, , , , , , 96, , , 0, 0, 0
37.3812380, -119.5382625, 15.100, 14:35:49.584, 11, 0.00, 0.32, 97, 0.000, 1.200, 42.500, 2, 100, 98, 30, 23999, -18148, 5234, 5396, 16, 14, 1528839349.584, 47, 0, 1024, 1024, 1024, 1024, 0, 6, 3992, 3982, 3997, 4019, 4032, 3994, 0, 1, 10500, -89.900, 0.000, 43.600, 0.000, 0.000, -2.900, 0.0, , , , , , 96, , , 0, 0, 0
37.3812381, -119.5382625, 15.400, 14:35:49.684, 11, 0.00, 0.32, 97, 0.000, 1.400, 42.500, 2, 100, 98, 30, 23999, -18148, 5234, 5396, 16, 14, 1528839349.684, 47, 0, 1024, 1024, 1024, 1024, 0, 6, 3992, 3982, 3997, 4019, 4032, 3994, 0, 1, 10600, -89.900, 0.000, 43.600, 0.000, 0.000, -2.900, 0.0, , , , , , 96, , , 0, 0, 0
37.3812381, -119.5382624, 15.700, 14:35:49.784, 11, 0.00, 0.32, 97, 0.100, 1.500, 42.500, 2, 100, 98, 30, 23999, -18148, 5234, 5396, 16, 14, 1528839349.784, 38, 0, 1024, 1024, 1024, 1024, 0, 6, 3992, 3982, 3997, 4019, 4032, 3994, 0, 1, 10700, -89.900, 0.000, 43.600, 0.000, 0.000, -2.900, 0.0, , , , , , 96, , , 0, 0, 0
37.3812381, -119.5382625, 16.000, 14:35:49.884, 11, 0.00, 0.32, 97, 0.100, 1.500, 42.600, 2, 100, 98, 30, 23999, -18148, 5234, 5396, 16, 14, 1528839349.885, 18, 0, 1024, 1024, 1024, 1024, 0, 6, 3992, 3982, 3997, 4019, 4032, 3994, 0, 1, 10801, -89.900, 0.000, 43.600, 0.000, 0.000, -2.900, 0.0, , , , , , 96, , , 0, 0, 0
37.3812381, -119.5382626, 16.300, 14:35:49.984, 11, 0.00, 0.31, 97, 0.200, 1.300, 42.700, 2, 100, 98, 30, 23999, -18148, 5234, 5396, 16, 14, 1528839349.984, 45, 0, 1024, 1024, 1024, 1024, 0, 6, 3992, 3982, 3997, 4019, 4032, 3994, 0, 1, 10900, -89.900, 0.000, 43.600, 0.000, 0.000, -2.900, 0.0, , , , , , 96, , , 0, 0, 0
37.3812381, -119.5382625, 16.600, 14:35:50.084, 11, 0.00, 0.32, 97, 0.300, 1.100, 42.700, 2, 100, 98, 30, 23999, -18148, 5234, 5396, 16, 14, 1528839350.085, 17, 0, 1024, 1024, 1024, 1024, 0, 6, 3992, 3982, 3997, 4019, 4032, 3994, 0, 1, 11001, -89.900, 0.000, 43.600, 0.000, 0.000, -2.900, 0.0, , , , , , 96, , , 0, 0, 0
37.3812380, -119.5382625, 16.900, 14:35:50.184, 11, 0.00, 0.33, 97, 0.000, 0.900, 42.700, 2, 100, 98, 30, 23999, -18148, 5234, 5396, 16, 14, 1528839350.184, 7, 0, 1024, 1024, 1024, 1024, 0, 6, 3992, 3982, 3997, 4019, 4032, 3994, 0, 1, 11100, -89.900, 0.000, 43.600, 0.000, 0.000, -2.900, 0.0, , , , , , 96, , , 0, 0, 0
37.3812381, -119.5382627, 17.200, 14:35:50.284, 11, 0.00, 0.32, 97, -0.100, 0.700, 42.700, 2, 100, 98, 30, 23999, -18148, 5234, 5396, 16, 14, 1528839350.285, 22, 0, 1024, 1024, 1024, 1024, 0, 6, 3992, 3982, 3997, 4019, 4032, 3994, 0, 1, 11201, -89.900, 0.000, 43.600, 0.000, 0.000, -2.900, 0.0, , , , , , 96, , , 0, 0, 0
37.3812381, -119.5382629, 17.500, 14:35:50.384, 11, 0.00, 0.30, 97, 0.100, 0.500, 42.600, 2, 100, 98, 30, 23999, -18148, 5234, 5396, 16, 14, 1528839350.384, 9, 0, 1024, 1024, 1024, 1024, 0, 6, 3992, 3982, 3997, 4019, 4032, 3994, 0, 1, 11300, -90.000, 0.000, 43.600, 0.000, 0.000, -3.000, 0.0, , , , , , 96, , , 0, 0, 0
37.3812381, -119.5382629, 17.800, 14:35:50.484, 11, 0.00, 0.30, 97, 0.400, 0.300, 42.600, 2, 100, 98, 30, 23991, -18331, 5234, 5396, 16, 14, 1528839350.484, 2, 0, 1024, 1024, 1024, 1024, 0, 6, 3992, 3982, 3997, 4019, 4032, 3994, 0, 1, 11400, -90.000, 0.000, 43.600, 0.000, 0.000, -3.000, 0.0, , , , , , 96, , , 0, 0, 0
37.3812382, -119.5382629, 18.100, 14:35:50.584, 11, 0.00, 0.29, 97, 0.600, 0.400, 42.600, 2, 100, 99, 30, 23991, -18331, 5234, 5396, 16, 14, 1528839350.584, 16, 0, 1024, 1024, 1024, 1024, 0, 6, 3977, 3982, 3985, 4022, 4021, 3989, 0, 1, 11500, -89.900, 0.000, 43.600, 0.000, 0.000, -2.900, 0.0, , , , , , 96, , , 0, 0, 0
37.3812382, -119.5382630, 18.400, 14:35:50.683, 11, 0.00, 0.29, 97, 0.600, 0.600, 42.600, 2, 100, 99, 30, 23991, -18331, 5234, 5396, 16, 14, 1528839350.683, 18, 0, 1024, 1024, 1024, 1024, 0, 6, 3977, 3982, 3985, 4022, 4021, 3989, 0, 1, 11599, -89.900, 0.000, 43.600, 0.000, 0.000, -2.900, 0.0, , , , , , 96, , , 0, 0, 0
37.3812382, -119.5382633, 19.000, 14:35:50.783, 11, 0.00, 0.27, 97, 0.600, 0.400, 42.500, 2, 100, 99, 30, 23991, -18331, 5234, 5396, 16, 14, 1528839350.783, 3, 0, 1024, 1024, 1024, 1024, 0, 6, 3977, 3982, 3985, 4022, 4021, 3989, 0, 1, 11699, -89.900, 0.000, 43.600, 0.000, 0.000, -2.900, 0.0, , , , , , 96, , , 0, 0, 0
37.3812382, -119.5382633, 19.000, 14:35:50.884, 11, 0.00, 0.27, 97, 0.600, 0.400, 42.500, 2, 100, 99, 30, 23991, -18331, 5234, 5396, 16, 14, 1528839350.884, 104, 0, 1024, 1024, 1024, 1024, 0, 6, 3977, 3982, 3985, 4022, 4021, 3989, 0, 1, 11800, -89.900, 0.000, 43.600, 0.000, 0.000, -2.900, 0.0, , , , , , 96, , , 0, 0, 0
37.3812383, -119.5382635, 19.300, 14:35:50.984, 11, 0.00, 0.26, 97, 0.700, 0.100, 42.400, 2, 100, 99, 30, 23991, -18331, 5234, 5396, 16, 14, 1528839350.984, 9, 0, 1024, 1024, 1024, 1024, 0, 6, 3977, 3982, 3985, 4022, 4021, 3989, 0, 1, 11900, -89.900, 0.000, 43.600, 0.000, 0.000, -2.900, 0.0, , , , , , 96, , , 0, 0, 0
37.3812383, -119.5382635, 19.300, 14:35:51.084, 11, 0.00, 0.26, 97, 0.700, 0.100, 42.400, 2, 100, 99, 30, 23991, -18331, 5234, 5396, 16, 14, 1528839351.084, 109, 0, 1024, 1024, 1024, 1024, 0, 6, 3977, 3982, 3985, 4022, 4021, 3989, 0, 1, 12000, -89.900, 0.000, 43.600, 0.000, 0.000, -2.900, 0.0, , , , , , 96, , , 0, 0, 0
37.3812384, -119.5382640, 19.900, 14:35:51.184, 11, 0.00, 0.24, 97, 1.100, 0.100, 42.300, 2, 100, 98, 30, 23991, -18331, 5234, 5396, 16, 14, 1528839351.184, 67, 0, 1024, 1024, 1024, 1024, 0, 6, 3977, 3982, 3985, 4022, 4021, 3989, 0, 1, 12100, -90.000, 0.000, 43.600, 0.000, 0.000, -3.000, 0.0, , , , , , 96, , , 0, 0, 0
37.3812385, -119.5382642, 20.200, 14:35:51.284, 11, 0.00, 0.23, 97, 1.400, 0.000, 42.400, 2, 100, 98, 30, 23991, -18331, 5234, 5396, 16, 14, 1528839351.284, 70, 0, 1024, 1024, 1024, 1024, 0, 6, 3977, 3982, 3985, 4022, 4021, 3989, 0, 1, 12200, -90.000, 0.000, 43.600, 0.000, 0.000, -2.900, 0.0, , , , , , 96, , , 0, 0, 0
37.3812385, -119.5382645, 20.500, 14:35:51.383, 11, 0.00, 0.23, 97, 1.700, 0.000, 42.500, 2, 100, 98, 30, 23991, -18331, 5234, 5396, 16, 14, 1528839351.383, 87, 0, 1024, 1024, 1024, 1024, 0, 6, 3977, 3982, 3985, 4022, 4021, 3989, 0, 1, 12299, -90.000, 0.000, 43.600, 0.000, 0.000, -2.900, 0.0, , , , , , 96, , , 0, 0, 0
37.3812386, -119.5382646, 20.800, 14:35:51.484, 11, 0.00, 0.22, 97, 2.100, 0.000, 42.600, 2, 100, 98, 30, 23991, -18331, 5234, 5396, 16, 14, 1528839351.484, 79, 0, 1024, 1024, 1024, 1024, 0, 6, 3977, 3982, 3985, 4022, 4021, 3989, 0, 1, 12400, -89.900, 0.000, 43.600, 0.000, 0.000, -2.900, 0.0, , , , , , 96, , , 0, 0, 0
37.3812386, -119.5382648, 21.100, 14:35:51.584, 11, 0.00, 0.22, 97, 2.200, 0.100, 42.700, 2, 100, 98, 30, 23941, -18428, 5234, 5396, 16, 14, 1528839351.584, 80, 0, 1024, 1024, 1024, 1024, 0, 6, 3968, 3974, 3978, 4013, 4021, 3977, 0, 1, 12500, -89.900, 0.000, 43.600, 0.000, 0.000, -2.900, 0.0, , , , , , 96, , , 0, 0, 0
37.3812387, -119.5382649, 21.400, 14:35:51.684, 11, 0.00, 0.21, 97, 2.200, 0.300, 42.800, 2, 100, 95, 30, 23941, -18428, 5234, 5396, 16, 14, 1528839351.684, 71, 0, 1024, 1024, 1024, 1024, 0, 6, 3968, 3974, 3978, 4013, 4021, 3977, 0, 1, 12600, -89.900, 0.000, 43.600, 0.000, 0.000, -2.900, 0.0, , , , , , 96, , , 0, 0, 0
37.3812388, -119.5382651, 21.700, 14:35:51.784, 11, 0.00, 0.20, 97, 2.000, 0.400, 42.800, 2, 100, 95, 30, 23941, -18428, 5234, 5396, 16, 14, 1528839351.784, 54, 0, 1024, 1024, 1024, 1024, 0, 6, 3968, 3974, 3978, 4013, 4021, 3977, 0, 1, 12700, -89.900, 0.000, 43.600, 0.000, 0.000, -2.900, 0.0, , , , , , 96, , , 0, 0, 0
37.3812388, -119.5382652, 22.000, 14:35:51.884, 11, 0.00, 0.21, 97, 1.800, 0.500, 42.700, 2, 100, 95, 30, 23941, -18428, 5234, 5396, 16, 14, 1528839351.884, 55, 0, 1024, 1024, 1024, 1024, 0, 6, 3968, 3974, 3978, 4013, 4021, 3977, 0, 1, 12800, -89.900, 0.000, 43.600, 0.000, 0.000, -2.900, 0.0, , , , , , 96, , , 0, 0, 0
37.3812388, -119.5382653, 22.300, 14:35:51.984, 11, 0.00, 0.21, 97, 1.700, 0.400, 42.600, 2, 100, 95, 30, 23941, -18428, 5234, 5396, 16, 14, 1528839351.984, 31, 0, 1024, 1024, 1024, 1024, 0, 6, 3968, 3974, 3978, 4013, 4021, 3977, 0, 1, 12900, -90.000, 0.000, 43.600, 0.000, 0.000, -2.900, 0.0, , , , , , 96, , , 0, 0, 0
37.3812388, -119.5382654, 22.600, 14:35:52.084, 11, 0.00, 0.22, 97, 1.600, 0.200, 42.500, 2, 100, 95, 30, 23941, -18428, 5234, 5396, 16, 14, 1528839352.084, 44, 0, 1024, 1024, 1024, 1024, 0, 6, 3968, 3974, 3978, 4013, 4021, 3977, 0, 1, 13000, -90.000, 0.000, 43.600, 0.000, 0.000, -2.900, 0.0, , , , , , 96, , , 0, 0, 0
37.3812388, -119.5382656, 22.800, 14:35:52.184, 11, 0.00, 0.22, 97, 1.600, 0.000, 42.300, 2, 100, 95, 30, 23941, -18428, 5234, 5396, 16, 14, 1528839352.184, 50, 0, 1024, 1024, 1024, 1024, 0, 6, 3968, 3974, 3978, 4013, 4021, 3977, 0, 1, 13100, -90.000, 0.000, 43.600, 0.000, 0.000, -2.900, 0.0, , , , , , 96, , , 0, 0, 0
37.3812388, -119.5382656, 23.200, 14:35:52.284, 11, 0.00, 0.22, 97, 1.500, 0.000, 42.300, 2, 100, 95, 30, 23941, -18428, 5234, 5396, 16, 14, 1528839352.284, 42, 0, 1024, 1024, 1024, 1024, 0, 6, 3968, 3974, 3978, 4013, 4021, 3977, 0, 1, 13200, -89.900, 0.000, 43.600, 0.000, 0.000, -3.000, 0.0, , , , , , 96, , , 0, 0, 0
37.3812388, -119.5382656, 23.400, 14:35:52.384, 11, 0.00, 0.22, 97, 1.500, 0.100, 42.200, 2, 100, 95, 30, 23941, -18428, 5234, 5396, 16, 14, 1528839352.384, 46, 0, 1024, 1024, 1024, 1024, 0, 6, 3968, 3974, 3978, 4013, 4021, 3977, 0, 1, 13300, -89.900, 0.000, 43.600, 0.000, 0.000, -2.900, 0.0, , , , , , 96, , , 0, 0, 0
37.3812388, -119.5382658, 23.700, 14:35:52.484, 11, 0.00, 0.23, 97, 1.400, 0.200, 42.200, 2, 100, 95, 30, 23900, -18524, 5234, 5396, 16, 14, 1528839352.484, 43, 0, 1024, 1024, 1024, 1024, 0, 6, 3968, 3974, 3978, 4013, 4021, 3977, 0, 1, 13400, -89.900, 0.000, 43.600, 0.000, 0.000, -2.900, 0.0, , , , , , 96, , , 0, 0, 0
37.3812388, -119.5382659, 24.000, 14:35:52.584, 11, 0.00, 0.23, 97, 1.300, 0.200, 42.200, 2, 100, 98, 30, 23900, -18524, 5234, 5396, 16, 14, 1528839352.584, 37, 0, 1024, 1024, 1024, 1024, 0, 6, 3968, 3974, 3978, 4013, 4021, 3977, 0, 1, 13500, -89.900, 0.000, 43.600, 0.000, 0.000, -3.000, 0.0, , , , , , 96, , , 0, 0, 0
37.3812388, -119.5382660, 24.300, 14:35:52.684, 11, 0.00, 0.24, 97, 1.400, 0.200, 42.400, 2, 100, 98, 30, 23900, -18524, 5234, 5396, 16, 14, 1528839352.684, 39, 0, 1024, 1024, 1024, 1024, 0, 6, 3968, 3974, 3978, 4013, 4021, 3977, 0, 1, 13600, -89.900, 0.000, 43.600, 0.000, 0.000, -2.900, 0.0, , , , , , 96, , , 0, 0, 0
37.3812388, -119.5382660, 24.300, 14:35:52.784, 11, 0.00, 0.24, 97, 1.400, 0.200, 42.400, 2, 100, 98, 30, 23900, -18524, 5234, 5396, 16, 14, 1528839352.784, 139, 0, 1024, 1024, 1024, 1024, 0, 6, 3968, 3974, 3978, 4013, 4021, 3977, 0, 1, 13700, -89.900, 0.000, 43.600, 0.000, 0.000, -2.900, 0.0, , , , , , 96, , , 0, 0, 0
37.3812389, -119.5382661, 24.900, 14:35:52.884, 11, 0.00, 0.24, 97, 1.300, 0.200, 42.700, 2, 100, 98, 30, 23900, -18524, 5234, 5396, 16, 14, 1528839352.885, 17, 0, 1024, 1024, 1024, 1024, 0, 6, 3968, 3974, 3978, 4013, 4021, 3977, 0, 1, 13801, -89.900, 0.000, 43.600, 0.000, 0.000, -2.900, 0.0, , , , , , 96, , , 0, 0, 0
37.3812389, -119.5382661, 25.200, 14:35:52.984, 11, 0.00, 0.24, 97, 1.300, 0.300, 42.800, 2, 100, 98, 30, 23900, -18524, 5234, 5396, 16, 14, 1528839352.984, 30, 0, 1024, 1024, 1024, 1024, 0, 6, 3969, 3965, 3978, 4007, 4015, 3970, 0, 1, 13900, -89.900, 0.000, 43.600, 0.000, 0.000, -2.900, 0.0, , , , , , 96, , , 0, 0, 0
37.3812389, -119.5382661, 25.200, 14:35:53.084, 11, 0.00, 0.24, 97, 1.300, 0.300, 42.800, 2, 100, 99, 30, 23900, -18524, 5234, 5396, 16, 14, 1528839353.084, 130, 0, 1024, 1024, 1024, 1024, 0, 6, 3969, 3965, 3978, 4007, 4015, 3970, 0, 1, 14000, -89.900, 0.000, 43.600, 0.000, 0.000, -2.900, 0.0, , , , , , 96, , , 0, 0, 0
37.3812389, -119.5382661, 25.200, 14:35:53.183, 11, 0.00, 0.24, 97, 1.300, 0.300, 42.800, 2, 100, 99, 30, 23900, -18524, 5234, 5396, 16, 14, 1528839353.183, 229, 0, 1024, 1024, 1024, 1024, 0, 6, 3969, 3965, 3978, 4007, 4015, 3970, 0, 1, 14099, -89.900, 0.000, 43.600, 0.000, 0.000, -2.900, 0.0, , , , , , 96, , , 0, 0, 0
37.3812388, -119.5382660, 26.100, 14:35:53.289, 11, 0.00, 0.24, 97, 1.000, 0.400, 42.900, 2, 100, 99, 30, 23900, -18524, 5234, 5396, 16, 14, 1528839353.290, 7, 0, 1024, 1024, 1024, 1024, 0, 6, 3969, 3965, 3978, 4007, 4015, 3970, 0, 1, 14205, -89.900, 0.000, 43.600, 0.000, 0.000, -3.000, 0.0, , , , , , 96, , , 0, 0, 0
37.3812387, -119.5382660, 26.400, 14:35:53.383, 11, 0.00, 0.25, 97, 0.700, 0.300, 42.800, 2, 100, 99, 30, 23900, -18524, 5234, 5396, 16, 14, 1528839353.384, 5, 0, 1024, 1024, 1024, 1024, 0, 6, 3969, 3965, 3978, 4007, 4015, 3970, 0, 1, 14299, -89.900, 0.000, 43.600, 0.000, 0.000, -3.000, 0.0, , , , , , 96, , , 0, 0, 0
37.3812387, -119.5382660, 26.400, 14:35:53.484, 11, 0.00, 0.25, 97, 0.700, 0.300, 42.800, 2, 100, 99, 30, 23900, -18524, 5234, 5396, 16, 14, 1528839353.484, 106, 0, 1024, 1024, 1024, 1024, 0, 6, 3969, 3965, 3978, 4007, 4015, 3970, 0, 1, 14400, -89.900, 0.000, 43.600, 0.000, 0.000, -3.000, 0.0, , , , , , 96, , , 0, 0, 0
37.3812387, -119.5382660, 26.700, 14:35:53.584, 11, 0.00, 0.25, 97, 0.600, 0.400, 42.600, 2, 100, 99, 30, 23900, -18524, 5234, 5396, 16, 14, 1528839353.584, 96, 0, 1024, 1024, 1024, 1024, 0, 6, 3969, 3965, 3978, 4007, 4015, 3970, 0, 1, 14500, -89.900, 0.000, 43.600, 0.000, 0.000, -3.000, 0.0, , , , , , 96, , , 0, 0, 0
37.3812387, -119.5382661, 27.300, 14:35:53.684, 11, 0.00, 0.25, 97, 0.900, 0.300, 42.300, 2, 100, 99, 30, 23900, -18524, 5234, 5396, 16, 14, 1528839353.684, 89, 0, 1024, 1024, 1024, 1024, 0, 6, 3969, 3965, 3978, 4007, 4015, 3970, 0, 1, 14600, -89.900, 0.000, 43.600, 0.000, 0.000, -2.900, 0.0, , , , , , 96, , , 0, 0, 0
37.3812387, -119.5382661, 27.300, 14:35:53.784, 11, 0.00, 0.25, 97, 0.900, 0.300, 42.300, 2, 100, 99, 30, 23900, -18524, 5234, 5396, 16, 14, 1528839353.784, 189, 0, 1024, 1024, 1024, 1024, 0, 6, 3969, 3965, 3978, 4007, 4015, 3970, 0, 1, 14700, -89.900, 0.000, 43.600, 0.000, 0.000, -2.900, 0.0, , , , , , 96, , , 0, 0, 0
37.3812387, -119.5382660, 27.900, 14:35:53.884, 11, 0.00, 0.25, 97, 1.100, 0.400, 42.400, 2, 100, 99, 30, 23900, -18524, 5234, 5396, 16, 14, 1528839353.884, 84, 0, 1024, 1024, 1024, 1024, 0, 6, 3969, 3965, 3978, 4007, 4015, 3970, 0, 1, 14800, -89.900, 0.000, 43.600, 0.000, 0.000, -3.000, 0.0, , , , , , 96, , , 0, 0, 0
37.3812387, -119.5382660, 28.200, 14:35:53.984, 11, 0.10, 0.25, 97, 1.100, 0.400, 42.500, 2, 100, 99, 30, 23900, -18524, 5234, 5396, 16, 14, 1528839353.984, 79, 0, 1024, 1024, 1024, 1024, 0, 6, 3969, 3965, 3978, 4007, 4015, 3970, 0, 1, 14900, -89.900, 0.000, 43.600, 0.000, 0.100, -3.000, 0.0, , , , , , 96, , , 0, 0, 0
37.3812387, -119.5382660, 28.500, 14:35:54.084, 11, 0.00, 0.25, 97, 0.900, 0.500, 42.600, 2, 100, 99, 30, 23878, -18536, 5234, 5396, 16, 14, 1528839354.084, 93, 0, 1024, 1024, 1024, 1024, 0, 6, 3954, 3970, 3963, 4009, 4012, 3963, 0, 1, 15000, -89.900, 0.000, 43.600, 0.000, 0.000, -3.000, 0.0, , , , , , 96, , , 0, 0, 0
37.3812387, -119.5382660, 28.800, 14:35:54.184, 12, 0.00, 0.25, 97, 0.500, 0.600, 42.600, 2, 100, 99, 30, 23878, -18536, 5234, 5396, 16, 14, 1528839354.184, 83, 0, 1024, 1024, 1024, 1024, 0, 6, 3954, 3970, 3963, 4009, 4012, 3963, 0, 1, 15100, -89.900, 0.000, 43.600, 0.000, 0.000, -3.000, 0.0, , , , , , 96, , , 0, 0, 0
37.3812387, -119.5382660, 29.100, 14:35:54.284, 12, 0.00, 0.25, 97, 0.600, 0.600, 42.600, 2, 100, 99, 30, 23878, -18536, 5234, 5396, 16, 14, 1528839354.284, 87, 0, 1024, 1024, 1024, 1024, 0, 6, 3954, 3970, 3963, 4009, 4012, 3963, 0, 1, 15200, -89.900, 0.000, 43.600, 0.000, 0.000, -3.000, 0.0, , , , , , 96, , , 0, 0, 0
37.3812387, -119.5382660, 29.400, 14:35:54.384, 11, 0.00, 0.24, 97, 0.800, 0.700, 42.700, 2, 100, 99, 30, 23878, -18536, 5234, 5396, 16, 14, 1528839354.384, 58, 0, 1024, 1024, 1024, 1024, 0, 6, 3954, 3970, 3963, 4009, 4012, 3963, 0, 1, 15300, -89.900, 0.000, 43.600, 0.000, 0.000, -3.000, 0.0, , , , , , 96, , , 0, 0, 0
37.3812387, -119.5382659, 29.700, 14:35:54.484, 11, 0.00, 0.24, 97, 1.000, 0.800, 42.700, 2, 100, 99, 30, 23878, -18536, 5234, 5396, 16, 14, 1528839354.484, 60, 0, 1024, 1024, 1024, 1024, 0, 6, 3954, 3970, 3963, 4009, 4012, 3963, 0, 1, 15400, -89.900, 0.000, 43.600, 0.000, 0.000, -3.000, 0.0, , , , , , 96, , , 0, 0, 0
37.3812387, -119.5382658, 30.000, 14:35:54.584, 11, 0.00, 0.24, 97, 1.100, 0.900, 42.700, 2, 100, 98, 30, 23878, -18536, 5234, 5396, 16, 14, 1528839354.584, 68, 0, 1024, 1024, 1024, 1024, 0, 6, 3954, 3970, 3963, 4009, 4012, 3963, 0, 1, 15500, -89.900, 0.000, 43.600, 0.000, 0.000, -3.000, 0.0, , , , , , 96, , , 0, 0, 0
37.3812388, -119.5382658, 30.300, 14:35:54.684, 11, 0.00, 0.23, 97, 1.100, 1.000, 42.800, 2, 100, 98, 30, 23878, -18536, 5234, 5396, 16, 14, 1528839354.684, 72, 0, 1024, 1024, 1024, 1024, 0, 6, 3954, 3970, 3963, 4009, 4012, 3963, 0, 1, 15600, -89.900, 0.000, 43.600, 0.000, 0.000, -3.000, 0.0, , , , , , 96, , , 0, 0, 0
37.3812388, -119.5382657, 30.600, 14:35:54.784, 11, 0.00, 0.22, 97, 0.800, 1.000, 43.000, 2, 100, 98, 30, 23878, -18536, 5234, 5396, 16, 14, 1528839354.784, 61, 0, 1024, 1024, 1024, 1024, 0, 6, 3954, 3970, 3963, 4009, 4012, 3963, 0, 1, 15700, -89.900, 0.000, 43.600, 0.000, 0.000, -3.000, 0.0, , , , , , 96, , , 0, 0, 0
37.3812388, -119.5382657, 31.000, 14:35:54.883, 11, 0.00, 0.22, 97, 0.600, 1.200, 43.000, 2, 100, 98, 30, 23878, -18536, 5234, 5396, 16, 14, 1528839354.884, 62, 0, 1024, 1024, 1024, 1024, 0, 6, 3954, 3970, 3963, 4009, 4012, 3963, 0, 1, 15800, -89.900, 0.000, 43.600, 0.000, 0.000, -3.000, 0.0, , , , , , 96, , , 0, 0, 0
37.3812388, -119.5382657, 31.300, 14:35:54.984, 12, 0.00, 0.22, 97, 0.800, 1.200, 43.100, 2, 100, 98, 30, 23856, -18657, 5180, 5396, 16, 14, 1528839354.984, 52, 0, 1024, 1024, 1024, 1024, 0, 6, 3955, 3958, 3962, 4006, 4015, 3957, 0, 1, 15900, -89.900, 0.000, 43.600, 0.000, 0.000, -3.000, 0.0, , , , , , 96, , , 0, 0, 0
37.3812388, -119.5382657, 31.600, 14:35:55.084, 12, 0.00, 0.22, 97, 1.100, 1.000, 43.100, 2, 100, 97, 30, 23856, -18657, 5180, 5396, 16, 14, 1528839355.084, 54, 0, 1024, 1024, 1024, 1024, 0, 6, 3955, 3958, 3962, 4006, 4015, 3957, 0, 1, 16000, -89.900, 0.000, 43.600, 0.000, 0.000, -3.000, 0.0, , , , , , 96, , , 0, 0, 0
37.3812388, -119.5382657, 31.900, 14:35:55.184, 12, 0.00, 0.23, 97, 1.400, 0.700, 43.000, 2, 100, 97, 30, 23856, -18657, 5180, 5396, 16, 14, 1528839355.184, 23, 0, 1024, 1024, 1024, 1024, 0, 6, 3955, 3958, 3962, 4006, 4015, 3957, 0, 1, 16100, -89.900, 0.000, 43.600, 0.000, 0.000, -3.000, 0.0, , , , , , 96, , , 0, 0, 0
37.3812387, -119.5382657, 32.200, 14:35:55.284, 12, 0.00, 0.23, 97, 1.200, 0.600, 42.800, 2, 100, 97, 30, 23856, -18657, 5180, 5396, 16, 14, 1528839355.285, 12, 0, 1024, 1024, 1024, 1024, 0, 6, 3955, 3958, 3962, 4006, 4015, 3957, 0, 1, 16201, -90.000, 0.000, 43.600, 0.000, 0.000, -3.000, 0.0, , , , , , 96, , , 0, 0, 0
37.3812387, -119.5382657, 32.500, 14:35:55.384, 12, 0.00, 0.23, 97, 0.800, 0.400, 42.700, 2, 100, 97, 30, 23856, -18657, 5180, 5396, 16, 14, 1528839355.384, 18, 0, 1024, 1024, 1024, 1024, 0, 6, 3955, 3958, 3962, 4006, 4015, 3957, 0, 1, 16300, -90.000, 0.000, 43.600, 0.000, 0.000, -3.000, 0.0, , , , , , 96, , , 0, 0, 0
37.3812387, -119.5382656, 32.800, 14:35:55.484, 12, 0.00, 0.23, 97, 0.700, 0.200, 42.500, 2, 100, 97, 30, 23856, -18657, 5180, 5396, 16, 14, 1528839355.484, 31, 0, 1024, 1024, 1024, 1024, 0, 6, 3955, 3958, 3962, 4006, 4015, 3957, 0, 1, 16400, -90.000, 0.000, 43.600, 0.000, 0.000, -2.900, 0.0, , , , , , 96, , , 0, 0, 0
37.3812386, -119.5382655, 33.100, 14:35:55.583, 12, 0.00, 0.24, 97, 0.500, 0.200, 42.400, 2, 100, 96, 30, 23856, -18657, 5180, 5396, 16, 14, 1528839355.583, 26, 0, 1024, 1024, 1024, 1024, 0, 6, 3955, 3958, 3962, 4006, 4015, 3957, 0, 1, 16499, -89.900, 0.000, 43.600, 0.000, 0.000, -2.900, 0.0, , , , , , 96, , , 0, 0, 0
37.3812386, -119.5382655, 33.400, 14:35:55.684, 12, 0.00, 0.24, 97, 0.400, 0.200, 42.400, 2, 100, 96, 30, 23856, -18657, 5180, 5396, 16, 14, 1528839355.684, 29, 0, 1024, 1024, 1024, 1024, 0, 6, 3955, 3958, 3962, 4006, 4015, 3957, 0, 1, 16600, -89.900, 0.000, 43.600, 0.000, 0.000, -2.900, 0.0, , , , , , 96, , , 0, 0, 0
37.3812385, -119.5382654, 33.700, 14:35:55.784, 12, 0.00, 0.24, 97, 0.300, 0.300, 42.500, 2, 100, 96, 30, 23856, -18657, 5180, 5396, 16, 14, 1528839355.785, 10, 0, 1024, 1024, 1024, 1024, 0, 6, 3955, 3958, 3962, 4006, 4015, 3957, 0, 1, 16700, -89.900, 0.000, 43.600, 0.000, 0.000, -2.900, 0.0, , , , , , 96, , , 0, 0, 0
37.3812385, -119.5382654, 34.000, 14:35:55.883, 12, 0.00, 0.25, 97, 0.100, 0.400, 42.400, 2, 100, 96, 30, 23856, -18657, 5180, 5396, 16, 14, 1528839355.883, 9, 0, 1024, 1024, 1024, 1024, 0, 6, 3955, 3958, 3962, 4006, 4015, 3957, 0, 1, 16799, -89.900, 0.000, 43.600, 0.000, 0.000, -2.900, 0.0, , , , , , 96, , , 0, 0, 0
37.3812385, -119.5382654, 34.000, 14:35:55.984, 12, 0.00, 0.25, 97, 0.100, 0.400, 42.400, 2, 100, 96, 30, 23856, -18657, 5180, 5396, 16, 14, 1528839355.984, 110, 0, 1024, 1024, 1024, 1024, 0, 6, 3955, 3958, 3962, 4006, 4015, 3957, 0, 1, 16900, -89.900, 0.000, 43.600, 0.000, 0.000, -2.900, 0.0, , , , , , 96, , , 0, 0, 0
37.3812384, -119.5382653, 34.300, 14:35:56.083, 12, 0.00, 0.25, 97, 0.200, 0.500, 42.400, 2, 100, 96, 31, 23872, -18301, 5180, 5396, 16, 14, 1528839356.084, 66, 0, 1024, 1024, 1024, 1024, 0, 6, 3954, 3966, 3972, 4000, 4013, 3968, 0, 1, 17000, -89.900, 0.000, 43.600, 0.000, 0.000, -2.900, 0.0, , , , , , 96, , , 0, 0, 0
37.3812384, -119.5382653, 34.600, 14:35:56.184, 12, 0.00, 0.25, 97, 0.200, 0.400, 42.400, 2, 100, 97, 31, 23872, -18301, 5180, 5396, 16, 14, 1528839356.184, 93, 0, 1024, 1024, 1024, 1024, 0, 6, 3954, 3966, 3972, 4000, 4013, 3968, 0, 1, 17100, -90.000, 0.000, 43.600, 0.000, 0.000, -2.900, 0.0, , , , , , 96, , , 0, 0, 0
37.3812384, -119.5382653, 34.900, 14:35:56.284, 12, 0.00, 0.26, 97, 0.300, 0.300, 42.400, 2, 100, 97, 31, 23872, -18301, 5180, 5396, 16, 14, 1528839356.284, 88, 0, 1024, 1024, 1024, 1024, 0, 6, 3954, 3966, 3972, 4000, 4013, 3968, 0, 1, 17200, -90.000, 0.000, 43.600, 0.000, 0.000, -2.900, 0.0, , , , , , 96, , , 0, 0, 0
37.3812383, -119.5382653, 35.200, 14:35:56.384, 12, 0.00, 0.26, 97, 0.300, 0.100, 42.400, 2, 100, 97, 31, 23872, -18301, 5180, 5396, 16, 14, 1528839356.384, 87, 0, 1024, 1024, 1024, 1024, 0, 6, 3954, 3966, 3972, 4000, 4013, 3968, 0, 1, 17300, -90.000, 0.000, 43.600, 0.000, 0.000, -2.900, 0.0, , , , , , 96, , , 0, 0, 0
37.3812384, -119.5382653, 35.800, 14:35:56.484, 12, 0.00, 0.26, 97, 0.600, 0.200, 42.400, 2, 100, 97, 31, 23872, -18301, 5180, 5396, 16, 14, 1528839356.484, 63, 0, 1024, 1024, 1024, 1024, 0, 6, 3954, 3966, 3972, 4000, 4013, 3968, 0, 1, 17400, -89.900, 0.000, 43.600, 0.000, 0.000, -2.900, 0.0, , , , , , 96, , , 0, 0, 0
37.3812384, -119.5382653, 36.100, 14:35:56.584, 12, 0.00, 0.26, 96, 0.700, 0.100, 42.500, 2, 100, 97, 31, 23872, -18301, 5180, 5396, 16, 14, 1528839356.584, 88, 0, 1024, 1024, 1024, 1024, 0, 6, 3954, 3966, 3972, 4000, 4013, 3968, 0, 1, 17500, -90.000, 0.000, 43.600, 0.000, 0.000, -2.900, 0.0, , , , , , 96, , , 0, 0, 0
37.3812383, -119.5382653, 36.400, 14:35:56.684, 12, 0.00, 0.26, 96, 0.800, 0.100, 42.500, 2, 100, 98, 31, 23872, -18301, 5180, 5396, 16, 14, 1528839356.684, 77, 0, 1024, 1024, 1024, 1024, 0, 6, 3954, 3966, 3972, 4000, 4013, 3968, 0, 1, 17600, -90.000, 0.000, 43.600, 0.000, 0.000, -2.900, 0.0, , , , , , 96, , , 0, 0, 0
37.3812383, -119.5382652, 36.700, 14:35:56.784, 12, 0.00, 0.26, 96, 0.800, 0.100, 42.600, 2, 100, 98, 31, 23872, -18301, 5180, 5396, 16, 14, 1528839356.784, 79, 0, 1024, 1024, 1024, 1024, 0, 6, 3954, 3966, 3972, 4000, 4013, 3968, 0, 1, 17700, -90.000, 0.000, 43.600, 0.000, 0.000, -2.900, 0.0, , , , , , 96, , , 0, 0, 0
37.3812383, -119.5382652, 37.000, 14:35:56.884, 12, 0.00, 0.26, 96, 0.700, 0.200, 42.600, 2, 100, 98, 31, 23872, -18301, 5180, 5396, 16, 14, 1528839356.884, 85, 0, 1024, 1024, 1024, 1024, 0, 6, 3954, 3966, 3972, 4000, 4013, 3968, 0, 1, 17800, -90.000, 0.000, 43.600, 0.000, 0.000, -2.900, 0.0, , , , , , 96, , , 0, 0, 0
37.3812383, -119.5382652, 37.300, 14:35:56.984, 12, 0.00, 0.26, 96, 0.600, 0.200, 42.600, 2, 100, 98, 31, 23872, -18301, 5180, 5396, 16, 14, 1528839356.984, 51, 0, 1024, 1024, 1024, 1024, 0, 6, 3954, 3966, 3972, 4000, 4013, 3968, 0, 1, 17900, -89.900, 0.000, 43.600, 0.000, 0.000, -2.900, 0.0, , , , , , 96, , , 0, 0, 0
37.3812383, -119.5382653, 37.600, 14:35:57.084, 12, 0.00, 0.26, 96, 0.600, 0.200, 42.600, 2, 100, 98, 31, 23861, -17928, 5180, 5396, 16, 14, 1528839357.084, 55, 0, 1024, 1024, 1024, 1024, 0, 6, 3959, 3966, 3963, 4004, 4003, 3965, 0, 1, 18000, -89.900, 0.000, 43.600, 0.000, 0.000, -2.900, 0.0, , , , , , 96, , , 0, 0, 0
37.3812383, -119.5382653, 37.800, 14:35:57.183, 12, 0.00, 0.26, 96, 0.700, 0.100, 42.500, 2, 100, 98, 31, 23861, -17928, 5180, 5396, 16, 14, 1528839357.183, 61, 0, 1024, 1024, 1024, 1024, 0, 6, 3959, 3966, 3963, 4004, 4003, 3965, 0, 1, 18099, -89.900, 0.000, 43.600, 0.000, 0.000, -2.900, 0.0, , , , , , 96, , , 0, 0, 0
37.3812383, -119.5382652, 38.100, 14:35:57.284, 12, 0.00, 0.26, 96, 0.900, 0.200, 42.500, 2, 100, 98, 31, 23861, -17928, 5180, 5396, 16, 14, 1528839357.284, 58, 0, 1024, 1024, 1024, 1024, 0, 6, 3959, 3966, 3963, 4004, 4003, 3965, 0, 1, 18200, -89.900, 0.000, 43.600, 0.000, 0.000, -3.000, 0.0, , , , , , 96, , , 0, 0, 0
37.3812383, -119.5382652, 38.400, 14:35:57.384, 12, 0.00, 0.26, 96, 0.700, 0.300, 42.400, 2, 100, 98, 31, 23861, -17928, 5180, 5396, 16, 14, 1528839357.384, 44, 0, 1024, 1024, 1024, 1024, 0, 6, 3959, 3966, 3963, 4004, 4003, 3965, 0, 1, 18300, -89.900, 0.000, 43.600, 0.000, 0.000, -2.900, 0.0, , , , , , 96, , , 0, 0, 0
37.3812383, -119.5382651, 38.700, 14:35:57.484, 12, 0.00, 0.26, 96, 0.700, 0.300, 42.300, 2, 100, 98, 31, 23861, -17928, 5180, 5396, 16, 14, 1528839357.484, 54, 0, 1024, 1024, 1024, 1024, 0, 6, 3959, 3966, 3963, 4004, 4003, 3965, 0, 1, 18400, -89.900, 0.000, 43.600, 0.000, 0.000, -2.900, 0.0, , , , , , 96, , , 0, 0, 0
37.3812383, -119.5382651, 39.000, 14:35:57.584, 12, 0.00, 0.26, 96, 0.700, 0.300, 42.200, 2, 100, 99, 31, 23861, -17928, 5180, 5396, 16, 14, 1528839357.584, 57, 0, 1024, 1024, 1024, 1024, 0, 6, 3959, 3966, 3963, 4004, 4003, 3965, 0, 1, 18500, -89.900, 0.000, 43.600, 0.000, 0.000, -2.900, 0.0, , , , , , 96, , , 0, 0, 0
37.3812383, -119.5382651, 39.300, 14:35:57.684, 12, 0.00, 0.26, 96, 0.400, 0.500, 42.200, 2, 100, 99, 31, 23861, -17928, 5180, 5396, 16, 14, 1528839357.684, 28, 0, 1024, 1024, 1024, 1024, 0, 6, 3959, 3966, 3963, 4004, 4003, 3965, 0, 1, 18600, -89.900, 0.000, 43.600, 0.000, 0.000, -2.900, 0.0, , , , , , 96, , , 0, 0, 0
37.3812383, -119.5382650, 39.600, 14:35:57.784, 12, 0.10, 0.25, 96, 0.200, 0.800, 42.300, 2, 100, 99, 31, 23861, -17928, 5180, 5396, 16, 14, 1528839357.784, 35, 0, 1024, 1024, 1024, 1024, 0, 6, 3959, 3966, 3963, 4004, 4003, 3965, 0, 1, 18700, -89.900, 0.000, 43.600, 0.000, 0.100, -2.900, 0.0, , , , , , 96, , , 0, 0, 0
37.3812384, -119.5382649, 39.900, 14:35:57.884, 12, 0.10, 0.24, 96, 0.300, 1.100, 42.500, 2, 100, 99, 31, 23861, -17928, 5180, 5396, 16, 14, 1528839357.884, 15, 0, 1024, 1024, 1024, 1024, 0, 6, 3959, 3966, 3963, 4004, 4003, 3965, 0, 1, 18800, -89.900, 0.000, 43.600, 0.000, 0.100, -2.900, 0.0, , , , , , 96, , , 0, 0, 0
37.3812384, -119.5382649, 40.200, 14:35:57.984, 12, 0.00, 0.24, 96, 0.300, 1.300, 42.700, 2, 100, 99, 31, 23798, -18734, 5180, 5396, 16, 14, 1528839357.984, 30, 0, 1024, 1024, 1024, 1024, 0, 6, 3959, 3966, 3963, 4004, 4003, 3965, 0, 1, 18900, -89.900, 0.000, 43.600, 0.000, 0.000, -3.000, 0.0, , , , , , 96, , , 0, 0, 0
37.3812385, -119.5382648, 40.500, 14:35:58.084, 12, 0.00, 0.23, 96, 0.500, 1.500, 42.800, 2, 100, 98, 31, 23798, -18734, 5180, 5396, 16, 14, 1528839358.084, 25, 0, 1024, 1024, 1024, 1024, 0, 6, 3959, 3966, 3963, 4004, 4003, 3965, 0, 1, 19000, -89.900, 0.000, 43.600, 0.000, 0.000, -2.900, 0.0, , , , , , 96, , , 0, 0, 0
37.3812386, -119.5382648, 40.800, 14:35:58.184, 12, 0.00, 0.22, 96, 0.800, 1.500, 42.900, 2, 100, 98, 31, 23798, -18734, 5180, 5396, 16, 14, 1528839358.184, 28, 0, 1024, 1024, 1024, 1024, 0, 6, 3959, 3966, 3963, 4004, 4003, 3965, 0, 1, 19100, -89.900, 0.000, 43.600, 0.000, 0.000, -2.900, 0.0, , , , , , 96, , , 0, 0, 0
37.3812386, -119.5382648, 41.100, 14:35:58.284, 12, 0.00, 0.22, 96, 0.700, 1.600, 42.900, 2, 100, 98, 31, 23798, -18734, 5180, 5396, 16, 14, 1528839358.284, 28, 0, 1024, 1024, 1024, 1024, 0, 6, 3959, 3966, 3963, 4004, 4003, 3965, 0, 1, 19200, -89.900, 0.000, 43.600, 0.000, 0.000, -2.900, 0.0, , , , , , 96, , , 0, 0, 0
37.3812387, -119.5382648, 41.400, 14:35:58.384, 12, 0.00, 0.21, 96, 0.800, 1.600, 42.700, 2, 100, 98, 31, 23798, -18734, 5180, 5396, 16, 14, 1528839358.384, 11, 0, 1024, 1024, 1024, 1024, 0, 6, 3959, 3966, 3963, 4004, 4003, 3965, 0, 1, 19300, -89.900, 0.000, 43.600, 0.000, 0.000, -3.000, 0.0, , , , , , 96, , , 0, 0, 0
37.3812387, -119.5382647, 41.700, 14:35:58.483, 12, 0.00, 0.21, 96, 1.000, 1.400, 42.600, 2, 100, 98, 31, 23798, -18734, 5180, 5396, 16, 14, 1528839358.484, 11, 0, 1024, 1024, 1024, 1024, 0, 6, 3947, 3951, 3952, 3995, 3990, 3952, 0, 1, 19400, -89.900, 0.000, 43.500, 0.000, 0.000, -3.000, 0.0, , , , , , 96, , , 0, 0, 0
37.3812387, -119.5382647, 42.000, 14:35:58.584, 12, 0.00, 0.21, 96, 1.100, 1.300, 42.500, 2, 100, 97, 31, 23798, -18734, 5180, 5396, 16, 14, 1528839358.584, 2, 0, 1024, 1024, 1024, 1024, 0, 6, 3947, 3951, 3952, 3995, 3990, 3952, 0, 1, 19500, -89.900, 0.000, 43.600, 0.000, 0.000, -3.000, 0.0, , , , , , 96, , , 0, 0, 0
37.3812387, -119.5382647, 42.300, 14:35:58.683, 12, 0.00, 0.21, 96, 1.100, 1.200, 42.500, 2, 100, 97, 31, 23798, -18734, 5180, 5396, 16, 14, 1528839358.683, 98, 0, 1024, 1024, 1024, 1024, 0, 6, 3947, 3951, 3952, 3995, 3990, 3952, 0, 1, 19599, -89.900, 0.000, 43.600, 0.000, 0.000, -3.000, 0.0, , , , , , 96, , , 0, 0, 0
37.3812387, -119.5382647, 42.600, 14:35:58.783, 12, 0.00, 0.20, 96, 1.000, 1.300, 42.600, 2, 100, 97, 31, 23798, -18734, 5180, 5396, 16, 14, 1528839358.784, 99, 0, 1024, 1024, 1024, 1024, 0, 6, 3947, 3951, 3952, 3995, 3990, 3952, 0, 1, 19700, -89.900, 0.000, 43.600, 0.000, 0.000, -3.000, 0.0, , , , , , 96, , , 0, 0, 0
37.3812387, -119.5382646, 42.900, 14:35:58.884, 12, 0.00, 0.20, 96, 0.800, 1.400, 42.600, 2, 100, 97, 31, 23798, -18734, 5180, 5396, 16, 14, 1528839358.884, 11, 0, 1024, 1024, 1024, 1024, 0, 6, 3947, 3951, 3952, 3995, 3990, 3952, 0, 1, 19800, -89.900, 0.000, 43.600, 0.000, 0.000, -3.000, 0.0, , , , , , 96, , , 0, 0, 0
37.3812387, -119.5382646, 42.900, 14:35:58.984, 12, 0.00, 0.20, 96, 0.800, 1.400, 42.600, 2, 100, 97, 31, 23798, -18734, 5180, 5396, 16, 14, 1528839358.984, 110, 0, 1024, 1024, 1024, 1024, 0, 6, 3947, 3951, 3952, 3995, 3990, 3952, 0, 1, 19900, -89.900, 0.000, 43.600, 0.000, 0.000, -3.000, 0.0, , , , , , 96, , , 0, 0, 0
37.3812387, -119.5382646, 42.900, 14:35:59.083, 12, 0.00, 0.20, 96, 0.800, 1.400, 42.600, 2, 100, 97, 31, 23798, -18734, 5180, 5396, 16, 14, 1528839359.083, 210, 0, 1024, 1024, 1024, 1024, 0, 6, 3947, 3951, 3952, 3995, 3990, 3952, 0, 1, 19999, -89.900, 0.000, 43.600, 0.000, 0.000, -3.000, 0.0, , , , , , 96, , , 0, 0, 0
37.3812388, -119.5382646, 43.900, 14:35:59.183, 12, 0.00, 0.20, 96, 0.800, 1.600, 42.400, 2, 100, 94, 31, 23798, -18734, 5180, 5396, 16, 14, 1528839359.184, 78, 0, 1024, 1024, 1024, 1024, 0, 6, 3947, 3951, 3952, 3995, 3990, 3952, 0, 1, 20100, -89.900, 0.000, 43.600, 0.000, 0.000, -3.000, 0.0, , , , , , 96, , , 0, 0, 0
37.3812387, -119.5382646, 44.200, 14:35:59.283, 12, 0.00, 0.20, 96, 0.800, 1.300, 42.400, 2, 100, 94, 31, 23798, -18734, 5180, 5396, 16, 14, 1528839359.284, 80, 0, 1024, 1024, 1024, 1024, 0, 6, 3947, 3951, 3952, 3995, 3990, 3952, 0, 1, 20200, -89.900, 0.000, 43.600, 0.000, 0.000, -2.900, 0.0, , , , , , 96, , , 0, 0, 0
37.3812387, -119.5382646, 44.500, 14:35:59.383, 12, 0.00, 0.20, 96, 0.700, 1.100, 42.400, 2, 100, 94, 31, 23798, -18734, 5180, 5396, 16, 14, 1528839359.384, 77, 0, 1024, 1024, 1024, 1024, 0, 6, 3947, 3951, 3952, 3995, 3990, 3952, 0, 1, 20300, -90.000, 0.000, 43.600, 0.000, 0.000, -2.900, 0.0, , , , , , 96, , , 0, 0, 0
37.3812387, -119.5382647, 44.800, 14:35:59.483, 12, 0.00, 0.21, 96, 0.500, 0.800, 42.500, 2, 100, 94, 31, 23798, -18734, 5180, 5396, 16, 14, 1528839359.484, 66, 0, 1024, 1024, 1024, 1024, 0, 6, 3947, 3951, 3952, 3995, 3990, 3952, 0, 1, 20400, -89.900, 0.000, 43.600, 0.000, 0.000, -2.900, 0.0, , , , , , 96, , , 0, 0, 0
37.3812386, -119.5382647, 45.100, 14:35:59.584, 12, 0.00, 0.21, 96, 0.600, 0.800, 42.600, 2, 100, 94, 31, 23740, -19217, 5180, 5396, 16, 14, 1528839359.584, 29, 0, 1024, 1024, 1024, 1024, 0, 6, 3935, 3939, 3943, 3984, 3981, 3943, 0, 1, 20500, -90.000, 0.000, 43.600, 0.000, 0.000, -2.900, 0.0, , , , , , 96, , , 0, 0, 0
37.3812386, -119.5382647, 45.400, 14:35:59.683, 12, 0.00, 0.22, 96, 0.600, 0.800, 42.600, 2, 100, 94, 31, 23740, -19217, 5180, 5396, 16, 14, 1528839359.684, 41, 0, 1024, 1024, 1024, 1024, 0, 6, 3935, 3939, 3943, 3984, 3981, 3943, 0, 1, 20599, -89.900, 0.000, 43.600, 0.000, 0.000, -3.000, 0.0, , , , , , 96, , , 0, 0, 0
37.3812386, -119.5382648, 45.700, 14:35:59.783, 12, 0.00, 0.22, 96, 0.500, 0.800, 42.600, 2, 100, 94, 31, 23740, -19217, 5180, 5396, 16, 14, 1528839359.784, 35, 0, 1024, 1024, 1024, 1024, 0, 6, 3935, 3939, 3943, 3984, 3981, 3943, 0, 1, 20699, -89.900, 0.000, 43.600, 0.000, 0.000, -2.900, 0.0, , , , , , 96, , , 0, 0, 0
37.3812386, -119.5382648, 46.000, 14:35:59.883, 12, 0.00, 0.22, 96, 0.400, 0.800, 42.600, 2, 100, 94, 31, 23740, -19217, 5180, 5396, 16, 14, 1528839359.884, 36, 0, 1024, 1024, 1024, 1024, 0, 6, 3935, 3939, 3943, 3984, 3981, 3943, 0, 1, 20799, -89.900, 0.000, 43.600, 0.000, 0.000, -2.900, 0.0, , , , , , 96, , , 0, 0, 0
37.3812386, -119.5382648, 46.300, 14:35:59.983, 12, 0.00, 0.22, 96, 0.500, 0.900, 42.600, 2, 100, 94, 31, 23740, -19217, 5180, 5396, 16, 14, 1528839359.984, 27, 0, 1024, 1024, 1024, 1024, 0, 6, 3935, 3939, 3943, 3984, 3981, 3943, 0, 1, 20899, -89.900, 0.000, 43.600, 0.000, 0.000, -3.000, 0.0, , , , , , 96, , , 0, 0, 0
37.3812386, -119.5382647, 46.600, 14:36:00.083, 12, 0.00, 0.22, 96, 0.500, 1.200, 42.600, 2, 100, 94, 31, 23740, -19217, 5180, 5396, 16, 14, 1528839360.083, 6, 0, 1024, 1024, 1024, 1024, 0, 6, 3935, 3939, 3943, 3984, 3981, 3943, 0, 1, 20999, -89.900, 0.000, 43.600, 0.000, 0.000, -2.900, 0.0, , , , , , 96, , , 0, 0, 0
37.3812386, -119.5382647, 46.900, 14:36:00.183, 12, 0.00, 0.22, 96, 0.400, 1.100, 42.500, 2, 100, 94, 31, 23740, -19217, 5180, 5396, 16, 14, 1528839360.183, 33, 0, 1024, 1024, 1024, 1024, 0, 6, 3935, 3939, 3943, 3984, 3981, 3943, 0, 1, 21099, -89.900, 0.000, 43.600, 0.000, 0.000, -2.900, 0.0, , , , , , 96, , , 0, 0, 0
37.3812386, -119.5382648, 47.200, 14:36:00.283, 12, 0.00, 0.22, 96, 0.400, 1.000, 42.400, 2, 100, 94, 31, 23740, -19217, 5180, 5396, 16, 14, 1528839360.284, 25, 0, 1024, 1024, 1024, 1024, 0, 6, 3935, 3939, 3943, 3984, 3981, 3943, 0, 1, 21200, -89.900, 0.000, 43.600, 0.000, 0.000, -3.000, 0.0, , , , , , 96, , , 0, 0, 0
37.3812386, -119.5382648, 47.500, 14:36:00.383, 12, 0.00, 0.22, 96, 0.600, 0.800, 42.400, 2, 100, 94, 31, 23740, -19217, 5180, 5396, 16, 14, 1528839360.384, 28, 0, 1024, 1024, 1024, 1024, 0, 6, 3935, 3939, 3943, 3984, 3981, 3943, 0, 1, 21299, -90.000, 0.000, 43.600, 0.000, 0.000, -3.000, 0.0, , , , , , 96, , , 0, 0, 0
