latitude,longitude,altitude(feet),ascent(feet),speed(mph),distance(feet),time(millisecond),datetime(utc),satellites,gpslevel,voltage(v),max_altitude(feet),max_ascent(feet),max_speed(mph),max_distance(feet), xSpeed(mph), ySpeed(mph), zSpeed(mph), compass_heading(degrees), pitch(degrees), roll(degrees),isPhoto,isVideo,rc_elevator,rc_aileron,rc_throttle,rc_rudder,gimbal_heading(degrees),gimbal_pitch(degrees),battery_percent,voltageCell1,voltageCell2,voltageCell3,voltageCell4,voltageCell5,voltageCell6,current(A),battery_temperature(f),flycStateRaw,flycState,message
37.381218,-119.5383,5082.3259352722,0,0.223694,0,2920,2018-06-12 21:53:06,9,0,0,5082.3259352722,0,0.223694,0,0,0,0,39.8, -1.2, 1.2,1,0,1024,1024,1024,1024,43.3,-89.9,98,4.291,4.292,4.295,4.298,4.296,4.287,0,86,11,AutoTakeoff,DJI_0328.jpg Starting Mission from Lat/Long: 37.38122/-119.53830 Camera: Zenmuse X3 - Overlap: 90/90 - Active Connection: No
37.3812179,-119.5382998,5082.3259352722,0,0.223694,0.068506563872,3100,2018-06-12 21:53:06,9,0,0,5082.3259352722,0,0.223694,0.068506563872,0,0,0,39.1, -1, -0.6,0,0,1024,1024,1024,1024,43.2,-89.9,98,4.291,4.292,4.295,4.298,4.296,4.287,0,86,11,AutoTakeoff,
37.3812179,-119.5382995,5082.3259352722,0,0.223694,0.14947835124,3200,2018-06-12 21:53:06,9,0,0,5082.3259352722,0,0.223694,0.14947835124,0,0,0,38.8, -0.4, -0.8,0,0,1024,1024,1024,1024,43.1,-89.9,98,4.291,4.292,4.295,4.298,4.296,4.287,0,86,11,AutoTakeoff,
37.381218,-119.5382994,5082.3259352722,0,0.223694,0.17394849638,3300,2018-06-12 21:53:06,9,0,0,5082.3259352722,0,0.223694,0.17394849638,0,0,0,38.8, 0.2, -0.7,0,0,1024,1024,1024,1024,43,-89.9,98,4.291,4.292,4.295,4.298,4.296,4.287,0,86,11,AutoTakeoff,
37.381218,-119.5382992,5082.6540192722,0.328084,0.223694,0.231931437868,3400,2018-06-12 21:53:07,9,0,0,5082.6540192722,0.328084,0.223694,0.231931437868,0,0,0,39, 0.8, -0.7,0,0,1024,1024,1024,1024,42.9,-89.9,98,4.291,4.292,4.295,4.298,4.296,4.287,0,86,11,AutoTakeoff,
37.3812181,-119.5382991,5082.6540192722,0.328084,0,0.26346129452,3500,2018-06-12 21:53:07,9,0,0,5082.6540192722,0.328084,0.223694,0.26346129452,0,0,0,39.3, 1, -0.6,0,0,1024,1024,1024,1024,42.7,-89.9,98,4.291,4.292,4.295,4.298,4.296,4.287,0,86,11,AutoTakeoff,
37.3812182,-119.5382991,5082.9821032722,0.656168,0,0.270934391872,3600,2018-06-12 21:53:07,9,0,0,5082.9821032722,0.656168,0.223694,0.270934391872,0,0,0,39.7, 1.3, -0.4,0,0,1024,1024,1024,1024,42.6,-89.9,98,4.291,4.292,4.295,4.298,4.296,4.287,0,86,11,AutoTakeoff,
37.3812183,-119.538299,5082.9821032722,0.656168,0,0.309888133276,3700,2018-06-12 21:53:07,8,0,0,5082.9821032722,0.656168,0.223694,0.309888133276,0,0,0,40, 1.1, -0.2,0,0,1024,1024,1024,1024,42.6,-89.9,98,4.291,4.292,4.295,4.298,4.296,4.287,0,86,11,AutoTakeoff,
37.3812184,-119.5382989,5083.3101872722,0.984252,0,0.35071195348,3800,2018-06-12 21:53:07,8,0,0,5083.3101872722,0.984252,0.223694,0.35071195348,0,0,0,40.3, 0.9, 0,0,0,1024,1024,1024,1024,42.5,-89.9,98,4.291,4.292,4.295,4.298,4.296,4.287,0,86,11,AutoTakeoff,
37.3812184,-119.5382989,5083.3101872722,0.984252,0,0.35071195348,3900,2018-06-12 21:53:07,9,0,0,5083.3101872722,0.984252,0.223694,0.35071195348,0,0,0,40.5, 0.9, 0,0,0,1024,1024,1024,1024,42.4,-89.9,98,4.291,4.292,4.295,4.298,4.296,4.287,0,86,11,AutoTakeoff,
37.3812184,-119.5382988,5083.6382712722,1.312336,0,0.37726707244,4000,2018-06-12 21:53:07,9,0,25.598,5083.6382712722,1.312336,0.223694,0.37726707244,0,0,-0.223694,40.6, 0.7, 0.3,0,0,1024,1024,1024,1024,42.4,-89.9,98,4.291,4.292,4.295,4.298,4.296,4.287,4.524,86,11,AutoTakeoff,
37.3812185,-119.5382988,5083.6382712722,1.312336,0,0.39282481572,4100,2018-06-12 21:53:07,8,0,25.598,5083.6382712722,1.312336,0.223694,0.39282481572,0,0,-0.223694,40.5, 0.7, 0.4,0,0,1024,1024,1024,1024,42.3,-89.9,98,4.291,4.292,4.295,4.298,4.296,4.287,4.524,86,11,AutoTakeoff,
37.3812186,-119.5382987,5083.9663552722,1.64042,0,0.43585303232,4200,2018-06-12 21:53:07,8,0,25.598,5083.9663552722,1.64042,0.223694,0.43585303232,0,0,-0.223694,40.4, 0.7, 0.6,0,0,1024,1024,1024,1024,42.2,-89.9,98,4.291,4.292,4.295,4.298,4.296,4.287,4.524,86,11,AutoTakeoff,
37.3812186,-119.5382987,5084.2944392722,1.968504,0,0.43585303232,4300,2018-06-12 21:53:07,9,0,25.598,5084.2944392722,1.968504,0.223694,0.43585303232,0,0,0,40.2, 0.9, 0.6,0,0,1024,1024,1024,1024,42.2,-89.9,98,4.291,4.292,4.295,4.298,4.296,4.287,4.524,86,11,AutoTakeoff,
37.3812187,-119.5382988,5084.2944392722,1.968504,0,0.4315780978,4400,2018-06-12 21:53:08,9,0,25.598,5084.2944392722,1.968504,0.223694,0.43585303232,0,0,0,39.9, 1.1, 0.6,0,0,1024,1024,1024,1024,42.1,-89.9,98,4.291,4.292,4.295,4.298,4.296,4.287,4.524,86,11,AutoTakeoff,
37.3812188,-119.5382988,5084.6225232722,2.296588,0,0.45412074944,4500,2018-06-12 21:53:08,9,0,25.598,5084.6225232722,2.296588,0.223694,0.45412074944,0,0,-0.223694,39.7, 1.1, 0.8,0,0,1024,1024,1024,1024,42.1,-89.9,98,4.291,4.292,4.295,4.298,4.296,4.287,4.524,86,11,AutoTakeoff,
37.3812188,-119.5382988,5084.6225232722,2.296588,0,0.45412074944,4600,2018-06-12 21:53:08,9,0,25.598,5084.6225232722,2.296588,0.223694,0.45412074944,0,0,0,39.6, 1, 0.9,0,0,1024,1024,1024,1024,42,-89.9,98,4.291,4.292,4.295,4.298,4.296,4.287,4.524,86,11,AutoTakeoff,
37.3812189,-119.5382987,5084.9506072722,2.624672,0,0.4998687824,4700,2018-06-12 21:53:08,9,0,25.598,5084.9506072722,2.624672,0.223694,0.4998687824,0,0,0,39.5, 0.9, 1,0,0,1024,1024,1024,1024,42,-89.9,98,4.291,4.292,4.295,4.298,4.296,4.287,4.524,86,11,AutoTakeoff,
37.3812188,-119.5382986,5084.9506072722,2.624672,0,0.49993111836,4800,2018-06-12 21:53:08,9,0,25.598,5084.9506072722,2.624672,0.223694,0.49993111836,0,0,-0.223694,39.6, 1, 1,0,0,1024,1024,1024,1024,41.9,-89.9,98,4.291,4.292,4.295,4.298,4.296,4.287,4.524,86,11,AutoTakeoff,
37.3812188,-119.5382984,5085.2786912722,2.952756,0,0.54805447948,4900,2018-06-12 21:53:08,9,0,25.598,5085.2786912722,2.952756,0.223694,0.54805447948,0,0,0,39.8, 1.3, 0.8,0,0,1024,1024,1024,1024,41.9,-89.9,98,4.291,4.292,4.295,4.298,4.296,4.287,4.524,86,14,Waypoint,
37.3812187,-119.5382983,5085.6067752722,3.28084,0,0.55509516212,5000,2018-06-12 21:53:08,9,0,24.815,5085.6067752722,3.28084,0.223694,0.55509516212,0,0,0,39.9, 0.8, 0.9,0,0,1024,1024,1024,1024,41.9,-89.9,98,4.109,4.119,4.141,4.131,4.107,4.137,14.411,86,14,Waypoint,
37.3812187,-119.5382982,5085.6067752722,3.28084,0,0.58099083224,5100,2018-06-12 21:53:08,9,0,24.815,5085.6067752722,3.28084,0.223694,0.58099083224,0,0,0,40.1, 0.2, 0.6,0,0,1024,1024,1024,1024,41.8,-90,98,4.109,4.119,4.141,4.131,4.107,4.137,14.411,86,14,Waypoint,
37.3812186,-119.5382981,5085.6067752722,3.28084,0,0.59274280112,5200,2018-06-12 21:53:08,9,0,24.815,5085.6067752722,3.28084,0.223694,0.59274280112,0,0,0,40.2, 0, 0.3,0,0,1024,1024,1024,1024,41.8,-89.9,98,4.109,4.119,4.141,4.131,4.107,4.137,14.411,86,14,Waypoint,
37.3812186,-119.538298,5085.9348592722,3.608924,0,0.61977692272,5300,2018-06-12 21:53:08,9,0,24.815,5085.9348592722,3.608924,0.223694,0.61977692272,0,0,0,40.3, -0.1, 0.2,0,0,1024,1024,1024,1024,41.7,-90,98,4.109,4.119,4.141,4.131,4.107,4.137,14.411,86,14,Waypoint,
37.3812186,-119.5382979,5085.9348592722,3.608924,0,0.646981648,5400,2018-06-12 21:53:09,9,0,24.815,5085.9348592722,3.608924,0.223694,0.646981648,0,0,-0.223694,40.3, 0, 0.3,0,0,1024,1024,1024,1024,41.7,-89.9,98,4.109,4.119,4.141,4.131,4.107,4.137,14.411,86,14,Waypoint,
37.3812185,-119.5382979,5086.2629432722,3.937008,0,0.6355643248,5500,2018-06-12 21:53:09,9,0,24.815,5086.2629432722,3.937008,0.223694,0.646981648,0,0,-0.223694,40.3, 0.2, 0.2,0,0,1024,1024,1024,1024,41.7,-89.9,98,4.109,4.119,4.141,4.131,4.107,4.137,14.411,86,14,Waypoint,
37.3812186,-119.5382978,5086.5910272722,4.265092,0,0.67433401108,5700,2018-06-12 21:53:09,9,0,24.815,5086.5910272722,4.265092,0.223694,0.67433401108,0,0,-0.223694,40.4, 0.3, 0.2,0,0,1024,1024,1024,1024,41.6,-89.9,98,4.109,4.119,4.141,4.131,4.107,4.137,14.411,86,14,Waypoint,
37.3812187,-119.5382978,5086.9191112722,4.593176,0,0.68704398524,5800,2018-06-12 21:53:09,9,0,24.815,5086.9191112722,4.593176,0.223694,0.68704398524,0,0,-0.223694,40.4, 0.5, 0.3,0,0,1024,1024,1024,1024,41.6,-89.9,98,4.109,4.119,4.141,4.131,4.107,4.137,14.411,86,14,Waypoint,
37.3812187,-119.5382978,5087.2471952722,4.92126,0,0.68704398524,5900,2018-06-12 21:53:09,9,0,24.815,5087.2471952722,4.92126,0.223694,0.68704398524,0,0,-0.223694,40.6, 0.6, 0.5,0,0,1024,1024,1024,1024,41.6,-89.9,98,4.109,4.119,4.141,4.131,4.107,4.137,14.411,86,14,Waypoint,
37.3812188,-119.5382978,5087.5752792722,5.249344,0,0.70142390696,6000,2018-06-12 21:53:09,9,0,24.639,5087.5752792722,5.249344,0.223694,0.70142390696,0,0,-0.223694,40.7, 0.8, 0.8,0,0,1024,1024,1024,1024,41.5,-89.9,98,4.093,4.103,4.119,4.121,4.102,4.112,16.27,86,14,Waypoint,
37.3812189,-119.5382979,5088.2314472722,5.905512,0,0.69172574392,6100,2018-06-12 21:53:09,8,0,24.639,5088.2314472722,5.905512,0.223694,0.70142390696,0,0,-0.447388,40.7, 0.8, 1.2,0,0,1024,1024,1024,1024,41.5,-89.9,98,4.093,4.103,4.119,4.121,4.102,4.112,16.27,86,14,Waypoint,
37.3812191,-119.538298,5088.5595312722,6.233596,0,0.70517390708,6200,2018-06-12 21:53:09,8,0,24.639,5088.5595312722,6.233596,0.223694,0.70517390708,0,0,-0.447388,40.7, 0.9, 1.6,0,0,1024,1024,1024,1024,41.4,-89.9,98,4.093,4.103,4.119,4.121,4.102,4.112,16.27,86,14,Waypoint,
37.3812192,-119.5382981,5089.2156992722,6.889764,0,0.70363847396,6300,2018-06-12 21:53:09,7,0,24.639,5089.2156992722,6.889764,0.223694,0.70517390708,0,0,-0.447388,40.7, 1.1, 2.2,0,0,1024,1024,1024,1024,41.4,-89.9,98,4.093,4.103,4.119,4.121,4.102,4.112,16.27,86,14,Waypoint,
37.3812194,-119.5382982,5090.1999512722,7.874016,0,0.73022640132,6400,2018-06-12 21:53:10,7,0,24.639,5090.1999512722,7.874016,0.223694,0.73022640132,0,0,-0.671082,40.5, 1.1, 2.4,0,0,1024,1024,1024,1024,41.4,-89.9,98,4.093,4.103,4.119,4.121,4.102,4.112,16.27,86,14,Waypoint,
37.3812195,-119.5382985,5091.1842032722,8.858268,0,0.6990157704,6500,2018-06-12 21:53:10,9,0,24.639,5091.1842032722,8.858268,0.223694,0.73022640132,0,0,-0.671082,40.3, 0.9, 2.4,0,0,1024,1024,1024,1024,41.4,-89.9,98,4.093,4.103,4.119,4.121,4.102,4.112,16.27,86,14,Waypoint,
37.3812196,-119.5382989,5091.8403712722,9.514436,0.223694,0.66518702916,6600,2018-06-12 21:53:10,9,0,24.639,5091.8403712722,9.514436,0.223694,0.73022640132,0,0,-0.671082,40.1, 0.7, 2.5,0,0,1024,1024,1024,1024,41.3,-90,98,4.093,4.103,4.119,4.121,4.102,4.112,16.27,86,14,Waypoint,
37.3812197,-119.5382992,5092.8246232722,10.498688,0.223694,0.6621883414,6700,2018-06-12 21:53:10,8,0,24.639,5092.8246232722,10.498688,0.223694,0.73022640132,0,0,-0.671082,39.9, 0.4, 2.8,0,0,1024,1024,1024,1024,41.3,-90,98,4.093,4.103,4.119,4.121,4.102,4.112,16.27,86,14,Waypoint,
37.3812196,-119.5382995,5093.8088752722,11.48294,0.223694,0.60148623972,6800,2018-06-12 21:53:10,8,0,24.639,5093.8088752722,11.48294,0.223694,0.73022640132,0,0,-0.671082,39.8, 0.1, 3,0,0,1024,1024,1024,1024,41.3,-90,98,4.093,4.103,4.119,4.121,4.102,4.112,16.27,86,14,Waypoint,
37.3812196,-119.5382998,5095.1212112722,12.795276,0.223694,0.5866305962,6900,2018-06-12 21:53:10,9,0,24.639,5095.1212112722,12.795276,0.223694,0.73022640132,0,0,-0.671082,39.7, -0.1, 3.1,0,0,1024,1024,1024,1024,41.3,-90,98,4.093,4.103,4.119,4.121,4.102,4.112,16.27,86,14,Waypoint,
37.3812196,-119.5383,5096.1054632722,13.779528,0.223694,0.5837598612,7000,2018-06-12 21:53:10,9,0,24.676,5096.1054632722,13.779528,0.223694,0.73022640132,0,0,-0.671082,39.6, -0.3, 2.9,0,0,1024,1024,1024,1024,41.2,-90,98,4.083,4.073,4.114,4.092,4.068,4.081,16.196,86,14,Waypoint,
37.3812196,-119.5383,5097.0897152722,14.76378,0,0.5837598612,7100,2018-06-12 21:53:10,8,0,24.676,5097.0897152722,14.76378,0.223694,0.73022640132,0,0,-0.671082,39.6, -0.6, 2.9,0,0,1024,1024,1024,1024,41.2,-89.9,98,4.083,4.073,4.114,4.092,4.068,4.081,16.196,86,14,Waypoint,
37.3812198,-119.5382998,5098.4020512722,16.076116,0,0.659284798,7200,2018-06-12 21:53:10,8,0,24.676,5098.4020512722,16.076116,0.223694,0.73022640132,0,0,-0.671082,39.6, -0.2, 2.9,0,0,1024,1024,1024,1024,41.2,-89.9,98,4.083,4.073,4.114,4.092,4.068,4.081,16.196,86,14,Waypoint,
37.38122,-119.5382997,5099.3863032722,17.060368,0,0.73486222824,7300,2018-06-12 21:53:10,8,0,24.676,5099.3863032722,17.060368,0.223694,0.73486222824,0,0,-0.671082,39.7, 0.5, 2.5,0,0,1024,1024,1024,1024,41.2,-89.9,98,4.083,4.073,4.114,4.092,4.068,4.081,16.196,86,14,Waypoint,
37.3812201,-119.5382997,5100.6986392722,18.372704,0,0.77110566772,7400,2018-06-12 21:53:11,8,0,24.676,5100.6986392722,18.372704,0.223694,0.77110566772,0,0,-0.671082,39.8, 1.3, 2.5,0,0,1024,1024,1024,1024,41.2,-89.9,98,4.083,4.073,4.114,4.092,4.068,4.081,16.196,86,14,Waypoint,
37.3812203,-119.5383001,5102.9952272722,20.669292,0,0.83965553868,7500,2018-06-12 21:53:11,8,0,24.676,5102.9952272722,20.669292,0.223694,0.83965553868,0,0,-0.671082,39.9, 1.3, 2.8,0,0,1024,1024,1024,1024,41.2,-89.9,98,4.083,4.073,4.114,4.092,4.068,4.081,16.196,86,14,Waypoint,
37.3812202,-119.5383003,5103.9794792722,21.653544,0,0.8073655114,7600,2018-06-12 21:53:11,9,0,24.676,5103.9794792722,21.653544,0.223694,0.83965553868,0,0,-0.671082,40, 0.8, 3.2,0,0,1024,1024,1024,1024,41.1,-89.9,98,4.083,4.073,4.114,4.092,4.068,4.081,16.196,86,14,Waypoint,
37.3812201,-119.5383004,5104.9637312722,22.637796,0,0.77491144212,7700,2018-06-12 21:53:11,9,0,24.676,5104.9637312722,22.637796,0.223694,0.83965553868,0,0,-0.671082,39.9, 0.3, 3.2,0,0,1024,1024,1024,1024,41.1,-90,98,4.083,4.073,4.114,4.092,4.068,4.081,16.196,86,14,Waypoint,
37.3812199,-119.5383002,5106.2760672722,23.950132,0,0.69563322436,7800,2018-06-12 21:53:11,9,0,24.676,5106.2760672722,23.950132,0.223694,0.83965553868,0,0,-0.671082,39.9, -0.2, 2.8,0,0,1024,1024,1024,1024,41.1,-90,98,4.083,4.073,4.114,4.092,4.068,4.081,16.196,86,14,Waypoint,
37.3812197,-119.5382999,5107.2603192722,24.934384,0,0.62092193588,7900,2018-06-12 21:53:11,9,0,24.676,5107.2603192722,24.934384,0.223694,0.83965553868,0,0,-0.671082,39.9, -0.4, 2,0,0,1024,1024,1024,1024,41.1,-90,98,4.083,4.073,4.114,4.092,4.068,4.081,16.196,86,14,Waypoint,
37.3812195,-119.5382999,5108.2445712722,25.918636,0.223694,0.54804135612,8000,2018-06-12 21:53:11,9,0,24.17,5108.2445712722,25.918636,0.223694,0.83965553868,0,0,-0.671082,39.9, -0.3, 0.8,0,0,1024,1024,1024,1024,41.1,-90,97,3.983,4.003,4.017,4.037,4.007,4.022,22.592,86,14,Waypoint,
37.3812192,-119.5383,5110.2130752722,27.88714,0,0.43781825548,8200,2018-06-12 21:53:11,9,0,24.17,5110.2130752722,27.88714,0.223694,0.83965553868,0,0,-0.671082,39.9, -0.5, 0.3,0,0,1024,1024,1024,1024,41,-90,97,3.983,4.003,4.017,4.037,4.007,4.022,22.592,86,14,Waypoint,
37.3812189,-119.5382997,5111.5254112722,29.199476,0,0.33968833108,8300,2018-06-12 21:53:11,9,0,24.17,5111.5254112722,29.199476,0.223694,0.83965553868,0,0,-0.671082,40, -0.6, 0.3,0,0,1024,1024,1024,1024,41,-90,97,3.983,4.003,4.017,4.037,4.007,4.022,22.592,86,14,Waypoint,
37.3812187,-119.5382995,5112.5096632722,30.183728,0,0.29366470756,8500,2018-06-12 21:53:12,8,0,24.17,5112.5096632722,30.183728,0.223694,0.83965553868,0,0,-0.671082,40, -0.6, 0,0,0,1024,1024,1024,1024,41,-90,97,3.983,4.003,4.017,4.037,4.007,4.022,22.592,86,14,Waypoint,
37.3812184,-119.5382994,5113.4939152722,31.16798,0,0.227060702804,8600,2018-06-12 21:53:12,8,0,24.17,5113.4939152722,31.16798,0.223694,0.83965553868,0,0,-0.671082,40, -0.6, -0.2,0,0,1024,1024,1024,1024,41,-90,97,3.983,4.003,4.017,4.037,4.007,4.022,22.592,86,14,Waypoint,
37.3812181,-119.5382991,5114.4781672722,32.152232,0,0.26346129452,8700,2018-06-12 21:53:12,8,0,24.17,5114.4781672722,32.152232,0.223694,0.83965553868,0,0,-0.671082,40, -0.5, -0.3,0,0,1024,1024,1024,1024,41,-90,97,3.983,4.003,4.017,4.037,4.007,4.022,22.592,86,14,Waypoint,
37.3812177,-119.5382987,5115.4624192722,33.136484,0,0.39246064248,8800,2018-06-12 21:53:12,8,0,24.17,5115.4624192722,33.136484,0.223694,0.83965553868,0,0,-0.671082,40, -0.4, -0.7,0,0,1024,1024,1024,1024,41,-89.9,97,3.983,4.003,4.017,4.037,4.007,4.022,22.592,86,14,Waypoint,
37.3812174,-119.5382983,5116.4466712722,34.120736,0,0.53928479416,8900,2018-06-12 21:53:12,10,0,24.17,5116.4466712722,34.120736,0.223694,0.83965553868,0,0,-0.671082,39.9, -0.3, -1.2,0,0,1024,1024,1024,1024,40.9,-89.9,97,3.983,4.003,4.017,4.037,4.007,4.022,22.592,86,14,Waypoint,
37.3812173,-119.5382979,5117.4309232722,35.104988,0,0.6602198374,9000,2018-06-12 21:53:12,10,0,24.203,5117.4309232722,35.104988,0.223694,0.83965553868,0,0,-0.671082,39.7, -0.1, -1.7,0,0,1024,1024,1024,1024,40.9,-89.9,97,4.003,4.048,4.055,4.054,4.022,4.06,19.893,86,14,Waypoint,
37.3812171,-119.5382975,5118.7432592722,36.417324,0,0.79569884436,9100,2018-06-12 21:53:12,10,0,24.203,5118.7432592722,36.417324,0.223694,0.83965553868,0,0,-0.671082,39.5, 0, -1.9,0,0,1024,1024,1024,1024,40.9,-89.9,97,4.003,4.048,4.055,4.054,4.022,4.06,19.893,86,14,Waypoint,
37.3812171,-119.5382972,5119.7275112722,37.401576,0,0.87565947684,9200,2018-06-12 21:53:12,10,0,24.203,5119.7275112722,37.401576,0.223694,0.87565947684,0,0,-0.671082,39.4, 0.4, -1.7,0,0,1024,1024,1024,1024,40.9,-89.9,97,4.003,4.048,4.055,4.054,4.022,4.06,19.893,86,14,Waypoint,
37.3812171,-119.5382967,5120.7117632722,38.385828,0,1.0114993762,9300,2018-06-12 21:53:12,11,0,24.203,5120.7117632722,38.385828,0.223694,1.0114993762,0,0,-0.671082,39.3, 0.7, -1.4,0,0,1024,1024,1024,1024,40.9,-89.9,97,4.003,4.048,4.055,4.054,4.022,4.06,19.893,86,14,Waypoint,
37.381217,-119.538296,5122.0240992722,39.698164,0,1.2156988578,9400,2018-06-12 21:53:13,11,0,24.203,5122.0240992722,39.698164,0.223694,1.2156988578,0,0,-0.671082,39.2, 1.3, -1.3,0,0,1024,1024,1024,1024,40.9,-89.9,97,4.003,4.048,4.055,4.054,4.022,4.06,19.893,86,14,Waypoint,
37.3812171,-119.5382954,5123.0083512722,40.682416,0.223694,1.37343508332,9500,2018-06-12 21:53:13,11,0,24.203,5123.0083512722,40.682416,0.223694,1.37343508332,0,0,-0.671082,39.2, 2, -1.7,0,0,1024,1024,1024,1024,40.9,-89.9,97,4.003,4.048,4.055,4.054,4.022,4.06,19.893,86,14,Waypoint,
37.3812172,-119.538295,5123.9926032722,41.666668,0.223694,1.47866474548,9600,2018-06-12 21:53:13,11,0,24.203,5123.9926032722,41.666668,0.223694,1.47866474548,0,0,-0.671082,39.2, 2.6, -1.9,0,0,1024,1024,1024,1024,40.9,-89.9,97,4.003,4.048,4.055,4.054,4.022,4.06,19.893,86,14,Waypoint,
37.3812172,-119.5382946,5124.9768552722,42.65092,0.223694,1.59251317432,9700,2018-06-12 21:53:13,12,0,24.203,5124.9768552722,42.65092,0.223694,1.59251317432,0,0,-0.671082,39.3, 2.7, -1.9,0,0,1024,1024,1024,1024,40.9,-89.9,97,4.003,4.048,4.055,4.054,4.022,4.06,19.893,86,14,Waypoint,
37.3812172,-119.5382943,5125.9611072722,43.635172,0.223694,1.67809060488,9800,2018-06-12 21:53:13,12,0,24.203,5125.9611072722,43.635172,0.223694,1.67809060488,0,0,-0.671082,39.5, 2.6, -1.7,0,0,1024,1024,1024,1024,40.9,-89.9,97,4.003,4.048,4.055,4.054,4.022,4.06,19.893,86,14,Waypoint,
37.3812172,-119.5382941,5126.9453592722,44.619424,0.223694,1.7352198718,9900,2018-06-12 21:53:13,12,0,24.203,5126.9453592722,44.619424,0.223694,1.7352198718,0,0,-0.671082,39.7, 2.2, -1.4,0,0,1024,1024,1024,1024,40.9,-89.9,97,4.003,4.048,4.055,4.054,4.022,4.06,19.893,86,14,Waypoint,
37.3812172,-119.538294,5127.9296112722,45.603676,0.223694,1.76380254988,10000,2018-06-12 21:53:13,12,0,24.245,5127.9296112722,45.603676,0.223694,1.76380254988,0,0,-0.671082,39.8, 1.9, -1.1,0,0,1024,1024,1024,1024,40.9,-89.9,97,4.014,4.039,4.045,4.051,4.028,4.053,18.441,86,14,Waypoint,
37.3812173,-119.5382939,5128.9138632722,46.587928,0.3131716,1.78682420416,10100,2018-06-12 21:53:13,12,0,24.245,5128.9138632722,46.587928,0.3131716,1.78682420416,0,0,-0.671082,40, 1.6, -0.9,0,0,1024,1024,1024,1024,40.9,-89.9,97,4.014,4.039,4.045,4.051,4.028,4.053,18.441,86,14,Waypoint,
37.3812174,-119.5382938,5130.8823672722,48.556432,0.3131716,1.81075137028,10200,2018-06-12 21:53:13,11,0,24.245,5130.8823672722,48.556432,0.3131716,1.81075137028,0,0,-0.671082,40.3, 1.5, -0.5,0,0,1024,1024,1024,1024,40.9,-89.9,97,4.014,4.039,4.045,4.051,4.028,4.053,18.441,86,14,Waypoint,
37.3812175,-119.5382938,5131.8666192722,49.540684,0.3131716,1.80670281372,10300,2018-06-12 21:53:13,11,0,24.245,5131.8666192722,49.540684,0.3131716,1.81075137028,0,0,-0.671082,40.3, 1.4, -0.3,0,0,1024,1024,1024,1024,40.9,-89.9,97,4.014,4.039,4.045,4.051,4.028,4.053,18.441,86,14,Waypoint,
37.3812175,-119.5382939,5132.8508712722,50.524936,0.3131716,1.77786094928,10400,2018-06-12 21:53:14,11,0,24.245,5132.8508712722,50.524936,0.3131716,1.81075137028,0,0,-0.671082,40.3, 1.4, -0.2,0,0,1024,1024,1024,1024,40.9,-89.9,97,4.014,4.039,4.045,4.051,4.028,4.053,18.441,86,14,Waypoint,
37.3812176,-119.5382941,5133.8351232722,51.509188,0.4921268,1.71670937252,10500,2018-06-12 21:53:14,11,0,24.245,5133.8351232722,51.509188,0.4921268,1.81075137028,0,0,-0.671082,40.3, 1.2, -0.2,0,0,1024,1024,1024,1024,40.9,-89.9,97,4.014,4.039,4.045,4.051,4.028,4.053,18.441,86,14,Waypoint,
37.3812176,-119.5382941,5133.8351232722,51.509188,0.4921268,1.71670937252,10600,2018-06-12 21:53:14,11,0,24.245,5133.8351232722,51.509188,0.4921268,1.81075137028,0,0,-0.671082,40.3, 1.2, -0.2,0,0,1024,1024,1024,1024,40.9,-89.9,97,4.014,4.039,4.045,4.051,4.028,4.053,18.441,86,14,Waypoint,
37.3812176,-119.5382942,5134.8193752722,52.49344,0.447388,1.68782485716,10700,2018-06-12 21:53:14,11,0,24.245,5134.8193752722,52.49344,0.4921268,1.81075137028,0,0,-0.671082,40.3, 0.9, 0,0,0,1024,1024,1024,1024,40.9,-89.9,97,4.014,4.039,4.045,4.051,4.028,4.053,18.441,86,14,Waypoint,
37.3812177,-119.5382948,5137.7721312722,55.446196,0.447388,1.51152235808,10900,2018-06-12 21:53:14,12,0,24.245,5137.7721312722,55.446196,0.4921268,1.81075137028,0,0,-0.671082,39.9, 0.2, 0.7,0,0,1024,1024,1024,1024,40.9,-90,97,4.014,4.039,4.045,4.051,4.028,4.053,18.441,86,14,Waypoint,
37.3812178,-119.538295,5138.7563832722,56.430448,0.447388,1.45140752676,11100,2018-06-12 21:53:14,11,0,24.245,5138.7563832722,56.430448,0.4921268,1.81075137028,0,0,-0.671082,39.8, 0.2, 0.9,0,0,1024,1024,1024,1024,40.9,-90,97,4.014,4.039,4.045,4.051,4.028,4.053,18.441,86,14,Waypoint,
37.3812179,-119.5382951,5139.7406352722,57.4147,0.4921268,1.42104991424,11200,2018-06-12 21:53:14,11,0,24.245,5139.7406352722,57.4147,0.4921268,1.81075137028,0,0,-0.671082,39.7, 0.2, 1,0,0,1024,1024,1024,1024,40.9,-90,97,4.014,4.039,4.045,4.051,4.028,4.053,18.441,86,14,Waypoint,
37.3812179,-119.5382953,5140.7248872722,58.398952,0.447388,1.36308731396,11300,2018-06-12 21:53:14,11,0,24.245,5140.7248872722,58.398952,0.4921268,1.81075137028,0,0,-0.671082,39.7, 0.4, 1,0,0,1024,1024,1024,1024,40.9,-89.9,97,4.014,4.039,4.045,4.051,4.028,4.053,18.441,86,14,Waypoint,
37.3812179,-119.5382954,5141.7091392722,59.383204,0.447388,1.3341043734,11400,2018-06-12 21:53:15,11,0,24.245,5141.7091392722,59.383204,0.4921268,1.81075137028,0,0,-0.671082,39.7, 0.4, 0.9,0,0,1024,1024,1024,1024,40.9,-89.9,97,4.014,4.039,4.045,4.051,4.028,4.053,18.441,86,14,Waypoint,
37.3812179,-119.5382956,5142.6933912722,60.367456,0.447388,1.27614505396,11500,2018-06-12 21:53:15,11,0,24.245,5142.6933912722,60.367456,0.4921268,1.81075137028,0,0,-0.671082,39.7, 0.3, 0.8,0,0,1024,1024,1024,1024,40.9,-90,97,4.014,4.039,4.045,4.051,4.028,4.053,18.441,86,14,Waypoint,
37.381218,-119.5382958,5143.6776432722,61.351708,0.447388,1.21764111508,11600,2018-06-12 21:53:15,11,0,24.245,5143.6776432722,61.351708,0.4921268,1.81075137028,0,0,-0.671082,39.8, 0.2, 0.7,0,0,1024,1024,1024,1024,40.9,-89.9,97,4.014,4.039,4.045,4.051,4.028,4.053,18.441,86,14,Waypoint,
37.3812181,-119.538296,5144.6618952722,62.33596,0.447388,1.16022969592,11700,2018-06-12 21:53:15,12,0,24.245,5144.6618952722,62.33596,0.4921268,1.81075137028,0,0,-0.671082,39.9, 0.1, 0.8,0,0,1024,1024,1024,1024,40.9,-90,97,4.014,4.039,4.045,4.051,4.028,4.053,18.441,86,14,Waypoint,
37.3812181,-119.5382962,5145.6461472722,63.320212,0.447388,1.10227693816,11800,2018-06-12 21:53:15,12,0,24.245,5145.6461472722,63.320212,0.4921268,1.81075137028,0,0,-0.671082,39.9, 0.1, 1,0,0,1024,1024,1024,1024,40.9,-89.9,97,4.014,4.039,4.045,4.051,4.028,4.053,18.441,86,14,Waypoint,
37.3812182,-119.5382964,5146.6303992722,64.304464,0.447388,1.04624019096,11900,2018-06-12 21:53:15,11,0,24.245,5146.6303992722,64.304464,0.4921268,1.81075137028,0,0,-0.671082,40, 0.1, 1.3,0,0,1024,1024,1024,1024,40.9,-90,97,4.014,4.039,4.045,4.051,4.028,4.053,18.441,86,14,Waypoint,
37.3812182,-119.5382967,5147.6146512722,65.288716,0.447388,0.95949478136,12000,2018-06-12 21:53:15,11,0,24.211,5147.6146512722,65.288716,0.4921268,1.81075137028,0,0,-0.671082,40, 0.1, 1.5,0,0,1024,1024,1024,1024,40.9,-89.9,97,4.013,4.033,4.044,4.054,4.022,4.049,18.5,86,14,Waypoint,
37.3812183,-119.5382969,5148.5989032722,66.272968,0.447388,0.90537404472,12100,2018-06-12 21:53:15,11,0,24.211,5148.5989032722,66.272968,0.4921268,1.81075137028,0,0,-0.671082,40, 0, 1.8,0,0,1024,1024,1024,1024,40.9,-90,97,4.013,4.033,4.044,4.054,4.022,4.049,18.5,86,14,Waypoint,
37.3812183,-119.538297,5149.5831552722,67.25722,0.223694,0.87660435876,12200,2018-06-12 21:53:15,11,0,24.211,5149.5831552722,67.25722,0.4921268,1.81075137028,0,0,-0.671082,40, 0, 1.9,0,0,1024,1024,1024,1024,40.9,-89.9,97,4.013,4.033,4.044,4.054,4.022,4.049,18.5,86,14,Waypoint,
37.3812184,-119.5382972,5150.5674072722,68.241472,0.223694,0.82477364844,12300,2018-06-12 21:53:15,12,0,24.211,5150.5674072722,68.241472,0.4921268,1.81075137028,0,0,-0.671082,39.9, 0, 1.9,0,0,1024,1024,1024,1024,40.9,-90,97,4.013,4.033,4.044,4.054,4.022,4.049,18.5,86,14,Waypoint,
37.3812184,-119.5382974,5151.5516592722,69.225724,0.223694,0.76777561512,12400,2018-06-12 21:53:16,12,0,24.211,5151.5516592722,69.225724,0.4921268,1.81075137028,0,0,-0.671082,39.9, 0, 1.9,0,0,1024,1024,1024,1024,40.9,-90,97,4.013,4.033,4.044,4.054,4.022,4.049,18.5,86,14,Waypoint,
37.3812186,-119.5382978,5153.5201632722,71.194228,0.223694,0.67433401108,12500,2018-06-12 21:53:16,11,0,24.211,5153.5201632722,71.194228,0.4921268,1.81075137028,0,0,-0.671082,39.8, -0.1, 2,0,0,1024,1024,1024,1024,40.9,-90,97,4.013,4.033,4.044,4.054,4.022,4.049,18.5,86,14,Waypoint,
37.3812186,-119.538298,5154.5044152722,72.17848,0.223694,0.61977692272,12600,2018-06-12 21:53:16,12,0,24.211,5154.5044152722,72.17848,0.4921268,1.81075137028,0,0,-0.671082,39.8, 0, 1.9,0,0,1024,1024,1024,1024,40.9,-89.9,97,4.013,4.033,4.044,4.054,4.022,4.049,18.5,86,14,Waypoint,
37.3812186,-119.538298,5155.4886672722,73.162732,0.223694,0.61977692272,12700,2018-06-12 21:53:16,12,0,24.211,5155.4886672722,73.162732,0.4921268,1.81075137028,0,0,-0.671082,39.8, 0.1, 1.9,0,0,1024,1024,1024,1024,40.9,-89.9,97,4.013,4.033,4.044,4.054,4.022,4.049,18.5,86,14,Waypoint,
37.3812186,-119.5382981,5156.4729192722,74.146984,0,0.59274280112,12800,2018-06-12 21:53:16,12,0,24.211,5156.4729192722,74.146984,0.4921268,1.81075137028,0,0,-0.671082,39.8, 0.1, 1.8,0,0,1024,1024,1024,1024,40.9,-89.9,97,4.013,4.033,4.044,4.054,4.022,4.049,18.5,86,14,Waypoint,
37.3812186,-119.5382981,5158.4414232722,76.115488,0,0.59274280112,13000,2018-06-12 21:53:16,12,0,24.196,5158.4414232722,76.115488,0.4921268,1.81075137028,0,0,-0.671082,39.9, -0.1, 1.4,0,0,1024,1024,1024,1024,40.9,-90,97,4.013,4.033,4.044,4.054,4.022,4.049,18.153,87.8,14,Waypoint,
37.3812187,-119.5382983,5160.4099272722,78.083992,0,0.55509516212,13200,2018-06-12 21:53:16,12,0,24.196,5160.4099272722,78.083992,0.4921268,1.81075137028,0,0,-0.671082,40, 0.1, 1.4,0,0,1024,1024,1024,1024,40.9,-89.9,97,4.013,4.033,4.044,4.054,4.022,4.049,18.153,87.8,14,Waypoint,
37.3812188,-119.5382984,5161.3941792722,79.068244,0,0.54805447948,13400,2018-06-12 21:53:17,12,0,24.196,5161.3941792722,79.068244,0.4921268,1.81075137028,0,0,-0.671082,39.9, 0.3, 1.6,0,0,1024,1024,1024,1024,40.9,-89.9,97,4.013,4.033,4.044,4.054,4.022,4.049,18.153,87.8,14,Waypoint,
37.3812188,-119.5382984,5162.3784312722,80.052496,0,0.54805447948,13500,2018-06-12 21:53:17,12,0,24.196,5162.3784312722,80.052496,0.4921268,1.81075137028,0,0,-0.671082,39.9, 0.5, 1.6,0,0,1024,1024,1024,1024,40.9,-89.9,97,4.013,4.033,4.044,4.054,4.022,4.049,18.153,87.8,14,Waypoint,
37.3812188,-119.5382985,5163.3626832722,81.036748,0,0.52374345508,13600,2018-06-12 21:53:17,12,0,24.196,5163.3626832722,81.036748,0.4921268,1.81075137028,0,0,-0.671082,40, 0.5, 1.7,0,0,1024,1024,1024,1024,40.9,-89.9,97,4.013,4.033,4.044,4.054,4.022,4.049,18.153,87.8,14,Waypoint,
37.3812188,-119.5382985,5164.3469352722,82.021,0,0.52374345508,13700,2018-06-12 21:53:17,12,0,24.196,5164.3469352722,82.021,0.4921268,1.81075137028,0,0,-0.671082,40, 0.4, 1.7,0,0,1024,1024,1024,1024,40.9,-89.9,97,4.013,4.033,4.044,4.054,4.022,4.049,18.153,87.8,14,Waypoint,
37.3812188,-119.5382985,5165.3311872722,83.005252,0,0.52374345508,13800,2018-06-12 21:53:17,12,0,24.196,5165.3311872722,83.005252,0.4921268,1.81075137028,0,0,-0.671082,40, 0.2, 1.5,0,0,1024,1024,1024,1024,40.9,-89.9,97,4.013,4.033,4.044,4.054,4.022,4.049,18.153,87.8,14,Waypoint,
37.3812188,-119.5382985,5166.3154392722,83.989504,0,0.52374345508,13900,2018-06-12 21:53:17,12,0,24.196,5166.3154392722,83.989504,0.4921268,1.81075137028,0,0,-0.671082,39.9, 0.3, 1.3,0,0,1024,1024,1024,1024,40.9,-89.9,97,4.013,4.033,4.044,4.054,4.022,4.049,18.153,87.8,14,Waypoint,
37.3812188,-119.5382986,5167.2996912722,84.973756,0,0.49993111836,14000,2018-06-12 21:53:17,12,0,24.196,5167.2996912722,84.973756,0.4921268,1.81075137028,0,0,-0.671082,40, 0.3, 1.3,0,0,1024,1024,1024,1024,40.9,-89.9,97,4.007,4.028,4.043,4.052,4.016,4.046,18.153,87.8,14,Waypoint,
37.3812188,-119.5382986,5169.2681952722,86.94226,0,0.49993111836,14200,2018-06-12 21:53:17,12,0,24.196,5169.2681952722,86.94226,0.4921268,1.81075137028,0,0,-0.671082,40.1, 0.6, 1.7,0,0,1024,1024,1024,1024,40.9,-89.9,97,4.007,4.028,4.043,4.052,4.016,4.046,18.153,87.8,14,Waypoint,
37.3812189,-119.5382986,5170.2524472722,87.926512,0,0.52207350752,14300,2018-06-12 21:53:17,12,0,24.196,5170.2524472722,87.926512,0.4921268,1.81075137028,0,0,-0.671082,40.1, 0.6, 1.7,0,0,1024,1024,1024,1024,40.9,-89.9,97,4.007,4.028,4.043,4.052,4.016,4.046,18.153,87.8,14,Waypoint,
37.3812189,-119.5382986,5171.2366992722,88.910764,0,0.52207350752,14400,2018-06-12 21:53:18,12,0,24.196,5171.2366992722,88.910764,0.4921268,1.81075137028,0,0,-0.671082,39.9, 0.7, 1.5,0,0,1024,1024,1024,1024,40.9,-89.9,97,4.007,4.028,4.043,4.052,4.016,4.046,18.153,87.8,14,Waypoint,
37.3812188,-119.5382985,5172.2209512722,89.895016,0,0.52374345508,14500,2018-06-12 21:53:18,12,0,24.196,5172.2209512722,89.895016,0.4921268,1.81075137028,0,0,-0.671082,39.8, 0.6, 1.2,0,0,1024,1024,1024,1024,40.9,-90,97,4.007,4.028,4.043,4.052,4.016,4.046,18.153,87.8,14,Waypoint,
37.3812188,-119.5382985,5173.2052032722,90.879268,0,0.52374345508,14600,2018-06-12 21:53:18,12,0,24.196,5173.2052032722,90.879268,0.4921268,1.81075137028,0,0,-0.671082,39.6, 0.2, 1.1,0,0,1024,1024,1024,1024,40.9,-90,97,4.007,4.028,4.043,4.052,4.016,4.046,18.153,87.8,14,Waypoint,
37.3812187,-119.5382985,5174.1894552722,91.86352,0,0.50432088228,14700,2018-06-12 21:53:18,12,0,24.196,5174.1894552722,91.86352,0.4921268,1.81075137028,0,0,-0.671082,39.6, 0, 1.1,0,0,1024,1024,1024,1024,40.9,-90,97,4.007,4.028,4.043,4.052,4.016,4.046,18.153,87.8,14,Waypoint,
37.3812186,-119.5382985,5176.1579592722,93.832024,0,0.48686353264,14900,2018-06-12 21:53:18,12,0,24.196,5176.1579592722,93.832024,0.4921268,1.81075137028,0,0,-0.671082,39.6, -0.2, 1.3,0,0,1024,1024,1024,1024,40.9,-89.9,97,4.007,4.028,4.043,4.052,4.016,4.046,18.153,87.8,14,Waypoint,
37.3812186,-119.5382985,5178.1264632722,95.800528,0,0.48686353264,15100,2018-06-12 21:53:18,12,0,24.196,5178.1264632722,95.800528,0.4921268,1.81075137028,0,0,-0.671082,39.7, 0, 1.4,0,0,1024,1024,1024,1024,40.9,-89.9,97,4.007,4.028,4.043,4.052,4.016,4.046,18.153,87.8,14,Waypoint,
37.3812185,-119.5382985,5179.1107152722,96.78478,0,0.47158466076,15200,2018-06-12 21:53:18,12,0,24.196,5179.1107152722,96.78478,0.4921268,1.81075137028,0,0,-0.671082,39.8, 0, 1.4,0,0,1024,1024,1024,1024,40.9,-89.9,97,4.007,4.028,4.043,4.052,4.016,4.046,18.153,87.8,14,Waypoint,
37.3812185,-119.5382984,5180.0949672722,97.769032,0,0.49844489784,15300,2018-06-12 21:53:18,12,0,24.196,5180.0949672722,97.769032,0.4921268,1.81075137028,0,0,-0.671082,39.8, 0, 1.2,0,0,1024,1024,1024,1024,40.9,-89.9,97,4.007,4.028,4.043,4.052,4.016,4.046,18.153,87.8,14,Waypoint,
37.3812185,-119.5382983,5182.0634712722,99.737536,0,0.52553151288,15400,2018-06-12 21:53:19,12,0,24.196,5182.0634712722,99.737536,0.4921268,1.81075137028,0,0,-0.671082,39.8, 0.1, 1.4,0,0,1024,1024,1024,1024,40.9,-89.9,97,4.007,4.028,4.043,4.052,4.016,4.046,18.153,87.8,14,Waypoint,
37.3812185,-119.5382983,5183.0477232722,100.721788,0,0.52553151288,15500,2018-06-12 21:53:19,12,0,24.196,5183.0477232722,100.721788,0.4921268,1.81075137028,0,0,-0.671082,39.8, 0.3, 1.4,0,0,1024,1024,1024,1024,40.9,-89.9,97,4.007,4.028,4.043,4.052,4.016,4.046,18.153,87.8,14,Waypoint,
37.3812185,-119.5382982,5184.0319752722,101.70604,0,0.55281169748,15600,2018-06-12 21:53:19,12,0,24.196,5184.0319752722,101.70604,0.4921268,1.81075137028,0,0,-0.671082,39.9, 0.5, 1.4,0,0,1024,1024,1024,1024,40.9,-89.9,97,4.007,4.028,4.043,4.052,4.016,4.046,18.153,87.8,14,Waypoint,
37.3812186,-119.5382982,5185.0162272722,102.690292,0,0.56590224908,15700,2018-06-12 21:53:19,12,0,24.196,5185.0162272722,102.690292,0.4921268,1.81075137028,0,0,-0.671082,40, 0.6, 1.5,0,0,1024,1024,1024,1024,40.9,-89.9,97,4.007,4.028,4.043,4.052,4.016,4.046,18.153,87.8,14,Waypoint,
37.3812187,-119.5382982,5186.0004792722,103.674544,0,0.58099083224,15810,2018-06-12 21:53:19,12,0,24.196,5186.0004792722,103.674544,0.4921268,1.81075137028,0,0,-0.671082,40.1, 0.7, 1.7,0,0,1024,1024,1024,1024,40.9,-89.9,97,4.007,4.028,4.043,4.052,4.016,4.046,18.153,87.8,14,Waypoint,
37.3812187,-119.5382982,5186.0004792722,103.674544,0,0.58099083224,15900,2018-06-12 21:53:19,12,0,24.196,5186.0004792722,103.674544,0.4921268,1.81075137028,0,0,-0.671082,40.1, 0.7, 1.7,0,0,1024,1024,1024,1024,40.9,-89.9,97,4.007,4.028,4.043,4.052,4.016,4.046,18.153,87.8,14,Waypoint,
37.3812187,-119.5382981,5186.9847312722,104.658796,0,0.60716537376,16000,2018-06-12 21:53:19,12,0,24.177,5186.9847312722,104.658796,0.4921268,1.81075137028,0,0,-0.671082,40.4, 1, 1.7,0,0,1024,1024,1024,1024,40.9,-89.9,97,3.997,4.026,4.039,4.04,4.012,4.042,18.006,87.8,14,Waypoint,
37.3812187,-119.538298,5187.9689832722,105.643048,0,0.63358269744,16100,2018-06-12 21:53:19,12,0,24.177,5187.9689832722,105.643048,0.4921268,1.81075137028,0,0,-0.671082,40.7, 1.3, 1.5,0,0,1024,1024,1024,1024,40.9,-89.9,97,3.997,4.026,4.039,4.04,4.012,4.042,18.006,87.8,14,Waypoint,
37.3812187,-119.538298,5188.9532352722,106.6273,0,0.63358269744,16200,2018-06-12 21:53:19,12,0,24.177,5188.9532352722,106.6273,0.4921268,1.81075137028,0,0,-0.671082,40.8, 1.2, 1.4,0,0,1024,1024,1024,1024,40.9,-89.9,97,3.997,4.026,4.039,4.04,4.012,4.042,18.006,87.8,14,Waypoint,
37.3812187,-119.5382979,5189.9374872722,107.611552,0,0.6602198374,16300,2018-06-12 21:53:19,12,0,24.177,5189.9374872722,107.611552,0.4921268,1.81075137028,0,0,-0.671082,40.8, 1, 1.2,0,0,1024,1024,1024,1024,40.9,-89.9,97,3.997,4.026,4.039,4.04,4.012,4.042,18.006,87.8,14,Waypoint,
37.3812187,-119.5382978,5190.9217392722,108.595804,0,0.68704398524,16400,2018-06-12 21:53:20,12,0,24.177,5190.9217392722,108.595804,0.4921268,1.81075137028,0,0,-0.671082,40.7, 0.9, 1.2,0,0,1024,1024,1024,1024,40.9,-89.9,97,3.997,4.026,4.039,4.04,4.012,4.042,18.006,87.8,14,Waypoint,
37.3812187,-119.5382978,5191.9059912722,109.580056,0,0.68704398524,16500,2018-06-12 21:53:20,12,0,24.177,5191.9059912722,109.580056,0.4921268,1.81075137028,0,0,-0.671082,40.4, 0.8, 1.3,0,0,1024,1024,1024,1024,40.9,-90,97,3.997,4.026,4.039,4.04,4.012,4.042,18.006,87.8,14,Waypoint,
37.3812187,-119.5382978,5192.8902432722,110.564308,0,0.68704398524,16600,2018-06-12 21:53:20,12,0,24.177,5192.8902432722,110.564308,0.4921268,1.81075137028,0,0,-0.671082,40, 0.7, 1.6,0,0,1024,1024,1024,1024,40.9,-89.9,97,3.997,4.026,4.039,4.04,4.012,4.042,18.006,87.8,14,Waypoint,
37.3812188,-119.5382977,5193.8744952722,111.54856,0,0.7278871624,16700,2018-06-12 21:53:20,12,0,24.177,5193.8744952722,111.54856,0.4921268,1.81075137028,0,0,-0.671082,39.6, 0.6, 1.8,0,0,1024,1024,1024,1024,40.9,-89.9,97,3.997,4.026,4.039,4.04,4.012,4.042,18.006,87.8,14,Waypoint,
37.3812188,-119.5382977,5194.8587472722,112.532812,0,0.7278871624,16800,2018-06-12 21:53:20,12,0,24.177,5194.8587472722,112.532812,0.4921268,1.81075137028,0,0,-0.671082,39.4, 0.7, 1.9,0,0,1024,1024,1024,1024,40.9,-89.9,97,3.997,4.026,4.039,4.04,4.012,4.042,18.006,87.8,14,Waypoint,
37.3812188,-119.5382976,5195.8429992722,113.517064,0,0.75453414488,16900,2018-06-12 21:53:20,12,0,24.177,5195.8429992722,113.517064,0.4921268,1.81075137028,0,0,-0.671082,39.3, 0.8, 1.7,0,0,1024,1024,1024,1024,40.9,-89.9,97,3.997,4.026,4.039,4.04,4.012,4.042,18.006,87.8,14,Waypoint,
37.3812189,-119.5382976,5196.4991672722,114.173232,0,0.76938322672,17000,2018-06-12 21:53:20,12,0,24.158,5196.4991672722,114.173232,0.4921268,1.81075137028,0,0,-0.671082,39.4, 0.9, 1.6,0,0,1024,1024,1024,1024,40.9,-89.9,97,3.994,4.025,4.031,4.04,4.011,4.038,17.775,87.8,14,Waypoint,
37.3812189,-119.5382976,5197.4834192722,115.157484,0,0.76938322672,17100,2018-06-12 21:53:20,12,0,24.158,5197.4834192722,115.157484,0.4921268,1.81075137028,0,0,-0.671082,39.5, 1, 1.6,0,0,1024,1024,1024,1024,40.9,-89.9,97,3.994,4.025,4.031,4.04,4.011,4.038,17.775,87.8,14,Waypoint,
37.3812189,-119.5382976,5198.4676712722,116.141736,0,0.76938322672,17200,2018-06-12 21:53:20,12,0,24.158,5198.4676712722,116.141736,0.4921268,1.81075137028,0,0,-0.671082,39.6, 1.1, 1.5,0,0,1024,1024,1024,1024,40.9,-89.9,97,3.994,4.025,4.031,4.04,4.011,4.038,17.775,87.8,14,Waypoint,
37.3812189,-119.5382975,5199.4519232722,117.125988,0,0.79569884436,17300,2018-06-12 21:53:20,12,0,24.158,5199.4519232722,117.125988,0.4921268,1.81075137028,0,0,-0.671082,39.6, 1.1, 1.4,0,0,1024,1024,1024,1024,40.9,-89.9,97,3.994,4.025,4.031,4.04,4.011,4.038,17.775,87.8,14,Waypoint,
37.3812189,-119.5382975,5200.4361752722,118.11024,0,0.79569884436,17400,2018-06-12 21:53:21,12,0,24.158,5200.4361752722,118.11024,0.4921268,1.81075137028,0,0,-0.671082,39.6, 1.2, 1.1,0,0,1024,1024,1024,1024,40.9,-89.9,97,3.994,4.025,4.031,4.04,4.011,4.038,17.775,87.8,14,Waypoint,
37.3812189,-119.5382974,5201.4204272722,119.094492,0,0.8221949082,17500,2018-06-12 21:53:21,12,0,24.158,5201.4204272722,119.094492,0.4921268,1.81075137028,0,0,-0.671082,39.7, 1.2, 1,0,0,1024,1024,1024,1024,40.9,-89.9,97,3.994,4.025,4.031,4.04,4.011,4.038,17.775,87.8,14,Waypoint,
37.381219,-119.5382973,5203.3889312722,121.062996,0,0.86362207488,17600,2018-06-12 21:53:21,12,0,24.158,5203.3889312722,121.062996,0.4921268,1.81075137028,0,0,-0.671082,39.8, 1.4, 1.2,0,0,1024,1024,1024,1024,40.9,-89.9,97,3.994,4.025,4.031,4.04,4.011,4.038,17.775,87.8,14,Waypoint,
37.381219,-119.5382972,5204.3731832722,122.047248,0,0.88998362428,17800,2018-06-12 21:53:21,12,0,24.158,5204.3731832722,122.047248,0.4921268,1.81075137028,0,0,-0.671082,39.9, 1.5, 1.3,0,0,1024,1024,1024,1024,40.9,-89.9,97,3.994,4.025,4.031,4.04,4.011,4.038,17.775,87.8,14,Waypoint,
37.3812191,-119.5382971,5206.3416872722,124.015752,0,0.9316273264,17900,2018-06-12 21:53:21,12,0,24.158,5206.3416872722,124.015752,0.4921268,1.81075137028,0,0,-0.671082,40, 1.5, 1.2,0,0,1024,1024,1024,1024,40.9,-89.9,97,3.994,4.025,4.031,4.04,4.011,4.038,17.775,87.8,14,Waypoint,
37.3812192,-119.5382971,5207.3259392722,125.000004,0,0.947916697,18000,2018-06-12 21:53:21,12,0,24.142,5207.3259392722,125.000004,0.4921268,1.81075137028,0,0,-0.671082,40.1, 1.6, 1.2,0,0,1024,1024,1024,1024,40.9,-89.9,97,4.003,4.029,4.039,4.047,4.016,4.031,17.613,87.8,14,Waypoint,
37.3812192,-119.538297,5208.3101912722,125.984256,0,0.97372378444,18100,2018-06-12 21:53:21,12,0,24.142,5208.3101912722,125.984256,0.4921268,1.81075137028,0,0,-0.671082,40.1, 1.5, 1.2,0,0,1024,1024,1024,1024,40.9,-89.9,97,4.003,4.029,4.039,4.047,4.016,4.031,17.613,87.8,14,Waypoint,
37.3812192,-119.538297,5209.2944432722,126.968508,0,0.97372378444,18200,2018-06-12 21:53:21,12,0,24.142,5209.2944432722,126.968508,0.4921268,1.81075137028,0,0,-0.671082,40.2, 1.5, 1.2,0,0,1024,1024,1024,1024,40.9,-89.9,97,4.003,4.029,4.039,4.047,4.016,4.031,17.613,87.8,14,Waypoint,
37.3812192,-119.5382969,5210.2786952722,127.95276,0,0.9997047564,18300,2018-06-12 21:53:21,12,0,24.142,5210.2786952722,127.95276,0.4921268,1.81075137028,0,0,-0.671082,40.2, 1.5, 1.2,0,0,1024,1024,1024,1024,40.9,-89.9,97,4.003,4.029,4.039,4.047,4.016,4.031,17.613,87.8,14,Waypoint,
37.3812192,-119.5382969,5212.2471992722,129.921264,0,0.9997047564,18500,2018-06-12 21:53:22,12,0,24.142,5212.2471992722,129.921264,0.4921268,1.81075137028,0,0,-0.671082,40.2, 1.5, 0.9,0,0,1024,1024,1024,1024,40.9,-89.9,97,4.003,4.029,4.039,4.047,4.016,4.031,17.613,87.8,14,Waypoint,
37.3812191,-119.5382968,5214.2157032722,131.889768,0,1.01081368064,18800,2018-06-12 21:53:22,12,0,24.142,5214.2157032722,131.889768,0.4921268,1.81075137028,0,0,-0.671082,40, 1.6, 0.7,0,0,1024,1024,1024,1024,40.9,-89.9,97,4.003,4.029,4.039,4.047,4.016,4.031,17.613,87.8,14,Waypoint,
37.3812191,-119.5382967,5215.1999552722,132.87402,0,1.03748690984,18900,2018-06-12 21:53:22,12,0,24.142,5215.1999552722,132.87402,0.4921268,1.81075137028,0,0,-0.671082,40, 1.6, 0.7,0,0,1024,1024,1024,1024,40.9,-89.9,97,4.003,4.029,4.039,4.047,4.016,4.031,17.613,87.8,14,Waypoint,
37.3812191,-119.5382967,5216.1842072722,133.858272,0,1.03748690984,19000,2018-06-12 21:53:22,12,0,24.091,5216.1842072722,133.858272,0.4921268,1.81075137028,0,0,-0.671082,40, 1.4, 0.7,0,0,1024,1024,1024,1024,40.9,-89.9,96,3.988,4.019,4.022,4.034,4.004,4.024,18.087,87.8,14,Waypoint,
37.3812191,-119.5382967,5217.1684592722,134.842524,0,1.03748690984,19100,2018-06-12 21:53:22,12,0,24.091,5217.1684592722,134.842524,0.4921268,1.81075137028,0,0,-0.671082,40.1, 1.2, 0.7,0,0,1024,1024,1024,1024,40.9,-89.9,96,3.988,4.019,4.022,4.034,4.004,4.024,18.087,87.8,14,Waypoint,
37.381219,-119.5382967,5219.1369632722,136.811028,0,1.02392391728,19300,2018-06-12 21:53:22,12,0,24.091,5219.1369632722,136.811028,0.4921268,1.81075137028,0,0,-0.671082,40.1, 1, 0.7,0,0,1024,1024,1024,1024,40.9,-89.9,96,3.988,4.019,4.022,4.034,4.004,4.024,18.087,87.8,14,Waypoint,
37.381219,-119.5382968,5221.1054672722,138.779532,0,0.99688979568,19500,2018-06-12 21:53:23,12,0,24.091,5221.1054672722,138.779532,0.4921268,1.81075137028,0,0,-0.671082,40, 1.1, 1.2,0,0,1024,1024,1024,1024,40.9,-89.9,96,3.988,4.019,4.022,4.034,4.004,4.024,18.087,87.8,14,Waypoint,
37.381219,-119.5382968,5222.0897192722,139.763784,0,0.99688979568,19600,2018-06-12 21:53:23,12,0,24.091,5222.0897192722,139.763784,0.4921268,1.81075137028,0,0,-0.671082,40, 1.1, 1.3,0,0,1024,1024,1024,1024,40.9,-89.9,96,3.988,4.019,4.022,4.034,4.004,4.024,18.087,87.8,14,Waypoint,
37.3812191,-119.5382969,5223.0739712722,140.748036,0,0.98427168504,19700,2018-06-12 21:53:23,12,0,24.091,5223.0739712722,140.748036,0.4921268,1.81075137028,0,0,-0.671082,39.9, 1.1, 1.3,0,0,1024,1024,1024,1024,40.9,-89.9,96,3.988,4.019,4.022,4.034,4.004,4.024,18.087,87.8,14,Waypoint,
37.3812191,-119.5382969,5224.0582232722,141.732288,0,0.98427168504,19800,2018-06-12 21:53:23,12,0,24.091,5224.0582232722,141.732288,0.4921268,1.81075137028,0,0,-0.671082,39.9, 1.1, 1.4,0,0,1024,1024,1024,1024,40.9,-89.9,96,3.988,4.019,4.022,4.034,4.004,4.024,18.087,87.8,14,Waypoint,
37.3812191,-119.5382969,5225.0424752722,142.71654,0,0.98427168504,19900,2018-06-12 21:53:23,13,0,24.091,5225.0424752722,142.71654,0.4921268,1.81075137028,0,0,-0.671082,39.9, 1, 1.3,0,0,1024,1024,1024,1024,40.9,-89.9,96,3.988,4.019,4.022,4.034,4.004,4.024,18.087,87.8,14,Waypoint,
37.3812191,-119.538297,5226.0267272722,143.700792,0,0.9578740464,20000,2018-06-12 21:53:23,13,0,24.056,5226.0267272722,143.700792,0.4921268,1.81075137028,0,0,-0.671082,40, 1, 1.3,0,0,1024,1024,1024,1024,40.9,-89.9,96,3.985,4.004,4.015,4.026,3.983,4.017,18.631,87.8,14,Waypoint,
37.3812191,-119.538297,5227.9952312722,145.669296,0,0.9578740464,20100,2018-06-12 21:53:23,13,0,24.056,5227.9952312722,145.669296,0.4921268,1.81075137028,0,0,-0.671082,40.1, 1, 1.3,0,0,1024,1024,1024,1024,40.9,-89.9,96,3.985,4.004,4.015,4.026,3.983,4.017,18.631,87.8,14,Waypoint,
37.3812191,-119.538297,5228.9794832722,146.653548,0,0.9578740464,20200,2018-06-12 21:53:23,13,0,24.056,5228.9794832722,146.653548,0.4921268,1.81075137028,0,0,-0.671082,40.1, 1.1, 1.1,0,0,1024,1024,1024,1024,40.9,-89.9,96,3.985,4.004,4.015,4.026,3.983,4.017,18.631,87.8,14,Waypoint,
37.3812191,-119.538297,5229.9637352722,147.6378,0,0.9578740464,20300,2018-06-12 21:53:23,13,0,24.056,5229.9637352722,147.6378,0.4921268,1.81075137028,0,0,-0.671082,40.1, 1.2, 1,0,0,1024,1024,1024,1024,40.9,-89.9,96,3.985,4.004,4.015,4.026,3.983,4.017,18.631,87.8,14,Waypoint,
37.3812191,-119.538297,5231.9322392722,149.606304,0,0.9578740464,20500,2018-06-12 21:53:24,13,0,24.056,5231.9322392722,149.606304,0.4921268,1.81075137028,0,0,-0.671082,39.8, 1.4, 1.2,0,0,1024,1024,1024,1024,40.9,-89.9,96,3.985,4.004,4.015,4.026,3.983,4.017,18.631,87.8,14,Waypoint,
37.3812191,-119.538297,5232.9164912722,150.590556,0,0.9578740464,20700,2018-06-12 21:53:24,13,0,24.056,5232.9164912722,150.590556,0.4921268,1.81075137028,0,0,-0.671082,39.7, 1.4, 1.2,0,0,1024,1024,1024,1024,40.9,-89.9,96,3.985,4.004,4.015,4.026,3.983,4.017,18.631,87.8,14,Waypoint,
37.3812191,-119.5382971,5234.8849952722,152.55906,0,0.9316273264,20800,2018-06-12 21:53:24,13,0,24.056,5234.8849952722,152.55906,0.4921268,1.81075137028,0,0,-0.671082,39.7, 1.2, 1.2,0,0,1024,1024,1024,1024,40.9,-89.9,96,3.985,4.004,4.015,4.026,3.983,4.017,18.631,87.8,14,Waypoint,
37.3812191,-119.5382971,5234.8849952722,152.55906,0,0.9316273264,20900,2018-06-12 21:53:24,13,0,24.056,5234.8849952722,152.55906,0.4921268,1.81075137028,0,0,-0.671082,39.7, 1.2, 1.2,0,0,1024,1024,1024,1024,40.9,-89.9,96,3.985,4.004,4.015,4.026,3.983,4.017,18.631,87.8,14,Waypoint,
37.3812192,-119.5382972,5236.8534992722,154.527564,0,0.92230317912,21100,2018-06-12 21:53:24,13,0,24.056,5236.8534992722,154.527564,0.4921268,1.81075137028,0,0,-0.671082,39.9, 1.1, 1.5,0,0,1024,1024,1024,1024,40.9,-89.9,96,3.985,4.004,4.015,4.026,3.983,4.017,18.631,87.8,14,Waypoint,
37.3812192,-119.5382973,5237.8377512722,155.511816,0,0.89688979248,21200,2018-06-12 21:53:24,13,0,24.056,5237.8377512722,155.511816,0.4921268,1.81075137028,0,0,-0.671082,40, 1.1, 1.7,0,0,1024,1024,1024,1024,40.9,-89.9,96,3.985,4.004,4.015,4.026,3.983,4.017,18.631,87.8,14,Waypoint,
37.3812192,-119.5382974,5238.8220032722,156.496068,0,0.8717027838,21300,2018-06-12 21:53:24,13,0,24.056,5238.8220032722,156.496068,0.4921268,1.81075137028,0,0,-0.671082,40.1, 1.1, 1.9,0,0,1024,1024,1024,1024,40.9,-89.9,96,3.985,4.004,4.015,4.026,3.983,4.017,18.631,87.8,14,Waypoint,
37.3812192,-119.5382975,5239.8062552722,157.48032,0,0.84675855728,21400,2018-06-12 21:53:25,13,0,24.056,5239.8062552722,157.48032,0.4921268,1.81075137028,0,0,-0.671082,40.1, 1, 2,0,0,1024,1024,1024,1024,40.9,-89.9,96,3.985,4.004,4.015,4.026,3.983,4.017,18.631,87.8,14,Waypoint,
37.3812192,-119.5382975,5240.7905072722,158.464572,0,0.84675855728,21500,2018-06-12 21:53:25,13,0,24.056,5240.7905072722,158.464572,0.4921268,1.81075137028,0,0,-0.671082,40.1, 0.9, 1.9,0,0,1024,1024,1024,1024,40.9,-90,96,3.985,4.004,4.015,4.026,3.983,4.017,18.631,87.8,14,Waypoint,
37.3812192,-119.5382976,5241.7747592722,159.448824,0,0.8220800788,21600,2018-06-12 21:53:25,13,0,24.056,5241.7747592722,159.448824,0.4921268,1.81075137028,0,0,-0.671082,40, 0.8, 1.8,0,0,1024,1024,1024,1024,40.9,-90,96,3.985,4.004,4.015,4.026,3.983,4.017,18.631,87.8,14,Waypoint,
37.3812192,-119.5382977,5242.4309272722,160.104992,0,0.79769031424,21700,2018-06-12 21:53:25,13,0,24.056,5242.4309272722,160.104992,0.4921268,1.81075137028,0,0,-0.671082,39.9, 0.7, 1.8,0,0,1024,1024,1024,1024,40.9,-89.9,96,3.985,4.004,4.015,4.026,3.983,4.017,18.631,87.8,14,Waypoint,
37.3812192,-119.5382977,5243.4151792722,161.089244,0,0.79769031424,21800,2018-06-12 21:53:25,13,0,24.056,5243.4151792722,161.089244,0.4921268,1.81075137028,0,0,-0.671082,39.9, 0.8, 2.1,0,0,1024,1024,1024,1024,40.9,-89.9,96,3.985,4.004,4.015,4.026,3.983,4.017,18.631,87.8,14,Waypoint,
37.3812192,-119.5382978,5244.3994312722,162.073496,0,0.773622072,21900,2018-06-12 21:53:25,13,0,24.056,5244.3994312722,162.073496,0.4921268,1.81075137028,0,0,-0.671082,39.9, 1, 1.8,0,0,1024,1024,1024,1024,40.9,-89.9,96,3.985,4.004,4.015,4.026,3.983,4.017,18.631,87.8,14,Waypoint,
37.3812192,-119.5382978,5245.3836832722,163.057748,0,0.773622072,22000,2018-06-12 21:53:25,13,0,23.995,5245.3836832722,163.057748,0.4921268,1.81075137028,0,0,-0.671082,39.9, 0.9, 1.6,0,0,1024,1024,1024,1024,40.9,-89.9,96,3.972,3.995,4.012,4.02,3.981,4.015,18.902,87.8,14,Waypoint,
37.3812192,-119.5382978,5246.3679352722,164.042,0,0.773622072,22100,2018-06-12 21:53:25,13,0,23.995,5246.3679352722,164.042,0.4921268,1.81075137028,0,0,-0.671082,39.9, 0.9, 1.2,0,0,1024,1024,1024,1024,40.9,-89.9,96,3.972,3.995,4.012,4.02,3.981,4.015,18.902,87.8,14,Waypoint,
37.3812192,-119.5382978,5247.3521872722,165.026252,0,0.773622072,22200,2018-06-12 21:53:25,13,0,23.995,5247.3521872722,165.026252,0.4921268,1.81075137028,0,0,-0.671082,39.8, 0.9, 1,0,0,1024,1024,1024,1024,40.9,-89.9,96,3.972,3.995,4.012,4.02,3.981,4.015,18.902,87.8,14,Waypoint,
37.3812192,-119.5382978,5248.3364392722,166.010504,0,0.773622072,22300,2018-06-12 21:53:25,13,0,23.995,5248.3364392722,166.010504,0.4921268,1.81075137028,0,0,-0.671082,39.8, 0.8, 0.8,0,0,1024,1024,1024,1024,40.9,-90,96,3.972,3.995,4.012,4.02,3.981,4.015,18.902,87.8,14,Waypoint,
37.3812192,-119.5382979,5249.3206912722,166.994756,0,0.74989831796,22400,2018-06-12 21:53:26,13,0,23.995,5249.3206912722,166.994756,0.4921268,1.81075137028,0,0,-0.671082,39.8, 0.4, 0.7,0,0,1024,1024,1024,1024,40.9,-90,96,3.972,3.995,4.012,4.02,3.981,4.015,18.902,87.8,14,Waypoint,
37.3812192,-119.5382979,5251.6172792722,169.291344,0,0.74989831796,22500,2018-06-12 21:53:26,13,0,23.995,5251.6172792722,169.291344,0.4921268,1.81075137028,0,0,-0.671082,40, 0.6, 1.1,0,0,1024,1024,1024,1024,40.9,-89.9,96,3.972,3.995,4.012,4.02,3.981,4.015,18.902,87.8,14,Waypoint,
37.3812191,-119.5382979,5252.6015312722,170.275596,0,0.7291994984,22600,2018-06-12 21:53:26,13,0,23.995,5252.6015312722,170.275596,0.4921268,1.81075137028,0,0,-0.671082,40, 0.9, 1.2,0,0,1024,1024,1024,1024,40.9,-89.9,96,3.972,3.995,4.012,4.02,3.981,4.015,18.902,87.8,14,Waypoint,
37.3812191,-119.5382979,5253.5857832722,171.259848,0,0.7291994984,22700,2018-06-12 21:53:26,13,0,23.995,5253.5857832722,171.259848,0.4921268,1.81075137028,0,0,-0.671082,40, 1.2, 1.5,0,0,1024,1024,1024,1024,40.9,-89.9,96,3.972,3.995,4.012,4.02,3.981,4.015,18.902,87.8,14,Waypoint,
37.3812191,-119.5382979,5254.5700352722,172.2441,0,0.7291994984,22800,2018-06-12 21:53:26,13,0,23.995,5254.5700352722,172.2441,0.4921268,1.81075137028,0,0,-0.671082,40, 1.3, 1.3,0,0,1024,1024,1024,1024,40.9,-89.9,96,3.972,3.995,4.012,4.02,3.981,4.015,18.902,87.8,14,Waypoint,
37.3812191,-119.5382979,5255.5542872722,173.228352,0,0.7291994984,23000,2018-06-12 21:53:26,13,0,23.931,5255.5542872722,173.228352,0.4921268,1.81075137028,0,0,-0.671082,39.9, 1.2, 1,0,0,1024,1024,1024,1024,40.9,-89.9,96,3.96,3.98,3.993,4.004,3.964,3.994,19.317,87.8,14,Waypoint,
37.381219,-119.5382978,5256.5385392722,174.212604,0,0.73479004976,23100,2018-06-12 21:53:26,13,0,23.931,5256.5385392722,174.212604,0.4921268,1.81075137028,0,0,-0.671082,39.8, 1.1, 0.8,0,0,1024,1024,1024,1024,40.9,-89.9,96,3.96,3.98,3.993,4.004,3.964,3.994,19.317,87.8,14,Waypoint,
37.3812189,-119.5382978,5257.5227912722,175.196856,0,0.71737535104,23200,2018-06-12 21:53:26,13,0,23.931,5257.5227912722,175.196856,0.4921268,1.81075137028,0,0,-0.671082,39.8, 0.9, 0.8,0,0,1024,1024,1024,1024,40.9,-89.9,96,3.96,3.98,3.993,4.004,3.964,3.994,19.317,87.8,14,Waypoint,
37.3812189,-119.5382977,5258.5070432722,176.181108,0,0.74327102116,23300,2018-06-12 21:53:26,13,0,23.931,5258.5070432722,176.181108,0.4921268,1.81075137028,0,0,-0.671082,39.8, 0.8, 0.7,0,0,1024,1024,1024,1024,40.9,-89.9,96,3.96,3.98,3.993,4.004,3.964,3.994,19.317,87.8,14,Waypoint,
37.3812189,-119.5382977,5259.4912952722,177.16536,0,0.74327102116,23400,2018-06-12 21:53:27,13,0,23.931,5259.4912952722,177.16536,0.4921268,1.81075137028,0,0,-0.671082,39.7, 0.9, 0.4,0,0,1024,1024,1024,1024,40.9,-89.9,96,3.96,3.98,3.993,4.004,3.964,3.994,19.317,87.8,14,Waypoint,
37.3812189,-119.5382976,5260.4755472722,178.149612,0,0.76938322672,23500,2018-06-12 21:53:27,13,0,23.931,5260.4755472722,178.149612,0.4921268,1.81075137028,0,0,-0.671082,39.7, 1.3, 0,0,0,1024,1024,1024,1024,40.9,-89.9,96,3.96,3.98,3.993,4.004,3.964,3.994,19.317,87.8,14,Waypoint,
37.3812189,-119.5382976,5261.4597992722,179.133864,0,0.76938322672,23600,2018-06-12 21:53:27,13,0,23.931,5261.4597992722,179.133864,0.4921268,1.81075137028,0,0,-0.671082,39.7, 1.6, 0,0,0,1024,1024,1024,1024,40.9,-89.9,96,3.96,3.98,3.993,4.004,3.964,3.994,19.317,87.8,14,Waypoint,
37.3812189,-119.5382975,5262.4440512722,180.118116,0,0.79569884436,23700,2018-06-12 21:53:27,13,0,23.931,5262.4440512722,180.118116,0.4921268,1.81075137028,0,0,-0.671082,39.8, 1.4, 0.1,0,0,1024,1024,1024,1024,40.9,-89.9,96,3.96,3.98,3.993,4.004,3.964,3.994,19.317,87.8,14,Waypoint,
37.3812188,-119.5382974,5263.4283032722,181.102368,0,0.808316955,23800,2018-06-12 21:53:27,13,0,23.931,5263.4283032722,181.102368,0.4921268,1.81075137028,0,0,-0.671082,39.8, 1.1, 0.3,0,0,1024,1024,1024,1024,40.9,-89.9,96,3.96,3.98,3.993,4.004,3.964,3.994,19.317,87.8,14,Waypoint,
37.3812188,-119.5382974,5264.4125552722,182.08662,0,0.808316955,23900,2018-06-12 21:53:27,13,0,23.931,5264.4125552722,182.08662,0.4921268,1.81075137028,0,0,-0.671082,39.9, 1.1, 0.2,0,0,1024,1024,1024,1024,40.9,-89.9,96,3.96,3.98,3.993,4.004,3.964,3.994,19.317,87.8,14,Waypoint,
37.3812187,-119.5382974,5265.3968072722,183.070872,0,0.79586944804,24000,2018-06-12 21:53:27,13,0,23.901,5265.3968072722,183.070872,0.4921268,1.81075137028,0,0,-0.671082,39.8, 1.1, 0.3,0,0,1024,1024,1024,1024,40.9,-89.9,96,3.96,3.98,3.993,4.004,3.964,3.994,19.526,87.8,14,Waypoint,
37.3812187,-119.5382974,5266.0529752722,183.72704,0,0.79586944804,24100,2018-06-12 21:53:27,13,0,23.901,5266.0529752722,183.72704,0.4921268,1.81075137028,0,0,-0.671082,39.8, 1, 0.4,0,0,1024,1024,1024,1024,40.9,-89.9,96,3.96,3.98,3.993,4.004,3.964,3.994,19.526,87.8,14,Waypoint,
37.3812187,-119.5382974,5267.3653112722,185.039376,0,0.79586944804,24200,2018-06-12 21:53:27,13,0,23.901,5267.3653112722,185.039376,0.4921268,1.81075137028,0,0,-0.671082,39.8, 0.8, 0.5,0,0,1024,1024,1024,1024,40.9,-89.9,96,3.96,3.98,3.993,4.004,3.964,3.994,19.526,87.8,14,Waypoint,
37.3812186,-119.5382974,5268.0214792722,185.695544,0,0.78492128496,24300,2018-06-12 21:53:27,13,0,23.901,5268.0214792722,185.695544,0.4921268,1.81075137028,0,0,-0.671082,39.7, 0.8, 0.7,0,0,1024,1024,1024,1024,40.9,-89.9,96,3.96,3.98,3.993,4.004,3.964,3.994,19.526,87.8,14,Waypoint,
37.3812186,-119.5382973,5269.3338152722,187.00788,0,0.81280186328,24400,2018-06-12 21:53:28,13,0,23.901,5269.3338152722,187.00788,0.4921268,1.81075137028,0,0,-0.671082,39.7, 0.7, 0.7,0,0,1024,1024,1024,1024,40.9,-89.9,96,3.96,3.98,3.993,4.004,3.964,3.994,19.526,87.8,14,Waypoint,
37.3812185,-119.5382973,5271.3023192722,188.976384,0,0.80374346404,24500,2018-06-12 21:53:28,13,0,23.901,5271.3023192722,188.976384,0.4921268,1.81075137028,0,0,-0.671082,39.5, 0.7, 0,0,0,1024,1024,1024,1024,40.9,-89.9,96,3.96,3.98,3.993,4.004,3.964,3.994,19.526,87.8,14,Waypoint,
37.3812185,-119.5382972,5272.2865712722,189.960636,0,0.8320046198,24600,2018-06-12 21:53:28,13,0,23.901,5272.2865712722,189.960636,0.4921268,1.81075137028,0,0,-0.671082,39.5, 0.7, -0.2,0,0,1024,1024,1024,1024,40.9,-89.9,96,3.96,3.98,3.993,4.004,3.964,3.994,19.526,87.8,14,Waypoint,
37.3812185,-119.5382972,5273.2708232722,190.944888,0,0.8320046198,24700,2018-06-12 21:53:28,13,0,23.901,5273.2708232722,190.944888,0.4921268,1.81075137028,0,0,-0.671082,39.4, 0.6, -0.3,0,0,1024,1024,1024,1024,40.9,-89.9,96,3.96,3.98,3.993,4.004,3.964,3.994,19.526,87.8,14,Waypoint,
37.3812184,-119.5382971,5275.2393272722,192.913392,0,0.85332351812,24900,2018-06-12 21:53:28,13,0,23.901,5275.2393272722,192.913392,0.4921268,1.81075137028,0,0,-0.671082,39.5, 0.9, -0.3,0,0,1024,1024,1024,1024,40.9,-89.9,96,3.96,3.98,3.993,4.004,3.964,3.994,19.526,87.8,14,Waypoint,
37.3812184,-119.538297,5276.2235792722,193.897644,0,0.88190291536,25000,2018-06-12 21:53:28,13,0,23.901,5276.2235792722,193.897644,0.4921268,1.81075137028,0,0,-0.671082,39.6, 1, -0.4,0,0,1024,1024,1024,1024,40.9,-89.9,96,3.961,3.982,3.991,4.011,3.969,3.995,19.526,87.8,14,Waypoint,
37.3812184,-119.538297,5277.2078312722,194.881896,0,0.88190291536,25100,2018-06-12 21:53:28,13,0,23.901,5277.2078312722,194.881896,0.4921268,1.81075137028,0,0,-0.671082,39.8, 1.1, -0.4,0,0,1024,1024,1024,1024,40.9,-89.9,96,3.961,3.982,3.991,4.011,3.969,3.995,19.526,87.8,14,Waypoint,
37.3812184,-119.5382969,5278.1920832722,195.866148,0,0.91050527848,25200,2018-06-12 21:53:28,13,0,23.901,5278.1920832722,195.866148,0.4921268,1.81075137028,0,0,-0.671082,39.9, 1, -0.4,0,0,1024,1024,1024,1024,40.9,-89.9,96,3.961,3.982,3.991,4.011,3.969,3.995,19.526,87.8,14,Waypoint,
37.3812183,-119.5382969,5279.1763352722,196.8504,0,0.90537404472,25300,2018-06-12 21:53:28,13,0,23.901,5279.1763352722,196.8504,0.4921268,1.81075137028,0,0,-0.671082,40, 0.9, -0.3,0,0,1024,1024,1024,1024,40.9,-89.9,96,3.961,3.982,3.991,4.011,3.969,3.995,19.526,87.8,14,Waypoint,
37.3812183,-119.5382969,5280.1605872722,197.834652,0,0.90537404472,25500,2018-06-12 21:53:29,13,0,23.901,5280.1605872722,197.834652,0.4921268,1.81075137028,0,0,-0.671082,40, 1, -0.3,0,0,1024,1024,1024,1024,40.9,-89.9,96,3.961,3.982,3.991,4.011,3.969,3.995,19.526,87.8,14,Waypoint,
37.3812183,-119.5382968,5281.1448392722,198.818904,0,0.93416013488,25600,2018-06-12 21:53:29,13,0,23.901,5281.1448392722,198.818904,0.4921268,1.81075137028,0,0,-0.671082,40, 0.8, -0.6,0,0,1024,1024,1024,1024,40.9,-89.9,96,3.961,3.982,3.991,4.011,3.969,3.995,19.526,87.8,14,Waypoint,
37.3812183,-119.5382968,5282.1290912722,199.803156,0,0.93416013488,25700,2018-06-12 21:53:29,13,0,23.901,5282.1290912722,199.803156,0.4921268,1.81075137028,0,0,-0.671082,40, 0.9, -0.9,0,0,1024,1024,1024,1024,40.9,-89.9,96,3.961,3.982,3.991,4.011,3.969,3.995,19.526,87.8,14,Waypoint,
37.3812183,-119.5382968,5283.1133432722,200.787408,0,0.93416013488,25800,2018-06-12 21:53:29,13,0,23.901,5283.1133432722,200.787408,0.4921268,1.81075137028,0,0,-0.671082,40, 1, -0.7,0,0,1024,1024,1024,1024,40.9,-89.9,96,3.961,3.982,3.991,4.011,3.969,3.995,19.526,87.8,14,Waypoint,
37.3812183,-119.5382968,5284.0975952722,201.77166,0,0.93416013488,25900,2018-06-12 21:53:29,13,0,23.901,5284.0975952722,201.77166,0.4921268,1.81075137028,0,0,-0.671082,40.1, 0.8, -0.5,0,0,1024,1024,1024,1024,40.9,-89.9,96,3.961,3.982,3.991,4.011,3.969,3.995,19.526,87.8,14,Waypoint,
37.3812183,-119.5382968,5285.7380152722,203.41208,0,0.93416013488,26100,2018-06-12 21:53:29,13,0,23.901,5285.7380152722,203.41208,0.4921268,1.81075137028,0,0,-0.671082,40.1, 0.9, 0,0,0,1024,1024,1024,1024,40.9,-89.9,96,3.961,3.982,3.991,4.011,3.969,3.995,19.526,87.8,14,Waypoint,
37.3812184,-119.5382968,5286.7222672722,204.396332,0,0.93913388832,26200,2018-06-12 21:53:29,13,0,23.901,5286.7222672722,204.396332,0.4921268,1.81075137028,0,0,-0.671082,40, 1.2, 0.2,0,0,1024,1024,1024,1024,40.9,-89.9,96,3.961,3.982,3.991,4.011,3.969,3.995,19.526,87.8,14,Waypoint,
37.3812184,-119.5382968,5288.6907712722,206.364836,0,0.93913388832,26400,2018-06-12 21:53:30,13,0,23.901,5288.6907712722,206.364836,0.4921268,1.81075137028,0,0,-0.671082,39.9, 1.5, 0,0,0,1024,1024,1024,1024,40.9,-89.9,96,3.961,3.982,3.991,4.011,3.969,3.995,19.526,87.8,14,Waypoint,
37.3812184,-119.5382968,5289.6750232722,207.349088,0,0.93913388832,26500,2018-06-12 21:53:30,13,0,23.901,5289.6750232722,207.349088,0.4921268,1.81075137028,0,0,-0.671082,39.8, 1.3, -0.2,0,0,1024,1024,1024,1024,40.9,-89.9,96,3.961,3.982,3.991,4.011,3.969,3.995,19.526,87.8,14,Waypoint,
37.3812184,-119.5382968,5290.6592752722,208.33334,0,0.93913388832,26600,2018-06-12 21:53:30,13,0,23.901,5290.6592752722,208.33334,0.4921268,1.81075137028,0,0,-0.671082,39.8, 1, -0.4,0,0,1024,1024,1024,1024,40.9,-89.9,96,3.961,3.982,3.991,4.011,3.969,3.995,19.526,87.8,14,Waypoint,
37.3812185,-119.5382969,5291.6435272722,209.317592,0,0.9170603968,26700,2018-06-12 21:53:30,13,0,23.901,5291.6435272722,209.317592,0.4921268,1.81075137028,0,0,-0.671082,40, 0.9, -0.2,0,0,1024,1024,1024,1024,40.9,-89.9,96,3.961,3.982,3.991,4.011,3.969,3.995,19.526,87.8,14,Waypoint,
