latitude,longitude,altitude(feet),ascent(feet),speed(mph),distance(feet),time(millisecond),datetime(utc),satellites,gpslevel,voltage(v),max_altitude(feet),max_ascent(feet),max_speed(mph),max_distance(feet), xSpeed(mph), ySpeed(mph), zSpeed(mph), compass_heading(degrees), pitch(degrees), roll(degrees),isPhoto,isVideo,rc_elevator,rc_aileron,rc_throttle,rc_rudder,gimbal_heading(degrees),gimbal_pitch(degrees),battery_percent,voltageCell1,voltageCell2,voltageCell3,voltageCell4,voltageCell5,voltageCell6,current(A),battery_temperature(f),flycStateRaw,flycState,message
37.3812226,-119.5382777,5080.7003335142,0,0.223694,0,3000,2018-06-12 22:12:14,9,0,25.821,5080.7003335142,0,0.223694,0,0,0,0,40.3, -0.5, 2.3,1,0,1024,1024,1024,1024,40.7,-89.9,98,4.303,4.298,4.175,4.304,4.308,4.303,2.319,84.2,11,AutoTakeoff,DJI_0725.jpg Starting Mission from Lat/Long: 37.38123/-119.53828 Camera: Zenmuse X3 - Overlap: 90/90 - Active Connection: No
37.3812225,-119.5382775,5080.7003335142,0,0.223694,0.068506563872,3100,2018-06-12 22:12:14,9,0,25.821,5080.7003335142,0,0.223694,0.068506563872,0,0,0,40.5, -0.1, 0.2,0,0,1024,1024,1024,1024,40.7,-89.9,98,4.303,4.298,4.175,4.304,4.308,4.303,2.319,84.2,11,AutoTakeoff,
37.3812224,-119.5382774,5080.7003335142,0,0.223694,0.11353018736,3200,2018-06-12 22:12:15,10,0,25.821,5080.7003335142,0,0.223694,0.11353018736,0,0,0,40.7, 0, -0.7,0,0,1024,1024,1024,1024,40.7,-89.9,98,4.303,4.298,4.175,4.304,4.308,4.303,2.319,84.2,11,AutoTakeoff,
37.3812223,-119.5382772,5080.7003335142,0,0.223694,0.181639441508,3300,2018-06-12 22:12:15,10,0,25.821,5080.7003335142,0,0.223694,0.181639441508,0,0,0,40.8, 0.2, -0.8,0,0,1024,1024,1024,1024,40.7,-89.9,98,4.303,4.298,4.175,4.304,4.308,4.303,2.319,84.2,11,AutoTakeoff,
37.3812222,-119.5382771,5080.7003335142,0,0.223694,0.227060702804,3400,2018-06-12 22:12:15,9,0,25.821,5080.7003335142,0,0.223694,0.227060702804,0,0,0,40.8, 0.3, -0.8,0,0,1024,1024,1024,1024,40.7,-89.9,98,4.303,4.298,4.175,4.304,4.308,4.303,2.319,84.2,11,AutoTakeoff,
37.3812222,-119.5382771,5081.0284175142,0.328084,0.223694,0.227060702804,3500,2018-06-12 22:12:15,9,0,25.821,5081.0284175142,0.328084,0.223694,0.227060702804,0,0,0,40.8, 0.3, -0.5,0,0,1024,1024,1024,1024,40.7,-89.9,98,4.303,4.298,4.175,4.304,4.308,4.303,2.319,84.2,11,AutoTakeoff,
37.3812222,-119.538277,5081.0284175142,0.328084,0,0.249966215348,3600,2018-06-12 22:12:15,8,0,25.821,5081.0284175142,0.328084,0.223694,0.249966215348,0,0,0,40.7, 0.4, -0.3,0,0,1024,1024,1024,1024,40.7,-89.9,98,4.303,4.298,4.175,4.304,4.308,4.303,2.319,84.2,11,AutoTakeoff,
37.3812222,-119.5382769,5081.0284175142,0.328084,0,0.274026583572,3700,2018-06-12 22:12:15,8,0,25.821,5081.0284175142,0.328084,0.223694,0.274026583572,0,0,0,40.6, 0.2, -0.4,0,0,1024,1024,1024,1024,40.7,-89.9,98,4.303,4.298,4.175,4.304,4.308,4.303,2.319,84.2,11,AutoTakeoff,
37.3812221,-119.5382768,5081.0284175142,0.328084,0,0.318370088928,3800,2018-06-12 22:12:15,9,0,25.821,5081.0284175142,0.328084,0.223694,0.318370088928,0,0,0,40.5, 0, -0.6,0,0,1024,1024,1024,1024,40.7,-89.9,98,4.303,4.298,4.175,4.304,4.308,4.303,2.319,84.2,11,AutoTakeoff,
37.3812221,-119.5382767,5081.3565015142,0.656168,0,0.34253281936,3900,2018-06-12 22:12:15,9,0,25.821,5081.3565015142,0.656168,0.223694,0.34253281936,0,0,0,40.4, 0.3, -0.7,0,0,1024,1024,1024,1024,40.7,-89.9,98,4.303,4.298,4.175,4.304,4.308,4.303,2.319,84.2,11,AutoTakeoff,
37.381222,-119.5382767,5081.6845855142,0.984252,0,0.36327757068,4000,2018-06-12 22:12:15,9,0,25.681,5081.6845855142,0.984252,0.223694,0.36327757068,0,0,0,40.3, 0.5, -0.4,0,0,1024,1024,1024,1024,40.7,-89.9,98,4.258,4.282,4.273,4.29,4.278,4.267,3.26,84.2,11,AutoTakeoff,
37.381222,-119.5382765,5081.6845855142,0.984252,0,0.4110400394,4100,2018-06-12 22:12:15,9,0,25.681,5081.6845855142,0.984252,0.223694,0.4110400394,0,0,0,40.2, 0.5, -0.4,0,0,1024,1024,1024,1024,40.7,-89.9,98,4.258,4.282,4.273,4.29,4.278,4.267,3.26,84.2,11,AutoTakeoff,
37.3812219,-119.5382764,5082.0126695142,1.312336,0,0.45527232428,4200,2018-06-12 22:12:16,9,0,25.681,5082.0126695142,1.312336,0.223694,0.45527232428,0,0,0,40.2, 0.4, -0.2,0,0,1024,1024,1024,1024,40.7,-89.9,98,4.258,4.282,4.273,4.29,4.278,4.267,3.26,84.2,11,AutoTakeoff,
37.3812219,-119.5382764,5082.0126695142,1.312336,0,0.45527232428,4300,2018-06-12 22:12:16,9,0,25.681,5082.0126695142,1.312336,0.223694,0.45527232428,0,0,0,40.1, 0.3, -0.3,0,0,1024,1024,1024,1024,40.7,-89.9,98,4.258,4.282,4.273,4.29,4.278,4.267,3.26,84.2,11,AutoTakeoff,
37.3812219,-119.5382763,5082.0126695142,1.312336,0,0.47954725944,4400,2018-06-12 22:12:16,9,0,25.681,5082.0126695142,1.312336,0.223694,0.47954725944,0,0,0,40.1, 0.4, -0.4,0,0,1024,1024,1024,1024,40.7,-89.9,98,4.258,4.282,4.273,4.29,4.278,4.267,3.26,84.2,11,AutoTakeoff,
37.3812219,-119.5382762,5082.3407535142,1.64042,0,0.50432088228,4500,2018-06-12 22:12:16,9,0,25.681,5082.3407535142,1.64042,0.223694,0.50432088228,0,0,0,40.1, 0.5, -0.4,0,0,1024,1024,1024,1024,40.7,-89.9,98,4.258,4.282,4.273,4.29,4.278,4.267,3.26,84.2,11,AutoTakeoff,
37.3812219,-119.5382761,5082.3407535142,1.64042,0,0.52952429516,4600,2018-06-12 22:12:16,9,0,25.681,5082.3407535142,1.64042,0.223694,0.52952429516,0,0,0,40.1, 0.6, -0.4,0,0,1024,1024,1024,1024,40.7,-89.9,98,4.258,4.282,4.273,4.29,4.278,4.267,3.26,84.2,11,AutoTakeoff,
37.3812219,-119.5382761,5082.6688375142,1.968504,0,0.52952429516,4700,2018-06-12 22:12:16,8,0,25.681,5082.6688375142,1.968504,0.223694,0.52952429516,0,0,0,40.1, 0.7, -0.4,0,0,1024,1024,1024,1024,40.7,-89.9,98,4.258,4.282,4.273,4.29,4.278,4.267,3.26,84.2,11,AutoTakeoff,
37.3812219,-119.538276,5082.6688375142,1.968504,0,0.55509516212,4800,2018-06-12 22:12:16,9,0,25.681,5082.6688375142,1.968504,0.223694,0.55509516212,0,0,-0.223694,40.2, 0.8, -0.4,0,0,1024,1024,1024,1024,40.7,-89.9,98,4.258,4.282,4.273,4.29,4.278,4.267,3.26,84.2,11,AutoTakeoff,
37.381222,-119.5382761,5082.9969215142,2.296588,0,0.51292324476,4900,2018-06-12 22:12:16,9,0,25.681,5082.9969215142,2.296588,0.223694,0.55509516212,0,0,-0.223694,40.2, 0.7, -0.4,0,0,1024,1024,1024,1024,40.7,-89.9,98,4.258,4.282,4.273,4.29,4.278,4.267,3.26,84.2,11,AutoTakeoff,
37.3812221,-119.5382764,5083.3250055142,2.624672,0,0.418717205,5000,2018-06-12 22:12:16,10,0,25.209,5083.3250055142,2.624672,0.223694,0.55509516212,0,0,0,40.2, 0.6, 0,0,0,1024,1024,1024,1024,40.7,-89.9,98,4.136,4.166,4.149,4.172,4.174,4.181,10.313,84.2,11,AutoTakeoff,
37.3812221,-119.5382766,5083.6530895142,2.952756,0,0.36739502488,5100,2018-06-12 22:12:16,10,0,25.209,5083.6530895142,2.952756,0.223694,0.55509516212,0,0,-0.223694,40.2, 0.5, 0.1,0,0,1024,1024,1024,1024,40.7,-89.9,98,4.136,4.166,4.149,4.172,4.174,4.181,10.313,84.2,11,AutoTakeoff,
37.3812222,-119.5382768,5083.6530895142,2.952756,0.223694,0.298963592244,5200,2018-06-12 22:12:17,10,0,25.209,5083.6530895142,2.952756,0.223694,0.55509516212,0,0,0,40.2, 0.4, 0.5,0,0,1024,1024,1024,1024,40.7,-89.9,98,4.136,4.166,4.149,4.172,4.174,4.181,10.313,84.2,14,Waypoint,
37.3812223,-119.538277,5083.9811735142,3.28084,0.223694,0.230575466696,5400,2018-06-12 22:12:17,10,0,25.209,5083.9811735142,3.28084,0.223694,0.55509516212,0,0,0,40.2, 0.4, 1.1,0,0,1024,1024,1024,1024,40.7,-89.9,98,4.136,4.166,4.149,4.172,4.174,4.181,10.313,84.2,14,Waypoint,
37.3812223,-119.5382771,5083.9811735142,3.28084,0,0.2055200197,5500,2018-06-12 22:12:17,10,0,25.209,5083.9811735142,3.28084,0.223694,0.55509516212,0,0,0,40.1, 0.4, 1.8,0,0,1024,1024,1024,1024,40.7,-89.9,98,4.136,4.166,4.149,4.172,4.174,4.181,10.313,84.2,14,Waypoint,
37.3812223,-119.5382772,5083.9811735142,3.28084,0,0.181639441508,5600,2018-06-12 22:12:17,9,0,25.209,5083.9811735142,3.28084,0.223694,0.55509516212,0,0,0,40, 0.4, 2,0,0,1024,1024,1024,1024,40.7,-89.9,98,4.136,4.166,4.149,4.172,4.174,4.181,10.313,84.2,14,Waypoint,
37.3812224,-119.5382772,5084.3092575142,3.608924,0,0.162287406768,5700,2018-06-12 22:12:17,9,0,25.209,5084.3092575142,3.608924,0.223694,0.55509516212,0,0,0,40, 0.4, 1.8,0,0,1024,1024,1024,1024,40.7,-89.9,98,4.136,4.166,4.149,4.172,4.174,4.181,10.313,84.2,14,Waypoint,
37.3812225,-119.5382773,5084.3092575142,3.608924,0,0.12156988578,5800,2018-06-12 22:12:17,9,0,25.209,5084.3092575142,3.608924,0.223694,0.55509516212,0,0,0,40, 0.6, 1.5,0,0,1024,1024,1024,1024,40.7,-89.9,98,4.136,4.166,4.149,4.172,4.174,4.181,10.313,84.2,14,Waypoint,
37.3812225,-119.5382773,5084.6373415142,3.937008,0,0.12156988578,5900,2018-06-12 22:12:17,9,0,25.209,5084.6373415142,3.937008,0.223694,0.55509516212,0,0,-0.223694,40, 0.7, 1.2,0,0,1024,1024,1024,1024,40.7,-89.9,98,4.136,4.166,4.149,4.172,4.174,4.181,10.313,84.2,14,Waypoint,
37.3812224,-119.5382774,5084.9654255142,4.265092,0,0.11353018736,6000,2018-06-12 22:12:17,9,0,24.596,5084.9654255142,4.265092,0.223694,0.55509516212,0,0,-0.223694,40.1, 0.7, 0.9,0,0,1024,1024,1024,1024,40.7,-89.9,98,4.088,4.096,4.088,4.096,4.105,4.107,16.276,84.2,14,Waypoint,
37.3812225,-119.5382774,5085.2935095142,4.593176,0,0.094316932152,6100,2018-06-12 22:12:17,9,0,24.596,5085.2935095142,4.593176,0.223694,0.55509516212,0,0,-0.223694,40.1, 0.6, 0.7,0,0,1024,1024,1024,1024,40.7,-89.9,98,4.088,4.096,4.088,4.096,4.105,4.107,16.276,84.2,14,Waypoint,
37.3812225,-119.5382775,5085.6215935142,4.92126,0,0.068506563872,6200,2018-06-12 22:12:18,8,0,24.596,5085.6215935142,4.92126,0.223694,0.55509516212,0,0,-0.223694,40.2, 0.5, 0.7,0,0,1024,1024,1024,1024,40.7,-89.9,98,4.088,4.096,4.088,4.096,4.105,4.107,16.276,84.2,14,Waypoint,
37.3812226,-119.5382776,5085.9496775142,5.249344,0,0.0289914379356,6300,2018-06-12 22:12:18,8,0,24.596,5085.9496775142,5.249344,0.223694,0.55509516212,0,0,-0.223694,40.3, 0.5, 0.8,0,0,1024,1024,1024,1024,40.7,-89.9,98,4.088,4.096,4.088,4.096,4.105,4.107,16.276,84.2,14,Waypoint,
37.3812228,-119.5382778,5086.6058455142,5.905512,0,0.078518047132,6400,2018-06-12 22:12:18,9,0,24.596,5086.6058455142,5.905512,0.223694,0.55509516212,0,0,-0.447388,40.3, 0.6, 1.1,0,0,1024,1024,1024,1024,40.7,-89.9,98,4.088,4.096,4.088,4.096,4.105,4.107,16.276,84.2,14,Waypoint,
37.3812229,-119.538278,5086.9339295142,6.233596,0,0.13980315408,6500,2018-06-12 22:12:18,9,0,24.596,5086.9339295142,6.233596,0.223694,0.55509516212,0,0,-0.447388,40.4, 0.8, 1.5,0,0,1024,1024,1024,1024,40.7,-89.9,98,4.088,4.096,4.088,4.096,4.105,4.107,16.276,84.2,14,Waypoint,
37.381223,-119.5382782,5087.5900975142,6.889764,0,0.205696200808,6600,2018-06-12 22:12:18,9,0,24.596,5087.5900975142,6.889764,0.223694,0.55509516212,0,0,-0.447388,40.4, 0.9, 1.8,0,0,1024,1024,1024,1024,40.7,-89.9,98,4.088,4.096,4.088,4.096,4.105,4.107,16.276,84.2,14,Waypoint,
37.381223,-119.5382782,5088.2462655142,7.545932,0,0.205696200808,6700,2018-06-12 22:12:18,9,0,24.596,5088.2462655142,7.545932,0.223694,0.55509516212,0,0,-0.447388,40.5, 0.8, 1.9,0,0,1024,1024,1024,1024,40.7,-89.9,98,4.088,4.096,4.088,4.096,4.105,4.107,16.276,84.2,14,Waypoint,
37.3812231,-119.5382782,5089.2305175142,8.530184,0,0.233004928716,6800,2018-06-12 22:12:18,9,0,24.596,5089.2305175142,8.530184,0.223694,0.55509516212,0,0,-0.447388,40.5, 0.7, 1.7,0,0,1024,1024,1024,1024,40.7,-89.9,98,4.088,4.096,4.088,4.096,4.105,4.107,16.276,84.2,14,Waypoint,
37.381223,-119.5382783,5089.8866855142,9.186352,0,0.227060702804,6900,2018-06-12 22:12:18,9,0,24.596,5089.8866855142,9.186352,0.223694,0.55509516212,0,0,-0.671082,40.6, 0.7, 1.5,0,0,1024,1024,1024,1024,40.7,-89.9,98,4.088,4.096,4.088,4.096,4.105,4.107,16.276,84.2,14,Waypoint,
37.381223,-119.5382783,5090.8709375142,10.170604,0,0.227060702804,7000,2018-06-12 22:12:18,10,0,24.485,5090.8709375142,10.170604,0.223694,0.55509516212,0,0,-0.671082,40.5, 0.5, 1.3,0,0,1024,1024,1024,1024,40.7,-89.9,97,4.081,4.076,4.081,4.081,4.094,4.095,16.924,84.2,14,Waypoint,
37.3812229,-119.5382784,5092.1832735142,11.48294,0,0.230575466696,7100,2018-06-12 22:12:18,10,0,24.485,5092.1832735142,11.48294,0.223694,0.55509516212,0,0,-0.671082,40.4, 0.3, 1.1,0,0,1024,1024,1024,1024,40.7,-89.9,97,4.081,4.076,4.081,4.081,4.094,4.095,16.924,84.2,14,Waypoint,
37.3812229,-119.5382785,5093.1675255142,12.467192,0,0.25646162238,7200,2018-06-12 22:12:19,9,0,24.485,5093.1675255142,12.467192,0.223694,0.55509516212,0,0,-0.671082,40.3, 0.1, 1.2,0,0,1024,1024,1024,1024,40.7,-89.9,97,4.081,4.076,4.081,4.081,4.094,4.095,16.924,84.2,14,Waypoint,
37.381223,-119.5382786,5094.4798615142,13.779528,0,0.298963592244,7300,2018-06-12 22:12:19,9,0,24.485,5094.4798615142,13.779528,0.223694,0.55509516212,0,0,-0.671082,40.2, 0, 1.2,0,0,1024,1024,1024,1024,40.7,-89.9,97,4.081,4.076,4.081,4.081,4.094,4.095,16.924,84.2,14,Waypoint,
37.3812231,-119.5382786,5095.4641135142,14.76378,0,0.318370088928,7400,2018-06-12 22:12:19,9,0,24.485,5095.4641135142,14.76378,0.223694,0.55509516212,0,0,-0.671082,40.2, 0.2, 1.3,0,0,1024,1024,1024,1024,40.7,-89.9,97,4.081,4.076,4.081,4.081,4.094,4.095,16.924,84.2,14,Waypoint,
37.3812232,-119.5382787,5096.4483655142,15.748032,0,0.36327757068,7600,2018-06-12 22:12:19,9,0,24.485,5096.4483655142,15.748032,0.223694,0.55509516212,0,0,-0.671082,40.1, 0.5, 1.5,0,0,1024,1024,1024,1024,40.7,-89.9,97,4.081,4.076,4.081,4.081,4.094,4.095,16.924,84.2,14,Waypoint,
37.3812234,-119.5382787,5098.7449535142,18.04462,0,0.41139108928,7700,2018-06-12 22:12:19,9,0,24.485,5098.7449535142,18.04462,0.223694,0.55509516212,0,0,-0.671082,40.1, 1, 1.8,0,0,1024,1024,1024,1024,40.7,-89.9,97,4.081,4.076,4.081,4.081,4.094,4.095,16.924,84.2,14,Waypoint,
37.3812235,-119.5382787,5101.0415415142,20.341208,0,0.43803479092,7900,2018-06-12 22:12:19,9,0,24.485,5101.0415415142,20.341208,0.223694,0.55509516212,0,0,-0.671082,39.9, 0.9, 2,0,0,1024,1024,1024,1024,40.7,-89.9,97,4.081,4.076,4.081,4.081,4.094,4.095,16.924,84.2,14,Waypoint,
37.3812236,-119.5382787,5102.3538775142,21.653544,0,0.4660105136,8000,2018-06-12 22:12:19,9,0,24.446,5102.3538775142,21.653544,0.223694,0.55509516212,0,0,-0.671082,39.8, 0.8, 1.9,0,0,1024,1024,1024,1024,40.7,-89.9,97,3.972,3.962,4.047,4.025,4.046,4.036,23.89,84.2,14,Waypoint,
37.3812235,-119.5382788,5103.3381295142,22.637796,0,0.45773951596,8100,2018-06-12 22:12:19,9,0,24.446,5103.3381295142,22.637796,0.223694,0.55509516212,0,0,-0.671082,39.6, 0.9, 1.5,0,0,1024,1024,1024,1024,40.7,-89.9,97,3.972,3.962,4.047,4.025,4.046,4.036,23.89,84.2,14,Waypoint,
37.3812234,-119.5382789,5104.3223815142,23.622048,0,0.45412074944,8200,2018-06-12 22:12:20,9,0,24.446,5104.3223815142,23.622048,0.223694,0.55509516212,0,0,-0.671082,39.5, 0.8, 1.3,0,0,1024,1024,1024,1024,40.7,-89.9,97,3.972,3.962,4.047,4.025,4.046,4.036,23.89,84.2,14,Waypoint,
37.3812233,-119.5382788,5105.3066335142,24.6063,0,0.40856628604,8300,2018-06-12 22:12:20,9,0,24.446,5105.3066335142,24.6063,0.223694,0.55509516212,0,0,-0.671082,39.5, 0.5, 1.4,0,0,1024,1024,1024,1024,40.7,-89.9,97,3.972,3.962,4.047,4.025,4.046,4.036,23.89,84.2,14,Waypoint,
37.3812231,-119.5382787,5106.2908855142,25.590552,0,0.34253281936,8400,2018-06-12 22:12:20,9,0,24.446,5106.2908855142,25.590552,0.223694,0.55509516212,0,0,-0.671082,39.6, 0.4, 1.4,0,0,1024,1024,1024,1024,40.7,-89.9,97,3.972,3.962,4.047,4.025,4.046,4.036,23.89,84.2,14,Waypoint,
37.3812231,-119.5382786,5107.2751375142,26.574804,0,0.318370088928,8500,2018-06-12 22:12:20,9,0,24.446,5107.2751375142,26.574804,0.223694,0.55509516212,0,0,-0.671082,39.7, 0.3, 1.1,0,0,1024,1024,1024,1024,40.7,-89.9,97,3.972,3.962,4.047,4.025,4.046,4.036,23.89,84.2,14,Waypoint,
37.381223,-119.5382786,5108.5874735142,27.88714,0,0.298963592244,8600,2018-06-12 22:12:20,9,0,24.446,5108.5874735142,27.88714,0.223694,0.55509516212,0,0,-0.671082,39.9, 0.4, 1.2,0,0,1024,1024,1024,1024,40.7,-89.9,97,3.972,3.962,4.047,4.025,4.046,4.036,23.89,84.2,14,Waypoint,
37.381223,-119.5382786,5109.5717255142,28.871392,0.223694,0.298963592244,8700,2018-06-12 22:12:20,9,0,24.446,5109.5717255142,28.871392,0.223694,0.55509516212,0,0,-0.671082,40, 0.4, 1.2,0,0,1024,1024,1024,1024,40.7,-89.9,97,3.972,3.962,4.047,4.025,4.046,4.036,23.89,84.2,14,Waypoint,
37.381223,-119.5382785,5110.5559775142,29.855644,0.223694,0.274026583572,8800,2018-06-12 22:12:20,10,0,24.446,5110.5559775142,29.855644,0.223694,0.55509516212,0,0,-0.671082,40, 0.5, 1.1,0,0,1024,1024,1024,1024,40.7,-89.9,97,3.972,3.962,4.047,4.025,4.046,4.036,23.89,84.2,14,Waypoint,
37.3812229,-119.5382785,5111.5402295142,30.839896,0.223694,0.25646162238,8900,2018-06-12 22:12:20,10,0,24.446,5111.5402295142,30.839896,0.223694,0.55509516212,0,0,-0.671082,40.1, 0.6, 0.9,0,0,1024,1024,1024,1024,40.7,-89.9,97,3.972,3.962,4.047,4.025,4.046,4.036,23.89,84.2,14,Waypoint,
37.3812229,-119.5382784,5112.5244815142,31.824148,0.223694,0.230575466696,9000,2018-06-12 22:12:20,10,0,24.118,5112.5244815142,31.824148,0.223694,0.55509516212,0,0,-0.671082,40.2, 0.8, 0.6,0,0,1024,1024,1024,1024,40.7,-89.9,97,4.03,4.014,4.03,4.017,4.034,3.982,19.653,84.2,14,Waypoint,
37.3812228,-119.5382785,5113.5087335142,32.8084,0.223694,0.243139443476,9100,2018-06-12 22:12:20,10,0,24.118,5113.5087335142,32.8084,0.223694,0.55509516212,0,0,-0.671082,40.3, 0.9, 0.5,0,0,1024,1024,1024,1024,40.7,-89.9,97,4.03,4.014,4.03,4.017,4.034,3.982,19.653,84.2,14,Waypoint,
37.3812227,-119.5382785,5114.4929855142,33.792652,0,0.23478347208,9200,2018-06-12 22:12:21,10,0,24.118,5114.4929855142,33.792652,0.223694,0.55509516212,0,0,-0.671082,40.4, 0.8, 0.5,0,0,1024,1024,1024,1024,40.7,-89.9,97,4.03,4.014,4.03,4.017,4.034,3.982,19.653,84.2,14,Waypoint,
37.3812226,-119.5382785,5115.4772375142,34.776904,0,0.231931437868,9300,2018-06-12 22:12:21,10,0,24.118,5115.4772375142,34.776904,0.223694,0.55509516212,0,0,-0.671082,40.5, 0.6, 0.5,0,0,1024,1024,1024,1024,40.7,-89.9,97,4.03,4.014,4.03,4.017,4.034,3.982,19.653,84.2,14,Waypoint,
37.3812225,-119.5382784,5116.7895735142,36.08924,0.223694,0.206193576152,9400,2018-06-12 22:12:21,10,0,24.118,5116.7895735142,36.08924,0.223694,0.55509516212,0,0,-0.671082,40.6, 0.4, 0.4,0,0,1024,1024,1024,1024,40.7,-89.9,97,4.03,4.014,4.03,4.017,4.034,3.982,19.653,84.2,14,Waypoint,
37.3812224,-119.5382784,5117.7738255142,37.073492,0.223694,0.215660111888,9500,2018-06-12 22:12:21,10,0,24.118,5117.7738255142,37.073492,0.223694,0.55509516212,0,0,-0.671082,40.6, 0.2, 0.2,0,0,1024,1024,1024,1024,40.7,-89.9,97,4.03,4.014,4.03,4.017,4.034,3.982,19.653,84.2,14,Waypoint,
37.3812223,-119.5382784,5118.7580775142,38.057744,0,0.230575466696,9700,2018-06-12 22:12:21,10,0,24.118,5118.7580775142,38.057744,0.223694,0.55509516212,0,0,-0.671082,40.6, 0.2, 0,0,0,1024,1024,1024,1024,40.7,-89.9,97,4.03,4.014,4.03,4.017,4.034,3.982,19.653,84.2,14,Waypoint,
37.3812222,-119.5382784,5119.7423295142,39.041996,0,0.249966215348,9800,2018-06-12 22:12:21,10,0,24.118,5119.7423295142,39.041996,0.223694,0.55509516212,0,0,-0.671082,40.5, 0.2, 0,0,0,1024,1024,1024,1024,40.7,-89.9,97,4.03,4.014,4.03,4.017,4.034,3.982,19.653,84.2,14,Waypoint,
37.3812221,-119.5382786,5121.7108335142,41.0105,0,0.318370088928,9900,2018-06-12 22:12:21,11,0,24.118,5121.7108335142,41.0105,0.223694,0.55509516212,0,0,-0.671082,40.3, 0.3, 0.3,0,0,1024,1024,1024,1024,40.7,-89.9,97,4.03,4.014,4.03,4.017,4.034,3.982,19.653,84.2,14,Waypoint,
37.381222,-119.5382787,5122.6950855142,41.994752,0,0.36327757068,10000,2018-06-12 22:12:21,11,0,24.191,5122.6950855142,41.994752,0.223694,0.55509516212,0,0,-0.671082,40.3, 0, 0.7,0,0,1024,1024,1024,1024,40.7,-89.9,97,4.017,4.017,4.036,4.031,4.047,4.039,18.5,84.2,14,Waypoint,
37.3812221,-119.5382786,5123.6793375142,42.979004,0,0.318370088928,10100,2018-06-12 22:12:21,11,0,24.191,5123.6793375142,42.979004,0.223694,0.55509516212,0,0,-0.671082,40.3, -0.1, 0.9,0,0,1024,1024,1024,1024,40.7,-89.9,97,4.017,4.017,4.036,4.031,4.047,4.039,18.5,84.2,14,Waypoint,
37.3812221,-119.5382784,5124.6635895142,43.963256,0,0.272879929992,10200,2018-06-12 22:12:22,11,0,24.191,5124.6635895142,43.963256,0.223694,0.55509516212,0,0,-0.671082,40.3, 0.1, 1,0,0,1024,1024,1024,1024,40.7,-89.9,97,4.017,4.017,4.036,4.031,4.047,4.039,18.5,84.2,14,Waypoint,
37.3812222,-119.5382784,5125.6478415142,44.947508,0,0.249966215348,10300,2018-06-12 22:12:22,11,0,24.191,5125.6478415142,44.947508,0.223694,0.55509516212,0,0,-0.671082,40.3, 0.6, 0.8,0,0,1024,1024,1024,1024,40.7,-89.9,97,4.017,4.017,4.036,4.031,4.047,4.039,18.5,84.2,14,Waypoint,
37.3812222,-119.5382785,5126.9601775142,46.259844,0,0.274026583572,10400,2018-06-12 22:12:22,11,0,24.191,5126.9601775142,46.259844,0.223694,0.55509516212,0,0,-0.671082,40.3, 1, 0.9,0,0,1024,1024,1024,1024,40.7,-89.9,97,4.017,4.017,4.036,4.031,4.047,4.039,18.5,84.2,14,Waypoint,
37.3812221,-119.5382785,5127.9444295142,47.244096,0,0.295077765348,10500,2018-06-12 22:12:22,11,0,24.191,5127.9444295142,47.244096,0.223694,0.55509516212,0,0,-0.671082,40.3, 1.3, 1.1,0,0,1024,1024,1024,1024,40.7,-89.9,97,4.017,4.017,4.036,4.031,4.047,4.039,18.5,84.2,14,Waypoint,
37.3812218,-119.5382785,5128.9286815142,48.228348,0,0.37280841088,10600,2018-06-12 22:12:22,11,0,24.191,5128.9286815142,48.228348,0.223694,0.55509516212,0,0,-0.671082,40.3, 1, 0.9,0,0,1024,1024,1024,1024,40.7,-89.9,97,4.017,4.017,4.036,4.031,4.047,4.039,18.5,84.2,14,Waypoint,
37.3812218,-119.5382784,5129.9129335142,49.2126,0,0.35549869904,10700,2018-06-12 22:12:22,11,0,24.191,5129.9129335142,49.2126,0.223694,0.55509516212,0,0,-0.671082,40.2, 0.3, 0.4,0,0,1024,1024,1024,1024,40.7,-90,97,4.017,4.017,4.036,4.031,4.047,4.039,18.5,84.2,14,Waypoint,
37.3812218,-119.5382784,5130.8971855142,50.196852,0,0.35549869904,10800,2018-06-12 22:12:22,11,0,24.191,5130.8971855142,50.196852,0.223694,0.55509516212,0,0,-0.671082,40.1, 0.1, 0.2,0,0,1024,1024,1024,1024,40.7,-90,97,4.017,4.017,4.036,4.031,4.047,4.039,18.5,84.2,14,Waypoint,
37.3812218,-119.5382784,5131.8814375142,51.181104,0,0.35549869904,10900,2018-06-12 22:12:22,11,0,24.191,5131.8814375142,51.181104,0.223694,0.55509516212,0,0,-0.671082,40, 0.1, 0.2,0,0,1024,1024,1024,1024,40.7,-90,97,4.017,4.017,4.036,4.031,4.047,4.039,18.5,84.2,14,Waypoint,
37.3812218,-119.5382784,5132.8656895142,52.165356,0,0.35549869904,11000,2018-06-12 22:12:22,12,0,24.185,5132.8656895142,52.165356,0.223694,0.55509516212,0,0,-0.671082,40, 0.1, 0.3,0,0,1024,1024,1024,1024,40.7,-90,97,4.015,4.009,4.027,4.022,4.041,4.034,18.762,84.2,14,Waypoint,
37.3812217,-119.5382783,5133.8499415142,53.149608,0,0.37159450008,11100,2018-06-12 22:12:22,12,0,24.185,5133.8499415142,53.149608,0.223694,0.55509516212,0,0,-0.671082,40, 0.2, 0.3,0,0,1024,1024,1024,1024,40.7,-89.9,97,4.015,4.009,4.027,4.022,4.041,4.034,18.762,84.2,14,Waypoint,
37.3812216,-119.5382783,5134.8341935142,54.13386,0,0.40419292632,11200,2018-06-12 22:12:23,12,0,24.185,5134.8341935142,54.13386,0.223694,0.55509516212,0,0,-0.671082,40.1, 0.2, 0.3,0,0,1024,1024,1024,1024,40.7,-90,97,4.015,4.009,4.027,4.022,4.041,4.034,18.762,84.2,14,Waypoint,
37.3812216,-119.5382781,5135.8184455142,55.118112,0.223694,0.38283465792,11300,2018-06-12 22:12:23,12,0,24.185,5135.8184455142,55.118112,0.223694,0.55509516212,0,0,-0.671082,40.1, 0.3, 0.2,0,0,1024,1024,1024,1024,40.7,-89.9,97,4.015,4.009,4.027,4.022,4.041,4.034,18.762,84.2,14,Waypoint,
37.3812216,-119.538278,5136.8026975142,56.102364,0.223694,0.37507219048,11400,2018-06-12 22:12:23,11,0,24.185,5136.8026975142,56.102364,0.223694,0.55509516212,0,0,-0.671082,40.1, 0.5, 0.2,0,0,1024,1024,1024,1024,40.7,-89.9,97,4.015,4.009,4.027,4.022,4.041,4.034,18.762,84.2,14,Waypoint,
37.3812217,-119.5382779,5137.7869495142,57.086616,0.223694,0.33344489256,11500,2018-06-12 22:12:23,11,0,24.185,5137.7869495142,57.086616,0.223694,0.55509516212,0,0,-0.671082,40.2, 0.7, 0.1,0,0,1024,1024,1024,1024,40.7,-89.9,97,4.015,4.009,4.027,4.022,4.041,4.034,18.762,84.2,14,Waypoint,
37.3812217,-119.5382779,5138.7712015142,58.070868,0,0.33344489256,11600,2018-06-12 22:12:23,12,0,24.185,5138.7712015142,58.070868,0.223694,0.55509516212,0,0,-0.671082,40.3, 0.8, 0.3,0,0,1024,1024,1024,1024,40.7,-89.9,97,4.015,4.009,4.027,4.022,4.041,4.034,18.762,84.2,14,Waypoint,
37.3812217,-119.5382779,5139.7554535142,59.05512,0,0.33344489256,11700,2018-06-12 22:12:23,12,0,24.185,5139.7554535142,59.05512,0.223694,0.55509516212,0,0,-0.671082,40.3, 0.8, 0.5,0,0,1024,1024,1024,1024,40.7,-89.9,97,4.015,4.009,4.027,4.022,4.041,4.034,18.762,84.2,14,Waypoint,
37.3812217,-119.538278,5140.7397055142,60.039372,0,0.33968833108,11800,2018-06-12 22:12:23,12,0,24.185,5140.7397055142,60.039372,0.223694,0.55509516212,0,0,-0.671082,40.3, 0.9, 0.7,0,0,1024,1024,1024,1024,40.7,-89.9,97,4.015,4.009,4.027,4.022,4.041,4.034,18.762,84.2,14,Waypoint,
37.3812217,-119.5382779,5141.7239575142,61.023624,0,0.33344489256,11900,2018-06-12 22:12:23,12,0,24.185,5141.7239575142,61.023624,0.223694,0.55509516212,0,0,-0.671082,40.3, 0.8, 0.7,0,0,1024,1024,1024,1024,40.7,-89.9,97,4.015,4.009,4.027,4.022,4.041,4.034,18.762,84.2,14,Waypoint,
37.3812216,-119.5382779,5142.7082095142,62.007876,0,0.36942914568,12000,2018-06-12 22:12:23,12,0,24.149,5142.7082095142,62.007876,0.223694,0.55509516212,0,0,-0.671082,40.3, 0.7, 0.5,0,0,1024,1024,1024,1024,40.7,-89.9,97,4.011,4.006,4.029,4.018,4.043,4.035,18.445,84.2,14,Waypoint,
37.3812216,-119.5382779,5143.6924615142,62.992128,0,0.36942914568,12100,2018-06-12 22:12:23,12,0,24.149,5143.6924615142,62.992128,0.223694,0.55509516212,0,0,-0.671082,40.2, 0.7, 0.1,0,0,1024,1024,1024,1024,40.7,-89.9,97,4.011,4.006,4.029,4.018,4.043,4.035,18.445,84.2,14,Waypoint,
37.3812216,-119.5382778,5144.6767135142,63.97638,0,0.36600066788,12200,2018-06-12 22:12:24,12,0,24.149,5144.6767135142,63.97638,0.223694,0.55509516212,0,0,-0.671082,40, 0.8, 0,0,0,1024,1024,1024,1024,40.7,-89.9,97,4.011,4.006,4.029,4.018,4.043,4.035,18.445,84.2,14,Waypoint,
37.3812216,-119.5382776,5146.6452175142,65.944884,0,0.36600066788,12400,2018-06-12 22:12:24,12,0,24.149,5146.6452175142,65.944884,0.223694,0.55509516212,0,0,-0.671082,39.7, 0.9, -0.4,0,0,1024,1024,1024,1024,40.7,-89.9,97,4.011,4.006,4.029,4.018,4.043,4.035,18.445,84.2,14,Waypoint,
37.3812217,-119.5382775,5147.6294695142,66.929136,0,0.33344489256,12500,2018-06-12 22:12:24,12,0,24.149,5147.6294695142,66.929136,0.223694,0.55509516212,0,0,-0.671082,39.6, 1.1, -0.3,0,0,1024,1024,1024,1024,40.7,-89.9,97,4.011,4.006,4.029,4.018,4.043,4.035,18.445,84.2,14,Waypoint,
37.3812217,-119.5382775,5148.6137215142,67.913388,0,0.33344489256,12600,2018-06-12 22:12:24,12,0,24.149,5148.6137215142,67.913388,0.223694,0.55509516212,0,0,-0.671082,39.7, 1.2, 0,0,0,1024,1024,1024,1024,40.7,-89.9,97,4.011,4.006,4.029,4.018,4.043,4.035,18.445,84.2,14,Waypoint,
37.3812219,-119.5382774,5149.5979735142,68.89764,0,0.269797908896,12700,2018-06-12 22:12:24,12,0,24.149,5149.5979735142,68.89764,0.223694,0.55509516212,0,0,-0.671082,39.8, 1.4, 0.2,0,0,1024,1024,1024,1024,40.7,-89.9,97,4.011,4.006,4.029,4.018,4.043,4.035,18.445,84.2,14,Waypoint,
37.381222,-119.5382773,5150.5822255142,69.881892,0,0.247728682468,12800,2018-06-12 22:12:24,12,0,24.149,5150.5822255142,69.881892,0.223694,0.55509516212,0,0,-0.671082,40, 1.5, 0.4,0,0,1024,1024,1024,1024,40.7,-89.9,97,4.011,4.006,4.029,4.018,4.043,4.035,18.445,84.2,14,Waypoint,
37.381222,-119.5382772,5151.5664775142,70.866144,0,0.262552829924,12900,2018-06-12 22:12:24,13,0,24.149,5151.5664775142,70.866144,0.223694,0.55509516212,0,0,-0.671082,40.1, 1.5, 0.5,0,0,1024,1024,1024,1024,40.7,-89.9,97,4.011,4.006,4.029,4.018,4.043,4.035,18.445,84.2,14,Waypoint,
37.381222,-119.5382772,5152.5507295142,71.850396,0,0.262552829924,13000,2018-06-12 22:12:24,13,0,24.143,5152.5507295142,71.850396,0.223694,0.55509516212,0,0,-0.671082,40.2, 1.4, 0.3,0,0,1024,1024,1024,1024,40.7,-89.9,97,4.011,4.006,4.029,4.018,4.043,4.035,18.264,84.2,14,Waypoint,
37.381222,-119.5382771,5153.5349815142,72.834648,0,0.279605980076,13100,2018-06-12 22:12:24,12,0,24.143,5153.5349815142,72.834648,0.223694,0.55509516212,0,0,-0.671082,40.2, 1.3, 0,0,0,1024,1024,1024,1024,40.7,-89.9,97,4.011,4.006,4.029,4.018,4.043,4.035,18.264,84.2,14,Waypoint,
37.3812221,-119.5382769,5154.5192335142,73.8189,0,0.295077765348,13200,2018-06-12 22:12:25,12,0,24.143,5154.5192335142,73.8189,0.223694,0.55509516212,0,0,-0.671082,40.2, 1.2, -0.1,0,0,1024,1024,1024,1024,40.7,-89.9,97,4.011,4.006,4.029,4.018,4.043,4.035,18.264,84.2,14,Waypoint,
37.3812221,-119.5382769,5155.5034855142,74.803152,0,0.295077765348,13300,2018-06-12 22:12:25,12,0,24.143,5155.5034855142,74.803152,0.223694,0.55509516212,0,0,-0.671082,40.3, 1.2, -0.2,0,0,1024,1024,1024,1024,40.7,-89.9,97,4.011,4.006,4.029,4.018,4.043,4.035,18.264,84.2,14,Waypoint,
37.3812221,-119.5382769,5156.1596535142,75.45932,0,0.295077765348,13400,2018-06-12 22:12:25,12,0,24.143,5156.1596535142,75.45932,0.223694,0.55509516212,0,0,-0.671082,40.3, 1.1, -0.2,0,0,1024,1024,1024,1024,40.7,-89.9,97,4.011,4.006,4.029,4.018,4.043,4.035,18.264,84.2,14,Waypoint,
37.3812221,-119.5382769,5157.1439055142,76.443572,0,0.295077765348,13500,2018-06-12 22:12:25,12,0,24.143,5157.1439055142,76.443572,0.223694,0.55509516212,0,0,-0.671082,40.3, 1, 0,0,0,1024,1024,1024,1024,40.7,-89.9,97,4.011,4.006,4.029,4.018,4.043,4.035,18.264,84.2,14,Waypoint,
37.3812224,-119.538277,5159.1124095142,78.412076,0,0.215660111888,13700,2018-06-12 22:12:25,12,0,24.143,5159.1124095142,78.412076,0.223694,0.55509516212,0,0,-0.671082,40.4, 1.3, 0.3,0,0,1024,1024,1024,1024,40.7,-89.9,97,4.011,4.006,4.029,4.018,4.043,4.035,18.264,84.2,14,Waypoint,
37.3812226,-119.538277,5160.0966615142,79.396328,0,0.202939967124,13800,2018-06-12 22:12:25,12,0,24.143,5160.0966615142,79.396328,0.223694,0.55509516212,0,0,-0.671082,40.5, 1.6, 0.4,0,0,1024,1024,1024,1024,40.7,-89.9,97,4.011,4.006,4.029,4.018,4.043,4.035,18.264,84.2,14,Waypoint,
37.3812226,-119.5382769,5161.0809135142,80.38058,0,0.231931437868,13900,2018-06-12 22:12:25,12,0,24.143,5161.0809135142,80.38058,0.223694,0.55509516212,0,0,-0.671082,40.6, 1.9, 0.6,0,0,1024,1024,1024,1024,40.7,-89.9,97,4.011,4.006,4.029,4.018,4.043,4.035,18.264,84.2,14,Waypoint,
37.3812225,-119.5382769,5162.0651655142,81.364832,0,0.23478347208,14000,2018-06-12 22:12:25,12,0,24.143,5162.0651655142,81.364832,0.223694,0.55509516212,0,0,-0.671082,40.5, 2, 0.6,0,0,1024,1024,1024,1024,40.7,-89.9,97,4.015,4.008,4.029,4.021,4.042,4.025,18.264,84.2,14,Waypoint,
37.3812226,-119.5382768,5163.0494175142,82.349084,0,0.260922908612,14100,2018-06-12 22:12:25,12,0,24.143,5163.0494175142,82.349084,0.223694,0.55509516212,0,0,-0.671082,40.5, 2, 0.5,0,0,1024,1024,1024,1024,40.7,-89.9,97,4.015,4.008,4.029,4.021,4.042,4.025,18.264,84.2,14,Waypoint,
37.3812227,-119.5382767,5164.0336695142,83.333336,0,0.292201124836,14200,2018-06-12 22:12:26,12,0,24.143,5164.0336695142,83.333336,0.223694,0.55509516212,0,0,-0.671082,40.4, 2, 0.5,0,0,1024,1024,1024,1024,40.7,-89.9,97,4.015,4.008,4.029,4.021,4.042,4.025,18.264,84.2,14,Waypoint,
37.3812227,-119.5382767,5165.0179215142,84.317588,0,0.292201124836,14300,2018-06-12 22:12:26,12,0,24.143,5165.0179215142,84.317588,0.223694,0.55509516212,0,0,-0.671082,40.4, 2, 0.4,0,0,1024,1024,1024,1024,40.7,-89.9,97,4.015,4.008,4.029,4.021,4.042,4.025,18.264,84.2,14,Waypoint,
37.3812226,-119.5382768,5166.0021735142,85.30184,0,0.260922908612,14400,2018-06-12 22:12:26,12,0,24.143,5166.0021735142,85.30184,0.223694,0.55509516212,0,0,-0.671082,40.3, 1.7, 0.2,0,0,1024,1024,1024,1024,40.7,-89.9,97,4.015,4.008,4.029,4.021,4.042,4.025,18.264,84.2,14,Waypoint,
37.3812226,-119.5382768,5167.3145095142,86.614176,0,0.260922908612,14500,2018-06-12 22:12:26,12,0,24.143,5167.3145095142,86.614176,0.223694,0.55509516212,0,0,-0.671082,40.2, 1.4, 0,0,0,1024,1024,1024,1024,40.7,-89.9,97,4.015,4.008,4.029,4.021,4.042,4.025,18.264,84.2,14,Waypoint,
37.3812226,-119.5382768,5168.2987615142,87.598428,0,0.260922908612,14600,2018-06-12 22:12:26,12,0,24.143,5168.2987615142,87.598428,0.223694,0.55509516212,0,0,-0.671082,40.1, 1.1, -0.1,0,0,1024,1024,1024,1024,40.7,-90,97,4.015,4.008,4.029,4.021,4.042,4.025,18.264,84.2,14,Waypoint,
37.3812226,-119.5382767,5170.2672655142,89.566932,0,0.289914379356,14700,2018-06-12 22:12:26,13,0,24.143,5170.2672655142,89.566932,0.223694,0.55509516212,0,0,-0.671082,39.9, 0.7, -0.2,0,0,1024,1024,1024,1024,40.7,-90,97,4.015,4.008,4.029,4.021,4.042,4.025,18.264,84.2,14,Waypoint,
37.3812225,-119.5382768,5171.2515175142,90.551184,0,0.26346129452,14800,2018-06-12 22:12:26,13,0,24.143,5171.2515175142,90.551184,0.223694,0.55509516212,0,0,-0.671082,39.9, 0.7, 0,0,0,1024,1024,1024,1024,40.7,-90,97,4.015,4.008,4.029,4.021,4.042,4.025,18.264,84.2,14,Waypoint,
37.3812224,-119.5382769,5173.2200215142,92.519688,0,0.243139443476,15100,2018-06-12 22:12:26,13,0,24.143,5173.2200215142,92.519688,0.223694,0.55509516212,0,0,-0.671082,39.9, 0.6, 0.3,0,0,1024,1024,1024,1024,40.7,-90,97,4.015,4.008,4.029,4.021,4.042,4.025,18.264,84.2,14,Waypoint,
37.3812224,-119.5382769,5174.2042735142,93.50394,0,0.243139443476,15200,2018-06-12 22:12:27,13,0,24.143,5174.2042735142,93.50394,0.223694,0.55509516212,0,0,-0.671082,39.9, 0.6, 0.3,0,0,1024,1024,1024,1024,40.7,-90,97,4.015,4.008,4.029,4.021,4.042,4.025,18.264,84.2,14,Waypoint,
37.3812224,-119.5382769,5175.1885255142,94.488192,0,0.243139443476,15300,2018-06-12 22:12:27,13,0,24.143,5175.1885255142,94.488192,0.223694,0.55509516212,0,0,-0.671082,40, 0.8, 0.3,0,0,1024,1024,1024,1024,40.7,-90,97,4.015,4.008,4.029,4.021,4.042,4.025,18.264,84.2,14,Waypoint,
37.3812224,-119.538277,5176.1727775142,95.472444,0,0.215660111888,15400,2018-06-12 22:12:27,13,0,24.143,5176.1727775142,95.472444,0.223694,0.55509516212,0,0,-0.671082,40, 0.7, 0.4,0,0,1024,1024,1024,1024,40.7,-90,97,4.015,4.008,4.029,4.021,4.042,4.025,18.264,84.2,14,Waypoint,
37.3812223,-119.538277,5177.1570295142,96.456696,0,0.230575466696,15510,2018-06-12 22:12:27,13,0,24.143,5177.1570295142,96.456696,0.223694,0.55509516212,0,0,-0.671082,40, 0.5, 0.3,0,0,1024,1024,1024,1024,40.7,-90,97,4.015,4.008,4.029,4.021,4.042,4.025,18.264,84.2,14,Waypoint,
37.3812223,-119.538277,5178.1412815142,97.440948,0,0.230575466696,15600,2018-06-12 22:12:27,13,0,24.143,5178.1412815142,97.440948,0.223694,0.55509516212,0,0,-0.671082,40.1, 0.4, 0.2,0,0,1024,1024,1024,1024,40.7,-90,97,4.015,4.008,4.029,4.021,4.042,4.025,18.264,84.2,14,Waypoint,
37.3812222,-119.5382769,5179.1255335142,98.4252,0,0.274026583572,15700,2018-06-12 22:12:27,13,0,24.143,5179.1255335142,98.4252,0.223694,0.55509516212,0,0,-0.671082,40.2, 0.5, 0.1,0,0,1024,1024,1024,1024,40.7,-90,97,4.015,4.008,4.029,4.021,4.042,4.025,18.264,84.2,14,Waypoint,
37.3812222,-119.5382769,5180.1097855142,99.409452,0,0.274026583572,15800,2018-06-12 22:12:27,13,0,24.143,5180.1097855142,99.409452,0.223694,0.55509516212,0,0,-0.671082,40.2, 0.4, 0,0,0,1024,1024,1024,1024,40.7,-90,97,4.015,4.008,4.029,4.021,4.042,4.025,18.264,84.2,14,Waypoint,
37.3812222,-119.5382769,5180.7659535142,100.06562,0,0.274026583572,15900,2018-06-12 22:12:27,13,0,24.143,5180.7659535142,100.06562,0.223694,0.55509516212,0,0,-0.671082,40.2, 0.5, 0,0,0,1024,1024,1024,1024,40.7,-89.9,97,4.015,4.008,4.029,4.021,4.042,4.025,18.264,84.2,14,Waypoint,
37.3812222,-119.5382769,5181.7502055142,101.049872,0,0.274026583572,16000,2018-06-12 22:12:27,13,0,24.065,5181.7502055142,101.049872,0.223694,0.55509516212,0,0,-0.671082,40.2, 0.8, 0.2,0,0,1024,1024,1024,1024,40.7,-89.9,97,4.003,3.991,4.009,4.008,4.021,4.027,18.986,84.2,14,Waypoint,
37.3812222,-119.538277,5182.7344575142,102.034124,0,0.249966215348,16100,2018-06-12 22:12:27,13,0,24.065,5182.7344575142,102.034124,0.223694,0.55509516212,0,0,-0.671082,40.1, 0.9, 0.3,0,0,1024,1024,1024,1024,40.7,-89.9,97,4.003,3.991,4.009,4.008,4.021,4.027,18.986,84.2,14,Waypoint,
37.3812221,-119.5382771,5183.7187095142,103.018376,0,0.25206529678,16200,2018-06-12 22:12:28,13,0,24.065,5183.7187095142,103.018376,0.223694,0.55509516212,0,0,-0.671082,40.1, 0.8, 0.3,0,0,1024,1024,1024,1024,40.7,-89.9,97,4.003,3.991,4.009,4.008,4.021,4.027,18.986,84.2,14,Waypoint,
37.3812221,-119.5382771,5184.7029615142,104.002628,0,0.25206529678,16300,2018-06-12 22:12:28,13,0,24.065,5184.7029615142,104.002628,0.223694,0.55509516212,0,0,-0.671082,40.1, 0.7, 0.3,0,0,1024,1024,1024,1024,40.7,-90,97,4.003,3.991,4.009,4.008,4.021,4.027,18.986,84.2,14,Waypoint,
37.381222,-119.5382771,5186.0152975142,105.314964,0,0.279605980076,16400,2018-06-12 22:12:28,13,0,24.065,5186.0152975142,105.314964,0.223694,0.55509516212,0,0,-0.671082,40.1, 0.7, 0.2,0,0,1024,1024,1024,1024,40.7,-90,97,4.003,3.991,4.009,4.008,4.021,4.027,18.986,84.2,14,Waypoint,
37.381222,-119.5382771,5186.9995495142,106.299216,0,0.279605980076,16500,2018-06-12 22:12:28,13,0,24.065,5186.9995495142,106.299216,0.223694,0.55509516212,0,0,-0.671082,40, 0.6, 0,0,0,1024,1024,1024,1024,40.7,-90,97,4.003,3.991,4.009,4.008,4.021,4.027,18.986,84.2,14,Waypoint,
37.381222,-119.5382771,5187.9838015142,107.283468,0,0.279605980076,16600,2018-06-12 22:12:28,13,0,24.065,5187.9838015142,107.283468,0.223694,0.55509516212,0,0,-0.671082,40, 0.5, 0,0,0,1024,1024,1024,1024,40.7,-90,97,4.003,3.991,4.009,4.008,4.021,4.027,18.986,84.2,14,Waypoint,
37.3812219,-119.5382771,5188.6399695142,107.939636,0,0.309005587316,16700,2018-06-12 22:12:28,13,0,24.065,5188.6399695142,107.939636,0.223694,0.55509516212,0,0,-0.671082,40, 0.4, 0,0,0,1024,1024,1024,1024,40.7,-90,97,4.003,3.991,4.009,4.008,4.021,4.027,18.986,84.2,14,Waypoint,
37.3812219,-119.5382771,5189.6242215142,108.923888,0,0.309005587316,16800,2018-06-12 22:12:28,13,0,24.065,5189.6242215142,108.923888,0.223694,0.55509516212,0,0,-0.671082,39.9, 0.2, -0.1,0,0,1024,1024,1024,1024,40.7,-90,97,4.003,3.991,4.009,4.008,4.021,4.027,18.986,84.2,14,Waypoint,
37.3812218,-119.5382771,5190.6084735142,109.90814,0,0.33978347544,16900,2018-06-12 22:12:28,13,0,24.065,5190.6084735142,109.90814,0.223694,0.55509516212,0,0,-0.671082,40, 0.2, -0.3,0,0,1024,1024,1024,1024,40.7,-90,97,4.003,3.991,4.009,4.008,4.021,4.027,18.986,84.2,14,Waypoint,
37.3812217,-119.5382771,5191.5927255142,110.892392,0,0.37159450008,17000,2018-06-12 22:12:28,13,0,24.096,5191.5927255142,110.892392,0.223694,0.55509516212,0,0,-0.671082,40, 0.2, -0.5,0,0,1024,1024,1024,1024,40.7,-90,97,4.013,4,4.011,4.008,4.035,4.027,17.954,84.2,14,Waypoint,
37.3812215,-119.538277,5193.5612295142,112.860896,0,0.44972770468,17200,2018-06-12 22:12:29,13,0,24.096,5193.5612295142,112.860896,0.223694,0.55509516212,0,0,-0.671082,40.2, 0.1, -0.9,0,0,1024,1024,1024,1024,40.7,-90,97,4.013,4,4.011,4.008,4.035,4.027,17.954,84.2,14,Waypoint,
37.3812215,-119.538277,5194.5454815142,113.845148,0,0.44972770468,17300,2018-06-12 22:12:29,13,0,24.096,5194.5454815142,113.845148,0.223694,0.55509516212,0,0,-0.671082,40.3, 0.2, -0.9,0,0,1024,1024,1024,1024,40.7,-90,97,4.013,4,4.011,4.008,4.035,4.027,17.954,84.2,14,Waypoint,
37.3812216,-119.5382772,5197.4982375142,116.797904,0,0.39259187608,17500,2018-06-12 22:12:29,14,0,24.096,5197.4982375142,116.797904,0.223694,0.55509516212,0,0,-0.671082,40.5, 0.4, 0,0,0,1024,1024,1024,1024,40.7,-89.9,97,4.013,4,4.011,4.008,4.035,4.027,17.954,84.2,14,Waypoint,
37.3812216,-119.5382772,5198.4824895142,117.782156,0,0.39259187608,17700,2018-06-12 22:12:29,14,0,24.096,5198.4824895142,117.782156,0.223694,0.55509516212,0,0,-0.671082,40.5, 0.6, 0.3,0,0,1024,1024,1024,1024,40.7,-89.9,97,4.013,4,4.011,4.008,4.035,4.027,17.954,84.2,14,Waypoint,
37.3812216,-119.5382772,5199.4667415142,118.766408,0,0.39259187608,17800,2018-06-12 22:12:29,14,0,24.096,5199.4667415142,118.766408,0.223694,0.55509516212,0,0,-0.671082,40.5, 0.8, 0.3,0,0,1024,1024,1024,1024,40.7,-89.9,97,4.013,4,4.011,4.008,4.035,4.027,17.954,84.2,14,Waypoint,
37.3812217,-119.5382772,5200.4509935142,119.75066,0,0.35893701936,17900,2018-06-12 22:12:29,14,0,24.096,5200.4509935142,119.75066,0.223694,0.55509516212,0,0,-0.671082,40.5, 1, 0.3,0,0,1024,1024,1024,1024,40.7,-89.9,97,4.013,4,4.011,4.008,4.035,4.027,17.954,84.2,14,Waypoint,
37.3812217,-119.5382772,5201.4352455142,120.734912,0,0.35893701936,18000,2018-06-12 22:12:29,14,0,24.084,5201.4352455142,120.734912,0.223694,0.55509516212,0,0,-0.671082,40.5, 1.1, 0.2,0,0,1024,1024,1024,1024,40.7,-89.9,96,4.003,4.005,4.012,4.008,4.025,4.018,18.127,86,14,Waypoint,
37.3812218,-119.5382772,5202.4194975142,121.719164,0,0.325893055048,18100,2018-06-12 22:12:29,14,0,24.084,5202.4194975142,121.719164,0.223694,0.55509516212,0,0,-0.671082,40.4, 1.3, 0.4,0,0,1024,1024,1024,1024,40.7,-89.9,96,4.003,4.005,4.012,4.008,4.025,4.018,18.127,86,14,Waypoint,
37.3812218,-119.5382772,5203.4037495142,122.703416,0,0.325893055048,18200,2018-06-12 22:12:30,14,0,24.084,5203.4037495142,122.703416,0.223694,0.55509516212,0,0,-0.671082,40.3, 1.5, 0.4,0,0,1024,1024,1024,1024,40.7,-89.9,96,4.003,4.005,4.012,4.008,4.025,4.018,18.127,86,14,Waypoint,
37.3812219,-119.5382773,5204.3880015142,123.687668,0,0.280489510288,18300,2018-06-12 22:12:30,14,0,24.084,5204.3880015142,123.687668,0.223694,0.55509516212,0,0,-0.671082,40.1, 1.3, 0.3,0,0,1024,1024,1024,1024,40.7,-89.9,96,4.003,4.005,4.012,4.008,4.025,4.018,18.127,86,14,Waypoint,
37.3812219,-119.5382773,5205.3722535142,124.67192,0,0.280489510288,18400,2018-06-12 22:12:30,14,0,24.084,5205.3722535142,124.67192,0.223694,0.55509516212,0,0,-0.671082,40, 1.1, 0.4,0,0,1024,1024,1024,1024,40.7,-89.9,96,4.003,4.005,4.012,4.008,4.025,4.018,18.127,86,14,Waypoint,
37.381222,-119.5382773,5206.3565055142,125.656172,0,0.247728682468,18500,2018-06-12 22:12:30,14,0,24.084,5206.3565055142,125.656172,0.223694,0.55509516212,0,0,-0.671082,40, 1, 0.5,0,0,1024,1024,1024,1024,40.7,-89.9,96,4.003,4.005,4.012,4.008,4.025,4.018,18.127,86,14,Waypoint,
37.381222,-119.5382773,5207.3407575142,126.640424,0,0.247728682468,18600,2018-06-12 22:12:30,14,0,24.084,5207.3407575142,126.640424,0.223694,0.55509516212,0,0,-0.671082,39.9, 1.1, 0.5,0,0,1024,1024,1024,1024,40.7,-89.9,96,4.003,4.005,4.012,4.008,4.025,4.018,18.127,86,14,Waypoint,
37.381222,-119.5382773,5208.3250095142,127.624676,0,0.247728682468,18700,2018-06-12 22:12:30,14,0,24.084,5208.3250095142,127.624676,0.223694,0.55509516212,0,0,-0.671082,39.9, 1.2, 0.3,0,0,1024,1024,1024,1024,40.7,-89.9,96,4.003,4.005,4.012,4.008,4.025,4.018,18.127,86,14,Waypoint,
37.381222,-119.5382773,5209.3092615142,128.608928,0,0.247728682468,18800,2018-06-12 22:12:30,14,0,24.084,5209.3092615142,128.608928,0.223694,0.55509516212,0,0,-0.671082,39.9, 1.2, 0.3,0,0,1024,1024,1024,1024,40.7,-89.9,96,4.003,4.005,4.012,4.008,4.025,4.018,18.127,86,14,Waypoint,
37.3812221,-119.5382773,5210.2935135142,129.59318,0,0.216164048912,18900,2018-06-12 22:12:30,14,0,24.084,5210.2935135142,129.59318,0.223694,0.55509516212,0,0,-0.671082,40, 1.2, 0.3,0,0,1024,1024,1024,1024,40.7,-89.9,96,4.003,4.005,4.012,4.008,4.025,4.018,18.127,86,14,Waypoint,
37.3812221,-119.5382774,5211.2777655142,130.577432,0,0.202097119328,19000,2018-06-12 22:12:30,14,0,24.062,5211.2777655142,130.577432,0.223694,0.55509516212,0,0,-0.671082,40.1, 1.1, 0.4,0,0,1024,1024,1024,1024,40.7,-89.9,96,4.003,4.005,4.012,4.008,4.025,4.018,17.922,86,14,Waypoint,
37.3812221,-119.5382774,5212.2620175142,131.561684,0,0.202097119328,19100,2018-06-12 22:12:30,14,0,24.062,5212.2620175142,131.561684,0.223694,0.55509516212,0,0,-0.671082,40.2, 1.1, 0.4,0,0,1024,1024,1024,1024,40.7,-89.9,96,4.003,4.005,4.012,4.008,4.025,4.018,17.922,86,14,Waypoint,
37.3812221,-119.5382774,5213.2462695142,132.545936,0,0.202097119328,19200,2018-06-12 22:12:31,14,0,24.062,5213.2462695142,132.545936,0.223694,0.55509516212,0,0,-0.671082,40.3, 1.1, 0.4,0,0,1024,1024,1024,1024,40.7,-89.9,96,4.003,4.005,4.012,4.008,4.025,4.018,17.922,86,14,Waypoint,
37.3812222,-119.5382774,5214.2305215142,133.530188,0,0.169891081552,19300,2018-06-12 22:12:31,14,0,24.062,5214.2305215142,133.530188,0.223694,0.55509516212,0,0,-0.671082,40.3, 1, 0.5,0,0,1024,1024,1024,1024,40.7,-89.9,96,4.003,4.005,4.012,4.008,4.025,4.018,17.922,86,14,Waypoint,
37.3812222,-119.5382775,5216.1990255142,135.498692,0,0.157036422348,19500,2018-06-12 22:12:31,14,0,24.062,5216.1990255142,135.498692,0.223694,0.55509516212,0,0,-0.671082,40.2, 0.8, 0.6,0,0,1024,1024,1024,1024,40.7,-89.9,96,4.003,4.005,4.012,4.008,4.025,4.018,17.922,86,14,Waypoint,
37.3812223,-119.5382774,5217.1832775142,136.482944,0,0.13980315408,19700,2018-06-12 22:12:31,14,0,24.062,5217.1832775142,136.482944,0.223694,0.55509516212,0,0,-0.671082,40.1, 1, 0.8,0,0,1024,1024,1024,1024,40.7,-89.9,96,4.003,4.005,4.012,4.008,4.025,4.018,17.922,86,14,Waypoint,
37.3812223,-119.5382774,5219.1517815142,138.451448,0,0.13980315408,19810,2018-06-12 22:12:31,14,0,24.062,5219.1517815142,138.451448,0.223694,0.55509516212,0,0,-0.671082,40, 1.3, 0.7,0,0,1024,1024,1024,1024,40.7,-89.9,96,4.003,4.005,4.012,4.008,4.025,4.018,17.922,86,14,Waypoint,
37.3812223,-119.5382774,5220.1360335142,139.4357,0,0.13980315408,19900,2018-06-12 22:12:31,14,0,24.062,5220.1360335142,139.4357,0.223694,0.55509516212,0,0,-0.671082,39.9, 1.4, 0.4,0,0,1024,1024,1024,1024,40.7,-89.9,96,4.003,4.005,4.012,4.008,4.025,4.018,17.922,86,14,Waypoint,
37.3812223,-119.5382773,5221.7764535142,141.07612,0,0.159462931612,20100,2018-06-12 22:12:31,14,0,24.062,5221.7764535142,141.07612,0.223694,0.55509516212,0,0,-0.671082,39.9, 1.2, 0,0,0,1024,1024,1024,1024,40.7,-89.9,96,4.003,4.005,4.012,4.008,4.025,4.018,17.922,86,14,Waypoint,
37.3812223,-119.5382773,5223.0887895142,142.388456,0,0.159462931612,20200,2018-06-12 22:12:32,14,0,24.062,5223.0887895142,142.388456,0.223694,0.55509516212,0,0,-0.671082,40.1, 1.2, 0,0,0,1024,1024,1024,1024,40.7,-89.9,96,4.003,4.005,4.012,4.008,4.025,4.018,17.922,86,14,Waypoint,
37.3812223,-119.5382773,5224.0730415142,143.372708,0,0.159462931612,20300,2018-06-12 22:12:32,14,0,24.062,5224.0730415142,143.372708,0.223694,0.55509516212,0,0,-0.671082,40.2, 1.1, 0,0,0,1024,1024,1024,1024,40.7,-89.9,96,4.003,4.005,4.012,4.008,4.025,4.018,17.922,86,14,Waypoint,
37.3812223,-119.5382772,5225.0572935142,144.35696,0,0.181639441508,20400,2018-06-12 22:12:32,14,0,24.062,5225.0572935142,144.35696,0.223694,0.55509516212,0,0,-0.671082,40.3, 1.2, 0,0,0,1024,1024,1024,1024,40.7,-89.9,96,4.003,4.005,4.012,4.008,4.025,4.018,17.922,86,14,Waypoint,
37.3812224,-119.5382772,5226.0415455142,145.341212,0,0.162287406768,20500,2018-06-12 22:12:32,14,0,24.062,5226.0415455142,145.341212,0.223694,0.55509516212,0,0,-0.671082,40.3, 1.3, 0,0,0,1024,1024,1024,1024,40.7,-89.9,96,4.003,4.005,4.012,4.008,4.025,4.018,17.922,86,14,Waypoint,
37.3812224,-119.5382772,5227.0257975142,146.325464,0,0.162287406768,20600,2018-06-12 22:12:32,14,0,24.062,5227.0257975142,146.325464,0.223694,0.55509516212,0,0,-0.671082,40.3, 1.6, 0.3,0,0,1024,1024,1024,1024,40.7,-89.9,96,4.003,4.005,4.012,4.008,4.025,4.018,17.922,86,14,Waypoint,
37.3812224,-119.5382772,5228.0100495142,147.309716,0,0.162287406768,20700,2018-06-12 22:12:32,14,0,24.062,5228.0100495142,147.309716,0.223694,0.55509516212,0,0,-0.671082,40.2, 1.8, 0.7,0,0,1024,1024,1024,1024,40.7,-89.9,96,4.003,4.005,4.012,4.008,4.025,4.018,17.922,86,14,Waypoint,
37.3812224,-119.5382772,5228.9943015142,148.293968,0,0.162287406768,20800,2018-06-12 22:12:32,14,0,24.062,5228.9943015142,148.293968,0.223694,0.55509516212,0,0,-0.671082,40, 1.7, 0.7,0,0,1024,1024,1024,1024,40.7,-89.9,96,4.003,4.005,4.012,4.008,4.025,4.018,17.922,86,14,Waypoint,
37.3812225,-119.5382772,5229.9785535142,149.27822,0,0.149478023156,20900,2018-06-12 22:12:32,14,0,24.062,5229.9785535142,149.27822,0.223694,0.55509516212,0,0,-0.671082,39.9, 1.7, 0.6,0,0,1024,1024,1024,1024,40.7,-89.9,96,4.003,4.005,4.012,4.008,4.025,4.018,17.922,86,14,Waypoint,
37.3812225,-119.5382772,5230.9628055142,150.262472,0,0.149478023156,21000,2018-06-12 22:12:32,14,0,24.01,5230.9628055142,150.262472,0.223694,0.55509516212,0,0,-0.671082,39.8, 1.6, 0.5,0,0,1024,1024,1024,1024,40.7,-89.9,96,3.987,3.977,4.005,4.001,4.026,4.009,18.392,86,14,Waypoint,
37.3812225,-119.5382771,5231.9470575142,151.246724,0,0.177733601488,21100,2018-06-12 22:12:32,14,0,24.01,5231.9470575142,151.246724,0.223694,0.55509516212,0,0,-0.671082,39.6, 1.5, 0.4,0,0,1024,1024,1024,1024,40.7,-89.9,96,3.987,3.977,4.005,4.001,4.026,4.009,18.392,86,14,Waypoint,
37.3812224,-119.5382771,5232.9313095142,152.230976,0,0.188633864304,21200,2018-06-12 22:12:33,14,0,24.01,5232.9313095142,152.230976,0.223694,0.55509516212,0,0,-0.671082,39.6, 1.7, 0.2,0,0,1024,1024,1024,1024,40.7,-89.9,96,3.987,3.977,4.005,4.001,4.026,4.009,18.392,86,14,Waypoint,
37.3812224,-119.538277,5233.9155615142,153.215228,0,0.215660111888,21300,2018-06-12 22:12:33,14,0,24.01,5233.9155615142,153.215228,0.223694,0.55509516212,0,0,-0.671082,39.6, 1.9, 0.1,0,0,1024,1024,1024,1024,40.7,-89.9,96,3.987,3.977,4.005,4.001,4.026,4.009,18.392,86,14,Waypoint,
37.3812224,-119.538277,5234.8998135142,154.19948,0,0.215660111888,21400,2018-06-12 22:12:33,14,0,24.01,5234.8998135142,154.19948,0.223694,0.55509516212,0,0,-0.671082,39.7, 1.9, 0,0,0,1024,1024,1024,1024,40.7,-89.9,96,3.987,3.977,4.005,4.001,4.026,4.009,18.392,86,14,Waypoint,
37.3812224,-119.5382769,5235.8840655142,155.183732,0,0.243139443476,21500,2018-06-12 22:12:33,14,0,24.01,5235.8840655142,155.183732,0.223694,0.55509516212,0,0,-0.671082,39.9, 2, 0,0,0,1024,1024,1024,1024,40.7,-89.9,96,3.987,3.977,4.005,4.001,4.026,4.009,18.392,86,14,Waypoint,
37.3812224,-119.5382769,5236.8683175142,156.167984,0,0.243139443476,21600,2018-06-12 22:12:33,14,0,24.01,5236.8683175142,156.167984,0.223694,0.55509516212,0,0,-0.671082,40.1, 2, -0.2,0,0,1024,1024,1024,1024,40.7,-89.9,96,3.987,3.977,4.005,4.001,4.026,4.009,18.392,86,14,Waypoint,
37.3812224,-119.5382768,5237.8525695142,157.152236,0,0.270934063788,21700,2018-06-12 22:12:33,14,0,24.01,5237.8525695142,157.152236,0.223694,0.55509516212,0,0,-0.671082,40.2, 1.7, -0.4,0,0,1024,1024,1024,1024,40.7,-89.9,96,3.987,3.977,4.005,4.001,4.026,4.009,18.392,86,14,Waypoint,
37.3812223,-119.5382768,5238.8368215142,158.136488,0,0.282950796456,21800,2018-06-12 22:12:33,14,0,24.01,5238.8368215142,158.136488,0.223694,0.55509516212,0,0,-0.671082,40.3, 1.6, -0.4,0,0,1024,1024,1024,1024,40.7,-89.9,96,3.987,3.977,4.005,4.001,4.026,4.009,18.392,86,14,Waypoint,
37.3812223,-119.5382767,5239.8210735142,159.12074,0,0.309888133276,21900,2018-06-12 22:12:33,15,0,24.01,5239.8210735142,159.12074,0.223694,0.55509516212,0,0,-0.671082,40.2, 1.4, -0.6,0,0,1024,1024,1024,1024,40.7,-89.9,96,3.987,3.977,4.005,4.001,4.026,4.009,18.392,86,14,Waypoint,
37.3812223,-119.5382767,5240.8053255142,160.104992,0,0.309888133276,22000,2018-06-12 22:12:33,15,0,24.025,5240.8053255142,160.104992,0.223694,0.55509516212,0,0,-0.671082,40.1, 1.3, -0.5,0,0,1024,1024,1024,1024,40.7,-89.9,96,3.995,3.984,4.005,4.002,4.016,4,18.091,86,14,Waypoint,
37.3812222,-119.5382767,5242.7738295142,162.073496,0,0.324574813536,22200,2018-06-12 22:12:34,14,0,24.025,5242.7738295142,162.073496,0.223694,0.55509516212,0,0,-0.671082,40.1, 1.4, -0.4,0,0,1024,1024,1024,1024,40.7,-89.9,96,3.995,3.984,4.005,4.002,4.016,4,18.091,86,14,Waypoint,
37.3812222,-119.5382767,5243.7580815142,163.057748,0,0.324574813536,22300,2018-06-12 22:12:34,15,0,24.025,5243.7580815142,163.057748,0.223694,0.55509516212,0,0,-0.671082,40.1, 1.4, -0.3,0,0,1024,1024,1024,1024,40.7,-89.9,96,3.995,3.984,4.005,4.002,4.016,4,18.091,86,14,Waypoint,
37.3812223,-119.5382766,5245.7265855142,165.026252,0,0.33716536512,22500,2018-06-12 22:12:34,15,0,24.025,5245.7265855142,165.026252,0.223694,0.55509516212,0,0,-0.671082,40.1, 1.7, -0.1,0,0,1024,1024,1024,1024,40.7,-89.9,96,3.995,3.984,4.005,4.002,4.016,4,18.091,86,14,Waypoint,
37.3812223,-119.5382766,5246.7108375142,166.010504,0,0.33716536512,22600,2018-06-12 22:12:34,15,0,24.025,5246.7108375142,166.010504,0.223694,0.55509516212,0,0,-0.671082,40.1, 2, 0,0,0,1024,1024,1024,1024,40.7,-89.9,96,3.995,3.984,4.005,4.002,4.016,4,18.091,86,14,Waypoint,
37.3812224,-119.5382766,5247.6950895142,166.994756,0,0.32714732018,22700,2018-06-12 22:12:34,15,0,24.025,5247.6950895142,166.994756,0.223694,0.55509516212,0,0,-0.671082,40.2, 2, 0,0,0,1024,1024,1024,1024,40.7,-89.9,96,3.995,3.984,4.005,4.002,4.016,4,18.091,86,14,Waypoint,
37.3812224,-119.5382765,5248.6793415142,167.979008,0,0.35546589064,22800,2018-06-12 22:12:34,15,0,24.025,5248.6793415142,167.979008,0.223694,0.55509516212,0,0,-0.671082,40.3, 2.1, 0.1,0,0,1024,1024,1024,1024,40.7,-89.9,96,3.995,3.984,4.005,4.002,4.016,4,18.091,86,14,Waypoint,
37.3812225,-119.5382765,5249.6635935142,168.96326,0,0.34980644164,22900,2018-06-12 22:12:34,15,0,24.025,5249.6635935142,168.96326,0.223694,0.55509516212,0,0,-0.671082,40.4, 2.2, 0.1,0,0,1024,1024,1024,1024,40.7,-89.9,96,3.995,3.984,4.005,4.002,4.016,4,18.091,86,14,Waypoint,
37.3812225,-119.5382764,5250.6478455142,169.947512,0,0.37865158692,23000,2018-06-12 22:12:34,15,0,23.978,5250.6478455142,169.947512,0.223694,0.55509516212,0,0,-0.671082,40.5, 2.4, 0.1,0,0,1024,1024,1024,1024,40.7,-89.9,96,3.99,3.979,3.993,3.997,4.009,3.999,18.357,86,14,Waypoint,
37.3812226,-119.5382764,5251.6320975142,170.931764,0,0.37688977584,23100,2018-06-12 22:12:34,15,0,23.978,5251.6320975142,170.931764,0.223694,0.55509516212,0,0,-0.671082,40.5, 2.4, 0.2,0,0,1024,1024,1024,1024,40.7,-89.9,96,3.99,3.979,3.993,3.997,4.009,3.999,18.357,86,14,Waypoint,
37.3812226,-119.5382763,5252.6163495142,171.916016,0,0.40587927808,23200,2018-06-12 22:12:35,15,0,23.978,5252.6163495142,171.916016,0.223694,0.55509516212,0,0,-0.671082,40.6, 2.6, 0.1,0,0,1024,1024,1024,1024,40.7,-89.9,96,3.99,3.979,3.993,3.997,4.009,3.999,18.357,86,14,Waypoint,
37.3812226,-119.5382763,5253.6006015142,172.900268,0,0.40587927808,23300,2018-06-12 22:12:35,15,0,23.978,5253.6006015142,172.900268,0.223694,0.55509516212,0,0,-0.671082,40.6, 2.9, 0,0,0,1024,1024,1024,1024,40.7,-89.9,96,3.99,3.979,3.993,3.997,4.009,3.999,18.357,86,14,Waypoint,
37.3812227,-119.5382763,5254.5848535142,173.88452,0,0.40751641724,23400,2018-06-12 22:12:35,15,0,23.978,5254.5848535142,173.88452,0.223694,0.55509516212,0,0,-0.671082,40.5, 3, 0,0,0,1024,1024,1024,1024,40.7,-89.9,96,3.99,3.979,3.993,3.997,4.009,3.999,18.357,86,14,Waypoint,
37.3812227,-119.5382763,5255.5691055142,174.868772,0,0.40751641724,23500,2018-06-12 22:12:35,15,0,23.978,5255.5691055142,174.868772,0.223694,0.55509516212,0,0,-0.671082,40.5, 2.9, 0,0,0,1024,1024,1024,1024,40.7,-89.9,96,3.99,3.979,3.993,3.997,4.009,3.999,18.357,86,14,Waypoint,
37.3812227,-119.5382763,5256.5533575142,175.853024,0,0.40751641724,23600,2018-06-12 22:12:35,15,0,23.978,5256.5533575142,175.853024,0.223694,0.55509516212,0,0,-0.671082,40.5, 2.7, 0.1,0,0,1024,1024,1024,1024,40.7,-89.9,96,3.99,3.979,3.993,3.997,4.009,3.999,18.357,86,14,Waypoint,
37.3812228,-119.5382763,5257.5376095142,176.837276,0,0.41238846464,23700,2018-06-12 22:12:35,15,0,23.978,5257.5376095142,176.837276,0.223694,0.55509516212,0,0,-0.671082,40.4, 2.5, 0.3,0,0,1024,1024,1024,1024,40.7,-89.9,96,3.99,3.979,3.993,3.997,4.009,3.999,18.357,86,14,Waypoint,
37.3812228,-119.5382763,5258.5218615142,177.821528,0,0.41238846464,23800,2018-06-12 22:12:35,15,0,23.978,5258.5218615142,177.821528,0.223694,0.55509516212,0,0,-0.671082,40.3, 2.4, 0.4,0,0,1024,1024,1024,1024,40.7,-89.9,96,3.99,3.979,3.993,3.997,4.009,3.999,18.357,86,14,Waypoint,
37.3812228,-119.5382763,5259.5061135142,178.80578,0,0.41238846464,23900,2018-06-12 22:12:35,15,0,23.978,5259.5061135142,178.80578,0.223694,0.55509516212,0,0,-0.671082,40.2, 2.4, 0.4,0,0,1024,1024,1024,1024,40.7,-89.9,96,3.99,3.979,3.993,3.997,4.009,3.999,18.357,86,14,Waypoint,
37.3812228,-119.5382763,5261.4746175142,180.774284,0,0.41238846464,24100,2018-06-12 22:12:35,15,0,23.978,5261.4746175142,180.774284,0.223694,0.55509516212,0,0,-0.671082,40.1, 2.1, 0.5,0,0,1024,1024,1024,1024,40.7,-90,96,3.99,3.979,3.993,3.997,4.009,3.999,18.357,86,14,Waypoint,
37.3812228,-119.5382764,5262.4588695142,181.758536,0,0.38388780756,24200,2018-06-12 22:12:36,15,0,23.978,5262.4588695142,181.758536,0.223694,0.55509516212,0,0,-0.671082,40, 1.9, 0.6,0,0,1024,1024,1024,1024,40.7,-90,96,3.99,3.979,3.993,3.997,4.009,3.999,18.357,86,14,Waypoint,
37.3812229,-119.5382764,5263.4431215142,182.742788,0,0.39246064248,24300,2018-06-12 22:12:36,15,0,23.978,5263.4431215142,182.742788,0.223694,0.55509516212,0,0,-0.671082,40, 1.9, 0.7,0,0,1024,1024,1024,1024,40.7,-89.9,96,3.99,3.979,3.993,3.997,4.009,3.999,18.357,86,14,Waypoint,
37.3812229,-119.5382765,5264.4273735142,183.72704,0,0.36470801692,24500,2018-06-12 22:12:36,15,0,23.978,5264.4273735142,183.72704,0.223694,0.55509516212,0,0,-0.671082,40, 1.9, 0.8,0,0,1024,1024,1024,1024,40.7,-90,96,3.99,3.979,3.993,3.997,4.009,3.999,18.357,86,14,Waypoint,
37.3812229,-119.5382765,5265.4116255142,184.711292,0,0.36470801692,24600,2018-06-12 22:12:36,15,0,23.978,5265.4116255142,184.711292,0.223694,0.55509516212,0,0,-0.671082,40.1, 1.7, 0.9,0,0,1024,1024,1024,1024,40.7,-90,96,3.99,3.979,3.993,3.997,4.009,3.999,18.357,86,14,Waypoint,
37.3812228,-119.5382767,5267.3801295142,186.679796,0,0.298956374396,24700,2018-06-12 22:12:36,15,0,23.978,5267.3801295142,186.679796,0.223694,0.55509516212,0,0,-0.671082,40.2, 1.2, 0.9,0,0,1024,1024,1024,1024,40.7,-90,96,3.99,3.979,3.993,3.997,4.009,3.999,18.357,86,14,Waypoint,
37.3812228,-119.5382767,5268.3643815142,187.664048,0,0.298956374396,24800,2018-06-12 22:12:36,15,0,23.978,5268.3643815142,187.664048,0.223694,0.55509516212,0,0,-0.671082,40.4, 1, 0.9,0,0,1024,1024,1024,1024,40.7,-90,96,3.99,3.979,3.993,3.997,4.009,3.999,18.357,86,14,Waypoint,
37.3812228,-119.5382768,5269.3486335142,188.6483,0,0.270934063788,24900,2018-06-12 22:12:36,15,0,23.978,5269.3486335142,188.6483,0.223694,0.55509516212,0,0,-0.671082,40.4, 0.9, 1,0,0,1024,1024,1024,1024,40.7,-90,96,3.99,3.979,3.993,3.997,4.009,3.999,18.357,86,14,Waypoint,
37.3812228,-119.5382769,5270.3328855142,189.632552,0,0.243139443476,25000,2018-06-12 22:12:36,15,0,23.964,5270.3328855142,189.632552,0.223694,0.55509516212,0,0,-0.671082,40.4, 0.9, 1.1,0,0,1024,1024,1024,1024,40.7,-90,96,3.987,3.978,3.993,3.993,4.006,3.998,18.35,86,14,Waypoint,
37.3812227,-119.5382769,5271.3171375142,190.616804,0,0.23478347208,25100,2018-06-12 22:12:36,15,0,23.964,5271.3171375142,190.616804,0.223694,0.55509516212,0,0,-0.671082,40.4, 1.1, 1.1,0,0,1024,1024,1024,1024,40.7,-90,96,3.987,3.978,3.993,3.993,4.006,3.998,18.35,86,14,Waypoint,
37.3812227,-119.538277,5272.3013895142,191.601056,0,0.206193576152,25200,2018-06-12 22:12:37,15,0,23.964,5272.3013895142,191.601056,0.223694,0.55509516212,0,0,-0.671082,40.3, 1.1, 1,0,0,1024,1024,1024,1024,40.7,-90,96,3.987,3.978,3.993,3.993,4.006,3.998,18.35,86,14,Waypoint,
37.3812227,-119.5382771,5272.9575575142,192.257224,0,0.177733601488,25300,2018-06-12 22:12:37,15,0,23.964,5272.9575575142,192.257224,0.223694,0.55509516212,0,0,-0.671082,40.3, 1.2, 0.8,0,0,1024,1024,1024,1024,40.7,-90,96,3.987,3.978,3.993,3.993,4.006,3.998,18.35,86,14,Waypoint,
37.3812226,-119.5382771,5273.9418095142,193.241476,0,0.17394849638,25400,2018-06-12 22:12:37,15,0,23.964,5273.9418095142,193.241476,0.223694,0.55509516212,0,0,-0.671082,40.2, 1.1, 0.7,0,0,1024,1024,1024,1024,40.7,-90,96,3.987,3.978,3.993,3.993,4.006,3.998,18.35,86,14,Waypoint,
37.3812226,-119.5382772,5274.9260615142,194.225728,0,0.144957025636,25500,2018-06-12 22:12:37,15,0,23.964,5274.9260615142,194.225728,0.223694,0.55509516212,0,0,-0.671082,40.2, 0.9, 0.7,0,0,1024,1024,1024,1024,40.7,-90,96,3.987,3.978,3.993,3.993,4.006,3.998,18.35,86,14,Waypoint,
37.3812225,-119.5382773,5276.8945655142,196.194232,0,0.12156988578,25700,2018-06-12 22:12:37,15,0,23.964,5276.8945655142,196.194232,0.223694,0.55509516212,0,0,-0.671082,40.2, 0.3, 0.7,0,0,1024,1024,1024,1024,40.7,-90,96,3.987,3.978,3.993,3.993,4.006,3.998,18.35,86,14,Waypoint,
37.3812225,-119.5382773,5277.8788175142,197.178484,0,0.12156988578,25800,2018-06-12 22:12:37,15,0,23.964,5277.8788175142,197.178484,0.223694,0.55509516212,0,0,-0.671082,40.2, 0.4, 0.7,0,0,1024,1024,1024,1024,40.7,-90,96,3.987,3.978,3.993,3.993,4.006,3.998,18.35,86,14,Waypoint,
37.3812225,-119.5382774,5279.8473215142,199.146988,0,0.094316932152,26000,2018-06-12 22:12:37,15,0,23.972,5279.8473215142,199.146988,0.223694,0.55509516212,0,0,-0.671082,40.4, 0.6, 0.7,0,0,1024,1024,1024,1024,40.7,-89.9,96,3.99,3.984,3.992,3.996,4.014,4,17.817,86,14,Waypoint,
37.3812225,-119.5382774,5280.8315735142,200.13124,0,0.094316932152,26100,2018-06-12 22:12:37,15,0,23.972,5280.8315735142,200.13124,0.223694,0.55509516212,0,0,-0.671082,40.5, 0.7, 0.8,0,0,1024,1024,1024,1024,40.7,-89.9,96,3.99,3.984,3.992,3.996,4.014,4,17.817,86,14,Waypoint,
37.3812225,-119.5382775,5282.1439095142,201.443576,0,0.068506563872,26200,2018-06-12 22:12:38,15,0,23.972,5282.1439095142,201.443576,0.223694,0.55509516212,0,0,-0.671082,40.5, 0.9, 0.9,0,0,1024,1024,1024,1024,40.7,-89.9,96,3.99,3.984,3.992,3.996,4.014,4,17.817,86,14,Waypoint,
