Latitude, Longitude, Altitude (m), Time, Sats, Speed (m/s), Range (m), Battery (%), Roll (deg), Pitch (deg), Yaw (deg), Images, HD Signal (%), RC Signal (%), Battery Temp (C), Battery Voltage (mV), Battery Current (mA), Battery Energy (mAh), Battery Capacity (mAh), Battery Discharges, flyState, timestamp (Unix), LastUpdate (ms), radioChannel, Rc_elevator, Rc_aileron, Rc_throttle, Rc_rudder, Rc_gyro, Dronetype, Battery_Cell1 (mV), Battery_Cell2 (mV), Battery_Cell3 (mV), Battery_Cell4 (mV), Battery_Cell5 (mV), Battery_Cell6 (mV), Video, isFlying, elapsedTime (ms), gimbalPitch (deg), gimbalRoll (deg), gimbalYaw (deg), VelocityX (m/s), VelocityY (m/s), VelocityZ (m/s), GroundSmear (cm), App Version, Aircraft Name, Aircraft Firmware, Aircraft Serial Number, Battery Serial Number, Battery Lifetime (%), App_Tip, App_Warning, CurrentFlightStartingIndex, CurrentFlightLastVisitedWaypoint, PreviousFlightEndingWaypointIndex
38.1754106, -120.0595228, 0.000, 13:35:24.374, 12, 0.00, 0.08, 98, -0.200, 0.900, 68.200, 597, 100, 100, 22, 25355, -2908, 5381, 5491, 11, 11, 1526157324.374, 115, 0, 1024, 1024, 1024, 1024, 0, 6, 4251, 4275, 4222, 4263, 4260, 4195, 0, 1, 3105, -89.900, 0.000, 68.700, 0.000, 0.000, -0.100, 0.0, MapPilot_2.8.1_04242018, Dendroctonus I, 1.3.1.00, 041DDC1887, 1058171200161, 98, DJI_0603.jpg, Starting Mission from Lat/Long: 38.17541/-120.05952 Camera: Zenmuse X3 - Overlap: 90/90 - Active Connection: No, 21, 21, 21
38.1754105, -120.0595230, 0.000, 13:35:24.469, 12, 0.00, 0.09, 98, 0.000, 0.300, 68.300, 597, 100, 100, 22, 25355, -2908, 5381, 5491, 11, 11, 1526157324.470, 54, 0, 1024, 1024, 1024, 1024, 0, 6, 4251, 4275, 4222, 4263, 4260, 4195, 0, 1, 3201, -89.900, 0.000, 68.700, 0.000, 0.000, -0.300, 0.0, , , , , , 98, , , 21, 21, 21
38.1754104, -120.0595230, 0.000, 13:35:24.569, 12, 0.00, 0.10, 98, 0.000, -0.200, 68.300, 597, 100, 100, 22, 25355, -2908, 5381, 5491, 11, 11, 1526157324.570, 33, 0, 1024, 1024, 1024, 1024, 0, 6, 4251, 4275, 4222, 4263, 4260, 4195, 0, 1, 3301, -90.000, 0.000, 68.700, 0.000, 0.000, -0.300, 0.0, , , , , , 98, , , 21, 21, 21
38.1754104, -120.0595231, 0.100, 13:35:24.670, 11, 0.00, 0.10, 98, 0.000, -0.600, 68.400, 597, 100, 100, 22, 25355, -2908, 5381, 5491, 11, 11, 1526157324.670, 38, 0, 1024, 1024, 1024, 1024, 0, 6, 4251, 4275, 4222, 4263, 4260, 4195, 0, 1, 3401, -90.000, 0.000, 68.700, 0.000, 0.000, -0.300, 0.0, , , , , , 98, , , 21, 21, 21
38.1754103, -120.0595231, 0.100, 13:35:24.770, 11, 0.00, 0.11, 98, -0.100, -0.300, 68.400, 597, 100, 100, 22, 25437, -3927, 5381, 5491, 11, 11, 1526157324.770, 28, 0, 1024, 1024, 1024, 1024, 0, 6, 4245, 4228, 4206, 4217, 4210, 4204, 0, 1, 3501, -89.900, 0.000, 68.700, 0.000, 0.000, -0.300, 0.0, , , , , , 98, , , 21, 21, 21
38.1754103, -120.0595231, 0.100, 13:35:24.870, 11, 0.00, 0.11, 98, -0.200, 0.000, 68.400, 597, 100, 100, 22, 25437, -3927, 5381, 5491, 11, 11, 1526157324.870, 20, 0, 1024, 1024, 1024, 1024, 0, 6, 4245, 4228, 4206, 4217, 4210, 4204, 0, 1, 3601, -89.900, 0.000, 68.700, 0.000, 0.000, -0.300, 0.0, , , , , , 98, , , 21, 21, 21
38.1754102, -120.0595231, 0.200, 13:35:24.970, 11, 0.00, 0.11, 98, -0.300, -0.100, 68.500, 597, 100, 100, 22, 25437, -3927, 5381, 5491, 11, 11, 1526157324.970, 21, 0, 1024, 1024, 1024, 1024, 0, 6, 4245, 4228, 4206, 4217, 4210, 4204, 0, 1, 3701, -90.000, 0.000, 68.700, 0.000, 0.000, -0.400, 0.0, , , , , , 98, , , 21, 21, 21
38.1754101, -120.0595230, 0.300, 13:35:25.070, 11, 0.00, 0.10, 98, -0.700, -0.200, 68.100, 597, 100, 100, 22, 25437, -3927, 5381, 5491, 11, 11, 1526157325.070, 12, 0, 1024, 1024, 1024, 1024, 0, 6, 4245, 4228, 4206, 4217, 4210, 4204, 0, 1, 3801, -89.900, 0.000, 68.700, 0.000, 0.000, -0.400, 0.0, , , , , , 98, , , 21, 21, 21
38.1754100, -120.0595230, 0.300, 13:35:25.175, 10, 0.00, 0.10, 98, -0.700, -0.200, 68.000, 597, 100, 100, 22, 25437, -3927, 5381, 5491, 11, 11, 1526157325.176, 5, 0, 1024, 1024, 1024, 1024, 0, 6, 4245, 4228, 4206, 4217, 4210, 4204, 0, 1, 3906, -89.900, 0.000, 68.700, 0.000, 0.000, -0.400, 0.0, , , , , , 98, , , 21, 21, 21
38.1754101, -120.0595230, 0.400, 13:35:25.270, 10, 0.00, 0.10, 98, -0.600, -0.200, 68.000, 597, 100, 100, 22, 25437, -3927, 5381, 5491, 11, 11, 1526157325.270, 23, 0, 1024, 1024, 1024, 1024, 0, 6, 4245, 4228, 4206, 4217, 4210, 4204, 0, 1, 4001, -89.900, 0.000, 68.700, 0.000, 0.000, -0.500, 0.0, , , , , , 98, , , 21, 21, 21
38.1754101, -120.0595229, 0.400, 13:35:25.370, 11, 0.00, 0.10, 98, -0.600, 0.000, 68.200, 597, 100, 100, 22, 25437, -3927, 5381, 5491, 11, 11, 1526157325.370, 28, 0, 1024, 1024, 1024, 1024, 0, 6, 4245, 4228, 4206, 4217, 4210, 4204, 0, 1, 4101, -89.900, 0.000, 68.700, 0.000, 0.000, -0.500, 0.0, , , , , , 98, , , 21, 21, 21
38.1754101, -120.0595229, 0.400, 13:35:25.470, 11, 0.00, 0.10, 98, -0.600, 0.000, 68.200, 597, 100, 100, 22, 25437, -3927, 5381, 5491, 11, 11, 1526157325.470, 128, 0, 1024, 1024, 1024, 1024, 0, 6, 4245, 4228, 4206, 4217, 4210, 4204, 0, 1, 4201, -89.900, 0.000, 68.700, 0.000, 0.000, -0.500, 0.0, , , , , , 98, , , 21, 21, 21
38.1754101, -120.0595229, 0.500, 13:35:25.570, 11, 0.00, 0.10, 98, -0.500, 0.200, 68.400, 597, 100, 100, 22, 25437, -3927, 5381, 5491, 11, 11, 1526157325.570, 93, 0, 1024, 1024, 1024, 1024, 0, 6, 4245, 4228, 4206, 4217, 4210, 4204, 0, 1, 4301, -89.900, 0.000, 68.700, 0.000, 0.000, -0.500, 0.0, , , , , , 98, , , 21, 21, 21
38.1754101, -120.0595229, 0.600, 13:35:25.670, 12, 0.00, 0.10, 98, -0.500, 0.300, 68.700, 597, 100, 100, 22, 25437, -3927, 5381, 5491, 11, 11, 1526157325.671, 83, 0, 1024, 1024, 1024, 1024, 0, 6, 4245, 4228, 4206, 4217, 4210, 4204, 0, 1, 4402, -89.900, 0.000, 68.700, 0.000, 0.000, -0.500, 0.0, , , , , , 98, , , 21, 21, 21
38.1754101, -120.0595228, 0.600, 13:35:25.770, 12, 0.00, 0.09, 98, -0.700, 0.300, 68.900, 597, 100, 100, 22, 25437, -3927, 5381, 5491, 11, 11, 1526157325.771, 91, 0, 1024, 1024, 1024, 1024, 0, 6, 4245, 4228, 4206, 4217, 4210, 4204, 0, 1, 4501, -89.900, 0.000, 68.700, 0.000, 0.000, -0.500, 0.0, , , , , , 98, , , 21, 21, 21
38.1754101, -120.0595227, 0.700, 13:35:25.870, 12, 0.00, 0.08, 98, -0.600, 0.400, 69.000, 597, 100, 100, 22, 24243, -15296, 5381, 5491, 11, 11, 1526157325.871, 96, 0, 1024, 1024, 1024, 1024, 0, 6, 4044, 4048, 4011, 4060, 4033, 4030, 0, 1, 4602, -89.900, 0.000, 68.700, 0.000, 0.000, -0.500, 0.0, , , , , , 98, , , 21, 21, 21
38.1754102, -120.0595227, 0.700, 13:35:25.970, 12, 0.10, 0.07, 98, -0.600, 0.600, 68.900, 597, 100, 100, 22, 24243, -15296, 5381, 5491, 11, 11, 1526157325.971, 91, 0, 1024, 1024, 1024, 1024, 0, 6, 4044, 4048, 4011, 4060, 4033, 4030, 0, 1, 4701, -89.900, 0.000, 68.700, 0.000, 0.100, -0.400, 0.0, , , , , , 98, , , 21, 21, 21
38.1754103, -120.0595226, 0.800, 13:35:26.070, 12, 0.10, 0.06, 98, -0.500, 0.500, 68.700, 597, 100, 100, 22, 24243, -15296, 5381, 5491, 11, 11, 1526157326.071, 94, 0, 1024, 1024, 1024, 1024, 0, 6, 4044, 4048, 4011, 4060, 4033, 4030, 0, 1, 4801, -89.900, 0.000, 68.700, 0.000, 0.100, -0.500, 0.0, , , , , , 98, , , 21, 21, 21
38.1754103, -120.0595224, 0.800, 13:35:26.170, 12, 0.10, 0.05, 98, -0.300, 0.900, 68.400, 597, 100, 100, 22, 24243, -15296, 5381, 5491, 11, 11, 1526157326.171, 81, 0, 1024, 1024, 1024, 1024, 0, 6, 4044, 4048, 4011, 4060, 4033, 4030, 0, 1, 4902, -89.900, 0.000, 68.700, 0.000, 0.100, -0.500, 0.0, , , , , , 98, , , 21, 21, 21
38.1754104, -120.0595223, 0.900, 13:35:26.269, 11, 0.10, 0.03, 98, 0.000, 1.400, 68.100, 597, 100, 100, 22, 24243, -15296, 5381, 5491, 11, 14, 1526157326.270, 67, 0, 1024, 1024, 1024, 1024, 0, 6, 4044, 4048, 4011, 4060, 4033, 4030, 0, 1, 5000, -89.900, 0.000, 68.700, 0.000, 0.100, -0.500, 0.0, , , , , , 98, , , 21, 21, 21
38.1754104, -120.0595221, 1.000, 13:35:26.370, 11, 0.10, 0.01, 98, 0.100, 1.900, 67.900, 597, 100, 100, 22, 24243, -15296, 5381, 5491, 11, 14, 1526157326.370, 74, 0, 1024, 1024, 1024, 1024, 0, 6, 4044, 4048, 4011, 4060, 4033, 4030, 0, 1, 5101, -89.900, 0.000, 68.700, 0.000, 0.100, -0.400, 0.0, , , , , , 98, , , 21, 21, 21
38.1754104, -120.0595219, 1.000, 13:35:26.470, 11, 0.10, 0.00, 98, 0.200, 2.600, 67.600, 597, 100, 100, 22, 24243, -15296, 5381, 5491, 11, 14, 1526157326.471, 53, 0, 1024, 1024, 1024, 1024, 0, 6, 4044, 4048, 4011, 4060, 4033, 4030, 0, 1, 5201, -89.900, 0.000, 68.700, 0.000, 0.100, -0.200, 0.0, , , , , , 98, , , 21, 21, 21
38.1754104, -120.0595217, 1.000, 13:35:26.569, 11, 0.10, 0.02, 98, 0.000, 2.800, 67.600, 597, 100, 100, 22, 24243, -15296, 5381, 5491, 11, 14, 1526157326.570, 50, 0, 1024, 1024, 1024, 1024, 0, 6, 4044, 4048, 4011, 4060, 4033, 4030, 0, 1, 5301, -89.900, 0.000, 68.700, 0.000, 0.100, -0.200, 0.0, , , , , , 98, , , 21, 21, 21
38.1754104, -120.0595215, 1.100, 13:35:26.670, 11, 0.10, 0.04, 98, 0.000, 2.800, 67.700, 597, 100, 100, 22, 24243, -15296, 5381, 5491, 11, 14, 1526157326.670, 44, 0, 1024, 1024, 1024, 1024, 0, 6, 4044, 4048, 4011, 4060, 4033, 4030, 0, 1, 5401, -89.900, 0.000, 68.700, 0.000, 0.100, -0.300, 0.0, , , , , , 98, , , 21, 21, 21
38.1754105, -120.0595214, 1.100, 13:35:26.770, 11, 0.00, 0.05, 98, -0.300, 2.600, 67.900, 597, 100, 100, 22, 24041, -16418, 5381, 5491, 11, 14, 1526157326.771, 63, 0, 1024, 1024, 1024, 1024, 0, 6, 4000, 4013, 3988, 4020, 4011, 4000, 0, 1, 5502, -89.900, 0.000, 68.700, 0.000, 0.000, -0.400, 0.0, , , , , , 98, , , 21, 21, 21
38.1754105, -120.0595213, 1.200, 13:35:26.870, 13, 0.00, 0.05, 98, -0.700, 2.200, 68.100, 597, 100, 100, 22, 24041, -16418, 5381, 5491, 11, 14, 1526157326.870, 55, 0, 1024, 1024, 1024, 1024, 0, 6, 4000, 4013, 3988, 4020, 4011, 4000, 0, 1, 5601, -89.900, 0.000, 68.700, 0.000, 0.000, -0.500, 0.0, , , , , , 98, , , 21, 21, 21
38.1754104, -120.0595212, 1.200, 13:35:26.970, 13, 0.00, 0.06, 98, -1.100, 1.900, 68.400, 597, 100, 100, 22, 24041, -16418, 5381, 5491, 11, 14, 1526157326.970, 58, 0, 1024, 1024, 1024, 1024, 0, 6, 4000, 4013, 3988, 4020, 4011, 4000, 0, 1, 5701, -89.900, 0.000, 68.700, 0.000, 0.000, -0.700, 0.0, , , , , , 98, , , 21, 21, 21
38.1754103, -120.0595212, 1.300, 13:35:27.070, 13, 0.00, 0.07, 98, -1.300, 1.400, 68.600, 597, 100, 100, 22, 24041, -16418, 5381, 5491, 11, 14, 1526157327.071, 28, 0, 1024, 1024, 1024, 1024, 0, 6, 4000, 4013, 3988, 4020, 4011, 4000, 0, 1, 5802, -90.000, 0.000, 68.700, 0.000, 0.000, -0.800, 0.0, , , , , , 98, , , 21, 21, 21
38.1754103, -120.0595211, 1.400, 13:35:27.170, 13, 0.00, 0.07, 98, -1.300, 1.300, 68.900, 597, 100, 100, 22, 24041, -16418, 5381, 5491, 11, 14, 1526157327.171, 36, 0, 1024, 1024, 1024, 1024, 0, 6, 4000, 4013, 3988, 4020, 4011, 4000, 0, 1, 5902, -90.000, 0.000, 68.700, 0.000, 0.000, -1.000, 0.0, , , , , , 98, , , 21, 21, 21
38.1754103, -120.0595211, 1.500, 13:35:27.270, 12, 0.00, 0.07, 98, -1.100, 1.400, 69.100, 597, 100, 100, 22, 24041, -16418, 5381, 5491, 11, 14, 1526157327.272, 50, 0, 1024, 1024, 1024, 1024, 0, 6, 4000, 4013, 3988, 4020, 4011, 4000, 0, 1, 6003, -89.900, 0.000, 68.700, 0.000, 0.000, -1.300, 0.0, , , , , , 98, , , 21, 21, 21
38.1754103, -120.0595209, 1.700, 13:35:27.370, 12, 0.00, 0.09, 98, -0.700, 1.700, 69.100, 597, 100, 100, 22, 24041, -16418, 5381, 5491, 11, 14, 1526157327.370, 35, 0, 1024, 1024, 1024, 1024, 0, 6, 4000, 4013, 3988, 4020, 4011, 4000, 0, 1, 6101, -89.900, 0.000, 68.700, 0.000, 0.000, -1.600, 0.0, , , , , , 98, , , 21, 21, 21
38.1754104, -120.0595208, 1.900, 13:35:27.471, 11, 0.00, 0.10, 98, -0.500, 2.000, 69.000, 597, 100, 100, 22, 24041, -16418, 5381, 5491, 11, 14, 1526157327.471, 6, 0, 1024, 1024, 1024, 1024, 0, 6, 4000, 4013, 3988, 4020, 4011, 4000, 0, 1, 6202, -89.900, 0.000, 68.700, 0.000, 0.000, -1.800, 0.0, , , , , , 98, , , 21, 21, 21
38.1754105, -120.0595207, 2.100, 13:35:27.570, 11, 0.00, 0.10, 98, -0.300, 2.100, 68.800, 597, 100, 100, 22, 24041, -16418, 5381, 5491, 11, 14, 1526157327.571, 96, 0, 1024, 1024, 1024, 1024, 0, 6, 4000, 4013, 3988, 4020, 4011, 4000, 0, 1, 6301, -89.900, 0.000, 68.700, 0.000, 0.000, -2.000, 0.0, , , , , , 98, , , 21, 21, 21
38.1754106, -120.0595207, 2.300, 13:35:27.684, 13, 0.00, 0.11, 98, 0.000, 2.000, 68.700, 597, 100, 100, 22, 24041, -16418, 5381, 5491, 11, 14, 1526157327.685, 7, 0, 1024, 1024, 1024, 1024, 0, 6, 4000, 4013, 3988, 4020, 4011, 4000, 0, 1, 6415, -89.900, 0.000, 68.700, 0.000, 0.000, -2.200, 0.0, , , , , , 98, , , 21, 21, 21
38.1754107, -120.0595207, 2.500, 13:35:27.769, 13, 0.00, 0.11, 98, 0.000, 2.000, 68.700, 597, 100, 100, 22, 24041, -16418, 5381, 5491, 11, 14, 1526157327.771, 83, 0, 1024, 1024, 1024, 1024, 0, 6, 4000, 4013, 3988, 4020, 4011, 4000, 0, 1, 6502, -89.900, 0.000, 68.700, 0.000, 0.000, -2.500, 0.0, , , , , , 98, , , 21, 21, 21
38.1754107, -120.0595207, 2.800, 13:35:27.870, 12, 0.00, 0.11, 98, -0.400, 2.000, 68.700, 597, 100, 100, 22, 24022, -20806, 5381, 5491, 11, 14, 1526157327.871, 93, 0, 1024, 1024, 1024, 1024, 0, 6, 3912, 3907, 4071, 3992, 3987, 3976, 0, 1, 6602, -89.900, 0.000, 68.700, 0.000, 0.000, -2.600, 0.0, , , , , , 98, , , 21, 21, 21
38.1754108, -120.0595207, 3.100, 13:35:27.971, 12, 0.00, 0.11, 98, -0.800, 1.900, 68.600, 597, 100, 100, 22, 24022, -20806, 5381, 5491, 11, 14, 1526157327.971, 96, 0, 1024, 1024, 1024, 1024, 0, 6, 3912, 3907, 4071, 3992, 3987, 3976, 0, 1, 6702, -89.900, 0.000, 68.700, 0.000, 0.000, -2.900, 0.0, , , , , , 98, , , 21, 21, 21
38.1754110, -120.0595209, 3.700, 13:35:28.075, 12, 0.00, 0.11, 98, -0.900, 0.900, 68.500, 597, 100, 100, 22, 24022, -20806, 5381, 5491, 11, 14, 1526157328.076, 5, 0, 1024, 1024, 1024, 1024, 0, 6, 3912, 3907, 4071, 3992, 3987, 3976, 0, 1, 6807, -90.000, 0.000, 68.700, 0.000, 0.000, -3.000, 0.0, , , , , , 98, , , 21, 21, 21
38.1754110, -120.0595209, 3.700, 13:35:28.170, 12, 0.00, 0.11, 98, -0.900, 0.900, 68.500, 597, 100, 100, 22, 24022, -20806, 5381, 5491, 11, 14, 1526157328.171, 101, 0, 1024, 1024, 1024, 1024, 0, 6, 3912, 3907, 4071, 3992, 3987, 3976, 0, 1, 6902, -90.000, 0.000, 68.700, 0.000, 0.000, -3.000, 0.0, , , , , , 98, , , 21, 21, 21
38.1754110, -120.0595209, 4.000, 13:35:28.270, 11, 0.00, 0.11, 98, -0.800, 0.700, 68.500, 597, 100, 100, 22, 24022, -20806, 5381, 5491, 11, 14, 1526157328.271, 75, 0, 1024, 1024, 1024, 1024, 0, 6, 3912, 3907, 4071, 3992, 3987, 3976, 0, 1, 7002, -90.000, 0.000, 68.700, 0.000, 0.000, -3.000, 0.0, , , , , , 98, , , 21, 21, 21
38.1754110, -120.0595210, 4.300, 13:35:28.370, 11, 0.00, 0.11, 98, -0.700, 1.000, 68.600, 597, 100, 100, 22, 24022, -20806, 5381, 5491, 11, 14, 1526157328.370, 75, 0, 1024, 1024, 1024, 1024, 0, 6, 3912, 3907, 4071, 3992, 3987, 3976, 0, 1, 7101, -89.900, 0.000, 68.700, 0.000, 0.000, -3.000, 0.0, , , , , , 98, , , 21, 21, 21
38.1754110, -120.0595210, 4.700, 13:35:28.470, 10, 0.00, 0.10, 98, -0.700, 1.300, 68.600, 597, 100, 100, 22, 24022, -20806, 5381, 5491, 11, 14, 1526157328.471, 81, 0, 1024, 1024, 1024, 1024, 0, 6, 3912, 3907, 4071, 3992, 3987, 3976, 0, 1, 7202, -89.900, 0.000, 68.700, 0.000, 0.000, -3.100, 0.0, , , , , , 98, , , 21, 21, 21
38.1754111, -120.0595213, 5.000, 13:35:28.570, 10, 0.00, 0.09, 98, -0.500, 1.400, 68.700, 597, 100, 100, 22, 24022, -20806, 5381, 5491, 11, 14, 1526157328.571, 65, 0, 1024, 1024, 1024, 1024, 0, 6, 3912, 3907, 4071, 3992, 3987, 3976, 0, 1, 7302, -89.900, 0.000, 68.700, 0.000, 0.000, -3.200, 0.0, , , , , , 98, , , 21, 21, 21
38.1754111, -120.0595215, 5.300, 13:35:28.670, 11, 0.00, 0.09, 98, -0.100, 0.900, 68.700, 597, 100, 100, 22, 24022, -20806, 5381, 5491, 11, 14, 1526157328.671, 56, 0, 1024, 1024, 1024, 1024, 0, 6, 3912, 3907, 4071, 3992, 3987, 3976, 0, 1, 7402, -89.900, 0.000, 68.700, 0.000, 0.000, -3.200, 0.0, , , , , , 98, , , 21, 21, 21
38.1754112, -120.0595218, 5.700, 13:35:28.770, 11, 0.00, 0.09, 98, 0.200, 0.500, 68.600, 597, 100, 100, 22, 23344, -22671, 5381, 5491, 11, 14, 1526157328.771, 74, 0, 1024, 1024, 1024, 1024, 0, 6, 3912, 3907, 4071, 3992, 3987, 3976, 0, 1, 7502, -90.000, 0.000, 68.700, 0.000, 0.000, -3.200, 0.0, , , , , , 98, , , 21, 21, 21
38.1754112, -120.0595221, 6.000, 13:35:28.870, 13, 0.00, 0.09, 98, 0.400, 0.200, 68.600, 597, 100, 99, 22, 23344, -22671, 5381, 5491, 11, 14, 1526157328.872, 79, 0, 1024, 1024, 1024, 1024, 0, 6, 3912, 3907, 4071, 3992, 3987, 3976, 0, 1, 7602, -90.000, 0.000, 68.700, 0.000, 0.000, -3.200, 0.0, , , , , , 98, , , 21, 21, 21
38.1754111, -120.0595221, 6.400, 13:35:28.969, 13, 0.00, 0.08, 98, 0.000, 0.000, 68.700, 597, 100, 99, 22, 23344, -22671, 5381, 5491, 11, 14, 1526157328.970, 75, 0, 1024, 1024, 1024, 1024, 0, 6, 3912, 3907, 4071, 3992, 3987, 3976, 0, 1, 7701, -90.000, 0.000, 68.700, 0.000, 0.000, -3.200, 0.0, , , , , , 98, , , 21, 21, 21
38.1754110, -120.0595221, 6.700, 13:35:29.070, 12, 0.00, 0.07, 98, -0.700, 0.200, 68.800, 597, 100, 99, 22, 23344, -22671, 5381, 5491, 11, 14, 1526157329.071, 55, 0, 1024, 1024, 1024, 1024, 0, 6, 3912, 3907, 4071, 3992, 3987, 3976, 0, 1, 7801, -90.000, 0.000, 68.700, 0.000, 0.000, -3.200, 0.0, , , , , , 98, , , 21, 21, 21
38.1754109, -120.0595222, 7.100, 13:35:29.170, 12, 0.00, 0.06, 98, -1.000, 0.500, 69.100, 597, 100, 99, 22, 23344, -22671, 5381, 5491, 11, 14, 1526157329.170, 54, 0, 1024, 1024, 1024, 1024, 0, 6, 3912, 3907, 4071, 3992, 3987, 3976, 0, 1, 7901, -89.900, 0.000, 68.700, 0.000, 0.000, -3.200, 0.0, , , , , , 98, , , 21, 21, 21
38.1754108, -120.0595221, 7.400, 13:35:29.270, 13, 0.00, 0.05, 98, -1.200, 1.100, 69.300, 597, 100, 99, 22, 23344, -22671, 5381, 5491, 11, 14, 1526157329.271, 46, 0, 1024, 1024, 1024, 1024, 0, 6, 3876, 3891, 3885, 3909, 3914, 3900, 0, 1, 8001, -89.900, 0.000, 68.700, 0.000, 0.000, -3.200, 0.0, , , , , , 98, , , 21, 21, 21
38.1754107, -120.0595220, 7.800, 13:35:29.370, 13, 0.00, 0.03, 98, -1.100, 1.100, 69.300, 597, 100, 98, 22, 23344, -22671, 5381, 5491, 11, 14, 1526157329.370, 46, 0, 1024, 1024, 1024, 1024, 0, 6, 3876, 3891, 3885, 3909, 3914, 3900, 0, 1, 8101, -89.900, 0.000, 68.700, 0.000, 0.000, -3.100, 0.0, , , , , , 98, , , 21, 21, 21
38.1754106, -120.0595218, 8.100, 13:35:29.470, 13, 0.00, 0.02, 98, -1.300, 1.100, 69.400, 597, 100, 98, 22, 23344, -22671, 5381, 5491, 11, 14, 1526157329.470, 31, 0, 1024, 1024, 1024, 1024, 0, 6, 3876, 3891, 3885, 3909, 3914, 3900, 0, 1, 8201, -89.900, 0.000, 68.700, 0.000, 0.000, -3.000, 0.0, , , , , , 98, , , 21, 21, 21
38.1754104, -120.0595217, 8.400, 13:35:29.570, 13, 0.00, 0.02, 98, -1.700, 1.300, 69.300, 597, 100, 98, 22, 23344, -22671, 5381, 5491, 11, 14, 1526157329.570, 32, 0, 1024, 1024, 1024, 1024, 0, 6, 3876, 3891, 3885, 3909, 3914, 3900, 0, 1, 8301, -89.900, 0.000, 68.700, 0.000, 0.000, -3.100, 0.0, , , , , , 98, , , 21, 21, 21
38.1754102, -120.0595216, 8.800, 13:35:29.669, 13, 0.00, 0.04, 98, -2.100, 1.300, 69.200, 597, 100, 98, 22, 23344, -22671, 5381, 5491, 11, 14, 1526157329.670, 17, 0, 1024, 1024, 1024, 1024, 0, 6, 3876, 3891, 3885, 3909, 3914, 3900, 0, 1, 8401, -89.900, 0.000, 68.700, 0.000, 0.000, -3.100, 0.0, , , , , , 98, , , 21, 21, 21
38.1754100, -120.0595213, 9.100, 13:35:29.770, 13, 0.00, 0.07, 98, -2.400, 1.400, 69.100, 597, 100, 98, 22, 23344, -22671, 5381, 5491, 11, 14, 1526157329.772, 38, 0, 1024, 1024, 1024, 1024, 0, 6, 3876, 3891, 3885, 3909, 3914, 3900, 0, 1, 8503, -89.900, 0.000, 68.700, 0.000, 0.000, -3.000, 0.0, , , , , , 98, , , 21, 21, 21
38.1754099, -120.0595211, 9.400, 13:35:29.870, 13, 0.00, 0.09, 98, -2.400, 1.400, 69.000, 597, 100, 98, 22, 23344, -22671, 5381, 5491, 11, 14, 1526157329.871, 16, 0, 1024, 1024, 1024, 1024, 0, 6, 3876, 3891, 3885, 3909, 3914, 3900, 0, 1, 8602, -89.900, 0.000, 68.700, 0.000, 0.000, -3.000, 0.0, , , , , , 98, , , 21, 21, 21
38.1754097, -120.0595210, 9.700, 13:35:29.971, 13, 0.00, 0.11, 98, -2.400, 1.400, 69.000, 597, 100, 98, 22, 23344, -22671, 5381, 5491, 11, 14, 1526157329.973, 20, 0, 1024, 1024, 1024, 1024, 0, 6, 3876, 3891, 3885, 3909, 3914, 3900, 0, 1, 8704, -89.900, 0.000, 68.700, 0.000, 0.000, -2.900, 0.0, , , , , , 98, , , 21, 21, 21
38.1754096, -120.0595208, 10.000, 13:35:30.076, 13, 0.00, 0.13, 98, -2.400, 1.400, 68.900, 597, 100, 98, 22, 23344, -22671, 5381, 5491, 11, 14, 1526157330.077, 13, 0, 1024, 1024, 1024, 1024, 0, 6, 3876, 3891, 3885, 3909, 3914, 3900, 0, 1, 8807, -89.900, 0.000, 68.700, 0.000, 0.000, -3.000, 0.0, , , , , , 98, , , 21, 21, 21
38.1754094, -120.0595207, 10.300, 13:35:30.170, 13, 0.00, 0.16, 98, -2.600, 1.400, 68.800, 597, 100, 98, 22, 23344, -22671, 5381, 5491, 11, 14, 1526157330.171, 91, 0, 1024, 1024, 1024, 1024, 0, 6, 3876, 3891, 3885, 3909, 3914, 3900, 0, 1, 8902, -89.900, 0.000, 68.700, 0.000, 0.000, -3.000, 0.0, , , , , , 98, , , 21, 21, 21
38.1754091, -120.0595204, 11.000, 13:35:30.279, 13, 0.00, 0.19, 98, -2.400, 2.000, 68.900, 597, 100, 98, 22, 23543, -19490, 5381, 5491, 11, 14, 1526157330.279, 10, 0, 1024, 1024, 1024, 1024, 0, 6, 3876, 3891, 3885, 3909, 3914, 3900, 0, 1, 9010, -89.900, 0.000, 68.700, 0.000, 0.000, -3.000, 0.0, , , , , , 98, , , 21, 21, 21
38.1754091, -120.0595204, 11.000, 13:35:30.370, 13, 0.00, 0.19, 98, -2.400, 2.000, 68.900, 597, 100, 98, 22, 23543, -19490, 5381, 5491, 11, 14, 1526157330.371, 102, 0, 1024, 1024, 1024, 1024, 0, 6, 3918, 3930, 3911, 3937, 3935, 3930, 0, 1, 9102, -89.900, 0.000, 68.700, 0.000, 0.000, -3.000, 0.0, , , , , , 98, , , 21, 21, 21
38.1754090, -120.0595203, 11.300, 13:35:30.469, 13, 0.00, 0.21, 98, -2.500, 2.000, 69.100, 597, 100, 99, 22, 23543, -19490, 5381, 5491, 11, 14, 1526157330.470, 79, 0, 1024, 1024, 1024, 1024, 0, 6, 3918, 3930, 3911, 3937, 3935, 3930, 0, 1, 9201, -89.900, 0.000, 68.700, 0.000, 0.000, -2.900, 0.0, , , , , , 98, , , 21, 21, 21
38.1754089, -120.0595202, 11.600, 13:35:30.569, 13, 0.00, 0.22, 98, -2.500, 1.900, 69.200, 597, 100, 99, 22, 23543, -19490, 5381, 5491, 11, 14, 1526157330.572, 82, 0, 1024, 1024, 1024, 1024, 0, 6, 3918, 3930, 3911, 3937, 3935, 3930, 0, 1, 9303, -89.900, 0.000, 68.700, 0.000, 0.000, -2.900, 0.0, , , , , , 98, , , 21, 21, 21
38.1754089, -120.0595201, 11.900, 13:35:30.670, 13, 0.00, 0.23, 98, -2.500, 2.000, 69.300, 597, 100, 99, 22, 23543, -19490, 5381, 5491, 11, 14, 1526157330.671, 59, 0, 1024, 1024, 1024, 1024, 0, 6, 3918, 3930, 3911, 3937, 3935, 3930, 0, 1, 9402, -89.900, 0.000, 68.700, 0.000, 0.000, -2.900, 0.0, , , , , , 98, , , 21, 21, 21
38.1754088, -120.0595201, 12.200, 13:35:30.770, 13, 0.00, 0.24, 98, -2.400, 1.800, 69.400, 597, 100, 99, 22, 23543, -19490, 5381, 5491, 11, 14, 1526157330.770, 75, 0, 1024, 1024, 1024, 1024, 0, 6, 3918, 3930, 3911, 3937, 3935, 3930, 0, 1, 9501, -89.900, 0.000, 68.700, 0.000, 0.000, -2.900, 0.0, , , , , , 98, , , 21, 21, 21
38.1754087, -120.0595201, 12.500, 13:35:30.870, 13, 0.00, 0.24, 98, -2.300, 1.400, 69.500, 597, 100, 99, 22, 23543, -19490, 5381, 5491, 11, 14, 1526157330.870, 78, 0, 1024, 1024, 1024, 1024, 0, 6, 3918, 3930, 3911, 3937, 3935, 3930, 0, 1, 9601, -90.000, 0.000, 68.700, 0.000, 0.000, -2.900, 0.0, , , , , , 98, , , 21, 21, 21
38.1754087, -120.0595200, 12.800, 13:35:30.971, 13, 0.00, 0.25, 98, -2.200, 1.000, 69.500, 597, 100, 99, 22, 23543, -19490, 5381, 5491, 11, 14, 1526157330.973, 67, 0, 1024, 1024, 1024, 1024, 0, 6, 3918, 3930, 3911, 3937, 3935, 3930, 0, 1, 9704, -90.000, 0.000, 68.700, 0.000, 0.000, -3.000, 0.0, , , , , , 98, , , 21, 21, 21
38.1754087, -120.0595200, 13.100, 13:35:31.070, 14, 0.00, 0.25, 98, -1.900, 1.000, 69.500, 597, 100, 99, 22, 23543, -19490, 5381, 5491, 11, 14, 1526157331.071, 71, 0, 1024, 1024, 1024, 1024, 0, 6, 3918, 3930, 3911, 3937, 3935, 3930, 0, 1, 9802, -89.900, 0.000, 68.700, 0.000, 0.000, -2.900, 0.0, , , , , , 98, , , 21, 21, 21
38.1754087, -120.0595201, 13.500, 13:35:31.170, 14, 0.00, 0.25, 98, -1.700, 1.300, 69.400, 597, 100, 99, 22, 23543, -19490, 5381, 5491, 11, 14, 1526157331.170, 61, 0, 1024, 1024, 1024, 1024, 0, 6, 3918, 3930, 3911, 3937, 3935, 3930, 0, 1, 9901, -89.900, 0.000, 68.700, 0.000, 0.000, -2.900, 0.0, , , , , , 98, , , 21, 21, 21
38.1754087, -120.0595202, 13.800, 13:35:31.275, 14, 0.00, 0.24, 98, -1.500, 1.200, 69.300, 597, 100, 99, 23, 23489, -19556, 5381, 5491, 11, 14, 1526157331.276, 67, 0, 1024, 1024, 1024, 1024, 0, 6, 3903, 3917, 3903, 3930, 3930, 3918, 0, 1, 10007, -89.900, 0.000, 68.700, 0.000, 0.000, -2.900, 0.0, , , , , , 98, , , 21, 21, 21
38.1754088, -120.0595204, 14.100, 13:35:31.370, 14, 0.10, 0.23, 98, -1.100, 1.000, 69.200, 597, 100, 99, 23, 23489, -19556, 5381, 5491, 11, 14, 1526157331.371, 46, 0, 1024, 1024, 1024, 1024, 0, 6, 3903, 3917, 3903, 3930, 3930, 3918, 0, 1, 10102, -89.900, 0.000, 68.700, 0.000, -0.100, -2.900, 0.0, , , , , , 98, , , 21, 21, 21
38.1754088, -120.0595205, 14.400, 13:35:31.470, 14, 0.10, 0.21, 98, -0.800, 0.800, 69.100, 597, 100, 99, 23, 23489, -19556, 5381, 5491, 11, 14, 1526157331.471, 47, 0, 1024, 1024, 1024, 1024, 0, 6, 3903, 3917, 3903, 3930, 3930, 3918, 0, 1, 10202, -90.000, 0.000, 68.700, 0.000, -0.100, -2.900, 0.0, , , , , , 98, , , 21, 21, 21
38.1754089, -120.0595206, 14.700, 13:35:31.569, 14, 0.14, 0.20, 98, -0.600, 0.400, 69.000, 597, 100, 99, 23, 23489, -19556, 5381, 5491, 11, 14, 1526157331.571, 35, 0, 1024, 1024, 1024, 1024, 0, 6, 3903, 3917, 3903, 3930, 3930, 3918, 0, 1, 10301, -90.000, 0.000, 68.700, 0.100, -0.100, -2.900, 0.0, , , , , , 98, , , 21, 21, 21
38.1754091, -120.0595208, 15.000, 13:35:31.681, 14, 0.14, 0.18, 98, -0.400, 0.300, 68.900, 597, 100, 99, 23, 23489, -19556, 5381, 5491, 11, 14, 1526157331.682, 11, 0, 1024, 1024, 1024, 1024, 0, 6, 3903, 3917, 3903, 3930, 3930, 3918, 0, 1, 10413, -90.000, 0.000, 68.700, 0.100, -0.100, -2.900, 0.0, , , , , , 98, , , 21, 21, 21
38.1754091, -120.0595208, 15.000, 13:35:31.769, 14, 0.14, 0.18, 98, -0.400, 0.300, 68.900, 597, 100, 99, 23, 23489, -19556, 5381, 5491, 11, 14, 1526157331.770, 99, 0, 1024, 1024, 1024, 1024, 0, 6, 3903, 3917, 3903, 3930, 3930, 3918, 0, 1, 10501, -90.000, 0.000, 68.700, 0.100, -0.100, -2.900, 0.0, , , , , , 98, , , 21, 21, 21
38.1754093, -120.0595211, 15.600, 13:35:31.871, 14, 0.14, 0.14, 98, -0.100, 0.300, 68.800, 597, 100, 98, 23, 23489, -19556, 5381, 5491, 11, 14, 1526157331.872, 32, 0, 1024, 1024, 1024, 1024, 0, 6, 3903, 3917, 3903, 3930, 3930, 3918, 0, 1, 10603, -90.000, 0.000, 68.700, 0.100, -0.100, -2.800, 0.0, , , , , , 98, , , 21, 21, 21
38.1754094, -120.0595213, 15.900, 13:35:31.970, 14, 0.14, 0.13, 98, 0.000, 0.300, 68.900, 597, 100, 98, 23, 23489, -19556, 5381, 5491, 11, 14, 1526157331.972, 30, 0, 1024, 1024, 1024, 1024, 0, 6, 3903, 3917, 3903, 3930, 3930, 3918, 0, 1, 10703, -90.000, 0.000, 68.700, 0.100, -0.100, -2.900, 0.0, , , , , , 98, , , 21, 21, 21
38.1754095, -120.0595214, 16.200, 13:35:32.076, 14, 0.10, 0.11, 98, 0.000, 0.100, 69.000, 597, 100, 98, 23, 23489, -19556, 5381, 5491, 11, 14, 1526157332.077, 12, 0, 1024, 1024, 1024, 1024, 0, 6, 3903, 3917, 3903, 3930, 3930, 3918, 0, 1, 10808, -90.000, 0.000, 68.700, 0.000, -0.100, -2.900, 0.0, , , , , , 98, , , 21, 21, 21
38.1754096, -120.0595216, 16.600, 13:35:32.170, 14, 0.10, 0.10, 98, -0.200, -0.100, 69.100, 597, 100, 98, 23, 23489, -19556, 5381, 5491, 11, 14, 1526157332.172, 92, 0, 1024, 1024, 1024, 1024, 0, 6, 3903, 3917, 3903, 3930, 3930, 3918, 0, 1, 10903, -90.000, 0.000, 68.700, 0.000, -0.100, -2.900, 0.0, , , , , , 98, , , 21, 21, 21
38.1754097, -120.0595217, 16.900, 13:35:32.270, 14, 0.10, 0.08, 98, 0.000, 0.000, 69.100, 597, 100, 98, 23, 23489, -19556, 5381, 5491, 11, 14, 1526157332.271, 92, 0, 1024, 1024, 1024, 1024, 0, 6, 3903, 3917, 3903, 3930, 3930, 3918, 0, 1, 11002, -90.000, 0.000, 68.700, 0.000, -0.100, -2.800, 0.0, , , , , , 98, , , 21, 21, 21
38.1754098, -120.0595221, 17.500, 13:35:32.370, 14, 0.10, 0.07, 98, 0.100, -0.200, 69.200, 597, 100, 99, 23, 23434, -19900, 5381, 5491, 11, 14, 1526157332.372, 9, 0, 1024, 1024, 1024, 1024, 0, 6, 3907, 3911, 3883, 3910, 3929, 3892, 0, 1, 11103, -90.000, 0.000, 68.700, 0.000, -0.100, -2.800, 0.0, , , , , , 98, , , 21, 21, 21
38.1754098, -120.0595221, 17.500, 13:35:32.470, 14, 0.10, 0.07, 98, 0.100, -0.200, 69.200, 597, 100, 99, 23, 23434, -19900, 5381, 5491, 11, 14, 1526157332.472, 109, 0, 1024, 1024, 1024, 1024, 0, 6, 3907, 3911, 3883, 3910, 3929, 3892, 0, 1, 11202, -90.000, 0.000, 68.700, 0.000, -0.100, -2.800, 0.0, , , , , , 98, , , 21, 21, 21
38.1754100, -120.0595223, 17.700, 13:35:32.570, 14, 0.14, 0.06, 98, 0.400, -0.300, 69.200, 597, 100, 99, 23, 23434, -19900, 5381, 5491, 11, 14, 1526157332.570, 94, 0, 1024, 1024, 1024, 1024, 0, 6, 3907, 3911, 3883, 3910, 3929, 3892, 0, 1, 11301, -89.900, 0.000, 68.700, 0.100, -0.100, -2.800, 0.0, , , , , , 98, , , 21, 21, 21
38.1754104, -120.0595228, 18.300, 13:35:32.694, 14, 0.10, 0.07, 98, 1.500, -0.400, 69.000, 597, 100, 99, 23, 23434, -19900, 5381, 5491, 11, 14, 1526157332.694, 8, 0, 1024, 1024, 1024, 1024, 0, 6, 3907, 3911, 3883, 3910, 3929, 3892, 0, 1, 11425, -89.900, 0.000, 68.700, 0.100, 0.000, -2.700, 0.0, , , , , , 98, , , 21, 21, 21
38.1754104, -120.0595228, 18.300, 13:35:32.769, 14, 0.10, 0.07, 98, 1.500, -0.400, 69.000, 597, 100, 99, 23, 23434, -19900, 5381, 5491, 11, 14, 1526157332.771, 85, 0, 1024, 1024, 1024, 1024, 0, 6, 3907, 3911, 3883, 3910, 3929, 3892, 0, 1, 11502, -89.900, 0.000, 68.700, 0.100, 0.000, -2.700, 0.0, , , , , , 98, , , 21, 21, 21
38.1754106, -120.0595229, 18.600, 13:35:32.870, 14, 0.10, 0.09, 98, 2.000, -0.300, 68.800, 597, 100, 99, 23, 23434, -19900, 5381, 5491, 11, 14, 1526157332.871, 79, 0, 1024, 1024, 1024, 1024, 0, 6, 3907, 3911, 3883, 3910, 3929, 3892, 0, 1, 11602, -89.900, 0.000, 68.700, 0.100, 0.000, -2.800, 0.0, , , , , , 98, , , 21, 21, 21
38.1754108, -120.0595230, 18.900, 13:35:32.970, 14, 0.10, 0.11, 98, 2.200, -0.300, 68.700, 597, 100, 99, 23, 23434, -19900, 5381, 5491, 11, 14, 1526157332.971, 78, 0, 1024, 1024, 1024, 1024, 0, 6, 3907, 3911, 3883, 3910, 3929, 3892, 0, 1, 11702, -90.000, 0.000, 68.700, 0.100, 0.000, -2.800, 0.0, , , , , , 98, , , 21, 21, 21
38.1754109, -120.0595231, 19.200, 13:35:33.070, 14, 0.10, 0.12, 98, 2.000, -0.100, 68.500, 597, 100, 99, 23, 23434, -19900, 5381, 5491, 11, 14, 1526157333.071, 65, 0, 1024, 1024, 1024, 1024, 0, 6, 3907, 3911, 3883, 3910, 3929, 3892, 0, 1, 11802, -89.900, 0.000, 68.700, 0.100, 0.000, -2.900, 0.0, , , , , , 98, , , 21, 21, 21
38.1754110, -120.0595232, 19.500, 13:35:33.170, 14, 0.00, 0.13, 98, 1.700, 0.200, 68.500, 597, 100, 99, 23, 23434, -19900, 5381, 5491, 11, 14, 1526157333.170, 81, 0, 1024, 1024, 1024, 1024, 0, 6, 3907, 3911, 3883, 3910, 3929, 3892, 0, 1, 11901, -89.900, 0.000, 68.700, 0.000, 0.000, -2.900, 0.0, , , , , , 98, , , 21, 21, 21
38.1754111, -120.0595233, 19.800, 13:35:33.274, 14, 0.00, 0.14, 98, 1.500, 0.500, 68.600, 597, 100, 99, 23, 23421, -19522, 5381, 5491, 11, 14, 1526157333.275, 84, 0, 1024, 1024, 1024, 1024, 0, 6, 3893, 3902, 3875, 3915, 3912, 3887, 0, 1, 12006, -89.900, 0.000, 68.700, 0.000, 0.000, -2.900, 0.0, , , , , , 98, , , 21, 21, 21
38.1754113, -120.0595234, 20.100, 13:35:33.370, 14, 0.00, 0.16, 98, 1.500, 0.700, 68.700, 597, 100, 97, 23, 23421, -19522, 5381, 5491, 11, 14, 1526157333.371, 70, 0, 1024, 1024, 1024, 1024, 0, 6, 3893, 3902, 3875, 3915, 3912, 3887, 0, 1, 12101, -89.900, 0.000, 68.700, 0.000, 0.000, -2.800, 0.0, , , , , , 98, , , 21, 21, 21
38.1754115, -120.0595235, 20.400, 13:35:33.470, 15, 0.00, 0.18, 98, 1.700, 0.900, 68.900, 597, 100, 97, 23, 23421, -19522, 5381, 5491, 11, 14, 1526157333.472, 86, 0, 1024, 1024, 1024, 1024, 0, 6, 3893, 3902, 3875, 3915, 3912, 3887, 0, 1, 12202, -89.900, 0.000, 68.700, 0.000, 0.000, -2.800, 0.0, , , , , , 98, , , 21, 21, 21
38.1754117, -120.0595237, 20.700, 13:35:33.570, 15, 0.00, 0.21, 98, 1.900, 0.900, 69.100, 597, 100, 97, 23, 23421, -19522, 5381, 5491, 11, 14, 1526157333.570, 55, 0, 1024, 1024, 1024, 1024, 0, 6, 3893, 3902, 3875, 3915, 3912, 3887, 0, 1, 12301, -89.900, 0.000, 68.700, 0.000, 0.000, -2.900, 0.0, , , , , , 98, , , 21, 21, 21
38.1754119, -120.0595239, 21.000, 13:35:33.670, 15, 0.00, 0.24, 98, 2.200, 0.600, 69.400, 597, 100, 97, 23, 23421, -19522, 5381, 5491, 11, 14, 1526157333.671, 47, 0, 1024, 1024, 1024, 1024, 0, 6, 3893, 3902, 3875, 3915, 3912, 3887, 0, 1, 12401, -89.900, 0.000, 68.700, 0.000, 0.000, -2.900, 0.0, , , , , , 98, , , 21, 21, 21
38.1754119, -120.0595239, 21.200, 13:35:33.770, 15, 0.00, 0.25, 98, 2.500, 0.300, 69.500, 597, 100, 97, 23, 23421, -19522, 5381, 5491, 11, 14, 1526157333.770, 30, 0, 1024, 1024, 1024, 1024, 0, 6, 3893, 3902, 3875, 3915, 3912, 3887, 0, 1, 12501, -90.000, 0.000, 68.700, 0.000, 0.000, -2.900, 0.0, , , , , , 98, , , 21, 21, 21
38.1754120, -120.0595240, 21.500, 13:35:33.870, 15, 0.00, 0.25, 98, 2.700, 0.300, 69.500, 597, 100, 94, 23, 23421, -19522, 5381, 5491, 11, 14, 1526157333.871, 48, 0, 1024, 1024, 1024, 1024, 0, 6, 3893, 3902, 3875, 3915, 3912, 3887, 0, 1, 12601, -89.900, 0.000, 68.700, 0.000, 0.000, -2.900, 0.0, , , , , , 98, , , 21, 21, 21
38.1754120, -120.0595240, 21.900, 13:35:33.970, 15, 0.00, 0.25, 98, 2.600, 0.500, 69.400, 597, 100, 94, 23, 23421, -19522, 5381, 5491, 11, 14, 1526157333.972, 52, 0, 1024, 1024, 1024, 1024, 0, 6, 3893, 3902, 3875, 3915, 3912, 3887, 0, 1, 12703, -89.900, 0.000, 68.700, 0.000, 0.000, -3.000, 0.0, , , , , , 98, , , 21, 21, 21
38.1754120, -120.0595239, 22.200, 13:35:34.070, 15, 0.00, 0.25, 98, 2.200, 0.700, 69.300, 597, 100, 94, 23, 23421, -19522, 5381, 5491, 11, 14, 1526157334.071, 54, 0, 1024, 1024, 1024, 1024, 0, 6, 3893, 3902, 3875, 3915, 3912, 3887, 0, 1, 12802, -89.900, 0.000, 68.700, 0.000, 0.000, -3.000, 0.0, , , , , , 98, , , 21, 21, 21
38.1754120, -120.0595239, 22.400, 13:35:34.171, 15, 0.00, 0.25, 98, 1.800, 0.800, 69.200, 597, 100, 94, 23, 23421, -19522, 5381, 5491, 11, 14, 1526157334.172, 45, 0, 1024, 1024, 1024, 1024, 0, 6, 3893, 3902, 3875, 3915, 3912, 3887, 0, 1, 12903, -89.900, 0.000, 68.700, 0.000, 0.000, -2.800, 0.0, , , , , , 98, , , 21, 21, 21
38.1754120, -120.0595239, 22.700, 13:35:34.270, 15, 0.00, 0.25, 98, 1.300, 0.800, 69.100, 597, 100, 94, 23, 23374, -20074, 5381, 5491, 11, 14, 1526157334.272, 20, 0, 1024, 1024, 1024, 1024, 0, 6, 3893, 3902, 3875, 3915, 3912, 3887, 0, 1, 13003, -89.900, 0.000, 68.700, 0.000, 0.000, -2.900, 0.0, , , , , , 98, , , 21, 21, 21
38.1754121, -120.0595239, 23.000, 13:35:34.370, 15, 0.00, 0.25, 98, 1.500, 1.100, 69.000, 597, 100, 94, 23, 23374, -20074, 5381, 5491, 11, 14, 1526157334.372, 21, 0, 1024, 1024, 1024, 1024, 0, 6, 3893, 3902, 3875, 3915, 3912, 3887, 0, 1, 13103, -89.900, 0.000, 68.700, 0.000, 0.000, -2.900, 0.0, , , , , , 98, , , 21, 21, 21
38.1754121, -120.0595239, 23.300, 13:35:34.470, 15, 0.00, 0.25, 98, 1.600, 1.100, 68.800, 597, 100, 94, 23, 23374, -20074, 5381, 5491, 11, 14, 1526157334.471, 10, 0, 1024, 1024, 1024, 1024, 0, 6, 3893, 3902, 3875, 3915, 3912, 3887, 0, 1, 13202, -89.900, 0.000, 68.700, 0.000, 0.000, -2.900, 0.0, , , , , , 98, , , 21, 21, 21
38.1754121, -120.0595239, 23.300, 13:35:34.570, 15, 0.00, 0.25, 98, 1.600, 1.100, 68.800, 597, 100, 94, 23, 23374, -20074, 5381, 5491, 11, 14, 1526157334.571, 110, 0, 1024, 1024, 1024, 1024, 0, 6, 3893, 3902, 3875, 3915, 3912, 3887, 0, 1, 13302, -89.900, 0.000, 68.700, 0.000, 0.000, -2.900, 0.0, , , , , , 98, , , 21, 21, 21
38.1754120, -120.0595237, 23.900, 13:35:34.670, 15, 0.10, 0.24, 98, 0.800, 1.600, 68.800, 597, 100, 94, 23, 23374, -20074, 5381, 5491, 11, 14, 1526157334.671, 79, 0, 1024, 1024, 1024, 1024, 0, 6, 3893, 3902, 3875, 3915, 3912, 3887, 0, 1, 13402, -89.900, 0.000, 68.700, 0.000, 0.100, -2.900, 0.0, , , , , , 98, , , 21, 21, 21
38.1754119, -120.0595236, 24.500, 13:35:34.782, 15, 0.00, 0.22, 98, 0.100, 1.700, 68.600, 597, 100, 94, 23, 23374, -20074, 5326, 5491, 11, 14, 1526157334.783, 13, 0, 1024, 1024, 1024, 1024, 0, 6, 3893, 3902, 3875, 3915, 3912, 3887, 0, 1, 13514, -89.900, 0.000, 68.700, 0.000, 0.000, -2.900, 0.0, , , , , , 98, , , 21, 21, 21
38.1754119, -120.0595236, 24.800, 13:35:34.873, 15, 0.10, 0.22, 98, 0.700, 1.400, 68.200, 597, 100, 98, 23, 23374, -20074, 5326, 5491, 11, 14, 1526157334.874, 8, 0, 1024, 1024, 1024, 1024, 0, 6, 3887, 3901, 3884, 3912, 3912, 3892, 0, 1, 13605, -89.900, 0.000, 68.700, -0.100, 0.000, -2.800, 0.0, , , , , , 98, , , 21, 21, 21
38.1754118, -120.0595235, 25.000, 13:35:34.979, 15, 0.14, 0.21, 98, 0.500, 0.600, 68.100, 597, 100, 98, 23, 23374, -20074, 5326, 5491, 11, 14, 1526157334.979, 15, 0, 1024, 1024, 1024, 1024, 0, 6, 3887, 3901, 3884, 3912, 3912, 3892, 0, 1, 13710, -90.000, 0.000, 68.700, -0.100, 0.100, -2.800, 0.0, , , , , , 98, , , 21, 21, 21
38.1754116, -120.0595234, 25.300, 13:35:35.070, 15, 0.14, 0.19, 98, -0.100, 0.100, 68.300, 597, 100, 98, 23, 23374, -20074, 5326, 5491, 11, 14, 1526157335.070, 5, 0, 1024, 1024, 1024, 1024, 0, 6, 3887, 3901, 3884, 3912, 3912, 3892, 0, 1, 13801, -90.000, 0.000, 68.700, -0.100, 0.100, -2.800, 0.0, , , , , , 98, , , 21, 21, 21
38.1754116, -120.0595234, 25.300, 13:35:35.170, 15, 0.14, 0.19, 98, -0.100, 0.100, 68.300, 597, 100, 98, 23, 23374, -20074, 5326, 5491, 11, 14, 1526157335.170, 105, 0, 1024, 1024, 1024, 1024, 0, 6, 3887, 3901, 3884, 3912, 3912, 3892, 0, 1, 13901, -90.000, 0.000, 68.700, -0.100, 0.100, -2.800, 0.0, , , , , , 98, , , 21, 21, 21
38.1754115, -120.0595233, 25.600, 13:35:35.269, 15, 0.22, 0.17, 98, -1.100, 0.300, 68.700, 597, 100, 98, 23, 23374, -20074, 5326, 5491, 11, 14, 1526157335.270, 80, 0, 1024, 1024, 1024, 1024, 0, 6, 3887, 3901, 3884, 3912, 3912, 3892, 0, 1, 14001, -89.900, 0.000, 68.700, -0.100, 0.200, -2.800, 0.1, , , , , , 98, , , 21, 21, 21
38.1754114, -120.0595231, 25.900, 13:35:35.370, 15, 0.22, 0.15, 97, -2.000, 0.800, 69.300, 597, 100, 99, 23, 23374, -20074, 5326, 5491, 11, 14, 1526157335.371, 78, 0, 1024, 1024, 1024, 1024, 0, 6, 3887, 3901, 3884, 3912, 3912, 3892, 0, 1, 14102, -89.900, 0.000, 68.700, -0.100, 0.200, -2.800, 0.1, , , , , , 98, , , 21, 21, 21
38.1754113, -120.0595228, 26.200, 13:35:35.470, 15, 0.20, 0.13, 97, -2.400, 3.000, 69.900, 597, 100, 99, 23, 23374, -20074, 5326, 5491, 11, 14, 1526157335.470, 95, 0, 1024, 1024, 1024, 1024, 0, 6, 3887, 3901, 3884, 3912, 3912, 3892, 0, 1, 14201, -89.900, 0.000, 68.700, 0.000, 0.200, -2.700, 0.1, , , , , , 98, , , 21, 21, 21
38.1754113, -120.0595225, 26.400, 13:35:35.569, 15, 0.30, 0.11, 97, -2.500, 3.900, 70.300, 597, 100, 99, 23, 23374, -20074, 5326, 5491, 11, 14, 1526157335.570, 73, 0, 1024, 1024, 1024, 1024, 0, 6, 3887, 3901, 3884, 3912, 3912, 3892, 0, 1, 14301, -89.900, 0.000, 68.700, 0.000, 0.300, -2.700, 0.1, , , , , , 98, , , 21, 21, 21
38.1754113, -120.0595222, 26.700, 13:35:35.670, 15, 0.30, 0.10, 97, -2.800, 5.000, 70.200, 597, 100, 99, 23, 23374, -20074, 5326, 5491, 11, 14, 1526157335.672, 75, 0, 1024, 1024, 1024, 1024, 0, 6, 3887, 3901, 3884, 3912, 3912, 3892, 0, 1, 14403, -89.900, 0.000, 68.700, 0.000, 0.300, -2.800, 0.1, , , , , , 98, , , 21, 21, 21
38.1754113, -120.0595219, 27.000, 13:35:35.769, 15, 0.30, 0.10, 97, -1.200, 5.800, 70.100, 597, 100, 99, 23, 23468, -18723, 5326, 5491, 11, 14, 1526157335.770, 48, 0, 1024, 1024, 1024, 1024, 0, 6, 3906, 3910, 3899, 3925, 3921, 3911, 0, 1, 14501, -89.900, 0.000, 68.700, 0.000, 0.300, -2.800, 0.1, , , , , , 98, , , 21, 21, 21
38.1754114, -120.0595216, 27.300, 13:35:35.870, 16, 0.20, 0.12, 97, -0.900, 6.100, 69.800, 597, 100, 98, 23, 23468, -18723, 5326, 5491, 11, 14, 1526157335.870, 36, 0, 1024, 1024, 1024, 1024, 0, 6, 3906, 3910, 3899, 3925, 3921, 3911, 0, 1, 14601, -89.900, 0.000, 68.700, 0.000, 0.200, -2.800, 0.1, , , , , , 98, , , 21, 21, 21
38.1754115, -120.0595213, 27.600, 13:35:35.970, 16, 0.20, 0.13, 97, -1.600, 6.100, 69.400, 597, 100, 98, 23, 23468, -18723, 5326, 5491, 11, 14, 1526157335.971, 61, 0, 1024, 1024, 1024, 1024, 0, 6, 3906, 3910, 3899, 3925, 3921, 3911, 0, 1, 14701, -89.900, 0.000, 68.700, 0.000, 0.200, -2.900, 0.1, , , , , , 98, , , 21, 21, 21
38.1754116, -120.0595211, 27.900, 13:35:36.070, 16, 0.20, 0.14, 97, -2.000, 5.900, 69.100, 597, 100, 98, 23, 23468, -18723, 5326, 5491, 11, 14, 1526157336.070, 60, 0, 1024, 1024, 1024, 1024, 0, 6, 3906, 3910, 3899, 3925, 3921, 3911, 0, 1, 14801, -89.900, 0.000, 68.700, 0.000, 0.200, -2.800, 0.1, , , , , , 98, , , 21, 21, 21
38.1754116, -120.0595210, 28.200, 13:35:36.170, 16, 0.10, 0.16, 97, -0.800, 5.900, 68.900, 597, 100, 98, 23, 23468, -18723, 5326, 5491, 11, 14, 1526157336.172, 21, 0, 1024, 1024, 1024, 1024, 0, 6, 3906, 3910, 3899, 3925, 3921, 3911, 0, 1, 14903, -89.900, 0.000, 68.700, 0.000, 0.100, -2.900, 0.0, , , , , , 98, , , 21, 21, 21
38.1754116, -120.0595208, 28.500, 13:35:36.270, 16, 0.10, 0.17, 97, 0.500, 5.900, 68.600, 597, 100, 98, 23, 23468, -18723, 5326, 5491, 11, 14, 1526157336.271, 57, 0, 1024, 1024, 1024, 1024, 0, 6, 3906, 3910, 3899, 3925, 3921, 3911, 0, 1, 15002, -89.900, 0.000, 68.700, 0.000, 0.100, -2.800, 0.0, , , , , , 98, , , 21, 21, 21
38.1754116, -120.0595208, 28.500, 13:35:36.370, 16, 0.10, 0.17, 97, 0.500, 5.900, 68.600, 597, 100, 98, 23, 23468, -18723, 5326, 5491, 11, 14, 1526157336.371, 157, 0, 1024, 1024, 1024, 1024, 0, 6, 3906, 3910, 3899, 3925, 3921, 3911, 0, 1, 15102, -90.000, 0.000, 68.700, 0.000, 0.100, -2.800, 0.0, , , , , , 98, , , 21, 21, 21
38.1754117, -120.0595205, 29.000, 13:35:36.470, 16, 0.10, 0.19, 97, 0.600, 5.000, 68.400, 597, 100, 98, 23, 23468, -18723, 5326, 5491, 11, 14, 1526157336.471, 12, 0, 1024, 1024, 1024, 1024, 0, 6, 3906, 3910, 3899, 3925, 3921, 3911, 0, 1, 15202, -90.000, 0.000, 68.700, 0.000, 0.100, -2.900, 0.0, , , , , , 98, , , 21, 21, 21
38.1754117, -120.0595204, 29.400, 13:35:36.570, 16, 0.00, 0.19, 97, 0.000, 4.600, 68.600, 597, 100, 98, 23, 23468, -18723, 5326, 5491, 11, 14, 1526157336.571, 23, 0, 1024, 1024, 1024, 1024, 0, 6, 3906, 3910, 3899, 3925, 3921, 3911, 0, 1, 15301, -90.000, 0.000, 68.700, 0.000, 0.000, -3.100, 0.0, , , , , , 98, , , 21, 21, 21
38.1754115, -120.0595201, 30.000, 13:35:36.674, 16, 0.00, 0.20, 97, -0.600, 4.200, 69.000, 597, 100, 98, 23, 23468, -18723, 5326, 5491, 11, 14, 1526157336.674, 5, 0, 1024, 1024, 1024, 1024, 0, 6, 3906, 3910, 3899, 3925, 3921, 3911, 0, 1, 15405, -90.000, 0.000, 68.700, 0.000, 0.000, -3.200, 0.0, , , , , , 98, , , 21, 21, 21
38.1754115, -120.0595200, 30.300, 13:35:36.777, 16, 0.00, 0.20, 97, -0.500, 4.200, 69.100, 597, 100, 98, 23, 23205, -20712, 5326, 5491, 11, 14, 1526157336.778, 10, 0, 1024, 1024, 1024, 1024, 0, 6, 3906, 3910, 3899, 3925, 3921, 3911, 0, 1, 15508, -90.000, 0.000, 68.700, 0.000, 0.000, -3.200, 0.0, , , , , , 98, , , 21, 21, 21
38.1754114, -120.0595199, 30.700, 13:35:36.889, 16, 0.00, 0.21, 97, -0.400, 4.800, 69.200, 597, 100, 94, 23, 23205, -20712, 5326, 5491, 11, 14, 1526157336.890, 6, 0, 1024, 1024, 1024, 1024, 0, 6, 3862, 3877, 3826, 3869, 3870, 3836, 0, 1, 15620, -89.900, 0.000, 68.700, 0.000, 0.000, -3.300, 0.0, , , , , , 98, , , 21, 21, 21
38.1754114, -120.0595198, 31.000, 13:35:36.978, 17, 0.10, 0.22, 97, -0.400, 5.200, 69.300, 597, 100, 94, 23, 23205, -20712, 5326, 5491, 11, 14, 1526157336.979, 19, 0, 1024, 1024, 1024, 1024, 0, 6, 3862, 3877, 3826, 3869, 3870, 3836, 0, 1, 15710, -89.900, 0.000, 68.700, 0.000, 0.100, -3.200, 0.0, , , , , , 98, , , 21, 21, 21
38.1754114, -120.0595197, 31.400, 13:35:37.070, 17, 0.10, 0.23, 97, -1.200, 5.600, 69.600, 597, 100, 94, 23, 23205, -20712, 5326, 5491, 11, 14, 1526157337.071, 14, 0, 1024, 1024, 1024, 1024, 0, 6, 3862, 3877, 3826, 3869, 3870, 3836, 0, 1, 15802, -89.900, 0.000, 68.700, 0.000, 0.100, -3.200, 0.0, , , , , , 98, , , 21, 21, 21
38.1754114, -120.0595195, 31.700, 13:35:37.176, 17, 0.10, 0.24, 97, -1.600, 6.000, 69.900, 597, 100, 94, 23, 23205, -20712, 5326, 5491, 11, 14, 1526157337.177, 11, 0, 1024, 1024, 1024, 1024, 0, 6, 3862, 3877, 3826, 3869, 3870, 3836, 0, 1, 15908, -89.900, 0.000, 68.700, 0.000, 0.100, -3.100, 0.0, , , , , , 98, , , 21, 21, 21
38.1754113, -120.0595194, 32.000, 13:35:37.275, 17, 0.10, 0.25, 97, -1.400, 6.300, 69.800, 597, 100, 94, 23, 23205, -20712, 5326, 5491, 11, 14, 1526157337.275, 11, 0, 1024, 1024, 1024, 1024, 0, 6, 3862, 3877, 3826, 3869, 3870, 3836, 0, 1, 16006, -89.900, 0.000, 68.700, 0.000, 0.100, -3.100, 0.0, , , , , , 98, , , 21, 21, 21
38.1754113, -120.0595194, 32.000, 13:35:37.370, 17, 0.10, 0.25, 97, -1.400, 6.300, 69.800, 597, 100, 95, 23, 23205, -20712, 5326, 5491, 11, 14, 1526157337.371, 106, 0, 1024, 1024, 1024, 1024, 0, 6, 3862, 3877, 3826, 3869, 3870, 3836, 0, 1, 16101, -89.900, 0.000, 68.700, 0.000, 0.100, -3.100, 0.0, , , , , , 98, , , 21, 21, 21
38.1754112, -120.0595192, 32.300, 13:35:37.470, 17, 0.10, 0.25, 97, -1.400, 6.300, 69.600, 597, 100, 95, 23, 23205, -20712, 5326, 5491, 11, 14, 1526157337.471, 86, 0, 1024, 1024, 1024, 1024, 0, 6, 3862, 3877, 3826, 3869, 3870, 3836, 0, 1, 16202, -89.900, 0.000, 68.700, 0.000, 0.100, -3.000, 0.0, , , , , , 98, , , 21, 21, 21
38.1754111, -120.0595191, 32.600, 13:35:37.569, 17, 0.00, 0.26, 97, -1.700, 6.100, 69.300, 597, 100, 95, 23, 23205, -20712, 5326, 5491, 11, 14, 1526157337.570, 85, 0, 1024, 1024, 1024, 1024, 0, 6, 3862, 3877, 3826, 3869, 3870, 3836, 0, 1, 16301, -89.900, 0.000, 68.700, 0.000, 0.000, -2.900, 0.0, , , , , , 98, , , 21, 21, 21
38.1754110, -120.0595190, 32.900, 13:35:37.670, 17, 0.00, 0.27, 97, -1.800, 5.900, 69.100, 597, 100, 95, 23, 23205, -20712, 5326, 5491, 11, 14, 1526157337.671, 68, 0, 1024, 1024, 1024, 1024, 0, 6, 3862, 3877, 3826, 3869, 3870, 3836, 0, 1, 16402, -89.900, 0.000, 68.700, 0.000, 0.000, -2.900, 0.0, , , , , , 98, , , 21, 21, 21
38.1754109, -120.0595189, 33.200, 13:35:37.770, 17, 0.00, 0.27, 97, -2.400, 5.700, 69.100, 597, 100, 95, 23, 23205, -20712, 5326, 5491, 11, 14, 1526157337.771, 73, 0, 1024, 1024, 1024, 1024, 0, 6, 3862, 3877, 3826, 3869, 3870, 3836, 0, 1, 16502, -89.900, 0.000, 68.700, 0.000, 0.000, -3.000, 0.0, , , , , , 98, , , 21, 21, 21
38.1754109, -120.0595189, 33.500, 13:35:37.870, 17, 0.00, 0.27, 97, -2.400, 5.600, 69.100, 597, 100, 96, 23, 23205, -20712, 5326, 5491, 11, 14, 1526157337.871, 59, 0, 1024, 1024, 1024, 1024, 0, 6, 3862, 3877, 3826, 3869, 3870, 3836, 0, 1, 16601, -89.900, 0.000, 68.700, 0.000, 0.000, -2.900, 0.0, , , , , , 98, , , 21, 21, 21
38.1754108, -120.0595189, 33.800, 13:35:37.969, 17, 0.00, 0.27, 97, -1.900, 5.300, 69.000, 597, 100, 96, 23, 23205, -20712, 5326, 5491, 11, 14, 1526157337.970, 42, 0, 1024, 1024, 1024, 1024, 0, 6, 3862, 3877, 3826, 3869, 3870, 3836, 0, 1, 16701, -90.000, 0.000, 68.700, 0.000, 0.000, -2.900, 0.0, , , , , , 98, , , 21, 21, 21
38.1754107, -120.0595190, 34.000, 13:35:38.070, 17, 0.00, 0.26, 97, -1.600, 4.400, 68.900, 597, 100, 96, 23, 23205, -20712, 5326, 5491, 11, 14, 1526157338.071, 63, 0, 1024, 1024, 1024, 1024, 0, 6, 3862, 3877, 3826, 3869, 3870, 3836, 0, 1, 16801, -90.000, 0.000, 68.700, 0.000, 0.000, -2.900, 0.0, , , , , , 98, , , 21, 21, 21
38.1754107, -120.0595190, 34.300, 13:35:38.170, 17, 0.00, 0.26, 97, -1.800, 4.400, 68.800, 597, 100, 96, 23, 23205, -20712, 5326, 5491, 11, 14, 1526157338.171, 61, 0, 1024, 1024, 1024, 1024, 0, 6, 3862, 3877, 3826, 3869, 3870, 3836, 0, 1, 16902, -89.900, 0.000, 68.700, 0.000, 0.000, -2.900, 0.0, , , , , , 98, , , 21, 21, 21
38.1754106, -120.0595190, 34.600, 13:35:38.270, 17, 0.00, 0.26, 97, -1.900, 4.200, 68.700, 597, 100, 96, 23, 22919, -22955, 5326, 5491, 11, 14, 1526157338.271, 57, 0, 1024, 1024, 1024, 1024, 0, 6, 3811, 3818, 3812, 3854, 3859, 3829, 0, 1, 17001, -90.000, 0.000, 68.700, 0.000, 0.000, -2.900, 0.0, , , , , , 98, , , 21, 21, 21
38.1754105, -120.0595190, 34.900, 13:35:38.370, 17, 0.00, 0.26, 97, -2.300, 4.900, 68.600, 597, 100, 97, 23, 22919, -22955, 5326, 5491, 11, 14, 1526157338.371, 61, 0, 1024, 1024, 1024, 1024, 0, 6, 3811, 3818, 3812, 3854, 3859, 3829, 0, 1, 17102, -89.900, 0.000, 68.700, 0.000, 0.000, -2.900, 0.0, , , , , , 98, , , 21, 21, 21
38.1754105, -120.0595189, 35.200, 13:35:38.470, 17, 0.00, 0.26, 97, -2.000, 5.800, 68.500, 597, 100, 97, 23, 22919, -22955, 5326, 5491, 11, 14, 1526157338.471, 38, 0, 1024, 1024, 1024, 1024, 0, 6, 3811, 3818, 3812, 3854, 3859, 3829, 0, 1, 17201, -89.900, 0.000, 68.700, 0.000, 0.000, -2.800, 0.0, , , , , , 98, , , 21, 21, 21
38.1754105, -120.0595188, 35.500, 13:35:38.570, 17, 0.00, 0.27, 97, -1.700, 6.500, 68.400, 597, 100, 97, 23, 22919, -22955, 5326, 5491, 11, 14, 1526157338.572, 45, 0, 1024, 1024, 1024, 1024, 0, 6, 3811, 3818, 3812, 3854, 3859, 3829, 0, 1, 17302, -89.900, 0.000, 68.700, 0.000, 0.000, -3.000, 0.0, , , , , , 98, , , 21, 21, 21
38.1754104, -120.0595188, 35.800, 13:35:38.669, 17, 0.00, 0.28, 97, -1.900, 7.300, 68.200, 597, 100, 97, 23, 22919, -22955, 5326, 5491, 11, 14, 1526157338.670, 30, 0, 1024, 1024, 1024, 1024, 0, 6, 3811, 3818, 3812, 3854, 3859, 3829, 0, 1, 17401, -89.900, 0.000, 68.700, 0.000, 0.000, -2.900, 0.0, , , , , , 98, , , 21, 21, 21
38.1754103, -120.0595187, 36.100, 13:35:38.770, 17, 0.10, 0.28, 97, -2.900, 7.200, 67.900, 597, 100, 97, 23, 23280, -18718, 5326, 5491, 11, 14, 1526157338.771, 29, 0, 1024, 1024, 1024, 1024, 0, 6, 3868, 3873, 3865, 3892, 3893, 3868, 0, 1, 17501, -89.900, 0.000, 68.700, -0.100, 0.000, -2.900, 0.0, , , , , , 98, , , 21, 21, 21
38.1754101, -120.0595186, 36.300, 13:35:38.870, 17, 0.10, 0.29, 97, -3.500, 6.600, 67.700, 597, 100, 96, 23, 23280, -18718, 5326, 5491, 11, 14, 1526157338.871, 31, 0, 1024, 1024, 1024, 1024, 0, 6, 3868, 3873, 3865, 3892, 3893, 3868, 0, 1, 17601, -90.000, 0.000, 68.700, -0.100, 0.000, -2.800, 0.0, , , , , , 98, , , 21, 21, 21
38.1754099, -120.0595186, 36.600, 13:35:38.976, 17, 0.10, 0.30, 97, -4.800, 5.600, 67.900, 597, 100, 96, 23, 23280, -18718, 5326, 5491, 11, 14, 1526157338.976, 7, 0, 1024, 1024, 1024, 1024, 0, 6, 3868, 3873, 3865, 3892, 3893, 3868, 0, 1, 17707, -90.000, 0.000, 68.700, -0.100, 0.000, -2.800, 0.0, , , , , , 98, , , 21, 21, 21
38.1754096, -120.0595185, 37.200, 13:35:39.070, 17, 0.10, 0.31, 97, -6.400, 5.300, 68.600, 597, 100, 96, 23, 23280, -18718, 5326, 5491, 11, 14, 1526157339.071, 22, 0, 1024, 1024, 1024, 1024, 0, 6, 3868, 3873, 3865, 3892, 3893, 3868, 0, 1, 17802, -89.900, 0.000, 68.700, -0.100, 0.000, -2.900, 0.0, , , , , , 98, , , 21, 21, 21
38.1754096, -120.0595185, 37.200, 13:35:39.170, 17, 0.10, 0.31, 97, -6.400, 5.300, 68.600, 597, 100, 96, 23, 23280, -18718, 5326, 5491, 11, 14, 1526157339.171, 121, 0, 1024, 1024, 1024, 1024, 0, 6, 3868, 3873, 3865, 3892, 3893, 3868, 0, 1, 17902, -89.900, 0.000, 68.700, -0.100, 0.000, -2.900, 0.0, , , , , , 98, , , 21, 21, 21
38.1754094, -120.0595184, 37.800, 13:35:39.279, 17, 0.00, 0.33, 97, -6.400, 5.300, 69.200, 597, 100, 96, 23, 23280, -18718, 5326, 5491, 11, 14, 1526157339.280, 9, 0, 1024, 1024, 1024, 1024, 0, 6, 3868, 3873, 3865, 3892, 3893, 3868, 0, 1, 18010, -89.900, 0.000, 68.700, 0.000, 0.000, -2.900, 0.0, , , , , , 98, , , 21, 21, 21
38.1754094, -120.0595184, 37.800, 13:35:39.370, 17, 0.00, 0.33, 97, -6.400, 5.300, 69.200, 597, 100, 96, 23, 23280, -18718, 5326, 5491, 11, 14, 1526157339.372, 101, 0, 1024, 1024, 1024, 1024, 0, 6, 3868, 3873, 3865, 3892, 3893, 3868, 0, 1, 18103, -89.900, 0.000, 68.700, 0.000, 0.000, -2.900, 0.0, , , , , , 98, , , 21, 21, 21
38.1754093, -120.0595184, 38.100, 13:35:39.470, 17, 0.00, 0.33, 97, -5.700, 5.100, 69.600, 597, 100, 99, 23, 23280, -18718, 5326, 5491, 11, 14, 1526157339.472, 91, 0, 1024, 1024, 1024, 1024, 0, 6, 3868, 3873, 3865, 3892, 3893, 3868, 0, 1, 18203, -89.900, 0.000, 68.700, 0.000, 0.000, -2.900, 0.0, , , , , , 98, , , 21, 21, 21
38.1754093, -120.0595184, 38.400, 13:35:39.569, 17, 0.00, 0.33, 97, -4.700, 5.100, 69.900, 597, 100, 99, 23, 23280, -18718, 5326, 5491, 11, 14, 1526157339.570, 76, 0, 1024, 1024, 1024, 1024, 0, 6, 3868, 3873, 3865, 3892, 3893, 3868, 0, 1, 18301, -89.900, 0.000, 68.700, 0.000, 0.000, -3.000, 0.0, , , , , , 98, , , 21, 21, 21
38.1754093, -120.0595185, 38.700, 13:35:39.670, 17, 0.00, 0.33, 97, -3.500, 5.000, 69.800, 597, 100, 99, 23, 23280, -18718, 5326, 5491, 11, 14, 1526157339.671, 91, 0, 1024, 1024, 1024, 1024, 0, 6, 3868, 3873, 3865, 3892, 3893, 3868, 0, 1, 18401, -89.900, 0.000, 68.700, 0.000, 0.000, -3.100, 0.0, , , , , , 98, , , 21, 21, 21
38.1754094, -120.0595185, 39.000, 13:35:39.770, 17, 0.00, 0.32, 97, -2.800, 5.800, 69.700, 597, 100, 99, 23, 23158, -18718, 5326, 5491, 11, 14, 1526157339.771, 93, 0, 1024, 1024, 1024, 1024, 0, 6, 3868, 3873, 3865, 3892, 3893, 3868, 0, 1, 18502, -89.900, 0.000, 68.700, 0.000, 0.000, -3.100, 0.0, , , , , , 98, , , 21, 21, 21
38.1754094, -120.0595185, 39.300, 13:35:39.870, 17, 0.00, 0.32, 97, -2.500, 6.700, 69.600, 597, 100, 99, 23, 23158, -18718, 5326, 5491, 11, 14, 1526157339.871, 96, 0, 1024, 1024, 1024, 1024, 0, 6, 3868, 3873, 3865, 3892, 3893, 3868, 0, 1, 18602, -89.900, 0.000, 68.700, 0.000, 0.000, -3.100, 0.0, , , , , , 98, , , 21, 21, 21
38.1754095, -120.0595185, 39.600, 13:35:39.971, 17, 0.00, 0.31, 97, -2.300, 7.300, 69.400, 597, 100, 99, 23, 23158, -18718, 5326, 5491, 11, 14, 1526157339.972, 66, 0, 1024, 1024, 1024, 1024, 0, 6, 3868, 3873, 3865, 3892, 3893, 3868, 0, 1, 18703, -89.900, 0.000, 68.700, 0.000, 0.000, -3.200, 0.0, , , , , , 98, , , 21, 21, 21
38.1754096, -120.0595186, 39.900, 13:35:40.070, 17, 0.00, 0.31, 97, -2.100, 7.600, 68.800, 597, 100, 99, 23, 23158, -18718, 5326, 5491, 11, 14, 1526157340.071, 84, 0, 1024, 1024, 1024, 1024, 0, 6, 3868, 3873, 3865, 3892, 3893, 3868, 0, 1, 18801, -89.900, 0.000, 68.700, 0.000, 0.000, -3.100, 0.0, , , , , , 98, , , 21, 21, 21
38.1754097, -120.0595187, 40.300, 13:35:40.170, 17, 0.00, 0.29, 97, -1.300, 7.100, 68.500, 597, 100, 99, 23, 23158, -18718, 5326, 5491, 11, 14, 1526157340.171, 63, 0, 1024, 1024, 1024, 1024, 0, 6, 3868, 3873, 3865, 3892, 3893, 3868, 0, 1, 18901, -89.900, 0.000, 68.700, 0.000, 0.000, -3.100, 0.0, , , , , , 98, , , 21, 21, 21
38.1754097, -120.0595188, 40.600, 13:35:40.270, 17, 0.00, 0.28, 97, -0.800, 6.300, 68.400, 597, 100, 99, 23, 23158, -18718, 5326, 5491, 11, 14, 1526157340.271, 63, 0, 1024, 1024, 1024, 1024, 0, 6, 3856, 3872, 3836, 3866, 3865, 3862, 0, 1, 19002, -90.000, 0.000, 68.700, 0.000, 0.000, -3.000, 0.0, , , , , , 98, , , 21, 21, 21
38.1754098, -120.0595189, 40.900, 13:35:40.370, 17, 0.00, 0.27, 97, -1.000, 5.600, 68.300, 597, 100, 99, 23, 23158, -18718, 5326, 5491, 11, 14, 1526157340.371, 67, 0, 1024, 1024, 1024, 1024, 0, 6, 3856, 3872, 3836, 3866, 3865, 3862, 0, 1, 19102, -89.900, 0.000, 68.700, 0.000, 0.000, -3.100, 0.0, , , , , , 98, , , 21, 21, 21
38.1754098, -120.0595190, 41.200, 13:35:40.470, 17, 0.00, 0.26, 97, -1.300, 5.400, 68.200, 597, 100, 99, 23, 23158, -18718, 5326, 5491, 11, 14, 1526157340.472, 57, 0, 1024, 1024, 1024, 1024, 0, 6, 3856, 3872, 3836, 3866, 3865, 3862, 0, 1, 19202, -89.900, 0.000, 68.700, 0.000, 0.000, -3.000, 0.0, , , , , , 98, , , 21, 21, 21
38.1754098, -120.0595191, 41.500, 13:35:40.570, 17, 0.00, 0.25, 97, -1.900, 5.400, 68.500, 597, 100, 99, 23, 23158, -18718, 5326, 5491, 11, 14, 1526157340.570, 55, 0, 1024, 1024, 1024, 1024, 0, 6, 3856, 3872, 3836, 3866, 3865, 3862, 0, 1, 19301, -89.900, 0.000, 68.700, 0.000, 0.000, -3.000, 0.0, , , , , , 98, , , 21, 21, 21
38.1754097, -120.0595192, 41.800, 13:35:40.670, 17, 0.00, 0.25, 97, -2.500, 5.400, 68.900, 597, 100, 99, 23, 23158, -18718, 5326, 5491, 11, 14, 1526157340.671, 61, 0, 1024, 1024, 1024, 1024, 0, 6, 3856, 3872, 3836, 3866, 3865, 3862, 0, 1, 19401, -89.900, 0.000, 68.700, 0.000, 0.000, -3.100, 0.0, , , , , , 98, , , 21, 21, 21
38.1754097, -120.0595193, 42.100, 13:35:40.770, 17, 0.00, 0.24, 97, -2.600, 5.500, 69.400, 597, 100, 99, 23, 23158, -18718, 5326, 5491, 11, 14, 1526157340.772, 41, 0, 1024, 1024, 1024, 1024, 0, 6, 3856, 3872, 3836, 3866, 3865, 3862, 0, 1, 19503, -89.900, 0.000, 68.700, 0.000, 0.000, -3.100, 0.0, , , , , , 98, , , 21, 21, 21
38.1754097, -120.0595193, 42.400, 13:35:40.871, 17, 0.00, 0.24, 97, -3.000, 5.900, 69.700, 597, 100, 99, 23, 23158, -18718, 5326, 5491, 11, 14, 1526157340.872, 53, 0, 1024, 1024, 1024, 1024, 0, 6, 3856, 3872, 3836, 3866, 3865, 3862, 0, 1, 19603, -89.900, 0.000, 68.700, 0.000, 0.000, -3.200, 0.0, , , , , , 98, , , 21, 21, 21
38.1754097, -120.0595193, 42.700, 13:35:40.971, 17, 0.00, 0.24, 97, -3.700, 6.200, 69.700, 597, 100, 99, 23, 23158, -18718, 5326, 5491, 11, 14, 1526157340.973, 29, 0, 1024, 1024, 1024, 1024, 0, 6, 3856, 3872, 3836, 3866, 3865, 3862, 0, 1, 19703, -89.900, 0.000, 68.700, 0.000, 0.000, -3.000, 0.0, , , , , , 98, , , 21, 21, 21
38.1754097, -120.0595193, 43.000, 13:35:41.070, 17, 0.00, 0.24, 97, -4.400, 6.600, 69.500, 597, 100, 99, 23, 23158, -18718, 5326, 5491, 11, 14, 1526157341.072, 37, 0, 1024, 1024, 1024, 1024, 0, 6, 3856, 3872, 3836, 3866, 3865, 3862, 0, 1, 19803, -89.900, 0.000, 68.700, 0.000, 0.000, -3.000, 0.0, , , , , , 98, , , 21, 21, 21
38.1754096, -120.0595193, 43.300, 13:35:41.170, 17, 0.00, 0.24, 97, -4.000, 6.800, 69.300, 597, 100, 99, 23, 23158, -18718, 5326, 5491, 11, 14, 1526157341.171, 16, 0, 1024, 1024, 1024, 1024, 0, 6, 3856, 3872, 3836, 3866, 3865, 3862, 0, 1, 19902, -89.900, 0.000, 68.700, 0.000, 0.000, -3.000, 0.0, , , , , , 98, , , 21, 21, 21
38.1754095, -120.0595194, 43.900, 13:35:41.269, 17, 0.00, 0.24, 97, -3.800, 6.100, 69.100, 597, 100, 99, 23, 22941, -18797, 5326, 5491, 11, 14, 1526157341.270, 9, 0, 1024, 1024, 1024, 1024, 0, 6, 3856, 3867, 3835, 3854, 3869, 3849, 0, 1, 20001, -89.900, 0.000, 68.700, 0.000, 0.000, -2.900, 0.0, , , , , , 98, , , 21, 21, 21
38.1754095, -120.0595194, 43.900, 13:35:41.370, 17, 0.00, 0.24, 97, -3.800, 6.100, 69.100, 597, 100, 99, 23, 22941, -18797, 5326, 5491, 11, 14, 1526157341.371, 111, 0, 1024, 1024, 1024, 1024, 0, 6, 3856, 3867, 3835, 3854, 3869, 3849, 0, 1, 20102, -89.900, 0.000, 68.700, 0.000, 0.000, -2.900, 0.0, , , , , , 98, , , 21, 21, 21
38.1754093, -120.0595194, 44.300, 13:35:41.471, 17, 0.10, 0.25, 97, -4.900, 6.200, 68.800, 597, 100, 99, 23, 22941, -18797, 5326, 5491, 11, 14, 1526157341.473, 26, 0, 1024, 1024, 1024, 1024, 0, 6, 3856, 3867, 3835, 3854, 3869, 3849, 0, 1, 20204, -89.900, 0.000, 68.700, -0.100, 0.000, -3.000, 0.0, , , , , , 98, , , 21, 21, 21
38.1754093, -120.0595194, 44.300, 13:35:41.570, 17, 0.10, 0.25, 97, -4.900, 6.200, 68.800, 597, 100, 99, 23, 22941, -18797, 5326, 5491, 11, 14, 1526157341.570, 123, 0, 1024, 1024, 1024, 1024, 0, 6, 3856, 3867, 3835, 3854, 3869, 3849, 0, 1, 20301, -89.900, 0.000, 68.700, -0.100, 0.000, -3.000, 0.0, , , , , , 98, , , 21, 21, 21
38.1754087, -120.0595192, 45.200, 13:35:41.670, 17, 0.10, 0.30, 97, -7.700, 6.400, 68.300, 597, 100, 99, 23, 22941, -18797, 5326, 5491, 11, 14, 1526157341.673, 14, 0, 1024, 1024, 1024, 1024, 0, 6, 3856, 3867, 3835, 3854, 3869, 3849, 0, 1, 20404, -89.900, 0.000, 68.700, -0.100, 0.000, -3.100, 0.0, , , , , , 98, , , 21, 21, 21
38.1754086, -120.0595192, 45.500, 13:35:41.770, 17, 0.10, 0.31, 97, -7.700, 5.500, 68.200, 597, 100, 99, 23, 22941, -18797, 5326, 5491, 11, 14, 1526157341.774, 10, 0, 1024, 1024, 1024, 1024, 0, 6, 3856, 3867, 3835, 3854, 3869, 3849, 0, 1, 20504, -89.900, 0.000, 68.700, -0.100, 0.000, -3.000, 0.0, , , , , , 98, , , 21, 21, 21
38.1754084, -120.0595192, 45.800, 13:35:41.884, 17, 0.00, 0.32, 97, -7.300, 4.900, 68.100, 597, 100, 99, 23, 22941, -18797, 5326, 5491, 11, 14, 1526157341.884, 5, 0, 1024, 1024, 1024, 1024, 0, 6, 3856, 3867, 3835, 3854, 3869, 3849, 0, 1, 20615, -90.000, 0.000, 68.700, 0.000, 0.000, -2.900, 0.0, , , , , , 98, , , 21, 21, 21
38.1754083, -120.0595192, 46.100, 13:35:41.970, 17, 0.00, 0.33, 97, -6.800, 4.700, 68.100, 597, 100, 99, 23, 22941, -18797, 5326, 5491, 11, 14, 1526157341.971, 11, 0, 1024, 1024, 1024, 1024, 0, 6, 3856, 3867, 3835, 3854, 3869, 3849, 0, 1, 20702, -89.900, 0.000, 68.700, 0.000, 0.000, -2.900, 0.0, , , , , , 98, , , 21, 21, 21
38.1754083, -120.0595192, 46.400, 13:35:42.070, 17, 0.00, 0.33, 97, -6.300, 5.000, 68.200, 597, 100, 99, 23, 22941, -18797, 5326, 5491, 11, 14, 1526157342.073, 16, 0, 1024, 1024, 1024, 1024, 0, 6, 3856, 3867, 3835, 3854, 3869, 3849, 0, 1, 20804, -89.900, 0.000, 68.700, 0.000, 0.000, -2.900, 0.0, , , , , , 98, , , 21, 21, 21
38.1754083, -120.0595192, 46.400, 13:35:42.171, 17, 0.00, 0.33, 97, -6.300, 5.000, 68.200, 597, 100, 99, 23, 22941, -18797, 5326, 5491, 11, 14, 1526157342.172, 115, 0, 1024, 1024, 1024, 1024, 0, 6, 3856, 3867, 3835, 3854, 3869, 3849, 0, 1, 20902, -89.900, 0.000, 68.700, 0.000, 0.000, -2.900, 0.0, , , , , , 98, , , 21, 21, 21
38.1754083, -120.0595192, 46.700, 13:35:42.270, 17, 0.00, 0.33, 97, -6.100, 5.500, 68.400, 597, 100, 99, 23, 22941, -18797, 5326, 5491, 11, 14, 1526157342.271, 87, 0, 1024, 1024, 1024, 1024, 0, 6, 3856, 3867, 3835, 3854, 3869, 3849, 0, 1, 21002, -89.900, 0.000, 68.700, 0.000, 0.000, -2.900, 0.0, , , , , , 98, , , 21, 21, 21
