Latitude, Longitude, Altitude (m), Time, Sats, Speed (m/s), Range (m), Battery (%), Roll (deg), Pitch (deg), Yaw (deg), Images, HD Signal (%), RC Signal (%), Battery Temp (C), Battery Voltage (mV), Battery Current (mA), Battery Energy (mAh), Battery Capacity (mAh), Battery Discharges, flyState, timestamp (Unix), LastUpdate (ms), radioChannel, Rc_elevator, Rc_aileron, Rc_throttle, Rc_rudder, Rc_gyro, Dronetype, Battery_Cell1 (mV), Battery_Cell2 (mV), Battery_Cell3 (mV), Battery_Cell4 (mV), Battery_Cell5 (mV), Battery_Cell6 (mV), Video, isFlying, elapsedTime (ms), gimbalPitch (deg), gimbalRoll (deg), gimbalYaw (deg), VelocityX (m/s), VelocityY (m/s), VelocityZ (m/s), GroundSmear (cm), App Version, Aircraft Name, Aircraft Firmware, Aircraft Serial Number, Battery Serial Number, Battery Lifetime (%), App_Tip, App_Warning, CurrentFlightStartingIndex, CurrentFlightLastVisitedWaypoint, PreviousFlightEndingWaypointIndex
38.2001651, -120.0382933, 0.000, 11:15:16.153, 12, 0.10, 0.28, 69, -1.000, 2.400, -36.100, 2, 100, 100, 33, 23972, -2801, 3815, 5529, 9, 11, 1526148916.154, 61, 0, 1024, 1024, 1024, 1024, 0, 6, 3998, 3980, 4005, 3986, 4009, 3976, 0, 1, 3265, -89.900, 0.000, -33.500, -0.100, 0.000, -0.100, 0.0, MapPilot_2.8.1_04242018, Dendroctonus I, 1.3.1.00, 041DDC1887, 1058171200149, 98, DJI_0921.jpg, Starting Mission from Lat/Long: 38.20017/-120.03828 Camera: Zenmuse X3 - Overlap: 90/90 - Active Connection: No, 53, 53, 53
38.2001650, -120.0382934, 0.000, 11:15:16.199, 12, 0.20, 0.26, 69, -0.400, 1.300, -36.300, 2, 100, 100, 33, 23972, -2801, 3815, 5529, 9, 11, 1526148916.199, 9, 0, 1024, 1024, 1024, 1024, 0, 6, 3998, 3980, 4005, 3986, 4009, 3976, 0, 1, 3310, -90.000, 0.000, -33.600, -0.200, 0.000, -0.300, 0.0, , , , , , 98, , , 53, 53, 53
38.2001650, -120.0382934, 0.000, 11:15:16.290, 12, 0.20, 0.26, 69, -0.400, 1.300, -36.300, 2, 100, 100, 33, 23972, -2801, 3815, 5529, 9, 11, 1526148916.291, 101, 0, 1024, 1024, 1024, 1024, 0, 6, 3998, 3980, 4005, 3986, 4009, 3976, 0, 1, 3402, -90.000, 0.000, -33.600, -0.200, 0.000, -0.300, 0.0, , , , , , 98, , , 53, 53, 53
38.2001649, -120.0382934, 0.000, 11:15:16.390, 12, 0.22, 0.25, 69, 0.000, 0.200, -36.200, 2, 100, 100, 33, 23972, -2801, 3815, 5529, 9, 11, 1526148916.392, 83, 0, 1024, 1024, 1024, 1024, 0, 6, 3998, 3980, 4005, 3986, 4009, 3976, 0, 1, 3503, -90.000, 0.000, -33.600, -0.200, -0.100, -0.400, 0.0, , , , , , 98, , , 53, 53, 53
38.2001647, -120.0382936, 0.100, 11:15:16.490, 11, 0.22, 0.23, 69, 1.100, -0.700, -35.900, 2, 100, 100, 33, 23972, -2801, 3815, 5529, 9, 11, 1526148916.491, 90, 0, 1024, 1024, 1024, 1024, 0, 6, 3998, 3980, 4005, 3986, 4009, 3976, 0, 1, 3602, -90.000, 0.000, -33.700, -0.200, -0.100, -0.400, 0.0, , , , , , 98, , , 53, 53, 53
38.2001646, -120.0382938, 0.200, 11:15:16.590, 11, 0.14, 0.22, 69, 1.800, -0.900, -35.700, 2, 100, 100, 33, 23972, -2801, 3815, 5529, 9, 11, 1526148916.592, 81, 0, 1024, 1024, 1024, 1024, 0, 6, 3998, 3980, 4005, 3986, 4009, 3976, 0, 1, 3703, -90.000, 0.000, -33.700, -0.100, -0.100, -0.400, 0.0, , , , , , 98, , , 53, 53, 53
38.2001645, -120.0382939, 0.200, 11:15:16.690, 11, 0.14, 0.21, 69, 2.200, -0.800, -35.500, 2, 100, 100, 33, 23972, -2801, 3815, 5529, 9, 11, 1526148916.691, 64, 0, 1024, 1024, 1024, 1024, 0, 6, 3998, 3980, 4005, 3986, 4009, 3976, 0, 1, 3802, -90.000, 0.000, -33.800, -0.100, -0.100, -0.300, 0.0, , , , , , 98, , , 53, 53, 53
38.2001645, -120.0382941, 0.300, 11:15:16.790, 11, 0.14, 0.20, 69, 2.500, -0.700, -35.400, 2, 100, 100, 33, 23972, -2801, 3815, 5529, 9, 11, 1526148916.791, 81, 0, 1024, 1024, 1024, 1024, 0, 6, 3998, 3980, 4005, 3986, 4009, 3976, 0, 1, 3902, -89.900, 0.000, -33.900, -0.100, -0.100, -0.400, 0.0, , , , , , 98, , , 53, 53, 53
38.2001645, -120.0382943, 0.300, 11:15:16.889, 12, 0.10, 0.20, 69, 2.600, -0.300, -35.400, 2, 100, 100, 33, 23972, -2801, 3815, 5529, 9, 11, 1526148916.890, 75, 0, 1024, 1024, 1024, 1024, 0, 6, 3998, 3980, 4005, 3986, 4009, 3976, 0, 1, 4002, -89.900, 0.000, -33.900, 0.000, -0.100, -0.400, 0.0, , , , , , 98, , , 53, 53, 53
38.2001645, -120.0382944, 0.400, 11:15:16.990, 12, 0.10, 0.21, 69, 2.400, 0.000, -35.400, 2, 100, 100, 33, 23552, -10269, 3815, 5529, 9, 11, 1526148916.991, 80, 0, 1024, 1024, 1024, 1024, 0, 6, 3998, 3980, 4005, 3986, 4009, 3976, 0, 1, 4103, -89.900, 0.000, -33.900, 0.000, -0.100, -0.400, 0.0, , , , , , 98, , , 53, 53, 53
38.2001645, -120.0382944, 0.400, 11:15:17.091, 12, 0.10, 0.21, 69, 2.400, 0.000, -35.400, 2, 100, 100, 33, 23552, -10269, 3815, 5529, 9, 11, 1526148917.092, 180, 0, 1024, 1024, 1024, 1024, 0, 6, 3902, 3931, 3897, 3889, 3924, 3892, 0, 1, 4203, -89.900, 0.000, -34.000, 0.000, -0.100, -0.400, 0.0, , , , , , 98, , , 53, 53, 53
38.2001646, -120.0382946, 0.500, 11:15:17.189, 12, 0.00, 0.23, 69, 1.400, 0.200, -35.300, 2, 100, 100, 33, 23552, -10269, 3815, 5529, 9, 11, 1526148917.189, 33, 0, 1024, 1024, 1024, 1024, 0, 6, 3902, 3931, 3897, 3889, 3924, 3892, 0, 1, 4300, -89.900, 0.000, -34.000, 0.000, 0.000, -0.500, 0.0, , , , , , 98, , , 53, 53, 53
38.2001647, -120.0382947, 0.500, 11:15:17.289, 12, 0.00, 0.24, 69, 1.100, 0.300, -35.300, 2, 100, 100, 33, 23552, -10269, 3815, 5529, 9, 11, 1526148917.290, 62, 0, 1024, 1024, 1024, 1024, 0, 6, 3902, 3931, 3897, 3889, 3924, 3892, 0, 1, 4401, -89.900, 0.000, -34.100, 0.000, 0.000, -0.400, 0.0, , , , , , 98, , , 53, 53, 53
38.2001647, -120.0382947, 0.600, 11:15:17.390, 12, 0.00, 0.24, 69, 1.000, 0.400, -35.400, 2, 100, 100, 33, 23552, -10269, 3815, 5529, 9, 11, 1526148917.390, 46, 0, 1024, 1024, 1024, 1024, 0, 6, 3902, 3931, 3897, 3889, 3924, 3892, 0, 1, 4501, -89.900, 0.000, -34.100, 0.000, 0.000, -0.400, 0.0, , , , , , 98, , , 53, 53, 53
38.2001647, -120.0382948, 0.600, 11:15:17.488, 11, 0.00, 0.24, 69, 1.000, 0.500, -35.400, 2, 100, 100, 33, 23552, -10269, 3815, 5529, 9, 11, 1526148917.489, 48, 0, 1024, 1024, 1024, 1024, 0, 6, 3902, 3931, 3897, 3889, 3924, 3892, 0, 1, 4601, -89.900, 0.000, -34.100, 0.000, 0.000, -0.500, 0.0, , , , , , 98, , , 53, 53, 53
38.2001647, -120.0382948, 0.700, 11:15:17.590, 11, 0.00, 0.24, 69, 1.000, 0.400, -35.500, 2, 100, 99, 33, 23552, -10269, 3815, 5529, 9, 11, 1526148917.590, 53, 0, 1024, 1024, 1024, 1024, 0, 6, 3902, 3931, 3897, 3889, 3924, 3892, 0, 1, 4701, -89.900, 0.000, -34.200, 0.000, 0.000, -0.500, 0.0, , , , , , 98, , , 53, 53, 53
38.2001647, -120.0382949, 0.800, 11:15:17.689, 10, 0.00, 0.25, 69, 1.100, 0.300, -35.700, 2, 100, 99, 33, 23552, -10269, 3815, 5529, 9, 11, 1526148917.690, 32, 0, 1024, 1024, 1024, 1024, 0, 6, 3902, 3931, 3897, 3889, 3924, 3892, 0, 1, 4801, -89.900, 0.000, -34.200, 0.000, 0.000, -0.500, 0.0, , , , , , 98, , , 53, 53, 53
38.2001648, -120.0382951, 0.800, 11:15:17.789, 10, 0.00, 0.26, 69, 1.100, 0.400, -35.800, 2, 100, 99, 33, 23552, -10269, 3815, 5529, 9, 11, 1526148917.790, 33, 0, 1024, 1024, 1024, 1024, 0, 6, 3902, 3931, 3897, 3889, 3924, 3892, 0, 1, 4901, -89.900, 0.000, -34.200, 0.000, 0.000, -0.400, 0.0, , , , , , 98, , , 53, 53, 53
38.2001649, -120.0382952, 0.900, 11:15:17.889, 10, 0.00, 0.28, 69, 1.100, 0.600, -35.900, 2, 100, 99, 33, 23552, -10269, 3815, 5529, 9, 11, 1526148917.890, 42, 0, 1024, 1024, 1024, 1024, 0, 6, 3902, 3931, 3897, 3889, 3924, 3892, 0, 1, 5001, -89.900, 0.000, -34.300, 0.000, 0.000, -0.500, 0.0, , , , , , 98, , , 53, 53, 53
38.2001650, -120.0382953, 0.900, 11:15:17.989, 10, 0.00, 0.28, 69, 1.000, 0.600, -36.000, 2, 100, 99, 33, 22998, -17774, 3815, 5529, 9, 14, 1526148917.990, 43, 0, 1024, 1024, 1024, 1024, 0, 6, 3809, 3827, 3843, 3837, 3840, 3819, 0, 1, 5101, -89.900, 0.000, -34.300, 0.000, 0.000, -0.500, 0.0, , , , , , 98, , , 53, 53, 53
38.2001650, -120.0382953, 1.000, 11:15:18.090, 10, 0.00, 0.29, 69, 1.200, 0.500, -36.000, 2, 100, 99, 33, 22998, -17774, 3815, 5529, 9, 14, 1526148918.090, 22, 0, 1024, 1024, 1024, 1024, 0, 6, 3809, 3827, 3843, 3837, 3840, 3819, 0, 1, 5202, -89.900, 0.000, -34.300, 0.000, 0.000, -0.400, 0.0, , , , , , 98, , , 53, 53, 53
38.2001649, -120.0382954, 1.000, 11:15:18.189, 10, 0.00, 0.29, 69, 1.400, 0.300, -35.900, 2, 100, 99, 33, 22998, -17774, 3815, 5529, 9, 14, 1526148918.189, 32, 0, 1024, 1024, 1024, 1024, 0, 6, 3809, 3827, 3843, 3837, 3840, 3819, 0, 1, 5301, -90.000, 0.000, -34.300, 0.000, 0.000, -0.300, 0.0, , , , , , 98, , , 53, 53, 53
38.2001649, -120.0382954, 1.000, 11:15:18.289, 12, 0.00, 0.29, 69, 1.400, 0.000, -35.900, 2, 100, 99, 33, 22998, -17774, 3815, 5529, 9, 14, 1526148918.289, 31, 0, 1024, 1024, 1024, 1024, 0, 6, 3809, 3827, 3843, 3837, 3840, 3819, 0, 1, 5401, -90.000, 0.000, -34.400, 0.000, 0.000, -0.200, 0.0, , , , , , 98, , , 53, 53, 53
38.2001649, -120.0382954, 1.000, 11:15:18.389, 12, 0.00, 0.29, 69, 1.400, 0.000, -35.900, 2, 100, 99, 33, 22998, -17774, 3815, 5529, 9, 14, 1526148918.389, 131, 0, 1024, 1024, 1024, 1024, 0, 6, 3809, 3827, 3843, 3837, 3840, 3819, 0, 1, 5501, -90.000, 0.000, -34.400, 0.000, 0.000, -0.200, 0.0, , , , , , 98, , , 53, 53, 53
38.2001650, -120.0382954, 1.100, 11:15:18.489, 10, 0.00, 0.29, 69, 1.000, 0.100, -35.700, 2, 100, 99, 33, 22998, -17774, 3815, 5529, 9, 14, 1526148918.489, 16, 0, 1024, 1024, 1024, 1024, 0, 6, 3809, 3827, 3843, 3837, 3840, 3819, 0, 1, 5601, -90.000, 0.000, -34.400, 0.000, 0.000, -0.500, 0.0, , , , , , 98, , , 53, 53, 53
38.2001649, -120.0382956, 1.200, 11:15:18.589, 10, 0.00, 0.29, 69, 1.100, 0.100, -35.600, 2, 100, 97, 33, 22998, -17774, 3815, 5529, 9, 14, 1526148918.589, 15, 0, 1024, 1024, 1024, 1024, 0, 6, 3809, 3827, 3843, 3837, 3840, 3819, 0, 1, 5700, -89.900, 0.000, -34.400, 0.000, 0.000, -0.600, 0.0, , , , , , 98, , , 53, 53, 53
38.2001648, -120.0382957, 1.200, 11:15:18.698, 10, 0.00, 0.29, 69, 1.600, 0.100, -35.600, 2, 100, 97, 33, 22998, -17774, 3815, 5529, 9, 14, 1526148918.699, 9, 0, 1024, 1024, 1024, 1024, 0, 6, 3809, 3827, 3843, 3837, 3840, 3819, 0, 1, 5810, -89.900, 0.000, -34.400, 0.000, 0.000, -0.700, 0.0, , , , , , 98, , , 53, 53, 53
38.2001648, -120.0382957, 1.400, 11:15:18.798, 10, 0.00, 0.29, 69, 2.100, 0.100, -35.500, 2, 100, 97, 33, 22998, -17774, 3815, 5529, 9, 14, 1526148918.799, 13, 0, 1024, 1024, 1024, 1024, 0, 6, 3809, 3827, 3843, 3837, 3840, 3819, 0, 1, 5910, -90.000, 0.000, -34.500, 0.000, 0.000, -1.000, 0.0, , , , , , 98, , , 53, 53, 53
38.2001648, -120.0382958, 1.500, 11:15:18.888, 9, 0.00, 0.29, 69, 2.300, 0.100, -35.500, 2, 100, 97, 33, 22998, -17774, 3815, 5529, 9, 14, 1526148918.890, 13, 0, 1024, 1024, 1024, 1024, 0, 6, 3809, 3827, 3843, 3837, 3840, 3819, 0, 1, 6001, -90.000, 0.000, -34.500, 0.000, 0.000, -1.100, 0.0, , , , , , 98, , , 53, 53, 53
38.2001648, -120.0382958, 1.600, 11:15:18.993, 9, 0.00, 0.29, 69, 2.100, 0.000, -35.500, 2, 100, 97, 33, 22915, -17780, 3815, 5529, 9, 14, 1526148918.993, 9, 0, 1024, 1024, 1024, 1024, 0, 6, 3809, 3827, 3843, 3837, 3840, 3819, 0, 1, 6104, -90.000, 0.000, -34.500, 0.000, 0.000, -1.200, 0.0, , , , , , 98, , , 53, 53, 53
38.2001649, -120.0382958, 1.700, 11:15:19.112, 10, 0.00, 0.31, 69, 1.900, 0.000, -35.500, 2, 100, 97, 33, 22915, -17780, 3815, 5529, 9, 14, 1526148919.113, 12, 0, 1024, 1024, 1024, 1024, 0, 6, 3808, 3813, 3828, 3815, 3837, 3810, 0, 1, 6224, -89.900, 0.000, -34.600, 0.000, 0.000, -1.500, 0.0, , , , , , 98, , , 53, 53, 53
38.2001652, -120.0382958, 1.900, 11:15:19.189, 10, 0.00, 0.33, 69, 1.400, 0.400, -35.500, 2, 100, 97, 33, 22915, -17780, 3815, 5529, 9, 14, 1526148919.190, 75, 0, 1024, 1024, 1024, 1024, 0, 6, 3808, 3813, 3828, 3815, 3837, 3810, 0, 1, 6301, -89.900, 0.000, -34.600, 0.000, 0.000, -1.700, 0.0, , , , , , 98, , , 53, 53, 53
38.2001654, -120.0382957, 2.100, 11:15:19.289, 10, 0.00, 0.35, 69, 0.800, 1.000, -35.500, 2, 100, 97, 33, 22915, -17780, 3815, 5529, 9, 14, 1526148919.289, 90, 0, 1024, 1024, 1024, 1024, 0, 6, 3808, 3813, 3828, 3815, 3837, 3810, 0, 1, 6401, -89.900, 0.000, -34.600, 0.000, 0.000, -2.100, 0.0, , , , , , 98, , , 53, 53, 53
38.2001657, -120.0382956, 2.400, 11:15:19.389, 10, 0.00, 0.37, 69, 0.200, 1.300, -35.600, 2, 100, 97, 33, 22915, -17780, 3815, 5529, 9, 14, 1526148919.390, 80, 0, 1024, 1024, 1024, 1024, 0, 6, 3808, 3813, 3828, 3815, 3837, 3810, 0, 1, 6501, -89.900, 0.000, -34.600, 0.000, 0.000, -2.400, 0.0, , , , , , 98, , , 53, 53, 53
38.2001658, -120.0382954, 2.600, 11:15:19.489, 12, 0.00, 0.37, 69, -0.200, 1.200, -35.700, 2, 100, 97, 33, 22915, -17780, 3815, 5529, 9, 14, 1526148919.489, 85, 0, 1024, 1024, 1024, 1024, 0, 6, 3808, 3813, 3828, 3815, 3837, 3810, 0, 1, 6600, -89.900, 0.000, -34.600, 0.000, 0.000, -2.500, 0.0, , , , , , 98, , , 53, 53, 53
38.2001658, -120.0382953, 2.900, 11:15:19.589, 12, 0.00, 0.37, 69, -0.400, 0.700, -35.700, 2, 100, 97, 33, 22915, -17780, 3815, 5529, 9, 14, 1526148919.589, 86, 0, 1024, 1024, 1024, 1024, 0, 6, 3808, 3813, 3828, 3815, 3837, 3810, 0, 1, 6701, -90.000, 0.000, -34.600, 0.000, 0.000, -2.700, 0.0, , , , , , 98, , , 53, 53, 53
38.2001657, -120.0382952, 3.200, 11:15:19.689, 11, 0.00, 0.36, 69, 0.000, 0.100, -35.600, 2, 100, 97, 33, 22915, -17780, 3815, 5529, 9, 14, 1526148919.690, 89, 0, 1024, 1024, 1024, 1024, 0, 6, 3808, 3813, 3828, 3815, 3837, 3810, 0, 1, 6801, -90.000, 0.000, -34.700, 0.000, 0.000, -2.900, 0.0, , , , , , 98, , , 53, 53, 53
38.2001656, -120.0382952, 3.500, 11:15:19.789, 11, 0.00, 0.35, 69, 0.500, -0.100, -35.500, 2, 100, 97, 33, 22915, -17780, 3815, 5529, 9, 14, 1526148919.790, 69, 0, 1024, 1024, 1024, 1024, 0, 6, 3808, 3813, 3828, 3815, 3837, 3810, 0, 1, 6901, -90.000, 0.000, -34.700, 0.000, 0.000, -3.100, 0.0, , , , , , 98, , , 53, 53, 53
38.2001655, -120.0382950, 3.800, 11:15:19.889, 11, 0.00, 0.33, 69, 1.000, -0.200, -35.400, 2, 100, 97, 33, 22915, -17780, 3815, 5529, 9, 14, 1526148919.890, 81, 0, 1024, 1024, 1024, 1024, 0, 6, 3808, 3813, 3828, 3815, 3837, 3810, 0, 1, 7001, -90.000, 0.000, -34.700, 0.000, 0.000, -3.100, 0.0, , , , , , 98, , , 53, 53, 53
38.2001654, -120.0382948, 4.200, 11:15:19.989, 11, 0.00, 0.32, 69, 1.100, -0.400, -35.500, 2, 100, 97, 33, 22785, -24689, 3815, 5529, 9, 14, 1526148919.990, 61, 0, 1024, 1024, 1024, 1024, 0, 6, 3700, 3734, 3779, 3766, 3778, 3759, 0, 1, 7102, -90.000, 0.000, -34.700, 0.000, 0.000, -3.200, 0.0, , , , , , 98, , , 53, 53, 53
38.2001654, -120.0382946, 4.500, 11:15:20.089, 12, 0.00, 0.31, 69, 0.500, -0.900, -35.800, 2, 100, 100, 33, 22785, -24689, 3815, 5529, 9, 14, 1526148920.089, 47, 0, 1024, 1024, 1024, 1024, 0, 6, 3700, 3734, 3779, 3766, 3778, 3759, 0, 1, 7200, -90.000, 0.000, -34.800, 0.000, 0.000, -3.100, 0.0, , , , , , 98, , , 53, 53, 53
38.2001654, -120.0382945, 4.800, 11:15:20.189, 12, 0.00, 0.30, 69, 0.000, -1.200, -36.100, 2, 100, 100, 33, 22785, -24689, 3815, 5529, 9, 14, 1526148920.190, 49, 0, 1024, 1024, 1024, 1024, 0, 6, 3700, 3734, 3779, 3766, 3778, 3759, 0, 1, 7301, -90.000, 0.000, -34.800, 0.000, 0.000, -3.200, 0.0, , , , , , 98, , , 53, 53, 53
38.2001653, -120.0382943, 5.200, 11:15:20.289, 12, 0.00, 0.30, 69, -0.500, -1.500, -36.500, 2, 100, 100, 33, 22785, -24689, 3815, 5529, 9, 14, 1526148920.290, 37, 0, 1024, 1024, 1024, 1024, 0, 6, 3700, 3734, 3779, 3766, 3778, 3759, 0, 1, 7401, -90.000, 0.000, -34.800, 0.000, 0.000, -3.200, 0.0, , , , , , 98, , , 53, 53, 53
38.2001653, -120.0382940, 5.500, 11:15:20.389, 12, 0.00, 0.30, 69, -0.900, -1.600, -36.800, 2, 100, 100, 33, 22785, -24689, 3815, 5529, 9, 14, 1526148920.390, 52, 0, 1024, 1024, 1024, 1024, 0, 6, 3700, 3734, 3779, 3766, 3778, 3759, 0, 1, 7501, -90.000, 0.000, -34.800, 0.000, 0.000, -3.200, 0.0, , , , , , 98, , , 53, 53, 53
38.2001654, -120.0382939, 5.800, 11:15:20.488, 13, 0.00, 0.30, 69, -0.800, -1.500, -37.000, 2, 100, 100, 33, 22785, -24689, 3815, 5529, 9, 14, 1526148920.489, 20, 0, 1024, 1024, 1024, 1024, 0, 6, 3700, 3734, 3779, 3766, 3778, 3759, 0, 1, 7600, -90.000, 0.000, -34.800, 0.000, 0.000, -3.200, 0.0, , , , , , 98, , , 53, 53, 53
38.2001655, -120.0382937, 6.200, 11:15:20.589, 13, 0.00, 0.32, 69, -0.700, -1.400, -37.100, 2, 100, 100, 33, 22785, -24689, 3815, 5529, 9, 14, 1526148920.590, 30, 0, 1024, 1024, 1024, 1024, 0, 6, 3700, 3734, 3779, 3766, 3778, 3759, 0, 1, 7701, -89.900, 0.000, -34.800, 0.000, 0.000, -3.200, 0.0, , , , , , 98, , , 53, 53, 53
38.2001657, -120.0382936, 6.500, 11:15:20.690, 13, 0.00, 0.33, 69, -0.800, -1.000, -37.200, 2, 100, 100, 33, 22785, -24689, 3815, 5529, 9, 14, 1526148920.690, 32, 0, 1024, 1024, 1024, 1024, 0, 6, 3700, 3734, 3779, 3766, 3778, 3759, 0, 1, 7802, -89.900, 0.000, -34.900, 0.000, 0.000, -3.100, 0.0, , , , , , 98, , , 53, 53, 53
38.2001658, -120.0382935, 6.800, 11:15:20.790, 13, 0.00, 0.35, 69, -0.900, -0.600, -37.100, 2, 100, 100, 33, 22785, -24689, 3815, 5529, 9, 14, 1526148920.790, 39, 0, 1024, 1024, 1024, 1024, 0, 6, 3700, 3734, 3779, 3766, 3778, 3759, 0, 1, 7902, -90.000, 0.000, -34.900, 0.000, 0.000, -3.100, 0.0, , , , , , 98, , , 53, 53, 53
38.2001659, -120.0382934, 7.200, 11:15:20.889, 12, 0.00, 0.36, 69, -1.200, -0.500, -37.000, 2, 100, 100, 33, 22785, -24689, 3815, 5529, 9, 14, 1526148920.891, 42, 0, 1024, 1024, 1024, 1024, 0, 6, 3700, 3734, 3779, 3766, 3778, 3759, 0, 1, 8002, -89.900, 0.000, -34.900, 0.000, 0.000, -3.200, 0.0, , , , , , 98, , , 53, 53, 53
38.2001660, -120.0382933, 7.500, 11:15:20.989, 12, 0.00, 0.37, 69, -1.400, -0.300, -36.800, 2, 100, 100, 33, 22587, -19521, 3815, 5529, 9, 14, 1526148920.990, 42, 0, 1024, 1024, 1024, 1024, 0, 6, 3700, 3734, 3779, 3766, 3778, 3759, 0, 1, 8101, -89.900, 0.000, -34.900, 0.000, 0.000, -3.100, 0.0, , , , , , 98, , , 53, 53, 53
38.2001662, -120.0382934, 7.800, 11:15:21.098, 12, 0.00, 0.39, 69, -1.300, 0.000, -36.500, 2, 100, 100, 33, 22587, -19521, 3815, 5529, 9, 14, 1526148921.098, 11, 0, 1024, 1024, 1024, 1024, 0, 6, 3700, 3734, 3779, 3766, 3778, 3759, 0, 1, 8209, -89.900, 0.000, -34.900, 0.000, 0.000, -3.100, 0.0, , , , , , 98, , , 53, 53, 53
38.2001663, -120.0382935, 8.200, 11:15:21.189, 12, 0.00, 0.40, 69, -0.900, 0.300, -36.200, 2, 100, 100, 33, 22587, -19521, 3815, 5529, 9, 14, 1526148921.189, 13, 0, 1024, 1024, 1024, 1024, 0, 6, 3700, 3734, 3779, 3766, 3778, 3759, 0, 1, 8301, -89.900, 0.000, -34.900, 0.000, 0.000, -3.100, 0.0, , , , , , 98, , , 53, 53, 53
38.2001664, -120.0382936, 8.500, 11:15:21.291, 14, 0.00, 0.41, 69, -0.600, 0.600, -35.900, 2, 100, 100, 33, 22587, -19521, 3815, 5529, 9, 14, 1526148921.291, 5, 0, 1024, 1024, 1024, 1024, 0, 6, 3700, 3734, 3779, 3766, 3778, 3759, 0, 1, 8403, -89.900, 0.000, -34.900, 0.000, 0.000, -3.100, 0.0, , , , , , 98, , , 53, 53, 53
38.2001665, -120.0382938, 8.800, 11:15:21.392, 14, 0.00, 0.42, 69, -0.400, 0.800, -35.700, 2, 100, 100, 33, 22587, -19521, 3815, 5529, 9, 14, 1526148921.392, 7, 0, 1024, 1024, 1024, 1024, 0, 6, 3700, 3734, 3779, 3766, 3778, 3759, 0, 1, 8503, -89.900, 0.000, -34.900, 0.000, 0.000, -3.100, 0.0, , , , , , 98, , , 53, 53, 53
38.2001665, -120.0382939, 9.100, 11:15:21.489, 13, 0.00, 0.42, 69, -0.200, 0.900, -35.600, 2, 100, 100, 33, 22587, -19521, 3815, 5529, 9, 14, 1526148921.489, 94, 0, 1024, 1024, 1024, 1024, 0, 6, 3700, 3734, 3779, 3766, 3778, 3759, 0, 1, 8600, -89.900, 0.000, -34.900, 0.000, 0.000, -3.100, 0.0, , , , , , 98, , , 53, 53, 53
38.2001665, -120.0382939, 9.100, 11:15:21.589, 13, 0.00, 0.42, 69, -0.200, 0.900, -35.600, 2, 100, 100, 33, 22587, -19521, 3815, 5529, 9, 14, 1526148921.590, 195, 0, 1024, 1024, 1024, 1024, 0, 6, 3700, 3734, 3779, 3766, 3778, 3759, 0, 1, 8701, -89.900, 0.000, -34.900, 0.000, 0.000, -3.100, 0.0, , , , , , 98, , , 53, 53, 53
38.2001663, -120.0382944, 10.100, 11:15:21.698, 15, 0.14, 0.41, 69, 0.400, 0.100, -35.900, 2, 100, 100, 33, 22587, -19521, 3815, 5529, 9, 14, 1526148921.698, 13, 0, 1024, 1024, 1024, 1024, 0, 6, 3755, 3765, 3780, 3763, 3741, 3739, 0, 1, 8810, -89.900, 0.000, -34.900, -0.100, -0.100, -3.000, 0.0, , , , , , 98, , , 53, 53, 53
38.2001663, -120.0382944, 10.100, 11:15:21.789, 15, 0.14, 0.41, 69, 0.400, 0.100, -35.900, 2, 100, 100, 33, 22587, -19521, 3815, 5529, 9, 14, 1526148921.790, 104, 0, 1024, 1024, 1024, 1024, 0, 6, 3755, 3765, 3780, 3763, 3741, 3739, 0, 1, 8901, -89.900, 0.000, -34.900, -0.100, -0.100, -3.000, 0.0, , , , , , 98, , , 53, 53, 53
38.2001662, -120.0382946, 10.400, 11:15:21.889, 16, 0.14, 0.40, 69, 0.900, 0.000, -36.000, 2, 100, 100, 33, 22587, -19521, 3815, 5529, 9, 14, 1526148921.890, 80, 0, 1024, 1024, 1024, 1024, 0, 6, 3755, 3765, 3780, 3763, 3741, 3739, 0, 1, 9001, -89.900, 0.000, -34.900, -0.100, -0.100, -2.900, 0.0, , , , , , 98, , , 53, 53, 53
38.2001661, -120.0382947, 10.700, 11:15:21.990, 16, 0.10, 0.39, 69, 1.300, 0.000, -36.000, 2, 100, 100, 33, 22587, -19521, 3815, 5529, 9, 14, 1526148921.990, 90, 0, 1024, 1024, 1024, 1024, 0, 6, 3755, 3765, 3780, 3763, 3741, 3739, 0, 1, 9101, -90.000, 0.000, -35.000, -0.100, 0.000, -2.900, 0.0, , , , , , 98, , , 53, 53, 53
38.2001660, -120.0382948, 11.000, 11:15:22.089, 12, 0.10, 0.38, 69, 1.500, 0.000, -36.100, 2, 100, 99, 33, 22587, -19521, 3815, 5529, 9, 14, 1526148922.089, 82, 0, 1024, 1024, 1024, 1024, 0, 6, 3755, 3765, 3780, 3763, 3741, 3739, 0, 1, 9201, -89.900, 0.000, -34.900, -0.100, 0.000, -2.900, 0.0, , , , , , 98, , , 53, 53, 53
38.2001659, -120.0382949, 11.300, 11:15:22.190, 12, 0.10, 0.37, 69, 1.500, 0.000, -36.000, 2, 100, 99, 33, 22587, -19521, 3815, 5529, 9, 14, 1526148922.192, 50, 0, 1024, 1024, 1024, 1024, 0, 6, 3755, 3765, 3780, 3763, 3741, 3739, 0, 1, 9303, -90.000, 0.000, -35.000, -0.100, 0.000, -3.000, 0.0, , , , , , 98, , , 53, 53, 53
38.2001659, -120.0382950, 11.600, 11:15:22.289, 14, 0.10, 0.37, 69, 1.500, 0.000, -36.000, 2, 100, 99, 33, 22587, -19521, 3815, 5529, 9, 14, 1526148922.290, 47, 0, 1024, 1024, 1024, 1024, 0, 6, 3755, 3765, 3780, 3763, 3741, 3739, 0, 1, 9401, -89.900, 0.000, -34.900, -0.100, 0.000, -3.000, 0.0, , , , , , 98, , , 53, 53, 53
38.2001659, -120.0382950, 11.600, 11:15:22.390, 14, 0.10, 0.37, 69, 1.500, 0.000, -36.000, 2, 100, 99, 33, 22587, -19521, 3815, 5529, 9, 14, 1526148922.391, 148, 0, 1024, 1024, 1024, 1024, 0, 6, 3755, 3765, 3780, 3763, 3741, 3739, 0, 1, 9503, -89.900, 0.000, -34.900, -0.100, 0.000, -3.000, 0.0, , , , , , 98, , , 53, 53, 53
38.2001658, -120.0382952, 12.200, 11:15:22.490, 14, 0.00, 0.36, 69, 1.200, 0.000, -36.000, 2, 100, 99, 33, 22646, -18694, 3815, 5529, 9, 14, 1526148922.491, 48, 0, 1024, 1024, 1024, 1024, 0, 6, 3763, 3773, 3778, 3767, 3780, 3765, 0, 1, 9603, -90.000, 0.000, -34.900, 0.000, 0.000, -3.000, 0.0, , , , , , 98, , , 53, 53, 53
38.2001657, -120.0382953, 12.600, 11:15:22.590, 14, 0.00, 0.36, 69, 0.900, -0.100, -35.900, 2, 100, 98, 33, 22646, -18694, 3815, 5529, 9, 14, 1526148922.591, 48, 0, 1024, 1024, 1024, 1024, 0, 6, 3763, 3773, 3778, 3767, 3780, 3765, 0, 1, 9702, -90.000, 0.000, -34.900, 0.000, 0.000, -3.000, 0.0, , , , , , 98, , , 53, 53, 53
38.2001657, -120.0382953, 12.900, 11:15:22.690, 13, 0.00, 0.36, 69, 0.700, -0.200, -35.900, 2, 100, 98, 33, 22646, -18694, 3815, 5529, 9, 14, 1526148922.691, 47, 0, 1024, 1024, 1024, 1024, 0, 6, 3763, 3773, 3778, 3767, 3780, 3765, 0, 1, 9802, -89.900, 0.000, -34.900, 0.000, 0.000, -2.900, 0.0, , , , , , 98, , , 53, 53, 53
38.2001656, -120.0382953, 13.200, 11:15:22.790, 13, 0.00, 0.35, 69, 0.600, -0.100, -35.800, 2, 100, 98, 33, 22646, -18694, 3815, 5529, 9, 14, 1526148922.790, 63, 0, 1024, 1024, 1024, 1024, 0, 6, 3763, 3773, 3778, 3767, 3780, 3765, 0, 1, 9902, -90.000, 0.000, -34.900, 0.000, 0.000, -2.900, 0.0, , , , , , 98, , , 53, 53, 53
38.2001656, -120.0382954, 13.500, 11:15:22.890, 14, 0.00, 0.35, 69, 0.700, -0.200, -35.800, 2, 100, 98, 33, 22646, -18694, 3815, 5529, 9, 14, 1526148922.890, 61, 0, 1024, 1024, 1024, 1024, 0, 6, 3763, 3773, 3778, 3767, 3780, 3765, 0, 1, 10002, -90.000, 0.000, -34.900, 0.000, 0.000, -2.900, 0.0, , , , , , 98, , , 53, 53, 53
38.2001656, -120.0382954, 13.800, 11:15:22.991, 14, 0.00, 0.35, 69, 0.700, -0.200, -35.700, 2, 100, 98, 33, 22646, -18694, 3815, 5529, 9, 14, 1526148922.994, 32, 0, 1024, 1024, 1024, 1024, 0, 6, 3763, 3773, 3778, 3767, 3780, 3765, 0, 1, 10105, -89.900, 0.000, -34.900, 0.000, 0.000, -2.900, 0.0, , , , , , 98, , , 53, 53, 53
38.2001655, -120.0382955, 14.100, 11:15:23.090, 14, 0.00, 0.35, 69, 0.700, -0.200, -35.800, 2, 100, 96, 33, 22646, -18694, 3815, 5529, 9, 14, 1526148923.091, 29, 0, 1024, 1024, 1024, 1024, 0, 6, 3763, 3773, 3778, 3767, 3780, 3765, 0, 1, 10202, -90.000, 0.000, -35.000, 0.000, 0.000, -2.900, 0.0, , , , , , 98, , , 53, 53, 53
38.2001655, -120.0382955, 14.400, 11:15:23.213, 14, 0.00, 0.35, 69, 1.000, -0.200, -35.900, 2, 100, 96, 33, 22646, -18694, 3815, 5529, 9, 14, 1526148923.214, 5, 0, 1024, 1024, 1024, 1024, 0, 6, 3763, 3773, 3778, 3767, 3780, 3765, 0, 1, 10325, -89.900, 0.000, -35.000, 0.000, 0.000, -2.900, 0.0, , , , , , 98, , , 53, 53, 53
38.2001655, -120.0382956, 14.700, 11:15:23.290, 15, 0.00, 0.35, 69, 1.300, -0.100, -36.000, 2, 100, 96, 33, 22646, -18694, 3815, 5529, 9, 14, 1526148923.291, 31, 0, 1024, 1024, 1024, 1024, 0, 6, 3763, 3773, 3778, 3767, 3780, 3765, 0, 1, 10402, -89.900, 0.000, -35.000, 0.000, 0.000, -2.900, 0.0, , , , , , 98, , , 53, 53, 53
38.2001653, -120.0382957, 15.000, 11:15:23.390, 15, 0.00, 0.34, 69, 1.500, -0.100, -36.200, 2, 100, 96, 33, 22646, -18694, 3815, 5529, 9, 14, 1526148923.391, 17, 0, 1024, 1024, 1024, 1024, 0, 6, 3763, 3773, 3778, 3767, 3780, 3765, 0, 1, 10502, -90.000, 0.000, -35.000, 0.000, 0.000, -2.900, 0.0, , , , , , 98, , , 53, 53, 53
38.2001652, -120.0382957, 15.300, 11:15:23.489, 16, 0.00, 0.33, 69, 1.700, -0.300, -36.200, 2, 100, 96, 33, 22580, -19361, 3815, 5529, 9, 14, 1526148923.490, 30, 0, 1024, 1024, 1024, 1024, 0, 6, 3746, 3760, 3770, 3761, 3772, 3757, 0, 1, 10601, -90.000, 0.000, -35.000, 0.000, 0.000, -2.900, 0.0, , , , , , 98, , , 53, 53, 53
38.2001652, -120.0382957, 15.600, 11:15:23.591, 16, 0.00, 0.32, 69, 1.500, -0.500, -36.200, 2, 100, 96, 33, 22580, -19361, 3815, 5529, 9, 14, 1526148923.592, 32, 0, 1024, 1024, 1024, 1024, 0, 6, 3746, 3760, 3770, 3761, 3772, 3757, 0, 1, 10703, -90.000, 0.000, -34.900, 0.000, 0.000, -2.900, 0.0, , , , , , 98, , , 53, 53, 53
38.2001651, -120.0382957, 15.900, 11:15:23.694, 16, 0.00, 0.32, 69, 1.100, -0.800, -36.200, 2, 100, 96, 33, 22580, -19361, 3815, 5529, 9, 14, 1526148923.695, 5, 0, 1024, 1024, 1024, 1024, 0, 6, 3746, 3760, 3770, 3761, 3772, 3757, 0, 1, 10806, -90.000, 0.000, -34.900, 0.000, 0.000, -2.900, 0.0, , , , , , 98, , , 53, 53, 53
38.2001651, -120.0382957, 16.200, 11:15:23.805, 16, 0.00, 0.32, 69, 0.800, -0.700, -36.100, 2, 100, 96, 33, 22580, -19361, 3815, 5529, 9, 14, 1526148923.805, 12, 0, 1024, 1024, 1024, 1024, 0, 6, 3746, 3760, 3770, 3761, 3772, 3757, 0, 1, 10917, -90.000, 0.000, -35.000, 0.000, 0.000, -2.900, 0.0, , , , , , 98, , , 53, 53, 53
38.2001650, -120.0382957, 16.800, 11:15:23.893, 16, 0.00, 0.31, 69, 1.400, -0.600, -36.100, 2, 100, 96, 33, 22580, -19361, 3815, 5529, 9, 14, 1526148923.893, 8, 0, 1024, 1024, 1024, 1024, 0, 6, 3746, 3760, 3770, 3761, 3772, 3757, 0, 1, 11005, -90.000, 0.000, -35.000, 0.000, 0.000, -2.900, 0.0, , , , , , 98, , , 53, 53, 53
38.2001651, -120.0382957, 17.100, 11:15:23.992, 16, 0.00, 0.31, 69, 1.500, -0.400, -36.200, 2, 100, 96, 33, 22580, -19361, 3815, 5529, 9, 14, 1526148923.993, 8, 0, 1024, 1024, 1024, 1024, 0, 6, 3746, 3760, 3770, 3761, 3772, 3757, 0, 1, 11104, -90.000, 0.000, -35.000, 0.000, 0.000, -2.900, 0.0, , , , , , 98, , , 53, 53, 53
38.2001651, -120.0382957, 17.100, 11:15:24.090, 16, 0.00, 0.31, 69, 1.500, -0.400, -36.200, 2, 100, 96, 33, 22580, -19361, 3815, 5529, 9, 14, 1526148924.091, 106, 0, 1024, 1024, 1024, 1024, 0, 6, 3746, 3760, 3770, 3761, 3772, 3757, 0, 1, 11203, -90.000, 0.000, -35.000, 0.000, 0.000, -2.900, 0.0, , , , , , 98, , , 53, 53, 53
38.2001651, -120.0382956, 17.400, 11:15:24.189, 16, 0.00, 0.32, 69, 1.200, -0.100, -36.200, 2, 100, 96, 33, 22580, -19361, 3815, 5529, 9, 14, 1526148924.189, 75, 0, 1024, 1024, 1024, 1024, 0, 6, 3746, 3760, 3770, 3761, 3772, 3757, 0, 1, 11300, -89.900, 0.000, -35.000, 0.000, 0.000, -2.900, 0.0, , , , , , 98, , , 53, 53, 53
38.2001652, -120.0382956, 17.700, 11:15:24.289, 15, 0.00, 0.32, 69, 0.800, 0.200, -36.200, 2, 100, 96, 33, 22580, -19361, 3815, 5529, 9, 14, 1526148924.290, 95, 0, 1024, 1024, 1024, 1024, 0, 6, 3746, 3760, 3770, 3761, 3772, 3757, 0, 1, 11401, -89.900, 0.000, -35.000, 0.000, 0.000, -2.900, 0.0, , , , , , 98, , , 53, 53, 53
38.2001652, -120.0382956, 18.000, 11:15:24.390, 15, 0.00, 0.32, 69, 0.600, 0.100, -36.200, 2, 100, 96, 33, 22580, -19361, 3815, 5529, 9, 14, 1526148924.390, 85, 0, 1024, 1024, 1024, 1024, 0, 6, 3746, 3760, 3770, 3761, 3772, 3757, 0, 1, 11502, -89.900, 0.000, -35.000, 0.000, 0.000, -2.900, 0.0, , , , , , 98, , , 53, 53, 53
38.2001652, -120.0382955, 18.300, 11:15:24.510, 15, 0.00, 0.31, 69, 0.700, 0.000, -36.200, 2, 100, 96, 33, 22543, -19203, 3759, 5529, 9, 14, 1526148924.511, 110, 0, 1024, 1024, 1024, 1024, 0, 6, 3741, 3757, 3773, 3760, 3771, 3756, 0, 1, 11622, -90.000, 0.000, -35.000, 0.000, 0.000, -2.900, 0.0, , , , , , 98, , , 53, 53, 53
38.2001651, -120.0382955, 18.600, 11:15:24.763, 15, 0.00, 0.31, 69, 0.800, -0.200, -36.200, 2, 100, 98, 33, 22543, -19203, 3759, 5529, 9, 14, 1526148924.763, 163, 0, 1024, 1024, 1024, 1024, 0, 6, 3741, 3757, 3773, 3760, 3771, 3756, 0, 1, 11875, -90.000, 0.000, -35.000, 0.000, 0.000, -2.900, 0.0, , , , , , 98, , , 53, 53, 53
38.2001651, -120.0382955, 18.600, 11:15:24.810, 15, 0.00, 0.31, 69, 0.800, -0.200, -36.200, 2, 100, 98, 33, 22543, -19203, 3759, 5529, 9, 14, 1526148924.810, 210, 0, 1024, 1024, 1024, 1024, 0, 6, 3741, 3757, 3773, 3760, 3771, 3756, 0, 1, 11922, -90.000, 0.000, -35.000, 0.000, 0.000, -2.900, 0.0, , , , , , 98, , , 53, 53, 53
38.2001651, -120.0382955, 18.600, 11:15:24.893, 15, 0.00, 0.31, 69, 0.800, -0.200, -36.200, 2, 100, 98, 33, 22543, -19203, 3759, 5529, 9, 14, 1526148924.893, 293, 0, 1024, 1024, 1024, 1024, 0, 6, 3741, 3757, 3773, 3760, 3771, 3756, 0, 1, 12005, -90.000, 0.000, -35.000, 0.000, 0.000, -2.900, 0.0, , , , , , 98, , , 53, 53, 53
38.2001651, -120.0382955, 18.900, 11:15:25.008, 16, 0.00, 0.31, 69, 1.000, -0.200, -36.100, 2, 100, 98, 33, 22543, -19203, 3759, 5529, 9, 14, 1526148925.008, 70, 0, 1024, 1024, 1024, 1024, 0, 6, 3741, 3757, 3773, 3760, 3771, 3756, 0, 1, 12120, -90.000, 0.000, -35.000, 0.000, 0.000, -2.900, 0.0, , , , , , 98, , , 53, 53, 53
38.2001651, -120.0382955, 18.900, 11:15:25.158, 16, 0.00, 0.31, 69, 1.000, -0.200, -36.100, 2, 100, 98, 33, 22543, -19203, 3759, 5529, 9, 14, 1526148925.158, 220, 0, 1024, 1024, 1024, 1024, 0, 6, 3741, 3757, 3773, 3760, 3771, 3756, 0, 1, 12270, -90.000, 0.000, -35.000, 0.000, 0.000, -2.900, 0.0, , , , , , 98, , , 53, 53, 53
38.2001651, -120.0382955, 18.900, 11:15:25.194, 16, 0.00, 0.31, 69, 1.000, -0.200, -36.100, 2, 100, 98, 33, 22543, -19203, 3759, 5529, 9, 14, 1526148925.197, 258, 0, 1024, 1024, 1024, 1024, 0, 6, 3741, 3757, 3773, 3760, 3771, 3756, 0, 1, 12308, -90.000, 0.000, -35.000, 0.000, 0.000, -2.900, 0.0, , , , , , 98, , , 53, 53, 53
38.2001652, -120.0382956, 19.200, 11:15:25.365, 16, 0.00, 0.32, 69, 1.000, -0.200, -36.000, 2, 100, 98, 33, 22543, -19203, 3759, 5529, 9, 14, 1526148925.375, 139, 0, 1024, 1024, 1024, 1024, 0, 6, 3741, 3757, 3773, 3760, 3771, 3756, 0, 1, 12486, -89.900, 0.000, -35.000, 0.000, 0.000, -2.800, 0.0, , , , , , 98, , , 53, 53, 53
38.2001652, -120.0382956, 19.200, 11:15:25.398, 16, 0.00, 0.32, 69, 1.000, -0.200, -36.000, 2, 100, 98, 33, 22543, -19203, 3759, 5529, 9, 14, 1526148925.399, 163, 0, 1024, 1024, 1024, 1024, 0, 6, 3741, 3757, 3773, 3760, 3771, 3756, 0, 1, 12510, -89.900, 0.000, -35.000, 0.000, 0.000, -2.800, 0.0, , , , , , 98, , , 53, 53, 53
38.2001652, -120.0382956, 19.200, 11:15:25.492, 16, 0.00, 0.32, 69, 1.000, -0.200, -36.000, 2, 100, 98, 33, 22543, -19203, 3759, 5529, 9, 14, 1526148925.496, 261, 0, 1024, 1024, 1024, 1024, 0, 6, 3741, 3757, 3773, 3760, 3771, 3756, 0, 1, 12607, -89.900, 0.000, -35.000, 0.000, 0.000, -2.800, 0.0, , , , , , 98, , , 53, 53, 53
38.2001652, -120.0382956, 19.200, 11:15:25.599, 16, 0.00, 0.32, 69, 1.000, -0.200, -36.000, 2, 100, 98, 33, 22543, -19203, 3759, 5529, 9, 14, 1526148925.600, 364, 0, 1024, 1024, 1024, 1024, 0, 6, 3741, 3757, 3773, 3760, 3771, 3756, 0, 1, 12711, -89.900, 0.000, -35.000, 0.000, 0.000, -2.800, 0.0, , , , , , 98, , , 53, 53, 53
38.2001652, -120.0382955, 19.800, 11:15:25.696, 15, 0.00, 0.31, 68, 0.800, 0.200, -35.900, 2, 100, 98, 33, 22543, -19203, 3759, 5529, 9, 14, 1526148925.696, 61, 0, 1024, 1024, 1024, 1024, 0, 6, 3741, 3757, 3773, 3760, 3771, 3756, 0, 1, 12808, -89.900, 0.000, -34.900, 0.000, 0.000, -2.900, 0.0, , , , , , 98, , , 53, 53, 53
38.2001652, -120.0382955, 19.800, 11:15:25.800, 15, 0.00, 0.31, 68, 0.800, 0.200, -35.900, 2, 100, 98, 33, 22543, -19203, 3759, 5529, 9, 14, 1526148925.801, 166, 0, 1024, 1024, 1024, 1024, 0, 6, 3741, 3757, 3773, 3760, 3771, 3756, 0, 1, 12912, -89.900, 0.000, -34.900, 0.000, 0.000, -2.900, 0.0, , , , , , 98, , , 53, 53, 53
38.2001652, -120.0382955, 19.800, 11:15:25.890, 15, 0.00, 0.31, 68, 0.800, 0.200, -35.900, 2, 100, 98, 33, 22543, -19203, 3759, 5529, 9, 14, 1526148925.890, 255, 0, 1024, 1024, 1024, 1024, 0, 6, 3741, 3757, 3773, 3760, 3771, 3756, 0, 1, 13001, -89.900, 0.000, -34.900, 0.000, 0.000, -2.900, 0.0, , , , , , 98, , , 53, 53, 53
38.2001652, -120.0382955, 19.800, 11:15:25.989, 15, 0.00, 0.31, 68, 0.800, 0.200, -35.900, 2, 100, 98, 33, 22543, -19203, 3759, 5529, 9, 14, 1526148925.990, 355, 0, 1024, 1024, 1024, 1024, 0, 6, 3741, 3757, 3773, 3760, 3771, 3756, 0, 1, 13101, -89.900, 0.000, -34.900, 0.000, 0.000, -2.900, 0.0, , , , , , 98, , , 53, 53, 53
38.2001652, -120.0382950, 21.900, 11:15:26.121, 17, 0.00, 0.30, 68, 0.700, -0.100, -35.300, 2, 100, 98, 33, 22543, -19203, 3759, 5529, 9, 14, 1526148926.121, 41, 0, 1024, 1024, 1024, 1024, 0, 6, 3741, 3757, 3773, 3760, 3771, 3756, 0, 1, 13233, -89.900, 0.000, -35.000, 0.000, 0.000, -2.900, 0.0, , , , , , 98, , , 53, 53, 53
38.2001652, -120.0382950, 21.900, 11:15:26.191, 17, 0.00, 0.30, 68, 0.700, -0.100, -35.300, 2, 100, 98, 33, 22543, -19203, 3759, 5529, 9, 14, 1526148926.191, 110, 0, 1024, 1024, 1024, 1024, 0, 6, 3741, 3757, 3773, 3760, 3771, 3756, 0, 1, 13302, -89.900, 0.000, -35.000, 0.000, 0.000, -2.900, 0.0, , , , , , 98, , , 53, 53, 53
38.2001652, -120.0382950, 21.900, 11:15:26.290, 17, 0.00, 0.30, 68, 0.700, -0.100, -35.300, 2, 100, 98, 33, 22543, -19203, 3759, 5529, 9, 14, 1526148926.290, 210, 0, 1024, 1024, 1024, 1024, 0, 6, 3741, 3757, 3773, 3760, 3771, 3756, 0, 1, 13402, -89.900, 0.000, -35.000, 0.000, 0.000, -2.900, 0.0, , , , , , 98, , , 53, 53, 53
38.2001652, -120.0382950, 21.900, 11:15:26.389, 17, 0.00, 0.30, 68, 0.700, -0.100, -35.300, 2, 100, 98, 33, 22543, -19203, 3759, 5529, 9, 14, 1526148926.391, 310, 0, 1024, 1024, 1024, 1024, 0, 6, 3741, 3757, 3773, 3760, 3771, 3756, 0, 1, 13502, -89.900, 0.000, -35.000, 0.000, 0.000, -2.900, 0.0, , , , , , 98, , , 53, 53, 53
38.2001652, -120.0382947, 23.300, 11:15:26.489, 16, 0.00, 0.29, 68, 0.000, -0.500, -37.200, 2, 100, 96, 33, 22543, -19203, 3759, 5529, 9, 14, 1526148926.489, 22, 0, 1024, 1024, 1024, 1024, 0, 6, 3741, 3757, 3773, 3760, 3771, 3756, 0, 1, 13600, -90.000, 0.000, -35.000, 0.000, 0.000, -2.900, 0.0, , , , , , 98, , , 53, 53, 53
38.2001652, -120.0382947, 24.300, 11:15:26.589, 17, 0.00, 0.29, 68, 0.900, -0.300, -36.200, 2, 100, 96, 33, 22545, -18634, 3759, 5529, 9, 14, 1526148926.590, 30, 0, 1024, 1024, 1024, 1024, 0, 6, 3741, 3757, 3773, 3760, 3771, 3756, 0, 1, 13701, -90.000, 0.000, -35.000, 0.000, 0.000, -2.900, 0.0, , , , , , 98, , , 53, 53, 53
38.2001652, -120.0382947, 24.300, 11:15:26.690, 17, 0.00, 0.29, 68, 0.900, -0.300, -36.200, 2, 100, 96, 33, 22545, -18634, 3759, 5529, 9, 14, 1526148926.690, 130, 0, 1024, 1024, 1024, 1024, 0, 6, 3741, 3757, 3773, 3760, 3771, 3756, 0, 1, 13801, -90.000, 0.000, -35.000, 0.000, 0.000, -2.900, 0.0, , , , , , 98, , , 53, 53, 53
38.2001652, -120.0382946, 24.500, 11:15:26.810, 17, 0.00, 0.29, 68, 0.800, -0.200, -35.900, 2, 100, 92, 33, 22545, -18634, 3759, 5529, 9, 14, 1526148926.810, 5, 0, 1024, 1024, 1024, 1024, 0, 6, 3741, 3757, 3773, 3760, 3771, 3756, 0, 1, 13922, -89.900, 0.000, -34.900, 0.000, 0.000, -2.900, 0.0, , , , , , 98, , , 53, 53, 53
38.2001652, -120.0382946, 24.500, 11:15:26.897, 17, 0.00, 0.29, 68, 0.800, -0.200, -35.900, 2, 100, 92, 33, 22545, -18634, 3759, 5529, 9, 14, 1526148926.898, 92, 0, 1024, 1024, 1024, 1024, 0, 6, 3737, 3749, 3771, 3757, 3772, 3752, 0, 1, 14009, -89.900, 0.000, -34.900, 0.000, 0.000, -2.900, 0.0, , , , , , 98, , , 53, 53, 53
38.2001652, -120.0382946, 24.500, 11:15:26.995, 17, 0.00, 0.29, 68, 0.800, -0.200, -35.900, 2, 100, 92, 33, 22545, -18634, 3759, 5529, 9, 14, 1526148926.997, 191, 0, 1024, 1024, 1024, 1024, 0, 6, 3737, 3749, 3771, 3757, 3772, 3752, 0, 1, 14108, -89.900, 0.000, -34.900, 0.000, 0.000, -2.900, 0.0, , , , , , 98, , , 53, 53, 53
38.2001652, -120.0382945, 24.800, 11:15:27.097, 17, 0.00, 0.29, 68, 0.500, -0.100, -35.800, 2, 100, 92, 33, 22545, -18634, 3759, 5529, 9, 14, 1526148927.102, 52, 0, 1024, 1024, 1024, 1024, 0, 6, 3737, 3749, 3771, 3757, 3772, 3752, 0, 1, 14213, -90.000, 0.000, -35.000, 0.000, 0.000, -2.900, 0.0, , , , , , 98, , , 53, 53, 53
38.2001652, -120.0382945, 24.800, 11:15:27.193, 17, 0.00, 0.29, 68, 0.500, -0.100, -35.800, 2, 100, 92, 33, 22545, -18634, 3759, 5529, 9, 14, 1526148927.194, 145, 0, 1024, 1024, 1024, 1024, 0, 6, 3737, 3749, 3771, 3757, 3772, 3752, 0, 1, 14305, -90.000, 0.000, -35.000, 0.000, 0.000, -2.900, 0.0, , , , , , 98, , , 53, 53, 53
38.2001653, -120.0382943, 25.400, 11:15:27.315, 17, 0.00, 0.29, 68, -0.500, -0.200, -35.900, 2, 100, 92, 33, 22545, -18634, 3759, 5529, 9, 14, 1526148927.315, 5, 0, 1024, 1024, 1024, 1024, 0, 6, 3737, 3749, 3771, 3757, 3772, 3752, 0, 1, 14427, -90.000, 0.000, -35.000, 0.000, 0.000, -2.900, 0.0, , , , , , 98, , , 53, 53, 53
38.2001653, -120.0382943, 25.400, 11:15:27.416, 17, 0.00, 0.29, 68, -0.500, -0.200, -35.900, 2, 100, 92, 33, 22545, -18634, 3759, 5529, 9, 14, 1526148927.416, 106, 0, 1024, 1024, 1024, 1024, 0, 6, 3737, 3749, 3771, 3757, 3772, 3752, 0, 1, 14527, -90.000, 0.000, -35.000, 0.000, 0.000, -2.900, 0.0, , , , , , 98, , , 53, 53, 53
38.2001653, -120.0382941, 26.000, 11:15:27.490, 17, 0.00, 0.29, 68, -1.100, -0.400, -36.300, 2, 100, 91, 33, 22545, -18634, 3759, 5529, 9, 14, 1526148927.491, 8, 0, 1024, 1024, 1024, 1024, 0, 6, 3737, 3749, 3771, 3757, 3772, 3752, 0, 1, 14602, -90.000, 0.000, -35.000, 0.000, 0.000, -2.900, 0.0, , , , , , 98, , , 53, 53, 53
38.2001653, -120.0382941, 26.000, 11:15:27.638, 17, 0.00, 0.29, 68, -1.100, -0.400, -36.300, 2, 100, 91, 33, 22545, -18634, 3759, 5529, 9, 14, 1526148927.639, 155, 0, 1024, 1024, 1024, 1024, 0, 6, 3741, 3752, 3764, 3753, 3763, 3758, 0, 1, 14750, -90.000, 0.000, -35.000, 0.000, 0.000, -2.900, 0.0, , , , , , 98, , , 53, 53, 53
38.2001653, -120.0382941, 26.000, 11:15:27.691, 17, 0.00, 0.29, 68, -1.100, -0.400, -36.300, 2, 100, 91, 33, 22545, -18634, 3759, 5529, 9, 14, 1526148927.692, 209, 0, 1024, 1024, 1024, 1024, 0, 6, 3741, 3752, 3764, 3753, 3763, 3758, 0, 1, 14803, -90.000, 0.000, -35.000, 0.000, 0.000, -2.900, 0.0, , , , , , 98, , , 53, 53, 53
38.2001653, -120.0382940, 26.800, 11:15:27.797, 17, 0.00, 0.30, 68, -0.500, -0.400, -36.300, 2, 100, 91, 33, 22545, -18634, 3759, 5529, 9, 14, 1526148927.798, 56, 0, 1024, 1024, 1024, 1024, 0, 6, 3741, 3752, 3764, 3753, 3763, 3758, 0, 1, 14909, -90.000, 0.000, -35.000, 0.000, 0.000, -3.000, 0.0, , , , , , 98, , , 53, 53, 53
38.2001653, -120.0382940, 26.800, 11:15:27.911, 17, 0.00, 0.30, 68, -0.500, -0.400, -36.300, 2, 100, 91, 33, 22545, -18634, 3759, 5529, 9, 14, 1526148927.911, 170, 0, 1024, 1024, 1024, 1024, 0, 6, 3741, 3752, 3764, 3753, 3763, 3758, 0, 1, 15023, -90.000, 0.000, -35.000, 0.000, 0.000, -3.000, 0.0, , , , , , 98, , , 53, 53, 53
38.2001653, -120.0382940, 27.100, 11:15:28.000, 17, 0.00, 0.30, 68, -0.400, -0.500, -36.200, 2, 100, 91, 33, 22545, -18634, 3759, 5529, 9, 14, 1526148928.000, 16, 0, 1024, 1024, 1024, 1024, 0, 6, 3741, 3752, 3764, 3753, 3763, 3758, 0, 1, 15111, -90.000, 0.000, -35.000, 0.000, 0.000, -2.900, 0.0, , , , , , 98, , , 53, 53, 53
38.2001653, -120.0382939, 28.000, 11:15:28.109, 17, 0.00, 0.29, 68, -0.300, -0.500, -36.000, 2, 100, 91, 33, 22545, -18634, 3759, 5529, 9, 14, 1526148928.109, 12, 0, 1024, 1024, 1024, 1024, 0, 6, 3741, 3752, 3764, 3753, 3763, 3758, 0, 1, 15220, -90.000, 0.000, -35.000, 0.000, 0.000, -3.000, 0.0, , , , , , 98, , , 53, 53, 53
38.2001653, -120.0382939, 28.000, 11:15:28.192, 17, 0.00, 0.29, 68, -0.300, -0.500, -36.000, 2, 100, 91, 33, 22545, -18634, 3759, 5529, 9, 14, 1526148928.193, 95, 0, 1024, 1024, 1024, 1024, 0, 6, 3741, 3752, 3764, 3753, 3763, 3758, 0, 1, 15304, -90.000, 0.000, -35.000, 0.000, 0.000, -3.000, 0.0, , , , , , 98, , , 53, 53, 53
38.2001653, -120.0382939, 28.300, 11:15:28.289, 17, 0.00, 0.29, 68, -0.300, -0.600, -35.900, 2, 100, 91, 33, 22545, -18634, 3759, 5529, 9, 14, 1526148928.290, 32, 0, 1024, 1024, 1024, 1024, 0, 6, 3741, 3752, 3764, 3753, 3763, 3758, 0, 1, 15401, -90.000, 0.000, -35.000, 0.000, 0.000, -3.000, 0.0, , , , , , 98, , , 53, 53, 53
38.2001653, -120.0382939, 28.300, 11:15:28.397, 17, 0.00, 0.29, 68, -0.300, -0.600, -35.900, 2, 100, 91, 33, 22545, -18634, 3759, 5529, 9, 14, 1526148928.397, 139, 0, 1024, 1024, 1024, 1024, 0, 6, 3741, 3752, 3764, 3753, 3763, 3758, 0, 1, 15509, -90.000, 0.000, -35.000, 0.000, 0.000, -3.000, 0.0, , , , , , 98, , , 53, 53, 53
38.2001650, -120.0382940, 29.500, 11:15:28.497, 17, 0.00, 0.26, 68, 0.300, -0.900, -36.100, 2, 100, 91, 33, 22545, -18634, 3759, 5529, 9, 14, 1526148928.497, 6, 0, 1024, 1024, 1024, 1024, 0, 6, 3741, 3752, 3764, 3753, 3763, 3758, 0, 1, 15609, -90.000, 0.000, -35.000, 0.000, 0.000, -3.000, 0.0, , , , , , 98, , , 53, 53, 53
38.2001649, -120.0382941, 30.100, 11:15:28.589, 17, 0.00, 0.25, 68, 0.400, -1.100, -36.100, 2, 100, 91, 33, 22522, -18498, 3759, 5529, 9, 14, 1526148928.590, 7, 0, 1024, 1024, 1024, 1024, 0, 6, 3741, 3752, 3764, 3753, 3763, 3758, 0, 1, 15701, -90.000, 0.000, -35.000, 0.000, 0.000, -3.000, 0.0, , , , , , 98, , , 53, 53, 53
38.2001649, -120.0382940, 30.400, 11:15:28.690, 17, 0.00, 0.24, 68, 0.500, -1.300, -36.000, 2, 100, 93, 33, 22522, -18498, 3759, 5529, 9, 14, 1526148928.690, 82, 0, 1024, 1024, 1024, 1024, 0, 6, 3741, 3752, 3764, 3753, 3763, 3758, 0, 1, 15801, -90.000, 0.000, -35.000, 0.000, 0.000, -3.000, 0.0, , , , , , 98, , , 53, 53, 53
38.2001649, -120.0382940, 30.400, 11:15:28.790, 17, 0.00, 0.24, 68, 0.500, -1.300, -36.000, 2, 100, 93, 33, 22522, -18498, 3759, 5529, 9, 14, 1526148928.790, 182, 0, 1024, 1024, 1024, 1024, 0, 6, 3737, 3749, 3764, 3754, 3763, 3752, 0, 1, 15902, -90.000, 0.000, -34.900, 0.000, 0.000, -3.000, 0.0, , , , , , 98, , , 53, 53, 53
38.2001648, -120.0382941, 31.000, 11:15:28.890, 17, 0.00, 0.23, 68, 0.300, -1.500, -35.700, 2, 100, 93, 33, 22522, -18498, 3759, 5529, 9, 14, 1526148928.890, 30, 0, 1024, 1024, 1024, 1024, 0, 6, 3737, 3749, 3764, 3754, 3763, 3752, 0, 1, 16002, -90.000, 0.000, -34.900, 0.000, 0.000, -3.000, 0.0, , , , , , 98, , , 53, 53, 53
38.2001647, -120.0382941, 31.600, 11:15:28.989, 17, 0.00, 0.22, 68, 0.200, -1.200, -35.500, 2, 100, 93, 33, 22499, -18434, 3759, 5529, 9, 14, 1526148928.989, 28, 0, 1024, 1024, 1024, 1024, 0, 6, 3737, 3749, 3764, 3754, 3763, 3752, 0, 1, 16100, -90.000, 0.000, -35.000, 0.000, 0.000, -3.000, 0.0, , , , , , 98, , , 53, 53, 53
38.2001646, -120.0382941, 32.000, 11:15:29.097, 17, 0.00, 0.22, 68, 0.300, -1.200, -35.400, 2, 100, 91, 33, 22499, -18434, 3759, 5529, 9, 14, 1526148929.097, 11, 0, 1024, 1024, 1024, 1024, 0, 6, 3737, 3749, 3764, 3754, 3763, 3752, 0, 1, 16209, -90.000, 0.000, -35.000, 0.000, 0.000, -3.000, 0.0, , , , , , 98, , , 53, 53, 53
38.2001646, -120.0382941, 32.300, 11:15:29.190, 17, 0.00, 0.21, 68, 0.400, -1.100, -35.400, 2, 100, 91, 33, 22499, -18434, 3759, 5529, 9, 14, 1526148929.190, 16, 0, 1024, 1024, 1024, 1024, 0, 6, 3734, 3737, 3765, 3759, 3769, 3746, 0, 1, 16302, -90.000, 0.000, -35.000, 0.000, 0.000, -2.900, 0.0, , , , , , 98, , , 53, 53, 53
38.2001646, -120.0382941, 32.300, 11:15:29.290, 17, 0.00, 0.21, 68, 0.400, -1.100, -35.400, 2, 100, 91, 33, 22499, -18434, 3759, 5529, 9, 14, 1526148929.290, 116, 0, 1024, 1024, 1024, 1024, 0, 6, 3734, 3737, 3765, 3759, 3769, 3746, 0, 1, 16401, -90.000, 0.000, -35.000, 0.000, 0.000, -2.900, 0.0, , , , , , 98, , , 53, 53, 53
38.2001645, -120.0382941, 32.500, 11:15:29.390, 17, 0.00, 0.21, 68, 0.400, -1.100, -35.400, 2, 100, 91, 33, 22499, -18434, 3759, 5529, 9, 14, 1526148929.390, 94, 0, 1024, 1024, 1024, 1024, 0, 6, 3734, 3737, 3765, 3759, 3769, 3746, 0, 1, 16501, -90.000, 0.000, -35.000, 0.000, 0.000, -2.900, 0.0, , , , , , 98, , , 53, 53, 53
38.2001644, -120.0382941, 33.400, 11:15:29.489, 17, 0.00, 0.19, 68, 0.000, -1.300, -35.700, 2, 100, 91, 33, 22499, -18434, 3759, 5529, 9, 14, 1526148929.489, 6, 0, 1024, 1024, 1024, 1024, 0, 6, 3734, 3737, 3765, 3759, 3769, 3746, 0, 1, 16600, -90.000, 0.000, -35.000, 0.000, 0.000, -3.000, 0.0, , , , , , 98, , , 53, 53, 53
38.2001644, -120.0382941, 33.400, 11:15:29.590, 17, 0.00, 0.19, 68, 0.000, -1.300, -35.700, 2, 100, 91, 33, 22499, -18434, 3759, 5529, 9, 14, 1526148929.590, 107, 0, 1024, 1024, 1024, 1024, 0, 6, 3734, 3737, 3765, 3759, 3769, 3746, 0, 1, 16701, -90.000, 0.000, -35.000, 0.000, 0.000, -3.000, 0.0, , , , , , 98, , , 53, 53, 53
38.2001644, -120.0382941, 33.400, 11:15:29.690, 17, 0.00, 0.19, 68, 0.000, -1.300, -35.700, 2, 100, 91, 33, 22499, -18434, 3759, 5529, 9, 14, 1526148929.690, 207, 0, 1024, 1024, 1024, 1024, 0, 6, 3734, 3737, 3765, 3759, 3769, 3746, 0, 1, 16801, -90.000, 0.000, -35.000, 0.000, 0.000, -3.000, 0.0, , , , , , 98, , , 53, 53, 53
38.2001644, -120.0382940, 34.000, 11:15:29.790, 18, 0.00, 0.19, 68, -0.200, -1.700, -36.000, 2, 100, 91, 33, 22499, -18434, 3759, 5529, 9, 14, 1526148929.790, 78, 0, 1024, 1024, 1024, 1024, 0, 6, 3734, 3737, 3765, 3759, 3769, 3746, 0, 1, 16901, -90.000, 0.000, -35.000, 0.000, 0.000, -3.000, 0.0, , , , , , 98, , , 53, 53, 53
38.2001643, -120.0382940, 34.300, 11:15:29.889, 18, 0.00, 0.19, 68, -0.200, -1.500, -35.900, 2, 100, 91, 33, 22499, -18434, 3759, 5529, 9, 14, 1526148929.890, 80, 0, 1024, 1024, 1024, 1024, 0, 6, 3734, 3737, 3765, 3759, 3769, 3746, 0, 1, 17001, -90.000, 0.000, -35.000, 0.000, 0.000, -3.000, 0.0, , , , , , 98, , , 53, 53, 53
38.2001643, -120.0382940, 34.600, 11:15:29.990, 18, 0.00, 0.18, 68, -0.200, -1.300, -35.800, 2, 100, 91, 33, 22513, -17872, 3759, 5529, 9, 14, 1526148929.990, 84, 0, 1024, 1024, 1024, 1024, 0, 6, 3734, 3744, 3765, 3753, 3765, 3750, 0, 1, 17101, -90.000, 0.000, -35.000, 0.000, 0.000, -3.000, 0.0, , , , , , 98, , , 53, 53, 53
38.2001643, -120.0382940, 34.600, 11:15:30.090, 18, 0.00, 0.18, 68, -0.200, -1.300, -35.800, 2, 100, 84, 33, 22513, -17872, 3759, 5529, 9, 14, 1526148930.090, 184, 0, 1024, 1024, 1024, 1024, 0, 6, 3734, 3744, 3765, 3753, 3765, 3750, 0, 1, 17201, -90.000, 0.000, -35.000, 0.000, 0.000, -3.000, 0.0, , , , , , 98, , , 53, 53, 53
38.2001642, -120.0382940, 35.200, 11:15:30.190, 18, 0.00, 0.17, 68, -0.200, -1.500, -36.000, 2, 100, 84, 33, 22513, -17872, 3759, 5529, 9, 14, 1526148930.190, 51, 0, 1024, 1024, 1024, 1024, 0, 6, 3734, 3744, 3765, 3753, 3765, 3750, 0, 1, 17302, -90.000, 0.000, -35.000, 0.000, 0.000, -3.000, 0.0, , , , , , 98, , , 53, 53, 53
38.2001642, -120.0382940, 35.500, 11:15:30.289, 18, 0.00, 0.17, 68, -0.300, -2.000, -36.000, 2, 100, 84, 33, 22513, -17872, 3759, 5529, 9, 14, 1526148930.290, 79, 0, 1024, 1024, 1024, 1024, 0, 6, 3734, 3744, 3765, 3753, 3765, 3750, 0, 1, 17401, -90.000, 0.000, -35.000, 0.000, 0.000, -3.000, 0.0, , , , , , 98, , , 53, 53, 53
38.2001642, -120.0382940, 35.500, 11:15:30.390, 18, 0.00, 0.17, 68, -0.300, -2.000, -36.000, 2, 100, 84, 33, 22513, -17872, 3759, 5529, 9, 14, 1526148930.390, 180, 0, 1024, 1024, 1024, 1024, 0, 6, 3734, 3744, 3765, 3753, 3765, 3750, 0, 1, 17502, -90.000, 0.000, -35.000, 0.000, 0.000, -3.000, 0.0, , , , , , 98, , , 53, 53, 53
38.2001640, -120.0382940, 36.100, 11:15:30.489, 18, 0.00, 0.15, 68, 0.800, -1.900, -35.400, 2, 100, 84, 33, 22513, -17872, 3759, 5529, 9, 14, 1526148930.489, 45, 0, 1024, 1024, 1024, 1024, 0, 6, 3734, 3744, 3765, 3753, 3765, 3750, 0, 1, 17601, -90.000, 0.000, -34.900, 0.000, 0.000, -3.000, 0.0, , , , , , 98, , , 53, 53, 53
38.2001640, -120.0382940, 36.400, 11:15:30.590, 18, 0.00, 0.14, 68, 0.800, -2.000, -35.300, 2, 100, 86, 33, 22513, -17872, 3759, 5529, 9, 14, 1526148930.590, 71, 0, 1024, 1024, 1024, 1024, 0, 6, 3734, 3744, 3765, 3753, 3765, 3750, 0, 1, 17701, -90.000, 0.000, -35.000, 0.000, 0.000, -2.900, 0.0, , , , , , 98, , , 53, 53, 53
38.2001639, -120.0382940, 36.800, 11:15:30.690, 18, 0.00, 0.14, 68, 0.400, -2.300, -35.200, 2, 100, 86, 33, 22513, -17872, 3759, 5529, 9, 14, 1526148930.690, 52, 0, 1024, 1024, 1024, 1024, 0, 6, 3734, 3744, 3765, 3753, 3765, 3750, 0, 1, 17802, -90.000, 0.000, -35.000, 0.000, 0.000, -3.000, 0.0, , , , , , 98, , , 53, 53, 53
38.2001639, -120.0382940, 36.800, 11:15:30.790, 18, 0.00, 0.14, 68, 0.400, -2.300, -35.200, 2, 100, 86, 33, 22513, -17872, 3759, 5529, 9, 14, 1526148930.791, 152, 0, 1024, 1024, 1024, 1024, 0, 6, 3734, 3744, 3765, 3753, 3765, 3750, 0, 1, 17902, -90.000, 0.000, -35.000, 0.000, 0.000, -3.000, 0.0, , , , , , 98, , , 53, 53, 53
38.2001639, -120.0382940, 36.800, 11:15:30.893, 18, 0.00, 0.14, 68, 0.400, -2.300, -35.200, 2, 100, 86, 33, 22513, -17872, 3759, 5529, 9, 14, 1526148930.894, 255, 0, 1024, 1024, 1024, 1024, 0, 6, 3734, 3744, 3765, 3753, 3765, 3750, 0, 1, 18005, -90.000, 0.000, -35.000, 0.000, 0.000, -3.000, 0.0, , , , , , 98, , , 53, 53, 53
38.2001638, -120.0382938, 37.400, 11:15:31.001, 18, 0.00, 0.13, 68, -0.300, -2.500, -35.600, 2, 100, 86, 33, 22513, -17872, 3759, 5529, 9, 14, 1526148931.003, 103, 0, 1024, 1024, 1024, 1024, 0, 6, 3734, 3744, 3765, 3753, 3765, 3750, 0, 1, 18114, -90.000, 0.000, -35.000, 0.000, 0.000, -3.000, 0.0, , , , , , 98, , , 53, 53, 53
38.2001638, -120.0382938, 37.700, 11:15:31.100, 18, 0.00, 0.12, 68, -0.700, -2.700, -35.700, 2, 100, 86, 33, 22494, -18070, 3759, 5529, 9, 14, 1526148931.100, 75, 0, 1024, 1024, 1024, 1024, 0, 6, 3736, 3743, 3760, 3742, 3751, 3747, 0, 1, 18211, -90.000, 0.000, -35.000, 0.000, 0.000, -3.000, 0.0, , , , , , 98, , , 53, 53, 53
38.2001638, -120.0382937, 38.000, 11:15:31.193, 19, 0.00, 0.12, 68, -1.000, -2.800, -35.800, 2, 100, 91, 33, 22494, -18070, 3759, 5529, 9, 14, 1526148931.193, 6, 0, 1024, 1024, 1024, 1024, 0, 6, 3736, 3743, 3760, 3742, 3751, 3747, 0, 1, 18304, -90.000, 0.000, -35.000, 0.000, 0.000, -3.000, 0.0, , , , , , 98, , , 53, 53, 53
38.2001638, -120.0382936, 38.300, 11:15:31.297, 19, 0.00, 0.13, 68, -1.100, -2.800, -35.800, 2, 100, 91, 33, 22494, -18070, 3759, 5529, 9, 14, 1526148931.298, 64, 0, 1024, 1024, 1024, 1024, 0, 6, 3736, 3743, 3760, 3742, 3751, 3747, 0, 1, 18409, -90.000, 0.000, -35.000, 0.000, 0.000, -3.000, 0.0, , , , , , 98, , , 53, 53, 53
38.2001638, -120.0382936, 38.300, 11:15:31.397, 19, 0.00, 0.13, 68, -1.100, -2.800, -35.800, 2, 100, 91, 33, 22494, -18070, 3759, 5529, 9, 14, 1526148931.398, 164, 0, 1024, 1024, 1024, 1024, 0, 6, 3736, 3743, 3760, 3742, 3751, 3747, 0, 1, 18509, -90.000, 0.000, -35.000, 0.000, 0.000, -3.000, 0.0, , , , , , 98, , , 53, 53, 53
38.2001638, -120.0382934, 38.900, 11:15:31.490, 19, 0.00, 0.13, 68, -1.500, -2.500, -35.800, 2, 100, 91, 33, 22494, -18070, 3759, 5529, 9, 14, 1526148931.492, 27, 0, 1024, 1024, 1024, 1024, 0, 6, 3736, 3743, 3760, 3742, 3751, 3747, 0, 1, 18603, -90.000, 0.000, -35.000, 0.000, 0.000, -2.900, 0.0, , , , , , 98, , , 53, 53, 53
38.2001638, -120.0382933, 39.300, 11:15:31.590, 19, 0.00, 0.13, 68, -1.500, -2.400, -35.700, 2, 100, 91, 33, 22494, -18070, 3759, 5529, 9, 14, 1526148931.590, 19, 0, 1024, 1024, 1024, 1024, 0, 6, 3736, 3743, 3760, 3742, 3751, 3747, 0, 1, 18702, -90.000, 0.000, -35.000, 0.000, 0.000, -3.000, 0.0, , , , , , 98, , , 53, 53, 53
38.2001638, -120.0382932, 39.600, 11:15:31.689, 19, 0.00, 0.14, 68, -1.600, -2.400, -35.700, 2, 100, 94, 33, 22494, -18070, 3759, 5529, 9, 14, 1526148931.690, 61, 0, 1024, 1024, 1024, 1024, 0, 6, 3736, 3743, 3760, 3742, 3751, 3747, 0, 1, 18801, -90.000, 0.000, -35.000, 0.000, 0.000, -3.000, 0.0, , , , , , 98, , , 53, 53, 53
38.2001638, -120.0382929, 40.200, 11:15:31.792, 19, 0.00, 0.15, 68, -1.900, -3.700, -35.600, 2, 100, 94, 33, 22494, -18070, 3759, 5529, 9, 14, 1526148931.793, 5, 0, 1024, 1024, 1024, 1024, 0, 6, 3736, 3743, 3760, 3742, 3751, 3747, 0, 1, 18904, -90.000, 0.000, -35.000, 0.000, 0.000, -2.900, 0.0, , , , , , 98, , , 53, 53, 53
38.2001638, -120.0382927, 40.800, 11:15:31.893, 19, 0.00, 0.15, 68, -2.000, -3.200, -35.500, 2, 100, 94, 33, 22494, -18070, 3759, 5529, 9, 14, 1526148931.893, 5, 0, 1024, 1024, 1024, 1024, 0, 6, 3736, 3743, 3760, 3742, 3751, 3747, 0, 1, 19005, -89.900, 0.000, -35.000, 0.000, 0.000, -2.800, 0.0, , , , , , 98, , , 53, 53, 53
38.2001638, -120.0382927, 40.800, 11:15:31.989, 19, 0.00, 0.15, 68, -2.000, -3.200, -35.500, 2, 100, 94, 33, 22494, -18070, 3759, 5529, 9, 14, 1526148931.990, 101, 0, 1024, 1024, 1024, 1024, 0, 6, 3736, 3743, 3760, 3742, 3751, 3747, 0, 1, 19101, -89.900, 0.000, -35.000, 0.000, 0.000, -2.800, 0.0, , , , , , 98, , , 53, 53, 53
38.2001638, -120.0382927, 40.800, 11:15:32.090, 19, 0.00, 0.15, 68, -2.000, -3.200, -35.500, 2, 100, 94, 33, 22467, -18008, 3759, 5529, 9, 14, 1526148932.090, 201, 0, 1024, 1024, 1024, 1024, 0, 6, 3736, 3743, 3760, 3742, 3751, 3747, 0, 1, 19201, -89.900, 0.000, -35.000, 0.000, 0.000, -2.800, 0.0, , , , , , 98, , , 53, 53, 53
38.2001638, -120.0382927, 40.800, 11:15:32.190, 19, 0.00, 0.15, 68, -2.000, -3.200, -35.500, 2, 100, 94, 33, 22467, -18008, 3759, 5529, 9, 14, 1526148932.191, 302, 0, 1024, 1024, 1024, 1024, 0, 6, 3736, 3743, 3760, 3742, 3751, 3747, 0, 1, 19302, -89.900, 0.000, -35.000, 0.000, 0.000, -2.800, 0.0, , , , , , 98, , , 53, 53, 53
38.2001638, -120.0382924, 41.700, 11:15:32.290, 19, 0.00, 0.17, 68, -2.400, -2.800, -35.500, 2, 100, 94, 33, 22467, -18008, 3759, 5529, 9, 14, 1526148932.290, 57, 0, 1024, 1024, 1024, 1024, 0, 6, 3736, 3743, 3760, 3742, 3751, 3747, 0, 1, 19401, -89.900, 0.000, -35.000, 0.000, 0.000, -2.900, 0.0, , , , , , 98, , , 53, 53, 53
38.2001638, -120.0382923, 42.000, 11:15:32.390, 19, 0.00, 0.18, 68, -2.400, -3.500, -35.300, 2, 100, 94, 33, 22467, -18008, 3759, 5529, 9, 14, 1526148932.390, 82, 0, 1024, 1024, 1024, 1024, 0, 6, 3736, 3743, 3760, 3742, 3751, 3747, 0, 1, 19501, -89.900, 0.000, -35.000, 0.000, 0.000, -2.800, 0.0, , , , , , 98, , , 53, 53, 53
38.2001637, -120.0382921, 42.300, 11:15:32.489, 19, 0.00, 0.19, 68, -2.800, -4.000, -35.200, 2, 100, 94, 33, 22467, -18008, 3759, 5529, 9, 14, 1526148932.489, 84, 0, 1024, 1024, 1024, 1024, 0, 6, 3727, 3734, 3766, 3746, 3758, 3740, 0, 1, 19601, -89.900, 0.000, -35.000, 0.000, 0.000, -2.800, 0.0, , , , , , 98, , , 53, 53, 53
38.2001637, -120.0382920, 42.600, 11:15:32.590, 19, 0.00, 0.19, 68, -2.800, -4.100, -35.300, 2, 100, 93, 33, 22467, -18008, 3759, 5529, 9, 14, 1526148932.590, 63, 0, 1024, 1024, 1024, 1024, 0, 6, 3727, 3734, 3766, 3746, 3758, 3740, 0, 1, 19702, -89.900, 0.000, -35.100, 0.000, 0.000, -2.800, 0.0, , , , , , 98, , , 53, 53, 53
38.2001637, -120.0382919, 42.800, 11:15:32.690, 19, 0.00, 0.20, 68, -2.600, -4.000, -35.400, 2, 100, 93, 33, 22467, -18008, 3759, 5529, 9, 14, 1526148932.690, 43, 0, 1024, 1024, 1024, 1024, 0, 6, 3727, 3734, 3766, 3746, 3758, 3740, 0, 1, 19801, -89.900, 0.000, -35.100, 0.000, 0.000, -2.800, 0.0, , , , , , 98, , , 53, 53, 53
38.2001638, -120.0382918, 43.100, 11:15:32.790, 19, 0.00, 0.21, 68, -2.700, -3.800, -35.500, 2, 100, 93, 33, 22467, -18008, 3759, 5529, 9, 14, 1526148932.790, 28, 0, 1024, 1024, 1024, 1024, 0, 6, 3727, 3734, 3766, 3746, 3758, 3740, 0, 1, 19901, -89.900, 0.000, -35.100, 0.000, 0.000, -2.800, 0.0, , , , , , 98, , , 53, 53, 53
38.2001638, -120.0382917, 43.400, 11:15:32.890, 19, 0.00, 0.22, 68, -3.000, -3.600, -35.700, 2, 100, 93, 33, 22467, -18008, 3759, 5529, 9, 14, 1526148932.890, 52, 0, 1024, 1024, 1024, 1024, 0, 6, 3727, 3734, 3766, 3746, 3758, 3740, 0, 1, 20001, -89.900, 0.000, -35.100, 0.000, 0.000, -2.800, 0.0, , , , , , 98, , , 53, 53, 53
38.2001639, -120.0382916, 43.700, 11:15:32.990, 19, 0.10, 0.24, 68, -3.800, -3.300, -36.100, 2, 100, 93, 33, 22467, -18008, 3759, 5529, 9, 14, 1526148932.990, 46, 0, 1024, 1024, 1024, 1024, 0, 6, 3727, 3734, 3766, 3746, 3758, 3740, 0, 1, 20101, -89.900, 0.000, -35.100, 0.100, 0.000, -2.900, 0.0, , , , , , 98, , , 53, 53, 53
38.2001640, -120.0382915, 44.000, 11:15:33.089, 19, 0.10, 0.25, 68, -4.700, -3.300, -36.400, 2, 100, 95, 33, 22467, -18008, 3759, 5529, 9, 14, 1526148933.091, 37, 0, 1024, 1024, 1024, 1024, 0, 6, 3727, 3734, 3766, 3746, 3758, 3740, 0, 1, 20202, -89.900, 0.000, -35.100, 0.100, 0.000, -2.800, 0.0, , , , , , 98, , , 53, 53, 53
38.2001642, -120.0382914, 44.300, 11:15:33.190, 19, 0.10, 0.27, 68, -5.200, -2.700, -36.700, 2, 100, 95, 33, 22467, -18008, 3759, 5529, 9, 14, 1526148933.190, 36, 0, 1024, 1024, 1024, 1024, 0, 6, 3727, 3734, 3766, 3746, 3758, 3740, 0, 1, 20302, -89.900, 0.000, -35.100, 0.100, 0.000, -2.800, 0.0, , , , , , 98, , , 53, 53, 53
38.2001643, -120.0382914, 44.600, 11:15:33.290, 19, 0.10, 0.28, 68, -4.800, -2.000, -36.800, 2, 100, 95, 33, 22467, -18008, 3759, 5529, 9, 14, 1526148933.290, 16, 0, 1024, 1024, 1024, 1024, 0, 6, 3727, 3734, 3766, 3746, 3758, 3740, 0, 1, 20402, -89.900, 0.000, -35.100, 0.100, 0.000, -2.800, 0.0, , , , , , 98, , , 53, 53, 53
38.2001644, -120.0382914, 44.800, 11:15:33.389, 19, 0.00, 0.29, 68, -4.200, -2.000, -36.700, 2, 100, 95, 33, 22467, -18008, 3759, 5529, 9, 14, 1526148933.389, 45, 0, 1024, 1024, 1024, 1024, 0, 6, 3727, 3734, 3766, 3746, 3758, 3740, 0, 1, 20501, -89.900, 0.000, -35.100, 0.000, 0.000, -2.800, 0.0, , , , , , 98, , , 53, 53, 53
38.2001644, -120.0382914, 45.100, 11:15:33.489, 19, 0.00, 0.29, 68, -3.500, -2.000, -36.400, 2, 100, 95, 33, 22499, -19785, 3759, 5529, 9, 14, 1526148933.489, 24, 0, 1024, 1024, 1024, 1024, 0, 6, 3699, 3714, 3753, 3738, 3754, 3734, 0, 1, 20600, -89.900, 0.000, -35.100, 0.000, 0.000, -2.900, 0.0, , , , , , 98, , , 53, 53, 53
38.2001644, -120.0382914, 45.100, 11:15:33.590, 19, 0.00, 0.29, 68, -3.500, -2.000, -36.400, 2, 100, 96, 33, 22499, -19785, 3759, 5529, 9, 14, 1526148933.591, 125, 0, 1024, 1024, 1024, 1024, 0, 6, 3699, 3714, 3753, 3738, 3754, 3734, 0, 1, 20702, -90.000, 0.000, -35.100, 0.000, 0.000, -2.900, 0.0, , , , , , 98, , , 53, 53, 53
38.2001644, -120.0382916, 45.700, 11:15:33.710, 19, 0.00, 0.28, 68, -2.500, -2.700, -36.000, 2, 100, 96, 33, 22499, -19785, 3759, 5529, 9, 14, 1526148933.710, 11, 0, 1024, 1024, 1024, 1024, 0, 6, 3699, 3714, 3753, 3738, 3754, 3734, 0, 1, 20822, -90.000, 0.000, -35.100, 0.000, 0.000, -2.900, 0.0, , , , , , 98, , , 53, 53, 53
38.2001644, -120.0382917, 46.000, 11:15:33.790, 19, 0.00, 0.27, 68, -2.200, -2.900, -35.900, 2, 100, 96, 33, 22499, -19785, 3759, 5529, 9, 14, 1526148933.791, 11, 0, 1024, 1024, 1024, 1024, 0, 6, 3699, 3714, 3753, 3738, 3754, 3734, 0, 1, 20902, -90.000, 0.000, -35.100, 0.000, 0.000, -2.900, 0.0, , , , , , 98, , , 53, 53, 53
38.2001644, -120.0382918, 46.200, 11:15:33.890, 19, 0.00, 0.26, 68, -2.100, -2.900, -35.700, 2, 100, 96, 33, 22499, -19785, 3759, 5529, 9, 14, 1526148933.890, 8, 0, 1024, 1024, 1024, 1024, 0, 6, 3699, 3714, 3753, 3738, 3754, 3734, 0, 1, 21001, -89.900, 0.000, -35.100, 0.000, 0.000, -2.900, 0.0, , , , , , 98, , , 53, 53, 53
38.2001644, -120.0382918, 46.500, 11:15:33.993, 19, 0.00, 0.26, 68, -2.000, -2.700, -35.700, 2, 100, 96, 33, 22499, -19785, 3759, 5529, 9, 14, 1526148933.993, 4, 0, 1024, 1024, 1024, 1024, 0, 6, 3699, 3714, 3753, 3738, 3754, 3734, 0, 1, 21104, -89.900, 0.000, -35.100, 0.000, 0.000, -3.000, 0.0, , , , , , 98, , , 53, 53, 53
38.2001644, -120.0382920, 47.100, 11:15:34.094, 19, 0.00, 0.25, 68, -2.000, -2.500, -35.600, 2, 100, 95, 33, 22499, -19785, 3759, 5529, 9, 14, 1526148934.094, 8, 0, 1024, 1024, 1024, 1024, 0, 6, 3699, 3714, 3753, 3738, 3754, 3734, 0, 1, 21206, -89.900, 0.000, -35.100, 0.000, 0.000, -2.900, 0.0, , , , , , 98, , , 53, 53, 53
38.2001644, -120.0382920, 47.100, 11:15:34.189, 19, 0.00, 0.25, 68, -2.000, -2.500, -35.600, 2, 100, 95, 33, 22499, -19785, 3759, 5529, 9, 14, 1526148934.189, 103, 0, 1024, 1024, 1024, 1024, 0, 6, 3699, 3714, 3753, 3738, 3754, 3734, 0, 1, 21300, -89.900, 0.000, -35.100, 0.000, 0.000, -2.900, 0.0, , , , , , 98, , , 53, 53, 53
