Latitude, Longitude, Altitude (m), Time, Sats, Speed (m/s), Range (m), Battery (%), Roll (deg), Pitch (deg), Yaw (deg), Images, HD Signal (%), RC Signal (%), Battery Temp (C), Battery Voltage (mV), Battery Current (mA), Battery Energy (mAh), Battery Capacity (mAh), Battery Discharges, flyState, timestamp (Unix), LastUpdate (ms), radioChannel, Rc_elevator, Rc_aileron, Rc_throttle, Rc_rudder, Rc_gyro, Dronetype, Battery_Cell1 (mV), Battery_Cell2 (mV), Battery_Cell3 (mV), Battery_Cell4 (mV), Battery_Cell5 (mV), Battery_Cell6 (mV), Video, isFlying, elapsedTime (ms), gimbalPitch (deg), gimbalRoll (deg), gimbalYaw (deg), VelocityX (m/s), VelocityY (m/s), VelocityZ (m/s), GroundSmear (cm), App Version, Aircraft Name, Aircraft Firmware, Aircraft Serial Number, Battery Serial Number, Battery Lifetime (%), App_Tip, App_Warning, CurrentFlightStartingIndex, CurrentFlightLastVisitedWaypoint, PreviousFlightEndingWaypointIndex
38.2001585, -120.0382895, -0.100, 10:51:16.069, 9, 0.00, 0.13, 98, 1.100, 0.800, -34.800, 394, 100, 100, 18, 25469, -4956, 5418, 5529, 9, 11, 1526147476.070, 47, 0, 1024, 1024, 1024, 1024, 0, 6, 4285, 4283, 4295, 4292, 4298, 4288, 0, 1, 3101, -89.900, 0.000, -34.900, 0.000, 0.000, -0.100, 0.0, MapPilot_2.8.1_04242018, Dendroctonus I, 1.3.1.00, 041DDC1887, 1058171200149, 98, Photo, Starting Mission from Lat/Long: 38.20015/-120.03828 Camera: Zenmuse X3 - Overlap: 90/90 - Active Connection: No, 67, 67, 67
38.2001586, -120.0382895, 0.000, 10:51:16.169, 9, 0.00, 0.13, 98, 1.000, 0.200, -34.700, 394, 100, 100, 18, 25469, -4956, 5418, 5529, 9, 11, 1526147476.169, 49, 0, 1024, 1024, 1024, 1024, 0, 6, 4285, 4283, 4295, 4292, 4298, 4288, 0, 1, 3201, -89.900, 0.000, -34.900, 0.000, 0.000, -0.200, 0.0, , , , , , 98, , , 67, 67, 67
38.2001586, -120.0382894, 0.000, 10:51:16.269, 9, 0.00, 0.13, 98, 0.500, 0.200, -34.700, 394, 100, 100, 18, 25469, -4956, 5418, 5529, 9, 11, 1526147476.269, 54, 0, 1024, 1024, 1024, 1024, 0, 6, 4133, 4110, 4275, 4237, 4268, 4277, 0, 1, 3301, -89.900, 0.000, -34.900, 0.000, 0.000, -0.300, 0.0, , , , , , 98, , , 67, 67, 67
38.2001587, -120.0382894, 0.000, 10:51:16.369, 9, 0.00, 0.14, 98, 0.200, 0.200, -34.700, 394, 100, 100, 18, 25469, -4956, 5418, 5529, 9, 11, 1526147476.370, 41, 0, 1024, 1024, 1024, 1024, 0, 6, 4133, 4110, 4275, 4237, 4268, 4277, 0, 1, 3401, -89.900, 0.000, -34.900, 0.000, 0.000, -0.300, 0.0, , , , , , 98, , , 67, 67, 67
38.2001588, -120.0382894, 0.000, 10:51:16.469, 9, 0.00, 0.14, 98, 0.200, 0.100, -34.800, 394, 100, 100, 18, 25469, -4956, 5418, 5529, 9, 11, 1526147476.469, 44, 0, 1024, 1024, 1024, 1024, 0, 6, 4133, 4110, 4275, 4237, 4268, 4277, 0, 1, 3501, -90.000, 0.000, -34.900, 0.000, 0.000, -0.400, 0.0, , , , , , 98, , , 67, 67, 67
38.2001589, -120.0382893, 0.000, 10:51:16.569, 9, 0.00, 0.15, 98, -0.100, 0.000, -35.000, 394, 100, 100, 18, 25469, -4956, 5418, 5529, 9, 11, 1526147476.570, 48, 0, 1024, 1024, 1024, 1024, 0, 6, 4133, 4110, 4275, 4237, 4268, 4277, 0, 1, 3601, -90.000, 0.000, -34.900, 0.000, 0.000, -0.400, 0.0, , , , , , 98, , , 67, 67, 67
38.2001590, -120.0382893, 0.100, 10:51:16.669, 9, 0.00, 0.16, 98, -0.700, 0.000, -35.000, 394, 100, 100, 18, 25469, -4956, 5418, 5529, 9, 11, 1526147476.669, 46, 0, 1024, 1024, 1024, 1024, 0, 6, 4133, 4110, 4275, 4237, 4268, 4277, 0, 1, 3701, -89.900, 0.000, -34.900, 0.000, 0.000, -0.400, 0.0, , , , , , 98, , , 67, 67, 67
38.2001591, -120.0382893, 0.100, 10:51:16.769, 9, 0.00, 0.17, 98, -1.000, 0.200, -35.000, 394, 100, 100, 18, 25469, -4956, 5418, 5529, 9, 11, 1526147476.769, 22, 0, 1024, 1024, 1024, 1024, 0, 6, 4133, 4110, 4275, 4237, 4268, 4277, 0, 1, 3801, -89.900, 0.000, -34.900, 0.000, 0.000, -0.400, 0.0, , , , , , 98, , , 67, 67, 67
38.2001593, -120.0382892, 0.200, 10:51:16.869, 10, 0.00, 0.19, 98, -1.200, 0.800, -34.900, 394, 100, 100, 18, 25469, -4956, 5418, 5529, 9, 11, 1526147476.869, 24, 0, 1024, 1024, 1024, 1024, 0, 6, 4133, 4110, 4275, 4237, 4268, 4277, 0, 1, 3901, -89.900, 0.000, -34.900, 0.000, 0.000, -0.500, 0.0, , , , , , 98, , , 67, 67, 67
38.2001594, -120.0382891, 0.300, 10:51:16.969, 9, 0.00, 0.19, 98, -1.300, 0.800, -34.700, 394, 100, 100, 18, 25469, -4956, 5418, 5529, 9, 11, 1526147476.969, 27, 0, 1024, 1024, 1024, 1024, 0, 6, 4133, 4110, 4275, 4237, 4268, 4277, 0, 1, 4001, -89.900, 0.000, -34.900, 0.000, 0.000, -0.500, 0.0, , , , , , 98, , , 67, 67, 67
38.2001594, -120.0382891, 0.300, 10:51:17.069, 9, 0.00, 0.19, 98, -1.300, 0.700, -34.700, 394, 100, 100, 18, 25469, -4956, 5418, 5529, 9, 11, 1526147477.069, 27, 0, 1024, 1024, 1024, 1024, 0, 6, 4133, 4110, 4275, 4237, 4268, 4277, 0, 1, 4101, -89.900, 0.000, -34.900, 0.000, 0.000, -0.500, 0.0, , , , , , 98, , , 67, 67, 67
38.2001594, -120.0382891, 0.400, 10:51:17.169, 9, 0.00, 0.19, 98, -1.200, 0.500, -34.700, 394, 100, 100, 18, 25469, -4956, 5418, 5529, 9, 11, 1526147477.169, 21, 0, 1024, 1024, 1024, 1024, 0, 6, 4133, 4110, 4275, 4237, 4268, 4277, 0, 1, 4201, -89.900, 0.000, -34.900, 0.000, 0.000, -0.400, 0.0, , , , , , 98, , , 67, 67, 67
38.2001594, -120.0382891, 0.400, 10:51:17.269, 9, 0.00, 0.19, 98, -1.200, 0.500, -34.700, 394, 100, 100, 18, 25469, -4956, 5418, 5529, 9, 11, 1526147477.269, 121, 0, 1024, 1024, 1024, 1024, 0, 6, 4133, 4110, 4275, 4237, 4268, 4277, 0, 1, 4301, -89.900, 0.000, -34.900, 0.000, 0.000, -0.400, 0.0, , , , , , 98, , , 67, 67, 67
38.2001595, -120.0382891, 0.500, 10:51:17.368, 9, 0.00, 0.20, 98, -1.000, 0.500, -35.000, 394, 100, 100, 18, 23921, -15496, 5418, 5529, 9, 11, 1526147477.369, 7, 0, 1024, 1024, 1024, 1024, 0, 6, 3965, 3961, 3999, 3992, 4004, 4087, 0, 1, 4400, -89.900, 0.000, -34.900, 0.000, 0.000, -0.400, 0.0, , , , , , 98, , , 67, 67, 67
38.2001595, -120.0382891, 0.500, 10:51:17.469, 9, 0.00, 0.20, 98, -1.000, 0.500, -35.000, 394, 100, 100, 18, 23921, -15496, 5418, 5529, 9, 11, 1526147477.470, 108, 0, 1024, 1024, 1024, 1024, 0, 6, 3965, 3961, 3999, 3992, 4004, 4087, 0, 1, 4501, -89.900, 0.000, -34.900, 0.000, 0.000, -0.400, 0.0, , , , , , 98, , , 67, 67, 67
38.2001596, -120.0382890, 0.500, 10:51:17.569, 9, 0.00, 0.21, 98, -1.100, 0.500, -35.200, 394, 100, 100, 18, 23921, -15496, 5418, 5529, 9, 11, 1526147477.569, 79, 0, 1024, 1024, 1024, 1024, 0, 6, 3965, 3961, 3999, 3992, 4004, 4087, 0, 1, 4601, -89.900, 0.000, -34.900, 0.000, 0.000, -0.400, 0.0, , , , , , 98, , , 67, 67, 67
38.2001596, -120.0382890, 0.600, 10:51:17.669, 9, 0.00, 0.22, 98, -1.300, 0.400, -35.300, 394, 100, 100, 18, 23921, -15496, 5418, 5529, 9, 11, 1526147477.669, 86, 0, 1024, 1024, 1024, 1024, 0, 6, 3965, 3961, 3999, 3992, 4004, 4087, 0, 1, 4701, -89.900, 0.000, -34.900, 0.000, 0.000, -0.400, 0.0, , , , , , 98, , , 67, 67, 67
38.2001597, -120.0382890, 0.600, 10:51:17.769, 9, 0.00, 0.23, 98, -1.500, 0.500, -35.400, 394, 100, 100, 18, 23921, -15496, 5418, 5529, 9, 11, 1526147477.770, 85, 0, 1024, 1024, 1024, 1024, 0, 6, 3965, 3961, 3999, 3992, 4004, 4087, 0, 1, 4802, -89.900, 0.000, -34.900, 0.000, 0.000, -0.400, 0.0, , , , , , 98, , , 67, 67, 67
38.2001598, -120.0382890, 0.700, 10:51:17.869, 10, 0.00, 0.23, 98, -1.500, 0.600, -35.400, 394, 100, 100, 18, 23921, -15496, 5418, 5529, 9, 11, 1526147477.869, 75, 0, 1024, 1024, 1024, 1024, 0, 6, 3965, 3961, 3999, 3992, 4004, 4087, 0, 1, 4901, -89.900, 0.000, -34.900, 0.000, 0.000, -0.400, 0.0, , , , , , 98, , , 67, 67, 67
38.2001598, -120.0382891, 0.700, 10:51:17.968, 10, 0.00, 0.24, 98, -1.500, 0.800, -35.300, 394, 100, 100, 18, 23921, -15496, 5418, 5529, 9, 11, 1526147477.969, 67, 0, 1024, 1024, 1024, 1024, 0, 6, 3965, 3961, 3999, 3992, 4004, 4087, 0, 1, 5000, -89.900, 0.000, -34.900, 0.000, 0.000, -0.400, 0.0, , , , , , 98, , , 67, 67, 67
38.2001598, -120.0382892, 0.800, 10:51:18.069, 10, 0.00, 0.24, 98, -1.100, 0.900, -35.100, 394, 100, 100, 18, 23921, -15496, 5418, 5529, 9, 11, 1526147478.069, 71, 0, 1024, 1024, 1024, 1024, 0, 6, 3965, 3961, 3999, 3992, 4004, 4087, 0, 1, 5101, -89.900, 0.000, -34.900, 0.000, 0.000, -0.500, 0.0, , , , , , 98, , , 67, 67, 67
38.2001598, -120.0382892, 0.800, 10:51:18.169, 10, 0.00, 0.24, 98, -0.900, 0.900, -35.000, 394, 100, 100, 18, 23921, -15496, 5418, 5529, 9, 11, 1526147478.169, 50, 0, 1024, 1024, 1024, 1024, 0, 6, 3965, 3961, 3999, 3992, 4004, 4087, 0, 1, 5201, -89.900, 0.000, -34.900, 0.000, 0.000, -0.500, 0.0, , , , , , 98, , , 67, 67, 67
38.2001598, -120.0382893, 0.900, 10:51:18.269, 10, 0.00, 0.24, 98, -0.800, 0.900, -35.000, 394, 100, 100, 18, 23684, -16719, 5418, 5529, 9, 6, 1526147478.270, 50, 0, 1024, 1024, 1024, 1024, 0, 6, 3921, 3927, 3964, 3959, 3972, 3939, 0, 1, 5301, -89.900, 0.000, -34.900, 0.000, 0.000, -0.500, 0.0, , , , , , 98, , , 67, 67, 67
38.2001598, -120.0382893, 0.900, 10:51:18.369, 10, 0.00, 0.24, 98, -0.800, 0.800, -35.000, 394, 100, 100, 18, 23684, -16719, 5418, 5529, 9, 14, 1526147478.369, 30, 0, 1024, 1024, 1024, 1024, 0, 6, 3921, 3927, 3964, 3959, 3972, 3939, 0, 1, 5401, -89.900, 0.000, -34.900, 0.000, 0.000, -0.400, 0.0, , , , , , 98, , , 67, 67, 67
38.2001598, -120.0382893, 1.000, 10:51:18.469, 10, 0.00, 0.24, 98, -0.500, 0.200, -35.000, 394, 100, 100, 18, 23684, -16719, 5418, 5529, 9, 14, 1526147478.469, 70, 0, 1024, 1024, 1024, 1024, 0, 6, 3921, 3927, 3964, 3959, 3972, 3939, 0, 1, 5501, -90.000, 0.000, -34.900, 0.000, 0.000, -0.300, 0.0, , , , , , 98, , , 67, 67, 67
38.2001598, -120.0382892, 1.000, 10:51:18.569, 10, 0.00, 0.24, 98, -0.400, -0.300, -35.000, 394, 100, 100, 18, 23684, -16719, 5418, 5529, 9, 14, 1526147478.570, 32, 0, 1024, 1024, 1024, 1024, 0, 6, 3921, 3927, 3964, 3959, 3972, 3939, 0, 1, 5601, -90.000, 0.000, -34.900, 0.000, 0.000, -0.200, 0.0, , , , , , 98, , , 67, 67, 67
38.2001597, -120.0382892, 1.000, 10:51:18.669, 10, 0.00, 0.23, 98, -0.200, -0.400, -35.000, 394, 100, 100, 18, 23684, -16719, 5418, 5529, 9, 14, 1526147478.669, 49, 0, 1024, 1024, 1024, 1024, 0, 6, 3921, 3927, 3964, 3959, 3972, 3939, 0, 1, 5701, -90.000, 0.000, -34.900, 0.000, 0.000, -0.200, 0.0, , , , , , 98, , , 67, 67, 67
38.2001597, -120.0382892, 1.000, 10:51:18.769, 10, 0.00, 0.23, 98, -0.100, -0.400, -34.900, 394, 100, 100, 18, 23684, -16719, 5418, 5529, 9, 14, 1526147478.769, 24, 0, 1024, 1024, 1024, 1024, 0, 6, 3921, 3927, 3964, 3959, 3972, 3939, 0, 1, 5801, -90.000, 0.000, -34.900, 0.000, 0.000, -0.300, 0.0, , , , , , 98, , , 67, 67, 67
38.2001597, -120.0382892, 1.100, 10:51:18.868, 10, 0.00, 0.22, 98, -0.200, -0.300, -34.900, 394, 100, 100, 18, 23684, -16719, 5418, 5529, 9, 14, 1526147478.868, 26, 0, 1024, 1024, 1024, 1024, 0, 6, 3921, 3927, 3964, 3959, 3972, 3939, 0, 1, 5900, -90.000, 0.000, -34.900, 0.000, 0.000, -0.400, 0.0, , , , , , 98, , , 67, 67, 67
38.2001596, -120.0382894, 1.100, 10:51:18.969, 10, 0.00, 0.22, 98, -0.300, -0.200, -34.900, 394, 100, 100, 18, 23684, -16719, 5418, 5529, 9, 14, 1526147478.969, 24, 0, 1024, 1024, 1024, 1024, 0, 6, 3921, 3927, 3964, 3959, 3972, 3939, 0, 1, 6001, -90.000, 0.000, -34.900, 0.000, 0.000, -0.500, 0.0, , , , , , 98, , , 67, 67, 67
38.2001595, -120.0382895, 1.300, 10:51:19.081, 10, 0.00, 0.22, 98, 0.000, 0.000, -35.000, 394, 100, 100, 18, 23684, -16719, 5418, 5529, 9, 14, 1526147479.081, 7, 0, 1024, 1024, 1024, 1024, 0, 6, 3921, 3927, 3964, 3959, 3972, 3939, 0, 1, 6113, -89.900, 0.000, -34.900, 0.000, 0.000, -1.000, 0.0, , , , , , 98, , , 67, 67, 67
38.2001595, -120.0382895, 1.400, 10:51:19.169, 10, 0.00, 0.22, 98, 0.100, 0.000, -35.100, 394, 100, 100, 18, 23684, -16719, 5418, 5529, 9, 14, 1526147479.170, 17, 0, 1024, 1024, 1024, 1024, 0, 6, 3921, 3927, 3964, 3959, 3972, 3939, 0, 1, 6201, -90.000, 0.000, -34.900, 0.000, 0.000, -1.200, 0.0, , , , , , 98, , , 67, 67, 67
38.2001596, -120.0382895, 1.500, 10:51:19.269, 10, 0.00, 0.23, 98, 0.000, 0.000, -35.000, 394, 100, 100, 18, 23836, -16077, 5418, 5529, 9, 14, 1526147479.269, 26, 0, 1024, 1024, 1024, 1024, 0, 6, 3957, 3979, 3955, 4009, 3977, 3930, 0, 1, 6301, -89.900, 0.000, -34.900, 0.000, 0.000, -1.400, 0.0, , , , , , 98, , , 67, 67, 67
38.2001598, -120.0382895, 1.700, 10:51:19.369, 11, 0.00, 0.24, 98, -0.100, 0.100, -34.900, 394, 100, 98, 18, 23836, -16077, 5418, 5529, 9, 14, 1526147479.369, 22, 0, 1024, 1024, 1024, 1024, 0, 6, 3957, 3979, 3955, 4009, 3977, 3930, 0, 1, 6401, -89.900, 0.000, -34.900, 0.000, 0.000, -1.600, 0.0, , , , , , 98, , , 67, 67, 67
38.2001599, -120.0382894, 1.900, 10:51:19.473, 11, 0.00, 0.25, 98, -0.500, 0.100, -34.800, 394, 100, 98, 18, 23836, -16077, 5418, 5529, 9, 14, 1526147479.474, 9, 0, 1024, 1024, 1024, 1024, 0, 6, 3957, 3979, 3955, 4009, 3977, 3930, 0, 1, 6505, -89.900, 0.000, -34.900, 0.000, 0.000, -1.900, 0.0, , , , , , 98, , , 67, 67, 67
38.2001600, -120.0382893, 2.100, 10:51:19.569, 11, 0.00, 0.27, 98, -0.800, 0.100, -34.800, 394, 100, 98, 18, 23836, -16077, 5418, 5529, 9, 14, 1526147479.570, 5, 0, 1024, 1024, 1024, 1024, 0, 6, 3957, 3979, 3955, 4009, 3977, 3930, 0, 1, 6601, -89.900, 0.000, -34.900, 0.000, 0.000, -2.100, 0.0, , , , , , 98, , , 67, 67, 67
38.2001600, -120.0382893, 2.100, 10:51:19.669, 11, 0.00, 0.27, 98, -0.800, 0.100, -34.800, 394, 100, 98, 18, 23836, -16077, 5418, 5529, 9, 14, 1526147479.669, 104, 0, 1024, 1024, 1024, 1024, 0, 6, 3957, 3979, 3955, 4009, 3977, 3930, 0, 1, 6701, -89.900, 0.000, -34.900, 0.000, 0.000, -2.100, 0.0, , , , , , 98, , , 67, 67, 67
38.2001602, -120.0382893, 2.300, 10:51:19.769, 11, 0.00, 0.28, 98, -1.000, 0.300, -34.800, 394, 100, 98, 18, 23836, -16077, 5418, 5529, 9, 14, 1526147479.769, 85, 0, 1024, 1024, 1024, 1024, 0, 6, 3957, 3979, 3955, 4009, 3977, 3930, 0, 1, 6801, -89.900, 0.000, -34.900, 0.000, 0.000, -2.300, 0.0, , , , , , 98, , , 67, 67, 67
38.2001603, -120.0382891, 2.500, 10:51:19.868, 11, 0.00, 0.29, 98, -1.100, 0.500, -34.700, 394, 100, 98, 18, 23836, -16077, 5418, 5529, 9, 14, 1526147479.869, 87, 0, 1024, 1024, 1024, 1024, 0, 6, 3957, 3979, 3955, 4009, 3977, 3930, 0, 1, 6900, -89.900, 0.000, -34.900, 0.000, 0.000, -2.400, 0.0, , , , , , 98, , , 67, 67, 67
38.2001605, -120.0382890, 2.800, 10:51:19.969, 11, 0.00, 0.31, 98, -1.200, 0.600, -34.700, 394, 100, 98, 18, 23836, -16077, 5418, 5529, 9, 14, 1526147479.969, 84, 0, 1024, 1024, 1024, 1024, 0, 6, 3957, 3979, 3955, 4009, 3977, 3930, 0, 1, 7001, -89.900, 0.000, -34.900, 0.000, 0.000, -2.700, 0.0, , , , , , 98, , , 67, 67, 67
38.2001607, -120.0382888, 3.100, 10:51:20.068, 11, 0.00, 0.33, 98, -1.700, 0.600, -34.800, 394, 100, 98, 18, 23836, -16077, 5418, 5529, 9, 14, 1526147480.069, 70, 0, 1024, 1024, 1024, 1024, 0, 6, 3957, 3979, 3955, 4009, 3977, 3930, 0, 1, 7101, -89.900, 0.000, -34.900, 0.000, 0.000, -2.900, 0.0, , , , , , 98, , , 67, 67, 67
38.2001608, -120.0382886, 3.400, 10:51:20.169, 11, 0.00, 0.34, 98, -2.100, 0.600, -34.800, 394, 100, 98, 18, 23836, -16077, 5418, 5529, 9, 14, 1526147480.169, 79, 0, 1024, 1024, 1024, 1024, 0, 6, 3957, 3979, 3955, 4009, 3977, 3930, 0, 1, 7201, -89.900, 0.000, -34.900, 0.000, 0.000, -3.100, 0.0, , , , , , 98, , , 67, 67, 67
38.2001609, -120.0382885, 3.800, 10:51:20.268, 10, 0.00, 0.35, 98, -2.200, 0.500, -34.800, 394, 100, 98, 18, 22965, -23539, 5418, 5529, 9, 14, 1526147480.269, 84, 0, 1024, 1024, 1024, 1024, 0, 6, 3800, 3797, 3850, 3813, 3837, 3808, 0, 1, 7301, -89.900, 0.000, -34.900, 0.000, 0.000, -3.200, 0.0, , , , , , 98, , , 67, 67, 67
38.2001610, -120.0382885, 4.100, 10:51:20.369, 10, 0.00, 0.36, 98, -2.100, 0.400, -34.900, 394, 100, 98, 18, 22965, -23539, 5418, 5529, 9, 14, 1526147480.369, 61, 0, 1024, 1024, 1024, 1024, 0, 6, 3800, 3797, 3850, 3813, 3837, 3808, 0, 1, 7401, -89.900, 0.000, -34.900, 0.000, 0.000, -3.200, 0.0, , , , , , 98, , , 67, 67, 67
38.2001611, -120.0382885, 4.400, 10:51:20.469, 10, 0.00, 0.37, 98, -1.700, 0.600, -34.900, 394, 100, 98, 18, 22965, -23539, 5418, 5529, 9, 14, 1526147480.469, 57, 0, 1024, 1024, 1024, 1024, 0, 6, 3800, 3797, 3850, 3813, 3837, 3808, 0, 1, 7501, -89.900, 0.000, -34.900, 0.000, 0.000, -3.200, 0.0, , , , , , 98, , , 67, 67, 67
38.2001613, -120.0382885, 4.800, 10:51:20.569, 10, 0.00, 0.39, 98, -1.400, 0.800, -35.000, 394, 100, 98, 18, 22965, -23539, 5418, 5529, 9, 14, 1526147480.570, 71, 0, 1024, 1024, 1024, 1024, 0, 6, 3800, 3797, 3850, 3813, 3837, 3808, 0, 1, 7601, -89.900, 0.000, -34.900, 0.000, 0.000, -3.300, 0.0, , , , , , 98, , , 67, 67, 67
38.2001614, -120.0382884, 5.200, 10:51:20.669, 11, 0.00, 0.40, 98, -1.400, 0.900, -35.000, 394, 100, 98, 18, 22965, -23539, 5418, 5529, 9, 14, 1526147480.669, 57, 0, 1024, 1024, 1024, 1024, 0, 6, 3800, 3797, 3850, 3813, 3837, 3808, 0, 1, 7701, -89.900, 0.000, -34.900, 0.000, 0.000, -3.300, 0.0, , , , , , 98, , , 67, 67, 67
38.2001614, -120.0382884, 5.500, 10:51:20.769, 11, 0.00, 0.40, 98, -1.600, 0.900, -35.100, 394, 100, 98, 18, 22965, -23539, 5418, 5529, 9, 14, 1526147480.769, 50, 0, 1024, 1024, 1024, 1024, 0, 6, 3800, 3797, 3850, 3813, 3837, 3808, 0, 1, 7801, -89.900, 0.000, -34.900, 0.000, 0.000, -3.200, 0.0, , , , , , 98, , , 67, 67, 67
38.2001614, -120.0382884, 5.900, 10:51:20.869, 11, 0.00, 0.40, 98, -1.600, 0.900, -35.100, 394, 100, 100, 18, 22965, -23539, 5418, 5529, 9, 14, 1526147480.869, 24, 0, 1024, 1024, 1024, 1024, 0, 6, 3800, 3797, 3850, 3813, 3837, 3808, 0, 1, 7901, -89.900, 0.000, -34.900, 0.000, 0.000, -3.300, 0.0, , , , , , 98, , , 67, 67, 67
38.2001614, -120.0382885, 6.200, 10:51:20.969, 11, 0.00, 0.40, 98, -1.400, 0.900, -35.100, 394, 100, 100, 18, 22965, -23539, 5418, 5529, 9, 14, 1526147480.970, 50, 0, 1024, 1024, 1024, 1024, 0, 6, 3800, 3797, 3850, 3813, 3837, 3808, 0, 1, 8001, -89.900, 0.000, -34.900, 0.000, 0.000, -3.200, 0.0, , , , , , 98, , , 67, 67, 67
38.2001613, -120.0382885, 6.500, 10:51:21.069, 11, 0.00, 0.40, 98, -1.300, 1.000, -35.000, 394, 100, 100, 18, 22965, -23539, 5418, 5529, 9, 14, 1526147481.069, 38, 0, 1024, 1024, 1024, 1024, 0, 6, 3800, 3797, 3850, 3813, 3837, 3808, 0, 1, 8101, -89.900, 0.000, -34.900, 0.000, 0.000, -3.200, 0.0, , , , , , 98, , , 67, 67, 67
38.2001612, -120.0382886, 6.900, 10:51:21.169, 11, 0.00, 0.38, 98, -1.000, 0.900, -35.000, 394, 100, 100, 18, 22965, -23539, 5418, 5529, 9, 14, 1526147481.170, 15, 0, 1024, 1024, 1024, 1024, 0, 6, 3800, 3797, 3850, 3813, 3837, 3808, 0, 1, 8201, -89.900, 0.000, -34.900, 0.000, 0.000, -3.200, 0.0, , , , , , 98, , , 67, 67, 67
38.2001610, -120.0382887, 7.200, 10:51:21.269, 11, 0.10, 0.36, 98, -0.500, 0.500, -35.000, 394, 100, 100, 18, 22886, -23377, 5418, 5529, 9, 14, 1526147481.269, 33, 0, 1024, 1024, 1024, 1024, 0, 6, 3800, 3797, 3850, 3813, 3837, 3808, 0, 1, 8301, -90.000, 0.000, -34.900, -0.100, 0.000, -3.200, 0.0, , , , , , 98, , , 67, 67, 67
38.2001607, -120.0382890, 7.900, 10:51:21.369, 11, 0.10, 0.33, 98, 0.400, 0.000, -35.100, 394, 100, 100, 18, 22886, -23377, 5418, 5529, 9, 14, 1526147481.369, 22, 0, 1024, 1024, 1024, 1024, 0, 6, 3800, 3797, 3850, 3813, 3837, 3808, 0, 1, 8401, -90.000, 0.000, -34.900, -0.100, 0.000, -3.100, 0.0, , , , , , 98, , , 67, 67, 67
38.2001605, -120.0382892, 8.200, 10:51:21.469, 11, 0.10, 0.31, 98, 0.600, -0.100, -35.200, 394, 100, 100, 18, 22886, -23377, 5418, 5529, 9, 14, 1526147481.469, 23, 0, 1024, 1024, 1024, 1024, 0, 6, 3800, 3797, 3850, 3813, 3837, 3808, 0, 1, 8501, -90.000, 0.000, -34.900, -0.100, 0.000, -3.100, 0.0, , , , , , 98, , , 67, 67, 67
38.2001603, -120.0382894, 8.500, 10:51:21.569, 12, 0.10, 0.30, 98, 0.700, -0.200, -35.200, 394, 100, 100, 18, 22886, -23377, 5418, 5529, 9, 14, 1526147481.569, 25, 0, 1024, 1024, 1024, 1024, 0, 6, 3800, 3797, 3850, 3813, 3837, 3808, 0, 1, 8601, -90.000, 0.000, -34.900, -0.100, 0.000, -3.000, 0.0, , , , , , 98, , , 67, 67, 67
38.2001603, -120.0382894, 8.500, 10:51:21.669, 12, 0.10, 0.30, 98, 0.700, -0.200, -35.200, 394, 100, 100, 18, 22886, -23377, 5418, 5529, 9, 14, 1526147481.669, 125, 0, 1024, 1024, 1024, 1024, 0, 6, 3800, 3797, 3850, 3813, 3837, 3808, 0, 1, 8701, -90.000, 0.000, -34.900, -0.100, 0.000, -3.000, 0.0, , , , , , 98, , , 67, 67, 67
38.2001601, -120.0382896, 8.800, 10:51:21.770, 12, 0.10, 0.28, 98, 1.100, -0.200, -35.200, 394, 100, 100, 18, 22886, -23377, 5418, 5529, 9, 14, 1526147481.770, 5, 0, 1024, 1024, 1024, 1024, 0, 6, 3800, 3797, 3850, 3813, 3837, 3808, 0, 1, 8802, -90.000, 0.000, -34.900, -0.100, 0.000, -3.000, 0.0, , , , , , 98, , , 67, 67, 67
38.2001598, -120.0382900, 9.500, 10:51:21.868, 12, 0.00, 0.26, 98, 1.300, -0.400, -35.100, 394, 100, 100, 18, 22886, -23377, 5418, 5529, 9, 14, 1526147481.869, 5, 0, 1024, 1024, 1024, 1024, 0, 6, 3798, 3783, 3837, 3839, 3849, 3844, 0, 1, 8900, -90.000, 0.000, -34.900, 0.000, 0.000, -3.000, 0.0, , , , , , 98, , , 67, 67, 67
38.2001596, -120.0382902, 9.800, 10:51:21.969, 11, 0.00, 0.26, 98, 1.200, -0.400, -35.000, 394, 100, 100, 18, 22886, -23377, 5418, 5529, 9, 14, 1526147481.970, 6, 0, 1024, 1024, 1024, 1024, 0, 6, 3798, 3783, 3837, 3839, 3849, 3844, 0, 1, 9001, -90.000, 0.000, -34.900, 0.000, 0.000, -3.100, 0.0, , , , , , 98, , , 67, 67, 67
38.2001596, -120.0382902, 9.800, 10:51:22.069, 11, 0.00, 0.26, 98, 1.200, -0.400, -35.000, 394, 100, 100, 18, 22886, -23377, 5418, 5529, 9, 14, 1526147482.069, 106, 0, 1024, 1024, 1024, 1024, 0, 6, 3798, 3783, 3837, 3839, 3849, 3844, 0, 1, 9101, -90.000, 0.000, -34.900, 0.000, 0.000, -3.100, 0.0, , , , , , 98, , , 67, 67, 67
38.2001595, -120.0382903, 10.100, 10:51:22.169, 11, 0.00, 0.26, 98, 1.100, -0.300, -35.000, 394, 100, 100, 18, 22886, -23377, 5418, 5529, 9, 14, 1526147482.169, 80, 0, 1024, 1024, 1024, 1024, 0, 6, 3798, 3783, 3837, 3839, 3849, 3844, 0, 1, 9201, -90.000, 0.000, -34.900, 0.000, 0.000, -3.000, 0.0, , , , , , 98, , , 67, 67, 67
38.2001591, -120.0382908, 10.700, 10:51:22.270, 12, 0.00, 0.26, 98, 0.800, -0.200, -34.900, 394, 100, 100, 18, 22886, -23377, 5418, 5529, 9, 14, 1526147482.270, 5, 0, 1024, 1024, 1024, 1024, 0, 6, 3798, 3783, 3837, 3839, 3849, 3844, 0, 1, 9302, -90.000, 0.000, -34.900, 0.000, 0.000, -3.000, 0.0, , , , , , 98, , , 67, 67, 67
38.2001591, -120.0382908, 10.700, 10:51:22.369, 12, 0.00, 0.26, 98, 0.800, -0.200, -34.900, 394, 100, 100, 18, 22886, -23377, 5418, 5529, 9, 14, 1526147482.369, 104, 0, 1024, 1024, 1024, 1024, 0, 6, 3798, 3783, 3837, 3839, 3849, 3844, 0, 1, 9401, -90.000, 0.000, -34.900, 0.000, 0.000, -3.000, 0.0, , , , , , 98, , , 67, 67, 67
38.2001589, -120.0382910, 11.000, 10:51:22.469, 12, 0.00, 0.26, 98, 1.300, -0.100, -34.800, 394, 100, 100, 18, 22886, -23377, 5418, 5529, 9, 14, 1526147482.469, 62, 0, 1024, 1024, 1024, 1024, 0, 6, 3798, 3783, 3837, 3839, 3849, 3844, 0, 1, 9501, -90.000, 0.000, -34.900, 0.000, 0.000, -3.000, 0.0, , , , , , 98, , , 67, 67, 67
38.2001587, -120.0382912, 11.300, 10:51:22.569, 12, 0.00, 0.26, 98, 1.700, -0.100, -34.800, 394, 100, 100, 18, 22886, -23377, 5418, 5529, 9, 14, 1526147482.569, 65, 0, 1024, 1024, 1024, 1024, 0, 6, 3798, 3783, 3837, 3839, 3849, 3844, 0, 1, 9601, -90.000, 0.000, -34.900, 0.000, 0.000, -3.000, 0.0, , , , , , 98, , , 67, 67, 67
38.2001586, -120.0382912, 11.700, 10:51:22.669, 11, 0.00, 0.26, 98, 1.700, -0.300, -34.900, 394, 100, 100, 18, 22886, -23377, 5418, 5529, 9, 14, 1526147482.669, 76, 0, 1024, 1024, 1024, 1024, 0, 6, 3798, 3783, 3837, 3839, 3849, 3844, 0, 1, 9701, -90.000, 0.000, -34.900, 0.000, 0.000, -3.000, 0.0, , , , , , 98, , , 67, 67, 67
38.2001585, -120.0382913, 12.000, 10:51:22.769, 11, 0.00, 0.27, 98, 1.500, -0.400, -34.900, 394, 100, 100, 18, 23116, -19635, 5418, 5529, 9, 14, 1526147482.769, 83, 0, 1024, 1024, 1024, 1024, 0, 6, 3834, 3817, 3884, 3856, 3878, 3852, 0, 1, 9801, -90.000, 0.000, -34.900, 0.000, 0.000, -3.000, 0.0, , , , , , 98, , , 67, 67, 67
38.2001585, -120.0382914, 12.300, 10:51:22.869, 12, 0.00, 0.27, 98, 1.300, -0.400, -34.900, 394, 100, 100, 18, 23116, -19635, 5418, 5529, 9, 14, 1526147482.869, 59, 0, 1024, 1024, 1024, 1024, 0, 6, 3834, 3817, 3884, 3856, 3878, 3852, 0, 1, 9901, -90.000, 0.000, -34.900, 0.000, 0.000, -3.000, 0.0, , , , , , 98, , , 67, 67, 67
38.2001584, -120.0382914, 12.600, 10:51:22.968, 12, 0.00, 0.27, 98, 1.100, -0.400, -35.000, 394, 100, 100, 18, 23116, -19635, 5418, 5529, 9, 14, 1526147482.968, 64, 0, 1024, 1024, 1024, 1024, 0, 6, 3834, 3817, 3884, 3856, 3878, 3852, 0, 1, 10000, -90.000, 0.000, -34.900, 0.000, 0.000, -2.900, 0.0, , , , , , 98, , , 67, 67, 67
38.2001584, -120.0382914, 12.900, 10:51:23.069, 12, 0.00, 0.27, 98, 0.900, -0.400, -35.000, 394, 100, 100, 18, 23116, -19635, 5418, 5529, 9, 14, 1526147483.070, 65, 0, 1024, 1024, 1024, 1024, 0, 6, 3834, 3817, 3884, 3856, 3878, 3852, 0, 1, 10101, -90.000, 0.000, -34.900, 0.000, 0.000, -3.000, 0.0, , , , , , 98, , , 67, 67, 67
38.2001583, -120.0382914, 13.200, 10:51:23.169, 12, 0.00, 0.27, 98, 0.700, -0.400, -35.000, 394, 100, 100, 18, 23116, -19635, 5418, 5529, 9, 14, 1526147483.169, 54, 0, 1024, 1024, 1024, 1024, 0, 6, 3834, 3817, 3884, 3856, 3878, 3852, 0, 1, 10201, -90.000, 0.000, -34.900, 0.000, 0.000, -2.900, 0.0, , , , , , 98, , , 67, 67, 67
38.2001583, -120.0382914, 13.500, 10:51:23.269, 12, 0.00, 0.27, 98, 0.700, -0.200, -34.900, 394, 100, 100, 18, 23116, -19635, 5418, 5529, 9, 14, 1526147483.269, 30, 0, 1024, 1024, 1024, 1024, 0, 6, 3834, 3817, 3884, 3856, 3878, 3852, 0, 1, 10301, -90.000, 0.000, -34.900, 0.000, 0.000, -2.900, 0.0, , , , , , 98, , , 67, 67, 67
38.2001583, -120.0382914, 13.800, 10:51:23.369, 12, 0.00, 0.27, 98, 0.700, 0.000, -34.900, 394, 100, 99, 18, 23116, -19635, 5418, 5529, 9, 14, 1526147483.370, 33, 0, 1024, 1024, 1024, 1024, 0, 6, 3834, 3817, 3884, 3856, 3878, 3852, 0, 1, 10401, -89.900, 0.000, -34.900, 0.000, 0.000, -2.900, 0.0, , , , , , 98, , , 67, 67, 67
38.2001584, -120.0382913, 14.100, 10:51:23.469, 12, 0.00, 0.26, 98, 0.500, 0.100, -34.800, 394, 100, 99, 18, 23116, -19635, 5418, 5529, 9, 14, 1526147483.469, 36, 0, 1024, 1024, 1024, 1024, 0, 6, 3834, 3817, 3884, 3856, 3878, 3852, 0, 1, 10501, -89.900, 0.000, -34.900, 0.000, 0.000, -2.900, 0.0, , , , , , 98, , , 67, 67, 67
38.2001584, -120.0382913, 14.400, 10:51:23.569, 12, 0.00, 0.26, 98, 0.400, 0.100, -34.700, 394, 100, 99, 18, 23116, -19635, 5418, 5529, 9, 14, 1526147483.570, 40, 0, 1024, 1024, 1024, 1024, 0, 6, 3834, 3817, 3884, 3856, 3878, 3852, 0, 1, 10601, -90.000, 0.000, -34.900, 0.000, 0.000, -2.900, 0.0, , , , , , 98, , , 67, 67, 67
38.2001584, -120.0382913, 14.700, 10:51:23.669, 12, 0.00, 0.26, 98, 0.300, 0.000, -34.700, 394, 100, 99, 18, 23116, -19635, 5418, 5529, 9, 14, 1526147483.669, 28, 0, 1024, 1024, 1024, 1024, 0, 6, 3834, 3817, 3884, 3856, 3878, 3852, 0, 1, 10701, -90.000, 0.000, -34.900, 0.000, 0.000, -2.900, 0.0, , , , , , 98, , , 67, 67, 67
38.2001584, -120.0382912, 15.000, 10:51:23.770, 12, 0.00, 0.25, 98, 0.200, 0.000, -34.800, 394, 100, 99, 18, 23119, -19576, 5418, 5529, 9, 14, 1526147483.770, 5, 0, 1024, 1024, 1024, 1024, 0, 6, 3834, 3817, 3884, 3856, 3878, 3852, 0, 1, 10802, -90.000, 0.000, -34.900, 0.000, 0.000, -2.900, 0.0, , , , , , 98, , , 67, 67, 67
38.2001585, -120.0382911, 15.300, 10:51:23.870, 12, 0.10, 0.25, 98, 0.100, -0.200, -34.800, 394, 100, 99, 18, 23119, -19576, 5418, 5529, 9, 14, 1526147483.870, 7, 0, 1024, 1024, 1024, 1024, 0, 6, 3828, 3825, 3880, 3868, 3877, 3846, 0, 1, 10902, -90.000, 0.000, -34.900, 0.000, 0.100, -2.900, 0.0, , , , , , 98, , , 67, 67, 67
38.2001585, -120.0382911, 15.300, 10:51:23.969, 12, 0.10, 0.25, 98, 0.100, -0.200, -34.800, 394, 100, 99, 18, 23119, -19576, 5418, 5529, 9, 14, 1526147483.969, 106, 0, 1024, 1024, 1024, 1024, 0, 6, 3828, 3825, 3880, 3868, 3877, 3846, 0, 1, 11001, -90.000, 0.000, -34.900, 0.000, 0.100, -2.900, 0.0, , , , , , 98, , , 67, 67, 67
38.2001586, -120.0382909, 16.200, 10:51:24.071, 11, 0.00, 0.24, 98, 0.000, -0.200, -35.000, 394, 100, 99, 18, 23119, -19576, 5418, 5529, 9, 14, 1526147484.071, 5, 0, 1024, 1024, 1024, 1024, 0, 6, 3828, 3825, 3880, 3868, 3877, 3846, 0, 1, 11103, -90.000, 0.000, -34.900, 0.000, 0.000, -2.900, 0.0, , , , , , 98, , , 67, 67, 67
38.2001587, -120.0382908, 16.500, 10:51:24.171, 12, 0.00, 0.23, 98, 0.000, -0.100, -35.100, 394, 100, 99, 18, 23119, -19576, 5418, 5529, 9, 14, 1526147484.171, 8, 0, 1024, 1024, 1024, 1024, 0, 6, 3828, 3825, 3880, 3868, 3877, 3846, 0, 1, 11203, -89.900, 0.000, -34.900, 0.000, 0.000, -2.900, 0.0, , , , , , 98, , , 67, 67, 67
38.2001587, -120.0382908, 16.500, 10:51:24.269, 12, 0.00, 0.23, 98, 0.000, -0.100, -35.100, 394, 100, 99, 18, 23119, -19576, 5418, 5529, 9, 14, 1526147484.269, 105, 0, 1024, 1024, 1024, 1024, 0, 6, 3828, 3825, 3880, 3868, 3877, 3846, 0, 1, 11301, -89.900, 0.000, -34.900, 0.000, 0.000, -2.900, 0.0, , , , , , 98, , , 67, 67, 67
38.2001588, -120.0382906, 16.800, 10:51:24.369, 12, 0.00, 0.22, 98, 0.000, 0.000, -35.100, 394, 100, 99, 18, 23119, -19576, 5418, 5529, 9, 14, 1526147484.369, 82, 0, 1024, 1024, 1024, 1024, 0, 6, 3828, 3825, 3880, 3868, 3877, 3846, 0, 1, 11401, -89.900, 0.000, -34.900, 0.000, 0.000, -3.000, 0.0, , , , , , 98, , , 67, 67, 67
38.2001590, -120.0382904, 17.100, 10:51:24.469, 12, 0.10, 0.22, 98, -0.200, 0.000, -35.100, 394, 100, 99, 18, 23119, -19576, 5418, 5529, 9, 14, 1526147484.469, 86, 0, 1024, 1024, 1024, 1024, 0, 6, 3828, 3825, 3880, 3868, 3877, 3846, 0, 1, 11501, -89.900, 0.000, -34.900, 0.000, 0.100, -3.000, 0.0, , , , , , 98, , , 67, 67, 67
38.2001591, -120.0382903, 17.400, 10:51:24.569, 12, 0.10, 0.22, 98, -0.600, 0.000, -35.000, 394, 100, 99, 18, 23119, -19576, 5418, 5529, 9, 14, 1526147484.569, 87, 0, 1024, 1024, 1024, 1024, 0, 6, 3828, 3825, 3880, 3868, 3877, 3846, 0, 1, 11601, -90.000, 0.000, -34.900, 0.000, 0.100, -2.900, 0.0, , , , , , 98, , , 67, 67, 67
38.2001592, -120.0382901, 17.700, 10:51:24.669, 12, 0.10, 0.22, 98, -0.900, 0.000, -35.000, 394, 100, 99, 18, 23119, -19576, 5418, 5529, 9, 14, 1526147484.669, 89, 0, 1024, 1024, 1024, 1024, 0, 6, 3828, 3825, 3880, 3868, 3877, 3846, 0, 1, 11701, -90.000, 0.000, -34.900, 0.000, 0.100, -3.000, 0.0, , , , , , 98, , , 67, 67, 67
38.2001594, -120.0382899, 18.000, 10:51:24.769, 12, 0.14, 0.22, 98, -1.200, -0.100, -34.900, 394, 100, 99, 18, 23086, -19297, 5418, 5529, 9, 14, 1526147484.769, 93, 0, 1024, 1024, 1024, 1024, 0, 6, 3822, 3816, 3860, 3855, 3868, 3842, 0, 1, 11801, -90.000, 0.000, -34.900, 0.100, 0.100, -3.000, 0.0, , , , , , 98, , , 67, 67, 67
38.2001595, -120.0382898, 18.300, 10:51:24.869, 12, 0.10, 0.23, 98, -1.300, -0.200, -34.900, 394, 100, 98, 18, 23086, -19297, 5418, 5529, 9, 14, 1526147484.869, 94, 0, 1024, 1024, 1024, 1024, 0, 6, 3822, 3816, 3860, 3855, 3868, 3842, 0, 1, 11901, -89.900, 0.000, -34.900, 0.000, 0.100, -3.000, 0.0, , , , , , 98, , , 67, 67, 67
38.2001596, -120.0382896, 18.600, 10:51:24.968, 12, 0.00, 0.23, 98, -1.300, -0.100, -34.900, 394, 100, 98, 18, 23086, -19297, 5418, 5529, 9, 14, 1526147484.969, 86, 0, 1024, 1024, 1024, 1024, 0, 6, 3822, 3816, 3860, 3855, 3868, 3842, 0, 1, 12000, -90.000, 0.000, -34.900, 0.000, 0.000, -2.900, 0.0, , , , , , 98, , , 67, 67, 67
38.2001597, -120.0382895, 18.900, 10:51:25.069, 12, 0.00, 0.24, 98, -1.300, 0.100, -34.900, 394, 100, 98, 18, 23086, -19297, 5418, 5529, 9, 14, 1526147485.069, 66, 0, 1024, 1024, 1024, 1024, 0, 6, 3822, 3816, 3860, 3855, 3868, 3842, 0, 1, 12101, -89.900, 0.000, -34.900, 0.000, 0.000, -2.900, 0.0, , , , , , 98, , , 67, 67, 67
38.2001598, -120.0382894, 19.200, 10:51:25.169, 12, 0.00, 0.25, 98, -1.200, 0.300, -35.000, 394, 100, 98, 18, 23086, -19297, 5418, 5529, 9, 14, 1526147485.169, 52, 0, 1024, 1024, 1024, 1024, 0, 6, 3822, 3816, 3860, 3855, 3868, 3842, 0, 1, 12201, -89.900, 0.000, -34.900, 0.000, 0.000, -2.800, 0.0, , , , , , 98, , , 67, 67, 67
38.2001600, -120.0382892, 19.500, 10:51:25.268, 12, 0.00, 0.25, 98, -1.200, 0.400, -34.900, 394, 100, 98, 18, 23086, -19297, 5418, 5529, 9, 14, 1526147485.269, 65, 0, 1024, 1024, 1024, 1024, 0, 6, 3822, 3816, 3860, 3855, 3868, 3842, 0, 1, 12300, -89.900, 0.000, -34.900, 0.000, 0.000, -2.800, 0.0, , , , , , 98, , , 67, 67, 67
38.2001601, -120.0382891, 19.800, 10:51:25.369, 12, 0.00, 0.26, 98, -1.300, 0.100, -34.900, 394, 100, 98, 18, 23086, -19297, 5418, 5529, 9, 14, 1526147485.370, 56, 0, 1024, 1024, 1024, 1024, 0, 6, 3822, 3816, 3860, 3855, 3868, 3842, 0, 1, 12401, -90.000, 0.000, -34.900, 0.000, 0.000, -3.000, 0.0, , , , , , 98, , , 67, 67, 67
38.2001602, -120.0382890, 20.100, 10:51:25.469, 12, 0.00, 0.27, 98, -1.400, 0.000, -34.900, 394, 100, 98, 18, 23086, -19297, 5418, 5529, 9, 14, 1526147485.469, 59, 0, 1024, 1024, 1024, 1024, 0, 6, 3822, 3816, 3860, 3855, 3868, 3842, 0, 1, 12501, -90.000, 0.000, -34.900, 0.000, 0.000, -2.900, 0.0, , , , , , 98, , , 67, 67, 67
38.2001603, -120.0382889, 20.400, 10:51:25.569, 12, 0.00, 0.28, 98, -1.400, 0.000, -35.000, 394, 100, 98, 18, 23086, -19297, 5418, 5529, 9, 14, 1526147485.569, 64, 0, 1024, 1024, 1024, 1024, 0, 6, 3822, 3816, 3860, 3855, 3868, 3842, 0, 1, 12601, -90.000, 0.000, -34.900, 0.000, 0.000, -2.900, 0.0, , , , , , 98, , , 67, 67, 67
38.2001604, -120.0382888, 20.700, 10:51:25.669, 12, 0.00, 0.29, 98, -1.500, 0.000, -35.000, 394, 100, 98, 18, 23086, -19297, 5418, 5529, 9, 14, 1526147485.670, 68, 0, 1024, 1024, 1024, 1024, 0, 6, 3822, 3816, 3860, 3855, 3868, 3842, 0, 1, 12701, -89.900, 0.000, -34.900, 0.000, 0.000, -2.900, 0.0, , , , , , 98, , , 67, 67, 67
38.2001605, -120.0382887, 21.000, 10:51:25.769, 12, 0.00, 0.30, 98, -1.600, 0.100, -35.100, 394, 100, 98, 18, 23091, -19097, 5363, 5529, 9, 14, 1526147485.770, 64, 0, 1024, 1024, 1024, 1024, 0, 6, 3827, 3823, 3874, 3860, 3865, 3847, 0, 1, 12802, -89.900, 0.000, -34.900, 0.000, 0.000, -2.900, 0.0, , , , , , 98, , , 67, 67, 67
38.2001606, -120.0382886, 21.300, 10:51:25.869, 12, 0.00, 0.32, 98, -1.600, 0.300, -35.200, 394, 100, 99, 18, 23091, -19097, 5363, 5529, 9, 14, 1526147485.869, 28, 0, 1024, 1024, 1024, 1024, 0, 6, 3827, 3823, 3874, 3860, 3865, 3847, 0, 1, 12901, -89.900, 0.000, -34.900, 0.000, 0.000, -2.900, 0.0, , , , , , 98, , , 67, 67, 67
38.2001607, -120.0382886, 21.600, 10:51:25.969, 12, 0.00, 0.33, 98, -1.600, 0.500, -35.200, 394, 100, 99, 18, 23091, -19097, 5363, 5529, 9, 14, 1526147485.969, 36, 0, 1024, 1024, 1024, 1024, 0, 6, 3827, 3823, 3874, 3860, 3865, 3847, 0, 1, 13001, -89.900, 0.000, -34.900, 0.000, 0.000, -2.900, 0.0, , , , , , 98, , , 67, 67, 67
38.2001608, -120.0382885, 21.900, 10:51:26.069, 13, 0.00, 0.34, 98, -1.400, 0.600, -35.300, 394, 100, 99, 18, 23091, -19097, 5363, 5529, 9, 14, 1526147486.069, 41, 0, 1024, 1024, 1024, 1024, 0, 6, 3827, 3823, 3874, 3860, 3865, 3847, 0, 1, 13101, -89.900, 0.000, -34.900, 0.000, 0.000, -2.900, 0.0, , , , , , 98, , , 67, 67, 67
38.2001609, -120.0382884, 22.200, 10:51:26.172, 13, 0.00, 0.35, 98, -1.200, 0.600, -35.300, 394, 100, 99, 18, 23091, -19097, 5363, 5529, 9, 14, 1526147486.172, 5, 0, 1024, 1024, 1024, 1024, 0, 6, 3827, 3823, 3874, 3860, 3865, 3847, 0, 1, 13204, -89.900, 0.000, -34.900, 0.000, 0.000, -2.800, 0.0, , , , , , 98, , , 67, 67, 67
38.2001610, -120.0382884, 22.500, 10:51:26.268, 12, 0.00, 0.36, 98, -1.100, 0.600, -35.200, 394, 100, 99, 18, 23091, -19097, 5363, 5529, 9, 14, 1526147486.269, 30, 0, 1024, 1024, 1024, 1024, 0, 6, 3827, 3823, 3874, 3860, 3865, 3847, 0, 1, 13300, -89.900, 0.000, -34.900, 0.000, 0.000, -2.800, 0.0, , , , , , 98, , , 67, 67, 67
38.2001610, -120.0382883, 22.800, 10:51:26.369, 12, 0.00, 0.37, 98, -1.200, 0.500, -35.200, 394, 100, 99, 18, 23091, -19097, 5363, 5529, 9, 14, 1526147486.369, 20, 0, 1024, 1024, 1024, 1024, 0, 6, 3827, 3823, 3874, 3860, 3865, 3847, 0, 1, 13401, -90.000, 0.000, -34.900, 0.000, 0.000, -2.900, 0.0, , , , , , 98, , , 67, 67, 67
38.2001611, -120.0382883, 23.100, 10:51:26.469, 13, 0.00, 0.37, 98, -1.300, 0.400, -35.200, 394, 100, 99, 18, 23091, -19097, 5363, 5529, 9, 14, 1526147486.469, 13, 0, 1024, 1024, 1024, 1024, 0, 6, 3827, 3823, 3874, 3860, 3865, 3847, 0, 1, 13501, -90.000, 0.000, -34.900, 0.000, 0.000, -2.900, 0.0, , , , , , 98, , , 67, 67, 67
38.2001611, -120.0382883, 23.100, 10:51:26.568, 13, 0.00, 0.37, 98, -1.300, 0.400, -35.200, 394, 100, 99, 18, 23091, -19097, 5363, 5529, 9, 14, 1526147486.569, 113, 0, 1024, 1024, 1024, 1024, 0, 6, 3827, 3823, 3874, 3860, 3865, 3847, 0, 1, 13600, -90.000, 0.000, -34.900, 0.000, 0.000, -2.900, 0.0, , , , , , 98, , , 67, 67, 67
38.2001612, -120.0382883, 24.000, 10:51:26.668, 13, 0.00, 0.39, 98, -1.600, 0.900, -35.000, 394, 100, 99, 18, 23091, -19097, 5363, 5529, 9, 14, 1526147486.669, 6, 0, 1024, 1024, 1024, 1024, 0, 6, 3827, 3823, 3874, 3860, 3865, 3847, 0, 1, 13700, -89.900, 0.000, -34.900, 0.000, 0.000, -2.900, 0.0, , , , , , 98, , , 67, 67, 67
38.2001612, -120.0382883, 24.000, 10:51:26.769, 13, 0.00, 0.39, 98, -1.600, 0.900, -35.000, 394, 100, 99, 18, 23091, -19097, 5363, 5529, 9, 14, 1526147486.769, 107, 0, 1024, 1024, 1024, 1024, 0, 6, 3827, 3823, 3874, 3860, 3865, 3847, 0, 1, 13801, -89.900, 0.000, -34.900, 0.000, 0.000, -2.900, 0.0, , , , , , 98, , , 67, 67, 67
38.2001613, -120.0382882, 24.600, 10:51:26.873, 13, 0.00, 0.39, 97, -1.100, 0.700, -34.800, 394, 100, 98, 19, 23087, -18683, 5363, 5529, 9, 14, 1526147486.873, 4, 0, 1024, 1024, 1024, 1024, 0, 6, 3827, 3823, 3874, 3860, 3865, 3847, 0, 1, 13905, -89.900, 0.000, -34.900, 0.000, 0.000, -2.900, 0.0, , , , , , 98, , , 67, 67, 67
38.2001613, -120.0382882, 24.600, 10:51:26.969, 13, 0.00, 0.39, 97, -1.100, 0.700, -34.800, 394, 100, 98, 19, 23087, -18683, 5363, 5529, 9, 14, 1526147486.969, 100, 0, 1024, 1024, 1024, 1024, 0, 6, 3827, 3823, 3874, 3860, 3865, 3847, 0, 1, 14001, -89.900, 0.000, -34.900, 0.000, 0.000, -2.900, 0.0, , , , , , 98, , , 67, 67, 67
38.2001613, -120.0382883, 24.900, 10:51:27.069, 13, 0.00, 0.39, 97, -1.000, 0.500, -34.800, 394, 100, 98, 19, 23087, -18683, 5363, 5529, 9, 14, 1526147487.069, 94, 0, 1024, 1024, 1024, 1024, 0, 6, 3827, 3823, 3874, 3860, 3865, 3847, 0, 1, 14101, -90.000, 0.000, -34.900, 0.000, 0.000, -3.000, 0.0, , , , , , 98, , , 67, 67, 67
38.2001613, -120.0382883, 25.200, 10:51:27.169, 13, 0.00, 0.39, 97, -1.100, 0.200, -34.900, 394, 100, 98, 19, 23087, -18683, 5363, 5529, 9, 14, 1526147487.169, 88, 0, 1024, 1024, 1024, 1024, 0, 6, 3827, 3823, 3874, 3860, 3865, 3847, 0, 1, 14201, -90.000, 0.000, -34.900, 0.000, 0.000, -2.900, 0.0, , , , , , 98, , , 67, 67, 67
38.2001613, -120.0382883, 25.500, 10:51:27.269, 13, 0.00, 0.39, 97, -1.100, 0.100, -35.000, 394, 100, 98, 19, 23087, -18683, 5363, 5529, 9, 14, 1526147487.269, 82, 0, 1024, 1024, 1024, 1024, 0, 6, 3823, 3820, 3877, 3854, 3871, 3839, 0, 1, 14301, -90.000, 0.000, -34.900, 0.000, 0.000, -2.900, 0.0, , , , , , 98, , , 67, 67, 67
38.2001613, -120.0382884, 25.800, 10:51:27.369, 13, 0.00, 0.39, 97, -1.000, 0.100, -35.100, 394, 100, 98, 19, 23087, -18683, 5363, 5529, 9, 14, 1526147487.369, 76, 0, 1024, 1024, 1024, 1024, 0, 6, 3823, 3820, 3877, 3854, 3871, 3839, 0, 1, 14401, -90.000, 0.000, -34.900, 0.000, 0.000, -3.000, 0.0, , , , , , 98, , , 67, 67, 67
38.2001612, -120.0382884, 26.100, 10:51:27.469, 13, 0.00, 0.39, 97, -0.800, 0.200, -35.100, 394, 100, 98, 19, 23087, -18683, 5363, 5529, 9, 14, 1526147487.469, 89, 0, 1024, 1024, 1024, 1024, 0, 6, 3823, 3820, 3877, 3854, 3871, 3839, 0, 1, 14501, -89.900, 0.000, -34.900, 0.000, 0.000, -2.900, 0.0, , , , , , 98, , , 67, 67, 67
38.2001612, -120.0382885, 26.400, 10:51:27.569, 13, 0.00, 0.38, 97, -0.600, 0.400, -35.100, 394, 100, 98, 19, 23087, -18683, 5363, 5529, 9, 14, 1526147487.569, 60, 0, 1024, 1024, 1024, 1024, 0, 6, 3823, 3820, 3877, 3854, 3871, 3839, 0, 1, 14601, -89.900, 0.000, -34.900, 0.000, 0.000, -2.900, 0.0, , , , , , 98, , , 67, 67, 67
38.2001611, -120.0382886, 26.700, 10:51:27.669, 14, 0.00, 0.38, 97, -0.400, 0.400, -35.100, 394, 100, 98, 19, 23087, -18683, 5363, 5529, 9, 14, 1526147487.669, 65, 0, 1024, 1024, 1024, 1024, 0, 6, 3823, 3820, 3877, 3854, 3871, 3839, 0, 1, 14701, -89.900, 0.000, -34.900, 0.000, 0.000, -3.000, 0.0, , , , , , 98, , , 67, 67, 67
38.2001611, -120.0382887, 27.000, 10:51:27.769, 14, 0.00, 0.38, 97, -0.200, 0.400, -35.000, 394, 100, 98, 19, 23087, -18683, 5363, 5529, 9, 14, 1526147487.769, 69, 0, 1024, 1024, 1024, 1024, 0, 6, 3823, 3820, 3877, 3854, 3871, 3839, 0, 1, 14801, -89.900, 0.000, -34.900, 0.000, 0.000, -2.900, 0.0, , , , , , 98, , , 67, 67, 67
38.2001611, -120.0382888, 27.300, 10:51:27.869, 13, 0.00, 0.37, 97, -0.100, 0.400, -35.100, 394, 100, 99, 19, 23087, -18683, 5363, 5529, 9, 14, 1526147487.869, 65, 0, 1024, 1024, 1024, 1024, 0, 6, 3823, 3820, 3877, 3854, 3871, 3839, 0, 1, 14901, -89.900, 0.000, -34.900, 0.000, 0.000, -2.900, 0.0, , , , , , 98, , , 67, 67, 67
38.2001611, -120.0382888, 27.600, 10:51:27.969, 13, 0.00, 0.37, 97, -0.100, 0.400, -35.100, 394, 100, 99, 19, 23087, -18683, 5363, 5529, 9, 14, 1526147487.969, 69, 0, 1024, 1024, 1024, 1024, 0, 6, 3823, 3820, 3877, 3854, 3871, 3839, 0, 1, 15001, -89.900, 0.000, -34.900, 0.000, 0.000, -3.000, 0.0, , , , , , 98, , , 67, 67, 67
38.2001611, -120.0382889, 27.900, 10:51:28.069, 14, 0.00, 0.37, 97, -0.200, 0.300, -35.100, 394, 100, 99, 19, 23087, -18683, 5363, 5529, 9, 14, 1526147488.070, 74, 0, 1024, 1024, 1024, 1024, 0, 6, 3823, 3820, 3877, 3854, 3871, 3839, 0, 1, 15101, -89.900, 0.000, -34.900, 0.000, 0.000, -2.900, 0.0, , , , , , 98, , , 67, 67, 67
38.2001611, -120.0382889, 28.200, 10:51:28.169, 14, 0.00, 0.37, 97, -0.400, 0.200, -35.100, 394, 100, 99, 19, 23087, -18683, 5363, 5529, 9, 14, 1526147488.170, 44, 0, 1024, 1024, 1024, 1024, 0, 6, 3823, 3820, 3877, 3854, 3871, 3839, 0, 1, 15201, -90.000, 0.000, -34.900, 0.000, 0.000, -3.000, 0.0, , , , , , 98, , , 67, 67, 67
38.2001610, -120.0382890, 28.500, 10:51:28.269, 14, 0.00, 0.37, 97, -0.500, 0.200, -35.100, 394, 100, 99, 19, 23028, -18930, 5363, 5529, 9, 14, 1526147488.269, 33, 0, 1024, 1024, 1024, 1024, 0, 6, 3813, 3807, 3871, 3843, 3861, 3831, 0, 1, 15301, -89.900, 0.000, -34.900, 0.000, 0.000, -3.000, 0.0, , , , , , 98, , , 67, 67, 67
38.2001610, -120.0382890, 28.800, 10:51:28.369, 14, 0.00, 0.36, 97, -0.500, 0.300, -35.100, 394, 100, 99, 19, 23028, -18930, 5363, 5529, 9, 14, 1526147488.369, 40, 0, 1024, 1024, 1024, 1024, 0, 6, 3813, 3807, 3871, 3843, 3861, 3831, 0, 1, 15401, -89.900, 0.000, -34.900, 0.000, 0.000, -3.000, 0.0, , , , , , 98, , , 67, 67, 67
38.2001610, -120.0382891, 29.100, 10:51:28.469, 14, 0.00, 0.36, 97, -0.400, 0.300, -35.100, 394, 100, 99, 19, 23028, -18930, 5363, 5529, 9, 14, 1526147488.469, 19, 0, 1024, 1024, 1024, 1024, 0, 6, 3813, 3807, 3871, 3843, 3861, 3831, 0, 1, 15501, -89.900, 0.000, -34.900, 0.000, 0.000, -2.900, 0.0, , , , , , 98, , , 67, 67, 67
38.2001609, -120.0382891, 29.400, 10:51:28.569, 14, 0.00, 0.36, 97, -0.500, 0.300, -35.200, 394, 100, 99, 19, 23028, -18930, 5363, 5529, 9, 14, 1526147488.570, 12, 0, 1024, 1024, 1024, 1024, 0, 6, 3813, 3807, 3871, 3843, 3861, 3831, 0, 1, 15601, -89.900, 0.000, -34.900, 0.000, 0.000, -2.900, 0.0, , , , , , 98, , , 67, 67, 67
38.2001609, -120.0382892, 29.700, 10:51:28.674, 14, 0.00, 0.35, 97, -0.400, 0.200, -35.100, 394, 100, 99, 19, 23028, -18930, 5363, 5529, 9, 14, 1526147488.674, 6, 0, 1024, 1024, 1024, 1024, 0, 6, 3813, 3807, 3871, 3843, 3861, 3831, 0, 1, 15706, -90.000, 0.000, -34.900, 0.000, 0.000, -2.900, 0.0, , , , , , 98, , , 67, 67, 67
38.2001609, -120.0382892, 30.000, 10:51:28.769, 14, 0.00, 0.35, 97, -0.200, 0.200, -35.000, 394, 100, 99, 19, 23028, -18930, 5363, 5529, 9, 14, 1526147488.769, 30, 0, 1024, 1024, 1024, 1024, 0, 6, 3813, 3807, 3871, 3843, 3861, 3831, 0, 1, 15801, -90.000, 0.000, -34.900, 0.000, 0.000, -2.900, 0.0, , , , , , 98, , , 67, 67, 67
38.2001608, -120.0382892, 30.300, 10:51:28.869, 14, 0.00, 0.35, 97, 0.000, 0.100, -34.900, 394, 100, 99, 19, 23028, -18930, 5363, 5529, 9, 14, 1526147488.869, 32, 0, 1024, 1024, 1024, 1024, 0, 6, 3813, 3807, 3871, 3843, 3861, 3831, 0, 1, 15901, -89.900, 0.000, -34.900, 0.000, 0.000, -2.900, 0.0, , , , , , 98, , , 67, 67, 67
38.2001607, -120.0382893, 30.900, 10:51:28.969, 14, 0.00, 0.33, 97, -0.100, -0.100, -34.800, 394, 100, 99, 19, 23028, -18930, 5363, 5529, 9, 14, 1526147488.969, 28, 0, 1024, 1024, 1024, 1024, 0, 6, 3813, 3807, 3871, 3843, 3861, 3831, 0, 1, 16001, -90.000, 0.000, -34.900, 0.000, 0.000, -2.900, 0.0, , , , , , 98, , , 67, 67, 67
38.2001606, -120.0382893, 31.200, 10:51:29.069, 14, 0.00, 0.33, 97, -0.200, -0.100, -34.900, 394, 100, 99, 19, 23028, -18930, 5363, 5529, 9, 14, 1526147489.069, 14, 0, 1024, 1024, 1024, 1024, 0, 6, 3813, 3807, 3871, 3843, 3861, 3831, 0, 1, 16101, -90.000, 0.000, -34.900, 0.000, 0.000, -2.900, 0.0, , , , , , 98, , , 67, 67, 67
38.2001606, -120.0382893, 31.500, 10:51:29.169, 14, 0.00, 0.32, 97, -0.200, -0.100, -34.900, 394, 100, 99, 19, 23028, -18930, 5363, 5529, 9, 14, 1526147489.169, 8, 0, 1024, 1024, 1024, 1024, 0, 6, 3813, 3807, 3871, 3843, 3861, 3831, 0, 1, 16201, -90.000, 0.000, -34.900, 0.000, 0.000, -2.900, 0.0, , , , , , 98, , , 67, 67, 67
38.2001605, -120.0382894, 31.800, 10:51:29.269, 14, 0.00, 0.31, 97, -0.200, -0.100, -34.900, 394, 100, 99, 19, 23030, -17891, 5363, 5529, 9, 14, 1526147489.269, 13, 0, 1024, 1024, 1024, 1024, 0, 6, 3827, 3820, 3858, 3850, 3868, 3838, 0, 1, 16301, -90.000, 0.000, -34.900, 0.000, 0.000, -2.900, 0.0, , , , , , 98, , , 67, 67, 67
38.2001604, -120.0382894, 32.100, 10:51:29.369, 14, 0.00, 0.31, 97, 0.000, -0.100, -34.900, 394, 100, 99, 19, 23030, -17891, 5363, 5529, 9, 14, 1526147489.369, 5, 0, 1024, 1024, 1024, 1024, 0, 6, 3827, 3820, 3858, 3850, 3868, 3838, 0, 1, 16401, -90.000, 0.000, -34.900, 0.000, 0.000, -2.900, 0.0, , , , , , 98, , , 67, 67, 67
38.2001604, -120.0382894, 32.100, 10:51:29.469, 14, 0.00, 0.31, 97, 0.000, -0.100, -34.900, 394, 100, 99, 19, 23030, -17891, 5363, 5529, 9, 14, 1526147489.470, 105, 0, 1024, 1024, 1024, 1024, 0, 6, 3827, 3820, 3858, 3850, 3868, 3838, 0, 1, 16501, -90.000, 0.000, -34.900, 0.000, 0.000, -2.900, 0.0, , , , , , 98, , , 67, 67, 67
38.2001604, -120.0382895, 32.400, 10:51:29.569, 14, 0.00, 0.30, 97, 0.100, -0.200, -35.000, 394, 100, 99, 19, 23030, -17891, 5363, 5529, 9, 14, 1526147489.569, 96, 0, 1024, 1024, 1024, 1024, 0, 6, 3827, 3820, 3858, 3850, 3868, 3838, 0, 1, 16601, -90.000, 0.000, -34.900, 0.000, 0.000, -2.800, 0.0, , , , , , 98, , , 67, 67, 67
38.2001603, -120.0382895, 32.700, 10:51:29.669, 14, 0.00, 0.30, 97, 0.100, -0.400, -35.000, 394, 100, 99, 19, 23030, -17891, 5363, 5529, 9, 14, 1526147489.669, 85, 0, 1024, 1024, 1024, 1024, 0, 6, 3827, 3820, 3858, 3850, 3868, 3838, 0, 1, 16701, -90.000, 0.000, -34.900, 0.000, 0.000, -2.900, 0.0, , , , , , 98, , , 67, 67, 67
38.2001602, -120.0382895, 33.000, 10:51:29.769, 14, 0.00, 0.29, 97, 0.000, -0.400, -35.000, 394, 100, 99, 19, 23030, -17891, 5363, 5529, 9, 14, 1526147489.769, 85, 0, 1024, 1024, 1024, 1024, 0, 6, 3827, 3820, 3858, 3850, 3868, 3838, 0, 1, 16801, -89.900, 0.000, -34.900, 0.000, 0.000, -2.900, 0.0, , , , , , 98, , , 67, 67, 67
38.2001602, -120.0382895, 33.300, 10:51:29.869, 14, 0.00, 0.29, 97, 0.000, -0.200, -35.000, 394, 100, 99, 19, 23030, -17891, 5363, 5529, 9, 14, 1526147489.869, 90, 0, 1024, 1024, 1024, 1024, 0, 6, 3827, 3820, 3858, 3850, 3868, 3838, 0, 1, 16901, -89.900, 0.000, -34.900, 0.000, 0.000, -3.000, 0.0, , , , , , 98, , , 67, 67, 67
38.2001602, -120.0382895, 33.600, 10:51:29.969, 14, 0.00, 0.29, 97, -0.100, -0.100, -34.900, 394, 100, 99, 19, 23030, -17891, 5363, 5529, 9, 14, 1526147489.969, 79, 0, 1024, 1024, 1024, 1024, 0, 6, 3827, 3820, 3858, 3850, 3868, 3838, 0, 1, 17001, -89.900, 0.000, -34.900, 0.000, 0.000, -2.900, 0.0, , , , , , 98, , , 67, 67, 67
38.2001602, -120.0382895, 33.900, 10:51:30.069, 14, 0.00, 0.29, 97, -0.100, -0.100, -34.900, 394, 100, 99, 19, 23030, -17891, 5363, 5529, 9, 14, 1526147490.069, 70, 0, 1024, 1024, 1024, 1024, 0, 6, 3827, 3820, 3858, 3850, 3868, 3838, 0, 1, 17101, -90.000, 0.000, -34.900, 0.000, 0.000, -2.900, 0.0, , , , , , 98, , , 67, 67, 67
38.2001602, -120.0382895, 34.200, 10:51:30.169, 14, 0.00, 0.29, 97, -0.300, -0.100, -34.900, 394, 100, 99, 19, 23030, -17891, 5363, 5529, 9, 14, 1526147490.169, 67, 0, 1024, 1024, 1024, 1024, 0, 6, 3827, 3820, 3858, 3850, 3868, 3838, 0, 1, 17201, -90.000, 0.000, -34.900, 0.000, 0.000, -2.900, 0.0, , , , , , 98, , , 67, 67, 67
38.2001602, -120.0382895, 34.500, 10:51:30.269, 14, 0.00, 0.28, 97, -0.400, -0.100, -35.000, 394, 100, 99, 19, 23085, -17918, 5363, 5529, 9, 14, 1526147490.269, 57, 0, 1024, 1024, 1024, 1024, 0, 6, 3822, 3812, 3866, 3852, 3857, 3850, 0, 1, 17301, -90.000, 0.000, -34.900, 0.000, 0.000, -2.900, 0.0, , , , , , 98, , , 67, 67, 67
38.2001601, -120.0382894, 34.800, 10:51:30.369, 14, 0.00, 0.28, 97, -0.400, -0.100, -35.100, 394, 100, 100, 19, 23085, -17918, 5363, 5529, 9, 14, 1526147490.369, 41, 0, 1024, 1024, 1024, 1024, 0, 6, 3822, 3812, 3866, 3852, 3857, 3850, 0, 1, 17401, -90.000, 0.000, -34.900, 0.000, 0.000, -2.900, 0.0, , , , , , 98, , , 67, 67, 67
38.2001601, -120.0382894, 35.000, 10:51:30.469, 14, 0.00, 0.27, 97, -0.500, -0.100, -35.200, 394, 100, 100, 19, 23085, -17918, 5363, 5529, 9, 14, 1526147490.469, 40, 0, 1024, 1024, 1024, 1024, 0, 6, 3822, 3812, 3866, 3852, 3857, 3850, 0, 1, 17501, -90.000, 0.000, -34.900, 0.000, 0.000, -2.900, 0.0, , , , , , 98, , , 67, 67, 67
38.2001601, -120.0382893, 35.300, 10:51:30.569, 14, 0.00, 0.27, 97, -0.600, -0.200, -35.400, 394, 100, 100, 19, 23085, -17918, 5363, 5529, 9, 14, 1526147490.569, 31, 0, 1024, 1024, 1024, 1024, 0, 6, 3822, 3812, 3866, 3852, 3857, 3850, 0, 1, 17601, -90.000, 0.000, -34.900, 0.000, 0.000, -2.900, 0.0, , , , , , 98, , , 67, 67, 67
38.2001601, -120.0382893, 35.600, 10:51:30.669, 14, 0.00, 0.27, 97, -0.800, -0.200, -35.600, 394, 100, 100, 19, 23085, -17918, 5363, 5529, 9, 14, 1526147490.669, 57, 0, 1024, 1024, 1024, 1024, 0, 6, 3822, 3812, 3866, 3852, 3857, 3850, 0, 1, 17701, -89.900, 0.000, -34.900, 0.000, 0.000, -2.900, 0.0, , , , , , 98, , , 67, 67, 67
38.2001601, -120.0382892, 35.900, 10:51:30.769, 14, 0.00, 0.27, 97, -0.900, 0.000, -35.800, 394, 100, 100, 19, 23085, -17918, 5363, 5529, 9, 14, 1526147490.769, 39, 0, 1024, 1024, 1024, 1024, 0, 6, 3822, 3812, 3866, 3852, 3857, 3850, 0, 1, 17801, -89.900, 0.000, -34.900, 0.000, 0.000, -3.000, 0.0, , , , , , 98, , , 67, 67, 67
38.2001601, -120.0382892, 36.200, 10:51:30.869, 14, 0.00, 0.27, 97, -0.900, 0.000, -35.800, 394, 100, 96, 19, 23085, -17918, 5363, 5529, 9, 14, 1526147490.870, 13, 0, 1024, 1024, 1024, 1024, 0, 6, 3822, 3812, 3866, 3852, 3857, 3850, 0, 1, 17901, -89.900, 0.000, -34.900, 0.000, 0.000, -3.000, 0.0, , , , , , 98, , , 67, 67, 67
38.2001601, -120.0382892, 36.600, 10:51:30.969, 14, 0.00, 0.27, 97, -0.700, 0.000, -35.800, 394, 100, 96, 19, 23085, -17918, 5363, 5529, 9, 14, 1526147490.969, 34, 0, 1024, 1024, 1024, 1024, 0, 6, 3822, 3812, 3866, 3852, 3857, 3850, 0, 1, 18001, -90.000, 0.000, -34.900, 0.000, 0.000, -3.000, 0.0, , , , , , 98, , , 67, 67, 67
38.2001601, -120.0382892, 36.900, 10:51:31.069, 15, 0.00, 0.26, 97, -0.700, -0.200, -35.700, 394, 100, 96, 19, 23085, -17918, 5363, 5529, 9, 14, 1526147491.069, 22, 0, 1024, 1024, 1024, 1024, 0, 6, 3822, 3812, 3866, 3852, 3857, 3850, 0, 1, 18101, -90.000, 0.000, -34.900, 0.000, 0.000, -3.000, 0.0, , , , , , 98, , , 67, 67, 67
38.2001601, -120.0382890, 37.500, 10:51:31.171, 15, 0.00, 0.26, 97, -1.100, -0.700, -35.400, 394, 100, 96, 19, 23085, -17918, 5363, 5529, 9, 14, 1526147491.171, 4, 0, 1024, 1024, 1024, 1024, 0, 6, 3822, 3812, 3866, 3852, 3857, 3850, 0, 1, 18203, -90.000, 0.000, -34.900, 0.000, 0.000, -3.000, 0.0, , , , , , 98, , , 67, 67, 67
38.2001601, -120.0382890, 37.500, 10:51:31.269, 15, 0.00, 0.26, 97, -1.100, -0.700, -35.400, 394, 100, 96, 19, 23048, -17795, 5363, 5529, 9, 14, 1526147491.269, 102, 0, 1024, 1024, 1024, 1024, 0, 6, 3822, 3812, 3866, 3852, 3857, 3850, 0, 1, 18301, -90.000, 0.000, -34.900, 0.000, 0.000, -3.000, 0.0, , , , , , 98, , , 67, 67, 67
38.2001600, -120.0382889, 38.100, 10:51:31.369, 15, 0.00, 0.26, 97, -1.300, -0.700, -35.200, 394, 100, 91, 19, 23048, -17795, 5363, 5529, 9, 14, 1526147491.369, 13, 0, 1024, 1024, 1024, 1024, 0, 6, 3822, 3812, 3866, 3852, 3857, 3850, 0, 1, 18401, -90.000, 0.000, -34.900, 0.000, 0.000, -2.900, 0.0, , , , , , 98, , , 67, 67, 67
38.2001600, -120.0382889, 38.100, 10:51:31.469, 15, 0.00, 0.26, 97, -1.300, -0.700, -35.200, 394, 100, 91, 19, 23048, -17795, 5363, 5529, 9, 14, 1526147491.469, 113, 0, 1024, 1024, 1024, 1024, 0, 6, 3818, 3814, 3869, 3853, 3870, 3846, 0, 1, 18501, -90.000, 0.000, -34.900, 0.000, 0.000, -2.900, 0.0, , , , , , 98, , , 67, 67, 67
38.2001600, -120.0382889, 38.100, 10:51:31.569, 15, 0.00, 0.26, 97, -1.300, -0.700, -35.200, 394, 100, 91, 19, 23048, -17795, 5363, 5529, 9, 14, 1526147491.569, 213, 0, 1024, 1024, 1024, 1024, 0, 6, 3818, 3814, 3869, 3853, 3870, 3846, 0, 1, 18601, -90.000, 0.000, -34.900, 0.000, 0.000, -2.900, 0.0, , , , , , 98, , , 67, 67, 67
38.2001600, -120.0382888, 38.600, 10:51:31.669, 15, 0.00, 0.25, 97, -1.000, -1.100, -34.800, 394, 100, 91, 19, 23048, -17795, 5363, 5529, 9, 14, 1526147491.669, 97, 0, 1024, 1024, 1024, 1024, 0, 6, 3818, 3814, 3869, 3853, 3870, 3846, 0, 1, 18701, -90.000, 0.000, -34.900, 0.000, 0.000, -2.800, 0.0, , , , , , 98, , , 67, 67, 67
38.2001599, -120.0382887, 38.900, 10:51:31.769, 15, 0.00, 0.24, 97, -0.900, -1.300, -34.500, 394, 100, 91, 19, 23048, -17795, 5363, 5529, 9, 14, 1526147491.769, 84, 0, 1024, 1024, 1024, 1024, 0, 6, 3818, 3814, 3869, 3853, 3870, 3846, 0, 1, 18801, -90.000, 0.000, -34.900, 0.000, 0.000, -2.900, 0.0, , , , , , 98, , , 67, 67, 67
38.2001599, -120.0382887, 39.200, 10:51:31.869, 15, 0.00, 0.24, 97, -0.900, -1.400, -34.300, 394, 100, 89, 19, 23048, -17795, 5363, 5529, 9, 14, 1526147491.870, 87, 0, 1024, 1024, 1024, 1024, 0, 6, 3818, 3814, 3869, 3853, 3870, 3846, 0, 1, 18901, -90.000, 0.000, -34.900, 0.000, 0.000, -2.900, 0.0, , , , , , 98, , , 67, 67, 67
38.2001599, -120.0382886, 39.500, 10:51:31.969, 15, 0.00, 0.24, 97, -1.200, -1.500, -34.100, 394, 100, 89, 19, 23048, -17795, 5363, 5529, 9, 14, 1526147491.969, 89, 0, 1024, 1024, 1024, 1024, 0, 6, 3818, 3814, 3869, 3853, 3870, 3846, 0, 1, 19001, -90.000, 0.000, -34.900, 0.000, 0.000, -2.900, 0.0, , , , , , 98, , , 67, 67, 67
38.2001599, -120.0382886, 39.800, 10:51:32.069, 15, 0.00, 0.23, 97, -1.300, -1.700, -34.100, 394, 100, 89, 19, 23048, -17795, 5363, 5529, 9, 14, 1526147492.069, 94, 0, 1024, 1024, 1024, 1024, 0, 6, 3818, 3814, 3869, 3853, 3870, 3846, 0, 1, 19101, -90.000, 0.000, -34.900, 0.000, 0.000, -2.900, 0.0, , , , , , 98, , , 67, 67, 67
38.2001598, -120.0382885, 40.100, 10:51:32.169, 15, 0.00, 0.23, 97, -1.200, -1.800, -34.100, 394, 100, 89, 19, 23048, -17795, 5363, 5529, 9, 14, 1526147492.170, 50, 0, 1024, 1024, 1024, 1024, 0, 6, 3818, 3814, 3869, 3853, 3870, 3846, 0, 1, 19202, -90.000, 0.000, -34.900, 0.000, 0.000, -2.900, 0.0, , , , , , 98, , , 67, 67, 67
38.2001598, -120.0382884, 40.400, 10:51:32.269, 15, 0.00, 0.22, 97, -0.700, -1.700, -34.100, 394, 100, 89, 19, 23058, -17211, 5363, 5529, 9, 14, 1526147492.269, 77, 0, 1024, 1024, 1024, 1024, 0, 6, 3818, 3814, 3869, 3853, 3870, 3846, 0, 1, 19301, -89.900, 0.000, -34.900, 0.000, 0.000, -2.900, 0.0, , , , , , 98, , , 67, 67, 67
38.2001597, -120.0382884, 40.700, 10:51:32.369, 15, 0.00, 0.22, 97, -0.400, -1.600, -34.000, 394, 100, 94, 19, 23058, -17211, 5363, 5529, 9, 14, 1526147492.370, 49, 0, 1024, 1024, 1024, 1024, 0, 6, 3818, 3814, 3869, 3853, 3870, 3846, 0, 1, 19401, -90.000, 0.000, -34.900, 0.000, 0.000, -2.900, 0.0, , , , , , 98, , , 67, 67, 67
38.2001597, -120.0382883, 41.000, 10:51:32.469, 15, 0.00, 0.22, 97, -0.500, -1.800, -34.100, 394, 100, 94, 19, 23058, -17211, 5363, 5529, 9, 14, 1526147492.470, 69, 0, 1024, 1024, 1024, 1024, 0, 6, 3818, 3814, 3869, 3853, 3870, 3846, 0, 1, 19501, -90.000, 0.000, -34.900, 0.000, 0.000, -3.000, 0.0, , , , , , 98, , , 67, 67, 67
38.2001597, -120.0382882, 41.300, 10:51:32.569, 15, 0.00, 0.21, 97, -0.700, -1.900, -34.300, 394, 100, 94, 19, 23058, -17211, 5363, 5529, 9, 14, 1526147492.569, 57, 0, 1024, 1024, 1024, 1024, 0, 6, 3818, 3814, 3869, 3853, 3870, 3846, 0, 1, 19601, -90.000, 0.000, -34.900, 0.000, 0.000, -3.000, 0.0, , , , , , 98, , , 67, 67, 67
38.2001596, -120.0382882, 41.600, 10:51:32.669, 15, 0.00, 0.21, 97, -1.100, -2.200, -34.500, 394, 100, 94, 19, 23058, -17211, 5363, 5529, 9, 14, 1526147492.670, 23, 0, 1024, 1024, 1024, 1024, 0, 6, 3818, 3814, 3869, 3853, 3870, 3846, 0, 1, 19701, -90.000, 0.000, -34.900, 0.000, 0.000, -3.000, 0.0, , , , , , 98, , , 67, 67, 67
38.2001596, -120.0382881, 41.900, 10:51:32.769, 15, 0.00, 0.21, 97, -1.300, -2.400, -34.600, 394, 100, 94, 19, 23058, -17211, 5363, 5529, 9, 14, 1526147492.769, 63, 0, 1024, 1024, 1024, 1024, 0, 6, 3826, 3810, 3869, 3842, 3867, 3843, 0, 1, 19801, -89.900, 0.000, -34.900, 0.000, 0.000, -2.900, 0.0, , , , , , 98, , , 67, 67, 67
38.2001596, -120.0382880, 42.200, 10:51:32.869, 15, 0.00, 0.20, 97, -1.300, -2.400, -34.700, 394, 100, 97, 19, 23058, -17211, 5363, 5529, 9, 14, 1526147492.869, 20, 0, 1024, 1024, 1024, 1024, 0, 6, 3826, 3810, 3869, 3842, 3867, 3843, 0, 1, 19901, -89.900, 0.000, -34.900, 0.000, 0.000, -3.000, 0.0, , , , , , 98, , , 67, 67, 67
38.2001595, -120.0382879, 42.500, 10:51:32.969, 15, 0.00, 0.20, 97, -1.300, -2.200, -34.800, 394, 100, 97, 19, 23058, -17211, 5363, 5529, 9, 14, 1526147492.970, 41, 0, 1024, 1024, 1024, 1024, 0, 6, 3826, 3810, 3869, 3842, 3867, 3843, 0, 1, 20002, -89.900, 0.000, -34.900, 0.000, 0.000, -3.000, 0.0, , , , , , 98, , , 67, 67, 67
38.2001595, -120.0382879, 42.800, 10:51:33.069, 15, 0.00, 0.20, 97, -1.500, -2.100, -34.800, 394, 100, 97, 19, 23058, -17211, 5363, 5529, 9, 14, 1526147493.069, 40, 0, 1024, 1024, 1024, 1024, 0, 6, 3826, 3810, 3869, 3842, 3867, 3843, 0, 1, 20101, -89.900, 0.000, -34.900, 0.000, 0.000, -3.000, 0.0, , , , , , 98, , , 67, 67, 67
38.2001595, -120.0382878, 43.100, 10:51:33.169, 15, 0.00, 0.20, 97, -1.400, -2.100, -34.900, 394, 100, 97, 19, 23058, -17211, 5363, 5529, 9, 14, 1526147493.170, 46, 0, 1024, 1024, 1024, 1024, 0, 6, 3826, 3810, 3869, 3842, 3867, 3843, 0, 1, 20201, -89.900, 0.000, -34.900, 0.000, 0.000, -2.900, 0.0, , , , , , 98, , , 67, 67, 67
38.2001595, -120.0382878, 43.300, 10:51:33.269, 15, 0.00, 0.20, 97, -1.600, -1.900, -34.900, 394, 100, 97, 19, 23058, -17211, 5363, 5529, 9, 14, 1526147493.270, 40, 0, 1024, 1024, 1024, 1024, 0, 6, 3826, 3810, 3869, 3842, 3867, 3843, 0, 1, 20301, -89.900, 0.000, -34.900, 0.000, 0.000, -2.900, 0.0, , , , , , 98, , , 67, 67, 67
38.2001595, -120.0382877, 43.700, 10:51:33.375, 15, 0.00, 0.20, 97, -1.700, -2.000, -34.900, 394, 100, 97, 19, 23058, -17211, 5363, 5529, 9, 14, 1526147493.376, 5, 0, 1024, 1024, 1024, 1024, 0, 6, 3826, 3810, 3869, 3842, 3867, 3843, 0, 1, 20408, -89.900, 0.000, -34.900, 0.000, 0.000, -3.000, 0.0, , , , , , 98, , , 67, 67, 67
38.2001595, -120.0382877, 43.700, 10:51:33.469, 15, 0.00, 0.20, 97, -1.700, -2.000, -34.900, 394, 100, 99, 19, 23058, -17211, 5363, 5529, 9, 14, 1526147493.470, 99, 0, 1024, 1024, 1024, 1024, 0, 6, 3826, 3810, 3869, 3842, 3867, 3843, 0, 1, 20501, -89.900, 0.000, -34.900, 0.000, 0.000, -3.000, 0.0, , , , , , 98, , , 67, 67, 67
38.2001595, -120.0382875, 44.300, 10:51:33.569, 15, 0.00, 0.21, 97, -2.000, -2.800, -34.800, 394, 100, 99, 19, 23058, -17211, 5363, 5529, 9, 14, 1526147493.570, 41, 0, 1024, 1024, 1024, 1024, 0, 6, 3826, 3810, 3869, 3842, 3867, 3843, 0, 1, 20601, -89.900, 0.000, -34.900, 0.000, 0.000, -3.000, 0.0, , , , , , 98, , , 67, 67, 67
38.2001594, -120.0382873, 44.900, 10:51:33.669, 15, 0.00, 0.21, 97, -2.200, -2.700, -34.700, 394, 100, 99, 19, 23058, -17211, 5363, 5529, 9, 14, 1526147493.669, 27, 0, 1024, 1024, 1024, 1024, 0, 6, 3826, 3810, 3869, 3842, 3867, 3843, 0, 1, 20701, -89.900, 0.000, -34.900, 0.000, 0.000, -3.100, 0.0, , , , , , 98, , , 67, 67, 67
38.2001594, -120.0382872, 45.200, 10:51:33.769, 15, 0.00, 0.22, 97, -2.400, -2.900, -34.700, 394, 100, 99, 19, 23007, -18187, 5363, 5529, 9, 14, 1526147493.769, 37, 0, 1024, 1024, 1024, 1024, 0, 6, 3813, 3805, 3866, 3839, 3855, 3822, 0, 1, 20801, -89.900, 0.000, -34.900, 0.000, 0.000, -3.000, 0.0, , , , , , 98, , , 67, 67, 67
38.2001594, -120.0382871, 45.600, 10:51:33.869, 15, 0.00, 0.22, 97, -2.400, -3.200, -34.500, 394, 100, 100, 19, 23007, -18187, 5363, 5529, 9, 14, 1526147493.869, 12, 0, 1024, 1024, 1024, 1024, 0, 6, 3813, 3805, 3866, 3839, 3855, 3822, 0, 1, 20901, -89.900, 0.000, -34.900, 0.000, 0.000, -3.100, 0.0, , , , , , 98, , , 67, 67, 67
38.2001594, -120.0382871, 45.600, 10:51:33.969, 15, 0.00, 0.22, 97, -2.400, -3.200, -34.500, 394, 100, 100, 19, 23007, -18187, 5363, 5529, 9, 14, 1526147493.969, 112, 0, 1024, 1024, 1024, 1024, 0, 6, 3813, 3805, 3866, 3839, 3855, 3822, 0, 1, 21001, -89.900, 0.000, -34.900, 0.000, 0.000, -3.100, 0.0, , , , , , 98, , , 67, 67, 67
