Latitude, Longitude, Altitude (m), Time, Sats, Speed (m/s), Range (m), Battery (%), Roll (deg), Pitch (deg), Yaw (deg), Images, HD Signal (%), RC Signal (%), Battery Temp (C), Battery Voltage (mV), Battery Current (mA), Battery Energy (mAh), Battery Capacity (mAh), Battery Discharges, flyState, timestamp (Unix), LastUpdate (ms), radioChannel, Rc_elevator, Rc_aileron, Rc_throttle, Rc_rudder, Rc_gyro, Dronetype, Battery_Cell1 (mV), Battery_Cell2 (mV), Battery_Cell3 (mV), Battery_Cell4 (mV), Battery_Cell5 (mV), Battery_Cell6 (mV), Video, isFlying, elapsedTime (ms), gimbalPitch (deg), gimbalRoll (deg), gimbalYaw (deg), VelocityX (m/s), VelocityY (m/s), VelocityZ (m/s), GroundSmear (cm), App Version, Aircraft Name, Aircraft Firmware, Aircraft Serial Number, Battery Serial Number, Battery Lifetime (%), App_Tip, App_Warning, CurrentFlightStartingIndex, CurrentFlightLastVisitedWaypoint, PreviousFlightEndingWaypointIndex
38.2001639, -120.0382884, 0.000, 09:55:44.409, 14, 0.00, 0.11, 100, -0.600, 0.700, -33.700, 1057, 100, 100, 18, 25503, -3096, 5529, 5529, 9, 11, 1526144144.410, 81, 0, 1024, 1024, 1024, 1024, 0, 6, 4268, 4270, 4244, 4238, 4224, 4237, 0, 1, 2801, -89.900, 0.000, -32.600, 0.000, 0.000, 0.000, 0.0, MapPilot_2.8.1_04242018, Dendroctonus I, 1.3.1.00, 041DDC1887, 1058163200563, 98, Photo, Starting Mission from Lat/Long: 38.20016/-120.03829 Camera: Zenmuse X3 - Overlap: 90/90 - Active Connection: No, 39, 39, 39
38.2001639, -120.0382884, 0.000, 09:55:44.509, 14, 0.00, 0.11, 100, -0.100, 0.900, -33.600, 1057, 100, 100, 18, 25503, -3096, 5529, 5529, 9, 11, 1526144144.510, 92, 0, 1024, 1024, 1024, 1024, 0, 6, 4268, 4270, 4244, 4238, 4224, 4237, 0, 1, 2902, -89.900, 0.000, -32.600, 0.000, 0.000, -0.200, 0.0, , , , , , 98, , , 39, 39, 39
38.2001638, -120.0382884, 0.000, 09:55:44.609, 14, 0.00, 0.11, 100, 0.000, 0.700, -33.500, 1057, 100, 100, 18, 25503, -3096, 5529, 5529, 9, 11, 1526144144.609, 93, 0, 1024, 1024, 1024, 1024, 0, 6, 4268, 4270, 4244, 4238, 4224, 4237, 0, 1, 3001, -89.900, 0.000, -32.600, 0.000, 0.000, -0.300, 0.0, , , , , , 98, , , 39, 39, 39
38.2001638, -120.0382885, 0.000, 09:55:44.709, 14, 0.00, 0.11, 100, 0.000, 0.300, -33.400, 1057, 100, 100, 18, 25503, -3096, 5529, 5529, 9, 11, 1526144144.710, 84, 0, 1024, 1024, 1024, 1024, 0, 6, 4268, 4270, 4244, 4238, 4224, 4237, 0, 1, 3101, -89.900, 0.000, -32.600, 0.000, 0.000, -0.300, 0.0, , , , , , 98, , , 39, 39, 39
38.2001638, -120.0382885, 0.000, 09:55:44.809, 14, 0.00, 0.10, 100, 0.200, -0.100, -33.300, 1057, 100, 100, 18, 25503, -3096, 5529, 5529, 9, 11, 1526144144.810, 73, 0, 1024, 1024, 1024, 1024, 0, 6, 4268, 4270, 4244, 4238, 4224, 4237, 0, 1, 3201, -89.900, 0.000, -32.600, 0.000, 0.000, -0.400, 0.0, , , , , , 98, , , 39, 39, 39
38.2001638, -120.0382885, 0.100, 09:55:44.909, 13, 0.00, 0.10, 100, 0.200, -0.100, -33.300, 1057, 100, 100, 18, 25503, -3096, 5529, 5529, 9, 11, 1526144144.911, 66, 0, 1024, 1024, 1024, 1024, 0, 6, 4268, 4270, 4244, 4238, 4224, 4237, 0, 1, 3302, -89.900, 0.000, -32.600, 0.000, 0.000, -0.400, 0.0, , , , , , 98, , , 39, 39, 39
38.2001637, -120.0382885, 0.100, 09:55:45.009, 13, 0.00, 0.09, 100, 0.500, 0.000, -33.300, 1057, 100, 100, 18, 25503, -3096, 5529, 5529, 9, 11, 1526144145.011, 68, 0, 1024, 1024, 1024, 1024, 0, 6, 4268, 4270, 4244, 4238, 4224, 4237, 0, 1, 3402, -89.900, 0.000, -32.600, 0.000, 0.000, -0.400, 0.0, , , , , , 98, , , 39, 39, 39
38.2001637, -120.0382886, 0.200, 09:55:45.109, 12, 0.00, 0.09, 100, 0.700, 0.100, -33.400, 1057, 100, 100, 18, 25503, -3096, 5529, 5529, 9, 11, 1526144145.110, 67, 0, 1024, 1024, 1024, 1024, 0, 6, 4268, 4270, 4244, 4238, 4224, 4237, 0, 1, 3501, -89.900, 0.000, -32.600, 0.000, 0.000, -0.400, 0.0, , , , , , 98, , , 39, 39, 39
38.2001637, -120.0382886, 0.200, 09:55:45.209, 12, 0.00, 0.09, 100, 0.700, 0.000, -33.500, 1057, 100, 100, 18, 25503, -3096, 5529, 5529, 9, 11, 1526144145.210, 34, 0, 1024, 1024, 1024, 1024, 0, 6, 4268, 4270, 4244, 4238, 4224, 4237, 0, 1, 3601, -90.000, 0.000, -32.600, 0.000, 0.000, -0.400, 0.0, , , , , , 98, , , 39, 39, 39
38.2001636, -120.0382886, 0.300, 09:55:45.309, 12, 0.00, 0.08, 100, 0.500, -0.100, -33.500, 1057, 100, 100, 18, 25503, -3096, 5529, 5529, 9, 11, 1526144145.309, 43, 0, 1024, 1024, 1024, 1024, 0, 6, 4268, 4270, 4244, 4238, 4224, 4237, 0, 1, 3701, -89.900, 0.000, -32.600, 0.000, 0.000, -0.400, 0.0, , , , , , 98, , , 39, 39, 39
38.2001636, -120.0382886, 0.300, 09:55:45.409, 12, 0.00, 0.08, 100, 0.500, -0.100, -33.500, 1057, 100, 100, 18, 24927, -6987, 5529, 5529, 9, 11, 1526144145.410, 144, 0, 1024, 1024, 1024, 1024, 0, 6, 4268, 4270, 4244, 4238, 4224, 4237, 0, 1, 3801, -90.000, 0.000, -32.600, 0.000, 0.000, -0.400, 0.0, , , , , , 98, , , 39, 39, 39
38.2001636, -120.0382886, 0.400, 09:55:45.509, 11, 0.00, 0.08, 100, 0.500, -0.100, -33.500, 1057, 100, 100, 18, 24927, -6987, 5529, 5529, 9, 11, 1526144145.509, 39, 0, 1024, 1024, 1024, 1024, 0, 6, 4095, 4078, 4111, 4087, 4140, 4105, 0, 1, 3901, -90.000, 0.000, -32.600, 0.000, 0.000, -0.400, 0.0, , , , , , 98, , , 39, 39, 39
38.2001635, -120.0382885, 0.500, 09:55:45.609, 10, 0.00, 0.08, 100, 0.600, -0.400, -33.500, 1057, 100, 100, 18, 24927, -6987, 5529, 5529, 9, 11, 1526144145.609, 29, 0, 1024, 1024, 1024, 1024, 0, 6, 4095, 4078, 4111, 4087, 4140, 4105, 0, 1, 4001, -90.000, 0.000, -32.600, 0.000, 0.000, -0.400, 0.0, , , , , , 98, , , 39, 39, 39
38.2001635, -120.0382885, 0.500, 09:55:45.709, 10, 0.00, 0.07, 100, 0.600, -0.400, -33.400, 1057, 100, 100, 18, 24927, -6987, 5529, 5529, 9, 11, 1526144145.710, 32, 0, 1024, 1024, 1024, 1024, 0, 6, 4095, 4078, 4111, 4087, 4140, 4105, 0, 1, 4101, -90.000, 0.000, -32.600, 0.000, 0.000, -0.400, 0.0, , , , , , 98, , , 39, 39, 39
38.2001634, -120.0382884, 0.600, 09:55:45.809, 12, 0.00, 0.07, 100, 0.400, -0.500, -33.300, 1057, 100, 100, 18, 24927, -6987, 5529, 5529, 9, 11, 1526144145.810, 19, 0, 1024, 1024, 1024, 1024, 0, 6, 4095, 4078, 4111, 4087, 4140, 4105, 0, 1, 4201, -90.000, 0.000, -32.600, 0.000, 0.000, -0.400, 0.0, , , , , , 98, , , 39, 39, 39
38.2001635, -120.0382884, 0.600, 09:55:45.909, 12, 0.00, 0.08, 100, 0.400, -0.500, -33.300, 1057, 100, 100, 18, 24927, -6987, 5529, 5529, 9, 11, 1526144145.909, 20, 0, 1024, 1024, 1024, 1024, 0, 6, 4095, 4078, 4111, 4087, 4140, 4105, 0, 1, 4301, -90.000, 0.000, -32.600, 0.000, 0.000, -0.400, 0.0, , , , , , 98, , , 39, 39, 39
38.2001635, -120.0382884, 0.600, 09:55:46.009, 12, 0.00, 0.08, 100, 0.400, -0.500, -33.300, 1057, 100, 100, 18, 24927, -6987, 5529, 5529, 9, 11, 1526144146.010, 120, 0, 1024, 1024, 1024, 1024, 0, 6, 4095, 4078, 4111, 4087, 4140, 4105, 0, 1, 4401, -90.000, 0.000, -32.600, 0.000, 0.000, -0.400, 0.0, , , , , , 98, , , 39, 39, 39
38.2001635, -120.0382882, 0.700, 09:55:46.109, 11, 0.00, 0.10, 100, 0.100, -0.500, -33.300, 1057, 100, 100, 18, 24927, -6987, 5529, 5529, 9, 11, 1526144146.110, 12, 0, 1024, 1024, 1024, 1024, 0, 6, 4095, 4078, 4111, 4087, 4140, 4105, 0, 1, 4502, -90.000, 0.000, -32.600, 0.000, 0.000, -0.400, 0.0, , , , , , 98, , , 39, 39, 39
38.2001636, -120.0382881, 0.800, 09:55:46.209, 11, 0.00, 0.10, 100, 0.000, -0.500, -33.300, 1057, 100, 100, 18, 24927, -6987, 5529, 5529, 9, 11, 1526144146.210, 17, 0, 1024, 1024, 1024, 1024, 0, 6, 4095, 4078, 4111, 4087, 4140, 4105, 0, 1, 4602, -90.000, 0.000, -32.600, 0.000, 0.000, -0.400, 0.0, , , , , , 98, , , 39, 39, 39
38.2001635, -120.0382880, 0.800, 09:55:46.309, 11, 0.00, 0.10, 100, 0.000, -0.500, -33.500, 1057, 100, 100, 18, 23956, -16611, 5529, 5529, 9, 11, 1526144146.310, 11, 0, 1024, 1024, 1024, 1024, 0, 6, 4095, 4078, 4111, 4087, 4140, 4105, 0, 1, 4701, -90.000, 0.000, -32.600, 0.000, 0.000, -0.400, 0.0, , , , , , 98, , , 39, 39, 39
38.2001635, -120.0382880, 0.800, 09:55:46.409, 11, 0.00, 0.11, 100, 0.000, -0.500, -33.600, 1057, 100, 100, 18, 23956, -16611, 5529, 5529, 9, 11, 1526144146.410, 11, 0, 1024, 1024, 1024, 1024, 0, 6, 3938, 3943, 3972, 3966, 4002, 3972, 0, 1, 4801, -90.000, 0.000, -32.600, 0.000, 0.000, -0.400, 0.0, , , , , , 98, , , 39, 39, 39
38.2001635, -120.0382879, 0.900, 09:55:46.509, 11, 0.00, 0.11, 100, 0.000, -0.600, -33.800, 1057, 100, 100, 18, 23956, -16611, 5529, 5529, 9, 14, 1526144146.510, 13, 0, 1024, 1024, 1024, 1024, 0, 6, 3938, 3943, 3972, 3966, 4002, 3972, 0, 1, 4902, -90.000, 0.000, -32.600, 0.000, 0.000, -0.500, 0.0, , , , , , 98, , , 39, 39, 39
38.2001635, -120.0382879, 0.900, 09:55:46.609, 11, 0.00, 0.11, 100, 0.000, -0.600, -33.800, 1057, 100, 100, 18, 23956, -16611, 5529, 5529, 9, 14, 1526144146.610, 113, 0, 1024, 1024, 1024, 1024, 0, 6, 3938, 3943, 3972, 3966, 4002, 3972, 0, 1, 5001, -90.000, 0.000, -32.600, 0.000, 0.000, -0.500, 0.0, , , , , , 98, , , 39, 39, 39
38.2001635, -120.0382878, 0.900, 09:55:46.709, 11, 0.00, 0.12, 100, -0.100, -0.600, -34.000, 1057, 100, 100, 18, 23956, -16611, 5529, 5529, 9, 14, 1526144146.710, 78, 0, 1024, 1024, 1024, 1024, 0, 6, 3938, 3943, 3972, 3966, 4002, 3972, 0, 1, 5102, -90.000, 0.000, -32.600, 0.000, 0.000, -0.400, 0.0, , , , , , 98, , , 39, 39, 39
38.2001635, -120.0382878, 1.000, 09:55:46.809, 11, 0.00, 0.12, 100, -0.200, -0.400, -34.300, 1057, 100, 100, 18, 23956, -16611, 5529, 5529, 9, 14, 1526144146.810, 74, 0, 1024, 1024, 1024, 1024, 0, 6, 3938, 3943, 3972, 3966, 4002, 3972, 0, 1, 5201, -89.900, 0.000, -32.700, 0.000, 0.000, -0.300, 0.0, , , , , , 98, , , 39, 39, 39
38.2001636, -120.0382877, 1.000, 09:55:46.909, 11, 0.00, 0.13, 100, -0.300, -0.300, -34.500, 1057, 100, 100, 18, 23956, -16611, 5529, 5529, 9, 14, 1526144146.910, 80, 0, 1024, 1024, 1024, 1024, 0, 6, 3938, 3943, 3972, 3966, 4002, 3972, 0, 1, 5302, -89.900, 0.000, -32.700, 0.000, 0.000, -0.200, 0.0, , , , , , 98, , , 39, 39, 39
38.2001636, -120.0382875, 1.100, 09:55:47.009, 11, 0.00, 0.14, 100, -0.300, -0.400, -34.600, 1057, 100, 99, 18, 23956, -16611, 5529, 5529, 9, 14, 1526144147.009, 79, 0, 1024, 1024, 1024, 1024, 0, 6, 3938, 3943, 3972, 3966, 4002, 3972, 0, 1, 5401, -90.000, 0.000, -32.700, 0.000, 0.000, -0.300, 0.0, , , , , , 98, , , 39, 39, 39
38.2001635, -120.0382874, 1.100, 09:55:47.109, 11, 0.00, 0.15, 100, -0.200, -0.500, -34.700, 1057, 100, 99, 18, 23956, -16611, 5529, 5529, 9, 14, 1526144147.110, 84, 0, 1024, 1024, 1024, 1024, 0, 6, 3938, 3943, 3972, 3966, 4002, 3972, 0, 1, 5501, -90.000, 0.000, -32.800, 0.000, 0.000, -0.400, 0.0, , , , , , 98, , , 39, 39, 39
38.2001635, -120.0382874, 1.100, 09:55:47.209, 11, 0.00, 0.15, 100, 0.000, -0.500, -34.600, 1057, 100, 99, 18, 23956, -16611, 5529, 5529, 9, 14, 1526144147.210, 63, 0, 1024, 1024, 1024, 1024, 0, 6, 3938, 3943, 3972, 3966, 4002, 3972, 0, 1, 5602, -90.000, 0.000, -32.800, 0.000, 0.000, -0.500, 0.0, , , , , , 98, , , 39, 39, 39
38.2001635, -120.0382873, 1.200, 09:55:47.309, 13, 0.00, 0.16, 100, 0.000, -0.400, -34.600, 1057, 100, 99, 18, 23956, -16611, 5529, 5529, 9, 14, 1526144147.310, 82, 0, 1024, 1024, 1024, 1024, 0, 6, 3938, 3943, 3972, 3966, 4002, 3972, 0, 1, 5702, -89.900, 0.000, -32.900, 0.000, 0.000, -0.700, 0.0, , , , , , 98, , , 39, 39, 39
38.2001635, -120.0382872, 1.300, 09:55:47.409, 13, 0.00, 0.17, 100, -0.100, -0.400, -34.600, 1057, 100, 99, 18, 23835, -16162, 5529, 5529, 9, 14, 1526144147.410, 61, 0, 1024, 1024, 1024, 1024, 0, 6, 3938, 3943, 3972, 3966, 4002, 3972, 0, 1, 5802, -89.900, 0.000, -32.900, 0.000, 0.000, -0.900, 0.0, , , , , , 98, , , 39, 39, 39
38.2001635, -120.0382871, 1.400, 09:55:47.509, 13, 0.00, 0.17, 100, -0.200, -0.500, -34.600, 1057, 100, 99, 18, 23835, -16162, 5529, 5529, 9, 14, 1526144147.509, 48, 0, 1024, 1024, 1024, 1024, 0, 6, 3938, 3943, 3972, 3966, 4002, 3972, 0, 1, 5901, -90.000, 0.000, -32.900, 0.000, 0.000, -1.100, 0.0, , , , , , 98, , , 39, 39, 39
38.2001635, -120.0382871, 1.500, 09:55:47.609, 13, 0.00, 0.17, 100, -0.300, -0.500, -34.600, 1057, 100, 99, 18, 23835, -16162, 5529, 5529, 9, 14, 1526144147.610, 44, 0, 1024, 1024, 1024, 1024, 0, 6, 3938, 3943, 3972, 3966, 4002, 3972, 0, 1, 6001, -90.000, 0.000, -32.900, 0.000, 0.000, -1.300, 0.0, , , , , , 98, , , 39, 39, 39
38.2001635, -120.0382871, 1.700, 09:55:47.709, 13, 0.00, 0.18, 100, -0.200, -0.500, -34.600, 1057, 100, 99, 18, 23835, -16162, 5529, 5529, 9, 14, 1526144147.710, 45, 0, 1024, 1024, 1024, 1024, 0, 6, 3938, 3943, 3972, 3966, 4002, 3972, 0, 1, 6101, -90.000, 0.000, -33.000, 0.000, 0.000, -1.500, 0.0, , , , , , 98, , , 39, 39, 39
38.2001636, -120.0382870, 1.800, 09:55:47.809, 13, 0.00, 0.19, 100, -0.200, -0.500, -34.600, 1057, 100, 99, 18, 23835, -16162, 5529, 5529, 9, 14, 1526144147.810, 19, 0, 1024, 1024, 1024, 1024, 0, 6, 3938, 3943, 3972, 3966, 4002, 3972, 0, 1, 6201, -90.000, 0.000, -33.000, 0.000, 0.000, -1.800, 0.0, , , , , , 98, , , 39, 39, 39
38.2001636, -120.0382870, 2.200, 09:55:47.909, 13, 0.00, 0.19, 100, -0.400, -0.600, -34.500, 1057, 100, 100, 18, 23835, -16162, 5529, 5529, 9, 14, 1526144147.910, 16, 0, 1024, 1024, 1024, 1024, 0, 6, 3940, 3905, 3975, 3900, 3951, 3952, 0, 1, 6301, -90.000, 0.000, -33.000, 0.000, 0.000, -2.200, 0.0, , , , , , 98, , , 39, 39, 39
38.2001636, -120.0382869, 2.500, 09:55:48.008, 12, 0.00, 0.20, 100, -0.200, -0.500, -34.500, 1057, 100, 100, 18, 23835, -16162, 5529, 5529, 9, 14, 1526144148.009, 10, 0, 1024, 1024, 1024, 1024, 0, 6, 3940, 3905, 3975, 3900, 3951, 3952, 0, 1, 6400, -90.000, 0.000, -33.000, 0.000, 0.000, -2.400, 0.0, , , , , , 98, , , 39, 39, 39
38.2001637, -120.0382868, 2.700, 09:55:48.109, 12, 0.00, 0.21, 100, -0.200, -0.400, -34.400, 1057, 100, 100, 18, 23835, -16162, 5529, 5529, 9, 14, 1526144148.110, 34, 0, 1024, 1024, 1024, 1024, 0, 6, 3940, 3905, 3975, 3900, 3951, 3952, 0, 1, 6501, -89.900, 0.000, -33.100, 0.000, 0.000, -2.700, 0.0, , , , , , 98, , , 39, 39, 39
38.2001637, -120.0382867, 3.000, 09:55:48.209, 11, 0.00, 0.22, 100, -0.300, -0.400, -34.400, 1057, 100, 100, 18, 23835, -16162, 5529, 5529, 9, 14, 1526144148.210, 38, 0, 1024, 1024, 1024, 1024, 0, 6, 3940, 3905, 3975, 3900, 3951, 3952, 0, 1, 6602, -89.900, 0.000, -33.100, 0.000, 0.000, -2.900, 0.0, , , , , , 98, , , 39, 39, 39
38.2001637, -120.0382867, 3.300, 09:55:48.309, 11, 0.00, 0.21, 100, -0.400, -0.600, -34.300, 1057, 100, 100, 18, 23835, -16162, 5529, 5529, 9, 14, 1526144148.310, 43, 0, 1024, 1024, 1024, 1024, 0, 6, 3940, 3905, 3975, 3900, 3951, 3952, 0, 1, 6701, -90.000, 0.000, -33.100, 0.000, 0.000, -3.100, 0.0, , , , , , 98, , , 39, 39, 39
38.2001638, -120.0382866, 3.700, 09:55:48.416, 12, 0.00, 0.23, 100, -0.500, -0.700, -34.300, 1057, 100, 99, 18, 23835, -16162, 5529, 5529, 9, 14, 1526144148.416, 11, 0, 1024, 1024, 1024, 1024, 0, 6, 3940, 3905, 3975, 3900, 3951, 3952, 0, 1, 6808, -90.000, 0.000, -33.100, 0.000, 0.000, -3.100, 0.0, , , , , , 98, , , 39, 39, 39
38.2001639, -120.0382863, 4.000, 09:55:48.509, 12, 0.00, 0.26, 100, -0.600, -0.600, -34.300, 1057, 100, 99, 18, 23835, -16162, 5529, 5529, 9, 14, 1526144148.510, 19, 0, 1024, 1024, 1024, 1024, 0, 6, 3940, 3905, 3975, 3900, 3951, 3952, 0, 1, 6902, -90.000, 0.000, -33.100, 0.000, 0.000, -3.200, 0.0, , , , , , 98, , , 39, 39, 39
38.2001640, -120.0382861, 4.400, 09:55:48.608, 12, 0.00, 0.28, 100, -1.000, -0.600, -34.400, 1057, 100, 99, 18, 23835, -16162, 5529, 5529, 9, 14, 1526144148.610, 10, 0, 1024, 1024, 1024, 1024, 0, 6, 3940, 3905, 3975, 3900, 3951, 3952, 0, 1, 7001, -90.000, 0.000, -33.200, 0.000, 0.000, -3.300, 0.0, , , , , , 98, , , 39, 39, 39
38.2001641, -120.0382859, 4.700, 09:55:48.709, 12, 0.00, 0.30, 100, -1.400, -0.700, -34.400, 1057, 100, 99, 18, 23835, -16162, 5529, 5529, 9, 14, 1526144148.709, 11, 0, 1024, 1024, 1024, 1024, 0, 6, 3940, 3905, 3975, 3900, 3951, 3952, 0, 1, 7101, -90.000, 0.000, -33.200, 0.000, 0.000, -3.300, 0.0, , , , , , 98, , , 39, 39, 39
38.2001642, -120.0382857, 5.000, 09:55:48.809, 12, 0.00, 0.32, 98, -1.400, -0.800, -34.400, 1057, 100, 99, 18, 23090, -22939, 5418, 5529, 9, 14, 1526144148.810, 21, 0, 1024, 1024, 1024, 1024, 0, 6, 3940, 3905, 3975, 3900, 3951, 3952, 0, 1, 7201, -90.000, 0.000, -33.200, 0.000, 0.000, -3.200, 0.0, , , , , , 98, , , 39, 39, 39
38.2001642, -120.0382857, 5.000, 09:55:48.912, 12, 0.00, 0.32, 98, -1.400, -0.800, -34.400, 1057, 100, 99, 18, 23090, -22939, 5418, 5529, 9, 14, 1526144148.912, 123, 0, 1024, 1024, 1024, 1024, 0, 6, 3815, 3807, 3830, 3825, 3851, 3831, 0, 1, 7304, -89.900, 0.000, -33.200, 0.000, 0.000, -3.200, 0.0, , , , , , 98, , , 39, 39, 39
38.2001644, -120.0382853, 5.700, 09:55:49.013, 12, 0.00, 0.36, 98, -2.000, -0.800, -34.400, 1057, 100, 99, 18, 23090, -22939, 5418, 5529, 9, 14, 1526144149.013, 5, 0, 1024, 1024, 1024, 1024, 0, 6, 3815, 3807, 3830, 3825, 3851, 3831, 0, 1, 7405, -90.000, 0.000, -33.200, 0.000, 0.000, -3.200, 0.0, , , , , , 98, , , 39, 39, 39
38.2001644, -120.0382853, 5.700, 09:55:49.109, 12, 0.00, 0.36, 98, -2.000, -0.800, -34.400, 1057, 100, 99, 18, 23090, -22939, 5418, 5529, 9, 14, 1526144149.109, 101, 0, 1024, 1024, 1024, 1024, 0, 6, 3815, 3807, 3830, 3825, 3851, 3831, 0, 1, 7501, -90.000, 0.000, -33.200, 0.000, 0.000, -3.200, 0.0, , , , , , 98, , , 39, 39, 39
38.2001643, -120.0382852, 6.100, 09:55:49.209, 12, 0.00, 0.37, 98, -2.200, -1.000, -34.400, 1057, 100, 99, 18, 23090, -22939, 5418, 5529, 9, 14, 1526144149.210, 67, 0, 1024, 1024, 1024, 1024, 0, 6, 3815, 3807, 3830, 3825, 3851, 3831, 0, 1, 7601, -90.000, 0.000, -33.300, 0.000, 0.000, -3.300, 0.0, , , , , , 98, , , 39, 39, 39
38.2001643, -120.0382851, 6.400, 09:55:49.309, 12, 0.00, 0.37, 98, -1.900, -1.500, -34.400, 1057, 100, 99, 18, 23090, -22939, 5418, 5529, 9, 14, 1526144149.310, 96, 0, 1024, 1024, 1024, 1024, 0, 6, 3815, 3807, 3830, 3825, 3851, 3831, 0, 1, 7702, -90.000, 0.000, -33.300, 0.000, 0.000, -3.200, 0.0, , , , , , 98, , , 39, 39, 39
38.2001642, -120.0382851, 6.800, 09:55:49.409, 12, 0.00, 0.37, 98, -1.500, -1.700, -34.300, 1057, 100, 99, 18, 23090, -22939, 5418, 5529, 9, 14, 1526144149.410, 88, 0, 1024, 1024, 1024, 1024, 0, 6, 3815, 3807, 3830, 3825, 3851, 3831, 0, 1, 7802, -90.000, 0.000, -33.300, 0.000, 0.000, -3.200, 0.0, , , , , , 98, , , 39, 39, 39
38.2001641, -120.0382851, 7.100, 09:55:49.509, 13, 0.10, 0.36, 98, -1.000, -1.900, -34.300, 1057, 100, 99, 18, 23090, -22939, 5418, 5529, 9, 14, 1526144149.510, 89, 0, 1024, 1024, 1024, 1024, 0, 6, 3815, 3807, 3830, 3825, 3851, 3831, 0, 1, 7901, -90.000, 0.000, -33.300, 0.000, -0.100, -3.100, 0.1, , , , , , 98, , , 39, 39, 39
38.2001640, -120.0382852, 7.400, 09:55:49.608, 13, 0.10, 0.35, 98, -0.400, -1.900, -34.300, 1057, 100, 99, 18, 23090, -22939, 5418, 5529, 9, 14, 1526144149.609, 68, 0, 1024, 1024, 1024, 1024, 0, 6, 3815, 3807, 3830, 3825, 3851, 3831, 0, 1, 8000, -89.900, 0.000, -33.300, 0.000, -0.100, -3.100, 0.1, , , , , , 98, , , 39, 39, 39
38.2001639, -120.0382854, 7.800, 09:55:49.709, 12, 0.10, 0.33, 98, 0.000, -1.700, -34.400, 1057, 100, 99, 18, 23090, -22939, 5418, 5529, 9, 14, 1526144149.710, 73, 0, 1024, 1024, 1024, 1024, 0, 6, 3815, 3807, 3830, 3825, 3851, 3831, 0, 1, 8101, -89.900, 0.000, -33.300, 0.000, -0.100, -3.100, 0.0, , , , , , 98, , , 39, 39, 39
38.2001638, -120.0382855, 8.100, 09:55:49.808, 12, 0.10, 0.32, 98, 0.400, -1.300, -34.400, 1057, 100, 99, 18, 23090, -22939, 5418, 5529, 9, 14, 1526144149.809, 75, 0, 1024, 1024, 1024, 1024, 0, 6, 3815, 3807, 3830, 3825, 3851, 3831, 0, 1, 8200, -89.900, 0.000, -33.300, 0.000, -0.100, -3.000, 0.0, , , , , , 98, , , 39, 39, 39
38.2001637, -120.0382857, 8.400, 09:55:49.908, 13, 0.10, 0.30, 98, 0.600, -1.000, -34.500, 1057, 100, 100, 18, 23125, -21537, 5418, 5529, 9, 14, 1526144149.909, 62, 0, 1024, 1024, 1024, 1024, 0, 6, 3857, 3855, 3869, 3868, 3887, 3876, 0, 1, 8300, -89.900, 0.000, -33.400, 0.000, -0.100, -3.000, 0.0, , , , , , 98, , , 39, 39, 39
38.2001637, -120.0382859, 8.700, 09:55:50.009, 13, 0.10, 0.29, 98, 0.700, -0.700, -34.500, 1057, 100, 100, 18, 23125, -21537, 5418, 5529, 9, 14, 1526144150.009, 74, 0, 1024, 1024, 1024, 1024, 0, 6, 3857, 3855, 3869, 3868, 3887, 3876, 0, 1, 8401, -89.900, 0.000, -33.400, 0.000, -0.100, -3.000, 0.0, , , , , , 98, , , 39, 39, 39
38.2001637, -120.0382860, 9.000, 09:55:50.109, 13, 0.10, 0.27, 98, 0.700, -0.500, -34.600, 1057, 100, 100, 18, 23125, -21537, 5418, 5529, 9, 14, 1526144150.110, 51, 0, 1024, 1024, 1024, 1024, 0, 6, 3857, 3855, 3869, 3868, 3887, 3876, 0, 1, 8502, -89.900, 0.000, -33.400, 0.000, -0.100, -3.100, 0.0, , , , , , 98, , , 39, 39, 39
38.2001636, -120.0382862, 9.400, 09:55:50.209, 13, 0.10, 0.25, 98, 0.900, -0.300, -34.600, 1057, 100, 100, 18, 23125, -21537, 5418, 5529, 9, 14, 1526144150.210, 38, 0, 1024, 1024, 1024, 1024, 0, 6, 3857, 3855, 3869, 3868, 3887, 3876, 0, 1, 8601, -89.900, 0.000, -33.400, 0.000, -0.100, -3.100, 0.0, , , , , , 98, , , 39, 39, 39
38.2001635, -120.0382864, 9.700, 09:55:50.309, 12, 0.10, 0.23, 98, 1.100, -0.400, -34.600, 1057, 100, 100, 18, 23125, -21537, 5418, 5529, 9, 14, 1526144150.310, 29, 0, 1024, 1024, 1024, 1024, 0, 6, 3857, 3855, 3869, 3868, 3887, 3876, 0, 1, 8701, -89.900, 0.000, -33.400, 0.000, -0.100, -3.000, 0.0, , , , , , 98, , , 39, 39, 39
38.2001634, -120.0382866, 10.000, 09:55:50.409, 12, 0.10, 0.22, 98, 1.100, -0.500, -34.600, 1057, 100, 100, 18, 23125, -21537, 5418, 5529, 9, 14, 1526144150.409, 33, 0, 1024, 1024, 1024, 1024, 0, 6, 3857, 3855, 3869, 3868, 3887, 3876, 0, 1, 8801, -89.900, 0.000, -33.400, 0.000, -0.100, -3.000, 0.0, , , , , , 98, , , 39, 39, 39
38.2001634, -120.0382868, 10.600, 09:55:50.509, 12, 0.10, 0.19, 98, 0.900, -0.700, -34.500, 1057, 100, 100, 18, 23125, -21537, 5418, 5529, 9, 14, 1526144150.510, 26, 0, 1024, 1024, 1024, 1024, 0, 6, 3857, 3855, 3869, 3868, 3887, 3876, 0, 1, 8901, -89.900, 0.000, -33.400, 0.000, -0.100, -3.000, 0.0, , , , , , 98, , , 39, 39, 39
38.2001634, -120.0382870, 10.900, 09:55:50.609, 13, 0.10, 0.18, 98, 0.900, -0.500, -34.400, 1057, 100, 100, 18, 23125, -21537, 5418, 5529, 9, 14, 1526144150.609, 27, 0, 1024, 1024, 1024, 1024, 0, 6, 3857, 3855, 3869, 3868, 3887, 3876, 0, 1, 9001, -89.900, 0.000, -33.500, 0.000, -0.100, -3.000, 0.0, , , , , , 98, , , 39, 39, 39
38.2001633, -120.0382872, 11.300, 09:55:50.709, 13, 0.10, 0.16, 98, 1.000, -0.400, -34.400, 1057, 100, 100, 18, 23125, -21537, 5418, 5529, 9, 14, 1526144150.710, 20, 0, 1024, 1024, 1024, 1024, 0, 6, 3857, 3855, 3869, 3868, 3887, 3876, 0, 1, 9102, -89.900, 0.000, -33.500, 0.000, -0.100, -3.000, 0.0, , , , , , 98, , , 39, 39, 39
38.2001633, -120.0382874, 11.600, 09:55:50.809, 14, 0.10, 0.14, 98, 1.200, -0.400, -34.400, 1057, 100, 100, 18, 23287, -18669, 5418, 5529, 9, 14, 1526144150.809, 23, 0, 1024, 1024, 1024, 1024, 0, 6, 3857, 3855, 3869, 3868, 3887, 3876, 0, 1, 9201, -89.900, 0.000, -33.500, 0.000, -0.100, -2.900, 0.0, , , , , , 98, , , 39, 39, 39
38.2001632, -120.0382875, 11.900, 09:55:50.909, 14, 0.10, 0.13, 98, 1.300, -0.500, -34.500, 1057, 100, 100, 18, 23287, -18669, 5418, 5529, 9, 14, 1526144150.910, 35, 0, 1024, 1024, 1024, 1024, 0, 6, 3869, 3866, 3869, 3887, 3904, 3888, 0, 1, 9301, -89.900, 0.000, -33.500, 0.000, -0.100, -2.900, 0.0, , , , , , 98, , , 39, 39, 39
38.2001632, -120.0382875, 11.900, 09:55:51.009, 14, 0.10, 0.13, 98, 1.300, -0.500, -34.500, 1057, 100, 100, 18, 23287, -18669, 5418, 5529, 9, 14, 1526144151.010, 135, 0, 1024, 1024, 1024, 1024, 0, 6, 3869, 3866, 3869, 3887, 3904, 3888, 0, 1, 9401, -89.900, 0.000, -33.500, 0.000, -0.100, -2.900, 0.0, , , , , , 98, , , 39, 39, 39
38.2001632, -120.0382877, 12.200, 09:55:51.109, 14, 0.00, 0.12, 98, 1.500, -0.400, -34.500, 1057, 100, 100, 18, 23287, -18669, 5418, 5529, 9, 14, 1526144151.110, 93, 0, 1024, 1024, 1024, 1024, 0, 6, 3869, 3866, 3869, 3887, 3904, 3888, 0, 1, 9501, -89.900, 0.000, -33.500, 0.000, 0.000, -2.900, 0.0, , , , , , 98, , , 39, 39, 39
38.2001631, -120.0382880, 12.800, 09:55:51.209, 13, 0.00, 0.09, 98, 1.300, -0.100, -34.500, 1057, 100, 100, 18, 23287, -18669, 5418, 5529, 9, 14, 1526144151.210, 7, 0, 1024, 1024, 1024, 1024, 0, 6, 3869, 3866, 3869, 3887, 3904, 3888, 0, 1, 9602, -89.900, 0.000, -33.500, 0.000, 0.000, -2.900, 0.0, , , , , , 98, , , 39, 39, 39
38.2001631, -120.0382880, 12.800, 09:55:51.309, 13, 0.00, 0.09, 98, 1.300, -0.100, -34.500, 1057, 100, 100, 18, 23287, -18669, 5418, 5529, 9, 14, 1526144151.309, 107, 0, 1024, 1024, 1024, 1024, 0, 6, 3869, 3866, 3869, 3887, 3904, 3888, 0, 1, 9701, -89.900, 0.000, -33.500, 0.000, 0.000, -2.900, 0.0, , , , , , 98, , , 39, 39, 39
38.2001631, -120.0382881, 13.100, 09:55:51.409, 13, 0.00, 0.08, 98, 1.200, -0.100, -34.600, 1057, 100, 100, 18, 23287, -18669, 5418, 5529, 9, 14, 1526144151.409, 85, 0, 1024, 1024, 1024, 1024, 0, 6, 3869, 3866, 3869, 3887, 3904, 3888, 0, 1, 9801, -89.900, 0.000, -33.500, 0.000, 0.000, -2.900, 0.0, , , , , , 98, , , 39, 39, 39
38.2001631, -120.0382882, 13.400, 09:55:51.509, 14, 0.00, 0.07, 98, 1.100, -0.200, -34.600, 1057, 100, 100, 18, 23287, -18669, 5418, 5529, 9, 14, 1526144151.510, 86, 0, 1024, 1024, 1024, 1024, 0, 6, 3869, 3866, 3869, 3887, 3904, 3888, 0, 1, 9901, -89.900, 0.000, -33.500, 0.000, 0.000, -2.900, 0.0, , , , , , 98, , , 39, 39, 39
38.2001631, -120.0382882, 13.700, 09:55:51.609, 14, 0.00, 0.07, 98, 1.100, -0.200, -34.700, 1057, 100, 100, 18, 23287, -18669, 5418, 5529, 9, 14, 1526144151.609, 86, 0, 1024, 1024, 1024, 1024, 0, 6, 3869, 3866, 3869, 3887, 3904, 3888, 0, 1, 10001, -89.900, 0.000, -33.500, 0.000, 0.000, -2.900, 0.0, , , , , , 98, , , 39, 39, 39
38.2001631, -120.0382883, 14.000, 09:55:51.708, 13, 0.00, 0.06, 98, 1.100, -0.200, -34.600, 1057, 100, 100, 18, 23287, -18669, 5418, 5529, 9, 14, 1526144151.709, 71, 0, 1024, 1024, 1024, 1024, 0, 6, 3869, 3866, 3869, 3887, 3904, 3888, 0, 1, 10100, -89.900, 0.000, -33.500, 0.000, 0.000, -2.900, 0.0, , , , , , 98, , , 39, 39, 39
38.2001630, -120.0382884, 14.300, 09:55:51.809, 13, 0.00, 0.06, 98, 1.100, -0.200, -34.600, 1057, 100, 100, 18, 23287, -18669, 5418, 5529, 9, 14, 1526144151.810, 88, 0, 1024, 1024, 1024, 1024, 0, 6, 3869, 3866, 3869, 3887, 3904, 3888, 0, 1, 10201, -89.900, 0.000, -33.500, 0.000, 0.000, -3.000, 0.0, , , , , , 98, , , 39, 39, 39
38.2001630, -120.0382884, 14.600, 09:55:51.909, 13, 0.00, 0.05, 98, 1.000, -0.300, -34.600, 1057, 100, 100, 18, 23285, -18610, 5418, 5529, 9, 14, 1526144151.910, 72, 0, 1024, 1024, 1024, 1024, 0, 6, 3874, 3858, 3879, 3878, 3904, 3879, 0, 1, 10301, -89.900, 0.000, -33.500, 0.000, 0.000, -2.900, 0.0, , , , , , 98, , , 39, 39, 39
38.2001630, -120.0382884, 14.900, 09:55:52.009, 13, 0.00, 0.05, 98, 0.900, -0.500, -34.600, 1057, 100, 100, 18, 23285, -18610, 5418, 5529, 9, 14, 1526144152.010, 86, 0, 1024, 1024, 1024, 1024, 0, 6, 3874, 3858, 3879, 3878, 3904, 3879, 0, 1, 10401, -90.000, 0.000, -33.500, 0.000, 0.000, -2.900, 0.0, , , , , , 98, , , 39, 39, 39
38.2001629, -120.0382884, 15.200, 09:55:52.109, 14, 0.00, 0.05, 98, 0.900, -0.600, -34.600, 1057, 100, 100, 18, 23285, -18610, 5418, 5529, 9, 14, 1526144152.109, 76, 0, 1024, 1024, 1024, 1024, 0, 6, 3874, 3858, 3879, 3878, 3904, 3879, 0, 1, 10501, -90.000, 0.000, -33.500, 0.000, 0.000, -2.900, 0.0, , , , , , 98, , , 39, 39, 39
38.2001629, -120.0382885, 15.500, 09:55:52.209, 14, 0.00, 0.05, 98, 0.900, -0.700, -34.600, 1057, 100, 100, 18, 23285, -18610, 5418, 5529, 9, 14, 1526144152.210, 25, 0, 1024, 1024, 1024, 1024, 0, 6, 3874, 3858, 3879, 3878, 3904, 3879, 0, 1, 10602, -90.000, 0.000, -33.500, 0.000, 0.000, -2.900, 0.0, , , , , , 98, , , 39, 39, 39
38.2001629, -120.0382884, 15.800, 09:55:52.309, 15, 0.00, 0.05, 98, 1.000, -0.800, -34.600, 1057, 100, 100, 18, 23285, -18610, 5418, 5529, 9, 14, 1526144152.310, 55, 0, 1024, 1024, 1024, 1024, 0, 6, 3874, 3858, 3879, 3878, 3904, 3879, 0, 1, 10701, -89.900, 0.000, -33.500, 0.000, 0.000, -2.900, 0.0, , , , , , 98, , , 39, 39, 39
38.2001629, -120.0382884, 16.100, 09:55:52.409, 15, 0.00, 0.05, 98, 1.100, -0.700, -34.700, 1057, 100, 95, 18, 23285, -18610, 5418, 5529, 9, 14, 1526144152.410, 71, 0, 1024, 1024, 1024, 1024, 0, 6, 3874, 3858, 3879, 3878, 3904, 3879, 0, 1, 10801, -89.900, 0.000, -33.500, 0.000, 0.000, -3.000, 0.0, , , , , , 98, , , 39, 39, 39
38.2001629, -120.0382884, 16.100, 09:55:52.509, 15, 0.00, 0.05, 98, 1.100, -0.700, -34.700, 1057, 100, 95, 18, 23285, -18610, 5418, 5529, 9, 14, 1526144152.510, 171, 0, 1024, 1024, 1024, 1024, 0, 6, 3874, 3858, 3879, 3878, 3904, 3879, 0, 1, 10901, -89.900, 0.000, -33.500, 0.000, 0.000, -3.000, 0.0, , , , , , 98, , , 39, 39, 39
38.2001629, -120.0382884, 16.700, 09:55:52.609, 15, 0.00, 0.05, 98, 1.100, -0.500, -34.700, 1057, 100, 95, 18, 23285, -18610, 5418, 5529, 9, 14, 1526144152.611, 23, 0, 1024, 1024, 1024, 1024, 0, 6, 3874, 3858, 3879, 3878, 3904, 3879, 0, 1, 11002, -89.900, 0.000, -33.500, 0.000, 0.000, -2.900, 0.0, , , , , , 98, , , 39, 39, 39
38.2001629, -120.0382884, 16.700, 09:55:52.709, 15, 0.00, 0.05, 98, 1.100, -0.500, -34.700, 1057, 100, 95, 18, 23285, -18610, 5418, 5529, 9, 14, 1526144152.710, 122, 0, 1024, 1024, 1024, 1024, 0, 6, 3874, 3858, 3879, 3878, 3904, 3879, 0, 1, 11102, -90.000, 0.000, -33.500, 0.000, 0.000, -2.900, 0.0, , , , , , 98, , , 39, 39, 39
38.2001630, -120.0382882, 17.700, 09:55:52.809, 15, 0.00, 0.07, 98, 0.500, -0.700, -34.400, 1057, 100, 95, 18, 23242, -18882, 5418, 5529, 9, 14, 1526144152.810, 30, 0, 1024, 1024, 1024, 1024, 0, 6, 3874, 3858, 3879, 3878, 3904, 3879, 0, 1, 11201, -90.000, 0.000, -33.500, 0.000, 0.000, -2.900, 0.0, , , , , , 98, , , 39, 39, 39
38.2001630, -120.0382881, 17.900, 09:55:52.909, 15, 0.00, 0.08, 98, 0.300, -0.900, -34.300, 1057, 100, 92, 18, 23242, -18882, 5418, 5529, 9, 14, 1526144152.910, 41, 0, 1024, 1024, 1024, 1024, 0, 6, 3874, 3858, 3879, 3878, 3904, 3879, 0, 1, 11301, -90.000, 0.000, -33.500, 0.000, 0.000, -2.900, 0.0, , , , , , 98, , , 39, 39, 39
38.2001631, -120.0382880, 18.200, 09:55:53.008, 15, 0.00, 0.09, 98, 0.100, -0.900, -34.200, 1057, 100, 92, 18, 23242, -18882, 5418, 5529, 9, 14, 1526144153.009, 6, 0, 1024, 1024, 1024, 1024, 0, 6, 3874, 3858, 3879, 3878, 3904, 3879, 0, 1, 11400, -90.000, 0.000, -33.500, 0.000, 0.000, -2.900, 0.0, , , , , , 98, , , 39, 39, 39
38.2001631, -120.0382879, 18.500, 09:55:53.109, 15, 0.00, 0.10, 98, 0.000, -0.900, -34.300, 1057, 100, 92, 18, 23242, -18882, 5418, 5529, 9, 14, 1526144153.110, 12, 0, 1024, 1024, 1024, 1024, 0, 6, 3874, 3858, 3879, 3878, 3904, 3879, 0, 1, 11502, -90.000, 0.000, -33.500, 0.000, 0.000, -2.800, 0.0, , , , , , 98, , , 39, 39, 39
38.2001631, -120.0382878, 18.800, 09:55:53.209, 15, 0.00, 0.11, 98, -0.100, -1.000, -34.300, 1057, 100, 92, 18, 23242, -18882, 5418, 5529, 9, 14, 1526144153.209, 9, 0, 1024, 1024, 1024, 1024, 0, 6, 3874, 3858, 3879, 3878, 3904, 3879, 0, 1, 11601, -90.000, 0.000, -33.500, 0.000, 0.000, -2.800, 0.0, , , , , , 98, , , 39, 39, 39
38.2001631, -120.0382877, 19.100, 09:55:53.321, 15, 0.00, 0.12, 98, -0.300, -1.000, -34.400, 1057, 100, 92, 18, 23242, -18882, 5418, 5529, 9, 14, 1526144153.322, 6, 0, 1024, 1024, 1024, 1024, 0, 6, 3874, 3858, 3879, 3878, 3904, 3879, 0, 1, 11713, -89.900, 0.000, -33.500, 0.000, 0.000, -2.800, 0.0, , , , , , 98, , , 39, 39, 39
38.2001631, -120.0382877, 19.100, 09:55:53.409, 15, 0.00, 0.12, 98, -0.300, -1.000, -34.400, 1057, 100, 92, 18, 23242, -18882, 5418, 5529, 9, 14, 1526144153.410, 94, 0, 1024, 1024, 1024, 1024, 0, 6, 3872, 3860, 3868, 3866, 3895, 3878, 0, 1, 11801, -89.900, 0.000, -33.500, 0.000, 0.000, -2.800, 0.0, , , , , , 98, , , 39, 39, 39
38.2001632, -120.0382875, 19.700, 09:55:53.509, 15, 0.00, 0.14, 98, -0.300, -0.900, -34.500, 1057, 100, 90, 18, 23242, -18882, 5418, 5529, 9, 14, 1526144153.510, 14, 0, 1024, 1024, 1024, 1024, 0, 6, 3872, 3860, 3868, 3866, 3895, 3878, 0, 1, 11902, -90.000, 0.000, -33.500, 0.000, 0.000, -2.800, 0.0, , , , , , 98, , , 39, 39, 39
38.2001632, -120.0382874, 20.000, 09:55:53.612, 15, 0.00, 0.15, 98, -0.300, -0.800, -34.500, 1057, 100, 90, 18, 23242, -18882, 5418, 5529, 9, 14, 1526144153.613, 4, 0, 1024, 1024, 1024, 1024, 0, 6, 3872, 3860, 3868, 3866, 3895, 3878, 0, 1, 12004, -89.900, 0.000, -33.500, 0.000, 0.000, -2.900, 0.0, , , , , , 98, , , 39, 39, 39
38.2001632, -120.0382874, 20.000, 09:55:53.709, 15, 0.00, 0.15, 98, -0.300, -0.800, -34.500, 1057, 100, 90, 18, 23242, -18882, 5418, 5529, 9, 14, 1526144153.710, 101, 0, 1024, 1024, 1024, 1024, 0, 6, 3872, 3860, 3868, 3866, 3895, 3878, 0, 1, 12101, -89.900, 0.000, -33.500, 0.000, 0.000, -2.900, 0.0, , , , , , 98, , , 39, 39, 39
38.2001633, -120.0382872, 20.300, 09:55:53.809, 15, 0.00, 0.16, 98, -0.300, -0.700, -34.600, 1057, 100, 90, 18, 23242, -18882, 5418, 5529, 9, 14, 1526144153.810, 96, 0, 1024, 1024, 1024, 1024, 0, 6, 3872, 3860, 3868, 3866, 3895, 3878, 0, 1, 12201, -89.900, 0.000, -33.500, 0.000, 0.000, -2.900, 0.0, , , , , , 98, , , 39, 39, 39
38.2001633, -120.0382871, 20.600, 09:55:53.909, 15, 0.00, 0.17, 98, -0.400, -0.800, -34.700, 1057, 100, 90, 18, 23242, -18882, 5418, 5529, 9, 14, 1526144153.910, 69, 0, 1024, 1024, 1024, 1024, 0, 6, 3872, 3860, 3868, 3866, 3895, 3878, 0, 1, 12301, -90.000, 0.000, -33.500, 0.000, 0.000, -2.900, 0.0, , , , , , 98, , , 39, 39, 39
38.2001633, -120.0382871, 20.900, 09:55:54.009, 15, 0.00, 0.17, 98, -0.300, -0.900, -34.600, 1057, 100, 96, 18, 23242, -18882, 5418, 5529, 9, 14, 1526144154.009, 96, 0, 1024, 1024, 1024, 1024, 0, 6, 3872, 3860, 3868, 3866, 3895, 3878, 0, 1, 12401, -90.000, 0.000, -33.500, 0.000, 0.000, -2.900, 0.0, , , , , , 98, , , 39, 39, 39
38.2001634, -120.0382869, 21.200, 09:55:54.109, 14, 0.00, 0.19, 98, -0.200, -1.100, -34.500, 1057, 100, 96, 18, 23242, -18882, 5418, 5529, 9, 14, 1526144154.110, 89, 0, 1024, 1024, 1024, 1024, 0, 6, 3872, 3860, 3868, 3866, 3895, 3878, 0, 1, 12501, -90.000, 0.000, -33.500, 0.000, 0.000, -2.900, 0.0, , , , , , 98, , , 39, 39, 39
38.2001634, -120.0382868, 21.500, 09:55:54.208, 14, 0.00, 0.20, 98, -0.300, -1.100, -34.400, 1057, 100, 96, 18, 23242, -18882, 5418, 5529, 9, 14, 1526144154.209, 67, 0, 1024, 1024, 1024, 1024, 0, 6, 3872, 3860, 3868, 3866, 3895, 3878, 0, 1, 12601, -90.000, 0.000, -33.500, 0.000, 0.000, -3.000, 0.0, , , , , , 98, , , 39, 39, 39
38.2001634, -120.0382866, 21.800, 09:55:54.309, 15, 0.00, 0.21, 98, -0.500, -1.200, -34.300, 1057, 100, 96, 18, 23242, -18882, 5418, 5529, 9, 14, 1526144154.309, 80, 0, 1024, 1024, 1024, 1024, 0, 6, 3872, 3860, 3868, 3866, 3895, 3878, 0, 1, 12701, -90.000, 0.000, -33.500, 0.000, 0.000, -2.900, 0.0, , , , , , 98, , , 39, 39, 39
38.2001635, -120.0382866, 22.100, 09:55:54.409, 15, 0.00, 0.22, 98, -0.600, -1.300, -34.200, 1057, 100, 96, 18, 23230, -18667, 5418, 5529, 9, 14, 1526144154.410, 61, 0, 1024, 1024, 1024, 1024, 0, 6, 3868, 3853, 3859, 3874, 3884, 3883, 0, 1, 12802, -90.000, 0.000, -33.500, 0.000, 0.000, -3.000, 0.0, , , , , , 98, , , 39, 39, 39
38.2001635, -120.0382866, 22.100, 09:55:54.509, 15, 0.00, 0.22, 98, -0.600, -1.300, -34.200, 1057, 100, 94, 18, 23230, -18667, 5418, 5529, 9, 14, 1526144154.510, 160, 0, 1024, 1024, 1024, 1024, 0, 6, 3868, 3853, 3859, 3874, 3884, 3883, 0, 1, 12901, -90.000, 0.000, -33.500, 0.000, 0.000, -3.000, 0.0, , , , , , 98, , , 39, 39, 39
38.2001635, -120.0382864, 22.700, 09:55:54.609, 15, 0.00, 0.24, 98, -0.700, -1.200, -34.200, 1057, 100, 94, 18, 23230, -18667, 5418, 5529, 9, 14, 1526144154.610, 72, 0, 1024, 1024, 1024, 1024, 0, 6, 3868, 3853, 3859, 3874, 3884, 3883, 0, 1, 13001, -90.000, 0.000, -33.500, 0.000, 0.000, -3.000, 0.0, , , , , , 98, , , 39, 39, 39
38.2001636, -120.0382863, 23.000, 09:55:54.709, 15, 0.00, 0.25, 98, -0.700, -1.100, -34.300, 1057, 100, 94, 18, 23230, -18667, 5418, 5529, 9, 14, 1526144154.710, 61, 0, 1024, 1024, 1024, 1024, 0, 6, 3868, 3853, 3859, 3874, 3884, 3883, 0, 1, 13101, -90.000, 0.000, -33.500, 0.000, 0.000, -2.900, 0.0, , , , , , 98, , , 39, 39, 39
38.2001636, -120.0382862, 23.300, 09:55:54.809, 15, 0.00, 0.26, 98, -0.900, -1.000, -34.400, 1057, 100, 94, 18, 23230, -18667, 5418, 5529, 9, 14, 1526144154.810, 55, 0, 1024, 1024, 1024, 1024, 0, 6, 3868, 3853, 3859, 3874, 3884, 3883, 0, 1, 13202, -89.900, 0.000, -33.500, 0.000, 0.000, -2.900, 0.0, , , , , , 98, , , 39, 39, 39
38.2001637, -120.0382861, 23.600, 09:55:54.909, 15, 0.00, 0.26, 98, -0.900, -1.000, -34.500, 1057, 100, 94, 18, 23230, -18667, 5418, 5529, 9, 14, 1526144154.910, 45, 0, 1024, 1024, 1024, 1024, 0, 6, 3868, 3853, 3859, 3874, 3884, 3883, 0, 1, 13301, -89.900, 0.000, -33.500, 0.000, 0.000, -2.900, 0.0, , , , , , 98, , , 39, 39, 39
38.2001637, -120.0382860, 23.800, 09:55:55.009, 15, 0.00, 0.27, 98, -0.800, -1.000, -34.500, 1057, 100, 95, 18, 23230, -18667, 5418, 5529, 9, 14, 1526144155.010, 45, 0, 1024, 1024, 1024, 1024, 0, 6, 3868, 3853, 3859, 3874, 3884, 3883, 0, 1, 13402, -89.900, 0.000, -33.500, 0.000, 0.000, -2.900, 0.0, , , , , , 98, , , 39, 39, 39
38.2001637, -120.0382860, 24.100, 09:55:55.109, 15, 0.00, 0.27, 98, -0.600, -1.100, -34.500, 1057, 100, 95, 18, 23230, -18667, 5418, 5529, 9, 14, 1526144155.110, 53, 0, 1024, 1024, 1024, 1024, 0, 6, 3868, 3853, 3859, 3874, 3884, 3883, 0, 1, 13501, -90.000, 0.000, -33.500, 0.000, 0.000, -2.900, 0.0, , , , , , 98, , , 39, 39, 39
38.2001637, -120.0382860, 24.400, 09:55:55.209, 15, 0.00, 0.28, 98, -0.700, -1.200, -34.500, 1057, 100, 95, 18, 23230, -18667, 5418, 5529, 9, 14, 1526144155.210, 48, 0, 1024, 1024, 1024, 1024, 0, 6, 3868, 3853, 3859, 3874, 3884, 3883, 0, 1, 13601, -90.000, 0.000, -33.500, 0.000, 0.000, -2.900, 0.0, , , , , , 98, , , 39, 39, 39
38.2001637, -120.0382860, 25.000, 09:55:55.309, 15, 0.00, 0.28, 98, -0.500, -1.100, -34.500, 1057, 100, 95, 18, 23230, -18667, 5418, 5529, 9, 14, 1526144155.310, 36, 0, 1024, 1024, 1024, 1024, 0, 6, 3868, 3853, 3859, 3874, 3884, 3883, 0, 1, 13701, -89.900, 0.000, -33.500, 0.000, 0.000, -2.900, 0.0, , , , , , 98, , , 39, 39, 39
38.2001637, -120.0382860, 25.300, 09:55:55.409, 15, 0.00, 0.28, 98, -0.500, -1.000, -34.500, 1057, 100, 95, 18, 23192, -18825, 5418, 5529, 9, 14, 1526144155.411, 30, 0, 1024, 1024, 1024, 1024, 0, 6, 3854, 3852, 3867, 3874, 3889, 3876, 0, 1, 13803, -90.000, 0.000, -33.500, 0.000, 0.000, -3.000, 0.0, , , , , , 98, , , 39, 39, 39
38.2001637, -120.0382859, 25.600, 09:55:55.509, 15, 0.00, 0.28, 98, -0.500, -1.100, -34.500, 1057, 100, 95, 18, 23192, -18825, 5418, 5529, 9, 14, 1526144155.510, 15, 0, 1024, 1024, 1024, 1024, 0, 6, 3854, 3852, 3867, 3874, 3889, 3876, 0, 1, 13901, -90.000, 0.000, -33.500, 0.000, 0.000, -3.000, 0.0, , , , , , 98, , , 39, 39, 39
38.2001638, -120.0382859, 25.900, 09:55:55.609, 15, 0.00, 0.28, 98, -0.400, -1.200, -34.500, 1057, 100, 95, 18, 23192, -18825, 5418, 5529, 9, 14, 1526144155.610, 16, 0, 1024, 1024, 1024, 1024, 0, 6, 3854, 3852, 3867, 3874, 3889, 3876, 0, 1, 14001, -90.000, 0.000, -33.500, 0.000, 0.000, -2.900, 0.0, , , , , , 98, , , 39, 39, 39
38.2001638, -120.0382859, 26.200, 09:55:55.709, 15, 0.00, 0.28, 98, -0.300, -1.200, -34.500, 1057, 100, 95, 18, 23192, -18825, 5418, 5529, 9, 14, 1526144155.710, 19, 0, 1024, 1024, 1024, 1024, 0, 6, 3854, 3852, 3867, 3874, 3889, 3876, 0, 1, 14101, -90.000, 0.000, -33.500, 0.000, 0.000, -2.900, 0.0, , , , , , 98, , , 39, 39, 39
38.2001638, -120.0382860, 26.500, 09:55:55.809, 15, 0.00, 0.28, 98, -0.300, -1.100, -34.500, 1057, 100, 95, 18, 23192, -18825, 5418, 5529, 9, 14, 1526144155.810, 20, 0, 1024, 1024, 1024, 1024, 0, 6, 3854, 3852, 3867, 3874, 3889, 3876, 0, 1, 14201, -89.900, 0.000, -33.500, 0.000, 0.000, -2.900, 0.0, , , , , , 98, , , 39, 39, 39
38.2001638, -120.0382860, 26.800, 09:55:55.909, 15, 0.00, 0.28, 98, -0.300, -0.900, -34.500, 1057, 100, 94, 18, 23192, -18825, 5418, 5529, 9, 14, 1526144155.909, 7, 0, 1024, 1024, 1024, 1024, 0, 6, 3854, 3852, 3867, 3874, 3889, 3876, 0, 1, 14301, -89.900, 0.000, -33.500, 0.000, 0.000, -2.900, 0.0, , , , , , 98, , , 39, 39, 39
38.2001638, -120.0382860, 26.800, 09:55:56.008, 15, 0.00, 0.28, 98, -0.300, -0.900, -34.500, 1057, 100, 94, 18, 23192, -18825, 5418, 5529, 9, 14, 1526144156.009, 107, 0, 1024, 1024, 1024, 1024, 0, 6, 3854, 3852, 3867, 3874, 3889, 3876, 0, 1, 14400, -89.900, 0.000, -33.500, 0.000, 0.000, -2.900, 0.0, , , , , , 98, , , 39, 39, 39
38.2001638, -120.0382861, 27.100, 09:55:56.109, 15, 0.00, 0.27, 98, -0.200, -0.700, -34.500, 1057, 100, 94, 18, 23192, -18825, 5418, 5529, 9, 14, 1526144156.110, 97, 0, 1024, 1024, 1024, 1024, 0, 6, 3854, 3852, 3867, 3874, 3889, 3876, 0, 1, 14501, -89.900, 0.000, -33.500, 0.000, 0.000, -2.900, 0.0, , , , , , 98, , , 39, 39, 39
38.2001638, -120.0382862, 27.700, 09:55:56.220, 14, 0.00, 0.26, 98, 0.100, -0.700, -34.300, 1057, 100, 94, 18, 23192, -18825, 5418, 5529, 9, 14, 1526144156.220, 9, 0, 1024, 1024, 1024, 1024, 0, 6, 3854, 3852, 3867, 3874, 3889, 3876, 0, 1, 14612, -89.900, 0.000, -33.500, 0.000, 0.000, -2.900, 0.0, , , , , , 98, , , 39, 39, 39
38.2001638, -120.0382862, 27.700, 09:55:56.309, 14, 0.00, 0.26, 98, 0.100, -0.700, -34.300, 1057, 100, 94, 18, 23192, -18825, 5418, 5529, 9, 14, 1526144156.309, 99, 0, 1024, 1024, 1024, 1024, 0, 6, 3854, 3852, 3867, 3874, 3889, 3876, 0, 1, 14701, -89.900, 0.000, -33.500, 0.000, 0.000, -2.900, 0.0, , , , , , 98, , , 39, 39, 39
38.2001638, -120.0382862, 28.000, 09:55:56.409, 14, 0.00, 0.26, 98, 0.000, -0.900, -34.200, 1057, 100, 94, 18, 23159, -18815, 5418, 5529, 9, 14, 1526144156.410, 74, 0, 1024, 1024, 1024, 1024, 0, 6, 3861, 3846, 3856, 3849, 3877, 3868, 0, 1, 14801, -90.000, 0.000, -33.500, 0.000, 0.000, -2.900, 0.0, , , , , , 98, , , 39, 39, 39
38.2001638, -120.0382862, 28.300, 09:55:56.509, 15, 0.00, 0.26, 98, -0.100, -1.100, -34.100, 1057, 100, 93, 18, 23159, -18815, 5418, 5529, 9, 14, 1526144156.510, 65, 0, 1024, 1024, 1024, 1024, 0, 6, 3861, 3846, 3856, 3849, 3877, 3868, 0, 1, 14901, -90.000, 0.000, -33.500, 0.000, 0.000, -3.000, 0.0, , , , , , 98, , , 39, 39, 39
38.2001638, -120.0382862, 28.600, 09:55:56.609, 15, 0.00, 0.26, 98, -0.300, -1.200, -34.200, 1057, 100, 93, 18, 23159, -18815, 5418, 5529, 9, 14, 1526144156.610, 62, 0, 1024, 1024, 1024, 1024, 0, 6, 3861, 3846, 3856, 3849, 3877, 3868, 0, 1, 15001, -90.000, 0.000, -33.500, 0.000, 0.000, -3.000, 0.0, , , , , , 98, , , 39, 39, 39
38.2001638, -120.0382862, 28.900, 09:55:56.709, 15, 0.00, 0.26, 98, -0.300, -1.100, -34.200, 1057, 100, 93, 18, 23159, -18815, 5418, 5529, 9, 14, 1526144156.710, 61, 0, 1024, 1024, 1024, 1024, 0, 6, 3861, 3846, 3856, 3849, 3877, 3868, 0, 1, 15101, -89.900, 0.000, -33.500, 0.000, 0.000, -3.000, 0.0, , , , , , 98, , , 39, 39, 39
38.2001638, -120.0382863, 29.200, 09:55:56.809, 15, 0.00, 0.26, 98, -0.200, -1.000, -34.300, 1057, 100, 93, 18, 23159, -18815, 5418, 5529, 9, 14, 1526144156.809, 34, 0, 1024, 1024, 1024, 1024, 0, 6, 3861, 3846, 3856, 3849, 3877, 3868, 0, 1, 15201, -89.900, 0.000, -33.500, 0.000, 0.000, -3.000, 0.0, , , , , , 98, , , 39, 39, 39
38.2001638, -120.0382863, 29.500, 09:55:56.909, 15, 0.00, 0.25, 98, -0.100, -0.900, -34.500, 1057, 100, 93, 18, 23159, -18815, 5418, 5529, 9, 14, 1526144156.909, 75, 0, 1024, 1024, 1024, 1024, 0, 6, 3861, 3846, 3856, 3849, 3877, 3868, 0, 1, 15301, -89.900, 0.000, -33.500, 0.000, 0.000, -3.000, 0.0, , , , , , 98, , , 39, 39, 39
38.2001638, -120.0382864, 29.800, 09:55:57.009, 15, 0.00, 0.25, 98, -0.200, -0.900, -34.600, 1057, 100, 90, 18, 23159, -18815, 5418, 5529, 9, 14, 1526144157.010, 74, 0, 1024, 1024, 1024, 1024, 0, 6, 3861, 3846, 3856, 3849, 3877, 3868, 0, 1, 15401, -89.900, 0.000, -33.500, 0.000, 0.000, -3.000, 0.0, , , , , , 98, , , 39, 39, 39
38.2001638, -120.0382865, 30.100, 09:55:57.109, 15, 0.00, 0.24, 98, -0.100, -1.000, -34.700, 1057, 100, 90, 18, 23159, -18815, 5418, 5529, 9, 14, 1526144157.110, 69, 0, 1024, 1024, 1024, 1024, 0, 6, 3861, 3846, 3856, 3849, 3877, 3868, 0, 1, 15502, -90.000, 0.000, -33.500, 0.000, 0.000, -3.000, 0.0, , , , , , 98, , , 39, 39, 39
38.2001638, -120.0382865, 30.400, 09:55:57.209, 15, 0.00, 0.24, 98, 0.000, -0.900, -34.800, 1057, 100, 90, 18, 23159, -18815, 5418, 5529, 9, 14, 1526144157.209, 45, 0, 1024, 1024, 1024, 1024, 0, 6, 3861, 3846, 3856, 3849, 3877, 3868, 0, 1, 15601, -89.900, 0.000, -33.500, 0.000, 0.000, -2.900, 0.0, , , , , , 98, , , 39, 39, 39
38.2001639, -120.0382866, 30.700, 09:55:57.309, 15, 0.00, 0.23, 98, 0.000, -0.900, -34.800, 1057, 100, 90, 18, 23159, -18815, 5418, 5529, 9, 14, 1526144157.310, 32, 0, 1024, 1024, 1024, 1024, 0, 6, 3861, 3846, 3856, 3849, 3877, 3868, 0, 1, 15702, -89.900, 0.000, -33.500, 0.000, 0.000, -2.900, 0.0, , , , , , 98, , , 39, 39, 39
38.2001638, -120.0382867, 31.000, 09:55:57.410, 15, 0.00, 0.23, 98, 0.000, -0.800, -34.600, 1057, 100, 92, 19, 23106, -19085, 5418, 5529, 9, 14, 1526144157.410, 43, 0, 1024, 1024, 1024, 1024, 0, 6, 3841, 3836, 3857, 3847, 3875, 3850, 0, 1, 15802, -89.900, 0.000, -33.500, 0.000, 0.000, -3.000, 0.0, , , , , , 98, , , 39, 39, 39
38.2001639, -120.0382867, 31.300, 09:55:57.509, 15, 0.00, 0.22, 98, 0.000, -0.700, -34.500, 1057, 100, 92, 19, 23106, -19085, 5418, 5529, 9, 14, 1526144157.509, 16, 0, 1024, 1024, 1024, 1024, 0, 6, 3841, 3836, 3857, 3847, 3875, 3850, 0, 1, 15901, -89.900, 0.000, -33.500, 0.000, 0.000, -3.100, 0.0, , , , , , 98, , , 39, 39, 39
38.2001639, -120.0382867, 31.900, 09:55:57.610, 14, 0.00, 0.23, 98, -0.200, -0.500, -34.200, 1057, 100, 92, 19, 23106, -19085, 5418, 5529, 9, 14, 1526144157.610, 41, 0, 1024, 1024, 1024, 1024, 0, 6, 3841, 3836, 3857, 3847, 3875, 3850, 0, 1, 16002, -89.900, 0.000, -33.500, 0.000, 0.000, -3.000, 0.0, , , , , , 98, , , 39, 39, 39
38.2001639, -120.0382867, 32.200, 09:55:57.709, 14, 0.00, 0.23, 98, -0.300, -0.500, -34.200, 1057, 100, 92, 19, 23106, -19085, 5418, 5529, 9, 14, 1526144157.709, 20, 0, 1024, 1024, 1024, 1024, 0, 6, 3841, 3836, 3857, 3847, 3875, 3850, 0, 1, 16101, -89.900, 0.000, -33.500, 0.000, 0.000, -2.900, 0.0, , , , , , 98, , , 39, 39, 39
38.2001639, -120.0382867, 32.200, 09:55:57.809, 14, 0.00, 0.23, 98, -0.300, -0.500, -34.200, 1057, 100, 92, 19, 23106, -19085, 5418, 5529, 9, 14, 1526144157.810, 120, 0, 1024, 1024, 1024, 1024, 0, 6, 3841, 3836, 3857, 3847, 3875, 3850, 0, 1, 16201, -89.900, 0.000, -33.500, 0.000, 0.000, -2.900, 0.0, , , , , , 98, , , 39, 39, 39
38.2001639, -120.0382867, 32.500, 09:55:57.909, 15, 0.00, 0.22, 98, -0.400, -0.400, -34.100, 1057, 100, 92, 19, 23106, -19085, 5418, 5529, 9, 14, 1526144157.910, 15, 0, 1024, 1024, 1024, 1024, 0, 6, 3841, 3836, 3857, 3847, 3875, 3850, 0, 1, 16302, -89.900, 0.000, -33.500, 0.000, 0.000, -2.900, 0.0, , , , , , 98, , , 39, 39, 39
38.2001639, -120.0382867, 33.100, 09:55:58.009, 16, 0.00, 0.22, 98, -0.700, -1.000, -34.300, 1057, 100, 92, 19, 23106, -19085, 5418, 5529, 9, 14, 1526144158.010, 32, 0, 1024, 1024, 1024, 1024, 0, 6, 3841, 3836, 3857, 3847, 3875, 3850, 0, 1, 16401, -90.000, 0.000, -33.500, 0.000, 0.000, -3.000, 0.0, , , , , , 98, , , 39, 39, 39
38.2001639, -120.0382868, 33.400, 09:55:58.109, 16, 0.00, 0.22, 98, -0.700, -1.100, -34.400, 1057, 100, 92, 19, 23106, -19085, 5418, 5529, 9, 14, 1526144158.109, 32, 0, 1024, 1024, 1024, 1024, 0, 6, 3841, 3836, 3857, 3847, 3875, 3850, 0, 1, 16501, -90.000, 0.000, -33.500, 0.000, 0.000, -2.900, 0.0, , , , , , 98, , , 39, 39, 39
38.2001639, -120.0382868, 33.700, 09:55:58.209, 16, 0.00, 0.22, 98, -0.700, -1.100, -34.500, 1057, 100, 92, 19, 23106, -19085, 5418, 5529, 9, 14, 1526144158.210, 32, 0, 1024, 1024, 1024, 1024, 0, 6, 3841, 3836, 3857, 3847, 3875, 3850, 0, 1, 16601, -90.000, 0.000, -33.500, 0.000, 0.000, -2.900, 0.0, , , , , , 98, , , 39, 39, 39
38.2001638, -120.0382868, 34.000, 09:55:58.308, 16, 0.00, 0.21, 98, -0.300, -1.200, -34.600, 1057, 100, 92, 19, 23135, -18829, 5418, 5529, 9, 14, 1526144158.309, 7, 0, 1024, 1024, 1024, 1024, 0, 6, 3841, 3836, 3857, 3847, 3875, 3850, 0, 1, 16700, -90.000, 0.000, -33.500, 0.000, 0.000, -2.900, 0.0, , , , , , 98, , , 39, 39, 39
38.2001638, -120.0382868, 34.000, 09:55:58.409, 16, 0.00, 0.21, 98, -0.300, -1.200, -34.600, 1057, 100, 92, 19, 23135, -18829, 5418, 5529, 9, 14, 1526144158.410, 108, 0, 1024, 1024, 1024, 1024, 0, 6, 3841, 3836, 3857, 3847, 3875, 3850, 0, 1, 16802, -90.000, 0.000, -33.500, 0.000, 0.000, -2.900, 0.0, , , , , , 98, , , 39, 39, 39
38.2001637, -120.0382869, 34.600, 09:55:58.509, 16, 0.00, 0.20, 98, 0.200, -1.300, -34.700, 1057, 100, 98, 19, 23135, -18829, 5418, 5529, 9, 14, 1526144158.510, 12, 0, 1024, 1024, 1024, 1024, 0, 6, 3841, 3836, 3857, 3847, 3875, 3850, 0, 1, 16901, -90.000, 0.000, -33.500, 0.000, 0.000, -2.900, 0.0, , , , , , 98, , , 39, 39, 39
38.2001637, -120.0382869, 34.900, 09:55:58.609, 16, 0.00, 0.20, 98, 0.300, -1.300, -34.700, 1057, 100, 98, 19, 23135, -18829, 5418, 5529, 9, 14, 1526144158.610, 12, 0, 1024, 1024, 1024, 1024, 0, 6, 3841, 3836, 3857, 3847, 3875, 3850, 0, 1, 17001, -89.900, 0.000, -33.500, 0.000, 0.000, -2.900, 0.0, , , , , , 98, , , 39, 39, 39
38.2001637, -120.0382869, 34.900, 09:55:58.709, 16, 0.00, 0.20, 98, 0.300, -1.300, -34.700, 1057, 100, 98, 19, 23135, -18829, 5418, 5529, 9, 14, 1526144158.710, 112, 0, 1024, 1024, 1024, 1024, 0, 6, 3841, 3836, 3857, 3847, 3875, 3850, 0, 1, 17101, -89.900, 0.000, -33.500, 0.000, 0.000, -2.900, 0.0, , , , , , 98, , , 39, 39, 39
38.2001637, -120.0382870, 35.200, 09:55:58.809, 16, 0.00, 0.19, 98, 0.300, -1.200, -34.700, 1057, 100, 98, 19, 23135, -18829, 5418, 5529, 9, 14, 1526144158.810, 91, 0, 1024, 1024, 1024, 1024, 0, 6, 3841, 3836, 3857, 3847, 3875, 3850, 0, 1, 17201, -90.000, 0.000, -33.500, 0.000, 0.000, -2.900, 0.0, , , , , , 98, , , 39, 39, 39
38.2001636, -120.0382870, 35.500, 09:55:58.909, 16, 0.00, 0.19, 98, 0.200, -1.200, -34.700, 1057, 100, 98, 19, 23135, -18829, 5418, 5529, 9, 14, 1526144158.910, 97, 0, 1024, 1024, 1024, 1024, 0, 6, 3850, 3840, 3854, 3839, 3882, 3846, 0, 1, 17301, -89.900, 0.000, -33.500, 0.000, 0.000, -2.900, 0.0, , , , , , 98, , , 39, 39, 39
38.2001636, -120.0382870, 35.800, 09:55:59.008, 16, 0.00, 0.19, 98, 0.100, -1.300, -34.600, 1057, 100, 98, 19, 23135, -18829, 5418, 5529, 9, 14, 1526144159.009, 88, 0, 1024, 1024, 1024, 1024, 0, 6, 3850, 3840, 3854, 3839, 3882, 3846, 0, 1, 17400, -90.000, 0.000, -33.500, 0.000, 0.000, -2.900, 0.0, , , , , , 98, , , 39, 39, 39
38.2001636, -120.0382870, 36.100, 09:55:59.109, 16, 0.00, 0.19, 98, 0.100, -1.400, -34.500, 1057, 100, 98, 19, 23135, -18829, 5418, 5529, 9, 14, 1526144159.110, 57, 0, 1024, 1024, 1024, 1024, 0, 6, 3850, 3840, 3854, 3839, 3882, 3846, 0, 1, 17501, -90.000, 0.000, -33.500, 0.000, 0.000, -2.900, 0.0, , , , , , 98, , , 39, 39, 39
38.2001635, -120.0382870, 36.400, 09:55:59.208, 16, 0.00, 0.19, 98, 0.000, -1.500, -34.400, 1057, 100, 98, 19, 23135, -18829, 5418, 5529, 9, 14, 1526144159.209, 58, 0, 1024, 1024, 1024, 1024, 0, 6, 3850, 3840, 3854, 3839, 3882, 3846, 0, 1, 17600, -90.000, 0.000, -33.500, 0.000, 0.000, -3.000, 0.0, , , , , , 98, , , 39, 39, 39
38.2001635, -120.0382870, 36.400, 09:55:59.309, 16, 0.00, 0.19, 98, 0.000, -1.500, -34.400, 1057, 100, 98, 19, 23135, -18829, 5418, 5529, 9, 14, 1526144159.310, 159, 0, 1024, 1024, 1024, 1024, 0, 6, 3850, 3840, 3854, 3839, 3882, 3846, 0, 1, 17701, -90.000, 0.000, -33.500, 0.000, 0.000, -3.000, 0.0, , , , , , 98, , , 39, 39, 39
38.2001636, -120.0382870, 37.000, 09:55:59.409, 16, 0.00, 0.19, 98, -0.100, -1.400, -34.500, 1057, 100, 98, 19, 23135, -18829, 5418, 5529, 9, 14, 1526144159.410, 62, 0, 1024, 1024, 1024, 1024, 0, 6, 3850, 3840, 3854, 3839, 3882, 3846, 0, 1, 17801, -89.900, 0.000, -33.500, 0.000, 0.000, -3.000, 0.0, , , , , , 98, , , 39, 39, 39
38.2001636, -120.0382870, 37.000, 09:55:59.509, 16, 0.00, 0.19, 98, -0.100, -1.400, -34.500, 1057, 100, 98, 19, 23135, -18829, 5418, 5529, 9, 14, 1526144159.510, 162, 0, 1024, 1024, 1024, 1024, 0, 6, 3850, 3840, 3854, 3839, 3882, 3846, 0, 1, 17901, -89.900, 0.000, -33.500, 0.000, 0.000, -3.000, 0.0, , , , , , 98, , , 39, 39, 39
38.2001636, -120.0382870, 37.000, 09:55:59.609, 16, 0.00, 0.19, 98, -0.100, -1.400, -34.500, 1057, 100, 98, 19, 23135, -18829, 5418, 5529, 9, 14, 1526144159.610, 262, 0, 1024, 1024, 1024, 1024, 0, 6, 3850, 3840, 3854, 3839, 3882, 3846, 0, 1, 18001, -89.900, 0.000, -33.500, 0.000, 0.000, -3.000, 0.0, , , , , , 98, , , 39, 39, 39
38.2001635, -120.0382870, 37.900, 09:55:59.709, 16, 0.00, 0.19, 98, -0.100, -1.200, -34.800, 1057, 100, 98, 19, 23135, -18829, 5418, 5529, 9, 14, 1526144159.710, 73, 0, 1024, 1024, 1024, 1024, 0, 6, 3850, 3840, 3854, 3839, 3882, 3846, 0, 1, 18101, -90.000, 0.000, -33.500, 0.000, 0.000, -3.000, 0.0, , , , , , 98, , , 39, 39, 39
38.2001635, -120.0382870, 38.200, 09:55:59.809, 16, 0.00, 0.19, 98, 0.000, -1.200, -34.900, 1057, 100, 98, 19, 23135, -18829, 5418, 5529, 9, 14, 1526144159.810, 48, 0, 1024, 1024, 1024, 1024, 0, 6, 3850, 3840, 3854, 3839, 3882, 3846, 0, 1, 18201, -90.000, 0.000, -33.500, 0.000, 0.000, -3.000, 0.0, , , , , , 98, , , 39, 39, 39
38.2001635, -120.0382869, 38.500, 09:55:59.908, 16, 0.00, 0.19, 97, 0.000, -1.300, -34.900, 1057, 100, 92, 19, 23118, -19195, 5363, 5529, 9, 14, 1526144159.909, 41, 0, 1024, 1024, 1024, 1024, 0, 6, 3833, 3825, 3852, 3840, 3874, 3847, 0, 1, 18300, -89.900, 0.000, -33.500, 0.000, 0.000, -3.000, 0.0, , , , , , 98, , , 39, 39, 39
38.2001634, -120.0382869, 39.100, 09:56:00.008, 16, 0.00, 0.19, 97, 0.000, -1.300, -34.700, 1057, 100, 92, 19, 23118, -19195, 5363, 5529, 9, 14, 1526144160.009, 49, 0, 1024, 1024, 1024, 1024, 0, 6, 3833, 3825, 3852, 3840, 3874, 3847, 0, 1, 18401, -89.900, 0.000, -33.500, 0.000, 0.000, -2.900, 0.0, , , , , , 98, , , 39, 39, 39
38.2001634, -120.0382869, 39.100, 09:56:00.109, 16, 0.00, 0.19, 97, 0.000, -1.300, -34.700, 1057, 100, 92, 19, 23118, -19195, 5363, 5529, 9, 14, 1526144160.109, 149, 0, 1024, 1024, 1024, 1024, 0, 6, 3833, 3825, 3852, 3840, 3874, 3847, 0, 1, 18501, -90.000, 0.000, -33.500, 0.000, 0.000, -2.900, 0.0, , , , , , 98, , , 39, 39, 39
38.2001634, -120.0382869, 39.700, 09:56:00.209, 16, 0.00, 0.19, 97, -0.100, -1.400, -34.600, 1057, 100, 92, 19, 23118, -19195, 5363, 5529, 9, 14, 1526144160.210, 20, 0, 1024, 1024, 1024, 1024, 0, 6, 3833, 3825, 3852, 3840, 3874, 3847, 0, 1, 18601, -90.000, 0.000, -33.500, 0.000, 0.000, -2.900, 0.0, , , , , , 98, , , 39, 39, 39
38.2001634, -120.0382869, 40.000, 09:56:00.309, 16, 0.00, 0.19, 97, -0.100, -1.400, -34.500, 1057, 100, 92, 19, 23118, -19195, 5363, 5529, 9, 14, 1526144160.309, 27, 0, 1024, 1024, 1024, 1024, 0, 6, 3833, 3825, 3852, 3840, 3874, 3847, 0, 1, 18701, -89.900, 0.000, -33.500, 0.000, 0.000, -3.100, 0.0, , , , , , 98, , , 39, 39, 39
38.2001633, -120.0382869, 40.300, 09:56:00.409, 16, 0.00, 0.18, 97, 0.000, -1.400, -34.400, 1057, 100, 89, 19, 23118, -19195, 5363, 5529, 9, 14, 1526144160.409, 30, 0, 1024, 1024, 1024, 1024, 0, 6, 3833, 3825, 3852, 3840, 3874, 3847, 0, 1, 18801, -90.000, 0.000, -33.500, 0.000, 0.000, -3.000, 0.0, , , , , , 98, , , 39, 39, 39
38.2001633, -120.0382869, 40.300, 09:56:00.508, 16, 0.00, 0.18, 97, 0.000, -1.400, -34.400, 1057, 100, 89, 19, 23118, -19195, 5363, 5529, 9, 14, 1526144160.509, 130, 0, 1024, 1024, 1024, 1024, 0, 6, 3833, 3825, 3852, 3840, 3874, 3847, 0, 1, 18901, -90.000, 0.000, -33.500, 0.000, 0.000, -3.000, 0.0, , , , , , 98, , , 39, 39, 39
38.2001633, -120.0382869, 40.600, 09:56:00.609, 16, 0.00, 0.18, 97, 0.000, -1.500, -34.400, 1057, 100, 89, 19, 23118, -19195, 5363, 5529, 9, 14, 1526144160.610, 97, 0, 1024, 1024, 1024, 1024, 0, 6, 3833, 3825, 3852, 3840, 3874, 3847, 0, 1, 19001, -90.000, 0.000, -33.500, 0.000, 0.000, -3.000, 0.0, , , , , , 98, , , 39, 39, 39
38.2001633, -120.0382869, 41.200, 09:56:00.709, 16, 0.00, 0.18, 97, 0.000, -1.400, -34.200, 1057, 100, 89, 19, 23118, -19195, 5363, 5529, 9, 14, 1526144160.710, 12, 0, 1024, 1024, 1024, 1024, 0, 6, 3833, 3825, 3852, 3840, 3874, 3847, 0, 1, 19101, -90.000, 0.000, -33.500, 0.000, 0.000, -2.900, 0.0, , , , , , 98, , , 39, 39, 39
38.2001632, -120.0382869, 41.500, 09:56:00.808, 16, 0.00, 0.18, 97, -0.200, -1.400, -34.100, 1057, 100, 89, 19, 23015, -19154, 5363, 5529, 9, 14, 1526144160.810, 18, 0, 1024, 1024, 1024, 1024, 0, 6, 3823, 3825, 3835, 3828, 3853, 3841, 0, 1, 19201, -89.900, 0.000, -33.500, 0.000, 0.000, -2.900, 0.0, , , , , , 98, , , 39, 39, 39
38.2001632, -120.0382869, 41.800, 09:56:00.934, 16, 0.00, 0.18, 97, -0.200, -1.400, -33.900, 1057, 100, 89, 19, 23015, -19154, 5363, 5529, 9, 14, 1526144160.934, 12, 0, 1024, 1024, 1024, 1024, 0, 6, 3823, 3825, 3835, 3828, 3853, 3841, 0, 1, 19326, -89.900, 0.000, -33.500, 0.000, 0.000, -3.000, 0.0, , , , , , 98, , , 39, 39, 39
38.2001632, -120.0382869, 41.800, 09:56:01.009, 16, 0.00, 0.18, 97, -0.200, -1.400, -33.900, 1057, 100, 89, 19, 23015, -19154, 5363, 5529, 9, 14, 1526144161.010, 87, 0, 1024, 1024, 1024, 1024, 0, 6, 3823, 3825, 3835, 3828, 3853, 3841, 0, 1, 19401, -89.900, 0.000, -33.500, 0.000, 0.000, -3.000, 0.0, , , , , , 98, , , 39, 39, 39
38.2001632, -120.0382869, 42.100, 09:56:01.109, 16, 0.00, 0.18, 97, -0.100, -1.400, -33.900, 1057, 100, 89, 19, 23015, -19154, 5363, 5529, 9, 14, 1526144161.109, 91, 0, 1024, 1024, 1024, 1024, 0, 6, 3823, 3825, 3835, 3828, 3853, 3841, 0, 1, 19501, -89.900, 0.000, -33.500, 0.000, 0.000, -3.000, 0.0, , , , , , 98, , , 39, 39, 39
38.2001632, -120.0382869, 42.400, 09:56:01.208, 16, 0.00, 0.18, 97, 0.000, -1.400, -33.900, 1057, 100, 89, 19, 23015, -19154, 5363, 5529, 9, 14, 1526144161.209, 57, 0, 1024, 1024, 1024, 1024, 0, 6, 3823, 3825, 3835, 3828, 3853, 3841, 0, 1, 19600, -89.900, 0.000, -33.500, 0.000, 0.000, -3.000, 0.0, , , , , , 98, , , 39, 39, 39
38.2001631, -120.0382870, 42.700, 09:56:01.309, 16, 0.00, 0.18, 97, 0.000, -1.300, -34.000, 1057, 100, 89, 19, 23015, -19154, 5363, 5529, 9, 14, 1526144161.310, 97, 0, 1024, 1024, 1024, 1024, 0, 6, 3823, 3825, 3835, 3828, 3853, 3841, 0, 1, 19701, -90.000, 0.000, -33.500, 0.000, 0.000, -3.000, 0.0, , , , , , 98, , , 39, 39, 39
38.2001631, -120.0382870, 42.700, 09:56:01.409, 16, 0.00, 0.18, 97, 0.000, -1.300, -34.000, 1057, 100, 89, 19, 23015, -19154, 5363, 5529, 9, 14, 1526144161.409, 197, 0, 1024, 1024, 1024, 1024, 0, 6, 3823, 3825, 3835, 3828, 3853, 3841, 0, 1, 19801, -89.900, 0.000, -33.500, 0.000, 0.000, -3.000, 0.0, , , , , , 98, , , 39, 39, 39
38.2001631, -120.0382870, 43.300, 09:56:01.509, 16, 0.00, 0.17, 97, 0.100, -1.200, -34.200, 1057, 100, 92, 19, 23015, -19154, 5363, 5529, 9, 14, 1526144161.509, 69, 0, 1024, 1024, 1024, 1024, 0, 6, 3823, 3825, 3835, 3828, 3853, 3841, 0, 1, 19901, -89.900, 0.000, -33.500, 0.000, 0.000, -3.000, 0.0, , , , , , 98, , , 39, 39, 39
38.2001631, -120.0382871, 43.600, 09:56:01.609, 16, 0.00, 0.17, 97, 0.300, -1.000, -34.300, 1057, 100, 92, 19, 23015, -19154, 5363, 5529, 9, 14, 1526144161.610, 72, 0, 1024, 1024, 1024, 1024, 0, 6, 3823, 3825, 3835, 3828, 3853, 3841, 0, 1, 20001, -89.900, 0.000, -33.500, 0.000, 0.000, -3.000, 0.0, , , , , , 98, , , 39, 39, 39
38.2001631, -120.0382871, 43.900, 09:56:01.709, 16, 0.00, 0.17, 97, 0.500, -1.000, -34.500, 1057, 100, 92, 19, 23015, -19154, 5363, 5529, 9, 14, 1526144161.709, 65, 0, 1024, 1024, 1024, 1024, 0, 6, 3823, 3825, 3835, 3828, 3853, 3841, 0, 1, 20101, -89.900, 0.000, -33.500, 0.000, 0.000, -3.000, 0.0, , , , , , 98, , , 39, 39, 39
38.2001631, -120.0382871, 44.200, 09:56:01.809, 16, 0.00, 0.17, 97, 0.400, -1.000, -34.600, 1057, 100, 92, 19, 23015, -19154, 5363, 5529, 9, 14, 1526144161.810, 73, 0, 1024, 1024, 1024, 1024, 0, 6, 3823, 3825, 3835, 3828, 3853, 3841, 0, 1, 20201, -89.900, 0.000, -33.500, 0.000, 0.000, -3.000, 0.0, , , , , , 98, , , 39, 39, 39
38.2001631, -120.0382871, 44.500, 09:56:01.909, 16, 0.00, 0.16, 97, 0.200, -1.100, -34.700, 1057, 100, 95, 19, 23043, -19154, 5363, 5529, 9, 14, 1526144161.910, 41, 0, 1024, 1024, 1024, 1024, 0, 6, 3823, 3825, 3835, 3828, 3853, 3841, 0, 1, 20302, -90.000, 0.000, -33.500, 0.000, 0.000, -2.900, 0.0, , , , , , 98, , , 39, 39, 39
38.2001631, -120.0382871, 44.800, 09:56:02.009, 16, 0.00, 0.16, 97, 0.100, -1.300, -34.700, 1057, 100, 95, 19, 23043, -19154, 5363, 5529, 9, 14, 1526144162.010, 41, 0, 1024, 1024, 1024, 1024, 0, 6, 3823, 3825, 3835, 3828, 3853, 3841, 0, 1, 20401, -90.000, 0.000, -33.500, 0.000, 0.000, -2.900, 0.0, , , , , , 98, , , 39, 39, 39
38.2001631, -120.0382871, 45.400, 09:56:02.109, 16, 0.00, 0.17, 97, 0.100, -1.500, -34.700, 1057, 100, 95, 19, 23043, -19154, 5363, 5529, 9, 14, 1526144162.109, 24, 0, 1024, 1024, 1024, 1024, 0, 6, 3823, 3825, 3835, 3828, 3853, 3841, 0, 1, 20501, -90.000, 0.000, -33.500, 0.000, 0.000, -3.000, 0.0, , , , , , 98, , , 39, 39, 39
38.2001631, -120.0382871, 45.400, 09:56:02.209, 16, 0.00, 0.17, 97, 0.100, -1.500, -34.700, 1057, 100, 95, 19, 23043, -19154, 5363, 5529, 9, 14, 1526144162.210, 124, 0, 1024, 1024, 1024, 1024, 0, 6, 3823, 3825, 3835, 3828, 3853, 3841, 0, 1, 20601, -89.900, 0.000, -33.500, 0.000, 0.000, -3.000, 0.0, , , , , , 98, , , 39, 39, 39
