Latitude, Longitude, Altitude (m), Time, Sats, Speed (m/s), Range (m), Battery (%), Roll (deg), Pitch (deg), Yaw (deg), Images, HD Signal (%), RC Signal (%), Battery Temp (C), Battery Voltage (mV), Battery Current (mA), Battery Energy (mAh), Battery Capacity (mAh), Battery Discharges, flyState, timestamp (Unix), LastUpdate (ms), radioChannel, Rc_elevator, Rc_aileron, Rc_throttle, Rc_rudder, Rc_gyro, Dronetype, Battery_Cell1 (mV), Battery_Cell2 (mV), Battery_Cell3 (mV), Battery_Cell4 (mV), Battery_Cell5 (mV), Battery_Cell6 (mV), Video, isFlying, elapsedTime (ms), gimbalPitch (deg), gimbalRoll (deg), gimbalYaw (deg), VelocityX (m/s), VelocityY (m/s), VelocityZ (m/s), GroundSmear (cm), App Version, Aircraft Name, Aircraft Firmware, Aircraft Serial Number, Battery Serial Number, Battery Lifetime (%), App_Tip, App_Warning, CurrentFlightStartingIndex, CurrentFlightLastVisitedWaypoint, PreviousFlightEndingWaypointIndex
38.2001114, -120.0383142, 0.000, 09:02:31.030, 11, 0.00, 0.05, 98, 1.100, 0.400, -35.000, 2, 100, 100, 11, 25310, -3845, 5306, 5415, 15, 11, 1526140951.030, 120, 0, 1024, 1024, 1024, 1024, 0, 6, 4197, 4211, 4204, 4243, 4208, 4149, 0, 1, 3161, -89.900, 0.000, -36.800, 0.000, 0.000, -0.200, 0.0, MapPilot_2.8.1_04242018, Dendroctonus I, 1.3.1.00, 041DDC1887, 1058171200162, 97, DJI_0001.jpg, Starting Mission from Lat/Long: 38.20003/-120.03847 Camera: Zenmuse X3 - Overlap: 90/90 - Active Connection: No, 0, 0, 0
38.2001114, -120.0383143, 0.000, 09:02:31.069, 10, 0.00, 0.05, 98, 1.000, 0.600, -35.000, 2, 100, 100, 11, 25310, -3845, 5306, 5415, 15, 11, 1526140951.069, 34, 0, 1024, 1024, 1024, 1024, 0, 6, 4197, 4211, 4204, 4243, 4208, 4149, 0, 1, 3200, -89.900, 0.000, -36.700, 0.000, 0.000, -0.300, 0.0, , , , , , 97, , , 0, 0, 0
38.2001114, -120.0383143, 0.000, 09:02:31.169, 10, 0.00, 0.05, 98, 0.400, 0.600, -34.900, 2, 100, 100, 11, 25310, -3845, 5306, 5415, 15, 11, 1526140951.169, 16, 0, 1024, 1024, 1024, 1024, 0, 6, 4197, 4211, 4204, 4243, 4208, 4149, 0, 1, 3300, -89.900, 0.000, -36.700, 0.000, 0.000, -0.400, 0.0, , , , , , 97, , , 0, 0, 0
38.2001114, -120.0383143, 0.100, 09:02:31.269, 9, 0.00, 0.05, 98, 0.000, 0.300, -35.000, 2, 100, 100, 11, 25310, -3845, 5306, 5415, 15, 11, 1526140951.269, 28, 0, 1024, 1024, 1024, 1024, 0, 6, 4197, 4211, 4204, 4243, 4208, 4149, 0, 1, 3401, -89.900, 0.000, -36.700, 0.000, 0.000, -0.400, 0.0, , , , , , 97, , , 0, 0, 0
38.2001114, -120.0383143, 0.100, 09:02:31.369, 9, 0.00, 0.06, 98, -0.100, 0.300, -35.000, 2, 100, 100, 11, 25310, -3845, 5306, 5415, 15, 11, 1526140951.369, 37, 0, 1024, 1024, 1024, 1024, 0, 6, 4197, 4211, 4204, 4243, 4208, 4149, 0, 1, 3500, -89.900, 0.000, -36.700, 0.000, 0.000, -0.400, 0.0, , , , , , 97, , , 0, 0, 0
38.2001114, -120.0383143, 0.200, 09:02:31.469, 9, 0.00, 0.06, 98, 0.000, 0.200, -35.100, 2, 100, 100, 11, 23893, -13084, 5306, 5415, 15, 11, 1526140951.470, 43, 0, 1024, 1024, 1024, 1024, 0, 6, 3925, 4008, 3971, 4028, 3905, 3880, 0, 1, 3601, -89.900, 0.000, -36.600, 0.000, 0.000, -0.400, 0.0, , , , , , 97, , , 0, 0, 0
38.2001113, -120.0383143, 0.200, 09:02:31.569, 9, 0.00, 0.06, 98, 0.200, 0.000, -35.200, 2, 100, 100, 11, 23893, -13084, 5306, 5415, 15, 11, 1526140951.569, 34, 0, 1024, 1024, 1024, 1024, 0, 6, 3925, 4008, 3971, 4028, 3905, 3880, 0, 1, 3700, -90.000, 0.000, -36.600, 0.000, 0.000, -0.300, 0.0, , , , , , 97, , , 0, 0, 0
38.2001113, -120.0383144, 0.300, 09:02:31.669, 10, 0.00, 0.07, 98, 0.100, -0.300, -35.300, 2, 100, 100, 11, 23893, -13084, 5306, 5415, 15, 11, 1526140951.669, 15, 0, 1024, 1024, 1024, 1024, 0, 6, 3925, 4008, 3971, 4028, 3905, 3880, 0, 1, 3800, -90.000, 0.000, -36.600, 0.000, 0.000, -0.400, 0.0, , , , , , 97, , , 0, 0, 0
38.2001113, -120.0383145, 0.300, 09:02:31.769, 10, 0.00, 0.08, 98, 0.200, 0.000, -35.300, 2, 100, 100, 11, 23893, -13084, 5306, 5415, 15, 11, 1526140951.769, 25, 0, 1024, 1024, 1024, 1024, 0, 6, 3925, 4008, 3971, 4028, 3905, 3880, 0, 1, 3900, -89.900, 0.000, -36.600, 0.000, 0.000, -0.400, 0.0, , , , , , 97, , , 0, 0, 0
38.2001112, -120.0383145, 0.400, 09:02:31.873, 10, 0.00, 0.08, 98, 0.300, 0.100, -35.300, 2, 100, 100, 11, 23893, -13084, 5306, 5415, 15, 11, 1526140951.874, 4, 0, 1024, 1024, 1024, 1024, 0, 6, 3925, 4008, 3971, 4028, 3905, 3880, 0, 1, 4005, -89.900, 0.000, -36.500, 0.000, 0.000, -0.400, 0.0, , , , , , 97, , , 0, 0, 0
38.2001112, -120.0383145, 0.400, 09:02:31.970, 9, 0.00, 0.08, 98, 0.200, 0.000, -35.300, 2, 100, 100, 11, 23893, -13084, 5306, 5415, 15, 11, 1526140951.970, 5, 0, 1024, 1024, 1024, 1024, 0, 6, 3925, 4008, 3971, 4028, 3905, 3880, 0, 1, 4101, -89.900, 0.000, -36.500, 0.000, 0.000, -0.400, 0.0, , , , , , 97, , , 0, 0, 0
38.2001114, -120.0383146, 0.500, 09:02:32.071, 9, 0.00, 0.08, 98, 0.100, 0.100, -35.300, 2, 100, 100, 11, 23893, -13084, 5306, 5415, 15, 11, 1526140952.072, 4, 0, 1024, 1024, 1024, 1024, 0, 6, 3925, 4008, 3971, 4028, 3905, 3880, 0, 1, 4203, -89.900, 0.000, -36.500, 0.000, 0.000, -0.400, 0.0, , , , , , 97, , , 0, 0, 0
38.2001114, -120.0383146, 0.500, 09:02:32.171, 9, 0.00, 0.08, 98, 0.100, 0.400, -35.300, 2, 100, 100, 11, 23893, -13084, 5306, 5415, 15, 11, 1526140952.171, 4, 0, 1024, 1024, 1024, 1024, 0, 6, 3925, 4008, 3971, 4028, 3905, 3880, 0, 1, 4302, -89.900, 0.000, -36.500, 0.000, 0.000, -0.400, 0.0, , , , , , 97, , , 0, 0, 0
38.2001114, -120.0383146, 0.600, 09:02:32.269, 9, 0.00, 0.08, 98, 0.100, 0.600, -35.300, 2, 100, 100, 11, 23893, -13084, 5306, 5415, 15, 11, 1526140952.269, 15, 0, 1024, 1024, 1024, 1024, 0, 6, 3925, 4008, 3971, 4028, 3905, 3880, 0, 1, 4401, -89.900, 0.000, -36.500, 0.000, 0.000, -0.500, 0.0, , , , , , 97, , , 0, 0, 0
38.2001114, -120.0383146, 0.700, 09:02:32.372, 9, 0.00, 0.08, 98, 0.100, 0.600, -35.200, 2, 100, 100, 11, 23075, -16823, 5306, 5415, 15, 11, 1526140952.372, 5, 0, 1024, 1024, 1024, 1024, 0, 6, 3925, 4008, 3971, 4028, 3905, 3880, 0, 1, 4504, -89.900, 0.000, -36.400, 0.000, 0.000, -0.500, 0.0, , , , , , 97, , , 0, 0, 0
38.2001115, -120.0383147, 0.700, 09:02:32.476, 9, 0.00, 0.08, 98, 0.100, 0.600, -35.200, 2, 100, 100, 11, 23075, -16823, 5306, 5415, 15, 11, 1526140952.476, 13, 0, 1024, 1024, 1024, 1024, 0, 6, 3925, 4008, 3971, 4028, 3905, 3880, 0, 1, 4607, -89.900, 0.000, -36.400, 0.000, 0.000, -0.500, 0.0, , , , , , 97, , , 0, 0, 0
38.2001115, -120.0383147, 0.700, 09:02:32.569, 9, 0.00, 0.08, 98, 0.100, 0.600, -35.200, 2, 100, 100, 11, 23075, -16823, 5306, 5415, 15, 11, 1526140952.569, 105, 0, 1024, 1024, 1024, 1024, 0, 6, 3925, 4008, 3971, 4028, 3905, 3880, 0, 1, 4700, -89.900, 0.000, -36.400, 0.000, 0.000, -0.500, 0.0, , , , , , 97, , , 0, 0, 0
38.2001115, -120.0383148, 0.800, 09:02:32.669, 10, 0.00, 0.09, 98, 0.100, 0.600, -35.100, 2, 100, 100, 11, 23075, -16823, 5306, 5415, 15, 11, 1526140952.669, 84, 0, 1024, 1024, 1024, 1024, 0, 6, 3925, 4008, 3971, 4028, 3905, 3880, 0, 1, 4800, -89.900, 0.000, -36.400, 0.000, 0.000, -0.500, 0.0, , , , , , 97, , , 0, 0, 0
38.2001115, -120.0383149, 0.800, 09:02:32.769, 10, 0.00, 0.10, 98, 0.200, 0.600, -35.100, 2, 100, 100, 11, 23075, -16823, 5306, 5415, 15, 11, 1526140952.769, 86, 0, 1024, 1024, 1024, 1024, 0, 6, 3925, 4008, 3971, 4028, 3905, 3880, 0, 1, 4900, -89.900, 0.000, -36.400, 0.000, 0.000, -0.500, 0.0, , , , , , 97, , , 0, 0, 0
38.2001115, -120.0383150, 0.900, 09:02:32.869, 11, 0.00, 0.10, 98, 0.400, 0.700, -35.000, 2, 100, 100, 11, 23075, -16823, 5306, 5415, 15, 14, 1526140952.870, 89, 0, 1024, 1024, 1024, 1024, 0, 6, 3925, 4008, 3971, 4028, 3905, 3880, 0, 1, 5001, -89.900, 0.000, -36.300, 0.000, 0.000, -0.500, 0.0, , , , , , 97, , , 0, 0, 0
38.2001116, -120.0383149, 0.900, 09:02:32.969, 11, 0.00, 0.10, 98, 0.300, 0.800, -35.000, 2, 100, 100, 11, 23075, -16823, 5306, 5415, 15, 14, 1526140952.969, 79, 0, 1024, 1024, 1024, 1024, 0, 6, 3815, 3862, 3857, 3854, 3841, 3819, 0, 1, 5100, -89.900, 0.000, -36.300, 0.000, 0.000, -0.300, 0.0, , , , , , 97, , , 0, 0, 0
38.2001116, -120.0383149, 1.000, 09:02:33.069, 10, 0.00, 0.09, 98, 0.000, 0.800, -35.000, 2, 100, 100, 11, 23075, -16823, 5306, 5415, 15, 14, 1526140953.069, 84, 0, 1024, 1024, 1024, 1024, 0, 6, 3815, 3862, 3857, 3854, 3841, 3819, 0, 1, 5200, -89.900, 0.000, -36.300, 0.000, 0.000, -0.200, 0.0, , , , , , 97, , , 0, 0, 0
38.2001117, -120.0383150, 1.000, 09:02:33.169, 10, 0.00, 0.10, 98, -0.200, 0.800, -35.000, 2, 100, 100, 11, 23075, -16823, 5306, 5415, 15, 14, 1526140953.169, 58, 0, 1024, 1024, 1024, 1024, 0, 6, 3815, 3862, 3857, 3854, 3841, 3819, 0, 1, 5300, -89.900, 0.000, -36.300, 0.000, 0.000, -0.300, 0.0, , , , , , 97, , , 0, 0, 0
38.2001118, -120.0383151, 1.100, 09:02:33.268, 10, 0.00, 0.11, 98, -0.100, 0.900, -34.900, 2, 100, 100, 11, 23075, -16823, 5306, 5415, 15, 14, 1526140953.269, 62, 0, 1024, 1024, 1024, 1024, 0, 6, 3815, 3862, 3857, 3854, 3841, 3819, 0, 1, 5400, -89.900, 0.000, -36.300, 0.000, 0.000, -0.300, 0.0, , , , , , 97, , , 0, 0, 0
38.2001118, -120.0383150, 1.100, 09:02:33.369, 10, 0.00, 0.10, 98, 0.000, 1.100, -34.900, 2, 100, 100, 11, 23075, -16823, 5306, 5415, 15, 14, 1526140953.369, 64, 0, 1024, 1024, 1024, 1024, 0, 6, 3815, 3862, 3857, 3854, 3841, 3819, 0, 1, 5500, -89.900, 0.000, -36.200, 0.000, 0.000, -0.400, 0.0, , , , , , 97, , , 0, 0, 0
38.2001119, -120.0383149, 1.200, 09:02:33.469, 10, 0.00, 0.10, 98, -0.200, 1.000, -34.800, 2, 100, 100, 11, 23075, -16823, 5306, 5415, 15, 14, 1526140953.469, 63, 0, 1024, 1024, 1024, 1024, 0, 6, 3815, 3862, 3857, 3854, 3841, 3819, 0, 1, 5600, -89.900, 0.000, -36.200, 0.000, 0.000, -0.500, 0.0, , , , , , 97, , , 0, 0, 0
38.2001119, -120.0383150, 1.200, 09:02:33.569, 10, 0.00, 0.10, 98, -0.300, 0.800, -34.800, 2, 100, 100, 11, 23075, -16823, 5306, 5415, 15, 14, 1526140953.569, 68, 0, 1024, 1024, 1024, 1024, 0, 6, 3815, 3862, 3857, 3854, 3841, 3819, 0, 1, 5700, -89.900, 0.000, -36.200, 0.000, 0.000, -0.700, 0.0, , , , , , 97, , , 0, 0, 0
38.2001119, -120.0383150, 1.300, 09:02:33.669, 10, 0.00, 0.10, 98, -0.200, 0.800, -34.900, 2, 100, 100, 11, 23075, -16823, 5306, 5415, 15, 14, 1526140953.669, 54, 0, 1024, 1024, 1024, 1024, 0, 6, 3815, 3862, 3857, 3854, 3841, 3819, 0, 1, 5800, -89.900, 0.000, -36.200, 0.000, 0.000, -0.800, 0.0, , , , , , 97, , , 0, 0, 0
38.2001119, -120.0383150, 1.400, 09:02:33.769, 10, 0.00, 0.10, 98, 0.000, 0.900, -34.900, 2, 100, 100, 11, 23075, -16823, 5306, 5415, 15, 14, 1526140953.769, 42, 0, 1024, 1024, 1024, 1024, 0, 6, 3815, 3862, 3857, 3854, 3841, 3819, 0, 1, 5900, -89.900, 0.000, -36.200, 0.000, 0.000, -1.000, 0.0, , , , , , 97, , , 0, 0, 0
38.2001119, -120.0383150, 1.600, 09:02:33.869, 10, 0.00, 0.10, 98, 0.000, 0.900, -34.900, 2, 100, 100, 11, 23075, -16823, 5306, 5415, 15, 14, 1526140953.869, 44, 0, 1024, 1024, 1024, 1024, 0, 6, 3815, 3862, 3857, 3854, 3841, 3819, 0, 1, 6000, -89.900, 0.000, -36.200, 0.000, 0.000, -1.200, 0.0, , , , , , 97, , , 0, 0, 0
38.2001118, -120.0383152, 1.900, 09:02:33.969, 10, 0.00, 0.11, 98, 0.400, 0.700, -35.000, 2, 100, 100, 11, 22942, -16714, 5306, 5415, 15, 14, 1526140953.969, 16, 0, 1024, 1024, 1024, 1024, 0, 6, 3797, 3838, 3835, 3837, 3824, 3808, 0, 1, 6101, -89.900, 0.000, -36.200, 0.000, 0.000, -1.700, 0.0, , , , , , 97, , , 0, 0, 0
38.2001117, -120.0383151, 2.100, 09:02:34.069, 10, 0.00, 0.11, 98, 0.400, 0.600, -35.000, 2, 100, 100, 11, 22942, -16714, 5306, 5415, 15, 14, 1526140954.069, 38, 0, 1024, 1024, 1024, 1024, 0, 6, 3797, 3838, 3835, 3837, 3824, 3808, 0, 1, 6200, -90.000, 0.000, -36.100, 0.000, 0.000, -1.900, 0.0, , , , , , 97, , , 0, 0, 0
38.2001117, -120.0383151, 2.300, 09:02:34.172, 10, 0.00, 0.11, 98, 0.500, 0.400, -35.100, 2, 100, 100, 11, 22942, -16714, 5306, 5415, 15, 14, 1526140954.172, 12, 0, 1024, 1024, 1024, 1024, 0, 6, 3797, 3838, 3835, 3837, 3824, 3808, 0, 1, 6303, -90.000, 0.000, -36.100, 0.000, 0.000, -2.200, 0.0, , , , , , 97, , , 0, 0, 0
38.2001117, -120.0383151, 2.500, 09:02:34.270, 10, 0.00, 0.11, 98, 0.300, 0.100, -35.200, 2, 100, 100, 11, 22942, -16714, 5306, 5415, 15, 14, 1526140954.270, 9, 0, 1024, 1024, 1024, 1024, 0, 6, 3797, 3838, 3835, 3837, 3824, 3808, 0, 1, 6401, -90.000, 0.000, -36.100, 0.000, 0.000, -2.400, 0.0, , , , , , 97, , , 0, 0, 0
38.2001117, -120.0383150, 2.800, 09:02:34.369, 10, 0.00, 0.10, 98, 0.000, 0.000, -35.200, 2, 100, 100, 11, 22942, -16714, 5306, 5415, 15, 14, 1526140954.369, 8, 0, 1024, 1024, 1024, 1024, 0, 6, 3797, 3838, 3835, 3837, 3824, 3808, 0, 1, 6500, -90.000, 0.000, -36.100, 0.000, 0.000, -2.600, 0.0, , , , , , 97, , , 0, 0, 0
38.2001117, -120.0383150, 2.800, 09:02:34.470, 10, 0.00, 0.10, 98, 0.000, 0.000, -35.200, 2, 100, 100, 11, 22942, -16714, 5306, 5415, 15, 14, 1526140954.470, 109, 0, 1024, 1024, 1024, 1024, 0, 6, 3797, 3838, 3835, 3837, 3824, 3808, 0, 1, 6601, -89.900, 0.000, -36.100, 0.000, 0.000, -2.600, 0.0, , , , , , 97, , , 0, 0, 0
38.2001118, -120.0383151, 3.400, 09:02:34.569, 11, 0.00, 0.11, 98, -0.700, 0.400, -35.200, 2, 100, 100, 11, 22942, -16714, 5306, 5415, 15, 14, 1526140954.569, 11, 0, 1024, 1024, 1024, 1024, 0, 6, 3797, 3838, 3835, 3837, 3824, 3808, 0, 1, 6700, -89.900, 0.000, -36.100, 0.000, 0.000, -2.900, 0.0, , , , , , 97, , , 0, 0, 0
38.2001118, -120.0383151, 3.700, 09:02:34.669, 11, 0.00, 0.11, 98, -0.500, 0.700, -35.100, 2, 100, 100, 11, 22942, -16714, 5306, 5415, 15, 14, 1526140954.670, 15, 0, 1024, 1024, 1024, 1024, 0, 6, 3797, 3838, 3835, 3837, 3824, 3808, 0, 1, 6801, -89.900, 0.000, -36.100, 0.000, 0.000, -3.000, 0.0, , , , , , 97, , , 0, 0, 0
38.2001118, -120.0383150, 4.100, 09:02:34.769, 11, 0.00, 0.10, 98, -0.100, 0.900, -34.900, 2, 100, 100, 11, 22942, -16714, 5306, 5415, 15, 14, 1526140954.769, 16, 0, 1024, 1024, 1024, 1024, 0, 6, 3797, 3838, 3835, 3837, 3824, 3808, 0, 1, 6900, -89.900, 0.000, -36.000, 0.000, 0.000, -3.200, 0.0, , , , , , 97, , , 0, 0, 0
38.2001118, -120.0383151, 4.400, 09:02:34.886, 11, 0.00, 0.11, 98, 0.000, 1.000, -34.800, 2, 100, 100, 11, 22527, -21301, 5306, 5415, 15, 14, 1526140954.887, 6, 0, 1024, 1024, 1024, 1024, 0, 6, 3797, 3838, 3835, 3837, 3824, 3808, 0, 1, 7018, -89.900, 0.000, -36.000, 0.000, 0.000, -3.200, 0.0, , , , , , 97, , , 0, 0, 0
38.2001119, -120.0383151, 4.700, 09:02:34.978, 10, 0.00, 0.11, 98, 0.100, 0.800, -34.700, 2, 100, 100, 11, 22527, -21301, 5306, 5415, 15, 14, 1526140954.978, 12, 0, 1024, 1024, 1024, 1024, 0, 6, 3705, 3774, 3752, 3735, 3711, 3728, 0, 1, 7110, -89.900, 0.000, -36.000, 0.000, 0.000, -3.300, 0.0, , , , , , 97, , , 0, 0, 0
38.2001119, -120.0383151, 5.100, 09:02:35.071, 10, 0.00, 0.11, 98, 0.100, 0.700, -34.700, 2, 100, 100, 11, 22527, -21301, 5306, 5415, 15, 14, 1526140955.072, 5, 0, 1024, 1024, 1024, 1024, 0, 6, 3705, 3774, 3752, 3735, 3711, 3728, 0, 1, 7203, -89.900, 0.000, -36.000, 0.000, 0.000, -3.300, 0.0, , , , , , 97, , , 0, 0, 0
38.2001119, -120.0383151, 5.100, 09:02:35.169, 10, 0.00, 0.11, 98, 0.100, 0.700, -34.700, 2, 100, 100, 11, 22527, -21301, 5306, 5415, 15, 14, 1526140955.169, 103, 0, 1024, 1024, 1024, 1024, 0, 6, 3705, 3774, 3752, 3735, 3711, 3728, 0, 1, 7300, -89.900, 0.000, -36.000, 0.000, 0.000, -3.300, 0.0, , , , , , 97, , , 0, 0, 0
38.2001119, -120.0383151, 5.500, 09:02:35.269, 10, 0.00, 0.11, 98, 0.000, 0.600, -34.800, 2, 100, 100, 11, 22527, -21301, 5306, 5415, 15, 14, 1526140955.269, 80, 0, 1024, 1024, 1024, 1024, 0, 6, 3705, 3774, 3752, 3735, 3711, 3728, 0, 1, 7400, -89.900, 0.000, -36.000, 0.000, 0.000, -3.300, 0.0, , , , , , 97, , , 0, 0, 0
38.2001119, -120.0383151, 5.800, 09:02:35.369, 10, 0.00, 0.11, 98, 0.000, 0.600, -34.900, 2, 100, 100, 11, 22527, -21301, 5306, 5415, 15, 14, 1526140955.369, 82, 0, 1024, 1024, 1024, 1024, 0, 6, 3705, 3774, 3752, 3735, 3711, 3728, 0, 1, 7500, -89.900, 0.000, -36.000, 0.000, 0.000, -3.200, 0.0, , , , , , 97, , , 0, 0, 0
38.2001119, -120.0383151, 6.100, 09:02:35.469, 11, 0.00, 0.11, 98, -0.100, 0.700, -34.900, 2, 100, 100, 11, 22527, -21301, 5306, 5415, 15, 14, 1526140955.469, 87, 0, 1024, 1024, 1024, 1024, 0, 6, 3705, 3774, 3752, 3735, 3711, 3728, 0, 1, 7600, -89.900, 0.000, -36.000, 0.000, 0.000, -3.200, 0.0, , , , , , 97, , , 0, 0, 0
38.2001118, -120.0383152, 6.500, 09:02:35.569, 11, 0.00, 0.12, 98, -0.100, 0.600, -35.000, 2, 100, 100, 11, 22527, -21301, 5306, 5415, 15, 14, 1526140955.569, 79, 0, 1024, 1024, 1024, 1024, 0, 6, 3705, 3774, 3752, 3735, 3711, 3728, 0, 1, 7700, -89.900, 0.000, -36.000, 0.000, 0.000, -3.200, 0.0, , , , , , 97, , , 0, 0, 0
38.2001118, -120.0383153, 6.800, 09:02:35.669, 11, 0.00, 0.13, 98, 0.200, 0.500, -35.000, 2, 100, 100, 11, 22527, -21301, 5306, 5415, 15, 14, 1526140955.669, 79, 0, 1024, 1024, 1024, 1024, 0, 6, 3705, 3774, 3752, 3735, 3711, 3728, 0, 1, 7800, -89.900, 0.000, -36.000, 0.000, 0.000, -3.200, 0.0, , , , , , 97, , , 0, 0, 0
38.2001117, -120.0383154, 7.200, 09:02:35.769, 11, 0.00, 0.13, 98, 0.700, 0.500, -34.900, 2, 100, 100, 11, 22527, -21301, 5306, 5415, 15, 14, 1526140955.769, 66, 0, 1024, 1024, 1024, 1024, 0, 6, 3705, 3774, 3752, 3735, 3711, 3728, 0, 1, 7900, -89.900, 0.000, -36.000, 0.000, 0.000, -3.100, 0.0, , , , , , 97, , , 0, 0, 0
38.2001117, -120.0383154, 7.500, 09:02:35.870, 11, 0.00, 0.14, 98, 0.900, 0.600, -34.900, 2, 100, 100, 11, 22527, -21301, 5306, 5415, 15, 14, 1526140955.870, 23, 0, 1024, 1024, 1024, 1024, 0, 6, 3705, 3774, 3752, 3735, 3711, 3728, 0, 1, 8002, -89.900, 0.000, -36.000, 0.000, 0.000, -3.100, 0.0, , , , , , 97, , , 0, 0, 0
38.2001117, -120.0383154, 7.800, 09:02:35.969, 11, 0.00, 0.14, 98, 0.800, 0.500, -34.800, 2, 100, 100, 11, 21912, -24716, 5306, 5415, 15, 14, 1526140955.969, 35, 0, 1024, 1024, 1024, 1024, 0, 6, 3638, 3699, 3699, 3693, 3669, 3651, 0, 1, 8100, -89.900, 0.000, -36.000, 0.000, 0.000, -3.100, 0.0, , , , , , 97, , , 0, 0, 0
38.2001116, -120.0383154, 8.200, 09:02:36.069, 11, 0.00, 0.14, 98, 0.600, 0.500, -34.800, 2, 100, 100, 11, 21912, -24716, 5306, 5415, 15, 14, 1526140956.070, 40, 0, 1024, 1024, 1024, 1024, 0, 6, 3638, 3699, 3699, 3693, 3669, 3651, 0, 1, 8201, -90.000, 0.000, -36.000, 0.000, 0.000, -3.100, 0.0, , , , , , 97, , , 0, 0, 0
38.2001116, -120.0383154, 8.500, 09:02:36.169, 11, 0.00, 0.13, 98, 0.300, 0.400, -34.900, 2, 100, 100, 11, 21912, -24716, 5306, 5415, 15, 14, 1526140956.169, 34, 0, 1024, 1024, 1024, 1024, 0, 6, 3638, 3699, 3699, 3693, 3669, 3651, 0, 1, 8300, -90.000, 0.000, -36.000, 0.000, 0.000, -3.100, 0.0, , , , , , 97, , , 0, 0, 0
38.2001116, -120.0383152, 9.100, 09:02:36.269, 11, 0.00, 0.12, 98, 0.100, 0.200, -34.900, 2, 100, 100, 11, 21912, -24716, 5306, 5415, 15, 14, 1526140956.269, 26, 0, 1024, 1024, 1024, 1024, 0, 6, 3638, 3699, 3699, 3693, 3669, 3651, 0, 1, 8400, -90.000, 0.000, -36.000, 0.000, 0.000, -3.000, 0.0, , , , , , 97, , , 0, 0, 0
38.2001116, -120.0383152, 9.400, 09:02:36.369, 11, 0.00, 0.12, 98, 0.000, 0.400, -34.900, 2, 100, 100, 11, 21912, -24716, 5306, 5415, 15, 14, 1526140956.369, 10, 0, 1024, 1024, 1024, 1024, 0, 6, 3638, 3699, 3699, 3693, 3669, 3651, 0, 1, 8500, -89.900, 0.000, -36.000, 0.000, 0.000, -3.000, 0.0, , , , , , 97, , , 0, 0, 0
38.2001116, -120.0383152, 9.700, 09:02:36.469, 11, 0.00, 0.12, 98, -0.200, 0.500, -34.900, 2, 100, 99, 11, 21912, -24716, 5306, 5415, 15, 14, 1526140956.469, 35, 0, 1024, 1024, 1024, 1024, 0, 6, 3638, 3699, 3699, 3693, 3669, 3651, 0, 1, 8600, -89.900, 0.000, -36.000, 0.000, 0.000, -2.900, 0.0, , , , , , 97, , , 0, 0, 0
38.2001115, -120.0383152, 10.100, 09:02:36.569, 12, 0.00, 0.12, 98, 0.000, 0.600, -35.000, 2, 100, 99, 11, 21912, -24716, 5306, 5415, 15, 14, 1526140956.569, 13, 0, 1024, 1024, 1024, 1024, 0, 6, 3638, 3699, 3699, 3693, 3669, 3651, 0, 1, 8700, -89.900, 0.000, -36.000, 0.000, 0.000, -3.000, 0.0, , , , , , 97, , , 0, 0, 0
38.2001116, -120.0383152, 10.400, 09:02:36.670, 12, 0.00, 0.12, 98, 0.100, 0.500, -35.000, 2, 100, 99, 11, 21912, -24716, 5306, 5415, 15, 14, 1526140956.670, 4, 0, 1024, 1024, 1024, 1024, 0, 6, 3638, 3699, 3699, 3693, 3669, 3651, 0, 1, 8801, -89.900, 0.000, -36.000, 0.000, 0.000, -3.000, 0.0, , , , , , 97, , , 0, 0, 0
38.2001116, -120.0383151, 10.700, 09:02:36.769, 11, 0.00, 0.11, 98, 0.200, 0.400, -35.100, 2, 100, 99, 11, 21912, -24716, 5306, 5415, 15, 14, 1526140956.770, 6, 0, 1024, 1024, 1024, 1024, 0, 6, 3638, 3699, 3699, 3693, 3669, 3651, 0, 1, 8901, -89.900, 0.000, -36.000, 0.000, 0.000, -3.000, 0.0, , , , , , 97, , , 0, 0, 0
38.2001116, -120.0383152, 11.000, 09:02:36.869, 11, 0.00, 0.12, 98, 0.100, 0.600, -35.100, 2, 100, 99, 11, 22347, -19547, 5306, 5415, 15, 14, 1526140956.869, 10, 0, 1024, 1024, 1024, 1024, 0, 6, 3638, 3699, 3699, 3693, 3669, 3651, 0, 1, 9000, -89.900, 0.000, -36.000, 0.000, 0.000, -2.900, 0.0, , , , , , 97, , , 0, 0, 0
38.2001116, -120.0383152, 11.300, 09:02:36.976, 12, 0.00, 0.12, 98, 0.100, 0.700, -35.100, 2, 100, 99, 11, 22347, -19547, 5306, 5415, 15, 14, 1526140956.976, 8, 0, 1024, 1024, 1024, 1024, 0, 6, 3698, 3751, 3756, 3744, 3733, 3720, 0, 1, 9107, -89.900, 0.000, -36.000, 0.000, 0.000, -2.900, 0.0, , , , , , 97, , , 0, 0, 0
38.2001116, -120.0383152, 11.300, 09:02:37.069, 12, 0.00, 0.12, 98, 0.100, 0.700, -35.100, 2, 100, 99, 11, 22347, -19547, 5306, 5415, 15, 14, 1526140957.069, 101, 0, 1024, 1024, 1024, 1024, 0, 6, 3698, 3751, 3756, 3744, 3733, 3720, 0, 1, 9200, -89.900, 0.000, -36.000, 0.000, 0.000, -2.900, 0.0, , , , , , 97, , , 0, 0, 0
38.2001116, -120.0383151, 11.600, 09:02:37.169, 12, 0.00, 0.11, 98, 0.100, 0.700, -35.100, 2, 100, 99, 11, 22347, -19547, 5306, 5415, 15, 14, 1526140957.169, 95, 0, 1024, 1024, 1024, 1024, 0, 6, 3698, 3751, 3756, 3744, 3733, 3720, 0, 1, 9300, -89.900, 0.000, -36.000, 0.000, 0.000, -3.000, 0.0, , , , , , 97, , , 0, 0, 0
38.2001116, -120.0383150, 11.900, 09:02:37.269, 12, 0.00, 0.11, 98, 0.000, 0.500, -35.100, 2, 100, 99, 11, 22347, -19547, 5306, 5415, 15, 14, 1526140957.269, 92, 0, 1024, 1024, 1024, 1024, 0, 6, 3698, 3751, 3756, 3744, 3733, 3720, 0, 1, 9400, -90.000, 0.000, -36.000, 0.000, 0.000, -2.900, 0.0, , , , , , 97, , , 0, 0, 0
38.2001116, -120.0383150, 12.200, 09:02:37.369, 12, 0.00, 0.10, 98, 0.000, 0.200, -35.100, 2, 100, 99, 11, 22347, -19547, 5306, 5415, 15, 14, 1526140957.370, 90, 0, 1024, 1024, 1024, 1024, 0, 6, 3698, 3751, 3756, 3744, 3733, 3720, 0, 1, 9501, -90.000, 0.000, -36.000, 0.000, 0.000, -2.900, 0.0, , , , , , 97, , , 0, 0, 0
38.2001116, -120.0383149, 12.500, 09:02:37.469, 12, 0.00, 0.10, 98, 0.000, 0.200, -35.100, 2, 100, 99, 11, 22347, -19547, 5306, 5415, 15, 14, 1526140957.469, 85, 0, 1024, 1024, 1024, 1024, 0, 6, 3698, 3751, 3756, 3744, 3733, 3720, 0, 1, 9600, -90.000, 0.000, -36.000, 0.000, 0.000, -2.900, 0.0, , , , , , 97, , , 0, 0, 0
38.2001116, -120.0383149, 12.800, 09:02:37.569, 12, 0.00, 0.10, 98, -0.100, 0.300, -35.000, 2, 100, 99, 11, 22347, -19547, 5306, 5415, 15, 14, 1526140957.569, 84, 0, 1024, 1024, 1024, 1024, 0, 6, 3698, 3751, 3756, 3744, 3733, 3720, 0, 1, 9700, -89.900, 0.000, -36.000, 0.000, 0.000, -2.900, 0.0, , , , , , 97, , , 0, 0, 0
38.2001116, -120.0383149, 13.100, 09:02:37.669, 12, 0.00, 0.09, 98, 0.000, 0.500, -34.900, 2, 100, 99, 11, 22347, -19547, 5306, 5415, 15, 14, 1526140957.669, 89, 0, 1024, 1024, 1024, 1024, 0, 6, 3698, 3751, 3756, 3744, 3733, 3720, 0, 1, 9800, -89.900, 0.000, -36.000, 0.000, 0.000, -2.900, 0.0, , , , , , 97, , , 0, 0, 0
38.2001116, -120.0383149, 13.400, 09:02:37.769, 12, 0.00, 0.09, 98, 0.100, 0.700, -34.900, 2, 100, 99, 11, 22347, -19547, 5306, 5415, 15, 14, 1526140957.769, 61, 0, 1024, 1024, 1024, 1024, 0, 6, 3698, 3751, 3756, 3744, 3733, 3720, 0, 1, 9900, -89.900, 0.000, -36.000, 0.000, 0.000, -2.900, 0.0, , , , , , 97, , , 0, 0, 0
38.2001117, -120.0383148, 13.700, 09:02:37.869, 12, 0.00, 0.09, 98, 0.100, 0.700, -34.900, 2, 100, 99, 11, 22347, -19547, 5306, 5415, 15, 14, 1526140957.869, 76, 0, 1024, 1024, 1024, 1024, 0, 6, 3698, 3751, 3756, 3744, 3733, 3720, 0, 1, 10000, -89.900, 0.000, -36.000, 0.000, 0.000, -2.900, 0.0, , , , , , 97, , , 0, 0, 0
38.2001117, -120.0383148, 14.000, 09:02:37.969, 12, 0.00, 0.08, 98, 0.000, 0.600, -35.000, 2, 100, 99, 11, 22455, -19020, 5306, 5415, 15, 14, 1526140957.969, 37, 0, 1024, 1024, 1024, 1024, 0, 6, 3698, 3751, 3756, 3744, 3733, 3720, 0, 1, 10100, -89.900, 0.000, -36.000, 0.000, 0.000, -2.900, 0.0, , , , , , 97, , , 0, 0, 0
38.2001118, -120.0383148, 14.300, 09:02:38.069, 12, 0.00, 0.08, 98, 0.000, 0.800, -35.000, 2, 100, 100, 11, 22455, -19020, 5306, 5415, 15, 14, 1526140958.069, 56, 0, 1024, 1024, 1024, 1024, 0, 6, 3698, 3751, 3756, 3744, 3733, 3720, 0, 1, 10200, -89.900, 0.000, -36.000, 0.000, 0.000, -2.800, 0.0, , , , , , 97, , , 0, 0, 0
38.2001118, -120.0383148, 14.600, 09:02:38.169, 12, 0.00, 0.08, 98, -0.100, 0.900, -35.000, 2, 100, 100, 11, 22455, -19020, 5306, 5415, 15, 14, 1526140958.169, 25, 0, 1024, 1024, 1024, 1024, 0, 6, 3698, 3751, 3756, 3744, 3733, 3720, 0, 1, 10301, -89.900, 0.000, -36.000, 0.000, 0.000, -2.800, 0.0, , , , , , 97, , , 0, 0, 0
38.2001118, -120.0383147, 14.900, 09:02:38.269, 12, 0.00, 0.08, 98, -0.100, 0.800, -35.000, 2, 100, 100, 11, 22455, -19020, 5306, 5415, 15, 14, 1526140958.269, 53, 0, 1024, 1024, 1024, 1024, 0, 6, 3698, 3751, 3756, 3744, 3733, 3720, 0, 1, 10400, -89.900, 0.000, -36.000, 0.000, 0.000, -2.900, 0.0, , , , , , 97, , , 0, 0, 0
38.2001119, -120.0383147, 15.200, 09:02:38.369, 12, 0.00, 0.07, 98, -0.100, 0.800, -35.000, 2, 100, 100, 11, 22455, -19020, 5306, 5415, 15, 14, 1526140958.369, 45, 0, 1024, 1024, 1024, 1024, 0, 6, 3698, 3751, 3756, 3744, 3733, 3720, 0, 1, 10500, -89.900, 0.000, -36.000, 0.000, 0.000, -2.900, 0.0, , , , , , 97, , , 0, 0, 0
38.2001119, -120.0383146, 15.500, 09:02:38.469, 12, 0.00, 0.07, 98, -0.300, 0.800, -34.900, 2, 100, 100, 11, 22455, -19020, 5306, 5415, 15, 14, 1526140958.469, 38, 0, 1024, 1024, 1024, 1024, 0, 6, 3707, 3753, 3756, 3746, 3737, 3722, 0, 1, 10600, -89.900, 0.000, -36.000, 0.000, 0.000, -2.800, 0.0, , , , , , 97, , , 0, 0, 0
38.2001118, -120.0383146, 15.800, 09:02:38.569, 12, 0.00, 0.07, 98, -0.600, 0.700, -34.800, 2, 100, 100, 11, 22455, -19020, 5306, 5415, 15, 14, 1526140958.569, 52, 0, 1024, 1024, 1024, 1024, 0, 6, 3707, 3753, 3756, 3746, 3737, 3722, 0, 1, 10700, -90.000, 0.000, -36.000, 0.000, 0.000, -2.900, 0.0, , , , , , 97, , , 0, 0, 0
38.2001118, -120.0383146, 16.100, 09:02:38.669, 12, 0.00, 0.06, 98, -0.400, 0.600, -34.700, 2, 100, 100, 11, 22455, -19020, 5306, 5415, 15, 14, 1526140958.669, 54, 0, 1024, 1024, 1024, 1024, 0, 6, 3707, 3753, 3756, 3746, 3737, 3722, 0, 1, 10800, -90.000, 0.000, -36.000, 0.000, 0.000, -2.900, 0.0, , , , , , 97, , , 0, 0, 0
38.2001118, -120.0383146, 16.400, 09:02:38.769, 12, 0.00, 0.07, 98, -0.100, 0.500, -34.700, 2, 100, 100, 11, 22455, -19020, 5306, 5415, 15, 14, 1526140958.769, 47, 0, 1024, 1024, 1024, 1024, 0, 6, 3707, 3753, 3756, 3746, 3737, 3722, 0, 1, 10900, -89.900, 0.000, -36.000, 0.000, 0.000, -2.900, 0.0, , , , , , 97, , , 0, 0, 0
38.2001118, -120.0383147, 16.700, 09:02:38.869, 12, 0.00, 0.07, 98, -0.100, 0.700, -34.700, 2, 100, 100, 11, 22455, -19020, 5306, 5415, 15, 14, 1526140958.869, 37, 0, 1024, 1024, 1024, 1024, 0, 6, 3707, 3753, 3756, 3746, 3737, 3722, 0, 1, 11000, -89.900, 0.000, -36.000, 0.000, 0.000, -2.900, 0.0, , , , , , 97, , , 0, 0, 0
38.2001118, -120.0383147, 17.300, 09:02:38.969, 12, 0.00, 0.08, 98, 0.100, 0.800, -34.800, 2, 100, 100, 11, 22455, -19020, 5306, 5415, 15, 14, 1526140958.969, 16, 0, 1024, 1024, 1024, 1024, 0, 6, 3707, 3753, 3756, 3746, 3737, 3722, 0, 1, 11100, -89.900, 0.000, -36.000, 0.000, 0.000, -2.900, 0.0, , , , , , 97, , , 0, 0, 0
38.2001118, -120.0383147, 17.600, 09:02:39.069, 12, 0.00, 0.08, 98, 0.300, 0.800, -34.800, 2, 100, 100, 11, 22455, -19020, 5306, 5415, 15, 14, 1526140959.069, 37, 0, 1024, 1024, 1024, 1024, 0, 6, 3707, 3753, 3756, 3746, 3737, 3722, 0, 1, 11200, -89.900, 0.000, -36.000, 0.000, 0.000, -2.800, 0.0, , , , , , 97, , , 0, 0, 0
38.2001118, -120.0383147, 17.900, 09:02:39.169, 12, 0.00, 0.08, 98, 0.600, 0.800, -34.900, 2, 100, 100, 11, 22455, -19020, 5306, 5415, 15, 14, 1526140959.170, 17, 0, 1024, 1024, 1024, 1024, 0, 6, 3707, 3753, 3756, 3746, 3737, 3722, 0, 1, 11301, -89.900, 0.000, -36.000, 0.000, 0.000, -2.900, 0.0, , , , , , 97, , , 0, 0, 0
38.2001117, -120.0383147, 18.200, 09:02:39.269, 12, 0.00, 0.08, 98, 0.600, 0.800, -34.900, 2, 100, 100, 11, 22455, -19020, 5306, 5415, 15, 14, 1526140959.270, 27, 0, 1024, 1024, 1024, 1024, 0, 6, 3707, 3753, 3756, 3746, 3737, 3722, 0, 1, 11401, -89.900, 0.000, -36.000, 0.000, 0.000, -2.900, 0.0, , , , , , 97, , , 0, 0, 0
38.2001117, -120.0383147, 18.500, 09:02:39.369, 12, 0.00, 0.08, 98, 0.500, 0.500, -34.900, 2, 100, 100, 11, 22455, -19020, 5306, 5415, 15, 14, 1526140959.369, 11, 0, 1024, 1024, 1024, 1024, 0, 6, 3707, 3753, 3756, 3746, 3737, 3722, 0, 1, 11500, -90.000, 0.000, -36.000, 0.000, 0.000, -2.900, 0.0, , , , , , 97, , , 0, 0, 0
38.2001117, -120.0383147, 18.800, 09:02:39.478, 12, 0.00, 0.08, 98, 0.200, 0.400, -34.900, 2, 100, 100, 11, 22391, -19266, 5252, 5415, 15, 14, 1526140959.479, 10, 0, 1024, 1024, 1024, 1024, 0, 6, 3707, 3753, 3756, 3746, 3737, 3722, 0, 1, 11610, -90.000, 0.000, -36.000, 0.000, 0.000, -2.900, 0.0, , , , , , 97, , , 0, 0, 0
38.2001116, -120.0383147, 19.100, 09:02:39.570, 12, 0.00, 0.08, 98, 0.100, 0.200, -34.900, 2, 100, 100, 11, 22391, -19266, 5252, 5415, 15, 14, 1526140959.570, 4, 0, 1024, 1024, 1024, 1024, 0, 6, 3702, 3746, 3742, 3735, 3722, 3716, 0, 1, 11701, -90.000, 0.000, -36.000, 0.000, 0.000, -2.900, 0.0, , , , , , 97, , , 0, 0, 0
38.2001116, -120.0383147, 19.400, 09:02:39.669, 12, 0.00, 0.08, 98, 0.400, 0.100, -35.000, 2, 100, 100, 11, 22391, -19266, 5252, 5415, 15, 14, 1526140959.669, 7, 0, 1024, 1024, 1024, 1024, 0, 6, 3702, 3746, 3742, 3735, 3722, 3716, 0, 1, 11800, -90.000, 0.000, -36.000, 0.000, 0.000, -2.900, 0.0, , , , , , 97, , , 0, 0, 0
38.2001116, -120.0383147, 19.400, 09:02:39.769, 12, 0.00, 0.08, 98, 0.400, 0.100, -35.000, 2, 100, 100, 11, 22391, -19266, 5252, 5415, 15, 14, 1526140959.769, 107, 0, 1024, 1024, 1024, 1024, 0, 6, 3702, 3746, 3742, 3735, 3722, 3716, 0, 1, 11900, -90.000, 0.000, -36.000, 0.000, 0.000, -2.900, 0.0, , , , , , 97, , , 0, 0, 0
38.2001116, -120.0383148, 19.700, 09:02:39.869, 12, 0.00, 0.08, 98, 0.700, 0.300, -35.200, 2, 100, 100, 11, 22391, -19266, 5252, 5415, 15, 14, 1526140959.869, 68, 0, 1024, 1024, 1024, 1024, 0, 6, 3702, 3746, 3742, 3735, 3722, 3716, 0, 1, 12000, -89.900, 0.000, -36.000, 0.000, 0.000, -2.900, 0.0, , , , , , 97, , , 0, 0, 0
38.2001116, -120.0383148, 20.000, 09:02:39.969, 12, 0.00, 0.08, 98, 0.800, 0.500, -35.300, 2, 100, 100, 11, 22391, -19266, 5252, 5415, 15, 14, 1526140959.969, 66, 0, 1024, 1024, 1024, 1024, 0, 6, 3702, 3746, 3742, 3735, 3722, 3716, 0, 1, 12100, -89.900, 0.000, -36.000, 0.000, 0.000, -2.900, 0.0, , , , , , 97, , , 0, 0, 0
38.2001116, -120.0383148, 20.300, 09:02:40.069, 12, 0.00, 0.08, 98, 0.600, 0.500, -35.300, 2, 100, 100, 11, 22391, -19266, 5252, 5415, 15, 14, 1526140960.070, 61, 0, 1024, 1024, 1024, 1024, 0, 6, 3702, 3746, 3742, 3735, 3722, 3716, 0, 1, 12201, -89.900, 0.000, -36.000, 0.000, 0.000, -2.900, 0.0, , , , , , 97, , , 0, 0, 0
38.2001116, -120.0383148, 20.600, 09:02:40.169, 12, 0.00, 0.09, 98, 0.300, 0.600, -35.300, 2, 100, 100, 11, 22391, -19266, 5252, 5415, 15, 14, 1526140960.169, 82, 0, 1024, 1024, 1024, 1024, 0, 6, 3702, 3746, 3742, 3735, 3722, 3716, 0, 1, 12300, -89.900, 0.000, -36.000, 0.000, 0.000, -2.900, 0.0, , , , , , 97, , , 0, 0, 0
38.2001116, -120.0383148, 20.900, 09:02:40.269, 12, 0.00, 0.09, 98, 0.100, 0.700, -35.300, 2, 100, 100, 11, 22391, -19266, 5252, 5415, 15, 14, 1526140960.269, 76, 0, 1024, 1024, 1024, 1024, 0, 6, 3702, 3746, 3742, 3735, 3722, 3716, 0, 1, 12400, -89.900, 0.000, -36.000, 0.000, 0.000, -2.900, 0.0, , , , , , 97, , , 0, 0, 0
38.2001116, -120.0383148, 21.200, 09:02:40.369, 12, 0.00, 0.08, 98, 0.300, 0.600, -35.300, 2, 100, 100, 11, 22391, -19266, 5252, 5415, 15, 14, 1526140960.369, 64, 0, 1024, 1024, 1024, 1024, 0, 6, 3702, 3746, 3742, 3735, 3722, 3716, 0, 1, 12500, -90.000, 0.000, -36.000, 0.000, 0.000, -2.900, 0.0, , , , , , 97, , , 0, 0, 0
38.2001116, -120.0383147, 21.500, 09:02:40.469, 12, 0.00, 0.08, 97, 0.300, 0.500, -35.300, 2, 100, 100, 12, 22304, -19706, 5252, 5415, 15, 14, 1526140960.469, 65, 0, 1024, 1024, 1024, 1024, 0, 6, 3682, 3736, 3730, 3736, 3717, 3697, 0, 1, 12600, -90.000, 0.000, -36.000, 0.000, 0.000, -3.000, 0.0, , , , , , 97, , , 0, 0, 0
38.2001116, -120.0383147, 21.800, 09:02:40.569, 12, 0.00, 0.07, 97, 0.200, 0.300, -35.300, 2, 100, 100, 12, 22304, -19706, 5252, 5415, 15, 14, 1526140960.569, 71, 0, 1024, 1024, 1024, 1024, 0, 6, 3682, 3736, 3730, 3736, 3717, 3697, 0, 1, 12700, -90.000, 0.000, -36.000, 0.000, 0.000, -3.000, 0.0, , , , , , 97, , , 0, 0, 0
38.2001116, -120.0383146, 22.100, 09:02:40.669, 12, 0.00, 0.07, 97, 0.100, 0.300, -35.300, 2, 100, 100, 12, 22304, -19706, 5252, 5415, 15, 14, 1526140960.670, 73, 0, 1024, 1024, 1024, 1024, 0, 6, 3682, 3736, 3730, 3736, 3717, 3697, 0, 1, 12801, -90.000, 0.000, -36.000, 0.000, 0.000, -2.900, 0.0, , , , , , 97, , , 0, 0, 0
38.2001116, -120.0383147, 22.400, 09:02:40.769, 12, 0.00, 0.07, 97, 0.100, 0.300, -35.200, 2, 100, 100, 12, 22304, -19706, 5252, 5415, 15, 14, 1526140960.769, 66, 0, 1024, 1024, 1024, 1024, 0, 6, 3682, 3736, 3730, 3736, 3717, 3697, 0, 1, 12900, -89.900, 0.000, -36.000, 0.000, 0.000, -2.900, 0.0, , , , , , 97, , , 0, 0, 0
38.2001116, -120.0383147, 22.700, 09:02:40.869, 12, 0.00, 0.07, 97, 0.100, 0.400, -35.000, 2, 100, 100, 12, 22304, -19706, 5252, 5415, 15, 14, 1526140960.869, 34, 0, 1024, 1024, 1024, 1024, 0, 6, 3682, 3736, 3730, 3736, 3717, 3697, 0, 1, 13000, -89.900, 0.000, -36.000, 0.000, 0.000, -2.900, 0.0, , , , , , 97, , , 0, 0, 0
38.2001116, -120.0383146, 23.000, 09:02:40.969, 12, 0.00, 0.07, 97, 0.100, 0.500, -34.900, 2, 100, 100, 12, 22304, -19706, 5252, 5415, 15, 14, 1526140960.969, 21, 0, 1024, 1024, 1024, 1024, 0, 6, 3682, 3736, 3730, 3736, 3717, 3697, 0, 1, 13100, -89.900, 0.000, -36.000, 0.000, 0.000, -2.900, 0.0, , , , , , 97, , , 0, 0, 0
38.2001116, -120.0383146, 23.300, 09:02:41.069, 12, 0.00, 0.07, 97, 0.000, 0.600, -34.800, 2, 100, 100, 12, 22304, -19706, 5252, 5415, 15, 14, 1526140961.069, 41, 0, 1024, 1024, 1024, 1024, 0, 6, 3682, 3736, 3730, 3736, 3717, 3697, 0, 1, 13200, -89.900, 0.000, -36.000, 0.000, 0.000, -2.900, 0.0, , , , , , 97, , , 0, 0, 0
38.2001117, -120.0383147, 23.600, 09:02:41.169, 12, 0.00, 0.07, 97, 0.100, 0.700, -34.800, 2, 100, 100, 12, 22304, -19706, 5252, 5415, 15, 14, 1526140961.170, 29, 0, 1024, 1024, 1024, 1024, 0, 6, 3682, 3736, 3730, 3736, 3717, 3697, 0, 1, 13301, -89.900, 0.000, -36.000, 0.000, 0.000, -2.900, 0.0, , , , , , 97, , , 0, 0, 0
38.2001117, -120.0383147, 24.200, 09:02:41.269, 12, 0.00, 0.08, 97, 0.200, 0.600, -34.900, 2, 100, 100, 12, 22304, -19706, 5252, 5415, 15, 14, 1526140961.270, 38, 0, 1024, 1024, 1024, 1024, 0, 6, 3682, 3736, 3730, 3736, 3717, 3697, 0, 1, 13401, -89.900, 0.000, -36.000, 0.000, 0.000, -3.000, 0.0, , , , , , 97, , , 0, 0, 0
38.2001117, -120.0383148, 24.500, 09:02:41.369, 12, 0.00, 0.08, 97, 0.300, 0.600, -34.900, 2, 100, 100, 12, 22304, -19706, 5252, 5415, 15, 14, 1526140961.370, 30, 0, 1024, 1024, 1024, 1024, 0, 6, 3682, 3736, 3730, 3736, 3717, 3697, 0, 1, 13501, -89.900, 0.000, -36.000, 0.000, 0.000, -2.900, 0.0, , , , , , 97, , , 0, 0, 0
38.2001117, -120.0383148, 24.800, 09:02:41.469, 12, 0.00, 0.08, 97, 0.600, 0.600, -35.000, 2, 100, 99, 12, 22266, -19648, 5252, 5415, 15, 14, 1526140961.469, 26, 0, 1024, 1024, 1024, 1024, 0, 6, 3675, 3737, 3718, 3720, 3708, 3700, 0, 1, 13600, -89.900, 0.000, -36.000, 0.000, 0.000, -3.000, 0.0, , , , , , 97, , , 0, 0, 0
38.2001117, -120.0383148, 24.800, 09:02:41.571, 12, 0.00, 0.08, 97, 0.600, 0.600, -35.000, 2, 100, 99, 12, 22266, -19648, 5252, 5415, 15, 14, 1526140961.572, 129, 0, 1024, 1024, 1024, 1024, 0, 6, 3675, 3737, 3718, 3720, 3708, 3700, 0, 1, 13703, -89.900, 0.000, -36.000, 0.000, 0.000, -3.000, 0.0, , , , , , 97, , , 0, 0, 0
38.2001117, -120.0383148, 25.300, 09:02:41.673, 12, 0.00, 0.08, 97, 0.500, 0.700, -35.000, 2, 100, 99, 12, 22266, -19648, 5252, 5415, 15, 14, 1526140961.673, 9, 0, 1024, 1024, 1024, 1024, 0, 6, 3675, 3737, 3718, 3720, 3708, 3700, 0, 1, 13804, -89.900, 0.000, -36.000, 0.000, 0.000, -2.900, 0.0, , , , , , 97, , , 0, 0, 0
38.2001117, -120.0383148, 25.600, 09:02:41.769, 12, 0.00, 0.08, 97, 0.400, 0.600, -35.000, 2, 100, 99, 12, 22266, -19648, 5252, 5415, 15, 14, 1526140961.770, 16, 0, 1024, 1024, 1024, 1024, 0, 6, 3675, 3737, 3718, 3720, 3708, 3700, 0, 1, 13902, -89.900, 0.000, -36.000, 0.000, 0.000, -2.900, 0.0, , , , , , 97, , , 0, 0, 0
38.2001118, -120.0383147, 25.900, 09:02:41.870, 12, 0.00, 0.08, 97, 0.400, 0.500, -35.000, 2, 100, 99, 12, 22266, -19648, 5252, 5415, 15, 14, 1526140961.872, 10, 0, 1024, 1024, 1024, 1024, 0, 6, 3675, 3737, 3718, 3720, 3708, 3700, 0, 1, 14003, -90.000, 0.000, -36.000, 0.000, 0.000, -2.900, 0.0, , , , , , 97, , , 0, 0, 0
38.2001118, -120.0383147, 26.200, 09:02:41.976, 12, 0.00, 0.07, 97, 0.200, 0.400, -35.000, 2, 100, 99, 12, 22266, -19648, 5252, 5415, 15, 14, 1526140961.976, 5, 0, 1024, 1024, 1024, 1024, 0, 6, 3675, 3737, 3718, 3720, 3708, 3700, 0, 1, 14107, -90.000, 0.000, -36.000, 0.000, 0.000, -2.900, 0.0, , , , , , 97, , , 0, 0, 0
38.2001118, -120.0383147, 26.200, 09:02:42.069, 12, 0.00, 0.07, 97, 0.200, 0.400, -35.000, 2, 100, 99, 12, 22266, -19648, 5252, 5415, 15, 14, 1526140962.070, 99, 0, 1024, 1024, 1024, 1024, 0, 6, 3675, 3737, 3718, 3720, 3708, 3700, 0, 1, 14201, -90.000, 0.000, -36.000, 0.000, 0.000, -2.900, 0.0, , , , , , 97, , , 0, 0, 0
38.2001118, -120.0383147, 26.500, 09:02:42.169, 12, 0.00, 0.07, 97, 0.000, 0.500, -34.900, 2, 100, 99, 12, 22266, -19648, 5252, 5415, 15, 14, 1526140962.170, 79, 0, 1024, 1024, 1024, 1024, 0, 6, 3675, 3737, 3718, 3720, 3708, 3700, 0, 1, 14301, -89.900, 0.000, -36.000, 0.000, 0.000, -2.900, 0.0, , , , , , 97, , , 0, 0, 0
38.2001118, -120.0383147, 26.800, 09:02:42.271, 12, 0.00, 0.07, 97, -0.100, 0.400, -35.000, 2, 100, 99, 12, 22266, -19648, 5252, 5415, 15, 14, 1526140962.273, 100, 0, 1024, 1024, 1024, 1024, 0, 6, 3675, 3737, 3718, 3720, 3708, 3700, 0, 1, 14404, -90.000, 0.000, -36.000, 0.000, 0.000, -2.900, 0.0, , , , , , 97, , , 0, 0, 0
38.2001119, -120.0383146, 27.100, 09:02:42.369, 12, 0.00, 0.07, 97, -0.100, 0.300, -35.000, 2, 100, 99, 12, 22266, -19648, 5252, 5415, 15, 14, 1526140962.371, 67, 0, 1024, 1024, 1024, 1024, 0, 6, 3675, 3737, 3718, 3720, 3708, 3700, 0, 1, 14502, -90.000, 0.000, -36.000, 0.000, 0.000, -3.000, 0.0, , , , , , 97, , , 0, 0, 0
38.2001119, -120.0383146, 27.400, 09:02:42.470, 12, 0.00, 0.06, 97, -0.100, 0.200, -35.100, 2, 100, 99, 12, 22248, -19554, 5252, 5415, 15, 14, 1526140962.472, 75, 0, 1024, 1024, 1024, 1024, 0, 6, 3661, 3725, 3710, 3715, 3697, 3683, 0, 1, 14603, -90.000, 0.000, -36.000, 0.000, 0.000, -3.000, 0.0, , , , , , 97, , , 0, 0, 0
38.2001119, -120.0383145, 27.700, 09:02:42.570, 12, 0.00, 0.06, 97, -0.100, 0.200, -35.100, 2, 100, 99, 12, 22248, -19554, 5252, 5415, 15, 14, 1526140962.571, 61, 0, 1024, 1024, 1024, 1024, 0, 6, 3661, 3725, 3710, 3715, 3697, 3683, 0, 1, 14702, -90.000, 0.000, -36.000, 0.000, 0.000, -3.000, 0.0, , , , , , 97, , , 0, 0, 0
38.2001119, -120.0383145, 28.000, 09:02:42.669, 12, 0.00, 0.06, 97, -0.100, 0.200, -35.100, 2, 100, 99, 12, 22248, -19554, 5252, 5415, 15, 14, 1526140962.670, 62, 0, 1024, 1024, 1024, 1024, 0, 6, 3661, 3725, 3710, 3715, 3697, 3683, 0, 1, 14801, -89.900, 0.000, -36.000, 0.000, 0.000, -3.000, 0.0, , , , , , 97, , , 0, 0, 0
38.2001120, -120.0383145, 28.300, 09:02:42.770, 12, 0.00, 0.06, 97, -0.100, 0.200, -35.100, 2, 100, 99, 12, 22248, -19554, 5252, 5415, 15, 14, 1526140962.770, 68, 0, 1024, 1024, 1024, 1024, 0, 6, 3661, 3725, 3710, 3715, 3697, 3683, 0, 1, 14901, -89.900, 0.000, -36.000, 0.000, 0.000, -3.000, 0.0, , , , , , 97, , , 0, 0, 0
38.2001120, -120.0383144, 28.600, 09:02:42.869, 12, 0.00, 0.06, 97, -0.200, 0.200, -35.100, 2, 100, 99, 12, 22248, -19554, 5252, 5415, 15, 14, 1526140962.870, 80, 0, 1024, 1024, 1024, 1024, 0, 6, 3661, 3725, 3710, 3715, 3697, 3683, 0, 1, 15001, -90.000, 0.000, -36.000, 0.000, 0.000, -3.000, 0.0, , , , , , 97, , , 0, 0, 0
38.2001120, -120.0383144, 28.900, 09:02:42.969, 12, 0.00, 0.05, 97, -0.200, 0.200, -35.000, 2, 100, 99, 12, 22248, -19554, 5252, 5415, 15, 14, 1526140962.970, 60, 0, 1024, 1024, 1024, 1024, 0, 6, 3661, 3725, 3710, 3715, 3697, 3683, 0, 1, 15101, -90.000, 0.000, -36.000, 0.000, 0.000, -3.000, 0.0, , , , , , 97, , , 0, 0, 0
38.2001120, -120.0383144, 29.200, 09:02:43.070, 12, 0.00, 0.05, 97, -0.200, 0.200, -35.000, 2, 100, 100, 12, 22248, -19554, 5252, 5415, 15, 14, 1526140963.070, 76, 0, 1024, 1024, 1024, 1024, 0, 6, 3661, 3725, 3710, 3715, 3697, 3683, 0, 1, 15201, -90.000, 0.000, -36.000, 0.000, 0.000, -2.900, 0.0, , , , , , 97, , , 0, 0, 0
38.2001120, -120.0383143, 29.500, 09:02:43.169, 12, 0.00, 0.05, 97, -0.200, 0.100, -35.000, 2, 100, 100, 12, 22248, -19554, 5252, 5415, 15, 14, 1526140963.169, 29, 0, 1024, 1024, 1024, 1024, 0, 6, 3661, 3725, 3710, 3715, 3697, 3683, 0, 1, 15300, -90.000, 0.000, -36.000, 0.000, 0.000, -2.900, 0.0, , , , , , 97, , , 0, 0, 0
38.2001121, -120.0383143, 29.800, 09:02:43.268, 12, 0.00, 0.05, 97, -0.300, 0.100, -35.000, 2, 100, 100, 12, 22248, -19554, 5252, 5415, 15, 14, 1526140963.269, 57, 0, 1024, 1024, 1024, 1024, 0, 6, 3661, 3725, 3710, 3715, 3697, 3683, 0, 1, 15400, -89.900, 0.000, -36.000, 0.000, 0.000, -2.900, 0.0, , , , , , 97, , , 0, 0, 0
38.2001121, -120.0383143, 30.100, 09:02:43.369, 12, 0.00, 0.05, 97, -0.200, 0.200, -35.000, 2, 100, 100, 12, 22248, -19554, 5252, 5415, 15, 14, 1526140963.369, 54, 0, 1024, 1024, 1024, 1024, 0, 6, 3661, 3725, 3710, 3715, 3697, 3683, 0, 1, 15500, -89.900, 0.000, -36.000, 0.000, 0.000, -2.900, 0.0, , , , , , 97, , , 0, 0, 0
38.2001121, -120.0383143, 30.400, 09:02:43.469, 12, 0.00, 0.06, 97, -0.200, 0.300, -35.000, 2, 100, 99, 12, 22204, -19499, 5252, 5415, 15, 14, 1526140963.469, 59, 0, 1024, 1024, 1024, 1024, 0, 6, 3661, 3725, 3710, 3715, 3697, 3683, 0, 1, 15600, -89.900, 0.000, -36.000, 0.000, 0.000, -2.900, 0.0, , , , , , 97, , , 0, 0, 0
38.2001122, -120.0383143, 30.700, 09:02:43.569, 12, 0.00, 0.06, 97, -0.100, 0.400, -34.900, 2, 100, 99, 12, 22204, -19499, 5252, 5415, 15, 14, 1526140963.569, 52, 0, 1024, 1024, 1024, 1024, 0, 6, 3661, 3725, 3710, 3715, 3697, 3683, 0, 1, 15700, -89.900, 0.000, -36.000, 0.000, 0.000, -2.900, 0.0, , , , , , 97, , , 0, 0, 0
38.2001122, -120.0383144, 31.000, 09:02:43.669, 12, 0.00, 0.07, 97, 0.000, 0.600, -34.900, 2, 100, 99, 12, 22204, -19499, 5252, 5415, 15, 14, 1526140963.669, 55, 0, 1024, 1024, 1024, 1024, 0, 6, 3661, 3725, 3710, 3715, 3697, 3683, 0, 1, 15800, -89.900, 0.000, -36.000, 0.000, 0.000, -2.900, 0.0, , , , , , 97, , , 0, 0, 0
38.2001122, -120.0383144, 31.300, 09:02:43.769, 12, 0.00, 0.07, 97, 0.100, 0.700, -34.900, 2, 100, 99, 12, 22204, -19499, 5252, 5415, 15, 14, 1526140963.770, 25, 0, 1024, 1024, 1024, 1024, 0, 6, 3661, 3725, 3710, 3715, 3697, 3683, 0, 1, 15901, -89.900, 0.000, -36.000, 0.000, 0.000, -3.000, 0.0, , , , , , 97, , , 0, 0, 0
38.2001123, -120.0383144, 31.800, 09:02:43.869, 12, 0.00, 0.07, 97, 0.100, 0.600, -34.900, 2, 100, 99, 12, 22204, -19499, 5252, 5415, 15, 14, 1526140963.869, 31, 0, 1024, 1024, 1024, 1024, 0, 6, 3661, 3725, 3710, 3715, 3697, 3683, 0, 1, 16000, -89.900, 0.000, -36.000, 0.000, 0.000, -2.900, 0.0, , , , , , 97, , , 0, 0, 0
38.2001123, -120.0383144, 32.100, 09:02:43.969, 12, 0.00, 0.08, 97, 0.000, 0.500, -34.900, 2, 100, 99, 12, 22204, -19499, 5252, 5415, 15, 14, 1526140963.969, 40, 0, 1024, 1024, 1024, 1024, 0, 6, 3671, 3727, 3718, 3717, 3702, 3676, 0, 1, 16100, -89.900, 0.000, -36.000, 0.000, 0.000, -3.000, 0.0, , , , , , 97, , , 0, 0, 0
38.2001123, -120.0383144, 32.400, 09:02:44.068, 12, 0.00, 0.08, 97, 0.000, 0.600, -35.000, 2, 100, 99, 12, 22204, -19499, 5252, 5415, 15, 14, 1526140964.069, 40, 0, 1024, 1024, 1024, 1024, 0, 6, 3671, 3727, 3718, 3717, 3702, 3676, 0, 1, 16200, -89.900, 0.000, -36.000, 0.000, 0.000, -3.000, 0.0, , , , , , 97, , , 0, 0, 0
38.2001123, -120.0383144, 32.700, 09:02:44.176, 12, 0.00, 0.08, 97, 0.000, 0.500, -35.000, 2, 100, 99, 12, 22204, -19499, 5252, 5415, 15, 14, 1526140964.176, 11, 0, 1024, 1024, 1024, 1024, 0, 6, 3671, 3727, 3718, 3717, 3702, 3676, 0, 1, 16307, -89.900, 0.000, -36.000, 0.000, 0.000, -2.900, 0.0, , , , , , 97, , , 0, 0, 0
38.2001123, -120.0383144, 33.000, 09:02:44.269, 12, 0.00, 0.08, 97, -0.100, 0.500, -35.000, 2, 100, 99, 12, 22204, -19499, 5252, 5415, 15, 14, 1526140964.269, 15, 0, 1024, 1024, 1024, 1024, 0, 6, 3671, 3727, 3718, 3717, 3702, 3676, 0, 1, 16400, -89.900, 0.000, -36.000, 0.000, 0.000, -3.000, 0.0, , , , , , 97, , , 0, 0, 0
38.2001124, -120.0383144, 33.300, 09:02:44.369, 12, 0.00, 0.08, 97, -0.200, 0.600, -35.100, 2, 100, 99, 12, 22204, -19499, 5252, 5415, 15, 14, 1526140964.370, 24, 0, 1024, 1024, 1024, 1024, 0, 6, 3671, 3727, 3718, 3717, 3702, 3676, 0, 1, 16501, -89.900, 0.000, -36.000, 0.000, 0.000, -3.000, 0.0, , , , , , 97, , , 0, 0, 0
38.2001124, -120.0383144, 33.600, 09:02:44.469, 12, 0.00, 0.08, 97, -0.200, 0.600, -35.100, 2, 100, 98, 12, 22204, -19499, 5252, 5415, 15, 14, 1526140964.470, 25, 0, 1024, 1024, 1024, 1024, 0, 6, 3671, 3727, 3718, 3717, 3702, 3676, 0, 1, 16601, -89.900, 0.000, -36.000, 0.000, 0.000, -3.000, 0.0, , , , , , 97, , , 0, 0, 0
38.2001125, -120.0383143, 33.900, 09:02:44.570, 12, 0.00, 0.09, 97, -0.300, 0.600, -35.100, 2, 100, 98, 12, 22204, -19499, 5252, 5415, 15, 14, 1526140964.571, 4, 0, 1024, 1024, 1024, 1024, 0, 6, 3671, 3727, 3718, 3717, 3702, 3676, 0, 1, 16702, -89.900, 0.000, -36.000, 0.000, 0.000, -3.000, 0.0, , , , , , 97, , , 0, 0, 0
38.2001125, -120.0383143, 34.200, 09:02:44.669, 12, 0.00, 0.09, 97, -0.400, 0.500, -35.100, 2, 100, 98, 12, 22204, -19499, 5252, 5415, 15, 14, 1526140964.669, 6, 0, 1024, 1024, 1024, 1024, 0, 6, 3671, 3727, 3718, 3717, 3702, 3676, 0, 1, 16800, -89.900, 0.000, -36.000, 0.000, 0.000, -3.000, 0.0, , , , , , 97, , , 0, 0, 0
38.2001125, -120.0383143, 34.200, 09:02:44.769, 12, 0.00, 0.09, 97, -0.400, 0.500, -35.100, 2, 100, 98, 12, 22204, -19499, 5252, 5415, 15, 14, 1526140964.769, 106, 0, 1024, 1024, 1024, 1024, 0, 6, 3671, 3727, 3718, 3717, 3702, 3676, 0, 1, 16900, -89.900, 0.000, -36.000, 0.000, 0.000, -3.000, 0.0, , , , , , 97, , , 0, 0, 0
38.2001125, -120.0383142, 34.600, 09:02:44.869, 12, 0.00, 0.09, 97, -0.600, 0.500, -35.100, 2, 100, 98, 12, 22204, -19499, 5252, 5415, 15, 14, 1526140964.869, 88, 0, 1024, 1024, 1024, 1024, 0, 6, 3671, 3727, 3718, 3717, 3702, 3676, 0, 1, 17000, -89.900, 0.000, -36.000, 0.000, 0.000, -3.000, 0.0, , , , , , 97, , , 0, 0, 0
38.2001125, -120.0383142, 34.900, 09:02:44.969, 12, 0.00, 0.09, 97, -0.600, 0.400, -35.000, 2, 100, 98, 12, 22142, -19637, 5252, 5415, 15, 14, 1526140964.969, 76, 0, 1024, 1024, 1024, 1024, 0, 6, 3661, 3717, 3703, 3705, 3685, 3670, 0, 1, 17100, -90.000, 0.000, -36.000, 0.000, 0.000, -3.100, 0.0, , , , , , 97, , , 0, 0, 0
38.2001125, -120.0383142, 35.200, 09:02:45.069, 12, 0.00, 0.09, 97, -0.400, 0.400, -35.000, 2, 100, 99, 12, 22142, -19637, 5252, 5415, 15, 14, 1526140965.069, 79, 0, 1024, 1024, 1024, 1024, 0, 6, 3661, 3717, 3703, 3705, 3685, 3670, 0, 1, 17200, -90.000, 0.000, -36.000, 0.000, 0.000, -3.000, 0.0, , , , , , 97, , , 0, 0, 0
38.2001125, -120.0383142, 35.500, 09:02:45.169, 12, 0.00, 0.09, 97, -0.200, 0.400, -35.000, 2, 100, 99, 12, 22142, -19637, 5252, 5415, 15, 14, 1526140965.171, 84, 0, 1024, 1024, 1024, 1024, 0, 6, 3661, 3717, 3703, 3705, 3685, 3670, 0, 1, 17302, -90.000, 0.000, -36.000, 0.000, 0.000, -2.900, 0.0, , , , , , 97, , , 0, 0, 0
38.2001125, -120.0383142, 35.800, 09:02:45.269, 12, 0.00, 0.09, 97, 0.000, 0.400, -35.100, 2, 100, 99, 12, 22142, -19637, 5252, 5415, 15, 14, 1526140965.270, 58, 0, 1024, 1024, 1024, 1024, 0, 6, 3661, 3717, 3703, 3705, 3685, 3670, 0, 1, 17401, -89.900, 0.000, -36.000, 0.000, 0.000, -2.900, 0.0, , , , , , 97, , , 0, 0, 0
38.2001125, -120.0383142, 36.000, 09:02:45.369, 12, 0.00, 0.09, 97, -0.100, 0.500, -35.200, 2, 100, 99, 12, 22142, -19637, 5252, 5415, 15, 14, 1526140965.371, 80, 0, 1024, 1024, 1024, 1024, 0, 6, 3661, 3717, 3703, 3705, 3685, 3670, 0, 1, 17502, -89.900, 0.000, -36.000, 0.000, 0.000, -3.000, 0.0, , , , , , 97, , , 0, 0, 0
38.2001125, -120.0383142, 36.300, 09:02:45.469, 12, 0.00, 0.09, 97, -0.100, 0.600, -35.300, 2, 100, 99, 12, 22142, -19637, 5252, 5415, 15, 14, 1526140965.470, 80, 0, 1024, 1024, 1024, 1024, 0, 6, 3661, 3717, 3703, 3705, 3685, 3670, 0, 1, 17601, -89.900, 0.000, -36.000, 0.000, 0.000, -3.000, 0.0, , , , , , 97, , , 0, 0, 0
38.2001126, -120.0383142, 36.600, 09:02:45.569, 12, 0.00, 0.09, 97, -0.200, 0.600, -35.300, 2, 100, 98, 12, 22142, -19637, 5252, 5415, 15, 14, 1526140965.570, 73, 0, 1024, 1024, 1024, 1024, 0, 6, 3661, 3717, 3703, 3705, 3685, 3670, 0, 1, 17701, -89.900, 0.000, -36.000, 0.000, 0.000, -2.900, 0.0, , , , , , 97, , , 0, 0, 0
38.2001126, -120.0383142, 36.900, 09:02:45.670, 12, 0.00, 0.09, 97, -0.200, 0.600, -35.200, 2, 100, 98, 12, 22142, -19637, 5252, 5415, 15, 14, 1526140965.671, 51, 0, 1024, 1024, 1024, 1024, 0, 6, 3661, 3717, 3703, 3705, 3685, 3670, 0, 1, 17802, -89.900, 0.000, -36.000, 0.000, 0.000, -2.900, 0.0, , , , , , 97, , , 0, 0, 0
38.2001125, -120.0383142, 37.200, 09:02:45.771, 12, 0.00, 0.09, 97, -0.100, 0.500, -35.100, 2, 100, 98, 12, 22142, -19637, 5252, 5415, 15, 14, 1526140965.771, 47, 0, 1024, 1024, 1024, 1024, 0, 6, 3661, 3717, 3703, 3705, 3685, 3670, 0, 1, 17902, -90.000, 0.000, -36.000, 0.000, 0.000, -2.900, 0.0, , , , , , 97, , , 0, 0, 0
38.2001125, -120.0383142, 37.500, 09:02:45.869, 12, 0.00, 0.09, 97, -0.100, 0.400, -35.000, 2, 100, 98, 12, 22142, -19637, 5252, 5415, 15, 14, 1526140965.870, 60, 0, 1024, 1024, 1024, 1024, 0, 6, 3661, 3717, 3703, 3705, 3685, 3670, 0, 1, 18001, -89.900, 0.000, -36.000, 0.000, 0.000, -3.000, 0.0, , , , , , 97, , , 0, 0, 0
38.2001125, -120.0383142, 37.800, 09:02:45.969, 12, 0.00, 0.09, 97, -0.100, 0.300, -34.900, 2, 100, 98, 12, 22113, -19750, 5252, 5415, 15, 14, 1526140965.970, 20, 0, 1024, 1024, 1024, 1024, 0, 6, 3661, 3717, 3703, 3705, 3685, 3670, 0, 1, 18102, -90.000, 0.000, -36.000, 0.000, 0.000, -3.000, 0.0, , , , , , 97, , , 0, 0, 0
38.2001125, -120.0383142, 38.100, 09:02:46.069, 12, 0.00, 0.08, 97, -0.100, 0.300, -34.800, 2, 100, 98, 12, 22113, -19750, 5252, 5415, 15, 14, 1526140966.070, 60, 0, 1024, 1024, 1024, 1024, 0, 6, 3646, 3719, 3698, 3690, 3683, 3681, 0, 1, 18201, -90.000, 0.000, -36.000, 0.000, 0.000, -3.000, 0.0, , , , , , 97, , , 0, 0, 0
38.2001124, -120.0383142, 38.400, 09:02:46.169, 12, 0.00, 0.08, 97, 0.000, 0.300, -34.700, 2, 100, 98, 12, 22113, -19750, 5252, 5415, 15, 14, 1526140966.170, 32, 0, 1024, 1024, 1024, 1024, 0, 6, 3646, 3719, 3698, 3690, 3683, 3681, 0, 1, 18301, -90.000, 0.000, -36.000, 0.000, 0.000, -3.000, 0.0, , , , , , 97, , , 0, 0, 0
38.2001124, -120.0383143, 38.700, 09:02:46.269, 12, 0.00, 0.08, 97, 0.000, 0.300, -34.700, 2, 100, 98, 12, 22113, -19750, 5252, 5415, 15, 14, 1526140966.269, 34, 0, 1024, 1024, 1024, 1024, 0, 6, 3646, 3719, 3698, 3690, 3683, 3681, 0, 1, 18401, -90.000, 0.000, -36.000, 0.000, 0.000, -3.000, 0.0, , , , , , 97, , , 0, 0, 0
38.2001124, -120.0383142, 39.300, 09:02:46.379, 12, 0.00, 0.08, 97, 0.000, 0.200, -34.700, 2, 100, 98, 12, 22113, -19750, 5252, 5415, 15, 14, 1526140966.379, 4, 0, 1024, 1024, 1024, 1024, 0, 6, 3646, 3719, 3698, 3690, 3683, 3681, 0, 1, 18511, -90.000, 0.000, -36.000, 0.000, 0.000, -3.000, 0.0, , , , , , 97, , , 0, 0, 0
38.2001124, -120.0383142, 39.300, 09:02:46.469, 12, 0.00, 0.08, 97, 0.000, 0.200, -34.700, 2, 100, 98, 12, 22113, -19750, 5252, 5415, 15, 14, 1526140966.470, 94, 0, 1024, 1024, 1024, 1024, 0, 6, 3646, 3719, 3698, 3690, 3683, 3681, 0, 1, 18601, -90.000, 0.000, -36.000, 0.000, 0.000, -3.000, 0.0, , , , , , 97, , , 0, 0, 0
38.2001124, -120.0383142, 39.900, 09:02:46.569, 12, 0.00, 0.07, 97, -0.100, 0.200, -34.900, 2, 100, 96, 12, 22113, -19750, 5252, 5415, 15, 14, 1526140966.571, 42, 0, 1024, 1024, 1024, 1024, 0, 6, 3646, 3719, 3698, 3690, 3683, 3681, 0, 1, 18702, -90.000, 0.000, -36.000, 0.000, 0.000, -3.000, 0.0, , , , , , 97, , , 0, 0, 0
38.2001124, -120.0383142, 39.900, 09:02:46.671, 12, 0.00, 0.07, 97, -0.100, 0.200, -34.900, 2, 100, 96, 12, 22113, -19750, 5252, 5415, 15, 14, 1526140966.674, 145, 0, 1024, 1024, 1024, 1024, 0, 6, 3646, 3719, 3698, 3690, 3683, 3681, 0, 1, 18805, -90.000, 0.000, -36.000, 0.000, 0.000, -3.000, 0.0, , , , , , 97, , , 0, 0, 0
38.2001124, -120.0383141, 40.500, 09:02:46.778, 12, 0.00, 0.07, 97, -0.200, 0.300, -35.100, 2, 100, 96, 12, 22113, -19750, 5252, 5415, 15, 14, 1526140966.779, 6, 0, 1024, 1024, 1024, 1024, 0, 6, 3646, 3719, 3698, 3690, 3683, 3681, 0, 1, 18910, -89.900, 0.000, -36.000, 0.000, 0.000, -2.900, 0.0, , , , , , 97, , , 0, 0, 0
38.2001124, -120.0383141, 40.500, 09:02:46.869, 12, 0.00, 0.07, 97, -0.200, 0.300, -35.100, 2, 100, 96, 12, 22055, -19776, 5252, 5415, 15, 14, 1526140966.870, 97, 0, 1024, 1024, 1024, 1024, 0, 6, 3646, 3719, 3698, 3690, 3683, 3681, 0, 1, 19001, -89.900, 0.000, -36.000, 0.000, 0.000, -2.900, 0.0, , , , , , 97, , , 0, 0, 0
38.2001124, -120.0383141, 40.500, 09:02:46.969, 12, 0.00, 0.07, 97, -0.200, 0.300, -35.100, 2, 100, 96, 12, 22055, -19776, 5252, 5415, 15, 14, 1526140966.969, 197, 0, 1024, 1024, 1024, 1024, 0, 6, 3646, 3719, 3698, 3690, 3683, 3681, 0, 1, 19100, -89.900, 0.000, -36.000, 0.000, 0.000, -2.900, 0.0, , , , , , 97, , , 0, 0, 0
38.2001124, -120.0383141, 41.400, 09:02:47.078, 12, 0.00, 0.07, 97, -0.200, 0.200, -35.200, 2, 100, 95, 12, 22055, -19776, 5252, 5415, 15, 14, 1526140967.079, 5, 0, 1024, 1024, 1024, 1024, 0, 6, 3639, 3707, 3690, 3681, 3672, 3665, 0, 1, 19210, -90.000, 0.000, -36.000, 0.000, 0.000, -2.900, 0.0, , , , , , 97, , , 0, 0, 0
38.2001124, -120.0383141, 41.400, 09:02:47.169, 12, 0.00, 0.07, 97, -0.200, 0.200, -35.200, 2, 100, 95, 12, 22055, -19776, 5252, 5415, 15, 14, 1526140967.169, 95, 0, 1024, 1024, 1024, 1024, 0, 6, 3639, 3707, 3690, 3681, 3672, 3665, 0, 1, 19300, -90.000, 0.000, -36.000, 0.000, 0.000, -2.900, 0.0, , , , , , 97, , , 0, 0, 0
38.2001124, -120.0383141, 41.700, 09:02:47.268, 12, 0.00, 0.08, 97, -0.200, 0.300, -35.200, 2, 100, 95, 12, 22055, -19776, 5252, 5415, 15, 14, 1526140967.269, 94, 0, 1024, 1024, 1024, 1024, 0, 6, 3639, 3707, 3690, 3681, 3672, 3665, 0, 1, 19400, -90.000, 0.000, -36.000, 0.000, 0.000, -3.000, 0.0, , , , , , 97, , , 0, 0, 0
38.2001124, -120.0383141, 42.000, 09:02:47.369, 12, 0.00, 0.07, 97, -0.300, 0.300, -35.200, 2, 100, 95, 12, 22055, -19776, 5252, 5415, 15, 14, 1526140967.369, 86, 0, 1024, 1024, 1024, 1024, 0, 6, 3639, 3707, 3690, 3681, 3672, 3665, 0, 1, 19500, -90.000, 0.000, -36.000, 0.000, 0.000, -3.000, 0.0, , , , , , 97, , , 0, 0, 0
38.2001124, -120.0383141, 42.300, 09:02:47.469, 12, 0.00, 0.07, 97, -0.400, 0.100, -35.300, 2, 100, 95, 12, 22055, -19776, 5252, 5415, 15, 14, 1526140967.469, 86, 0, 1024, 1024, 1024, 1024, 0, 6, 3639, 3707, 3690, 3681, 3672, 3665, 0, 1, 19600, -90.000, 0.000, -36.000, 0.000, 0.000, -3.100, 0.0, , , , , , 97, , , 0, 0, 0
38.2001124, -120.0383140, 42.600, 09:02:47.569, 12, 0.00, 0.08, 97, -0.500, 0.000, -35.300, 2, 100, 94, 12, 22055, -19776, 5252, 5415, 15, 14, 1526140967.569, 77, 0, 1024, 1024, 1024, 1024, 0, 6, 3639, 3707, 3690, 3681, 3672, 3665, 0, 1, 19700, -90.000, 0.000, -36.000, 0.000, 0.000, -3.000, 0.0, , , , , , 97, , , 0, 0, 0
38.2001125, -120.0383140, 42.900, 09:02:47.669, 12, 0.00, 0.08, 97, -0.600, 0.000, -35.300, 2, 100, 94, 12, 22055, -19776, 5252, 5415, 15, 14, 1526140967.669, 94, 0, 1024, 1024, 1024, 1024, 0, 6, 3639, 3707, 3690, 3681, 3672, 3665, 0, 1, 19801, -89.900, 0.000, -36.000, 0.000, 0.000, -3.000, 0.0, , , , , , 97, , , 0, 0, 0
38.2001124, -120.0383140, 43.200, 09:02:47.768, 12, 0.00, 0.08, 97, -0.500, 0.200, -35.200, 2, 100, 94, 12, 22055, -19776, 5252, 5415, 15, 14, 1526140967.769, 74, 0, 1024, 1024, 1024, 1024, 0, 6, 3639, 3707, 3690, 3681, 3672, 3665, 0, 1, 19900, -89.900, 0.000, -36.000, 0.000, 0.000, -3.000, 0.0, , , , , , 97, , , 0, 0, 0
38.2001124, -120.0383140, 43.200, 09:02:47.869, 12, 0.00, 0.08, 97, -0.500, 0.200, -35.200, 2, 100, 94, 12, 22055, -19776, 5252, 5415, 15, 14, 1526140967.869, 174, 0, 1024, 1024, 1024, 1024, 0, 6, 3639, 3707, 3690, 3681, 3672, 3665, 0, 1, 20000, -90.000, 0.000, -36.000, 0.000, 0.000, -3.000, 0.0, , , , , , 97, , , 0, 0, 0
38.2001124, -120.0383140, 43.800, 09:02:47.969, 12, 0.00, 0.07, 97, -0.100, 0.100, -35.000, 2, 100, 94, 12, 22058, -19498, 5252, 5415, 15, 14, 1526140967.969, 58, 0, 1024, 1024, 1024, 1024, 0, 6, 3637, 3694, 3696, 3689, 3674, 3659, 0, 1, 20100, -90.000, 0.000, -36.000, 0.000, 0.000, -3.000, 0.0, , , , , , 97, , , 0, 0, 0
38.2001124, -120.0383140, 44.200, 09:02:48.069, 12, 0.00, 0.07, 97, 0.000, 0.200, -35.000, 2, 100, 95, 12, 22058, -19498, 5252, 5415, 15, 14, 1526140968.069, 57, 0, 1024, 1024, 1024, 1024, 0, 6, 3637, 3694, 3696, 3689, 3674, 3659, 0, 1, 20200, -89.900, 0.000, -36.000, 0.000, 0.000, -3.000, 0.0, , , , , , 97, , , 0, 0, 0
38.2001124, -120.0383141, 44.500, 09:02:48.176, 12, 0.00, 0.08, 97, 0.000, 0.200, -34.900, 2, 100, 95, 12, 22058, -19498, 5252, 5415, 15, 14, 1526140968.176, 5, 0, 1024, 1024, 1024, 1024, 0, 6, 3637, 3694, 3696, 3689, 3674, 3659, 0, 1, 20308, -89.900, 0.000, -36.000, 0.000, 0.000, -3.000, 0.0, , , , , , 97, , , 0, 0, 0
38.2001124, -120.0383141, 44.800, 09:02:48.269, 12, 0.00, 0.08, 97, 0.000, 0.400, -34.800, 2, 100, 95, 12, 22058, -19498, 5252, 5415, 15, 14, 1526140968.269, 51, 0, 1024, 1024, 1024, 1024, 0, 6, 3637, 3694, 3696, 3689, 3674, 3659, 0, 1, 20401, -89.900, 0.000, -36.000, 0.000, 0.000, -3.000, 0.0, , , , , , 97, , , 0, 0, 0
38.2001124, -120.0383141, 45.100, 09:02:48.369, 12, 0.00, 0.08, 97, 0.000, 0.600, -34.800, 2, 100, 95, 12, 22058, -19498, 5252, 5415, 15, 14, 1526140968.369, 38, 0, 1024, 1024, 1024, 1024, 0, 6, 3637, 3694, 3696, 3689, 3674, 3659, 0, 1, 20500, -89.900, 0.000, -36.000, 0.000, 0.000, -3.000, 0.0, , , , , , 97, , , 0, 0, 0
38.2001124, -120.0383141, 45.400, 09:02:48.469, 12, 0.00, 0.08, 97, -0.100, 0.600, -34.700, 2, 100, 96, 12, 22058, -19498, 5252, 5415, 15, 14, 1526140968.469, 28, 0, 1024, 1024, 1024, 1024, 0, 6, 3637, 3694, 3696, 3689, 3674, 3659, 0, 1, 20600, -89.900, 0.000, -36.000, 0.000, 0.000, -3.000, 0.0, , , , , , 97, , , 0, 0, 0
38.2001124, -120.0383141, 45.700, 09:02:48.569, 12, 0.00, 0.08, 97, 0.000, 0.400, -34.700, 2, 100, 96, 12, 22058, -19498, 5252, 5415, 15, 14, 1526140968.569, 28, 0, 1024, 1024, 1024, 1024, 0, 6, 3637, 3694, 3696, 3689, 3674, 3659, 0, 1, 20700, -90.000, 0.000, -36.000, 0.000, 0.000, -3.000, 0.0, , , , , , 97, , , 0, 0, 0
38.2001124, -120.0383141, 45.700, 09:02:48.669, 12, 0.00, 0.08, 97, 0.000, 0.400, -34.700, 2, 100, 96, 12, 22058, -19498, 5252, 5415, 15, 14, 1526140968.669, 129, 0, 1024, 1024, 1024, 1024, 0, 6, 3637, 3694, 3696, 3689, 3674, 3659, 0, 1, 20801, -90.000, 0.000, -36.000, 0.000, 0.000, -3.000, 0.0, , , , , , 97, , , 0, 0, 0
38.2001124, -120.0383141, 46.600, 09:02:48.768, 12, 0.00, 0.08, 97, -0.100, 0.000, -34.700, 2, 100, 96, 12, 22058, -19498, 5252, 5415, 15, 14, 1526140968.769, 21, 0, 1024, 1024, 1024, 1024, 0, 6, 3637, 3694, 3696, 3689, 3674, 3659, 0, 1, 20900, -90.000, 0.000, -36.000, 0.000, 0.000, -3.000, 0.0, , , , , , 97, , , 0, 0, 0
38.2001124, -120.0383141, 46.900, 09:02:48.869, 12, 0.00, 0.08, 97, 0.000, 0.200, -34.800, 2, 100, 96, 12, 22044, -19415, 5252, 5415, 15, 14, 1526140968.869, 31, 0, 1024, 1024, 1024, 1024, 0, 6, 3637, 3694, 3696, 3689, 3674, 3659, 0, 1, 21000, -89.900, 0.000, -36.000, 0.000, 0.000, -3.000, 0.0, , , , , , 97, , , 0, 0, 0
38.2001124, -120.0383141, 47.200, 09:02:48.969, 12, 0.00, 0.08, 97, 0.000, 0.300, -34.800, 2, 100, 97, 12, 22044, -19415, 5252, 5415, 15, 14, 1526140968.969, 16, 0, 1024, 1024, 1024, 1024, 0, 6, 3637, 3694, 3696, 3689, 3674, 3659, 0, 1, 21100, -89.900, 0.000, -36.000, 0.000, 0.000, -3.000, 0.0, , , , , , 97, , , 0, 0, 0
38.2001124, -120.0383141, 47.500, 09:02:49.069, 12, 0.00, 0.07, 97, -0.300, 0.200, -34.900, 2, 100, 97, 12, 22044, -19415, 5252, 5415, 15, 14, 1526140969.069, 15, 0, 1024, 1024, 1024, 1024, 0, 6, 3637, 3694, 3696, 3689, 3674, 3659, 0, 1, 21200, -89.900, 0.000, -36.000, 0.000, 0.000, -3.000, 0.0, , , , , , 97, , , 0, 0, 0
