latitude,longitude,altitude(feet),ascent(feet),speed(mph),distance(feet),time(millisecond),datetime(utc),satellites,gpslevel,voltage(v),max_altitude(feet),max_ascent(feet),max_speed(mph),max_distance(feet), xSpeed(mph), ySpeed(mph), zSpeed(mph), compass_heading(degrees), pitch(degrees), roll(degrees),isPhoto,isVideo,rc_elevator,rc_aileron,rc_throttle,rc_rudder,gimbal_heading(degrees),gimbal_pitch(degrees),battery_percent,voltageCell1,voltageCell2,voltageCell3,voltageCell4,voltageCell5,voltageCell6,current(A),battery_temperature(f),flycStateRaw,flycState,message
38.1754063,-120.0595433,4961.6176961733,0,0,0,3030,2018-05-12 20:57:35,13,0,25.599,4961.6176961733,0,0,0,0,0,0,66.8, 1.5, -1.6,1,0,1024,1024,1024,1024,65.8,-89.9,98,4.299,4.304,4.3,4.313,4.315,4.3,3.932,75.2,11,AutoTakeoff,DJI_0042.jpg Starting Mission from Lat/Long: 38.17541/-120.05955 Camera: Zenmuse X3 - Overlap: 90/90 - Active Connection: No
38.1754063,-120.0595434,4961.6176961733,0,0.223694,0.0286816282144,3100,2018-05-12 20:57:35,13,0,25.599,4961.6176961733,0,0.223694,0.0286816282144,0,0,0,66.8, 0.9, -0.7,0,0,1024,1024,1024,1024,65.8,-90,98,4.299,4.304,4.3,4.313,4.315,4.3,3.932,75.2,11,AutoTakeoff,
38.1754063,-120.0595435,4961.6176961733,0,0.223694,0.057363190812,3200,2018-05-12 20:57:35,13,0,25.599,4961.6176961733,0,0.223694,0.057363190812,0,0,0,66.7, 0.1, -0.2,0,0,1024,1024,1024,1024,65.9,-90,98,4.299,4.304,4.3,4.313,4.315,4.3,3.932,75.2,11,AutoTakeoff,
38.1754063,-120.0595436,4961.9457801733,0.328084,0,0.08604495026,3300,2018-05-12 20:57:36,13,0,25.599,4961.9457801733,0.328084,0.223694,0.08604495026,0,0,0,66.7, -0.2, 0,0,0,1024,1024,1024,1024,65.9,-90,98,4.299,4.304,4.3,4.313,4.315,4.3,3.932,75.2,11,AutoTakeoff,
38.1754063,-120.0595437,4961.9457801733,0.328084,0,0.114726381624,3400,2018-05-12 20:57:36,13,0,25.599,4961.9457801733,0.328084,0.223694,0.114726381624,0,0,0,66.7, -0.1, -0.3,0,0,1024,1024,1024,1024,65.9,-90,98,4.299,4.304,4.3,4.313,4.315,4.3,3.932,75.2,11,AutoTakeoff,
38.1754063,-120.0595437,4962.2738641733,0.656168,0,0.114726381624,3500,2018-05-12 20:57:36,13,0,25.599,4962.2738641733,0.656168,0.223694,0.114726381624,0,0,0,66.8, -0.2, -0.1,0,0,1024,1024,1024,1024,65.9,-90,98,4.299,4.304,4.3,4.313,4.315,4.3,3.932,75.2,11,AutoTakeoff,
38.1754064,-120.0595437,4962.2738641733,0.656168,0,0.120388127212,3600,2018-05-12 20:57:36,13,0,25.599,4962.2738641733,0.656168,0.223694,0.120388127212,0,0,0,66.9, -0.5, 0.1,0,0,1024,1024,1024,1024,65.9,-90,98,4.299,4.304,4.3,4.313,4.315,4.3,3.932,75.2,11,AutoTakeoff,
38.1754064,-120.0595437,4962.6019481733,0.984252,0,0.120388127212,3700,2018-05-12 20:57:36,13,0,25.599,4962.6019481733,0.984252,0.223694,0.120388127212,0,0,0,66.9, -0.5, 0.1,0,0,1024,1024,1024,1024,65.9,-90,98,4.299,4.304,4.3,4.313,4.315,4.3,3.932,75.2,11,AutoTakeoff,
38.1754064,-120.0595437,4962.6019481733,0.984252,0,0.120388127212,3800,2018-05-12 20:57:36,13,0,25.599,4962.6019481733,0.984252,0.223694,0.120388127212,0,0,-0.223694,67, -0.1, 0.1,0,0,1024,1024,1024,1024,65.9,-90,98,4.299,4.304,4.3,4.313,4.315,4.3,3.932,75.2,11,AutoTakeoff,
38.1754064,-120.0595437,4962.9300321733,1.312336,0,0.120388127212,3900,2018-05-12 20:57:36,13,0,25.599,4962.9300321733,1.312336,0.223694,0.120388127212,0,0,-0.223694,67.1, 0.1, 0,0,0,1024,1024,1024,1024,65.9,-89.9,98,4.299,4.304,4.3,4.313,4.315,4.3,3.932,75.2,11,AutoTakeoff,
38.1754064,-120.0595436,4962.9300321733,1.312336,0,0.093460632912,4000,2018-05-12 20:57:36,13,0,25.599,4962.9300321733,1.312336,0.223694,0.120388127212,0,0,0,67.1, 0.3, 0,0,0,1024,1024,1024,1024,65.9,-89.9,98,4.254,4.27,4.291,4.293,4.308,4.262,3.932,75.2,11,AutoTakeoff,
38.1754064,-120.0595435,4963.2581161733,1.64042,0,0.067982941808,4210,2018-05-12 20:57:36,12,0,25.599,4963.2581161733,1.64042,0.223694,0.120388127212,0,0,-0.223694,67.1, 0.3, -0.3,0,0,1024,1024,1024,1024,65.9,-90,98,4.254,4.27,4.291,4.293,4.308,4.262,3.932,75.2,11,AutoTakeoff,
38.1754064,-120.0595434,4963.5862001733,1.968504,0,0.046408794136,4300,2018-05-12 20:57:37,12,0,25.599,4963.5862001733,1.968504,0.223694,0.120388127212,0,0,-0.223694,67.1, 0.4, -0.5,0,0,1024,1024,1024,1024,65.9,-89.9,98,4.254,4.27,4.291,4.293,4.308,4.262,3.932,75.2,11,AutoTakeoff,
38.1754064,-120.0595433,4963.9142841733,2.296588,0,0.036484909304,4500,2018-05-12 20:57:37,12,0,25.599,4963.9142841733,2.296588,0.223694,0.120388127212,0,0,-0.223694,66.9, 0.8, -0.5,0,0,1024,1024,1024,1024,65.9,-89.9,98,4.254,4.27,4.291,4.293,4.308,4.262,3.932,75.2,11,AutoTakeoff,
38.1754064,-120.0595432,4964.2423681733,2.624672,0,0.046408794136,4700,2018-05-12 20:57:37,13,0,25.599,4964.2423681733,2.624672,0.223694,0.120388127212,0,0,-0.223694,66.9, 0.9, -0.3,0,0,1024,1024,1024,1024,65.9,-89.9,98,4.254,4.27,4.291,4.293,4.308,4.262,3.932,75.2,11,AutoTakeoff,
38.1754065,-120.0595432,4964.5704521733,2.952756,0,0.078404201984,4800,2018-05-12 20:57:37,13,0,25.599,4964.5704521733,2.952756,0.223694,0.120388127212,0,0,-0.223694,66.9, 1, -0.1,0,0,1024,1024,1024,1024,65.9,-89.9,98,4.254,4.27,4.291,4.293,4.308,4.262,3.932,75.2,6,P-GPS,
38.1754065,-120.059543,4964.8985361733,3.28084,0,0.1128198855,4900,2018-05-12 20:57:37,13,0,25.599,4964.8985361733,3.28084,0.223694,0.120388127212,0,0,0,66.8, 1.3, -0.1,0,0,1024,1024,1024,1024,65.9,-89.9,98,4.254,4.27,4.291,4.293,4.308,4.262,3.932,75.2,14,Waypoint,
38.1754064,-120.0595429,4965.2266201733,3.608924,0,0.120388127212,5100,2018-05-12 20:57:37,13,0,25.599,4965.2266201733,3.608924,0.223694,0.120388127212,0,0,0,66.8, 1, -0.5,0,0,1024,1024,1024,1024,65.9,-89.9,98,4.254,4.27,4.291,4.293,4.308,4.262,3.932,75.2,14,Waypoint,
38.1754064,-120.0595428,4965.2266201733,3.608924,0,0.147976382688,5200,2018-05-12 20:57:37,13,0,25.599,4965.2266201733,3.608924,0.223694,0.147976382688,0,0,0,66.9, 0.8, -0.5,0,0,1024,1024,1024,1024,65.9,-90,98,4.254,4.27,4.291,4.293,4.308,4.262,3.932,75.2,14,Waypoint,
38.1754064,-120.0595428,4965.5547041733,3.937008,0,0.147976382688,5300,2018-05-12 20:57:38,13,0,25.599,4965.5547041733,3.937008,0.223694,0.147976382688,0,0,-0.223694,67, 0.8, -0.3,0,0,1024,1024,1024,1024,65.9,-89.9,98,4.254,4.27,4.291,4.293,4.308,4.262,3.932,75.2,14,Waypoint,
38.1754064,-120.0595427,4965.8827881733,4.265092,0,0.175914703792,5400,2018-05-12 20:57:38,13,0,25.599,4965.8827881733,4.265092,0.223694,0.175914703792,0,0,-0.223694,67.1, 0.9, -0.2,0,0,1024,1024,1024,1024,65.9,-89.9,98,4.254,4.27,4.291,4.293,4.308,4.262,3.932,75.2,14,Waypoint,
38.1754064,-120.0595428,4965.8827881733,4.265092,0,0.147976382688,5500,2018-05-12 20:57:38,13,0,25.599,4965.8827881733,4.265092,0.223694,0.175914703792,0,0,-0.223694,67.2, 0.9, -0.3,0,0,1024,1024,1024,1024,65.9,-90,98,4.254,4.27,4.291,4.293,4.308,4.262,3.932,75.2,14,Waypoint,
38.1754064,-120.0595427,4966.2108721733,4.593176,0,0.175914703792,5600,2018-05-12 20:57:38,13,0,25.599,4966.2108721733,4.593176,0.223694,0.175914703792,0,0,-0.223694,67.3, 0.6, -0.5,0,0,1024,1024,1024,1024,65.9,-90,98,4.254,4.27,4.291,4.293,4.308,4.262,3.932,75.2,14,Waypoint,
38.1754064,-120.0595427,4966.8670401733,5.249344,0,0.175914703792,5700,2018-05-12 20:57:38,13,0,25.599,4966.8670401733,5.249344,0.223694,0.175914703792,0,0,-0.223694,67.3, 0.6, -0.5,0,0,1024,1024,1024,1024,65.9,-90,98,4.254,4.27,4.291,4.293,4.308,4.262,3.932,75.2,14,Waypoint,
38.1754065,-120.0595426,4967.1951241733,5.577428,0,0.21362041366,5800,2018-05-12 20:57:38,13,0,25.599,4967.1951241733,5.577428,0.223694,0.21362041366,0,0,-0.223694,67.3, 0.7, -0.3,0,0,1024,1024,1024,1024,65.9,-89.9,98,4.254,4.27,4.291,4.293,4.308,4.262,3.932,75.2,14,Waypoint,
38.1754065,-120.0595426,4967.8512921733,6.233596,0,0.21362041366,5900,2018-05-12 20:57:38,13,0,25.599,4967.8512921733,6.233596,0.223694,0.21362041366,0,0,-0.447388,67.2, 0.9, -0.1,0,0,1024,1024,1024,1024,65.9,-90,98,4.254,4.27,4.291,4.293,4.308,4.262,3.932,75.2,14,Waypoint,
38.1754066,-120.0595426,4968.5074601733,6.889764,0,0.228668970572,6010,2018-05-12 20:57:38,13,0,24.187,4968.5074601733,6.889764,0.223694,0.228668970572,0,0,-0.447388,67.2, 0.8, -0.1,0,0,1024,1024,1024,1024,65.9,-90,98,4.012,4.016,4.018,4.055,4.058,4.022,17.143,75.2,14,Waypoint,
38.1754067,-120.0595426,4969.1636281733,7.545932,0,0.24820866936,6100,2018-05-12 20:57:38,13,0,24.187,4969.1636281733,7.545932,0.223694,0.24820866936,0,0,-0.447388,67, 0.8, 0,0,0,1024,1024,1024,1024,65.9,-90,98,4.012,4.016,4.018,4.055,4.058,4.022,17.143,75.2,14,Waypoint,
38.1754068,-120.0595425,4969.8197961733,8.2021,0,0.293133867648,6200,2018-05-12 20:57:38,13,0,24.187,4969.8197961733,8.2021,0.223694,0.293133867648,0,0,-0.447388,67, 0.9, 0.1,0,0,1024,1024,1024,1024,65.9,-89.9,98,4.012,4.016,4.018,4.055,4.058,4.022,17.143,75.2,14,Waypoint,
38.1754069,-120.0595421,4971.4602161733,9.84252,0,0.40789699468,6410,2018-05-12 20:57:39,13,0,24.187,4971.4602161733,9.84252,0.223694,0.40789699468,0,0,-0.671082,66.9, 1.3, 0.2,0,0,1024,1024,1024,1024,65.9,-89.9,98,4.012,4.016,4.018,4.055,4.058,4.022,17.143,75.2,14,Waypoint,
38.1754069,-120.0595421,4971.4602161733,9.84252,0,0.40789699468,6500,2018-05-12 20:57:39,13,0,24.187,4971.4602161733,9.84252,0.223694,0.40789699468,0,0,-0.671082,66.9, 1.3, 0.2,0,0,1024,1024,1024,1024,65.9,-89.9,98,4.012,4.016,4.018,4.055,4.058,4.022,17.143,75.2,14,Waypoint,
38.1754072,-120.0595417,4973.4287201733,11.811024,0,0.56428479496,6600,2018-05-12 20:57:39,13,0,24.187,4973.4287201733,11.811024,0.223694,0.56428479496,0,0,-0.671082,66.7, 2.3, 0,0,0,1024,1024,1024,1024,65.9,-89.9,98,4.012,4.016,4.018,4.055,4.058,4.022,17.143,75.2,14,Waypoint,
38.1754072,-120.0595417,4974.4129721733,12.795276,0,0.56428479496,6800,2018-05-12 20:57:39,13,0,24.187,4974.4129721733,12.795276,0.223694,0.56428479496,0,0,-0.671082,66.6, 2.5, 0,0,0,1024,1024,1024,1024,65.9,-89.9,98,4.012,4.016,4.018,4.055,4.058,4.022,17.143,75.2,14,Waypoint,
38.1754074,-120.0595416,4975.7253081733,14.107612,0,0.63151576824,6900,2018-05-12 20:57:39,13,0,24.187,4975.7253081733,14.107612,0.223694,0.63151576824,0,0,-0.671082,66.6, 2.2, 0.3,0,0,1024,1024,1024,1024,65.9,-89.9,98,4.012,4.016,4.018,4.055,4.058,4.022,17.143,75.2,14,Waypoint,
38.1754075,-120.0595416,4976.7095601733,15.091864,0,0.65530841992,7000,2018-05-12 20:57:39,13,0,24.26,4976.7095601733,15.091864,0.223694,0.65530841992,0,0,-0.671082,66.6, 2.1, 0.6,0,0,1024,1024,1024,1024,65.9,-89.9,98,4.075,4.054,4.008,4.032,4.036,4.002,15.722,75.2,14,Waypoint,
38.1754077,-120.0595413,4979.0061481733,17.388452,0,0.76808729492,7100,2018-05-12 20:57:39,13,0,24.26,4979.0061481733,17.388452,0.223694,0.76808729492,0,0,-0.671082,66.8, 2.3, 1,0,0,1024,1024,1024,1024,65.9,-89.9,98,4.075,4.054,4.008,4.032,4.036,4.002,15.722,75.2,14,Waypoint,
38.1754078,-120.0595413,4979.9904001733,18.372704,0,0.79281826684,7200,2018-05-12 20:57:39,13,0,24.26,4979.9904001733,18.372704,0.223694,0.79281826684,0,0,-0.671082,66.9, 2.4, 1,0,0,1024,1024,1024,1024,65.9,-89.9,98,4.075,4.054,4.008,4.032,4.036,4.002,15.722,75.2,14,Waypoint,
38.1754078,-120.0595413,4980.9746521733,19.356956,0,0.79281826684,7300,2018-05-12 20:57:40,13,0,24.26,4980.9746521733,19.356956,0.223694,0.79281826684,0,0,-0.671082,66.9, 2.3, 0.8,0,0,1024,1024,1024,1024,65.9,-89.9,98,4.075,4.054,4.008,4.032,4.036,4.002,15.722,75.2,14,Waypoint,
38.1754078,-120.0595413,4982.2869881733,20.669292,0,0.79281826684,7400,2018-05-12 20:57:40,13,0,24.26,4982.2869881733,20.669292,0.223694,0.79281826684,0,0,-0.671082,66.9, 2.3, 0.8,0,0,1024,1024,1024,1024,65.9,-89.9,98,4.075,4.054,4.008,4.032,4.036,4.002,15.722,75.2,14,Waypoint,
38.1754077,-120.0595413,4983.2712401733,21.653544,0,0.76808729492,7500,2018-05-12 20:57:40,13,0,24.26,4983.2712401733,21.653544,0.223694,0.79281826684,0,0,-0.671082,66.8, 2.2, 0.5,0,0,1024,1024,1024,1024,65.9,-89.9,98,4.075,4.054,4.008,4.032,4.036,4.002,15.722,75.2,14,Waypoint,
38.1754076,-120.0595414,4984.2554921733,22.637796,0,0.72245081052,7600,2018-05-12 20:57:40,13,0,24.26,4984.2554921733,22.637796,0.223694,0.79281826684,0,0,-0.671082,66.7, 2.2, 0.1,0,0,1024,1024,1024,1024,65.9,-89.9,98,4.075,4.054,4.008,4.032,4.036,4.002,15.722,75.2,14,Waypoint,
38.1754074,-120.0595414,4985.5678281733,23.950132,0.223694,0.6767880794,7700,2018-05-12 20:57:40,13,0,24.26,4985.5678281733,23.950132,0.223694,0.79281826684,0,0,-0.671082,66.7, 2, -0.5,0,0,1024,1024,1024,1024,65.9,-90,98,4.075,4.054,4.008,4.032,4.036,4.002,15.722,75.2,14,Waypoint,
38.1754073,-120.0595415,4986.5520801733,24.934384,0.223694,0.63217849792,7800,2018-05-12 20:57:40,13,0,24.26,4986.5520801733,24.934384,0.223694,0.79281826684,0,0,-0.671082,66.7, 1.7, -1.2,0,0,1024,1024,1024,1024,65.9,-89.9,98,4.075,4.054,4.008,4.032,4.036,4.002,15.722,75.2,14,Waypoint,
38.1754071,-120.0595415,4987.5363321733,25.918636,0,0.59306760428,7900,2018-05-12 20:57:40,13,0,24.26,4987.5363321733,25.918636,0.223694,0.79281826684,0,0,-0.671082,66.7, 1.4, -1.3,0,0,1024,1024,1024,1024,65.9,-90,98,4.075,4.054,4.008,4.032,4.036,4.002,15.722,75.2,14,Waypoint,
38.175407,-120.0595416,4988.8486681733,27.230972,0,0.5504265268,8000,2018-05-12 20:57:40,13,0,23.606,4988.8486681733,27.230972,0.223694,0.79281826684,0,0,-0.671082,66.8, 1, -0.9,0,0,1024,1024,1024,1024,65.9,-90,98,3.916,3.924,3.903,3.949,3.939,3.902,21.851,75.2,14,Waypoint,
38.1754069,-120.0595417,4989.8329201733,28.215224,0,0.50844489816,8100,2018-05-12 20:57:40,13,0,23.606,4989.8329201733,28.215224,0.223694,0.79281826684,0,0,-0.671082,66.8, 0.6, -0.4,0,0,1024,1024,1024,1024,65.9,-90,98,3.916,3.924,3.903,3.949,3.939,3.902,21.851,75.2,14,Waypoint,
38.1754068,-120.0595419,4990.8171721733,29.199476,0,0.44104004036,8200,2018-05-12 20:57:40,13,0,23.606,4990.8171721733,29.199476,0.223694,0.79281826684,0,0,-0.671082,66.8, 0.3, 0,0,0,1024,1024,1024,1024,65.9,-90,98,3.916,3.924,3.903,3.949,3.939,3.902,21.851,75.2,14,Waypoint,
38.1754066,-120.0595421,4991.8014241733,30.183728,0,0.36116470972,8300,2018-05-12 20:57:41,13,0,23.606,4991.8014241733,30.183728,0.223694,0.79281826684,0,0,-0.671082,66.8, 0.1, 0,0,0,1024,1024,1024,1024,65.9,-90,98,3.916,3.924,3.903,3.949,3.939,3.902,21.851,75.2,14,Waypoint,
38.1754066,-120.0595423,4993.1137601733,31.496064,0,0.306991807724,8420,2018-05-12 20:57:41,13,0,23.606,4993.1137601733,31.496064,0.223694,0.79281826684,0,0,-0.671082,66.9, 0.3, 0.1,0,0,1024,1024,1024,1024,65.9,-90,98,3.916,3.924,3.903,3.949,3.939,3.902,21.851,75.2,14,Waypoint,
38.1754066,-120.0595425,4994.0980121733,32.480316,0,0.25422244908,8510,2018-05-12 20:57:41,13,0,23.606,4994.0980121733,32.480316,0.223694,0.79281826684,0,0,-0.671082,66.9, 0.4, 0.2,0,0,1024,1024,1024,1024,65.9,-90,98,3.916,3.924,3.903,3.949,3.939,3.902,21.851,75.2,14,Waypoint,
38.1754065,-120.0595426,4995.0822641733,33.464568,0,0.21362041366,8600,2018-05-12 20:57:41,13,0,23.606,4995.0822641733,33.464568,0.223694,0.79281826684,0,0,-0.671082,66.9, 0.1, 0.4,0,0,1024,1024,1024,1024,65.9,-90,98,3.916,3.924,3.903,3.949,3.939,3.902,21.851,75.2,14,Waypoint,
38.1754064,-120.0595427,4996.3946001733,34.776904,0,0.175914703792,8700,2018-05-12 20:57:41,13,0,23.606,4996.3946001733,34.776904,0.223694,0.79281826684,0,0,-0.671082,67.1, -0.4, 0.1,0,0,1024,1024,1024,1024,65.9,-90,98,3.916,3.924,3.903,3.949,3.939,3.902,21.851,75.2,14,Waypoint,
38.1754063,-120.0595429,4997.3788521733,35.761156,0,0.114726381624,8900,2018-05-12 20:57:41,13,0,23.606,4997.3788521733,35.761156,0.223694,0.79281826684,0,0,-0.671082,67.2, -0.4, 0,0,0,1024,1024,1024,1024,65.9,-90,98,3.916,3.924,3.903,3.949,3.939,3.902,21.851,75.2,14,Waypoint,
38.1754063,-120.0595431,4998.3631041733,36.745408,0,0.057363190812,9000,2018-05-12 20:57:41,13,0,23.658,4998.3631041733,36.745408,0.223694,0.79281826684,0,0,-0.671082,67.2, 0, 0.1,0,0,1024,1024,1024,1024,65.9,-90,98,3.913,3.929,3.933,3.981,3.97,3.939,20.68,75.2,14,Waypoint,
38.1754063,-120.0595433,5000.3316081733,38.713912,0,0,9100,2018-05-12 20:57:41,13,0,23.658,5000.3316081733,38.713912,0.223694,0.79281826684,0,0,-0.671082,67, 0.2, 0.7,0,0,1024,1024,1024,1024,65.9,-90,98,3.913,3.929,3.933,3.981,3.97,3.939,20.68,75.2,14,Waypoint,
38.1754062,-120.0595433,5000.9877761733,39.37008,0,0.036484909304,9300,2018-05-12 20:57:42,13,0,23.658,5000.9877761733,39.37008,0.223694,0.79281826684,0,0,-0.671082,66.9, 0.5, 0.6,0,0,1024,1024,1024,1024,65.9,-89.9,98,3.913,3.929,3.933,3.981,3.97,3.939,20.68,75.2,14,Waypoint,
38.1754062,-120.0595433,5001.9720281733,40.354332,0,0.036484909304,9400,2018-05-12 20:57:42,13,0,23.658,5001.9720281733,40.354332,0.223694,0.79281826684,0,0,-0.671082,66.8, 0.8, 0.2,0,0,1024,1024,1024,1024,65.9,-89.9,98,3.913,3.929,3.933,3.981,3.97,3.939,20.68,75.2,14,Waypoint,
38.1754062,-120.0595432,5003.9405321733,42.322836,0,0.046408794136,9500,2018-05-12 20:57:42,13,0,23.658,5003.9405321733,42.322836,0.223694,0.79281826684,0,0,-0.671082,66.7, 1.5, -0.1,0,0,1024,1024,1024,1024,65.9,-89.9,98,3.913,3.929,3.933,3.981,3.97,3.939,20.68,75.2,14,Waypoint,
38.1754062,-120.0595432,5004.9247841733,43.307088,0,0.046408794136,9600,2018-05-12 20:57:42,14,0,23.658,5004.9247841733,43.307088,0.223694,0.79281826684,0,0,-0.671082,66.7, 1.9, 0.1,0,0,1024,1024,1024,1024,65.9,-89.9,98,3.913,3.929,3.933,3.981,3.97,3.939,20.68,75.2,14,Waypoint,
38.1754062,-120.0595432,5005.9090361733,44.29134,0,0.046408794136,9700,2018-05-12 20:57:42,14,0,23.658,5005.9090361733,44.29134,0.223694,0.79281826684,0,0,-0.671082,66.7, 2, 0.4,0,0,1024,1024,1024,1024,65.9,-89.9,98,3.913,3.929,3.933,3.981,3.97,3.939,20.68,75.2,14,Waypoint,
38.1754062,-120.0595431,5006.8932881733,45.275592,0,0.067982941808,9800,2018-05-12 20:57:42,14,0,23.658,5006.8932881733,45.275592,0.223694,0.79281826684,0,0,-0.671082,66.6, 2.2, 0,0,0,1024,1024,1024,1024,65.9,-89.9,98,3.913,3.929,3.933,3.981,3.97,3.939,20.68,75.2,14,Waypoint,
38.1754062,-120.059543,5007.8775401733,46.259844,0,0.093460632912,9900,2018-05-12 20:57:42,14,0,23.658,5007.8775401733,46.259844,0.223694,0.79281826684,0,0,-0.671082,66.5, 2, -0.1,0,0,1024,1024,1024,1024,65.9,-89.9,98,3.913,3.929,3.933,3.981,3.97,3.939,20.68,75.2,14,Waypoint,
38.1754062,-120.059543,5008.8617921733,47.244096,0,0.093460632912,10000,2018-05-12 20:57:42,14,0,23.722,5008.8617921733,47.244096,0.223694,0.79281826684,0,0,-0.671082,66.5, 2, -0.2,0,0,1024,1024,1024,1024,65.9,-89.9,98,3.928,3.941,3.939,3.984,3.983,3.944,18.46,75.2,14,Waypoint,
38.1754063,-120.059543,5009.8460441733,48.228348,0,0.08604495026,10100,2018-05-12 20:57:42,14,0,23.722,5009.8460441733,48.228348,0.223694,0.79281826684,0,0,-0.671082,66.4, 2.3, -0.1,0,0,1024,1024,1024,1024,65.9,-89.9,98,3.928,3.941,3.939,3.984,3.983,3.944,18.46,75.2,14,Waypoint,
38.1754064,-120.0595429,5010.8302961733,49.2126,0,0.120388127212,10200,2018-05-12 20:57:42,14,0,23.722,5010.8302961733,49.2126,0.223694,0.79281826684,0,0,-0.671082,66.3, 2.4, 0.1,0,0,1024,1024,1024,1024,65.9,-89.9,98,3.928,3.941,3.939,3.984,3.983,3.944,18.46,75.2,14,Waypoint,
38.1754065,-120.0595428,5012.1426321733,50.524936,0,0.160905188876,10300,2018-05-12 20:57:43,14,0,23.722,5012.1426321733,50.524936,0.223694,0.79281826684,0,0,-0.671082,66.3, 2.5, 0.3,0,0,1024,1024,1024,1024,65.9,-89.9,98,3.928,3.941,3.939,3.984,3.983,3.944,18.46,75.2,14,Waypoint,
38.1754065,-120.0595427,5012.7988001733,51.181104,0,0.18692093774,10410,2018-05-12 20:57:43,14,0,23.722,5012.7988001733,51.181104,0.223694,0.79281826684,0,0,-0.671082,66.4, 2.5, 0,0,0,1024,1024,1024,1024,65.9,-89.9,98,3.928,3.941,3.939,3.984,3.983,3.944,18.46,75.2,14,Waypoint,
38.1754065,-120.0595426,5013.7830521733,52.165356,0.223694,0.21362041366,10500,2018-05-12 20:57:43,14,0,23.722,5013.7830521733,52.165356,0.223694,0.79281826684,0,0,-0.671082,66.5, 2.5, -0.3,0,0,1024,1024,1024,1024,65.9,-89.9,98,3.928,3.941,3.939,3.984,3.983,3.944,18.46,75.2,14,Waypoint,
38.1754065,-120.0595425,5014.7673041733,53.149608,0,0.240776582508,10600,2018-05-12 20:57:43,14,0,23.722,5014.7673041733,53.149608,0.223694,0.79281826684,0,0,-0.671082,66.6, 2.6, -0.6,0,0,1024,1024,1024,1024,65.9,-89.9,98,3.928,3.941,3.939,3.984,3.983,3.944,18.46,75.2,14,Waypoint,
38.1754066,-120.0595424,5016.0796401733,54.461944,0,0.280381570652,10710,2018-05-12 20:57:43,14,0,23.722,5016.0796401733,54.461944,0.223694,0.79281826684,0,0,-0.671082,66.7, 2.8, -0.6,0,0,1024,1024,1024,1024,65.9,-89.9,98,3.928,3.941,3.939,3.984,3.983,3.944,18.46,75.2,14,Waypoint,
38.1754066,-120.0595423,5017.0638921733,55.446196,0,0.306991807724,10800,2018-05-12 20:57:43,14,0,23.722,5017.0638921733,55.446196,0.223694,0.79281826684,0,0,-0.671082,66.8, 2.7, -0.4,0,0,1024,1024,1024,1024,65.9,-89.9,98,3.928,3.941,3.939,3.984,3.983,3.944,18.46,75.2,14,Waypoint,
38.1754066,-120.0595422,5018.0481441733,56.430448,0,0.33394358024,11000,2018-05-12 20:57:43,14,0,23.629,5018.0481441733,56.430448,0.223694,0.79281826684,0,0,-0.671082,66.9, 2.8, -0.1,0,0,1024,1024,1024,1024,65.9,-89.9,98,3.914,3.928,3.915,3.963,3.969,3.914,19.709,75.2,14,Waypoint,
38.1754067,-120.0595422,5019.0323961733,57.4147,0,0.34761812136,11100,2018-05-12 20:57:43,14,0,23.629,5019.0323961733,57.4147,0.223694,0.79281826684,0,0,-0.671082,66.8, 2.3, -0.1,0,0,1024,1024,1024,1024,65.9,-89.9,98,3.914,3.928,3.915,3.963,3.969,3.914,19.709,75.2,14,Waypoint,
38.1754067,-120.0595422,5020.0166481733,58.398952,0,0.34761812136,11200,2018-05-12 20:57:43,14,0,23.629,5020.0166481733,58.398952,0.223694,0.79281826684,0,0,-0.671082,66.9, 2.3, 0,0,0,1024,1024,1024,1024,65.9,-89.9,98,3.914,3.928,3.915,3.963,3.969,3.914,19.709,75.2,14,Waypoint,
38.1754067,-120.0595422,5020.6728161733,59.05512,0,0.34761812136,11300,2018-05-12 20:57:44,14,0,23.629,5020.6728161733,59.05512,0.223694,0.79281826684,0,0,-0.671082,66.9, 2.2, -0.1,0,0,1024,1024,1024,1024,65.9,-89.9,98,3.914,3.928,3.915,3.963,3.969,3.914,19.709,75.2,14,Waypoint,
38.1754067,-120.0595421,5021.6570681733,60.039372,0,0.37384187548,11400,2018-05-12 20:57:44,14,0,23.629,5021.6570681733,60.039372,0.223694,0.79281826684,0,0,-0.671082,67.1, 2.3, -0.1,0,0,1024,1024,1024,1024,65.9,-89.9,98,3.914,3.928,3.915,3.963,3.969,3.914,19.709,75.2,14,Waypoint,
38.1754067,-120.0595421,5022.6413201733,61.023624,0,0.37384187548,11500,2018-05-12 20:57:44,14,0,23.629,5022.6413201733,61.023624,0.223694,0.79281826684,0,0,-0.671082,67.1, 2.4, 0,0,0,1024,1024,1024,1024,65.8,-89.9,98,3.914,3.928,3.915,3.963,3.969,3.914,19.709,75.2,14,Waypoint,
38.1754068,-120.059542,5023.6255721733,62.007876,0,0.41509515764,11600,2018-05-12 20:57:44,14,0,23.629,5023.6255721733,62.007876,0.223694,0.79281826684,0,0,-0.671082,67.1, 2.4, -0.1,0,0,1024,1024,1024,1024,65.9,-89.9,98,3.914,3.928,3.915,3.963,3.969,3.914,19.709,75.2,14,Waypoint,
38.1754068,-120.059542,5024.6098241733,62.992128,0,0.41509515764,11700,2018-05-12 20:57:44,14,0,23.629,5024.6098241733,62.992128,0.223694,0.79281826684,0,0,-0.671082,67, 2.3, -0.3,0,0,1024,1024,1024,1024,65.9,-89.9,98,3.914,3.928,3.915,3.963,3.969,3.914,19.709,75.2,14,Waypoint,
38.1754067,-120.0595419,5026.2502441733,64.632548,0,0.42724082732,11800,2018-05-12 20:57:44,14,0,23.629,5026.2502441733,64.632548,0.223694,0.79281826684,0,0,-0.671082,66.8, 2.1, -0.8,0,0,1024,1024,1024,1024,65.9,-89.9,98,3.914,3.928,3.915,3.963,3.969,3.914,19.709,75.2,14,Waypoint,
38.1754067,-120.0595418,5027.2344961733,65.6168,0,0.45430447648,11900,2018-05-12 20:57:44,14,0,23.629,5027.2344961733,65.6168,0.223694,0.79281826684,0,0,-0.671082,66.7, 2.2, -0.9,0,0,1024,1024,1024,1024,65.9,-89.9,98,3.914,3.928,3.915,3.963,3.969,3.914,19.709,75.2,14,Waypoint,
38.1754067,-120.0595417,5029.2030001733,67.585304,0,0.48155185268,12100,2018-05-12 20:57:44,14,0,23.629,5029.2030001733,67.585304,0.223694,0.79281826684,0,0,-0.671082,66.6, 2.6, -0.5,0,0,1024,1024,1024,1024,65.9,-89.9,98,3.914,3.928,3.915,3.963,3.969,3.914,19.709,75.2,14,Waypoint,
38.1754067,-120.0595417,5030.1872521733,68.569556,0,0.48155185268,12200,2018-05-12 20:57:44,14,0,23.629,5030.1872521733,68.569556,0.223694,0.79281826684,0,0,-0.671082,66.6, 3, -0.5,0,0,1024,1024,1024,1024,65.9,-89.9,98,3.914,3.928,3.915,3.963,3.969,3.914,19.709,75.2,14,Waypoint,
38.1754068,-120.0595416,5031.1715041733,69.553808,0,0.52059712952,12300,2018-05-12 20:57:45,14,0,23.629,5031.1715041733,69.553808,0.223694,0.79281826684,0,0,-0.671082,66.5, 2.9, -0.3,0,0,1024,1024,1024,1024,65.9,-89.9,98,3.914,3.928,3.915,3.963,3.969,3.914,19.709,75.2,14,Waypoint,
38.1754068,-120.0595415,5032.1557561733,70.53806,0,0.54755251096,12400,2018-05-12 20:57:45,14,0,23.629,5032.1557561733,70.53806,0.223694,0.79281826684,0,0,-0.671082,66.3, 3.1, 0.2,0,0,1024,1024,1024,1024,65.9,-89.9,98,3.914,3.928,3.915,3.963,3.969,3.914,19.709,75.2,14,Waypoint,
38.1754068,-120.0595414,5033.1400081733,71.522312,0,0.57467521524,12500,2018-05-12 20:57:45,14,0,23.629,5033.1400081733,71.522312,0.223694,0.79281826684,0,0,-0.671082,66.1, 3, 0.1,0,0,1024,1024,1024,1024,65.9,-89.9,98,3.914,3.928,3.915,3.963,3.969,3.914,19.709,75.2,14,Waypoint,
38.1754068,-120.0595413,5034.1242601733,72.506564,0,0.60194227648,12600,2018-05-12 20:57:45,14,0,23.629,5034.1242601733,72.506564,0.223694,0.79281826684,0,0,-0.671082,66.1, 2.9, -0.3,0,0,1024,1024,1024,1024,65.9,-89.9,98,3.914,3.928,3.915,3.963,3.969,3.914,19.709,75.2,14,Waypoint,
38.1754068,-120.0595412,5035.4365961733,73.8189,0,0.62933400964,12700,2018-05-12 20:57:45,14,0,23.629,5035.4365961733,73.8189,0.223694,0.79281826684,0,0,-0.671082,66.3, 2.9, -0.9,0,0,1024,1024,1024,1024,65.9,-89.9,98,3.914,3.928,3.915,3.963,3.969,3.914,19.709,75.2,14,Waypoint,
38.1754068,-120.0595412,5036.4208481733,74.803152,0,0.62933400964,12800,2018-05-12 20:57:45,14,0,23.629,5036.4208481733,74.803152,0.223694,0.79281826684,0,0,-0.671082,66.6, 3, -1.7,0,0,1024,1024,1024,1024,65.9,-89.9,98,3.914,3.928,3.915,3.963,3.969,3.914,19.709,75.2,14,Waypoint,
38.1754068,-120.0595411,5037.4051001733,75.787404,0,0.65683729136,12910,2018-05-12 20:57:45,14,0,23.629,5037.4051001733,75.787404,0.223694,0.79281826684,0,0,-0.671082,66.9, 2.9, -2.1,0,0,1024,1024,1024,1024,65.9,-90,98,3.914,3.928,3.915,3.963,3.969,3.914,19.709,75.2,14,Waypoint,
38.1754068,-120.0595411,5038.3893521733,76.771656,0,0.65683729136,13000,2018-05-12 20:57:45,14,0,23.517,5038.3893521733,76.771656,0.223694,0.79281826684,0,0,-0.671082,67, 2.4, -2,0,0,1024,1024,1024,1024,65.9,-89.9,98,3.896,3.894,3.899,3.949,3.942,3.896,20.193,75.2,14,Waypoint,
38.1754068,-120.0595411,5039.3736041733,77.755908,0,0.65683729136,13100,2018-05-12 20:57:45,14,0,23.517,5039.3736041733,77.755908,0.223694,0.79281826684,0,0,-0.671082,66.9, 2.7, -1.9,0,0,1024,1024,1024,1024,65.9,-89.9,98,3.896,3.894,3.899,3.949,3.942,3.896,20.193,75.2,14,Waypoint,
38.1754068,-120.059541,5040.0297721733,78.412076,0,0.68443571744,13200,2018-05-12 20:57:45,14,0,23.517,5040.0297721733,78.412076,0.223694,0.79281826684,0,0,-0.671082,66.8, 3.2, -1.1,0,0,1024,1024,1024,1024,65.9,-89.9,98,3.896,3.894,3.899,3.949,3.942,3.896,20.193,75.2,14,Waypoint,
38.1754068,-120.059541,5041.3421081733,79.724412,0,0.68443571744,13300,2018-05-12 20:57:46,14,0,23.517,5041.3421081733,79.724412,0.223694,0.79281826684,0,0,-0.671082,66.7, 3.5, -0.6,0,0,1024,1024,1024,1024,65.9,-89.9,98,3.896,3.894,3.899,3.949,3.942,3.896,20.193,75.2,14,Waypoint,
38.1754068,-120.059541,5042.3263601733,80.708664,0,0.68443571744,13420,2018-05-12 20:57:46,14,0,23.517,5042.3263601733,80.708664,0.223694,0.79281826684,0,0,-0.671082,66.9, 3.4, -0.6,0,0,1024,1024,1024,1024,65.9,-89.9,98,3.896,3.894,3.899,3.949,3.942,3.896,20.193,75.2,14,Waypoint,
38.1754068,-120.059541,5043.3106121733,81.692916,0,0.68443571744,13500,2018-05-12 20:57:46,14,0,23.517,5043.3106121733,81.692916,0.223694,0.79281826684,0,0,-0.671082,67.2, 2.9, -0.9,0,0,1024,1024,1024,1024,65.9,-90,98,3.896,3.894,3.899,3.949,3.942,3.896,20.193,75.2,14,Waypoint,
38.1754068,-120.059541,5043.9667801733,82.349084,0,0.68443571744,13600,2018-05-12 20:57:46,14,0,23.517,5043.9667801733,82.349084,0.223694,0.79281826684,0,0,-0.671082,67.3, 2.6, -0.9,0,0,1024,1024,1024,1024,65.9,-89.9,98,3.896,3.894,3.899,3.949,3.942,3.896,20.193,75.2,14,Waypoint,
38.1754068,-120.059541,5044.9510321733,83.333336,0,0.68443571744,13800,2018-05-12 20:57:46,14,0,23.517,5044.9510321733,83.333336,0.223694,0.79281826684,0,0,-0.671082,67.3, 2.7, -0.8,0,0,1024,1024,1024,1024,65.9,-89.9,98,3.896,3.894,3.899,3.949,3.942,3.896,20.193,75.2,14,Waypoint,
38.1754068,-120.0595409,5045.9352841733,84.317588,0,0.7121227262,13900,2018-05-12 20:57:46,14,0,23.517,5045.9352841733,84.317588,0.223694,0.79281826684,0,0,-0.671082,67.3, 3.1, -0.7,0,0,1024,1024,1024,1024,65.9,-89.9,98,3.896,3.894,3.899,3.949,3.942,3.896,20.193,75.2,14,Waypoint,
38.1754069,-120.0595409,5046.9195361733,85.30184,0,0.72232941944,14000,2018-05-12 20:57:46,14,0,23.419,5046.9195361733,85.30184,0.223694,0.79281826684,0,0,-0.671082,67.1, 3.5, -0.7,0,0,1024,1024,1024,1024,65.9,-89.9,97,3.896,3.894,3.899,3.949,3.942,3.896,20.759,75.2,14,Waypoint,
38.1754069,-120.0595409,5047.9037881733,86.286092,0,0.72232941944,14100,2018-05-12 20:57:46,14,0,23.419,5047.9037881733,86.286092,0.223694,0.79281826684,0,0,-0.671082,67, 3.7, -0.7,0,0,1024,1024,1024,1024,65.9,-89.9,97,3.896,3.894,3.899,3.949,3.942,3.896,20.759,75.2,14,Waypoint,
38.1754069,-120.0595409,5048.8880401733,87.270344,0,0.72232941944,14200,2018-05-12 20:57:46,14,0,23.419,5048.8880401733,87.270344,0.223694,0.79281826684,0,0,-0.671082,66.9, 3.8, -0.5,0,0,1024,1024,1024,1024,65.9,-89.9,97,3.896,3.894,3.899,3.949,3.942,3.896,20.759,75.2,14,Waypoint,
38.1754069,-120.0595408,5049.8722921733,88.254596,0,0.74971131008,14400,2018-05-12 20:57:47,14,0,23.419,5049.8722921733,88.254596,0.223694,0.79281826684,0,0,-0.671082,66.9, 3.7, -0.6,0,0,1024,1024,1024,1024,65.9,-89.9,97,3.896,3.894,3.899,3.949,3.942,3.896,20.759,75.2,14,Waypoint,
38.175407,-120.0595409,5051.8407961733,90.2231,0,0.73420934108,14500,2018-05-12 20:57:47,14,0,23.419,5051.8407961733,90.2231,0.223694,0.79281826684,0,0,-0.671082,67, 3.5, -0.5,0,0,1024,1024,1024,1024,65.9,-89.9,97,3.896,3.894,3.899,3.949,3.942,3.896,20.759,75.2,14,Waypoint,
38.1754071,-120.059541,5052.8250481733,91.207352,0,0.72136485248,14600,2018-05-12 20:57:47,14,0,23.419,5052.8250481733,91.207352,0.223694,0.79281826684,0,0,-0.671082,67.1, 3.3, 0,0,0,1024,1024,1024,1024,65.9,-90,97,3.896,3.894,3.899,3.949,3.942,3.896,20.759,75.2,14,Waypoint,
38.1754072,-120.0595411,5053.8093001733,92.191604,0.223694,0.71132220124,14700,2018-05-12 20:57:47,14,0,23.419,5053.8093001733,92.191604,0.223694,0.79281826684,0,0,-0.671082,67.2, 3, 0.5,0,0,1024,1024,1024,1024,65.9,-90,97,3.896,3.894,3.899,3.949,3.942,3.896,20.759,75.2,14,Waypoint,
38.1754073,-120.0595413,5054.7935521733,93.175856,0.223694,0.67982941808,14800,2018-05-12 20:57:47,14,0,23.419,5054.7935521733,93.175856,0.223694,0.79281826684,0,0,-0.671082,67.3, 2.7, 0.7,0,0,1024,1024,1024,1024,65.9,-90,97,3.896,3.894,3.899,3.949,3.942,3.896,20.759,75.2,14,Waypoint,
38.1754074,-120.0595414,5055.7778041733,94.160108,0.223694,0.6767880794,14900,2018-05-12 20:57:47,14,0,23.419,5055.7778041733,94.160108,0.223694,0.79281826684,0,0,-0.671082,67.3, 2.4, 1,0,0,1024,1024,1024,1024,65.9,-90,97,3.896,3.894,3.899,3.949,3.942,3.896,20.759,75.2,14,Waypoint,
38.1754074,-120.0595416,5056.7620561733,95.14436,0.223694,0.63151576824,15000,2018-05-12 20:57:47,14,0,23.419,5056.7620561733,95.14436,0.223694,0.79281826684,0,0,-0.671082,67.4, 2, 1.1,0,0,1024,1024,1024,1024,65.9,-90,97,3.893,3.897,3.899,3.95,3.943,3.903,20.759,75.2,14,Waypoint,
38.1754075,-120.0595419,5058.7305601733,97.112864,0,0.59407154132,15200,2018-05-12 20:57:47,14,0,23.419,5058.7305601733,97.112864,0.223694,0.79281826684,0,0,-0.671082,67.4, 1.8, 1.3,0,0,1024,1024,1024,1024,65.9,-90,97,3.893,3.897,3.899,3.95,3.943,3.903,20.759,75.2,14,Waypoint,
38.1754076,-120.0595421,5060.6990641733,99.081368,0,0.5860236408,15400,2018-05-12 20:57:48,14,0,23.419,5060.6990641733,99.081368,0.223694,0.79281826684,0,0,-0.671082,67.1, 1.5, 1.4,0,0,1024,1024,1024,1024,65.9,-90,97,3.893,3.897,3.899,3.95,3.943,3.903,20.759,75.2,14,Waypoint,
38.1754076,-120.0595422,5061.6833161733,100.06562,0,0.5696522492,15600,2018-05-12 20:57:48,14,0,23.419,5061.6833161733,100.06562,0.223694,0.79281826684,0,0,-0.671082,66.9, 1.7, 0.9,0,0,1024,1024,1024,1024,65.9,-90,97,3.893,3.897,3.899,3.95,3.943,3.903,20.759,75.2,14,Waypoint,
38.1754076,-120.0595423,5063.6518201733,102.034124,0,0.5542815138,15700,2018-05-12 20:57:48,14,0,23.419,5063.6518201733,102.034124,0.223694,0.79281826684,0,0,-0.671082,66.6, 2.4, 0.8,0,0,1024,1024,1024,1024,65.9,-89.9,97,3.893,3.897,3.899,3.95,3.943,3.903,20.759,75.2,14,Waypoint,
38.1754076,-120.0595423,5064.6360721733,103.018376,0,0.5542815138,15900,2018-05-12 20:57:48,14,0,23.419,5064.6360721733,103.018376,0.223694,0.79281826684,0,0,-0.671082,66.7, 2.6, 0.6,0,0,1024,1024,1024,1024,65.9,-89.9,97,3.893,3.897,3.899,3.95,3.943,3.903,20.759,75.2,14,Waypoint,
38.1754075,-120.0595423,5065.6203241733,104.002628,0,0.52340224772,16000,2018-05-12 20:57:48,14,0,23.355,5065.6203241733,104.002628,0.223694,0.79281826684,0,0,-0.671082,66.8, 2.6, 0.2,0,0,1024,1024,1024,1024,65.9,-90,97,3.873,3.882,3.876,3.928,3.942,3.879,21.334,75.2,14,Waypoint,
38.1754074,-120.0595423,5067.5888281733,105.971132,0,0.49328741736,16100,2018-05-12 20:57:48,14,0,23.355,5067.5888281733,105.971132,0.223694,0.79281826684,0,0,-0.671082,66.7, 2.5, -0.4,0,0,1024,1024,1024,1024,65.9,-90,97,3.873,3.882,3.876,3.928,3.942,3.879,21.334,75.2,14,Waypoint,
38.1754074,-120.0595424,5068.5730801733,106.955384,0,0.4771817738,16200,2018-05-12 20:57:48,14,0,23.355,5068.5730801733,106.955384,0.223694,0.79281826684,0,0,-0.671082,66.7, 2.4, -0.7,0,0,1024,1024,1024,1024,65.9,-90,97,3.873,3.882,3.876,3.928,3.942,3.879,21.334,75.2,14,Waypoint,
38.1754073,-120.0595424,5069.5573321733,107.939636,0,0.446932429,16300,2018-05-12 20:57:49,14,0,23.355,5069.5573321733,107.939636,0.223694,0.79281826684,0,0,-0.671082,66.7, 2.2, -0.6,0,0,1024,1024,1024,1024,65.9,-90,97,3.873,3.882,3.876,3.928,3.942,3.879,21.334,75.2,14,Waypoint,
38.1754073,-120.0595425,5070.5415841733,108.923888,0,0.4310039508,16400,2018-05-12 20:57:49,14,0,23.355,5070.5415841733,108.923888,0.223694,0.79281826684,0,0,-0.671082,66.7, 2.4, -0.5,0,0,1024,1024,1024,1024,65.9,-90,97,3.873,3.882,3.876,3.928,3.942,3.879,21.334,75.2,14,Waypoint,
38.1754072,-120.0595426,5072.5100881733,110.892392,0,0.38487862124,16600,2018-05-12 20:57:49,14,0,23.355,5072.5100881733,110.892392,0.223694,0.79281826684,0,0,-0.671082,66.8, 2.2, -0.6,0,0,1024,1024,1024,1024,65.9,-90,97,3.873,3.882,3.876,3.928,3.942,3.879,21.334,75.2,14,Waypoint,
38.1754071,-120.0595426,5073.4943401733,111.876644,0,0.3542651032,16700,2018-05-12 20:57:49,14,0,23.355,5073.4943401733,111.876644,0.223694,0.79281826684,0,0,-0.671082,66.9, 2.1, -0.7,0,0,1024,1024,1024,1024,65.9,-90,97,3.873,3.882,3.876,3.928,3.942,3.879,21.334,75.2,14,Waypoint,
38.1754071,-120.0595427,5074.4785921733,112.860896,0,0.33883531268,16800,2018-05-12 20:57:49,14,0,23.355,5074.4785921733,112.860896,0.223694,0.79281826684,0,0,-0.671082,66.9, 2, -0.4,0,0,1024,1024,1024,1024,65.9,-90,97,3.873,3.882,3.876,3.928,3.942,3.879,21.334,75.2,14,Waypoint,
38.1754071,-120.0595428,5076.7751801733,115.157484,0,0.325207031404,16900,2018-05-12 20:57:49,14,0,23.355,5076.7751801733,115.157484,0.223694,0.79281826684,0,0,-0.671082,67, 2, -0.2,0,0,1024,1024,1024,1024,65.9,-90,97,3.873,3.882,3.876,3.928,3.942,3.879,21.334,75.2,14,Waypoint,
38.1754071,-120.0595428,5077.7594321733,116.141736,0,0.325207031404,17000,2018-05-12 20:57:49,14,0,23.475,5077.7594321733,116.141736,0.223694,0.79281826684,0,0,-0.671082,67, 2.2, -0.2,0,0,1024,1024,1024,1024,65.9,-89.9,97,3.9,3.9,3.888,3.945,3.94,3.889,19.402,75.2,14,Waypoint,
38.1754071,-120.0595429,5078.7436841733,117.125988,0,0.313617464104,17100,2018-05-12 20:57:49,14,0,23.475,5078.7436841733,117.125988,0.223694,0.79281826684,0,0,-0.671082,67, 2.1, -0.2,0,0,1024,1024,1024,1024,65.9,-90,97,3.9,3.9,3.888,3.945,3.94,3.889,19.402,75.2,14,Waypoint,
38.1754071,-120.0595429,5079.7279361733,118.11024,0,0.313617464104,17200,2018-05-12 20:57:49,14,0,23.475,5079.7279361733,118.11024,0.223694,0.79281826684,0,0,-0.671082,66.9, 2.1, -0.1,0,0,1024,1024,1024,1024,65.9,-89.9,97,3.9,3.9,3.888,3.945,3.94,3.889,19.402,75.2,14,Waypoint,
38.1754071,-120.0595429,5080.7121881733,119.094492,0,0.313617464104,17300,2018-05-12 20:57:50,14,0,23.475,5080.7121881733,119.094492,0.223694,0.79281826684,0,0,-0.671082,66.9, 2.4, 0,0,0,1024,1024,1024,1024,65.9,-89.9,97,3.9,3.9,3.888,3.945,3.94,3.889,19.402,75.2,14,Waypoint,
38.1754071,-120.0595429,5081.6964401733,120.078744,0,0.313617464104,17400,2018-05-12 20:57:50,14,0,23.475,5081.6964401733,120.078744,0.223694,0.79281826684,0,0,-0.671082,66.8, 2.4, 0.1,0,0,1024,1024,1024,1024,65.9,-89.9,97,3.9,3.9,3.888,3.945,3.94,3.889,19.402,75.2,14,Waypoint,
38.1754071,-120.059543,5082.6806921733,121.062996,0,0.304298238084,17500,2018-05-12 20:57:50,14,0,23.475,5082.6806921733,121.062996,0.223694,0.79281826684,0,0,-0.671082,66.8, 2.6, 0.1,0,0,1024,1024,1024,1024,65.9,-89.9,97,3.9,3.9,3.888,3.945,3.94,3.889,19.402,75.2,14,Waypoint,
38.1754071,-120.059543,5083.6649441733,122.047248,0,0.304298238084,17600,2018-05-12 20:57:50,14,0,23.475,5083.6649441733,122.047248,0.223694,0.79281826684,0,0,-0.671082,66.8, 2.7, 0.1,0,0,1024,1024,1024,1024,65.9,-89.9,97,3.9,3.9,3.888,3.945,3.94,3.889,19.402,75.2,14,Waypoint,
38.175407,-120.059543,5084.6491961733,123.0315,0,0.26949968054,17700,2018-05-12 20:57:50,14,0,23.475,5084.6491961733,123.0315,0.223694,0.79281826684,0,0,-0.671082,66.8, 2.6, 0,0,0,1024,1024,1024,1024,65.9,-89.9,97,3.9,3.9,3.888,3.945,3.94,3.889,19.402,75.2,14,Waypoint,
38.175407,-120.059543,5085.6334481733,124.015752,0,0.26949968054,17800,2018-05-12 20:57:50,14,0,23.475,5085.6334481733,124.015752,0.223694,0.79281826684,0,0,-0.671082,66.9, 2.5, -0.2,0,0,1024,1024,1024,1024,65.9,-90,97,3.9,3.9,3.888,3.945,3.94,3.889,19.402,75.2,14,Waypoint,
38.175407,-120.059543,5086.6177001733,125.000004,0,0.26949968054,17900,2018-05-12 20:57:50,14,0,23.475,5086.6177001733,125.000004,0.223694,0.79281826684,0,0,-0.671082,66.9, 2.4, -0.6,0,0,1024,1024,1024,1024,65.9,-90,97,3.9,3.9,3.888,3.945,3.94,3.889,19.402,75.2,14,Waypoint,
38.1754069,-120.059543,5087.6019521733,125.984256,0,0.235212934036,18000,2018-05-12 20:57:50,14,0,23.442,5087.6019521733,125.984256,0.223694,0.79281826684,0,0,-0.671082,66.7, 2.2, -0.8,0,0,1024,1024,1024,1024,65.9,-90,97,3.892,3.888,3.894,3.936,3.933,3.899,19.881,75.2,14,Waypoint,
38.1754069,-120.0595431,5088.5862041733,126.968508,0,0.226300532176,18100,2018-05-12 20:57:50,14,0,23.442,5088.5862041733,126.968508,0.223694,0.79281826684,0,0,-0.671082,66.6, 2.3, -0.4,0,0,1024,1024,1024,1024,65.9,-89.9,97,3.892,3.888,3.894,3.936,3.933,3.899,19.881,75.2,14,Waypoint,
38.1754069,-120.0595431,5089.5704561733,127.95276,0,0.226300532176,18200,2018-05-12 20:57:50,14,0,23.442,5089.5704561733,127.95276,0.223694,0.79281826684,0,0,-0.671082,66.5, 2.4, -0.1,0,0,1024,1024,1024,1024,65.9,-90,97,3.892,3.888,3.894,3.936,3.933,3.899,19.881,75.2,14,Waypoint,
38.1754069,-120.0595431,5090.5547081733,128.937012,0,0.226300532176,18300,2018-05-12 20:57:51,14,0,23.442,5090.5547081733,128.937012,0.223694,0.79281826684,0,0,-0.671082,66.4, 2.4, -0.1,0,0,1024,1024,1024,1024,65.9,-90,97,3.892,3.888,3.894,3.936,3.933,3.899,19.881,75.2,14,Waypoint,
38.1754069,-120.059543,5091.5389601733,129.921264,0,0.235212934036,18410,2018-05-12 20:57:51,14,0,23.442,5091.5389601733,129.921264,0.223694,0.79281826684,0,0,-0.671082,66.4, 2.2, -0.1,0,0,1024,1024,1024,1024,65.9,-90,97,3.892,3.888,3.894,3.936,3.933,3.899,19.881,75.2,14,Waypoint,
38.1754069,-120.059543,5092.5232121733,130.905516,0,0.235212934036,18510,2018-05-12 20:57:51,14,0,23.442,5092.5232121733,130.905516,0.223694,0.79281826684,0,0,-0.671082,66.6, 2.1, 0,0,0,1024,1024,1024,1024,65.9,-89.9,97,3.892,3.888,3.894,3.936,3.933,3.899,19.881,75.2,14,Waypoint,
38.1754069,-120.059543,5093.5074641733,131.889768,0,0.235212934036,18610,2018-05-12 20:57:51,14,0,23.442,5093.5074641733,131.889768,0.223694,0.79281826684,0,0,-0.671082,66.7, 2.6, 0,0,0,1024,1024,1024,1024,65.9,-89.9,97,3.892,3.888,3.894,3.936,3.933,3.899,19.881,75.2,14,Waypoint,
38.1754069,-120.0595429,5094.4917161733,132.87402,0,0.247150926544,18800,2018-05-12 20:57:51,14,0,23.442,5094.4917161733,132.87402,0.223694,0.79281826684,0,0,-0.671082,66.8, 2.9, -0.1,0,0,1024,1024,1024,1024,65.9,-89.9,97,3.892,3.888,3.894,3.936,3.933,3.899,19.881,75.2,14,Waypoint,
38.1754069,-120.0595429,5095.4759681733,133.858272,0,0.247150926544,18900,2018-05-12 20:57:51,14,0,23.442,5095.4759681733,133.858272,0.223694,0.79281826684,0,0,-0.671082,66.8, 2.9, -0.1,0,0,1024,1024,1024,1024,65.9,-89.9,97,3.892,3.888,3.894,3.936,3.933,3.899,19.881,75.2,14,Waypoint,
38.175407,-120.0595428,5096.4602201733,134.842524,0,0.292903224596,19000,2018-05-12 20:57:51,14,0,23.518,5096.4602201733,134.842524,0.223694,0.79281826684,0,0,-0.671082,66.9, 3.1, -0.1,0,0,1024,1024,1024,1024,65.9,-89.9,97,3.899,3.901,3.912,3.943,3.951,3.918,18.227,75.2,14,Waypoint,
38.175407,-120.0595427,5097.4444721733,135.826776,0,0.307963264448,19100,2018-05-12 20:57:51,14,0,23.518,5097.4444721733,135.826776,0.223694,0.79281826684,0,0,-0.671082,66.8, 3.3, 0,0,0,1024,1024,1024,1024,65.9,-89.9,97,3.899,3.901,3.912,3.943,3.951,3.918,18.227,75.2,14,Waypoint,
38.175407,-120.0595426,5098.7568081733,137.139112,0,0.32486221512,19200,2018-05-12 20:57:51,14,0,23.518,5098.7568081733,137.139112,0.223694,0.79281826684,0,0,-0.671082,66.7, 3.7, 0,0,0,1024,1024,1024,1024,65.9,-89.9,97,3.899,3.901,3.912,3.943,3.951,3.918,18.227,75.2,14,Waypoint,
38.1754071,-120.0595425,5099.7410601733,138.123364,0.223694,0.37126969692,19300,2018-05-12 20:57:52,14,0,23.518,5099.7410601733,138.123364,0.223694,0.79281826684,0,0,-0.671082,66.6, 3.9, -0.1,0,0,1024,1024,1024,1024,65.9,-89.9,97,3.899,3.901,3.912,3.943,3.951,3.918,18.227,75.2,14,Waypoint,
38.1754071,-120.0595424,5101.0533961733,139.4357,0,0.3896489626,19400,2018-05-12 20:57:52,14,0,23.518,5101.0533961733,139.4357,0.223694,0.79281826684,0,0,-0.671082,66.6, 4.4, -0.3,0,0,1024,1024,1024,1024,65.9,-89.9,97,3.899,3.901,3.912,3.943,3.951,3.918,18.227,75.2,14,Waypoint,
38.1754072,-120.0595422,5103.0219001733,141.404204,0,0.45537074948,19500,2018-05-12 20:57:52,14,0,23.518,5103.0219001733,141.404204,0.223694,0.79281826684,0,0,-0.671082,66.9, 4.7, -0.4,0,0,1024,1024,1024,1024,65.9,-89.9,97,3.899,3.901,3.912,3.943,3.951,3.918,18.227,75.2,14,Waypoint,
38.1754072,-120.0595421,5103.6780681733,142.060372,0,0.47569227244,19600,2018-05-12 20:57:52,14,0,23.518,5103.6780681733,142.060372,0.223694,0.79281826684,0,0,-0.671082,67.1, 4.2, -0.5,0,0,1024,1024,1024,1024,65.9,-90,97,3.899,3.901,3.912,3.943,3.951,3.918,18.227,75.2,14,Waypoint,
38.1754072,-120.059542,5104.6623201733,143.044624,0,0.49683728624,19700,2018-05-12 20:57:52,14,0,23.518,5104.6623201733,143.044624,0.223694,0.79281826684,0,0,-0.671082,67.4, 3.8, -0.3,0,0,1024,1024,1024,1024,65.9,-90,97,3.899,3.901,3.912,3.943,3.951,3.918,18.227,75.2,14,Waypoint,
38.1754073,-120.059542,5105.6465721733,144.028876,0,0.5216699642,19800,2018-05-12 20:57:52,14,0,23.518,5105.6465721733,144.028876,0.223694,0.79281826684,0,0,-0.671082,67.8, 3.3, -0.2,0,0,1024,1024,1024,1024,65.9,-89.9,97,3.899,3.901,3.912,3.943,3.951,3.918,18.227,75.2,14,Waypoint,
38.1754074,-120.0595421,5106.6308241733,145.013128,0,0.52870408516,19900,2018-05-12 20:57:52,14,0,23.518,5106.6308241733,145.013128,0.223694,0.79281826684,0,0,-0.671082,68, 3.6, 0.3,0,0,1024,1024,1024,1024,65.9,-89.9,97,3.899,3.901,3.912,3.943,3.951,3.918,18.227,75.2,14,Waypoint,
38.1754075,-120.0595421,5107.2869921733,145.669296,0,0.5569061858,20000,2018-05-12 20:57:52,14,0,23.532,5107.2869921733,145.669296,0.223694,0.79281826684,0,0,-0.671082,68.1, 3.4, 1.4,0,0,1024,1024,1024,1024,65.9,-90,97,3.896,3.902,3.905,3.951,3.95,3.906,18.133,75.2,14,Waypoint,
38.1754076,-120.0595421,5108.2712441733,146.653548,0,0.5860236408,20100,2018-05-12 20:57:52,14,0,23.532,5108.2712441733,146.653548,0.223694,0.79281826684,0,0,-0.671082,67.8, 3.1, 2,0,0,1024,1024,1024,1024,65.9,-89.9,97,3.896,3.902,3.905,3.951,3.95,3.906,18.133,75.2,14,Waypoint,
38.1754077,-120.0595421,5108.9274121733,147.309716,0,0.61592521656,20200,2018-05-12 20:57:52,14,0,23.532,5108.9274121733,147.309716,0.223694,0.79281826684,0,0,-0.671082,67, 3.6, 2.5,0,0,1024,1024,1024,1024,65.9,-89.9,97,3.896,3.902,3.905,3.951,3.95,3.906,18.133,75.2,14,Waypoint,
38.1754077,-120.0595421,5109.9116641733,148.293968,0,0.61592521656,20300,2018-05-12 20:57:53,14,0,23.532,5109.9116641733,148.293968,0.223694,0.79281826684,0,0,-0.671082,66.3, 3.6, 2.2,0,0,1024,1024,1024,1024,65.9,-90,97,3.896,3.902,3.905,3.951,3.95,3.906,18.133,75.2,14,Waypoint,
38.1754078,-120.0595421,5110.8959161733,149.27822,0,0.6465059262,20400,2018-05-12 20:57:53,14,0,23.532,5110.8959161733,149.27822,0.223694,0.79281826684,0,0,-0.671082,65.9, 3.4, 1.8,0,0,1024,1024,1024,1024,65.9,-90,97,3.896,3.902,3.905,3.951,3.95,3.906,18.133,75.2,14,Waypoint,
38.1754078,-120.0595422,5111.8801681733,150.262472,0,0.63170277612,20500,2018-05-12 20:57:53,14,0,23.532,5111.8801681733,150.262472,0.223694,0.79281826684,0,0,-0.671082,65.9, 3.2, 1.5,0,0,1024,1024,1024,1024,65.9,-89.9,97,3.896,3.902,3.905,3.951,3.95,3.906,18.133,75.2,14,Waypoint,
38.1754078,-120.0595421,5112.8644201733,151.246724,0,0.6465059262,20600,2018-05-12 20:57:53,14,0,23.532,5112.8644201733,151.246724,0.223694,0.79281826684,0,0,-0.671082,66.1, 3.3, 1.2,0,0,1024,1024,1024,1024,65.9,-89.9,97,3.896,3.902,3.905,3.951,3.95,3.906,18.133,75.2,14,Waypoint,
38.1754079,-120.059542,5113.5205881733,151.902892,0,0.69267718752,20700,2018-05-12 20:57:53,14,0,23.532,5113.5205881733,151.902892,0.223694,0.79281826684,0,0,-0.671082,66.2, 3.7, 1,0,0,1024,1024,1024,1024,65.9,-89.9,97,3.896,3.902,3.905,3.951,3.95,3.906,18.133,75.2,14,Waypoint,
38.1754079,-120.0595418,5115.4890921733,153.871396,0,0.72516734604,20900,2018-05-12 20:57:53,14,0,23.532,5115.4890921733,153.871396,0.223694,0.79281826684,0,0,-0.671082,66.6, 5, 0.2,0,0,1024,1024,1024,1024,65.9,-89.9,97,3.896,3.902,3.905,3.951,3.95,3.906,18.133,75.2,14,Waypoint,
38.1754079,-120.0595417,5116.4733441733,154.855648,0,0.74254267468,21000,2018-05-12 20:57:53,14,0,23.584,5116.4733441733,154.855648,0.223694,0.79281826684,0,0,-0.671082,66.8, 5.2, 0.1,0,0,1024,1024,1024,1024,65.9,-89.9,97,3.931,3.936,3.94,3.979,3.982,3.944,17.415,77,14,Waypoint,
38.1754079,-120.0595416,5117.4575961733,155.8399,0,0.76060369888,21100,2018-05-12 20:57:53,14,0,23.584,5117.4575961733,155.8399,0.223694,0.79281826684,0,0,-0.671082,66.9, 5.1, 0.2,0,0,1024,1024,1024,1024,65.9,-89.9,97,3.931,3.936,3.94,3.979,3.982,3.944,17.415,77,14,Waypoint,
38.1754079,-120.0595415,5118.4418481733,156.824152,0,0.77930120604,21300,2018-05-12 20:57:54,14,0,23.584,5118.4418481733,156.824152,0.223694,0.79281826684,0,0,-0.671082,66.9, 5.2, 0.1,0,0,1024,1024,1024,1024,65.9,-89.9,97,3.931,3.936,3.94,3.979,3.982,3.944,17.415,77,14,Waypoint,
38.1754079,-120.0595414,5120.4103521733,158.792656,0,0.7985892644,21410,2018-05-12 20:57:54,14,0,23.584,5120.4103521733,158.792656,0.223694,0.7985892644,0,0,-0.671082,66.8, 5, -0.5,0,0,1024,1024,1024,1024,65.9,-89.9,97,3.931,3.936,3.94,3.979,3.982,3.944,17.415,77,14,Waypoint,
38.1754079,-120.0595414,5120.4103521733,158.792656,0,0.7985892644,21500,2018-05-12 20:57:54,14,0,23.584,5120.4103521733,158.792656,0.223694,0.7985892644,0,0,-0.671082,66.8, 5, -0.5,0,0,1024,1024,1024,1024,65.9,-89.9,97,3.931,3.936,3.94,3.979,3.982,3.944,17.415,77,14,Waypoint,
38.1754079,-120.0595413,5121.7226881733,160.104992,0,0.81843178472,21600,2018-05-12 20:57:54,14,0,23.584,5121.7226881733,160.104992,0.223694,0.81843178472,0,0,-0.671082,66.7, 5.3, -0.4,0,0,1024,1024,1024,1024,65.9,-89.9,97,3.931,3.936,3.94,3.979,3.982,3.944,17.415,77,14,Waypoint,
38.1754078,-120.0595412,5122.7069401733,161.089244,0,0.813812362,21700,2018-05-12 20:57:54,14,0,23.584,5122.7069401733,161.089244,0.223694,0.81843178472,0,0,-0.671082,66.7, 5.2, -0.3,0,0,1024,1024,1024,1024,65.9,-89.9,97,3.931,3.936,3.94,3.979,3.982,3.944,17.415,77,14,Waypoint,
38.1754078,-120.0595412,5123.6911921733,162.073496,0,0.813812362,21800,2018-05-12 20:57:54,14,0,23.584,5123.6911921733,162.073496,0.223694,0.81843178472,0,0,-0.671082,66.8, 5.2, -0.4,0,0,1024,1024,1024,1024,65.9,-89.9,97,3.931,3.936,3.94,3.979,3.982,3.944,17.415,77,14,Waypoint,
38.1754078,-120.0595412,5124.6754441733,163.057748,0,0.813812362,21900,2018-05-12 20:57:54,15,0,23.584,5124.6754441733,163.057748,0.223694,0.81843178472,0,0,-0.671082,66.7, 4.8, -0.2,0,0,1024,1024,1024,1024,65.9,-90,97,3.931,3.936,3.94,3.979,3.982,3.944,17.415,77,14,Waypoint,
38.1754077,-120.0595412,5126.6439481733,165.026252,0,0.78973755808,22000,2018-05-12 20:57:54,15,0,23.417,5126.6439481733,165.026252,0.223694,0.81843178472,0,0,-0.671082,66.6, 4.5, 0,0,0,1024,1024,1024,1024,65.9,-89.9,97,3.879,3.887,3.881,3.936,3.924,3.883,19.629,77,14,Waypoint,
38.1754077,-120.0595412,5127.6282001733,166.010504,0,0.78973755808,22100,2018-05-12 20:57:54,15,0,23.417,5127.6282001733,166.010504,0.223694,0.81843178472,0,0,-0.671082,66.6, 4.7, -0.1,0,0,1024,1024,1024,1024,65.9,-89.9,97,3.879,3.887,3.881,3.936,3.924,3.883,19.629,77,14,Waypoint,
38.1754076,-120.0595412,5128.6124521733,166.994756,0,0.76664700616,22200,2018-05-12 20:57:54,15,0,23.417,5128.6124521733,166.994756,0.223694,0.81843178472,0,0,-0.671082,66.5, 5, -0.3,0,0,1024,1024,1024,1024,65.9,-89.9,97,3.879,3.887,3.881,3.936,3.924,3.883,19.629,77,14,Waypoint,
38.1754076,-120.0595411,5129.9247881733,168.307092,0,0.78937994652,22300,2018-05-12 20:57:55,15,0,23.417,5129.9247881733,168.307092,0.223694,0.81843178472,0,0,-0.671082,66.7, 5.3, -0.4,0,0,1024,1024,1024,1024,65.9,-89.9,97,3.879,3.887,3.881,3.936,3.924,3.883,19.629,77,14,Waypoint,
38.1754076,-120.059541,5130.9090401733,169.291344,0,0.81249018348,22400,2018-05-12 20:57:55,15,0,23.417,5130.9090401733,169.291344,0.223694,0.81843178472,0,0,-0.671082,66.9, 5.9, -0.4,0,0,1024,1024,1024,1024,65.9,-89.9,97,3.879,3.887,3.881,3.936,3.924,3.883,19.629,77,14,Waypoint,
38.1754075,-120.0595409,5131.8932921733,170.275596,0,0.8157972702,22500,2018-05-12 20:57:55,15,0,23.417,5131.8932921733,170.275596,0.223694,0.81843178472,0,0,-0.671082,67, 6.3, -0.6,0,0,1024,1024,1024,1024,65.9,-89.9,97,3.879,3.887,3.881,3.936,3.924,3.883,19.629,77,14,Waypoint,
38.1754075,-120.0595409,5132.8775441733,171.259848,0,0.8157972702,22600,2018-05-12 20:57:55,15,0,23.417,5132.8775441733,171.259848,0.223694,0.81843178472,0,0,-0.671082,67.1, 6.2, -1,0,0,1024,1024,1024,1024,65.9,-89.9,97,3.879,3.887,3.881,3.936,3.924,3.883,19.629,77,14,Waypoint,
38.1754074,-120.0595408,5133.8617961733,172.2441,0,0.82171590556,22700,2018-05-12 20:57:55,15,0,23.417,5133.8617961733,172.2441,0.223694,0.82171590556,0,0,-0.671082,67.1, 6.1, -1.1,0,0,1024,1024,1024,1024,65.9,-89.9,97,3.879,3.887,3.881,3.936,3.924,3.883,19.629,77,14,Waypoint,
38.1754074,-120.0595408,5134.8460481733,173.228352,0,0.82171590556,22800,2018-05-12 20:57:55,15,0,23.417,5134.8460481733,173.228352,0.223694,0.82171590556,0,0,-0.671082,67.1, 5.8, -1,0,0,1024,1024,1024,1024,65.9,-90,97,3.879,3.887,3.881,3.936,3.924,3.883,19.629,77,14,Waypoint,
38.1754073,-120.0595408,5135.8303001733,174.212604,0,0.8045275848,22900,2018-05-12 20:57:55,15,0,23.417,5135.8303001733,174.212604,0.223694,0.82171590556,0,0,-0.671082,67, 5.6, -0.8,0,0,1024,1024,1024,1024,65.9,-90,97,3.879,3.887,3.881,3.936,3.924,3.883,19.629,77,14,Waypoint,
38.1754073,-120.0595408,5136.4864681733,174.868772,0,0.8045275848,23000,2018-05-12 20:57:55,15,0,23.401,5136.4864681733,174.868772,0.223694,0.82171590556,0,0,-0.671082,66.9, 5.5, -0.7,0,0,1024,1024,1024,1024,65.9,-90,97,3.883,3.896,3.868,3.942,3.924,3.884,19.406,77,14,Waypoint,
38.1754073,-120.0595409,5137.4707201733,175.853024,0,0.77907154724,23100,2018-05-12 20:57:55,15,0,23.401,5137.4707201733,175.853024,0.223694,0.82171590556,0,0,-0.671082,66.8, 5.1, -0.7,0,0,1024,1024,1024,1024,65.9,-90,97,3.883,3.896,3.868,3.942,3.924,3.884,19.406,77,14,Waypoint,
38.1754072,-120.0595409,5138.4549721733,176.837276,0,0.76266734724,23200,2018-05-12 20:57:55,15,0,23.401,5138.4549721733,176.837276,0.223694,0.82171590556,0,0,-0.671082,66.8, 5, -0.9,0,0,1024,1024,1024,1024,65.9,-90,97,3.883,3.896,3.868,3.942,3.924,3.884,19.406,77,14,Waypoint,
38.1754072,-120.059541,5140.4234761733,178.80578,0,0.73688322568,23410,2018-05-12 20:57:56,15,0,23.401,5140.4234761733,178.80578,0.223694,0.82171590556,0,0,-0.671082,66.7, 4.9, -0.7,0,0,1024,1024,1024,1024,65.9,-90,97,3.883,3.896,3.868,3.942,3.924,3.884,19.406,77,14,Waypoint,
38.1754071,-120.0595411,5142.3919801733,180.774284,0,0.69523296188,23600,2018-05-12 20:57:56,15,0,23.401,5142.3919801733,180.774284,0.223694,0.82171590556,0,0,-0.671082,66.4, 4.7, 0,0,0,1024,1024,1024,1024,65.9,-90,97,3.883,3.896,3.868,3.942,3.924,3.884,19.406,77,14,Waypoint,
38.1754071,-120.0595412,5143.3762321733,181.758536,0,0.66931104504,23800,2018-05-12 20:57:56,15,0,23.401,5143.3762321733,181.758536,0.223694,0.82171590556,0,0,-0.671082,66.4, 4.6, 0.1,0,0,1024,1024,1024,1024,65.9,-90,97,3.883,3.896,3.868,3.942,3.924,3.884,19.406,77,14,Waypoint,
38.1754071,-120.0595413,5144.6885681733,183.070872,0,0.64362206784,23900,2018-05-12 20:57:56,15,0,23.401,5144.6885681733,183.070872,0.223694,0.82171590556,0,0,-0.671082,66.5, 4.6, 0,0,0,1024,1024,1024,1024,65.9,-90,97,3.883,3.896,3.868,3.942,3.924,3.884,19.406,77,14,Waypoint,
38.175407,-120.0595414,5145.6728201733,184.055124,0,0.60182744708,24000,2018-05-12 20:57:56,15,0,23.535,5145.6728201733,184.055124,0.223694,0.82171590556,0,0,-0.671082,66.7, 4.4, -0.2,0,0,1024,1024,1024,1024,65.9,-90,96,3.896,3.924,3.89,3.944,3.945,3.903,17.563,77,14,Waypoint,
38.175407,-120.0595414,5146.6570721733,185.039376,0,0.60182744708,24100,2018-05-12 20:57:56,15,0,23.535,5146.6570721733,185.039376,0.223694,0.82171590556,0,0,-0.671082,66.9, 4.4, -0.8,0,0,1024,1024,1024,1024,65.9,-90,96,3.896,3.924,3.89,3.944,3.945,3.903,17.563,77,14,Waypoint,
38.1754069,-120.0595415,5147.6413241733,186.023628,0,0.56076445364,24200,2018-05-12 20:57:56,15,0,23.535,5147.6413241733,186.023628,0.223694,0.82171590556,0,0,-0.671082,66.9, 4.2, -1.1,0,0,1024,1024,1024,1024,65.9,-90,96,3.896,3.924,3.89,3.944,3.945,3.903,17.563,77,14,Waypoint,
38.1754069,-120.0595415,5148.6255761733,187.00788,0,0.56076445364,24300,2018-05-12 20:57:57,15,0,23.535,5148.6255761733,187.00788,0.223694,0.82171590556,0,0,-0.671082,67, 4.1, -1.2,0,0,1024,1024,1024,1024,65.9,-90,96,3.896,3.924,3.89,3.944,3.945,3.903,17.563,77,14,Waypoint,
38.1754069,-120.0595417,5150.5940801733,188.976384,0,0.50844489816,24400,2018-05-12 20:57:57,15,0,23.535,5150.5940801733,188.976384,0.223694,0.82171590556,0,0,-0.671082,66.9, 4.2, -0.4,0,0,1024,1024,1024,1024,65.9,-89.9,96,3.896,3.924,3.89,3.944,3.945,3.903,17.563,77,14,Waypoint,
38.175407,-120.0595417,5151.5783321733,189.960636,0,0.52518702468,24500,2018-05-12 20:57:57,15,0,23.535,5151.5783321733,189.960636,0.223694,0.82171590556,0,0,-0.671082,66.9, 4.5, -0.1,0,0,1024,1024,1024,1024,65.9,-89.9,96,3.896,3.924,3.89,3.944,3.945,3.903,17.563,77,14,Waypoint,
38.175407,-120.0595418,5152.5625841733,190.944888,0,0.50031825748,24600,2018-05-12 20:57:57,15,0,23.535,5152.5625841733,190.944888,0.223694,0.82171590556,0,0,-0.671082,67, 4.7, 0,0,0,1024,1024,1024,1024,65.9,-89.9,96,3.896,3.924,3.89,3.944,3.945,3.903,17.563,77,14,Waypoint,
38.1754071,-120.0595418,5153.5468361733,191.92914,0,0.51989174892,24700,2018-05-12 20:57:57,15,0,23.535,5153.5468361733,191.92914,0.223694,0.82171590556,0,0,-0.671082,67.1, 5, 0.5,0,0,1024,1024,1024,1024,65.9,-89.9,96,3.896,3.924,3.89,3.944,3.945,3.903,17.563,77,14,Waypoint,
38.1754072,-120.0595419,5154.5310881733,192.913392,0,0.51871064652,24800,2018-05-12 20:57:57,15,0,23.535,5154.5310881733,192.913392,0.223694,0.82171590556,0,0,-0.671082,67.2, 5, 0.7,0,0,1024,1024,1024,1024,65.9,-89.9,96,3.896,3.924,3.89,3.944,3.945,3.903,17.563,77,14,Waypoint,
38.1754072,-120.059542,5155.1872561733,193.56956,0.223694,0.49683728624,24900,2018-05-12 20:57:57,15,0,23.535,5155.1872561733,193.56956,0.223694,0.82171590556,0,0,-0.671082,67.3, 4.8, 1.2,0,0,1024,1024,1024,1024,65.9,-90,96,3.896,3.924,3.89,3.944,3.945,3.903,17.563,77,14,Waypoint,
38.1754073,-120.059542,5156.1715081733,194.553812,0.223694,0.5216699642,25000,2018-05-12 20:57:57,15,0,23.411,5156.1715081733,194.553812,0.223694,0.82171590556,0,0,-0.671082,67.4, 4.6, 1.6,0,0,1024,1024,1024,1024,65.9,-90,96,3.896,3.924,3.89,3.944,3.945,3.903,18.36,77,14,Waypoint,
38.1754075,-120.0595421,5157.1557601733,195.538064,0.223694,0.5569061858,25100,2018-05-12 20:57:57,15,0,23.411,5157.1557601733,195.538064,0.223694,0.82171590556,0,0,-0.671082,67.2, 4.6, 2,0,0,1024,1024,1024,1024,65.9,-89.9,96,3.896,3.924,3.89,3.944,3.945,3.903,18.36,77,14,Waypoint,
38.1754076,-120.0595421,5158.1400121733,196.522316,0.223694,0.5860236408,25200,2018-05-12 20:57:57,15,0,23.411,5158.1400121733,196.522316,0.223694,0.82171590556,0,0,-0.671082,67.1, 4.7, 2.3,0,0,1024,1024,1024,1024,65.9,-90,96,3.896,3.924,3.89,3.944,3.945,3.903,18.36,77,14,Waypoint,
38.1754077,-120.0595422,5159.1242641733,197.506568,0,0.60037075412,25300,2018-05-12 20:57:58,15,0,23.411,5159.1242641733,197.506568,0.223694,0.82171590556,0,0,-0.671082,66.9, 4.6, 2.7,0,0,1024,1024,1024,1024,65.9,-89.9,96,3.896,3.924,3.89,3.944,3.945,3.903,18.36,77,14,Waypoint,
38.1754078,-120.0595423,5160.1085161733,198.49082,0,0.61787731636,25410,2018-05-12 20:57:58,15,0,23.411,5160.1085161733,198.49082,0.223694,0.82171590556,0,0,-0.671082,66.8, 4.7, 2.5,0,0,1024,1024,1024,1024,65.9,-89.9,96,3.896,3.924,3.89,3.944,3.945,3.903,18.36,77,14,Waypoint,
38.1754079,-120.0595423,5161.0927681733,199.475072,0,0.65041340664,25500,2018-05-12 20:57:58,15,0,23.411,5161.0927681733,199.475072,0.223694,0.82171590556,0,0,-0.671082,66.8, 5, 2.2,0,0,1024,1024,1024,1024,65.9,-89.9,96,3.896,3.924,3.89,3.944,3.945,3.903,18.36,77,14,Waypoint,
38.175408,-120.0595425,5162.7331881733,201.115492,0,0.66132548048,25700,2018-05-12 20:57:58,15,0,23.411,5162.7331881733,201.115492,0.223694,0.82171590556,0,0,-0.671082,66.6, 5, 2.3,0,0,1024,1024,1024,1024,65.9,-89.9,96,3.896,3.924,3.89,3.944,3.945,3.903,18.36,77,14,Waypoint,
38.1754081,-120.0595426,5164.7016921733,203.083996,0,0.68673230544,25910,2018-05-12 20:57:58,15,0,23.411,5164.7016921733,203.083996,0.223694,0.82171590556,0,0,-0.671082,66.6, 4.7, 2,0,0,1024,1024,1024,1024,65.9,-90,96,3.896,3.924,3.89,3.944,3.945,3.903,18.36,77,14,Waypoint,
38.1754081,-120.0595426,5165.6859441733,204.068248,0,0.68673230544,26000,2018-05-12 20:57:58,15,0,23.411,5165.6859441733,204.068248,0.223694,0.82171590556,0,0,-0.671082,66.8, 4.4, 1.8,0,0,1024,1024,1024,1024,65.9,-90,96,3.877,3.901,3.908,3.945,3.945,3.896,18.36,77,14,Waypoint,
38.1754081,-120.0595427,5166.6701961733,205.0525,0,0.67890094036,26200,2018-05-12 20:57:58,15,0,23.411,5166.6701961733,205.0525,0.223694,0.82171590556,0,0,-0.671082,67.1, 4.4, 1.5,0,0,1024,1024,1024,1024,65.9,-90,96,3.877,3.901,3.908,3.945,3.945,3.896,18.36,77,14,Waypoint,
38.1754081,-120.0595427,5167.6544481733,206.036752,0,0.67890094036,26300,2018-05-12 20:57:59,15,0,23.411,5167.6544481733,206.036752,0.223694,0.82171590556,0,0,-0.671082,67.4, 4.2, 1.4,0,0,1024,1024,1024,1024,65.9,-90,96,3.877,3.901,3.908,3.945,3.945,3.896,18.36,77,14,Waypoint,
38.1754081,-120.0595428,5168.6387001733,207.021004,0,0.67220474592,26400,2018-05-12 20:57:59,15,0,23.411,5168.6387001733,207.021004,0.223694,0.82171590556,0,0,-0.671082,67.5, 4.2, 1.6,0,0,1024,1024,1024,1024,65.9,-90,96,3.877,3.901,3.908,3.945,3.945,3.896,18.36,77,14,Waypoint,
38.1754082,-120.0595428,5170.6072041733,208.989508,0,0.70789372344,26500,2018-05-12 20:57:59,15,0,23.411,5170.6072041733,208.989508,0.223694,0.82171590556,0,0,-0.671082,67.5, 4.4, 1.7,0,0,1024,1024,1024,1024,65.9,-90,96,3.877,3.901,3.908,3.945,3.945,3.896,18.36,77,14,Waypoint,
38.1754082,-120.0595428,5171.5914561733,209.97376,0,0.70789372344,26600,2018-05-12 20:57:59,15,0,23.411,5171.5914561733,209.97376,0.223694,0.82171590556,0,0,-0.671082,67.5, 4.4, 1.6,0,0,1024,1024,1024,1024,65.9,-90,96,3.877,3.901,3.908,3.945,3.945,3.896,18.36,77,14,Waypoint,
38.1754082,-120.0595428,5172.5757081733,210.958012,0,0.70789372344,26700,2018-05-12 20:57:59,15,0,23.411,5172.5757081733,210.958012,0.223694,0.82171590556,0,0,-0.671082,67.3, 4.5, 1.5,0,0,1024,1024,1024,1024,65.9,-89.9,96,3.877,3.901,3.908,3.945,3.945,3.896,18.36,77,14,Waypoint,
38.1754082,-120.0595428,5173.5599601733,211.942264,0,0.70789372344,26800,2018-05-12 20:57:59,15,0,23.411,5173.5599601733,211.942264,0.223694,0.82171590556,0,0,-0.671082,67.1, 4.7, 1.5,0,0,1024,1024,1024,1024,65.9,-89.9,96,3.877,3.901,3.908,3.945,3.945,3.896,18.36,77,14,Waypoint,
