latitude,longitude,altitude(feet),ascent(feet),speed(mph),distance(feet),time(millisecond),datetime(utc),satellites,gpslevel,voltage(v),max_altitude(feet),max_ascent(feet),max_speed(mph),max_distance(feet), xSpeed(mph), ySpeed(mph), zSpeed(mph), compass_heading(degrees), pitch(degrees), roll(degrees),isPhoto,isVideo,rc_elevator,rc_aileron,rc_throttle,rc_rudder,gimbal_heading(degrees),gimbal_pitch(degrees),battery_percent,voltageCell1,voltageCell2,voltageCell3,voltageCell4,voltageCell5,voltageCell6,current(A),battery_temperature(f),flycStateRaw,flycState,message
38.2001651,-120.0382933,5271.3959544458,0,0.223694,0,3270,2018-05-12 18:15:16,12,0,0,5271.3959544458,0,0.223694,0,0,0,0,323.9, 2.4, -1,1,0,1024,1024,1024,1024,326.5,-89.9,69,3.998,3.98,4.005,3.986,4.009,3.976,0,91.4,11,AutoTakeoff,DJI_0921.jpg Starting Mission from Lat/Long: 38.20017/-120.03828 Camera: Zenmuse X3 - Overlap: 90/90 - Active Connection: No
38.200165,-120.0382934,5271.3959544458,0,0.447388,0.046402888624,3310,2018-05-12 18:15:16,12,0,0,5271.3959544458,0,0.447388,0.046402888624,0,0,0,323.7, 1.3, -0.4,0,0,1024,1024,1024,1024,326.4,-90,69,3.998,3.98,4.005,3.986,4.009,3.976,0,91.4,11,AutoTakeoff,
38.2001649,-120.0382934,5271.3959544458,0,0.4921268,0.078400921144,3500,2018-05-12 18:15:16,12,0,0,5271.3959544458,0,0.4921268,0.078400921144,0,0,0,323.8, 0.2, 0,0,0,1024,1024,1024,1024,326.4,-90,69,3.998,3.98,4.005,3.986,4.009,3.976,0,91.4,11,AutoTakeoff,
38.2001647,-120.0382936,5271.7240384458,0.328084,0.4921268,0.169402236392,3600,2018-05-12 18:15:16,11,0,0,5271.7240384458,0.328084,0.4921268,0.169402236392,0,0,0,324.1, -0.7, 1.1,0,0,1024,1024,1024,1024,326.3,-90,69,3.998,3.98,4.005,3.986,4.009,3.976,0,91.4,11,AutoTakeoff,
38.2001646,-120.0382938,5272.0521224458,0.656168,0.3131716,0.23201444312,3700,2018-05-12 18:15:17,11,0,0,5272.0521224458,0.656168,0.4921268,0.23201444312,0,0,0,324.3, -0.9, 1.8,0,0,1024,1024,1024,1024,326.3,-90,69,3.998,3.98,4.005,3.986,4.009,3.976,0,91.4,11,AutoTakeoff,
38.2001645,-120.0382939,5272.0521224458,0.656168,0.3131716,0.278417331744,3800,2018-05-12 18:15:17,11,0,0,5272.0521224458,0.656168,0.4921268,0.278417331744,0,0,0,324.5, -0.8, 2.2,0,0,1024,1024,1024,1024,326.2,-90,69,3.998,3.98,4.005,3.986,4.009,3.976,0,91.4,11,AutoTakeoff,
38.2001645,-120.0382941,5272.3802064458,0.984252,0.3131716,0.317071532456,3900,2018-05-12 18:15:17,11,0,0,5272.3802064458,0.984252,0.4921268,0.317071532456,0,0,0,324.6, -0.7, 2.5,0,0,1024,1024,1024,1024,326.1,-89.9,69,3.998,3.98,4.005,3.986,4.009,3.976,0,91.4,11,AutoTakeoff,
38.2001645,-120.0382943,5272.3802064458,0.984252,0.223694,0.36073491968,4000,2018-05-12 18:15:17,12,0,23.972,5272.3802064458,0.984252,0.4921268,0.36073491968,0,0,0,324.6, -0.3, 2.6,0,0,1024,1024,1024,1024,326.1,-89.9,69,3.998,3.98,4.005,3.986,4.009,3.976,2.801,91.4,11,AutoTakeoff,
38.2001645,-120.0382944,5272.7082904458,1.312336,0.223694,0.38391733512,4100,2018-05-12 18:15:17,12,0,23.972,5272.7082904458,1.312336,0.4921268,0.38391733512,0,0,0,324.6, 0, 2.4,0,0,1024,1024,1024,1024,326.1,-89.9,69,3.998,3.98,4.005,3.986,4.009,3.976,2.801,91.4,11,AutoTakeoff,
38.2001646,-120.0382946,5273.0363744458,1.64042,0,0.41498032824,4300,2018-05-12 18:15:17,12,0,23.972,5273.0363744458,1.64042,0.4921268,0.41498032824,0,0,-0.223694,324.7, 0.2, 1.4,0,0,1024,1024,1024,1024,326,-89.9,69,3.998,3.98,4.005,3.986,4.009,3.976,2.801,91.4,11,AutoTakeoff,
38.2001647,-120.0382947,5273.0363744458,1.64042,0,0.42711287456,4400,2018-05-12 18:15:17,12,0,23.972,5273.0363744458,1.64042,0.4921268,0.42711287456,0,0,0,324.7, 0.3, 1.1,0,0,1024,1024,1024,1024,325.9,-89.9,69,3.998,3.98,4.005,3.986,4.009,3.976,2.801,91.4,11,AutoTakeoff,
38.2001647,-120.0382947,5273.3644584458,1.968504,0,0.42711287456,4500,2018-05-12 18:15:17,12,0,23.972,5273.3644584458,1.968504,0.4921268,0.42711287456,0,0,0,324.6, 0.4, 1,0,0,1024,1024,1024,1024,325.9,-89.9,69,3.998,3.98,4.005,3.986,4.009,3.976,2.801,91.4,11,AutoTakeoff,
38.2001647,-120.0382948,5273.3644584458,1.968504,0,0.45416340036,4600,2018-05-12 18:15:17,11,0,23.972,5273.3644584458,1.968504,0.4921268,0.45416340036,0,0,-0.223694,324.6, 0.5, 1,0,0,1024,1024,1024,1024,325.9,-89.9,69,3.998,3.98,4.005,3.986,4.009,3.976,2.801,91.4,11,AutoTakeoff,
38.2001647,-120.0382948,5273.6925424458,2.296588,0,0.45416340036,4700,2018-05-12 18:15:18,11,0,23.972,5273.6925424458,2.296588,0.4921268,0.45416340036,0,0,-0.223694,324.5, 0.4, 1,0,0,1024,1024,1024,1024,325.8,-89.9,69,3.998,3.98,4.005,3.986,4.009,3.976,2.801,91.4,11,AutoTakeoff,
38.2001647,-120.0382949,5274.0206264458,2.624672,0,0.48140421488,4800,2018-05-12 18:15:18,10,0,23.972,5274.0206264458,2.624672,0.4921268,0.48140421488,0,0,-0.223694,324.3, 0.3, 1.1,0,0,1024,1024,1024,1024,325.8,-89.9,69,3.998,3.98,4.005,3.986,4.009,3.976,2.801,91.4,11,AutoTakeoff,
38.2001648,-120.0382951,5274.0206264458,2.624672,0,0.52757219536,4900,2018-05-12 18:15:18,10,0,23.972,5274.0206264458,2.624672,0.4921268,0.52757219536,0,0,0,324.2, 0.4, 1.1,0,0,1024,1024,1024,1024,325.8,-89.9,69,3.998,3.98,4.005,3.986,4.009,3.976,2.801,91.4,11,AutoTakeoff,
38.2001649,-120.0382952,5274.3487104458,2.952756,0,0.54963256352,5000,2018-05-12 18:15:18,10,0,23.552,5274.3487104458,2.952756,0.4921268,0.54963256352,0,0,-0.223694,324.1, 0.6, 1.1,0,0,1024,1024,1024,1024,325.7,-89.9,69,3.902,3.931,3.897,3.889,3.924,3.892,10.269,91.4,11,AutoTakeoff,
38.200165,-120.0382953,5274.3487104458,2.952756,0,0.57459647508,5100,2018-05-12 18:15:18,10,0,23.552,5274.3487104458,2.952756,0.4921268,0.57459647508,0,0,-0.223694,324, 0.6, 1,0,0,1024,1024,1024,1024,325.7,-89.9,69,3.902,3.931,3.897,3.889,3.924,3.892,10.269,91.4,14,Waypoint,
38.200165,-120.0382953,5274.6767944458,3.28084,0,0.57459647508,5200,2018-05-12 18:15:18,10,0,23.552,5274.6767944458,3.28084,0.4921268,0.57459647508,0,0,0,324, 0.5, 1.2,0,0,1024,1024,1024,1024,325.7,-89.9,69,3.902,3.931,3.897,3.889,3.924,3.892,10.269,91.4,14,Waypoint,
38.2001649,-120.0382954,5274.6767944458,3.28084,0,0.60651576744,5300,2018-05-12 18:15:18,10,0,23.552,5274.6767944458,3.28084,0.4921268,0.60651576744,0,0,0,324.1, 0.3, 1.4,0,0,1024,1024,1024,1024,325.7,-90,69,3.902,3.931,3.897,3.889,3.924,3.892,10.269,91.4,14,Waypoint,
38.2001649,-120.0382954,5274.6767944458,3.28084,0,0.60651576744,5400,2018-05-12 18:15:18,12,0,23.552,5274.6767944458,3.28084,0.4921268,0.60651576744,0,0,0,324.1, 0, 1.4,0,0,1024,1024,1024,1024,325.6,-90,69,3.902,3.931,3.897,3.889,3.924,3.892,10.269,91.4,14,Waypoint,
38.200165,-120.0382954,5275.0048784458,3.608924,0,0.6032152424,5600,2018-05-12 18:15:18,10,0,23.552,5275.0048784458,3.608924,0.4921268,0.60651576744,0,0,-0.223694,324.3, 0.1, 1,0,0,1024,1024,1024,1024,325.6,-90,69,3.902,3.931,3.897,3.889,3.924,3.892,10.269,91.4,14,Waypoint,
38.2001649,-120.0382956,5275.3329624458,3.937008,0,0.66347771152,5700,2018-05-12 18:15:19,10,0,23.552,5275.3329624458,3.937008,0.4921268,0.66347771152,0,0,-0.223694,324.4, 0.1, 1.1,0,0,1024,1024,1024,1024,325.6,-89.9,69,3.902,3.931,3.897,3.889,3.924,3.892,10.269,91.4,14,Waypoint,
38.2001648,-120.0382957,5275.3329624458,3.937008,0,0.69677495668,5810,2018-05-12 18:15:19,10,0,23.552,5275.3329624458,3.937008,0.4921268,0.69677495668,0,0,-0.223694,324.4, 0.1, 1.6,0,0,1024,1024,1024,1024,325.6,-89.9,69,3.902,3.931,3.897,3.889,3.924,3.892,10.269,91.4,14,Waypoint,
38.2001648,-120.0382957,5275.9891304458,4.593176,0,0.69677495668,5910,2018-05-12 18:15:19,10,0,23.552,5275.9891304458,4.593176,0.4921268,0.69677495668,0,0,-0.223694,324.5, 0.1, 2.1,0,0,1024,1024,1024,1024,325.5,-90,69,3.902,3.931,3.897,3.889,3.924,3.892,10.269,91.4,14,Waypoint,
38.2001648,-120.0382958,5276.3172144458,4.92126,0,0.72510501008,6000,2018-05-12 18:15:19,9,0,22.998,5276.3172144458,4.92126,0.4921268,0.72510501008,0,0,-0.223694,324.5, 0.1, 2.3,0,0,1024,1024,1024,1024,325.5,-90,69,3.809,3.827,3.843,3.837,3.84,3.819,17.774,91.4,14,Waypoint,
38.2001648,-120.0382958,5276.6452984458,5.249344,0,0.72510501008,6100,2018-05-12 18:15:19,9,0,22.998,5276.6452984458,5.249344,0.4921268,0.72510501008,0,0,-0.223694,324.5, 0, 2.1,0,0,1024,1024,1024,1024,325.5,-90,69,3.809,3.827,3.843,3.837,3.84,3.819,17.774,91.4,14,Waypoint,
38.2001649,-120.0382958,5276.9733824458,5.577428,0,0.72050199156,6220,2018-05-12 18:15:19,10,0,22.998,5276.9733824458,5.577428,0.4921268,0.72510501008,0,0,-0.447388,324.5, 0, 1.9,0,0,1024,1024,1024,1024,325.4,-89.9,69,3.809,3.827,3.843,3.837,3.84,3.819,17.774,91.4,14,Waypoint,
38.2001652,-120.0382958,5277.6295504458,6.233596,0,0.71772640092,6300,2018-05-12 18:15:19,10,0,22.998,5277.6295504458,6.233596,0.4921268,0.72510501008,0,0,-0.447388,324.5, 0.4, 1.4,0,0,1024,1024,1024,1024,325.4,-89.9,69,3.809,3.827,3.843,3.837,3.84,3.819,17.774,91.4,14,Waypoint,
38.2001654,-120.0382957,5278.2857184458,6.889764,0,0.69677495668,6400,2018-05-12 18:15:19,10,0,22.998,5278.2857184458,6.889764,0.4921268,0.72510501008,0,0,-0.447388,324.5, 1, 0.8,0,0,1024,1024,1024,1024,325.4,-89.9,69,3.809,3.827,3.843,3.837,3.84,3.819,17.774,91.4,14,Waypoint,
38.2001657,-120.0382956,5279.2699704458,7.874016,0,0.69483926108,6500,2018-05-12 18:15:19,10,0,22.998,5279.2699704458,7.874016,0.4921268,0.72510501008,0,0,-0.447388,324.4, 1.3, 0.2,0,0,1024,1024,1024,1024,325.4,-89.9,69,3.809,3.827,3.843,3.837,3.84,3.819,17.774,91.4,14,Waypoint,
38.2001658,-120.0382954,5279.9261384458,8.530184,0,0.654035454,6600,2018-05-12 18:15:19,12,0,22.998,5279.9261384458,8.530184,0.4921268,0.72510501008,0,0,-0.671082,324.3, 1.2, -0.2,0,0,1024,1024,1024,1024,325.4,-89.9,69,3.809,3.827,3.843,3.837,3.84,3.819,17.774,91.4,14,Waypoint,
38.2001658,-120.0382953,5280.9103904458,9.514436,0,0.6277395214,6700,2018-05-12 18:15:20,12,0,22.998,5280.9103904458,9.514436,0.4921268,0.72510501008,0,0,-0.671082,324.3, 0.7, -0.4,0,0,1024,1024,1024,1024,325.4,-90,69,3.809,3.827,3.843,3.837,3.84,3.819,17.774,91.4,14,Waypoint,
38.2001657,-120.0382952,5281.8946424458,10.498688,0,0.58710303716,6800,2018-05-12 18:15:20,11,0,22.998,5281.8946424458,10.498688,0.4921268,0.72510501008,0,0,-0.671082,324.4, 0.1, 0,0,0,1024,1024,1024,1024,325.3,-90,69,3.809,3.827,3.843,3.837,3.84,3.819,17.774,91.4,14,Waypoint,
38.2001656,-120.0382952,5282.8788944458,11.48294,0,0.57449804988,6900,2018-05-12 18:15:20,11,0,22.998,5282.8788944458,11.48294,0.4921268,0.72510501008,0,0,-0.671082,324.5, -0.1, 0.5,0,0,1024,1024,1024,1024,325.3,-90,69,3.809,3.827,3.843,3.837,3.84,3.819,17.774,91.4,14,Waypoint,
38.2001655,-120.038295,5283.8631464458,12.467192,0,0.50880250972,7000,2018-05-12 18:15:20,11,0,22.915,5283.8631464458,12.467192,0.4921268,0.72510501008,0,0,-0.671082,324.6, -0.2, 1,0,0,1024,1024,1024,1024,325.3,-90,69,3.808,3.813,3.828,3.815,3.837,3.81,17.78,91.4,14,Waypoint,
38.2001654,-120.0382948,5285.1754824458,13.779528,0,0.44378938428,7100,2018-05-12 18:15:20,11,0,22.915,5285.1754824458,13.779528,0.4921268,0.72510501008,0,0,-0.671082,324.5, -0.4, 1.1,0,0,1024,1024,1024,1024,325.3,-90,69,3.808,3.813,3.828,3.815,3.837,3.81,17.78,91.4,14,Waypoint,
38.2001654,-120.0382946,5286.1597344458,14.76378,0,0.38847442188,7200,2018-05-12 18:15:20,12,0,22.915,5286.1597344458,14.76378,0.4921268,0.72510501008,0,0,-0.671082,324.2, -0.9, 0.5,0,0,1024,1024,1024,1024,325.2,-90,69,3.808,3.813,3.828,3.815,3.837,3.81,17.78,91.4,14,Waypoint,
38.2001654,-120.0382945,5287.1439864458,15.748032,0,0.36105316116,7300,2018-05-12 18:15:20,12,0,22.915,5287.1439864458,15.748032,0.4921268,0.72510501008,0,0,-0.671082,323.9, -1.2, 0,0,0,1024,1024,1024,1024,325.2,-90,69,3.808,3.813,3.828,3.815,3.837,3.81,17.78,91.4,14,Waypoint,
38.2001653,-120.0382943,5288.4563224458,17.060368,0,0.295858605268,7400,2018-05-12 18:15:20,12,0,22.915,5288.4563224458,17.060368,0.4921268,0.72510501008,0,0,-0.671082,323.5, -1.5, -0.5,0,0,1024,1024,1024,1024,325.2,-90,69,3.808,3.813,3.828,3.815,3.837,3.81,17.78,91.4,14,Waypoint,
38.2001653,-120.038294,5289.4405744458,18.04462,0,0.21355643728,7500,2018-05-12 18:15:20,12,0,22.915,5289.4405744458,18.04462,0.4921268,0.72510501008,0,0,-0.671082,323.2, -1.6, -0.9,0,0,1024,1024,1024,1024,325.2,-90,69,3.808,3.813,3.828,3.815,3.837,3.81,17.78,91.4,14,Waypoint,
38.2001654,-120.0382939,5290.4248264458,19.028872,0,0.203899612824,7600,2018-05-12 18:15:20,13,0,22.915,5290.4248264458,19.028872,0.4921268,0.72510501008,0,0,-0.671082,323, -1.5, -0.8,0,0,1024,1024,1024,1024,325.2,-90,69,3.808,3.813,3.828,3.815,3.837,3.81,17.78,91.4,14,Waypoint,
38.2001655,-120.0382937,5291.7371624458,20.341208,0,0.185611554496,7700,2018-05-12 18:15:21,13,0,22.915,5291.7371624458,20.341208,0.4921268,0.72510501008,0,0,-0.671082,322.9, -1.4, -0.7,0,0,1024,1024,1024,1024,325.2,-89.9,69,3.808,3.813,3.828,3.815,3.837,3.81,17.78,91.4,14,Waypoint,
38.2001657,-120.0382936,5292.7214144458,21.32546,0,0.235202435348,7800,2018-05-12 18:15:21,13,0,22.915,5292.7214144458,21.32546,0.4921268,0.72510501008,0,0,-0.671082,322.8, -1, -0.8,0,0,1024,1024,1024,1024,325.1,-89.9,69,3.808,3.813,3.828,3.815,3.837,3.81,17.78,91.4,14,Waypoint,
38.2001658,-120.0382935,5293.7056664458,22.309712,0,0.261753289216,7900,2018-05-12 18:15:21,13,0,22.915,5293.7056664458,22.309712,0.4921268,0.72510501008,0,0,-0.671082,322.9, -0.6, -0.9,0,0,1024,1024,1024,1024,325.1,-90,69,3.808,3.813,3.828,3.815,3.837,3.81,17.78,91.4,14,Waypoint,
38.2001659,-120.0382934,5295.0180024458,23.622048,0,0.293284458204,8000,2018-05-12 18:15:21,12,0,22.785,5295.0180024458,23.622048,0.4921268,0.72510501008,0,0,-0.671082,323, -0.5, -1.2,0,0,1024,1024,1024,1024,325.1,-89.9,69,3.7,3.734,3.779,3.766,3.778,3.759,24.689,91.4,14,Waypoint,
38.200166,-120.0382933,5296.0022544458,24.6063,0,0.3283628714,8100,2018-05-12 18:15:21,12,0,22.785,5296.0022544458,24.6063,0.4921268,0.72510501008,0,0,-0.671082,323.2, -0.3, -1.4,0,0,1024,1024,1024,1024,325.1,-89.9,69,3.7,3.734,3.779,3.766,3.778,3.759,24.689,91.4,14,Waypoint,
38.2001662,-120.0382934,5296.9865064458,25.590552,0,0.40235565592,8210,2018-05-12 18:15:21,12,0,22.785,5296.9865064458,25.590552,0.4921268,0.72510501008,0,0,-0.671082,323.5, 0, -1.3,0,0,1024,1024,1024,1024,325.1,-89.9,69,3.7,3.734,3.779,3.766,3.778,3.759,24.689,91.4,14,Waypoint,
38.2001663,-120.0382935,5298.2988424458,26.902888,0,0.44155841308,8300,2018-05-12 18:15:21,12,0,22.785,5298.2988424458,26.902888,0.4921268,0.72510501008,0,0,-0.671082,323.8, 0.3, -0.9,0,0,1024,1024,1024,1024,325.1,-89.9,69,3.7,3.734,3.779,3.766,3.778,3.759,24.689,91.4,14,Waypoint,
38.2001664,-120.0382936,5299.2830944458,27.88714,0,0.48204069784,8400,2018-05-12 18:15:21,14,0,22.785,5299.2830944458,27.88714,0.4921268,0.72510501008,0,0,-0.671082,324.1, 0.6, -0.6,0,0,1024,1024,1024,1024,325.1,-89.9,69,3.7,3.734,3.779,3.766,3.778,3.759,24.689,91.4,14,Waypoint,
38.2001665,-120.0382938,5300.2673464458,28.871392,0,0.53052495136,8500,2018-05-12 18:15:21,14,0,22.785,5300.2673464458,28.871392,0.4921268,0.72510501008,0,0,-0.671082,324.3, 0.8, -0.4,0,0,1024,1024,1024,1024,325.1,-89.9,69,3.7,3.734,3.779,3.766,3.778,3.759,24.689,91.4,14,Waypoint,
38.2001665,-120.0382939,5301.2515984458,29.855644,0,0.53897967604,8600,2018-05-12 18:15:21,13,0,22.785,5301.2515984458,29.855644,0.4921268,0.72510501008,0,0,-0.671082,324.4, 0.9, -0.2,0,0,1024,1024,1024,1024,325.1,-89.9,69,3.7,3.734,3.779,3.766,3.778,3.759,24.689,91.4,14,Waypoint,
38.2001663,-120.0382944,5304.5324384458,33.136484,0.3131716,0.53958991228,8810,2018-05-12 18:15:22,15,0,22.785,5304.5324384458,33.136484,0.4921268,0.72510501008,0,0,-0.671082,324.1, 0.1, 0.4,0,0,1024,1024,1024,1024,325.1,-89.9,69,3.7,3.734,3.779,3.766,3.778,3.759,24.689,91.4,14,Waypoint,
38.2001662,-120.0382946,5305.5166904458,34.120736,0.3131716,0.54772311464,9000,2018-05-12 18:15:22,16,0,22.587,5305.5166904458,34.120736,0.4921268,0.72510501008,0,0,-0.671082,324, 0, 0.9,0,0,1024,1024,1024,1024,325.1,-89.9,69,3.755,3.765,3.78,3.763,3.741,3.739,19.521,91.4,14,Waypoint,
38.2001661,-120.0382947,5306.5009424458,35.104988,0.223694,0.54244096224,9100,2018-05-12 18:15:22,16,0,22.587,5306.5009424458,35.104988,0.4921268,0.72510501008,0,0,-0.671082,324, 0, 1.3,0,0,1024,1024,1024,1024,325,-90,69,3.755,3.765,3.78,3.763,3.741,3.739,19.521,91.4,14,Waypoint,
38.200166,-120.0382948,5307.4851944458,36.08924,0.223694,0.54110237952,9200,2018-05-12 18:15:22,12,0,22.587,5307.4851944458,36.08924,0.4921268,0.72510501008,0,0,-0.671082,323.9, 0, 1.5,0,0,1024,1024,1024,1024,325.1,-89.9,69,3.755,3.765,3.78,3.763,3.741,3.739,19.521,91.4,14,Waypoint,
38.2001659,-120.0382949,5308.4694464458,37.073492,0.223694,0.5437336132,9300,2018-05-12 18:15:22,12,0,22.587,5308.4694464458,37.073492,0.4921268,0.72510501008,0,0,-0.671082,324, 0, 1.5,0,0,1024,1024,1024,1024,325,-90,69,3.755,3.765,3.78,3.763,3.741,3.739,19.521,91.4,14,Waypoint,
38.2001659,-120.038295,5309.4536984458,38.057744,0.223694,0.56813322028,9400,2018-05-12 18:15:22,14,0,22.587,5309.4536984458,38.057744,0.4921268,0.72510501008,0,0,-0.671082,324, 0, 1.5,0,0,1024,1024,1024,1024,325.1,-89.9,69,3.755,3.765,3.78,3.763,3.741,3.739,19.521,91.4,14,Waypoint,
38.2001658,-120.0382952,5311.4222024458,40.026248,0,0.60166012424,9600,2018-05-12 18:15:22,14,0,22.587,5311.4222024458,40.026248,0.4921268,0.72510501008,0,0,-0.671082,324, 0, 1.2,0,0,1024,1024,1024,1024,325.1,-90,69,3.755,3.765,3.78,3.763,3.741,3.739,19.521,91.4,14,Waypoint,
38.2001657,-120.0382953,5312.7345384458,41.338584,0,0.61380251308,9700,2018-05-12 18:15:23,14,0,22.587,5312.7345384458,41.338584,0.4921268,0.72510501008,0,0,-0.671082,324.1, -0.1, 0.9,0,0,1024,1024,1024,1024,325.1,-90,69,3.755,3.765,3.78,3.763,3.741,3.739,19.521,91.4,14,Waypoint,
38.2001657,-120.0382953,5313.7187904458,42.322836,0,0.61380251308,9800,2018-05-12 18:15:23,13,0,22.587,5313.7187904458,42.322836,0.4921268,0.72510501008,0,0,-0.671082,324.1, -0.2, 0.7,0,0,1024,1024,1024,1024,325.1,-89.9,69,3.755,3.765,3.78,3.763,3.741,3.739,19.521,91.4,14,Waypoint,
38.2001656,-120.0382953,5314.7030424458,43.307088,0,0.6017552686,9900,2018-05-12 18:15:23,13,0,22.587,5314.7030424458,43.307088,0.4921268,0.72510501008,0,0,-0.671082,324.2, -0.1, 0.6,0,0,1024,1024,1024,1024,325.1,-90,69,3.755,3.765,3.78,3.763,3.741,3.739,19.521,91.4,14,Waypoint,
38.2001656,-120.0382954,5315.6872944458,44.29134,0,0.62913715924,10000,2018-05-12 18:15:23,14,0,22.646,5315.6872944458,44.29134,0.4921268,0.72510501008,0,0,-0.671082,324.2, -0.2, 0.7,0,0,1024,1024,1024,1024,325.1,-90,69,3.763,3.773,3.778,3.767,3.78,3.765,18.694,91.4,14,Waypoint,
38.2001656,-120.0382954,5316.6715464458,45.275592,0,0.62913715924,10110,2018-05-12 18:15:23,14,0,22.646,5316.6715464458,45.275592,0.4921268,0.72510501008,0,0,-0.671082,324.3, -0.2, 0.7,0,0,1024,1024,1024,1024,325.1,-89.9,69,3.763,3.773,3.778,3.767,3.78,3.765,18.694,91.4,14,Waypoint,
38.2001655,-120.0382955,5317.6557984458,46.259844,0,0.64744424644,10200,2018-05-12 18:15:23,14,0,22.646,5317.6557984458,46.259844,0.4921268,0.72510501008,0,0,-0.671082,324.2, -0.2, 0.7,0,0,1024,1024,1024,1024,325,-90,69,3.763,3.773,3.778,3.767,3.78,3.765,18.694,91.4,14,Waypoint,
38.2001655,-120.0382955,5318.6400504458,47.244096,0,0.64744424644,10320,2018-05-12 18:15:23,14,0,22.646,5318.6400504458,47.244096,0.4921268,0.72510501008,0,0,-0.671082,324.1, -0.2, 1,0,0,1024,1024,1024,1024,325,-89.9,69,3.763,3.773,3.778,3.767,3.78,3.765,18.694,91.4,14,Waypoint,
38.2001655,-120.0382956,5319.6243024458,48.228348,0,0.6754101266,10400,2018-05-12 18:15:23,15,0,22.646,5319.6243024458,48.228348,0.4921268,0.72510501008,0,0,-0.671082,324, -0.1, 1.3,0,0,1024,1024,1024,1024,325,-89.9,69,3.763,3.773,3.778,3.767,3.78,3.765,18.694,91.4,14,Waypoint,
38.2001653,-120.0382957,5320.6085544458,49.2126,0,0.69198164944,10500,2018-05-12 18:15:23,15,0,22.646,5320.6085544458,49.2126,0.4921268,0.72510501008,0,0,-0.671082,323.8, -0.1, 1.5,0,0,1024,1024,1024,1024,325,-90,69,3.763,3.773,3.778,3.767,3.78,3.765,18.694,91.4,14,Waypoint,
38.2001652,-120.0382957,5321.5928064458,50.196852,0,0.6890912294,10600,2018-05-12 18:15:23,16,0,22.646,5321.5928064458,50.196852,0.4921268,0.72510501008,0,0,-0.671082,323.8, -0.3, 1.7,0,0,1024,1024,1024,1024,325,-90,69,3.763,3.773,3.778,3.767,3.78,3.765,18.694,91.4,14,Waypoint,
38.2001652,-120.0382957,5322.5770584458,51.181104,0,0.6890912294,10700,2018-05-12 18:15:24,16,0,22.646,5322.5770584458,51.181104,0.4921268,0.72510501008,0,0,-0.671082,323.8, -0.5, 1.5,0,0,1024,1024,1024,1024,325.1,-90,69,3.763,3.773,3.778,3.767,3.78,3.765,18.694,91.4,14,Waypoint,
38.2001651,-120.0382957,5323.5613104458,52.165356,0,0.68812666244,10810,2018-05-12 18:15:24,16,0,22.646,5323.5613104458,52.165356,0.4921268,0.72510501008,0,0,-0.671082,323.8, -0.8, 1.1,0,0,1024,1024,1024,1024,325.1,-90,69,3.763,3.773,3.778,3.767,3.78,3.765,18.694,91.4,14,Waypoint,
38.2001651,-120.0382957,5324.5455624458,53.149608,0,0.68812666244,10920,2018-05-12 18:15:24,16,0,22.646,5324.5455624458,53.149608,0.4921268,0.72510501008,0,0,-0.671082,323.9, -0.7, 0.8,0,0,1024,1024,1024,1024,325,-90,69,3.763,3.773,3.778,3.767,3.78,3.765,18.694,91.4,14,Waypoint,
38.200165,-120.0382957,5326.5140664458,55.118112,0,0.6890912294,11010,2018-05-12 18:15:24,16,0,22.58,5326.5140664458,55.118112,0.4921268,0.72510501008,0,0,-0.671082,323.9, -0.6, 1.4,0,0,1024,1024,1024,1024,325,-90,69,3.746,3.76,3.77,3.761,3.772,3.757,19.361,91.4,14,Waypoint,
38.2001651,-120.0382957,5327.4983184458,56.102364,0,0.68812666244,11100,2018-05-12 18:15:24,16,0,22.58,5327.4983184458,56.102364,0.4921268,0.72510501008,0,0,-0.671082,323.8, -0.4, 1.5,0,0,1024,1024,1024,1024,325,-90,69,3.746,3.76,3.77,3.761,3.772,3.757,19.361,91.4,14,Waypoint,
38.2001651,-120.0382956,5328.4825704458,57.086616,0,0.65945212084,11300,2018-05-12 18:15:24,16,0,22.58,5328.4825704458,57.086616,0.4921268,0.72510501008,0,0,-0.671082,323.8, -0.1, 1.2,0,0,1024,1024,1024,1024,325,-89.9,69,3.746,3.76,3.77,3.761,3.772,3.757,19.361,91.4,14,Waypoint,
38.2001652,-120.0382956,5329.4668224458,58.070868,0,0.66046261956,11400,2018-05-12 18:15:24,15,0,22.58,5329.4668224458,58.070868,0.4921268,0.72510501008,0,0,-0.671082,323.8, 0.2, 0.8,0,0,1024,1024,1024,1024,325,-89.9,69,3.746,3.76,3.77,3.761,3.772,3.757,19.361,91.4,14,Waypoint,
38.2001652,-120.0382956,5330.4510744458,59.05512,0,0.66046261956,11500,2018-05-12 18:15:24,15,0,22.58,5330.4510744458,59.05512,0.4921268,0.72510501008,0,0,-0.671082,323.8, 0.1, 0.6,0,0,1024,1024,1024,1024,325,-89.9,69,3.746,3.76,3.77,3.761,3.772,3.757,19.361,91.4,14,Waypoint,
38.2001651,-120.0382955,5333.4038304458,62.007876,0,0.63078086008,12120,2018-05-12 18:15:25,16,0,22.58,5333.4038304458,62.007876,0.4921268,0.72510501008,0,0,-0.671082,323.9, -0.2, 1,0,0,1024,1024,1024,1024,325,-90,69,3.746,3.76,3.77,3.761,3.772,3.757,19.361,91.4,14,Waypoint,
38.2001652,-120.0382955,5336.3565864458,64.960632,0,0.63183400972,12810,2018-05-12 18:15:26,15,0,22.58,5336.3565864458,64.960632,0.4921268,0.72510501008,0,0,-0.671082,324.1, 0.2, 0.8,0,0,1024,1024,1024,1024,325.1,-89.9,69,3.746,3.76,3.77,3.761,3.772,3.757,19.361,91.4,14,Waypoint,
38.2001652,-120.038295,5343.2463504458,71.850396,0,0.48878610488,13230,2018-05-12 18:15:26,17,0,22.58,5343.2463504458,71.850396,0.4921268,0.72510501008,0,0,-0.671082,324.7, -0.1, 0.7,0,0,1024,1024,1024,1024,325,-89.9,69,3.746,3.76,3.77,3.761,3.772,3.757,19.361,91.4,14,Waypoint,
38.2001652,-120.0382947,5347.8395264458,76.443572,0,0.40306103652,13600,2018-05-12 18:15:26,16,0,22.58,5347.8395264458,76.443572,0.4921268,0.72510501008,0,0,-0.671082,322.8, -0.5, 0,0,0,1024,1024,1024,1024,325,-90,69,3.746,3.76,3.77,3.761,3.772,3.757,19.361,91.4,14,Waypoint,
38.2001652,-120.0382947,5351.1203664458,79.724412,0,0.40306103652,13700,2018-05-12 18:15:27,17,0,22.58,5351.1203664458,79.724412,0.4921268,0.72510501008,0,0,-0.671082,323.8, -0.3, 0.9,0,0,1024,1024,1024,1024,325,-90,69,3.746,3.76,3.77,3.761,3.772,3.757,19.361,91.4,14,Waypoint,
38.2001652,-120.0382946,5351.7765344458,80.38058,0,0.37451444768,13920,2018-05-12 18:15:27,17,0,22.58,5351.7765344458,80.38058,0.4921268,0.72510501008,0,0,-0.671082,324.1, -0.2, 0.8,0,0,1024,1024,1024,1024,325.1,-89.9,69,3.746,3.76,3.77,3.761,3.772,3.757,19.361,91.4,14,Waypoint,
38.2001652,-120.0382946,5351.7765344458,80.38058,0,0.37451444768,14010,2018-05-12 18:15:27,17,0,22.545,5351.7765344458,80.38058,0.4921268,0.72510501008,0,0,-0.671082,324.1, -0.2, 0.8,0,0,1024,1024,1024,1024,325.1,-89.9,68,3.737,3.749,3.771,3.757,3.772,3.752,18.634,91.4,14,Waypoint,
38.2001652,-120.0382945,5352.7607864458,81.364832,0,0.34599082472,14210,2018-05-12 18:15:27,17,0,22.545,5352.7607864458,81.364832,0.4921268,0.72510501008,0,0,-0.671082,324.2, -0.1, 0.5,0,0,1024,1024,1024,1024,325,-90,68,3.737,3.749,3.771,3.757,3.772,3.752,18.634,91.4,14,Waypoint,
38.2001653,-120.0382943,5354.7292904458,83.333336,0,0.295858605268,14430,2018-05-12 18:15:27,17,0,22.545,5354.7292904458,83.333336,0.4921268,0.72510501008,0,0,-0.671082,324.1, -0.2, -0.5,0,0,1024,1024,1024,1024,325,-90,68,3.737,3.749,3.771,3.757,3.772,3.752,18.634,91.4,14,Waypoint,
38.2001653,-120.0382941,5356.6977944458,85.30184,0,0.24070210744,14600,2018-05-12 18:15:27,17,0,22.545,5356.6977944458,85.30184,0.4921268,0.72510501008,0,0,-0.671082,323.7, -0.4, -1.1,0,0,1024,1024,1024,1024,325,-90,68,3.737,3.749,3.771,3.757,3.772,3.752,18.634,91.4,14,Waypoint,
38.2001653,-120.038294,5359.3224664458,87.926512,0,0.21355643728,14910,2018-05-12 18:15:28,17,0,22.545,5359.3224664458,87.926512,0.4921268,0.72510501008,0,0,-0.671082,323.7, -0.4, -0.5,0,0,1024,1024,1024,1024,325,-90,68,3.737,3.749,3.771,3.757,3.772,3.752,18.634,91.4,14,Waypoint,
38.2001653,-120.038294,5360.3067184458,88.910764,0,0.21355643728,15110,2018-05-12 18:15:28,17,0,22.545,5360.3067184458,88.910764,0.4921268,0.72510501008,0,0,-0.671082,323.8, -0.5, -0.4,0,0,1024,1024,1024,1024,325,-90,68,3.737,3.749,3.771,3.757,3.772,3.752,18.634,91.4,14,Waypoint,
38.2001653,-120.0382939,5363.2594744458,91.86352,0,0.186867131964,15220,2018-05-12 18:15:28,17,0,22.545,5363.2594744458,91.86352,0.4921268,0.72510501008,0,0,-0.671082,324, -0.5, -0.3,0,0,1024,1024,1024,1024,325,-90,68,3.737,3.749,3.771,3.757,3.772,3.752,18.634,91.4,14,Waypoint,
38.2001653,-120.0382939,5363.2594744458,91.86352,0,0.186867131964,15300,2018-05-12 18:15:28,17,0,22.545,5363.2594744458,91.86352,0.4921268,0.72510501008,0,0,-0.671082,324, -0.5, -0.3,0,0,1024,1024,1024,1024,325,-90,68,3.737,3.749,3.771,3.757,3.772,3.752,18.634,91.4,14,Waypoint,
38.2001653,-120.0382939,5364.2437264458,92.847772,0,0.186867131964,15400,2018-05-12 18:15:28,17,0,22.545,5364.2437264458,92.847772,0.4921268,0.72510501008,0,0,-0.671082,324.1, -0.6, -0.3,0,0,1024,1024,1024,1024,325,-90,68,3.737,3.749,3.771,3.757,3.772,3.752,18.634,91.4,14,Waypoint,
38.200165,-120.038294,5368.1807344458,96.78478,0,0.203992460596,15610,2018-05-12 18:15:28,17,0,22.545,5368.1807344458,96.78478,0.4921268,0.72510501008,0,0,-0.671082,323.9, -0.9, 0.3,0,0,1024,1024,1024,1024,325,-90,68,3.737,3.749,3.771,3.757,3.772,3.752,18.634,91.4,14,Waypoint,
38.2001649,-120.0382941,5370.1492384458,98.753284,0,0.24070210744,15700,2018-05-12 18:15:29,17,0,22.545,5370.1492384458,98.753284,0.4921268,0.72510501008,0,0,-0.671082,323.9, -1.1, 0.4,0,0,1024,1024,1024,1024,325,-90,68,3.737,3.749,3.771,3.757,3.772,3.752,18.634,91.4,14,Waypoint,
38.2001649,-120.038294,5371.1334904458,99.737536,0,0.21355643728,15800,2018-05-12 18:15:29,17,0,22.545,5371.1334904458,99.737536,0.4921268,0.72510501008,0,0,-0.671082,324, -1.3, 0.5,0,0,1024,1024,1024,1024,325,-90,68,3.737,3.749,3.771,3.757,3.772,3.752,18.634,91.4,14,Waypoint,
38.2001648,-120.0382941,5373.1019944458,101.70604,0,0.25415191102,16000,2018-05-12 18:15:29,17,0,22.522,5373.1019944458,101.70604,0.4921268,0.72510501008,0,0,-0.671082,324.3, -1.5, 0.3,0,0,1024,1024,1024,1024,325.1,-90,68,3.737,3.749,3.764,3.754,3.763,3.752,18.498,91.4,14,Waypoint,
38.2001647,-120.0382941,5375.0704984458,103.674544,0,0.271866478516,16100,2018-05-12 18:15:29,17,0,22.522,5375.0704984458,103.674544,0.4921268,0.72510501008,0,0,-0.671082,324.5, -1.2, 0.2,0,0,1024,1024,1024,1024,325,-90,68,3.737,3.749,3.764,3.754,3.763,3.752,18.498,91.4,14,Waypoint,
38.2001646,-120.0382941,5376.3828344458,104.98688,0,0.293072844024,16210,2018-05-12 18:15:29,17,0,22.522,5376.3828344458,104.98688,0.4921268,0.72510501008,0,0,-0.671082,324.6, -1.2, 0.3,0,0,1024,1024,1024,1024,325,-90,68,3.737,3.749,3.764,3.754,3.763,3.752,18.498,91.4,14,Waypoint,
38.2001646,-120.0382941,5377.3670864458,105.971132,0,0.293072844024,16300,2018-05-12 18:15:29,17,0,22.522,5377.3670864458,105.971132,0.4921268,0.72510501008,0,0,-0.671082,324.6, -1.1, 0.4,0,0,1024,1024,1024,1024,325,-90,68,3.737,3.749,3.764,3.754,3.763,3.752,18.498,91.4,14,Waypoint,
38.2001645,-120.0382941,5378.0232544458,106.6273,0,0.317071532456,16500,2018-05-12 18:15:29,17,0,22.522,5378.0232544458,106.6273,0.4921268,0.72510501008,0,0,-0.671082,324.6, -1.1, 0.4,0,0,1024,1024,1024,1024,325,-90,68,3.737,3.749,3.764,3.754,3.763,3.752,18.498,91.4,14,Waypoint,
38.2001644,-120.0382941,5380.9760104458,109.580056,0,0.34327757004,16600,2018-05-12 18:15:29,17,0,22.522,5380.9760104458,109.580056,0.4921268,0.72510501008,0,0,-0.671082,324.3, -1.3, 0,0,0,1024,1024,1024,1024,325,-90,68,3.737,3.749,3.764,3.754,3.763,3.752,18.498,91.4,14,Waypoint,
38.2001644,-120.038294,5382.9445144458,111.54856,0,0.324820220368,16900,2018-05-12 18:15:30,18,0,22.522,5382.9445144458,111.54856,0.4921268,0.72510501008,0,0,-0.671082,324, -1.7, -0.2,0,0,1024,1024,1024,1024,325,-90,68,3.737,3.749,3.764,3.754,3.763,3.752,18.498,91.4,14,Waypoint,
38.2001643,-120.038294,5383.9287664458,112.532812,0,0.35422573312,17000,2018-05-12 18:15:30,18,0,22.499,5383.9287664458,112.532812,0.4921268,0.72510501008,0,0,-0.671082,324.1, -1.5, -0.2,0,0,1024,1024,1024,1024,325,-90,68,3.734,3.737,3.765,3.759,3.769,3.746,18.434,91.4,14,Waypoint,
38.2001643,-120.038294,5384.9130184458,113.517064,0,0.35422573312,17100,2018-05-12 18:15:30,18,0,22.499,5384.9130184458,113.517064,0.4921268,0.72510501008,0,0,-0.671082,324.2, -1.3, -0.2,0,0,1024,1024,1024,1024,325,-90,68,3.734,3.737,3.765,3.759,3.769,3.746,18.434,91.4,14,Waypoint,
38.2001642,-120.038294,5386.8815224458,115.485568,0,0.384842532,17300,2018-05-12 18:15:30,18,0,22.499,5386.8815224458,115.485568,0.4921268,0.72510501008,0,0,-0.671082,324, -1.5, -0.2,0,0,1024,1024,1024,1024,325,-90,68,3.734,3.737,3.765,3.759,3.769,3.746,18.434,91.4,14,Waypoint,
38.2001642,-120.038294,5387.8657744458,116.46982,0,0.384842532,17400,2018-05-12 18:15:30,18,0,22.499,5387.8657744458,116.46982,0.4921268,0.72510501008,0,0,-0.671082,324, -2, -0.3,0,0,1024,1024,1024,1024,325,-90,68,3.734,3.737,3.765,3.759,3.769,3.746,18.434,91.4,14,Waypoint,
38.200164,-120.038294,5389.8342784458,118.438324,0,0.4487204868,17600,2018-05-12 18:15:30,18,0,22.499,5389.8342784458,118.438324,0.4921268,0.72510501008,0,0,-0.671082,324.6, -1.9, 0.8,0,0,1024,1024,1024,1024,325.1,-90,68,3.734,3.737,3.765,3.759,3.769,3.746,18.434,91.4,14,Waypoint,
38.200164,-120.038294,5390.8185304458,119.422576,0,0.4487204868,17700,2018-05-12 18:15:31,18,0,22.499,5390.8185304458,119.422576,0.4921268,0.72510501008,0,0,-0.671082,324.7, -2, 0.8,0,0,1024,1024,1024,1024,325,-90,68,3.734,3.737,3.765,3.759,3.769,3.746,18.434,91.4,14,Waypoint,
38.2001639,-120.038294,5392.1308664458,120.734912,0,0.48163059284,17800,2018-05-12 18:15:31,18,0,22.499,5392.1308664458,120.734912,0.4921268,0.72510501008,0,0,-0.671082,324.8, -2.3, 0.4,0,0,1024,1024,1024,1024,325,-90,68,3.734,3.737,3.765,3.759,3.769,3.746,18.434,91.4,14,Waypoint,
38.2001638,-120.0382938,5395.0836224458,123.687668,0,0.49549542268,18210,2018-05-12 18:15:31,18,0,22.499,5395.0836224458,123.687668,0.4921268,0.72510501008,0,0,-0.671082,324.3, -2.7, -0.7,0,0,1024,1024,1024,1024,325,-90,68,3.734,3.737,3.765,3.759,3.769,3.746,18.434,91.4,14,Waypoint,
38.2001638,-120.0382937,5396.0678744458,124.67192,0,0.48797245656,18300,2018-05-12 18:15:31,19,0,22.499,5396.0678744458,124.67192,0.4921268,0.72510501008,0,0,-0.671082,324.2, -2.8, -1,0,0,1024,1024,1024,1024,325,-90,68,3.734,3.737,3.765,3.759,3.769,3.746,18.434,91.4,14,Waypoint,
38.2001638,-120.0382936,5397.0521264458,125.656172,0,0.48204069784,18410,2018-05-12 18:15:31,19,0,22.499,5397.0521264458,125.656172,0.4921268,0.72510501008,0,0,-0.671082,324.2, -2.8, -1.1,0,0,1024,1024,1024,1024,325,-90,68,3.734,3.737,3.765,3.759,3.769,3.746,18.434,91.4,14,Waypoint,
38.2001638,-120.0382934,5399.0206304458,127.624676,0,0.47517061888,18600,2018-05-12 18:15:31,19,0,22.499,5399.0206304458,127.624676,0.4921268,0.72510501008,0,0,-0.671082,324.2, -2.5, -1.5,0,0,1024,1024,1024,1024,325,-90,68,3.734,3.737,3.765,3.759,3.769,3.746,18.434,91.4,14,Waypoint,
38.2001638,-120.0382933,5400.3329664458,128.937012,0,0.47430447712,18700,2018-05-12 18:15:32,19,0,22.499,5400.3329664458,128.937012,0.4921268,0.72510501008,0,0,-0.671082,324.3, -2.4, -1.5,0,0,1024,1024,1024,1024,325,-90,68,3.734,3.737,3.765,3.759,3.769,3.746,18.434,91.4,14,Waypoint,
38.2001638,-120.0382932,5401.3172184458,129.921264,0,0.47517061888,18800,2018-05-12 18:15:32,19,0,22.499,5401.3172184458,129.921264,0.4921268,0.72510501008,0,0,-0.671082,324.3, -2.4, -1.6,0,0,1024,1024,1024,1024,325,-90,68,3.734,3.737,3.765,3.759,3.769,3.746,18.434,91.4,14,Waypoint,
38.2001638,-120.0382929,5403.2857224458,131.889768,0,0.48797245656,18900,2018-05-12 18:15:32,19,0,22.499,5403.2857224458,131.889768,0.4921268,0.72510501008,0,0,-0.671082,324.4, -3.7, -1.9,0,0,1024,1024,1024,1024,325,-90,68,3.734,3.737,3.765,3.759,3.769,3.746,18.434,91.4,14,Waypoint,
38.2001638,-120.0382927,5405.2542264458,133.858272,0,0.50453741772,19000,2018-05-12 18:15:32,19,0,22.494,5405.2542264458,133.858272,0.4921268,0.72510501008,0,0,-0.671082,324.5, -3.2, -2,0,0,1024,1024,1024,1024,325,-89.9,68,3.736,3.743,3.76,3.742,3.751,3.747,18.07,91.4,14,Waypoint,
38.2001638,-120.0382924,5408.2069824458,136.811028,0,0.53995736636,19400,2018-05-12 18:15:32,19,0,22.494,5408.2069824458,136.811028,0.4921268,0.72510501008,0,0,-0.671082,324.5, -2.8, -2.4,0,0,1024,1024,1024,1024,325,-89.9,68,3.736,3.743,3.76,3.742,3.751,3.747,18.07,91.4,14,Waypoint,
38.2001638,-120.0382923,5409.1912344458,137.79528,0,0.5542323012,19500,2018-05-12 18:15:32,19,0,22.494,5409.1912344458,137.79528,0.4921268,0.72510501008,0,0,-0.671082,324.7, -3.5, -2.4,0,0,1024,1024,1024,1024,325,-89.9,68,3.736,3.743,3.76,3.742,3.751,3.747,18.07,91.4,14,Waypoint,
38.2001637,-120.0382921,5410.1754864458,138.779532,0,0.61585959976,19600,2018-05-12 18:15:32,19,0,22.494,5410.1754864458,138.779532,0.4921268,0.72510501008,0,0,-0.671082,324.8, -4, -2.8,0,0,1024,1024,1024,1024,325,-89.9,68,3.736,3.743,3.76,3.742,3.751,3.747,18.07,91.4,14,Waypoint,
38.2001637,-120.038292,5411.1597384458,139.763784,0,0.63232613572,19700,2018-05-12 18:15:33,19,0,22.494,5411.1597384458,139.763784,0.4921268,0.72510501008,0,0,-0.671082,324.7, -4.1, -2.8,0,0,1024,1024,1024,1024,324.9,-89.9,68,3.736,3.743,3.76,3.742,3.751,3.747,18.07,91.4,14,Waypoint,
38.2001637,-120.0382919,5411.8159064458,140.419952,0,0.6496391284,19800,2018-05-12 18:15:33,19,0,22.494,5411.8159064458,140.419952,0.4921268,0.72510501008,0,0,-0.671082,324.6, -4, -2.6,0,0,1024,1024,1024,1024,324.9,-89.9,68,3.736,3.743,3.76,3.742,3.751,3.747,18.07,91.4,14,Waypoint,
38.2001638,-120.0382918,5412.8001584458,141.404204,0,0.64025920684,19900,2018-05-12 18:15:33,19,0,22.494,5412.8001584458,141.404204,0.4921268,0.72510501008,0,0,-0.671082,324.5, -3.8, -2.7,0,0,1024,1024,1024,1024,324.9,-89.9,68,3.736,3.743,3.76,3.742,3.751,3.747,18.07,91.4,14,Waypoint,
38.2001638,-120.0382917,5413.7844104458,142.388456,0,0.65986222584,20000,2018-05-12 18:15:33,19,0,22.467,5413.7844104458,142.388456,0.4921268,0.72510501008,0,0,-0.671082,324.3, -3.6, -3,0,0,1024,1024,1024,1024,324.9,-89.9,68,3.727,3.734,3.766,3.746,3.758,3.74,18.008,91.4,14,Waypoint,
38.2001639,-120.0382916,5414.7686624458,143.372708,0.223694,0.655183748,20100,2018-05-12 18:15:33,19,0,22.467,5414.7686624458,143.372708,0.4921268,0.72510501008,0,0,-0.671082,323.9, -3.3, -3.8,0,0,1024,1024,1024,1024,324.9,-89.9,68,3.727,3.734,3.766,3.746,3.758,3.74,18.008,91.4,14,Waypoint,
38.200164,-120.0382915,5415.7529144458,144.35696,0.223694,0.65377626764,20200,2018-05-12 18:15:33,19,0,22.467,5415.7529144458,144.35696,0.4921268,0.72510501008,0,0,-0.671082,323.6, -3.3, -4.7,0,0,1024,1024,1024,1024,324.9,-89.9,68,3.727,3.734,3.766,3.746,3.758,3.74,18.008,91.4,14,Waypoint,
38.2001642,-120.0382914,5416.7371664458,145.341212,0.223694,0.63607613584,20300,2018-05-12 18:15:33,19,0,22.467,5416.7371664458,145.341212,0.4921268,0.72510501008,0,0,-0.671082,323.3, -2.7, -5.2,0,0,1024,1024,1024,1024,324.9,-89.9,68,3.727,3.734,3.766,3.746,3.758,3.74,18.008,91.4,14,Waypoint,
38.2001643,-120.0382914,5417.7214184458,146.325464,0.223694,0.61803151584,20400,2018-05-12 18:15:33,19,0,22.467,5417.7214184458,146.325464,0.4921268,0.72510501008,0,0,-0.671082,323.2, -2, -4.8,0,0,1024,1024,1024,1024,324.9,-89.9,68,3.727,3.734,3.766,3.746,3.758,3.74,18.008,91.4,14,Waypoint,
38.2001644,-120.0382914,5418.3775864458,146.981632,0,0.60166012424,20500,2018-05-12 18:15:33,19,0,22.467,5418.3775864458,146.981632,0.4921268,0.72510501008,0,0,-0.671082,323.3, -2, -4.2,0,0,1024,1024,1024,1024,324.9,-89.9,68,3.727,3.734,3.766,3.746,3.758,3.74,18.008,91.4,14,Waypoint,
38.2001644,-120.0382914,5419.3618384458,147.965884,0,0.60166012424,20600,2018-05-12 18:15:33,19,0,22.467,5419.3618384458,147.965884,0.4921268,0.72510501008,0,0,-0.671082,323.6, -2, -3.5,0,0,1024,1024,1024,1024,324.9,-89.9,68,3.727,3.734,3.766,3.746,3.758,3.74,18.008,91.4,14,Waypoint,
38.2001644,-120.0382916,5421.3303424458,149.934388,0,0.550278889,20820,2018-05-12 18:15:34,19,0,22.467,5421.3303424458,149.934388,0.4921268,0.72510501008,0,0,-0.671082,324, -2.7, -2.5,0,0,1024,1024,1024,1024,324.9,-90,68,3.727,3.734,3.766,3.746,3.758,3.74,18.008,91.4,14,Waypoint,
38.2001644,-120.0382917,5422.3145944458,150.91864,0,0.5250492294,20900,2018-05-12 18:15:34,19,0,22.467,5422.3145944458,150.91864,0.4921268,0.72510501008,0,0,-0.671082,324.1, -2.9, -2.2,0,0,1024,1024,1024,1024,324.9,-90,68,3.727,3.734,3.766,3.746,3.758,3.74,18.008,91.4,14,Waypoint,
38.2001644,-120.0382918,5422.9707624458,151.574808,0,0.50019358556,21000,2018-05-12 18:15:34,19,0,22.499,5422.9707624458,151.574808,0.4921268,0.72510501008,0,0,-0.671082,324.3, -2.9, -2.1,0,0,1024,1024,1024,1024,324.9,-89.9,68,3.699,3.714,3.753,3.738,3.754,3.734,19.785,91.4,14,Waypoint,
38.2001644,-120.0382918,5423.9550144458,152.55906,0,0.50019358556,21100,2018-05-12 18:15:34,19,0,22.499,5423.9550144458,152.55906,0.4921268,0.72510501008,0,0,-0.671082,324.3, -2.7, -2,0,0,1024,1024,1024,1024,324.9,-89.9,68,3.699,3.714,3.753,3.738,3.754,3.734,19.785,91.4,14,Waypoint,
38.2001644,-120.038292,5425.9235184458,154.527564,0,0.4518372848,21210,2018-05-12 18:15:34,19,0,22.499,5425.9235184458,154.527564,0.4921268,0.72510501008,0,0,-0.671082,324.4, -2.5, -2,0,0,1024,1024,1024,1024,324.9,-89.9,68,3.699,3.714,3.753,3.738,3.754,3.734,19.785,91.4,14,Waypoint,
38.2001644,-120.0382921,5426.9077704458,155.511816,0.223694,0.42849082736,21400,2018-05-12 18:15:34,19,0,22.499,5426.9077704458,155.511816,0.4921268,0.72510501008,0,0,-0.671082,324.3, -2.5, -1.8,0,0,1024,1024,1024,1024,324.9,-89.9,68,3.699,3.714,3.753,3.738,3.754,3.734,19.785,91.4,14,Waypoint,
38.2001644,-120.0382922,5427.5639384458,156.167984,0,0.40583006548,21500,2018-05-12 18:15:34,19,0,22.499,5427.5639384458,156.167984,0.4921268,0.72510501008,0,0,-0.671082,324.2, -2.4, -1.6,0,0,1024,1024,1024,1024,324.9,-89.9,68,3.699,3.714,3.753,3.738,3.754,3.734,19.785,91.4,14,Waypoint,
38.2001643,-120.0382923,5428.5481904458,157.152236,0,0.40914699472,21600,2018-05-12 18:15:34,19,0,22.499,5428.5481904458,157.152236,0.4921268,0.72510501008,0,0,-0.671082,324.1, -2.5, -1.6,0,0,1024,1024,1024,1024,324.9,-89.9,68,3.699,3.714,3.753,3.738,3.754,3.734,19.785,91.4,14,Waypoint,
38.2001643,-120.0382923,5429.5324424458,158.136488,0,0.40914699472,21700,2018-05-12 18:15:35,19,0,22.499,5429.5324424458,158.136488,0.4921268,0.72510501008,0,0,-0.671082,324.1, -2.7, -1.8,0,0,1024,1024,1024,1024,324.9,-89.9,68,3.699,3.714,3.753,3.738,3.754,3.734,19.785,91.4,14,Waypoint,
38.2001643,-120.0382924,5430.5166944458,159.12074,0,0.38959318832,21800,2018-05-12 18:15:35,19,0,22.499,5430.5166944458,159.12074,0.4921268,0.72510501008,0,0,-0.671082,324.1, -2.9, -1.9,0,0,1024,1024,1024,1024,324.9,-90,68,3.699,3.714,3.753,3.738,3.754,3.734,19.785,91.4,14,Waypoint,
38.2001643,-120.0382924,5431.8290304458,160.433076,0,0.38959318832,21900,2018-05-12 18:15:35,19,0,22.499,5431.8290304458,160.433076,0.4921268,0.72510501008,0,0,-0.671082,324.2, -3, -2,0,0,1024,1024,1024,1024,324.9,-89.9,68,3.699,3.714,3.753,3.738,3.754,3.734,19.785,91.4,14,Waypoint,
38.2001643,-120.0382924,5432.8132824458,161.417328,0,0.38959318832,22000,2018-05-12 18:15:35,19,0,22.271,5432.8132824458,161.417328,0.4921268,0.72510501008,0,0,-0.671082,324.1, -2.9, -2.3,0,0,1024,1024,1024,1024,324.9,-89.9,68,3.707,3.706,3.725,3.705,3.729,3.718,20.531,93.2,14,Waypoint,
38.2001643,-120.0382925,5433.7975344458,162.40158,0,0.37122376516,22100,2018-05-12 18:15:35,19,0,22.271,5433.7975344458,162.40158,0.4921268,0.72510501008,0,0,-0.671082,324.1, -2.7, -2.2,0,0,1024,1024,1024,1024,324.9,-89.9,68,3.707,3.706,3.725,3.705,3.729,3.718,20.531,93.2,14,Waypoint,
38.2001643,-120.0382925,5434.7817864458,163.385832,0,0.37122376516,22200,2018-05-12 18:15:35,19,0,22.271,5434.7817864458,163.385832,0.4921268,0.72510501008,0,0,-0.671082,324, -2.6, -2.1,0,0,1024,1024,1024,1024,324.9,-89.9,68,3.707,3.706,3.725,3.705,3.729,3.718,20.531,93.2,14,Waypoint,
38.2001643,-120.0382926,5435.7660384458,164.370084,0,0.35422573312,22300,2018-05-12 18:15:35,19,0,22.271,5435.7660384458,164.370084,0.4921268,0.72510501008,0,0,-0.671082,324, -2.7, -2.1,0,0,1024,1024,1024,1024,324.9,-89.9,68,3.707,3.706,3.725,3.705,3.729,3.718,20.531,93.2,14,Waypoint,
38.2001643,-120.0382927,5436.7502904458,165.354336,0,0.33880578512,22400,2018-05-12 18:15:35,19,0,22.271,5436.7502904458,165.354336,0.4921268,0.72510501008,0,0,-0.671082,323.9, -2.6, -2.1,0,0,1024,1024,1024,1024,324.9,-90,68,3.707,3.706,3.725,3.705,3.729,3.718,20.531,93.2,14,Waypoint,
38.2001642,-120.0382927,5438.0626264458,166.666672,0,0.37069883076,22500,2018-05-12 18:15:35,19,0,22.271,5438.0626264458,166.666672,0.4921268,0.72510501008,0,0,-0.671082,323.9, -2.7, -2,0,0,1024,1024,1024,1024,324.9,-89.9,68,3.707,3.706,3.725,3.705,3.729,3.718,20.531,93.2,14,Waypoint,
38.2001642,-120.0382927,5439.0468784458,167.650924,0,0.37069883076,22600,2018-05-12 18:15:35,19,0,22.271,5439.0468784458,167.650924,0.4921268,0.72510501008,0,0,-0.671082,323.9, -2.8, -2,0,0,1024,1024,1024,1024,324.9,-90,68,3.707,3.706,3.725,3.705,3.729,3.718,20.531,93.2,14,Waypoint,
38.2001642,-120.0382928,5440.0311304458,168.635176,0,0.35829397472,22700,2018-05-12 18:15:36,19,0,22.271,5440.0311304458,168.635176,0.4921268,0.72510501008,0,0,-0.671082,323.9, -2.9, -1.9,0,0,1024,1024,1024,1024,324.9,-89.9,68,3.707,3.706,3.725,3.705,3.729,3.718,20.531,93.2,14,Waypoint,
38.2001641,-120.0382929,5441.0153824458,169.619428,0,0.38245079964,22800,2018-05-12 18:15:36,19,0,22.271,5441.0153824458,169.619428,0.4921268,0.72510501008,0,0,-0.671082,324, -2.8, -1.8,0,0,1024,1024,1024,1024,324.9,-90,68,3.707,3.706,3.725,3.705,3.729,3.718,20.531,93.2,14,Waypoint,
38.2001641,-120.0382929,5441.9996344458,170.60368,0,0.38245079964,22900,2018-05-12 18:15:36,19,0,22.271,5441.9996344458,170.60368,0.4921268,0.72510501008,0,0,-0.671082,324, -3, -1.9,0,0,1024,1024,1024,1024,324.9,-90,68,3.707,3.706,3.725,3.705,3.729,3.718,20.531,93.2,14,Waypoint,
38.200164,-120.0382929,5442.9838864458,171.587932,0,0.41739830732,23000,2018-05-12 18:15:36,19,0,22.251,5442.9838864458,171.587932,0.4921268,0.72510501008,0,0,-0.671082,324.1, -3.2, -1.8,0,0,1024,1024,1024,1024,324.9,-90,68,3.689,3.7,3.73,3.706,3.727,3.705,20.468,93.2,14,Waypoint,
38.2001639,-120.0382929,5443.9681384458,172.572184,0,0.452591878,23100,2018-05-12 18:15:36,19,0,22.251,5443.9681384458,172.572184,0.4921268,0.72510501008,0,0,-0.671082,324.1, -3.4, -1.8,0,0,1024,1024,1024,1024,324.9,-90,68,3.689,3.7,3.73,3.706,3.727,3.705,20.468,93.2,14,Waypoint,
38.2001639,-120.038293,5444.9523904458,173.556436,0,0.44618767832,23200,2018-05-12 18:15:36,19,0,22.251,5444.9523904458,173.556436,0.4921268,0.72510501008,0,0,-0.671082,324.2, -3.5, -1.7,0,0,1024,1024,1024,1024,324.9,-90,68,3.689,3.7,3.73,3.706,3.727,3.705,20.468,93.2,14,Waypoint,
38.2001638,-120.038293,5445.9366424458,174.540688,0,0.48204069784,23300,2018-05-12 18:15:36,19,0,22.251,5445.9366424458,174.540688,0.4921268,0.72510501008,0,0,-0.671082,324.2, -3.7, -2,0,0,1024,1024,1024,1024,324.9,-90,68,3.689,3.7,3.73,3.706,3.727,3.705,20.468,93.2,14,Waypoint,
38.2001637,-120.038293,5449.2174824458,177.821528,0,0.51798230004,23600,2018-05-12 18:15:36,19,0,22.251,5449.2174824458,177.821528,0.4921268,0.72510501008,0,0,-0.671082,324.2, -3.2, -2.4,0,0,1024,1024,1024,1024,324.9,-89.9,68,3.689,3.7,3.73,3.706,3.727,3.705,20.468,93.2,14,Waypoint,
38.2001637,-120.038293,5451.1859864458,179.790032,0,0.51798230004,23800,2018-05-12 18:15:37,19,0,22.251,5451.1859864458,179.790032,0.4921268,0.72510501008,0,0,-0.671082,324.2, -3, -2.1,0,0,1024,1024,1024,1024,324.9,-89.9,68,3.689,3.7,3.73,3.706,3.727,3.705,20.468,93.2,14,Waypoint,
38.2001637,-120.0382931,5452.1702384458,180.774284,0,0.51399936028,23900,2018-05-12 18:15:37,19,0,22.251,5452.1702384458,180.774284,0.4921268,0.72510501008,0,0,-0.671082,324.2, -3.1, -1.7,0,0,1024,1024,1024,1024,324.9,-89.9,68,3.689,3.7,3.73,3.706,3.727,3.705,20.468,93.2,14,Waypoint,
38.2001636,-120.0382931,5452.8264064458,181.430452,0,0.55026904648,24000,2018-05-12 18:15:37,19,0,22.251,5452.8264064458,181.430452,0.4921268,0.72510501008,0,0,-0.671082,324.1, -3.1, -1.4,0,0,1024,1024,1024,1024,324.9,-89.9,67,3.688,3.7,3.727,3.706,3.723,3.702,20.115,93.2,14,Waypoint,
38.2001636,-120.0382931,5454.1387424458,182.742788,0,0.55026904648,24100,2018-05-12 18:15:37,19,0,22.251,5454.1387424458,182.742788,0.4921268,0.72510501008,0,0,-0.671082,324, -3.2, -1.3,0,0,1024,1024,1024,1024,324.9,-89.9,67,3.688,3.7,3.727,3.706,3.723,3.702,20.115,93.2,14,Waypoint,
38.2001636,-120.0382931,5454.7949104458,183.398956,0,0.55026904648,24200,2018-05-12 18:15:37,19,0,22.251,5454.7949104458,183.398956,0.4921268,0.72510501008,0,0,-0.671082,324, -3.3, -1.7,0,0,1024,1024,1024,1024,324.9,-90,67,3.688,3.7,3.727,3.706,3.723,3.702,20.115,93.2,14,Waypoint,
38.2001635,-120.0382931,5456.1072464458,184.711292,0,0.58656826024,24300,2018-05-12 18:15:37,19,0,22.251,5456.1072464458,184.711292,0.4921268,0.72510501008,0,0,-0.671082,324, -3.6, -1.9,0,0,1024,1024,1024,1024,324.9,-90,67,3.688,3.7,3.727,3.706,3.723,3.702,20.115,93.2,14,Waypoint,
38.2001635,-120.038293,5457.0914984458,185.695544,0,0.59006235484,24400,2018-05-12 18:15:37,19,0,22.251,5457.0914984458,185.695544,0.4921268,0.72510501008,0,0,-0.671082,324.1, -4, -2.2,0,0,1024,1024,1024,1024,324.9,-90,67,3.688,3.7,3.727,3.706,3.723,3.702,20.115,93.2,14,Waypoint,
38.2001635,-120.0382929,5458.7319184458,187.335964,0,0.59491799804,24600,2018-05-12 18:15:37,19,0,22.251,5458.7319184458,187.335964,0.4921268,0.72510501008,0,0,-0.671082,324.2, -3.7, -2.3,0,0,1024,1024,1024,1024,324.9,-89.9,67,3.688,3.7,3.727,3.706,3.723,3.702,20.115,93.2,14,Waypoint,
38.2001635,-120.0382929,5459.7161704458,188.320216,0,0.59491799804,24710,2018-05-12 18:15:38,19,0,22.251,5459.7161704458,188.320216,0.4921268,0.72510501008,0,0,-0.671082,324.3, -3.6, -2.2,0,0,1024,1024,1024,1024,324.9,-89.9,67,3.688,3.7,3.727,3.706,3.723,3.702,20.115,93.2,14,Waypoint,
38.2001635,-120.0382929,5460.7004224458,189.304468,0,0.59491799804,24800,2018-05-12 18:15:38,19,0,22.251,5460.7004224458,189.304468,0.4921268,0.72510501008,0,0,-0.671082,324.2, -3.5, -2.1,0,0,1024,1024,1024,1024,324.9,-89.9,67,3.688,3.7,3.727,3.706,3.723,3.702,20.115,93.2,14,Waypoint,
38.2001635,-120.0382929,5461.6846744458,190.28872,0,0.59491799804,24910,2018-05-12 18:15:38,19,0,22.251,5461.6846744458,190.28872,0.4921268,0.72510501008,0,0,-0.671082,324.2, -3.4, -1.9,0,0,1024,1024,1024,1024,324.9,-89.9,67,3.688,3.7,3.727,3.706,3.723,3.702,20.115,93.2,14,Waypoint,
38.2001635,-120.0382929,5462.6689264458,191.272972,0,0.59491799804,25000,2018-05-12 18:15:38,19,0,22.188,5462.6689264458,191.272972,0.4921268,0.72510501008,0,0,-0.671082,324.3, -3.4, -1.6,0,0,1024,1024,1024,1024,324.9,-90,67,3.688,3.7,3.727,3.706,3.723,3.702,20.754,93.2,14,Waypoint,
38.2001635,-120.0382929,5463.6531784458,192.257224,0,0.59491799804,25100,2018-05-12 18:15:38,19,0,22.188,5463.6531784458,192.257224,0.4921268,0.72510501008,0,0,-0.671082,324.3, -3.3, -1.6,0,0,1024,1024,1024,1024,324.9,-89.9,67,3.688,3.7,3.727,3.706,3.723,3.702,20.754,93.2,14,Waypoint,
38.2001634,-120.0382929,5464.9655144458,193.56956,0,0.6307578942,25200,2018-05-12 18:15:38,19,0,22.188,5464.9655144458,193.56956,0.4921268,0.72510501008,0,0,-0.671082,324.3, -3.5, -2,0,0,1024,1024,1024,1024,324.9,-90,67,3.688,3.7,3.727,3.706,3.723,3.702,20.754,93.2,14,Waypoint,
38.2001634,-120.0382927,5466.9340184458,195.538064,0,0.64365815708,25300,2018-05-12 18:15:38,19,0,22.188,5466.9340184458,195.538064,0.4921268,0.72510501008,0,0,-0.671082,324.2, -4.1, -2.4,0,0,1024,1024,1024,1024,324.9,-90,67,3.688,3.7,3.727,3.706,3.723,3.702,20.754,93.2,14,Waypoint,
38.2001634,-120.0382926,5467.9182704458,196.522316,0,0.65190946968,25400,2018-05-12 18:15:38,19,0,22.188,5467.9182704458,196.522316,0.4921268,0.72510501008,0,0,-0.671082,324.2, -4.1, -2.2,0,0,1024,1024,1024,1024,324.9,-90,67,3.688,3.7,3.727,3.706,3.723,3.702,20.754,93.2,14,Waypoint,
38.2001635,-120.0382924,5469.8867744458,198.49082,0,0.63825133276,25700,2018-05-12 18:15:39,19,0,22.188,5469.8867744458,198.49082,0.4921268,0.72510501008,0,0,-0.671082,324.1, -4.3, -2.8,0,0,1024,1024,1024,1024,324.9,-90,67,3.688,3.7,3.727,3.706,3.723,3.702,20.754,93.2,14,Waypoint,
38.2001635,-120.0382923,5470.8710264458,199.475072,0,0.65037075572,25800,2018-05-12 18:15:39,19,0,22.188,5470.8710264458,199.475072,0.4921268,0.72510501008,0,0,-0.671082,324.1, -4, -3.3,0,0,1024,1024,1024,1024,324.9,-89.9,67,3.688,3.7,3.727,3.706,3.723,3.702,20.754,93.2,14,Waypoint,
38.2001635,-120.0382922,5471.8552784458,200.459324,0,0.66351051992,25900,2018-05-12 18:15:39,19,0,22.188,5471.8552784458,200.459324,0.4921268,0.72510501008,0,0,-0.671082,324.1, -3.8, -3.5,0,0,1024,1024,1024,1024,324.9,-90,67,3.688,3.7,3.727,3.706,3.723,3.702,20.754,93.2,14,Waypoint,
38.2001636,-120.0382922,5472.8395304458,201.443576,0,0.63165028268,26000,2018-05-12 18:15:39,19,0,22.188,5472.8395304458,201.443576,0.4921268,0.72510501008,0,0,-0.671082,324, -3.7, -3.1,0,0,1024,1024,1024,1024,324.9,-89.9,67,3.674,3.691,3.713,3.697,3.713,3.695,20.754,93.2,14,Waypoint,
38.2001636,-120.0382922,5473.8237824458,202.427828,0,0.63165028268,26100,2018-05-12 18:15:39,19,0,22.188,5473.8237824458,202.427828,0.4921268,0.72510501008,0,0,-0.671082,324, -3.4, -2.6,0,0,1024,1024,1024,1024,324.9,-89.9,67,3.674,3.691,3.713,3.697,3.713,3.695,20.754,93.2,14,Waypoint,
38.2001636,-120.0382922,5474.8080344458,203.41208,0,0.63165028268,26200,2018-05-12 18:15:39,19,0,22.188,5474.8080344458,203.41208,0.4921268,0.72510501008,0,0,-0.671082,324.1, -3.4, -2.5,0,0,1024,1024,1024,1024,324.9,-90,67,3.674,3.691,3.713,3.697,3.713,3.695,20.754,93.2,14,Waypoint,
38.2001636,-120.0382922,5475.7922864458,204.396332,0,0.63165028268,26300,2018-05-12 18:15:39,19,0,22.188,5475.7922864458,204.396332,0.4921268,0.72510501008,0,0,-0.671082,324.1, -3.7, -2.5,0,0,1024,1024,1024,1024,324.9,-90,67,3.674,3.691,3.713,3.697,3.713,3.695,20.754,93.2,14,Waypoint,
38.2001636,-120.0382921,5476.7765384458,205.380584,0,0.64644359024,26400,2018-05-12 18:15:39,19,0,22.188,5476.7765384458,205.380584,0.4921268,0.72510501008,0,0,-0.671082,324.1, -3.9, -2.9,0,0,1024,1024,1024,1024,324.9,-90,67,3.674,3.691,3.713,3.697,3.713,3.695,20.754,93.2,14,Waypoint,
38.2001636,-120.038292,5477.7607904458,206.364836,0,0.66214897132,26500,2018-05-12 18:15:39,19,0,22.188,5477.7607904458,206.364836,0.4921268,0.72510501008,0,0,-0.671082,324.1, -4.3, -3.5,0,0,1024,1024,1024,1024,324.9,-90,67,3.674,3.691,3.713,3.697,3.713,3.695,20.754,93.2,14,Waypoint,
38.2001636,-120.0382918,5479.0731264458,207.677172,0,0.69604332936,26600,2018-05-12 18:15:39,19,0,22.188,5479.0731264458,207.677172,0.4921268,0.72510501008,0,0,-0.671082,324.2, -4.7, -3.9,0,0,1024,1024,1024,1024,324.9,-90,67,3.674,3.691,3.713,3.697,3.713,3.695,20.754,93.2,14,Waypoint,
38.2001636,-120.0382917,5480.0573784458,208.661424,0,0.71411419608,26700,2018-05-12 18:15:40,19,0,22.188,5480.0573784458,208.661424,0.4921268,0.72510501008,0,0,-0.671082,324.2, -4.9, -4.3,0,0,1024,1024,1024,1024,324.9,-90,67,3.674,3.691,3.713,3.697,3.713,3.695,20.754,93.2,14,Waypoint,
38.2001636,-120.0382916,5480.7135464458,209.317592,0,0.73286419668,26800,2018-05-12 18:15:40,19,0,22.188,5480.7135464458,209.317592,0.4921268,0.73286419668,0,0,-0.671082,324.2, -4.6, -4.4,0,0,1024,1024,1024,1024,324.9,-89.9,67,3.674,3.691,3.713,3.697,3.713,3.695,20.754,93.2,14,Waypoint,
38.2001636,-120.0382916,5481.6977984458,210.301844,0,0.73286419668,26900,2018-05-12 18:15:40,19,0,22.188,5481.6977984458,210.301844,0.4921268,0.73286419668,0,0,-0.671082,324.1, -4.4, -4.5,0,0,1024,1024,1024,1024,324.9,-90,67,3.674,3.691,3.713,3.697,3.713,3.695,20.754,93.2,14,Waypoint,
38.2001636,-120.0382915,5482.6820504458,211.286096,0,0.75223755688,27000,2018-05-12 18:15:40,19,0,22.141,5482.6820504458,211.286096,0.4921268,0.75223755688,0,0,-0.671082,324.1, -4.5, -4.1,0,0,1024,1024,1024,1024,324.9,-90,67,3.667,3.68,3.713,3.694,3.71,3.693,20.859,93.2,14,Waypoint,
38.2001636,-120.0382915,5483.6663024458,212.270348,0,0.75223755688,27100,2018-05-12 18:15:40,19,0,22.141,5483.6663024458,212.270348,0.4921268,0.75223755688,0,0,-0.671082,324.1, -4.5, -3.5,0,0,1024,1024,1024,1024,324.9,-90,67,3.667,3.68,3.713,3.694,3.71,3.693,20.859,93.2,14,Waypoint,
38.2001636,-120.0382916,5484.6505544458,213.2546,0,0.73286419668,27200,2018-05-12 18:15:40,19,0,22.141,5484.6505544458,213.2546,0.4921268,0.75223755688,0,0,-0.671082,324.1, -4.4, -3.1,0,0,1024,1024,1024,1024,324.9,-90,67,3.667,3.68,3.713,3.694,3.71,3.693,20.859,93.2,14,Waypoint,
38.2001636,-120.0382917,5485.6348064458,214.238852,0,0.71411419608,27300,2018-05-12 18:15:40,19,0,22.141,5485.6348064458,214.238852,0.4921268,0.75223755688,0,0,-0.671082,324, -4.3, -2.9,0,0,1024,1024,1024,1024,324.9,-90,67,3.667,3.68,3.713,3.694,3.71,3.693,20.859,93.2,14,Waypoint,
38.2001635,-120.0382918,5486.6190584458,215.223104,0,0.7250820442,27400,2018-05-12 18:15:40,19,0,22.141,5486.6190584458,215.223104,0.4921268,0.75223755688,0,0,-0.671082,323.9, -4.2, -2.7,0,0,1024,1024,1024,1024,324.9,-90,67,3.667,3.68,3.713,3.694,3.71,3.693,20.859,93.2,14,Waypoint,
38.2001635,-120.0382919,5487.2752264458,215.879272,0,0.70845146624,27500,2018-05-12 18:15:40,19,0,22.141,5487.2752264458,215.879272,0.4921268,0.75223755688,0,0,-0.671082,323.9, -4.2, -2,0,0,1024,1024,1024,1024,324.9,-89.9,67,3.667,3.68,3.713,3.694,3.71,3.693,20.859,93.2,14,Waypoint,
38.2001635,-120.038292,5488.2594784458,216.863524,0,0.69260828988,27600,2018-05-12 18:15:40,19,0,22.141,5488.2594784458,216.863524,0.4921268,0.75223755688,0,0,-0.671082,324, -4.3, -1.8,0,0,1024,1024,1024,1024,324.9,-89.9,67,3.667,3.68,3.713,3.694,3.71,3.693,20.859,93.2,14,Waypoint,
38.2001634,-120.038292,5489.2437304458,217.847776,0,0.72362535124,27700,2018-05-12 18:15:41,19,0,22.141,5489.2437304458,217.847776,0.4921268,0.75223755688,0,0,-0.671082,324, -4.4, -2.3,0,0,1024,1024,1024,1024,324.9,-90,67,3.667,3.68,3.713,3.694,3.71,3.693,20.859,93.2,14,Waypoint,
38.2001634,-120.0382921,5490.2279824458,218.832028,0,0.70928151876,27800,2018-05-12 18:15:41,19,0,22.141,5490.2279824458,218.832028,0.4921268,0.75223755688,0,0,-0.671082,323.9, -4.5, -2.6,0,0,1024,1024,1024,1024,324.9,-89.9,67,3.667,3.68,3.713,3.694,3.71,3.693,20.859,93.2,14,Waypoint,
38.2001635,-120.0382923,5493.5088224458,222.112868,0,0.65037075572,28000,2018-05-12 18:15:41,19,0,22.174,5493.5088224458,222.112868,0.4921268,0.75223755688,0,0,-0.671082,323.8, -4.2, -3.3,0,0,1024,1024,1024,1024,324.9,-90,67,3.683,3.688,3.707,3.691,3.7,3.693,20.776,93.2,14,Waypoint,
38.2001635,-120.0382923,5494.4930744458,223.09712,0,0.65037075572,28200,2018-05-12 18:15:41,19,0,22.174,5494.4930744458,223.09712,0.4921268,0.75223755688,0,0,-0.671082,323.9, -4.4, -3.5,0,0,1024,1024,1024,1024,324.9,-90,67,3.683,3.688,3.707,3.691,3.7,3.693,20.776,93.2,14,Waypoint,
38.2001636,-120.0382923,5496.4615784458,225.065624,0,0.6178313846,28400,2018-05-12 18:15:41,19,0,22.174,5496.4615784458,225.065624,0.4921268,0.75223755688,0,0,-0.671082,323.9, -4.3, -3.9,0,0,1024,1024,1024,1024,324.9,-89.9,67,3.683,3.688,3.707,3.691,3.7,3.693,20.776,93.2,14,Waypoint,
38.2001636,-120.0382923,5497.4458304458,226.049876,0,0.6178313846,28500,2018-05-12 18:15:41,19,0,22.174,5497.4458304458,226.049876,0.4921268,0.75223755688,0,0,-0.671082,323.9, -4.2, -3.9,0,0,1024,1024,1024,1024,324.9,-89.9,67,3.683,3.688,3.707,3.691,3.7,3.693,20.776,93.2,14,Waypoint,
38.2001636,-120.0382923,5498.4300824458,227.034128,0,0.6178313846,28600,2018-05-12 18:15:41,19,0,22.174,5498.4300824458,227.034128,0.4921268,0.75223755688,0,0,-0.671082,323.9, -4.2, -3.8,0,0,1024,1024,1024,1024,324.9,-90,67,3.683,3.688,3.707,3.691,3.7,3.693,20.776,93.2,14,Waypoint,
38.2001636,-120.0382923,5499.4143344458,228.01838,0,0.6178313846,28700,2018-05-12 18:15:42,19,0,22.174,5499.4143344458,228.01838,0.4921268,0.75223755688,0,0,-0.671082,323.9, -4.4, -3.6,0,0,1024,1024,1024,1024,324.9,-90,67,3.683,3.688,3.707,3.691,3.7,3.693,20.776,93.2,14,Waypoint,
38.2001636,-120.0382924,5500.0705024458,228.674548,0,0.60505907448,28800,2018-05-12 18:15:42,19,0,22.174,5500.0705024458,228.674548,0.4921268,0.75223755688,0,0,-0.671082,324, -4.5, -3.3,0,0,1024,1024,1024,1024,324.9,-90,67,3.683,3.688,3.707,3.691,3.7,3.693,20.776,93.2,14,Waypoint,
38.2001636,-120.0382924,5501.0547544458,229.6588,0,0.60505907448,28900,2018-05-12 18:15:42,19,0,22.174,5501.0547544458,229.6588,0.4921268,0.75223755688,0,0,-0.671082,324.1, -4.6, -3,0,0,1024,1024,1024,1024,324.9,-90,67,3.683,3.688,3.707,3.691,3.7,3.693,20.776,93.2,14,Waypoint,
38.2001636,-120.0382925,5502.3670904458,230.971136,0,0.59339896912,29000,2018-05-12 18:15:42,19,0,22.087,5502.3670904458,230.971136,0.4921268,0.75223755688,0,0,-0.671082,324.2, -4.5, -2.8,0,0,1024,1024,1024,1024,324.9,-89.9,67,3.66,3.67,3.699,3.678,3.691,3.685,21.715,93.2,14,Waypoint,
38.2001636,-120.0382926,5503.3513424458,231.955388,0,0.58291668532,29100,2018-05-12 18:15:42,19,0,22.087,5503.3513424458,231.955388,0.4921268,0.75223755688,0,0,-0.671082,324.2, -4.4, -2.6,0,0,1024,1024,1024,1024,324.9,-89.9,67,3.66,3.67,3.699,3.678,3.691,3.685,21.715,93.2,14,Waypoint,
38.2001636,-120.0382927,5504.3355944458,232.93964,0,0.57367455904,29200,2018-05-12 18:15:42,19,0,22.087,5504.3355944458,232.93964,0.4921268,0.75223755688,0,0,-0.671082,324.2, -4.4, -2.6,0,0,1024,1024,1024,1024,324.9,-89.9,67,3.66,3.67,3.699,3.678,3.691,3.685,21.715,93.2,14,Waypoint,
38.2001636,-120.0382927,5505.3198464458,233.923892,0,0.57367455904,29300,2018-05-12 18:15:42,19,0,22.087,5505.3198464458,233.923892,0.4921268,0.75223755688,0,0,-0.671082,324.2, -4.6, -2.5,0,0,1024,1024,1024,1024,324.9,-90,67,3.66,3.67,3.699,3.678,3.691,3.685,21.715,93.2,14,Waypoint,
38.2001636,-120.0382928,5506.3040984458,234.908144,0,0.56573820708,29400,2018-05-12 18:15:42,19,0,22.087,5506.3040984458,234.908144,0.4921268,0.75223755688,0,0,-0.671082,324.2, -4.5, -2.7,0,0,1024,1024,1024,1024,324.9,-89.9,67,3.66,3.67,3.699,3.678,3.691,3.685,21.715,93.2,14,Waypoint,
38.2001636,-120.0382928,5507.2883504458,235.892396,0,0.56573820708,29500,2018-05-12 18:15:42,19,0,22.087,5507.2883504458,235.892396,0.4921268,0.75223755688,0,0,-0.671082,324.2, -4.4, -2.9,0,0,1024,1024,1024,1024,324.9,-90,67,3.66,3.67,3.699,3.678,3.691,3.685,21.715,93.2,14,Waypoint,
38.2001636,-120.0382928,5508.2726024458,236.876648,0,0.56573820708,29600,2018-05-12 18:15:42,19,0,22.087,5508.2726024458,236.876648,0.4921268,0.75223755688,0,0,-0.671082,324.2, -4.5, -3,0,0,1024,1024,1024,1024,324.9,-90,67,3.66,3.67,3.699,3.678,3.691,3.685,21.715,93.2,14,Waypoint,
38.2001636,-120.0382928,5509.2568544458,237.8609,0,0.56573820708,29700,2018-05-12 18:15:43,19,0,22.087,5509.2568544458,237.8609,0.4921268,0.75223755688,0,0,-0.671082,324.1, -4.6, -3.2,0,0,1024,1024,1024,1024,324.9,-90,67,3.66,3.67,3.699,3.678,3.691,3.685,21.715,93.2,14,Waypoint,
