latitude,longitude,altitude(feet),ascent(feet),speed(mph),distance(feet),time(millisecond),datetime(utc),satellites,gpslevel,voltage(v),max_altitude(feet),max_ascent(feet),max_speed(mph),max_distance(feet), xSpeed(mph), ySpeed(mph), zSpeed(mph), compass_heading(degrees), pitch(degrees), roll(degrees),isPhoto,isVideo,rc_elevator,rc_aileron,rc_throttle,rc_rudder,gimbal_heading(degrees),gimbal_pitch(degrees),battery_percent,voltageCell1,voltageCell2,voltageCell3,voltageCell4,voltageCell5,voltageCell6,current(A),battery_temperature(f),flycStateRaw,flycState,message
38.1754066,-120.0595464,4961.6457306231,0,0,0,3010,2018-05-12 21:35:07,13,0,25.412,4961.6457306231,0,0,0,0,0,0,62.9, 0, -0.9,1,0,1024,1024,1024,1024,62,-90,93,4.276,4.231,4.166,4.231,4.266,4.257,4.945,73.4,11,AutoTakeoff,DJI_0748.jpg Starting Mission from Lat/Long: 38.17542/-120.05954 Camera: Zenmuse X3 - Overlap: 90/90 - Active Connection: No
38.1754066,-120.0595464,4961.6457306231,0,0,0,3110,2018-05-12 21:35:07,13,0,25.412,4961.6457306231,0,0,0,0,0,0,62.9, -0.2, -1.4,0,0,1024,1024,1024,1024,62,-89.9,93,4.276,4.231,4.166,4.231,4.266,4.257,4.945,73.4,11,AutoTakeoff,
38.1754067,-120.0595464,4961.6457306231,0,0,0.036484909304,3200,2018-05-12 21:35:07,13,0,25.412,4961.6457306231,0,0,0.036484909304,0,0,0,62.9, -0.2, -0.3,0,0,1024,1024,1024,1024,62,-89.9,93,4.276,4.231,4.166,4.231,4.266,4.257,4.945,73.4,11,AutoTakeoff,
38.1754067,-120.0595464,4961.6457306231,0,0,0.036484909304,3300,2018-05-12 21:35:07,13,0,25.412,4961.6457306231,0,0,0.036484909304,0,0,0,62.9, -0.2, 0.5,0,0,1024,1024,1024,1024,62,-89.9,93,4.276,4.231,4.166,4.231,4.266,4.257,4.945,73.4,11,AutoTakeoff,
38.1754068,-120.0595464,4961.9738146231,0.328084,0.223694,0.072969818608,3400,2018-05-12 21:35:07,13,0,25.412,4961.9738146231,0.328084,0.223694,0.072969818608,0,0,0,62.9, 0, 0.8,0,0,1024,1024,1024,1024,62,-89.9,93,4.276,4.231,4.166,4.231,4.266,4.257,4.945,73.4,11,AutoTakeoff,
38.1754069,-120.0595464,4961.9738146231,0.328084,0.223694,0.109454727912,3500,2018-05-12 21:35:08,13,0,25.412,4961.9738146231,0.328084,0.223694,0.109454727912,0,0,0,62.9, 0, 0.8,0,0,1024,1024,1024,1024,62,-89.9,93,4.276,4.231,4.166,4.231,4.266,4.257,4.945,73.4,11,AutoTakeoff,
38.1754071,-120.0595463,4962.3018986231,0.656168,0.223694,0.184665688324,3600,2018-05-12 21:35:08,12,0,25.412,4962.3018986231,0.656168,0.223694,0.184665688324,0,0,0,62.9, 1, 0.6,0,0,1024,1024,1024,1024,62,-89.9,93,4.276,4.231,4.166,4.231,4.266,4.257,4.945,73.4,11,AutoTakeoff,
38.1754072,-120.0595462,4962.3018986231,0.656168,0.223694,0.226300532176,3700,2018-05-12 21:35:08,11,0,25.412,4962.3018986231,0.656168,0.223694,0.226300532176,0,0,0,63, 1.3, 0.5,0,0,1024,1024,1024,1024,62,-89.9,93,4.276,4.231,4.166,4.231,4.266,4.257,4.945,73.4,11,AutoTakeoff,
38.1754073,-120.0595461,4962.6299826231,0.984252,0.223694,0.26949968054,3810,2018-05-12 21:35:08,11,0,25.412,4962.6299826231,0.984252,0.223694,0.26949968054,0,0,0,63.2, 1.1, 0.5,0,0,1024,1024,1024,1024,62,-89.9,93,4.276,4.231,4.166,4.231,4.266,4.257,4.945,73.4,11,AutoTakeoff,
38.1754074,-120.0595461,4962.6299826231,0.984252,0.223694,0.304298238084,3900,2018-05-12 21:35:08,12,0,25.412,4962.6299826231,0.984252,0.223694,0.304298238084,0,0,0,63.3, 1, 0.5,0,0,1024,1024,1024,1024,62,-89.9,93,4.276,4.231,4.166,4.231,4.266,4.257,4.945,73.4,11,AutoTakeoff,
38.1754074,-120.059546,4962.9580666231,1.312336,0.223694,0.313617464104,4000,2018-05-12 21:35:08,12,0,25.332,4962.9580666231,1.312336,0.223694,0.313617464104,0,0,0,63.4, 1, 0.7,0,0,1024,1024,1024,1024,62,-89.9,93,4.179,4.179,4.193,4.171,4.21,4.144,4.241,73.4,11,AutoTakeoff,
38.1754074,-120.059546,4962.9580666231,1.312336,0,0.313617464104,4110,2018-05-12 21:35:08,12,0,25.332,4962.9580666231,1.312336,0.223694,0.313617464104,0,0,-0.223694,63.4, 1.1, 0.9,0,0,1024,1024,1024,1024,62,-89.9,93,4.179,4.179,4.193,4.171,4.21,4.144,4.241,73.4,11,AutoTakeoff,
38.1754075,-120.059546,4963.2861506231,1.64042,0,0.34782809512,4200,2018-05-12 21:35:08,12,0,25.332,4963.2861506231,1.64042,0.223694,0.34782809512,0,0,-0.223694,63.4, 1.1, 0.9,0,0,1024,1024,1024,1024,62,-89.9,93,4.179,4.179,4.193,4.171,4.21,4.144,4.241,73.4,11,AutoTakeoff,
38.1754075,-120.059546,4963.2861506231,1.64042,0,0.34782809512,4310,2018-05-12 21:35:08,12,0,25.332,4963.2861506231,1.64042,0.223694,0.34782809512,0,0,-0.223694,63.3, 1.1, 1,0,0,1024,1024,1024,1024,62,-89.9,93,4.179,4.179,4.193,4.171,4.21,4.144,4.241,73.4,11,AutoTakeoff,
38.1754076,-120.059546,4963.6142346231,1.968504,0,0.38246064216,4410,2018-05-12 21:35:09,12,0,25.332,4963.6142346231,1.968504,0.223694,0.38246064216,0,0,-0.223694,63.2, 1.1, 1.1,0,0,1024,1024,1024,1024,62,-89.9,93,4.179,4.179,4.193,4.171,4.21,4.144,4.241,73.4,11,AutoTakeoff,
38.1754076,-120.059546,4963.6142346231,1.968504,0,0.38246064216,4500,2018-05-12 21:35:09,12,0,25.332,4963.6142346231,1.968504,0.223694,0.38246064216,0,0,-0.223694,63.2, 1.1, 1.1,0,0,1024,1024,1024,1024,62,-89.9,93,4.179,4.179,4.193,4.171,4.21,4.144,4.241,73.4,11,AutoTakeoff,
38.1754076,-120.059546,4963.9423186231,2.296588,0,0.38246064216,4600,2018-05-12 21:35:09,12,0,25.332,4963.9423186231,2.296588,0.223694,0.38246064216,0,0,-0.223694,63.1, 1.2, 1.3,0,0,1024,1024,1024,1024,62,-89.9,93,4.179,4.179,4.193,4.171,4.21,4.144,4.241,73.4,11,AutoTakeoff,
38.1754077,-120.059546,4963.9423186231,2.296588,0,0.41741143068,4700,2018-05-12 21:35:09,12,0,25.332,4963.9423186231,2.296588,0.223694,0.41741143068,0,0,0,62.9, 1.2, 1.4,0,0,1024,1024,1024,1024,62,-89.9,93,4.179,4.179,4.193,4.171,4.21,4.144,4.241,73.4,11,AutoTakeoff,
38.1754077,-120.059546,4964.2704026231,2.624672,0,0.41741143068,4800,2018-05-12 21:35:09,13,0,25.332,4964.2704026231,2.624672,0.223694,0.41741143068,0,0,-0.223694,62.6, 1.1, 1.5,0,0,1024,1024,1024,1024,62,-89.9,93,4.179,4.179,4.193,4.171,4.21,4.144,4.241,73.4,11,AutoTakeoff,
38.1754077,-120.059546,4964.2704026231,2.624672,0,0.41741143068,4900,2018-05-12 21:35:09,13,0,25.332,4964.2704026231,2.624672,0.223694,0.41741143068,0,0,-0.223694,62.3, 1, 1.5,0,0,1024,1024,1024,1024,62,-89.9,93,4.179,4.179,4.193,4.171,4.21,4.144,4.241,73.4,11,AutoTakeoff,
38.1754077,-120.0595459,4964.5984866231,2.952756,0,0.42618767768,5000,2018-05-12 21:35:09,13,0,24.209,4964.5984866231,2.952756,0.223694,0.42618767768,0,0,0,62.2, 1.1, 1.4,0,0,1024,1024,1024,1024,62,-89.9,91,4.024,4.031,4.046,4.024,4.043,4.034,14.673,73.4,6,P-GPS,
38.1754077,-120.0595459,4964.5984866231,2.952756,0,0.42618767768,5100,2018-05-12 21:35:09,13,0,24.209,4964.5984866231,2.952756,0.223694,0.42618767768,0,0,0,62, 1.2, 1.2,0,0,1024,1024,1024,1024,62,-89.9,91,4.024,4.031,4.046,4.024,4.043,4.034,14.673,73.4,14,Waypoint,
38.1754077,-120.0595459,4964.9265706231,3.28084,0,0.42618767768,5200,2018-05-12 21:35:09,13,0,24.209,4964.9265706231,3.28084,0.223694,0.42618767768,0,0,0,61.8, 1, 0.9,0,0,1024,1024,1024,1024,62,-89.9,91,4.024,4.031,4.046,4.024,4.043,4.034,14.673,73.4,14,Waypoint,
38.1754077,-120.0595459,4964.9265706231,3.28084,0,0.42618767768,5300,2018-05-12 21:35:09,13,0,24.209,4964.9265706231,3.28084,0.223694,0.42618767768,0,0,0,61.4, 0.7, 0.6,0,0,1024,1024,1024,1024,62,-89.9,91,4.024,4.031,4.046,4.024,4.043,4.034,14.673,73.4,14,Waypoint,
38.1754077,-120.0595459,4964.9265706231,3.28084,0,0.42618767768,5400,2018-05-12 21:35:09,14,0,24.209,4964.9265706231,3.28084,0.223694,0.42618767768,0,0,0,61, 0.5, 0.5,0,0,1024,1024,1024,1024,62,-90,91,4.024,4.031,4.046,4.024,4.043,4.034,14.673,73.4,14,Waypoint,
38.1754077,-120.0595459,4964.9265706231,3.28084,0,0.42618767768,5500,2018-05-12 21:35:10,14,0,24.209,4964.9265706231,3.28084,0.223694,0.42618767768,0,0,0,60.5, 0.3, 0.7,0,0,1024,1024,1024,1024,62,-90,91,4.024,4.031,4.046,4.024,4.043,4.034,14.673,73.4,14,Waypoint,
38.1754077,-120.059546,4965.2546546231,3.608924,0,0.41741143068,5600,2018-05-12 21:35:10,14,0,24.209,4965.2546546231,3.608924,0.223694,0.42618767768,0,0,-0.223694,60, 0.2, 1,0,0,1024,1024,1024,1024,62,-90,91,4.024,4.031,4.046,4.024,4.043,4.034,14.673,73.4,14,Waypoint,
38.1754077,-120.059546,4965.5827386231,3.937008,0,0.41741143068,5700,2018-05-12 21:35:10,14,0,24.209,4965.5827386231,3.937008,0.223694,0.42618767768,0,0,-0.223694,59.5, 0.2, 1.1,0,0,1024,1024,1024,1024,61.9,-90,91,4.024,4.031,4.046,4.024,4.043,4.034,14.673,73.4,14,Waypoint,
38.1754076,-120.0595459,4965.5827386231,3.937008,0,0.39202100992,5800,2018-05-12 21:35:10,13,0,24.209,4965.5827386231,3.937008,0.223694,0.42618767768,0,0,-0.223694,59, 0.3, 1,0,0,1024,1024,1024,1024,61.8,-90,91,4.024,4.031,4.046,4.024,4.043,4.034,14.673,73.4,14,Waypoint,
38.1754076,-120.0595459,4965.9108226231,4.265092,0,0.39202100992,5900,2018-05-12 21:35:10,13,0,24.209,4965.9108226231,4.265092,0.223694,0.42618767768,0,0,-0.223694,58.5, 0.5, 0.8,0,0,1024,1024,1024,1024,61.8,-89.9,91,4.024,4.031,4.046,4.024,4.043,4.034,14.673,73.4,14,Waypoint,
38.1754076,-120.0595458,4966.2389066231,4.593176,0,0.40339896304,6000,2018-05-12 21:35:10,14,0,24.027,4966.2389066231,4.593176,0.223694,0.42618767768,0,0,-0.223694,58.2, 0.8, 0.6,0,0,1024,1024,1024,1024,61.6,-89.9,91,4.024,4.031,4.046,4.024,4.043,4.034,16.566,73.4,14,Waypoint,
38.1754077,-120.0595456,4967.2231586231,5.577428,0,0.46229660272,6110,2018-05-12 21:35:10,13,0,24.027,4967.2231586231,5.577428,0.223694,0.46229660272,0,0,-0.447388,58.2, 1.2, 0.8,0,0,1024,1024,1024,1024,61.5,-89.9,91,4.024,4.031,4.046,4.024,4.043,4.034,16.566,73.4,14,Waypoint,
38.175408,-120.0595455,4968.5354946231,6.889764,0,0.5723097296,6300,2018-05-12 21:35:10,13,0,24.027,4968.5354946231,6.889764,0.223694,0.5723097296,0,0,-0.447388,59.1, 1, 1.7,0,0,1024,1024,1024,1024,61.3,-89.9,91,4.024,4.031,4.046,4.024,4.043,4.034,16.566,73.4,14,Waypoint,
38.1754082,-120.0595454,4969.5197466231,7.874016,0,0.65041340664,6410,2018-05-12 21:35:10,13,0,24.027,4969.5197466231,7.874016,0.223694,0.65041340664,0,0,-0.447388,59.3, 0.9, 1.8,0,0,1024,1024,1024,1024,61.2,-89.9,91,4.024,4.031,4.046,4.024,4.043,4.034,16.566,73.4,14,Waypoint,
38.1754084,-120.0595453,4970.1759146231,8.530184,0,0.72858270048,6500,2018-05-12 21:35:11,13,0,24.027,4970.1759146231,8.530184,0.223694,0.72858270048,0,0,-0.671082,59.5, 1, 2,0,0,1024,1024,1024,1024,61.1,-89.9,91,4.024,4.031,4.046,4.024,4.043,4.034,16.566,73.4,14,Waypoint,
38.1754089,-120.0595452,4972.1444186231,10.498688,0.223694,0.90699477968,6710,2018-05-12 21:35:11,13,0,24.027,4972.1444186231,10.498688,0.223694,0.90699477968,0,0,-0.671082,59.3, 1.4, 2.7,0,0,1024,1024,1024,1024,60.9,-89.9,91,4.024,4.031,4.046,4.024,4.043,4.034,16.566,73.4,14,Waypoint,
38.1754092,-120.0595452,4973.1286706231,11.48294,0.223694,1.00911748636,6810,2018-05-12 21:35:11,13,0,24.027,4973.1286706231,11.48294,0.223694,1.00911748636,0,0,-0.671082,59.1, 1.6, 3,0,0,1024,1024,1024,1024,60.8,-89.9,91,4.024,4.031,4.046,4.024,4.043,4.034,16.566,73.4,14,Waypoint,
38.1754094,-120.0595452,4974.1129226231,12.467192,0,1.07799872216,6900,2018-05-12 21:35:11,13,0,24.027,4974.1129226231,12.467192,0.223694,1.07799872216,0,0,-0.671082,58.9, 1.9, 3.1,0,0,1024,1024,1024,1024,60.7,-89.9,91,4.024,4.031,4.046,4.024,4.043,4.034,16.566,73.4,14,Waypoint,
38.1754097,-120.0595452,4975.4252586231,13.779528,0,1.18224085148,7010,2018-05-12 21:35:11,13,0,23.948,4975.4252586231,13.779528,0.223694,1.18224085148,0,0,-0.671082,58.7, 2.1, 3.1,0,0,1024,1024,1024,1024,60.6,-89.9,91,3.986,4.006,4.013,3.997,3.997,4.005,17.035,73.4,14,Waypoint,
38.1754098,-120.0595452,4976.4095106231,14.76378,0,1.21719164,7110,2018-05-12 21:35:11,13,0,23.948,4976.4095106231,14.76378,0.223694,1.21719164,0,0,-0.671082,58.6, 2.1, 3.1,0,0,1024,1024,1024,1024,60.6,-89.9,91,3.986,4.006,4.013,3.997,3.997,4.005,17.035,73.4,14,Waypoint,
38.1754099,-120.0595452,4977.3937626231,15.748032,0,1.2522310112,7300,2018-05-12 21:35:11,13,0,23.948,4977.3937626231,15.748032,0.223694,1.2522310112,0,0,-0.671082,58.4, 2.1, 2.8,0,0,1024,1024,1024,1024,60.4,-89.9,91,3.986,4.006,4.013,3.997,3.997,4.005,17.035,73.4,14,Waypoint,
38.1754099,-120.0595451,4978.7060986231,17.060368,0,1.260416707,7400,2018-05-12 21:35:11,13,0,23.948,4978.7060986231,17.060368,0.223694,1.260416707,0,0,-0.671082,58.3, 2.1, 2.6,0,0,1024,1024,1024,1024,60.4,-89.9,91,3.986,4.006,4.013,3.997,3.997,4.005,17.035,73.4,14,Waypoint,
38.1754099,-120.0595451,4979.6903506231,18.04462,0,1.260416707,7500,2018-05-12 21:35:12,13,0,23.948,4979.6903506231,18.04462,0.223694,1.260416707,0,0,-0.671082,58.2, 1.9, 2.3,0,0,1024,1024,1024,1024,60.3,-89.9,91,3.986,4.006,4.013,3.997,3.997,4.005,17.035,73.4,14,Waypoint,
38.1754099,-120.0595451,4980.6746026231,19.028872,0,1.260416707,7600,2018-05-12 21:35:12,14,0,23.948,4980.6746026231,19.028872,0.223694,1.260416707,0,0,-0.671082,58.1, 1.8, 2.2,0,0,1024,1024,1024,1024,60.3,-89.9,91,3.986,4.006,4.013,3.997,3.997,4.005,17.035,73.4,14,Waypoint,
38.1754098,-120.0595451,4981.9869386231,20.341208,0,1.22561027544,7700,2018-05-12 21:35:12,14,0,23.948,4981.9869386231,20.341208,0.223694,1.260416707,0,0,-0.671082,58.1, 1.7, 2,0,0,1024,1024,1024,1024,60.2,-89.9,91,3.986,4.006,4.013,3.997,3.997,4.005,17.035,73.4,14,Waypoint,
38.1754097,-120.0595452,4982.9711906231,21.32546,0,1.18224085148,7800,2018-05-12 21:35:12,14,0,23.948,4982.9711906231,21.32546,0.223694,1.260416707,0,0,-0.671082,58.2, 1.6, 1.8,0,0,1024,1024,1024,1024,60.2,-89.9,91,3.986,4.006,4.013,3.997,3.997,4.005,17.035,73.4,14,Waypoint,
38.1754095,-120.0595453,4983.9554426231,22.309712,0,1.1041010852,7900,2018-05-12 21:35:12,14,0,23.948,4983.9554426231,22.309712,0.223694,1.260416707,0,0,-0.671082,58.2, 1.3, 1.6,0,0,1024,1024,1024,1024,60.1,-89.9,91,3.986,4.006,4.013,3.997,3.997,4.005,17.035,73.4,14,Waypoint,
38.1754093,-120.0595454,4984.9396946231,23.293964,0.223694,1.02599740816,8000,2018-05-12 21:35:12,14,0,23.217,4984.9396946231,23.293964,0.223694,1.260416707,0,0,-0.671082,58.4, 1, 1.5,0,0,1024,1024,1024,1024,60.1,-89.9,91,3.876,3.901,3.912,3.888,3.885,3.906,24.124,73.4,14,Waypoint,
38.1754091,-120.0595454,4986.2520306231,24.6063,0.223694,0.95615488624,8100,2018-05-12 21:35:12,14,0,23.217,4986.2520306231,24.6063,0.223694,1.260416707,0,0,-0.671082,58.5, 0.6, 1.2,0,0,1024,1024,1024,1024,60,-90,91,3.876,3.901,3.912,3.888,3.885,3.906,24.124,73.4,14,Waypoint,
38.1754088,-120.0595455,4987.2362826231,25.590552,0.223694,0.84315619496,8200,2018-05-12 21:35:12,13,0,23.217,4987.2362826231,25.590552,0.223694,1.260416707,0,0,-0.671082,58.6, 0.2, 0.9,0,0,1024,1024,1024,1024,60,-90,91,3.876,3.901,3.912,3.888,3.885,3.906,24.124,73.4,14,Waypoint,
38.1754086,-120.0595456,4988.2205346231,26.574804,0.223694,0.76492456516,8300,2018-05-12 21:35:12,13,0,23.217,4988.2205346231,26.574804,0.223694,1.260416707,0,0,-0.671082,58.7, 0, 0.7,0,0,1024,1024,1024,1024,60,-90,91,3.876,3.901,3.912,3.888,3.885,3.906,24.124,73.4,14,Waypoint,
38.1754084,-120.0595457,4989.5328706231,27.88714,0.223694,0.68673230544,8400,2018-05-12 21:35:12,12,0,23.217,4989.5328706231,27.88714,0.223694,1.260416707,0,0,-0.671082,58.7, -0.1, 0.5,0,0,1024,1024,1024,1024,59.9,-90,91,3.876,3.901,3.912,3.888,3.885,3.906,24.124,73.4,14,Waypoint,
38.1754081,-120.0595458,4990.5171226231,28.871392,0,0.57369424408,8500,2018-05-12 21:35:13,12,0,23.217,4990.5171226231,28.871392,0.223694,1.260416707,0,0,-0.671082,58.7, -0.1, 0.3,0,0,1024,1024,1024,1024,59.9,-90,91,3.876,3.901,3.912,3.888,3.885,3.906,24.124,73.4,14,Waypoint,
38.1754078,-120.0595459,4991.5013746231,29.855644,0,0.46070867616,8600,2018-05-12 21:35:13,13,0,23.217,4991.5013746231,29.855644,0.223694,1.260416707,0,0,-0.671082,58.6, 0, 0.3,0,0,1024,1024,1024,1024,59.9,-90,91,3.876,3.901,3.912,3.888,3.885,3.906,24.124,73.4,14,Waypoint,
38.1754075,-120.0595459,4992.4856266231,30.839896,0.223694,0.35831365976,8700,2018-05-12 21:35:13,13,0,23.217,4992.4856266231,30.839896,0.223694,1.260416707,0,0,-0.671082,58.4, 0, 0.2,0,0,1024,1024,1024,1024,59.9,-90,91,3.876,3.901,3.912,3.888,3.885,3.906,24.124,73.4,14,Waypoint,
38.175407,-120.0595462,4994.7822146231,33.136484,0,0.156808732052,8810,2018-05-12 21:35:13,14,0,23.217,4994.7822146231,33.136484,0.223694,1.260416707,0,0,-0.671082,58.1, -0.2, -0.1,0,0,1024,1024,1024,1024,59.8,-90,91,3.876,3.901,3.912,3.888,3.885,3.906,24.124,73.4,14,Waypoint,
38.175407,-120.0595462,4994.7822146231,33.136484,0,0.156808732052,8900,2018-05-12 21:35:13,14,0,23.217,4994.7822146231,33.136484,0.223694,1.260416707,0,0,-0.671082,58.1, -0.2, -0.1,0,0,1024,1024,1024,1024,59.8,-90,91,3.876,3.901,3.912,3.888,3.885,3.906,24.124,73.4,14,Waypoint,
38.1754067,-120.0595463,4995.7664666231,34.120736,0,0.046408794136,9010,2018-05-12 21:35:13,15,0,23.217,4995.7664666231,34.120736,0.223694,1.260416707,0,0,-0.671082,58.1, -0.4, -0.2,0,0,1024,1024,1024,1024,59.8,-90,91,3.876,3.901,3.912,3.888,3.885,3.906,24.124,73.4,14,Waypoint,
38.1754065,-120.0595464,4996.7507186231,35.104988,0,0.036484909304,9100,2018-05-12 21:35:13,15,0,23.217,4996.7507186231,35.104988,0.223694,1.260416707,0,0,-0.671082,58.2, -0.7, -0.1,0,0,1024,1024,1024,1024,59.7,-90,91,3.876,3.901,3.912,3.888,3.885,3.906,24.124,73.4,14,Waypoint,
38.175406,-120.0595465,4998.7192226231,37.073492,0,0.220780518876,9200,2018-05-12 21:35:13,15,0,23.217,4998.7192226231,37.073492,0.223694,1.260416707,0,0,-0.671082,58.1, -0.9, -0.3,0,0,1024,1024,1024,1024,59.7,-90,91,3.876,3.901,3.912,3.888,3.885,3.906,24.124,73.4,14,Waypoint,
38.1754058,-120.0595466,5000.0315586231,38.385828,0,0.297462936028,9310,2018-05-12 21:35:13,14,0,23.217,5000.0315586231,38.385828,0.223694,1.260416707,0,0,-0.671082,57.8, -0.9, -0.5,0,0,1024,1024,1024,1024,59.7,-90,91,3.876,3.901,3.912,3.888,3.885,3.906,24.124,73.4,14,Waypoint,
38.1754055,-120.0595467,5001.0158106231,39.37008,0,0.41045604988,9410,2018-05-12 21:35:13,14,0,23.217,5001.0158106231,39.37008,0.223694,1.260416707,0,0,-0.671082,57.6, -1.1, -0.5,0,0,1024,1024,1024,1024,59.6,-89.9,91,3.876,3.901,3.912,3.888,3.885,3.906,24.124,73.4,14,Waypoint,
38.1754054,-120.0595468,5002.0000626231,40.354332,0,0.45260172052,9500,2018-05-12 21:35:14,13,0,23.217,5002.0000626231,40.354332,0.223694,1.260416707,0,0,-0.671082,57.6, -1.3, -0.3,0,0,1024,1024,1024,1024,59.6,-89.9,91,3.876,3.901,3.912,3.888,3.885,3.906,24.124,73.4,14,Waypoint,
38.1754054,-120.0595469,5002.9843146231,41.338584,0,0.46070867616,9600,2018-05-12 21:35:14,13,0,23.217,5002.9843146231,41.338584,0.223694,1.260416707,0,0,-0.671082,57.7, -1.4, 0,0,0,1024,1024,1024,1024,59.6,-89.9,91,3.876,3.901,3.912,3.888,3.885,3.906,24.124,73.4,14,Waypoint,
38.1754053,-120.059547,5003.9685666231,42.322836,0.223694,0.50455710276,9710,2018-05-12 21:35:14,14,0,23.217,5003.9685666231,42.322836,0.223694,1.260416707,0,0,-0.671082,57.8, -1.3, 0.4,0,0,1024,1024,1024,1024,59.5,-89.9,91,3.876,3.901,3.912,3.888,3.885,3.906,24.124,73.4,14,Waypoint,
38.1754053,-120.059547,5003.9685666231,42.322836,0.223694,0.50455710276,9800,2018-05-12 21:35:14,14,0,23.217,5003.9685666231,42.322836,0.223694,1.260416707,0,0,-0.671082,57.8, -1.3, 0.4,0,0,1024,1024,1024,1024,59.5,-89.9,91,3.876,3.901,3.912,3.888,3.885,3.906,24.124,73.4,14,Waypoint,
38.1754053,-120.059547,5004.9528186231,43.307088,0.223694,0.50455710276,9900,2018-05-12 21:35:14,14,0,23.217,5004.9528186231,43.307088,0.223694,1.260416707,0,0,-0.671082,58, -1.1, 0.5,0,0,1024,1024,1024,1024,59.5,-89.9,91,3.876,3.901,3.912,3.888,3.885,3.906,24.124,73.4,14,Waypoint,
38.1754053,-120.059547,5005.9370706231,44.29134,0.223694,0.50455710276,10000,2018-05-12 21:35:14,14,0,23.54,5005.9370706231,44.29134,0.223694,1.260416707,0,0,-0.671082,58.2, -0.9, 0.7,0,0,1024,1024,1024,1024,59.5,-89.9,91,3.917,3.932,3.937,3.922,3.913,3.935,19.322,73.4,14,Waypoint,
38.1754053,-120.059547,5006.9213226231,45.275592,0.223694,0.50455710276,10100,2018-05-12 21:35:14,14,0,23.54,5006.9213226231,45.275592,0.223694,1.260416707,0,0,-0.671082,58.5, -0.7, 0.9,0,0,1024,1024,1024,1024,59.5,-89.9,91,3.917,3.932,3.937,3.922,3.913,3.935,19.322,73.4,14,Waypoint,
38.1754053,-120.059547,5007.9055746231,46.259844,0.223694,0.50455710276,10200,2018-05-12 21:35:14,14,0,23.54,5007.9055746231,46.259844,0.223694,1.260416707,0,0,-0.671082,58.6, -0.4, 1.2,0,0,1024,1024,1024,1024,59.5,-89.9,91,3.917,3.932,3.937,3.922,3.913,3.935,19.322,73.4,14,Waypoint,
38.1754054,-120.059547,5009.2179106231,47.57218,0.223694,0.47042652424,10300,2018-05-12 21:35:14,14,0,23.54,5009.2179106231,47.57218,0.223694,1.260416707,0,0,-0.671082,58.8, -0.1, 1.5,0,0,1024,1024,1024,1024,59.5,-89.9,91,3.917,3.932,3.937,3.922,3.913,3.935,19.322,73.4,14,Waypoint,
38.1754054,-120.059547,5010.2021626231,48.556432,0.223694,0.47042652424,10400,2018-05-12 21:35:14,14,0,23.54,5010.2021626231,48.556432,0.223694,1.260416707,0,0,-0.671082,58.8, 0.1, 1.6,0,0,1024,1024,1024,1024,59.4,-89.9,91,3.917,3.932,3.937,3.922,3.913,3.935,19.322,73.4,14,Waypoint,
38.1754054,-120.0595469,5011.1864146231,49.540684,0.223694,0.46070867616,10500,2018-05-12 21:35:15,14,0,23.54,5011.1864146231,49.540684,0.223694,1.260416707,0,0,-0.671082,58.8, 0.2, 1.4,0,0,1024,1024,1024,1024,59.4,-89.9,91,3.917,3.932,3.937,3.922,3.913,3.935,19.322,73.4,14,Waypoint,
38.1754055,-120.0595469,5012.1706666231,50.524936,0.223694,0.42618767768,10600,2018-05-12 21:35:15,14,0,23.54,5012.1706666231,50.524936,0.223694,1.260416707,0,0,-0.671082,58.7, 0.3, 1,0,0,1024,1024,1024,1024,59.4,-89.9,91,3.917,3.932,3.937,3.922,3.913,3.935,19.322,73.4,14,Waypoint,
38.1754055,-120.0595468,5013.1549186231,51.509188,0.223694,0.41741143068,10700,2018-05-12 21:35:15,14,0,23.54,5013.1549186231,51.509188,0.223694,1.260416707,0,0,-0.671082,58.5, 0.4, 0.8,0,0,1024,1024,1024,1024,59.4,-89.9,91,3.917,3.932,3.937,3.922,3.913,3.935,19.322,73.4,14,Waypoint,
38.1754056,-120.0595468,5014.1391706231,52.49344,0.223694,0.38246064216,10800,2018-05-12 21:35:15,14,0,23.54,5014.1391706231,52.49344,0.223694,1.260416707,0,0,-0.671082,58.3, 0.4, 0.7,0,0,1024,1024,1024,1024,59.4,-89.9,91,3.917,3.932,3.937,3.922,3.913,3.935,19.322,73.4,14,Waypoint,
38.1754057,-120.0595467,5015.1234226231,53.477692,0.223694,0.3394521106,10900,2018-05-12 21:35:15,14,0,23.54,5015.1234226231,53.477692,0.223694,1.260416707,0,0,-0.671082,58, 0.5, 0.7,0,0,1024,1024,1024,1024,59.3,-89.9,91,3.917,3.932,3.937,3.922,3.913,3.935,19.322,73.4,14,Waypoint,
38.1754058,-120.0595467,5016.1076746231,54.461944,0.223694,0.304298238084,11000,2018-05-12 21:35:15,15,0,23.695,5016.1076746231,54.461944,0.223694,1.260416707,0,0,-0.671082,57.7, 0.6, 0.7,0,0,1024,1024,1024,1024,59.3,-89.9,91,3.927,3.956,3.952,3.939,3.934,3.951,17.76,73.4,14,Waypoint,
38.1754058,-120.0595466,5017.0919266231,55.446196,0.223694,0.297462936028,11100,2018-05-12 21:35:15,15,0,23.695,5017.0919266231,55.446196,0.223694,1.260416707,0,0,-0.671082,57.5, 0.6, 0.5,0,0,1024,1024,1024,1024,59.3,-89.9,91,3.927,3.956,3.952,3.939,3.934,3.951,17.76,73.4,14,Waypoint,
38.1754059,-120.0595465,5018.0761786231,56.430448,0.223694,0.257000008224,11200,2018-05-12 21:35:15,15,0,23.695,5018.0761786231,56.430448,0.223694,1.260416707,0,0,-0.671082,57.4, 0.7, 0.3,0,0,1024,1024,1024,1024,59.3,-89.9,91,3.927,3.956,3.952,3.939,3.934,3.951,17.76,73.4,14,Waypoint,
38.175406,-120.0595465,5019.0604306231,57.4147,0.223694,0.220780518876,11300,2018-05-12 21:35:15,15,0,23.695,5019.0604306231,57.4147,0.223694,1.260416707,0,0,-0.671082,57.2, 0.6, 0.5,0,0,1024,1024,1024,1024,59.3,-89.9,91,3.927,3.956,3.952,3.939,3.934,3.951,17.76,73.4,14,Waypoint,
38.1754061,-120.0595465,5020.0446826231,58.398952,0.223694,0.184665688324,11400,2018-05-12 21:35:15,15,0,23.695,5020.0446826231,58.398952,0.223694,1.260416707,0,0,-0.671082,57.2, 0.5, 0.8,0,0,1024,1024,1024,1024,59.3,-89.9,91,3.927,3.956,3.952,3.939,3.934,3.951,17.76,73.4,14,Waypoint,
38.1754064,-120.0595464,5022.0131866231,60.367456,0.223694,0.072969818608,11500,2018-05-12 21:35:16,15,0,23.695,5022.0131866231,60.367456,0.223694,1.260416707,0,0,-0.671082,57.3, 0.7, 1.1,0,0,1024,1024,1024,1024,59.2,-89.9,91,3.927,3.956,3.952,3.939,3.934,3.951,17.76,73.4,14,Waypoint,
38.1754066,-120.0595464,5022.9974386231,61.351708,0.223694,0,11600,2018-05-12 21:35:16,15,0,23.695,5022.9974386231,61.351708,0.223694,1.260416707,0,0,-0.671082,57.5, 1, 1.5,0,0,1024,1024,1024,1024,59.2,-89.9,91,3.927,3.956,3.952,3.939,3.934,3.951,17.76,73.4,14,Waypoint,
38.1754068,-120.0595464,5023.9816906231,62.33596,0.223694,0.072969818608,11700,2018-05-12 21:35:16,15,0,23.695,5023.9816906231,62.33596,0.223694,1.260416707,0,0,-0.671082,57.7, 1, 1.7,0,0,1024,1024,1024,1024,59.2,-89.9,91,3.927,3.956,3.952,3.939,3.934,3.951,17.76,73.4,14,Waypoint,
38.1754069,-120.0595463,5024.9659426231,63.320212,0.223694,0.113150266088,11800,2018-05-12 21:35:16,15,0,23.695,5024.9659426231,63.320212,0.223694,1.260416707,0,0,-0.671082,57.9, 1.1, 1.9,0,0,1024,1024,1024,1024,59.2,-89.9,91,3.927,3.956,3.952,3.939,3.934,3.951,17.76,73.4,14,Waypoint,
38.175407,-120.0595462,5025.6221106231,63.97638,0.223694,0.156808732052,12000,2018-05-12 21:35:16,14,0,23.695,5025.6221106231,63.97638,0.223694,1.260416707,0,0,-0.671082,58.1, 1.1, 1.7,0,0,1024,1024,1024,1024,59.2,-89.9,91,3.938,3.948,3.955,3.942,3.935,3.948,17.76,73.4,14,Waypoint,
38.1754073,-120.059546,5027.5906146231,65.944884,0.223694,0.279979667752,12100,2018-05-12 21:35:16,15,0,23.695,5027.5906146231,65.944884,0.223694,1.260416707,0,0,-0.671082,58.5, 1.2, 1.3,0,0,1024,1024,1024,1024,59.2,-89.9,91,3.938,3.948,3.955,3.942,3.935,3.948,17.76,73.4,14,Waypoint,
38.1754075,-120.0595459,5029.5591186231,67.913388,0.223694,0.35831365976,12300,2018-05-12 21:35:16,15,0,23.695,5029.5591186231,67.913388,0.223694,1.260416707,0,0,-0.671082,58.6, 1.3, 1.3,0,0,1024,1024,1024,1024,59.2,-89.9,91,3.938,3.948,3.955,3.942,3.935,3.948,17.76,73.4,14,Waypoint,
38.1754077,-120.0595459,5030.5433706231,68.89764,0.223694,0.42618767768,12500,2018-05-12 21:35:17,15,0,23.695,5030.5433706231,68.89764,0.223694,1.260416707,0,0,-0.671082,58.5, 1.4, 1.4,0,0,1024,1024,1024,1024,59.1,-89.9,91,3.938,3.948,3.955,3.942,3.935,3.948,17.76,73.4,14,Waypoint,
38.1754078,-120.0595458,5031.5276226231,69.881892,0.223694,0.47042652424,12600,2018-05-12 21:35:17,15,0,23.695,5031.5276226231,69.881892,0.223694,1.260416707,0,0,-0.671082,58.5, 1.5, 1.6,0,0,1024,1024,1024,1024,59.1,-89.9,91,3.938,3.948,3.955,3.942,3.935,3.948,17.76,73.4,14,Waypoint,
38.1754079,-120.0595458,5032.5118746231,70.866144,0,0.50455710276,12700,2018-05-12 21:35:17,15,0,23.695,5032.5118746231,70.866144,0.223694,1.260416707,0,0,-0.671082,58.4, 1.4, 1.9,0,0,1024,1024,1024,1024,59.1,-89.9,91,3.938,3.948,3.955,3.942,3.935,3.948,17.76,73.4,14,Waypoint,
38.175408,-120.0595458,5033.4961266231,71.850396,0,0.53899936108,12800,2018-05-12 21:35:17,15,0,23.695,5033.4961266231,71.850396,0.223694,1.260416707,0,0,-0.671082,58.2, 1.2, 1.8,0,0,1024,1024,1024,1024,59.1,-89.9,91,3.938,3.948,3.955,3.942,3.935,3.948,17.76,73.4,14,Waypoint,
38.1754081,-120.0595458,5034.4803786231,72.834648,0,0.57369424408,12900,2018-05-12 21:35:17,15,0,23.695,5034.4803786231,72.834648,0.223694,1.260416707,0,0,-0.671082,58.1, 1.2, 1.7,0,0,1024,1024,1024,1024,59.1,-89.9,91,3.938,3.948,3.955,3.942,3.935,3.948,17.76,73.4,14,Waypoint,
38.1754082,-120.0595457,5035.4646306231,73.8189,0,0.61731957356,13000,2018-05-12 21:35:17,15,0,23.677,5035.4646306231,73.8189,0.223694,1.260416707,0,0,-0.671082,58, 1.2, 1.8,0,0,1024,1024,1024,1024,59.1,-89.9,91,3.932,3.95,3.959,3.947,3.935,3.962,17.031,73.4,14,Waypoint,
38.1754082,-120.0595457,5036.1207986231,74.475068,0,0.61731957356,13100,2018-05-12 21:35:17,15,0,23.677,5036.1207986231,74.475068,0.223694,1.260416707,0,0,-0.671082,58, 1.3, 1.7,0,0,1024,1024,1024,1024,59.1,-89.9,91,3.932,3.95,3.959,3.947,3.935,3.962,17.031,73.4,14,Waypoint,
38.1754083,-120.0595456,5037.1050506231,75.45932,0,0.66132548048,13200,2018-05-12 21:35:17,15,0,23.677,5037.1050506231,75.45932,0.223694,1.260416707,0,0,-0.671082,58.1, 1.4, 1.6,0,0,1024,1024,1024,1024,59.1,-89.9,91,3.932,3.95,3.959,3.947,3.935,3.962,17.031,73.4,14,Waypoint,
38.1754084,-120.0595456,5038.0893026231,76.443572,0,0.69565947108,13300,2018-05-12 21:35:17,15,0,23.677,5038.0893026231,76.443572,0.223694,1.260416707,0,0,-0.671082,58.2, 1.6, 1.6,0,0,1024,1024,1024,1024,59.1,-89.9,91,3.932,3.95,3.959,3.947,3.935,3.962,17.031,73.4,14,Waypoint,
38.1754085,-120.0595455,5040.0578066231,78.412076,0,0.7397145906,13500,2018-05-12 21:35:18,14,0,23.677,5040.0578066231,78.412076,0.223694,1.260416707,0,0,-0.671082,58.3, 1.9, 1.2,0,0,1024,1024,1024,1024,59.1,-89.9,91,3.932,3.95,3.959,3.947,3.935,3.962,17.031,73.4,14,Waypoint,
38.1754086,-120.0595455,5041.0420586231,79.396328,0,0.77401249196,13600,2018-05-12 21:35:18,15,0,23.677,5041.0420586231,79.396328,0.223694,1.260416707,0,0,-0.671082,58.4, 1.7, 1.1,0,0,1024,1024,1024,1024,59.1,-89.9,91,3.932,3.95,3.959,3.947,3.935,3.962,17.031,73.4,14,Waypoint,
38.1754086,-120.0595454,5042.3543946231,80.708664,0,0.78404201984,13700,2018-05-12 21:35:18,15,0,23.677,5042.3543946231,80.708664,0.223694,1.260416707,0,0,-0.671082,58.4, 1.5, 1,0,0,1024,1024,1024,1024,59.1,-89.9,91,3.932,3.95,3.959,3.947,3.935,3.962,17.031,73.4,14,Waypoint,
38.1754086,-120.0595454,5043.3386466231,81.692916,0,0.78404201984,13800,2018-05-12 21:35:18,15,0,23.677,5043.3386466231,81.692916,0.223694,1.260416707,0,0,-0.671082,58.4, 1.4, 1.1,0,0,1024,1024,1024,1024,59.1,-89.9,91,3.932,3.95,3.959,3.947,3.935,3.962,17.031,73.4,14,Waypoint,
38.1754086,-120.0595453,5044.3228986231,82.677168,0,0.79498362124,13900,2018-05-12 21:35:18,15,0,23.677,5044.3228986231,82.677168,0.223694,1.260416707,0,0,-0.671082,58.3, 1.5, 1.2,0,0,1024,1024,1024,1024,59.1,-89.9,91,3.932,3.95,3.959,3.947,3.935,3.962,17.031,73.4,14,Waypoint,
38.1754086,-120.0595453,5045.3071506231,83.66142,0,0.79498362124,14020,2018-05-12 21:35:18,15,0,23.686,5045.3071506231,83.66142,0.223694,1.260416707,0,0,-0.671082,58.2, 1.5, 1.4,0,0,1024,1024,1024,1024,59.1,-89.9,91,3.936,3.948,3.961,3.946,3.938,3.955,17.137,75.2,14,Waypoint,
38.1754086,-120.0595452,5046.6194866231,84.973756,0,0.80679464524,14100,2018-05-12 21:35:18,15,0,23.686,5046.6194866231,84.973756,0.223694,1.260416707,0,0,-0.671082,58.1, 1.6, 1.2,0,0,1024,1024,1024,1024,59.1,-89.9,91,3.936,3.948,3.961,3.946,3.938,3.955,17.137,75.2,14,Waypoint,
38.1754086,-120.0595453,5047.6037386231,85.958008,0,0.79498362124,14200,2018-05-12 21:35:18,15,0,23.686,5047.6037386231,85.958008,0.223694,1.260416707,0,0,-0.671082,58.2, 1.7, 1.2,0,0,1024,1024,1024,1024,59.1,-89.9,91,3.936,3.948,3.961,3.946,3.938,3.955,17.137,75.2,14,Waypoint,
38.1754086,-120.0595454,5048.5879906231,86.94226,0,0.78404201984,14300,2018-05-12 21:35:18,15,0,23.686,5048.5879906231,86.94226,0.223694,1.260416707,0,0,-0.671082,58.4, 1.5, 1,0,0,1024,1024,1024,1024,59.1,-89.9,91,3.936,3.948,3.961,3.946,3.938,3.955,17.137,75.2,14,Waypoint,
38.1754085,-120.0595454,5050.5564946231,88.910764,0,0.75020671692,14400,2018-05-12 21:35:18,15,0,23.686,5050.5564946231,88.910764,0.223694,1.260416707,0,0,-0.671082,58.6, 1.3, 0.7,0,0,1024,1024,1024,1024,59.1,-89.9,91,3.936,3.948,3.961,3.946,3.938,3.955,17.137,75.2,14,Waypoint,
38.1754085,-120.0595454,5051.5407466231,89.895016,0,0.75020671692,14510,2018-05-12 21:35:19,14,0,23.686,5051.5407466231,89.895016,0.223694,1.260416707,0,0,-0.671082,58.5, 1.2, 0.5,0,0,1024,1024,1024,1024,59.1,-89.9,91,3.936,3.948,3.961,3.946,3.938,3.955,17.137,75.2,14,Waypoint,
38.1754084,-120.0595455,5052.5249986231,90.879268,0,0.70563978636,14600,2018-05-12 21:35:19,14,0,23.686,5052.5249986231,90.879268,0.223694,1.260416707,0,0,-0.671082,58.4, 1.1, 0.3,0,0,1024,1024,1024,1024,59.1,-89.9,91,3.936,3.948,3.961,3.946,3.938,3.955,17.137,75.2,14,Waypoint,
38.1754083,-120.0595455,5053.5092506231,91.86352,0,0.67181432596,14710,2018-05-12 21:35:19,14,0,23.686,5053.5092506231,91.86352,0.223694,1.260416707,0,0,-0.671082,58.3, 1.1, 0.2,0,0,1024,1024,1024,1024,59.1,-89.9,91,3.936,3.948,3.961,3.946,3.938,3.955,17.137,75.2,14,Waypoint,
38.1754082,-120.0595456,5054.1654186231,92.519688,0,0.62723427204,14810,2018-05-12 21:35:19,14,0,23.686,5054.1654186231,92.519688,0.223694,1.260416707,0,0,-0.671082,58.1, 1.1, 0.2,0,0,1024,1024,1024,1024,59.1,-89.9,91,3.936,3.948,3.961,3.946,3.938,3.955,17.137,75.2,14,Waypoint,
38.1754082,-120.0595456,5055.1496706231,93.50394,0,0.62723427204,14920,2018-05-12 21:35:19,15,0,23.686,5055.1496706231,93.50394,0.223694,1.260416707,0,0,-0.671082,57.8, 0.8, 0.2,0,0,1024,1024,1024,1024,59.1,-89.9,91,3.936,3.948,3.961,3.946,3.938,3.955,17.137,75.2,14,Waypoint,
38.1754082,-120.0595456,5055.1496706231,93.50394,0,0.62723427204,15000,2018-05-12 21:35:19,15,0,23.678,5055.1496706231,93.50394,0.223694,1.260416707,0,0,-0.671082,57.8, 0.8, 0.2,0,0,1024,1024,1024,1024,59.1,-89.9,90,3.943,3.946,3.954,3.945,3.938,3.952,16.945,75.2,14,Waypoint,
38.1754081,-120.0595455,5057.1181746231,95.472444,0,0.60509844456,15110,2018-05-12 21:35:19,15,0,23.678,5057.1181746231,95.472444,0.223694,1.260416707,0,0,-0.671082,57.1, 0.9, 0,0,0,1024,1024,1024,1024,59.1,-89.9,90,3.943,3.946,3.954,3.945,3.938,3.952,16.945,75.2,14,Waypoint,
38.1754081,-120.0595455,5057.1181746231,95.472444,0,0.60509844456,15210,2018-05-12 21:35:19,15,0,23.678,5057.1181746231,95.472444,0.223694,1.260416707,0,0,-0.671082,57.1, 0.9, 0,0,0,1024,1024,1024,1024,59.1,-89.9,90,3.943,3.946,3.954,3.945,3.938,3.952,16.945,75.2,14,Waypoint,
38.175408,-120.0595456,5058.1024266231,96.456696,0,0.55996064784,15300,2018-05-12 21:35:19,15,0,23.678,5058.1024266231,96.456696,0.223694,1.260416707,0,0,-0.671082,56.9, 1.3, -0.2,0,0,1024,1024,1024,1024,59.1,-89.9,90,3.943,3.946,3.954,3.945,3.938,3.952,16.945,75.2,14,Waypoint,
38.175408,-120.0595456,5059.0866786231,97.440948,0,0.55996064784,15400,2018-05-12 21:35:19,15,0,23.678,5059.0866786231,97.440948,0.223694,1.260416707,0,0,-0.671082,57.1, 1.6, -0.4,0,0,1024,1024,1024,1024,59.1,-89.9,90,3.943,3.946,3.954,3.945,3.938,3.952,16.945,75.2,14,Waypoint,
38.1754079,-120.0595455,5060.0709306231,98.4252,0,0.53999673644,15500,2018-05-12 21:35:20,15,0,23.678,5060.0709306231,98.4252,0.223694,1.260416707,0,0,-0.671082,57.5, 1.8, -0.5,0,0,1024,1024,1024,1024,59.1,-89.9,90,3.943,3.946,3.954,3.945,3.938,3.952,16.945,75.2,14,Waypoint,
38.1754079,-120.0595455,5061.0551826231,99.409452,0,0.53999673644,15600,2018-05-12 21:35:20,15,0,23.678,5061.0551826231,99.409452,0.223694,1.260416707,0,0,-0.671082,58, 1.8, -0.4,0,0,1024,1024,1024,1024,59.1,-89.9,90,3.943,3.946,3.954,3.945,3.938,3.952,16.945,75.2,14,Waypoint,
38.1754079,-120.0595455,5062.0394346231,100.393704,0,0.53999673644,15710,2018-05-12 21:35:20,15,0,23.678,5062.0394346231,100.393704,0.223694,1.260416707,0,0,-0.671082,58.5, 1.7, -0.3,0,0,1024,1024,1024,1024,59.1,-89.9,90,3.943,3.946,3.954,3.945,3.938,3.952,16.945,75.2,14,Waypoint,
38.175408,-120.0595455,5063.0236866231,101.377956,0,0.5723097296,15800,2018-05-12 21:35:20,15,0,23.678,5063.0236866231,101.377956,0.223694,1.260416707,0,0,-0.671082,58.8, 1.6, 0,0,0,1024,1024,1024,1024,59.1,-89.9,90,3.943,3.946,3.954,3.945,3.938,3.952,16.945,75.2,14,Waypoint,
38.175408,-120.0595455,5064.0079386231,102.362208,0,0.5723097296,15900,2018-05-12 21:35:20,15,0,23.678,5064.0079386231,102.362208,0.223694,1.260416707,0,0,-0.671082,59.1, 1.5, 0.7,0,0,1024,1024,1024,1024,59.1,-89.9,90,3.943,3.946,3.954,3.945,3.938,3.952,16.945,75.2,14,Waypoint,
38.1754081,-120.0595456,5064.9921906231,103.34646,0,0.59342849668,16000,2018-05-12 21:35:20,14,0,23.76,5064.9921906231,103.34646,0.223694,1.260416707,0,0,-0.671082,59.1, 1.6, 1.4,0,0,1024,1024,1024,1024,59.1,-89.9,90,3.947,3.961,3.97,3.961,3.939,3.963,15.505,75.2,14,Waypoint,
38.1754081,-120.0595456,5065.9764426231,104.330712,0,0.59342849668,16100,2018-05-12 21:35:20,14,0,23.76,5065.9764426231,104.330712,0.223694,1.260416707,0,0,-0.671082,59.1, 1.3, 1.7,0,0,1024,1024,1024,1024,59.1,-89.9,90,3.947,3.961,3.97,3.961,3.939,3.963,15.505,75.2,14,Waypoint,
38.1754081,-120.0595457,5066.9606946231,105.314964,0,0.5829396512,16210,2018-05-12 21:35:20,14,0,23.76,5066.9606946231,105.314964,0.223694,1.260416707,0,0,-0.671082,59, 1.2, 1.2,0,0,1024,1024,1024,1024,59.1,-89.9,90,3.947,3.961,3.97,3.961,3.939,3.963,15.505,75.2,14,Waypoint,
38.1754081,-120.0595457,5067.9449466231,106.299216,0,0.5829396512,16300,2018-05-12 21:35:20,14,0,23.76,5067.9449466231,106.299216,0.223694,1.260416707,0,0,-0.671082,58.8, 1.2, 1.1,0,0,1024,1024,1024,1024,59.1,-89.9,90,3.947,3.961,3.97,3.961,3.939,3.963,15.505,75.2,14,Waypoint,
38.1754081,-120.0595457,5068.6011146231,106.955384,0,0.5829396512,16410,2018-05-12 21:35:20,15,0,23.76,5068.6011146231,106.955384,0.223694,1.260416707,0,0,-0.671082,58.4, 1.3, 1.3,0,0,1024,1024,1024,1024,59.1,-89.9,90,3.947,3.961,3.97,3.961,3.939,3.963,15.505,75.2,14,Waypoint,
38.1754081,-120.0595458,5069.5853666231,107.939636,0,0.57369424408,16500,2018-05-12 21:35:21,15,0,23.76,5069.5853666231,107.939636,0.223694,1.260416707,0,0,-0.671082,58.1, 1.2, 1.3,0,0,1024,1024,1024,1024,59.1,-89.9,90,3.947,3.961,3.97,3.961,3.939,3.963,15.505,75.2,14,Waypoint,
38.1754081,-120.0595459,5070.5696186231,108.923888,0,0.56575133044,16610,2018-05-12 21:35:21,15,0,23.76,5070.5696186231,108.923888,0.223694,1.260416707,0,0,-0.671082,57.8, 1, 1.2,0,0,1024,1024,1024,1024,59.1,-90,90,3.947,3.961,3.97,3.961,3.939,3.963,15.505,75.2,14,Waypoint,
38.1754081,-120.059546,5071.5538706231,109.90814,0,0.5591699654,16700,2018-05-12 21:35:21,15,0,23.76,5071.5538706231,109.90814,0.223694,1.260416707,0,0,-0.671082,57.5, 0.7, 1.3,0,0,1024,1024,1024,1024,59.1,-90,90,3.947,3.961,3.97,3.961,3.939,3.963,15.505,75.2,14,Waypoint,
38.1754081,-120.059546,5072.5381226231,110.892392,0,0.5591699654,16820,2018-05-12 21:35:21,15,0,23.76,5072.5381226231,110.892392,0.223694,1.260416707,0,0,-0.671082,57.4, 0.5, 1.3,0,0,1024,1024,1024,1024,59.1,-90,90,3.947,3.961,3.97,3.961,3.939,3.963,15.505,75.2,14,Waypoint,
38.1754081,-120.059546,5074.5066266231,112.860896,0,0.5591699654,16920,2018-05-12 21:35:21,15,0,23.76,5074.5066266231,112.860896,0.223694,1.260416707,0,0,-0.671082,57.5, 0.7, 1.1,0,0,1024,1024,1024,1024,59.1,-89.9,90,3.947,3.961,3.97,3.961,3.939,3.963,15.505,75.2,14,Waypoint,
38.1754082,-120.059546,5075.4908786231,113.845148,0,0.59492455972,17000,2018-05-12 21:35:21,15,0,23.644,5075.4908786231,113.845148,0.223694,1.260416707,0,0,-0.671082,57.5, 1.1, 0.8,0,0,1024,1024,1024,1024,59.1,-89.9,90,3.947,3.961,3.97,3.961,3.939,3.963,16.938,75.2,14,Waypoint,
38.1754082,-120.059546,5076.4751306231,114.8294,0,0.59492455972,17100,2018-05-12 21:35:21,15,0,23.644,5076.4751306231,114.8294,0.223694,1.260416707,0,0,-0.671082,57.5, 1.4, 1,0,0,1024,1024,1024,1024,59.1,-89.9,90,3.947,3.961,3.97,3.961,3.939,3.963,16.938,75.2,14,Waypoint,
38.1754082,-120.059546,5077.4593826231,115.813652,0,0.59492455972,17300,2018-05-12 21:35:21,15,0,23.644,5077.4593826231,115.813652,0.223694,1.260416707,0,0,-0.671082,57.6, 1.6, 0.8,0,0,1024,1024,1024,1024,59.1,-89.9,90,3.947,3.961,3.97,3.961,3.939,3.963,16.938,75.2,14,Waypoint,
38.1754082,-120.059546,5078.4436346231,116.797904,0,0.59492455972,17400,2018-05-12 21:35:21,15,0,23.644,5078.4436346231,116.797904,0.223694,1.260416707,0,0,-0.671082,57.8, 1.8, 0.6,0,0,1024,1024,1024,1024,59.1,-89.9,90,3.947,3.961,3.97,3.961,3.939,3.963,16.938,75.2,14,Waypoint,
38.1754081,-120.0595459,5079.4278866231,117.782156,0,0.56575133044,17500,2018-05-12 21:35:22,15,0,23.644,5079.4278866231,117.782156,0.223694,1.260416707,0,0,-0.671082,57.9, 1.9, 0.4,0,0,1024,1024,1024,1024,59.1,-89.9,90,3.947,3.961,3.97,3.961,3.939,3.963,16.938,75.2,14,Waypoint,
38.1754081,-120.0595459,5080.7402226231,119.094492,0,0.56575133044,17600,2018-05-12 21:35:22,15,0,23.644,5080.7402226231,119.094492,0.223694,1.260416707,0,0,-0.671082,57.9, 1.9, 0.2,0,0,1024,1024,1024,1024,59.1,-89.9,90,3.947,3.961,3.97,3.961,3.939,3.963,16.938,75.2,14,Waypoint,
38.1754081,-120.0595459,5081.7244746231,120.078744,0,0.56575133044,17700,2018-05-12 21:35:22,15,0,23.644,5081.7244746231,120.078744,0.223694,1.260416707,0,0,-0.671082,57.8, 1.8, 0.4,0,0,1024,1024,1024,1024,59.1,-89.9,90,3.947,3.961,3.97,3.961,3.939,3.963,16.938,75.2,14,Waypoint,
38.1754081,-120.0595459,5082.7087266231,121.062996,0,0.56575133044,17800,2018-05-12 21:35:22,15,0,23.644,5082.7087266231,121.062996,0.223694,1.260416707,0,0,-0.671082,57.8, 1.9, 0.4,0,0,1024,1024,1024,1024,59.1,-89.9,90,3.947,3.961,3.97,3.961,3.939,3.963,16.938,75.2,14,Waypoint,
38.1754081,-120.0595458,5083.6929786231,122.047248,0,0.57369424408,17900,2018-05-12 21:35:22,15,0,23.644,5083.6929786231,122.047248,0.223694,1.260416707,0,0,-0.671082,57.9, 1.9, 0.1,0,0,1024,1024,1024,1024,59.1,-89.9,90,3.947,3.961,3.97,3.961,3.939,3.963,16.938,75.2,14,Waypoint,
38.175408,-120.0595457,5084.6772306231,123.0315,0,0.54882875772,18000,2018-05-12 21:35:22,15,0,23.55,5084.6772306231,123.0315,0.223694,1.260416707,0,0,-0.671082,58.1, 1.9, -0.1,0,0,1024,1024,1024,1024,59.1,-89.9,90,3.919,3.932,3.94,3.921,3.913,3.934,17.431,75.2,14,Waypoint,
38.1754079,-120.0595457,5085.6614826231,124.015752,0,0.51504594824,18100,2018-05-12 21:35:22,15,0,23.55,5085.6614826231,124.015752,0.223694,1.260416707,0,0,-0.671082,58.4, 2, -0.4,0,0,1024,1024,1024,1024,59.1,-89.9,90,3.919,3.932,3.94,3.921,3.913,3.934,17.431,75.2,14,Waypoint,
38.1754079,-120.0595456,5086.6457346231,125.000004,0,0.52688978064,18200,2018-05-12 21:35:22,15,0,23.55,5086.6457346231,125.000004,0.223694,1.260416707,0,0,-0.671082,58.6, 1.8, -0.7,0,0,1024,1024,1024,1024,59.1,-89.9,90,3.919,3.932,3.94,3.921,3.913,3.934,17.431,75.2,14,Waypoint,
38.1754078,-120.0595455,5087.6299866231,125.984256,0,0.5082513286,18300,2018-05-12 21:35:22,15,0,23.55,5087.6299866231,125.984256,0.223694,1.260416707,0,0,-0.671082,58.7, 1.7, -1,0,0,1024,1024,1024,1024,59.1,-89.9,90,3.919,3.932,3.94,3.921,3.913,3.934,17.431,75.2,14,Waypoint,
38.1754078,-120.0595455,5088.2861546231,126.640424,0,0.5082513286,18400,2018-05-12 21:35:22,15,0,23.55,5088.2861546231,126.640424,0.223694,1.260416707,0,0,-0.671082,58.8, 1.7, -1,0,0,1024,1024,1024,1024,59.1,-89.9,90,3.919,3.932,3.94,3.921,3.913,3.934,17.431,75.2,14,Waypoint,
38.1754077,-120.0595454,5090.2546586231,128.608928,0,0.49328741736,18600,2018-05-12 21:35:23,15,0,23.55,5090.2546586231,128.608928,0.223694,1.260416707,0,0,-0.671082,58.6, 2, -0.5,0,0,1024,1024,1024,1024,59.1,-89.9,90,3.919,3.932,3.94,3.921,3.913,3.934,17.431,75.2,14,Waypoint,
38.1754077,-120.0595453,5091.2389106231,129.59318,0,0.510498704,18700,2018-05-12 21:35:23,15,0,23.55,5091.2389106231,129.59318,0.223694,1.260416707,0,0,-0.671082,58.5, 2.3, -0.3,0,0,1024,1024,1024,1024,59.1,-89.9,90,3.919,3.932,3.94,3.921,3.913,3.934,17.431,75.2,14,Waypoint,
38.1754077,-120.0595452,5092.2231626231,130.577432,0,0.52870408516,18800,2018-05-12 21:35:23,15,0,23.55,5092.2231626231,130.577432,0.223694,1.260416707,0,0,-0.671082,58.3, 2.5, -0.1,0,0,1024,1024,1024,1024,59.1,-89.9,90,3.919,3.932,3.94,3.921,3.913,3.934,17.431,75.2,14,Waypoint,
38.1754076,-120.0595451,5093.2074146231,131.561684,0,0.5216699642,18900,2018-05-12 21:35:23,15,0,23.55,5093.2074146231,131.561684,0.223694,1.260416707,0,0,-0.671082,58.2, 2.6, -0.3,0,0,1024,1024,1024,1024,59.1,-89.9,90,3.919,3.932,3.94,3.921,3.913,3.934,17.431,75.2,14,Waypoint,
38.1754075,-120.0595449,5094.8478346231,133.202104,0,0.54121720892,19110,2018-05-12 21:35:23,15,0,23.55,5094.8478346231,133.202104,0.223694,1.260416707,0,0,-0.671082,58.1, 2.5, -1.2,0,0,1024,1024,1024,1024,59.1,-89.9,90,3.919,3.932,3.94,3.921,3.913,3.934,17.431,75.2,14,Waypoint,
38.1754074,-120.0595449,5096.8163386231,135.170608,0,0.51989174892,19200,2018-05-12 21:35:23,15,0,23.55,5096.8163386231,135.170608,0.223694,1.260416707,0,0,-0.671082,58, 2.2, -1.7,0,0,1024,1024,1024,1024,59.1,-89.9,90,3.919,3.932,3.94,3.921,3.913,3.934,17.431,75.2,14,Waypoint,
38.1754073,-120.0595448,5098.7848426231,137.139112,0,0.52518702468,19400,2018-05-12 21:35:23,15,0,23.55,5098.7848426231,137.139112,0.223694,1.260416707,0,0,-0.671082,58, 2, -1.4,0,0,1024,1024,1024,1024,59.1,-89.9,90,3.919,3.932,3.94,3.921,3.913,3.934,17.431,75.2,14,Waypoint,
38.1754072,-120.0595447,5100.7533466231,139.107616,0,0.53447508272,19600,2018-05-12 21:35:24,15,0,23.55,5100.7533466231,139.107616,0.223694,1.260416707,0,0,-0.671082,58.1, 2, -1.5,0,0,1024,1024,1024,1024,59.1,-89.9,90,3.919,3.932,3.94,3.921,3.913,3.934,17.431,75.2,14,Waypoint,
38.1754072,-120.0595447,5101.7375986231,140.091868,0,0.53447508272,19800,2018-05-12 21:35:24,15,0,23.55,5101.7375986231,140.091868,0.223694,1.260416707,0,0,-0.671082,58.3, 1.8, -1.6,0,0,1024,1024,1024,1024,59.1,-89.9,90,3.919,3.932,3.94,3.921,3.913,3.934,17.431,75.2,14,Waypoint,
38.1754072,-120.0595447,5102.7218506231,141.07612,0,0.53447508272,19900,2018-05-12 21:35:24,15,0,23.55,5102.7218506231,141.07612,0.223694,1.260416707,0,0,-0.671082,58.4, 1.7, -1.4,0,0,1024,1024,1024,1024,59.1,-89.9,90,3.919,3.932,3.94,3.921,3.913,3.934,17.431,75.2,14,Waypoint,
38.1754072,-120.0595447,5103.7061026231,142.060372,0,0.53447508272,20000,2018-05-12 21:35:24,15,0,23.694,5103.7061026231,142.060372,0.223694,1.260416707,0,0,-0.671082,58.4, 1.8, -1,0,0,1024,1024,1024,1024,59.1,-89.9,90,3.928,3.96,3.958,3.951,3.936,3.962,15.501,75.2,14,Waypoint,
38.1754072,-120.0595448,5104.6903546231,143.044624,0,0.50844489816,20100,2018-05-12 21:35:24,15,0,23.694,5104.6903546231,143.044624,0.223694,1.260416707,0,0,-0.671082,58.4, 1.8, -0.9,0,0,1024,1024,1024,1024,59.1,-89.9,90,3.928,3.96,3.958,3.951,3.936,3.962,15.501,75.2,14,Waypoint,
38.1754072,-120.0595448,5105.6746066231,144.028876,0,0.50844489816,20200,2018-05-12 21:35:24,15,0,23.694,5105.6746066231,144.028876,0.223694,1.260416707,0,0,-0.671082,58.4, 1.8, -0.8,0,0,1024,1024,1024,1024,59.1,-89.9,90,3.928,3.96,3.958,3.951,3.936,3.962,15.501,75.2,14,Waypoint,
38.1754072,-120.0595448,5106.6588586231,145.013128,0,0.50844489816,20300,2018-05-12 21:35:24,15,0,23.694,5106.6588586231,145.013128,0.223694,1.260416707,0,0,-0.671082,58.3, 1.8, -0.8,0,0,1024,1024,1024,1024,59.1,-89.9,90,3.928,3.96,3.958,3.951,3.936,3.962,15.501,75.2,14,Waypoint,
38.1754073,-120.0595448,5107.6431106231,145.99738,0,0.52518702468,20400,2018-05-12 21:35:24,15,0,23.694,5107.6431106231,145.99738,0.223694,1.260416707,0,0,-0.671082,58.4, 1.7, -0.8,0,0,1024,1024,1024,1024,59.1,-90,90,3.928,3.96,3.958,3.951,3.936,3.962,15.501,75.2,14,Waypoint,
38.1754073,-120.0595448,5108.6273626231,146.981632,0,0.52518702468,20500,2018-05-12 21:35:25,15,0,23.694,5108.6273626231,146.981632,0.223694,1.260416707,0,0,-0.671082,58.4, 1.7, -0.9,0,0,1024,1024,1024,1024,59.1,-89.9,90,3.928,3.96,3.958,3.951,3.936,3.962,15.501,75.2,14,Waypoint,
38.1754073,-120.0595448,5109.6116146231,147.965884,0,0.52518702468,20600,2018-05-12 21:35:25,15,0,23.694,5109.6116146231,147.965884,0.223694,1.260416707,0,0,-0.671082,58.3, 1.8, -0.8,0,0,1024,1024,1024,1024,59.1,-89.9,90,3.928,3.96,3.958,3.951,3.936,3.962,15.501,75.2,14,Waypoint,
38.1754073,-120.0595449,5110.5958666231,148.950136,0,0.50031825748,20700,2018-05-12 21:35:25,15,0,23.694,5110.5958666231,148.950136,0.223694,1.260416707,0,0,-0.671082,58.1, 1.8, -0.8,0,0,1024,1024,1024,1024,59.1,-89.9,90,3.928,3.96,3.958,3.951,3.936,3.962,15.501,75.2,14,Waypoint,
38.1754073,-120.0595449,5111.5801186231,149.934388,0,0.50031825748,20800,2018-05-12 21:35:25,15,0,23.694,5111.5801186231,149.934388,0.223694,1.260416707,0,0,-0.671082,58, 1.9, -0.9,0,0,1024,1024,1024,1024,59.1,-89.9,90,3.928,3.96,3.958,3.951,3.936,3.962,15.501,75.2,14,Waypoint,
38.1754073,-120.0595449,5112.5643706231,150.91864,0,0.50031825748,20900,2018-05-12 21:35:25,15,0,23.694,5112.5643706231,150.91864,0.223694,1.260416707,0,0,-0.671082,57.8, 2, -0.9,0,0,1024,1024,1024,1024,59.1,-89.9,90,3.928,3.96,3.958,3.951,3.936,3.962,15.501,75.2,14,Waypoint,
38.1754073,-120.0595449,5113.5486226231,151.902892,0,0.50031825748,21000,2018-05-12 21:35:25,15,0,23.513,5113.5486226231,151.902892,0.223694,1.260416707,0,0,-0.671082,57.6, 2, -0.7,0,0,1024,1024,1024,1024,59.1,-89.9,90,3.906,3.913,3.925,3.908,3.899,3.913,17.604,75.2,14,Waypoint,
38.1754073,-120.059545,5114.5328746231,152.887144,0,0.47588256116,21110,2018-05-12 21:35:25,15,0,23.513,5114.5328746231,152.887144,0.223694,1.260416707,0,0,-0.671082,57.6, 1.9, -0.5,0,0,1024,1024,1024,1024,59.1,-89.9,90,3.906,3.913,3.925,3.908,3.899,3.913,17.604,75.2,14,Waypoint,
38.1754074,-120.059545,5115.5171266231,153.871396,0,0.49641733872,21200,2018-05-12 21:35:25,15,0,23.513,5115.5171266231,153.871396,0.223694,1.260416707,0,0,-0.671082,57.6, 1.7, -0.5,0,0,1024,1024,1024,1024,59.1,-89.9,90,3.906,3.913,3.925,3.908,3.899,3.913,17.604,75.2,14,Waypoint,
38.1754074,-120.0595451,5117.4856306231,155.8399,0,0.47351707552,21310,2018-05-12 21:35:25,15,0,23.513,5117.4856306231,155.8399,0.223694,1.260416707,0,0,-0.671082,57.8, 1.8, -0.6,0,0,1024,1024,1024,1024,59.1,-89.9,90,3.906,3.913,3.925,3.908,3.899,3.913,17.604,75.2,14,Waypoint,
38.1754074,-120.0595452,5118.4698826231,156.824152,0,0.451279542,21400,2018-05-12 21:35:25,15,0,23.513,5118.4698826231,156.824152,0.223694,1.260416707,0,0,-0.671082,58, 1.8, -0.5,0,0,1024,1024,1024,1024,59.1,-89.9,90,3.906,3.913,3.925,3.908,3.899,3.913,17.604,75.2,14,Waypoint,
38.1754075,-120.0595453,5119.4541346231,157.808404,0,0.45537074948,21500,2018-05-12 21:35:26,15,0,23.513,5119.4541346231,157.808404,0.223694,1.260416707,0,0,-0.671082,58.2, 1.8, -0.3,0,0,1024,1024,1024,1024,59.1,-89.9,90,3.906,3.913,3.925,3.908,3.899,3.913,17.604,75.2,14,Waypoint,
38.1754075,-120.0595453,5120.7664706231,159.12074,0,0.45537074948,21600,2018-05-12 21:35:26,15,0,23.513,5120.7664706231,159.12074,0.223694,1.260416707,0,0,-0.671082,58.4, 1.8, -0.1,0,0,1024,1024,1024,1024,59.1,-89.9,90,3.906,3.913,3.925,3.908,3.899,3.913,17.604,75.2,14,Waypoint,
38.1754076,-120.0595454,5121.7507226231,160.104992,0,0.46408794136,21700,2018-05-12 21:35:26,15,0,23.513,5121.7507226231,160.104992,0.223694,1.260416707,0,0,-0.671082,58.5, 1.8, 0,0,0,1024,1024,1024,1024,59.1,-89.9,90,3.906,3.913,3.925,3.908,3.899,3.913,17.604,75.2,14,Waypoint,
38.1754077,-120.0595454,5122.7349746231,161.089244,0,0.49328741736,21800,2018-05-12 21:35:26,15,0,23.513,5122.7349746231,161.089244,0.223694,1.260416707,0,0,-0.671082,58.6, 1.9, 0,0,0,1024,1024,1024,1024,59.1,-89.9,90,3.906,3.913,3.925,3.908,3.899,3.913,17.604,75.2,14,Waypoint,
38.1754077,-120.0595455,5123.7192266231,162.073496,0,0.4771817738,22000,2018-05-12 21:35:26,15,0,23.513,5123.7192266231,162.073496,0.223694,1.260416707,0,0,-0.671082,58.7, 1.9, 0,0,0,1024,1024,1024,1024,59.1,-89.9,90,3.906,3.913,3.925,3.908,3.899,3.913,17.604,75.2,14,Waypoint,
38.1754078,-120.0595457,5125.6877306231,164.042,0,0.48165683956,22110,2018-05-12 21:35:26,15,0,23.513,5125.6877306231,164.042,0.223694,1.260416707,0,0,-0.671082,58.7, 1.5, 0.5,0,0,1024,1024,1024,1024,59.1,-90,90,3.906,3.913,3.925,3.908,3.899,3.913,17.604,75.2,14,Waypoint,
38.1754078,-120.0595458,5126.6719826231,165.026252,0,0.47042652424,22300,2018-05-12 21:35:26,15,0,23.513,5126.6719826231,165.026252,0.223694,1.260416707,0,0,-0.671082,58.6, 1.1, 0.7,0,0,1024,1024,1024,1024,59.1,-90,90,3.906,3.913,3.925,3.908,3.899,3.913,17.604,75.2,14,Waypoint,
38.1754078,-120.0595459,5127.6562346231,166.010504,0,0.46070867616,22400,2018-05-12 21:35:26,15,0,23.513,5127.6562346231,166.010504,0.223694,1.260416707,0,0,-0.671082,58.3, 1.1, 0.8,0,0,1024,1024,1024,1024,59.1,-89.9,90,3.906,3.913,3.925,3.908,3.899,3.913,17.604,75.2,14,Waypoint,
38.1754078,-120.059546,5128.6404866231,166.994756,0,0.45260172052,22500,2018-05-12 21:35:27,15,0,23.513,5128.6404866231,166.994756,0.223694,1.260416707,0,0,-0.671082,58.1, 1.2, 0.6,0,0,1024,1024,1024,1024,59.1,-89.9,90,3.906,3.913,3.925,3.908,3.899,3.913,17.604,75.2,14,Waypoint,
38.1754078,-120.059546,5129.6247386231,167.979008,0,0.45260172052,22600,2018-05-12 21:35:27,15,0,23.513,5129.6247386231,167.979008,0.223694,1.260416707,0,0,-0.671082,57.9, 1.4, 0.1,0,0,1024,1024,1024,1024,59.1,-89.9,90,3.906,3.913,3.925,3.908,3.899,3.913,17.604,75.2,14,Waypoint,
38.1754079,-120.0595461,5130.6089906231,168.96326,0,0.48204725952,22700,2018-05-12 21:35:27,15,0,23.513,5130.6089906231,168.96326,0.223694,1.260416707,0,0,-0.671082,57.7, 1.3, -0.2,0,0,1024,1024,1024,1024,59.1,-90,90,3.906,3.913,3.925,3.908,3.899,3.913,17.604,75.2,14,Waypoint,
38.1754079,-120.0595461,5131.5932426231,169.947512,0,0.48204725952,22800,2018-05-12 21:35:27,15,0,23.513,5131.5932426231,169.947512,0.223694,1.260416707,0,0,-0.671082,57.7, 1, -0.5,0,0,1024,1024,1024,1024,59.1,-90,90,3.906,3.913,3.925,3.908,3.899,3.913,17.604,75.2,14,Waypoint,
38.1754079,-120.0595461,5132.5774946231,170.931764,0,0.48204725952,22900,2018-05-12 21:35:27,15,0,23.513,5132.5774946231,170.931764,0.223694,1.260416707,0,0,-0.671082,57.6, 1, -0.1,0,0,1024,1024,1024,1024,59.1,-89.9,90,3.906,3.913,3.925,3.908,3.899,3.913,17.604,75.2,14,Waypoint,
38.1754079,-120.0595461,5133.5617466231,171.916016,0,0.48204725952,23000,2018-05-12 21:35:27,15,0,23.477,5133.5617466231,171.916016,0.223694,1.260416707,0,0,-0.671082,57.6, 1.5, -0.3,0,0,1024,1024,1024,1024,59.1,-89.9,90,3.909,3.918,3.912,3.908,3.904,3.919,17.749,75.2,14,Waypoint,
38.1754079,-120.0595461,5134.8740826231,173.228352,0,0.48204725952,23110,2018-05-12 21:35:27,15,0,23.477,5134.8740826231,173.228352,0.223694,1.260416707,0,0,-0.671082,57.8, 2.1, -0.2,0,0,1024,1024,1024,1024,59.1,-89.9,90,3.909,3.918,3.912,3.908,3.904,3.919,17.749,75.2,14,Waypoint,
38.175408,-120.0595461,5135.8583346231,174.212604,0,0.51798558088,23200,2018-05-12 21:35:27,15,0,23.477,5135.8583346231,174.212604,0.223694,1.260416707,0,0,-0.671082,58.1, 2.2, -0.4,0,0,1024,1024,1024,1024,59.1,-89.9,90,3.909,3.918,3.912,3.908,3.904,3.919,17.749,75.2,14,Waypoint,
38.175408,-120.059546,5136.8425866231,175.196856,0,0.52351379628,23300,2018-05-12 21:35:27,15,0,23.477,5136.8425866231,175.196856,0.223694,1.260416707,0,0,-0.671082,58.4, 2.6, -0.2,0,0,1024,1024,1024,1024,59.1,-89.9,90,3.909,3.918,3.912,3.908,3.904,3.919,17.749,75.2,14,Waypoint,
38.1754081,-120.059546,5137.8268386231,176.181108,0,0.5591699654,23400,2018-05-12 21:35:27,15,0,23.477,5137.8268386231,176.181108,0.223694,1.260416707,0,0,-0.671082,58.6, 3.3, -0.3,0,0,1024,1024,1024,1024,59.1,-89.9,90,3.909,3.918,3.912,3.908,3.904,3.919,17.749,75.2,14,Waypoint,
38.1754082,-120.0595459,5139.4672586231,177.821528,0,0.6011155048,23500,2018-05-12 21:35:28,15,0,23.477,5139.4672586231,177.821528,0.223694,1.260416707,0,0,-0.671082,58.7, 3.2, -1,0,0,1024,1024,1024,1024,59.1,-89.9,90,3.909,3.918,3.912,3.908,3.904,3.919,17.749,75.2,14,Waypoint,
38.1754082,-120.0595459,5140.4515106231,178.80578,0,0.6011155048,23600,2018-05-12 21:35:28,15,0,23.477,5140.4515106231,178.80578,0.223694,1.260416707,0,0,-0.671082,58.6, 3.1, -0.5,0,0,1024,1024,1024,1024,59.1,-89.9,90,3.909,3.918,3.912,3.908,3.904,3.919,17.749,75.2,14,Waypoint,
38.1754083,-120.0595459,5141.4357626231,179.790032,0,0.63660763192,23710,2018-05-12 21:35:28,15,0,23.477,5141.4357626231,179.790032,0.223694,1.260416707,0,0,-0.671082,58.4, 2.6, 0,0,0,1024,1024,1024,1024,59.1,-89.9,90,3.909,3.918,3.912,3.908,3.904,3.919,17.749,75.2,14,Waypoint,
38.1754083,-120.0595458,5142.4200146231,180.774284,0,0.64367456128,23800,2018-05-12 21:35:28,15,0,23.477,5142.4200146231,180.774284,0.223694,1.260416707,0,0,-0.671082,58.4, 2.4, 0.3,0,0,1024,1024,1024,1024,59.1,-89.9,90,3.909,3.918,3.912,3.908,3.904,3.919,17.749,75.2,14,Waypoint,
38.1754084,-120.0595458,5143.4042666231,181.758536,0,0.67890094036,23900,2018-05-12 21:35:28,15,0,23.477,5143.4042666231,181.758536,0.223694,1.260416707,0,0,-0.671082,58.3, 2.7, 0.2,0,0,1024,1024,1024,1024,59.1,-89.9,90,3.909,3.918,3.912,3.908,3.904,3.919,17.749,75.2,14,Waypoint,
38.1754085,-120.0595457,5144.3885186231,182.742788,0,0.721702779,24030,2018-05-12 21:35:28,15,0,23.385,5144.3885186231,182.742788,0.223694,1.260416707,0,0,-0.671082,58.1, 3.6, 0,0,0,1024,1024,1024,1024,59.1,-89.9,90,3.888,3.905,3.904,3.897,3.885,3.903,18.049,75.2,14,Waypoint,
38.1754085,-120.0595457,5145.3727706231,183.72704,0,0.721702779,24100,2018-05-12 21:35:28,15,0,23.385,5145.3727706231,183.72704,0.223694,1.260416707,0,0,-0.671082,58, 3.7, 0,0,0,1024,1024,1024,1024,59.1,-89.9,90,3.888,3.905,3.904,3.897,3.885,3.903,18.049,75.2,14,Waypoint,
38.1754086,-120.0595456,5146.6851066231,185.039376,0,0.76492456516,24300,2018-05-12 21:35:28,15,0,23.385,5146.6851066231,185.039376,0.223694,1.260416707,0,0,-0.671082,58, 3, 0,0,0,1024,1024,1024,1024,59.1,-89.9,90,3.888,3.905,3.904,3.897,3.885,3.903,18.049,75.2,14,Waypoint,
38.1754087,-120.0595456,5147.6693586231,186.023628,0,0.7998031752,24400,2018-05-12 21:35:28,15,0,23.385,5147.6693586231,186.023628,0.223694,1.260416707,0,0,-0.671082,58.1, 2.5, -0.2,0,0,1024,1024,1024,1024,59.1,-89.9,90,3.888,3.905,3.904,3.897,3.885,3.903,18.049,75.2,14,Waypoint,
38.1754088,-120.0595455,5148.6536106231,187.00788,0,0.84315619496,24500,2018-05-12 21:35:29,15,0,23.385,5148.6536106231,187.00788,0.223694,1.260416707,0,0,-0.671082,58, 2.7, 0,0,0,1024,1024,1024,1024,59.1,-89.9,90,3.888,3.905,3.904,3.897,3.885,3.903,18.049,75.2,14,Waypoint,
38.1754088,-120.0595454,5149.6378626231,187.992132,0.223694,0.85237207452,24600,2018-05-12 21:35:29,15,0,23.385,5149.6378626231,187.992132,0.223694,1.260416707,0,0,-0.671082,58.1, 3.6, 0.6,0,0,1024,1024,1024,1024,59.1,-89.9,90,3.888,3.905,3.904,3.897,3.885,3.903,18.049,75.2,14,Waypoint,
38.1754089,-120.0595453,5150.6221146231,188.976384,0.223694,0.89650265336,24700,2018-05-12 21:35:29,15,0,23.385,5150.6221146231,188.976384,0.223694,1.260416707,0,0,-0.671082,58.2, 4.5, 0.8,0,0,1024,1024,1024,1024,59.1,-89.9,90,3.888,3.905,3.904,3.897,3.885,3.903,18.049,75.2,14,Waypoint,
38.175409,-120.0595453,5151.6063666231,189.960636,0,0.9307414996,24800,2018-05-12 21:35:29,15,0,23.385,5151.6063666231,189.960636,0.223694,1.260416707,0,0,-0.671082,58.3, 5, 0.3,0,0,1024,1024,1024,1024,59.1,-89.9,90,3.888,3.905,3.904,3.897,3.885,3.903,18.049,75.2,14,Waypoint,
38.175409,-120.0595452,5152.5906186231,190.944888,0,0.94085304848,24900,2018-05-12 21:35:29,15,0,23.385,5152.5906186231,190.944888,0.223694,1.260416707,0,0,-0.671082,58.4, 4.5, 0,0,0,1024,1024,1024,1024,59.1,-89.9,90,3.888,3.905,3.904,3.897,3.885,3.903,18.049,75.2,14,Waypoint,
38.175409,-120.0595452,5153.5748706231,191.92914,0,0.94085304848,25000,2018-05-12 21:35:29,15,0,23.286,5153.5748706231,191.92914,0.223694,1.260416707,0,0,-0.671082,58.3, 3.9, -0.2,0,0,1024,1024,1024,1024,59.1,-90,90,3.868,3.882,3.907,3.877,3.88,3.893,18.621,75.2,14,Waypoint,
38.175409,-120.0595452,5154.2310386231,192.585308,0,0.94085304848,25100,2018-05-12 21:35:29,15,0,23.286,5154.2310386231,192.585308,0.223694,1.260416707,0,0,-0.671082,58.1, 3.4, -0.3,0,0,1024,1024,1024,1024,59.1,-90,90,3.868,3.882,3.907,3.877,3.88,3.893,18.621,75.2,14,Waypoint,
38.1754089,-120.0595452,5155.2152906231,193.56956,0,0.90699477968,25200,2018-05-12 21:35:29,15,0,23.286,5155.2152906231,193.56956,0.223694,1.260416707,0,0,-0.671082,57.9, 3, -0.2,0,0,1024,1024,1024,1024,59.1,-90,90,3.868,3.882,3.907,3.877,3.88,3.893,18.621,75.2,14,Waypoint,
38.1754089,-120.0595452,5156.1995426231,194.553812,0,0.90699477968,25300,2018-05-12 21:35:29,15,0,23.286,5156.1995426231,194.553812,0.223694,1.260416707,0,0,-0.671082,57.7, 2.9, -0.3,0,0,1024,1024,1024,1024,59.1,-89.9,90,3.868,3.882,3.907,3.877,3.88,3.893,18.621,75.2,14,Waypoint,
38.1754089,-120.0595452,5157.1837946231,195.538064,0,0.90699477968,25400,2018-05-12 21:35:29,15,0,23.286,5157.1837946231,195.538064,0.223694,1.260416707,0,0,-0.671082,57.9, 3.2, -0.5,0,0,1024,1024,1024,1024,59.1,-89.9,90,3.868,3.882,3.907,3.877,3.88,3.893,18.621,75.2,14,Waypoint,
38.1754089,-120.0595452,5158.1680466231,196.522316,0,0.90699477968,25500,2018-05-12 21:35:30,15,0,23.286,5158.1680466231,196.522316,0.223694,1.260416707,0,0,-0.671082,58.2, 3.4, -0.8,0,0,1024,1024,1024,1024,59.1,-89.9,90,3.868,3.882,3.907,3.877,3.88,3.893,18.621,75.2,14,Waypoint,
38.1754089,-120.059545,5160.4646346231,198.818904,0.223694,0.93027562032,25600,2018-05-12 21:35:30,15,0,23.286,5160.4646346231,198.818904,0.223694,1.260416707,0,0,-0.671082,58.5, 4, -1.5,0,0,1024,1024,1024,1024,59.1,-89.9,90,3.868,3.882,3.907,3.877,3.88,3.893,18.621,75.2,14,Waypoint,
38.1754089,-120.0595449,5161.4488866231,199.803156,0.223694,0.9430118412,25700,2018-05-12 21:35:30,15,0,23.286,5161.4488866231,199.803156,0.223694,1.260416707,0,0,-0.671082,58.6, 4.3, -1.2,0,0,1024,1024,1024,1024,59.1,-89.9,90,3.868,3.882,3.907,3.877,3.88,3.893,18.621,75.2,14,Waypoint,
38.175409,-120.0595449,5162.4331386231,200.787408,0,0.97562010996,25800,2018-05-12 21:35:30,15,0,23.286,5162.4331386231,200.787408,0.223694,1.260416707,0,0,-0.671082,58.7, 4.3, -0.7,0,0,1024,1024,1024,1024,59.1,-89.9,90,3.868,3.882,3.907,3.877,3.88,3.893,18.621,75.2,14,Waypoint,
