latitude,longitude,altitude(feet),ascent(feet),speed(mph),distance(feet),time(millisecond),datetime(utc),satellites,gpslevel,voltage(v),max_altitude(feet),max_ascent(feet),max_speed(mph),max_distance(feet), xSpeed(mph), ySpeed(mph), zSpeed(mph), compass_heading(degrees), pitch(degrees), roll(degrees),isPhoto,isVideo,rc_elevator,rc_aileron,rc_throttle,rc_rudder,gimbal_heading(degrees),gimbal_pitch(degrees),battery_percent,voltageCell1,voltageCell2,voltageCell3,voltageCell4,voltageCell5,voltageCell6,current(A),battery_temperature(f),flycStateRaw,flycState,message
38.2001639,-120.0382884,5271.5157021531,0,0,0,2800,2018-05-12 16:55:44,14,0,0,5271.5157021531,0,0,0,0,0,0,326.3, 0.7, -0.6,1,0,1024,1024,1024,1024,327.4,-89.9,100,4.268,4.27,4.244,4.238,4.224,4.237,0,64.4,11,AutoTakeoff,Photo Starting Mission from Lat/Long: 38.20016/-120.03829 Camera: Zenmuse X3 - Overlap: 90/90 - Active Connection: No
38.2001639,-120.0382884,5271.5157021531,0,0,0,2900,2018-05-12 16:55:45,14,0,0,5271.5157021531,0,0,0,0,0,0,326.4, 0.9, -0.1,0,0,1024,1024,1024,1024,327.4,-89.9,100,4.268,4.27,4.244,4.238,4.224,4.237,0,64.4,11,AutoTakeoff,
38.2001638,-120.0382884,5271.5157021531,0,0,0.036484909304,3000,2018-05-12 16:55:45,14,0,25.503,5271.5157021531,0,0,0.036484909304,0,0,0,326.5, 0.7, 0,0,0,1024,1024,1024,1024,327.4,-89.9,100,4.268,4.27,4.244,4.238,4.224,4.237,3.096,64.4,11,AutoTakeoff,
38.2001638,-120.0382885,5271.5157021531,0,0,0.046402888624,3100,2018-05-12 16:55:45,14,0,25.503,5271.5157021531,0,0,0.046402888624,0,0,0,326.6, 0.3, 0,0,0,1024,1024,1024,1024,327.4,-89.9,100,4.268,4.27,4.244,4.238,4.224,4.237,3.096,64.4,11,AutoTakeoff,
38.2001638,-120.0382885,5271.5157021531,0,0,0.046402888624,3200,2018-05-12 16:55:45,14,0,25.503,5271.5157021531,0,0,0.046402888624,0,0,0,326.7, -0.1, 0.2,0,0,1024,1024,1024,1024,327.4,-89.9,100,4.268,4.27,4.244,4.238,4.224,4.237,3.096,64.4,11,AutoTakeoff,
38.2001638,-120.0382885,5271.8437861531,0.328084,0,0.046402888624,3300,2018-05-12 16:55:45,13,0,25.503,5271.8437861531,0.328084,0,0.046402888624,0,0,0,326.7, -0.1, 0.2,0,0,1024,1024,1024,1024,327.4,-89.9,100,4.268,4.27,4.244,4.238,4.224,4.237,3.096,64.4,11,AutoTakeoff,
38.2001637,-120.0382885,5271.8437861531,0.328084,0,0.078400921144,3400,2018-05-12 16:55:45,13,0,25.503,5271.8437861531,0.328084,0,0.078400921144,0,0,0,326.7, 0, 0.5,0,0,1024,1024,1024,1024,327.4,-89.9,100,4.268,4.27,4.244,4.238,4.224,4.237,3.096,64.4,11,AutoTakeoff,
38.2001637,-120.0382886,5272.1718701531,0.656168,0,0.092805777248,3500,2018-05-12 16:55:45,12,0,25.503,5272.1718701531,0.656168,0,0.092805777248,0,0,0,326.6, 0.1, 0.7,0,0,1024,1024,1024,1024,327.4,-89.9,100,4.268,4.27,4.244,4.238,4.224,4.237,3.096,64.4,11,AutoTakeoff,
38.2001637,-120.0382886,5272.1718701531,0.656168,0,0.092805777248,3600,2018-05-12 16:55:45,12,0,25.503,5272.1718701531,0.656168,0,0.092805777248,0,0,0,326.5, 0, 0.7,0,0,1024,1024,1024,1024,327.4,-90,100,4.268,4.27,4.244,4.238,4.224,4.237,3.096,64.4,11,AutoTakeoff,
38.2001636,-120.0382886,5272.4999541531,0.984252,0,0.12356627692,3700,2018-05-12 16:55:45,12,0,25.503,5272.4999541531,0.984252,0,0.12356627692,0,0,0,326.5, -0.1, 0.5,0,0,1024,1024,1024,1024,327.4,-89.9,100,4.268,4.27,4.244,4.238,4.224,4.237,3.096,64.4,11,AutoTakeoff,
38.2001636,-120.0382886,5272.8280381531,1.312336,0,0.12356627692,3900,2018-05-12 16:55:46,11,0,25.503,5272.8280381531,1.312336,0,0.12356627692,0,0,0,326.5, -0.1, 0.5,0,0,1024,1024,1024,1024,327.4,-90,100,4.268,4.27,4.244,4.238,4.224,4.237,3.096,64.4,11,AutoTakeoff,
38.2001635,-120.0382885,5273.1561221531,1.64042,0,0.148729663552,4000,2018-05-12 16:55:46,10,0,24.927,5273.1561221531,1.64042,0,0.148729663552,0,0,0,326.5, -0.4, 0.6,0,0,1024,1024,1024,1024,327.4,-90,100,4.095,4.078,4.111,4.087,4.14,4.105,6.987,64.4,11,AutoTakeoff,
38.2001635,-120.0382885,5273.1561221531,1.64042,0,0.148729663552,4100,2018-05-12 16:55:46,10,0,24.927,5273.1561221531,1.64042,0,0.148729663552,0,0,0,326.6, -0.4, 0.6,0,0,1024,1024,1024,1024,327.4,-90,100,4.095,4.078,4.111,4.087,4.14,4.105,6.987,64.4,11,AutoTakeoff,
38.2001634,-120.0382884,5273.4842061531,1.968504,0,0.18242454652,4200,2018-05-12 16:55:46,12,0,24.927,5273.4842061531,1.968504,0,0.18242454652,0,0,0,326.7, -0.5, 0.4,0,0,1024,1024,1024,1024,327.4,-90,100,4.095,4.078,4.111,4.087,4.14,4.105,6.987,64.4,11,AutoTakeoff,
38.2001635,-120.0382884,5273.4842061531,1.968504,0,0.145939637216,4300,2018-05-12 16:55:46,12,0,24.927,5273.4842061531,1.968504,0,0.18242454652,0,0,0,326.7, -0.5, 0.4,0,0,1024,1024,1024,1024,327.4,-90,100,4.095,4.078,4.111,4.087,4.14,4.105,6.987,64.4,11,AutoTakeoff,
38.2001635,-120.0382882,5273.8122901531,2.296588,0,0.156801514204,4500,2018-05-12 16:55:46,11,0,24.927,5273.8122901531,2.296588,0,0.18242454652,0,0,0,326.7, -0.5, 0.1,0,0,1024,1024,1024,1024,327.4,-90,100,4.095,4.078,4.111,4.087,4.14,4.105,6.987,64.4,11,AutoTakeoff,
38.2001636,-120.0382881,5274.1403741531,2.624672,0,0.139208665872,4600,2018-05-12 16:55:46,11,0,24.927,5274.1403741531,2.624672,0,0.18242454652,0,0,0,326.7, -0.5, 0,0,0,1024,1024,1024,1024,327.4,-90,100,4.095,4.078,4.111,4.087,4.14,4.105,6.987,64.4,11,AutoTakeoff,
38.2001635,-120.038288,5274.1403741531,2.624672,0,0.185611554496,4700,2018-05-12 16:55:46,11,0,24.927,5274.1403741531,2.624672,0,0.185611554496,0,0,0,326.5, -0.5, 0,0,0,1024,1024,1024,1024,327.4,-90,100,4.095,4.078,4.111,4.087,4.14,4.105,6.987,64.4,11,AutoTakeoff,
38.2001635,-120.038288,5274.1403741531,2.624672,0,0.185611554496,4800,2018-05-12 16:55:46,11,0,24.927,5274.1403741531,2.624672,0,0.185611554496,0,0,0,326.4, -0.5, 0,0,0,1024,1024,1024,1024,327.4,-90,100,4.095,4.078,4.111,4.087,4.14,4.105,6.987,64.4,11,AutoTakeoff,
38.2001635,-120.0382879,5274.4684581531,2.952756,0,0.20457349736,4900,2018-05-12 16:55:47,11,0,24.927,5274.4684581531,2.952756,0,0.20457349736,0,0,-0.223694,326.2, -0.6, 0,0,0,1024,1024,1024,1024,327.4,-90,100,4.095,4.078,4.111,4.087,4.14,4.105,6.987,64.4,14,Waypoint,
38.2001635,-120.0382878,5274.4684581531,2.952756,0,0.225595151576,5100,2018-05-12 16:55:47,11,0,24.927,5274.4684581531,2.952756,0,0.225595151576,0,0,0,326, -0.6, -0.1,0,0,1024,1024,1024,1024,327.4,-90,100,4.095,4.078,4.111,4.087,4.14,4.105,6.987,64.4,14,Waypoint,
38.2001635,-120.0382878,5274.7965421531,3.28084,0,0.225595151576,5200,2018-05-12 16:55:47,11,0,24.927,5274.7965421531,3.28084,0,0.225595151576,0,0,0,325.7, -0.4, -0.2,0,0,1024,1024,1024,1024,327.3,-89.9,100,4.095,4.078,4.111,4.087,4.14,4.105,6.987,64.4,14,Waypoint,
38.2001636,-120.0382877,5274.7965421531,3.28084,0,0.2286089312,5300,2018-05-12 16:55:47,11,0,24.927,5274.7965421531,3.28084,0,0.2286089312,0,0,0,325.5, -0.3, -0.3,0,0,1024,1024,1024,1024,327.3,-89.9,100,4.095,4.078,4.111,4.087,4.14,4.105,6.987,64.4,14,Waypoint,
38.2001636,-120.0382875,5275.1246261531,3.608924,0,0.280300861988,5400,2018-05-12 16:55:47,11,0,24.927,5275.1246261531,3.608924,0,0.280300861988,0,0,0,325.4, -0.4, -0.3,0,0,1024,1024,1024,1024,327.3,-90,100,4.095,4.078,4.111,4.087,4.14,4.105,6.987,64.4,14,Waypoint,
38.2001635,-120.0382874,5275.1246261531,3.608924,0,0.321723763576,5500,2018-05-12 16:55:47,11,0,24.927,5275.1246261531,3.608924,0,0.321723763576,0,0,0,325.3, -0.5, -0.2,0,0,1024,1024,1024,1024,327.2,-90,100,4.095,4.078,4.111,4.087,4.14,4.105,6.987,64.4,14,Waypoint,
38.2001635,-120.0382874,5275.1246261531,3.608924,0,0.321723763576,5600,2018-05-12 16:55:47,11,0,24.927,5275.1246261531,3.608924,0,0.321723763576,0,0,-0.223694,325.4, -0.5, 0,0,0,1024,1024,1024,1024,327.2,-90,100,4.095,4.078,4.111,4.087,4.14,4.105,6.987,64.4,14,Waypoint,
38.2001635,-120.0382873,5275.4527101531,3.937008,0,0.34751969616,5700,2018-05-12 16:55:47,13,0,24.927,5275.4527101531,3.937008,0,0.34751969616,0,0,-0.223694,325.4, -0.4, 0,0,0,1024,1024,1024,1024,327.1,-89.9,100,4.095,4.078,4.111,4.087,4.14,4.105,6.987,64.4,14,Waypoint,
38.2001635,-120.0382872,5275.7807941531,4.265092,0,0.37373360776,5800,2018-05-12 16:55:47,13,0,24.927,5275.7807941531,4.265092,0,0.37373360776,0,0,-0.223694,325.4, -0.4, -0.1,0,0,1024,1024,1024,1024,327.1,-89.9,100,4.095,4.078,4.111,4.087,4.14,4.105,6.987,64.4,14,Waypoint,
38.2001635,-120.0382871,5276.1088781531,4.593176,0,0.40028544588,5900,2018-05-12 16:55:48,13,0,24.927,5276.1088781531,4.593176,0,0.40028544588,0,0,-0.223694,325.4, -0.5, -0.2,0,0,1024,1024,1024,1024,327.1,-90,100,4.095,4.078,4.111,4.087,4.14,4.105,6.987,64.4,14,Waypoint,
38.2001635,-120.0382871,5276.4369621531,4.92126,0,0.40028544588,6000,2018-05-12 16:55:48,13,0,23.835,5276.4369621531,4.92126,0,0.40028544588,0,0,-0.223694,325.4, -0.5, -0.3,0,0,1024,1024,1024,1024,327.1,-90,100,3.938,3.943,3.972,3.966,4.002,3.972,16.162,64.4,14,Waypoint,
38.2001635,-120.0382871,5277.0931301531,5.577428,0,0.40028544588,6100,2018-05-12 16:55:48,13,0,23.835,5277.0931301531,5.577428,0,0.40028544588,0,0,-0.447388,325.4, -0.5, -0.2,0,0,1024,1024,1024,1024,327,-90,100,3.938,3.943,3.972,3.966,4.002,3.972,16.162,64.4,14,Waypoint,
38.2001636,-120.038287,5277.4212141531,5.905512,0,0.41606300544,6200,2018-05-12 16:55:48,13,0,23.835,5277.4212141531,5.905512,0,0.41606300544,0,0,-0.447388,325.4, -0.5, -0.2,0,0,1024,1024,1024,1024,327,-90,100,3.938,3.943,3.972,3.966,4.002,3.972,16.162,64.4,14,Waypoint,
38.2001636,-120.038287,5278.7335501531,7.217848,0,0.41606300544,6300,2018-05-12 16:55:48,13,0,23.835,5278.7335501531,7.217848,0,0.41606300544,0,0,-0.447388,325.5, -0.6, -0.4,0,0,1024,1024,1024,1024,327,-90,100,3.938,3.943,3.972,3.966,4.002,3.972,16.162,64.4,14,Waypoint,
38.2001636,-120.0382869,5279.7178021531,8.2021,0,0.44378938428,6400,2018-05-12 16:55:48,12,0,23.835,5279.7178021531,8.2021,0,0.44378938428,0,0,-0.447388,325.5, -0.5, -0.2,0,0,1024,1024,1024,1024,327,-90,100,3.938,3.943,3.972,3.966,4.002,3.972,16.162,64.4,14,Waypoint,
38.2001637,-120.0382868,5280.3739701531,8.858268,0,0.4645177314,6500,2018-05-12 16:55:48,12,0,23.835,5280.3739701531,8.858268,0,0.4645177314,0,0,-0.671082,325.6, -0.4, -0.2,0,0,1024,1024,1024,1024,326.9,-89.9,100,3.938,3.943,3.972,3.966,4.002,3.972,16.162,64.4,14,Waypoint,
38.2001637,-120.0382867,5281.3582221531,9.84252,0,0.49285434648,6600,2018-05-12 16:55:48,11,0,23.835,5281.3582221531,9.84252,0,0.49285434648,0,0,-0.671082,325.6, -0.4, -0.3,0,0,1024,1024,1024,1024,326.9,-89.9,100,3.938,3.943,3.972,3.966,4.002,3.972,16.162,64.4,14,Waypoint,
38.2001637,-120.0382867,5282.3424741531,10.826772,0,0.49285434648,6700,2018-05-12 16:55:48,11,0,23.835,5282.3424741531,10.826772,0,0.49285434648,0,0,-0.671082,325.7, -0.6, -0.4,0,0,1024,1024,1024,1024,326.9,-90,100,3.938,3.943,3.972,3.966,4.002,3.972,16.162,64.4,14,Waypoint,
38.2001638,-120.0382866,5283.6548101531,12.139108,0,0.51738190632,6810,2018-05-12 16:55:48,12,0,23.835,5283.6548101531,12.139108,0,0.51738190632,0,0,-0.671082,325.7, -0.7, -0.5,0,0,1024,1024,1024,1024,326.9,-90,100,3.938,3.943,3.972,3.966,4.002,3.972,16.162,64.4,14,Waypoint,
38.2001639,-120.0382863,5284.6390621531,13.12336,0,0.60210959932,6900,2018-05-12 16:55:49,12,0,23.835,5284.6390621531,13.12336,0,0.60210959932,0,0,-0.671082,325.7, -0.6, -0.6,0,0,1024,1024,1024,1024,326.9,-90,100,3.938,3.943,3.972,3.966,4.002,3.972,16.162,64.4,14,Waypoint,
38.200164,-120.0382861,5285.9513981531,14.435696,0,0.66046261956,7000,2018-05-12 16:55:49,12,0,23.835,5285.9513981531,14.435696,0,0.66046261956,0,0,-0.671082,325.6, -0.6, -1,0,0,1024,1024,1024,1024,326.8,-90,100,3.94,3.905,3.975,3.9,3.951,3.952,16.162,64.4,14,Waypoint,
38.2001641,-120.0382859,5286.9356501531,15.419948,0,0.72050199156,7100,2018-05-12 16:55:49,12,0,23.835,5286.9356501531,15.419948,0,0.72050199156,0,0,-0.671082,325.6, -0.7, -1.4,0,0,1024,1024,1024,1024,326.8,-90,100,3.94,3.905,3.975,3.9,3.951,3.952,16.162,64.4,14,Waypoint,
38.2001642,-120.0382857,5287.9199021531,16.4042,0,0.7818405762,7200,2018-05-12 16:55:49,12,0,23.835,5287.9199021531,16.4042,0,0.7818405762,0,0,-0.671082,325.6, -0.8, -1.4,0,0,1024,1024,1024,1024,326.8,-90,100,3.94,3.905,3.975,3.9,3.951,3.952,16.162,64.4,14,Waypoint,
38.2001644,-120.0382853,5290.2164901531,18.700788,0,0.90735567208,7410,2018-05-12 16:55:49,12,0,23.835,5290.2164901531,18.700788,0,0.90735567208,0,0,-0.671082,325.6, -0.8, -2,0,0,1024,1024,1024,1024,326.8,-90,100,3.94,3.905,3.975,3.9,3.951,3.952,16.162,64.4,14,Waypoint,
38.2001643,-120.0382852,5291.5288261531,20.013124,0,0.9290354628,7600,2018-05-12 16:55:49,12,0,23.835,5291.5288261531,20.013124,0,0.9290354628,0,0,-0.671082,325.6, -1, -2.2,0,0,1024,1024,1024,1024,326.7,-90,100,3.94,3.905,3.975,3.9,3.951,3.952,16.162,64.4,14,Waypoint,
38.2001643,-120.0382851,5292.5130781531,20.997376,0,0.95736223536,7700,2018-05-12 16:55:49,12,0,23.835,5292.5130781531,20.997376,0,0.95736223536,0,0,-0.671082,325.6, -1.5, -1.9,0,0,1024,1024,1024,1024,326.7,-90,100,3.94,3.905,3.975,3.9,3.951,3.952,16.162,64.4,14,Waypoint,
38.2001642,-120.0382851,5293.8254141531,22.309712,0,0.95248034544,7800,2018-05-12 16:55:49,12,0,23.835,5293.8254141531,22.309712,0,0.95736223536,0,0,-0.671082,325.7, -1.7, -1.5,0,0,1024,1024,1024,1024,326.7,-90,100,3.94,3.905,3.975,3.9,3.951,3.952,16.162,64.4,14,Waypoint,
38.2001641,-120.0382851,5294.8096661531,23.293964,0.223694,0.94898297,7900,2018-05-12 16:55:50,13,0,23.835,5294.8096661531,23.293964,0.223694,0.95736223536,0,0,-0.671082,325.7, -1.9, -1,0,0,1024,1024,1024,1024,326.7,-90,100,3.94,3.905,3.975,3.9,3.951,3.952,16.162,64.4,14,Waypoint,
38.200164,-120.0382852,5295.7939181531,24.278216,0.223694,0.918225095,8000,2018-05-12 16:55:50,13,0,23.09,5295.7939181531,24.278216,0.223694,0.95736223536,0,0,-0.671082,325.7, -1.9, -0.4,0,0,1024,1024,1024,1024,326.7,-89.9,98,3.815,3.807,3.83,3.825,3.851,3.831,22.939,64.4,14,Waypoint,
38.2001639,-120.0382854,5297.1062541531,25.590552,0.223694,0.86015750784,8100,2018-05-12 16:55:50,12,0,23.09,5297.1062541531,25.590552,0.223694,0.95736223536,0,0,-0.671082,325.6, -1.7, 0,0,0,1024,1024,1024,1024,326.7,-89.9,98,3.815,3.807,3.83,3.825,3.851,3.831,22.939,64.4,14,Waypoint,
38.2001638,-120.0382855,5298.0905061531,26.574804,0.223694,0.8322834912,8200,2018-05-12 16:55:50,12,0,23.09,5298.0905061531,26.574804,0.223694,0.95736223536,0,0,-0.671082,325.6, -1.3, 0.4,0,0,1024,1024,1024,1024,326.7,-89.9,98,3.815,3.807,3.83,3.825,3.851,3.831,22.939,64.4,14,Waypoint,
38.2001637,-120.0382857,5299.0747581531,27.559056,0.223694,0.77757220336,8300,2018-05-12 16:55:50,13,0,23.09,5299.0747581531,27.559056,0.223694,0.95736223536,0,0,-0.671082,325.5, -1, 0.6,0,0,1024,1024,1024,1024,326.6,-89.9,98,3.815,3.807,3.83,3.825,3.851,3.831,22.939,64.4,14,Waypoint,
38.2001637,-120.0382859,5300.0590101531,28.543308,0.223694,0.72050199156,8400,2018-05-12 16:55:50,13,0,23.09,5300.0590101531,28.543308,0.223694,0.95736223536,0,0,-0.671082,325.5, -0.7, 0.7,0,0,1024,1024,1024,1024,326.6,-89.9,98,3.815,3.807,3.83,3.825,3.851,3.831,22.939,64.4,14,Waypoint,
38.2001637,-120.038286,5301.0432621531,29.52756,0.223694,0.69198164944,8500,2018-05-12 16:55:50,13,0,23.09,5301.0432621531,29.52756,0.223694,0.95736223536,0,0,-0.671082,325.4, -0.5, 0.7,0,0,1024,1024,1024,1024,326.6,-89.9,98,3.815,3.807,3.83,3.825,3.851,3.831,22.939,64.4,14,Waypoint,
38.2001636,-120.0382862,5302.3555981531,30.839896,0.223694,0.6402067134,8600,2018-05-12 16:55:50,13,0,23.09,5302.3555981531,30.839896,0.223694,0.95736223536,0,0,-0.671082,325.4, -0.3, 0.9,0,0,1024,1024,1024,1024,326.6,-89.9,98,3.815,3.807,3.83,3.825,3.851,3.831,22.939,64.4,14,Waypoint,
38.2001635,-120.0382864,5303.3398501531,31.824148,0.223694,0.5917158982,8700,2018-05-12 16:55:50,12,0,23.09,5303.3398501531,31.824148,0.223694,0.95736223536,0,0,-0.671082,325.4, -0.4, 1.1,0,0,1024,1024,1024,1024,326.6,-89.9,98,3.815,3.807,3.83,3.825,3.851,3.831,22.939,64.4,14,Waypoint,
38.2001634,-120.0382866,5304.3241021531,32.8084,0.223694,0.54738518812,8800,2018-05-12 16:55:50,12,0,23.09,5304.3241021531,32.8084,0.223694,0.95736223536,0,0,-0.671082,325.4, -0.5, 1.1,0,0,1024,1024,1024,1024,326.6,-89.9,98,3.815,3.807,3.83,3.825,3.851,3.831,22.939,64.4,14,Waypoint,
38.2001634,-120.0382868,5306.2926061531,34.776904,0.223694,0.49369096068,8900,2018-05-12 16:55:51,12,0,23.09,5306.2926061531,34.776904,0.223694,0.95736223536,0,0,-0.671082,325.5, -0.7, 0.9,0,0,1024,1024,1024,1024,326.6,-89.9,98,3.815,3.807,3.83,3.825,3.851,3.831,22.939,64.4,14,Waypoint,
38.2001634,-120.038287,5307.2768581531,35.761156,0.223694,0.44091536844,9000,2018-05-12 16:55:51,13,0,23.125,5307.2768581531,35.761156,0.223694,0.95736223536,0,0,-0.671082,325.6, -0.5, 0.9,0,0,1024,1024,1024,1024,326.5,-89.9,98,3.857,3.855,3.869,3.868,3.887,3.876,21.537,64.4,14,Waypoint,
38.2001633,-120.0382872,5308.5891941531,37.073492,0.223694,0.40779856948,9100,2018-05-12 16:55:51,13,0,23.125,5308.5891941531,37.073492,0.223694,0.95736223536,0,0,-0.671082,325.6, -0.4, 1,0,0,1024,1024,1024,1024,326.5,-89.9,98,3.857,3.855,3.869,3.868,3.887,3.876,21.537,64.4,14,Waypoint,
38.2001633,-120.0382874,5309.5734461531,38.057744,0.223694,0.36073491968,9200,2018-05-12 16:55:51,14,0,23.125,5309.5734461531,38.057744,0.223694,0.95736223536,0,0,-0.671082,325.6, -0.4, 1.2,0,0,1024,1024,1024,1024,326.5,-89.9,98,3.857,3.855,3.869,3.868,3.887,3.876,21.537,64.4,14,Waypoint,
38.2001632,-120.0382875,5310.5576981531,39.041996,0.223694,0.36306431608,9300,2018-05-12 16:55:51,14,0,23.125,5310.5576981531,39.041996,0.223694,0.95736223536,0,0,-0.671082,325.5, -0.5, 1.3,0,0,1024,1024,1024,1024,326.5,-89.9,98,3.857,3.855,3.869,3.868,3.887,3.876,21.537,64.4,14,Waypoint,
38.2001632,-120.0382877,5311.5419501531,40.026248,0,0.324820220368,9500,2018-05-12 16:55:51,14,0,23.125,5311.5419501531,40.026248,0.223694,0.95736223536,0,0,-0.671082,325.5, -0.4, 1.5,0,0,1024,1024,1024,1024,326.5,-89.9,98,3.857,3.855,3.869,3.868,3.887,3.876,21.537,64.4,14,Waypoint,
38.2001631,-120.038288,5313.5104541531,41.994752,0,0.313603028408,9600,2018-05-12 16:55:51,13,0,23.125,5313.5104541531,41.994752,0.223694,0.95736223536,0,0,-0.671082,325.5, -0.1, 1.3,0,0,1024,1024,1024,1024,326.5,-89.9,98,3.857,3.855,3.869,3.868,3.887,3.876,21.537,64.4,14,Waypoint,
38.2001631,-120.0382881,5314.4947061531,42.979004,0,0.304290035984,9800,2018-05-12 16:55:51,13,0,23.125,5314.4947061531,42.979004,0.223694,0.95736223536,0,0,-0.671082,325.4, -0.1, 1.2,0,0,1024,1024,1024,1024,326.5,-89.9,98,3.857,3.855,3.869,3.868,3.887,3.876,21.537,64.4,14,Waypoint,
38.2001631,-120.0382882,5315.4789581531,43.963256,0,0.297459327104,9900,2018-05-12 16:55:52,14,0,23.125,5315.4789581531,43.963256,0.223694,0.95736223536,0,0,-0.671082,325.4, -0.2, 1.1,0,0,1024,1024,1024,1024,326.5,-89.9,98,3.857,3.855,3.869,3.868,3.887,3.876,21.537,64.4,14,Waypoint,
38.2001631,-120.0382882,5316.4632101531,44.947508,0,0.297459327104,10000,2018-05-12 16:55:52,14,0,23.287,5316.4632101531,44.947508,0.223694,0.95736223536,0,0,-0.671082,325.3, -0.2, 1.1,0,0,1024,1024,1024,1024,326.5,-89.9,98,3.869,3.866,3.869,3.887,3.904,3.888,18.669,64.4,14,Waypoint,
38.2001631,-120.0382883,5317.4474621531,45.93176,0,0.293284458204,10100,2018-05-12 16:55:52,13,0,23.287,5317.4474621531,45.93176,0.223694,0.95736223536,0,0,-0.671082,325.4, -0.2, 1.1,0,0,1024,1024,1024,1024,326.5,-89.9,98,3.869,3.866,3.869,3.887,3.904,3.888,18.669,64.4,14,Waypoint,
38.200163,-120.0382884,5318.4317141531,46.916012,0,0.3283628714,10200,2018-05-12 16:55:52,13,0,23.287,5318.4317141531,46.916012,0.223694,0.95736223536,0,0,-0.671082,325.4, -0.2, 1.1,0,0,1024,1024,1024,1024,326.5,-89.9,98,3.869,3.866,3.869,3.887,3.904,3.888,18.669,64.4,14,Waypoint,
38.200163,-120.0382884,5319.4159661531,47.900264,0,0.3283628714,10300,2018-05-12 16:55:52,13,0,23.287,5319.4159661531,47.900264,0.223694,0.95736223536,0,0,-0.671082,325.4, -0.3, 1,0,0,1024,1024,1024,1024,326.5,-89.9,98,3.869,3.866,3.869,3.887,3.904,3.888,18.669,64.4,14,Waypoint,
38.200163,-120.0382884,5320.4002181531,48.884516,0,0.3283628714,10400,2018-05-12 16:55:52,13,0,23.287,5320.4002181531,48.884516,0.223694,0.95736223536,0,0,-0.671082,325.4, -0.5, 0.9,0,0,1024,1024,1024,1024,326.5,-90,98,3.869,3.866,3.869,3.887,3.904,3.888,18.669,64.4,14,Waypoint,
38.2001629,-120.0382884,5321.3844701531,49.868768,0,0.36484909304,10500,2018-05-12 16:55:52,14,0,23.287,5321.3844701531,49.868768,0.223694,0.95736223536,0,0,-0.671082,325.4, -0.6, 0.9,0,0,1024,1024,1024,1024,326.5,-90,98,3.869,3.866,3.869,3.887,3.904,3.888,18.669,64.4,14,Waypoint,
38.2001629,-120.0382885,5322.3687221531,50.85302,0,0.36597442116,10600,2018-05-12 16:55:52,14,0,23.287,5322.3687221531,50.85302,0.223694,0.95736223536,0,0,-0.671082,325.4, -0.7, 0.9,0,0,1024,1024,1024,1024,326.5,-90,98,3.869,3.866,3.869,3.887,3.904,3.888,18.669,64.4,14,Waypoint,
38.2001629,-120.0382884,5323.3529741531,51.837272,0,0.36484909304,10700,2018-05-12 16:55:52,15,0,23.287,5323.3529741531,51.837272,0.223694,0.95736223536,0,0,-0.671082,325.4, -0.8, 1,0,0,1024,1024,1024,1024,326.5,-89.9,98,3.869,3.866,3.869,3.887,3.904,3.888,18.669,64.4,14,Waypoint,
38.2001629,-120.0382884,5324.3372261531,52.821524,0,0.36484909304,10800,2018-05-12 16:55:52,15,0,23.287,5324.3372261531,52.821524,0.223694,0.95736223536,0,0,-0.671082,325.3, -0.7, 1.1,0,0,1024,1024,1024,1024,326.5,-89.9,98,3.869,3.866,3.869,3.887,3.904,3.888,18.669,64.4,14,Waypoint,
38.2001629,-120.0382884,5326.3057301531,54.790028,0,0.36484909304,11000,2018-05-12 16:55:53,15,0,23.285,5326.3057301531,54.790028,0.223694,0.95736223536,0,0,-0.671082,325.3, -0.5, 1.1,0,0,1024,1024,1024,1024,326.5,-89.9,98,3.874,3.858,3.879,3.878,3.904,3.879,18.61,64.4,14,Waypoint,
38.200163,-120.0382882,5329.5865701531,58.070868,0,0.333333344,11200,2018-05-12 16:55:53,15,0,23.285,5329.5865701531,58.070868,0.223694,0.95736223536,0,0,-0.671082,325.6, -0.7, 0.5,0,0,1024,1024,1024,1024,326.5,-90,98,3.874,3.858,3.879,3.878,3.904,3.879,18.61,64.4,14,Waypoint,
38.200163,-120.0382881,5330.2427381531,58.727036,0,0.33944226808,11300,2018-05-12 16:55:53,15,0,23.285,5330.2427381531,58.727036,0.223694,0.95736223536,0,0,-0.671082,325.7, -0.9, 0.3,0,0,1024,1024,1024,1024,326.5,-90,98,3.874,3.858,3.879,3.878,3.904,3.879,18.61,64.4,14,Waypoint,
38.2001631,-120.038288,5331.2269901531,59.711288,0,0.313603028408,11400,2018-05-12 16:55:53,15,0,23.285,5331.2269901531,59.711288,0.223694,0.95736223536,0,0,-0.671082,325.8, -0.9, 0.1,0,0,1024,1024,1024,1024,326.5,-90,98,3.874,3.858,3.879,3.878,3.904,3.879,18.61,64.4,14,Waypoint,
38.2001631,-120.0382879,5332.2112421531,60.69554,0,0.32518537786,11500,2018-05-12 16:55:53,15,0,23.285,5332.2112421531,60.69554,0.223694,0.95736223536,0,0,-0.671082,325.7, -0.9, 0,0,0,1024,1024,1024,1024,326.5,-90,98,3.874,3.858,3.879,3.878,3.904,3.879,18.61,64.4,14,Waypoint,
38.2001631,-120.0382878,5333.1954941531,61.679792,0,0.33880578512,11600,2018-05-12 16:55:53,15,0,23.285,5333.1954941531,61.679792,0.223694,0.95736223536,0,0,-0.671082,325.7, -1, -0.1,0,0,1024,1024,1024,1024,326.5,-90,98,3.874,3.858,3.879,3.878,3.904,3.879,18.61,64.4,14,Waypoint,
38.2001631,-120.0382877,5334.1797461531,62.664044,0,0.35422573312,11710,2018-05-12 16:55:53,15,0,23.285,5334.1797461531,62.664044,0.223694,0.95736223536,0,0,-0.671082,325.6, -1, -0.3,0,0,1024,1024,1024,1024,326.5,-89.9,98,3.874,3.858,3.879,3.878,3.904,3.879,18.61,64.4,14,Waypoint,
38.2001631,-120.0382877,5334.1797461531,62.664044,0,0.35422573312,11800,2018-05-12 16:55:53,15,0,23.285,5334.1797461531,62.664044,0.223694,0.95736223536,0,0,-0.671082,325.6, -1, -0.3,0,0,1024,1024,1024,1024,326.5,-89.9,98,3.874,3.858,3.879,3.878,3.904,3.879,18.61,64.4,14,Waypoint,
38.2001632,-120.0382875,5336.1482501531,64.632548,0,0.36306431608,11900,2018-05-12 16:55:54,15,0,23.285,5336.1482501531,64.632548,0.223694,0.95736223536,0,0,-0.671082,325.5, -0.9, -0.3,0,0,1024,1024,1024,1024,326.5,-90,98,3.874,3.858,3.879,3.878,3.904,3.879,18.61,64.4,14,Waypoint,
38.2001632,-120.0382874,5337.1325021531,65.6168,0,0.38396982856,12000,2018-05-12 16:55:54,15,0,23.242,5337.1325021531,65.6168,0.223694,0.95736223536,0,0,-0.671082,325.5, -0.8, -0.3,0,0,1024,1024,1024,1024,326.5,-89.9,98,3.872,3.86,3.868,3.866,3.895,3.878,18.882,64.4,14,Waypoint,
38.2001633,-120.0382872,5338.1167541531,66.601052,0,0.40779856948,12200,2018-05-12 16:55:54,15,0,23.242,5338.1167541531,66.601052,0.223694,0.95736223536,0,0,-0.671082,325.4, -0.7, -0.3,0,0,1024,1024,1024,1024,326.5,-89.9,98,3.872,3.86,3.868,3.866,3.895,3.878,18.882,64.4,14,Waypoint,
38.2001633,-120.0382871,5339.1010061531,67.585304,0,0.43226379336,12300,2018-05-12 16:55:54,15,0,23.242,5339.1010061531,67.585304,0.223694,0.95736223536,0,0,-0.671082,325.3, -0.8, -0.4,0,0,1024,1024,1024,1024,326.5,-90,98,3.872,3.86,3.868,3.866,3.895,3.878,18.882,64.4,14,Waypoint,
38.2001633,-120.0382871,5340.0852581531,68.569556,0,0.43226379336,12400,2018-05-12 16:55:54,15,0,23.242,5340.0852581531,68.569556,0.223694,0.95736223536,0,0,-0.671082,325.4, -0.9, -0.3,0,0,1024,1024,1024,1024,326.5,-90,98,3.872,3.86,3.868,3.866,3.895,3.878,18.882,64.4,14,Waypoint,
38.2001634,-120.0382869,5341.0695101531,69.553808,0,0.46716865012,12500,2018-05-12 16:55:54,14,0,23.242,5341.0695101531,69.553808,0.223694,0.95736223536,0,0,-0.671082,325.5, -1.1, -0.2,0,0,1024,1024,1024,1024,326.5,-90,98,3.872,3.86,3.868,3.866,3.895,3.878,18.882,64.4,14,Waypoint,
38.2001634,-120.0382868,5342.0537621531,70.53806,0,0.49369096068,12600,2018-05-12 16:55:54,14,0,23.242,5342.0537621531,70.53806,0.223694,0.95736223536,0,0,-0.671082,325.6, -1.1, -0.3,0,0,1024,1024,1024,1024,326.5,-90,98,3.872,3.86,3.868,3.866,3.895,3.878,18.882,64.4,14,Waypoint,
38.2001634,-120.0382866,5343.0380141531,71.522312,0,0.54738518812,12700,2018-05-12 16:55:54,15,0,23.242,5343.0380141531,71.522312,0.223694,0.95736223536,0,0,-0.671082,325.7, -1.2, -0.5,0,0,1024,1024,1024,1024,326.5,-90,98,3.872,3.86,3.868,3.866,3.895,3.878,18.882,64.4,14,Waypoint,
38.2001635,-120.0382866,5344.0222661531,72.506564,0,0.53633203816,12800,2018-05-12 16:55:54,15,0,23.242,5344.0222661531,72.506564,0.223694,0.95736223536,0,0,-0.671082,325.8, -1.3, -0.6,0,0,1024,1024,1024,1024,326.5,-90,98,3.872,3.86,3.868,3.866,3.895,3.878,18.882,64.4,14,Waypoint,
38.2001635,-120.0382864,5345.9907701531,74.475068,0,0.5917158982,13000,2018-05-12 16:55:55,15,0,23.23,5345.9907701531,74.475068,0.223694,0.95736223536,0,0,-0.671082,325.8, -1.2, -0.7,0,0,1024,1024,1024,1024,326.5,-90,98,3.868,3.853,3.859,3.874,3.884,3.883,18.667,64.4,14,Waypoint,
38.2001636,-120.0382863,5346.9750221531,75.45932,0,0.61197836604,13100,2018-05-12 16:55:55,15,0,23.23,5346.9750221531,75.45932,0.223694,0.95736223536,0,0,-0.671082,325.7, -1.1, -0.7,0,0,1024,1024,1024,1024,326.5,-90,98,3.868,3.853,3.859,3.874,3.884,3.883,18.667,64.4,14,Waypoint,
38.2001636,-120.0382862,5347.9592741531,76.443572,0,0.6402067134,13200,2018-05-12 16:55:55,15,0,23.23,5347.9592741531,76.443572,0.223694,0.95736223536,0,0,-0.671082,325.6, -1, -0.9,0,0,1024,1024,1024,1024,326.5,-89.9,98,3.868,3.853,3.859,3.874,3.884,3.883,18.667,64.4,14,Waypoint,
38.2001637,-120.0382861,5348.9435261531,77.427824,0,0.66347771152,13300,2018-05-12 16:55:55,15,0,23.23,5348.9435261531,77.427824,0.223694,0.95736223536,0,0,-0.671082,325.5, -1, -0.9,0,0,1024,1024,1024,1024,326.5,-89.9,98,3.868,3.853,3.859,3.874,3.884,3.883,18.667,64.4,14,Waypoint,
38.2001637,-120.038286,5349.5996941531,78.083992,0,0.69198164944,13400,2018-05-12 16:55:55,15,0,23.23,5349.5996941531,78.083992,0.223694,0.95736223536,0,0,-0.671082,325.5, -1, -0.8,0,0,1024,1024,1024,1024,326.5,-89.9,98,3.868,3.853,3.859,3.874,3.884,3.883,18.667,64.4,14,Waypoint,
38.2001637,-120.038286,5350.5839461531,79.068244,0,0.69198164944,13500,2018-05-12 16:55:55,15,0,23.23,5350.5839461531,79.068244,0.223694,0.95736223536,0,0,-0.671082,325.5, -1.1, -0.6,0,0,1024,1024,1024,1024,326.5,-90,98,3.868,3.853,3.859,3.874,3.884,3.883,18.667,64.4,14,Waypoint,
38.2001637,-120.038286,5351.5681981531,80.052496,0,0.69198164944,13600,2018-05-12 16:55:55,15,0,23.23,5351.5681981531,80.052496,0.223694,0.95736223536,0,0,-0.671082,325.5, -1.2, -0.7,0,0,1024,1024,1024,1024,326.5,-90,98,3.868,3.853,3.859,3.874,3.884,3.883,18.667,64.4,14,Waypoint,
38.2001637,-120.038286,5353.5367021531,82.021,0,0.69198164944,13700,2018-05-12 16:55:55,15,0,23.23,5353.5367021531,82.021,0.223694,0.95736223536,0,0,-0.671082,325.5, -1.1, -0.5,0,0,1024,1024,1024,1024,326.5,-89.9,98,3.868,3.853,3.859,3.874,3.884,3.883,18.667,64.4,14,Waypoint,
38.2001637,-120.038286,5354.5209541531,83.005252,0,0.69198164944,13800,2018-05-12 16:55:55,15,0,23.23,5354.5209541531,83.005252,0.223694,0.95736223536,0,0,-0.671082,325.5, -1, -0.5,0,0,1024,1024,1024,1024,326.5,-90,98,3.868,3.853,3.859,3.874,3.884,3.883,18.667,64.4,14,Waypoint,
38.2001637,-120.0382859,5355.5052061531,83.989504,0,0.72050199156,13900,2018-05-12 16:55:56,15,0,23.23,5355.5052061531,83.989504,0.223694,0.95736223536,0,0,-0.671082,325.5, -1.1, -0.5,0,0,1024,1024,1024,1024,326.5,-90,98,3.868,3.853,3.859,3.874,3.884,3.883,18.667,64.4,14,Waypoint,
38.2001638,-120.0382859,5356.4894581531,84.973756,0,0.71772640092,14000,2018-05-12 16:55:56,15,0,23.192,5356.4894581531,84.973756,0.223694,0.95736223536,0,0,-0.671082,325.5, -1.2, -0.4,0,0,1024,1024,1024,1024,326.5,-90,98,3.854,3.852,3.867,3.874,3.889,3.876,18.825,64.4,14,Waypoint,
38.2001638,-120.0382859,5357.4737101531,85.958008,0,0.71772640092,14100,2018-05-12 16:55:56,15,0,23.192,5357.4737101531,85.958008,0.223694,0.95736223536,0,0,-0.671082,325.5, -1.2, -0.3,0,0,1024,1024,1024,1024,326.5,-90,98,3.854,3.852,3.867,3.874,3.889,3.876,18.825,64.4,14,Waypoint,
38.2001638,-120.038286,5358.4579621531,86.94226,0,0.6890912294,14200,2018-05-12 16:55:56,15,0,23.192,5358.4579621531,86.94226,0.223694,0.95736223536,0,0,-0.671082,325.5, -1.1, -0.3,0,0,1024,1024,1024,1024,326.5,-89.9,98,3.854,3.852,3.867,3.874,3.889,3.876,18.825,64.4,14,Waypoint,
38.2001638,-120.038286,5359.4422141531,87.926512,0,0.6890912294,14300,2018-05-12 16:55:56,15,0,23.192,5359.4422141531,87.926512,0.223694,0.95736223536,0,0,-0.671082,325.5, -0.9, -0.3,0,0,1024,1024,1024,1024,326.5,-89.9,98,3.854,3.852,3.867,3.874,3.889,3.876,18.825,64.4,14,Waypoint,
38.2001638,-120.0382861,5360.4264661531,88.910764,0,0.66046261956,14500,2018-05-12 16:55:56,15,0,23.192,5360.4264661531,88.910764,0.223694,0.95736223536,0,0,-0.671082,325.5, -0.7, -0.2,0,0,1024,1024,1024,1024,326.5,-89.9,98,3.854,3.852,3.867,3.874,3.889,3.876,18.825,64.4,14,Waypoint,
38.2001638,-120.0382862,5362.3949701531,90.879268,0,0.63183400972,14610,2018-05-12 16:55:56,14,0,23.192,5362.3949701531,90.879268,0.223694,0.95736223536,0,0,-0.671082,325.7, -0.7, 0.1,0,0,1024,1024,1024,1024,326.5,-89.9,98,3.854,3.852,3.867,3.874,3.889,3.876,18.825,64.4,14,Waypoint,
38.2001638,-120.0382862,5362.3949701531,90.879268,0,0.63183400972,14700,2018-05-12 16:55:56,14,0,23.192,5362.3949701531,90.879268,0.223694,0.95736223536,0,0,-0.671082,325.7, -0.7, 0.1,0,0,1024,1024,1024,1024,326.5,-89.9,98,3.854,3.852,3.867,3.874,3.889,3.876,18.825,64.4,14,Waypoint,
38.2001638,-120.0382862,5363.3792221531,91.86352,0,0.63183400972,14800,2018-05-12 16:55:56,14,0,23.192,5363.3792221531,91.86352,0.223694,0.95736223536,0,0,-0.671082,325.8, -0.9, 0,0,0,1024,1024,1024,1024,326.5,-90,98,3.854,3.852,3.867,3.874,3.889,3.876,18.825,64.4,14,Waypoint,
38.2001638,-120.0382862,5364.3634741531,92.847772,0,0.63183400972,14900,2018-05-12 16:55:57,15,0,23.192,5364.3634741531,92.847772,0.223694,0.95736223536,0,0,-0.671082,325.9, -1.1, -0.1,0,0,1024,1024,1024,1024,326.5,-90,98,3.854,3.852,3.867,3.874,3.889,3.876,18.825,64.4,14,Waypoint,
38.2001638,-120.0382862,5365.3477261531,93.832024,0,0.63183400972,15000,2018-05-12 16:55:57,15,0,23.159,5365.3477261531,93.832024,0.223694,0.95736223536,0,0,-0.671082,325.8, -1.2, -0.3,0,0,1024,1024,1024,1024,326.5,-90,98,3.861,3.846,3.856,3.849,3.877,3.868,18.815,64.4,14,Waypoint,
38.2001638,-120.0382862,5366.3319781531,94.816276,0,0.63183400972,15100,2018-05-12 16:55:57,15,0,23.159,5366.3319781531,94.816276,0.223694,0.95736223536,0,0,-0.671082,325.8, -1.1, -0.3,0,0,1024,1024,1024,1024,326.5,-89.9,98,3.861,3.846,3.856,3.849,3.877,3.868,18.815,64.4,14,Waypoint,
38.2001638,-120.0382863,5367.3162301531,95.800528,0,0.6032152424,15200,2018-05-12 16:55:57,15,0,23.159,5367.3162301531,95.800528,0.223694,0.95736223536,0,0,-0.671082,325.7, -1, -0.2,0,0,1024,1024,1024,1024,326.5,-89.9,98,3.861,3.846,3.856,3.849,3.877,3.868,18.815,64.4,14,Waypoint,
38.2001638,-120.0382863,5368.3004821531,96.78478,0,0.6032152424,15300,2018-05-12 16:55:57,15,0,23.159,5368.3004821531,96.78478,0.223694,0.95736223536,0,0,-0.671082,325.5, -0.9, -0.1,0,0,1024,1024,1024,1024,326.5,-89.9,98,3.861,3.846,3.856,3.849,3.877,3.868,18.815,64.4,14,Waypoint,
38.2001638,-120.0382864,5369.2847341531,97.769032,0,0.57459647508,15400,2018-05-12 16:55:57,15,0,23.159,5369.2847341531,97.769032,0.223694,0.95736223536,0,0,-0.671082,325.4, -0.9, -0.2,0,0,1024,1024,1024,1024,326.5,-89.9,98,3.861,3.846,3.856,3.849,3.877,3.868,18.815,64.4,14,Waypoint,
38.2001638,-120.0382865,5370.2689861531,98.753284,0,0.54598755028,15500,2018-05-12 16:55:57,15,0,23.159,5370.2689861531,98.753284,0.223694,0.95736223536,0,0,-0.671082,325.3, -1, -0.1,0,0,1024,1024,1024,1024,326.5,-90,98,3.861,3.846,3.856,3.849,3.877,3.868,18.815,64.4,14,Waypoint,
38.2001638,-120.0382865,5371.2532381531,99.737536,0,0.54598755028,15600,2018-05-12 16:55:57,15,0,23.159,5371.2532381531,99.737536,0.223694,0.95736223536,0,0,-0.671082,325.2, -0.9, 0,0,0,1024,1024,1024,1024,326.5,-89.9,98,3.861,3.846,3.856,3.849,3.877,3.868,18.815,64.4,14,Waypoint,
38.2001639,-120.0382866,5372.2374901531,100.721788,0,0.5160925362,15700,2018-05-12 16:55:57,15,0,23.159,5372.2374901531,100.721788,0.223694,0.95736223536,0,0,-0.671082,325.2, -0.9, 0,0,0,1024,1024,1024,1024,326.5,-89.9,98,3.861,3.846,3.856,3.849,3.877,3.868,18.815,64.4,14,Waypoint,
38.2001638,-120.0382867,5373.2217421531,101.70604,0,0.48878610488,15800,2018-05-12 16:55:57,15,0,23.159,5373.2217421531,101.70604,0.223694,0.95736223536,0,0,-0.671082,325.4, -0.8, 0,0,0,1024,1024,1024,1024,326.5,-89.9,98,3.861,3.846,3.856,3.849,3.877,3.868,18.815,64.4,14,Waypoint,
38.2001639,-120.0382867,5374.2059941531,102.690292,0,0.48742127544,15900,2018-05-12 16:55:58,15,0,23.159,5374.2059941531,102.690292,0.223694,0.95736223536,0,0,-0.671082,325.5, -0.7, 0,0,0,1024,1024,1024,1024,326.5,-89.9,98,3.861,3.846,3.856,3.849,3.877,3.868,18.815,64.4,14,Waypoint,
38.2001639,-120.0382867,5376.1744981531,104.658796,0,0.48742127544,16000,2018-05-12 16:55:58,14,0,23.106,5376.1744981531,104.658796,0.223694,0.95736223536,0,0,-0.671082,325.8, -0.5, -0.2,0,0,1024,1024,1024,1024,326.5,-89.9,98,3.841,3.836,3.857,3.847,3.875,3.85,19.085,66.2,14,Waypoint,
38.2001639,-120.0382867,5377.1587501531,105.643048,0,0.48742127544,16100,2018-05-12 16:55:58,14,0,23.106,5377.1587501531,105.643048,0.223694,0.95736223536,0,0,-0.671082,325.8, -0.5, -0.3,0,0,1024,1024,1024,1024,326.5,-89.9,98,3.841,3.836,3.857,3.847,3.875,3.85,19.085,66.2,14,Waypoint,
38.2001639,-120.0382867,5378.1430021531,106.6273,0,0.48742127544,16300,2018-05-12 16:55:58,15,0,23.106,5378.1430021531,106.6273,0.223694,0.95736223536,0,0,-0.671082,325.9, -0.4, -0.4,0,0,1024,1024,1024,1024,326.5,-89.9,98,3.841,3.836,3.857,3.847,3.875,3.85,19.085,66.2,14,Waypoint,
38.2001639,-120.0382867,5380.1115061531,108.595804,0,0.48742127544,16400,2018-05-12 16:55:58,16,0,23.106,5380.1115061531,108.595804,0.223694,0.95736223536,0,0,-0.671082,325.7, -1, -0.7,0,0,1024,1024,1024,1024,326.5,-90,98,3.841,3.836,3.857,3.847,3.875,3.85,19.085,66.2,14,Waypoint,
38.2001639,-120.0382868,5381.0957581531,109.580056,0,0.45875001468,16500,2018-05-12 16:55:58,16,0,23.106,5381.0957581531,109.580056,0.223694,0.95736223536,0,0,-0.671082,325.6, -1.1, -0.7,0,0,1024,1024,1024,1024,326.5,-90,98,3.841,3.836,3.857,3.847,3.875,3.85,19.085,66.2,14,Waypoint,
38.2001639,-120.0382868,5382.0800101531,110.564308,0,0.45875001468,16600,2018-05-12 16:55:58,16,0,23.106,5382.0800101531,110.564308,0.223694,0.95736223536,0,0,-0.671082,325.5, -1.1, -0.7,0,0,1024,1024,1024,1024,326.5,-90,98,3.841,3.836,3.857,3.847,3.875,3.85,19.085,66.2,14,Waypoint,
38.2001638,-120.0382868,5383.0642621531,111.54856,0,0.46020014596,16700,2018-05-12 16:55:58,16,0,23.106,5383.0642621531,111.54856,0.223694,0.95736223536,0,0,-0.671082,325.4, -1.2, -0.3,0,0,1024,1024,1024,1024,326.5,-90,98,3.841,3.836,3.857,3.847,3.875,3.85,19.085,66.2,14,Waypoint,
38.2001637,-120.0382869,5385.0327661531,113.517064,0,0.43622376724,16900,2018-05-12 16:55:59,16,0,23.106,5385.0327661531,113.517064,0.223694,0.95736223536,0,0,-0.671082,325.3, -1.3, 0.2,0,0,1024,1024,1024,1024,326.5,-90,98,3.841,3.836,3.857,3.847,3.875,3.85,19.085,66.2,14,Waypoint,
38.2001637,-120.0382869,5386.0170181531,114.501316,0,0.43622376724,17000,2018-05-12 16:55:59,16,0,23.135,5386.0170181531,114.501316,0.223694,0.95736223536,0,0,-0.671082,325.3, -1.3, 0.3,0,0,1024,1024,1024,1024,326.5,-89.9,98,3.841,3.836,3.857,3.847,3.875,3.85,18.829,66.2,14,Waypoint,
38.2001637,-120.038287,5387.0012701531,115.485568,0,0.40798557736,17200,2018-05-12 16:55:59,16,0,23.135,5387.0012701531,115.485568,0.223694,0.95736223536,0,0,-0.671082,325.3, -1.2, 0.3,0,0,1024,1024,1024,1024,326.5,-90,98,3.841,3.836,3.857,3.847,3.875,3.85,18.829,66.2,14,Waypoint,
38.2001636,-120.038287,5387.9855221531,116.46982,0,0.41606300544,17300,2018-05-12 16:55:59,16,0,23.135,5387.9855221531,116.46982,0.223694,0.95736223536,0,0,-0.671082,325.3, -1.2, 0.2,0,0,1024,1024,1024,1024,326.5,-89.9,98,3.841,3.836,3.857,3.847,3.875,3.85,18.829,66.2,14,Waypoint,
38.2001636,-120.038287,5388.9697741531,117.454072,0,0.41606300544,17400,2018-05-12 16:55:59,16,0,23.135,5388.9697741531,117.454072,0.223694,0.95736223536,0,0,-0.671082,325.4, -1.3, 0.1,0,0,1024,1024,1024,1024,326.5,-90,98,3.841,3.836,3.857,3.847,3.875,3.85,18.829,66.2,14,Waypoint,
38.2001636,-120.038287,5389.9540261531,118.438324,0,0.41606300544,17500,2018-05-12 16:55:59,16,0,23.135,5389.9540261531,118.438324,0.223694,0.95736223536,0,0,-0.671082,325.5, -1.4, 0.1,0,0,1024,1024,1024,1024,326.5,-90,98,3.841,3.836,3.857,3.847,3.875,3.85,18.829,66.2,14,Waypoint,
38.2001635,-120.038287,5390.9382781531,119.422576,0,0.42711287456,17600,2018-05-12 16:55:59,16,0,23.135,5390.9382781531,119.422576,0.223694,0.95736223536,0,0,-0.671082,325.6, -1.5, 0,0,0,1024,1024,1024,1024,326.5,-90,98,3.841,3.836,3.857,3.847,3.875,3.85,18.829,66.2,14,Waypoint,
38.2001636,-120.038287,5392.9067821531,121.39108,0,0.41606300544,17800,2018-05-12 16:55:59,16,0,23.135,5392.9067821531,121.39108,0.223694,0.95736223536,0,0,-0.671082,325.5, -1.4, -0.1,0,0,1024,1024,1024,1024,326.5,-89.9,98,3.841,3.836,3.857,3.847,3.875,3.85,18.829,66.2,14,Waypoint,
38.2001635,-120.038287,5395.8595381531,124.343836,0,0.42711287456,18100,2018-05-12 16:56:00,16,0,23.135,5395.8595381531,124.343836,0.223694,0.95736223536,0,0,-0.671082,325.2, -1.2, -0.1,0,0,1024,1024,1024,1024,326.5,-90,98,3.841,3.836,3.857,3.847,3.875,3.85,18.829,66.2,14,Waypoint,
38.2001635,-120.038287,5396.8437901531,125.328088,0,0.42711287456,18200,2018-05-12 16:56:00,16,0,23.135,5396.8437901531,125.328088,0.223694,0.95736223536,0,0,-0.671082,325.1, -1.2, 0,0,0,1024,1024,1024,1024,326.5,-90,98,3.841,3.836,3.857,3.847,3.875,3.85,18.829,66.2,14,Waypoint,
38.2001635,-120.0382869,5397.8280421531,126.31234,0,0.45416340036,18300,2018-05-12 16:56:00,16,0,23.135,5397.8280421531,126.31234,0.223694,0.95736223536,0,0,-0.671082,325.1, -1.3, 0,0,0,1024,1024,1024,1024,326.5,-89.9,98,3.841,3.836,3.857,3.847,3.875,3.85,18.829,66.2,14,Waypoint,
38.2001634,-120.0382869,5399.7965461531,128.280844,0,0.46716865012,18400,2018-05-12 16:56:00,16,0,23.135,5399.7965461531,128.280844,0.223694,0.95736223536,0,0,-0.671082,325.3, -1.3, 0,0,0,1024,1024,1024,1024,326.5,-89.9,98,3.841,3.836,3.857,3.847,3.875,3.85,18.829,66.2,14,Waypoint,
38.2001634,-120.0382869,5401.7650501531,130.249348,0,0.46716865012,18600,2018-05-12 16:56:00,16,0,23.135,5401.7650501531,130.249348,0.223694,0.95736223536,0,0,-0.671082,325.4, -1.4, -0.1,0,0,1024,1024,1024,1024,326.5,-90,98,3.841,3.836,3.857,3.847,3.875,3.85,18.829,66.2,14,Waypoint,
38.2001634,-120.0382869,5402.7493021531,131.2336,0,0.46716865012,18700,2018-05-12 16:56:00,16,0,23.135,5402.7493021531,131.2336,0.223694,0.95736223536,0,0,-0.671082,325.5, -1.4, -0.1,0,0,1024,1024,1024,1024,326.5,-89.9,98,3.841,3.836,3.857,3.847,3.875,3.85,18.829,66.2,14,Waypoint,
38.2001633,-120.0382869,5403.7335541531,132.217852,0,0.48258531728,18800,2018-05-12 16:56:00,16,0,23.135,5403.7335541531,132.217852,0.223694,0.95736223536,0,0,-0.671082,325.6, -1.4, 0,0,0,1024,1024,1024,1024,326.5,-90,98,3.841,3.836,3.857,3.847,3.875,3.85,18.829,66.2,14,Waypoint,
38.2001633,-120.0382869,5404.7178061531,133.202104,0,0.48258531728,19000,2018-05-12 16:56:01,16,0,23.118,5404.7178061531,133.202104,0.223694,0.95736223536,0,0,-0.671082,325.6, -1.5, 0,0,0,1024,1024,1024,1024,326.5,-90,97,3.833,3.825,3.852,3.84,3.874,3.847,19.195,66.2,14,Waypoint,
38.2001633,-120.0382869,5406.6863101531,135.170608,0,0.48258531728,19100,2018-05-12 16:56:01,16,0,23.118,5406.6863101531,135.170608,0.223694,0.95736223536,0,0,-0.671082,325.8, -1.4, 0,0,0,1024,1024,1024,1024,326.5,-90,97,3.833,3.825,3.852,3.84,3.874,3.847,19.195,66.2,14,Waypoint,
38.2001632,-120.0382869,5407.6705621531,136.15486,0,0.50019358556,19200,2018-05-12 16:56:01,16,0,23.118,5407.6705621531,136.15486,0.223694,0.95736223536,0,0,-0.671082,325.9, -1.4, -0.2,0,0,1024,1024,1024,1024,326.5,-89.9,97,3.833,3.825,3.852,3.84,3.874,3.847,19.195,66.2,14,Waypoint,
38.2001632,-120.0382869,5408.6548141531,137.139112,0,0.50019358556,19330,2018-05-12 16:56:01,16,0,23.118,5408.6548141531,137.139112,0.223694,0.95736223536,0,0,-0.671082,326.1, -1.4, -0.2,0,0,1024,1024,1024,1024,326.5,-89.9,97,3.833,3.825,3.852,3.84,3.874,3.847,19.195,66.2,14,Waypoint,
38.2001632,-120.0382869,5408.6548141531,137.139112,0,0.50019358556,19400,2018-05-12 16:56:01,16,0,23.118,5408.6548141531,137.139112,0.223694,0.95736223536,0,0,-0.671082,326.1, -1.4, -0.2,0,0,1024,1024,1024,1024,326.5,-89.9,97,3.833,3.825,3.852,3.84,3.874,3.847,19.195,66.2,14,Waypoint,
38.2001632,-120.0382869,5409.6390661531,138.123364,0,0.50019358556,19500,2018-05-12 16:56:01,16,0,23.118,5409.6390661531,138.123364,0.223694,0.95736223536,0,0,-0.671082,326.1, -1.4, -0.1,0,0,1024,1024,1024,1024,326.5,-89.9,97,3.833,3.825,3.852,3.84,3.874,3.847,19.195,66.2,14,Waypoint,
38.2001632,-120.0382869,5410.6233181531,139.107616,0,0.50019358556,19600,2018-05-12 16:56:01,16,0,23.118,5410.6233181531,139.107616,0.223694,0.95736223536,0,0,-0.671082,326.1, -1.4, 0,0,0,1024,1024,1024,1024,326.5,-89.9,97,3.833,3.825,3.852,3.84,3.874,3.847,19.195,66.2,14,Waypoint,
38.2001631,-120.038287,5411.6075701531,140.091868,0,0.49630579016,19700,2018-05-12 16:56:01,16,0,23.118,5411.6075701531,140.091868,0.223694,0.95736223536,0,0,-0.671082,326, -1.3, 0,0,0,1024,1024,1024,1024,326.5,-90,97,3.833,3.825,3.852,3.84,3.874,3.847,19.195,66.2,14,Waypoint,
38.2001631,-120.038287,5413.5760741531,142.060372,0,0.49630579016,19900,2018-05-12 16:56:02,16,0,23.118,5413.5760741531,142.060372,0.223694,0.95736223536,0,0,-0.671082,325.8, -1.2, 0.1,0,0,1024,1024,1024,1024,326.5,-89.9,97,3.833,3.825,3.852,3.84,3.874,3.847,19.195,66.2,14,Waypoint,
38.2001631,-120.0382871,5414.5603261531,143.044624,0,0.47341865032,20000,2018-05-12 16:56:02,16,0,23.015,5414.5603261531,143.044624,0.223694,0.95736223536,0,0,-0.671082,325.7, -1, 0.3,0,0,1024,1024,1024,1024,326.5,-89.9,97,3.823,3.825,3.835,3.828,3.853,3.841,19.154,66.2,14,Waypoint,
38.2001631,-120.0382871,5415.5445781531,144.028876,0,0.47341865032,20100,2018-05-12 16:56:02,16,0,23.015,5415.5445781531,144.028876,0.223694,0.95736223536,0,0,-0.671082,325.5, -1, 0.5,0,0,1024,1024,1024,1024,326.5,-89.9,97,3.823,3.825,3.835,3.828,3.853,3.841,19.154,66.2,14,Waypoint,
38.2001631,-120.0382871,5416.5288301531,145.013128,0,0.47341865032,20200,2018-05-12 16:56:02,16,0,23.015,5416.5288301531,145.013128,0.223694,0.95736223536,0,0,-0.671082,325.4, -1, 0.4,0,0,1024,1024,1024,1024,326.5,-89.9,97,3.823,3.825,3.835,3.828,3.853,3.841,19.154,66.2,14,Waypoint,
38.2001631,-120.0382871,5417.5130821531,145.99738,0,0.47341865032,20300,2018-05-12 16:56:02,16,0,23.015,5417.5130821531,145.99738,0.223694,0.95736223536,0,0,-0.671082,325.3, -1.1, 0.2,0,0,1024,1024,1024,1024,326.5,-90,97,3.823,3.825,3.835,3.828,3.853,3.841,19.154,66.2,14,Waypoint,
38.2001631,-120.0382871,5418.4973341531,146.981632,0,0.47341865032,20400,2018-05-12 16:56:02,16,0,23.015,5418.4973341531,146.981632,0.223694,0.95736223536,0,0,-0.671082,325.3, -1.3, 0.1,0,0,1024,1024,1024,1024,326.5,-90,97,3.823,3.825,3.835,3.828,3.853,3.841,19.154,66.2,14,Waypoint,
38.2001631,-120.0382871,5420.4658381531,148.950136,0,0.47341865032,20500,2018-05-12 16:56:02,16,0,23.015,5420.4658381531,148.950136,0.223694,0.95736223536,0,0,-0.671082,325.3, -1.5, 0.1,0,0,1024,1024,1024,1024,326.5,-90,97,3.823,3.825,3.835,3.828,3.853,3.841,19.154,66.2,14,Waypoint,
38.2001631,-120.0382871,5421.4500901531,149.934388,0,0.47341865032,20700,2018-05-12 16:56:02,16,0,23.015,5421.4500901531,149.934388,0.223694,0.95736223536,0,0,-0.671082,325.3, -1.4, 0.1,0,0,1024,1024,1024,1024,326.5,-89.9,97,3.823,3.825,3.835,3.828,3.853,3.841,19.154,66.2,14,Waypoint,
38.2001631,-120.0382871,5422.4343421531,150.91864,0,0.47341865032,20800,2018-05-12 16:56:02,16,0,23.015,5422.4343421531,150.91864,0.223694,0.95736223536,0,0,-0.671082,325.3, -1.3, 0.1,0,0,1024,1024,1024,1024,326.5,-89.9,97,3.823,3.825,3.835,3.828,3.853,3.841,19.154,66.2,14,Waypoint,
38.2001632,-120.0382871,5424.4028461531,152.887144,0,0.4518372848,20900,2018-05-12 16:56:03,16,0,23.015,5424.4028461531,152.887144,0.223694,0.95736223536,0,0,-0.671082,325.3, -1, -0.1,0,0,1024,1024,1024,1024,326.5,-89.9,97,3.823,3.825,3.835,3.828,3.853,3.841,19.154,66.2,14,Waypoint,
38.2001632,-120.0382871,5425.3870981531,153.871396,0,0.4518372848,21000,2018-05-12 16:56:03,16,0,23.043,5425.3870981531,153.871396,0.223694,0.95736223536,0,0,-0.671082,325.4, -0.9, -0.2,0,0,1024,1024,1024,1024,326.5,-89.9,97,3.823,3.825,3.835,3.828,3.853,3.841,19.154,66.2,14,Waypoint,
38.2001632,-120.0382871,5426.3713501531,154.855648,0,0.4518372848,21100,2018-05-12 16:56:03,16,0,23.043,5426.3713501531,154.855648,0.223694,0.95736223536,0,0,-0.671082,325.4, -0.9, -0.2,0,0,1024,1024,1024,1024,326.5,-89.9,97,3.823,3.825,3.835,3.828,3.853,3.841,19.154,66.2,14,Waypoint,
38.2001633,-120.0382871,5427.3556021531,155.8399,0,0.43226379336,21200,2018-05-12 16:56:03,16,0,23.043,5427.3556021531,155.8399,0.223694,0.95736223536,0,0,-0.671082,325.4, -1, -0.3,0,0,1024,1024,1024,1024,326.5,-89.9,97,3.823,3.825,3.835,3.828,3.853,3.841,19.154,66.2,14,Waypoint,
38.2001633,-120.0382871,5428.3398541531,156.824152,0,0.43226379336,21300,2018-05-12 16:56:03,16,0,23.043,5428.3398541531,156.824152,0.223694,0.95736223536,0,0,-0.671082,325.5, -0.9, -0.3,0,0,1024,1024,1024,1024,326.5,-89.9,97,3.823,3.825,3.835,3.828,3.853,3.841,19.154,66.2,14,Waypoint,
38.2001633,-120.0382871,5429.3241061531,157.808404,0,0.43226379336,21410,2018-05-12 16:56:03,16,0,23.043,5429.3241061531,157.808404,0.223694,0.95736223536,0,0,-0.671082,325.5, -0.9, -0.2,0,0,1024,1024,1024,1024,326.5,-89.9,97,3.823,3.825,3.835,3.828,3.853,3.841,19.154,66.2,14,Waypoint,
38.2001633,-120.0382871,5429.3241061531,157.808404,0,0.43226379336,21500,2018-05-12 16:56:03,16,0,23.043,5429.3241061531,157.808404,0.223694,0.95736223536,0,0,-0.671082,325.5, -0.9, -0.2,0,0,1024,1024,1024,1024,326.5,-89.9,97,3.823,3.825,3.835,3.828,3.853,3.841,19.154,66.2,14,Waypoint,
38.2001633,-120.0382871,5430.3083581531,158.792656,0,0.43226379336,21600,2018-05-12 16:56:03,16,0,23.043,5430.3083581531,158.792656,0.223694,0.95736223536,0,0,-0.671082,325.4, -1, -0.2,0,0,1024,1024,1024,1024,326.5,-89.9,97,3.823,3.825,3.835,3.828,3.853,3.841,19.154,66.2,14,Waypoint,
38.2001633,-120.0382871,5431.2926101531,159.776908,0,0.43226379336,21700,2018-05-12 16:56:03,16,0,23.043,5431.2926101531,159.776908,0.223694,0.95736223536,0,0,-0.671082,325.3, -1, -0.3,0,0,1024,1024,1024,1024,326.5,-89.9,97,3.823,3.825,3.835,3.828,3.853,3.841,19.154,66.2,14,Waypoint,
38.2001633,-120.0382871,5432.2768621531,160.76116,0,0.43226379336,21800,2018-05-12 16:56:03,16,0,23.043,5432.2768621531,160.76116,0.223694,0.95736223536,0,0,-0.671082,325.4, -1, -0.3,0,0,1024,1024,1024,1024,326.5,-90,97,3.823,3.825,3.835,3.828,3.853,3.841,19.154,66.2,14,Waypoint,
38.2001634,-120.038287,5434.2453661531,162.729664,0,0.44091536844,21910,2018-05-12 16:56:04,16,0,23.043,5434.2453661531,162.729664,0.223694,0.95736223536,0,0,-0.671082,325.5, -1.1, -0.4,0,0,1024,1024,1024,1024,326.5,-90,97,3.823,3.825,3.835,3.828,3.853,3.841,19.154,66.2,14,Waypoint,
38.2001634,-120.038287,5435.2296181531,163.713916,0,0.44091536844,22010,2018-05-12 16:56:04,16,0,23.089,5435.2296181531,163.713916,0.223694,0.95736223536,0,0,-0.671082,325.6, -1.2, -0.3,0,0,1024,1024,1024,1024,326.5,-90,97,3.843,3.831,3.848,3.839,3.873,3.849,18.205,66.2,14,Waypoint,
38.2001634,-120.038287,5436.2138701531,164.698168,0,0.44091536844,22200,2018-05-12 16:56:04,16,0,23.089,5436.2138701531,164.698168,0.223694,0.95736223536,0,0,-0.671082,325.6, -1.2, -0.3,0,0,1024,1024,1024,1024,326.5,-89.9,97,3.843,3.831,3.848,3.839,3.873,3.849,18.205,66.2,14,Waypoint,
38.2001634,-120.0382869,5437.1981221531,165.68242,0,0.46716865012,22300,2018-05-12 16:56:04,16,0,23.089,5437.1981221531,165.68242,0.223694,0.95736223536,0,0,-0.671082,325.7, -1.1, -0.3,0,0,1024,1024,1024,1024,326.5,-90,97,3.843,3.831,3.848,3.839,3.873,3.849,18.205,66.2,14,Waypoint,
38.2001634,-120.0382869,5438.1823741531,166.666672,0,0.46716865012,22400,2018-05-12 16:56:04,16,0,23.089,5438.1823741531,166.666672,0.223694,0.95736223536,0,0,-0.671082,325.7, -1.2, -0.4,0,0,1024,1024,1024,1024,326.5,-90,97,3.843,3.831,3.848,3.839,3.873,3.849,18.205,66.2,14,Waypoint,
38.2001634,-120.0382869,5439.1666261531,167.650924,0,0.46716865012,22500,2018-05-12 16:56:04,16,0,23.089,5439.1666261531,167.650924,0.223694,0.95736223536,0,0,-0.671082,325.7, -1.3, -0.4,0,0,1024,1024,1024,1024,326.5,-90,97,3.843,3.831,3.848,3.839,3.873,3.849,18.205,66.2,14,Waypoint,
38.2001634,-120.0382869,5440.1508781531,168.635176,0,0.46716865012,22600,2018-05-12 16:56:04,16,0,23.089,5440.1508781531,168.635176,0.223694,0.95736223536,0,0,-0.671082,325.7, -1.4, -0.3,0,0,1024,1024,1024,1024,326.5,-90,97,3.843,3.831,3.848,3.839,3.873,3.849,18.205,66.2,14,Waypoint,
38.2001634,-120.0382869,5441.1351301531,169.619428,0,0.46716865012,22700,2018-05-12 16:56:04,16,0,23.089,5441.1351301531,169.619428,0.223694,0.95736223536,0,0,-0.671082,325.7, -1.5, -0.3,0,0,1024,1024,1024,1024,326.5,-90,97,3.843,3.831,3.848,3.839,3.873,3.849,18.205,66.2,14,Waypoint,
38.2001634,-120.0382869,5442.1193821531,170.60368,0,0.46716865012,22800,2018-05-12 16:56:04,16,0,23.089,5442.1193821531,170.60368,0.223694,0.95736223536,0,0,-0.671082,325.6, -1.6, -0.3,0,0,1024,1024,1024,1024,326.5,-90,97,3.843,3.831,3.848,3.839,3.873,3.849,18.205,66.2,14,Waypoint,
38.2001634,-120.0382869,5443.1036341531,171.587932,0,0.46716865012,22900,2018-05-12 16:56:05,16,0,23.089,5443.1036341531,171.587932,0.223694,0.95736223536,0,0,-0.671082,325.6, -1.6, -0.3,0,0,1024,1024,1024,1024,326.5,-89.9,97,3.843,3.831,3.848,3.839,3.873,3.849,18.205,66.2,14,Waypoint,
38.2001634,-120.0382869,5445.0721381531,173.556436,0,0.46716865012,23000,2018-05-12 16:56:05,16,0,23.075,5445.0721381531,173.556436,0.223694,0.95736223536,0,0,-0.671082,325.5, -1.1, -0.4,0,0,1024,1024,1024,1024,326.5,-89.9,97,3.835,3.829,3.842,3.836,3.87,3.851,18.239,66.2,14,Waypoint,
38.2001634,-120.038287,5446.0563901531,174.540688,0,0.44091536844,23100,2018-05-12 16:56:05,16,0,23.075,5446.0563901531,174.540688,0.223694,0.95736223536,0,0,-0.671082,325.4, -1, -0.5,0,0,1024,1024,1024,1024,326.5,-89.9,97,3.835,3.829,3.842,3.836,3.87,3.851,18.239,66.2,14,Waypoint,
38.2001635,-120.038287,5447.0406421531,175.52494,0,0.42711287456,23200,2018-05-12 16:56:05,16,0,23.075,5447.0406421531,175.52494,0.223694,0.95736223536,0,0,-0.671082,325.4, -1, -0.5,0,0,1024,1024,1024,1024,326.5,-89.9,97,3.835,3.829,3.842,3.836,3.87,3.851,18.239,66.2,14,Waypoint,
38.2001635,-120.038287,5448.0248941531,176.509192,0,0.42711287456,23300,2018-05-12 16:56:05,16,0,23.075,5448.0248941531,176.509192,0.223694,0.95736223536,0,0,-0.671082,325.4, -0.9, -0.6,0,0,1024,1024,1024,1024,326.5,-89.9,97,3.835,3.829,3.842,3.836,3.87,3.851,18.239,66.2,14,Waypoint,
38.2001635,-120.038287,5449.0091461531,177.493444,0,0.42711287456,23400,2018-05-12 16:56:05,16,0,23.075,5449.0091461531,177.493444,0.223694,0.95736223536,0,0,-0.671082,325.5, -0.8, -0.6,0,0,1024,1024,1024,1024,326.5,-89.9,97,3.835,3.829,3.842,3.836,3.87,3.851,18.239,66.2,14,Waypoint,
38.2001635,-120.0382871,5449.9933981531,178.477696,0,0.40028544588,23500,2018-05-12 16:56:05,16,0,23.075,5449.9933981531,178.477696,0.223694,0.95736223536,0,0,-0.671082,325.5, -0.8, -0.4,0,0,1024,1024,1024,1024,326.5,-89.9,97,3.835,3.829,3.842,3.836,3.87,3.851,18.239,66.2,14,Waypoint,
38.2001635,-120.0382871,5450.9776501531,179.461948,0,0.40028544588,23700,2018-05-12 16:56:05,16,0,23.075,5450.9776501531,179.461948,0.223694,0.95736223536,0,0,-0.671082,325.6, -0.9, -0.4,0,0,1024,1024,1024,1024,326.5,-89.9,97,3.835,3.829,3.842,3.836,3.87,3.851,18.239,66.2,14,Waypoint,
38.2001635,-120.0382871,5451.9619021531,180.4462,0,0.40028544588,23800,2018-05-12 16:56:05,16,0,23.075,5451.9619021531,180.4462,0.223694,0.95736223536,0,0,-0.671082,325.6, -1, -0.4,0,0,1024,1024,1024,1024,326.5,-89.9,97,3.835,3.829,3.842,3.836,3.87,3.851,18.239,66.2,14,Waypoint,
38.2001635,-120.0382871,5452.9461541531,181.430452,0,0.40028544588,23900,2018-05-12 16:56:06,16,0,23.075,5452.9461541531,181.430452,0.223694,0.95736223536,0,0,-0.671082,325.7, -1, -0.3,0,0,1024,1024,1024,1024,326.5,-89.9,97,3.835,3.829,3.842,3.836,3.87,3.851,18.239,66.2,14,Waypoint,
38.2001635,-120.0382871,5454.9146581531,183.398956,0,0.40028544588,24100,2018-05-12 16:56:06,16,0,23.075,5454.9146581531,183.398956,0.223694,0.95736223536,0,0,-0.671082,325.7, -1, -0.3,0,0,1024,1024,1024,1024,326.5,-89.9,97,3.835,3.829,3.842,3.836,3.87,3.851,18.239,66.2,14,Waypoint,
38.2001635,-120.0382872,5455.8989101531,184.383208,0,0.37373360776,24200,2018-05-12 16:56:06,16,0,23.075,5455.8989101531,184.383208,0.223694,0.95736223536,0,0,-0.671082,325.7, -1, -0.3,0,0,1024,1024,1024,1024,326.5,-89.9,97,3.835,3.829,3.842,3.836,3.87,3.851,18.239,66.2,14,Waypoint,
38.2001635,-120.0382872,5456.8831621531,185.36746,0,0.37373360776,24300,2018-05-12 16:56:06,16,0,23.075,5456.8831621531,185.36746,0.223694,0.95736223536,0,0,-0.671082,325.7, -0.9, -0.2,0,0,1024,1024,1024,1024,326.5,-89.9,97,3.835,3.829,3.842,3.836,3.87,3.851,18.239,66.2,14,Waypoint,
38.2001635,-120.0382872,5457.8674141531,186.351712,0,0.37373360776,24400,2018-05-12 16:56:06,16,0,23.075,5457.8674141531,186.351712,0.223694,0.95736223536,0,0,-0.671082,325.6, -0.8, -0.2,0,0,1024,1024,1024,1024,326.5,-89.9,97,3.835,3.829,3.842,3.836,3.87,3.851,18.239,66.2,14,Waypoint,
38.2001635,-120.0382872,5458.8516661531,187.335964,0,0.37373360776,24500,2018-05-12 16:56:06,16,0,23.075,5458.8516661531,187.335964,0.223694,0.95736223536,0,0,-0.671082,325.6, -0.7, -0.2,0,0,1024,1024,1024,1024,326.5,-89.9,97,3.835,3.829,3.842,3.836,3.87,3.851,18.239,66.2,14,Waypoint,
38.2001635,-120.0382872,5459.8359181531,188.320216,0,0.37373360776,24600,2018-05-12 16:56:06,16,0,23.075,5459.8359181531,188.320216,0.223694,0.95736223536,0,0,-0.671082,325.6, -0.9, -0.1,0,0,1024,1024,1024,1024,326.5,-89.9,97,3.835,3.829,3.842,3.836,3.87,3.851,18.239,66.2,14,Waypoint,
38.2001635,-120.0382872,5462.7886741531,191.272972,0,0.37373360776,24900,2018-05-12 16:56:07,16,0,23.075,5462.7886741531,191.272972,0.223694,0.95736223536,0,0,-0.671082,325.6, -1.4, -0.5,0,0,1024,1024,1024,1024,326.5,-90,97,3.835,3.829,3.842,3.836,3.87,3.851,18.239,66.2,14,Waypoint,
38.2001634,-120.0382871,5463.7729261531,192.257224,0,0.41498032824,25000,2018-05-12 16:56:07,16,0,23.089,5463.7729261531,192.257224,0.223694,0.95736223536,0,0,-0.671082,325.5, -1.5, -0.5,0,0,1024,1024,1024,1024,326.5,-90,97,3.842,3.828,3.844,3.84,3.866,3.85,18.222,66.2,14,Waypoint,
38.2001634,-120.0382871,5464.7571781531,193.241476,0,0.41498032824,25100,2018-05-12 16:56:07,16,0,23.089,5464.7571781531,193.241476,0.223694,0.95736223536,0,0,-0.671082,325.5, -1.6, -0.5,0,0,1024,1024,1024,1024,326.5,-90,97,3.842,3.828,3.844,3.84,3.866,3.85,18.222,66.2,14,Waypoint,
38.2001634,-120.038287,5465.7414301531,194.225728,0,0.44091536844,25200,2018-05-12 16:56:07,16,0,23.089,5465.7414301531,194.225728,0.223694,0.95736223536,0,0,-0.671082,325.5, -1.6, -0.8,0,0,1024,1024,1024,1024,326.5,-90,97,3.842,3.828,3.844,3.84,3.866,3.85,18.222,66.2,14,Waypoint,
38.2001634,-120.0382869,5467.7099341531,196.194232,0,0.46716865012,25300,2018-05-12 16:56:07,16,0,23.089,5467.7099341531,196.194232,0.223694,0.95736223536,0,0,-0.671082,325.4, -1.8, -1.3,0,0,1024,1024,1024,1024,326.5,-90,97,3.842,3.828,3.844,3.84,3.866,3.85,18.222,66.2,14,Waypoint,
38.2001633,-120.0382868,5468.6941861531,197.178484,0,0.50830382204,25400,2018-05-12 16:56:07,16,0,23.089,5468.6941861531,197.178484,0.223694,0.95736223536,0,0,-0.671082,325.4, -1.9, -1.2,0,0,1024,1024,1024,1024,326.5,-90,97,3.842,3.828,3.844,3.84,3.866,3.85,18.222,66.2,14,Waypoint,
38.2001633,-120.0382868,5469.6784381531,198.162736,0,0.50830382204,25500,2018-05-12 16:56:07,16,0,23.089,5469.6784381531,198.162736,0.223694,0.95736223536,0,0,-0.671082,325.4, -1.9, -0.9,0,0,1024,1024,1024,1024,326.5,-90,97,3.842,3.828,3.844,3.84,3.866,3.85,18.222,66.2,14,Waypoint,
38.2001633,-120.0382867,5471.9750261531,200.459324,0,0.53432416408,25700,2018-05-12 16:56:07,16,0,23.089,5471.9750261531,200.459324,0.223694,0.95736223536,0,0,-0.671082,325.6, -1.7, -0.9,0,0,1024,1024,1024,1024,326.5,-89.9,97,3.842,3.828,3.844,3.84,3.866,3.85,18.222,66.2,14,Waypoint,
38.2001632,-120.0382865,5474.9277821531,203.41208,0,0.60166012424,26000,2018-05-12 16:56:08,16,0,23.032,5474.9277821531,203.41208,0.223694,0.95736223536,0,0,-0.671082,325.8, -2.1, -1.7,0,0,1024,1024,1024,1024,326.5,-90,97,3.84,3.819,3.841,3.824,3.86,3.85,18.424,66.2,14,Waypoint,
38.2001632,-120.0382864,5476.8962861531,205.380584,0,0.6277395214,26210,2018-05-12 16:56:08,16,0,23.032,5476.8962861531,205.380584,0.223694,0.95736223536,0,0,-0.671082,325.9, -1.9, -1.2,0,0,1024,1024,1024,1024,326.5,-89.9,97,3.84,3.819,3.841,3.824,3.86,3.85,18.424,66.2,14,Waypoint,
38.2001632,-120.0382863,5477.8805381531,206.364836,0,0.654035454,26400,2018-05-12 16:56:08,16,0,23.032,5477.8805381531,206.364836,0.223694,0.95736223536,0,0,-0.671082,325.8, -1.7, -1.2,0,0,1024,1024,1024,1024,326.5,-89.9,97,3.84,3.819,3.841,3.824,3.86,3.85,18.424,66.2,14,Waypoint,
38.2001632,-120.0382863,5478.8647901531,207.349088,0,0.654035454,26500,2018-05-12 16:56:08,16,0,23.032,5478.8647901531,207.349088,0.223694,0.95736223536,0,0,-0.671082,325.6, -1.7, -1.2,0,0,1024,1024,1024,1024,326.5,-89.9,97,3.84,3.819,3.841,3.824,3.86,3.85,18.424,66.2,14,Waypoint,
38.2001632,-120.0382863,5479.8490421531,208.33334,0,0.654035454,26600,2018-05-12 16:56:08,16,0,23.032,5479.8490421531,208.33334,0.223694,0.95736223536,0,0,-0.671082,325.5, -1.8, -1.3,0,0,1024,1024,1024,1024,326.5,-90,97,3.84,3.819,3.841,3.824,3.86,3.85,18.424,66.2,14,Waypoint,
38.2001631,-120.0382862,5480.8332941531,209.317592,0,0.69503939232,26700,2018-05-12 16:56:08,16,0,23.032,5480.8332941531,209.317592,0.223694,0.95736223536,0,0,-0.671082,325.4, -1.9, -1.5,0,0,1024,1024,1024,1024,326.5,-90,97,3.84,3.819,3.841,3.824,3.86,3.85,18.424,66.2,14,Waypoint,
38.2001631,-120.0382861,5481.8175461531,210.301844,0,0.7211614404,26800,2018-05-12 16:56:08,16,0,23.032,5481.8175461531,210.301844,0.223694,0.95736223536,0,0,-0.671082,325.4, -2.2, -1.5,0,0,1024,1024,1024,1024,326.5,-90,97,3.84,3.819,3.841,3.824,3.86,3.85,18.424,66.2,14,Waypoint,
38.2001631,-120.038286,5482.8017981531,211.286096,0,0.74747049636,26900,2018-05-12 16:56:09,16,0,23.032,5482.8017981531,211.286096,0.223694,0.95736223536,0,0,-0.671082,325.4, -2.5, -1.5,0,0,1024,1024,1024,1024,326.5,-90,97,3.84,3.819,3.841,3.824,3.86,3.85,18.424,66.2,14,Waypoint,
38.2001631,-120.0382859,5483.7860501531,212.270348,0,0.77394687516,27000,2018-05-12 16:56:09,16,0,23.097,5483.7860501531,212.270348,0.223694,0.95736223536,0,0,-0.671082,325.5, -2.8, -1.5,0,0,1024,1024,1024,1024,326.5,-90,97,3.842,3.833,3.847,3.843,3.866,3.856,17.605,68,14,Waypoint,
38.2001631,-120.0382859,5484.4422181531,212.926516,0,0.77394687516,27100,2018-05-12 16:56:09,16,0,23.097,5484.4422181531,212.926516,0.223694,0.95736223536,0,0,-0.671082,325.5, -3, -1.6,0,0,1024,1024,1024,1024,326.5,-90,97,3.842,3.833,3.847,3.843,3.866,3.856,17.605,68,14,Waypoint,
