latitude,longitude,altitude(feet),ascent(feet),speed(mph),distance(feet),time(millisecond),datetime(utc),satellites,gpslevel,voltage(v),max_altitude(feet),max_ascent(feet),max_speed(mph),max_distance(feet), xSpeed(mph), ySpeed(mph), zSpeed(mph), compass_heading(degrees), pitch(degrees), roll(degrees),isPhoto,isVideo,rc_elevator,rc_aileron,rc_throttle,rc_rudder,gimbal_heading(degrees),gimbal_pitch(degrees),battery_percent,voltageCell1,voltageCell2,voltageCell3,voltageCell4,voltageCell5,voltageCell6,current(A),battery_temperature(f),flycStateRaw,flycState,message
38.2001165,-120.0383167,5271.946632613,0,0,0,3100,2018-05-12 16:19:57,12,0,0,5271.946632613,0,0,0,0,0,0,324.7, 0.5, 0,1,0,1024,1024,1024,1024,325.4,-89.9,100,4.109,4.133,4.1,4.089,4.113,4.07,0,60.8,11,AutoTakeoff,
38.2001165,-120.0383167,5272.274716613,0.328084,0,0,3210,2018-05-12 16:19:57,12,0,0,5272.274716613,0.328084,0,0,0,0,0,324.7, 0.5, 0,0,0,1024,1024,1024,1024,325.4,-89.9,100,4.109,4.133,4.1,4.089,4.113,4.07,0,60.8,11,AutoTakeoff,
38.2001166,-120.0383167,5272.602800613,0.656168,0,0.036484909304,3410,2018-05-12 16:19:57,12,0,0,5272.602800613,0.656168,0,0.036484909304,0,0,0,324.8, 0.1, 0.2,0,0,1024,1024,1024,1024,325.4,-89.9,100,4.109,4.133,4.1,4.089,4.113,4.07,0,60.8,11,AutoTakeoff,
38.2001166,-120.0383168,5272.602800613,0.656168,0,0.046402888624,3600,2018-05-12 16:19:57,11,0,0,5272.602800613,0.656168,0,0.046402888624,0,0,0,324.8, 0, 0.4,0,0,1024,1024,1024,1024,325.4,-89.9,100,4.109,4.133,4.1,4.089,4.113,4.07,0,60.8,11,AutoTakeoff,
38.2001166,-120.0383168,5273.258968613,1.312336,0,0.046402888624,3900,2018-05-12 16:19:57,11,0,0,5273.258968613,1.312336,0,0.046402888624,0,0,-0.223694,324.8, 0, 0.6,0,0,1024,1024,1024,1024,325.4,-89.9,100,4.109,4.133,4.1,4.089,4.113,4.07,0,60.8,11,AutoTakeoff,
38.2001167,-120.0383169,5273.258968613,1.312336,0,0.092805777248,4000,2018-05-12 16:19:57,11,0,24.766,5273.258968613,1.312336,0,0.092805777248,0,0,-0.223694,324.8, 0.2, 0.5,0,0,1024,1024,1024,1024,325.4,-89.9,100,4.109,4.133,4.1,4.089,4.113,4.07,9.504,60.8,11,AutoTakeoff,
38.2001168,-120.0383169,5273.587052613,1.64042,0,0.123566605004,4100,2018-05-12 16:19:58,10,0,24.766,5273.587052613,1.64042,0,0.123566605004,0,0,-0.223694,324.9, 0.4, 0.5,0,0,1024,1024,1024,1024,325.4,-89.9,100,4.109,4.133,4.1,4.089,4.113,4.07,9.504,60.8,11,AutoTakeoff,
38.2001168,-120.0383169,5273.587052613,1.64042,0,0.123566605004,4200,2018-05-12 16:19:58,10,0,24.766,5273.587052613,1.64042,0,0.123566605004,0,0,-0.223694,324.9, 0.4, 0.6,0,0,1024,1024,1024,1024,325.4,-89.9,100,4.109,4.133,4.1,4.089,4.113,4.07,9.504,60.8,11,AutoTakeoff,
38.2001169,-120.0383169,5273.915136613,1.968504,0,0.156801514204,4310,2018-05-12 16:19:58,10,0,24.766,5273.915136613,1.968504,0,0.156801514204,0,0,-0.223694,324.9, 0.5, 0.3,0,0,1024,1024,1024,1024,325.4,-89.9,100,4.109,4.133,4.1,4.089,4.113,4.07,9.504,60.8,11,AutoTakeoff,
38.200117,-120.0383169,5274.243220613,2.296588,0,0.191225071736,4400,2018-05-12 16:19:58,11,0,24.766,5274.243220613,2.296588,0,0.191225071736,0,0,-0.223694,324.9, 0.6, 0.2,0,0,1024,1024,1024,1024,325.4,-89.9,100,4.109,4.133,4.1,4.089,4.113,4.07,9.504,60.8,11,AutoTakeoff,
38.2001172,-120.0383168,5274.571304613,2.624672,0,0.256999023972,4700,2018-05-12 16:19:58,11,0,24.766,5274.571304613,2.624672,0,0.256999023972,0,0,0,324.8, 0.7, 0,0,0,1024,1024,1024,1024,325.4,-89.9,100,4.109,4.133,4.1,4.089,4.113,4.07,9.504,60.8,11,AutoTakeoff,
38.2001172,-120.0383168,5274.899388613,2.952756,0,0.256999023972,4800,2018-05-12 16:19:58,11,0,24.766,5274.899388613,2.952756,0,0.256999023972,0,0,0,324.8, 0.8, 0,0,0,1024,1024,1024,1024,325.4,-89.9,100,4.109,4.133,4.1,4.089,4.113,4.07,9.504,60.8,14,Waypoint,
38.2001172,-120.0383168,5274.899388613,2.952756,0,0.256999023972,4900,2018-05-12 16:19:58,11,0,24.766,5274.899388613,2.952756,0,0.256999023972,0,0,0,324.8, 0.6, 0,0,0,1024,1024,1024,1024,325.4,-89.9,100,4.109,4.133,4.1,4.089,4.113,4.07,9.504,60.8,14,Waypoint,
38.2001172,-120.0383168,5275.227472613,3.28084,0,0.256999023972,5000,2018-05-12 16:19:58,12,0,23.81,5275.227472613,3.28084,0,0.256999023972,0,0,0,324.8, 0.3, 0.3,0,0,1024,1024,1024,1024,325.4,-89.9,100,3.973,3.939,3.94,3.956,3.983,3.963,17.039,60.8,14,Waypoint,
38.2001172,-120.0383168,5275.227472613,3.28084,0,0.256999023972,5100,2018-05-12 16:19:59,12,0,23.81,5275.227472613,3.28084,0,0.256999023972,0,0,0,324.9, 0.3, 0.5,0,0,1024,1024,1024,1024,325.4,-89.9,100,3.973,3.939,3.94,3.956,3.983,3.963,17.039,60.8,14,Waypoint,
38.2001173,-120.0383166,5275.555556613,3.608924,0,0.293284458204,5200,2018-05-12 16:19:59,12,0,23.81,5275.555556613,3.608924,0,0.293284458204,0,0,-0.223694,324.9, 0.3, 0.5,0,0,1024,1024,1024,1024,325.4,-89.9,100,3.973,3.939,3.94,3.956,3.983,3.963,17.039,60.8,14,Waypoint,
38.2001173,-120.0383166,5275.883640613,3.937008,0,0.293284458204,5300,2018-05-12 16:19:59,13,0,23.81,5275.883640613,3.937008,0,0.293284458204,0,0,-0.223694,324.9, 0.4, 0.2,0,0,1024,1024,1024,1024,325.4,-89.9,100,3.973,3.939,3.94,3.956,3.983,3.963,17.039,60.8,14,Waypoint,
38.2001174,-120.0383165,5276.211724613,4.265092,0,0.333333344,5400,2018-05-12 16:19:59,13,0,23.81,5276.211724613,4.265092,0,0.333333344,0,0,-0.223694,324.9, 0.5, 0,0,0,1024,1024,1024,1024,325.4,-89.9,100,3.973,3.939,3.94,3.956,3.983,3.963,17.039,60.8,14,Waypoint,
38.2001174,-120.0383165,5276.539808613,4.593176,0,0.333333344,5500,2018-05-12 16:19:59,13,0,23.81,5276.539808613,4.593176,0,0.333333344,0,0,-0.223694,324.9, 0.5, 0,0,0,1024,1024,1024,1024,325.4,-89.9,100,3.973,3.939,3.94,3.956,3.983,3.963,17.039,60.8,14,Waypoint,
38.2001174,-120.0383164,5276.867892613,4.92126,0,0.33944226808,5600,2018-05-12 16:19:59,13,0,23.81,5276.867892613,4.92126,0,0.33944226808,0,0,-0.223694,324.9, 0.5, -0.1,0,0,1024,1024,1024,1024,325.4,-89.9,100,3.973,3.939,3.94,3.956,3.983,3.963,17.039,60.8,14,Waypoint,
38.2001175,-120.0383163,5277.524060613,5.577428,0,0.38245079964,5700,2018-05-12 16:19:59,11,0,23.81,5277.524060613,5.577428,0,0.38245079964,0,0,-0.447388,324.9, 0.4, -0.2,0,0,1024,1024,1024,1024,325.4,-89.9,100,3.973,3.939,3.94,3.956,3.983,3.963,17.039,60.8,14,Waypoint,
38.2001175,-120.0383163,5277.852144613,5.905512,0,0.38245079964,5800,2018-05-12 16:19:59,11,0,23.81,5277.852144613,5.905512,0,0.38245079964,0,0,-0.447388,324.8, 0.4, -0.3,0,0,1024,1024,1024,1024,325.4,-89.9,100,3.973,3.939,3.94,3.956,3.983,3.963,17.039,60.8,14,Waypoint,
38.2001176,-120.0383164,5278.508312613,6.56168,0,0.4104494882,5900,2018-05-12 16:19:59,11,0,23.81,5278.508312613,6.56168,0,0.4104494882,0,0,-0.447388,324.8, 0.5, -0.2,0,0,1024,1024,1024,1024,325.4,-89.9,100,3.973,3.939,3.94,3.956,3.983,3.963,17.039,60.8,14,Waypoint,
38.2001177,-120.0383165,5279.164480613,7.217848,0,0.44155841308,6000,2018-05-12 16:19:59,11,0,23.652,5279.164480613,7.217848,0,0.44155841308,0,0,-0.447388,324.8, 0.7, 0,0,0,1024,1024,1024,1024,325.4,-89.9,100,3.947,3.944,3.922,3.935,3.961,3.944,16.377,60.8,14,Waypoint,
38.2001176,-120.0383166,5280.148732613,8.2021,0,0.40235565592,6100,2018-05-12 16:20:00,9,0,23.652,5280.148732613,8.2021,0,0.44155841308,0,0,-0.447388,324.7, 0.8, 0.2,0,0,1024,1024,1024,1024,325.4,-89.9,100,3.947,3.944,3.922,3.935,3.961,3.944,16.377,60.8,14,Waypoint,
38.2001175,-120.038317,5281.132984613,9.186352,0,0.3748523742,6200,2018-05-12 16:20:00,9,0,23.652,5281.132984613,9.186352,0,0.44155841308,0,0,-0.671082,324.7, 0.9, 0.6,0,0,1024,1024,1024,1024,325.4,-89.9,100,3.947,3.944,3.922,3.935,3.961,3.944,16.377,60.8,14,Waypoint,
38.2001173,-120.0383172,5282.117236613,10.170604,0,0.32518537786,6300,2018-05-12 16:20:00,11,0,23.652,5282.117236613,10.170604,0,0.44155841308,0,0,-0.671082,324.7, 0.8, 1.3,0,0,1024,1024,1024,1024,325.4,-89.9,100,3.947,3.944,3.922,3.935,3.961,3.944,16.377,60.8,14,Waypoint,
38.2001172,-120.0383173,5283.101488613,11.154856,0,0.307930456048,6400,2018-05-12 16:20:00,11,0,23.652,5283.101488613,11.154856,0,0.44155841308,0,0,-0.671082,324.7, 0.5, 1.7,0,0,1024,1024,1024,1024,325.4,-89.9,100,3.947,3.944,3.922,3.935,3.961,3.944,16.377,60.8,14,Waypoint,
38.2001169,-120.0383178,5285.069992613,13.12336,0,0.34751969616,6500,2018-05-12 16:20:00,12,0,23.652,5285.069992613,13.12336,0,0.44155841308,0,0,-0.671082,324.7, 0.5, 1.9,0,0,1024,1024,1024,1024,325.4,-89.9,100,3.947,3.944,3.922,3.935,3.961,3.944,16.377,60.8,14,Waypoint,
38.2001167,-120.038318,5286.382328613,14.435696,0,0.37980972344,6600,2018-05-12 16:20:00,11,0,23.652,5286.382328613,14.435696,0,0.44155841308,0,0,-0.671082,324.7, 0.4, 2.2,0,0,1024,1024,1024,1024,325.4,-89.9,100,3.947,3.944,3.922,3.935,3.961,3.944,16.377,60.8,14,Waypoint,
38.2001167,-120.0383181,5287.366580613,15.419948,0,0.40798557736,6700,2018-05-12 16:20:00,11,0,23.652,5287.366580613,15.419948,0,0.44155841308,0,0,-0.671082,324.7, 0.3, 2.3,0,0,1024,1024,1024,1024,325.4,-89.9,100,3.947,3.944,3.922,3.935,3.961,3.944,16.377,60.8,14,Waypoint,
38.2001169,-120.0383181,5288.350832613,16.4042,0,0.42711287456,6800,2018-05-12 16:20:00,11,0,23.652,5288.350832613,16.4042,0,0.44155841308,0,0,-0.671082,324.6, 0.4, 2,0,0,1024,1024,1024,1024,325.4,-89.9,100,3.947,3.944,3.922,3.935,3.961,3.944,16.377,60.8,14,Waypoint,
38.2001171,-120.0383178,5289.663168613,17.716536,0,0.38391733512,6900,2018-05-12 16:20:00,11,0,23.652,5289.663168613,17.716536,0,0.44155841308,0,0,-0.671082,324.6, 0.7, 1.4,0,0,1024,1024,1024,1024,325.4,-89.9,100,3.947,3.944,3.922,3.935,3.961,3.944,16.377,60.8,14,Waypoint,
38.2001174,-120.0383175,5290.647420613,18.700788,0,0.40054463224,7000,2018-05-12 16:20:00,12,0,23.009,5290.647420613,18.700788,0,0.44155841308,0,0,-0.671082,324.7, 0.8, 0.4,0,0,1024,1024,1024,1024,325.4,-89.9,100,3.947,3.944,3.922,3.935,3.961,3.944,22.342,60.8,14,Waypoint,
38.2001176,-120.0383172,5291.959756613,20.013124,0,0.42617127348,7110,2018-05-12 16:20:01,12,0,23.009,5291.959756613,20.013124,0,0.44155841308,0,0,-0.671082,324.7, 1, -0.6,0,0,1024,1024,1024,1024,325.4,-89.9,100,3.947,3.944,3.922,3.935,3.961,3.944,22.342,60.8,14,Waypoint,
38.2001178,-120.0383169,5292.944008613,20.997376,0,0.47775920164,7210,2018-05-12 16:20:01,13,0,23.009,5292.944008613,20.997376,0,0.47775920164,0,0,-0.671082,324.7, 0.9, -1.5,0,0,1024,1024,1024,1024,325.4,-89.9,100,3.947,3.944,3.922,3.935,3.961,3.944,22.342,60.8,14,Waypoint,
38.200118,-120.0383166,5294.256344613,22.309712,0,0.54802495192,7300,2018-05-12 16:20:01,13,0,23.009,5294.256344613,22.309712,0,0.54802495192,0,0,-0.671082,324.7, 0.7, -1.9,0,0,1024,1024,1024,1024,325.4,-89.9,100,3.947,3.944,3.922,3.935,3.961,3.944,22.342,60.8,14,Waypoint,
38.2001181,-120.0383163,5295.240596613,23.293964,0,0.59491799804,7400,2018-05-12 16:20:01,12,0,23.009,5295.240596613,23.293964,0,0.59491799804,0,0,-0.671082,324.7, 0.5, -1.9,0,0,1024,1024,1024,1024,325.4,-89.9,100,3.947,3.944,3.922,3.935,3.961,3.944,22.342,60.8,14,Waypoint,
38.2001182,-120.038316,5296.224848613,24.278216,0,0.65190946968,7500,2018-05-12 16:20:01,12,0,23.009,5296.224848613,24.278216,0,0.65190946968,0,0,-0.671082,324.8, 0.3, -1.7,0,0,1024,1024,1024,1024,325.4,-90,100,3.947,3.944,3.922,3.935,3.961,3.944,22.342,60.8,14,Waypoint,
38.2001183,-120.0383157,5297.209100613,25.262468,0,0.71659123028,7600,2018-05-12 16:20:01,11,0,23.009,5297.209100613,25.262468,0,0.71659123028,0,0,-0.671082,324.8, 0, -1.4,0,0,1024,1024,1024,1024,325.4,-90,100,3.947,3.944,3.922,3.935,3.961,3.944,22.342,60.8,14,Waypoint,
38.2001184,-120.0383154,5298.521436613,26.574804,0,0.78706695432,7710,2018-05-12 16:20:01,11,0,23.009,5298.521436613,26.574804,0,0.78706695432,0,0,-0.671082,324.9, -0.1, -1.4,0,0,1024,1024,1024,1024,325.4,-90,100,3.947,3.944,3.922,3.935,3.961,3.944,22.342,60.8,14,Waypoint,
38.2001184,-120.0383152,5299.505688613,27.559056,0,0.81579070852,7800,2018-05-12 16:20:01,10,0,23.009,5299.505688613,27.559056,0,0.81579070852,0,0,-0.671082,324.9, -0.3, -1.5,0,0,1024,1024,1024,1024,325.4,-90,100,3.947,3.944,3.922,3.935,3.961,3.944,22.342,60.8,14,Waypoint,
38.2001184,-120.038315,5300.489940613,28.543308,0,0.8474245678,7900,2018-05-12 16:20:01,10,0,23.009,5300.489940613,28.543308,0,0.8474245678,0,0,-0.671082,324.9, -0.3, -1.5,0,0,1024,1024,1024,1024,325.4,-90,100,3.947,3.944,3.922,3.935,3.961,3.944,22.342,60.8,14,Waypoint,
38.2001184,-120.0383148,5301.802276613,29.855644,0,0.88165357152,8000,2018-05-12 16:20:01,11,0,23.009,5301.802276613,29.855644,0,0.88165357152,0,0,-0.671082,324.8, -0.3, -1.4,0,0,1024,1024,1024,1024,325.4,-90,98,3.849,3.815,3.798,3.808,3.829,3.827,22.342,60.8,14,Waypoint,
38.2001184,-120.0383148,5302.786528613,30.839896,0,0.88165357152,8200,2018-05-12 16:20:02,11,0,23.009,5302.786528613,30.839896,0,0.88165357152,0,0,-0.671082,324.8, -0.4, -1.2,0,0,1024,1024,1024,1024,325.4,-90,98,3.849,3.815,3.798,3.808,3.829,3.827,22.342,60.8,14,Waypoint,
38.2001184,-120.0383147,5303.770780613,31.824148,0,0.89965225976,8300,2018-05-12 16:20:02,11,0,23.009,5303.770780613,31.824148,0,0.89965225976,0,0,-0.671082,324.7, -0.3, -0.9,0,0,1024,1024,1024,1024,325.4,-90,98,3.849,3.815,3.798,3.808,3.829,3.827,22.342,60.8,14,Waypoint,
38.2001183,-120.0383145,5304.755032613,32.8084,0,0.91059386116,8400,2018-05-12 16:20:02,11,0,23.009,5304.755032613,32.8084,0,0.91059386116,0,0,-0.671082,324.7, -0.4, -0.7,0,0,1024,1024,1024,1024,325.4,-90,98,3.849,3.815,3.798,3.808,3.829,3.827,22.342,60.8,14,Waypoint,
38.2001183,-120.0383144,5305.739284613,33.792652,0,0.93068244448,8500,2018-05-12 16:20:02,12,0,23.009,5305.739284613,33.792652,0,0.93068244448,0,0,-0.671082,324.6, -0.6, -0.7,0,0,1024,1024,1024,1024,325.4,-90,98,3.849,3.815,3.798,3.808,3.829,3.827,22.342,60.8,14,Waypoint,
38.2001183,-120.0383143,5306.723536613,34.776904,0,0.9512139412,8600,2018-05-12 16:20:02,12,0,23.009,5306.723536613,34.776904,0,0.9512139412,0,0,-0.671082,324.6, -0.8, -0.8,0,0,1024,1024,1024,1024,325.4,-90,98,3.849,3.815,3.798,3.808,3.829,3.827,22.342,60.8,14,Waypoint,
38.2001183,-120.0383142,5307.707788613,35.761156,0,0.97215882376,8700,2018-05-12 16:20:02,11,0,23.009,5307.707788613,35.761156,0,0.97215882376,0,0,-0.671082,324.6, -0.7, -0.9,0,0,1024,1024,1024,1024,325.4,-89.9,98,3.849,3.815,3.798,3.808,3.829,3.827,22.342,60.8,14,Waypoint,
38.2001183,-120.0383142,5308.692040613,36.745408,0,0.97215882376,8800,2018-05-12 16:20:02,11,0,23.009,5308.692040613,36.745408,0,0.97215882376,0,0,-0.671082,324.6, -0.6, -0.8,0,0,1024,1024,1024,1024,325.4,-89.9,98,3.849,3.815,3.798,3.808,3.829,3.827,22.342,60.8,14,Waypoint,
38.2001182,-120.0383142,5309.676292613,37.72966,0.223694,0.94789373112,8900,2018-05-12 16:20:02,10,0,23.009,5309.676292613,37.72966,0.223694,0.97215882376,0,0,-0.671082,324.6, -0.4, -0.6,0,0,1024,1024,1024,1024,325.4,-89.9,98,3.849,3.815,3.798,3.808,3.829,3.827,22.342,60.8,14,Waypoint,
38.2001181,-120.0383141,5310.660544613,38.713912,0,0.94683730064,9000,2018-05-12 16:20:02,10,0,22.817,5310.660544613,38.713912,0.223694,0.97215882376,0,0,-0.671082,324.6, -0.3, -0.5,0,0,1024,1024,1024,1024,325.4,-90,98,3.834,3.805,3.798,3.808,3.845,3.828,24.071,60.8,14,Waypoint,
38.2001181,-120.0383141,5311.644796613,39.698164,0,0.94683730064,9100,2018-05-12 16:20:03,11,0,22.817,5311.644796613,39.698164,0.223694,0.97215882376,0,0,-0.671082,324.6, -0.4, -0.4,0,0,1024,1024,1024,1024,325.4,-89.9,98,3.834,3.805,3.798,3.808,3.845,3.828,24.071,60.8,14,Waypoint,
38.200118,-120.0383141,5312.629048613,40.682416,0.223694,0.924786775,9200,2018-05-12 16:20:03,11,0,22.817,5312.629048613,40.682416,0.223694,0.97215882376,0,0,-0.671082,324.7, -0.6, -0.4,0,0,1025,1024,1024,1024,325.4,-89.9,98,3.834,3.805,3.798,3.808,3.845,3.828,24.071,60.8,14,Waypoint,
38.200118,-120.0383141,5314.597552613,42.65092,0.223694,0.924786775,9300,2018-05-12 16:20:03,13,0,22.817,5314.597552613,42.65092,0.223694,0.97215882376,0,0,-0.671082,324.8, -0.6, -0.3,0,0,1028,1024,1024,1024,325.4,-90,98,3.834,3.805,3.798,3.808,3.845,3.828,24.071,60.8,14,Waypoint,
38.2001178,-120.0383143,5316.566056613,44.619424,0.223694,0.83575133908,9500,2018-05-12 16:20:03,12,0,22.817,5316.566056613,44.619424,0.223694,0.97215882376,0,0,-0.671082,324.9, -0.5, 0,0,0,1027,1024,1024,1024,325.4,-89.9,98,3.834,3.805,3.798,3.808,3.845,3.828,24.071,60.8,14,Waypoint,
38.2001177,-120.0383144,5317.550308613,45.603676,0.223694,0.79155842428,9600,2018-05-12 16:20:03,12,0,22.817,5317.550308613,45.603676,0.223694,0.97215882376,0,0,-0.671082,324.9, -0.4, 0.3,0,0,1031,1024,1024,1024,325.4,-90,98,3.834,3.805,3.798,3.808,3.845,3.828,24.071,60.8,14,Waypoint,
38.2001177,-120.0383145,5318.534560613,46.587928,0.223694,0.76783467024,9700,2018-05-12 16:20:03,12,0,22.817,5318.534560613,46.587928,0.223694,0.97215882376,0,0,-0.671082,324.9, -0.5, 0.4,0,0,1033,1024,1024,1024,325.4,-90,98,3.834,3.805,3.798,3.808,3.845,3.828,24.071,60.8,14,Waypoint,
38.2001177,-120.0383145,5319.518812613,47.57218,0.223694,0.76783467024,9800,2018-05-12 16:20:03,12,0,22.817,5319.518812613,47.57218,0.223694,0.97215882376,0,0,-0.671082,324.9, -0.5, 0.4,0,0,1033,1024,1024,1024,325.4,-90,98,3.834,3.805,3.798,3.808,3.845,3.828,24.071,60.8,14,Waypoint,
38.2001177,-120.0383145,5320.503064613,48.556432,0.223694,0.76783467024,9900,2018-05-12 16:20:03,12,0,22.817,5320.503064613,48.556432,0.223694,0.97215882376,0,0,-0.671082,324.9, -0.4, 0.2,0,0,1031,1024,1024,1024,325.4,-89.9,98,3.834,3.805,3.798,3.808,3.845,3.828,24.071,60.8,14,Waypoint,
38.2001177,-120.0383146,5321.487316613,49.540684,0.223694,0.74446196608,10000,2018-05-12 16:20:03,12,0,23.131,5321.487316613,49.540684,0.223694,0.97215882376,0,0,-0.671082,324.9, -0.3, 0,0,0,1024,1024,1024,1024,325.4,-89.9,98,3.884,3.84,3.85,3.843,3.879,3.874,18.607,60.8,14,Waypoint,
38.2001177,-120.0383147,5322.471568613,50.524936,0.223694,0.72146983936,10100,2018-05-12 16:20:04,12,0,23.131,5322.471568613,50.524936,0.223694,0.97215882376,0,0,-0.671082,324.9, -0.2, -0.1,0,0,1024,1024,1024,1024,325.4,-89.9,98,3.884,3.84,3.85,3.843,3.879,3.874,18.607,60.8,14,Waypoint,
38.2001177,-120.038315,5324.440072613,52.49344,0.223694,0.655183748,10310,2018-05-12 16:20:04,12,0,23.131,5324.440072613,52.49344,0.223694,0.97215882376,0,0,-0.671082,324.8, 0.1, 0,0,0,1024,1024,1024,1024,325.4,-89.9,98,3.884,3.84,3.85,3.843,3.879,3.874,18.607,60.8,14,Waypoint,
38.2001177,-120.0383151,5325.424324613,53.477692,0.223694,0.63414372108,10400,2018-05-12 16:20:04,12,0,23.131,5325.424324613,53.477692,0.223694,0.97215882376,0,0,-0.671082,324.8, 0.3, 0.2,0,0,1024,1024,1024,1024,325.4,-89.9,98,3.884,3.84,3.85,3.843,3.879,3.874,18.607,60.8,14,Waypoint,
38.2001178,-120.0383152,5326.408576613,54.461944,0.223694,0.64025920684,10500,2018-05-12 16:20:04,12,0,23.131,5326.408576613,54.461944,0.223694,0.97215882376,0,0,-0.671082,324.8, 0.4, 0.4,0,0,1024,1024,1024,1024,325.4,-89.9,98,3.884,3.84,3.85,3.843,3.879,3.874,18.607,60.8,14,Waypoint,
38.2001178,-120.0383153,5327.392828613,55.446196,0.223694,0.62136156844,10600,2018-05-12 16:20:04,13,0,23.131,5327.392828613,55.446196,0.223694,0.97215882376,0,0,-0.671082,324.8, 0.3, 0.4,0,0,1024,1024,1024,1024,325.4,-89.9,98,3.884,3.84,3.85,3.843,3.879,3.874,18.607,60.8,14,Waypoint,
38.2001177,-120.0383154,5328.377080613,56.430448,0.223694,0.57499345672,10710,2018-05-12 16:20:04,13,0,23.131,5328.377080613,56.430448,0.223694,0.97215882376,0,0,-0.671082,324.8, 0.3, 0.3,0,0,1024,1024,1024,1024,325.4,-89.9,98,3.884,3.84,3.85,3.843,3.879,3.874,18.607,60.8,14,Waypoint,
38.2001177,-120.0383156,5329.361332613,57.4147,0.223694,0.53958991228,10800,2018-05-12 16:20:04,12,0,23.131,5329.361332613,57.4147,0.223694,0.97215882376,0,0,-0.671082,324.8, 0.2, 0.3,0,0,1024,1024,1024,1024,325.4,-89.9,98,3.884,3.84,3.85,3.843,3.879,3.874,18.607,60.8,14,Waypoint,
38.2001177,-120.0383157,5330.345584613,58.398952,0.223694,0.52334975428,11000,2018-05-12 16:20:04,12,0,23.129,5330.345584613,58.398952,0.223694,0.97215882376,0,0,-0.671082,324.8, 0.1, 0.4,0,0,1024,1024,1024,1024,325.4,-89.9,98,3.873,3.836,3.837,3.842,3.888,3.877,18.899,60.8,14,Waypoint,
38.2001177,-120.0383158,5331.329836613,59.383204,0.223694,0.50820539684,11100,2018-05-12 16:20:05,12,0,23.129,5331.329836613,59.383204,0.223694,0.97215882376,0,0,-0.671082,324.8, 0.2, 0.5,0,0,1024,1024,1024,1024,325.4,-89.9,98,3.873,3.836,3.837,3.842,3.888,3.877,18.899,60.8,14,Waypoint,
38.2001177,-120.0383158,5332.314088613,60.367456,0,0.50820539684,11200,2018-05-12 16:20:05,12,0,23.129,5332.314088613,60.367456,0.223694,0.97215882376,0,0,-0.671082,324.8, 0.3, 0.5,0,0,1024,1024,1024,1024,325.4,-89.9,98,3.873,3.836,3.837,3.842,3.888,3.877,18.899,60.8,14,Waypoint,
38.2001177,-120.0383159,5333.298340613,61.351708,0,0.49426510768,11300,2018-05-12 16:20:05,13,0,23.129,5333.298340613,61.351708,0.223694,0.97215882376,0,0,-0.671082,324.7, 0.2, 0.4,0,0,1024,1024,1024,1024,325.4,-89.9,98,3.873,3.836,3.837,3.842,3.888,3.877,18.899,60.8,14,Waypoint,
38.2001177,-120.0383161,5335.266844613,63.320212,0,0.47040355836,11500,2018-05-12 16:20:05,12,0,23.129,5335.266844613,63.320212,0.223694,0.97215882376,0,0,-0.671082,324.5, 0, 0.2,0,0,1024,1024,1024,1024,325.4,-89.9,98,3.873,3.836,3.837,3.842,3.888,3.877,18.899,60.8,14,Waypoint,
38.2001177,-120.0383161,5336.251096613,64.304464,0,0.47040355836,11600,2018-05-12 16:20:05,12,0,23.129,5336.251096613,64.304464,0.223694,0.97215882376,0,0,-0.671082,324.5, 0.1, 0.2,0,0,1024,1024,1024,1024,325.4,-89.9,98,3.873,3.836,3.837,3.842,3.888,3.877,18.899,60.8,14,Waypoint,
38.2001177,-120.0383161,5337.235348613,65.288716,0,0.47040355836,11700,2018-05-12 16:20:05,13,0,23.129,5337.235348613,65.288716,0.223694,0.97215882376,0,0,-0.671082,324.6, 0.1, 0.2,0,0,1024,1024,1024,1024,325.4,-90,98,3.873,3.836,3.837,3.842,3.888,3.877,18.899,60.8,14,Waypoint,
38.2001177,-120.0383162,5339.203852613,67.25722,0,0.46069227196,11800,2018-05-12 16:20:05,14,0,23.129,5339.203852613,67.25722,0.223694,0.97215882376,0,0,-0.671082,324.7, 0, 0.2,0,0,1024,1024,1024,1024,325.4,-90,98,3.873,3.836,3.837,3.842,3.888,3.877,18.899,60.8,14,Waypoint,
38.2001178,-120.0383162,5340.188104613,68.241472,0,0.49549542268,11900,2018-05-12 16:20:05,14,0,23.129,5340.188104613,68.241472,0.223694,0.97215882376,0,0,-0.671082,324.7, 0, 0.3,0,0,1024,1024,1024,1024,325.4,-90,98,3.873,3.836,3.837,3.842,3.888,3.877,18.899,60.8,14,Waypoint,
38.2001178,-120.0383162,5341.172356613,69.225724,0,0.49549542268,12000,2018-05-12 16:20:05,15,0,23.076,5341.172356613,69.225724,0.223694,0.97215882376,0,0,-0.671082,324.7, 0, 0.4,0,0,1024,1024,1024,1024,325.4,-89.9,98,3.852,3.829,3.823,3.838,3.871,3.846,18.893,60.8,14,Waypoint,
38.2001178,-120.0383162,5342.156608613,70.209976,0,0.49549542268,12100,2018-05-12 16:20:06,15,0,23.076,5342.156608613,70.209976,0.223694,0.97215882376,0,0,-0.671082,324.8, 0, 0.3,0,0,1024,1024,1024,1024,325.4,-89.9,98,3.852,3.829,3.823,3.838,3.871,3.846,18.893,60.8,14,Waypoint,
38.2001178,-120.0383163,5343.140860613,71.194228,0,0.48797245656,12200,2018-05-12 16:20:06,15,0,23.076,5343.140860613,71.194228,0.223694,0.97215882376,0,0,-0.671082,324.8, 0.1, 0.1,0,0,1024,1024,1024,1024,325.4,-89.9,98,3.852,3.829,3.823,3.838,3.871,3.846,18.893,60.8,14,Waypoint,
38.2001178,-120.0383163,5344.125112613,72.17848,0,0.48797245656,12300,2018-05-12 16:20:06,15,0,23.076,5344.125112613,72.17848,0.223694,0.97215882376,0,0,-0.671082,324.7, 0, 0.1,0,0,1024,1024,1024,1024,325.4,-90,98,3.852,3.829,3.823,3.838,3.871,3.846,18.893,60.8,14,Waypoint,
38.2001178,-120.0383163,5345.109364613,73.162732,0,0.48797245656,12400,2018-05-12 16:20:06,16,0,23.076,5345.109364613,73.162732,0.223694,0.97215882376,0,0,-0.671082,324.7, 0, 0.1,0,0,1024,1024,1024,1024,325.4,-90,98,3.852,3.829,3.823,3.838,3.871,3.846,18.893,60.8,14,Waypoint,
38.2001178,-120.0383162,5346.093616613,74.146984,0,0.49549542268,12500,2018-05-12 16:20:06,16,0,23.076,5346.093616613,74.146984,0.223694,0.97215882376,0,0,-0.671082,324.6, 0, 0.2,0,0,1024,1024,1024,1024,325.4,-89.9,98,3.852,3.829,3.823,3.838,3.871,3.846,18.893,60.8,14,Waypoint,
38.2001178,-120.0383162,5347.077868613,75.131236,0,0.49549542268,12600,2018-05-12 16:20:06,16,0,23.076,5347.077868613,75.131236,0.223694,0.97215882376,0,0,-0.671082,324.6, 0.1, 0.1,0,0,1024,1024,1024,1024,325.4,-89.9,98,3.852,3.829,3.823,3.838,3.871,3.846,18.893,60.8,14,Waypoint,
38.2001178,-120.0383162,5348.062120613,76.115488,0,0.49549542268,12700,2018-05-12 16:20:06,16,0,23.076,5348.062120613,76.115488,0.223694,0.97215882376,0,0,-0.671082,324.7, 0.1, 0,0,0,1024,1024,1024,1024,325.4,-89.9,98,3.852,3.829,3.823,3.838,3.871,3.846,18.893,60.8,14,Waypoint,
38.2001179,-120.0383162,5349.046372613,77.09974,0,0.53052495136,12810,2018-05-12 16:20:06,16,0,23.076,5349.046372613,77.09974,0.223694,0.97215882376,0,0,-0.671082,324.7, 0.1, 0,0,0,1024,1024,1024,1024,325.4,-89.9,98,3.852,3.829,3.823,3.838,3.871,3.846,18.893,60.8,14,Waypoint,
38.2001179,-120.0383162,5350.030624613,78.083992,0,0.53052495136,12900,2018-05-12 16:20:06,16,0,23.076,5350.030624613,78.083992,0.223694,0.97215882376,0,0,-0.671082,324.8, 0, 0,0,0,1024,1024,1024,1024,325.4,-90,98,3.852,3.829,3.823,3.838,3.871,3.846,18.893,60.8,14,Waypoint,
38.2001179,-120.0383162,5351.014876613,79.068244,0,0.53052495136,13000,2018-05-12 16:20:06,16,0,23.06,5351.014876613,79.068244,0.223694,0.97215882376,0,0,-0.671082,324.9, 0, 0,0,0,1024,1024,1024,1024,325.4,-90,98,3.858,3.829,3.817,3.833,3.867,3.855,18.978,60.8,14,Waypoint,
38.200118,-120.0383161,5352.983380613,81.036748,0,0.57367455904,13200,2018-05-12 16:20:07,16,0,23.06,5352.983380613,81.036748,0.223694,0.97215882376,0,0,-0.671082,325, -0.1, 0,0,0,1024,1024,1024,1024,325.4,-90,98,3.858,3.829,3.817,3.833,3.867,3.855,18.978,60.8,14,Waypoint,
38.2001179,-120.0383161,5354.951884613,83.005252,0,0.53897967604,13410,2018-05-12 16:20:07,16,0,23.06,5354.951884613,83.005252,0.223694,0.97215882376,0,0,-0.671082,324.9, 0, 0.2,0,0,1024,1024,1024,1024,325.4,-89.9,98,3.858,3.829,3.817,3.833,3.867,3.855,18.978,60.8,14,Waypoint,
38.2001179,-120.0383161,5354.951884613,83.005252,0,0.53897967604,13500,2018-05-12 16:20:07,16,0,23.06,5354.951884613,83.005252,0.223694,0.97215882376,0,0,-0.671082,324.9, 0, 0.2,0,0,1024,1024,1024,1024,325.4,-89.9,98,3.858,3.829,3.817,3.833,3.867,3.855,18.978,60.8,14,Waypoint,
38.200118,-120.0383161,5355.608052613,83.66142,0,0.57367455904,13600,2018-05-12 16:20:07,16,0,23.06,5355.608052613,83.66142,0.223694,0.97215882376,0,0,-0.671082,324.8, 0, 0.2,0,0,1024,1024,1024,1024,325.4,-89.9,98,3.858,3.829,3.817,3.833,3.867,3.855,18.978,60.8,14,Waypoint,
38.200118,-120.038316,5356.920388613,84.973756,0,0.58291668532,13700,2018-05-12 16:20:07,16,0,23.06,5356.920388613,84.973756,0.223694,0.97215882376,0,0,-0.671082,324.7, 0, 0,0,0,1024,1024,1024,1024,325.4,-89.9,98,3.858,3.829,3.817,3.833,3.867,3.855,18.978,60.8,14,Waypoint,
38.200118,-120.0383159,5357.904640613,85.958008,0,0.59339896912,13800,2018-05-12 16:20:07,16,0,23.06,5357.904640613,85.958008,0.223694,0.97215882376,0,0,-0.671082,324.7, 0, 0,0,0,1024,1024,1024,1024,325.4,-89.9,98,3.858,3.829,3.817,3.833,3.867,3.855,18.978,60.8,14,Waypoint,
38.200118,-120.0383159,5358.888892613,86.94226,0,0.59339896912,13900,2018-05-12 16:20:07,16,0,23.06,5358.888892613,86.94226,0.223694,0.97215882376,0,0,-0.671082,324.8, 0, 0,0,0,1024,1024,1024,1024,325.4,-90,98,3.858,3.829,3.817,3.833,3.867,3.855,18.978,60.8,14,Waypoint,
38.200118,-120.0383158,5360.857396613,88.910764,0,0.60505907448,14000,2018-05-12 16:20:07,16,0,23.068,5360.857396613,88.910764,0.223694,0.97215882376,0,0,-0.671082,324.9, -0.2, 0,0,0,1024,1024,1024,1024,325.4,-90,98,3.861,3.824,3.821,3.835,3.874,3.857,18.246,60.8,14,Waypoint,
38.200118,-120.0383157,5361.841648613,89.895016,0,0.6178313846,14100,2018-05-12 16:20:08,16,0,23.068,5361.841648613,89.895016,0.223694,0.97215882376,0,0,-0.671082,324.9, -0.2, 0,0,0,1024,1024,1024,1024,325.4,-90,98,3.861,3.824,3.821,3.835,3.874,3.857,18.246,60.8,14,Waypoint,
38.200118,-120.0383157,5362.825900613,90.879268,0,0.6178313846,14200,2018-05-12 16:20:08,16,0,23.068,5362.825900613,90.879268,0.223694,0.97215882376,0,0,-0.671082,324.9, -0.2, 0,0,0,1024,1024,1024,1024,325.4,-90,98,3.861,3.824,3.821,3.835,3.874,3.857,18.246,60.8,14,Waypoint,
38.200118,-120.0383156,5363.482068613,91.535436,0,0.63165028268,14300,2018-05-12 16:20:08,16,0,23.068,5363.482068613,91.535436,0.223694,0.97215882376,0,0,-0.671082,324.9, -0.3, 0,0,0,1024,1024,1024,1024,325.4,-90,98,3.861,3.824,3.821,3.835,3.874,3.857,18.246,60.8,14,Waypoint,
38.2001181,-120.0383156,5364.466320613,92.519688,0,0.66351051992,14400,2018-05-12 16:20:08,17,0,23.068,5364.466320613,92.519688,0.223694,0.97215882376,0,0,-0.671082,324.8, -0.2, 0,0,0,1024,1024,1024,1024,325.4,-89.9,98,3.861,3.824,3.821,3.835,3.874,3.857,18.246,60.8,14,Waypoint,
38.2001181,-120.0383155,5365.450572613,93.50394,0,0.6776082894,14500,2018-05-12 16:20:08,17,0,23.068,5365.450572613,93.50394,0.223694,0.97215882376,0,0,-0.671082,324.8, -0.2, 0,0,0,1024,1024,1024,1024,325.4,-89.9,98,3.861,3.824,3.821,3.835,3.874,3.857,18.246,60.8,14,Waypoint,
38.2001181,-120.0383155,5366.434824613,94.488192,0,0.6776082894,14600,2018-05-12 16:20:08,17,0,23.068,5366.434824613,94.488192,0.223694,0.97215882376,0,0,-0.671082,324.8, -0.1, -0.1,0,0,1024,1024,1024,1024,325.4,-89.9,98,3.861,3.824,3.821,3.835,3.874,3.857,18.246,60.8,14,Waypoint,
38.2001181,-120.0383154,5367.419076613,95.472444,0,0.69260828988,14700,2018-05-12 16:20:08,17,0,23.068,5367.419076613,95.472444,0.223694,0.97215882376,0,0,-0.671082,324.8, -0.1, -0.2,0,0,1024,1024,1024,1024,325.4,-89.9,98,3.861,3.824,3.821,3.835,3.874,3.857,18.246,60.8,14,Waypoint,
38.2001181,-120.0383153,5368.403328613,96.456696,0,0.70845146624,14800,2018-05-12 16:20:08,16,0,23.068,5368.403328613,96.456696,0.223694,0.97215882376,0,0,-0.671082,324.8, 0, -0.3,0,0,1024,1024,1024,1024,325.4,-89.9,98,3.861,3.824,3.821,3.835,3.874,3.857,18.246,60.8,14,Waypoint,
38.2001182,-120.0383153,5369.387580613,97.440948,0,0.73880251708,14900,2018-05-12 16:20:08,16,0,23.068,5369.387580613,97.440948,0.223694,0.97215882376,0,0,-0.671082,324.8, -0.1, -0.2,0,0,1024,1024,1024,1024,325.4,-89.9,98,3.861,3.824,3.821,3.835,3.874,3.857,18.246,60.8,14,Waypoint,
38.2001182,-120.0383152,5370.371832613,98.4252,0,0.75476380368,15000,2018-05-12 16:20:08,17,0,23.015,5370.371832613,98.4252,0.223694,0.97215882376,0,0,-0.671082,324.8, -0.1, -0.3,0,0,1024,1024,1024,1024,325.4,-89.9,98,3.848,3.819,3.814,3.825,3.867,3.845,18.738,60.8,14,Waypoint,
38.2001182,-120.0383152,5372.340336613,100.393704,0,0.75476380368,15200,2018-05-12 16:20:09,17,0,23.015,5372.340336613,100.393704,0.223694,0.97215882376,0,0,-0.671082,324.8, -0.1, -0.2,0,0,1024,1024,1024,1024,325.4,-89.9,98,3.848,3.819,3.814,3.825,3.867,3.845,18.738,60.8,14,Waypoint,
38.2001182,-120.0383152,5373.324588613,101.377956,0,0.75476380368,15300,2018-05-12 16:20:09,17,0,23.015,5373.324588613,101.377956,0.223694,0.97215882376,0,0,-0.671082,324.8, -0.1, -0.1,0,0,1024,1024,1024,1024,325.4,-89.9,98,3.848,3.819,3.814,3.825,3.867,3.845,18.738,60.8,14,Waypoint,
38.2001182,-120.0383151,5375.293092613,103.34646,0,0.77146327928,15500,2018-05-12 16:20:09,17,0,23.015,5375.293092613,103.34646,0.223694,0.97215882376,0,0,-0.671082,324.8, 0, -0.1,0,0,1024,1024,1024,1024,325.4,-89.9,98,3.848,3.819,3.814,3.825,3.867,3.845,18.738,60.8,14,Waypoint,
38.2001182,-120.0383151,5376.277344613,104.330712,0,0.77146327928,15700,2018-05-12 16:20:09,17,0,23.015,5376.277344613,104.330712,0.223694,0.97215882376,0,0,-0.671082,324.8, -0.1, -0.2,0,0,1024,1024,1024,1024,325.4,-90,98,3.848,3.819,3.814,3.825,3.867,3.845,18.738,60.8,14,Waypoint,
38.2001182,-120.0383151,5377.261596613,105.314964,0,0.77146327928,15800,2018-05-12 16:20:09,17,0,23.015,5377.261596613,105.314964,0.223694,0.97215882376,0,0,-0.671082,324.7, -0.1, -0.2,0,0,1024,1024,1024,1024,325.4,-90,98,3.848,3.819,3.814,3.825,3.867,3.845,18.738,60.8,14,Waypoint,
38.2001182,-120.0383151,5378.245848613,106.299216,0,0.77146327928,15900,2018-05-12 16:20:09,17,0,23.015,5378.245848613,106.299216,0.223694,0.97215882376,0,0,-0.671082,324.7, -0.1, -0.2,0,0,1024,1024,1024,1024,325.4,-89.9,98,3.848,3.819,3.814,3.825,3.867,3.845,18.738,60.8,14,Waypoint,
38.2001182,-120.0383151,5379.230100613,107.283468,0.223694,0.77146327928,16000,2018-05-12 16:20:09,17,0,23.002,5379.230100613,107.283468,0.223694,0.97215882376,0,0,-0.671082,324.7, -0.1, -0.1,0,0,1024,1024,1024,1024,325.4,-90,98,3.853,3.82,3.817,3.811,3.86,3.837,18.709,60.8,14,Waypoint,
38.2001181,-120.0383151,5380.542436613,108.595804,0.223694,0.74244753032,16100,2018-05-12 16:20:10,17,0,23.002,5380.542436613,108.595804,0.223694,0.97215882376,0,0,-0.671082,324.8, -0.1, 0,0,0,1024,1024,1024,1024,325.4,-89.9,98,3.853,3.82,3.817,3.811,3.86,3.837,18.709,60.8,14,Waypoint,
38.2001181,-120.0383151,5381.526688613,109.580056,0.223694,0.74244753032,16200,2018-05-12 16:20:10,17,0,23.002,5381.526688613,109.580056,0.223694,0.97215882376,0,0,-0.671082,324.8, -0.1, 0.1,0,0,1024,1024,1024,1024,325.4,-89.9,98,3.853,3.82,3.817,3.811,3.86,3.837,18.709,60.8,14,Waypoint,
38.2001181,-120.0383151,5382.510940613,110.564308,0.223694,0.74244753032,16300,2018-05-12 16:20:10,17,0,23.002,5382.510940613,110.564308,0.223694,0.97215882376,0,0,-0.671082,324.9, -0.1, 0.3,0,0,1024,1024,1024,1024,325.4,-89.9,98,3.853,3.82,3.817,3.811,3.86,3.837,18.709,60.8,14,Waypoint,
38.2001181,-120.0383151,5383.495192613,111.54856,0.223694,0.74244753032,16400,2018-05-12 16:20:10,17,0,23.002,5383.495192613,111.54856,0.223694,0.97215882376,0,0,-0.671082,324.8, 0, 0.4,0,0,1024,1024,1024,1024,325.4,-89.9,98,3.853,3.82,3.817,3.811,3.86,3.837,18.709,60.8,14,Waypoint,
38.2001181,-120.0383151,5384.479444613,112.532812,0.223694,0.74244753032,16500,2018-05-12 16:20:10,17,0,23.002,5384.479444613,112.532812,0.223694,0.97215882376,0,0,-0.671082,324.8, 0, 0.4,0,0,1024,1024,1024,1024,325.4,-89.9,98,3.853,3.82,3.817,3.811,3.86,3.837,18.709,60.8,14,Waypoint,
38.2001181,-120.0383151,5386.119864613,114.173232,0.223694,0.74244753032,16600,2018-05-12 16:20:10,17,0,23.002,5386.119864613,114.173232,0.223694,0.97215882376,0,0,-0.671082,324.6, 0, 0.4,0,0,1024,1024,1024,1024,325.4,-89.9,98,3.853,3.82,3.817,3.811,3.86,3.837,18.709,60.8,14,Waypoint,
38.2001181,-120.0383151,5387.104116613,115.157484,0,0.74244753032,16700,2018-05-12 16:20:10,17,0,23.002,5387.104116613,115.157484,0.223694,0.97215882376,0,0,-0.671082,324.6, 0.1, 0.3,0,0,1024,1024,1024,1024,325.4,-89.9,98,3.853,3.82,3.817,3.811,3.86,3.837,18.709,60.8,14,Waypoint,
38.2001181,-120.0383151,5388.088368613,116.141736,0,0.74244753032,16800,2018-05-12 16:20:10,17,0,23.002,5388.088368613,116.141736,0.223694,0.97215882376,0,0,-0.671082,324.6, 0.2, 0.1,0,0,1024,1024,1024,1024,325.4,-89.9,98,3.853,3.82,3.817,3.811,3.86,3.837,18.709,60.8,14,Waypoint,
38.2001181,-120.0383151,5389.072620613,117.125988,0,0.74244753032,16900,2018-05-12 16:20:10,17,0,23.002,5389.072620613,117.125988,0.223694,0.97215882376,0,0,-0.671082,324.6, 0.2, 0,0,0,1024,1024,1024,1024,325.4,-89.9,98,3.853,3.82,3.817,3.811,3.86,3.837,18.709,60.8,14,Waypoint,
38.2001181,-120.0383151,5390.056872613,118.11024,0,0.74244753032,17000,2018-05-12 16:20:10,17,0,23.002,5390.056872613,118.11024,0.223694,0.97215882376,0,0,-0.671082,324.7, 0.1, 0,0,0,1024,1024,1024,1024,325.4,-89.9,98,3.853,3.82,3.817,3.811,3.86,3.837,18.709,60.8,14,Waypoint,
38.2001181,-120.0383151,5391.041124613,119.094492,0,0.74244753032,17100,2018-05-12 16:20:11,17,0,23.002,5391.041124613,119.094492,0.223694,0.97215882376,0,0,-0.671082,324.8, 0, 0,0,0,1024,1024,1024,1024,325.4,-90,98,3.853,3.82,3.817,3.811,3.86,3.837,18.709,60.8,14,Waypoint,
38.2001181,-120.0383151,5392.025376613,120.078744,0,0.74244753032,17200,2018-05-12 16:20:11,17,0,23.002,5392.025376613,120.078744,0.223694,0.97215882376,0,0,-0.671082,324.9, 0, 0,0,0,1024,1024,1024,1024,325.4,-89.9,98,3.853,3.82,3.817,3.811,3.86,3.837,18.709,60.8,14,Waypoint,
38.200118,-120.0383151,5393.009628613,121.062996,0,0.71411419608,17300,2018-05-12 16:20:11,17,0,23.002,5393.009628613,121.062996,0.223694,0.97215882376,0,0,-0.671082,325, -0.1, 0.2,0,0,1024,1024,1024,1024,325.4,-90,98,3.853,3.82,3.817,3.811,3.86,3.837,18.709,60.8,14,Waypoint,
38.200118,-120.0383152,5393.993880613,122.047248,0,0.69604332936,17400,2018-05-12 16:20:11,17,0,23.002,5393.993880613,122.047248,0.223694,0.97215882376,0,0,-0.671082,325.1, -0.3, 0.4,0,0,1024,1024,1024,1024,325.4,-90,98,3.853,3.82,3.817,3.811,3.86,3.837,18.709,60.8,14,Waypoint,
38.200118,-120.0383151,5394.978132613,123.0315,0,0.71411419608,17510,2018-05-12 16:20:11,17,0,23.002,5394.978132613,123.0315,0.223694,0.97215882376,0,0,-0.671082,325.1, -0.4, 0.6,0,0,1024,1024,1024,1024,325.4,-89.9,98,3.853,3.82,3.817,3.811,3.86,3.837,18.709,60.8,14,Waypoint,
38.2001179,-120.0383151,5395.962384613,124.015752,0,0.68655514008,17610,2018-05-12 16:20:11,17,0,23.002,5395.962384613,124.015752,0.223694,0.97215882376,0,0,-0.671082,325.1, -0.4, 0.5,0,0,1024,1024,1024,1024,325.4,-89.9,98,3.853,3.82,3.817,3.811,3.86,3.837,18.709,60.8,14,Waypoint,
38.2001179,-120.0383152,5397.274720613,125.328088,0,0.66773624184,17700,2018-05-12 16:20:11,17,0,23.002,5397.274720613,125.328088,0.223694,0.97215882376,0,0,-0.671082,325, -0.3, 0.4,0,0,1024,1024,1024,1024,325.4,-90,98,3.853,3.82,3.817,3.811,3.86,3.837,18.709,60.8,14,Waypoint,
38.2001179,-120.0383152,5398.258972613,126.31234,0,0.66773624184,17800,2018-05-12 16:20:11,17,0,23.002,5398.258972613,126.31234,0.223694,0.97215882376,0,0,-0.671082,324.9, -0.4, 0.3,0,0,1024,1024,1024,1024,325.4,-90,98,3.853,3.82,3.817,3.811,3.86,3.837,18.709,60.8,14,Waypoint,
38.2001179,-120.0383152,5400.227476613,128.280844,0,0.66773624184,18000,2018-05-12 16:20:11,17,0,22.957,5400.227476613,128.280844,0.223694,0.97215882376,0,0,-0.671082,324.7, -0.3, 0.1,0,0,1024,1024,1024,1024,325.4,-89.9,97,3.839,3.805,3.813,3.819,3.873,3.829,18.434,62.6,14,Waypoint,
38.2001179,-120.0383152,5400.883644613,128.937012,0,0.66773624184,18200,2018-05-12 16:20:12,17,0,22.957,5400.883644613,128.937012,0.223694,0.97215882376,0,0,-0.671082,324.6, -0.2, 0.2,0,0,1024,1024,1024,1024,325.4,-89.9,97,3.839,3.805,3.813,3.819,3.873,3.829,18.434,62.6,14,Waypoint,
38.2001179,-120.0383152,5402.195980613,130.249348,0,0.66773624184,18300,2018-05-12 16:20:12,17,0,22.957,5402.195980613,130.249348,0.223694,0.97215882376,0,0,-0.671082,324.5, -0.1, 0.1,0,0,1024,1024,1024,1024,325.4,-89.9,97,3.839,3.805,3.813,3.819,3.873,3.829,18.434,62.6,14,Waypoint,
38.200118,-120.0383152,5403.180232613,131.2336,0,0.69604332936,18400,2018-05-12 16:20:12,17,0,22.957,5403.180232613,131.2336,0.223694,0.97215882376,0,0,-0.671082,324.5, 0, 0.2,0,0,1024,1024,1024,1024,325.4,-89.9,97,3.839,3.805,3.813,3.819,3.873,3.829,18.434,62.6,14,Waypoint,
38.200118,-120.0383152,5404.164484613,132.217852,0,0.69604332936,18500,2018-05-12 16:20:12,17,0,22.957,5404.164484613,132.217852,0.223694,0.97215882376,0,0,-0.671082,324.5, 0.1, 0.2,0,0,1024,1024,1024,1024,325.4,-89.9,97,3.839,3.805,3.813,3.819,3.873,3.829,18.434,62.6,14,Waypoint,
38.200118,-120.0383152,5405.148736613,133.202104,0,0.69604332936,18600,2018-05-12 16:20:12,17,0,22.957,5405.148736613,133.202104,0.223694,0.97215882376,0,0,-0.671082,324.6, 0.1, 0.2,0,0,1024,1024,1024,1024,325.4,-89.9,97,3.839,3.805,3.813,3.819,3.873,3.829,18.434,62.6,14,Waypoint,
38.2001181,-120.0383153,5406.132988613,134.186356,0,0.70845146624,18700,2018-05-12 16:20:12,17,0,22.957,5406.132988613,134.186356,0.223694,0.97215882376,0,0,-0.671082,324.7, 0.1, 0.1,0,0,1024,1024,1024,1024,325.4,-90,97,3.839,3.805,3.813,3.819,3.873,3.829,18.434,62.6,14,Waypoint,
38.2001181,-120.0383152,5408.101492613,136.15486,0,0.7250820442,18800,2018-05-12 16:20:12,17,0,22.957,5408.101492613,136.15486,0.223694,0.97215882376,0,0,-0.671082,324.8, 0, 0.1,0,0,1024,1024,1024,1024,325.4,-89.9,97,3.839,3.805,3.813,3.819,3.873,3.829,18.434,62.6,14,Waypoint,
38.2001182,-120.0383152,5409.085744613,137.139112,0,0.75476380368,18900,2018-05-12 16:20:12,17,0,22.957,5409.085744613,137.139112,0.223694,0.97215882376,0,0,-0.671082,324.8, 0, 0,0,0,1024,1024,1024,1024,325.4,-90,97,3.839,3.805,3.813,3.819,3.873,3.829,18.434,62.6,14,Waypoint,
38.2001182,-120.0383152,5410.069996613,138.123364,0,0.75476380368,19000,2018-05-12 16:20:12,17,0,22.957,5410.069996613,138.123364,0.223694,0.97215882376,0,0,-0.671082,324.8, -0.1, -0.1,0,0,1024,1024,1024,1024,325.4,-89.9,97,3.834,3.8,3.807,3.808,3.859,3.83,18.434,62.6,14,Waypoint,
38.2001182,-120.0383152,5411.054248613,139.107616,0,0.75476380368,19100,2018-05-12 16:20:13,17,0,22.957,5411.054248613,139.107616,0.223694,0.97215882376,0,0,-0.671082,324.8, -0.2, -0.1,0,0,1024,1024,1024,1024,325.4,-90,97,3.834,3.8,3.807,3.808,3.859,3.83,18.434,62.6,14,Waypoint,
38.2001182,-120.0383153,5412.038500613,140.091868,0,0.73880251708,19200,2018-05-12 16:20:13,17,0,22.957,5412.038500613,140.091868,0.223694,0.97215882376,0,0,-0.671082,324.8, -0.2, -0.1,0,0,1024,1024,1024,1024,325.4,-90,97,3.834,3.8,3.807,3.808,3.859,3.83,18.434,62.6,14,Waypoint,
38.2001182,-120.0383153,5413.022752613,141.07612,0,0.73880251708,19300,2018-05-12 16:20:13,17,0,22.957,5413.022752613,141.07612,0.223694,0.97215882376,0,0,-0.671082,324.8, -0.1, 0,0,0,1024,1024,1024,1024,325.4,-89.9,97,3.834,3.8,3.807,3.808,3.859,3.83,18.434,62.6,14,Waypoint,
38.2001182,-120.0383153,5414.007004613,142.060372,0,0.73880251708,19400,2018-05-12 16:20:13,17,0,22.957,5414.007004613,142.060372,0.223694,0.97215882376,0,0,-0.671082,324.8, 0, 0,0,0,1024,1024,1024,1024,325.4,-89.9,97,3.834,3.8,3.807,3.808,3.859,3.83,18.434,62.6,14,Waypoint,
38.2001183,-120.0383153,5414.991256613,143.044624,0.223694,0.76968834484,19500,2018-05-12 16:20:13,17,0,22.957,5414.991256613,143.044624,0.223694,0.97215882376,0,0,-0.671082,324.8, 0, 0.2,0,0,1024,1024,1024,1024,325.4,-89.9,97,3.834,3.8,3.807,3.808,3.859,3.83,18.434,62.6,14,Waypoint,
38.2001183,-120.0383153,5415.975508613,144.028876,0,0.76968834484,19600,2018-05-12 16:20:13,17,0,22.957,5415.975508613,144.028876,0.223694,0.97215882376,0,0,-0.671082,324.8, 0, 0.2,0,0,1024,1024,1024,1024,325.4,-89.9,97,3.834,3.8,3.807,3.808,3.859,3.83,18.434,62.6,14,Waypoint,
38.2001183,-120.0383153,5416.959760613,145.013128,0,0.76968834484,19700,2018-05-12 16:20:13,17,0,22.957,5416.959760613,145.013128,0.223694,0.97215882376,0,0,-0.671082,324.7, 0, 0.1,0,0,1024,1024,1024,1024,325.4,-90,97,3.834,3.8,3.807,3.808,3.859,3.83,18.434,62.6,14,Waypoint,
38.2001183,-120.0383154,5417.944012613,145.99738,0,0.75513125776,19800,2018-05-12 16:20:13,17,0,22.957,5417.944012613,145.99738,0.223694,0.97215882376,0,0,-0.671082,324.6, -0.1, 0.1,0,0,1024,1024,1024,1024,325.4,-90,97,3.834,3.8,3.807,3.808,3.859,3.83,18.434,62.6,14,Waypoint,
38.2001183,-120.0383154,5418.928264613,146.981632,0,0.75513125776,19900,2018-05-12 16:20:13,17,0,22.957,5418.928264613,146.981632,0.223694,0.97215882376,0,0,-0.671082,324.6, -0.1, 0.2,0,0,1024,1024,1024,1024,325.4,-89.9,97,3.834,3.8,3.807,3.808,3.859,3.83,18.434,62.6,14,Waypoint,
38.2001183,-120.0383154,5419.912516613,147.965884,0.223694,0.75513125776,20000,2018-05-12 16:20:13,17,0,22.977,5419.912516613,147.965884,0.223694,0.97215882376,0,0,-0.671082,324.6, -0.3, 0.3,0,0,1024,1024,1024,1024,325.4,-90,97,3.84,3.804,3.812,3.813,3.866,3.832,18.223,62.6,14,Waypoint,
38.2001183,-120.0383154,5420.896768613,148.950136,0.223694,0.75513125776,20100,2018-05-12 16:20:14,17,0,22.977,5420.896768613,148.950136,0.223694,0.97215882376,0,0,-0.671082,324.6, -0.3, 0.5,0,0,1024,1024,1024,1024,325.4,-90,97,3.84,3.804,3.812,3.813,3.866,3.832,18.223,62.6,14,Waypoint,
38.2001183,-120.0383154,5421.881020613,149.934388,0,0.75513125776,20200,2018-05-12 16:20:14,17,0,22.977,5421.881020613,149.934388,0.223694,0.97215882376,0,0,-0.671082,324.6, -0.4, 0.5,0,0,1024,1024,1024,1024,325.4,-90,97,3.84,3.804,3.812,3.813,3.866,3.832,18.223,62.6,14,Waypoint,
38.2001183,-120.0383154,5422.865272613,150.91864,0,0.75513125776,20400,2018-05-12 16:20:14,17,0,22.977,5422.865272613,150.91864,0.223694,0.97215882376,0,0,-0.671082,324.5, -0.2, 0.5,0,0,1024,1024,1024,1024,325.4,-89.9,97,3.84,3.804,3.812,3.813,3.866,3.832,18.223,62.6,14,Waypoint,
38.2001183,-120.0383154,5423.849524613,151.902892,0,0.75513125776,20500,2018-05-12 16:20:14,17,0,22.977,5423.849524613,151.902892,0.223694,0.97215882376,0,0,-0.671082,324.4, 0, 0.4,0,0,1024,1024,1024,1024,325.4,-89.9,97,3.84,3.804,3.812,3.813,3.866,3.832,18.223,62.6,14,Waypoint,
38.2001184,-120.0383154,5424.833776613,152.887144,0,0.78706695432,20600,2018-05-12 16:20:14,17,0,22.977,5424.833776613,152.887144,0.223694,0.97215882376,0,0,-0.671082,324.4, 0.3, 0.2,0,0,1024,1024,1024,1024,325.4,-89.9,97,3.84,3.804,3.812,3.813,3.866,3.832,18.223,62.6,14,Waypoint,
38.2001184,-120.0383155,5425.489944613,153.543312,0,0.7739009434,20700,2018-05-12 16:20:14,17,0,22.977,5425.489944613,153.543312,0.223694,0.97215882376,0,0,-0.671082,324.5, 0.5, 0.3,0,0,1024,1024,1024,1024,325.4,-89.9,97,3.84,3.804,3.812,3.813,3.866,3.832,18.223,62.6,14,Waypoint,
38.2001185,-120.0383155,5427.458448613,155.511816,0,0.80674543264,20900,2018-05-12 16:20:14,17,0,22.977,5427.458448613,155.511816,0.223694,0.97215882376,0,0,-0.671082,324.9, 0.5, 0.3,0,0,1024,1024,1024,1024,325.4,-89.9,97,3.84,3.804,3.812,3.813,3.866,3.832,18.223,62.6,14,Waypoint,
38.2001185,-120.0383155,5428.442700613,156.496068,0,0.80674543264,21000,2018-05-12 16:20:14,17,0,22.948,5428.442700613,156.496068,0.223694,0.97215882376,0,0,-0.671082,325, 0.4, 0.2,0,0,1024,1024,1024,1024,325.4,-89.9,97,3.84,3.809,3.796,3.809,3.849,3.831,18.218,62.6,14,Waypoint,
38.2001185,-120.0383155,5429.426952613,157.48032,0,0.80674543264,21100,2018-05-12 16:20:15,17,0,22.948,5429.426952613,157.48032,0.223694,0.97215882376,0,0,-0.671082,325.1, 0.3, 0.1,0,0,1024,1024,1024,1024,325.4,-89.9,97,3.84,3.809,3.796,3.809,3.849,3.831,18.218,62.6,14,Waypoint,
38.2001185,-120.0383155,5430.411204613,158.464572,0,0.80674543264,21200,2018-05-12 16:20:15,17,0,22.948,5430.411204613,158.464572,0.223694,0.97215882376,0,0,-0.671082,325, 0.3, 0,0,0,1024,1024,1024,1024,325.4,-89.9,97,3.84,3.809,3.796,3.809,3.849,3.831,18.218,62.6,14,Waypoint,
38.2001185,-120.0383155,5431.395456613,159.448824,0,0.80674543264,21300,2018-05-12 16:20:15,17,0,22.948,5431.395456613,159.448824,0.223694,0.97215882376,0,0,-0.671082,324.9, 0.1, -0.1,0,0,1024,1024,1024,1024,325.4,-90,97,3.84,3.809,3.796,3.809,3.849,3.831,18.218,62.6,14,Waypoint,
38.2001185,-120.0383155,5432.379708613,160.433076,0.223694,0.80674543264,21400,2018-05-12 16:20:15,17,0,22.948,5432.379708613,160.433076,0.223694,0.97215882376,0,0,-0.671082,324.8, 0, 0,0,0,1024,1024,1024,1024,325.4,-90,97,3.84,3.809,3.796,3.809,3.849,3.831,18.218,62.6,14,Waypoint,
38.2001185,-120.0383154,5433.363960613,161.417328,0.223694,0.81938322832,21500,2018-05-12 16:20:15,17,0,22.948,5433.363960613,161.417328,0.223694,0.97215882376,0,0,-0.671082,324.8, 0, 0.1,0,0,1024,1024,1024,1024,325.4,-90,97,3.84,3.809,3.796,3.809,3.849,3.831,18.218,62.6,14,Waypoint,
38.2001185,-120.0383154,5434.348212613,162.40158,0.223694,0.81938322832,21600,2018-05-12 16:20:15,17,0,22.948,5434.348212613,162.40158,0.223694,0.97215882376,0,0,-0.671082,324.7, 0, 0.1,0,0,1024,1024,1024,1024,325.4,-90,97,3.84,3.809,3.796,3.809,3.849,3.831,18.218,62.6,14,Waypoint,
38.2001184,-120.0383154,5436.316716613,164.370084,0.223694,0.78706695432,21700,2018-05-12 16:20:15,17,0,22.948,5436.316716613,164.370084,0.223694,0.97215882376,0,0,-0.671082,324.8, -0.3, 0.2,0,0,1024,1024,1024,1024,325.4,-90,97,3.84,3.809,3.796,3.809,3.849,3.831,18.218,62.6,14,Waypoint,
38.2001184,-120.0383154,5438.285220613,166.338588,0.223694,0.78706695432,21900,2018-05-12 16:20:15,17,0,22.948,5438.285220613,166.338588,0.223694,0.97215882376,0,0,-0.671082,324.9, -0.5, 0.3,0,0,1024,1024,1024,1024,325.4,-90,97,3.84,3.809,3.796,3.809,3.849,3.831,18.218,62.6,14,Waypoint,
38.2001183,-120.0383154,5439.269472613,167.32284,0.223694,0.75513125776,22000,2018-05-12 16:20:15,17,0,22.923,5439.269472613,167.32284,0.223694,0.97215882376,0,0,-0.671082,325, -0.5, 0.3,0,0,1024,1024,1024,1024,325.4,-90,97,3.823,3.804,3.786,3.798,3.841,3.822,18.291,62.6,14,Waypoint,
38.2001183,-120.0383154,5440.581808613,168.635176,0.223694,0.75513125776,22100,2018-05-12 16:20:16,17,0,22.923,5440.581808613,168.635176,0.223694,0.97215882376,0,0,-0.671082,324.9, -0.5, 0.3,0,0,1024,1024,1024,1024,325.4,-90,97,3.823,3.804,3.786,3.798,3.841,3.822,18.291,62.6,14,Waypoint,
38.2001183,-120.0383154,5441.566060613,169.619428,0.223694,0.75513125776,22200,2018-05-12 16:20:16,17,0,22.923,5441.566060613,169.619428,0.223694,0.97215882376,0,0,-0.671082,324.9, -0.5, 0.4,0,0,1024,1024,1024,1024,325.4,-90,97,3.823,3.804,3.786,3.798,3.841,3.822,18.291,62.6,14,Waypoint,
38.2001182,-120.0383154,5443.534564613,171.587932,0.223694,0.72362535124,22400,2018-05-12 16:20:16,17,0,22.923,5443.534564613,171.587932,0.223694,0.97215882376,0,0,-0.671082,325, -0.5, 0.4,0,0,1024,1024,1024,1024,325.4,-90,97,3.823,3.804,3.786,3.798,3.841,3.822,18.291,62.6,14,Waypoint,
38.2001182,-120.0383154,5444.518816613,172.572184,0.223694,0.72362535124,22500,2018-05-12 16:20:16,17,0,22.923,5444.518816613,172.572184,0.223694,0.97215882376,0,0,-0.671082,325, -0.5, 0.4,0,0,1024,1024,1024,1024,325.4,-90,97,3.823,3.804,3.786,3.798,3.841,3.822,18.291,62.6,14,Waypoint,
38.2001182,-120.0383154,5445.503068613,173.556436,0,0.72362535124,22600,2018-05-12 16:20:16,17,0,22.923,5445.503068613,173.556436,0.223694,0.97215882376,0,0,-0.671082,324.9, -0.5, 0.4,0,0,1024,1024,1024,1024,325.4,-89.9,97,3.823,3.804,3.786,3.798,3.841,3.822,18.291,62.6,14,Waypoint,
38.2001182,-120.0383154,5446.159236613,174.212604,0,0.72362535124,22710,2018-05-12 16:20:16,17,0,22.923,5446.159236613,174.212604,0.223694,0.97215882376,0,0,-0.671082,324.8, -0.4, 0.3,0,0,1024,1024,1024,1024,325.4,-90,97,3.823,3.804,3.786,3.798,3.841,3.822,18.291,62.6,14,Waypoint,
38.2001182,-120.0383154,5447.143488613,175.196856,0,0.72362535124,22900,2018-05-12 16:20:16,17,0,22.923,5447.143488613,175.196856,0.223694,0.97215882376,0,0,-0.671082,324.7, -0.4, 0.3,0,0,1024,1024,1024,1024,325.4,-90,97,3.823,3.804,3.786,3.798,3.841,3.822,18.291,62.6,14,Waypoint,
38.2001182,-120.0383154,5448.127740613,176.181108,0,0.72362535124,23000,2018-05-12 16:20:16,17,0,22.844,5448.127740613,176.181108,0.223694,0.97215882376,0,0,-0.671082,324.7, -0.4, 0.3,0,0,1024,1024,1024,1024,325.4,-90,97,3.817,3.788,3.772,3.788,3.835,3.806,19.024,62.6,14,Waypoint,
38.2001182,-120.0383154,5449.111992613,177.16536,0,0.72362535124,23100,2018-05-12 16:20:17,17,0,22.844,5449.111992613,177.16536,0.223694,0.97215882376,0,0,-0.671082,324.6, -0.5, 0.3,0,0,1024,1024,1024,1024,325.4,-90,97,3.817,3.788,3.772,3.788,3.835,3.806,19.024,62.6,14,Waypoint,
38.2001182,-120.0383154,5450.096244613,178.149612,0,0.72362535124,23200,2018-05-12 16:20:17,17,0,22.844,5450.096244613,178.149612,0.223694,0.97215882376,0,0,-0.671082,324.6, -0.5, 0.4,0,0,1024,1024,1024,1024,325.4,-90,97,3.817,3.788,3.772,3.788,3.835,3.806,19.024,62.6,14,Waypoint,
38.2001182,-120.0383154,5451.408580613,179.461948,0,0.72362535124,23300,2018-05-12 16:20:17,17,0,22.844,5451.408580613,179.461948,0.223694,0.97215882376,0,0,-0.671082,324.6, -0.5, 0.4,0,0,1024,1024,1024,1024,325.4,-89.9,97,3.817,3.788,3.772,3.788,3.835,3.806,19.024,62.6,14,Waypoint,
38.2001182,-120.0383154,5452.392832613,180.4462,0,0.72362535124,23400,2018-05-12 16:20:17,17,0,22.844,5452.392832613,180.4462,0.223694,0.97215882376,0,0,-0.671082,324.6, -0.5, 0.5,0,0,1024,1024,1024,1024,325.4,-90,97,3.817,3.788,3.772,3.788,3.835,3.806,19.024,62.6,14,Waypoint,
38.2001181,-120.0383154,5453.377084613,181.430452,0,0.69260828988,23500,2018-05-12 16:20:17,17,0,22.844,5453.377084613,181.430452,0.223694,0.97215882376,0,0,-0.671082,324.7, -0.6, 0.4,0,0,1024,1024,1024,1024,325.4,-90,97,3.817,3.788,3.772,3.788,3.835,3.806,19.024,62.6,14,Waypoint,
38.2001181,-120.0383154,5454.361336613,182.414704,0,0.69260828988,23600,2018-05-12 16:20:17,17,0,22.844,5454.361336613,182.414704,0.223694,0.97215882376,0,0,-0.671082,324.7, -0.6, 0.4,0,0,1024,1024,1024,1024,325.4,-90,97,3.817,3.788,3.772,3.788,3.835,3.806,19.024,62.6,14,Waypoint,
38.2001181,-120.0383153,5455.345588613,183.398956,0,0.70845146624,23700,2018-05-12 16:20:17,17,0,22.844,5455.345588613,183.398956,0.223694,0.97215882376,0,0,-0.671082,324.8, -0.6, 0.4,0,0,1024,1024,1024,1024,325.4,-90,97,3.817,3.788,3.772,3.788,3.835,3.806,19.024,62.6,14,Waypoint,
38.2001181,-120.0383153,5456.329840613,184.383208,0,0.70845146624,23900,2018-05-12 16:20:17,17,0,22.844,5456.329840613,184.383208,0.223694,0.97215882376,0,0,-0.671082,324.8, -0.7, 0.4,0,0,1024,1024,1024,1024,325.4,-90,97,3.817,3.788,3.772,3.788,3.835,3.806,19.024,62.6,14,Waypoint,
38.2001181,-120.0383153,5457.314092613,185.36746,0,0.70845146624,24000,2018-05-12 16:20:17,17,0,22.823,5457.314092613,185.36746,0.223694,0.97215882376,0,0,-0.671082,324.9, -0.7, 0.4,0,0,1024,1024,1024,1024,325.4,-89.9,97,3.817,3.788,3.772,3.788,3.835,3.806,18.229,62.6,14,Waypoint,
38.2001181,-120.0383153,5458.298344613,186.351712,0,0.70845146624,24100,2018-05-12 16:20:18,17,0,22.823,5458.298344613,186.351712,0.223694,0.97215882376,0,0,-0.671082,324.9, -0.6, 0.5,0,0,1024,1024,1024,1024,325.4,-90,97,3.817,3.788,3.772,3.788,3.835,3.806,18.229,62.6,14,Waypoint,
38.2001181,-120.0383153,5459.282596613,187.335964,0,0.70845146624,24200,2018-05-12 16:20:18,17,0,22.823,5459.282596613,187.335964,0.223694,0.97215882376,0,0,-0.671082,324.9, -0.4, 0.5,0,0,1024,1024,1024,1024,325.4,-89.9,97,3.817,3.788,3.772,3.788,3.835,3.806,18.229,62.6,14,Waypoint,
38.2001182,-120.0383153,5461.251100613,189.304468,0,0.73880251708,24300,2018-05-12 16:20:18,17,0,22.823,5461.251100613,189.304468,0.223694,0.97215882376,0,0,-0.671082,324.8, -0.3, 0.3,0,0,1024,1024,1024,1024,325.4,-89.9,97,3.817,3.788,3.772,3.788,3.835,3.806,18.229,62.6,14,Waypoint,
38.2001182,-120.0383153,5463.219604613,191.272972,0,0.73880251708,24500,2018-05-12 16:20:18,17,0,22.823,5463.219604613,191.272972,0.223694,0.97215882376,0,0,-0.671082,324.6, -0.1, 0,0,0,1024,1024,1024,1024,325.4,-89.9,97,3.817,3.788,3.772,3.788,3.835,3.806,18.229,62.6,14,Waypoint,
38.2001182,-120.0383153,5464.203856613,192.257224,0,0.73880251708,24600,2018-05-12 16:20:18,17,0,22.823,5464.203856613,192.257224,0.223694,0.97215882376,0,0,-0.671082,324.6, -0.2, 0,0,0,1024,1024,1024,1024,325.4,-90,97,3.817,3.788,3.772,3.788,3.835,3.806,18.229,62.6,14,Waypoint,
38.2001182,-120.0383153,5465.188108613,193.241476,0,0.73880251708,24700,2018-05-12 16:20:18,17,0,22.823,5465.188108613,193.241476,0.223694,0.97215882376,0,0,-0.671082,324.6, -0.3, 0,0,0,1024,1024,1024,1024,325.4,-90,97,3.817,3.788,3.772,3.788,3.835,3.806,18.229,62.6,14,Waypoint,
38.2001182,-120.0383153,5466.172360613,194.225728,0,0.73880251708,24800,2018-05-12 16:20:18,17,0,22.823,5466.172360613,194.225728,0.223694,0.97215882376,0,0,-0.671082,324.6, -0.4, 0.2,0,0,1024,1024,1024,1024,325.4,-90,97,3.817,3.788,3.772,3.788,3.835,3.806,18.229,62.6,14,Waypoint,
38.2001182,-120.0383153,5467.156612613,195.20998,0,0.73880251708,24900,2018-05-12 16:20:18,17,0,22.823,5467.156612613,195.20998,0.223694,0.97215882376,0,0,-0.671082,324.7, -0.4, 0.3,0,0,1024,1024,1024,1024,325.4,-90,97,3.817,3.788,3.772,3.788,3.835,3.806,18.229,62.6,14,Waypoint,
38.2001182,-120.0383153,5469.125116613,197.178484,0,0.73880251708,25000,2018-05-12 16:20:18,17,0,22.831,5469.125116613,197.178484,0.223694,0.97215882376,0,0,-0.671082,324.8, -0.5, 0.4,0,0,1024,1024,1024,1024,325.4,-90,97,3.826,3.788,3.778,3.789,3.836,3.806,18.479,62.6,14,Waypoint,
38.2001182,-120.0383153,5470.109368613,198.162736,0,0.73880251708,25200,2018-05-12 16:20:19,17,0,22.831,5470.109368613,198.162736,0.223694,0.97215882376,0,0,-0.671082,324.9, -0.5, 0.5,0,0,1024,1024,1024,1024,325.4,-90,97,3.826,3.788,3.778,3.789,3.836,3.806,18.479,62.6,14,Waypoint,
38.2001182,-120.0383153,5471.093620613,199.146988,0,0.73880251708,25300,2018-05-12 16:20:19,17,0,22.831,5471.093620613,199.146988,0.223694,0.97215882376,0,0,-0.671082,324.9, -0.5, 0.4,0,0,1024,1024,1024,1024,325.4,-90,97,3.826,3.788,3.778,3.789,3.836,3.806,18.479,62.6,14,Waypoint,
38.2001182,-120.0383153,5472.734040613,200.787408,0,0.73880251708,25400,2018-05-12 16:20:19,17,0,22.831,5472.734040613,200.787408,0.223694,0.97215882376,0,0,-0.671082,325, -0.5, 0.3,0,0,1024,1024,1024,1024,325.4,-89.9,97,3.826,3.788,3.778,3.789,3.836,3.806,18.479,62.6,14,Waypoint,
38.2001182,-120.0383153,5474.702544613,202.755912,0,0.73880251708,25610,2018-05-12 16:20:19,17,0,22.831,5474.702544613,202.755912,0.223694,0.97215882376,0,0,-0.671082,325, -0.3, 0.1,0,0,1024,1024,1024,1024,325.4,-89.9,97,3.826,3.788,3.778,3.789,3.836,3.806,18.479,62.6,14,Waypoint,
38.2001183,-120.0383153,5475.686796613,203.740164,0,0.76968834484,25800,2018-05-12 16:20:19,17,0,22.831,5475.686796613,203.740164,0.223694,0.97215882376,0,0,-0.671082,325, -0.1, 0,0,0,1024,1024,1024,1024,325.4,-89.9,97,3.826,3.788,3.778,3.789,3.836,3.806,18.479,62.6,14,Waypoint,
38.2001183,-120.0383153,5476.671048613,204.724416,0,0.76968834484,25900,2018-05-12 16:20:19,17,0,22.831,5476.671048613,204.724416,0.223694,0.97215882376,0,0,-0.671082,325.1, 0, 0,0,0,1024,1024,1024,1024,325.4,-89.9,97,3.826,3.788,3.778,3.789,3.836,3.806,18.479,62.6,14,Waypoint,
38.2001183,-120.0383153,5477.655300613,205.708668,0,0.76968834484,26000,2018-05-12 16:20:19,17,0,22.813,5477.655300613,205.708668,0.223694,0.97215882376,0,0,-0.671082,325.2, 0.2, 0.1,0,0,1024,1024,1024,1024,325.4,-89.9,97,3.816,3.792,3.775,3.782,3.844,3.807,18.285,62.6,14,Waypoint,
38.2001183,-120.0383153,5478.639552613,206.69292,0,0.76968834484,26100,2018-05-12 16:20:20,17,0,22.813,5478.639552613,206.69292,0.223694,0.97215882376,0,0,-0.671082,325.3, 0.1, 0.4,0,0,1024,1024,1024,1024,325.4,-90,97,3.816,3.792,3.775,3.782,3.844,3.807,18.285,62.6,14,Waypoint,
38.2001183,-120.0383153,5480.608056613,208.661424,0,0.76968834484,26300,2018-05-12 16:20:20,17,0,22.813,5480.608056613,208.661424,0.223694,0.97215882376,0,0,-0.671082,325.2, -0.3, 0.1,0,0,1024,1024,1024,1024,325.4,-90,97,3.816,3.792,3.775,3.782,3.844,3.807,18.285,62.6,14,Waypoint,
38.2001183,-120.0383152,5482.576560613,210.629928,0,0.785022991,26400,2018-05-12 16:20:20,17,0,22.813,5482.576560613,210.629928,0.223694,0.97215882376,0,0,-0.671082,324.9, -0.5, -0.2,0,0,1024,1024,1024,1024,325.4,-90,97,3.816,3.792,3.775,3.782,3.844,3.807,18.285,62.6,14,Waypoint,
38.2001184,-120.0383152,5483.560812613,211.61418,0,0.81579070852,26500,2018-05-12 16:20:20,17,0,22.813,5483.560812613,211.61418,0.223694,0.97215882376,0,0,-0.671082,324.7, -0.3, -0.4,0,0,1024,1024,1024,1024,325.4,-90,97,3.816,3.792,3.775,3.782,3.844,3.807,18.285,62.6,14,Waypoint,
38.2001184,-120.0383151,5484.545064613,212.598432,0,0.83126314996,26600,2018-05-12 16:20:20,17,0,22.813,5484.545064613,212.598432,0.223694,0.97215882376,0,0,-0.671082,324.6, -0.3, -0.4,0,0,1024,1024,1024,1024,325.4,-90,97,3.816,3.792,3.775,3.782,3.844,3.807,18.285,62.6,14,Waypoint,
38.2001184,-120.0383151,5485.529316613,213.582684,0,0.83126314996,26700,2018-05-12 16:20:20,17,0,22.813,5485.529316613,213.582684,0.223694,0.97215882376,0,0,-0.671082,324.6, -0.2, -0.4,0,0,1024,1024,1024,1024,325.4,-89.9,97,3.816,3.792,3.775,3.782,3.844,3.807,18.285,62.6,14,Waypoint,
38.2001184,-120.038315,5486.513568613,214.566936,0,0.8474245678,26820,2018-05-12 16:20:20,17,0,22.813,5486.513568613,214.566936,0.223694,0.97215882376,0,0,-0.671082,324.5, -0.2, -0.4,0,0,1024,1024,1024,1024,325.4,-90,97,3.816,3.792,3.775,3.782,3.844,3.807,18.285,62.6,14,Waypoint,
38.2001184,-120.038315,5487.497820613,215.551188,0,0.8474245678,26900,2018-05-12 16:20:20,17,0,22.813,5487.497820613,215.551188,0.223694,0.97215882376,0,0,-0.671082,324.4, -0.3, -0.5,0,0,1024,1024,1024,1024,325.4,-90,97,3.816,3.792,3.775,3.782,3.844,3.807,18.285,62.6,14,Waypoint,
38.2001184,-120.0383149,5488.482072613,216.53544,0,0.86423231112,27000,2018-05-12 16:20:20,17,0,22.798,5488.482072613,216.53544,0.223694,0.97215882376,0,0,-0.671082,324.4, -0.5, -0.6,0,0,1024,1024,1024,1024,325.4,-90,97,3.812,3.784,3.775,3.784,3.837,3.807,18.304,62.6,14,Waypoint,
38.2001184,-120.0383149,5489.466324613,217.519692,0,0.86423231112,27100,2018-05-12 16:20:21,17,0,22.798,5489.466324613,217.519692,0.223694,0.97215882376,0,0,-0.671082,324.4, -0.6, -0.6,0,0,1024,1024,1024,1024,325.4,-90,97,3.812,3.784,3.775,3.784,3.837,3.807,18.304,62.6,14,Waypoint,
38.2001183,-120.0383149,5490.450576613,218.503944,0,0.8352526514,27200,2018-05-12 16:20:21,17,0,22.798,5490.450576613,218.503944,0.223694,0.97215882376,0,0,-0.671082,324.5, -0.6, -0.5,0,0,1024,1024,1024,1024,325.4,-90,97,3.812,3.784,3.775,3.784,3.837,3.807,18.304,62.6,14,Waypoint,
