latitude,longitude,altitude(feet),ascent(feet),speed(mph),distance(feet),time(millisecond),datetime(utc),satellites,gpslevel,voltage(v),max_altitude(feet),max_ascent(feet),max_speed(mph),max_distance(feet), xSpeed(mph), ySpeed(mph), zSpeed(mph), compass_heading(degrees), pitch(degrees), roll(degrees),isPhoto,isVideo,rc_elevator,rc_aileron,rc_throttle,rc_rudder,gimbal_heading(degrees),gimbal_pitch(degrees),battery_percent,voltageCell1,voltageCell2,voltageCell3,voltageCell4,voltageCell5,voltageCell6,current(A),battery_temperature(f),flycStateRaw,flycState,message
38.2001114,-120.0383143,5272.1212477761,0,0,0,3200,2018-05-12 16:02:31,10,0,0,5272.1212477761,0,0,0,0,0,0,325, 0.6, 1,1,0,1024,1024,1024,1024,323.3,-89.9,98,3.925,4.008,3.971,4.028,3.905,3.88,0,51.8,11,AutoTakeoff,
38.2001114,-120.0383143,5272.1212477761,0,0,0,3300,2018-05-12 16:02:31,10,0,0,5272.1212477761,0,0,0,0,0,0,325.1, 0.6, 0.4,0,0,1024,1024,1024,1024,323.3,-89.9,98,3.925,4.008,3.971,4.028,3.905,3.88,0,51.8,11,AutoTakeoff,
38.2001114,-120.0383143,5272.4493317761,0.328084,0,0,3400,2018-05-12 16:02:31,9,0,0,5272.4493317761,0.328084,0,0,0,0,0,325, 0.3, 0,0,0,1024,1024,1024,1024,323.3,-89.9,98,3.925,4.008,3.971,4.028,3.905,3.88,0,51.8,11,AutoTakeoff,
38.2001114,-120.0383143,5272.4493317761,0.328084,0,0,3500,2018-05-12 16:02:31,9,0,0,5272.4493317761,0.328084,0,0,0,0,0,325, 0.3, -0.1,0,0,1024,1024,1024,1024,323.3,-89.9,98,3.925,4.008,3.971,4.028,3.905,3.88,0,51.8,11,AutoTakeoff,
38.2001114,-120.0383143,5272.7774157761,0.656168,0,0,3600,2018-05-12 16:02:31,9,0,0,5272.7774157761,0.656168,0,0,0,0,0,324.9, 0.2, 0,0,0,1024,1024,1024,1024,323.4,-89.9,98,3.925,4.008,3.971,4.028,3.905,3.88,0,51.8,11,AutoTakeoff,
38.2001113,-120.0383143,5272.7774157761,0.656168,0,0.036484909304,3700,2018-05-12 16:02:32,9,0,0,5272.7774157761,0.656168,0,0.036484909304,0,0,0,324.8, 0, 0.2,0,0,1024,1024,1024,1024,323.4,-90,98,3.925,4.008,3.971,4.028,3.905,3.88,0,51.8,11,AutoTakeoff,
38.2001113,-120.0383144,5273.1054997761,0.984252,0,0.046402888624,3800,2018-05-12 16:02:32,10,0,0,5273.1054997761,0.984252,0,0.046402888624,0,0,0,324.7, -0.3, 0.1,0,0,1024,1024,1024,1024,323.4,-90,98,3.925,4.008,3.971,4.028,3.905,3.88,0,51.8,11,AutoTakeoff,
38.2001113,-120.0383145,5273.1054997761,0.984252,0,0.067966537608,3900,2018-05-12 16:02:32,10,0,0,5273.1054997761,0.984252,0,0.067966537608,0,0,0,324.7, 0, 0.2,0,0,1024,1024,1024,1024,323.4,-89.9,98,3.925,4.008,3.971,4.028,3.905,3.88,0,51.8,11,AutoTakeoff,
38.2001112,-120.0383145,5273.4335837761,1.312336,0,0.092805777248,4000,2018-05-12 16:02:32,10,0,23.893,5273.4335837761,1.312336,0,0.092805777248,0,0,0,324.7, 0.1, 0.3,0,0,1024,1024,1024,1024,323.5,-89.9,98,3.925,4.008,3.971,4.028,3.905,3.88,13.084,51.8,11,AutoTakeoff,
38.2001112,-120.0383145,5273.4335837761,1.312336,0,0.092805777248,4100,2018-05-12 16:02:32,9,0,23.893,5273.4335837761,1.312336,0,0.092805777248,0,0,0,324.7, 0, 0.2,0,0,1024,1024,1024,1024,323.5,-89.9,98,3.925,4.008,3.971,4.028,3.905,3.88,13.084,51.8,11,AutoTakeoff,
38.2001114,-120.0383146,5273.7616677761,1.64042,0,0.086015750784,4200,2018-05-12 16:02:32,9,0,23.893,5273.7616677761,1.64042,0,0.092805777248,0,0,0,324.7, 0.1, 0.1,0,0,1024,1024,1024,1024,323.5,-89.9,98,3.925,4.008,3.971,4.028,3.905,3.88,13.084,51.8,11,AutoTakeoff,
38.2001114,-120.0383146,5273.7616677761,1.64042,0,0.086015750784,4300,2018-05-12 16:02:32,9,0,23.893,5273.7616677761,1.64042,0,0.092805777248,0,0,0,324.7, 0.4, 0.1,0,0,1024,1024,1024,1024,323.5,-89.9,98,3.925,4.008,3.971,4.028,3.905,3.88,13.084,51.8,11,AutoTakeoff,
38.2001114,-120.0383146,5274.0897517761,1.968504,0,0.086015750784,4400,2018-05-12 16:02:32,9,0,23.893,5274.0897517761,1.968504,0,0.092805777248,0,0,-0.223694,324.7, 0.6, 0.1,0,0,1024,1024,1024,1024,323.5,-89.9,98,3.925,4.008,3.971,4.028,3.905,3.88,13.084,51.8,11,AutoTakeoff,
38.2001114,-120.0383146,5274.4178357761,2.296588,0,0.086015750784,4500,2018-05-12 16:02:32,9,0,23.893,5274.4178357761,2.296588,0,0.092805777248,0,0,-0.223694,324.8, 0.6, 0.1,0,0,1024,1024,1024,1024,323.6,-89.9,98,3.925,4.008,3.971,4.028,3.905,3.88,13.084,51.8,11,AutoTakeoff,
38.2001115,-120.0383147,5274.4178357761,2.296588,0,0.12035105372,4610,2018-05-12 16:02:32,9,0,23.893,5274.4178357761,2.296588,0,0.12035105372,0,0,-0.223694,324.8, 0.6, 0.1,0,0,1024,1024,1024,1024,323.6,-89.9,98,3.925,4.008,3.971,4.028,3.905,3.88,13.084,51.8,11,AutoTakeoff,
38.2001115,-120.0383148,5274.7459197761,2.624672,0,0.147929466676,4800,2018-05-12 16:02:33,10,0,23.893,5274.7459197761,2.624672,0,0.147929466676,0,0,-0.223694,324.9, 0.6, 0.1,0,0,1024,1024,1024,1024,323.6,-89.9,98,3.925,4.008,3.971,4.028,3.905,3.88,13.084,51.8,11,AutoTakeoff,
38.2001115,-120.0383149,5274.7459197761,2.624672,0,0.175857617176,4900,2018-05-12 16:02:33,10,0,23.893,5274.7459197761,2.624672,0,0.175857617176,0,0,-0.223694,324.9, 0.6, 0.2,0,0,1024,1024,1024,1024,323.6,-89.9,98,3.925,4.008,3.971,4.028,3.905,3.88,13.084,51.8,11,AutoTakeoff,
38.2001115,-120.038315,5275.0740037761,2.952756,0,0.203992460596,5000,2018-05-12 16:02:33,11,0,23.075,5275.0740037761,2.952756,0,0.203992460596,0,0,-0.223694,325, 0.7, 0.4,0,0,1024,1024,1024,1024,323.7,-89.9,98,3.925,4.008,3.971,4.028,3.905,3.88,16.823,51.8,14,Waypoint,
38.2001116,-120.0383149,5275.0740037761,2.952756,0,0.186867460048,5100,2018-05-12 16:02:33,11,0,23.075,5275.0740037761,2.952756,0,0.203992460596,0,0,0,325, 0.8, 0.3,0,0,1024,1024,1024,1024,323.7,-89.9,98,3.925,4.008,3.971,4.028,3.905,3.88,16.823,51.8,14,Waypoint,
38.2001116,-120.0383149,5275.4020877761,3.28084,0,0.186867460048,5200,2018-05-12 16:02:33,10,0,23.075,5275.4020877761,3.28084,0,0.203992460596,0,0,0,325, 0.8, 0,0,0,1024,1024,1024,1024,323.7,-89.9,98,3.925,4.008,3.971,4.028,3.905,3.88,16.823,51.8,14,Waypoint,
38.2001117,-120.038315,5275.4020877761,3.28084,0,0.228609259284,5300,2018-05-12 16:02:33,10,0,23.075,5275.4020877761,3.28084,0,0.228609259284,0,0,0,325, 0.8, -0.2,0,0,1024,1024,1024,1024,323.7,-89.9,98,3.925,4.008,3.971,4.028,3.905,3.88,16.823,51.8,14,Waypoint,
38.2001118,-120.0383151,5275.7301717761,3.608924,0,0.271866478516,5400,2018-05-12 16:02:33,10,0,23.075,5275.7301717761,3.608924,0,0.271866478516,0,0,0,325.1, 0.9, -0.1,0,0,1024,1024,1024,1024,323.7,-89.9,98,3.925,4.008,3.971,4.028,3.905,3.88,16.823,51.8,14,Waypoint,
38.2001118,-120.038315,5275.7301717761,3.608924,0,0.248153551248,5500,2018-05-12 16:02:33,10,0,23.075,5275.7301717761,3.608924,0,0.271866478516,0,0,0,325.1, 1.1, 0,0,0,1024,1024,1024,1024,323.8,-89.9,98,3.925,4.008,3.971,4.028,3.905,3.88,16.823,51.8,14,Waypoint,
38.2001119,-120.0383149,5276.0582557761,3.937008,0,0.250746071016,5600,2018-05-12 16:02:33,10,0,23.075,5276.0582557761,3.937008,0,0.271866478516,0,0,-0.223694,325.2, 1, -0.2,0,0,1024,1024,1024,1024,323.8,-89.9,98,3.925,4.008,3.971,4.028,3.905,3.88,16.823,51.8,14,Waypoint,
38.2001119,-120.038315,5276.0582557761,3.937008,0,0.27122048112,5700,2018-05-12 16:02:34,10,0,23.075,5276.0582557761,3.937008,0,0.271866478516,0,0,-0.223694,325.2, 0.8, -0.3,0,0,1024,1024,1024,1024,323.8,-89.9,98,3.925,4.008,3.971,4.028,3.905,3.88,16.823,51.8,14,Waypoint,
38.2001119,-120.038315,5276.3863397761,4.265092,0,0.27122048112,5800,2018-05-12 16:02:34,10,0,23.075,5276.3863397761,4.265092,0,0.271866478516,0,0,-0.223694,325.1, 0.8, -0.2,0,0,1024,1024,1024,1024,323.8,-89.9,98,3.925,4.008,3.971,4.028,3.905,3.88,16.823,51.8,14,Waypoint,
38.2001119,-120.038315,5276.7144237761,4.593176,0,0.27122048112,5900,2018-05-12 16:02:34,10,0,23.075,5276.7144237761,4.593176,0,0.271866478516,0,0,-0.223694,325.1, 0.9, 0,0,0,1024,1024,1024,1024,323.8,-89.9,98,3.925,4.008,3.971,4.028,3.905,3.88,16.823,51.8,14,Waypoint,
38.2001119,-120.038315,5277.3705917761,5.249344,0,0.27122048112,6000,2018-05-12 16:02:34,10,0,23.075,5277.3705917761,5.249344,0,0.271866478516,0,0,-0.223694,325.1, 0.9, 0,0,0,1024,1024,1024,1024,323.8,-89.9,98,3.815,3.862,3.857,3.854,3.841,3.819,16.823,51.8,14,Waypoint,
38.2001118,-120.0383152,5278.3548437761,6.233596,0,0.296457030484,6100,2018-05-12 16:02:34,10,0,23.075,5278.3548437761,6.233596,0,0.296457030484,0,0,-0.447388,325, 0.7, 0.4,0,0,1024,1024,1024,1024,323.8,-89.9,98,3.815,3.862,3.857,3.854,3.841,3.819,16.823,51.8,14,Waypoint,
38.2001117,-120.0383151,5279.0110117761,6.889764,0,0.254152239104,6200,2018-05-12 16:02:34,10,0,23.075,5279.0110117761,6.889764,0,0.296457030484,0,0,-0.447388,325, 0.6, 0.4,0,0,1024,1024,1024,1024,323.9,-90,98,3.815,3.862,3.857,3.854,3.841,3.819,16.823,51.8,14,Waypoint,
38.2001117,-120.0383151,5279.6671797761,7.545932,0,0.254152239104,6300,2018-05-12 16:02:34,10,0,23.075,5279.6671797761,7.545932,0,0.296457030484,0,0,-0.447388,324.9, 0.4, 0.5,0,0,1024,1024,1024,1024,323.9,-90,98,3.815,3.862,3.857,3.854,3.841,3.819,16.823,51.8,14,Waypoint,
38.2001117,-120.0383151,5280.3233477761,8.2021,0,0.254152239104,6400,2018-05-12 16:02:34,10,0,23.075,5280.3233477761,8.2021,0,0.296457030484,0,0,-0.447388,324.8, 0.1, 0.3,0,0,1024,1024,1024,1024,323.9,-90,98,3.815,3.862,3.857,3.854,3.841,3.819,16.823,51.8,14,Waypoint,
38.2001117,-120.038315,5281.3075997761,9.186352,0,0.228609259284,6500,2018-05-12 16:02:34,10,0,23.075,5281.3075997761,9.186352,0,0.296457030484,0,0,-0.671082,324.8, 0, 0,0,0,1024,1024,1024,1024,323.9,-90,98,3.815,3.862,3.857,3.854,3.841,3.819,16.823,51.8,14,Waypoint,
38.2001118,-120.0383151,5283.2761037761,11.154856,0,0.271866478516,6700,2018-05-12 16:02:35,11,0,23.075,5283.2761037761,11.154856,0,0.296457030484,0,0,-0.671082,324.8, 0.4, -0.7,0,0,1024,1024,1024,1024,323.9,-89.9,98,3.815,3.862,3.857,3.854,3.841,3.819,16.823,51.8,14,Waypoint,
38.2001118,-120.0383151,5284.2603557761,12.139108,0,0.271866478516,6800,2018-05-12 16:02:35,11,0,23.075,5284.2603557761,12.139108,0,0.296457030484,0,0,-0.671082,324.9, 0.7, -0.5,0,0,1024,1024,1024,1024,323.9,-89.9,98,3.815,3.862,3.857,3.854,3.841,3.819,16.823,51.8,14,Waypoint,
38.2001118,-120.038315,5285.5726917761,13.451444,0,0.248153551248,6900,2018-05-12 16:02:35,11,0,23.075,5285.5726917761,13.451444,0,0.296457030484,0,0,-0.671082,325.1, 0.9, -0.1,0,0,1024,1024,1024,1024,324,-89.9,98,3.815,3.862,3.857,3.854,3.841,3.819,16.823,51.8,14,Waypoint,
38.2001118,-120.0383151,5286.5569437761,14.435696,0,0.271866478516,7020,2018-05-12 16:02:35,11,0,22.527,5286.5569437761,14.435696,0,0.296457030484,0,0,-0.671082,325.2, 1, 0,0,0,1024,1024,1024,1024,324,-89.9,98,3.797,3.838,3.835,3.837,3.824,3.808,21.301,51.8,14,Waypoint,
38.2001119,-120.0383151,5287.5411957761,15.419948,0,0.293072844024,7110,2018-05-12 16:02:35,10,0,22.527,5287.5411957761,15.419948,0,0.296457030484,0,0,-0.671082,325.3, 0.8, 0.1,0,0,1024,1024,1024,1024,324,-89.9,98,3.797,3.838,3.835,3.837,3.824,3.808,21.301,51.8,14,Waypoint,
38.2001119,-120.0383151,5288.8535317761,16.732284,0,0.293072844024,7200,2018-05-12 16:02:35,10,0,22.527,5288.8535317761,16.732284,0,0.296457030484,0,0,-0.671082,325.3, 0.7, 0.1,0,0,1024,1024,1024,1024,324,-89.9,98,3.797,3.838,3.835,3.837,3.824,3.808,21.301,51.8,14,Waypoint,
38.2001119,-120.0383151,5290.1658677761,18.04462,0,0.293072844024,7400,2018-05-12 16:02:35,10,0,22.527,5290.1658677761,18.04462,0,0.296457030484,0,0,-0.671082,325.2, 0.6, 0,0,0,1024,1024,1024,1024,324,-89.9,98,3.797,3.838,3.835,3.837,3.824,3.808,21.301,51.8,14,Waypoint,
38.2001119,-120.0383151,5291.1501197761,19.028872,0,0.293072844024,7500,2018-05-12 16:02:35,10,0,22.527,5291.1501197761,19.028872,0,0.296457030484,0,0,-0.671082,325.1, 0.6, 0,0,0,1024,1024,1024,1024,324,-89.9,98,3.797,3.838,3.835,3.837,3.824,3.808,21.301,51.8,14,Waypoint,
38.2001119,-120.0383151,5292.1343717761,20.013124,0,0.293072844024,7600,2018-05-12 16:02:35,11,0,22.527,5292.1343717761,20.013124,0,0.296457030484,0,0,-0.671082,325.1, 0.7, -0.1,0,0,1024,1024,1024,1024,324,-89.9,98,3.797,3.838,3.835,3.837,3.824,3.808,21.301,51.8,14,Waypoint,
38.2001118,-120.0383152,5293.4467077761,21.32546,0,0.296457030484,7700,2018-05-12 16:02:36,11,0,22.527,5293.4467077761,21.32546,0,0.296457030484,0,0,-0.671082,325, 0.6, -0.1,0,0,1024,1024,1024,1024,324,-89.9,98,3.797,3.838,3.835,3.837,3.824,3.808,21.301,51.8,14,Waypoint,
38.2001118,-120.0383153,5294.4309597761,22.309712,0,0.321723763576,7800,2018-05-12 16:02:36,11,0,22.527,5294.4309597761,22.309712,0,0.321723763576,0,0,-0.671082,325, 0.5, 0.2,0,0,1024,1024,1024,1024,324,-89.9,98,3.797,3.838,3.835,3.837,3.824,3.808,21.301,51.8,14,Waypoint,
38.2001117,-120.0383154,5295.7432957761,23.622048,0,0.33384515504,7900,2018-05-12 16:02:36,11,0,22.527,5295.7432957761,23.622048,0,0.33384515504,0,0,-0.671082,325.1, 0.5, 0.7,0,0,1024,1024,1024,1024,324,-89.9,98,3.797,3.838,3.835,3.837,3.824,3.808,21.301,51.8,14,Waypoint,
38.2001117,-120.0383154,5296.7275477761,24.6063,0,0.33384515504,8000,2018-05-12 16:02:36,11,0,22.527,5296.7275477761,24.6063,0,0.33384515504,0,0,-0.671082,325.1, 0.6, 0.9,0,0,1024,1024,1024,1024,324,-89.9,98,3.705,3.774,3.752,3.735,3.711,3.728,21.301,51.8,14,Waypoint,
38.2001117,-120.0383154,5297.7117997761,25.590552,0,0.33384515504,8100,2018-05-12 16:02:36,11,0,22.527,5297.7117997761,25.590552,0,0.33384515504,0,0,-0.671082,325.2, 0.5, 0.8,0,0,1024,1024,1024,1024,324,-89.9,98,3.705,3.774,3.752,3.735,3.711,3.728,21.301,51.8,14,Waypoint,
38.2001116,-120.0383154,5299.0241357761,26.902888,0,0.32372212322,8200,2018-05-12 16:02:36,11,0,22.527,5299.0241357761,26.902888,0,0.33384515504,0,0,-0.671082,325.2, 0.5, 0.6,0,0,1024,1024,1024,1024,324,-90,98,3.705,3.774,3.752,3.735,3.711,3.728,21.301,51.8,14,Waypoint,
38.2001116,-120.0383154,5300.0083877761,27.88714,0,0.32372212322,8300,2018-05-12 16:02:36,11,0,22.527,5300.0083877761,27.88714,0,0.33384515504,0,0,-0.671082,325.1, 0.4, 0.3,0,0,1024,1024,1024,1024,324,-90,98,3.705,3.774,3.752,3.735,3.711,3.728,21.301,51.8,14,Waypoint,
38.2001116,-120.0383152,5301.9768917761,29.855644,0,0.268165690996,8400,2018-05-12 16:02:36,11,0,22.527,5301.9768917761,29.855644,0,0.33384515504,0,0,-0.671082,325.1, 0.2, 0.1,0,0,1024,1024,1024,1024,324,-90,98,3.705,3.774,3.752,3.735,3.711,3.728,21.301,51.8,14,Waypoint,
38.2001116,-120.0383152,5302.9611437761,30.839896,0,0.268165690996,8500,2018-05-12 16:02:36,11,0,22.527,5302.9611437761,30.839896,0,0.33384515504,0,0,-0.671082,325.1, 0.4, 0,0,0,1024,1024,1024,1024,324,-89.9,98,3.705,3.774,3.752,3.735,3.711,3.728,21.301,51.8,14,Waypoint,
38.2001116,-120.0383152,5303.9453957761,31.824148,0,0.268165690996,8600,2018-05-12 16:02:36,11,0,22.527,5303.9453957761,31.824148,0,0.33384515504,0,0,-0.671082,325.1, 0.5, -0.2,0,0,1024,1024,1024,1024,324,-89.9,98,3.705,3.774,3.752,3.735,3.711,3.728,21.301,51.8,14,Waypoint,
38.2001115,-120.0383152,5305.2577317761,33.136484,0,0.2606135254,8700,2018-05-12 16:02:37,12,0,22.527,5305.2577317761,33.136484,0,0.33384515504,0,0,-0.671082,325, 0.6, 0,0,0,1024,1024,1024,1024,324,-89.9,98,3.705,3.774,3.752,3.735,3.711,3.728,21.301,51.8,14,Waypoint,
38.2001116,-120.0383152,5306.2419837761,34.120736,0,0.268165690996,8800,2018-05-12 16:02:37,12,0,22.527,5306.2419837761,34.120736,0,0.33384515504,0,0,-0.671082,325, 0.5, 0.1,0,0,1024,1024,1024,1024,324,-89.9,98,3.705,3.774,3.752,3.735,3.711,3.728,21.301,51.8,14,Waypoint,
38.2001116,-120.0383151,5307.2262357761,35.104988,0,0.24070210744,8900,2018-05-12 16:02:37,11,0,22.527,5307.2262357761,35.104988,0,0.33384515504,0,0,-0.671082,324.9, 0.4, 0.2,0,0,1024,1024,1024,1024,324,-89.9,98,3.705,3.774,3.752,3.735,3.711,3.728,21.301,51.8,14,Waypoint,
38.2001116,-120.0383152,5308.2104877761,36.08924,0,0.268165690996,9000,2018-05-12 16:02:37,11,0,22.347,5308.2104877761,36.08924,0,0.33384515504,0,0,-0.671082,324.9, 0.6, 0.1,0,0,1024,1024,1024,1024,324,-89.9,98,3.638,3.699,3.699,3.693,3.669,3.651,19.547,51.8,14,Waypoint,
38.2001116,-120.0383152,5309.1947397761,37.073492,0,0.268165690996,9110,2018-05-12 16:02:37,12,0,22.347,5309.1947397761,37.073492,0,0.33384515504,0,0,-0.671082,324.9, 0.7, 0.1,0,0,1024,1024,1024,1024,324,-89.9,98,3.638,3.699,3.699,3.693,3.669,3.651,19.547,51.8,14,Waypoint,
38.2001116,-120.0383151,5310.1789917761,38.057744,0,0.24070210744,9300,2018-05-12 16:02:37,12,0,22.347,5310.1789917761,38.057744,0,0.33384515504,0,0,-0.671082,324.9, 0.7, 0.1,0,0,1024,1024,1024,1024,324,-89.9,98,3.638,3.699,3.699,3.693,3.669,3.651,19.547,51.8,14,Waypoint,
38.2001116,-120.038315,5311.1632437761,39.041996,0,0.21355643728,9400,2018-05-12 16:02:37,12,0,22.347,5311.1632437761,39.041996,0,0.33384515504,0,0,-0.671082,324.9, 0.5, 0,0,0,1024,1024,1024,1024,324,-90,98,3.638,3.699,3.699,3.693,3.669,3.651,19.547,51.8,14,Waypoint,
38.2001116,-120.038315,5312.1474957761,40.026248,0,0.21355643728,9500,2018-05-12 16:02:37,12,0,22.347,5312.1474957761,40.026248,0,0.33384515504,0,0,-0.671082,324.9, 0.2, 0,0,0,1024,1024,1024,1024,324,-90,98,3.638,3.699,3.699,3.693,3.669,3.651,19.547,51.8,14,Waypoint,
38.2001116,-120.0383149,5313.1317477761,41.0105,0,0.186867460048,9600,2018-05-12 16:02:37,12,0,22.347,5313.1317477761,41.0105,0,0.33384515504,0,0,-0.671082,324.9, 0.2, 0,0,0,1024,1024,1024,1024,324,-90,98,3.638,3.699,3.699,3.693,3.669,3.651,19.547,51.8,14,Waypoint,
38.2001116,-120.0383149,5314.1159997761,41.994752,0,0.186867460048,9700,2018-05-12 16:02:38,12,0,22.347,5314.1159997761,41.994752,0,0.33384515504,0,0,-0.671082,325, 0.3, -0.1,0,0,1024,1024,1024,1024,324,-89.9,98,3.638,3.699,3.699,3.693,3.669,3.651,19.547,51.8,14,Waypoint,
38.2001116,-120.0383149,5315.1002517761,42.979004,0,0.186867460048,9800,2018-05-12 16:02:38,12,0,22.347,5315.1002517761,42.979004,0,0.33384515504,0,0,-0.671082,325.1, 0.5, 0,0,0,1024,1024,1024,1024,324,-89.9,98,3.638,3.699,3.699,3.693,3.669,3.651,19.547,51.8,14,Waypoint,
38.2001116,-120.0383149,5316.0845037761,43.963256,0,0.186867460048,9900,2018-05-12 16:02:38,12,0,22.347,5316.0845037761,43.963256,0,0.33384515504,0,0,-0.671082,325.1, 0.7, 0.1,0,0,1024,1024,1024,1024,324,-89.9,98,3.638,3.699,3.699,3.693,3.669,3.651,19.547,51.8,14,Waypoint,
38.2001117,-120.0383148,5317.0687557761,44.947508,0,0.180367131756,10000,2018-05-12 16:02:38,12,0,22.347,5317.0687557761,44.947508,0,0.33384515504,0,0,-0.671082,325.1, 0.7, 0.1,0,0,1024,1024,1024,1024,324,-89.9,98,3.698,3.751,3.756,3.744,3.733,3.72,19.547,51.8,14,Waypoint,
38.2001117,-120.0383148,5318.0530077761,45.93176,0,0.180367131756,10100,2018-05-12 16:02:38,12,0,22.347,5318.0530077761,45.93176,0,0.33384515504,0,0,-0.671082,325, 0.6, 0,0,0,1024,1024,1024,1024,324,-89.9,98,3.698,3.751,3.756,3.744,3.733,3.72,19.547,51.8,14,Waypoint,
38.2001118,-120.0383148,5319.0372597761,46.916012,0,0.20457349736,10200,2018-05-12 16:02:38,12,0,22.347,5319.0372597761,46.916012,0,0.33384515504,0,0,-0.671082,325, 0.8, 0,0,0,1024,1024,1024,1024,324,-89.9,98,3.698,3.751,3.756,3.744,3.733,3.72,19.547,51.8,14,Waypoint,
38.2001118,-120.0383148,5320.0215117761,47.900264,0,0.20457349736,10300,2018-05-12 16:02:38,12,0,22.347,5320.0215117761,47.900264,0,0.33384515504,0,0,-0.671082,325, 0.9, -0.1,0,0,1024,1024,1024,1024,324,-89.9,98,3.698,3.751,3.756,3.744,3.733,3.72,19.547,51.8,14,Waypoint,
38.2001118,-120.0383147,5321.0057637761,48.884516,0,0.185611554496,10400,2018-05-12 16:02:38,12,0,22.347,5321.0057637761,48.884516,0,0.33384515504,0,0,-0.671082,325, 0.8, -0.1,0,0,1024,1024,1024,1024,324,-89.9,98,3.698,3.751,3.756,3.744,3.733,3.72,19.547,51.8,14,Waypoint,
38.2001119,-120.0383147,5321.9900157761,49.868768,0,0.215480978024,10500,2018-05-12 16:02:38,12,0,22.347,5321.9900157761,49.868768,0,0.33384515504,0,0,-0.671082,325, 0.8, -0.1,0,0,1024,1024,1024,1024,324,-89.9,98,3.698,3.751,3.756,3.744,3.733,3.72,19.547,51.8,14,Waypoint,
38.2001119,-120.0383146,5322.9742677761,50.85302,0,0.201686686244,10600,2018-05-12 16:02:38,12,0,22.347,5322.9742677761,50.85302,0,0.33384515504,0,0,-0.671082,325.1, 0.8, -0.3,0,0,1024,1024,1024,1024,324,-89.9,98,3.698,3.751,3.756,3.744,3.733,3.72,19.547,51.8,14,Waypoint,
38.2001118,-120.0383146,5323.9585197761,51.837272,0,0.169402236392,10700,2018-05-12 16:02:39,12,0,22.347,5323.9585197761,51.837272,0,0.33384515504,0,0,-0.671082,325.2, 0.7, -0.6,0,0,1024,1024,1024,1024,324,-90,98,3.698,3.751,3.756,3.744,3.733,3.72,19.547,51.8,14,Waypoint,
38.2001118,-120.0383146,5324.9427717761,52.821524,0,0.169402236392,10800,2018-05-12 16:02:39,12,0,22.347,5324.9427717761,52.821524,0,0.33384515504,0,0,-0.671082,325.3, 0.6, -0.4,0,0,1024,1024,1024,1024,324,-90,98,3.698,3.751,3.756,3.744,3.733,3.72,19.547,51.8,14,Waypoint,
38.2001118,-120.0383146,5325.9270237761,53.805776,0,0.169402236392,10900,2018-05-12 16:02:39,12,0,22.347,5325.9270237761,53.805776,0,0.33384515504,0,0,-0.671082,325.3, 0.5, -0.1,0,0,1024,1024,1024,1024,324,-89.9,98,3.698,3.751,3.756,3.744,3.733,3.72,19.547,51.8,14,Waypoint,
38.2001118,-120.0383147,5326.9112757761,54.790028,0,0.185611554496,11000,2018-05-12 16:02:39,12,0,22.455,5326.9112757761,54.790028,0,0.33384515504,0,0,-0.671082,325.3, 0.7, -0.1,0,0,1024,1024,1024,1024,324,-89.9,98,3.707,3.753,3.756,3.746,3.737,3.722,19.02,51.8,14,Waypoint,
38.2001118,-120.0383147,5328.8797797761,56.758532,0,0.185611554496,11100,2018-05-12 16:02:39,12,0,22.455,5328.8797797761,56.758532,0,0.33384515504,0,0,-0.671082,325.2, 0.8, 0.1,0,0,1024,1024,1024,1024,324,-89.9,98,3.707,3.753,3.756,3.746,3.737,3.722,19.02,51.8,14,Waypoint,
38.2001118,-120.0383147,5329.8640317761,57.742784,0,0.185611554496,11200,2018-05-12 16:02:39,12,0,22.455,5329.8640317761,57.742784,0,0.33384515504,0,0,-0.671082,325.2, 0.8, 0.3,0,0,1024,1024,1024,1024,324,-89.9,98,3.707,3.753,3.756,3.746,3.737,3.722,19.02,51.8,14,Waypoint,
38.2001118,-120.0383147,5330.8482837761,58.727036,0,0.185611554496,11300,2018-05-12 16:02:39,12,0,22.455,5330.8482837761,58.727036,0,0.33384515504,0,0,-0.671082,325.1, 0.8, 0.6,0,0,1024,1024,1024,1024,324,-89.9,98,3.707,3.753,3.756,3.746,3.737,3.722,19.02,51.8,14,Waypoint,
38.2001117,-120.0383147,5331.8325357761,59.711288,0,0.158535766228,11400,2018-05-12 16:02:39,12,0,22.455,5331.8325357761,59.711288,0,0.33384515504,0,0,-0.671082,325.1, 0.8, 0.6,0,0,1024,1024,1024,1024,324,-89.9,98,3.707,3.753,3.756,3.746,3.737,3.722,19.02,51.8,14,Waypoint,
38.2001117,-120.0383147,5332.8167877761,60.69554,0,0.158535766228,11500,2018-05-12 16:02:39,12,0,22.455,5332.8167877761,60.69554,0,0.33384515504,0,0,-0.671082,325.1, 0.5, 0.5,0,0,1024,1024,1024,1024,324,-90,98,3.707,3.753,3.756,3.746,3.737,3.722,19.02,51.8,14,Waypoint,
38.2001117,-120.0383147,5333.8010397761,61.679792,0,0.158535766228,11610,2018-05-12 16:02:39,12,0,22.455,5333.8010397761,61.679792,0,0.33384515504,0,0,-0.671082,325.1, 0.4, 0.2,0,0,1024,1024,1024,1024,324,-90,98,3.707,3.753,3.756,3.746,3.737,3.722,19.02,51.8,14,Waypoint,
38.2001116,-120.0383147,5334.7852917761,62.664044,0,0.1359334033,11700,2018-05-12 16:02:40,12,0,22.455,5334.7852917761,62.664044,0,0.33384515504,0,0,-0.671082,325.1, 0.2, 0.1,0,0,1024,1024,1024,1024,324,-90,98,3.707,3.753,3.756,3.746,3.737,3.722,19.02,51.8,14,Waypoint,
38.2001116,-120.0383147,5335.7695437761,63.648296,0,0.1359334033,11800,2018-05-12 16:02:40,12,0,22.455,5335.7695437761,63.648296,0,0.33384515504,0,0,-0.671082,325, 0.1, 0.4,0,0,1024,1024,1024,1024,324,-90,98,3.707,3.753,3.756,3.746,3.737,3.722,19.02,51.8,14,Waypoint,
38.2001116,-120.0383148,5336.7537957761,64.632548,0,0.160861881788,12000,2018-05-12 16:02:40,12,0,22.391,5336.7537957761,64.632548,0,0.33384515504,0,0,-0.671082,324.8, 0.3, 0.7,0,0,1024,1024,1024,1024,324,-89.9,98,3.702,3.746,3.742,3.735,3.722,3.716,19.266,51.8,14,Waypoint,
38.2001116,-120.0383148,5337.7380477761,65.6168,0,0.160861881788,12100,2018-05-12 16:02:40,12,0,22.391,5337.7380477761,65.6168,0,0.33384515504,0,0,-0.671082,324.7, 0.5, 0.8,0,0,1024,1024,1024,1024,324,-89.9,98,3.702,3.746,3.742,3.735,3.722,3.716,19.266,51.8,14,Waypoint,
38.2001116,-120.0383148,5338.7222997761,66.601052,0,0.160861881788,12200,2018-05-12 16:02:40,12,0,22.391,5338.7222997761,66.601052,0,0.33384515504,0,0,-0.671082,324.7, 0.5, 0.6,0,0,1024,1024,1024,1024,324,-89.9,98,3.702,3.746,3.742,3.735,3.722,3.716,19.266,51.8,14,Waypoint,
38.2001116,-120.0383148,5339.7065517761,67.585304,0,0.160861881788,12300,2018-05-12 16:02:40,12,0,22.391,5339.7065517761,67.585304,0,0.33384515504,0,0,-0.671082,324.7, 0.6, 0.3,0,0,1024,1024,1024,1024,324,-89.9,98,3.702,3.746,3.742,3.735,3.722,3.716,19.266,51.8,14,Waypoint,
38.2001116,-120.0383148,5340.6908037761,68.569556,0,0.160861881788,12400,2018-05-12 16:02:40,12,0,22.391,5340.6908037761,68.569556,0,0.33384515504,0,0,-0.671082,324.7, 0.7, 0.1,0,0,1024,1024,1024,1024,324,-89.9,98,3.702,3.746,3.742,3.735,3.722,3.716,19.266,51.8,14,Waypoint,
38.2001116,-120.0383148,5341.6750557761,69.553808,0,0.160861881788,12500,2018-05-12 16:02:40,12,0,22.391,5341.6750557761,69.553808,0,0.33384515504,0,0,-0.671082,324.7, 0.6, 0.3,0,0,1024,1024,1024,1024,324,-90,98,3.702,3.746,3.742,3.735,3.722,3.716,19.266,51.8,14,Waypoint,
38.2001116,-120.0383147,5342.6593077761,70.53806,0,0.1359334033,12600,2018-05-12 16:02:40,12,0,22.391,5342.6593077761,70.53806,0,0.33384515504,0,0,-0.671082,324.7, 0.5, 0.3,0,0,1024,1024,1024,1024,324,-90,98,3.702,3.746,3.742,3.735,3.722,3.716,19.266,51.8,14,Waypoint,
38.2001116,-120.0383147,5343.6435597761,71.522312,0,0.1359334033,12700,2018-05-12 16:02:41,12,0,22.391,5343.6435597761,71.522312,0,0.33384515504,0,0,-0.671082,324.7, 0.3, 0.2,0,0,1024,1024,1024,1024,324,-90,98,3.702,3.746,3.742,3.735,3.722,3.716,19.266,51.8,14,Waypoint,
38.2001116,-120.0383146,5344.6278117761,72.506564,0,0.112797575788,12800,2018-05-12 16:02:41,12,0,22.391,5344.6278117761,72.506564,0,0.33384515504,0,0,-0.671082,324.7, 0.3, 0.1,0,0,1024,1024,1024,1024,324,-90,98,3.702,3.746,3.742,3.735,3.722,3.716,19.266,51.8,14,Waypoint,
38.2001116,-120.0383147,5345.6120637761,73.490816,0,0.1359334033,12900,2018-05-12 16:02:41,12,0,22.391,5345.6120637761,73.490816,0,0.33384515504,0,0,-0.671082,324.8, 0.3, 0.1,0,0,1024,1024,1024,1024,324,-89.9,98,3.702,3.746,3.742,3.735,3.722,3.716,19.266,51.8,14,Waypoint,
38.2001116,-120.0383147,5346.5963157761,74.475068,0,0.1359334033,13000,2018-05-12 16:02:41,12,0,22.304,5346.5963157761,74.475068,0,0.33384515504,0,0,-0.671082,325, 0.4, 0.1,0,0,1024,1024,1024,1024,324,-89.9,97,3.682,3.736,3.73,3.736,3.717,3.697,19.706,53.6,14,Waypoint,
38.2001116,-120.0383146,5347.5805677761,75.45932,0,0.112797575788,13100,2018-05-12 16:02:41,12,0,22.304,5347.5805677761,75.45932,0,0.33384515504,0,0,-0.671082,325.1, 0.5, 0.1,0,0,1024,1024,1024,1024,324,-89.9,97,3.682,3.736,3.73,3.736,3.717,3.697,19.706,53.6,14,Waypoint,
38.2001116,-120.0383146,5348.5648197761,76.443572,0,0.112797575788,13200,2018-05-12 16:02:41,12,0,22.304,5348.5648197761,76.443572,0,0.33384515504,0,0,-0.671082,325.2, 0.6, 0,0,0,1024,1024,1024,1024,324,-89.9,97,3.682,3.736,3.73,3.736,3.717,3.697,19.706,53.6,14,Waypoint,
38.2001117,-120.0383147,5349.5490717761,77.427824,0,0.158535766228,13300,2018-05-12 16:02:41,12,0,22.304,5349.5490717761,77.427824,0,0.33384515504,0,0,-0.671082,325.2, 0.7, 0.1,0,0,1024,1024,1024,1024,324,-89.9,97,3.682,3.736,3.73,3.736,3.717,3.697,19.706,53.6,14,Waypoint,
38.2001117,-120.0383147,5351.5175757761,79.396328,0,0.158535766228,13400,2018-05-12 16:02:41,12,0,22.304,5351.5175757761,79.396328,0,0.33384515504,0,0,-0.671082,325.1, 0.6, 0.2,0,0,1024,1024,1024,1024,324,-89.9,97,3.682,3.736,3.73,3.736,3.717,3.697,19.706,53.6,14,Waypoint,
38.2001117,-120.0383148,5352.5018277761,80.38058,0,0.180367131756,13500,2018-05-12 16:02:41,12,0,22.304,5352.5018277761,80.38058,0,0.33384515504,0,0,-0.671082,325.1, 0.6, 0.3,0,0,1024,1024,1024,1024,324,-89.9,97,3.682,3.736,3.73,3.736,3.717,3.697,19.706,53.6,14,Waypoint,
38.2001117,-120.0383148,5353.4860797761,81.364832,0,0.180367131756,13600,2018-05-12 16:02:41,12,0,22.304,5353.4860797761,81.364832,0,0.33384515504,0,0,-0.671082,325, 0.6, 0.6,0,0,1024,1024,1024,1024,324,-89.9,97,3.682,3.736,3.73,3.736,3.717,3.697,19.706,53.6,14,Waypoint,
38.2001117,-120.0383148,5355.1264997761,83.005252,0,0.180367131756,13800,2018-05-12 16:02:42,12,0,22.304,5355.1264997761,83.005252,0,0.33384515504,0,0,-0.671082,325, 0.7, 0.5,0,0,1024,1024,1024,1024,324,-89.9,97,3.682,3.736,3.73,3.736,3.717,3.697,19.706,53.6,14,Waypoint,
38.2001117,-120.0383148,5356.1107517761,83.989504,0,0.180367131756,13900,2018-05-12 16:02:42,12,0,22.304,5356.1107517761,83.989504,0,0.33384515504,0,0,-0.671082,325, 0.6, 0.4,0,0,1024,1024,1024,1024,324,-89.9,97,3.682,3.736,3.73,3.736,3.717,3.697,19.706,53.6,14,Waypoint,
38.2001118,-120.0383147,5357.0950037761,84.973756,0,0.185611554496,14000,2018-05-12 16:02:42,12,0,22.266,5357.0950037761,84.973756,0,0.33384515504,0,0,-0.671082,325, 0.5, 0.4,0,0,1024,1024,1024,1024,324,-90,97,3.675,3.737,3.718,3.72,3.708,3.7,19.648,53.6,14,Waypoint,
38.2001118,-120.0383147,5358.0792557761,85.958008,0,0.185611554496,14110,2018-05-12 16:02:42,12,0,22.266,5358.0792557761,85.958008,0,0.33384515504,0,0,-0.671082,325, 0.4, 0.2,0,0,1024,1024,1024,1024,324,-90,97,3.675,3.737,3.718,3.72,3.708,3.7,19.648,53.6,14,Waypoint,
38.2001118,-120.0383147,5358.0792557761,85.958008,0,0.185611554496,14200,2018-05-12 16:02:42,12,0,22.266,5358.0792557761,85.958008,0,0.33384515504,0,0,-0.671082,325, 0.4, 0.2,0,0,1024,1024,1024,1024,324,-90,97,3.675,3.737,3.718,3.72,3.708,3.7,19.648,53.6,14,Waypoint,
38.2001118,-120.0383147,5359.0635077761,86.94226,0,0.185611554496,14300,2018-05-12 16:02:42,12,0,22.266,5359.0635077761,86.94226,0,0.33384515504,0,0,-0.671082,325.1, 0.5, 0,0,0,1024,1024,1024,1024,324,-89.9,97,3.675,3.737,3.718,3.72,3.708,3.7,19.648,53.6,14,Waypoint,
38.2001119,-120.0383146,5361.0320117761,88.910764,0,0.201686686244,14500,2018-05-12 16:02:42,12,0,22.266,5361.0320117761,88.910764,0,0.33384515504,0,0,-0.671082,325, 0.3, -0.1,0,0,1024,1024,1024,1024,324,-90,97,3.675,3.737,3.718,3.72,3.708,3.7,19.648,53.6,14,Waypoint,
38.2001119,-120.0383146,5362.0162637761,89.895016,0,0.201686686244,14600,2018-05-12 16:02:42,12,0,22.266,5362.0162637761,89.895016,0,0.33384515504,0,0,-0.671082,324.9, 0.2, -0.1,0,0,1024,1024,1024,1024,324,-90,97,3.675,3.737,3.718,3.72,3.708,3.7,19.648,53.6,14,Waypoint,
38.2001119,-120.0383145,5363.0005157761,90.879268,0,0.191225071736,14700,2018-05-12 16:02:43,12,0,22.266,5363.0005157761,90.879268,0,0.33384515504,0,0,-0.671082,324.9, 0.2, -0.1,0,0,1024,1024,1024,1024,324,-90,97,3.675,3.737,3.718,3.72,3.708,3.7,19.648,53.6,14,Waypoint,
38.2001119,-120.0383145,5363.9847677761,91.86352,0,0.191225071736,14800,2018-05-12 16:02:43,12,0,22.266,5363.9847677761,91.86352,0,0.33384515504,0,0,-0.671082,324.9, 0.2, -0.1,0,0,1024,1024,1024,1024,324,-89.9,97,3.675,3.737,3.718,3.72,3.708,3.7,19.648,53.6,14,Waypoint,
38.200112,-120.0383145,5364.9690197761,92.847772,0,0.226295610916,14900,2018-05-12 16:02:43,12,0,22.266,5364.9690197761,92.847772,0,0.33384515504,0,0,-0.671082,324.9, 0.2, -0.1,0,0,1024,1024,1024,1024,324,-89.9,97,3.675,3.737,3.718,3.72,3.708,3.7,19.648,53.6,14,Waypoint,
38.200112,-120.0383144,5365.9532717761,93.832024,0,0.22077920654,15000,2018-05-12 16:02:43,12,0,22.248,5365.9532717761,93.832024,0,0.33384515504,0,0,-0.671082,324.9, 0.2, -0.2,0,0,1024,1024,1024,1024,324,-90,97,3.661,3.725,3.71,3.715,3.697,3.683,19.554,53.6,14,Waypoint,
38.200112,-120.0383144,5366.9375237761,94.816276,0,0.22077920654,15100,2018-05-12 16:02:43,12,0,22.248,5366.9375237761,94.816276,0,0.33384515504,0,0,-0.671082,325, 0.2, -0.2,0,0,1024,1024,1024,1024,324,-90,97,3.661,3.725,3.71,3.715,3.697,3.683,19.554,53.6,14,Waypoint,
38.200112,-120.0383144,5367.9217757761,95.800528,0,0.22077920654,15200,2018-05-12 16:02:43,12,0,22.248,5367.9217757761,95.800528,0,0.33384515504,0,0,-0.671082,325, 0.2, -0.2,0,0,1024,1024,1024,1024,324,-90,97,3.661,3.725,3.71,3.715,3.697,3.683,19.554,53.6,14,Waypoint,
38.200112,-120.0383143,5368.9060277761,96.78478,0,0.218909783908,15300,2018-05-12 16:02:43,12,0,22.248,5368.9060277761,96.78478,0,0.33384515504,0,0,-0.671082,325, 0.1, -0.2,0,0,1024,1024,1024,1024,324,-90,97,3.661,3.725,3.71,3.715,3.697,3.683,19.554,53.6,14,Waypoint,
38.2001121,-120.0383143,5369.8902797761,97.769032,0,0.255394693212,15400,2018-05-12 16:02:43,12,0,22.248,5369.8902797761,97.769032,0,0.33384515504,0,0,-0.671082,325, 0.1, -0.3,0,0,1024,1024,1024,1024,324,-89.9,97,3.661,3.725,3.71,3.715,3.697,3.683,19.554,53.6,14,Waypoint,
38.2001121,-120.0383143,5370.8745317761,98.753284,0,0.255394693212,15500,2018-05-12 16:02:43,12,0,22.248,5370.8745317761,98.753284,0,0.33384515504,0,0,-0.671082,325, 0.2, -0.2,0,0,1024,1024,1024,1024,324,-89.9,97,3.661,3.725,3.71,3.715,3.697,3.683,19.554,53.6,14,Waypoint,
38.2001121,-120.0383143,5371.8587837761,99.737536,0,0.255394693212,15600,2018-05-12 16:02:43,12,0,22.248,5371.8587837761,99.737536,0,0.33384515504,0,0,-0.671082,325, 0.3, -0.2,0,0,1024,1024,1024,1024,324,-89.9,97,3.661,3.725,3.71,3.715,3.697,3.683,19.554,53.6,14,Waypoint,
38.2001122,-120.0383143,5372.8430357761,100.721788,0,0.291879602516,15700,2018-05-12 16:02:44,12,0,22.248,5372.8430357761,100.721788,0,0.33384515504,0,0,-0.671082,325.1, 0.4, -0.1,0,0,1024,1024,1024,1024,324,-89.9,97,3.661,3.725,3.71,3.715,3.697,3.683,19.554,53.6,14,Waypoint,
38.2001122,-120.0383144,5373.8272877761,101.70604,0,0.293284458204,15800,2018-05-12 16:02:44,12,0,22.248,5373.8272877761,101.70604,0,0.33384515504,0,0,-0.671082,325.1, 0.6, 0,0,0,1024,1024,1024,1024,324,-89.9,97,3.661,3.725,3.71,3.715,3.697,3.683,19.554,53.6,14,Waypoint,
38.2001122,-120.0383144,5374.8115397761,102.690292,0,0.293284458204,15900,2018-05-12 16:02:44,12,0,22.248,5374.8115397761,102.690292,0,0.33384515504,0,0,-0.671082,325.1, 0.7, 0.1,0,0,1024,1024,1024,1024,324,-89.9,97,3.661,3.725,3.71,3.715,3.697,3.683,19.554,53.6,14,Waypoint,
38.2001123,-120.0383144,5376.4519597761,104.330712,0,0.32961287144,16000,2018-05-12 16:02:44,12,0,22.204,5376.4519597761,104.330712,0,0.33384515504,0,0,-0.671082,325.1, 0.6, 0.1,0,0,1024,1024,1024,1024,324,-89.9,97,3.661,3.725,3.71,3.715,3.697,3.683,19.499,53.6,14,Waypoint,
38.2001123,-120.0383144,5377.4362117761,105.314964,0,0.32961287144,16100,2018-05-12 16:02:44,12,0,22.204,5377.4362117761,105.314964,0,0.33384515504,0,0,-0.671082,325.1, 0.5, 0,0,0,1024,1024,1024,1024,324,-89.9,97,3.661,3.725,3.71,3.715,3.697,3.683,19.499,53.6,14,Waypoint,
38.2001123,-120.0383144,5378.4204637761,106.299216,0,0.32961287144,16200,2018-05-12 16:02:44,12,0,22.204,5378.4204637761,106.299216,0,0.33384515504,0,0,-0.671082,325, 0.6, 0,0,0,1024,1024,1024,1024,324,-89.9,97,3.661,3.725,3.71,3.715,3.697,3.683,19.499,53.6,14,Waypoint,
38.2001123,-120.0383144,5379.4047157761,107.283468,0,0.32961287144,16310,2018-05-12 16:02:44,12,0,22.204,5379.4047157761,107.283468,0,0.33384515504,0,0,-0.671082,325, 0.5, 0,0,0,1024,1024,1024,1024,324,-89.9,97,3.661,3.725,3.71,3.715,3.697,3.683,19.499,53.6,14,Waypoint,
38.2001123,-120.0383144,5380.3889677761,108.26772,0,0.32961287144,16400,2018-05-12 16:02:44,12,0,22.204,5380.3889677761,108.26772,0,0.33384515504,0,0,-0.671082,325, 0.5, -0.1,0,0,1024,1024,1024,1024,324,-89.9,97,3.661,3.725,3.71,3.715,3.697,3.683,19.499,53.6,14,Waypoint,
38.2001124,-120.0383144,5381.3732197761,109.251972,0,0.36597442116,16500,2018-05-12 16:02:44,12,0,22.204,5381.3732197761,109.251972,0,0.36597442116,0,0,-0.671082,324.9, 0.6, -0.2,0,0,1024,1024,1024,1024,324,-89.9,97,3.661,3.725,3.71,3.715,3.697,3.683,19.499,53.6,14,Waypoint,
38.2001124,-120.0383144,5382.3574717761,110.236224,0,0.36597442116,16600,2018-05-12 16:02:44,12,0,22.204,5382.3574717761,110.236224,0,0.36597442116,0,0,-0.671082,324.9, 0.6, -0.2,0,0,1024,1024,1024,1024,324,-89.9,97,3.661,3.725,3.71,3.715,3.697,3.683,19.499,53.6,14,Waypoint,
38.2001125,-120.0383143,5383.3417237761,111.220476,0,0.40133531468,16700,2018-05-12 16:02:45,12,0,22.204,5383.3417237761,111.220476,0,0.40133531468,0,0,-0.671082,324.9, 0.6, -0.3,0,0,1024,1024,1024,1024,324,-89.9,97,3.661,3.725,3.71,3.715,3.697,3.683,19.499,53.6,14,Waypoint,
38.2001125,-120.0383143,5384.3259757761,112.204728,0,0.40133531468,16800,2018-05-12 16:02:45,12,0,22.204,5384.3259757761,112.204728,0,0.40133531468,0,0,-0.671082,324.9, 0.5, -0.4,0,0,1024,1024,1024,1024,324,-89.9,97,3.661,3.725,3.71,3.715,3.697,3.683,19.499,53.6,14,Waypoint,
38.2001125,-120.0383142,5385.6383117761,113.517064,0,0.40235565592,17000,2018-05-12 16:02:45,12,0,22.204,5385.6383117761,113.517064,0,0.40235565592,0,0,-0.671082,324.9, 0.5, -0.6,0,0,1024,1024,1024,1024,324,-89.9,97,3.671,3.727,3.718,3.717,3.702,3.676,19.499,53.6,14,Waypoint,
38.2001125,-120.0383142,5386.6225637761,114.501316,0,0.40235565592,17100,2018-05-12 16:02:45,12,0,22.204,5386.6225637761,114.501316,0,0.40235565592,0,0,-0.671082,325, 0.4, -0.6,0,0,1024,1024,1024,1024,324,-90,97,3.671,3.727,3.718,3.717,3.702,3.676,19.499,53.6,14,Waypoint,
38.2001125,-120.0383142,5387.6068157761,115.485568,0,0.40235565592,17200,2018-05-12 16:02:45,12,0,22.204,5387.6068157761,115.485568,0,0.40235565592,0,0,-0.671082,325, 0.4, -0.4,0,0,1024,1024,1024,1024,324,-90,97,3.671,3.727,3.718,3.717,3.702,3.676,19.499,53.6,14,Waypoint,
38.2001125,-120.0383142,5388.5910677761,116.46982,0,0.40235565592,17300,2018-05-12 16:02:45,12,0,22.204,5388.5910677761,116.46982,0,0.40235565592,0,0,-0.671082,325, 0.4, -0.2,0,0,1024,1024,1024,1024,324,-90,97,3.671,3.727,3.718,3.717,3.702,3.676,19.499,53.6,14,Waypoint,
38.2001125,-120.0383142,5389.5753197761,117.454072,0,0.40235565592,17400,2018-05-12 16:02:45,12,0,22.204,5389.5753197761,117.454072,0,0.40235565592,0,0,-0.671082,324.9, 0.4, 0,0,0,1024,1024,1024,1024,324,-89.9,97,3.671,3.727,3.718,3.717,3.702,3.676,19.499,53.6,14,Waypoint,
38.2001125,-120.0383142,5390.2314877761,118.11024,0,0.40235565592,17500,2018-05-12 16:02:45,12,0,22.204,5390.2314877761,118.11024,0,0.40235565592,0,0,-0.671082,324.8, 0.5, -0.1,0,0,1024,1024,1024,1024,324,-89.9,97,3.671,3.727,3.718,3.717,3.702,3.676,19.499,53.6,14,Waypoint,
38.2001125,-120.0383142,5391.2157397761,119.094492,0,0.40235565592,17600,2018-05-12 16:02:45,12,0,22.204,5391.2157397761,119.094492,0,0.40235565592,0,0,-0.671082,324.7, 0.6, -0.1,0,0,1024,1024,1024,1024,324,-89.9,97,3.671,3.727,3.718,3.717,3.702,3.676,19.499,53.6,14,Waypoint,
38.2001126,-120.0383142,5392.1999917761,120.078744,0,0.43875657572,17700,2018-05-12 16:02:46,12,0,22.204,5392.1999917761,120.078744,0,0.43875657572,0,0,-0.671082,324.7, 0.6, -0.2,0,0,1024,1024,1024,1024,324,-89.9,97,3.671,3.727,3.718,3.717,3.702,3.676,19.499,53.6,14,Waypoint,
38.2001126,-120.0383142,5393.1842437761,121.062996,0,0.43875657572,17800,2018-05-12 16:02:46,12,0,22.204,5393.1842437761,121.062996,0,0.43875657572,0,0,-0.671082,324.8, 0.6, -0.2,0,0,1024,1024,1024,1024,324,-89.9,97,3.671,3.727,3.718,3.717,3.702,3.676,19.499,53.6,14,Waypoint,
38.2001125,-120.0383142,5394.1684957761,122.047248,0,0.40235565592,17900,2018-05-12 16:02:46,12,0,22.204,5394.1684957761,122.047248,0,0.43875657572,0,0,-0.671082,324.9, 0.5, -0.1,0,0,1024,1024,1024,1024,324,-90,97,3.671,3.727,3.718,3.717,3.702,3.676,19.499,53.6,14,Waypoint,
38.2001125,-120.0383142,5395.1527477761,123.0315,0,0.40235565592,18000,2018-05-12 16:02:46,12,0,22.142,5395.1527477761,123.0315,0,0.43875657572,0,0,-0.671082,325, 0.4, -0.1,0,0,1024,1024,1024,1024,324,-89.9,97,3.661,3.717,3.703,3.705,3.685,3.67,19.637,53.6,14,Waypoint,
38.2001125,-120.0383142,5396.1369997761,124.015752,0,0.40235565592,18100,2018-05-12 16:02:46,12,0,22.142,5396.1369997761,124.015752,0,0.43875657572,0,0,-0.671082,325.1, 0.3, -0.1,0,0,1024,1024,1024,1024,324,-90,97,3.661,3.717,3.703,3.705,3.685,3.67,19.637,53.6,14,Waypoint,
38.2001125,-120.0383142,5397.1212517761,125.000004,0,0.40235565592,18200,2018-05-12 16:02:46,12,0,22.142,5397.1212517761,125.000004,0,0.43875657572,0,0,-0.671082,325.2, 0.3, -0.1,0,0,1024,1024,1024,1024,324,-90,97,3.661,3.717,3.703,3.705,3.685,3.67,19.637,53.6,14,Waypoint,
38.2001124,-120.0383142,5398.1055037761,125.984256,0,0.36597442116,18300,2018-05-12 16:02:46,12,0,22.142,5398.1055037761,125.984256,0,0.43875657572,0,0,-0.671082,325.3, 0.3, 0,0,0,1024,1024,1024,1024,324,-90,97,3.661,3.717,3.703,3.705,3.685,3.67,19.637,53.6,14,Waypoint,
38.2001124,-120.0383143,5399.0897557761,126.968508,0,0.36484909304,18400,2018-05-12 16:02:46,12,0,22.142,5399.0897557761,126.968508,0,0.43875657572,0,0,-0.671082,325.3, 0.3, 0,0,0,1024,1024,1024,1024,324,-90,97,3.661,3.717,3.703,3.705,3.685,3.67,19.637,53.6,14,Waypoint,
38.2001124,-120.0383142,5401.0582597761,128.937012,0,0.36597442116,18510,2018-05-12 16:02:46,12,0,22.142,5401.0582597761,128.937012,0,0.43875657572,0,0,-0.671082,325.3, 0.2, 0,0,0,1024,1024,1024,1024,324,-90,97,3.661,3.717,3.703,3.705,3.685,3.67,19.637,53.6,14,Waypoint,
38.2001124,-120.0383142,5401.0582597761,128.937012,0,0.36597442116,18600,2018-05-12 16:02:46,12,0,22.142,5401.0582597761,128.937012,0,0.43875657572,0,0,-0.671082,325.3, 0.2, 0,0,0,1024,1024,1024,1024,324,-90,97,3.661,3.717,3.703,3.705,3.685,3.67,19.637,53.6,14,Waypoint,
38.2001124,-120.0383142,5403.0267637761,130.905516,0,0.36597442116,18700,2018-05-12 16:02:47,12,0,22.142,5403.0267637761,130.905516,0,0.43875657572,0,0,-0.671082,325.1, 0.2, -0.1,0,0,1024,1024,1024,1024,324,-90,97,3.661,3.717,3.703,3.705,3.685,3.67,19.637,53.6,14,Waypoint,
38.2001124,-120.0383141,5404.9952677761,132.87402,0,0.36932743964,18910,2018-05-12 16:02:47,12,0,22.142,5404.9952677761,132.87402,0,0.43875657572,0,0,-0.671082,324.9, 0.3, -0.2,0,0,1024,1024,1024,1024,324,-89.9,97,3.661,3.717,3.703,3.705,3.685,3.67,19.637,53.6,14,Waypoint,
38.2001124,-120.0383141,5404.9952677761,132.87402,0,0.36932743964,19000,2018-05-12 16:02:47,12,0,22.055,5404.9952677761,132.87402,0,0.43875657572,0,0,-0.671082,324.9, 0.3, -0.2,0,0,1024,1024,1024,1024,324,-89.9,97,3.646,3.719,3.698,3.69,3.683,3.681,19.776,53.6,14,Waypoint,
38.2001124,-120.0383141,5407.9480237761,135.826776,0,0.36932743964,19210,2018-05-12 16:02:47,12,0,22.055,5407.9480237761,135.826776,0,0.43875657572,0,0,-0.671082,324.8, 0.2, -0.2,0,0,1024,1024,1024,1024,324,-90,97,3.646,3.719,3.698,3.69,3.683,3.681,19.776,53.6,14,Waypoint,
38.2001124,-120.0383141,5407.9480237761,135.826776,0,0.36932743964,19300,2018-05-12 16:02:47,12,0,22.055,5407.9480237761,135.826776,0,0.43875657572,0,0,-0.671082,324.8, 0.2, -0.2,0,0,1024,1024,1024,1024,324,-90,97,3.646,3.719,3.698,3.69,3.683,3.681,19.776,53.6,14,Waypoint,
38.2001124,-120.0383141,5408.9322757761,136.811028,0,0.36932743964,19400,2018-05-12 16:02:47,12,0,22.055,5408.9322757761,136.811028,0,0.43875657572,0,0,-0.671082,324.8, 0.3, -0.2,0,0,1024,1024,1024,1024,324,-90,97,3.646,3.719,3.698,3.69,3.683,3.681,19.776,53.6,14,Waypoint,
38.2001124,-120.0383141,5409.9165277761,137.79528,0,0.36932743964,19500,2018-05-12 16:02:47,12,0,22.055,5409.9165277761,137.79528,0,0.43875657572,0,0,-0.671082,324.8, 0.3, -0.3,0,0,1024,1024,1024,1024,324,-90,97,3.646,3.719,3.698,3.69,3.683,3.681,19.776,53.6,14,Waypoint,
38.2001124,-120.0383141,5410.9007797761,138.779532,0,0.36932743964,19600,2018-05-12 16:02:47,12,0,22.055,5410.9007797761,138.779532,0,0.43875657572,0,0,-0.671082,324.7, 0.1, -0.4,0,0,1024,1024,1024,1024,324,-90,97,3.646,3.719,3.698,3.69,3.683,3.681,19.776,53.6,14,Waypoint,
38.2001124,-120.038314,5411.8850317761,139.763784,0,0.3748523742,19700,2018-05-12 16:02:48,12,0,22.055,5411.8850317761,139.763784,0,0.43875657572,0,0,-0.671082,324.7, 0, -0.5,0,0,1024,1024,1024,1024,324,-90,97,3.646,3.719,3.698,3.69,3.683,3.681,19.776,53.6,14,Waypoint,
38.2001125,-120.038314,5412.8692837761,140.748036,0,0.4104494882,19800,2018-05-12 16:02:48,12,0,22.055,5412.8692837761,140.748036,0,0.43875657572,0,0,-0.671082,324.7, 0, -0.6,0,0,1024,1024,1024,1024,324,-89.9,97,3.646,3.719,3.698,3.69,3.683,3.681,19.776,53.6,14,Waypoint,
38.2001124,-120.038314,5413.8535357761,141.732288,0,0.3748523742,19900,2018-05-12 16:02:48,12,0,22.055,5413.8535357761,141.732288,0,0.43875657572,0,0,-0.671082,324.8, 0.2, -0.5,0,0,1024,1024,1024,1024,324,-89.9,97,3.646,3.719,3.698,3.69,3.683,3.681,19.776,53.6,14,Waypoint,
38.2001124,-120.038314,5415.8220397761,143.700792,0,0.3748523742,20100,2018-05-12 16:02:48,12,0,22.055,5415.8220397761,143.700792,0,0.43875657572,0,0,-0.671082,325, 0.1, -0.1,0,0,1024,1024,1024,1024,324,-90,97,3.646,3.719,3.698,3.69,3.683,3.681,19.776,53.6,14,Waypoint,
38.2001124,-120.038314,5417.1343757761,145.013128,0,0.3748523742,20200,2018-05-12 16:02:48,12,0,22.055,5417.1343757761,145.013128,0,0.43875657572,0,0,-0.671082,325, 0.2, 0,0,0,1024,1024,1024,1024,324,-89.9,97,3.646,3.719,3.698,3.69,3.683,3.681,19.776,53.6,14,Waypoint,
38.2001124,-120.0383141,5418.1186277761,145.99738,0,0.36932743964,20310,2018-05-12 16:02:48,12,0,22.055,5418.1186277761,145.99738,0,0.43875657572,0,0,-0.671082,325.1, 0.2, 0,0,0,1024,1024,1024,1024,324,-89.9,97,3.646,3.719,3.698,3.69,3.683,3.681,19.776,53.6,14,Waypoint,
38.2001124,-120.0383141,5419.1028797761,146.981632,0,0.36932743964,20400,2018-05-12 16:02:48,12,0,22.055,5419.1028797761,146.981632,0,0.43875657572,0,0,-0.671082,325.2, 0.4, 0,0,0,1024,1024,1024,1024,324,-89.9,97,3.646,3.719,3.698,3.69,3.683,3.681,19.776,53.6,14,Waypoint,
38.2001124,-120.0383141,5420.0871317761,147.965884,0,0.36932743964,20500,2018-05-12 16:02:48,12,0,22.055,5420.0871317761,147.965884,0,0.43875657572,0,0,-0.671082,325.2, 0.6, 0,0,0,1024,1024,1024,1024,324,-89.9,97,3.646,3.719,3.698,3.69,3.683,3.681,19.776,53.6,14,Waypoint,
38.2001124,-120.0383141,5421.0713837761,148.950136,0,0.36932743964,20600,2018-05-12 16:02:48,12,0,22.055,5421.0713837761,148.950136,0,0.43875657572,0,0,-0.671082,325.3, 0.6, -0.1,0,0,1024,1024,1024,1024,324,-89.9,97,3.646,3.719,3.698,3.69,3.683,3.681,19.776,53.6,14,Waypoint,
38.2001124,-120.0383141,5422.0556357761,149.934388,0,0.36932743964,20700,2018-05-12 16:02:49,12,0,22.055,5422.0556357761,149.934388,0,0.43875657572,0,0,-0.671082,325.3, 0.4, 0,0,0,1024,1024,1024,1024,324,-90,97,3.646,3.719,3.698,3.69,3.683,3.681,19.776,53.6,14,Waypoint,
38.2001124,-120.0383141,5425.0083917761,152.887144,0,0.36932743964,20900,2018-05-12 16:02:49,12,0,22.055,5425.0083917761,152.887144,0,0.43875657572,0,0,-0.671082,325.3, 0, -0.1,0,0,1024,1024,1024,1024,324,-90,97,3.646,3.719,3.698,3.69,3.683,3.681,19.776,53.6,14,Waypoint,
38.2001124,-120.0383141,5425.9926437761,153.871396,0,0.36932743964,21000,2018-05-12 16:02:49,12,0,22.044,5425.9926437761,153.871396,0,0.43875657572,0,0,-0.671082,325.2, 0.2, 0,0,0,1024,1024,1024,1024,324,-89.9,97,3.637,3.694,3.696,3.689,3.674,3.659,19.415,53.6,14,Waypoint,
38.2001124,-120.0383141,5426.9768957761,154.855648,0,0.36932743964,21100,2018-05-12 16:02:49,12,0,22.044,5426.9768957761,154.855648,0,0.43875657572,0,0,-0.671082,325.2, 0.3, 0,0,0,1024,1024,1024,1024,324,-89.9,97,3.637,3.694,3.696,3.689,3.674,3.659,19.415,53.6,14,Waypoint,
38.2001124,-120.0383141,5427.9611477761,155.8399,0,0.36932743964,21200,2018-05-12 16:02:49,12,0,22.044,5427.9611477761,155.8399,0,0.43875657572,0,0,-0.671082,325.1, 0.2, -0.3,0,0,1024,1024,1024,1024,324,-89.9,97,3.637,3.694,3.696,3.689,3.674,3.659,19.415,53.6,14,Waypoint,
38.2001124,-120.038314,5429.9296517761,157.808404,0,0.3748523742,21410,2018-05-12 16:02:49,12,0,22.044,5429.9296517761,157.808404,0,0.43875657572,0,0,-0.671082,325.1, 0, -0.6,0,0,1024,1024,1024,1024,324,-90,97,3.637,3.694,3.696,3.689,3.674,3.659,19.415,53.6,14,Waypoint,
38.2001124,-120.038314,5429.9296517761,157.808404,0,0.3748523742,21500,2018-05-12 16:02:49,12,0,22.044,5429.9296517761,157.808404,0,0.43875657572,0,0,-0.671082,325.1, 0, -0.6,0,0,1024,1024,1024,1024,324,-90,97,3.637,3.694,3.696,3.689,3.674,3.659,19.415,53.6,14,Waypoint,
38.2001125,-120.0383139,5431.8981557761,159.776908,0,0.41739830732,21620,2018-05-12 16:02:49,12,0,22.044,5431.8981557761,159.776908,0,0.43875657572,0,0,-0.671082,325.2, 0.1, -0.6,0,0,1024,1024,1024,1024,324,-89.9,97,3.637,3.694,3.696,3.689,3.674,3.659,19.415,53.6,14,Waypoint,
38.2001125,-120.0383139,5432.8824077761,160.76116,0,0.41739830732,21700,2018-05-12 16:02:50,12,0,22.044,5432.8824077761,160.76116,0,0.43875657572,0,0,-0.671082,325.2, 0.1, -0.5,0,0,1024,1024,1024,1024,324,-89.9,97,3.637,3.694,3.696,3.689,3.674,3.659,19.415,53.6,14,Waypoint,
38.2001125,-120.0383138,5433.8666597761,161.745412,0,0.42617127348,21800,2018-05-12 16:02:50,12,0,22.044,5433.8666597761,161.745412,0,0.43875657572,0,0,-0.671082,325.3, 0, -0.5,0,0,1024,1024,1024,1024,324,-90,97,3.637,3.694,3.696,3.689,3.674,3.659,19.415,53.6,14,Waypoint,
38.2001125,-120.0383138,5434.8509117761,162.729664,0,0.42617127348,22000,2018-05-12 16:02:50,12,0,22.044,5434.8509117761,162.729664,0,0.43875657572,0,0,-0.671082,325.2, 0, -0.7,0,0,1024,1024,1024,1024,324,-90,97,3.633,3.705,3.691,3.685,3.676,3.662,19.415,53.6,14,Waypoint,
38.2001125,-120.0383137,5435.8351637761,163.713916,0,0.43665027644,22100,2018-05-12 16:02:50,12,0,22.044,5435.8351637761,163.713916,0,0.43875657572,0,0,-0.671082,325.1, -0.1, -0.9,0,0,1024,1024,1024,1024,324,-90,97,3.633,3.705,3.691,3.685,3.676,3.662,19.415,53.6,14,Waypoint,
38.2001125,-120.0383137,5436.8194157761,164.698168,0,0.43665027644,22200,2018-05-12 16:02:50,12,0,22.044,5436.8194157761,164.698168,0,0.43875657572,0,0,-0.671082,325, -0.2, -1.1,0,0,1024,1024,1024,1024,324,-90,97,3.633,3.705,3.691,3.685,3.676,3.662,19.415,53.6,14,Waypoint,
38.2001125,-120.0383137,5437.8036677761,165.68242,0,0.43665027644,22300,2018-05-12 16:02:50,12,0,22.044,5437.8036677761,165.68242,0,0.43875657572,0,0,-0.671082,324.8, -0.2, -1.2,0,0,1024,1024,1024,1024,324,-90,97,3.633,3.705,3.691,3.685,3.676,3.662,19.415,53.6,14,Waypoint,
38.2001125,-120.0383137,5438.7879197761,166.666672,0,0.43665027644,22400,2018-05-12 16:02:50,12,0,22.044,5438.7879197761,166.666672,0,0.43875657572,0,0,-0.671082,324.8, -0.3, -1.1,0,0,1024,1024,1024,1024,324,-90,97,3.633,3.705,3.691,3.685,3.676,3.662,19.415,53.6,14,Waypoint,
38.2001125,-120.0383136,5439.7721717761,167.650924,0,0.4487204868,22500,2018-05-12 16:02:50,12,0,22.044,5439.7721717761,167.650924,0,0.4487204868,0,0,-0.671082,324.8, -0.3, -1,0,0,1024,1024,1024,1024,324,-89.9,97,3.633,3.705,3.691,3.685,3.676,3.662,19.415,53.6,14,Waypoint,
38.2001125,-120.0383136,5440.7564237761,168.635176,0,0.4487204868,22600,2018-05-12 16:02:50,12,0,22.044,5440.7564237761,168.635176,0,0.4487204868,0,0,-0.671082,324.8, -0.3, -0.8,0,0,1024,1024,1024,1024,324,-89.9,97,3.633,3.705,3.691,3.685,3.676,3.662,19.415,53.6,14,Waypoint,
38.2001125,-120.0383136,5441.7406757761,169.619428,0,0.4487204868,22700,2018-05-12 16:02:51,12,0,22.044,5441.7406757761,169.619428,0,0.4487204868,0,0,-0.671082,324.8, -0.1, -0.8,0,0,1024,1024,1024,1024,324,-89.9,97,3.633,3.705,3.691,3.685,3.676,3.662,19.415,53.6,14,Waypoint,
38.2001125,-120.0383136,5442.7249277761,170.60368,0,0.4487204868,22800,2018-05-12 16:02:51,12,0,22.044,5442.7249277761,170.60368,0,0.4487204868,0,0,-0.671082,324.8, 0, -0.8,0,0,1024,1024,1024,1024,324,-89.9,97,3.633,3.705,3.691,3.685,3.676,3.662,19.415,53.6,14,Waypoint,
38.2001125,-120.0383137,5443.7091797761,171.587932,0,0.43665027644,22900,2018-05-12 16:02:51,12,0,22.044,5443.7091797761,171.587932,0,0.4487204868,0,0,-0.671082,324.8, 0, -0.6,0,0,1024,1024,1024,1024,324,-89.9,97,3.633,3.705,3.691,3.685,3.676,3.662,19.415,53.6,14,Waypoint,
38.2001126,-120.0383137,5444.6934317761,172.572184,0,0.47040355836,23000,2018-05-12 16:02:51,12,0,22.036,5444.6934317761,172.572184,0,0.47040355836,0,0,-0.671082,324.7, 0, -0.5,0,0,1024,1024,1024,1024,324,-89.9,96,3.633,3.7,3.685,3.679,3.671,3.659,19.304,55.4,14,Waypoint,
38.2001126,-120.0383136,5445.6776837761,173.556436,0,0.48163059284,23100,2018-05-12 16:02:51,12,0,22.036,5445.6776837761,173.556436,0,0.48163059284,0,0,-0.671082,324.7, 0, -0.5,0,0,1024,1024,1024,1024,324,-89.9,96,3.633,3.7,3.685,3.679,3.671,3.659,19.304,55.4,14,Waypoint,
38.2001127,-120.0383136,5447.6461877761,175.52494,0,0.51501970152,23200,2018-05-12 16:02:51,12,0,22.036,5447.6461877761,175.52494,0,0.51501970152,0,0,-0.671082,324.7, 0, -1.2,0,0,1024,1024,1024,1024,324,-89.9,96,3.633,3.7,3.685,3.679,3.671,3.659,19.304,55.4,14,Waypoint,
38.2001127,-120.0383137,5448.6304397761,176.509192,0,0.50453741772,23400,2018-05-12 16:02:51,12,0,22.036,5448.6304397761,176.509192,0,0.51501970152,0,0,-0.671082,324.7, 0.2, -1.3,0,0,1024,1024,1024,1024,324,-89.9,96,3.633,3.7,3.685,3.679,3.671,3.659,19.304,55.4,14,Waypoint,
38.2001128,-120.0383137,5450.5989437761,178.477696,0,0.53897967604,23600,2018-05-12 16:02:51,12,0,22.036,5450.5989437761,178.477696,0,0.53897967604,0,0,-0.671082,325, 0.3, -1.1,0,0,1024,1024,1024,1024,324,-89.9,96,3.633,3.7,3.685,3.679,3.671,3.659,19.304,55.4,14,Waypoint,
38.2001128,-120.0383137,5451.5831957761,179.461948,0,0.53897967604,23700,2018-05-12 16:02:52,12,0,22.036,5451.5831957761,179.461948,0,0.53897967604,0,0,-0.671082,325.1, 0.2, -1,0,0,1024,1024,1024,1024,324,-89.9,96,3.633,3.7,3.685,3.679,3.671,3.659,19.304,55.4,14,Waypoint,
38.2001128,-120.0383137,5452.5674477761,180.4462,0,0.53897967604,23900,2018-05-12 16:02:52,12,0,22.036,5452.5674477761,180.4462,0,0.53897967604,0,0,-0.671082,325.1, 0.2, -0.9,0,0,1024,1024,1024,1024,324,-89.9,96,3.633,3.7,3.685,3.679,3.671,3.659,19.304,55.4,14,Waypoint,
38.2001128,-120.0383137,5453.5516997761,181.430452,0,0.53897967604,24000,2018-05-12 16:02:52,12,0,22.05,5453.5516997761,181.430452,0,0.53897967604,0,0,-0.671082,325.1, 0.1, -0.9,0,0,1024,1024,1024,1024,324,-89.9,96,3.637,3.704,3.691,3.683,3.675,3.662,18.945,55.4,14,Waypoint,
38.2001128,-120.0383138,5454.5359517761,182.414704,0,0.53052495136,24200,2018-05-12 16:02:52,12,0,22.05,5454.5359517761,182.414704,0,0.53897967604,0,0,-0.671082,325, 0.1, -0.8,0,0,1024,1024,1024,1024,324,-89.9,96,3.637,3.704,3.691,3.683,3.675,3.662,18.945,55.4,14,Waypoint,
38.2001128,-120.0383138,5455.5202037761,183.398956,0,0.53052495136,24300,2018-05-12 16:02:52,12,0,22.05,5455.5202037761,183.398956,0,0.53897967604,0,0,-0.671082,325, 0.2, -0.7,0,0,1024,1024,1024,1024,324,-89.9,96,3.637,3.704,3.691,3.683,3.675,3.662,18.945,55.4,14,Waypoint,
38.2001128,-120.0383138,5456.5044557761,184.383208,0,0.53052495136,24500,2018-05-12 16:02:52,12,0,22.05,5456.5044557761,184.383208,0,0.53897967604,0,0,-0.671082,324.9, 0.2, -0.8,0,0,1024,1024,1024,1024,324,-89.9,96,3.637,3.704,3.691,3.683,3.675,3.662,18.945,55.4,14,Waypoint,
38.2001128,-120.0383138,5457.4887077761,185.36746,0,0.53052495136,24600,2018-05-12 16:02:52,12,0,22.05,5457.4887077761,185.36746,0,0.53897967604,0,0,-0.671082,324.9, 0.3, -0.8,0,0,1024,1024,1024,1024,324,-89.9,96,3.637,3.704,3.691,3.683,3.675,3.662,18.945,55.4,14,Waypoint,
38.2001127,-120.0383138,5459.4572117761,187.335964,0,0.49549542268,24800,2018-05-12 16:02:53,12,0,22.05,5459.4572117761,187.335964,0,0.53897967604,0,0,-0.671082,324.9, 0.3, -0.6,0,0,1024,1024,1024,1024,324,-89.9,96,3.637,3.704,3.691,3.683,3.675,3.662,18.945,55.4,14,Waypoint,
38.2001127,-120.0383139,5461.4257157761,189.304468,0,0.48797245656,24900,2018-05-12 16:02:53,12,0,22.05,5461.4257157761,189.304468,0,0.53897967604,0,0,-0.671082,324.9, 0.3, -0.5,0,0,1024,1024,1024,1024,324,-89.9,96,3.637,3.704,3.691,3.683,3.675,3.662,18.945,55.4,14,Waypoint,
38.2001127,-120.038314,5463.3942197761,191.272972,0,0.48204069784,25010,2018-05-12 16:02:53,12,0,22.05,5463.3942197761,191.272972,0,0.53897967604,0,0,-0.671082,325, 0.3, -0.3,0,0,1024,1024,1024,1024,324,-89.9,96,3.637,3.704,3.691,3.683,3.675,3.662,18.945,55.4,14,Waypoint,
38.2001127,-120.038314,5464.3784717761,192.257224,0,0.48204069784,25100,2018-05-12 16:02:53,12,0,22.05,5464.3784717761,192.257224,0,0.53897967604,0,0,-0.671082,325.1, 0.2, -0.4,0,0,1024,1024,1024,1024,324,-89.9,96,3.637,3.704,3.691,3.683,3.675,3.662,18.945,55.4,14,Waypoint,
38.2001126,-120.038314,5465.3627237761,193.241476,0,0.44618767832,25300,2018-05-12 16:02:53,12,0,22.05,5465.3627237761,193.241476,0,0.53897967604,0,0,-0.671082,325.2, 0.1, -0.4,0,0,1024,1024,1024,1024,324,-89.9,96,3.637,3.704,3.691,3.683,3.675,3.662,18.945,55.4,14,Waypoint,
38.2001126,-120.038314,5467.3312277761,195.20998,0,0.44618767832,25400,2018-05-12 16:02:53,12,0,22.05,5467.3312277761,195.20998,0,0.53897967604,0,0,-0.671082,325.3, 0.1, -0.2,0,0,1024,1024,1024,1024,324,-89.9,96,3.637,3.704,3.691,3.683,3.675,3.662,18.945,55.4,14,Waypoint,
38.2001126,-120.038314,5468.3154797761,196.194232,0,0.44618767832,25500,2018-05-12 16:02:53,12,0,22.05,5468.3154797761,196.194232,0,0.53897967604,0,0,-0.671082,325.4, 0.1, -0.1,0,0,1024,1024,1024,1024,324,-89.9,96,3.637,3.704,3.691,3.683,3.675,3.662,18.945,55.4,14,Waypoint,
38.2001125,-120.038314,5470.2839837761,198.162736,0,0.4104494882,25600,2018-05-12 16:02:53,12,0,22.05,5470.2839837761,198.162736,0,0.53897967604,0,0,-0.671082,325.4, 0, -0.2,0,0,1024,1024,1024,1024,324,-90,96,3.637,3.704,3.691,3.683,3.675,3.662,18.945,55.4,14,Waypoint,
38.2001125,-120.038314,5472.2524877761,200.13124,0,0.4104494882,25800,2018-05-12 16:02:54,12,0,22.05,5472.2524877761,200.13124,0,0.53897967604,0,0,-0.671082,325.3, -0.2, -0.3,0,0,1024,1024,1024,1024,324,-89.9,96,3.637,3.704,3.691,3.683,3.675,3.662,18.945,55.4,14,Waypoint,
38.2001125,-120.038314,5473.2367397761,201.115492,0,0.4104494882,25900,2018-05-12 16:02:54,12,0,22.05,5473.2367397761,201.115492,0,0.53897967604,0,0,-0.671082,325.2, -0.1, -0.3,0,0,1024,1024,1024,1024,324,-89.9,96,3.637,3.704,3.691,3.683,3.675,3.662,18.945,55.4,14,Waypoint,
38.2001125,-120.0383139,5475.2052437761,203.083996,0,0.41739830732,26000,2018-05-12 16:02:54,12,0,21.94,5475.2052437761,203.083996,0,0.53897967604,0,0,-0.671082,325.1, 0, -0.5,0,0,1024,1024,1024,1024,324,-89.9,96,3.612,3.681,3.669,3.661,3.654,3.64,19.793,55.4,14,Waypoint,
38.2001125,-120.0383139,5476.1894957761,204.068248,0,0.41739830732,26100,2018-05-12 16:02:54,12,0,21.94,5476.1894957761,204.068248,0,0.53897967604,0,0,-0.671082,325, 0, -0.5,0,0,1024,1024,1024,1024,324,-89.9,96,3.612,3.681,3.669,3.661,3.654,3.64,19.793,55.4,14,Waypoint,
38.2001125,-120.0383139,5477.1737477761,205.0525,0,0.41739830732,26200,2018-05-12 16:02:54,12,0,21.94,5477.1737477761,205.0525,0,0.53897967604,0,0,-0.671082,325, 0, -0.4,0,0,1024,1024,1024,1024,324,-89.9,96,3.612,3.681,3.669,3.661,3.654,3.64,19.793,55.4,14,Waypoint,
38.2001125,-120.0383138,5478.1579997761,206.036752,0,0.42617127348,26300,2018-05-12 16:02:54,12,0,21.94,5478.1579997761,206.036752,0,0.53897967604,0,0,-0.671082,324.9, 0, -0.5,0,0,1024,1024,1024,1024,324,-90,96,3.612,3.681,3.669,3.661,3.654,3.64,19.793,55.4,14,Waypoint,
38.2001125,-120.0383138,5479.1422517761,207.021004,0,0.42617127348,26400,2018-05-12 16:02:54,12,0,21.94,5479.1422517761,207.021004,0,0.53897967604,0,0,-0.671082,324.9, 0, -0.6,0,0,1024,1024,1024,1024,324,-90,96,3.612,3.681,3.669,3.661,3.654,3.64,19.793,55.4,14,Waypoint,
38.2001125,-120.0383138,5480.1265037761,208.005256,0,0.42617127348,26500,2018-05-12 16:02:54,12,0,21.94,5480.1265037761,208.005256,0,0.53897967604,0,0,-0.671082,325, 0, -0.7,0,0,1024,1024,1024,1024,324,-89.9,96,3.612,3.681,3.669,3.661,3.654,3.64,19.793,55.4,14,Waypoint,
38.2001125,-120.0383137,5481.4388397761,209.317592,0,0.43665027644,26600,2018-05-12 16:02:54,12,0,21.94,5481.4388397761,209.317592,0,0.53897967604,0,0,-0.671082,325, 0, -0.7,0,0,1024,1024,1024,1024,324,-89.9,96,3.612,3.681,3.669,3.661,3.654,3.64,19.793,55.4,14,Waypoint,
38.2001125,-120.0383138,5483.0792597761,210.958012,0,0.42617127348,26900,2018-05-12 16:02:55,12,0,21.94,5483.0792597761,210.958012,0,0.53897967604,0,0,-0.671082,325.1, 0, -0.5,0,0,1024,1024,1024,1024,324,-89.9,96,3.612,3.681,3.669,3.661,3.654,3.64,19.793,55.4,14,Waypoint,
38.2001125,-120.0383138,5484.0635117761,211.942264,0,0.42617127348,27000,2018-05-12 16:02:55,12,0,21.933,5484.0635117761,211.942264,0,0.53897967604,0,0,-0.671082,325.1, 0, -0.4,0,0,1024,1024,1024,1024,324,-89.9,96,3.612,3.681,3.669,3.661,3.654,3.64,19.255,55.4,14,Waypoint,
38.2001124,-120.0383138,5485.0477637761,212.926516,0,0.39200460572,27100,2018-05-12 16:02:55,12,0,21.933,5485.0477637761,212.926516,0,0.53897967604,0,0,-0.671082,325.1, 0, -0.4,0,0,1024,1024,1024,1024,324,-90,96,3.612,3.681,3.669,3.661,3.654,3.64,19.255,55.4,14,Waypoint,
38.2001124,-120.0383138,5486.0320157761,213.910768,0,0.39200460572,27200,2018-05-12 16:02:55,12,0,21.933,5486.0320157761,213.910768,0,0.53897967604,0,0,-0.671082,325, 0, -0.4,0,0,1024,1024,1024,1024,324,-90,96,3.612,3.681,3.669,3.661,3.654,3.64,19.255,55.4,14,Waypoint,
38.2001124,-120.0383138,5487.0162677761,214.89502,0,0.39200460572,27300,2018-05-12 16:02:55,12,0,21.933,5487.0162677761,214.89502,0,0.53897967604,0,0,-0.671082,325, -0.1, -0.4,0,0,1024,1024,1024,1024,324,-90,96,3.612,3.681,3.669,3.661,3.654,3.64,19.255,55.4,14,Waypoint,
38.2001124,-120.0383137,5488.0005197761,215.879272,0,0.40337271632,27400,2018-05-12 16:02:55,12,0,21.933,5488.0005197761,215.879272,0,0.53897967604,0,0,-0.671082,325, -0.2, -0.2,0,0,1024,1024,1024,1024,324,-89.9,96,3.612,3.681,3.669,3.661,3.654,3.64,19.255,55.4,14,Waypoint,
