latitude,longitude,altitude(feet),ascent(feet),speed(mph),distance(feet),time(millisecond),datetime(utc),satellites,gpslevel,voltage(v),max_altitude(feet),max_ascent(feet),max_speed(mph),max_distance(feet), xSpeed(mph), ySpeed(mph), zSpeed(mph), compass_heading(degrees), pitch(degrees), roll(degrees),isPhoto,isVideo,rc_elevator,rc_aileron,rc_throttle,rc_rudder,gimbal_heading(degrees),gimbal_pitch(degrees),battery_percent,voltageCell1,voltageCell2,voltageCell3,voltageCell4,voltageCell5,voltageCell6,current(A),battery_temperature(f),flycStateRaw,flycState,message
38.1754064,-120.0595488,4961.6573451247,0,0,0,3030,2018-05-12 21:16:01,14,0,25.937,4961.6573451247,0,0,0,0,0,0,63.2, 0.1, -0.7,1,0,1024,1024,1024,1024,63.5,-90,100,4.316,4.324,4.324,4.327,4.319,4.323,1.29,73.4,11,AutoTakeoff,DJI_0412.jpg Starting Mission from Lat/Long: 38.17541/-120.05955 Camera: Zenmuse X3 - Overlap: 90/90 - Active Connection: No
38.1754064,-120.0595488,4961.6573451247,0,0,0,3100,2018-05-12 21:16:01,14,0,25.937,4961.6573451247,0,0,0,0,0,0,63.3, 0, -0.7,0,0,1024,1024,1024,1024,63.5,-89.9,100,4.316,4.324,4.324,4.327,4.319,4.323,1.29,73.4,11,AutoTakeoff,
38.1754065,-120.0595488,4961.6573451247,0,0,0.036484909304,3200,2018-05-12 21:16:02,14,0,25.937,4961.6573451247,0,0,0.036484909304,0,0,0,63.4, 0, -0.1,0,0,1024,1024,1024,1024,63.5,-90,100,4.316,4.324,4.324,4.327,4.319,4.323,1.29,73.4,11,AutoTakeoff,
38.1754065,-120.0595489,4961.9854291247,0.328084,0,0.046408794136,3300,2018-05-12 21:16:02,14,0,25.937,4961.9854291247,0.328084,0,0.046408794136,0,0,0,63.4, 0, 0.4,0,0,1024,1024,1024,1024,63.5,-89.9,100,4.316,4.324,4.324,4.327,4.319,4.323,1.29,73.4,11,AutoTakeoff,
38.1754066,-120.0595489,4961.9854291247,0.328084,0,0.078404201984,3400,2018-05-12 21:16:02,14,0,25.937,4961.9854291247,0.328084,0,0.078404201984,0,0,0,63.5, 0.2, 0.5,0,0,1024,1024,1024,1024,63.5,-89.9,100,4.316,4.324,4.324,4.327,4.319,4.323,1.29,73.4,11,AutoTakeoff,
38.1754067,-120.0595488,4962.3135131247,0.656168,0,0.109454727912,3600,2018-05-12 21:16:02,14,0,25.937,4962.3135131247,0.656168,0,0.109454727912,0,0,0,63.4, 0, 0,0,0,1024,1024,1024,1024,63.5,-89.9,100,4.316,4.324,4.324,4.327,4.319,4.323,1.29,73.4,11,AutoTakeoff,
38.1754067,-120.0595488,4962.6415971247,0.984252,0,0.109454727912,3700,2018-05-12 21:16:02,14,0,25.937,4962.6415971247,0.984252,0,0.109454727912,0,0,0,63.3, 0.1, 0,0,0,1024,1024,1024,1024,63.5,-89.9,100,4.316,4.324,4.324,4.327,4.319,4.323,1.29,73.4,11,AutoTakeoff,
38.1754068,-120.0595487,4962.6415971247,0.984252,0,0.148731632056,3800,2018-05-12 21:16:02,13,0,25.937,4962.6415971247,0.984252,0,0.148731632056,0,0,0,63.1, 0.3, -0.2,0,0,1024,1024,1024,1024,63.5,-89.9,100,4.316,4.324,4.324,4.327,4.319,4.323,1.29,73.4,11,AutoTakeoff,
38.1754068,-120.0595486,4962.9696811247,1.312336,0,0.156808732052,3900,2018-05-12 21:16:02,13,0,25.937,4962.9696811247,1.312336,0,0.156808732052,0,0,0,63, 0.4, -0.5,0,0,1024,1024,1024,1024,63.5,-89.9,100,4.316,4.324,4.324,4.327,4.319,4.323,1.29,73.4,11,AutoTakeoff,
38.1754068,-120.0595486,4962.9696811247,1.312336,0,0.156808732052,4000,2018-05-12 21:16:02,13,0,24.909,4962.9696811247,1.312336,0,0.156808732052,0,0,0,62.9, 0.4, -0.7,0,0,1024,1024,1024,1024,63.5,-89.9,100,4.281,4.303,4.294,4.318,4.282,4.314,9.908,73.4,11,AutoTakeoff,
38.1754069,-120.0595486,4963.2977651247,1.64042,0,0.191230977248,4200,2018-05-12 21:16:03,13,0,24.909,4963.2977651247,1.64042,0,0.191230977248,0,0,0,62.7, 0.4, -0.4,0,0,1024,1024,1024,1024,63.5,-89.9,100,4.281,4.303,4.294,4.318,4.282,4.314,9.908,73.4,11,AutoTakeoff,
38.175407,-120.0595485,4963.2977651247,1.64042,0,0.235212934036,4300,2018-05-12 21:16:03,14,0,24.909,4963.2977651247,1.64042,0,0.235212934036,0,0,0,62.6, 0.6, -0.1,0,0,1024,1024,1024,1024,63.5,-89.9,100,4.281,4.303,4.294,4.318,4.282,4.314,9.908,73.4,11,AutoTakeoff,
38.1754071,-120.0595484,4963.6258491247,1.968504,0,0.279979667752,4410,2018-05-12 21:16:03,14,0,24.909,4963.6258491247,1.968504,0,0.279979667752,0,0,-0.223694,62.6, 0.8, 0.4,0,0,1024,1024,1024,1024,63.5,-89.9,100,4.281,4.303,4.294,4.318,4.282,4.314,9.908,73.4,11,AutoTakeoff,
38.1754071,-120.0595483,4963.9539331247,2.296588,0,0.292903224596,4600,2018-05-12 21:16:03,14,0,24.909,4963.9539331247,2.296588,0,0.292903224596,0,0,-0.223694,62.8, 0.8, 0.5,0,0,1024,1024,1024,1024,63.5,-89.9,100,4.281,4.303,4.294,4.318,4.282,4.314,9.908,73.4,11,AutoTakeoff,
38.1754071,-120.0595482,4964.2820171247,2.624672,0,0.307963264448,4700,2018-05-12 21:16:03,14,0,24.909,4964.2820171247,2.624672,0,0.307963264448,0,0,0,63.1, 1, 0.5,0,0,1024,1024,1024,1024,63.5,-89.9,100,4.281,4.303,4.294,4.318,4.282,4.314,9.908,73.4,11,AutoTakeoff,
38.1754071,-120.059548,4964.2820171247,2.624672,0,0.34333006348,4800,2018-05-12 21:16:03,14,0,24.909,4964.2820171247,2.624672,0,0.34333006348,0,0,-0.223694,63.5, 1.3, 0.4,0,0,1024,1024,1024,1024,63.5,-89.9,100,4.281,4.303,4.294,4.318,4.282,4.314,9.908,73.4,11,AutoTakeoff,
38.1754072,-120.0595478,4964.6101011247,2.952756,0,0.40921589236,4900,2018-05-12 21:16:03,13,0,24.909,4964.6101011247,2.952756,0,0.40921589236,0,0,-0.223694,63.7, 1.7, 0.2,0,0,1024,1024,1024,1024,63.5,-89.9,100,4.281,4.303,4.294,4.318,4.282,4.314,9.908,73.4,6,P-GPS,
38.1754072,-120.0595478,4964.6101011247,2.952756,0,0.40921589236,5000,2018-05-12 21:16:03,13,0,24.525,4964.6101011247,2.952756,0,0.40921589236,0,0,0,64, 1.9, 0,0,0,1024,1024,1024,1024,63.5,-89.9,98,4.111,4.171,4.143,4.169,4.087,4.124,16.45,73.4,14,Waypoint,
38.1754072,-120.0595477,4964.9381851247,3.28084,0,0.4298064442,5100,2018-05-12 21:16:03,13,0,24.525,4964.9381851247,3.28084,0,0.4298064442,0,0,0,64.2, 1.6, -0.3,0,0,1024,1024,1024,1024,63.5,-89.9,98,4.111,4.171,4.143,4.169,4.087,4.124,16.45,73.4,14,Waypoint,
38.1754072,-120.0595476,4964.9381851247,3.28084,0,0.451279542,5200,2018-05-12 21:16:04,13,0,24.525,4964.9381851247,3.28084,0,0.451279542,0,0,0,64.6, 1.3, -0.7,0,0,1024,1024,1024,1024,63.5,-89.9,98,4.111,4.171,4.143,4.169,4.087,4.124,16.45,73.4,14,Waypoint,
38.1754072,-120.0595475,4965.2662691247,3.608924,0,0.47351707552,5300,2018-05-12 21:16:04,13,0,24.525,4965.2662691247,3.608924,0,0.47351707552,0,0,0,64.8, 1.1, -0.6,0,0,1024,1024,1024,1024,63.5,-90,98,4.111,4.171,4.143,4.169,4.087,4.124,16.45,73.4,14,Waypoint,
38.1754072,-120.0595474,4965.2662691247,3.608924,0,0.49641733872,5400,2018-05-12 21:16:04,13,0,24.525,4965.2662691247,3.608924,0,0.49641733872,0,0,0,65, 1.1, -0.4,0,0,1024,1024,1024,1024,63.5,-89.9,98,4.111,4.171,4.143,4.169,4.087,4.124,16.45,73.4,14,Waypoint,
38.1754072,-120.0595474,4965.5943531247,3.937008,0,0.49641733872,5500,2018-05-12 21:16:04,13,0,24.525,4965.5943531247,3.937008,0,0.49641733872,0,0,-0.223694,65.3, 1, -0.2,0,0,1024,1024,1024,1024,63.5,-89.9,98,4.111,4.171,4.143,4.169,4.087,4.124,16.45,73.4,14,Waypoint,
38.1754072,-120.0595473,4965.9224371247,4.265092,0,0.51989174892,5600,2018-05-12 21:16:04,13,0,24.525,4965.9224371247,4.265092,0,0.51989174892,0,0,-0.223694,65.5, 0.9, 0,0,0,1024,1024,1024,1024,63.6,-90,98,4.111,4.171,4.143,4.169,4.087,4.124,16.45,73.4,14,Waypoint,
38.1754073,-120.0595473,4965.9224371247,4.265092,0,0.54121720892,5700,2018-05-12 21:16:04,13,0,24.525,4965.9224371247,4.265092,0,0.54121720892,0,0,-0.223694,65.7, 0.9, 0,0,0,1024,1024,1024,1024,63.6,-89.9,98,4.111,4.171,4.143,4.169,4.087,4.124,16.45,73.4,14,Waypoint,
38.1754073,-120.0595472,4966.2505211247,4.593176,0,0.56428479496,5800,2018-05-12 21:16:04,13,0,24.525,4966.2505211247,4.593176,0,0.56428479496,0,0,-0.223694,65.8, 1, 0.3,0,0,1024,1024,1024,1024,63.6,-89.9,98,4.111,4.171,4.143,4.169,4.087,4.124,16.45,73.4,14,Waypoint,
38.1754074,-120.0595472,4966.5786051247,4.92126,0,0.58626642296,5900,2018-05-12 21:16:04,14,0,24.525,4966.5786051247,4.92126,0,0.58626642296,0,0,-0.223694,65.8, 1.2, 0.5,0,0,1024,1024,1024,1024,63.7,-89.9,98,4.111,4.171,4.143,4.169,4.087,4.124,16.45,73.4,14,Waypoint,
38.1754075,-120.0595471,4966.9066891247,5.249344,0,0.63151576824,6000,2018-05-12 21:16:04,14,0,24.377,4966.9066891247,5.249344,0,0.63151576824,0,0,-0.223694,65.9, 1.4, 0.3,0,0,1024,1024,1024,1024,63.7,-89.9,98,4.067,4.098,4.079,4.089,4.063,4.088,18.75,73.4,14,Waypoint,
38.1754076,-120.059547,4967.5628571247,5.905512,0,0.676919313,6100,2018-05-12 21:16:04,14,0,24.377,4967.5628571247,5.905512,0,0.676919313,0,0,-0.447388,65.9, 1.5, 0.2,0,0,1024,1024,1024,1024,63.8,-89.9,98,4.067,4.098,4.079,4.089,4.063,4.088,18.75,73.4,14,Waypoint,
38.1754077,-120.0595469,4968.2190251247,6.56168,0,0.72245081052,6200,2018-05-12 21:16:05,14,0,24.377,4968.2190251247,6.56168,0,0.72245081052,0,0,-0.447388,65.7, 1.6, 0.2,0,0,1024,1024,1024,1024,63.8,-89.9,98,4.067,4.098,4.079,4.089,4.063,4.088,18.75,73.4,14,Waypoint,
38.1754081,-120.0595467,4969.5313611247,7.874016,0,0.86457351848,6300,2018-05-12 21:16:05,14,0,24.377,4969.5313611247,7.874016,0,0.86457351848,0,0,-0.447388,65.5, 1.9, 0.7,0,0,1024,1024,1024,1024,63.8,-89.9,98,4.067,4.098,4.079,4.089,4.063,4.088,18.75,73.4,14,Waypoint,
38.1754084,-120.0595466,4970.1875291247,8.530184,0,0.96468507024,6400,2018-05-12 21:16:05,14,0,24.377,4970.1875291247,8.530184,0,0.96468507024,0,0,-0.671082,65.3, 2.3, 1.2,0,0,1024,1024,1024,1024,63.9,-89.9,98,4.067,4.098,4.079,4.089,4.063,4.088,18.75,73.4,14,Waypoint,
38.1754086,-120.0595465,4971.1717811247,9.514436,0,1.03896656868,6500,2018-05-12 21:16:05,14,0,24.377,4971.1717811247,9.514436,0,1.03896656868,0,0,-0.671082,65.1, 2.7, 1.6,0,0,1024,1024,1024,1024,63.9,-89.9,98,4.067,4.098,4.079,4.089,4.063,4.088,18.75,73.4,14,Waypoint,
38.1754089,-120.0595464,4972.1560331247,10.498688,0,1.14271985284,6600,2018-05-12 21:16:05,14,0,24.377,4972.1560331247,10.498688,0,1.14271985284,0,0,-0.671082,64.9, 2.9, 1.9,0,0,1024,1024,1024,1024,63.9,-89.9,98,4.067,4.098,4.079,4.089,4.063,4.088,18.75,73.4,14,Waypoint,
38.1754091,-120.0595464,4973.1402851247,11.48294,0,1.20176841116,6700,2018-05-12 21:16:05,14,0,24.377,4973.1402851247,11.48294,0,1.20176841116,0,0,-0.671082,64.8, 3, 2.1,0,0,1024,1024,1024,1024,64,-89.9,98,4.067,4.098,4.079,4.089,4.063,4.088,18.75,73.4,14,Waypoint,
38.1754093,-120.0595464,4974.4526211247,12.795276,0,1.26227366244,6800,2018-05-12 21:16:05,14,0,24.377,4974.4526211247,12.795276,0,1.26227366244,0,0,-0.671082,64.7, 3, 2,0,0,1024,1024,1024,1024,64,-89.9,98,4.067,4.098,4.079,4.089,4.063,4.088,18.75,73.4,14,Waypoint,
38.1754094,-120.0595463,4975.4368731247,13.779528,0,1.30850397888,6910,2018-05-12 21:16:05,14,0,24.377,4975.4368731247,13.779528,0,1.30850397888,0,0,-0.671082,64.8, 2.9, 1.6,0,0,1024,1024,1024,1024,64,-89.9,98,4.067,4.098,4.079,4.089,4.063,4.088,18.75,73.4,14,Waypoint,
38.1754095,-120.0595463,4976.7492091247,15.091864,0,1.3391732712,7100,2018-05-12 21:16:05,14,0,24.377,4976.7492091247,15.091864,0,1.3391732712,0,0,-0.671082,64.9, 2.7, 1.3,0,0,1024,1024,1024,1024,64,-89.9,98,4.067,4.098,4.079,4.089,4.063,4.088,18.75,73.4,14,Waypoint,
38.1754096,-120.0595463,4977.7334611247,16.076116,0,1.37012471576,7200,2018-05-12 21:16:06,14,0,24.377,4977.7334611247,16.076116,0,1.37012471576,0,0,-0.671082,65, 2.6, 1.3,0,0,1024,1024,1024,1024,64.1,-89.9,98,4.067,4.098,4.079,4.089,4.063,4.088,18.75,73.4,14,Waypoint,
38.1754096,-120.0595464,4979.0457971247,17.388452,0,1.35533796988,7300,2018-05-12 21:16:06,14,0,24.377,4979.0457971247,17.388452,0,1.37012471576,0,0,-0.671082,65.1, 2.4, 1.4,0,0,1024,1024,1024,1024,64.1,-89.9,98,4.067,4.098,4.079,4.089,4.063,4.088,18.75,73.4,14,Waypoint,
38.1754095,-120.0595463,4980.0300491247,18.372704,0.223694,1.3391732712,7400,2018-05-12 21:16:06,14,0,24.377,4980.0300491247,18.372704,0.223694,1.37012471576,0,0,-0.671082,65.2, 2.2, 1.2,0,0,1024,1024,1024,1024,64.1,-90,98,4.067,4.098,4.079,4.089,4.063,4.088,18.75,73.4,14,Waypoint,
38.1754094,-120.0595464,4981.0143011247,19.356956,0.223694,1.29300857156,7500,2018-05-12 21:16:06,14,0,24.377,4981.0143011247,19.356956,0.223694,1.37012471576,0,0,-0.671082,65.2, 1.7, 0.7,0,0,1024,1024,1024,1024,64.1,-89.9,98,4.067,4.098,4.079,4.089,4.063,4.088,18.75,73.4,14,Waypoint,
38.1754092,-120.0595464,4982.3266371247,20.669292,0.223694,1.23185371396,7600,2018-05-12 21:16:06,14,0,24.377,4982.3266371247,20.669292,0.223694,1.37012471576,0,0,-0.671082,65.4, 1.4, 0.1,0,0,1024,1024,1024,1024,64.2,-90,98,4.067,4.098,4.079,4.089,4.063,4.088,18.75,73.4,14,Waypoint,
38.1754089,-120.0595464,4983.3108891247,21.653544,0.223694,1.14271985284,7700,2018-05-12 21:16:06,14,0,24.377,4983.3108891247,21.653544,0.223694,1.37012471576,0,0,-0.671082,65.5, 1.2, -0.4,0,0,1024,1024,1024,1024,64.2,-90,98,4.067,4.098,4.079,4.089,4.063,4.088,18.75,73.4,14,Waypoint,
38.1754087,-120.0595464,4984.2951411247,22.637796,0.223694,1.08536420796,7800,2018-05-12 21:16:06,14,0,24.377,4984.2951411247,22.637796,0.223694,1.37012471576,0,0,-0.671082,65.7, 1.3, -0.8,0,0,1024,1024,1024,1024,64.2,-89.9,98,4.067,4.098,4.079,4.089,4.063,4.088,18.75,73.4,14,Waypoint,
38.1754084,-120.0595464,4985.6074771247,23.950132,0.223694,1.00314307672,7900,2018-05-12 21:16:06,14,0,24.377,4985.6074771247,23.950132,0.223694,1.37012471576,0,0,-0.671082,65.8, 1.4, -1.1,0,0,1024,1024,1024,1024,64.2,-89.9,98,4.067,4.098,4.079,4.089,4.063,4.088,18.75,73.4,14,Waypoint,
38.1754081,-120.0595464,4986.5917291247,24.934384,0.223694,0.9265748328,8000,2018-05-12 21:16:06,14,0,23.603,4986.5917291247,24.934384,0.223694,1.37012471576,0,0,-0.671082,65.9, 1.4, -1.5,0,0,1024,1024,1024,1024,64.2,-90,98,3.905,3.946,3.959,3.973,3.949,3.98,23.989,73.4,14,Waypoint,
38.1754079,-120.0595464,4987.5759811247,25.918636,0.223694,0.87940291528,8100,2018-05-12 21:16:06,14,0,23.603,4987.5759811247,25.918636,0.223694,1.37012471576,0,0,-0.671082,65.9, 1.3, -1.9,0,0,1024,1024,1024,1024,64.2,-90,98,3.905,3.946,3.959,3.973,3.949,3.98,23.989,73.4,14,Waypoint,
38.1754076,-120.0595464,4988.5602331247,26.902888,0.223694,0.8157972702,8200,2018-05-12 21:16:07,14,0,23.603,4988.5602331247,26.902888,0.223694,1.37012471576,0,0,-0.671082,65.9, 1, -2,0,0,1024,1024,1024,1024,64.3,-89.9,98,3.905,3.946,3.959,3.973,3.949,3.98,23.989,73.4,14,Waypoint,
38.1754074,-120.0595465,4989.8725691247,28.215224,0.223694,0.75384844932,8300,2018-05-12 21:16:07,14,0,23.603,4989.8725691247,28.215224,0.223694,1.37012471576,0,0,-0.671082,65.8, 0.8, -2,0,0,1024,1024,1024,1024,64.3,-90,98,3.905,3.946,3.959,3.973,3.949,3.98,23.989,73.4,14,Waypoint,
38.1754071,-120.0595466,4990.8568211247,29.199476,0.223694,0.68072180656,8400,2018-05-12 21:16:07,14,0,23.603,4990.8568211247,29.199476,0.223694,1.37012471576,0,0,-0.671082,65.7, 0.5, -2,0,0,1024,1024,1024,1024,64.3,-90,98,3.905,3.946,3.959,3.973,3.949,3.98,23.989,73.4,14,Waypoint,
38.1754069,-120.0595466,4991.8410731247,30.183728,0.223694,0.65683729136,8500,2018-05-12 21:16:07,14,0,23.603,4991.8410731247,30.183728,0.223694,1.37012471576,0,0,-0.671082,65.7, 0.3, -2,0,0,1024,1024,1024,1024,64.3,-90,98,3.905,3.946,3.959,3.973,3.949,3.98,23.989,73.4,14,Waypoint,
38.1754064,-120.0595466,4993.8095771247,32.152232,0,0.63099411468,8600,2018-05-12 21:16:07,14,0,23.603,4993.8095771247,32.152232,0.223694,1.37012471576,0,0,-0.671082,65.6, 0.4, -2.1,0,0,1024,1024,1024,1024,64.3,-90,98,3.905,3.946,3.959,3.973,3.949,3.98,23.989,73.4,14,Waypoint,
38.175406,-120.0595466,4996.1061651247,34.44882,0,0.6476542202,8800,2018-05-12 21:16:07,14,0,23.603,4996.1061651247,34.44882,0.223694,1.37012471576,0,0,-0.671082,65.5, 0.8, -1.8,0,0,1024,1024,1024,1024,64.4,-89.9,98,3.905,3.946,3.959,3.973,3.949,3.98,23.989,73.4,14,Waypoint,
38.1754059,-120.0595466,4997.0904171247,35.433072,0,0.65683729136,8900,2018-05-12 21:16:07,14,0,23.603,4997.0904171247,35.433072,0.223694,1.37012471576,0,0,-0.671082,65.4, 1.1, -1.5,0,0,1024,1024,1024,1024,64.4,-89.9,98,3.905,3.946,3.959,3.973,3.949,3.98,23.989,73.4,14,Waypoint,
38.1754058,-120.0595466,4998.0746691247,36.417324,0,0.66789044132,9000,2018-05-12 21:16:07,14,0,23.955,4998.0746691247,36.417324,0.223694,1.37012471576,0,0,-0.671082,65.4, 1.4, -1.4,0,0,1024,1024,1024,1024,64.4,-89.9,98,3.971,3.996,4.004,4.015,3.985,4.007,18.722,73.4,14,Waypoint,
38.1754057,-120.0595465,4999.0589211247,37.401576,0,0.70738847408,9100,2018-05-12 21:16:07,14,0,23.955,4999.0589211247,37.401576,0.223694,1.37012471576,0,0,-0.671082,65.4, 1.5, -1.5,0,0,1024,1024,1024,1024,64.4,-89.9,98,3.971,3.996,4.004,4.015,3.985,4.007,18.722,73.4,14,Waypoint,
38.1754056,-120.0595466,5000.0431731247,38.385828,0,0.69523296188,9300,2018-05-12 21:16:08,14,0,23.955,5000.0431731247,38.385828,0.223694,1.37012471576,0,0,-0.671082,65.4, 1.5, -1.5,0,0,1024,1024,1024,1024,64.4,-89.9,98,3.971,3.996,4.004,4.015,3.985,4.007,18.722,73.4,14,Waypoint,
38.1754056,-120.0595466,5001.0274251247,39.37008,0,0.69523296188,9400,2018-05-12 21:16:08,14,0,23.955,5001.0274251247,39.37008,0.223694,1.37012471576,0,0,-0.671082,65.5, 1.4, -1.3,0,0,1024,1024,1024,1024,64.4,-89.9,98,3.971,3.996,4.004,4.015,3.985,4.007,18.722,73.4,14,Waypoint,
38.1754055,-120.0595466,5002.0116771247,40.354332,0,0.71132220124,9500,2018-05-12 21:16:08,14,0,23.955,5002.0116771247,40.354332,0.223694,1.37012471576,0,0,-0.671082,65.5, 1.4, -1.1,0,0,1024,1024,1024,1024,64.5,-90,98,3.971,3.996,4.004,4.015,3.985,4.007,18.722,73.4,14,Waypoint,
38.1754055,-120.0595467,5002.9959291247,41.338584,0,0.6860072398,9600,2018-05-12 21:16:08,14,0,23.955,5002.9959291247,41.338584,0.223694,1.37012471576,0,0,-0.671082,65.6, 1.2, -1,0,0,1024,1024,1024,1024,64.5,-90,98,3.971,3.996,4.004,4.015,3.985,4.007,18.722,73.4,14,Waypoint,
38.1754055,-120.0595466,5004.3082651247,42.65092,0,0.71132220124,9700,2018-05-12 21:16:08,14,0,23.955,5004.3082651247,42.65092,0.223694,1.37012471576,0,0,-0.671082,65.6, 1.2, -0.9,0,0,1024,1024,1024,1024,64.5,-90,98,3.971,3.996,4.004,4.015,3.985,4.007,18.722,73.4,14,Waypoint,
38.1754055,-120.0595466,5005.2925171247,43.635172,0,0.71132220124,9800,2018-05-12 21:16:08,14,0,23.955,5005.2925171247,43.635172,0.223694,1.37012471576,0,0,-0.671082,65.5, 1.3, -0.8,0,0,1024,1024,1024,1024,64.5,-89.9,98,3.971,3.996,4.004,4.015,3.985,4.007,18.722,73.4,14,Waypoint,
38.1754055,-120.0595466,5006.2767691247,44.619424,0,0.71132220124,9900,2018-05-12 21:16:08,14,0,23.955,5006.2767691247,44.619424,0.223694,1.37012471576,0,0,-0.671082,65.5, 1.4, -0.6,0,0,1024,1024,1024,1024,64.5,-89.9,98,3.971,3.996,4.004,4.015,3.985,4.007,18.722,73.4,14,Waypoint,
38.1754055,-120.0595467,5007.2610211247,45.603676,0,0.6860072398,10000,2018-05-12 21:16:08,14,0,23.938,5007.2610211247,45.603676,0.223694,1.37012471576,0,0,-0.671082,65.5, 1.4, -0.6,0,0,1024,1024,1024,1024,64.5,-89.9,98,3.961,3.989,3.996,4.008,3.975,3.999,19.339,73.4,14,Waypoint,
38.1754056,-120.0595467,5008.2452731247,46.587928,0.223694,0.66931104504,10100,2018-05-12 21:16:08,14,0,23.938,5008.2452731247,46.587928,0.223694,1.37012471576,0,0,-0.671082,65.5, 1.4, -0.5,0,0,1024,1024,1024,1024,64.5,-89.9,98,3.961,3.989,3.996,4.008,3.975,3.999,19.339,73.4,14,Waypoint,
38.1754056,-120.0595466,5009.2295251247,47.57218,0.223694,0.69523296188,10200,2018-05-12 21:16:09,14,0,23.938,5009.2295251247,47.57218,0.223694,1.37012471576,0,0,-0.671082,65.5, 1.6, -0.3,0,0,1024,1024,1024,1024,64.5,-89.9,98,3.961,3.989,3.996,4.008,3.975,3.999,19.339,73.4,14,Waypoint,
38.1754057,-120.0595467,5010.2137771247,48.556432,0.223694,0.65422246188,10300,2018-05-12 21:16:09,14,0,23.938,5010.2137771247,48.556432,0.223694,1.37012471576,0,0,-0.671082,65.5, 1.7, -0.2,0,0,1024,1024,1024,1024,64.5,-89.9,98,3.961,3.989,3.996,4.008,3.975,3.999,19.339,73.4,14,Waypoint,
38.1754057,-120.0595467,5011.1980291247,49.540684,0.223694,0.65422246188,10400,2018-05-12 21:16:09,14,0,23.938,5011.1980291247,49.540684,0.223694,1.37012471576,0,0,-0.671082,65.4, 1.7, -0.3,0,0,1024,1024,1024,1024,64.5,-89.9,98,3.961,3.989,3.996,4.008,3.975,3.999,19.339,73.4,14,Waypoint,
38.1754058,-120.0595468,5012.1822811247,50.524936,0.223694,0.61398295928,10500,2018-05-12 21:16:09,13,0,23.938,5012.1822811247,50.524936,0.223694,1.37012471576,0,0,-0.671082,65.3, 1.6, -0.4,0,0,1024,1024,1024,1024,64.5,-89.9,98,3.961,3.989,3.996,4.008,3.975,3.999,19.339,73.4,14,Waypoint,
38.175406,-120.0595468,5014.1507851247,52.49344,0.223694,0.59190618692,10620,2018-05-12 21:16:09,14,0,23.938,5014.1507851247,52.49344,0.223694,1.37012471576,0,0,-0.671082,65.3, 1.5, -0.1,0,0,1024,1024,1024,1024,64.5,-90,98,3.961,3.989,3.996,4.008,3.975,3.999,19.339,73.4,14,Waypoint,
38.1754061,-120.0595469,5015.1350371247,53.477692,0.223694,0.55583335112,10700,2018-05-12 21:16:09,14,0,23.938,5015.1350371247,53.477692,0.223694,1.37012471576,0,0,-0.671082,65.4, 1.4, 0.1,0,0,1024,1024,1024,1024,64.5,-89.9,98,3.961,3.989,3.996,4.008,3.975,3.999,19.339,73.4,14,Waypoint,
38.1754062,-120.0595469,5016.1192891247,54.461944,0.223694,0.54981300972,10800,2018-05-12 21:16:09,13,0,23.938,5016.1192891247,54.461944,0.223694,1.37012471576,0,0,-0.671082,65.6, 1.3, 0.3,0,0,1024,1024,1024,1024,64.5,-90,98,3.961,3.989,3.996,4.008,3.975,3.999,19.339,73.4,14,Waypoint,
38.1754063,-120.059547,5017.1035411247,55.446196,0.223694,0.51755579084,10900,2018-05-12 21:16:09,13,0,23.938,5017.1035411247,55.446196,0.223694,1.37012471576,0,0,-0.671082,65.7, 1.3, 0.5,0,0,1024,1024,1024,1024,64.5,-90,98,3.961,3.989,3.996,4.008,3.975,3.999,19.339,73.4,14,Waypoint,
38.1754064,-120.059547,5018.0877931247,56.430448,0,0.51626970156,11000,2018-05-12 21:16:09,14,0,23.919,5018.0877931247,56.430448,0.223694,1.37012471576,0,0,-0.671082,65.7, 1.3, 0.4,0,0,1024,1024,1024,1024,64.5,-89.9,98,3.962,3.981,3.997,4.006,3.973,3.991,18.984,73.4,14,Waypoint,
38.1754065,-120.059547,5019.0720451247,57.4147,0,0.51755579084,11100,2018-05-12 21:16:09,14,0,23.919,5019.0720451247,57.4147,0.223694,1.37012471576,0,0,-0.671082,65.7, 1.2, 0.2,0,0,1024,1024,1024,1024,64.5,-90,98,3.962,3.981,3.997,4.006,3.973,3.991,18.984,73.4,14,Waypoint,
38.1754066,-120.0595471,5020.0562971247,58.398952,0,0.49301838848,11200,2018-05-12 21:16:10,14,0,23.919,5020.0562971247,58.398952,0.223694,1.37012471576,0,0,-0.671082,65.7, 1.2, 0.1,0,0,1024,1024,1024,1024,64.5,-89.9,98,3.962,3.981,3.997,4.006,3.973,3.991,18.984,73.4,14,Waypoint,
38.1754067,-120.0595471,5021.0405491247,59.383204,0,0.4997211446,11300,2018-05-12 21:16:10,14,0,23.919,5021.0405491247,59.383204,0.223694,1.37012471576,0,0,-0.671082,65.7, 1.3, 0.1,0,0,1024,1024,1024,1024,64.5,-89.9,98,3.962,3.981,3.997,4.006,3.973,3.991,18.984,73.4,14,Waypoint,
38.1754068,-120.0595471,5022.0248011247,60.367456,0,0.50895999004,11500,2018-05-12 21:16:10,14,0,23.919,5022.0248011247,60.367456,0.223694,1.37012471576,0,0,-0.671082,65.7, 1.5, 0.2,0,0,1024,1024,1024,1024,64.5,-89.9,98,3.962,3.981,3.997,4.006,3.973,3.991,18.984,73.4,14,Waypoint,
38.175407,-120.0595472,5023.0090531247,61.351708,0,0.50844489816,11600,2018-05-12 21:16:10,14,0,23.919,5023.0090531247,61.351708,0.223694,1.37012471576,0,0,-0.671082,65.7, 1.7, 0.5,0,0,1024,1024,1024,1024,64.5,-89.9,98,3.962,3.981,3.997,4.006,3.973,3.991,18.984,73.4,14,Waypoint,
38.1754071,-120.0595472,5023.9933051247,62.33596,0,0.52518702468,11700,2018-05-12 21:16:10,14,0,23.919,5023.9933051247,62.33596,0.223694,1.37012471576,0,0,-0.671082,65.6, 1.8, 0.7,0,0,1024,1024,1024,1024,64.5,-89.9,98,3.962,3.981,3.997,4.006,3.973,3.991,18.984,73.4,14,Waypoint,
38.1754072,-120.0595472,5024.9775571247,63.320212,0,0.5438648468,11800,2018-05-12 21:16:10,14,0,23.919,5024.9775571247,63.320212,0.223694,1.37012471576,0,0,-0.671082,65.6, 1.7, 0.8,0,0,1024,1024,1024,1024,64.5,-89.9,98,3.962,3.981,3.997,4.006,3.973,3.991,18.984,73.4,14,Waypoint,
38.1754073,-120.0595472,5025.9618091247,64.304464,0,0.56428479496,11920,2018-05-12 21:16:10,14,0,23.919,5025.9618091247,64.304464,0.223694,1.37012471576,0,0,-0.671082,65.6, 1.6, 0.9,0,0,1024,1024,1024,1024,64.5,-89.9,98,3.962,3.981,3.997,4.006,3.973,3.991,18.984,73.4,14,Waypoint,
38.1754074,-120.0595473,5026.9460611247,65.288716,0,0.56409778708,12000,2018-05-12 21:16:10,14,0,23.925,5026.9460611247,65.288716,0.223694,1.37012471576,0,0,-0.671082,65.5, 1.6, 1,0,0,1024,1024,1024,1024,64.5,-89.9,98,3.962,3.981,3.997,4.006,3.973,3.991,18.494,73.4,14,Waypoint,
38.1754075,-120.0595473,5027.9303131247,66.272968,0,0.58835631804,12150,2018-05-12 21:16:11,15,0,23.925,5027.9303131247,66.272968,0.223694,1.37012471576,0,0,-0.671082,65.4, 1.5, 1.2,0,0,1024,1024,1024,1024,64.5,-89.9,98,3.962,3.981,3.997,4.006,3.973,3.991,18.494,73.4,14,Waypoint,
38.1754076,-120.0595474,5028.9145651247,67.25722,0,0.59407154132,12200,2018-05-12 21:16:11,15,0,23.925,5028.9145651247,67.25722,0.223694,1.37012471576,0,0,-0.671082,65.3, 1.4, 1.1,0,0,1024,1024,1024,1024,64.5,-90,98,3.962,3.981,3.997,4.006,3.973,3.991,18.494,73.4,14,Waypoint,
38.1754077,-120.0595474,5029.8988171247,68.241472,0,0.62145015112,12300,2018-05-12 21:16:11,14,0,23.925,5029.8988171247,68.241472,0.223694,1.37012471576,0,0,-0.671082,65.2, 1.4, 1.1,0,0,1024,1024,1024,1024,64.5,-89.9,98,3.962,3.981,3.997,4.006,3.973,3.991,18.494,73.4,14,Waypoint,
38.1754078,-120.0595474,5030.8830691247,69.225724,0,0.64972443024,12400,2018-05-12 21:16:11,14,0,23.925,5030.8830691247,69.225724,0.223694,1.37012471576,0,0,-0.671082,65.2, 1.4, 1,0,0,1024,1024,1024,1024,64.5,-89.9,98,3.962,3.981,3.997,4.006,3.973,3.991,18.494,73.4,14,Waypoint,
38.1754078,-120.0595474,5031.8673211247,70.209976,0,0.64972443024,12500,2018-05-12 21:16:11,15,0,23.925,5031.8673211247,70.209976,0.223694,1.37012471576,0,0,-0.671082,65.3, 1.5, 1,0,0,1024,1024,1024,1024,64.5,-89.9,98,3.962,3.981,3.997,4.006,3.973,3.991,18.494,73.4,14,Waypoint,
38.1754079,-120.0595475,5032.8515731247,71.194228,0,0.66221786896,12600,2018-05-12 21:16:11,15,0,23.925,5032.8515731247,71.194228,0.223694,1.37012471576,0,0,-0.671082,65.3, 1.6, 1,0,0,1024,1024,1024,1024,64.5,-89.9,98,3.962,3.981,3.997,4.006,3.973,3.991,18.494,73.4,14,Waypoint,
38.175408,-120.0595475,5033.8358251247,72.17848,0,0.69267718752,12700,2018-05-12 21:16:11,14,0,23.925,5033.8358251247,72.17848,0.223694,1.37012471576,0,0,-0.671082,65.4, 1.6, 1,0,0,1024,1024,1024,1024,64.5,-89.9,98,3.962,3.981,3.997,4.006,3.973,3.991,18.494,73.4,14,Waypoint,
38.1754081,-120.0595475,5034.8200771247,73.162732,0,0.72369096804,12800,2018-05-12 21:16:11,14,0,23.925,5034.8200771247,73.162732,0.223694,1.37012471576,0,0,-0.671082,65.4, 1.6, 0.8,0,0,1024,1024,1024,1024,64.5,-89.9,98,3.962,3.981,3.997,4.006,3.973,3.991,18.494,73.4,14,Waypoint,
38.1754081,-120.0595475,5036.7885811247,75.131236,0,0.72369096804,13000,2018-05-12 21:16:11,14,0,23.895,5036.7885811247,75.131236,0.223694,1.37012471576,0,0,-0.671082,65.4, 1.8, 0.7,0,0,1024,1024,1024,1024,64.5,-89.9,98,3.959,3.983,4.001,4.005,3.978,3.995,18.511,73.4,14,Waypoint,
38.1754081,-120.0595475,5037.7728331247,76.115488,0,0.72369096804,13100,2018-05-12 21:16:11,14,0,23.895,5037.7728331247,76.115488,0.223694,1.37012471576,0,0,-0.671082,65.4, 1.8, 0.6,0,0,1024,1024,1024,1024,64.5,-89.9,98,3.959,3.983,4.001,4.005,3.978,3.995,18.511,73.4,14,Waypoint,
38.1754081,-120.0595475,5038.7570851247,77.09974,0,0.72369096804,13200,2018-05-12 21:16:12,14,0,23.895,5038.7570851247,77.09974,0.223694,1.37012471576,0,0,-0.671082,65.4, 1.8, 0.4,0,0,1024,1024,1024,1024,64.5,-89.9,98,3.959,3.983,4.001,4.005,3.978,3.995,18.511,73.4,14,Waypoint,
38.1754081,-120.0595475,5040.7255891247,79.068244,0,0.72369096804,13300,2018-05-12 21:16:12,15,0,23.895,5040.7255891247,79.068244,0.223694,1.37012471576,0,0,-0.671082,65.4, 1.5, 0.1,0,0,1024,1024,1024,1024,64.5,-90,98,3.959,3.983,4.001,4.005,3.978,3.995,18.511,73.4,14,Waypoint,
38.1754081,-120.0595475,5041.7098411247,80.052496,0,0.72369096804,13400,2018-05-12 21:16:12,15,0,23.895,5041.7098411247,80.052496,0.223694,1.37012471576,0,0,-0.671082,65.5, 1.4, 0.3,0,0,1024,1024,1024,1024,64.5,-90,98,3.959,3.983,4.001,4.005,3.978,3.995,18.511,73.4,14,Waypoint,
38.1754081,-120.0595475,5042.6940931247,81.036748,0,0.72369096804,13500,2018-05-12 21:16:12,15,0,23.895,5042.6940931247,81.036748,0.223694,1.37012471576,0,0,-0.671082,65.5, 1.3, 0.3,0,0,1024,1024,1024,1024,64.5,-90,98,3.959,3.983,4.001,4.005,3.978,3.995,18.511,73.4,14,Waypoint,
38.1754081,-120.0595475,5043.6783451247,82.021,0,0.72369096804,13610,2018-05-12 21:16:12,15,0,23.895,5043.6783451247,82.021,0.223694,1.37012471576,0,0,-0.671082,65.5, 1.4, 0.3,0,0,1024,1024,1024,1024,64.5,-89.9,98,3.959,3.983,4.001,4.005,3.978,3.995,18.511,73.4,14,Waypoint,
38.1754081,-120.0595475,5044.6625971247,83.005252,0,0.72369096804,13730,2018-05-12 21:16:12,15,0,23.895,5044.6625971247,83.005252,0.223694,1.37012471576,0,0,-0.671082,65.5, 1.4, 0.3,0,0,1024,1024,1024,1024,64.5,-89.9,98,3.959,3.983,4.001,4.005,3.978,3.995,18.511,73.4,14,Waypoint,
38.1754081,-120.0595475,5045.6468491247,83.989504,0,0.72369096804,13800,2018-05-12 21:16:12,15,0,23.895,5045.6468491247,83.989504,0.223694,1.37012471576,0,0,-0.671082,65.6, 1.5, 0.1,0,0,1024,1024,1024,1024,64.5,-89.9,98,3.959,3.983,4.001,4.005,3.978,3.995,18.511,73.4,14,Waypoint,
38.175408,-120.0595475,5047.6153531247,85.958008,0,0.69267718752,14010,2018-05-12 21:16:12,15,0,23.961,5047.6153531247,85.958008,0.223694,1.37012471576,0,0,-0.671082,65.7, 1.6, 0,0,0,1024,1024,1024,1024,64.5,-89.9,98,3.961,3.986,3.99,4,3.965,3.996,17.494,75.2,14,Waypoint,
38.1754079,-120.0595475,5048.5996051247,86.94226,0,0.66221786896,14200,2018-05-12 21:16:13,15,0,23.961,5048.5996051247,86.94226,0.223694,1.37012471576,0,0,-0.671082,65.7, 1.6, -0.1,0,0,1024,1024,1024,1024,64.5,-89.9,98,3.961,3.986,3.99,4,3.965,3.996,17.494,75.2,14,Waypoint,
38.1754079,-120.0595474,5049.2557731247,87.598428,0,0.67878283012,14300,2018-05-12 21:16:13,15,0,23.961,5049.2557731247,87.598428,0.223694,1.37012471576,0,0,-0.671082,65.7, 1.5, -0.3,0,0,1024,1024,1024,1024,64.5,-90,98,3.961,3.986,3.99,4,3.965,3.996,17.494,75.2,14,Waypoint,
38.1754079,-120.0595475,5050.2400251247,88.58268,0,0.66221786896,14400,2018-05-12 21:16:13,15,0,23.961,5050.2400251247,88.58268,0.223694,1.37012471576,0,0,-0.671082,65.6, 1.4, -0.3,0,0,1024,1024,1024,1024,64.5,-89.9,98,3.961,3.986,3.99,4,3.965,3.996,17.494,75.2,14,Waypoint,
38.1754078,-120.0595475,5051.2242771247,89.566932,0,0.63240159504,14500,2018-05-12 21:16:13,15,0,23.961,5051.2242771247,89.566932,0.223694,1.37012471576,0,0,-0.671082,65.5, 1.3, -0.3,0,0,1024,1024,1024,1024,64.5,-90,98,3.961,3.986,3.99,4,3.965,3.996,17.494,75.2,14,Waypoint,
38.1754078,-120.0595475,5052.2085291247,90.551184,0,0.63240159504,14600,2018-05-12 21:16:13,15,0,23.961,5052.2085291247,90.551184,0.223694,1.37012471576,0,0,-0.671082,65.4, 1.4, -0.3,0,0,1024,1024,1024,1024,64.5,-90,98,3.961,3.986,3.99,4,3.965,3.996,17.494,75.2,14,Waypoint,
38.1754078,-120.0595475,5053.1927811247,91.535436,0,0.63240159504,14700,2018-05-12 21:16:13,15,0,23.961,5053.1927811247,91.535436,0.223694,1.37012471576,0,0,-0.671082,65.3, 1.4, -0.3,0,0,1024,1024,1024,1024,64.5,-90,98,3.961,3.986,3.99,4,3.965,3.996,17.494,75.2,14,Waypoint,
38.1754078,-120.0595475,5054.1770331247,92.519688,0,0.63240159504,14800,2018-05-12 21:16:13,15,0,23.961,5054.1770331247,92.519688,0.223694,1.37012471576,0,0,-0.671082,65.2, 1.5, -0.3,0,0,1024,1024,1024,1024,64.5,-89.9,98,3.961,3.986,3.99,4,3.965,3.996,17.494,75.2,14,Waypoint,
38.1754078,-120.0595474,5055.1612851247,93.50394,0,0.64972443024,14900,2018-05-12 21:16:13,15,0,23.961,5055.1612851247,93.50394,0.223694,1.37012471576,0,0,-0.671082,65.2, 1.6, -0.2,0,0,1024,1024,1024,1024,64.5,-89.9,98,3.961,3.986,3.99,4,3.965,3.996,17.494,75.2,14,Waypoint,
38.1754077,-120.0595474,5056.1455371247,94.488192,0,0.62145015112,15000,2018-05-12 21:16:13,15,0,23.95,5056.1455371247,94.488192,0.223694,1.37012471576,0,0,-0.671082,65.2, 1.7, -0.1,0,0,1024,1024,1024,1024,64.5,-89.9,98,3.956,3.993,3.995,4.013,3.976,3.998,17.441,75.2,14,Waypoint,
38.1754077,-120.0595474,5057.1297891247,95.472444,0,0.62145015112,15100,2018-05-12 21:16:13,15,0,23.95,5057.1297891247,95.472444,0.223694,1.37012471576,0,0,-0.671082,65.3, 1.8, 0,0,0,1024,1024,1024,1024,64.5,-89.9,98,3.956,3.993,3.995,4.013,3.976,3.998,17.441,75.2,14,Waypoint,
38.1754076,-120.0595474,5058.1140411247,96.456696,0,0.59407154132,15200,2018-05-12 21:16:14,15,0,23.95,5058.1140411247,96.456696,0.223694,1.37012471576,0,0,-0.671082,65.4, 1.8, -0.1,0,0,1024,1024,1024,1024,64.5,-89.9,98,3.956,3.993,3.995,4.013,3.976,3.998,17.441,75.2,14,Waypoint,
38.1754076,-120.0595474,5059.0982931247,97.440948,0,0.59407154132,15300,2018-05-12 21:16:14,15,0,23.95,5059.0982931247,97.440948,0.223694,1.37012471576,0,0,-0.671082,65.5, 1.6, -0.1,0,0,1024,1024,1024,1024,64.5,-89.9,98,3.956,3.993,3.995,4.013,3.976,3.998,17.441,75.2,14,Waypoint,
38.1754075,-120.0595474,5060.0825451247,98.4252,0,0.56771983444,15400,2018-05-12 21:16:14,15,0,23.95,5060.0825451247,98.4252,0.223694,1.37012471576,0,0,-0.671082,65.6, 1.6, -0.2,0,0,1024,1024,1024,1024,64.5,-89.9,98,3.956,3.993,3.995,4.013,3.976,3.998,17.441,75.2,14,Waypoint,
38.1754075,-120.0595474,5061.0667971247,99.409452,0,0.56771983444,15500,2018-05-12 21:16:14,15,0,23.95,5061.0667971247,99.409452,0.223694,1.37012471576,0,0,-0.671082,65.6, 1.5, -0.2,0,0,1024,1024,1024,1024,64.5,-89.9,98,3.956,3.993,3.995,4.013,3.976,3.998,17.441,75.2,14,Waypoint,
38.1754075,-120.0595475,5062.0510491247,100.393704,0,0.54780841648,15620,2018-05-12 21:16:14,15,0,23.95,5062.0510491247,100.393704,0.223694,1.37012471576,0,0,-0.671082,65.6, 1.3, -0.3,0,0,1024,1024,1024,1024,64.5,-90,98,3.956,3.993,3.995,4.013,3.976,3.998,17.441,75.2,14,Waypoint,
38.1754074,-120.0595475,5063.0353011247,101.377956,0,0.5216699642,15700,2018-05-12 21:16:14,15,0,23.95,5063.0353011247,101.377956,0.223694,1.37012471576,0,0,-0.671082,65.7, 1.1, -0.3,0,0,1024,1024,1024,1024,64.5,-90,98,3.956,3.993,3.995,4.013,3.976,3.998,17.441,75.2,14,Waypoint,
38.1754072,-120.0595475,5064.0195531247,102.362208,0,0.47351707552,15820,2018-05-12 21:16:14,15,0,23.95,5064.0195531247,102.362208,0.223694,1.37012471576,0,0,-0.671082,65.7, 0.9, -0.4,0,0,1024,1024,1024,1024,64.5,-90,98,3.956,3.993,3.995,4.013,3.976,3.998,17.441,75.2,14,Waypoint,
38.1754072,-120.0595475,5065.9880571247,104.330712,0,0.47351707552,15900,2018-05-12 21:16:14,15,0,23.95,5065.9880571247,104.330712,0.223694,1.37012471576,0,0,-0.671082,65.7, 1, -0.7,0,0,1024,1024,1024,1024,64.5,-90,98,3.956,3.993,3.995,4.013,3.976,3.998,17.441,75.2,14,Waypoint,
38.1754071,-120.0595474,5066.9723091247,105.314964,0,0.47588256116,16000,2018-05-12 21:16:14,16,0,23.919,5066.9723091247,105.314964,0.223694,1.37012471576,0,0,-0.671082,65.8, 1.2, -0.6,0,0,1024,1024,1024,1024,64.5,-89.9,97,3.951,3.979,3.992,4.01,3.967,3.99,17.648,75.2,14,Waypoint,
38.1754071,-120.0595474,5067.9565611247,106.299216,0,0.47588256116,16200,2018-05-12 21:16:15,16,0,23.919,5067.9565611247,106.299216,0.223694,1.37012471576,0,0,-0.671082,65.8, 1.3, -0.4,0,0,1024,1024,1024,1024,64.5,-89.9,97,3.951,3.979,3.992,4.01,3.967,3.99,17.648,75.2,14,Waypoint,
38.175407,-120.0595474,5069.5969811247,107.939636,0,0.45733925348,16310,2018-05-12 21:16:15,16,0,23.919,5069.5969811247,107.939636,0.223694,1.37012471576,0,0,-0.671082,65.7, 1.5, -0.4,0,0,1024,1024,1024,1024,64.5,-89.9,97,3.951,3.979,3.992,4.01,3.967,3.99,17.648,75.2,14,Waypoint,
38.175407,-120.0595473,5070.5812331247,108.923888,0,0.48271655088,16500,2018-05-12 21:16:15,15,0,23.919,5070.5812331247,108.923888,0.223694,1.37012471576,0,0,-0.671082,65.6, 1.4, -0.5,0,0,1024,1024,1024,1024,64.5,-89.9,97,3.951,3.979,3.992,4.01,3.967,3.99,17.648,75.2,14,Waypoint,
38.175407,-120.0595473,5071.5654851247,109.90814,0,0.48271655088,16600,2018-05-12 21:16:15,15,0,23.919,5071.5654851247,109.90814,0.223694,1.37012471576,0,0,-0.671082,65.6, 1.4, -0.4,0,0,1024,1024,1024,1024,64.5,-89.9,97,3.951,3.979,3.992,4.01,3.967,3.99,17.648,75.2,14,Waypoint,
38.175407,-120.0595472,5072.5497371247,110.892392,0,0.50844489816,16700,2018-05-12 21:16:15,15,0,23.919,5072.5497371247,110.892392,0.223694,1.37012471576,0,0,-0.671082,65.5, 1.6, -0.3,0,0,1024,1024,1024,1024,64.5,-89.9,97,3.951,3.979,3.992,4.01,3.967,3.99,17.648,75.2,14,Waypoint,
38.175407,-120.0595471,5073.5339891247,111.876644,0,0.53447508272,16800,2018-05-12 21:16:15,15,0,23.919,5073.5339891247,111.876644,0.223694,1.37012471576,0,0,-0.671082,65.4, 1.9, -0.2,0,0,1024,1024,1024,1024,64.5,-89.9,97,3.951,3.979,3.992,4.01,3.967,3.99,17.648,75.2,14,Waypoint,
38.175407,-120.0595471,5074.5182411247,112.860896,0,0.53447508272,16900,2018-05-12 21:16:15,16,0,23.919,5074.5182411247,112.860896,0.223694,1.37012471576,0,0,-0.671082,65.5, 2, -0.2,0,0,1024,1024,1024,1024,64.5,-89.9,97,3.951,3.979,3.992,4.01,3.967,3.99,17.648,75.2,14,Waypoint,
38.175407,-120.059547,5075.5024931247,113.845148,0,0.56076445364,17000,2018-05-12 21:16:15,16,0,23.892,5075.5024931247,113.845148,0.223694,1.37012471576,0,0,-0.671082,65.6, 2.4, -0.5,0,0,1024,1024,1024,1024,64.5,-89.9,97,3.951,3.979,3.992,4.01,3.967,3.99,17.972,75.2,14,Waypoint,
38.175407,-120.0595469,5076.4867451247,114.8294,0,0.58727692168,17100,2018-05-12 21:16:15,16,0,23.892,5076.4867451247,114.8294,0.223694,1.37012471576,0,0,-0.671082,65.7, 2.5, -0.5,0,0,1024,1024,1024,1024,64.5,-89.9,97,3.951,3.979,3.992,4.01,3.967,3.99,17.972,75.2,14,Waypoint,
38.175407,-120.0595467,5078.4552491247,116.797904,0.223694,0.6408628814,17300,2018-05-12 21:16:16,16,0,23.892,5078.4552491247,116.797904,0.223694,1.37012471576,0,0,-0.671082,65.8, 2.7, -0.3,0,0,1024,1024,1024,1024,64.5,-89.9,97,3.951,3.979,3.992,4.01,3.967,3.99,17.972,75.2,14,Waypoint,
38.1754071,-120.0595465,5079.4395011247,117.782156,0.223694,0.70738847408,17400,2018-05-12 21:16:16,16,0,23.892,5079.4395011247,117.782156,0.223694,1.37012471576,0,0,-0.671082,65.6, 3.5, -0.2,0,0,1024,1024,1024,1024,64.5,-89.9,97,3.951,3.979,3.992,4.01,3.967,3.99,17.972,75.2,14,Waypoint,
38.1754071,-120.0595464,5080.4237531247,118.766408,0.223694,0.73420934108,17500,2018-05-12 21:16:16,16,0,23.892,5080.4237531247,118.766408,0.223694,1.37012471576,0,0,-0.671082,65.4, 4, -0.1,0,0,1024,1024,1024,1024,64.5,-89.9,97,3.951,3.979,3.992,4.01,3.967,3.99,17.972,75.2,14,Waypoint,
38.1754072,-120.0595462,5081.4080051247,119.75066,0.223694,0.80081039308,17600,2018-05-12 21:16:16,16,0,23.892,5081.4080051247,119.75066,0.223694,1.37012471576,0,0,-0.671082,65.4, 4.3, -0.3,0,0,1024,1024,1024,1024,64.5,-89.9,97,3.951,3.979,3.992,4.01,3.967,3.99,17.972,75.2,14,Waypoint,
38.1754072,-120.059546,5082.7203411247,121.062996,0.223694,0.85448165464,17700,2018-05-12 21:16:16,16,0,23.892,5082.7203411247,121.062996,0.223694,1.37012471576,0,0,-0.671082,65.3, 4.5, -0.2,0,0,1024,1024,1024,1024,64.5,-89.9,97,3.951,3.979,3.992,4.01,3.967,3.99,17.972,75.2,14,Waypoint,
38.1754073,-120.0595458,5083.7045931247,122.047248,0.223694,0.92097443892,17800,2018-05-12 21:16:16,16,0,23.892,5083.7045931247,122.047248,0.223694,1.37012471576,0,0,-0.671082,65.4, 4.9, -0.2,0,0,1024,1024,1024,1024,64.5,-89.9,97,3.951,3.979,3.992,4.01,3.967,3.99,17.972,75.2,14,Waypoint,
38.1754073,-120.0595454,5085.6730971247,124.015752,0.223694,1.02897641088,18000,2018-05-12 21:16:16,16,0,23.892,5085.6730971247,124.015752,0.223694,1.37012471576,0,0,-0.671082,65.6, 5.4, -0.6,0,0,1024,1024,1024,1024,64.5,-89.9,97,3.942,3.979,3.982,4.001,3.961,3.984,17.972,75.2,14,Waypoint,
38.1754074,-120.0595453,5086.6573491247,125.000004,0,1.06810370872,18100,2018-05-12 21:16:16,16,0,23.892,5086.6573491247,125.000004,0.223694,1.37012471576,0,0,-0.671082,65.7, 5.4, -0.7,0,0,1024,1024,1024,1024,64.6,-89.9,97,3.942,3.979,3.982,4.001,3.961,3.984,17.972,75.2,14,Waypoint,
38.1754074,-120.0595451,5088.6258531247,126.968508,0,1.12218835612,18200,2018-05-12 21:16:17,16,0,23.892,5088.6258531247,126.968508,0.223694,1.37012471576,0,0,-0.671082,65.5, 5.2, -0.6,0,0,1024,1024,1024,1024,64.5,-89.9,97,3.942,3.979,3.982,4.001,3.961,3.984,17.972,75.2,14,Waypoint,
38.1754074,-120.059545,5089.6101051247,127.95276,0,1.14934714964,18300,2018-05-12 21:16:17,16,0,23.892,5089.6101051247,127.95276,0.223694,1.37012471576,0,0,-0.671082,65.5, 5.5, -0.9,0,0,1024,1024,1024,1024,64.6,-89.9,97,3.942,3.979,3.982,4.001,3.961,3.984,17.972,75.2,14,Waypoint,
38.1754075,-120.0595447,5091.5786091247,129.921264,0.223694,1.24254597152,18520,2018-05-12 21:16:17,16,0,23.892,5091.5786091247,129.921264,0.223694,1.37012471576,0,0,-0.671082,65.5, 5.8, -0.6,0,0,1024,1024,1024,1024,64.6,-89.9,97,3.942,3.979,3.982,4.001,3.961,3.984,17.972,75.2,14,Waypoint,
38.1754075,-120.0595445,5092.5628611247,130.905516,0.223694,1.2969652646,18610,2018-05-12 21:16:17,16,0,23.892,5092.5628611247,130.905516,0.223694,1.37012471576,0,0,-0.671082,65.6, 6.2, -0.9,0,0,1024,1024,1024,1024,64.6,-89.9,97,3.942,3.979,3.982,4.001,3.961,3.984,17.972,75.2,14,Waypoint,
38.1754075,-120.0595444,5093.5471131247,131.889768,0,1.32427169592,18710,2018-05-12 21:16:17,16,0,23.892,5093.5471131247,131.889768,0.223694,1.37012471576,0,0,-0.671082,65.7, 6.3, -1.3,0,0,1024,1024,1024,1024,64.6,-89.9,97,3.942,3.979,3.982,4.001,3.961,3.984,17.972,75.2,14,Waypoint,
38.1754076,-120.0595443,5094.5313651247,132.87402,0,1.3629101486,18820,2018-05-12 21:16:17,16,0,23.892,5094.5313651247,132.87402,0.223694,1.37012471576,0,0,-0.671082,65.8, 6.4, -1.4,0,0,1024,1024,1024,1024,64.6,-89.9,97,3.942,3.979,3.982,4.001,3.961,3.984,17.972,75.2,14,Waypoint,
38.1754076,-120.0595443,5094.5313651247,132.87402,0,1.3629101486,18900,2018-05-12 21:16:17,16,0,23.892,5094.5313651247,132.87402,0.223694,1.37012471576,0,0,-0.671082,65.8, 6.4, -1.4,0,0,1024,1024,1024,1024,64.6,-89.9,97,3.942,3.979,3.982,4.001,3.961,3.984,17.972,75.2,14,Waypoint,
38.1754077,-120.059544,5096.4998691247,134.842524,0,1.45613193636,19010,2018-05-12 21:16:17,16,0,23.806,5096.4998691247,134.842524,0.223694,1.45613193636,0,0,-0.671082,65.7, 6.8, -0.5,0,0,1024,1024,1024,1024,64.6,-89.9,97,3.945,3.963,3.971,3.986,3.945,3.974,18.27,75.2,14,Waypoint,
38.1754077,-120.059544,5096.4998691247,134.842524,0,1.45613193636,19100,2018-05-12 21:16:17,16,0,23.806,5096.4998691247,134.842524,0.223694,1.45613193636,0,0,-0.671082,65.7, 6.8, -0.5,0,0,1024,1024,1024,1024,64.6,-89.9,97,3.945,3.963,3.971,3.986,3.945,3.974,18.27,75.2,14,Waypoint,
38.1754078,-120.0595439,5097.4841211247,135.826776,0,1.49534453604,19200,2018-05-12 21:16:18,16,0,23.806,5097.4841211247,135.826776,0.223694,1.49534453604,0,0,-0.671082,65.6, 6.9, -0.3,0,0,1024,1024,1024,1024,64.6,-89.9,97,3.945,3.963,3.971,3.986,3.945,3.974,18.27,75.2,14,Waypoint,
38.1754079,-120.0595438,5098.1402891247,136.482944,0,1.5349573982,19300,2018-05-12 21:16:18,16,0,23.806,5098.1402891247,136.482944,0.223694,1.5349573982,0,0,-0.671082,65.6, 6.9, -0.2,0,0,1024,1024,1024,1024,64.6,-89.9,97,3.945,3.963,3.971,3.986,3.945,3.974,18.27,75.2,14,Waypoint,
38.1754079,-120.0595438,5099.1245411247,137.467196,0,1.5349573982,19400,2018-05-12 21:16:18,16,0,23.806,5099.1245411247,137.467196,0.223694,1.5349573982,0,0,-0.671082,65.7, 6.7, -0.1,0,0,1024,1024,1024,1024,64.6,-90,97,3.945,3.963,3.971,3.986,3.945,3.974,18.27,75.2,14,Waypoint,
38.1754079,-120.0595438,5100.1087931247,138.451448,0,1.5349573982,19500,2018-05-12 21:16:18,16,0,23.806,5100.1087931247,138.451448,0.223694,1.5349573982,0,0,-0.671082,65.7, 6.4, -0.3,0,0,1024,1024,1024,1024,64.6,-90,97,3.945,3.963,3.971,3.986,3.945,3.974,18.27,75.2,14,Waypoint,
38.175408,-120.0595438,5101.0930451247,139.4357,0,1.5483432254,19600,2018-05-12 21:16:18,16,0,23.806,5101.0930451247,139.4357,0.223694,1.5483432254,0,0,-0.671082,65.6, 6.2, -0.3,0,0,1024,1024,1024,1024,64.6,-90,97,3.945,3.963,3.971,3.986,3.945,3.974,18.27,75.2,14,Waypoint,
38.175408,-120.0595438,5102.0772971247,140.419952,0,1.5483432254,19700,2018-05-12 21:16:18,16,0,23.806,5102.0772971247,140.419952,0.223694,1.5483432254,0,0,-0.671082,65.5, 6, -0.4,0,0,1024,1024,1024,1024,64.6,-90,97,3.945,3.963,3.971,3.986,3.945,3.974,18.27,75.2,14,Waypoint,
38.175408,-120.0595439,5103.0615491247,141.404204,0,1.52181435316,19800,2018-05-12 21:16:18,16,0,23.806,5103.0615491247,141.404204,0.223694,1.5483432254,0,0,-0.671082,65.5, 5.7, -0.8,0,0,1024,1024,1024,1024,64.6,-90,97,3.945,3.963,3.971,3.986,3.945,3.974,18.27,75.2,14,Waypoint,
38.175408,-120.0595439,5104.0458011247,142.388456,0,1.52181435316,19900,2018-05-12 21:16:18,16,0,23.806,5104.0458011247,142.388456,0.223694,1.5483432254,0,0,-0.671082,65.6, 5.8, -1,0,0,1024,1024,1024,1024,64.6,-89.9,97,3.945,3.963,3.971,3.986,3.945,3.974,18.27,75.2,14,Waypoint,
38.175408,-120.059544,5105.0300531247,143.372708,0,1.49536750192,20000,2018-05-12 21:16:18,16,0,23.715,5105.0300531247,143.372708,0.223694,1.5483432254,0,0,-0.671082,65.5, 5.8, -0.3,0,0,1024,1024,1024,1024,64.6,-90,97,3.937,3.945,3.966,3.969,3.931,3.98,18.812,75.2,14,Waypoint,
38.1754081,-120.059544,5106.0143051247,144.35696,0,1.50998364412,20100,2018-05-12 21:16:18,16,0,23.715,5106.0143051247,144.35696,0.223694,1.5483432254,0,0,-0.671082,65.4, 5.7, 0.1,0,0,1024,1024,1024,1024,64.6,-89.9,97,3.937,3.945,3.966,3.969,3.931,3.98,18.812,75.2,14,Waypoint,
38.1754082,-120.0595441,5106.9985571247,145.341212,0,1.49949807948,20200,2018-05-12 21:16:19,16,0,23.715,5106.9985571247,145.341212,0.223694,1.5483432254,0,0,-0.671082,65.4, 5.6, 0.4,0,0,1024,1024,1024,1024,64.6,-90,97,3.937,3.945,3.966,3.969,3.931,3.98,18.812,75.2,14,Waypoint,
38.1754082,-120.0595442,5107.6547251247,145.99738,0,1.47376645136,20300,2018-05-12 21:16:19,16,0,23.715,5107.6547251247,145.99738,0.223694,1.5483432254,0,0,-0.671082,65.3, 5.4, 0.3,0,0,1024,1024,1024,1024,64.6,-90,97,3.937,3.945,3.966,3.969,3.931,3.98,18.812,75.2,14,Waypoint,
38.1754082,-120.0595442,5108.6389771247,146.981632,0,1.47376645136,20400,2018-05-12 21:16:19,16,0,23.715,5108.6389771247,146.981632,0.223694,1.5483432254,0,0,-0.671082,65.3, 5.2, -0.5,0,0,1024,1024,1024,1024,64.6,-90,97,3.937,3.945,3.966,3.969,3.931,3.98,18.812,75.2,14,Waypoint,
38.1754082,-120.0595443,5109.6232291247,147.965884,0,1.4481463718,20500,2018-05-12 21:16:19,16,0,23.715,5109.6232291247,147.965884,0.223694,1.5483432254,0,0,-0.671082,65.4, 4.9, -0.2,0,0,1024,1024,1024,1024,64.6,-90,97,3.937,3.945,3.966,3.969,3.931,3.98,18.812,75.2,14,Waypoint,
38.1754082,-120.0595443,5110.6074811247,148.950136,0,1.4481463718,20600,2018-05-12 21:16:19,16,0,23.715,5110.6074811247,148.950136,0.223694,1.5483432254,0,0,-0.671082,65.5, 5.5, 0.8,0,0,1024,1024,1024,1024,64.6,-89.9,97,3.937,3.945,3.966,3.969,3.931,3.98,18.812,75.2,14,Waypoint,
38.1754083,-120.0595444,5111.5917331247,149.934388,0,1.43984912744,20700,2018-05-12 21:16:19,16,0,23.715,5111.5917331247,149.934388,0.223694,1.5483432254,0,0,-0.671082,65.3, 6.3, 1.9,0,0,1024,1024,1024,1024,64.6,-89.9,97,3.937,3.945,3.966,3.969,3.931,3.98,18.812,75.2,14,Waypoint,
38.1754084,-120.0595446,5113.8883211247,152.230976,0,1.4083989952,20810,2018-05-12 21:16:19,16,0,23.715,5113.8883211247,152.230976,0.223694,1.5483432254,0,0,-0.671082,65.3, 5.6, 0.8,0,0,1024,1024,1024,1024,64.6,-89.9,97,3.937,3.945,3.966,3.969,3.931,3.98,18.812,75.2,14,Waypoint,
38.1754083,-120.0595446,5114.8725731247,153.215228,0,1.389845845,20900,2018-05-12 21:16:19,16,0,23.715,5114.8725731247,153.215228,0.223694,1.5483432254,0,0,-0.671082,65.2, 4.9, 0,0,0,1024,1024,1024,1024,64.6,-90,97,3.937,3.945,3.966,3.969,3.931,3.98,18.812,75.2,14,Waypoint,
38.1754083,-120.0595447,5117.1691611247,155.511816,0,1.36506237964,21100,2018-05-12 21:16:19,16,0,23.715,5117.1691611247,155.511816,0.223694,1.5483432254,0,0,-0.671082,65.1, 5.8, 0.2,0,0,1024,1024,1024,1024,64.6,-89.9,97,3.937,3.945,3.966,3.969,3.931,3.98,18.812,75.2,14,Waypoint,
38.1754083,-120.0595448,5118.1534131247,156.496068,0,1.34043311376,21210,2018-05-12 21:16:20,16,0,23.715,5118.1534131247,156.496068,0.223694,1.5483432254,0,0,-0.671082,65.3, 5.9, 0.3,0,0,1024,1024,1024,1024,64.6,-89.9,97,3.937,3.945,3.966,3.969,3.931,3.98,18.812,75.2,14,Waypoint,
38.1754084,-120.0595449,5119.1376651247,157.48032,0,1.335547943,21300,2018-05-12 21:16:20,16,0,23.715,5119.1376651247,157.48032,0.223694,1.5483432254,0,0,-0.671082,65.7, 5.8, 0.4,0,0,1024,1024,1024,1024,64.6,-89.9,97,3.937,3.945,3.966,3.969,3.931,3.98,18.812,75.2,14,Waypoint,
38.1754084,-120.059545,5120.1219171247,158.464572,0,1.31162077688,21500,2018-05-12 21:16:20,16,0,23.715,5120.1219171247,158.464572,0.223694,1.5483432254,0,0,-0.671082,66, 5.5, 1,0,0,1024,1024,1024,1024,64.6,-90,97,3.937,3.945,3.966,3.969,3.931,3.98,18.812,75.2,14,Waypoint,
38.1754085,-120.0595451,5121.1061691247,159.448824,0,1.30890096052,21600,2018-05-12 21:16:20,16,0,23.715,5121.1061691247,159.448824,0.223694,1.5483432254,0,0,-0.671082,66.1, 5.4, 1.7,0,0,1024,1024,1024,1024,64.6,-90,97,3.937,3.945,3.966,3.969,3.931,3.98,18.812,75.2,14,Waypoint,
38.1754086,-120.0595453,5122.0904211247,160.433076,0,1.28530515924,21700,2018-05-12 21:16:20,16,0,23.715,5122.0904211247,160.433076,0.223694,1.5483432254,0,0,-0.671082,66.2, 5.3, 1.9,0,0,1024,1024,1024,1024,64.6,-90,97,3.937,3.945,3.966,3.969,3.931,3.98,18.812,75.2,14,Waypoint,
38.1754086,-120.0595454,5123.0746731247,161.417328,0.223694,1.26302825564,21800,2018-05-12 21:16:20,16,0,23.715,5123.0746731247,161.417328,0.223694,1.5483432254,0,0,-0.671082,66.1, 5.1, 2,0,0,1024,1024,1024,1024,64.6,-90,97,3.937,3.945,3.966,3.969,3.931,3.98,18.812,75.2,14,Waypoint,
38.1754087,-120.0595456,5124.3870091247,162.729664,0.223694,1.24360568284,21900,2018-05-12 21:16:20,16,0,23.715,5124.3870091247,162.729664,0.223694,1.5483432254,0,0,-0.671082,66.1, 4.8, 2.1,0,0,1024,1024,1024,1024,64.6,-90,97,3.937,3.945,3.966,3.969,3.931,3.98,18.812,75.2,14,Waypoint,
38.1754087,-120.0595458,5125.3712611247,163.713916,0.223694,1.20189308308,22000,2018-05-12 21:16:20,16,0,23.439,5125.3712611247,163.713916,0.223694,1.5483432254,0,0,-0.671082,65.9, 4.5, 2.1,0,0,1024,1024,1024,1024,64.6,-90,97,3.88,3.912,3.918,3.925,3.891,3.926,21.477,75.2,14,Waypoint,
38.1754087,-120.0595459,5126.3555131247,164.698168,0.223694,1.18153219004,22100,2018-05-12 21:16:20,16,0,23.439,5126.3555131247,164.698168,0.223694,1.5483432254,0,0,-0.671082,65.5, 4.4, 2,0,0,1024,1024,1024,1024,64.6,-90,97,3.88,3.912,3.918,3.925,3.891,3.926,21.477,75.2,14,Waypoint,
38.1754086,-120.0595461,5127.3397651247,165.68242,0.223694,1.1153379622,22200,2018-05-12 21:16:21,16,0,23.439,5127.3397651247,165.68242,0.223694,1.5483432254,0,0,-0.671082,65.1, 4, 1.6,0,0,1024,1024,1024,1024,64.6,-90,97,3.88,3.912,3.918,3.925,3.891,3.926,21.477,75.2,14,Waypoint,
38.1754085,-120.0595463,5128.3240171247,166.666672,0.3131716,1.04937339316,22300,2018-05-12 21:16:21,16,0,23.439,5128.3240171247,166.666672,0.3131716,1.5483432254,0,0,-0.671082,65, 3.2, 0.9,0,0,1024,1024,1024,1024,64.6,-90,97,3.88,3.912,3.918,3.925,3.891,3.926,21.477,75.2,14,Waypoint,
38.1754084,-120.0595465,5129.3082691247,167.650924,0.3131716,0.98368441468,22400,2018-05-12 21:16:21,16,0,23.439,5129.3082691247,167.650924,0.3131716,1.5483432254,0,0,-0.671082,65.1, 2.8, 0.6,0,0,1024,1024,1024,1024,64.6,-90,97,3.88,3.912,3.918,3.925,3.891,3.926,21.477,75.2,14,Waypoint,
38.1754083,-120.0595466,5130.2925211247,168.635176,0.223694,0.93739176228,22500,2018-05-12 21:16:21,16,0,23.439,5130.2925211247,168.635176,0.3131716,1.5483432254,0,0,-0.671082,65.2, 2.1, 0.2,0,0,1024,1024,1024,1024,64.6,-89.9,97,3.88,3.912,3.918,3.925,3.891,3.926,21.477,75.2,14,Waypoint,
38.1754082,-120.0595467,5131.2767731247,169.619428,0.223694,0.8911089524,22600,2018-05-12 21:16:21,16,0,23.439,5131.2767731247,169.619428,0.3131716,1.5483432254,0,0,-0.671082,65.4, 2.2, -0.2,0,0,1024,1024,1024,1024,64.6,-89.9,97,3.88,3.912,3.918,3.925,3.891,3.926,21.477,75.2,14,Waypoint,
38.1754081,-120.0595468,5132.5891091247,170.931764,0,0.84484254672,22700,2018-05-12 21:16:21,16,0,23.439,5132.5891091247,170.931764,0.3131716,1.5483432254,0,0,-0.671082,65.5, 2.7, -0.6,0,0,1024,1024,1024,1024,64.6,-89.9,97,3.88,3.912,3.918,3.925,3.891,3.926,21.477,75.2,14,Waypoint,
38.1754081,-120.0595468,5133.5733611247,171.916016,0,0.84484254672,22800,2018-05-12 21:16:21,16,0,23.439,5133.5733611247,171.916016,0.3131716,1.5483432254,0,0,-0.671082,65.6, 3.9, -0.7,0,0,1024,1024,1024,1024,64.6,-89.9,97,3.88,3.912,3.918,3.925,3.891,3.926,21.477,75.2,14,Waypoint,
38.175408,-120.0595467,5134.5576131247,172.900268,0,0.83878283524,22900,2018-05-12 21:16:21,17,0,23.439,5134.5576131247,172.900268,0.3131716,1.5483432254,0,0,-0.671082,65.6, 4.7, -0.6,0,0,1024,1024,1024,1024,64.6,-89.9,97,3.88,3.912,3.918,3.925,3.891,3.926,21.477,75.2,14,Waypoint,
38.1754079,-120.0595466,5135.5418651247,173.88452,0,0.83526249392,23000,2018-05-12 21:16:21,17,0,23.556,5135.5418651247,173.88452,0.3131716,1.5483432254,0,0,-0.671082,65.5, 5.2, -0.7,0,0,1024,1024,1024,1024,64.6,-89.9,97,3.88,3.912,3.918,3.925,3.891,3.926,19.375,75.2,14,Waypoint,
38.1754078,-120.0595465,5137.1822851247,175.52494,0,0.83431433116,23100,2018-05-12 21:16:21,17,0,23.556,5137.1822851247,175.52494,0.3131716,1.5483432254,0,0,-0.671082,65.2, 5.4, -1.4,0,0,1024,1024,1024,1024,64.6,-89.9,97,3.88,3.912,3.918,3.925,3.891,3.926,19.375,75.2,14,Waypoint,
38.1754078,-120.0595464,5138.1665371247,176.509192,0,0.85717194344,23200,2018-05-12 21:16:22,17,0,23.556,5138.1665371247,176.509192,0.3131716,1.5483432254,0,0,-0.671082,65.1, 5.5, -1.3,0,0,1024,1024,1024,1024,64.6,-89.9,97,3.88,3.912,3.918,3.925,3.891,3.926,19.375,75.2,14,Waypoint,
38.1754077,-120.0595463,5138.8227051247,177.16536,0,0.85971459444,23300,2018-05-12 21:16:22,17,0,23.556,5138.8227051247,177.16536,0.3131716,1.5483432254,0,0,-0.671082,65, 5.6, -1.3,0,0,1024,1024,1024,1024,64.6,-89.9,97,3.88,3.912,3.918,3.925,3.891,3.926,19.375,75.2,14,Waypoint,
38.1754076,-120.0595462,5139.8069571247,178.149612,0,0.864747403,23400,2018-05-12 21:16:22,17,0,23.556,5139.8069571247,178.149612,0.3131716,1.5483432254,0,0,-0.671082,64.9, 5.5, -1.6,0,0,1024,1024,1024,1024,64.6,-89.9,97,3.88,3.912,3.918,3.925,3.891,3.926,19.375,75.2,14,Waypoint,
38.1754075,-120.0595461,5140.7912091247,179.133864,0.223694,0.87222115652,23500,2018-05-12 21:16:22,17,0,23.556,5140.7912091247,179.133864,0.3131716,1.5483432254,0,0,-0.671082,65, 5.4, -2.3,0,0,1024,1024,1024,1024,64.6,-89.9,97,3.88,3.912,3.918,3.925,3.891,3.926,19.375,75.2,14,Waypoint,
38.1754074,-120.0595461,5141.4473771247,179.790032,0.223694,0.85604661532,23600,2018-05-12 21:16:22,17,0,23.556,5141.4473771247,179.790032,0.3131716,1.5483432254,0,0,-0.671082,65.1, 4.7, -2.9,0,0,1024,1024,1024,1024,64.6,-90,97,3.88,3.912,3.918,3.925,3.891,3.926,19.375,75.2,14,Waypoint,
38.1754072,-120.059546,5142.4316291247,180.774284,0.223694,0.85448165464,23800,2018-05-12 21:16:22,17,0,23.556,5142.4316291247,180.774284,0.3131716,1.5483432254,0,0,-0.671082,65.2, 4.2, -3.1,0,0,1024,1024,1024,1024,64.6,-90,97,3.88,3.912,3.918,3.925,3.891,3.926,19.375,75.2,14,Waypoint,
38.1754071,-120.0595459,5143.0877971247,181.430452,0,0.8700951722,23900,2018-05-12 21:16:22,17,0,23.556,5143.0877971247,181.430452,0.3131716,1.5483432254,0,0,-0.671082,65.3, 4.2, -3.1,0,0,1024,1024,1024,1024,64.6,-90,97,3.88,3.912,3.918,3.925,3.891,3.926,19.375,75.2,14,Waypoint,
38.175407,-120.0595458,5144.4001331247,182.742788,0,0.88785763996,24000,2018-05-12 21:16:22,17,0,23.729,5144.4001331247,182.742788,0.3131716,1.5483432254,0,0,-0.671082,65.3, 4.8, -3.2,0,0,1024,1024,1024,1024,64.6,-89.9,97,3.923,3.958,3.97,3.971,3.942,3.955,18.16,75.2,14,Waypoint,
38.175407,-120.0595457,5145.3843851247,183.72704,0,0.915682444,24100,2018-05-12 21:16:22,17,0,23.729,5145.3843851247,183.72704,0.3131716,1.5483432254,0,0,-0.671082,65.4, 5.4, -3,0,0,1024,1024,1024,1024,64.6,-89.9,97,3.923,3.958,3.97,3.971,3.942,3.955,18.16,75.2,14,Waypoint,
38.1754069,-120.0595456,5146.3686371247,184.711292,0,0.93576446564,24200,2018-05-12 21:16:23,17,0,23.729,5146.3686371247,184.711292,0.3131716,1.5483432254,0,0,-0.671082,65.5, 5.8, -2.6,0,0,1024,1024,1024,1024,64.6,-89.9,97,3.923,3.958,3.97,3.971,3.942,3.955,18.16,75.2,14,Waypoint,
38.1754069,-120.0595456,5147.3528891247,185.695544,0,0.93576446564,24300,2018-05-12 21:16:23,17,0,23.729,5147.3528891247,185.695544,0.3131716,1.5483432254,0,0,-0.671082,65.5, 5.6, -2.2,0,0,1024,1024,1024,1024,64.6,-89.9,97,3.923,3.958,3.97,3.971,3.942,3.955,18.16,75.2,14,Waypoint,
38.1754069,-120.0595455,5148.0090571247,186.351712,0,0.96391407284,24400,2018-05-12 21:16:23,17,0,23.729,5148.0090571247,186.351712,0.3131716,1.5483432254,0,0,-0.671082,65.4, 5.3, -2.1,0,0,1024,1024,1024,1024,64.6,-90,97,3.923,3.958,3.97,3.971,3.942,3.955,18.16,75.2,14,Waypoint,
38.1754068,-120.0595455,5148.9933091247,187.335964,0,0.957677196,24500,2018-05-12 21:16:23,17,0,23.729,5148.9933091247,187.335964,0.3131716,1.5483432254,0,0,-0.671082,65.4, 5.1, -1.9,0,0,1024,1024,1024,1024,64.6,-89.9,97,3.923,3.958,3.97,3.971,3.942,3.955,18.16,75.2,14,Waypoint,
38.1754068,-120.0595454,5149.9775611247,188.320216,0,0.98603349612,24600,2018-05-12 21:16:23,17,0,23.729,5149.9775611247,188.320216,0.3131716,1.5483432254,0,0,-0.671082,65.4, 5.1, -2,0,0,1024,1024,1024,1024,64.6,-89.9,97,3.923,3.958,3.97,3.971,3.942,3.955,18.16,75.2,14,Waypoint,
38.1754067,-120.0595454,5150.9618131247,189.304468,0,0.981299244,24700,2018-05-12 21:16:23,17,0,23.729,5150.9618131247,189.304468,0.3131716,1.5483432254,0,0,-0.671082,65.4, 5.4, -2.1,0,0,1024,1024,1024,1024,64.6,-89.9,97,3.923,3.958,3.97,3.971,3.942,3.955,18.16,75.2,14,Waypoint,
38.1754067,-120.0595453,5151.9460651247,190.28872,0,1.00980646276,24800,2018-05-12 21:16:23,17,0,23.729,5151.9460651247,190.28872,0.3131716,1.5483432254,0,0,-0.671082,65.4, 5.6, -2,0,0,1024,1024,1024,1024,64.6,-89.9,97,3.923,3.958,3.97,3.971,3.942,3.955,18.16,75.2,14,Waypoint,
38.1754067,-120.0595453,5152.9303171247,191.272972,0,1.00980646276,24900,2018-05-12 21:16:23,17,0,23.729,5152.9303171247,191.272972,0.3131716,1.5483432254,0,0,-0.671082,65.3, 5.6, -2.2,0,0,1024,1024,1024,1024,64.6,-89.9,97,3.923,3.958,3.97,3.971,3.942,3.955,18.16,75.2,14,Waypoint,
38.1754066,-120.0595452,5153.9145691247,192.257224,0,1.03511486252,25000,2018-05-12 21:16:23,17,0,23.375,5153.9145691247,192.257224,0.3131716,1.5483432254,0,0,-0.671082,65.2, 5.5, -2.4,0,0,1024,1024,1024,1024,64.6,-89.9,97,3.863,3.906,3.899,3.935,3.864,3.923,21.74,75.2,14,Waypoint,
38.1754066,-120.0595452,5154.8988211247,193.241476,0,1.03511486252,25100,2018-05-12 21:16:23,17,0,23.375,5154.8988211247,193.241476,0.3131716,1.5483432254,0,0,-0.671082,65.1, 5.5, -2.5,0,0,1024,1024,1024,1024,64.6,-89.9,97,3.863,3.906,3.899,3.935,3.864,3.923,21.74,75.2,14,Waypoint,
38.1754065,-120.0595451,5157.1954091247,195.538064,0,1.06184714684,25200,2018-05-12 21:16:24,17,0,23.375,5157.1954091247,195.538064,0.3131716,1.5483432254,0,0,-0.671082,65.1, 5.4, -2.5,0,0,1024,1024,1024,1024,64.6,-89.9,97,3.863,3.906,3.899,3.935,3.864,3.923,21.74,75.2,14,Waypoint,
38.1754064,-120.0595451,5158.1796611247,196.522316,0,1.0612205064,25300,2018-05-12 21:16:24,17,0,23.375,5158.1796611247,196.522316,0.3131716,1.5483432254,0,0,-0.671082,65.3, 5.2, -2.4,0,0,1024,1024,1024,1024,64.6,-89.9,97,3.863,3.906,3.899,3.935,3.864,3.923,21.74,75.2,14,Waypoint,
38.1754064,-120.0595451,5159.1639131247,197.506568,0,1.0612205064,25400,2018-05-12 21:16:24,17,0,23.375,5159.1639131247,197.506568,0.3131716,1.5483432254,0,0,-0.671082,65.5, 5, -2.7,0,0,1024,1024,1024,1024,64.6,-90,97,3.863,3.906,3.899,3.935,3.864,3.923,21.74,75.2,14,Waypoint,
38.1754063,-120.0595451,5161.1324171247,199.475072,0,1.06184714684,25600,2018-05-12 21:16:24,17,0,23.375,5161.1324171247,199.475072,0.3131716,1.5483432254,0,0,-0.671082,65.7, 4.8, -3,0,0,1024,1024,1024,1024,64.6,-90,97,3.863,3.906,3.899,3.935,3.864,3.923,21.74,75.2,14,Waypoint,
38.1754062,-120.0595451,5162.1166691247,200.459324,0,1.06372706816,25700,2018-05-12 21:16:24,17,0,23.375,5162.1166691247,200.459324,0.3131716,1.5483432254,0,0,-0.671082,65.6, 4.6, -3.3,0,0,1024,1024,1024,1024,64.7,-90,97,3.863,3.906,3.899,3.935,3.864,3.923,21.74,75.2,14,Waypoint,
38.1754061,-120.0595451,5164.0851731247,202.427828,0,1.06685042784,25920,2018-05-12 21:16:24,17,0,23.375,5164.0851731247,202.427828,0.3131716,1.5483432254,0,0,-0.671082,65.3, 4.7, -3.6,0,0,1024,1024,1024,1024,64.7,-89.9,97,3.863,3.906,3.899,3.935,3.864,3.923,21.74,75.2,14,Waypoint,
38.1754061,-120.0595451,5164.0851731247,202.427828,0,1.06685042784,26000,2018-05-12 21:16:24,17,0,23.375,5164.0851731247,202.427828,0.3131716,1.5483432254,0,0,-0.671082,65.3, 4.7, -3.6,0,0,1024,1024,1024,1024,64.7,-89.9,96,3.863,3.906,3.899,3.935,3.864,3.923,21.74,75.2,14,Waypoint,
38.1754061,-120.059545,5165.0694251247,203.41208,0,1.09538389332,26100,2018-05-12 21:16:24,17,0,23.375,5165.0694251247,203.41208,0.3131716,1.5483432254,0,0,-0.671082,65.2, 4.9, -3.9,0,0,1024,1024,1024,1024,64.7,-89.9,96,3.863,3.906,3.899,3.935,3.864,3.923,21.74,75.2,14,Waypoint,
38.175406,-120.0595448,5167.3660131247,205.708668,0,1.15650922336,26300,2018-05-12 21:16:25,17,0,23.375,5167.3660131247,205.708668,0.3131716,1.5483432254,0,0,-0.671082,65, 6.1, -4.2,0,0,1024,1024,1024,1024,64.7,-89.9,96,3.863,3.906,3.899,3.935,3.864,3.923,21.74,75.2,14,Waypoint,
