latitude,longitude,altitude(feet),ascent(feet),speed(mph),distance(feet),time(millisecond),datetime(utc),satellites,gpslevel,voltage(v),max_altitude(feet),max_ascent(feet),max_speed(mph),max_distance(feet), xSpeed(mph), ySpeed(mph), zSpeed(mph), compass_heading(degrees), pitch(degrees), roll(degrees),isPhoto,isVideo,rc_elevator,rc_aileron,rc_throttle,rc_rudder,gimbal_heading(degrees),gimbal_pitch(degrees),battery_percent,voltageCell1,voltageCell2,voltageCell3,voltageCell4,voltageCell5,voltageCell6,current(A),battery_temperature(f),flycStateRaw,flycState,message
38.4803336,-120.3385664,4524.8847068042,0,0.223694,0,3100,2018-07-06 23:58:53,14,0,0,4524.8847068042,0,0.223694,0,0,0,0,75.6, -0.9, -0.9,1,0,1024,1024,1024,1024,76.7,-89.9,100,4.217,4.244,4.234,4.239,4.205,4.304,0,82.4,11,AutoTakeoff,DJI_0206.jpg Starting Mission from Lat/Long: 38.48033/-120.33857 Camera: Zenmuse X3 - Overlap: 90/90 - Active Connection: No
38.4803338,-120.3385663,4524.8847068042,0,0.223694,0.078360238728,3200,2018-07-06 23:58:53,14,0,0,4524.8847068042,0,0.223694,0.078360238728,0,0,0,75.6, -0.6, -0.5,0,0,1024,1024,1024,1024,76.7,-89.9,100,4.217,4.244,4.234,4.239,4.205,4.304,0,82.4,11,AutoTakeoff,
38.4803339,-120.3385662,4524.8847068042,0,0.3131716,0.123463914712,3300,2018-07-06 23:58:53,14,0,0,4524.8847068042,0,0.3131716,0.123463914712,0,0,0,75.6, 0, 0,0,0,1024,1024,1024,1024,76.7,-89.9,100,4.217,4.244,4.234,4.239,4.205,4.304,0,82.4,11,AutoTakeoff,
38.4803341,-120.338566,4525.2127908042,0.328084,0.3131716,0.215245413712,3400,2018-07-06 23:58:53,14,0,0,4525.2127908042,0.328084,0.3131716,0.215245413712,0,0,0,75.7, 0.6, 0.4,0,0,1024,1024,1024,1024,76.7,-89.9,100,4.217,4.244,4.234,4.239,4.205,4.304,0,82.4,11,AutoTakeoff,
38.4803342,-120.3385658,4525.2127908042,0.328084,0.3131716,0.278007554828,3500,2018-07-06 23:58:53,14,0,0,4525.2127908042,0.328084,0.3131716,0.278007554828,0,0,0,75.7, 1.3, 1,0,0,1024,1024,1024,1024,76.7,-89.9,100,4.217,4.244,4.234,4.239,4.205,4.304,0,82.4,11,AutoTakeoff,
38.4803344,-120.3385657,4525.5408748042,0.656168,0.3131716,0.35378610056,3600,2018-07-06 23:58:53,13,0,0,4525.5408748042,0.656168,0.3131716,0.35378610056,0,0,0,75.8, 1.9, 1.3,0,0,1024,1024,1024,1024,76.7,-89.9,100,4.217,4.244,4.234,4.239,4.205,4.304,0,82.4,11,AutoTakeoff,
38.4803346,-120.3385656,4525.5408748042,0.656168,0.3131716,0.43049213976,3700,2018-07-06 23:58:54,13,0,0,4525.5408748042,0.656168,0.3131716,0.43049213976,0,0,0,75.9, 2.1, 1.4,0,0,1024,1024,1024,1024,76.7,-89.9,100,4.217,4.244,4.234,4.239,4.205,4.304,0,82.4,11,AutoTakeoff,
38.4803347,-120.3385655,4525.5408748042,0.656168,0.3131716,0.47659778428,3800,2018-07-06 23:58:54,12,0,0,4525.5408748042,0.656168,0.3131716,0.47659778428,0,0,0,76, 1.8, 1.1,0,0,1024,1024,1024,1024,76.7,-89.9,100,4.217,4.244,4.234,4.239,4.205,4.304,0,82.4,11,AutoTakeoff,
38.4803348,-120.3385653,4525.8689588042,0.984252,0.223694,0.53887797,3900,2018-07-06 23:58:54,12,0,0,4525.8689588042,0.984252,0.3131716,0.53887797,0,0,0,76.1, 1.5, 0.6,0,0,1024,1024,1024,1024,76.7,-89.9,100,4.217,4.244,4.234,4.239,4.205,4.304,0,82.4,11,AutoTakeoff,
38.480335,-120.3385652,4525.8689588042,0.984252,0.223694,0.61512141076,4000,2018-07-06 23:58:54,13,0,25.429,4525.8689588042,0.984252,0.3131716,0.61512141076,0,0,0,76.3, 1.2, 0.4,0,0,1024,1024,1024,1024,76.7,-89.9,100,4.217,4.244,4.234,4.239,4.205,4.304,8.19,82.4,11,AutoTakeoff,
38.4803351,-120.3385651,4526.1970428042,1.312336,0.3131716,0.66133860384,4100,2018-07-06 23:58:54,13,0,25.429,4526.1970428042,1.312336,0.3131716,0.66133860384,0,0,0,76.5, 1.3, 0.7,0,0,1024,1024,1024,1024,76.7,-89.9,100,4.217,4.244,4.234,4.239,4.205,4.304,8.19,82.4,11,AutoTakeoff,
38.4803353,-120.338565,4526.1970428042,1.312336,0.3131716,0.73796262204,4200,2018-07-06 23:58:54,14,0,25.429,4526.1970428042,1.312336,0.3131716,0.73796262204,0,0,0,76.5, 1.3, 1.1,0,0,1024,1024,1024,1024,76.7,-89.9,100,4.217,4.244,4.234,4.239,4.205,4.304,8.19,82.4,11,AutoTakeoff,
38.4803354,-120.3385649,4526.5251268042,1.64042,0.3131716,0.78411419832,4300,2018-07-06 23:58:54,14,0,25.429,4526.5251268042,1.64042,0.3131716,0.78411419832,0,0,-0.223694,76.4, 1.2, 1.2,0,0,1024,1024,1024,1024,76.7,-89.9,100,4.217,4.244,4.234,4.239,4.205,4.304,8.19,82.4,11,AutoTakeoff,
38.4803356,-120.3385648,4526.8532108042,1.968504,0.223694,0.86098099868,4400,2018-07-06 23:58:54,14,0,25.429,4526.8532108042,1.968504,0.3131716,0.86098099868,0,0,-0.223694,76.1, 1.3, 1.2,0,0,1024,1024,1024,1024,76.7,-89.9,100,4.217,4.244,4.234,4.239,4.205,4.304,8.19,82.4,11,AutoTakeoff,
38.4803357,-120.3385647,4526.8532108042,1.968504,0.223694,0.90707680068,4500,2018-07-06 23:58:54,14,0,25.429,4526.8532108042,1.968504,0.3131716,0.90707680068,0,0,-0.223694,75.8, 1.8, 1.4,0,0,1024,1024,1024,1024,76.7,-89.9,100,4.217,4.244,4.234,4.239,4.205,4.304,8.19,82.4,11,AutoTakeoff,
38.4803359,-120.3385645,4527.1812948042,2.296588,0.223694,0.99933074064,4600,2018-07-06 23:58:54,15,0,25.429,4527.1812948042,2.296588,0.3131716,0.99933074064,0,0,-0.223694,75.5, 2.3, 1.8,0,0,1024,1024,1024,1024,76.7,-89.9,100,4.217,4.244,4.234,4.239,4.205,4.304,8.19,82.4,11,AutoTakeoff,
38.4803361,-120.3385644,4527.1812948042,2.296588,0.223694,1.07622706856,4700,2018-07-06 23:58:55,15,0,25.429,4527.1812948042,2.296588,0.3131716,1.07622706856,0,0,0,75.4, 2.6, 1.7,0,0,1024,1024,1024,1024,76.7,-89.9,100,4.217,4.244,4.234,4.239,4.205,4.304,8.19,82.4,11,AutoTakeoff,
38.4803361,-120.3385643,4527.5093788042,2.624672,0,1.09165685908,4800,2018-07-06 23:58:55,15,0,25.429,4527.5093788042,2.624672,0.3131716,1.09165685908,0,0,0,75.5, 2.7, 1.4,0,0,1024,1024,1024,1024,76.7,-89.9,100,4.217,4.244,4.234,4.239,4.205,4.304,8.19,82.4,11,AutoTakeoff,
38.4803361,-120.3385642,4527.5093788042,2.624672,0,1.10760502232,4900,2018-07-06 23:58:55,15,0,25.429,4527.5093788042,2.624672,0.3131716,1.10760502232,0,0,0,75.6, 2.6, 1.2,0,0,1024,1024,1024,1024,76.7,-89.9,100,4.217,4.244,4.234,4.239,4.205,4.304,8.19,82.4,11,AutoTakeoff,
38.4803363,-120.3385642,4527.8374628042,2.952756,0,1.16842851508,5000,2018-07-06 23:58:55,12,0,24.785,4527.8374628042,2.952756,0.3131716,1.16842851508,0,0,0,75.6, 2.5, 1,0,0,1024,1024,1024,1024,76.7,-89.9,100,4.119,4.117,4.137,4.116,4.131,4.12,16.101,82.4,14,Waypoint,
38.4803364,-120.3385642,4527.8374628042,2.952756,0,1.19935043208,5100,2018-07-06 23:58:55,12,0,24.785,4527.8374628042,2.952756,0.3131716,1.19935043208,0,0,0,75.5, 2.5, 1.1,0,0,1024,1024,1024,1024,76.7,-89.9,100,4.119,4.117,4.137,4.116,4.131,4.12,16.101,82.4,14,Waypoint,
38.4803366,-120.3385641,4528.1655468042,3.28084,0,1.2765420356,5200,2018-07-06 23:58:55,15,0,24.785,4528.1655468042,3.28084,0.3131716,1.2765420356,0,0,0,75, 1.8, 0.6,0,0,1024,1024,1024,1024,76.7,-89.9,100,4.119,4.117,4.137,4.116,4.131,4.12,16.101,82.4,14,Waypoint,
38.4803367,-120.3385641,4528.4936308042,3.608924,0,1.30796264028,5300,2018-07-06 23:58:55,15,0,24.785,4528.4936308042,3.608924,0.3131716,1.30796264028,0,0,0,74.7, 1.6, 0.7,0,0,1024,1024,1024,1024,76.6,-90,100,4.119,4.117,4.137,4.116,4.131,4.12,16.101,82.4,14,Waypoint,
38.4803368,-120.338564,4528.4936308042,3.608924,0,1.3538714344,5400,2018-07-06 23:58:55,15,0,24.785,4528.4936308042,3.608924,0.3131716,1.3538714344,0,0,0,74.6, 1.5, 0.9,0,0,1024,1024,1024,1024,76.6,-90,100,4.119,4.117,4.137,4.116,4.131,4.12,16.101,82.4,14,Waypoint,
38.4803368,-120.338564,4528.8217148042,3.937008,0,1.3538714344,5600,2018-07-06 23:58:55,15,0,24.785,4528.8217148042,3.937008,0.3131716,1.3538714344,0,0,-0.223694,74.5, 1.5, 0.9,0,0,1024,1024,1024,1024,76.5,-90,100,4.119,4.117,4.137,4.116,4.131,4.12,16.101,82.4,14,Waypoint,
38.4803369,-120.3385639,4529.1497988042,4.265092,0,1.39980647524,5700,2018-07-06 23:58:56,15,0,24.785,4529.1497988042,4.265092,0.3131716,1.39980647524,0,0,-0.223694,74.4, 1.5, 0.9,0,0,1024,1024,1024,1024,76.5,-90,100,4.119,4.117,4.137,4.116,4.131,4.12,16.101,82.4,14,Waypoint,
38.480337,-120.3385638,4529.1497988042,4.265092,0,1.44577104364,5800,2018-07-06 23:58:56,13,0,24.785,4529.1497988042,4.265092,0.3131716,1.44577104364,0,0,-0.223694,74.1, 1.6, 0.9,0,0,1024,1024,1024,1024,76.4,-90,100,4.119,4.117,4.137,4.116,4.131,4.12,16.101,82.4,14,Waypoint,
38.480337,-120.3385637,4529.4778828042,4.593176,0,1.4606463722,5900,2018-07-06 23:58:56,13,0,24.785,4529.4778828042,4.593176,0.3131716,1.4606463722,0,0,-0.223694,73.7, 1.9, 0.8,0,0,1024,1024,1024,1024,76.4,-89.9,100,4.119,4.117,4.137,4.116,4.131,4.12,16.101,82.4,14,Waypoint,
38.480337,-120.3385637,4530.1340508042,5.249344,0,1.4606463722,6000,2018-07-06 23:58:56,11,0,24.631,4530.1340508042,5.249344,0.3131716,1.4606463722,0,0,-0.223694,73.4, 2, 0.8,0,0,1024,1024,1024,1024,76.3,-89.9,100,4.103,4.095,4.103,4.102,4.111,4.113,16.033,82.4,14,Waypoint,
38.4803371,-120.3385636,4530.4621348042,5.577428,0,1.50671920832,6100,2018-07-06 23:58:56,11,0,24.631,4530.4621348042,5.577428,0.3131716,1.50671920832,0,0,-0.447388,72.9, 2.2, 0.7,0,0,1024,1024,1024,1024,76.2,-89.9,100,4.103,4.095,4.103,4.102,4.111,4.113,16.033,82.4,14,Waypoint,
38.4803371,-120.3385634,4531.1183028042,6.233596,0,1.53779860564,6200,2018-07-06 23:58:56,11,0,24.631,4531.1183028042,6.233596,0.3131716,1.53779860564,0,0,-0.447388,72.6, 2.1, 0.7,0,0,1024,1024,1024,1024,76.1,-89.9,100,4.103,4.095,4.103,4.102,4.111,4.113,16.033,82.4,14,Waypoint,
38.4803371,-120.3385632,4531.7744708042,6.889764,0,1.57034453844,6300,2018-07-06 23:58:56,11,0,24.631,4531.7744708042,6.889764,0.3131716,1.57034453844,0,0,-0.447388,72.6, 2.3, 1.1,0,0,1024,1024,1024,1024,76,-89.9,100,4.103,4.095,4.103,4.102,4.111,4.113,16.033,82.4,14,Waypoint,
38.4803375,-120.3385632,4532.4306388042,7.545932,0,1.69115490976,6400,2018-07-06 23:58:56,11,0,24.631,4532.4306388042,7.545932,0.3131716,1.69115490976,0,0,-0.447388,72.9, 2.4, 1.3,0,0,1024,1024,1024,1024,75.9,-89.9,100,4.103,4.095,4.103,4.102,4.111,4.113,16.033,82.4,14,Waypoint,
38.4803379,-120.3385632,4533.0868068042,8.2021,0,1.81565950692,6500,2018-07-06 23:58:56,11,0,24.631,4533.0868068042,8.2021,0.3131716,1.81565950692,0,0,-0.447388,73.3, 2.6, 1.5,0,0,1024,1024,1024,1024,75.9,-89.9,100,4.103,4.095,4.103,4.102,4.111,4.113,16.033,82.4,14,Waypoint,
38.480338,-120.338563,4534.0710588042,9.186352,0,1.87619428576,6600,2018-07-06 23:58:56,12,0,24.631,4534.0710588042,9.186352,0.3131716,1.87619428576,0,0,-0.671082,74, 2.7, 1.8,0,0,1024,1024,1024,1024,75.8,-89.9,100,4.103,4.095,4.103,4.102,4.111,4.113,16.033,82.4,14,Waypoint,
38.4803381,-120.3385628,4534.7272268042,9.84252,0,1.93721134808,6700,2018-07-06 23:58:57,12,0,24.631,4534.7272268042,9.84252,0.3131716,1.93721134808,0,0,-0.671082,74.5, 2.9, 1.7,0,0,1024,1024,1024,1024,75.7,-89.9,100,4.103,4.095,4.103,4.102,4.111,4.113,16.033,82.4,14,Waypoint,
38.4803382,-120.3385627,4535.7114788042,10.826772,0,1.98329730756,6800,2018-07-06 23:58:57,10,0,24.631,4535.7114788042,10.826772,0.3131716,1.98329730756,0,0,-0.671082,74.8, 3.2, 1.7,0,0,1024,1024,1024,1024,75.6,-89.9,100,4.103,4.095,4.103,4.102,4.111,4.113,16.033,82.4,14,Waypoint,
38.4803384,-120.3385626,4536.6957308042,11.811024,0,2.06031502656,6900,2018-07-06 23:58:57,10,0,24.631,4536.6957308042,11.811024,0.3131716,2.06031502656,0,0,-0.671082,74.8, 3.3, 1.7,0,0,1024,1024,1024,1024,75.6,-89.9,100,4.103,4.095,4.103,4.102,4.111,4.113,16.033,82.4,14,Waypoint,
38.4803386,-120.3385625,4538.0080668042,13.12336,0,2.1374344516,7000,2018-07-06 23:58:57,12,0,24.514,4538.0080668042,13.12336,0.3131716,2.1374344516,0,0,-0.671082,74.7, 3.3, 1.9,0,0,1024,1024,1024,1024,75.5,-89.9,98,4.058,4.107,4.068,4.061,4.056,4.083,17.433,82.4,14,Waypoint,
38.4803388,-120.3385624,4538.9923188042,14.107612,0,2.21463917848,7100,2018-07-06 23:58:57,12,0,24.514,4538.9923188042,14.107612,0.3131716,2.21463917848,0,0,-0.671082,74.5, 3.3, 2.3,0,0,1024,1024,1024,1024,75.4,-89.9,98,4.058,4.107,4.068,4.061,4.056,4.083,17.433,82.4,14,Waypoint,
38.4803391,-120.3385624,4539.9765708042,15.091864,0,2.30909456208,7200,2018-07-06 23:58:57,14,0,24.514,4539.9765708042,15.091864,0.3131716,2.30909456208,0,0,-0.671082,74.2, 3.3, 2.5,0,0,1024,1024,1024,1024,75.4,-89.9,98,4.058,4.107,4.068,4.061,4.056,4.083,17.433,82.4,14,Waypoint,
38.4803394,-120.3385625,4541.2889068042,16.4042,0,2.3913878718,7300,2018-07-06 23:58:57,14,0,24.514,4541.2889068042,16.4042,0.3131716,2.3913878718,0,0,-0.671082,74, 3.5, 3.3,0,0,1024,1024,1024,1024,75.3,-89.9,98,4.058,4.107,4.068,4.061,4.056,4.083,17.433,82.4,14,Waypoint,
38.4803397,-120.3385626,4542.2731588042,17.388452,0,2.4761155648,7400,2018-07-06 23:58:57,14,0,24.514,4542.2731588042,17.388452,0.3131716,2.4761155648,0,0,-0.671082,73.7, 3.5, 3.9,0,0,1024,1024,1024,1024,75.3,-89.9,98,4.058,4.107,4.068,4.061,4.056,4.083,17.433,82.4,14,Waypoint,
38.4803399,-120.3385627,4543.5854948042,18.700788,0,2.5298393198,7500,2018-07-06 23:58:57,14,0,24.514,4543.5854948042,18.700788,0.3131716,2.5298393198,0,0,-0.671082,73.5, 3.3, 4.4,0,0,1024,1024,1024,1024,75.2,-89.9,98,4.058,4.107,4.068,4.061,4.056,4.083,17.433,82.4,14,Waypoint,
38.48034,-120.3385627,4544.5697468042,19.68504,0,2.56303485892,7600,2018-07-06 23:58:57,14,0,24.514,4544.5697468042,19.68504,0.3131716,2.56303485892,0,0,-0.671082,73.3, 3.2, 4.6,0,0,1024,1024,1024,1024,75.2,-89.9,98,4.058,4.107,4.068,4.061,4.056,4.083,17.433,82.4,14,Waypoint,
38.48034,-120.3385627,4545.5539988042,20.669292,0,2.56303485892,7700,2018-07-06 23:58:58,14,0,24.514,4545.5539988042,20.669292,0.3131716,2.56303485892,0,0,-0.671082,73.4, 3.2, 4.5,0,0,1024,1024,1024,1024,75.1,-89.9,98,4.058,4.107,4.068,4.061,4.056,4.083,17.433,82.4,14,Waypoint,
38.4803396,-120.3385629,4547.8505868042,22.96588,0.223694,2.40653879092,7800,2018-07-06 23:58:58,14,0,24.514,4547.8505868042,22.96588,0.3131716,2.56303485892,0,0,-0.671082,73.6, 2.8, 2.6,0,0,1024,1024,1024,1024,75.1,-89.9,98,4.058,4.107,4.068,4.061,4.056,4.083,17.433,82.4,14,Waypoint,
38.4803393,-120.3385629,4548.8348388042,23.950132,0.447388,2.30742133368,8000,2018-07-06 23:58:58,15,0,24.023,4548.8348388042,23.950132,0.447388,2.56303485892,0,0,-0.671082,73.6, 2.5, 1.6,0,0,1024,1024,1024,1024,75,-90,98,3.999,3.989,4.008,3.999,4.032,4,23.103,82.4,14,Waypoint,
38.4803389,-120.338563,4549.8190908042,24.934384,0.447388,2.16383865192,8100,2018-07-06 23:58:58,15,0,24.023,4549.8190908042,24.934384,0.447388,2.56303485892,0,0,-0.671082,73.6, 2.3, 0.7,0,0,1024,1024,1024,1024,75,-90,98,3.999,3.989,4.008,3.999,4.032,4,23.103,82.4,14,Waypoint,
38.4803387,-120.3385631,4550.8033428042,25.918636,0.447388,2.0858268384,8200,2018-07-06 23:58:58,14,0,24.023,4550.8033428042,25.918636,0.447388,2.56303485892,0,0,-0.671082,73.5, 1.9, 0.5,0,0,1024,1024,1024,1024,75,-90,98,3.999,3.989,4.008,3.999,4.032,4,23.103,82.4,14,Waypoint,
38.4803381,-120.3385636,4553.0999308042,28.215224,0.3131716,1.8262303734,8400,2018-07-06 23:58:58,14,0,24.023,4553.0999308042,28.215224,0.447388,2.56303485892,0,0,-0.671082,73.2, 0.9, 0.6,0,0,1024,1024,1024,1024,74.9,-90,98,3.999,3.989,4.008,3.999,4.032,4,23.103,82.4,14,Waypoint,
38.4803378,-120.3385638,4554.0841828042,29.199476,0.4921268,1.70281829596,8500,2018-07-06 23:58:58,14,0,24.023,4554.0841828042,29.199476,0.4921268,2.56303485892,0,0,-0.671082,73, 0.6, 0.7,0,0,1024,1024,1024,1024,74.9,-90,98,3.999,3.989,4.008,3.999,4.032,4,23.103,82.4,14,Waypoint,
38.4803375,-120.338564,4555.0684348042,30.183728,0.447388,1.5794127802,8600,2018-07-06 23:58:58,13,0,24.023,4555.0684348042,30.183728,0.4921268,2.56303485892,0,0,-0.671082,72.8, 0.3, 0.5,0,0,1024,1024,1024,1024,74.8,-90,98,3.999,3.989,4.008,3.999,4.032,4,23.103,82.4,14,Waypoint,
38.4803371,-120.3385642,4556.3807708042,31.496064,0.447388,1.42319230276,8700,2018-07-06 23:58:59,13,0,24.023,4556.3807708042,31.496064,0.4921268,2.56303485892,0,0,-0.671082,72.7, 0, 0.2,0,0,1024,1024,1024,1024,74.8,-90,98,3.999,3.989,4.008,3.999,4.032,4,23.103,82.4,14,Waypoint,
38.4803368,-120.3385643,4557.3650228042,32.480316,0.447388,1.31256893964,8800,2018-07-06 23:58:59,14,0,24.023,4557.3650228042,32.480316,0.4921268,2.56303485892,0,0,-0.671082,72.8, -0.2, 0,0,0,1024,1024,1024,1024,74.8,-90,98,3.999,3.989,4.008,3.999,4.032,4,23.103,82.4,14,Waypoint,
38.4803366,-120.3385644,4558.6773588042,33.792652,0.223694,1.23463914712,8900,2018-07-06 23:58:59,14,0,24.023,4558.6773588042,33.792652,0.4921268,2.56303485892,0,0,-0.671082,72.8, -0.4, -0.5,0,0,1024,1024,1024,1024,74.8,-90,98,3.999,3.989,4.008,3.999,4.032,4,23.103,82.4,14,Waypoint,
38.4803363,-120.3385645,4559.6616108042,34.776904,0.223694,1.12467523284,9000,2018-07-06 23:58:59,16,0,24.222,4559.6616108042,34.776904,0.4921268,2.56303485892,0,0,-0.671082,72.9, -0.3, -1,0,0,1024,1024,1024,1024,74.7,-90,98,4.032,4.026,4.036,4.038,4.049,4.041,19.439,82.4,14,Waypoint,
38.4803359,-120.3385646,4560.6458628042,35.761156,0.223694,0.98411420472,9100,2018-07-06 23:58:59,16,0,24.222,4560.6458628042,35.761156,0.4921268,2.56303485892,0,0,-0.671082,72.9, -0.2, -1.5,0,0,1024,1024,1024,1024,74.7,-89.9,98,4.032,4.026,4.036,4.038,4.049,4.041,19.439,82.4,14,Waypoint,
38.4803356,-120.3385646,4561.6301148042,36.745408,0.223694,0.89261485796,9200,2018-07-06 23:58:59,16,0,24.222,4561.6301148042,36.745408,0.4921268,2.56303485892,0,0,-0.671082,73.1, 0, -1.6,0,0,1024,1024,1024,1024,74.7,-90,98,4.032,4.026,4.036,4.038,4.049,4.041,19.439,82.4,14,Waypoint,
38.4803354,-120.3385646,4562.6143668042,37.72966,0.223694,0.8340223364,9300,2018-07-06 23:58:59,16,0,24.222,4562.6143668042,37.72966,0.4921268,2.56303485892,0,0,-0.671082,73.1, 0.4, -1.1,0,0,1024,1024,1024,1024,74.7,-89.9,98,4.032,4.026,4.036,4.038,4.049,4.041,19.439,82.4,14,Waypoint,
38.480335,-120.3385647,4563.9267028042,39.041996,0,0.70473755536,9400,2018-07-06 23:58:59,16,0,24.222,4563.9267028042,39.041996,0.4921268,2.56303485892,0,0,-0.671082,73.2, 0.6, -0.9,0,0,1024,1024,1024,1024,74.6,-90,98,4.032,4.026,4.036,4.038,4.049,4.041,19.439,82.4,14,Waypoint,
38.4803347,-120.3385648,4564.9109548042,40.026248,0,0.60819227668,9500,2018-07-06 23:58:59,16,0,24.222,4564.9109548042,40.026248,0.4921268,2.56303485892,0,0,-0.671082,73.3, 0.5, -1,0,0,1024,1024,1024,1024,74.6,-90,98,4.032,4.026,4.036,4.038,4.049,4.041,19.439,82.4,14,Waypoint,
38.4803346,-120.3385648,4565.8952068042,41.0105,0,0.5847605174,9600,2018-07-06 23:58:59,14,0,24.222,4565.8952068042,41.0105,0.4921268,2.56303485892,0,0,-0.671082,73.4, 0, -1.4,0,0,1024,1024,1024,1024,74.6,-90,98,4.032,4.026,4.036,4.038,4.049,4.041,19.439,82.4,14,Waypoint,
38.4803345,-120.3385649,4566.8794588042,41.994752,0,0.53978348184,9700,2018-07-06 23:59:00,14,0,24.222,4566.8794588042,41.994752,0.4921268,2.56303485892,0,0,-0.671082,73.3, -0.1, -1.5,0,0,1024,1024,1024,1024,74.6,-90,98,4.032,4.026,4.036,4.038,4.049,4.041,19.439,82.4,14,Waypoint,
38.4803345,-120.3385649,4567.8637108042,42.979004,0,0.53978348184,9800,2018-07-06 23:59:00,15,0,24.222,4567.8637108042,42.979004,0.4921268,2.56303485892,0,0,-0.671082,73.2, -0.3, -1.3,0,0,1024,1024,1024,1024,74.6,-90,98,4.032,4.026,4.036,4.038,4.049,4.041,19.439,82.4,14,Waypoint,
38.4803346,-120.3385649,4568.8479628042,43.963256,0,0.56272311512,9900,2018-07-06 23:59:00,15,0,24.222,4568.8479628042,43.963256,0.4921268,2.56303485892,0,0,-0.671082,73.1, -0.2, -1.1,0,0,1024,1024,1024,1024,74.5,-90,98,4.032,4.026,4.036,4.038,4.049,4.041,19.439,82.4,14,Waypoint,
38.4803345,-120.3385649,4569.8322148042,44.947508,0,0.53978348184,10000,2018-07-06 23:59:00,16,0,24.24,4569.8322148042,44.947508,0.4921268,2.56303485892,0,0,-0.671082,73.1, 0, -0.7,0,0,1024,1024,1024,1024,74.5,-90,98,4.027,4.021,4.055,4.047,4.057,4.051,18.578,82.4,14,Waypoint,
38.4803344,-120.3385647,4572.7849708042,47.900264,0,0.566519047,10200,2018-07-06 23:59:00,16,0,24.24,4572.7849708042,47.900264,0.4921268,2.56303485892,0,0,-0.671082,72.9, 0.6, 0,0,0,1024,1024,1024,1024,74.5,-89.9,98,4.027,4.021,4.055,4.047,4.057,4.051,18.578,82.4,14,Waypoint,
38.4803344,-120.3385645,4574.7534748042,49.868768,0,0.61617784124,10400,2018-07-06 23:59:00,16,0,24.24,4574.7534748042,49.868768,0.4921268,2.56303485892,0,0,-0.671082,73.1, 1.6, -0.3,0,0,1024,1024,1024,1024,74.5,-89.9,98,4.027,4.021,4.055,4.047,4.057,4.051,18.578,82.4,14,Waypoint,
38.4803344,-120.3385644,4575.7377268042,50.85302,0,0.64147639848,10500,2018-07-06 23:59:00,16,0,24.24,4575.7377268042,50.85302,0.4921268,2.56303485892,0,0,-0.671082,73.3, 1.8, -0.4,0,0,1024,1024,1024,1024,74.4,-89.9,98,4.027,4.021,4.055,4.047,4.057,4.051,18.578,82.4,14,Waypoint,
38.4803344,-120.3385644,4576.7219788042,51.837272,0.223694,0.64147639848,10700,2018-07-06 23:59:01,16,0,24.24,4576.7219788042,51.837272,0.4921268,2.56303485892,0,0,-0.671082,73.5, 1.8, -0.2,0,0,1024,1024,1024,1024,74.4,-89.9,98,4.027,4.021,4.055,4.047,4.057,4.051,18.578,82.4,14,Waypoint,
38.4803345,-120.3385644,4577.7062308042,52.821524,0.223694,0.65887797384,10800,2018-07-06 23:59:01,16,0,24.24,4577.7062308042,52.821524,0.4921268,2.56303485892,0,0,-0.671082,73.7, 1.7, -0.1,0,0,1024,1024,1024,1024,74.4,-89.9,98,4.027,4.021,4.055,4.047,4.057,4.051,18.578,82.4,14,Waypoint,
38.4803345,-120.3385644,4578.6904828042,53.805776,0.223694,0.65887797384,10900,2018-07-06 23:59:01,16,0,24.24,4578.6904828042,53.805776,0.4921268,2.56303485892,0,0,-0.671082,73.8, 1.4, -0.2,0,0,1024,1024,1024,1024,74.4,-89.9,98,4.027,4.021,4.055,4.047,4.057,4.051,18.578,82.4,14,Waypoint,
38.4803346,-120.3385644,4579.6747348042,54.790028,0.223694,0.67779857812,11000,2018-07-06 23:59:01,16,0,24.252,4579.6747348042,54.790028,0.4921268,2.56303485892,0,0,-0.671082,73.9, 1.2, 0,0,0,1024,1024,1024,1024,74.4,-90,98,4.033,4.029,4.046,4.04,4.057,4.051,17.888,82.4,14,Waypoint,
38.4803346,-120.3385644,4580.6589868042,55.77428,0.223694,0.67779857812,11100,2018-07-06 23:59:01,16,0,24.252,4580.6589868042,55.77428,0.4921268,2.56303485892,0,0,-0.671082,73.9, 0.8, 0.3,0,0,1024,1024,1024,1024,74.4,-90,98,4.033,4.029,4.046,4.04,4.057,4.051,17.888,82.4,14,Waypoint,
38.4803348,-120.3385644,4581.6432388042,56.758532,0.223694,0.71971130912,11200,2018-07-06 23:59:01,16,0,24.252,4581.6432388042,56.758532,0.4921268,2.56303485892,0,0,-0.671082,73.9, 0.6, 0.5,0,0,1024,1024,1024,1024,74.3,-90,98,4.033,4.029,4.046,4.04,4.057,4.051,17.888,82.4,14,Waypoint,
38.480335,-120.3385643,4582.6274908042,57.742784,0.223694,0.787811705,11300,2018-07-06 23:59:01,16,0,24.252,4582.6274908042,57.742784,0.4921268,2.56303485892,0,0,-0.671082,73.9, 0.9, 0.8,0,0,1024,1024,1024,1024,74.3,-89.9,98,4.033,4.029,4.046,4.04,4.057,4.051,17.888,82.4,14,Waypoint,
38.4803352,-120.3385642,4583.2836588042,58.398952,0.223694,0.85766735028,11400,2018-07-06 23:59:01,16,0,24.252,4583.2836588042,58.398952,0.4921268,2.56303485892,0,0,-0.671082,73.8, 1.4, 1.2,0,0,1024,1024,1024,1024,74.3,-89.9,98,4.033,4.029,4.046,4.04,4.057,4.051,17.888,82.4,14,Waypoint,
38.4803353,-120.3385643,4584.2679108042,59.383204,0.223694,0.8628117074,11500,2018-07-06 23:59:01,16,0,24.252,4584.2679108042,59.383204,0.4921268,2.56303485892,0,0,-0.671082,73.5, 1.8, 1.2,0,0,1024,1024,1024,1024,74.3,-89.9,98,4.033,4.029,4.046,4.04,4.057,4.051,17.888,82.4,14,Waypoint,
38.4803353,-120.3385642,4585.2521628042,60.367456,0.223694,0.8829068524,11600,2018-07-06 23:59:01,15,0,24.252,4585.2521628042,60.367456,0.4921268,2.56303485892,0,0,-0.671082,73.3, 1.8, 1.2,0,0,1024,1024,1024,1024,74.3,-89.9,98,4.033,4.029,4.046,4.04,4.057,4.051,17.888,82.4,14,Waypoint,
38.4803353,-120.3385642,4586.2364148042,61.351708,0.223694,0.8829068524,11700,2018-07-06 23:59:02,15,0,24.252,4586.2364148042,61.351708,0.4921268,2.56303485892,0,0,-0.671082,73.2, 1.5, 1.3,0,0,1024,1024,1024,1024,74.3,-90,98,4.033,4.029,4.046,4.04,4.057,4.051,17.888,82.4,14,Waypoint,
38.4803355,-120.3385642,4587.2206668042,62.33596,0.223694,0.93561026616,11800,2018-07-06 23:59:02,15,0,24.252,4587.2206668042,62.33596,0.4921268,2.56303485892,0,0,-0.671082,73.2, 1.3, 1,0,0,1024,1024,1024,1024,74.3,-90,98,4.033,4.029,4.046,4.04,4.057,4.051,17.888,82.4,14,Waypoint,
38.4803357,-120.3385642,4588.2049188042,63.320212,0.223694,0.99088585848,11900,2018-07-06 23:59:02,15,0,24.252,4588.2049188042,63.320212,0.4921268,2.56303485892,0,0,-0.671082,73.3, 1.2, 1.1,0,0,1024,1024,1024,1024,74.3,-90,98,4.033,4.029,4.046,4.04,4.057,4.051,17.888,82.4,14,Waypoint,
38.4803358,-120.3385642,4589.1891708042,64.304464,0.223694,1.01936026884,12000,2018-07-06 23:59:02,16,0,24.196,4589.1891708042,64.304464,0.4921268,2.56303485892,0,0,-0.671082,73.4, 1.4, 1.3,0,0,1024,1024,1024,1024,74.3,-89.9,98,4.02,4.016,4.034,4.028,4.045,4.035,18.648,82.4,14,Waypoint,
38.480336,-120.3385642,4590.1734228042,65.288716,0,1.07775922084,12100,2018-07-06 23:59:02,16,0,24.196,4590.1734228042,65.288716,0.4921268,2.56303485892,0,0,-0.671082,73.5, 1.3, 1.3,0,0,1024,1024,1024,1024,74.3,-90,98,4.02,4.016,4.034,4.028,4.045,4.035,18.648,82.4,14,Waypoint,
38.4803361,-120.3385642,4591.1576748042,66.272968,0,1.10760502232,12200,2018-07-06 23:59:02,16,0,24.196,4591.1576748042,66.272968,0.4921268,2.56303485892,0,0,-0.671082,73.5, 1.1, 1.1,0,0,1024,1024,1024,1024,74.3,-89.9,98,4.02,4.016,4.034,4.028,4.045,4.035,18.648,82.4,14,Waypoint,
38.4803363,-120.3385643,4592.1419268042,67.25722,0,1.15332352772,12300,2018-07-06 23:59:02,16,0,24.196,4592.1419268042,67.25722,0.4921268,2.56303485892,0,0,-0.671082,73.5, 1.1, 1.2,0,0,1024,1024,1024,1024,74.3,-89.9,98,4.02,4.016,4.034,4.028,4.045,4.035,18.648,82.4,14,Waypoint,
38.4803364,-120.3385643,4593.1261788042,68.241472,0,1.18463586468,12400,2018-07-06 23:59:02,16,0,24.196,4593.1261788042,68.241472,0.4921268,2.56303485892,0,0,-0.671082,73.5, 1.4, 1.6,0,0,1024,1024,1024,1024,74.2,-89.9,98,4.02,4.016,4.034,4.028,4.045,4.035,18.648,82.4,14,Waypoint,
38.4803366,-120.3385643,4594.1104308042,69.225724,0,1.24811027616,12500,2018-07-06 23:59:02,16,0,24.196,4594.1104308042,69.225724,0.4921268,2.56303485892,0,0,-0.671082,73.4, 1.5, 1.8,0,0,1024,1024,1024,1024,74.2,-89.9,98,4.02,4.016,4.034,4.028,4.045,4.035,18.648,82.4,14,Waypoint,
38.4803367,-120.3385643,4595.0946828042,70.209976,0,1.28022641892,12600,2018-07-06 23:59:02,16,0,24.196,4595.0946828042,70.209976,0.4921268,2.56303485892,0,0,-0.671082,73.2, 1.4, 1.7,0,0,1024,1024,1024,1024,74.2,-89.9,98,4.02,4.016,4.034,4.028,4.045,4.035,18.648,82.4,14,Waypoint,
38.4803369,-120.3385642,4596.0789348042,71.194228,0,1.358103718,12700,2018-07-06 23:59:03,16,0,24.196,4596.0789348042,71.194228,0.4921268,2.56303485892,0,0,-0.671082,73.1, 1.7, 1.7,0,0,1024,1024,1024,1024,74.2,-89.9,98,4.02,4.016,4.034,4.028,4.045,4.035,18.648,82.4,14,Waypoint,
38.480337,-120.3385642,4597.0631868042,72.17848,0,1.3905512256,12800,2018-07-06 23:59:03,16,0,24.196,4597.0631868042,72.17848,0.4921268,2.56303485892,0,0,-0.671082,73.1, 1.9, 1.6,0,0,1024,1024,1024,1024,74.2,-89.9,98,4.02,4.016,4.034,4.028,4.045,4.035,18.648,82.4,14,Waypoint,
38.4803373,-120.3385642,4599.0316908042,74.146984,0,1.48901579568,12900,2018-07-06 23:59:03,15,0,24.196,4599.0316908042,74.146984,0.4921268,2.56303485892,0,0,-0.671082,73.3, 1.7, 1.4,0,0,1024,1024,1024,1024,74.2,-89.9,98,4.02,4.016,4.034,4.028,4.045,4.035,18.648,82.4,14,Waypoint,
38.4803374,-120.3385642,4600.0159428042,75.131236,0,1.52216868388,13000,2018-07-06 23:59:03,15,0,24.129,4600.0159428042,75.131236,0.4921268,2.56303485892,0,0,-0.671082,73.4, 1.5, 1.5,0,0,1024,1024,1024,1024,74.2,-90,98,4.02,4.016,4.034,4.028,4.045,4.035,19.374,82.4,14,Waypoint,
38.4803375,-120.3385642,4601.0001948042,76.115488,0,1.55547577156,13100,2018-07-06 23:59:03,14,0,24.129,4601.0001948042,76.115488,0.4921268,2.56303485892,0,0,-0.671082,73.4, 1.3, 1.7,0,0,1024,1024,1024,1024,74.2,-90,98,4.02,4.016,4.034,4.028,4.045,4.035,19.374,82.4,14,Waypoint,
38.4803376,-120.3385642,4601.9844468042,77.09974,0,1.58891737368,13200,2018-07-06 23:59:03,14,0,24.129,4601.9844468042,77.09974,0.4921268,2.56303485892,0,0,-0.671082,73.3, 1.1, 1.8,0,0,1024,1024,1024,1024,74.2,-90,98,4.02,4.016,4.034,4.028,4.045,4.035,19.374,82.4,14,Waypoint,
38.4803379,-120.3385642,4603.9529508042,79.068244,0,1.69000661576,13400,2018-07-06 23:59:03,15,0,24.129,4603.9529508042,79.068244,0.4921268,2.56303485892,0,0,-0.671082,73.2, 1.8, 1.7,0,0,1024,1024,1024,1024,74.2,-89.9,98,4.02,4.016,4.034,4.028,4.045,4.035,19.374,82.4,14,Waypoint,
38.4803379,-120.3385642,4604.9372028042,80.052496,0,1.69000661576,13600,2018-07-06 23:59:03,15,0,24.129,4604.9372028042,80.052496,0.4921268,2.56303485892,0,0,-0.671082,73.2, 1.9, 1.8,0,0,1024,1024,1024,1024,74.2,-89.9,98,4.02,4.016,4.034,4.028,4.045,4.035,19.374,82.4,14,Waypoint,
38.4803379,-120.3385643,4605.9214548042,81.036748,0,1.67959651044,13700,2018-07-06 23:59:04,15,0,24.129,4605.9214548042,81.036748,0.4921268,2.56303485892,0,0,-0.671082,73.2, 1.8, 1.8,0,0,1024,1024,1024,1024,74.2,-89.9,98,4.02,4.016,4.034,4.028,4.045,4.035,19.374,82.4,14,Waypoint,
38.480338,-120.3385643,4606.9057068042,82.021,0,1.71372380812,13800,2018-07-06 23:59:04,15,0,24.129,4606.9057068042,82.021,0.4921268,2.56303485892,0,0,-0.671082,73.2, 1.6, 1.5,0,0,1024,1024,1024,1024,74.2,-89.9,98,4.02,4.016,4.034,4.028,4.045,4.035,19.374,82.4,14,Waypoint,
38.480338,-120.3385644,4607.8899588042,83.005252,0,1.7039370624,13900,2018-07-06 23:59:04,15,0,24.129,4607.8899588042,83.005252,0.4921268,2.56303485892,0,0,-0.671082,73.2, 1.1, 1.5,0,0,1024,1024,1024,1024,74.2,-90,98,4.02,4.016,4.034,4.028,4.045,4.035,19.374,82.4,14,Waypoint,
38.480338,-120.3385644,4608.8742108042,83.989504,0,1.7039370624,14000,2018-07-06 23:59:04,15,0,24.129,4608.8742108042,83.989504,0.4921268,2.56303485892,0,0,-0.671082,73.2, 0.9, 1.5,0,0,1024,1024,1024,1024,74.2,-90,98,4.007,4.003,4.023,4.017,4.031,4.026,19.374,82.4,14,Waypoint,
38.480338,-120.3385645,4609.8584628042,84.973756,0,1.69457682588,14100,2018-07-06 23:59:04,15,0,24.129,4609.8584628042,84.973756,0.4921268,2.56303485892,0,0,-0.671082,73.1, 1, 1.6,0,0,1024,1024,1024,1024,74.2,-90,98,4.007,4.003,4.023,4.017,4.031,4.026,19.374,82.4,14,Waypoint,
38.480338,-120.3385645,4610.8427148042,85.958008,0,1.69457682588,14200,2018-07-06 23:59:04,15,0,24.129,4610.8427148042,85.958008,0.4921268,2.56303485892,0,0,-0.671082,73, 0.9, 1.5,0,0,1024,1024,1024,1024,74.2,-90,98,4.007,4.003,4.023,4.017,4.031,4.026,19.374,82.4,14,Waypoint,
38.4803381,-120.3385646,4611.8269668042,86.94226,0,1.72042984508,14300,2018-07-06 23:59:04,15,0,24.129,4611.8269668042,86.94226,0.4921268,2.56303485892,0,0,-0.671082,73, 0.7, 1.5,0,0,1024,1024,1024,1024,74.2,-90,98,4.007,4.003,4.023,4.017,4.031,4.026,19.374,82.4,14,Waypoint,
38.480338,-120.3385645,4612.8112188042,87.926512,0,1.69457682588,14400,2018-07-06 23:59:04,15,0,24.129,4612.8112188042,87.926512,0.4921268,2.56303485892,0,0,-0.671082,73, 0.7, 1.4,0,0,1024,1024,1024,1024,74.2,-90,98,4.007,4.003,4.023,4.017,4.031,4.026,19.374,82.4,14,Waypoint,
38.480338,-120.3385645,4613.7954708042,88.910764,0,1.69457682588,14500,2018-07-06 23:59:04,15,0,24.129,4613.7954708042,88.910764,0.4921268,2.56303485892,0,0,-0.671082,73.1, 1, 1.2,0,0,1024,1024,1024,1024,74.2,-89.9,98,4.007,4.003,4.023,4.017,4.031,4.026,19.374,82.4,14,Waypoint,
38.480338,-120.3385645,4614.7797228042,89.895016,0,1.69457682588,14600,2018-07-06 23:59:04,15,0,24.129,4614.7797228042,89.895016,0.4921268,2.56303485892,0,0,-0.671082,73.2, 1.4, 1.2,0,0,1024,1024,1024,1024,74.2,-89.9,98,4.007,4.003,4.023,4.017,4.031,4.026,19.374,82.4,14,Waypoint,
38.4803379,-120.3385645,4615.7639748042,90.879268,0.223694,1.6600558274,14700,2018-07-06 23:59:05,15,0,24.129,4615.7639748042,90.879268,0.4921268,2.56303485892,0,0,-0.671082,73.4, 1.6, 1.2,0,0,1024,1024,1024,1024,74.2,-89.9,98,4.007,4.003,4.023,4.017,4.031,4.026,19.374,82.4,14,Waypoint,
38.4803379,-120.3385645,4616.7482268042,91.86352,0.223694,1.6600558274,14800,2018-07-06 23:59:05,15,0,24.129,4616.7482268042,91.86352,0.4921268,2.56303485892,0,0,-0.671082,73.5, 1.6, 1.1,0,0,1024,1024,1024,1024,74.2,-89.9,98,4.007,4.003,4.023,4.017,4.031,4.026,19.374,82.4,14,Waypoint,
38.4803378,-120.3385645,4617.7324788042,92.847772,0.223694,1.62561684992,14900,2018-07-06 23:59:05,15,0,24.129,4617.7324788042,92.847772,0.4921268,2.56303485892,0,0,-0.671082,73.5, 1.3, 0.9,0,0,1024,1024,1024,1024,74.2,-89.9,98,4.007,4.003,4.023,4.017,4.031,4.026,19.374,82.4,14,Waypoint,
38.4803378,-120.3385645,4618.7167308042,93.832024,0.223694,1.62561684992,15000,2018-07-06 23:59:05,15,0,24.091,4618.7167308042,93.832024,0.4921268,2.56303485892,0,0,-0.671082,73.5, 1, 0.6,0,0,1024,1024,1024,1024,74.2,-90,98,3.998,4.004,4.026,4.019,4.019,4.02,19.169,82.4,14,Waypoint,
38.4803378,-120.3385646,4619.7009828042,94.816276,0,1.61630910684,15100,2018-07-06 23:59:05,15,0,24.091,4619.7009828042,94.816276,0.4921268,2.56303485892,0,0,-0.671082,73.5, 0.9, 0.7,0,0,1024,1024,1024,1024,74.2,-90,98,3.998,4.004,4.026,4.019,4.019,4.02,19.169,82.4,14,Waypoint,
38.4803378,-120.3385646,4620.6852348042,95.800528,0,1.61630910684,15200,2018-07-06 23:59:05,15,0,24.091,4620.6852348042,95.800528,0.4921268,2.56303485892,0,0,-0.671082,73.5, 0.8, 0.9,0,0,1024,1024,1024,1024,74.2,-90,98,3.998,4.004,4.026,4.019,4.019,4.02,19.169,82.4,14,Waypoint,
38.4803377,-120.3385646,4621.6694868042,96.78478,0,1.5817585808,15300,2018-07-06 23:59:05,15,0,24.091,4621.6694868042,96.78478,0.4921268,2.56303485892,0,0,-0.671082,73.4, 0.7, 1,0,0,1024,1024,1024,1024,74.2,-90,98,3.998,4.004,4.026,4.019,4.019,4.02,19.169,82.4,14,Waypoint,
38.4803377,-120.3385647,4623.6379908042,98.753284,0,1.57271002408,15400,2018-07-06 23:59:05,15,0,24.091,4623.6379908042,98.753284,0.4921268,2.56303485892,0,0,-0.671082,73.3, 0.8, 0.8,0,0,1024,1024,1024,1024,74.2,-90,98,3.998,4.004,4.026,4.019,4.019,4.02,19.169,82.4,14,Waypoint,
38.4803375,-120.3385648,4625.6064948042,100.721788,0.223694,1.49449479848,15600,2018-07-06 23:59:05,15,0,24.091,4625.6064948042,100.721788,0.4921268,2.56303485892,0,0,-0.671082,73.1, 0.6, 0.7,0,0,1024,1024,1024,1024,74.2,-90,98,3.998,4.004,4.026,4.019,4.019,4.02,19.169,82.4,14,Waypoint,
38.4803374,-120.3385648,4626.9188308042,102.034124,0.223694,1.45979991548,15800,2018-07-06 23:59:06,15,0,24.091,4626.9188308042,102.034124,0.4921268,2.56303485892,0,0,-0.671082,73, 0.3, 0.5,0,0,1024,1024,1024,1024,74.2,-90,98,3.998,4.004,4.026,4.019,4.019,4.02,19.169,82.4,14,Waypoint,
38.4803372,-120.3385649,4628.8873348042,104.002628,0.223694,1.381561724,16000,2018-07-06 23:59:06,15,0,24.088,4628.8873348042,104.002628,0.4921268,2.56303485892,0,0,-0.671082,73, 0.1, 0.3,0,0,1024,1024,1024,1024,74.2,-90,98,3.998,4,4.021,4.016,4.035,4.022,19.04,82.4,14,Waypoint,
38.4803372,-120.338565,4629.8715868042,104.98688,0,1.37297248488,16100,2018-07-06 23:59:06,15,0,24.088,4629.8715868042,104.98688,0.4921268,2.56303485892,0,0,-0.671082,73.1, 0, 0.3,0,0,1024,1024,1024,1024,74.2,-90,98,3.998,4,4.021,4.016,4.035,4.022,19.04,82.4,14,Waypoint,
38.4803371,-120.338565,4630.8558388042,105.971132,0,1.33811355988,16200,2018-07-06 23:59:06,15,0,24.088,4630.8558388042,105.971132,0.4921268,2.56303485892,0,0,-0.671082,73.1, 0, 0.4,0,0,1024,1024,1024,1024,74.2,-90,98,3.998,4,4.021,4.016,4.035,4.022,19.04,82.4,14,Waypoint,
38.4803369,-120.338565,4631.8400908042,106.955384,0,1.26866473876,16300,2018-07-06 23:59:06,15,0,24.088,4631.8400908042,106.955384,0.4921268,2.56303485892,0,0,-0.671082,73.1, 0.1, 0.4,0,0,1024,1024,1024,1024,74.2,-90,98,3.998,4,4.021,4.016,4.035,4.022,19.04,82.4,14,Waypoint,
38.4803369,-120.338565,4632.8243428042,107.939636,0,1.26866473876,16400,2018-07-06 23:59:06,15,0,24.088,4632.8243428042,107.939636,0.4921268,2.56303485892,0,0,-0.671082,73.1, 0.2, 0.3,0,0,1024,1024,1024,1024,74.2,-90,98,3.998,4,4.021,4.016,4.035,4.022,19.04,82.4,14,Waypoint,
38.4803368,-120.3385651,4633.4805108042,108.595804,0,1.22513783448,16500,2018-07-06 23:59:06,15,0,24.088,4633.4805108042,108.595804,0.4921268,2.56303485892,0,0,-0.671082,73.1, 0.5, 0.3,0,0,1024,1024,1024,1024,74.2,-90,98,3.998,4,4.021,4.016,4.035,4.022,19.04,82.4,14,Waypoint,
38.4803367,-120.338565,4634.4647628042,109.580056,0,1.19963258432,16600,2018-07-06 23:59:06,15,0,24.088,4634.4647628042,109.580056,0.4921268,2.56303485892,0,0,-0.671082,73, 0.5, 0.4,0,0,1024,1024,1024,1024,74.2,-90,98,3.998,4,4.021,4.016,4.035,4.022,19.04,82.4,14,Waypoint,
38.4803366,-120.338565,4635.4490148042,110.564308,0,1.16529859372,16700,2018-07-06 23:59:07,15,0,24.088,4635.4490148042,110.564308,0.4921268,2.56303485892,0,0,-0.671082,73, 0.3, 0.1,0,0,1024,1024,1024,1024,74.2,-90,98,3.998,4,4.021,4.016,4.035,4.022,19.04,82.4,14,Waypoint,
38.4803365,-120.338565,4636.4332668042,111.54856,0,1.13109911756,16800,2018-07-06 23:59:07,15,0,24.088,4636.4332668042,111.54856,0.4921268,2.56303485892,0,0,-0.671082,73.1, 0.2, -0.1,0,0,1024,1024,1024,1024,74.2,-90,98,3.998,4,4.021,4.016,4.035,4.022,19.04,82.4,14,Waypoint,
38.4803364,-120.338565,4637.4175188042,112.532812,0,1.09704399836,16900,2018-07-06 23:59:07,15,0,24.088,4637.4175188042,112.532812,0.4921268,2.56303485892,0,0,-0.671082,73.2, 0.3, -0.2,0,0,1024,1024,1024,1024,74.2,-90,98,3.998,4,4.021,4.016,4.035,4.022,19.04,82.4,14,Waypoint,
38.4803364,-120.338565,4638.4017708042,113.517064,0,1.09704399836,17000,2018-07-06 23:59:07,15,0,24.085,4638.4017708042,113.517064,0.4921268,2.56303485892,0,0,-0.671082,73.2, 0.3, -0.2,0,0,1024,1024,1024,1024,74.2,-90,97,4.007,3.997,4.02,4.01,4.026,4.021,18.471,82.4,14,Waypoint,
38.4803364,-120.3385649,4639.3860228042,114.501316,0,1.107775626,17100,2018-07-06 23:59:07,15,0,24.085,4639.3860228042,114.501316,0.4921268,2.56303485892,0,0,-0.671082,73.3, 0.4, 0,0,0,1024,1024,1024,1024,74.2,-89.9,97,4.007,3.997,4.02,4.01,4.026,4.021,18.471,82.4,14,Waypoint,
38.4803363,-120.3385648,4640.3702748042,115.485568,0,1.08592851244,17200,2018-07-06 23:59:07,15,0,24.085,4640.3702748042,115.485568,0.4921268,2.56303485892,0,0,-0.671082,73.3, 0.7, 0,0,0,1024,1024,1024,1024,74.2,-89.9,97,4.007,3.997,4.02,4.01,4.026,4.021,18.471,82.4,14,Waypoint,
38.4803363,-120.3385648,4641.3545268042,116.46982,0,1.08592851244,17300,2018-07-06 23:59:07,15,0,24.085,4641.3545268042,116.46982,0.4921268,2.56303485892,0,0,-0.671082,73.3, 1, 0.2,0,0,1024,1024,1024,1024,74.2,-89.9,97,4.007,3.997,4.02,4.01,4.026,4.021,18.471,82.4,14,Waypoint,
38.4803363,-120.3385648,4642.3387788042,117.454072,0,1.08592851244,17400,2018-07-06 23:59:07,15,0,24.085,4642.3387788042,117.454072,0.4921268,2.56303485892,0,0,-0.671082,73.3, 1.1, 0.4,0,0,1024,1024,1024,1024,74.2,-89.9,97,4.007,3.997,4.02,4.01,4.026,4.021,18.471,82.4,14,Waypoint,
38.4803362,-120.3385648,4643.3230308042,118.438324,0,1.05294294708,17500,2018-07-06 23:59:07,15,0,24.085,4643.3230308042,118.438324,0.4921268,2.56303485892,0,0,-0.671082,73.3, 1.1, 0.5,0,0,1024,1024,1024,1024,74.2,-90,97,4.007,3.997,4.02,4.01,4.026,4.021,18.471,82.4,14,Waypoint,
38.4803362,-120.3385648,4644.3072828042,119.422576,0,1.05294294708,17600,2018-07-06 23:59:07,15,0,24.085,4644.3072828042,119.422576,0.4921268,2.56303485892,0,0,-0.671082,73.3, 1, 0.5,0,0,1024,1024,1024,1024,74.2,-89.9,97,4.007,3.997,4.02,4.01,4.026,4.021,18.471,82.4,14,Waypoint,
38.4803362,-120.3385648,4645.2915348042,120.406828,0,1.05294294708,17700,2018-07-06 23:59:08,15,0,24.085,4645.2915348042,120.406828,0.4921268,2.56303485892,0,0,-0.671082,73.3, 0.9, 0.4,0,0,1024,1024,1024,1024,74.2,-89.9,97,4.007,3.997,4.02,4.01,4.026,4.021,18.471,82.4,14,Waypoint,
38.4803362,-120.3385647,4647.2600388042,122.375332,0,1.0656496404,17800,2018-07-06 23:59:08,15,0,24.085,4647.2600388042,122.375332,0.4921268,2.56303485892,0,0,-0.671082,73.2, 0.5, 0.2,0,0,1024,1024,1024,1024,74.2,-90,97,4.007,3.997,4.02,4.01,4.026,4.021,18.471,82.4,14,Waypoint,
38.4803361,-120.3385648,4649.2285428042,124.343836,0,1.02019688304,18100,2018-07-06 23:59:08,15,0,24.085,4649.2285428042,124.343836,0.4921268,2.56303485892,0,0,-0.671082,73.1, 0.3, 0.5,0,0,1024,1024,1024,1024,74.2,-90,97,4.007,3.997,4.02,4.01,4.026,4.021,18.471,82.4,14,Waypoint,
38.4803362,-120.3385648,4651.1970468042,126.31234,0,1.05294294708,18200,2018-07-06 23:59:08,16,0,24.085,4651.1970468042,126.31234,0.4921268,2.56303485892,0,0,-0.671082,73, 0.4, 0.7,0,0,1024,1024,1024,1024,74.2,-89.9,97,4.007,3.997,4.02,4.01,4.026,4.021,18.471,82.4,14,Waypoint,
38.4803362,-120.3385648,4652.1812988042,127.296592,0,1.05294294708,18400,2018-07-06 23:59:08,16,0,24.085,4652.1812988042,127.296592,0.4921268,2.56303485892,0,0,-0.671082,72.9, 0.8, 1.1,0,0,1024,1024,1024,1024,74.2,-89.9,97,4.007,3.997,4.02,4.01,4.026,4.021,18.471,82.4,14,Waypoint,
38.4803363,-120.3385647,4653.1655508042,128.280844,0,1.09825134748,18500,2018-07-06 23:59:08,16,0,24.085,4653.1655508042,128.280844,0.4921268,2.56303485892,0,0,-0.671082,72.9, 1.1, 1.6,0,0,1024,1024,1024,1024,74.2,-89.9,97,4.007,3.997,4.02,4.01,4.026,4.021,18.471,82.4,14,Waypoint,
38.4803363,-120.3385647,4654.1498028042,129.265096,0,1.09825134748,18600,2018-07-06 23:59:08,16,0,24.085,4654.1498028042,129.265096,0.4921268,2.56303485892,0,0,-0.671082,72.9, 1.5, 1.8,0,0,1024,1024,1024,1024,74.2,-89.9,97,4.007,3.997,4.02,4.01,4.026,4.021,18.471,82.4,14,Waypoint,
38.4803363,-120.3385646,4655.1340548042,130.249348,0,1.11117457624,18700,2018-07-06 23:59:09,16,0,24.085,4655.1340548042,130.249348,0.4921268,2.56303485892,0,0,-0.671082,73, 1.6, 1.8,0,0,1024,1024,1024,1024,74.3,-89.9,97,4.007,3.997,4.02,4.01,4.026,4.021,18.471,82.4,14,Waypoint,
38.4803363,-120.3385645,4656.1183068042,131.2336,0,1.12467523284,18800,2018-07-06 23:59:09,16,0,24.085,4656.1183068042,131.2336,0.4921268,2.56303485892,0,0,-0.671082,72.9, 1.6, 1.4,0,0,1024,1024,1024,1024,74.2,-89.9,97,4.007,3.997,4.02,4.01,4.026,4.021,18.471,82.4,14,Waypoint,
38.4803364,-120.3385645,4657.1025588042,132.217852,0,1.15676512888,18900,2018-07-06 23:59:09,16,0,24.085,4657.1025588042,132.217852,0.4921268,2.56303485892,0,0,-0.671082,73, 1.7, 1.2,0,0,1024,1024,1024,1024,74.2,-90,97,4.007,3.997,4.02,4.01,4.026,4.021,18.471,82.4,14,Waypoint,
38.4803364,-120.3385644,4658.0868108042,133.202104,0,1.17043638916,19000,2018-07-06 23:59:09,16,0,24.015,4658.0868108042,133.202104,0.4921268,2.56303485892,0,0,-0.671082,73.2, 1.9, 1.2,0,0,1024,1024,1024,1024,74.2,-89.9,97,3.993,3.986,4.011,3.998,4.018,4.011,18.899,84.2,14,Waypoint,
38.4803364,-120.3385643,4659.0710628042,134.186356,0,1.18463586468,19100,2018-07-06 23:59:09,16,0,24.015,4659.0710628042,134.186356,0.4921268,2.56303485892,0,0,-0.671082,73.4, 2.1, 1.5,0,0,1024,1024,1024,1024,74.2,-89.9,97,3.993,3.986,4.011,3.998,4.018,4.011,18.899,84.2,14,Waypoint,
38.4803365,-120.3385643,4660.0553148042,135.170608,0,1.2162401964,19200,2018-07-06 23:59:09,17,0,24.015,4660.0553148042,135.170608,0.4921268,2.56303485892,0,0,-0.671082,73.5, 2.4, 1.5,0,0,1024,1024,1024,1024,74.2,-89.9,97,3.993,3.986,4.011,3.998,4.018,4.011,18.899,84.2,14,Waypoint,
38.4803365,-120.3385642,4661.0395668042,136.15486,0,1.2305774672,19300,2018-07-06 23:59:09,17,0,24.015,4661.0395668042,136.15486,0.4921268,2.56303485892,0,0,-0.671082,73.5, 2.4, 1.4,0,0,1024,1024,1024,1024,74.2,-89.9,97,3.993,3.986,4.011,3.998,4.018,4.011,18.899,84.2,14,Waypoint,
38.4803365,-120.3385642,4661.6957348042,136.811028,0,1.2305774672,19400,2018-07-06 23:59:09,17,0,24.015,4661.6957348042,136.811028,0.4921268,2.56303485892,0,0,-0.671082,73.5, 2.2, 1.2,0,0,1024,1024,1024,1024,74.2,-89.9,97,3.993,3.986,4.011,3.998,4.018,4.011,18.899,84.2,14,Waypoint,
38.4803365,-120.3385642,4662.6799868042,137.79528,0,1.2305774672,19500,2018-07-06 23:59:09,17,0,24.015,4662.6799868042,137.79528,0.4921268,2.56303485892,0,0,-0.671082,73.5, 2, 1.5,0,0,1024,1024,1024,1024,74.2,-89.9,97,3.993,3.986,4.011,3.998,4.018,4.011,18.899,84.2,14,Waypoint,
38.4803366,-120.3385641,4663.6642388042,138.779532,0,1.2765420356,19600,2018-07-06 23:59:09,17,0,24.015,4663.6642388042,138.779532,0.4921268,2.56303485892,0,0,-0.671082,73.4, 2, 1.3,0,0,1024,1024,1024,1024,74.2,-89.9,97,3.993,3.986,4.011,3.998,4.018,4.011,18.899,84.2,14,Waypoint,
38.4803366,-120.338564,4664.6484908042,139.763784,0,1.29147313844,19700,2018-07-06 23:59:10,17,0,24.015,4664.6484908042,139.763784,0.4921268,2.56303485892,0,0,-0.671082,73.3, 1.9, 1.1,0,0,1024,1024,1024,1024,74.2,-89.9,97,3.993,3.986,4.011,3.998,4.018,4.011,18.899,84.2,14,Waypoint,
38.4803367,-120.338564,4665.6327428042,140.748036,0,1.32253613156,19800,2018-07-06 23:59:10,17,0,24.015,4665.6327428042,140.748036,0.4921268,2.56303485892,0,0,-0.671082,73.2, 2.1, 1,0,0,1024,1024,1024,1024,74.2,-89.9,97,3.993,3.986,4.011,3.998,4.018,4.011,18.899,84.2,14,Waypoint,
38.4803367,-120.3385639,4666.6169948042,141.732288,0,1.33756237876,19900,2018-07-06 23:59:10,17,0,24.015,4666.6169948042,141.732288,0.4921268,2.56303485892,0,0,-0.671082,73.2, 2.2, 1,0,0,1024,1024,1024,1024,74.2,-90,97,3.993,3.986,4.011,3.998,4.018,4.011,18.899,84.2,14,Waypoint,
38.4803368,-120.3385638,4668.5854988042,143.700792,0,1.38366802328,20000,2018-07-06 23:59:10,17,0,23.959,4668.5854988042,143.700792,0.4921268,2.56303485892,0,0,-0.671082,73.4, 2.4, 1.6,0,0,1024,1024,1024,1024,74.2,-89.9,97,3.986,3.976,4,3.986,4.006,3.995,19.663,84.2,14,Waypoint,
38.4803369,-120.3385637,4669.5697508042,144.685044,0,1.429790072,20100,2018-07-06 23:59:10,17,0,23.959,4669.5697508042,144.685044,0.4921268,2.56303485892,0,0,-0.671082,73.6, 2.7, 2,0,0,1024,1024,1024,1024,74.2,-89.9,97,3.986,3.976,4,3.986,4.006,3.995,19.663,84.2,14,Waypoint,
38.480337,-120.3385636,4670.5540028042,145.669296,0,1.47592524408,20200,2018-07-06 23:59:10,17,0,23.959,4670.5540028042,145.669296,0.4921268,2.56303485892,0,0,-0.671082,73.8, 2.7, 2.5,0,0,1024,1024,1024,1024,74.2,-89.9,97,3.986,3.976,4,3.986,4.006,3.995,19.663,84.2,14,Waypoint,
38.4803371,-120.3385636,4671.5382548042,146.653548,0,1.50671920832,20300,2018-07-06 23:59:10,17,0,23.959,4671.5382548042,146.653548,0.4921268,2.56303485892,0,0,-0.671082,73.9, 2.8, 2.7,0,0,1024,1024,1024,1024,74.2,-89.9,97,3.986,3.976,4,3.986,4.006,3.995,19.663,84.2,14,Waypoint,
38.4803372,-120.3385635,4672.5225068042,147.6378,0,1.55280844864,20500,2018-07-06 23:59:10,17,0,23.959,4672.5225068042,147.6378,0.4921268,2.56303485892,0,0,-0.671082,74, 3, 2.6,0,0,1024,1024,1024,1024,74.2,-89.9,97,3.986,3.976,4,3.986,4.006,3.995,19.663,84.2,14,Waypoint,
38.4803373,-120.3385634,4673.8348428042,148.950136,0,1.59891081232,20600,2018-07-06 23:59:10,17,0,23.959,4673.8348428042,148.950136,0.4921268,2.56303485892,0,0,-0.671082,74, 3.1, 2.7,0,0,1024,1024,1024,1024,74.2,-89.9,97,3.986,3.976,4,3.986,4.006,3.995,19.663,84.2,14,Waypoint,
38.4803374,-120.3385634,4674.8190948042,149.934388,0,1.62983272932,20700,2018-07-06 23:59:11,17,0,23.959,4674.8190948042,149.934388,0.4921268,2.56303485892,0,0,-0.671082,73.9, 3.2, 2.8,0,0,1024,1024,1024,1024,74.2,-90,97,3.986,3.976,4,3.986,4.006,3.995,19.663,84.2,14,Waypoint,
38.4803375,-120.3385633,4675.8033468042,150.91864,0,1.67588916124,20800,2018-07-06 23:59:11,17,0,23.959,4675.8033468042,150.91864,0.4921268,2.56303485892,0,0,-0.671082,73.8, 3, 2.8,0,0,1024,1024,1024,1024,74.2,-89.9,97,3.986,3.976,4,3.986,4.006,3.995,19.663,84.2,14,Waypoint,
38.4803375,-120.3385633,4676.7875988042,151.902892,0,1.67588916124,20900,2018-07-06 23:59:11,17,0,23.959,4676.7875988042,151.902892,0.4921268,2.56303485892,0,0,-0.671082,73.8, 3.2, 2.7,0,0,1024,1024,1024,1024,74.2,-89.9,97,3.986,3.976,4,3.986,4.006,3.995,19.663,84.2,14,Waypoint,
38.4803376,-120.3385632,4677.7718508042,152.887144,0,1.7219652782,21000,2018-07-06 23:59:11,17,0,23.897,4677.7718508042,152.887144,0.4921268,2.56303485892,0,0,-0.671082,73.7, 3.2, 2.4,0,0,1024,1024,1024,1024,74.2,-89.9,97,3.976,3.967,3.986,3.987,3.997,3.997,20.09,84.2,14,Waypoint,
38.4803376,-120.3385631,4678.4280188042,153.543312,0,1.73729336268,21100,2018-07-06 23:59:11,17,0,23.897,4678.4280188042,153.543312,0.4921268,2.56303485892,0,0,-0.671082,73.6, 3.2, 2.3,0,0,1024,1024,1024,1024,74.2,-89.9,97,3.976,3.967,3.986,3.987,3.997,3.997,20.09,84.2,14,Waypoint,
38.4803377,-120.3385631,4679.7403548042,154.855648,0,1.76805123768,21200,2018-07-06 23:59:11,17,0,23.897,4679.7403548042,154.855648,0.4921268,2.56303485892,0,0,-0.671082,73.5, 3.4, 2.4,0,0,1024,1024,1024,1024,74.2,-89.9,97,3.976,3.967,3.986,3.987,3.997,3.997,20.09,84.2,14,Waypoint,
38.4803377,-120.338563,4680.3965228042,155.511816,0,1.78344165812,21300,2018-07-06 23:59:11,17,0,23.897,4680.3965228042,155.511816,0.4921268,2.56303485892,0,0,-0.671082,73.4, 3.6, 2.6,0,0,1024,1024,1024,1024,74.2,-90,97,3.976,3.967,3.986,3.987,3.997,3.997,20.09,84.2,14,Waypoint,
38.4803378,-120.338563,4681.3807748042,156.496068,0,1.81415360136,21400,2018-07-06 23:59:11,17,0,23.897,4681.3807748042,156.496068,0.4921268,2.56303485892,0,0,-0.671082,73.4, 3.4, 2.7,0,0,1024,1024,1024,1024,74.2,-89.9,97,3.976,3.967,3.986,3.987,3.997,3.997,20.09,84.2,14,Waypoint,
38.4803379,-120.338563,4682.3650268042,157.48032,0,1.84507223752,21500,2018-07-06 23:59:11,17,0,23.897,4682.3650268042,157.48032,0.4921268,2.56303485892,0,0,-0.671082,73.4, 3.4, 2.8,0,0,1024,1024,1024,1024,74.2,-89.9,97,3.976,3.967,3.986,3.987,3.997,3.997,20.09,84.2,14,Waypoint,
38.4803379,-120.3385629,4683.3492788042,158.464572,0,1.86026252672,21600,2018-07-06 23:59:11,17,0,23.897,4683.3492788042,158.464572,0.4921268,2.56303485892,0,0,-0.671082,73.5, 3.3, 2.9,0,0,1024,1024,1024,1024,74.2,-89.9,97,3.976,3.967,3.986,3.987,3.997,3.997,20.09,84.2,14,Waypoint,
38.480338,-120.3385629,4684.3335308042,159.448824,0,1.89113523112,21700,2018-07-06 23:59:12,17,0,23.897,4684.3335308042,159.448824,0.4921268,2.56303485892,0,0,-0.671082,73.6, 3.3, 2.9,0,0,1024,1024,1024,1024,74.2,-89.9,97,3.976,3.967,3.986,3.987,3.997,3.997,20.09,84.2,14,Waypoint,
38.480338,-120.3385629,4685.3177828042,160.433076,0,1.89113523112,21800,2018-07-06 23:59:12,17,0,23.897,4685.3177828042,160.433076,0.4921268,2.56303485892,0,0,-0.671082,73.7, 3.5, 2.7,0,0,1024,1024,1024,1024,74.2,-89.9,97,3.976,3.967,3.986,3.987,3.997,3.997,20.09,84.2,14,Waypoint,
38.4803381,-120.3385628,4686.3020348042,161.417328,0,1.93721134808,21900,2018-07-06 23:59:12,17,0,23.897,4686.3020348042,161.417328,0.4921268,2.56303485892,0,0,-0.671082,73.6, 3.7, 2.8,0,0,1024,1024,1024,1024,74.2,-89.9,97,3.976,3.967,3.986,3.987,3.997,3.997,20.09,84.2,14,Waypoint,
38.4803381,-120.3385628,4687.2862868042,162.40158,0,1.93721134808,22000,2018-07-06 23:59:12,17,0,23.999,4687.2862868042,162.40158,0.4921268,2.56303485892,0,0,-0.671082,73.6, 3.8, 2.7,0,0,1024,1024,1024,1024,74.2,-89.9,97,4.002,3.983,3.998,3.997,4.002,4.012,18.87,84.2,14,Waypoint,
38.4803382,-120.3385627,4688.2705388042,163.385832,0,1.98329730756,22100,2018-07-06 23:59:12,17,0,23.999,4688.2705388042,163.385832,0.4921268,2.56303485892,0,0,-0.671082,73.5, 3.9, 2.6,0,0,1024,1024,1024,1024,74.2,-89.9,97,4.002,3.983,3.998,3.997,4.002,4.012,18.87,84.2,14,Waypoint,
38.4803382,-120.3385627,4689.2547908042,164.370084,0,1.98329730756,22200,2018-07-06 23:59:12,17,0,23.999,4689.2547908042,164.370084,0.4921268,2.56303485892,0,0,-0.671082,73.3, 4.2, 2.4,0,0,1024,1024,1024,1024,74.2,-89.9,97,4.002,3.983,3.998,3.997,4.002,4.012,18.87,84.2,14,Waypoint,
38.4803383,-120.3385627,4691.2232948042,166.338588,0,2.01426515632,22300,2018-07-06 23:59:12,17,0,23.999,4691.2232948042,166.338588,0.4921268,2.56303485892,0,0,-0.671082,73.1, 3.9, 2.7,0,0,1024,1024,1024,1024,74.2,-90,97,4.002,3.983,3.998,3.997,4.002,4.012,18.87,84.2,14,Waypoint,
38.4803383,-120.3385627,4692.2075468042,167.32284,0,2.01426515632,22500,2018-07-06 23:59:12,17,0,23.999,4692.2075468042,167.32284,0.4921268,2.56303485892,0,0,-0.671082,73.1, 3.6, 3,0,0,1024,1024,1024,1024,74.2,-90,97,4.002,3.983,3.998,3.997,4.002,4.012,18.87,84.2,14,Waypoint,
38.4803383,-120.3385628,4693.1917988042,168.307092,0,1.99942919784,22600,2018-07-06 23:59:12,17,0,23.999,4693.1917988042,168.307092,0.4921268,2.56303485892,0,0,-0.671082,73.1, 3.5, 3,0,0,1024,1024,1024,1024,74.2,-90,97,4.002,3.983,3.998,3.997,4.002,4.012,18.87,84.2,14,Waypoint,
38.4803383,-120.3385628,4694.1760508042,169.291344,0,1.99942919784,22700,2018-07-06 23:59:13,17,0,23.999,4694.1760508042,169.291344,0.4921268,2.56303485892,0,0,-0.671082,73.1, 3.4, 2.7,0,0,1024,1024,1024,1024,74.2,-90,97,4.002,3.983,3.998,3.997,4.002,4.012,18.87,84.2,14,Waypoint,
38.4803382,-120.3385628,4695.1603028042,170.275596,0,1.96822840944,22800,2018-07-06 23:59:13,17,0,23.999,4695.1603028042,170.275596,0.4921268,2.56303485892,0,0,-0.671082,73.1, 3.1, 2.4,0,0,1024,1024,1024,1024,74.2,-90,97,4.002,3.983,3.998,3.997,4.002,4.012,18.87,84.2,14,Waypoint,
38.4803381,-120.3385629,4696.1445548042,171.259848,0,1.92220150508,22900,2018-07-06 23:59:13,17,0,23.999,4696.1445548042,171.259848,0.4921268,2.56303485892,0,0,-0.671082,73.1, 2.9, 1.9,0,0,1024,1024,1024,1024,74.2,-90,97,4.002,3.983,3.998,3.997,4.002,4.012,18.87,84.2,14,Waypoint,
38.4803381,-120.3385629,4697.1288068042,172.2441,0,1.92220150508,23000,2018-07-06 23:59:13,17,0,23.942,4697.1288068042,172.2441,0.4921268,2.56303485892,0,0,-0.671082,73.2, 2.8, 1.7,0,0,1024,1024,1024,1024,74.2,-89.9,97,3.975,3.983,3.987,4.005,4.017,4.005,18.781,84.2,14,Waypoint,
38.480338,-120.338563,4698.1130588042,173.228352,0,1.87619428576,23100,2018-07-06 23:59:13,17,0,23.942,4698.1130588042,173.228352,0.4921268,2.56303485892,0,0,-0.671082,73.2, 2.9, 1.6,0,0,1024,1024,1024,1024,74.2,-89.9,97,3.975,3.983,3.987,4.005,4.017,4.005,18.781,84.2,14,Waypoint,
38.4803379,-120.338563,4699.0973108042,174.212604,0,1.84507223752,23200,2018-07-06 23:59:13,17,0,23.942,4699.0973108042,174.212604,0.4921268,2.56303485892,0,0,-0.671082,73.3, 3.1, 1.5,0,0,1024,1024,1024,1024,74.2,-89.9,97,3.975,3.983,3.987,4.005,4.017,4.005,18.781,84.2,14,Waypoint,
38.4803378,-120.338563,4700.0815628042,175.196856,0,1.81415360136,23300,2018-07-06 23:59:13,17,0,23.942,4700.0815628042,175.196856,0.4921268,2.56303485892,0,0,-0.671082,73.3, 3.1, 1.5,0,0,1024,1024,1024,1024,74.2,-89.9,97,3.975,3.983,3.987,4.005,4.017,4.005,18.781,84.2,14,Waypoint,
38.4803378,-120.3385631,4701.0658148042,176.181108,0,1.79902564812,23400,2018-07-06 23:59:13,17,0,23.942,4701.0658148042,176.181108,0.4921268,2.56303485892,0,0,-0.671082,73.3, 3, 1.3,0,0,1024,1024,1024,1024,74.2,-89.9,97,3.975,3.983,3.987,4.005,4.017,4.005,18.781,84.2,14,Waypoint,
38.4803377,-120.3385631,4702.0500668042,177.16536,0,1.76805123768,23500,2018-07-06 23:59:13,17,0,23.942,4702.0500668042,177.16536,0.4921268,2.56303485892,0,0,-0.671082,73.3, 3.1, 1.3,0,0,1024,1024,1024,1024,74.2,-90,97,3.975,3.983,3.987,4.005,4.017,4.005,18.781,84.2,14,Waypoint,
38.4803377,-120.3385631,4703.0343188042,178.149612,0,1.76805123768,23600,2018-07-06 23:59:13,17,0,23.942,4703.0343188042,178.149612,0.4921268,2.56303485892,0,0,-0.671082,73.3, 3.1, 1.3,0,0,1024,1024,1024,1024,74.2,-90,97,3.975,3.983,3.987,4.005,4.017,4.005,18.781,84.2,14,Waypoint,
38.4803376,-120.3385632,4704.0185708042,179.133864,0,1.7219652782,23700,2018-07-06 23:59:14,17,0,23.942,4704.0185708042,179.133864,0.4921268,2.56303485892,0,0,-0.671082,73.3, 3, 1.3,0,0,1024,1024,1024,1024,74.2,-90,97,3.975,3.983,3.987,4.005,4.017,4.005,18.781,84.2,14,Waypoint,
38.4803375,-120.3385632,4705.0028228042,180.118116,0,1.69115490976,23800,2018-07-06 23:59:14,17,0,23.942,4705.0028228042,180.118116,0.4921268,2.56303485892,0,0,-0.671082,73.3, 3, 1.3,0,0,1024,1024,1024,1024,74.2,-90,97,3.975,3.983,3.987,4.005,4.017,4.005,18.781,84.2,14,Waypoint,
38.4803375,-120.3385633,4705.9870748042,181.102368,0,1.67588916124,23900,2018-07-06 23:59:14,17,0,23.942,4705.9870748042,181.102368,0.4921268,2.56303485892,0,0,-0.671082,73.2, 2.9, 1.3,0,0,1024,1024,1024,1024,74.2,-89.9,97,3.975,3.983,3.987,4.005,4.017,4.005,18.781,84.2,14,Waypoint,
38.4803374,-120.3385633,4706.9713268042,182.08662,0,1.64502629936,24000,2018-07-06 23:59:14,17,0,23.952,4706.9713268042,182.08662,0.4921268,2.56303485892,0,0,-0.671082,73.2, 2.7, 1.1,0,0,1024,1024,1024,1024,74.2,-89.9,97,3.975,3.983,3.987,4.005,4.017,4.005,18.61,84.2,14,Waypoint,
38.4803374,-120.3385634,4707.9555788042,183.070872,0,1.62983272932,24100,2018-07-06 23:59:14,17,0,23.952,4707.9555788042,183.070872,0.4921268,2.56303485892,0,0,-0.671082,73.1, 2.7, 1.2,0,0,1024,1024,1024,1024,74.2,-89.9,97,3.975,3.983,3.987,4.005,4.017,4.005,18.61,84.2,14,Waypoint,
38.4803373,-120.3385634,4708.9398308042,184.055124,0,1.59891081232,24200,2018-07-06 23:59:14,17,0,23.952,4708.9398308042,184.055124,0.4921268,2.56303485892,0,0,-0.671082,73.1, 2.7, 1.2,0,0,1024,1024,1024,1024,74.2,-89.9,97,3.975,3.983,3.987,4.005,4.017,4.005,18.61,84.2,14,Waypoint,
38.4803372,-120.3385635,4710.9083348042,186.023628,0,1.55280844864,24400,2018-07-06 23:59:14,17,0,23.952,4710.9083348042,186.023628,0.4921268,2.56303485892,0,0,-0.671082,73.2, 2.7, 1.5,0,0,1024,1024,1024,1024,74.2,-89.9,97,3.975,3.983,3.987,4.005,4.017,4.005,18.61,84.2,14,Waypoint,
38.4803372,-120.3385636,4713.2049228042,188.320216,0,1.5377625164,24600,2018-07-06 23:59:14,17,0,23.952,4713.2049228042,188.320216,0.4921268,2.56303485892,0,0,-0.671082,73.3, 2.6, 1.4,0,0,1024,1024,1024,1024,74.2,-89.9,97,3.975,3.983,3.987,4.005,4.017,4.005,18.61,84.2,14,Waypoint,
38.4803371,-120.3385637,4714.1891748042,189.304468,0,1.49175529708,24700,2018-07-06 23:59:15,17,0,23.952,4714.1891748042,189.304468,0.4921268,2.56303485892,0,0,-0.671082,73.3, 2.6, 1.4,0,0,1024,1024,1024,1024,74.2,-89.9,97,3.975,3.983,3.987,4.005,4.017,4.005,18.61,84.2,14,Waypoint,
38.4803371,-120.3385637,4715.1734268042,190.28872,0,1.49175529708,24800,2018-07-06 23:59:15,17,0,23.952,4715.1734268042,190.28872,0.4921268,2.56303485892,0,0,-0.671082,73.3, 2.6, 1.2,0,0,1024,1024,1024,1024,74.2,-89.9,97,3.975,3.983,3.987,4.005,4.017,4.005,18.61,84.2,14,Waypoint,
38.480337,-120.3385637,4716.1576788042,191.272972,0,1.4606463722,24900,2018-07-06 23:59:15,17,0,23.952,4716.1576788042,191.272972,0.4921268,2.56303485892,0,0,-0.671082,73.3, 2.6, 1.2,0,0,1024,1024,1024,1024,74.2,-89.9,97,3.975,3.983,3.987,4.005,4.017,4.005,18.61,84.2,14,Waypoint,
38.4803369,-120.3385637,4718.1261828042,193.241476,0,1.429790072,25000,2018-07-06 23:59:15,17,0,23.952,4718.1261828042,193.241476,0.4921268,2.56303485892,0,0,-0.671082,73.2, 2.7, 0.9,0,0,1024,1024,1024,1024,74.2,-89.9,97,3.979,3.973,3.995,3.983,4.002,3.993,18.61,84.2,14,Waypoint,
38.4803369,-120.3385637,4719.1104348042,194.225728,0,1.429790072,25200,2018-07-06 23:59:15,17,0,23.952,4719.1104348042,194.225728,0.4921268,2.56303485892,0,0,-0.671082,73.2, 3, 0.7,0,0,1024,1024,1024,1024,74.2,-89.9,97,3.979,3.973,3.995,3.983,4.002,3.993,18.61,84.2,14,Waypoint,
38.4803369,-120.3385637,4720.0946868042,195.20998,0,1.429790072,25300,2018-07-06 23:59:15,17,0,23.952,4720.0946868042,195.20998,0.4921268,2.56303485892,0,0,-0.671082,73.2, 3.1, 0.7,0,0,1024,1024,1024,1024,74.2,-89.9,97,3.979,3.973,3.995,3.983,4.002,3.993,18.61,84.2,14,Waypoint,
38.4803368,-120.3385637,4721.0789388042,196.194232,0,1.39920608152,25400,2018-07-06 23:59:15,17,0,23.952,4721.0789388042,196.194232,0.4921268,2.56303485892,0,0,-0.671082,73.2, 3.1, 0.6,0,0,1024,1024,1024,1024,74.2,-89.9,97,3.979,3.973,3.995,3.983,4.002,3.993,18.61,84.2,14,Waypoint,
38.4803368,-120.3385637,4722.0631908042,197.178484,0,1.39920608152,25500,2018-07-06 23:59:15,17,0,23.952,4722.0631908042,197.178484,0.4921268,2.56303485892,0,0,-0.671082,73.2, 3.1, 0.7,0,0,1024,1024,1024,1024,74.2,-89.9,97,3.979,3.973,3.995,3.983,4.002,3.993,18.61,84.2,14,Waypoint,
38.4803368,-120.3385637,4723.0474428042,198.162736,0,1.39920608152,25600,2018-07-06 23:59:15,17,0,23.952,4723.0474428042,198.162736,0.4921268,2.56303485892,0,0,-0.671082,73.3, 3.1, 0.7,0,0,1024,1024,1024,1024,74.2,-89.9,97,3.979,3.973,3.995,3.983,4.002,3.993,18.61,84.2,14,Waypoint,
38.4803367,-120.3385636,4724.0316948042,199.146988,0,1.38520017556,25700,2018-07-06 23:59:16,17,0,23.952,4724.0316948042,199.146988,0.4921268,2.56303485892,0,0,-0.671082,73.3, 3.2, 0.7,0,0,1024,1024,1024,1024,74.2,-90,97,3.979,3.973,3.995,3.983,4.002,3.993,18.61,84.2,14,Waypoint,
38.4803367,-120.3385636,4725.0159468042,200.13124,0,1.38520017556,25800,2018-07-06 23:59:16,17,0,23.952,4725.0159468042,200.13124,0.4921268,2.56303485892,0,0,-0.671082,73.3, 3.2, 0.7,0,0,1024,1024,1024,1024,74.2,-89.9,97,3.979,3.973,3.995,3.983,4.002,3.993,18.61,84.2,14,Waypoint,
38.4803367,-120.3385636,4726.0001988042,201.115492,0,1.38520017556,25900,2018-07-06 23:59:16,17,0,23.952,4726.0001988042,201.115492,0.4921268,2.56303485892,0,0,-0.671082,73.3, 3.3, 0.8,0,0,1024,1024,1024,1024,74.2,-89.9,97,3.979,3.973,3.995,3.983,4.002,3.993,18.61,84.2,14,Waypoint,
38.4803367,-120.3385635,4726.9844508042,202.099744,0,1.40188324696,26000,2018-07-06 23:59:16,17,0,23.924,4726.9844508042,202.099744,0.4921268,2.56303485892,0,0,-0.671082,73.4, 3.3, 0.8,0,0,1024,1024,1024,1024,74.2,-89.9,97,3.983,3.975,3.992,3.982,4.006,3.999,18.986,84.2,14,Waypoint,
38.4803367,-120.3385635,4727.9687028042,203.083996,0,1.40188324696,26100,2018-07-06 23:59:16,17,0,23.924,4727.9687028042,203.083996,0.4921268,2.56303485892,0,0,-0.671082,73.4, 3.3, 0.9,0,0,1024,1024,1024,1024,74.2,-89.9,97,3.983,3.975,3.992,3.982,4.006,3.999,18.986,84.2,14,Waypoint,
