Latitude, Longitude, Altitude (m), Time, Sats, Speed (m/s), Range (m), Battery (%), Roll (deg), Pitch (deg), Yaw (deg), Images, HD Signal (%), RC Signal (%), Battery Temp (C), Battery Voltage (mV), Battery Current (mA), Battery Energy (mAh), Battery Capacity (mAh), Battery Discharges, flyState, timestamp (Unix), LastUpdate (ms), radioChannel, Rc_elevator, Rc_aileron, Rc_throttle, Rc_rudder, Rc_gyro, Dronetype, Battery_Cell1 (mV), Battery_Cell2 (mV), Battery_Cell3 (mV), Battery_Cell4 (mV), Battery_Cell5 (mV), Battery_Cell6 (mV), Video, isFlying, elapsedTime (ms), gimbalPitch (deg), gimbalRoll (deg), gimbalYaw (deg), VelocityX (m/s), VelocityY (m/s), VelocityZ (m/s), GroundSmear (cm), App Version, Aircraft Name, Aircraft Firmware, Aircraft Serial Number, Battery Serial Number, Battery Lifetime (%), App_Tip, App_Warning, CurrentFlightStartingIndex, CurrentFlightLastVisitedWaypoint, PreviousFlightEndingWaypointIndex
38.4803500, -120.3385765, 0.000, 16:39:59.724, 12, 0.00, 0.06, 100, 0.000, -1.100, 77.700, 780, 100, 100, 28, 25807, -3182, 5320, 5320, 20, 11, 1530920399.724, 42, 0, 1024, 1024, 1024, 1024, 0, 6, 4321, 4306, 4320, 4325, 4314, 4321, 0, 1, 2929, -89.900, 0.000, 78.200, 0.000, 0.000, -0.100, 0.0, MapPilot_2.8.1_04242018, Dendroctonus I, , 041DDC1887, 1058163200459, 95, DJI_0777.jpg, Starting Mission from Lat/Long: 38.48035/-120.33858 Camera: Zenmuse X3 - Overlap: 90/90 - Active Connection: No, 29, 29, 29
38.4803500, -120.3385764, 0.000, 16:39:59.795, 12, 0.00, 0.07, 100, -0.100, -0.500, 77.800, 780, 100, 100, 28, 25807, -3182, 5320, 5320, 20, 11, 1530920399.796, 15, 0, 1024, 1024, 1024, 1024, 0, 6, 4279, 4303, 4280, 4266, 4303, 4305, 0, 1, 3001, -89.900, 0.000, 78.200, 0.000, 0.000, -0.300, 0.0, , , , , , 95, , , 29, 29, 29
38.4803501, -120.3385763, 0.000, 16:39:59.895, 12, 0.00, 0.08, 100, 0.000, -0.100, 77.900, 780, 100, 100, 28, 25807, -3182, 5320, 5320, 20, 11, 1530920399.895, 15, 0, 1024, 1024, 1024, 1024, 0, 6, 4279, 4303, 4280, 4266, 4303, 4305, 0, 1, 3101, -89.900, 0.000, 78.200, 0.000, 0.000, -0.400, 0.0, , , , , , 95, , , 29, 29, 29
38.4803502, -120.3385762, 0.000, 16:39:59.995, 12, 0.10, 0.09, 100, 0.200, 0.200, 77.800, 780, 100, 100, 28, 25807, -3182, 5320, 5320, 20, 11, 1530920399.996, 18, 0, 1024, 1024, 1024, 1024, 0, 6, 4279, 4303, 4280, 4266, 4303, 4305, 0, 1, 3201, -89.900, 0.000, 78.200, 0.100, 0.000, -0.400, 0.0, , , , , , 95, , , 29, 29, 29
38.4803503, -120.3385761, 0.100, 16:40:00.095, 12, 0.10, 0.11, 100, 0.400, 0.300, 77.700, 780, 100, 100, 28, 25807, -3182, 5320, 5320, 20, 11, 1530920400.096, 22, 0, 1024, 1024, 1024, 1024, 0, 6, 4279, 4303, 4280, 4266, 4303, 4305, 0, 1, 3301, -89.900, 0.000, 78.200, 0.100, 0.000, -0.400, 0.0, , , , , , 95, , , 29, 29, 29
38.4803507, -120.3385758, 0.100, 16:40:00.195, 12, 0.10, 0.15, 100, 0.600, 0.800, 77.500, 780, 100, 100, 28, 25807, -3182, 5320, 5320, 20, 11, 1530920400.196, 14, 0, 1024, 1024, 1024, 1024, 0, 6, 4279, 4303, 4280, 4266, 4303, 4305, 0, 1, 3401, -89.900, 0.000, 78.200, 0.100, 0.000, -0.400, 0.0, , , , , , 95, , , 29, 29, 29
38.4803509, -120.3385757, 0.200, 16:40:00.295, 12, 0.10, 0.17, 100, 1.000, 1.200, 77.500, 780, 100, 100, 28, 25807, -3182, 5320, 5320, 20, 11, 1530920400.296, 14, 0, 1024, 1024, 1024, 1024, 0, 6, 4279, 4303, 4280, 4266, 4303, 4305, 0, 1, 3501, -89.900, 0.000, 78.200, 0.100, 0.000, -0.300, 0.0, , , , , , 95, , , 29, 29, 29
38.4803510, -120.3385756, 0.200, 16:40:00.395, 13, 0.10, 0.19, 100, 1.400, 1.300, 77.400, 780, 100, 100, 28, 25807, -3182, 5320, 5320, 20, 11, 1530920400.396, 2, 0, 1024, 1024, 1024, 1024, 0, 6, 4279, 4303, 4280, 4266, 4303, 4305, 0, 1, 3601, -89.900, 0.000, 78.200, 0.100, 0.000, -0.400, 0.0, , , , , , 95, , , 29, 29, 29
38.4803510, -120.3385756, 0.200, 16:40:00.495, 13, 0.10, 0.19, 100, 1.400, 1.300, 77.400, 780, 100, 100, 28, 25807, -3182, 5320, 5320, 20, 11, 1530920400.496, 103, 0, 1024, 1024, 1024, 1024, 0, 6, 4279, 4303, 4280, 4266, 4303, 4305, 0, 1, 3701, -89.900, 0.000, 78.200, 0.100, 0.000, -0.400, 0.0, , , , , , 95, , , 29, 29, 29
38.4803511, -120.3385755, 0.300, 16:40:00.595, 13, 0.10, 0.20, 100, 1.600, 1.300, 77.400, 780, 100, 100, 28, 25807, -3182, 5320, 5320, 20, 11, 1530920400.595, 95, 0, 1024, 1024, 1024, 1024, 0, 6, 4279, 4303, 4280, 4266, 4303, 4305, 0, 1, 3801, -89.900, 0.000, 78.200, 0.100, 0.000, -0.400, 0.0, , , , , , 95, , , 29, 29, 29
38.4803512, -120.3385754, 0.300, 16:40:00.695, 12, 0.00, 0.22, 100, 1.500, 1.300, 77.500, 780, 100, 100, 28, 24866, -13238, 5320, 5320, 20, 11, 1530920400.696, 48, 0, 1024, 1024, 1024, 1024, 0, 6, 4279, 4303, 4280, 4266, 4303, 4305, 0, 1, 3901, -89.900, 0.000, 78.200, 0.000, 0.000, -0.400, 0.0, , , , , , 95, , , 29, 29, 29
38.4803513, -120.3385753, 0.400, 16:40:00.795, 12, 0.00, 0.23, 100, 1.400, 1.200, 77.600, 780, 100, 100, 28, 24866, -13238, 5320, 5320, 20, 11, 1530920400.796, 65, 0, 1024, 1024, 1024, 1024, 0, 6, 4279, 4303, 4280, 4266, 4303, 4305, 0, 1, 4001, -89.900, 0.000, 78.200, 0.000, 0.000, -0.400, 0.0, , , , , , 95, , , 29, 29, 29
38.4803513, -120.3385753, 0.400, 16:40:00.895, 12, 0.00, 0.23, 100, 1.400, 1.200, 77.700, 780, 100, 100, 28, 24866, -13238, 5320, 5320, 20, 11, 1530920400.896, 67, 0, 1024, 1024, 1024, 1024, 0, 6, 4279, 4303, 4280, 4266, 4303, 4305, 0, 1, 4101, -89.900, 0.000, 78.200, 0.000, 0.000, -0.400, 0.0, , , , , , 95, , , 29, 29, 29
38.4803513, -120.3385752, 0.500, 16:40:00.995, 12, 0.00, 0.24, 100, 1.400, 1.400, 77.800, 780, 100, 100, 28, 24866, -13238, 5320, 5320, 20, 11, 1530920400.996, 61, 0, 1024, 1024, 1024, 1024, 0, 6, 4279, 4303, 4280, 4266, 4303, 4305, 0, 1, 4201, -89.900, 0.000, 78.200, 0.000, 0.000, -0.400, 0.0, , , , , , 95, , , 29, 29, 29
38.4803514, -120.3385751, 0.500, 16:40:01.095, 11, 0.00, 0.25, 100, 1.400, 1.500, 77.800, 780, 100, 100, 28, 24866, -13238, 5320, 5320, 20, 11, 1530920401.096, 63, 0, 1024, 1024, 1024, 1024, 0, 6, 4279, 4303, 4280, 4266, 4303, 4305, 0, 1, 4301, -89.900, 0.000, 78.200, 0.000, 0.000, -0.400, 0.0, , , , , , 95, , , 29, 29, 29
38.4803515, -120.3385751, 0.600, 16:40:01.195, 11, 0.00, 0.26, 100, 1.400, 1.600, 77.800, 780, 100, 100, 28, 24866, -13238, 5320, 5320, 20, 11, 1530920401.196, 65, 0, 1024, 1024, 1024, 1024, 0, 6, 4147, 4160, 4134, 4130, 4134, 4160, 0, 1, 4401, -89.900, 0.000, 78.200, 0.000, 0.000, -0.400, 0.0, , , , , , 95, , , 29, 29, 29
38.4803516, -120.3385751, 0.600, 16:40:01.295, 12, 0.00, 0.27, 100, 1.800, 1.700, 77.800, 780, 100, 100, 28, 24866, -13238, 5320, 5320, 20, 11, 1530920401.296, 52, 0, 1024, 1024, 1024, 1024, 0, 6, 4147, 4160, 4134, 4130, 4134, 4160, 0, 1, 4501, -89.900, 0.000, 78.200, 0.000, 0.000, -0.400, 0.0, , , , , , 95, , , 29, 29, 29
38.4803517, -120.3385751, 0.700, 16:40:01.395, 12, 0.00, 0.28, 100, 2.200, 1.700, 77.700, 780, 100, 100, 28, 24866, -13238, 5320, 5320, 20, 11, 1530920401.396, 30, 0, 1024, 1024, 1024, 1024, 0, 6, 4147, 4160, 4134, 4130, 4134, 4160, 0, 1, 4601, -89.900, 0.000, 78.200, 0.000, 0.000, -0.400, 0.0, , , , , , 95, , , 29, 29, 29
38.4803518, -120.3385751, 0.700, 16:40:01.495, 12, 0.00, 0.28, 100, 2.300, 1.700, 77.700, 780, 100, 100, 28, 24866, -13238, 5320, 5320, 20, 11, 1530920401.496, 30, 0, 1024, 1024, 1024, 1024, 0, 6, 4147, 4160, 4134, 4130, 4134, 4160, 0, 1, 4701, -89.900, 0.000, 78.200, 0.000, 0.000, -0.400, 0.0, , , , , , 95, , , 29, 29, 29
38.4803519, -120.3385751, 0.800, 16:40:01.595, 12, 0.00, 0.29, 100, 2.300, 1.600, 77.600, 780, 100, 100, 28, 24866, -13238, 5320, 5320, 20, 11, 1530920401.596, 31, 0, 1024, 1024, 1024, 1024, 0, 6, 4147, 4160, 4134, 4130, 4134, 4160, 0, 1, 4801, -89.900, 0.000, 78.200, 0.000, 0.000, -0.400, 0.0, , , , , , 95, , , 29, 29, 29
38.4803519, -120.3385751, 0.800, 16:40:01.695, 12, 0.00, 0.29, 100, 2.300, 1.500, 77.600, 780, 100, 100, 28, 24866, -13238, 5320, 5320, 20, 11, 1530920401.696, 23, 0, 1024, 1024, 1024, 1024, 0, 6, 4147, 4160, 4134, 4130, 4134, 4160, 0, 1, 4901, -89.900, 0.000, 78.200, 0.000, 0.000, -0.400, 0.0, , , , , , 95, , , 29, 29, 29
38.4803518, -120.3385751, 0.900, 16:40:01.795, 12, 0.00, 0.29, 100, 2.200, 1.500, 77.600, 780, 100, 100, 28, 24866, -13238, 5320, 5320, 20, 11, 1530920401.796, 27, 0, 1024, 1024, 1024, 1024, 0, 6, 4147, 4160, 4134, 4130, 4134, 4160, 0, 1, 5001, -89.900, 0.000, 78.200, 0.000, 0.000, -0.400, 0.0, , , , , , 95, , , 29, 29, 29
38.4803518, -120.3385751, 0.900, 16:40:01.895, 12, 0.00, 0.29, 100, 2.100, 1.500, 77.600, 780, 100, 100, 28, 24866, -13238, 5320, 5320, 20, 14, 1530920401.896, 27, 0, 1024, 1024, 1024, 1024, 0, 6, 4147, 4160, 4134, 4130, 4134, 4160, 0, 1, 5101, -89.900, 0.000, 78.200, 0.000, 0.000, -0.400, 0.0, , , , , , 95, , , 29, 29, 29
38.4803518, -120.3385751, 0.900, 16:40:01.995, 12, 0.00, 0.28, 100, 1.500, 1.100, 77.600, 780, 100, 100, 28, 24866, -13238, 5320, 5320, 20, 14, 1530920401.996, 29, 0, 1024, 1024, 1024, 1024, 0, 6, 4147, 4160, 4134, 4130, 4134, 4160, 0, 1, 5201, -89.900, 0.000, 78.200, 0.000, 0.000, -0.300, 0.0, , , , , , 95, , , 29, 29, 29
38.4803518, -120.3385751, 1.000, 16:40:02.096, 11, 0.00, 0.28, 100, 0.500, 0.200, 77.600, 780, 100, 100, 28, 24866, -13238, 5320, 5320, 20, 14, 1530920402.096, 2, 0, 1024, 1024, 1024, 1024, 0, 6, 4147, 4160, 4134, 4130, 4134, 4160, 0, 1, 5301, -89.900, 0.000, 78.200, 0.000, 0.000, -0.200, 0.0, , , , , , 95, , , 29, 29, 29
38.4803518, -120.3385750, 1.000, 16:40:02.196, 10, 0.00, 0.29, 100, 0.500, 0.000, 77.500, 780, 100, 100, 28, 24673, -15503, 5320, 5320, 20, 14, 1530920402.196, 2, 0, 1024, 1024, 1024, 1024, 0, 6, 4091, 4120, 4115, 4099, 4103, 4123, 0, 1, 5401, -90.000, 0.000, 78.200, 0.000, 0.000, -0.400, 0.0, , , , , , 95, , , 29, 29, 29
38.4803518, -120.3385750, 1.000, 16:40:02.295, 10, 0.00, 0.29, 100, 0.500, 0.000, 77.500, 780, 100, 100, 28, 24673, -15503, 5320, 5320, 20, 14, 1530920402.296, 101, 0, 1024, 1024, 1024, 1024, 0, 6, 4091, 4120, 4115, 4099, 4103, 4123, 0, 1, 5501, -90.000, 0.000, 78.200, 0.000, 0.000, -0.400, 0.0, , , , , , 95, , , 29, 29, 29
38.4803519, -120.3385750, 1.100, 16:40:02.395, 10, 0.00, 0.30, 100, 0.700, 0.300, 77.400, 780, 100, 100, 28, 24673, -15503, 5320, 5320, 20, 14, 1530920402.395, 96, 0, 1024, 1024, 1024, 1024, 0, 6, 4091, 4120, 4115, 4099, 4103, 4123, 0, 1, 5600, -89.900, 0.000, 78.200, 0.000, 0.000, -0.400, 0.0, , , , , , 95, , , 29, 29, 29
38.4803519, -120.3385749, 1.100, 16:40:02.495, 12, 0.00, 0.30, 100, 0.600, 0.600, 77.200, 780, 100, 100, 28, 24673, -15503, 5320, 5320, 20, 14, 1530920402.495, 89, 0, 1024, 1024, 1024, 1024, 0, 6, 4091, 4120, 4115, 4099, 4103, 4123, 0, 1, 5700, -89.900, 0.000, 78.200, 0.000, 0.000, -0.600, 0.0, , , , , , 95, , , 29, 29, 29
38.4803519, -120.3385749, 1.200, 16:40:02.595, 12, 0.00, 0.30, 100, 0.600, 1.000, 77.000, 780, 100, 100, 28, 24673, -15503, 5320, 5320, 20, 14, 1530920402.595, 90, 0, 1024, 1024, 1024, 1024, 0, 6, 4091, 4120, 4115, 4099, 4103, 4123, 0, 1, 5800, -89.900, 0.000, 78.200, 0.000, 0.000, -0.800, 0.0, , , , , , 95, , , 29, 29, 29
38.4803519, -120.3385748, 1.300, 16:40:02.695, 12, 0.00, 0.31, 100, 0.800, 1.200, 76.900, 780, 100, 100, 28, 24673, -15503, 5320, 5320, 20, 14, 1530920402.695, 79, 0, 1024, 1024, 1024, 1024, 0, 6, 4091, 4120, 4115, 4099, 4103, 4123, 0, 1, 5900, -89.900, 0.000, 78.200, 0.000, 0.000, -0.900, 0.0, , , , , , 95, , , 29, 29, 29
38.4803520, -120.3385747, 1.400, 16:40:02.795, 12, 0.00, 0.32, 100, 0.900, 1.100, 77.000, 780, 100, 100, 28, 24673, -15503, 5320, 5320, 20, 14, 1530920402.796, 58, 0, 1024, 1024, 1024, 1024, 0, 6, 4091, 4120, 4115, 4099, 4103, 4123, 0, 1, 6001, -89.900, 0.000, 78.200, 0.000, 0.000, -1.100, 0.0, , , , , , 95, , , 29, 29, 29
38.4803521, -120.3385746, 1.500, 16:40:02.895, 11, 0.00, 0.33, 100, 1.000, 1.200, 77.100, 780, 100, 100, 28, 24673, -15503, 5320, 5320, 20, 14, 1530920402.895, 57, 0, 1024, 1024, 1024, 1024, 0, 6, 4091, 4120, 4115, 4099, 4103, 4123, 0, 1, 6100, -89.900, 0.000, 78.200, 0.000, 0.000, -1.300, 0.0, , , , , , 95, , , 29, 29, 29
38.4803522, -120.3385746, 1.700, 16:40:02.995, 11, 0.00, 0.35, 100, 1.400, 1.400, 77.300, 780, 100, 100, 28, 24673, -15503, 5320, 5320, 20, 14, 1530920402.995, 59, 0, 1024, 1024, 1024, 1024, 0, 6, 4091, 4120, 4115, 4099, 4103, 4123, 0, 1, 6200, -89.900, 0.000, 78.200, 0.000, 0.000, -1.600, 0.0, , , , , , 95, , , 29, 29, 29
38.4803524, -120.3385745, 1.800, 16:40:03.095, 11, 0.00, 0.37, 100, 1.700, 1.500, 77.500, 780, 100, 100, 28, 24673, -15503, 5320, 5320, 20, 14, 1530920403.095, 67, 0, 1024, 1024, 1024, 1024, 0, 6, 4091, 4120, 4115, 4099, 4103, 4123, 0, 1, 6300, -89.900, 0.000, 78.100, 0.000, 0.000, -1.800, 0.0, , , , , , 95, , , 29, 29, 29
38.4803525, -120.3385744, 2.000, 16:40:03.195, 11, 0.00, 0.38, 100, 2.100, 1.500, 77.600, 780, 100, 100, 28, 24568, -16249, 5213, 5320, 20, 14, 1530920403.195, 58, 0, 1024, 1024, 1024, 1024, 0, 6, 4073, 4099, 4105, 4087, 4124, 4101, 0, 1, 6400, -89.900, 0.000, 78.100, 0.000, 0.000, -2.000, 0.0, , , , , , 95, , , 29, 29, 29
38.4803528, -120.3385743, 2.300, 16:40:03.295, 11, 0.00, 0.41, 100, 2.400, 1.500, 77.600, 780, 100, 100, 28, 24568, -16249, 5213, 5320, 20, 14, 1530920403.295, 64, 0, 1024, 1024, 1024, 1024, 0, 6, 4073, 4099, 4105, 4087, 4124, 4101, 0, 1, 6500, -89.900, 0.000, 78.100, 0.000, 0.000, -2.300, 0.0, , , , , , 95, , , 29, 29, 29
38.4803531, -120.3385742, 2.500, 16:40:03.395, 11, 0.10, 0.44, 100, 2.800, 1.400, 77.700, 780, 100, 100, 28, 24568, -16249, 5213, 5320, 20, 14, 1530920403.395, 56, 0, 1024, 1024, 1024, 1024, 0, 6, 4073, 4099, 4105, 4087, 4124, 4101, 0, 1, 6600, -89.900, 0.000, 78.100, 0.100, 0.000, -2.400, 0.0, , , , , , 95, , , 29, 29, 29
38.4803534, -120.3385743, 2.700, 16:40:03.495, 11, 0.10, 0.47, 100, 3.200, 1.300, 77.600, 780, 100, 100, 28, 24568, -16249, 5213, 5320, 20, 14, 1530920403.495, 58, 0, 1024, 1024, 1024, 1024, 0, 6, 4073, 4099, 4105, 4087, 4124, 4101, 0, 1, 6700, -89.900, 0.000, 78.100, 0.100, 0.000, -2.700, 0.0, , , , , , 95, , , 29, 29, 29
38.4803538, -120.3385743, 3.000, 16:40:03.595, 11, 0.10, 0.51, 100, 3.700, 1.300, 77.600, 780, 100, 100, 28, 24568, -16249, 5213, 5320, 20, 14, 1530920403.595, 33, 0, 1024, 1024, 1024, 1024, 0, 6, 4073, 4099, 4105, 4087, 4124, 4101, 0, 1, 6800, -89.900, 0.000, 78.100, 0.100, 0.000, -2.900, 0.0, , , , , , 95, , , 29, 29, 29
38.4803542, -120.3385743, 3.300, 16:40:03.695, 11, 0.00, 0.54, 100, 4.000, 1.400, 77.500, 780, 100, 100, 28, 24568, -16249, 5213, 5320, 20, 14, 1530920403.695, 33, 0, 1024, 1024, 1024, 1024, 0, 6, 4073, 4099, 4105, 4087, 4124, 4101, 0, 1, 6900, -89.900, 0.000, 78.100, 0.000, 0.000, -3.000, 0.0, , , , , , 95, , , 29, 29, 29
38.4803545, -120.3385743, 3.600, 16:40:03.795, 11, 0.00, 0.57, 100, 4.300, 1.500, 77.400, 780, 100, 100, 28, 24568, -16249, 5213, 5320, 20, 14, 1530920403.795, 13, 0, 1024, 1024, 1024, 1024, 0, 6, 4073, 4099, 4105, 4087, 4124, 4101, 0, 1, 7000, -89.900, 0.000, 78.000, 0.000, 0.000, -3.100, 0.0, , , , , , 95, , , 29, 29, 29
38.4803549, -120.3385743, 4.000, 16:40:03.895, 12, 0.00, 0.61, 100, 4.500, 1.600, 77.300, 780, 100, 100, 28, 24568, -16249, 5213, 5320, 20, 14, 1530920403.895, 16, 0, 1024, 1024, 1024, 1024, 0, 6, 4073, 4099, 4105, 4087, 4124, 4101, 0, 1, 7100, -89.900, 0.000, 78.000, 0.000, 0.000, -3.200, 0.0, , , , , , 95, , , 29, 29, 29
38.4803552, -120.3385741, 4.300, 16:40:03.995, 12, 0.00, 0.65, 100, 4.700, 1.700, 77.200, 780, 100, 100, 28, 24568, -16249, 5213, 5320, 20, 14, 1530920403.995, 22, 0, 1024, 1024, 1024, 1024, 0, 6, 4073, 4099, 4105, 4087, 4124, 4101, 0, 1, 7200, -89.900, 0.000, 78.000, 0.000, 0.000, -3.200, 0.0, , , , , , 95, , , 29, 29, 29
38.4803555, -120.3385741, 4.600, 16:40:04.095, 11, 0.00, 0.68, 98, 4.800, 2.000, 77.100, 780, 100, 100, 28, 24303, -18808, 5213, 5320, 20, 14, 1530920404.096, 27, 0, 1024, 1024, 1024, 1024, 0, 6, 4029, 4048, 4031, 4019, 4026, 4041, 0, 1, 7301, -89.900, 0.000, 78.000, 0.000, 0.000, -3.300, 0.0, , , , , , 95, , , 29, 29, 29
38.4803557, -120.3385741, 4.900, 16:40:04.195, 11, 0.00, 0.71, 98, 4.600, 2.100, 77.100, 780, 100, 100, 28, 24303, -18808, 5213, 5320, 20, 14, 1530920404.195, 7, 0, 1024, 1024, 1024, 1024, 0, 6, 4029, 4048, 4031, 4019, 4026, 4041, 0, 1, 7400, -89.900, 0.000, 78.000, 0.000, 0.000, -3.200, 0.0, , , , , , 95, , , 29, 29, 29
38.4803558, -120.3385744, 5.600, 16:40:04.295, 12, 0.10, 0.71, 98, 4.000, 1.500, 77.000, 780, 100, 100, 28, 24303, -18808, 5213, 5320, 20, 14, 1530920404.295, 6, 0, 1024, 1024, 1024, 1024, 0, 6, 4029, 4048, 4031, 4019, 4026, 4041, 0, 1, 7500, -89.900, 0.000, 78.000, -0.100, 0.000, -3.200, 0.0, , , , , , 95, , , 29, 29, 29
38.4803558, -120.3385744, 5.600, 16:40:04.395, 12, 0.10, 0.71, 98, 4.000, 1.500, 77.000, 780, 100, 100, 28, 24303, -18808, 5213, 5320, 20, 14, 1530920404.395, 106, 0, 1024, 1024, 1024, 1024, 0, 6, 4029, 4048, 4031, 4019, 4026, 4041, 0, 1, 7600, -89.900, 0.000, 78.000, -0.100, 0.000, -3.200, 0.0, , , , , , 95, , , 29, 29, 29
38.4803556, -120.3385745, 5.900, 16:40:04.495, 12, 0.10, 0.68, 98, 3.700, 1.000, 77.000, 780, 100, 100, 28, 24303, -18808, 5213, 5320, 20, 14, 1530920404.495, 84, 0, 1024, 1024, 1024, 1024, 0, 6, 4029, 4048, 4031, 4019, 4026, 4041, 0, 1, 7700, -89.900, 0.000, 78.000, -0.100, 0.000, -3.300, 0.0, , , , , , 95, , , 29, 29, 29
38.4803550, -120.3385746, 6.600, 16:40:04.594, 12, 0.20, 0.61, 98, 2.100, 0.500, 76.900, 780, 100, 100, 28, 24303, -18808, 5213, 5320, 20, 14, 1530920404.594, 4, 0, 1024, 1024, 1024, 1024, 0, 6, 4029, 4048, 4031, 4019, 4026, 4041, 0, 1, 7800, -90.000, 0.000, 78.000, -0.200, 0.000, -3.300, 0.0, , , , , , 95, , , 29, 29, 29
38.4803550, -120.3385746, 6.600, 16:40:04.695, 12, 0.20, 0.61, 98, 2.100, 0.500, 76.900, 780, 100, 100, 28, 24303, -18808, 5213, 5320, 20, 14, 1530920404.695, 105, 0, 1024, 1024, 1024, 1024, 0, 6, 4029, 4048, 4031, 4019, 4026, 4041, 0, 1, 7900, -90.000, 0.000, 78.000, -0.200, 0.000, -3.300, 0.0, , , , , , 95, , , 29, 29, 29
38.4803545, -120.3385747, 6.900, 16:40:04.795, 12, 0.20, 0.57, 98, 1.100, 0.300, 76.900, 780, 100, 100, 28, 24303, -18808, 5213, 5320, 20, 14, 1530920404.795, 74, 0, 1024, 1024, 1024, 1024, 0, 6, 4029, 4048, 4031, 4019, 4026, 4041, 0, 1, 8000, -90.000, 0.000, 78.000, -0.200, 0.000, -3.300, 0.1, , , , , , 95, , , 29, 29, 29
38.4803542, -120.3385748, 7.300, 16:40:04.895, 12, 0.20, 0.53, 98, 0.300, 0.200, 76.900, 780, 100, 100, 28, 24303, -18808, 5213, 5320, 20, 14, 1530920404.896, 88, 0, 1024, 1024, 1024, 1024, 0, 6, 4029, 4048, 4031, 4019, 4026, 4041, 0, 1, 8101, -90.000, 0.000, 78.000, -0.200, 0.000, -3.200, 0.1, , , , , , 95, , , 29, 29, 29
38.4803538, -120.3385748, 7.600, 16:40:04.995, 12, 0.20, 0.49, 98, 0.000, 0.200, 76.900, 780, 100, 100, 28, 24303, -18808, 5213, 5320, 20, 14, 1530920404.995, 92, 0, 1024, 1024, 1024, 1024, 0, 6, 4029, 4048, 4031, 4019, 4026, 4041, 0, 1, 8200, -90.000, 0.000, 78.000, -0.200, 0.000, -3.200, 0.1, , , , , , 95, , , 29, 29, 29
38.4803534, -120.3385749, 7.900, 16:40:05.094, 13, 0.20, 0.44, 98, -0.100, 0.100, 77.000, 780, 100, 100, 28, 24303, -18808, 5213, 5320, 20, 14, 1530920405.094, 90, 0, 1024, 1024, 1024, 1024, 0, 6, 4029, 4048, 4031, 4019, 4026, 4041, 0, 1, 8299, -90.000, 0.000, 78.000, -0.200, 0.000, -3.200, 0.1, , , , , , 95, , , 29, 29, 29
38.4803530, -120.3385751, 8.200, 16:40:05.195, 13, 0.20, 0.39, 98, -0.500, -0.200, 77.100, 780, 100, 100, 28, 24008, -18629, 5213, 5320, 20, 14, 1530920405.195, 84, 0, 1024, 1024, 1024, 1024, 0, 6, 4012, 4047, 4012, 3997, 4035, 4034, 0, 1, 8400, -90.000, 0.000, 78.000, -0.200, 0.000, -3.200, 0.1, , , , , , 95, , , 29, 29, 29
38.4803526, -120.3385751, 8.500, 16:40:05.295, 14, 0.20, 0.35, 98, -1.000, -0.500, 77.100, 780, 100, 100, 28, 24008, -18629, 5213, 5320, 20, 14, 1530920405.295, 75, 0, 1024, 1024, 1024, 1024, 0, 6, 4012, 4047, 4012, 3997, 4035, 4034, 0, 1, 8500, -89.900, 0.000, 78.000, -0.200, 0.000, -3.100, 0.1, , , , , , 95, , , 29, 29, 29
38.4803522, -120.3385751, 8.900, 16:40:05.395, 14, 0.20, 0.32, 98, -1.100, -0.400, 77.200, 780, 100, 100, 28, 24008, -18629, 5213, 5320, 20, 14, 1530920405.395, 56, 0, 1024, 1024, 1024, 1024, 0, 6, 4012, 4047, 4012, 3997, 4035, 4034, 0, 1, 8600, -90.000, 0.000, 78.000, -0.200, 0.000, -3.200, 0.1, , , , , , 95, , , 29, 29, 29
38.4803519, -120.3385752, 9.200, 16:40:05.495, 12, 0.10, 0.28, 98, -1.000, -0.200, 77.200, 780, 100, 100, 28, 24008, -18629, 5213, 5320, 20, 14, 1530920405.495, 72, 0, 1024, 1024, 1024, 1024, 0, 6, 4012, 4047, 4012, 3997, 4035, 4034, 0, 1, 8700, -89.900, 0.000, 78.000, -0.100, 0.000, -3.200, 0.0, , , , , , 95, , , 29, 29, 29
38.4803515, -120.3385752, 9.500, 16:40:05.595, 12, 0.10, 0.25, 98, -1.200, -0.100, 77.100, 780, 100, 100, 28, 24008, -18629, 5213, 5320, 20, 14, 1530920405.595, 55, 0, 1024, 1024, 1024, 1024, 0, 6, 4012, 4047, 4012, 3997, 4035, 4034, 0, 1, 8800, -89.900, 0.000, 78.000, -0.100, 0.000, -3.200, 0.0, , , , , , 95, , , 29, 29, 29
38.4803512, -120.3385753, 9.900, 16:40:05.695, 13, 0.10, 0.22, 98, -1.200, 0.000, 77.100, 780, 100, 100, 28, 24008, -18629, 5213, 5320, 20, 14, 1530920405.695, 45, 0, 1024, 1024, 1024, 1024, 0, 6, 4012, 4047, 4012, 3997, 4035, 4034, 0, 1, 8900, -89.900, 0.000, 78.000, -0.100, 0.000, -3.100, 0.0, , , , , , 95, , , 29, 29, 29
38.4803508, -120.3385754, 10.200, 16:40:05.795, 13, 0.10, 0.19, 98, -1.400, 0.000, 77.100, 780, 100, 97, 28, 24008, -18629, 5213, 5320, 20, 14, 1530920405.795, 26, 0, 1024, 1024, 1024, 1024, 0, 6, 4012, 4047, 4012, 3997, 4035, 4034, 0, 1, 9000, -89.900, 0.000, 78.000, -0.100, 0.000, -3.100, 0.0, , , , , , 95, , , 29, 29, 29
38.4803505, -120.3385753, 10.500, 16:40:05.894, 13, 0.10, 0.17, 98, -1.600, -0.100, 77.000, 780, 100, 97, 28, 24008, -18629, 5213, 5320, 20, 14, 1530920405.895, 49, 0, 1024, 1024, 1024, 1024, 0, 6, 4012, 4047, 4012, 3997, 4035, 4034, 0, 1, 9100, -89.900, 0.000, 78.000, -0.100, 0.000, -3.100, 0.0, , , , , , 95, , , 29, 29, 29
38.4803502, -120.3385753, 10.800, 16:40:05.995, 13, 0.00, 0.16, 98, -1.700, -0.100, 77.000, 780, 100, 97, 28, 24008, -18629, 5213, 5320, 20, 14, 1530920405.995, 38, 0, 1024, 1024, 1024, 1024, 0, 6, 4012, 4047, 4012, 3997, 4035, 4034, 0, 1, 9200, -90.000, 0.000, 78.000, 0.000, 0.000, -3.100, 0.0, , , , , , 95, , , 29, 29, 29
38.4803500, -120.3385753, 11.200, 16:40:06.095, 13, 0.00, 0.16, 98, -1.600, -0.200, 76.900, 780, 100, 97, 28, 24264, -18116, 5213, 5320, 20, 14, 1530920406.095, 38, 0, 1024, 1024, 1024, 1024, 0, 6, 4012, 4047, 4012, 3997, 4035, 4034, 0, 1, 9300, -89.900, 0.000, 78.000, 0.000, 0.000, -3.100, 0.0, , , , , , 95, , , 29, 29, 29
38.4803498, -120.3385753, 11.500, 16:40:06.195, 13, 0.00, 0.16, 98, -1.400, -0.200, 76.800, 780, 100, 97, 28, 24264, -18116, 5213, 5320, 20, 14, 1530920406.195, 42, 0, 1024, 1024, 1024, 1024, 0, 6, 4012, 4047, 4012, 3997, 4035, 4034, 0, 1, 9400, -89.900, 0.000, 78.000, 0.000, 0.000, -3.100, 0.0, , , , , , 95, , , 29, 29, 29
38.4803496, -120.3385753, 11.800, 16:40:06.295, 14, 0.00, 0.16, 98, -1.300, -0.200, 76.800, 780, 100, 97, 28, 24264, -18116, 5213, 5320, 20, 14, 1530920406.295, 43, 0, 1024, 1024, 1024, 1024, 0, 6, 4012, 4047, 4012, 3997, 4035, 4034, 0, 1, 9500, -89.900, 0.000, 78.000, 0.000, 0.000, -3.100, 0.0, , , , , , 95, , , 29, 29, 29
38.4803494, -120.3385753, 12.100, 16:40:06.395, 14, 0.00, 0.17, 98, -1.300, -0.200, 76.800, 780, 100, 97, 28, 24264, -18116, 5213, 5320, 20, 14, 1530920406.395, 34, 0, 1024, 1024, 1024, 1024, 0, 6, 4012, 4047, 4012, 3997, 4035, 4034, 0, 1, 9600, -89.900, 0.000, 78.000, 0.000, 0.000, -3.000, 0.0, , , , , , 95, , , 29, 29, 29
38.4803491, -120.3385751, 12.800, 16:40:06.495, 14, 0.00, 0.20, 98, -1.100, 0.000, 76.900, 780, 100, 97, 28, 24264, -18116, 5213, 5320, 20, 14, 1530920406.495, 22, 0, 1024, 1024, 1024, 1024, 0, 6, 4012, 4047, 4012, 3997, 4035, 4034, 0, 1, 9700, -89.900, 0.000, 78.000, 0.000, 0.000, -3.000, 0.0, , , , , , 95, , , 29, 29, 29
38.4803489, -120.3385750, 13.100, 16:40:06.595, 13, 0.00, 0.21, 98, -1.100, 0.200, 77.000, 780, 100, 97, 28, 24264, -18116, 5213, 5320, 20, 14, 1530920406.595, 3, 0, 1024, 1024, 1024, 1024, 0, 6, 4018, 4046, 4052, 4035, 4041, 4056, 0, 1, 9800, -89.900, 0.000, 78.000, 0.000, 0.000, -3.000, 0.0, , , , , , 95, , , 29, 29, 29
38.4803487, -120.3385749, 13.400, 16:40:06.695, 13, 0.00, 0.23, 98, -1.200, 0.200, 77.100, 780, 100, 97, 28, 24264, -18116, 5213, 5320, 20, 14, 1530920406.695, 6, 0, 1024, 1024, 1024, 1024, 0, 6, 4018, 4046, 4052, 4035, 4041, 4056, 0, 1, 9900, -89.900, 0.000, 78.000, 0.000, 0.000, -3.000, 0.0, , , , , , 95, , , 29, 29, 29
38.4803487, -120.3385749, 13.400, 16:40:06.795, 13, 0.00, 0.23, 98, -1.200, 0.200, 77.100, 780, 100, 97, 28, 24264, -18116, 5213, 5320, 20, 14, 1530920406.795, 106, 0, 1024, 1024, 1024, 1024, 0, 6, 4018, 4046, 4052, 4035, 4041, 4056, 0, 1, 10000, -89.900, 0.000, 78.000, 0.000, 0.000, -3.000, 0.0, , , , , , 95, , , 29, 29, 29
38.4803487, -120.3385749, 14.000, 16:40:06.895, 16, 0.10, 0.23, 98, -1.200, 0.200, 77.000, 780, 100, 97, 28, 24264, -18116, 5213, 5320, 20, 14, 1530920406.895, 8, 0, 1024, 1024, 1024, 1024, 0, 6, 4018, 4046, 4052, 4035, 4041, 4056, 0, 1, 10100, -89.900, 0.000, 78.000, 0.100, 0.000, -3.000, 0.0, , , , , , 95, , , 29, 29, 29
38.4803487, -120.3385749, 14.300, 16:40:06.995, 15, 0.10, 0.23, 98, -0.900, 0.300, 76.900, 780, 100, 97, 28, 24264, -18116, 5213, 5320, 20, 14, 1530920406.995, 13, 0, 1024, 1024, 1024, 1024, 0, 6, 4018, 4046, 4052, 4035, 4041, 4056, 0, 1, 10200, -89.900, 0.000, 78.000, 0.100, 0.000, -2.900, 0.0, , , , , , 95, , , 29, 29, 29
38.4803488, -120.3385749, 14.600, 16:40:07.098, 15, 0.10, 0.22, 98, -0.400, 0.400, 76.900, 780, 100, 97, 28, 24264, -18116, 5213, 5320, 20, 14, 1530920407.098, 1, 0, 1024, 1024, 1024, 1024, 0, 6, 4018, 4046, 4052, 4035, 4041, 4056, 0, 1, 10303, -89.900, 0.000, 78.000, 0.100, 0.000, -2.900, 0.0, , , , , , 95, , , 29, 29, 29
38.4803488, -120.3385749, 14.600, 16:40:07.195, 15, 0.10, 0.22, 98, -0.400, 0.400, 76.900, 780, 100, 97, 28, 24264, -18116, 5213, 5320, 20, 14, 1530920407.195, 98, 0, 1024, 1024, 1024, 1024, 0, 6, 4018, 4046, 4052, 4035, 4041, 4056, 0, 1, 10400, -89.900, 0.000, 78.000, 0.100, 0.000, -2.900, 0.0, , , , , , 95, , , 29, 29, 29
38.4803490, -120.3385749, 14.900, 16:40:07.295, 15, 0.20, 0.22, 98, 0.000, 0.500, 76.900, 780, 100, 95, 28, 24264, -18116, 5213, 5320, 20, 14, 1530920407.295, 88, 0, 1024, 1024, 1024, 1024, 0, 6, 4018, 4046, 4052, 4035, 4041, 4056, 0, 1, 10500, -89.900, 0.000, 78.000, 0.200, 0.000, -2.900, 0.1, , , , , , 95, , , 29, 29, 29
38.4803491, -120.3385749, 15.200, 16:40:07.395, 15, 0.20, 0.21, 98, 0.500, 0.600, 76.900, 780, 100, 95, 28, 24264, -18116, 5213, 5320, 20, 14, 1530920407.395, 75, 0, 1024, 1024, 1024, 1024, 0, 6, 4018, 4046, 4052, 4035, 4041, 4056, 0, 1, 10600, -89.900, 0.000, 78.000, 0.200, 0.000, -2.900, 0.1, , , , , , 95, , , 29, 29, 29
38.4803493, -120.3385747, 15.500, 16:40:07.495, 16, 0.20, 0.22, 98, 1.000, 0.800, 76.900, 780, 100, 95, 28, 24264, -18116, 5213, 5320, 20, 14, 1530920407.495, 77, 0, 1024, 1024, 1024, 1024, 0, 6, 4018, 4046, 4052, 4035, 4041, 4056, 0, 1, 10700, -89.900, 0.000, 78.000, 0.200, 0.000, -2.900, 0.1, , , , , , 95, , , 29, 29, 29
38.4803494, -120.3385744, 15.800, 16:40:07.595, 16, 0.20, 0.24, 98, 1.100, 1.300, 77.000, 780, 100, 95, 28, 24264, -18116, 5213, 5320, 20, 14, 1530920407.595, 67, 0, 1024, 1024, 1024, 1024, 0, 6, 4018, 4046, 4052, 4035, 4041, 4056, 0, 1, 10800, -89.900, 0.000, 78.000, 0.200, 0.000, -2.900, 0.1, , , , , , 95, , , 29, 29, 29
38.4803495, -120.3385743, 16.100, 16:40:07.695, 14, 0.20, 0.25, 98, 1.300, 1.800, 77.100, 780, 100, 95, 28, 24251, -17644, 5213, 5320, 20, 14, 1530920407.695, 67, 0, 1024, 1024, 1024, 1024, 0, 6, 4016, 4049, 4051, 4041, 4042, 4056, 0, 1, 10900, -89.900, 0.000, 78.000, 0.200, 0.000, -2.900, 0.1, , , , , , 95, , , 29, 29, 29
38.4803496, -120.3385742, 16.400, 16:40:07.795, 14, 0.20, 0.26, 98, 1.300, 2.000, 77.100, 780, 100, 95, 28, 24251, -17644, 5213, 5320, 20, 14, 1530920407.795, 49, 0, 1024, 1024, 1024, 1024, 0, 6, 4016, 4049, 4051, 4041, 4042, 4056, 0, 1, 11000, -89.900, 0.000, 78.000, 0.200, 0.000, -3.000, 0.1, , , , , , 95, , , 29, 29, 29
38.4803498, -120.3385742, 16.700, 16:40:07.895, 15, 0.10, 0.26, 98, 1.100, 2.000, 77.200, 780, 100, 95, 28, 24251, -17644, 5213, 5320, 20, 14, 1530920407.895, 61, 0, 1024, 1024, 1024, 1024, 0, 6, 4016, 4049, 4051, 4041, 4042, 4056, 0, 1, 11100, -89.900, 0.000, 78.000, 0.100, 0.000, -3.000, 0.0, , , , , , 95, , , 29, 29, 29
38.4803499, -120.3385742, 17.100, 16:40:07.995, 15, 0.10, 0.26, 98, 0.900, 1.700, 77.200, 780, 100, 95, 28, 24251, -17644, 5213, 5320, 20, 14, 1530920407.995, 73, 0, 1024, 1024, 1024, 1024, 0, 6, 4016, 4049, 4051, 4041, 4042, 4056, 0, 1, 11200, -89.900, 0.000, 78.000, 0.100, 0.000, -2.900, 0.0, , , , , , 95, , , 29, 29, 29
38.4803501, -120.3385742, 17.400, 16:40:08.094, 16, 0.10, 0.25, 98, 0.900, 1.400, 77.200, 780, 100, 95, 28, 24251, -17644, 5213, 5320, 20, 14, 1530920408.095, 44, 0, 1024, 1024, 1024, 1024, 0, 6, 4016, 4049, 4051, 4041, 4042, 4056, 0, 1, 11300, -89.900, 0.000, 78.000, 0.100, 0.000, -2.900, 0.0, , , , , , 95, , , 29, 29, 29
38.4803502, -120.3385743, 17.700, 16:40:08.195, 16, 0.10, 0.25, 98, 0.800, 1.100, 77.200, 780, 100, 95, 28, 24251, -17644, 5213, 5320, 20, 14, 1530920408.195, 37, 0, 1024, 1024, 1024, 1024, 0, 6, 4016, 4049, 4051, 4041, 4042, 4056, 0, 1, 11400, -89.900, 0.000, 78.000, 0.100, 0.000, -2.900, 0.0, , , , , , 95, , , 29, 29, 29
38.4803503, -120.3385743, 18.000, 16:40:08.295, 16, 0.10, 0.25, 98, 0.900, 0.900, 77.200, 780, 100, 96, 28, 24251, -17644, 5213, 5320, 20, 14, 1530920408.295, 44, 0, 1024, 1024, 1024, 1024, 0, 6, 4016, 4049, 4051, 4041, 4042, 4056, 0, 1, 11500, -89.900, 0.000, 78.000, 0.100, 0.000, -2.900, 0.0, , , , , , 95, , , 29, 29, 29
38.4803505, -120.3385743, 18.300, 16:40:08.395, 16, 0.10, 0.26, 98, 0.900, 0.900, 77.100, 780, 100, 96, 28, 24251, -17644, 5213, 5320, 20, 14, 1530920408.395, 45, 0, 1024, 1024, 1024, 1024, 0, 6, 4016, 4049, 4051, 4041, 4042, 4056, 0, 1, 11600, -89.900, 0.000, 78.000, 0.100, 0.000, -2.900, 0.0, , , , , , 95, , , 29, 29, 29
38.4803507, -120.3385743, 18.600, 16:40:08.495, 16, 0.10, 0.26, 98, 1.200, 0.900, 77.000, 780, 100, 96, 28, 24251, -17644, 5213, 5320, 20, 14, 1530920408.495, 37, 0, 1024, 1024, 1024, 1024, 0, 6, 4016, 4049, 4051, 4041, 4042, 4056, 0, 1, 11700, -90.000, 0.000, 78.000, 0.100, 0.000, -2.900, 0.0, , , , , , 95, , , 29, 29, 29
38.4803509, -120.3385744, 18.900, 16:40:08.595, 16, 0.10, 0.27, 98, 1.500, 0.900, 77.000, 780, 100, 96, 28, 24251, -17644, 5213, 5320, 20, 14, 1530920408.595, 31, 0, 1024, 1024, 1024, 1024, 0, 6, 4016, 4049, 4051, 4041, 4042, 4056, 0, 1, 11800, -89.900, 0.000, 78.000, 0.100, 0.000, -2.800, 0.0, , , , , , 95, , , 29, 29, 29
38.4803511, -120.3385743, 19.200, 16:40:08.695, 15, 0.10, 0.28, 98, 1.600, 1.100, 77.000, 780, 100, 97, 28, 24183, -18181, 5213, 5320, 20, 14, 1530920408.695, 33, 0, 1024, 1024, 1024, 1024, 0, 6, 4005, 4039, 4046, 4024, 4034, 4054, 0, 1, 11900, -89.900, 0.000, 78.000, 0.100, 0.000, -2.800, 0.0, , , , , , 95, , , 29, 29, 29
38.4803513, -120.3385742, 19.500, 16:40:08.795, 15, 0.10, 0.30, 98, 1.800, 1.400, 77.100, 780, 100, 97, 28, 24183, -18181, 5213, 5320, 20, 14, 1530920408.795, 2, 0, 1024, 1024, 1024, 1024, 0, 6, 4005, 4039, 4046, 4024, 4034, 4054, 0, 1, 12000, -89.900, 0.000, 78.000, 0.100, 0.000, -2.800, 0.0, , , , , , 95, , , 29, 29, 29
38.4803515, -120.3385743, 19.700, 16:40:08.895, 16, 0.10, 0.31, 98, 2.000, 1.500, 77.100, 780, 100, 97, 28, 24183, -18181, 5213, 5320, 20, 14, 1530920408.895, 14, 0, 1024, 1024, 1024, 1024, 0, 6, 4005, 4039, 4046, 4024, 4034, 4054, 0, 1, 12100, -89.900, 0.000, 78.000, 0.100, 0.000, -2.800, 0.0, , , , , , 95, , , 29, 29, 29
38.4803517, -120.3385744, 20.000, 16:40:08.995, 16, 0.10, 0.32, 98, 2.200, 1.500, 77.200, 780, 100, 97, 28, 24183, -18181, 5213, 5320, 20, 14, 1530920408.995, 10, 0, 1024, 1024, 1024, 1024, 0, 6, 4005, 4039, 4046, 4024, 4034, 4054, 0, 1, 12200, -89.900, 0.000, 78.000, 0.100, 0.000, -2.800, 0.0, , , , , , 95, , , 29, 29, 29
38.4803517, -120.3385744, 20.000, 16:40:09.095, 16, 0.10, 0.32, 98, 2.200, 1.500, 77.200, 780, 100, 97, 28, 24183, -18181, 5213, 5320, 20, 14, 1530920409.095, 110, 0, 1024, 1024, 1024, 1024, 0, 6, 4005, 4039, 4046, 4024, 4034, 4054, 0, 1, 12300, -89.900, 0.000, 78.000, 0.100, 0.000, -2.800, 0.0, , , , , , 95, , , 29, 29, 29
38.4803520, -120.3385744, 20.600, 16:40:09.195, 17, 0.00, 0.34, 98, 2.200, 1.100, 77.300, 780, 100, 97, 28, 24183, -18181, 5213, 5320, 20, 14, 1530920409.195, 72, 0, 1024, 1024, 1024, 1024, 0, 6, 4005, 4039, 4046, 4024, 4034, 4054, 0, 1, 12400, -89.900, 0.000, 78.000, 0.000, 0.000, -2.900, 0.0, , , , , , 95, , , 29, 29, 29
38.4803522, -120.3385745, 20.900, 16:40:09.295, 17, 0.00, 0.35, 98, 2.000, 0.800, 77.300, 780, 100, 99, 28, 24183, -18181, 5213, 5320, 20, 14, 1530920409.295, 91, 0, 1024, 1024, 1024, 1024, 0, 6, 4005, 4039, 4046, 4024, 4034, 4054, 0, 1, 12500, -89.900, 0.000, 78.000, 0.000, 0.000, -2.900, 0.0, , , , , , 95, , , 29, 29, 29
38.4803524, -120.3385745, 21.200, 16:40:09.395, 17, 0.00, 0.37, 98, 1.900, 0.600, 77.300, 780, 100, 99, 28, 24183, -18181, 5213, 5320, 20, 14, 1530920409.395, 94, 0, 1024, 1024, 1024, 1024, 0, 6, 4005, 4039, 4046, 4024, 4034, 4054, 0, 1, 12600, -90.000, 0.000, 78.000, 0.000, 0.000, -2.900, 0.0, , , , , , 95, , , 29, 29, 29
38.4803525, -120.3385746, 21.500, 16:40:09.495, 16, 0.00, 0.38, 98, 1.900, 0.500, 77.300, 780, 100, 99, 28, 24183, -18181, 5213, 5320, 20, 14, 1530920409.495, 89, 0, 1024, 1024, 1024, 1024, 0, 6, 4005, 4039, 4046, 4024, 4034, 4054, 0, 1, 12700, -90.000, 0.000, 78.000, 0.000, 0.000, -2.900, 0.0, , , , , , 95, , , 29, 29, 29
38.4803527, -120.3385746, 21.800, 16:40:09.595, 16, 0.00, 0.39, 98, 1.600, 0.500, 77.300, 780, 100, 99, 28, 24183, -18181, 5213, 5320, 20, 14, 1530920409.595, 94, 0, 1024, 1024, 1024, 1024, 0, 6, 4005, 4039, 4046, 4024, 4034, 4054, 0, 1, 12800, -90.000, 0.000, 78.000, 0.000, 0.000, -2.900, 0.0, , , , , , 95, , , 29, 29, 29
38.4803528, -120.3385746, 22.100, 16:40:09.695, 16, 0.00, 0.40, 98, 1.400, 0.500, 77.300, 780, 100, 99, 28, 24179, -18441, 5213, 5320, 20, 14, 1530920409.695, 71, 0, 1024, 1024, 1024, 1024, 0, 6, 4006, 4033, 4023, 4024, 4024, 4036, 0, 1, 12900, -90.000, 0.000, 78.000, 0.000, 0.000, -2.900, 0.0, , , , , , 95, , , 29, 29, 29
38.4803529, -120.3385746, 22.400, 16:40:09.795, 16, 0.00, 0.41, 98, 1.400, 0.500, 77.300, 780, 100, 99, 28, 24179, -18441, 5213, 5320, 20, 14, 1530920409.795, 79, 0, 1024, 1024, 1024, 1024, 0, 6, 4006, 4033, 4023, 4024, 4024, 4036, 0, 1, 13000, -90.000, 0.000, 78.000, 0.000, 0.000, -2.900, 0.0, , , , , , 95, , , 29, 29, 29
38.4803530, -120.3385747, 22.700, 16:40:09.895, 15, 0.00, 0.42, 98, 1.400, 0.500, 77.200, 780, 100, 99, 28, 24179, -18441, 5213, 5320, 20, 14, 1530920409.895, 64, 0, 1024, 1024, 1024, 1024, 0, 6, 4006, 4033, 4023, 4024, 4024, 4036, 0, 1, 13100, -89.900, 0.000, 78.000, 0.000, 0.000, -2.900, 0.0, , , , , , 95, , , 29, 29, 29
38.4803530, -120.3385747, 22.700, 16:40:09.995, 15, 0.00, 0.42, 98, 1.400, 0.500, 77.200, 780, 100, 99, 28, 24179, -18441, 5213, 5320, 20, 14, 1530920409.995, 164, 0, 1024, 1024, 1024, 1024, 0, 6, 4006, 4033, 4023, 4024, 4024, 4036, 0, 1, 13200, -89.900, 0.000, 78.000, 0.000, 0.000, -2.900, 0.0, , , , , , 95, , , 29, 29, 29
38.4803533, -120.3385748, 23.300, 16:40:10.095, 14, 0.00, 0.44, 98, 2.000, 0.700, 76.900, 780, 100, 99, 28, 24179, -18441, 5213, 5320, 20, 14, 1530920410.095, 39, 0, 1024, 1024, 1024, 1024, 0, 6, 4006, 4033, 4023, 4024, 4024, 4036, 0, 1, 13300, -89.900, 0.000, 78.000, 0.000, 0.000, -2.800, 0.0, , , , , , 95, , , 29, 29, 29
38.4803534, -120.3385748, 23.500, 16:40:10.195, 14, 0.00, 0.45, 98, 2.400, 0.700, 76.800, 780, 100, 99, 28, 24179, -18441, 5213, 5320, 20, 14, 1530920410.195, 47, 0, 1024, 1024, 1024, 1024, 0, 6, 4006, 4033, 4023, 4024, 4024, 4036, 0, 1, 13400, -89.900, 0.000, 78.000, 0.000, 0.000, -2.900, 0.0, , , , , , 95, , , 29, 29, 29
38.4803536, -120.3385748, 23.900, 16:40:10.295, 15, 0.00, 0.46, 98, 2.700, 0.800, 76.700, 780, 100, 99, 28, 24179, -18441, 5213, 5320, 20, 14, 1530920410.295, 51, 0, 1024, 1024, 1024, 1024, 0, 6, 4006, 4033, 4023, 4024, 4024, 4036, 0, 1, 13500, -89.900, 0.000, 78.000, 0.000, 0.000, -3.000, 0.0, , , , , , 95, , , 29, 29, 29
38.4803537, -120.3385748, 24.200, 16:40:10.395, 15, 0.00, 0.48, 98, 2.900, 0.900, 76.600, 780, 100, 99, 28, 24179, -18441, 5213, 5320, 20, 14, 1530920410.395, 43, 0, 1024, 1024, 1024, 1024, 0, 6, 4006, 4033, 4023, 4024, 4024, 4036, 0, 1, 13600, -89.900, 0.000, 78.000, 0.000, 0.000, -3.000, 0.0, , , , , , 95, , , 29, 29, 29
38.4803538, -120.3385748, 24.500, 16:40:10.495, 15, 0.00, 0.48, 98, 2.900, 1.000, 76.600, 780, 100, 99, 28, 24179, -18441, 5213, 5320, 20, 14, 1530920410.495, 34, 0, 1024, 1024, 1024, 1024, 0, 6, 4006, 4033, 4023, 4024, 4024, 4036, 0, 1, 13700, -89.900, 0.000, 78.000, 0.000, 0.000, -3.000, 0.0, , , , , , 95, , , 29, 29, 29
38.4803538, -120.3385747, 24.800, 16:40:10.595, 15, 0.00, 0.49, 98, 2.700, 1.100, 76.700, 780, 100, 99, 28, 24179, -18441, 5213, 5320, 20, 14, 1530920410.595, 50, 0, 1024, 1024, 1024, 1024, 0, 6, 4006, 4033, 4023, 4024, 4024, 4036, 0, 1, 13800, -89.900, 0.000, 78.000, 0.000, 0.000, -2.900, 0.0, , , , , , 95, , , 29, 29, 29
38.4803538, -120.3385747, 25.100, 16:40:10.695, 16, 0.00, 0.50, 98, 2.300, 1.200, 76.700, 780, 100, 99, 28, 24142, -18565, 5213, 5320, 20, 14, 1530920410.695, 34, 0, 1024, 1024, 1024, 1024, 0, 6, 3994, 4019, 4032, 4024, 4017, 4038, 0, 1, 13900, -89.900, 0.000, 78.000, 0.000, 0.000, -3.000, 0.0, , , , , , 95, , , 29, 29, 29
38.4803539, -120.3385746, 25.400, 16:40:10.795, 16, 0.00, 0.50, 98, 2.200, 1.300, 76.800, 780, 100, 98, 28, 24142, -18565, 5213, 5320, 20, 14, 1530920410.795, 33, 0, 1024, 1024, 1024, 1024, 0, 6, 3994, 4019, 4032, 4024, 4017, 4038, 0, 1, 14000, -89.900, 0.000, 78.000, 0.000, 0.000, -3.000, 0.0, , , , , , 95, , , 29, 29, 29
38.4803538, -120.3385747, 25.700, 16:40:10.897, 16, 0.00, 0.50, 98, 2.100, 1.300, 76.900, 780, 100, 98, 28, 24142, -18565, 5213, 5320, 20, 14, 1530920410.897, 2, 0, 1024, 1024, 1024, 1024, 0, 6, 3994, 4019, 4032, 4024, 4017, 4038, 0, 1, 14102, -89.900, 0.000, 78.000, 0.000, 0.000, -3.000, 0.0, , , , , , 95, , , 29, 29, 29
38.4803538, -120.3385747, 26.000, 16:40:10.995, 16, 0.10, 0.49, 98, 1.800, 1.000, 77.000, 780, 100, 98, 28, 24142, -18565, 5213, 5320, 20, 14, 1530920410.995, 14, 0, 1024, 1024, 1024, 1024, 0, 6, 3994, 4019, 4032, 4024, 4017, 4038, 0, 1, 14200, -89.900, 0.000, 78.000, -0.100, 0.000, -2.900, 0.0, , , , , , 95, , , 29, 29, 29
38.4803538, -120.3385747, 26.300, 16:40:11.095, 16, 0.10, 0.49, 98, 1.600, 0.800, 77.100, 780, 100, 98, 28, 24142, -18565, 5213, 5320, 20, 14, 1530920411.095, 29, 0, 1024, 1024, 1024, 1024, 0, 6, 3994, 4019, 4032, 4024, 4017, 4038, 0, 1, 14300, -89.900, 0.000, 78.000, -0.100, 0.000, -2.900, 0.0, , , , , , 95, , , 29, 29, 29
38.4803537, -120.3385747, 26.800, 16:40:11.195, 16, 0.10, 0.48, 98, 0.900, 0.800, 77.300, 780, 100, 98, 28, 24142, -18565, 5213, 5320, 20, 14, 1530920411.195, 17, 0, 1024, 1024, 1024, 1024, 0, 6, 3994, 4019, 4032, 4024, 4017, 4038, 0, 1, 14400, -89.900, 0.000, 78.000, -0.100, 0.000, -2.900, 0.0, , , , , , 95, , , 29, 29, 29
38.4803537, -120.3385747, 26.800, 16:40:11.295, 16, 0.10, 0.48, 98, 0.900, 0.800, 77.300, 780, 100, 98, 28, 24142, -18565, 5213, 5320, 20, 14, 1530920411.295, 117, 0, 1024, 1024, 1024, 1024, 0, 6, 3994, 4019, 4032, 4024, 4017, 4038, 0, 1, 14500, -89.900, 0.000, 78.000, -0.100, 0.000, -2.900, 0.0, , , , , , 95, , , 29, 29, 29
38.4803536, -120.3385747, 27.100, 16:40:11.395, 16, 0.10, 0.48, 98, 0.900, 1.000, 77.300, 780, 100, 98, 28, 24142, -18565, 5213, 5320, 20, 14, 1530920411.395, 91, 0, 1024, 1024, 1024, 1024, 0, 6, 3994, 4019, 4032, 4024, 4017, 4038, 0, 1, 14600, -89.900, 0.000, 78.000, -0.100, 0.000, -2.900, 0.0, , , , , , 95, , , 29, 29, 29
38.4803535, -120.3385747, 27.700, 16:40:11.495, 16, 0.10, 0.47, 98, 0.900, 0.900, 77.200, 780, 100, 98, 28, 24142, -18565, 5213, 5320, 20, 14, 1530920411.495, 2, 0, 1024, 1024, 1024, 1024, 0, 6, 3994, 4019, 4032, 4024, 4017, 4038, 0, 1, 14700, -89.900, 0.000, 78.000, -0.100, 0.000, -2.900, 0.0, , , , , , 95, , , 29, 29, 29
38.4803535, -120.3385747, 27.700, 16:40:11.595, 16, 0.10, 0.47, 98, 0.900, 0.900, 77.200, 780, 100, 98, 28, 24142, -18565, 5213, 5320, 20, 14, 1530920411.595, 102, 0, 1024, 1024, 1024, 1024, 0, 6, 3994, 4019, 4032, 4024, 4017, 4038, 0, 1, 14800, -89.900, 0.000, 78.000, -0.100, 0.000, -2.900, 0.0, , , , , , 95, , , 29, 29, 29
38.4803535, -120.3385747, 28.000, 16:40:11.695, 16, 0.00, 0.46, 98, 1.100, 0.800, 77.100, 780, 100, 98, 28, 24121, -18415, 5213, 5320, 20, 14, 1530920411.695, 93, 0, 1024, 1024, 1024, 1024, 0, 6, 3994, 4019, 4032, 4024, 4017, 4038, 0, 1, 14900, -89.900, 0.000, 78.000, 0.000, 0.000, -3.000, 0.0, , , , , , 95, , , 29, 29, 29
38.4803534, -120.3385747, 28.300, 16:40:11.795, 16, 0.00, 0.45, 98, 1.300, 0.700, 77.000, 780, 100, 98, 28, 24121, -18415, 5213, 5320, 20, 14, 1530920411.795, 85, 0, 1024, 1024, 1024, 1024, 0, 6, 3994, 4019, 4032, 4024, 4017, 4038, 0, 1, 15000, -89.900, 0.000, 78.000, 0.000, 0.000, -3.000, 0.0, , , , , , 95, , , 29, 29, 29
38.4803534, -120.3385748, 28.700, 16:40:11.895, 16, 0.00, 0.45, 98, 1.400, 0.500, 76.900, 780, 100, 98, 28, 24121, -18415, 5213, 5320, 20, 14, 1530920411.895, 64, 0, 1024, 1024, 1024, 1024, 0, 6, 3994, 4019, 4032, 4024, 4017, 4038, 0, 1, 15100, -90.000, 0.000, 78.000, 0.000, 0.000, -3.000, 0.0, , , , , , 95, , , 29, 29, 29
38.4803533, -120.3385748, 29.000, 16:40:11.995, 16, 0.00, 0.44, 98, 1.400, 0.400, 76.900, 780, 100, 98, 28, 24121, -18415, 5213, 5320, 20, 14, 1530920411.995, 67, 0, 1024, 1024, 1024, 1024, 0, 6, 3994, 4019, 4032, 4024, 4017, 4038, 0, 1, 15200, -90.000, 0.000, 78.000, 0.000, 0.000, -3.000, 0.0, , , , , , 95, , , 29, 29, 29
38.4803533, -120.3385747, 29.300, 16:40:12.095, 16, 0.00, 0.44, 98, 1.400, 0.300, 76.900, 780, 100, 98, 28, 24121, -18415, 5213, 5320, 20, 14, 1530920412.095, 67, 0, 1024, 1024, 1024, 1024, 0, 6, 3994, 4019, 4032, 4024, 4017, 4038, 0, 1, 15300, -89.900, 0.000, 78.000, 0.000, 0.000, -3.000, 0.0, , , , , , 95, , , 29, 29, 29
38.4803533, -120.3385747, 29.600, 16:40:12.195, 16, 0.00, 0.44, 98, 1.500, 0.500, 76.900, 780, 100, 98, 28, 24121, -18415, 5213, 5320, 20, 14, 1530920412.195, 66, 0, 1024, 1024, 1024, 1024, 0, 6, 3994, 4019, 4032, 4024, 4017, 4038, 0, 1, 15400, -89.900, 0.000, 78.000, 0.000, 0.000, -3.000, 0.0, , , , , , 95, , , 29, 29, 29
38.4803533, -120.3385747, 29.900, 16:40:12.295, 16, 0.00, 0.44, 98, 1.600, 0.700, 77.000, 780, 100, 99, 28, 24121, -18415, 5213, 5320, 20, 14, 1530920412.295, 73, 0, 1024, 1024, 1024, 1024, 0, 6, 3994, 4019, 4032, 4024, 4017, 4038, 0, 1, 15500, -89.900, 0.000, 78.000, 0.000, 0.000, -3.000, 0.0, , , , , , 95, , , 29, 29, 29
38.4803533, -120.3385746, 30.200, 16:40:12.395, 16, 0.00, 0.44, 98, 1.600, 0.800, 77.100, 780, 100, 99, 28, 24121, -18415, 5213, 5320, 20, 14, 1530920412.395, 44, 0, 1024, 1024, 1024, 1024, 0, 6, 3994, 4019, 4032, 4024, 4017, 4038, 0, 1, 15600, -89.900, 0.000, 78.000, 0.000, 0.000, -2.900, 0.0, , , , , , 95, , , 29, 29, 29
38.4803532, -120.3385746, 30.500, 16:40:12.495, 16, 0.00, 0.43, 98, 1.400, 0.700, 77.200, 780, 100, 99, 28, 24121, -18415, 5213, 5320, 20, 14, 1530920412.495, 47, 0, 1024, 1024, 1024, 1024, 0, 6, 3994, 4019, 4032, 4024, 4017, 4038, 0, 1, 15700, -89.900, 0.000, 78.000, 0.000, 0.000, -2.900, 0.0, , , , , , 95, , , 29, 29, 29
38.4803531, -120.3385747, 30.800, 16:40:12.595, 16, 0.10, 0.42, 98, 1.000, 0.700, 77.300, 780, 100, 99, 28, 24121, -18415, 5213, 5320, 20, 14, 1530920412.595, 35, 0, 1024, 1024, 1024, 1024, 0, 6, 3994, 4019, 4032, 4024, 4017, 4038, 0, 1, 15800, -89.900, 0.000, 78.000, -0.100, 0.000, -3.000, 0.0, , , , , , 95, , , 29, 29, 29
38.4803530, -120.3385746, 31.100, 16:40:12.695, 16, 0.10, 0.41, 98, 0.600, 0.600, 77.400, 780, 100, 99, 29, 24121, -18415, 5213, 5320, 20, 14, 1530920412.695, 37, 0, 1024, 1024, 1024, 1024, 0, 6, 3997, 4029, 4028, 4010, 4019, 4035, 0, 1, 15900, -89.900, 0.000, 78.000, -0.100, 0.000, -3.000, 0.0, , , , , , 95, , , 29, 29, 29
38.4803529, -120.3385746, 31.400, 16:40:12.795, 16, 0.00, 0.40, 98, 0.400, 0.600, 77.400, 780, 100, 99, 29, 24121, -18415, 5213, 5320, 20, 14, 1530920412.795, 37, 0, 1024, 1024, 1024, 1024, 0, 6, 3997, 4029, 4028, 4010, 4019, 4035, 0, 1, 16000, -89.900, 0.000, 78.000, 0.000, 0.000, -2.900, 0.0, , , , , , 95, , , 29, 29, 29
38.4803528, -120.3385746, 31.600, 16:40:12.895, 16, 0.00, 0.40, 98, 0.300, 0.500, 77.300, 780, 100, 99, 29, 24121, -18415, 5213, 5320, 20, 14, 1530920412.895, 27, 0, 1024, 1024, 1024, 1024, 0, 6, 3997, 4029, 4028, 4010, 4019, 4035, 0, 1, 16100, -89.900, 0.000, 78.000, 0.000, 0.000, -2.900, 0.0, , , , , , 95, , , 29, 29, 29
38.4803528, -120.3385746, 32.000, 16:40:12.995, 16, 0.00, 0.40, 98, 0.600, 0.500, 77.300, 780, 100, 99, 29, 24121, -18415, 5213, 5320, 20, 14, 1530920412.995, 29, 0, 1024, 1024, 1024, 1024, 0, 6, 3997, 4029, 4028, 4010, 4019, 4035, 0, 1, 16200, -89.900, 0.000, 78.000, 0.000, 0.000, -2.900, 0.0, , , , , , 95, , , 29, 29, 29
38.4803527, -120.3385746, 32.300, 16:40:13.095, 16, 0.00, 0.39, 97, 0.800, 0.600, 77.200, 780, 100, 99, 29, 24100, -18206, 5160, 5320, 20, 14, 1530920413.095, 31, 0, 1024, 1024, 1024, 1024, 0, 6, 3999, 4029, 4036, 4006, 4017, 4040, 0, 1, 16300, -89.900, 0.000, 78.000, 0.000, 0.000, -2.900, 0.0, , , , , , 95, , , 29, 29, 29
38.4803527, -120.3385746, 32.300, 16:40:13.195, 16, 0.00, 0.39, 97, 0.800, 0.600, 77.200, 780, 100, 99, 29, 24100, -18206, 5160, 5320, 20, 14, 1530920413.195, 131, 0, 1024, 1024, 1024, 1024, 0, 6, 3999, 4029, 4036, 4006, 4017, 4040, 0, 1, 16400, -89.900, 0.000, 78.000, 0.000, 0.000, -2.900, 0.0, , , , , , 95, , , 29, 29, 29
38.4803525, -120.3385745, 32.900, 16:40:13.295, 16, 0.00, 0.38, 97, 0.700, 0.700, 77.200, 780, 100, 96, 29, 24100, -18206, 5160, 5320, 20, 14, 1530920413.295, 3, 0, 1024, 1024, 1024, 1024, 0, 6, 3999, 4029, 4036, 4006, 4017, 4040, 0, 1, 16500, -89.900, 0.000, 78.000, 0.000, 0.000, -3.000, 0.0, , , , , , 95, , , 29, 29, 29
38.4803525, -120.3385745, 33.400, 16:40:13.394, 16, 0.00, 0.38, 97, 1.000, 0.800, 77.100, 780, 100, 96, 29, 24100, -18206, 5160, 5320, 20, 14, 1530920413.394, 3, 0, 1024, 1024, 1024, 1024, 0, 6, 3999, 4029, 4036, 4006, 4017, 4040, 0, 1, 16599, -89.900, 0.000, 78.000, 0.000, 0.000, -2.900, 0.0, , , , , , 95, , , 29, 29, 29
38.4803525, -120.3385745, 33.400, 16:40:13.495, 16, 0.00, 0.38, 97, 1.000, 0.800, 77.100, 780, 100, 96, 29, 24100, -18206, 5160, 5320, 20, 14, 1530920413.495, 104, 0, 1024, 1024, 1024, 1024, 0, 6, 3999, 4029, 4036, 4006, 4017, 4040, 0, 1, 16700, -89.900, 0.000, 78.000, 0.000, 0.000, -2.900, 0.0, , , , , , 95, , , 29, 29, 29
38.4803524, -120.3385744, 34.100, 16:40:13.597, 16, 0.00, 0.37, 97, 1.100, 1.100, 76.900, 780, 100, 96, 29, 24100, -18206, 5160, 5320, 20, 14, 1530920413.597, 2, 0, 1024, 1024, 1024, 1024, 0, 6, 3999, 4029, 4036, 4006, 4017, 4040, 0, 1, 16802, -89.900, 0.000, 78.000, 0.000, 0.000, -3.000, 0.0, , , , , , 95, , , 29, 29, 29
38.4803523, -120.3385743, 34.400, 16:40:13.695, 16, 0.00, 0.37, 97, 0.900, 1.100, 76.800, 780, 100, 96, 29, 24100, -18206, 5160, 5320, 20, 14, 1530920413.696, 3, 0, 1024, 1024, 1024, 1024, 0, 6, 3999, 4029, 4036, 4006, 4017, 4040, 0, 1, 16901, -89.900, 0.000, 78.000, 0.000, 0.000, -3.000, 0.0, , , , , , 95, , , 29, 29, 29
38.4803523, -120.3385743, 34.400, 16:40:13.794, 16, 0.00, 0.37, 97, 0.900, 1.100, 76.800, 780, 100, 96, 29, 24100, -18206, 5160, 5320, 20, 14, 1530920413.795, 102, 0, 1024, 1024, 1024, 1024, 0, 6, 3999, 4029, 4036, 4006, 4017, 4040, 0, 1, 17000, -89.900, 0.000, 78.000, 0.000, 0.000, -3.000, 0.0, , , , , , 95, , , 29, 29, 29
38.4803523, -120.3385743, 34.700, 16:40:13.895, 16, 0.00, 0.37, 97, 0.800, 1.000, 76.700, 780, 100, 96, 29, 24100, -18206, 5160, 5320, 20, 14, 1530920413.895, 79, 0, 1024, 1024, 1024, 1024, 0, 6, 3999, 4029, 4036, 4006, 4017, 4040, 0, 1, 17100, -89.900, 0.000, 78.000, 0.000, 0.000, -3.000, 0.0, , , , , , 95, , , 29, 29, 29
38.4803522, -120.3385743, 35.000, 16:40:13.994, 16, 0.00, 0.37, 97, 0.700, 0.900, 76.800, 780, 100, 96, 29, 24100, -18206, 5160, 5320, 20, 14, 1530920413.995, 78, 0, 1024, 1024, 1024, 1024, 0, 6, 3999, 4029, 4036, 4006, 4017, 4040, 0, 1, 17200, -89.900, 0.000, 78.000, 0.000, 0.000, -2.900, 0.0, , , , , , 95, , , 29, 29, 29
38.4803522, -120.3385742, 35.300, 16:40:14.095, 16, 0.00, 0.36, 97, 0.600, 0.900, 76.900, 780, 100, 96, 29, 24100, -18206, 5160, 5320, 20, 14, 1530920414.095, 72, 0, 1024, 1024, 1024, 1024, 0, 6, 3999, 4029, 4036, 4006, 4017, 4040, 0, 1, 17300, -89.900, 0.000, 78.000, 0.000, 0.000, -2.900, 0.0, , , , , , 95, , , 29, 29, 29
38.4803521, -120.3385742, 35.600, 16:40:14.194, 16, 0.00, 0.36, 97, 0.500, 0.900, 77.000, 780, 100, 96, 29, 24091, -17592, 5160, 5320, 20, 14, 1530920414.195, 72, 0, 1024, 1024, 1024, 1024, 0, 6, 3988, 4021, 4027, 4003, 4018, 4037, 0, 1, 17400, -89.900, 0.000, 78.000, 0.000, 0.000, -2.900, 0.0, , , , , , 95, , , 29, 29, 29
38.4803521, -120.3385742, 35.900, 16:40:14.294, 16, 0.00, 0.36, 97, 0.500, 1.000, 77.100, 780, 100, 97, 29, 24091, -17592, 5160, 5320, 20, 14, 1530920414.295, 74, 0, 1024, 1024, 1024, 1024, 0, 6, 3988, 4021, 4027, 4003, 4018, 4037, 0, 1, 17500, -89.900, 0.000, 78.000, 0.000, 0.000, -3.000, 0.0, , , , , , 95, , , 29, 29, 29
38.4803520, -120.3385742, 36.200, 16:40:14.394, 16, 0.00, 0.36, 97, 0.500, 1.000, 77.200, 780, 100, 97, 29, 24091, -17592, 5160, 5320, 20, 14, 1530920414.395, 79, 0, 1024, 1024, 1024, 1024, 0, 6, 3988, 4021, 4027, 4003, 4018, 4037, 0, 1, 17600, -89.900, 0.000, 78.000, 0.000, 0.000, -2.900, 0.0, , , , , , 95, , , 29, 29, 29
38.4803520, -120.3385742, 36.500, 16:40:14.494, 16, 0.00, 0.36, 97, 0.600, 1.000, 77.200, 780, 100, 97, 29, 24091, -17592, 5160, 5320, 20, 14, 1530920414.495, 55, 0, 1024, 1024, 1024, 1024, 0, 6, 3988, 4021, 4027, 4003, 4018, 4037, 0, 1, 17700, -89.900, 0.000, 78.000, 0.000, 0.000, -2.900, 0.0, , , , , , 95, , , 29, 29, 29
38.4803520, -120.3385742, 36.800, 16:40:14.594, 16, 0.00, 0.36, 97, 0.900, 0.900, 77.200, 780, 100, 97, 29, 24091, -17592, 5160, 5320, 20, 14, 1530920414.595, 52, 0, 1024, 1024, 1024, 1024, 0, 6, 3988, 4021, 4027, 4003, 4018, 4037, 0, 1, 17800, -89.900, 0.000, 78.000, 0.000, 0.000, -3.000, 0.0, , , , , , 95, , , 29, 29, 29
38.4803520, -120.3385741, 37.100, 16:40:14.694, 16, 0.00, 0.36, 97, 1.000, 0.800, 77.100, 780, 100, 97, 29, 24091, -17592, 5160, 5320, 20, 14, 1530920414.695, 53, 0, 1024, 1024, 1024, 1024, 0, 6, 3988, 4021, 4027, 4003, 4018, 4037, 0, 1, 17900, -89.900, 0.000, 78.000, 0.000, 0.000, -3.000, 0.0, , , , , , 95, , , 29, 29, 29
38.4803519, -120.3385741, 37.400, 16:40:14.794, 16, 0.00, 0.35, 97, 1.000, 0.800, 77.100, 780, 100, 97, 29, 24091, -17592, 5160, 5320, 20, 14, 1530920414.795, 55, 0, 1024, 1024, 1024, 1024, 0, 6, 3988, 4021, 4027, 4003, 4018, 4037, 0, 1, 18000, -89.900, 0.000, 78.000, 0.000, 0.000, -2.900, 0.0, , , , , , 95, , , 29, 29, 29
38.4803519, -120.3385741, 37.700, 16:40:14.894, 16, 0.00, 0.35, 97, 0.900, 0.800, 77.000, 780, 100, 97, 29, 24091, -17592, 5160, 5320, 20, 14, 1530920414.896, 50, 0, 1024, 1024, 1024, 1024, 0, 6, 3988, 4021, 4027, 4003, 4018, 4037, 0, 1, 18101, -89.900, 0.000, 78.000, 0.000, 0.000, -2.900, 0.0, , , , , , 95, , , 29, 29, 29
38.4803518, -120.3385742, 38.000, 16:40:14.994, 16, 0.00, 0.34, 97, 0.600, 0.800, 77.000, 780, 100, 97, 29, 24091, -17592, 5160, 5320, 20, 14, 1530920414.995, 21, 0, 1024, 1024, 1024, 1024, 0, 6, 3988, 4021, 4027, 4003, 4018, 4037, 0, 1, 18200, -89.900, 0.000, 78.000, 0.000, 0.000, -2.900, 0.0, , , , , , 95, , , 29, 29, 29
38.4803518, -120.3385742, 38.300, 16:40:15.094, 16, 0.00, 0.34, 97, 0.500, 0.800, 77.000, 780, 100, 97, 29, 24091, -17592, 5160, 5320, 20, 14, 1530920415.095, 29, 0, 1024, 1024, 1024, 1024, 0, 6, 3988, 4021, 4027, 4003, 4018, 4037, 0, 1, 18300, -89.900, 0.000, 78.000, 0.000, 0.000, -2.900, 0.0, , , , , , 95, , , 29, 29, 29
38.4803518, -120.3385742, 38.600, 16:40:15.194, 16, 0.00, 0.34, 97, 0.400, 0.900, 77.000, 780, 100, 97, 29, 24089, -17866, 5160, 5320, 20, 14, 1530920415.195, 34, 0, 1024, 1024, 1024, 1024, 0, 6, 3992, 4017, 4026, 4009, 4007, 4036, 0, 1, 18400, -89.900, 0.000, 78.000, 0.000, 0.000, -3.000, 0.0, , , , , , 95, , , 29, 29, 29
38.4803518, -120.3385742, 38.900, 16:40:15.294, 16, 0.00, 0.34, 97, 0.400, 0.900, 77.000, 780, 100, 97, 29, 24089, -17866, 5160, 5320, 20, 14, 1530920415.295, 23, 0, 1024, 1024, 1024, 1024, 0, 6, 3992, 4017, 4026, 4009, 4007, 4036, 0, 1, 18500, -89.900, 0.000, 78.000, 0.000, 0.000, -3.000, 0.0, , , , , , 95, , , 29, 29, 29
38.4803518, -120.3385742, 39.200, 16:40:15.394, 16, 0.00, 0.34, 97, 0.600, 0.900, 76.900, 780, 100, 97, 29, 24089, -17866, 5160, 5320, 20, 14, 1530920415.395, 31, 0, 1024, 1024, 1024, 1024, 0, 6, 3992, 4017, 4026, 4009, 4007, 4036, 0, 1, 18600, -89.900, 0.000, 78.000, 0.000, 0.000, -2.900, 0.0, , , , , , 95, , , 29, 29, 29
38.4803517, -120.3385742, 39.500, 16:40:15.494, 16, 0.00, 0.34, 97, 0.700, 0.800, 76.900, 780, 100, 97, 29, 24089, -17866, 5160, 5320, 20, 14, 1530920415.495, 25, 0, 1024, 1024, 1024, 1024, 0, 6, 3992, 4017, 4026, 4009, 4007, 4036, 0, 1, 18700, -89.900, 0.000, 78.000, 0.000, 0.000, -2.900, 0.0, , , , , , 95, , , 29, 29, 29
38.4803517, -120.3385742, 39.800, 16:40:15.595, 16, 0.00, 0.33, 97, 0.700, 0.800, 76.900, 780, 100, 97, 29, 24089, -17866, 5160, 5320, 20, 14, 1530920415.595, 1, 0, 1024, 1024, 1024, 1024, 0, 6, 3992, 4017, 4026, 4009, 4007, 4036, 0, 1, 18800, -89.900, 0.000, 78.000, 0.000, 0.000, -2.900, 0.0, , , , , , 95, , , 29, 29, 29
38.4803517, -120.3385742, 40.400, 16:40:15.693, 16, 0.00, 0.33, 97, 0.400, 0.600, 77.200, 780, 100, 99, 29, 24089, -17866, 5160, 5320, 20, 14, 1530920415.694, 16, 0, 1024, 1024, 1024, 1024, 0, 6, 3992, 4017, 4026, 4009, 4007, 4036, 0, 1, 18899, -89.900, 0.000, 78.000, 0.000, 0.000, -2.900, 0.0, , , , , , 95, , , 29, 29, 29
38.4803517, -120.3385742, 40.400, 16:40:15.794, 16, 0.00, 0.33, 97, 0.400, 0.600, 77.200, 780, 100, 99, 29, 24089, -17866, 5160, 5320, 20, 14, 1530920415.795, 117, 0, 1024, 1024, 1024, 1024, 0, 6, 3992, 4017, 4026, 4009, 4007, 4036, 0, 1, 19000, -89.900, 0.000, 78.000, 0.000, 0.000, -2.900, 0.0, , , , , , 95, , , 29, 29, 29
38.4803517, -120.3385743, 41.000, 16:40:15.897, 16, 0.00, 0.32, 97, 0.300, 0.500, 77.400, 780, 100, 99, 29, 24089, -17866, 5160, 5320, 20, 14, 1530920415.897, 4, 0, 1024, 1024, 1024, 1024, 0, 6, 3992, 4017, 4026, 4009, 4007, 4036, 0, 1, 19102, -89.900, 0.000, 78.000, 0.000, 0.000, -2.900, 0.0, , , , , , 95, , , 29, 29, 29
38.4803516, -120.3385743, 41.300, 16:40:15.994, 17, 0.00, 0.32, 97, 0.400, 0.500, 77.400, 780, 100, 99, 29, 24089, -17866, 5160, 5320, 20, 14, 1530920415.995, 5, 0, 1024, 1024, 1024, 1024, 0, 6, 3992, 4017, 4026, 4009, 4007, 4036, 0, 1, 19200, -89.900, 0.000, 78.000, 0.000, 0.000, -2.900, 0.0, , , , , , 95, , , 29, 29, 29
38.4803516, -120.3385743, 41.300, 16:40:16.094, 17, 0.00, 0.32, 97, 0.400, 0.500, 77.400, 780, 100, 99, 29, 24089, -17866, 5160, 5320, 20, 14, 1530920416.094, 104, 0, 1024, 1024, 1024, 1024, 0, 6, 3992, 4017, 4026, 4009, 4007, 4036, 0, 1, 19299, -89.900, 0.000, 78.000, 0.000, 0.000, -2.900, 0.0, , , , , , 95, , , 29, 29, 29
38.4803516, -120.3385743, 41.800, 16:40:16.196, 16, 0.00, 0.32, 97, 0.500, 0.500, 77.300, 780, 100, 98, 29, 24069, -18145, 5160, 5320, 20, 14, 1530920416.196, 3, 0, 1024, 1024, 1024, 1024, 0, 6, 3992, 4016, 4011, 3995, 4019, 4029, 0, 1, 19401, -89.900, 0.000, 78.000, 0.000, 0.000, -2.900, 0.0, , , , , , 95, , , 29, 29, 29
38.4803516, -120.3385743, 41.800, 16:40:16.294, 16, 0.00, 0.32, 97, 0.500, 0.500, 77.300, 780, 100, 98, 29, 24069, -18145, 5160, 5320, 20, 14, 1530920416.294, 100, 0, 1024, 1024, 1024, 1024, 0, 6, 3992, 4016, 4011, 3995, 4019, 4029, 0, 1, 19499, -89.900, 0.000, 78.000, 0.000, 0.000, -2.900, 0.0, , , , , , 95, , , 29, 29, 29
38.4803516, -120.3385744, 42.100, 16:40:16.394, 16, 0.00, 0.32, 97, 0.700, 0.500, 77.200, 780, 100, 98, 29, 24069, -18145, 5160, 5320, 20, 14, 1530920416.395, 83, 0, 1024, 1024, 1024, 1024, 0, 6, 3992, 4016, 4011, 3995, 4019, 4029, 0, 1, 19600, -89.900, 0.000, 78.000, 0.000, 0.000, -2.900, 0.0, , , , , , 95, , , 29, 29, 29
38.4803517, -120.3385744, 42.400, 16:40:16.494, 17, 0.00, 0.32, 97, 0.900, 0.700, 77.000, 780, 100, 98, 29, 24069, -18145, 5160, 5320, 20, 14, 1530920416.495, 77, 0, 1024, 1024, 1024, 1024, 0, 6, 3992, 4016, 4011, 3995, 4019, 4029, 0, 1, 19700, -89.900, 0.000, 78.000, 0.000, 0.000, -3.000, 0.0, , , , , , 95, , , 29, 29, 29
38.4803517, -120.3385744, 42.800, 16:40:16.594, 17, 0.00, 0.32, 97, 0.800, 0.700, 76.900, 780, 100, 98, 29, 24069, -18145, 5160, 5320, 20, 14, 1530920416.594, 67, 0, 1024, 1024, 1024, 1024, 0, 6, 3992, 4016, 4011, 3995, 4019, 4029, 0, 1, 19799, -89.900, 0.000, 78.000, 0.000, 0.000, -3.000, 0.0, , , , , , 95, , , 29, 29, 29
38.4803517, -120.3385744, 43.100, 16:40:16.694, 17, 0.00, 0.32, 97, 0.600, 0.900, 76.900, 780, 100, 98, 29, 24069, -18145, 5160, 5320, 20, 14, 1530920416.695, 61, 0, 1024, 1024, 1024, 1024, 0, 6, 3992, 4016, 4011, 3995, 4019, 4029, 0, 1, 19900, -89.900, 0.000, 78.000, 0.000, 0.000, -2.900, 0.0, , , , , , 95, , , 29, 29, 29
38.4803517, -120.3385744, 43.100, 16:40:16.794, 17, 0.00, 0.32, 97, 0.600, 0.900, 76.900, 780, 100, 98, 29, 24069, -18145, 5160, 5320, 20, 14, 1530920416.794, 160, 0, 1024, 1024, 1024, 1024, 0, 6, 3992, 4016, 4011, 3995, 4019, 4029, 0, 1, 19999, -89.900, 0.000, 78.000, 0.000, 0.000, -2.900, 0.0, , , , , , 95, , , 29, 29, 29
38.4803517, -120.3385744, 43.700, 16:40:16.894, 17, 0.00, 0.32, 97, 0.700, 1.000, 76.900, 780, 100, 98, 29, 24069, -18145, 5160, 5320, 20, 14, 1530920416.895, 61, 0, 1024, 1024, 1024, 1024, 0, 6, 3992, 4016, 4011, 3995, 4019, 4029, 0, 1, 20100, -89.900, 0.000, 78.000, 0.000, 0.000, -3.000, 0.0, , , , , , 95, , , 29, 29, 29
38.4803517, -120.3385744, 44.000, 16:40:16.994, 17, 0.00, 0.32, 97, 0.900, 0.800, 76.900, 780, 100, 98, 29, 24069, -18145, 5160, 5320, 20, 14, 1530920416.995, 50, 0, 1024, 1024, 1024, 1024, 0, 6, 3992, 4016, 4011, 3995, 4019, 4029, 0, 1, 20200, -89.900, 0.000, 78.000, 0.000, 0.000, -3.000, 0.0, , , , , , 95, , , 29, 29, 29
38.4803517, -120.3385744, 44.300, 16:40:17.093, 17, 0.00, 0.32, 97, 1.200, 0.600, 76.900, 780, 100, 98, 29, 24069, -18145, 5160, 5320, 20, 14, 1530920417.094, 23, 0, 1024, 1024, 1024, 1024, 0, 6, 3992, 4016, 4011, 3995, 4019, 4029, 0, 1, 20299, -89.900, 0.000, 78.000, 0.000, 0.000, -3.000, 0.0, , , , , , 95, , , 29, 29, 29
38.4803517, -120.3385745, 44.600, 16:40:17.193, 17, 0.00, 0.32, 97, 1.300, 0.500, 77.000, 780, 100, 98, 29, 24043, -18162, 5160, 5320, 20, 14, 1530920417.194, 42, 0, 1024, 1024, 1024, 1024, 0, 6, 3992, 4016, 4011, 3995, 4019, 4029, 0, 1, 20399, -90.000, 0.000, 78.000, 0.000, 0.000, -3.000, 0.0, , , , , , 95, , , 29, 29, 29
38.4803518, -120.3385745, 44.900, 16:40:17.293, 17, 0.00, 0.32, 97, 1.100, 0.400, 77.100, 780, 100, 99, 29, 24043, -18162, 5160, 5320, 20, 14, 1530920417.294, 58, 0, 1024, 1024, 1024, 1024, 0, 6, 3992, 4016, 4011, 3995, 4019, 4029, 0, 1, 20499, -89.900, 0.000, 78.000, 0.000, 0.000, -2.900, 0.0, , , , , , 95, , , 29, 29, 29
38.4803518, -120.3385745, 45.200, 16:40:17.393, 17, 0.00, 0.32, 97, 0.900, 0.500, 77.200, 780, 100, 99, 29, 24043, -18162, 5160, 5320, 20, 14, 1530920417.393, 25, 0, 1024, 1024, 1024, 1024, 0, 6, 3992, 4016, 4011, 3995, 4019, 4029, 0, 1, 20599, -89.900, 0.000, 78.000, 0.000, 0.000, -2.900, 0.0, , , , , , 95, , , 29, 29, 29
38.4803518, -120.3385745, 45.500, 16:40:17.493, 17, 0.00, 0.32, 97, 0.800, 0.600, 77.400, 780, 100, 99, 29, 24043, -18162, 5160, 5320, 20, 14, 1530920417.494, 33, 0, 1024, 1024, 1024, 1024, 0, 6, 3992, 4016, 4011, 3995, 4019, 4029, 0, 1, 20699, -89.900, 0.000, 78.000, 0.000, 0.000, -2.900, 0.0, , , , , , 95, , , 29, 29, 29
38.4803518, -120.3385745, 45.500, 16:40:17.593, 17, 0.00, 0.32, 97, 0.800, 0.600, 77.400, 780, 100, 99, 29, 24043, -18162, 5160, 5320, 20, 14, 1530920417.594, 133, 0, 1024, 1024, 1024, 1024, 0, 6, 3992, 4016, 4011, 3995, 4019, 4029, 0, 1, 20799, -89.900, 0.000, 78.000, 0.000, 0.000, -2.900, 0.0, , , , , , 95, , , 29, 29, 29
38.4803518, -120.3385745, 46.100, 16:40:17.693, 17, 0.00, 0.32, 97, 0.700, 0.800, 77.400, 780, 100, 99, 29, 24043, -18162, 5160, 5320, 20, 14, 1530920417.694, 28, 0, 1024, 1024, 1024, 1024, 0, 6, 3979, 4008, 4015, 3998, 4005, 4029, 0, 1, 20899, -89.900, 0.000, 78.000, 0.000, 0.000, -3.000, 0.0, , , , , , 95, , , 29, 29, 29
