Latitude, Longitude, Altitude (m), Time, Sats, Speed (m/s), Range (m), Battery (%), Roll (deg), Pitch (deg), Yaw (deg), Images, HD Signal (%), RC Signal (%), Battery Temp (C), Battery Voltage (mV), Battery Current (mA), Battery Energy (mAh), Battery Capacity (mAh), Battery Discharges, flyState, timestamp (Unix), LastUpdate (ms), radioChannel, Rc_elevator, Rc_aileron, Rc_throttle, Rc_rudder, Rc_gyro, Dronetype, Battery_Cell1 (mV), Battery_Cell2 (mV), Battery_Cell3 (mV), Battery_Cell4 (mV), Battery_Cell5 (mV), Battery_Cell6 (mV), Video, isFlying, elapsedTime (ms), gimbalPitch (deg), gimbalRoll (deg), gimbalYaw (deg), VelocityX (m/s), VelocityY (m/s), VelocityZ (m/s), GroundSmear (cm), App Version, Aircraft Name, Aircraft Firmware, Aircraft Serial Number, Battery Serial Number, Battery Lifetime (%), App_Tip, App_Warning, CurrentFlightStartingIndex, CurrentFlightLastVisitedWaypoint, PreviousFlightEndingWaypointIndex
38.4803430, -120.3385622, 0.000, 16:21:22.091, 9, 0.00, 0.03, 98, -0.800, 0.300, 74.600, 375, 100, 100, 28, 25750, -2883, 5232, 5339, 19, 11, 1530919282.091, 54, 0, 1024, 1024, 1024, 1024, 0, 6, 4294, 4284, 4302, 4283, 4284, 4269, 0, 1, 3039, -89.900, 0.000, 74.800, 0.000, 0.000, 0.000, 0.0, MapPilot_2.8.1_04242018, Dendroctonus I, , 041DDC1887, 1058171200279, 96, DJI_0373.jpg, Starting Mission from Lat/Long: 38.48034/-120.33856 Camera: Zenmuse X3 - Overlap: 90/90 - Active Connection: No, 13, 13, 13
38.4803430, -120.3385623, 0.000, 16:21:22.153, 9, 0.10, 0.04, 98, -0.600, 0.100, 74.700, 375, 100, 100, 28, 25750, -2883, 5232, 5339, 19, 11, 1530919282.153, 9, 0, 1024, 1024, 1024, 1024, 0, 6, 4294, 4284, 4302, 4283, 4284, 4269, 0, 1, 3101, -89.900, 0.000, 74.800, 0.100, 0.000, -0.100, 0.1, , , , , , 96, , , 13, 13, 13
38.4803432, -120.3385623, 0.000, 16:21:22.253, 9, 0.10, 0.05, 98, -0.300, 0.000, 74.700, 375, 100, 100, 28, 25750, -2883, 5232, 5339, 19, 11, 1530919282.253, 11, 0, 1024, 1024, 1024, 1024, 0, 6, 4294, 4284, 4302, 4283, 4284, 4269, 0, 1, 3201, -89.900, 0.000, 74.800, 0.100, 0.000, -0.200, 0.0, , , , , , 96, , , 13, 13, 13
38.4803432, -120.3385623, 0.000, 16:21:22.352, 9, 0.10, 0.05, 98, -0.300, 0.000, 74.700, 375, 100, 100, 28, 25750, -2883, 5232, 5339, 19, 11, 1530919282.352, 111, 0, 1024, 1024, 1024, 1024, 0, 6, 4294, 4284, 4302, 4283, 4284, 4269, 0, 1, 3300, -89.900, 0.000, 74.800, 0.100, 0.000, -0.200, 0.0, , , , , , 96, , , 13, 13, 13
38.4803437, -120.3385621, 0.000, 16:21:22.452, 9, 0.10, 0.12, 98, 1.200, 0.500, 74.300, 375, 100, 100, 28, 25750, -2883, 5232, 5339, 19, 11, 1530919282.452, 5, 0, 1024, 1024, 1024, 1024, 0, 6, 4294, 4284, 4302, 4283, 4284, 4269, 0, 1, 3400, -89.900, 0.000, 74.800, 0.100, 0.000, -0.300, 0.0, , , , , , 96, , , 13, 13, 13
38.4803437, -120.3385621, 0.000, 16:21:22.553, 9, 0.10, 0.12, 98, 1.200, 0.500, 74.300, 375, 100, 100, 28, 25750, -2883, 5232, 5339, 19, 11, 1530919282.553, 107, 0, 1024, 1024, 1024, 1024, 0, 6, 4294, 4284, 4302, 4283, 4284, 4269, 0, 1, 3501, -89.900, 0.000, 74.800, 0.100, 0.000, -0.300, 0.0, , , , , , 96, , , 13, 13, 13
38.4803437, -120.3385621, 0.000, 16:21:22.653, 9, 0.10, 0.12, 98, 1.200, 0.500, 74.300, 375, 100, 100, 28, 25750, -2883, 5232, 5339, 19, 11, 1530919282.653, 206, 0, 1024, 1024, 1024, 1024, 0, 6, 4294, 4284, 4302, 4283, 4284, 4269, 0, 1, 3601, -89.900, 0.000, 74.800, 0.100, 0.000, -0.300, 0.0, , , , , , 96, , , 13, 13, 13
38.4803442, -120.3385619, 0.100, 16:21:22.752, 8, 0.20, 0.18, 98, 2.000, 1.000, 74.200, 375, 100, 100, 28, 25750, -2883, 5232, 5339, 19, 11, 1530919282.753, 88, 0, 1024, 1024, 1024, 1024, 0, 6, 4294, 4284, 4302, 4283, 4284, 4269, 0, 1, 3700, -89.900, 0.000, 74.800, 0.200, 0.000, -0.400, 0.0, , , , , , 96, , , 13, 13, 13
38.4803445, -120.3385619, 0.100, 16:21:22.852, 7, 0.10, 0.20, 98, 2.000, 1.000, 74.400, 375, 100, 100, 28, 25750, -2883, 5232, 5339, 19, 11, 1530919282.853, 78, 0, 1024, 1024, 1024, 1024, 0, 6, 4294, 4284, 4302, 4283, 4284, 4269, 0, 1, 3801, -89.900, 0.000, 74.800, 0.100, 0.000, -0.400, 0.0, , , , , , 96, , , 13, 13, 13
38.4803446, -120.3385619, 0.200, 16:21:22.953, 7, 0.10, 0.22, 98, 1.900, 1.000, 74.600, 375, 100, 100, 28, 25750, -2883, 5232, 5339, 19, 11, 1530919282.953, 95, 0, 1024, 1024, 1024, 1024, 0, 6, 4294, 4284, 4302, 4283, 4284, 4269, 0, 1, 3901, -89.900, 0.000, 74.800, 0.100, 0.000, -0.500, 0.0, , , , , , 96, , , 13, 13, 13
38.4803449, -120.3385619, 0.300, 16:21:23.052, 8, 0.10, 0.25, 98, 1.900, 1.000, 74.700, 375, 100, 100, 28, 24847, -10867, 5232, 5339, 19, 11, 1530919283.053, 74, 0, 1024, 1024, 1024, 1024, 0, 6, 4294, 4284, 4302, 4283, 4284, 4269, 0, 1, 4000, -89.900, 0.000, 74.800, 0.100, 0.000, -0.500, 0.0, , , , , , 96, , , 13, 13, 13
38.4803452, -120.3385618, 0.300, 16:21:23.152, 8, 0.10, 0.28, 98, 1.900, 0.900, 74.700, 375, 100, 100, 28, 24847, -10867, 5232, 5339, 19, 11, 1530919283.153, 93, 0, 1024, 1024, 1024, 1024, 0, 6, 4294, 4284, 4302, 4283, 4284, 4269, 0, 1, 4100, -89.900, 0.000, 74.800, 0.100, 0.000, -0.500, 0.0, , , , , , 96, , , 13, 13, 13
38.4803453, -120.3385618, 0.400, 16:21:23.252, 9, 0.10, 0.29, 98, 1.900, 1.000, 74.700, 375, 100, 100, 28, 24847, -10867, 5232, 5339, 19, 11, 1530919283.253, 58, 0, 1024, 1024, 1024, 1024, 0, 6, 4294, 4284, 4302, 4283, 4284, 4269, 0, 1, 4201, -89.900, 0.000, 74.800, 0.100, 0.000, -0.500, 0.0, , , , , , 96, , , 13, 13, 13
38.4803454, -120.3385618, 0.500, 16:21:23.352, 9, 0.10, 0.31, 98, 2.100, 1.100, 74.600, 375, 100, 100, 28, 24847, -10867, 5232, 5339, 19, 11, 1530919283.353, 53, 0, 1024, 1024, 1024, 1024, 0, 6, 4294, 4284, 4302, 4283, 4284, 4269, 0, 1, 4301, -89.900, 0.000, 74.800, 0.100, 0.000, -0.500, 0.0, , , , , , 96, , , 13, 13, 13
38.4803456, -120.3385617, 0.500, 16:21:23.452, 9, 0.10, 0.33, 98, 2.000, 1.100, 74.500, 375, 100, 100, 28, 24847, -10867, 5232, 5339, 19, 11, 1530919283.453, 55, 0, 1024, 1024, 1024, 1024, 0, 6, 4143, 4117, 4136, 4155, 4120, 4121, 0, 1, 4401, -89.900, 0.000, 74.800, 0.100, 0.000, -0.500, 0.0, , , , , , 96, , , 13, 13, 13
38.4803458, -120.3385616, 0.600, 16:21:23.553, 9, 0.10, 0.35, 98, 1.900, 1.200, 74.500, 375, 100, 100, 28, 24847, -10867, 5232, 5339, 19, 11, 1530919283.553, 58, 0, 1024, 1024, 1024, 1024, 0, 6, 4143, 4117, 4136, 4155, 4120, 4121, 0, 1, 4501, -89.900, 0.000, 74.800, 0.100, 0.000, -0.500, 0.0, , , , , , 96, , , 13, 13, 13
38.4803461, -120.3385616, 0.700, 16:21:23.652, 10, 0.10, 0.38, 98, 2.300, 1.200, 74.600, 375, 100, 100, 28, 24847, -10867, 5232, 5339, 19, 11, 1530919283.653, 37, 0, 1024, 1024, 1024, 1024, 0, 6, 4143, 4117, 4136, 4155, 4120, 4121, 0, 1, 4601, -89.900, 0.000, 74.800, 0.100, 0.000, -0.500, 0.0, , , , , , 96, , , 13, 13, 13
38.4803463, -120.3385616, 0.800, 16:21:23.752, 10, 0.10, 0.40, 98, 2.600, 1.100, 74.800, 375, 100, 100, 28, 24847, -10867, 5232, 5339, 19, 11, 1530919283.753, 39, 0, 1024, 1024, 1024, 1024, 0, 6, 4143, 4117, 4136, 4155, 4120, 4121, 0, 1, 4701, -89.900, 0.000, 74.800, 0.100, 0.000, -0.500, 0.0, , , , , , 96, , , 13, 13, 13
38.4803465, -120.3385616, 0.800, 16:21:23.852, 11, 0.10, 0.43, 98, 2.800, 1.000, 74.900, 375, 100, 100, 28, 24847, -10867, 5232, 5339, 19, 11, 1530919283.853, 44, 0, 1024, 1024, 1024, 1024, 0, 6, 4143, 4117, 4136, 4155, 4120, 4121, 0, 1, 4801, -89.900, 0.000, 74.800, 0.100, 0.000, -0.500, 0.0, , , , , , 96, , , 13, 13, 13
38.4803467, -120.3385615, 0.900, 16:21:23.952, 11, 0.10, 0.45, 98, 2.700, 1.100, 75.000, 375, 100, 100, 28, 24847, -10867, 5232, 5339, 19, 14, 1530919283.952, 44, 0, 1024, 1024, 1024, 1024, 0, 6, 4143, 4117, 4136, 4155, 4120, 4121, 0, 1, 4900, -89.900, 0.000, 74.800, 0.100, 0.000, -0.500, 0.0, , , , , , 96, , , 13, 13, 13
38.4803469, -120.3385615, 1.000, 16:21:24.052, 9, 0.10, 0.47, 98, 2.700, 1.400, 75.100, 375, 100, 100, 28, 24847, -10867, 5232, 5339, 19, 14, 1530919284.053, 47, 0, 1024, 1024, 1024, 1024, 0, 6, 4143, 4117, 4136, 4155, 4120, 4121, 0, 1, 5001, -89.900, 0.000, 74.800, 0.100, 0.000, -0.400, 0.0, , , , , , 96, , , 13, 13, 13
38.4803471, -120.3385615, 1.000, 16:21:24.152, 9, 0.10, 0.49, 98, 3.200, 1.800, 75.300, 375, 100, 100, 28, 24847, -10867, 5232, 5339, 19, 14, 1530919284.153, 41, 0, 1024, 1024, 1024, 1024, 0, 6, 4143, 4117, 4136, 4155, 4120, 4121, 0, 1, 5101, -89.900, 0.000, 74.800, 0.100, 0.000, -0.200, 0.0, , , , , , 96, , , 13, 13, 13
38.4803472, -120.3385616, 1.100, 16:21:24.252, 10, 0.10, 0.51, 98, 3.300, 1.800, 75.400, 375, 100, 100, 28, 24847, -10867, 5232, 5339, 19, 14, 1530919284.253, 33, 0, 1024, 1024, 1024, 1024, 0, 6, 4143, 4117, 4136, 4155, 4120, 4121, 0, 1, 5200, -89.900, 0.000, 74.800, 0.100, 0.000, -0.200, 0.0, , , , , , 96, , , 13, 13, 13
38.4803473, -120.3385616, 1.100, 16:21:24.352, 10, 0.10, 0.52, 98, 3.000, 1.200, 75.400, 375, 100, 100, 28, 24847, -10867, 5232, 5339, 19, 14, 1530919284.353, 23, 0, 1024, 1024, 1024, 1024, 0, 6, 4143, 4117, 4136, 4155, 4120, 4121, 0, 1, 5300, -89.900, 0.000, 74.800, 0.100, 0.000, -0.300, 0.0, , , , , , 96, , , 13, 13, 13
38.4803474, -120.3385617, 1.200, 16:21:24.452, 10, 0.10, 0.53, 98, 2.700, 0.800, 75.500, 375, 100, 100, 28, 24569, -16809, 5232, 5339, 19, 14, 1530919284.453, 38, 0, 1024, 1024, 1024, 1024, 0, 6, 4103, 4089, 4079, 4088, 4099, 4099, 0, 1, 5400, -89.900, 0.000, 74.800, 0.100, 0.000, -0.400, 0.0, , , , , , 96, , , 13, 13, 13
38.4803474, -120.3385618, 1.300, 16:21:24.552, 10, 0.00, 0.53, 98, 2.800, 0.600, 75.700, 375, 100, 100, 28, 24569, -16809, 5232, 5339, 19, 14, 1530919284.553, 21, 0, 1024, 1024, 1024, 1024, 0, 6, 4103, 4089, 4079, 4088, 4099, 4099, 0, 1, 5500, -89.900, 0.000, 74.800, 0.000, 0.000, -0.600, 0.0, , , , , , 96, , , 13, 13, 13
38.4803475, -120.3385617, 1.400, 16:21:24.652, 10, 0.00, 0.53, 98, 2.900, 0.700, 75.900, 375, 100, 100, 28, 24569, -16809, 5232, 5339, 19, 14, 1530919284.653, 20, 0, 1024, 1024, 1024, 1024, 0, 6, 4103, 4089, 4079, 4088, 4099, 4099, 0, 1, 5601, -89.900, 0.000, 74.800, 0.000, 0.000, -0.800, 0.0, , , , , , 96, , , 13, 13, 13
38.4803475, -120.3385617, 1.500, 16:21:24.755, 10, 0.00, 0.54, 98, 2.500, 0.400, 76.100, 375, 100, 100, 28, 24569, -16809, 5232, 5339, 19, 14, 1530919284.756, 6, 0, 1024, 1024, 1024, 1024, 0, 6, 4103, 4089, 4079, 4088, 4099, 4099, 0, 1, 5703, -90.000, 0.000, 74.800, 0.000, 0.000, -0.900, 0.0, , , , , , 96, , , 13, 13, 13
38.4803476, -120.3385616, 1.600, 16:21:24.852, 11, 0.00, 0.55, 98, 2.200, 0.600, 76.100, 375, 100, 100, 28, 24569, -16809, 5232, 5339, 19, 14, 1530919284.853, 8, 0, 1024, 1024, 1024, 1024, 0, 6, 4103, 4089, 4079, 4088, 4099, 4099, 0, 1, 5801, -89.900, 0.000, 74.900, 0.000, 0.000, -1.000, 0.0, , , , , , 96, , , 13, 13, 13
38.4803476, -120.3385616, 1.600, 16:21:24.952, 11, 0.00, 0.55, 98, 2.200, 0.600, 76.100, 375, 100, 100, 28, 24569, -16809, 5232, 5339, 19, 14, 1530919284.953, 108, 0, 1024, 1024, 1024, 1024, 0, 6, 4103, 4089, 4079, 4088, 4099, 4099, 0, 1, 5901, -89.900, 0.000, 74.900, 0.000, 0.000, -1.000, 0.0, , , , , , 96, , , 13, 13, 13
38.4803478, -120.3385616, 1.700, 16:21:25.052, 11, 0.00, 0.57, 98, 2.500, 1.100, 75.900, 375, 100, 100, 28, 24569, -16809, 5232, 5339, 19, 14, 1530919285.053, 97, 0, 1024, 1024, 1024, 1024, 0, 6, 4103, 4089, 4079, 4088, 4099, 4099, 0, 1, 6001, -89.900, 0.000, 74.900, 0.000, 0.000, -1.300, 0.0, , , , , , 96, , , 13, 13, 13
38.4803480, -120.3385616, 2.100, 16:21:25.152, 11, 0.00, 0.60, 98, 3.200, 1.100, 75.400, 375, 100, 100, 28, 24569, -16809, 5232, 5339, 19, 14, 1530919285.153, 91, 0, 1024, 1024, 1024, 1024, 0, 6, 4103, 4089, 4079, 4088, 4099, 4099, 0, 1, 6101, -90.000, 0.000, 74.900, 0.000, 0.000, -1.600, 0.0, , , , , , 96, , , 13, 13, 13
38.4803480, -120.3385616, 2.100, 16:21:25.252, 11, 0.00, 0.60, 98, 3.200, 1.100, 75.400, 375, 100, 100, 28, 24569, -16809, 5232, 5339, 19, 14, 1530919285.253, 190, 0, 1024, 1024, 1024, 1024, 0, 6, 4103, 4089, 4079, 4088, 4099, 4099, 0, 1, 6200, -90.000, 0.000, 74.900, 0.000, 0.000, -1.600, 0.0, , , , , , 96, , , 13, 13, 13
38.4803488, -120.3385615, 2.500, 16:21:25.352, 11, 0.10, 0.68, 98, 3.800, 0.800, 75.300, 375, 100, 100, 28, 24569, -16809, 5232, 5339, 19, 14, 1530919285.353, 78, 0, 1024, 1024, 1024, 1024, 0, 6, 4103, 4089, 4079, 4088, 4099, 4099, 0, 1, 6300, -89.900, 0.000, 74.900, 0.100, 0.000, -2.000, 0.0, , , , , , 96, , , 13, 13, 13
38.4803491, -120.3385615, 2.700, 16:21:25.452, 10, 0.00, 0.71, 98, 4.500, 1.200, 75.500, 375, 100, 100, 28, 24569, -16809, 5232, 5339, 19, 14, 1530919285.453, 84, 0, 1024, 1024, 1024, 1024, 0, 6, 4103, 4089, 4079, 4088, 4099, 4099, 0, 1, 6401, -89.900, 0.000, 74.900, 0.000, 0.000, -2.200, 0.0, , , , , , 96, , , 13, 13, 13
38.4803493, -120.3385615, 2.900, 16:21:25.552, 10, 0.00, 0.73, 98, 4.600, 1.200, 75.700, 375, 100, 100, 28, 24521, -15128, 5232, 5339, 19, 14, 1530919285.553, 67, 0, 1024, 1024, 1024, 1024, 0, 6, 4081, 4055, 4090, 4148, 4136, 4074, 0, 1, 6501, -89.900, 0.000, 74.900, 0.000, 0.000, -2.400, 0.0, , , , , , 96, , , 13, 13, 13
38.4803495, -120.3385615, 3.200, 16:21:25.652, 13, 0.00, 0.76, 98, 4.400, 1.200, 75.900, 375, 100, 100, 28, 24521, -15128, 5232, 5339, 19, 14, 1530919285.653, 71, 0, 1024, 1024, 1024, 1024, 0, 6, 4081, 4055, 4090, 4148, 4136, 4074, 0, 1, 6601, -89.900, 0.000, 74.900, 0.000, 0.000, -2.600, 0.0, , , , , , 96, , , 13, 13, 13
38.4803498, -120.3385614, 3.500, 16:21:25.752, 13, 0.00, 0.79, 98, 4.200, 1.500, 76.000, 375, 100, 100, 28, 24521, -15128, 5232, 5339, 19, 14, 1530919285.753, 45, 0, 1024, 1024, 1024, 1024, 0, 6, 4081, 4055, 4090, 4148, 4136, 4074, 0, 1, 6701, -89.900, 0.000, 74.900, 0.000, 0.000, -2.800, 0.0, , , , , , 96, , , 13, 13, 13
38.4803500, -120.3385613, 3.800, 16:21:25.852, 11, 0.00, 0.81, 98, 4.000, 1.900, 76.000, 375, 100, 100, 28, 24521, -15128, 5232, 5339, 19, 14, 1530919285.852, 60, 0, 1024, 1024, 1024, 1024, 0, 6, 4081, 4055, 4090, 4148, 4136, 4074, 0, 1, 6800, -89.900, 0.000, 74.900, 0.000, 0.000, -2.900, 0.0, , , , , , 96, , , 13, 13, 13
38.4803502, -120.3385611, 4.100, 16:21:25.952, 11, 0.00, 0.84, 98, 3.900, 2.100, 75.800, 375, 100, 100, 28, 24521, -15128, 5232, 5339, 19, 14, 1530919285.953, 64, 0, 1024, 1024, 1024, 1024, 0, 6, 4081, 4055, 4090, 4148, 4136, 4074, 0, 1, 6901, -89.900, 0.000, 74.900, 0.000, 0.000, -3.000, 0.0, , , , , , 96, , , 13, 13, 13
38.4803505, -120.3385613, 4.400, 16:21:26.052, 12, 0.00, 0.87, 98, 4.000, 2.100, 75.700, 375, 100, 100, 28, 24521, -15128, 5232, 5339, 19, 14, 1530919286.053, 63, 0, 1024, 1024, 1024, 1024, 0, 6, 4081, 4055, 4090, 4148, 4136, 4074, 0, 1, 7001, -89.900, 0.000, 74.900, 0.000, 0.000, -3.100, 0.0, , , , , , 96, , , 13, 13, 13
38.4803508, -120.3385616, 4.800, 16:21:26.152, 12, 0.00, 0.90, 98, 4.300, 1.700, 75.700, 375, 100, 100, 28, 24521, -15128, 5232, 5339, 19, 14, 1530919286.153, 63, 0, 1024, 1024, 1024, 1024, 0, 6, 4081, 4055, 4090, 4148, 4136, 4074, 0, 1, 7101, -89.900, 0.000, 74.900, 0.000, 0.000, -3.200, 0.0, , , , , , 96, , , 13, 13, 13
38.4803509, -120.3385616, 5.100, 16:21:26.252, 11, 0.00, 0.91, 98, 4.700, 1.200, 75.700, 375, 100, 100, 28, 24521, -15128, 5232, 5339, 19, 14, 1530919286.253, 38, 0, 1024, 1024, 1024, 1024, 0, 6, 4081, 4055, 4090, 4148, 4136, 4074, 0, 1, 7201, -89.900, 0.000, 74.900, 0.000, 0.000, -3.200, 0.0, , , , , , 96, , , 13, 13, 13
38.4803509, -120.3385615, 5.500, 16:21:26.352, 11, 0.00, 0.92, 98, 4.800, 1.000, 75.800, 375, 100, 100, 28, 24521, -15128, 5232, 5339, 19, 14, 1530919286.353, 17, 0, 1024, 1024, 1024, 1024, 0, 6, 4081, 4055, 4090, 4148, 4136, 4074, 0, 1, 7301, -89.900, 0.000, 74.900, 0.000, 0.000, -3.200, 0.0, , , , , , 96, , , 13, 13, 13
38.4803509, -120.3385616, 5.800, 16:21:26.452, 10, 0.10, 0.92, 98, 4.800, 1.000, 76.000, 375, 100, 100, 28, 24175, -20763, 5232, 5339, 19, 14, 1530919286.453, 29, 0, 1024, 1024, 1024, 1024, 0, 6, 4003, 3990, 3993, 4004, 4029, 4026, 0, 1, 7401, -89.900, 0.000, 74.900, -0.100, 0.000, -3.100, 0.0, , , , , , 96, , , 13, 13, 13
38.4803509, -120.3385616, 6.100, 16:21:26.552, 10, 0.10, 0.91, 98, 4.500, 1.200, 76.200, 375, 100, 100, 28, 24175, -20763, 5232, 5339, 19, 14, 1530919286.552, 32, 0, 1024, 1024, 1024, 1024, 0, 6, 4003, 3990, 3993, 4004, 4029, 4026, 0, 1, 7500, -89.900, 0.000, 74.900, -0.100, 0.000, -3.100, 0.0, , , , , , 96, , , 13, 13, 13
38.4803508, -120.3385616, 6.500, 16:21:26.652, 13, 0.10, 0.90, 98, 4.000, 1.100, 76.200, 375, 100, 100, 28, 24175, -20763, 5232, 5339, 19, 14, 1530919286.653, 37, 0, 1024, 1024, 1024, 1024, 0, 6, 4003, 3990, 3993, 4004, 4029, 4026, 0, 1, 7601, -89.900, 0.000, 74.900, -0.100, 0.000, -3.100, 0.0, , , , , , 96, , , 13, 13, 13
38.4803506, -120.3385615, 6.800, 16:21:26.752, 13, 0.20, 0.88, 98, 3.100, 0.900, 76.200, 375, 100, 100, 28, 24175, -20763, 5232, 5339, 19, 14, 1530919286.753, 31, 0, 1024, 1024, 1024, 1024, 0, 6, 4003, 3990, 3993, 4004, 4029, 4026, 0, 1, 7701, -90.000, 0.000, 74.900, -0.200, 0.000, -3.100, 0.1, , , , , , 96, , , 13, 13, 13
38.4803502, -120.3385615, 7.100, 16:21:26.852, 14, 0.20, 0.84, 98, 2.500, 0.900, 76.200, 375, 100, 100, 28, 24175, -20763, 5232, 5339, 19, 14, 1530919286.853, 23, 0, 1024, 1024, 1024, 1024, 0, 6, 4003, 3990, 3993, 4004, 4029, 4026, 0, 1, 7801, -89.900, 0.000, 74.900, -0.200, 0.000, -3.100, 0.1, , , , , , 96, , , 13, 13, 13
38.4803498, -120.3385614, 7.500, 16:21:26.952, 14, 0.20, 0.79, 98, 1.900, 0.800, 76.300, 375, 100, 100, 28, 24175, -20763, 5232, 5339, 19, 14, 1530919286.953, 23, 0, 1024, 1024, 1024, 1024, 0, 6, 4003, 3990, 3993, 4004, 4029, 4026, 0, 1, 7901, -90.000, 0.000, 74.900, -0.200, 0.000, -3.000, 0.1, , , , , , 96, , , 13, 13, 13
38.4803498, -120.3385614, 7.500, 16:21:27.052, 14, 0.20, 0.79, 98, 1.900, 0.800, 76.300, 375, 100, 99, 28, 24175, -20763, 5232, 5339, 19, 14, 1530919287.053, 123, 0, 1024, 1024, 1024, 1024, 0, 6, 4003, 3990, 3993, 4004, 4029, 4026, 0, 1, 8001, -89.900, 0.000, 74.900, -0.200, 0.000, -3.000, 0.1, , , , , , 96, , , 13, 13, 13
38.4803491, -120.3385614, 8.100, 16:21:27.152, 13, 0.20, 0.72, 98, 0.900, 0.900, 76.600, 375, 100, 99, 28, 24175, -20763, 5232, 5339, 19, 14, 1530919287.153, 7, 0, 1024, 1024, 1024, 1024, 0, 6, 4003, 3990, 3993, 4004, 4029, 4026, 0, 1, 8101, -89.900, 0.000, 74.900, -0.200, 0.000, -3.100, 0.1, , , , , , 96, , , 13, 13, 13
38.4803487, -120.3385615, 8.500, 16:21:27.252, 14, 0.20, 0.67, 98, 0.600, 0.800, 76.600, 375, 100, 99, 28, 24175, -20763, 5232, 5339, 19, 14, 1530919287.252, 8, 0, 1024, 1024, 1024, 1024, 0, 6, 4003, 3990, 3993, 4004, 4029, 4026, 0, 1, 8200, -90.000, 0.000, 74.900, -0.200, 0.000, -3.100, 0.1, , , , , , 96, , , 13, 13, 13
38.4803487, -120.3385615, 8.500, 16:21:27.352, 14, 0.20, 0.67, 98, 0.600, 0.800, 76.600, 375, 100, 99, 28, 24175, -20763, 5232, 5339, 19, 14, 1530919287.353, 110, 0, 1024, 1024, 1024, 1024, 0, 6, 4003, 3990, 3993, 4004, 4029, 4026, 0, 1, 8301, -90.000, 0.000, 74.900, -0.200, 0.000, -3.100, 0.1, , , , , , 96, , , 13, 13, 13
38.4803483, -120.3385615, 8.800, 16:21:27.452, 14, 0.20, 0.63, 98, 0.200, 0.400, 76.400, 375, 100, 99, 28, 24175, -20763, 5232, 5339, 19, 14, 1530919287.453, 95, 0, 1024, 1024, 1024, 1024, 0, 6, 4003, 3990, 3993, 4004, 4029, 4026, 0, 1, 8401, -90.000, 0.000, 74.900, -0.200, 0.000, -3.100, 0.1, , , , , , 96, , , 13, 13, 13
38.4803479, -120.3385616, 9.200, 16:21:27.552, 14, 0.20, 0.59, 98, 0.100, 0.100, 76.200, 375, 100, 99, 28, 24083, -20719, 5232, 5339, 19, 14, 1530919287.553, 89, 0, 1024, 1024, 1024, 1024, 0, 6, 4036, 4013, 4006, 4008, 4041, 4029, 0, 1, 8501, -90.000, 0.000, 74.900, -0.200, 0.000, -3.100, 0.1, , , , , , 96, , , 13, 13, 13
38.4803473, -120.3385617, 9.900, 16:21:27.652, 15, 0.10, 0.51, 98, 0.100, 0.000, 75.900, 375, 100, 96, 28, 24083, -20719, 5232, 5339, 19, 14, 1530919287.653, 88, 0, 1024, 1024, 1024, 1024, 0, 6, 4036, 4013, 4006, 4008, 4041, 4029, 0, 1, 8601, -90.000, 0.000, 74.900, -0.100, 0.000, -3.100, 0.0, , , , , , 96, , , 13, 13, 13
38.4803470, -120.3385617, 10.200, 16:21:27.752, 15, 0.10, 0.48, 98, 0.100, 0.000, 75.800, 375, 100, 96, 28, 24083, -20719, 5232, 5339, 19, 14, 1530919287.752, 81, 0, 1024, 1024, 1024, 1024, 0, 6, 4036, 4013, 4006, 4008, 4041, 4029, 0, 1, 8700, -90.000, 0.000, 74.900, -0.100, 0.000, -3.000, 0.0, , , , , , 96, , , 13, 13, 13
38.4803466, -120.3385617, 10.600, 16:21:27.852, 12, 0.10, 0.44, 98, 0.000, 0.100, 75.700, 375, 100, 96, 28, 24083, -20719, 5232, 5339, 19, 14, 1530919287.853, 72, 0, 1024, 1024, 1024, 1024, 0, 6, 4036, 4013, 4006, 4008, 4041, 4029, 0, 1, 8801, -89.900, 0.000, 74.900, -0.100, 0.000, -3.000, 0.0, , , , , , 96, , , 13, 13, 13
38.4803463, -120.3385618, 10.900, 16:21:27.952, 12, 0.00, 0.40, 98, 0.100, 0.200, 75.800, 375, 100, 96, 28, 24083, -20719, 5232, 5339, 19, 14, 1530919287.953, 73, 0, 1024, 1024, 1024, 1024, 0, 6, 4036, 4013, 4006, 4008, 4041, 4029, 0, 1, 8901, -89.900, 0.000, 74.900, 0.000, 0.000, -3.000, 0.0, , , , , , 96, , , 13, 13, 13
38.4803461, -120.3385618, 11.300, 16:21:28.052, 12, 0.00, 0.38, 98, 0.100, 0.400, 75.900, 375, 100, 96, 28, 24083, -20719, 5232, 5339, 19, 14, 1530919288.052, 72, 0, 1024, 1024, 1024, 1024, 0, 6, 4036, 4013, 4006, 4008, 4041, 4029, 0, 1, 9000, -89.900, 0.000, 74.900, 0.000, 0.000, -3.000, 0.0, , , , , , 96, , , 13, 13, 13
38.4803459, -120.3385618, 11.600, 16:21:28.152, 12, 0.00, 0.36, 98, 0.400, 0.600, 76.100, 375, 100, 96, 28, 24083, -20719, 5232, 5339, 19, 14, 1530919288.152, 49, 0, 1024, 1024, 1024, 1024, 0, 6, 4036, 4013, 4006, 4008, 4041, 4029, 0, 1, 9100, -89.900, 0.000, 74.900, 0.000, 0.000, -2.900, 0.0, , , , , , 96, , , 13, 13, 13
38.4803457, -120.3385618, 11.900, 16:21:28.252, 13, 0.00, 0.33, 98, 0.700, 0.800, 76.100, 375, 100, 96, 28, 24083, -20719, 5232, 5339, 19, 14, 1530919288.253, 46, 0, 1024, 1024, 1024, 1024, 0, 6, 4036, 4013, 4006, 4008, 4041, 4029, 0, 1, 9200, -89.900, 0.000, 74.900, 0.000, 0.000, -2.800, 0.0, , , , , , 96, , , 13, 13, 13
38.4803455, -120.3385618, 12.300, 16:21:28.352, 13, 0.00, 0.31, 98, 1.100, 0.900, 75.900, 375, 100, 96, 28, 24083, -20719, 5232, 5339, 19, 14, 1530919288.353, 39, 0, 1024, 1024, 1024, 1024, 0, 6, 4036, 4013, 4006, 4008, 4041, 4029, 0, 1, 9300, -89.900, 0.000, 74.900, 0.000, 0.000, -2.800, 0.0, , , , , , 96, , , 13, 13, 13
38.4803453, -120.3385617, 12.600, 16:21:28.452, 13, 0.00, 0.29, 98, 1.000, 0.900, 75.600, 375, 100, 96, 28, 24195, -17817, 5232, 5339, 19, 14, 1530919288.453, 48, 0, 1024, 1024, 1024, 1024, 0, 6, 4036, 4013, 4006, 4008, 4041, 4029, 0, 1, 9400, -89.900, 0.000, 74.900, 0.000, 0.000, -2.700, 0.0, , , , , , 96, , , 13, 13, 13
38.4803451, -120.3385616, 12.900, 16:21:28.552, 13, 0.00, 0.27, 98, 0.500, 0.800, 75.400, 375, 100, 97, 28, 24195, -17817, 5232, 5339, 19, 14, 1530919288.553, 32, 0, 1024, 1024, 1024, 1024, 0, 6, 4036, 4013, 4006, 4008, 4041, 4029, 0, 1, 9501, -89.900, 0.000, 74.900, 0.000, 0.000, -2.700, 0.0, , , , , , 96, , , 13, 13, 13
38.4803449, -120.3385615, 13.200, 16:21:28.652, 12, 0.00, 0.26, 98, 0.200, 1.000, 75.300, 375, 100, 97, 28, 24195, -17817, 5232, 5339, 19, 14, 1530919288.652, 47, 0, 1024, 1024, 1024, 1024, 0, 6, 4036, 4013, 4006, 4008, 4041, 4029, 0, 1, 9600, -89.900, 0.000, 74.900, 0.000, 0.000, -2.800, 0.0, , , , , , 96, , , 13, 13, 13
38.4803448, -120.3385613, 13.500, 16:21:28.752, 12, 0.10, 0.24, 98, 0.400, 1.500, 75.300, 375, 100, 97, 28, 24195, -17817, 5232, 5339, 19, 14, 1530919288.753, 37, 0, 1024, 1024, 1024, 1024, 0, 6, 4036, 4013, 4006, 4008, 4041, 4029, 0, 1, 9701, -89.900, 0.000, 74.900, 0.100, 0.000, -2.800, 0.0, , , , , , 96, , , 13, 13, 13
38.4803447, -120.3385611, 13.900, 16:21:28.852, 12, 0.10, 0.25, 98, 1.000, 1.900, 75.400, 375, 100, 97, 28, 24195, -17817, 5232, 5339, 19, 14, 1530919288.853, 38, 0, 1024, 1024, 1024, 1024, 0, 6, 4036, 4013, 4006, 4008, 4041, 4029, 0, 1, 9800, -89.900, 0.000, 74.900, 0.100, 0.000, -2.800, 0.0, , , , , , 96, , , 13, 13, 13
38.4803448, -120.3385609, 14.200, 16:21:28.952, 12, 0.10, 0.26, 98, 1.700, 2.300, 75.500, 375, 100, 97, 28, 24195, -17817, 5232, 5339, 19, 14, 1530919288.953, 15, 0, 1024, 1024, 1024, 1024, 0, 6, 4052, 4033, 4024, 4029, 4051, 4052, 0, 1, 9901, -89.900, 0.000, 74.900, 0.100, 0.000, -2.700, 0.0, , , , , , 96, , , 13, 13, 13
38.4803448, -120.3385608, 14.500, 16:21:29.052, 14, 0.10, 0.26, 98, 1.900, 2.600, 75.600, 375, 100, 100, 28, 24195, -17817, 5232, 5339, 19, 14, 1530919289.052, 27, 0, 1024, 1024, 1024, 1024, 0, 6, 4052, 4033, 4024, 4029, 4051, 4052, 0, 1, 10000, -89.900, 0.000, 74.900, 0.100, 0.000, -2.600, 0.0, , , , , , 96, , , 13, 13, 13
38.4803448, -120.3385608, 14.700, 16:21:29.152, 14, 0.10, 0.27, 98, 2.100, 2.500, 75.800, 375, 100, 100, 28, 24195, -17817, 5232, 5339, 19, 14, 1530919289.152, 16, 0, 1024, 1024, 1024, 1024, 0, 6, 4052, 4033, 4024, 4029, 4051, 4052, 0, 1, 10100, -89.900, 0.000, 74.900, 0.100, 0.000, -2.600, 0.0, , , , , , 96, , , 13, 13, 13
38.4803448, -120.3385607, 15.000, 16:21:29.252, 15, 0.10, 0.27, 98, 2.200, 2.400, 75.900, 375, 100, 100, 28, 24195, -17817, 5232, 5339, 19, 14, 1530919289.252, 13, 0, 1024, 1024, 1024, 1024, 0, 6, 4052, 4033, 4024, 4029, 4051, 4052, 0, 1, 10200, -89.900, 0.000, 74.900, 0.100, 0.000, -2.600, 0.0, , , , , , 96, , , 13, 13, 13
38.4803448, -120.3385607, 15.000, 16:21:29.352, 15, 0.10, 0.27, 98, 2.200, 2.400, 75.900, 375, 100, 100, 28, 24195, -17817, 5232, 5339, 19, 14, 1530919289.352, 113, 0, 1024, 1024, 1024, 1024, 0, 6, 4052, 4033, 4024, 4029, 4051, 4052, 0, 1, 10300, -89.900, 0.000, 74.900, 0.100, 0.000, -2.600, 0.0, , , , , , 96, , , 13, 13, 13
38.4803448, -120.3385606, 15.300, 16:21:29.452, 15, 0.10, 0.27, 98, 2.400, 2.400, 76.100, 375, 100, 100, 28, 24195, -17817, 5232, 5339, 19, 14, 1530919289.452, 79, 0, 1024, 1024, 1024, 1024, 0, 6, 4052, 4033, 4024, 4029, 4051, 4052, 0, 1, 10400, -89.900, 0.000, 74.900, 0.100, 0.000, -2.600, 0.0, , , , , , 96, , , 13, 13, 13
38.4803449, -120.3385605, 15.600, 16:21:29.552, 15, 0.20, 0.28, 98, 2.400, 2.600, 76.200, 375, 100, 100, 28, 24195, -17817, 5232, 5339, 19, 14, 1530919289.552, 92, 0, 1024, 1024, 1024, 1024, 0, 6, 4052, 4033, 4024, 4029, 4051, 4052, 0, 1, 10500, -89.900, 0.000, 74.900, 0.200, 0.000, -2.600, 0.1, , , , , , 96, , , 13, 13, 13
38.4803449, -120.3385603, 15.900, 16:21:29.652, 15, 0.20, 0.30, 98, 2.200, 3.000, 76.200, 375, 100, 99, 28, 24195, -17817, 5232, 5339, 19, 14, 1530919289.652, 74, 0, 1024, 1024, 1024, 1024, 0, 6, 4052, 4033, 4024, 4029, 4051, 4052, 0, 1, 10600, -89.900, 0.000, 74.900, 0.200, 0.000, -2.600, 0.1, , , , , , 96, , , 13, 13, 13
38.4803453, -120.3385602, 16.500, 16:21:29.752, 14, 0.20, 0.34, 98, 2.900, 3.200, 76.100, 375, 100, 99, 28, 24195, -17817, 5232, 5339, 19, 14, 1530919289.752, 83, 0, 1024, 1024, 1024, 1024, 0, 6, 4052, 4033, 4024, 4029, 4051, 4052, 0, 1, 10700, -89.900, 0.000, 74.900, 0.200, 0.000, -2.600, 0.1, , , , , , 96, , , 13, 13, 13
38.4803455, -120.3385602, 16.700, 16:21:29.852, 13, 0.20, 0.36, 98, 3.300, 3.400, 76.000, 375, 100, 99, 28, 24195, -17817, 5232, 5339, 19, 14, 1530919289.853, 90, 0, 1024, 1024, 1024, 1024, 0, 6, 4052, 4033, 4024, 4029, 4051, 4052, 0, 1, 10800, -89.900, 0.000, 74.900, 0.200, 0.000, -2.700, 0.1, , , , , , 96, , , 13, 13, 13
38.4803457, -120.3385601, 17.000, 16:21:29.952, 13, 0.20, 0.38, 98, 3.500, 3.600, 75.900, 375, 100, 99, 28, 24195, -17817, 5232, 5339, 19, 14, 1530919289.952, 90, 0, 1024, 1024, 1024, 1024, 0, 6, 4052, 4033, 4024, 4029, 4051, 4052, 0, 1, 10900, -89.900, 0.000, 74.900, 0.200, 0.000, -2.700, 0.1, , , , , , 96, , , 13, 13, 13
38.4803458, -120.3385602, 17.300, 16:21:30.052, 14, 0.20, 0.39, 98, 3.700, 3.500, 75.800, 375, 100, 99, 28, 24309, -16055, 5232, 5339, 19, 14, 1530919290.052, 86, 0, 1024, 1024, 1024, 1024, 0, 6, 4055, 4042, 4044, 4050, 4065, 4064, 0, 1, 11000, -89.900, 0.000, 74.900, 0.200, 0.000, -2.700, 0.1, , , , , , 96, , , 13, 13, 13
38.4803460, -120.3385603, 17.600, 16:21:30.152, 14, 0.10, 0.40, 98, 3.800, 3.000, 75.700, 375, 100, 99, 28, 24309, -16055, 5232, 5339, 19, 14, 1530919290.152, 94, 0, 1024, 1024, 1024, 1024, 0, 6, 4055, 4042, 4044, 4050, 4065, 4064, 0, 1, 11100, -89.900, 0.000, 74.900, 0.100, 0.000, -2.700, 0.0, , , , , , 96, , , 13, 13, 13
38.4803462, -120.3385605, 17.900, 16:21:30.252, 15, 0.10, 0.41, 98, 3.800, 2.400, 75.600, 375, 100, 99, 28, 24309, -16055, 5232, 5339, 19, 14, 1530919290.253, 70, 0, 1024, 1024, 1024, 1024, 0, 6, 4055, 4042, 4044, 4050, 4065, 4064, 0, 1, 11200, -89.900, 0.000, 74.900, 0.100, 0.000, -2.700, 0.0, , , , , , 96, , , 13, 13, 13
38.4803464, -120.3385607, 18.200, 16:21:30.352, 15, 0.20, 0.43, 98, 4.200, 1.800, 75.700, 375, 100, 99, 28, 24309, -16055, 5232, 5339, 19, 14, 1530919290.352, 59, 0, 1024, 1024, 1024, 1024, 0, 6, 4055, 4042, 4044, 4050, 4065, 4064, 0, 1, 11300, -89.900, 0.000, 74.900, 0.200, 0.000, -2.700, 0.1, , , , , , 96, , , 13, 13, 13
38.4803466, -120.3385609, 18.500, 16:21:30.452, 14, 0.10, 0.45, 98, 4.400, 1.400, 75.800, 375, 100, 99, 28, 24309, -16055, 5232, 5339, 19, 14, 1530919290.452, 36, 0, 1024, 1024, 1024, 1024, 0, 6, 4055, 4042, 4044, 4050, 4065, 4064, 0, 1, 11400, -90.000, 0.000, 74.900, 0.100, 0.000, -2.700, 0.0, , , , , , 96, , , 13, 13, 13
38.4803469, -120.3385610, 18.800, 16:21:30.552, 14, 0.10, 0.47, 98, 4.800, 1.200, 75.800, 375, 100, 98, 28, 24309, -16055, 5232, 5339, 19, 14, 1530919290.552, 41, 0, 1024, 1024, 1024, 1024, 0, 6, 4055, 4042, 4044, 4050, 4065, 4064, 0, 1, 11500, -90.000, 0.000, 74.900, 0.100, 0.000, -2.600, 0.0, , , , , , 96, , , 13, 13, 13
38.4803471, -120.3385612, 19.100, 16:21:30.652, 14, 0.10, 0.49, 98, 4.900, 0.900, 75.800, 375, 100, 98, 28, 24309, -16055, 5232, 5339, 19, 14, 1530919290.652, 55, 0, 1024, 1024, 1024, 1024, 0, 6, 4055, 4042, 4044, 4050, 4065, 4064, 0, 1, 11600, -90.000, 0.000, 74.900, 0.100, 0.000, -2.600, 0.0, , , , , , 96, , , 13, 13, 13
38.4803473, -120.3385613, 19.300, 16:21:30.752, 14, 0.10, 0.51, 98, 4.800, 0.800, 75.800, 375, 100, 98, 28, 24309, -16055, 5232, 5339, 19, 14, 1530919290.752, 59, 0, 1024, 1024, 1024, 1024, 0, 6, 4055, 4042, 4044, 4050, 4065, 4064, 0, 1, 11700, -90.000, 0.000, 74.900, 0.100, 0.000, -2.600, 0.0, , , , , , 96, , , 13, 13, 13
38.4803474, -120.3385614, 19.600, 16:21:30.852, 13, 0.10, 0.53, 98, 4.700, 1.000, 75.800, 375, 100, 98, 28, 24309, -16055, 5232, 5339, 19, 14, 1530919290.852, 65, 0, 1024, 1024, 1024, 1024, 0, 6, 4055, 4042, 4044, 4050, 4065, 4064, 0, 1, 11800, -90.000, 0.000, 74.900, 0.100, 0.000, -2.700, 0.0, , , , , , 96, , , 13, 13, 13
38.4803474, -120.3385614, 19.600, 16:21:30.952, 13, 0.10, 0.53, 98, 4.700, 1.000, 75.800, 375, 100, 98, 28, 24237, -17254, 5232, 5339, 19, 14, 1530919290.952, 165, 0, 1024, 1024, 1024, 1024, 0, 6, 4055, 4042, 4044, 4050, 4065, 4064, 0, 1, 11900, -90.000, 0.000, 74.900, 0.100, 0.000, -2.700, 0.0, , , , , , 96, , , 13, 13, 13
38.4803478, -120.3385616, 20.200, 16:21:31.052, 14, 0.10, 0.57, 98, 4.800, 1.200, 75.700, 375, 100, 98, 28, 24237, -17254, 5232, 5339, 19, 14, 1530919291.052, 46, 0, 1024, 1024, 1024, 1024, 0, 6, 4044, 4017, 4027, 4033, 4052, 4044, 0, 1, 12000, -89.900, 0.000, 74.900, 0.100, 0.000, -2.700, 0.0, , , , , , 96, , , 13, 13, 13
38.4803480, -120.3385617, 20.500, 16:21:31.152, 14, 0.10, 0.59, 98, 4.900, 1.400, 75.600, 375, 100, 98, 28, 24237, -17254, 5232, 5339, 19, 14, 1530919291.152, 52, 0, 1024, 1024, 1024, 1024, 0, 6, 4044, 4017, 4027, 4033, 4052, 4044, 0, 1, 12100, -89.900, 0.000, 74.900, 0.100, 0.000, -2.700, 0.0, , , , , , 96, , , 13, 13, 13
38.4803482, -120.3385617, 20.700, 16:21:31.252, 14, 0.10, 0.61, 98, 5.000, 1.700, 75.500, 375, 100, 98, 28, 24237, -17254, 5232, 5339, 19, 14, 1530919291.252, 42, 0, 1024, 1024, 1024, 1024, 0, 6, 4044, 4017, 4027, 4033, 4052, 4044, 0, 1, 12200, -89.900, 0.000, 74.900, 0.100, 0.000, -2.700, 0.0, , , , , , 96, , , 13, 13, 13
38.4803483, -120.3385618, 21.000, 16:21:31.352, 14, 0.00, 0.63, 98, 4.900, 2.200, 75.100, 375, 100, 98, 28, 24237, -17254, 5232, 5339, 19, 14, 1530919291.352, 9, 0, 1024, 1024, 1024, 1024, 0, 6, 4044, 4017, 4027, 4033, 4052, 4044, 0, 1, 12300, -89.900, 0.000, 74.900, 0.000, 0.000, -2.700, 0.0, , , , , , 96, , , 13, 13, 13
38.4803485, -120.3385618, 21.300, 16:21:31.452, 15, 0.00, 0.64, 98, 4.500, 2.400, 74.900, 375, 100, 98, 28, 24237, -17254, 5232, 5339, 19, 14, 1530919291.453, 35, 0, 1024, 1024, 1024, 1024, 0, 6, 4044, 4017, 4027, 4033, 4052, 4044, 0, 1, 12400, -89.900, 0.000, 74.900, 0.000, 0.000, -2.700, 0.0, , , , , , 96, , , 13, 13, 13
38.4803486, -120.3385618, 21.600, 16:21:31.551, 15, 0.00, 0.65, 98, 4.300, 2.300, 74.800, 375, 100, 98, 28, 24237, -17254, 5232, 5339, 19, 14, 1530919291.552, 9, 0, 1024, 1024, 1024, 1024, 0, 6, 4044, 4017, 4027, 4033, 4052, 4044, 0, 1, 12499, -89.900, 0.000, 74.900, 0.000, 0.000, -2.700, 0.0, , , , , , 96, , , 13, 13, 13
38.4803486, -120.3385618, 21.800, 16:21:31.657, 14, 0.00, 0.66, 98, 4.400, 2.100, 75.000, 375, 100, 98, 28, 24237, -17254, 5232, 5339, 19, 14, 1530919291.658, 3, 0, 1024, 1024, 1024, 1024, 0, 6, 4044, 4017, 4027, 4033, 4052, 4044, 0, 1, 12605, -89.900, 0.000, 74.900, 0.000, 0.000, -2.800, 0.0, , , , , , 96, , , 13, 13, 13
38.4803486, -120.3385618, 22.100, 16:21:31.752, 14, 0.00, 0.66, 98, 3.900, 2.000, 75.200, 375, 100, 98, 28, 24237, -17254, 5232, 5339, 19, 14, 1530919291.752, 10, 0, 1024, 1024, 1024, 1024, 0, 6, 4044, 4017, 4027, 4033, 4052, 4044, 0, 1, 12700, -89.900, 0.000, 74.900, 0.000, 0.000, -2.800, 0.0, , , , , , 96, , , 13, 13, 13
38.4803487, -120.3385618, 22.400, 16:21:31.852, 14, 0.00, 0.67, 98, 3.500, 2.100, 75.300, 375, 100, 98, 28, 24237, -17254, 5232, 5339, 19, 14, 1530919291.852, 14, 0, 1024, 1024, 1024, 1024, 0, 6, 4044, 4017, 4027, 4033, 4052, 4044, 0, 1, 12800, -89.900, 0.000, 74.900, 0.000, 0.000, -2.900, 0.0, , , , , , 96, , , 13, 13, 13
38.4803487, -120.3385618, 22.700, 16:21:31.952, 14, 0.00, 0.67, 98, 3.700, 2.100, 75.400, 375, 100, 98, 28, 24130, -18062, 5232, 5339, 19, 14, 1530919291.952, 6, 0, 1024, 1024, 1024, 1024, 0, 6, 4027, 4013, 4005, 4014, 4035, 4024, 0, 1, 12900, -89.900, 0.000, 74.900, 0.000, 0.000, -2.800, 0.0, , , , , , 96, , , 13, 13, 13
38.4803489, -120.3385620, 23.300, 16:21:32.052, 15, 0.00, 0.69, 98, 3.700, 1.700, 75.600, 375, 100, 99, 28, 24130, -18062, 5232, 5339, 19, 14, 1530919292.052, 11, 0, 1024, 1024, 1024, 1024, 0, 6, 4027, 4013, 4005, 4014, 4035, 4024, 0, 1, 13000, -89.900, 0.000, 74.900, 0.000, 0.000, -2.800, 0.0, , , , , , 96, , , 13, 13, 13
38.4803489, -120.3385620, 23.300, 16:21:32.152, 15, 0.00, 0.69, 98, 3.700, 1.700, 75.600, 375, 100, 99, 28, 24130, -18062, 5232, 5339, 19, 14, 1530919292.152, 112, 0, 1024, 1024, 1024, 1024, 0, 6, 4027, 4013, 4005, 4014, 4035, 4024, 0, 1, 13100, -89.900, 0.000, 74.900, 0.000, 0.000, -2.800, 0.0, , , , , , 96, , , 13, 13, 13
38.4803489, -120.3385620, 23.300, 16:21:32.252, 15, 0.00, 0.69, 98, 3.700, 1.700, 75.600, 375, 100, 99, 28, 24130, -18062, 5232, 5339, 19, 14, 1530919292.253, 212, 0, 1024, 1024, 1024, 1024, 0, 6, 4027, 4013, 4005, 4014, 4035, 4024, 0, 1, 13201, -89.900, 0.000, 74.900, 0.000, 0.000, -2.800, 0.0, , , , , , 96, , , 13, 13, 13
38.4803488, -120.3385621, 23.900, 16:21:32.352, 16, 0.00, 0.68, 98, 4.200, 2.000, 75.400, 375, 100, 99, 28, 24130, -18062, 5232, 5339, 19, 14, 1530919292.352, 76, 0, 1024, 1024, 1024, 1024, 0, 6, 4027, 4013, 4005, 4014, 4035, 4024, 0, 1, 13300, -89.900, 0.000, 74.900, 0.000, 0.000, -2.900, 0.0, , , , , , 96, , , 13, 13, 13
38.4803488, -120.3385622, 24.200, 16:21:32.452, 17, 0.00, 0.67, 98, 3.600, 2.200, 75.200, 375, 100, 99, 28, 24130, -18062, 5232, 5339, 19, 14, 1530919292.452, 84, 0, 1024, 1024, 1024, 1024, 0, 6, 4027, 4013, 4005, 4014, 4035, 4024, 0, 1, 13400, -89.900, 0.000, 74.900, 0.000, 0.000, -2.900, 0.0, , , , , , 96, , , 13, 13, 13
38.4803487, -120.3385622, 24.500, 16:21:32.552, 17, 0.00, 0.67, 98, 3.200, 2.100, 75.000, 375, 100, 99, 28, 24130, -18062, 5232, 5339, 19, 14, 1530919292.552, 63, 0, 1024, 1024, 1024, 1024, 0, 6, 4027, 4013, 4005, 4014, 4035, 4024, 0, 1, 13500, -89.900, 0.000, 74.900, 0.000, 0.000, -2.900, 0.0, , , , , , 96, , , 13, 13, 13
38.4803487, -120.3385622, 24.800, 16:21:32.652, 16, 0.00, 0.67, 98, 3.300, 2.100, 75.000, 375, 100, 100, 28, 24130, -18062, 5232, 5339, 19, 14, 1530919292.652, 54, 0, 1024, 1024, 1024, 1024, 0, 6, 4027, 4013, 4005, 4014, 4035, 4024, 0, 1, 13600, -89.900, 0.000, 74.900, 0.000, 0.000, -2.900, 0.0, , , , , , 96, , , 13, 13, 13
38.4803486, -120.3385623, 25.100, 16:21:32.752, 16, 0.00, 0.66, 98, 3.200, 1.900, 75.200, 375, 100, 100, 28, 24130, -18062, 5232, 5339, 19, 14, 1530919292.752, 68, 0, 1024, 1024, 1024, 1024, 0, 6, 4027, 4013, 4005, 4014, 4035, 4024, 0, 1, 13700, -89.900, 0.000, 74.900, 0.000, 0.000, -2.900, 0.0, , , , , , 96, , , 13, 13, 13
38.4803485, -120.3385623, 25.400, 16:21:32.852, 18, 0.00, 0.65, 98, 3.200, 1.100, 75.500, 375, 100, 100, 28, 24130, -18062, 5232, 5339, 19, 14, 1530919292.852, 49, 0, 1024, 1024, 1024, 1024, 0, 6, 4027, 4013, 4005, 4014, 4035, 4024, 0, 1, 13800, -89.900, 0.000, 74.900, 0.000, 0.000, -2.900, 0.0, , , , , , 96, , , 13, 13, 13
38.4803485, -120.3385623, 25.700, 16:21:32.952, 18, 0.00, 0.65, 98, 3.200, 1.100, 76.000, 375, 100, 100, 28, 24130, -18062, 5232, 5339, 19, 14, 1530919292.952, 63, 0, 1024, 1024, 1024, 1024, 0, 6, 4027, 4013, 4005, 4014, 4035, 4024, 0, 1, 13900, -89.900, 0.000, 74.900, 0.000, 0.000, -2.900, 0.0, , , , , , 96, , , 13, 13, 13
38.4803484, -120.3385623, 26.100, 16:21:33.052, 17, 0.00, 0.64, 98, 3.500, 1.100, 76.300, 375, 100, 100, 28, 24062, -18726, 5178, 5339, 19, 14, 1530919293.052, 54, 0, 1024, 1024, 1024, 1024, 0, 6, 4025, 3999, 4008, 4008, 4032, 4017, 0, 1, 14000, -89.900, 0.000, 74.900, 0.000, 0.000, -3.000, 0.0, , , , , , 96, , , 13, 13, 13
38.4803483, -120.3385623, 26.400, 16:21:33.152, 17, 0.00, 0.62, 98, 3.200, 1.200, 76.400, 375, 100, 100, 28, 24062, -18726, 5178, 5339, 19, 14, 1530919293.152, 47, 0, 1024, 1024, 1024, 1024, 0, 6, 4025, 3999, 4008, 4008, 4032, 4017, 0, 1, 14100, -89.900, 0.000, 74.900, 0.000, 0.000, -2.900, 0.0, , , , , , 96, , , 13, 13, 13
38.4803482, -120.3385622, 26.700, 16:21:33.252, 17, 0.00, 0.61, 98, 2.900, 1.700, 76.600, 375, 100, 100, 28, 24062, -18726, 5178, 5339, 19, 14, 1530919293.252, 50, 0, 1024, 1024, 1024, 1024, 0, 6, 4025, 3999, 4008, 4008, 4032, 4017, 0, 1, 14200, -89.900, 0.000, 74.900, 0.000, 0.000, -2.900, 0.0, , , , , , 96, , , 13, 13, 13
38.4803481, -120.3385621, 27.000, 16:21:33.352, 17, 0.00, 0.60, 98, 2.600, 2.200, 76.500, 375, 100, 100, 28, 24062, -18726, 5178, 5339, 19, 14, 1530919293.352, 46, 0, 1024, 1024, 1024, 1024, 0, 6, 4025, 3999, 4008, 4008, 4032, 4017, 0, 1, 14300, -89.900, 0.000, 74.900, 0.000, 0.000, -2.900, 0.0, , , , , , 96, , , 13, 13, 13
38.4803479, -120.3385621, 27.300, 16:21:33.452, 17, 0.00, 0.58, 98, 2.300, 2.400, 76.200, 375, 100, 100, 28, 24062, -18726, 5178, 5339, 19, 14, 1530919293.452, 35, 0, 1024, 1024, 1024, 1024, 0, 6, 4025, 3999, 4008, 4008, 4032, 4017, 0, 1, 14400, -89.900, 0.000, 74.900, 0.000, 0.000, -2.900, 0.0, , , , , , 96, , , 13, 13, 13
38.4803478, -120.3385620, 27.600, 16:21:33.552, 17, 0.00, 0.57, 98, 2.000, 2.300, 75.900, 375, 100, 100, 28, 24062, -18726, 5178, 5339, 19, 14, 1530919293.552, 37, 0, 1024, 1024, 1024, 1024, 0, 6, 4025, 3999, 4008, 4008, 4032, 4017, 0, 1, 14500, -89.900, 0.000, 74.900, 0.000, 0.000, -2.900, 0.0, , , , , , 96, , , 13, 13, 13
38.4803477, -120.3385620, 28.000, 16:21:33.652, 17, 0.00, 0.56, 98, 1.900, 2.100, 75.900, 375, 100, 100, 28, 24062, -18726, 5178, 5339, 19, 14, 1530919293.652, 18, 0, 1024, 1024, 1024, 1024, 0, 6, 4025, 3999, 4008, 4008, 4032, 4017, 0, 1, 14600, -89.900, 0.000, 74.900, 0.000, 0.000, -2.900, 0.0, , , , , , 96, , , 13, 13, 13
38.4803477, -120.3385620, 28.300, 16:21:33.752, 17, 0.00, 0.55, 98, 2.300, 1.900, 75.900, 375, 100, 100, 28, 24062, -18726, 5178, 5339, 19, 14, 1530919293.752, 8, 0, 1024, 1024, 1024, 1024, 0, 6, 4025, 3999, 4008, 4008, 4032, 4017, 0, 1, 14700, -89.900, 0.000, 74.900, 0.000, 0.000, -2.900, 0.0, , , , , , 96, , , 13, 13, 13
38.4803476, -120.3385619, 28.600, 16:21:33.852, 17, 0.00, 0.55, 98, 2.700, 1.900, 76.000, 375, 100, 100, 28, 24062, -18726, 5178, 5339, 19, 14, 1530919293.852, 7, 0, 1024, 1024, 1024, 1024, 0, 6, 4025, 3999, 4008, 4008, 4032, 4017, 0, 1, 14800, -89.900, 0.000, 74.900, 0.000, 0.000, -2.900, 0.0, , , , , , 96, , , 13, 13, 13
38.4803476, -120.3385618, 28.900, 16:21:33.952, 17, 0.00, 0.54, 97, 3.000, 2.200, 76.100, 375, 100, 100, 28, 24107, -17655, 5178, 5339, 19, 14, 1530919293.952, 11, 0, 1024, 1024, 1024, 1024, 0, 6, 4025, 3999, 4008, 4008, 4032, 4017, 0, 1, 14900, -89.900, 0.000, 74.900, 0.000, 0.000, -2.800, 0.0, , , , , , 96, , , 13, 13, 13
38.4803475, -120.3385618, 29.200, 16:21:34.052, 17, 0.00, 0.54, 97, 3.100, 2.400, 76.300, 375, 100, 100, 28, 24107, -17655, 5178, 5339, 19, 14, 1530919294.052, 4, 0, 1024, 1024, 1024, 1024, 0, 6, 4025, 3999, 4008, 4008, 4032, 4017, 0, 1, 15000, -89.900, 0.000, 74.900, 0.000, 0.000, -2.800, 0.0, , , , , , 96, , , 13, 13, 13
38.4803475, -120.3385618, 29.200, 16:21:34.152, 17, 0.00, 0.54, 97, 3.100, 2.400, 76.300, 375, 100, 100, 28, 24107, -17655, 5178, 5339, 19, 14, 1530919294.152, 103, 0, 1024, 1024, 1024, 1024, 0, 6, 4025, 3999, 4008, 4008, 4032, 4017, 0, 1, 15100, -89.900, 0.000, 74.900, 0.000, 0.000, -2.800, 0.0, , , , , , 96, , , 13, 13, 13
38.4803475, -120.3385616, 29.800, 16:21:34.255, 17, 0.00, 0.54, 97, 3.000, 2.600, 76.500, 375, 100, 100, 28, 24107, -17655, 5178, 5339, 19, 14, 1530919294.256, 2, 0, 1024, 1024, 1024, 1024, 0, 6, 4025, 3999, 4008, 4008, 4032, 4017, 0, 1, 15203, -89.900, 0.000, 74.900, 0.000, 0.000, -2.700, 0.0, , , , , , 96, , , 13, 13, 13
38.4803475, -120.3385616, 30.100, 16:21:34.352, 17, 0.00, 0.54, 97, 3.200, 2.600, 76.600, 375, 100, 100, 28, 24107, -17655, 5178, 5339, 19, 14, 1530919294.353, 2, 0, 1024, 1024, 1024, 1024, 0, 6, 4025, 3999, 4008, 4008, 4032, 4017, 0, 1, 15300, -89.900, 0.000, 74.900, 0.000, 0.000, -2.700, 0.0, , , , , , 96, , , 13, 13, 13
38.4803476, -120.3385615, 30.700, 16:21:34.452, 17, 0.00, 0.55, 97, 3.500, 2.700, 76.300, 375, 100, 100, 28, 24107, -17655, 5178, 5339, 19, 14, 1530919294.452, 2, 0, 1024, 1024, 1024, 1024, 0, 6, 4034, 4007, 3998, 4008, 4034, 4025, 0, 1, 15400, -89.900, 0.000, 74.900, 0.000, 0.000, -2.900, 0.0, , , , , , 96, , , 13, 13, 13
38.4803477, -120.3385615, 31.000, 16:21:34.566, 17, 0.00, 0.56, 97, 4.000, 2.900, 76.100, 375, 100, 99, 28, 24107, -17655, 5178, 5339, 19, 14, 1530919294.566, 2, 0, 1024, 1024, 1024, 1024, 0, 6, 4034, 4007, 3998, 4008, 4034, 4025, 0, 1, 15514, -89.900, 0.000, 74.900, 0.000, 0.000, -2.900, 0.0, , , , , , 96, , , 13, 13, 13
38.4803477, -120.3385615, 31.000, 16:21:34.652, 17, 0.00, 0.56, 97, 4.000, 2.900, 76.100, 375, 100, 99, 28, 24107, -17655, 5178, 5339, 19, 14, 1530919294.652, 87, 0, 1024, 1024, 1024, 1024, 0, 6, 4034, 4007, 3998, 4008, 4034, 4025, 0, 1, 15600, -89.900, 0.000, 74.900, 0.000, 0.000, -2.900, 0.0, , , , , , 96, , , 13, 13, 13
38.4803478, -120.3385614, 31.300, 16:21:34.752, 17, 0.10, 0.57, 97, 4.600, 2.800, 75.900, 375, 100, 99, 28, 24107, -17655, 5178, 5339, 19, 14, 1530919294.752, 89, 0, 1024, 1024, 1024, 1024, 0, 6, 4034, 4007, 3998, 4008, 4034, 4025, 0, 1, 15700, -89.900, 0.000, 74.900, 0.100, 0.000, -2.900, 0.0, , , , , , 96, , , 13, 13, 13
38.4803479, -120.3385613, 31.600, 16:21:34.852, 17, 0.10, 0.58, 97, 4.800, 3.000, 76.000, 375, 100, 99, 28, 24107, -17655, 5178, 5339, 19, 14, 1530919294.852, 69, 0, 1024, 1024, 1024, 1024, 0, 6, 4034, 4007, 3998, 4008, 4034, 4025, 0, 1, 15800, -89.900, 0.000, 74.900, 0.100, 0.000, -2.800, 0.0, , , , , , 96, , , 13, 13, 13
38.4803479, -120.3385612, 31.900, 16:21:34.952, 17, 0.10, 0.59, 97, 4.700, 3.300, 76.100, 375, 100, 99, 28, 24107, -17655, 5178, 5339, 19, 14, 1530919294.952, 70, 0, 1024, 1024, 1024, 1024, 0, 6, 4034, 4007, 3998, 4008, 4034, 4025, 0, 1, 15900, -89.900, 0.000, 74.900, 0.100, 0.000, -2.800, 0.0, , , , , , 96, , , 13, 13, 13
38.4803480, -120.3385611, 32.200, 16:21:35.052, 17, 0.00, 0.60, 97, 4.500, 3.700, 76.300, 375, 100, 99, 28, 24107, -17655, 5178, 5339, 19, 14, 1530919295.052, 74, 0, 1024, 1024, 1024, 1024, 0, 6, 4034, 4007, 3998, 4008, 4034, 4025, 0, 1, 16000, -89.900, 0.000, 74.900, 0.000, 0.000, -2.800, 0.0, , , , , , 96, , , 13, 13, 13
38.4803481, -120.3385610, 32.500, 16:21:35.152, 17, 0.00, 0.61, 97, 4.200, 4.100, 76.300, 375, 100, 99, 28, 24107, -17655, 5178, 5339, 19, 14, 1530919295.152, 59, 0, 1024, 1024, 1024, 1024, 0, 6, 4034, 4007, 3998, 4008, 4034, 4025, 0, 1, 16100, -89.900, 0.000, 74.900, 0.000, 0.000, -2.900, 0.0, , , , , , 96, , , 13, 13, 13
38.4803481, -120.3385609, 32.800, 16:21:35.252, 17, 0.00, 0.62, 97, 4.300, 4.000, 76.300, 375, 100, 99, 28, 24107, -17655, 5178, 5339, 19, 14, 1530919295.252, 63, 0, 1024, 1024, 1024, 1024, 0, 6, 4034, 4007, 3998, 4008, 4034, 4025, 0, 1, 16200, -89.900, 0.000, 74.900, 0.000, 0.000, -2.800, 0.0, , , , , , 96, , , 13, 13, 13
38.4803482, -120.3385608, 33.100, 16:21:35.352, 17, 0.00, 0.63, 97, 4.600, 3.900, 76.100, 375, 100, 99, 28, 24107, -17655, 5178, 5339, 19, 14, 1530919295.352, 64, 0, 1024, 1024, 1024, 1024, 0, 6, 4034, 4007, 3998, 4008, 4034, 4025, 0, 1, 16300, -89.900, 0.000, 74.900, 0.000, 0.000, -2.800, 0.0, , , , , , 96, , , 13, 13, 13
38.4803483, -120.3385607, 33.400, 16:21:35.452, 17, 0.00, 0.63, 97, 4.800, 3.900, 75.700, 375, 100, 99, 28, 24129, -17114, 5178, 5339, 19, 14, 1530919295.452, 35, 0, 1024, 1024, 1024, 1024, 0, 6, 4026, 4014, 4010, 4004, 4040, 4022, 0, 1, 16400, -89.900, 0.000, 74.900, 0.000, 0.000, -2.800, 0.0, , , , , , 96, , , 13, 13, 13
38.4803483, -120.3385606, 33.700, 16:21:35.552, 17, 0.00, 0.64, 97, 4.600, 3.600, 75.400, 375, 100, 97, 28, 24129, -17114, 5178, 5339, 19, 14, 1530919295.552, 52, 0, 1024, 1024, 1024, 1024, 0, 6, 4026, 4014, 4010, 4004, 4040, 4022, 0, 1, 16500, -89.900, 0.000, 74.900, 0.000, 0.000, -2.800, 0.0, , , , , , 96, , , 13, 13, 13
38.4803484, -120.3385606, 34.000, 16:21:35.652, 17, 0.00, 0.65, 97, 4.500, 3.500, 75.400, 375, 100, 97, 28, 24129, -17114, 5178, 5339, 19, 14, 1530919295.652, 33, 0, 1024, 1024, 1024, 1024, 0, 6, 4026, 4014, 4010, 4004, 4040, 4022, 0, 1, 16600, -89.900, 0.000, 74.900, 0.000, 0.000, -2.800, 0.0, , , , , , 96, , , 13, 13, 13
38.4803484, -120.3385606, 34.300, 16:21:35.752, 17, 0.00, 0.65, 97, 4.400, 3.500, 75.600, 375, 100, 97, 28, 24129, -17114, 5178, 5339, 19, 14, 1530919295.752, 46, 0, 1024, 1024, 1024, 1024, 0, 6, 4026, 4014, 4010, 4004, 4040, 4022, 0, 1, 16700, -89.900, 0.000, 74.900, 0.000, 0.000, -2.800, 0.0, , , , , , 96, , , 13, 13, 13
38.4803485, -120.3385605, 34.600, 16:21:35.852, 17, 0.00, 0.66, 97, 4.400, 3.500, 75.800, 375, 100, 97, 28, 24129, -17114, 5178, 5339, 19, 14, 1530919295.852, 50, 0, 1024, 1024, 1024, 1024, 0, 6, 4026, 4014, 4010, 4004, 4040, 4022, 0, 1, 16800, -89.900, 0.000, 74.900, 0.000, 0.000, -2.800, 0.0, , , , , , 96, , , 13, 13, 13
38.4803485, -120.3385604, 34.900, 16:21:35.952, 17, 0.00, 0.66, 97, 4.400, 3.600, 76.100, 375, 100, 97, 28, 24129, -17114, 5178, 5339, 19, 14, 1530919295.952, 16, 0, 1024, 1024, 1024, 1024, 0, 6, 4026, 4014, 4010, 4004, 4040, 4022, 0, 1, 16900, -89.900, 0.000, 74.900, 0.000, 0.000, -2.800, 0.0, , , , , , 96, , , 13, 13, 13
38.4803486, -120.3385603, 35.200, 16:21:36.052, 17, 0.00, 0.67, 97, 4.600, 3.700, 76.400, 375, 100, 98, 28, 24129, -17114, 5178, 5339, 19, 14, 1530919296.052, 22, 0, 1024, 1024, 1024, 1024, 0, 6, 4026, 4014, 4010, 4004, 4040, 4022, 0, 1, 17000, -89.900, 0.000, 74.900, 0.000, 0.000, -2.800, 0.0, , , , , , 96, , , 13, 13, 13
38.4803486, -120.3385603, 35.500, 16:21:36.152, 17, 0.00, 0.68, 97, 4.900, 3.700, 76.600, 375, 100, 98, 28, 24129, -17114, 5178, 5339, 19, 14, 1530919296.152, 16, 0, 1024, 1024, 1024, 1024, 0, 6, 4026, 4014, 4010, 4004, 4040, 4022, 0, 1, 17100, -89.900, 0.000, 74.900, 0.000, 0.000, -2.800, 0.0, , , , , , 96, , , 13, 13, 13
38.4803487, -120.3385603, 35.800, 16:21:36.252, 17, 0.00, 0.69, 97, 5.200, 3.600, 76.700, 375, 100, 98, 28, 24129, -17114, 5178, 5339, 19, 14, 1530919296.252, 10, 0, 1024, 1024, 1024, 1024, 0, 6, 4026, 4014, 4010, 4004, 4040, 4022, 0, 1, 17200, -89.900, 0.000, 74.900, 0.000, 0.000, -2.800, 0.0, , , , , , 96, , , 13, 13, 13
38.4803488, -120.3385602, 36.100, 16:21:36.352, 17, 0.00, 0.70, 97, 5.500, 3.400, 76.700, 375, 100, 98, 28, 24129, -17114, 5178, 5339, 19, 14, 1530919296.352, 16, 0, 1024, 1024, 1024, 1024, 0, 6, 4026, 4014, 4010, 4004, 4040, 4022, 0, 1, 17300, -89.900, 0.000, 74.900, 0.000, 0.000, -2.800, 0.0, , , , , , 96, , , 13, 13, 13
38.4803488, -120.3385603, 36.400, 16:21:36.452, 17, 0.00, 0.70, 97, 5.500, 3.400, 76.700, 375, 100, 98, 28, 24115, -17072, 5178, 5339, 19, 14, 1530919296.452, 9, 0, 1024, 1024, 1024, 1024, 0, 6, 4028, 4018, 4005, 4008, 4045, 4024, 0, 1, 17400, -89.900, 0.000, 74.900, 0.000, 0.000, -2.700, 0.0, , , , , , 96, , , 13, 13, 13
38.4803488, -120.3385603, 36.700, 16:21:36.552, 17, 0.00, 0.70, 97, 5.400, 3.300, 76.600, 375, 100, 98, 28, 24115, -17072, 5178, 5339, 19, 14, 1530919296.552, 11, 0, 1024, 1024, 1024, 1024, 0, 6, 4028, 4018, 4005, 4008, 4045, 4024, 0, 1, 17500, -89.900, 0.000, 74.900, 0.000, 0.000, -2.700, 0.0, , , , , , 96, , , 13, 13, 13
38.4803488, -120.3385603, 37.000, 16:21:36.662, 17, 0.00, 0.70, 97, 4.900, 3.200, 76.500, 375, 100, 98, 28, 24115, -17072, 5178, 5339, 19, 14, 1530919296.662, 2, 0, 1024, 1024, 1024, 1024, 0, 6, 4028, 4018, 4005, 4008, 4045, 4024, 0, 1, 17610, -89.900, 0.000, 74.900, 0.000, 0.000, -2.800, 0.0, , , , , , 96, , , 13, 13, 13
38.4803488, -120.3385603, 37.000, 16:21:36.752, 17, 0.00, 0.70, 97, 4.900, 3.200, 76.500, 375, 100, 98, 28, 24115, -17072, 5178, 5339, 19, 14, 1530919296.752, 92, 0, 1024, 1024, 1024, 1024, 0, 6, 4028, 4018, 4005, 4008, 4045, 4024, 0, 1, 17700, -89.900, 0.000, 74.900, 0.000, 0.000, -2.800, 0.0, , , , , , 96, , , 13, 13, 13
38.4803488, -120.3385604, 37.700, 16:21:36.854, 17, 0.00, 0.70, 97, 5.200, 2.600, 76.200, 375, 100, 98, 28, 24115, -17072, 5178, 5339, 19, 14, 1530919296.854, 2, 0, 1024, 1024, 1024, 1024, 0, 6, 4028, 4018, 4005, 4008, 4045, 4024, 0, 1, 17802, -90.000, 0.000, 74.900, 0.000, 0.000, -2.900, 0.0, , , , , , 96, , , 13, 13, 13
38.4803488, -120.3385605, 37.900, 16:21:36.951, 17, 0.00, 0.70, 97, 5.300, 2.300, 76.100, 375, 100, 98, 28, 24115, -17072, 5178, 5339, 19, 14, 1530919296.951, 2, 0, 1024, 1024, 1024, 1024, 0, 6, 4028, 4018, 4005, 4008, 4045, 4024, 0, 1, 17899, -90.000, 0.000, 74.900, 0.000, 0.000, -2.700, 0.0, , , , , , 96, , , 13, 13, 13
38.4803488, -120.3385605, 37.900, 16:21:37.052, 17, 0.00, 0.70, 97, 5.300, 2.300, 76.100, 375, 100, 98, 28, 24115, -17072, 5178, 5339, 19, 14, 1530919297.052, 103, 0, 1024, 1024, 1024, 1024, 0, 6, 4028, 4018, 4005, 4008, 4045, 4024, 0, 1, 18000, -90.000, 0.000, 74.900, 0.000, 0.000, -2.700, 0.0, , , , , , 96, , , 13, 13, 13
38.4803488, -120.3385606, 38.500, 16:21:37.152, 18, 0.00, 0.70, 97, 5.000, 2.400, 76.000, 375, 100, 100, 28, 24115, -17072, 5178, 5339, 19, 14, 1530919297.152, 87, 0, 1024, 1024, 1024, 1024, 0, 6, 4028, 4018, 4005, 4008, 4045, 4024, 0, 1, 18100, -89.900, 0.000, 74.900, 0.000, 0.000, -2.600, 0.0, , , , , , 96, , , 13, 13, 13
38.4803488, -120.3385606, 38.700, 16:21:37.252, 18, 0.00, 0.70, 97, 4.900, 2.700, 76.000, 375, 100, 100, 28, 24115, -17072, 5178, 5339, 19, 14, 1530919297.252, 97, 0, 1024, 1024, 1024, 1024, 0, 6, 4028, 4018, 4005, 4008, 4045, 4024, 0, 1, 18200, -89.900, 0.000, 74.900, 0.000, 0.000, -2.600, 0.0, , , , , , 96, , , 13, 13, 13
38.4803489, -120.3385607, 39.000, 16:21:37.352, 18, 0.00, 0.70, 97, 5.000, 2.700, 76.100, 375, 100, 100, 28, 24115, -17072, 5178, 5339, 19, 14, 1530919297.352, 91, 0, 1024, 1024, 1024, 1024, 0, 6, 4028, 4018, 4005, 4008, 4045, 4024, 0, 1, 18300, -89.900, 0.000, 74.900, 0.000, 0.000, -2.700, 0.0, , , , , , 96, , , 13, 13, 13
38.4803489, -120.3385607, 39.300, 16:21:37.452, 18, 0.00, 0.70, 97, 5.600, 2.700, 76.200, 375, 100, 100, 28, 24115, -17072, 5178, 5339, 19, 14, 1530919297.452, 79, 0, 1024, 1024, 1024, 1024, 0, 6, 4028, 4018, 4005, 4008, 4045, 4024, 0, 1, 18400, -89.900, 0.000, 74.900, 0.000, 0.000, -2.800, 0.0, , , , , , 96, , , 13, 13, 13
38.4803489, -120.3385608, 39.600, 16:21:37.552, 18, 0.00, 0.71, 97, 6.000, 2.700, 76.200, 375, 100, 100, 29, 24156, -16289, 5178, 5339, 19, 14, 1530919297.552, 81, 0, 1024, 1024, 1024, 1024, 0, 6, 4038, 4014, 4014, 4014, 4046, 4029, 0, 1, 18500, -89.900, 0.000, 74.900, 0.000, 0.000, -2.900, 0.0, , , , , , 96, , , 13, 13, 13
38.4803490, -120.3385609, 39.900, 16:21:37.652, 18, 0.00, 0.71, 97, 5.800, 2.600, 76.000, 375, 100, 100, 29, 24156, -16289, 5178, 5339, 19, 14, 1530919297.652, 60, 0, 1024, 1024, 1024, 1024, 0, 6, 4038, 4014, 4014, 4014, 4046, 4029, 0, 1, 18600, -89.900, 0.000, 74.900, 0.000, 0.000, -2.900, 0.0, , , , , , 96, , , 13, 13, 13
38.4803490, -120.3385610, 40.200, 16:21:37.752, 18, 0.00, 0.71, 97, 5.800, 2.700, 75.600, 375, 100, 100, 29, 24156, -16289, 5178, 5339, 19, 14, 1530919297.752, 48, 0, 1024, 1024, 1024, 1024, 0, 6, 4038, 4014, 4014, 4014, 4046, 4029, 0, 1, 18700, -89.900, 0.000, 74.900, 0.000, 0.000, -2.800, 0.0, , , , , , 96, , , 13, 13, 13
38.4803489, -120.3385610, 40.500, 16:21:37.852, 18, 0.00, 0.70, 97, 5.700, 2.800, 75.100, 375, 100, 100, 29, 24156, -16289, 5178, 5339, 19, 14, 1530919297.852, 48, 0, 1024, 1024, 1024, 1024, 0, 6, 4038, 4014, 4014, 4014, 4046, 4029, 0, 1, 18800, -89.900, 0.000, 74.900, 0.000, 0.000, -2.700, 0.0, , , , , , 96, , , 13, 13, 13
38.4803488, -120.3385610, 40.800, 16:21:37.952, 18, 0.00, 0.69, 97, 5.400, 2.700, 74.800, 375, 100, 100, 29, 24156, -16289, 5178, 5339, 19, 14, 1530919297.952, 51, 0, 1024, 1024, 1024, 1024, 0, 6, 4038, 4014, 4014, 4014, 4046, 4029, 0, 1, 18900, -89.900, 0.000, 74.900, 0.000, 0.000, -2.700, 0.0, , , , , , 96, , , 13, 13, 13
38.4803487, -120.3385609, 41.000, 16:21:38.052, 18, 0.00, 0.68, 97, 4.700, 2.600, 74.700, 375, 100, 100, 29, 24156, -16289, 5178, 5339, 19, 14, 1530919298.052, 52, 0, 1024, 1024, 1024, 1024, 0, 6, 4038, 4014, 4014, 4014, 4046, 4029, 0, 1, 19000, -89.900, 0.000, 74.900, 0.000, 0.000, -2.700, 0.0, , , , , , 96, , , 13, 13, 13
38.4803486, -120.3385609, 41.300, 16:21:38.152, 18, 0.10, 0.66, 97, 4.100, 2.600, 74.800, 375, 100, 100, 29, 24156, -16289, 5178, 5339, 19, 14, 1530919298.152, 50, 0, 1024, 1024, 1024, 1024, 0, 6, 4038, 4014, 4014, 4014, 4046, 4029, 0, 1, 19100, -89.900, 0.000, 74.900, -0.100, 0.000, -2.700, 0.0, , , , , , 96, , , 13, 13, 13
38.4803484, -120.3385609, 41.600, 16:21:38.252, 18, 0.10, 0.65, 97, 3.500, 2.700, 75.000, 375, 100, 100, 29, 24156, -16289, 5178, 5339, 19, 14, 1530919298.252, 44, 0, 1024, 1024, 1024, 1024, 0, 6, 4038, 4014, 4014, 4014, 4046, 4029, 0, 1, 19200, -89.900, 0.000, 74.900, -0.100, 0.000, -2.800, 0.0, , , , , , 96, , , 13, 13, 13
38.4803483, -120.3385608, 41.800, 16:21:38.352, 18, 0.10, 0.63, 97, 3.100, 2.900, 75.300, 375, 100, 100, 29, 24156, -16289, 5178, 5339, 19, 14, 1530919298.352, 46, 0, 1024, 1024, 1024, 1024, 0, 6, 4038, 4014, 4014, 4014, 4046, 4029, 0, 1, 19300, -89.900, 0.000, 74.900, -0.100, 0.000, -2.800, 0.0, , , , , , 96, , , 13, 13, 13
38.4803481, -120.3385608, 42.100, 16:21:38.452, 18, 0.10, 0.61, 97, 2.600, 3.400, 75.500, 375, 100, 100, 29, 24004, -17352, 5178, 5339, 19, 14, 1530919298.452, 16, 0, 1024, 1024, 1024, 1024, 0, 6, 4003, 3988, 3985, 3985, 4026, 4004, 0, 1, 19400, -89.900, 0.000, 74.900, -0.100, 0.000, -2.800, 0.0, , , , , , 96, , , 13, 13, 13
38.4803479, -120.3385607, 42.400, 16:21:38.552, 18, 0.10, 0.59, 97, 1.900, 3.800, 75.900, 375, 100, 100, 29, 24004, -17352, 5178, 5339, 19, 14, 1530919298.552, 19, 0, 1024, 1024, 1024, 1024, 0, 6, 4003, 3988, 3985, 3985, 4026, 4004, 0, 1, 19500, -89.900, 0.000, 74.900, -0.100, 0.000, -2.900, 0.0, , , , , , 96, , , 13, 13, 13
38.4803478, -120.3385607, 42.700, 16:21:38.652, 18, 0.10, 0.58, 97, 1.700, 3.700, 76.300, 375, 100, 100, 29, 24004, -17352, 5178, 5339, 19, 14, 1530919298.652, 12, 0, 1024, 1024, 1024, 1024, 0, 6, 4003, 3988, 3985, 3985, 4026, 4004, 0, 1, 19600, -89.900, 0.000, 74.900, -0.100, 0.000, -2.900, 0.0, , , , , , 96, , , 13, 13, 13
38.4803478, -120.3385607, 42.700, 16:21:38.752, 18, 0.10, 0.58, 97, 1.700, 3.700, 76.300, 375, 100, 100, 29, 24004, -17352, 5178, 5339, 19, 14, 1530919298.752, 112, 0, 1024, 1024, 1024, 1024, 0, 6, 4003, 3988, 3985, 3985, 4026, 4004, 0, 1, 19700, -89.900, 0.000, 74.900, -0.100, 0.000, -2.900, 0.0, , , , , , 96, , , 13, 13, 13
38.4803476, -120.3385607, 43.300, 16:21:38.852, 18, 0.00, 0.56, 97, 2.100, 3.100, 76.800, 375, 100, 100, 29, 24004, -17352, 5178, 5339, 19, 14, 1530919298.852, 14, 0, 1024, 1024, 1024, 1024, 0, 6, 4003, 3988, 3985, 3985, 4026, 4004, 0, 1, 19800, -89.900, 0.000, 74.900, 0.000, 0.000, -3.000, 0.0, , , , , , 96, , , 13, 13, 13
38.4803476, -120.3385608, 43.600, 16:21:38.951, 18, 0.00, 0.56, 97, 2.500, 3.000, 76.800, 375, 100, 100, 29, 24004, -17352, 5178, 5339, 19, 14, 1530919298.952, 7, 0, 1024, 1024, 1024, 1024, 0, 6, 4003, 3988, 3985, 3985, 4026, 4004, 0, 1, 19900, -89.900, 0.000, 74.900, 0.000, 0.000, -3.100, 0.0, , , , , , 96, , , 13, 13, 13
38.4803476, -120.3385609, 44.000, 16:21:39.052, 18, 0.00, 0.55, 97, 3.100, 2.800, 76.600, 375, 100, 100, 29, 24004, -17352, 5178, 5339, 19, 14, 1530919299.052, 22, 0, 1024, 1024, 1024, 1024, 0, 6, 4003, 3988, 3985, 3985, 4026, 4004, 0, 1, 20000, -89.900, 0.000, 74.900, 0.000, 0.000, -3.100, 0.0, , , , , , 96, , , 13, 13, 13
38.4803476, -120.3385610, 44.300, 16:21:39.152, 18, 0.00, 0.55, 97, 3.800, 2.600, 76.500, 375, 100, 100, 29, 24004, -17352, 5178, 5339, 19, 14, 1530919299.152, 3, 0, 1024, 1024, 1024, 1024, 0, 6, 4003, 3988, 3985, 3985, 4026, 4004, 0, 1, 20100, -90.000, 0.000, 74.900, 0.000, 0.000, -3.100, 0.0, , , , , , 96, , , 13, 13, 13
38.4803476, -120.3385611, 44.700, 16:21:39.251, 18, 0.00, 0.55, 97, 4.000, 2.500, 76.400, 375, 100, 100, 29, 24004, -17352, 5178, 5339, 19, 14, 1530919299.252, 18, 0, 1024, 1024, 1024, 1024, 0, 6, 4003, 3988, 3985, 3985, 4026, 4004, 0, 1, 20200, -90.000, 0.000, 74.900, 0.000, 0.000, -3.000, 0.0, , , , , , 96, , , 13, 13, 13
38.4803476, -120.3385611, 45.000, 16:21:39.352, 18, 0.00, 0.55, 97, 4.200, 2.400, 76.100, 375, 100, 100, 29, 24004, -17352, 5178, 5339, 19, 14, 1530919299.352, 9, 0, 1024, 1024, 1024, 1024, 0, 6, 4003, 3988, 3985, 3985, 4026, 4004, 0, 1, 20300, -90.000, 0.000, 74.900, 0.000, 0.000, -2.900, 0.0, , , , , , 96, , , 13, 13, 13
38.4803476, -120.3385611, 45.000, 16:21:39.451, 18, 0.00, 0.55, 97, 4.200, 2.400, 76.100, 375, 100, 100, 29, 24004, -17352, 5178, 5339, 19, 14, 1530919299.452, 109, 0, 1024, 1024, 1024, 1024, 0, 6, 4003, 3988, 3985, 3985, 4026, 4004, 0, 1, 20400, -90.000, 0.000, 74.900, 0.000, 0.000, -2.900, 0.0, , , , , , 96, , , 13, 13, 13
38.4803475, -120.3385612, 45.600, 16:21:39.551, 18, 0.00, 0.54, 97, 3.900, 2.300, 75.900, 375, 100, 100, 29, 23946, -18080, 5178, 5339, 19, 14, 1530919299.552, 97, 0, 1024, 1024, 1024, 1024, 0, 6, 4003, 3988, 3985, 3985, 4026, 4004, 0, 1, 20500, -90.000, 0.000, 74.900, 0.000, 0.000, -2.900, 0.0, , , , , , 96, , , 13, 13, 13
38.4803475, -120.3385613, 45.900, 16:21:39.651, 18, 0.00, 0.54, 97, 3.800, 2.400, 75.900, 375, 100, 100, 29, 23946, -18080, 5178, 5339, 19, 14, 1530919299.652, 72, 0, 1024, 1024, 1024, 1024, 0, 6, 4003, 3988, 3985, 3985, 4026, 4004, 0, 1, 20600, -90.000, 0.000, 74.900, 0.000, 0.000, -2.900, 0.0, , , , , , 96, , , 13, 13, 13
38.4803474, -120.3385614, 46.200, 16:21:39.751, 18, 0.00, 0.53, 97, 3.800, 2.400, 75.900, 375, 100, 100, 29, 23946, -18080, 5178, 5339, 19, 14, 1530919299.752, 67, 0, 1024, 1024, 1024, 1024, 0, 6, 4003, 3988, 3985, 3985, 4026, 4004, 0, 1, 20700, -90.000, 0.000, 74.900, 0.000, 0.000, -2.900, 0.0, , , , , , 96, , , 13, 13, 13
38.4803474, -120.3385614, 46.500, 16:21:39.851, 18, 0.00, 0.53, 97, 3.700, 2.300, 76.000, 375, 100, 100, 29, 23946, -18080, 5178, 5339, 19, 14, 1530919299.852, 75, 0, 1024, 1024, 1024, 1024, 0, 6, 4003, 3988, 3985, 3985, 4026, 4004, 0, 1, 20799, -90.000, 0.000, 74.900, 0.000, 0.000, -2.900, 0.0, , , , , , 96, , , 13, 13, 13
38.4803473, -120.3385615, 46.800, 16:21:39.951, 18, 0.00, 0.52, 97, 3.600, 2.100, 76.100, 375, 100, 100, 29, 23946, -18080, 5178, 5339, 19, 14, 1530919299.952, 75, 0, 1024, 1024, 1024, 1024, 0, 6, 4003, 3988, 3985, 3985, 4026, 4004, 0, 1, 20900, -90.000, 0.000, 74.900, 0.000, 0.000, -2.800, 0.0, , , , , , 96, , , 13, 13, 13
38.4803473, -120.3385616, 47.100, 16:21:40.051, 18, 0.00, 0.52, 97, 3.500, 2.000, 76.300, 375, 100, 100, 29, 23946, -18080, 5178, 5339, 19, 14, 1530919300.051, 76, 0, 1024, 1024, 1024, 1024, 0, 6, 3999, 3986, 3976, 3984, 4020, 3996, 0, 1, 20999, -90.000, 0.000, 74.900, 0.000, 0.000, -2.800, 0.0, , , , , , 96, , , 13, 13, 13
