latitude,longitude,altitude(feet),ascent(feet),speed(mph),distance(feet),time(millisecond),datetime(utc),satellites,gpslevel,voltage(v),max_altitude(feet),max_ascent(feet),max_speed(mph),max_distance(feet), xSpeed(mph), ySpeed(mph), zSpeed(mph), compass_heading(degrees), pitch(degrees), roll(degrees),isPhoto,isVideo,rc_elevator,rc_aileron,rc_throttle,rc_rudder,gimbal_heading(degrees),gimbal_pitch(degrees),battery_percent,voltageCell1,voltageCell2,voltageCell3,voltageCell4,voltageCell5,voltageCell6,current(A),battery_temperature(f),flycStateRaw,flycState,message
36.6869746,-118.9584886,4940.3266784317,0,0.223694,0,3200,2018-04-13 21:08:04,17,0,0,4940.3266784317,0,0.223694,0,0,0,0,138.9, 0.1, -0.8,1,0,1024,1024,1024,1024,140.3,-89.9,97,4.162,4.15,4.122,4.178,0,0,0,57.2,11,AutoTakeoff,
36.6869748,-118.9584884,4940.3266784317,0,0.3131716,0.093534123728,3300,2018-04-13 21:08:04,17,0,0,4940.3266784317,0,0.3131716,0.093534123728,0,0,0,138.8, 0.1, -0.3,0,0,1024,1024,1024,1024,140.3,-89.9,97,4.162,4.15,4.122,4.178,0,0,0,57.2,11,AutoTakeoff,
36.6869749,-118.9584881,4940.6547624317,0.328084,0.4921268,0.182703746004,3400,2018-04-13 21:08:04,17,0,0,4940.6547624317,0.328084,0.4921268,0.182703746004,0,0,0,138.9, 0.3, 0.3,0,0,1024,1024,1024,1024,140.2,-89.9,97,4.162,4.15,4.122,4.178,0,0,0,57.2,11,AutoTakeoff,
36.6869751,-118.9584879,4940.6547624317,0.328084,0.4921268,0.274268709564,3500,2018-04-13 21:08:04,19,0,0,4940.6547624317,0.328084,0.4921268,0.274268709564,0,0,0,138.9, 0.5, 1.1,0,0,1024,1024,1024,1024,140.2,-89.9,97,4.162,4.15,4.122,4.178,0,0,0,57.2,11,AutoTakeoff,
36.6869752,-118.9584876,4940.9828464317,0.656168,0.3131716,0.36540683584,3600,2018-04-13 21:08:04,19,0,0,4940.9828464317,0.656168,0.4921268,0.36540683584,0,0,0,139, 0.6, 2,0,0,1024,1024,1024,1024,140.2,-89.9,97,4.162,4.15,4.122,4.178,0,0,0,57.2,11,AutoTakeoff,
36.6869754,-118.9584874,4940.9828464317,0.656168,0.3131716,0.45657481776,3700,2018-04-13 21:08:04,17,0,0,4940.9828464317,0.656168,0.4921268,0.45657481776,0,0,0,139, 0.5, 2.3,0,0,1024,1024,1024,1024,140.2,-89.9,97,4.162,4.15,4.122,4.178,0,0,0,57.2,11,AutoTakeoff,
36.6869755,-118.9584872,4941.3109304317,0.984252,0.3131716,0.52497705092,3800,2018-04-13 21:08:04,17,0,0,4941.3109304317,0.984252,0.4921268,0.52497705092,0,0,0,139, 0.1, 2.4,0,0,1024,1024,1024,1024,140.2,-89.9,97,4.162,4.15,4.122,4.178,0,0,0,57.2,11,AutoTakeoff,
36.6869757,-118.958487,4941.3109304317,0.984252,0.3131716,0.61661091212,3900,2018-04-13 21:08:04,18,0,0,4941.3109304317,0.984252,0.4921268,0.61661091212,0,0,-0.223694,139, 0, 2.5,0,0,1024,1024,1024,1024,140.1,-89.9,97,4.162,4.15,4.122,4.178,0,0,0,57.2,11,AutoTakeoff,
36.6869759,-118.9584869,4941.6390144317,1.312336,0.3131716,0.68728020572,4000,2018-04-13 21:08:05,18,0,24.871,4941.6390144317,1.312336,0.4921268,0.68728020572,0,0,-0.223694,138.9, -0.1, 2.8,0,0,1024,1024,1024,1024,140.1,-89.9,97,4.162,4.15,4.122,4.178,0,0,3.377,57.2,11,AutoTakeoff,
36.686976,-118.9584867,4941.6390144317,1.312336,0.3131716,0.75493440736,4100,2018-04-13 21:08:05,17,0,24.871,4941.6390144317,1.312336,0.4921268,0.75493440736,0,0,-0.223694,138.8, -0.3, 3,0,0,1024,1024,1024,1024,140.1,-90,97,4.162,4.15,4.122,4.178,0,0,3.377,57.2,11,AutoTakeoff,
36.6869762,-118.9584866,4941.9670984317,1.64042,0.223694,0.82654530204,4200,2018-04-13 21:08:05,17,0,24.871,4941.9670984317,1.64042,0.4921268,0.82654530204,0,0,0,138.7, -0.4, 2.8,0,0,1024,1024,1024,1024,140.1,-90,97,4.162,4.15,4.122,4.178,0,0,3.377,57.2,11,AutoTakeoff,
36.6869767,-118.9584863,4942.2951824317,1.968504,0.223694,1.01974084628,4400,2018-04-13 21:08:05,17,0,24.871,4942.2951824317,1.968504,0.4921268,1.01974084628,0,0,-0.223694,138.5, -0.6, 2.3,0,0,1024,1024,1024,1024,140,-90,97,4.162,4.15,4.122,4.178,0,0,3.377,57.2,11,AutoTakeoff,
36.6869769,-118.9584862,4942.6232664317,2.296588,0.223694,1.09418638672,4500,2018-04-13 21:08:05,18,0,24.871,4942.6232664317,2.296588,0.4921268,1.09418638672,0,0,-0.223694,138.6, -0.8, 2.3,0,0,1024,1024,1024,1024,140,-90,97,4.162,4.15,4.122,4.178,0,0,3.377,57.2,11,AutoTakeoff,
36.6869771,-118.9584861,4942.6232664317,2.296588,0.223694,1.1691765466,4600,2018-04-13 21:08:05,18,0,24.871,4942.6232664317,2.296588,0.4921268,1.1691765466,0,0,-0.223694,138.6, -1.1, 2.1,0,0,1024,1024,1024,1024,140,-90,97,4.162,4.15,4.122,4.178,0,0,3.377,57.2,11,AutoTakeoff,
36.6869773,-118.958486,4942.9513504317,2.624672,0.223694,1.2446194624,4800,2018-04-13 21:08:05,17,0,24.871,4942.9513504317,2.624672,0.4921268,1.2446194624,0,0,-0.223694,138.7, -1.2, 2,0,0,1024,1024,1024,1024,140,-90,97,4.162,4.15,4.122,4.178,0,0,3.377,57.2,11,AutoTakeoff,
36.6869775,-118.9584859,4943.2794344317,2.952756,0.223694,1.32042983228,4900,2018-04-13 21:08:05,17,0,24.871,4943.2794344317,2.952756,0.4921268,1.32042983228,0,0,0,138.8, -1.5, 2.1,0,0,1024,1024,1024,1024,140,-90,97,4.162,4.15,4.122,4.178,0,0,3.377,57.2,11,AutoTakeoff,
36.6869778,-118.9584859,4943.2794344317,2.952756,0.223694,1.40965555692,5000,2018-04-13 21:08:06,17,0,23.166,4943.2794344317,2.952756,0.4921268,1.40965555692,0,0,0,138.9, -1.7, 2.2,0,0,1024,1024,1024,1024,140,-90,97,3.854,3.842,3.866,3.873,0,0,14.639,57.2,14,Waypoint,
36.6869781,-118.9584858,4943.2794344317,2.952756,0.223694,1.5171588412,5100,2018-04-13 21:08:06,17,0,23.166,4943.2794344317,2.952756,0.4921268,1.5171588412,0,0,0,139, -1.8, 2.7,0,0,1024,1024,1024,1024,140,-90,97,3.854,3.842,3.866,3.873,0,0,14.639,57.2,14,Waypoint,
36.6869784,-118.9584856,4943.6075184317,3.28084,0.223694,1.640912126,5200,2018-04-13 21:08:06,17,0,23.166,4943.6075184317,3.28084,0.4921268,1.640912126,0,0,0,139, -1.8, 2.9,0,0,1024,1024,1024,1024,140,-90,97,3.854,3.842,3.866,3.873,0,0,14.639,57.2,14,Waypoint,
36.6869784,-118.9584856,4943.9356024317,3.608924,0.223694,1.640912126,5300,2018-04-13 21:08:06,18,0,23.166,4943.9356024317,3.608924,0.4921268,1.640912126,0,0,0,139, -1.6, 2.6,0,0,1024,1024,1024,1024,140,-89.9,97,3.854,3.842,3.866,3.873,0,0,14.639,57.2,14,Waypoint,
36.6869785,-118.9584857,4943.9356024317,3.608924,0,1.65667984304,5400,2018-04-13 21:08:06,18,0,23.166,4943.9356024317,3.608924,0.4921268,1.65667984304,0,0,0,138.9, -1.5, 2.2,0,0,1024,1024,1024,1024,140,-89.9,97,3.854,3.842,3.866,3.873,0,0,14.639,57.2,14,Waypoint,
36.6869786,-118.9584857,4944.2636864317,3.937008,0,1.68812013276,5500,2018-04-13 21:08:06,18,0,23.166,4944.2636864317,3.937008,0.4921268,1.68812013276,0,0,-0.223694,138.8, -1.5, 1.7,0,0,1024,1024,1024,1024,140,-90,97,3.854,3.842,3.866,3.873,0,0,14.639,57.2,14,Waypoint,
36.6869786,-118.9584857,4944.2636864317,3.937008,0,1.68812013276,5600,2018-04-13 21:08:06,18,0,23.166,4944.2636864317,3.937008,0.4921268,1.68812013276,0,0,-0.223694,138.7, -1.5, 1.5,0,0,1024,1024,1024,1024,140,-90,97,3.854,3.842,3.866,3.873,0,0,14.639,57.2,14,Waypoint,
36.6869787,-118.9584857,4944.5917704317,4.265092,0,1.71976055372,5700,2018-04-13 21:08:06,18,0,23.166,4944.5917704317,4.265092,0.4921268,1.71976055372,0,0,-0.223694,138.7, -1.5, 1.5,0,0,1024,1024,1024,1024,140,-89.9,97,3.854,3.842,3.866,3.873,0,0,14.639,57.2,14,Waypoint,
36.6869788,-118.9584857,4944.9198544317,4.593176,0,1.75158798256,5800,2018-04-13 21:08:06,18,0,23.166,4944.9198544317,4.593176,0.4921268,1.75158798256,0,0,-0.223694,138.6, -1.4, 1.7,0,0,1024,1024,1024,1024,140,-89.9,97,3.854,3.842,3.866,3.873,0,0,14.639,57.2,14,Waypoint,
36.6869789,-118.9584857,4945.5760224317,5.249344,0,1.78359257676,5900,2018-04-13 21:08:06,17,0,23.166,4945.5760224317,5.249344,0.4921268,1.78359257676,0,0,-0.223694,138.6, -1.4, 1.8,0,0,1024,1024,1024,1024,140,-89.9,97,3.854,3.842,3.866,3.873,0,0,14.639,57.2,14,Waypoint,
36.686979,-118.9584857,4945.9041064317,5.577428,0,1.81576777464,6000,2018-04-13 21:08:07,17,0,22.932,4945.9041064317,5.577428,0.4921268,1.81576777464,0,0,-0.447388,138.6, -1.6, 1.7,0,0,1024,1024,1024,1024,140,-89.9,97,3.805,3.799,3.825,3.838,0,0,16.334,57.2,14,Waypoint,
36.6869792,-118.9584856,4946.5602744317,6.233596,0,1.89396987688,6100,2018-04-13 21:08:07,17,0,22.932,4946.5602744317,6.233596,0.4921268,1.89396987688,0,0,-0.447388,138.8, -1.9, 1.4,0,0,1024,1024,1024,1024,140,-89.9,97,3.805,3.799,3.825,3.838,0,0,16.334,57.2,14,Waypoint,
36.6869794,-118.9584854,4947.2164424317,6.889764,0,1.98583339688,6200,2018-04-13 21:08:07,17,0,22.932,4947.2164424317,6.889764,0.4921268,1.98583339688,0,0,-0.447388,139, -1.9, 1.7,0,0,1024,1024,1024,1024,140,-89.9,97,3.805,3.799,3.825,3.838,0,0,16.334,57.2,14,Waypoint,
36.6869796,-118.9584853,4947.8726104317,7.545932,0,2.06399612904,6300,2018-04-13 21:08:07,17,0,22.932,4947.8726104317,7.545932,0.4921268,2.06399612904,0,0,-0.447388,139.2, -1.8, 2,0,0,1024,1024,1024,1024,140,-89.9,97,3.805,3.799,3.825,3.838,0,0,16.334,57.2,14,Waypoint,
36.6869797,-118.9584851,4948.5287784317,8.2021,0,2.12389770576,6400,2018-04-13 21:08:07,17,0,22.932,4948.5287784317,8.2021,0.4921268,2.12389770576,0,0,-0.447388,139.3, -1.4, 2.3,0,0,1024,1024,1024,1024,140,-89.9,97,3.805,3.799,3.825,3.838,0,0,16.334,57.2,14,Waypoint,
36.6869797,-118.958485,4949.1849464317,8.858268,0,2.1381562364,6500,2018-04-13 21:08:07,17,0,22.932,4949.1849464317,8.858268,0.4921268,2.1381562364,0,0,-0.447388,139.5, -1, 2.4,0,0,1024,1024,1024,1024,140,-89.9,97,3.805,3.799,3.825,3.838,0,0,16.334,57.2,14,Waypoint,
36.6869797,-118.9584848,4950.1691984317,9.84252,0,2.16758209036,6600,2018-04-13 21:08:07,17,0,22.932,4950.1691984317,9.84252,0.4921268,2.16758209036,0,0,-0.671082,139.7, -0.5, 2.6,0,0,1024,1024,1024,1024,140,-89.9,97,3.805,3.799,3.825,3.838,0,0,16.334,57.2,14,Waypoint,
36.6869798,-118.9584845,4951.1534504317,10.826772,0,2.2446358986,6700,2018-04-13 21:08:07,18,0,22.932,4951.1534504317,10.826772,0.4921268,2.2446358986,0,0,-0.671082,139.8, -0.1, 2.7,0,0,1024,1024,1024,1024,140,-89.9,97,3.805,3.799,3.825,3.838,0,0,16.334,57.2,14,Waypoint,
36.68698,-118.9584843,4952.4657864317,12.139108,0,2.33760506168,6800,2018-04-13 21:08:07,18,0,22.932,4952.4657864317,12.139108,0.4921268,2.33760506168,0,0,-0.671082,139.8, 0, 3.1,0,0,1024,1024,1024,1024,140,-89.9,97,3.805,3.799,3.825,3.838,0,0,16.334,57.2,14,Waypoint,
36.6869801,-118.958484,4953.4500384317,13.12336,0,2.4162074264,6910,2018-04-13 21:08:07,17,0,22.932,4953.4500384317,13.12336,0.4921268,2.4162074264,0,0,-0.671082,139.7, 0.1, 3.7,0,0,1024,1024,1024,1024,140,-89.9,97,3.805,3.799,3.825,3.838,0,0,16.334,57.2,14,Waypoint,
36.6869802,-118.9584839,4954.7623744317,14.435696,0,2.46280847776,7020,2018-04-13 21:08:08,17,0,22.76,4954.7623744317,14.435696,0.4921268,2.46280847776,0,0,-0.671082,139.5, -0.1, 4.3,0,0,1024,1024,1024,1024,140,-89.9,97,3.718,3.709,3.749,3.785,0,0,17.476,57.2,14,Waypoint,
36.6869802,-118.9584839,4954.7623744317,14.435696,0,2.46280847776,7100,2018-04-13 21:08:08,17,0,22.76,4954.7623744317,14.435696,0.4921268,2.46280847776,0,0,-0.671082,139.5, -0.1, 4.3,0,0,1024,1024,1024,1024,140,-89.9,97,3.718,3.709,3.749,3.785,0,0,17.476,57.2,14,Waypoint,
36.6869802,-118.9584838,4955.7466264317,15.419948,0,2.47926189036,7200,2018-04-13 21:08:08,17,0,22.76,4955.7466264317,15.419948,0.4921268,2.47926189036,0,0,-0.671082,139.1, -0.7, 4.4,0,0,1024,1024,1024,1024,140,-89.9,97,3.718,3.709,3.749,3.785,0,0,17.476,57.2,14,Waypoint,
36.6869801,-118.9584837,4957.0589624317,16.732284,0.223694,2.4661746196,7300,2018-04-13 21:08:08,17,0,22.76,4957.0589624317,16.732284,0.4921268,2.47926189036,0,0,-0.671082,138.8, -0.8, 4.2,0,0,1024,1024,1024,1024,140,-89.9,97,3.718,3.709,3.749,3.785,0,0,17.476,57.2,14,Waypoint,
36.6869803,-118.9584836,4958.0432144317,17.716536,0.223694,2.54262475328,7400,2018-04-13 21:08:08,18,0,22.76,4958.0432144317,17.716536,0.4921268,2.54262475328,0,0,-0.671082,138.6, -0.7, 3.9,0,0,1024,1024,1024,1024,140,-89.9,97,3.718,3.709,3.749,3.785,0,0,17.476,57.2,14,Waypoint,
36.6869806,-118.9584834,4959.3555504317,19.028872,0,2.66585966536,7500,2018-04-13 21:08:08,18,0,22.76,4959.3555504317,19.028872,0.4921268,2.66585966536,0,0,-0.671082,138.5, -0.6, 3.4,0,0,1024,1024,1024,1024,140,-89.9,97,3.718,3.709,3.749,3.785,0,0,17.476,57.2,14,Waypoint,
36.6869806,-118.9584833,4960.3398024317,20.013124,0.223694,2.68266412784,7600,2018-04-13 21:08:08,18,0,22.76,4960.3398024317,20.013124,0.4921268,2.68266412784,0,0,-0.671082,138.6, -0.3, 3.3,0,0,1024,1024,1024,1024,140,-89.9,97,3.718,3.709,3.749,3.785,0,0,17.476,57.2,14,Waypoint,
36.6869804,-118.9584834,4961.6521384317,21.32546,0.223694,2.60626976844,7700,2018-04-13 21:08:08,18,0,22.76,4961.6521384317,21.32546,0.4921268,2.68266412784,0,0,-0.671082,138.8, 0.1, 3,0,0,1024,1024,1024,1024,140,-89.9,97,3.718,3.709,3.749,3.785,0,0,17.476,57.2,14,Waypoint,
36.6869802,-118.9584835,4962.6363904317,22.309712,0.223694,2.53001648516,7800,2018-04-13 21:08:08,18,0,22.76,4962.6363904317,22.309712,0.4921268,2.68266412784,0,0,-0.671082,139, 0.5, 2.7,0,0,1024,1024,1024,1024,140,-89.9,97,3.718,3.709,3.749,3.785,0,0,17.476,57.2,14,Waypoint,
36.68698,-118.9584835,4963.9487264317,23.622048,0.223694,2.47146333368,7900,2018-04-13 21:08:08,18,0,22.76,4963.9487264317,23.622048,0.4921268,2.68266412784,0,0,-0.671082,139.1, 0.7, 2.5,0,0,1024,1024,1024,1024,140,-89.9,97,3.718,3.709,3.749,3.785,0,0,17.476,57.2,14,Waypoint,
36.6869795,-118.9584838,4965.9172304317,25.590552,0.223694,2.27339902288,8010,2018-04-13 21:08:09,17,0,21.932,4965.9172304317,25.590552,0.4921268,2.68266412784,0,0,-0.671082,139.3, 0.9, 2,0,0,1024,1024,1024,1024,140,-89.9,97,3.676,3.634,3.654,3.633,0,0,25.409,57.2,14,Waypoint,
36.6869793,-118.958484,4967.2295664317,26.902888,0.223694,2.17986883616,8100,2018-04-13 21:08:09,18,0,21.932,4967.2295664317,26.902888,0.4921268,2.68266412784,0,0,-0.671082,139.2, 0.7, 1.6,0,0,1024,1024,1024,1024,140,-89.9,97,3.676,3.634,3.654,3.633,0,0,25.409,57.2,14,Waypoint,
36.686979,-118.9584842,4968.2138184317,27.88714,0.223694,2.05775269052,8210,2018-04-13 21:08:09,18,0,21.932,4968.2138184317,27.88714,0.4921268,2.68266412784,0,0,-0.671082,139.2, 0.6, 1.5,0,0,1024,1024,1024,1024,140,-89.9,97,3.676,3.634,3.654,3.633,0,0,25.409,57.2,14,Waypoint,
36.6869789,-118.9584844,4969.1980704317,28.871392,0.223694,1.99281174356,8300,2018-04-13 21:08:09,18,0,21.932,4969.1980704317,28.871392,0.4921268,2.68266412784,0,0,-0.671082,139.1, 0.6, 1.3,0,0,1024,1024,1024,1024,140,-89.9,97,3.676,3.634,3.654,3.633,0,0,25.409,57.2,14,Waypoint,
36.6869787,-118.9584845,4970.1823224317,29.855644,0.223694,1.91745084876,8400,2018-04-13 21:08:09,18,0,21.932,4970.1823224317,29.855644,0.4921268,2.68266412784,0,0,-0.671082,139.1, 0.7, 0.9,0,0,1024,1024,1024,1024,140,-89.9,97,3.676,3.634,3.654,3.633,0,0,25.409,57.2,14,Waypoint,
36.6869786,-118.9584846,4971.4946584317,31.16798,0.223694,1.8706857554,8500,2018-04-13 21:08:09,18,0,21.932,4971.4946584317,31.16798,0.4921268,2.68266412784,0,0,-0.671082,139.1, 0.6, 0.7,0,0,1024,1024,1024,1024,140,-89.9,97,3.676,3.634,3.654,3.633,0,0,25.409,57.2,14,Waypoint,
36.6869785,-118.9584847,4972.4789104317,32.152232,0,1.8239173812,8600,2018-04-13 21:08:09,18,0,21.932,4972.4789104317,32.152232,0.4921268,2.68266412784,0,0,-0.671082,139.1, 0.5, 0.9,0,0,1024,1024,1024,1024,140,-89.9,97,3.676,3.634,3.654,3.633,0,0,25.409,57.2,14,Waypoint,
36.6869785,-118.9584847,4973.4631624317,33.136484,0,1.8239173812,8700,2018-04-13 21:08:09,17,0,21.932,4973.4631624317,33.136484,0.4921268,2.68266412784,0,0,-0.671082,139.1, 0.4, 1.1,0,0,1024,1024,1024,1024,140,-89.9,97,3.676,3.634,3.654,3.633,0,0,25.409,57.2,14,Waypoint,
36.6869784,-118.9584848,4974.4474144317,34.120736,0,1.777149007,8800,2018-04-13 21:08:09,17,0,21.932,4974.4474144317,34.120736,0.4921268,2.68266412784,0,0,-0.671082,139.1, 0.4, 1.6,0,0,1024,1024,1024,1024,140,-89.9,97,3.676,3.634,3.654,3.633,0,0,25.409,57.2,14,Waypoint,
36.6869783,-118.9584848,4975.4316664317,35.104988,0,1.7488353578,8900,2018-04-13 21:08:09,17,0,21.932,4975.4316664317,35.104988,0.4921268,2.68266412784,0,0,-0.671082,139.1, 0.6, 1.8,0,0,1024,1024,1024,1024,140,-89.9,97,3.676,3.634,3.654,3.633,0,0,25.409,57.2,14,Waypoint,
36.6869783,-118.9584848,4976.7440024317,36.417324,0,1.7488353578,9000,2018-04-13 21:08:10,17,0,22.186,4976.7440024317,36.417324,0.4921268,2.68266412784,0,0,-0.671082,139.1, 0.6, 2,0,0,1024,1024,1024,1024,140,-89.9,97,3.675,3.677,3.701,3.701,0,0,20.578,57.2,14,Waypoint,
36.6869783,-118.9584848,4977.7282544317,37.401576,0,1.7488353578,9100,2018-04-13 21:08:10,19,0,22.186,4977.7282544317,37.401576,0.4921268,2.68266412784,0,0,-0.671082,139, 0.6, 2.2,0,0,1024,1024,1024,1024,140,-89.9,97,3.675,3.677,3.701,3.701,0,0,20.578,57.2,14,Waypoint,
36.6869783,-118.9584848,4978.7125064317,38.385828,0,1.7488353578,9200,2018-04-13 21:08:10,19,0,22.186,4978.7125064317,38.385828,0.4921268,2.68266412784,0,0,-0.671082,139, 0.6, 2.1,0,0,1024,1024,1024,1024,140,-89.9,97,3.675,3.677,3.701,3.701,0,0,20.578,57.2,14,Waypoint,
36.6869783,-118.9584848,4979.6967584317,39.37008,0,1.7488353578,9300,2018-04-13 21:08:10,19,0,22.186,4979.6967584317,39.37008,0.4921268,2.68266412784,0,0,-0.671082,139.1, 0.6, 2,0,0,1024,1024,1024,1024,140,-89.9,97,3.675,3.677,3.701,3.701,0,0,20.578,57.2,14,Waypoint,
36.6869783,-118.9584848,4980.6810104317,40.354332,0,1.7488353578,9410,2018-04-13 21:08:10,19,0,22.186,4980.6810104317,40.354332,0.4921268,2.68266412784,0,0,-0.671082,139.1, 0.5, 2.1,0,0,1024,1024,1024,1024,140,-89.9,97,3.675,3.677,3.701,3.701,0,0,20.578,57.2,14,Waypoint,
36.6869783,-118.9584848,4981.6652624317,41.338584,0,1.7488353578,9510,2018-04-13 21:08:10,18,0,22.186,4981.6652624317,41.338584,0.4921268,2.68266412784,0,0,-0.671082,139.1, 0.4, 2.2,0,0,1024,1024,1024,1024,140,-89.9,97,3.675,3.677,3.701,3.701,0,0,20.578,57.2,14,Waypoint,
36.6869784,-118.9584848,4982.6495144317,42.322836,0,1.777149007,9600,2018-04-13 21:08:10,18,0,22.186,4982.6495144317,42.322836,0.4921268,2.68266412784,0,0,-0.671082,139.2, 0.3, 2.4,0,0,1024,1024,1024,1024,140,-89.9,97,3.675,3.677,3.701,3.701,0,0,20.578,57.2,14,Waypoint,
36.6869784,-118.9584847,4983.6337664317,43.307088,0,1.79560045116,9700,2018-04-13 21:08:10,19,0,22.186,4983.6337664317,43.307088,0.4921268,2.68266412784,0,0,-0.671082,139.1, 0.2, 2.5,0,0,1024,1024,1024,1024,140,-89.9,97,3.675,3.677,3.701,3.701,0,0,20.578,57.2,14,Waypoint,
36.6869785,-118.9584847,4984.6180184317,44.29134,0,1.8239173812,9800,2018-04-13 21:08:10,19,0,22.186,4984.6180184317,44.29134,0.4921268,2.68266412784,0,0,-0.671082,139.1, 0.1, 2.3,0,0,1024,1024,1024,1024,140,-89.9,97,3.675,3.677,3.701,3.701,0,0,20.578,57.2,14,Waypoint,
36.6869786,-118.9584846,4985.6022704317,45.275592,0,1.8706857554,10000,2018-04-13 21:08:11,18,0,22.16,4985.6022704317,45.275592,0.4921268,2.68266412784,0,0,-0.671082,139.2, 0.3, 2.5,0,0,1024,1024,1024,1024,140,-89.9,97,3.675,3.677,3.701,3.701,0,0,20.549,57.2,14,Waypoint,
36.6869787,-118.9584843,4987.5707744317,47.244096,0,1.9545932384,10110,2018-04-13 21:08:11,18,0,22.16,4987.5707744317,47.244096,0.4921268,2.68266412784,0,0,-0.671082,139.4, 0.7, 3,0,0,1024,1024,1024,1024,140,-89.9,97,3.675,3.677,3.701,3.701,0,0,20.549,57.2,14,Waypoint,
36.6869789,-118.9584841,4988.5550264317,48.228348,0,2.04810374008,10200,2018-04-13 21:08:11,18,0,22.16,4988.5550264317,48.228348,0.4921268,2.68266412784,0,0,-0.671082,139.3, 1, 3.4,0,0,1024,1024,1024,1024,140,-89.9,97,3.675,3.677,3.701,3.701,0,0,20.549,57.2,14,Waypoint,
36.686979,-118.958484,4989.5392784317,49.2126,0,2.09485899092,10300,2018-04-13 21:08:11,18,0,22.16,4989.5392784317,49.2126,0.4921268,2.68266412784,0,0,-0.671082,139.1, 1.1, 4.2,0,0,1024,1024,1024,1024,140,-89.9,97,3.675,3.677,3.701,3.701,0,0,20.549,57.2,14,Waypoint,
36.6869791,-118.9584838,4990.1954464317,49.868768,0,2.16051844184,10500,2018-04-13 21:08:11,18,0,22.16,4990.1954464317,49.868768,0.4921268,2.68266412784,0,0,-0.671082,138.9, 0.9, 4.7,0,0,1024,1024,1024,1024,140,-89.9,97,3.675,3.677,3.701,3.701,0,0,20.549,57.2,14,Waypoint,
36.6869792,-118.9584837,4992.1639504317,51.837272,0,2.20726056932,10600,2018-04-13 21:08:11,17,0,22.16,4992.1639504317,51.837272,0.4921268,2.68266412784,0,0,-0.671082,138.4, 0.5, 4.6,0,0,1024,1024,1024,1024,140,-89.9,97,3.675,3.677,3.701,3.701,0,0,20.549,57.2,14,Waypoint,
36.6869795,-118.9584835,4994.1324544317,53.805776,0,2.32864508764,10800,2018-04-13 21:08:11,17,0,22.16,4994.1324544317,53.805776,0.4921268,2.68266412784,0,0,-0.671082,138.1, 0.2, 4.4,0,0,1024,1024,1024,1024,140,-89.9,97,3.675,3.677,3.701,3.701,0,0,20.549,57.2,14,Waypoint,
36.6869796,-118.9584833,4995.1167064317,54.790028,0,2.39424548344,10900,2018-04-13 21:08:11,18,0,22.16,4995.1167064317,54.790028,0.4921268,2.68266412784,0,0,-0.671082,138.2, 0.4, 4.6,0,0,1024,1024,1024,1024,140,-89.9,97,3.675,3.677,3.701,3.701,0,0,20.549,57.2,14,Waypoint,
36.6869796,-118.9584832,4996.1009584317,55.77428,0,2.41329732132,11000,2018-04-13 21:08:12,18,0,22.16,4996.1009584317,55.77428,0.4921268,2.68266412784,0,0,-0.671082,138.4, 0.4, 4.3,0,0,1024,1024,1024,1024,140,-89.9,97,3.678,3.684,3.682,3.695,0,0,20.549,57.2,14,Waypoint,
36.6869797,-118.9584831,4996.7571264317,56.430448,0,2.46003288712,11100,2018-04-13 21:08:12,18,0,22.16,4996.7571264317,56.430448,0.4921268,2.68266412784,0,0,-0.671082,138.8, 0.5, 3.4,0,0,1024,1024,1024,1024,140,-89.9,97,3.678,3.684,3.682,3.695,0,0,20.549,57.2,14,Waypoint,
36.6869798,-118.9584829,4997.7413784317,57.4147,0,2.52598761364,11200,2018-04-13 21:08:12,18,0,22.16,4997.7413784317,57.4147,0.4921268,2.68266412784,0,0,-0.671082,139.2, 0.8, 3.3,0,0,1024,1024,1024,1024,140,-89.9,97,3.678,3.684,3.682,3.695,0,0,20.549,57.2,14,Waypoint,
36.6869798,-118.9584828,4998.7256304317,58.398952,0,2.54540034392,11300,2018-04-13 21:08:12,18,0,22.16,4998.7256304317,58.398952,0.4921268,2.68266412784,0,0,-0.671082,139.4, 1.3, 3.9,0,0,1024,1024,1024,1024,140,-89.9,97,3.678,3.684,3.682,3.695,0,0,20.549,57.2,14,Waypoint,
36.6869798,-118.9584827,4999.7098824317,59.383204,0,2.56499680124,11400,2018-04-13 21:08:12,18,0,22.16,4999.7098824317,59.383204,0.4921268,2.68266412784,0,0,-0.671082,139.4, 1.6, 4.4,0,0,1024,1024,1024,1024,140,-89.9,97,3.678,3.684,3.682,3.695,0,0,20.549,57.2,14,Waypoint,
36.6869799,-118.9584826,5000.6941344317,60.367456,0,2.61167659276,11500,2018-04-13 21:08:12,19,0,22.16,5000.6941344317,60.367456,0.4921268,2.68266412784,0,0,-0.671082,139.5, 1.5, 4.6,0,0,1024,1024,1024,1024,140,-89.9,97,3.678,3.684,3.682,3.695,0,0,20.549,57.2,14,Waypoint,
36.6869799,-118.9584826,5001.3503024317,61.023624,0.223694,2.61167659276,11600,2018-04-13 21:08:12,19,0,22.16,5001.3503024317,61.023624,0.4921268,2.68266412784,0,0,-0.671082,139.5, 1.4, 4.4,0,0,1024,1024,1024,1024,140,-89.9,97,3.678,3.684,3.682,3.695,0,0,20.549,57.2,14,Waypoint,
36.6869799,-118.9584825,5002.3345544317,62.007876,0.223694,2.6314305304,11700,2018-04-13 21:08:12,19,0,22.16,5002.3345544317,62.007876,0.4921268,2.68266412784,0,0,-0.671082,139.5, 1.3, 4.2,0,0,1024,1024,1024,1024,140,-89.9,97,3.678,3.684,3.682,3.695,0,0,20.549,57.2,14,Waypoint,
36.6869798,-118.9584825,5004.3030584317,63.97638,0.223694,2.60473761616,11900,2018-04-13 21:08:12,19,0,22.16,5004.3030584317,63.97638,0.4921268,2.68266412784,0,0,-0.671082,139.5, 1.1, 3.4,0,0,1024,1024,1024,1024,140,-89.9,97,3.678,3.684,3.682,3.695,0,0,20.549,57.2,14,Waypoint,
36.6869798,-118.9584825,5005.2873104317,64.960632,0.223694,2.60473761616,12010,2018-04-13 21:08:13,19,0,22.12,5005.2873104317,64.960632,0.4921268,2.68266412784,0,0,-0.671082,139.6, 1.1, 3.3,0,0,1024,1024,1024,1024,140,-89.9,97,3.667,3.667,3.693,3.701,0,0,20.513,57.2,14,Waypoint,
36.6869798,-118.9584825,5006.2715624317,65.944884,0.223694,2.60473761616,12110,2018-04-13 21:08:13,19,0,22.12,5006.2715624317,65.944884,0.4921268,2.68266412784,0,0,-0.671082,139.7, 1.3, 3.5,0,0,1024,1024,1024,1024,140,-89.9,97,3.667,3.667,3.693,3.701,0,0,20.513,57.2,14,Waypoint,
36.6869798,-118.9584824,5007.2558144317,66.929136,0.223694,2.6248688504,12210,2018-04-13 21:08:13,19,0,22.12,5007.2558144317,66.929136,0.4921268,2.68266412784,0,0,-0.671082,139.9, 1.5, 3.7,0,0,1024,1024,1024,1024,140,-89.9,97,3.667,3.667,3.693,3.701,0,0,20.513,57.2,14,Waypoint,
36.6869797,-118.9584825,5008.2400664317,67.913388,0.223694,2.57828420324,12310,2018-04-13 21:08:13,19,0,22.12,5008.2400664317,67.913388,0.4921268,2.68266412784,0,0,-0.671082,139.9, 1.3, 3.7,0,0,1024,1024,1024,1024,140,-89.9,97,3.667,3.667,3.693,3.701,0,0,20.513,57.2,14,Waypoint,
36.6869797,-118.9584825,5009.2243184317,68.89764,0.3131716,2.57828420324,12400,2018-04-13 21:08:13,19,0,22.12,5009.2243184317,68.89764,0.4921268,2.68266412784,0,0,-0.671082,139.8, 1.2, 3.6,0,0,1024,1024,1024,1024,140,-89.9,97,3.667,3.667,3.693,3.701,0,0,20.513,57.2,14,Waypoint,
36.6869796,-118.9584825,5010.2085704317,69.881892,0.3131716,2.55207685332,12510,2018-04-13 21:08:13,19,0,22.12,5010.2085704317,69.881892,0.4921268,2.68266412784,0,0,-0.671082,139.7, 1.2, 3.7,0,0,1024,1024,1024,1024,140,-89.9,97,3.667,3.667,3.693,3.701,0,0,20.513,57.2,14,Waypoint,
36.6869795,-118.9584827,5012.1770744317,71.850396,0.3131716,2.48513131312,12800,2018-04-13 21:08:13,19,0,22.12,5012.1770744317,71.850396,0.4921268,2.68266412784,0,0,-0.671082,139.3, 1.7, 2.9,0,0,1024,1024,1024,1024,140,-89.9,97,3.667,3.667,3.693,3.701,0,0,20.513,57.2,14,Waypoint,
36.6869794,-118.9584827,5013.1613264317,72.834648,0.3131716,2.45901582672,12900,2018-04-13 21:08:13,19,0,22.12,5013.1613264317,72.834648,0.4921268,2.68266412784,0,0,-0.671082,139.1, 1.7, 2.4,0,0,1024,1024,1024,1024,140,-89.9,97,3.667,3.667,3.693,3.701,0,0,20.513,57.2,14,Waypoint,
36.6869793,-118.9584828,5014.4736624317,74.146984,0.3131716,2.41249679636,13000,2018-04-13 21:08:14,19,0,22.066,5014.4736624317,74.146984,0.4921268,2.68266412784,0,0,-0.671082,139, 1.5, 2.2,0,0,1024,1024,1024,1024,140,-89.9,97,3.652,3.655,3.676,3.7,0,0,20.549,57.2,14,Waypoint,
36.6869793,-118.9584829,5015.4579144317,75.131236,0.3131716,2.39200795056,13100,2018-04-13 21:08:14,19,0,22.066,5015.4579144317,75.131236,0.4921268,2.68266412784,0,0,-0.671082,138.9, 1.4, 2.4,0,0,1024,1024,1024,1024,140,-90,97,3.652,3.655,3.676,3.7,0,0,20.549,57.2,14,Waypoint,
36.6869792,-118.9584831,5017.4264184317,77.09974,0.223694,2.3251149038,13200,2018-04-13 21:08:14,19,0,22.066,5017.4264184317,77.09974,0.4921268,2.68266412784,0,0,-0.671082,138.9, 0.9, 2.6,0,0,1024,1024,1024,1024,140,-90,97,3.652,3.655,3.676,3.7,0,0,20.549,57.2,14,Waypoint,
36.6869791,-118.9584833,5019.7230064317,79.396328,0.223694,2.25834324812,13400,2018-04-13 21:08:14,19,0,22.066,5019.7230064317,79.396328,0.4921268,2.68266412784,0,0,-0.671082,138.9, 0.6, 2.8,0,0,1024,1024,1024,1024,140,-90,97,3.652,3.655,3.676,3.7,0,0,20.549,57.2,14,Waypoint,
36.6869791,-118.9584834,5020.7072584317,80.38058,0.223694,2.23835637084,13500,2018-04-13 21:08:14,19,0,22.066,5020.7072584317,80.38058,0.4921268,2.68266412784,0,0,-0.671082,138.8, 0.8, 2.7,0,0,1024,1024,1024,1024,140,-89.9,97,3.652,3.655,3.676,3.7,0,0,20.549,57.2,14,Waypoint,
36.686979,-118.9584835,5021.6915104317,81.364832,0,2.19170938772,13600,2018-04-13 21:08:14,19,0,22.066,5021.6915104317,81.364832,0.4921268,2.68266412784,0,0,-0.671082,138.9, 0.8, 2.6,0,0,1024,1024,1024,1024,140,-89.9,97,3.652,3.655,3.676,3.7,0,0,20.549,57.2,14,Waypoint,
36.686979,-118.9584835,5022.6757624317,82.349084,0,2.19170938772,13700,2018-04-13 21:08:14,19,0,22.066,5022.6757624317,82.349084,0.4921268,2.68266412784,0,0,-0.671082,138.9, 1, 2.5,0,0,1024,1024,1024,1024,140,-89.9,97,3.652,3.655,3.676,3.7,0,0,20.549,57.2,14,Waypoint,
36.6869789,-118.9584836,5023.9880984317,83.66142,0,2.14507224712,13800,2018-04-13 21:08:14,19,0,22.066,5023.9880984317,83.66142,0.4921268,2.68266412784,0,0,-0.671082,138.9, 1.2, 2.4,0,0,1024,1024,1024,1024,140,-89.9,97,3.652,3.655,3.676,3.7,0,0,20.549,57.2,14,Waypoint,
36.6869788,-118.9584836,5024.9723504317,84.645672,0,2.11853353236,13900,2018-04-13 21:08:14,19,0,22.066,5024.9723504317,84.645672,0.4921268,2.68266412784,0,0,-0.671082,138.9, 1.3, 2.4,0,0,1024,1024,1024,1024,140,-89.9,97,3.652,3.655,3.676,3.7,0,0,20.549,57.2,14,Waypoint,
36.6869788,-118.9584837,5025.9566024317,85.629924,0,2.09843510652,14000,2018-04-13 21:08:15,19,0,22.152,5025.9566024317,85.629924,0.4921268,2.68266412784,0,0,-0.671082,138.9, 1.7, 2.6,0,0,1024,1024,1024,1024,140,-89.9,96,3.673,3.679,3.698,3.709,0,0,19.841,57.2,14,Waypoint,
36.6869787,-118.9584837,5026.9408544317,86.614176,0,2.07194232352,14100,2018-04-13 21:08:15,19,0,22.152,5026.9408544317,86.614176,0.4921268,2.68266412784,0,0,-0.671082,139, 1.7, 2.7,0,0,1024,1024,1024,1024,140,-89.9,96,3.673,3.679,3.698,3.709,0,0,19.841,57.2,14,Waypoint,
36.6869786,-118.9584838,5027.9251064317,87.598428,0,2.02536423804,14210,2018-04-13 21:08:15,19,0,22.152,5027.9251064317,87.598428,0.4921268,2.68266412784,0,0,-0.671082,139, 1.4, 2.7,0,0,1024,1024,1024,1024,140,-89.9,96,3.673,3.679,3.698,3.709,0,0,19.841,57.2,14,Waypoint,
36.6869786,-118.9584838,5028.9093584317,88.58268,0,2.02536423804,14300,2018-04-13 21:08:15,19,0,22.152,5028.9093584317,88.58268,0.4921268,2.68266412784,0,0,-0.671082,139, 1.2, 2.7,0,0,1024,1024,1024,1024,140,-89.9,96,3.673,3.679,3.698,3.709,0,0,19.841,57.2,14,Waypoint,
36.6869785,-118.9584838,5029.8936104317,89.566932,0,1.99923234744,14400,2018-04-13 21:08:15,19,0,22.152,5029.8936104317,89.566932,0.4921268,2.68266412784,0,0,-0.671082,139, 1.5, 2.9,0,0,1024,1024,1024,1024,140,-89.9,96,3.673,3.679,3.698,3.709,0,0,19.841,57.2,14,Waypoint,
36.6869785,-118.9584838,5030.8778624317,90.551184,0,1.99923234744,14500,2018-04-13 21:08:15,19,0,22.152,5030.8778624317,90.551184,0.4921268,2.68266412784,0,0,-0.671082,138.9, 1.8, 3,0,0,1024,1024,1024,1024,140,-89.9,96,3.673,3.679,3.698,3.709,0,0,19.841,57.2,14,Waypoint,
36.6869784,-118.9584839,5031.8621144317,91.535436,0,1.95271987876,14600,2018-04-13 21:08:15,19,0,22.152,5031.8621144317,91.535436,0.4921268,2.68266412784,0,0,-0.671082,138.8, 1.8, 2.8,0,0,1024,1024,1024,1024,140,-89.9,96,3.673,3.679,3.698,3.709,0,0,19.841,57.2,14,Waypoint,
36.6869784,-118.9584839,5032.5182824317,92.191604,0.223694,1.95271987876,14710,2018-04-13 21:08:15,19,0,22.152,5032.5182824317,92.191604,0.4921268,2.68266412784,0,0,-0.671082,138.6, 1.5, 2.3,0,0,1024,1024,1024,1024,140,-89.9,96,3.673,3.679,3.698,3.709,0,0,19.841,57.2,14,Waypoint,
36.6869783,-118.958484,5033.5025344317,93.175856,0.223694,1.9062172526,14800,2018-04-13 21:08:15,19,0,22.152,5033.5025344317,93.175856,0.4921268,2.68266412784,0,0,-0.671082,138.5, 1.3, 1.8,0,0,1024,1024,1024,1024,140,-89.9,96,3.673,3.679,3.698,3.709,0,0,19.841,57.2,14,Waypoint,
36.6869781,-118.958484,5035.4710384317,95.14436,0.223694,1.85525924572,15000,2018-04-13 21:08:16,19,0,22.314,5035.4710384317,95.14436,0.4921268,2.68266412784,0,0,-0.671082,138.6, 2.1, 1.9,0,0,1024,1024,1024,1024,140,-89.9,96,3.698,3.715,3.726,3.734,0,0,17.993,59,14,Waypoint,
36.686978,-118.9584841,5036.4552904317,96.128612,0,1.80893378492,15100,2018-04-13 21:08:16,19,0,22.314,5036.4552904317,96.128612,0.4921268,2.68266412784,0,0,-0.671082,138.7, 2, 2.2,0,0,1024,1024,1024,1024,140,-89.9,96,3.698,3.715,3.726,3.734,0,0,17.993,59,14,Waypoint,
36.686978,-118.9584841,5037.7676264317,97.440948,0,1.80893378492,15300,2018-04-13 21:08:16,19,0,22.314,5037.7676264317,97.440948,0.4921268,2.68266412784,0,0,-0.671082,139, 2.2, 2.2,0,0,1024,1024,1024,1024,140,-89.9,96,3.698,3.715,3.726,3.734,0,0,17.993,59,14,Waypoint,
36.6869779,-118.9584841,5038.7518784317,98.4252,0,1.78411094948,15400,2018-04-13 21:08:16,19,0,22.314,5038.7518784317,98.4252,0.4921268,2.68266412784,0,0,-0.671082,139.3, 2.2, 1.8,0,0,1024,1024,1024,1024,140,-89.9,96,3.698,3.715,3.726,3.734,0,0,17.993,59,14,Waypoint,
36.6869779,-118.9584842,5039.7361304317,99.409452,0,1.76263129,15500,2018-04-13 21:08:16,19,0,22.314,5039.7361304317,99.409452,0.4921268,2.68266412784,0,0,-0.671082,139.6, 2.1, 1.7,0,0,1024,1024,1024,1024,140,-89.9,96,3.698,3.715,3.726,3.734,0,0,17.993,59,14,Waypoint,
36.6869778,-118.9584842,5040.7203824317,100.393704,0,1.73791344144,15600,2018-04-13 21:08:16,19,0,22.314,5040.7203824317,100.393704,0.4921268,2.68266412784,0,0,-0.671082,139.7, 2, 1.8,0,0,1024,1024,1024,1024,140,-89.9,96,3.698,3.715,3.726,3.734,0,0,17.993,59,14,Waypoint,
36.6869778,-118.9584843,5042.6888864317,102.362208,0,1.71635176096,15700,2018-04-13 21:08:16,19,0,22.314,5042.6888864317,102.362208,0.4921268,2.68266412784,0,0,-0.671082,139.6, 1.1, 2.3,0,0,1024,1024,1024,1024,140,-90,96,3.698,3.715,3.726,3.734,0,0,17.993,59,14,Waypoint,
36.6869778,-118.9584844,5043.6731384317,103.34646,0,1.69502302012,15800,2018-04-13 21:08:16,19,0,22.314,5043.6731384317,103.34646,0.4921268,2.68266412784,0,0,-0.671082,139.4, 0.8, 2.4,0,0,1024,1024,1024,1024,140,-90,96,3.698,3.715,3.726,3.734,0,0,17.993,59,14,Waypoint,
36.6869778,-118.9584845,5044.6573904317,104.330712,0,1.6739337806,15900,2018-04-13 21:08:16,19,0,22.314,5044.6573904317,104.330712,0.4921268,2.68266412784,0,0,-0.671082,139.3, 0.6, 2.1,0,0,1024,1024,1024,1024,140,-90,96,3.698,3.715,3.726,3.734,0,0,17.993,59,14,Waypoint,
36.6869778,-118.9584846,5045.6416424317,105.314964,0,1.65309388492,16000,2018-04-13 21:08:17,19,0,22.378,5045.6416424317,105.314964,0.4921268,2.68266412784,0,0,-0.671082,139.2, 0.6, 1.8,0,0,1024,1024,1024,1024,140,-90,96,3.712,3.705,3.721,3.745,0,0,17.262,59,14,Waypoint,
36.6869777,-118.9584847,5047.6101464317,107.283468,0,1.60662078632,16200,2018-04-13 21:08:17,19,0,22.378,5047.6101464317,107.283468,0.4921268,2.68266412784,0,0,-0.671082,139.1, 1, 0.5,0,0,1024,1024,1024,1024,140,-90,96,3.712,3.705,3.721,3.745,0,0,17.262,59,14,Waypoint,
36.6869777,-118.9584847,5048.5943984317,108.26772,0,1.60662078632,16300,2018-04-13 21:08:17,19,0,22.378,5048.5943984317,108.26772,0.4921268,2.68266412784,0,0,-0.671082,138.8, 1, 0.2,0,0,1024,1024,1024,1024,140,-89.9,96,3.712,3.705,3.721,3.745,0,0,17.262,59,14,Waypoint,
36.6869777,-118.9584847,5049.5786504317,109.251972,0,1.60662078632,16400,2018-04-13 21:08:17,19,0,22.378,5049.5786504317,109.251972,0.4921268,2.68266412784,0,0,-0.671082,138.7, 1, 0.7,0,0,1024,1024,1024,1024,140,-90,96,3.712,3.705,3.721,3.745,0,0,17.262,59,14,Waypoint,
36.6869777,-118.9584847,5050.5629024317,110.236224,0,1.60662078632,16500,2018-04-13 21:08:17,19,0,22.378,5050.5629024317,110.236224,0.4921268,2.68266412784,0,0,-0.671082,138.8, 1.1, 1.5,0,0,1024,1024,1024,1024,140,-89.9,96,3.712,3.705,3.721,3.745,0,0,17.262,59,14,Waypoint,
36.6869777,-118.9584846,5051.5471544317,111.220476,0,1.62752957964,16600,2018-04-13 21:08:17,19,0,22.378,5051.5471544317,111.220476,0.4921268,2.68266412784,0,0,-0.671082,139, 1.1, 2.7,0,0,1024,1024,1024,1024,140,-90,96,3.712,3.705,3.721,3.745,0,0,17.262,59,14,Waypoint,
36.6869778,-118.9584846,5052.5314064317,112.204728,0,1.65309388492,16700,2018-04-13 21:08:17,19,0,22.378,5052.5314064317,112.204728,0.4921268,2.68266412784,0,0,-0.671082,139.2, 1.3, 3.7,0,0,1024,1024,1024,1024,140,-89.9,96,3.712,3.705,3.721,3.745,0,0,17.262,59,14,Waypoint,
36.6869778,-118.9584844,5053.1875744317,112.860896,0,1.69502302012,16800,2018-04-13 21:08:17,19,0,22.378,5053.1875744317,112.860896,0.4921268,2.68266412784,0,0,-0.671082,139.5, 1.7, 4.4,0,0,1024,1024,1024,1024,140,-89.9,96,3.712,3.705,3.721,3.745,0,0,17.262,59,14,Waypoint,
36.6869778,-118.9584843,5054.1718264317,113.845148,0,1.71635176096,16900,2018-04-13 21:08:17,19,0,22.378,5054.1718264317,113.845148,0.4921268,2.68266412784,0,0,-0.671082,139.7, 2.1, 4.2,0,0,1024,1024,1024,1024,140,-89.9,96,3.712,3.705,3.721,3.745,0,0,17.262,59,14,Waypoint,
36.6869778,-118.9584842,5055.1560784317,114.8294,0,1.73791344144,17000,2018-04-13 21:08:18,19,0,22.278,5055.1560784317,114.8294,0.4921268,2.68266412784,0,0,-0.671082,139.9, 2.6, 3.3,0,0,1024,1024,1024,1024,140,-89.9,96,3.692,3.695,3.706,3.717,0,0,18.476,59,14,Waypoint,
36.6869777,-118.9584842,5056.1403304317,115.813652,0,1.7136155404,17100,2018-04-13 21:08:18,19,0,22.278,5056.1403304317,115.813652,0.4921268,2.68266412784,0,0,-0.671082,139.9, 2.7, 2.9,0,0,1024,1024,1024,1024,140,-89.9,96,3.692,3.695,3.706,3.717,0,0,18.476,59,14,Waypoint,
36.6869777,-118.9584841,5057.1245824317,116.797904,0,1.73570215528,17200,2018-04-13 21:08:18,19,0,22.278,5057.1245824317,116.797904,0.4921268,2.68266412784,0,0,-0.671082,139.8, 2.7, 2.8,0,0,1024,1024,1024,1024,140,-89.9,96,3.692,3.695,3.706,3.717,0,0,18.476,59,14,Waypoint,
36.6869777,-118.9584841,5058.1088344317,117.782156,0,1.73570215528,17300,2018-04-13 21:08:18,19,0,22.278,5058.1088344317,117.782156,0.4921268,2.68266412784,0,0,-0.671082,139.7, 2.6, 2.8,0,0,1024,1024,1024,1024,140,-89.9,96,3.692,3.695,3.706,3.717,0,0,18.476,59,14,Waypoint,
36.6869777,-118.9584841,5059.0930864317,118.766408,0,1.73570215528,17400,2018-04-13 21:08:18,19,0,22.278,5059.0930864317,118.766408,0.4921268,2.68266412784,0,0,-0.671082,139.5, 2.1, 2.7,0,0,1024,1024,1024,1024,140,-89.9,96,3.692,3.695,3.706,3.717,0,0,18.476,59,14,Waypoint,
36.6869776,-118.9584842,5061.0615904317,120.734912,0,1.68975727192,17600,2018-04-13 21:08:18,19,0,22.278,5061.0615904317,120.734912,0.4921268,2.68266412784,0,0,-0.671082,139.2, 1.6, 2.2,0,0,1024,1024,1024,1024,140,-89.9,96,3.692,3.695,3.706,3.717,0,0,18.476,59,14,Waypoint,
36.6869776,-118.9584842,5062.0458424317,121.719164,0,1.68975727192,17700,2018-04-13 21:08:18,19,0,22.278,5062.0458424317,121.719164,0.4921268,2.68266412784,0,0,-0.671082,139.1, 1.8, 1.9,0,0,1024,1024,1024,1024,140,-89.9,96,3.692,3.695,3.706,3.717,0,0,18.476,59,14,Waypoint,
36.6869776,-118.9584842,5063.0300944317,122.703416,0,1.68975727192,17810,2018-04-13 21:08:18,19,0,22.278,5063.0300944317,122.703416,0.4921268,2.68266412784,0,0,-0.671082,138.9, 1.9, 1.7,0,0,1024,1024,1024,1024,140,-89.9,96,3.692,3.695,3.706,3.717,0,0,18.476,59,14,Waypoint,
36.6869776,-118.9584843,5064.0143464317,123.687668,0,1.66757551268,17910,2018-04-13 21:08:18,19,0,22.278,5064.0143464317,123.687668,0.4921268,2.68266412784,0,0,-0.671082,138.8, 2.1, 1.7,0,0,1024,1024,1024,1024,140,-89.9,96,3.692,3.695,3.706,3.717,0,0,18.476,59,14,Waypoint,
36.6869776,-118.9584843,5064.6705144317,124.343836,0,1.66757551268,18010,2018-04-13 21:08:19,19,0,22.046,5064.6705144317,124.343836,0.4921268,2.68266412784,0,0,-0.671082,138.6, 2.1, 1.8,0,0,1024,1024,1024,1024,140,-89.9,96,3.655,3.666,3.669,3.688,0,0,20.192,59,14,Waypoint,
36.6869776,-118.9584843,5065.6547664317,125.328088,0,1.66757551268,18200,2018-04-13 21:08:19,19,0,22.046,5065.6547664317,125.328088,0.4921268,2.68266412784,0,0,-0.671082,138.6, 1.8, 2,0,0,1024,1024,1024,1024,140,-89.9,96,3.655,3.666,3.669,3.688,0,0,20.192,59,14,Waypoint,
36.6869776,-118.9584843,5066.6390184317,126.31234,0,1.66757551268,18310,2018-04-13 21:08:19,19,0,22.046,5066.6390184317,126.31234,0.4921268,2.68266412784,0,0,-0.671082,138.7, 1.7, 2.3,0,0,1024,1024,1024,1024,140,-89.9,96,3.655,3.666,3.669,3.688,0,0,20.192,59,14,Waypoint,
36.6869776,-118.9584843,5068.6075224317,128.280844,0,1.66757551268,18400,2018-04-13 21:08:19,19,0,22.046,5068.6075224317,128.280844,0.4921268,2.68266412784,0,0,-0.671082,139, 1.7, 2.4,0,0,1024,1024,1024,1024,140,-89.9,96,3.655,3.666,3.669,3.688,0,0,20.192,59,14,Waypoint,
36.6869777,-118.9584843,5069.5917744317,129.265096,0,1.69174546096,18510,2018-04-13 21:08:19,19,0,22.046,5069.5917744317,129.265096,0.4921268,2.68266412784,0,0,-0.671082,139.1, 1.8, 2.4,0,0,1024,1024,1024,1024,140,-89.9,96,3.655,3.666,3.669,3.688,0,0,20.192,59,14,Waypoint,
36.6869777,-118.9584843,5070.5760264317,130.249348,0,1.69174546096,18610,2018-04-13 21:08:19,19,0,22.046,5070.5760264317,130.249348,0.4921268,2.68266412784,0,0,-0.671082,139.2, 1.7, 2.4,0,0,1024,1024,1024,1024,140,-89.9,96,3.655,3.666,3.669,3.688,0,0,20.192,59,14,Waypoint,
36.6869778,-118.9584844,5072.5445304317,132.217852,0,1.69502302012,18800,2018-04-13 21:08:19,19,0,22.046,5072.5445304317,132.217852,0.4921268,2.68266412784,0,0,-0.671082,139.4, 1.5, 2.6,0,0,1024,1024,1024,1024,140,-89.9,96,3.655,3.666,3.669,3.688,0,0,20.192,59,14,Waypoint,
36.6869778,-118.9584844,5073.5287824317,133.202104,0,1.69502302012,18910,2018-04-13 21:08:19,19,0,22.046,5073.5287824317,133.202104,0.4921268,2.68266412784,0,0,-0.671082,139.4, 1.3, 2.5,0,0,1024,1024,1024,1024,140,-90,96,3.655,3.666,3.669,3.688,0,0,20.192,59,14,Waypoint,
36.6869779,-118.9584844,5074.5130344317,134.186356,0,1.7203576666,19010,2018-04-13 21:08:20,19,0,21.979,5074.5130344317,134.186356,0.4921268,2.68266412784,0,0,-0.671082,139.3, 1.3, 2.2,0,0,1024,1024,1024,1024,140,-90,96,3.64,3.645,3.67,3.666,0,0,20.453,59,14,Waypoint,
36.6869779,-118.9584845,5075.4972864317,135.170608,0,1.69958338772,19100,2018-04-13 21:08:20,19,0,21.979,5075.4972864317,135.170608,0.4921268,2.68266412784,0,0,-0.671082,139.3, 1.3, 2,0,0,1024,1024,1024,1024,140,-90,96,3.64,3.645,3.67,3.666,0,0,20.453,59,14,Waypoint,
36.6869779,-118.9584845,5076.4815384317,136.15486,0,1.69958338772,19200,2018-04-13 21:08:20,19,0,21.979,5076.4815384317,136.15486,0.4921268,2.68266412784,0,0,-0.671082,139.3, 1.5, 1.8,0,0,1024,1024,1024,1024,140,-89.9,96,3.64,3.645,3.67,3.666,0,0,20.453,59,14,Waypoint,
36.6869779,-118.9584845,5077.7938744317,137.467196,0,1.69958338772,19310,2018-04-13 21:08:20,19,0,21.979,5077.7938744317,137.467196,0.4921268,2.68266412784,0,0,-0.671082,139.3, 1.5, 2,0,0,1024,1024,1024,1024,140,-89.9,96,3.64,3.645,3.67,3.666,0,0,20.453,59,14,Waypoint,
36.6869779,-118.9584846,5078.7781264317,138.451448,0,1.67906173352,19400,2018-04-13 21:08:20,19,0,21.979,5078.7781264317,138.451448,0.4921268,2.68266412784,0,0,-0.671082,139.2, 1.3, 2.2,0,0,1024,1024,1024,1024,140,-89.9,96,3.64,3.645,3.67,3.666,0,0,20.453,59,14,Waypoint,
36.686978,-118.9584846,5079.7623784317,139.4357,0,1.7054134404,19500,2018-04-13 21:08:20,19,0,21.979,5079.7623784317,139.4357,0.4921268,2.68266412784,0,0,-0.671082,139.2, 1.1, 2.3,0,0,1024,1024,1024,1024,140,-90,96,3.64,3.645,3.67,3.666,0,0,20.453,59,14,Waypoint,
36.686978,-118.9584847,5081.7308824317,141.404204,0,1.68546921404,19700,2018-04-13 21:08:20,19,0,21.979,5081.7308824317,141.404204,0.4921268,2.68266412784,0,0,-0.671082,139.1, 1.1, 2.3,0,0,1024,1024,1024,1024,140,-89.9,96,3.64,3.645,3.67,3.666,0,0,20.453,59,14,Waypoint,
36.686978,-118.9584847,5082.7151344317,142.388456,0,1.68546921404,19800,2018-04-13 21:08:20,19,0,21.979,5082.7151344317,142.388456,0.4921268,2.68266412784,0,0,-0.671082,139, 1.1, 2.1,0,0,1024,1024,1024,1024,140,-89.9,96,3.64,3.645,3.67,3.666,0,0,20.453,59,14,Waypoint,
36.686978,-118.9584847,5083.6993864317,143.372708,0,1.68546921404,19900,2018-04-13 21:08:20,19,0,21.979,5083.6993864317,143.372708,0.4921268,2.68266412784,0,0,-0.671082,138.7, 1.3, 2.2,0,0,1024,1024,1024,1024,140,-89.9,96,3.64,3.645,3.67,3.666,0,0,20.453,59,14,Waypoint,
36.6869781,-118.9584847,5084.6836384317,144.35696,0,1.7125000548,20000,2018-04-13 21:08:21,19,0,21.939,5084.6836384317,144.35696,0.4921268,2.68266412784,0,0,-0.671082,138.3, 1.3, 2.4,0,0,1024,1024,1024,1024,140,-90,96,3.637,3.638,3.659,3.66,0,0,20.343,59,14,Waypoint,
36.6869781,-118.9584847,5085.9959744317,145.669296,0,1.7125000548,20100,2018-04-13 21:08:21,19,0,21.939,5085.9959744317,145.669296,0.4921268,2.68266412784,0,0,-0.671082,138, 0.9, 2.7,0,0,1024,1024,1024,1024,140,-89.9,96,3.637,3.638,3.659,3.66,0,0,20.343,59,14,Waypoint,
36.6869781,-118.9584847,5087.9644784317,147.6378,0,1.7125000548,20400,2018-04-13 21:08:21,19,0,21.939,5087.9644784317,147.6378,0.4921268,2.68266412784,0,0,-0.671082,137.6, 1, 2.8,0,0,1024,1024,1024,1024,140,-89.9,96,3.637,3.638,3.659,3.66,0,0,20.343,59,14,Waypoint,
36.6869781,-118.9584847,5088.6206464317,148.293968,0,1.7125000548,20500,2018-04-13 21:08:21,19,0,21.939,5088.6206464317,148.293968,0.4921268,2.68266412784,0,0,-0.671082,137.8, 1.2, 2.6,0,0,1024,1024,1024,1024,140,-89.9,96,3.637,3.638,3.659,3.66,0,0,20.343,59,14,Waypoint,
36.6869781,-118.9584847,5090.5891504317,150.262472,0,1.7125000548,20600,2018-04-13 21:08:21,19,0,21.939,5090.5891504317,150.262472,0.4921268,2.68266412784,0,0,-0.671082,138.4, 1.8, 2.2,0,0,1024,1024,1024,1024,140,-89.9,96,3.637,3.638,3.659,3.66,0,0,20.343,59,14,Waypoint,
36.686978,-118.9584846,5092.5576544317,152.230976,0,1.7054134404,20800,2018-04-13 21:08:21,19,0,21.939,5092.5576544317,152.230976,0.4921268,2.68266412784,0,0,-0.671082,139, 1.8, 2.2,0,0,1024,1024,1024,1024,140,-89.9,96,3.637,3.638,3.659,3.66,0,0,20.343,59,14,Waypoint,
36.686978,-118.9584846,5093.5419064317,153.215228,0,1.7054134404,20910,2018-04-13 21:08:21,19,0,21.939,5093.5419064317,153.215228,0.4921268,2.68266412784,0,0,-0.671082,139.3, 1.9, 2.7,0,0,1024,1024,1024,1024,140,-89.9,96,3.637,3.638,3.659,3.66,0,0,20.343,59,14,Waypoint,
36.686978,-118.9584845,5094.5261584317,154.19948,0,1.72562013396,21000,2018-04-13 21:08:22,19,0,21.939,5094.5261584317,154.19948,0.4921268,2.68266412784,0,0,-0.671082,139.5, 1.9, 3,0,0,1024,1024,1024,1024,140,-89.9,96,3.637,3.638,3.659,3.66,0,0,20.343,59,14,Waypoint,
36.686978,-118.9584844,5095.5104104317,155.183732,0,1.74608601388,21110,2018-04-13 21:08:22,19,0,21.939,5095.5104104317,155.183732,0.4921268,2.68266412784,0,0,-0.671082,139.7, 2, 2.9,0,0,1024,1024,1024,1024,140,-89.9,96,3.637,3.638,3.659,3.66,0,0,20.343,59,14,Waypoint,
36.686978,-118.9584844,5096.4946624317,156.167984,0,1.74608601388,21200,2018-04-13 21:08:22,19,0,21.939,5096.4946624317,156.167984,0.4921268,2.68266412784,0,0,-0.671082,140, 2.2, 2.9,0,0,1024,1024,1024,1024,140,-89.9,96,3.637,3.638,3.659,3.66,0,0,20.343,59,14,Waypoint,
36.6869779,-118.9584843,5097.4789144317,157.152236,0,1.74137472764,21310,2018-04-13 21:08:22,19,0,21.939,5097.4789144317,157.152236,0.4921268,2.68266412784,0,0,-0.671082,140.2, 2.2, 2.9,0,0,1024,1024,1024,1024,140,-89.9,96,3.637,3.638,3.659,3.66,0,0,20.343,59,14,Waypoint,
36.6869779,-118.9584843,5098.4631664317,158.136488,0,1.74137472764,21410,2018-04-13 21:08:22,19,0,21.939,5098.4631664317,158.136488,0.4921268,2.68266412784,0,0,-0.671082,140.1, 2.1, 3,0,0,1024,1024,1024,1024,140,-89.9,96,3.637,3.638,3.659,3.66,0,0,20.343,59,14,Waypoint,
36.6869779,-118.9584842,5099.7755024317,159.448824,0,1.76263129,21510,2018-04-13 21:08:22,19,0,21.939,5099.7755024317,159.448824,0.4921268,2.68266412784,0,0,-0.671082,139.8, 2, 3.1,0,0,1024,1024,1024,1024,140,-89.9,96,3.637,3.638,3.659,3.66,0,0,20.343,59,14,Waypoint,
36.686978,-118.9584842,5100.7597544317,160.433076,0,1.78774940104,21610,2018-04-13 21:08:22,19,0,21.939,5100.7597544317,160.433076,0.4921268,2.68266412784,0,0,-0.671082,139.5, 1.7, 3.3,0,0,1024,1024,1024,1024,140,-89.9,96,3.637,3.638,3.659,3.66,0,0,20.343,59,14,Waypoint,
36.686978,-118.9584841,5101.7440064317,161.417328,0,1.80893378492,21700,2018-04-13 21:08:22,19,0,21.939,5101.7440064317,161.417328,0.4921268,2.68266412784,0,0,-0.671082,139.1, 1.4, 3.6,0,0,1024,1024,1024,1024,140,-90,96,3.637,3.638,3.659,3.66,0,0,20.343,59,14,Waypoint,
36.686978,-118.9584841,5103.7125104317,163.385832,0,1.80893378492,21910,2018-04-13 21:08:22,19,0,21.939,5103.7125104317,163.385832,0.4921268,2.68266412784,0,0,-0.671082,138.6, 1.1, 3.9,0,0,1024,1024,1024,1024,140,-89.9,96,3.637,3.638,3.659,3.66,0,0,20.343,59,14,Waypoint,
36.686978,-118.958484,5104.6967624317,164.370084,0,1.83033798508,22010,2018-04-13 21:08:23,19,0,21.91,5104.6967624317,164.370084,0.4921268,2.68266412784,0,0,-0.671082,138.6, 1.3, 4.2,0,0,1024,1024,1024,1024,140,-89.9,96,3.635,3.635,3.654,3.666,0,0,20.572,59,14,Waypoint,
36.686978,-118.958484,5105.6810144317,165.354336,0,1.83033798508,22120,2018-04-13 21:08:23,19,0,21.91,5105.6810144317,165.354336,0.4921268,2.68266412784,0,0,-0.671082,138.8, 1.5, 4.2,0,0,1024,1024,1024,1024,140,-89.9,96,3.635,3.635,3.654,3.666,0,0,20.572,59,14,Waypoint,
36.686978,-118.9584838,5107.6495184317,167.32284,0,1.87378286836,22310,2018-04-13 21:08:23,19,0,21.91,5107.6495184317,167.32284,0.4921268,2.68266412784,0,0,-0.671082,139.4, 2, 4.2,0,0,1024,1024,1024,1024,140,-89.9,96,3.635,3.635,3.654,3.666,0,0,20.572,59,14,Waypoint,
36.686978,-118.9584837,5108.6337704317,168.307092,0,1.89581042812,22410,2018-04-13 21:08:23,19,0,21.91,5108.6337704317,168.307092,0.4921268,2.68266412784,0,0,-0.671082,139.6, 2.2, 4.3,0,0,1024,1024,1024,1024,140,-89.9,96,3.635,3.635,3.654,3.666,0,0,20.572,59,14,Waypoint,
36.6869781,-118.9584837,5109.9461064317,169.619428,0,1.9198819512,22600,2018-04-13 21:08:23,19,0,21.91,5109.9461064317,169.619428,0.4921268,2.68266412784,0,0,-0.671082,139.7, 2.1, 4.7,0,0,1024,1024,1024,1024,140,-89.9,96,3.635,3.635,3.654,3.666,0,0,20.572,59,14,Waypoint,
36.6869782,-118.9584835,5111.5865264317,171.259848,0,1.9878773602,22700,2018-04-13 21:08:23,19,0,21.91,5111.5865264317,171.259848,0.4921268,2.68266412784,0,0,-0.671082,139.3, 1.1, 5.1,0,0,1024,1024,1024,1024,140,-90,96,3.635,3.635,3.654,3.666,0,0,20.572,59,14,Waypoint,
36.6869782,-118.9584835,5112.5707784317,172.2441,0,1.9878773602,22800,2018-04-13 21:08:23,19,0,21.91,5112.5707784317,172.2441,0.4921268,2.68266412784,0,0,-0.671082,139.2, 0.9, 5.1,0,0,1024,1024,1024,1024,140,-90,96,3.635,3.635,3.654,3.666,0,0,20.572,59,14,Waypoint,
36.6869783,-118.9584834,5113.5550304317,173.228352,0,2.03396331968,22900,2018-04-13 21:08:23,19,0,21.91,5113.5550304317,173.228352,0.4921268,2.68266412784,0,0,-0.671082,139.2, 1, 5.1,0,0,1024,1024,1024,1024,140,-90,96,3.635,3.635,3.654,3.666,0,0,20.572,59,14,Waypoint,
36.6869784,-118.9584834,5114.5392824317,174.212604,0,2.05835964592,23000,2018-04-13 21:08:24,19,0,21.975,5114.5392824317,174.212604,0.4921268,2.68266412784,0,0,-0.671082,139.2, 1.1, 5.2,0,0,1024,1024,1024,1024,140,-89.9,96,3.674,3.669,3.666,3.665,0,0,18.175,59,14,Waypoint,
36.6869784,-118.9584833,5115.1954504317,174.868772,0,2.08007880672,23100,2018-04-13 21:08:24,19,0,21.975,5115.1954504317,174.868772,0.4921268,2.68266412784,0,0,-0.671082,139.1, 1.2, 5.5,0,0,1024,1024,1024,1024,140,-89.9,96,3.674,3.669,3.666,3.665,0,0,18.175,59,14,Waypoint,
36.6869785,-118.9584833,5116.1797024317,175.853024,0,2.10457027732,23200,2018-04-13 21:08:24,19,0,21.975,5116.1797024317,175.853024,0.4921268,2.68266412784,0,0,-0.671082,139, 0.9, 5.6,0,0,1024,1024,1024,1024,140,-90,96,3.674,3.669,3.666,3.665,0,0,18.175,59,14,Waypoint,
36.6869785,-118.9584832,5117.8201224317,177.493444,0,2.12622054048,23400,2018-04-13 21:08:24,19,0,21.975,5117.8201224317,177.493444,0.4921268,2.68266412784,0,0,-0.671082,139, 0.8, 5.3,0,0,1024,1024,1024,1024,140,-89.9,96,3.674,3.669,3.666,3.665,0,0,18.175,59,14,Waypoint,
36.6869785,-118.9584832,5118.8043744317,178.477696,0,2.12622054048,23500,2018-04-13 21:08:24,19,0,21.975,5118.8043744317,178.477696,0.4921268,2.68266412784,0,0,-0.671082,139, 1.1, 4.7,0,0,1024,1024,1024,1024,140,-89.9,96,3.674,3.669,3.666,3.665,0,0,18.175,59,14,Waypoint,
36.6869785,-118.9584832,5119.7886264317,179.461948,0,2.12622054048,23600,2018-04-13 21:08:24,19,0,21.975,5119.7886264317,179.461948,0.4921268,2.68266412784,0,0,-0.671082,139, 1.5, 4.3,0,0,1024,1024,1024,1024,140,-89.9,96,3.674,3.669,3.666,3.665,0,0,18.175,59,14,Waypoint,
36.6869784,-118.9584833,5120.7728784317,180.4462,0,2.08007880672,23700,2018-04-13 21:08:24,19,0,21.975,5120.7728784317,180.4462,0.4921268,2.68266412784,0,0,-0.671082,139.1, 1.6, 4.4,0,0,1024,1024,1024,1024,140,-89.9,96,3.674,3.669,3.666,3.665,0,0,18.175,59,14,Waypoint,
36.6869784,-118.9584833,5121.4290464317,181.102368,0,2.08007880672,23800,2018-04-13 21:08:24,19,0,21.975,5121.4290464317,181.102368,0.4921268,2.68266412784,0,0,-0.671082,139, 1.6, 4.3,0,0,1024,1024,1024,1024,140,-89.9,96,3.674,3.669,3.666,3.665,0,0,18.175,59,14,Waypoint,
36.6869784,-118.9584834,5122.7413824317,182.414704,0,2.05835964592,23900,2018-04-13 21:08:24,19,0,21.975,5122.7413824317,182.414704,0.4921268,2.68266412784,0,0,-0.671082,139, 1.5, 4.4,0,0,1024,1024,1024,1024,140,-89.9,96,3.674,3.669,3.666,3.665,0,0,18.175,59,14,Waypoint,
36.6869784,-118.9584834,5123.3975504317,183.070872,0,2.05835964592,24000,2018-04-13 21:08:25,19,0,22.163,5123.3975504317,183.070872,0.4921268,2.68266412784,0,0,-0.671082,139, 1.6, 4.5,0,0,1024,1024,1024,1024,140,-89.9,95,3.677,3.675,3.687,3.692,0,0,18.071,59,14,Waypoint,
36.6869784,-118.9584835,5124.3818024317,184.055124,0,2.036827493,24100,2018-04-13 21:08:25,19,0,22.163,5124.3818024317,184.055124,0.4921268,2.68266412784,0,0,-0.671082,139, 1.5, 4.4,0,0,1024,1024,1024,1024,140,-89.9,95,3.677,3.675,3.687,3.692,0,0,18.071,59,14,Waypoint,
36.6869783,-118.9584835,5125.3660544317,185.039376,0,2.0121719804,24200,2018-04-13 21:08:25,19,0,22.163,5125.3660544317,185.039376,0.4921268,2.68266412784,0,0,-0.671082,139, 1.4, 4,0,0,1024,1024,1024,1024,140,-89.9,95,3.677,3.675,3.687,3.692,0,0,18.071,59,14,Waypoint,
36.6869783,-118.9584836,5127.3345584317,187.00788,0,1.99057092984,24500,2018-04-13 21:08:25,19,0,22.163,5127.3345584317,187.00788,0.4921268,2.68266412784,0,0,-0.671082,138.9, 1.2, 3.9,0,0,1024,1024,1024,1024,140,-89.9,95,3.677,3.675,3.687,3.692,0,0,18.071,59,14,Waypoint,
36.6869783,-118.9584837,5128.3188104317,187.992132,0,1.96917001052,24610,2018-04-13 21:08:25,19,0,22.163,5128.3188104317,187.992132,0.4921268,2.68266412784,0,0,-0.671082,138.9, 1.2, 3.9,0,0,1024,1024,1024,1024,140,-90,95,3.677,3.675,3.687,3.692,0,0,18.071,59,14,Waypoint,
36.6869783,-118.9584838,5130.2873144317,189.960636,0,1.94797250328,24700,2018-04-13 21:08:25,19,0,22.163,5130.2873144317,189.960636,0.4921268,2.68266412784,0,0,-0.671082,138.9, 0.9, 4.2,0,0,1024,1024,1024,1024,140,-90,95,3.677,3.675,3.687,3.692,0,0,18.071,59,14,Waypoint,
36.6869783,-118.9584839,5132.2558184317,191.92914,0,1.9269849698,24910,2018-04-13 21:08:25,19,0,22.163,5132.2558184317,191.92914,0.4921268,2.68266412784,0,0,-0.671082,139.1, 0.8, 4,0,0,1024,1024,1024,1024,140,-89.9,95,3.677,3.675,3.687,3.692,0,0,18.071,59,14,Waypoint,
36.6869782,-118.958484,5133.2400704317,192.913392,0,1.88055780296,25000,2018-04-13 21:08:26,19,0,21.978,5133.2400704317,192.913392,0.4921268,2.68266412784,0,0,-0.671082,139.2, 1.1, 3.7,0,0,1024,1024,1024,1024,140,-89.9,95,3.652,3.644,3.678,3.678,0,0,19.27,60.8,14,Waypoint,
36.6869782,-118.958484,5134.2243224317,193.897644,0,1.88055780296,25110,2018-04-13 21:08:26,19,0,21.978,5134.2243224317,193.897644,0.4921268,2.68266412784,0,0,-0.671082,139.3, 1.3, 3.5,0,0,1024,1024,1024,1024,140,-89.9,95,3.652,3.644,3.678,3.678,0,0,19.27,60.8,14,Waypoint,
36.6869781,-118.9584841,5135.2085744317,194.881896,0,1.83414375948,25200,2018-04-13 21:08:26,19,0,21.978,5135.2085744317,194.881896,0.4921268,2.68266412784,0,0,-0.671082,139.4, 1.5, 3.5,0,0,1024,1024,1024,1024,140,-89.9,95,3.652,3.644,3.678,3.678,0,0,19.27,60.8,14,Waypoint,
36.6869781,-118.9584841,5136.1928264317,195.866148,0,1.83414375948,25310,2018-04-13 21:08:26,19,0,21.978,5136.1928264317,195.866148,0.4921268,2.68266412784,0,0,-0.671082,139.4, 1.6, 3.7,0,0,1024,1024,1024,1024,140,-89.9,95,3.652,3.644,3.678,3.678,0,0,19.27,60.8,14,Waypoint,
36.6869781,-118.9584842,5137.1770784317,196.8504,0,1.81325793204,25410,2018-04-13 21:08:26,19,0,21.978,5137.1770784317,196.8504,0.4921268,2.68266412784,0,0,-0.671082,139.4, 1.6, 3.7,0,0,1024,1024,1024,1024,140,-89.9,95,3.652,3.644,3.678,3.678,0,0,19.27,60.8,14,Waypoint,
36.6869781,-118.9584843,5138.1613304317,197.834652,0,1.79260504424,25510,2018-04-13 21:08:26,19,0,21.978,5138.1613304317,197.834652,0.4921268,2.68266412784,0,0,-0.671082,139.4, 1.5, 3.5,0,0,1024,1024,1024,1024,140,-89.9,95,3.652,3.644,3.678,3.678,0,0,19.27,60.8,14,Waypoint,
36.6869781,-118.9584844,5139.1455824317,198.818904,0.223694,1.77219165776,25610,2018-04-13 21:08:26,19,0,21.978,5139.1455824317,198.818904,0.4921268,2.68266412784,0,0,-0.671082,139.3, 1, 3.4,0,0,1024,1024,1024,1024,140,-90,95,3.652,3.644,3.678,3.678,0,0,19.27,60.8,14,Waypoint,
36.6869781,-118.9584845,5140.1298344317,199.803156,0.223694,1.75203089596,25700,2018-04-13 21:08:26,19,0,21.978,5140.1298344317,199.803156,0.4921268,2.68266412784,0,0,-0.671082,139.2, 0.5, 3.4,0,0,1024,1024,1024,1024,140,-90,95,3.652,3.644,3.678,3.678,0,0,19.27,60.8,14,Waypoint,
36.6869781,-118.9584846,5141.1140864317,200.787408,0.223694,1.73213260136,25800,2018-04-13 21:08:26,19,0,21.978,5141.1140864317,200.787408,0.4921268,2.68266412784,0,0,-0.671082,139.1, 0.1, 3.5,0,0,1024,1024,1024,1024,140,-90,95,3.652,3.644,3.678,3.678,0,0,19.27,60.8,14,Waypoint,
36.6869781,-118.9584846,5142.4264224317,202.099744,0,1.73213260136,25910,2018-04-13 21:08:26,19,0,21.978,5142.4264224317,202.099744,0.4921268,2.68266412784,0,0,-0.671082,139.1, 0.1, 3.4,0,0,1024,1024,1024,1024,140,-90,95,3.652,3.644,3.678,3.678,0,0,19.27,60.8,14,Waypoint,
36.6869781,-118.9584847,5143.4106744317,203.083996,0,1.7125000548,26010,2018-04-13 21:08:27,19,0,21.982,5143.4106744317,203.083996,0.4921268,2.68266412784,0,0,-0.671082,139.1, 0.3, 2.9,0,0,1024,1024,1024,1024,140,-90,95,3.646,3.648,3.665,3.672,0,0,19.308,60.8,14,Waypoint,
36.6869781,-118.9584847,5144.3949264317,204.068248,0,1.7125000548,26110,2018-04-13 21:08:27,19,0,21.982,5144.3949264317,204.068248,0.4921268,2.68266412784,0,0,-0.671082,139.2, 0.4, 2.7,0,0,1024,1024,1024,1024,140,-90,95,3.646,3.648,3.665,3.672,0,0,19.308,60.8,14,Waypoint,
36.6869781,-118.9584847,5145.3791784317,205.0525,0,1.7125000548,26210,2018-04-13 21:08:27,19,0,21.982,5145.3791784317,205.0525,0.4921268,2.68266412784,0,0,-0.671082,139.3, 0.7, 2.6,0,0,1024,1024,1024,1024,140,-89.9,95,3.646,3.648,3.665,3.672,0,0,19.308,60.8,14,Waypoint,
36.686978,-118.9584847,5146.3634304317,206.036752,0,1.68546921404,26300,2018-04-13 21:08:27,19,0,21.982,5146.3634304317,206.036752,0.4921268,2.68266412784,0,0,-0.671082,139.4, 1, 2.6,0,0,1024,1024,1024,1024,140,-89.9,95,3.646,3.648,3.665,3.672,0,0,19.308,60.8,14,Waypoint,
36.686978,-118.9584847,5148.3319344317,208.005256,0,1.68546921404,26510,2018-04-13 21:08:27,19,0,21.982,5148.3319344317,208.005256,0.4921268,2.68266412784,0,0,-0.671082,139.7, 1.2, 3.2,0,0,1024,1024,1024,1024,140,-89.9,95,3.646,3.648,3.665,3.672,0,0,19.308,60.8,14,Waypoint,
36.686978,-118.9584846,5149.3161864317,208.989508,0,1.7054134404,26610,2018-04-13 21:08:27,19,0,21.982,5149.3161864317,208.989508,0.4921268,2.68266412784,0,0,-0.671082,139.8, 1.4, 3.8,0,0,1024,1024,1024,1024,140,-89.9,95,3.646,3.648,3.665,3.672,0,0,19.308,60.8,14,Waypoint,
36.686978,-118.9584846,5150.3004384317,209.97376,0,1.7054134404,26700,2018-04-13 21:08:27,19,0,21.982,5150.3004384317,209.97376,0.4921268,2.68266412784,0,0,-0.671082,139.6, 1.4, 4,0,0,1024,1024,1024,1024,140,-89.9,95,3.646,3.648,3.665,3.672,0,0,19.308,60.8,14,Waypoint,
36.686978,-118.9584846,5151.2846904317,210.958012,0,1.7054134404,26900,2018-04-13 21:08:27,19,0,21.982,5151.2846904317,210.958012,0.4921268,2.68266412784,0,0,-0.671082,139.3, 1.3, 3.9,0,0,1024,1024,1024,1024,140,-89.9,95,3.646,3.648,3.665,3.672,0,0,19.308,60.8,14,Waypoint,
36.686978,-118.9584845,5152.2689424317,211.942264,0,1.72562013396,27000,2018-04-13 21:08:28,19,0,21.949,5152.2689424317,211.942264,0.4921268,2.68266412784,0,0,-0.671082,139, 1.2, 3.5,0,0,1024,1024,1024,1024,140,-89.9,95,3.639,3.651,3.653,3.671,0,0,19.661,60.8,14,Waypoint,
36.6869781,-118.9584846,5154.2374464317,213.910768,0,1.73213260136,27100,2018-04-13 21:08:28,19,0,21.949,5154.2374464317,213.910768,0.4921268,2.68266412784,0,0,-0.671082,138.5, 0.9, 3.5,0,0,1024,1024,1024,1024,140,-90,95,3.639,3.651,3.653,3.671,0,0,19.661,60.8,14,Waypoint,
36.6869781,-118.9584846,5155.5497824317,215.223104,0,1.73213260136,27200,2018-04-13 21:08:28,19,0,21.949,5155.5497824317,215.223104,0.4921268,2.68266412784,0,0,-0.671082,138.3, 0.9, 3.7,0,0,1024,1024,1024,1024,140,-90,95,3.639,3.651,3.653,3.671,0,0,19.661,60.8,14,Waypoint,
36.6869781,-118.9584846,5157.5182864317,217.191608,0,1.73213260136,27400,2018-04-13 21:08:28,19,0,21.949,5157.5182864317,217.191608,0.4921268,2.68266412784,0,0,-0.671082,137.9, 0.8, 3.4,0,0,1024,1024,1024,1024,140,-89.9,95,3.639,3.651,3.653,3.671,0,0,19.661,60.8,14,Waypoint,
36.6869782,-118.9584846,5158.5025384317,218.17586,0,1.7592028122,27500,2018-04-13 21:08:28,19,0,21.949,5158.5025384317,218.17586,0.4921268,2.68266412784,0,0,-0.671082,137.9, 0.8, 4.1,0,0,1024,1024,1024,1024,140,-89.9,95,3.639,3.651,3.653,3.671,0,0,19.661,60.8,14,Waypoint,
36.6869782,-118.9584846,5159.4867904317,219.160112,0,1.7592028122,27600,2018-04-13 21:08:28,19,0,21.949,5159.4867904317,219.160112,0.4921268,2.68266412784,0,0,-0.671082,138, 0.8, 4.6,0,0,1024,1024,1024,1024,140,-89.9,95,3.639,3.651,3.653,3.671,0,0,19.661,60.8,14,Waypoint,
36.6869783,-118.9584845,5160.7991264317,220.472448,0,1.80590885044,27700,2018-04-13 21:08:28,19,0,21.949,5160.7991264317,220.472448,0.4921268,2.68266412784,0,0,-0.671082,138.3, 0.8, 4.7,0,0,1024,1024,1024,1024,140,-89.9,95,3.639,3.651,3.653,3.671,0,0,19.661,60.8,14,Waypoint,
36.6869783,-118.9584845,5161.7833784317,221.4567,0,1.80590885044,27800,2018-04-13 21:08:28,19,0,21.949,5161.7833784317,221.4567,0.4921268,2.68266412784,0,0,-0.671082,138.7, 0.7, 4.6,0,0,1024,1024,1024,1024,140,-90,95,3.639,3.651,3.653,3.671,0,0,19.661,60.8,14,Waypoint,
