Latitude, Longitude, Altitude (m), Time, Sats, Speed (m/s), Range (m), Battery (%), Roll (deg), Pitch (deg), Yaw (deg), Images, HD Signal (%), RC Signal (%), Battery Temp (C), Battery Voltage (mV), Battery Current (mA), Battery Energy (mAh), Battery Capacity (mAh), Battery Discharges, flyState, timestamp (Unix), LastUpdate (ms), radioChannel, Rc_elevator, Rc_aileron, Rc_throttle, Rc_rudder, Rc_gyro, Dronetype, Battery_Cell1 (mV), Battery_Cell2 (mV), Battery_Cell3 (mV), Battery_Cell4 (mV), Battery_Cell5 (mV), Battery_Cell6 (mV), Video, isFlying, elapsedTime (ms), gimbalPitch (deg), gimbalRoll (deg), gimbalYaw (deg), VelocityX (m/s), VelocityY (m/s), VelocityZ (m/s), GroundSmear (cm), App Version, Aircraft Name, Aircraft Firmware, Aircraft Serial Number, Battery Serial Number, Battery Lifetime (%), App_Tip, App_Warning, CurrentFlightStartingIndex, CurrentFlightLastVisitedWaypoint, PreviousFlightEndingWaypointIndex
36.6440291, -118.9467465, 0.000, 11:37:04.945, 14, 0.00, 0.01, 100, -1.300, -1.500, 10.800, 705, 100, 100, 16, 25323, -3083, 5586, 5586, 6, 11, 1523644624.946, 77, 0, 1024, 1024, 1025, 1024, 0, 6, 4198, 4180, 4204, 4232, 4275, 4193, 0, 1, 2936, -90.000, 0.000, 9.400, 0.000, 0.000, -0.100, 0.0, MapPilot_2.7.4_02272018, Dendroctonus I, 1.3.1.00, 041DDC1887, 1058163200445, 99, DJI_0705.jpg, Starting Mission from Lat/Long: 36.64403/-118.94675 Camera: Zenmuse X3 - Overlap: 90/90 - Active Connection: Yes, 37, 37, 37
36.6440292, -118.9467466, 0.000, 11:37:05.010, 14, 0.14, 0.02, 100, -1.100, -1.500, 10.900, 705, 100, 100, 16, 25323, -3083, 5586, 5586, 6, 11, 1523644625.011, 46, 0, 1024, 1024, 1025, 1024, 0, 6, 4198, 4180, 4204, 4232, 4275, 4193, 0, 1, 3001, -89.900, 0.000, 9.400, 0.100, -0.100, -0.200, 0.0, , , , , , 99, , , 37, 37, 37
36.6440293, -118.9467467, 0.000, 11:37:05.110, 14, 0.14, 0.04, 100, -0.600, -0.600, 10.900, 705, 100, 100, 16, 25323, -3083, 5586, 5586, 6, 11, 1523644625.111, 62, 0, 1024, 1024, 1025, 1024, 0, 6, 4198, 4180, 4204, 4232, 4275, 4193, 0, 1, 3101, -89.900, 0.000, 9.400, 0.100, -0.100, -0.300, 0.0, , , , , , 99, , , 37, 37, 37
36.6440295, -118.9467469, 0.000, 11:37:05.212, 14, 0.22, 0.06, 100, -0.200, 0.000, 10.900, 705, 100, 100, 16, 25323, -3083, 5586, 5586, 6, 11, 1523644625.213, 45, 0, 1024, 1024, 1025, 1024, 0, 6, 4198, 4180, 4204, 4232, 4275, 4193, 0, 1, 3203, -89.900, 0.000, 9.400, 0.200, -0.100, -0.300, 0.0, , , , , , 99, , , 37, 37, 37
36.6440297, -118.9467471, 0.100, 11:37:05.311, 14, 0.22, 0.09, 100, 0.100, 0.900, 10.800, 705, 100, 100, 16, 25323, -3083, 5586, 5586, 6, 11, 1523644625.313, 46, 0, 1024, 1024, 1025, 1024, 0, 6, 4198, 4180, 4204, 4232, 4275, 4193, 0, 1, 3303, -89.900, 0.000, 9.400, 0.200, -0.100, -0.300, 0.0, , , , , , 99, , , 37, 37, 37
36.6440301, -118.9467475, 0.100, 11:37:05.411, 14, 0.22, 0.15, 100, 2.100, 1.900, 10.400, 705, 100, 100, 16, 25323, -3083, 5586, 5586, 6, 11, 1523644625.412, 46, 0, 1024, 1024, 1025, 1024, 0, 6, 4198, 4180, 4204, 4232, 4275, 4193, 0, 1, 3403, -89.900, 0.000, 9.500, 0.200, -0.100, -0.300, 0.0, , , , , , 99, , , 37, 37, 37
36.6440303, -118.9467476, 0.200, 11:37:05.510, 14, 0.22, 0.18, 100, 2.600, 2.200, 10.200, 705, 100, 100, 16, 25323, -3083, 5586, 5586, 6, 11, 1523644625.511, 38, 0, 1024, 1024, 1025, 1024, 0, 6, 4198, 4180, 4204, 4232, 4275, 4193, 0, 1, 3501, -89.900, 0.000, 9.500, 0.200, -0.100, -0.400, 0.0, , , , , , 99, , , 37, 37, 37
36.6440305, -118.9467478, 0.200, 11:37:05.612, 13, 0.14, 0.20, 100, 2.700, 2.200, 10.100, 705, 100, 100, 16, 25323, -3083, 5586, 5586, 6, 11, 1523644625.613, 14, 0, 1024, 1024, 1025, 1024, 0, 6, 4198, 4180, 4204, 4232, 4275, 4193, 0, 1, 3603, -89.900, 0.000, 9.500, 0.100, -0.100, -0.400, 0.0, , , , , , 99, , , 37, 37, 37
36.6440306, -118.9467479, 0.300, 11:37:05.709, 13, 0.10, 0.22, 100, 2.200, 1.900, 10.100, 705, 100, 100, 16, 25323, -3083, 5586, 5586, 6, 11, 1523644625.710, 27, 0, 1024, 1024, 1025, 1024, 0, 6, 4198, 4180, 4204, 4232, 4275, 4193, 0, 1, 3701, -89.900, 0.000, 9.500, 0.100, 0.000, -0.400, 0.0, , , , , , 99, , , 37, 37, 37
36.6440308, -118.9467479, 0.300, 11:37:05.814, 14, 0.10, 0.23, 100, 1.600, 1.800, 10.300, 705, 100, 100, 16, 23926, -13886, 5474, 5586, 6, 11, 1523644625.815, 15, 0, 1024, 1024, 1025, 1024, 0, 6, 4198, 4180, 4204, 4232, 4275, 4193, 0, 1, 3805, -89.900, 0.000, 9.500, 0.100, 0.000, -0.400, 0.0, , , , , , 99, , , 37, 37, 37
36.6440309, -118.9467479, 0.400, 11:37:05.921, 14, 0.10, 0.25, 100, 1.300, 1.900, 10.600, 705, 100, 100, 16, 23926, -13886, 5474, 5586, 6, 11, 1523644625.922, 9, 0, 1024, 1024, 1025, 1024, 0, 6, 4198, 4180, 4204, 4232, 4275, 4193, 0, 1, 3912, -89.900, 0.000, 9.600, 0.100, 0.000, -0.500, 0.0, , , , , , 99, , , 37, 37, 37
36.6440311, -118.9467480, 0.400, 11:37:06.010, 14, 0.10, 0.27, 100, 1.200, 2.100, 10.800, 705, 100, 100, 16, 23926, -13886, 5474, 5586, 6, 11, 1523644626.011, 24, 0, 1024, 1024, 1025, 1024, 0, 6, 3981, 3952, 3957, 3996, 4004, 4182, 0, 1, 4001, -89.900, 0.000, 9.600, 0.100, 0.000, -0.500, 0.0, , , , , , 99, , , 37, 37, 37
36.6440313, -118.9467480, 0.500, 11:37:06.110, 14, 0.10, 0.29, 100, 0.900, 2.300, 11.000, 705, 100, 100, 16, 23926, -13886, 5474, 5586, 6, 11, 1523644626.111, 29, 0, 1024, 1024, 1025, 1024, 0, 6, 3981, 3952, 3957, 3996, 4004, 4182, 0, 1, 4102, -89.900, 0.000, 9.600, 0.100, 0.000, -0.500, 0.0, , , , , , 99, , , 37, 37, 37
36.6440313, -118.9467480, 0.500, 11:37:06.210, 14, 0.10, 0.29, 100, 0.900, 2.300, 11.000, 705, 100, 100, 16, 23926, -13886, 5474, 5586, 6, 11, 1523644626.211, 129, 0, 1024, 1024, 1025, 1024, 0, 6, 3981, 3952, 3957, 3996, 4004, 4182, 0, 1, 4201, -89.900, 0.000, 9.600, 0.100, 0.000, -0.500, 0.0, , , , , , 99, , , 37, 37, 37
36.6440315, -118.9467480, 0.600, 11:37:06.310, 14, 0.10, 0.31, 100, 0.800, 2.400, 11.100, 705, 100, 100, 16, 23926, -13886, 5474, 5586, 6, 11, 1523644626.311, 79, 0, 1024, 1024, 1025, 1024, 0, 6, 3981, 3952, 3957, 3996, 4004, 4182, 0, 1, 4301, -89.900, 0.000, 9.600, 0.100, 0.000, -0.400, 0.0, , , , , , 99, , , 37, 37, 37
36.6440317, -118.9467481, 0.600, 11:37:06.411, 14, 0.10, 0.33, 100, 0.700, 2.300, 11.200, 705, 100, 99, 16, 23926, -13886, 5474, 5586, 6, 11, 1523644626.412, 80, 0, 1024, 1024, 1025, 1024, 0, 6, 3981, 3952, 3957, 3996, 4004, 4182, 0, 1, 4402, -89.900, 0.000, 9.600, 0.100, 0.000, -0.400, 0.0, , , , , , 99, , , 37, 37, 37
36.6440318, -118.9467481, 0.700, 11:37:06.512, 14, 0.10, 0.34, 100, 0.800, 2.000, 11.400, 705, 100, 99, 16, 23926, -13886, 5474, 5586, 6, 11, 1523644626.512, 81, 0, 1024, 1024, 1025, 1024, 0, 6, 3981, 3952, 3957, 3996, 4004, 4182, 0, 1, 4503, -89.900, 0.000, 9.600, 0.100, 0.000, -0.400, 0.0, , , , , , 99, , , 37, 37, 37
36.6440321, -118.9467482, 0.800, 11:37:06.612, 13, 0.10, 0.38, 100, 0.700, 1.900, 11.600, 705, 100, 99, 16, 23926, -13886, 5474, 5586, 6, 11, 1523644626.612, 11, 0, 1024, 1024, 1025, 1024, 0, 6, 3981, 3952, 3957, 3996, 4004, 4182, 0, 1, 4603, -89.900, 0.000, 9.700, 0.100, 0.000, -0.400, 0.0, , , , , , 99, , , 37, 37, 37
36.6440321, -118.9467482, 0.800, 11:37:06.712, 13, 0.10, 0.38, 100, 0.700, 1.900, 11.600, 705, 100, 99, 16, 23926, -13886, 5474, 5586, 6, 11, 1523644626.713, 112, 0, 1024, 1024, 1025, 1024, 0, 6, 3981, 3952, 3957, 3996, 4004, 4182, 0, 1, 4703, -89.900, 0.000, 9.700, 0.100, 0.000, -0.400, 0.0, , , , , , 99, , , 37, 37, 37
36.6440324, -118.9467483, 0.800, 11:37:06.812, 13, 0.10, 0.40, 98, 1.000, 1.800, 11.500, 705, 100, 99, 16, 23503, -15800, 5474, 5586, 6, 11, 1523644626.813, 66, 0, 1024, 1024, 1025, 1024, 0, 6, 3981, 3952, 3957, 3996, 4004, 4182, 0, 1, 4803, -89.900, 0.000, 9.700, 0.100, 0.000, -0.500, 0.0, , , , , , 99, , , 37, 37, 37
36.6440326, -118.9467484, 0.900, 11:37:06.912, 14, 0.10, 0.43, 98, 1.200, 2.000, 11.300, 705, 100, 99, 16, 23503, -15800, 5474, 5586, 6, 6, 1523644626.913, 64, 0, 1024, 1024, 1025, 1024, 0, 6, 3981, 3952, 3957, 3996, 4004, 4182, 0, 1, 4903, -89.900, 0.000, 9.700, 0.100, 0.000, -0.500, 0.0, , , , , , 99, , , 37, 37, 37
36.6440327, -118.9467485, 0.900, 11:37:07.012, 14, 0.10, 0.44, 98, 1.400, 2.200, 11.100, 705, 100, 99, 16, 23503, -15800, 5474, 5586, 6, 14, 1523644627.013, 61, 0, 1024, 1024, 1025, 1024, 0, 6, 3981, 3952, 3957, 3996, 4004, 4182, 0, 1, 5004, -89.900, 0.000, 9.700, 0.100, 0.000, -0.400, 0.0, , , , , , 99, , , 37, 37, 37
36.6440328, -118.9467486, 1.000, 11:37:07.110, 14, 0.10, 0.46, 98, 1.700, 2.600, 11.000, 705, 100, 99, 16, 23503, -15800, 5474, 5586, 6, 14, 1523644627.111, 49, 0, 1024, 1024, 1025, 1024, 0, 6, 3981, 3952, 3957, 3996, 4004, 4182, 0, 1, 5102, -89.900, 0.000, 9.700, 0.100, 0.000, -0.300, 0.0, , , , , , 99, , , 37, 37, 37
36.6440330, -118.9467488, 1.000, 11:37:07.211, 14, 0.10, 0.49, 98, 1.800, 2.700, 10.900, 705, 100, 99, 16, 23503, -15800, 5474, 5586, 6, 14, 1523644627.212, 34, 0, 1024, 1024, 1025, 1024, 0, 6, 3981, 3952, 3957, 3996, 4004, 4182, 0, 1, 5202, -89.900, 0.000, 9.700, 0.100, 0.000, -0.200, 0.0, , , , , , 99, , , 37, 37, 37
36.6440332, -118.9467490, 1.100, 11:37:07.310, 14, 0.10, 0.52, 98, 2.200, 2.700, 10.900, 705, 100, 99, 16, 23503, -15800, 5474, 5586, 6, 14, 1523644627.311, 82, 0, 1024, 1024, 1025, 1024, 0, 6, 3981, 3952, 3957, 3996, 4004, 4182, 0, 1, 5301, -89.900, 0.000, 9.800, 0.100, 0.000, -0.300, 0.0, , , , , , 99, , , 37, 37, 37
36.6440334, -118.9467490, 1.100, 11:37:07.410, 14, 0.10, 0.53, 98, 2.300, 2.600, 11.000, 705, 100, 99, 16, 23503, -15800, 5474, 5586, 6, 14, 1523644627.410, 86, 0, 1024, 1024, 1025, 1024, 0, 6, 3981, 3952, 3957, 3996, 4004, 4182, 0, 1, 5400, -89.900, 0.000, 9.800, 0.100, 0.000, -0.400, 0.0, , , , , , 99, , , 37, 37, 37
36.6440335, -118.9467490, 1.200, 11:37:07.510, 14, 0.10, 0.54, 98, 1.800, 2.600, 11.000, 705, 100, 99, 16, 23503, -15800, 5474, 5586, 6, 14, 1523644627.511, 54, 0, 1024, 1024, 1025, 1024, 0, 6, 3981, 3952, 3957, 3996, 4004, 4182, 0, 1, 5501, -89.900, 0.000, 9.800, 0.100, 0.000, -0.500, 0.0, , , , , , 99, , , 37, 37, 37
36.6440336, -118.9467490, 1.200, 11:37:07.610, 14, 0.00, 0.56, 98, 1.300, 2.600, 11.000, 705, 100, 99, 16, 23503, -15800, 5474, 5586, 6, 14, 1523644627.610, 48, 0, 1024, 1024, 1025, 1024, 0, 6, 3981, 3952, 3957, 3996, 4004, 4182, 0, 1, 5601, -89.900, 0.000, 9.800, 0.000, 0.000, -0.600, 0.0, , , , , , 99, , , 37, 37, 37
36.6440338, -118.9467490, 1.300, 11:37:07.710, 14, 0.00, 0.57, 98, 1.000, 2.500, 11.000, 705, 100, 99, 16, 23503, -15800, 5474, 5586, 6, 14, 1523644627.711, 65, 0, 1024, 1024, 1025, 1024, 0, 6, 3981, 3952, 3957, 3996, 4004, 4182, 0, 1, 5701, -89.900, 0.000, 9.800, 0.000, 0.000, -0.800, 0.0, , , , , , 99, , , 37, 37, 37
36.6440339, -118.9467490, 1.500, 11:37:07.810, 14, 0.00, 0.59, 98, 1.000, 2.400, 11.200, 705, 100, 100, 16, 23491, -15919, 5474, 5586, 6, 14, 1523644627.811, 48, 0, 1024, 1024, 1024, 1024, 0, 6, 3902, 3891, 3938, 3984, 3994, 3894, 0, 1, 5801, -89.900, 0.000, 9.800, 0.000, 0.000, -1.200, 0.0, , , , , , 99, , , 37, 37, 37
36.6440339, -118.9467490, 1.500, 11:37:07.910, 14, 0.00, 0.59, 98, 1.000, 2.400, 11.200, 705, 100, 100, 16, 23491, -15919, 5474, 5586, 6, 14, 1523644627.911, 148, 0, 1024, 1024, 1025, 1024, 0, 6, 3902, 3891, 3938, 3984, 3994, 3894, 0, 1, 5901, -89.900, 0.000, 9.900, 0.000, 0.000, -1.200, 0.0, , , , , , 99, , , 37, 37, 37
36.6440339, -118.9467490, 1.500, 11:37:08.010, 14, 0.00, 0.59, 98, 1.000, 2.400, 11.200, 705, 100, 100, 16, 23491, -15919, 5474, 5586, 6, 14, 1523644628.011, 248, 0, 1024, 1024, 1025, 1024, 0, 6, 3902, 3891, 3938, 3984, 3994, 3894, 0, 1, 6001, -89.900, 0.000, 9.900, 0.000, 0.000, -1.200, 0.0, , , , , , 99, , , 37, 37, 37
36.6440340, -118.9467492, 1.800, 11:37:08.110, 14, 0.00, 0.61, 98, 1.600, 2.200, 11.400, 705, 100, 100, 16, 23491, -15919, 5474, 5586, 6, 14, 1523644628.111, 36, 0, 1024, 1024, 1025, 1024, 0, 6, 3902, 3891, 3938, 3984, 3994, 3894, 0, 1, 6101, -89.900, 0.000, 9.900, 0.000, 0.000, -1.500, 0.0, , , , , , 99, , , 37, 37, 37
36.6440341, -118.9467493, 2.000, 11:37:08.219, 14, 0.00, 0.62, 98, 1.800, 2.200, 11.400, 705, 100, 100, 16, 23491, -15919, 5474, 5586, 6, 14, 1523644628.220, 6, 0, 1024, 1024, 1025, 1024, 0, 6, 3902, 3891, 3938, 3984, 3994, 3894, 0, 1, 6210, -89.900, 0.000, 9.900, 0.000, 0.000, -1.800, 0.0, , , , , , 99, , , 37, 37, 37
36.6440342, -118.9467495, 2.400, 11:37:08.319, 13, 0.00, 0.64, 98, 1.400, 2.000, 11.400, 705, 100, 99, 16, 23491, -15919, 5474, 5586, 6, 14, 1523644628.319, 14, 0, 1024, 1024, 1025, 1024, 0, 6, 3902, 3891, 3938, 3984, 3994, 3894, 0, 1, 6310, -89.900, 0.000, 9.900, 0.000, 0.000, -2.400, 0.0, , , , , , 99, , , 37, 37, 37
36.6440342, -118.9467495, 2.400, 11:37:08.411, 13, 0.00, 0.64, 98, 1.400, 2.000, 11.400, 705, 100, 99, 16, 23491, -15919, 5474, 5586, 6, 14, 1523644628.412, 107, 0, 1024, 1024, 1025, 1024, 0, 6, 3902, 3891, 3938, 3984, 3994, 3894, 0, 1, 6403, -89.900, 0.000, 9.900, 0.000, 0.000, -2.400, 0.0, , , , , , 99, , , 37, 37, 37
36.6440343, -118.9467497, 2.700, 11:37:08.517, 14, 0.00, 0.65, 98, 1.600, 1.900, 11.400, 705, 100, 99, 16, 23491, -15919, 5474, 5586, 6, 14, 1523644628.517, 23, 0, 1024, 1024, 1025, 1024, 0, 6, 3902, 3891, 3938, 3984, 3994, 3894, 0, 1, 6508, -90.000, 0.000, 9.900, 0.000, 0.000, -2.600, 0.0, , , , , , 99, , , 37, 37, 37
36.6440343, -118.9467497, 2.700, 11:37:08.610, 14, 0.00, 0.65, 98, 1.600, 1.900, 11.400, 705, 100, 99, 16, 23491, -15919, 5474, 5586, 6, 14, 1523644628.611, 117, 0, 1024, 1024, 1025, 1024, 0, 6, 3902, 3891, 3938, 3984, 3994, 3894, 0, 1, 6602, -90.000, 0.000, 9.900, 0.000, 0.000, -2.600, 0.0, , , , , , 99, , , 37, 37, 37
36.6440344, -118.9467503, 3.300, 11:37:08.737, 14, 0.00, 0.69, 98, 2.200, 1.600, 11.200, 705, 100, 99, 16, 23491, -15919, 5474, 5586, 6, 14, 1523644628.737, 9, 0, 1024, 1024, 1025, 1024, 0, 6, 3902, 3891, 3938, 3984, 3994, 3894, 0, 1, 6728, -89.900, 0.000, 10.000, 0.000, 0.000, -3.000, 0.0, , , , , , 99, , , 37, 37, 37
36.6440344, -118.9467503, 3.300, 11:37:08.810, 14, 0.00, 0.69, 98, 2.200, 1.600, 11.200, 705, 100, 99, 16, 23491, -15919, 5474, 5586, 6, 14, 1523644628.811, 83, 0, 1024, 1024, 1025, 1024, 0, 6, 3902, 3891, 3938, 3984, 3994, 3894, 0, 1, 6801, -89.900, 0.000, 10.000, 0.000, 0.000, -3.000, 0.0, , , , , , 99, , , 37, 37, 37
36.6440345, -118.9467506, 3.600, 11:37:08.910, 14, 0.00, 0.71, 98, 2.700, 1.800, 11.200, 705, 100, 99, 16, 22838, -23170, 5474, 5586, 6, 14, 1523644628.912, 30, 0, 1024, 1024, 1025, 1024, 0, 6, 3902, 3891, 3938, 3984, 3994, 3894, 0, 1, 6903, -89.900, 0.000, 10.000, 0.000, 0.000, -3.000, 0.0, , , , , , 99, , , 37, 37, 37
36.6440347, -118.9467509, 3.900, 11:37:09.012, 12, 0.00, 0.75, 98, 3.000, 2.000, 11.100, 705, 100, 99, 16, 22838, -23170, 5474, 5586, 6, 14, 1523644629.013, 13, 0, 1024, 1024, 1025, 1024, 0, 6, 3788, 3788, 3762, 3799, 3827, 3775, 0, 1, 7003, -89.900, 0.000, 10.000, 0.000, 0.000, -3.100, 0.0, , , , , , 99, , , 37, 37, 37
36.6440347, -118.9467509, 3.900, 11:37:09.110, 12, 0.00, 0.75, 98, 3.000, 2.000, 11.100, 705, 100, 99, 16, 22838, -23170, 5474, 5586, 6, 14, 1523644629.113, 113, 0, 1024, 1024, 1025, 1024, 0, 6, 3788, 3788, 3762, 3799, 3827, 3775, 0, 1, 7103, -89.900, 0.000, 10.000, 0.000, 0.000, -3.100, 0.0, , , , , , 99, , , 37, 37, 37
36.6440349, -118.9467512, 4.300, 11:37:09.210, 12, 0.00, 0.78, 98, 3.100, 2.200, 11.200, 705, 100, 99, 16, 22838, -23170, 5474, 5586, 6, 14, 1523644629.212, 46, 0, 1024, 1024, 1025, 1024, 0, 6, 3788, 3788, 3762, 3799, 3827, 3775, 0, 1, 7203, -89.900, 0.000, 10.000, 0.000, 0.000, -3.100, 0.0, , , , , , 99, , , 37, 37, 37
36.6440351, -118.9467514, 4.600, 11:37:09.311, 14, 0.00, 0.80, 98, 3.200, 2.700, 11.200, 705, 100, 99, 16, 22838, -23170, 5474, 5586, 6, 14, 1523644629.311, 42, 0, 1024, 1024, 1025, 1024, 0, 6, 3788, 3788, 3762, 3799, 3827, 3775, 0, 1, 7302, -89.900, 0.000, 10.000, 0.000, 0.000, -3.100, 0.0, , , , , , 99, , , 37, 37, 37
36.6440351, -118.9467514, 4.600, 11:37:09.410, 14, 0.00, 0.80, 98, 3.200, 2.700, 11.200, 705, 100, 99, 16, 22838, -23170, 5474, 5586, 6, 14, 1523644629.411, 141, 0, 1024, 1024, 1025, 1024, 0, 6, 3788, 3788, 3762, 3799, 3827, 3775, 0, 1, 7401, -89.900, 0.000, 10.000, 0.000, 0.000, -3.100, 0.0, , , , , , 99, , , 37, 37, 37
36.6440351, -118.9467515, 5.200, 11:37:09.511, 14, 0.00, 0.81, 98, 3.100, 3.100, 11.200, 705, 100, 99, 16, 22838, -23170, 5474, 5586, 6, 14, 1523644629.514, 15, 0, 1024, 1024, 1025, 1024, 0, 6, 3788, 3788, 3762, 3799, 3827, 3775, 0, 1, 7504, -89.900, 0.000, 10.000, 0.000, 0.000, -3.200, 0.0, , , , , , 99, , , 37, 37, 37
36.6440351, -118.9467515, 5.200, 11:37:09.610, 14, 0.00, 0.81, 98, 3.100, 3.100, 11.200, 705, 100, 99, 16, 22838, -23170, 5474, 5586, 6, 14, 1523644629.611, 112, 0, 1024, 1024, 1025, 1024, 0, 6, 3788, 3788, 3762, 3799, 3827, 3775, 0, 1, 7602, -89.900, 0.000, 10.000, 0.000, 0.000, -3.200, 0.0, , , , , , 99, , , 37, 37, 37
36.6440351, -118.9467513, 5.600, 11:37:09.710, 14, 0.10, 0.80, 98, 2.500, 2.900, 11.200, 705, 100, 99, 16, 22838, -23170, 5474, 5586, 6, 14, 1523644629.712, 94, 0, 1024, 1024, 1025, 1024, 0, 6, 3788, 3788, 3762, 3799, 3827, 3775, 0, 1, 7703, -89.900, 0.000, 10.000, 0.000, 0.100, -3.100, 0.0, , , , , , 99, , , 37, 37, 37
36.6440348, -118.9467508, 6.200, 11:37:09.821, 14, 0.14, 0.75, 98, 1.200, 2.100, 11.300, 705, 100, 99, 16, 22838, -23170, 5474, 5586, 6, 14, 1523644629.822, 18, 0, 1024, 1024, 1025, 1024, 0, 6, 3788, 3788, 3762, 3799, 3827, 3775, 0, 1, 7812, -90.000, 0.000, 10.000, -0.100, 0.100, -3.200, 0.0, , , , , , 99, , , 37, 37, 37
36.6440348, -118.9467508, 6.200, 11:37:09.911, 14, 0.14, 0.75, 98, 1.200, 2.100, 11.300, 705, 100, 99, 16, 22838, -23170, 5474, 5586, 6, 14, 1523644629.912, 108, 0, 1024, 1024, 1025, 1024, 0, 6, 3788, 3788, 3762, 3799, 3827, 3775, 0, 1, 7903, -90.000, 0.000, 10.000, -0.100, 0.100, -3.200, 0.0, , , , , , 99, , , 37, 37, 37
36.6440346, -118.9467505, 6.600, 11:37:10.013, 15, 0.14, 0.72, 98, 0.400, 1.700, 11.200, 705, 100, 99, 16, 22838, -23170, 5474, 5586, 6, 14, 1523644630.014, 11, 0, 1024, 1024, 1025, 1024, 0, 6, 3788, 3788, 3762, 3799, 3827, 3775, 0, 1, 8004, -90.000, 0.000, 10.000, -0.100, 0.100, -3.200, 0.0, , , , , , 99, , , 37, 37, 37
36.6440345, -118.9467504, 6.900, 11:37:10.110, 15, 0.14, 0.70, 98, 0.000, 1.300, 11.100, 705, 100, 99, 16, 22673, -22760, 5474, 5586, 6, 14, 1523644630.111, 36, 0, 1024, 1024, 1025, 1024, 0, 6, 3785, 3777, 3732, 3775, 3836, 3793, 0, 1, 8102, -90.000, 0.000, 10.000, -0.100, 0.100, -3.200, 0.0, , , , , , 99, , , 37, 37, 37
36.6440343, -118.9467501, 7.300, 11:37:10.210, 15, 0.14, 0.67, 98, -0.100, 1.200, 11.000, 705, 100, 100, 16, 22673, -22760, 5474, 5586, 6, 14, 1523644630.211, 30, 0, 1024, 1024, 1025, 1024, 0, 6, 3785, 3777, 3732, 3775, 3836, 3793, 0, 1, 8202, -90.000, 0.000, 10.000, -0.100, 0.100, -3.200, 0.0, , , , , , 99, , , 37, 37, 37
36.6440343, -118.9467501, 7.300, 11:37:10.310, 15, 0.14, 0.67, 98, -0.100, 1.200, 11.000, 705, 100, 100, 16, 22673, -22760, 5474, 5586, 6, 14, 1523644630.311, 129, 0, 1024, 1024, 1025, 1024, 0, 6, 3785, 3777, 3732, 3775, 3836, 3793, 0, 1, 8301, -90.000, 0.000, 10.000, -0.100, 0.100, -3.200, 0.0, , , , , , 99, , , 37, 37, 37
36.6440339, -118.9467486, 8.600, 11:37:10.410, 14, 0.14, 0.57, 98, -1.400, 1.400, 10.700, 705, 100, 100, 16, 22673, -22760, 5474, 5586, 6, 14, 1523644630.411, 21, 0, 1024, 1024, 1025, 1024, 0, 6, 3785, 3777, 3732, 3775, 3836, 3793, 0, 1, 8401, -90.000, 0.000, 10.000, -0.100, 0.100, -3.100, 0.0, , , , , , 99, , , 37, 37, 37
36.6440338, -118.9467482, 9.000, 11:37:10.510, 14, 0.14, 0.55, 98, -1.800, 1.500, 10.700, 705, 100, 100, 16, 22673, -22760, 5474, 5586, 6, 14, 1523644630.511, 72, 0, 1024, 1024, 1025, 1024, 0, 6, 3785, 3777, 3732, 3775, 3836, 3793, 0, 1, 8501, -90.000, 0.000, 10.000, -0.100, 0.100, -3.100, 0.0, , , , , , 99, , , 37, 37, 37
36.6440337, -118.9467475, 9.600, 11:37:10.610, 15, 0.10, 0.52, 98, -1.900, 1.300, 10.800, 705, 100, 100, 16, 22673, -22760, 5474, 5586, 6, 14, 1523644630.611, 42, 0, 1024, 1024, 1025, 1024, 0, 6, 3785, 3777, 3732, 3775, 3836, 3793, 0, 1, 8601, -90.000, 0.000, 10.000, 0.000, 0.100, -3.100, 0.0, , , , , , 99, , , 37, 37, 37
36.6440336, -118.9467472, 10.000, 11:37:10.710, 14, 0.10, 0.51, 98, -1.800, 1.200, 10.800, 705, 100, 100, 16, 22673, -22760, 5474, 5586, 6, 14, 1523644630.711, 58, 0, 1024, 1024, 1025, 1024, 0, 6, 3785, 3777, 3732, 3775, 3836, 3793, 0, 1, 8701, -89.900, 0.000, 10.000, 0.000, 0.100, -3.000, 0.0, , , , , , 99, , , 37, 37, 37
36.6440335, -118.9467467, 10.600, 11:37:10.810, 15, 0.00, 0.50, 98, -1.500, 1.400, 11.100, 705, 100, 100, 16, 22922, -19240, 5474, 5586, 6, 14, 1523644630.811, 29, 0, 1024, 1024, 1025, 1024, 0, 6, 3785, 3777, 3732, 3775, 3836, 3793, 0, 1, 8801, -89.900, 0.000, 10.000, 0.000, 0.000, -3.000, 0.0, , , , , , 99, , , 37, 37, 37
36.6440335, -118.9467465, 10.900, 11:37:10.917, 15, 0.00, 0.49, 98, -1.600, 1.500, 11.100, 705, 100, 100, 16, 22922, -19240, 5474, 5586, 6, 14, 1523644630.917, 8, 0, 1024, 1024, 1025, 1024, 0, 6, 3785, 3777, 3732, 3775, 3836, 3793, 0, 1, 8908, -89.900, 0.000, 10.000, 0.000, 0.000, -3.000, 0.0, , , , , , 99, , , 37, 37, 37
36.6440334, -118.9467464, 11.300, 11:37:11.010, 15, 0.00, 0.49, 98, -1.600, 1.600, 11.100, 705, 100, 100, 16, 22922, -19240, 5474, 5586, 6, 14, 1523644631.010, 27, 0, 1024, 1024, 1025, 1024, 0, 6, 3785, 3777, 3732, 3775, 3836, 3793, 0, 1, 9001, -89.900, 0.000, 10.000, 0.000, 0.000, -3.000, 0.0, , , , , , 99, , , 37, 37, 37
36.6440335, -118.9467462, 11.600, 11:37:11.110, 15, 0.00, 0.49, 98, -1.500, 1.800, 11.000, 705, 100, 100, 16, 22922, -19240, 5474, 5586, 6, 14, 1523644631.111, 30, 0, 1024, 1024, 1025, 1024, 0, 6, 3785, 3777, 3732, 3775, 3836, 3793, 0, 1, 9101, -89.900, 0.000, 10.000, 0.000, 0.000, -2.900, 0.0, , , , , , 99, , , 37, 37, 37
36.6440335, -118.9467461, 11.900, 11:37:11.210, 15, 0.00, 0.49, 98, -1.600, 2.100, 10.900, 705, 100, 100, 16, 22922, -19240, 5474, 5586, 6, 14, 1523644631.211, 21, 0, 1024, 1024, 1025, 1024, 0, 6, 3826, 3811, 3774, 3823, 3875, 3837, 0, 1, 9201, -89.900, 0.000, 10.100, 0.000, 0.000, -2.900, 0.0, , , , , , 99, , , 37, 37, 37
36.6440334, -118.9467460, 12.200, 11:37:11.309, 15, 0.00, 0.49, 98, -1.700, 2.300, 10.800, 705, 100, 100, 16, 22922, -19240, 5474, 5586, 6, 14, 1523644631.310, 13, 0, 1024, 1024, 1025, 1024, 0, 6, 3826, 3811, 3774, 3823, 3875, 3837, 0, 1, 9300, -89.900, 0.000, 10.100, 0.000, 0.000, -2.900, 0.0, , , , , , 99, , , 37, 37, 37
36.6440334, -118.9467459, 12.500, 11:37:11.410, 15, 0.00, 0.49, 98, -1.800, 2.300, 10.700, 705, 100, 100, 16, 22922, -19240, 5474, 5586, 6, 14, 1523644631.411, 7, 0, 1024, 1024, 1025, 1024, 0, 6, 3826, 3811, 3774, 3823, 3875, 3837, 0, 1, 9401, -89.900, 0.000, 10.100, 0.000, 0.000, -2.900, 0.0, , , , , , 99, , , 37, 37, 37
36.6440334, -118.9467459, 12.800, 11:37:11.510, 15, 0.00, 0.48, 98, -1.700, 2.200, 10.600, 705, 100, 100, 16, 22922, -19240, 5474, 5586, 6, 14, 1523644631.510, 19, 0, 1024, 1024, 1025, 1024, 0, 6, 3826, 3811, 3774, 3823, 3875, 3837, 0, 1, 9501, -89.900, 0.000, 10.000, 0.000, 0.000, -2.900, 0.0, , , , , , 99, , , 37, 37, 37
36.6440334, -118.9467459, 12.800, 11:37:11.610, 15, 0.00, 0.48, 98, -1.700, 2.200, 10.600, 705, 100, 100, 16, 22922, -19240, 5474, 5586, 6, 14, 1523644631.610, 119, 0, 1024, 1024, 1025, 1024, 0, 6, 3826, 3811, 3774, 3823, 3875, 3837, 0, 1, 9601, -89.900, 0.000, 10.000, 0.000, 0.000, -2.900, 0.0, , , , , , 99, , , 37, 37, 37
36.6440334, -118.9467459, 13.100, 11:37:11.710, 15, 0.00, 0.48, 98, -1.400, 2.100, 10.600, 705, 100, 100, 16, 22922, -19240, 5474, 5586, 6, 14, 1523644631.711, 98, 0, 1024, 1024, 1025, 1024, 0, 6, 3826, 3811, 3774, 3823, 3875, 3837, 0, 1, 9701, -89.900, 0.000, 10.000, 0.000, 0.000, -2.900, 0.0, , , , , , 99, , , 37, 37, 37
36.6440335, -118.9467458, 13.400, 11:37:11.810, 15, 0.00, 0.49, 98, -1.200, 2.100, 10.600, 705, 100, 100, 16, 22922, -19240, 5474, 5586, 6, 14, 1523644631.811, 84, 0, 1024, 1024, 1025, 1024, 0, 6, 3826, 3811, 3774, 3823, 3875, 3837, 0, 1, 9801, -89.900, 0.000, 10.100, 0.000, 0.000, -2.800, 0.0, , , , , , 99, , , 37, 37, 37
36.6440335, -118.9467458, 13.700, 11:37:11.910, 15, 0.00, 0.50, 98, -1.000, 2.200, 10.700, 705, 100, 100, 16, 22922, -19240, 5474, 5586, 6, 14, 1523644631.911, 90, 0, 1024, 1024, 1025, 1024, 0, 6, 3826, 3811, 3774, 3823, 3875, 3837, 0, 1, 9901, -89.900, 0.000, 10.100, 0.000, 0.000, -2.800, 0.0, , , , , , 99, , , 37, 37, 37
36.6440335, -118.9467459, 14.000, 11:37:12.010, 15, 0.00, 0.50, 98, -0.900, 2.200, 10.900, 705, 100, 100, 16, 22922, -19240, 5474, 5586, 6, 14, 1523644632.011, 36, 0, 1024, 1024, 1025, 1024, 0, 6, 3826, 3811, 3774, 3823, 3875, 3837, 0, 1, 10001, -89.900, 0.000, 10.100, 0.000, 0.000, -2.800, 0.0, , , , , , 99, , , 37, 37, 37
36.6440335, -118.9467460, 14.300, 11:37:12.110, 17, 0.00, 0.50, 98, -0.600, 2.200, 11.000, 705, 100, 100, 16, 22922, -19240, 5474, 5586, 6, 14, 1523644632.111, 69, 0, 1024, 1024, 1025, 1024, 0, 6, 3826, 3811, 3774, 3823, 3875, 3837, 0, 1, 10101, -89.900, 0.000, 10.100, 0.000, 0.000, -2.900, 0.0, , , , , , 99, , , 37, 37, 37
36.6440335, -118.9467460, 14.600, 11:37:12.210, 17, 0.00, 0.50, 98, -0.500, 2.100, 11.000, 705, 100, 100, 16, 22922, -19240, 5474, 5586, 6, 14, 1523644632.211, 47, 0, 1024, 1024, 1025, 1024, 0, 6, 3826, 3811, 3774, 3823, 3875, 3837, 0, 1, 10201, -89.900, 0.000, 10.100, 0.000, 0.000, -2.900, 0.0, , , , , , 99, , , 37, 37, 37
36.6440335, -118.9467460, 14.900, 11:37:12.310, 17, 0.00, 0.50, 98, -0.600, 2.000, 11.100, 705, 100, 100, 16, 22985, -18243, 5474, 5586, 6, 14, 1523644632.311, 76, 0, 1024, 1024, 1025, 1024, 0, 6, 3835, 3815, 3789, 3821, 3882, 3846, 0, 1, 10302, -89.900, 0.000, 10.100, 0.000, 0.000, -2.900, 0.0, , , , , , 99, , , 37, 37, 37
36.6440335, -118.9467460, 15.200, 11:37:12.410, 17, 0.00, 0.50, 98, -0.800, 1.900, 11.100, 705, 100, 100, 16, 22985, -18243, 5474, 5586, 6, 14, 1523644632.411, 79, 0, 1024, 1024, 1025, 1024, 0, 6, 3835, 3815, 3789, 3821, 3882, 3846, 0, 1, 10401, -89.900, 0.000, 10.100, 0.000, 0.000, -2.900, 0.0, , , , , , 99, , , 37, 37, 37
36.6440335, -118.9467459, 15.500, 11:37:12.510, 17, 0.00, 0.50, 98, -1.000, 1.900, 11.000, 705, 100, 100, 16, 22985, -18243, 5474, 5586, 6, 14, 1523644632.511, 55, 0, 1024, 1024, 1025, 1024, 0, 6, 3835, 3815, 3789, 3821, 3882, 3846, 0, 1, 10501, -89.900, 0.000, 10.100, 0.000, 0.000, -2.900, 0.0, , , , , , 99, , , 37, 37, 37
36.6440336, -118.9467460, 15.800, 11:37:12.610, 17, 0.00, 0.50, 98, -1.200, 2.100, 10.900, 705, 100, 100, 16, 22985, -18243, 5474, 5586, 6, 14, 1523644632.611, 69, 0, 1024, 1024, 1025, 1024, 0, 6, 3835, 3815, 3789, 3821, 3882, 3846, 0, 1, 10601, -89.900, 0.000, 10.100, 0.000, 0.000, -2.900, 0.0, , , , , , 99, , , 37, 37, 37
36.6440336, -118.9467460, 16.000, 11:37:12.710, 16, 0.00, 0.50, 98, -1.300, 2.100, 10.900, 705, 100, 100, 16, 22985, -18243, 5474, 5586, 6, 14, 1523644632.710, 58, 0, 1024, 1024, 1025, 1024, 0, 6, 3835, 3815, 3789, 3821, 3882, 3846, 0, 1, 10701, -89.900, 0.000, 10.100, 0.000, 0.000, -2.900, 0.0, , , , , , 99, , , 37, 37, 37
36.6440336, -118.9467460, 16.400, 11:37:12.810, 16, 0.00, 0.51, 98, -1.400, 2.100, 11.000, 705, 100, 100, 16, 22985, -18243, 5474, 5586, 6, 14, 1523644632.810, 58, 0, 1024, 1024, 1025, 1024, 0, 6, 3835, 3815, 3789, 3821, 3882, 3846, 0, 1, 10801, -89.900, 0.000, 10.100, 0.000, 0.000, -2.900, 0.0, , , , , , 99, , , 37, 37, 37
36.6440336, -118.9467461, 17.000, 11:37:12.914, 17, 0.00, 0.51, 98, -1.400, 2.000, 11.000, 705, 100, 100, 16, 22985, -18243, 5474, 5586, 6, 14, 1523644632.915, 10, 0, 1024, 1024, 1025, 1024, 0, 6, 3835, 3815, 3789, 3821, 3882, 3846, 0, 1, 10905, -89.900, 0.000, 10.100, 0.000, 0.000, -2.900, 0.0, , , , , , 99, , , 37, 37, 37
36.6440336, -118.9467462, 17.300, 11:37:13.010, 16, 0.00, 0.51, 98, -1.300, 2.000, 11.000, 705, 100, 100, 16, 22985, -18243, 5474, 5586, 6, 14, 1523644633.011, 22, 0, 1024, 1024, 1025, 1024, 0, 6, 3835, 3815, 3789, 3821, 3882, 3846, 0, 1, 11001, -89.900, 0.000, 10.100, 0.000, 0.000, -2.900, 0.0, , , , , , 99, , , 37, 37, 37
36.6440336, -118.9467462, 17.600, 11:37:13.110, 16, 0.00, 0.51, 98, -1.400, 2.000, 10.900, 705, 100, 100, 16, 22985, -18243, 5474, 5586, 6, 14, 1523644633.111, 18, 0, 1024, 1024, 1025, 1024, 0, 6, 3835, 3815, 3789, 3821, 3882, 3846, 0, 1, 11101, -89.900, 0.000, 10.000, 0.000, 0.000, -3.000, 0.0, , , , , , 99, , , 37, 37, 37
36.6440336, -118.9467463, 17.900, 11:37:13.211, 16, 0.00, 0.51, 98, -1.600, 2.000, 10.900, 705, 100, 100, 16, 22954, -18565, 5474, 5586, 6, 14, 1523644633.212, 13, 0, 1024, 1024, 1025, 1024, 0, 6, 3835, 3815, 3789, 3821, 3882, 3846, 0, 1, 11203, -89.900, 0.000, 10.100, 0.000, 0.000, -2.900, 0.0, , , , , , 99, , , 37, 37, 37
36.6440336, -118.9467463, 17.900, 11:37:13.310, 16, 0.00, 0.51, 98, -1.600, 2.000, 10.900, 705, 100, 100, 16, 22954, -18565, 5474, 5586, 6, 14, 1523644633.311, 112, 0, 1024, 1024, 1025, 1024, 0, 6, 3835, 3815, 3789, 3821, 3882, 3846, 0, 1, 11301, -89.900, 0.000, 10.100, 0.000, 0.000, -2.900, 0.0, , , , , , 99, , , 37, 37, 37
36.6440336, -118.9467465, 18.500, 11:37:13.419, 16, 0.00, 0.51, 98, -1.100, 1.900, 11.000, 705, 100, 100, 16, 22954, -18565, 5474, 5586, 6, 14, 1523644633.419, 9, 0, 1024, 1024, 1025, 1024, 0, 6, 3832, 3812, 3781, 3826, 3868, 3842, 0, 1, 11410, -89.900, 0.000, 10.000, 0.000, 0.000, -2.900, 0.0, , , , , , 99, , , 37, 37, 37
36.6440336, -118.9467465, 18.500, 11:37:13.511, 16, 0.00, 0.51, 98, -1.100, 1.900, 11.000, 705, 100, 100, 16, 22954, -18565, 5474, 5586, 6, 14, 1523644633.512, 101, 0, 1024, 1024, 1025, 1024, 0, 6, 3832, 3812, 3781, 3826, 3868, 3842, 0, 1, 11502, -89.900, 0.000, 10.000, 0.000, 0.000, -2.900, 0.0, , , , , , 99, , , 37, 37, 37
36.6440336, -118.9467465, 18.800, 11:37:13.610, 16, 0.00, 0.50, 98, -1.300, 1.900, 11.100, 705, 100, 100, 16, 22954, -18565, 5474, 5586, 6, 14, 1523644633.611, 79, 0, 1024, 1024, 1025, 1024, 0, 6, 3832, 3812, 3781, 3826, 3868, 3842, 0, 1, 11602, -89.900, 0.000, 10.100, 0.000, 0.000, -2.800, 0.0, , , , , , 99, , , 37, 37, 37
36.6440336, -118.9467466, 19.100, 11:37:13.712, 16, 0.00, 0.50, 98, -1.800, 2.000, 11.100, 705, 100, 100, 16, 22954, -18565, 5474, 5586, 6, 14, 1523644633.713, 84, 0, 1024, 1024, 1025, 1024, 0, 6, 3832, 3812, 3781, 3826, 3868, 3842, 0, 1, 11703, -89.900, 0.000, 10.100, 0.000, 0.000, -2.800, 0.0, , , , , , 99, , , 37, 37, 37
36.6440336, -118.9467467, 19.400, 11:37:13.812, 16, 0.00, 0.51, 98, -1.700, 2.000, 11.100, 705, 100, 100, 16, 22954, -18565, 5474, 5586, 6, 14, 1523644633.813, 47, 0, 1024, 1024, 1025, 1024, 0, 6, 3832, 3812, 3781, 3826, 3868, 3842, 0, 1, 11803, -89.900, 0.000, 10.100, 0.000, 0.000, -2.800, 0.0, , , , , , 99, , , 37, 37, 37
36.6440336, -118.9467468, 19.700, 11:37:13.912, 16, 0.00, 0.51, 98, -1.300, 1.900, 11.300, 705, 100, 100, 16, 22954, -18565, 5474, 5586, 6, 14, 1523644633.912, 31, 0, 1024, 1024, 1025, 1024, 0, 6, 3832, 3812, 3781, 3826, 3868, 3842, 0, 1, 11903, -90.000, 0.000, 10.100, 0.000, 0.000, -2.800, 0.0, , , , , , 99, , , 37, 37, 37
36.6440336, -118.9467468, 19.700, 11:37:14.011, 16, 0.00, 0.51, 98, -1.300, 1.900, 11.300, 705, 100, 100, 16, 22954, -18565, 5474, 5586, 6, 14, 1523644634.011, 130, 0, 1024, 1024, 1025, 1024, 0, 6, 3832, 3812, 3781, 3826, 3868, 3842, 0, 1, 12002, -90.000, 0.000, 10.100, 0.000, 0.000, -2.800, 0.0, , , , , , 99, , , 37, 37, 37
36.6440336, -118.9467468, 20.000, 11:37:14.110, 16, 0.00, 0.51, 98, -1.100, 1.900, 11.500, 705, 100, 100, 16, 22954, -18565, 5474, 5586, 6, 14, 1523644634.110, 31, 0, 1024, 1024, 1025, 1024, 0, 6, 3832, 3812, 3781, 3826, 3868, 3842, 0, 1, 12101, -90.000, 0.000, 10.000, 0.000, 0.000, -2.800, 0.0, , , , , , 99, , , 37, 37, 37
36.6440336, -118.9467468, 20.000, 11:37:14.210, 16, 0.00, 0.51, 98, -1.100, 1.900, 11.500, 705, 100, 100, 16, 22954, -18565, 5474, 5586, 6, 14, 1523644634.211, 132, 0, 1024, 1024, 1025, 1024, 0, 6, 3832, 3812, 3781, 3826, 3868, 3842, 0, 1, 12201, -90.000, 0.000, 10.000, 0.000, 0.000, -2.800, 0.0, , , , , , 99, , , 37, 37, 37
36.6440336, -118.9467469, 20.300, 11:37:14.312, 17, 0.00, 0.50, 98, -1.200, 1.800, 11.500, 705, 100, 100, 16, 22954, -18565, 5474, 5586, 6, 14, 1523644634.314, 65, 0, 1024, 1024, 1025, 1024, 0, 6, 3832, 3812, 3781, 3826, 3868, 3842, 0, 1, 12304, -90.000, 0.000, 10.100, 0.000, 0.000, -2.700, 0.0, , , , , , 99, , , 37, 37, 37
36.6440336, -118.9467470, 20.500, 11:37:14.410, 17, 0.00, 0.51, 98, -1.200, 1.800, 11.400, 705, 100, 100, 16, 22954, -18565, 5474, 5586, 6, 14, 1523644634.411, 70, 0, 1024, 1024, 1025, 1024, 0, 6, 3832, 3812, 3781, 3826, 3868, 3842, 0, 1, 12402, -90.000, 0.000, 10.100, 0.000, 0.000, -2.700, 0.0, , , , , , 99, , , 37, 37, 37
36.6440336, -118.9467471, 20.800, 11:37:14.521, 17, 0.00, 0.51, 98, -1.000, 1.800, 11.200, 705, 100, 100, 16, 22989, -17856, 5474, 5586, 6, 14, 1523644634.523, 8, 0, 1024, 1024, 1025, 1024, 0, 6, 3832, 3812, 3781, 3826, 3868, 3842, 0, 1, 12514, -89.900, 0.000, 10.100, 0.000, 0.000, -2.700, 0.0, , , , , , 99, , , 37, 37, 37
36.6440336, -118.9467472, 21.100, 11:37:14.614, 17, 0.00, 0.51, 98, -0.800, 2.000, 11.000, 705, 100, 100, 16, 22989, -17856, 5474, 5586, 6, 14, 1523644634.614, 15, 0, 1024, 1024, 1025, 1024, 0, 6, 3842, 3818, 3800, 3831, 3873, 3848, 0, 1, 12604, -89.900, 0.000, 10.000, 0.000, 0.000, -2.700, 0.0, , , , , , 99, , , 37, 37, 37
36.6440336, -118.9467472, 21.100, 11:37:14.710, 17, 0.00, 0.51, 98, -0.800, 2.000, 11.000, 705, 100, 100, 16, 22989, -17856, 5474, 5586, 6, 14, 1523644634.711, 113, 0, 1024, 1024, 1025, 1024, 0, 6, 3842, 3818, 3800, 3831, 3873, 3848, 0, 1, 12702, -89.900, 0.000, 10.000, 0.000, 0.000, -2.700, 0.0, , , , , , 99, , , 37, 37, 37
36.6440336, -118.9467473, 21.400, 11:37:14.810, 17, 0.00, 0.51, 98, -0.800, 2.000, 10.800, 705, 100, 100, 16, 22989, -17856, 5474, 5586, 6, 14, 1523644634.811, 45, 0, 1024, 1024, 1025, 1024, 0, 6, 3842, 3818, 3800, 3831, 3873, 3848, 0, 1, 12801, -89.900, 0.000, 10.000, 0.000, 0.000, -2.800, 0.0, , , , , , 99, , , 37, 37, 37
36.6440336, -118.9467473, 21.700, 11:37:14.916, 17, 0.00, 0.52, 98, -0.800, 2.100, 10.600, 705, 100, 100, 16, 22989, -17856, 5474, 5586, 6, 14, 1523644634.916, 70, 0, 1024, 1024, 1025, 1024, 0, 6, 3842, 3818, 3800, 3831, 3873, 3848, 0, 1, 12907, -89.900, 0.000, 10.000, 0.000, 0.000, -2.800, 0.0, , , , , , 99, , , 37, 37, 37
36.6440337, -118.9467474, 22.300, 11:37:15.012, 17, 0.00, 0.52, 98, -1.300, 2.300, 10.000, 705, 100, 100, 16, 22989, -17856, 5474, 5586, 6, 14, 1523644635.013, 41, 0, 1024, 1024, 1025, 1024, 0, 6, 3842, 3818, 3800, 3831, 3873, 3848, 0, 1, 13003, -89.900, 0.000, 10.000, 0.000, 0.000, -3.000, 0.0, , , , , , 99, , , 37, 37, 37
36.6440337, -118.9467474, 22.600, 11:37:15.110, 17, 0.00, 0.52, 98, -1.800, 2.600, 9.800, 705, 100, 100, 16, 22989, -17856, 5474, 5586, 6, 14, 1523644635.111, 30, 0, 1024, 1024, 1025, 1024, 0, 6, 3842, 3818, 3800, 3831, 3873, 3848, 0, 1, 13102, -89.900, 0.000, 10.100, 0.000, 0.000, -3.000, 0.0, , , , , , 99, , , 37, 37, 37
36.6440337, -118.9467473, 23.200, 11:37:15.245, 17, 0.00, 0.52, 98, -2.500, 2.200, 10.000, 705, 100, 100, 16, 22989, -17856, 5474, 5586, 6, 14, 1523644635.245, 11, 0, 1024, 1024, 1025, 1024, 0, 6, 3842, 3818, 3800, 3831, 3873, 3848, 0, 1, 13236, -89.900, 0.000, 10.100, 0.000, 0.000, -3.000, 0.0, , , , , , 99, , , 37, 37, 37
36.6440337, -118.9467473, 23.200, 11:37:15.310, 17, 0.00, 0.52, 98, -2.500, 2.200, 10.000, 705, 100, 100, 16, 22989, -17856, 5474, 5586, 6, 14, 1523644635.311, 77, 0, 1024, 1024, 1025, 1024, 0, 6, 3842, 3818, 3800, 3831, 3873, 3848, 0, 1, 13301, -90.000, 0.000, 10.100, 0.000, 0.000, -3.000, 0.0, , , , , , 99, , , 37, 37, 37
36.6440336, -118.9467473, 23.900, 11:37:15.410, 17, 0.00, 0.52, 98, -2.600, 1.700, 10.700, 705, 100, 100, 16, 22887, -17882, 5474, 5586, 6, 14, 1523644635.410, 61, 0, 1024, 1024, 1025, 1024, 0, 6, 3831, 3802, 3768, 3806, 3846, 3822, 0, 1, 13400, -90.000, 0.000, 10.100, 0.000, 0.000, -2.900, 0.0, , , , , , 99, , , 37, 37, 37
36.6440336, -118.9467473, 24.100, 11:37:15.510, 17, 0.00, 0.51, 98, -2.400, 1.600, 10.900, 705, 100, 100, 16, 22887, -17882, 5474, 5586, 6, 14, 1523644635.511, 98, 0, 1024, 1024, 1025, 1024, 0, 6, 3831, 3802, 3768, 3806, 3846, 3822, 0, 1, 13501, -90.000, 0.000, 10.100, 0.000, 0.000, -2.900, 0.0, , , , , , 99, , , 37, 37, 37
36.6440337, -118.9467473, 24.700, 11:37:15.610, 17, 0.00, 0.52, 98, -2.300, 2.000, 11.200, 705, 100, 100, 16, 22887, -17882, 5474, 5586, 6, 14, 1523644635.610, 33, 0, 1024, 1024, 1025, 1024, 0, 6, 3831, 3802, 3768, 3806, 3846, 3822, 0, 1, 13600, -89.900, 0.000, 10.100, 0.000, 0.000, -2.900, 0.0, , , , , , 99, , , 37, 37, 37
36.6440337, -118.9467472, 25.000, 11:37:15.710, 17, 0.00, 0.52, 98, -2.400, 2.400, 11.200, 705, 100, 100, 16, 22887, -17882, 5474, 5586, 6, 14, 1523644635.710, 84, 0, 1024, 1024, 1025, 1024, 0, 6, 3831, 3802, 3768, 3806, 3846, 3822, 0, 1, 13701, -89.900, 0.000, 10.100, 0.000, 0.000, -2.900, 0.0, , , , , , 99, , , 37, 37, 37
36.6440337, -118.9467472, 25.400, 11:37:15.810, 17, 0.10, 0.52, 98, -2.500, 2.700, 11.100, 705, 100, 100, 16, 22887, -17882, 5474, 5586, 6, 14, 1523644635.811, 65, 0, 1024, 1024, 1025, 1024, 0, 6, 3831, 3802, 3768, 3806, 3846, 3822, 0, 1, 13801, -89.900, 0.000, 10.100, 0.000, 0.100, -2.900, 0.0, , , , , , 99, , , 37, 37, 37
36.6440338, -118.9467471, 25.700, 11:37:15.910, 17, 0.10, 0.53, 98, -3.100, 3.000, 10.900, 705, 100, 100, 16, 22887, -17882, 5474, 5586, 6, 14, 1523644635.911, 82, 0, 1024, 1024, 1025, 1024, 0, 6, 3831, 3802, 3768, 3806, 3846, 3822, 0, 1, 13901, -89.900, 0.000, 10.100, 0.000, 0.100, -3.000, 0.0, , , , , , 99, , , 37, 37, 37
36.6440338, -118.9467470, 26.000, 11:37:16.010, 17, 0.10, 0.53, 98, -3.700, 3.000, 10.900, 705, 100, 100, 16, 22887, -17882, 5474, 5586, 6, 14, 1523644636.011, 73, 0, 1024, 1024, 1025, 1024, 0, 6, 3831, 3802, 3768, 3806, 3846, 3822, 0, 1, 14001, -89.900, 0.000, 10.100, 0.000, 0.100, -3.000, 0.0, , , , , , 99, , , 37, 37, 37
36.6440338, -118.9467469, 26.300, 11:37:16.110, 17, 0.10, 0.52, 98, -4.200, 2.700, 10.800, 705, 100, 100, 16, 22887, -17882, 5474, 5586, 6, 14, 1523644636.110, 52, 0, 1024, 1024, 1025, 1024, 0, 6, 3831, 3802, 3768, 3806, 3846, 3822, 0, 1, 14101, -89.900, 0.000, 10.100, 0.000, 0.100, -2.900, 0.0, , , , , , 99, , , 37, 37, 37
36.6440337, -118.9467468, 26.600, 11:37:16.210, 17, 0.00, 0.52, 98, -4.400, 2.100, 10.900, 705, 100, 100, 16, 22887, -17882, 5474, 5586, 6, 14, 1523644636.211, 46, 0, 1024, 1024, 1025, 1024, 0, 6, 3831, 3802, 3768, 3806, 3846, 3822, 0, 1, 14201, -90.000, 0.000, 10.100, 0.000, 0.000, -2.800, 0.0, , , , , , 99, , , 37, 37, 37
36.6440337, -118.9467467, 26.900, 11:37:16.310, 17, 0.00, 0.52, 98, -4.500, 1.700, 11.200, 705, 100, 100, 16, 22933, -17933, 5474, 5586, 6, 14, 1523644636.311, 62, 0, 1024, 1024, 1025, 1024, 0, 6, 3831, 3802, 3768, 3806, 3846, 3822, 0, 1, 14301, -90.000, 0.000, 10.100, 0.000, 0.000, -2.700, 0.0, , , , , , 99, , , 37, 37, 37
36.6440337, -118.9467467, 27.100, 11:37:16.410, 17, 0.00, 0.52, 98, -4.300, 1.600, 11.500, 705, 100, 100, 16, 22933, -17933, 5474, 5586, 6, 14, 1523644636.411, 78, 0, 1024, 1024, 1025, 1024, 0, 6, 3831, 3802, 3768, 3806, 3846, 3822, 0, 1, 14401, -90.000, 0.000, 10.100, 0.000, 0.000, -2.700, 0.0, , , , , , 99, , , 37, 37, 37
36.6440337, -118.9467466, 27.400, 11:37:16.510, 17, 0.00, 0.52, 98, -3.600, 1.800, 11.700, 705, 100, 100, 16, 22933, -17933, 5474, 5586, 6, 14, 1523644636.511, 64, 0, 1024, 1024, 1025, 1024, 0, 6, 3831, 3802, 3768, 3806, 3846, 3822, 0, 1, 14501, -89.900, 0.000, 10.100, 0.000, 0.000, -2.600, 0.0, , , , , , 99, , , 37, 37, 37
36.6440338, -118.9467467, 27.600, 11:37:16.611, 17, 0.00, 0.53, 98, -2.800, 2.200, 11.800, 705, 100, 100, 16, 22933, -17933, 5474, 5586, 6, 14, 1523644636.611, 68, 0, 1024, 1024, 1025, 1024, 0, 6, 3831, 3802, 3768, 3806, 3846, 3822, 0, 1, 14602, -89.900, 0.000, 10.100, 0.000, 0.000, -2.600, 0.0, , , , , , 99, , , 37, 37, 37
36.6440338, -118.9467467, 27.800, 11:37:16.710, 17, 0.00, 0.53, 98, -2.400, 2.900, 11.700, 705, 100, 100, 16, 22933, -17933, 5474, 5586, 6, 14, 1523644636.710, 69, 0, 1024, 1024, 1025, 1024, 0, 6, 3831, 3802, 3768, 3806, 3846, 3822, 0, 1, 14701, -89.900, 0.000, 10.100, 0.000, 0.000, -2.600, 0.0, , , , , , 99, , , 37, 37, 37
36.6440339, -118.9467467, 28.100, 11:37:16.810, 17, 0.00, 0.54, 98, -2.000, 3.400, 11.400, 705, 100, 100, 16, 22933, -17933, 5474, 5586, 6, 14, 1523644636.811, 39, 0, 1024, 1024, 1025, 1024, 0, 6, 3826, 3815, 3786, 3820, 3871, 3845, 0, 1, 14802, -89.900, 0.000, 10.100, 0.000, 0.000, -2.700, 0.0, , , , , , 99, , , 37, 37, 37
36.6440341, -118.9467468, 28.600, 11:37:16.910, 17, 0.00, 0.57, 98, -1.600, 3.900, 11.000, 705, 100, 100, 16, 22933, -17933, 5474, 5586, 6, 14, 1523644636.911, 31, 0, 1024, 1024, 1025, 1024, 0, 6, 3826, 3815, 3786, 3820, 3871, 3845, 0, 1, 14901, -89.900, 0.000, 10.100, 0.000, 0.000, -2.900, 0.0, , , , , , 99, , , 37, 37, 37
36.6440342, -118.9467469, 28.900, 11:37:17.012, 17, 0.00, 0.58, 98, -1.700, 4.000, 10.900, 705, 100, 100, 16, 22933, -17933, 5474, 5586, 6, 14, 1523644637.012, 7, 0, 1024, 1024, 1025, 1024, 0, 6, 3826, 3815, 3786, 3820, 3871, 3845, 0, 1, 15002, -89.900, 0.000, 10.100, 0.000, 0.000, -2.900, 0.0, , , , , , 99, , , 37, 37, 37
36.6440343, -118.9467469, 29.200, 11:37:17.111, 17, 0.00, 0.59, 98, -2.100, 4.100, 10.800, 705, 100, 100, 16, 22933, -17933, 5474, 5586, 6, 14, 1523644637.112, 27, 0, 1024, 1024, 1025, 1024, 0, 6, 3826, 3815, 3786, 3820, 3871, 3845, 0, 1, 15102, -89.900, 0.000, 10.100, 0.000, 0.000, -3.000, 0.0, , , , , , 99, , , 37, 37, 37
36.6440343, -118.9467469, 29.200, 11:37:17.211, 17, 0.00, 0.59, 98, -2.100, 4.100, 10.800, 705, 100, 100, 16, 22933, -17933, 5474, 5586, 6, 14, 1523644637.211, 126, 0, 1024, 1024, 1025, 1024, 0, 6, 3826, 3815, 3786, 3820, 3871, 3845, 0, 1, 15201, -89.900, 0.000, 10.100, 0.000, 0.000, -3.000, 0.0, , , , , , 99, , , 37, 37, 37
36.6440344, -118.9467470, 29.800, 11:37:17.310, 17, 0.00, 0.60, 98, -1.900, 4.000, 10.900, 705, 100, 99, 16, 22933, -17933, 5474, 5586, 6, 14, 1523644637.310, 11, 0, 1024, 1024, 1025, 1024, 0, 6, 3826, 3815, 3786, 3820, 3871, 3845, 0, 1, 15301, -89.900, 0.000, 10.100, 0.000, 0.000, -3.000, 0.0, , , , , , 99, , , 37, 37, 37
36.6440345, -118.9467471, 30.000, 11:37:17.412, 17, 0.00, 0.61, 98, -1.900, 3.800, 10.900, 705, 100, 99, 16, 22933, -17933, 5474, 5586, 6, 14, 1523644637.412, 4, 0, 1024, 1024, 1025, 1024, 0, 6, 3826, 3815, 3786, 3820, 3871, 3845, 0, 1, 15402, -89.900, 0.000, 10.100, 0.000, 0.000, -3.000, 0.0, , , , , , 99, , , 37, 37, 37
36.6440345, -118.9467472, 30.300, 11:37:17.520, 17, 0.00, 0.61, 98, -1.600, 3.500, 11.000, 705, 100, 99, 16, 22933, -17933, 5474, 5586, 6, 14, 1523644637.521, 11, 0, 1024, 1024, 1025, 1024, 0, 6, 3826, 3815, 3786, 3820, 3871, 3845, 0, 1, 15511, -89.900, 0.000, 10.100, 0.000, 0.000, -3.000, 0.0, , , , , , 99, , , 37, 37, 37
36.6440346, -118.9467472, 30.600, 11:37:17.610, 17, 0.00, 0.62, 98, -1.600, 3.600, 11.000, 705, 100, 99, 16, 22933, -17933, 5474, 5586, 6, 14, 1523644637.611, 27, 0, 1024, 1024, 1025, 1024, 0, 6, 3826, 3815, 3786, 3820, 3871, 3845, 0, 1, 15601, -89.900, 0.000, 10.100, 0.000, 0.000, -3.000, 0.0, , , , , , 99, , , 37, 37, 37
36.6440346, -118.9467473, 30.900, 11:37:17.710, 17, 0.00, 0.62, 98, -1.500, 3.800, 10.900, 705, 100, 99, 16, 23014, -19976, 5418, 5586, 6, 14, 1523644637.710, 15, 0, 1024, 1024, 1025, 1024, 0, 6, 3826, 3815, 3786, 3820, 3871, 3845, 0, 1, 15701, -89.900, 0.000, 10.100, 0.000, 0.000, -3.100, 0.0, , , , , , 99, , , 37, 37, 37
36.6440346, -118.9467473, 30.900, 11:37:17.810, 17, 0.00, 0.62, 98, -1.500, 3.800, 10.900, 705, 100, 99, 16, 23014, -19976, 5418, 5586, 6, 14, 1523644637.810, 115, 0, 1024, 1024, 1025, 1024, 0, 6, 3792, 3786, 3784, 3824, 3854, 3821, 0, 1, 15800, -89.900, 0.000, 10.100, 0.000, 0.000, -3.100, 0.0, , , , , , 99, , , 37, 37, 37
36.6440348, -118.9467474, 31.600, 11:37:17.920, 17, 0.00, 0.64, 98, -1.700, 4.200, 10.700, 705, 100, 98, 16, 23014, -19976, 5418, 5586, 6, 14, 1523644637.920, 8, 0, 1024, 1024, 1025, 1024, 0, 6, 3792, 3786, 3784, 3824, 3854, 3821, 0, 1, 15911, -89.900, 0.000, 10.100, 0.000, 0.000, -3.100, 0.0, , , , , , 99, , , 37, 37, 37
36.6440348, -118.9467474, 31.600, 11:37:18.010, 17, 0.00, 0.64, 98, -1.700, 4.200, 10.700, 705, 100, 98, 16, 23014, -19976, 5418, 5586, 6, 14, 1523644638.010, 98, 0, 1024, 1024, 1025, 1024, 0, 6, 3792, 3786, 3784, 3824, 3854, 3821, 0, 1, 16001, -89.900, 0.000, 10.100, 0.000, 0.000, -3.100, 0.0, , , , , , 99, , , 37, 37, 37
36.6440348, -118.9467474, 31.900, 11:37:18.110, 17, 0.00, 0.65, 98, -2.100, 4.200, 10.700, 705, 100, 98, 16, 23014, -19976, 5418, 5586, 6, 14, 1523644638.111, 97, 0, 1024, 1024, 1025, 1024, 0, 6, 3792, 3786, 3784, 3824, 3854, 3821, 0, 1, 16101, -89.900, 0.000, 10.100, 0.000, 0.000, -3.100, 0.0, , , , , , 99, , , 37, 37, 37
36.6440348, -118.9467474, 31.900, 11:37:18.210, 17, 0.00, 0.65, 98, -2.100, 4.200, 10.700, 705, 100, 98, 16, 23014, -19976, 5418, 5586, 6, 14, 1523644638.211, 197, 0, 1024, 1024, 1025, 1024, 0, 6, 3792, 3786, 3784, 3824, 3854, 3821, 0, 1, 16201, -89.900, 0.000, 10.100, 0.000, 0.000, -3.100, 0.0, , , , , , 99, , , 37, 37, 37
36.6440349, -118.9467475, 32.500, 11:37:18.310, 17, 0.00, 0.66, 98, -1.800, 4.600, 10.800, 705, 100, 98, 16, 23014, -19976, 5418, 5586, 6, 14, 1523644638.311, 62, 0, 1024, 1024, 1025, 1024, 0, 6, 3792, 3786, 3784, 3824, 3854, 3821, 0, 1, 16301, -89.900, 0.000, 10.100, 0.000, 0.000, -3.100, 0.0, , , , , , 99, , , 37, 37, 37
36.6440350, -118.9467475, 32.800, 11:37:18.410, 17, 0.00, 0.66, 98, -1.300, 4.700, 10.900, 705, 100, 98, 16, 23014, -19976, 5418, 5586, 6, 14, 1523644638.411, 85, 0, 1024, 1024, 1025, 1024, 0, 6, 3792, 3786, 3784, 3824, 3854, 3821, 0, 1, 16401, -89.900, 0.000, 10.100, 0.000, 0.000, -3.100, 0.0, , , , , , 99, , , 37, 37, 37
36.6440350, -118.9467475, 33.100, 11:37:18.510, 17, 0.00, 0.67, 98, -1.400, 4.700, 11.000, 705, 100, 98, 16, 23014, -19976, 5418, 5586, 6, 14, 1523644638.511, 89, 0, 1024, 1024, 1025, 1024, 0, 6, 3792, 3786, 3784, 3824, 3854, 3821, 0, 1, 16501, -89.900, 0.000, 10.100, 0.000, 0.000, -3.100, 0.0, , , , , , 99, , , 37, 37, 37
36.6440350, -118.9467475, 33.400, 11:37:18.610, 17, 0.00, 0.67, 98, -1.500, 4.300, 11.200, 705, 100, 98, 16, 23014, -19976, 5418, 5586, 6, 14, 1523644638.611, 76, 0, 1024, 1024, 1025, 1024, 0, 6, 3792, 3786, 3784, 3824, 3854, 3821, 0, 1, 16601, -89.900, 0.000, 10.100, 0.000, 0.000, -3.100, 0.0, , , , , , 99, , , 37, 37, 37
36.6440350, -118.9467475, 33.700, 11:37:18.710, 17, 0.00, 0.67, 98, -1.700, 4.000, 11.300, 705, 100, 98, 16, 23014, -19976, 5418, 5586, 6, 14, 1523644638.710, 69, 0, 1024, 1024, 1025, 1024, 0, 6, 3792, 3786, 3784, 3824, 3854, 3821, 0, 1, 16701, -89.900, 0.000, 10.100, 0.000, 0.000, -3.100, 0.0, , , , , , 99, , , 37, 37, 37
36.6440350, -118.9467476, 34.000, 11:37:18.810, 17, 0.00, 0.66, 97, -1.700, 3.900, 11.300, 705, 100, 98, 16, 22771, -18949, 5418, 5586, 6, 14, 1523644638.811, 57, 0, 1024, 1024, 1025, 1024, 0, 6, 3799, 3777, 3751, 3789, 3842, 3794, 0, 1, 16801, -89.900, 0.000, 10.100, 0.000, 0.000, -3.100, 0.0, , , , , , 99, , , 37, 37, 37
36.6440349, -118.9467476, 34.300, 11:37:18.910, 17, 0.00, 0.66, 97, -1.500, 3.800, 11.100, 705, 100, 99, 16, 22771, -18949, 5418, 5586, 6, 14, 1523644638.911, 63, 0, 1024, 1024, 1025, 1024, 0, 6, 3799, 3777, 3751, 3789, 3842, 3794, 0, 1, 16901, -89.900, 0.000, 10.100, 0.000, 0.000, -3.000, 0.0, , , , , , 99, , , 37, 37, 37
36.6440349, -118.9467476, 34.700, 11:37:19.010, 17, 0.00, 0.66, 97, -1.100, 3.700, 10.900, 705, 100, 99, 16, 22771, -18949, 5418, 5586, 6, 14, 1523644639.011, 65, 0, 1024, 1024, 1025, 1024, 0, 6, 3799, 3777, 3751, 3789, 3842, 3794, 0, 1, 17002, -89.900, 0.000, 10.100, 0.000, 0.000, -3.100, 0.0, , , , , , 99, , , 37, 37, 37
36.6440348, -118.9467476, 35.000, 11:37:19.110, 17, 0.00, 0.65, 97, -1.000, 3.800, 10.600, 705, 100, 99, 16, 22771, -18949, 5418, 5586, 6, 14, 1523644639.111, 66, 0, 1024, 1024, 1025, 1024, 0, 6, 3799, 3777, 3751, 3789, 3842, 3794, 0, 1, 17101, -89.900, 0.000, 10.100, 0.000, 0.000, -3.100, 0.0, , , , , , 99, , , 37, 37, 37
36.6440348, -118.9467476, 35.000, 11:37:19.210, 17, 0.00, 0.65, 97, -1.000, 3.800, 10.600, 705, 100, 99, 16, 22771, -18949, 5418, 5586, 6, 14, 1523644639.211, 166, 0, 1024, 1024, 1025, 1024, 0, 6, 3799, 3777, 3751, 3789, 3842, 3794, 0, 1, 17201, -89.900, 0.000, 10.100, 0.000, 0.000, -3.100, 0.0, , , , , , 99, , , 37, 37, 37
36.6440347, -118.9467476, 35.600, 11:37:19.310, 17, 0.10, 0.64, 97, -2.300, 3.600, 10.300, 705, 100, 99, 16, 22771, -18949, 5418, 5586, 6, 14, 1523644639.311, 39, 0, 1024, 1024, 1025, 1024, 0, 6, 3799, 3777, 3751, 3789, 3842, 3794, 0, 1, 17301, -89.900, 0.000, 10.100, -0.100, 0.000, -3.200, 0.0, , , , , , 99, , , 37, 37, 37
36.6440346, -118.9467475, 36.000, 11:37:19.410, 17, 0.10, 0.63, 97, -2.600, 3.100, 10.400, 705, 100, 99, 16, 22771, -18949, 5418, 5586, 6, 14, 1523644639.411, 33, 0, 1024, 1024, 1025, 1024, 0, 6, 3799, 3777, 3751, 3789, 3842, 3794, 0, 1, 17401, -90.000, 0.000, 10.100, -0.100, 0.000, -3.100, 0.0, , , , , , 99, , , 37, 37, 37
36.6440345, -118.9467474, 36.300, 11:37:19.510, 17, 0.10, 0.62, 97, -2.800, 2.800, 10.600, 705, 100, 99, 16, 22771, -18949, 5418, 5586, 6, 14, 1523644639.511, 34, 0, 1024, 1024, 1025, 1024, 0, 6, 3799, 3777, 3751, 3789, 3842, 3794, 0, 1, 17501, -90.000, 0.000, 10.100, -0.100, 0.000, -3.100, 0.0, , , , , , 99, , , 37, 37, 37
36.6440343, -118.9467473, 36.900, 11:37:19.610, 17, 0.10, 0.59, 97, -3.400, 2.400, 11.000, 705, 100, 99, 16, 22771, -18949, 5418, 5586, 6, 14, 1523644639.611, 23, 0, 1024, 1024, 1025, 1024, 0, 6, 3799, 3777, 3751, 3789, 3842, 3794, 0, 1, 17602, -90.000, 0.000, 10.100, -0.100, 0.000, -3.000, 0.0, , , , , , 99, , , 37, 37, 37
36.6440342, -118.9467473, 37.200, 11:37:19.710, 17, 0.10, 0.57, 97, -3.500, 2.300, 11.100, 705, 100, 99, 16, 22771, -18949, 5418, 5586, 6, 14, 1523644639.710, 37, 0, 1024, 1024, 1025, 1024, 0, 6, 3799, 3777, 3751, 3789, 3842, 3794, 0, 1, 17701, -90.000, 0.000, 10.100, -0.100, 0.000, -3.000, 0.0, , , , , , 99, , , 37, 37, 37
36.6440341, -118.9467472, 37.500, 11:37:19.810, 17, 0.10, 0.56, 97, -3.300, 2.500, 11.200, 705, 100, 98, 16, 22765, -18584, 5418, 5586, 6, 14, 1523644639.812, 39, 0, 1024, 1024, 1025, 1024, 0, 6, 3799, 3793, 3763, 3797, 3848, 3808, 0, 1, 17802, -90.000, 0.000, 10.100, -0.100, 0.000, -3.000, 0.0, , , , , , 99, , , 37, 37, 37
36.6440340, -118.9467472, 37.800, 11:37:19.910, 17, 0.00, 0.55, 97, -3.400, 2.400, 11.200, 705, 100, 98, 16, 22765, -18584, 5418, 5586, 6, 14, 1523644639.911, 39, 0, 1024, 1024, 1025, 1024, 0, 6, 3799, 3793, 3763, 3797, 3848, 3808, 0, 1, 17901, -90.000, 0.000, 10.100, 0.000, 0.000, -2.900, 0.0, , , , , , 99, , , 37, 37, 37
36.6440339, -118.9467472, 38.100, 11:37:20.010, 17, 0.00, 0.54, 97, -3.700, 2.300, 11.100, 705, 100, 98, 16, 22765, -18584, 5418, 5586, 6, 14, 1523644640.011, 7, 0, 1024, 1024, 1025, 1024, 0, 6, 3799, 3793, 3763, 3797, 3848, 3808, 0, 1, 18001, -90.000, 0.000, 10.100, 0.000, 0.000, -2.900, 0.0, , , , , , 99, , , 37, 37, 37
36.6440339, -118.9467472, 38.100, 11:37:20.111, 17, 0.00, 0.54, 97, -3.700, 2.300, 11.100, 705, 100, 98, 16, 22765, -18584, 5418, 5586, 6, 14, 1523644640.112, 107, 0, 1024, 1024, 1025, 1024, 0, 6, 3799, 3793, 3763, 3797, 3848, 3808, 0, 1, 18102, -90.000, 0.000, 10.100, 0.000, 0.000, -2.900, 0.0, , , , , , 99, , , 37, 37, 37
36.6440338, -118.9467471, 38.700, 11:37:20.230, 17, 0.00, 0.53, 97, -3.300, 2.600, 10.900, 705, 100, 98, 16, 22765, -18584, 5418, 5586, 6, 14, 1523644640.231, 7, 0, 1024, 1024, 1025, 1024, 0, 6, 3799, 3793, 3763, 3797, 3848, 3808, 0, 1, 18221, -89.900, 0.000, 10.100, 0.000, 0.000, -2.900, 0.0, , , , , , 99, , , 37, 37, 37
36.6440337, -118.9467472, 39.000, 11:37:20.310, 17, 0.00, 0.52, 97, -3.100, 2.700, 10.900, 705, 100, 98, 16, 22765, -18584, 5418, 5586, 6, 14, 1523644640.312, 12, 0, 1024, 1024, 1025, 1024, 0, 6, 3799, 3793, 3763, 3797, 3848, 3808, 0, 1, 18302, -89.900, 0.000, 10.100, 0.000, 0.000, -2.900, 0.0, , , , , , 99, , , 37, 37, 37
36.6440337, -118.9467472, 39.000, 11:37:20.410, 17, 0.00, 0.52, 97, -3.100, 2.700, 10.900, 705, 100, 98, 16, 22765, -18584, 5418, 5586, 6, 14, 1523644640.411, 111, 0, 1024, 1024, 1025, 1024, 0, 6, 3799, 3793, 3763, 3797, 3848, 3808, 0, 1, 18402, -89.900, 0.000, 10.100, 0.000, 0.000, -2.900, 0.0, , , , , , 99, , , 37, 37, 37
36.6440337, -118.9467472, 39.300, 11:37:20.510, 17, 0.00, 0.52, 97, -2.900, 2.700, 10.800, 705, 100, 98, 16, 22765, -18584, 5418, 5586, 6, 14, 1523644640.511, 83, 0, 1024, 1024, 1025, 1024, 0, 6, 3799, 3793, 3763, 3797, 3848, 3808, 0, 1, 18501, -90.000, 0.000, 10.100, 0.000, 0.000, -2.900, 0.0, , , , , , 99, , , 37, 37, 37
36.6440336, -118.9467472, 39.600, 11:37:20.610, 17, 0.00, 0.51, 97, -2.700, 2.500, 10.900, 705, 100, 98, 16, 22765, -18584, 5418, 5586, 6, 14, 1523644640.611, 64, 0, 1024, 1024, 1025, 1024, 0, 6, 3799, 3793, 3763, 3797, 3848, 3808, 0, 1, 18601, -90.000, 0.000, 10.100, 0.000, 0.000, -2.900, 0.0, , , , , , 99, , , 37, 37, 37
36.6440336, -118.9467472, 39.900, 11:37:20.710, 17, 0.00, 0.51, 97, -2.600, 2.500, 10.900, 705, 100, 98, 16, 22765, -18584, 5418, 5586, 6, 14, 1523644640.710, 75, 0, 1024, 1024, 1025, 1024, 0, 6, 3799, 3793, 3763, 3797, 3848, 3808, 0, 1, 18701, -89.900, 0.000, 10.100, 0.000, 0.000, -2.900, 0.0, , , , , , 99, , , 37, 37, 37
36.6440336, -118.9467472, 40.200, 11:37:20.810, 17, 0.00, 0.51, 97, -2.700, 2.600, 10.900, 705, 100, 98, 16, 22876, -17241, 5418, 5586, 6, 14, 1523644640.810, 79, 0, 1024, 1024, 1025, 1024, 0, 6, 3811, 3792, 3763, 3798, 3842, 3819, 0, 1, 18801, -89.900, 0.000, 10.100, 0.000, 0.000, -3.000, 0.0, , , , , , 99, , , 37, 37, 37
36.6440336, -118.9467472, 40.200, 11:37:20.910, 17, 0.00, 0.51, 97, -2.700, 2.600, 10.900, 705, 100, 97, 16, 22876, -17241, 5418, 5586, 6, 14, 1523644640.911, 179, 0, 1024, 1024, 1025, 1024, 0, 6, 3811, 3792, 3763, 3798, 3842, 3819, 0, 1, 18901, -89.900, 0.000, 10.100, 0.000, 0.000, -3.000, 0.0, , , , , , 99, , , 37, 37, 37
36.6440336, -118.9467473, 40.700, 11:37:21.011, 17, 0.00, 0.51, 97, -2.800, 2.700, 10.900, 705, 100, 97, 16, 22876, -17241, 5418, 5586, 6, 14, 1523644641.011, 53, 0, 1024, 1024, 1025, 1024, 0, 6, 3811, 3792, 3763, 3798, 3842, 3819, 0, 1, 19002, -90.000, 0.000, 10.100, 0.000, 0.000, -2.900, 0.0, , , , , , 99, , , 37, 37, 37
36.6440336, -118.9467473, 41.000, 11:37:21.110, 17, 0.00, 0.51, 97, -2.500, 2.600, 11.000, 705, 100, 97, 16, 22876, -17241, 5418, 5586, 6, 14, 1523644641.111, 57, 0, 1024, 1024, 1025, 1024, 0, 6, 3811, 3792, 3763, 3798, 3842, 3819, 0, 1, 19102, -90.000, 0.000, 10.100, 0.000, 0.000, -2.900, 0.0, , , , , , 99, , , 37, 37, 37
36.6440336, -118.9467473, 41.300, 11:37:21.210, 17, 0.00, 0.51, 97, -2.500, 2.700, 11.000, 705, 100, 97, 16, 22876, -17241, 5418, 5586, 6, 14, 1523644641.211, 57, 0, 1024, 1024, 1025, 1024, 0, 6, 3811, 3792, 3763, 3798, 3842, 3819, 0, 1, 19201, -89.900, 0.000, 10.100, 0.000, 0.000, -2.900, 0.0, , , , , , 99, , , 37, 37, 37
36.6440336, -118.9467473, 41.600, 11:37:21.310, 17, 0.00, 0.52, 97, -2.500, 3.000, 11.000, 705, 100, 98, 16, 22876, -17241, 5418, 5586, 6, 14, 1523644641.311, 36, 0, 1024, 1024, 1025, 1024, 0, 6, 3811, 3792, 3763, 3798, 3842, 3819, 0, 1, 19301, -89.900, 0.000, 10.100, 0.000, 0.000, -3.000, 0.0, , , , , , 99, , , 37, 37, 37
36.6440337, -118.9467473, 41.900, 11:37:21.410, 17, 0.00, 0.52, 97, -2.800, 3.400, 11.000, 705, 100, 98, 16, 22876, -17241, 5418, 5586, 6, 14, 1523644641.411, 15, 0, 1024, 1024, 1025, 1024, 0, 6, 3811, 3792, 3763, 3798, 3842, 3819, 0, 1, 19401, -89.900, 0.000, 10.100, 0.000, 0.000, -3.000, 0.0, , , , , , 99, , , 37, 37, 37
36.6440338, -118.9467473, 42.300, 11:37:21.510, 17, 0.00, 0.53, 97, -2.900, 3.800, 10.900, 705, 100, 98, 16, 22876, -17241, 5418, 5586, 6, 14, 1523644641.511, 43, 0, 1024, 1024, 1025, 1024, 0, 6, 3811, 3792, 3763, 3798, 3842, 3819, 0, 1, 19501, -89.900, 0.000, 10.100, 0.000, 0.000, -3.000, 0.0, , , , , , 99, , , 37, 37, 37
36.6440338, -118.9467473, 42.900, 11:37:21.611, 17, 0.00, 0.54, 97, -3.200, 4.100, 10.800, 705, 100, 98, 16, 22876, -17241, 5418, 5586, 6, 14, 1523644641.611, 15, 0, 1024, 1024, 1025, 1024, 0, 6, 3811, 3792, 3763, 3798, 3842, 3819, 0, 1, 19602, -89.900, 0.000, 10.100, 0.000, 0.000, -3.000, 0.0, , , , , , 99, , , 37, 37, 37
36.6440339, -118.9467473, 43.200, 11:37:21.710, 17, 0.00, 0.54, 97, -3.200, 4.100, 10.800, 705, 100, 98, 16, 22876, -17241, 5418, 5586, 6, 14, 1523644641.710, 28, 0, 1024, 1024, 1025, 1024, 0, 6, 3811, 3792, 3763, 3798, 3842, 3819, 0, 1, 19701, -89.900, 0.000, 10.100, 0.000, 0.000, -3.000, 0.0, , , , , , 99, , , 37, 37, 37
36.6440339, -118.9467473, 43.500, 11:37:21.810, 17, 0.00, 0.54, 97, -3.100, 3.900, 10.900, 705, 100, 99, 17, 22763, -18826, 5418, 5586, 6, 14, 1523644641.811, 45, 0, 1024, 1024, 1025, 1024, 0, 6, 3811, 3792, 3763, 3798, 3842, 3819, 0, 1, 19802, -89.900, 0.000, 10.100, 0.000, 0.000, -3.000, 0.0, , , , , , 99, , , 37, 37, 37
36.6440339, -118.9467473, 43.500, 11:37:21.912, 17, 0.00, 0.54, 97, -3.100, 3.900, 10.900, 705, 100, 99, 17, 22763, -18826, 5418, 5586, 6, 14, 1523644641.912, 145, 0, 1024, 1024, 1025, 1024, 0, 6, 3811, 3792, 3763, 3798, 3842, 3819, 0, 1, 19902, -89.900, 0.000, 10.100, 0.000, 0.000, -3.000, 0.0, , , , , , 99, , , 37, 37, 37
36.6440339, -118.9467473, 43.800, 11:37:22.010, 17, 0.00, 0.54, 97, -3.000, 3.600, 10.900, 705, 100, 99, 17, 22763, -18826, 5418, 5586, 6, 14, 1523644642.011, 92, 0, 1024, 1024, 1025, 1024, 0, 6, 3811, 3792, 3763, 3798, 3842, 3819, 0, 1, 20001, -90.000, 0.000, 10.100, 0.000, 0.000, -2.900, 0.0, , , , , , 99, , , 37, 37, 37
36.6440339, -118.9467473, 44.400, 11:37:22.116, 17, 0.00, 0.54, 97, -2.900, 3.400, 10.900, 705, 100, 99, 17, 22763, -18826, 5418, 5586, 6, 14, 1523644642.116, 9, 0, 1024, 1024, 1025, 1024, 0, 6, 3811, 3792, 3763, 3798, 3842, 3819, 0, 1, 20107, -89.900, 0.000, 10.100, 0.000, 0.000, -3.000, 0.0, , , , , , 99, , , 37, 37, 37
36.6440338, -118.9467473, 44.700, 11:37:22.210, 17, 0.00, 0.54, 97, -2.900, 3.300, 11.000, 705, 100, 99, 17, 22763, -18826, 5418, 5586, 6, 14, 1523644642.211, 17, 0, 1024, 1024, 1025, 1024, 0, 6, 3811, 3792, 3763, 3798, 3842, 3819, 0, 1, 20201, -90.000, 0.000, 10.100, 0.000, 0.000, -3.000, 0.0, , , , , , 99, , , 37, 37, 37
36.6440338, -118.9467473, 44.700, 11:37:22.310, 17, 0.00, 0.54, 97, -2.900, 3.300, 11.000, 705, 100, 99, 17, 22763, -18826, 5418, 5586, 6, 14, 1523644642.310, 116, 0, 1024, 1024, 1025, 1024, 0, 6, 3796, 3775, 3744, 3779, 3835, 3800, 0, 1, 20300, -90.000, 0.000, 10.100, 0.000, 0.000, -3.000, 0.0, , , , , , 99, , , 37, 37, 37
36.6440339, -118.9467474, 45.300, 11:37:22.437, 17, 0.00, 0.54, 97, -2.700, 3.400, 10.900, 705, 100, 99, 17, 22763, -18826, 5418, 5586, 6, 14, 1523644642.437, 6, 0, 1024, 1024, 1025, 1024, 0, 6, 3796, 3775, 3744, 3779, 3835, 3800, 0, 1, 20428, -89.900, 0.000, 10.100, 0.000, 0.000, -2.900, 0.0, , , , , , 99, , , 37, 37, 37
36.6440339, -118.9467474, 45.300, 11:37:22.511, 17, 0.00, 0.54, 97, -2.700, 3.400, 10.900, 705, 100, 99, 17, 22763, -18826, 5418, 5586, 6, 14, 1523644642.511, 80, 0, 1024, 1024, 1025, 1024, 0, 6, 3796, 3775, 3744, 3779, 3835, 3800, 0, 1, 20501, -89.900, 0.000, 10.100, 0.000, 0.000, -2.900, 0.0, , , , , , 99, , , 37, 37, 37
36.6440338, -118.9467474, 45.600, 11:37:22.610, 17, 0.00, 0.54, 97, -2.600, 3.400, 10.900, 705, 100, 99, 17, 22763, -18826, 5418, 5586, 6, 14, 1523644642.611, 93, 0, 1024, 1024, 1025, 1024, 0, 6, 3796, 3775, 3744, 3779, 3835, 3800, 0, 1, 20601, -89.900, 0.000, 10.100, 0.000, 0.000, -2.900, 0.0, , , , , , 99, , , 37, 37, 37
36.6440339, -118.9467474, 45.900, 11:37:22.710, 17, 0.00, 0.54, 97, -2.500, 3.300, 10.900, 705, 100, 99, 17, 22763, -18826, 5418, 5586, 6, 14, 1523644642.711, 80, 0, 1024, 1024, 1025, 1024, 0, 6, 3796, 3775, 3744, 3779, 3835, 3800, 0, 1, 20701, -89.900, 0.000, 10.100, 0.000, 0.000, -2.900, 0.0, , , , , , 99, , , 37, 37, 37
36.6440339, -118.9467474, 45.900, 11:37:22.810, 17, 0.00, 0.54, 97, -2.500, 3.300, 10.900, 705, 100, 99, 17, 22763, -18826, 5418, 5586, 6, 14, 1523644642.811, 180, 0, 1024, 1024, 1025, 1024, 0, 6, 3796, 3775, 3744, 3779, 3835, 3800, 0, 1, 20801, -89.900, 0.000, 10.100, 0.000, 0.000, -2.900, 0.0, , , , , , 99, , , 37, 37, 37
36.6440339, -118.9467475, 46.500, 11:37:22.910, 17, 0.00, 0.54, 97, -2.500, 3.400, 10.900, 705, 100, 97, 17, 22763, -18826, 5418, 5586, 6, 14, 1523644642.911, 74, 0, 1024, 1024, 1025, 1024, 0, 6, 3796, 3775, 3744, 3779, 3835, 3800, 0, 1, 20901, -89.900, 0.000, 10.100, 0.000, 0.000, -2.900, 0.0, , , , , , 99, , , 37, 37, 37
