latitude,longitude,altitude(feet),ascent(feet),speed(mph),distance(feet),time(millisecond),datetime(utc),satellites,gpslevel,voltage(v),max_altitude(feet),max_ascent(feet),max_speed(mph),max_distance(feet), xSpeed(mph), ySpeed(mph), zSpeed(mph), compass_heading(degrees), pitch(degrees), roll(degrees),isPhoto,isVideo,rc_elevator,rc_aileron,rc_throttle,rc_rudder,gimbal_heading(degrees),gimbal_pitch(degrees),battery_percent,voltageCell1,voltageCell2,voltageCell3,voltageCell4,voltageCell5,voltageCell6,current(A),battery_temperature(f),flycStateRaw,flycState,message
36.6440229,-118.9467564,4806.2579874617,0,0,0,3000,2018-04-13 19:06:43,15,0,25.135,4806.2579874617,0,0,0,0,0,0,12.8, -0.2, -1.6,1,0,1024,1024,1025,1024,11.2,-89.9,96,4.153,4.145,4.169,4.171,0,0,3.112,60.8,11,AutoTakeoff,DJI_0959.jpg Starting Mission from Lat/Long: 36.64402/-118.94675 Camera: Zenmuse X3 - Overlap: 90/90 - Active Connection: Yes
36.644023,-118.9467565,4806.2579874617,0,0,0.046777232468,3100,2018-04-13 19:06:43,15,0,25.135,4806.2579874617,0,0,0.046777232468,0,0,0,13, 0, -0.6,0,0,1024,1024,1024,1024,11.2,-89.9,96,4.153,4.145,4.169,4.171,0,0,3.112,60.8,11,AutoTakeoff,
36.644023,-118.9467566,4806.2579874617,0,0,0.068985566512,3200,2018-04-13 19:06:43,15,0,25.135,4806.2579874617,0,0,0.068985566512,0,0,0,13.2, 0.2, 0.1,0,0,1024,1024,1024,1024,11.2,-89.9,96,4.153,4.145,4.169,4.171,0,0,3.112,60.8,11,AutoTakeoff,
36.644023,-118.9467567,4806.2579874617,0,0.223694,0.095099412492,3300,2018-04-13 19:06:43,15,0,25.135,4806.2579874617,0,0.223694,0.095099412492,0,0,0,13.3, 0.3, 0.4,0,0,1024,1024,1024,1024,11.3,-89.9,96,4.153,4.145,4.169,4.171,0,0,3.112,60.8,11,AutoTakeoff,
36.6440231,-118.9467569,4806.5860714617,0.328084,0.223694,0.163550530168,3410,2018-04-13 19:06:43,15,0,25.135,4806.5860714617,0.328084,0.223694,0.163550530168,0,0,0,13.3, 0.5, 0.7,0,0,1024,1024,1024,1024,11.3,-89.9,96,4.153,4.145,4.169,4.171,0,0,3.112,60.8,11,AutoTakeoff,
36.6440231,-118.946757,4806.5860714617,0.328084,0.223694,0.1901984969,3500,2018-04-13 19:06:44,15,0,25.135,4806.5860714617,0.328084,0.223694,0.1901984969,0,0,0,13.2, 0.3, 0.4,0,0,1024,1024,1024,1024,11.3,-89.9,96,4.153,4.145,4.169,4.171,0,0,3.112,60.8,11,AutoTakeoff,
36.6440231,-118.9467572,4806.9141554617,0.656168,0,0.24529692386,3600,2018-04-13 19:06:44,15,0,25.135,4806.9141554617,0.656168,0.223694,0.24529692386,0,0,0,13.2, 0.2, 0.7,0,0,1024,1024,1025,1024,11.3,-89.9,96,4.153,4.145,4.169,4.171,0,0,3.112,60.8,11,AutoTakeoff,
36.6440231,-118.9467572,4806.9141554617,0.656168,0,0.24529692386,3710,2018-04-13 19:06:44,15,0,25.135,4806.9141554617,0.656168,0.223694,0.24529692386,0,0,0,13.1, 0.2, 0.9,0,0,1024,1024,1024,1024,11.3,-89.9,96,4.153,4.145,4.169,4.171,0,0,3.112,60.8,11,AutoTakeoff,
36.6440231,-118.9467573,4807.2422394617,0.984252,0,0.273384523184,3800,2018-04-13 19:06:44,15,0,25.135,4807.2422394617,0.984252,0.223694,0.273384523184,0,0,0,13, 0, 0.7,0,0,1024,1024,1024,1024,11.4,-90,96,4.153,4.145,4.169,4.171,0,0,3.112,60.8,11,AutoTakeoff,
36.6440231,-118.9467574,4807.2422394617,0.984252,0,0.301697516216,3900,2018-04-13 19:06:44,15,0,25.135,4807.2422394617,0.984252,0.223694,0.301697516216,0,0,0,12.9, -0.3, 0.5,0,0,1024,1024,1025,1024,11.4,-89.9,96,4.153,4.145,4.169,4.171,0,0,3.112,60.8,11,AutoTakeoff,
36.6440231,-118.9467575,4807.5703234617,1.312336,0,0.33017717592,4000,2018-04-13 19:06:44,15,0,23.934,4807.5703234617,1.312336,0.223694,0.33017717592,0,0,0,12.7, -0.4, 0.2,0,0,1024,1024,1024,1024,11.4,-90,96,4.153,4.145,4.169,4.171,0,0,11.578,60.8,11,AutoTakeoff,
36.6440231,-118.9467574,4807.5703234617,1.312336,0,0.301697516216,4100,2018-04-13 19:06:44,15,0,23.934,4807.5703234617,1.312336,0.223694,0.33017717592,0,0,-0.223694,12.6, -0.4, 0,0,0,1024,1024,1024,1024,11.4,-89.9,96,4.153,4.145,4.169,4.171,0,0,11.578,60.8,11,AutoTakeoff,
36.644023,-118.9467574,4807.8984074617,1.64042,0,0.2950049307,4200,2018-04-13 19:06:44,14,0,23.934,4807.8984074617,1.64042,0.223694,0.33017717592,0,0,-0.223694,12.5, -0.3, 0,0,0,1024,1024,1025,1024,11.4,-89.9,96,4.153,4.145,4.169,4.171,0,0,11.578,60.8,11,AutoTakeoff,
36.6440231,-118.9467574,4807.8984074617,1.64042,0,0.301697516216,4300,2018-04-13 19:06:44,14,0,23.934,4807.8984074617,1.64042,0.223694,0.33017717592,0,0,0,12.5, -0.2, 0,0,0,1024,1024,1024,1024,11.5,-89.9,96,4.153,4.145,4.169,4.171,0,0,11.578,60.8,11,AutoTakeoff,
36.6440231,-118.9467573,4808.2264914617,1.968504,0,0.273384523184,4400,2018-04-13 19:06:44,13,0,23.934,4808.2264914617,1.968504,0.223694,0.33017717592,0,0,0,12.6, 0, 0,0,0,1024,1024,1024,1024,11.5,-89.9,96,4.153,4.145,4.169,4.171,0,0,11.578,60.8,11,AutoTakeoff,
36.6440231,-118.9467574,4808.2264914617,1.968504,0,0.301697516216,4500,2018-04-13 19:06:45,13,0,23.934,4808.2264914617,1.968504,0.223694,0.33017717592,0,0,0,12.6, 0, 0,0,0,1024,1024,1025,1024,11.5,-89.9,96,4.153,4.145,4.169,4.171,0,0,11.578,60.8,11,AutoTakeoff,
36.6440232,-118.9467575,4808.5545754617,2.296588,0,0.3401082786,4600,2018-04-13 19:06:45,13,0,23.934,4808.5545754617,2.296588,0.223694,0.3401082786,0,0,0,12.7, 0, 0.1,0,0,1024,1024,1024,1024,11.5,-89.9,96,4.153,4.145,4.169,4.171,0,0,11.578,60.8,11,AutoTakeoff,
36.6440232,-118.9467574,4808.5545754617,2.296588,0,0.312533474568,4700,2018-04-13 19:06:45,13,0,23.934,4808.5545754617,2.296588,0.223694,0.3401082786,0,0,0,12.8, 0, 0.4,0,0,1024,1024,1024,1024,11.5,-89.9,96,4.153,4.145,4.169,4.171,0,0,11.578,60.8,11,AutoTakeoff,
36.6440232,-118.9467572,4808.8826594617,2.624672,0,0.258507882288,4800,2018-04-13 19:06:45,14,0,23.934,4808.8826594617,2.624672,0.223694,0.3401082786,0,0,-0.223694,12.8, 0.1, 0.4,0,0,1024,1024,1025,1024,11.5,-89.9,96,4.153,4.145,4.169,4.171,0,0,11.578,60.8,11,AutoTakeoff,
36.6440232,-118.9467573,4808.8826594617,2.624672,0,0.285297909392,4900,2018-04-13 19:06:45,14,0,23.934,4808.8826594617,2.624672,0.223694,0.3401082786,0,0,-0.223694,12.8, 0, 0.3,0,0,1024,1024,1024,1024,11.6,-89.9,96,4.153,4.145,4.169,4.171,0,0,11.578,60.8,11,AutoTakeoff,
36.6440232,-118.946757,4809.2107434617,2.952756,0,0.20695702762,5000,2018-04-13 19:06:45,15,0,23.267,4809.2107434617,2.952756,0.223694,0.3401082786,0,0,0,12.6, 0.3, 0,0,0,1024,1024,1025,1024,11.6,-89.9,96,3.952,3.911,3.937,3.92,0,0,11.578,60.8,14,Waypoint,
36.6440232,-118.9467568,4809.5388274617,3.28084,0,0.160286750536,5100,2018-04-13 19:06:45,15,0,23.267,4809.5388274617,3.28084,0.223694,0.3401082786,0,0,0,12.4, 0.3, -0.5,0,0,1024,1024,1024,1024,11.6,-89.9,96,3.952,3.911,3.937,3.92,0,0,11.578,60.8,14,Waypoint,
36.6440233,-118.9467567,4809.5388274617,3.28084,0,0.17032644902,5300,2018-04-13 19:06:45,15,0,23.267,4809.5388274617,3.28084,0.223694,0.3401082786,0,0,0,12.3, 0.4, -0.9,0,0,1024,1024,1024,1024,11.6,-89.9,96,3.952,3.911,3.937,3.92,0,0,11.578,60.8,14,Waypoint,
36.6440233,-118.9467565,4809.8669114617,3.608924,0,0.14884678954,5400,2018-04-13 19:06:45,15,0,23.267,4809.8669114617,3.608924,0.223694,0.3401082786,0,0,-0.223694,12.1, 0.3, -1.1,0,0,1024,1024,1024,1024,11.6,-90,96,3.952,3.911,3.937,3.92,0,0,11.578,60.8,14,Waypoint,
36.6440233,-118.9467566,4810.1949954617,3.937008,0,0.157246068024,5500,2018-04-13 19:06:46,15,0,23.267,4810.1949954617,3.937008,0.223694,0.3401082786,0,0,-0.223694,12.1, 0.1, -1,0,0,1024,1024,1024,1024,11.6,-90,96,3.952,3.911,3.937,3.92,0,0,11.578,60.8,14,Waypoint,
36.6440233,-118.9467566,4810.5230794617,4.265092,0,0.157246068024,5600,2018-04-13 19:06:46,15,0,23.267,4810.5230794617,4.265092,0.223694,0.3401082786,0,0,-0.223694,12.2, 0, -0.8,0,0,1024,1024,1024,1024,11.6,-90,96,3.952,3.911,3.937,3.92,0,0,11.578,60.8,14,Waypoint,
36.6440233,-118.9467567,4810.8511634617,4.593176,0,0.17032644902,5700,2018-04-13 19:06:46,15,0,23.267,4810.8511634617,4.593176,0.223694,0.3401082786,0,0,-0.223694,12.3, -0.2, -0.7,0,0,1024,1024,1025,1024,11.6,-90,96,3.952,3.911,3.937,3.92,0,0,11.578,60.8,14,Waypoint,
36.6440233,-118.9467567,4810.8511634617,4.593176,0,0.17032644902,5800,2018-04-13 19:06:46,15,0,23.267,4810.8511634617,4.593176,0.223694,0.3401082786,0,0,-0.223694,12.5, -0.2, -0.6,0,0,1024,1024,1025,1024,11.6,-90,96,3.952,3.911,3.937,3.92,0,0,11.578,60.8,14,Waypoint,
36.6440232,-118.9467568,4811.5073314617,5.249344,0,0.160286750536,5900,2018-04-13 19:06:46,15,0,23.267,4811.5073314617,5.249344,0.223694,0.3401082786,0,0,-0.223694,12.6, -0.3, -0.3,0,0,1024,1024,1024,1024,11.6,-90,96,3.952,3.911,3.937,3.92,0,0,11.578,60.8,14,Waypoint,
36.6440232,-118.946757,4811.8354154617,5.577428,0,0.20695702762,6010,2018-04-13 19:06:46,15,0,23.267,4811.8354154617,5.577428,0.223694,0.3401082786,0,0,-0.447388,12.9, -0.4, -0.1,0,0,1024,1024,1024,1024,11.6,-90,96,3.835,3.869,3.883,3.853,0,0,16.543,60.8,14,Waypoint,
36.6440233,-118.9467573,4812.4915834617,6.233596,0,0.301185705176,6100,2018-04-13 19:06:46,15,0,23.267,4812.4915834617,6.233596,0.223694,0.3401082786,0,0,-0.447388,13.1, -0.4, 0.3,0,0,1024,1024,1024,1024,11.6,-90,96,3.835,3.869,3.883,3.853,0,0,16.543,60.8,14,Waypoint,
36.6440233,-118.9467574,4813.1477514617,6.889764,0,0.32710138842,6300,2018-04-13 19:06:46,15,0,23.267,4813.1477514617,6.889764,0.223694,0.3401082786,0,0,-0.447388,13.2, -0.4, 0.7,0,0,1024,1024,1025,1024,11.6,-90,96,3.835,3.869,3.883,3.853,0,0,16.543,60.8,14,Waypoint,
36.6440233,-118.9467575,4813.8039194617,7.545932,0,0.35354003756,6400,2018-04-13 19:06:46,15,0,23.267,4813.8039194617,7.545932,0.223694,0.35354003756,0,0,-0.447388,13.3, -0.6, 0.8,0,0,1024,1024,1024,1024,11.6,-90,96,3.835,3.869,3.883,3.853,0,0,16.543,60.8,14,Waypoint,
36.6440233,-118.9467576,4814.4600874617,8.2021,0,0.3803969938,6500,2018-04-13 19:06:47,15,0,23.267,4814.4600874617,8.2021,0.223694,0.3803969938,0,0,-0.447388,13.3, -0.5, 0.6,0,0,1024,1024,1024,1024,11.6,-90,96,3.835,3.869,3.883,3.853,0,0,16.543,60.8,14,Waypoint,
36.6440234,-118.9467576,4815.4443394617,9.186352,0,0.39583006516,6600,2018-04-13 19:06:47,15,0,23.267,4815.4443394617,9.186352,0.223694,0.39583006516,0,0,-0.671082,13.2, -0.3, 0.5,0,0,1024,1024,1024,1024,11.7,-89.9,96,3.835,3.869,3.883,3.853,0,0,16.543,60.8,14,Waypoint,
36.6440234,-118.9467577,4816.4285914617,10.170604,0,0.42202757256,6700,2018-04-13 19:06:47,15,0,23.267,4816.4285914617,10.170604,0.223694,0.42202757256,0,0,-0.671082,13, -0.1, 0.5,0,0,1024,1024,1024,1024,11.7,-89.9,96,3.835,3.869,3.883,3.853,0,0,16.543,60.8,14,Waypoint,
36.6440234,-118.9467578,4817.4128434617,11.154856,0,0.44860237656,6800,2018-04-13 19:06:47,15,0,23.267,4817.4128434617,11.154856,0.223694,0.44860237656,0,0,-0.671082,12.9, 0, 0.6,0,0,1024,1024,1024,1024,11.7,-89.9,96,3.835,3.869,3.883,3.853,0,0,16.543,60.8,14,Waypoint,
36.6440234,-118.9467579,4818.3970954617,12.139108,0,0.47549542204,6900,2018-04-13 19:06:47,15,0,23.267,4818.3970954617,12.139108,0.223694,0.47549542204,0,0,-0.671082,12.6, -0.1, 0.6,0,0,1024,1024,1024,1024,11.7,-90,96,3.835,3.869,3.883,3.853,0,0,16.543,60.8,14,Waypoint,
36.6440235,-118.946758,4819.7094314617,13.451444,0,0.51701445224,7000,2018-04-13 19:06:47,15,0,23.099,4819.7094314617,13.451444,0.223694,0.51701445224,0,0,-0.671082,12.5, -0.1, 0.5,0,0,1024,1024,1024,1024,11.7,-89.9,95,3.814,3.936,3.855,3.842,0,0,16.749,60.8,14,Waypoint,
36.6440234,-118.9467578,4821.6779354617,15.419948,0,0.44860237656,7200,2018-04-13 19:06:47,15,0,23.099,4821.6779354617,15.419948,0.223694,0.51701445224,0,0,-0.671082,12.4, -0.1, -0.1,0,0,1024,1024,1024,1024,11.7,-89.9,95,3.814,3.936,3.855,3.842,0,0,16.749,60.8,14,Waypoint,
36.6440234,-118.9467579,4822.9902714617,16.732284,0,0.47549542204,7300,2018-04-13 19:06:47,15,0,23.099,4822.9902714617,16.732284,0.223694,0.51701445224,0,0,-0.671082,12.4, -0.1, -0.5,0,0,1024,1024,1024,1024,11.7,-90,95,3.814,3.936,3.855,3.842,0,0,16.749,60.8,14,Waypoint,
36.6440233,-118.9467579,4823.9745234617,17.716536,0,0.46272639276,7400,2018-04-13 19:06:47,15,0,23.099,4823.9745234617,17.716536,0.223694,0.51701445224,0,0,-0.671082,12.3, -0.2, -0.5,0,0,1024,1024,1025,1024,11.7,-90,95,3.814,3.936,3.855,3.842,0,0,16.749,60.8,14,Waypoint,
36.6440234,-118.9467577,4824.9587754617,18.700788,0,0.42202757256,7500,2018-04-13 19:06:48,15,0,23.099,4824.9587754617,18.700788,0.223694,0.51701445224,0,0,-0.671082,12.3, -0.2, -0.2,0,0,1024,1024,1024,1024,11.7,-89.9,95,3.814,3.936,3.855,3.842,0,0,16.749,60.8,14,Waypoint,
36.6440234,-118.9467576,4826.2711114617,20.013124,0,0.39583006516,7600,2018-04-13 19:06:48,16,0,23.099,4826.2711114617,20.013124,0.223694,0.51701445224,0,0,-0.671082,12.3, 0, -0.2,0,0,1024,1024,1024,1024,11.7,-89.9,95,3.814,3.936,3.855,3.842,0,0,16.749,60.8,14,Waypoint,
36.6440233,-118.9467574,4828.5676994617,22.309712,0,0.32710138842,7700,2018-04-13 19:06:48,16,0,23.099,4828.5676994617,22.309712,0.223694,0.51701445224,0,0,-0.671082,12.7, 0, -0.4,0,0,1024,1024,1025,1024,11.7,-89.9,95,3.814,3.936,3.855,3.842,0,0,16.749,60.8,14,Waypoint,
36.6440233,-118.9467572,4829.5519514617,23.293964,0,0.275942594132,7800,2018-04-13 19:06:48,16,0,23.099,4829.5519514617,23.293964,0.223694,0.51701445224,0,0,-0.671082,12.9, 0, -0.6,0,0,1024,1024,1024,1024,11.7,-89.9,95,3.814,3.936,3.855,3.842,0,0,16.749,60.8,14,Waypoint,
36.6440234,-118.9467569,4831.8485394617,25.590552,0,0.233886818508,8000,2018-04-13 19:06:48,14,0,22.543,4831.8485394617,25.590552,0.223694,0.51701445224,0,0,-0.671082,13.1, 0.2, -1,0,0,1024,1024,1025,1024,11.7,-89.9,95,3.679,3.739,3.731,3.715,0,0,22.029,60.8,14,Waypoint,
36.6440234,-118.9467567,4832.8327914617,26.574804,0,0.202463589156,8120,2018-04-13 19:06:48,16,0,22.543,4832.8327914617,26.574804,0.223694,0.51701445224,0,0,-0.671082,13.1, 0.4, -1,0,0,1024,1024,1025,1024,11.7,-89.9,95,3.679,3.739,3.731,3.715,0,0,22.029,60.8,14,Waypoint,
36.6440234,-118.9467565,4833.8170434617,27.559056,0,0.184758536096,8200,2018-04-13 19:06:48,16,0,22.543,4833.8170434617,27.559056,0.223694,0.51701445224,0,0,-0.671082,13, 0.7, -1.1,0,0,1024,1024,1024,1024,11.7,-89.9,95,3.679,3.739,3.731,3.715,0,0,22.029,60.8,14,Waypoint,
36.6440235,-118.9467564,4835.1293794617,28.871392,0,0.218909783908,8310,2018-04-13 19:06:48,16,0,22.543,4835.1293794617,28.871392,0.223694,0.51701445224,0,0,-0.671082,12.8, 0.8, -1.1,0,0,1024,1024,1024,1024,11.7,-89.9,95,3.679,3.739,3.731,3.715,0,0,22.029,60.8,14,Waypoint,
36.6440235,-118.9467562,4836.1136314617,29.855644,0,0.226604009876,8400,2018-04-13 19:06:48,16,0,22.543,4836.1136314617,29.855644,0.223694,0.51701445224,0,0,-0.671082,12.7, 1, -1.3,0,0,1024,1024,1025,1024,11.7,-89.9,95,3.679,3.739,3.731,3.715,0,0,22.029,60.8,14,Waypoint,
36.6440236,-118.946756,4837.0978834617,30.839896,0,0.280958998492,8600,2018-04-13 19:06:49,16,0,22.543,4837.0978834617,30.839896,0.223694,0.51701445224,0,0,-0.671082,12.6, 1, -1.5,0,0,1024,1024,1025,1024,11.7,-89.9,95,3.679,3.739,3.731,3.715,0,0,22.029,60.8,14,Waypoint,
36.6440237,-118.9467559,4838.0821354617,31.824148,0,0.32652396058,8700,2018-04-13 19:06:49,16,0,22.543,4838.0821354617,31.824148,0.223694,0.51701445224,0,0,-0.671082,12.5, 1, -1.4,0,0,1024,1024,1024,1024,11.7,-89.9,95,3.679,3.739,3.731,3.715,0,0,22.029,60.8,14,Waypoint,
36.6440237,-118.9467557,4839.3944714617,33.136484,0,0.35663058884,8800,2018-04-13 19:06:49,16,0,22.543,4839.3944714617,33.136484,0.223694,0.51701445224,0,0,-0.671082,12.5, 1.1, -1.3,0,0,1024,1024,1024,1024,11.7,-89.9,95,3.679,3.739,3.731,3.715,0,0,22.029,60.8,14,Waypoint,
36.6440237,-118.9467556,4840.3787234617,34.120736,0,0.37421917208,8900,2018-04-13 19:06:49,16,0,22.543,4840.3787234617,34.120736,0.223694,0.51701445224,0,0,-0.671082,12.5, 1.1, -1.4,0,0,1024,1024,1025,1024,11.7,-89.9,95,3.679,3.739,3.731,3.715,0,0,22.029,60.8,14,Waypoint,
36.6440237,-118.9467555,4841.3629754617,35.104988,0,0.39320211232,9000,2018-04-13 19:06:49,16,0,22.259,4841.3629754617,35.104988,0.223694,0.51701445224,0,0,-0.671082,12.5, 0.9, -1.4,0,0,1024,1024,1024,1024,11.7,-89.9,95,3.701,3.728,3.745,3.729,0,0,23.433,60.8,14,Waypoint,
36.6440237,-118.9467553,4842.3472274617,36.08924,0,0.43460959396,9100,2018-04-13 19:06:49,16,0,22.259,4842.3472274617,36.08924,0.223694,0.51701445224,0,0,-0.671082,12.6, 0.9, -1.7,0,0,1024,1024,1025,1024,11.7,-89.9,95,3.701,3.728,3.745,3.729,0,0,23.433,60.8,14,Waypoint,
36.6440237,-118.9467552,4843.3314794617,37.073492,0,0.4567257364,9200,2018-04-13 19:06:49,16,0,22.259,4843.3314794617,37.073492,0.223694,0.51701445224,0,0,-0.671082,12.7, 0.8, -1.8,0,0,1024,1024,1024,1024,11.7,-89.9,95,3.701,3.728,3.745,3.729,0,0,23.433,60.8,14,Waypoint,
36.6440238,-118.9467551,4844.3157314617,38.057744,0,0.50264437304,9300,2018-04-13 19:06:49,16,0,22.259,4844.3157314617,38.057744,0.223694,0.51701445224,0,0,-0.671082,12.8, 0.8, -2,0,0,1024,1024,1024,1024,11.7,-89.9,95,3.701,3.728,3.745,3.729,0,0,23.433,60.8,14,Waypoint,
36.6440238,-118.946755,4846.2842354617,40.026248,0,0.52515749712,9400,2018-04-13 19:06:49,15,0,22.259,4846.2842354617,40.026248,0.223694,0.52515749712,0,0,-0.671082,12.8, 1, -1.9,0,0,1024,1024,1024,1024,11.7,-89.9,95,3.701,3.728,3.745,3.729,0,0,23.433,60.8,14,Waypoint,
36.6440238,-118.9467549,4848.2527394617,41.994752,0,0.54830710416,9600,2018-04-13 19:06:50,16,0,22.259,4848.2527394617,41.994752,0.223694,0.54830710416,0,0,-0.671082,12.7, 0.8, -1.9,0,0,1024,1024,1025,1024,11.7,-89.9,95,3.701,3.728,3.745,3.729,0,0,23.433,60.8,14,Waypoint,
36.6440238,-118.9467549,4849.2369914617,42.979004,0,0.54830710416,9700,2018-04-13 19:06:50,16,0,22.259,4849.2369914617,42.979004,0.223694,0.54830710416,0,0,-0.671082,12.6, 0.7, -1.8,0,0,1024,1024,1024,1024,11.7,-89.9,95,3.701,3.728,3.745,3.729,0,0,23.433,60.8,14,Waypoint,
36.6440238,-118.9467549,4850.2212434617,43.963256,0,0.54830710416,9800,2018-04-13 19:06:50,16,0,22.259,4850.2212434617,43.963256,0.223694,0.54830710416,0,0,-0.671082,12.6, 0.9, -1.7,0,0,1024,1024,1025,1024,11.7,-89.9,95,3.701,3.728,3.745,3.729,0,0,23.433,60.8,14,Waypoint,
36.6440238,-118.946755,4851.2054954617,44.947508,0,0.52515749712,9900,2018-04-13 19:06:50,17,0,22.259,4851.2054954617,44.947508,0.223694,0.54830710416,0,0,-0.671082,12.7, 1.1, -1.6,0,0,1024,1024,1024,1024,11.7,-89.9,95,3.701,3.728,3.745,3.729,0,0,23.433,60.8,14,Waypoint,
36.6440239,-118.946755,4852.1897474617,45.93176,0,0.54870736664,10000,2018-04-13 19:06:50,17,0,22.671,4852.1897474617,45.93176,0.223694,0.54870736664,0,0,-0.671082,12.8, 1.1, -1.2,0,0,1024,1024,1024,1024,11.7,-89.9,95,3.749,3.79,3.793,3.776,0,0,18.249,60.8,14,Waypoint,
36.6440239,-118.946755,4853.1739994617,46.916012,0,0.54870736664,10100,2018-04-13 19:06:50,16,0,22.671,4853.1739994617,46.916012,0.223694,0.54870736664,0,0,-0.671082,12.8, 0.9, -1.1,0,0,1024,1024,1024,1024,11.7,-89.9,95,3.749,3.79,3.793,3.776,0,0,18.249,60.8,14,Waypoint,
36.6440239,-118.9467551,4854.1582514617,47.900264,0,0.52720146044,10200,2018-04-13 19:06:50,16,0,22.671,4854.1582514617,47.900264,0.223694,0.54870736664,0,0,-0.671082,12.8, 0.8, -1.1,0,0,1024,1024,1025,1024,11.7,-89.9,95,3.749,3.79,3.793,3.776,0,0,18.249,60.8,14,Waypoint,
36.6440239,-118.9467551,4855.1425034617,48.884516,0,0.52720146044,10300,2018-04-13 19:06:50,15,0,22.671,4855.1425034617,48.884516,0.223694,0.54870736664,0,0,-0.671082,12.8, 0.8, -1.2,0,0,1024,1024,1025,1024,11.7,-89.9,95,3.749,3.79,3.793,3.776,0,0,18.249,60.8,14,Waypoint,
36.6440239,-118.9467552,4856.1267554617,49.868768,0,0.50647639416,10400,2018-04-13 19:06:50,15,0,22.671,4856.1267554617,49.868768,0.223694,0.54870736664,0,0,-0.671082,12.9, 0.8, -1.3,0,0,1024,1024,1025,1024,11.7,-89.9,95,3.749,3.79,3.793,3.776,0,0,18.249,60.8,14,Waypoint,
36.6440239,-118.9467553,4857.1110074617,50.85302,0,0.486630593,10600,2018-04-13 19:06:51,17,0,22.671,4857.1110074617,50.85302,0.223694,0.54870736664,0,0,-0.671082,12.8, 0.8, -1.3,0,0,1024,1024,1024,1024,11.7,-89.9,95,3.749,3.79,3.793,3.776,0,0,18.249,60.8,14,Waypoint,
36.6440239,-118.9467554,4858.0952594617,51.837272,0,0.46777232468,10700,2018-04-13 19:06:51,17,0,22.671,4858.0952594617,51.837272,0.223694,0.54870736664,0,0,-0.671082,12.7, 0.8, -1.2,0,0,1024,1024,1024,1024,11.7,-89.9,95,3.749,3.79,3.793,3.776,0,0,18.249,60.8,14,Waypoint,
36.6440238,-118.9467556,4859.0795114617,52.821524,0,0.40332350372,10800,2018-04-13 19:06:51,16,0,22.671,4859.0795114617,52.821524,0.223694,0.54870736664,0,0,-0.671082,12.6, 0.9, -1.1,0,0,1024,1024,1024,1024,11.7,-89.9,95,3.749,3.79,3.793,3.776,0,0,18.249,60.8,14,Waypoint,
36.6440239,-118.9467556,4860.0637634617,53.805776,0,0.43354332096,10900,2018-04-13 19:06:51,16,0,22.671,4860.0637634617,53.805776,0.223694,0.54870736664,0,0,-0.671082,12.3, 0.9, -0.9,0,0,1024,1024,1024,1024,11.7,-89.9,95,3.749,3.79,3.793,3.776,0,0,18.249,60.8,14,Waypoint,
36.6440239,-118.9467557,4861.0480154617,54.790028,0,0.41845801864,11000,2018-04-13 19:06:51,17,0,22.635,4861.0480154617,54.790028,0.223694,0.54870736664,0,0,-0.671082,12.1, 0.9, -1,0,0,1024,1024,1025,1024,11.7,-89.9,95,3.742,3.778,3.783,3.762,0,0,18.487,60.8,14,Waypoint,
36.6440238,-118.9467558,4862.3603514617,56.102364,0,0.37238846336,11100,2018-04-13 19:06:51,17,0,22.635,4862.3603514617,56.102364,0.223694,0.54870736664,0,0,-0.671082,11.9, 0.9, -1,0,0,1024,1024,1025,1024,11.7,-89.9,95,3.742,3.778,3.783,3.762,0,0,18.487,60.8,14,Waypoint,
36.6440238,-118.9467559,4863.3446034617,57.086616,0,0.35951116636,11200,2018-04-13 19:06:51,17,0,22.635,4863.3446034617,57.086616,0.223694,0.54870736664,0,0,-0.671082,11.9, 0.9, -1.1,0,0,1024,1024,1025,1024,11.7,-89.9,95,3.742,3.778,3.783,3.762,0,0,18.487,60.8,14,Waypoint,
36.6440239,-118.9467559,4864.3288554617,58.070868,0,0.39311352964,11300,2018-04-13 19:06:51,17,0,22.635,4864.3288554617,58.070868,0.223694,0.54870736664,0,0,-0.671082,11.9, 0.8, -1.1,0,0,1024,1024,1025,1024,11.7,-89.9,95,3.742,3.778,3.783,3.762,0,0,18.487,60.8,14,Waypoint,
36.6440239,-118.9467559,4865.3131074617,59.05512,0,0.39311352964,11400,2018-04-13 19:06:51,16,0,22.635,4865.3131074617,59.05512,0.223694,0.54870736664,0,0,-0.671082,12.1, 0.9, -1.2,0,0,1024,1024,1024,1024,11.7,-89.9,95,3.742,3.778,3.783,3.762,0,0,18.487,60.8,14,Waypoint,
36.644024,-118.9467559,4867.2816114617,61.023624,0,0.42719161472,11500,2018-04-13 19:06:52,17,0,22.635,4867.2816114617,61.023624,0.223694,0.54870736664,0,0,-0.671082,12.4, 1.2, -1.7,0,0,1024,1024,1025,1024,11.7,-89.9,95,3.742,3.778,3.783,3.762,0,0,18.487,60.8,14,Waypoint,
36.644024,-118.9467559,4867.9377794617,61.679792,0,0.42719161472,11600,2018-04-13 19:06:52,17,0,22.635,4867.9377794617,61.679792,0.223694,0.54870736664,0,0,-0.671082,12.5, 1.2, -1.8,0,0,1024,1024,1024,1024,11.7,-89.9,95,3.742,3.778,3.783,3.762,0,0,18.487,60.8,14,Waypoint,
36.644024,-118.9467559,4868.9220314617,62.664044,0,0.42719161472,11700,2018-04-13 19:06:52,16,0,22.635,4868.9220314617,62.664044,0.223694,0.54870736664,0,0,-0.671082,12.6, 1.1, -1.9,0,0,1024,1024,1025,1024,11.7,-89.9,95,3.742,3.778,3.783,3.762,0,0,18.487,60.8,14,Waypoint,
36.644024,-118.9467558,4869.9062834617,63.648296,0,0.43808728436,11800,2018-04-13 19:06:52,16,0,22.635,4869.9062834617,63.648296,0.223694,0.54870736664,0,0,-0.671082,12.6, 1, -2,0,0,1024,1024,1024,1024,11.7,-89.9,95,3.742,3.778,3.783,3.762,0,0,18.487,60.8,14,Waypoint,
36.644024,-118.9467558,4870.8905354617,64.632548,0,0.43808728436,11900,2018-04-13 19:06:52,16,0,22.635,4870.8905354617,64.632548,0.223694,0.54870736664,0,0,-0.671082,12.6, 1.1, -1.9,0,0,1024,1024,1024,1024,11.7,-89.9,95,3.742,3.778,3.783,3.762,0,0,18.487,60.8,14,Waypoint,
36.6440239,-118.946756,4871.8747874617,65.6168,0,0.38317914612,12000,2018-04-13 19:06:52,16,0,22.657,4871.8747874617,65.6168,0.223694,0.54870736664,0,0,-0.671082,12.7, 1, -1.8,0,0,1024,1024,1024,1024,11.7,-89.9,95,3.74,3.789,3.785,3.759,0,0,18.432,60.8,14,Waypoint,
36.6440239,-118.9467562,4872.8590394617,66.601052,0,0.36951772836,12110,2018-04-13 19:06:52,15,0,22.657,4872.8590394617,66.601052,0.223694,0.54870736664,0,0,-0.671082,12.7, 0.8, -1.4,0,0,1024,1024,1024,1024,11.7,-89.9,95,3.74,3.789,3.785,3.759,0,0,18.432,60.8,14,Waypoint,
36.6440239,-118.9467562,4873.8432914617,67.585304,0,0.36951772836,12200,2018-04-13 19:06:52,15,0,22.657,4873.8432914617,67.585304,0.223694,0.54870736664,0,0,-0.671082,12.8, 0.7, -1.1,0,0,1024,1024,1024,1024,11.7,-89.9,95,3.74,3.789,3.785,3.759,0,0,18.432,60.8,14,Waypoint,
36.6440239,-118.9467562,4874.8275434617,68.569556,0,0.36951772836,12300,2018-04-13 19:06:52,16,0,22.657,4874.8275434617,68.569556,0.223694,0.54870736664,0,0,-0.671082,12.8, 0.8, -1.1,0,0,1024,1024,1025,1024,11.7,-89.9,95,3.74,3.789,3.785,3.759,0,0,18.432,60.8,14,Waypoint,
36.644024,-118.9467562,4875.8117954617,69.553808,0,0.40558400248,12400,2018-04-13 19:06:52,16,0,22.657,4875.8117954617,69.553808,0.223694,0.54870736664,0,0,-0.671082,12.9, 0.8, -1.2,0,0,1024,1024,1025,1024,11.7,-89.9,95,3.74,3.789,3.785,3.759,0,0,18.432,60.8,14,Waypoint,
36.644024,-118.9467562,4876.7960474617,70.53806,0,0.40558400248,12510,2018-04-13 19:06:53,17,0,22.657,4876.7960474617,70.53806,0.223694,0.54870736664,0,0,-0.671082,12.9, 0.8, -1.4,0,0,1024,1024,1025,1024,11.7,-89.9,95,3.74,3.789,3.785,3.759,0,0,18.432,60.8,14,Waypoint,
36.644024,-118.9467562,4877.4522154617,71.194228,0,0.40558400248,12600,2018-04-13 19:06:53,17,0,22.657,4877.4522154617,71.194228,0.223694,0.54870736664,0,0,-0.671082,12.8, 0.7, -1.5,0,0,1024,1024,1024,1024,11.7,-89.9,95,3.74,3.789,3.785,3.759,0,0,18.432,60.8,14,Waypoint,
36.644024,-118.9467562,4878.4364674617,72.17848,0,0.40558400248,12700,2018-04-13 19:06:53,17,0,22.657,4878.4364674617,72.17848,0.223694,0.54870736664,0,0,-0.671082,12.7, 0.8, -1.6,0,0,1024,1024,1024,1024,11.7,-89.9,95,3.74,3.789,3.785,3.759,0,0,18.432,60.8,14,Waypoint,
36.644024,-118.9467562,4879.4207194617,73.162732,0,0.40558400248,12800,2018-04-13 19:06:53,17,0,22.657,4879.4207194617,73.162732,0.223694,0.54870736664,0,0,-0.671082,12.7, 0.8, -1.6,0,0,1024,1024,1024,1024,11.7,-89.9,95,3.74,3.789,3.785,3.759,0,0,18.432,60.8,14,Waypoint,
36.644024,-118.9467562,4880.4049714617,74.146984,0,0.40558400248,12900,2018-04-13 19:06:53,17,0,22.657,4880.4049714617,74.146984,0.223694,0.54870736664,0,0,-0.671082,12.8, 0.8, -1.5,0,0,1024,1024,1025,1024,11.7,-89.9,95,3.74,3.789,3.785,3.759,0,0,18.432,60.8,14,Waypoint,
36.644024,-118.9467564,4881.3892234617,75.131236,0,0.40133531468,13100,2018-04-13 19:06:53,17,0,22.657,4881.3892234617,75.131236,0.223694,0.54870736664,0,0,-0.671082,12.8, 0.8, -1.2,0,0,1024,1024,1025,1024,11.7,-89.9,95,3.74,3.789,3.785,3.759,0,0,18.432,60.8,14,Waypoint,
36.644024,-118.9467565,4882.3734754617,76.115488,0,0.40240158768,13200,2018-04-13 19:06:53,17,0,22.657,4882.3734754617,76.115488,0.223694,0.54870736664,0,0,-0.671082,12.9, 0.6, -1.1,0,0,1024,1024,1025,1024,11.7,-89.9,95,3.74,3.789,3.785,3.759,0,0,18.432,60.8,14,Waypoint,
36.644024,-118.9467566,4883.3577274617,77.09974,0,0.40558400248,13300,2018-04-13 19:06:53,17,0,22.657,4883.3577274617,77.09974,0.223694,0.54870736664,0,0,-0.671082,12.9, 0.5, -0.9,0,0,1024,1024,1024,1024,11.7,-89.9,95,3.74,3.789,3.785,3.759,0,0,18.432,60.8,14,Waypoint,
36.6440239,-118.9467568,4884.3419794617,78.083992,0,0.38317914612,13400,2018-04-13 19:06:53,17,0,22.657,4884.3419794617,78.083992,0.223694,0.54870736664,0,0,-0.671082,12.9, 0.5, -0.7,0,0,1024,1024,1025,1024,11.7,-89.9,95,3.74,3.789,3.785,3.759,0,0,18.432,60.8,14,Waypoint,
36.6440239,-118.9467568,4885.3262314617,79.068244,0,0.38317914612,13500,2018-04-13 19:06:54,17,0,22.657,4885.3262314617,79.068244,0.223694,0.54870736664,0,0,-0.671082,12.8, 0.4, -0.8,0,0,1024,1024,1024,1024,11.7,-89.9,95,3.74,3.789,3.785,3.759,0,0,18.432,60.8,14,Waypoint,
36.6440239,-118.9467569,4886.3104834617,80.052496,0,0.39311352964,13600,2018-04-13 19:06:54,17,0,22.657,4886.3104834617,80.052496,0.223694,0.54870736664,0,0,-0.671082,12.7, 0.5, -0.8,0,0,1024,1024,1025,1024,11.7,-89.9,95,3.74,3.789,3.785,3.759,0,0,18.432,60.8,14,Waypoint,
36.6440239,-118.9467568,4888.2789874617,82.021,0,0.38317914612,13700,2018-04-13 19:06:54,16,0,22.657,4888.2789874617,82.021,0.223694,0.54870736664,0,0,-0.671082,12.6, 0.6, -1.2,0,0,1024,1024,1024,1024,11.7,-89.9,95,3.74,3.789,3.785,3.759,0,0,18.432,60.8,14,Waypoint,
36.6440239,-118.9467564,4890.2474914617,83.989504,0,0.36484909304,13900,2018-04-13 19:06:54,17,0,22.657,4890.2474914617,83.989504,0.223694,0.54870736664,0,0,-0.671082,12.7, 0.6, -2.4,0,0,1024,1024,1024,1024,11.7,-90,95,3.74,3.789,3.785,3.759,0,0,18.432,60.8,14,Waypoint,
36.6440239,-118.9467562,4891.2317434617,84.973756,0.223694,0.36951772836,14000,2018-04-13 19:06:54,17,0,22.491,4891.2317434617,84.973756,0.223694,0.54870736664,0,0,-0.671082,12.7, 0.8, -2.8,0,0,1024,1024,1024,1024,11.7,-89.9,95,3.703,3.764,3.756,3.736,0,0,19.18,60.8,14,Waypoint,
36.6440239,-118.946756,4892.2159954617,85.958008,0.223694,0.38317914612,14100,2018-04-13 19:06:54,17,0,22.491,4892.2159954617,85.958008,0.223694,0.54870736664,0,0,-0.671082,12.7, 1, -3.5,0,0,1024,1024,1024,1024,11.7,-89.9,95,3.703,3.764,3.756,3.736,0,0,19.18,60.8,14,Waypoint,
36.6440239,-118.9467559,4893.2002474617,86.94226,0.223694,0.39311352964,14210,2018-04-13 19:06:54,17,0,22.491,4893.2002474617,86.94226,0.223694,0.54870736664,0,0,-0.671082,12.8, 1.1, -3.8,0,0,1024,1024,1024,1024,11.7,-89.9,95,3.703,3.764,3.756,3.736,0,0,19.18,60.8,14,Waypoint,
36.6440238,-118.9467558,4894.1844994617,87.926512,0,0.37238846336,14300,2018-04-13 19:06:54,17,0,22.491,4894.1844994617,87.926512,0.223694,0.54870736664,0,0,-0.671082,12.8, 1, -3.7,0,0,1024,1024,1025,1024,11.7,-89.9,95,3.703,3.764,3.756,3.736,0,0,19.18,60.8,14,Waypoint,
36.6440237,-118.9467557,4895.1687514617,88.910764,0,0.35663058884,14400,2018-04-13 19:06:54,17,0,22.491,4895.1687514617,88.910764,0.223694,0.54870736664,0,0,-0.671082,12.7, 0.8, -3.5,0,0,1024,1024,1025,1024,11.7,-90,95,3.703,3.764,3.756,3.736,0,0,19.18,60.8,14,Waypoint,
36.6440237,-118.9467555,4896.4810874617,90.2231,0,0.39320211232,14510,2018-04-13 19:06:55,17,0,22.491,4896.4810874617,90.2231,0.223694,0.54870736664,0,0,-0.671082,12.7, 0.5, -3.5,0,0,1024,1024,1024,1024,11.7,-90,95,3.703,3.764,3.756,3.736,0,0,19.18,60.8,14,Waypoint,
36.6440237,-118.9467553,4897.4653394617,91.207352,0.223694,0.43460959396,14600,2018-04-13 19:06:55,17,0,22.491,4897.4653394617,91.207352,0.223694,0.54870736664,0,0,-0.671082,12.7, 0.4, -3.8,0,0,1024,1024,1025,1024,11.7,-90,95,3.703,3.764,3.756,3.736,0,0,19.18,60.8,14,Waypoint,
36.6440237,-118.9467551,4898.4495914617,92.191604,0.223694,0.47960631456,14700,2018-04-13 19:06:55,17,0,22.491,4898.4495914617,92.191604,0.223694,0.54870736664,0,0,-0.671082,12.7, 0.5, -4.1,0,0,1024,1024,1024,1024,11.7,-90,95,3.703,3.764,3.756,3.736,0,0,19.18,60.8,14,Waypoint,
36.6440237,-118.9467549,4899.4338434617,93.175856,0.223694,0.52726707724,14900,2018-04-13 19:06:55,17,0,22.491,4899.4338434617,93.175856,0.223694,0.54870736664,0,0,-0.671082,12.6, 0.6, -4.3,0,0,1024,1024,1024,1024,11.7,-89.9,95,3.703,3.764,3.756,3.736,0,0,19.18,60.8,14,Waypoint,
36.6440237,-118.9467548,4900.4180954617,94.160108,0,0.5518865006,15000,2018-04-13 19:06:55,17,0,22.52,4900.4180954617,94.160108,0.223694,0.5518865006,0,0,-0.671082,12.5, 1, -4.5,0,0,1024,1024,1025,1024,11.7,-89.9,95,3.703,3.764,3.756,3.736,0,0,18.846,60.8,14,Waypoint,
36.6440237,-118.9467546,4901.0742634617,94.816276,0,0.60237206652,15100,2018-04-13 19:06:55,17,0,22.52,4901.0742634617,94.816276,0.223694,0.60237206652,0,0,-0.671082,12.6, 1.4, -4.5,0,0,1024,1024,1024,1024,11.7,-89.9,95,3.703,3.764,3.756,3.736,0,0,18.846,60.8,14,Waypoint,
36.6440237,-118.9467544,4902.0585154617,95.800528,0,0.65420277684,15200,2018-04-13 19:06:55,17,0,22.52,4902.0585154617,95.800528,0.223694,0.65420277684,0,0,-0.671082,12.8, 1.4, -4.4,0,0,1024,1024,1024,1024,11.7,-89.9,95,3.703,3.764,3.756,3.736,0,0,18.846,60.8,14,Waypoint,
36.6440237,-118.9467543,4903.0427674617,96.78478,0,0.680528237,15300,2018-04-13 19:06:55,17,0,22.52,4903.0427674617,96.78478,0.223694,0.680528237,0,0,-0.671082,12.9, 1.3, -4.4,0,0,1024,1024,1024,1024,11.7,-89.9,95,3.703,3.764,3.756,3.736,0,0,18.846,60.8,14,Waypoint,
36.6440237,-118.9467541,4904.0270194617,97.769032,0,0.73384516784,15410,2018-04-13 19:06:55,17,0,22.52,4904.0270194617,97.769032,0.223694,0.73384516784,0,0,-0.671082,12.9, 1.2, -4.6,0,0,1024,1024,1024,1024,11.7,-89.9,95,3.703,3.764,3.756,3.736,0,0,18.846,60.8,14,Waypoint,
36.6440237,-118.9467539,4905.0112714617,98.753284,0,0.78790684936,15500,2018-04-13 19:06:56,17,0,22.52,4905.0112714617,98.753284,0.223694,0.78790684936,0,0,-0.671082,12.7, 1.2, -4.9,0,0,1024,1024,1024,1024,11.7,-89.9,95,3.703,3.764,3.756,3.736,0,0,18.846,60.8,14,Waypoint,
36.6440237,-118.9467538,4905.9955234617,99.737536,0,0.81517062976,15600,2018-04-13 19:06:56,17,0,22.52,4905.9955234617,99.737536,0.223694,0.81517062976,0,0,-0.671082,12.4, 1.1, -5.5,0,0,1024,1024,1024,1024,11.7,-90,95,3.703,3.764,3.756,3.736,0,0,18.846,60.8,14,Waypoint,
36.6440236,-118.9467536,4906.9797754617,100.721788,0,0.85854005372,15700,2018-04-13 19:06:56,17,0,22.52,4906.9797754617,100.721788,0.223694,0.85854005372,0,0,-0.671082,12.2, 0.8, -6.1,0,0,1024,1024,1025,1024,11.7,-89.9,95,3.703,3.764,3.756,3.736,0,0,18.846,60.8,14,Waypoint,
36.6440236,-118.9467535,4907.6359434617,101.377956,0,0.8865321806,15800,2018-04-13 19:06:56,17,0,22.52,4907.6359434617,101.377956,0.223694,0.8865321806,0,0,-0.671082,12.1, 0.8, -6.1,0,0,1024,1024,1024,1024,11.7,-90,95,3.703,3.764,3.756,3.736,0,0,18.846,60.8,14,Waypoint,
36.6440237,-118.9467534,4909.6044474617,103.34646,0,0.92545278552,15900,2018-04-13 19:06:56,17,0,22.52,4909.6044474617,103.34646,0.223694,0.92545278552,0,0,-0.671082,11.8, 1.2, -5.3,0,0,1024,1024,1024,1024,11.7,-89.9,95,3.703,3.764,3.756,3.736,0,0,18.846,60.8,14,Waypoint,
36.6440238,-118.9467535,4910.5886994617,104.330712,0,0.91023953044,16000,2018-04-13 19:06:56,17,0,22.44,4910.5886994617,104.330712,0.223694,0.92545278552,0,0,-0.671082,11.8, 1.5, -4.7,0,0,1024,1024,1024,1024,11.7,-89.9,95,3.711,3.766,3.761,3.74,0,0,18.846,60.8,14,Waypoint,
36.6440239,-118.9467536,4911.5729514617,105.314964,0,0.89720475312,16120,2018-04-13 19:06:56,17,0,22.44,4911.5729514617,105.314964,0.223694,0.92545278552,0,0,-0.671082,11.9, 1.7, -4.2,0,0,1024,1024,1024,1024,11.7,-89.9,95,3.711,3.766,3.761,3.74,0,0,18.846,60.8,14,Waypoint,
36.6440239,-118.9467537,4912.5572034617,106.299216,0,0.87054464728,16200,2018-04-13 19:06:56,17,0,22.44,4912.5572034617,106.299216,0.223694,0.92545278552,0,0,-0.671082,12, 1.9, -3.8,0,0,1024,1024,1024,1024,11.7,-89.9,95,3.711,3.766,3.761,3.74,0,0,18.846,60.8,14,Waypoint,
36.644024,-118.9467538,4913.2133714617,106.955384,0,0.86045278344,16300,2018-04-13 19:06:56,17,0,22.44,4913.2133714617,106.955384,0.223694,0.92545278552,0,0,-0.671082,12.2, 2, -3.5,0,0,1024,1024,1025,1024,11.7,-89.9,95,3.711,3.766,3.761,3.74,0,0,18.846,60.8,14,Waypoint,
36.6440241,-118.9467539,4914.1976234617,107.939636,0,0.85281498792,16400,2018-04-13 19:06:56,17,0,22.44,4914.1976234617,107.939636,0.223694,0.92545278552,0,0,-0.671082,12.4, 1.9, -3.4,0,0,1024,1024,1025,1024,11.7,-89.9,95,3.711,3.766,3.761,3.74,0,0,18.846,60.8,14,Waypoint,
36.6440242,-118.946754,4915.1818754617,108.923888,0,0.84769031584,16500,2018-04-13 19:06:57,17,0,22.44,4915.1818754617,108.923888,0.223694,0.92545278552,0,0,-0.671082,12.6, 1.9, -3.4,0,0,1024,1024,1024,1024,11.7,-89.9,95,3.711,3.766,3.761,3.74,0,0,18.846,60.8,14,Waypoint,
36.6440242,-118.9467541,4916.1661274617,109.90814,0,0.8235892652,16700,2018-04-13 19:06:57,17,0,22.44,4916.1661274617,109.90814,0.223694,0.92545278552,0,0,-0.671082,12.6, 1.9, -3.4,0,0,1024,1024,1025,1024,11.7,-89.9,95,3.711,3.766,3.761,3.74,0,0,18.846,60.8,14,Waypoint,
36.6440243,-118.9467542,4917.1503794617,110.892392,0,0.8219980578,16800,2018-04-13 19:06:57,17,0,22.44,4917.1503794617,110.892392,0.223694,0.92545278552,0,0,-0.671082,12.7, 2, -3.4,0,0,1024,1024,1024,1024,11.7,-89.9,95,3.711,3.766,3.761,3.74,0,0,18.846,60.8,14,Waypoint,
36.6440243,-118.9467543,4918.1346314617,111.876644,0,0.79926839828,16900,2018-04-13 19:06:57,17,0,22.44,4918.1346314617,111.876644,0.223694,0.92545278552,0,0,-0.671082,12.6, 2.2, -3.5,0,0,1024,1024,1025,1024,11.7,-89.9,95,3.711,3.766,3.761,3.74,0,0,18.846,60.8,14,Waypoint,
36.6440244,-118.9467543,4919.1188834617,112.860896,0,0.82306104996,17000,2018-04-13 19:06:57,17,0,22.44,4919.1188834617,112.860896,0.223694,0.92545278552,0,0,-0.671082,12.6, 2.3, -3.5,0,0,1024,1024,1025,1024,11.7,-89.9,94,3.692,3.757,3.749,3.717,0,0,19.108,60.8,14,Waypoint,
36.6440244,-118.9467544,4920.1031354617,113.845148,0,0.80143375268,17100,2018-04-13 19:06:57,17,0,22.44,4920.1031354617,113.845148,0.223694,0.92545278552,0,0,-0.671082,12.5, 2.5, -3.4,0,0,1024,1024,1024,1024,11.7,-89.9,94,3.692,3.757,3.749,3.717,0,0,19.108,60.8,14,Waypoint,
36.6440245,-118.9467544,4921.0873874617,114.8294,0,0.82677824168,17200,2018-04-13 19:06:57,17,0,22.44,4921.0873874617,114.8294,0.223694,0.92545278552,0,0,-0.671082,12.5, 2.5, -3.5,0,0,1024,1024,1025,1024,11.7,-89.9,94,3.692,3.757,3.749,3.717,0,0,19.108,60.8,14,Waypoint,
36.6440245,-118.9467545,4922.0716394617,115.813652,0,0.80631236176,17300,2018-04-13 19:06:57,17,0,22.44,4922.0716394617,115.813652,0.223694,0.92545278552,0,0,-0.671082,12.5, 2.4, -3.7,0,0,1024,1024,1025,1024,11.7,-89.9,94,3.692,3.757,3.749,3.717,0,0,19.108,60.8,14,Waypoint,
36.6440245,-118.9467545,4923.0558914617,116.797904,0,0.80631236176,17400,2018-04-13 19:06:57,17,0,22.44,4923.0558914617,116.797904,0.223694,0.92545278552,0,0,-0.671082,12.5, 2.2, -3.8,0,0,1024,1024,1024,1024,11.7,-89.9,94,3.692,3.757,3.749,3.717,0,0,19.108,60.8,14,Waypoint,
36.6440245,-118.9467545,4924.0401434617,117.782156,0,0.80631236176,17500,2018-04-13 19:06:58,17,0,22.44,4924.0401434617,117.782156,0.223694,0.92545278552,0,0,-0.671082,12.5, 2, -3.7,0,0,1024,1024,1024,1024,11.7,-89.9,94,3.692,3.757,3.749,3.717,0,0,19.108,60.8,14,Waypoint,
36.6440245,-118.9467546,4925.0243954617,118.766408,0,0.78640422464,17600,2018-04-13 19:06:58,17,0,22.44,4925.0243954617,118.766408,0.223694,0.92545278552,0,0,-0.671082,12.5, 1.7, -3.7,0,0,1024,1024,1025,1024,11.7,-89.9,94,3.692,3.757,3.749,3.717,0,0,19.108,60.8,14,Waypoint,
36.6440245,-118.9467546,4926.0086474617,119.75066,0,0.78640422464,17700,2018-04-13 19:06:58,17,0,22.44,4926.0086474617,119.75066,0.223694,0.92545278552,0,0,-0.671082,12.5, 1.8, -3.8,0,0,1024,1024,1025,1024,11.7,-89.9,94,3.692,3.757,3.749,3.717,0,0,19.108,60.8,14,Waypoint,
36.6440246,-118.9467547,4926.9928994617,120.734912,0,0.79521328004,17800,2018-04-13 19:06:58,17,0,22.44,4926.9928994617,120.734912,0.223694,0.92545278552,0,0,-0.671082,12.6, 2, -3.8,0,0,1024,1024,1025,1024,11.7,-89.9,94,3.692,3.757,3.749,3.717,0,0,19.108,60.8,14,Waypoint,
36.6440246,-118.9467548,4928.9614034617,122.703416,0,0.777230996,17900,2018-04-13 19:06:58,17,0,22.44,4928.9614034617,122.703416,0.223694,0.92545278552,0,0,-0.671082,12.6, 2.3, -3.7,0,0,1024,1024,1024,1024,11.7,-89.9,94,3.692,3.757,3.749,3.717,0,0,19.108,60.8,14,Waypoint,
36.6440246,-118.9467548,4929.9456554617,123.687668,0,0.777230996,18000,2018-04-13 19:06:58,17,0,22.396,4929.9456554617,123.687668,0.223694,0.92545278552,0,0,-0.671082,12.6, 2.2, -4,0,0,1024,1024,1024,1024,11.7,-89.9,94,3.698,3.736,3.746,3.722,0,0,19.531,60.8,14,Waypoint,
36.6440246,-118.9467548,4930.9299074617,124.67192,0,0.777230996,18120,2018-04-13 19:06:58,17,0,22.396,4930.9299074617,124.67192,0.223694,0.92545278552,0,0,-0.671082,12.6, 2, -3.8,0,0,1024,1024,1025,1024,11.7,-89.9,94,3.698,3.736,3.746,3.722,0,0,19.531,60.8,14,Waypoint,
36.6440245,-118.9467549,4931.9141594617,125.656172,0,0.73047574516,18200,2018-04-13 19:06:58,17,0,22.396,4931.9141594617,125.656172,0.223694,0.92545278552,0,0,-0.671082,12.6, 1.7, -3.5,0,0,1024,1024,1024,1024,11.7,-89.9,94,3.698,3.736,3.746,3.722,0,0,19.531,60.8,14,Waypoint,
36.6440245,-118.946755,4932.8984114617,126.640424,0,0.71326117768,18310,2018-04-13 19:06:58,17,0,22.396,4932.8984114617,126.640424,0.223694,0.92545278552,0,0,-0.671082,12.5, 1.4, -3.1,0,0,1024,1024,1025,1024,11.7,-89.9,94,3.698,3.736,3.746,3.722,0,0,19.531,60.8,14,Waypoint,
36.6440245,-118.9467552,4933.8826634617,127.624676,0,0.68130579608,18420,2018-04-13 19:06:58,17,0,22.396,4933.8826634617,127.624676,0.223694,0.92545278552,0,0,-0.671082,12.5, 1.4, -2.8,0,0,1024,1024,1025,1024,11.7,-89.9,94,3.698,3.736,3.746,3.722,0,0,19.531,60.8,14,Waypoint,
36.6440244,-118.9467553,4934.8669154617,128.608928,0,0.63498361612,18500,2018-04-13 19:06:59,17,0,22.396,4934.8669154617,128.608928,0.223694,0.92545278552,0,0,-0.671082,12.5, 1.4, -2.7,0,0,1024,1024,1024,1024,11.7,-89.9,94,3.698,3.736,3.746,3.722,0,0,19.531,60.8,14,Waypoint,
36.6440244,-118.9467554,4935.8511674617,129.59318,0,0.62064962616,18600,2018-04-13 19:06:59,17,0,22.396,4935.8511674617,129.59318,0.223694,0.92545278552,0,0,-0.671082,12.5, 1.4, -2.7,0,0,1024,1024,1024,1024,11.7,-89.9,94,3.698,3.736,3.746,3.722,0,0,19.531,60.8,14,Waypoint,
36.6440244,-118.9467555,4937.1635034617,130.905516,0,0.60739175172,18700,2018-04-13 19:06:59,17,0,22.396,4937.1635034617,130.905516,0.223694,0.92545278552,0,0,-0.671082,12.6, 1.4, -2.8,0,0,1024,1024,1025,1024,11.7,-89.9,94,3.698,3.736,3.746,3.722,0,0,19.531,60.8,14,Waypoint,
36.6440244,-118.9467555,4938.1477554617,131.889768,0,0.60739175172,18800,2018-04-13 19:06:59,17,0,22.396,4938.1477554617,131.889768,0.223694,0.92545278552,0,0,-0.671082,12.7, 1.4, -2.9,0,0,1024,1024,1024,1024,11.7,-89.9,94,3.698,3.736,3.746,3.722,0,0,19.531,60.8,14,Waypoint,
36.6440243,-118.9467556,4939.1320074617,132.87402,0,0.56191930932,19000,2018-04-13 19:06:59,17,0,22.404,4939.1320074617,132.87402,0.223694,0.92545278552,0,0,-0.671082,12.7, 1.5, -2.8,0,0,1024,1024,1025,1024,11.7,-89.9,94,3.693,3.745,3.743,3.725,0,0,19.072,60.8,14,Waypoint,
36.6440243,-118.9467556,4940.1162594617,133.858272,0,0.56191930932,19100,2018-04-13 19:06:59,17,0,22.404,4940.1162594617,133.858272,0.223694,0.92545278552,0,0,-0.671082,12.8, 1.5, -3,0,0,1024,1024,1025,1024,11.7,-89.9,94,3.693,3.745,3.743,3.725,0,0,19.072,60.8,14,Waypoint,
36.6440243,-118.9467556,4941.1005114617,134.842524,0,0.56191930932,19200,2018-04-13 19:06:59,17,0,22.404,4941.1005114617,134.842524,0.223694,0.92545278552,0,0,-0.671082,12.8, 1.5, -3.2,0,0,1024,1024,1025,1024,11.7,-89.9,94,3.693,3.745,3.743,3.725,0,0,19.072,60.8,14,Waypoint,
36.6440242,-118.9467556,4943.0690154617,136.811028,0,0.5289698332,19400,2018-04-13 19:06:59,17,0,22.404,4943.0690154617,136.811028,0.223694,0.92545278552,0,0,-0.671082,12.7, 1.2, -4.3,0,0,1024,1024,1025,1024,11.7,-90,94,3.693,3.745,3.743,3.725,0,0,19.072,60.8,14,Waypoint,
36.6440241,-118.9467555,4944.0532674617,137.79528,0,0.51098098748,19500,2018-04-13 19:07:00,17,0,22.404,4944.0532674617,137.79528,0.223694,0.92545278552,0,0,-0.671082,12.7, 1, -4.7,0,0,1024,1024,1024,1024,11.7,-90,94,3.693,3.745,3.743,3.725,0,0,19.072,60.8,14,Waypoint,
36.6440241,-118.9467555,4946.0217714617,139.763784,0,0.51098098748,19710,2018-04-13 19:07:00,17,0,22.404,4946.0217714617,139.763784,0.223694,0.92545278552,0,0,-0.671082,12.7, 1.4, -4.1,0,0,1024,1024,1024,1024,11.7,-89.9,94,3.693,3.745,3.743,3.725,0,0,19.072,60.8,14,Waypoint,
36.6440241,-118.9467556,4947.0060234617,140.748036,0,0.49651904476,19900,2018-04-13 19:07:00,17,0,22.404,4947.0060234617,140.748036,0.223694,0.92545278552,0,0,-0.671082,12.7, 1.6, -3.3,0,0,1024,1024,1025,1024,11.7,-89.9,94,3.693,3.745,3.743,3.725,0,0,19.072,60.8,14,Waypoint,
36.6440241,-118.9467557,4947.9902754617,141.732288,0,0.48340224644,20000,2018-04-13 19:07:00,17,0,22.253,4947.9902754617,141.732288,0.223694,0.92545278552,0,0,-0.671082,12.8, 1.6, -3,0,0,1024,1024,1024,1024,11.7,-89.9,94,3.653,3.727,3.708,3.695,0,0,20.377,60.8,14,Waypoint,
36.6440241,-118.9467559,4949.3026114617,143.044624,0,0.46163715388,20100,2018-04-13 19:07:00,17,0,22.253,4949.3026114617,143.044624,0.223694,0.92545278552,0,0,-0.671082,12.8, 1.5, -2.5,0,0,1024,1024,1025,1024,11.7,-89.9,94,3.653,3.727,3.708,3.695,0,0,20.377,60.8,14,Waypoint,
36.6440241,-118.946756,4950.2868634617,144.028876,0,0.45320867592,20200,2018-04-13 19:07:00,17,0,22.253,4950.2868634617,144.028876,0.223694,0.92545278552,0,0,-0.671082,12.8, 1.6, -2,0,0,1024,1024,1025,1024,11.7,-89.9,94,3.653,3.727,3.708,3.695,0,0,20.377,60.8,14,Waypoint,
36.6440241,-118.9467562,4952.2553674617,145.99738,0,0.4417158934,20300,2018-04-13 19:07:00,17,0,22.253,4952.2553674617,145.99738,0.223694,0.92545278552,0,0,-0.671082,12.8, 1.8, -1.9,0,0,1024,1024,1025,1024,11.7,-89.9,94,3.653,3.727,3.708,3.695,0,0,20.377,60.8,14,Waypoint,
36.6440241,-118.9467563,4953.2396194617,146.981632,0,0.4387959458,20400,2018-04-13 19:07:00,17,0,22.253,4953.2396194617,146.981632,0.223694,0.92545278552,0,0,-0.671082,12.8, 1.7, -2,0,0,1024,1024,1024,1024,11.7,-89.9,94,3.653,3.727,3.708,3.695,0,0,20.377,60.8,14,Waypoint,
36.6440241,-118.9467563,4954.2238714617,147.965884,0,0.4387959458,20500,2018-04-13 19:07:01,17,0,22.253,4954.2238714617,147.965884,0.223694,0.92545278552,0,0,-0.671082,12.7, 1.6, -2.3,0,0,1024,1024,1024,1024,11.7,-89.9,94,3.653,3.727,3.708,3.695,0,0,20.377,60.8,14,Waypoint,
36.644024,-118.9467563,4955.2081234617,148.950136,0,0.40240158768,20600,2018-04-13 19:07:01,17,0,22.253,4955.2081234617,148.950136,0.223694,0.92545278552,0,0,-0.671082,12.6, 1.6, -2.6,0,0,1024,1024,1024,1024,11.7,-89.9,94,3.653,3.727,3.708,3.695,0,0,20.377,60.8,14,Waypoint,
36.644024,-118.9467562,4956.5204594617,150.262472,0,0.40558400248,20700,2018-04-13 19:07:01,17,0,22.253,4956.5204594617,150.262472,0.223694,0.92545278552,0,0,-0.671082,12.5, 1.5, -3,0,0,1024,1024,1025,1024,11.7,-89.9,94,3.653,3.727,3.708,3.695,0,0,20.377,60.8,14,Waypoint,
36.644024,-118.9467561,4957.5047114617,151.246724,0,0.41083006564,20800,2018-04-13 19:07:01,17,0,22.253,4957.5047114617,151.246724,0.223694,0.92545278552,0,0,-0.671082,12.4, 1.4, -3.4,0,0,1024,1024,1025,1024,11.7,-90,94,3.653,3.727,3.708,3.695,0,0,20.377,60.8,14,Waypoint,
36.6440239,-118.946756,4958.4889634617,152.230976,0,0.38317914612,20900,2018-04-13 19:07:01,17,0,22.253,4958.4889634617,152.230976,0.223694,0.92545278552,0,0,-0.671082,12.3, 1.3, -3.7,0,0,1024,1024,1024,1024,11.7,-90,94,3.653,3.727,3.708,3.695,0,0,20.377,60.8,14,Waypoint,
36.6440239,-118.9467559,4959.4732154617,153.215228,0,0.39311352964,21000,2018-04-13 19:07:01,17,0,22.216,4959.4732154617,153.215228,0.223694,0.92545278552,0,0,-0.671082,12.3, 1.4, -3.8,0,0,1024,1024,1024,1024,11.7,-90,94,3.658,3.716,3.709,3.689,0,0,20.54,62.6,14,Waypoint,
36.6440239,-118.9467558,4960.4574674617,154.19948,0,0.40492783448,21100,2018-04-13 19:07:01,17,0,22.216,4960.4574674617,154.19948,0.223694,0.92545278552,0,0,-0.671082,12.3, 1.4, -3.8,0,0,1024,1024,1024,1024,11.7,-89.9,94,3.658,3.716,3.709,3.689,0,0,20.54,62.6,14,Waypoint,
36.6440239,-118.9467557,4961.4417194617,155.183732,0,0.41845801864,21200,2018-04-13 19:07:01,17,0,22.216,4961.4417194617,155.183732,0.223694,0.92545278552,0,0,-0.671082,12.3, 1.4, -3.8,0,0,1024,1024,1025,1024,11.7,-90,94,3.658,3.716,3.709,3.689,0,0,20.54,62.6,14,Waypoint,
36.6440238,-118.9467557,4962.4259714617,156.167984,0,0.38706037984,21300,2018-04-13 19:07:01,17,0,22.216,4962.4259714617,156.167984,0.223694,0.92545278552,0,0,-0.671082,12.4, 1.3, -3.7,0,0,1024,1024,1024,1024,11.7,-90,94,3.658,3.716,3.709,3.689,0,0,20.54,62.6,14,Waypoint,
36.6440238,-118.9467556,4963.4102234617,157.152236,0,0.40332350372,21400,2018-04-13 19:07:01,17,0,22.216,4963.4102234617,157.152236,0.223694,0.92545278552,0,0,-0.671082,12.5, 1.3, -3.7,0,0,1024,1024,1025,1024,11.7,-89.9,94,3.658,3.716,3.709,3.689,0,0,20.54,62.6,14,Waypoint,
36.6440238,-118.9467555,4964.3944754617,158.136488,0,0.4209973888,21500,2018-04-13 19:07:02,17,0,22.216,4964.3944754617,158.136488,0.223694,0.92545278552,0,0,-0.671082,12.6, 1.4, -3.6,0,0,1024,1024,1024,1024,11.7,-89.9,94,3.658,3.716,3.709,3.689,0,0,20.54,62.6,14,Waypoint,
36.6440238,-118.9467555,4965.3787274617,159.12074,0,0.4209973888,21600,2018-04-13 19:07:02,17,0,22.216,4965.3787274617,159.12074,0.223694,0.92545278552,0,0,-0.671082,12.7, 1.5, -3.7,0,0,1024,1024,1024,1024,11.7,-90,94,3.658,3.716,3.709,3.689,0,0,20.54,62.6,14,Waypoint,
36.6440238,-118.9467554,4966.3629794617,160.104992,0,0.43990815056,21700,2018-04-13 19:07:02,17,0,22.216,4966.3629794617,160.104992,0.223694,0.92545278552,0,0,-0.671082,12.6, 1.5, -3.8,0,0,1024,1024,1024,1024,11.7,-89.9,94,3.658,3.716,3.709,3.689,0,0,20.54,62.6,14,Waypoint,
36.6440238,-118.9467553,4968.3314834617,162.073496,0,0.4599081512,21900,2018-04-13 19:07:02,17,0,22.216,4968.3314834617,162.073496,0.223694,0.92545278552,0,0,-0.671082,12.8, 1.5, -3.8,0,0,1024,1024,1024,1024,11.7,-90,94,3.658,3.716,3.709,3.689,0,0,20.54,62.6,14,Waypoint,
36.6440237,-118.9467552,4970.2999874617,164.042,0,0.4567257364,22000,2018-04-13 19:07:02,17,0,22.209,4970.2999874617,164.042,0.223694,0.92545278552,0,0,-0.671082,12.9, 1.4, -3.9,0,0,1024,1024,1024,1024,11.7,-90,94,3.678,3.716,3.732,3.688,0,0,20.489,62.6,14,Waypoint,
36.6440237,-118.9467552,4971.2842394617,165.026252,0,0.4567257364,22100,2018-04-13 19:07:02,17,0,22.209,4971.2842394617,165.026252,0.223694,0.92545278552,0,0,-0.671082,12.9, 1.3, -3.9,0,0,1024,1024,1024,1024,11.7,-90,94,3.678,3.716,3.732,3.688,0,0,20.489,62.6,14,Waypoint,
36.6440237,-118.9467552,4971.9404074617,165.68242,0,0.4567257364,22200,2018-04-13 19:07:02,17,0,22.209,4971.9404074617,165.68242,0.223694,0.92545278552,0,0,-0.671082,12.9, 1.3, -3.9,0,0,1024,1024,1024,1024,11.7,-90,94,3.678,3.716,3.732,3.688,0,0,20.489,62.6,14,Waypoint,
36.6440238,-118.9467551,4973.9089114617,167.650924,0,0.50264437304,22400,2018-04-13 19:07:02,17,0,22.209,4973.9089114617,167.650924,0.223694,0.92545278552,0,0,-0.671082,12.7, 1.6, -3.7,0,0,1024,1024,1025,1024,11.7,-89.9,94,3.678,3.716,3.732,3.688,0,0,20.489,62.6,14,Waypoint,
36.6440238,-118.9467551,4974.8931634617,168.635176,0,0.50264437304,22500,2018-04-13 19:07:03,17,0,22.209,4974.8931634617,168.635176,0.223694,0.92545278552,0,0,-0.671082,12.6, 1.8, -3.5,0,0,1024,1024,1024,1024,11.7,-89.9,94,3.678,3.716,3.732,3.688,0,0,20.489,62.6,14,Waypoint,
36.6440238,-118.9467552,4975.8774154617,169.619428,0,0.48085959544,22600,2018-04-13 19:07:03,17,0,22.209,4975.8774154617,169.619428,0.223694,0.92545278552,0,0,-0.671082,12.6, 1.9, -3.4,0,0,1024,1024,1025,1024,11.7,-89.9,94,3.678,3.716,3.732,3.688,0,0,20.489,62.6,14,Waypoint,
36.6440239,-118.9467552,4977.1897514617,170.931764,0,0.50647639416,22700,2018-04-13 19:07:03,17,0,22.209,4977.1897514617,170.931764,0.223694,0.92545278552,0,0,-0.671082,12.5, 1.8, -3.1,0,0,1024,1024,1024,1024,11.7,-89.9,94,3.678,3.716,3.732,3.688,0,0,20.489,62.6,14,Waypoint,
36.6440239,-118.9467552,4978.1740034617,171.916016,0,0.50647639416,22800,2018-04-13 19:07:03,17,0,22.209,4978.1740034617,171.916016,0.223694,0.92545278552,0,0,-0.671082,12.5, 1.8, -3.2,0,0,1024,1024,1025,1024,11.7,-89.9,94,3.678,3.716,3.732,3.688,0,0,20.489,62.6,14,Waypoint,
36.6440239,-118.9467552,4979.1582554617,172.900268,0,0.50647639416,22900,2018-04-13 19:07:03,17,0,22.209,4979.1582554617,172.900268,0.223694,0.92545278552,0,0,-0.671082,12.5, 1.8, -3.3,0,0,1024,1024,1024,1024,11.7,-89.9,94,3.678,3.716,3.732,3.688,0,0,20.489,62.6,14,Waypoint,
36.6440239,-118.9467552,4980.1425074617,173.88452,0,0.50647639416,23010,2018-04-13 19:07:03,17,0,22.306,4980.1425074617,173.88452,0.223694,0.92545278552,0,0,-0.671082,12.6, 1.6, -3.6,0,0,1024,1024,1024,1024,11.7,-89.9,94,3.682,3.721,3.724,3.695,0,0,19.492,62.6,14,Waypoint,
36.644024,-118.9467552,4980.7986754617,174.540688,0,0.53335959712,23200,2018-04-13 19:07:03,17,0,22.306,4980.7986754617,174.540688,0.223694,0.92545278552,0,0,-0.671082,12.7, 1.5, -3.8,0,0,1024,1024,1024,1024,11.7,-89.9,94,3.682,3.721,3.724,3.695,0,0,19.492,62.6,14,Waypoint,
36.644024,-118.9467552,4981.7829274617,175.52494,0,0.53335959712,23300,2018-04-13 19:07:03,17,0,22.306,4981.7829274617,175.52494,0.223694,0.92545278552,0,0,-0.671082,12.8, 1.7, -3.6,0,0,1024,1024,1025,1024,11.7,-89.9,94,3.682,3.721,3.724,3.695,0,0,19.492,62.6,14,Waypoint,
36.644024,-118.9467553,4982.7671794617,176.509192,0,0.5145505414,23400,2018-04-13 19:07:03,17,0,22.306,4982.7671794617,176.509192,0.223694,0.92545278552,0,0,-0.671082,12.8, 1.8, -3.2,0,0,1024,1024,1025,1024,11.7,-89.9,94,3.682,3.721,3.724,3.695,0,0,19.492,62.6,14,Waypoint,
36.6440241,-118.9467553,4983.7514314617,177.493444,0,0.5434875502,23500,2018-04-13 19:07:04,17,0,22.306,4983.7514314617,177.493444,0.223694,0.92545278552,0,0,-0.671082,12.8, 1.9, -2.9,0,0,1024,1024,1025,1024,11.7,-89.9,94,3.682,3.721,3.724,3.695,0,0,19.492,62.6,14,Waypoint,
36.6440241,-118.9467554,4984.7356834617,178.477696,0,0.52666996436,23600,2018-04-13 19:07:04,17,0,22.306,4984.7356834617,178.477696,0.223694,0.92545278552,0,0,-0.671082,12.7, 1.9, -2.9,0,0,1024,1024,1024,1024,11.7,-89.9,94,3.682,3.721,3.724,3.695,0,0,19.492,62.6,14,Waypoint,
36.6440241,-118.9467554,4985.7199354617,179.461948,0,0.52666996436,23700,2018-04-13 19:07:04,17,0,22.306,4985.7199354617,179.461948,0.223694,0.92545278552,0,0,-0.671082,12.7, 1.9, -2.8,0,0,1024,1024,1024,1024,11.7,-89.9,94,3.682,3.721,3.724,3.695,0,0,19.492,62.6,14,Waypoint,
36.6440242,-118.9467555,4986.7041874617,180.4462,0,0.54256563416,23800,2018-04-13 19:07:04,17,0,22.306,4986.7041874617,180.4462,0.223694,0.92545278552,0,0,-0.671082,12.6, 1.9, -2.9,0,0,1024,1024,1024,1024,11.7,-89.9,94,3.682,3.721,3.724,3.695,0,0,19.492,62.6,14,Waypoint,
36.6440242,-118.9467556,4987.6884394617,181.430452,0,0.5289698332,23900,2018-04-13 19:07:04,17,0,22.306,4987.6884394617,181.430452,0.223694,0.92545278552,0,0,-0.671082,12.5, 2, -2.8,0,0,1024,1024,1025,1024,11.7,-89.9,94,3.682,3.721,3.724,3.695,0,0,19.492,62.6,14,Waypoint,
36.6440243,-118.9467557,4988.6726914617,182.414704,0,0.55036091,24000,2018-04-13 19:07:04,17,0,22.272,4988.6726914617,182.414704,0.223694,0.92545278552,0,0,-0.671082,12.4, 2, -2.6,0,0,1024,1024,1024,1024,11.7,-89.9,94,3.666,3.71,3.722,3.698,0,0,19.727,62.6,14,Waypoint,
36.6440243,-118.9467557,4989.6569434617,183.398956,0,0.55036091,24100,2018-04-13 19:07:04,17,0,22.272,4989.6569434617,183.398956,0.223694,0.92545278552,0,0,-0.671082,12.4, 2.1, -2.5,0,0,1024,1024,1024,1024,11.7,-89.9,94,3.666,3.71,3.722,3.698,0,0,19.727,62.6,14,Waypoint,
36.6440244,-118.9467558,4990.6411954617,184.383208,0,0.5747703596,24200,2018-04-13 19:07:04,17,0,22.272,4990.6411954617,184.383208,0.223694,0.92545278552,0,0,-0.671082,12.4, 2.1, -2.6,0,0,1024,1024,1025,1024,11.7,-89.9,94,3.666,3.71,3.722,3.698,0,0,19.727,62.6,14,Waypoint,
36.6440244,-118.946756,4993.5939514617,187.335964,0,0.5596620914,24400,2018-04-13 19:07:04,17,0,22.272,4993.5939514617,187.335964,0.223694,0.92545278552,0,0,-0.671082,12.6, 2.1, -2.4,0,0,1024,1024,1024,1024,11.7,-89.9,94,3.666,3.71,3.722,3.698,0,0,19.727,62.6,14,Waypoint,
36.6440245,-118.9467561,4994.5782034617,188.320216,0,0.59032810288,24500,2018-04-13 19:07:05,17,0,22.272,4994.5782034617,188.320216,0.223694,0.92545278552,0,0,-0.671082,12.6, 2.1, -2.4,0,0,1024,1024,1024,1024,11.7,-89.9,94,3.666,3.71,3.722,3.698,0,0,19.727,62.6,14,Waypoint,
36.6440245,-118.9467562,4995.5624554617,189.304468,0,0.58668637048,24600,2018-04-13 19:07:05,17,0,22.272,4995.5624554617,189.304468,0.223694,0.92545278552,0,0,-0.671082,12.6, 2, -2.3,0,0,1024,1024,1025,1024,11.7,-89.9,94,3.666,3.71,3.722,3.698,0,0,19.727,62.6,14,Waypoint,
36.6440245,-118.9467562,4996.5467074617,190.28872,0,0.58668637048,24700,2018-04-13 19:07:05,17,0,22.272,4996.5467074617,190.28872,0.223694,0.92545278552,0,0,-0.671082,12.6, 2, -2.3,0,0,1024,1024,1024,1024,11.7,-89.9,94,3.666,3.71,3.722,3.698,0,0,19.727,62.6,14,Waypoint,
36.6440245,-118.9467563,4997.5309594617,191.272972,0,0.58449148852,24800,2018-04-13 19:07:05,17,0,22.272,4997.5309594617,191.272972,0.223694,0.92545278552,0,0,-0.671082,12.5, 2, -2.3,0,0,1024,1024,1024,1024,11.7,-89.9,94,3.666,3.71,3.722,3.698,0,0,19.727,62.6,14,Waypoint,
36.6440246,-118.9467564,4998.8432954617,192.585308,0,0.620242802,24900,2018-04-13 19:07:05,17,0,22.272,4998.8432954617,192.585308,0.223694,0.92545278552,0,0,-0.671082,12.5, 2.1, -2.2,0,0,1024,1024,1025,1024,11.7,-89.9,94,3.666,3.71,3.722,3.698,0,0,19.727,62.6,14,Waypoint,
36.6440246,-118.9467564,4999.8275474617,193.56956,0,0.620242802,25000,2018-04-13 19:07:05,17,0,22.272,4999.8275474617,193.56956,0.223694,0.92545278552,0,0,-0.671082,12.5, 2.3, -2.1,0,0,1024,1024,1024,1024,11.7,-89.9,94,3.666,3.71,3.722,3.698,0,0,19.727,62.6,14,Waypoint,
36.6440246,-118.9467565,5000.8117994617,194.553812,0,0.62093505924,25100,2018-04-13 19:07:05,17,0,22.272,5000.8117994617,194.553812,0.223694,0.92545278552,0,0,-0.671082,12.5, 2.2, -2.2,0,0,1024,1024,1025,1024,11.7,-89.9,94,3.666,3.71,3.722,3.698,0,0,19.727,62.6,14,Waypoint,
36.6440245,-118.9467565,5002.7803034617,196.522316,0,0.58449148852,25300,2018-04-13 19:07:05,17,0,22.272,5002.7803034617,196.522316,0.223694,0.92545278552,0,0,-0.671082,12.5, 1.7, -2.5,0,0,1024,1024,1024,1024,11.7,-89.9,94,3.666,3.71,3.722,3.698,0,0,19.727,62.6,14,Waypoint,
36.6440245,-118.9467565,5003.7645554617,197.506568,0,0.58449148852,25400,2018-04-13 19:07:05,17,0,22.272,5003.7645554617,197.506568,0.223694,0.92545278552,0,0,-0.671082,12.6, 1.5, -2.7,0,0,1024,1024,1025,1024,11.7,-90,94,3.666,3.71,3.722,3.698,0,0,19.727,62.6,14,Waypoint,
36.6440245,-118.9467565,5004.7488074617,198.49082,0,0.58449148852,25500,2018-04-13 19:07:06,17,0,22.272,5004.7488074617,198.49082,0.223694,0.92545278552,0,0,-0.671082,12.6, 1.4, -3,0,0,1024,1024,1025,1024,11.7,-90,94,3.666,3.71,3.722,3.698,0,0,19.727,62.6,14,Waypoint,
36.6440245,-118.9467565,5005.7330594617,199.475072,0,0.58449148852,25620,2018-04-13 19:07:06,17,0,22.272,5005.7330594617,199.475072,0.223694,0.92545278552,0,0,-0.671082,12.5, 1.4, -2.9,0,0,1024,1024,1025,1024,11.7,-89.9,94,3.666,3.71,3.722,3.698,0,0,19.727,62.6,14,Waypoint,
36.6440245,-118.9467565,5005.7330594617,199.475072,0,0.58449148852,25700,2018-04-13 19:07:06,17,0,22.272,5005.7330594617,199.475072,0.223694,0.92545278552,0,0,-0.671082,12.5, 1.4, -2.9,0,0,1024,1024,1025,1024,11.7,-89.9,94,3.666,3.71,3.722,3.698,0,0,19.727,62.6,14,Waypoint,
36.6440244,-118.9467565,5007.7015634617,201.443576,0,0.54805776032,25800,2018-04-13 19:07:06,17,0,22.272,5007.7015634617,201.443576,0.223694,0.92545278552,0,0,-0.671082,12.6, 1.9, -2.5,0,0,1024,1024,1025,1024,11.7,-89.9,94,3.666,3.71,3.722,3.698,0,0,19.727,62.6,14,Waypoint,
36.6440244,-118.9467565,5008.6858154617,202.427828,0,0.54805776032,26000,2018-04-13 19:07:06,17,0,22.23,5008.6858154617,202.427828,0.223694,0.92545278552,0,0,-0.671082,12.8, 2, -2.8,0,0,1024,1024,1025,1024,11.7,-89.9,94,3.662,3.703,3.712,3.68,0,0,19.545,62.6,14,Waypoint,
36.6440244,-118.9467565,5009.6700674617,203.41208,0,0.54805776032,26100,2018-04-13 19:07:06,17,0,22.23,5009.6700674617,203.41208,0.223694,0.92545278552,0,0,-0.671082,12.9, 1.9, -3.1,0,0,1024,1024,1025,1024,11.7,-89.9,94,3.662,3.703,3.712,3.68,0,0,19.545,62.6,14,Waypoint,
36.6440243,-118.9467565,5010.6543194617,204.396332,0,0.51162731296,26200,2018-04-13 19:07:06,17,0,22.23,5010.6543194617,204.396332,0.223694,0.92545278552,0,0,-0.671082,12.9, 1.8, -3.2,0,0,1024,1024,1025,1024,11.7,-90,94,3.662,3.703,3.712,3.68,0,0,19.545,62.6,14,Waypoint,
36.6440243,-118.9467564,5011.6385714617,205.380584,0,0.51079069876,26300,2018-04-13 19:07:06,17,0,22.23,5011.6385714617,205.380584,0.223694,0.92545278552,0,0,-0.671082,12.9, 1.6, -3.2,0,0,1024,1024,1025,1024,11.7,-90,94,3.662,3.703,3.712,3.68,0,0,19.545,62.6,14,Waypoint,
36.6440242,-118.9467564,5012.6228234617,206.364836,0,0.47430447712,26400,2018-04-13 19:07:06,17,0,22.23,5012.6228234617,206.364836,0.223694,0.92545278552,0,0,-0.671082,12.8, 1.4, -3.6,0,0,1024,1024,1025,1024,11.7,-90,94,3.662,3.703,3.712,3.68,0,0,19.545,62.6,14,Waypoint,
36.6440242,-118.9467564,5013.6070754617,207.349088,0.223694,0.47430447712,26500,2018-04-13 19:07:07,17,0,22.23,5013.6070754617,207.349088,0.223694,0.92545278552,0,0,-0.671082,12.8, 1.1, -4.1,0,0,1024,1024,1024,1024,11.7,-90,94,3.662,3.703,3.712,3.68,0,0,19.545,62.6,14,Waypoint,
36.6440241,-118.9467563,5014.5913274617,208.33334,0,0.4387959458,26600,2018-04-13 19:07:07,17,0,22.23,5014.5913274617,208.33334,0.223694,0.92545278552,0,0,-0.671082,12.7, 0.8, -4.4,0,0,1024,1024,1024,1024,11.7,-90,94,3.662,3.703,3.712,3.68,0,0,19.545,62.6,14,Waypoint,
36.644024,-118.9467563,5015.5755794617,209.317592,0,0.40240158768,26700,2018-04-13 19:07:07,17,0,22.23,5015.5755794617,209.317592,0.223694,0.92545278552,0,0,-0.671082,12.6, 0.8, -4.2,0,0,1024,1024,1025,1024,11.7,-90,94,3.662,3.703,3.712,3.68,0,0,19.545,62.6,14,Waypoint,
36.6440239,-118.9467562,5017.2159994617,210.958012,0,0.36951772836,26800,2018-04-13 19:07:07,17,0,22.23,5017.2159994617,210.958012,0.223694,0.92545278552,0,0,-0.671082,12.5, 0.7, -3.6,0,0,1024,1024,1025,1024,11.7,-90,94,3.662,3.703,3.712,3.68,0,0,19.545,62.6,14,Waypoint,
