latitude,longitude,altitude(feet),ascent(feet),speed(mph),distance(feet),time(millisecond),datetime(utc),satellites,gpslevel,voltage(v),max_altitude(feet),max_ascent(feet),max_speed(mph),max_distance(feet), xSpeed(mph), ySpeed(mph), zSpeed(mph), compass_heading(degrees), pitch(degrees), roll(degrees),isPhoto,isVideo,rc_elevator,rc_aileron,rc_throttle,rc_rudder,gimbal_heading(degrees),gimbal_pitch(degrees),battery_percent,voltageCell1,voltageCell2,voltageCell3,voltageCell4,voltageCell5,voltageCell6,current(A),battery_temperature(f),flycStateRaw,flycState,message
36.6440245,-118.9467591,4806.2555845745,0,0.223694,0,3000,2018-04-13 18:19:56,16,0,25.476,4806.2555845745,0,0.223694,0,0,0,0,15, -1.8, -0.3,1,0,1024,1024,1024,1024,12.3,-89.9,97,4.211,4.247,4.256,4.255,0,0,3.861,62.6,11,AutoTakeoff,
36.6440247,-118.9467591,4806.2555845745,0,0.447388,0.072969818608,3100,2018-04-13 18:19:56,16,0,25.476,4806.2555845745,0,0.447388,0.072969818608,0,0,0,15, -0.8, 0,0,0,1024,1024,1024,1024,12.4,-89.9,97,4.211,4.247,4.256,4.255,0,0,3.861,62.6,11,AutoTakeoff,
36.6440249,-118.9467592,4806.2555845745,0,0.447388,0.14884678954,3200,2018-04-13 18:19:56,16,0,25.476,4806.2555845745,0,0.447388,0.14884678954,0,0,0,15, 0.2, 0.2,0,0,1024,1024,1024,1024,12.4,-89.9,97,4.211,4.247,4.256,4.255,0,0,3.861,62.6,11,AutoTakeoff,
36.6440251,-118.9467592,4806.5836685745,0.328084,0.447388,0.220858274784,3300,2018-04-13 18:19:56,16,0,25.476,4806.5836685745,0.328084,0.447388,0.220858274784,0,0,0,14.8, 1.2, 0.4,0,0,1024,1024,1024,1024,12.5,-89.9,97,4.211,4.247,4.256,4.255,0,0,3.861,62.6,11,AutoTakeoff,
36.6440254,-118.9467592,4806.5836685745,0.328084,0.447388,0.32966536488,3400,2018-04-13 18:19:56,15,0,25.476,4806.5836685745,0.328084,0.447388,0.32966536488,0,0,0,14.8, 1.9, 0.6,0,0,1024,1024,1024,1024,12.5,-89.9,97,4.211,4.247,4.256,4.255,0,0,3.861,62.6,11,AutoTakeoff,
36.6440256,-118.9467591,4806.9117525745,0.656168,0.447388,0.40133531468,3500,2018-04-13 18:19:56,15,0,25.476,4806.9117525745,0.656168,0.447388,0.40133531468,0,0,0,14.7, 2.4, 0.5,0,0,1024,1024,1024,1024,12.6,-89.9,97,4.211,4.247,4.256,4.255,0,0,3.861,62.6,11,AutoTakeoff,
36.6440257,-118.9467591,4806.9117525745,0.656168,0.223694,0.43781825548,3600,2018-04-13 18:19:56,15,0,25.476,4806.9117525745,0.656168,0.447388,0.43781825548,0,0,0,14.6, 2.4, 0.4,0,0,1024,1024,1024,1024,12.6,-89.9,97,4.211,4.247,4.256,4.255,0,0,3.861,62.6,11,AutoTakeoff,
36.6440258,-118.9467591,4807.2398365745,0.984252,0.223694,0.47430447712,3700,2018-04-13 18:19:56,15,0,25.476,4807.2398365745,0.984252,0.447388,0.47430447712,0,0,0,14.6, 2.2, 0.2,0,0,1024,1024,1024,1024,12.7,-89.9,97,4.211,4.247,4.256,4.255,0,0,3.861,62.6,11,AutoTakeoff,
36.6440259,-118.9467591,4807.2398365745,0.984252,0.223694,0.51079069876,3800,2018-04-13 18:19:57,15,0,25.476,4807.2398365745,0.984252,0.447388,0.51079069876,0,0,0,14.6, 1.6, 0,0,0,1024,1024,1024,1024,12.7,-89.9,97,4.211,4.247,4.256,4.255,0,0,3.861,62.6,11,AutoTakeoff,
36.644026,-118.946759,4807.5679205745,1.312336,0.223694,0.54805776032,3900,2018-04-13 18:19:57,15,0,25.476,4807.5679205745,1.312336,0.447388,0.54805776032,0,0,-0.223694,14.7, 1.2, 0,0,0,1024,1024,1024,1024,12.7,-89.9,97,4.211,4.247,4.256,4.255,0,0,3.861,62.6,11,AutoTakeoff,
36.6440261,-118.946759,4807.5679205745,1.312336,0.223694,0.58449148852,4000,2018-04-13 18:19:57,15,0,24.775,4807.5679205745,1.312336,0.447388,0.58449148852,0,0,0,14.7, 1.1, -0.1,0,0,1024,1024,1024,1024,12.8,-89.9,97,4.086,4.162,4.067,4.078,0,0,8.941,62.6,11,AutoTakeoff,
36.6440262,-118.946759,4807.8960045745,1.64042,0,0.62093505924,4100,2018-04-13 18:19:57,15,0,24.775,4807.8960045745,1.64042,0.447388,0.62093505924,0,0,0,14.8, 1.1, -0.2,0,0,1024,1024,1024,1024,12.8,-89.9,97,4.086,4.162,4.067,4.078,0,0,8.941,62.6,11,AutoTakeoff,
36.6440263,-118.9467589,4807.8960045745,1.64042,0.223694,0.6593340106,4200,2018-04-13 18:19:57,15,0,24.775,4807.8960045745,1.64042,0.447388,0.6593340106,0,0,-0.223694,14.8, 1.3, -0.2,0,0,1024,1024,1024,1024,12.9,-89.9,97,4.086,4.162,4.067,4.078,0,0,8.941,62.6,11,AutoTakeoff,
36.6440265,-118.9467588,4808.2240885745,1.968504,0.223694,0.73496393428,4300,2018-04-13 18:19:57,15,0,24.775,4808.2240885745,1.968504,0.447388,0.73496393428,0,0,-0.223694,14.8, 1.5, -0.3,0,0,1024,1024,1024,1024,12.9,-89.9,97,4.086,4.162,4.067,4.078,0,0,8.941,62.6,11,AutoTakeoff,
36.6440266,-118.9467588,4808.2240885745,1.968504,0,0.77120081208,4400,2018-04-13 18:19:57,15,0,24.775,4808.2240885745,1.968504,0.447388,0.77120081208,0,0,-0.223694,14.8, 1.7, -0.3,0,0,1024,1024,1024,1024,12.9,-89.9,97,4.086,4.162,4.067,4.078,0,0,8.941,62.6,11,AutoTakeoff,
36.6440267,-118.9467587,4808.5521725745,2.296588,0,0.81116472412,4500,2018-04-13 18:19:57,15,0,24.775,4808.5521725745,2.296588,0.447388,0.81116472412,0,0,-0.223694,14.8, 1.9, -0.2,0,0,1024,1024,1024,1024,13,-89.9,97,4.086,4.162,4.067,4.078,0,0,8.941,62.6,11,AutoTakeoff,
36.6440268,-118.9467587,4808.8802565745,2.624672,0,0.84728349168,4600,2018-04-13 18:19:57,16,0,24.775,4808.8802565745,2.624672,0.447388,0.84728349168,0,0,-0.223694,14.7, 2.1, -0.3,0,0,1024,1024,1024,1024,13,-89.9,97,4.086,4.162,4.067,4.078,0,0,8.941,62.6,11,AutoTakeoff,
36.644027,-118.9467587,4808.8802565745,2.624672,0,0.91960960948,4700,2018-04-13 18:19:57,16,0,24.775,4808.8802565745,2.624672,0.447388,0.91960960948,0,0,0,14.7, 2.4, -0.4,0,0,1024,1024,1024,1024,13,-89.9,97,4.086,4.162,4.067,4.078,0,0,8.941,62.6,11,AutoTakeoff,
36.644027,-118.9467586,4809.2083405745,2.952756,0,0.92379268048,4800,2018-04-13 18:19:58,16,0,24.775,4809.2083405745,2.952756,0.447388,0.92379268048,0,0,0,14.7, 2.6, -0.4,0,0,1024,1024,1024,1024,13.1,-89.9,97,4.086,4.162,4.067,4.078,0,0,8.941,62.6,6,P-GPS,
36.6440272,-118.9467585,4809.5364245745,3.28084,0,1.00062995328,4900,2018-04-13 18:19:58,15,0,24.775,4809.5364245745,3.28084,0.447388,1.00062995328,0,0,0,14.6, 2, -0.7,0,0,1024,1024,1024,1024,13.1,-89.9,97,4.086,4.162,4.067,4.078,0,0,8.941,62.6,14,Waypoint,
36.6440274,-118.9467585,4809.5364245745,3.28084,0,1.07254268524,5120,2018-04-13 18:19:58,15,0,24.775,4809.5364245745,3.28084,0.447388,1.07254268524,0,0,0,14.6, 1.5, -0.7,0,0,1024,1024,1024,1024,13.1,-90,97,4.086,4.162,4.067,4.078,0,0,8.941,62.6,14,Waypoint,
36.6440274,-118.9467583,4809.8645085745,3.608924,0,1.08367129452,5200,2018-04-13 18:19:58,16,0,24.775,4809.8645085745,3.608924,0.447388,1.08367129452,0,0,0,14.6, 1.3, -0.4,0,0,1024,1024,1024,1024,13.2,-90,97,4.086,4.162,4.067,4.078,0,0,8.941,62.6,14,Waypoint,
36.6440275,-118.9467583,4809.8645085745,3.608924,0,1.11932090196,5400,2018-04-13 18:19:58,16,0,24.775,4809.8645085745,3.608924,0.447388,1.11932090196,0,0,0,14.5, 1.3, -0.3,0,0,1024,1024,1024,1024,13.2,-90,97,4.086,4.162,4.067,4.078,0,0,8.941,62.6,14,Waypoint,
36.6440277,-118.9467583,4810.1925925745,3.937008,0,1.19077431632,5500,2018-04-13 18:19:58,16,0,24.775,4810.1925925745,3.937008,0.447388,1.19077431632,0,0,-0.223694,14.5, 1.2, -0.1,0,0,1024,1024,1024,1024,13.2,-90,97,4.086,4.162,4.067,4.078,0,0,8.941,62.6,14,Waypoint,
36.6440277,-118.9467583,4810.5206765745,4.265092,0,1.19077431632,5600,2018-04-13 18:19:58,16,0,24.775,4810.5206765745,4.265092,0.447388,1.19077431632,0,0,-0.223694,14.5, 1.3, 0,0,0,1024,1024,1024,1024,13.3,-90,97,4.086,4.162,4.067,4.078,0,0,8.941,62.6,14,Waypoint,
36.6440278,-118.9467583,4810.8487605745,4.593176,0,1.22656828072,5700,2018-04-13 18:19:58,16,0,24.775,4810.8487605745,4.593176,0.447388,1.22656828072,0,0,-0.223694,14.4, 1.4, 0,0,0,1024,1024,1024,1024,13.3,-89.9,97,4.086,4.162,4.067,4.078,0,0,8.941,62.6,14,Waypoint,
36.6440279,-118.9467582,4811.1768445745,4.92126,0,1.2681594894,5800,2018-04-13 18:19:59,16,0,24.775,4811.1768445745,4.92126,0.447388,1.2681594894,0,0,-0.223694,14.3, 1.7, 0,0,0,1024,1024,1024,1024,13.3,-89.9,97,4.086,4.162,4.067,4.078,0,0,8.941,62.6,14,Waypoint,
36.644028,-118.946758,4811.5049285745,5.249344,0,1.31694886104,5900,2018-04-13 18:19:59,16,0,24.775,4811.5049285745,5.249344,0.447388,1.31694886104,0,0,-0.447388,14.2, 1.8, -0.3,0,0,1024,1024,1024,1024,13.3,-89.9,97,4.086,4.162,4.067,4.078,0,0,8.941,62.6,14,Waypoint,
36.644028,-118.946758,4812.1610965745,5.905512,0,1.31694886104,6000,2018-04-13 18:19:59,16,0,23.727,4812.1610965745,5.905512,0.447388,1.31694886104,0,0,-0.447388,14.2, 1.9, -0.6,0,0,1024,1024,1024,1024,13.3,-89.9,97,3.886,3.885,3.954,3.954,0,0,18.523,62.6,14,Waypoint,
36.644028,-118.946758,4812.8172645745,6.56168,0,1.31694886104,6100,2018-04-13 18:19:59,16,0,23.727,4812.8172645745,6.56168,0.447388,1.31694886104,0,0,-0.447388,14.2, 2, -0.7,0,0,1024,1024,1024,1024,13.4,-89.9,97,3.886,3.885,3.954,3.954,0,0,18.523,62.6,14,Waypoint,
36.644028,-118.946758,4813.4734325745,7.217848,0,1.31694886104,6200,2018-04-13 18:19:59,16,0,23.727,4813.4734325745,7.217848,0.447388,1.31694886104,0,0,-0.447388,14.4, 2.1, -0.7,0,0,1024,1024,1024,1024,13.4,-89.9,97,3.886,3.885,3.954,3.954,0,0,18.523,62.6,14,Waypoint,
36.6440281,-118.946758,4814.1296005745,7.874016,0,1.35235568632,6300,2018-04-13 18:19:59,16,0,23.727,4814.1296005745,7.874016,0.447388,1.35235568632,0,0,-0.447388,14.6, 2.2, -0.8,0,0,1024,1024,1024,1024,13.4,-89.9,97,3.886,3.885,3.954,3.954,0,0,18.523,62.6,14,Waypoint,
36.6440281,-118.946758,4815.1138525745,8.858268,0,1.35235568632,6400,2018-04-13 18:19:59,15,0,23.727,4815.1138525745,8.858268,0.447388,1.35235568632,0,0,-0.671082,14.9, 2.2, -0.9,0,0,1024,1024,1024,1024,13.4,-89.9,97,3.886,3.885,3.954,3.954,0,0,18.523,62.6,14,Waypoint,
36.6440281,-118.9467581,4816.0981045745,9.84252,0,1.3456857386,6500,2018-04-13 18:19:59,15,0,23.727,4816.0981045745,9.84252,0.447388,1.35235568632,0,0,-0.671082,15.1, 2.2, -0.7,0,0,1024,1024,1024,1024,13.4,-89.9,97,3.886,3.885,3.954,3.954,0,0,18.523,62.6,14,Waypoint,
36.6440282,-118.9467581,4817.0823565745,10.826772,0,1.38131894184,6600,2018-04-13 18:19:59,16,0,23.727,4817.0823565745,10.826772,0.447388,1.38131894184,0,0,-0.671082,15.3, 2, -0.4,0,0,1024,1024,1024,1024,13.5,-89.9,97,3.886,3.885,3.954,3.954,0,0,18.523,62.6,14,Waypoint,
36.6440282,-118.9467581,4818.0666085745,11.811024,0,1.38131894184,6700,2018-04-13 18:19:59,16,0,23.727,4818.0666085745,11.811024,0.447388,1.38131894184,0,0,-0.671082,15.3, 2.1, -0.2,0,0,1024,1024,1024,1024,13.5,-89.9,97,3.886,3.885,3.954,3.954,0,0,18.523,62.6,14,Waypoint,
36.6440283,-118.9467583,4819.0508605745,12.795276,0,1.4060695988,6800,2018-04-13 18:20:00,16,0,23.727,4819.0508605745,12.795276,0.447388,1.4060695988,0,0,-0.671082,15.3, 2, 0,0,0,1024,1024,1024,1024,13.5,-89.9,97,3.886,3.885,3.954,3.954,0,0,18.523,62.6,14,Waypoint,
36.6440284,-118.9467586,4820.3631965745,14.107612,0,1.43041999328,6900,2018-04-13 18:20:00,16,0,23.727,4820.3631965745,14.107612,0.447388,1.43041999328,0,0,-0.671082,15.1, 2, 0.2,0,0,1024,1024,1024,1024,13.5,-89.9,97,3.886,3.885,3.954,3.954,0,0,18.523,62.6,14,Waypoint,
36.6440284,-118.9467586,4821.3474485745,15.091864,0,1.43041999328,7000,2018-04-13 18:20:00,16,0,22.848,4821.3474485745,15.091864,0.447388,1.43041999328,0,0,-0.671082,14.8, 2, 0.4,0,0,1024,1024,1024,1024,13.5,-89.9,97,3.886,3.885,3.954,3.954,0,0,23.706,62.6,14,Waypoint,
36.6440284,-118.9467586,4822.3317005745,16.076116,0,1.43041999328,7110,2018-04-13 18:20:00,16,0,22.848,4822.3317005745,16.076116,0.447388,1.43041999328,0,0,-0.671082,14.5, 2.1, 0.4,0,0,1024,1024,1024,1024,13.5,-89.9,97,3.886,3.885,3.954,3.954,0,0,23.706,62.6,14,Waypoint,
36.6440283,-118.9467584,4823.6440365745,17.388452,0,1.40148954616,7200,2018-04-13 18:20:00,15,0,22.848,4823.6440365745,17.388452,0.447388,1.43041999328,0,0,-0.671082,14.2, 2.2, 0.1,0,0,1024,1024,1024,1024,13.5,-89.9,97,3.886,3.885,3.954,3.954,0,0,23.706,62.6,14,Waypoint,
36.6440278,-118.9467577,4826.9248765745,20.669292,0.223694,1.27184387272,7410,2018-04-13 18:20:00,15,0,22.848,4826.9248765745,20.669292,0.447388,1.43041999328,0,0,-0.671082,14.2, 0.8, -2.2,0,0,1024,1024,1024,1024,13.6,-90,97,3.886,3.885,3.954,3.954,0,0,23.706,62.6,14,Waypoint,
36.6440278,-118.9467575,4828.2372125745,21.981628,0,1.29189964764,7600,2018-04-13 18:20:00,15,0,22.848,4828.2372125745,21.981628,0.447388,1.43041999328,0,0,-0.671082,14.3, 0.5, -2.4,0,0,1024,1024,1024,1024,13.6,-90,97,3.886,3.885,3.954,3.954,0,0,23.706,62.6,14,Waypoint,
36.6440277,-118.9467574,4829.2214645745,22.96588,0,1.26915686476,7700,2018-04-13 18:20:00,15,0,22.848,4829.2214645745,22.96588,0.447388,1.43041999328,0,0,-0.671082,14.4, 0.7, -2.5,0,0,1024,1024,1024,1024,13.6,-90,97,3.886,3.885,3.954,3.954,0,0,23.706,62.6,14,Waypoint,
36.6440277,-118.9467571,4830.2057165745,23.950132,0,1.30609584232,7800,2018-04-13 18:20:01,15,0,22.848,4830.2057165745,23.950132,0.447388,1.43041999328,0,0,-0.671082,14.4, 1.1, -2.1,0,0,1024,1024,1024,1024,13.6,-89.9,97,3.886,3.885,3.954,3.954,0,0,23.706,62.6,14,Waypoint,
36.6440276,-118.9467569,4831.5180525745,25.262468,0,1.3015420364,7900,2018-04-13 18:20:01,15,0,22.848,4831.5180525745,25.262468,0.447388,1.43041999328,0,0,-0.671082,14.5, 1.5, -2.2,0,0,1024,1024,1024,1024,13.6,-89.9,97,3.886,3.885,3.954,3.954,0,0,23.706,62.6,14,Waypoint,
36.6440276,-118.9467567,4832.5023045745,26.24672,0,1.33148298224,8000,2018-04-13 18:20:01,16,0,23.141,4832.5023045745,26.24672,0.447388,1.43041999328,0,0,-0.671082,14.6, 1.6, -2.5,0,0,1024,1024,1024,1024,13.7,-89.9,97,3.774,3.848,3.832,3.796,0,0,19.599,64.4,14,Waypoint,
36.6440276,-118.9467564,4833.4865565745,27.230972,0,1.37984256384,8100,2018-04-13 18:20:01,16,0,23.141,4833.4865565745,27.230972,0.447388,1.43041999328,0,0,-0.671082,14.6, 1.7, -2.8,0,0,1024,1024,1024,1024,13.7,-89.9,97,3.774,3.848,3.832,3.796,0,0,19.599,64.4,14,Waypoint,
36.6440276,-118.9467563,4834.7988925745,28.543308,0,1.39681763,8200,2018-04-13 18:20:01,16,0,23.141,4834.7988925745,28.543308,0.447388,1.43041999328,0,0,-0.671082,14.7, 1.8, -2.9,0,0,1024,1024,1024,1024,13.7,-89.9,97,3.774,3.848,3.832,3.796,0,0,19.599,64.4,14,Waypoint,
36.6440276,-118.9467561,4835.7831445745,29.52756,0,1.43195870724,8300,2018-04-13 18:20:01,16,0,23.141,4835.7831445745,29.52756,0.447388,1.43195870724,0,0,-0.671082,14.7, 1.8, -3.1,0,0,1024,1024,1024,1024,13.7,-89.9,97,3.774,3.848,3.832,3.796,0,0,19.599,64.4,14,Waypoint,
36.6440276,-118.9467559,4836.7673965745,30.511812,0,1.46859584752,8400,2018-04-13 18:20:01,15,0,23.141,4836.7673965745,30.511812,0.447388,1.46859584752,0,0,-0.671082,14.7, 1.7, -3.1,0,0,1024,1024,1024,1024,13.7,-89.9,97,3.774,3.848,3.832,3.796,0,0,19.599,64.4,14,Waypoint,
36.6440277,-118.9467557,4837.7516485745,31.496064,0,1.53419624332,8500,2018-04-13 18:20:01,15,0,23.141,4837.7516485745,31.496064,0.447388,1.53419624332,0,0,-0.671082,14.7, 1.8, -3.2,0,0,1024,1024,1024,1024,13.7,-89.9,97,3.774,3.848,3.832,3.796,0,0,19.599,64.4,14,Waypoint,
36.6440277,-118.9467555,4839.0639845745,32.8084,0,1.57280844928,8600,2018-04-13 18:20:01,17,0,23.141,4839.0639845745,32.8084,0.447388,1.57280844928,0,0,-0.671082,14.7, 1.7, -3.4,0,0,1024,1024,1024,1024,13.7,-89.9,97,3.774,3.848,3.832,3.796,0,0,19.599,64.4,14,Waypoint,
36.6440276,-118.9467554,4840.0482365745,33.792652,0,1.56602367216,8700,2018-04-13 18:20:01,17,0,23.141,4840.0482365745,33.792652,0.447388,1.57280844928,0,0,-0.671082,14.8, 1.7, -3.2,0,0,1024,1024,1024,1024,13.7,-89.9,97,3.774,3.848,3.832,3.796,0,0,19.599,64.4,14,Waypoint,
36.6440277,-118.9467553,4841.0324885745,34.776904,0,1.61262472352,8800,2018-04-13 18:20:02,17,0,23.141,4841.0324885745,34.776904,0.447388,1.61262472352,0,0,-0.671082,14.7, 1.9, -3.2,0,0,1024,1024,1024,1024,13.7,-89.9,97,3.774,3.848,3.832,3.796,0,0,19.599,64.4,14,Waypoint,
36.6440277,-118.9467552,4842.0167405745,35.761156,0,1.632956089,8900,2018-04-13 18:20:02,17,0,23.141,4842.0167405745,35.761156,0.447388,1.632956089,0,0,-0.671082,14.6, 2.2, -3.2,0,0,1024,1024,1024,1024,13.7,-89.9,97,3.774,3.848,3.832,3.796,0,0,19.599,64.4,14,Waypoint,
36.6440277,-118.9467551,4843.0009925745,36.745408,0,1.65355648336,9000,2018-04-13 18:20:02,17,0,23.141,4843.0009925745,36.745408,0.447388,1.65355648336,0,0,-0.671082,14.5, 2.3, -3.5,0,0,1024,1024,1024,1024,13.7,-89.9,97,3.828,3.889,3.867,3.865,0,0,19.599,64.4,14,Waypoint,
36.6440277,-118.946755,4843.9852445745,37.72966,0,1.67441278324,9110,2018-04-13 18:20:02,17,0,23.141,4843.9852445745,37.72966,0.447388,1.67441278324,0,0,-0.671082,14.4, 2.3, -3.6,0,0,1024,1024,1024,1024,13.7,-89.9,97,3.828,3.889,3.867,3.865,0,0,19.599,64.4,14,Waypoint,
36.6440277,-118.9467549,4844.9694965745,38.713912,0,1.6955217078,9200,2018-04-13 18:20:02,17,0,23.141,4844.9694965745,38.713912,0.447388,1.6955217078,0,0,-0.671082,14.3, 2.2, -3.6,0,0,1024,1024,1024,1024,13.7,-89.9,97,3.828,3.889,3.867,3.865,0,0,19.599,64.4,14,Waypoint,
36.6440278,-118.9467549,4845.9537485745,39.698164,0,1.72084651176,9300,2018-04-13 18:20:02,17,0,23.141,4845.9537485745,39.698164,0.447388,1.72084651176,0,0,-0.671082,14.4, 2.1, -3.3,0,0,1024,1024,1024,1024,13.7,-89.9,97,3.828,3.889,3.867,3.865,0,0,19.599,64.4,14,Waypoint,
36.6440277,-118.9467549,4846.9380005745,40.682416,0,1.6955217078,9410,2018-04-13 18:20:02,17,0,23.141,4846.9380005745,40.682416,0.447388,1.72084651176,0,0,-0.671082,14.5, 2, -3,0,0,1024,1024,1024,1024,13.7,-89.9,97,3.828,3.889,3.867,3.865,0,0,19.599,64.4,14,Waypoint,
36.6440277,-118.9467549,4847.9222525745,41.666668,0,1.6955217078,9500,2018-04-13 18:20:02,17,0,23.141,4847.9222525745,41.666668,0.447388,1.72084651176,0,0,-0.671082,14.5, 1.8, -2.9,0,0,1024,1024,1024,1024,13.7,-89.9,97,3.828,3.889,3.867,3.865,0,0,19.599,64.4,14,Waypoint,
36.6440277,-118.946755,4848.9065045745,42.65092,0.223694,1.67441278324,9610,2018-04-13 18:20:02,17,0,23.141,4848.9065045745,42.65092,0.447388,1.72084651176,0,0,-0.671082,14.6, 1.6, -2.8,0,0,1024,1024,1024,1024,13.7,-89.9,97,3.828,3.889,3.867,3.865,0,0,19.599,64.4,14,Waypoint,
36.6440276,-118.946755,4849.8907565745,43.635172,0.223694,1.64918312364,9800,2018-04-13 18:20:03,17,0,23.141,4849.8907565745,43.635172,0.447388,1.72084651176,0,0,-0.671082,14.6, 1.4, -2.6,0,0,1024,1024,1024,1024,13.7,-89.9,97,3.828,3.889,3.867,3.865,0,0,19.599,64.4,14,Waypoint,
36.6440277,-118.9467552,4851.8592605745,45.603676,0.223694,1.632956089,9900,2018-04-13 18:20:03,17,0,23.141,4851.8592605745,45.603676,0.447388,1.72084651176,0,0,-0.671082,14.7, 1.3, -2.1,0,0,1024,1024,1024,1024,13.7,-90,97,3.828,3.889,3.867,3.865,0,0,19.599,64.4,14,Waypoint,
36.6440276,-118.9467554,4853.8277645745,47.57218,0.223694,1.56602367216,10020,2018-04-13 18:20:03,17,0,23.202,4853.8277645745,47.57218,0.447388,1.72084651176,0,0,-0.671082,14.8, 1.2, -2.1,0,0,1024,1024,1024,1024,13.7,-89.9,97,3.831,3.889,3.866,3.867,0,0,18.901,64.4,14,Waypoint,
36.6440276,-118.9467555,4854.8120165745,48.556432,0.223694,1.54591868464,10110,2018-04-13 18:20:03,17,0,23.202,4854.8120165745,48.556432,0.447388,1.72084651176,0,0,-0.671082,14.8, 1.2, -2.1,0,0,1024,1024,1024,1024,13.7,-89.9,97,3.831,3.889,3.866,3.867,0,0,18.901,64.4,14,Waypoint,
36.6440276,-118.9467555,4855.7962685745,49.540684,0.223694,1.54591868464,10300,2018-04-13 18:20:03,17,0,23.202,4855.7962685745,49.540684,0.447388,1.72084651176,0,0,-0.671082,14.9, 1.3, -2.2,0,0,1024,1024,1024,1024,13.7,-89.9,97,3.831,3.889,3.866,3.867,0,0,18.901,64.4,14,Waypoint,
36.6440275,-118.9467556,4856.4524365745,50.196852,0.223694,1.49927498236,10400,2018-04-13 18:20:03,17,0,23.202,4856.4524365745,50.196852,0.447388,1.72084651176,0,0,-0.671082,14.9, 1.3, -1.9,0,0,1024,1024,1024,1024,13.7,-89.9,97,3.831,3.889,3.866,3.867,0,0,18.901,64.4,14,Waypoint,
36.6440275,-118.9467557,4857.4366885745,51.181104,0,1.47942261952,10500,2018-04-13 18:20:03,17,0,23.202,4857.4366885745,51.181104,0.447388,1.72084651176,0,0,-0.671082,14.9, 1.4, -1.9,0,0,1024,1024,1024,1024,13.7,-89.9,97,3.831,3.889,3.866,3.867,0,0,18.901,64.4,14,Waypoint,
36.6440275,-118.9467559,4858.4209405745,52.165356,0,1.44068574164,10600,2018-04-13 18:20:03,17,0,23.202,4858.4209405745,52.165356,0.447388,1.72084651176,0,0,-0.671082,14.8, 1.6, -1.8,0,0,1024,1024,1024,1024,13.7,-89.9,97,3.831,3.889,3.866,3.867,0,0,18.901,64.4,14,Waypoint,
36.6440274,-118.9467561,4859.4051925745,53.149608,0,1.37505253744,10700,2018-04-13 18:20:03,17,0,23.202,4859.4051925745,53.149608,0.447388,1.72084651176,0,0,-0.671082,14.7, 1.6, -1.8,0,0,1024,1024,1024,1024,13.7,-89.9,97,3.831,3.889,3.866,3.867,0,0,18.901,64.4,14,Waypoint,
36.6440274,-118.9467565,4860.7175285745,54.461944,0.223694,1.30338258764,10800,2018-04-13 18:20:04,17,0,23.202,4860.7175285745,54.461944,0.447388,1.72084651176,0,0,-0.671082,14.5, 1.6, -1.9,0,0,1024,1024,1024,1024,13.7,-89.9,97,3.831,3.889,3.866,3.867,0,0,18.901,64.4,14,Waypoint,
36.6440274,-118.9467569,4861.7017805745,55.446196,0.223694,1.23865817612,10900,2018-04-13 18:20:04,17,0,23.202,4861.7017805745,55.446196,0.447388,1.72084651176,0,0,-0.671082,14.5, 1.3, -1.6,0,0,1024,1024,1024,1024,13.7,-89.9,97,3.831,3.889,3.866,3.867,0,0,18.901,64.4,14,Waypoint,
36.6440276,-118.9467574,4862.6860325745,56.430448,0.223694,1.2356791734,11000,2018-04-13 18:20:04,17,0,23.06,4862.6860325745,56.430448,0.447388,1.72084651176,0,0,-0.671082,14.5, 1.3, -1.1,0,0,1024,1024,1024,1024,13.7,-89.9,97,3.791,3.855,3.83,3.828,0,0,19.571,64.4,14,Waypoint,
36.6440278,-118.9467579,4863.6702845745,57.4147,0.223694,1.25420279604,11100,2018-04-13 18:20:04,17,0,23.06,4863.6702845745,57.4147,0.447388,1.72084651176,0,0,-0.671082,14.6, 1.4, -0.3,0,0,1024,1024,1024,1024,13.7,-89.9,97,3.791,3.855,3.83,3.828,0,0,19.571,64.4,14,Waypoint,
36.6440279,-118.946758,4864.6545365745,58.398952,0.223694,1.28160109088,11200,2018-04-13 18:20:04,17,0,23.06,4864.6545365745,58.398952,0.447388,1.72084651176,0,0,-0.671082,14.6, 1.8, 0.3,0,0,1024,1024,1024,1024,13.7,-89.9,97,3.791,3.855,3.83,3.828,0,0,19.571,64.4,14,Waypoint,
36.644028,-118.9467581,4865.9668725745,59.711288,0,1.31009846712,11300,2018-04-13 18:20:04,17,0,23.06,4865.9668725745,59.711288,0.447388,1.72084651176,0,0,-0.671082,14.6, 2.1, 0.3,0,0,1024,1024,1024,1024,13.7,-89.9,97,3.791,3.855,3.83,3.828,0,0,19.571,64.4,14,Waypoint,
36.644028,-118.946758,4866.9511245745,60.69554,0,1.31694886104,11400,2018-04-13 18:20:04,17,0,23.06,4866.9511245745,60.69554,0.447388,1.72084651176,0,0,-0.671082,14.5, 2.2, 0,0,0,1024,1024,1024,1024,13.7,-89.9,97,3.791,3.855,3.83,3.828,0,0,19.571,64.4,14,Waypoint,
36.644028,-118.9467578,4867.9353765745,61.679792,0,1.33247379592,11500,2018-04-13 18:20:04,17,0,23.06,4867.9353765745,61.679792,0.447388,1.72084651176,0,0,-0.671082,14.4, 2, -1.2,0,0,1024,1024,1024,1024,13.7,-89.9,97,3.791,3.855,3.83,3.828,0,0,19.571,64.4,14,Waypoint,
36.6440279,-118.9467574,4868.9196285745,62.664044,0.223694,1.33659125012,11600,2018-04-13 18:20:04,17,0,23.06,4868.9196285745,62.664044,0.447388,1.72084651176,0,0,-0.671082,14.4, 1.9, -2.7,0,0,1024,1024,1024,1024,13.7,-90,97,3.791,3.855,3.83,3.828,0,0,19.571,64.4,14,Waypoint,
36.6440277,-118.946757,4869.9038805745,63.648296,0.3131716,1.31947838868,11700,2018-04-13 18:20:04,17,0,23.06,4869.9038805745,63.648296,0.447388,1.72084651176,0,0,-0.671082,14.4, 1.6, -4.2,0,0,1024,1024,1024,1024,13.7,-90,97,3.791,3.855,3.83,3.828,0,0,19.571,64.4,14,Waypoint,
36.6440276,-118.9467566,4870.8881325745,64.632548,0.3131716,1.34715883576,11800,2018-04-13 18:20:05,17,0,23.06,4870.8881325745,64.632548,0.447388,1.72084651176,0,0,-0.671082,14.4, 1.1, -5,0,0,1024,1024,1024,1024,13.7,-90,97,3.791,3.855,3.83,3.828,0,0,19.571,64.4,14,Waypoint,
36.6440274,-118.9467563,4871.5443005745,65.288716,0.3131716,1.338418678,11900,2018-04-13 18:20:05,17,0,23.06,4871.5443005745,65.288716,0.447388,1.72084651176,0,0,-0.671082,14.6, 0.7, -5.1,0,0,1024,1024,1024,1024,13.7,-90,97,3.791,3.855,3.83,3.828,0,0,19.571,64.4,14,Waypoint,
36.6440273,-118.9467561,4872.5285525745,66.272968,0.223694,1.3471785208,12000,2018-04-13 18:20:05,17,0,22.944,4872.5285525745,66.272968,0.447388,1.72084651176,0,0,-0.671082,14.7, 0.4, -5,0,0,1024,1024,1024,1024,13.7,-90,97,3.785,3.845,3.824,3.822,0,0,20.936,64.4,14,Waypoint,
36.6440272,-118.946756,4873.5128045745,67.25722,0,1.3393865258,12100,2018-04-13 18:20:05,17,0,22.944,4873.5128045745,67.25722,0.447388,1.72084651176,0,0,-0.671082,14.8, 0, -4.7,0,0,1024,1024,1024,1024,13.7,-90,97,3.785,3.845,3.824,3.822,0,0,20.936,64.4,14,Waypoint,
36.6440271,-118.9467559,4874.4970565745,68.241472,0,1.33318901904,12210,2018-04-13 18:20:05,16,0,22.944,4874.4970565745,68.241472,0.447388,1.72084651176,0,0,-0.671082,14.8, 0, -4.3,0,0,1024,1024,1024,1024,13.7,-90,97,3.785,3.845,3.824,3.822,0,0,20.936,64.4,14,Waypoint,
36.6440271,-118.9467558,4875.1532245745,68.89764,0,1.353920647,12400,2018-04-13 18:20:05,16,0,22.944,4875.1532245745,68.89764,0.447388,1.72084651176,0,0,-0.671082,14.8, 0.2, -4,0,0,1024,1024,1024,1024,13.7,-89.9,97,3.785,3.845,3.824,3.822,0,0,20.936,64.4,14,Waypoint,
36.6440271,-118.9467559,4877.1217285745,70.866144,0,1.33318901904,12500,2018-04-13 18:20:05,17,0,22.944,4877.1217285745,70.866144,0.447388,1.72084651176,0,0,-0.671082,14.7, 0.6, -3,0,0,1024,1024,1024,1024,13.7,-89.9,97,3.785,3.845,3.824,3.822,0,0,20.936,64.4,14,Waypoint,
36.644027,-118.9467558,4877.7778965745,71.522312,0,1.32861224724,12600,2018-04-13 18:20:05,17,0,22.944,4877.7778965745,71.522312,0.447388,1.72084651176,0,0,-0.671082,14.8, 0.9, -2.6,0,0,1024,1024,1024,1024,13.7,-89.9,97,3.785,3.845,3.824,3.822,0,0,20.936,64.4,14,Waypoint,
36.644027,-118.9467558,4878.7621485745,72.506564,0,1.32861224724,12700,2018-04-13 18:20:05,17,0,22.944,4878.7621485745,72.506564,0.447388,1.72084651176,0,0,-0.671082,14.9, 1, -2.4,0,0,1024,1024,1024,1024,13.7,-89.9,97,3.785,3.845,3.824,3.822,0,0,20.936,64.4,14,Waypoint,
36.644027,-118.9467558,4879.7464005745,73.490816,0,1.32861224724,12800,2018-04-13 18:20:06,17,0,22.944,4879.7464005745,73.490816,0.447388,1.72084651176,0,0,-0.671082,14.9, 1.1, -2.6,0,0,1024,1024,1024,1024,13.7,-89.9,97,3.785,3.845,3.824,3.822,0,0,20.936,64.4,14,Waypoint,
36.644027,-118.9467558,4880.7306525745,74.475068,0,1.32861224724,12900,2018-04-13 18:20:06,17,0,22.944,4880.7306525745,74.475068,0.447388,1.72084651176,0,0,-0.671082,14.9, 1.1, -2.8,0,0,1024,1024,1024,1024,13.7,-89.9,97,3.785,3.845,3.824,3.822,0,0,20.936,64.4,14,Waypoint,
36.644027,-118.9467557,4881.7149045745,75.45932,0,1.35004597496,13000,2018-04-13 18:20:06,17,0,23.006,4881.7149045745,75.45932,0.447388,1.72084651176,0,0,-0.671082,14.9, 1, -3.1,0,0,1024,1024,1024,1024,13.7,-89.9,97,3.793,3.848,3.833,3.831,0,0,19.746,64.4,14,Waypoint,
36.644027,-118.9467557,4882.6991565745,76.443572,0,1.35004597496,13100,2018-04-13 18:20:06,17,0,23.006,4882.6991565745,76.443572,0.447388,1.72084651176,0,0,-0.671082,14.9, 0.9, -3.4,0,0,1024,1024,1024,1024,13.7,-90,97,3.793,3.848,3.833,3.831,0,0,19.746,64.4,14,Waypoint,
36.644027,-118.9467556,4884.0114925745,77.755908,0,1.37177169744,13200,2018-04-13 18:20:06,17,0,23.006,4884.0114925745,77.755908,0.447388,1.72084651176,0,0,-0.671082,14.8, 0.8, -3.5,0,0,1024,1024,1024,1024,13.7,-89.9,97,3.793,3.848,3.833,3.831,0,0,19.746,64.4,14,Waypoint,
36.644027,-118.9467556,4884.9957445745,78.74016,0,1.37177169744,13300,2018-04-13 18:20:06,17,0,23.006,4884.9957445745,78.74016,0.447388,1.72084651176,0,0,-0.671082,14.7, 0.8, -3.2,0,0,1024,1024,1024,1024,13.7,-90,97,3.793,3.848,3.833,3.831,0,0,19.746,64.4,14,Waypoint,
36.644027,-118.9467556,4885.9799965745,79.724412,0,1.37177169744,13400,2018-04-13 18:20:06,17,0,23.006,4885.9799965745,79.724412,0.447388,1.72084651176,0,0,-0.671082,14.5, 0.7, -3.2,0,0,1024,1024,1024,1024,13.7,-89.9,97,3.793,3.848,3.833,3.831,0,0,19.746,64.4,14,Waypoint,
36.644027,-118.9467556,4886.9642485745,80.708664,0,1.37177169744,13500,2018-04-13 18:20:06,17,0,23.006,4886.9642485745,80.708664,0.447388,1.72084651176,0,0,-0.671082,14.4, 1, -3.1,0,0,1024,1024,1024,1024,13.7,-89.9,97,3.793,3.848,3.833,3.831,0,0,19.746,64.4,14,Waypoint,
36.644027,-118.9467556,4887.6204165745,81.364832,0,1.37177169744,13600,2018-04-13 18:20:06,17,0,23.006,4887.6204165745,81.364832,0.447388,1.72084651176,0,0,-0.671082,14.4, 1.4, -3.1,0,0,1024,1024,1024,1024,13.7,-89.9,97,3.793,3.848,3.833,3.831,0,0,19.746,64.4,14,Waypoint,
36.6440271,-118.9467556,4888.6046685745,82.349084,0,1.39629597644,13700,2018-04-13 18:20:06,17,0,23.006,4888.6046685745,82.349084,0.447388,1.72084651176,0,0,-0.671082,14.5, 1.5, -3,0,0,1024,1024,1024,1024,13.7,-89.9,97,3.793,3.848,3.833,3.831,0,0,19.746,64.4,14,Waypoint,
36.6440272,-118.9467556,4889.5889205745,83.333336,0,1.42133534732,13800,2018-04-13 18:20:07,17,0,23.006,4889.5889205745,83.333336,0.447388,1.72084651176,0,0,-0.671082,14.5, 1.6, -2.8,0,0,1024,1024,1024,1024,13.7,-89.9,97,3.793,3.848,3.833,3.831,0,0,19.746,64.4,14,Waypoint,
36.6440272,-118.9467556,4890.5731725745,84.317588,0,1.42133534732,13900,2018-04-13 18:20:07,17,0,23.006,4890.5731725745,84.317588,0.447388,1.72084651176,0,0,-0.671082,14.5, 1.8, -2.6,0,0,1024,1024,1024,1024,13.7,-89.9,97,3.793,3.848,3.833,3.831,0,0,19.746,64.4,14,Waypoint,
36.6440273,-118.9467555,4891.5574245745,85.30184,0,1.46773626744,14000,2018-04-13 18:20:07,17,0,22.771,4891.5574245745,85.30184,0.447388,1.72084651176,0,0,-0.671082,14.4, 1.9, -2.6,0,0,1024,1024,1024,1024,13.7,-89.9,97,3.793,3.848,3.833,3.831,0,0,21.397,64.4,14,Waypoint,
36.6440273,-118.9467555,4892.5416765745,86.286092,0,1.46773626744,14100,2018-04-13 18:20:07,17,0,22.771,4892.5416765745,86.286092,0.447388,1.72084651176,0,0,-0.671082,14.4, 2, -3,0,0,1024,1024,1024,1024,13.7,-89.9,97,3.793,3.848,3.833,3.831,0,0,21.397,64.4,14,Waypoint,
36.6440274,-118.9467555,4893.5259285745,87.270344,0,1.49336290868,14200,2018-04-13 18:20:07,17,0,22.771,4893.5259285745,87.270344,0.447388,1.72084651176,0,0,-0.671082,14.4, 1.9, -3.4,0,0,1024,1024,1024,1024,13.7,-89.9,97,3.793,3.848,3.833,3.831,0,0,21.397,64.4,14,Waypoint,
36.6440274,-118.9467554,4894.5101805745,88.254596,0,1.51416343428,14300,2018-04-13 18:20:07,17,0,22.771,4894.5101805745,88.254596,0.447388,1.72084651176,0,0,-0.671082,14.4, 1.8, -3.6,0,0,1024,1024,1024,1024,13.7,-89.9,97,3.793,3.848,3.833,3.831,0,0,21.397,64.4,14,Waypoint,
36.6440274,-118.9467554,4895.1663485745,88.910764,0,1.51416343428,14400,2018-04-13 18:20:07,17,0,22.771,4895.1663485745,88.910764,0.447388,1.72084651176,0,0,-0.671082,14.5, 1.9, -3.8,0,0,1024,1024,1024,1024,13.7,-89.9,97,3.793,3.848,3.833,3.831,0,0,21.397,64.4,14,Waypoint,
36.6440274,-118.9467554,4896.1506005745,89.895016,0,1.51416343428,14500,2018-04-13 18:20:07,17,0,22.771,4896.1506005745,89.895016,0.447388,1.72084651176,0,0,-0.671082,14.6, 2, -3.8,0,0,1024,1024,1024,1024,13.7,-89.9,97,3.793,3.848,3.833,3.831,0,0,21.397,64.4,14,Waypoint,
36.6440275,-118.9467555,4897.1348525745,90.879268,0,1.51942918248,14600,2018-04-13 18:20:07,17,0,22.771,4897.1348525745,90.879268,0.447388,1.72084651176,0,0,-0.671082,14.7, 2.1, -3.6,0,0,1024,1024,1024,1024,13.7,-89.9,97,3.793,3.848,3.833,3.831,0,0,21.397,64.4,14,Waypoint,
36.6440275,-118.9467556,4898.1191045745,91.86352,0,1.49927498236,14710,2018-04-13 18:20:07,17,0,22.771,4898.1191045745,91.86352,0.447388,1.72084651176,0,0,-0.671082,14.7, 2.1, -3.3,0,0,1024,1024,1024,1024,13.7,-89.9,97,3.793,3.848,3.833,3.831,0,0,21.397,64.4,14,Waypoint,
36.6440276,-118.9467557,4899.1033565745,92.847772,0,1.50661750228,14800,2018-04-13 18:20:08,17,0,22.771,4899.1033565745,92.847772,0.447388,1.72084651176,0,0,-0.671082,14.6, 2.2, -3.2,0,0,1024,1024,1024,1024,13.7,-89.9,97,3.793,3.848,3.833,3.831,0,0,21.397,64.4,14,Waypoint,
36.6440277,-118.9467558,4900.0876085745,93.832024,0,1.51536750256,14900,2018-04-13 18:20:08,17,0,22.771,4900.0876085745,93.832024,0.447388,1.72084651176,0,0,-0.671082,14.5, 2, -3.1,0,0,1024,1024,1024,1024,13.7,-89.9,97,3.793,3.848,3.833,3.831,0,0,21.397,64.4,14,Waypoint,
36.6440278,-118.9467561,4902.0561125745,95.800528,0.223694,1.49026579572,15030,2018-04-13 18:20:08,17,0,22.876,4902.0561125745,95.800528,0.447388,1.72084651176,0,0,-0.671082,14.4, 2.1, -2.3,0,0,1024,1024,1024,1024,13.7,-89.9,96,3.793,3.848,3.833,3.831,0,0,19.9,64.4,14,Waypoint,
36.6440279,-118.9467562,4903.0403645745,96.78478,0.223694,1.50316933944,15100,2018-04-13 18:20:08,17,0,22.876,4903.0403645745,96.78478,0.447388,1.72084651176,0,0,-0.671082,14.6, 2.4, -1.8,0,0,1024,1024,1024,1024,13.7,-89.9,96,3.793,3.848,3.833,3.831,0,0,19.9,64.4,14,Waypoint,
36.644028,-118.9467564,4904.0246165745,97.769032,0.223694,1.50179466748,15300,2018-04-13 18:20:08,17,0,22.876,4904.0246165745,97.769032,0.447388,1.72084651176,0,0,-0.671082,14.7, 2.5, -1.5,0,0,1024,1024,1024,1024,13.7,-89.9,96,3.793,3.848,3.833,3.831,0,0,19.9,64.4,14,Waypoint,
36.6440281,-118.9467565,4905.0088685745,98.753284,0.223694,1.51805122968,15400,2018-04-13 18:20:08,17,0,22.876,4905.0088685745,98.753284,0.447388,1.72084651176,0,0,-0.671082,14.8, 2.5, -1.6,0,0,1024,1024,1024,1024,13.7,-89.9,96,3.793,3.848,3.833,3.831,0,0,19.9,64.4,14,Waypoint,
36.6440282,-118.9467567,4906.3212045745,100.06562,0.223694,1.52182747652,15500,2018-04-13 18:20:08,17,0,22.876,4906.3212045745,100.06562,0.447388,1.72084651176,0,0,-0.671082,14.8, 2.6, -1.7,0,0,1024,1024,1024,1024,13.7,-89.9,96,3.793,3.848,3.833,3.831,0,0,19.9,64.4,14,Waypoint,
36.6440283,-118.9467568,4907.3054565745,101.049872,0.223694,1.5412730152,15600,2018-04-13 18:20:08,17,0,22.876,4907.3054565745,101.049872,0.447388,1.72084651176,0,0,-0.671082,14.8, 2.6, -1.5,0,0,1024,1024,1024,1024,13.7,-89.9,96,3.793,3.848,3.833,3.831,0,0,19.9,64.4,14,Waypoint,
36.6440283,-118.9467569,4908.2897085745,102.034124,0,1.52871067884,15700,2018-04-13 18:20:08,17,0,22.876,4908.2897085745,102.034124,0.447388,1.72084651176,0,0,-0.671082,14.7, 2.6, -1.1,0,0,1024,1024,1024,1024,13.7,-89.9,96,3.793,3.848,3.833,3.831,0,0,19.9,64.4,14,Waypoint,
36.6440284,-118.946757,4909.2739605745,103.018376,0,1.550032858,15800,2018-04-13 18:20:09,17,0,22.876,4909.2739605745,103.018376,0.447388,1.72084651176,0,0,-0.671082,14.7, 2.5, -1.5,0,0,1024,1024,1024,1024,13.7,-89.9,96,3.793,3.848,3.833,3.831,0,0,19.9,64.4,14,Waypoint,
36.6440284,-118.9467571,4910.2582125745,104.002628,0,1.53865818572,15900,2018-04-13 18:20:09,17,0,22.876,4910.2582125745,104.002628,0.447388,1.72084651176,0,0,-0.671082,14.6, 2.5, -1.9,0,0,1024,1024,1024,1024,13.7,-89.9,96,3.793,3.848,3.833,3.831,0,0,19.9,64.4,14,Waypoint,
36.6440285,-118.9467571,4911.5705485745,105.314964,0,1.57246068024,16000,2018-04-13 18:20:09,17,0,22.807,4911.5705485745,105.314964,0.447388,1.72084651176,0,0,-0.671082,14.6, 2.5, -2,0,0,1024,1024,1024,1024,13.7,-89.9,96,3.776,3.834,3.822,3.814,0,0,20.494,64.4,14,Waypoint,
36.6440285,-118.9467572,4912.5548005745,106.299216,0,1.5617946694,16100,2018-04-13 18:20:09,17,0,22.807,4912.5548005745,106.299216,0.447388,1.72084651176,0,0,-0.671082,14.7, 2.5, -1.8,0,0,1024,1024,1024,1024,13.7,-89.9,96,3.776,3.834,3.822,3.814,0,0,20.494,64.4,14,Waypoint,
36.6440285,-118.9467573,4913.5390525745,107.283468,0,1.55161094204,16200,2018-04-13 18:20:09,17,0,22.807,4913.5390525745,107.283468,0.447388,1.72084651176,0,0,-0.671082,14.6, 2.4, -1.8,0,0,1024,1024,1024,1024,13.7,-89.9,96,3.776,3.834,3.822,3.814,0,0,20.494,64.4,14,Waypoint,
36.6440286,-118.9467573,4914.5233045745,108.26772,0,1.58597774104,16300,2018-04-13 18:20:09,17,0,22.807,4914.5233045745,108.26772,0.447388,1.72084651176,0,0,-0.671082,14.6, 2.4, -2,0,0,1024,1024,1024,1024,13.7,-89.9,96,3.776,3.834,3.822,3.814,0,0,20.494,64.4,14,Waypoint,
36.6440286,-118.9467574,4915.5075565745,109.251972,0,1.5764928326,16400,2018-04-13 18:20:09,17,0,22.807,4915.5075565745,109.251972,0.447388,1.72084651176,0,0,-0.671082,14.5, 2.3, -2,0,0,1024,1024,1024,1024,13.7,-89.9,96,3.776,3.834,3.822,3.814,0,0,20.494,64.4,14,Waypoint,
36.6440286,-118.9467575,4916.4918085745,110.236224,0,1.56749676932,16500,2018-04-13 18:20:09,17,0,22.807,4916.4918085745,110.236224,0.447388,1.72084651176,0,0,-0.671082,14.5, 2.1, -2,0,0,1024,1024,1024,1024,13.7,-89.9,96,3.776,3.834,3.822,3.814,0,0,20.494,64.4,14,Waypoint,
36.6440286,-118.9467575,4917.4760605745,111.220476,0,1.56749676932,16600,2018-04-13 18:20:09,17,0,22.807,4917.4760605745,111.220476,0.447388,1.72084651176,0,0,-0.671082,14.5, 2.2, -2.1,0,0,1024,1024,1024,1024,13.7,-89.9,96,3.776,3.834,3.822,3.814,0,0,20.494,64.4,14,Waypoint,
36.6440286,-118.9467576,4918.7883965745,112.532812,0,1.55899939372,16700,2018-04-13 18:20:09,17,0,22.807,4918.7883965745,112.532812,0.447388,1.72084651176,0,0,-0.671082,14.6, 2.2, -2,0,0,1024,1024,1024,1024,13.7,-89.9,96,3.776,3.834,3.822,3.814,0,0,20.494,64.4,14,Waypoint,
36.6440286,-118.9467576,4919.7726485745,113.517064,0,1.55899939372,16800,2018-04-13 18:20:10,17,0,22.807,4919.7726485745,113.517064,0.447388,1.72084651176,0,0,-0.671082,14.7, 2.1, -2,0,0,1024,1024,1024,1024,13.7,-89.9,96,3.776,3.834,3.822,3.814,0,0,20.494,64.4,14,Waypoint,
36.6440286,-118.9467576,4920.7569005745,114.501316,0,1.55899939372,16900,2018-04-13 18:20:10,17,0,22.807,4920.7569005745,114.501316,0.447388,1.72084651176,0,0,-0.671082,14.8, 2.1, -1.9,0,0,1024,1024,1024,1024,13.7,-89.9,96,3.776,3.834,3.822,3.814,0,0,20.494,64.4,14,Waypoint,
36.6440286,-118.9467577,4921.7411525745,115.485568,0,1.55101054832,17000,2018-04-13 18:20:10,17,0,22.833,4921.7411525745,115.485568,0.447388,1.72084651176,0,0,-0.671082,14.9, 2.3, -1.8,0,0,1024,1024,1024,1024,13.7,-89.9,96,3.771,3.832,3.811,3.813,0,0,19.849,64.4,14,Waypoint,
36.6440286,-118.9467577,4922.7254045745,116.46982,0,1.55101054832,17120,2018-04-13 18:20:10,17,0,22.833,4922.7254045745,116.46982,0.447388,1.72084651176,0,0,-0.671082,14.9, 2.4, -2,0,0,1024,1024,1024,1024,13.7,-89.9,96,3.771,3.832,3.811,3.813,0,0,19.849,64.4,14,Waypoint,
36.6440286,-118.9467577,4923.7096565745,117.454072,0,1.55101054832,17200,2018-04-13 18:20:10,17,0,22.833,4923.7096565745,117.454072,0.447388,1.72084651176,0,0,-0.671082,15, 2.5, -2,0,0,1024,1024,1024,1024,13.7,-89.9,96,3.771,3.832,3.811,3.813,0,0,19.849,64.4,14,Waypoint,
36.6440286,-118.9467576,4924.6939085745,118.438324,0,1.55899939372,17400,2018-04-13 18:20:10,17,0,22.833,4924.6939085745,118.438324,0.447388,1.72084651176,0,0,-0.671082,14.9, 2.4, -2.4,0,0,1024,1024,1024,1024,13.7,-89.9,96,3.771,3.832,3.811,3.813,0,0,19.849,64.4,14,Waypoint,
36.6440284,-118.9467575,4927.6466645745,121.39108,0,1.49802170148,17500,2018-04-13 18:20:10,17,0,22.833,4927.6466645745,121.39108,0.447388,1.72084651176,0,0,-0.671082,14.6, 2, -2.6,0,0,1024,1024,1024,1024,13.7,-89.9,96,3.771,3.832,3.811,3.813,0,0,19.849,64.4,14,Waypoint,
36.6440284,-118.9467575,4928.6309165745,122.375332,0,1.49802170148,17700,2018-04-13 18:20:10,17,0,22.833,4928.6309165745,122.375332,0.447388,1.72084651176,0,0,-0.671082,14.5, 1.9, -2.6,0,0,1024,1024,1024,1024,13.7,-89.9,96,3.771,3.832,3.811,3.813,0,0,19.849,64.4,14,Waypoint,
36.6440283,-118.9467575,4929.6151685745,123.359584,0,1.46340883948,17800,2018-04-13 18:20:11,17,0,22.833,4929.6151685745,123.359584,0.447388,1.72084651176,0,0,-0.671082,14.5, 1.7, -2.8,0,0,1024,1024,1024,1024,13.7,-89.9,96,3.771,3.832,3.811,3.813,0,0,19.849,64.4,14,Waypoint,
36.6440283,-118.9467574,4930.5994205745,124.343836,0,1.47303810488,17900,2018-04-13 18:20:11,17,0,22.833,4930.5994205745,124.343836,0.447388,1.72084651176,0,0,-0.671082,14.6, 1.6, -2.8,0,0,1024,1024,1024,1024,13.7,-89.9,96,3.771,3.832,3.811,3.813,0,0,19.849,64.4,14,Waypoint,
36.6440283,-118.9467574,4931.5836725745,125.328088,0,1.47303810488,18000,2018-04-13 18:20:11,17,0,22.96,4931.5836725745,125.328088,0.447388,1.72084651176,0,0,-0.671082,14.6, 1.8, -2.7,0,0,1024,1024,1024,1024,13.7,-89.9,96,3.79,3.861,3.828,3.828,0,0,18.599,64.4,14,Waypoint,
36.6440282,-118.9467574,4932.2398405745,125.984256,0,1.43875332688,18100,2018-04-13 18:20:11,17,0,22.96,4932.2398405745,125.984256,0.447388,1.72084651176,0,0,-0.671082,14.7, 2.1, -2.6,0,0,1024,1024,1024,1024,13.7,-89.9,96,3.79,3.861,3.828,3.828,0,0,18.599,64.4,14,Waypoint,
36.6440282,-118.9467574,4933.2240925745,126.968508,0,1.43875332688,18200,2018-04-13 18:20:11,17,0,22.96,4933.2240925745,126.968508,0.447388,1.72084651176,0,0,-0.671082,14.7, 2.4, -2.5,0,0,1024,1024,1024,1024,13.7,-89.9,96,3.79,3.861,3.828,3.828,0,0,18.599,64.4,14,Waypoint,
36.6440282,-118.9467574,4934.2083445745,127.95276,0,1.43875332688,18300,2018-04-13 18:20:11,17,0,22.96,4934.2083445745,127.95276,0.447388,1.72084651176,0,0,-0.671082,14.7, 2.4, -2.4,0,0,1024,1024,1024,1024,13.7,-89.9,96,3.79,3.861,3.828,3.828,0,0,18.599,64.4,14,Waypoint,
36.6440282,-118.9467574,4935.1925965745,128.937012,0,1.43875332688,18400,2018-04-13 18:20:11,17,0,22.96,4935.1925965745,128.937012,0.447388,1.72084651176,0,0,-0.671082,14.6, 2.4, -2.3,0,0,1024,1024,1024,1024,13.7,-89.9,96,3.79,3.861,3.828,3.828,0,0,18.599,64.4,14,Waypoint,
36.6440282,-118.9467574,4936.1768485745,129.921264,0,1.43875332688,18500,2018-04-13 18:20:11,17,0,22.96,4936.1768485745,129.921264,0.447388,1.72084651176,0,0,-0.671082,14.5, 2.4, -2.2,0,0,1024,1024,1024,1024,13.7,-89.9,96,3.79,3.861,3.828,3.828,0,0,18.599,64.4,14,Waypoint,
36.6440282,-118.9467573,4937.1611005745,130.905516,0,1.44914046632,18600,2018-04-13 18:20:11,17,0,22.96,4937.1611005745,130.905516,0.447388,1.72084651176,0,0,-0.671082,14.4, 2.5, -2.1,0,0,1024,1024,1024,1024,13.7,-89.9,96,3.79,3.861,3.828,3.828,0,0,18.599,64.4,14,Waypoint,
36.6440283,-118.9467573,4938.1453525745,131.889768,0,1.483185743,18700,2018-04-13 18:20:11,17,0,22.96,4938.1453525745,131.889768,0.447388,1.72084651176,0,0,-0.671082,14.4, 2.7, -2.1,0,0,1024,1024,1024,1024,13.7,-89.9,96,3.79,3.861,3.828,3.828,0,0,18.599,64.4,14,Waypoint,
36.6440283,-118.9467572,4939.1296045745,132.87402,0,1.49383534964,18800,2018-04-13 18:20:12,17,0,22.96,4939.1296045745,132.87402,0.447388,1.72084651176,0,0,-0.671082,14.4, 2.9, -2.2,0,0,1024,1024,1024,1024,13.7,-89.9,96,3.79,3.861,3.828,3.828,0,0,18.599,64.4,14,Waypoint,
36.6440283,-118.9467571,4940.1138565745,133.858272,0,1.50498036312,18900,2018-04-13 18:20:12,17,0,22.96,4940.1138565745,133.858272,0.447388,1.72084651176,0,0,-0.671082,14.5, 3.2, -2.8,0,0,1024,1024,1024,1024,13.8,-89.9,96,3.79,3.861,3.828,3.828,0,0,18.599,64.4,14,Waypoint,
36.6440283,-118.946757,4941.0981085745,134.842524,0,1.51661094092,19000,2018-04-13 18:20:12,17,0,22.909,4941.0981085745,134.842524,0.447388,1.72084651176,0,0,-0.671082,14.5, 3.5, -3.2,0,0,1024,1024,1024,1024,13.8,-89.9,96,3.79,3.861,3.828,3.828,0,0,18.599,64.4,14,Waypoint,
36.6440283,-118.9467568,4943.0666125745,136.811028,0,1.5412730152,19200,2018-04-13 18:20:12,17,0,22.909,4943.0666125745,136.811028,0.447388,1.72084651176,0,0,-0.671082,14.9, 3.5, -2.2,0,0,1024,1024,1024,1024,13.8,-89.9,96,3.79,3.861,3.828,3.828,0,0,18.599,64.4,14,Waypoint,
36.6440284,-118.9467567,4944.0508645745,137.79528,0,1.58691278044,19300,2018-04-13 18:20:12,17,0,22.909,4944.0508645745,137.79528,0.447388,1.72084651176,0,0,-0.671082,15.1, 3.6, -2.3,0,0,1024,1024,1024,1024,13.8,-89.9,96,3.79,3.861,3.828,3.828,0,0,18.599,64.4,14,Waypoint,
36.6440284,-118.9467566,4945.0351165745,138.779532,0,1.60008863388,19400,2018-04-13 18:20:12,17,0,22.909,4945.0351165745,138.779532,0.447388,1.72084651176,0,0,-0.671082,15.1, 3.3, -2.9,0,0,1024,1024,1024,1024,13.8,-89.9,96,3.79,3.861,3.828,3.828,0,0,18.599,64.4,14,Waypoint,
36.6440283,-118.9467564,4947.0036205745,140.748036,0,1.59590556288,19500,2018-04-13 18:20:12,17,0,22.909,4947.0036205745,140.748036,0.447388,1.72084651176,0,0,-0.671082,14.6, 3.5, -3.9,0,0,1024,1024,1024,1024,13.8,-89.9,96,3.79,3.861,3.828,3.828,0,0,18.599,64.4,14,Waypoint,
36.6440283,-118.9467562,4948.9721245745,142.71654,0,1.62569887092,19700,2018-04-13 18:20:12,17,0,22.909,4948.9721245745,142.71654,0.447388,1.72084651176,0,0,-0.671082,14.3, 3.7, -3.4,0,0,1024,1024,1024,1024,13.8,-89.9,96,3.79,3.861,3.828,3.828,0,0,18.599,64.4,14,Waypoint,
36.6440283,-118.9467561,4950.9406285745,144.685044,0,1.6411745932,20000,2018-04-13 18:20:13,17,0,22.909,4950.9406285745,144.685044,0.447388,1.72084651176,0,0,-0.671082,14.3, 3.6, -3.1,0,0,1024,1024,1024,1024,13.8,-89.9,96,3.784,3.845,3.819,3.815,0,0,18.599,64.4,14,Waypoint,
36.6440283,-118.946756,4951.9248805745,145.669296,0,1.65702433124,20100,2018-04-13 18:20:13,17,0,22.909,4951.9248805745,145.669296,0.447388,1.72084651176,0,0,-0.671082,14.3, 3.5, -3.4,0,0,1024,1024,1024,1024,13.8,-89.9,96,3.784,3.845,3.819,3.815,0,0,18.599,64.4,14,Waypoint,
36.6440283,-118.946756,4952.9091325745,146.653548,0,1.65702433124,20200,2018-04-13 18:20:13,17,0,22.909,4952.9091325745,146.653548,0.447388,1.72084651176,0,0,-0.671082,14.4, 3.1, -3.4,0,0,1024,1024,1024,1024,13.8,-89.9,96,3.784,3.845,3.819,3.815,0,0,18.599,64.4,14,Waypoint,
36.6440282,-118.946756,4953.8933845745,147.6378,0.223694,1.62662078696,20300,2018-04-13 18:20:13,17,0,22.909,4953.8933845745,147.6378,0.447388,1.72084651176,0,0,-0.671082,14.4, 2.6, -3.4,0,0,1024,1024,1024,1024,13.8,-90,96,3.784,3.845,3.819,3.815,0,0,18.599,64.4,14,Waypoint,
36.6440282,-118.9467559,4954.8776365745,148.622052,0.223694,1.64312997384,20400,2018-04-13 18:20:13,17,0,22.909,4954.8776365745,148.622052,0.447388,1.72084651176,0,0,-0.671082,14.5, 2.2, -3.6,0,0,1024,1024,1024,1024,13.8,-90,96,3.784,3.845,3.819,3.815,0,0,18.599,64.4,14,Waypoint,
36.6440281,-118.9467559,4955.8618885745,149.606304,0.223694,1.61329073404,20500,2018-04-13 18:20:13,17,0,22.909,4955.8618885745,149.606304,0.447388,1.72084651176,0,0,-0.671082,14.5, 2, -3.8,0,0,1024,1024,1024,1024,13.8,-90,96,3.784,3.845,3.819,3.815,0,0,18.599,64.4,14,Waypoint,
36.644028,-118.9467559,4956.8461405745,150.590556,0,1.5837270848,20600,2018-04-13 18:20:13,17,0,22.909,4956.8461405745,150.590556,0.447388,1.72084651176,0,0,-0.671082,14.5, 2, -3.9,0,0,1024,1024,1024,1024,13.8,-90,96,3.784,3.845,3.819,3.815,0,0,18.599,64.4,14,Waypoint,
36.644028,-118.9467559,4957.8303925745,151.574808,0,1.5837270848,20700,2018-04-13 18:20:13,17,0,22.909,4957.8303925745,151.574808,0.447388,1.72084651176,0,0,-0.671082,14.5, 1.9, -3.4,0,0,1024,1024,1024,1024,13.8,-90,96,3.784,3.845,3.819,3.815,0,0,18.599,64.4,14,Waypoint,
36.6440279,-118.9467559,4958.8146445745,152.55906,0,1.55445871116,20800,2018-04-13 18:20:14,17,0,22.909,4958.8146445745,152.55906,0.447388,1.72084651176,0,0,-0.671082,14.4, 1.8, -3.1,0,0,1024,1024,1024,1024,13.8,-90,96,3.784,3.845,3.819,3.815,0,0,18.599,64.4,14,Waypoint,
36.6440279,-118.9467559,4959.7988965745,153.543312,0,1.55445871116,20900,2018-04-13 18:20:14,17,0,22.909,4959.7988965745,153.543312,0.447388,1.72084651176,0,0,-0.671082,14.4, 1.6, -2.9,0,0,1024,1024,1024,1024,13.8,-90,96,3.784,3.845,3.819,3.815,0,0,18.599,64.4,14,Waypoint,
36.6440278,-118.9467559,4960.7831485745,154.527564,0,1.52550201732,21000,2018-04-13 18:20:14,17,0,22.809,4960.7831485745,154.527564,0.447388,1.72084651176,0,0,-0.671082,14.6, 1.2, -2.8,0,0,1024,1024,1024,1024,13.8,-90,96,3.773,3.837,3.81,3.808,0,0,19.125,64.4,14,Waypoint,
36.6440278,-118.946756,4961.7674005745,155.511816,0,1.50770346032,21100,2018-04-13 18:20:14,17,0,22.809,4961.7674005745,155.511816,0.447388,1.72084651176,0,0,-0.671082,14.8, 1.4, -3,0,0,1024,1024,1024,1024,13.8,-89.9,96,3.773,3.837,3.81,3.808,0,0,19.125,64.4,14,Waypoint,
36.6440278,-118.946756,4962.7516525745,156.496068,0,1.50770346032,21200,2018-04-13 18:20:14,17,0,22.809,4962.7516525745,156.496068,0.447388,1.72084651176,0,0,-0.671082,14.9, 1.6, -3.1,0,0,1024,1024,1024,1024,13.8,-89.9,96,3.773,3.837,3.81,3.808,0,0,19.125,64.4,14,Waypoint,
36.6440278,-118.946756,4963.7359045745,157.48032,0,1.50770346032,21300,2018-04-13 18:20:14,17,0,22.809,4963.7359045745,157.48032,0.447388,1.72084651176,0,0,-0.671082,14.9, 1.9, -3.3,0,0,1024,1024,1024,1024,13.8,-89.9,96,3.773,3.837,3.81,3.808,0,0,19.125,64.4,14,Waypoint,
36.6440278,-118.946756,4964.7201565745,158.464572,0,1.50770346032,21400,2018-04-13 18:20:14,17,0,22.809,4964.7201565745,158.464572,0.447388,1.72084651176,0,0,-0.671082,14.9, 2.2, -3.6,0,0,1024,1024,1024,1024,13.8,-89.9,96,3.773,3.837,3.81,3.808,0,0,19.125,64.4,14,Waypoint,
36.6440278,-118.9467559,4965.7044085745,159.448824,0,1.52550201732,21500,2018-04-13 18:20:14,17,0,22.809,4965.7044085745,159.448824,0.447388,1.72084651176,0,0,-0.671082,14.9, 2.5, -3.5,0,0,1024,1024,1024,1024,13.8,-89.9,96,3.773,3.837,3.81,3.808,0,0,19.125,64.4,14,Waypoint,
36.6440278,-118.9467559,4966.6886605745,160.433076,0,1.52550201732,21610,2018-04-13 18:20:14,17,0,22.809,4966.6886605745,160.433076,0.447388,1.72084651176,0,0,-0.671082,14.9, 2.8, -3.2,0,0,1024,1024,1024,1024,13.8,-89.9,96,3.773,3.837,3.81,3.808,0,0,19.125,64.4,14,Waypoint,
36.6440278,-118.9467559,4967.6729125745,161.417328,0,1.52550201732,21710,2018-04-13 18:20:14,17,0,22.809,4967.6729125745,161.417328,0.447388,1.72084651176,0,0,-0.671082,14.9, 2.8, -3.3,0,0,1024,1024,1024,1024,13.8,-89.9,96,3.773,3.837,3.81,3.808,0,0,19.125,64.4,14,Waypoint,
36.6440278,-118.9467558,4969.3133325745,163.057748,0,1.5436516242,21900,2018-04-13 18:20:15,17,0,22.809,4969.3133325745,163.057748,0.447388,1.72084651176,0,0,-0.671082,14.5, 2.9, -3.9,0,0,1024,1024,1024,1024,13.8,-89.9,96,3.773,3.837,3.81,3.808,0,0,19.125,64.4,14,Waypoint,
36.6440279,-118.9467558,4970.2975845745,164.042,0,1.57227367236,22000,2018-04-13 18:20:15,17,0,22.765,4970.2975845745,164.042,0.447388,1.72084651176,0,0,-0.671082,14.1, 2.9, -4,0,0,1024,1024,1024,1024,13.8,-89.9,96,3.763,3.817,3.802,3.788,0,0,19.264,64.4,14,Waypoint,
36.6440278,-118.9467558,4973.2503405745,166.994756,0,1.5436516242,22210,2018-04-13 18:20:15,17,0,22.765,4973.2503405745,166.994756,0.447388,1.72084651176,0,0,-0.671082,14, 2.8, -3.5,0,0,1024,1024,1024,1024,13.8,-89.9,96,3.763,3.817,3.802,3.788,0,0,19.264,64.4,14,Waypoint,
36.6440278,-118.9467558,4974.2345925745,167.979008,0,1.5436516242,22310,2018-04-13 18:20:15,17,0,22.765,4974.2345925745,167.979008,0.447388,1.72084651176,0,0,-0.671082,14.2, 2.3, -3.9,0,0,1024,1024,1024,1024,13.8,-90,96,3.763,3.817,3.802,3.788,0,0,19.264,64.4,14,Waypoint,
36.6440278,-118.9467558,4974.2345925745,167.979008,0,1.5436516242,22400,2018-04-13 18:20:15,17,0,22.765,4974.2345925745,167.979008,0.447388,1.72084651176,0,0,-0.671082,14.2, 2.3, -3.9,0,0,1024,1024,1024,1024,13.8,-90,96,3.763,3.817,3.802,3.788,0,0,19.264,64.4,14,Waypoint,
36.6440277,-118.9467557,4975.2188445745,168.96326,0,1.53419624332,22500,2018-04-13 18:20:15,17,0,22.765,4975.2188445745,168.96326,0.447388,1.72084651176,0,0,-0.671082,14.4, 2, -4,0,0,1024,1024,1024,1024,13.8,-90,96,3.763,3.817,3.802,3.788,0,0,19.264,64.4,14,Waypoint,
36.6440277,-118.9467558,4976.2030965745,169.947512,0,1.51536750256,22600,2018-04-13 18:20:15,17,0,22.765,4976.2030965745,169.947512,0.447388,1.72084651176,0,0,-0.671082,14.5, 1.9, -3.9,0,0,1024,1024,1024,1024,13.8,-90,96,3.763,3.817,3.802,3.788,0,0,19.264,64.4,14,Waypoint,
36.6440276,-118.9467558,4977.1873485745,170.931764,0,1.48743771164,22700,2018-04-13 18:20:15,17,0,22.765,4977.1873485745,170.931764,0.447388,1.72084651176,0,0,-0.671082,14.7, 1.6, -3.8,0,0,1024,1024,1024,1024,13.8,-89.9,96,3.763,3.817,3.802,3.788,0,0,19.264,64.4,14,Waypoint,
36.6440276,-118.9467558,4978.1716005745,171.916016,0,1.48743771164,22800,2018-04-13 18:20:16,17,0,22.765,4978.1716005745,171.916016,0.447388,1.72084651176,0,0,-0.671082,14.7, 1.8, -3.4,0,0,1024,1024,1024,1024,13.8,-89.9,96,3.763,3.817,3.802,3.788,0,0,19.264,64.4,14,Waypoint,
36.6440276,-118.9467558,4979.1558525745,172.900268,0,1.48743771164,22900,2018-04-13 18:20:16,17,0,22.765,4979.1558525745,172.900268,0.447388,1.72084651176,0,0,-0.671082,14.7, 2.1, -3.4,0,0,1024,1024,1024,1024,13.8,-89.9,96,3.763,3.817,3.802,3.788,0,0,19.264,64.4,14,Waypoint,
36.6440276,-118.9467559,4980.1401045745,173.88452,0,1.46859584752,23000,2018-04-13 18:20:16,17,0,22.718,4980.1401045745,173.88452,0.447388,1.72084651176,0,0,-0.671082,14.7, 2.2, -3.5,0,0,1024,1024,1024,1024,13.8,-89.9,96,3.746,3.813,3.787,3.783,0,0,19.753,66.2,14,Waypoint,
36.6440276,-118.9467559,4981.1243565745,174.868772,0,1.46859584752,23100,2018-04-13 18:20:16,17,0,22.718,4981.1243565745,174.868772,0.447388,1.72084651176,0,0,-0.671082,14.7, 2.1, -3.3,0,0,1024,1024,1024,1024,13.8,-89.9,96,3.746,3.813,3.787,3.783,0,0,19.753,66.2,14,Waypoint,
36.6440276,-118.9467559,4982.1086085745,175.853024,0,1.46859584752,23200,2018-04-13 18:20:16,17,0,22.718,4982.1086085745,175.853024,0.447388,1.72084651176,0,0,-0.671082,14.7, 2.4, -3.5,0,0,1024,1024,1024,1024,13.8,-89.9,96,3.746,3.813,3.787,3.783,0,0,19.753,66.2,14,Waypoint,
36.6440276,-118.9467559,4983.4209445745,177.16536,0,1.46859584752,23300,2018-04-13 18:20:16,17,0,22.718,4983.4209445745,177.16536,0.447388,1.72084651176,0,0,-0.671082,14.7, 2.5, -3.9,0,0,1024,1024,1024,1024,13.8,-89.9,96,3.746,3.813,3.787,3.783,0,0,19.753,66.2,14,Waypoint,
36.6440276,-118.9467559,4984.4051965745,178.149612,0,1.46859584752,23400,2018-04-13 18:20:16,17,0,22.718,4984.4051965745,178.149612,0.447388,1.72084651176,0,0,-0.671082,14.8, 2.4, -4.2,0,0,1024,1024,1024,1024,13.8,-90,96,3.746,3.813,3.787,3.783,0,0,19.753,66.2,14,Waypoint,
36.6440276,-118.9467559,4985.3894485745,179.133864,0,1.46859584752,23500,2018-04-13 18:20:16,17,0,22.718,4985.3894485745,179.133864,0.447388,1.72084651176,0,0,-0.671082,14.8, 2.1, -4.3,0,0,1024,1024,1024,1024,13.8,-90,96,3.746,3.813,3.787,3.783,0,0,19.753,66.2,14,Waypoint,
36.6440276,-118.9467559,4986.3737005745,180.118116,0,1.46859584752,23600,2018-04-13 18:20:16,17,0,22.718,4986.3737005745,180.118116,0.447388,1.72084651176,0,0,-0.671082,14.8, 1.7, -4.1,0,0,1024,1024,1024,1024,13.8,-90,96,3.746,3.813,3.787,3.783,0,0,19.753,66.2,14,Waypoint,
36.6440275,-118.946756,4987.3579525745,181.102368,0,1.42182419248,23700,2018-04-13 18:20:16,17,0,22.718,4987.3579525745,181.102368,0.447388,1.72084651176,0,0,-0.671082,14.6, 1.6, -3.9,0,0,1024,1024,1024,1024,13.8,-90,96,3.746,3.813,3.787,3.783,0,0,19.753,66.2,14,Waypoint,
36.6440275,-118.946756,4988.3422045745,182.08662,0,1.42182419248,23800,2018-04-13 18:20:17,17,0,22.718,4988.3422045745,182.08662,0.447388,1.72084651176,0,0,-0.671082,14.4, 1.6, -3.5,0,0,1024,1024,1024,1024,13.8,-90,96,3.746,3.813,3.787,3.783,0,0,19.753,66.2,14,Waypoint,
36.6440275,-118.946756,4989.3264565745,183.070872,0.223694,1.42182419248,23900,2018-04-13 18:20:17,17,0,22.718,4989.3264565745,183.070872,0.447388,1.72084651176,0,0,-0.671082,14.1, 1.6, -3.1,0,0,1024,1024,1024,1024,13.8,-89.9,96,3.746,3.813,3.787,3.783,0,0,19.753,66.2,14,Waypoint,
36.6440275,-118.9467561,4990.3107085745,184.055124,0,1.40332025488,24010,2018-04-13 18:20:17,17,0,22.664,4990.3107085745,184.055124,0.447388,1.72084651176,0,0,-0.671082,13.9, 1.6, -3,0,0,1024,1024,1024,1024,13.8,-89.9,95,3.737,3.798,3.771,3.772,0,0,20.103,66.2,14,Waypoint,
36.6440275,-118.9467561,4991.2949605745,185.039376,0,1.40332025488,24100,2018-04-13 18:20:17,17,0,22.664,4991.2949605745,185.039376,0.447388,1.72084651176,0,0,-0.671082,13.7, 1.8, -3.1,0,0,1024,1024,1024,1024,13.8,-89.9,95,3.737,3.798,3.771,3.772,0,0,20.103,66.2,14,Waypoint,
36.6440275,-118.9467561,4992.2792125745,186.023628,0,1.40332025488,24200,2018-04-13 18:20:17,17,0,22.664,4992.2792125745,186.023628,0.447388,1.72084651176,0,0,-0.671082,13.8, 2, -3.4,0,0,1024,1024,1024,1024,13.8,-89.9,95,3.737,3.798,3.771,3.772,0,0,20.103,66.2,14,Waypoint,
36.6440275,-118.9467561,4994.2477165745,187.992132,0,1.40332025488,24400,2018-04-13 18:20:17,17,0,22.664,4994.2477165745,187.992132,0.447388,1.72084651176,0,0,-0.671082,14.4, 1.6, -4.4,0,0,1024,1024,1024,1024,13.8,-89.9,95,3.737,3.798,3.771,3.772,0,0,20.103,66.2,14,Waypoint,
36.6440275,-118.9467561,4995.2319685745,188.976384,0,1.40332025488,24500,2018-04-13 18:20:17,17,0,22.664,4995.2319685745,188.976384,0.447388,1.72084651176,0,0,-0.671082,14.7, 1.6, -4.5,0,0,1024,1024,1024,1024,13.8,-89.9,95,3.737,3.798,3.771,3.772,0,0,20.103,66.2,14,Waypoint,
36.6440275,-118.9467561,4996.2162205745,189.960636,0,1.40332025488,24600,2018-04-13 18:20:17,17,0,22.664,4996.2162205745,189.960636,0.447388,1.72084651176,0,0,-0.671082,15, 1.5, -4.2,0,0,1024,1024,1024,1024,13.8,-89.9,95,3.737,3.798,3.771,3.772,0,0,20.103,66.2,14,Waypoint,
36.6440275,-118.9467561,4997.2004725745,190.944888,0,1.40332025488,24700,2018-04-13 18:20:17,17,0,22.664,4997.2004725745,190.944888,0.447388,1.72084651176,0,0,-0.671082,15.1, 1.8, -4,0,0,1024,1024,1024,1024,13.8,-89.9,95,3.737,3.798,3.771,3.772,0,0,20.103,66.2,14,Waypoint,
36.6440275,-118.9467562,4998.1847245745,191.92914,0,1.3851870522,24800,2018-04-13 18:20:18,17,0,22.664,4998.1847245745,191.92914,0.447388,1.72084651176,0,0,-0.671082,15.2, 2, -3.7,0,0,1024,1024,1024,1024,13.8,-89.9,95,3.737,3.798,3.771,3.772,0,0,20.103,66.2,14,Waypoint,
36.6440275,-118.9467562,4999.1689765745,192.913392,0,1.3851870522,24900,2018-04-13 18:20:18,17,0,22.664,4999.1689765745,192.913392,0.447388,1.72084651176,0,0,-0.671082,15.1, 2.2, -3.8,0,0,1024,1024,1024,1024,13.8,-89.9,95,3.737,3.798,3.771,3.772,0,0,20.103,66.2,14,Waypoint,
36.6440276,-118.9467562,4999.8251445745,193.56956,0,1.41419623948,25000,2018-04-13 18:20:18,17,0,22.718,4999.8251445745,193.56956,0.447388,1.72084651176,0,0,-0.671082,15, 2.6, -3.9,0,0,1024,1024,1024,1024,13.8,-89.9,95,3.74,3.811,3.785,3.782,0,0,19.4,66.2,14,Waypoint,
36.6440276,-118.9467561,5000.8093965745,194.553812,0,1.43195870724,25100,2018-04-13 18:20:18,17,0,22.718,5000.8093965745,194.553812,0.447388,1.72084651176,0,0,-0.671082,14.9, 2.8, -3.9,0,0,1024,1024,1024,1024,13.8,-89.9,95,3.74,3.811,3.785,3.782,0,0,19.4,66.2,14,Waypoint,
36.6440276,-118.9467562,5001.7936485745,195.538064,0,1.41419623948,25200,2018-04-13 18:20:18,17,0,22.718,5001.7936485745,195.538064,0.447388,1.72084651176,0,0,-0.671082,14.9, 3, -3.8,0,0,1024,1024,1024,1024,13.8,-89.9,95,3.74,3.811,3.785,3.782,0,0,19.4,66.2,14,Waypoint,
36.6440277,-118.9467562,5002.7779005745,196.522316,0,1.44354007244,25300,2018-04-13 18:20:18,17,0,22.718,5002.7779005745,196.522316,0.447388,1.72084651176,0,0,-0.671082,14.9, 3, -3.8,0,0,1024,1024,1024,1024,13.8,-89.9,95,3.74,3.811,3.785,3.782,0,0,19.4,66.2,14,Waypoint,
36.6440278,-118.9467562,5003.7621525745,197.506568,0,1.47320542772,25400,2018-04-13 18:20:18,17,0,22.718,5003.7621525745,197.506568,0.447388,1.72084651176,0,0,-0.671082,15, 3, -3.9,0,0,1024,1024,1024,1024,13.8,-89.9,95,3.74,3.811,3.785,3.782,0,0,19.4,66.2,14,Waypoint,
36.6440278,-118.9467562,5004.7464045745,198.49082,0,1.47320542772,25500,2018-04-13 18:20:18,17,0,22.718,5004.7464045745,198.49082,0.447388,1.72084651176,0,0,-0.671082,14.9, 2.9, -3.8,0,0,1024,1024,1024,1024,13.8,-89.9,95,3.74,3.811,3.785,3.782,0,0,19.4,66.2,14,Waypoint,
36.6440279,-118.9467562,5005.7306565745,199.475072,0,1.50316933944,25600,2018-04-13 18:20:18,17,0,22.718,5005.7306565745,199.475072,0.447388,1.72084651176,0,0,-0.671082,14.8, 2.8, -3.2,0,0,1024,1024,1024,1024,13.8,-89.9,95,3.74,3.811,3.785,3.782,0,0,19.4,66.2,14,Waypoint,
36.6440279,-118.9467563,5006.7149085745,200.459324,0.223694,1.48683403708,25700,2018-04-13 18:20:18,17,0,22.718,5006.7149085745,200.459324,0.447388,1.72084651176,0,0,-0.671082,14.7, 2.7, -2.6,0,0,1024,1024,1024,1024,13.8,-89.9,95,3.74,3.811,3.785,3.782,0,0,19.4,66.2,14,Waypoint,
36.644028,-118.9467563,5007.6991605745,201.443576,0.223694,1.51740818504,25800,2018-04-13 18:20:19,17,0,22.718,5007.6991605745,201.443576,0.447388,1.72084651176,0,0,-0.671082,14.6, 2.9, -2.6,0,0,1024,1024,1024,1024,13.8,-89.9,95,3.74,3.811,3.785,3.782,0,0,19.4,66.2,14,Waypoint,
36.644028,-118.9467564,5008.6834125745,202.427828,0.223694,1.50179466748,25900,2018-04-13 18:20:19,17,0,22.718,5008.6834125745,202.427828,0.447388,1.72084651176,0,0,-0.671082,14.5, 3.2, -2.8,0,0,1024,1024,1024,1024,13.8,-89.9,95,3.74,3.811,3.785,3.782,0,0,19.4,66.2,14,Waypoint,
36.6440281,-118.9467565,5009.6676645745,203.41208,0,1.51805122968,26000,2018-04-13 18:20:19,17,0,22.771,5009.6676645745,203.41208,0.447388,1.72084651176,0,0,-0.671082,14.5, 3.3, -2.8,0,0,1024,1024,1024,1024,13.8,-89.9,95,3.753,3.827,3.801,3.793,0,0,18.616,66.2,14,Waypoint,
36.6440281,-118.9467565,5010.6519165745,204.396332,0,1.51805122968,26100,2018-04-13 18:20:19,17,0,22.771,5010.6519165745,204.396332,0.447388,1.72084651176,0,0,-0.671082,14.5, 3.1, -2.9,0,0,1024,1024,1024,1024,13.8,-89.9,95,3.753,3.827,3.801,3.793,0,0,18.616,66.2,14,Waypoint,
36.6440281,-118.9467566,5011.6361685745,205.380584,0.223694,1.50358928696,26200,2018-04-13 18:20:19,17,0,22.771,5011.6361685745,205.380584,0.447388,1.72084651176,0,0,-0.671082,14.5, 3, -3,0,0,1024,1024,1024,1024,13.8,-89.9,95,3.753,3.827,3.801,3.793,0,0,18.616,66.2,14,Waypoint,
36.6440282,-118.9467566,5012.9485045745,206.69292,0.223694,1.53556107276,26310,2018-04-13 18:20:19,17,0,22.771,5012.9485045745,206.69292,0.447388,1.72084651176,0,0,-0.671082,14.6, 3, -3,0,0,1024,1024,1024,1024,13.8,-89.9,95,3.753,3.827,3.801,3.793,0,0,18.616,66.2,14,Waypoint,
36.6440282,-118.9467567,5014.9170085745,208.661424,0,1.52182747652,26500,2018-04-13 18:20:19,17,0,22.771,5014.9170085745,208.661424,0.447388,1.72084651176,0,0,-0.671082,14.7, 2.8, -2.8,0,0,1024,1024,1024,1024,13.8,-89.9,95,3.753,3.827,3.801,3.793,0,0,18.616,66.2,14,Waypoint,
