Latitude, Longitude, Altitude (m), Time, Sats, Speed (m/s), Range (m), Battery (%), Roll (deg), Pitch (deg), Yaw (deg), Images, HD Signal (%), RC Signal (%), Battery Temp (C), Battery Voltage (mV), Battery Current (mA), Battery Energy (mAh), Battery Capacity (mAh), Battery Discharges, flyState, timestamp (Unix), LastUpdate (ms), radioChannel, Rc_elevator, Rc_aileron, Rc_throttle, Rc_rudder, Rc_gyro, Dronetype, Battery_Cell1 (mV), Battery_Cell2 (mV), Battery_Cell3 (mV), Battery_Cell4 (mV), Battery_Cell5 (mV), Battery_Cell6 (mV), Video, isFlying, elapsedTime (ms), gimbalPitch (deg), gimbalRoll (deg), gimbalYaw (deg), VelocityX (m/s), VelocityY (m/s), VelocityZ (m/s), GroundSmear (cm), App Version, Aircraft Name, Aircraft Firmware, Aircraft Serial Number, Battery Serial Number, Battery Lifetime (%), App_Tip, App_Warning, CurrentFlightStartingIndex, CurrentFlightLastVisitedWaypoint, PreviousFlightEndingWaypointIndex
36.6440331, -118.9467505, 0.000, 10:38:19.938, 13, 0.10, 0.07, 94, -1.300, -0.600, 13.200, 2, 100, 100, 17, 24891, -3942, 5215, 5548, 8, 11, 1523641099.938, 138, 0, 1024, 1024, 1024, 1024, 0, 6, 4166, 4145, 4140, 4192, 4203, 4144, 0, 1, 3088, -89.900, 0.000, 13.500, 0.000, -0.100, -0.100, 0.0, MapPilot_2.7.4_02272018, Dendroctonus I, 1.3.1.00, 041DDC1887, 1058163200505, 98, DJI_0005.jpg, Starting Mission from Lat/Long: 36.64403/-118.94675 Camera: Zenmuse X3 - Overlap: 90/90 - Active Connection: Yes, 0, 0, 0
36.6440332, -118.9467507, 0.000, 10:38:19.951, 13, 0.14, 0.09, 94, -1.000, -0.300, 13.200, 2, 100, 100, 17, 24891, -3942, 5215, 5548, 8, 11, 1523641099.952, 9, 0, 1024, 1024, 1024, 1024, 0, 6, 4166, 4145, 4140, 4192, 4203, 4144, 0, 1, 3101, -89.900, 0.000, 13.500, 0.100, -0.100, -0.300, 0.0, , , , , , 98, , , 0, 0, 0
36.6440333, -118.9467509, 0.000, 10:38:20.051, 13, 0.22, 0.11, 94, -0.300, 0.000, 13.100, 2, 100, 100, 17, 24891, -3942, 5215, 5548, 8, 11, 1523641100.052, 66, 0, 1024, 1024, 1024, 1024, 0, 6, 4166, 4145, 4140, 4192, 4203, 4144, 0, 1, 3201, -89.900, 0.000, 13.500, 0.100, -0.200, -0.400, 0.0, , , , , , 98, , , 0, 0, 0
36.6440335, -118.9467511, 0.000, 10:38:20.151, 13, 0.22, 0.14, 94, 0.500, 0.300, 13.000, 2, 100, 100, 17, 24891, -3942, 5215, 5548, 8, 11, 1523641100.152, 46, 0, 1024, 1024, 1024, 1024, 0, 6, 4166, 4145, 4140, 4192, 4203, 4144, 0, 1, 3301, -89.900, 0.000, 13.500, 0.100, -0.200, -0.400, 0.0, , , , , , 98, , , 0, 0, 0
36.6440336, -118.9467514, 0.100, 10:38:20.251, 14, 0.22, 0.17, 94, 1.000, 0.800, 12.900, 2, 100, 100, 17, 24891, -3942, 5215, 5548, 8, 11, 1523641100.251, 65, 0, 1024, 1024, 1024, 1024, 0, 6, 4166, 4145, 4140, 4192, 4203, 4144, 0, 1, 3401, -89.900, 0.000, 13.500, 0.100, -0.200, -0.400, 0.0, , , , , , 98, , , 0, 0, 0
36.6440338, -118.9467516, 0.100, 10:38:20.350, 14, 0.22, 0.19, 94, 1.800, 0.800, 12.900, 2, 100, 100, 17, 24302, -8374, 5215, 5548, 8, 11, 1523641100.351, 46, 0, 1024, 1024, 1024, 1024, 0, 6, 3958, 4005, 3969, 4027, 4022, 4002, 0, 1, 3500, -89.900, 0.000, 13.500, 0.100, -0.200, -0.300, 0.0, , , , , , 98, , , 0, 0, 0
36.6440339, -118.9467519, 0.100, 10:38:20.451, 12, 0.14, 0.22, 94, 2.500, 0.900, 12.900, 2, 100, 100, 17, 24302, -8374, 5215, 5548, 8, 11, 1523641100.452, 64, 0, 1024, 1024, 1024, 1024, 0, 6, 3958, 4005, 3969, 4027, 4022, 4002, 0, 1, 3601, -89.900, 0.000, 13.500, 0.100, -0.100, -0.300, 0.0, , , , , , 98, , , 0, 0, 0
36.6440341, -118.9467521, 0.200, 10:38:20.551, 12, 0.14, 0.25, 94, 2.500, 0.700, 12.900, 2, 100, 100, 17, 24302, -8374, 5215, 5548, 8, 11, 1523641100.552, 43, 0, 1024, 1024, 1024, 1024, 0, 6, 3958, 4005, 3969, 4027, 4022, 4002, 0, 1, 3701, -89.900, 0.000, 13.500, 0.100, -0.100, -0.400, 0.0, , , , , , 98, , , 0, 0, 0
36.6440342, -118.9467523, 0.200, 10:38:20.651, 12, 0.14, 0.27, 94, 2.200, 0.800, 13.100, 2, 100, 100, 17, 24302, -8374, 5215, 5548, 8, 11, 1523641100.652, 37, 0, 1024, 1024, 1024, 1024, 0, 6, 3958, 4005, 3969, 4027, 4022, 4002, 0, 1, 3801, -89.900, 0.000, 13.500, 0.100, -0.100, -0.400, 0.0, , , , , , 98, , , 0, 0, 0
36.6440343, -118.9467524, 0.300, 10:38:20.751, 12, 0.14, 0.28, 94, 1.900, 0.800, 13.300, 2, 100, 100, 17, 24302, -8374, 5215, 5548, 8, 11, 1523641100.751, 39, 0, 1024, 1024, 1024, 1024, 0, 6, 3958, 4005, 3969, 4027, 4022, 4002, 0, 1, 3900, -89.900, 0.000, 13.500, 0.100, -0.100, -0.400, 0.0, , , , , , 98, , , 0, 0, 0
36.6440344, -118.9467525, 0.300, 10:38:20.850, 12, 0.10, 0.30, 94, 1.800, 0.800, 13.400, 2, 100, 100, 17, 24302, -8374, 5215, 5548, 8, 11, 1523641100.851, 28, 0, 1024, 1024, 1024, 1024, 0, 6, 3958, 4005, 3969, 4027, 4022, 4002, 0, 1, 4000, -89.900, 0.000, 13.500, 0.100, 0.000, -0.400, 0.0, , , , , , 98, , , 0, 0, 0
36.6440345, -118.9467527, 0.400, 10:38:20.951, 12, 0.10, 0.31, 94, 1.500, 0.800, 13.600, 2, 100, 100, 17, 24302, -8374, 5215, 5548, 8, 11, 1523641100.952, 33, 0, 1024, 1024, 1024, 1024, 0, 6, 3958, 4005, 3969, 4027, 4022, 4002, 0, 1, 4101, -89.900, 0.000, 13.500, 0.100, 0.000, -0.400, 0.0, , , , , , 98, , , 0, 0, 0
36.6440346, -118.9467527, 0.400, 10:38:21.050, 13, 0.10, 0.33, 94, 1.200, 0.800, 13.700, 2, 100, 100, 17, 24302, -8374, 5215, 5548, 8, 11, 1523641101.051, 28, 0, 1024, 1024, 1024, 1024, 0, 6, 3958, 4005, 3969, 4027, 4022, 4002, 0, 1, 4200, -89.900, 0.000, 13.500, 0.100, 0.000, -0.400, 0.0, , , , , , 98, , , 0, 0, 0
36.6440348, -118.9467528, 0.400, 10:38:21.150, 13, 0.10, 0.35, 94, 1.100, 1.100, 13.700, 2, 100, 100, 17, 24302, -8374, 5215, 5548, 8, 11, 1523641101.151, 36, 0, 1024, 1024, 1024, 1024, 0, 6, 3958, 4005, 3969, 4027, 4022, 4002, 0, 1, 4300, -89.900, 0.000, 13.500, 0.100, 0.000, -0.400, 0.0, , , , , , 98, , , 0, 0, 0
36.6440350, -118.9467529, 0.500, 10:38:21.257, 13, 0.10, 0.37, 94, 1.100, 1.300, 13.700, 2, 100, 100, 17, 24302, -8374, 5215, 5548, 8, 11, 1523641101.258, 8, 0, 1024, 1024, 1024, 1024, 0, 6, 3958, 4005, 3969, 4027, 4022, 4002, 0, 1, 4407, -89.900, 0.000, 13.500, 0.100, 0.000, -0.500, 0.0, , , , , , 98, , , 0, 0, 0
36.6440351, -118.9467530, 0.500, 10:38:21.352, 13, 0.10, 0.39, 94, 1.200, 1.400, 13.600, 2, 100, 100, 17, 23312, -16477, 5215, 5548, 8, 11, 1523641101.352, 4, 0, 1024, 1024, 1024, 1024, 0, 6, 3958, 4005, 3969, 4027, 4022, 4002, 0, 1, 4502, -89.900, 0.000, 13.500, 0.100, 0.000, -0.400, 0.0, , , , , , 98, , , 0, 0, 0
36.6440352, -118.9467531, 0.600, 10:38:21.452, 13, 0.10, 0.40, 94, 1.400, 1.500, 13.400, 2, 100, 100, 17, 23312, -16477, 5215, 5548, 8, 11, 1523641101.452, 9, 0, 1024, 1024, 1024, 1024, 0, 6, 3843, 3867, 3841, 3897, 3895, 3865, 0, 1, 4602, -89.900, 0.000, 13.500, 0.100, 0.000, -0.500, 0.0, , , , , , 98, , , 0, 0, 0
36.6440352, -118.9467531, 0.600, 10:38:21.551, 13, 0.10, 0.40, 94, 1.400, 1.500, 13.400, 2, 100, 100, 17, 23312, -16477, 5215, 5548, 8, 11, 1523641101.552, 109, 0, 1024, 1024, 1024, 1024, 0, 6, 3843, 3867, 3841, 3897, 3895, 3865, 0, 1, 4702, -89.900, 0.000, 13.500, 0.100, 0.000, -0.500, 0.0, , , , , , 98, , , 0, 0, 0
36.6440353, -118.9467532, 0.600, 10:38:21.651, 13, 0.00, 0.41, 94, 1.600, 1.500, 13.300, 2, 100, 100, 17, 23312, -16477, 5215, 5548, 8, 11, 1523641101.652, 82, 0, 1024, 1024, 1024, 1024, 0, 6, 3843, 3867, 3841, 3897, 3895, 3865, 0, 1, 4801, -89.900, 0.000, 13.500, 0.000, 0.000, -0.500, 0.0, , , , , , 98, , , 0, 0, 0
36.6440354, -118.9467533, 0.700, 10:38:21.751, 13, 0.00, 0.42, 94, 1.800, 1.400, 13.100, 2, 100, 100, 17, 23312, -16477, 5215, 5548, 8, 11, 1523641101.752, 89, 0, 1024, 1024, 1024, 1024, 0, 6, 3843, 3867, 3841, 3897, 3895, 3865, 0, 1, 4901, -89.900, 0.000, 13.500, 0.000, 0.000, -0.500, 0.0, , , , , , 98, , , 0, 0, 0
36.6440355, -118.9467534, 0.800, 10:38:21.850, 13, 0.00, 0.44, 94, 2.000, 1.600, 13.000, 2, 100, 100, 17, 23312, -16477, 5215, 5548, 8, 11, 1523641101.851, 96, 0, 1024, 1024, 1024, 1024, 0, 6, 3843, 3867, 3841, 3897, 3895, 3865, 0, 1, 5000, -89.900, 0.000, 13.500, 0.000, 0.000, -0.500, 0.0, , , , , , 98, , , 0, 0, 0
36.6440357, -118.9467535, 0.800, 10:38:21.951, 12, 0.00, 0.46, 94, 2.100, 1.900, 13.000, 2, 100, 100, 17, 23312, -16477, 5215, 5548, 8, 11, 1523641101.951, 96, 0, 1024, 1024, 1024, 1024, 0, 6, 3843, 3867, 3841, 3897, 3895, 3865, 0, 1, 5101, -89.900, 0.000, 13.500, 0.000, 0.000, -0.500, 0.0, , , , , , 98, , , 0, 0, 0
36.6440358, -118.9467535, 0.900, 10:38:22.051, 12, 0.00, 0.47, 94, 2.100, 2.200, 13.000, 2, 100, 100, 17, 23312, -16477, 5215, 5548, 8, 11, 1523641102.052, 82, 0, 1024, 1024, 1024, 1024, 0, 6, 3843, 3867, 3841, 3897, 3895, 3865, 0, 1, 5201, -89.900, 0.000, 13.500, 0.000, 0.000, -0.500, 0.0, , , , , , 98, , , 0, 0, 0
36.6440359, -118.9467535, 0.900, 10:38:22.151, 13, 0.00, 0.48, 94, 2.100, 2.500, 13.000, 2, 100, 100, 17, 23312, -16477, 5215, 5548, 8, 14, 1523641102.151, 70, 0, 1024, 1024, 1024, 1024, 0, 6, 3843, 3867, 3841, 3897, 3895, 3865, 0, 1, 5301, -89.900, 0.000, 13.500, 0.000, 0.000, -0.400, 0.0, , , , , , 98, , , 0, 0, 0
36.6440361, -118.9467535, 1.000, 10:38:22.251, 12, 0.00, 0.49, 94, 0.800, 1.800, 13.000, 2, 100, 100, 17, 23312, -16477, 5215, 5548, 8, 14, 1523641102.252, 68, 0, 1024, 1024, 1024, 1024, 0, 6, 3843, 3867, 3841, 3897, 3895, 3865, 0, 1, 5401, -89.900, 0.000, 13.500, 0.000, 0.000, -0.200, 0.0, , , , , , 98, , , 0, 0, 0
36.6440360, -118.9467535, 1.000, 10:38:22.350, 12, 0.00, 0.48, 94, 0.300, 1.200, 13.000, 2, 100, 100, 17, 23312, -16477, 5215, 5548, 8, 14, 1523641102.351, 53, 0, 1024, 1024, 1024, 1024, 0, 6, 3843, 3867, 3841, 3897, 3895, 3865, 0, 1, 5500, -90.000, 0.000, 13.500, 0.000, 0.000, -0.300, 0.0, , , , , , 98, , , 0, 0, 0
36.6440360, -118.9467534, 1.000, 10:38:22.451, 13, 0.00, 0.48, 94, 0.000, 0.900, 13.200, 2, 100, 100, 17, 23069, -16743, 5215, 5548, 8, 14, 1523641102.452, 70, 0, 1024, 1024, 1024, 1024, 0, 6, 3843, 3867, 3841, 3897, 3895, 3865, 0, 1, 5601, -90.000, 0.000, 13.500, 0.000, 0.000, -0.400, 0.0, , , , , , 98, , , 0, 0, 0
36.6440361, -118.9467534, 1.100, 10:38:22.551, 13, 0.00, 0.49, 94, 0.000, 0.800, 13.400, 2, 100, 100, 17, 23069, -16743, 5215, 5548, 8, 14, 1523641102.553, 69, 0, 1024, 1024, 1024, 1024, 0, 6, 3843, 3867, 3841, 3897, 3895, 3865, 0, 1, 5703, -89.900, 0.000, 13.500, 0.000, 0.000, -0.400, 0.0, , , , , , 98, , , 0, 0, 0
36.6440362, -118.9467533, 1.100, 10:38:22.651, 12, 0.00, 0.50, 94, 0.000, 1.000, 13.800, 2, 100, 100, 17, 23069, -16743, 5215, 5548, 8, 14, 1523641102.652, 71, 0, 1024, 1024, 1024, 1024, 0, 6, 3843, 3867, 3841, 3897, 3895, 3865, 0, 1, 5801, -89.900, 0.000, 13.500, 0.000, 0.000, -0.600, 0.0, , , , , , 98, , , 0, 0, 0
36.6440363, -118.9467533, 1.200, 10:38:22.751, 12, 0.00, 0.50, 94, 0.300, 1.200, 14.200, 2, 100, 100, 17, 23069, -16743, 5215, 5548, 8, 14, 1523641102.752, 72, 0, 1024, 1024, 1024, 1024, 0, 6, 3843, 3867, 3841, 3897, 3895, 3865, 0, 1, 5901, -89.900, 0.000, 13.500, 0.000, 0.000, -0.800, 0.0, , , , , , 98, , , 0, 0, 0
36.6440364, -118.9467533, 1.300, 10:38:22.850, 13, 0.00, 0.51, 94, 0.400, 1.400, 14.700, 2, 100, 100, 17, 23069, -16743, 5215, 5548, 8, 14, 1523641102.851, 54, 0, 1024, 1024, 1024, 1024, 0, 6, 3843, 3867, 3841, 3897, 3895, 3865, 0, 1, 6000, -89.900, 0.000, 13.500, 0.000, 0.000, -1.000, 0.0, , , , , , 98, , , 0, 0, 0
36.6440365, -118.9467534, 1.400, 10:38:22.951, 13, 0.00, 0.52, 94, 0.500, 1.400, 15.100, 2, 100, 98, 17, 23069, -16743, 5215, 5548, 8, 14, 1523641102.952, 66, 0, 1024, 1024, 1024, 1024, 0, 6, 3843, 3867, 3841, 3897, 3895, 3865, 0, 1, 6101, -89.900, 0.000, 13.500, 0.000, 0.000, -1.200, 0.0, , , , , , 98, , , 0, 0, 0
36.6440366, -118.9467535, 1.500, 10:38:23.051, 13, 0.00, 0.54, 94, 0.700, 1.500, 15.300, 2, 100, 98, 17, 23069, -16743, 5215, 5548, 8, 14, 1523641103.052, 34, 0, 1024, 1024, 1024, 1024, 0, 6, 3843, 3867, 3841, 3897, 3895, 3865, 0, 1, 6201, -89.900, 0.000, 13.500, 0.000, 0.000, -1.400, 0.0, , , , , , 98, , , 0, 0, 0
36.6440367, -118.9467536, 1.700, 10:38:23.151, 13, 0.00, 0.55, 94, 0.900, 1.700, 15.500, 2, 100, 98, 17, 23069, -16743, 5215, 5548, 8, 14, 1523641103.152, 38, 0, 1024, 1024, 1024, 1024, 0, 6, 3843, 3867, 3841, 3897, 3895, 3865, 0, 1, 6301, -89.900, 0.000, 13.600, 0.000, 0.000, -1.600, 0.0, , , , , , 98, , , 0, 0, 0
36.6440368, -118.9467537, 1.900, 10:38:23.251, 13, 0.00, 0.57, 94, 1.000, 1.800, 15.500, 2, 100, 98, 17, 23069, -16743, 5215, 5548, 8, 14, 1523641103.252, 44, 0, 1024, 1024, 1024, 1024, 0, 6, 3843, 3867, 3841, 3897, 3895, 3865, 0, 1, 6401, -89.900, 0.000, 13.600, 0.000, 0.000, -1.800, 0.0, , , , , , 98, , , 0, 0, 0
36.6440368, -118.9467538, 2.100, 10:38:23.350, 13, 0.00, 0.57, 94, 1.200, 1.600, 15.500, 2, 100, 98, 17, 23069, -16743, 5215, 5548, 8, 14, 1523641103.351, 19, 0, 1024, 1024, 1024, 1024, 0, 6, 3818, 3834, 3822, 3873, 3884, 3829, 0, 1, 6500, -89.900, 0.000, 13.600, 0.000, 0.000, -2.000, 0.0, , , , , , 98, , , 0, 0, 0
36.6440368, -118.9467540, 2.300, 10:38:23.451, 13, 0.00, 0.58, 94, 1.400, 1.300, 15.400, 2, 100, 97, 17, 23069, -16743, 5215, 5548, 8, 14, 1523641103.452, 31, 0, 1024, 1024, 1024, 1024, 0, 6, 3818, 3834, 3822, 3873, 3884, 3829, 0, 1, 6601, -89.900, 0.000, 13.700, 0.000, 0.000, -2.300, 0.0, , , , , , 98, , , 0, 0, 0
36.6440367, -118.9467541, 2.500, 10:38:23.551, 13, 0.00, 0.58, 94, 1.500, 1.100, 15.300, 2, 100, 97, 17, 23069, -16743, 5215, 5548, 8, 14, 1523641103.552, 35, 0, 1024, 1024, 1024, 1024, 0, 6, 3818, 3834, 3822, 3873, 3884, 3829, 0, 1, 6701, -90.000, 0.000, 13.700, 0.000, 0.000, -2.500, 0.0, , , , , , 98, , , 0, 0, 0
36.6440366, -118.9467542, 2.800, 10:38:23.651, 12, 0.00, 0.58, 94, 1.500, 1.100, 15.100, 2, 100, 97, 17, 23069, -16743, 5215, 5548, 8, 14, 1523641103.652, 39, 0, 1024, 1024, 1024, 1024, 0, 6, 3818, 3834, 3822, 3873, 3884, 3829, 0, 1, 6801, -89.900, 0.000, 13.700, 0.000, 0.000, -2.700, 0.0, , , , , , 98, , , 0, 0, 0
36.6440365, -118.9467543, 3.100, 10:38:23.751, 12, 0.00, 0.57, 94, 1.500, 1.000, 14.900, 2, 100, 97, 17, 23069, -16743, 5215, 5548, 8, 14, 1523641103.752, 21, 0, 1024, 1024, 1024, 1024, 0, 6, 3818, 3834, 3822, 3873, 3884, 3829, 0, 1, 6901, -90.000, 0.000, 13.700, 0.000, 0.000, -2.900, 0.0, , , , , , 98, , , 0, 0, 0
36.6440365, -118.9467543, 3.100, 10:38:23.850, 12, 0.00, 0.57, 94, 1.500, 1.000, 14.900, 2, 100, 97, 17, 23069, -16743, 5215, 5548, 8, 14, 1523641103.851, 120, 0, 1024, 1024, 1024, 1024, 0, 6, 3818, 3834, 3822, 3873, 3884, 3829, 0, 1, 7000, -90.000, 0.000, 13.700, 0.000, 0.000, -2.900, 0.0, , , , , , 98, , , 0, 0, 0
36.6440361, -118.9467545, 3.700, 10:38:23.951, 11, 0.00, 0.56, 94, 1.300, 0.400, 14.800, 2, 100, 97, 17, 22978, -17279, 5215, 5548, 8, 14, 1523641103.952, 15, 0, 1024, 1024, 1024, 1024, 0, 6, 3795, 3792, 3822, 3844, 3839, 3777, 0, 1, 7101, -90.000, 0.000, 13.800, 0.000, 0.000, -3.100, 0.0, , , , , , 98, , , 0, 0, 0
36.6440360, -118.9467546, 4.100, 10:38:24.050, 14, 0.00, 0.55, 94, 1.500, 0.200, 14.800, 2, 100, 97, 17, 22978, -17279, 5215, 5548, 8, 14, 1523641104.051, 8, 0, 1024, 1024, 1024, 1024, 0, 6, 3795, 3792, 3822, 3844, 3839, 3777, 0, 1, 7200, -90.000, 0.000, 13.800, 0.000, 0.000, -3.200, 0.0, , , , , , 98, , , 0, 0, 0
36.6440359, -118.9467548, 4.400, 10:38:24.168, 14, 0.00, 0.56, 94, 1.700, 0.000, 15.000, 2, 100, 97, 17, 22978, -17279, 5215, 5548, 8, 14, 1523641104.168, 5, 0, 1024, 1024, 1024, 1024, 0, 6, 3795, 3792, 3822, 3844, 3839, 3777, 0, 1, 7317, -90.000, 0.000, 13.800, 0.000, 0.000, -3.200, 0.0, , , , , , 98, , , 0, 0, 0
36.6440358, -118.9467549, 4.700, 10:38:24.250, 14, 0.00, 0.56, 94, 1.600, 0.000, 15.100, 2, 100, 97, 17, 22978, -17279, 5215, 5548, 8, 14, 1523641104.251, 9, 0, 1024, 1024, 1024, 1024, 0, 6, 3795, 3792, 3822, 3844, 3839, 3777, 0, 1, 7400, -90.000, 0.000, 13.900, 0.000, 0.000, -3.200, 0.0, , , , , , 98, , , 0, 0, 0
36.6440359, -118.9467550, 5.100, 10:38:24.350, 14, 0.00, 0.57, 94, 1.400, -0.100, 15.300, 2, 100, 100, 17, 22978, -17279, 5215, 5548, 8, 14, 1523641104.351, 12, 0, 1024, 1024, 1024, 1024, 0, 6, 3795, 3792, 3822, 3844, 3839, 3777, 0, 1, 7500, -89.900, 0.000, 13.900, 0.000, 0.000, -3.200, 0.0, , , , , , 98, , , 0, 0, 0
36.6440359, -118.9467550, 5.100, 10:38:24.451, 14, 0.00, 0.57, 94, 1.400, -0.100, 15.300, 2, 100, 100, 17, 22978, -17279, 5215, 5548, 8, 14, 1523641104.452, 113, 0, 1024, 1024, 1024, 1024, 0, 6, 3795, 3792, 3822, 3844, 3839, 3777, 0, 1, 7601, -89.900, 0.000, 13.900, 0.000, 0.000, -3.200, 0.0, , , , , , 98, , , 0, 0, 0
36.6440359, -118.9467551, 5.400, 10:38:24.551, 14, 0.00, 0.58, 94, 1.500, 0.000, 15.400, 2, 100, 100, 17, 22978, -17279, 5215, 5548, 8, 14, 1523641104.552, 93, 0, 1024, 1024, 1024, 1024, 0, 6, 3795, 3792, 3822, 3844, 3839, 3777, 0, 1, 7701, -89.900, 0.000, 13.900, 0.000, 0.000, -3.200, 0.0, , , , , , 98, , , 0, 0, 0
36.6440360, -118.9467551, 6.100, 10:38:24.651, 13, 0.00, 0.59, 94, 1.600, 0.600, 15.500, 2, 100, 100, 17, 22978, -17279, 5215, 5548, 8, 14, 1523641104.652, 84, 0, 1024, 1024, 1024, 1024, 0, 6, 3795, 3792, 3822, 3844, 3839, 3777, 0, 1, 7801, -89.900, 0.000, 14.000, 0.000, 0.000, -3.200, 0.0, , , , , , 98, , , 0, 0, 0
36.6440360, -118.9467551, 6.100, 10:38:24.750, 13, 0.00, 0.59, 94, 1.600, 0.600, 15.500, 2, 100, 100, 17, 22978, -17279, 5215, 5548, 8, 14, 1523641104.751, 183, 0, 1024, 1024, 1024, 1024, 0, 6, 3795, 3792, 3822, 3844, 3839, 3777, 0, 1, 7900, -89.900, 0.000, 14.000, 0.000, 0.000, -3.200, 0.0, , , , , , 98, , , 0, 0, 0
36.6440362, -118.9467551, 6.400, 10:38:24.850, 13, 0.00, 0.60, 94, 1.700, 1.000, 15.400, 2, 100, 100, 17, 22978, -17279, 5215, 5548, 8, 14, 1523641104.851, 72, 0, 1024, 1024, 1024, 1024, 0, 6, 3795, 3792, 3822, 3844, 3839, 3777, 0, 1, 8000, -89.900, 0.000, 14.000, 0.000, 0.000, -3.200, 0.0, , , , , , 98, , , 0, 0, 0
36.6440363, -118.9467549, 6.800, 10:38:24.951, 14, 0.00, 0.60, 94, 1.500, 1.400, 15.300, 2, 100, 100, 17, 22317, -23527, 5215, 5548, 8, 14, 1523641104.951, 64, 0, 1024, 1024, 1024, 1024, 0, 6, 3694, 3702, 3696, 3739, 3747, 3691, 0, 1, 8101, -89.900, 0.000, 14.000, 0.000, 0.000, -3.200, 0.0, , , , , , 98, , , 0, 0, 0
36.6440367, -118.9467545, 7.400, 10:38:25.051, 14, 0.00, 0.60, 94, 0.700, 2.200, 15.200, 2, 100, 100, 17, 22317, -23527, 5215, 5548, 8, 14, 1523641105.052, 32, 0, 1024, 1024, 1024, 1024, 0, 6, 3694, 3702, 3696, 3739, 3747, 3691, 0, 1, 8201, -89.900, 0.000, 14.000, 0.000, 0.000, -3.100, 0.0, , , , , , 98, , , 0, 0, 0
36.6440368, -118.9467544, 7.800, 10:38:25.151, 14, 0.00, 0.61, 94, 0.300, 2.500, 15.200, 2, 100, 100, 17, 22317, -23527, 5215, 5548, 8, 14, 1523641105.152, 40, 0, 1024, 1024, 1024, 1024, 0, 6, 3694, 3702, 3696, 3739, 3747, 3691, 0, 1, 8301, -89.900, 0.000, 14.100, 0.000, 0.000, -3.100, 0.0, , , , , , 98, , , 0, 0, 0
36.6440370, -118.9467542, 8.100, 10:38:25.251, 14, 0.00, 0.61, 94, 0.000, 2.700, 15.300, 2, 100, 100, 17, 22317, -23527, 5215, 5548, 8, 14, 1523641105.252, 59, 0, 1024, 1024, 1024, 1024, 0, 6, 3694, 3702, 3696, 3739, 3747, 3691, 0, 1, 8401, -89.900, 0.000, 14.100, 0.000, 0.000, -3.100, 0.0, , , , , , 98, , , 0, 0, 0
36.6440372, -118.9467540, 8.400, 10:38:25.350, 14, 0.00, 0.62, 94, 0.200, 2.900, 15.400, 2, 100, 100, 17, 22317, -23527, 5215, 5548, 8, 14, 1523641105.351, 59, 0, 1024, 1024, 1024, 1024, 0, 6, 3694, 3702, 3696, 3739, 3747, 3691, 0, 1, 8500, -89.900, 0.000, 14.100, 0.000, 0.000, -3.100, 0.0, , , , , , 98, , , 0, 0, 0
36.6440373, -118.9467538, 8.800, 10:38:25.451, 14, 0.00, 0.62, 94, 0.400, 2.900, 15.500, 2, 100, 100, 17, 22317, -23527, 5215, 5548, 8, 14, 1523641105.452, 22, 0, 1024, 1024, 1024, 1024, 0, 6, 3694, 3702, 3696, 3739, 3747, 3691, 0, 1, 8601, -89.900, 0.000, 14.100, 0.000, 0.000, -3.100, 0.0, , , , , , 98, , , 0, 0, 0
36.6440375, -118.9467537, 9.100, 10:38:25.551, 14, 0.00, 0.63, 94, 0.600, 2.700, 15.600, 2, 100, 100, 17, 22317, -23527, 5215, 5548, 8, 14, 1523641105.552, 34, 0, 1024, 1024, 1024, 1024, 0, 6, 3694, 3702, 3696, 3739, 3747, 3691, 0, 1, 8701, -89.900, 0.000, 14.100, 0.000, 0.000, -3.000, 0.0, , , , , , 98, , , 0, 0, 0
36.6440376, -118.9467535, 9.400, 10:38:25.651, 14, 0.00, 0.63, 94, 0.600, 2.600, 15.600, 2, 100, 100, 17, 22317, -23527, 5215, 5548, 8, 14, 1523641105.652, 24, 0, 1024, 1024, 1024, 1024, 0, 6, 3694, 3702, 3696, 3739, 3747, 3691, 0, 1, 8801, -89.900, 0.000, 14.100, 0.000, 0.000, -2.900, 0.0, , , , , , 98, , , 0, 0, 0
36.6440377, -118.9467533, 9.700, 10:38:25.751, 14, 0.00, 0.63, 94, 0.400, 2.700, 15.600, 2, 100, 100, 17, 22317, -23527, 5215, 5548, 8, 14, 1523641105.752, 38, 0, 1024, 1024, 1024, 1024, 0, 6, 3694, 3702, 3696, 3739, 3747, 3691, 0, 1, 8901, -89.900, 0.000, 14.100, 0.000, 0.000, -2.900, 0.0, , , , , , 98, , , 0, 0, 0
36.6440378, -118.9467531, 10.000, 10:38:25.850, 14, 0.00, 0.64, 94, 0.200, 2.900, 15.600, 2, 100, 100, 17, 22518, -20225, 5215, 5548, 8, 14, 1523641105.851, 27, 0, 1024, 1024, 1024, 1024, 0, 6, 3733, 3746, 3732, 3793, 3804, 3749, 0, 1, 9000, -89.900, 0.000, 14.200, 0.000, 0.000, -2.900, 0.0, , , , , , 98, , , 0, 0, 0
36.6440379, -118.9467529, 10.300, 10:38:25.951, 14, 0.00, 0.64, 94, 0.200, 2.700, 15.600, 2, 100, 100, 17, 22518, -20225, 5215, 5548, 8, 14, 1523641105.952, 22, 0, 1024, 1024, 1024, 1024, 0, 6, 3733, 3746, 3732, 3793, 3804, 3749, 0, 1, 9101, -89.900, 0.000, 14.200, 0.000, 0.000, -2.900, 0.0, , , , , , 98, , , 0, 0, 0
36.6440380, -118.9467527, 10.600, 10:38:26.051, 14, 0.00, 0.64, 94, 0.000, 2.500, 15.500, 2, 100, 100, 17, 22518, -20225, 5215, 5548, 8, 14, 1523641106.052, 13, 0, 1024, 1024, 1024, 1024, 0, 6, 3733, 3746, 3732, 3793, 3804, 3749, 0, 1, 9201, -89.900, 0.000, 14.200, 0.000, 0.000, -3.000, 0.0, , , , , , 98, , , 0, 0, 0
36.6440380, -118.9467525, 11.000, 10:38:26.165, 14, 0.00, 0.64, 94, -0.200, 2.400, 15.400, 2, 100, 100, 17, 22518, -20225, 5215, 5548, 8, 14, 1523641106.165, 5, 0, 1024, 1024, 1024, 1024, 0, 6, 3733, 3746, 3732, 3793, 3804, 3749, 0, 1, 9314, -89.900, 0.000, 14.200, 0.000, 0.000, -3.000, 0.0, , , , , , 98, , , 0, 0, 0
36.6440381, -118.9467524, 11.300, 10:38:26.254, 15, 0.00, 0.64, 94, -0.400, 2.600, 15.300, 2, 100, 100, 17, 22518, -20225, 5215, 5548, 8, 14, 1523641106.255, 6, 0, 1024, 1024, 1024, 1024, 0, 6, 3733, 3746, 3732, 3793, 3804, 3749, 0, 1, 9404, -89.900, 0.000, 14.200, 0.000, 0.000, -2.900, 0.0, , , , , , 98, , , 0, 0, 0
36.6440382, -118.9467523, 11.600, 10:38:26.351, 15, 0.00, 0.65, 94, -0.500, 2.700, 15.300, 2, 100, 100, 17, 22518, -20225, 5215, 5548, 8, 14, 1523641106.351, 17, 0, 1024, 1024, 1024, 1024, 0, 6, 3733, 3746, 3732, 3793, 3804, 3749, 0, 1, 9501, -89.900, 0.000, 14.300, 0.000, 0.000, -2.900, 0.0, , , , , , 98, , , 0, 0, 0
36.6440382, -118.9467523, 11.600, 10:38:26.451, 15, 0.00, 0.65, 94, -0.500, 2.700, 15.300, 2, 100, 100, 17, 22518, -20225, 5215, 5548, 8, 14, 1523641106.452, 117, 0, 1024, 1024, 1024, 1024, 0, 6, 3733, 3746, 3732, 3793, 3804, 3749, 0, 1, 9601, -89.900, 0.000, 14.300, 0.000, 0.000, -2.900, 0.0, , , , , , 98, , , 0, 0, 0
36.6440383, -118.9467522, 11.900, 10:38:26.551, 16, 0.00, 0.65, 94, -0.200, 2.800, 15.300, 2, 100, 100, 17, 22518, -20225, 5215, 5548, 8, 14, 1523641106.551, 67, 0, 1024, 1024, 1024, 1024, 0, 6, 3733, 3746, 3732, 3793, 3804, 3749, 0, 1, 9700, -89.900, 0.000, 14.300, 0.000, 0.000, -3.000, 0.0, , , , , , 98, , , 0, 0, 0
36.6440383, -118.9467521, 12.200, 10:38:26.651, 16, 0.00, 0.65, 94, 0.000, 3.000, 15.300, 2, 100, 100, 17, 22518, -20225, 5215, 5548, 8, 14, 1523641106.652, 83, 0, 1024, 1024, 1024, 1024, 0, 6, 3733, 3746, 3732, 3793, 3804, 3749, 0, 1, 9801, -89.900, 0.000, 14.300, 0.000, 0.000, -3.000, 0.0, , , , , , 98, , , 0, 0, 0
36.6440384, -118.9467521, 12.500, 10:38:26.751, 16, 0.00, 0.66, 94, 0.000, 3.000, 15.300, 2, 100, 100, 17, 22518, -20225, 5215, 5548, 8, 14, 1523641106.751, 86, 0, 1024, 1024, 1024, 1024, 0, 6, 3733, 3746, 3732, 3793, 3804, 3749, 0, 1, 9901, -89.900, 0.000, 14.300, 0.000, 0.000, -3.000, 0.0, , , , , , 98, , , 0, 0, 0
36.6440385, -118.9467521, 12.800, 10:38:26.850, 16, 0.00, 0.67, 94, 0.000, 2.900, 15.300, 2, 100, 100, 17, 22518, -20225, 5215, 5548, 8, 14, 1523641106.851, 62, 0, 1024, 1024, 1024, 1024, 0, 6, 3733, 3746, 3732, 3793, 3804, 3749, 0, 1, 10000, -89.900, 0.000, 14.300, 0.000, 0.000, -3.000, 0.0, , , , , , 98, , , 0, 0, 0
36.6440385, -118.9467521, 12.800, 10:38:26.951, 16, 0.00, 0.67, 94, 0.000, 2.900, 15.300, 2, 100, 96, 17, 22594, -18825, 5159, 5548, 8, 14, 1523641106.952, 163, 0, 1024, 1024, 1024, 1024, 0, 6, 3733, 3746, 3732, 3793, 3804, 3749, 0, 1, 10101, -89.900, 0.000, 14.300, 0.000, 0.000, -3.000, 0.0, , , , , , 98, , , 0, 0, 0
36.6440385, -118.9467521, 13.800, 10:38:27.050, 15, 0.00, 0.68, 94, 0.700, 2.400, 15.500, 2, 100, 96, 17, 22594, -18825, 5159, 5548, 8, 14, 1523641107.051, 54, 0, 1024, 1024, 1024, 1024, 0, 6, 3738, 3753, 3739, 3784, 3808, 3734, 0, 1, 10200, -89.900, 0.000, 14.300, 0.000, 0.000, -2.900, 0.0, , , , , , 98, , , 0, 0, 0
36.6440385, -118.9467521, 14.100, 10:38:27.151, 15, 0.10, 0.67, 94, 0.800, 2.400, 15.500, 2, 100, 96, 17, 22594, -18825, 5159, 5548, 8, 14, 1523641107.152, 69, 0, 1024, 1024, 1024, 1024, 0, 6, 3738, 3753, 3739, 3784, 3808, 3734, 0, 1, 10301, -89.900, 0.000, 14.300, -0.100, 0.000, -2.900, 0.0, , , , , , 98, , , 0, 0, 0
36.6440384, -118.9467520, 14.400, 10:38:27.251, 16, 0.10, 0.67, 94, 0.500, 2.400, 15.600, 2, 100, 96, 17, 22594, -18825, 5159, 5548, 8, 14, 1523641107.252, 61, 0, 1024, 1024, 1024, 1024, 0, 6, 3738, 3753, 3739, 3784, 3808, 3734, 0, 1, 10401, -89.900, 0.000, 14.300, -0.100, 0.000, -2.800, 0.0, , , , , , 98, , , 0, 0, 0
36.6440384, -118.9467520, 14.700, 10:38:27.350, 16, 0.10, 0.66, 94, 0.000, 2.200, 15.600, 2, 100, 96, 17, 22594, -18825, 5159, 5548, 8, 14, 1523641107.351, 69, 0, 1024, 1024, 1024, 1024, 0, 6, 3738, 3753, 3739, 3784, 3808, 3734, 0, 1, 10500, -89.900, 0.000, 14.300, -0.100, 0.000, -2.800, 0.0, , , , , , 98, , , 0, 0, 0
36.6440383, -118.9467519, 15.000, 10:38:27.451, 15, 0.10, 0.65, 94, -0.700, 2.100, 15.500, 2, 100, 96, 17, 22594, -18825, 5159, 5548, 8, 14, 1523641107.452, 66, 0, 1024, 1024, 1024, 1024, 0, 6, 3738, 3753, 3739, 3784, 3808, 3734, 0, 1, 10601, -89.900, 0.000, 14.300, -0.100, 0.000, -2.800, 0.0, , , , , , 98, , , 0, 0, 0
36.6440382, -118.9467518, 15.200, 10:38:27.551, 15, 0.10, 0.64, 94, -1.100, 2.100, 15.300, 2, 100, 96, 17, 22594, -18825, 5159, 5548, 8, 14, 1523641107.551, 56, 0, 1024, 1024, 1024, 1024, 0, 6, 3738, 3753, 3739, 3784, 3808, 3734, 0, 1, 10700, -89.900, 0.000, 14.300, -0.100, 0.000, -2.800, 0.0, , , , , , 98, , , 0, 0, 0
36.6440382, -118.9467518, 15.500, 10:38:27.651, 15, 0.10, 0.63, 94, -1.000, 2.100, 15.200, 2, 100, 96, 17, 22594, -18825, 5159, 5548, 8, 14, 1523641107.651, 58, 0, 1024, 1024, 1024, 1024, 0, 6, 3738, 3753, 3739, 3784, 3808, 3734, 0, 1, 10801, -89.900, 0.000, 14.300, -0.100, 0.000, -2.800, 0.0, , , , , , 98, , , 0, 0, 0
36.6440381, -118.9467518, 15.800, 10:38:27.751, 15, 0.10, 0.62, 94, -0.800, 2.000, 15.200, 2, 100, 96, 17, 22594, -18825, 5159, 5548, 8, 14, 1523641107.752, 58, 0, 1024, 1024, 1024, 1024, 0, 6, 3738, 3753, 3739, 3784, 3808, 3734, 0, 1, 10901, -89.900, 0.000, 14.300, -0.100, 0.000, -2.800, 0.0, , , , , , 98, , , 0, 0, 0
36.6440380, -118.9467519, 16.100, 10:38:27.850, 15, 0.10, 0.61, 93, -0.400, 2.000, 15.200, 2, 100, 96, 17, 22454, -20513, 5159, 5548, 8, 14, 1523641107.851, 35, 0, 1024, 1024, 1024, 1024, 0, 6, 3738, 3753, 3739, 3784, 3808, 3734, 0, 1, 11000, -89.900, 0.000, 14.300, -0.100, 0.000, -2.900, 0.0, , , , , , 98, , , 0, 0, 0
36.6440379, -118.9467520, 16.400, 10:38:27.951, 15, 0.10, 0.61, 93, 0.000, 2.200, 15.200, 2, 100, 96, 17, 22454, -20513, 5159, 5548, 8, 14, 1523641107.952, 23, 0, 1024, 1024, 1024, 1024, 0, 6, 3738, 3753, 3739, 3784, 3808, 3734, 0, 1, 11101, -89.900, 0.000, 14.300, -0.100, 0.000, -2.900, 0.0, , , , , , 98, , , 0, 0, 0
36.6440379, -118.9467521, 16.700, 10:38:28.051, 15, 0.10, 0.61, 93, 0.300, 2.300, 15.300, 2, 100, 96, 17, 22454, -20513, 5159, 5548, 8, 14, 1523641108.052, 18, 0, 1024, 1024, 1024, 1024, 0, 6, 3738, 3753, 3739, 3784, 3808, 3734, 0, 1, 11201, -89.900, 0.000, 14.300, -0.100, 0.000, -2.900, 0.0, , , , , , 98, , , 0, 0, 0
36.6440378, -118.9467522, 17.000, 10:38:28.151, 15, 0.10, 0.60, 93, 0.300, 2.200, 15.300, 2, 100, 96, 17, 22454, -20513, 5159, 5548, 8, 14, 1523641108.152, 17, 0, 1024, 1024, 1024, 1024, 0, 6, 3738, 3753, 3739, 3784, 3808, 3734, 0, 1, 11301, -89.900, 0.000, 14.300, -0.100, 0.000, -3.000, 0.0, , , , , , 98, , , 0, 0, 0
36.6440377, -118.9467522, 17.300, 10:38:28.251, 16, 0.10, 0.60, 93, 0.200, 2.000, 15.300, 2, 100, 96, 17, 22454, -20513, 5159, 5548, 8, 14, 1523641108.252, 16, 0, 1024, 1024, 1024, 1024, 0, 6, 3738, 3753, 3739, 3784, 3808, 3734, 0, 1, 11401, -89.900, 0.000, 14.300, -0.100, 0.000, -3.000, 0.0, , , , , , 98, , , 0, 0, 0
36.6440377, -118.9467523, 17.600, 10:38:28.350, 16, 0.10, 0.59, 93, 0.100, 1.700, 15.200, 2, 100, 96, 17, 22454, -20513, 5159, 5548, 8, 14, 1523641108.351, 29, 0, 1024, 1024, 1024, 1024, 0, 6, 3701, 3710, 3714, 3778, 3790, 3725, 0, 1, 11500, -89.900, 0.000, 14.300, -0.100, 0.000, -2.900, 0.0, , , , , , 98, , , 0, 0, 0
36.6440375, -118.9467524, 17.900, 10:38:28.450, 16, 0.10, 0.58, 93, 0.000, 1.500, 15.100, 2, 100, 100, 17, 22454, -20513, 5159, 5548, 8, 14, 1523641108.451, 5, 0, 1024, 1024, 1024, 1024, 0, 6, 3701, 3710, 3714, 3778, 3790, 3725, 0, 1, 11600, -89.900, 0.000, 14.300, -0.100, 0.000, -2.800, 0.0, , , , , , 98, , , 0, 0, 0
36.6440374, -118.9467525, 18.200, 10:38:28.551, 16, 0.10, 0.57, 93, 0.000, 1.300, 15.100, 2, 100, 100, 17, 22454, -20513, 5159, 5548, 8, 14, 1523641108.552, 8, 0, 1024, 1024, 1024, 1024, 0, 6, 3701, 3710, 3714, 3778, 3790, 3725, 0, 1, 11701, -90.000, 0.000, 14.300, -0.100, 0.000, -2.900, 0.0, , , , , , 98, , , 0, 0, 0
36.6440374, -118.9467525, 18.200, 10:38:28.651, 16, 0.10, 0.57, 93, 0.000, 1.300, 15.100, 2, 100, 100, 17, 22454, -20513, 5159, 5548, 8, 14, 1523641108.652, 108, 0, 1024, 1024, 1024, 1024, 0, 6, 3701, 3710, 3714, 3778, 3790, 3725, 0, 1, 11801, -90.000, 0.000, 14.300, -0.100, 0.000, -2.900, 0.0, , , , , , 98, , , 0, 0, 0
36.6440373, -118.9467526, 18.500, 10:38:28.751, 16, 0.10, 0.56, 93, 0.000, 0.900, 15.100, 2, 100, 100, 17, 22454, -20513, 5159, 5548, 8, 14, 1523641108.752, 69, 0, 1024, 1024, 1024, 1024, 0, 6, 3701, 3710, 3714, 3778, 3790, 3725, 0, 1, 11901, -90.000, 0.000, 14.300, -0.100, 0.000, -2.900, 0.0, , , , , , 98, , , 0, 0, 0
36.6440373, -118.9467526, 18.500, 10:38:28.850, 16, 0.10, 0.56, 93, 0.000, 0.900, 15.100, 2, 100, 100, 17, 22454, -20513, 5159, 5548, 8, 14, 1523641108.851, 168, 0, 1024, 1024, 1024, 1024, 0, 6, 3701, 3710, 3714, 3778, 3790, 3725, 0, 1, 12000, -90.000, 0.000, 14.300, -0.100, 0.000, -2.900, 0.0, , , , , , 98, , , 0, 0, 0
36.6440371, -118.9467527, 19.100, 10:38:28.951, 16, 0.10, 0.55, 93, 0.000, 0.900, 15.100, 2, 100, 99, 17, 22277, -20513, 5159, 5548, 8, 14, 1523641108.952, 85, 0, 1024, 1024, 1024, 1024, 0, 6, 3701, 3710, 3714, 3778, 3790, 3725, 0, 1, 12101, -89.900, 0.000, 14.300, -0.100, 0.000, -2.900, 0.0, , , , , , 98, , , 0, 0, 0
36.6440370, -118.9467528, 19.400, 10:38:29.051, 16, 0.00, 0.54, 93, 0.000, 0.900, 15.200, 2, 100, 99, 17, 22277, -20513, 5159, 5548, 8, 14, 1523641109.052, 97, 0, 1024, 1024, 1024, 1024, 0, 6, 3701, 3710, 3714, 3778, 3790, 3725, 0, 1, 12201, -89.900, 0.000, 14.300, 0.000, 0.000, -2.900, 0.0, , , , , , 98, , , 0, 0, 0
36.6440369, -118.9467528, 19.700, 10:38:29.151, 15, 0.00, 0.53, 93, 0.000, 1.100, 15.200, 2, 100, 99, 17, 22277, -20513, 5159, 5548, 8, 14, 1523641109.152, 77, 0, 1024, 1024, 1024, 1024, 0, 6, 3701, 3710, 3714, 3778, 3790, 3725, 0, 1, 12301, -89.900, 0.000, 14.300, 0.000, 0.000, -2.900, 0.0, , , , , , 98, , , 0, 0, 0
36.6440367, -118.9467528, 20.200, 10:38:29.251, 16, 0.00, 0.52, 93, 0.000, 1.400, 15.300, 2, 100, 99, 17, 22277, -20513, 5159, 5548, 8, 14, 1523641109.252, 63, 0, 1024, 1024, 1024, 1024, 0, 6, 3701, 3710, 3714, 3778, 3790, 3725, 0, 1, 12401, -89.900, 0.000, 14.300, 0.000, 0.000, -2.900, 0.0, , , , , , 98, , , 0, 0, 0
36.6440366, -118.9467529, 20.600, 10:38:29.350, 16, 0.00, 0.51, 93, 0.000, 1.400, 15.300, 2, 100, 99, 17, 22277, -20513, 5159, 5548, 8, 14, 1523641109.351, 61, 0, 1024, 1024, 1024, 1024, 0, 6, 3701, 3710, 3714, 3778, 3790, 3725, 0, 1, 12500, -89.900, 0.000, 14.300, 0.000, 0.000, -3.000, 0.0, , , , , , 98, , , 0, 0, 0
36.6440365, -118.9467529, 20.900, 10:38:29.451, 16, 0.00, 0.50, 93, -0.200, 1.100, 15.300, 2, 100, 99, 17, 22277, -21085, 5159, 5548, 8, 14, 1523641109.452, 82, 0, 1024, 1024, 1024, 1024, 0, 6, 3679, 3704, 3677, 3744, 3778, 3700, 0, 1, 12601, -90.000, 0.000, 14.300, 0.000, 0.000, -3.000, 0.0, , , , , , 98, , , 0, 0, 0
36.6440364, -118.9467530, 21.200, 10:38:29.551, 16, 0.00, 0.50, 93, -0.200, 0.900, 15.400, 2, 100, 99, 17, 22277, -21085, 5159, 5548, 8, 14, 1523641109.552, 84, 0, 1024, 1024, 1024, 1024, 0, 6, 3679, 3704, 3677, 3744, 3778, 3700, 0, 1, 12701, -90.000, 0.000, 14.300, 0.000, 0.000, -2.900, 0.0, , , , , , 98, , , 0, 0, 0
36.6440364, -118.9467530, 21.500, 10:38:29.651, 16, 0.00, 0.49, 93, -0.200, 1.100, 15.400, 2, 100, 99, 17, 22277, -21085, 5159, 5548, 8, 14, 1523641109.652, 74, 0, 1024, 1024, 1024, 1024, 0, 6, 3679, 3704, 3677, 3744, 3778, 3700, 0, 1, 12802, -89.900, 0.000, 14.300, 0.000, 0.000, -2.900, 0.0, , , , , , 98, , , 0, 0, 0
36.6440363, -118.9467529, 21.700, 10:38:29.751, 16, 0.00, 0.48, 93, -0.200, 1.200, 15.500, 2, 100, 99, 17, 22277, -21085, 5159, 5548, 8, 14, 1523641109.751, 73, 0, 1024, 1024, 1024, 1024, 0, 6, 3679, 3704, 3677, 3744, 3778, 3700, 0, 1, 12900, -89.900, 0.000, 14.300, 0.000, 0.000, -2.900, 0.0, , , , , , 98, , , 0, 0, 0
36.6440363, -118.9467529, 22.100, 10:38:29.850, 16, 0.00, 0.48, 93, -0.400, 1.300, 15.400, 2, 100, 99, 17, 22277, -21085, 5159, 5548, 8, 14, 1523641109.851, 44, 0, 1024, 1024, 1024, 1024, 0, 6, 3679, 3704, 3677, 3744, 3778, 3700, 0, 1, 13000, -89.900, 0.000, 14.300, 0.000, 0.000, -2.900, 0.0, , , , , , 98, , , 0, 0, 0
36.6440363, -118.9467530, 22.400, 10:38:29.951, 16, 0.00, 0.48, 93, -0.800, 1.200, 15.300, 2, 100, 99, 17, 22277, -21085, 5159, 5548, 8, 14, 1523641109.952, 56, 0, 1024, 1024, 1024, 1024, 0, 6, 3679, 3704, 3677, 3744, 3778, 3700, 0, 1, 13101, -89.900, 0.000, 14.300, 0.000, 0.000, -3.000, 0.0, , , , , , 98, , , 0, 0, 0
36.6440363, -118.9467530, 22.700, 10:38:30.051, 16, 0.00, 0.48, 93, -0.700, 1.300, 15.300, 2, 100, 99, 17, 22277, -21085, 5159, 5548, 8, 14, 1523641110.051, 57, 0, 1024, 1024, 1024, 1024, 0, 6, 3679, 3704, 3677, 3744, 3778, 3700, 0, 1, 13201, -89.900, 0.000, 14.300, 0.000, 0.000, -3.000, 0.0, , , , , , 98, , , 0, 0, 0
36.6440363, -118.9467529, 23.000, 10:38:30.151, 16, 0.00, 0.48, 93, -0.400, 1.400, 15.300, 2, 100, 99, 17, 22277, -21085, 5159, 5548, 8, 14, 1523641110.152, 23, 0, 1024, 1024, 1024, 1024, 0, 6, 3679, 3704, 3677, 3744, 3778, 3700, 0, 1, 13301, -89.900, 0.000, 14.300, 0.000, 0.000, -3.000, 0.0, , , , , , 98, , , 0, 0, 0
36.6440363, -118.9467529, 23.300, 10:38:30.251, 16, 0.00, 0.48, 93, -0.200, 1.700, 15.300, 2, 100, 99, 17, 22277, -21085, 5159, 5548, 8, 14, 1523641110.252, 39, 0, 1024, 1024, 1024, 1024, 0, 6, 3679, 3704, 3677, 3744, 3778, 3700, 0, 1, 13401, -89.900, 0.000, 14.300, 0.000, 0.000, -3.000, 0.0, , , , , , 98, , , 0, 0, 0
36.6440363, -118.9467530, 23.600, 10:38:30.350, 16, 0.00, 0.48, 93, 0.000, 1.800, 15.300, 2, 100, 99, 17, 22208, -21412, 5159, 5548, 8, 14, 1523641110.351, 20, 0, 1024, 1024, 1024, 1024, 0, 6, 3669, 3691, 3670, 3737, 3744, 3682, 0, 1, 13500, -89.900, 0.000, 14.300, 0.000, 0.000, -3.000, 0.0, , , , , , 98, , , 0, 0, 0
36.6440363, -118.9467530, 23.900, 10:38:30.451, 16, 0.00, 0.48, 93, 0.100, 1.900, 15.200, 2, 100, 100, 17, 22208, -21412, 5159, 5548, 8, 14, 1523641110.452, 41, 0, 1024, 1024, 1024, 1024, 0, 6, 3669, 3691, 3670, 3737, 3744, 3682, 0, 1, 13601, -89.900, 0.000, 14.300, 0.000, 0.000, -3.000, 0.0, , , , , , 98, , , 0, 0, 0
36.6440363, -118.9467530, 24.200, 10:38:30.551, 16, 0.00, 0.48, 93, 0.000, 2.100, 15.000, 2, 100, 100, 17, 22208, -21412, 5159, 5548, 8, 14, 1523641110.551, 46, 0, 1024, 1024, 1024, 1024, 0, 6, 3669, 3691, 3670, 3737, 3744, 3682, 0, 1, 13700, -89.900, 0.000, 14.300, 0.000, 0.000, -3.000, 0.0, , , , , , 98, , , 0, 0, 0
36.6440363, -118.9467529, 24.500, 10:38:30.651, 16, 0.00, 0.48, 93, -0.300, 2.000, 14.900, 2, 100, 100, 17, 22208, -21412, 5159, 5548, 8, 14, 1523641110.652, 35, 0, 1024, 1024, 1024, 1024, 0, 6, 3669, 3691, 3670, 3737, 3744, 3682, 0, 1, 13801, -89.900, 0.000, 14.300, 0.000, 0.000, -3.000, 0.0, , , , , , 98, , , 0, 0, 0
36.6440363, -118.9467529, 24.800, 10:38:30.756, 16, 0.00, 0.48, 93, -0.400, 1.900, 14.900, 2, 100, 100, 17, 22208, -21412, 5159, 5548, 8, 14, 1523641110.757, 5, 0, 1024, 1024, 1024, 1024, 0, 6, 3669, 3691, 3670, 3737, 3744, 3682, 0, 1, 13906, -89.900, 0.000, 14.300, 0.000, 0.000, -2.900, 0.0, , , , , , 98, , , 0, 0, 0
36.6440363, -118.9467529, 25.200, 10:38:30.850, 16, 0.00, 0.48, 93, -0.400, 1.800, 14.900, 2, 100, 100, 17, 22208, -21412, 5159, 5548, 8, 14, 1523641110.851, 20, 0, 1024, 1024, 1024, 1024, 0, 6, 3669, 3691, 3670, 3737, 3744, 3682, 0, 1, 14000, -89.900, 0.000, 14.300, 0.000, 0.000, -2.900, 0.0, , , , , , 98, , , 0, 0, 0
36.6440364, -118.9467528, 25.500, 10:38:30.951, 16, 0.00, 0.48, 93, -0.500, 1.800, 14.900, 2, 100, 100, 17, 22208, -21412, 5159, 5548, 8, 14, 1523641110.952, 5, 0, 1024, 1024, 1024, 1024, 0, 6, 3669, 3691, 3670, 3737, 3744, 3682, 0, 1, 14101, -89.900, 0.000, 14.300, 0.000, 0.000, -2.900, 0.0, , , , , , 98, , , 0, 0, 0
36.6440364, -118.9467528, 25.800, 10:38:31.051, 16, 0.00, 0.48, 93, -0.600, 1.900, 15.000, 2, 100, 100, 17, 22208, -21412, 5159, 5548, 8, 14, 1523641111.051, 7, 0, 1024, 1024, 1024, 1024, 0, 6, 3669, 3691, 3670, 3737, 3744, 3682, 0, 1, 14201, -89.900, 0.000, 14.300, 0.000, 0.000, -2.900, 0.0, , , , , , 98, , , 0, 0, 0
36.6440364, -118.9467527, 26.100, 10:38:31.151, 16, 0.00, 0.48, 93, -0.800, 1.900, 15.100, 2, 100, 100, 17, 22208, -21412, 5159, 5548, 8, 14, 1523641111.152, 8, 0, 1024, 1024, 1024, 1024, 0, 6, 3669, 3691, 3670, 3737, 3744, 3682, 0, 1, 14301, -89.900, 0.000, 14.300, 0.000, 0.000, -2.900, 0.0, , , , , , 98, , , 0, 0, 0
36.6440364, -118.9467527, 26.300, 10:38:31.251, 16, 0.00, 0.48, 93, -0.800, 1.900, 15.100, 2, 100, 100, 17, 22208, -21412, 5159, 5548, 8, 14, 1523641111.252, 8, 0, 1024, 1024, 1024, 1024, 0, 6, 3669, 3691, 3670, 3737, 3744, 3682, 0, 1, 14401, -89.900, 0.000, 14.300, 0.000, 0.000, -2.900, 0.0, , , , , , 98, , , 0, 0, 0
36.6440364, -118.9467527, 26.300, 10:38:31.350, 16, 0.00, 0.48, 93, -0.800, 1.900, 15.100, 2, 100, 100, 17, 22208, -21412, 5159, 5548, 8, 14, 1523641111.351, 107, 0, 1024, 1024, 1024, 1024, 0, 6, 3669, 3691, 3670, 3737, 3744, 3682, 0, 1, 14500, -89.900, 0.000, 14.300, 0.000, 0.000, -2.900, 0.0, , , , , , 98, , , 0, 0, 0
36.6440364, -118.9467526, 26.600, 10:38:31.451, 16, 0.00, 0.47, 93, -0.700, 1.800, 15.200, 2, 100, 100, 17, 22218, -20776, 5159, 5548, 8, 14, 1523641111.452, 75, 0, 1024, 1024, 1024, 1024, 0, 6, 3681, 3690, 3678, 3743, 3756, 3693, 0, 1, 14601, -90.000, 0.000, 14.300, 0.000, 0.000, -2.800, 0.0, , , , , , 98, , , 0, 0, 0
36.6440364, -118.9467526, 26.900, 10:38:31.551, 16, 0.00, 0.47, 93, -0.800, 1.700, 15.300, 2, 100, 100, 17, 22218, -20776, 5159, 5548, 8, 14, 1523641111.552, 86, 0, 1024, 1024, 1024, 1024, 0, 6, 3681, 3690, 3678, 3743, 3756, 3693, 0, 1, 14701, -89.900, 0.000, 14.300, 0.000, 0.000, -2.800, 0.0, , , , , , 98, , , 0, 0, 0
36.6440364, -118.9467526, 27.200, 10:38:31.651, 16, 0.00, 0.47, 93, -0.900, 1.600, 15.400, 2, 100, 100, 17, 22218, -20776, 5159, 5548, 8, 14, 1523641111.652, 89, 0, 1024, 1024, 1024, 1024, 0, 6, 3681, 3690, 3678, 3743, 3756, 3693, 0, 1, 14801, -90.000, 0.000, 14.300, 0.000, 0.000, -2.800, 0.0, , , , , , 98, , , 0, 0, 0
36.6440364, -118.9467525, 27.500, 10:38:31.751, 16, 0.00, 0.47, 93, -1.000, 1.600, 15.400, 2, 100, 100, 17, 22218, -20776, 5159, 5548, 8, 14, 1523641111.752, 75, 0, 1024, 1024, 1024, 1024, 0, 6, 3681, 3690, 3678, 3743, 3756, 3693, 0, 1, 14901, -89.900, 0.000, 14.300, 0.000, 0.000, -2.800, 0.0, , , , , , 98, , , 0, 0, 0
36.6440363, -118.9467524, 28.100, 10:38:31.850, 16, 0.00, 0.46, 93, -1.200, 1.400, 15.300, 2, 100, 100, 17, 22218, -20776, 5159, 5548, 8, 14, 1523641111.851, 86, 0, 1024, 1024, 1024, 1024, 0, 6, 3681, 3690, 3678, 3743, 3756, 3693, 0, 1, 15000, -89.900, 0.000, 14.300, 0.000, 0.000, -2.900, 0.0, , , , , , 98, , , 0, 0, 0
36.6440363, -118.9467524, 28.100, 10:38:31.951, 16, 0.00, 0.46, 93, -1.200, 1.400, 15.300, 2, 100, 100, 17, 22218, -20776, 5159, 5548, 8, 14, 1523641111.952, 187, 0, 1024, 1024, 1024, 1024, 0, 6, 3681, 3690, 3678, 3743, 3756, 3693, 0, 1, 15101, -89.900, 0.000, 14.300, 0.000, 0.000, -2.900, 0.0, , , , , , 98, , , 0, 0, 0
36.6440363, -118.9467523, 28.700, 10:38:32.051, 16, 0.00, 0.45, 93, -1.300, 1.300, 15.400, 2, 100, 100, 17, 22218, -20776, 5159, 5548, 8, 14, 1523641112.052, 55, 0, 1024, 1024, 1024, 1024, 0, 6, 3681, 3690, 3678, 3743, 3756, 3693, 0, 1, 15201, -89.900, 0.000, 14.300, 0.000, 0.000, -3.000, 0.0, , , , , , 98, , , 0, 0, 0
36.6440363, -118.9467523, 29.000, 10:38:32.151, 16, 0.00, 0.45, 93, -1.500, 1.300, 15.300, 2, 100, 100, 17, 22218, -20776, 5159, 5548, 8, 14, 1523641112.152, 60, 0, 1024, 1024, 1024, 1024, 0, 6, 3681, 3690, 3678, 3743, 3756, 3693, 0, 1, 15301, -89.900, 0.000, 14.300, 0.000, 0.000, -3.000, 0.0, , , , , , 98, , , 0, 0, 0
36.6440363, -118.9467522, 29.300, 10:38:32.251, 16, 0.00, 0.45, 93, -1.600, 1.400, 15.200, 2, 100, 100, 17, 22218, -20776, 5159, 5548, 8, 14, 1523641112.252, 54, 0, 1024, 1024, 1024, 1024, 0, 6, 3681, 3690, 3678, 3743, 3756, 3693, 0, 1, 15401, -89.900, 0.000, 14.300, 0.000, 0.000, -3.000, 0.0, , , , , , 98, , , 0, 0, 0
36.6440362, -118.9467522, 29.600, 10:38:32.350, 16, 0.00, 0.44, 93, -1.500, 1.500, 14.900, 2, 100, 100, 17, 22153, -21357, 5159, 5548, 8, 14, 1523641112.351, 23, 0, 1024, 1024, 1024, 1024, 0, 6, 3681, 3690, 3678, 3743, 3756, 3693, 0, 1, 15500, -89.900, 0.000, 14.300, 0.000, 0.000, -3.000, 0.0, , , , , , 98, , , 0, 0, 0
36.6440362, -118.9467522, 30.000, 10:38:32.451, 16, 0.00, 0.44, 93, -1.200, 1.200, 14.700, 2, 100, 97, 17, 22153, -21357, 5159, 5548, 8, 14, 1523641112.452, 43, 0, 1024, 1024, 1024, 1024, 0, 6, 3662, 3666, 3664, 3730, 3733, 3670, 0, 1, 15601, -90.000, 0.000, 14.300, 0.000, 0.000, -3.100, 0.0, , , , , , 98, , , 0, 0, 0
36.6440361, -118.9467523, 30.300, 10:38:32.551, 16, 0.00, 0.44, 93, -0.700, 0.800, 14.600, 2, 100, 97, 17, 22153, -21357, 5159, 5548, 8, 14, 1523641112.552, 59, 0, 1024, 1024, 1024, 1024, 0, 6, 3662, 3666, 3664, 3730, 3733, 3670, 0, 1, 15701, -90.000, 0.000, 14.300, 0.000, 0.000, -2.900, 0.0, , , , , , 98, , , 0, 0, 0
36.6440361, -118.9467523, 30.600, 10:38:32.651, 16, 0.00, 0.43, 93, -0.400, 0.500, 14.500, 2, 100, 97, 17, 22153, -21357, 5159, 5548, 8, 14, 1523641112.652, 63, 0, 1024, 1024, 1024, 1024, 0, 6, 3662, 3666, 3664, 3730, 3733, 3670, 0, 1, 15801, -90.000, 0.000, 14.300, 0.000, 0.000, -2.900, 0.0, , , , , , 98, , , 0, 0, 0
36.6440361, -118.9467523, 30.900, 10:38:32.751, 16, 0.00, 0.43, 93, -0.400, 0.400, 14.600, 2, 100, 97, 17, 22153, -21357, 5159, 5548, 8, 14, 1523641112.751, 55, 0, 1024, 1024, 1024, 1024, 0, 6, 3662, 3666, 3664, 3730, 3733, 3670, 0, 1, 15901, -90.000, 0.000, 14.300, 0.000, 0.000, -2.900, 0.0, , , , , , 98, , , 0, 0, 0
36.6440361, -118.9467522, 31.200, 10:38:32.850, 16, 0.00, 0.43, 93, -0.800, 0.300, 14.800, 2, 100, 97, 17, 22153, -21357, 5159, 5548, 8, 14, 1523641112.851, 55, 0, 1024, 1024, 1024, 1024, 0, 6, 3662, 3666, 3664, 3730, 3733, 3670, 0, 1, 16000, -90.000, 0.000, 14.300, 0.000, 0.000, -2.900, 0.0, , , , , , 98, , , 0, 0, 0
36.6440360, -118.9467522, 31.500, 10:38:32.951, 16, 0.00, 0.42, 93, -0.900, 0.300, 15.100, 2, 100, 97, 17, 22153, -21357, 5159, 5548, 8, 14, 1523641112.952, 43, 0, 1024, 1024, 1024, 1024, 0, 6, 3662, 3666, 3664, 3730, 3733, 3670, 0, 1, 16101, -90.000, 0.000, 14.300, 0.000, 0.000, -2.900, 0.0, , , , , , 98, , , 0, 0, 0
36.6440360, -118.9467521, 31.800, 10:38:33.051, 16, 0.00, 0.42, 93, -1.000, 0.700, 15.300, 2, 100, 97, 17, 22153, -21357, 5159, 5548, 8, 14, 1523641113.052, 42, 0, 1024, 1024, 1024, 1024, 0, 6, 3662, 3666, 3664, 3730, 3733, 3670, 0, 1, 16201, -89.900, 0.000, 14.300, 0.000, 0.000, -2.900, 0.0, , , , , , 98, , , 0, 0, 0
36.6440360, -118.9467521, 32.100, 10:38:33.151, 16, 0.00, 0.42, 93, -1.400, 0.900, 15.500, 2, 100, 97, 17, 22153, -21357, 5159, 5548, 8, 14, 1523641113.151, 11, 0, 1024, 1024, 1024, 1024, 0, 6, 3662, 3666, 3664, 3730, 3733, 3670, 0, 1, 16301, -89.900, 0.000, 14.300, 0.000, 0.000, -2.900, 0.0, , , , , , 98, , , 0, 0, 0
36.6440360, -118.9467521, 32.400, 10:38:33.251, 16, 0.00, 0.41, 93, -1.700, 1.000, 15.700, 2, 100, 97, 17, 22153, -21357, 5159, 5548, 8, 14, 1523641113.252, 26, 0, 1024, 1024, 1024, 1024, 0, 6, 3662, 3666, 3664, 3730, 3733, 3670, 0, 1, 16401, -89.900, 0.000, 14.300, 0.000, 0.000, -2.800, 0.0, , , , , , 98, , , 0, 0, 0
36.6440360, -118.9467520, 32.700, 10:38:33.360, 16, 0.00, 0.41, 93, -1.700, 0.900, 15.900, 2, 100, 97, 17, 22153, -21357, 5159, 5548, 8, 14, 1523641113.360, 5, 0, 1024, 1024, 1024, 1024, 0, 6, 3662, 3666, 3664, 3730, 3733, 3670, 0, 1, 16509, -89.900, 0.000, 14.300, 0.000, 0.000, -2.800, 0.0, , , , , , 98, , , 0, 0, 0
36.6440360, -118.9467520, 32.900, 10:38:33.451, 16, 0.00, 0.41, 93, -1.600, 1.000, 15.900, 2, 100, 99, 17, 22195, -20611, 5159, 5548, 8, 14, 1523641113.452, 31, 0, 1024, 1024, 1024, 1024, 0, 6, 3662, 3666, 3664, 3730, 3733, 3670, 0, 1, 16601, -89.900, 0.000, 14.300, 0.000, 0.000, -2.800, 0.0, , , , , , 98, , , 0, 0, 0
36.6440360, -118.9467519, 33.200, 10:38:33.551, 16, 0.00, 0.41, 93, -1.600, 1.000, 15.900, 2, 100, 99, 17, 22195, -20611, 5159, 5548, 8, 14, 1523641113.552, 25, 0, 1024, 1024, 1024, 1024, 0, 6, 3662, 3666, 3664, 3730, 3733, 3670, 0, 1, 16701, -89.900, 0.000, 14.300, 0.000, 0.000, -2.800, 0.0, , , , , , 98, , , 0, 0, 0
36.6440360, -118.9467519, 33.500, 10:38:33.654, 16, 0.00, 0.41, 93, -1.300, 1.100, 15.800, 2, 100, 99, 17, 22195, -20611, 5159, 5548, 8, 14, 1523641113.654, 9, 0, 1024, 1024, 1024, 1024, 0, 6, 3662, 3666, 3664, 3730, 3733, 3670, 0, 1, 16804, -89.900, 0.000, 14.300, 0.000, 0.000, -2.800, 0.0, , , , , , 98, , , 0, 0, 0
36.6440360, -118.9467519, 33.800, 10:38:33.751, 16, 0.00, 0.41, 93, -1.000, 1.300, 15.600, 2, 100, 99, 17, 22195, -20611, 5159, 5548, 8, 14, 1523641113.752, 13, 0, 1024, 1024, 1024, 1024, 0, 6, 3662, 3666, 3664, 3730, 3733, 3670, 0, 1, 16901, -89.900, 0.000, 14.300, 0.000, 0.000, -2.900, 0.0, , , , , , 98, , , 0, 0, 0
36.6440360, -118.9467519, 33.800, 10:38:33.850, 16, 0.00, 0.41, 93, -1.000, 1.300, 15.600, 2, 100, 99, 17, 22195, -20611, 5159, 5548, 8, 14, 1523641113.851, 112, 0, 1024, 1024, 1024, 1024, 0, 6, 3662, 3666, 3664, 3730, 3733, 3670, 0, 1, 17000, -89.900, 0.000, 14.300, 0.000, 0.000, -2.900, 0.0, , , , , , 98, , , 0, 0, 0
36.6440361, -118.9467519, 34.300, 10:38:33.956, 16, 0.00, 0.41, 93, -1.000, 1.600, 15.400, 2, 100, 100, 17, 22195, -20611, 5159, 5548, 8, 14, 1523641113.956, 5, 0, 1024, 1024, 1024, 1024, 0, 6, 3672, 3689, 3673, 3735, 3738, 3689, 0, 1, 17105, -89.900, 0.000, 14.300, 0.000, 0.000, -2.800, 0.0, , , , , , 98, , , 0, 0, 0
36.6440361, -118.9467519, 34.300, 10:38:34.051, 16, 0.00, 0.41, 93, -1.000, 1.600, 15.400, 2, 100, 100, 17, 22195, -20611, 5159, 5548, 8, 14, 1523641114.052, 101, 0, 1024, 1024, 1024, 1024, 0, 6, 3672, 3689, 3673, 3735, 3738, 3689, 0, 1, 17201, -89.900, 0.000, 14.300, 0.000, 0.000, -2.800, 0.0, , , , , , 98, , , 0, 0, 0
36.6440361, -118.9467519, 34.600, 10:38:34.150, 16, 0.00, 0.41, 93, -1.100, 1.500, 15.300, 2, 100, 100, 17, 22195, -20611, 5159, 5548, 8, 14, 1523641114.151, 78, 0, 1024, 1024, 1024, 1024, 0, 6, 3672, 3689, 3673, 3735, 3738, 3689, 0, 1, 17300, -89.900, 0.000, 14.300, 0.000, 0.000, -2.800, 0.0, , , , , , 98, , , 0, 0, 0
36.6440361, -118.9467519, 35.200, 10:38:34.251, 16, 0.00, 0.42, 93, -1.600, 1.300, 15.200, 2, 100, 100, 17, 22195, -20611, 5159, 5548, 8, 14, 1523641114.251, 70, 0, 1024, 1024, 1024, 1024, 0, 6, 3672, 3689, 3673, 3735, 3738, 3689, 0, 1, 17401, -89.900, 0.000, 14.300, 0.000, 0.000, -2.900, 0.0, , , , , , 98, , , 0, 0, 0
36.6440361, -118.9467519, 35.500, 10:38:34.350, 16, 0.00, 0.42, 93, -1.200, 1.400, 15.200, 2, 100, 100, 17, 22195, -20611, 5159, 5548, 8, 14, 1523641114.351, 49, 0, 1024, 1024, 1024, 1024, 0, 6, 3672, 3689, 3673, 3735, 3738, 3689, 0, 1, 17500, -89.900, 0.000, 14.300, 0.000, 0.000, -2.900, 0.0, , , , , , 98, , , 0, 0, 0
36.6440361, -118.9467519, 35.800, 10:38:34.451, 16, 0.00, 0.42, 93, -0.900, 1.400, 15.200, 2, 100, 100, 17, 22144, -20611, 5159, 5548, 8, 14, 1523641114.452, 63, 0, 1024, 1024, 1024, 1024, 0, 6, 3672, 3689, 3673, 3735, 3738, 3689, 0, 1, 17601, -89.900, 0.000, 14.300, 0.000, 0.000, -2.900, 0.0, , , , , , 98, , , 0, 0, 0
36.6440362, -118.9467520, 36.000, 10:38:34.551, 16, 0.00, 0.43, 93, -0.500, 1.500, 15.200, 2, 100, 100, 17, 22144, -20611, 5159, 5548, 8, 14, 1523641114.552, 50, 0, 1024, 1024, 1024, 1024, 0, 6, 3672, 3689, 3673, 3735, 3738, 3689, 0, 1, 17701, -89.900, 0.000, 14.300, 0.000, 0.000, -2.900, 0.0, , , , , , 98, , , 0, 0, 0
36.6440362, -118.9467520, 36.300, 10:38:34.651, 16, 0.00, 0.43, 93, -0.400, 1.700, 15.200, 2, 100, 100, 17, 22144, -20611, 5159, 5548, 8, 14, 1523641114.651, 68, 0, 1024, 1024, 1024, 1024, 0, 6, 3672, 3689, 3673, 3735, 3738, 3689, 0, 1, 17801, -89.900, 0.000, 14.300, 0.000, 0.000, -2.900, 0.0, , , , , , 98, , , 0, 0, 0
36.6440362, -118.9467520, 36.600, 10:38:34.750, 16, 0.00, 0.43, 93, -0.500, 1.700, 15.200, 2, 100, 100, 17, 22144, -20611, 5159, 5548, 8, 14, 1523641114.751, 67, 0, 1024, 1024, 1024, 1024, 0, 6, 3672, 3689, 3673, 3735, 3738, 3689, 0, 1, 17900, -89.900, 0.000, 14.300, 0.000, 0.000, -3.000, 0.0, , , , , , 98, , , 0, 0, 0
36.6440362, -118.9467520, 36.900, 10:38:34.850, 16, 0.00, 0.44, 93, -0.900, 1.600, 15.200, 2, 100, 100, 17, 22144, -20918, 5159, 5548, 8, 14, 1523641114.851, 71, 0, 1024, 1024, 1024, 1024, 0, 6, 3663, 3661, 3660, 3725, 3724, 3669, 0, 1, 18000, -89.900, 0.000, 14.300, 0.000, 0.000, -3.100, 0.0, , , , , , 98, , , 0, 0, 0
36.6440362, -118.9467520, 37.300, 10:38:34.951, 16, 0.00, 0.44, 93, -1.300, 1.500, 15.100, 2, 100, 100, 17, 22144, -20918, 5159, 5548, 8, 14, 1523641114.952, 62, 0, 1024, 1024, 1024, 1024, 0, 6, 3663, 3661, 3660, 3725, 3724, 3669, 0, 1, 18101, -89.900, 0.000, 14.300, 0.000, 0.000, -3.100, 0.0, , , , , , 98, , , 0, 0, 0
36.6440363, -118.9467520, 37.600, 10:38:35.051, 16, 0.00, 0.44, 93, -1.400, 1.400, 15.100, 2, 100, 100, 17, 22144, -20918, 5159, 5548, 8, 14, 1523641115.052, 75, 0, 1024, 1024, 1024, 1024, 0, 6, 3663, 3661, 3660, 3725, 3724, 3669, 0, 1, 18201, -89.900, 0.000, 14.300, 0.000, 0.000, -3.100, 0.0, , , , , , 98, , , 0, 0, 0
36.6440363, -118.9467520, 37.900, 10:38:35.151, 16, 0.00, 0.44, 93, -1.400, 1.500, 15.000, 2, 100, 100, 17, 22144, -20918, 5159, 5548, 8, 14, 1523641115.152, 28, 0, 1024, 1024, 1024, 1024, 0, 6, 3663, 3661, 3660, 3725, 3724, 3669, 0, 1, 18301, -89.900, 0.000, 14.300, 0.000, 0.000, -3.000, 0.0, , , , , , 98, , , 0, 0, 0
36.6440363, -118.9467520, 38.200, 10:38:35.251, 16, 0.00, 0.44, 93, -1.100, 1.500, 15.000, 2, 100, 100, 17, 22144, -20918, 5159, 5548, 8, 14, 1523641115.251, 42, 0, 1024, 1024, 1024, 1024, 0, 6, 3663, 3661, 3660, 3725, 3724, 3669, 0, 1, 18401, -89.900, 0.000, 14.300, 0.000, 0.000, -3.000, 0.0, , , , , , 98, , , 0, 0, 0
36.6440363, -118.9467520, 38.500, 10:38:35.350, 16, 0.00, 0.44, 93, -0.900, 1.400, 15.000, 2, 100, 100, 17, 22144, -20918, 5159, 5548, 8, 14, 1523641115.351, 11, 0, 1024, 1024, 1024, 1024, 0, 6, 3663, 3661, 3660, 3725, 3724, 3669, 0, 1, 18501, -89.900, 0.000, 14.300, 0.000, 0.000, -2.900, 0.0, , , , , , 98, , , 0, 0, 0
36.6440363, -118.9467520, 38.800, 10:38:35.451, 16, 0.00, 0.44, 93, -0.900, 1.500, 15.000, 2, 100, 100, 17, 22144, -20918, 5159, 5548, 8, 14, 1523641115.452, 49, 0, 1024, 1024, 1024, 1024, 0, 6, 3663, 3661, 3660, 3725, 3724, 3669, 0, 1, 18601, -89.900, 0.000, 14.300, 0.000, 0.000, -2.900, 0.0, , , , , , 98, , , 0, 0, 0
36.6440363, -118.9467520, 39.100, 10:38:35.551, 16, 0.00, 0.44, 93, -0.900, 1.600, 15.000, 2, 100, 100, 17, 22144, -20918, 5159, 5548, 8, 14, 1523641115.551, 11, 0, 1024, 1024, 1024, 1024, 0, 6, 3663, 3661, 3660, 3725, 3724, 3669, 0, 1, 18701, -89.900, 0.000, 14.300, 0.000, 0.000, -2.900, 0.0, , , , , , 98, , , 0, 0, 0
36.6440363, -118.9467520, 39.400, 10:38:35.651, 16, 0.00, 0.44, 93, -1.200, 1.600, 15.200, 2, 100, 100, 17, 22144, -20918, 5159, 5548, 8, 14, 1523641115.652, 24, 0, 1024, 1024, 1024, 1024, 0, 6, 3663, 3661, 3660, 3725, 3724, 3669, 0, 1, 18801, -89.900, 0.000, 14.300, 0.000, 0.000, -2.900, 0.0, , , , , , 98, , , 0, 0, 0
36.6440363, -118.9467520, 39.700, 10:38:35.751, 16, 0.00, 0.44, 93, -1.400, 1.600, 15.400, 2, 100, 100, 17, 22144, -20918, 5159, 5548, 8, 14, 1523641115.752, 17, 0, 1024, 1024, 1024, 1024, 0, 6, 3663, 3661, 3660, 3725, 3724, 3669, 0, 1, 18901, -89.900, 0.000, 14.300, 0.000, 0.000, -2.900, 0.0, , , , , , 98, , , 0, 0, 0
36.6440363, -118.9467520, 39.900, 10:38:35.850, 16, 0.00, 0.44, 93, -1.300, 1.500, 15.600, 2, 100, 100, 18, 22016, -22002, 5104, 5548, 8, 14, 1523641115.851, 18, 0, 1024, 1024, 1024, 1024, 0, 6, 3637, 3653, 3643, 3709, 3715, 3644, 0, 1, 19000, -89.900, 0.000, 14.300, 0.000, 0.000, -2.900, 0.0, , , , , , 98, , , 0, 0, 0
36.6440363, -118.9467520, 40.200, 10:38:35.951, 16, 0.00, 0.44, 93, -0.900, 1.400, 15.700, 2, 100, 99, 18, 22016, -22002, 5104, 5548, 8, 14, 1523641115.952, 31, 0, 1024, 1024, 1024, 1024, 0, 6, 3637, 3653, 3643, 3709, 3715, 3644, 0, 1, 19101, -90.000, 0.000, 14.300, 0.000, 0.000, -3.000, 0.0, , , , , , 98, , , 0, 0, 0
36.6440363, -118.9467521, 40.500, 10:38:36.051, 16, 0.00, 0.44, 93, -0.400, 1.300, 15.700, 2, 100, 99, 18, 22016, -22002, 5104, 5548, 8, 14, 1523641116.052, 20, 0, 1024, 1024, 1024, 1024, 0, 6, 3637, 3653, 3643, 3709, 3715, 3644, 0, 1, 19201, -89.900, 0.000, 14.300, 0.000, 0.000, -3.000, 0.0, , , , , , 98, , , 0, 0, 0
36.6440363, -118.9467521, 40.500, 10:38:36.151, 16, 0.00, 0.44, 93, -0.400, 1.300, 15.700, 2, 100, 99, 18, 22016, -22002, 5104, 5548, 8, 14, 1523641116.152, 120, 0, 1024, 1024, 1024, 1024, 0, 6, 3637, 3653, 3643, 3709, 3715, 3644, 0, 1, 19301, -89.900, 0.000, 14.300, 0.000, 0.000, -3.000, 0.0, , , , , , 98, , , 0, 0, 0
36.6440363, -118.9467523, 41.200, 10:38:36.250, 16, 0.00, 0.45, 93, 0.000, 1.500, 15.900, 2, 100, 99, 18, 22016, -22002, 5104, 5548, 8, 14, 1523641116.251, 8, 0, 1024, 1024, 1024, 1024, 0, 6, 3637, 3653, 3643, 3709, 3715, 3644, 0, 1, 19400, -89.900, 0.000, 14.300, 0.000, 0.000, -3.100, 0.0, , , , , , 98, , , 0, 0, 0
36.6440363, -118.9467523, 41.200, 10:38:36.350, 16, 0.00, 0.45, 93, 0.000, 1.500, 15.900, 2, 100, 99, 18, 22016, -22002, 5104, 5548, 8, 14, 1523641116.351, 108, 0, 1024, 1024, 1024, 1024, 0, 6, 3637, 3653, 3643, 3709, 3715, 3644, 0, 1, 19500, -89.900, 0.000, 14.300, 0.000, 0.000, -3.100, 0.0, , , , , , 98, , , 0, 0, 0
36.6440363, -118.9467523, 41.200, 10:38:36.451, 16, 0.00, 0.45, 93, 0.000, 1.500, 15.900, 2, 100, 99, 18, 22016, -22002, 5104, 5548, 8, 14, 1523641116.452, 209, 0, 1024, 1024, 1024, 1024, 0, 6, 3637, 3653, 3643, 3709, 3715, 3644, 0, 1, 19601, -89.900, 0.000, 14.300, 0.000, 0.000, -3.100, 0.0, , , , , , 98, , , 0, 0, 0
36.6440362, -118.9467525, 41.800, 10:38:36.551, 16, 0.00, 0.46, 93, 0.000, 1.500, 15.900, 2, 100, 99, 18, 22016, -22002, 5104, 5548, 8, 14, 1523641116.552, 58, 0, 1024, 1024, 1024, 1024, 0, 6, 3637, 3653, 3643, 3709, 3715, 3644, 0, 1, 19701, -89.900, 0.000, 14.300, 0.000, 0.000, -3.000, 0.0, , , , , , 98, , , 0, 0, 0
36.6440362, -118.9467526, 42.100, 10:38:36.651, 16, 0.00, 0.46, 93, 0.000, 1.300, 15.900, 2, 100, 99, 18, 22016, -22002, 5104, 5548, 8, 14, 1523641116.652, 73, 0, 1024, 1024, 1024, 1024, 0, 6, 3637, 3653, 3643, 3709, 3715, 3644, 0, 1, 19801, -90.000, 0.000, 14.300, 0.000, 0.000, -3.000, 0.0, , , , , , 98, , , 0, 0, 0
36.6440362, -118.9467527, 42.400, 10:38:36.751, 16, 0.00, 0.46, 93, 0.300, 1.100, 15.800, 2, 100, 99, 18, 22016, -22002, 5104, 5548, 8, 14, 1523641116.752, 74, 0, 1024, 1024, 1024, 1024, 0, 6, 3637, 3653, 3643, 3709, 3715, 3644, 0, 1, 19901, -90.000, 0.000, 14.300, 0.000, 0.000, -3.100, 0.0, , , , , , 98, , , 0, 0, 0
36.6440362, -118.9467529, 43.000, 10:38:36.850, 16, 0.00, 0.47, 93, 0.500, 0.900, 15.700, 2, 100, 99, 18, 22016, -22002, 5104, 5548, 8, 14, 1523641116.851, 80, 0, 1024, 1024, 1024, 1024, 0, 6, 3637, 3653, 3643, 3709, 3715, 3644, 0, 1, 20000, -90.000, 0.000, 14.300, 0.000, 0.000, -3.100, 0.0, , , , , , 98, , , 0, 0, 0
36.6440362, -118.9467529, 43.300, 10:38:36.951, 16, 0.00, 0.47, 92, 0.200, 1.000, 15.600, 2, 100, 99, 18, 22023, -21552, 5104, 5548, 8, 14, 1523641116.952, 76, 0, 1024, 1024, 1024, 1024, 0, 6, 3638, 3655, 3632, 3709, 3716, 3638, 0, 1, 20101, -89.900, 0.000, 14.300, 0.000, 0.000, -3.000, 0.0, , , , , , 98, , , 0, 0, 0
36.6440361, -118.9467529, 43.600, 10:38:37.051, 16, 0.00, 0.47, 92, 0.000, 0.900, 15.400, 2, 100, 99, 18, 22023, -21552, 5104, 5548, 8, 14, 1523641117.052, 41, 0, 1024, 1024, 1024, 1024, 0, 6, 3638, 3655, 3632, 3709, 3716, 3638, 0, 1, 20201, -90.000, 0.000, 14.300, 0.000, 0.000, -3.000, 0.0, , , , , , 98, , , 0, 0, 0
36.6440361, -118.9467530, 44.000, 10:38:37.151, 16, 0.00, 0.47, 92, -0.100, 0.900, 15.300, 2, 100, 99, 18, 22023, -21552, 5104, 5548, 8, 14, 1523641117.152, 32, 0, 1024, 1024, 1024, 1024, 0, 6, 3638, 3655, 3632, 3709, 3716, 3638, 0, 1, 20301, -89.900, 0.000, 14.300, 0.000, 0.000, -3.000, 0.0, , , , , , 98, , , 0, 0, 0
36.6440361, -118.9467530, 44.300, 10:38:37.251, 16, 0.00, 0.47, 92, -0.100, 1.000, 15.200, 2, 100, 99, 18, 22023, -21552, 5104, 5548, 8, 14, 1523641117.252, 58, 0, 1024, 1024, 1024, 1024, 0, 6, 3638, 3655, 3632, 3709, 3716, 3638, 0, 1, 20401, -89.900, 0.000, 14.300, 0.000, 0.000, -3.000, 0.0, , , , , , 98, , , 0, 0, 0
36.6440361, -118.9467530, 44.600, 10:38:37.350, 16, 0.00, 0.47, 92, 0.000, 1.000, 15.100, 2, 100, 99, 18, 22023, -21552, 5104, 5548, 8, 14, 1523641117.351, 48, 0, 1024, 1024, 1024, 1024, 0, 6, 3638, 3655, 3632, 3709, 3716, 3638, 0, 1, 20500, -89.900, 0.000, 14.300, 0.000, 0.000, -3.000, 0.0, , , , , , 98, , , 0, 0, 0
36.6440360, -118.9467531, 44.900, 10:38:37.450, 16, 0.00, 0.47, 92, 0.000, 1.100, 15.000, 2, 100, 99, 18, 22023, -21552, 5104, 5548, 8, 14, 1523641117.451, 17, 0, 1024, 1024, 1024, 1024, 0, 6, 3638, 3655, 3632, 3709, 3716, 3638, 0, 1, 20600, -89.900, 0.000, 14.300, 0.000, 0.000, -3.000, 0.0, , , , , , 98, , , 0, 0, 0
36.6440360, -118.9467531, 45.200, 10:38:37.551, 16, 0.00, 0.47, 92, 0.000, 1.100, 15.000, 2, 100, 99, 18, 22023, -21552, 5104, 5548, 8, 14, 1523641117.551, 29, 0, 1024, 1024, 1024, 1024, 0, 6, 3638, 3655, 3632, 3709, 3716, 3638, 0, 1, 20701, -89.900, 0.000, 14.300, 0.000, 0.000, -3.000, 0.0, , , , , , 98, , , 0, 0, 0
36.6440360, -118.9467531, 45.500, 10:38:37.651, 16, 0.00, 0.47, 92, 0.000, 1.100, 15.000, 2, 100, 99, 18, 22023, -21552, 5104, 5548, 8, 14, 1523641117.652, 55, 0, 1024, 1024, 1024, 1024, 0, 6, 3638, 3655, 3632, 3709, 3716, 3638, 0, 1, 20801, -90.000, 0.000, 14.300, 0.000, 0.000, -3.000, 0.0, , , , , , 98, , , 0, 0, 0
36.6440360, -118.9467532, 45.800, 10:38:37.751, 16, 0.00, 0.47, 92, 0.100, 1.100, 15.000, 2, 100, 99, 18, 22023, -21552, 5104, 5548, 8, 14, 1523641117.752, 31, 0, 1024, 1024, 1024, 1024, 0, 6, 3638, 3655, 3632, 3709, 3716, 3638, 0, 1, 20901, -89.900, 0.000, 14.300, 0.000, 0.000, -3.000, 0.0, , , , , , 98, , , 0, 0, 0
36.6440360, -118.9467532, 46.100, 10:38:37.850, 16, 0.00, 0.47, 92, 0.200, 1.100, 15.100, 2, 100, 99, 18, 21995, -21586, 5104, 5548, 8, 14, 1523641117.851, 28, 0, 1024, 1024, 1024, 1024, 0, 6, 3647, 3653, 3646, 3708, 3718, 3654, 0, 1, 21000, -89.900, 0.000, 14.300, 0.000, 0.000, -3.000, 0.0, , , , , , 98, , , 0, 0, 0
36.6440360, -118.9467532, 46.400, 10:38:37.952, 16, 0.00, 0.47, 92, 0.100, 1.200, 15.300, 2, 100, 99, 18, 21995, -21586, 5104, 5548, 8, 14, 1523641117.952, 10, 0, 1024, 1024, 1024, 1024, 0, 6, 3647, 3653, 3646, 3708, 3718, 3654, 0, 1, 21102, -89.900, 0.000, 14.300, 0.000, 0.000, -3.000, 0.0, , , , , , 98, , , 0, 0, 0
36.6440360, -118.9467532, 46.700, 10:38:38.051, 16, 0.00, 0.47, 92, 0.000, 1.300, 15.500, 2, 100, 99, 18, 21995, -21586, 5104, 5548, 8, 14, 1523641118.052, 14, 0, 1024, 1024, 1024, 1024, 0, 6, 3647, 3653, 3646, 3708, 3718, 3654, 0, 1, 21201, -89.900, 0.000, 14.300, 0.000, 0.000, -3.000, 0.0, , , , , , 98, , , 0, 0, 0
36.6440360, -118.9467532, 47.000, 10:38:38.151, 16, 0.00, 0.47, 92, 0.000, 1.400, 15.600, 2, 100, 99, 18, 21995, -21586, 5104, 5548, 8, 14, 1523641118.152, 23, 0, 1024, 1024, 1024, 1024, 0, 6, 3647, 3653, 3646, 3708, 3718, 3654, 0, 1, 21301, -89.900, 0.000, 14.300, 0.000, 0.000, -3.000, 0.0, , , , , , 98, , , 0, 0, 0
