Latitude, Longitude, Altitude (m), Time, Sats, Speed (m/s), Range (m), Battery (%), Roll (deg), Pitch (deg), Yaw (deg), Images, HD Signal (%), RC Signal (%), Battery Temp (C), Battery Voltage (mV), Battery Current (mA), Battery Energy (mAh), Battery Capacity (mAh), Battery Discharges, flyState, timestamp (Unix), LastUpdate (ms), radioChannel, Rc_elevator, Rc_aileron, Rc_throttle, Rc_rudder, Rc_gyro, Dronetype, Battery_Cell1 (mV), Battery_Cell2 (mV), Battery_Cell3 (mV), Battery_Cell4 (mV), Battery_Cell5 (mV), Battery_Cell6 (mV), Video, isFlying, elapsedTime (ms), gimbalPitch (deg), gimbalRoll (deg), gimbalYaw (deg), VelocityX (m/s), VelocityY (m/s), VelocityZ (m/s), GroundSmear (cm), App Version, Aircraft Name, Aircraft Firmware, Aircraft Serial Number, Battery Serial Number, Battery Lifetime (%), App_Tip, App_Warning, CurrentFlightStartingIndex, CurrentFlightLastVisitedWaypoint, PreviousFlightEndingWaypointIndex
36.9937876, -119.1735006, 0.000, 11:35:51.292, 13, 0.00, 0.07, 100, 0.600, 1.100, -139.500, 1037, 100, 100, 25, 25678, -4162, 5339, 5339, 19, 11, 1528914951.292, 33, 0, 1024, 1024, 1024, 1024, 0, 6, 4226, 4259, 4243, 4274, 4253, 4272, 0, 1, 2921, -89.900, 0.000, -140.300, 0.000, 0.000, -0.100, 0.0, MapPilot_2.8.1_04242018, Dendroctonus I, 1.3.1.00, 041DDC1887, 1058171200140, 96, DJI_0035.jpg, Starting Mission from Lat/Long: 36.99379/-119.17350 Camera: Zenmuse X3 - Overlap: 90/90 - Active Connection: No, 39, 39, 39
36.9937877, -119.1735005, 0.000, 11:35:51.371, 13, 0.00, 0.07, 100, 0.100, 1.100, -139.600, 1037, 100, 100, 25, 25678, -4162, 5339, 5339, 19, 11, 1528914951.371, 14, 0, 1024, 1024, 1024, 1024, 0, 6, 4226, 4259, 4243, 4274, 4253, 4272, 0, 1, 3000, -89.900, 0.000, -140.400, 0.000, 0.000, -0.200, 0.0, , , , , , 96, , , 39, 39, 39
36.9937877, -119.1735004, 0.000, 11:35:51.471, 13, 0.00, 0.08, 100, 0.000, 0.600, -139.600, 1037, 100, 100, 25, 25678, -4162, 5339, 5339, 19, 11, 1528914951.471, 15, 0, 1024, 1024, 1024, 1024, 0, 6, 4226, 4259, 4243, 4274, 4253, 4272, 0, 1, 3100, -90.000, 0.000, -140.300, 0.000, 0.000, -0.300, 0.0, , , , , , 96, , , 39, 39, 39
36.9937878, -119.1735003, 0.000, 11:35:51.572, 13, 0.00, 0.09, 100, 0.000, -0.200, -139.600, 1037, 100, 100, 25, 25678, -4162, 5339, 5339, 19, 11, 1528914951.572, 4, 0, 1024, 1024, 1024, 1024, 0, 6, 4226, 4259, 4243, 4274, 4253, 4272, 0, 1, 3201, -90.000, 0.000, -140.300, 0.000, 0.000, -0.400, 0.0, , , , , , 96, , , 39, 39, 39
36.9937878, -119.1735002, 0.100, 11:35:51.671, 13, 0.00, 0.10, 100, 0.200, -0.700, -139.500, 1037, 100, 100, 25, 25678, -4162, 5339, 5339, 19, 11, 1528914951.672, 6, 0, 1024, 1024, 1024, 1024, 0, 6, 4226, 4259, 4243, 4274, 4253, 4272, 0, 1, 3301, -90.000, 0.000, -140.300, 0.000, 0.000, -0.400, 0.0, , , , , , 96, , , 39, 39, 39
36.9937878, -119.1735002, 0.100, 11:35:51.771, 13, 0.00, 0.10, 100, 0.200, -0.700, -139.500, 1037, 100, 100, 25, 25678, -4162, 5339, 5339, 19, 11, 1528914951.772, 105, 0, 1024, 1024, 1024, 1024, 0, 6, 4226, 4259, 4243, 4274, 4253, 4272, 0, 1, 3401, -90.000, 0.000, -140.300, 0.000, 0.000, -0.400, 0.0, , , , , , 96, , , 39, 39, 39
36.9937879, -119.1735000, 0.100, 11:35:51.871, 13, 0.10, 0.12, 100, 0.200, -0.600, -139.400, 1037, 100, 100, 25, 25678, -4162, 5339, 5339, 19, 11, 1528914951.872, 96, 0, 1024, 1024, 1024, 1024, 0, 6, 4226, 4259, 4243, 4274, 4253, 4272, 0, 1, 3501, -90.000, 0.000, -140.300, 0.000, 0.100, -0.400, 0.0, , , , , , 96, , , 39, 39, 39
36.9937878, -119.1734999, 0.200, 11:35:51.972, 13, 0.10, 0.12, 100, 0.400, -0.500, -139.400, 1037, 100, 100, 25, 25678, -4162, 5339, 5339, 19, 11, 1528914951.972, 99, 0, 1024, 1024, 1024, 1024, 0, 6, 4226, 4259, 4243, 4274, 4253, 4272, 0, 1, 3601, -89.900, 0.000, -140.300, 0.000, 0.100, -0.400, 0.0, , , , , , 96, , , 39, 39, 39
36.9937878, -119.1734999, 0.200, 11:35:52.071, 12, 0.10, 0.13, 100, 0.700, -0.300, -139.400, 1037, 100, 100, 25, 25678, -4162, 5339, 5339, 19, 11, 1528914952.071, 98, 0, 1024, 1024, 1024, 1024, 0, 6, 4226, 4259, 4243, 4274, 4253, 4272, 0, 1, 3700, -89.900, 0.000, -140.300, 0.000, 0.100, -0.400, 0.0, , , , , , 96, , , 39, 39, 39
36.9937878, -119.1734997, 0.300, 11:35:52.171, 12, 0.10, 0.15, 100, 1.100, -0.300, -139.400, 1037, 100, 100, 25, 25678, -4162, 5339, 5339, 19, 11, 1528914952.171, 85, 0, 1024, 1024, 1024, 1024, 0, 6, 4226, 4259, 4243, 4274, 4253, 4272, 0, 1, 3800, -90.000, 0.000, -140.300, 0.000, 0.100, -0.400, 0.0, , , , , , 96, , , 39, 39, 39
36.9937878, -119.1734995, 0.300, 11:35:52.271, 12, 0.10, 0.17, 100, 1.500, -0.500, -139.500, 1037, 100, 100, 25, 24803, -14612, 5339, 5339, 19, 11, 1528914952.272, 75, 0, 1024, 1024, 1024, 1024, 0, 6, 4226, 4259, 4243, 4274, 4253, 4272, 0, 1, 3901, -90.000, 0.000, -140.300, 0.000, 0.100, -0.400, 0.0, , , , , , 96, , , 39, 39, 39
36.9937877, -119.1734993, 0.400, 11:35:52.371, 12, 0.10, 0.18, 100, 1.700, -0.500, -139.600, 1037, 100, 100, 25, 24803, -14612, 5339, 5339, 19, 11, 1528914952.372, 74, 0, 1024, 1024, 1024, 1024, 0, 6, 4226, 4259, 4243, 4274, 4253, 4272, 0, 1, 4001, -89.900, 0.000, -140.300, 0.000, 0.100, -0.400, 0.0, , , , , , 96, , , 39, 39, 39
36.9937877, -119.1734990, 0.500, 11:35:52.471, 12, 0.10, 0.21, 100, 2.000, -0.500, -139.800, 1037, 100, 100, 25, 24803, -14612, 5339, 5339, 19, 11, 1528914952.472, 63, 0, 1024, 1024, 1024, 1024, 0, 6, 4226, 4259, 4243, 4274, 4253, 4272, 0, 1, 4101, -90.000, 0.000, -140.300, 0.000, 0.100, -0.400, 0.0, , , , , , 96, , , 39, 39, 39
36.9937877, -119.1734990, 0.500, 11:35:52.571, 12, 0.10, 0.21, 100, 2.000, -0.500, -139.800, 1037, 100, 100, 25, 24803, -14612, 5339, 5339, 19, 11, 1528914952.572, 163, 0, 1024, 1024, 1024, 1024, 0, 6, 4226, 4259, 4243, 4274, 4253, 4272, 0, 1, 4201, -90.000, 0.000, -140.300, 0.000, 0.100, -0.400, 0.0, , , , , , 96, , , 39, 39, 39
36.9937876, -119.1734987, 0.600, 11:35:52.671, 12, 0.00, 0.23, 100, 2.000, -1.000, -139.800, 1037, 100, 100, 25, 24803, -14612, 5339, 5339, 19, 11, 1528914952.672, 56, 0, 1024, 1024, 1024, 1024, 0, 6, 4226, 4259, 4243, 4274, 4253, 4272, 0, 1, 4301, -90.000, 0.000, -140.300, 0.000, 0.000, -0.400, 0.0, , , , , , 96, , , 39, 39, 39
36.9937876, -119.1734987, 0.600, 11:35:52.771, 12, 0.00, 0.23, 100, 2.000, -1.000, -139.700, 1037, 100, 100, 25, 24803, -14612, 5339, 5339, 19, 11, 1528914952.772, 58, 0, 1024, 1024, 1024, 1024, 0, 6, 4083, 4092, 4113, 4115, 4107, 4119, 0, 1, 4401, -90.000, 0.000, -140.300, 0.000, 0.000, -0.500, 0.0, , , , , , 96, , , 39, 39, 39
36.9937875, -119.1734985, 0.700, 11:35:52.871, 12, 0.00, 0.25, 100, 2.000, -1.000, -139.700, 1037, 100, 100, 25, 24803, -14612, 5339, 5339, 19, 11, 1528914952.872, 62, 0, 1024, 1024, 1024, 1024, 0, 6, 4083, 4092, 4113, 4115, 4107, 4119, 0, 1, 4501, -90.000, 0.000, -140.300, 0.000, 0.000, -0.500, 0.0, , , , , , 96, , , 39, 39, 39
36.9937875, -119.1734983, 0.800, 11:35:52.971, 12, 0.00, 0.27, 100, 2.200, -0.900, -139.700, 1037, 100, 100, 25, 24803, -14612, 5339, 5339, 19, 11, 1528914952.972, 39, 0, 1024, 1024, 1024, 1024, 0, 6, 4083, 4092, 4113, 4115, 4107, 4119, 0, 1, 4601, -90.000, 0.000, -140.300, 0.000, 0.000, -0.500, 0.0, , , , , , 96, , , 39, 39, 39
36.9937875, -119.1734982, 0.800, 11:35:53.070, 12, 0.00, 0.27, 100, 2.400, -0.800, -139.700, 1037, 100, 100, 25, 24803, -14612, 5339, 5339, 19, 11, 1528914953.071, 44, 0, 1024, 1024, 1024, 1024, 0, 6, 4083, 4092, 4113, 4115, 4107, 4119, 0, 1, 4700, -89.900, 0.000, -140.300, 0.000, 0.000, -0.500, 0.0, , , , , , 96, , , 39, 39, 39
36.9937875, -119.1734982, 0.900, 11:35:53.171, 12, 0.00, 0.28, 100, 2.500, -0.800, -139.700, 1037, 100, 100, 25, 24803, -14612, 5339, 5339, 19, 6, 1528914953.172, 39, 0, 1024, 1024, 1024, 1024, 0, 6, 4083, 4092, 4113, 4115, 4107, 4119, 0, 1, 4801, -90.000, 0.000, -140.300, 0.000, 0.000, -0.400, 0.0, , , , , , 96, , , 39, 39, 39
36.9937874, -119.1734981, 0.900, 11:35:53.271, 12, 0.00, 0.29, 100, 2.500, -0.900, -139.700, 1037, 100, 100, 25, 24803, -14612, 5339, 5339, 19, 14, 1528914953.272, 42, 0, 1024, 1024, 1024, 1024, 0, 6, 4083, 4092, 4113, 4115, 4107, 4119, 0, 1, 4901, -89.900, 0.000, -140.300, 0.000, 0.000, -0.400, 0.0, , , , , , 96, , , 39, 39, 39
36.9937872, -119.1734980, 1.000, 11:35:53.371, 12, 0.00, 0.30, 100, 1.700, -0.200, -139.800, 1037, 100, 100, 25, 24803, -14612, 5339, 5339, 19, 14, 1528914953.372, 31, 0, 1024, 1024, 1024, 1024, 0, 6, 4083, 4092, 4113, 4115, 4107, 4119, 0, 1, 5001, -89.900, 0.000, -140.300, 0.000, 0.000, -0.200, 0.0, , , , , , 96, , , 39, 39, 39
36.9937872, -119.1734978, 1.000, 11:35:53.471, 12, 0.00, 0.31, 100, 1.200, 0.200, -139.800, 1037, 100, 100, 25, 24803, -14612, 5339, 5339, 19, 14, 1528914953.472, 33, 0, 1024, 1024, 1024, 1024, 0, 6, 4083, 4092, 4113, 4115, 4107, 4119, 0, 1, 5101, -89.900, 0.000, -140.300, 0.000, 0.000, -0.200, 0.0, , , , , , 96, , , 39, 39, 39
36.9937871, -119.1734977, 1.000, 11:35:53.571, 12, 0.00, 0.32, 100, 1.100, 0.300, -139.800, 1037, 100, 100, 25, 24803, -14612, 5339, 5339, 19, 14, 1528914953.572, 32, 0, 1024, 1024, 1024, 1024, 0, 6, 4083, 4092, 4113, 4115, 4107, 4119, 0, 1, 5201, -89.900, 0.000, -140.300, 0.000, 0.000, -0.200, 0.0, , , , , , 96, , , 39, 39, 39
36.9937871, -119.1734977, 1.100, 11:35:53.671, 12, 0.00, 0.33, 100, 1.200, 0.300, -139.900, 1037, 100, 100, 25, 24803, -14612, 5339, 5339, 19, 14, 1528914953.672, 27, 0, 1024, 1024, 1024, 1024, 0, 6, 4083, 4092, 4113, 4115, 4107, 4119, 0, 1, 5301, -89.900, 0.000, -140.300, 0.000, 0.000, -0.300, 0.0, , , , , , 96, , , 39, 39, 39
36.9937870, -119.1734976, 1.100, 11:35:53.771, 12, 0.00, 0.33, 100, 1.400, 0.200, -139.900, 1037, 100, 100, 25, 24501, -16317, 5339, 5339, 19, 14, 1528914953.772, 37, 0, 1024, 1024, 1024, 1024, 0, 6, 4056, 4082, 4089, 4089, 4067, 4090, 0, 1, 5401, -89.900, 0.000, -140.300, 0.000, 0.000, -0.500, 0.0, , , , , , 96, , , 39, 39, 39
36.9937869, -119.1734975, 1.200, 11:35:53.871, 12, 0.00, 0.35, 100, 1.500, 0.000, -139.800, 1037, 100, 100, 25, 24501, -16317, 5339, 5339, 19, 14, 1528914953.872, 28, 0, 1024, 1024, 1024, 1024, 0, 6, 4056, 4082, 4089, 4089, 4067, 4090, 0, 1, 5501, -89.900, 0.000, -140.300, 0.000, 0.000, -0.600, 0.0, , , , , , 96, , , 39, 39, 39
36.9937868, -119.1734973, 1.200, 11:35:53.971, 12, 0.00, 0.36, 100, 1.800, 0.000, -139.800, 1037, 100, 100, 25, 24501, -16317, 5339, 5339, 19, 14, 1528914953.972, 20, 0, 1024, 1024, 1024, 1024, 0, 6, 4056, 4082, 4089, 4089, 4067, 4090, 0, 1, 5601, -90.000, 0.000, -140.300, 0.000, 0.000, -0.800, 0.0, , , , , , 96, , , 39, 39, 39
36.9937868, -119.1734973, 1.200, 11:35:54.070, 12, 0.00, 0.36, 100, 1.800, 0.000, -139.800, 1037, 100, 100, 25, 24501, -16317, 5339, 5339, 19, 14, 1528914954.071, 120, 0, 1024, 1024, 1024, 1024, 0, 6, 4056, 4082, 4089, 4089, 4067, 4090, 0, 1, 5700, -90.000, 0.000, -140.300, 0.000, 0.000, -0.800, 0.0, , , , , , 96, , , 39, 39, 39
36.9937866, -119.1734970, 1.400, 11:35:54.171, 12, 0.00, 0.40, 100, 2.200, -0.100, -139.600, 1037, 100, 100, 25, 24501, -16317, 5339, 5339, 19, 14, 1528914954.172, 4, 0, 1024, 1024, 1024, 1024, 0, 6, 4056, 4082, 4089, 4089, 4067, 4090, 0, 1, 5801, -90.000, 0.000, -140.300, 0.000, 0.000, -1.200, 0.0, , , , , , 96, , , 39, 39, 39
36.9937866, -119.1734969, 1.600, 11:35:54.271, 12, 0.00, 0.41, 100, 2.100, -0.200, -139.500, 1037, 100, 100, 25, 24501, -16317, 5339, 5339, 19, 14, 1528914954.272, 7, 0, 1024, 1024, 1024, 1024, 0, 6, 4056, 4082, 4089, 4089, 4067, 4090, 0, 1, 5901, -90.000, 0.000, -140.300, 0.000, 0.000, -1.500, 0.0, , , , , , 96, , , 39, 39, 39
36.9937866, -119.1734969, 1.600, 11:35:54.371, 12, 0.00, 0.41, 100, 2.100, -0.200, -139.500, 1037, 100, 100, 25, 24501, -16317, 5339, 5339, 19, 14, 1528914954.371, 106, 0, 1024, 1024, 1024, 1024, 0, 6, 4056, 4082, 4089, 4089, 4067, 4090, 0, 1, 6000, -90.000, 0.000, -140.300, 0.000, 0.000, -1.500, 0.0, , , , , , 96, , , 39, 39, 39
36.9937866, -119.1734967, 1.900, 11:35:54.472, 14, 0.00, 0.42, 100, 1.900, -0.300, -139.500, 1037, 100, 100, 25, 24501, -16317, 5339, 5339, 19, 14, 1528914954.473, 1, 0, 1024, 1024, 1024, 1024, 0, 6, 4056, 4082, 4089, 4089, 4067, 4090, 0, 1, 6102, -90.000, 0.000, -140.300, 0.000, 0.000, -1.900, 0.0, , , , , , 96, , , 39, 39, 39
36.9937866, -119.1734967, 1.900, 11:35:54.571, 14, 0.00, 0.42, 100, 1.900, -0.300, -139.500, 1037, 100, 100, 25, 24501, -16317, 5339, 5339, 19, 14, 1528914954.571, 100, 0, 1024, 1024, 1024, 1024, 0, 6, 4056, 4082, 4089, 4089, 4067, 4090, 0, 1, 6200, -90.000, 0.000, -140.300, 0.000, 0.000, -1.900, 0.0, , , , , , 96, , , 39, 39, 39
36.9937865, -119.1734967, 2.100, 11:35:54.671, 14, 0.00, 0.43, 100, 1.800, -0.200, -139.600, 1037, 100, 100, 25, 24501, -16317, 5339, 5339, 19, 14, 1528914954.671, 93, 0, 1024, 1024, 1024, 1024, 0, 6, 4056, 4082, 4089, 4089, 4067, 4090, 0, 1, 6300, -89.900, 0.000, -140.300, 0.000, 0.000, -2.200, 0.0, , , , , , 96, , , 39, 39, 39
36.9937865, -119.1734965, 2.400, 11:35:54.771, 14, 0.00, 0.45, 100, 1.800, -0.200, -139.600, 1037, 100, 100, 25, 24578, -15951, 5339, 5339, 19, 14, 1528914954.772, 78, 0, 1024, 1024, 1024, 1024, 0, 6, 4058, 4082, 4092, 4117, 4054, 4153, 0, 1, 6401, -90.000, 0.000, -140.300, 0.000, 0.000, -2.400, 0.0, , , , , , 96, , , 39, 39, 39
36.9937865, -119.1734963, 2.700, 11:35:54.871, 13, 0.00, 0.46, 100, 2.000, -0.300, -139.600, 1037, 100, 100, 25, 24578, -15951, 5339, 5339, 19, 14, 1528914954.872, 89, 0, 1024, 1024, 1024, 1024, 0, 6, 4058, 4082, 4092, 4117, 4054, 4153, 0, 1, 6501, -90.000, 0.000, -140.300, 0.000, 0.000, -2.600, 0.0, , , , , , 96, , , 39, 39, 39
36.9937865, -119.1734963, 2.900, 11:35:54.971, 13, 0.00, 0.46, 100, 2.100, -0.300, -139.600, 1037, 100, 100, 25, 24578, -15951, 5339, 5339, 19, 14, 1528914954.971, 90, 0, 1024, 1024, 1024, 1024, 0, 6, 4058, 4082, 4092, 4117, 4054, 4153, 0, 1, 6601, -90.000, 0.000, -140.300, 0.000, 0.000, -2.800, 0.0, , , , , , 96, , , 39, 39, 39
36.9937865, -119.1734962, 3.600, 11:35:55.070, 13, 0.00, 0.47, 100, 1.800, -0.200, -139.600, 1037, 100, 100, 25, 24578, -15951, 5339, 5339, 19, 14, 1528914955.071, 78, 0, 1024, 1024, 1024, 1024, 0, 6, 4058, 4082, 4092, 4117, 4054, 4153, 0, 1, 6700, -89.900, 0.000, -140.300, 0.000, 0.000, -3.100, 0.0, , , , , , 96, , , 39, 39, 39
36.9937865, -119.1734962, 3.600, 11:35:55.171, 13, 0.00, 0.47, 100, 1.800, -0.200, -139.600, 1037, 100, 100, 25, 24578, -15951, 5339, 5339, 19, 14, 1528914955.171, 178, 0, 1024, 1024, 1024, 1024, 0, 6, 4058, 4082, 4092, 4117, 4054, 4153, 0, 1, 6800, -89.900, 0.000, -140.300, 0.000, 0.000, -3.100, 0.0, , , , , , 96, , , 39, 39, 39
36.9937863, -119.1734959, 4.300, 11:35:55.271, 13, 0.00, 0.50, 100, 2.200, -0.300, -139.500, 1037, 100, 100, 25, 24578, -15951, 5339, 5339, 19, 14, 1528914955.272, 72, 0, 1024, 1024, 1024, 1024, 0, 6, 4058, 4082, 4092, 4117, 4054, 4153, 0, 1, 6901, -89.900, 0.000, -140.300, 0.000, 0.000, -3.200, 0.0, , , , , , 96, , , 39, 39, 39
36.9937863, -119.1734959, 4.300, 11:35:55.371, 13, 0.00, 0.50, 100, 2.200, -0.300, -139.500, 1037, 100, 100, 25, 24578, -15951, 5339, 5339, 19, 14, 1528914955.372, 172, 0, 1024, 1024, 1024, 1024, 0, 6, 4058, 4082, 4092, 4117, 4054, 4153, 0, 1, 7001, -89.900, 0.000, -140.300, 0.000, 0.000, -3.200, 0.0, , , , , , 96, , , 39, 39, 39
36.9937864, -119.1734959, 4.900, 11:35:55.471, 14, 0.00, 0.50, 100, 2.300, -0.100, -139.500, 1037, 100, 100, 25, 24578, -15951, 5339, 5339, 19, 14, 1528914955.471, 47, 0, 1024, 1024, 1024, 1024, 0, 6, 4058, 4082, 4092, 4117, 4054, 4153, 0, 1, 7100, -89.900, 0.000, -140.300, 0.000, 0.000, -3.200, 0.0, , , , , , 96, , , 39, 39, 39
36.9937864, -119.1734959, 5.300, 11:35:55.571, 14, 0.00, 0.50, 100, 1.900, -0.100, -139.600, 1037, 100, 100, 25, 24578, -15951, 5339, 5339, 19, 14, 1528914955.572, 41, 0, 1024, 1024, 1024, 1024, 0, 6, 4058, 4082, 4092, 4117, 4054, 4153, 0, 1, 7201, -89.900, 0.000, -140.300, 0.000, 0.000, -3.200, 0.0, , , , , , 96, , , 39, 39, 39
36.9937863, -119.1734958, 5.600, 11:35:55.671, 14, 0.00, 0.51, 100, 1.600, -0.300, -139.600, 1037, 100, 100, 25, 24578, -15951, 5339, 5339, 19, 14, 1528914955.671, 36, 0, 1024, 1024, 1024, 1024, 0, 6, 4058, 4082, 4092, 4117, 4054, 4153, 0, 1, 7300, -89.900, 0.000, -140.300, 0.000, 0.000, -3.200, 0.0, , , , , , 96, , , 39, 39, 39
36.9937863, -119.1734958, 6.000, 11:35:55.771, 14, 0.00, 0.51, 100, 1.500, -0.300, -139.600, 1037, 100, 100, 25, 23849, -24172, 5339, 5339, 19, 14, 1528914955.772, 41, 0, 1024, 1024, 1024, 1024, 0, 6, 3940, 3980, 3974, 3980, 3949, 3984, 0, 1, 7401, -89.900, 0.000, -140.300, 0.000, 0.000, -3.200, 0.0, , , , , , 96, , , 39, 39, 39
36.9937863, -119.1734959, 6.300, 11:35:55.871, 14, 0.00, 0.50, 100, 1.600, -0.200, -139.700, 1037, 100, 100, 25, 23849, -24172, 5339, 5339, 19, 14, 1528914955.872, 46, 0, 1024, 1024, 1024, 1024, 0, 6, 3940, 3980, 3974, 3980, 3949, 3984, 0, 1, 7501, -89.900, 0.000, -140.300, 0.000, 0.000, -3.100, 0.0, , , , , , 96, , , 39, 39, 39
36.9937863, -119.1734960, 6.600, 11:35:55.971, 14, 0.10, 0.49, 100, 1.500, 0.000, -139.700, 1037, 100, 100, 25, 23849, -24172, 5339, 5339, 19, 14, 1528914955.972, 13, 0, 1024, 1024, 1024, 1024, 0, 6, 3940, 3980, 3974, 3980, 3949, 3984, 0, 1, 7601, -89.900, 0.000, -140.300, 0.000, -0.100, -3.100, 0.0, , , , , , 96, , , 39, 39, 39
36.9937862, -119.1734960, 7.000, 11:35:56.070, 14, 0.00, 0.50, 100, 1.300, 0.200, -139.700, 1037, 100, 100, 25, 23849, -24172, 5339, 5339, 19, 14, 1528914956.071, 18, 0, 1024, 1024, 1024, 1024, 0, 6, 3940, 3980, 3974, 3980, 3949, 3984, 0, 1, 7700, -89.900, 0.000, -140.300, 0.000, 0.000, -3.100, 0.0, , , , , , 96, , , 39, 39, 39
36.9937861, -119.1734959, 7.300, 11:35:56.171, 14, 0.00, 0.51, 100, 1.500, 0.300, -139.700, 1037, 100, 100, 25, 23849, -24172, 5339, 5339, 19, 14, 1528914956.172, 12, 0, 1024, 1024, 1024, 1024, 0, 6, 3940, 3980, 3974, 3980, 3949, 3984, 0, 1, 7801, -89.900, 0.000, -140.300, 0.000, 0.000, -3.000, 0.0, , , , , , 96, , , 39, 39, 39
36.9937859, -119.1734958, 7.600, 11:35:56.271, 14, 0.00, 0.53, 100, 2.000, 0.400, -139.800, 1037, 100, 100, 25, 23849, -24172, 5339, 5339, 19, 14, 1528914956.271, 14, 0, 1024, 1024, 1024, 1024, 0, 6, 3940, 3980, 3974, 3980, 3949, 3984, 0, 1, 7900, -89.900, 0.000, -140.300, 0.000, 0.000, -3.100, 0.0, , , , , , 96, , , 39, 39, 39
36.9937857, -119.1734957, 7.900, 11:35:56.371, 14, 0.00, 0.55, 100, 2.600, 0.600, -139.800, 1037, 100, 100, 25, 23849, -24172, 5339, 5339, 19, 14, 1528914956.372, 17, 0, 1024, 1024, 1024, 1024, 0, 6, 3940, 3980, 3974, 3980, 3949, 3984, 0, 1, 8001, -89.900, 0.000, -140.300, 0.000, 0.000, -3.100, 0.0, , , , , , 96, , , 39, 39, 39
36.9937856, -119.1734956, 8.200, 11:35:56.471, 14, 0.00, 0.55, 100, 3.100, 0.800, -139.700, 1037, 100, 100, 25, 23849, -24172, 5339, 5339, 19, 14, 1528914956.472, 7, 0, 1024, 1024, 1024, 1024, 0, 6, 3940, 3980, 3974, 3980, 3949, 3984, 0, 1, 8101, -89.900, 0.000, -140.300, 0.000, 0.000, -3.100, 0.0, , , , , , 96, , , 39, 39, 39
36.9937856, -119.1734956, 8.600, 11:35:56.571, 13, 0.00, 0.55, 100, 3.200, 0.600, -139.700, 1037, 100, 100, 25, 23849, -24172, 5339, 5339, 19, 14, 1528914956.571, 7, 0, 1024, 1024, 1024, 1024, 0, 6, 3940, 3980, 3974, 3980, 3949, 3984, 0, 1, 8200, -90.000, 0.000, -140.300, 0.000, 0.000, -3.100, 0.0, , , , , , 96, , , 39, 39, 39
36.9937856, -119.1734956, 8.600, 11:35:56.670, 13, 0.00, 0.55, 100, 3.200, 0.600, -139.700, 1037, 100, 100, 25, 23849, -24172, 5339, 5339, 19, 14, 1528914956.671, 107, 0, 1024, 1024, 1024, 1024, 0, 6, 3940, 3980, 3974, 3980, 3949, 3984, 0, 1, 8300, -90.000, 0.000, -140.300, 0.000, 0.000, -3.100, 0.0, , , , , , 96, , , 39, 39, 39
36.9937855, -119.1734957, 8.900, 11:35:56.771, 13, 0.00, 0.55, 100, 3.000, 0.500, -139.700, 1037, 100, 100, 25, 23990, -20098, 5339, 5339, 19, 14, 1528914956.772, 64, 0, 1024, 1024, 1024, 1024, 0, 6, 3985, 3996, 4006, 4019, 3998, 4010, 0, 1, 8401, -89.900, 0.000, -140.300, 0.000, 0.000, -3.100, 0.0, , , , , , 96, , , 39, 39, 39
36.9937854, -119.1734957, 9.200, 11:35:56.877, 13, 0.10, 0.55, 100, 2.700, 0.500, -139.600, 1037, 100, 100, 25, 23990, -20098, 5339, 5339, 19, 14, 1528914956.878, 92, 0, 1024, 1024, 1024, 1024, 0, 6, 3985, 3996, 4006, 4019, 3998, 4010, 0, 1, 8507, -89.900, 0.000, -140.300, 0.000, -0.100, -3.000, 0.0, , , , , , 96, , , 39, 39, 39
36.9937854, -119.1734958, 9.500, 11:35:56.971, 13, 0.10, 0.55, 100, 2.300, 0.600, -139.500, 1037, 100, 100, 25, 23990, -20098, 5339, 5339, 19, 14, 1528914956.971, 90, 0, 1024, 1024, 1024, 1024, 0, 6, 3985, 3996, 4006, 4019, 3998, 4010, 0, 1, 8600, -89.900, 0.000, -140.300, 0.000, -0.100, -3.000, 0.0, , , , , , 96, , , 39, 39, 39
36.9937856, -119.1734959, 10.200, 11:35:57.070, 13, 0.10, 0.53, 100, 1.600, 0.400, -139.600, 1037, 100, 100, 25, 23990, -20098, 5339, 5339, 19, 14, 1528914957.071, 81, 0, 1024, 1024, 1024, 1024, 0, 6, 3985, 3996, 4006, 4019, 3998, 4010, 0, 1, 8700, -89.900, 0.000, -140.300, 0.000, -0.100, -2.900, 0.0, , , , , , 96, , , 39, 39, 39
36.9937856, -119.1734959, 10.200, 11:35:57.177, 13, 0.10, 0.53, 100, 1.600, 0.400, -139.600, 1037, 100, 100, 25, 23990, -20098, 5339, 5339, 19, 14, 1528914957.177, 188, 0, 1024, 1024, 1024, 1024, 0, 6, 3985, 3996, 4006, 4019, 3998, 4010, 0, 1, 8806, -89.900, 0.000, -140.300, 0.000, -0.100, -2.900, 0.0, , , , , , 96, , , 39, 39, 39
36.9937857, -119.1734961, 10.800, 11:35:57.271, 14, 0.14, 0.51, 100, 1.300, 0.100, -139.800, 1037, 100, 100, 25, 23990, -20098, 5339, 5339, 19, 14, 1528914957.271, 64, 0, 1024, 1024, 1024, 1024, 0, 6, 3985, 3996, 4006, 4019, 3998, 4010, 0, 1, 8900, -90.000, 0.000, -140.300, 0.100, -0.100, -3.000, 0.0, , , , , , 96, , , 39, 39, 39
36.9937857, -119.1734961, 11.100, 11:35:57.371, 13, 0.00, 0.50, 100, 1.300, 0.000, -139.900, 1037, 100, 100, 25, 23990, -20098, 5339, 5339, 19, 14, 1528914957.372, 56, 0, 1024, 1024, 1024, 1024, 0, 6, 3985, 3996, 4006, 4019, 3998, 4010, 0, 1, 9001, -90.000, 0.000, -140.300, 0.000, 0.000, -3.000, 0.0, , , , , , 96, , , 39, 39, 39
36.9937858, -119.1734962, 11.400, 11:35:57.471, 13, 0.00, 0.50, 100, 1.300, 0.000, -139.900, 1037, 100, 100, 25, 23990, -20098, 5339, 5339, 19, 14, 1528914957.471, 49, 0, 1024, 1024, 1024, 1024, 0, 6, 3985, 3996, 4006, 4019, 3998, 4010, 0, 1, 9100, -90.000, 0.000, -140.300, 0.000, 0.000, -2.900, 0.0, , , , , , 96, , , 39, 39, 39
36.9937859, -119.1734962, 11.700, 11:35:57.571, 13, 0.00, 0.49, 100, 1.400, 0.000, -139.900, 1037, 100, 100, 25, 23990, -20098, 5339, 5339, 19, 14, 1528914957.571, 49, 0, 1024, 1024, 1024, 1024, 0, 6, 3985, 3996, 4006, 4019, 3998, 4010, 0, 1, 9200, -90.000, 0.000, -140.300, 0.000, 0.000, -3.000, 0.0, , , , , , 96, , , 39, 39, 39
36.9937859, -119.1734962, 12.000, 11:35:57.671, 13, 0.00, 0.49, 100, 1.400, 0.000, -139.800, 1037, 100, 100, 25, 23990, -20098, 5339, 5339, 19, 14, 1528914957.672, 46, 0, 1024, 1024, 1024, 1024, 0, 6, 3985, 3996, 4006, 4019, 3998, 4010, 0, 1, 9301, -90.000, 0.000, -140.300, 0.000, 0.000, -2.900, 0.0, , , , , , 96, , , 39, 39, 39
36.9937859, -119.1734962, 12.300, 11:35:57.771, 13, 0.00, 0.49, 100, 1.500, 0.000, -139.800, 1037, 100, 100, 25, 24051, -19072, 5339, 5339, 19, 14, 1528914957.772, 35, 0, 1024, 1024, 1024, 1024, 0, 6, 3985, 3996, 4006, 4019, 3998, 4010, 0, 1, 9401, -90.000, 0.000, -140.300, 0.000, 0.000, -3.000, 0.0, , , , , , 96, , , 39, 39, 39
36.9937860, -119.1734963, 12.600, 11:35:57.871, 13, 0.00, 0.48, 100, 1.600, 0.000, -139.800, 1037, 100, 100, 25, 24051, -19072, 5339, 5339, 19, 14, 1528914957.871, 39, 0, 1024, 1024, 1024, 1024, 0, 6, 3985, 3996, 4006, 4019, 3998, 4010, 0, 1, 9500, -89.900, 0.000, -140.300, 0.000, 0.000, -3.000, 0.0, , , , , , 96, , , 39, 39, 39
36.9937860, -119.1734963, 13.000, 11:35:57.971, 13, 0.00, 0.47, 100, 1.500, 0.000, -139.800, 1037, 100, 100, 25, 24051, -19072, 5339, 5339, 19, 14, 1528914957.971, 31, 0, 1024, 1024, 1024, 1024, 0, 6, 3985, 3996, 4006, 4019, 3998, 4010, 0, 1, 9600, -89.900, 0.000, -140.300, 0.000, 0.000, -3.000, 0.0, , , , , , 96, , , 39, 39, 39
36.9937861, -119.1734964, 13.300, 11:35:58.070, 13, 0.00, 0.47, 100, 1.500, 0.000, -139.800, 1037, 100, 100, 25, 24051, -19072, 5339, 5339, 19, 14, 1528914958.071, 18, 0, 1024, 1024, 1024, 1024, 0, 6, 3985, 3996, 4006, 4019, 3998, 4010, 0, 1, 9700, -89.900, 0.000, -140.300, 0.000, 0.000, -3.000, 0.0, , , , , , 96, , , 39, 39, 39
36.9937861, -119.1734965, 13.600, 11:35:58.171, 13, 0.00, 0.46, 100, 1.400, 0.100, -139.800, 1037, 100, 100, 25, 24051, -19072, 5339, 5339, 19, 14, 1528914958.171, 24, 0, 1024, 1024, 1024, 1024, 0, 6, 3985, 3996, 4006, 4019, 3998, 4010, 0, 1, 9800, -89.900, 0.000, -140.300, 0.000, 0.000, -3.000, 0.0, , , , , , 96, , , 39, 39, 39
36.9937862, -119.1734965, 13.900, 11:35:58.271, 13, 0.00, 0.46, 100, 1.400, 0.100, -139.700, 1037, 100, 99, 25, 24051, -19072, 5232, 5339, 19, 14, 1528914958.271, 24, 0, 1024, 1024, 1024, 1024, 0, 6, 3980, 4010, 4018, 4026, 3988, 4018, 0, 1, 9900, -89.900, 0.000, -140.300, 0.000, 0.000, -2.900, 0.0, , , , , , 96, , , 39, 39, 39
36.9937862, -119.1734965, 14.200, 11:35:58.371, 14, 0.00, 0.45, 100, 1.400, 0.100, -139.700, 1037, 100, 99, 25, 24051, -19072, 5232, 5339, 19, 14, 1528914958.371, 29, 0, 1024, 1024, 1024, 1024, 0, 6, 3980, 4010, 4018, 4026, 3988, 4018, 0, 1, 10000, -89.900, 0.000, -140.300, 0.000, 0.000, -2.900, 0.0, , , , , , 96, , , 39, 39, 39
36.9937863, -119.1734965, 14.500, 11:35:58.471, 14, 0.00, 0.45, 100, 1.400, 0.100, -139.700, 1037, 100, 99, 25, 24051, -19072, 5232, 5339, 19, 14, 1528914958.472, 10, 0, 1024, 1024, 1024, 1024, 0, 6, 3980, 4010, 4018, 4026, 3988, 4018, 0, 1, 10101, -89.900, 0.000, -140.300, 0.000, 0.000, -2.900, 0.0, , , , , , 96, , , 39, 39, 39
36.9937864, -119.1734965, 14.800, 11:35:58.571, 14, 0.00, 0.45, 100, 1.300, 0.100, -139.700, 1037, 100, 99, 25, 24051, -19072, 5232, 5339, 19, 14, 1528914958.571, 3, 0, 1024, 1024, 1024, 1024, 0, 6, 3980, 4010, 4018, 4026, 3988, 4018, 0, 1, 10200, -90.000, 0.000, -140.300, 0.000, 0.000, -2.900, 0.0, , , , , , 96, , , 39, 39, 39
36.9937865, -119.1734966, 15.100, 11:35:58.671, 14, 0.00, 0.44, 98, 1.300, 0.000, -139.800, 1037, 100, 99, 25, 24051, -19072, 5232, 5339, 19, 14, 1528914958.672, 10, 0, 1024, 1024, 1024, 1024, 0, 6, 3980, 4010, 4018, 4026, 3988, 4018, 0, 1, 10301, -90.000, 0.000, -140.300, 0.000, 0.000, -2.900, 0.0, , , , , , 96, , , 39, 39, 39
36.9937865, -119.1734966, 15.100, 11:35:58.771, 14, 0.00, 0.44, 98, 1.300, 0.000, -139.800, 1037, 100, 99, 25, 24051, -19072, 5232, 5339, 19, 14, 1528914958.772, 110, 0, 1024, 1024, 1024, 1024, 0, 6, 3980, 4010, 4018, 4026, 3988, 4018, 0, 1, 10401, -90.000, 0.000, -140.300, 0.000, 0.000, -2.900, 0.0, , , , , , 96, , , 39, 39, 39
36.9937866, -119.1734966, 15.400, 11:35:58.871, 14, 0.00, 0.43, 98, 1.200, -0.300, -139.900, 1037, 100, 99, 25, 24051, -19072, 5232, 5339, 19, 14, 1528914958.872, 70, 0, 1024, 1024, 1024, 1024, 0, 6, 3980, 4010, 4018, 4026, 3988, 4018, 0, 1, 10501, -90.000, 0.000, -140.300, 0.000, 0.000, -2.900, 0.0, , , , , , 96, , , 39, 39, 39
36.9937867, -119.1734966, 15.700, 11:35:58.971, 14, 0.00, 0.43, 98, 1.100, -0.400, -139.900, 1037, 100, 99, 25, 24051, -19072, 5232, 5339, 19, 14, 1528914958.972, 85, 0, 1024, 1024, 1024, 1024, 0, 6, 3980, 4010, 4018, 4026, 3988, 4018, 0, 1, 10601, -90.000, 0.000, -140.300, 0.000, 0.000, -2.900, 0.0, , , , , , 96, , , 39, 39, 39
36.9937867, -119.1734966, 16.000, 11:35:59.070, 14, 0.00, 0.43, 98, 1.000, -0.600, -139.900, 1037, 100, 99, 25, 24051, -19072, 5232, 5339, 19, 14, 1528914959.071, 76, 0, 1024, 1024, 1024, 1024, 0, 6, 3980, 4010, 4018, 4026, 3988, 4018, 0, 1, 10700, -89.900, 0.000, -140.300, 0.000, 0.000, -2.900, 0.0, , , , , , 96, , , 39, 39, 39
36.9937868, -119.1734966, 16.300, 11:35:59.171, 14, 0.00, 0.42, 98, 1.000, -0.600, -139.900, 1037, 100, 99, 25, 24051, -19072, 5232, 5339, 19, 14, 1528914959.172, 81, 0, 1024, 1024, 1024, 1024, 0, 6, 3980, 4010, 4018, 4026, 3988, 4018, 0, 1, 10801, -89.900, 0.000, -140.300, 0.000, 0.000, -2.900, 0.0, , , , , , 96, , , 39, 39, 39
36.9937868, -119.1734966, 16.600, 11:35:59.271, 15, 0.00, 0.42, 98, 1.000, -0.600, -139.900, 1037, 100, 99, 25, 24022, -19072, 5232, 5339, 19, 14, 1528914959.272, 74, 0, 1024, 1024, 1024, 1024, 0, 6, 3974, 4003, 4003, 4023, 3989, 4016, 0, 1, 10901, -90.000, 0.000, -140.300, 0.000, 0.000, -2.900, 0.0, , , , , , 96, , , 39, 39, 39
36.9937868, -119.1734966, 16.900, 11:35:59.371, 15, 0.00, 0.43, 98, 1.100, -0.600, -139.700, 1037, 100, 97, 25, 24022, -19072, 5232, 5339, 19, 14, 1528914959.372, 74, 0, 1024, 1024, 1024, 1024, 0, 6, 3974, 4003, 4003, 4023, 3989, 4016, 0, 1, 11001, -90.000, 0.000, -140.300, 0.000, 0.000, -2.900, 0.0, , , , , , 96, , , 39, 39, 39
36.9937868, -119.1734965, 17.500, 11:35:59.471, 15, 0.00, 0.44, 98, 1.600, -0.100, -139.400, 1037, 100, 97, 25, 24022, -19072, 5232, 5339, 19, 14, 1528914959.472, 72, 0, 1024, 1024, 1024, 1024, 0, 6, 3974, 4003, 4003, 4023, 3989, 4016, 0, 1, 11101, -89.900, 0.000, -140.300, 0.000, 0.000, -2.900, 0.0, , , , , , 96, , , 39, 39, 39
36.9937868, -119.1734964, 17.800, 11:35:59.571, 16, 0.00, 0.44, 98, 1.900, 0.000, -139.300, 1037, 100, 97, 25, 24022, -19072, 5232, 5339, 19, 14, 1528914959.571, 62, 0, 1024, 1024, 1024, 1024, 0, 6, 3974, 4003, 4003, 4023, 3989, 4016, 0, 1, 11200, -89.900, 0.000, -140.300, 0.000, 0.000, -2.900, 0.0, , , , , , 96, , , 39, 39, 39
36.9937868, -119.1734964, 18.100, 11:35:59.671, 16, 0.00, 0.44, 98, 2.000, 0.000, -139.400, 1037, 100, 97, 25, 24022, -19072, 5232, 5339, 19, 14, 1528914959.671, 66, 0, 1024, 1024, 1024, 1024, 0, 6, 3974, 4003, 4003, 4023, 3989, 4016, 0, 1, 11300, -89.900, 0.000, -140.300, 0.000, 0.000, -2.900, 0.0, , , , , , 96, , , 39, 39, 39
36.9937868, -119.1734964, 18.400, 11:35:59.771, 16, 0.00, 0.45, 98, 2.200, -0.300, -139.600, 1037, 100, 97, 25, 24022, -19072, 5232, 5339, 19, 14, 1528914959.772, 52, 0, 1024, 1024, 1024, 1024, 0, 6, 3974, 4003, 4003, 4023, 3989, 4016, 0, 1, 11401, -90.000, 0.000, -140.300, 0.000, 0.000, -2.900, 0.0, , , , , , 96, , , 39, 39, 39
36.9937868, -119.1734964, 18.700, 11:35:59.871, 16, 0.00, 0.45, 98, 1.900, -0.400, -139.800, 1037, 100, 98, 25, 24022, -19072, 5232, 5339, 19, 14, 1528914959.872, 56, 0, 1024, 1024, 1024, 1024, 0, 6, 3974, 4003, 4003, 4023, 3989, 4016, 0, 1, 11501, -90.000, 0.000, -140.300, 0.000, 0.000, -2.900, 0.0, , , , , , 96, , , 39, 39, 39
36.9937869, -119.1734963, 19.000, 11:35:59.971, 16, 0.00, 0.45, 98, 1.700, -0.500, -140.000, 1037, 100, 98, 25, 24022, -19072, 5232, 5339, 19, 14, 1528914959.972, 49, 0, 1024, 1024, 1024, 1024, 0, 6, 3974, 4003, 4003, 4023, 3989, 4016, 0, 1, 11601, -90.000, 0.000, -140.300, 0.000, 0.000, -2.900, 0.0, , , , , , 96, , , 39, 39, 39
36.9937869, -119.1734963, 19.300, 11:36:00.070, 16, 0.00, 0.45, 98, 1.700, -0.500, -140.100, 1037, 100, 98, 25, 24022, -19072, 5232, 5339, 19, 14, 1528914960.070, 50, 0, 1024, 1024, 1024, 1024, 0, 6, 3974, 4003, 4003, 4023, 3989, 4016, 0, 1, 11699, -89.900, 0.000, -140.300, 0.000, 0.000, -2.900, 0.0, , , , , , 96, , , 39, 39, 39
36.9937869, -119.1734963, 19.600, 11:36:00.170, 16, 0.00, 0.46, 98, 1.800, -0.300, -140.100, 1037, 100, 98, 25, 24022, -19072, 5232, 5339, 19, 14, 1528914960.170, 40, 0, 1024, 1024, 1024, 1024, 0, 6, 3974, 4003, 4003, 4023, 3989, 4016, 0, 1, 11799, -89.900, 0.000, -140.300, 0.000, 0.000, -2.900, 0.0, , , , , , 96, , , 39, 39, 39
36.9937869, -119.1734962, 19.900, 11:36:00.271, 16, 0.00, 0.46, 98, 1.900, -0.200, -140.000, 1037, 100, 98, 25, 24006, -18699, 5232, 5339, 19, 14, 1528914960.271, 33, 0, 1024, 1024, 1024, 1024, 0, 6, 3978, 3998, 4013, 4017, 3980, 4017, 0, 1, 11900, -90.000, 0.000, -140.300, 0.000, 0.000, -2.900, 0.0, , , , , , 96, , , 39, 39, 39
36.9937869, -119.1734962, 20.200, 11:36:00.371, 16, 0.00, 0.46, 98, 2.000, -0.200, -139.800, 1037, 100, 98, 25, 24006, -18699, 5232, 5339, 19, 14, 1528914960.371, 48, 0, 1024, 1024, 1024, 1024, 0, 6, 3978, 3998, 4013, 4017, 3980, 4017, 0, 1, 12000, -90.000, 0.000, -140.300, 0.000, 0.000, -2.900, 0.0, , , , , , 96, , , 39, 39, 39
36.9937869, -119.1734962, 20.500, 11:36:00.471, 16, 0.00, 0.46, 98, 2.000, -0.200, -139.600, 1037, 100, 98, 25, 24006, -18699, 5232, 5339, 19, 14, 1528914960.471, 42, 0, 1024, 1024, 1024, 1024, 0, 6, 3978, 3998, 4013, 4017, 3980, 4017, 0, 1, 12100, -90.000, 0.000, -140.300, 0.000, 0.000, -2.900, 0.0, , , , , , 96, , , 39, 39, 39
36.9937869, -119.1734962, 20.500, 11:36:00.571, 16, 0.00, 0.46, 98, 2.000, -0.200, -139.600, 1037, 100, 98, 25, 24006, -18699, 5232, 5339, 19, 14, 1528914960.571, 142, 0, 1024, 1024, 1024, 1024, 0, 6, 3978, 3998, 4013, 4017, 3980, 4017, 0, 1, 12200, -90.000, 0.000, -140.300, 0.000, 0.000, -2.900, 0.0, , , , , , 96, , , 39, 39, 39
36.9937869, -119.1734961, 21.100, 11:36:00.671, 16, 0.00, 0.47, 98, 2.000, -0.500, -139.400, 1037, 100, 98, 25, 24006, -18699, 5232, 5339, 19, 14, 1528914960.671, 18, 0, 1024, 1024, 1024, 1024, 0, 6, 3978, 3998, 4013, 4017, 3980, 4017, 0, 1, 12300, -90.000, 0.000, -140.300, 0.000, 0.000, -2.900, 0.0, , , , , , 96, , , 39, 39, 39
36.9937869, -119.1734960, 21.400, 11:36:00.783, 15, 0.00, 0.48, 98, 1.700, -0.700, -139.400, 1037, 100, 98, 25, 24006, -18699, 5232, 5339, 19, 14, 1528914960.783, 5, 0, 1024, 1024, 1024, 1024, 0, 6, 3978, 3998, 4013, 4017, 3980, 4017, 0, 1, 12412, -90.000, 0.000, -140.300, 0.000, 0.000, -2.900, 0.0, , , , , , 96, , , 39, 39, 39
36.9937869, -119.1734960, 21.700, 11:36:00.871, 15, 0.00, 0.48, 98, 1.600, -0.800, -139.300, 1037, 100, 98, 25, 24006, -18699, 5232, 5339, 19, 14, 1528914960.872, 16, 0, 1024, 1024, 1024, 1024, 0, 6, 3978, 3998, 4013, 4017, 3980, 4017, 0, 1, 12501, -89.900, 0.000, -140.300, 0.000, 0.000, -2.900, 0.0, , , , , , 96, , , 39, 39, 39
36.9937869, -119.1734960, 21.700, 11:36:00.971, 15, 0.00, 0.48, 98, 1.600, -0.800, -139.300, 1037, 100, 98, 25, 24006, -18699, 5232, 5339, 19, 14, 1528914960.971, 116, 0, 1024, 1024, 1024, 1024, 0, 6, 3978, 3998, 4013, 4017, 3980, 4017, 0, 1, 12600, -89.900, 0.000, -140.300, 0.000, 0.000, -2.900, 0.0, , , , , , 96, , , 39, 39, 39
36.9937869, -119.1734959, 22.300, 11:36:01.070, 15, 0.00, 0.49, 98, 1.900, -0.600, -139.400, 1037, 100, 98, 25, 24006, -18699, 5232, 5339, 19, 14, 1528914961.070, 9, 0, 1024, 1024, 1024, 1024, 0, 6, 3978, 3998, 4013, 4017, 3980, 4017, 0, 1, 12699, -90.000, 0.000, -140.300, 0.000, 0.000, -2.900, 0.0, , , , , , 96, , , 39, 39, 39
36.9937869, -119.1734959, 22.300, 11:36:01.171, 15, 0.00, 0.49, 98, 1.900, -0.600, -139.400, 1037, 100, 98, 25, 24006, -18699, 5232, 5339, 19, 14, 1528914961.171, 110, 0, 1024, 1024, 1024, 1024, 0, 6, 3978, 3998, 4013, 4017, 3980, 4017, 0, 1, 12800, -90.000, 0.000, -140.300, 0.000, 0.000, -2.900, 0.0, , , , , , 96, , , 39, 39, 39
36.9937869, -119.1734958, 22.600, 11:36:01.271, 15, 0.00, 0.49, 98, 2.000, -0.800, -139.600, 1037, 100, 98, 25, 23990, -18692, 5232, 5339, 19, 14, 1528914961.271, 94, 0, 1024, 1024, 1024, 1024, 0, 6, 3975, 4007, 3995, 4026, 3984, 4016, 0, 1, 12900, -90.000, 0.000, -140.300, 0.000, 0.000, -2.900, 0.0, , , , , , 96, , , 39, 39, 39
36.9937870, -119.1734958, 22.900, 11:36:01.371, 15, 0.00, 0.49, 98, 2.000, -0.700, -139.700, 1037, 100, 98, 25, 23990, -18692, 5232, 5339, 19, 14, 1528914961.371, 88, 0, 1024, 1024, 1024, 1024, 0, 6, 3975, 4007, 3995, 4026, 3984, 4016, 0, 1, 13000, -90.000, 0.000, -140.300, 0.000, 0.000, -2.900, 0.0, , , , , , 96, , , 39, 39, 39
36.9937870, -119.1734958, 23.200, 11:36:01.471, 15, 0.00, 0.49, 98, 1.900, -0.700, -139.800, 1037, 100, 98, 25, 23990, -18692, 5232, 5339, 19, 14, 1528914961.471, 93, 0, 1024, 1024, 1024, 1024, 0, 6, 3975, 4007, 3995, 4026, 3984, 4016, 0, 1, 13100, -89.900, 0.000, -140.300, 0.000, 0.000, -2.900, 0.0, , , , , , 96, , , 39, 39, 39
36.9937870, -119.1734958, 23.500, 11:36:01.571, 15, 0.10, 0.49, 98, 1.700, -0.700, -139.800, 1037, 100, 98, 25, 23990, -18692, 5232, 5339, 19, 14, 1528914961.571, 84, 0, 1024, 1024, 1024, 1024, 0, 6, 3975, 4007, 3995, 4026, 3984, 4016, 0, 1, 13200, -89.900, 0.000, -140.300, 0.000, -0.100, -2.900, 0.0, , , , , , 96, , , 39, 39, 39
36.9937870, -119.1734959, 23.800, 11:36:01.671, 16, 0.10, 0.49, 98, 1.300, -0.600, -139.800, 1037, 100, 98, 25, 23990, -18692, 5232, 5339, 19, 14, 1528914961.671, 74, 0, 1024, 1024, 1024, 1024, 0, 6, 3975, 4007, 3995, 4026, 3984, 4016, 0, 1, 13300, -89.900, 0.000, -140.300, 0.000, -0.100, -2.900, 0.0, , , , , , 96, , , 39, 39, 39
36.9937870, -119.1734959, 24.100, 11:36:01.771, 16, 0.10, 0.48, 98, 1.200, -0.400, -139.800, 1037, 100, 98, 25, 23990, -18692, 5232, 5339, 19, 14, 1528914961.771, 77, 0, 1024, 1024, 1024, 1024, 0, 6, 3975, 4007, 3995, 4026, 3984, 4016, 0, 1, 13400, -89.900, 0.000, -140.300, 0.000, -0.100, -2.900, 0.0, , , , , , 96, , , 39, 39, 39
36.9937870, -119.1734960, 24.400, 11:36:01.871, 16, 0.10, 0.48, 98, 1.200, -0.300, -139.800, 1037, 100, 98, 25, 23990, -18692, 5232, 5339, 19, 14, 1528914961.871, 67, 0, 1024, 1024, 1024, 1024, 0, 6, 3975, 4007, 3995, 4026, 3984, 4016, 0, 1, 13500, -90.000, 0.000, -140.300, 0.000, -0.100, -3.000, 0.0, , , , , , 96, , , 39, 39, 39
36.9937870, -119.1734960, 24.700, 11:36:01.971, 16, 0.00, 0.48, 98, 1.300, -0.400, -139.700, 1037, 100, 98, 25, 23990, -18692, 5232, 5339, 19, 14, 1528914961.971, 79, 0, 1024, 1024, 1024, 1024, 0, 6, 3975, 4007, 3995, 4026, 3984, 4016, 0, 1, 13600, -89.900, 0.000, -140.300, 0.000, 0.000, -2.900, 0.0, , , , , , 96, , , 39, 39, 39
36.9937870, -119.1734960, 25.300, 11:36:02.070, 16, 0.00, 0.48, 98, 1.500, -0.300, -139.700, 1037, 100, 98, 25, 23990, -18692, 5232, 5339, 19, 14, 1528914962.070, 70, 0, 1024, 1024, 1024, 1024, 0, 6, 3975, 4007, 3995, 4026, 3984, 4016, 0, 1, 13699, -89.900, 0.000, -140.300, 0.000, 0.000, -2.900, 0.0, , , , , , 96, , , 39, 39, 39
36.9937869, -119.1734959, 25.600, 11:36:02.171, 17, 0.00, 0.48, 98, 1.800, -0.200, -139.700, 1037, 100, 98, 25, 23990, -18692, 5232, 5339, 19, 14, 1528914962.171, 76, 0, 1024, 1024, 1024, 1024, 0, 6, 3975, 4007, 3995, 4026, 3984, 4016, 0, 1, 13800, -89.900, 0.000, -140.300, 0.000, 0.000, -2.900, 0.0, , , , , , 96, , , 39, 39, 39
36.9937869, -119.1734959, 25.900, 11:36:02.271, 17, 0.00, 0.49, 98, 2.000, -0.100, -139.700, 1037, 100, 98, 25, 23951, -18633, 5232, 5339, 19, 14, 1528914962.271, 67, 0, 1024, 1024, 1024, 1024, 0, 6, 3967, 3989, 4003, 4013, 3970, 4003, 0, 1, 13900, -89.900, 0.000, -140.300, 0.000, 0.000, -2.900, 0.0, , , , , , 96, , , 39, 39, 39
36.9937869, -119.1734958, 26.200, 11:36:02.370, 17, 0.00, 0.49, 98, 2.200, -0.300, -139.700, 1037, 100, 100, 25, 23951, -18633, 5232, 5339, 19, 14, 1528914962.371, 56, 0, 1024, 1024, 1024, 1024, 0, 6, 3967, 3989, 4003, 4013, 3970, 4003, 0, 1, 14000, -90.000, 0.000, -140.300, 0.000, 0.000, -3.000, 0.0, , , , , , 96, , , 39, 39, 39
36.9937869, -119.1734957, 26.500, 11:36:02.471, 17, 0.00, 0.50, 98, 2.700, -0.700, -139.800, 1037, 100, 100, 25, 23951, -18633, 5232, 5339, 19, 14, 1528914962.471, 49, 0, 1024, 1024, 1024, 1024, 0, 6, 3967, 3989, 4003, 4013, 3970, 4003, 0, 1, 14100, -90.000, 0.000, -140.300, 0.000, 0.000, -3.000, 0.0, , , , , , 96, , , 39, 39, 39
36.9937869, -119.1734956, 26.800, 11:36:02.571, 17, 0.00, 0.51, 98, 3.000, -1.200, -139.900, 1037, 100, 100, 25, 23951, -18633, 5232, 5339, 19, 14, 1528914962.571, 51, 0, 1024, 1024, 1024, 1024, 0, 6, 3967, 3989, 4003, 4013, 3970, 4003, 0, 1, 14200, -90.000, 0.000, -140.300, 0.000, 0.000, -3.000, 0.0, , , , , , 96, , , 39, 39, 39
36.9937869, -119.1734955, 27.200, 11:36:02.671, 17, 0.00, 0.52, 98, 3.400, -1.500, -139.900, 1037, 100, 100, 25, 23951, -18633, 5232, 5339, 19, 14, 1528914962.671, 43, 0, 1024, 1024, 1024, 1024, 0, 6, 3967, 3989, 4003, 4013, 3970, 4003, 0, 1, 14300, -90.000, 0.000, -140.300, 0.000, 0.000, -3.000, 0.0, , , , , , 96, , , 39, 39, 39
36.9937869, -119.1734953, 27.500, 11:36:02.771, 17, 0.00, 0.54, 98, 4.200, -1.400, -139.900, 1037, 100, 100, 25, 23951, -18633, 5232, 5339, 19, 14, 1528914962.771, 33, 0, 1024, 1024, 1024, 1024, 0, 6, 3967, 3989, 4003, 4013, 3970, 4003, 0, 1, 14400, -90.000, 0.000, -140.300, 0.000, 0.000, -2.900, 0.0, , , , , , 96, , , 39, 39, 39
36.9937869, -119.1734953, 27.500, 11:36:02.870, 17, 0.00, 0.54, 98, 4.200, -1.400, -139.900, 1037, 100, 100, 25, 23951, -18633, 5232, 5339, 19, 14, 1528914962.870, 133, 0, 1024, 1024, 1024, 1024, 0, 6, 3967, 3989, 4003, 4013, 3970, 4003, 0, 1, 14499, -90.000, 0.000, -140.300, 0.000, 0.000, -2.900, 0.0, , , , , , 96, , , 39, 39, 39
36.9937868, -119.1734949, 28.100, 11:36:02.971, 17, 0.00, 0.57, 98, 4.900, -1.700, -139.900, 1037, 100, 99, 25, 23951, -18633, 5232, 5339, 19, 14, 1528914962.972, 29, 0, 1024, 1024, 1024, 1024, 0, 6, 3967, 3989, 4003, 4013, 3970, 4003, 0, 1, 14601, -90.000, 0.000, -140.300, 0.000, 0.000, -2.900, 0.0, , , , , , 96, , , 39, 39, 39
36.9937867, -119.1734947, 28.400, 11:36:03.070, 17, 0.00, 0.59, 98, 5.200, -1.800, -139.900, 1037, 100, 99, 25, 23951, -18633, 5232, 5339, 19, 14, 1528914963.070, 13, 0, 1024, 1024, 1024, 1024, 0, 6, 3967, 3989, 4003, 4013, 3970, 4003, 0, 1, 14699, -90.000, 0.000, -140.300, 0.000, 0.000, -2.900, 0.0, , , , , , 96, , , 39, 39, 39
36.9937867, -119.1734946, 28.700, 11:36:03.171, 17, 0.00, 0.61, 98, 5.100, -2.000, -140.000, 1037, 100, 99, 25, 23969, -17846, 5232, 5339, 19, 14, 1528914963.171, 17, 0, 1024, 1024, 1024, 1024, 0, 6, 3967, 3989, 4003, 4013, 3970, 4003, 0, 1, 14800, -90.000, 0.000, -140.300, 0.000, 0.000, -2.800, 0.0, , , , , , 96, , , 39, 39, 39
36.9937867, -119.1734946, 28.700, 11:36:03.271, 17, 0.00, 0.61, 98, 5.100, -2.000, -140.000, 1037, 100, 93, 25, 23969, -17846, 5232, 5339, 19, 14, 1528914963.271, 117, 0, 1024, 1024, 1024, 1024, 0, 6, 3967, 3989, 4003, 4013, 3970, 4003, 0, 1, 14900, -90.000, 0.000, -140.300, 0.000, 0.000, -2.800, 0.0, , , , , , 96, , , 39, 39, 39
36.9937867, -119.1734943, 29.300, 11:36:03.372, 17, 0.00, 0.63, 98, 5.000, -2.500, -140.200, 1037, 100, 93, 25, 23969, -17846, 5232, 5339, 19, 14, 1528914963.372, 3, 0, 1024, 1024, 1024, 1024, 0, 6, 3967, 3989, 4003, 4013, 3970, 4003, 0, 1, 15001, -90.000, 0.000, -140.300, 0.000, 0.000, -2.800, 0.0, , , , , , 96, , , 39, 39, 39
36.9937868, -119.1734942, 29.600, 11:36:03.470, 17, 0.00, 0.64, 98, 5.000, -2.600, -140.200, 1037, 100, 93, 25, 23969, -17846, 5232, 5339, 19, 14, 1528914963.470, 5, 0, 1024, 1024, 1024, 1024, 0, 6, 3967, 3989, 4003, 4013, 3970, 4003, 0, 1, 15099, -90.000, 0.000, -140.300, 0.000, 0.000, -2.900, 0.0, , , , , , 96, , , 39, 39, 39
36.9937868, -119.1734942, 29.600, 11:36:03.571, 17, 0.00, 0.64, 98, 5.000, -2.600, -140.200, 1037, 100, 93, 25, 23969, -17846, 5232, 5339, 19, 14, 1528914963.571, 106, 0, 1024, 1024, 1024, 1024, 0, 6, 3967, 3989, 4003, 4013, 3970, 4003, 0, 1, 15200, -90.000, 0.000, -140.300, 0.000, 0.000, -2.900, 0.0, , , , , , 96, , , 39, 39, 39
36.9937868, -119.1734942, 29.800, 11:36:03.671, 18, 0.00, 0.64, 98, 4.800, -2.600, -140.200, 1037, 100, 93, 25, 23969, -17846, 5232, 5339, 19, 14, 1528914963.671, 98, 0, 1024, 1024, 1024, 1024, 0, 6, 3967, 3989, 4003, 4013, 3970, 4003, 0, 1, 15300, -90.000, 0.000, -140.300, 0.000, 0.000, -2.800, 0.0, , , , , , 96, , , 39, 39, 39
36.9937869, -119.1734941, 30.100, 11:36:03.771, 18, 0.00, 0.64, 98, 4.200, -2.700, -140.300, 1037, 100, 93, 25, 23969, -17846, 5232, 5339, 19, 14, 1528914963.771, 89, 0, 1024, 1024, 1024, 1024, 0, 6, 3977, 3996, 4006, 4018, 3987, 4004, 0, 1, 15400, -90.000, 0.000, -140.300, 0.000, 0.000, -2.700, 0.0, , , , , , 96, , , 39, 39, 39
36.9937870, -119.1734941, 30.400, 11:36:03.871, 18, 0.00, 0.64, 98, 4.000, -2.600, -140.200, 1037, 100, 93, 25, 23969, -17846, 5232, 5339, 19, 14, 1528914963.871, 81, 0, 1024, 1024, 1024, 1024, 0, 6, 3977, 3996, 4006, 4018, 3987, 4004, 0, 1, 15500, -89.900, 0.000, -140.300, 0.000, 0.000, -2.800, 0.0, , , , , , 96, , , 39, 39, 39
36.9937870, -119.1734941, 30.700, 11:36:03.970, 18, 0.00, 0.64, 98, 3.800, -2.400, -140.100, 1037, 100, 93, 25, 23969, -17846, 5232, 5339, 19, 14, 1528914963.971, 77, 0, 1024, 1024, 1024, 1024, 0, 6, 3977, 3996, 4006, 4018, 3987, 4004, 0, 1, 15600, -89.900, 0.000, -140.300, 0.000, 0.000, -2.800, 0.0, , , , , , 96, , , 39, 39, 39
36.9937871, -119.1734941, 31.000, 11:36:04.070, 18, 0.00, 0.64, 98, 3.600, -2.300, -140.000, 1037, 100, 93, 25, 23969, -17846, 5232, 5339, 19, 14, 1528914964.070, 89, 0, 1024, 1024, 1024, 1024, 0, 6, 3977, 3996, 4006, 4018, 3987, 4004, 0, 1, 15699, -89.900, 0.000, -140.300, 0.000, 0.000, -2.800, 0.0, , , , , , 96, , , 39, 39, 39
36.9937871, -119.1734941, 31.200, 11:36:04.171, 18, 0.00, 0.64, 98, 3.600, -2.400, -140.000, 1037, 100, 93, 25, 23969, -17846, 5232, 5339, 19, 14, 1528914964.171, 80, 0, 1024, 1024, 1024, 1024, 0, 6, 3977, 3996, 4006, 4018, 3987, 4004, 0, 1, 15800, -89.900, 0.000, -140.300, 0.000, 0.000, -2.800, 0.0, , , , , , 96, , , 39, 39, 39
36.9937871, -119.1734941, 31.500, 11:36:04.271, 18, 0.00, 0.64, 98, 3.600, -2.400, -139.900, 1037, 100, 93, 25, 23969, -17846, 5232, 5339, 19, 14, 1528914964.271, 81, 0, 1024, 1024, 1024, 1024, 0, 6, 3977, 3996, 4006, 4018, 3987, 4004, 0, 1, 15900, -89.900, 0.000, -140.300, 0.000, 0.000, -2.800, 0.0, , , , , , 96, , , 39, 39, 39
36.9937872, -119.1734941, 31.800, 11:36:04.371, 18, 0.00, 0.64, 98, 3.600, -2.300, -139.900, 1037, 100, 94, 25, 23969, -17846, 5232, 5339, 19, 14, 1528914964.371, 85, 0, 1024, 1024, 1024, 1024, 0, 6, 3977, 3996, 4006, 4018, 3987, 4004, 0, 1, 16000, -90.000, 0.000, -140.300, 0.000, 0.000, -2.800, 0.0, , , , , , 96, , , 39, 39, 39
36.9937872, -119.1734941, 32.400, 11:36:04.471, 18, 0.00, 0.64, 98, 3.800, -2.200, -139.800, 1037, 100, 94, 25, 23969, -17846, 5232, 5339, 19, 14, 1528914964.471, 84, 0, 1024, 1024, 1024, 1024, 0, 6, 3977, 3996, 4006, 4018, 3987, 4004, 0, 1, 16100, -89.900, 0.000, -140.300, 0.000, 0.000, -2.900, 0.0, , , , , , 96, , , 39, 39, 39
36.9937871, -119.1734941, 32.700, 11:36:04.571, 18, 0.10, 0.64, 98, 3.700, -2.100, -139.800, 1037, 100, 94, 25, 23969, -17846, 5232, 5339, 19, 14, 1528914964.571, 73, 0, 1024, 1024, 1024, 1024, 0, 6, 3977, 3996, 4006, 4018, 3987, 4004, 0, 1, 16200, -90.000, 0.000, -140.300, 0.000, -0.100, -3.000, 0.0, , , , , , 96, , , 39, 39, 39
36.9937872, -119.1734942, 33.000, 11:36:04.671, 18, 0.10, 0.64, 98, 3.600, -2.000, -139.700, 1037, 100, 94, 25, 23969, -17846, 5232, 5339, 19, 14, 1528914964.671, 63, 0, 1024, 1024, 1024, 1024, 0, 6, 3977, 3996, 4006, 4018, 3987, 4004, 0, 1, 16300, -89.900, 0.000, -140.300, 0.000, -0.100, -3.000, 0.0, , , , , , 96, , , 39, 39, 39
36.9937872, -119.1734942, 33.300, 11:36:04.771, 18, 0.10, 0.64, 98, 3.600, -1.900, -139.700, 1037, 100, 94, 25, 23969, -17846, 5232, 5339, 19, 14, 1528914964.772, 33, 0, 1024, 1024, 1024, 1024, 0, 6, 3977, 3996, 4006, 4018, 3987, 4004, 0, 1, 16401, -89.900, 0.000, -140.300, 0.000, -0.100, -2.900, 0.0, , , , , , 96, , , 39, 39, 39
36.9937872, -119.1734942, 33.500, 11:36:04.871, 18, 0.10, 0.64, 98, 3.600, -1.700, -139.700, 1037, 100, 98, 25, 23969, -17846, 5232, 5339, 19, 14, 1528914964.871, 46, 0, 1024, 1024, 1024, 1024, 0, 6, 3977, 3996, 4006, 4018, 3987, 4004, 0, 1, 16500, -90.000, 0.000, -140.300, 0.000, -0.100, -2.900, 0.0, , , , , , 96, , , 39, 39, 39
36.9937872, -119.1734942, 33.800, 11:36:04.971, 18, 0.00, 0.63, 98, 3.800, -1.900, -139.700, 1037, 100, 98, 25, 23969, -17846, 5232, 5339, 19, 14, 1528914964.971, 31, 0, 1024, 1024, 1024, 1024, 0, 6, 3977, 3996, 4006, 4018, 3987, 4004, 0, 1, 16600, -90.000, 0.000, -140.300, 0.000, 0.000, -2.900, 0.0, , , , , , 96, , , 39, 39, 39
36.9937872, -119.1734942, 34.100, 11:36:05.070, 18, 0.10, 0.63, 98, 3.900, -2.000, -139.700, 1037, 100, 98, 25, 23969, -17846, 5232, 5339, 19, 14, 1528914965.070, 42, 0, 1024, 1024, 1024, 1024, 0, 6, 3977, 3996, 4006, 4018, 3987, 4004, 0, 1, 16699, -90.000, 0.000, -140.300, 0.000, -0.100, -2.900, 0.0, , , , , , 96, , , 39, 39, 39
36.9937872, -119.1734942, 34.400, 11:36:05.170, 18, 0.10, 0.63, 98, 3.700, -1.900, -139.700, 1037, 100, 98, 25, 23969, -17846, 5232, 5339, 19, 14, 1528914965.171, 34, 0, 1024, 1024, 1024, 1024, 0, 6, 3977, 3996, 4006, 4018, 3987, 4004, 0, 1, 16800, -89.900, 0.000, -140.300, 0.000, -0.100, -3.000, 0.0, , , , , , 96, , , 39, 39, 39
36.9937872, -119.1734943, 34.700, 11:36:05.271, 18, 0.10, 0.63, 98, 3.400, -1.900, -139.800, 1037, 100, 98, 25, 23937, -18567, 5232, 5339, 19, 14, 1528914965.271, 37, 0, 1024, 1024, 1024, 1024, 0, 6, 3967, 3972, 3988, 3997, 3959, 4004, 0, 1, 16900, -90.000, 0.000, -140.300, 0.000, -0.100, -3.000, 0.0, , , , , , 96, , , 39, 39, 39
36.9937872, -119.1734943, 34.700, 11:36:05.371, 18, 0.10, 0.63, 98, 3.400, -1.900, -139.800, 1037, 100, 98, 25, 23937, -18567, 5232, 5339, 19, 14, 1528914965.371, 137, 0, 1024, 1024, 1024, 1024, 0, 6, 3967, 3972, 3988, 3997, 3959, 4004, 0, 1, 17000, -90.000, 0.000, -140.300, 0.000, -0.100, -3.000, 0.0, , , , , , 96, , , 39, 39, 39
36.9937873, -119.1734944, 35.300, 11:36:05.470, 18, 0.10, 0.62, 98, 3.100, -2.400, -139.800, 1037, 100, 98, 25, 23937, -18567, 5232, 5339, 19, 14, 1528914965.470, 3, 0, 1024, 1024, 1024, 1024, 0, 6, 3967, 3972, 3988, 3997, 3959, 4004, 0, 1, 17099, -90.000, 0.000, -140.300, 0.000, -0.100, -2.900, 0.0, , , , , , 96, , , 39, 39, 39
36.9937873, -119.1734945, 35.600, 11:36:05.570, 18, 0.10, 0.61, 98, 2.900, -2.200, -139.800, 1037, 100, 98, 25, 23937, -18567, 5232, 5339, 19, 14, 1528914965.570, 5, 0, 1024, 1024, 1024, 1024, 0, 6, 3967, 3972, 3988, 3997, 3959, 4004, 0, 1, 17199, -89.900, 0.000, -140.300, 0.000, -0.100, -3.000, 0.0, , , , , , 96, , , 39, 39, 39
36.9937873, -119.1734946, 35.900, 11:36:05.670, 18, 0.10, 0.60, 98, 2.700, -1.800, -139.700, 1037, 100, 98, 25, 23797, -19554, 5232, 5339, 19, 14, 1528914965.670, 7, 0, 1024, 1024, 1024, 1024, 0, 6, 3952, 3959, 3985, 3985, 3950, 3988, 0, 1, 17299, -89.900, 0.000, -140.300, 0.000, -0.100, -3.000, 0.0, , , , , , 96, , , 39, 39, 39
36.9937873, -119.1734946, 35.900, 11:36:05.771, 18, 0.10, 0.60, 98, 2.700, -1.800, -139.700, 1037, 100, 98, 25, 23797, -19554, 5232, 5339, 19, 14, 1528914965.771, 108, 0, 1024, 1024, 1024, 1024, 0, 6, 3952, 3959, 3985, 3985, 3950, 3988, 0, 1, 17400, -89.900, 0.000, -140.300, 0.000, -0.100, -3.000, 0.0, , , , , , 96, , , 39, 39, 39
36.9937873, -119.1734946, 36.200, 11:36:05.870, 18, 0.10, 0.59, 98, 2.600, -1.500, -139.700, 1037, 100, 97, 25, 23797, -19554, 5232, 5339, 19, 14, 1528914965.871, 97, 0, 1024, 1024, 1024, 1024, 0, 6, 3952, 3959, 3985, 3985, 3950, 3988, 0, 1, 17500, -89.900, 0.000, -140.300, 0.000, -0.100, -3.000, 0.0, , , , , , 96, , , 39, 39, 39
36.9937873, -119.1734947, 36.500, 11:36:05.970, 18, 0.10, 0.59, 98, 2.700, -1.400, -139.700, 1037, 100, 97, 25, 23797, -19554, 5232, 5339, 19, 14, 1528914965.971, 74, 0, 1024, 1024, 1024, 1024, 0, 6, 3952, 3959, 3985, 3985, 3950, 3988, 0, 1, 17600, -89.900, 0.000, -140.300, 0.000, -0.100, -3.000, 0.0, , , , , , 96, , , 39, 39, 39
36.9937873, -119.1734948, 36.800, 11:36:06.070, 18, 0.10, 0.58, 98, 2.600, -1.300, -139.700, 1037, 100, 97, 25, 23797, -19554, 5232, 5339, 19, 14, 1528914966.070, 88, 0, 1024, 1024, 1024, 1024, 0, 6, 3952, 3959, 3985, 3985, 3950, 3988, 0, 1, 17699, -89.900, 0.000, -140.300, 0.000, -0.100, -3.000, 0.0, , , , , , 96, , , 39, 39, 39
36.9937873, -119.1734949, 37.100, 11:36:06.170, 18, 0.10, 0.57, 98, 2.500, -1.300, -139.700, 1037, 100, 97, 25, 23797, -19554, 5232, 5339, 19, 14, 1528914966.170, 95, 0, 1024, 1024, 1024, 1024, 0, 6, 3952, 3959, 3985, 3985, 3950, 3988, 0, 1, 17799, -89.900, 0.000, -140.300, 0.000, -0.100, -3.100, 0.0, , , , , , 96, , , 39, 39, 39
36.9937873, -119.1734949, 37.400, 11:36:06.271, 18, 0.10, 0.57, 98, 2.600, -1.500, -139.700, 1037, 100, 97, 25, 23797, -19554, 5232, 5339, 19, 14, 1528914966.271, 77, 0, 1024, 1024, 1024, 1024, 0, 6, 3952, 3959, 3985, 3985, 3950, 3988, 0, 1, 17900, -89.900, 0.000, -140.300, 0.000, -0.100, -3.100, 0.0, , , , , , 96, , , 39, 39, 39
36.9937873, -119.1734949, 37.700, 11:36:06.370, 18, 0.10, 0.57, 98, 2.700, -1.700, -139.600, 1037, 100, 99, 25, 23797, -19554, 5232, 5339, 19, 14, 1528914966.371, 89, 0, 1024, 1024, 1024, 1024, 0, 6, 3952, 3959, 3985, 3985, 3950, 3988, 0, 1, 18000, -90.000, 0.000, -140.300, 0.000, -0.100, -3.000, 0.0, , , , , , 96, , , 39, 39, 39
36.9937872, -119.1734950, 38.400, 11:36:06.470, 18, 0.00, 0.56, 98, 3.100, -1.800, -139.600, 1037, 100, 99, 25, 23797, -19554, 5232, 5339, 19, 14, 1528914966.471, 66, 0, 1024, 1024, 1024, 1024, 0, 6, 3952, 3959, 3985, 3985, 3950, 3988, 0, 1, 18100, -90.000, 0.000, -140.300, 0.000, 0.000, -3.100, 0.0, , , , , , 96, , , 39, 39, 39
36.9937872, -119.1734950, 38.400, 11:36:06.570, 18, 0.00, 0.56, 98, 3.100, -1.800, -139.600, 1037, 100, 99, 25, 23797, -19554, 5232, 5339, 19, 14, 1528914966.571, 166, 0, 1024, 1024, 1024, 1024, 0, 6, 3952, 3959, 3985, 3985, 3950, 3988, 0, 1, 18200, -89.900, 0.000, -140.300, 0.000, 0.000, -3.100, 0.0, , , , , , 96, , , 39, 39, 39
36.9937872, -119.1734950, 39.000, 11:36:06.670, 18, 0.00, 0.56, 98, 3.500, -1.400, -139.600, 1037, 100, 99, 25, 23797, -19554, 5232, 5339, 19, 14, 1528914966.670, 71, 0, 1024, 1024, 1024, 1024, 0, 6, 3952, 3959, 3985, 3985, 3950, 3988, 0, 1, 18299, -89.900, 0.000, -140.300, 0.000, 0.000, -2.900, 0.0, , , , , , 96, , , 39, 39, 39
36.9937871, -119.1734950, 39.300, 11:36:06.770, 18, 0.00, 0.56, 98, 3.600, -1.300, -139.700, 1037, 100, 99, 25, 23752, -19865, 5232, 5339, 19, 14, 1528914966.771, 55, 0, 1024, 1024, 1024, 1024, 0, 6, 3926, 3945, 3971, 3975, 3942, 3965, 0, 1, 18400, -89.900, 0.000, -140.300, 0.000, 0.000, -3.000, 0.0, , , , , , 96, , , 39, 39, 39
36.9937871, -119.1734950, 39.600, 11:36:06.870, 18, 0.10, 0.56, 98, 3.500, -1.300, -139.800, 1037, 100, 98, 25, 23752, -19865, 5232, 5339, 19, 14, 1528914966.871, 44, 0, 1024, 1024, 1024, 1024, 0, 6, 3926, 3945, 3971, 3975, 3942, 3965, 0, 1, 18500, -89.900, 0.000, -140.300, 0.000, -0.100, -3.000, 0.0, , , , , , 96, , , 39, 39, 39
36.9937871, -119.1734951, 39.900, 11:36:06.970, 18, 0.10, 0.56, 98, 3.400, -1.300, -139.800, 1037, 100, 98, 25, 23752, -19865, 5232, 5339, 19, 14, 1528914966.971, 50, 0, 1024, 1024, 1024, 1024, 0, 6, 3926, 3945, 3971, 3975, 3942, 3965, 0, 1, 18600, -90.000, 0.000, -140.300, 0.000, -0.100, -3.000, 0.0, , , , , , 96, , , 39, 39, 39
36.9937871, -119.1734951, 40.200, 11:36:07.070, 18, 0.00, 0.56, 98, 3.300, -1.400, -139.900, 1037, 100, 98, 25, 23752, -19865, 5232, 5339, 19, 14, 1528914967.070, 41, 0, 1024, 1024, 1024, 1024, 0, 6, 3926, 3945, 3971, 3975, 3942, 3965, 0, 1, 18699, -89.900, 0.000, -140.300, 0.000, 0.000, -3.000, 0.0, , , , , , 96, , , 39, 39, 39
36.9937870, -119.1734951, 40.500, 11:36:07.170, 18, 0.00, 0.55, 98, 3.400, -1.400, -139.900, 1037, 100, 98, 25, 23752, -19865, 5232, 5339, 19, 14, 1528914967.171, 31, 0, 1024, 1024, 1024, 1024, 0, 6, 3926, 3945, 3971, 3975, 3942, 3965, 0, 1, 18800, -89.900, 0.000, -140.300, 0.000, 0.000, -3.000, 0.0, , , , , , 96, , , 39, 39, 39
36.9937870, -119.1734951, 40.800, 11:36:07.271, 18, 0.00, 0.55, 98, 3.400, -1.300, -139.900, 1037, 100, 98, 25, 23752, -19865, 5232, 5339, 19, 14, 1528914967.271, 34, 0, 1024, 1024, 1024, 1024, 0, 6, 3926, 3945, 3971, 3975, 3942, 3965, 0, 1, 18900, -89.900, 0.000, -140.300, 0.000, 0.000, -3.000, 0.0, , , , , , 96, , , 39, 39, 39
36.9937870, -119.1734951, 41.100, 11:36:07.370, 18, 0.00, 0.55, 98, 3.500, -1.400, -139.900, 1037, 100, 99, 25, 23752, -19865, 5232, 5339, 19, 14, 1528914967.371, 35, 0, 1024, 1024, 1024, 1024, 0, 6, 3926, 3945, 3971, 3975, 3942, 3965, 0, 1, 19000, -89.900, 0.000, -140.300, 0.000, 0.000, -2.900, 0.0, , , , , , 96, , , 39, 39, 39
36.9937869, -119.1734951, 41.400, 11:36:07.470, 18, 0.00, 0.55, 98, 3.700, -1.400, -139.900, 1037, 100, 99, 25, 23752, -19865, 5232, 5339, 19, 14, 1528914967.471, 38, 0, 1024, 1024, 1024, 1024, 0, 6, 3926, 3945, 3971, 3975, 3942, 3965, 0, 1, 19100, -90.000, 0.000, -140.300, 0.000, 0.000, -2.900, 0.0, , , , , , 96, , , 39, 39, 39
36.9937869, -119.1734951, 41.700, 11:36:07.570, 18, 0.00, 0.55, 98, 3.600, -1.400, -139.900, 1037, 100, 99, 25, 23752, -19865, 5232, 5339, 19, 14, 1528914967.571, 30, 0, 1024, 1024, 1024, 1024, 0, 6, 3926, 3945, 3971, 3975, 3942, 3965, 0, 1, 19200, -89.900, 0.000, -140.300, 0.000, 0.000, -2.900, 0.0, , , , , , 96, , , 39, 39, 39
36.9937869, -119.1734952, 42.000, 11:36:07.670, 18, 0.00, 0.55, 98, 3.600, -1.300, -139.900, 1037, 100, 99, 25, 23764, -19452, 5232, 5339, 19, 14, 1528914967.671, 35, 0, 1024, 1024, 1024, 1024, 0, 6, 3935, 3955, 3969, 3983, 3935, 3975, 0, 1, 19300, -89.900, 0.000, -140.300, 0.000, 0.000, -3.000, 0.0, , , , , , 96, , , 39, 39, 39
36.9937869, -119.1734952, 42.300, 11:36:07.771, 18, 0.00, 0.55, 98, 3.500, -1.400, -139.800, 1037, 100, 100, 25, 23764, -19452, 5232, 5339, 19, 14, 1528914967.771, 5, 0, 1024, 1024, 1024, 1024, 0, 6, 3935, 3955, 3969, 3983, 3935, 3975, 0, 1, 19400, -90.000, 0.000, -140.300, 0.000, 0.000, -3.000, 0.0, , , , , , 96, , , 39, 39, 39
36.9937868, -119.1734952, 42.600, 11:36:07.870, 18, 0.00, 0.55, 98, 3.500, -1.400, -139.800, 1037, 100, 100, 25, 23764, -19452, 5232, 5339, 19, 14, 1528914967.870, 23, 0, 1024, 1024, 1024, 1024, 0, 6, 3935, 3955, 3969, 3983, 3935, 3975, 0, 1, 19499, -90.000, 0.000, -140.300, 0.000, 0.000, -3.000, 0.0, , , , , , 96, , , 39, 39, 39
36.9937868, -119.1734952, 43.000, 11:36:07.981, 18, 0.00, 0.55, 98, 3.500, -1.400, -139.700, 1037, 100, 100, 25, 23764, -19452, 5232, 5339, 19, 14, 1528914967.981, 3, 0, 1024, 1024, 1024, 1024, 0, 6, 3935, 3955, 3969, 3983, 3935, 3975, 0, 1, 19610, -90.000, 0.000, -140.300, 0.000, 0.000, -3.000, 0.0, , , , , , 96, , , 39, 39, 39
36.9937868, -119.1734952, 43.300, 11:36:08.070, 18, 0.00, 0.55, 98, 3.500, -1.500, -139.700, 1037, 100, 100, 25, 23764, -19452, 5232, 5339, 19, 14, 1528914968.070, 7, 0, 1024, 1024, 1024, 1024, 0, 6, 3935, 3955, 3969, 3983, 3935, 3975, 0, 1, 19699, -90.000, 0.000, -140.300, 0.000, 0.000, -2.900, 0.0, , , , , , 96, , , 39, 39, 39
36.9937868, -119.1734952, 43.600, 11:36:08.170, 18, 0.00, 0.55, 98, 3.500, -1.600, -139.700, 1037, 100, 100, 25, 23764, -19452, 5232, 5339, 19, 14, 1528914968.171, 12, 0, 1024, 1024, 1024, 1024, 0, 6, 3935, 3955, 3969, 3983, 3935, 3975, 0, 1, 19800, -90.000, 0.000, -140.300, 0.000, 0.000, -2.900, 0.0, , , , , , 96, , , 39, 39, 39
36.9937868, -119.1734952, 43.800, 11:36:08.270, 18, 0.00, 0.55, 98, 3.700, -1.600, -139.700, 1037, 100, 100, 25, 23764, -19452, 5232, 5339, 19, 14, 1528914968.271, 15, 0, 1024, 1024, 1024, 1024, 0, 6, 3935, 3955, 3969, 3983, 3935, 3975, 0, 1, 19900, -90.000, 0.000, -140.300, 0.000, 0.000, -2.900, 0.0, , , , , , 96, , , 39, 39, 39
36.9937868, -119.1734952, 43.800, 11:36:08.370, 18, 0.00, 0.55, 98, 3.700, -1.600, -139.700, 1037, 100, 100, 25, 23764, -19452, 5232, 5339, 19, 14, 1528914968.370, 113, 0, 1024, 1024, 1024, 1024, 0, 6, 3935, 3955, 3969, 3983, 3935, 3975, 0, 1, 19999, -90.000, 0.000, -140.300, 0.000, 0.000, -2.900, 0.0, , , , , , 96, , , 39, 39, 39
36.9937868, -119.1734952, 43.800, 11:36:08.470, 18, 0.00, 0.55, 98, 3.700, -1.600, -139.700, 1037, 100, 100, 25, 23764, -19452, 5232, 5339, 19, 14, 1528914968.471, 214, 0, 1024, 1024, 1024, 1024, 0, 6, 3935, 3955, 3969, 3983, 3935, 3975, 0, 1, 20100, -90.000, 0.000, -140.300, 0.000, 0.000, -2.900, 0.0, , , , , , 96, , , 39, 39, 39
36.9937867, -119.1734952, 44.400, 11:36:08.570, 18, 0.00, 0.55, 98, 3.500, -1.600, -139.800, 1037, 100, 100, 25, 23764, -19452, 5232, 5339, 19, 14, 1528914968.571, 98, 0, 1024, 1024, 1024, 1024, 0, 6, 3935, 3955, 3969, 3983, 3935, 3975, 0, 1, 20200, -90.000, 0.000, -140.300, 0.000, 0.000, -2.900, 0.0, , , , , , 96, , , 39, 39, 39
36.9937867, -119.1734952, 44.800, 11:36:08.670, 18, 0.00, 0.55, 98, 3.400, -1.600, -139.800, 1037, 100, 100, 25, 23764, -19452, 5232, 5339, 19, 14, 1528914968.671, 89, 0, 1024, 1024, 1024, 1024, 0, 6, 3935, 3955, 3969, 3983, 3935, 3975, 0, 1, 20300, -89.900, 0.000, -140.300, 0.000, 0.000, -2.900, 0.0, , , , , , 96, , , 39, 39, 39
36.9937867, -119.1734952, 45.100, 11:36:08.770, 18, 0.00, 0.55, 98, 3.300, -1.400, -139.900, 1037, 100, 100, 25, 23749, -19102, 5232, 5339, 19, 14, 1528914968.771, 80, 0, 1024, 1024, 1024, 1024, 0, 6, 3935, 3955, 3969, 3983, 3935, 3975, 0, 1, 20400, -90.000, 0.000, -140.300, 0.000, 0.000, -2.900, 0.0, , , , , , 96, , , 39, 39, 39
36.9937866, -119.1734952, 45.400, 11:36:08.870, 18, 0.00, 0.55, 98, 3.300, -1.500, -139.900, 1037, 100, 100, 25, 23749, -19102, 5232, 5339, 19, 14, 1528914968.871, 84, 0, 1024, 1024, 1024, 1024, 0, 6, 3935, 3955, 3969, 3983, 3935, 3975, 0, 1, 20500, -90.000, 0.000, -140.300, 0.000, 0.000, -2.900, 0.0, , , , , , 96, , , 39, 39, 39
