latitude,longitude,altitude(feet),ascent(feet),speed(mph),distance(feet),time(millisecond),datetime(utc),satellites,gpslevel,voltage(v),max_altitude(feet),max_ascent(feet),max_speed(mph),max_distance(feet), xSpeed(mph), ySpeed(mph), zSpeed(mph), compass_heading(degrees), pitch(degrees), roll(degrees),isPhoto,isVideo,rc_elevator,rc_aileron,rc_throttle,rc_rudder,gimbal_heading(degrees),gimbal_pitch(degrees),battery_percent,voltageCell1,voltageCell2,voltageCell3,voltageCell4,voltageCell5,voltageCell6,current(A),battery_temperature(f),flycStateRaw,flycState,message
36.9937876,-119.1735006,4820.8171155522,0,0,0,2920,2018-06-13 18:35:51,13,0,0,4820.8171155522,0,0,0,0,0,0,220.5, 1.1, 0.6,1,0,1024,1024,1024,1024,219.7,-89.9,100,4.226,4.259,4.243,4.274,4.253,4.272,0,77,11,AutoTakeoff,DJI_0035.jpg Starting Mission from Lat/Long: 36.99379/-119.17350 Camera: Zenmuse X3 - Overlap: 90/90 - Active Connection: No
36.9937877,-119.1735005,4820.8171155522,0,0,0.046693899132,3000,2018-06-13 18:35:51,13,0,25.678,4820.8171155522,0,0,0.046693899132,0,0,0,220.4, 1.1, 0.1,0,0,1024,1024,1024,1024,219.6,-89.9,100,4.226,4.259,4.243,4.274,4.253,4.272,4.162,77,11,AutoTakeoff,
36.9937877,-119.1735004,4820.8171155522,0,0,0.068759188552,3100,2018-06-13 18:35:51,13,0,25.678,4820.8171155522,0,0,0.068759188552,0,0,0,220.4, 0.6, 0,0,0,1024,1024,1024,1024,219.7,-90,100,4.226,4.259,4.243,4.274,4.253,4.272,4.162,77,11,AutoTakeoff,
36.9937878,-119.1735003,4820.8171155522,0,0,0.113873363224,3200,2018-06-13 18:35:52,13,0,25.678,4820.8171155522,0,0,0.113873363224,0,0,0,220.4, -0.2, 0,0,0,1024,1024,1024,1024,219.7,-90,100,4.226,4.259,4.243,4.274,4.253,4.272,4.162,77,11,AutoTakeoff,
36.9937878,-119.1735002,4821.1451995522,0.328084,0,0.137518705188,3300,2018-06-13 18:35:52,13,0,25.678,4821.1451995522,0.328084,0,0.137518705188,0,0,0,220.5, -0.7, 0.2,0,0,1024,1024,1024,1024,219.7,-90,100,4.226,4.259,4.243,4.274,4.253,4.272,4.162,77,11,AutoTakeoff,
36.9937879,-119.1735,4821.1451995522,0.328084,0.223694,0.20627789374,3500,2018-06-13 18:35:52,13,0,25.678,4821.1451995522,0.328084,0.223694,0.20627789374,0,0,0,220.6, -0.6, 0.2,0,0,1024,1024,1024,1024,219.7,-90,100,4.226,4.259,4.243,4.274,4.253,4.272,4.162,77,11,AutoTakeoff,
36.9937878,-119.1734999,4821.4732835522,0.656168,0.223694,0.216642723468,3600,2018-06-13 18:35:52,13,0,25.678,4821.4732835522,0.656168,0.223694,0.216642723468,0,0,0,220.6, -0.5, 0.4,0,0,1024,1024,1024,1024,219.7,-89.9,100,4.226,4.259,4.243,4.274,4.253,4.272,4.162,77,11,AutoTakeoff,
36.9937878,-119.1734999,4821.4732835522,0.656168,0.223694,0.216642723468,3700,2018-06-13 18:35:52,12,0,25.678,4821.4732835522,0.656168,0.223694,0.216642723468,0,0,0,220.6, -0.3, 0.7,0,0,1024,1024,1024,1024,219.7,-89.9,100,4.226,4.259,4.243,4.274,4.253,4.272,4.162,77,11,AutoTakeoff,
36.9937878,-119.1734997,4821.8013675522,0.984252,0.223694,0.272227042832,3800,2018-06-13 18:35:52,12,0,25.678,4821.8013675522,0.984252,0.223694,0.272227042832,0,0,0,220.6, -0.3, 1.1,0,0,1024,1024,1024,1024,219.7,-90,100,4.226,4.259,4.243,4.274,4.253,4.272,4.162,77,11,AutoTakeoff,
36.9937878,-119.1734995,4821.8013675522,0.984252,0.223694,0.32874672968,3900,2018-06-13 18:35:52,12,0,25.678,4821.8013675522,0.984252,0.223694,0.32874672968,0,0,0,220.5, -0.5, 1.5,0,0,1024,1024,1024,1024,219.7,-90,100,4.226,4.259,4.243,4.274,4.253,4.272,4.162,77,11,AutoTakeoff,
36.9937877,-119.1734993,4822.1294515522,1.312336,0.223694,0.38058072084,4000,2018-06-13 18:35:52,12,0,24.803,4822.1294515522,1.312336,0.223694,0.38058072084,0,0,0,220.4, -0.5, 1.7,0,0,1024,1024,1024,1024,219.7,-89.9,100,4.226,4.259,4.243,4.274,4.253,4.272,14.612,77,11,AutoTakeoff,
36.9937877,-119.173499,4822.4575355522,1.64042,0.223694,0.46767389948,4100,2018-06-13 18:35:52,12,0,24.803,4822.4575355522,1.64042,0.223694,0.46767389948,0,0,0,220.2, -0.5, 2,0,0,1024,1024,1024,1024,219.7,-90,100,4.226,4.259,4.243,4.274,4.253,4.272,14.612,77,11,AutoTakeoff,
36.9937876,-119.1734987,4822.7856195522,1.968504,0,0.55367127756,4300,2018-06-13 18:35:53,12,0,24.803,4822.7856195522,1.968504,0.223694,0.55367127756,0,0,0,220.2, -1, 2,0,0,1024,1024,1024,1024,219.7,-90,100,4.226,4.259,4.243,4.274,4.253,4.272,14.612,77,11,AutoTakeoff,
36.9937876,-119.1734987,4822.7856195522,1.968504,0,0.55367127756,4400,2018-06-13 18:35:53,12,0,24.803,4822.7856195522,1.968504,0.223694,0.55367127756,0,0,-0.223694,220.3, -1, 2,0,0,1024,1024,1024,1024,219.7,-90,100,4.226,4.259,4.243,4.274,4.253,4.272,14.612,77,11,AutoTakeoff,
36.9937875,-119.1734985,4823.1137035522,2.296588,0,0.61303807736,4500,2018-06-13 18:35:53,12,0,24.803,4823.1137035522,2.296588,0.223694,0.61303807736,0,0,-0.223694,220.3, -1, 2,0,0,1024,1024,1024,1024,219.7,-90,100,4.226,4.259,4.243,4.274,4.253,4.272,14.612,77,11,AutoTakeoff,
36.9937875,-119.1734983,4823.4417875522,2.624672,0,0.67122377476,4600,2018-06-13 18:35:53,12,0,24.803,4823.4417875522,2.624672,0.223694,0.67122377476,0,0,-0.223694,220.3, -0.9, 2.2,0,0,1024,1024,1024,1024,219.7,-90,100,4.226,4.259,4.243,4.274,4.253,4.272,14.612,77,11,AutoTakeoff,
36.9937875,-119.1734982,4823.4417875522,2.624672,0,0.70032482556,4700,2018-06-13 18:35:53,12,0,24.803,4823.4417875522,2.624672,0.223694,0.70032482556,0,0,-0.223694,220.3, -0.8, 2.4,0,0,1024,1024,1024,1024,219.7,-89.9,100,4.226,4.259,4.243,4.274,4.253,4.272,14.612,77,11,AutoTakeoff,
36.9937875,-119.1734982,4823.7698715522,2.952756,0,0.70032482556,4800,2018-06-13 18:35:53,12,0,24.803,4823.7698715522,2.952756,0.223694,0.70032482556,0,0,0,220.3, -0.8, 2.5,0,0,1024,1024,1024,1024,219.7,-90,100,4.226,4.259,4.243,4.274,4.253,4.272,14.612,77,6,P-GPS,
36.9937874,-119.1734981,4823.7698715522,2.952756,0,0.73215881608,4900,2018-06-13 18:35:53,12,0,24.803,4823.7698715522,2.952756,0.223694,0.73215881608,0,0,0,220.3, -0.9, 2.5,0,0,1024,1024,1024,1024,219.7,-89.9,100,4.226,4.259,4.243,4.274,4.253,4.272,14.612,77,14,Waypoint,
36.9937872,-119.173498,4824.0979555522,3.28084,0,0.77158138952,5000,2018-06-13 18:35:53,12,0,24.803,4824.0979555522,3.28084,0.223694,0.77158138952,0,0,0,220.2, -0.2, 1.7,0,0,1024,1024,1024,1024,219.7,-89.9,100,4.083,4.092,4.113,4.115,4.107,4.119,14.612,77,14,Waypoint,
36.9937872,-119.1734978,4824.0979555522,3.28084,0,0.82888454096,5100,2018-06-13 18:35:53,12,0,24.803,4824.0979555522,3.28084,0.223694,0.82888454096,0,0,0,220.2, 0.2, 1.2,0,0,1024,1024,1024,1024,219.7,-89.9,100,4.083,4.092,4.113,4.115,4.107,4.119,14.612,77,14,Waypoint,
36.9937871,-119.1734977,4824.0979555522,3.28084,0,0.86454071008,5200,2018-06-13 18:35:54,12,0,24.803,4824.0979555522,3.28084,0.223694,0.86454071008,0,0,0,220.2, 0.3, 1.1,0,0,1024,1024,1024,1024,219.7,-89.9,100,4.083,4.092,4.113,4.115,4.107,4.119,14.612,77,14,Waypoint,
36.9937871,-119.1734977,4824.4260395522,3.608924,0,0.86454071008,5300,2018-06-13 18:35:54,12,0,24.803,4824.4260395522,3.608924,0.223694,0.86454071008,0,0,0,220.1, 0.3, 1.2,0,0,1024,1024,1024,1024,219.7,-89.9,100,4.083,4.092,4.113,4.115,4.107,4.119,14.612,77,14,Waypoint,
36.993787,-119.1734976,4824.4260395522,3.608924,0,0.90120737792,5400,2018-06-13 18:35:54,12,0,24.803,4824.4260395522,3.608924,0.223694,0.90120737792,0,0,-0.223694,220.1, 0.2, 1.4,0,0,1024,1024,1024,1024,219.7,-89.9,100,4.083,4.092,4.113,4.115,4.107,4.119,14.612,77,14,Waypoint,
36.9937869,-119.1734975,4824.7541235522,3.937008,0,0.93876643424,5500,2018-06-13 18:35:54,12,0,24.803,4824.7541235522,3.937008,0.223694,0.93876643424,0,0,-0.223694,220.2, 0, 1.5,0,0,1024,1024,1024,1024,219.7,-89.9,100,4.083,4.092,4.113,4.115,4.107,4.119,14.612,77,14,Waypoint,
36.9937868,-119.1734973,4824.7541235522,3.937008,0,1.00495738124,5600,2018-06-13 18:35:54,12,0,24.803,4824.7541235522,3.937008,0.223694,1.00495738124,0,0,-0.223694,220.2, 0, 1.8,0,0,1024,1024,1024,1024,219.7,-90,100,4.083,4.092,4.113,4.115,4.107,4.119,14.612,77,14,Waypoint,
36.9937866,-119.173497,4825.4102915522,4.593176,0,1.1106955736,5800,2018-06-13 18:35:54,12,0,24.803,4825.4102915522,4.593176,0.223694,1.1106955736,0,0,-0.223694,220.4, -0.1, 2.2,0,0,1024,1024,1024,1024,219.7,-90,100,4.083,4.092,4.113,4.115,4.107,4.119,14.612,77,14,Waypoint,
36.9937866,-119.1734969,4826.0664595522,5.249344,0,1.13825791044,5900,2018-06-13 18:35:54,12,0,24.803,4826.0664595522,5.249344,0.223694,1.13825791044,0,0,-0.447388,220.5, -0.2, 2.1,0,0,1024,1024,1024,1024,219.7,-90,100,4.083,4.092,4.113,4.115,4.107,4.119,14.612,77,14,Waypoint,
36.9937866,-119.1734967,4827.0507115522,6.233596,0,1.19360896208,6100,2018-06-13 18:35:54,14,0,24.803,4827.0507115522,6.233596,0.223694,1.19360896208,0,0,-0.447388,220.5, -0.3, 1.9,0,0,1024,1024,1024,1024,219.7,-90,100,4.083,4.092,4.113,4.115,4.107,4.119,14.612,77,14,Waypoint,
36.9937865,-119.1734967,4827.7068795522,6.889764,0,1.20526250576,6300,2018-06-13 18:35:55,14,0,24.803,4827.7068795522,6.889764,0.223694,1.20526250576,0,0,-0.447388,220.4, -0.2, 1.8,0,0,1024,1024,1024,1024,219.7,-89.9,100,4.083,4.092,4.113,4.115,4.107,4.119,14.612,77,14,Waypoint,
36.9937865,-119.1734965,4828.6911315522,7.874016,0,1.2603674944,6400,2018-06-13 18:35:55,14,0,24.803,4828.6911315522,7.874016,0.223694,1.2603674944,0,0,-0.447388,220.4, -0.2, 1.8,0,0,1024,1024,1024,1024,219.7,-90,100,4.083,4.092,4.113,4.115,4.107,4.119,14.612,77,14,Waypoint,
36.9937865,-119.1734963,4829.6753835522,8.858268,0,1.31574479276,6500,2018-06-13 18:35:55,13,0,24.803,4829.6753835522,8.858268,0.223694,1.31574479276,0,0,-0.671082,220.4, -0.3, 2,0,0,1024,1024,1024,1024,219.7,-90,100,4.083,4.092,4.113,4.115,4.107,4.119,14.612,77,14,Waypoint,
36.9937865,-119.1734963,4830.3315515522,9.514436,0,1.31574479276,6600,2018-06-13 18:35:55,13,0,24.803,4830.3315515522,9.514436,0.223694,1.31574479276,0,0,-0.671082,220.4, -0.3, 2.1,0,0,1024,1024,1024,1024,219.7,-90,100,4.083,4.092,4.113,4.115,4.107,4.119,14.612,77,14,Waypoint,
36.9937865,-119.1734962,4832.6281395522,11.811024,0,1.34352694588,6700,2018-06-13 18:35:55,13,0,24.803,4832.6281395522,11.811024,0.223694,1.34352694588,0,0,-0.671082,220.4, -0.2, 1.8,0,0,1024,1024,1024,1024,219.7,-89.9,100,4.083,4.092,4.113,4.115,4.107,4.119,14.612,77,14,Waypoint,
36.9937863,-119.1734959,4834.9247275522,14.107612,0,1.4494094952,6900,2018-06-13 18:35:55,13,0,24.803,4834.9247275522,14.107612,0.223694,1.4494094952,0,0,-0.671082,220.5, -0.3, 2.2,0,0,1024,1024,1024,1024,219.7,-89.9,100,4.083,4.092,4.113,4.115,4.107,4.119,14.612,77,14,Waypoint,
36.9937864,-119.1734959,4836.8932315522,16.076116,0,1.43788390428,7100,2018-06-13 18:35:55,14,0,24.803,4836.8932315522,16.076116,0.223694,1.4494094952,0,0,-0.671082,220.5, -0.1, 2.3,0,0,1024,1024,1024,1024,219.7,-89.9,100,4.083,4.092,4.113,4.115,4.107,4.119,14.612,77,14,Waypoint,
36.9937864,-119.1734959,4838.2055675522,17.388452,0,1.43788390428,7200,2018-06-13 18:35:56,14,0,24.803,4838.2055675522,17.388452,0.223694,1.4494094952,0,0,-0.671082,220.4, -0.1, 1.9,0,0,1024,1024,1024,1024,219.7,-89.9,100,4.083,4.092,4.113,4.115,4.107,4.119,14.612,77,14,Waypoint,
36.9937863,-119.1734958,4839.1898195522,18.372704,0,1.47697511288,7300,2018-06-13 18:35:56,14,0,24.803,4839.1898195522,18.372704,0.223694,1.47697511288,0,0,-0.671082,220.4, -0.3, 1.6,0,0,1024,1024,1024,1024,219.7,-89.9,100,4.083,4.092,4.113,4.115,4.107,4.119,14.612,77,14,Waypoint,
36.9937863,-119.1734958,4840.5021555522,19.68504,0,1.47697511288,7400,2018-06-13 18:35:56,14,0,24.803,4840.5021555522,19.68504,0.223694,1.47697511288,0,0,-0.671082,220.4, -0.3, 1.5,0,0,1024,1024,1024,1024,219.7,-89.9,100,4.083,4.092,4.113,4.115,4.107,4.119,14.612,77,14,Waypoint,
36.9937863,-119.1734959,4841.4864075522,20.669292,0,1.4494094952,7500,2018-06-13 18:35:56,14,0,24.803,4841.4864075522,20.669292,0.223694,1.47697511288,0,0,-0.671082,220.3, -0.2, 1.6,0,0,1024,1024,1024,1024,219.7,-89.9,100,4.083,4.092,4.113,4.115,4.107,4.119,14.612,77,14,Waypoint,
36.9937863,-119.173496,4842.4706595522,21.653544,0.223694,1.42190293264,7600,2018-06-13 18:35:56,14,0,24.803,4842.4706595522,21.653544,0.223694,1.47697511288,0,0,-0.671082,220.3, 0, 1.5,0,0,1024,1024,1024,1024,219.7,-89.9,100,4.083,4.092,4.113,4.115,4.107,4.119,14.612,77,14,Waypoint,
36.9937862,-119.173496,4843.7829955522,22.96588,0,1.43448823488,7700,2018-06-13 18:35:56,14,0,24.803,4843.7829955522,22.96588,0.223694,1.47697511288,0,0,-0.671082,220.3, 0.2, 1.3,0,0,1024,1024,1024,1024,219.7,-89.9,100,4.083,4.092,4.113,4.115,4.107,4.119,14.612,77,14,Waypoint,
36.9937861,-119.1734959,4844.7672475522,23.950132,0,1.47489834116,7800,2018-06-13 18:35:56,14,0,24.803,4844.7672475522,23.950132,0.223694,1.47697511288,0,0,-0.671082,220.3, 0.3, 1.5,0,0,1024,1024,1024,1024,219.7,-89.9,100,4.083,4.092,4.113,4.115,4.107,4.119,14.612,77,14,Waypoint,
36.9937859,-119.1734958,4845.7514995522,24.934384,0,1.53009519332,7900,2018-06-13 18:35:56,14,0,24.803,4845.7514995522,24.934384,0.223694,1.53009519332,0,0,-0.671082,220.2, 0.4, 2,0,0,1024,1024,1024,1024,219.7,-89.9,100,4.083,4.092,4.113,4.115,4.107,4.119,14.612,77,14,Waypoint,
36.9937857,-119.1734957,4846.7357515522,25.918636,0,1.58726383032,8000,2018-06-13 18:35:56,14,0,23.849,4846.7357515522,25.918636,0.223694,1.58726383032,0,0,-0.671082,220.2, 0.6, 2.6,0,0,1024,1024,1024,1024,219.7,-89.9,100,3.94,3.98,3.974,3.98,3.949,3.984,24.172,77,14,Waypoint,
36.9937856,-119.1734956,4847.7200035522,26.902888,0,1.62953745372,8100,2018-06-13 18:35:56,14,0,23.849,4847.7200035522,26.902888,0.223694,1.62953745372,0,0,-0.671082,220.3, 0.8, 3.1,0,0,1024,1024,1024,1024,219.7,-89.9,100,3.94,3.98,3.974,3.98,3.949,3.984,24.172,77,14,Waypoint,
36.9937856,-119.1734956,4849.0323395522,28.215224,0,1.62953745372,8200,2018-06-13 18:35:57,13,0,23.849,4849.0323395522,28.215224,0.223694,1.62953745372,0,0,-0.671082,220.3, 0.6, 3.2,0,0,1024,1024,1024,1024,219.7,-90,100,3.94,3.98,3.974,3.98,3.949,3.984,24.172,77,14,Waypoint,
36.9937855,-119.1734957,4850.0165915522,29.199476,0,1.62046265028,8400,2018-06-13 18:35:57,13,0,23.849,4850.0165915522,29.199476,0.223694,1.62953745372,0,0,-0.671082,220.3, 0.5, 3,0,0,1024,1024,1024,1024,219.7,-89.9,100,3.94,3.98,3.974,3.98,3.949,3.984,24.172,77,14,Waypoint,
36.9937854,-119.1734957,4851.0008435522,30.183728,0.223694,1.63802826764,8510,2018-06-13 18:35:57,13,0,23.849,4851.0008435522,30.183728,0.223694,1.63802826764,0,0,-0.671082,220.4, 0.5, 2.7,0,0,1024,1024,1024,1024,219.7,-89.9,100,3.94,3.98,3.974,3.98,3.949,3.984,24.172,77,14,Waypoint,
36.9937854,-119.1734958,4851.9850955522,31.16798,0.223694,1.61269034032,8600,2018-06-13 18:35:57,13,0,23.849,4851.9850955522,31.16798,0.223694,1.63802826764,0,0,-0.671082,220.5, 0.6, 2.3,0,0,1024,1024,1024,1024,219.7,-89.9,100,3.94,3.98,3.974,3.98,3.949,3.984,24.172,77,14,Waypoint,
36.9937856,-119.1734959,4854.2816835522,33.464568,0.223694,1.55186356672,8700,2018-06-13 18:35:57,13,0,23.849,4854.2816835522,33.464568,0.223694,1.63802826764,0,0,-0.671082,220.4, 0.4, 1.6,0,0,1024,1024,1024,1024,219.7,-89.9,100,3.94,3.98,3.974,3.98,3.949,3.984,24.172,77,14,Waypoint,
36.9937857,-119.1734961,4856.2501875522,35.433072,0.3131716,1.48328088736,8900,2018-06-13 18:35:57,14,0,23.849,4856.2501875522,35.433072,0.3131716,1.63802826764,0,0,-0.671082,220.2, 0.1, 1.3,0,0,1024,1024,1024,1024,219.7,-90,100,3.94,3.98,3.974,3.98,3.949,3.984,24.172,77,14,Waypoint,
36.9937857,-119.1734961,4857.2344395522,36.417324,0,1.48328088736,9000,2018-06-13 18:35:57,13,0,23.99,4857.2344395522,36.417324,0.3131716,1.63802826764,0,0,-0.671082,220.1, 0, 1.3,0,0,1024,1024,1024,1024,219.7,-90,100,3.985,3.996,4.006,4.019,3.998,4.01,20.098,77,14,Waypoint,
36.9937858,-119.1734962,4858.2186915522,37.401576,0,1.44058731644,9100,2018-06-13 18:35:57,13,0,23.99,4858.2186915522,37.401576,0.3131716,1.63802826764,0,0,-0.671082,220.1, 0, 1.3,0,0,1024,1024,1024,1024,219.7,-90,100,3.985,3.996,4.006,4.019,3.998,4.01,20.098,77,14,Waypoint,
36.9937859,-119.1734962,4859.2029435522,38.385828,0,1.42432419256,9200,2018-06-13 18:35:58,13,0,23.99,4859.2029435522,38.385828,0.3131716,1.63802826764,0,0,-0.671082,220.1, 0, 1.4,0,0,1024,1024,1024,1024,219.7,-90,100,3.985,3.996,4.006,4.019,3.998,4.01,20.098,77,14,Waypoint,
36.9937859,-119.1734962,4860.1871955522,39.37008,0,1.42432419256,9300,2018-06-13 18:35:58,13,0,23.99,4860.1871955522,39.37008,0.3131716,1.63802826764,0,0,-0.671082,220.2, 0, 1.4,0,0,1024,1024,1024,1024,219.7,-90,100,3.985,3.996,4.006,4.019,3.998,4.01,20.098,77,14,Waypoint,
36.9937859,-119.1734962,4861.1714475522,40.354332,0,1.42432419256,9400,2018-06-13 18:35:58,13,0,23.99,4861.1714475522,40.354332,0.3131716,1.63802826764,0,0,-0.671082,220.2, 0, 1.5,0,0,1024,1024,1024,1024,219.7,-90,100,3.985,3.996,4.006,4.019,3.998,4.01,20.098,77,14,Waypoint,
36.993786,-119.1734963,4862.1556995522,41.338584,0,1.3823491256,9500,2018-06-13 18:35:58,13,0,23.99,4862.1556995522,41.338584,0.3131716,1.63802826764,0,0,-0.671082,220.2, 0, 1.6,0,0,1024,1024,1024,1024,219.7,-89.9,100,3.985,3.996,4.006,4.019,3.998,4.01,20.098,77,14,Waypoint,
36.993786,-119.1734963,4863.4680355522,42.65092,0,1.3823491256,9600,2018-06-13 18:35:58,13,0,23.99,4863.4680355522,42.65092,0.3131716,1.63802826764,0,0,-0.671082,220.2, 0, 1.5,0,0,1024,1024,1024,1024,219.7,-89.9,100,3.985,3.996,4.006,4.019,3.998,4.01,20.098,77,14,Waypoint,
36.9937861,-119.1734964,4864.4522875522,43.635172,0,1.34068901928,9700,2018-06-13 18:35:58,13,0,23.99,4864.4522875522,43.635172,0.3131716,1.63802826764,0,0,-0.671082,220.2, 0, 1.5,0,0,1024,1024,1024,1024,219.7,-89.9,100,3.985,3.996,4.006,4.019,3.998,4.01,20.098,77,14,Waypoint,
36.9937861,-119.1734965,4865.4365395522,44.619424,0,1.314140462,9800,2018-06-13 18:35:58,13,0,23.99,4865.4365395522,44.619424,0.3131716,1.63802826764,0,0,-0.671082,220.2, 0.1, 1.4,0,0,1024,1024,1024,1024,219.7,-89.9,100,3.985,3.996,4.006,4.019,3.998,4.01,20.098,77,14,Waypoint,
36.9937862,-119.1734965,4866.4207915522,45.603676,0,1.29937012032,9900,2018-06-13 18:35:58,13,0,23.99,4866.4207915522,45.603676,0.3131716,1.63802826764,0,0,-0.671082,220.3, 0.1, 1.4,0,0,1024,1024,1024,1024,219.7,-89.9,100,3.985,3.996,4.006,4.019,3.998,4.01,20.098,77,14,Waypoint,
36.9937862,-119.1734965,4867.4050435522,46.587928,0,1.29937012032,10000,2018-06-13 18:35:58,14,0,24.051,4867.4050435522,46.587928,0.3131716,1.63802826764,0,0,-0.671082,220.3, 0.1, 1.4,0,0,1024,1024,1024,1024,219.7,-89.9,100,3.98,4.01,4.018,4.026,3.988,4.018,19.072,77,14,Waypoint,
36.9937863,-119.1734965,4868.3892955522,47.57218,0,1.2854659204,10100,2018-06-13 18:35:58,14,0,24.051,4868.3892955522,47.57218,0.3131716,1.63802826764,0,0,-0.671082,220.3, 0.1, 1.4,0,0,1024,1024,1024,1024,219.7,-89.9,100,3.98,4.01,4.018,4.026,3.988,4.018,19.072,77,14,Waypoint,
36.9937864,-119.1734965,4869.3735475522,48.556432,0,1.27245410896,10200,2018-06-13 18:35:59,14,0,24.051,4869.3735475522,48.556432,0.3131716,1.63802826764,0,0,-0.671082,220.3, 0.1, 1.3,0,0,1024,1024,1024,1024,219.7,-90,100,3.98,4.01,4.018,4.026,3.988,4.018,19.072,77,14,Waypoint,
36.9937865,-119.1734966,4870.3577995522,49.540684,0,1.23277891084,10300,2018-06-13 18:35:59,14,0,24.051,4870.3577995522,49.540684,0.3131716,1.63802826764,0,0,-0.671082,220.2, 0, 1.3,0,0,1024,1024,1024,1024,219.7,-90,100,3.98,4.01,4.018,4.026,3.988,4.018,19.072,77,14,Waypoint,
36.9937866,-119.1734966,4871.3420515522,50.524936,0,1.22138783436,10500,2018-06-13 18:35:59,14,0,24.051,4871.3420515522,50.524936,0.3131716,1.63802826764,0,0,-0.671082,220.1, -0.3, 1.2,0,0,1024,1024,1024,1024,219.7,-90,100,3.98,4.01,4.018,4.026,3.988,4.018,19.072,77,14,Waypoint,
36.9937867,-119.1734966,4872.3263035522,51.509188,0,1.2109908524,10600,2018-06-13 18:35:59,14,0,24.051,4872.3263035522,51.509188,0.3131716,1.63802826764,0,0,-0.671082,220.1, -0.4, 1.1,0,0,1024,1024,1024,1024,219.7,-90,100,3.98,4.01,4.018,4.026,3.988,4.018,19.072,77,14,Waypoint,
36.9937867,-119.1734966,4873.3105555522,52.49344,0,1.2109908524,10700,2018-06-13 18:35:59,14,0,24.051,4873.3105555522,52.49344,0.3131716,1.63802826764,0,0,-0.671082,220.1, -0.6, 1,0,0,1024,1024,1024,1024,219.7,-89.9,100,3.98,4.01,4.018,4.026,3.988,4.018,19.072,77,14,Waypoint,
36.9937868,-119.1734966,4874.2948075522,53.477692,0,1.20161093084,10800,2018-06-13 18:35:59,14,0,24.051,4874.2948075522,53.477692,0.3131716,1.63802826764,0,0,-0.671082,220.1, -0.6, 1,0,0,1024,1024,1024,1024,219.7,-89.9,100,3.98,4.01,4.018,4.026,3.988,4.018,19.072,77,14,Waypoint,
36.9937868,-119.1734966,4875.2790595522,54.461944,0,1.20161093084,10900,2018-06-13 18:35:59,15,0,24.051,4875.2790595522,54.461944,0.3131716,1.63802826764,0,0,-0.671082,220.1, -0.6, 1,0,0,1024,1024,1024,1024,219.7,-90,100,3.98,4.01,4.018,4.026,3.988,4.018,19.072,77,14,Waypoint,
36.9937868,-119.1734966,4876.2633115522,55.446196,0,1.20161093084,11000,2018-06-13 18:35:59,15,0,24.022,4876.2633115522,55.446196,0.3131716,1.63802826764,0,0,-0.671082,220.3, -0.6, 1.1,0,0,1024,1024,1024,1024,219.7,-90,98,3.974,4.003,4.003,4.023,3.989,4.016,19.072,77,14,Waypoint,
36.9937868,-119.1734965,4878.2318155522,57.4147,0,1.22989833332,11100,2018-06-13 18:35:59,15,0,24.022,4878.2318155522,57.4147,0.3131716,1.63802826764,0,0,-0.671082,220.6, -0.1, 1.6,0,0,1024,1024,1024,1024,219.7,-89.9,98,3.974,4.003,4.003,4.023,3.989,4.016,19.072,77,14,Waypoint,
36.9937868,-119.1734964,4879.2160675522,58.398952,0,1.25822510588,11200,2018-06-13 18:36:00,16,0,24.022,4879.2160675522,58.398952,0.3131716,1.63802826764,0,0,-0.671082,220.7, 0, 1.9,0,0,1024,1024,1024,1024,219.7,-89.9,98,3.974,4.003,4.003,4.023,3.989,4.016,19.072,77,14,Waypoint,
36.9937868,-119.1734964,4880.2003195522,59.383204,0,1.25822510588,11300,2018-06-13 18:36:00,16,0,24.022,4880.2003195522,59.383204,0.3131716,1.63802826764,0,0,-0.671082,220.6, 0, 2,0,0,1024,1024,1024,1024,219.7,-89.9,98,3.974,4.003,4.003,4.023,3.989,4.016,19.072,77,14,Waypoint,
36.9937868,-119.1734964,4881.1845715522,60.367456,0,1.25822510588,11400,2018-06-13 18:36:00,16,0,24.022,4881.1845715522,60.367456,0.3131716,1.63802826764,0,0,-0.671082,220.4, -0.3, 2.2,0,0,1024,1024,1024,1024,219.7,-90,98,3.974,4.003,4.003,4.023,3.989,4.016,19.072,77,14,Waypoint,
36.9937868,-119.1734964,4882.1688235522,61.351708,0,1.25822510588,11500,2018-06-13 18:36:00,16,0,24.022,4882.1688235522,61.351708,0.3131716,1.63802826764,0,0,-0.671082,220.2, -0.4, 1.9,0,0,1024,1024,1024,1024,219.7,-90,98,3.974,4.003,4.003,4.023,3.989,4.016,19.072,77,14,Waypoint,
36.9937869,-119.1734963,4883.1530755522,62.33596,0,1.2788058152,11600,2018-06-13 18:36:00,16,0,24.022,4883.1530755522,62.33596,0.3131716,1.63802826764,0,0,-0.671082,220, -0.5, 1.7,0,0,1024,1024,1024,1024,219.7,-90,98,3.974,4.003,4.003,4.023,3.989,4.016,19.072,77,14,Waypoint,
36.9937869,-119.1734963,4884.1373275522,63.320212,0,1.2788058152,11700,2018-06-13 18:36:00,16,0,24.022,4884.1373275522,63.320212,0.3131716,1.63802826764,0,0,-0.671082,219.9, -0.5, 1.7,0,0,1024,1024,1024,1024,219.7,-89.9,98,3.974,4.003,4.003,4.023,3.989,4.016,19.072,77,14,Waypoint,
36.9937869,-119.1734963,4885.1215795522,64.304464,0,1.2788058152,11800,2018-06-13 18:36:00,16,0,24.022,4885.1215795522,64.304464,0.3131716,1.63802826764,0,0,-0.671082,219.9, -0.3, 1.8,0,0,1024,1024,1024,1024,219.7,-89.9,98,3.974,4.003,4.003,4.023,3.989,4.016,19.072,77,14,Waypoint,
36.9937869,-119.1734962,4886.1058315522,65.288716,0,1.30737208908,11900,2018-06-13 18:36:00,16,0,24.022,4886.1058315522,65.288716,0.3131716,1.63802826764,0,0,-0.671082,220, -0.2, 1.9,0,0,1024,1024,1024,1024,219.7,-90,98,3.974,4.003,4.003,4.023,3.989,4.016,19.072,77,14,Waypoint,
36.9937869,-119.1734962,4887.0900835522,66.272968,0,1.30737208908,12000,2018-06-13 18:36:00,16,0,24.006,4887.0900835522,66.272968,0.3131716,1.63802826764,0,0,-0.671082,220.2, -0.2, 2,0,0,1024,1024,1024,1024,219.7,-90,98,3.978,3.998,4.013,4.017,3.98,4.017,18.699,77,14,Waypoint,
36.9937869,-119.1734962,4888.0743355522,67.25722,0,1.30737208908,12100,2018-06-13 18:36:00,16,0,24.006,4888.0743355522,67.25722,0.3131716,1.63802826764,0,0,-0.671082,220.4, -0.2, 2,0,0,1024,1024,1024,1024,219.7,-90,98,3.978,3.998,4.013,4.017,3.98,4.017,18.699,77,14,Waypoint,
36.9937869,-119.1734961,4890.0428395522,69.225724,0,1.33596460968,12300,2018-06-13 18:36:01,16,0,24.006,4890.0428395522,69.225724,0.3131716,1.63802826764,0,0,-0.671082,220.6, -0.5, 2,0,0,1024,1024,1024,1024,219.7,-90,98,3.978,3.998,4.013,4.017,3.98,4.017,18.699,77,14,Waypoint,
36.9937869,-119.173496,4891.0270915522,70.209976,0,1.36457681532,12410,2018-06-13 18:36:01,15,0,24.006,4891.0270915522,70.209976,0.3131716,1.63802826764,0,0,-0.671082,220.6, -0.7, 1.7,0,0,1024,1024,1024,1024,219.7,-90,98,3.978,3.998,4.013,4.017,3.98,4.017,18.699,77,14,Waypoint,
36.9937869,-119.173496,4892.0113435522,71.194228,0,1.36457681532,12500,2018-06-13 18:36:01,15,0,24.006,4892.0113435522,71.194228,0.3131716,1.63802826764,0,0,-0.671082,220.7, -0.8, 1.6,0,0,1024,1024,1024,1024,219.7,-89.9,98,3.978,3.998,4.013,4.017,3.98,4.017,18.699,77,14,Waypoint,
36.9937869,-119.1734959,4893.9798475522,73.162732,0,1.39321526768,12700,2018-06-13 18:36:01,15,0,24.006,4893.9798475522,73.162732,0.3131716,1.63802826764,0,0,-0.671082,220.6, -0.6, 1.9,0,0,1024,1024,1024,1024,219.7,-90,98,3.978,3.998,4.013,4.017,3.98,4.017,18.699,77,14,Waypoint,
36.9937869,-119.1734958,4894.9640995522,74.146984,0,1.42187012424,12900,2018-06-13 18:36:01,15,0,24.006,4894.9640995522,74.146984,0.3131716,1.63802826764,0,0,-0.671082,220.4, -0.8, 2,0,0,1024,1024,1024,1024,219.7,-90,98,3.978,3.998,4.013,4.017,3.98,4.017,18.699,77,14,Waypoint,
36.993787,-119.1734958,4895.9483515522,75.131236,0,1.41577432352,13000,2018-06-13 18:36:01,15,0,23.99,4895.9483515522,75.131236,0.3131716,1.63802826764,0,0,-0.671082,220.3, -0.7, 2,0,0,1024,1024,1024,1024,219.7,-90,98,3.975,4.007,3.995,4.026,3.984,4.016,18.692,77,14,Waypoint,
36.993787,-119.1734958,4896.9326035522,76.115488,0,1.41577432352,13100,2018-06-13 18:36:01,15,0,23.99,4896.9326035522,76.115488,0.3131716,1.63802826764,0,0,-0.671082,220.2, -0.7, 1.9,0,0,1024,1024,1024,1024,219.7,-89.9,98,3.975,4.007,3.995,4.026,3.984,4.016,18.692,77,14,Waypoint,
36.993787,-119.1734958,4897.9168555522,77.09974,0.223694,1.41577432352,13200,2018-06-13 18:36:02,15,0,23.99,4897.9168555522,77.09974,0.3131716,1.63802826764,0,0,-0.671082,220.2, -0.7, 1.7,0,0,1024,1024,1024,1024,219.7,-89.9,98,3.975,4.007,3.995,4.026,3.984,4.016,18.692,77,14,Waypoint,
36.993787,-119.1734959,4898.9011075522,78.083992,0.223694,1.3869915142,13300,2018-06-13 18:36:02,16,0,23.99,4898.9011075522,78.083992,0.3131716,1.63802826764,0,0,-0.671082,220.2, -0.6, 1.3,0,0,1024,1024,1024,1024,219.7,-89.9,98,3.975,4.007,3.995,4.026,3.984,4.016,18.692,77,14,Waypoint,
36.993787,-119.1734959,4899.8853595522,79.068244,0.223694,1.3869915142,13400,2018-06-13 18:36:02,16,0,23.99,4899.8853595522,79.068244,0.3131716,1.63802826764,0,0,-0.671082,220.2, -0.4, 1.2,0,0,1024,1024,1024,1024,219.7,-89.9,98,3.975,4.007,3.995,4.026,3.984,4.016,18.692,77,14,Waypoint,
36.993787,-119.173496,4900.8696115522,80.052496,0.223694,1.35822182824,13500,2018-06-13 18:36:02,16,0,23.99,4900.8696115522,80.052496,0.3131716,1.63802826764,0,0,-0.671082,220.2, -0.3, 1.2,0,0,1024,1024,1024,1024,219.7,-90,98,3.975,4.007,3.995,4.026,3.984,4.016,18.692,77,14,Waypoint,
36.993787,-119.173496,4901.8538635522,81.036748,0,1.35822182824,13600,2018-06-13 18:36:02,16,0,23.99,4901.8538635522,81.036748,0.3131716,1.63802826764,0,0,-0.671082,220.3, -0.4, 1.3,0,0,1024,1024,1024,1024,219.7,-89.9,98,3.975,4.007,3.995,4.026,3.984,4.016,18.692,77,14,Waypoint,
36.993787,-119.173496,4903.8223675522,83.005252,0,1.35822182824,13700,2018-06-13 18:36:02,16,0,23.99,4903.8223675522,83.005252,0.3131716,1.63802826764,0,0,-0.671082,220.3, -0.3, 1.5,0,0,1024,1024,1024,1024,219.7,-89.9,98,3.975,4.007,3.995,4.026,3.984,4.016,18.692,77,14,Waypoint,
36.9937869,-119.1734959,4904.8066195522,83.989504,0,1.39321526768,13800,2018-06-13 18:36:02,17,0,23.99,4904.8066195522,83.989504,0.3131716,1.63802826764,0,0,-0.671082,220.3, -0.2, 1.8,0,0,1024,1024,1024,1024,219.7,-89.9,98,3.975,4.007,3.995,4.026,3.984,4.016,18.692,77,14,Waypoint,
36.9937869,-119.1734959,4905.7908715522,84.973756,0,1.39321526768,13900,2018-06-13 18:36:02,17,0,23.99,4905.7908715522,84.973756,0.3131716,1.63802826764,0,0,-0.671082,220.3, -0.1, 2,0,0,1024,1024,1024,1024,219.7,-89.9,98,3.975,4.007,3.995,4.026,3.984,4.016,18.692,77,14,Waypoint,
36.9937869,-119.1734958,4906.7751235522,85.958008,0,1.42187012424,14000,2018-06-13 18:36:02,17,0,23.951,4906.7751235522,85.958008,0.3131716,1.63802826764,0,0,-0.671082,220.3, -0.3, 2.2,0,0,1024,1024,1024,1024,219.7,-90,98,3.967,3.989,4.003,4.013,3.97,4.003,18.633,77,14,Waypoint,
36.9937869,-119.1734957,4907.7593755522,86.94226,0,1.45054794668,14100,2018-06-13 18:36:02,17,0,23.951,4907.7593755522,86.94226,0.3131716,1.63802826764,0,0,-0.671082,220.2, -0.7, 2.7,0,0,1024,1024,1024,1024,219.7,-90,98,3.967,3.989,4.003,4.013,3.97,4.003,18.633,77,14,Waypoint,
36.9937869,-119.1734956,4908.7436275522,87.926512,0,1.47924217332,14200,2018-06-13 18:36:03,17,0,23.951,4908.7436275522,87.926512,0.3131716,1.63802826764,0,0,-0.671082,220.1, -1.2, 3,0,0,1024,1024,1024,1024,219.7,-90,98,3.967,3.989,4.003,4.013,3.97,4.003,18.633,77,14,Waypoint,
36.9937869,-119.1734955,4910.0559635522,89.238848,0,1.50795280416,14300,2018-06-13 18:36:03,17,0,23.951,4910.0559635522,89.238848,0.3131716,1.63802826764,0,0,-0.671082,220.1, -1.5, 3.4,0,0,1024,1024,1024,1024,219.7,-90,98,3.967,3.989,4.003,4.013,3.97,4.003,18.633,77,14,Waypoint,
36.9937869,-119.1734953,4911.0402155522,90.2231,0,1.56542327844,14400,2018-06-13 18:36:03,17,0,23.951,4911.0402155522,90.2231,0.3131716,1.63802826764,0,0,-0.671082,220.1, -1.4, 4.2,0,0,1024,1024,1024,1024,219.7,-90,98,3.967,3.989,4.003,4.013,3.97,4.003,18.633,77,14,Waypoint,
36.9937868,-119.1734949,4913.0087195522,92.191604,0,1.68646002772,14600,2018-06-13 18:36:03,17,0,23.951,4913.0087195522,92.191604,0.3131716,1.68646002772,0,0,-0.671082,220.1, -1.7, 4.9,0,0,1024,1024,1024,1024,219.7,-90,98,3.967,3.989,4.003,4.013,3.97,4.003,18.633,77,14,Waypoint,
36.9937867,-119.1734947,4913.9929715522,93.175856,0,1.75036751008,14700,2018-06-13 18:36:03,17,0,23.951,4913.9929715522,93.175856,0.3131716,1.75036751008,0,0,-0.671082,220.1, -1.8, 5.2,0,0,1024,1024,1024,1024,219.7,-90,98,3.967,3.989,4.003,4.013,3.97,4.003,18.633,77,14,Waypoint,
36.9937867,-119.1734946,4914.9772235522,94.160108,0,1.77899940076,14800,2018-06-13 18:36:03,17,0,23.951,4914.9772235522,94.160108,0.3131716,1.77899940076,0,0,-0.671082,220, -2, 5.1,0,0,1024,1024,1024,1024,219.7,-90,98,3.967,3.989,4.003,4.013,3.97,4.003,18.633,77,14,Waypoint,
36.9937867,-119.1734943,4916.9457275522,96.128612,0,1.86499021716,15000,2018-06-13 18:36:03,17,0,23.969,4916.9457275522,96.128612,0.3131716,1.86499021716,0,0,-0.671082,219.8, -2.5, 5,0,0,1024,1024,1024,1024,219.7,-90,98,3.967,3.989,4.003,4.013,3.97,4.003,17.846,77,14,Waypoint,
36.9937868,-119.1734942,4917.9299795522,97.112864,0,1.8876969108,15100,2018-06-13 18:36:03,17,0,23.969,4917.9299795522,97.112864,0.3131716,1.8876969108,0,0,-0.671082,219.8, -2.6, 5,0,0,1024,1024,1024,1024,219.7,-90,98,3.967,3.989,4.003,4.013,3.97,4.003,17.846,77,14,Waypoint,
36.9937868,-119.1734942,4918.5861475522,97.769032,0,1.8876969108,15300,2018-06-13 18:36:04,18,0,23.969,4918.5861475522,97.769032,0.3131716,1.8876969108,0,0,-0.671082,219.8, -2.6, 4.8,0,0,1024,1024,1024,1024,219.7,-90,98,3.967,3.989,4.003,4.013,3.97,4.003,17.846,77,14,Waypoint,
36.9937869,-119.1734941,4919.5703995522,98.753284,0,1.91127630788,15400,2018-06-13 18:36:04,18,0,23.969,4919.5703995522,98.753284,0.3131716,1.91127630788,0,0,-0.671082,219.7, -2.7, 4.2,0,0,1024,1024,1024,1024,219.7,-90,98,3.967,3.989,4.003,4.013,3.97,4.003,17.846,77,14,Waypoint,
36.993787,-119.1734941,4920.5546515522,99.737536,0,1.906742187,15500,2018-06-13 18:36:04,18,0,23.969,4920.5546515522,99.737536,0.3131716,1.91127630788,0,0,-0.671082,219.8, -2.6, 4,0,0,1024,1024,1024,1024,219.7,-89.9,98,3.967,3.989,4.003,4.013,3.97,4.003,17.846,77,14,Waypoint,
36.993787,-119.1734941,4921.5389035522,100.721788,0,1.906742187,15600,2018-06-13 18:36:04,18,0,23.969,4921.5389035522,100.721788,0.3131716,1.91127630788,0,0,-0.671082,219.9, -2.4, 3.8,0,0,1024,1024,1024,1024,219.7,-89.9,98,3.967,3.989,4.003,4.013,3.97,4.003,17.846,77,14,Waypoint,
36.9937871,-119.1734941,4922.5231555522,101.70604,0,1.90290032336,15700,2018-06-13 18:36:04,18,0,23.969,4922.5231555522,101.70604,0.3131716,1.91127630788,0,0,-0.671082,220, -2.3, 3.6,0,0,1024,1024,1024,1024,219.7,-89.9,98,3.967,3.989,4.003,4.013,3.97,4.003,17.846,77,14,Waypoint,
36.9937871,-119.1734941,4923.1793235522,102.362208,0,1.90290032336,15800,2018-06-13 18:36:04,18,0,23.969,4923.1793235522,102.362208,0.3131716,1.91127630788,0,0,-0.671082,220, -2.4, 3.6,0,0,1024,1024,1024,1024,219.7,-89.9,98,3.967,3.989,4.003,4.013,3.97,4.003,17.846,77,14,Waypoint,
36.9937871,-119.1734941,4924.1635755522,103.34646,0,1.90290032336,15900,2018-06-13 18:36:04,18,0,23.969,4924.1635755522,103.34646,0.3131716,1.91127630788,0,0,-0.671082,220.1, -2.4, 3.6,0,0,1024,1024,1024,1024,219.7,-89.9,98,3.967,3.989,4.003,4.013,3.97,4.003,17.846,77,14,Waypoint,
36.9937872,-119.1734941,4925.1478275522,104.330712,0,1.89975071696,16000,2018-06-13 18:36:04,18,0,23.969,4925.1478275522,104.330712,0.3131716,1.91127630788,0,0,-0.671082,220.1, -2.3, 3.6,0,0,1024,1024,1024,1024,219.7,-90,98,3.977,3.996,4.006,4.018,3.987,4.004,17.846,77,14,Waypoint,
36.9937872,-119.1734941,4927.1163315522,106.299216,0,1.89975071696,16100,2018-06-13 18:36:04,18,0,23.969,4927.1163315522,106.299216,0.3131716,1.91127630788,0,0,-0.671082,220.2, -2.2, 3.8,0,0,1024,1024,1024,1024,219.7,-89.9,98,3.977,3.996,4.006,4.018,3.987,4.004,17.846,77,14,Waypoint,
36.9937871,-119.1734941,4928.1005835522,107.283468,0.223694,1.90290032336,16200,2018-06-13 18:36:05,18,0,23.969,4928.1005835522,107.283468,0.3131716,1.91127630788,0,0,-0.671082,220.2, -2.1, 3.7,0,0,1024,1024,1024,1024,219.7,-90,98,3.977,3.996,4.006,4.018,3.987,4.004,17.846,77,14,Waypoint,
36.9937872,-119.1734942,4929.0848355522,108.26772,0.223694,1.87069559792,16300,2018-06-13 18:36:05,18,0,23.969,4929.0848355522,108.26772,0.3131716,1.91127630788,0,0,-0.671082,220.3, -2, 3.6,0,0,1024,1024,1024,1024,219.7,-89.9,98,3.977,3.996,4.006,4.018,3.987,4.004,17.846,77,14,Waypoint,
36.9937872,-119.1734942,4930.0690875522,109.251972,0.223694,1.87069559792,16400,2018-06-13 18:36:05,18,0,23.969,4930.0690875522,109.251972,0.3131716,1.91127630788,0,0,-0.671082,220.3, -1.9, 3.6,0,0,1024,1024,1024,1024,219.7,-89.9,98,3.977,3.996,4.006,4.018,3.987,4.004,17.846,77,14,Waypoint,
36.9937872,-119.1734942,4930.7252555522,109.90814,0.223694,1.87069559792,16500,2018-06-13 18:36:05,18,0,23.969,4930.7252555522,109.90814,0.3131716,1.91127630788,0,0,-0.671082,220.3, -1.7, 3.6,0,0,1024,1024,1024,1024,219.7,-90,98,3.977,3.996,4.006,4.018,3.987,4.004,17.846,77,14,Waypoint,
36.9937872,-119.1734942,4931.7095075522,110.892392,0,1.87069559792,16600,2018-06-13 18:36:05,18,0,23.969,4931.7095075522,110.892392,0.3131716,1.91127630788,0,0,-0.671082,220.3, -1.9, 3.8,0,0,1024,1024,1024,1024,219.7,-90,98,3.977,3.996,4.006,4.018,3.987,4.004,17.846,77,14,Waypoint,
36.9937872,-119.1734942,4932.6937595522,111.876644,0.223694,1.87069559792,16700,2018-06-13 18:36:05,18,0,23.969,4932.6937595522,111.876644,0.3131716,1.91127630788,0,0,-0.671082,220.3, -2, 3.9,0,0,1024,1024,1024,1024,219.7,-90,98,3.977,3.996,4.006,4.018,3.987,4.004,17.846,77,14,Waypoint,
36.9937872,-119.1734942,4933.6780115522,112.860896,0.223694,1.87069559792,16800,2018-06-13 18:36:05,18,0,23.969,4933.6780115522,112.860896,0.3131716,1.91127630788,0,0,-0.671082,220.3, -1.9, 3.7,0,0,1024,1024,1024,1024,219.7,-89.9,98,3.977,3.996,4.006,4.018,3.987,4.004,17.846,77,14,Waypoint,
36.9937872,-119.1734943,4934.6622635522,113.845148,0.223694,1.84164704056,16900,2018-06-13 18:36:05,18,0,23.969,4934.6622635522,113.845148,0.3131716,1.91127630788,0,0,-0.671082,220.2, -1.9, 3.4,0,0,1024,1024,1024,1024,219.7,-90,98,3.977,3.996,4.006,4.018,3.987,4.004,17.846,77,14,Waypoint,
36.9937873,-119.1734944,4936.6307675522,115.813652,0.223694,1.81002630464,17100,2018-06-13 18:36:05,18,0,23.969,4936.6307675522,115.813652,0.3131716,1.91127630788,0,0,-0.671082,220.2, -2.4, 3.1,0,0,1024,1024,1024,1024,219.7,-90,98,3.977,3.996,4.006,4.018,3.987,4.004,17.846,77,14,Waypoint,
36.9937873,-119.1734945,4937.6150195522,116.797904,0.223694,1.78094165804,17200,2018-06-13 18:36:06,18,0,23.969,4937.6150195522,116.797904,0.3131716,1.91127630788,0,0,-0.671082,220.2, -2.2, 2.9,0,0,1024,1024,1024,1024,219.7,-89.9,98,3.977,3.996,4.006,4.018,3.987,4.004,17.846,77,14,Waypoint,
36.9937873,-119.1734946,4938.5992715522,117.782156,0.223694,1.75185701144,17300,2018-06-13 18:36:06,18,0,23.969,4938.5992715522,117.782156,0.3131716,1.91127630788,0,0,-0.671082,220.3, -1.8, 2.7,0,0,1024,1024,1024,1024,219.7,-89.9,98,3.977,3.996,4.006,4.018,3.987,4.004,17.846,77,14,Waypoint,
36.9937873,-119.1734946,4939.5835235522,118.766408,0.223694,1.75185701144,17500,2018-06-13 18:36:06,18,0,23.969,4939.5835235522,118.766408,0.3131716,1.91127630788,0,0,-0.671082,220.3, -1.5, 2.6,0,0,1024,1024,1024,1024,219.7,-89.9,98,3.977,3.996,4.006,4.018,3.987,4.004,17.846,77,14,Waypoint,
36.9937873,-119.1734947,4940.5677755522,119.75066,0.223694,1.72277236484,17600,2018-06-13 18:36:06,18,0,23.969,4940.5677755522,119.75066,0.3131716,1.91127630788,0,0,-0.671082,220.3, -1.4, 2.7,0,0,1024,1024,1024,1024,219.7,-89.9,98,3.977,3.996,4.006,4.018,3.987,4.004,17.846,77,14,Waypoint,
36.9937873,-119.1734948,4941.5520275522,120.734912,0.223694,1.69369099908,17700,2018-06-13 18:36:06,18,0,23.969,4941.5520275522,120.734912,0.3131716,1.91127630788,0,0,-0.671082,220.3, -1.3, 2.6,0,0,1024,1024,1024,1024,219.7,-89.9,98,3.977,3.996,4.006,4.018,3.987,4.004,17.846,77,14,Waypoint,
36.9937873,-119.1734949,4942.5362795522,121.719164,0.223694,1.66461291416,17800,2018-06-13 18:36:06,18,0,23.969,4942.5362795522,121.719164,0.3131716,1.91127630788,0,0,-0.671082,220.3, -1.3, 2.5,0,0,1024,1024,1024,1024,219.7,-89.9,98,3.977,3.996,4.006,4.018,3.987,4.004,17.846,77,14,Waypoint,
36.9937873,-119.1734949,4943.5205315522,122.703416,0.223694,1.66461291416,17900,2018-06-13 18:36:06,18,0,23.969,4943.5205315522,122.703416,0.3131716,1.91127630788,0,0,-0.671082,220.3, -1.5, 2.6,0,0,1024,1024,1024,1024,219.7,-89.9,98,3.977,3.996,4.006,4.018,3.987,4.004,17.846,77,14,Waypoint,
36.9937873,-119.1734949,4944.5047835522,123.687668,0.223694,1.66461291416,18000,2018-06-13 18:36:06,18,0,23.797,4944.5047835522,123.687668,0.3131716,1.91127630788,0,0,-0.671082,220.4, -1.7, 2.7,0,0,1024,1024,1024,1024,219.7,-90,98,3.952,3.959,3.985,3.985,3.95,3.988,19.554,77,14,Waypoint,
36.9937872,-119.173495,4946.8013715522,125.984256,0,1.63838259836,18100,2018-06-13 18:36:06,18,0,23.797,4946.8013715522,125.984256,0.3131716,1.91127630788,0,0,-0.671082,220.4, -1.8, 3.1,0,0,1024,1024,1024,1024,219.7,-90,98,3.952,3.959,3.985,3.985,3.95,3.988,19.554,77,14,Waypoint,
36.9937872,-119.173495,4948.7698755522,127.95276,0,1.63838259836,18300,2018-06-13 18:36:07,18,0,23.797,4948.7698755522,127.95276,0.3131716,1.91127630788,0,0,-0.671082,220.4, -1.4, 3.5,0,0,1024,1024,1024,1024,219.7,-89.9,98,3.952,3.959,3.985,3.985,3.95,3.988,19.554,77,14,Waypoint,
36.9937871,-119.173495,4949.7541275522,128.937012,0,1.64203417328,18400,2018-06-13 18:36:07,18,0,23.797,4949.7541275522,128.937012,0.3131716,1.91127630788,0,0,-0.671082,220.3, -1.3, 3.6,0,0,1024,1024,1024,1024,219.7,-89.9,98,3.952,3.959,3.985,3.985,3.95,3.988,19.554,77,14,Waypoint,
36.9937871,-119.173495,4950.7383795522,129.921264,0.223694,1.64203417328,18500,2018-06-13 18:36:07,18,0,23.797,4950.7383795522,129.921264,0.3131716,1.91127630788,0,0,-0.671082,220.2, -1.3, 3.5,0,0,1024,1024,1024,1024,219.7,-89.9,98,3.952,3.959,3.985,3.985,3.95,3.988,19.554,77,14,Waypoint,
36.9937871,-119.1734951,4951.7226315522,130.905516,0.223694,1.61307747944,18600,2018-06-13 18:36:07,18,0,23.797,4951.7226315522,130.905516,0.3131716,1.91127630788,0,0,-0.671082,220.2, -1.3, 3.4,0,0,1024,1024,1024,1024,219.7,-90,98,3.952,3.959,3.985,3.985,3.95,3.988,19.554,77,14,Waypoint,
36.9937871,-119.1734951,4952.7068835522,131.889768,0,1.61307747944,18700,2018-06-13 18:36:07,18,0,23.797,4952.7068835522,131.889768,0.3131716,1.91127630788,0,0,-0.671082,220.1, -1.4, 3.3,0,0,1024,1024,1024,1024,219.7,-89.9,98,3.952,3.959,3.985,3.985,3.95,3.988,19.554,77,14,Waypoint,
36.993787,-119.1734951,4953.6911355522,132.87402,0,1.61761160032,18800,2018-06-13 18:36:07,18,0,23.797,4953.6911355522,132.87402,0.3131716,1.91127630788,0,0,-0.671082,220.1, -1.4, 3.4,0,0,1024,1024,1024,1024,219.7,-89.9,98,3.952,3.959,3.985,3.985,3.95,3.988,19.554,77,14,Waypoint,
36.993787,-119.1734951,4954.6753875522,133.858272,0,1.61761160032,18900,2018-06-13 18:36:07,18,0,23.797,4954.6753875522,133.858272,0.3131716,1.91127630788,0,0,-0.671082,220.1, -1.3, 3.4,0,0,1024,1024,1024,1024,219.7,-89.9,98,3.952,3.959,3.985,3.985,3.95,3.988,19.554,77,14,Waypoint,
36.993787,-119.1734951,4955.6596395522,134.842524,0,1.61761160032,19000,2018-06-13 18:36:07,18,0,23.752,4955.6596395522,134.842524,0.3131716,1.91127630788,0,0,-0.671082,220.1, -1.4, 3.5,0,0,1024,1024,1024,1024,219.7,-89.9,98,3.926,3.945,3.971,3.975,3.942,3.965,19.865,77,14,Waypoint,
36.9937869,-119.1734951,4956.6438915522,135.826776,0,1.62295280784,19100,2018-06-13 18:36:07,18,0,23.752,4956.6438915522,135.826776,0.3131716,1.91127630788,0,0,-0.671082,220.1, -1.4, 3.7,0,0,1024,1024,1024,1024,219.7,-90,98,3.926,3.945,3.971,3.975,3.942,3.965,19.865,77,14,Waypoint,
36.9937869,-119.1734951,4957.6281435522,136.811028,0,1.62295280784,19200,2018-06-13 18:36:08,18,0,23.752,4957.6281435522,136.811028,0.3131716,1.91127630788,0,0,-0.671082,220.1, -1.4, 3.6,0,0,1024,1024,1024,1024,219.7,-89.9,98,3.926,3.945,3.971,3.975,3.942,3.965,19.865,77,14,Waypoint,
36.9937869,-119.1734952,4958.6123955522,137.79528,0,1.59417984104,19300,2018-06-13 18:36:08,18,0,23.752,4958.6123955522,137.79528,0.3131716,1.91127630788,0,0,-0.671082,220.1, -1.3, 3.6,0,0,1024,1024,1024,1024,219.7,-89.9,98,3.926,3.945,3.971,3.975,3.942,3.965,19.865,77,14,Waypoint,
36.9937869,-119.1734952,4959.5966475522,138.779532,0,1.59417984104,19400,2018-06-13 18:36:08,18,0,23.752,4959.5966475522,138.779532,0.3131716,1.91127630788,0,0,-0.671082,220.2, -1.4, 3.5,0,0,1024,1024,1024,1024,219.7,-90,98,3.926,3.945,3.971,3.975,3.942,3.965,19.865,77,14,Waypoint,
36.9937868,-119.1734952,4960.5808995522,139.763784,0,1.60042984124,19500,2018-06-13 18:36:08,18,0,23.752,4960.5808995522,139.763784,0.3131716,1.91127630788,0,0,-0.671082,220.2, -1.4, 3.5,0,0,1024,1024,1024,1024,219.7,-90,98,3.926,3.945,3.971,3.975,3.942,3.965,19.865,77,14,Waypoint,
36.9937868,-119.1734952,4961.8932355522,141.07612,0,1.60042984124,19610,2018-06-13 18:36:08,18,0,23.752,4961.8932355522,141.07612,0.3131716,1.91127630788,0,0,-0.671082,220.3, -1.4, 3.5,0,0,1024,1024,1024,1024,219.7,-90,98,3.926,3.945,3.971,3.975,3.942,3.965,19.865,77,14,Waypoint,
36.9937868,-119.1734952,4962.8774875522,142.060372,0,1.60042984124,19700,2018-06-13 18:36:08,18,0,23.752,4962.8774875522,142.060372,0.3131716,1.91127630788,0,0,-0.671082,220.3, -1.5, 3.5,0,0,1024,1024,1024,1024,219.7,-90,98,3.926,3.945,3.971,3.975,3.942,3.965,19.865,77,14,Waypoint,
36.9937868,-119.1734952,4963.8617395522,143.044624,0,1.60042984124,19800,2018-06-13 18:36:08,18,0,23.752,4963.8617395522,143.044624,0.3131716,1.91127630788,0,0,-0.671082,220.3, -1.6, 3.5,0,0,1024,1024,1024,1024,219.7,-90,98,3.926,3.945,3.971,3.975,3.942,3.965,19.865,77,14,Waypoint,
36.9937868,-119.1734952,4964.5179075522,143.700792,0,1.60042984124,19900,2018-06-13 18:36:08,18,0,23.752,4964.5179075522,143.700792,0.3131716,1.91127630788,0,0,-0.671082,220.3, -1.6, 3.7,0,0,1024,1024,1024,1024,219.7,-90,98,3.926,3.945,3.971,3.975,3.942,3.965,19.865,77,14,Waypoint,
36.9937867,-119.1734952,4966.4864115522,145.669296,0,1.60748364724,20200,2018-06-13 18:36:09,18,0,23.752,4966.4864115522,145.669296,0.3131716,1.91127630788,0,0,-0.671082,220.2, -1.6, 3.5,0,0,1024,1024,1024,1024,219.7,-90,98,3.926,3.945,3.971,3.975,3.942,3.965,19.865,77,14,Waypoint,
36.9937867,-119.1734952,4967.7987475522,146.981632,0,1.60748364724,20300,2018-06-13 18:36:09,18,0,23.752,4967.7987475522,146.981632,0.3131716,1.91127630788,0,0,-0.671082,220.2, -1.6, 3.4,0,0,1024,1024,1024,1024,219.7,-89.9,98,3.926,3.945,3.971,3.975,3.942,3.965,19.865,77,14,Waypoint,
36.9937867,-119.1734952,4968.7829995522,147.965884,0,1.60748364724,20400,2018-06-13 18:36:09,18,0,23.752,4968.7829995522,147.965884,0.3131716,1.91127630788,0,0,-0.671082,220.1, -1.4, 3.3,0,0,1024,1024,1024,1024,219.7,-90,98,3.926,3.945,3.971,3.975,3.942,3.965,19.865,77,14,Waypoint,
36.9937866,-119.1734952,4969.7672515522,148.950136,0,1.61533141652,20500,2018-06-13 18:36:09,18,0,23.752,4969.7672515522,148.950136,0.3131716,1.91127630788,0,0,-0.671082,220.1, -1.5, 3.3,0,0,1024,1024,1024,1024,219.7,-90,98,3.926,3.945,3.971,3.975,3.942,3.965,19.865,77,14,Waypoint,
36.9937866,-119.1734952,4970.7515035522,149.934388,0,1.61533141652,20600,2018-06-13 18:36:09,18,0,23.752,4970.7515035522,149.934388,0.3131716,1.91127630788,0,0,-0.671082,220, -1.6, 3.4,0,0,1024,1024,1024,1024,219.7,-90,98,3.926,3.945,3.971,3.975,3.942,3.965,19.865,77,14,Waypoint,
36.9937866,-119.1734952,4971.7357555522,150.91864,0,1.61533141652,20700,2018-06-13 18:36:09,18,0,23.752,4971.7357555522,150.91864,0.3131716,1.91127630788,0,0,-0.671082,220, -1.6, 3.9,0,0,1024,1024,1024,1024,219.7,-90,98,3.926,3.945,3.971,3.975,3.942,3.965,19.865,77,14,Waypoint,
36.9937865,-119.1734951,4974.6885115522,153.871396,0,1.6522146198,20900,2018-06-13 18:36:09,18,0,23.752,4974.6885115522,153.871396,0.3131716,1.91127630788,0,0,-0.671082,220, -1.6, 4.3,0,0,1024,1024,1024,1024,219.7,-89.9,98,3.926,3.945,3.971,3.975,3.942,3.965,19.865,77,14,Waypoint,
36.9937864,-119.1734951,4975.6727635522,154.855648,0,1.66145346524,21000,2018-06-13 18:36:09,18,0,23.749,4975.6727635522,154.855648,0.3131716,1.91127630788,0,0,-0.671082,220.2, -1.3, 4.5,0,0,1024,1024,1024,1024,219.7,-89.9,98,3.931,3.957,3.971,3.985,3.939,3.975,19.102,77,14,Waypoint,
36.9937864,-119.173495,4976.6570155522,155.8399,0,1.6895833874,21100,2018-06-13 18:36:09,18,0,23.749,4976.6570155522,155.8399,0.3131716,1.91127630788,0,0,-0.671082,220.3, -1.2, 4.6,0,0,1024,1024,1024,1024,219.7,-89.9,98,3.931,3.957,3.971,3.985,3.939,3.975,19.102,77,14,Waypoint,
36.9937863,-119.173495,4977.3131835522,156.496068,0,1.69940294152,21200,2018-06-13 18:36:10,18,0,23.749,4977.3131835522,156.496068,0.3131716,1.91127630788,0,0,-0.671082,220.3, -1.2, 4.4,0,0,1024,1024,1024,1024,219.7,-89.9,98,3.931,3.957,3.971,3.985,3.939,3.975,19.102,77,14,Waypoint,
36.9937864,-119.173495,4978.2974355522,157.48032,0,1.6895833874,21300,2018-06-13 18:36:10,18,0,23.749,4978.2974355522,157.48032,0.3131716,1.91127630788,0,0,-0.671082,220.3, -1.4, 4.1,0,0,1024,1024,1024,1024,219.7,-90,98,3.931,3.957,3.971,3.985,3.939,3.975,19.102,77,14,Waypoint,
36.9937864,-119.1734951,4979.2816875522,158.464572,0,1.66145346524,21400,2018-06-13 18:36:10,18,0,23.749,4979.2816875522,158.464572,0.3131716,1.91127630788,0,0,-0.671082,220.3, -1.7, 3.8,0,0,1024,1024,1024,1024,219.7,-90,98,3.931,3.957,3.971,3.985,3.939,3.975,19.102,77,14,Waypoint,
36.9937864,-119.1734951,4980.2659395522,159.448824,0,1.66145346524,21500,2018-06-13 18:36:10,18,0,23.749,4980.2659395522,159.448824,0.3131716,1.91127630788,0,0,-0.671082,220.3, -1.9, 3.7,0,0,1024,1024,1024,1024,219.7,-89.9,98,3.931,3.957,3.971,3.985,3.939,3.975,19.102,77,14,Waypoint,
36.9937864,-119.1734951,4981.2501915522,160.433076,0,1.66145346524,21600,2018-06-13 18:36:10,18,0,23.749,4981.2501915522,160.433076,0.3131716,1.91127630788,0,0,-0.671082,220.1, -2.2, 3.6,0,0,1024,1024,1024,1024,219.7,-90,98,3.931,3.957,3.971,3.985,3.939,3.975,19.102,77,14,Waypoint,
36.9937865,-119.1734951,4982.2344435522,161.417328,0.223694,1.6522146198,21700,2018-06-13 18:36:10,18,0,23.749,4982.2344435522,161.417328,0.3131716,1.91127630788,0,0,-0.671082,220, -2.3, 3.6,0,0,1024,1024,1024,1024,219.7,-90,98,3.931,3.957,3.971,3.985,3.939,3.975,19.102,77,14,Waypoint,
36.9937865,-119.1734951,4983.2186955522,162.40158,0.223694,1.6522146198,21810,2018-06-13 18:36:10,18,0,23.749,4983.2186955522,162.40158,0.3131716,1.91127630788,0,0,-0.671082,220, -2.1, 3.6,0,0,1024,1024,1024,1024,219.7,-90,98,3.931,3.957,3.971,3.985,3.939,3.975,19.102,77,14,Waypoint,
36.9937865,-119.1734951,4984.2029475522,163.385832,0.223694,1.6522146198,21900,2018-06-13 18:36:10,18,0,23.749,4984.2029475522,163.385832,0.3131716,1.91127630788,0,0,-0.671082,220, -1.7, 3.3,0,0,1024,1024,1024,1024,219.7,-89.9,98,3.931,3.957,3.971,3.985,3.939,3.975,19.102,77,14,Waypoint,
36.9937865,-119.1734952,4985.1871995522,164.370084,0.223694,1.62396330656,22100,2018-06-13 18:36:10,18,0,23.749,4985.1871995522,164.370084,0.3131716,1.91127630788,0,0,-0.671082,220, -1.4, 3.2,0,0,1024,1024,1024,1024,219.7,-89.9,98,3.931,3.957,3.971,3.985,3.939,3.975,19.102,77,14,Waypoint,
36.9937865,-119.1734952,4986.1714515522,165.354336,0.223694,1.62396330656,22200,2018-06-13 18:36:11,18,0,23.749,4986.1714515522,165.354336,0.3131716,1.91127630788,0,0,-0.671082,220.1, -1.2, 3.4,0,0,1024,1024,1024,1024,219.7,-89.9,98,3.931,3.957,3.971,3.985,3.939,3.975,19.102,77,14,Waypoint,
36.9937865,-119.1734952,4987.1557035522,166.338588,0.223694,1.62396330656,22300,2018-06-13 18:36:11,18,0,23.749,4987.1557035522,166.338588,0.3131716,1.91127630788,0,0,-0.671082,220.1, -1.1, 3.5,0,0,1024,1024,1024,1024,219.7,-89.9,98,3.931,3.957,3.971,3.985,3.939,3.975,19.102,77,14,Waypoint,
36.9937865,-119.1734952,4988.1399555522,167.32284,0.223694,1.62396330656,22400,2018-06-13 18:36:11,18,0,23.749,4988.1399555522,167.32284,0.3131716,1.91127630788,0,0,-0.671082,220.2, -1.2, 3.6,0,0,1024,1024,1024,1024,219.7,-89.9,98,3.931,3.957,3.971,3.985,3.939,3.975,19.102,77,14,Waypoint,
36.9937865,-119.1734952,4989.1242075522,168.307092,0.223694,1.62396330656,22500,2018-06-13 18:36:11,18,0,23.749,4989.1242075522,168.307092,0.3131716,1.91127630788,0,0,-0.671082,220.3, -1, 3.5,0,0,1024,1024,1024,1024,219.7,-89.9,98,3.931,3.957,3.971,3.985,3.939,3.975,19.102,77,14,Waypoint,
36.9937865,-119.1734953,4991.0927115522,170.275596,0.223694,1.59574152088,22600,2018-06-13 18:36:11,18,0,23.749,4991.0927115522,170.275596,0.3131716,1.91127630788,0,0,-0.671082,220.4, -1.2, 3.7,0,0,1024,1024,1024,1024,219.7,-90,98,3.931,3.957,3.971,3.985,3.939,3.975,19.102,77,14,Waypoint,
36.9937865,-119.1734953,4993.0612155522,172.2441,0,1.59574152088,22800,2018-06-13 18:36:11,18,0,23.749,4993.0612155522,172.2441,0.3131716,1.91127630788,0,0,-0.671082,220.4, -1.4, 3.9,0,0,1024,1024,1024,1024,219.7,-89.9,98,3.931,3.957,3.971,3.985,3.939,3.975,19.102,77,14,Waypoint,
36.9937865,-119.1734953,4994.0454675522,173.228352,0,1.59574152088,22900,2018-06-13 18:36:11,18,0,23.749,4994.0454675522,173.228352,0.3131716,1.91127630788,0,0,-0.671082,220.4, -1.6, 3.9,0,0,1024,1024,1024,1024,219.7,-90,98,3.931,3.957,3.971,3.985,3.939,3.975,19.102,77,14,Waypoint,
36.9937865,-119.1734953,4995.0297195522,174.212604,0.223694,1.59574152088,23000,2018-06-13 18:36:11,18,0,23.728,4995.0297195522,174.212604,0.3131716,1.91127630788,0,0,-0.671082,220.5, -1.5, 3.9,0,0,1024,1024,1024,1024,219.7,-90,97,3.929,3.953,3.959,3.986,3.925,3.962,19.16,77,14,Waypoint,
36.9937866,-119.1734953,4996.0139715522,175.196856,0.223694,1.5869587122,23100,2018-06-13 18:36:11,18,0,23.728,4996.0139715522,175.196856,0.3131716,1.91127630788,0,0,-0.671082,220.5, -1.2, 3.7,0,0,1024,1024,1024,1024,219.7,-89.9,97,3.929,3.953,3.959,3.986,3.925,3.962,19.16,77,14,Waypoint,
36.9937866,-119.1734953,4996.9982235522,176.181108,0.223694,1.5869587122,23200,2018-06-13 18:36:12,18,0,23.728,4996.9982235522,176.181108,0.3131716,1.91127630788,0,0,-0.671082,220.5, -1.1, 3.6,0,0,1024,1024,1024,1024,219.7,-89.9,97,3.929,3.953,3.959,3.986,3.925,3.962,19.16,77,14,Waypoint,
36.9937866,-119.1734954,4997.9824755522,177.16536,0.223694,1.5586122546,23300,2018-06-13 18:36:12,18,0,23.728,4997.9824755522,177.16536,0.3131716,1.91127630788,0,0,-0.671082,220.4, -1.1, 3.5,0,0,1024,1024,1024,1024,219.7,-89.9,97,3.929,3.953,3.959,3.986,3.925,3.962,19.16,77,14,Waypoint,
36.9937866,-119.1734954,4998.9667275522,178.149612,0.223694,1.5586122546,23400,2018-06-13 18:36:12,18,0,23.728,4998.9667275522,178.149612,0.3131716,1.91127630788,0,0,-0.671082,220.4, -1, 3.4,0,0,1024,1024,1024,1024,219.7,-89.9,97,3.929,3.953,3.959,3.986,3.925,3.962,19.16,77,14,Waypoint,
36.9937867,-119.1734955,4999.9509795522,179.133864,0.223694,1.52201120356,23500,2018-06-13 18:36:12,18,0,23.728,4999.9509795522,179.133864,0.3131716,1.91127630788,0,0,-0.671082,220.3, -0.9, 3.2,0,0,1024,1024,1024,1024,219.7,-89.9,97,3.929,3.953,3.959,3.986,3.925,3.962,19.16,77,14,Waypoint,
36.9937867,-119.1734955,5000.9352315522,180.118116,0.223694,1.52201120356,23600,2018-06-13 18:36:12,18,0,23.728,5000.9352315522,180.118116,0.3131716,1.91127630788,0,0,-0.671082,220.2, -1, 3.1,0,0,1024,1024,1024,1024,219.7,-89.9,97,3.929,3.953,3.959,3.986,3.925,3.962,19.16,77,14,Waypoint,
36.9937867,-119.1734956,5001.9194835522,181.102368,0.223694,1.4935696016,23700,2018-06-13 18:36:12,18,0,23.728,5001.9194835522,181.102368,0.3131716,1.91127630788,0,0,-0.671082,220.2, -1, 3,0,0,1024,1024,1024,1024,219.7,-89.9,97,3.929,3.953,3.959,3.986,3.925,3.962,19.16,77,14,Waypoint,
36.9937867,-119.1734956,5002.9037355522,182.08662,0.223694,1.4935696016,23800,2018-06-13 18:36:12,18,0,23.728,5002.9037355522,182.08662,0.3131716,1.91127630788,0,0,-0.671082,220.2, -1, 3,0,0,1024,1024,1024,1024,219.7,-90,97,3.929,3.953,3.959,3.986,3.925,3.962,19.16,77,14,Waypoint,
36.9937867,-119.1734956,5003.8879875522,183.070872,0.223694,1.4935696016,23900,2018-06-13 18:36:12,18,0,23.728,5003.8879875522,183.070872,0.3131716,1.91127630788,0,0,-0.671082,220.2, -1.1, 3,0,0,1024,1024,1024,1024,219.7,-89.9,97,3.929,3.953,3.959,3.986,3.925,3.962,19.16,77,14,Waypoint,
36.9937868,-119.1734956,5005.2003235522,184.383208,0.223694,1.485974457,24000,2018-06-13 18:36:12,18,0,23.728,5005.2003235522,184.383208,0.3131716,1.91127630788,0,0,-0.671082,220.2, -1.1, 3.1,0,0,1024,1024,1024,1024,219.7,-89.9,97,3.929,3.953,3.959,3.986,3.925,3.962,19.16,77,14,Waypoint,
36.9937868,-119.1734956,5006.1845755522,185.36746,0.223694,1.485974457,24100,2018-06-13 18:36:12,18,0,23.728,5006.1845755522,185.36746,0.3131716,1.91127630788,0,0,-0.671082,220.2, -1.2, 3.2,0,0,1024,1024,1024,1024,219.7,-90,97,3.929,3.953,3.959,3.986,3.925,3.962,19.16,77,14,Waypoint,
36.9937868,-119.1734956,5007.1688275522,186.351712,0,1.485974457,24300,2018-06-13 18:36:13,18,0,23.728,5007.1688275522,186.351712,0.3131716,1.91127630788,0,0,-0.671082,220.2, -1.3, 3.4,0,0,1024,1024,1024,1024,219.7,-90,97,3.929,3.953,3.959,3.986,3.925,3.962,19.16,77,14,Waypoint,
36.9937868,-119.1734956,5008.1530795522,187.335964,0,1.485974457,24400,2018-06-13 18:36:13,18,0,23.728,5008.1530795522,187.335964,0.3131716,1.91127630788,0,0,-0.671082,220.2, -1.2, 3.6,0,0,1024,1024,1024,1024,219.7,-89.9,97,3.929,3.953,3.959,3.986,3.925,3.962,19.16,77,14,Waypoint,
36.9937868,-119.1734956,5009.1373315522,188.320216,0,1.485974457,24500,2018-06-13 18:36:13,18,0,23.728,5009.1373315522,188.320216,0.3131716,1.91127630788,0,0,-0.671082,220.3, -1.1, 3.6,0,0,1024,1024,1024,1024,219.7,-89.9,97,3.929,3.953,3.959,3.986,3.925,3.962,19.16,77,14,Waypoint,
36.9937868,-119.1734956,5010.1215835522,189.304468,0,1.485974457,24600,2018-06-13 18:36:13,18,0,23.728,5010.1215835522,189.304468,0.3131716,1.91127630788,0,0,-0.671082,220.3, -1.1, 3.7,0,0,1024,1024,1024,1024,219.7,-89.9,97,3.929,3.953,3.959,3.986,3.925,3.962,19.16,77,14,Waypoint,
36.9937868,-119.1734956,5011.1058355522,190.28872,0,1.485974457,24700,2018-06-13 18:36:13,18,0,23.728,5011.1058355522,190.28872,0.3131716,1.91127630788,0,0,-0.671082,220.3, -1, 3.8,0,0,1024,1024,1024,1024,219.7,-89.9,97,3.929,3.953,3.959,3.986,3.925,3.962,19.16,77,14,Waypoint,
36.9937867,-119.1734956,5013.0743395522,192.257224,0,1.4935696016,24800,2018-06-13 18:36:13,18,0,23.728,5013.0743395522,192.257224,0.3131716,1.91127630788,0,0,-0.671082,220.3, -1.1, 3.7,0,0,1024,1024,1024,1024,219.7,-90,97,3.929,3.953,3.959,3.986,3.925,3.962,19.16,77,14,Waypoint,
36.9937867,-119.1734956,5014.0585915522,193.241476,0,1.4935696016,24900,2018-06-13 18:36:13,18,0,23.728,5014.0585915522,193.241476,0.3131716,1.91127630788,0,0,-0.671082,220.3, -1, 3.7,0,0,1024,1024,1024,1024,219.7,-90,97,3.929,3.953,3.959,3.986,3.925,3.962,19.16,77,14,Waypoint,
36.9937868,-119.1734956,5015.0428435522,194.225728,0,1.485974457,25000,2018-06-13 18:36:13,18,0,23.638,5015.0428435522,194.225728,0.3131716,1.91127630788,0,0,-0.671082,220.3, -1.1, 3.5,0,0,1024,1024,1024,1024,219.7,-90,97,3.908,3.932,3.947,3.97,3.914,3.958,19.735,78.8,14,Waypoint,
36.9937868,-119.1734957,5016.0270955522,195.20998,0.223694,1.4574147448,25100,2018-06-13 18:36:13,18,0,23.638,5016.0270955522,195.20998,0.3131716,1.91127630788,0,0,-0.671082,220.3, -1.2, 3.3,0,0,1024,1024,1024,1024,219.7,-90,97,3.908,3.932,3.947,3.97,3.914,3.958,19.735,78.8,14,Waypoint,
36.9937868,-119.1734957,5017.0113475522,196.194232,0.223694,1.4574147448,25200,2018-06-13 18:36:14,18,0,23.638,5017.0113475522,196.194232,0.3131716,1.91127630788,0,0,-0.671082,220.3, -1.3, 3.1,0,0,1024,1024,1024,1024,219.7,-90,97,3.908,3.932,3.947,3.97,3.914,3.958,19.735,78.8,14,Waypoint,
36.9937868,-119.1734957,5017.9955995522,197.178484,0,1.4574147448,25300,2018-06-13 18:36:14,18,0,23.638,5017.9955995522,197.178484,0.3131716,1.91127630788,0,0,-0.671082,220.3, -1.4, 3.1,0,0,1024,1024,1024,1024,219.7,-90,97,3.908,3.932,3.947,3.97,3.914,3.958,19.735,78.8,14,Waypoint,
36.9937869,-119.1734957,5018.9798515522,198.162736,0,1.45054794668,25400,2018-06-13 18:36:14,18,0,23.638,5018.9798515522,198.162736,0.3131716,1.91127630788,0,0,-0.671082,220.2, -1.5, 3.1,0,0,1024,1024,1024,1024,219.7,-90,97,3.908,3.932,3.947,3.97,3.914,3.958,19.735,78.8,14,Waypoint,
36.9937869,-119.1734957,5019.9641035522,199.146988,0,1.45054794668,25500,2018-06-13 18:36:14,18,0,23.638,5019.9641035522,199.146988,0.3131716,1.91127630788,0,0,-0.671082,220.2, -1.5, 3.2,0,0,1024,1024,1024,1024,219.7,-90,97,3.908,3.932,3.947,3.97,3.914,3.958,19.735,78.8,14,Waypoint,
36.9937869,-119.1734957,5020.9483555522,200.13124,0,1.45054794668,25600,2018-06-13 18:36:14,18,0,23.638,5020.9483555522,200.13124,0.3131716,1.91127630788,0,0,-0.671082,220.2, -1.5, 3.3,0,0,1024,1024,1024,1024,219.7,-90,97,3.908,3.932,3.947,3.97,3.914,3.958,19.735,78.8,14,Waypoint,
36.9937869,-119.1734957,5022.9168595522,202.099744,0.223694,1.45054794668,25800,2018-06-13 18:36:14,18,0,23.638,5022.9168595522,202.099744,0.3131716,1.91127630788,0,0,-0.671082,220.2, -1.4, 3.3,0,0,1024,1024,1024,1024,219.7,-89.9,97,3.908,3.932,3.947,3.97,3.914,3.958,19.735,78.8,14,Waypoint,
36.9937869,-119.1734958,5023.9011115522,203.083996,0.223694,1.42187012424,25900,2018-06-13 18:36:14,18,0,23.638,5023.9011115522,203.083996,0.3131716,1.91127630788,0,0,-0.671082,220.2, -1.2, 3.3,0,0,1024,1024,1024,1024,219.7,-89.9,97,3.908,3.932,3.947,3.97,3.914,3.958,19.735,78.8,14,Waypoint,
36.9937869,-119.1734958,5024.5572795522,203.740164,0.223694,1.42187012424,26000,2018-06-13 18:36:14,18,0,23.63,5024.5572795522,203.740164,0.3131716,1.91127630788,0,0,-0.671082,220.2, -1.1, 3.2,0,0,1024,1024,1024,1024,219.7,-89.9,97,3.904,3.922,3.953,3.97,3.923,3.947,20.055,78.8,14,Waypoint,
36.9937868,-119.1734958,5025.5415315522,204.724416,0.223694,1.42887471764,26100,2018-06-13 18:36:14,18,0,23.63,5025.5415315522,204.724416,0.3131716,1.91127630788,0,0,-0.671082,220.2, -1, 3.2,0,0,1024,1024,1024,1024,219.7,-89.9,97,3.904,3.922,3.953,3.97,3.923,3.947,20.055,78.8,14,Waypoint,
36.9937868,-119.1734958,5026.5257835522,205.708668,0,1.42887471764,26200,2018-06-13 18:36:15,18,0,23.63,5026.5257835522,205.708668,0.3131716,1.91127630788,0,0,-0.671082,220.2, -1, 3.4,0,0,1024,1024,1024,1024,219.7,-89.9,97,3.904,3.922,3.953,3.97,3.923,3.947,20.055,78.8,14,Waypoint,
36.9937868,-119.1734958,5027.8381195522,207.021004,0,1.42887471764,26400,2018-06-13 18:36:15,18,0,23.63,5027.8381195522,207.021004,0.3131716,1.91127630788,0,0,-0.671082,220.1, -1.2, 3.5,0,0,1024,1024,1024,1024,219.7,-90,97,3.904,3.922,3.953,3.97,3.923,3.947,20.055,78.8,14,Waypoint,
36.9937868,-119.1734958,5028.4942875522,207.677172,0,1.42887471764,26500,2018-06-13 18:36:15,18,0,23.63,5028.4942875522,207.677172,0.3131716,1.91127630788,0,0,-0.671082,220.1, -1.2, 3.6,0,0,1024,1024,1024,1024,219.7,-90,97,3.904,3.922,3.953,3.97,3.923,3.947,20.055,78.8,14,Waypoint,
