Latitude, Longitude, Altitude (m), Time, Sats, Speed (m/s), Range (m), Battery (%), Roll (deg), Pitch (deg), Yaw (deg), Images, HD Signal (%), RC Signal (%), Battery Temp (C), Battery Voltage (mV), Battery Current (mA), Battery Energy (mAh), Battery Capacity (mAh), Battery Discharges, flyState, timestamp (Unix), LastUpdate (ms), radioChannel, Rc_elevator, Rc_aileron, Rc_throttle, Rc_rudder, Rc_gyro, Dronetype, Battery_Cell1 (mV), Battery_Cell2 (mV), Battery_Cell3 (mV), Battery_Cell4 (mV), Battery_Cell5 (mV), Battery_Cell6 (mV), Video, isFlying, elapsedTime (ms), gimbalPitch (deg), gimbalRoll (deg), gimbalYaw (deg), VelocityX (m/s), VelocityY (m/s), VelocityZ (m/s), GroundSmear (cm), App Version, Aircraft Name, Aircraft Firmware, Aircraft Serial Number, Battery Serial Number, Battery Lifetime (%), App_Tip, App_Warning, CurrentFlightStartingIndex, CurrentFlightLastVisitedWaypoint, PreviousFlightEndingWaypointIndex
36.9937702, -119.1734756, 0.000, 11:19:13.940, 10, 0.00, 0.11, 97, 0.300, 1.200, -140.200, 702, 100, 100, 25, 25642, -2923, 5270, 5434, 14, 11, 1528913953.940, 38, 0, 1024, 1024, 1024, 1024, 0, 6, 4291, 4269, 4262, 4267, 4272, 4258, 0, 1, 3022, -89.900, 0.000, -140.300, 0.000, 0.000, -0.100, 0.0, MapPilot_2.8.1_04242018, Dendroctonus I, 1.3.1.00, 041DDC1887, 1058171200161, 97, DJI_0700.jpg, Starting Mission from Lat/Long: 36.99376/-119.17347 Camera: Zenmuse X3 - Overlap: 90/90 - Active Connection: No, 25, 25, 25
36.9937702, -119.1734756, 0.000, 11:19:14.019, 10, 0.00, 0.11, 97, 0.300, 0.700, -140.100, 702, 100, 100, 25, 25642, -2923, 5270, 5434, 14, 11, 1528913954.019, 11, 0, 1024, 1024, 1024, 1024, 0, 6, 4291, 4269, 4262, 4267, 4272, 4258, 0, 1, 3101, -90.000, 0.000, -140.300, 0.000, 0.000, -0.200, 0.0, , , , , , 97, , , 25, 25, 25
36.9937703, -119.1734756, 0.000, 11:19:14.119, 10, 0.00, 0.12, 97, 0.300, 0.200, -140.000, 702, 100, 100, 25, 25642, -2923, 5270, 5434, 14, 11, 1528913954.119, 1, 0, 1024, 1024, 1024, 1024, 0, 6, 4291, 4269, 4262, 4267, 4272, 4258, 0, 1, 3200, -90.000, 0.000, -140.300, 0.000, 0.000, -0.300, 0.0, , , , , , 97, , , 25, 25, 25
36.9937703, -119.1734756, 0.000, 11:19:14.219, 10, 0.00, 0.12, 97, 0.300, 0.200, -140.000, 702, 100, 100, 25, 25642, -2923, 5270, 5434, 14, 11, 1528913954.219, 101, 0, 1024, 1024, 1024, 1024, 0, 6, 4291, 4269, 4262, 4267, 4272, 4258, 0, 1, 3300, -90.000, 0.000, -140.300, 0.000, 0.000, -0.300, 0.0, , , , , , 97, , , 25, 25, 25
36.9937704, -119.1734755, 0.000, 11:19:14.319, 10, 0.00, 0.12, 97, 0.000, -0.100, -140.000, 702, 100, 100, 25, 25642, -2923, 5270, 5434, 14, 11, 1528913954.319, 91, 0, 1024, 1024, 1024, 1024, 0, 6, 4291, 4269, 4262, 4267, 4272, 4258, 0, 1, 3401, -90.000, 0.000, -140.300, 0.000, 0.000, -0.300, 0.0, , , , , , 97, , , 25, 25, 25
36.9937705, -119.1734755, 0.000, 11:19:14.419, 10, 0.00, 0.13, 97, 0.000, -0.400, -140.000, 702, 100, 100, 25, 25642, -2923, 5270, 5434, 14, 11, 1528913954.419, 94, 0, 1024, 1024, 1024, 1024, 0, 6, 4291, 4269, 4262, 4267, 4272, 4258, 0, 1, 3501, -90.000, 0.000, -140.300, 0.000, 0.000, -0.400, 0.0, , , , , , 97, , , 25, 25, 25
36.9937705, -119.1734754, 0.100, 11:19:14.519, 9, 0.00, 0.13, 97, 0.100, -0.600, -140.200, 702, 100, 100, 25, 25642, -2923, 5270, 5434, 14, 11, 1528913954.519, 84, 0, 1024, 1024, 1024, 1024, 0, 6, 4291, 4269, 4262, 4267, 4272, 4258, 0, 1, 3600, -90.000, 0.000, -140.300, 0.000, 0.000, -0.400, 0.0, , , , , , 97, , , 25, 25, 25
36.9937706, -119.1734753, 0.100, 11:19:14.619, 9, 0.00, 0.13, 97, 0.500, -0.800, -140.400, 702, 100, 100, 25, 25642, -2923, 5270, 5434, 14, 11, 1528913954.619, 76, 0, 1024, 1024, 1024, 1024, 0, 6, 4291, 4269, 4262, 4267, 4272, 4258, 0, 1, 3700, -90.000, 0.000, -140.300, 0.000, 0.000, -0.500, 0.0, , , , , , 97, , , 25, 25, 25
36.9937706, -119.1734752, 0.200, 11:19:14.719, 11, 0.00, 0.13, 97, 0.800, -0.600, -140.600, 702, 100, 100, 25, 25642, -2923, 5270, 5434, 14, 11, 1528913954.719, 84, 0, 1024, 1024, 1024, 1024, 0, 6, 4291, 4269, 4262, 4267, 4272, 4258, 0, 1, 3800, -89.900, 0.000, -140.300, 0.000, 0.000, -0.400, 0.0, , , , , , 97, , , 25, 25, 25
36.9937706, -119.1734752, 0.200, 11:19:14.819, 11, 0.00, 0.13, 97, 1.000, -0.400, -140.800, 702, 100, 100, 25, 25642, -2923, 5270, 5434, 14, 11, 1528913954.819, 64, 0, 1024, 1024, 1024, 1024, 0, 6, 4291, 4269, 4262, 4267, 4272, 4258, 0, 1, 3901, -89.900, 0.000, -140.300, 0.000, 0.000, -0.400, 0.0, , , , , , 97, , , 25, 25, 25
36.9937706, -119.1734752, 0.300, 11:19:14.919, 11, 0.00, 0.13, 97, 1.000, -0.400, -140.900, 702, 100, 100, 25, 25642, -2923, 5270, 5434, 14, 11, 1528913954.919, 69, 0, 1024, 1024, 1024, 1024, 0, 6, 4291, 4269, 4262, 4267, 4272, 4258, 0, 1, 4000, -89.900, 0.000, -140.300, 0.000, 0.000, -0.400, 0.0, , , , , , 97, , , 25, 25, 25
36.9937706, -119.1734752, 0.300, 11:19:15.019, 11, 0.00, 0.13, 97, 1.000, -0.300, -140.900, 702, 100, 100, 25, 24913, -10981, 5270, 5434, 14, 11, 1528913955.019, 57, 0, 1024, 1024, 1024, 1024, 0, 6, 4136, 4129, 4091, 4126, 4115, 4123, 0, 1, 4100, -89.900, 0.000, -140.300, 0.000, 0.000, -0.400, 0.0, , , , , , 97, , , 25, 25, 25
36.9937707, -119.1734753, 0.400, 11:19:15.119, 11, 0.00, 0.14, 97, 0.900, -0.100, -141.000, 702, 100, 100, 25, 24913, -10981, 5270, 5434, 14, 11, 1528913955.119, 63, 0, 1024, 1024, 1024, 1024, 0, 6, 4136, 4129, 4091, 4126, 4115, 4123, 0, 1, 4200, -89.900, 0.000, -140.300, 0.000, 0.000, -0.400, 0.0, , , , , , 97, , , 25, 25, 25
36.9937707, -119.1734754, 0.400, 11:19:15.219, 11, 0.00, 0.15, 97, 0.500, 0.000, -140.900, 702, 100, 100, 25, 24913, -10981, 5270, 5434, 14, 11, 1528913955.219, 64, 0, 1024, 1024, 1024, 1024, 0, 6, 4136, 4129, 4091, 4126, 4115, 4123, 0, 1, 4300, -89.900, 0.000, -140.300, 0.000, 0.000, -0.400, 0.0, , , , , , 97, , , 25, 25, 25
36.9937708, -119.1734755, 0.500, 11:19:15.319, 11, 0.00, 0.16, 97, 0.100, 0.100, -140.900, 702, 100, 100, 25, 24913, -10981, 5270, 5434, 14, 11, 1528913955.319, 58, 0, 1024, 1024, 1024, 1024, 0, 6, 4136, 4129, 4091, 4126, 4115, 4123, 0, 1, 4401, -89.900, 0.000, -140.300, 0.000, 0.000, -0.400, 0.0, , , , , , 97, , , 25, 25, 25
36.9937708, -119.1734755, 0.600, 11:19:15.419, 13, 0.00, 0.16, 97, 0.100, 0.000, -140.900, 702, 100, 100, 25, 24913, -10981, 5270, 5434, 14, 11, 1528913955.419, 53, 0, 1024, 1024, 1024, 1024, 0, 6, 4136, 4129, 4091, 4126, 4115, 4123, 0, 1, 4500, -89.900, 0.000, -140.300, 0.000, 0.000, -0.400, 0.0, , , , , , 97, , , 25, 25, 25
36.9937708, -119.1734754, 0.600, 11:19:15.519, 13, 0.00, 0.16, 97, 0.200, -0.100, -140.800, 702, 100, 100, 25, 24913, -10981, 5270, 5434, 14, 11, 1528913955.519, 59, 0, 1024, 1024, 1024, 1024, 0, 6, 4136, 4129, 4091, 4126, 4115, 4123, 0, 1, 4600, -90.000, 0.000, -140.300, 0.000, 0.000, -0.500, 0.0, , , , , , 97, , , 25, 25, 25
36.9937708, -119.1734754, 0.700, 11:19:15.619, 14, 0.00, 0.16, 97, 0.200, -0.300, -140.700, 702, 100, 100, 25, 24913, -10981, 5270, 5434, 14, 11, 1528913955.619, 50, 0, 1024, 1024, 1024, 1024, 0, 6, 4136, 4129, 4091, 4126, 4115, 4123, 0, 1, 4700, -90.000, 0.000, -140.300, 0.000, 0.000, -0.400, 0.0, , , , , , 97, , , 25, 25, 25
36.9937708, -119.1734754, 0.700, 11:19:15.719, 14, 0.00, 0.16, 97, 0.300, -0.400, -140.600, 702, 100, 100, 25, 24913, -10981, 5270, 5434, 14, 11, 1528913955.719, 52, 0, 1024, 1024, 1024, 1024, 0, 6, 4136, 4129, 4091, 4126, 4115, 4123, 0, 1, 4801, -89.900, 0.000, -140.300, 0.000, 0.000, -0.400, 0.0, , , , , , 97, , , 25, 25, 25
36.9937708, -119.1734755, 0.800, 11:19:15.819, 14, 0.00, 0.16, 97, 0.300, -0.300, -140.500, 702, 100, 100, 25, 24913, -10981, 5270, 5434, 14, 11, 1528913955.819, 43, 0, 1024, 1024, 1024, 1024, 0, 6, 4136, 4129, 4091, 4126, 4115, 4123, 0, 1, 4900, -89.900, 0.000, -140.300, 0.000, 0.000, -0.500, 0.0, , , , , , 97, , , 25, 25, 25
36.9937708, -119.1734755, 0.800, 11:19:15.918, 14, 0.00, 0.16, 97, 0.300, -0.100, -140.300, 702, 100, 100, 25, 24354, -16388, 5270, 5434, 14, 11, 1528913955.918, 34, 0, 1024, 1024, 1024, 1024, 0, 6, 4035, 4043, 4038, 4057, 4050, 4046, 0, 1, 5000, -89.900, 0.000, -140.300, 0.000, 0.000, -0.400, 0.0, , , , , , 97, , , 25, 25, 25
36.9937707, -119.1734754, 0.900, 11:19:16.019, 14, 0.00, 0.15, 97, 0.400, 0.000, -140.100, 702, 100, 100, 25, 24354, -16388, 5270, 5434, 14, 11, 1528913956.019, 34, 0, 1024, 1024, 1024, 1024, 0, 6, 4035, 4043, 4038, 4057, 4050, 4046, 0, 1, 5100, -89.900, 0.000, -140.300, 0.000, 0.000, -0.400, 0.0, , , , , , 97, , , 25, 25, 25
36.9937707, -119.1734754, 0.900, 11:19:16.119, 14, 0.00, 0.14, 97, 0.400, 0.000, -140.000, 702, 100, 100, 25, 24354, -16388, 5270, 5434, 14, 14, 1528913956.119, 15, 0, 1024, 1024, 1024, 1024, 0, 6, 4035, 4043, 4038, 4057, 4050, 4046, 0, 1, 5200, -89.900, 0.000, -140.300, 0.000, 0.000, -0.400, 0.0, , , , , , 97, , , 25, 25, 25
36.9937706, -119.1734754, 0.900, 11:19:16.219, 13, 0.00, 0.14, 97, 0.600, 0.000, -139.800, 702, 100, 100, 25, 24354, -16388, 5270, 5434, 14, 14, 1528913956.219, 24, 0, 1024, 1024, 1024, 1024, 0, 6, 4035, 4043, 4038, 4057, 4050, 4046, 0, 1, 5300, -89.900, 0.000, -140.300, 0.000, 0.000, -0.300, 0.0, , , , , , 97, , , 25, 25, 25
36.9937706, -119.1734753, 1.000, 11:19:16.319, 13, 0.00, 0.14, 97, 0.900, 0.100, -139.700, 702, 100, 100, 25, 24354, -16388, 5270, 5434, 14, 14, 1528913956.319, 19, 0, 1024, 1024, 1024, 1024, 0, 6, 4035, 4043, 4038, 4057, 4050, 4046, 0, 1, 5400, -89.900, 0.000, -140.300, 0.000, 0.000, -0.300, 0.0, , , , , , 97, , , 25, 25, 25
36.9937706, -119.1734753, 1.000, 11:19:16.419, 13, 0.00, 0.13, 97, 1.100, 0.000, -139.500, 702, 100, 100, 25, 24354, -16388, 5270, 5434, 14, 14, 1528913956.419, 20, 0, 1024, 1024, 1024, 1024, 0, 6, 4035, 4043, 4038, 4057, 4050, 4046, 0, 1, 5500, -89.900, 0.000, -140.300, 0.000, 0.000, -0.300, 0.0, , , , , , 97, , , 25, 25, 25
36.9937706, -119.1734753, 1.000, 11:19:16.519, 13, 0.00, 0.13, 97, 1.100, 0.000, -139.500, 702, 100, 100, 25, 24354, -16388, 5270, 5434, 14, 14, 1528913956.519, 120, 0, 1024, 1024, 1024, 1024, 0, 6, 4035, 4043, 4038, 4057, 4050, 4046, 0, 1, 5600, -89.900, 0.000, -140.300, 0.000, 0.000, -0.300, 0.0, , , , , , 97, , , 25, 25, 25
36.9937705, -119.1734752, 1.100, 11:19:16.619, 13, 0.00, 0.13, 97, 1.100, 0.000, -139.500, 702, 100, 100, 25, 24354, -16388, 5270, 5434, 14, 14, 1528913956.619, 97, 0, 1024, 1024, 1024, 1024, 0, 6, 4035, 4043, 4038, 4057, 4050, 4046, 0, 1, 5700, -90.000, 0.000, -140.300, 0.000, 0.000, -0.300, 0.0, , , , , , 97, , , 25, 25, 25
36.9937705, -119.1734751, 1.200, 11:19:16.719, 12, 0.00, 0.12, 97, 1.200, -0.200, -139.500, 702, 100, 100, 25, 24354, -16388, 5270, 5434, 14, 14, 1528913956.719, 6, 0, 1024, 1024, 1024, 1024, 0, 6, 4035, 4043, 4038, 4057, 4050, 4046, 0, 1, 5800, -89.900, 0.000, -140.300, 0.000, 0.000, -0.600, 0.0, , , , , , 97, , , 25, 25, 25
36.9937705, -119.1734751, 1.300, 11:19:16.819, 12, 0.00, 0.11, 97, 1.100, -0.200, -139.600, 702, 100, 100, 25, 24354, -16388, 5270, 5434, 14, 14, 1528913956.819, 8, 0, 1024, 1024, 1024, 1024, 0, 6, 4035, 4043, 4038, 4057, 4050, 4046, 0, 1, 5900, -90.000, 0.000, -140.300, 0.000, 0.000, -0.800, 0.0, , , , , , 97, , , 25, 25, 25
36.9937704, -119.1734750, 1.400, 11:19:16.929, 12, 0.00, 0.11, 97, 1.100, -0.100, -139.600, 702, 100, 100, 25, 24178, -16798, 5270, 5434, 14, 14, 1528913956.929, 2, 0, 1024, 1024, 1024, 1024, 0, 6, 4035, 4043, 4038, 4057, 4050, 4046, 0, 1, 6010, -89.900, 0.000, -140.300, 0.000, 0.000, -1.000, 0.0, , , , , , 97, , , 25, 25, 25
36.9937704, -119.1734750, 1.400, 11:19:17.019, 12, 0.00, 0.11, 97, 1.100, -0.100, -139.600, 702, 100, 100, 25, 24178, -16798, 5270, 5434, 14, 14, 1528913957.019, 92, 0, 1024, 1024, 1024, 1024, 0, 6, 4022, 4031, 4017, 4038, 4036, 4027, 0, 1, 6101, -89.900, 0.000, -140.300, 0.000, 0.000, -1.000, 0.0, , , , , , 97, , , 25, 25, 25
36.9937704, -119.1734750, 1.500, 11:19:17.119, 12, 0.00, 0.10, 97, 1.000, 0.000, -139.700, 702, 100, 100, 25, 24178, -16798, 5270, 5434, 14, 14, 1528913957.119, 81, 0, 1024, 1024, 1024, 1024, 0, 6, 4022, 4031, 4017, 4038, 4036, 4027, 0, 1, 6200, -89.900, 0.000, -140.300, 0.000, 0.000, -1.100, 0.0, , , , , , 97, , , 25, 25, 25
36.9937704, -119.1734749, 1.600, 11:19:17.219, 12, 0.00, 0.10, 97, 1.000, -0.100, -139.700, 702, 100, 100, 25, 24178, -16798, 5270, 5434, 14, 14, 1528913957.219, 69, 0, 1024, 1024, 1024, 1024, 0, 6, 4022, 4031, 4017, 4038, 4036, 4027, 0, 1, 6301, -90.000, 0.000, -140.300, 0.000, 0.000, -1.300, 0.0, , , , , , 97, , , 25, 25, 25
36.9937704, -119.1734749, 1.700, 11:19:17.319, 12, 0.00, 0.10, 97, 1.000, -0.100, -139.800, 702, 100, 100, 25, 24178, -16798, 5270, 5434, 14, 14, 1528913957.319, 72, 0, 1024, 1024, 1024, 1024, 0, 6, 4022, 4031, 4017, 4038, 4036, 4027, 0, 1, 6400, -90.000, 0.000, -140.300, 0.000, 0.000, -1.500, 0.0, , , , , , 97, , , 25, 25, 25
36.9937704, -119.1734750, 1.900, 11:19:17.419, 12, 0.00, 0.11, 97, 0.800, -0.100, -139.800, 702, 100, 100, 25, 24178, -16798, 5270, 5434, 14, 14, 1528913957.419, 76, 0, 1024, 1024, 1024, 1024, 0, 6, 4022, 4031, 4017, 4038, 4036, 4027, 0, 1, 6500, -90.000, 0.000, -140.300, 0.000, 0.000, -1.800, 0.0, , , , , , 97, , , 25, 25, 25
36.9937703, -119.1734749, 2.300, 11:19:17.518, 12, 0.00, 0.10, 97, 0.600, -0.100, -139.700, 702, 100, 100, 25, 24178, -16798, 5270, 5434, 14, 14, 1528913957.518, 65, 0, 1024, 1024, 1024, 1024, 0, 6, 4022, 4031, 4017, 4038, 4036, 4027, 0, 1, 6600, -89.900, 0.000, -140.300, 0.000, 0.000, -2.200, 0.0, , , , , , 97, , , 25, 25, 25
36.9937702, -119.1734748, 2.500, 11:19:17.619, 13, 0.00, 0.09, 97, 0.700, 0.000, -139.700, 702, 100, 100, 25, 24178, -16798, 5270, 5434, 14, 14, 1528913957.619, 67, 0, 1024, 1024, 1024, 1024, 0, 6, 4022, 4031, 4017, 4038, 4036, 4027, 0, 1, 6700, -89.900, 0.000, -140.300, 0.000, 0.000, -2.400, 0.0, , , , , , 97, , , 25, 25, 25
36.9937701, -119.1734747, 2.800, 11:19:17.719, 13, 0.00, 0.07, 97, 1.000, 0.000, -139.600, 702, 100, 100, 25, 24178, -16798, 5270, 5434, 14, 14, 1528913957.719, 48, 0, 1024, 1024, 1024, 1024, 0, 6, 4022, 4031, 4017, 4038, 4036, 4027, 0, 1, 6800, -89.900, 0.000, -140.300, 0.000, 0.000, -2.700, 0.0, , , , , , 97, , , 25, 25, 25
36.9937701, -119.1734747, 3.100, 11:19:17.819, 12, 0.00, 0.07, 97, 1.400, 0.000, -139.500, 702, 100, 100, 25, 24178, -16798, 5270, 5434, 14, 14, 1528913957.819, 38, 0, 1024, 1024, 1024, 1024, 0, 6, 4022, 4031, 4017, 4038, 4036, 4027, 0, 1, 6900, -89.900, 0.000, -140.300, 0.000, 0.000, -2.900, 0.0, , , , , , 97, , , 25, 25, 25
36.9937700, -119.1734748, 3.400, 11:19:17.919, 12, 0.00, 0.06, 97, 1.600, 0.100, -139.400, 702, 100, 100, 25, 24178, -16798, 5270, 5434, 14, 14, 1528913957.919, 31, 0, 1024, 1024, 1024, 1024, 0, 6, 4022, 4031, 4017, 4038, 4036, 4027, 0, 1, 7000, -89.900, 0.000, -140.300, 0.000, 0.000, -3.100, 0.0, , , , , , 97, , , 25, 25, 25
36.9937699, -119.1734748, 3.700, 11:19:18.019, 13, 0.00, 0.05, 97, 1.600, 0.500, -139.400, 702, 100, 100, 25, 23882, -18870, 5270, 5434, 14, 14, 1528913958.019, 45, 0, 1024, 1024, 1024, 1024, 0, 6, 4022, 4031, 4017, 4038, 4036, 4027, 0, 1, 7100, -89.900, 0.000, -140.300, 0.000, 0.000, -3.100, 0.0, , , , , , 97, , , 25, 25, 25
36.9937699, -119.1734748, 4.000, 11:19:18.119, 13, 0.00, 0.04, 97, 1.300, 0.600, -139.400, 702, 100, 100, 25, 23882, -18870, 5270, 5434, 14, 14, 1528913958.119, 22, 0, 1024, 1024, 1024, 1024, 0, 6, 4022, 4031, 4017, 4038, 4036, 4027, 0, 1, 7200, -89.900, 0.000, -140.300, 0.000, 0.000, -3.100, 0.0, , , , , , 97, , , 25, 25, 25
36.9937699, -119.1734748, 4.400, 11:19:18.219, 13, 0.00, 0.05, 97, 1.000, 0.700, -139.400, 702, 100, 100, 25, 23882, -18870, 5270, 5434, 14, 14, 1528913958.219, 40, 0, 1024, 1024, 1024, 1024, 0, 6, 4022, 4031, 4017, 4038, 4036, 4027, 0, 1, 7300, -89.900, 0.000, -140.300, 0.000, 0.000, -3.200, 0.0, , , , , , 97, , , 25, 25, 25
36.9937699, -119.1734748, 4.700, 11:19:18.319, 13, 0.00, 0.05, 97, 0.700, 0.600, -139.500, 702, 100, 100, 25, 23882, -18870, 5270, 5434, 14, 14, 1528913958.319, 28, 0, 1024, 1024, 1024, 1024, 0, 6, 4022, 4031, 4017, 4038, 4036, 4027, 0, 1, 7401, -89.900, 0.000, -140.300, 0.000, 0.000, -3.200, 0.0, , , , , , 97, , , 25, 25, 25
36.9937699, -119.1734748, 4.700, 11:19:18.419, 13, 0.00, 0.05, 97, 0.700, 0.600, -139.500, 702, 100, 100, 25, 23882, -18870, 5270, 5434, 14, 14, 1528913958.419, 128, 0, 1024, 1024, 1024, 1024, 0, 6, 4022, 4031, 4017, 4038, 4036, 4027, 0, 1, 7500, -89.900, 0.000, -140.300, 0.000, 0.000, -3.200, 0.0, , , , , , 97, , , 25, 25, 25
36.9937699, -119.1734752, 5.400, 11:19:18.519, 13, 0.00, 0.06, 97, 0.600, 0.700, -139.600, 702, 100, 100, 25, 23882, -18870, 5270, 5434, 14, 14, 1528913958.519, 26, 0, 1024, 1024, 1024, 1024, 0, 6, 3930, 3942, 3938, 3975, 3952, 3974, 0, 1, 7600, -89.900, 0.000, -140.300, 0.000, 0.000, -3.200, 0.0, , , , , , 97, , , 25, 25, 25
36.9937699, -119.1734752, 5.700, 11:19:18.619, 13, 0.00, 0.06, 97, 0.400, 0.800, -139.700, 702, 100, 100, 25, 23882, -18870, 5270, 5434, 14, 14, 1528913958.619, 22, 0, 1024, 1024, 1024, 1024, 0, 6, 3930, 3942, 3938, 3975, 3952, 3974, 0, 1, 7700, -89.900, 0.000, -140.300, 0.000, 0.000, -3.200, 0.0, , , , , , 97, , , 25, 25, 25
36.9937698, -119.1734750, 6.100, 11:19:18.718, 13, 0.00, 0.04, 97, 0.600, 0.600, -139.700, 702, 100, 100, 25, 23882, -18870, 5270, 5434, 14, 14, 1528913958.718, 16, 0, 1024, 1024, 1024, 1024, 0, 6, 3930, 3942, 3938, 3975, 3952, 3974, 0, 1, 7800, -89.900, 0.000, -140.300, 0.000, 0.000, -3.200, 0.0, , , , , , 97, , , 25, 25, 25
36.9937698, -119.1734750, 6.100, 11:19:18.819, 13, 0.00, 0.04, 97, 0.600, 0.600, -139.700, 702, 100, 100, 25, 23882, -18870, 5270, 5434, 14, 14, 1528913958.819, 117, 0, 1024, 1024, 1024, 1024, 0, 6, 3930, 3942, 3938, 3975, 3952, 3974, 0, 1, 7900, -89.900, 0.000, -140.300, 0.000, 0.000, -3.200, 0.0, , , , , , 97, , , 25, 25, 25
36.9937698, -119.1734750, 6.400, 11:19:18.919, 12, 0.00, 0.04, 97, 1.000, 0.500, -139.700, 702, 100, 100, 25, 23882, -18870, 5270, 5434, 14, 14, 1528913958.919, 98, 0, 1024, 1024, 1024, 1024, 0, 6, 3930, 3942, 3938, 3975, 3952, 3974, 0, 1, 8000, -89.900, 0.000, -140.300, 0.000, 0.000, -3.200, 0.0, , , , , , 97, , , 25, 25, 25
36.9937698, -119.1734751, 6.700, 11:19:19.019, 12, 0.00, 0.04, 97, 1.100, 0.500, -139.600, 702, 100, 100, 25, 23882, -18870, 5270, 5434, 14, 14, 1528913959.019, 98, 0, 1024, 1024, 1024, 1024, 0, 6, 3930, 3942, 3938, 3975, 3952, 3974, 0, 1, 8100, -89.900, 0.000, -140.300, 0.000, 0.000, -3.200, 0.0, , , , , , 97, , , 25, 25, 25
36.9937698, -119.1734751, 7.100, 11:19:19.118, 15, 0.00, 0.04, 97, 1.100, 0.600, -139.600, 702, 100, 100, 25, 23882, -18870, 5270, 5434, 14, 14, 1528913959.119, 84, 0, 1024, 1024, 1024, 1024, 0, 6, 3930, 3942, 3938, 3975, 3952, 3974, 0, 1, 8200, -89.900, 0.000, -140.300, 0.000, 0.000, -3.100, 0.0, , , , , , 97, , , 25, 25, 25
36.9937698, -119.1734750, 7.400, 11:19:19.219, 15, 0.00, 0.04, 97, 1.100, 0.600, -139.700, 702, 100, 100, 25, 23882, -18870, 5270, 5434, 14, 14, 1528913959.219, 97, 0, 1024, 1024, 1024, 1024, 0, 6, 3930, 3942, 3938, 3975, 3952, 3974, 0, 1, 8300, -89.900, 0.000, -140.300, 0.000, 0.000, -3.100, 0.0, , , , , , 97, , , 25, 25, 25
36.9937698, -119.1734751, 7.700, 11:19:19.319, 14, 0.00, 0.04, 97, 1.100, 0.500, -139.700, 702, 100, 100, 25, 23882, -18870, 5270, 5434, 14, 14, 1528913959.319, 94, 0, 1024, 1024, 1024, 1024, 0, 6, 3930, 3942, 3938, 3975, 3952, 3974, 0, 1, 8400, -89.900, 0.000, -140.300, 0.000, 0.000, -3.100, 0.0, , , , , , 97, , , 25, 25, 25
36.9937698, -119.1734751, 8.000, 11:19:19.419, 14, 0.00, 0.05, 97, 1.100, 0.500, -139.700, 702, 100, 100, 25, 23882, -18870, 5270, 5434, 14, 14, 1528913959.419, 85, 0, 1024, 1024, 1024, 1024, 0, 6, 3930, 3942, 3938, 3975, 3952, 3974, 0, 1, 8500, -89.900, 0.000, -140.300, 0.000, 0.000, -3.100, 0.0, , , , , , 97, , , 25, 25, 25
36.9937698, -119.1734751, 8.300, 11:19:19.519, 15, 0.00, 0.05, 97, 1.000, 0.500, -139.700, 702, 100, 100, 25, 23438, -24281, 5270, 5434, 14, 14, 1528913959.519, 81, 0, 1024, 1024, 1024, 1024, 0, 6, 3912, 3926, 3887, 3917, 3929, 3921, 0, 1, 8600, -89.900, 0.000, -140.300, 0.000, 0.000, -3.100, 0.0, , , , , , 97, , , 25, 25, 25
36.9937698, -119.1734751, 8.700, 11:19:19.619, 15, 0.00, 0.05, 97, 0.900, 0.500, -139.800, 702, 100, 100, 25, 23438, -24281, 5270, 5434, 14, 14, 1528913959.619, 70, 0, 1024, 1024, 1024, 1024, 0, 6, 3912, 3926, 3887, 3917, 3929, 3921, 0, 1, 8700, -89.900, 0.000, -140.300, 0.000, 0.000, -3.100, 0.0, , , , , , 97, , , 25, 25, 25
36.9937699, -119.1734751, 9.000, 11:19:19.719, 16, 0.00, 0.06, 97, 0.900, 0.500, -139.800, 702, 100, 100, 25, 23438, -24281, 5270, 5434, 14, 14, 1528913959.719, 58, 0, 1024, 1024, 1024, 1024, 0, 6, 3912, 3926, 3887, 3917, 3929, 3921, 0, 1, 8800, -89.900, 0.000, -140.300, 0.000, 0.000, -3.100, 0.0, , , , , , 97, , , 25, 25, 25
36.9937700, -119.1734751, 9.300, 11:19:19.819, 16, 0.00, 0.07, 97, 0.900, 0.500, -139.800, 702, 100, 100, 25, 23438, -24281, 5270, 5434, 14, 14, 1528913959.819, 61, 0, 1024, 1024, 1024, 1024, 0, 6, 3912, 3926, 3887, 3917, 3929, 3921, 0, 1, 8900, -89.900, 0.000, -140.300, 0.000, 0.000, -3.100, 0.0, , , , , , 97, , , 25, 25, 25
36.9937700, -119.1734751, 9.600, 11:19:19.919, 16, 0.00, 0.07, 97, 0.800, 0.400, -139.800, 702, 100, 100, 25, 23438, -24281, 5270, 5434, 14, 14, 1528913959.919, 53, 0, 1024, 1024, 1024, 1024, 0, 6, 3912, 3926, 3887, 3917, 3929, 3921, 0, 1, 9000, -89.900, 0.000, -140.300, 0.000, 0.000, -3.100, 0.0, , , , , , 97, , , 25, 25, 25
36.9937700, -119.1734751, 10.000, 11:19:20.019, 16, 0.00, 0.07, 97, 0.800, 0.400, -139.800, 702, 100, 100, 25, 23438, -24281, 5270, 5434, 14, 14, 1528913960.019, 55, 0, 1024, 1024, 1024, 1024, 0, 6, 3912, 3926, 3887, 3917, 3929, 3921, 0, 1, 9100, -89.900, 0.000, -140.300, 0.000, 0.000, -3.100, 0.0, , , , , , 97, , , 25, 25, 25
36.9937702, -119.1734751, 10.600, 11:19:20.119, 16, 0.00, 0.08, 97, 0.600, 0.300, -139.800, 702, 100, 100, 25, 23438, -24281, 5270, 5434, 14, 14, 1528913960.119, 24, 0, 1024, 1024, 1024, 1024, 0, 6, 3912, 3926, 3887, 3917, 3929, 3921, 0, 1, 9200, -89.900, 0.000, -140.300, 0.000, 0.000, -3.000, 0.0, , , , , , 97, , , 25, 25, 25
36.9937702, -119.1734751, 10.900, 11:19:20.219, 16, 0.00, 0.09, 97, 0.600, 0.100, -139.800, 702, 100, 100, 25, 23438, -24281, 5270, 5434, 14, 14, 1528913960.219, 28, 0, 1024, 1024, 1024, 1024, 0, 6, 3912, 3926, 3887, 3917, 3929, 3921, 0, 1, 9300, -90.000, 0.000, -140.300, 0.000, 0.000, -3.000, 0.0, , , , , , 97, , , 25, 25, 25
36.9937703, -119.1734751, 11.200, 11:19:20.318, 16, 0.00, 0.09, 97, 0.800, 0.000, -139.800, 702, 100, 100, 25, 23438, -24281, 5270, 5434, 14, 14, 1528913960.318, 42, 0, 1024, 1024, 1024, 1024, 0, 6, 3912, 3926, 3887, 3917, 3929, 3921, 0, 1, 9399, -90.000, 0.000, -140.300, 0.000, 0.000, -3.000, 0.0, , , , , , 97, , , 25, 25, 25
36.9937702, -119.1734750, 11.600, 11:19:20.419, 16, 0.00, 0.09, 97, 0.900, 0.000, -139.800, 702, 100, 100, 25, 23736, -19411, 5270, 5434, 14, 14, 1528913960.419, 9, 0, 1024, 1024, 1024, 1024, 0, 6, 3946, 3948, 3940, 3966, 3960, 3946, 0, 1, 9500, -90.000, 0.000, -140.300, 0.000, 0.000, -3.000, 0.0, , , , , , 97, , , 25, 25, 25
36.9937702, -119.1734749, 11.900, 11:19:20.519, 16, 0.00, 0.08, 97, 1.200, 0.100, -139.900, 702, 100, 100, 25, 23736, -19411, 5270, 5434, 14, 14, 1528913960.519, 23, 0, 1024, 1024, 1024, 1024, 0, 6, 3946, 3948, 3940, 3966, 3960, 3946, 0, 1, 9600, -90.000, 0.000, -140.300, 0.000, 0.000, -3.000, 0.0, , , , , , 97, , , 25, 25, 25
36.9937702, -119.1734748, 12.200, 11:19:20.618, 16, 0.00, 0.08, 97, 1.400, 0.200, -140.000, 702, 100, 100, 25, 23736, -19411, 5270, 5434, 14, 14, 1528913960.619, 25, 0, 1024, 1024, 1024, 1024, 0, 6, 3946, 3948, 3940, 3966, 3960, 3946, 0, 1, 9700, -90.000, 0.000, -140.300, 0.000, 0.000, -3.000, 0.0, , , , , , 97, , , 25, 25, 25
36.9937703, -119.1734748, 12.500, 11:19:20.719, 16, 0.00, 0.09, 97, 1.300, 0.100, -140.000, 702, 100, 100, 25, 23736, -19411, 5270, 5434, 14, 14, 1528913960.719, 30, 0, 1024, 1024, 1024, 1024, 0, 6, 3946, 3948, 3940, 3966, 3960, 3946, 0, 1, 9800, -90.000, 0.000, -140.300, 0.000, 0.000, -3.000, 0.0, , , , , , 97, , , 25, 25, 25
36.9937703, -119.1734748, 12.800, 11:19:20.819, 16, 0.00, 0.09, 97, 1.200, 0.000, -140.000, 702, 100, 100, 25, 23736, -19411, 5270, 5434, 14, 14, 1528913960.819, 18, 0, 1024, 1024, 1024, 1024, 0, 6, 3946, 3948, 3940, 3966, 3960, 3946, 0, 1, 9900, -90.000, 0.000, -140.300, 0.000, 0.000, -3.000, 0.0, , , , , , 97, , , 25, 25, 25
36.9937703, -119.1734747, 13.100, 11:19:20.919, 16, 0.00, 0.09, 97, 1.200, 0.000, -140.100, 702, 100, 100, 25, 23736, -19411, 5270, 5434, 14, 14, 1528913960.919, 8, 0, 1024, 1024, 1024, 1024, 0, 6, 3946, 3948, 3940, 3966, 3960, 3946, 0, 1, 10000, -90.000, 0.000, -140.300, 0.000, 0.000, -2.900, 0.0, , , , , , 97, , , 25, 25, 25
36.9937703, -119.1734747, 13.100, 11:19:21.019, 16, 0.00, 0.09, 97, 1.200, 0.000, -140.100, 702, 100, 100, 25, 23736, -19411, 5270, 5434, 14, 14, 1528913961.019, 108, 0, 1024, 1024, 1024, 1024, 0, 6, 3946, 3948, 3940, 3966, 3960, 3946, 0, 1, 10100, -90.000, 0.000, -140.300, 0.000, 0.000, -2.900, 0.0, , , , , , 97, , , 25, 25, 25
36.9937704, -119.1734748, 13.700, 11:19:21.118, 17, 0.00, 0.11, 97, 1.000, 0.100, -140.100, 702, 100, 100, 25, 23736, -19411, 5270, 5434, 14, 14, 1528913961.118, 2, 0, 1024, 1024, 1024, 1024, 0, 6, 3946, 3948, 3940, 3966, 3960, 3946, 0, 1, 10199, -90.000, 0.000, -140.300, 0.000, 0.000, -3.000, 0.0, , , , , , 97, , , 25, 25, 25
36.9937705, -119.1734748, 14.000, 11:19:21.218, 17, 0.00, 0.11, 97, 0.600, 0.100, -140.000, 702, 100, 100, 25, 23736, -19411, 5270, 5434, 14, 14, 1528913961.218, 4, 0, 1024, 1024, 1024, 1024, 0, 6, 3946, 3948, 3940, 3966, 3960, 3946, 0, 1, 10299, -90.000, 0.000, -140.300, 0.000, 0.000, -3.000, 0.0, , , , , , 97, , , 25, 25, 25
36.9937705, -119.1734748, 14.300, 11:19:21.319, 17, 0.00, 0.11, 97, 0.300, 0.000, -139.900, 702, 100, 100, 25, 23736, -19411, 5270, 5434, 14, 14, 1528913961.319, 19, 0, 1024, 1024, 1024, 1024, 0, 6, 3946, 3948, 3940, 3966, 3960, 3946, 0, 1, 10400, -90.000, 0.000, -140.300, 0.000, 0.000, -2.900, 0.0, , , , , , 97, , , 25, 25, 25
36.9937705, -119.1734748, 14.600, 11:19:21.418, 17, 0.00, 0.12, 97, 0.400, 0.100, -139.800, 702, 100, 100, 25, 23736, -19115, 5270, 5434, 14, 14, 1528913961.418, 6, 0, 1024, 1024, 1024, 1024, 0, 6, 3951, 3959, 3936, 3967, 3965, 3954, 0, 1, 10500, -90.000, 0.000, -140.300, 0.000, 0.000, -3.000, 0.0, , , , , , 97, , , 25, 25, 25
36.9937705, -119.1734748, 14.600, 11:19:21.519, 17, 0.00, 0.12, 97, 0.400, 0.100, -139.800, 702, 100, 100, 25, 23736, -19115, 5270, 5434, 14, 14, 1528913961.519, 106, 0, 1024, 1024, 1024, 1024, 0, 6, 3951, 3959, 3936, 3967, 3965, 3954, 0, 1, 10600, -90.000, 0.000, -140.300, 0.000, 0.000, -3.000, 0.0, , , , , , 97, , , 25, 25, 25
36.9937706, -119.1734748, 14.900, 11:19:21.619, 17, 0.00, 0.12, 97, 0.600, 0.000, -139.700, 702, 100, 100, 25, 23736, -19115, 5270, 5434, 14, 14, 1528913961.619, 97, 0, 1024, 1024, 1024, 1024, 0, 6, 3951, 3959, 3936, 3967, 3965, 3954, 0, 1, 10700, -89.900, 0.000, -140.300, 0.000, 0.000, -2.900, 0.0, , , , , , 97, , , 25, 25, 25
36.9937705, -119.1734748, 15.200, 11:19:21.719, 17, 0.00, 0.12, 97, 0.900, 0.000, -139.700, 702, 100, 100, 25, 23736, -19115, 5270, 5434, 14, 14, 1528913961.719, 75, 0, 1024, 1024, 1024, 1024, 0, 6, 3951, 3959, 3936, 3967, 3965, 3954, 0, 1, 10800, -90.000, 0.000, -140.300, 0.000, 0.000, -2.900, 0.0, , , , , , 97, , , 25, 25, 25
36.9937705, -119.1734747, 15.500, 11:19:21.819, 17, 0.00, 0.12, 97, 1.200, 0.000, -139.800, 702, 100, 100, 25, 23736, -19115, 5270, 5434, 14, 14, 1528913961.819, 76, 0, 1024, 1024, 1024, 1024, 0, 6, 3951, 3959, 3936, 3967, 3965, 3954, 0, 1, 10900, -90.000, 0.000, -140.300, 0.000, 0.000, -2.900, 0.0, , , , , , 97, , , 25, 25, 25
36.9937705, -119.1734747, 15.800, 11:19:21.919, 17, 0.00, 0.11, 97, 1.500, 0.000, -139.900, 702, 100, 100, 25, 23736, -19115, 5270, 5434, 14, 14, 1528913961.919, 66, 0, 1024, 1024, 1024, 1024, 0, 6, 3951, 3959, 3936, 3967, 3965, 3954, 0, 1, 11000, -90.000, 0.000, -140.300, 0.000, 0.000, -2.900, 0.0, , , , , , 97, , , 25, 25, 25
36.9937705, -119.1734747, 16.100, 11:19:22.019, 17, 0.00, 0.11, 97, 1.600, 0.100, -139.900, 702, 100, 100, 25, 23736, -19115, 5270, 5434, 14, 14, 1528913962.019, 58, 0, 1024, 1024, 1024, 1024, 0, 6, 3951, 3959, 3936, 3967, 3965, 3954, 0, 1, 11100, -89.900, 0.000, -140.300, 0.000, 0.000, -2.900, 0.0, , , , , , 97, , , 25, 25, 25
36.9937705, -119.1734746, 16.400, 11:19:22.119, 17, 0.00, 0.11, 97, 1.600, 0.300, -140.000, 702, 100, 100, 25, 23736, -19115, 5270, 5434, 14, 14, 1528913962.119, 63, 0, 1024, 1024, 1024, 1024, 0, 6, 3951, 3959, 3936, 3967, 3965, 3954, 0, 1, 11200, -89.900, 0.000, -140.300, 0.000, 0.000, -3.000, 0.0, , , , , , 97, , , 25, 25, 25
36.9937705, -119.1734746, 16.700, 11:19:22.219, 17, 0.00, 0.11, 97, 1.700, 0.500, -139.900, 702, 100, 100, 25, 23736, -19115, 5270, 5434, 14, 14, 1528913962.219, 56, 0, 1024, 1024, 1024, 1024, 0, 6, 3951, 3959, 3936, 3967, 3965, 3954, 0, 1, 11300, -89.900, 0.000, -140.300, 0.000, 0.000, -2.900, 0.0, , , , , , 97, , , 25, 25, 25
36.9937705, -119.1734746, 17.000, 11:19:22.319, 17, 0.00, 0.11, 97, 1.700, 0.500, -139.800, 702, 100, 100, 25, 23736, -19115, 5270, 5434, 14, 14, 1528913962.319, 39, 0, 1024, 1024, 1024, 1024, 0, 6, 3951, 3959, 3936, 3967, 3965, 3954, 0, 1, 11400, -89.900, 0.000, -140.300, 0.000, 0.000, -2.900, 0.0, , , , , , 97, , , 25, 25, 25
36.9937705, -119.1734746, 17.600, 11:19:22.419, 17, 0.00, 0.11, 97, 1.200, 0.100, -139.800, 702, 100, 100, 25, 23736, -19115, 5270, 5434, 14, 14, 1528913962.419, 65, 0, 1024, 1024, 1024, 1024, 0, 6, 3951, 3959, 3936, 3967, 3965, 3954, 0, 1, 11500, -90.000, 0.000, -140.300, 0.000, 0.000, -2.900, 0.0, , , , , , 97, , , 25, 25, 25
36.9937705, -119.1734746, 17.900, 11:19:22.519, 17, 0.00, 0.12, 97, 1.100, 0.000, -139.800, 702, 100, 100, 25, 23678, -19151, 5270, 5434, 14, 14, 1528913962.519, 58, 0, 1024, 1024, 1024, 1024, 0, 6, 3941, 3950, 3934, 3960, 3946, 3948, 0, 1, 11600, -90.000, 0.000, -140.300, 0.000, 0.000, -2.900, 0.0, , , , , , 97, , , 25, 25, 25
36.9937705, -119.1734746, 17.900, 11:19:22.618, 17, 0.00, 0.12, 97, 1.100, 0.000, -139.800, 702, 100, 100, 25, 23678, -19151, 5270, 5434, 14, 14, 1528913962.619, 157, 0, 1024, 1024, 1024, 1024, 0, 6, 3941, 3950, 3934, 3960, 3946, 3948, 0, 1, 11700, -90.000, 0.000, -140.300, 0.000, 0.000, -2.900, 0.0, , , , , , 97, , , 25, 25, 25
36.9937706, -119.1734747, 18.500, 11:19:22.719, 17, 0.00, 0.13, 97, 1.000, -0.200, -139.900, 702, 100, 100, 25, 23678, -19151, 5270, 5434, 14, 14, 1528913962.719, 51, 0, 1024, 1024, 1024, 1024, 0, 6, 3941, 3950, 3934, 3960, 3946, 3948, 0, 1, 11800, -90.000, 0.000, -140.300, 0.000, 0.000, -2.900, 0.0, , , , , , 97, , , 25, 25, 25
36.9937706, -119.1734747, 18.800, 11:19:22.819, 17, 0.00, 0.13, 97, 1.000, -0.100, -139.900, 702, 100, 100, 25, 23678, -19151, 5270, 5434, 14, 14, 1528913962.819, 46, 0, 1024, 1024, 1024, 1024, 0, 6, 3941, 3950, 3934, 3960, 3946, 3948, 0, 1, 11900, -90.000, 0.000, -140.300, 0.000, 0.000, -2.900, 0.0, , , , , , 97, , , 25, 25, 25
36.9937706, -119.1734747, 19.100, 11:19:22.919, 17, 0.00, 0.13, 97, 1.100, 0.000, -139.900, 702, 100, 100, 25, 23678, -19151, 5270, 5434, 14, 14, 1528913962.919, 37, 0, 1024, 1024, 1024, 1024, 0, 6, 3941, 3950, 3934, 3960, 3946, 3948, 0, 1, 12000, -89.900, 0.000, -140.300, 0.000, 0.000, -2.900, 0.0, , , , , , 97, , , 25, 25, 25
36.9937706, -119.1734747, 19.400, 11:19:23.018, 18, 0.00, 0.13, 97, 1.100, 0.300, -139.900, 702, 100, 100, 25, 23678, -19151, 5270, 5434, 14, 14, 1528913963.018, 32, 0, 1024, 1024, 1024, 1024, 0, 6, 3941, 3950, 3934, 3960, 3946, 3948, 0, 1, 12099, -89.900, 0.000, -140.300, 0.000, 0.000, -2.900, 0.0, , , , , , 97, , , 25, 25, 25
36.9937706, -119.1734747, 19.700, 11:19:23.118, 18, 0.00, 0.13, 97, 1.100, 0.400, -140.000, 702, 100, 100, 25, 23678, -19151, 5270, 5434, 14, 14, 1528913963.119, 22, 0, 1024, 1024, 1024, 1024, 0, 6, 3941, 3950, 3934, 3960, 3946, 3948, 0, 1, 12200, -89.900, 0.000, -140.300, 0.000, 0.000, -2.900, 0.0, , , , , , 97, , , 25, 25, 25
36.9937706, -119.1734747, 20.000, 11:19:23.219, 18, 0.00, 0.12, 97, 0.900, 0.400, -140.100, 702, 100, 100, 25, 23678, -19151, 5270, 5434, 14, 14, 1528913963.219, 23, 0, 1024, 1024, 1024, 1024, 0, 6, 3941, 3950, 3934, 3960, 3946, 3948, 0, 1, 12300, -89.900, 0.000, -140.300, 0.000, 0.000, -2.900, 0.0, , , , , , 97, , , 25, 25, 25
36.9937706, -119.1734747, 20.300, 11:19:23.319, 18, 0.00, 0.12, 97, 1.100, 0.300, -140.100, 702, 100, 100, 25, 23678, -19151, 5270, 5434, 14, 14, 1528913963.319, 23, 0, 1024, 1024, 1024, 1024, 0, 6, 3941, 3950, 3934, 3960, 3946, 3948, 0, 1, 12400, -89.900, 0.000, -140.300, 0.000, 0.000, -2.900, 0.0, , , , , , 97, , , 25, 25, 25
36.9937706, -119.1734746, 20.600, 11:19:23.419, 18, 0.00, 0.12, 97, 1.400, 0.400, -140.100, 702, 100, 100, 25, 23617, -19179, 5270, 5434, 14, 14, 1528913963.419, 18, 0, 1024, 1024, 1024, 1024, 0, 6, 3941, 3950, 3934, 3960, 3946, 3948, 0, 1, 12500, -89.900, 0.000, -140.300, 0.000, 0.000, -2.900, 0.0, , , , , , 97, , , 25, 25, 25
36.9937706, -119.1734746, 20.900, 11:19:23.519, 18, 0.00, 0.12, 97, 1.600, 0.200, -139.900, 702, 100, 98, 25, 23617, -19179, 5270, 5434, 14, 14, 1528913963.519, 11, 0, 1024, 1024, 1024, 1024, 0, 6, 3941, 3950, 3934, 3960, 3946, 3948, 0, 1, 12600, -89.900, 0.000, -140.300, 0.000, 0.000, -3.000, 0.0, , , , , , 97, , , 25, 25, 25
36.9937706, -119.1734746, 21.200, 11:19:23.618, 18, 0.00, 0.12, 97, 1.500, 0.000, -139.800, 702, 100, 98, 25, 23617, -19179, 5270, 5434, 14, 14, 1528913963.619, 11, 0, 1024, 1024, 1024, 1024, 0, 6, 3941, 3950, 3934, 3960, 3946, 3948, 0, 1, 12700, -90.000, 0.000, -140.300, 0.000, 0.000, -2.900, 0.0, , , , , , 97, , , 25, 25, 25
36.9937706, -119.1734746, 21.500, 11:19:23.719, 18, 0.00, 0.12, 97, 1.500, -0.100, -139.800, 702, 100, 98, 25, 23617, -19179, 5270, 5434, 14, 14, 1528913963.719, 18, 0, 1024, 1024, 1024, 1024, 0, 6, 3941, 3950, 3934, 3960, 3946, 3948, 0, 1, 12800, -90.000, 0.000, -140.300, 0.000, 0.000, -2.900, 0.0, , , , , , 97, , , 25, 25, 25
36.9937706, -119.1734746, 21.500, 11:19:23.819, 18, 0.00, 0.12, 97, 1.500, -0.100, -139.800, 702, 100, 98, 25, 23617, -19179, 5270, 5434, 14, 14, 1528913963.819, 118, 0, 1024, 1024, 1024, 1024, 0, 6, 3941, 3950, 3934, 3960, 3946, 3948, 0, 1, 12900, -90.000, 0.000, -140.300, 0.000, 0.000, -2.900, 0.0, , , , , , 97, , , 25, 25, 25
36.9937705, -119.1734745, 21.800, 11:19:23.919, 18, 0.00, 0.12, 97, 1.600, -0.100, -139.700, 702, 100, 98, 25, 23617, -19179, 5270, 5434, 14, 14, 1528913963.919, 94, 0, 1024, 1024, 1024, 1024, 0, 6, 3941, 3950, 3934, 3960, 3946, 3948, 0, 1, 13000, -90.000, 0.000, -140.300, 0.000, 0.000, -3.000, 0.0, , , , , , 97, , , 25, 25, 25
36.9937705, -119.1734744, 22.100, 11:19:24.019, 18, 0.00, 0.12, 97, 1.800, -0.100, -139.700, 702, 100, 98, 25, 23617, -19179, 5270, 5434, 14, 14, 1528913964.019, 85, 0, 1024, 1024, 1024, 1024, 0, 6, 3922, 3941, 3918, 3952, 3952, 3926, 0, 1, 13100, -90.000, 0.000, -140.300, 0.000, 0.000, -3.000, 0.0, , , , , , 97, , , 25, 25, 25
36.9937705, -119.1734744, 22.400, 11:19:24.118, 18, 0.00, 0.12, 97, 2.100, 0.000, -139.600, 702, 100, 98, 25, 23617, -19179, 5270, 5434, 14, 14, 1528913964.119, 74, 0, 1024, 1024, 1024, 1024, 0, 6, 3922, 3941, 3918, 3952, 3952, 3926, 0, 1, 13200, -89.900, 0.000, -140.300, 0.000, 0.000, -3.000, 0.0, , , , , , 97, , , 25, 25, 25
36.9937705, -119.1734744, 22.400, 11:19:24.219, 18, 0.00, 0.12, 97, 2.100, 0.000, -139.600, 702, 100, 98, 25, 23617, -19179, 5270, 5434, 14, 14, 1528913964.219, 174, 0, 1024, 1024, 1024, 1024, 0, 6, 3922, 3941, 3918, 3952, 3952, 3926, 0, 1, 13300, -89.900, 0.000, -140.300, 0.000, 0.000, -3.000, 0.0, , , , , , 97, , , 25, 25, 25
36.9937705, -119.1734744, 23.000, 11:19:24.319, 18, 0.00, 0.12, 97, 2.300, 0.300, -139.600, 702, 100, 98, 25, 23617, -19179, 5270, 5434, 14, 14, 1528913964.319, 73, 0, 1024, 1024, 1024, 1024, 0, 6, 3922, 3941, 3918, 3952, 3952, 3926, 0, 1, 13400, -89.900, 0.000, -140.300, 0.000, 0.000, -3.000, 0.0, , , , , , 97, , , 25, 25, 25
36.9937704, -119.1734744, 23.300, 11:19:24.419, 18, 0.00, 0.11, 97, 2.100, 0.300, -139.600, 702, 100, 98, 25, 23617, -19179, 5270, 5434, 14, 14, 1528913964.419, 79, 0, 1024, 1024, 1024, 1024, 0, 6, 3922, 3941, 3918, 3952, 3952, 3926, 0, 1, 13500, -89.900, 0.000, -140.300, 0.000, 0.000, -2.900, 0.0, , , , , , 97, , , 25, 25, 25
36.9937704, -119.1734744, 23.600, 11:19:24.519, 18, 0.00, 0.11, 97, 2.100, 0.300, -139.700, 702, 100, 98, 25, 23617, -19179, 5270, 5434, 14, 14, 1528913964.519, 85, 0, 1024, 1024, 1024, 1024, 0, 6, 3922, 3941, 3918, 3952, 3952, 3926, 0, 1, 13600, -89.900, 0.000, -140.300, 0.000, 0.000, -2.900, 0.0, , , , , , 97, , , 25, 25, 25
36.9937704, -119.1734743, 23.900, 11:19:24.618, 18, 0.00, 0.11, 97, 2.200, 0.100, -139.800, 702, 100, 94, 25, 23617, -19179, 5270, 5434, 14, 14, 1528913964.619, 53, 0, 1024, 1024, 1024, 1024, 0, 6, 3922, 3941, 3918, 3952, 3952, 3926, 0, 1, 13700, -90.000, 0.000, -140.300, 0.000, 0.000, -2.900, 0.0, , , , , , 97, , , 25, 25, 25
36.9937704, -119.1734743, 24.200, 11:19:24.719, 18, 0.00, 0.11, 97, 2.300, 0.000, -139.900, 702, 100, 94, 25, 23617, -19179, 5270, 5434, 14, 14, 1528913964.719, 54, 0, 1024, 1024, 1024, 1024, 0, 6, 3922, 3941, 3918, 3952, 3952, 3926, 0, 1, 13800, -90.000, 0.000, -140.300, 0.000, 0.000, -2.900, 0.0, , , , , , 97, , , 25, 25, 25
36.9937704, -119.1734743, 24.500, 11:19:24.819, 18, 0.00, 0.11, 97, 2.200, 0.000, -139.900, 702, 100, 94, 25, 23617, -19179, 5270, 5434, 14, 14, 1528913964.819, 56, 0, 1024, 1024, 1024, 1024, 0, 6, 3922, 3941, 3918, 3952, 3952, 3926, 0, 1, 13900, -90.000, 0.000, -140.300, 0.000, 0.000, -2.900, 0.0, , , , , , 97, , , 25, 25, 25
36.9937705, -119.1734742, 25.100, 11:19:24.919, 18, 0.00, 0.12, 97, 1.900, -0.200, -139.900, 702, 100, 94, 25, 23617, -19179, 5270, 5434, 14, 14, 1528913964.919, 47, 0, 1024, 1024, 1024, 1024, 0, 6, 3922, 3941, 3918, 3952, 3952, 3926, 0, 1, 14000, -89.900, 0.000, -140.300, 0.000, 0.000, -3.000, 0.0, , , , , , 97, , , 25, 25, 25
36.9937705, -119.1734743, 25.400, 11:19:25.019, 18, 0.00, 0.12, 97, 1.800, -0.300, -139.900, 702, 100, 94, 25, 23595, -19514, 5216, 5434, 14, 14, 1528913965.019, 33, 0, 1024, 1024, 1024, 1024, 0, 6, 3923, 3939, 3911, 3945, 3942, 3938, 0, 1, 14100, -89.900, 0.000, -140.300, 0.000, 0.000, -2.900, 0.0, , , , , , 97, , , 25, 25, 25
36.9937705, -119.1734743, 25.700, 11:19:25.118, 18, 0.00, 0.12, 97, 1.700, -0.300, -140.000, 702, 100, 96, 25, 23595, -19514, 5216, 5434, 14, 14, 1528913965.118, 26, 0, 1024, 1024, 1024, 1024, 0, 6, 3923, 3939, 3911, 3945, 3942, 3938, 0, 1, 14200, -89.900, 0.000, -140.300, 0.000, 0.000, -2.900, 0.0, , , , , , 97, , , 25, 25, 25
36.9937705, -119.1734742, 26.000, 11:19:25.219, 18, 0.00, 0.13, 97, 1.500, -0.400, -139.900, 702, 100, 96, 25, 23595, -19514, 5216, 5434, 14, 14, 1528913965.219, 39, 0, 1024, 1024, 1024, 1024, 0, 6, 3923, 3939, 3911, 3945, 3942, 3938, 0, 1, 14300, -90.000, 0.000, -140.300, 0.000, 0.000, -2.800, 0.0, , , , , , 97, , , 25, 25, 25
36.9937706, -119.1734742, 26.300, 11:19:25.319, 18, 0.00, 0.13, 97, 1.500, -0.400, -140.000, 702, 100, 96, 25, 23595, -19514, 5216, 5434, 14, 14, 1528913965.319, 40, 0, 1024, 1024, 1024, 1024, 0, 6, 3923, 3939, 3911, 3945, 3942, 3938, 0, 1, 14400, -90.000, 0.000, -140.300, 0.000, 0.000, -2.900, 0.0, , , , , , 97, , , 25, 25, 25
36.9937706, -119.1734742, 26.600, 11:19:25.418, 18, 0.00, 0.13, 97, 1.700, -0.400, -140.000, 702, 100, 96, 25, 23595, -19514, 5216, 5434, 14, 14, 1528913965.418, 17, 0, 1024, 1024, 1024, 1024, 0, 6, 3923, 3939, 3911, 3945, 3942, 3938, 0, 1, 14499, -89.900, 0.000, -140.300, 0.000, 0.000, -2.900, 0.0, , , , , , 97, , , 25, 25, 25
36.9937705, -119.1734742, 26.900, 11:19:25.519, 18, 0.00, 0.13, 97, 1.900, -0.300, -139.900, 702, 100, 95, 25, 23595, -19514, 5216, 5434, 14, 14, 1528913965.519, 30, 0, 1024, 1024, 1024, 1024, 0, 6, 3923, 3939, 3911, 3945, 3942, 3938, 0, 1, 14600, -89.900, 0.000, -140.300, 0.000, 0.000, -3.000, 0.0, , , , , , 97, , , 25, 25, 25
36.9937706, -119.1734742, 27.200, 11:19:25.618, 18, 0.00, 0.13, 97, 2.000, -0.200, -139.900, 702, 100, 95, 25, 23595, -19514, 5216, 5434, 14, 14, 1528913965.618, 33, 0, 1024, 1024, 1024, 1024, 0, 6, 3923, 3939, 3911, 3945, 3942, 3938, 0, 1, 14699, -89.900, 0.000, -140.300, 0.000, 0.000, -3.000, 0.0, , , , , , 97, , , 25, 25, 25
36.9937706, -119.1734742, 27.500, 11:19:25.722, 18, 0.00, 0.13, 97, 2.000, -0.100, -140.000, 702, 100, 95, 25, 23595, -19514, 5216, 5434, 14, 14, 1528913965.723, 4, 0, 1024, 1024, 1024, 1024, 0, 6, 3923, 3939, 3911, 3945, 3942, 3938, 0, 1, 14804, -89.900, 0.000, -140.300, 0.000, 0.000, -3.000, 0.0, , , , , , 97, , , 25, 25, 25
36.9937706, -119.1734742, 27.800, 11:19:25.819, 18, 0.00, 0.13, 97, 2.000, 0.000, -140.000, 702, 100, 95, 25, 23595, -19514, 5216, 5434, 14, 14, 1528913965.819, 18, 0, 1024, 1024, 1024, 1024, 0, 6, 3923, 3939, 3911, 3945, 3942, 3938, 0, 1, 14900, -89.900, 0.000, -140.300, 0.000, 0.000, -2.900, 0.0, , , , , , 97, , , 25, 25, 25
36.9937706, -119.1734742, 28.100, 11:19:25.918, 18, 0.00, 0.13, 96, 1.900, 0.000, -140.100, 702, 100, 95, 25, 23575, -19230, 5216, 5434, 14, 14, 1528913965.918, 12, 0, 1024, 1024, 1024, 1024, 0, 6, 3915, 3934, 3907, 3943, 3933, 3933, 0, 1, 14999, -89.900, 0.000, -140.300, 0.000, 0.000, -2.900, 0.0, , , , , , 97, , , 25, 25, 25
36.9937706, -119.1734742, 28.100, 11:19:26.019, 18, 0.00, 0.13, 96, 1.900, 0.000, -140.100, 702, 100, 95, 25, 23575, -19230, 5216, 5434, 14, 14, 1528913966.019, 113, 0, 1024, 1024, 1024, 1024, 0, 6, 3915, 3934, 3907, 3943, 3933, 3933, 0, 1, 15100, -89.900, 0.000, -140.300, 0.000, 0.000, -2.900, 0.0, , , , , , 97, , , 25, 25, 25
36.9937706, -119.1734742, 28.400, 11:19:26.118, 18, 0.00, 0.14, 96, 1.900, 0.000, -140.100, 702, 100, 98, 25, 23575, -19230, 5216, 5434, 14, 14, 1528913966.118, 79, 0, 1024, 1024, 1024, 1024, 0, 6, 3915, 3934, 3907, 3943, 3933, 3933, 0, 1, 15199, -89.900, 0.000, -140.300, 0.000, 0.000, -2.900, 0.0, , , , , , 97, , , 25, 25, 25
36.9937706, -119.1734742, 28.700, 11:19:26.219, 18, 0.00, 0.14, 96, 1.700, -0.200, -140.100, 702, 100, 98, 25, 23575, -19230, 5216, 5434, 14, 14, 1528913966.219, 83, 0, 1024, 1024, 1024, 1024, 0, 6, 3915, 3934, 3907, 3943, 3933, 3933, 0, 1, 15300, -90.000, 0.000, -140.300, 0.000, 0.000, -2.900, 0.0, , , , , , 97, , , 25, 25, 25
36.9937706, -119.1734742, 29.000, 11:19:26.319, 18, 0.00, 0.14, 96, 1.600, -0.200, -140.100, 702, 100, 98, 25, 23575, -19230, 5216, 5434, 14, 14, 1528913966.319, 84, 0, 1024, 1024, 1024, 1024, 0, 6, 3915, 3934, 3907, 3943, 3933, 3933, 0, 1, 15400, -90.000, 0.000, -140.300, 0.000, 0.000, -3.000, 0.0, , , , , , 97, , , 25, 25, 25
36.9937706, -119.1734742, 29.300, 11:19:26.418, 18, 0.00, 0.14, 96, 1.600, -0.300, -140.000, 702, 100, 98, 25, 23575, -19230, 5216, 5434, 14, 14, 1528913966.418, 75, 0, 1024, 1024, 1024, 1024, 0, 6, 3915, 3934, 3907, 3943, 3933, 3933, 0, 1, 15499, -90.000, 0.000, -140.300, 0.000, 0.000, -3.000, 0.0, , , , , , 97, , , 25, 25, 25
36.9937706, -119.1734741, 29.600, 11:19:26.519, 18, 0.00, 0.14, 96, 1.900, -0.400, -140.000, 702, 100, 98, 25, 23575, -19230, 5216, 5434, 14, 14, 1528913966.519, 80, 0, 1024, 1024, 1024, 1024, 0, 6, 3915, 3934, 3907, 3943, 3933, 3933, 0, 1, 15600, -90.000, 0.000, -140.300, 0.000, 0.000, -3.000, 0.0, , , , , , 97, , , 25, 25, 25
36.9937706, -119.1734741, 29.900, 11:19:26.618, 18, 0.00, 0.14, 96, 2.400, -0.400, -140.000, 702, 100, 98, 25, 23575, -19230, 5216, 5434, 14, 14, 1528913966.618, 75, 0, 1024, 1024, 1024, 1024, 0, 6, 3915, 3934, 3907, 3943, 3933, 3933, 0, 1, 15699, -89.900, 0.000, -140.300, 0.000, 0.000, -3.000, 0.0, , , , , , 97, , , 25, 25, 25
36.9937706, -119.1734740, 30.200, 11:19:26.718, 18, 0.00, 0.14, 96, 2.700, -0.200, -140.000, 702, 100, 98, 25, 23575, -19230, 5216, 5434, 14, 14, 1528913966.719, 66, 0, 1024, 1024, 1024, 1024, 0, 6, 3915, 3934, 3907, 3943, 3933, 3933, 0, 1, 15800, -89.900, 0.000, -140.300, 0.000, 0.000, -2.900, 0.0, , , , , , 97, , , 25, 25, 25
36.9937705, -119.1734740, 30.500, 11:19:26.818, 18, 0.00, 0.14, 96, 2.700, 0.000, -140.000, 702, 100, 98, 25, 23575, -19230, 5216, 5434, 14, 14, 1528913966.819, 53, 0, 1024, 1024, 1024, 1024, 0, 6, 3915, 3934, 3907, 3943, 3933, 3933, 0, 1, 15900, -89.900, 0.000, -140.300, 0.000, 0.000, -2.900, 0.0, , , , , , 97, , , 25, 25, 25
36.9937705, -119.1734740, 30.800, 11:19:26.918, 18, 0.00, 0.14, 96, 2.600, 0.000, -139.900, 702, 100, 98, 25, 23575, -19230, 5216, 5434, 14, 14, 1528913966.918, 55, 0, 1024, 1024, 1024, 1024, 0, 6, 3915, 3934, 3907, 3943, 3933, 3933, 0, 1, 15999, -89.900, 0.000, -140.300, 0.000, 0.000, -2.900, 0.0, , , , , , 97, , , 25, 25, 25
36.9937706, -119.1734739, 31.100, 11:19:27.018, 18, 0.00, 0.14, 96, 2.500, 0.000, -139.800, 702, 100, 98, 25, 23541, -19567, 5216, 5434, 14, 14, 1528913967.019, 58, 0, 1024, 1024, 1024, 1024, 0, 6, 3917, 3924, 3903, 3936, 3930, 3925, 0, 1, 16100, -89.900, 0.000, -140.300, 0.000, 0.000, -2.900, 0.0, , , , , , 97, , , 25, 25, 25
36.9937706, -119.1734739, 31.500, 11:19:27.118, 18, 0.00, 0.14, 96, 2.400, 0.000, -139.700, 702, 100, 100, 25, 23541, -19567, 5216, 5434, 14, 14, 1528913967.118, 47, 0, 1024, 1024, 1024, 1024, 0, 6, 3917, 3924, 3903, 3936, 3930, 3925, 0, 1, 16199, -90.000, 0.000, -140.300, 0.000, 0.000, -3.000, 0.0, , , , , , 97, , , 25, 25, 25
36.9937707, -119.1734739, 32.100, 11:19:27.218, 18, 0.00, 0.15, 96, 2.100, -0.500, -139.700, 702, 100, 100, 25, 23541, -19567, 5216, 5434, 14, 14, 1528913967.218, 28, 0, 1024, 1024, 1024, 1024, 0, 6, 3917, 3924, 3903, 3936, 3930, 3925, 0, 1, 16299, -90.000, 0.000, -140.300, 0.000, 0.000, -2.900, 0.0, , , , , , 97, , , 25, 25, 25
36.9937707, -119.1734739, 32.400, 11:19:27.318, 18, 0.00, 0.15, 96, 2.200, -0.600, -139.700, 702, 100, 100, 25, 23541, -19567, 5216, 5434, 14, 14, 1528913967.319, 46, 0, 1024, 1024, 1024, 1024, 0, 6, 3917, 3924, 3903, 3936, 3930, 3925, 0, 1, 16400, -90.000, 0.000, -140.300, 0.000, 0.000, -2.900, 0.0, , , , , , 97, , , 25, 25, 25
36.9937707, -119.1734738, 32.700, 11:19:27.418, 18, 0.00, 0.16, 96, 2.400, -0.600, -139.700, 702, 100, 100, 25, 23541, -19567, 5216, 5434, 14, 14, 1528913967.419, 48, 0, 1024, 1024, 1024, 1024, 0, 6, 3917, 3924, 3903, 3936, 3930, 3925, 0, 1, 16500, -90.000, 0.000, -140.300, 0.000, 0.000, -2.800, 0.0, , , , , , 97, , , 25, 25, 25
36.9937707, -119.1734738, 32.900, 11:19:27.518, 18, 0.00, 0.16, 96, 2.400, -0.600, -139.800, 702, 100, 99, 25, 23541, -19567, 5216, 5434, 14, 14, 1528913967.519, 37, 0, 1024, 1024, 1024, 1024, 0, 6, 3917, 3924, 3903, 3936, 3930, 3925, 0, 1, 16600, -90.000, 0.000, -140.300, 0.000, 0.000, -2.800, 0.0, , , , , , 97, , , 25, 25, 25
36.9937707, -119.1734738, 33.200, 11:19:27.618, 18, 0.00, 0.16, 96, 2.400, -0.600, -139.800, 702, 100, 99, 25, 23541, -19567, 5216, 5434, 14, 14, 1528913967.618, 42, 0, 1024, 1024, 1024, 1024, 0, 6, 3917, 3924, 3903, 3936, 3930, 3925, 0, 1, 16699, -90.000, 0.000, -140.300, 0.000, 0.000, -2.900, 0.0, , , , , , 97, , , 25, 25, 25
36.9937707, -119.1734738, 33.500, 11:19:27.718, 18, 0.00, 0.16, 96, 2.300, -0.600, -140.000, 702, 100, 99, 25, 23541, -19567, 5216, 5434, 14, 14, 1528913967.719, 43, 0, 1024, 1024, 1024, 1024, 0, 6, 3917, 3924, 3903, 3936, 3930, 3925, 0, 1, 16800, -90.000, 0.000, -140.300, 0.000, 0.000, -2.800, 0.0, , , , , , 97, , , 25, 25, 25
36.9937707, -119.1734738, 33.800, 11:19:27.818, 18, 0.00, 0.16, 96, 2.300, -0.500, -140.100, 702, 100, 99, 25, 23541, -19567, 5216, 5434, 14, 14, 1528913967.819, 13, 0, 1024, 1024, 1024, 1024, 0, 6, 3917, 3924, 3903, 3936, 3930, 3925, 0, 1, 16900, -90.000, 0.000, -140.300, 0.000, 0.000, -2.900, 0.0, , , , , , 97, , , 25, 25, 25
36.9937707, -119.1734737, 34.100, 11:19:27.918, 18, 0.00, 0.16, 96, 2.400, -0.500, -140.100, 702, 100, 99, 26, 23562, -18827, 5216, 5434, 14, 14, 1528913967.919, 17, 0, 1024, 1024, 1024, 1024, 0, 6, 3921, 3926, 3906, 3937, 3934, 3925, 0, 1, 17000, -90.000, 0.000, -140.300, 0.000, 0.000, -2.900, 0.0, , , , , , 97, , , 25, 25, 25
36.9937707, -119.1734737, 34.400, 11:19:28.018, 18, 0.00, 0.16, 96, 2.400, -0.300, -140.100, 702, 100, 99, 26, 23562, -18827, 5216, 5434, 14, 14, 1528913968.018, 22, 0, 1024, 1024, 1024, 1024, 0, 6, 3921, 3926, 3906, 3937, 3934, 3925, 0, 1, 17100, -89.900, 0.000, -140.300, 0.000, 0.000, -2.900, 0.0, , , , , , 97, , , 25, 25, 25
36.9937707, -119.1734737, 34.700, 11:19:28.118, 18, 0.00, 0.16, 96, 2.400, -0.200, -140.000, 702, 100, 99, 26, 23562, -18827, 5216, 5434, 14, 14, 1528913968.118, 8, 0, 1024, 1024, 1024, 1024, 0, 6, 3921, 3926, 3906, 3937, 3934, 3925, 0, 1, 17199, -89.900, 0.000, -140.300, 0.000, 0.000, -2.900, 0.0, , , , , , 97, , , 25, 25, 25
36.9937706, -119.1734737, 35.000, 11:19:28.218, 18, 0.00, 0.16, 96, 2.400, -0.200, -139.900, 702, 100, 99, 26, 23562, -18827, 5216, 5434, 14, 14, 1528913968.219, 20, 0, 1024, 1024, 1024, 1024, 0, 6, 3921, 3926, 3906, 3937, 3934, 3925, 0, 1, 17300, -89.900, 0.000, -140.300, 0.000, 0.000, -2.900, 0.0, , , , , , 97, , , 25, 25, 25
36.9937706, -119.1734737, 35.000, 11:19:28.318, 18, 0.00, 0.16, 96, 2.400, -0.200, -139.900, 702, 100, 99, 26, 23562, -18827, 5216, 5434, 14, 14, 1528913968.318, 120, 0, 1024, 1024, 1024, 1024, 0, 6, 3921, 3926, 3906, 3937, 3934, 3925, 0, 1, 17399, -89.900, 0.000, -140.300, 0.000, 0.000, -2.900, 0.0, , , , , , 97, , , 25, 25, 25
36.9937706, -119.1734737, 35.000, 11:19:28.418, 18, 0.00, 0.16, 96, 2.400, -0.200, -139.900, 702, 100, 99, 26, 23562, -18827, 5216, 5434, 14, 14, 1528913968.419, 220, 0, 1024, 1024, 1024, 1024, 0, 6, 3921, 3926, 3906, 3937, 3934, 3925, 0, 1, 17500, -89.900, 0.000, -140.300, 0.000, 0.000, -2.900, 0.0, , , , , , 97, , , 25, 25, 25
36.9937706, -119.1734736, 35.600, 11:19:28.518, 18, 0.00, 0.16, 96, 2.700, -0.200, -139.600, 702, 100, 99, 26, 23562, -18827, 5216, 5434, 14, 14, 1528913968.519, 78, 0, 1024, 1024, 1024, 1024, 0, 6, 3921, 3926, 3906, 3937, 3934, 3925, 0, 1, 17600, -89.900, 0.000, -140.300, 0.000, 0.000, -2.900, 0.0, , , , , , 97, , , 25, 25, 25
36.9937705, -119.1734736, 35.900, 11:19:28.618, 18, 0.00, 0.15, 96, 2.800, -0.200, -139.400, 702, 100, 96, 26, 23562, -18827, 5216, 5434, 14, 14, 1528913968.618, 93, 0, 1024, 1024, 1024, 1024, 0, 6, 3921, 3926, 3906, 3937, 3934, 3925, 0, 1, 17699, -90.000, 0.000, -140.300, 0.000, 0.000, -2.900, 0.0, , , , , , 97, , , 25, 25, 25
36.9937705, -119.1734736, 36.200, 11:19:28.718, 18, 0.00, 0.15, 96, 2.700, -0.200, -139.400, 702, 100, 96, 26, 23562, -18827, 5216, 5434, 14, 14, 1528913968.719, 71, 0, 1024, 1024, 1024, 1024, 0, 6, 3921, 3926, 3906, 3937, 3934, 3925, 0, 1, 17800, -89.900, 0.000, -140.300, 0.000, 0.000, -2.900, 0.0, , , , , , 97, , , 25, 25, 25
36.9937705, -119.1734736, 36.500, 11:19:28.818, 18, 0.00, 0.15, 96, 2.400, -0.200, -139.500, 702, 100, 96, 26, 23562, -18827, 5216, 5434, 14, 14, 1528913968.818, 73, 0, 1024, 1024, 1024, 1024, 0, 6, 3921, 3926, 3906, 3937, 3934, 3925, 0, 1, 17899, -89.900, 0.000, -140.300, 0.000, 0.000, -3.000, 0.0, , , , , , 97, , , 25, 25, 25
36.9937705, -119.1734736, 36.500, 11:19:28.918, 18, 0.00, 0.15, 96, 2.400, -0.200, -139.500, 702, 100, 96, 26, 23562, -18827, 5216, 5434, 14, 14, 1528913968.918, 173, 0, 1024, 1024, 1024, 1024, 0, 6, 3921, 3926, 3906, 3937, 3934, 3925, 0, 1, 18000, -90.000, 0.000, -140.300, 0.000, 0.000, -3.000, 0.0, , , , , , 97, , , 25, 25, 25
36.9937705, -119.1734736, 37.100, 11:19:29.018, 18, 0.00, 0.15, 96, 2.300, -0.400, -139.700, 702, 100, 96, 26, 23495, -19228, 5216, 5434, 14, 14, 1528913969.019, 83, 0, 1024, 1024, 1024, 1024, 0, 6, 3921, 3926, 3906, 3937, 3934, 3925, 0, 1, 18100, -90.000, 0.000, -140.300, 0.000, 0.000, -3.000, 0.0, , , , , , 97, , , 25, 25, 25
36.9937705, -119.1734736, 37.400, 11:19:29.118, 18, 0.00, 0.15, 96, 2.400, -0.400, -139.800, 702, 100, 93, 26, 23495, -19228, 5216, 5434, 14, 14, 1528913969.118, 85, 0, 1024, 1024, 1024, 1024, 0, 6, 3921, 3926, 3906, 3937, 3934, 3925, 0, 1, 18199, -90.000, 0.000, -140.300, 0.000, 0.000, -2.900, 0.0, , , , , , 97, , , 25, 25, 25
36.9937704, -119.1734736, 37.700, 11:19:29.218, 18, 0.00, 0.15, 96, 2.400, -0.400, -139.800, 702, 100, 93, 26, 23495, -19228, 5216, 5434, 14, 14, 1528913969.218, 77, 0, 1024, 1024, 1024, 1024, 0, 6, 3921, 3926, 3906, 3937, 3934, 3925, 0, 1, 18299, -90.000, 0.000, -140.300, 0.000, 0.000, -2.900, 0.0, , , , , , 97, , , 25, 25, 25
36.9937704, -119.1734736, 38.000, 11:19:29.318, 18, 0.00, 0.15, 96, 2.500, -0.400, -139.900, 702, 100, 93, 26, 23495, -19228, 5216, 5434, 14, 14, 1528913969.319, 60, 0, 1024, 1024, 1024, 1024, 0, 6, 3921, 3926, 3906, 3937, 3934, 3925, 0, 1, 18400, -90.000, 0.000, -140.300, 0.000, 0.000, -3.000, 0.0, , , , , , 97, , , 25, 25, 25
36.9937704, -119.1734736, 38.300, 11:19:29.418, 18, 0.00, 0.14, 96, 2.600, -0.100, -139.900, 702, 100, 93, 26, 23495, -19228, 5216, 5434, 14, 14, 1528913969.418, 74, 0, 1024, 1024, 1024, 1024, 0, 6, 3921, 3926, 3906, 3937, 3934, 3925, 0, 1, 18499, -89.900, 0.000, -140.300, 0.000, 0.000, -3.000, 0.0, , , , , , 97, , , 25, 25, 25
36.9937704, -119.1734737, 38.600, 11:19:29.518, 18, 0.00, 0.14, 96, 2.600, 0.000, -139.800, 702, 100, 93, 26, 23495, -19228, 5216, 5434, 14, 14, 1528913969.519, 65, 0, 1024, 1024, 1024, 1024, 0, 6, 3911, 3913, 3903, 3932, 3928, 3913, 0, 1, 18600, -89.900, 0.000, -140.300, 0.000, 0.000, -2.900, 0.0, , , , , , 97, , , 25, 25, 25
36.9937703, -119.1734737, 39.200, 11:19:29.618, 18, 0.00, 0.13, 96, 2.800, 0.300, -139.700, 702, 100, 93, 26, 23495, -19228, 5216, 5434, 14, 14, 1528913969.618, 53, 0, 1024, 1024, 1024, 1024, 0, 6, 3911, 3913, 3903, 3932, 3928, 3913, 0, 1, 18699, -89.900, 0.000, -140.300, 0.000, 0.000, -2.900, 0.0, , , , , , 97, , , 25, 25, 25
36.9937703, -119.1734737, 39.500, 11:19:29.718, 18, 0.00, 0.13, 96, 2.600, 0.400, -139.700, 702, 100, 93, 26, 23495, -19228, 5216, 5434, 14, 14, 1528913969.719, 44, 0, 1024, 1024, 1024, 1024, 0, 6, 3911, 3913, 3903, 3932, 3928, 3913, 0, 1, 18800, -89.900, 0.000, -140.300, 0.000, 0.000, -2.900, 0.0, , , , , , 97, , , 25, 25, 25
36.9937703, -119.1734738, 39.800, 11:19:29.818, 18, 0.00, 0.13, 96, 2.500, 0.200, -139.800, 702, 100, 93, 26, 23495, -19228, 5216, 5434, 14, 14, 1528913969.818, 47, 0, 1024, 1024, 1024, 1024, 0, 6, 3911, 3913, 3903, 3932, 3928, 3913, 0, 1, 18900, -89.900, 0.000, -140.300, 0.000, 0.000, -2.900, 0.0, , , , , , 97, , , 25, 25, 25
36.9937703, -119.1734738, 40.100, 11:19:29.918, 18, 0.00, 0.13, 96, 2.300, 0.000, -139.800, 702, 100, 93, 26, 23495, -19228, 5216, 5434, 14, 14, 1528913969.918, 47, 0, 1024, 1024, 1024, 1024, 0, 6, 3911, 3913, 3903, 3932, 3928, 3913, 0, 1, 19000, -89.900, 0.000, -140.300, 0.000, 0.000, -2.900, 0.0, , , , , , 97, , , 25, 25, 25
36.9937703, -119.1734739, 40.400, 11:19:30.018, 18, 0.00, 0.12, 96, 2.000, 0.000, -139.900, 702, 100, 97, 26, 23495, -19228, 5216, 5434, 14, 14, 1528913970.018, 41, 0, 1024, 1024, 1024, 1024, 0, 6, 3911, 3913, 3903, 3932, 3928, 3913, 0, 1, 19100, -89.900, 0.000, -140.300, 0.000, 0.000, -2.900, 0.0, , , , , , 97, , , 25, 25, 25
36.9937704, -119.1734740, 40.700, 11:19:30.118, 18, 0.00, 0.12, 96, 1.800, -0.100, -139.900, 702, 100, 97, 26, 23495, -19228, 5216, 5434, 14, 14, 1528913970.118, 35, 0, 1024, 1024, 1024, 1024, 0, 6, 3911, 3913, 3903, 3932, 3928, 3913, 0, 1, 19200, -89.900, 0.000, -140.300, 0.000, 0.000, -2.900, 0.0, , , , , , 97, , , 25, 25, 25
36.9937704, -119.1734740, 41.000, 11:19:30.217, 18, 0.00, 0.12, 96, 1.500, -0.100, -139.900, 702, 100, 97, 26, 23495, -19228, 5216, 5434, 14, 14, 1528913970.217, 3, 0, 1024, 1024, 1024, 1024, 0, 6, 3911, 3913, 3903, 3932, 3928, 3913, 0, 1, 19299, -90.000, 0.000, -140.300, 0.000, 0.000, -2.900, 0.0, , , , , , 97, , , 25, 25, 25
36.9937704, -119.1734741, 41.300, 11:19:30.318, 18, 0.00, 0.12, 96, 1.500, -0.100, -139.900, 702, 100, 97, 26, 23495, -19228, 5216, 5434, 14, 14, 1528913970.318, 17, 0, 1024, 1024, 1024, 1024, 0, 6, 3911, 3913, 3903, 3932, 3928, 3913, 0, 1, 19399, -89.900, 0.000, -140.300, 0.000, 0.000, -2.900, 0.0, , , , , , 97, , , 25, 25, 25
36.9937704, -119.1734741, 41.600, 11:19:30.418, 18, 0.00, 0.12, 96, 1.700, -0.100, -139.800, 702, 100, 97, 26, 23491, -19100, 5216, 5434, 14, 14, 1528913970.418, 23, 0, 1024, 1024, 1024, 1024, 0, 6, 3909, 3918, 3907, 3938, 3927, 3917, 0, 1, 19500, -89.900, 0.000, -140.300, 0.000, 0.000, -2.900, 0.0, , , , , , 97, , , 25, 25, 25
36.9937704, -119.1734741, 41.900, 11:19:30.518, 18, 0.00, 0.12, 96, 2.200, -0.100, -139.800, 702, 100, 99, 26, 23491, -19100, 5216, 5434, 14, 14, 1528913970.518, 16, 0, 1024, 1024, 1024, 1024, 0, 6, 3909, 3918, 3907, 3938, 3927, 3917, 0, 1, 19600, -90.000, 0.000, -140.300, 0.000, 0.000, -2.900, 0.0, , , , , , 97, , , 25, 25, 25
36.9937704, -119.1734741, 42.200, 11:19:30.618, 18, 0.00, 0.12, 96, 2.500, -0.200, -139.800, 702, 100, 99, 26, 23491, -19100, 5216, 5434, 14, 14, 1528913970.618, 7, 0, 1024, 1024, 1024, 1024, 0, 6, 3909, 3918, 3907, 3938, 3927, 3917, 0, 1, 19700, -90.000, 0.000, -140.300, 0.000, 0.000, -2.900, 0.0, , , , , , 97, , , 25, 25, 25
36.9937704, -119.1734741, 42.200, 11:19:30.718, 18, 0.00, 0.12, 96, 2.500, -0.200, -139.800, 702, 100, 99, 26, 23491, -19100, 5216, 5434, 14, 14, 1528913970.719, 107, 0, 1024, 1024, 1024, 1024, 0, 6, 3909, 3918, 3907, 3938, 3927, 3917, 0, 1, 19800, -90.000, 0.000, -140.300, 0.000, 0.000, -2.900, 0.0, , , , , , 97, , , 25, 25, 25
36.9937704, -119.1734741, 42.500, 11:19:30.818, 18, 0.00, 0.11, 96, 2.700, -0.200, -139.800, 702, 100, 99, 26, 23491, -19100, 5216, 5434, 14, 14, 1528913970.818, 89, 0, 1024, 1024, 1024, 1024, 0, 6, 3909, 3918, 3907, 3938, 3927, 3917, 0, 1, 19900, -89.900, 0.000, -140.300, 0.000, 0.000, -3.000, 0.0, , , , , , 97, , , 25, 25, 25
36.9937703, -119.1734741, 42.800, 11:19:30.918, 18, 0.00, 0.11, 96, 2.800, -0.100, -139.800, 702, 100, 99, 26, 23491, -19100, 5216, 5434, 14, 14, 1528913970.918, 80, 0, 1024, 1024, 1024, 1024, 0, 6, 3909, 3918, 3907, 3938, 3927, 3917, 0, 1, 20000, -89.900, 0.000, -140.300, 0.000, 0.000, -2.900, 0.0, , , , , , 97, , , 25, 25, 25
36.9937703, -119.1734741, 43.100, 11:19:31.018, 18, 0.00, 0.11, 96, 2.700, 0.000, -139.900, 702, 100, 99, 26, 23491, -19100, 5216, 5434, 14, 14, 1528913971.018, 83, 0, 1024, 1024, 1024, 1024, 0, 6, 3909, 3918, 3907, 3938, 3927, 3917, 0, 1, 20100, -89.900, 0.000, -140.300, 0.000, 0.000, -2.900, 0.0, , , , , , 97, , , 25, 25, 25
36.9937703, -119.1734741, 43.400, 11:19:31.118, 18, 0.00, 0.11, 96, 2.700, 0.000, -140.000, 702, 100, 99, 26, 23491, -19100, 5216, 5434, 14, 14, 1528913971.118, 87, 0, 1024, 1024, 1024, 1024, 0, 6, 3909, 3918, 3907, 3938, 3927, 3917, 0, 1, 20200, -89.900, 0.000, -140.300, 0.000, 0.000, -2.900, 0.0, , , , , , 97, , , 25, 25, 25
36.9937702, -119.1734741, 43.700, 11:19:31.218, 18, 0.00, 0.10, 96, 2.900, 0.100, -140.000, 702, 100, 99, 26, 23491, -19100, 5216, 5434, 14, 14, 1528913971.218, 81, 0, 1024, 1024, 1024, 1024, 0, 6, 3909, 3918, 3907, 3938, 3927, 3917, 0, 1, 20299, -89.900, 0.000, -140.300, 0.000, 0.000, -2.900, 0.0, , , , , , 97, , , 25, 25, 25
36.9937702, -119.1734741, 44.000, 11:19:31.318, 18, 0.00, 0.10, 96, 3.000, 0.300, -140.000, 702, 100, 99, 26, 23491, -19100, 5216, 5434, 14, 14, 1528913971.318, 64, 0, 1024, 1024, 1024, 1024, 0, 6, 3909, 3918, 3907, 3938, 3927, 3917, 0, 1, 20400, -89.900, 0.000, -140.300, 0.000, 0.000, -2.900, 0.0, , , , , , 97, , , 25, 25, 25
36.9937702, -119.1734741, 44.300, 11:19:31.418, 18, 0.00, 0.10, 96, 3.000, 0.400, -139.900, 702, 100, 99, 26, 23491, -19100, 5216, 5434, 14, 14, 1528913971.418, 75, 0, 1024, 1024, 1024, 1024, 0, 6, 3909, 3918, 3907, 3938, 3927, 3917, 0, 1, 20499, -89.900, 0.000, -140.300, 0.000, 0.000, -2.900, 0.0, , , , , , 97, , , 25, 25, 25
36.9937702, -119.1734740, 44.600, 11:19:31.518, 18, 0.00, 0.10, 96, 3.000, 0.300, -139.800, 702, 100, 99, 26, 23418, -19343, 5216, 5434, 14, 14, 1528913971.518, 76, 0, 1024, 1024, 1024, 1024, 0, 6, 3891, 3903, 3890, 3909, 3912, 3907, 0, 1, 20599, -89.900, 0.000, -140.300, 0.000, 0.000, -2.900, 0.0, , , , , , 97, , , 25, 25, 25
36.9937702, -119.1734740, 44.900, 11:19:31.618, 18, 0.00, 0.10, 96, 3.100, 0.200, -139.800, 702, 100, 99, 26, 23418, -19343, 5216, 5434, 14, 14, 1528913971.618, 79, 0, 1024, 1024, 1024, 1024, 0, 6, 3891, 3903, 3890, 3909, 3912, 3907, 0, 1, 20700, -89.900, 0.000, -140.300, 0.000, 0.000, -2.900, 0.0, , , , , , 97, , , 25, 25, 25
