latitude,longitude,altitude(feet),ascent(feet),speed(mph),distance(feet),time(millisecond),datetime(utc),satellites,gpslevel,voltage(v),max_altitude(feet),max_ascent(feet),max_speed(mph),max_distance(feet), xSpeed(mph), ySpeed(mph), zSpeed(mph), compass_heading(degrees), pitch(degrees), roll(degrees),isPhoto,isVideo,rc_elevator,rc_aileron,rc_throttle,rc_rudder,gimbal_heading(degrees),gimbal_pitch(degrees),battery_percent,voltageCell1,voltageCell2,voltageCell3,voltageCell4,voltageCell5,voltageCell6,current(A),battery_temperature(f),flycStateRaw,flycState,message
36.9937702,-119.1734756,4821.7622792964,0,0,0,3020,2018-06-13 18:19:14,10,0,25.642,4821.7622792964,0,0,0,0,0,0,219.8, 1.2, 0.3,1,0,1024,1024,1024,1024,219.7,-89.9,97,4.291,4.269,4.262,4.267,4.272,4.258,2.923,77,11,AutoTakeoff,DJI_0700.jpg Starting Mission from Lat/Long: 36.99376/-119.17347 Camera: Zenmuse X3 - Overlap: 90/90 - Active Connection: No
36.9937702,-119.1734756,4821.7622792964,0,0,0,3100,2018-06-13 18:19:14,10,0,25.642,4821.7622792964,0,0,0,0,0,0,219.9, 0.7, 0.3,0,0,1024,1024,1024,1024,219.7,-90,97,4.291,4.269,4.262,4.267,4.272,4.258,2.923,77,11,AutoTakeoff,
36.9937703,-119.1734756,4821.7622792964,0,0,0.036484909304,3200,2018-06-13 18:19:14,10,0,25.642,4821.7622792964,0,0,0.036484909304,0,0,0,220, 0.2, 0.3,0,0,1024,1024,1024,1024,219.7,-90,97,4.291,4.269,4.262,4.267,4.272,4.258,2.923,77,11,AutoTakeoff,
36.9937704,-119.1734755,4821.7622792964,0,0,0.078573493328,3400,2018-06-13 18:19:14,10,0,25.642,4821.7622792964,0,0,0.078573493328,0,0,0,220, -0.1, 0,0,0,1024,1024,1024,1024,219.7,-90,97,4.291,4.269,4.262,4.267,4.272,4.258,2.923,77,11,AutoTakeoff,
36.9937705,-119.1734755,4821.7622792964,0,0,0.113267392076,3500,2018-06-13 18:19:14,10,0,25.642,4821.7622792964,0,0,0.113267392076,0,0,0,220, -0.4, 0,0,0,1024,1024,1024,1024,219.7,-90,97,4.291,4.269,4.262,4.267,4.272,4.258,2.923,77,11,AutoTakeoff,
36.9937705,-119.1734754,4822.0903632964,0.328084,0,0.12400426906,3600,2018-06-13 18:19:15,9,0,25.642,4822.0903632964,0.328084,0,0.12400426906,0,0,0,219.8, -0.6, 0.1,0,0,1024,1024,1024,1024,219.7,-90,97,4.291,4.269,4.262,4.267,4.272,4.258,2.923,77,11,AutoTakeoff,
36.9937706,-119.1734753,4822.0903632964,0.328084,0,0.170120412268,3700,2018-06-13 18:19:15,9,0,25.642,4822.0903632964,0.328084,0,0.170120412268,0,0,-0.223694,219.6, -0.8, 0.5,0,0,1024,1024,1024,1024,219.7,-90,97,4.291,4.269,4.262,4.267,4.272,4.258,2.923,77,11,AutoTakeoff,
36.9937706,-119.1734752,4822.4184472964,0.656168,0,0.186775596528,3800,2018-06-13 18:19:15,11,0,25.642,4822.4184472964,0.656168,0,0.186775596528,0,0,0,219.4, -0.6, 0.8,0,0,1024,1024,1024,1024,219.7,-89.9,97,4.291,4.269,4.262,4.267,4.272,4.258,2.923,77,11,AutoTakeoff,
36.9937706,-119.1734752,4822.4184472964,0.656168,0,0.186775596528,3900,2018-06-13 18:19:15,11,0,25.642,4822.4184472964,0.656168,0,0.186775596528,0,0,0,219.2, -0.4, 1,0,0,1024,1024,1024,1024,219.7,-89.9,97,4.291,4.269,4.262,4.267,4.272,4.258,2.923,77,11,AutoTakeoff,
36.9937706,-119.1734752,4822.7465312964,0.984252,0,0.186775596528,4000,2018-06-13 18:19:15,11,0,25.642,4822.7465312964,0.984252,0,0.186775596528,0,0,0,219.1, -0.4, 1,0,0,1024,1024,1024,1024,219.7,-89.9,97,4.291,4.269,4.262,4.267,4.272,4.258,2.923,77,11,AutoTakeoff,
36.9937706,-119.1734752,4822.7465312964,0.984252,0,0.186775596528,4100,2018-06-13 18:19:15,11,0,25.642,4822.7465312964,0.984252,0,0.186775596528,0,0,0,219.1, -0.3, 1,0,0,1024,1024,1024,1024,219.7,-89.9,97,4.291,4.269,4.262,4.267,4.272,4.258,2.923,77,11,AutoTakeoff,
36.9937707,-119.1734753,4823.0746152964,1.312336,0,0.20229003272,4200,2018-06-13 18:19:15,11,0,25.642,4823.0746152964,1.312336,0,0.20229003272,0,0,0,219, -0.1, 0.9,0,0,1024,1024,1024,1024,219.7,-89.9,97,4.291,4.269,4.262,4.267,4.272,4.258,2.923,77,11,AutoTakeoff,
36.9937707,-119.1734754,4823.0746152964,1.312336,0,0.191508536312,4300,2018-06-13 18:19:15,11,0,25.642,4823.0746152964,1.312336,0,0.20229003272,0,0,0,219.1, 0, 0.5,0,0,1024,1024,1024,1024,219.7,-89.9,97,4.291,4.269,4.262,4.267,4.272,4.258,2.923,77,11,AutoTakeoff,
36.9937708,-119.1734755,4823.4026992964,1.64042,0,0.220840558248,4400,2018-06-13 18:19:15,11,0,25.642,4823.4026992964,1.64042,0,0.220840558248,0,0,0,219.1, 0.1, 0.1,0,0,1024,1024,1024,1024,219.7,-89.9,97,4.291,4.269,4.262,4.267,4.272,4.258,2.923,77,11,AutoTakeoff,
36.9937708,-119.1734755,4823.7307832964,1.968504,0,0.220840558248,4500,2018-06-13 18:19:15,13,0,25.642,4823.7307832964,1.968504,0,0.220840558248,0,0,0,219.1, 0, 0.1,0,0,1024,1024,1024,1024,219.7,-89.9,97,4.291,4.269,4.262,4.267,4.272,4.258,2.923,77,11,AutoTakeoff,
36.9937708,-119.1734754,4823.7307832964,1.968504,0,0.226535112236,4600,2018-06-13 18:19:16,13,0,25.642,4823.7307832964,1.968504,0,0.226535112236,0,0,-0.223694,219.2, -0.1, 0.2,0,0,1024,1024,1024,1024,219.7,-90,97,4.291,4.269,4.262,4.267,4.272,4.258,2.923,77,11,AutoTakeoff,
36.9937708,-119.1734754,4824.0588672964,2.296588,0,0.226535112236,4700,2018-06-13 18:19:16,14,0,25.642,4824.0588672964,2.296588,0,0.226535112236,0,0,0,219.3, -0.3, 0.2,0,0,1024,1024,1024,1024,219.7,-90,97,4.291,4.269,4.262,4.267,4.272,4.258,2.923,77,11,AutoTakeoff,
36.9937708,-119.1734754,4824.0588672964,2.296588,0,0.226535112236,4800,2018-06-13 18:19:16,14,0,25.642,4824.0588672964,2.296588,0,0.226535112236,0,0,0,219.4, -0.4, 0.3,0,0,1024,1024,1024,1024,219.7,-89.9,97,4.291,4.269,4.262,4.267,4.272,4.258,2.923,77,11,AutoTakeoff,
36.9937708,-119.1734755,4824.3869512964,2.624672,0,0.220840558248,4900,2018-06-13 18:19:16,14,0,25.642,4824.3869512964,2.624672,0,0.226535112236,0,0,-0.223694,219.5, -0.3, 0.3,0,0,1024,1024,1024,1024,219.7,-89.9,97,4.291,4.269,4.262,4.267,4.272,4.258,2.923,77,11,AutoTakeoff,
36.9937708,-119.1734755,4824.3869512964,2.624672,0,0.220840558248,5000,2018-06-13 18:19:16,14,0,24.354,4824.3869512964,2.624672,0,0.226535112236,0,0,0,219.7, -0.1, 0.3,0,0,1024,1024,1024,1024,219.7,-89.9,97,4.035,4.043,4.038,4.057,4.05,4.046,16.388,77,11,AutoTakeoff,
36.9937707,-119.1734754,4824.7150352964,2.952756,0,0.191508536312,5100,2018-06-13 18:19:16,14,0,24.354,4824.7150352964,2.952756,0,0.226535112236,0,0,0,219.9, 0, 0.4,0,0,1024,1024,1024,1024,219.7,-89.9,97,4.035,4.043,4.038,4.057,4.05,4.046,16.388,77,11,AutoTakeoff,
36.9937707,-119.1734754,4824.7150352964,2.952756,0,0.191508536312,5200,2018-06-13 18:19:16,14,0,24.354,4824.7150352964,2.952756,0,0.226535112236,0,0,0,220, 0, 0.4,0,0,1024,1024,1024,1024,219.7,-89.9,97,4.035,4.043,4.038,4.057,4.05,4.046,16.388,77,14,Waypoint,
36.9937706,-119.1734754,4824.7150352964,2.952756,0,0.157146658572,5300,2018-06-13 18:19:16,13,0,24.354,4824.7150352964,2.952756,0,0.226535112236,0,0,0,220.2, 0, 0.6,0,0,1024,1024,1024,1024,219.7,-89.9,97,4.035,4.043,4.038,4.057,4.05,4.046,16.388,77,14,Waypoint,
36.9937706,-119.1734753,4825.0431192964,3.28084,0,0.170120412268,5400,2018-06-13 18:19:16,13,0,24.354,4825.0431192964,3.28084,0,0.226535112236,0,0,0,220.3, 0.1, 0.9,0,0,1024,1024,1024,1024,219.7,-89.9,97,4.035,4.043,4.038,4.057,4.05,4.046,16.388,77,14,Waypoint,
36.9937706,-119.1734753,4825.0431192964,3.28084,0,0.170120412268,5500,2018-06-13 18:19:16,13,0,24.354,4825.0431192964,3.28084,0,0.226535112236,0,0,0,220.5, 0, 1.1,0,0,1024,1024,1024,1024,219.7,-89.9,97,4.035,4.043,4.038,4.057,4.05,4.046,16.388,77,14,Waypoint,
36.9937705,-119.1734752,4825.3712032964,3.608924,0,0.159897314828,5700,2018-06-13 18:19:17,13,0,24.354,4825.3712032964,3.608924,0,0.226535112236,0,0,0,220.5, 0, 1.1,0,0,1024,1024,1024,1024,219.7,-90,97,4.035,4.043,4.038,4.057,4.05,4.046,16.388,77,14,Waypoint,
36.9937705,-119.1734751,4825.6992872964,3.937008,0,0.182235242052,5800,2018-06-13 18:19:17,12,0,24.354,4825.6992872964,3.937008,0,0.226535112236,0,0,-0.223694,220.5, -0.2, 1.2,0,0,1024,1024,1024,1024,219.7,-89.9,97,4.035,4.043,4.038,4.057,4.05,4.046,16.388,77,14,Waypoint,
36.9937705,-119.1734751,4826.0273712964,4.265092,0,0.182235242052,5900,2018-06-13 18:19:17,12,0,24.354,4826.0273712964,4.265092,0,0.226535112236,0,0,-0.223694,220.4, -0.2, 1.1,0,0,1024,1024,1024,1024,219.7,-90,97,4.035,4.043,4.038,4.057,4.05,4.046,16.388,77,14,Waypoint,
36.9937704,-119.173475,4826.3554552964,4.593176,0,0.189459323648,6010,2018-06-13 18:19:17,12,0,24.178,4826.3554552964,4.593176,0,0.226535112236,0,0,-0.223694,220.4, -0.1, 1.1,0,0,1024,1024,1024,1024,219.7,-89.9,97,4.035,4.043,4.038,4.057,4.05,4.046,16.798,77,14,Waypoint,
36.9937704,-119.173475,4826.3554552964,4.593176,0,0.189459323648,6100,2018-06-13 18:19:17,12,0,24.178,4826.3554552964,4.593176,0,0.226535112236,0,0,-0.223694,220.4, -0.1, 1.1,0,0,1024,1024,1024,1024,219.7,-89.9,97,4.035,4.043,4.038,4.057,4.05,4.046,16.798,77,14,Waypoint,
36.9937704,-119.173475,4826.6835392964,4.92126,0,0.189459323648,6200,2018-06-13 18:19:17,12,0,24.178,4826.6835392964,4.92126,0,0.226535112236,0,0,-0.223694,220.3, 0, 1,0,0,1024,1024,1024,1024,219.7,-89.9,97,4.035,4.043,4.038,4.057,4.05,4.046,16.798,77,14,Waypoint,
36.9937704,-119.1734749,4827.0116232964,5.249344,0,0.216642723468,6300,2018-06-13 18:19:17,12,0,24.178,4827.0116232964,5.249344,0,0.226535112236,0,0,-0.223694,220.3, -0.1, 1,0,0,1024,1024,1024,1024,219.7,-90,97,4.035,4.043,4.038,4.057,4.05,4.046,16.798,77,14,Waypoint,
36.9937704,-119.1734749,4827.3397072964,5.577428,0,0.216642723468,6400,2018-06-13 18:19:17,12,0,24.178,4827.3397072964,5.577428,0,0.226535112236,0,0,-0.447388,220.2, -0.1, 1,0,0,1024,1024,1024,1024,219.7,-90,97,4.035,4.043,4.038,4.057,4.05,4.046,16.798,77,14,Waypoint,
36.9937704,-119.173475,4827.9958752964,6.233596,0,0.189459323648,6500,2018-06-13 18:19:17,12,0,24.178,4827.9958752964,6.233596,0,0.226535112236,0,0,-0.447388,220.2, -0.1, 0.8,0,0,1024,1024,1024,1024,219.7,-90,97,4.035,4.043,4.038,4.057,4.05,4.046,16.798,77,14,Waypoint,
36.9937703,-119.1734749,4829.3082112964,7.545932,0,0.20722113524,6600,2018-06-13 18:19:18,12,0,24.178,4829.3082112964,7.545932,0,0.226535112236,0,0,-0.447388,220.3, -0.1, 0.6,0,0,1024,1024,1024,1024,219.7,-89.9,97,4.035,4.043,4.038,4.057,4.05,4.046,16.798,77,14,Waypoint,
36.9937702,-119.1734748,4829.9643792964,8.2021,0,0.233124351292,6700,2018-06-13 18:19:18,13,0,24.178,4829.9643792964,8.2021,0,0.233124351292,0,0,-0.447388,220.3, 0, 0.7,0,0,1024,1024,1024,1024,219.7,-89.9,97,4.035,4.043,4.038,4.057,4.05,4.046,16.798,77,14,Waypoint,
36.9937701,-119.1734747,4830.9486312964,9.186352,0,0.264790690888,6800,2018-06-13 18:19:18,13,0,24.178,4830.9486312964,9.186352,0,0.264790690888,0,0,-0.671082,220.4, 0, 1,0,0,1024,1024,1024,1024,219.7,-89.9,97,4.035,4.043,4.038,4.057,4.05,4.046,16.798,77,14,Waypoint,
36.9937701,-119.1734747,4831.9328832964,10.170604,0,0.264790690888,6900,2018-06-13 18:19:18,12,0,24.178,4831.9328832964,10.170604,0,0.264790690888,0,0,-0.671082,220.5, 0, 1.4,0,0,1024,1024,1024,1024,219.7,-89.9,97,4.035,4.043,4.038,4.057,4.05,4.046,16.798,77,14,Waypoint,
36.99377,-119.1734748,4832.9171352964,11.154856,0,0.244277894956,7000,2018-06-13 18:19:18,12,0,24.178,4832.9171352964,11.154856,0,0.264790690888,0,0,-0.671082,220.6, 0.1, 1.6,0,0,1024,1024,1024,1024,219.7,-89.9,97,4.022,4.031,4.017,4.038,4.036,4.027,16.798,77,14,Waypoint,
36.9937699,-119.1734748,4833.9013872964,12.139108,0,0.25754101874,7100,2018-06-13 18:19:18,13,0,24.178,4833.9013872964,12.139108,0,0.264790690888,0,0,-0.671082,220.6, 0.5, 1.6,0,0,1024,1024,1024,1024,219.7,-89.9,97,4.022,4.031,4.017,4.038,4.036,4.027,16.798,77,14,Waypoint,
36.9937699,-119.1734748,4834.8856392964,13.12336,0,0.25754101874,7200,2018-06-13 18:19:18,13,0,24.178,4834.8856392964,13.12336,0,0.264790690888,0,0,-0.671082,220.6, 0.6, 1.3,0,0,1024,1024,1024,1024,219.7,-89.9,97,4.022,4.031,4.017,4.038,4.036,4.027,16.798,77,14,Waypoint,
36.9937699,-119.1734748,4836.1979752964,14.435696,0,0.25754101874,7300,2018-06-13 18:19:18,13,0,24.178,4836.1979752964,14.435696,0,0.264790690888,0,0,-0.671082,220.6, 0.7, 1,0,0,1024,1024,1024,1024,219.7,-89.9,97,4.022,4.031,4.017,4.038,4.036,4.027,16.798,77,14,Waypoint,
36.9937699,-119.1734748,4837.1822272964,15.419948,0,0.25754101874,7400,2018-06-13 18:19:18,13,0,24.178,4837.1822272964,15.419948,0,0.264790690888,0,0,-0.671082,220.5, 0.6, 0.7,0,0,1024,1024,1024,1024,219.7,-89.9,97,4.022,4.031,4.017,4.038,4.036,4.027,16.798,77,14,Waypoint,
36.9937699,-119.1734752,4839.4788152964,17.716536,0,0.159897314828,7600,2018-06-13 18:19:19,13,0,24.178,4839.4788152964,17.716536,0,0.264790690888,0,0,-0.671082,220.4, 0.7, 0.6,0,0,1024,1024,1024,1024,219.7,-89.9,97,4.022,4.031,4.017,4.038,4.036,4.027,16.798,77,14,Waypoint,
36.9937699,-119.1734752,4840.4630672964,18.700788,0,0.159897314828,7700,2018-06-13 18:19:19,13,0,24.178,4840.4630672964,18.700788,0,0.264790690888,0,0,-0.671082,220.3, 0.8, 0.4,0,0,1024,1024,1024,1024,219.7,-89.9,97,4.022,4.031,4.017,4.038,4.036,4.027,16.798,77,14,Waypoint,
36.9937698,-119.173475,4841.7754032964,20.013124,0,0.227746726448,7800,2018-06-13 18:19:19,13,0,24.178,4841.7754032964,20.013124,0,0.264790690888,0,0,-0.671082,220.3, 0.6, 0.6,0,0,1024,1024,1024,1024,219.7,-89.9,97,4.022,4.031,4.017,4.038,4.036,4.027,16.798,77,14,Waypoint,
36.9937698,-119.173475,4842.7596552964,20.997376,0,0.227746726448,8000,2018-06-13 18:19:19,12,0,23.882,4842.7596552964,20.997376,0,0.264790690888,0,0,-0.671082,220.3, 0.5, 1,0,0,1024,1024,1024,1024,219.7,-89.9,97,3.93,3.942,3.938,3.975,3.952,3.974,18.87,77,14,Waypoint,
36.9937698,-119.1734751,4843.7439072964,21.981628,0,0.206222447544,8100,2018-06-13 18:19:19,12,0,23.882,4843.7439072964,21.981628,0,0.264790690888,0,0,-0.671082,220.4, 0.5, 1.1,0,0,1024,1024,1024,1024,219.7,-89.9,97,3.93,3.942,3.938,3.975,3.952,3.974,18.87,77,14,Waypoint,
36.9937698,-119.1734751,4845.0562432964,23.293964,0,0.206222447544,8200,2018-06-13 18:19:19,15,0,23.882,4845.0562432964,23.293964,0,0.264790690888,0,0,-0.671082,220.4, 0.6, 1.1,0,0,1024,1024,1024,1024,219.7,-89.9,97,3.93,3.942,3.938,3.975,3.952,3.974,18.87,77,14,Waypoint,
36.9937698,-119.173475,4846.0404952964,24.278216,0,0.227746726448,8300,2018-06-13 18:19:19,15,0,23.882,4846.0404952964,24.278216,0,0.264790690888,0,0,-0.671082,220.3, 0.6, 1.1,0,0,1024,1024,1024,1024,219.7,-89.9,97,3.93,3.942,3.938,3.975,3.952,3.974,18.87,77,14,Waypoint,
36.9937698,-119.1734751,4847.0247472964,25.262468,0,0.206222447544,8400,2018-06-13 18:19:19,14,0,23.882,4847.0247472964,25.262468,0,0.264790690888,0,0,-0.671082,220.3, 0.5, 1.1,0,0,1024,1024,1024,1024,219.7,-89.9,97,3.93,3.942,3.938,3.975,3.952,3.974,18.87,77,14,Waypoint,
36.9937698,-119.1734751,4848.0089992964,26.24672,0,0.206222447544,8500,2018-06-13 18:19:19,14,0,23.882,4848.0089992964,26.24672,0,0.264790690888,0,0,-0.671082,220.3, 0.5, 1.1,0,0,1024,1024,1024,1024,219.7,-89.9,97,3.93,3.942,3.938,3.975,3.952,3.974,18.87,77,14,Waypoint,
36.9937698,-119.1734751,4848.9932512964,27.230972,0,0.206222447544,8600,2018-06-13 18:19:20,15,0,23.882,4848.9932512964,27.230972,0,0.264790690888,0,0,-0.671082,220.3, 0.5, 1,0,0,1024,1024,1024,1024,219.7,-89.9,97,3.93,3.942,3.938,3.975,3.952,3.974,18.87,77,14,Waypoint,
36.9937698,-119.1734751,4850.3055872964,28.543308,0,0.206222447544,8700,2018-06-13 18:19:20,15,0,23.882,4850.3055872964,28.543308,0,0.264790690888,0,0,-0.671082,220.2, 0.5, 0.9,0,0,1024,1024,1024,1024,219.7,-89.9,97,3.93,3.942,3.938,3.975,3.952,3.974,18.87,77,14,Waypoint,
36.9937699,-119.1734751,4851.2898392964,29.52756,0,0.182235242052,8800,2018-06-13 18:19:20,16,0,23.882,4851.2898392964,29.52756,0,0.264790690888,0,0,-0.671082,220.2, 0.5, 0.9,0,0,1024,1024,1024,1024,219.7,-89.9,97,3.93,3.942,3.938,3.975,3.952,3.974,18.87,77,14,Waypoint,
36.99377,-119.1734751,4852.2740912964,30.511812,0,0.162953745372,8900,2018-06-13 18:19:20,16,0,23.882,4852.2740912964,30.511812,0,0.264790690888,0,0,-0.671082,220.2, 0.5, 0.9,0,0,1024,1024,1024,1024,219.7,-89.9,97,3.93,3.942,3.938,3.975,3.952,3.974,18.87,77,14,Waypoint,
36.99377,-119.1734751,4853.2583432964,31.496064,0,0.162953745372,9000,2018-06-13 18:19:20,16,0,23.438,4853.2583432964,31.496064,0,0.264790690888,0,0,-0.671082,220.2, 0.4, 0.8,0,0,1024,1024,1024,1024,219.7,-89.9,97,3.912,3.926,3.887,3.917,3.929,3.921,24.281,77,14,Waypoint,
36.99377,-119.1734751,4854.5706792964,32.8084,0,0.162953745372,9100,2018-06-13 18:19:20,16,0,23.438,4854.5706792964,32.8084,0,0.264790690888,0,0,-0.671082,220.2, 0.4, 0.8,0,0,1024,1024,1024,1024,219.7,-89.9,97,3.912,3.926,3.887,3.917,3.929,3.921,24.281,77,14,Waypoint,
36.9937702,-119.1734751,4856.5391832964,34.776904,0,0.145702760568,9200,2018-06-13 18:19:20,16,0,23.438,4856.5391832964,34.776904,0,0.264790690888,0,0,-0.671082,220.2, 0.3, 0.6,0,0,1024,1024,1024,1024,219.7,-89.9,97,3.912,3.926,3.887,3.917,3.929,3.921,24.281,77,14,Waypoint,
36.9937702,-119.1734751,4857.5234352964,35.761156,0,0.145702760568,9300,2018-06-13 18:19:20,16,0,23.438,4857.5234352964,35.761156,0,0.264790690888,0,0,-0.671082,220.2, 0.1, 0.6,0,0,1024,1024,1024,1024,219.7,-90,97,3.912,3.926,3.887,3.917,3.929,3.921,24.281,77,14,Waypoint,
36.9937703,-119.1734751,4858.5076872964,36.745408,0,0.150201448376,9400,2018-06-13 18:19:20,16,0,23.438,4858.5076872964,36.745408,0,0.264790690888,0,0,-0.671082,220.2, 0, 0.8,0,0,1024,1024,1024,1024,219.7,-90,97,3.912,3.926,3.887,3.917,3.929,3.921,24.281,77,14,Waypoint,
36.9937702,-119.173475,4859.8200232964,38.057744,0,0.174843181448,9500,2018-06-13 18:19:20,16,0,23.438,4859.8200232964,38.057744,0,0.264790690888,0,0,-0.671082,220.2, 0, 0.9,0,0,1024,1024,1024,1024,219.7,-90,97,3.912,3.926,3.887,3.917,3.929,3.921,24.281,77,14,Waypoint,
36.9937702,-119.1734749,4860.8042752964,39.041996,0,0.203983930412,9600,2018-06-13 18:19:21,16,0,23.438,4860.8042752964,39.041996,0,0.264790690888,0,0,-0.671082,220.1, 0.1, 1.2,0,0,1024,1024,1024,1024,219.7,-90,97,3.912,3.926,3.887,3.917,3.929,3.921,24.281,77,14,Waypoint,
36.9937702,-119.1734748,4861.7885272964,40.026248,0,0.233124351292,9700,2018-06-13 18:19:21,16,0,23.438,4861.7885272964,40.026248,0,0.264790690888,0,0,-0.671082,220, 0.2, 1.4,0,0,1024,1024,1024,1024,219.7,-90,97,3.912,3.926,3.887,3.917,3.929,3.921,24.281,77,14,Waypoint,
36.9937703,-119.1734748,4862.7727792964,41.0105,0,0.235962277892,9800,2018-06-13 18:19:21,16,0,23.438,4862.7727792964,41.0105,0,0.264790690888,0,0,-0.671082,220, 0.1, 1.3,0,0,1024,1024,1024,1024,219.7,-90,97,3.912,3.926,3.887,3.917,3.929,3.921,24.281,77,14,Waypoint,
36.9937703,-119.1734748,4863.7570312964,41.994752,0,0.235962277892,9900,2018-06-13 18:19:21,16,0,23.438,4863.7570312964,41.994752,0,0.264790690888,0,0,-0.671082,220, 0, 1.2,0,0,1024,1024,1024,1024,219.7,-90,97,3.912,3.926,3.887,3.917,3.929,3.921,24.281,77,14,Waypoint,
36.9937703,-119.1734747,4864.7412832964,42.979004,0,0.264790690888,10000,2018-06-13 18:19:21,16,0,23.736,4864.7412832964,42.979004,0,0.264790690888,0,0,-0.671082,219.9, 0, 1.2,0,0,1024,1024,1024,1024,219.7,-90,97,3.946,3.948,3.94,3.966,3.96,3.946,19.411,77,14,Waypoint,
36.9937704,-119.1734748,4866.7097872964,44.947508,0,0.244277894956,10200,2018-06-13 18:19:21,17,0,23.736,4866.7097872964,44.947508,0,0.264790690888,0,0,-0.671082,219.9, 0.1, 1,0,0,1024,1024,1024,1024,219.7,-90,97,3.946,3.948,3.94,3.966,3.96,3.946,19.411,77,14,Waypoint,
36.9937705,-119.1734748,4867.6940392964,45.93176,0,0.25754101874,10300,2018-06-13 18:19:21,17,0,23.736,4867.6940392964,45.93176,0,0.264790690888,0,0,-0.671082,220, 0.1, 0.6,0,0,1024,1024,1024,1024,219.7,-90,97,3.946,3.948,3.94,3.966,3.96,3.946,19.411,77,14,Waypoint,
36.9937705,-119.1734748,4868.6782912964,46.916012,0,0.25754101874,10400,2018-06-13 18:19:21,17,0,23.736,4868.6782912964,46.916012,0,0.264790690888,0,0,-0.671082,220.1, 0, 0.3,0,0,1024,1024,1024,1024,219.7,-90,97,3.946,3.948,3.94,3.966,3.96,3.946,19.411,77,14,Waypoint,
36.9937705,-119.1734748,4869.6625432964,47.900264,0,0.25754101874,10500,2018-06-13 18:19:21,17,0,23.736,4869.6625432964,47.900264,0,0.264790690888,0,0,-0.671082,220.2, 0.1, 0.4,0,0,1024,1024,1024,1024,219.7,-90,97,3.946,3.948,3.94,3.966,3.96,3.946,19.411,77,14,Waypoint,
36.9937706,-119.1734748,4870.6467952964,48.884516,0,0.275037082292,10700,2018-06-13 18:19:22,17,0,23.736,4870.6467952964,48.884516,0,0.275037082292,0,0,-0.671082,220.3, 0, 0.6,0,0,1024,1024,1024,1024,219.7,-89.9,97,3.946,3.948,3.94,3.966,3.96,3.946,19.411,77,14,Waypoint,
36.9937705,-119.1734748,4871.6310472964,49.868768,0,0.25754101874,10800,2018-06-13 18:19:22,17,0,23.736,4871.6310472964,49.868768,0,0.275037082292,0,0,-0.671082,220.3, 0, 0.9,0,0,1024,1024,1024,1024,219.7,-90,97,3.946,3.948,3.94,3.966,3.96,3.946,19.411,77,14,Waypoint,
36.9937705,-119.1734747,4872.6152992964,50.85302,0,0.284188985472,10900,2018-06-13 18:19:22,17,0,23.736,4872.6152992964,50.85302,0,0.284188985472,0,0,-0.671082,220.2, 0, 1.2,0,0,1024,1024,1024,1024,219.7,-90,97,3.946,3.948,3.94,3.966,3.96,3.946,19.411,77,14,Waypoint,
36.9937705,-119.1734747,4873.5995512964,51.837272,0,0.284188985472,11000,2018-06-13 18:19:22,17,0,23.736,4873.5995512964,51.837272,0,0.284188985472,0,0,-0.671082,220.1, 0, 1.5,0,0,1024,1024,1024,1024,219.7,-90,97,3.951,3.959,3.936,3.967,3.965,3.954,19.115,77,14,Waypoint,
36.9937705,-119.1734747,4874.5838032964,52.821524,0,0.284188985472,11100,2018-06-13 18:19:22,17,0,23.736,4874.5838032964,52.821524,0,0.284188985472,0,0,-0.671082,220.1, 0.1, 1.6,0,0,1024,1024,1024,1024,219.7,-89.9,97,3.951,3.959,3.936,3.967,3.965,3.954,19.115,77,14,Waypoint,
36.9937705,-119.1734746,4875.5680552964,53.805776,0,0.311283802612,11200,2018-06-13 18:19:22,17,0,23.736,4875.5680552964,53.805776,0,0.311283802612,0,0,-0.671082,220, 0.3, 1.6,0,0,1024,1024,1024,1024,219.7,-89.9,97,3.951,3.959,3.936,3.967,3.965,3.954,19.115,77,14,Waypoint,
36.9937705,-119.1734746,4876.5523072964,54.790028,0,0.311283802612,11300,2018-06-13 18:19:22,17,0,23.736,4876.5523072964,54.790028,0,0.311283802612,0,0,-0.671082,220.1, 0.5, 1.7,0,0,1024,1024,1024,1024,219.7,-89.9,97,3.951,3.959,3.936,3.967,3.965,3.954,19.115,77,14,Waypoint,
36.9937705,-119.1734746,4877.5365592964,55.77428,0,0.311283802612,11400,2018-06-13 18:19:22,17,0,23.736,4877.5365592964,55.77428,0,0.311283802612,0,0,-0.671082,220.2, 0.5, 1.7,0,0,1024,1024,1024,1024,219.7,-89.9,97,3.951,3.959,3.936,3.967,3.965,3.954,19.115,77,14,Waypoint,
36.9937705,-119.1734746,4879.5050632964,57.742784,0,0.311283802612,11500,2018-06-13 18:19:22,17,0,23.736,4879.5050632964,57.742784,0,0.311283802612,0,0,-0.671082,220.2, 0.1, 1.2,0,0,1024,1024,1024,1024,219.7,-90,97,3.951,3.959,3.936,3.967,3.965,3.954,19.115,77,14,Waypoint,
36.9937705,-119.1734746,4880.4893152964,58.727036,0,0.311283802612,11600,2018-06-13 18:19:23,17,0,23.736,4880.4893152964,58.727036,0,0.311283802612,0,0,-0.671082,220.2, 0, 1.1,0,0,1024,1024,1024,1024,219.7,-90,97,3.951,3.959,3.936,3.967,3.965,3.954,19.115,77,14,Waypoint,
36.9937706,-119.1734747,4882.4578192964,60.69554,0,0.300135508292,11800,2018-06-13 18:19:23,17,0,23.736,4882.4578192964,60.69554,0,0.311283802612,0,0,-0.671082,220.1, -0.2, 1,0,0,1024,1024,1024,1024,219.7,-90,97,3.951,3.959,3.936,3.967,3.965,3.954,19.115,77,14,Waypoint,
36.9937706,-119.1734747,4883.4420712964,61.679792,0,0.300135508292,11900,2018-06-13 18:19:23,17,0,23.736,4883.4420712964,61.679792,0,0.311283802612,0,0,-0.671082,220.1, -0.1, 1,0,0,1024,1024,1024,1024,219.7,-90,97,3.951,3.959,3.936,3.967,3.965,3.954,19.115,77,14,Waypoint,
36.9937706,-119.1734747,4884.4263232964,62.664044,0,0.300135508292,12000,2018-06-13 18:19:23,17,0,23.678,4884.4263232964,62.664044,0,0.311283802612,0,0,-0.671082,220.1, 0, 1.1,0,0,1024,1024,1024,1024,219.7,-89.9,97,3.941,3.95,3.934,3.96,3.946,3.948,19.151,77,14,Waypoint,
36.9937706,-119.1734747,4885.4105752964,63.648296,0,0.300135508292,12100,2018-06-13 18:19:23,18,0,23.678,4885.4105752964,63.648296,0,0.311283802612,0,0,-0.671082,220.1, 0.3, 1.1,0,0,1024,1024,1024,1024,219.7,-89.9,97,3.941,3.95,3.934,3.96,3.946,3.948,19.151,77,14,Waypoint,
36.9937706,-119.1734747,4886.3948272964,64.632548,0,0.300135508292,12200,2018-06-13 18:19:23,18,0,23.678,4886.3948272964,64.632548,0,0.311283802612,0,0,-0.671082,220, 0.4, 1.1,0,0,1024,1024,1024,1024,219.7,-89.9,97,3.941,3.95,3.934,3.96,3.946,3.948,19.151,77,14,Waypoint,
36.9937706,-119.1734747,4887.3790792964,65.6168,0,0.300135508292,12300,2018-06-13 18:19:23,18,0,23.678,4887.3790792964,65.6168,0,0.311283802612,0,0,-0.671082,219.9, 0.4, 0.9,0,0,1024,1024,1024,1024,219.7,-89.9,97,3.941,3.95,3.934,3.96,3.946,3.948,19.151,77,14,Waypoint,
36.9937706,-119.1734747,4888.3633312964,66.601052,0,0.300135508292,12400,2018-06-13 18:19:23,18,0,23.678,4888.3633312964,66.601052,0,0.311283802612,0,0,-0.671082,219.9, 0.3, 1.1,0,0,1024,1024,1024,1024,219.7,-89.9,97,3.941,3.95,3.934,3.96,3.946,3.948,19.151,77,14,Waypoint,
36.9937706,-119.1734746,4889.3475832964,67.585304,0,0.325907490744,12500,2018-06-13 18:19:23,18,0,23.678,4889.3475832964,67.585304,0,0.325907490744,0,0,-0.671082,219.9, 0.4, 1.4,0,0,1024,1024,1024,1024,219.7,-89.9,97,3.941,3.95,3.934,3.96,3.946,3.948,19.151,77,14,Waypoint,
36.9937706,-119.1734746,4890.3318352964,68.569556,0,0.325907490744,12600,2018-06-13 18:19:24,18,0,23.678,4890.3318352964,68.569556,0,0.325907490744,0,0,-0.671082,220.1, 0.2, 1.6,0,0,1024,1024,1024,1024,219.7,-89.9,97,3.941,3.95,3.934,3.96,3.946,3.948,19.151,77,14,Waypoint,
36.9937706,-119.1734746,4891.3160872964,69.553808,0,0.325907490744,12700,2018-06-13 18:19:24,18,0,23.678,4891.3160872964,69.553808,0,0.325907490744,0,0,-0.671082,220.2, 0, 1.5,0,0,1024,1024,1024,1024,219.7,-90,97,3.941,3.95,3.934,3.96,3.946,3.948,19.151,77,14,Waypoint,
36.9937706,-119.1734746,4892.3003392964,70.53806,0,0.325907490744,12800,2018-06-13 18:19:24,18,0,23.678,4892.3003392964,70.53806,0,0.325907490744,0,0,-0.671082,220.2, -0.1, 1.5,0,0,1024,1024,1024,1024,219.7,-90,97,3.941,3.95,3.934,3.96,3.946,3.948,19.151,77,14,Waypoint,
36.9937705,-119.1734745,4893.2845912964,71.522312,0,0.33871720244,13000,2018-06-13 18:19:24,18,0,23.617,4893.2845912964,71.522312,0,0.33871720244,0,0,-0.671082,220.3, -0.1, 1.6,0,0,1024,1024,1024,1024,219.7,-90,97,3.941,3.95,3.934,3.96,3.946,3.948,19.179,77,14,Waypoint,
36.9937705,-119.1734744,4894.2688432964,72.506564,0,0.36641733456,13100,2018-06-13 18:19:24,18,0,23.617,4894.2688432964,72.506564,0,0.36641733456,0,0,-0.671082,220.3, -0.1, 1.8,0,0,1024,1024,1024,1024,219.7,-90,97,3.941,3.95,3.934,3.96,3.946,3.948,19.179,77,14,Waypoint,
36.9937705,-119.1734744,4895.2530952964,73.490816,0,0.36641733456,13200,2018-06-13 18:19:24,18,0,23.617,4895.2530952964,73.490816,0,0.36641733456,0,0,-0.671082,220.4, 0, 2.1,0,0,1024,1024,1024,1024,219.7,-89.9,97,3.941,3.95,3.934,3.96,3.946,3.948,19.179,77,14,Waypoint,
36.9937705,-119.1734744,4897.2215992964,75.45932,0,0.36641733456,13400,2018-06-13 18:19:24,18,0,23.617,4897.2215992964,75.45932,0,0.36641733456,0,0,-0.671082,220.4, 0.3, 2.3,0,0,1024,1024,1024,1024,219.7,-89.9,97,3.941,3.95,3.934,3.96,3.946,3.948,19.179,77,14,Waypoint,
36.9937704,-119.1734744,4898.2058512964,76.443572,0,0.3572178592,13500,2018-06-13 18:19:24,18,0,23.617,4898.2058512964,76.443572,0,0.36641733456,0,0,-0.671082,220.4, 0.3, 2.1,0,0,1024,1024,1024,1024,219.7,-89.9,97,3.941,3.95,3.934,3.96,3.946,3.948,19.179,77,14,Waypoint,
36.9937704,-119.1734744,4899.1901032964,77.427824,0,0.3572178592,13600,2018-06-13 18:19:25,18,0,23.617,4899.1901032964,77.427824,0,0.36641733456,0,0,-0.671082,220.3, 0.3, 2.1,0,0,1024,1024,1024,1024,219.7,-89.9,97,3.941,3.95,3.934,3.96,3.946,3.948,19.179,77,14,Waypoint,
36.9937704,-119.1734743,4900.1743552964,78.412076,0,0.38579069476,13700,2018-06-13 18:19:25,18,0,23.617,4900.1743552964,78.412076,0,0.38579069476,0,0,-0.671082,220.2, 0.1, 2.2,0,0,1024,1024,1024,1024,219.7,-90,97,3.941,3.95,3.934,3.96,3.946,3.948,19.179,77,14,Waypoint,
36.9937704,-119.1734743,4901.1586072964,79.396328,0,0.38579069476,13800,2018-06-13 18:19:25,18,0,23.617,4901.1586072964,79.396328,0,0.38579069476,0,0,-0.671082,220.1, 0, 2.3,0,0,1024,1024,1024,1024,219.7,-90,97,3.941,3.95,3.934,3.96,3.946,3.948,19.179,77,14,Waypoint,
36.9937704,-119.1734743,4902.1428592964,80.38058,0,0.38579069476,13900,2018-06-13 18:19:25,18,0,23.617,4902.1428592964,80.38058,0,0.38579069476,0,0,-0.671082,220.1, 0, 2.2,0,0,1024,1024,1024,1024,219.7,-90,97,3.941,3.95,3.934,3.96,3.946,3.948,19.179,77,14,Waypoint,
36.9937705,-119.1734742,4904.1113632964,82.349084,0,0.42239502664,14000,2018-06-13 18:19:25,18,0,23.617,4904.1113632964,82.349084,0,0.42239502664,0,0,-0.671082,220.1, -0.2, 1.9,0,0,1024,1024,1024,1024,219.7,-89.9,97,3.922,3.941,3.918,3.952,3.952,3.926,19.179,77,14,Waypoint,
36.9937705,-119.1734743,4905.0956152964,83.333336,0,0.3943241596,14100,2018-06-13 18:19:25,18,0,23.617,4905.0956152964,83.333336,0,0.42239502664,0,0,-0.671082,220.1, -0.3, 1.8,0,0,1024,1024,1024,1024,219.7,-89.9,97,3.922,3.941,3.918,3.952,3.952,3.926,19.179,77,14,Waypoint,
36.9937705,-119.1734743,4906.0798672964,84.317588,0,0.3943241596,14200,2018-06-13 18:19:25,18,0,23.617,4906.0798672964,84.317588,0,0.42239502664,0,0,-0.671082,220, -0.3, 1.7,0,0,1024,1024,1024,1024,219.7,-89.9,97,3.922,3.941,3.918,3.952,3.952,3.926,19.179,77,14,Waypoint,
36.9937705,-119.1734742,4907.0641192964,85.30184,0,0.42239502664,14300,2018-06-13 18:19:25,18,0,23.617,4907.0641192964,85.30184,0,0.42239502664,0,0,-0.671082,220.1, -0.4, 1.5,0,0,1024,1024,1024,1024,219.7,-90,97,3.922,3.941,3.918,3.952,3.952,3.926,19.179,77,14,Waypoint,
36.9937706,-119.1734742,4908.0483712964,86.286092,0,0.4332841346,14400,2018-06-13 18:19:25,18,0,23.617,4908.0483712964,86.286092,0,0.4332841346,0,0,-0.671082,220, -0.4, 1.5,0,0,1024,1024,1024,1024,219.7,-90,97,3.922,3.941,3.918,3.952,3.952,3.926,19.179,77,14,Waypoint,
36.9937706,-119.1734742,4909.0326232964,87.270344,0,0.4332841346,14500,2018-06-13 18:19:25,18,0,23.617,4909.0326232964,87.270344,0,0.4332841346,0,0,-0.671082,220, -0.4, 1.7,0,0,1024,1024,1024,1024,219.7,-89.9,97,3.922,3.941,3.918,3.952,3.952,3.926,19.179,77,14,Waypoint,
36.9937705,-119.1734742,4910.0168752964,88.254596,0,0.42239502664,14600,2018-06-13 18:19:26,18,0,23.617,4910.0168752964,88.254596,0,0.4332841346,0,0,-0.671082,220.1, -0.3, 1.9,0,0,1024,1024,1024,1024,219.7,-89.9,97,3.922,3.941,3.918,3.952,3.952,3.926,19.179,77,14,Waypoint,
36.9937706,-119.1734742,4911.0011272964,89.238848,0,0.4332841346,14700,2018-06-13 18:19:26,18,0,23.617,4911.0011272964,89.238848,0,0.4332841346,0,0,-0.671082,220.1, -0.2, 2,0,0,1024,1024,1024,1024,219.7,-89.9,97,3.922,3.941,3.918,3.952,3.952,3.926,19.179,77,14,Waypoint,
36.9937706,-119.1734742,4911.9853792964,90.2231,0,0.4332841346,14800,2018-06-13 18:19:26,18,0,23.617,4911.9853792964,90.2231,0,0.4332841346,0,0,-0.671082,220, -0.1, 2,0,0,1024,1024,1024,1024,219.7,-89.9,97,3.922,3.941,3.918,3.952,3.952,3.926,19.179,77,14,Waypoint,
36.9937706,-119.1734742,4912.9696312964,91.207352,0,0.4332841346,14900,2018-06-13 18:19:26,18,0,23.617,4912.9696312964,91.207352,0,0.4332841346,0,0,-0.671082,220, 0, 2,0,0,1024,1024,1024,1024,219.7,-89.9,97,3.922,3.941,3.918,3.952,3.952,3.926,19.179,77,14,Waypoint,
36.9937706,-119.1734742,4913.9538832964,92.191604,0,0.4332841346,15000,2018-06-13 18:19:26,18,0,23.575,4913.9538832964,92.191604,0,0.4332841346,0,0,-0.671082,219.9, 0, 1.9,0,0,1024,1024,1024,1024,219.7,-89.9,96,3.915,3.934,3.907,3.943,3.933,3.933,19.23,77,14,Waypoint,
36.9937706,-119.1734742,4914.9381352964,93.175856,0,0.4332841346,15200,2018-06-13 18:19:26,18,0,23.575,4914.9381352964,93.175856,0,0.4332841346,0,0,-0.671082,219.9, 0, 1.9,0,0,1024,1024,1024,1024,219.7,-89.9,96,3.915,3.934,3.907,3.943,3.933,3.933,19.23,77,14,Waypoint,
36.9937706,-119.1734742,4915.9223872964,94.160108,0,0.4332841346,15300,2018-06-13 18:19:26,18,0,23.575,4915.9223872964,94.160108,0,0.4332841346,0,0,-0.671082,219.9, -0.2, 1.7,0,0,1024,1024,1024,1024,219.7,-90,96,3.915,3.934,3.907,3.943,3.933,3.933,19.23,77,14,Waypoint,
36.9937706,-119.1734742,4916.9066392964,95.14436,0,0.4332841346,15400,2018-06-13 18:19:26,18,0,23.575,4916.9066392964,95.14436,0,0.4332841346,0,0,-0.671082,219.9, -0.2, 1.6,0,0,1024,1024,1024,1024,219.7,-90,96,3.915,3.934,3.907,3.943,3.933,3.933,19.23,77,14,Waypoint,
36.9937706,-119.1734742,4917.8908912964,96.128612,0,0.4332841346,15500,2018-06-13 18:19:26,18,0,23.575,4917.8908912964,96.128612,0,0.4332841346,0,0,-0.671082,220, -0.3, 1.6,0,0,1024,1024,1024,1024,219.7,-90,96,3.915,3.934,3.907,3.943,3.933,3.933,19.23,77,14,Waypoint,
36.9937706,-119.1734741,4918.8751432964,97.112864,0,0.4608267864,15600,2018-06-13 18:19:27,18,0,23.575,4918.8751432964,97.112864,0,0.4608267864,0,0,-0.671082,220, -0.4, 1.9,0,0,1024,1024,1024,1024,219.7,-90,96,3.915,3.934,3.907,3.943,3.933,3.933,19.23,77,14,Waypoint,
36.9937706,-119.1734741,4919.8593952964,98.097116,0,0.4608267864,15700,2018-06-13 18:19:27,18,0,23.575,4919.8593952964,98.097116,0,0.4608267864,0,0,-0.671082,220, -0.4, 2.4,0,0,1024,1024,1024,1024,219.7,-89.9,96,3.915,3.934,3.907,3.943,3.933,3.933,19.23,77,14,Waypoint,
36.9937706,-119.173474,4920.8436472964,99.081368,0,0.48855644608,15800,2018-06-13 18:19:27,18,0,23.575,4920.8436472964,99.081368,0,0.48855644608,0,0,-0.671082,220, -0.2, 2.7,0,0,1024,1024,1024,1024,219.7,-89.9,96,3.915,3.934,3.907,3.943,3.933,3.933,19.23,77,14,Waypoint,
36.9937705,-119.173474,4921.8278992964,100.06562,0,0.47892389984,15900,2018-06-13 18:19:27,18,0,23.575,4921.8278992964,100.06562,0,0.48855644608,0,0,-0.671082,220, 0, 2.7,0,0,1024,1024,1024,1024,219.7,-89.9,96,3.915,3.934,3.907,3.943,3.933,3.933,19.23,77,14,Waypoint,
36.9937705,-119.173474,4922.8121512964,101.049872,0,0.47892389984,16000,2018-06-13 18:19:27,18,0,23.575,4922.8121512964,101.049872,0,0.48855644608,0,0,-0.671082,220.1, 0, 2.6,0,0,1024,1024,1024,1024,219.7,-89.9,96,3.915,3.934,3.907,3.943,3.933,3.933,19.23,77,14,Waypoint,
36.9937706,-119.1734739,4923.7964032964,102.034124,0,0.51644030524,16100,2018-06-13 18:19:27,18,0,23.575,4923.7964032964,102.034124,0,0.51644030524,0,0,-0.671082,220.2, 0, 2.5,0,0,1024,1024,1024,1024,219.7,-89.9,96,3.915,3.934,3.907,3.943,3.933,3.933,19.23,77,14,Waypoint,
36.9937706,-119.1734739,4925.1087392964,103.34646,0,0.51644030524,16200,2018-06-13 18:19:27,18,0,23.575,4925.1087392964,103.34646,0,0.51644030524,0,0,-0.671082,220.3, 0, 2.4,0,0,1024,1024,1024,1024,219.7,-90,96,3.915,3.934,3.907,3.943,3.933,3.933,19.23,77,14,Waypoint,
36.9937707,-119.1734739,4927.0772432964,105.314964,0,0.52791012188,16300,2018-06-13 18:19:27,18,0,23.575,4927.0772432964,105.314964,0,0.52791012188,0,0,-0.671082,220.3, -0.5, 2.1,0,0,1024,1024,1024,1024,219.7,-90,96,3.915,3.934,3.907,3.943,3.933,3.933,19.23,77,14,Waypoint,
36.9937707,-119.1734739,4928.0614952964,106.299216,0,0.52791012188,16400,2018-06-13 18:19:27,18,0,23.575,4928.0614952964,106.299216,0,0.52791012188,0,0,-0.671082,220.3, -0.6, 2.2,0,0,1024,1024,1024,1024,219.7,-90,96,3.915,3.934,3.907,3.943,3.933,3.933,19.23,77,14,Waypoint,
36.9937707,-119.1734738,4929.0457472964,107.283468,0,0.5553477868,16500,2018-06-13 18:19:27,18,0,23.575,4929.0457472964,107.283468,0,0.5553477868,0,0,-0.671082,220.3, -0.6, 2.4,0,0,1024,1024,1024,1024,219.7,-90,96,3.915,3.934,3.907,3.943,3.933,3.933,19.23,77,14,Waypoint,
36.9937707,-119.1734738,4929.7019152964,107.939636,0,0.5553477868,16600,2018-06-13 18:19:28,18,0,23.575,4929.7019152964,107.939636,0,0.5553477868,0,0,-0.671082,220.2, -0.6, 2.4,0,0,1024,1024,1024,1024,219.7,-90,96,3.915,3.934,3.907,3.943,3.933,3.933,19.23,77,14,Waypoint,
36.9937707,-119.1734738,4930.6861672964,108.923888,0,0.5553477868,16700,2018-06-13 18:19:28,18,0,23.575,4930.6861672964,108.923888,0,0.5553477868,0,0,-0.671082,220.2, -0.6, 2.4,0,0,1024,1024,1024,1024,219.7,-90,96,3.915,3.934,3.907,3.943,3.933,3.933,19.23,77,14,Waypoint,
36.9937707,-119.1734738,4931.6704192964,109.90814,0,0.5553477868,16800,2018-06-13 18:19:28,18,0,23.575,4931.6704192964,109.90814,0,0.5553477868,0,0,-0.671082,220, -0.6, 2.3,0,0,1024,1024,1024,1024,219.7,-90,96,3.915,3.934,3.907,3.943,3.933,3.933,19.23,77,14,Waypoint,
36.9937707,-119.1734738,4932.6546712964,110.892392,0,0.5553477868,16900,2018-06-13 18:19:28,18,0,23.575,4932.6546712964,110.892392,0,0.5553477868,0,0,-0.671082,219.9, -0.5, 2.3,0,0,1024,1024,1024,1024,219.7,-90,96,3.915,3.934,3.907,3.943,3.933,3.933,19.23,77,14,Waypoint,
36.9937707,-119.1734737,4933.6389232964,111.876644,0,0.58294949372,17000,2018-06-13 18:19:28,18,0,23.562,4933.6389232964,111.876644,0,0.58294949372,0,0,-0.671082,219.9, -0.5, 2.4,0,0,1024,1024,1024,1024,219.7,-90,96,3.921,3.926,3.906,3.937,3.934,3.925,18.827,78.8,14,Waypoint,
36.9937707,-119.1734737,4934.6231752964,112.860896,0,0.58294949372,17100,2018-06-13 18:19:28,18,0,23.562,4934.6231752964,112.860896,0,0.58294949372,0,0,-0.671082,219.9, -0.3, 2.4,0,0,1024,1024,1024,1024,219.7,-89.9,96,3.921,3.926,3.906,3.937,3.934,3.925,18.827,78.8,14,Waypoint,
36.9937707,-119.1734737,4935.6074272964,113.845148,0,0.58294949372,17200,2018-06-13 18:19:28,18,0,23.562,4935.6074272964,113.845148,0,0.58294949372,0,0,-0.671082,220, -0.2, 2.4,0,0,1024,1024,1024,1024,219.7,-89.9,96,3.921,3.926,3.906,3.937,3.934,3.925,18.827,78.8,14,Waypoint,
36.9937706,-119.1734737,4936.5916792964,114.8294,0,0.57258203932,17300,2018-06-13 18:19:28,18,0,23.562,4936.5916792964,114.8294,0,0.58294949372,0,0,-0.671082,220.1, -0.2, 2.4,0,0,1024,1024,1024,1024,219.7,-89.9,96,3.921,3.926,3.906,3.937,3.934,3.925,18.827,78.8,14,Waypoint,
36.9937706,-119.1734736,4938.5601832964,116.797904,0,0.60080710584,17600,2018-06-13 18:19:29,18,0,23.562,4938.5601832964,116.797904,0,0.60080710584,0,0,-0.671082,220.4, -0.2, 2.7,0,0,1024,1024,1024,1024,219.7,-89.9,96,3.921,3.926,3.906,3.937,3.934,3.925,18.827,78.8,14,Waypoint,
36.9937705,-119.1734736,4939.5444352964,117.782156,0,0.59299870664,17700,2018-06-13 18:19:29,18,0,23.562,4939.5444352964,117.782156,0,0.60080710584,0,0,-0.671082,220.6, -0.2, 2.8,0,0,1024,1024,1024,1024,219.7,-90,96,3.921,3.926,3.906,3.937,3.934,3.925,18.827,78.8,14,Waypoint,
36.9937705,-119.1734736,4940.5286872964,118.766408,0,0.59299870664,17800,2018-06-13 18:19:29,18,0,23.562,4940.5286872964,118.766408,0,0.60080710584,0,0,-0.671082,220.6, -0.2, 2.7,0,0,1024,1024,1024,1024,219.7,-89.9,96,3.921,3.926,3.906,3.937,3.934,3.925,18.827,78.8,14,Waypoint,
36.9937705,-119.1734736,4941.5129392964,119.75066,0,0.59299870664,17900,2018-06-13 18:19:29,18,0,23.562,4941.5129392964,119.75066,0,0.60080710584,0,0,-0.671082,220.5, -0.2, 2.4,0,0,1024,1024,1024,1024,219.7,-89.9,96,3.921,3.926,3.906,3.937,3.934,3.925,18.827,78.8,14,Waypoint,
36.9937705,-119.1734736,4943.4814432964,121.719164,0,0.59299870664,18100,2018-06-13 18:19:29,18,0,23.562,4943.4814432964,121.719164,0,0.60080710584,0,0,-0.671082,220.3, -0.4, 2.3,0,0,1024,1024,1024,1024,219.7,-90,96,3.921,3.926,3.906,3.937,3.934,3.925,18.827,78.8,14,Waypoint,
36.9937705,-119.1734736,4944.4656952964,122.703416,0,0.59299870664,18200,2018-06-13 18:19:29,18,0,23.562,4944.4656952964,122.703416,0,0.60080710584,0,0,-0.671082,220.2, -0.4, 2.4,0,0,1024,1024,1024,1024,219.7,-90,96,3.921,3.926,3.906,3.937,3.934,3.925,18.827,78.8,14,Waypoint,
36.9937704,-119.1734736,4945.4499472964,123.687668,0,0.58736222352,18300,2018-06-13 18:19:29,18,0,23.562,4945.4499472964,123.687668,0,0.60080710584,0,0,-0.671082,220.2, -0.4, 2.4,0,0,1024,1024,1024,1024,219.7,-90,96,3.921,3.926,3.906,3.937,3.934,3.925,18.827,78.8,14,Waypoint,
36.9937704,-119.1734736,4946.4341992964,124.67192,0,0.58736222352,18400,2018-06-13 18:19:29,18,0,23.562,4946.4341992964,124.67192,0,0.60080710584,0,0,-0.671082,220.1, -0.4, 2.5,0,0,1024,1024,1024,1024,219.7,-90,96,3.921,3.926,3.906,3.937,3.934,3.925,18.827,78.8,14,Waypoint,
36.9937704,-119.1734736,4947.4184512964,125.656172,0,0.58736222352,18500,2018-06-13 18:19:29,18,0,23.562,4947.4184512964,125.656172,0,0.60080710584,0,0,-0.671082,220.1, -0.1, 2.6,0,0,1024,1024,1024,1024,219.7,-89.9,96,3.921,3.926,3.906,3.937,3.934,3.925,18.827,78.8,14,Waypoint,
36.9937704,-119.1734737,4948.4027032964,126.640424,0,0.55845802312,18600,2018-06-13 18:19:30,18,0,23.562,4948.4027032964,126.640424,0,0.60080710584,0,0,-0.671082,220.2, 0, 2.6,0,0,1024,1024,1024,1024,219.7,-89.9,96,3.921,3.926,3.906,3.937,3.934,3.925,18.827,78.8,14,Waypoint,
36.9937703,-119.1734737,4950.3712072964,128.608928,0,0.554872065,18700,2018-06-13 18:19:30,18,0,23.562,4950.3712072964,128.608928,0,0.60080710584,0,0,-0.671082,220.3, 0.3, 2.8,0,0,1024,1024,1024,1024,219.7,-89.9,96,3.921,3.926,3.906,3.937,3.934,3.925,18.827,78.8,14,Waypoint,
36.9937703,-119.1734737,4951.3554592964,129.59318,0,0.554872065,18800,2018-06-13 18:19:30,18,0,23.562,4951.3554592964,129.59318,0,0.60080710584,0,0,-0.671082,220.3, 0.4, 2.6,0,0,1024,1024,1024,1024,219.7,-89.9,96,3.921,3.926,3.906,3.937,3.934,3.925,18.827,78.8,14,Waypoint,
36.9937703,-119.1734738,4952.3397112964,130.577432,0,0.52579726092,18900,2018-06-13 18:19:30,18,0,23.562,4952.3397112964,130.577432,0,0.60080710584,0,0,-0.671082,220.2, 0.2, 2.5,0,0,1024,1024,1024,1024,219.7,-89.9,96,3.921,3.926,3.906,3.937,3.934,3.925,18.827,78.8,14,Waypoint,
36.9937703,-119.1734738,4953.3239632964,131.561684,0,0.52579726092,19000,2018-06-13 18:19:30,18,0,23.495,4953.3239632964,131.561684,0,0.60080710584,0,0,-0.671082,220.2, 0, 2.3,0,0,1024,1024,1024,1024,219.7,-89.9,96,3.911,3.913,3.903,3.932,3.928,3.913,19.228,78.8,14,Waypoint,
36.9937703,-119.1734739,4954.3082152964,132.545936,0,0.49673229936,19100,2018-06-13 18:19:30,18,0,23.495,4954.3082152964,132.545936,0,0.60080710584,0,0,-0.671082,220.1, 0, 2,0,0,1024,1024,1024,1024,219.7,-89.9,96,3.911,3.913,3.903,3.932,3.928,3.913,19.228,78.8,14,Waypoint,
36.9937704,-119.173474,4955.2924672964,133.530188,0,0.47192586812,19200,2018-06-13 18:19:30,18,0,23.495,4955.2924672964,133.530188,0,0.60080710584,0,0,-0.671082,220.1, -0.1, 1.8,0,0,1024,1024,1024,1024,219.7,-89.9,96,3.911,3.913,3.903,3.932,3.928,3.913,19.228,78.8,14,Waypoint,
36.9937704,-119.173474,4956.2767192964,134.51444,0,0.47192586812,19300,2018-06-13 18:19:30,18,0,23.495,4956.2767192964,134.51444,0,0.60080710584,0,0,-0.671082,220.1, -0.1, 1.5,0,0,1024,1024,1024,1024,219.7,-90,96,3.911,3.913,3.903,3.932,3.928,3.913,19.228,78.8,14,Waypoint,
36.9937704,-119.1734741,4957.2609712964,135.498692,0,0.44315618216,19400,2018-06-13 18:19:30,18,0,23.495,4957.2609712964,135.498692,0,0.60080710584,0,0,-0.671082,220.1, -0.1, 1.5,0,0,1024,1024,1024,1024,219.7,-89.9,96,3.911,3.913,3.903,3.932,3.928,3.913,19.228,78.8,14,Waypoint,
36.9937704,-119.1734741,4958.2452232964,136.482944,0,0.44315618216,19500,2018-06-13 18:19:30,18,0,23.495,4958.2452232964,136.482944,0,0.60080710584,0,0,-0.671082,220.2, -0.1, 1.7,0,0,1024,1024,1024,1024,219.7,-89.9,96,3.911,3.913,3.903,3.932,3.928,3.913,19.228,78.8,14,Waypoint,
36.9937704,-119.1734741,4959.2294752964,137.467196,0,0.44315618216,19600,2018-06-13 18:19:31,18,0,23.495,4959.2294752964,137.467196,0,0.60080710584,0,0,-0.671082,220.2, -0.1, 2.2,0,0,1024,1024,1024,1024,219.7,-90,96,3.911,3.913,3.903,3.932,3.928,3.913,19.228,78.8,14,Waypoint,
36.9937704,-119.1734741,4960.2137272964,138.451448,0,0.44315618216,19700,2018-06-13 18:19:31,18,0,23.495,4960.2137272964,138.451448,0,0.60080710584,0,0,-0.671082,220.2, -0.2, 2.5,0,0,1024,1024,1024,1024,219.7,-90,96,3.911,3.913,3.903,3.932,3.928,3.913,19.228,78.8,14,Waypoint,
36.9937704,-119.1734741,4961.1979792964,139.4357,0,0.44315618216,19900,2018-06-13 18:19:31,18,0,23.495,4961.1979792964,139.4357,0,0.60080710584,0,0,-0.671082,220.2, -0.2, 2.7,0,0,1024,1024,1024,1024,219.7,-89.9,96,3.911,3.913,3.903,3.932,3.928,3.913,19.228,78.8,14,Waypoint,
36.9937703,-119.1734741,4962.1822312964,140.419952,0,0.43862862296,20000,2018-06-13 18:19:31,18,0,23.491,4962.1822312964,140.419952,0,0.60080710584,0,0,-0.671082,220.2, -0.1, 2.8,0,0,1024,1024,1024,1024,219.7,-89.9,96,3.909,3.918,3.907,3.938,3.927,3.917,19.1,78.8,14,Waypoint,
36.9937703,-119.1734741,4963.1664832964,141.404204,0,0.43862862296,20100,2018-06-13 18:19:31,18,0,23.491,4963.1664832964,141.404204,0,0.60080710584,0,0,-0.671082,220.1, 0, 2.7,0,0,1024,1024,1024,1024,219.7,-89.9,96,3.909,3.918,3.907,3.938,3.927,3.917,19.1,78.8,14,Waypoint,
36.9937703,-119.1734741,4964.1507352964,142.388456,0,0.43862862296,20200,2018-06-13 18:19:31,18,0,23.491,4964.1507352964,142.388456,0,0.60080710584,0,0,-0.671082,220, 0, 2.7,0,0,1024,1024,1024,1024,219.7,-89.9,96,3.909,3.918,3.907,3.938,3.927,3.917,19.1,78.8,14,Waypoint,
36.9937702,-119.1734741,4965.1349872964,143.372708,0,0.43710959404,20300,2018-06-13 18:19:31,18,0,23.491,4965.1349872964,143.372708,0,0.60080710584,0,0,-0.671082,220, 0.1, 2.9,0,0,1024,1024,1024,1024,219.7,-89.9,96,3.909,3.918,3.907,3.938,3.927,3.917,19.1,78.8,14,Waypoint,
36.9937702,-119.1734741,4966.1192392964,144.35696,0,0.43710959404,20400,2018-06-13 18:19:31,18,0,23.491,4966.1192392964,144.35696,0,0.60080710584,0,0,-0.671082,220, 0.3, 3,0,0,1024,1024,1024,1024,219.7,-89.9,96,3.909,3.918,3.907,3.938,3.927,3.917,19.1,78.8,14,Waypoint,
36.9937702,-119.1734741,4967.1034912964,145.341212,0,0.43710959404,20500,2018-06-13 18:19:31,18,0,23.491,4967.1034912964,145.341212,0,0.60080710584,0,0,-0.671082,220.1, 0.4, 3,0,0,1024,1024,1024,1024,219.7,-89.9,96,3.909,3.918,3.907,3.938,3.927,3.917,19.1,78.8,14,Waypoint,
36.9937702,-119.173474,4968.0877432964,146.325464,0,0.46625001492,20600,2018-06-13 18:19:32,18,0,23.491,4968.0877432964,146.325464,0,0.60080710584,0,0,-0.671082,220.2, 0.3, 3,0,0,1024,1024,1024,1024,219.7,-89.9,96,3.909,3.918,3.907,3.938,3.927,3.917,19.1,78.8,14,Waypoint,
36.9937702,-119.173474,4969.0719952964,147.309716,0,0.46625001492,20700,2018-06-13 18:19:32,18,0,23.491,4969.0719952964,147.309716,0,0.60080710584,0,0,-0.671082,220.2, 0.2, 3.1,0,0,1024,1024,1024,1024,219.7,-89.9,96,3.909,3.918,3.907,3.938,3.927,3.917,19.1,78.8,14,Waypoint,
36.9937702,-119.173474,4970.0562472964,148.293968,0,0.46625001492,20800,2018-06-13 18:19:32,18,0,23.491,4970.0562472964,148.293968,0,0.60080710584,0,0,-0.671082,220.3, 0, 2.9,0,0,1024,1024,1024,1024,219.7,-89.9,96,3.909,3.918,3.907,3.938,3.927,3.917,19.1,78.8,14,Waypoint,
36.9937702,-119.173474,4971.0404992964,149.27822,0,0.46625001492,20900,2018-06-13 18:19:32,18,0,23.491,4971.0404992964,149.27822,0,0.60080710584,0,0,-0.671082,220.3, -0.2, 2.7,0,0,1024,1024,1024,1024,219.7,-90,96,3.909,3.918,3.907,3.938,3.927,3.917,19.1,78.8,14,Waypoint,
36.9937703,-119.173474,4972.0247512964,150.262472,0,0.46767389948,21000,2018-06-13 18:19:32,18,0,23.418,4972.0247512964,150.262472,0,0.60080710584,0,0,-0.671082,220.2, -0.3, 2.6,0,0,1024,1024,1024,1024,219.7,-89.9,96,3.891,3.903,3.89,3.909,3.912,3.907,19.343,78.8,14,Waypoint,
36.9937703,-119.173474,4973.0090032964,151.246724,0,0.46767389948,21100,2018-06-13 18:19:32,18,0,23.418,4973.0090032964,151.246724,0,0.60080710584,0,0,-0.671082,220.2, -0.2, 2.6,0,0,1024,1024,1024,1024,219.7,-89.9,96,3.891,3.903,3.89,3.909,3.912,3.907,19.343,78.8,14,Waypoint,
36.9937703,-119.1734739,4973.9932552964,152.230976,0,0.49673229936,21200,2018-06-13 18:19:32,18,0,23.418,4973.9932552964,152.230976,0,0.60080710584,0,0,-0.671082,220.1, -0.2, 2.6,0,0,1024,1024,1024,1024,219.7,-89.9,96,3.891,3.903,3.89,3.909,3.912,3.907,19.343,78.8,14,Waypoint,
36.9937704,-119.1734738,4975.9617592964,154.19948,0,0.52958006944,21300,2018-06-13 18:19:32,18,0,23.418,4975.9617592964,154.19948,0,0.60080710584,0,0,-0.671082,219.9, -0.2, 2.7,0,0,1024,1024,1024,1024,219.7,-90,96,3.891,3.903,3.89,3.909,3.912,3.907,19.343,78.8,14,Waypoint,
36.9937705,-119.1734737,4976.9460112964,155.183732,0,0.564386501,21400,2018-06-13 18:19:32,18,0,23.418,4976.9460112964,155.183732,0,0.60080710584,0,0,-0.671082,219.9, -0.6, 2.6,0,0,1024,1024,1024,1024,219.7,-89.9,96,3.891,3.903,3.89,3.909,3.912,3.907,19.343,78.8,14,Waypoint,
36.9937705,-119.1734737,4977.9302632964,156.167984,0,0.564386501,21500,2018-06-13 18:19:32,18,0,23.418,4977.9302632964,156.167984,0,0.60080710584,0,0,-0.671082,220, -0.9, 2.5,0,0,1024,1024,1024,1024,219.7,-90,96,3.891,3.903,3.89,3.909,3.912,3.907,19.343,78.8,14,Waypoint,
36.9937706,-119.1734736,4978.9145152964,157.152236,0,0.60080710584,21600,2018-06-13 18:19:33,18,0,23.418,4978.9145152964,157.152236,0,0.60080710584,0,0,-0.671082,220.1, -1.2, 2.5,0,0,1024,1024,1024,1024,219.7,-90,96,3.891,3.903,3.89,3.909,3.912,3.907,19.343,78.8,14,Waypoint,
36.9937706,-119.1734736,4979.8987672964,158.136488,0,0.60080710584,21700,2018-06-13 18:19:33,18,0,23.418,4979.8987672964,158.136488,0,0.60080710584,0,0,-0.671082,220.2, -1.4, 2.6,0,0,1024,1024,1024,1024,219.7,-90,96,3.891,3.903,3.89,3.909,3.912,3.907,19.343,78.8,14,Waypoint,
36.9937706,-119.1734735,4980.8830192964,159.12074,0,0.62911419336,21800,2018-06-13 18:19:33,18,0,23.418,4980.8830192964,159.12074,0,0.62911419336,0,0,-0.671082,220.3, -1.6, 2.9,0,0,1024,1024,1024,1024,219.7,-90,96,3.891,3.903,3.89,3.909,3.912,3.907,19.343,78.8,14,Waypoint,
36.9937707,-119.1734734,4981.8672712964,160.104992,0,0.66654201608,21900,2018-06-13 18:19:33,18,0,23.418,4981.8672712964,160.104992,0,0.66654201608,0,0,-0.671082,220.3, -1.6, 2.9,0,0,1024,1024,1024,1024,219.7,-90,96,3.891,3.903,3.89,3.909,3.912,3.907,19.343,78.8,14,Waypoint,
36.9937707,-119.1734734,4982.8515232964,161.089244,0,0.66654201608,22000,2018-06-13 18:19:33,18,0,23.432,4982.8515232964,161.089244,0,0.66654201608,0,0,-0.671082,220.2, -1.5, 2.7,0,0,1024,1024,1024,1024,219.7,-90,96,3.898,3.903,3.887,3.916,3.914,3.904,19.48,78.8,14,Waypoint,
36.9937707,-119.1734734,4983.8357752964,162.073496,0,0.66654201608,22100,2018-06-13 18:19:33,18,0,23.432,4983.8357752964,162.073496,0,0.66654201608,0,0,-0.671082,220.1, -1.3, 2.6,0,0,1024,1024,1024,1024,219.7,-89.9,96,3.898,3.903,3.887,3.916,3.914,3.904,19.48,78.8,14,Waypoint,
36.9937708,-119.1734734,4984.8200272964,163.057748,0,0.67743768572,22200,2018-06-13 18:19:33,18,0,23.432,4984.8200272964,163.057748,0,0.67743768572,0,0,-0.671082,220, -1.1, 2.5,0,0,1024,1024,1024,1024,219.7,-89.9,96,3.898,3.903,3.887,3.916,3.914,3.904,19.48,78.8,14,Waypoint,
36.9937708,-119.1734733,4985.4761952964,163.713916,0,0.70507548188,22300,2018-06-13 18:19:33,18,0,23.432,4985.4761952964,163.713916,0,0.70507548188,0,0,-0.671082,219.9, -1.1, 2.5,0,0,1024,1024,1024,1024,219.7,-89.9,96,3.898,3.903,3.887,3.916,3.914,3.904,19.48,78.8,14,Waypoint,
36.9937708,-119.1734733,4986.4604472964,164.698168,0,0.70507548188,22500,2018-06-13 18:19:33,18,0,23.432,4986.4604472964,164.698168,0,0.70507548188,0,0,-0.671082,219.9, -1.3, 2.5,0,0,1024,1024,1024,1024,219.7,-89.9,96,3.898,3.903,3.887,3.916,3.914,3.904,19.48,78.8,14,Waypoint,
36.9937709,-119.1734733,4987.4446992964,165.68242,0,0.71724411744,22600,2018-06-13 18:19:34,18,0,23.432,4987.4446992964,165.68242,0,0.71724411744,0,0,-0.671082,219.9, -1.4, 2.7,0,0,1024,1024,1024,1024,219.7,-90,96,3.898,3.903,3.887,3.916,3.914,3.904,19.48,78.8,14,Waypoint,
36.9937709,-119.1734733,4988.4289512964,166.666672,0,0.71724411744,22700,2018-06-13 18:19:34,18,0,23.432,4988.4289512964,166.666672,0,0.71724411744,0,0,-0.671082,220, -1.4, 3,0,0,1024,1024,1024,1024,219.7,-89.9,96,3.898,3.903,3.887,3.916,3.914,3.904,19.48,78.8,14,Waypoint,
36.9937709,-119.1734733,4989.4132032964,167.650924,0,0.71724411744,22800,2018-06-13 18:19:34,18,0,23.432,4989.4132032964,167.650924,0,0.71724411744,0,0,-0.671082,220, -1.2, 3.1,0,0,1024,1024,1024,1024,219.7,-90,96,3.898,3.903,3.887,3.916,3.914,3.904,19.48,78.8,14,Waypoint,
36.9937709,-119.1734733,4990.3974552964,168.635176,0,0.71724411744,22900,2018-06-13 18:19:34,18,0,23.432,4990.3974552964,168.635176,0,0.71724411744,0,0,-0.671082,220.1, -1, 3.1,0,0,1024,1024,1024,1024,219.7,-90,96,3.898,3.903,3.887,3.916,3.914,3.904,19.48,78.8,14,Waypoint,
36.9937708,-119.1734733,4991.3817072964,169.619428,0,0.70507548188,23000,2018-06-13 18:19:34,18,0,23.432,4991.3817072964,169.619428,0,0.71724411744,0,0,-0.671082,220.1, -0.9, 3.1,0,0,1024,1024,1024,1024,219.7,-89.9,96,3.898,3.903,3.887,3.916,3.914,3.904,19.48,78.8,14,Waypoint,
36.9937708,-119.1734734,4992.3659592964,170.60368,0,0.67743768572,23100,2018-06-13 18:19:34,18,0,23.432,4992.3659592964,170.60368,0,0.71724411744,0,0,-0.671082,220.2, -0.7, 3.1,0,0,1024,1024,1024,1024,219.7,-89.9,96,3.898,3.903,3.887,3.916,3.914,3.904,19.48,78.8,14,Waypoint,
36.9937708,-119.1734734,4993.3502112964,171.587932,0,0.67743768572,23200,2018-06-13 18:19:34,18,0,23.432,4993.3502112964,171.587932,0,0.71724411744,0,0,-0.671082,220.2, -0.6, 3,0,0,1024,1024,1024,1024,219.7,-89.9,96,3.898,3.903,3.887,3.916,3.914,3.904,19.48,78.8,14,Waypoint,
36.9937708,-119.1734735,4994.3344632964,172.572184,0,0.64992784232,23300,2018-06-13 18:19:34,18,0,23.432,4994.3344632964,172.572184,0,0.71724411744,0,0,-0.671082,220.2, -0.5, 3,0,0,1024,1024,1024,1024,219.7,-89.9,96,3.898,3.903,3.887,3.916,3.914,3.904,19.48,78.8,14,Waypoint,
36.9937708,-119.1734735,4995.3187152964,173.556436,0,0.64992784232,23400,2018-06-13 18:19:34,18,0,23.432,4995.3187152964,173.556436,0,0.71724411744,0,0,-0.671082,220.2, -0.4, 2.9,0,0,1024,1024,1024,1024,219.7,-89.9,96,3.898,3.903,3.887,3.916,3.914,3.904,19.48,78.8,14,Waypoint,
36.9937708,-119.1734736,4996.3029672964,174.540688,0,0.62256891756,23500,2018-06-13 18:19:34,18,0,23.432,4996.3029672964,174.540688,0,0.71724411744,0,0,-0.671082,220.3, -0.4, 3,0,0,1024,1024,1024,1024,219.7,-89.9,96,3.898,3.903,3.887,3.916,3.914,3.904,19.48,78.8,14,Waypoint,
36.9937707,-119.1734736,4997.6153032964,175.853024,0,0.6106955576,23600,2018-06-13 18:19:35,18,0,23.432,4997.6153032964,175.853024,0,0.71724411744,0,0,-0.671082,220.3, -0.4, 2.9,0,0,1024,1024,1024,1024,219.7,-90,96,3.898,3.903,3.887,3.916,3.914,3.904,19.48,78.8,14,Waypoint,
36.9937707,-119.1734736,4998.5995552964,176.837276,0,0.6106955576,23700,2018-06-13 18:19:35,18,0,23.432,4998.5995552964,176.837276,0,0.71724411744,0,0,-0.671082,220.3, -0.5, 2.8,0,0,1024,1024,1024,1024,219.7,-90,96,3.898,3.903,3.887,3.916,3.914,3.904,19.48,78.8,14,Waypoint,
36.9937708,-119.1734736,4999.5838072964,177.821528,0,0.62256891756,23800,2018-06-13 18:19:35,18,0,23.432,4999.5838072964,177.821528,0,0.71724411744,0,0,-0.671082,220.2, -0.6, 2.8,0,0,1024,1024,1024,1024,219.7,-90,96,3.898,3.903,3.887,3.916,3.914,3.904,19.48,78.8,14,Waypoint,
36.9937708,-119.1734737,5001.5523112964,179.790032,0,0.59537731564,23900,2018-06-13 18:19:35,18,0,23.432,5001.5523112964,179.790032,0,0.71724411744,0,0,-0.671082,220.1, -0.7, 2.6,0,0,1024,1024,1024,1024,219.7,-89.9,96,3.898,3.903,3.887,3.916,3.914,3.904,19.48,78.8,14,Waypoint,
36.9937708,-119.1734737,5002.5365632964,180.774284,0,0.59537731564,24000,2018-06-13 18:19:35,18,0,23.304,5002.5365632964,180.774284,0,0.71724411744,0,0,-0.671082,220.1, -0.6, 2.7,0,0,1024,1024,1024,1024,219.7,-89.9,96,3.874,3.877,3.876,3.905,3.895,3.889,20.392,78.8,14,Waypoint,
36.9937707,-119.1734737,5003.5208152964,181.758536,0,0.58294949372,24100,2018-06-13 18:19:35,18,0,23.304,5003.5208152964,181.758536,0,0.71724411744,0,0,-0.671082,220.1, -0.5, 2.9,0,0,1024,1024,1024,1024,219.7,-89.9,96,3.874,3.877,3.876,3.905,3.895,3.889,20.392,78.8,14,Waypoint,
36.9937707,-119.1734737,5004.5050672964,182.742788,0,0.58294949372,24200,2018-06-13 18:19:35,18,0,23.304,5004.5050672964,182.742788,0,0.71724411744,0,0,-0.671082,220, -0.4, 3,0,0,1024,1024,1024,1024,219.7,-89.9,96,3.874,3.877,3.876,3.905,3.895,3.889,20.392,78.8,14,Waypoint,
36.9937706,-119.1734737,5005.4893192964,183.72704,0,0.57258203932,24300,2018-06-13 18:19:35,18,0,23.304,5005.4893192964,183.72704,0,0.71724411744,0,0,-0.671082,220.1, -0.2, 3.1,0,0,1024,1024,1024,1024,219.7,-89.9,96,3.874,3.877,3.876,3.905,3.895,3.889,20.392,78.8,14,Waypoint,
36.9937706,-119.1734737,5006.4735712964,184.711292,0,0.57258203932,24400,2018-06-13 18:19:35,18,0,23.304,5006.4735712964,184.711292,0,0.71724411744,0,0,-0.671082,220.1, 0, 3.4,0,0,1024,1024,1024,1024,219.7,-89.9,96,3.874,3.877,3.876,3.905,3.895,3.889,20.392,78.8,14,Waypoint,
36.9937705,-119.1734738,5008.4420752964,186.679796,0,0.5358267888,24600,2018-06-13 18:19:36,18,0,23.304,5008.4420752964,186.679796,0,0.71724411744,0,0,-0.671082,220.3, 0, 3.4,0,0,1024,1024,1024,1024,219.7,-89.9,96,3.874,3.877,3.876,3.905,3.895,3.889,20.392,78.8,14,Waypoint,
36.9937704,-119.1734738,5009.4263272964,187.664048,0,0.52958006944,24700,2018-06-13 18:19:36,18,0,23.304,5009.4263272964,187.664048,0,0.71724411744,0,0,-0.671082,220.4, -0.1, 3.4,0,0,1024,1024,1024,1024,219.7,-89.9,96,3.874,3.877,3.876,3.905,3.895,3.889,20.392,78.8,14,Waypoint,
36.9937704,-119.1734738,5010.4105792964,188.6483,0,0.52958006944,24800,2018-06-13 18:19:36,18,0,23.304,5010.4105792964,188.6483,0,0.71724411744,0,0,-0.671082,220.5, -0.2, 3.6,0,0,1024,1024,1024,1024,219.7,-90,96,3.874,3.877,3.876,3.905,3.895,3.889,20.392,78.8,14,Waypoint,
36.9937704,-119.1734738,5011.3948312964,189.632552,0,0.52958006944,24900,2018-06-13 18:19:36,18,0,23.304,5011.3948312964,189.632552,0,0.71724411744,0,0,-0.671082,220.6, -0.3, 3.5,0,0,1024,1024,1024,1024,219.7,-89.9,96,3.874,3.877,3.876,3.905,3.895,3.889,20.392,78.8,14,Waypoint,
36.9937704,-119.1734738,5012.3790832964,190.616804,0,0.52958006944,25000,2018-06-13 18:19:36,18,0,23.338,5012.3790832964,190.616804,0,0.71724411744,0,0,-0.671082,220.5, 0, 3.3,0,0,1024,1024,1024,1024,219.7,-89.9,95,3.882,3.887,3.873,3.905,3.903,3.884,19.586,78.8,14,Waypoint,
36.9937704,-119.1734739,5013.3633352964,191.601056,0,0.50073492416,25100,2018-06-13 18:19:36,19,0,23.338,5013.3633352964,191.601056,0,0.71724411744,0,0,-0.671082,220.4, 0.3, 3,0,0,1024,1024,1024,1024,219.7,-89.9,95,3.882,3.887,3.873,3.905,3.903,3.884,19.586,78.8,14,Waypoint,
36.9937704,-119.173474,5014.3475872964,192.585308,0,0.47192586812,25200,2018-06-13 18:19:36,19,0,23.338,5014.3475872964,192.585308,0,0.71724411744,0,0,-0.671082,220.1, 0.3, 2.8,0,0,1024,1024,1024,1024,219.7,-89.9,95,3.882,3.887,3.873,3.905,3.903,3.884,19.586,78.8,14,Waypoint,
36.9937704,-119.1734741,5015.3318392964,193.56956,0,0.44315618216,25400,2018-06-13 18:19:36,19,0,23.338,5015.3318392964,193.56956,0,0.71724411744,0,0,-0.671082,219.9, 0.3, 2.6,0,0,1024,1024,1024,1024,219.7,-89.9,95,3.882,3.887,3.873,3.905,3.903,3.884,19.586,78.8,14,Waypoint,
36.9937704,-119.1734741,5016.3160912964,194.553812,0,0.44315618216,25500,2018-06-13 18:19:36,19,0,23.338,5016.3160912964,194.553812,0,0.71724411744,0,0,-0.671082,219.8, 0.2, 2.4,0,0,1024,1024,1024,1024,219.7,-89.9,95,3.882,3.887,3.873,3.905,3.903,3.884,19.586,78.8,14,Waypoint,
36.9937704,-119.1734741,5017.3003432964,195.538064,0,0.44315618216,25600,2018-06-13 18:19:37,19,0,23.338,5017.3003432964,195.538064,0,0.71724411744,0,0,-0.671082,219.8, 0, 2.2,0,0,1024,1024,1024,1024,219.7,-89.9,95,3.882,3.887,3.873,3.905,3.903,3.884,19.586,78.8,14,Waypoint,
36.9937705,-119.1734742,5018.2845952964,196.522316,0,0.42239502664,25700,2018-06-13 18:19:37,19,0,23.338,5018.2845952964,196.522316,0,0.71724411744,0,0,-0.671082,219.8, -0.3, 2.3,0,0,1024,1024,1024,1024,219.7,-90,95,3.882,3.887,3.873,3.905,3.903,3.884,19.586,78.8,14,Waypoint,
36.9937705,-119.1734742,5019.2688472964,197.506568,0,0.42239502664,25800,2018-06-13 18:19:37,19,0,23.338,5019.2688472964,197.506568,0,0.71724411744,0,0,-0.671082,219.8, -0.6, 2.1,0,0,1024,1024,1024,1024,219.7,-90,95,3.882,3.887,3.873,3.905,3.903,3.884,19.586,78.8,14,Waypoint,
36.9937705,-119.1734743,5020.2530992964,198.49082,0,0.3943241596,25900,2018-06-13 18:19:37,19,0,23.338,5020.2530992964,198.49082,0,0.71724411744,0,0,-0.671082,219.9, -0.7, 2,0,0,1024,1024,1024,1024,219.7,-90,95,3.882,3.887,3.873,3.905,3.903,3.884,19.586,78.8,14,Waypoint,
36.9937706,-119.1734743,5022.2216032964,200.459324,0,0.40596457992,26000,2018-06-13 18:19:37,19,0,23.338,5022.2216032964,200.459324,0,0.71724411744,0,0,-0.671082,220.1, -0.7, 2.3,0,0,1024,1024,1024,1024,219.7,-90,95,3.882,3.887,3.873,3.905,3.903,3.884,19.586,78.8,14,Waypoint,
36.9937706,-119.1734744,5024.1901072964,202.427828,0,0.37891733496,26200,2018-06-13 18:19:37,19,0,23.338,5024.1901072964,202.427828,0,0.71724411744,0,0,-0.671082,220.1, -0.7, 2.1,0,0,1024,1024,1024,1024,219.7,-90,95,3.882,3.887,3.873,3.905,3.903,3.884,19.586,78.8,14,Waypoint,
36.9937708,-119.1734745,5027.1428632964,205.380584,0,0.38816274208,26500,2018-06-13 18:19:37,19,0,23.338,5027.1428632964,205.380584,0,0.71724411744,0,0,-0.671082,220.2, -0.8, 1.5,0,0,1024,1024,1024,1024,219.7,-90,95,3.882,3.887,3.873,3.905,3.903,3.884,19.586,78.8,14,Waypoint,
36.9937708,-119.1734746,5028.1271152964,206.364836,0,0.36447179644,26600,2018-06-13 18:19:38,19,0,23.338,5028.1271152964,206.364836,0,0.71724411744,0,0,-0.671082,220.2, -0.7, 1.6,0,0,1024,1024,1024,1024,219.7,-90,95,3.882,3.887,3.873,3.905,3.903,3.884,19.586,78.8,14,Waypoint,
36.9937708,-119.1734746,5029.4394512964,207.677172,0,0.36447179644,26700,2018-06-13 18:19:38,19,0,23.338,5029.4394512964,207.677172,0,0.71724411744,0,0,-0.671082,220.2, -0.5, 1.5,0,0,1024,1024,1024,1024,219.7,-89.9,95,3.882,3.887,3.873,3.905,3.903,3.884,19.586,78.8,14,Waypoint,
