Latitude, Longitude, Altitude (m), Time, Sats, Speed (m/s), Range (m), Battery (%), Roll (deg), Pitch (deg), Yaw (deg), Images, HD Signal (%), RC Signal (%), Battery Temp (C), Battery Voltage (mV), Battery Current (mA), Battery Energy (mAh), Battery Capacity (mAh), Battery Discharges, flyState, timestamp (Unix), LastUpdate (ms), radioChannel, Rc_elevator, Rc_aileron, Rc_throttle, Rc_rudder, Rc_gyro, Dronetype, Battery_Cell1 (mV), Battery_Cell2 (mV), Battery_Cell3 (mV), Battery_Cell4 (mV), Battery_Cell5 (mV), Battery_Cell6 (mV), Video, isFlying, elapsedTime (ms), gimbalPitch (deg), gimbalRoll (deg), gimbalYaw (deg), VelocityX (m/s), VelocityY (m/s), VelocityZ (m/s), GroundSmear (cm), App Version, Aircraft Name, Aircraft Firmware, Aircraft Serial Number, Battery Serial Number, Battery Lifetime (%), App_Tip, App_Warning, CurrentFlightStartingIndex, CurrentFlightLastVisitedWaypoint, PreviousFlightEndingWaypointIndex
36.9937945, -119.1734912, 0.000, 10:44:55.661, 15, 0.00, 0.11, 97, 0.500, 0.800, -57.200, 2, 100, 100, 31, 25363, -2934, 5215, 5377, 17, 11, 1528911895.661, 8, 0, 1024, 1024, 1024, 1024, 0, 6, 4218, 4230, 4272, 4277, 4101, 4189, 0, 1, 3101, -90.000, 0.000, -57.800, 0.000, 0.000, -0.200, 0.0, MapPilot_2.8.1_04242018, Dendroctonus I, 1.3.1.00, 041DDC1887, 1058163200505, 96, DJI_0001.jpg, Starting Mission from Lat/Long: 36.99380/-119.17350 Camera: Zenmuse X3 - Overlap: 90/90 - Active Connection: No, 0, 0, 0
36.9937945, -119.1734912, 0.000, 10:44:55.761, 15, 0.00, 0.11, 97, 0.500, 0.800, -57.200, 2, 100, 100, 31, 25363, -2934, 5215, 5377, 17, 11, 1528911895.761, 108, 0, 1024, 1024, 1024, 1024, 0, 6, 4218, 4230, 4272, 4277, 4101, 4189, 0, 1, 3201, -90.000, 0.000, -57.800, 0.000, 0.000, -0.200, 0.0, , , , , , 96, , , 0, 0, 0
36.9937946, -119.1734911, 0.000, 10:44:55.861, 15, 0.00, 0.11, 97, 0.100, 0.500, -57.200, 2, 100, 100, 31, 25363, -2934, 5215, 5377, 17, 11, 1528911895.861, 86, 0, 1024, 1024, 1024, 1024, 0, 6, 4218, 4230, 4272, 4277, 4101, 4189, 0, 1, 3301, -89.900, 0.000, -57.800, 0.000, 0.000, -0.400, 0.0, , , , , , 96, , , 0, 0, 0
36.9937946, -119.1734910, 0.000, 10:44:55.961, 15, 0.00, 0.11, 97, 0.000, 0.400, -57.200, 2, 100, 100, 31, 25363, -2934, 5215, 5377, 17, 11, 1528911895.961, 87, 0, 1024, 1024, 1024, 1024, 0, 6, 4218, 4230, 4272, 4277, 4101, 4189, 0, 1, 3400, -89.900, 0.000, -57.800, 0.000, 0.000, -0.400, 0.0, , , , , , 96, , , 0, 0, 0
36.9937946, -119.1734910, 0.100, 10:44:56.061, 16, 0.00, 0.12, 97, 0.100, 0.200, -57.300, 2, 100, 100, 31, 25363, -2934, 5215, 5377, 17, 11, 1528911896.061, 79, 0, 1024, 1024, 1024, 1024, 0, 6, 4218, 4230, 4272, 4277, 4101, 4189, 0, 1, 3501, -89.900, 0.000, -57.800, 0.000, 0.000, -0.400, 0.0, , , , , , 96, , , 0, 0, 0
36.9937946, -119.1734909, 0.100, 10:44:56.161, 16, 0.00, 0.12, 97, 0.000, 0.100, -57.400, 2, 100, 100, 31, 25348, -4006, 5215, 5377, 17, 11, 1528911896.161, 83, 0, 1024, 1024, 1024, 1024, 0, 6, 4189, 4189, 4200, 4214, 4201, 4195, 0, 1, 3601, -90.000, 0.000, -57.800, 0.000, 0.000, -0.400, 0.0, , , , , , 96, , , 0, 0, 0
36.9937946, -119.1734909, 0.200, 10:44:56.260, 16, 0.00, 0.12, 97, -0.200, 0.000, -57.500, 2, 100, 100, 31, 25348, -4006, 5215, 5377, 17, 11, 1528911896.260, 77, 0, 1024, 1024, 1024, 1024, 0, 6, 4189, 4189, 4200, 4214, 4201, 4195, 0, 1, 3700, -89.900, 0.000, -57.800, 0.000, 0.000, -0.400, 0.0, , , , , , 96, , , 0, 0, 0
36.9937947, -119.1734908, 0.200, 10:44:56.361, 16, 0.00, 0.12, 97, -0.400, 0.000, -57.500, 2, 100, 100, 31, 25348, -4006, 5215, 5377, 17, 11, 1528911896.361, 79, 0, 1024, 1024, 1024, 1024, 0, 6, 4189, 4189, 4200, 4214, 4201, 4195, 0, 1, 3801, -90.000, 0.000, -57.800, 0.000, 0.000, -0.400, 0.0, , , , , , 96, , , 0, 0, 0
36.9937947, -119.1734908, 0.300, 10:44:56.461, 16, 0.00, 0.12, 97, -0.600, -0.100, -57.500, 2, 100, 100, 31, 25348, -4006, 5215, 5377, 17, 11, 1528911896.461, 70, 0, 1024, 1024, 1024, 1024, 0, 6, 4189, 4189, 4200, 4214, 4201, 4195, 0, 1, 3900, -89.900, 0.000, -57.800, 0.000, 0.000, -0.400, 0.0, , , , , , 96, , , 0, 0, 0
36.9937947, -119.1734908, 0.300, 10:44:56.561, 16, 0.00, 0.12, 97, -0.700, 0.000, -57.500, 2, 100, 100, 31, 25348, -4006, 5215, 5377, 17, 11, 1528911896.561, 65, 0, 1024, 1024, 1024, 1024, 0, 6, 4189, 4189, 4200, 4214, 4201, 4195, 0, 1, 4001, -89.900, 0.000, -57.800, 0.000, 0.000, -0.400, 0.0, , , , , , 96, , , 0, 0, 0
36.9937948, -119.1734907, 0.400, 10:44:56.661, 16, 0.00, 0.11, 97, -0.800, 0.000, -57.500, 2, 100, 100, 31, 25348, -4006, 5215, 5377, 17, 11, 1528911896.661, 57, 0, 1024, 1024, 1024, 1024, 0, 6, 4189, 4189, 4200, 4214, 4201, 4195, 0, 1, 4101, -89.900, 0.000, -57.800, 0.000, 0.000, -0.400, 0.0, , , , , , 96, , , 0, 0, 0
36.9937948, -119.1734907, 0.400, 10:44:56.760, 16, 0.00, 0.11, 97, -0.900, 0.000, -57.500, 2, 100, 100, 31, 25348, -4006, 5215, 5377, 17, 11, 1528911896.761, 45, 0, 1024, 1024, 1024, 1024, 0, 6, 4189, 4189, 4200, 4214, 4201, 4195, 0, 1, 4200, -89.900, 0.000, -57.800, 0.000, 0.000, -0.400, 0.0, , , , , , 96, , , 0, 0, 0
36.9937948, -119.1734907, 0.500, 10:44:56.861, 16, 0.00, 0.11, 97, -1.000, 0.000, -57.500, 2, 100, 100, 31, 25348, -4006, 5215, 5377, 17, 11, 1528911896.861, 51, 0, 1024, 1024, 1024, 1024, 0, 6, 4189, 4189, 4200, 4214, 4201, 4195, 0, 1, 4300, -89.900, 0.000, -57.800, 0.000, 0.000, -0.500, 0.0, , , , , , 96, , , 0, 0, 0
36.9937949, -119.1734907, 0.500, 10:44:56.960, 16, 0.00, 0.11, 97, -0.900, 0.000, -57.500, 2, 100, 100, 31, 25348, -4006, 5215, 5377, 17, 11, 1528911896.960, 47, 0, 1024, 1024, 1024, 1024, 0, 6, 4189, 4189, 4200, 4214, 4201, 4195, 0, 1, 4400, -89.900, 0.000, -57.800, 0.000, 0.000, -0.400, 0.0, , , , , , 96, , , 0, 0, 0
36.9937949, -119.1734907, 0.600, 10:44:57.061, 16, 0.00, 0.11, 97, -0.800, 0.000, -57.600, 2, 100, 100, 31, 25348, -4006, 5215, 5377, 17, 11, 1528911897.061, 38, 0, 1024, 1024, 1024, 1024, 0, 6, 4189, 4189, 4200, 4214, 4201, 4195, 0, 1, 4500, -89.900, 0.000, -57.800, 0.000, 0.000, -0.400, 0.0, , , , , , 96, , , 0, 0, 0
36.9937949, -119.1734907, 0.600, 10:44:57.161, 16, 0.00, 0.11, 97, -0.800, 0.000, -57.600, 2, 100, 100, 31, 24475, -14643, 5215, 5377, 17, 11, 1528911897.161, 31, 0, 1024, 1024, 1024, 1024, 0, 6, 4056, 4063, 4068, 4094, 4093, 4067, 0, 1, 4600, -89.900, 0.000, -57.800, 0.000, 0.000, -0.500, 0.0, , , , , , 96, , , 0, 0, 0
36.9937949, -119.1734907, 0.700, 10:44:57.261, 15, 0.00, 0.11, 97, -0.700, 0.000, -57.500, 2, 100, 100, 31, 24475, -14643, 5215, 5377, 17, 11, 1528911897.261, 36, 0, 1024, 1024, 1024, 1024, 0, 6, 4056, 4063, 4068, 4094, 4093, 4067, 0, 1, 4700, -89.900, 0.000, -57.800, 0.000, 0.000, -0.400, 0.0, , , , , , 96, , , 0, 0, 0
36.9937950, -119.1734907, 0.700, 10:44:57.361, 15, 0.00, 0.10, 97, -0.600, 0.100, -57.500, 2, 100, 100, 31, 24475, -14643, 5215, 5377, 17, 11, 1528911897.361, 36, 0, 1024, 1024, 1024, 1024, 0, 6, 4056, 4063, 4068, 4094, 4093, 4067, 0, 1, 4800, -89.900, 0.000, -57.800, 0.000, 0.000, -0.500, 0.0, , , , , , 96, , , 0, 0, 0
36.9937950, -119.1734907, 0.800, 10:44:57.461, 16, 0.00, 0.10, 97, -0.700, 0.100, -57.500, 2, 100, 100, 31, 24475, -14643, 5215, 5377, 17, 11, 1528911897.461, 26, 0, 1024, 1024, 1024, 1024, 0, 6, 4056, 4063, 4068, 4094, 4093, 4067, 0, 1, 4900, -89.900, 0.000, -57.800, 0.000, 0.000, -0.500, 0.0, , , , , , 96, , , 0, 0, 0
36.9937950, -119.1734907, 0.900, 10:44:57.561, 16, 0.00, 0.10, 97, -0.900, 0.100, -57.400, 2, 100, 100, 31, 24475, -14643, 5215, 5377, 17, 6, 1528911897.561, 27, 0, 1024, 1024, 1024, 1024, 0, 6, 4056, 4063, 4068, 4094, 4093, 4067, 0, 1, 5000, -89.900, 0.000, -57.800, 0.000, 0.000, -0.400, 0.0, , , , , , 96, , , 0, 0, 0
36.9937950, -119.1734907, 0.900, 10:44:57.661, 16, 0.00, 0.10, 97, -1.000, 0.100, -57.400, 2, 100, 100, 31, 24475, -14643, 5215, 5377, 17, 14, 1528911897.661, 21, 0, 1024, 1024, 1024, 1024, 0, 6, 4056, 4063, 4068, 4094, 4093, 4067, 0, 1, 5100, -89.900, 0.000, -57.800, 0.000, 0.000, -0.400, 0.0, , , , , , 96, , , 0, 0, 0
36.9937950, -119.1734908, 0.900, 10:44:57.764, 15, 0.00, 0.09, 97, -0.800, 0.300, -57.400, 2, 100, 100, 31, 24475, -14643, 5215, 5377, 17, 14, 1528911897.764, 3, 0, 1024, 1024, 1024, 1024, 0, 6, 4056, 4063, 4068, 4094, 4093, 4067, 0, 1, 5203, -89.900, 0.000, -57.800, 0.000, 0.000, -0.300, 0.0, , , , , , 96, , , 0, 0, 0
36.9937950, -119.1734909, 1.000, 10:44:57.861, 15, 0.00, 0.09, 97, -0.500, 0.600, -57.300, 2, 100, 100, 31, 24475, -14643, 5215, 5377, 17, 14, 1528911897.861, 12, 0, 1024, 1024, 1024, 1024, 0, 6, 4056, 4063, 4068, 4094, 4093, 4067, 0, 1, 5300, -89.900, 0.000, -57.800, 0.000, 0.000, -0.200, 0.0, , , , , , 96, , , 0, 0, 0
36.9937950, -119.1734909, 1.000, 10:44:57.961, 15, 0.00, 0.09, 97, -0.500, 0.600, -57.300, 2, 100, 100, 31, 24475, -14643, 5215, 5377, 17, 14, 1528911897.961, 112, 0, 1024, 1024, 1024, 1024, 0, 6, 4056, 4063, 4068, 4094, 4093, 4067, 0, 1, 5400, -89.900, 0.000, -57.800, 0.000, 0.000, -0.200, 0.0, , , , , , 96, , , 0, 0, 0
36.9937950, -119.1734909, 1.000, 10:44:58.061, 14, 0.00, 0.09, 97, -0.300, 0.700, -57.300, 2, 100, 100, 31, 24475, -14643, 5215, 5377, 17, 14, 1528911898.061, 83, 0, 1024, 1024, 1024, 1024, 0, 6, 4056, 4063, 4068, 4094, 4093, 4067, 0, 1, 5500, -89.900, 0.000, -57.800, 0.000, 0.000, -0.200, 0.0, , , , , , 96, , , 0, 0, 0
36.9937950, -119.1734909, 1.000, 10:44:58.161, 14, 0.00, 0.09, 97, -0.200, 0.800, -57.300, 2, 100, 100, 31, 24288, -16445, 5215, 5377, 17, 14, 1528911898.161, 86, 0, 1024, 1024, 1024, 1024, 0, 6, 4033, 4031, 4035, 4066, 4063, 4034, 0, 1, 5600, -89.900, 0.000, -57.800, 0.000, 0.000, -0.300, 0.0, , , , , , 96, , , 0, 0, 0
36.9937950, -119.1734909, 1.000, 10:44:58.261, 15, 0.00, 0.09, 97, -0.200, 0.700, -57.300, 2, 100, 100, 31, 24288, -16445, 5215, 5377, 17, 14, 1528911898.261, 90, 0, 1024, 1024, 1024, 1024, 0, 6, 4033, 4031, 4035, 4066, 4063, 4034, 0, 1, 5700, -89.900, 0.000, -57.800, 0.000, 0.000, -0.500, 0.0, , , , , , 96, , , 0, 0, 0
36.9937950, -119.1734909, 1.100, 10:44:58.361, 15, 0.00, 0.09, 97, -0.200, 0.600, -57.300, 2, 100, 100, 31, 24288, -16445, 5215, 5377, 17, 14, 1528911898.361, 81, 0, 1024, 1024, 1024, 1024, 0, 6, 4033, 4031, 4035, 4066, 4063, 4034, 0, 1, 5800, -89.900, 0.000, -57.800, 0.000, 0.000, -0.700, 0.0, , , , , , 96, , , 0, 0, 0
36.9937950, -119.1734909, 1.200, 10:44:58.460, 15, 0.00, 0.09, 97, -0.200, 0.500, -57.300, 2, 100, 100, 31, 24288, -16445, 5215, 5377, 17, 14, 1528911898.461, 86, 0, 1024, 1024, 1024, 1024, 0, 6, 4033, 4031, 4035, 4066, 4063, 4034, 0, 1, 5900, -89.900, 0.000, -57.800, 0.000, 0.000, -0.800, 0.0, , , , , , 96, , , 0, 0, 0
36.9937949, -119.1734909, 1.300, 10:44:58.561, 15, 0.00, 0.09, 97, -0.200, 0.300, -57.200, 2, 100, 100, 31, 24288, -16445, 5215, 5377, 17, 14, 1528911898.561, 88, 0, 1024, 1024, 1024, 1024, 0, 6, 4033, 4031, 4035, 4066, 4063, 4034, 0, 1, 6000, -90.000, 0.000, -57.800, 0.000, 0.000, -1.100, 0.0, , , , , , 96, , , 0, 0, 0
36.9937948, -119.1734909, 1.400, 10:44:58.661, 15, 0.00, 0.10, 97, -0.100, 0.100, -57.200, 2, 100, 100, 31, 24288, -16445, 5215, 5377, 17, 14, 1528911898.661, 85, 0, 1024, 1024, 1024, 1024, 0, 6, 4033, 4031, 4035, 4066, 4063, 4034, 0, 1, 6100, -89.900, 0.000, -57.800, 0.000, 0.000, -1.300, 0.0, , , , , , 96, , , 0, 0, 0
36.9937948, -119.1734909, 1.600, 10:44:58.761, 15, 0.00, 0.10, 97, 0.000, 0.000, -57.200, 2, 100, 100, 31, 24288, -16445, 5215, 5377, 17, 14, 1528911898.761, 64, 0, 1024, 1024, 1024, 1024, 0, 6, 4033, 4031, 4035, 4066, 4063, 4034, 0, 1, 6200, -90.000, 0.000, -57.800, 0.000, 0.000, -1.500, 0.0, , , , , , 96, , , 0, 0, 0
36.9937947, -119.1734909, 1.700, 10:44:58.861, 16, 0.00, 0.11, 97, 0.000, 0.000, -57.200, 2, 100, 100, 31, 24288, -16445, 5215, 5377, 17, 14, 1528911898.861, 60, 0, 1024, 1024, 1024, 1024, 0, 6, 4033, 4031, 4035, 4066, 4063, 4034, 0, 1, 6300, -89.900, 0.000, -57.800, 0.000, 0.000, -1.700, 0.0, , , , , , 96, , , 0, 0, 0
36.9937946, -119.1734908, 1.900, 10:44:58.961, 16, 0.00, 0.13, 97, 0.200, 0.000, -57.200, 2, 100, 100, 31, 24288, -16445, 5215, 5377, 17, 14, 1528911898.961, 60, 0, 1024, 1024, 1024, 1024, 0, 6, 4033, 4031, 4035, 4066, 4063, 4034, 0, 1, 6400, -90.000, 0.000, -57.800, 0.000, 0.000, -1.900, 0.0, , , , , , 96, , , 0, 0, 0
36.9937944, -119.1734908, 2.100, 10:44:59.061, 15, 0.00, 0.14, 97, 0.700, 0.000, -57.200, 2, 100, 100, 31, 24288, -16445, 5215, 5377, 17, 14, 1528911899.061, 63, 0, 1024, 1024, 1024, 1024, 0, 6, 4033, 4031, 4035, 4066, 4063, 4034, 0, 1, 6500, -89.900, 0.000, -57.800, 0.000, 0.000, -2.000, 0.0, , , , , , 96, , , 0, 0, 0
36.9937943, -119.1734909, 2.300, 10:44:59.161, 15, 0.00, 0.15, 97, 0.900, -0.100, -57.200, 2, 100, 100, 31, 24424, -15947, 5215, 5377, 17, 14, 1528911899.161, 54, 0, 1024, 1024, 1024, 1024, 0, 6, 4092, 4031, 3989, 4078, 4049, 4015, 0, 1, 6600, -90.000, 0.000, -57.800, 0.000, 0.000, -2.200, 0.0, , , , , , 96, , , 0, 0, 0
36.9937943, -119.1734909, 2.600, 10:44:59.261, 15, 0.00, 0.15, 97, 0.600, -0.200, -57.200, 2, 100, 100, 31, 24424, -15947, 5215, 5377, 17, 14, 1528911899.261, 61, 0, 1024, 1024, 1024, 1024, 0, 6, 4092, 4031, 3989, 4078, 4049, 4015, 0, 1, 6700, -90.000, 0.000, -57.800, 0.000, 0.000, -2.500, 0.0, , , , , , 96, , , 0, 0, 0
36.9937943, -119.1734910, 2.800, 10:44:59.361, 15, 0.00, 0.15, 97, 0.000, -0.100, -57.300, 2, 100, 100, 31, 24424, -15947, 5215, 5377, 17, 14, 1528911899.361, 53, 0, 1024, 1024, 1024, 1024, 0, 6, 4092, 4031, 3989, 4078, 4049, 4015, 0, 1, 6800, -89.900, 0.000, -57.800, 0.000, 0.000, -2.700, 0.0, , , , , , 96, , , 0, 0, 0
36.9937943, -119.1734911, 3.100, 10:44:59.461, 15, 0.00, 0.14, 97, -0.200, 0.100, -57.400, 2, 100, 100, 31, 24424, -15947, 5215, 5377, 17, 14, 1528911899.461, 29, 0, 1024, 1024, 1024, 1024, 0, 6, 4092, 4031, 3989, 4078, 4049, 4015, 0, 1, 6900, -89.900, 0.000, -57.800, 0.000, 0.000, -2.900, 0.0, , , , , , 96, , , 0, 0, 0
36.9937943, -119.1734912, 3.400, 10:44:59.561, 15, 0.00, 0.14, 97, -0.100, 0.500, -57.400, 2, 100, 100, 31, 24424, -15947, 5215, 5377, 17, 14, 1528911899.561, 44, 0, 1024, 1024, 1024, 1024, 0, 6, 4092, 4031, 3989, 4078, 4049, 4015, 0, 1, 7000, -89.900, 0.000, -57.800, 0.000, 0.000, -3.000, 0.0, , , , , , 96, , , 0, 0, 0
36.9937943, -119.1734913, 3.700, 10:44:59.661, 14, 0.00, 0.13, 97, 0.000, 0.600, -57.400, 2, 100, 100, 31, 24424, -15947, 5215, 5377, 17, 14, 1528911899.661, 46, 0, 1024, 1024, 1024, 1024, 0, 6, 4092, 4031, 3989, 4078, 4049, 4015, 0, 1, 7100, -89.900, 0.000, -57.800, 0.000, 0.000, -3.100, 0.0, , , , , , 96, , , 0, 0, 0
36.9937943, -119.1734914, 4.100, 10:44:59.761, 14, 0.00, 0.13, 97, 0.100, 0.700, -57.500, 2, 100, 100, 31, 24424, -15947, 5215, 5377, 17, 14, 1528911899.761, 21, 0, 1024, 1024, 1024, 1024, 0, 6, 4092, 4031, 3989, 4078, 4049, 4015, 0, 1, 7200, -89.900, 0.000, -57.800, 0.000, 0.000, -3.200, 0.0, , , , , , 96, , , 0, 0, 0
36.9937943, -119.1734914, 4.400, 10:44:59.861, 14, 0.00, 0.13, 97, 0.100, 0.600, -57.500, 2, 100, 100, 31, 24424, -15947, 5215, 5377, 17, 14, 1528911899.861, 13, 0, 1024, 1024, 1024, 1024, 0, 6, 4092, 4031, 3989, 4078, 4049, 4015, 0, 1, 7300, -89.900, 0.000, -57.800, 0.000, 0.000, -3.200, 0.0, , , , , , 96, , , 0, 0, 0
36.9937943, -119.1734914, 4.700, 10:44:59.961, 14, 0.00, 0.13, 97, 0.100, 0.500, -57.500, 2, 100, 100, 31, 24424, -15947, 5215, 5377, 17, 14, 1528911899.961, 26, 0, 1024, 1024, 1024, 1024, 0, 6, 4092, 4031, 3989, 4078, 4049, 4015, 0, 1, 7400, -89.900, 0.000, -57.800, 0.000, 0.000, -3.200, 0.0, , , , , , 96, , , 0, 0, 0
36.9937941, -119.1734911, 5.400, 10:45:00.061, 15, 0.00, 0.16, 97, 0.100, 0.000, -57.600, 2, 100, 100, 31, 24424, -15947, 5215, 5377, 17, 14, 1528911900.061, 26, 0, 1024, 1024, 1024, 1024, 0, 6, 4092, 4031, 3989, 4078, 4049, 4015, 0, 1, 7500, -90.000, 0.000, -57.800, 0.000, 0.000, -3.300, 0.0, , , , , , 96, , , 0, 0, 0
36.9937940, -119.1734910, 5.800, 10:45:00.161, 15, 0.00, 0.17, 97, 0.100, -0.400, -57.600, 2, 100, 100, 31, 23678, -24003, 5215, 5377, 17, 14, 1528911900.161, 10, 0, 1024, 1024, 1024, 1024, 0, 6, 4092, 4031, 3989, 4078, 4049, 4015, 0, 1, 7600, -90.000, 0.000, -57.800, 0.000, 0.000, -3.300, 0.0, , , , , , 96, , , 0, 0, 0
36.9937940, -119.1734909, 6.100, 10:45:00.261, 15, 0.00, 0.18, 97, 0.100, -0.700, -57.600, 2, 100, 100, 31, 23678, -24003, 5215, 5377, 17, 14, 1528911900.261, 5, 0, 1024, 1024, 1024, 1024, 0, 6, 4092, 4031, 3989, 4078, 4049, 4015, 0, 1, 7700, -90.000, 0.000, -57.800, 0.000, 0.000, -3.300, 0.0, , , , , , 96, , , 0, 0, 0
36.9937940, -119.1734909, 6.100, 10:45:00.361, 15, 0.00, 0.18, 97, 0.100, -0.700, -57.600, 2, 100, 100, 31, 23678, -24003, 5215, 5377, 17, 14, 1528911900.361, 105, 0, 1024, 1024, 1024, 1024, 0, 6, 4092, 4031, 3989, 4078, 4049, 4015, 0, 1, 7800, -90.000, 0.000, -57.800, 0.000, 0.000, -3.300, 0.0, , , , , , 96, , , 0, 0, 0
36.9937940, -119.1734909, 6.100, 10:45:00.461, 15, 0.00, 0.18, 97, 0.100, -0.700, -57.600, 2, 100, 100, 31, 23678, -24003, 5215, 5377, 17, 14, 1528911900.461, 205, 0, 1024, 1024, 1024, 1024, 0, 6, 4092, 4031, 3989, 4078, 4049, 4015, 0, 1, 7900, -90.000, 0.000, -57.800, 0.000, 0.000, -3.300, 0.0, , , , , , 96, , , 0, 0, 0
36.9937941, -119.1734906, 7.100, 10:45:00.562, 14, 0.00, 0.18, 97, 0.000, -0.500, -57.500, 2, 100, 100, 31, 23678, -24003, 5215, 5377, 17, 14, 1528911900.562, 2, 0, 1024, 1024, 1024, 1024, 0, 6, 4092, 4031, 3989, 4078, 4049, 4015, 0, 1, 8001, -89.900, 0.000, -57.800, 0.000, 0.000, -3.200, 0.0, , , , , , 96, , , 0, 0, 0
36.9937941, -119.1734906, 7.100, 10:45:00.661, 14, 0.00, 0.18, 97, 0.000, -0.500, -57.500, 2, 100, 100, 31, 23678, -24003, 5215, 5377, 17, 14, 1528911900.661, 101, 0, 1024, 1024, 1024, 1024, 0, 6, 3930, 3941, 3919, 3962, 3969, 3915, 0, 1, 8100, -89.900, 0.000, -57.800, 0.000, 0.000, -3.200, 0.0, , , , , , 96, , , 0, 0, 0
36.9937942, -119.1734905, 7.400, 10:45:00.761, 14, 0.00, 0.18, 97, -0.300, -0.300, -57.500, 2, 100, 97, 31, 23678, -24003, 5215, 5377, 17, 14, 1528911900.761, 93, 0, 1024, 1024, 1024, 1024, 0, 6, 3930, 3941, 3919, 3962, 3969, 3915, 0, 1, 8200, -89.900, 0.000, -57.800, 0.000, 0.000, -3.100, 0.0, , , , , , 96, , , 0, 0, 0
36.9937942, -119.1734904, 7.700, 10:45:00.860, 16, 0.00, 0.18, 97, -0.600, -0.300, -57.600, 2, 100, 97, 31, 23678, -24003, 5215, 5377, 17, 14, 1528911900.860, 81, 0, 1024, 1024, 1024, 1024, 0, 6, 3930, 3941, 3919, 3962, 3969, 3915, 0, 1, 8299, -90.000, 0.000, -57.800, 0.000, 0.000, -3.100, 0.0, , , , , , 96, , , 0, 0, 0
36.9937942, -119.1734903, 8.100, 10:45:00.961, 16, 0.00, 0.19, 97, -0.700, -0.400, -57.600, 2, 100, 97, 31, 23678, -24003, 5215, 5377, 17, 14, 1528911900.961, 79, 0, 1024, 1024, 1024, 1024, 0, 6, 3930, 3941, 3919, 3962, 3969, 3915, 0, 1, 8400, -90.000, 0.000, -57.800, 0.000, 0.000, -3.100, 0.0, , , , , , 96, , , 0, 0, 0
36.9937942, -119.1734902, 8.400, 10:45:01.061, 16, 0.00, 0.19, 97, -0.600, -0.300, -57.600, 2, 100, 97, 31, 23678, -24003, 5215, 5377, 17, 14, 1528911901.061, 78, 0, 1024, 1024, 1024, 1024, 0, 6, 3930, 3941, 3919, 3962, 3969, 3915, 0, 1, 8500, -89.900, 0.000, -57.800, 0.000, 0.000, -3.100, 0.0, , , , , , 96, , , 0, 0, 0
36.9937942, -119.1734901, 8.700, 10:45:01.161, 16, 0.00, 0.20, 97, -0.600, -0.300, -57.600, 2, 100, 97, 31, 23678, -24003, 5215, 5377, 17, 14, 1528911901.161, 71, 0, 1024, 1024, 1024, 1024, 0, 6, 3930, 3941, 3919, 3962, 3969, 3915, 0, 1, 8600, -89.900, 0.000, -57.800, 0.000, 0.000, -3.100, 0.0, , , , , , 96, , , 0, 0, 0
36.9937942, -119.1734899, 9.000, 10:45:01.261, 16, 0.00, 0.21, 97, -0.600, -0.400, -57.600, 2, 100, 97, 31, 23678, -24003, 5215, 5377, 17, 14, 1528911901.261, 65, 0, 1024, 1024, 1024, 1024, 0, 6, 3930, 3941, 3919, 3962, 3969, 3915, 0, 1, 8700, -89.900, 0.000, -57.800, 0.000, 0.000, -3.200, 0.0, , , , , , 96, , , 0, 0, 0
36.9937943, -119.1734898, 9.300, 10:45:01.361, 16, 0.00, 0.21, 97, -0.600, -0.600, -57.600, 2, 100, 97, 31, 23678, -24003, 5215, 5377, 17, 14, 1528911901.361, 71, 0, 1024, 1024, 1024, 1024, 0, 6, 3930, 3941, 3919, 3962, 3969, 3915, 0, 1, 8800, -90.000, 0.000, -57.800, 0.000, 0.000, -3.100, 0.0, , , , , , 96, , , 0, 0, 0
36.9937943, -119.1734897, 9.700, 10:45:01.461, 16, 0.00, 0.22, 97, -0.600, -0.700, -57.500, 2, 100, 97, 31, 23678, -24003, 5215, 5377, 17, 14, 1528911901.461, 70, 0, 1024, 1024, 1024, 1024, 0, 6, 3930, 3941, 3919, 3962, 3969, 3915, 0, 1, 8900, -90.000, 0.000, -57.800, 0.000, 0.000, -3.100, 0.0, , , , , , 96, , , 0, 0, 0
36.9937942, -119.1734897, 10.000, 10:45:01.561, 16, 0.00, 0.23, 97, -0.500, -0.700, -57.500, 2, 100, 97, 31, 23678, -24003, 5215, 5377, 17, 14, 1528911901.561, 41, 0, 1024, 1024, 1024, 1024, 0, 6, 3930, 3941, 3919, 3962, 3969, 3915, 0, 1, 9000, -89.900, 0.000, -57.800, 0.000, 0.000, -3.100, 0.0, , , , , , 96, , , 0, 0, 0
36.9937942, -119.1734896, 10.300, 10:45:01.661, 16, 0.00, 0.23, 97, -0.200, -0.700, -57.400, 2, 100, 97, 31, 23819, -19599, 5161, 5377, 17, 14, 1528911901.661, 55, 0, 1024, 1024, 1024, 1024, 0, 6, 3954, 3963, 3971, 4008, 4007, 3959, 0, 1, 9100, -89.900, 0.000, -57.800, 0.000, 0.000, -3.100, 0.0, , , , , , 96, , , 0, 0, 0
36.9937942, -119.1734895, 10.600, 10:45:01.761, 16, 0.00, 0.24, 97, -0.100, -0.700, -57.300, 2, 100, 95, 31, 23819, -19599, 5161, 5377, 17, 14, 1528911901.761, 58, 0, 1024, 1024, 1024, 1024, 0, 6, 3954, 3963, 3971, 4008, 4007, 3959, 0, 1, 9200, -90.000, 0.000, -57.800, 0.000, 0.000, -3.000, 0.0, , , , , , 96, , , 0, 0, 0
36.9937941, -119.1734894, 10.900, 10:45:01.861, 16, 0.00, 0.25, 97, -0.100, -0.700, -57.300, 2, 100, 95, 31, 23819, -19599, 5161, 5377, 17, 14, 1528911901.861, 26, 0, 1024, 1024, 1024, 1024, 0, 6, 3954, 3963, 3971, 4008, 4007, 3959, 0, 1, 9300, -90.000, 0.000, -57.800, 0.000, 0.000, -3.000, 0.0, , , , , , 96, , , 0, 0, 0
36.9937941, -119.1734894, 11.200, 10:45:01.961, 16, 0.00, 0.25, 97, -0.100, -0.700, -57.300, 2, 100, 95, 31, 23819, -19599, 5161, 5377, 17, 14, 1528911901.961, 35, 0, 1024, 1024, 1024, 1024, 0, 6, 3954, 3963, 3971, 4008, 4007, 3959, 0, 1, 9400, -90.000, 0.000, -57.800, 0.000, 0.000, -3.100, 0.0, , , , , , 96, , , 0, 0, 0
36.9937941, -119.1734894, 11.200, 10:45:02.061, 16, 0.00, 0.25, 97, -0.100, -0.700, -57.300, 2, 100, 95, 31, 23819, -19599, 5161, 5377, 17, 14, 1528911902.061, 135, 0, 1024, 1024, 1024, 1024, 0, 6, 3954, 3963, 3971, 4008, 4007, 3959, 0, 1, 9500, -90.000, 0.000, -57.800, 0.000, 0.000, -3.100, 0.0, , , , , , 96, , , 0, 0, 0
36.9937941, -119.1734894, 11.200, 10:45:02.161, 16, 0.00, 0.25, 96, -0.100, -0.700, -57.300, 2, 100, 95, 31, 23819, -19599, 5161, 5377, 17, 14, 1528911902.161, 235, 0, 1024, 1024, 1024, 1024, 0, 6, 3954, 3963, 3971, 4008, 4007, 3959, 0, 1, 9600, -90.000, 0.000, -57.800, 0.000, 0.000, -3.100, 0.0, , , , , , 96, , , 0, 0, 0
36.9937941, -119.1734894, 12.200, 10:45:02.261, 16, 0.00, 0.26, 96, -0.100, -0.600, -57.300, 2, 100, 94, 31, 23819, -19599, 5161, 5377, 17, 14, 1528911902.261, 23, 0, 1024, 1024, 1024, 1024, 0, 6, 3954, 3963, 3971, 4008, 4007, 3959, 0, 1, 9700, -89.900, 0.000, -57.800, 0.000, 0.000, -3.000, 0.0, , , , , , 96, , , 0, 0, 0
36.9937941, -119.1734894, 12.800, 10:45:02.361, 16, 0.00, 0.25, 96, 0.000, -0.200, -57.300, 2, 100, 94, 31, 23819, -19599, 5161, 5377, 17, 14, 1528911902.361, 10, 0, 1024, 1024, 1024, 1024, 0, 6, 3954, 3963, 3971, 4008, 4007, 3959, 0, 1, 9800, -89.900, 0.000, -57.800, 0.000, 0.000, -3.000, 0.0, , , , , , 96, , , 0, 0, 0
36.9937942, -119.1734894, 13.100, 10:45:02.460, 16, 0.00, 0.25, 96, -0.100, -0.100, -57.300, 2, 100, 94, 31, 23819, -19599, 5161, 5377, 17, 14, 1528911902.460, 10, 0, 1024, 1024, 1024, 1024, 0, 6, 3954, 3963, 3971, 4008, 4007, 3959, 0, 1, 9899, -89.900, 0.000, -57.800, 0.000, 0.000, -3.000, 0.0, , , , , , 96, , , 0, 0, 0
36.9937942, -119.1734894, 13.400, 10:45:02.561, 16, 0.00, 0.24, 96, -0.200, -0.100, -57.300, 2, 100, 94, 31, 23819, -19599, 5161, 5377, 17, 14, 1528911902.561, 16, 0, 1024, 1024, 1024, 1024, 0, 6, 3954, 3963, 3971, 4008, 4007, 3959, 0, 1, 10000, -89.900, 0.000, -57.800, 0.000, 0.000, -3.000, 0.0, , , , , , 96, , , 0, 0, 0
36.9937942, -119.1734894, 13.400, 10:45:02.661, 16, 0.00, 0.24, 96, -0.200, -0.100, -57.300, 2, 100, 94, 31, 23819, -19599, 5161, 5377, 17, 14, 1528911902.661, 116, 0, 1024, 1024, 1024, 1024, 0, 6, 3954, 3963, 3971, 4008, 4007, 3959, 0, 1, 10100, -89.900, 0.000, -57.800, 0.000, 0.000, -3.000, 0.0, , , , , , 96, , , 0, 0, 0
36.9937942, -119.1734895, 13.700, 10:45:02.761, 16, 0.00, 0.24, 96, -0.300, -0.100, -57.200, 2, 100, 95, 31, 23897, -18838, 5161, 5377, 17, 14, 1528911902.761, 97, 0, 1024, 1024, 1024, 1024, 0, 6, 3962, 3972, 3968, 4009, 4018, 3967, 0, 1, 10200, -89.900, 0.000, -57.800, 0.000, 0.000, -3.000, 0.0, , , , , , 96, , , 0, 0, 0
36.9937941, -119.1734895, 14.300, 10:45:02.863, 16, 0.00, 0.24, 96, -0.300, -0.100, -57.300, 2, 100, 95, 31, 23897, -18838, 5161, 5377, 17, 14, 1528911902.863, 3, 0, 1024, 1024, 1024, 1024, 0, 6, 3962, 3972, 3968, 4009, 4018, 3967, 0, 1, 10302, -89.900, 0.000, -57.800, 0.000, 0.000, -2.900, 0.0, , , , , , 96, , , 0, 0, 0
36.9937941, -119.1734895, 14.600, 10:45:02.962, 16, 0.00, 0.24, 96, -0.400, -0.300, -57.400, 2, 100, 95, 31, 23897, -18838, 5161, 5377, 17, 14, 1528911902.963, 1, 0, 1024, 1024, 1024, 1024, 0, 6, 3962, 3972, 3968, 4009, 4018, 3967, 0, 1, 10402, -90.000, 0.000, -57.800, 0.000, 0.000, -3.000, 0.0, , , , , , 96, , , 0, 0, 0
36.9937941, -119.1734895, 14.900, 10:45:03.068, 16, 0.00, 0.25, 96, -0.300, -0.400, -57.500, 2, 100, 95, 31, 23897, -18838, 5161, 5377, 17, 14, 1528911903.069, 1, 0, 1024, 1024, 1024, 1024, 0, 6, 3962, 3972, 3968, 4009, 4018, 3967, 0, 1, 10508, -90.000, 0.000, -57.800, 0.000, 0.000, -3.000, 0.0, , , , , , 96, , , 0, 0, 0
36.9937941, -119.1734895, 14.900, 10:45:03.161, 16, 0.00, 0.25, 96, -0.300, -0.400, -57.500, 2, 100, 95, 31, 23897, -18838, 5161, 5377, 17, 14, 1528911903.161, 93, 0, 1024, 1024, 1024, 1024, 0, 6, 3962, 3972, 3968, 4009, 4018, 3967, 0, 1, 10600, -90.000, 0.000, -57.800, 0.000, 0.000, -3.000, 0.0, , , , , , 96, , , 0, 0, 0
36.9937941, -119.1734895, 15.200, 10:45:03.261, 16, 0.00, 0.25, 96, -0.200, -0.500, -57.500, 2, 100, 94, 31, 23897, -18838, 5161, 5377, 17, 14, 1528911903.261, 95, 0, 1024, 1024, 1024, 1024, 0, 6, 3962, 3972, 3968, 4009, 4018, 3967, 0, 1, 10700, -89.900, 0.000, -57.800, 0.000, 0.000, -3.000, 0.0, , , , , , 96, , , 0, 0, 0
36.9937941, -119.1734895, 15.500, 10:45:03.361, 16, 0.00, 0.24, 96, -0.200, -0.500, -57.500, 2, 100, 94, 31, 23897, -18838, 5161, 5377, 17, 14, 1528911903.361, 96, 0, 1024, 1024, 1024, 1024, 0, 6, 3962, 3972, 3968, 4009, 4018, 3967, 0, 1, 10800, -89.900, 0.000, -57.800, 0.000, 0.000, -2.900, 0.0, , , , , , 96, , , 0, 0, 0
36.9937941, -119.1734896, 15.800, 10:45:03.461, 16, 0.00, 0.24, 96, 0.000, -0.300, -57.400, 2, 100, 94, 31, 23897, -18838, 5161, 5377, 17, 14, 1528911903.461, 73, 0, 1024, 1024, 1024, 1024, 0, 6, 3962, 3972, 3968, 4009, 4018, 3967, 0, 1, 10900, -89.900, 0.000, -57.800, 0.000, 0.000, -2.900, 0.0, , , , , , 96, , , 0, 0, 0
36.9937941, -119.1734897, 16.100, 10:45:03.561, 16, 0.00, 0.23, 96, 0.000, -0.300, -57.400, 2, 100, 94, 31, 23897, -18838, 5161, 5377, 17, 14, 1528911903.561, 65, 0, 1024, 1024, 1024, 1024, 0, 6, 3962, 3972, 3968, 4009, 4018, 3967, 0, 1, 11000, -89.900, 0.000, -57.800, 0.000, 0.000, -3.000, 0.0, , , , , , 96, , , 0, 0, 0
36.9937941, -119.1734898, 16.400, 10:45:03.661, 16, 0.00, 0.23, 96, 0.000, -0.100, -57.400, 2, 100, 94, 31, 23872, -18666, 5161, 5377, 17, 14, 1528911903.661, 69, 0, 1024, 1024, 1024, 1024, 0, 6, 3963, 3970, 3966, 4004, 4007, 3966, 0, 1, 11100, -89.900, 0.000, -57.800, 0.000, 0.000, -2.900, 0.0, , , , , , 96, , , 0, 0, 0
36.9937941, -119.1734898, 16.700, 10:45:03.761, 16, 0.00, 0.23, 96, 0.000, 0.000, -57.300, 2, 100, 98, 31, 23872, -18666, 5161, 5377, 17, 14, 1528911903.761, 58, 0, 1024, 1024, 1024, 1024, 0, 6, 3963, 3970, 3966, 4004, 4007, 3966, 0, 1, 11200, -89.900, 0.000, -57.800, 0.000, 0.000, -2.900, 0.0, , , , , , 96, , , 0, 0, 0
36.9937940, -119.1734898, 17.000, 10:45:03.861, 16, 0.00, 0.23, 96, 0.000, 0.000, -57.300, 2, 100, 98, 31, 23872, -18666, 5161, 5377, 17, 14, 1528911903.861, 70, 0, 1024, 1024, 1024, 1024, 0, 6, 3963, 3970, 3966, 4004, 4007, 3966, 0, 1, 11300, -89.900, 0.000, -57.800, 0.000, 0.000, -2.900, 0.0, , , , , , 96, , , 0, 0, 0
36.9937940, -119.1734899, 17.300, 10:45:03.961, 16, 0.00, 0.23, 96, 0.100, -0.100, -57.300, 2, 100, 98, 31, 23872, -18666, 5161, 5377, 17, 14, 1528911903.961, 75, 0, 1024, 1024, 1024, 1024, 0, 6, 3963, 3970, 3966, 4004, 4007, 3966, 0, 1, 11400, -89.900, 0.000, -57.800, 0.000, 0.000, -2.900, 0.0, , , , , , 96, , , 0, 0, 0
36.9937939, -119.1734899, 17.600, 10:45:04.060, 16, 0.00, 0.23, 96, 0.300, -0.300, -57.300, 2, 100, 98, 31, 23872, -18666, 5161, 5377, 17, 14, 1528911904.060, 65, 0, 1024, 1024, 1024, 1024, 0, 6, 3963, 3970, 3966, 4004, 4007, 3966, 0, 1, 11500, -89.900, 0.000, -57.800, 0.000, 0.000, -3.000, 0.0, , , , , , 96, , , 0, 0, 0
36.9937939, -119.1734900, 17.900, 10:45:04.161, 16, 0.00, 0.23, 96, 0.400, -0.400, -57.300, 2, 100, 98, 31, 23872, -18666, 5161, 5377, 17, 14, 1528911904.161, 50, 0, 1024, 1024, 1024, 1024, 0, 6, 3963, 3970, 3966, 4004, 4007, 3966, 0, 1, 11600, -89.900, 0.000, -57.800, 0.000, 0.000, -3.000, 0.0, , , , , , 96, , , 0, 0, 0
36.9937938, -119.1734900, 18.200, 10:45:04.261, 16, 0.00, 0.23, 96, 0.500, -0.300, -57.300, 2, 100, 98, 31, 23872, -18666, 5161, 5377, 17, 14, 1528911904.261, 51, 0, 1024, 1024, 1024, 1024, 0, 6, 3963, 3970, 3966, 4004, 4007, 3966, 0, 1, 11700, -89.900, 0.000, -57.800, 0.000, 0.000, -3.000, 0.0, , , , , , 96, , , 0, 0, 0
36.9937938, -119.1734901, 18.500, 10:45:04.361, 16, 0.00, 0.23, 96, 0.600, -0.200, -57.300, 2, 100, 98, 31, 23872, -18666, 5161, 5377, 17, 14, 1528911904.361, 66, 0, 1024, 1024, 1024, 1024, 0, 6, 3963, 3970, 3966, 4004, 4007, 3966, 0, 1, 11800, -89.900, 0.000, -57.800, 0.000, 0.000, -2.900, 0.0, , , , , , 96, , , 0, 0, 0
36.9937938, -119.1734901, 18.800, 10:45:04.461, 16, 0.00, 0.23, 96, 0.500, -0.200, -57.300, 2, 100, 98, 31, 23872, -18666, 5161, 5377, 17, 14, 1528911904.461, 41, 0, 1024, 1024, 1024, 1024, 0, 6, 3963, 3970, 3966, 4004, 4007, 3966, 0, 1, 11900, -89.900, 0.000, -57.800, 0.000, 0.000, -3.000, 0.0, , , , , , 96, , , 0, 0, 0
36.9937938, -119.1734902, 19.100, 10:45:04.561, 16, 0.00, 0.23, 96, 0.500, -0.100, -57.300, 2, 100, 98, 31, 23872, -18666, 5161, 5377, 17, 14, 1528911904.561, 46, 0, 1024, 1024, 1024, 1024, 0, 6, 3963, 3970, 3966, 4004, 4007, 3966, 0, 1, 12000, -89.900, 0.000, -57.800, 0.000, 0.000, -3.000, 0.0, , , , , , 96, , , 0, 0, 0
36.9937938, -119.1734903, 19.500, 10:45:04.661, 16, 0.00, 0.23, 96, 0.300, 0.000, -57.300, 2, 100, 98, 31, 23812, -18882, 5161, 5377, 17, 14, 1528911904.661, 53, 0, 1024, 1024, 1024, 1024, 0, 6, 3945, 3959, 3962, 3995, 4005, 3951, 0, 1, 12100, -89.900, 0.000, -57.800, 0.000, 0.000, -3.000, 0.0, , , , , , 96, , , 0, 0, 0
36.9937938, -119.1734903, 19.800, 10:45:04.761, 16, 0.00, 0.22, 96, 0.300, 0.000, -57.400, 2, 100, 99, 31, 23812, -18882, 5161, 5377, 17, 14, 1528911904.761, 30, 0, 1024, 1024, 1024, 1024, 0, 6, 3945, 3959, 3962, 3995, 4005, 3951, 0, 1, 12200, -89.900, 0.000, -57.800, 0.000, 0.000, -2.900, 0.0, , , , , , 96, , , 0, 0, 0
36.9937938, -119.1734903, 19.800, 10:45:04.861, 16, 0.00, 0.22, 96, 0.300, 0.000, -57.400, 2, 100, 99, 31, 23812, -18882, 5161, 5377, 17, 14, 1528911904.861, 129, 0, 1024, 1024, 1024, 1024, 0, 6, 3945, 3959, 3962, 3995, 4005, 3951, 0, 1, 12300, -89.900, 0.000, -57.800, 0.000, 0.000, -2.900, 0.0, , , , , , 96, , , 0, 0, 0
36.9937938, -119.1734905, 20.300, 10:45:04.961, 16, 0.00, 0.21, 96, 0.300, 0.100, -57.400, 2, 100, 99, 31, 23812, -18882, 5161, 5377, 17, 14, 1528911904.961, 36, 0, 1024, 1024, 1024, 1024, 0, 6, 3945, 3959, 3962, 3995, 4005, 3951, 0, 1, 12400, -89.900, 0.000, -57.800, 0.000, 0.000, -2.900, 0.0, , , , , , 96, , , 0, 0, 0
36.9937938, -119.1734905, 20.900, 10:45:05.061, 16, 0.00, 0.21, 96, 0.300, 0.100, -57.500, 2, 100, 99, 31, 23812, -18882, 5161, 5377, 17, 14, 1528911905.061, 27, 0, 1024, 1024, 1024, 1024, 0, 6, 3945, 3959, 3962, 3995, 4005, 3951, 0, 1, 12500, -89.900, 0.000, -57.800, 0.000, 0.000, -2.900, 0.0, , , , , , 96, , , 0, 0, 0
36.9937938, -119.1734906, 21.200, 10:45:05.161, 16, 0.00, 0.21, 96, 0.200, 0.000, -57.400, 2, 100, 99, 31, 23812, -18882, 5161, 5377, 17, 14, 1528911905.161, 31, 0, 1024, 1024, 1024, 1024, 0, 6, 3945, 3959, 3962, 3995, 4005, 3951, 0, 1, 12600, -89.900, 0.000, -57.800, 0.000, 0.000, -2.900, 0.0, , , , , , 96, , , 0, 0, 0
36.9937938, -119.1734906, 21.600, 10:45:05.261, 16, 0.00, 0.21, 96, 0.300, 0.100, -57.200, 2, 100, 98, 31, 23812, -18882, 5161, 5377, 17, 14, 1528911905.261, 19, 0, 1024, 1024, 1024, 1024, 0, 6, 3945, 3959, 3962, 3995, 4005, 3951, 0, 1, 12700, -89.900, 0.000, -57.800, 0.000, 0.000, -3.000, 0.0, , , , , , 96, , , 0, 0, 0
36.9937938, -119.1734906, 21.900, 10:45:05.360, 16, 0.00, 0.21, 96, 0.400, 0.100, -57.000, 2, 100, 98, 31, 23812, -18882, 5161, 5377, 17, 14, 1528911905.360, 23, 0, 1024, 1024, 1024, 1024, 0, 6, 3945, 3959, 3962, 3995, 4005, 3951, 0, 1, 12800, -89.900, 0.000, -57.800, 0.000, 0.000, -3.000, 0.0, , , , , , 96, , , 0, 0, 0
36.9937938, -119.1734906, 22.200, 10:45:05.461, 16, 0.00, 0.21, 96, 0.400, 0.000, -56.900, 2, 100, 98, 31, 23812, -18882, 5161, 5377, 17, 14, 1528911905.461, 28, 0, 1024, 1024, 1024, 1024, 0, 6, 3945, 3959, 3962, 3995, 4005, 3951, 0, 1, 12900, -89.900, 0.000, -57.800, 0.000, 0.000, -2.900, 0.0, , , , , , 96, , , 0, 0, 0
36.9937938, -119.1734906, 22.500, 10:45:05.561, 16, 0.00, 0.21, 96, 0.200, -0.100, -56.900, 2, 100, 98, 31, 23794, -18899, 5161, 5377, 17, 14, 1528911905.561, 31, 0, 1024, 1024, 1024, 1024, 0, 6, 3945, 3959, 3962, 3995, 4005, 3951, 0, 1, 13000, -90.000, 0.000, -57.800, 0.000, 0.000, -2.900, 0.0, , , , , , 96, , , 0, 0, 0
36.9937938, -119.1734906, 22.500, 10:45:05.660, 16, 0.00, 0.21, 96, 0.200, -0.100, -56.900, 2, 100, 98, 31, 23794, -18899, 5161, 5377, 17, 14, 1528911905.661, 131, 0, 1024, 1024, 1024, 1024, 0, 6, 3945, 3959, 3962, 3995, 4005, 3951, 0, 1, 13100, -90.000, 0.000, -57.800, 0.000, 0.000, -2.900, 0.0, , , , , , 96, , , 0, 0, 0
36.9937939, -119.1734905, 23.100, 10:45:05.760, 16, 0.00, 0.21, 96, -0.600, -0.300, -57.300, 2, 100, 99, 31, 23794, -18899, 5161, 5377, 17, 14, 1528911905.760, 18, 0, 1024, 1024, 1024, 1024, 0, 6, 3945, 3959, 3962, 3995, 4005, 3951, 0, 1, 13199, -90.000, 0.000, -57.800, 0.000, 0.000, -2.900, 0.0, , , , , , 96, , , 0, 0, 0
36.9937939, -119.1734904, 23.400, 10:45:05.869, 16, 0.00, 0.21, 96, -1.000, -0.600, -57.500, 2, 100, 99, 31, 23794, -18899, 5161, 5377, 17, 14, 1528911905.869, 7, 0, 1024, 1024, 1024, 1024, 0, 6, 3945, 3959, 3962, 3995, 4005, 3951, 0, 1, 13308, -90.000, 0.000, -57.800, 0.000, 0.000, -2.900, 0.0, , , , , , 96, , , 0, 0, 0
36.9937939, -119.1734903, 23.700, 10:45:05.961, 16, 0.00, 0.21, 96, -0.900, -0.600, -57.600, 2, 100, 99, 31, 23794, -18899, 5161, 5377, 17, 14, 1528911905.961, 10, 0, 1024, 1024, 1024, 1024, 0, 6, 3945, 3959, 3962, 3995, 4005, 3951, 0, 1, 13400, -90.000, 0.000, -57.800, 0.000, 0.000, -2.900, 0.0, , , , , , 96, , , 0, 0, 0
36.9937939, -119.1734903, 23.700, 10:45:06.060, 16, 0.00, 0.21, 96, -0.900, -0.600, -57.600, 2, 100, 99, 31, 23794, -18899, 5161, 5377, 17, 14, 1528911906.061, 110, 0, 1024, 1024, 1024, 1024, 0, 6, 3945, 3959, 3962, 3995, 4005, 3951, 0, 1, 13500, -90.000, 0.000, -57.800, 0.000, 0.000, -2.900, 0.0, , , , , , 96, , , 0, 0, 0
36.9937939, -119.1734903, 23.900, 10:45:06.161, 16, 0.00, 0.21, 96, -0.700, -0.600, -57.600, 2, 100, 99, 31, 23794, -18899, 5161, 5377, 17, 14, 1528911906.161, 97, 0, 1024, 1024, 1024, 1024, 0, 6, 3948, 3959, 3957, 3998, 3999, 3952, 0, 1, 13600, -90.000, 0.000, -57.800, 0.000, 0.000, -2.900, 0.0, , , , , , 96, , , 0, 0, 0
36.9937939, -119.1734902, 24.200, 10:45:06.261, 16, 0.00, 0.21, 96, -0.700, -0.700, -57.600, 2, 100, 99, 31, 23794, -18899, 5161, 5377, 17, 14, 1528911906.261, 82, 0, 1024, 1024, 1024, 1024, 0, 6, 3948, 3959, 3957, 3998, 3999, 3952, 0, 1, 13700, -90.000, 0.000, -57.800, 0.000, 0.000, -2.900, 0.0, , , , , , 96, , , 0, 0, 0
36.9937940, -119.1734902, 24.500, 10:45:06.360, 16, 0.00, 0.21, 96, -0.600, -0.800, -57.500, 2, 100, 99, 31, 23794, -18899, 5161, 5377, 17, 14, 1528911906.361, 95, 0, 1024, 1024, 1024, 1024, 0, 6, 3948, 3959, 3957, 3998, 3999, 3952, 0, 1, 13800, -90.000, 0.000, -57.800, 0.000, 0.000, -2.900, 0.0, , , , , , 96, , , 0, 0, 0
36.9937939, -119.1734901, 24.800, 10:45:06.461, 16, 0.00, 0.22, 96, -0.400, -0.700, -57.300, 2, 100, 99, 31, 23794, -18899, 5161, 5377, 17, 14, 1528911906.461, 84, 0, 1024, 1024, 1024, 1024, 0, 6, 3948, 3959, 3957, 3998, 3999, 3952, 0, 1, 13900, -90.000, 0.000, -57.800, 0.000, 0.000, -2.900, 0.0, , , , , , 96, , , 0, 0, 0
36.9937939, -119.1734901, 25.100, 10:45:06.560, 16, 0.00, 0.22, 96, -0.400, -0.800, -57.300, 2, 100, 99, 31, 23794, -18899, 5161, 5377, 17, 14, 1528911906.561, 86, 0, 1024, 1024, 1024, 1024, 0, 6, 3948, 3959, 3957, 3998, 3999, 3952, 0, 1, 14000, -90.000, 0.000, -57.800, 0.000, 0.000, -3.000, 0.0, , , , , , 96, , , 0, 0, 0
36.9937939, -119.1734901, 25.100, 10:45:06.660, 16, 0.00, 0.22, 96, -0.400, -0.800, -57.300, 2, 100, 99, 31, 23794, -18899, 5161, 5377, 17, 14, 1528911906.661, 186, 0, 1024, 1024, 1024, 1024, 0, 6, 3948, 3959, 3957, 3998, 3999, 3952, 0, 1, 14100, -90.000, 0.000, -57.800, 0.000, 0.000, -3.000, 0.0, , , , , , 96, , , 0, 0, 0
36.9937939, -119.1734899, 25.700, 10:45:06.760, 16, 0.00, 0.24, 96, -0.600, -0.900, -57.200, 2, 100, 97, 31, 23794, -18899, 5161, 5377, 17, 14, 1528911906.761, 91, 0, 1024, 1024, 1024, 1024, 0, 6, 3948, 3959, 3957, 3998, 3999, 3952, 0, 1, 14200, -90.000, 0.000, -57.800, 0.000, 0.000, -3.000, 0.0, , , , , , 96, , , 0, 0, 0
36.9937939, -119.1734898, 26.000, 10:45:06.860, 16, 0.00, 0.24, 96, -0.500, -0.800, -57.200, 2, 100, 97, 31, 23794, -18899, 5161, 5377, 17, 14, 1528911906.860, 71, 0, 1024, 1024, 1024, 1024, 0, 6, 3948, 3959, 3957, 3998, 3999, 3952, 0, 1, 14299, -89.900, 0.000, -57.800, 0.000, 0.000, -3.000, 0.0, , , , , , 96, , , 0, 0, 0
36.9937939, -119.1734898, 26.000, 10:45:06.961, 16, 0.00, 0.24, 96, -0.500, -0.800, -57.200, 2, 100, 97, 31, 23794, -18899, 5161, 5377, 17, 14, 1528911906.961, 173, 0, 1024, 1024, 1024, 1024, 0, 6, 3948, 3959, 3957, 3998, 3999, 3952, 0, 1, 14400, -90.000, 0.000, -57.800, 0.000, 0.000, -3.000, 0.0, , , , , , 96, , , 0, 0, 0
36.9937938, -119.1734897, 26.600, 10:45:07.060, 16, 0.00, 0.26, 96, -0.700, -1.400, -57.200, 2, 100, 97, 31, 23794, -18899, 5161, 5377, 17, 14, 1528911907.061, 78, 0, 1024, 1024, 1024, 1024, 0, 6, 3948, 3959, 3957, 3998, 3999, 3952, 0, 1, 14500, -90.000, 0.000, -57.800, 0.000, 0.000, -3.000, 0.0, , , , , , 96, , , 0, 0, 0
36.9937938, -119.1734895, 26.900, 10:45:07.160, 16, 0.00, 0.26, 96, -0.700, -1.700, -57.300, 2, 100, 97, 31, 23791, -18685, 5161, 5377, 17, 14, 1528911907.161, 58, 0, 1024, 1024, 1024, 1024, 0, 6, 3949, 3962, 3951, 3997, 3997, 3957, 0, 1, 14600, -90.000, 0.000, -57.800, 0.000, 0.000, -3.000, 0.0, , , , , , 96, , , 0, 0, 0
36.9937938, -119.1734894, 27.200, 10:45:07.261, 16, 0.00, 0.27, 96, -0.700, -2.000, -57.400, 2, 100, 95, 31, 23791, -18685, 5161, 5377, 17, 14, 1528911907.261, 52, 0, 1024, 1024, 1024, 1024, 0, 6, 3949, 3962, 3951, 3997, 3997, 3957, 0, 1, 14700, -90.000, 0.000, -57.800, 0.000, 0.000, -2.900, 0.0, , , , , , 96, , , 0, 0, 0
36.9937938, -119.1734893, 27.600, 10:45:07.360, 16, 0.00, 0.28, 96, -0.800, -2.400, -57.400, 2, 100, 95, 31, 23791, -18685, 5161, 5377, 17, 14, 1528911907.361, 56, 0, 1024, 1024, 1024, 1024, 0, 6, 3949, 3962, 3951, 3997, 3997, 3957, 0, 1, 14800, -90.000, 0.000, -57.800, 0.000, 0.000, -2.900, 0.0, , , , , , 96, , , 0, 0, 0
36.9937938, -119.1734892, 27.900, 10:45:07.460, 16, 0.00, 0.29, 96, -0.700, -2.600, -57.300, 2, 100, 95, 31, 23791, -18685, 5161, 5377, 17, 14, 1528911907.461, 50, 0, 1024, 1024, 1024, 1024, 0, 6, 3949, 3962, 3951, 3997, 3997, 3957, 0, 1, 14900, -90.000, 0.000, -57.800, 0.000, 0.000, -3.000, 0.0, , , , , , 96, , , 0, 0, 0
36.9937938, -119.1734891, 28.200, 10:45:07.560, 16, 0.00, 0.30, 96, -0.900, -2.700, -57.300, 2, 100, 95, 31, 23791, -18685, 5161, 5377, 17, 14, 1528911907.561, 47, 0, 1024, 1024, 1024, 1024, 0, 6, 3949, 3962, 3951, 3997, 3997, 3957, 0, 1, 15000, -89.900, 0.000, -57.800, 0.000, 0.000, -3.000, 0.0, , , , , , 96, , , 0, 0, 0
36.9937938, -119.1734890, 28.500, 10:45:07.660, 16, 0.00, 0.30, 96, -1.300, -2.600, -57.300, 2, 100, 95, 31, 23791, -18685, 5161, 5377, 17, 14, 1528911907.661, 48, 0, 1024, 1024, 1024, 1024, 0, 6, 3949, 3962, 3951, 3997, 3997, 3957, 0, 1, 15100, -89.900, 0.000, -57.800, 0.000, 0.000, -2.900, 0.0, , , , , , 96, , , 0, 0, 0
36.9937938, -119.1734889, 28.700, 10:45:07.760, 16, 0.00, 0.31, 96, -1.400, -2.500, -57.300, 2, 100, 96, 31, 23791, -18685, 5161, 5377, 17, 14, 1528911907.761, 43, 0, 1024, 1024, 1024, 1024, 0, 6, 3949, 3962, 3951, 3997, 3997, 3957, 0, 1, 15200, -89.900, 0.000, -57.800, 0.000, 0.000, -2.900, 0.0, , , , , , 96, , , 0, 0, 0
36.9937939, -119.1734888, 29.000, 10:45:07.860, 16, 0.00, 0.31, 96, -1.300, -2.500, -57.300, 2, 100, 96, 31, 23791, -18685, 5161, 5377, 17, 14, 1528911907.861, 47, 0, 1024, 1024, 1024, 1024, 0, 6, 3949, 3962, 3951, 3997, 3997, 3957, 0, 1, 15300, -89.900, 0.000, -57.800, 0.000, 0.000, -2.900, 0.0, , , , , , 96, , , 0, 0, 0
36.9937939, -119.1734887, 29.600, 10:45:07.960, 16, 0.00, 0.32, 96, -1.300, -2.400, -57.200, 2, 100, 96, 31, 23791, -18685, 5161, 5377, 17, 14, 1528911907.961, 4, 0, 1024, 1024, 1024, 1024, 0, 6, 3949, 3962, 3951, 3997, 3997, 3957, 0, 1, 15400, -89.900, 0.000, -57.800, 0.000, 0.000, -2.900, 0.0, , , , , , 96, , , 0, 0, 0
36.9937939, -119.1734886, 30.000, 10:45:08.060, 16, 0.00, 0.32, 96, -1.100, -2.300, -57.200, 2, 100, 96, 31, 23791, -18685, 5161, 5377, 17, 14, 1528911908.060, 10, 0, 1024, 1024, 1024, 1024, 0, 6, 3949, 3962, 3951, 3997, 3997, 3957, 0, 1, 15499, -89.900, 0.000, -57.800, 0.000, 0.000, -3.000, 0.0, , , , , , 96, , , 0, 0, 0
36.9937939, -119.1734886, 30.300, 10:45:08.160, 16, 0.00, 0.32, 96, -0.900, -2.300, -57.100, 2, 100, 99, 31, 23758, -18869, 5161, 5377, 17, 14, 1528911908.161, 13, 0, 1024, 1024, 1024, 1024, 0, 6, 3946, 3950, 3947, 3995, 3990, 3949, 0, 1, 15600, -90.000, 0.000, -57.800, 0.000, 0.000, -2.900, 0.0, , , , , , 96, , , 0, 0, 0
36.9937940, -119.1734886, 30.600, 10:45:08.260, 16, 0.00, 0.32, 96, -0.900, -2.300, -57.000, 2, 100, 99, 31, 23758, -18869, 5161, 5377, 17, 14, 1528911908.260, 28, 0, 1024, 1024, 1024, 1024, 0, 6, 3946, 3950, 3947, 3995, 3990, 3949, 0, 1, 15699, -89.900, 0.000, -57.800, 0.000, 0.000, -3.000, 0.0, , , , , , 96, , , 0, 0, 0
36.9937940, -119.1734885, 30.900, 10:45:08.360, 16, 0.10, 0.32, 96, -1.100, -2.400, -57.000, 2, 100, 99, 31, 23758, -18869, 5161, 5377, 17, 14, 1528911908.361, 10, 0, 1024, 1024, 1024, 1024, 0, 6, 3946, 3950, 3947, 3995, 3990, 3949, 0, 1, 15800, -89.900, 0.000, -57.800, 0.100, 0.000, -2.900, 0.0, , , , , , 96, , , 0, 0, 0
36.9937941, -119.1734885, 31.200, 10:45:08.460, 16, 0.10, 0.32, 96, -1.600, -2.100, -57.100, 2, 100, 99, 31, 23758, -18869, 5161, 5377, 17, 14, 1528911908.461, 9, 0, 1024, 1024, 1024, 1024, 0, 6, 3946, 3950, 3947, 3995, 3990, 3949, 0, 1, 15900, -89.900, 0.000, -57.800, 0.100, 0.000, -3.000, 0.0, , , , , , 96, , , 0, 0, 0
36.9937942, -119.1734885, 31.500, 10:45:08.560, 16, 0.10, 0.32, 96, -2.100, -1.700, -57.200, 2, 100, 99, 31, 23758, -18869, 5161, 5377, 17, 14, 1528911908.561, 15, 0, 1024, 1024, 1024, 1024, 0, 6, 3946, 3950, 3947, 3995, 3990, 3949, 0, 1, 16000, -89.900, 0.000, -57.800, 0.100, 0.000, -3.000, 0.0, , , , , , 96, , , 0, 0, 0
36.9937942, -119.1734885, 31.800, 10:45:08.660, 16, 0.10, 0.31, 96, -2.200, -1.400, -57.300, 2, 100, 98, 31, 23758, -18869, 5161, 5377, 17, 14, 1528911908.660, 14, 0, 1024, 1024, 1024, 1024, 0, 6, 3946, 3950, 3947, 3995, 3990, 3949, 0, 1, 16099, -89.900, 0.000, -57.800, 0.100, 0.000, -2.900, 0.0, , , , , , 96, , , 0, 0, 0
36.9937943, -119.1734885, 32.100, 10:45:08.760, 16, 0.10, 0.31, 96, -2.300, -1.600, -57.400, 2, 100, 98, 31, 23758, -18869, 5161, 5377, 17, 14, 1528911908.761, 6, 0, 1024, 1024, 1024, 1024, 0, 6, 3946, 3950, 3947, 3995, 3990, 3949, 0, 1, 16200, -89.900, 0.000, -57.800, 0.100, 0.000, -2.900, 0.0, , , , , , 96, , , 0, 0, 0
36.9937943, -119.1734885, 32.100, 10:45:08.860, 16, 0.10, 0.31, 96, -2.300, -1.600, -57.400, 2, 100, 98, 31, 23758, -18869, 5161, 5377, 17, 14, 1528911908.861, 106, 0, 1024, 1024, 1024, 1024, 0, 6, 3946, 3950, 3947, 3995, 3990, 3949, 0, 1, 16300, -89.900, 0.000, -57.800, 0.100, 0.000, -2.900, 0.0, , , , , , 96, , , 0, 0, 0
36.9937944, -119.1734884, 32.700, 10:45:08.960, 16, 0.00, 0.31, 96, -2.300, -1.500, -57.800, 2, 100, 98, 31, 23758, -18869, 5161, 5377, 17, 14, 1528911908.960, 6, 0, 1024, 1024, 1024, 1024, 0, 6, 3946, 3950, 3947, 3995, 3990, 3949, 0, 1, 16399, -90.000, 0.000, -57.800, 0.000, 0.000, -2.800, 0.0, , , , , , 96, , , 0, 0, 0
36.9937944, -119.1734884, 32.700, 10:45:09.060, 16, 0.00, 0.31, 96, -2.300, -1.500, -57.800, 2, 100, 98, 31, 23758, -18869, 5161, 5377, 17, 14, 1528911909.061, 107, 0, 1024, 1024, 1024, 1024, 0, 6, 3946, 3950, 3947, 3995, 3990, 3949, 0, 1, 16500, -90.000, 0.000, -57.800, 0.000, 0.000, -2.800, 0.0, , , , , , 96, , , 0, 0, 0
36.9937945, -119.1734884, 33.000, 10:45:09.160, 16, 0.00, 0.31, 96, -2.200, -1.600, -57.800, 2, 100, 98, 31, 23749, -18556, 5161, 5377, 17, 14, 1528911909.161, 77, 0, 1024, 1024, 1024, 1024, 0, 6, 3943, 3942, 3948, 3986, 3990, 3940, 0, 1, 16600, -89.900, 0.000, -57.800, 0.000, 0.000, -2.900, 0.0, , , , , , 96, , , 0, 0, 0
36.9937945, -119.1734884, 33.200, 10:45:09.260, 16, 0.00, 0.31, 96, -2.100, -1.700, -57.800, 2, 100, 98, 31, 23749, -18556, 5161, 5377, 17, 14, 1528911909.260, 82, 0, 1024, 1024, 1024, 1024, 0, 6, 3943, 3942, 3948, 3986, 3990, 3940, 0, 1, 16699, -90.000, 0.000, -57.800, 0.000, 0.000, -2.900, 0.0, , , , , , 96, , , 0, 0, 0
36.9937946, -119.1734883, 33.500, 10:45:09.360, 16, 0.00, 0.31, 96, -2.000, -1.700, -57.600, 2, 100, 98, 31, 23749, -18556, 5161, 5377, 17, 14, 1528911909.361, 72, 0, 1024, 1024, 1024, 1024, 0, 6, 3943, 3942, 3948, 3986, 3990, 3940, 0, 1, 16800, -89.900, 0.000, -57.800, 0.000, 0.000, -2.800, 0.0, , , , , , 96, , , 0, 0, 0
36.9937946, -119.1734883, 33.800, 10:45:09.460, 16, 0.00, 0.31, 96, -1.900, -1.800, -57.500, 2, 100, 98, 31, 23749, -18556, 5161, 5377, 17, 14, 1528911909.461, 77, 0, 1024, 1024, 1024, 1024, 0, 6, 3943, 3942, 3948, 3986, 3990, 3940, 0, 1, 16900, -90.000, 0.000, -57.800, 0.000, 0.000, -2.900, 0.0, , , , , , 96, , , 0, 0, 0
36.9937946, -119.1734883, 34.100, 10:45:09.560, 16, 0.00, 0.31, 96, -1.800, -2.000, -57.400, 2, 100, 98, 31, 23749, -18556, 5161, 5377, 17, 14, 1528911909.561, 71, 0, 1024, 1024, 1024, 1024, 0, 6, 3943, 3942, 3948, 3986, 3990, 3940, 0, 1, 17000, -90.000, 0.000, -57.800, 0.000, 0.000, -2.800, 0.0, , , , , , 96, , , 0, 0, 0
36.9937946, -119.1734884, 34.400, 10:45:09.660, 16, 0.00, 0.31, 96, -1.800, -2.000, -57.300, 2, 100, 98, 31, 23749, -18556, 5161, 5377, 17, 14, 1528911909.661, 77, 0, 1024, 1024, 1024, 1024, 0, 6, 3943, 3942, 3948, 3986, 3990, 3940, 0, 1, 17100, -90.000, 0.000, -57.800, 0.000, 0.000, -2.900, 0.0, , , , , , 96, , , 0, 0, 0
36.9937946, -119.1734884, 34.400, 10:45:09.760, 16, 0.00, 0.31, 96, -1.800, -2.000, -57.300, 2, 100, 97, 31, 23749, -18556, 5161, 5377, 17, 14, 1528911909.761, 177, 0, 1024, 1024, 1024, 1024, 0, 6, 3943, 3942, 3948, 3986, 3990, 3940, 0, 1, 17200, -89.900, 0.000, -57.800, 0.000, 0.000, -2.900, 0.0, , , , , , 96, , , 0, 0, 0
36.9937946, -119.1734884, 35.000, 10:45:09.860, 16, 0.00, 0.30, 96, -1.700, -1.800, -57.400, 2, 100, 97, 31, 23749, -18556, 5161, 5377, 17, 14, 1528911909.861, 61, 0, 1024, 1024, 1024, 1024, 0, 6, 3943, 3942, 3948, 3986, 3990, 3940, 0, 1, 17300, -89.900, 0.000, -57.800, 0.000, 0.000, -3.000, 0.0, , , , , , 96, , , 0, 0, 0
36.9937947, -119.1734885, 35.300, 10:45:09.960, 16, 0.00, 0.30, 96, -1.600, -1.700, -57.400, 2, 100, 97, 31, 23749, -18556, 5161, 5377, 17, 14, 1528911909.961, 77, 0, 1024, 1024, 1024, 1024, 0, 6, 3943, 3942, 3948, 3986, 3990, 3940, 0, 1, 17400, -89.900, 0.000, -57.800, 0.000, 0.000, -3.000, 0.0, , , , , , 96, , , 0, 0, 0
36.9937947, -119.1734885, 35.600, 10:45:10.060, 16, 0.00, 0.29, 96, -1.500, -1.700, -57.400, 2, 100, 97, 31, 23749, -18556, 5161, 5377, 17, 14, 1528911910.060, 53, 0, 1024, 1024, 1024, 1024, 0, 6, 3943, 3942, 3948, 3986, 3990, 3940, 0, 1, 17500, -90.000, 0.000, -57.800, 0.000, 0.000, -2.900, 0.0, , , , , , 96, , , 0, 0, 0
36.9937947, -119.1734885, 35.800, 10:45:10.160, 16, 0.00, 0.29, 96, -1.700, -1.800, -57.500, 2, 100, 97, 31, 23731, -18795, 5161, 5377, 17, 14, 1528911910.161, 68, 0, 1024, 1024, 1024, 1024, 0, 6, 3930, 3944, 3943, 3972, 3978, 3937, 0, 1, 17600, -89.900, 0.000, -57.800, 0.000, 0.000, -3.000, 0.0, , , , , , 96, , , 0, 0, 0
36.9937947, -119.1734886, 36.200, 10:45:10.259, 16, 0.00, 0.29, 96, -1.600, -1.800, -57.500, 2, 100, 96, 31, 23731, -18795, 5161, 5377, 17, 14, 1528911910.260, 61, 0, 1024, 1024, 1024, 1024, 0, 6, 3930, 3944, 3943, 3972, 3978, 3937, 0, 1, 17699, -89.900, 0.000, -57.800, 0.000, 0.000, -3.100, 0.0, , , , , , 96, , , 0, 0, 0
36.9937947, -119.1734886, 36.500, 10:45:10.360, 16, 0.00, 0.28, 96, -1.400, -1.700, -57.500, 2, 100, 96, 31, 23731, -18795, 5161, 5377, 17, 14, 1528911910.361, 53, 0, 1024, 1024, 1024, 1024, 0, 6, 3930, 3944, 3943, 3972, 3978, 3937, 0, 1, 17800, -90.000, 0.000, -57.800, 0.000, 0.000, -3.000, 0.0, , , , , , 96, , , 0, 0, 0
36.9937947, -119.1734887, 36.800, 10:45:10.460, 16, 0.00, 0.28, 96, -1.400, -1.700, -57.500, 2, 100, 96, 31, 23731, -18795, 5161, 5377, 17, 14, 1528911910.461, 55, 0, 1024, 1024, 1024, 1024, 0, 6, 3930, 3944, 3943, 3972, 3978, 3937, 0, 1, 17900, -89.900, 0.000, -57.800, 0.000, 0.000, -3.000, 0.0, , , , , , 96, , , 0, 0, 0
36.9937947, -119.1734887, 37.100, 10:45:10.560, 16, 0.00, 0.27, 96, -1.500, -1.800, -57.500, 2, 100, 96, 31, 23731, -18795, 5161, 5377, 17, 14, 1528911910.560, 55, 0, 1024, 1024, 1024, 1024, 0, 6, 3930, 3944, 3943, 3972, 3978, 3937, 0, 1, 17999, -89.900, 0.000, -57.800, 0.000, 0.000, -3.000, 0.0, , , , , , 96, , , 0, 0, 0
36.9937947, -119.1734888, 37.400, 10:45:10.660, 16, 0.00, 0.27, 96, -1.500, -1.800, -57.500, 2, 100, 96, 31, 23731, -18795, 5161, 5377, 17, 14, 1528911910.661, 48, 0, 1024, 1024, 1024, 1024, 0, 6, 3930, 3944, 3943, 3972, 3978, 3937, 0, 1, 18100, -89.900, 0.000, -57.800, 0.000, 0.000, -2.900, 0.0, , , , , , 96, , , 0, 0, 0
36.9937947, -119.1734888, 37.700, 10:45:10.760, 16, 0.00, 0.27, 96, -1.400, -1.700, -57.400, 2, 100, 96, 31, 23731, -18795, 5161, 5377, 17, 14, 1528911910.761, 56, 0, 1024, 1024, 1024, 1024, 0, 6, 3930, 3944, 3943, 3972, 3978, 3937, 0, 1, 18200, -89.900, 0.000, -57.800, 0.000, 0.000, -2.900, 0.0, , , , , , 96, , , 0, 0, 0
36.9937947, -119.1734888, 38.000, 10:45:10.860, 16, 0.00, 0.26, 96, -1.400, -1.700, -57.400, 2, 100, 96, 31, 23731, -18795, 5161, 5377, 17, 14, 1528911910.861, 48, 0, 1024, 1024, 1024, 1024, 0, 6, 3930, 3944, 3943, 3972, 3978, 3937, 0, 1, 18300, -89.900, 0.000, -57.800, 0.000, 0.000, -2.900, 0.0, , , , , , 96, , , 0, 0, 0
36.9937947, -119.1734888, 38.000, 10:45:10.960, 16, 0.00, 0.26, 96, -1.400, -1.700, -57.400, 2, 100, 96, 31, 23731, -18795, 5161, 5377, 17, 14, 1528911910.961, 148, 0, 1024, 1024, 1024, 1024, 0, 6, 3930, 3944, 3943, 3972, 3978, 3937, 0, 1, 18400, -89.900, 0.000, -57.800, 0.000, 0.000, -2.900, 0.0, , , , , , 96, , , 0, 0, 0
36.9937946, -119.1734889, 38.500, 10:45:11.060, 16, 0.00, 0.26, 96, -1.300, -1.600, -57.400, 2, 100, 96, 31, 23731, -18795, 5161, 5377, 17, 14, 1528911911.061, 28, 0, 1024, 1024, 1024, 1024, 0, 6, 3930, 3944, 3943, 3972, 3978, 3937, 0, 1, 18500, -89.900, 0.000, -57.800, 0.000, 0.000, -2.900, 0.0, , , , , , 96, , , 0, 0, 0
36.9937946, -119.1734890, 38.800, 10:45:11.160, 16, 0.00, 0.26, 96, -1.100, -1.600, -57.400, 2, 100, 96, 31, 23687, -18827, 5161, 5377, 17, 14, 1528911911.160, 30, 0, 1024, 1024, 1024, 1024, 0, 6, 3930, 3944, 3943, 3972, 3978, 3937, 0, 1, 18600, -89.900, 0.000, -57.800, 0.000, 0.000, -3.000, 0.0, , , , , , 96, , , 0, 0, 0
36.9937946, -119.1734890, 39.100, 10:45:11.260, 16, 0.00, 0.26, 96, -1.100, -1.600, -57.400, 2, 100, 97, 31, 23687, -18827, 5161, 5377, 17, 14, 1528911911.260, 33, 0, 1024, 1024, 1024, 1024, 0, 6, 3930, 3944, 3943, 3972, 3978, 3937, 0, 1, 18700, -90.000, 0.000, -57.800, 0.000, 0.000, -3.000, 0.0, , , , , , 96, , , 0, 0, 0
36.9937945, -119.1734890, 39.800, 10:45:11.360, 16, 0.00, 0.26, 96, -1.000, -1.700, -57.400, 2, 100, 97, 31, 23687, -18827, 5161, 5377, 17, 14, 1528911911.360, 10, 0, 1024, 1024, 1024, 1024, 0, 6, 3930, 3944, 3943, 3972, 3978, 3937, 0, 1, 18800, -89.900, 0.000, -57.800, 0.000, 0.000, -3.000, 0.0, , , , , , 96, , , 0, 0, 0
36.9937945, -119.1734890, 40.100, 10:45:11.460, 16, 0.00, 0.26, 96, -1.100, -2.000, -57.300, 2, 100, 97, 31, 23687, -18827, 5161, 5377, 17, 14, 1528911911.460, 27, 0, 1024, 1024, 1024, 1024, 0, 6, 3930, 3944, 3943, 3972, 3978, 3937, 0, 1, 18900, -89.900, 0.000, -57.800, 0.000, 0.000, -3.000, 0.0, , , , , , 96, , , 0, 0, 0
36.9937945, -119.1734890, 40.100, 10:45:11.560, 16, 0.00, 0.26, 96, -1.100, -2.000, -57.300, 2, 100, 97, 31, 23687, -18827, 5161, 5377, 17, 14, 1528911911.560, 127, 0, 1024, 1024, 1024, 1024, 0, 6, 3930, 3944, 3943, 3972, 3978, 3937, 0, 1, 19000, -89.900, 0.000, -57.800, 0.000, 0.000, -3.000, 0.0, , , , , , 96, , , 0, 0, 0
36.9937944, -119.1734889, 40.700, 10:45:11.660, 16, 0.00, 0.27, 96, -1.200, -2.300, -57.400, 2, 100, 97, 31, 23687, -18827, 5161, 5377, 17, 14, 1528911911.660, 7, 0, 1024, 1024, 1024, 1024, 0, 6, 3930, 3944, 3943, 3972, 3978, 3937, 0, 1, 19100, -90.000, 0.000, -57.800, 0.000, 0.000, -3.000, 0.0, , , , , , 96, , , 0, 0, 0
36.9937944, -119.1734889, 40.700, 10:45:11.759, 16, 0.00, 0.27, 96, -1.200, -2.300, -57.400, 2, 100, 90, 31, 23687, -18827, 5161, 5377, 17, 14, 1528911911.760, 106, 0, 1024, 1024, 1024, 1024, 0, 6, 3930, 3944, 3943, 3972, 3978, 3937, 0, 1, 19199, -90.000, 0.000, -57.800, 0.000, 0.000, -3.000, 0.0, , , , , , 96, , , 0, 0, 0
36.9937944, -119.1734889, 41.000, 10:45:11.873, 16, 0.00, 0.27, 96, -1.400, -2.300, -57.300, 2, 100, 90, 31, 23687, -18827, 5161, 5377, 17, 14, 1528911911.873, 9, 0, 1024, 1024, 1024, 1024, 0, 6, 3930, 3944, 3943, 3972, 3978, 3937, 0, 1, 19312, -89.900, 0.000, -57.800, 0.000, 0.000, -3.000, 0.0, , , , , , 96, , , 0, 0, 0
36.9937944, -119.1734888, 41.600, 10:45:11.963, 16, 0.00, 0.28, 96, -1.200, -2.300, -57.300, 2, 100, 90, 31, 23687, -18827, 5161, 5377, 17, 14, 1528911911.963, 3, 0, 1024, 1024, 1024, 1024, 0, 6, 3930, 3944, 3943, 3972, 3978, 3937, 0, 1, 19402, -90.000, 0.000, -57.800, 0.000, 0.000, -3.000, 0.0, , , , , , 96, , , 0, 0, 0
36.9937944, -119.1734888, 41.600, 10:45:12.060, 16, 0.00, 0.28, 96, -1.200, -2.300, -57.300, 2, 100, 90, 31, 23687, -18827, 5161, 5377, 17, 14, 1528911912.060, 100, 0, 1024, 1024, 1024, 1024, 0, 6, 3930, 3944, 3943, 3972, 3978, 3937, 0, 1, 19499, -90.000, 0.000, -57.800, 0.000, 0.000, -3.000, 0.0, , , , , , 96, , , 0, 0, 0
36.9937943, -119.1734888, 41.900, 10:45:12.160, 16, 0.00, 0.28, 95, -1.200, -2.400, -57.300, 2, 100, 90, 31, 23687, -18827, 5108, 5377, 17, 14, 1528911912.160, 92, 0, 1024, 1024, 1024, 1024, 0, 6, 3933, 3943, 3932, 3970, 3981, 3940, 0, 1, 19599, -90.000, 0.000, -57.800, 0.000, 0.000, -3.000, 0.0, , , , , , 96, , , 0, 0, 0
36.9937943, -119.1734888, 42.200, 10:45:12.260, 16, 0.00, 0.29, 95, -1.400, -2.600, -57.300, 2, 100, 87, 31, 23687, -18827, 5108, 5377, 17, 14, 1528911912.260, 95, 0, 1024, 1024, 1024, 1024, 0, 6, 3933, 3943, 3932, 3970, 3981, 3940, 0, 1, 19699, -90.000, 0.000, -57.800, 0.000, 0.000, -3.000, 0.0, , , , , , 96, , , 0, 0, 0
36.9937943, -119.1734888, 42.500, 10:45:12.360, 16, 0.00, 0.29, 95, -1.500, -2.500, -57.300, 2, 100, 87, 31, 23687, -18827, 5108, 5377, 17, 14, 1528911912.360, 87, 0, 1024, 1024, 1024, 1024, 0, 6, 3933, 3943, 3932, 3970, 3981, 3940, 0, 1, 19799, -90.000, 0.000, -57.800, 0.000, 0.000, -2.900, 0.0, , , , , , 96, , , 0, 0, 0
36.9937943, -119.1734887, 42.800, 10:45:12.460, 16, 0.00, 0.29, 95, -1.600, -2.500, -57.300, 2, 100, 87, 31, 23687, -18827, 5108, 5377, 17, 14, 1528911912.460, 87, 0, 1024, 1024, 1024, 1024, 0, 6, 3933, 3943, 3932, 3970, 3981, 3940, 0, 1, 19899, -90.000, 0.000, -57.800, 0.000, 0.000, -2.900, 0.0, , , , , , 96, , , 0, 0, 0
36.9937943, -119.1734887, 43.100, 10:45:12.560, 16, 0.00, 0.29, 95, -1.600, -2.400, -57.300, 2, 100, 87, 31, 23687, -18827, 5108, 5377, 17, 14, 1528911912.560, 84, 0, 1024, 1024, 1024, 1024, 0, 6, 3933, 3943, 3932, 3970, 3981, 3940, 0, 1, 19999, -90.000, 0.000, -57.800, 0.000, 0.000, -3.000, 0.0, , , , , , 96, , , 0, 0, 0
36.9937943, -119.1734887, 43.400, 10:45:12.660, 16, 0.00, 0.29, 95, -1.700, -2.300, -57.400, 2, 100, 87, 31, 23673, -18884, 5108, 5377, 17, 14, 1528911912.660, 60, 0, 1024, 1024, 1024, 1024, 0, 6, 3921, 3934, 3929, 3973, 3977, 3925, 0, 1, 20100, -90.000, 0.000, -57.800, 0.000, 0.000, -3.000, 0.0, , , , , , 96, , , 0, 0, 0
36.9937943, -119.1734887, 43.700, 10:45:12.760, 16, 0.00, 0.29, 95, -1.800, -2.300, -57.400, 2, 100, 88, 31, 23673, -18884, 5108, 5377, 17, 14, 1528911912.760, 52, 0, 1024, 1024, 1024, 1024, 0, 6, 3921, 3934, 3929, 3973, 3977, 3925, 0, 1, 20199, -90.000, 0.000, -57.800, 0.000, 0.000, -3.000, 0.0, , , , , , 96, , , 0, 0, 0
36.9937943, -119.1734887, 44.000, 10:45:12.860, 16, 0.00, 0.29, 95, -1.700, -2.400, -57.400, 2, 100, 88, 31, 23673, -18884, 5108, 5377, 17, 14, 1528911912.860, 56, 0, 1024, 1024, 1024, 1024, 0, 6, 3921, 3934, 3929, 3973, 3977, 3925, 0, 1, 20300, -90.000, 0.000, -57.800, 0.000, 0.000, -2.900, 0.0, , , , , , 96, , , 0, 0, 0
36.9937943, -119.1734887, 44.300, 10:45:12.960, 16, 0.00, 0.29, 95, -1.700, -2.500, -57.400, 2, 100, 88, 31, 23673, -18884, 5108, 5377, 17, 14, 1528911912.960, 65, 0, 1024, 1024, 1024, 1024, 0, 6, 3921, 3934, 3929, 3973, 3977, 3925, 0, 1, 20400, -90.000, 0.000, -57.800, 0.000, 0.000, -2.900, 0.0, , , , , , 96, , , 0, 0, 0
36.9937943, -119.1734887, 44.600, 10:45:13.060, 16, 0.00, 0.29, 95, -1.600, -2.500, -57.300, 2, 100, 88, 31, 23673, -18884, 5108, 5377, 17, 14, 1528911913.060, 68, 0, 1024, 1024, 1024, 1024, 0, 6, 3921, 3934, 3929, 3973, 3977, 3925, 0, 1, 20499, -90.000, 0.000, -57.800, 0.000, 0.000, -3.000, 0.0, , , , , , 96, , , 0, 0, 0
36.9937943, -119.1734887, 44.900, 10:45:13.160, 16, 0.00, 0.29, 95, -1.600, -2.500, -57.300, 2, 100, 88, 31, 23673, -18884, 5108, 5377, 17, 14, 1528911913.160, 63, 0, 1024, 1024, 1024, 1024, 0, 6, 3921, 3934, 3929, 3973, 3977, 3925, 0, 1, 20599, -90.000, 0.000, -57.800, 0.000, 0.000, -3.000, 0.0, , , , , , 96, , , 0, 0, 0
36.9937942, -119.1734887, 45.200, 10:45:13.260, 16, 0.00, 0.30, 95, -1.400, -2.500, -57.300, 2, 100, 98, 31, 23673, -18884, 5108, 5377, 17, 14, 1528911913.260, 52, 0, 1024, 1024, 1024, 1024, 0, 6, 3921, 3934, 3929, 3973, 3977, 3925, 0, 1, 20700, -90.000, 0.000, -57.800, 0.000, 0.000, -3.000, 0.0, , , , , , 96, , , 0, 0, 0
36.9937942, -119.1734887, 45.500, 10:45:13.360, 16, 0.00, 0.30, 95, -1.400, -2.400, -57.300, 2, 100, 98, 31, 23673, -18884, 5108, 5377, 17, 14, 1528911913.360, 53, 0, 1024, 1024, 1024, 1024, 0, 6, 3921, 3934, 3929, 3973, 3977, 3925, 0, 1, 20799, -90.000, 0.000, -57.800, 0.000, 0.000, -3.000, 0.0, , , , , , 96, , , 0, 0, 0
36.9937942, -119.1734887, 45.800, 10:45:13.460, 16, 0.00, 0.30, 95, -1.400, -2.400, -57.300, 2, 100, 98, 31, 23673, -18884, 5108, 5377, 17, 14, 1528911913.460, 56, 0, 1024, 1024, 1024, 1024, 0, 6, 3921, 3934, 3929, 3973, 3977, 3925, 0, 1, 20900, -90.000, 0.000, -57.800, 0.000, 0.000, -3.000, 0.0, , , , , , 96, , , 0, 0, 0
36.9937942, -119.1734888, 46.100, 10:45:13.560, 16, 0.00, 0.30, 95, -1.400, -2.400, -57.300, 2, 100, 98, 31, 23673, -18884, 5108, 5377, 17, 14, 1528911913.560, 38, 0, 1024, 1024, 1024, 1024, 0, 6, 3921, 3934, 3929, 3973, 3977, 3925, 0, 1, 21000, -90.000, 0.000, -57.800, 0.000, 0.000, -3.000, 0.0, , , , , , 96, , , 0, 0, 0
36.9937941, -119.1734888, 46.400, 10:45:13.660, 16, 0.00, 0.30, 95, -1.400, -2.400, -57.300, 2, 100, 98, 31, 23656, -18950, 5108, 5377, 17, 14, 1528911913.660, 13, 0, 1024, 1024, 1024, 1024, 0, 6, 3931, 3928, 3926, 3966, 3969, 3924, 0, 1, 21099, -90.000, 0.000, -57.800, 0.000, 0.000, -2.900, 0.0, , , , , , 96, , , 0, 0, 0
36.9937941, -119.1734888, 46.700, 10:45:13.760, 16, 0.00, 0.29, 95, -1.300, -2.400, -57.300, 2, 100, 99, 31, 23656, -18950, 5108, 5377, 17, 14, 1528911913.760, 31, 0, 1024, 1024, 1024, 1024, 0, 6, 3931, 3928, 3926, 3966, 3969, 3924, 0, 1, 21199, -89.900, 0.000, -57.800, 0.000, 0.000, -3.000, 0.0, , , , , , 96, , , 0, 0, 0
