Latitude, Longitude, Altitude (m), Time, Sats, Speed (m/s), Range (m), Battery (%), Roll (deg), Pitch (deg), Yaw (deg), Images, HD Signal (%), RC Signal (%), Battery Temp (C), Battery Voltage (mV), Battery Current (mA), Battery Energy (mAh), Battery Capacity (mAh), Battery Discharges, flyState, timestamp (Unix), LastUpdate (ms), radioChannel, Rc_elevator, Rc_aileron, Rc_throttle, Rc_rudder, Rc_gyro, Dronetype, Battery_Cell1 (mV), Battery_Cell2 (mV), Battery_Cell3 (mV), Battery_Cell4 (mV), Battery_Cell5 (mV), Battery_Cell6 (mV), Video, isFlying, elapsedTime (ms), gimbalPitch (deg), gimbalRoll (deg), gimbalYaw (deg), VelocityX (m/s), VelocityY (m/s), VelocityZ (m/s), GroundSmear (cm), App Version, Aircraft Name, Aircraft Firmware, Aircraft Serial Number, Battery Serial Number, Battery Lifetime (%), App_Tip, App_Warning, CurrentFlightStartingIndex, CurrentFlightLastVisitedWaypoint, PreviousFlightEndingWaypointIndex
36.9937777, -119.1734769, 0.000, 11:01:58.567, 11, 0.10, 0.11, 97, 1.500, 0.300, -56.600, 362, 100, 100, 25, 25519, -3436, 5197, 5358, 18, 11, 1528912918.567, 51, 0, 1024, 1024, 1024, 1024, 0, 6, 4256, 4253, 4188, 4269, 4209, 4249, 0, 1, 3053, -89.900, 0.000, -57.200, 0.100, 0.000, 0.000, 0.1, MapPilot_2.8.1_04242018, Dendroctonus I, 1.3.1.00, 041DDC1887, 1058171200162, 96, DJI_0360.jpg, Starting Mission from Lat/Long: 36.99378/-119.17348 Camera: Zenmuse X3 - Overlap: 90/90 - Active Connection: No, 13, 13, 13
36.9937778, -119.1734768, 0.000, 11:01:58.615, 11, 0.10, 0.12, 97, 1.400, 1.000, -56.100, 362, 100, 100, 25, 25416, -4243, 5197, 5358, 18, 11, 1528912918.616, 47, 0, 1024, 1024, 1024, 1024, 0, 6, 4196, 4203, 4202, 4200, 4218, 4207, 0, 1, 3101, -89.900, 0.000, -57.200, 0.100, 0.000, -0.100, 0.1, , , , , , 96, , , 13, 13, 13
36.9937778, -119.1734768, 0.000, 11:01:58.715, 11, 0.10, 0.12, 97, 1.400, 1.000, -56.100, 362, 100, 100, 25, 25416, -4243, 5197, 5358, 18, 11, 1528912918.715, 146, 0, 1024, 1024, 1024, 1024, 0, 6, 4196, 4203, 4202, 4200, 4218, 4207, 0, 1, 3200, -89.900, 0.000, -57.200, 0.100, 0.000, -0.100, 0.1, , , , , , 96, , , 13, 13, 13
36.9937781, -119.1734766, 0.000, 11:01:58.815, 11, 0.10, 0.14, 97, -0.400, 0.800, -55.800, 362, 100, 100, 25, 25416, -4243, 5197, 5358, 18, 11, 1528912918.816, 82, 0, 1024, 1024, 1024, 1024, 0, 6, 4196, 4203, 4202, 4200, 4218, 4207, 0, 1, 3301, -89.900, 0.000, -57.200, 0.100, 0.000, -0.300, 0.0, , , , , , 96, , , 13, 13, 13
36.9937782, -119.1734765, 0.000, 11:01:58.915, 11, 0.10, 0.15, 97, -0.700, 0.700, -55.900, 362, 100, 100, 25, 25416, -4243, 5197, 5358, 18, 11, 1528912918.916, 65, 0, 1024, 1024, 1024, 1024, 0, 6, 4196, 4203, 4202, 4200, 4218, 4207, 0, 1, 3401, -89.900, 0.000, -57.200, 0.100, 0.000, -0.300, 0.0, , , , , , 96, , , 13, 13, 13
36.9937783, -119.1734764, 0.100, 11:01:59.015, 13, 0.10, 0.16, 97, -0.600, 0.400, -56.100, 362, 100, 100, 25, 25416, -4243, 5197, 5358, 18, 11, 1528912919.015, 79, 0, 1024, 1024, 1024, 1024, 0, 6, 4196, 4203, 4202, 4200, 4218, 4207, 0, 1, 3500, -89.900, 0.000, -57.200, 0.100, 0.000, -0.300, 0.0, , , , , , 96, , , 13, 13, 13
36.9937783, -119.1734763, 0.100, 11:01:59.115, 13, 0.00, 0.18, 97, -0.500, 0.000, -56.300, 362, 100, 100, 25, 25416, -4243, 5197, 5358, 18, 11, 1528912919.115, 81, 0, 1024, 1024, 1024, 1024, 0, 6, 4196, 4203, 4202, 4200, 4218, 4207, 0, 1, 3600, -90.000, 0.000, -57.200, 0.000, 0.000, -0.400, 0.0, , , , , , 96, , , 13, 13, 13
36.9937784, -119.1734761, 0.200, 11:01:59.215, 12, 0.00, 0.19, 97, -0.400, -0.300, -56.400, 362, 100, 100, 25, 25416, -4243, 5197, 5358, 18, 11, 1528912919.216, 73, 0, 1024, 1024, 1024, 1024, 0, 6, 4196, 4203, 4202, 4200, 4218, 4207, 0, 1, 3701, -90.000, 0.000, -57.200, 0.000, 0.000, -0.400, 0.0, , , , , , 96, , , 13, 13, 13
36.9937784, -119.1734760, 0.200, 11:01:59.315, 12, 0.00, 0.20, 97, -0.700, -0.500, -56.600, 362, 100, 100, 25, 25416, -4243, 5197, 5358, 18, 11, 1528912919.316, 69, 0, 1024, 1024, 1024, 1024, 0, 6, 4196, 4203, 4202, 4200, 4218, 4207, 0, 1, 3801, -90.000, 0.000, -57.200, 0.000, 0.000, -0.400, 0.0, , , , , , 96, , , 13, 13, 13
36.9937785, -119.1734759, 0.200, 11:01:59.415, 12, 0.00, 0.22, 97, -1.200, -0.500, -56.600, 362, 100, 100, 25, 25416, -4243, 5197, 5358, 18, 11, 1528912919.415, 72, 0, 1024, 1024, 1024, 1024, 0, 6, 4196, 4203, 4202, 4200, 4218, 4207, 0, 1, 3900, -89.900, 0.000, -57.200, 0.000, 0.000, -0.400, 0.0, , , , , , 96, , , 13, 13, 13
36.9937786, -119.1734758, 0.300, 11:01:59.515, 12, 0.00, 0.22, 97, -1.400, -0.300, -56.700, 362, 100, 100, 25, 24418, -14478, 5197, 5358, 18, 11, 1528912919.516, 50, 0, 1024, 1024, 1024, 1024, 0, 6, 4196, 4203, 4202, 4200, 4218, 4207, 0, 1, 4001, -89.900, 0.000, -57.200, 0.000, 0.000, -0.400, 0.0, , , , , , 96, , , 13, 13, 13
36.9937787, -119.1734758, 0.400, 11:01:59.615, 12, 0.00, 0.23, 97, -1.500, -0.200, -56.700, 362, 100, 100, 25, 24418, -14478, 5197, 5358, 18, 11, 1528912919.616, 55, 0, 1024, 1024, 1024, 1024, 0, 6, 4196, 4203, 4202, 4200, 4218, 4207, 0, 1, 4102, -89.900, 0.000, -57.200, 0.000, 0.000, -0.500, 0.0, , , , , , 96, , , 13, 13, 13
36.9937788, -119.1734758, 0.400, 11:01:59.715, 12, 0.00, 0.23, 97, -1.500, 0.000, -56.600, 362, 100, 100, 25, 24418, -14478, 5197, 5358, 18, 11, 1528912919.716, 45, 0, 1024, 1024, 1024, 1024, 0, 6, 4196, 4203, 4202, 4200, 4218, 4207, 0, 1, 4202, -89.900, 0.000, -57.200, 0.000, 0.000, -0.400, 0.0, , , , , , 96, , , 13, 13, 13
36.9937788, -119.1734758, 0.400, 11:01:59.815, 12, 0.00, 0.24, 97, -1.400, 0.000, -56.500, 362, 100, 100, 25, 24418, -14478, 5197, 5358, 18, 11, 1528912919.816, 61, 0, 1024, 1024, 1024, 1024, 0, 6, 4196, 4203, 4202, 4200, 4218, 4207, 0, 1, 4301, -89.900, 0.000, -57.200, 0.000, 0.000, -0.400, 0.0, , , , , , 96, , , 13, 13, 13
36.9937788, -119.1734758, 0.500, 11:01:59.915, 12, 0.00, 0.24, 97, -1.200, 0.000, -56.500, 362, 100, 100, 25, 24418, -14478, 5197, 5358, 18, 11, 1528912919.915, 61, 0, 1024, 1024, 1024, 1024, 0, 6, 4196, 4203, 4202, 4200, 4218, 4207, 0, 1, 4400, -89.900, 0.000, -57.200, 0.000, 0.000, -0.400, 0.0, , , , , , 96, , , 13, 13, 13
36.9937788, -119.1734758, 0.500, 11:02:00.015, 12, 0.00, 0.24, 97, -1.000, 0.000, -56.400, 362, 100, 100, 25, 24418, -14478, 5197, 5358, 18, 11, 1528912920.015, 29, 0, 1024, 1024, 1024, 1024, 0, 6, 4039, 4071, 4069, 4065, 4072, 4056, 0, 1, 4500, -89.900, 0.000, -57.200, 0.000, 0.000, -0.400, 0.0, , , , , , 96, , , 13, 13, 13
36.9937789, -119.1734758, 0.600, 11:02:00.115, 12, 0.00, 0.24, 97, -0.800, 0.000, -56.400, 362, 100, 100, 25, 24418, -14478, 5197, 5358, 18, 11, 1528912920.115, 34, 0, 1024, 1024, 1024, 1024, 0, 6, 4039, 4071, 4069, 4065, 4072, 4056, 0, 1, 4601, -89.900, 0.000, -57.200, 0.000, 0.000, -0.500, 0.0, , , , , , 96, , , 13, 13, 13
36.9937789, -119.1734758, 0.700, 11:02:00.215, 13, 0.00, 0.24, 97, -0.700, 0.000, -56.500, 362, 100, 100, 25, 24418, -14478, 5197, 5358, 18, 11, 1528912920.216, 29, 0, 1024, 1024, 1024, 1024, 0, 6, 4039, 4071, 4069, 4065, 4072, 4056, 0, 1, 4701, -89.900, 0.000, -57.200, 0.000, 0.000, -0.400, 0.0, , , , , , 96, , , 13, 13, 13
36.9937788, -119.1734758, 0.700, 11:02:00.315, 13, 0.00, 0.23, 97, -0.600, 0.000, -56.500, 362, 100, 100, 25, 24418, -14478, 5197, 5358, 18, 11, 1528912920.315, 32, 0, 1024, 1024, 1024, 1024, 0, 6, 4039, 4071, 4069, 4065, 4072, 4056, 0, 1, 4800, -89.900, 0.000, -57.200, 0.000, 0.000, -0.500, 0.0, , , , , , 96, , , 13, 13, 13
36.9937788, -119.1734759, 0.800, 11:02:00.415, 11, 0.00, 0.23, 97, -0.600, 0.000, -56.500, 362, 100, 100, 25, 24418, -14478, 5197, 5358, 18, 11, 1528912920.416, 36, 0, 1024, 1024, 1024, 1024, 0, 6, 4039, 4071, 4069, 4065, 4072, 4056, 0, 1, 4901, -89.900, 0.000, -57.200, 0.000, 0.000, -0.500, 0.0, , , , , , 96, , , 13, 13, 13
36.9937787, -119.1734759, 0.800, 11:02:00.515, 11, 0.00, 0.22, 97, -0.500, 0.000, -56.500, 362, 100, 100, 25, 24418, -14478, 5197, 5358, 18, 11, 1528912920.516, 30, 0, 1024, 1024, 1024, 1024, 0, 6, 4039, 4071, 4069, 4065, 4072, 4056, 0, 1, 5001, -89.900, 0.000, -57.200, 0.000, 0.000, -0.500, 0.0, , , , , , 96, , , 13, 13, 13
36.9937785, -119.1734758, 0.900, 11:02:00.615, 11, 0.00, 0.22, 97, -0.300, 0.000, -56.500, 362, 100, 100, 25, 24418, -14478, 5197, 5358, 18, 6, 1528912920.615, 21, 0, 1024, 1024, 1024, 1024, 0, 6, 4039, 4071, 4069, 4065, 4072, 4056, 0, 1, 5100, -89.900, 0.000, -57.200, 0.000, 0.000, -0.400, 0.0, , , , , , 96, , , 13, 13, 13
36.9937785, -119.1734758, 0.900, 11:02:00.715, 11, 0.00, 0.22, 97, -0.200, 0.000, -56.500, 362, 100, 100, 25, 24418, -14478, 5197, 5358, 18, 14, 1528912920.716, 31, 0, 1024, 1024, 1024, 1024, 0, 6, 4039, 4071, 4069, 4065, 4072, 4056, 0, 1, 5202, -89.900, 0.000, -57.200, 0.000, 0.000, -0.400, 0.0, , , , , , 96, , , 13, 13, 13
36.9937785, -119.1734758, 1.000, 11:02:00.815, 13, 0.00, 0.22, 97, 0.300, 0.000, -56.400, 362, 100, 100, 25, 24418, -14478, 5197, 5358, 18, 14, 1528912920.815, 8, 0, 1024, 1024, 1024, 1024, 0, 6, 4039, 4071, 4069, 4065, 4072, 4056, 0, 1, 5300, -89.900, 0.000, -57.200, 0.000, 0.000, -0.300, 0.0, , , , , , 96, , , 13, 13, 13
36.9937784, -119.1734758, 1.000, 11:02:00.915, 13, 0.00, 0.22, 97, 0.500, 0.000, -56.400, 362, 100, 100, 25, 24418, -14478, 5197, 5358, 18, 14, 1528912920.916, 12, 0, 1024, 1024, 1024, 1024, 0, 6, 4039, 4071, 4069, 4065, 4072, 4056, 0, 1, 5402, -89.900, 0.000, -57.200, 0.000, 0.000, -0.300, 0.0, , , , , , 96, , , 13, 13, 13
36.9937784, -119.1734757, 1.000, 11:02:01.015, 13, 0.00, 0.23, 97, 0.500, -0.100, -56.400, 362, 100, 100, 25, 24191, -16287, 5197, 5358, 18, 14, 1528912921.016, 21, 0, 1024, 1024, 1024, 1024, 0, 6, 3995, 4041, 4027, 4036, 4035, 4018, 0, 1, 5502, -89.900, 0.000, -57.200, 0.000, 0.000, -0.300, 0.0, , , , , , 96, , , 13, 13, 13
36.9937784, -119.1734756, 1.100, 11:02:01.116, 13, 0.00, 0.23, 97, 0.400, -0.300, -56.400, 362, 100, 100, 25, 24191, -16287, 5197, 5358, 18, 14, 1528912921.117, 4, 0, 1024, 1024, 1024, 1024, 0, 6, 3995, 4041, 4027, 4036, 4035, 4018, 0, 1, 5602, -89.900, 0.000, -57.200, 0.000, 0.000, -0.300, 0.0, , , , , , 96, , , 13, 13, 13
36.9937783, -119.1734755, 1.200, 11:02:01.215, 13, 0.00, 0.24, 97, 0.100, -0.500, -56.300, 362, 100, 100, 25, 24191, -16287, 5197, 5358, 18, 14, 1528912921.215, 7, 0, 1024, 1024, 1024, 1024, 0, 6, 3995, 4041, 4027, 4036, 4035, 4018, 0, 1, 5701, -89.900, 0.000, -57.200, 0.000, 0.000, -0.700, 0.0, , , , , , 96, , , 13, 13, 13
36.9937783, -119.1734755, 1.200, 11:02:01.315, 13, 0.00, 0.24, 97, 0.100, -0.500, -56.300, 362, 100, 100, 25, 24191, -16287, 5197, 5358, 18, 14, 1528912921.315, 107, 0, 1024, 1024, 1024, 1024, 0, 6, 3995, 4041, 4027, 4036, 4035, 4018, 0, 1, 5800, -89.900, 0.000, -57.200, 0.000, 0.000, -0.700, 0.0, , , , , , 96, , , 13, 13, 13
36.9937782, -119.1734755, 1.300, 11:02:01.415, 12, 0.00, 0.24, 97, 0.000, -0.600, -56.300, 362, 100, 100, 25, 24191, -16287, 5197, 5358, 18, 14, 1528912921.416, 70, 0, 1024, 1024, 1024, 1024, 0, 6, 3995, 4041, 4027, 4036, 4035, 4018, 0, 1, 5901, -89.900, 0.000, -57.200, 0.000, 0.000, -0.900, 0.0, , , , , , 96, , , 13, 13, 13
36.9937782, -119.1734754, 1.400, 11:02:01.515, 12, 0.00, 0.25, 97, -0.100, -0.700, -56.200, 362, 100, 100, 25, 24191, -16287, 5197, 5358, 18, 14, 1528912921.516, 80, 0, 1024, 1024, 1024, 1024, 0, 6, 3995, 4041, 4027, 4036, 4035, 4018, 0, 1, 6001, -89.900, 0.000, -57.200, 0.000, 0.000, -1.000, 0.0, , , , , , 96, , , 13, 13, 13
36.9937781, -119.1734753, 1.500, 11:02:01.615, 11, 0.00, 0.25, 97, 0.000, -0.800, -56.200, 362, 100, 100, 25, 24191, -16287, 5197, 5358, 18, 14, 1528912921.615, 94, 0, 1024, 1024, 1024, 1024, 0, 6, 3995, 4041, 4027, 4036, 4035, 4018, 0, 1, 6100, -90.000, 0.000, -57.200, 0.000, 0.000, -1.200, 0.0, , , , , , 96, , , 13, 13, 13
36.9937780, -119.1734752, 1.600, 11:02:01.715, 11, 0.00, 0.26, 97, 0.200, -0.700, -56.100, 362, 100, 100, 25, 24191, -16287, 5197, 5358, 18, 14, 1528912921.715, 98, 0, 1024, 1024, 1024, 1024, 0, 6, 3995, 4041, 4027, 4036, 4035, 4018, 0, 1, 6200, -89.900, 0.000, -57.200, 0.000, 0.000, -1.400, 0.0, , , , , , 96, , , 13, 13, 13
36.9937779, -119.1734751, 1.800, 11:02:01.815, 13, 0.00, 0.27, 97, 0.100, -0.700, -56.200, 362, 100, 100, 25, 24191, -16287, 5197, 5358, 18, 14, 1528912921.815, 71, 0, 1024, 1024, 1024, 1024, 0, 6, 3995, 4041, 4027, 4036, 4035, 4018, 0, 1, 6300, -90.000, 0.000, -57.200, 0.000, 0.000, -1.500, 0.0, , , , , , 96, , , 13, 13, 13
36.9937778, -119.1734751, 2.000, 11:02:01.914, 13, 0.00, 0.27, 97, 0.100, -0.900, -56.300, 362, 100, 100, 25, 24191, -16287, 5197, 5358, 18, 14, 1528912921.915, 49, 0, 1024, 1024, 1024, 1024, 0, 6, 3995, 4041, 4027, 4036, 4035, 4018, 0, 1, 6400, -89.900, 0.000, -57.200, 0.000, 0.000, -1.900, 0.0, , , , , , 96, , , 13, 13, 13
36.9937777, -119.1734750, 2.200, 11:02:02.015, 13, 0.00, 0.28, 97, 0.100, -1.000, -56.500, 362, 100, 100, 25, 24147, -15751, 5197, 5358, 18, 14, 1528912922.015, 67, 0, 1024, 1024, 1024, 1024, 0, 6, 3982, 4011, 4018, 4021, 4084, 4000, 0, 1, 6500, -89.900, 0.000, -57.200, 0.000, 0.000, -2.000, 0.0, , , , , , 96, , , 13, 13, 13
36.9937777, -119.1734751, 2.400, 11:02:02.115, 13, 0.00, 0.27, 97, 0.200, -1.000, -56.700, 362, 100, 100, 25, 24147, -15751, 5197, 5358, 18, 14, 1528912922.115, 43, 0, 1024, 1024, 1024, 1024, 0, 6, 3982, 4011, 4018, 4021, 4084, 4000, 0, 1, 6600, -90.000, 0.000, -57.200, 0.000, 0.000, -2.300, 0.0, , , , , , 96, , , 13, 13, 13
36.9937777, -119.1734751, 2.700, 11:02:02.215, 13, 0.00, 0.27, 97, 0.200, -0.900, -56.800, 362, 100, 100, 25, 24147, -15751, 5197, 5358, 18, 14, 1528912922.216, 62, 0, 1024, 1024, 1024, 1024, 0, 6, 3982, 4011, 4018, 4021, 4084, 4000, 0, 1, 6701, -89.900, 0.000, -57.200, 0.000, 0.000, -2.600, 0.0, , , , , , 96, , , 13, 13, 13
36.9937776, -119.1734751, 2.900, 11:02:02.315, 13, 0.00, 0.27, 97, 0.000, -0.800, -56.900, 362, 100, 100, 25, 24147, -15751, 5197, 5358, 18, 14, 1528912922.315, 52, 0, 1024, 1024, 1024, 1024, 0, 6, 3982, 4011, 4018, 4021, 4084, 4000, 0, 1, 6800, -89.900, 0.000, -57.200, 0.000, 0.000, -2.700, 0.0, , , , , , 96, , , 13, 13, 13
36.9937775, -119.1734752, 3.200, 11:02:02.415, 14, 0.00, 0.27, 97, 0.100, -0.500, -57.000, 362, 100, 100, 25, 24147, -15751, 5197, 5358, 18, 14, 1528912922.415, 51, 0, 1024, 1024, 1024, 1024, 0, 6, 3982, 4011, 4018, 4021, 4084, 4000, 0, 1, 6900, -89.900, 0.000, -57.200, 0.000, 0.000, -2.900, 0.0, , , , , , 96, , , 13, 13, 13
36.9937774, -119.1734752, 3.500, 11:02:02.515, 14, 0.00, 0.27, 97, 0.300, -0.300, -56.900, 362, 100, 100, 25, 24147, -15751, 5197, 5358, 18, 14, 1528912922.515, 30, 0, 1024, 1024, 1024, 1024, 0, 6, 3982, 4011, 4018, 4021, 4084, 4000, 0, 1, 7000, -89.900, 0.000, -57.200, 0.000, 0.000, -3.000, 0.0, , , , , , 96, , , 13, 13, 13
36.9937773, -119.1734752, 3.800, 11:02:02.615, 13, 0.00, 0.27, 97, 0.500, -0.300, -56.800, 362, 100, 100, 25, 24147, -15751, 5197, 5358, 18, 14, 1528912922.615, 34, 0, 1024, 1024, 1024, 1024, 0, 6, 3982, 4011, 4018, 4021, 4084, 4000, 0, 1, 7100, -89.900, 0.000, -57.200, 0.000, 0.000, -3.000, 0.0, , , , , , 96, , , 13, 13, 13
36.9937773, -119.1734753, 4.100, 11:02:02.715, 13, 0.00, 0.26, 97, 0.700, -0.300, -56.700, 362, 100, 100, 25, 24147, -15751, 5197, 5358, 18, 14, 1528912922.715, 16, 0, 1024, 1024, 1024, 1024, 0, 6, 3982, 4011, 4018, 4021, 4084, 4000, 0, 1, 7200, -89.900, 0.000, -57.200, 0.000, 0.000, -3.100, 0.0, , , , , , 96, , , 13, 13, 13
36.9937773, -119.1734754, 4.500, 11:02:02.815, 14, 0.00, 0.25, 97, 0.800, -0.200, -56.600, 362, 100, 100, 25, 24147, -15751, 5197, 5358, 18, 14, 1528912922.815, 29, 0, 1024, 1024, 1024, 1024, 0, 6, 3982, 4011, 4018, 4021, 4084, 4000, 0, 1, 7300, -89.900, 0.000, -57.200, 0.000, 0.000, -3.200, 0.0, , , , , , 96, , , 13, 13, 13
36.9937773, -119.1734754, 4.800, 11:02:02.915, 14, 0.00, 0.25, 97, 0.700, 0.000, -56.500, 362, 100, 100, 25, 24147, -15751, 5197, 5358, 18, 14, 1528912922.915, 28, 0, 1024, 1024, 1024, 1024, 0, 6, 3982, 4011, 4018, 4021, 4084, 4000, 0, 1, 7400, -89.900, 0.000, -57.200, 0.000, 0.000, -3.200, 0.0, , , , , , 96, , , 13, 13, 13
36.9937773, -119.1734754, 5.100, 11:02:03.015, 13, 0.00, 0.25, 97, 0.600, 0.000, -56.400, 362, 100, 100, 25, 23639, -21850, 5197, 5358, 18, 14, 1528912923.015, 22, 0, 1024, 1024, 1024, 1024, 0, 6, 3877, 3922, 3924, 3916, 3921, 3905, 0, 1, 7500, -89.900, 0.000, -57.200, 0.000, 0.000, -3.300, 0.0, , , , , , 96, , , 13, 13, 13
36.9937773, -119.1734754, 5.500, 11:02:03.115, 13, 0.00, 0.25, 97, 0.500, -0.100, -56.400, 362, 100, 100, 25, 23639, -21850, 5197, 5358, 18, 14, 1528912923.115, 27, 0, 1024, 1024, 1024, 1024, 0, 6, 3877, 3922, 3924, 3916, 3921, 3905, 0, 1, 7600, -89.900, 0.000, -57.200, 0.000, 0.000, -3.200, 0.0, , , , , , 96, , , 13, 13, 13
36.9937774, -119.1734755, 5.800, 11:02:03.215, 13, 0.00, 0.24, 97, 0.400, -0.100, -56.400, 362, 100, 100, 25, 23639, -21850, 5197, 5358, 18, 14, 1528912923.215, 19, 0, 1024, 1024, 1024, 1024, 0, 6, 3877, 3922, 3924, 3916, 3921, 3905, 0, 1, 7700, -89.900, 0.000, -57.200, 0.000, 0.000, -3.200, 0.0, , , , , , 96, , , 13, 13, 13
36.9937774, -119.1734754, 6.100, 11:02:03.316, 13, 0.00, 0.25, 97, 0.400, 0.000, -56.400, 362, 100, 100, 25, 23639, -21850, 5197, 5358, 18, 14, 1528912923.317, 2, 0, 1024, 1024, 1024, 1024, 0, 6, 3877, 3922, 3924, 3916, 3921, 3905, 0, 1, 7802, -89.900, 0.000, -57.200, 0.000, 0.000, -3.200, 0.0, , , , , , 96, , , 13, 13, 13
36.9937774, -119.1734754, 6.100, 11:02:03.415, 13, 0.00, 0.25, 97, 0.400, 0.000, -56.400, 362, 100, 100, 25, 23639, -21850, 5197, 5358, 18, 14, 1528912923.415, 100, 0, 1024, 1024, 1024, 1024, 0, 6, 3877, 3922, 3924, 3916, 3921, 3905, 0, 1, 7900, -89.900, 0.000, -57.200, 0.000, 0.000, -3.200, 0.0, , , , , , 96, , , 13, 13, 13
36.9937775, -119.1734753, 6.800, 11:02:03.515, 13, 0.00, 0.26, 97, 0.000, -0.200, -56.400, 362, 100, 100, 25, 23639, -21850, 5197, 5358, 18, 14, 1528912923.515, 80, 0, 1024, 1024, 1024, 1024, 0, 6, 3877, 3922, 3924, 3916, 3921, 3905, 0, 1, 8000, -89.900, 0.000, -57.200, 0.000, 0.000, -3.200, 0.0, , , , , , 96, , , 13, 13, 13
36.9937775, -119.1734752, 7.100, 11:02:03.615, 13, 0.00, 0.26, 97, -0.100, -0.300, -56.500, 362, 100, 100, 25, 23639, -21850, 5197, 5358, 18, 14, 1528912923.615, 92, 0, 1024, 1024, 1024, 1024, 0, 6, 3877, 3922, 3924, 3916, 3921, 3905, 0, 1, 8101, -89.900, 0.000, -57.200, 0.000, 0.000, -3.200, 0.0, , , , , , 96, , , 13, 13, 13
36.9937775, -119.1734750, 7.500, 11:02:03.715, 13, 0.00, 0.28, 97, -0.300, -0.400, -56.500, 362, 100, 100, 25, 23639, -21850, 5197, 5358, 18, 14, 1528912923.715, 79, 0, 1024, 1024, 1024, 1024, 0, 6, 3877, 3922, 3924, 3916, 3921, 3905, 0, 1, 8201, -89.900, 0.000, -57.200, 0.000, 0.000, -3.200, 0.0, , , , , , 96, , , 13, 13, 13
36.9937775, -119.1734748, 7.800, 11:02:03.815, 13, 0.00, 0.30, 97, -0.400, -0.600, -56.500, 362, 100, 100, 25, 23639, -21850, 5197, 5358, 18, 14, 1528912923.815, 94, 0, 1024, 1024, 1024, 1024, 0, 6, 3877, 3922, 3924, 3916, 3921, 3905, 0, 1, 8301, -90.000, 0.000, -57.200, 0.000, 0.000, -3.100, 0.0, , , , , , 96, , , 13, 13, 13
36.9937775, -119.1734747, 8.100, 11:02:03.915, 13, 0.00, 0.31, 97, -0.400, -0.800, -56.500, 362, 100, 100, 25, 23639, -21850, 5197, 5358, 18, 14, 1528912923.915, 61, 0, 1024, 1024, 1024, 1024, 0, 6, 3877, 3922, 3924, 3916, 3921, 3905, 0, 1, 8400, -90.000, 0.000, -57.200, 0.000, 0.000, -3.100, 0.0, , , , , , 96, , , 13, 13, 13
36.9937774, -119.1734746, 8.400, 11:02:04.015, 13, 0.00, 0.32, 97, -0.500, -1.000, -56.400, 362, 100, 100, 25, 23561, -21589, 5197, 5358, 18, 14, 1528912924.015, 75, 0, 1024, 1024, 1024, 1024, 0, 6, 3900, 3950, 3930, 3932, 3934, 3937, 0, 1, 8500, -90.000, 0.000, -57.200, 0.000, 0.000, -3.100, 0.0, , , , , , 96, , , 13, 13, 13
36.9937774, -119.1734745, 8.800, 11:02:04.115, 13, 0.00, 0.33, 97, -0.300, -1.100, -56.400, 362, 100, 100, 25, 23561, -21589, 5197, 5358, 18, 14, 1528912924.115, 79, 0, 1024, 1024, 1024, 1024, 0, 6, 3900, 3950, 3930, 3932, 3934, 3937, 0, 1, 8600, -90.000, 0.000, -57.200, 0.000, 0.000, -3.200, 0.0, , , , , , 96, , , 13, 13, 13
36.9937773, -119.1734744, 9.100, 11:02:04.215, 13, 0.00, 0.34, 97, -0.100, -1.300, -56.300, 362, 100, 100, 25, 23561, -21589, 5197, 5358, 18, 14, 1528912924.215, 71, 0, 1024, 1024, 1024, 1024, 0, 6, 3900, 3950, 3930, 3932, 3934, 3937, 0, 1, 8700, -90.000, 0.000, -57.200, 0.000, 0.000, -3.200, 0.0, , , , , , 96, , , 13, 13, 13
36.9937773, -119.1734743, 9.400, 11:02:04.315, 13, 0.00, 0.35, 97, 0.000, -1.500, -56.300, 362, 100, 100, 25, 23561, -21589, 5197, 5358, 18, 14, 1528912924.315, 62, 0, 1024, 1024, 1024, 1024, 0, 6, 3900, 3950, 3930, 3932, 3934, 3937, 0, 1, 8800, -90.000, 0.000, -57.200, 0.000, 0.000, -3.100, 0.0, , , , , , 96, , , 13, 13, 13
36.9937772, -119.1734742, 9.800, 11:02:04.415, 14, 0.00, 0.36, 97, 0.000, -1.400, -56.300, 362, 100, 100, 25, 23561, -21589, 5197, 5358, 18, 14, 1528912924.416, 48, 0, 1024, 1024, 1024, 1024, 0, 6, 3900, 3950, 3930, 3932, 3934, 3937, 0, 1, 8902, -90.000, 0.000, -57.200, 0.000, 0.000, -3.100, 0.0, , , , , , 96, , , 13, 13, 13
36.9937772, -119.1734741, 10.100, 11:02:04.515, 14, 0.00, 0.36, 97, 0.000, -1.400, -56.400, 362, 100, 100, 25, 23561, -21589, 5197, 5358, 18, 14, 1528912924.515, 47, 0, 1024, 1024, 1024, 1024, 0, 6, 3900, 3950, 3930, 3932, 3934, 3937, 0, 1, 9000, -89.900, 0.000, -57.200, 0.000, 0.000, -3.100, 0.0, , , , , , 96, , , 13, 13, 13
36.9937772, -119.1734741, 10.400, 11:02:04.615, 15, 0.00, 0.37, 97, 0.000, -1.300, -56.400, 362, 100, 100, 25, 23561, -21589, 5197, 5358, 18, 14, 1528912924.615, 48, 0, 1024, 1024, 1024, 1024, 0, 6, 3900, 3950, 3930, 3932, 3934, 3937, 0, 1, 9101, -89.900, 0.000, -57.200, 0.000, 0.000, -3.100, 0.0, , , , , , 96, , , 13, 13, 13
36.9937772, -119.1734740, 10.700, 11:02:04.715, 15, 0.00, 0.38, 97, 0.000, -1.200, -56.500, 362, 100, 100, 25, 23561, -21589, 5197, 5358, 18, 14, 1528912924.716, 42, 0, 1024, 1024, 1024, 1024, 0, 6, 3900, 3950, 3930, 3932, 3934, 3937, 0, 1, 9201, -90.000, 0.000, -57.200, 0.000, 0.000, -3.000, 0.0, , , , , , 96, , , 13, 13, 13
36.9937772, -119.1734739, 11.100, 11:02:04.815, 15, 0.00, 0.38, 97, -0.100, -1.100, -56.500, 362, 100, 100, 25, 23561, -21589, 5197, 5358, 18, 14, 1528912924.815, 33, 0, 1024, 1024, 1024, 1024, 0, 6, 3900, 3950, 3930, 3932, 3934, 3937, 0, 1, 9300, -89.900, 0.000, -57.200, 0.000, 0.000, -3.100, 0.0, , , , , , 96, , , 13, 13, 13
36.9937772, -119.1734739, 11.100, 11:02:04.915, 15, 0.00, 0.38, 97, -0.100, -1.100, -56.500, 362, 100, 100, 25, 23561, -21589, 5197, 5358, 18, 14, 1528912924.915, 133, 0, 1024, 1024, 1024, 1024, 0, 6, 3900, 3950, 3930, 3932, 3934, 3937, 0, 1, 9400, -89.900, 0.000, -57.200, 0.000, 0.000, -3.100, 0.0, , , , , , 96, , , 13, 13, 13
36.9937773, -119.1734738, 11.700, 11:02:05.015, 15, 0.00, 0.39, 97, -0.400, -1.100, -56.600, 362, 100, 100, 25, 23699, -19104, 5197, 5358, 18, 14, 1528912925.015, 35, 0, 1024, 1024, 1024, 1024, 0, 6, 3900, 3950, 3930, 3932, 3934, 3937, 0, 1, 9500, -89.900, 0.000, -57.200, 0.000, 0.000, -3.000, 0.0, , , , , , 96, , , 13, 13, 13
36.9937773, -119.1734737, 12.000, 11:02:05.117, 15, 0.00, 0.40, 97, -0.400, -1.100, -56.500, 362, 100, 100, 25, 23699, -19104, 5197, 5358, 18, 14, 1528912925.117, 4, 0, 1024, 1024, 1024, 1024, 0, 6, 3900, 3950, 3930, 3932, 3934, 3937, 0, 1, 9602, -89.900, 0.000, -57.200, 0.000, 0.000, -2.900, 0.0, , , , , , 96, , , 13, 13, 13
36.9937773, -119.1734737, 12.300, 11:02:05.215, 16, 0.00, 0.40, 97, -0.200, -1.000, -56.500, 362, 100, 100, 25, 23699, -19104, 5197, 5358, 18, 14, 1528912925.215, 4, 0, 1024, 1024, 1024, 1024, 0, 6, 3900, 3950, 3930, 3932, 3934, 3937, 0, 1, 9700, -89.900, 0.000, -57.200, 0.000, 0.000, -3.000, 0.0, , , , , , 96, , , 13, 13, 13
36.9937773, -119.1734738, 12.900, 11:02:05.321, 17, 0.10, 0.39, 97, 0.100, -0.900, -56.500, 362, 100, 100, 25, 23699, -19104, 5197, 5358, 18, 14, 1528912925.321, 2, 0, 1024, 1024, 1024, 1024, 0, 6, 3900, 3950, 3930, 3932, 3934, 3937, 0, 1, 9807, -89.900, 0.000, -57.200, 0.000, -0.100, -3.000, 0.0, , , , , , 96, , , 13, 13, 13
36.9937773, -119.1734738, 12.900, 11:02:05.415, 17, 0.10, 0.39, 97, 0.100, -0.900, -56.500, 362, 100, 100, 25, 23699, -19104, 5197, 5358, 18, 14, 1528912925.415, 96, 0, 1024, 1024, 1024, 1024, 0, 6, 3900, 3950, 3930, 3932, 3934, 3937, 0, 1, 9900, -89.900, 0.000, -57.200, 0.000, -0.100, -3.000, 0.0, , , , , , 96, , , 13, 13, 13
36.9937773, -119.1734738, 13.200, 11:02:05.515, 17, 0.10, 0.39, 97, 0.300, -0.700, -56.500, 362, 100, 100, 25, 23699, -19104, 5197, 5358, 18, 14, 1528912925.515, 79, 0, 1024, 1024, 1024, 1024, 0, 6, 3900, 3950, 3930, 3932, 3934, 3937, 0, 1, 10000, -89.900, 0.000, -57.200, 0.000, -0.100, -3.000, 0.0, , , , , , 96, , , 13, 13, 13
36.9937773, -119.1734738, 13.500, 11:02:05.615, 15, 0.10, 0.39, 97, 0.200, -0.600, -56.500, 362, 100, 100, 25, 23699, -19104, 5197, 5358, 18, 14, 1528912925.615, 94, 0, 1024, 1024, 1024, 1024, 0, 6, 3932, 3966, 3950, 3956, 3940, 3963, 0, 1, 10100, -89.900, 0.000, -57.200, 0.000, -0.100, -3.000, 0.0, , , , , , 96, , , 13, 13, 13
36.9937773, -119.1734738, 13.800, 11:02:05.715, 15, 0.10, 0.39, 97, 0.000, -0.600, -56.400, 362, 100, 100, 25, 23699, -19104, 5197, 5358, 18, 14, 1528912925.715, 74, 0, 1024, 1024, 1024, 1024, 0, 6, 3932, 3966, 3950, 3956, 3940, 3963, 0, 1, 10200, -89.900, 0.000, -57.200, 0.000, -0.100, -2.900, 0.0, , , , , , 96, , , 13, 13, 13
36.9937773, -119.1734739, 14.100, 11:02:05.815, 17, 0.10, 0.38, 97, 0.000, -0.600, -56.400, 362, 100, 100, 25, 23699, -19104, 5197, 5358, 18, 14, 1528912925.815, 89, 0, 1024, 1024, 1024, 1024, 0, 6, 3932, 3966, 3950, 3956, 3940, 3963, 0, 1, 10301, -89.900, 0.000, -57.200, 0.000, -0.100, -3.000, 0.0, , , , , , 96, , , 13, 13, 13
36.9937774, -119.1734739, 14.500, 11:02:05.915, 17, 0.10, 0.38, 97, 0.000, -0.500, -56.400, 362, 100, 100, 25, 23699, -19104, 5197, 5358, 18, 14, 1528912925.915, 53, 0, 1024, 1024, 1024, 1024, 0, 6, 3932, 3966, 3950, 3956, 3940, 3963, 0, 1, 10400, -89.900, 0.000, -57.200, 0.000, -0.100, -3.000, 0.0, , , , , , 96, , , 13, 13, 13
36.9937774, -119.1734740, 14.800, 11:02:06.015, 17, 0.10, 0.37, 97, 0.000, -0.400, -56.400, 362, 100, 100, 25, 23699, -19104, 5197, 5358, 18, 14, 1528912926.015, 71, 0, 1024, 1024, 1024, 1024, 0, 6, 3932, 3966, 3950, 3956, 3940, 3963, 0, 1, 10501, -89.900, 0.000, -57.200, 0.000, -0.100, -2.900, 0.0, , , , , , 96, , , 13, 13, 13
36.9937774, -119.1734740, 15.100, 11:02:06.115, 17, 0.10, 0.37, 97, 0.000, -0.400, -56.400, 362, 100, 99, 25, 23699, -19104, 5197, 5358, 18, 14, 1528912926.115, 73, 0, 1024, 1024, 1024, 1024, 0, 6, 3932, 3966, 3950, 3956, 3940, 3963, 0, 1, 10600, -89.900, 0.000, -57.200, 0.000, -0.100, -2.900, 0.0, , , , , , 96, , , 13, 13, 13
36.9937774, -119.1734741, 15.400, 11:02:06.215, 18, 0.10, 0.36, 97, 0.200, -0.500, -56.400, 362, 100, 99, 25, 23699, -19104, 5197, 5358, 18, 14, 1528912926.216, 68, 0, 1024, 1024, 1024, 1024, 0, 6, 3932, 3966, 3950, 3956, 3940, 3963, 0, 1, 10701, -89.900, 0.000, -57.200, 0.000, -0.100, -2.900, 0.0, , , , , , 96, , , 13, 13, 13
36.9937775, -119.1734742, 15.700, 11:02:06.315, 18, 0.10, 0.36, 97, 0.300, -0.500, -56.400, 362, 100, 99, 25, 23699, -19104, 5197, 5358, 18, 14, 1528912926.315, 71, 0, 1024, 1024, 1024, 1024, 0, 6, 3932, 3966, 3950, 3956, 3940, 3963, 0, 1, 10801, -89.900, 0.000, -57.200, 0.000, -0.100, -2.900, 0.0, , , , , , 96, , , 13, 13, 13
36.9937775, -119.1734742, 16.000, 11:02:06.415, 18, 0.10, 0.35, 97, 0.400, -0.200, -56.400, 362, 100, 99, 25, 23699, -19104, 5197, 5358, 18, 14, 1528912926.415, 51, 0, 1024, 1024, 1024, 1024, 0, 6, 3932, 3966, 3950, 3956, 3940, 3963, 0, 1, 10900, -89.900, 0.000, -57.200, 0.000, -0.100, -2.900, 0.0, , , , , , 96, , , 13, 13, 13
36.9937776, -119.1734743, 16.300, 11:02:06.515, 18, 0.00, 0.35, 97, 0.600, -0.100, -56.300, 362, 100, 99, 25, 23719, -18538, 5197, 5358, 18, 14, 1528912926.515, 66, 0, 1024, 1024, 1024, 1024, 0, 6, 3923, 3962, 3958, 3953, 3953, 3948, 0, 1, 11000, -89.900, 0.000, -57.200, 0.000, 0.000, -2.900, 0.0, , , , , , 96, , , 13, 13, 13
36.9937776, -119.1734743, 16.600, 11:02:06.615, 18, 0.00, 0.34, 97, 0.600, -0.200, -56.300, 362, 100, 99, 25, 23719, -18538, 5197, 5358, 18, 14, 1528912926.615, 35, 0, 1024, 1024, 1024, 1024, 0, 6, 3923, 3962, 3958, 3953, 3953, 3948, 0, 1, 11100, -89.900, 0.000, -57.200, 0.000, 0.000, -2.900, 0.0, , , , , , 96, , , 13, 13, 13
36.9937776, -119.1734743, 16.900, 11:02:06.715, 18, 0.00, 0.34, 97, 0.300, -0.100, -56.200, 362, 100, 99, 25, 23719, -18538, 5197, 5358, 18, 14, 1528912926.715, 39, 0, 1024, 1024, 1024, 1024, 0, 6, 3923, 3962, 3958, 3953, 3953, 3948, 0, 1, 11201, -89.900, 0.000, -57.200, 0.000, 0.000, -3.000, 0.0, , , , , , 96, , , 13, 13, 13
36.9937777, -119.1734744, 17.200, 11:02:06.815, 18, 0.00, 0.33, 97, 0.000, -0.100, -56.100, 362, 100, 99, 25, 23719, -18538, 5197, 5358, 18, 14, 1528912926.815, 41, 0, 1024, 1024, 1024, 1024, 0, 6, 3923, 3962, 3958, 3953, 3953, 3948, 0, 1, 11300, -89.900, 0.000, -57.200, 0.000, 0.000, -3.000, 0.0, , , , , , 96, , , 13, 13, 13
36.9937778, -119.1734744, 17.500, 11:02:06.915, 18, 0.00, 0.34, 97, -0.600, -0.100, -56.100, 362, 100, 99, 25, 23719, -18538, 5197, 5358, 18, 14, 1528912926.916, 43, 0, 1024, 1024, 1024, 1024, 0, 6, 3923, 3962, 3958, 3953, 3953, 3948, 0, 1, 11401, -89.900, 0.000, -57.200, 0.000, 0.000, -3.000, 0.0, , , , , , 96, , , 13, 13, 13
36.9937779, -119.1734743, 17.800, 11:02:07.015, 17, 0.00, 0.34, 97, -1.100, -0.100, -56.200, 362, 100, 99, 25, 23719, -18538, 5197, 5358, 18, 14, 1528912927.015, 37, 0, 1024, 1024, 1024, 1024, 0, 6, 3923, 3962, 3958, 3953, 3953, 3948, 0, 1, 11501, -89.900, 0.000, -57.200, 0.000, 0.000, -2.900, 0.0, , , , , , 96, , , 13, 13, 13
36.9937779, -119.1734743, 18.100, 11:02:07.115, 17, 0.00, 0.34, 97, -1.400, -0.300, -56.200, 362, 100, 99, 25, 23719, -18538, 5197, 5358, 18, 14, 1528912927.115, 28, 0, 1024, 1024, 1024, 1024, 0, 6, 3923, 3962, 3958, 3953, 3953, 3948, 0, 1, 11600, -90.000, 0.000, -57.200, 0.000, 0.000, -2.900, 0.0, , , , , , 96, , , 13, 13, 13
36.9937779, -119.1734743, 18.400, 11:02:07.215, 18, 0.00, 0.34, 97, -1.500, -0.700, -56.300, 362, 100, 99, 25, 23719, -18538, 5197, 5358, 18, 14, 1528912927.215, 33, 0, 1024, 1024, 1024, 1024, 0, 6, 3923, 3962, 3958, 3953, 3953, 3948, 0, 1, 11700, -90.000, 0.000, -57.200, 0.000, 0.000, -2.900, 0.0, , , , , , 96, , , 13, 13, 13
36.9937780, -119.1734743, 18.700, 11:02:07.315, 18, 0.00, 0.34, 97, -1.300, -0.800, -56.300, 362, 100, 99, 25, 23719, -18538, 5197, 5358, 18, 14, 1528912927.315, 38, 0, 1024, 1024, 1024, 1024, 0, 6, 3923, 3962, 3958, 3953, 3953, 3948, 0, 1, 11800, -89.900, 0.000, -57.200, 0.000, 0.000, -2.900, 0.0, , , , , , 96, , , 13, 13, 13
36.9937780, -119.1734743, 19.000, 11:02:07.415, 18, 0.00, 0.34, 97, -1.100, -0.600, -56.200, 362, 100, 99, 25, 23719, -18538, 5197, 5358, 18, 14, 1528912927.415, 17, 0, 1024, 1024, 1024, 1024, 0, 6, 3923, 3962, 3958, 3953, 3953, 3948, 0, 1, 11901, -89.900, 0.000, -57.200, 0.000, 0.000, -2.800, 0.0, , , , , , 96, , , 13, 13, 13
36.9937780, -119.1734743, 19.300, 11:02:07.515, 18, 0.00, 0.35, 97, -1.000, -0.600, -56.100, 362, 100, 99, 25, 23707, -18538, 5197, 5358, 18, 14, 1528912927.515, 33, 0, 1024, 1024, 1024, 1024, 0, 6, 3929, 3964, 3955, 3953, 3952, 3949, 0, 1, 12000, -89.900, 0.000, -57.200, 0.000, 0.000, -2.800, 0.0, , , , , , 96, , , 13, 13, 13
36.9937780, -119.1734743, 19.600, 11:02:07.615, 19, 0.00, 0.35, 97, -1.000, -0.700, -56.100, 362, 100, 98, 25, 23707, -18538, 5197, 5358, 18, 14, 1528912927.615, 30, 0, 1024, 1024, 1024, 1024, 0, 6, 3929, 3964, 3955, 3953, 3952, 3949, 0, 1, 12101, -89.900, 0.000, -57.200, 0.000, 0.000, -2.800, 0.0, , , , , , 96, , , 13, 13, 13
36.9937781, -119.1734743, 19.900, 11:02:07.715, 19, 0.00, 0.35, 97, -1.000, -0.900, -56.000, 362, 100, 98, 25, 23707, -18538, 5197, 5358, 18, 14, 1528912927.715, 18, 0, 1024, 1024, 1024, 1024, 0, 6, 3929, 3964, 3955, 3953, 3952, 3949, 0, 1, 12201, -89.900, 0.000, -57.200, 0.000, 0.000, -2.900, 0.0, , , , , , 96, , , 13, 13, 13
36.9937781, -119.1734743, 20.200, 11:02:07.815, 20, 0.00, 0.35, 97, -1.100, -1.100, -55.900, 362, 100, 98, 25, 23707, -18538, 5197, 5358, 18, 14, 1528912927.815, 19, 0, 1024, 1024, 1024, 1024, 0, 6, 3929, 3964, 3955, 3953, 3952, 3949, 0, 1, 12300, -89.900, 0.000, -57.200, 0.000, 0.000, -2.800, 0.0, , , , , , 96, , , 13, 13, 13
36.9937780, -119.1734743, 20.500, 11:02:07.915, 20, 0.00, 0.34, 97, -1.000, -1.100, -55.800, 362, 100, 98, 25, 23707, -18538, 5197, 5358, 18, 14, 1528912927.915, 22, 0, 1024, 1024, 1024, 1024, 0, 6, 3929, 3964, 3955, 3953, 3952, 3949, 0, 1, 12401, -89.900, 0.000, -57.200, 0.000, 0.000, -2.800, 0.0, , , , , , 96, , , 13, 13, 13
36.9937780, -119.1734743, 20.800, 11:02:08.015, 20, 0.00, 0.34, 97, -0.800, -1.000, -55.900, 362, 100, 98, 25, 23707, -18538, 5197, 5358, 18, 14, 1528912928.015, 12, 0, 1024, 1024, 1024, 1024, 0, 6, 3929, 3964, 3955, 3953, 3952, 3949, 0, 1, 12500, -89.900, 0.000, -57.200, 0.000, 0.000, -2.800, 0.0, , , , , , 96, , , 13, 13, 13
36.9937780, -119.1734743, 21.100, 11:02:08.117, 20, 0.00, 0.34, 97, -0.500, -1.000, -56.000, 362, 100, 97, 25, 23707, -18538, 5197, 5358, 18, 14, 1528912928.117, 6, 0, 1024, 1024, 1024, 1024, 0, 6, 3929, 3964, 3955, 3953, 3952, 3949, 0, 1, 12602, -89.900, 0.000, -57.200, 0.000, 0.000, -2.900, 0.0, , , , , , 96, , , 13, 13, 13
36.9937781, -119.1734745, 21.600, 11:02:08.215, 19, 0.00, 0.33, 97, -0.100, -0.600, -56.700, 362, 100, 97, 25, 23707, -18538, 5197, 5358, 18, 14, 1528912928.215, 3, 0, 1024, 1024, 1024, 1024, 0, 6, 3929, 3964, 3955, 3953, 3952, 3949, 0, 1, 12700, -89.900, 0.000, -57.200, 0.000, 0.000, -2.800, 0.0, , , , , , 96, , , 13, 13, 13
36.9937781, -119.1734745, 21.600, 11:02:08.315, 19, 0.00, 0.33, 97, -0.100, -0.600, -56.700, 362, 100, 97, 25, 23707, -18538, 5197, 5358, 18, 14, 1528912928.315, 103, 0, 1024, 1024, 1024, 1024, 0, 6, 3929, 3964, 3955, 3953, 3952, 3949, 0, 1, 12800, -89.900, 0.000, -57.200, 0.000, 0.000, -2.800, 0.0, , , , , , 96, , , 13, 13, 13
36.9937781, -119.1734745, 21.900, 11:02:08.426, 20, 0.00, 0.32, 97, -0.300, -0.400, -57.000, 362, 100, 97, 25, 23707, -18538, 5197, 5358, 18, 14, 1528912928.426, 1, 0, 1024, 1024, 1024, 1024, 0, 6, 3929, 3964, 3955, 3953, 3952, 3949, 0, 1, 12911, -89.900, 0.000, -57.200, 0.000, 0.000, -2.800, 0.0, , , , , , 96, , , 13, 13, 13
36.9937781, -119.1734746, 22.200, 11:02:08.515, 20, 0.00, 0.32, 97, -0.600, -0.100, -57.200, 362, 100, 97, 25, 23664, -19319, 5197, 5358, 18, 14, 1528912928.516, 88, 0, 1024, 1024, 1024, 1024, 0, 6, 3929, 3964, 3955, 3953, 3952, 3949, 0, 1, 13001, -89.900, 0.000, -57.200, 0.000, 0.000, -2.900, 0.0, , , , , , 96, , , 13, 13, 13
36.9937781, -119.1734746, 22.200, 11:02:08.615, 20, 0.00, 0.32, 97, -0.600, -0.100, -57.200, 362, 100, 97, 25, 23664, -19319, 5197, 5358, 18, 14, 1528912928.615, 188, 0, 1024, 1024, 1024, 1024, 0, 6, 3929, 3964, 3955, 3953, 3952, 3949, 0, 1, 13100, -89.900, 0.000, -57.200, 0.000, 0.000, -2.900, 0.0, , , , , , 96, , , 13, 13, 13
36.9937781, -119.1734747, 22.800, 11:02:08.715, 20, 0.00, 0.31, 97, -0.600, 0.000, -57.200, 362, 100, 95, 25, 23664, -19319, 5197, 5358, 18, 14, 1528912928.715, 92, 0, 1024, 1024, 1024, 1024, 0, 6, 3911, 3955, 3947, 3948, 3939, 3938, 0, 1, 13201, -89.900, 0.000, -57.200, 0.000, 0.000, -3.000, 0.0, , , , , , 96, , , 13, 13, 13
36.9937781, -119.1734747, 23.100, 11:02:08.815, 20, 0.00, 0.30, 97, -0.600, 0.000, -57.200, 362, 100, 95, 25, 23664, -19319, 5197, 5358, 18, 14, 1528912928.815, 98, 0, 1024, 1024, 1024, 1024, 0, 6, 3911, 3955, 3947, 3948, 3939, 3938, 0, 1, 13300, -89.900, 0.000, -57.200, 0.000, 0.000, -3.000, 0.0, , , , , , 96, , , 13, 13, 13
36.9937781, -119.1734748, 23.400, 11:02:08.915, 20, 0.00, 0.30, 97, -0.800, 0.000, -57.000, 362, 100, 95, 25, 23664, -19319, 5197, 5358, 18, 14, 1528912928.915, 87, 0, 1024, 1024, 1024, 1024, 0, 6, 3911, 3955, 3947, 3948, 3939, 3938, 0, 1, 13400, -89.900, 0.000, -57.200, 0.000, 0.000, -2.900, 0.0, , , , , , 96, , , 13, 13, 13
36.9937781, -119.1734748, 23.700, 11:02:09.015, 20, 0.00, 0.30, 97, -0.900, 0.000, -56.900, 362, 100, 95, 25, 23664, -19319, 5197, 5358, 18, 14, 1528912929.015, 92, 0, 1024, 1024, 1024, 1024, 0, 6, 3911, 3955, 3947, 3948, 3939, 3938, 0, 1, 13500, -89.900, 0.000, -57.200, 0.000, 0.000, -2.900, 0.0, , , , , , 96, , , 13, 13, 13
36.9937781, -119.1734748, 23.700, 11:02:09.115, 20, 0.00, 0.30, 97, -0.900, 0.000, -56.900, 362, 100, 95, 25, 23664, -19319, 5197, 5358, 18, 14, 1528912929.115, 192, 0, 1024, 1024, 1024, 1024, 0, 6, 3911, 3955, 3947, 3948, 3939, 3938, 0, 1, 13600, -89.900, 0.000, -57.200, 0.000, 0.000, -2.900, 0.0, , , , , , 96, , , 13, 13, 13
36.9937782, -119.1734749, 24.300, 11:02:09.214, 20, 0.00, 0.29, 97, -1.100, 0.000, -56.800, 362, 100, 97, 25, 23664, -19319, 5197, 5358, 18, 14, 1528912929.214, 72, 0, 1024, 1024, 1024, 1024, 0, 6, 3911, 3955, 3947, 3948, 3939, 3938, 0, 1, 13700, -89.900, 0.000, -57.200, 0.000, 0.000, -3.000, 0.0, , , , , , 96, , , 13, 13, 13
36.9937783, -119.1734749, 24.600, 11:02:09.315, 20, 0.00, 0.29, 97, -1.100, 0.000, -56.800, 362, 100, 97, 25, 23664, -19319, 5197, 5358, 18, 14, 1528912929.315, 64, 0, 1024, 1024, 1024, 1024, 0, 6, 3911, 3955, 3947, 3948, 3939, 3938, 0, 1, 13800, -89.900, 0.000, -57.200, 0.000, 0.000, -2.900, 0.0, , , , , , 96, , , 13, 13, 13
36.9937783, -119.1734749, 24.900, 11:02:09.414, 20, 0.00, 0.29, 97, -1.200, -0.100, -56.900, 362, 100, 97, 25, 23664, -19319, 5197, 5358, 18, 14, 1528912929.415, 69, 0, 1024, 1024, 1024, 1024, 0, 6, 3911, 3955, 3947, 3948, 3939, 3938, 0, 1, 13900, -89.900, 0.000, -57.200, 0.000, 0.000, -2.900, 0.0, , , , , , 96, , , 13, 13, 13
36.9937783, -119.1734750, 25.200, 11:02:09.514, 20, 0.00, 0.29, 97, -1.200, 0.000, -56.900, 362, 100, 97, 25, 23564, -19103, 5143, 5358, 18, 14, 1528912929.515, 63, 0, 1024, 1024, 1024, 1024, 0, 6, 3900, 3944, 3935, 3928, 3926, 3929, 0, 1, 14000, -89.900, 0.000, -57.200, 0.000, 0.000, -2.900, 0.0, , , , , , 96, , , 13, 13, 13
36.9937782, -119.1734750, 25.500, 11:02:09.614, 20, 0.00, 0.28, 97, -0.800, 0.000, -56.900, 362, 100, 95, 25, 23564, -19103, 5143, 5358, 18, 14, 1528912929.615, 61, 0, 1024, 1024, 1024, 1024, 0, 6, 3900, 3944, 3935, 3928, 3926, 3929, 0, 1, 14100, -89.900, 0.000, -57.200, 0.000, 0.000, -2.900, 0.0, , , , , , 96, , , 13, 13, 13
36.9937782, -119.1734750, 25.800, 11:02:09.715, 20, 0.00, 0.28, 97, -0.500, 0.000, -56.800, 362, 100, 95, 25, 23564, -19103, 5143, 5358, 18, 14, 1528912929.715, 55, 0, 1024, 1024, 1024, 1024, 0, 6, 3900, 3944, 3935, 3928, 3926, 3929, 0, 1, 14201, -89.900, 0.000, -57.200, 0.000, 0.000, -2.900, 0.0, , , , , , 96, , , 13, 13, 13
36.9937782, -119.1734751, 26.100, 11:02:09.815, 20, 0.00, 0.28, 97, -0.400, -0.100, -56.600, 362, 100, 95, 25, 23564, -19103, 5143, 5358, 18, 14, 1528912929.815, 43, 0, 1024, 1024, 1024, 1024, 0, 6, 3900, 3944, 3935, 3928, 3926, 3929, 0, 1, 14300, -89.900, 0.000, -57.200, 0.000, 0.000, -2.900, 0.0, , , , , , 96, , , 13, 13, 13
36.9937782, -119.1734751, 26.400, 11:02:09.915, 20, 0.00, 0.28, 97, -0.300, -0.200, -56.400, 362, 100, 95, 25, 23564, -19103, 5143, 5358, 18, 14, 1528912929.915, 36, 0, 1024, 1024, 1024, 1024, 0, 6, 3900, 3944, 3935, 3928, 3926, 3929, 0, 1, 14401, -89.900, 0.000, -57.200, 0.000, 0.000, -2.900, 0.0, , , , , , 96, , , 13, 13, 13
36.9937782, -119.1734751, 26.700, 11:02:10.015, 20, 0.00, 0.27, 97, -0.200, -0.200, -56.200, 362, 100, 95, 25, 23564, -19103, 5143, 5358, 18, 14, 1528912930.015, 50, 0, 1024, 1024, 1024, 1024, 0, 6, 3900, 3944, 3935, 3928, 3926, 3929, 0, 1, 14501, -89.900, 0.000, -57.200, 0.000, 0.000, -2.900, 0.0, , , , , , 96, , , 13, 13, 13
36.9937782, -119.1734751, 27.000, 11:02:10.115, 20, 0.00, 0.27, 97, -0.100, 0.000, -56.100, 362, 100, 97, 25, 23564, -19103, 5143, 5358, 18, 14, 1528912930.115, 44, 0, 1024, 1024, 1024, 1024, 0, 6, 3900, 3944, 3935, 3928, 3926, 3929, 0, 1, 14600, -89.900, 0.000, -57.200, 0.000, 0.000, -2.900, 0.0, , , , , , 96, , , 13, 13, 13
36.9937782, -119.1734751, 27.300, 11:02:10.215, 20, 0.00, 0.27, 97, -0.100, 0.000, -56.200, 362, 100, 97, 25, 23564, -19103, 5143, 5358, 18, 14, 1528912930.215, 47, 0, 1024, 1024, 1024, 1024, 0, 6, 3900, 3944, 3935, 3928, 3926, 3929, 0, 1, 14700, -89.900, 0.000, -57.200, 0.000, 0.000, -2.900, 0.0, , , , , , 96, , , 13, 13, 13
36.9937782, -119.1734751, 27.600, 11:02:10.315, 20, 0.00, 0.28, 97, -0.700, -0.100, -56.300, 362, 100, 97, 25, 23564, -19103, 5143, 5358, 18, 14, 1528912930.315, 39, 0, 1024, 1024, 1024, 1024, 0, 6, 3900, 3944, 3935, 3928, 3926, 3929, 0, 1, 14800, -89.900, 0.000, -57.200, 0.000, 0.000, -3.000, 0.0, , , , , , 96, , , 13, 13, 13
36.9937782, -119.1734750, 27.900, 11:02:10.414, 20, 0.00, 0.28, 97, -1.200, -0.400, -56.500, 362, 100, 97, 25, 23564, -19103, 5143, 5358, 18, 14, 1528912930.415, 41, 0, 1024, 1024, 1024, 1024, 0, 6, 3900, 3944, 3935, 3928, 3926, 3929, 0, 1, 14900, -90.000, 0.000, -57.200, 0.000, 0.000, -3.000, 0.0, , , , , , 96, , , 13, 13, 13
36.9937781, -119.1734750, 28.300, 11:02:10.515, 20, 0.00, 0.28, 96, -1.300, -0.700, -56.500, 362, 100, 97, 25, 23554, -19185, 5143, 5358, 18, 14, 1528912930.515, 9, 0, 1024, 1024, 1024, 1024, 0, 6, 3900, 3944, 3935, 3928, 3926, 3929, 0, 1, 15000, -90.000, 0.000, -57.200, 0.000, 0.000, -3.000, 0.0, , , , , , 96, , , 13, 13, 13
36.9937781, -119.1734749, 28.600, 11:02:10.614, 20, 0.00, 0.29, 96, -1.300, -0.800, -56.500, 362, 100, 99, 25, 23554, -19185, 5143, 5358, 18, 14, 1528912930.615, 22, 0, 1024, 1024, 1024, 1024, 0, 6, 3900, 3944, 3935, 3928, 3926, 3929, 0, 1, 15100, -90.000, 0.000, -57.200, 0.000, 0.000, -3.000, 0.0, , , , , , 96, , , 13, 13, 13
36.9937781, -119.1734748, 28.900, 11:02:10.715, 20, 0.00, 0.30, 96, -1.400, -0.800, -56.400, 362, 100, 99, 25, 23554, -19185, 5143, 5358, 18, 14, 1528912930.715, 26, 0, 1024, 1024, 1024, 1024, 0, 6, 3900, 3944, 3935, 3928, 3926, 3929, 0, 1, 15200, -90.000, 0.000, -57.200, 0.000, 0.000, -2.900, 0.0, , , , , , 96, , , 13, 13, 13
36.9937781, -119.1734748, 29.200, 11:02:10.814, 20, 0.00, 0.30, 96, -1.500, -0.900, -56.200, 362, 100, 99, 25, 23554, -19185, 5143, 5358, 18, 14, 1528912930.815, 19, 0, 1024, 1024, 1024, 1024, 0, 6, 3900, 3944, 3935, 3928, 3926, 3929, 0, 1, 15300, -90.000, 0.000, -57.200, 0.000, 0.000, -2.900, 0.0, , , , , , 96, , , 13, 13, 13
36.9937781, -119.1734746, 29.500, 11:02:10.915, 20, 0.00, 0.32, 96, -1.600, -1.100, -56.200, 362, 100, 99, 25, 23554, -19185, 5143, 5358, 18, 14, 1528912930.915, 12, 0, 1024, 1024, 1024, 1024, 0, 6, 3900, 3944, 3935, 3928, 3926, 3929, 0, 1, 15400, -90.000, 0.000, -57.200, 0.000, 0.000, -2.900, 0.0, , , , , , 96, , , 13, 13, 13
36.9937781, -119.1734745, 29.800, 11:02:11.015, 20, 0.00, 0.33, 96, -1.500, -1.400, -56.100, 362, 100, 99, 25, 23554, -19185, 5143, 5358, 18, 14, 1528912931.015, 7, 0, 1024, 1024, 1024, 1024, 0, 6, 3903, 3947, 3925, 3918, 3919, 3921, 0, 1, 15500, -90.000, 0.000, -57.200, 0.000, 0.000, -2.900, 0.0, , , , , , 96, , , 13, 13, 13
36.9937781, -119.1734743, 30.100, 11:02:11.115, 20, 0.00, 0.34, 96, -1.400, -1.700, -56.100, 362, 100, 98, 25, 23554, -19185, 5143, 5358, 18, 14, 1528912931.115, 25, 0, 1024, 1024, 1024, 1024, 0, 6, 3903, 3947, 3925, 3918, 3919, 3921, 0, 1, 15600, -90.000, 0.000, -57.200, 0.000, 0.000, -2.900, 0.0, , , , , , 96, , , 13, 13, 13
36.9937781, -119.1734742, 30.400, 11:02:11.215, 20, 0.00, 0.35, 96, -1.500, -1.800, -56.200, 362, 100, 98, 25, 23554, -19185, 5143, 5358, 18, 14, 1528912931.215, 16, 0, 1024, 1024, 1024, 1024, 0, 6, 3903, 3947, 3925, 3918, 3919, 3921, 0, 1, 15700, -89.900, 0.000, -57.200, 0.000, 0.000, -2.900, 0.0, , , , , , 96, , , 13, 13, 13
36.9937781, -119.1734741, 30.700, 11:02:11.315, 20, 0.00, 0.36, 96, -1.600, -1.800, -56.300, 362, 100, 98, 25, 23554, -19185, 5143, 5358, 18, 14, 1528912931.315, 16, 0, 1024, 1024, 1024, 1024, 0, 6, 3903, 3947, 3925, 3918, 3919, 3921, 0, 1, 15800, -89.900, 0.000, -57.200, 0.000, 0.000, -2.900, 0.0, , , , , , 96, , , 13, 13, 13
36.9937780, -119.1734739, 31.000, 11:02:11.415, 20, 0.00, 0.38, 96, -1.700, -1.900, -56.400, 362, 100, 98, 25, 23554, -19185, 5143, 5358, 18, 14, 1528912931.415, 8, 0, 1024, 1024, 1024, 1024, 0, 6, 3903, 3947, 3925, 3918, 3919, 3921, 0, 1, 15900, -89.900, 0.000, -57.200, 0.000, 0.000, -2.800, 0.0, , , , , , 96, , , 13, 13, 13
36.9937780, -119.1734738, 31.300, 11:02:11.526, 20, 0.00, 0.39, 96, -1.700, -2.200, -56.400, 362, 100, 98, 25, 23554, -19185, 5143, 5358, 18, 14, 1528912931.527, 1, 0, 1024, 1024, 1024, 1024, 0, 6, 3903, 3947, 3925, 3918, 3919, 3921, 0, 1, 16012, -89.900, 0.000, -57.200, 0.000, 0.000, -2.800, 0.0, , , , , , 96, , , 13, 13, 13
36.9937779, -119.1734736, 31.900, 11:02:11.617, 20, 0.00, 0.41, 96, -1.700, -2.600, -56.300, 362, 100, 96, 25, 23554, -19185, 5143, 5358, 18, 14, 1528912931.618, 4, 0, 1024, 1024, 1024, 1024, 0, 6, 3903, 3947, 3925, 3918, 3919, 3921, 0, 1, 16103, -89.900, 0.000, -57.200, 0.000, 0.000, -2.900, 0.0, , , , , , 96, , , 13, 13, 13
36.9937779, -119.1734736, 31.900, 11:02:11.715, 20, 0.00, 0.41, 96, -1.700, -2.600, -56.300, 362, 100, 96, 25, 23554, -19185, 5143, 5358, 18, 14, 1528912931.715, 101, 0, 1024, 1024, 1024, 1024, 0, 6, 3903, 3947, 3925, 3918, 3919, 3921, 0, 1, 16200, -89.900, 0.000, -57.200, 0.000, 0.000, -2.900, 0.0, , , , , , 96, , , 13, 13, 13
36.9937779, -119.1734735, 32.200, 11:02:11.815, 20, 0.00, 0.42, 96, -1.900, -2.700, -56.200, 362, 100, 96, 25, 23554, -19185, 5143, 5358, 18, 14, 1528912931.815, 95, 0, 1024, 1024, 1024, 1024, 0, 6, 3903, 3947, 3925, 3918, 3919, 3921, 0, 1, 16300, -89.900, 0.000, -57.200, 0.000, 0.000, -2.900, 0.0, , , , , , 96, , , 13, 13, 13
36.9937779, -119.1734734, 32.500, 11:02:11.914, 20, 0.00, 0.42, 96, -1.900, -2.700, -56.200, 362, 100, 96, 25, 23554, -19185, 5143, 5358, 18, 14, 1528912931.915, 88, 0, 1024, 1024, 1024, 1024, 0, 6, 3903, 3947, 3925, 3918, 3919, 3921, 0, 1, 16400, -89.900, 0.000, -57.200, 0.000, 0.000, -2.900, 0.0, , , , , , 96, , , 13, 13, 13
36.9937779, -119.1734733, 32.800, 11:02:12.015, 20, 0.00, 0.43, 96, -1.700, -2.600, -56.100, 362, 100, 96, 25, 23537, -18860, 5143, 5358, 18, 14, 1528912932.015, 79, 0, 1024, 1024, 1024, 1024, 0, 6, 3902, 3931, 3922, 3915, 3915, 3913, 0, 1, 16500, -89.900, 0.000, -57.200, 0.000, 0.000, -2.800, 0.0, , , , , , 96, , , 13, 13, 13
36.9937779, -119.1734733, 33.000, 11:02:12.115, 20, 0.00, 0.43, 96, -1.600, -2.400, -56.100, 362, 100, 96, 25, 23537, -18860, 5143, 5358, 18, 14, 1528912932.115, 85, 0, 1024, 1024, 1024, 1024, 0, 6, 3902, 3931, 3922, 3915, 3915, 3913, 0, 1, 16600, -89.900, 0.000, -57.200, 0.000, 0.000, -2.800, 0.0, , , , , , 96, , , 13, 13, 13
36.9937779, -119.1734732, 33.300, 11:02:12.214, 20, 0.00, 0.44, 96, -1.600, -2.300, -56.200, 362, 100, 96, 25, 23537, -18860, 5143, 5358, 18, 14, 1528912932.215, 63, 0, 1024, 1024, 1024, 1024, 0, 6, 3902, 3931, 3922, 3915, 3915, 3913, 0, 1, 16700, -89.900, 0.000, -57.200, 0.000, 0.000, -2.900, 0.0, , , , , , 96, , , 13, 13, 13
36.9937779, -119.1734732, 33.600, 11:02:12.315, 20, 0.00, 0.44, 96, -1.600, -2.100, -56.300, 362, 100, 96, 25, 23537, -18860, 5143, 5358, 18, 14, 1528912932.315, 68, 0, 1024, 1024, 1024, 1024, 0, 6, 3902, 3931, 3922, 3915, 3915, 3913, 0, 1, 16800, -89.900, 0.000, -57.200, 0.000, 0.000, -2.900, 0.0, , , , , , 96, , , 13, 13, 13
36.9937780, -119.1734732, 33.900, 11:02:12.414, 20, 0.00, 0.44, 96, -1.600, -2.000, -56.300, 362, 100, 96, 25, 23537, -18860, 5143, 5358, 18, 14, 1528912932.414, 71, 0, 1024, 1024, 1024, 1024, 0, 6, 3902, 3931, 3922, 3915, 3915, 3913, 0, 1, 16900, -89.900, 0.000, -57.200, 0.000, 0.000, -2.900, 0.0, , , , , , 96, , , 13, 13, 13
36.9937780, -119.1734732, 34.200, 11:02:12.515, 20, 0.00, 0.44, 96, -1.700, -1.900, -56.400, 362, 100, 96, 25, 23537, -18860, 5143, 5358, 18, 14, 1528912932.515, 67, 0, 1024, 1024, 1024, 1024, 0, 6, 3902, 3931, 3922, 3915, 3915, 3913, 0, 1, 17000, -89.900, 0.000, -57.200, 0.000, 0.000, -2.900, 0.0, , , , , , 96, , , 13, 13, 13
36.9937781, -119.1734732, 34.500, 11:02:12.614, 20, 0.00, 0.44, 96, -1.900, -1.800, -56.400, 362, 100, 96, 25, 23537, -18860, 5143, 5358, 18, 14, 1528912932.615, 77, 0, 1024, 1024, 1024, 1024, 0, 6, 3902, 3931, 3922, 3915, 3915, 3913, 0, 1, 17100, -89.900, 0.000, -57.200, 0.000, 0.000, -2.900, 0.0, , , , , , 96, , , 13, 13, 13
36.9937781, -119.1734732, 34.800, 11:02:12.714, 20, 0.00, 0.44, 96, -2.100, -1.700, -56.400, 362, 100, 96, 25, 23537, -18860, 5143, 5358, 18, 14, 1528912932.715, 55, 0, 1024, 1024, 1024, 1024, 0, 6, 3902, 3931, 3922, 3915, 3915, 3913, 0, 1, 17200, -89.900, 0.000, -57.200, 0.000, 0.000, -2.900, 0.0, , , , , , 96, , , 13, 13, 13
36.9937782, -119.1734732, 35.100, 11:02:12.815, 20, 0.00, 0.44, 96, -2.200, -1.700, -56.400, 362, 100, 96, 25, 23537, -18860, 5143, 5358, 18, 14, 1528912932.815, 62, 0, 1024, 1024, 1024, 1024, 0, 6, 3902, 3931, 3922, 3915, 3915, 3913, 0, 1, 17301, -89.900, 0.000, -57.200, 0.000, 0.000, -3.000, 0.0, , , , , , 96, , , 13, 13, 13
36.9937782, -119.1734732, 35.400, 11:02:12.914, 20, 0.00, 0.44, 96, -2.200, -1.800, -56.400, 362, 100, 96, 25, 23537, -18860, 5143, 5358, 18, 14, 1528912932.915, 62, 0, 1024, 1024, 1024, 1024, 0, 6, 3902, 3931, 3922, 3915, 3915, 3913, 0, 1, 17400, -89.900, 0.000, -57.200, 0.000, 0.000, -3.000, 0.0, , , , , , 96, , , 13, 13, 13
36.9937782, -119.1734732, 35.700, 11:02:13.014, 20, 0.00, 0.44, 96, -2.200, -1.900, -56.400, 362, 100, 96, 25, 23444, -19573, 5143, 5358, 18, 14, 1528912933.015, 49, 0, 1024, 1024, 1024, 1024, 0, 6, 3884, 3920, 3906, 3899, 3906, 3895, 0, 1, 17500, -89.900, 0.000, -57.200, 0.000, 0.000, -2.900, 0.0, , , , , , 96, , , 13, 13, 13
36.9937782, -119.1734732, 36.000, 11:02:13.115, 20, 0.00, 0.44, 96, -1.900, -1.900, -56.400, 362, 100, 94, 25, 23444, -19573, 5143, 5358, 18, 14, 1528912933.115, 45, 0, 1024, 1024, 1024, 1024, 0, 6, 3884, 3920, 3906, 3899, 3906, 3895, 0, 1, 17600, -89.900, 0.000, -57.200, 0.000, 0.000, -2.900, 0.0, , , , , , 96, , , 13, 13, 13
36.9937782, -119.1734733, 36.300, 11:02:13.215, 20, 0.00, 0.44, 96, -1.800, -1.800, -56.400, 362, 100, 94, 25, 23444, -19573, 5143, 5358, 18, 14, 1528912933.215, 49, 0, 1024, 1024, 1024, 1024, 0, 6, 3884, 3920, 3906, 3899, 3906, 3895, 0, 1, 17700, -89.900, 0.000, -57.200, 0.000, 0.000, -3.000, 0.0, , , , , , 96, , , 13, 13, 13
36.9937782, -119.1734733, 36.600, 11:02:13.315, 20, 0.00, 0.43, 96, -1.700, -1.800, -56.400, 362, 100, 94, 25, 23444, -19573, 5143, 5358, 18, 14, 1528912933.315, 29, 0, 1024, 1024, 1024, 1024, 0, 6, 3884, 3920, 3906, 3899, 3906, 3895, 0, 1, 17800, -89.900, 0.000, -57.200, 0.000, 0.000, -2.900, 0.0, , , , , , 96, , , 13, 13, 13
36.9937782, -119.1734734, 36.900, 11:02:13.415, 20, 0.00, 0.43, 96, -1.600, -1.700, -56.400, 362, 100, 94, 25, 23444, -19573, 5143, 5358, 18, 14, 1528912933.415, 30, 0, 1024, 1024, 1024, 1024, 0, 6, 3884, 3920, 3906, 3899, 3906, 3895, 0, 1, 17900, -89.900, 0.000, -57.200, 0.000, 0.000, -2.900, 0.0, , , , , , 96, , , 13, 13, 13
36.9937783, -119.1734734, 37.200, 11:02:13.515, 20, 0.00, 0.42, 96, -1.500, -1.500, -56.400, 362, 100, 94, 25, 23444, -19573, 5143, 5358, 18, 14, 1528912933.515, 19, 0, 1024, 1024, 1024, 1024, 0, 6, 3884, 3920, 3906, 3899, 3906, 3895, 0, 1, 18000, -89.900, 0.000, -57.200, 0.000, 0.000, -3.000, 0.0, , , , , , 96, , , 13, 13, 13
36.9937783, -119.1734735, 37.500, 11:02:13.615, 20, 0.00, 0.42, 96, -1.500, -1.400, -56.400, 362, 100, 94, 25, 23444, -19573, 5143, 5358, 18, 14, 1528912933.615, 30, 0, 1024, 1024, 1024, 1024, 0, 6, 3884, 3920, 3906, 3899, 3906, 3895, 0, 1, 18100, -89.900, 0.000, -57.200, 0.000, 0.000, -2.900, 0.0, , , , , , 96, , , 13, 13, 13
36.9937783, -119.1734735, 37.800, 11:02:13.715, 20, 0.00, 0.41, 96, -1.500, -1.400, -56.300, 362, 100, 94, 25, 23444, -19573, 5143, 5358, 18, 14, 1528912933.715, 21, 0, 1024, 1024, 1024, 1024, 0, 6, 3884, 3920, 3906, 3899, 3906, 3895, 0, 1, 18200, -89.900, 0.000, -57.200, 0.000, 0.000, -2.900, 0.0, , , , , , 96, , , 13, 13, 13
36.9937783, -119.1734736, 38.100, 11:02:13.815, 20, 0.00, 0.41, 96, -1.500, -1.500, -56.300, 362, 100, 94, 25, 23444, -19573, 5143, 5358, 18, 14, 1528912933.815, 27, 0, 1024, 1024, 1024, 1024, 0, 6, 3884, 3920, 3906, 3899, 3906, 3895, 0, 1, 18300, -89.900, 0.000, -57.200, 0.000, 0.000, -2.900, 0.0, , , , , , 96, , , 13, 13, 13
36.9937783, -119.1734736, 38.400, 11:02:13.915, 20, 0.00, 0.41, 96, -1.600, -1.700, -56.300, 362, 100, 94, 25, 23444, -19573, 5143, 5358, 18, 14, 1528912933.916, 11, 0, 1024, 1024, 1024, 1024, 0, 6, 3884, 3920, 3906, 3899, 3906, 3895, 0, 1, 18401, -89.900, 0.000, -57.200, 0.000, 0.000, -2.800, 0.0, , , , , , 96, , , 13, 13, 13
36.9937784, -119.1734736, 38.700, 11:02:14.015, 20, 0.00, 0.41, 96, -1.700, -1.600, -56.200, 362, 100, 94, 25, 23379, -19938, 5143, 5358, 18, 14, 1528912934.015, 24, 0, 1024, 1024, 1024, 1024, 0, 6, 3875, 3912, 3902, 3893, 3897, 3904, 0, 1, 18500, -89.900, 0.000, -57.200, 0.000, 0.000, -2.900, 0.0, , , , , , 96, , , 13, 13, 13
36.9937784, -119.1734736, 38.700, 11:02:14.115, 20, 0.00, 0.41, 96, -1.700, -1.600, -56.200, 362, 100, 94, 25, 23379, -19938, 5143, 5358, 18, 14, 1528912934.115, 124, 0, 1024, 1024, 1024, 1024, 0, 6, 3875, 3912, 3902, 3893, 3897, 3904, 0, 1, 18600, -89.900, 0.000, -57.200, 0.000, 0.000, -2.900, 0.0, , , , , , 96, , , 13, 13, 13
36.9937784, -119.1734736, 39.000, 11:02:14.215, 20, 0.00, 0.41, 96, -1.800, -1.600, -56.100, 362, 100, 95, 25, 23379, -19938, 5143, 5358, 18, 14, 1528912934.215, 94, 0, 1024, 1024, 1024, 1024, 0, 6, 3875, 3912, 3902, 3893, 3897, 3904, 0, 1, 18700, -89.900, 0.000, -57.200, 0.000, 0.000, -2.900, 0.0, , , , , , 96, , , 13, 13, 13
36.9937786, -119.1734736, 39.900, 11:02:14.317, 20, 0.00, 0.41, 96, -2.800, -1.300, -56.100, 362, 100, 95, 25, 23379, -19938, 5143, 5358, 18, 14, 1528912934.318, 3, 0, 1024, 1024, 1024, 1024, 0, 6, 3875, 3912, 3902, 3893, 3897, 3904, 0, 1, 18803, -89.900, 0.000, -57.200, 0.000, 0.000, -3.000, 0.0, , , , , , 96, , , 13, 13, 13
36.9937787, -119.1734736, 40.200, 11:02:14.423, 20, 0.00, 0.42, 96, -2.900, -1.200, -56.100, 362, 100, 95, 25, 23379, -19938, 5143, 5358, 18, 14, 1528912934.423, 3, 0, 1024, 1024, 1024, 1024, 0, 6, 3875, 3912, 3902, 3893, 3897, 3904, 0, 1, 18909, -89.900, 0.000, -57.200, 0.000, 0.000, -3.000, 0.0, , , , , , 96, , , 13, 13, 13
36.9937787, -119.1734736, 40.200, 11:02:14.515, 20, 0.00, 0.42, 96, -2.900, -1.200, -56.100, 362, 100, 95, 25, 23379, -19938, 5143, 5358, 18, 14, 1528912934.515, 95, 0, 1024, 1024, 1024, 1024, 0, 6, 3875, 3912, 3902, 3893, 3897, 3904, 0, 1, 19000, -89.900, 0.000, -57.200, 0.000, 0.000, -3.000, 0.0, , , , , , 96, , , 13, 13, 13
36.9937788, -119.1734736, 40.500, 11:02:14.615, 20, 0.00, 0.42, 96, -3.000, -1.200, -56.100, 362, 100, 100, 25, 23379, -19938, 5143, 5358, 18, 14, 1528912934.615, 97, 0, 1024, 1024, 1024, 1024, 0, 6, 3875, 3912, 3902, 3893, 3897, 3904, 0, 1, 19100, -89.900, 0.000, -57.200, 0.000, 0.000, -3.000, 0.0, , , , , , 96, , , 13, 13, 13
36.9937789, -119.1734736, 40.800, 11:02:14.714, 20, 0.00, 0.42, 96, -3.000, -1.300, -56.200, 362, 100, 100, 25, 23379, -19938, 5143, 5358, 18, 14, 1528912934.715, 89, 0, 1024, 1024, 1024, 1024, 0, 6, 3875, 3912, 3902, 3893, 3897, 3904, 0, 1, 19200, -89.900, 0.000, -57.200, 0.000, 0.000, -2.900, 0.0, , , , , , 96, , , 13, 13, 13
36.9937789, -119.1734736, 41.100, 11:02:14.815, 20, 0.00, 0.42, 96, -2.800, -1.400, -56.300, 362, 100, 100, 25, 23379, -19938, 5143, 5358, 18, 14, 1528912934.815, 82, 0, 1024, 1024, 1024, 1024, 0, 6, 3875, 3912, 3902, 3893, 3897, 3904, 0, 1, 19300, -89.900, 0.000, -57.200, 0.000, 0.000, -3.000, 0.0, , , , , , 96, , , 13, 13, 13
36.9937789, -119.1734736, 41.400, 11:02:14.915, 20, 0.00, 0.42, 96, -2.700, -1.800, -56.400, 362, 100, 100, 25, 23379, -19938, 5143, 5358, 18, 14, 1528912934.915, 79, 0, 1024, 1024, 1024, 1024, 0, 6, 3875, 3912, 3902, 3893, 3897, 3904, 0, 1, 19400, -89.900, 0.000, -57.200, 0.000, 0.000, -2.900, 0.0, , , , , , 96, , , 13, 13, 13
36.9937789, -119.1734736, 41.700, 11:02:15.015, 20, 0.00, 0.42, 96, -2.700, -1.900, -56.400, 362, 100, 100, 26, 23368, -19787, 5143, 5358, 18, 14, 1528912935.015, 69, 0, 1024, 1024, 1024, 1024, 0, 6, 3876, 3911, 3885, 3886, 3887, 3897, 0, 1, 19500, -89.900, 0.000, -57.200, 0.000, 0.000, -3.000, 0.0, , , , , , 96, , , 13, 13, 13
36.9937789, -119.1734736, 42.000, 11:02:15.115, 20, 0.00, 0.42, 96, -2.600, -1.600, -56.500, 362, 100, 100, 26, 23368, -19787, 5143, 5358, 18, 14, 1528912935.115, 70, 0, 1024, 1024, 1024, 1024, 0, 6, 3876, 3911, 3885, 3886, 3887, 3897, 0, 1, 19600, -89.900, 0.000, -57.200, 0.000, 0.000, -2.900, 0.0, , , , , , 96, , , 13, 13, 13
36.9937790, -119.1734737, 42.300, 11:02:15.215, 20, 0.00, 0.42, 96, -2.600, -1.200, -56.500, 362, 100, 100, 26, 23368, -19787, 5143, 5358, 18, 14, 1528912935.215, 76, 0, 1024, 1024, 1024, 1024, 0, 6, 3876, 3911, 3885, 3886, 3887, 3897, 0, 1, 19700, -89.900, 0.000, -57.200, 0.000, 0.000, -2.900, 0.0, , , , , , 96, , , 13, 13, 13
36.9937790, -119.1734737, 42.600, 11:02:15.315, 20, 0.00, 0.42, 96, -2.700, -1.000, -56.500, 362, 100, 100, 26, 23368, -19787, 5143, 5358, 18, 14, 1528912935.315, 68, 0, 1024, 1024, 1024, 1024, 0, 6, 3876, 3911, 3885, 3886, 3887, 3897, 0, 1, 19800, -89.900, 0.000, -57.200, 0.000, 0.000, -3.000, 0.0, , , , , , 96, , , 13, 13, 13
36.9937791, -119.1734737, 42.900, 11:02:15.415, 20, 0.00, 0.42, 96, -2.900, -1.100, -56.600, 362, 100, 100, 26, 23368, -19787, 5143, 5358, 18, 14, 1528912935.415, 76, 0, 1024, 1024, 1024, 1024, 0, 6, 3876, 3911, 3885, 3886, 3887, 3897, 0, 1, 19900, -89.900, 0.000, -57.200, 0.000, 0.000, -3.000, 0.0, , , , , , 96, , , 13, 13, 13
36.9937791, -119.1734737, 43.200, 11:02:15.515, 20, 0.00, 0.42, 96, -3.100, -1.200, -56.600, 362, 100, 100, 26, 23368, -19787, 5143, 5358, 18, 14, 1528912935.515, 36, 0, 1024, 1024, 1024, 1024, 0, 6, 3876, 3911, 3885, 3886, 3887, 3897, 0, 1, 20000, -89.900, 0.000, -57.200, 0.000, 0.000, -3.000, 0.0, , , , , , 96, , , 13, 13, 13
36.9937791, -119.1734737, 43.500, 11:02:15.615, 20, 0.00, 0.42, 96, -3.100, -1.200, -56.500, 362, 100, 100, 26, 23368, -19787, 5143, 5358, 18, 14, 1528912935.615, 47, 0, 1024, 1024, 1024, 1024, 0, 6, 3876, 3911, 3885, 3886, 3887, 3897, 0, 1, 20100, -89.900, 0.000, -57.200, 0.000, 0.000, -3.000, 0.0, , , , , , 96, , , 13, 13, 13
36.9937791, -119.1734737, 43.800, 11:02:15.715, 20, 0.00, 0.42, 96, -3.000, -1.300, -56.400, 362, 100, 100, 26, 23368, -19787, 5143, 5358, 18, 14, 1528912935.715, 49, 0, 1024, 1024, 1024, 1024, 0, 6, 3876, 3911, 3885, 3886, 3887, 3897, 0, 1, 20200, -89.900, 0.000, -57.200, 0.000, 0.000, -2.900, 0.0, , , , , , 96, , , 13, 13, 13
36.9937791, -119.1734738, 44.100, 11:02:15.815, 20, 0.00, 0.42, 96, -2.700, -1.400, -56.400, 362, 100, 100, 26, 23368, -19787, 5143, 5358, 18, 14, 1528912935.815, 36, 0, 1024, 1024, 1024, 1024, 0, 6, 3876, 3911, 3885, 3886, 3887, 3897, 0, 1, 20300, -90.000, 0.000, -57.200, 0.000, 0.000, -2.900, 0.0, , , , , , 96, , , 13, 13, 13
36.9937791, -119.1734738, 44.400, 11:02:15.915, 20, 0.00, 0.41, 96, -2.400, -1.600, -56.500, 362, 100, 100, 26, 23368, -19787, 5143, 5358, 18, 14, 1528912935.915, 23, 0, 1024, 1024, 1024, 1024, 0, 6, 3876, 3911, 3885, 3886, 3887, 3897, 0, 1, 20401, -90.000, 0.000, -57.200, 0.000, 0.000, -2.800, 0.0, , , , , , 96, , , 13, 13, 13
36.9937791, -119.1734739, 44.600, 11:02:16.015, 20, 0.00, 0.41, 96, -2.500, -1.400, -56.700, 362, 100, 100, 26, 23375, -19225, 5143, 5358, 18, 14, 1528912936.015, 19, 0, 1024, 1024, 1024, 1024, 0, 6, 3876, 3911, 3885, 3886, 3887, 3897, 0, 1, 20500, -89.900, 0.000, -57.200, 0.000, 0.000, -2.800, 0.0, , , , , , 96, , , 13, 13, 13
36.9937791, -119.1734739, 44.900, 11:02:16.115, 20, 0.00, 0.40, 96, -2.300, -1.100, -56.900, 362, 100, 100, 26, 23375, -19225, 5143, 5358, 18, 14, 1528912936.115, 34, 0, 1024, 1024, 1024, 1024, 0, 6, 3876, 3911, 3885, 3886, 3887, 3897, 0, 1, 20600, -89.900, 0.000, -57.200, 0.000, 0.000, -2.900, 0.0, , , , , , 96, , , 13, 13, 13
36.9937791, -119.1734740, 45.200, 11:02:16.218, 20, 0.10, 0.39, 96, -2.200, -1.200, -57.100, 362, 100, 100, 26, 23375, -19225, 5143, 5358, 18, 14, 1528912936.218, 3, 0, 1024, 1024, 1024, 1024, 0, 6, 3876, 3911, 3885, 3886, 3887, 3897, 0, 1, 20703, -90.000, 0.000, -57.200, 0.000, -0.100, -2.900, 0.0, , , , , , 96, , , 13, 13, 13
36.9937791, -119.1734740, 45.200, 11:02:16.315, 20, 0.10, 0.39, 96, -2.200, -1.200, -57.100, 362, 100, 100, 26, 23375, -19225, 5143, 5358, 18, 14, 1528912936.315, 99, 0, 1024, 1024, 1024, 1024, 0, 6, 3876, 3911, 3885, 3886, 3887, 3897, 0, 1, 20800, -90.000, 0.000, -57.200, 0.000, -0.100, -2.900, 0.0, , , , , , 96, , , 13, 13, 13
