latitude,longitude,altitude(feet),ascent(feet),speed(mph),distance(feet),time(millisecond),datetime(utc),satellites,gpslevel,voltage(v),max_altitude(feet),max_ascent(feet),max_speed(mph),max_distance(feet), xSpeed(mph), ySpeed(mph), zSpeed(mph), compass_heading(degrees), pitch(degrees), roll(degrees),isPhoto,isVideo,rc_elevator,rc_aileron,rc_throttle,rc_rudder,gimbal_heading(degrees),gimbal_pitch(degrees),battery_percent,voltageCell1,voltageCell2,voltageCell3,voltageCell4,voltageCell5,voltageCell6,current(A),battery_temperature(f),flycStateRaw,flycState,message
36.9937777,-119.1734769,4821.4270666872,0,0.223694,0,3050,2018-06-13 18:01:59,11,0,25.519,4821.4270666872,0,0.223694,0,0,0,0,303.4, 0.3, 1.5,1,0,1024,1024,1024,1024,302.8,-89.9,97,4.256,4.253,4.188,4.269,4.209,4.249,3.436,77,11,AutoTakeoff,DJI_0360.jpg Starting Mission from Lat/Long: 36.99378/-119.17348 Camera: Zenmuse X3 - Overlap: 90/90 - Active Connection: No
36.9937778,-119.1734768,4821.4270666872,0,0.223694,0.046693899132,3100,2018-06-13 18:01:59,11,0,25.519,4821.4270666872,0,0.223694,0.046693899132,0,0,0,303.9, 1, 1.4,0,0,1024,1024,1024,1024,302.8,-89.9,97,4.256,4.253,4.188,4.269,4.209,4.249,3.436,77,11,AutoTakeoff,
36.9937781,-119.1734766,4821.4270666872,0,0.223694,0.170120412268,3300,2018-06-13 18:01:59,11,0,25.519,4821.4270666872,0,0.223694,0.170120412268,0,0,0,304.2, 0.8, -0.4,0,0,1024,1024,1024,1024,302.8,-89.9,97,4.256,4.253,4.188,4.269,4.209,4.249,3.436,77,11,AutoTakeoff,
36.9937782,-119.1734765,4821.4270666872,0,0.223694,0.21648458698,3400,2018-06-13 18:01:59,11,0,25.519,4821.4270666872,0,0.223694,0.21648458698,0,0,0,304.1, 0.7, -0.7,0,0,1024,1024,1024,1024,302.8,-89.9,97,4.256,4.253,4.188,4.269,4.209,4.249,3.436,77,11,AutoTakeoff,
36.9937783,-119.1734764,4821.7551506872,0.328084,0.223694,0.262965231512,3500,2018-06-13 18:01:59,13,0,25.519,4821.7551506872,0.328084,0.223694,0.262965231512,0,0,0,303.9, 0.4, -0.6,0,0,1024,1024,1024,1024,302.8,-89.9,97,4.256,4.253,4.188,4.269,4.209,4.249,3.436,77,11,AutoTakeoff,
36.9937783,-119.1734763,4821.7551506872,0.328084,0,0.280163722876,3600,2018-06-13 18:01:59,13,0,25.519,4821.7551506872,0.328084,0.223694,0.280163722876,0,0,0,303.7, 0, -0.5,0,0,1024,1024,1024,1024,302.8,-90,97,4.256,4.253,4.188,4.269,4.209,4.249,3.436,77,11,AutoTakeoff,
36.9937784,-119.1734761,4822.0832346872,0.656168,0,0.34579397432,3700,2018-06-13 18:01:59,12,0,25.519,4822.0832346872,0.656168,0.223694,0.34579397432,0,0,0,303.6, -0.3, -0.4,0,0,1024,1024,1024,1024,302.8,-90,97,4.256,4.253,4.188,4.269,4.209,4.249,3.436,77,11,AutoTakeoff,
36.9937784,-119.173476,4822.0832346872,0.656168,0,0.36607284636,3800,2018-06-13 18:01:59,12,0,25.519,4822.0832346872,0.656168,0.223694,0.36607284636,0,0,0,303.4, -0.5, -0.7,0,0,1024,1024,1024,1024,302.8,-90,97,4.256,4.253,4.188,4.269,4.209,4.249,3.436,77,11,AutoTakeoff,
36.9937785,-119.1734759,4822.0832346872,0.656168,0,0.41244423892,3900,2018-06-13 18:01:59,12,0,25.519,4822.0832346872,0.656168,0.223694,0.41244423892,0,0,0,303.4, -0.5, -1.2,0,0,1024,1024,1024,1024,302.8,-89.9,97,4.256,4.253,4.188,4.269,4.209,4.249,3.436,77,11,AutoTakeoff,
36.9937786,-119.1734758,4822.4113186872,0.984252,0,0.45888124828,4000,2018-06-13 18:02:00,12,0,24.418,4822.4113186872,0.984252,0.223694,0.45888124828,0,0,0,303.3, -0.3, -1.4,0,0,1024,1024,1024,1024,302.8,-89.9,97,4.196,4.203,4.202,4.2,4.218,4.207,14.478,77,11,AutoTakeoff,
36.9937787,-119.1734758,4822.7394026872,1.312336,0,0.48565946436,4100,2018-06-13 18:02:00,12,0,24.418,4822.7394026872,1.312336,0.223694,0.48565946436,0,0,-0.223694,303.3, -0.2, -1.5,0,0,1024,1024,1024,1024,302.8,-89.9,97,4.196,4.203,4.202,4.2,4.218,4.207,14.478,77,11,AutoTakeoff,
36.9937788,-119.1734758,4822.7394026872,1.312336,0,0.5136319062,4200,2018-06-13 18:02:00,12,0,24.418,4822.7394026872,1.312336,0.223694,0.5136319062,0,0,0,303.4, 0, -1.5,0,0,1024,1024,1024,1024,302.8,-89.9,97,4.196,4.203,4.202,4.2,4.218,4.207,14.478,77,11,AutoTakeoff,
36.9937788,-119.1734758,4822.7394026872,1.312336,0,0.5136319062,4300,2018-06-13 18:02:00,12,0,24.418,4822.7394026872,1.312336,0.223694,0.5136319062,0,0,0,303.5, 0, -1.4,0,0,1024,1024,1024,1024,302.8,-89.9,97,4.196,4.203,4.202,4.2,4.218,4.207,14.478,77,11,AutoTakeoff,
36.9937788,-119.1734758,4823.0674866872,1.64042,0,0.5136319062,4400,2018-06-13 18:02:00,12,0,24.418,4823.0674866872,1.64042,0.223694,0.5136319062,0,0,0,303.5, 0, -1.2,0,0,1024,1024,1024,1024,302.8,-89.9,97,4.196,4.203,4.202,4.2,4.218,4.207,14.478,77,11,AutoTakeoff,
36.9937788,-119.1734758,4823.0674866872,1.64042,0,0.5136319062,4500,2018-06-13 18:02:00,12,0,24.418,4823.0674866872,1.64042,0.223694,0.5136319062,0,0,0,303.6, 0, -1,0,0,1024,1024,1024,1024,302.8,-89.9,97,4.196,4.203,4.202,4.2,4.218,4.207,14.478,77,11,AutoTakeoff,
36.9937789,-119.1734758,4823.3955706872,1.968504,0,0.5426181276,4600,2018-06-13 18:02:00,12,0,24.418,4823.3955706872,1.968504,0.223694,0.5426181276,0,0,-0.223694,303.6, 0, -0.8,0,0,1024,1024,1024,1024,302.8,-89.9,97,4.196,4.203,4.202,4.2,4.218,4.207,14.478,77,11,AutoTakeoff,
36.9937789,-119.1734758,4823.7236546872,2.296588,0,0.5426181276,4700,2018-06-13 18:02:00,13,0,24.418,4823.7236546872,2.296588,0.223694,0.5426181276,0,0,0,303.5, 0, -0.7,0,0,1024,1024,1024,1024,302.8,-89.9,97,4.196,4.203,4.202,4.2,4.218,4.207,14.478,77,11,AutoTakeoff,
36.9937788,-119.1734758,4823.7236546872,2.296588,0,0.5136319062,4800,2018-06-13 18:02:00,13,0,24.418,4823.7236546872,2.296588,0.223694,0.5426181276,0,0,-0.223694,303.5, 0, -0.6,0,0,1024,1024,1024,1024,302.8,-89.9,97,4.196,4.203,4.202,4.2,4.218,4.207,14.478,77,11,AutoTakeoff,
36.9937788,-119.1734759,4824.0517386872,2.624672,0,0.49597114448,4900,2018-06-13 18:02:00,11,0,24.418,4824.0517386872,2.624672,0.223694,0.5426181276,0,0,-0.223694,303.5, 0, -0.6,0,0,1024,1024,1024,1024,302.8,-89.9,97,4.196,4.203,4.202,4.2,4.218,4.207,14.478,77,11,AutoTakeoff,
36.9937787,-119.1734759,4824.0517386872,2.624672,0,0.46693899132,5000,2018-06-13 18:02:01,11,0,24.418,4824.0517386872,2.624672,0.223694,0.5426181276,0,0,-0.223694,303.5, 0, -0.5,0,0,1024,1024,1024,1024,302.8,-89.9,97,4.039,4.071,4.069,4.065,4.072,4.056,14.478,77,11,AutoTakeoff,
36.9937785,-119.1734758,4824.3798226872,2.952756,0,0.43352363592,5100,2018-06-13 18:02:01,11,0,24.418,4824.3798226872,2.952756,0.223694,0.5426181276,0,0,0,303.5, 0, -0.3,0,0,1024,1024,1024,1024,302.8,-89.9,97,4.039,4.071,4.069,4.065,4.072,4.056,14.478,77,6,P-GPS,
36.9937785,-119.1734758,4824.3798226872,2.952756,0,0.43352363592,5200,2018-06-13 18:02:01,11,0,24.418,4824.3798226872,2.952756,0.223694,0.5426181276,0,0,0,303.5, 0, -0.2,0,0,1024,1024,1024,1024,302.8,-89.9,97,4.039,4.071,4.069,4.065,4.072,4.056,14.478,77,14,Waypoint,
36.9937785,-119.1734758,4824.7079066872,3.28084,0,0.43352363592,5300,2018-06-13 18:02:01,13,0,24.418,4824.7079066872,3.28084,0.223694,0.5426181276,0,0,0,303.6, 0, 0.3,0,0,1024,1024,1024,1024,302.8,-89.9,97,4.039,4.071,4.069,4.065,4.072,4.056,14.478,77,14,Waypoint,
36.9937784,-119.1734758,4824.7079066872,3.28084,0,0.40984909448,5400,2018-06-13 18:02:01,13,0,24.418,4824.7079066872,3.28084,0.223694,0.5426181276,0,0,0,303.6, 0, 0.5,0,0,1024,1024,1024,1024,302.8,-89.9,97,4.039,4.071,4.069,4.065,4.072,4.056,14.478,77,14,Waypoint,
36.9937784,-119.1734757,4824.7079066872,3.28084,0,0.4330216674,5500,2018-06-13 18:02:01,13,0,24.418,4824.7079066872,3.28084,0.223694,0.5426181276,0,0,0,303.6, -0.1, 0.5,0,0,1024,1024,1024,1024,302.8,-89.9,97,4.039,4.071,4.069,4.065,4.072,4.056,14.478,77,14,Waypoint,
36.9937784,-119.1734756,4825.0359906872,3.608924,0,0.45687665504,5600,2018-06-13 18:02:01,13,0,24.418,4825.0359906872,3.608924,0.223694,0.5426181276,0,0,0,303.6, -0.3, 0.4,0,0,1024,1024,1024,1024,302.8,-89.9,97,4.039,4.071,4.069,4.065,4.072,4.056,14.478,77,14,Waypoint,
36.9937783,-119.1734755,4825.3640746872,3.937008,0,0.46298885996,5700,2018-06-13 18:02:01,13,0,24.418,4825.3640746872,3.937008,0.223694,0.5426181276,0,0,-0.223694,303.7, -0.5, 0.1,0,0,1024,1024,1024,1024,302.8,-89.9,97,4.039,4.071,4.069,4.065,4.072,4.056,14.478,77,14,Waypoint,
36.9937782,-119.1734755,4825.6921586872,4.265092,0,0.44689633976,5900,2018-06-13 18:02:01,12,0,24.418,4825.6921586872,4.265092,0.223694,0.5426181276,0,0,-0.223694,303.7, -0.6, 0,0,0,1024,1024,1024,1024,302.8,-89.9,97,4.039,4.071,4.069,4.065,4.072,4.056,14.478,77,14,Waypoint,
36.9937782,-119.1734754,4826.0202426872,4.593176,0,0.47364830912,6000,2018-06-13 18:02:02,12,0,24.191,4826.0202426872,4.593176,0.223694,0.5426181276,0,0,-0.223694,303.8, -0.7, -0.1,0,0,1024,1024,1024,1024,302.8,-89.9,97,3.995,4.041,4.027,4.036,4.035,4.018,16.287,77,14,Waypoint,
36.9937781,-119.1734753,4826.3483266872,4.92126,0,0.48855644608,6100,2018-06-13 18:02:02,11,0,24.191,4826.3483266872,4.92126,0.223694,0.5426181276,0,0,-0.223694,303.8, -0.8, 0,0,0,1024,1024,1024,1024,302.8,-90,97,3.995,4.041,4.027,4.036,4.035,4.018,16.287,77,14,Waypoint,
36.993778,-119.1734752,4826.6764106872,5.249344,0,0.50733597424,6200,2018-06-13 18:02:02,11,0,24.191,4826.6764106872,5.249344,0.223694,0.5426181276,0,0,-0.223694,303.9, -0.7, 0.2,0,0,1024,1024,1024,1024,302.8,-89.9,97,3.995,4.041,4.027,4.036,4.035,4.018,16.287,77,14,Waypoint,
36.9937779,-119.1734751,4827.3325786872,5.905512,0,0.52958006944,6300,2018-06-13 18:02:02,13,0,24.191,4827.3325786872,5.905512,0.223694,0.5426181276,0,0,-0.447388,303.8, -0.7, 0.1,0,0,1024,1024,1024,1024,302.8,-90,97,3.995,4.041,4.027,4.036,4.035,4.018,16.287,77,14,Waypoint,
36.9937778,-119.1734751,4827.9887466872,6.56168,0,0.52579726092,6400,2018-06-13 18:02:02,13,0,24.191,4827.9887466872,6.56168,0.223694,0.5426181276,0,0,-0.447388,303.7, -0.9, 0.1,0,0,1024,1024,1024,1024,302.8,-89.9,97,3.995,4.041,4.027,4.036,4.035,4.018,16.287,77,14,Waypoint,
36.9937777,-119.173475,4828.6449146872,7.217848,0,0.55367127756,6500,2018-06-13 18:02:02,13,0,24.191,4828.6449146872,7.217848,0.223694,0.55367127756,0,0,-0.447388,303.5, -1, 0.1,0,0,1024,1024,1024,1024,302.8,-89.9,97,3.995,4.041,4.027,4.036,4.035,4.018,16.287,77,14,Waypoint,
36.9937777,-119.1734751,4829.3010826872,7.874016,0,0.52453085668,6600,2018-06-13 18:02:02,13,0,24.191,4829.3010826872,7.874016,0.223694,0.55367127756,0,0,-0.447388,303.3, -1, 0.2,0,0,1024,1024,1024,1024,302.8,-90,97,3.995,4.041,4.027,4.036,4.035,4.018,16.287,77,14,Waypoint,
36.9937777,-119.1734751,4830.2853346872,8.858268,0,0.52453085668,6700,2018-06-13 18:02:02,13,0,24.191,4830.2853346872,8.858268,0.223694,0.55367127756,0,0,-0.671082,303.2, -0.9, 0.2,0,0,1024,1024,1024,1024,302.8,-89.9,97,3.995,4.041,4.027,4.036,4.035,4.018,16.287,77,14,Waypoint,
36.9937776,-119.1734751,4830.9415026872,9.514436,0,0.52579726092,6800,2018-06-13 18:02:02,13,0,24.191,4830.9415026872,9.514436,0.223694,0.55367127756,0,0,-0.671082,303.1, -0.8, 0,0,0,1024,1024,1024,1024,302.8,-89.9,97,3.995,4.041,4.027,4.036,4.035,4.018,16.287,77,14,Waypoint,
36.9937775,-119.1734752,4831.9257546872,10.498688,0,0.50073492416,6900,2018-06-13 18:02:02,14,0,24.191,4831.9257546872,10.498688,0.223694,0.55367127756,0,0,-0.671082,303, -0.5, 0.1,0,0,1024,1024,1024,1024,302.8,-89.9,97,3.995,4.041,4.027,4.036,4.035,4.018,16.287,77,14,Waypoint,
36.9937774,-119.1734752,4832.9100066872,11.48294,0,0.50733597424,7000,2018-06-13 18:02:03,14,0,24.147,4832.9100066872,11.48294,0.223694,0.55367127756,0,0,-0.671082,303.1, -0.3, 0.3,0,0,1024,1024,1024,1024,302.8,-89.9,97,3.982,4.011,4.018,4.021,4.084,4,15.751,77,14,Waypoint,
36.9937773,-119.1734752,4833.8942586872,12.467192,0,0.51644030524,7100,2018-06-13 18:02:03,13,0,24.147,4833.8942586872,12.467192,0.223694,0.55367127756,0,0,-0.671082,303.2, -0.3, 0.5,0,0,1024,1024,1024,1024,302.8,-89.9,97,3.982,4.011,4.018,4.021,4.084,4,15.751,77,14,Waypoint,
36.9937773,-119.1734753,4834.8785106872,13.451444,0,0.48855644608,7200,2018-06-13 18:02:03,13,0,24.147,4834.8785106872,13.451444,0.223694,0.55367127756,0,0,-0.671082,303.3, -0.3, 0.7,0,0,1024,1024,1024,1024,302.8,-89.9,97,3.982,4.011,4.018,4.021,4.084,4,15.751,77,14,Waypoint,
36.9937773,-119.1734754,4836.1908466872,14.76378,0,0.4608267864,7300,2018-06-13 18:02:03,14,0,24.147,4836.1908466872,14.76378,0.223694,0.55367127756,0,0,-0.671082,303.4, -0.2, 0.8,0,0,1024,1024,1024,1024,302.8,-89.9,97,3.982,4.011,4.018,4.021,4.084,4,15.751,77,14,Waypoint,
36.9937773,-119.1734754,4837.1750986872,15.748032,0,0.4608267864,7400,2018-06-13 18:02:03,14,0,24.147,4837.1750986872,15.748032,0.223694,0.55367127756,0,0,-0.671082,303.5, 0, 0.7,0,0,1024,1024,1024,1024,302.8,-89.9,97,3.982,4.011,4.018,4.021,4.084,4,15.751,77,14,Waypoint,
36.9937773,-119.1734754,4838.1593506872,16.732284,0,0.4608267864,7500,2018-06-13 18:02:03,13,0,24.147,4838.1593506872,16.732284,0.223694,0.55367127756,0,0,-0.671082,303.6, 0, 0.6,0,0,1024,1024,1024,1024,302.8,-89.9,97,3.982,4.011,4.018,4.021,4.084,4,15.751,77,14,Waypoint,
36.9937773,-119.1734754,4839.4716866872,18.04462,0,0.4608267864,7600,2018-06-13 18:02:03,13,0,24.147,4839.4716866872,18.04462,0.223694,0.55367127756,0,0,-0.671082,303.6, -0.1, 0.5,0,0,1024,1024,1024,1024,302.8,-89.9,97,3.982,4.011,4.018,4.021,4.084,4,15.751,77,14,Waypoint,
36.9937774,-119.1734755,4840.4559386872,19.028872,0,0.42239502664,7700,2018-06-13 18:02:03,13,0,24.147,4840.4559386872,19.028872,0.223694,0.55367127756,0,0,-0.671082,303.6, -0.1, 0.4,0,0,1024,1024,1024,1024,302.8,-89.9,97,3.982,4.011,4.018,4.021,4.084,4,15.751,77,14,Waypoint,
36.9937774,-119.1734754,4841.4401906872,20.013124,0,0.45060368896,7800,2018-06-13 18:02:03,13,0,24.147,4841.4401906872,20.013124,0.223694,0.55367127756,0,0,-0.671082,303.6, 0, 0.4,0,0,1024,1024,1024,1024,302.8,-89.9,97,3.982,4.011,4.018,4.021,4.084,4,15.751,77,14,Waypoint,
36.9937775,-119.1734753,4843.7367786872,22.309712,0,0.47192586812,8000,2018-06-13 18:02:04,13,0,23.639,4843.7367786872,22.309712,0.223694,0.55367127756,0,0,-0.671082,303.6, -0.2, 0,0,0,1024,1024,1024,1024,302.8,-89.9,97,3.877,3.922,3.924,3.916,3.921,3.905,21.85,77,14,Waypoint,
36.9937775,-119.1734752,4844.7210306872,23.293964,0,0.50073492416,8100,2018-06-13 18:02:04,13,0,23.639,4844.7210306872,23.293964,0.223694,0.55367127756,0,0,-0.671082,303.5, -0.3, -0.1,0,0,1024,1024,1024,1024,302.8,-89.9,97,3.877,3.922,3.924,3.916,3.921,3.905,21.85,77,14,Waypoint,
36.9937775,-119.173475,4846.0333666872,24.6063,0,0.55845802312,8200,2018-06-13 18:02:04,13,0,23.639,4846.0333666872,24.6063,0.223694,0.55845802312,0,0,-0.671082,303.5, -0.4, -0.3,0,0,1024,1024,1024,1024,302.8,-89.9,97,3.877,3.922,3.924,3.916,3.921,3.905,21.85,77,14,Waypoint,
36.9937775,-119.1734748,4847.0176186872,25.590552,0,0.61628610896,8300,2018-06-13 18:02:04,13,0,23.639,4847.0176186872,25.590552,0.223694,0.61628610896,0,0,-0.671082,303.5, -0.6, -0.4,0,0,1024,1024,1024,1024,302.8,-90,97,3.877,3.922,3.924,3.916,3.921,3.905,21.85,77,14,Waypoint,
36.9937775,-119.1734747,4848.0018706872,26.574804,0,0.64523296028,8400,2018-06-13 18:02:04,13,0,23.639,4848.0018706872,26.574804,0.223694,0.64523296028,0,0,-0.671082,303.5, -0.8, -0.4,0,0,1024,1024,1024,1024,302.8,-90,97,3.877,3.922,3.924,3.916,3.921,3.905,21.85,77,14,Waypoint,
36.9937774,-119.1734746,4848.9861226872,27.559056,0,0.67911091412,8500,2018-06-13 18:02:04,13,0,23.639,4848.9861226872,27.559056,0.223694,0.67911091412,0,0,-0.671082,303.6, -1, -0.5,0,0,1024,1024,1024,1024,302.8,-90,97,3.877,3.922,3.924,3.916,3.921,3.905,21.85,77,14,Waypoint,
36.9937774,-119.1734745,4850.2984586872,28.871392,0,0.70788716176,8600,2018-06-13 18:02:04,13,0,23.639,4850.2984586872,28.871392,0.223694,0.70788716176,0,0,-0.671082,303.6, -1.1, -0.3,0,0,1024,1024,1024,1024,302.8,-90,97,3.877,3.922,3.924,3.916,3.921,3.905,21.85,77,14,Waypoint,
36.9937773,-119.1734744,4851.2827106872,29.855644,0,0.74298886892,8700,2018-06-13 18:02:04,13,0,23.639,4851.2827106872,29.855644,0.223694,0.74298886892,0,0,-0.671082,303.7, -1.3, -0.1,0,0,1024,1024,1024,1024,302.8,-90,97,3.877,3.922,3.924,3.916,3.921,3.905,21.85,77,14,Waypoint,
36.9937773,-119.1734743,4852.2669626872,30.839896,0,0.77158138952,8800,2018-06-13 18:02:04,13,0,23.639,4852.2669626872,30.839896,0.223694,0.77158138952,0,0,-0.671082,303.7, -1.5, 0,0,0,1024,1024,1024,1024,302.8,-90,97,3.877,3.922,3.924,3.916,3.921,3.905,21.85,77,14,Waypoint,
36.9937772,-119.1734742,4853.5792986872,32.152232,0,0.80766734868,8900,2018-06-13 18:02:04,14,0,23.639,4853.5792986872,32.152232,0.223694,0.80766734868,0,0,-0.671082,303.7, -1.4, 0,0,0,1024,1024,1024,1024,302.8,-90,97,3.877,3.922,3.924,3.916,3.921,3.905,21.85,77,14,Waypoint,
36.9937772,-119.1734741,4854.5635506872,33.136484,0,0.83607942308,9000,2018-06-13 18:02:05,14,0,23.561,4854.5635506872,33.136484,0.223694,0.83607942308,0,0,-0.671082,303.6, -1.4, 0,0,0,1024,1024,1024,1024,302.8,-89.9,97,3.9,3.95,3.93,3.932,3.934,3.937,21.589,77,14,Waypoint,
36.9937772,-119.1734741,4855.5478026872,34.120736,0,0.83607942308,9100,2018-06-13 18:02:05,15,0,23.561,4855.5478026872,34.120736,0.223694,0.83607942308,0,0,-0.671082,303.6, -1.3, 0,0,0,1024,1024,1024,1024,302.8,-89.9,97,3.9,3.95,3.93,3.932,3.934,3.937,21.589,77,14,Waypoint,
36.9937772,-119.173474,4856.5320546872,35.104988,0,0.86454071008,9200,2018-06-13 18:02:05,15,0,23.561,4856.5320546872,35.104988,0.223694,0.86454071008,0,0,-0.671082,303.5, -1.2, 0,0,0,1024,1024,1024,1024,302.8,-90,97,3.9,3.95,3.93,3.932,3.934,3.937,21.589,77,14,Waypoint,
36.9937772,-119.1734739,4857.8443906872,36.417324,0,0.89304792884,9300,2018-06-13 18:02:05,15,0,23.561,4857.8443906872,36.417324,0.223694,0.89304792884,0,0,-0.671082,303.5, -1.1, -0.1,0,0,1024,1024,1024,1024,302.8,-89.9,97,3.9,3.95,3.93,3.932,3.934,3.937,21.589,77,14,Waypoint,
36.9937773,-119.1734738,4859.8128946872,38.385828,0,0.91506892692,9500,2018-06-13 18:02:05,15,0,23.561,4859.8128946872,38.385828,0.223694,0.91506892692,0,0,-0.671082,303.4, -1.1, -0.4,0,0,1024,1024,1024,1024,302.8,-89.9,97,3.9,3.95,3.93,3.932,3.934,3.937,21.589,77,14,Waypoint,
36.9937773,-119.1734737,4860.7971466872,39.37008,0,0.9438484554,9600,2018-06-13 18:02:05,15,0,23.561,4860.7971466872,39.37008,0.223694,0.9438484554,0,0,-0.671082,303.5, -1.1, -0.4,0,0,1024,1024,1024,1024,302.8,-89.9,97,3.9,3.95,3.93,3.932,3.934,3.937,21.589,77,14,Waypoint,
36.9937773,-119.1734737,4861.7813986872,40.354332,0,0.9438484554,9700,2018-06-13 18:02:05,16,0,23.561,4861.7813986872,40.354332,0.223694,0.9438484554,0,0,-0.671082,303.5, -1, -0.2,0,0,1024,1024,1024,1024,302.8,-89.9,97,3.9,3.95,3.93,3.932,3.934,3.937,21.589,77,14,Waypoint,
36.9937773,-119.1734738,4863.7499026872,42.322836,0.223694,0.91506892692,9810,2018-06-13 18:02:05,17,0,23.561,4863.7499026872,42.322836,0.223694,0.9438484554,0,0,-0.671082,303.5, -0.9, 0.1,0,0,1024,1024,1024,1024,302.8,-89.9,97,3.9,3.95,3.93,3.932,3.934,3.937,21.589,77,14,Waypoint,
36.9937773,-119.1734738,4863.7499026872,42.322836,0.223694,0.91506892692,9900,2018-06-13 18:02:05,17,0,23.561,4863.7499026872,42.322836,0.223694,0.9438484554,0,0,-0.671082,303.5, -0.9, 0.1,0,0,1024,1024,1024,1024,302.8,-89.9,97,3.9,3.95,3.93,3.932,3.934,3.937,21.589,77,14,Waypoint,
36.9937773,-119.1734738,4864.7341546872,43.307088,0.223694,0.91506892692,10000,2018-06-13 18:02:06,17,0,23.699,4864.7341546872,43.307088,0.223694,0.9438484554,0,0,-0.671082,303.5, -0.7, 0.3,0,0,1024,1024,1024,1024,302.8,-89.9,97,3.9,3.95,3.93,3.932,3.934,3.937,19.104,77,14,Waypoint,
36.9937773,-119.1734738,4865.7184066872,44.29134,0.223694,0.91506892692,10100,2018-06-13 18:02:06,15,0,23.699,4865.7184066872,44.29134,0.223694,0.9438484554,0,0,-0.671082,303.5, -0.6, 0.2,0,0,1024,1024,1024,1024,302.8,-89.9,97,3.9,3.95,3.93,3.932,3.934,3.937,19.104,77,14,Waypoint,
36.9937773,-119.1734738,4866.7026586872,45.275592,0.223694,0.91506892692,10200,2018-06-13 18:02:06,15,0,23.699,4866.7026586872,45.275592,0.223694,0.9438484554,0,0,-0.671082,303.6, -0.6, 0,0,0,1024,1024,1024,1024,302.8,-89.9,97,3.9,3.95,3.93,3.932,3.934,3.937,19.104,77,14,Waypoint,
36.9937773,-119.1734739,4867.6869106872,46.259844,0.223694,0.88631564516,10300,2018-06-13 18:02:06,17,0,23.699,4867.6869106872,46.259844,0.223694,0.9438484554,0,0,-0.671082,303.6, -0.6, 0,0,0,1024,1024,1024,1024,302.8,-89.9,97,3.9,3.95,3.93,3.932,3.934,3.937,19.104,77,14,Waypoint,
36.9937774,-119.1734739,4868.9992466872,47.57218,0.223694,0.88104333528,10400,2018-06-13 18:02:06,17,0,23.699,4868.9992466872,47.57218,0.223694,0.9438484554,0,0,-0.671082,303.6, -0.5, 0,0,0,1024,1024,1024,1024,302.8,-89.9,97,3.9,3.95,3.93,3.932,3.934,3.937,19.104,77,14,Waypoint,
36.9937774,-119.173474,4869.9834986872,48.556432,0.223694,0.85213585404,10500,2018-06-13 18:02:06,17,0,23.699,4869.9834986872,48.556432,0.223694,0.9438484554,0,0,-0.671082,303.6, -0.4, 0,0,0,1024,1024,1024,1024,302.8,-89.9,97,3.9,3.95,3.93,3.932,3.934,3.937,19.104,77,14,Waypoint,
36.9937774,-119.173474,4870.9677506872,49.540684,0.223694,0.85213585404,10600,2018-06-13 18:02:06,17,0,23.699,4870.9677506872,49.540684,0.223694,0.9438484554,0,0,-0.671082,303.6, -0.4, 0,0,0,1024,1024,1024,1024,302.8,-89.9,97,3.9,3.95,3.93,3.932,3.934,3.937,19.104,77,14,Waypoint,
36.9937774,-119.1734741,4871.9520026872,50.524936,0.223694,0.823244777,10700,2018-06-13 18:02:06,18,0,23.699,4871.9520026872,50.524936,0.223694,0.9438484554,0,0,-0.671082,303.6, -0.5, 0.2,0,0,1024,1024,1024,1024,302.8,-89.9,97,3.9,3.95,3.93,3.932,3.934,3.937,19.104,77,14,Waypoint,
36.9937775,-119.1734742,4872.9362546872,51.509188,0.223694,0.79017062896,10800,2018-06-13 18:02:06,18,0,23.699,4872.9362546872,51.509188,0.223694,0.9438484554,0,0,-0.671082,303.6, -0.5, 0.3,0,0,1024,1024,1024,1024,302.8,-89.9,97,3.9,3.95,3.93,3.932,3.934,3.937,19.104,77,14,Waypoint,
36.9937775,-119.1734742,4873.9205066872,52.49344,0.223694,0.79017062896,10900,2018-06-13 18:02:06,18,0,23.699,4873.9205066872,52.49344,0.223694,0.9438484554,0,0,-0.671082,303.6, -0.2, 0.4,0,0,1024,1024,1024,1024,302.8,-89.9,97,3.9,3.95,3.93,3.932,3.934,3.937,19.104,77,14,Waypoint,
36.9937776,-119.1734743,4874.9047586872,53.477692,0,0.75853348884,11000,2018-06-13 18:02:07,18,0,23.719,4874.9047586872,53.477692,0.223694,0.9438484554,0,0,-0.671082,303.7, -0.1, 0.6,0,0,1024,1024,1024,1024,302.8,-89.9,97,3.923,3.962,3.958,3.953,3.953,3.948,18.538,77,14,Waypoint,
36.9937776,-119.1734743,4875.8890106872,54.461944,0,0.75853348884,11100,2018-06-13 18:02:07,18,0,23.719,4875.8890106872,54.461944,0.223694,0.9438484554,0,0,-0.671082,303.7, -0.2, 0.6,0,0,1024,1024,1024,1024,302.8,-89.9,97,3.923,3.962,3.958,3.953,3.953,3.948,18.538,77,14,Waypoint,
36.9937776,-119.1734743,4876.8732626872,55.446196,0,0.75853348884,11200,2018-06-13 18:02:07,18,0,23.719,4876.8732626872,55.446196,0.223694,0.9438484554,0,0,-0.671082,303.8, -0.1, 0.3,0,0,1024,1024,1024,1024,302.8,-89.9,97,3.923,3.962,3.958,3.953,3.953,3.948,18.538,77,14,Waypoint,
36.9937777,-119.1734744,4877.8575146872,56.430448,0,0.72851380284,11300,2018-06-13 18:02:07,18,0,23.719,4877.8575146872,56.430448,0.223694,0.9438484554,0,0,-0.671082,303.9, -0.1, 0,0,0,1024,1024,1024,1024,302.8,-89.9,97,3.923,3.962,3.958,3.953,3.953,3.948,18.538,77,14,Waypoint,
36.9937778,-119.1734744,4878.8417666872,57.4147,0,0.72942587636,11400,2018-06-13 18:02:07,18,0,23.719,4878.8417666872,57.4147,0.223694,0.9438484554,0,0,-0.671082,303.9, -0.1, -0.6,0,0,1024,1024,1024,1024,302.8,-89.9,97,3.923,3.962,3.958,3.953,3.953,3.948,18.538,77,14,Waypoint,
36.9937779,-119.1734743,4879.8260186872,58.398952,0,0.76116144168,11500,2018-06-13 18:02:07,17,0,23.719,4879.8260186872,58.398952,0.223694,0.9438484554,0,0,-0.671082,303.8, -0.1, -1.1,0,0,1024,1024,1024,1024,302.8,-89.9,97,3.923,3.962,3.958,3.953,3.953,3.948,18.538,77,14,Waypoint,
36.9937779,-119.1734743,4880.8102706872,59.383204,0,0.76116144168,11600,2018-06-13 18:02:07,17,0,23.719,4880.8102706872,59.383204,0.223694,0.9438484554,0,0,-0.671082,303.8, -0.3, -1.4,0,0,1024,1024,1024,1024,302.8,-90,97,3.923,3.962,3.958,3.953,3.953,3.948,18.538,77,14,Waypoint,
36.9937779,-119.1734743,4881.7945226872,60.367456,0,0.76116144168,11700,2018-06-13 18:02:07,18,0,23.719,4881.7945226872,60.367456,0.223694,0.9438484554,0,0,-0.671082,303.7, -0.7, -1.5,0,0,1024,1024,1024,1024,302.8,-90,97,3.923,3.962,3.958,3.953,3.953,3.948,18.538,77,14,Waypoint,
36.993778,-119.1734743,4882.7787746872,61.351708,0,0.7655183972,11800,2018-06-13 18:02:07,18,0,23.719,4882.7787746872,61.351708,0.223694,0.9438484554,0,0,-0.671082,303.7, -0.8, -1.3,0,0,1024,1024,1024,1024,302.8,-89.9,97,3.923,3.962,3.958,3.953,3.953,3.948,18.538,77,14,Waypoint,
36.993778,-119.1734743,4883.7630266872,62.33596,0,0.7655183972,11900,2018-06-13 18:02:07,18,0,23.719,4883.7630266872,62.33596,0.223694,0.9438484554,0,0,-0.671082,303.8, -0.6, -1.1,0,0,1024,1024,1024,1024,302.8,-89.9,97,3.923,3.962,3.958,3.953,3.953,3.948,18.538,77,14,Waypoint,
36.993778,-119.1734743,4884.7472786872,63.320212,0,0.7655183972,12000,2018-06-13 18:02:08,18,0,23.707,4884.7472786872,63.320212,0.223694,0.9438484554,0,0,-0.671082,303.9, -0.6, -1,0,0,1024,1024,1024,1024,302.8,-89.9,97,3.929,3.964,3.955,3.953,3.952,3.949,18.538,77,14,Waypoint,
36.993778,-119.1734743,4885.7315306872,64.304464,0,0.7655183972,12100,2018-06-13 18:02:08,19,0,23.707,4885.7315306872,64.304464,0.223694,0.9438484554,0,0,-0.671082,303.9, -0.7, -1,0,0,1024,1024,1024,1024,302.8,-89.9,97,3.929,3.964,3.955,3.953,3.952,3.949,18.538,77,14,Waypoint,
36.9937781,-119.1734743,4886.7157826872,65.288716,0,0.77158138952,12200,2018-06-13 18:02:08,19,0,23.707,4886.7157826872,65.288716,0.223694,0.9438484554,0,0,-0.671082,304, -0.9, -1,0,0,1024,1024,1024,1024,302.8,-89.9,97,3.929,3.964,3.955,3.953,3.952,3.949,18.538,77,14,Waypoint,
36.9937781,-119.1734743,4887.7000346872,66.272968,0,0.77158138952,12300,2018-06-13 18:02:08,20,0,23.707,4887.7000346872,66.272968,0.223694,0.9438484554,0,0,-0.671082,304.1, -1.1, -1.1,0,0,1024,1024,1024,1024,302.8,-89.9,97,3.929,3.964,3.955,3.953,3.952,3.949,18.538,77,14,Waypoint,
36.993778,-119.1734743,4888.6842866872,67.25722,0,0.7655183972,12400,2018-06-13 18:02:08,20,0,23.707,4888.6842866872,67.25722,0.223694,0.9438484554,0,0,-0.671082,304.2, -1.1, -1,0,0,1024,1024,1024,1024,302.8,-89.9,97,3.929,3.964,3.955,3.953,3.952,3.949,18.538,77,14,Waypoint,
36.993778,-119.1734743,4889.6685386872,68.241472,0,0.7655183972,12500,2018-06-13 18:02:08,20,0,23.707,4889.6685386872,68.241472,0.223694,0.9438484554,0,0,-0.671082,304.1, -1, -0.8,0,0,1024,1024,1024,1024,302.8,-89.9,97,3.929,3.964,3.955,3.953,3.952,3.949,18.538,77,14,Waypoint,
36.993778,-119.1734743,4890.6527906872,69.225724,0,0.7655183972,12600,2018-06-13 18:02:08,20,0,23.707,4890.6527906872,69.225724,0.223694,0.9438484554,0,0,-0.671082,304, -1, -0.5,0,0,1024,1024,1024,1024,302.8,-89.9,97,3.929,3.964,3.955,3.953,3.952,3.949,18.538,77,14,Waypoint,
36.9937781,-119.1734745,4892.2932106872,70.866144,0,0.71443899924,12700,2018-06-13 18:02:08,19,0,23.707,4892.2932106872,70.866144,0.223694,0.9438484554,0,0,-0.671082,303.3, -0.6, -0.1,0,0,1024,1024,1024,1024,302.8,-89.9,97,3.929,3.964,3.955,3.953,3.952,3.949,18.538,77,14,Waypoint,
36.9937781,-119.1734745,4893.2774626872,71.850396,0,0.71443899924,12910,2018-06-13 18:02:08,20,0,23.707,4893.2774626872,71.850396,0.223694,0.9438484554,0,0,-0.671082,303, -0.4, -0.3,0,0,1024,1024,1024,1024,302.8,-89.9,97,3.929,3.964,3.955,3.953,3.952,3.949,18.538,77,14,Waypoint,
36.9937781,-119.1734746,4894.2617146872,72.834648,0,0.68593834216,13000,2018-06-13 18:02:09,20,0,23.664,4894.2617146872,72.834648,0.223694,0.9438484554,0,0,-0.671082,302.8, -0.1, -0.6,0,0,1024,1024,1024,1024,302.8,-89.9,97,3.929,3.964,3.955,3.953,3.952,3.949,19.319,77,14,Waypoint,
36.9937781,-119.1734747,4896.2302186872,74.803152,0,0.65749345936,13200,2018-06-13 18:02:09,20,0,23.664,4896.2302186872,74.803152,0.223694,0.9438484554,0,0,-0.671082,302.8, 0, -0.6,0,0,1024,1024,1024,1024,302.8,-89.9,97,3.929,3.964,3.955,3.953,3.952,3.949,19.319,77,14,Waypoint,
36.9937781,-119.1734747,4897.2144706872,75.787404,0,0.65749345936,13300,2018-06-13 18:02:09,20,0,23.664,4897.2144706872,75.787404,0.223694,0.9438484554,0,0,-0.671082,302.8, 0, -0.6,0,0,1024,1024,1024,1024,302.8,-89.9,97,3.929,3.964,3.955,3.953,3.952,3.949,19.319,77,14,Waypoint,
36.9937781,-119.1734748,4898.1987226872,76.771656,0,0.62911419336,13400,2018-06-13 18:02:09,20,0,23.664,4898.1987226872,76.771656,0.223694,0.9438484554,0,0,-0.671082,303, 0, -0.8,0,0,1024,1024,1024,1024,302.8,-89.9,97,3.929,3.964,3.955,3.953,3.952,3.949,19.319,77,14,Waypoint,
36.9937781,-119.1734748,4899.1829746872,77.755908,0,0.62911419336,13500,2018-06-13 18:02:09,20,0,23.664,4899.1829746872,77.755908,0.223694,0.9438484554,0,0,-0.671082,303.1, 0, -0.9,0,0,1024,1024,1024,1024,302.8,-89.9,97,3.929,3.964,3.955,3.953,3.952,3.949,19.319,77,14,Waypoint,
36.9937782,-119.1734749,4901.1514786872,79.724412,0,0.6106955576,13700,2018-06-13 18:02:09,20,0,23.664,4901.1514786872,79.724412,0.223694,0.9438484554,0,0,-0.671082,303.2, 0, -1.1,0,0,1024,1024,1024,1024,302.8,-89.9,97,3.929,3.964,3.955,3.953,3.952,3.949,19.319,77,14,Waypoint,
36.9937783,-119.1734749,4902.1357306872,80.708664,0,0.62256891756,13800,2018-06-13 18:02:09,20,0,23.664,4902.1357306872,80.708664,0.223694,0.9438484554,0,0,-0.671082,303.2, 0, -1.1,0,0,1024,1024,1024,1024,302.8,-89.9,97,3.929,3.964,3.955,3.953,3.952,3.949,19.319,77,14,Waypoint,
36.9937783,-119.1734749,4903.1199826872,81.692916,0,0.62256891756,13900,2018-06-13 18:02:09,20,0,23.664,4903.1199826872,81.692916,0.223694,0.9438484554,0,0,-0.671082,303.1, -0.1, -1.2,0,0,1024,1024,1024,1024,302.8,-89.9,97,3.929,3.964,3.955,3.953,3.952,3.949,19.319,77,14,Waypoint,
36.9937783,-119.173475,4904.1042346872,82.677168,0,0.59537731564,14000,2018-06-13 18:02:10,20,0,23.564,4904.1042346872,82.677168,0.223694,0.9438484554,0,0,-0.671082,303.1, 0, -1.2,0,0,1024,1024,1024,1024,302.8,-89.9,97,3.9,3.944,3.935,3.928,3.926,3.929,19.103,77,14,Waypoint,
36.9937782,-119.173475,4905.0884866872,83.66142,0,0.58294949372,14100,2018-06-13 18:02:10,20,0,23.564,4905.0884866872,83.66142,0.223694,0.9438484554,0,0,-0.671082,303.1, 0, -0.8,0,0,1024,1024,1024,1024,302.8,-89.9,97,3.9,3.944,3.935,3.928,3.926,3.929,19.103,77,14,Waypoint,
36.9937782,-119.173475,4906.0727386872,84.645672,0,0.58294949372,14200,2018-06-13 18:02:10,20,0,23.564,4906.0727386872,84.645672,0.223694,0.9438484554,0,0,-0.671082,303.2, 0, -0.5,0,0,1024,1024,1024,1024,302.8,-89.9,97,3.9,3.944,3.935,3.928,3.926,3.929,19.103,77,14,Waypoint,
36.9937782,-119.1734751,4907.0569906872,85.629924,0,0.5553477868,14300,2018-06-13 18:02:10,20,0,23.564,4907.0569906872,85.629924,0.223694,0.9438484554,0,0,-0.671082,303.4, -0.1, -0.4,0,0,1024,1024,1024,1024,302.8,-89.9,97,3.9,3.944,3.935,3.928,3.926,3.929,19.103,77,14,Waypoint,
36.9937782,-119.1734751,4908.0412426872,86.614176,0,0.5553477868,14400,2018-06-13 18:02:10,20,0,23.564,4908.0412426872,86.614176,0.223694,0.9438484554,0,0,-0.671082,303.6, -0.2, -0.3,0,0,1024,1024,1024,1024,302.8,-89.9,97,3.9,3.944,3.935,3.928,3.926,3.929,19.103,77,14,Waypoint,
36.9937782,-119.1734751,4909.0254946872,87.598428,0,0.5553477868,14500,2018-06-13 18:02:10,20,0,23.564,4909.0254946872,87.598428,0.223694,0.9438484554,0,0,-0.671082,303.8, -0.2, -0.2,0,0,1024,1024,1024,1024,302.8,-89.9,97,3.9,3.944,3.935,3.928,3.926,3.929,19.103,77,14,Waypoint,
36.9937782,-119.1734751,4910.0097466872,88.58268,0,0.5553477868,14600,2018-06-13 18:02:10,20,0,23.564,4910.0097466872,88.58268,0.223694,0.9438484554,0,0,-0.671082,303.9, 0, -0.1,0,0,1024,1024,1024,1024,302.8,-89.9,97,3.9,3.944,3.935,3.928,3.926,3.929,19.103,77,14,Waypoint,
36.9937782,-119.1734751,4910.9939986872,89.566932,0,0.5553477868,14700,2018-06-13 18:02:10,20,0,23.564,4910.9939986872,89.566932,0.223694,0.9438484554,0,0,-0.671082,303.8, 0, -0.1,0,0,1024,1024,1024,1024,302.8,-89.9,97,3.9,3.944,3.935,3.928,3.926,3.929,19.103,77,14,Waypoint,
36.9937782,-119.1734751,4911.9782506872,90.551184,0,0.5553477868,14800,2018-06-13 18:02:10,20,0,23.564,4911.9782506872,90.551184,0.223694,0.9438484554,0,0,-0.671082,303.7, -0.1, -0.7,0,0,1024,1024,1024,1024,302.8,-89.9,97,3.9,3.944,3.935,3.928,3.926,3.929,19.103,77,14,Waypoint,
36.9937782,-119.173475,4912.9625026872,91.535436,0,0.58294949372,14900,2018-06-13 18:02:10,20,0,23.564,4912.9625026872,91.535436,0.223694,0.9438484554,0,0,-0.671082,303.5, -0.4, -1.2,0,0,1024,1024,1024,1024,302.8,-90,97,3.9,3.944,3.935,3.928,3.926,3.929,19.103,77,14,Waypoint,
36.9937781,-119.173475,4914.2748386872,92.847772,0,0.57258203932,15000,2018-06-13 18:02:11,20,0,23.554,4914.2748386872,92.847772,0.223694,0.9438484554,0,0,-0.671082,303.5, -0.7, -1.3,0,0,1024,1024,1024,1024,302.8,-90,96,3.9,3.944,3.935,3.928,3.926,3.929,19.185,77,14,Waypoint,
36.9937781,-119.1734749,4915.2590906872,93.832024,0,0.600803825,15100,2018-06-13 18:02:11,20,0,23.554,4915.2590906872,93.832024,0.223694,0.9438484554,0,0,-0.671082,303.5, -0.8, -1.3,0,0,1024,1024,1024,1024,302.8,-90,96,3.9,3.944,3.935,3.928,3.926,3.929,19.185,77,14,Waypoint,
36.9937781,-119.1734748,4916.2433426872,94.816276,0,0.62911419336,15200,2018-06-13 18:02:11,20,0,23.554,4916.2433426872,94.816276,0.223694,0.9438484554,0,0,-0.671082,303.6, -0.8, -1.4,0,0,1024,1024,1024,1024,302.8,-90,96,3.9,3.944,3.935,3.928,3.926,3.929,19.185,77,14,Waypoint,
36.9937781,-119.1734748,4917.2275946872,95.800528,0,0.62911419336,15300,2018-06-13 18:02:11,20,0,23.554,4917.2275946872,95.800528,0.223694,0.9438484554,0,0,-0.671082,303.8, -0.9, -1.5,0,0,1024,1024,1024,1024,302.8,-90,96,3.9,3.944,3.935,3.928,3.926,3.929,19.185,77,14,Waypoint,
36.9937781,-119.1734746,4918.2118466872,96.78478,0,0.68593834216,15400,2018-06-13 18:02:11,20,0,23.554,4918.2118466872,96.78478,0.223694,0.9438484554,0,0,-0.671082,303.8, -1.1, -1.6,0,0,1024,1024,1024,1024,302.8,-90,96,3.9,3.944,3.935,3.928,3.926,3.929,19.185,77,14,Waypoint,
36.9937781,-119.1734745,4919.1960986872,97.769032,0,0.71443899924,15500,2018-06-13 18:02:11,20,0,23.554,4919.1960986872,97.769032,0.223694,0.9438484554,0,0,-0.671082,303.9, -1.4, -1.5,0,0,1024,1024,1024,1024,302.8,-90,96,3.9,3.944,3.935,3.928,3.926,3.929,19.185,77,14,Waypoint,
36.9937781,-119.1734743,4920.1803506872,98.753284,0,0.77158138952,15600,2018-06-13 18:02:11,20,0,23.554,4920.1803506872,98.753284,0.223694,0.9438484554,0,0,-0.671082,303.9, -1.7, -1.4,0,0,1024,1024,1024,1024,302.8,-90,96,3.9,3.944,3.935,3.928,3.926,3.929,19.185,77,14,Waypoint,
36.9937781,-119.1734742,4921.1646026872,99.737536,0,0.80021656104,15700,2018-06-13 18:02:11,20,0,23.554,4921.1646026872,99.737536,0.223694,0.9438484554,0,0,-0.671082,303.8, -1.8, -1.5,0,0,1024,1024,1024,1024,302.8,-89.9,96,3.9,3.944,3.935,3.928,3.926,3.929,19.185,77,14,Waypoint,
36.9937781,-119.1734741,4922.1488546872,100.721788,0,0.82888454096,15800,2018-06-13 18:02:11,20,0,23.554,4922.1488546872,100.721788,0.223694,0.9438484554,0,0,-0.671082,303.7, -1.8, -1.6,0,0,1024,1024,1024,1024,302.8,-89.9,96,3.9,3.944,3.935,3.928,3.926,3.929,19.185,77,14,Waypoint,
36.993778,-119.1734739,4923.1331066872,101.70604,0,0.88104333528,15900,2018-06-13 18:02:11,20,0,23.554,4923.1331066872,101.70604,0.223694,0.9438484554,0,0,-0.671082,303.6, -1.9, -1.7,0,0,1024,1024,1024,1024,302.8,-89.9,96,3.9,3.944,3.935,3.928,3.926,3.929,19.185,77,14,Waypoint,
36.993778,-119.1734738,4924.1173586872,102.690292,0,0.90996393988,16010,2018-06-13 18:02:12,20,0,23.554,4924.1173586872,102.690292,0.223694,0.9438484554,0,0,-0.671082,303.6, -2.2, -1.7,0,0,1024,1024,1024,1024,302.8,-89.9,96,3.903,3.947,3.925,3.918,3.919,3.921,19.185,77,14,Waypoint,
36.9937779,-119.1734736,4926.0858626872,104.658796,0,0.964402918,16100,2018-06-13 18:02:12,20,0,23.554,4926.0858626872,104.658796,0.223694,0.964402918,0,0,-0.671082,303.7, -2.6, -1.7,0,0,1024,1024,1024,1024,302.8,-89.9,96,3.903,3.947,3.925,3.918,3.919,3.921,19.185,77,14,Waypoint,
36.9937779,-119.1734735,4927.0701146872,105.643048,0,0.99346131788,16300,2018-06-13 18:02:12,20,0,23.554,4927.0701146872,105.643048,0.223694,0.99346131788,0,0,-0.671082,303.8, -2.7, -1.9,0,0,1024,1024,1024,1024,302.8,-89.9,96,3.903,3.947,3.925,3.918,3.919,3.921,19.185,77,14,Waypoint,
36.9937779,-119.1734734,4928.0543666872,106.6273,0,1.02252627944,16400,2018-06-13 18:02:12,20,0,23.554,4928.0543666872,106.6273,0.223694,1.02252627944,0,0,-0.671082,303.8, -2.7, -1.9,0,0,1024,1024,1024,1024,302.8,-89.9,96,3.903,3.947,3.925,3.918,3.919,3.921,19.185,77,14,Waypoint,
36.9937779,-119.1734733,4929.0386186872,107.611552,0,1.05159452184,16500,2018-06-13 18:02:12,20,0,23.554,4929.0386186872,107.611552,0.223694,1.05159452184,0,0,-0.671082,303.9, -2.6, -1.7,0,0,1024,1024,1024,1024,302.8,-89.9,96,3.903,3.947,3.925,3.918,3.919,3.921,19.185,77,14,Waypoint,
36.9937779,-119.1734733,4929.6947866872,108.26772,0,1.05159452184,16600,2018-06-13 18:02:12,20,0,23.554,4929.6947866872,108.26772,0.223694,1.05159452184,0,0,-0.671082,303.9, -2.4, -1.6,0,0,1024,1024,1024,1024,302.8,-89.9,96,3.903,3.947,3.925,3.918,3.919,3.921,19.185,77,14,Waypoint,
36.9937779,-119.1734732,4930.6790386872,109.251972,0,1.08066604508,16700,2018-06-13 18:02:12,20,0,23.554,4930.6790386872,109.251972,0.223694,1.08066604508,0,0,-0.671082,303.8, -2.3, -1.6,0,0,1024,1024,1024,1024,302.8,-89.9,96,3.903,3.947,3.925,3.918,3.919,3.921,19.185,77,14,Waypoint,
36.9937779,-119.1734732,4931.6632906872,110.236224,0,1.08066604508,16800,2018-06-13 18:02:12,20,0,23.554,4931.6632906872,110.236224,0.223694,1.08066604508,0,0,-0.671082,303.7, -2.1, -1.6,0,0,1024,1024,1024,1024,302.8,-89.9,96,3.903,3.947,3.925,3.918,3.919,3.921,19.185,77,14,Waypoint,
36.993778,-119.1734732,4932.6475426872,111.220476,0,1.083743473,16900,2018-06-13 18:02:12,20,0,23.554,4932.6475426872,111.220476,0.223694,1.083743473,0,0,-0.671082,303.7, -2, -1.6,0,0,1024,1024,1024,1024,302.8,-89.9,96,3.903,3.947,3.925,3.918,3.919,3.921,19.185,77,14,Waypoint,
36.993778,-119.1734732,4933.6317946872,112.204728,0,1.083743473,17000,2018-06-13 18:02:13,20,0,23.537,4933.6317946872,112.204728,0.223694,1.083743473,0,0,-0.671082,303.6, -1.9, -1.7,0,0,1024,1024,1024,1024,302.8,-89.9,96,3.902,3.931,3.922,3.915,3.915,3.913,18.86,77,14,Waypoint,
36.9937781,-119.1734732,4934.6160466872,113.18898,0,1.08803153088,17100,2018-06-13 18:02:13,20,0,23.537,4934.6160466872,113.18898,0.223694,1.08803153088,0,0,-0.671082,303.6, -1.8, -1.9,0,0,1024,1024,1024,1024,302.8,-89.9,96,3.902,3.931,3.922,3.915,3.915,3.913,18.86,77,14,Waypoint,
36.9937781,-119.1734732,4935.6002986872,114.173232,0,1.08803153088,17200,2018-06-13 18:02:13,20,0,23.537,4935.6002986872,114.173232,0.223694,1.08803153088,0,0,-0.671082,303.6, -1.7, -2.1,0,0,1024,1024,1024,1024,302.8,-89.9,96,3.902,3.931,3.922,3.915,3.915,3.913,18.86,77,14,Waypoint,
36.9937782,-119.1734732,4936.5845506872,115.157484,0,1.09352365704,17300,2018-06-13 18:02:13,20,0,23.537,4936.5845506872,115.157484,0.223694,1.09352365704,0,0,-0.671082,303.6, -1.7, -2.2,0,0,1024,1024,1024,1024,302.8,-89.9,96,3.902,3.931,3.922,3.915,3.915,3.913,18.86,77,14,Waypoint,
36.9937782,-119.1734732,4937.5688026872,116.141736,0,1.09352365704,17400,2018-06-13 18:02:13,20,0,23.537,4937.5688026872,116.141736,0.223694,1.09352365704,0,0,-0.671082,303.6, -1.8, -2.2,0,0,1024,1024,1024,1024,302.8,-89.9,96,3.902,3.931,3.922,3.915,3.915,3.913,18.86,77,14,Waypoint,
36.9937782,-119.1734732,4938.5530546872,117.125988,0,1.09352365704,17500,2018-06-13 18:02:13,20,0,23.537,4938.5530546872,117.125988,0.223694,1.09352365704,0,0,-0.671082,303.6, -1.9, -2.2,0,0,1024,1024,1024,1024,302.8,-89.9,96,3.902,3.931,3.922,3.915,3.915,3.913,18.86,77,14,Waypoint,
36.9937782,-119.1734732,4939.5373066872,118.11024,0,1.09352365704,17600,2018-06-13 18:02:13,20,0,23.537,4939.5373066872,118.11024,0.223694,1.09352365704,0,0,-0.671082,303.6, -1.9, -1.9,0,0,1024,1024,1024,1024,302.8,-89.9,96,3.902,3.931,3.922,3.915,3.915,3.913,18.86,77,14,Waypoint,
36.9937782,-119.1734733,4940.5215586872,119.094492,0,1.06480318368,17700,2018-06-13 18:02:13,20,0,23.537,4940.5215586872,119.094492,0.223694,1.09352365704,0,0,-0.671082,303.6, -1.8, -1.8,0,0,1024,1024,1024,1024,302.8,-89.9,96,3.902,3.931,3.922,3.915,3.915,3.913,18.86,77,14,Waypoint,
36.9937782,-119.1734733,4941.5058106872,120.078744,0,1.06480318368,17800,2018-06-13 18:02:13,20,0,23.537,4941.5058106872,120.078744,0.223694,1.09352365704,0,0,-0.671082,303.6, -1.8, -1.7,0,0,1024,1024,1024,1024,302.8,-89.9,96,3.902,3.931,3.922,3.915,3.915,3.913,18.86,77,14,Waypoint,
36.9937782,-119.1734734,4942.4900626872,121.062996,0,1.0361056762,17900,2018-06-13 18:02:13,20,0,23.537,4942.4900626872,121.062996,0.223694,1.09352365704,0,0,-0.671082,303.6, -1.7, -1.6,0,0,1024,1024,1024,1024,302.8,-89.9,96,3.902,3.931,3.922,3.915,3.915,3.913,18.86,77,14,Waypoint,
36.9937783,-119.1734734,4943.4743146872,122.047248,0,1.04314635884,18000,2018-06-13 18:02:14,20,0,23.444,4943.4743146872,122.047248,0.223694,1.09352365704,0,0,-0.671082,303.6, -1.5, -1.5,0,0,1024,1024,1024,1024,302.8,-89.9,96,3.884,3.92,3.906,3.899,3.906,3.895,19.573,77,14,Waypoint,
36.9937783,-119.1734735,4944.4585666872,123.0315,0,1.01467522932,18100,2018-06-13 18:02:14,20,0,23.444,4944.4585666872,123.0315,0.223694,1.09352365704,0,0,-0.671082,303.6, -1.4, -1.5,0,0,1024,1024,1024,1024,302.8,-89.9,96,3.884,3.92,3.906,3.899,3.906,3.895,19.573,77,14,Waypoint,
36.9937783,-119.1734735,4945.4428186872,124.015752,0,1.01467522932,18200,2018-06-13 18:02:14,20,0,23.444,4945.4428186872,124.015752,0.223694,1.09352365704,0,0,-0.671082,303.7, -1.4, -1.5,0,0,1024,1024,1024,1024,302.8,-89.9,96,3.884,3.92,3.906,3.899,3.906,3.895,19.573,77,14,Waypoint,
36.9937783,-119.1734736,4946.4270706872,125.000004,0,0.98624018904,18300,2018-06-13 18:02:14,20,0,23.444,4946.4270706872,125.000004,0.223694,1.09352365704,0,0,-0.671082,303.7, -1.5, -1.5,0,0,1024,1024,1024,1024,302.8,-89.9,96,3.884,3.92,3.906,3.899,3.906,3.895,19.573,77,14,Waypoint,
36.9937783,-119.1734736,4947.4113226872,125.984256,0,0.98624018904,18400,2018-06-13 18:02:14,20,0,23.444,4947.4113226872,125.984256,0.223694,1.09352365704,0,0,-0.671082,303.7, -1.7, -1.6,0,0,1024,1024,1024,1024,302.8,-89.9,96,3.884,3.92,3.906,3.899,3.906,3.895,19.573,77,14,Waypoint,
36.9937784,-119.1734736,4948.3955746872,126.968508,0,0.99497378512,18500,2018-06-13 18:02:14,20,0,23.444,4948.3955746872,126.968508,0.223694,1.09352365704,0,0,-0.671082,303.8, -1.6, -1.7,0,0,1024,1024,1024,1024,302.8,-89.9,96,3.884,3.92,3.906,3.899,3.906,3.895,19.573,77,14,Waypoint,
36.9937784,-119.1734736,4949.3798266872,127.95276,0,0.99497378512,18700,2018-06-13 18:02:14,20,0,23.444,4949.3798266872,127.95276,0.223694,1.09352365704,0,0,-0.671082,303.9, -1.6, -1.8,0,0,1024,1024,1024,1024,302.8,-89.9,96,3.884,3.92,3.906,3.899,3.906,3.895,19.573,77,14,Waypoint,
36.9937786,-119.1734736,4952.3325826872,130.905516,0,1.01615488816,18800,2018-06-13 18:02:14,20,0,23.444,4952.3325826872,130.905516,0.223694,1.09352365704,0,0,-0.671082,303.9, -1.3, -2.8,0,0,1024,1024,1024,1024,302.8,-89.9,96,3.884,3.92,3.906,3.899,3.906,3.895,19.573,77,14,Waypoint,
36.9937787,-119.1734736,4953.3168346872,131.889768,0,1.02852365496,18910,2018-06-13 18:02:14,20,0,23.444,4953.3168346872,131.889768,0.223694,1.09352365704,0,0,-0.671082,303.9, -1.2, -2.9,0,0,1024,1024,1024,1024,302.8,-89.9,96,3.884,3.92,3.906,3.899,3.906,3.895,19.573,77,14,Waypoint,
36.9937787,-119.1734736,4953.3168346872,131.889768,0,1.02852365496,19000,2018-06-13 18:02:15,20,0,23.379,4953.3168346872,131.889768,0.223694,1.09352365704,0,0,-0.671082,303.9, -1.2, -2.9,0,0,1024,1024,1024,1024,302.8,-89.9,96,3.875,3.912,3.902,3.893,3.897,3.904,19.938,77,14,Waypoint,
36.9937788,-119.1734736,4954.3010866872,132.87402,0,1.04202431156,19100,2018-06-13 18:02:15,20,0,23.379,4954.3010866872,132.87402,0.223694,1.09352365704,0,0,-0.671082,303.9, -1.2, -3,0,0,1024,1024,1024,1024,302.8,-89.9,96,3.875,3.912,3.902,3.893,3.897,3.904,19.938,77,14,Waypoint,
36.9937789,-119.1734736,4955.2853386872,133.858272,0,1.05661420704,19200,2018-06-13 18:02:15,20,0,23.379,4955.2853386872,133.858272,0.223694,1.09352365704,0,0,-0.671082,303.8, -1.3, -3,0,0,1024,1024,1024,1024,302.8,-89.9,96,3.875,3.912,3.902,3.893,3.897,3.904,19.938,77,14,Waypoint,
36.9937789,-119.1734736,4956.2695906872,134.842524,0,1.05661420704,19300,2018-06-13 18:02:15,20,0,23.379,4956.2695906872,134.842524,0.223694,1.09352365704,0,0,-0.671082,303.7, -1.4, -2.8,0,0,1024,1024,1024,1024,302.8,-89.9,96,3.875,3.912,3.902,3.893,3.897,3.904,19.938,77,14,Waypoint,
36.9937789,-119.1734736,4957.2538426872,135.826776,0,1.05661420704,19400,2018-06-13 18:02:15,20,0,23.379,4957.2538426872,135.826776,0.223694,1.09352365704,0,0,-0.671082,303.6, -1.8, -2.7,0,0,1024,1024,1024,1024,302.8,-89.9,96,3.875,3.912,3.902,3.893,3.897,3.904,19.938,77,14,Waypoint,
36.9937789,-119.1734736,4958.2380946872,136.811028,0,1.05661420704,19500,2018-06-13 18:02:15,20,0,23.379,4958.2380946872,136.811028,0.223694,1.09352365704,0,0,-0.671082,303.6, -1.9, -2.7,0,0,1024,1024,1024,1024,302.8,-89.9,96,3.875,3.912,3.902,3.893,3.897,3.904,19.938,77,14,Waypoint,
36.9937789,-119.1734736,4959.2223466872,137.79528,0,1.05661420704,19600,2018-06-13 18:02:15,20,0,23.379,4959.2223466872,137.79528,0.223694,1.09352365704,0,0,-0.671082,303.5, -1.6, -2.6,0,0,1024,1024,1024,1024,302.8,-89.9,96,3.875,3.912,3.902,3.893,3.897,3.904,19.938,77,14,Waypoint,
36.993779,-119.1734737,4960.2065986872,138.779532,0,1.04619097836,19700,2018-06-13 18:02:15,20,0,23.379,4960.2065986872,138.779532,0.223694,1.09352365704,0,0,-0.671082,303.5, -1.2, -2.6,0,0,1024,1024,1024,1024,302.8,-89.9,96,3.875,3.912,3.902,3.893,3.897,3.904,19.938,77,14,Waypoint,
36.993779,-119.1734737,4961.1908506872,139.763784,0,1.04619097836,19800,2018-06-13 18:02:15,20,0,23.379,4961.1908506872,139.763784,0.223694,1.09352365704,0,0,-0.671082,303.5, -1, -2.7,0,0,1024,1024,1024,1024,302.8,-89.9,96,3.875,3.912,3.902,3.893,3.897,3.904,19.938,77,14,Waypoint,
36.9937791,-119.1734737,4962.1751026872,140.748036,0,1.06322838048,19900,2018-06-13 18:02:15,20,0,23.379,4962.1751026872,140.748036,0.223694,1.09352365704,0,0,-0.671082,303.4, -1.1, -2.9,0,0,1024,1024,1024,1024,302.8,-89.9,96,3.875,3.912,3.902,3.893,3.897,3.904,19.938,77,14,Waypoint,
36.9937791,-119.1734737,4963.1593546872,141.732288,0,1.06322838048,20000,2018-06-13 18:02:16,20,0,23.368,4963.1593546872,141.732288,0.223694,1.09352365704,0,0,-0.671082,303.4, -1.2, -3.1,0,0,1024,1024,1024,1024,302.8,-89.9,96,3.876,3.911,3.885,3.886,3.887,3.897,19.787,78.8,14,Waypoint,
36.9937791,-119.1734737,4964.1436066872,142.71654,0,1.06322838048,20100,2018-06-13 18:02:16,20,0,23.368,4964.1436066872,142.71654,0.223694,1.09352365704,0,0,-0.671082,303.5, -1.2, -3.1,0,0,1024,1024,1024,1024,302.8,-89.9,96,3.876,3.911,3.885,3.886,3.887,3.897,19.787,78.8,14,Waypoint,
36.9937791,-119.1734737,4965.1278586872,143.700792,0,1.06322838048,20200,2018-06-13 18:02:16,20,0,23.368,4965.1278586872,143.700792,0.223694,1.09352365704,0,0,-0.671082,303.6, -1.3, -3,0,0,1024,1024,1024,1024,302.8,-89.9,96,3.876,3.911,3.885,3.886,3.887,3.897,19.787,78.8,14,Waypoint,
36.9937791,-119.1734738,4966.1121106872,144.685044,0,1.03776578124,20300,2018-06-13 18:02:16,20,0,23.368,4966.1121106872,144.685044,0.223694,1.09352365704,0,0,-0.671082,303.6, -1.4, -2.7,0,0,1024,1024,1024,1024,302.8,-90,96,3.876,3.911,3.885,3.886,3.887,3.897,19.787,78.8,14,Waypoint,
36.9937791,-119.1734738,4967.0963626872,145.669296,0,1.03776578124,20400,2018-06-13 18:02:16,20,0,23.368,4967.0963626872,145.669296,0.223694,1.09352365704,0,0,-0.671082,303.5, -1.6, -2.4,0,0,1024,1024,1024,1024,302.8,-90,96,3.876,3.911,3.885,3.886,3.887,3.897,19.787,78.8,14,Waypoint,
36.9937791,-119.1734739,4967.7525306872,146.325464,0,1.01250331324,20500,2018-06-13 18:02:16,20,0,23.368,4967.7525306872,146.325464,0.223694,1.09352365704,0,0,-0.671082,303.3, -1.4, -2.5,0,0,1024,1024,1024,1024,302.8,-89.9,96,3.876,3.911,3.885,3.886,3.887,3.897,19.787,78.8,14,Waypoint,
36.9937791,-119.1734739,4968.7367826872,147.309716,0,1.01250331324,20600,2018-06-13 18:02:16,20,0,23.368,4968.7367826872,147.309716,0.223694,1.09352365704,0,0,-0.671082,303.1, -1.1, -2.3,0,0,1024,1024,1024,1024,302.8,-89.9,96,3.876,3.911,3.885,3.886,3.887,3.897,19.787,78.8,14,Waypoint,
36.9937791,-119.173474,4969.7210346872,148.293968,0.223694,0.987450819,20700,2018-06-13 18:02:16,20,0,23.368,4969.7210346872,148.293968,0.223694,1.09352365704,0,0,-0.671082,302.9, -1.2, -2.2,0,0,1024,1024,1024,1024,302.8,-90,96,3.876,3.911,3.885,3.886,3.887,3.897,19.787,78.8,14,Waypoint,
36.9937791,-119.173474,4969.7210346872,148.293968,0.223694,0.987450819,20800,2018-06-13 18:02:16,20,0,23.368,4969.7210346872,148.293968,0.223694,1.09352365704,0,0,-0.671082,302.9, -1.2, -2.2,0,0,1024,1024,1024,1024,302.8,-90,96,3.876,3.911,3.885,3.886,3.887,3.897,19.787,78.8,14,Waypoint,
36.9937791,-119.1734743,4971.6895386872,150.262472,0.223694,0.91375331008,20900,2018-06-13 18:02:16,20,0,23.368,4971.6895386872,150.262472,0.223694,1.09352365704,0,0,-0.671082,302.6, -0.6, -2.1,0,0,1024,1024,1024,1024,302.8,-89.9,96,3.876,3.911,3.885,3.886,3.887,3.897,19.787,78.8,14,Waypoint,
36.993779,-119.1734745,4973.6580426872,152.230976,0.223694,0.84503611628,21110,2018-06-13 18:02:17,20,0,23.368,4973.6580426872,152.230976,0.223694,1.09352365704,0,0,-0.671082,302.8, 0, -2,0,0,1024,1024,1024,1024,302.8,-89.9,96,3.876,3.911,3.885,3.886,3.887,3.897,19.787,78.8,14,Waypoint,
36.9937789,-119.1734748,4975.6265466872,154.19948,0.223694,0.7524442498,21200,2018-06-13 18:02:17,20,0,23.368,4975.6265466872,154.19948,0.223694,1.09352365704,0,0,-0.671082,303.3, 0.2, -1.4,0,0,1024,1024,1024,1024,302.8,-89.9,96,3.876,3.911,3.885,3.886,3.887,3.897,19.787,78.8,14,Waypoint,
36.9937789,-119.1734749,4976.6107986872,155.183732,0.223694,0.72894031204,21500,2018-06-13 18:02:17,20,0,23.368,4976.6107986872,155.183732,0.223694,1.09352365704,0,0,-0.671082,303.5, 0.2, -1,0,0,1024,1024,1024,1024,302.8,-89.9,96,3.876,3.911,3.885,3.886,3.887,3.897,19.787,78.8,14,Waypoint,
36.9937788,-119.1734751,4978.5793026872,157.152236,0,0.66045605788,21600,2018-06-13 18:02:17,20,0,23.368,4978.5793026872,157.152236,0.223694,1.09352365704,0,0,-0.671082,303.9, 0.1, -0.9,0,0,1024,1024,1024,1024,302.8,-89.9,96,3.876,3.911,3.885,3.886,3.887,3.897,19.787,78.8,14,Waypoint,
36.9937788,-119.1734751,4979.5635546872,158.136488,0,0.66045605788,21700,2018-06-13 18:02:17,20,0,23.368,4979.5635546872,158.136488,0.223694,1.09352365704,0,0,-0.671082,304.1, 0, -0.9,0,0,1024,1024,1024,1024,302.8,-89.9,96,3.876,3.911,3.885,3.886,3.887,3.897,19.787,78.8,14,Waypoint,
36.9937787,-119.1734751,4980.5478066872,159.12074,0,0.63894030916,21800,2018-06-13 18:02:17,20,0,23.368,4980.5478066872,159.12074,0.223694,1.09352365704,0,0,-0.671082,304.2, -0.3, -1.1,0,0,1024,1024,1024,1024,302.8,-89.9,96,3.876,3.911,3.885,3.886,3.887,3.897,19.787,78.8,14,Waypoint,
36.9937787,-119.1734752,4981.5320586872,160.104992,0,0.61524608268,21900,2018-06-13 18:02:17,20,0,23.368,4981.5320586872,160.104992,0.223694,1.09352365704,0,0,-0.671082,304.2, -0.5, -1.2,0,0,1024,1024,1024,1024,302.8,-89.9,96,3.876,3.911,3.885,3.886,3.887,3.897,19.787,78.8,14,Waypoint,
36.9937787,-119.1734752,4982.5163106872,161.089244,0,0.61524608268,22000,2018-06-13 18:02:18,20,0,23.375,4982.5163106872,161.089244,0.223694,1.09352365704,0,0,-0.671082,304.2, -0.5, -1.2,0,0,1024,1024,1024,1024,302.8,-89.9,96,3.873,3.921,3.892,3.893,3.891,3.904,19.225,78.8,14,Waypoint,
36.9937786,-119.1734752,4983.5005626872,162.073496,0,0.59433400852,22100,2018-06-13 18:02:18,20,0,23.375,4983.5005626872,162.073496,0.223694,1.09352365704,0,0,-0.671082,304.1, -0.3, -1.2,0,0,1024,1024,1024,1024,302.8,-89.9,96,3.873,3.921,3.892,3.893,3.891,3.904,19.225,78.8,14,Waypoint,
36.9937786,-119.1734753,4984.4848146872,163.057748,0,0.57027232796,22200,2018-06-13 18:02:18,20,0,23.375,4984.4848146872,163.057748,0.223694,1.09352365704,0,0,-0.671082,304, -0.2, -1.4,0,0,1024,1024,1024,1024,302.8,-89.9,96,3.873,3.921,3.892,3.893,3.891,3.904,19.225,78.8,14,Waypoint,
36.9937786,-119.1734753,4985.4690666872,164.042,0,0.57027232796,22300,2018-06-13 18:02:18,20,0,23.375,4985.4690666872,164.042,0.223694,1.09352365704,0,0,-0.671082,303.8, -0.2, -1.5,0,0,1024,1024,1024,1024,302.8,-89.9,96,3.873,3.921,3.892,3.893,3.891,3.904,19.225,78.8,14,Waypoint,
36.9937786,-119.1734754,4986.4533186872,165.026252,0,0.54670605424,22400,2018-06-13 18:02:18,20,0,23.375,4986.4533186872,165.026252,0.223694,1.09352365704,0,0,-0.671082,303.7, -0.2, -1.4,0,0,1024,1024,1024,1024,302.8,-89.9,96,3.873,3.921,3.892,3.893,3.891,3.904,19.225,78.8,14,Waypoint,
36.9937786,-119.1734754,4987.4375706872,166.010504,0,0.54670605424,22500,2018-06-13 18:02:18,20,0,23.375,4987.4375706872,166.010504,0.223694,1.09352365704,0,0,-0.671082,303.6, -0.2, -1.4,0,0,1024,1024,1024,1024,302.8,-89.9,96,3.873,3.921,3.892,3.893,3.891,3.904,19.225,78.8,14,Waypoint,
36.9937786,-119.1734755,4988.4218226872,166.994756,0,0.52370080416,22600,2018-06-13 18:02:18,20,0,23.375,4988.4218226872,166.994756,0.223694,1.09352365704,0,0,-0.671082,303.4, 0, -1.3,0,0,1024,1024,1024,1024,302.8,-89.9,96,3.873,3.921,3.892,3.893,3.891,3.904,19.225,78.8,14,Waypoint,
36.9937785,-119.1734755,4990.3903266872,168.96326,0,0.50162731264,22800,2018-06-13 18:02:18,20,0,23.375,4990.3903266872,168.96326,0.223694,1.09352365704,0,0,-0.671082,303.4, -0.2, -1.6,0,0,1024,1024,1024,1024,302.8,-89.9,96,3.873,3.921,3.892,3.893,3.891,3.904,19.225,78.8,14,Waypoint,
36.9937785,-119.1734754,4992.3588306872,170.931764,0,0.52560041052,23000,2018-06-13 18:02:19,20,0,23.261,4992.3588306872,170.931764,0.223694,1.09352365704,0,0,-0.671082,303.6, -0.9, -1.9,0,0,1024,1024,1024,1024,302.8,-90,96,3.841,3.907,3.874,3.873,3.867,3.901,19.71,78.8,14,Waypoint,
36.9937785,-119.1734754,4993.3430826872,171.916016,0,0.52560041052,23100,2018-06-13 18:02:19,20,0,23.261,4993.3430826872,171.916016,0.223694,1.09352365704,0,0,-0.671082,303.6, -1, -1.6,0,0,1024,1024,1024,1024,302.8,-90,96,3.841,3.907,3.874,3.873,3.867,3.901,19.71,78.8,14,Waypoint,
36.9937784,-119.1734754,4994.6554186872,173.228352,0,0.5062500162,23200,2018-06-13 18:02:19,20,0,23.261,4994.6554186872,173.228352,0.223694,1.09352365704,0,0,-0.671082,303.6, -0.9, -1,0,0,1024,1024,1024,1024,302.8,-89.9,96,3.841,3.907,3.874,3.873,3.867,3.901,19.71,78.8,14,Waypoint,
36.9937784,-119.1734754,4995.6396706872,174.212604,0,0.5062500162,23300,2018-06-13 18:02:19,20,0,23.261,4995.6396706872,174.212604,0.223694,1.09352365704,0,0,-0.671082,303.6, -0.8, -0.8,0,0,1024,1024,1024,1024,302.8,-89.9,96,3.841,3.907,3.874,3.873,3.867,3.901,19.71,78.8,14,Waypoint,
36.9937784,-119.1734754,4996.6239226872,175.196856,0,0.5062500162,23400,2018-06-13 18:02:19,20,0,23.261,4996.6239226872,175.196856,0.223694,1.09352365704,0,0,-0.671082,303.6, -0.6, -1,0,0,1024,1024,1024,1024,302.8,-89.9,96,3.841,3.907,3.874,3.873,3.867,3.901,19.71,78.8,14,Waypoint,
36.9937784,-119.1734754,4997.6081746872,176.181108,0,0.5062500162,23500,2018-06-13 18:02:19,20,0,23.261,4997.6081746872,176.181108,0.223694,1.09352365704,0,0,-0.671082,303.5, -0.6, -1.6,0,0,1024,1024,1024,1024,302.8,-89.9,96,3.841,3.907,3.874,3.873,3.867,3.901,19.71,78.8,14,Waypoint,
36.9937784,-119.1734754,4998.5924266872,177.16536,0,0.5062500162,23600,2018-06-13 18:02:19,20,0,23.261,4998.5924266872,177.16536,0.223694,1.09352365704,0,0,-0.671082,303.4, -0.6, -1.6,0,0,1024,1024,1024,1024,302.8,-89.9,96,3.841,3.907,3.874,3.873,3.867,3.901,19.71,78.8,14,Waypoint,
36.9937785,-119.1734754,4999.5766786872,178.149612,0,0.52560041052,23700,2018-06-13 18:02:19,20,0,23.261,4999.5766786872,178.149612,0.223694,1.09352365704,0,0,-0.671082,303.4, -0.5, -1.6,0,0,1024,1024,1024,1024,302.8,-89.9,96,3.841,3.907,3.874,3.873,3.867,3.901,19.71,78.8,14,Waypoint,
36.9937785,-119.1734754,5000.5609306872,179.133864,0,0.52560041052,23800,2018-06-13 18:02:19,20,0,23.261,5000.5609306872,179.133864,0.223694,1.09352365704,0,0,-0.671082,303.4, -0.6, -1.5,0,0,1024,1024,1024,1024,302.8,-89.9,96,3.841,3.907,3.874,3.873,3.867,3.901,19.71,78.8,14,Waypoint,
36.9937785,-119.1734754,5001.5451826872,180.118116,0,0.52560041052,23900,2018-06-13 18:02:19,20,0,23.261,5001.5451826872,180.118116,0.223694,1.09352365704,0,0,-0.671082,303.4, -0.6, -1.4,0,0,1024,1024,1024,1024,302.8,-89.9,96,3.841,3.907,3.874,3.873,3.867,3.901,19.71,78.8,14,Waypoint,
36.9937785,-119.1734754,5002.8575186872,181.430452,0,0.52560041052,24000,2018-06-13 18:02:20,20,0,23.163,5002.8575186872,181.430452,0.223694,1.09352365704,0,0,-0.671082,303.4, -0.7, -1.4,0,0,1024,1024,1024,1024,302.8,-90,96,3.849,3.891,3.874,3.87,3.874,3.867,21.1,78.8,14,Waypoint,
36.9937785,-119.1734753,5003.8417706872,182.414704,0,0.55007547692,24100,2018-06-13 18:02:20,20,0,23.163,5003.8417706872,182.414704,0.223694,1.09352365704,0,0,-0.671082,303.3, -0.8, -1.5,0,0,1024,1024,1024,1024,302.8,-89.9,96,3.849,3.891,3.874,3.87,3.874,3.867,21.1,78.8,14,Waypoint,
36.9937785,-119.1734753,5004.8260226872,183.398956,0,0.55007547692,24200,2018-06-13 18:02:20,20,0,23.163,5004.8260226872,183.398956,0.223694,1.09352365704,0,0,-0.671082,303.3, -0.9, -1.5,0,0,1024,1024,1024,1024,302.8,-89.9,96,3.849,3.891,3.874,3.87,3.874,3.867,21.1,78.8,14,Waypoint,
36.9937786,-119.1734752,5006.7945266872,185.36746,0,0.59433400852,24400,2018-06-13 18:02:20,20,0,23.163,5006.7945266872,185.36746,0.223694,1.09352365704,0,0,-0.671082,303.4, -0.4, -1.8,0,0,1024,1024,1024,1024,302.8,-89.9,96,3.849,3.891,3.874,3.87,3.874,3.867,21.1,78.8,14,Waypoint,
36.9937788,-119.1734751,5009.7472826872,188.320216,0,0.66045605788,24600,2018-06-13 18:02:20,20,0,23.163,5009.7472826872,188.320216,0.223694,1.09352365704,0,0,-0.671082,303.8, -0.3, -2.2,0,0,1024,1024,1024,1024,302.8,-89.9,96,3.849,3.891,3.874,3.87,3.874,3.867,21.1,78.8,14,Waypoint,
36.9937788,-119.173475,5010.7315346872,189.304468,0,0.68382876204,24800,2018-06-13 18:02:20,20,0,23.163,5010.7315346872,189.304468,0.223694,1.09352365704,0,0,-0.671082,303.8, -0.3, -2.2,0,0,1024,1024,1024,1024,302.8,-89.9,96,3.849,3.891,3.874,3.87,3.874,3.867,21.1,78.8,14,Waypoint,
36.9937788,-119.173475,5011.3877026872,189.960636,0,0.68382876204,24900,2018-06-13 18:02:20,20,0,23.163,5011.3877026872,189.960636,0.223694,1.09352365704,0,0,-0.671082,303.8, -0.3, -2.1,0,0,1024,1024,1024,1024,302.8,-89.9,96,3.849,3.891,3.874,3.87,3.874,3.867,21.1,78.8,14,Waypoint,
36.9937789,-119.173475,5012.3719546872,190.944888,0,0.70585960264,25000,2018-06-13 18:02:21,20,0,23.233,5012.3719546872,190.944888,0.223694,1.09352365704,0,0,-0.671082,303.8, -0.3, -2,0,0,1024,1024,1024,1024,302.8,-89.9,95,3.841,3.891,3.879,3.873,3.87,3.88,19.877,78.8,14,Waypoint,
36.9937789,-119.173475,5013.3562066872,191.92914,0,0.70585960264,25100,2018-06-13 18:02:21,20,0,23.233,5013.3562066872,191.92914,0.223694,1.09352365704,0,0,-0.671082,303.8, -0.4, -2.2,0,0,1024,1024,1024,1024,302.8,-89.9,95,3.841,3.891,3.879,3.873,3.87,3.88,19.877,78.8,14,Waypoint,
36.9937789,-119.173475,5014.3404586872,192.913392,0,0.70585960264,25200,2018-06-13 18:02:21,20,0,23.233,5014.3404586872,192.913392,0.223694,1.09352365704,0,0,-0.671082,303.9, -0.4, -2.2,0,0,1024,1024,1024,1024,302.8,-89.9,95,3.841,3.891,3.879,3.873,3.87,3.88,19.877,78.8,14,Waypoint,
36.9937789,-119.173475,5014.9966266872,193.56956,0,0.70585960264,25300,2018-06-13 18:02:21,20,0,23.233,5014.9966266872,193.56956,0.223694,1.09352365704,0,0,-0.671082,303.9, -0.4, -2,0,0,1024,1024,1024,1024,302.8,-89.9,95,3.841,3.891,3.879,3.873,3.87,3.88,19.877,78.8,14,Waypoint,
36.9937789,-119.173475,5015.9808786872,194.553812,0,0.70585960264,25400,2018-06-13 18:02:21,20,0,23.233,5015.9808786872,194.553812,0.223694,1.09352365704,0,0,-0.671082,303.8, -0.3, -2,0,0,1024,1024,1024,1024,302.8,-89.9,95,3.841,3.891,3.879,3.873,3.87,3.88,19.877,78.8,14,Waypoint,
36.9937789,-119.173475,5016.9651306872,195.538064,0,0.70585960264,25500,2018-06-13 18:02:21,20,0,23.233,5016.9651306872,195.538064,0.223694,1.09352365704,0,0,-0.671082,303.8, -0.4, -2.1,0,0,1024,1024,1024,1024,302.8,-89.9,95,3.841,3.891,3.879,3.873,3.87,3.88,19.877,78.8,14,Waypoint,
36.9937789,-119.1734751,5017.9493826872,196.522316,0,0.68324149168,25600,2018-06-13 18:02:21,20,0,23.233,5017.9493826872,196.522316,0.223694,1.09352365704,0,0,-0.671082,303.7, -0.2, -1.9,0,0,1024,1024,1024,1024,302.8,-89.9,95,3.841,3.891,3.879,3.873,3.87,3.88,19.877,78.8,14,Waypoint,
36.9937789,-119.1734751,5018.9336346872,197.506568,0,0.68324149168,25700,2018-06-13 18:02:21,20,0,23.233,5018.9336346872,197.506568,0.223694,1.09352365704,0,0,-0.671082,303.6, -0.1, -1.8,0,0,1024,1024,1024,1024,302.8,-89.9,95,3.841,3.891,3.879,3.873,3.87,3.88,19.877,78.8,14,Waypoint,
36.9937789,-119.1734752,5019.9178866872,198.49082,0,0.66113191092,25800,2018-06-13 18:02:21,20,0,23.233,5019.9178866872,198.49082,0.223694,1.09352365704,0,0,-0.671082,303.5, -0.1, -1.7,0,0,1024,1024,1024,1024,302.8,-89.9,95,3.841,3.891,3.879,3.873,3.87,3.88,19.877,78.8,14,Waypoint,
