Latitude, Longitude, Altitude (m), Time, Sats, Speed (m/s), Range (m), Battery (%), Roll (deg), Pitch (deg), Yaw (deg), Images, HD Signal (%), RC Signal (%), Battery Temp (C), Battery Voltage (mV), Battery Current (mA), Battery Energy (mAh), Battery Capacity (mAh), Battery Discharges, flyState, timestamp (Unix), LastUpdate (ms), radioChannel, Rc_elevator, Rc_aileron, Rc_throttle, Rc_rudder, Rc_gyro, Dronetype, Battery_Cell1 (mV), Battery_Cell2 (mV), Battery_Cell3 (mV), Battery_Cell4 (mV), Battery_Cell5 (mV), Battery_Cell6 (mV), Video, isFlying, elapsedTime (ms), gimbalPitch (deg), gimbalRoll (deg), gimbalYaw (deg), VelocityX (m/s), VelocityY (m/s), VelocityZ (m/s), GroundSmear (cm), App Version, Aircraft Name, Aircraft Firmware, Aircraft Serial Number, Battery Serial Number, Battery Lifetime (%), App_Tip, App_Warning, CurrentFlightStartingIndex, CurrentFlightLastVisitedWaypoint, PreviousFlightEndingWaypointIndex
36.9937805, -119.1734845, 0.000, 11:51:59.363, 13, 0.10, 0.02, 100, 0.300, 2.300, -141.600, 1366, 100, 100, 25, 25783, -3871, 5453, 5453, 13, 11, 1528915919.363, 28, 0, 1024, 1024, 1024, 1024, 0, 6, 4310, 4307, 4309, 4316, 4308, 4294, 0, 1, 3028, -89.900, 0.000, -143.900, 0.100, 0.000, -0.100, 0.0, MapPilot_2.8.1_04242018, Dendroctonus I, 1.3.1.00, 041DDC1887, 1058171200149, 97, DJI_0363.jpg, Starting Mission from Lat/Long: 36.99378/-119.17348 Camera: Zenmuse X3 - Overlap: 90/90 - Active Connection: No, 51, 51, 51
36.9937805, -119.1734845, 0.000, 11:51:59.435, 13, 0.10, 0.02, 100, 0.300, 2.300, -141.600, 1366, 100, 100, 25, 25783, -3871, 5453, 5453, 13, 11, 1528915919.436, 100, 0, 1024, 1024, 1024, 1024, 0, 6, 4310, 4307, 4309, 4316, 4308, 4294, 0, 1, 3101, -89.900, 0.000, -143.900, 0.100, 0.000, -0.100, 0.0, , , , , , 97, , , 51, 51, 51
36.9937807, -119.1734845, 0.000, 11:51:59.536, 13, 0.10, 0.02, 100, 0.000, 1.300, -141.500, 1366, 100, 100, 25, 25783, -3871, 5453, 5453, 13, 11, 1528915919.536, 91, 0, 1024, 1024, 1024, 1024, 0, 6, 4310, 4307, 4309, 4316, 4308, 4294, 0, 1, 3201, -89.900, 0.000, -143.800, 0.100, 0.000, -0.300, 0.0, , , , , , 97, , , 51, 51, 51
36.9937808, -119.1734844, 0.000, 11:51:59.636, 14, 0.10, 0.03, 100, -0.100, 0.300, -141.500, 1366, 100, 100, 25, 25783, -3871, 5453, 5453, 13, 11, 1528915919.636, 94, 0, 1024, 1024, 1024, 1024, 0, 6, 4310, 4307, 4309, 4316, 4308, 4294, 0, 1, 3301, -90.000, 0.000, -143.800, 0.100, 0.000, -0.300, 0.0, , , , , , 97, , , 51, 51, 51
36.9937810, -119.1734843, 0.000, 11:51:59.735, 14, 0.14, 0.05, 100, -0.100, -0.400, -141.500, 1366, 100, 100, 25, 25783, -3871, 5453, 5453, 13, 11, 1528915919.736, 83, 0, 1024, 1024, 1024, 1024, 0, 6, 4310, 4307, 4309, 4316, 4308, 4294, 0, 1, 3401, -90.000, 0.000, -143.700, 0.100, 0.100, -0.400, 0.0, , , , , , 97, , , 51, 51, 51
36.9937811, -119.1734841, 0.000, 11:51:59.836, 14, 0.14, 0.07, 100, 0.000, -1.100, -141.600, 1366, 100, 100, 25, 25783, -3871, 5453, 5453, 13, 11, 1528915919.836, 87, 0, 1024, 1024, 1024, 1024, 0, 6, 4310, 4307, 4309, 4316, 4308, 4294, 0, 1, 3501, -90.000, 0.000, -143.700, 0.100, 0.100, -0.400, 0.0, , , , , , 97, , , 51, 51, 51
36.9937812, -119.1734840, 0.100, 11:51:59.936, 14, 0.14, 0.08, 100, 0.300, -1.600, -141.700, 1366, 100, 100, 25, 25429, -7559, 5453, 5453, 13, 11, 1528915919.936, 76, 0, 1024, 1024, 1024, 1024, 0, 6, 4222, 4172, 4208, 4212, 4213, 4215, 0, 1, 3601, -90.000, 0.000, -143.700, 0.100, 0.100, -0.400, 0.0, , , , , , 97, , , 51, 51, 51
36.9937813, -119.1734838, 0.100, 11:52:00.036, 14, 0.10, 0.09, 100, 0.500, -1.600, -141.800, 1366, 100, 100, 25, 25429, -7559, 5453, 5453, 13, 11, 1528915920.036, 78, 0, 1024, 1024, 1024, 1024, 0, 6, 4222, 4172, 4208, 4212, 4213, 4215, 0, 1, 3701, -90.000, 0.000, -143.600, 0.000, 0.100, -0.400, 0.0, , , , , , 97, , , 51, 51, 51
36.9937814, -119.1734837, 0.200, 11:52:00.136, 14, 0.00, 0.11, 100, 0.500, -1.200, -141.800, 1366, 100, 100, 25, 25429, -7559, 5453, 5453, 13, 11, 1528915920.136, 58, 0, 1024, 1024, 1024, 1024, 0, 6, 4222, 4172, 4208, 4212, 4213, 4215, 0, 1, 3801, -89.900, 0.000, -143.600, 0.000, 0.000, -0.400, 0.0, , , , , , 97, , , 51, 51, 51
36.9937814, -119.1734837, 0.200, 11:52:00.236, 14, 0.00, 0.12, 100, 0.300, -0.800, -141.900, 1366, 100, 100, 25, 25429, -7559, 5453, 5453, 13, 11, 1528915920.236, 60, 0, 1024, 1024, 1024, 1024, 0, 6, 4222, 4172, 4208, 4212, 4213, 4215, 0, 1, 3901, -89.900, 0.000, -143.500, 0.000, 0.000, -0.400, 0.0, , , , , , 97, , , 51, 51, 51
36.9937815, -119.1734837, 0.300, 11:52:00.335, 14, 0.00, 0.12, 100, 0.300, -0.700, -141.900, 1366, 100, 100, 25, 25429, -7559, 5453, 5453, 13, 11, 1528915920.336, 74, 0, 1024, 1024, 1024, 1024, 0, 6, 4222, 4172, 4208, 4212, 4213, 4215, 0, 1, 4001, -89.900, 0.000, -143.500, 0.000, 0.000, -0.400, 0.0, , , , , , 97, , , 51, 51, 51
36.9937815, -119.1734837, 0.300, 11:52:00.436, 13, 0.00, 0.13, 100, 0.500, -0.500, -142.000, 1366, 100, 100, 25, 25429, -7559, 5453, 5453, 13, 11, 1528915920.436, 46, 0, 1024, 1024, 1024, 1024, 0, 6, 4222, 4172, 4208, 4212, 4213, 4215, 0, 1, 4101, -89.900, 0.000, -143.400, 0.000, 0.000, -0.400, 0.0, , , , , , 97, , , 51, 51, 51
36.9937816, -119.1734836, 0.400, 11:52:00.536, 13, 0.00, 0.13, 100, 0.600, -0.400, -142.000, 1366, 100, 100, 25, 25429, -7559, 5453, 5453, 13, 11, 1528915920.536, 58, 0, 1024, 1024, 1024, 1024, 0, 6, 4222, 4172, 4208, 4212, 4213, 4215, 0, 1, 4201, -89.900, 0.000, -143.400, 0.000, 0.000, -0.400, 0.0, , , , , , 97, , , 51, 51, 51
36.9937816, -119.1734835, 0.400, 11:52:00.636, 11, 0.00, 0.14, 100, 0.400, -0.600, -142.000, 1366, 100, 100, 25, 25429, -7559, 5453, 5453, 13, 11, 1528915920.636, 46, 0, 1024, 1024, 1024, 1024, 0, 6, 4222, 4172, 4208, 4212, 4213, 4215, 0, 1, 4301, -89.900, 0.000, -143.400, 0.000, 0.000, -0.400, 0.0, , , , , , 97, , , 51, 51, 51
36.9937816, -119.1734835, 0.500, 11:52:00.736, 11, 0.00, 0.14, 100, 0.400, -0.700, -142.000, 1366, 100, 100, 25, 25429, -7559, 5453, 5453, 13, 11, 1528915920.736, 26, 0, 1024, 1024, 1024, 1024, 0, 6, 4222, 4172, 4208, 4212, 4213, 4215, 0, 1, 4401, -89.900, 0.000, -143.400, 0.000, 0.000, -0.400, 0.0, , , , , , 97, , , 51, 51, 51
36.9937817, -119.1734835, 0.500, 11:52:00.836, 12, 0.00, 0.15, 100, 0.300, -0.800, -142.000, 1366, 100, 100, 25, 25429, -7559, 5453, 5453, 13, 11, 1528915920.836, 41, 0, 1024, 1024, 1024, 1024, 0, 6, 4222, 4172, 4208, 4212, 4213, 4215, 0, 1, 4501, -90.000, 0.000, -143.300, 0.000, 0.000, -0.400, 0.0, , , , , , 97, , , 51, 51, 51
36.9937817, -119.1734834, 0.600, 11:52:00.936, 12, 0.00, 0.16, 100, 0.300, -0.900, -141.900, 1366, 100, 100, 25, 24743, -16099, 5453, 5453, 13, 11, 1528915920.936, 44, 0, 1024, 1024, 1024, 1024, 0, 6, 4099, 4087, 4134, 4117, 4135, 4117, 0, 1, 4601, -89.900, 0.000, -143.300, 0.000, 0.000, -0.400, 0.0, , , , , , 97, , , 51, 51, 51
36.9937817, -119.1734832, 0.700, 11:52:01.036, 13, 0.00, 0.17, 100, 0.400, -0.900, -141.700, 1366, 100, 100, 25, 24743, -16099, 5453, 5453, 13, 11, 1528915921.036, 43, 0, 1024, 1024, 1024, 1024, 0, 6, 4099, 4087, 4134, 4117, 4135, 4117, 0, 1, 4701, -89.900, 0.000, -143.300, 0.000, 0.000, -0.500, 0.0, , , , , , 97, , , 51, 51, 51
36.9937817, -119.1734831, 0.700, 11:52:01.136, 14, 0.00, 0.17, 100, 0.500, -0.900, -141.600, 1366, 100, 100, 25, 24743, -16099, 5453, 5453, 13, 11, 1528915921.136, 22, 0, 1024, 1024, 1024, 1024, 0, 6, 4099, 4087, 4134, 4117, 4135, 4117, 0, 1, 4801, -89.900, 0.000, -143.300, 0.000, 0.000, -0.500, 0.0, , , , , , 97, , , 51, 51, 51
36.9937817, -119.1734831, 0.800, 11:52:01.236, 14, 0.00, 0.18, 100, 0.500, -0.900, -141.600, 1366, 100, 100, 25, 24743, -16099, 5453, 5453, 13, 11, 1528915921.236, 21, 0, 1024, 1024, 1024, 1024, 0, 6, 4099, 4087, 4134, 4117, 4135, 4117, 0, 1, 4901, -89.900, 0.000, -143.200, 0.000, 0.000, -0.500, 0.0, , , , , , 97, , , 51, 51, 51
36.9937817, -119.1734830, 0.800, 11:52:01.336, 12, 0.00, 0.18, 100, 0.500, -0.800, -141.600, 1366, 100, 100, 25, 24743, -16099, 5453, 5453, 13, 11, 1528915921.336, 13, 0, 1024, 1024, 1024, 1024, 0, 6, 4099, 4087, 4134, 4117, 4135, 4117, 0, 1, 5001, -89.900, 0.000, -143.200, 0.000, 0.000, -0.500, 0.0, , , , , , 97, , , 51, 51, 51
36.9937817, -119.1734829, 0.900, 11:52:01.435, 12, 0.00, 0.18, 100, 0.600, -0.800, -141.700, 1366, 100, 100, 25, 24743, -16099, 5453, 5453, 13, 14, 1528915921.436, 5, 0, 1024, 1024, 1024, 1024, 0, 6, 4099, 4087, 4134, 4117, 4135, 4117, 0, 1, 5101, -89.900, 0.000, -143.200, 0.000, 0.000, -0.500, 0.0, , , , , , 97, , , 51, 51, 51
36.9937817, -119.1734829, 0.900, 11:52:01.536, 12, 0.00, 0.18, 100, 0.600, -0.800, -141.700, 1366, 100, 100, 25, 24743, -16099, 5453, 5453, 13, 14, 1528915921.536, 106, 0, 1024, 1024, 1024, 1024, 0, 6, 4099, 4087, 4134, 4117, 4135, 4117, 0, 1, 5201, -89.900, 0.000, -143.200, 0.000, 0.000, -0.500, 0.0, , , , , , 97, , , 51, 51, 51
36.9937816, -119.1734828, 1.000, 11:52:01.638, 13, 0.00, 0.19, 100, 0.700, -0.500, -141.600, 1366, 100, 100, 25, 24743, -16099, 5453, 5453, 13, 14, 1528915921.639, 2, 0, 1024, 1024, 1024, 1024, 0, 6, 4099, 4087, 4134, 4117, 4135, 4117, 0, 1, 5304, -89.900, 0.000, -143.100, 0.000, 0.000, -0.300, 0.0, , , , , , 97, , , 51, 51, 51
36.9937816, -119.1734828, 1.000, 11:52:01.736, 13, 0.00, 0.19, 100, 0.700, -0.500, -141.600, 1366, 100, 100, 25, 24743, -16099, 5453, 5453, 13, 14, 1528915921.736, 99, 0, 1024, 1024, 1024, 1024, 0, 6, 4099, 4087, 4134, 4117, 4135, 4117, 0, 1, 5401, -89.900, 0.000, -143.100, 0.000, 0.000, -0.300, 0.0, , , , , , 97, , , 51, 51, 51
36.9937816, -119.1734827, 1.000, 11:52:01.836, 13, 0.00, 0.19, 100, 1.000, -0.200, -141.500, 1366, 100, 100, 25, 24743, -16099, 5453, 5453, 13, 14, 1528915921.836, 94, 0, 1024, 1024, 1024, 1024, 0, 6, 4099, 4087, 4134, 4117, 4135, 4117, 0, 1, 5501, -89.900, 0.000, -143.100, 0.000, 0.000, -0.200, 0.0, , , , , , 97, , , 51, 51, 51
36.9937815, -119.1734823, 1.100, 11:52:01.940, 13, 0.00, 0.21, 100, 1.200, -0.200, -141.600, 1366, 100, 100, 25, 24549, -16868, 5453, 5453, 13, 14, 1528915921.941, 4, 0, 1024, 1024, 1024, 1024, 0, 6, 4072, 4071, 4101, 4089, 4102, 4092, 0, 1, 5606, -89.900, 0.000, -143.100, 0.000, 0.000, -0.400, 0.0, , , , , , 97, , , 51, 51, 51
36.9937815, -119.1734823, 1.100, 11:52:02.036, 13, 0.00, 0.21, 100, 1.200, -0.200, -141.600, 1366, 100, 100, 25, 24549, -16868, 5453, 5453, 13, 14, 1528915922.036, 99, 0, 1024, 1024, 1024, 1024, 0, 6, 4072, 4071, 4101, 4089, 4102, 4092, 0, 1, 5701, -89.900, 0.000, -143.100, 0.000, 0.000, -0.400, 0.0, , , , , , 97, , , 51, 51, 51
36.9937814, -119.1734822, 1.100, 11:52:02.136, 13, 0.00, 0.21, 100, 1.300, -0.400, -141.800, 1366, 100, 100, 25, 24549, -16868, 5453, 5453, 13, 14, 1528915922.136, 88, 0, 1024, 1024, 1024, 1024, 0, 6, 4072, 4071, 4101, 4089, 4102, 4092, 0, 1, 5801, -89.900, 0.000, -143.100, 0.000, 0.000, -0.500, 0.0, , , , , , 97, , , 51, 51, 51
36.9937814, -119.1734822, 1.200, 11:52:02.236, 13, 0.00, 0.22, 100, 1.200, -0.600, -141.900, 1366, 100, 100, 25, 24549, -16868, 5453, 5453, 13, 14, 1528915922.236, 87, 0, 1024, 1024, 1024, 1024, 0, 6, 4072, 4071, 4101, 4089, 4102, 4092, 0, 1, 5901, -90.000, 0.000, -143.000, 0.000, 0.000, -0.600, 0.0, , , , , , 97, , , 51, 51, 51
36.9937814, -119.1734820, 1.300, 11:52:02.335, 13, 0.00, 0.23, 100, 1.000, -0.700, -142.100, 1366, 100, 100, 25, 24549, -16868, 5453, 5453, 13, 14, 1528915922.336, 67, 0, 1024, 1024, 1024, 1024, 0, 6, 4072, 4071, 4101, 4089, 4102, 4092, 0, 1, 6001, -90.000, 0.000, -143.000, 0.000, 0.000, -0.900, 0.0, , , , , , 97, , , 51, 51, 51
36.9937814, -119.1734819, 1.400, 11:52:02.436, 14, 0.00, 0.24, 100, 1.100, -0.900, -142.200, 1366, 100, 100, 25, 24549, -16868, 5453, 5453, 13, 14, 1528915922.436, 47, 0, 1024, 1024, 1024, 1024, 0, 6, 4072, 4071, 4101, 4089, 4102, 4092, 0, 1, 6101, -90.000, 0.000, -143.000, 0.000, 0.000, -1.100, 0.0, , , , , , 97, , , 51, 51, 51
36.9937813, -119.1734818, 1.500, 11:52:02.536, 14, 0.00, 0.25, 100, 1.200, -1.200, -142.300, 1366, 100, 100, 25, 24549, -16868, 5453, 5453, 13, 14, 1528915922.536, 48, 0, 1024, 1024, 1024, 1024, 0, 6, 4072, 4071, 4101, 4089, 4102, 4092, 0, 1, 6201, -90.000, 0.000, -143.000, 0.000, 0.000, -1.300, 0.0, , , , , , 97, , , 51, 51, 51
36.9937813, -119.1734817, 1.600, 11:52:02.636, 14, 0.00, 0.25, 100, 1.300, -1.200, -142.300, 1366, 100, 100, 25, 24549, -16868, 5453, 5453, 13, 14, 1528915922.636, 63, 0, 1024, 1024, 1024, 1024, 0, 6, 4072, 4071, 4101, 4089, 4102, 4092, 0, 1, 6301, -90.000, 0.000, -143.000, 0.000, 0.000, -1.500, 0.0, , , , , , 97, , , 51, 51, 51
36.9937813, -119.1734816, 1.800, 11:52:02.736, 14, 0.00, 0.26, 100, 1.400, -1.000, -142.300, 1366, 100, 100, 25, 24549, -16868, 5453, 5453, 13, 14, 1528915922.736, 55, 0, 1024, 1024, 1024, 1024, 0, 6, 4072, 4071, 4101, 4089, 4102, 4092, 0, 1, 6401, -90.000, 0.000, -143.000, 0.000, 0.000, -1.600, 0.0, , , , , , 97, , , 51, 51, 51
36.9937814, -119.1734815, 2.000, 11:52:02.836, 13, 0.00, 0.27, 100, 1.400, -0.900, -142.300, 1366, 100, 100, 25, 24549, -16868, 5453, 5453, 13, 14, 1528915922.836, 42, 0, 1024, 1024, 1024, 1024, 0, 6, 4072, 4071, 4101, 4089, 4102, 4092, 0, 1, 6501, -89.900, 0.000, -143.000, 0.000, 0.000, -1.900, 0.0, , , , , , 97, , , 51, 51, 51
36.9937813, -119.1734814, 2.200, 11:52:02.936, 13, 0.00, 0.28, 100, 1.300, -0.900, -142.400, 1366, 100, 100, 25, 24541, -16457, 5453, 5453, 13, 14, 1528915922.936, 47, 0, 1024, 1024, 1024, 1024, 0, 6, 4072, 4071, 4101, 4089, 4102, 4092, 0, 1, 6601, -89.900, 0.000, -143.000, 0.000, 0.000, -2.200, 0.0, , , , , , 97, , , 51, 51, 51
36.9937813, -119.1734813, 2.400, 11:52:03.036, 13, 0.00, 0.28, 100, 1.400, -0.900, -142.400, 1366, 100, 100, 25, 24541, -16457, 5453, 5453, 13, 14, 1528915923.036, 43, 0, 1024, 1024, 1024, 1024, 0, 6, 4072, 4071, 4101, 4089, 4102, 4092, 0, 1, 6701, -89.900, 0.000, -143.000, 0.000, 0.000, -2.500, 0.0, , , , , , 97, , , 51, 51, 51
36.9937812, -119.1734814, 3.000, 11:52:03.136, 14, 0.00, 0.27, 100, 1.400, -0.400, -142.100, 1366, 100, 100, 25, 24541, -16457, 5453, 5453, 13, 14, 1528915923.136, 44, 0, 1024, 1024, 1024, 1024, 0, 6, 4072, 4071, 4101, 4089, 4102, 4092, 0, 1, 6801, -89.900, 0.000, -143.000, 0.000, 0.000, -2.800, 0.0, , , , , , 97, , , 51, 51, 51
36.9937814, -119.1734815, 3.300, 11:52:03.236, 14, 0.00, 0.27, 100, 1.000, -0.300, -142.000, 1366, 100, 100, 25, 24541, -16457, 5453, 5453, 13, 14, 1528915923.236, 12, 0, 1024, 1024, 1024, 1024, 0, 6, 4072, 4071, 4101, 4089, 4102, 4092, 0, 1, 6901, -89.900, 0.000, -143.000, 0.000, 0.000, -3.100, 0.0, , , , , , 97, , , 51, 51, 51
36.9937816, -119.1734816, 3.600, 11:52:03.337, 13, 0.00, 0.27, 100, 0.500, -0.600, -141.900, 1366, 100, 100, 25, 24541, -16457, 5453, 5453, 13, 14, 1528915923.337, 6, 0, 1024, 1024, 1024, 1024, 0, 6, 4072, 4071, 4101, 4089, 4102, 4092, 0, 1, 7003, -89.900, 0.000, -143.000, 0.000, 0.000, -3.100, 0.0, , , , , , 97, , , 51, 51, 51
36.9937817, -119.1734819, 3.900, 11:52:03.436, 13, 0.00, 0.25, 100, 0.000, -0.900, -141.900, 1366, 100, 100, 25, 24541, -16457, 5453, 5453, 13, 14, 1528915923.436, 8, 0, 1024, 1024, 1024, 1024, 0, 6, 4040, 4049, 4069, 4067, 4069, 4086, 0, 1, 7101, -89.900, 0.000, -143.000, 0.000, 0.000, -3.200, 0.0, , , , , , 97, , , 51, 51, 51
36.9937817, -119.1734819, 3.900, 11:52:03.536, 13, 0.00, 0.25, 100, 0.000, -0.900, -141.900, 1366, 100, 100, 25, 24541, -16457, 5453, 5453, 13, 14, 1528915923.536, 108, 0, 1024, 1024, 1024, 1024, 0, 6, 4040, 4049, 4069, 4067, 4069, 4086, 0, 1, 7201, -89.900, 0.000, -143.000, 0.000, 0.000, -3.200, 0.0, , , , , , 97, , , 51, 51, 51
36.9937820, -119.1734822, 4.600, 11:52:03.636, 13, 0.00, 0.25, 100, -0.600, -0.900, -141.800, 1366, 100, 100, 25, 24541, -16457, 5453, 5453, 13, 14, 1528915923.636, 5, 0, 1024, 1024, 1024, 1024, 0, 6, 4040, 4049, 4069, 4067, 4069, 4086, 0, 1, 7301, -89.900, 0.000, -143.000, 0.000, 0.000, -3.200, 0.0, , , , , , 97, , , 51, 51, 51
36.9937820, -119.1734822, 4.600, 11:52:03.736, 13, 0.00, 0.25, 100, -0.600, -0.900, -141.800, 1366, 100, 100, 25, 24541, -16457, 5453, 5453, 13, 14, 1528915923.736, 105, 0, 1024, 1024, 1024, 1024, 0, 6, 4040, 4049, 4069, 4067, 4069, 4086, 0, 1, 7401, -89.900, 0.000, -143.000, 0.000, 0.000, -3.200, 0.0, , , , , , 97, , , 51, 51, 51
36.9937822, -119.1734822, 4.900, 11:52:03.836, 12, 0.00, 0.26, 100, -0.800, -0.800, -141.800, 1366, 100, 100, 25, 24541, -16457, 5453, 5453, 13, 14, 1528915923.836, 87, 0, 1024, 1024, 1024, 1024, 0, 6, 4040, 4049, 4069, 4067, 4069, 4086, 0, 1, 7501, -89.900, 0.000, -143.000, 0.000, 0.000, -3.200, 0.0, , , , , , 97, , , 51, 51, 51
36.9937821, -119.1734823, 5.300, 11:52:03.936, 12, 0.00, 0.26, 100, -0.700, -0.900, -141.800, 1366, 100, 100, 25, 24541, -16457, 5453, 5453, 13, 14, 1528915923.936, 71, 0, 1024, 1024, 1024, 1024, 0, 6, 4040, 4049, 4069, 4067, 4069, 4086, 0, 1, 7601, -89.900, 0.000, -143.000, 0.000, 0.000, -3.300, 0.0, , , , , , 97, , , 51, 51, 51
36.9937821, -119.1734823, 5.600, 11:52:04.036, 14, 0.00, 0.26, 100, -0.500, -0.900, -141.800, 1366, 100, 100, 25, 24541, -16457, 5453, 5453, 13, 14, 1528915924.037, 72, 0, 1024, 1024, 1024, 1024, 0, 6, 4040, 4049, 4069, 4067, 4069, 4086, 0, 1, 7702, -89.900, 0.000, -143.000, 0.000, 0.000, -3.300, 0.0, , , , , , 97, , , 51, 51, 51
36.9937821, -119.1734822, 5.900, 11:52:04.136, 14, 0.00, 0.26, 100, 0.000, -0.700, -141.800, 1366, 100, 100, 25, 24541, -16457, 5453, 5453, 13, 14, 1528915924.137, 77, 0, 1024, 1024, 1024, 1024, 0, 6, 4040, 4049, 4069, 4067, 4069, 4086, 0, 1, 7802, -89.900, 0.000, -143.000, 0.000, 0.000, -3.200, 0.0, , , , , , 97, , , 51, 51, 51
36.9937820, -119.1734821, 6.300, 11:52:04.236, 14, 0.00, 0.26, 100, 0.300, -0.600, -141.800, 1366, 100, 100, 25, 24541, -16457, 5453, 5453, 13, 14, 1528915924.236, 79, 0, 1024, 1024, 1024, 1024, 0, 6, 4040, 4049, 4069, 4067, 4069, 4086, 0, 1, 7901, -89.900, 0.000, -143.000, 0.000, 0.000, -3.300, 0.0, , , , , , 97, , , 51, 51, 51
36.9937818, -119.1734820, 6.600, 11:52:04.336, 14, 0.00, 0.26, 100, 0.700, -0.600, -141.800, 1366, 100, 100, 25, 24541, -16457, 5453, 5453, 13, 14, 1528915924.336, 69, 0, 1024, 1024, 1024, 1024, 0, 6, 4040, 4049, 4069, 4067, 4069, 4086, 0, 1, 8001, -89.900, 0.000, -143.000, 0.000, 0.000, -3.200, 0.0, , , , , , 97, , , 51, 51, 51
36.9937816, -119.1734818, 7.000, 11:52:04.436, 13, 0.00, 0.26, 100, 1.300, -0.400, -141.900, 1366, 100, 100, 25, 23881, -23584, 5453, 5453, 13, 14, 1528915924.436, 62, 0, 1024, 1024, 1024, 1024, 0, 6, 3943, 3959, 3992, 3994, 3996, 3979, 0, 1, 8101, -89.900, 0.000, -143.000, 0.000, 0.000, -3.200, 0.0, , , , , , 97, , , 51, 51, 51
36.9937815, -119.1734816, 7.300, 11:52:04.536, 13, 0.00, 0.26, 100, 1.700, -0.100, -141.900, 1366, 100, 100, 25, 23881, -23584, 5453, 5453, 13, 14, 1528915924.536, 66, 0, 1024, 1024, 1024, 1024, 0, 6, 3943, 3959, 3992, 3994, 3996, 3979, 0, 1, 8201, -89.900, 0.000, -143.000, 0.000, 0.000, -3.200, 0.0, , , , , , 97, , , 51, 51, 51
36.9937813, -119.1734815, 7.600, 11:52:04.636, 13, 0.00, 0.27, 100, 1.800, -0.100, -142.000, 1366, 100, 100, 25, 23881, -23584, 5453, 5453, 13, 14, 1528915924.636, 68, 0, 1024, 1024, 1024, 1024, 0, 6, 3943, 3959, 3992, 3994, 3996, 3979, 0, 1, 8301, -89.900, 0.000, -143.000, 0.000, 0.000, -3.200, 0.0, , , , , , 97, , , 51, 51, 51
36.9937811, -119.1734813, 8.000, 11:52:04.736, 13, 0.00, 0.27, 100, 1.900, -0.400, -142.100, 1366, 100, 100, 25, 23881, -23584, 5453, 5453, 13, 14, 1528915924.736, 68, 0, 1024, 1024, 1024, 1024, 0, 6, 3943, 3959, 3992, 3994, 3996, 3979, 0, 1, 8401, -89.900, 0.000, -143.000, 0.000, 0.000, -3.200, 0.0, , , , , , 97, , , 51, 51, 51
36.9937808, -119.1734812, 8.300, 11:52:04.836, 13, 0.00, 0.28, 100, 2.100, -0.400, -142.300, 1366, 100, 100, 25, 23881, -23584, 5453, 5453, 13, 14, 1528915924.836, 45, 0, 1024, 1024, 1024, 1024, 0, 6, 3943, 3959, 3992, 3994, 3996, 3979, 0, 1, 8501, -89.900, 0.000, -143.000, 0.000, 0.000, -3.200, 0.0, , , , , , 97, , , 51, 51, 51
36.9937806, -119.1734811, 8.700, 11:52:04.936, 13, 0.00, 0.29, 100, 2.500, 0.000, -142.500, 1366, 100, 100, 25, 23881, -23584, 5453, 5453, 13, 14, 1528915924.936, 22, 0, 1024, 1024, 1024, 1024, 0, 6, 3943, 3959, 3992, 3994, 3996, 3979, 0, 1, 8601, -89.900, 0.000, -143.000, 0.000, 0.000, -3.100, 0.0, , , , , , 97, , , 51, 51, 51
36.9937805, -119.1734810, 9.000, 11:52:05.036, 13, 0.00, 0.30, 100, 2.500, 0.100, -142.500, 1366, 100, 99, 25, 23881, -23584, 5453, 5453, 13, 14, 1528915925.036, 37, 0, 1024, 1024, 1024, 1024, 0, 6, 3943, 3959, 3992, 3994, 3996, 3979, 0, 1, 8701, -89.900, 0.000, -143.000, 0.000, 0.000, -3.000, 0.0, , , , , , 97, , , 51, 51, 51
36.9937803, -119.1734810, 9.300, 11:52:05.136, 13, 0.00, 0.30, 100, 2.500, 0.300, -142.400, 1366, 100, 99, 25, 23881, -23584, 5453, 5453, 13, 14, 1528915925.136, 28, 0, 1024, 1024, 1024, 1024, 0, 6, 3943, 3959, 3992, 3994, 3996, 3979, 0, 1, 8801, -89.900, 0.000, -143.000, 0.000, 0.000, -3.000, 0.0, , , , , , 97, , , 51, 51, 51
36.9937800, -119.1734808, 10.000, 11:52:05.236, 13, 0.00, 0.32, 100, 2.800, 0.300, -142.000, 1366, 100, 99, 25, 23881, -23584, 5453, 5453, 13, 14, 1528915925.236, 43, 0, 1024, 1024, 1024, 1024, 0, 6, 3943, 3959, 3992, 3994, 3996, 3979, 0, 1, 8901, -89.900, 0.000, -143.000, 0.000, 0.000, -3.000, 0.0, , , , , , 97, , , 51, 51, 51
36.9937798, -119.1734807, 10.300, 11:52:05.336, 15, 0.00, 0.33, 100, 2.900, 0.300, -141.900, 1366, 100, 99, 25, 23881, -23584, 5453, 5453, 13, 14, 1528915925.336, 37, 0, 1024, 1024, 1024, 1024, 0, 6, 3943, 3959, 3992, 3994, 3996, 3979, 0, 1, 9001, -89.900, 0.000, -143.000, 0.000, 0.000, -2.900, 0.0, , , , , , 97, , , 51, 51, 51
36.9937797, -119.1734806, 10.600, 11:52:05.436, 15, 0.00, 0.35, 100, 2.900, 0.400, -141.800, 1366, 100, 99, 25, 24165, -20422, 5453, 5453, 13, 14, 1528915925.436, 36, 0, 1024, 1024, 1024, 1024, 0, 6, 4009, 4010, 4044, 4029, 4054, 4028, 0, 1, 9101, -89.900, 0.000, -143.000, 0.000, 0.000, -2.900, 0.0, , , , , , 97, , , 51, 51, 51
36.9937796, -119.1734805, 10.900, 11:52:05.536, 15, 0.00, 0.36, 100, 2.900, 0.400, -141.700, 1366, 100, 99, 25, 24165, -20422, 5453, 5453, 13, 14, 1528915925.536, 37, 0, 1024, 1024, 1024, 1024, 0, 6, 4009, 4010, 4044, 4029, 4054, 4028, 0, 1, 9201, -89.900, 0.000, -143.000, 0.000, 0.000, -2.900, 0.0, , , , , , 97, , , 51, 51, 51
36.9937794, -119.1734805, 11.200, 11:52:05.636, 15, 0.00, 0.37, 100, 2.900, 0.500, -141.600, 1366, 100, 99, 25, 24165, -20422, 5453, 5453, 13, 14, 1528915925.636, 25, 0, 1024, 1024, 1024, 1024, 0, 6, 4009, 4010, 4044, 4029, 4054, 4028, 0, 1, 9301, -89.900, 0.000, -143.000, 0.000, 0.000, -2.900, 0.0, , , , , , 97, , , 51, 51, 51
36.9937793, -119.1734804, 11.500, 11:52:05.736, 15, 0.00, 0.37, 100, 3.000, 0.600, -141.600, 1366, 100, 99, 25, 24165, -20422, 5453, 5453, 13, 14, 1528915925.736, 6, 0, 1024, 1024, 1024, 1024, 0, 6, 4009, 4010, 4044, 4029, 4054, 4028, 0, 1, 9401, -89.900, 0.000, -143.000, 0.000, 0.000, -2.900, 0.0, , , , , , 97, , , 51, 51, 51
36.9937792, -119.1734804, 11.800, 11:52:05.836, 15, 0.00, 0.38, 100, 2.900, 0.600, -141.700, 1366, 100, 99, 25, 24165, -20422, 5453, 5453, 13, 14, 1528915925.836, 6, 0, 1024, 1024, 1024, 1024, 0, 6, 4009, 4010, 4044, 4029, 4054, 4028, 0, 1, 9501, -89.900, 0.000, -143.000, 0.000, 0.000, -2.900, 0.0, , , , , , 97, , , 51, 51, 51
36.9937791, -119.1734804, 12.100, 11:52:05.936, 15, 0.00, 0.39, 100, 2.800, 0.700, -141.700, 1366, 100, 98, 25, 24165, -20422, 5453, 5453, 13, 14, 1528915925.936, 9, 0, 1024, 1024, 1024, 1024, 0, 6, 4009, 4010, 4044, 4029, 4054, 4028, 0, 1, 9601, -89.900, 0.000, -143.000, 0.000, 0.000, -2.900, 0.0, , , , , , 97, , , 51, 51, 51
36.9937791, -119.1734804, 12.100, 11:52:06.036, 15, 0.00, 0.39, 100, 2.800, 0.700, -141.700, 1366, 100, 98, 25, 24165, -20422, 5453, 5453, 13, 14, 1528915926.036, 109, 0, 1024, 1024, 1024, 1024, 0, 6, 4009, 4010, 4044, 4029, 4054, 4028, 0, 1, 9701, -89.900, 0.000, -143.000, 0.000, 0.000, -2.900, 0.0, , , , , , 97, , , 51, 51, 51
36.9937791, -119.1734804, 12.700, 11:52:06.137, 15, 0.00, 0.38, 100, 2.500, 0.700, -141.800, 1366, 100, 98, 25, 24165, -20422, 5453, 5453, 13, 14, 1528915926.137, 2, 0, 1024, 1024, 1024, 1024, 0, 6, 4009, 4010, 4044, 4029, 4054, 4028, 0, 1, 9802, -89.900, 0.000, -143.000, 0.000, 0.000, -2.900, 0.0, , , , , , 97, , , 51, 51, 51
36.9937791, -119.1734804, 13.000, 11:52:06.239, 15, 0.10, 0.38, 100, 2.300, 0.600, -141.800, 1366, 100, 98, 25, 24165, -20422, 5453, 5453, 13, 14, 1528915926.239, 3, 0, 1024, 1024, 1024, 1024, 0, 6, 4009, 4010, 4044, 4029, 4054, 4028, 0, 1, 9905, -89.900, 0.000, -143.000, 0.100, 0.000, -2.900, 0.0, , , , , , 97, , , 51, 51, 51
36.9937791, -119.1734804, 13.000, 11:52:06.336, 15, 0.10, 0.38, 100, 2.300, 0.600, -141.800, 1366, 100, 98, 25, 24165, -20422, 5453, 5453, 13, 14, 1528915926.336, 99, 0, 1024, 1024, 1024, 1024, 0, 6, 4009, 4010, 4044, 4029, 4054, 4028, 0, 1, 10001, -89.900, 0.000, -143.000, 0.100, 0.000, -2.900, 0.0, , , , , , 97, , , 51, 51, 51
36.9937792, -119.1734805, 13.300, 11:52:06.436, 15, 0.10, 0.38, 100, 2.000, 0.400, -141.900, 1366, 100, 98, 25, 24232, -17974, 5453, 5453, 13, 14, 1528915926.436, 69, 0, 1024, 1024, 1024, 1024, 0, 6, 4014, 4017, 4051, 4040, 4051, 4038, 0, 1, 10101, -89.900, 0.000, -143.000, 0.100, 0.000, -2.900, 0.0, , , , , , 97, , , 51, 51, 51
36.9937792, -119.1734805, 13.600, 11:52:06.536, 15, 0.10, 0.37, 100, 1.800, 0.100, -141.900, 1366, 100, 98, 25, 24232, -17974, 5453, 5453, 13, 14, 1528915926.536, 62, 0, 1024, 1024, 1024, 1024, 0, 6, 4014, 4017, 4051, 4040, 4051, 4038, 0, 1, 10201, -89.900, 0.000, -143.000, 0.100, 0.000, -2.900, 0.0, , , , , , 97, , , 51, 51, 51
36.9937793, -119.1734805, 14.000, 11:52:06.636, 14, 0.10, 0.36, 100, 1.600, -0.100, -141.900, 1366, 100, 98, 25, 24232, -17974, 5453, 5453, 13, 14, 1528915926.636, 87, 0, 1024, 1024, 1024, 1024, 0, 6, 4014, 4017, 4051, 4040, 4051, 4038, 0, 1, 10301, -89.900, 0.000, -143.000, 0.100, 0.000, -2.900, 0.0, , , , , , 97, , , 51, 51, 51
36.9937794, -119.1734806, 14.300, 11:52:06.736, 14, 0.10, 0.36, 100, 1.500, -0.400, -141.900, 1366, 100, 98, 25, 24232, -17974, 5453, 5453, 13, 14, 1528915926.736, 61, 0, 1024, 1024, 1024, 1024, 0, 6, 4014, 4017, 4051, 4040, 4051, 4038, 0, 1, 10401, -90.000, 0.000, -143.000, 0.100, 0.000, -2.900, 0.0, , , , , , 97, , , 51, 51, 51
36.9937794, -119.1734806, 14.600, 11:52:06.836, 16, 0.10, 0.35, 100, 1.500, -0.400, -141.800, 1366, 100, 98, 25, 24232, -17974, 5453, 5453, 13, 14, 1528915926.836, 50, 0, 1024, 1024, 1024, 1024, 0, 6, 4014, 4017, 4051, 4040, 4051, 4038, 0, 1, 10502, -89.900, 0.000, -143.000, 0.100, 0.000, -2.900, 0.0, , , , , , 97, , , 51, 51, 51
36.9937795, -119.1734806, 14.900, 11:52:06.936, 16, 0.10, 0.35, 100, 1.400, -0.300, -141.800, 1366, 100, 98, 25, 24232, -17974, 5453, 5453, 13, 14, 1528915926.936, 63, 0, 1024, 1024, 1024, 1024, 0, 6, 4014, 4017, 4051, 4040, 4051, 4038, 0, 1, 10601, -89.900, 0.000, -143.000, 0.100, 0.000, -2.800, 0.0, , , , , , 97, , , 51, 51, 51
36.9937796, -119.1734806, 15.200, 11:52:07.036, 15, 0.10, 0.35, 100, 1.400, -0.300, -141.900, 1366, 100, 98, 25, 24232, -17974, 5453, 5453, 13, 14, 1528915927.036, 66, 0, 1024, 1024, 1024, 1024, 0, 6, 4014, 4017, 4051, 4040, 4051, 4038, 0, 1, 10702, -89.900, 0.000, -143.000, 0.100, 0.000, -2.900, 0.0, , , , , , 97, , , 51, 51, 51
36.9937796, -119.1734807, 15.500, 11:52:07.136, 15, 0.10, 0.34, 100, 1.500, -0.500, -142.000, 1366, 100, 98, 25, 24232, -17974, 5453, 5453, 13, 14, 1528915927.136, 59, 0, 1024, 1024, 1024, 1024, 0, 6, 4014, 4017, 4051, 4040, 4051, 4038, 0, 1, 10801, -90.000, 0.000, -143.000, 0.100, 0.000, -2.900, 0.0, , , , , , 97, , , 51, 51, 51
36.9937797, -119.1734808, 15.800, 11:52:07.236, 15, 0.14, 0.33, 100, 1.500, -0.500, -142.000, 1366, 100, 98, 25, 24232, -17974, 5453, 5453, 13, 14, 1528915927.236, 55, 0, 1024, 1024, 1024, 1024, 0, 6, 4014, 4017, 4051, 4040, 4051, 4038, 0, 1, 10901, -89.900, 0.000, -143.000, 0.100, -0.100, -2.900, 0.0, , , , , , 97, , , 51, 51, 51
36.9937798, -119.1734808, 16.100, 11:52:07.335, 15, 0.10, 0.32, 100, 1.400, -0.400, -142.000, 1366, 100, 98, 25, 24232, -17974, 5453, 5453, 13, 14, 1528915927.336, 44, 0, 1024, 1024, 1024, 1024, 0, 6, 4014, 4017, 4051, 4040, 4051, 4038, 0, 1, 11001, -90.000, 0.000, -143.000, 0.100, 0.000, -2.900, 0.0, , , , , , 97, , , 51, 51, 51
36.9937800, -119.1734809, 16.700, 11:52:07.436, 15, 0.10, 0.31, 100, 1.000, -0.800, -142.200, 1366, 100, 98, 25, 24105, -19322, 5343, 5453, 13, 14, 1528915927.436, 38, 0, 1024, 1024, 1024, 1024, 0, 6, 3997, 4001, 4030, 4025, 4032, 4016, 0, 1, 11101, -90.000, 0.000, -143.000, 0.100, 0.000, -2.800, 0.0, , , , , , 97, , , 51, 51, 51
36.9937801, -119.1734810, 17.000, 11:52:07.536, 16, 0.10, 0.30, 100, 0.900, -0.900, -142.300, 1366, 100, 98, 25, 24105, -19322, 5343, 5453, 13, 14, 1528915927.536, 46, 0, 1024, 1024, 1024, 1024, 0, 6, 3997, 4001, 4030, 4025, 4032, 4016, 0, 1, 11201, -90.000, 0.000, -143.000, 0.100, 0.000, -2.900, 0.0, , , , , , 97, , , 51, 51, 51
36.9937802, -119.1734811, 17.300, 11:52:07.636, 16, 0.10, 0.29, 100, 1.000, -0.700, -142.400, 1366, 100, 98, 25, 24105, -19322, 5343, 5453, 13, 14, 1528915927.636, 36, 0, 1024, 1024, 1024, 1024, 0, 6, 3997, 4001, 4030, 4025, 4032, 4016, 0, 1, 11301, -89.900, 0.000, -143.000, 0.100, 0.000, -2.900, 0.0, , , , , , 97, , , 51, 51, 51
36.9937803, -119.1734811, 17.600, 11:52:07.736, 16, 0.10, 0.29, 100, 1.000, -0.400, -142.300, 1366, 100, 98, 25, 24105, -19322, 5343, 5453, 13, 14, 1528915927.736, 21, 0, 1024, 1024, 1024, 1024, 0, 6, 3997, 4001, 4030, 4025, 4032, 4016, 0, 1, 11401, -89.900, 0.000, -143.000, 0.100, 0.000, -2.900, 0.0, , , , , , 97, , , 51, 51, 51
36.9937803, -119.1734811, 17.600, 11:52:07.836, 16, 0.10, 0.29, 100, 1.000, -0.400, -142.300, 1366, 100, 98, 25, 24105, -19322, 5343, 5453, 13, 14, 1528915927.836, 121, 0, 1024, 1024, 1024, 1024, 0, 6, 3997, 4001, 4030, 4025, 4032, 4016, 0, 1, 11501, -89.900, 0.000, -143.000, 0.100, 0.000, -2.900, 0.0, , , , , , 97, , , 51, 51, 51
36.9937806, -119.1734812, 18.200, 11:52:07.936, 16, 0.10, 0.28, 98, 1.300, -1.000, -142.200, 1366, 100, 95, 25, 24105, -19322, 5343, 5453, 13, 14, 1528915927.936, 25, 0, 1024, 1024, 1024, 1024, 0, 6, 3997, 4001, 4030, 4025, 4032, 4016, 0, 1, 11601, -89.900, 0.000, -143.000, 0.100, 0.000, -2.900, 0.0, , , , , , 97, , , 51, 51, 51
36.9937806, -119.1734812, 18.500, 11:52:08.036, 16, 0.10, 0.28, 98, 1.400, -1.500, -142.300, 1366, 100, 95, 25, 24105, -19322, 5343, 5453, 13, 14, 1528915928.036, 10, 0, 1024, 1024, 1024, 1024, 0, 6, 3997, 4001, 4030, 4025, 4032, 4016, 0, 1, 11702, -90.000, 0.000, -143.000, 0.100, 0.000, -2.900, 0.0, , , , , , 97, , , 51, 51, 51
36.9937807, -119.1734812, 18.900, 11:52:08.136, 16, 0.00, 0.28, 98, 1.500, -1.600, -142.300, 1366, 100, 95, 25, 24105, -19322, 5343, 5453, 13, 14, 1528915928.136, 15, 0, 1024, 1024, 1024, 1024, 0, 6, 3997, 4001, 4030, 4025, 4032, 4016, 0, 1, 11802, -90.000, 0.000, -143.000, 0.000, 0.000, -2.900, 0.0, , , , , , 97, , , 51, 51, 51
36.9937808, -119.1734812, 19.200, 11:52:08.236, 16, 0.00, 0.28, 98, 1.500, -1.700, -142.400, 1366, 100, 95, 25, 24105, -19322, 5343, 5453, 13, 14, 1528915928.236, 17, 0, 1024, 1024, 1024, 1024, 0, 6, 3997, 4001, 4030, 4025, 4032, 4016, 0, 1, 11901, -90.000, 0.000, -143.000, 0.000, 0.000, -2.900, 0.0, , , , , , 97, , , 51, 51, 51
36.9937808, -119.1734812, 19.200, 11:52:08.336, 16, 0.00, 0.28, 98, 1.500, -1.700, -142.400, 1366, 100, 95, 25, 24105, -19322, 5343, 5453, 13, 14, 1528915928.336, 117, 0, 1024, 1024, 1024, 1024, 0, 6, 3997, 4001, 4030, 4025, 4032, 4016, 0, 1, 12001, -90.000, 0.000, -143.000, 0.000, 0.000, -2.900, 0.0, , , , , , 97, , , 51, 51, 51
36.9937809, -119.1734811, 19.500, 11:52:08.436, 16, 0.00, 0.29, 98, 1.600, -1.600, -142.400, 1366, 100, 95, 26, 24063, -19312, 5343, 5453, 13, 14, 1528915928.436, 94, 0, 1024, 1024, 1024, 1024, 0, 6, 3997, 4001, 4030, 4025, 4032, 4016, 0, 1, 12101, -90.000, 0.000, -143.000, 0.000, 0.000, -2.800, 0.0, , , , , , 97, , , 51, 51, 51
36.9937810, -119.1734811, 19.800, 11:52:08.536, 16, 0.00, 0.29, 98, 1.800, -1.600, -142.400, 1366, 100, 92, 26, 24063, -19312, 5343, 5453, 13, 14, 1528915928.536, 78, 0, 1024, 1024, 1024, 1024, 0, 6, 3997, 4001, 4030, 4025, 4032, 4016, 0, 1, 12202, -89.900, 0.000, -143.000, 0.000, 0.000, -2.800, 0.0, , , , , , 97, , , 51, 51, 51
36.9937810, -119.1734811, 20.100, 11:52:08.636, 16, 0.00, 0.29, 98, 1.900, -1.300, -142.300, 1366, 100, 92, 26, 24063, -19312, 5343, 5453, 13, 14, 1528915928.636, 91, 0, 1024, 1024, 1024, 1024, 0, 6, 3997, 4001, 4030, 4025, 4032, 4016, 0, 1, 12301, -89.900, 0.000, -143.000, 0.000, 0.000, -2.800, 0.0, , , , , , 97, , , 51, 51, 51
36.9937811, -119.1734811, 20.400, 11:52:08.736, 16, 0.00, 0.29, 98, 1.900, -1.200, -142.300, 1366, 100, 92, 26, 24063, -19312, 5343, 5453, 13, 14, 1528915928.736, 94, 0, 1024, 1024, 1024, 1024, 0, 6, 3997, 4001, 4030, 4025, 4032, 4016, 0, 1, 12402, -89.900, 0.000, -143.000, 0.000, 0.000, -2.800, 0.0, , , , , , 97, , , 51, 51, 51
36.9937812, -119.1734811, 20.700, 11:52:08.836, 16, 0.00, 0.30, 98, 1.800, -1.300, -142.300, 1366, 100, 92, 26, 24063, -19312, 5343, 5453, 13, 14, 1528915928.836, 61, 0, 1024, 1024, 1024, 1024, 0, 6, 3997, 4001, 4030, 4025, 4032, 4016, 0, 1, 12502, -89.900, 0.000, -143.000, 0.000, 0.000, -2.800, 0.0, , , , , , 97, , , 51, 51, 51
36.9937812, -119.1734811, 21.000, 11:52:08.936, 16, 0.00, 0.30, 98, 1.800, -1.500, -142.200, 1366, 100, 92, 26, 24063, -19312, 5343, 5453, 13, 14, 1528915928.936, 76, 0, 1024, 1024, 1024, 1024, 0, 6, 3988, 3988, 4028, 4017, 4024, 4013, 0, 1, 12602, -90.000, 0.000, -143.000, 0.000, 0.000, -2.800, 0.0, , , , , , 97, , , 51, 51, 51
36.9937813, -119.1734811, 21.300, 11:52:09.036, 16, 0.00, 0.30, 98, 1.900, -1.800, -142.100, 1366, 100, 93, 26, 24063, -19312, 5343, 5453, 13, 14, 1528915929.036, 41, 0, 1024, 1024, 1024, 1024, 0, 6, 3988, 3988, 4028, 4017, 4024, 4013, 0, 1, 12702, -90.000, 0.000, -143.000, 0.000, 0.000, -2.800, 0.0, , , , , , 97, , , 51, 51, 51
36.9937814, -119.1734811, 21.500, 11:52:09.136, 16, 0.00, 0.31, 98, 1.900, -1.900, -142.000, 1366, 100, 93, 26, 24063, -19312, 5343, 5453, 13, 14, 1528915929.136, 72, 0, 1024, 1024, 1024, 1024, 0, 6, 3988, 3988, 4028, 4017, 4024, 4013, 0, 1, 12802, -90.000, 0.000, -143.000, 0.000, 0.000, -2.800, 0.0, , , , , , 97, , , 51, 51, 51
36.9937815, -119.1734810, 21.800, 11:52:09.236, 16, 0.00, 0.31, 98, 1.800, -2.100, -142.000, 1366, 100, 93, 26, 24063, -19312, 5343, 5453, 13, 14, 1528915929.236, 52, 0, 1024, 1024, 1024, 1024, 0, 6, 3988, 3988, 4028, 4017, 4024, 4013, 0, 1, 12901, -90.000, 0.000, -143.000, 0.000, 0.000, -2.800, 0.0, , , , , , 97, , , 51, 51, 51
36.9937815, -119.1734810, 22.100, 11:52:09.335, 16, 0.00, 0.32, 98, 1.800, -2.000, -141.900, 1366, 100, 93, 26, 24063, -19312, 5343, 5453, 13, 14, 1528915929.336, 60, 0, 1024, 1024, 1024, 1024, 0, 6, 3988, 3988, 4028, 4017, 4024, 4013, 0, 1, 13001, -89.900, 0.000, -143.000, 0.000, 0.000, -2.800, 0.0, , , , , , 97, , , 51, 51, 51
36.9937816, -119.1734810, 22.400, 11:52:09.436, 16, 0.00, 0.32, 98, 1.800, -2.000, -141.900, 1366, 100, 93, 26, 24063, -19312, 5343, 5453, 13, 14, 1528915929.436, 65, 0, 1024, 1024, 1024, 1024, 0, 6, 3988, 3988, 4028, 4017, 4024, 4013, 0, 1, 13101, -89.900, 0.000, -143.000, 0.000, 0.000, -2.800, 0.0, , , , , , 97, , , 51, 51, 51
36.9937817, -119.1734810, 23.000, 11:52:09.536, 16, 0.00, 0.32, 98, 1.700, -1.900, -141.900, 1366, 100, 97, 26, 24063, -19312, 5343, 5453, 13, 14, 1528915929.537, 25, 0, 1024, 1024, 1024, 1024, 0, 6, 3988, 3988, 4028, 4017, 4024, 4013, 0, 1, 13202, -89.900, 0.000, -143.000, 0.000, 0.000, -2.800, 0.0, , , , , , 97, , , 51, 51, 51
36.9937817, -119.1734810, 23.300, 11:52:09.636, 16, 0.00, 0.33, 98, 1.700, -1.800, -141.900, 1366, 100, 97, 26, 24063, -19312, 5343, 5453, 13, 14, 1528915929.636, 28, 0, 1024, 1024, 1024, 1024, 0, 6, 3988, 3988, 4028, 4017, 4024, 4013, 0, 1, 13302, -89.900, 0.000, -143.000, 0.000, 0.000, -2.800, 0.0, , , , , , 97, , , 51, 51, 51
36.9937817, -119.1734809, 23.600, 11:52:09.736, 16, 0.00, 0.33, 98, 1.800, -1.700, -142.000, 1366, 100, 97, 26, 24063, -19312, 5343, 5453, 13, 14, 1528915929.736, 41, 0, 1024, 1024, 1024, 1024, 0, 6, 3988, 3988, 4028, 4017, 4024, 4013, 0, 1, 13402, -89.900, 0.000, -143.000, 0.000, 0.000, -2.800, 0.0, , , , , , 97, , , 51, 51, 51
36.9937817, -119.1734809, 23.900, 11:52:09.836, 16, 0.00, 0.33, 98, 2.100, -1.800, -142.100, 1366, 100, 97, 26, 24063, -19312, 5343, 5453, 13, 14, 1528915929.836, 19, 0, 1024, 1024, 1024, 1024, 0, 6, 3988, 3988, 4028, 4017, 4024, 4013, 0, 1, 13502, -89.900, 0.000, -143.000, 0.000, 0.000, -2.800, 0.0, , , , , , 97, , , 51, 51, 51
36.9937817, -119.1734809, 24.200, 11:52:09.936, 16, 0.00, 0.34, 98, 2.100, -1.900, -142.200, 1366, 100, 98, 26, 23950, -20305, 5343, 5453, 13, 14, 1528915929.937, 14, 0, 1024, 1024, 1024, 1024, 0, 6, 3972, 3957, 4017, 3984, 4005, 4009, 0, 1, 13602, -89.900, 0.000, -143.000, 0.000, 0.000, -2.800, 0.0, , , , , , 97, , , 51, 51, 51
36.9937817, -119.1734809, 24.500, 11:52:10.036, 16, 0.00, 0.34, 98, 2.200, -2.000, -142.200, 1366, 100, 98, 26, 23950, -20305, 5343, 5453, 13, 14, 1528915930.036, 25, 0, 1024, 1024, 1024, 1024, 0, 6, 3972, 3957, 4017, 3984, 4005, 4009, 0, 1, 13702, -90.000, 0.000, -143.000, 0.000, 0.000, -2.900, 0.0, , , , , , 97, , , 51, 51, 51
36.9937816, -119.1734808, 24.800, 11:52:10.136, 16, 0.00, 0.33, 98, 2.200, -1.900, -142.200, 1366, 100, 98, 26, 23950, -20305, 5343, 5453, 13, 14, 1528915930.136, 17, 0, 1024, 1024, 1024, 1024, 0, 6, 3972, 3957, 4017, 3984, 4005, 4009, 0, 1, 13802, -89.900, 0.000, -143.000, 0.000, 0.000, -2.900, 0.0, , , , , , 97, , , 51, 51, 51
36.9937816, -119.1734808, 25.100, 11:52:10.236, 16, 0.00, 0.34, 98, 2.500, -1.700, -142.100, 1366, 100, 98, 26, 23950, -20305, 5343, 5453, 13, 14, 1528915930.236, 4, 0, 1024, 1024, 1024, 1024, 0, 6, 3972, 3957, 4017, 3984, 4005, 4009, 0, 1, 13902, -89.900, 0.000, -143.000, 0.000, 0.000, -2.900, 0.0, , , , , , 97, , , 51, 51, 51
36.9937816, -119.1734808, 25.100, 11:52:10.336, 16, 0.00, 0.34, 98, 2.500, -1.700, -142.100, 1366, 100, 98, 26, 23950, -20305, 5343, 5453, 13, 14, 1528915930.336, 103, 0, 1024, 1024, 1024, 1024, 0, 6, 3972, 3957, 4017, 3984, 4005, 4009, 0, 1, 14001, -89.900, 0.000, -143.000, 0.000, 0.000, -2.900, 0.0, , , , , , 97, , , 51, 51, 51
36.9937815, -119.1734808, 25.300, 11:52:10.436, 16, 0.00, 0.34, 98, 2.700, -1.500, -142.100, 1366, 100, 98, 26, 23950, -20305, 5343, 5453, 13, 14, 1528915930.436, 95, 0, 1024, 1024, 1024, 1024, 0, 6, 3972, 3957, 4017, 3984, 4005, 4009, 0, 1, 14102, -89.900, 0.000, -143.000, 0.000, 0.000, -2.800, 0.0, , , , , , 97, , , 51, 51, 51
36.9937815, -119.1734807, 25.600, 11:52:10.536, 16, 0.00, 0.34, 98, 3.100, -1.400, -142.200, 1366, 100, 99, 26, 23950, -20305, 5343, 5453, 13, 14, 1528915930.536, 90, 0, 1024, 1024, 1024, 1024, 0, 6, 3972, 3957, 4017, 3984, 4005, 4009, 0, 1, 14202, -89.900, 0.000, -143.000, 0.000, 0.000, -2.800, 0.0, , , , , , 97, , , 51, 51, 51
36.9937814, -119.1734807, 25.900, 11:52:10.636, 16, 0.00, 0.34, 98, 3.500, -1.100, -142.200, 1366, 100, 99, 26, 23950, -20305, 5343, 5453, 13, 14, 1528915930.636, 74, 0, 1024, 1024, 1024, 1024, 0, 6, 3972, 3957, 4017, 3984, 4005, 4009, 0, 1, 14302, -89.900, 0.000, -143.000, 0.000, 0.000, -2.800, 0.0, , , , , , 97, , , 51, 51, 51
36.9937814, -119.1734807, 26.200, 11:52:10.736, 16, 0.00, 0.34, 98, 3.600, -0.900, -142.200, 1366, 100, 99, 26, 23950, -20305, 5343, 5453, 13, 14, 1528915930.736, 77, 0, 1024, 1024, 1024, 1024, 0, 6, 3972, 3957, 4017, 3984, 4005, 4009, 0, 1, 14402, -89.900, 0.000, -143.000, 0.000, 0.000, -2.900, 0.0, , , , , , 97, , , 51, 51, 51
36.9937813, -119.1734806, 26.500, 11:52:10.836, 16, 0.00, 0.34, 98, 3.600, -0.700, -142.200, 1366, 100, 99, 26, 23950, -20305, 5343, 5453, 13, 14, 1528915930.836, 89, 0, 1024, 1024, 1024, 1024, 0, 6, 3972, 3957, 4017, 3984, 4005, 4009, 0, 1, 14502, -89.900, 0.000, -143.000, 0.000, 0.000, -2.900, 0.0, , , , , , 97, , , 51, 51, 51
36.9937813, -119.1734806, 26.800, 11:52:10.936, 16, 0.00, 0.35, 98, 3.800, -0.800, -142.000, 1366, 100, 99, 26, 23862, -20605, 5343, 5453, 13, 14, 1528915930.936, 79, 0, 1024, 1024, 1024, 1024, 0, 6, 3952, 3963, 3995, 3982, 3992, 3984, 0, 1, 14602, -89.900, 0.000, -143.000, 0.000, 0.000, -2.900, 0.0, , , , , , 97, , , 51, 51, 51
36.9937812, -119.1734805, 27.100, 11:52:11.036, 16, 0.00, 0.35, 98, 4.000, -1.000, -141.900, 1366, 100, 98, 26, 23862, -20605, 5343, 5453, 13, 14, 1528915931.037, 90, 0, 1024, 1024, 1024, 1024, 0, 6, 3952, 3963, 3995, 3982, 3992, 3984, 0, 1, 14702, -89.900, 0.000, -143.000, 0.000, 0.000, -2.900, 0.0, , , , , , 97, , , 51, 51, 51
36.9937812, -119.1734804, 27.400, 11:52:11.136, 16, 0.00, 0.36, 98, 3.700, -1.100, -141.900, 1366, 100, 98, 26, 23862, -20605, 5343, 5453, 13, 14, 1528915931.137, 71, 0, 1024, 1024, 1024, 1024, 0, 6, 3952, 3963, 3995, 3982, 3992, 3984, 0, 1, 14802, -89.900, 0.000, -143.000, 0.000, 0.000, -2.900, 0.0, , , , , , 97, , , 51, 51, 51
36.9937811, -119.1734804, 27.600, 11:52:11.236, 16, 0.00, 0.36, 98, 3.600, -1.300, -142.000, 1366, 100, 98, 26, 23862, -20605, 5343, 5453, 13, 14, 1528915931.236, 61, 0, 1024, 1024, 1024, 1024, 0, 6, 3952, 3963, 3995, 3982, 3992, 3984, 0, 1, 14901, -89.900, 0.000, -143.000, 0.000, 0.000, -2.900, 0.0, , , , , , 97, , , 51, 51, 51
36.9937811, -119.1734803, 27.900, 11:52:11.336, 16, 0.00, 0.36, 98, 3.600, -1.400, -142.000, 1366, 100, 98, 26, 23862, -20605, 5343, 5453, 13, 14, 1528915931.336, 66, 0, 1024, 1024, 1024, 1024, 0, 6, 3952, 3963, 3995, 3982, 3992, 3984, 0, 1, 15001, -89.900, 0.000, -143.000, 0.000, 0.000, -2.900, 0.0, , , , , , 97, , , 51, 51, 51
36.9937811, -119.1734803, 28.200, 11:52:11.436, 16, 0.00, 0.36, 98, 3.600, -1.400, -142.000, 1366, 100, 98, 26, 23862, -20605, 5343, 5453, 13, 14, 1528915931.436, 67, 0, 1024, 1024, 1024, 1024, 0, 6, 3952, 3963, 3995, 3982, 3992, 3984, 0, 1, 15101, -89.900, 0.000, -143.000, 0.000, 0.000, -3.000, 0.0, , , , , , 97, , , 51, 51, 51
36.9937811, -119.1734803, 28.500, 11:52:11.536, 16, 0.00, 0.37, 98, 3.700, -1.500, -142.000, 1366, 100, 99, 26, 23862, -20605, 5343, 5453, 13, 14, 1528915931.536, 37, 0, 1024, 1024, 1024, 1024, 0, 6, 3952, 3963, 3995, 3982, 3992, 3984, 0, 1, 15201, -89.900, 0.000, -143.000, 0.000, 0.000, -3.000, 0.0, , , , , , 97, , , 51, 51, 51
36.9937810, -119.1734802, 28.800, 11:52:11.636, 16, 0.00, 0.37, 98, 3.600, -1.600, -142.100, 1366, 100, 99, 26, 23862, -20605, 5343, 5453, 13, 14, 1528915931.636, 60, 0, 1024, 1024, 1024, 1024, 0, 6, 3952, 3963, 3995, 3982, 3992, 3984, 0, 1, 15302, -89.900, 0.000, -143.000, 0.000, 0.000, -3.000, 0.0, , , , , , 97, , , 51, 51, 51
36.9937810, -119.1734802, 29.100, 11:52:11.736, 16, 0.00, 0.38, 98, 3.800, -1.500, -142.100, 1366, 100, 99, 26, 23862, -20605, 5343, 5453, 13, 14, 1528915931.736, 28, 0, 1024, 1024, 1024, 1024, 0, 6, 3952, 3963, 3995, 3982, 3992, 3984, 0, 1, 15402, -89.900, 0.000, -143.000, 0.000, 0.000, -2.900, 0.0, , , , , , 97, , , 51, 51, 51
36.9937809, -119.1734801, 29.700, 11:52:11.836, 16, 0.00, 0.38, 98, 3.900, -1.400, -142.200, 1366, 100, 99, 26, 23862, -20605, 5343, 5453, 13, 14, 1528915931.836, 29, 0, 1024, 1024, 1024, 1024, 0, 6, 3952, 3963, 3995, 3982, 3992, 3984, 0, 1, 15502, -89.900, 0.000, -143.000, 0.000, 0.000, -3.000, 0.0, , , , , , 97, , , 51, 51, 51
36.9937809, -119.1734801, 29.700, 11:52:11.936, 16, 0.00, 0.38, 98, 3.900, -1.400, -142.200, 1366, 100, 99, 26, 23847, -20479, 5343, 5453, 13, 14, 1528915931.936, 129, 0, 1024, 1024, 1024, 1024, 0, 6, 3952, 3963, 3995, 3982, 3992, 3984, 0, 1, 15601, -89.900, 0.000, -143.000, 0.000, 0.000, -3.000, 0.0, , , , , , 97, , , 51, 51, 51
36.9937807, -119.1734800, 30.300, 11:52:12.036, 16, 0.00, 0.39, 98, 4.200, -0.800, -142.200, 1366, 100, 98, 26, 23847, -20479, 5343, 5453, 13, 14, 1528915932.036, 10, 0, 1024, 1024, 1024, 1024, 0, 6, 3951, 3958, 3998, 3982, 3995, 3973, 0, 1, 15701, -89.900, 0.000, -143.000, 0.000, 0.000, -3.000, 0.0, , , , , , 97, , , 51, 51, 51
36.9937807, -119.1734800, 30.600, 11:52:12.136, 16, 0.00, 0.39, 98, 4.400, -0.700, -142.200, 1366, 100, 98, 26, 23847, -20479, 5343, 5453, 13, 14, 1528915932.136, 29, 0, 1024, 1024, 1024, 1024, 0, 6, 3951, 3958, 3998, 3982, 3995, 3973, 0, 1, 15802, -89.900, 0.000, -143.000, 0.000, 0.000, -3.000, 0.0, , , , , , 97, , , 51, 51, 51
36.9937807, -119.1734800, 30.600, 11:52:12.236, 16, 0.00, 0.39, 98, 4.400, -0.700, -142.200, 1366, 100, 98, 26, 23847, -20479, 5343, 5453, 13, 14, 1528915932.236, 128, 0, 1024, 1024, 1024, 1024, 0, 6, 3951, 3958, 3998, 3982, 3995, 3973, 0, 1, 15901, -89.900, 0.000, -143.000, 0.000, 0.000, -3.000, 0.0, , , , , , 97, , , 51, 51, 51
36.9937806, -119.1734800, 31.200, 11:52:12.336, 16, 0.00, 0.39, 98, 4.400, -0.800, -142.200, 1366, 100, 98, 26, 23847, -20479, 5343, 5453, 13, 14, 1528915932.336, 1, 0, 1024, 1024, 1024, 1024, 0, 6, 3951, 3958, 3998, 3982, 3995, 3973, 0, 1, 16001, -89.900, 0.000, -143.000, 0.000, 0.000, -3.000, 0.0, , , , , , 97, , , 51, 51, 51
36.9937806, -119.1734800, 31.500, 11:52:12.436, 16, 0.00, 0.39, 98, 4.300, -0.900, -142.200, 1366, 100, 97, 26, 23847, -20479, 5343, 5453, 13, 14, 1528915932.436, 5, 0, 1024, 1024, 1024, 1024, 0, 6, 3951, 3958, 3998, 3982, 3995, 3973, 0, 1, 16102, -89.900, 0.000, -143.000, 0.000, 0.000, -3.000, 0.0, , , , , , 97, , , 51, 51, 51
36.9937806, -119.1734799, 31.800, 11:52:12.541, 16, 0.00, 0.39, 98, 4.300, -1.000, -142.100, 1366, 100, 97, 26, 23847, -20479, 5343, 5453, 13, 14, 1528915932.541, 1, 0, 1024, 1024, 1024, 1024, 0, 6, 3951, 3958, 3998, 3982, 3995, 3973, 0, 1, 16206, -89.900, 0.000, -143.000, 0.000, 0.000, -3.000, 0.0, , , , , , 97, , , 51, 51, 51
36.9937806, -119.1734799, 31.800, 11:52:12.636, 16, 0.00, 0.39, 98, 4.300, -1.000, -142.100, 1366, 100, 97, 26, 23847, -20479, 5343, 5453, 13, 14, 1528915932.636, 96, 0, 1024, 1024, 1024, 1024, 0, 6, 3951, 3958, 3998, 3982, 3995, 3973, 0, 1, 16301, -89.900, 0.000, -143.000, 0.000, 0.000, -3.000, 0.0, , , , , , 97, , , 51, 51, 51
36.9937806, -119.1734799, 32.100, 11:52:12.736, 16, 0.00, 0.39, 98, 4.200, -1.100, -142.100, 1366, 100, 97, 26, 23847, -20479, 5343, 5453, 13, 14, 1528915932.736, 96, 0, 1024, 1024, 1024, 1024, 0, 6, 3951, 3958, 3998, 3982, 3995, 3973, 0, 1, 16401, -90.000, 0.000, -143.000, 0.000, 0.000, -3.000, 0.0, , , , , , 97, , , 51, 51, 51
36.9937805, -119.1734799, 32.300, 11:52:12.836, 16, 0.00, 0.39, 98, 4.100, -1.300, -142.000, 1366, 100, 97, 26, 23847, -20479, 5343, 5453, 13, 14, 1528915932.836, 87, 0, 1024, 1024, 1024, 1024, 0, 6, 3951, 3958, 3998, 3982, 3995, 3973, 0, 1, 16501, -89.900, 0.000, -143.000, 0.000, 0.000, -3.000, 0.0, , , , , , 97, , , 51, 51, 51
36.9937805, -119.1734799, 32.600, 11:52:12.936, 16, 0.00, 0.40, 98, 4.200, -1.300, -142.000, 1366, 100, 97, 26, 23868, -19725, 5343, 5453, 13, 14, 1528915932.936, 90, 0, 1024, 1024, 1024, 1024, 0, 6, 3948, 3959, 4006, 3985, 4004, 3982, 0, 1, 16601, -89.900, 0.000, -143.000, 0.000, 0.000, -3.000, 0.0, , , , , , 97, , , 51, 51, 51
36.9937805, -119.1734798, 32.900, 11:52:13.036, 16, 0.00, 0.40, 98, 4.400, -1.200, -141.900, 1366, 100, 95, 26, 23868, -19725, 5343, 5453, 13, 14, 1528915933.036, 85, 0, 1024, 1024, 1024, 1024, 0, 6, 3948, 3959, 4006, 3985, 4004, 3982, 0, 1, 16701, -89.900, 0.000, -143.000, 0.000, 0.000, -3.000, 0.0, , , , , , 97, , , 51, 51, 51
36.9937805, -119.1734798, 33.200, 11:52:13.136, 16, 0.00, 0.40, 98, 4.600, -1.300, -141.900, 1366, 100, 95, 26, 23868, -19725, 5343, 5453, 13, 14, 1528915933.136, 66, 0, 1024, 1024, 1024, 1024, 0, 6, 3948, 3959, 4006, 3985, 4004, 3982, 0, 1, 16801, -89.900, 0.000, -143.000, 0.000, 0.000, -3.000, 0.0, , , , , , 97, , , 51, 51, 51
36.9937805, -119.1734798, 33.200, 11:52:13.236, 16, 0.00, 0.40, 98, 4.600, -1.300, -141.900, 1366, 100, 95, 26, 23868, -19725, 5343, 5453, 13, 14, 1528915933.236, 166, 0, 1024, 1024, 1024, 1024, 0, 6, 3948, 3959, 4006, 3985, 4004, 3982, 0, 1, 16901, -89.900, 0.000, -143.000, 0.000, 0.000, -3.000, 0.0, , , , , , 97, , , 51, 51, 51
36.9937805, -119.1734798, 33.800, 11:52:13.336, 16, 0.00, 0.40, 98, 4.700, -1.300, -142.000, 1366, 100, 95, 26, 23868, -19725, 5343, 5453, 13, 14, 1528915933.336, 71, 0, 1024, 1024, 1024, 1024, 0, 6, 3948, 3959, 4006, 3985, 4004, 3982, 0, 1, 17001, -89.900, 0.000, -143.000, 0.000, 0.000, -3.000, 0.0, , , , , , 97, , , 51, 51, 51
36.9937805, -119.1734798, 33.800, 11:52:13.436, 16, 0.00, 0.40, 98, 4.700, -1.300, -142.000, 1366, 100, 95, 26, 23868, -19725, 5343, 5453, 13, 14, 1528915933.436, 171, 0, 1024, 1024, 1024, 1024, 0, 6, 3948, 3959, 4006, 3985, 4004, 3982, 0, 1, 17101, -89.900, 0.000, -143.000, 0.000, 0.000, -3.000, 0.0, , , , , , 97, , , 51, 51, 51
36.9937805, -119.1734798, 34.400, 11:52:13.536, 16, 0.00, 0.40, 98, 4.300, -1.100, -142.100, 1366, 100, 91, 26, 23868, -19725, 5343, 5453, 13, 14, 1528915933.536, 56, 0, 1024, 1024, 1024, 1024, 0, 6, 3948, 3959, 4006, 3985, 4004, 3982, 0, 1, 17201, -89.900, 0.000, -143.000, 0.000, 0.000, -3.000, 0.0, , , , , , 97, , , 51, 51, 51
36.9937805, -119.1734798, 34.700, 11:52:13.636, 16, 0.00, 0.40, 98, 4.200, -1.200, -142.100, 1366, 100, 91, 26, 23868, -19725, 5343, 5453, 13, 14, 1528915933.636, 46, 0, 1024, 1024, 1024, 1024, 0, 6, 3948, 3959, 4006, 3985, 4004, 3982, 0, 1, 17301, -89.900, 0.000, -143.000, 0.000, 0.000, -2.900, 0.0, , , , , , 97, , , 51, 51, 51
36.9937805, -119.1734798, 35.000, 11:52:13.736, 16, 0.00, 0.41, 98, 4.000, -1.200, -142.000, 1366, 100, 91, 26, 23868, -19725, 5343, 5453, 13, 14, 1528915933.736, 35, 0, 1024, 1024, 1024, 1024, 0, 6, 3948, 3959, 4006, 3985, 4004, 3982, 0, 1, 17401, -90.000, 0.000, -143.000, 0.000, 0.000, -3.000, 0.0, , , , , , 97, , , 51, 51, 51
36.9937805, -119.1734798, 35.600, 11:52:13.836, 16, 0.00, 0.41, 98, 3.700, -1.500, -141.900, 1366, 100, 91, 26, 23868, -19725, 5343, 5453, 13, 14, 1528915933.836, 24, 0, 1024, 1024, 1024, 1024, 0, 6, 3948, 3959, 4006, 3985, 4004, 3982, 0, 1, 17501, -90.000, 0.000, -143.000, 0.000, 0.000, -2.900, 0.0, , , , , , 97, , , 51, 51, 51
36.9937805, -119.1734798, 35.900, 11:52:13.936, 16, 0.00, 0.40, 98, 3.600, -1.600, -141.900, 1366, 100, 91, 26, 23887, -19631, 5343, 5453, 13, 14, 1528915933.936, 39, 0, 1024, 1024, 1024, 1024, 0, 6, 3948, 3959, 4006, 3985, 4004, 3982, 0, 1, 17601, -89.900, 0.000, -143.000, 0.000, 0.000, -3.000, 0.0, , , , , , 97, , , 51, 51, 51
36.9937805, -119.1734798, 35.900, 11:52:14.036, 16, 0.00, 0.40, 98, 3.600, -1.600, -141.900, 1366, 100, 91, 26, 23887, -19631, 5343, 5453, 13, 14, 1528915934.036, 139, 0, 1024, 1024, 1024, 1024, 0, 6, 3948, 3959, 4006, 3985, 4004, 3982, 0, 1, 17701, -90.000, 0.000, -143.000, 0.000, 0.000, -3.000, 0.0, , , , , , 97, , , 51, 51, 51
36.9937806, -119.1734799, 36.500, 11:52:14.136, 16, 0.00, 0.39, 98, 3.600, -1.700, -142.000, 1366, 100, 91, 26, 23887, -19631, 5343, 5453, 13, 14, 1528915934.136, 36, 0, 1024, 1024, 1024, 1024, 0, 6, 3948, 3959, 4006, 3985, 4004, 3982, 0, 1, 17801, -89.900, 0.000, -143.000, 0.000, 0.000, -3.100, 0.0, , , , , , 97, , , 51, 51, 51
36.9937806, -119.1734800, 36.800, 11:52:14.236, 16, 0.00, 0.38, 98, 3.600, -1.500, -142.000, 1366, 100, 91, 26, 23887, -19631, 5343, 5453, 13, 14, 1528915934.236, 7, 0, 1024, 1024, 1024, 1024, 0, 6, 3948, 3959, 4006, 3985, 4004, 3982, 0, 1, 17901, -89.900, 0.000, -143.000, 0.000, 0.000, -3.000, 0.0, , , , , , 97, , , 51, 51, 51
36.9937807, -119.1734801, 37.100, 11:52:14.336, 16, 0.00, 0.38, 98, 3.400, -1.300, -142.000, 1366, 100, 91, 26, 23887, -19631, 5343, 5453, 13, 14, 1528915934.336, 7, 0, 1024, 1024, 1024, 1024, 0, 6, 3964, 3959, 3994, 3966, 3989, 3981, 0, 1, 18001, -89.900, 0.000, -143.000, 0.000, 0.000, -3.100, 0.0, , , , , , 97, , , 51, 51, 51
36.9937807, -119.1734802, 37.400, 11:52:14.436, 16, 0.00, 0.37, 98, 3.400, -1.000, -142.000, 1366, 100, 93, 26, 23887, -19631, 5343, 5453, 13, 14, 1528915934.436, 10, 0, 1024, 1024, 1024, 1024, 0, 6, 3964, 3959, 3994, 3966, 3989, 3981, 0, 1, 18101, -89.900, 0.000, -143.000, 0.000, 0.000, -3.000, 0.0, , , , , , 97, , , 51, 51, 51
36.9937806, -119.1734803, 37.700, 11:52:14.536, 16, 0.00, 0.36, 98, 3.400, -0.800, -142.000, 1366, 100, 93, 26, 23887, -19631, 5343, 5453, 13, 14, 1528915934.536, 16, 0, 1024, 1024, 1024, 1024, 0, 6, 3964, 3959, 3994, 3966, 3989, 3981, 0, 1, 18201, -89.900, 0.000, -143.000, 0.000, 0.000, -3.000, 0.0, , , , , , 97, , , 51, 51, 51
36.9937806, -119.1734803, 38.000, 11:52:14.636, 16, 0.00, 0.36, 98, 3.500, -0.800, -142.000, 1366, 100, 93, 26, 23887, -19631, 5343, 5453, 13, 14, 1528915934.636, 10, 0, 1024, 1024, 1024, 1024, 0, 6, 3964, 3959, 3994, 3966, 3989, 3981, 0, 1, 18301, -89.900, 0.000, -143.000, 0.000, 0.000, -3.100, 0.0, , , , , , 97, , , 51, 51, 51
36.9937806, -119.1734803, 38.000, 11:52:14.736, 16, 0.00, 0.36, 98, 3.500, -0.800, -142.000, 1366, 100, 93, 26, 23887, -19631, 5343, 5453, 13, 14, 1528915934.736, 110, 0, 1024, 1024, 1024, 1024, 0, 6, 3964, 3959, 3994, 3966, 3989, 3981, 0, 1, 18401, -89.900, 0.000, -143.000, 0.000, 0.000, -3.100, 0.0, , , , , , 97, , , 51, 51, 51
36.9937806, -119.1734805, 38.600, 11:52:14.836, 16, 0.00, 0.34, 98, 3.600, -0.800, -142.000, 1366, 100, 93, 26, 23887, -19631, 5343, 5453, 13, 14, 1528915934.836, 11, 0, 1024, 1024, 1024, 1024, 0, 6, 3964, 3959, 3994, 3966, 3989, 3981, 0, 1, 18501, -89.900, 0.000, -143.000, 0.000, 0.000, -3.100, 0.0, , , , , , 97, , , 51, 51, 51
36.9937806, -119.1734806, 38.900, 11:52:14.945, 16, 0.00, 0.33, 98, 3.500, -0.800, -142.000, 1366, 100, 91, 26, 23887, -19631, 5343, 5453, 13, 14, 1528915934.946, 3, 0, 1024, 1024, 1024, 1024, 0, 6, 3964, 3959, 3994, 3966, 3989, 3981, 0, 1, 18611, -89.900, 0.000, -143.000, 0.000, 0.000, -3.000, 0.0, , , , , , 97, , , 51, 51, 51
36.9937806, -119.1734806, 38.900, 11:52:15.036, 16, 0.00, 0.33, 98, 3.500, -0.800, -142.000, 1366, 100, 91, 26, 23887, -19631, 5343, 5453, 13, 14, 1528915935.036, 94, 0, 1024, 1024, 1024, 1024, 0, 6, 3964, 3959, 3994, 3966, 3989, 3981, 0, 1, 18701, -89.900, 0.000, -143.000, 0.000, 0.000, -3.000, 0.0, , , , , , 97, , , 51, 51, 51
36.9937807, -119.1734807, 39.300, 11:52:15.137, 16, 0.00, 0.32, 98, 3.300, -0.700, -142.000, 1366, 100, 91, 26, 23887, -19631, 5343, 5453, 13, 14, 1528915935.137, 97, 0, 1024, 1024, 1024, 1024, 0, 6, 3964, 3959, 3994, 3966, 3989, 3981, 0, 1, 18802, -89.900, 0.000, -143.000, 0.000, 0.000, -3.100, 0.0, , , , , , 97, , , 51, 51, 51
36.9937807, -119.1734808, 39.600, 11:52:15.237, 16, 0.00, 0.31, 98, 3.300, -0.600, -142.000, 1366, 100, 91, 26, 23887, -19631, 5343, 5453, 13, 14, 1528915935.237, 74, 0, 1024, 1024, 1024, 1024, 0, 6, 3964, 3959, 3994, 3966, 3989, 3981, 0, 1, 18902, -89.900, 0.000, -143.000, 0.000, 0.000, -3.000, 0.0, , , , , , 97, , , 51, 51, 51
36.9937807, -119.1734809, 39.900, 11:52:15.337, 16, 0.00, 0.30, 98, 3.300, -0.400, -142.000, 1366, 100, 91, 26, 23887, -19631, 5343, 5453, 13, 14, 1528915935.337, 69, 0, 1024, 1024, 1024, 1024, 0, 6, 3964, 3959, 3994, 3966, 3989, 3981, 0, 1, 19002, -89.900, 0.000, -143.000, 0.000, 0.000, -3.000, 0.0, , , , , , 97, , , 51, 51, 51
36.9937807, -119.1734810, 40.200, 11:52:15.437, 16, 0.00, 0.29, 98, 3.200, -0.300, -142.000, 1366, 100, 91, 26, 23758, -20688, 5343, 5453, 13, 14, 1528915935.437, 77, 0, 1024, 1024, 1024, 1024, 0, 6, 3943, 3945, 3978, 3959, 3973, 3968, 0, 1, 19102, -89.900, 0.000, -143.000, 0.000, 0.000, -3.000, 0.0, , , , , , 97, , , 51, 51, 51
36.9937807, -119.1734811, 40.500, 11:52:15.537, 16, 0.00, 0.29, 98, 3.100, -0.200, -141.900, 1366, 100, 91, 26, 23758, -20688, 5343, 5453, 13, 14, 1528915935.537, 79, 0, 1024, 1024, 1024, 1024, 0, 6, 3943, 3945, 3978, 3959, 3973, 3968, 0, 1, 19202, -89.900, 0.000, -143.000, 0.000, 0.000, -3.000, 0.0, , , , , , 97, , , 51, 51, 51
36.9937807, -119.1734812, 40.900, 11:52:15.637, 16, 0.00, 0.28, 98, 3.000, -0.400, -141.900, 1366, 100, 91, 26, 23758, -20688, 5343, 5453, 13, 14, 1528915935.637, 80, 0, 1024, 1024, 1024, 1024, 0, 6, 3943, 3945, 3978, 3959, 3973, 3968, 0, 1, 19302, -89.900, 0.000, -143.000, 0.000, 0.000, -3.100, 0.0, , , , , , 97, , , 51, 51, 51
36.9937807, -119.1734813, 41.200, 11:52:15.737, 16, 0.00, 0.28, 98, 3.100, -0.400, -141.900, 1366, 100, 91, 26, 23758, -20688, 5343, 5453, 13, 14, 1528915935.737, 74, 0, 1024, 1024, 1024, 1024, 0, 6, 3943, 3945, 3978, 3959, 3973, 3968, 0, 1, 19402, -89.900, 0.000, -143.000, 0.000, 0.000, -3.000, 0.0, , , , , , 97, , , 51, 51, 51
36.9937807, -119.1734813, 41.500, 11:52:15.837, 16, 0.00, 0.27, 98, 3.000, -0.600, -141.900, 1366, 100, 91, 26, 23758, -20688, 5343, 5453, 13, 14, 1528915935.837, 78, 0, 1024, 1024, 1024, 1024, 0, 6, 3943, 3945, 3978, 3959, 3973, 3968, 0, 1, 19502, -89.900, 0.000, -143.000, 0.000, 0.000, -2.900, 0.0, , , , , , 97, , , 51, 51, 51
36.9937807, -119.1734814, 41.800, 11:52:15.937, 16, 0.00, 0.26, 98, 2.900, -0.600, -141.900, 1366, 100, 91, 26, 23758, -20688, 5343, 5453, 13, 14, 1528915935.937, 69, 0, 1024, 1024, 1024, 1024, 0, 6, 3943, 3945, 3978, 3959, 3973, 3968, 0, 1, 19602, -89.900, 0.000, -143.000, 0.000, 0.000, -3.000, 0.0, , , , , , 97, , , 51, 51, 51
36.9937807, -119.1734814, 42.100, 11:52:16.037, 16, 0.00, 0.26, 98, 3.000, -0.400, -141.900, 1366, 100, 88, 26, 23758, -20688, 5343, 5453, 13, 14, 1528915936.037, 62, 0, 1024, 1024, 1024, 1024, 0, 6, 3943, 3945, 3978, 3959, 3973, 3968, 0, 1, 19702, -89.900, 0.000, -143.000, 0.000, 0.000, -3.000, 0.0, , , , , , 97, , , 51, 51, 51
36.9937807, -119.1734815, 42.400, 11:52:16.137, 16, 0.00, 0.26, 98, 3.000, -0.200, -142.000, 1366, 100, 88, 26, 23758, -20688, 5343, 5453, 13, 14, 1528915936.137, 56, 0, 1024, 1024, 1024, 1024, 0, 6, 3943, 3945, 3978, 3959, 3973, 3968, 0, 1, 19802, -89.900, 0.000, -143.000, 0.000, 0.000, -3.000, 0.0, , , , , , 97, , , 51, 51, 51
36.9937808, -119.1734815, 42.700, 11:52:16.237, 16, 0.00, 0.25, 98, 2.900, -0.100, -142.100, 1366, 100, 88, 26, 23758, -20688, 5343, 5453, 13, 14, 1528915936.237, 52, 0, 1024, 1024, 1024, 1024, 0, 6, 3943, 3945, 3978, 3959, 3973, 3968, 0, 1, 19902, -89.900, 0.000, -143.000, 0.000, 0.000, -3.000, 0.0, , , , , , 97, , , 51, 51, 51
36.9937808, -119.1734816, 43.000, 11:52:16.337, 16, 0.00, 0.25, 98, 2.800, -0.300, -142.200, 1366, 100, 88, 26, 23758, -20688, 5343, 5453, 13, 14, 1528915936.337, 45, 0, 1024, 1024, 1024, 1024, 0, 6, 3943, 3945, 3978, 3959, 3973, 3968, 0, 1, 20002, -89.900, 0.000, -143.000, 0.000, 0.000, -3.000, 0.0, , , , , , 97, , , 51, 51, 51
36.9937808, -119.1734816, 43.400, 11:52:16.437, 16, 0.00, 0.25, 98, 2.500, -0.600, -142.200, 1366, 100, 88, 26, 23757, -20322, 5289, 5453, 13, 14, 1528915936.437, 35, 0, 1024, 1024, 1024, 1024, 0, 6, 3930, 3946, 3980, 3966, 3977, 3965, 0, 1, 20103, -89.900, 0.000, -143.000, 0.000, 0.000, -3.000, 0.0, , , , , , 97, , , 51, 51, 51
36.9937808, -119.1734816, 44.000, 11:52:16.537, 16, 0.00, 0.24, 98, 2.600, -0.700, -142.200, 1366, 100, 93, 26, 23757, -20322, 5289, 5453, 13, 14, 1528915936.537, 21, 0, 1024, 1024, 1024, 1024, 0, 6, 3930, 3946, 3980, 3966, 3977, 3965, 0, 1, 20202, -89.900, 0.000, -143.000, 0.000, 0.000, -3.000, 0.0, , , , , , 97, , , 51, 51, 51
36.9937808, -119.1734816, 44.300, 11:52:16.637, 16, 0.00, 0.24, 98, 2.800, -0.600, -142.100, 1366, 100, 93, 26, 23757, -20322, 5289, 5453, 13, 14, 1528915936.637, 18, 0, 1024, 1024, 1024, 1024, 0, 6, 3930, 3946, 3980, 3966, 3977, 3965, 0, 1, 20302, -89.900, 0.000, -143.000, 0.000, 0.000, -3.000, 0.0, , , , , , 97, , , 51, 51, 51
36.9937808, -119.1734816, 44.600, 11:52:16.737, 16, 0.00, 0.24, 98, 2.900, -0.400, -142.000, 1366, 100, 93, 26, 23757, -20322, 5289, 5453, 13, 14, 1528915936.737, 19, 0, 1024, 1024, 1024, 1024, 0, 6, 3930, 3946, 3980, 3966, 3977, 3965, 0, 1, 20402, -89.900, 0.000, -143.000, 0.000, 0.000, -2.900, 0.0, , , , , , 97, , , 51, 51, 51
36.9937808, -119.1734817, 44.900, 11:52:16.837, 16, 0.00, 0.24, 97, 2.900, -0.300, -141.900, 1366, 100, 93, 26, 23757, -20322, 5289, 5453, 13, 14, 1528915936.837, 6, 0, 1024, 1024, 1024, 1024, 0, 6, 3930, 3946, 3980, 3966, 3977, 3965, 0, 1, 20503, -89.900, 0.000, -143.000, 0.000, 0.000, -2.900, 0.0, , , , , , 97, , , 51, 51, 51
36.9937808, -119.1734817, 45.200, 11:52:16.944, 16, 0.00, 0.24, 97, 3.100, -0.300, -141.800, 1366, 100, 93, 26, 23757, -20322, 5289, 5453, 13, 14, 1528915936.944, 3, 0, 1024, 1024, 1024, 1024, 0, 6, 3930, 3946, 3980, 3966, 3977, 3965, 0, 1, 20610, -89.900, 0.000, -143.000, 0.000, 0.000, -2.900, 0.0, , , , , , 97, , , 51, 51, 51
