latitude,longitude,altitude(feet),ascent(feet),speed(mph),distance(feet),time(millisecond),datetime(utc),satellites,gpslevel,voltage(v),max_altitude(feet),max_ascent(feet),max_speed(mph),max_distance(feet), xSpeed(mph), ySpeed(mph), zSpeed(mph), compass_heading(degrees), pitch(degrees), roll(degrees),isPhoto,isVideo,rc_elevator,rc_aileron,rc_throttle,rc_rudder,gimbal_heading(degrees),gimbal_pitch(degrees),battery_percent,voltageCell1,voltageCell2,voltageCell3,voltageCell4,voltageCell5,voltageCell6,current(A),battery_temperature(f),flycStateRaw,flycState,message
35.7347785,-118.6147635,4884.719804605,0,0.223694,0,2950,2018-07-05 21:32:33,14,0,25.683,4884.719804605,0,0.223694,0,0,0,0,315, -0.3, -1.8,1,0,1024,1024,1024,1024,316.3,-89.9,98,4.292,4.301,4.233,4.303,4.315,4.315,2.954,82.4,11,AutoTakeoff,DJI_0001.jpg Starting Mission from Lat/Long: 35.73479/-118.61476 Camera: Zenmuse X3 - Overlap: 90/90 - Active Connection: No
35.7347785,-118.6147637,4884.719804605,0,0.223694,0.059231629192,3000,2018-07-05 21:32:34,14,0,25.683,4884.719804605,0,0.223694,0.059231629192,0,0,0,315, 1.1, -1.3,0,0,1024,1024,1024,1024,316.3,-89.9,98,4.292,4.301,4.233,4.303,4.315,4.315,2.954,82.4,11,AutoTakeoff,
35.7347784,-118.6147638,4884.719804605,0,0.223694,0.096047247168,3100,2018-07-05 21:32:34,14,0,25.683,4884.719804605,0,0.223694,0.096047247168,0,0,0,315.1, 0.9, -0.1,0,0,1024,1024,1024,1024,316.3,-89.9,98,4.292,4.301,4.233,4.303,4.315,4.315,2.954,82.4,11,AutoTakeoff,
35.7347783,-118.614764,4884.719804605,0,0.3131716,0.16508202628,3300,2018-07-05 21:32:34,14,0,25.683,4884.719804605,0,0.3131716,0.16508202628,0,0,0,315.3, 0.7, 0.3,0,0,1024,1024,1024,1024,316.3,-89.9,98,4.292,4.301,4.233,4.303,4.315,4.315,2.954,82.4,11,AutoTakeoff,
35.7347781,-118.6147644,4885.047888605,0.328084,0.3131716,0.303880915236,3400,2018-07-05 21:32:34,14,0,25.683,4885.047888605,0.328084,0.3131716,0.303880915236,0,0,0,315.6, 0.8, 1.3,0,0,1024,1024,1024,1024,316.3,-89.9,98,4.292,4.301,4.233,4.303,4.315,4.315,2.954,82.4,11,AutoTakeoff,
35.734778,-118.6147645,4885.047888605,0.328084,0.223694,0.3478346568,3600,2018-07-05 21:32:34,14,0,25.683,4885.047888605,0.328084,0.3131716,0.3478346568,0,0,0,315.6, 0.3, 1.5,0,0,1024,1024,1024,1024,316.2,-90,98,4.292,4.301,4.233,4.303,4.315,4.315,2.954,82.4,11,AutoTakeoff,
35.7347779,-118.6147647,4885.375972605,0.656168,0.223694,0.41740158816,3700,2018-07-05 21:32:34,14,0,25.683,4885.375972605,0.656168,0.3131716,0.41740158816,0,0,0,315.5, -0.1, 1.5,0,0,1024,1024,1024,1024,316.2,-90,98,4.292,4.301,4.233,4.303,4.315,4.315,2.954,82.4,11,AutoTakeoff,
35.7347778,-118.6147648,4885.375972605,0.656168,0,0.46201445048,3800,2018-07-05 21:32:34,14,0,25.683,4885.375972605,0.656168,0.3131716,0.46201445048,0,0,0,315.4, -0.5, 1.2,0,0,1024,1024,1024,1024,316.2,-90,98,4.292,4.301,4.233,4.303,4.315,4.315,2.954,82.4,11,AutoTakeoff,
35.7347778,-118.6147649,4885.704056605,0.984252,0,0.48696851952,3900,2018-07-05 21:32:34,14,0,25.683,4885.704056605,0.984252,0.3131716,0.48696851952,0,0,0,315.3, -0.5, 0.8,0,0,1024,1024,1024,1024,316.2,-89.9,98,4.292,4.301,4.233,4.303,4.315,4.315,2.954,82.4,11,AutoTakeoff,
35.7347777,-118.6147649,4885.704056605,0.984252,0,0.50705710284,4000,2018-07-05 21:32:35,14,0,25.696,4885.704056605,0.984252,0.3131716,0.50705710284,0,0,-0.223694,315.2, -0.4, 0.7,0,0,1024,1024,1024,1024,316.2,-89.9,98,4.266,4.252,4.253,4.257,4.274,4.26,3.718,82.4,11,AutoTakeoff,
35.7347776,-118.6147651,4886.360224605,1.64042,0,0.5765092048,4100,2018-07-05 21:32:35,14,0,25.696,4886.360224605,1.64042,0.3131716,0.5765092048,0,0,0,315.3, -0.2, 0.7,0,0,1024,1024,1024,1024,316.2,-89.9,98,4.266,4.252,4.253,4.257,4.274,4.26,3.718,82.4,11,AutoTakeoff,
35.7347775,-118.6147653,4886.360224605,1.64042,0,0.64598427264,4200,2018-07-05 21:32:35,14,0,25.696,4886.360224605,1.64042,0.3131716,0.64598427264,0,0,0,315.3, -0.2, 0.8,0,0,1024,1024,1024,1024,316.1,-89.9,98,4.266,4.252,4.253,4.257,4.274,4.26,3.718,82.4,11,AutoTakeoff,
35.7347774,-118.6147654,4886.688308605,1.968504,0,0.69116143944,4300,2018-07-05 21:32:35,14,0,25.696,4886.688308605,1.968504,0.3131716,0.69116143944,0,0,0,315.4, -0.1, 1,0,0,1024,1024,1024,1024,316.1,-89.9,98,4.266,4.252,4.253,4.257,4.274,4.26,3.718,82.4,11,AutoTakeoff,
35.7347774,-118.6147654,4886.688308605,1.968504,0,0.69116143944,4400,2018-07-05 21:32:35,14,0,25.696,4886.688308605,1.968504,0.3131716,0.69116143944,0,0,0,315.3, -0.1, 1.3,0,0,1024,1024,1024,1024,316.1,-89.9,98,4.266,4.252,4.253,4.257,4.274,4.26,3.718,82.4,11,AutoTakeoff,
35.7347773,-118.6147655,4887.016392605,2.296588,0,0.7365649842,4500,2018-07-05 21:32:35,14,0,25.696,4887.016392605,2.296588,0.3131716,0.7365649842,0,0,0,315.3, 0, 1.3,0,0,1024,1024,1024,1024,316.1,-89.9,98,4.266,4.252,4.253,4.257,4.274,4.26,3.718,82.4,11,AutoTakeoff,
35.7347773,-118.6147655,4887.016392605,2.296588,0,0.7365649842,4600,2018-07-05 21:32:35,14,0,25.696,4887.016392605,2.296588,0.3131716,0.7365649842,0,0,0,315.3, -0.1, 1.2,0,0,1024,1024,1024,1024,316.1,-89.9,98,4.266,4.252,4.253,4.257,4.274,4.26,3.718,82.4,11,AutoTakeoff,
35.7347772,-118.6147655,4887.344476605,2.624672,0,0.75881892192,4700,2018-07-05 21:32:35,15,0,25.696,4887.344476605,2.624672,0.3131716,0.75881892192,0,0,-0.223694,315.3, -0.2, 1.2,0,0,1024,1024,1024,1024,316.1,-89.9,98,4.266,4.252,4.253,4.257,4.274,4.26,3.718,82.4,11,AutoTakeoff,
35.7347771,-118.6147656,4887.344476605,2.624672,0,0.80480317536,4800,2018-07-05 21:32:35,15,0,25.696,4887.344476605,2.624672,0.3131716,0.80480317536,0,0,0,315.2, -0.4, 1.3,0,0,1024,1024,1024,1024,316.1,-90,98,4.266,4.252,4.253,4.257,4.274,4.26,3.718,82.4,11,AutoTakeoff,
35.7347771,-118.6147656,4887.672560605,2.952756,0,0.80480317536,4900,2018-07-05 21:32:35,14,0,25.696,4887.672560605,2.952756,0.3131716,0.80480317536,0,0,0,315.2, -0.6, 1.5,0,0,1024,1024,1024,1024,316.1,-90,98,4.266,4.252,4.253,4.257,4.274,4.26,3.718,82.4,14,Waypoint,
35.7347771,-118.6147655,4887.672560605,2.952756,0,0.78214241348,5000,2018-07-05 21:32:36,14,0,24.761,4887.672560605,2.952756,0.3131716,0.80480317536,0,0,0,315.1, -0.8, 1.3,0,0,1024,1024,1024,1024,316,-90,98,4.146,4.112,4.097,4.114,4.126,4.123,14.915,82.4,14,Waypoint,
35.7347771,-118.6147654,4887.672560605,2.952756,0,0.75996065424,5100,2018-07-05 21:32:36,15,0,24.761,4887.672560605,2.952756,0.3131716,0.80480317536,0,0,0,315.1, -0.9, 0.2,0,0,1024,1024,1024,1024,316.1,-89.9,98,4.146,4.112,4.097,4.114,4.126,4.123,14.915,82.4,14,Waypoint,
35.7347771,-118.6147654,4888.000644605,3.28084,0,0.75996065424,5200,2018-07-05 21:32:36,15,0,24.761,4888.000644605,3.28084,0.3131716,0.80480317536,0,0,0,315.2, -0.8, -0.5,0,0,1024,1024,1024,1024,316.1,-89.9,98,4.146,4.112,4.097,4.114,4.126,4.123,14.915,82.4,14,Waypoint,
35.734777,-118.6147654,4888.000644605,3.28084,0,0.78494753168,5400,2018-07-05 21:32:36,14,0,24.761,4888.000644605,3.28084,0.3131716,0.80480317536,0,0,0,315.3, -0.6, -0.6,0,0,1024,1024,1024,1024,316,-89.9,98,4.146,4.112,4.097,4.114,4.126,4.123,14.915,82.4,14,Waypoint,
35.734777,-118.6147653,4888.328728605,3.608924,0,0.76399608744,5500,2018-07-05 21:32:36,14,0,24.761,4888.328728605,3.608924,0.3131716,0.80480317536,0,0,0,315.3, -0.5, -0.3,0,0,1024,1024,1024,1024,316.1,-89.9,98,4.146,4.112,4.097,4.114,4.126,4.123,14.915,82.4,14,Waypoint,
35.734777,-118.6147653,4888.328728605,3.608924,0,0.76399608744,5600,2018-07-05 21:32:36,13,0,24.761,4888.328728605,3.608924,0.3131716,0.80480317536,0,0,-0.223694,315.2, -0.4, 0,0,0,1024,1024,1024,1024,316,-89.9,98,4.146,4.112,4.097,4.114,4.126,4.123,14.915,82.4,14,Waypoint,
35.7347771,-118.6147652,4888.656812605,3.937008,0,0.7172080282,5700,2018-07-05 21:32:36,13,0,24.761,4888.656812605,3.937008,0.3131716,0.80480317536,0,0,-0.223694,314.9, -0.4, 0.1,0,0,1024,1024,1024,1024,316,-89.9,98,4.146,4.112,4.097,4.114,4.126,4.123,14.915,82.4,14,Waypoint,
35.7347771,-118.6147652,4888.984896605,4.265092,0,0.7172080282,5800,2018-07-05 21:32:36,13,0,24.761,4888.984896605,4.265092,0.3131716,0.80480317536,0,0,-0.223694,314.4, -0.4, -0.2,0,0,1024,1024,1024,1024,316,-90,98,4.146,4.112,4.097,4.114,4.126,4.123,14.915,82.4,14,Waypoint,
35.734777,-118.6147651,4889.312980605,4.593176,0,0.72391078432,5900,2018-07-05 21:32:36,13,0,24.761,4889.312980605,4.593176,0.3131716,0.80480317536,0,0,-0.223694,314, -0.3, -0.6,0,0,1024,1024,1024,1024,316,-89.9,98,4.146,4.112,4.097,4.114,4.126,4.123,14.915,82.4,14,Waypoint,
35.734777,-118.614765,4889.641064605,4.92126,0,0.70488191232,6000,2018-07-05 21:32:37,13,0,24.592,4889.641064605,4.92126,0.3131716,0.80480317536,0,0,-0.223694,313.7, -0.4, -0.9,0,0,1024,1024,1024,1024,315.9,-90,98,4.099,4.084,4.082,4.086,4.109,4.105,16.16,82.4,14,Waypoint,
35.734777,-118.6147649,4890.297232605,5.577428,0,0.68660107184,6100,2018-07-05 21:32:37,13,0,24.592,4890.297232605,5.577428,0.3131716,0.80480317536,0,0,-0.447388,313.5, -0.6, -0.7,0,0,1024,1024,1024,1024,315.9,-90,98,4.099,4.084,4.082,4.086,4.109,4.105,16.16,82.4,14,Waypoint,
35.7347769,-118.6147649,4890.953400605,6.233596,0,0.71602036412,6200,2018-07-05 21:32:37,13,0,24.592,4890.953400605,6.233596,0.3131716,0.80480317536,0,0,-0.447388,313.3, -1, -0.7,0,0,1024,1024,1024,1024,315.8,-90,98,4.099,4.084,4.082,4.086,4.109,4.105,16.16,82.4,14,Waypoint,
35.7347768,-118.6147648,4891.609568605,6.889764,0,0.73002298924,6300,2018-07-05 21:32:37,13,0,24.592,4891.609568605,6.889764,0.3131716,0.80480317536,0,0,-0.447388,313.3, -1.3, -0.7,0,0,1024,1024,1024,1024,315.7,-89.9,98,4.099,4.084,4.082,4.086,4.109,4.105,16.16,82.4,14,Waypoint,
35.7347768,-118.6147648,4892.265736605,7.545932,0,0.73002298924,6400,2018-07-05 21:32:37,14,0,24.592,4892.265736605,7.545932,0.3131716,0.80480317536,0,0,-0.447388,313.3, -1.4, -0.4,0,0,1024,1024,1024,1024,315.7,-89.9,98,4.099,4.084,4.082,4.086,4.109,4.105,16.16,82.4,14,Waypoint,
35.7347767,-118.6147648,4893.249988605,8.530184,0,0.76126314772,6500,2018-07-05 21:32:37,14,0,24.592,4893.249988605,8.530184,0.3131716,0.80480317536,0,0,-0.671082,313.5, -1.2, -0.3,0,0,1024,1024,1024,1024,315.6,-90,98,4.099,4.084,4.082,4.086,4.109,4.105,16.16,82.4,14,Waypoint,
35.7347766,-118.6147646,4894.890408605,10.170604,0,0.76594818724,6600,2018-07-05 21:32:37,14,0,24.592,4894.890408605,10.170604,0.3131716,0.80480317536,0,0,-0.671082,313.7, -1, -0.4,0,0,1024,1024,1024,1024,315.6,-89.9,98,4.099,4.084,4.082,4.086,4.109,4.105,16.16,82.4,14,Waypoint,
35.7347765,-118.6147645,4895.874660605,11.154856,0,0.78750986772,6700,2018-07-05 21:32:37,14,0,24.592,4895.874660605,11.154856,0.3131716,0.80480317536,0,0,-0.671082,313.7, -1.1, -0.4,0,0,1024,1024,1024,1024,315.6,-89.9,98,4.099,4.084,4.082,4.086,4.109,4.105,16.16,82.4,14,Waypoint,
35.7347765,-118.6147643,4896.858912605,12.139108,0,0.76719818728,6800,2018-07-05 21:32:37,14,0,24.592,4896.858912605,12.139108,0.3131716,0.80480317536,0,0,-0.671082,313.6, -1, 0.3,0,0,1024,1024,1024,1024,315.5,-89.9,98,4.099,4.084,4.082,4.086,4.109,4.105,16.16,82.4,14,Waypoint,
35.7347764,-118.6147642,4898.171248605,13.451444,0,0.7937336212,6900,2018-07-05 21:32:37,14,0,24.592,4898.171248605,13.451444,0.3131716,0.80480317536,0,0,-0.671082,313.6, -1, 0.2,0,0,1024,1024,1024,1024,315.5,-89.9,98,4.099,4.084,4.082,4.086,4.109,4.105,16.16,82.4,14,Waypoint,
35.7347763,-118.6147642,4899.155500605,14.435696,0,0.82900921288,7000,2018-07-05 21:32:38,14,0,24.484,4899.155500605,14.435696,0.3131716,0.82900921288,0,0,-0.671082,313.6, -1.4, -0.3,0,0,1024,1024,1024,1024,315.4,-89.9,98,4.107,4.06,4.041,4.035,4.072,4.058,17.145,82.4,14,Waypoint,
35.7347761,-118.6147642,4900.467836605,15.748032,0,0.89984582932,7100,2018-07-05 21:32:38,14,0,24.484,4900.467836605,15.748032,0.3131716,0.89984582932,0,0,-0.671082,313.6, -1.9, -0.5,0,0,1024,1024,1024,1024,315.4,-90,98,4.107,4.06,4.041,4.035,4.072,4.058,17.145,82.4,14,Waypoint,
35.734776,-118.6147642,4901.452088605,16.732284,0,0.93538716904,7200,2018-07-05 21:32:38,14,0,24.484,4901.452088605,16.732284,0.3131716,0.93538716904,0,0,-0.671082,313.5, -2.2, -0.4,0,0,1024,1024,1024,1024,315.4,-90,98,4.107,4.06,4.041,4.035,4.072,4.058,17.145,82.4,14,Waypoint,
35.7347759,-118.6147642,4902.764424605,18.04462,0,0.9709974064,7300,2018-07-05 21:32:38,14,0,24.484,4902.764424605,18.04462,0.3131716,0.9709974064,0,0,-0.671082,313.4, -2.4, 0,0,0,1024,1024,1024,1024,315.3,-90,98,4.107,4.06,4.041,4.035,4.072,4.058,17.145,82.4,14,Waypoint,
35.7347758,-118.6147642,4903.748676605,19.028872,0,1.00666997972,7400,2018-07-05 21:32:38,14,0,24.484,4903.748676605,19.028872,0.3131716,1.00666997972,0,0,-0.671082,313.3, -2.8, 0.1,0,0,1024,1024,1024,1024,315.3,-89.9,98,4.107,4.06,4.041,4.035,4.072,4.058,17.145,82.4,14,Waypoint,
35.7347758,-118.6147641,4904.732928605,20.013124,0,1.00099084568,7500,2018-07-05 21:32:38,14,0,24.484,4904.732928605,20.013124,0.3131716,1.00666997972,0,0,-0.671082,313.3, -3, -0.1,0,0,1024,1024,1024,1024,315.3,-89.9,98,4.107,4.06,4.041,4.035,4.072,4.058,17.145,82.4,14,Waypoint,
35.7347758,-118.6147638,4907.029516605,22.309712,0.223694,0.989091239,7700,2018-07-05 21:32:38,14,0,24.484,4907.029516605,22.309712,0.3131716,1.00666997972,0,0,-0.671082,313.5, -3.3, -1,0,0,1024,1024,1024,1024,315.2,-89.9,98,4.107,4.06,4.041,4.035,4.072,4.058,17.145,82.4,14,Waypoint,
35.7347758,-118.6147637,4908.013768605,23.293964,0.223694,0.98687339116,7800,2018-07-05 21:32:38,14,0,24.484,4908.013768605,23.293964,0.3131716,1.00666997972,0,0,-0.671082,313.7, -3.3, -1.4,0,0,1024,1024,1024,1024,315.2,-89.9,98,4.107,4.06,4.041,4.035,4.072,4.058,17.145,82.4,14,Waypoint,
35.7347759,-118.6147636,4908.998020605,24.278216,0.223694,0.94907155268,8000,2018-07-05 21:32:39,14,0,23.999,4908.998020605,24.278216,0.3131716,1.00666997972,0,0,-0.671082,313.9, -3.6, -1.8,0,0,1024,1024,1024,1024,315.2,-89.9,98,4.012,3.98,3.972,3.98,4.002,4.004,23.12,82.4,14,Waypoint,
35.734776,-118.6147635,4909.982272605,25.262468,0.223694,0.9121227326,8100,2018-07-05 21:32:39,14,0,23.999,4909.982272605,25.262468,0.3131716,1.00666997972,0,0,-0.671082,314.1, -3.8, -2.2,0,0,1024,1024,1024,1024,315.1,-89.9,98,4.012,3.98,3.972,3.98,4.002,4.004,23.12,82.4,14,Waypoint,
35.7347761,-118.6147634,4910.966524605,26.24672,0,0.87613847948,8200,2018-07-05 21:32:39,13,0,23.999,4910.966524605,26.24672,0.3131716,1.00666997972,0,0,-0.671082,314.2, -3.6, -2.5,0,0,1024,1024,1024,1024,315.1,-89.9,98,4.012,3.98,3.972,3.98,4.002,4.004,23.12,82.4,14,Waypoint,
35.7347763,-118.6147633,4913.263112605,28.543308,0.223694,0.80485238796,8300,2018-07-05 21:32:39,14,0,23.999,4913.263112605,28.543308,0.3131716,1.00666997972,0,0,-0.671082,314.1, -2.7, -2.6,0,0,1024,1024,1024,1024,315,-89.9,98,4.012,3.98,3.972,3.98,4.002,4.004,23.12,82.4,14,Waypoint,
35.7347766,-118.6147633,4915.231616605,30.511812,0.223694,0.69573821124,8500,2018-07-05 21:32:39,14,0,23.999,4915.231616605,30.511812,0.3131716,1.00666997972,0,0,-0.671082,313.8, -1.9, -2.9,0,0,1024,1024,1024,1024,315,-89.9,98,4.012,3.98,3.972,3.98,4.002,4.004,23.12,82.4,14,Waypoint,
35.7347767,-118.6147633,4916.543952605,31.824148,0,0.65939306572,8600,2018-07-05 21:32:39,14,0,23.999,4916.543952605,31.824148,0.3131716,1.00666997972,0,0,-0.671082,313.7, -1.9, -2.6,0,0,1024,1024,1024,1024,315,-89.9,98,4.012,3.98,3.972,3.98,4.002,4.004,23.12,82.4,14,Waypoint,
35.7347768,-118.6147633,4917.528204605,32.8084,0,0.6230643244,8700,2018-07-05 21:32:39,14,0,23.999,4917.528204605,32.8084,0.3131716,1.00666997972,0,0,-0.671082,313.6, -1.8, -2.4,0,0,1024,1024,1024,1024,315,-89.9,98,4.012,3.98,3.972,3.98,4.002,4.004,23.12,82.4,14,Waypoint,
35.7347769,-118.6147633,4918.512456605,33.792652,0,0.58675526812,8800,2018-07-05 21:32:39,14,0,23.999,4918.512456605,33.792652,0.3131716,1.00666997972,0,0,-0.671082,313.7, -1.8, -2.4,0,0,1024,1024,1024,1024,314.9,-89.9,98,4.012,3.98,3.972,3.98,4.002,4.004,23.12,82.4,14,Waypoint,
35.734777,-118.6147633,4919.496708605,34.776904,0,0.55046917772,8900,2018-07-05 21:32:39,14,0,23.999,4919.496708605,34.776904,0.3131716,1.00666997972,0,0,-0.671082,314, -1.8, -2.8,0,0,1024,1024,1024,1024,314.9,-89.9,98,4.012,3.98,3.972,3.98,4.002,4.004,23.12,82.4,14,Waypoint,
35.7347771,-118.6147633,4920.480960605,35.761156,0,0.51421261488,9000,2018-07-05 21:32:40,14,0,24.16,4920.480960605,35.761156,0.3131716,1.00666997972,0,0,-0.671082,314.3, -1.6, -3,0,0,1024,1024,1024,1024,314.9,-89.9,98,4.034,4.022,4.013,4.013,4.052,4.038,19.26,84.2,14,Waypoint,
35.7347772,-118.6147632,4921.465212605,36.745408,0,0.48255250888,9100,2018-07-05 21:32:40,14,0,24.16,4921.465212605,36.745408,0.3131716,1.00666997972,0,0,-0.671082,314.7, -1.7, -3.2,0,0,1024,1024,1024,1024,314.9,-89.9,98,4.034,4.022,4.013,4.013,4.052,4.038,19.26,84.2,14,Waypoint,
35.7347773,-118.6147632,4922.449464605,37.72966,0,0.44674214028,9200,2018-07-05 21:32:40,14,0,24.16,4922.449464605,37.72966,0.3131716,1.00666997972,0,0,-0.671082,315.1, -1.9, -3.2,0,0,1024,1024,1024,1024,314.9,-89.9,98,4.034,4.022,4.013,4.013,4.052,4.038,19.26,84.2,14,Waypoint,
35.7347774,-118.6147632,4923.761800605,39.041996,0,0.41104988192,9300,2018-07-05 21:32:40,14,0,24.16,4923.761800605,39.041996,0.3131716,1.00666997972,0,0,-0.671082,315.3, -1.9, -3.3,0,0,1024,1024,1024,1024,314.9,-89.9,98,4.034,4.022,4.013,4.013,4.052,4.038,19.26,84.2,14,Waypoint,
35.7347775,-118.6147631,4924.746052605,40.026248,0,0.38359909364,9400,2018-07-05 21:32:40,14,0,24.16,4924.746052605,40.026248,0.3131716,1.00666997972,0,0,-0.671082,315.2, -1.6, -3.2,0,0,1024,1024,1024,1024,314.8,-89.9,98,4.034,4.022,4.013,4.013,4.052,4.038,19.26,84.2,14,Waypoint,
35.7347776,-118.6147632,4925.402220605,40.682416,0.223694,0.34017061456,9500,2018-07-05 21:32:40,14,0,24.16,4925.402220605,40.682416,0.3131716,1.00666997972,0,0,-0.671082,315, -1.2, -3.4,0,0,1024,1024,1024,1024,314.8,-89.9,98,4.034,4.022,4.013,4.013,4.052,4.038,19.26,84.2,14,Waypoint,
35.7347777,-118.6147632,4926.386472605,41.666668,0.223694,0.305102700052,9700,2018-07-05 21:32:40,14,0,24.16,4926.386472605,41.666668,0.3131716,1.00666997972,0,0,-0.671082,314.7, -0.8, -3.7,0,0,1024,1024,1024,1024,314.8,-89.9,98,4.034,4.022,4.013,4.013,4.052,4.038,19.26,84.2,14,Waypoint,
35.7347779,-118.6147632,4927.370724605,42.65092,0.223694,0.236252632232,9800,2018-07-05 21:32:40,14,0,24.16,4927.370724605,42.65092,0.3131716,1.00666997972,0,0,-0.671082,314.5, -0.4, -3.8,0,0,1024,1024,1024,1024,314.8,-89.9,98,4.034,4.022,4.013,4.013,4.052,4.038,19.26,84.2,14,Waypoint,
35.734778,-118.6147633,4928.354976605,43.635172,0,0.191799874904,9900,2018-07-05 21:32:40,14,0,24.16,4928.354976605,43.635172,0.3131716,1.00666997972,0,0,-0.671082,314, -0.4, -3.6,0,0,1024,1024,1024,1024,314.8,-89.9,98,4.034,4.022,4.013,4.013,4.052,4.038,19.26,84.2,14,Waypoint,
35.7347781,-118.6147633,4929.339228605,44.619424,0,0.15750164546,10000,2018-07-05 21:32:41,14,0,24.15,4929.339228605,44.619424,0.3131716,1.00666997972,0,0,-0.671082,313.4, -0.2, -3.7,0,0,1024,1024,1024,1024,314.8,-89.9,98,4.046,4.019,4.004,4.008,4.052,4.035,18.745,84.2,14,Waypoint,
35.7347781,-118.6147634,4929.995396605,45.275592,0,0.148914374844,10100,2018-07-05 21:32:41,14,0,24.15,4929.995396605,45.275592,0.3131716,1.00666997972,0,0,-0.671082,313, 0, -3.5,0,0,1024,1024,1024,1024,314.7,-89.9,98,4.046,4.019,4.004,4.008,4.052,4.035,18.745,84.2,14,Waypoint,
35.7347781,-118.6147634,4930.979648605,46.259844,0,0.148914374844,10200,2018-07-05 21:32:41,14,0,24.15,4930.979648605,46.259844,0.3131716,1.00666997972,0,0,-0.671082,313, -0.3, -3.2,0,0,1024,1024,1024,1024,314.7,-89.9,98,4.046,4.019,4.004,4.008,4.052,4.035,18.745,84.2,14,Waypoint,
35.7347781,-118.6147635,4931.963900605,47.244096,0,0.145939637216,10300,2018-07-05 21:32:41,14,0,24.15,4931.963900605,47.244096,0.3131716,1.00666997972,0,0,-0.671082,313.2, -0.9, -2.8,0,0,1024,1024,1024,1024,314.7,-89.9,98,4.046,4.019,4.004,4.008,4.052,4.035,18.745,84.2,14,Waypoint,
35.7347781,-118.6147635,4932.948152605,48.228348,0,0.145939637216,10400,2018-07-05 21:32:41,14,0,24.15,4932.948152605,48.228348,0.3131716,1.00666997972,0,0,-0.671082,313.4, -1.2, -2.8,0,0,1024,1024,1024,1024,314.7,-90,98,4.046,4.019,4.004,4.008,4.052,4.035,18.745,84.2,14,Waypoint,
35.7347781,-118.6147634,4933.932404605,49.2126,0,0.148914374844,10500,2018-07-05 21:32:41,14,0,24.15,4933.932404605,49.2126,0.3131716,1.00666997972,0,0,-0.671082,313.6, -1.5, -2.8,0,0,1024,1024,1024,1024,314.7,-89.9,98,4.046,4.019,4.004,4.008,4.052,4.035,18.745,84.2,14,Waypoint,
35.7347781,-118.6147635,4934.916656605,50.196852,0,0.145939637216,10600,2018-07-05 21:32:41,14,0,24.15,4934.916656605,50.196852,0.3131716,1.00666997972,0,0,-0.671082,313.7, -1.6, -2.7,0,0,1024,1024,1024,1024,314.7,-90,98,4.046,4.019,4.004,4.008,4.052,4.035,18.745,84.2,14,Waypoint,
35.734778,-118.6147635,4935.900908605,51.181104,0,0.18242454652,10700,2018-07-05 21:32:41,14,0,24.15,4935.900908605,51.181104,0.3131716,1.00666997972,0,0,-0.671082,313.7, -1.9, -3,0,0,1024,1024,1024,1024,314.6,-90,98,4.046,4.019,4.004,4.008,4.052,4.035,18.745,84.2,14,Waypoint,
35.734778,-118.6147635,4936.885160605,52.165356,0,0.18242454652,10800,2018-07-05 21:32:41,14,0,24.15,4936.885160605,52.165356,0.3131716,1.00666997972,0,0,-0.671082,313.5, -2.1, -2.9,0,0,1024,1024,1024,1024,314.6,-89.9,98,4.046,4.019,4.004,4.008,4.052,4.035,18.745,84.2,14,Waypoint,
35.7347779,-118.6147635,4938.853664605,54.13386,0,0.218909783908,10900,2018-07-05 21:32:41,14,0,24.15,4938.853664605,54.13386,0.3131716,1.00666997972,0,0,-0.671082,313, -1.3, -3.4,0,0,1024,1024,1024,1024,314.6,-89.9,98,4.046,4.019,4.004,4.008,4.052,4.035,18.745,84.2,14,Waypoint,
35.7347779,-118.6147636,4939.837916605,55.118112,0,0.22090387846,11000,2018-07-05 21:32:42,14,0,24.039,4939.837916605,55.118112,0.3131716,1.00666997972,0,0,-0.671082,312.8, -1.1, -3.3,0,0,1024,1024,1024,1024,314.6,-89.9,98,4.032,3.991,3.986,3.994,4.027,4.007,19.986,84.2,14,Waypoint,
35.7347779,-118.6147637,4940.822168605,56.102364,0,0.22678150332,11100,2018-07-05 21:32:42,14,0,24.039,4940.822168605,56.102364,0.3131716,1.00666997972,0,0,-0.671082,312.8, -0.9, -2.8,0,0,1024,1024,1024,1024,314.6,-89.9,98,4.032,3.991,3.986,3.994,4.027,4.007,19.986,84.2,14,Waypoint,
35.7347778,-118.6147637,4942.790672605,58.070868,0,0.262173236736,11300,2018-07-05 21:32:42,14,0,24.039,4942.790672605,58.070868,0.3131716,1.00666997972,0,0,-0.671082,313.2, -1.7, -2.9,0,0,1024,1024,1024,1024,314.6,-90,98,4.032,3.991,3.986,3.994,4.027,4.007,19.986,84.2,14,Waypoint,
35.7347777,-118.6147638,4943.774924605,59.05512,0,0.305102700052,11400,2018-07-05 21:32:42,14,0,24.039,4943.774924605,59.05512,0.3131716,1.00666997972,0,0,-0.671082,313.3, -2, -2.8,0,0,1024,1024,1024,1024,314.6,-90,98,4.032,3.991,3.986,3.994,4.027,4.007,19.986,84.2,14,Waypoint,
35.7347777,-118.6147639,4944.759176605,60.039372,0,0.315003619004,11500,2018-07-05 21:32:42,14,0,24.039,4944.759176605,60.039372,0.3131716,1.00666997972,0,0,-0.671082,313.4, -2, -2.4,0,0,1024,1024,1024,1024,314.6,-89.9,98,4.032,3.991,3.986,3.994,4.027,4.007,19.986,84.2,14,Waypoint,
35.7347776,-118.6147639,4945.743428605,61.023624,0,0.349081376,11600,2018-07-05 21:32:42,14,0,24.039,4945.743428605,61.023624,0.3131716,1.00666997972,0,0,-0.671082,313.5, -1.5, -1.9,0,0,1024,1024,1024,1024,314.6,-89.9,98,4.032,3.991,3.986,3.994,4.027,4.007,19.986,84.2,14,Waypoint,
35.7347776,-118.614764,4946.727680605,62.007876,0,0.36020998528,11700,2018-07-05 21:32:42,14,0,24.039,4946.727680605,62.007876,0.3131716,1.00666997972,0,0,-0.671082,313.6, -1.1, -1.7,0,0,1024,1024,1024,1024,314.6,-89.9,98,4.032,3.991,3.986,3.994,4.027,4.007,19.986,84.2,14,Waypoint,
35.7347775,-118.6147641,4947.711932605,62.992128,0,0.40582022296,11800,2018-07-05 21:32:42,14,0,24.039,4947.711932605,62.992128,0.3131716,1.00666997972,0,0,-0.671082,313.7, -1.3, -1.6,0,0,1024,1024,1024,1024,314.6,-89.9,98,4.032,3.991,3.986,3.994,4.027,4.007,19.986,84.2,14,Waypoint,
35.7347774,-118.6147641,4948.696184605,63.97638,0,0.43891405604,11900,2018-07-05 21:32:42,14,0,24.039,4948.696184605,63.97638,0.3131716,1.00666997972,0,0,-0.671082,313.8, -1.5, -1.6,0,0,1024,1024,1024,1024,314.6,-89.9,98,4.032,3.991,3.986,3.994,4.027,4.007,19.986,84.2,14,Waypoint,
35.7347773,-118.6147641,4950.664688605,65.944884,0,0.4725065768,12100,2018-07-05 21:32:43,14,0,24.039,4950.664688605,65.944884,0.3131716,1.00666997972,0,0,-0.671082,313.8, -2.2, -1.8,0,0,1024,1024,1024,1024,314.6,-90,98,4.032,3.991,3.986,3.994,4.027,4.007,19.986,84.2,14,Waypoint,
35.7347772,-118.6147641,4951.648940605,66.929136,0,0.50649936004,12200,2018-07-05 21:32:43,14,0,24.039,4951.648940605,66.929136,0.3131716,1.00666997972,0,0,-0.671082,313.7, -2.7, -2,0,0,1024,1024,1024,1024,314.6,-90,98,4.032,3.991,3.986,3.994,4.027,4.007,19.986,84.2,14,Waypoint,
35.7347772,-118.6147641,4952.633192605,67.913388,0,0.50649936004,12400,2018-07-05 21:32:43,14,0,24.039,4952.633192605,67.913388,0.3131716,1.00666997972,0,0,-0.671082,313.7, -2.8, -2.1,0,0,1024,1024,1024,1024,314.6,-89.9,98,4.032,3.991,3.986,3.994,4.027,4.007,19.986,84.2,14,Waypoint,
35.7347771,-118.6147641,4953.617444605,68.89764,0,0.54081694644,12500,2018-07-05 21:32:43,14,0,24.039,4953.617444605,68.89764,0.3131716,1.00666997972,0,0,-0.671082,313.6, -2.5, -2.3,0,0,1024,1024,1024,1024,314.6,-89.9,98,4.032,3.991,3.986,3.994,4.027,4.007,19.986,84.2,14,Waypoint,
35.734777,-118.6147641,4954.929780605,70.209976,0,0.57540028088,12600,2018-07-05 21:32:43,14,0,24.039,4954.929780605,70.209976,0.3131716,1.00666997972,0,0,-0.671082,313.6, -2.4, -2.5,0,0,1024,1024,1024,1024,314.6,-89.9,98,4.032,3.991,3.986,3.994,4.027,4.007,19.986,84.2,14,Waypoint,
35.734777,-118.6147641,4956.898284605,72.17848,0,0.57540028088,12800,2018-07-05 21:32:43,14,0,24.039,4956.898284605,72.17848,0.3131716,1.00666997972,0,0,-0.671082,313.7, -2.4, -2.2,0,0,1024,1024,1024,1024,314.6,-89.9,98,4.032,3.991,3.986,3.994,4.027,4.007,19.986,84.2,14,Waypoint,
35.7347769,-118.6147641,4957.882536605,73.162732,0,0.61020671244,12900,2018-07-05 21:32:43,14,0,24.039,4957.882536605,73.162732,0.3131716,1.00666997972,0,0,-0.671082,313.7, -2.3, -1.9,0,0,1024,1024,1024,1024,314.6,-89.9,98,4.032,3.991,3.986,3.994,4.027,4.007,19.986,84.2,14,Waypoint,
35.7347769,-118.6147641,4958.866788605,74.146984,0,0.61020671244,13000,2018-07-05 21:32:44,14,0,24.049,4958.866788605,74.146984,0.3131716,1.00666997972,0,0,-0.671082,313.7, -2, -1.9,0,0,1024,1024,1024,1024,314.6,-89.9,97,4.021,4.001,3.994,3.99,4.032,4.003,19.371,84.2,14,Waypoint,
35.7347769,-118.6147641,4959.851040605,75.131236,0,0.61020671244,13100,2018-07-05 21:32:44,14,0,24.049,4959.851040605,75.131236,0.3131716,1.00666997972,0,0,-0.671082,313.6, -1.7, -2.2,0,0,1024,1024,1024,1024,314.6,-89.9,97,4.021,4.001,3.994,3.99,4.032,4.003,19.371,84.2,14,Waypoint,
35.7347769,-118.6147641,4960.835292605,76.115488,0,0.61020671244,13200,2018-07-05 21:32:44,14,0,24.049,4960.835292605,76.115488,0.3131716,1.00666997972,0,0,-0.671082,313.6, -1.7, -2.9,0,0,1024,1024,1024,1024,314.6,-89.9,97,4.021,4.001,3.994,3.99,4.032,4.003,19.371,84.2,14,Waypoint,
35.7347768,-118.614764,4961.819544605,77.09974,0,0.63767718576,13300,2018-07-05 21:32:44,14,0,24.049,4961.819544605,77.09974,0.3131716,1.00666997972,0,0,-0.671082,313.6, -1.8, -3.2,0,0,1024,1024,1024,1024,314.6,-90,97,4.021,4.001,3.994,3.99,4.032,4.003,19.371,84.2,14,Waypoint,
35.7347768,-118.614764,4962.803796605,78.083992,0,0.63767718576,13400,2018-07-05 21:32:44,14,0,24.049,4962.803796605,78.083992,0.3131716,1.00666997972,0,0,-0.671082,313.6, -2.1, -3.3,0,0,1024,1024,1024,1024,314.6,-90,97,4.021,4.001,3.994,3.99,4.032,4.003,19.371,84.2,14,Waypoint,
35.7347767,-118.614764,4963.788048605,79.068244,0,0.67321524464,13500,2018-07-05 21:32:44,14,0,24.049,4963.788048605,79.068244,0.3131716,1.00666997972,0,0,-0.671082,313.6, -2.5, -3,0,0,1024,1024,1024,1024,314.6,-90,97,4.021,4.001,3.994,3.99,4.032,4.003,19.371,84.2,14,Waypoint,
35.7347764,-118.6147639,4965.756552605,81.036748,0,0.77528873872,13600,2018-07-05 21:32:44,14,0,24.049,4965.756552605,81.036748,0.3131716,1.00666997972,0,0,-0.671082,313.6, -3.1, -1.8,0,0,1024,1024,1024,1024,314.6,-89.9,97,4.021,4.001,3.994,3.99,4.032,4.003,19.371,84.2,14,Waypoint,
35.7347763,-118.6147639,4966.740804605,82.021,0,0.81136485536,13700,2018-07-05 21:32:44,14,0,24.049,4966.740804605,82.021,0.3131716,1.00666997972,0,0,-0.671082,313.6, -3.5, -1.2,0,0,1024,1024,1024,1024,314.6,-89.9,97,4.021,4.001,3.994,3.99,4.032,4.003,19.371,84.2,14,Waypoint,
35.7347761,-118.6147639,4967.725056605,83.005252,0,0.88361551384,13800,2018-07-05 21:32:44,14,0,24.049,4967.725056605,83.005252,0.3131716,1.00666997972,0,0,-0.671082,313.7, -4.1, -1.1,0,0,1024,1024,1024,1024,314.6,-90,97,4.021,4.001,3.994,3.99,4.032,4.003,19.371,84.2,14,Waypoint,
35.7347761,-118.6147639,4968.709308605,83.989504,0,0.88361551384,13900,2018-07-05 21:32:44,14,0,24.049,4968.709308605,83.989504,0.3131716,1.00666997972,0,0,-0.671082,313.7, -4.3, -1.4,0,0,1024,1024,1024,1024,314.6,-89.9,97,4.021,4.001,3.994,3.99,4.032,4.003,19.371,84.2,14,Waypoint,
35.734776,-118.6147639,4969.693560605,84.973756,0,0.919783494,14000,2018-07-05 21:32:45,14,0,23.967,4969.693560605,84.973756,0.3131716,1.00666997972,0,0,-0.671082,313.7, -4.3, -1.3,0,0,1024,1024,1024,1024,314.6,-89.9,97,4.007,3.987,3.977,3.982,4.025,4.002,20.037,84.2,14,Waypoint,
35.734776,-118.6147639,4970.677812605,85.958008,0,0.919783494,14100,2018-07-05 21:32:45,14,0,23.967,4970.677812605,85.958008,0.3131716,1.00666997972,0,0,-0.671082,313.8, -4.4, -1.7,0,0,1024,1024,1024,1024,314.6,-89.9,97,4.007,3.987,3.977,3.982,4.025,4.002,20.037,84.2,14,Waypoint,
35.7347759,-118.6147639,4971.990148605,87.270344,0,0.95597772088,14200,2018-07-05 21:32:45,14,0,23.967,4971.990148605,87.270344,0.3131716,1.00666997972,0,0,-0.671082,313.9, -4.6, -1.8,0,0,1024,1024,1024,1024,314.6,-89.9,97,4.007,3.987,3.977,3.982,4.025,4.002,20.037,84.2,14,Waypoint,
35.734776,-118.6147641,4973.958652605,89.238848,0,0.92927168328,14400,2018-07-05 21:32:45,14,0,23.967,4973.958652605,89.238848,0.3131716,1.00666997972,0,0,-0.671082,313.7, -2.5, -1.3,0,0,1024,1024,1024,1024,314.6,-89.9,97,4.007,3.987,3.977,3.982,4.025,4.002,20.037,84.2,14,Waypoint,
35.734776,-118.6147643,4975.927156605,91.207352,0,0.94239176244,14600,2018-07-05 21:32:45,14,0,23.967,4975.927156605,91.207352,0.3131716,1.00666997972,0,0,-0.671082,313.4, -1.4, -0.6,0,0,1024,1024,1024,1024,314.6,-89.9,97,4.007,3.987,3.977,3.982,4.025,4.002,20.037,84.2,14,Waypoint,
35.7347761,-118.6147644,4976.911408605,92.191604,0,0.91530842824,14800,2018-07-05 21:32:45,14,0,23.967,4976.911408605,92.191604,0.3131716,1.00666997972,0,0,-0.671082,313.4, -1.3, -0.6,0,0,1024,1024,1024,1024,314.6,-89.9,97,4.007,3.987,3.977,3.982,4.025,4.002,20.037,84.2,14,Waypoint,
35.7347761,-118.6147644,4977.567576605,92.847772,0,0.91530842824,14900,2018-07-05 21:32:45,14,0,23.967,4977.567576605,92.847772,0.3131716,1.00666997972,0,0,-0.671082,313.6, -1.3, -1,0,0,1024,1024,1024,1024,314.6,-89.9,97,4.007,3.987,3.977,3.982,4.025,4.002,20.037,84.2,14,Waypoint,
35.7347762,-118.6147645,4978.551828605,93.832024,0,0.88988191824,15000,2018-07-05 21:32:46,14,0,24.017,4978.551828605,93.832024,0.3131716,1.00666997972,0,0,-0.671082,313.7, -1.4, -1.5,0,0,1024,1024,1024,1024,314.6,-89.9,97,4.017,4.001,3.984,3.991,4.023,4.005,19.007,84.2,14,Waypoint,
35.7347762,-118.6147645,4979.864164605,95.14436,0,0.88988191824,15100,2018-07-05 21:32:46,14,0,24.017,4979.864164605,95.14436,0.3131716,1.00666997972,0,0,-0.671082,313.7, -1.5, -1.9,0,0,1024,1024,1024,1024,314.6,-89.9,97,4.017,4.001,3.984,3.991,4.023,4.005,19.007,84.2,14,Waypoint,
35.7347763,-118.6147645,4980.848416605,96.128612,0,0.855561051,15200,2018-07-05 21:32:46,14,0,24.017,4980.848416605,96.128612,0.3131716,1.00666997972,0,0,-0.671082,313.5, -1.4, -1.9,0,0,1024,1024,1024,1024,314.6,-89.9,97,4.017,4.001,3.984,3.991,4.023,4.005,19.007,84.2,14,Waypoint,
35.7347763,-118.6147645,4981.832668605,97.112864,0,0.855561051,15300,2018-07-05 21:32:46,14,0,24.017,4981.832668605,97.112864,0.3131716,1.00666997972,0,0,-0.671082,313.3, -1.4, -2.1,0,0,1024,1024,1024,1024,314.6,-89.9,97,4.017,4.001,3.984,3.991,4.023,4.005,19.007,84.2,14,Waypoint,
35.7347764,-118.6147645,4982.816920605,98.097116,0,0.82143047248,15400,2018-07-05 21:32:46,14,0,24.017,4982.816920605,98.097116,0.3131716,1.00666997972,0,0,-0.671082,313.3, -1.7, -2.3,0,0,1024,1024,1024,1024,314.6,-89.9,97,4.017,4.001,3.984,3.991,4.023,4.005,19.007,84.2,14,Waypoint,
35.7347764,-118.6147644,4983.801172605,99.081368,0,0.81122377924,15500,2018-07-05 21:32:46,14,0,24.017,4983.801172605,99.081368,0.3131716,1.00666997972,0,0,-0.671082,313.5, -2.2, -2.5,0,0,1024,1024,1024,1024,314.6,-90,97,4.017,4.001,3.984,3.991,4.023,4.005,19.007,84.2,14,Waypoint,
35.7347764,-118.6147644,4984.785424605,100.06562,0,0.81122377924,15600,2018-07-05 21:32:46,14,0,24.017,4984.785424605,100.06562,0.3131716,1.00666997972,0,0,-0.671082,313.6, -2.5, -2.5,0,0,1024,1024,1024,1024,314.6,-89.9,97,4.017,4.001,3.984,3.991,4.023,4.005,19.007,84.2,14,Waypoint,
35.7347764,-118.6147643,4986.753928605,102.034124,0,0.80198165296,15700,2018-07-05 21:32:46,14,0,24.017,4986.753928605,102.034124,0.3131716,1.00666997972,0,0,-0.671082,313.8, -2.5, -2,0,0,1024,1024,1024,1024,314.6,-89.9,97,4.017,4.001,3.984,3.991,4.023,4.005,19.007,84.2,14,Waypoint,
35.7347764,-118.6147643,4987.738180605,103.018376,0,0.80198165296,15800,2018-07-05 21:32:46,14,0,24.017,4987.738180605,103.018376,0.3131716,1.00666997972,0,0,-0.671082,313.8, -2.4, -2.1,0,0,1024,1024,1024,1024,314.6,-89.9,97,4.017,4.001,3.984,3.991,4.023,4.005,19.007,84.2,14,Waypoint,
35.7347765,-118.6147643,4988.722432605,104.002628,0,0.76719818728,15900,2018-07-05 21:32:46,14,0,24.017,4988.722432605,104.002628,0.3131716,1.00666997972,0,0,-0.671082,313.8, -2.5, -2.2,0,0,1024,1024,1024,1024,314.6,-89.9,97,4.017,4.001,3.984,3.991,4.023,4.005,19.007,84.2,14,Waypoint,
35.7347765,-118.6147643,4989.706684605,104.98688,0,0.76719818728,16000,2018-07-05 21:32:47,14,0,24.012,4989.706684605,104.98688,0.3131716,1.00666997972,0,0,-0.671082,313.9, -2.7, -2.3,0,0,1024,1024,1024,1024,314.6,-89.9,97,4.007,3.987,3.976,3.988,4.018,3.998,19.049,84.2,14,Waypoint,
35.7347765,-118.6147642,4990.690936605,105.971132,0,0.75857613976,16100,2018-07-05 21:32:47,14,0,24.012,4990.690936605,105.971132,0.3131716,1.00666997972,0,0,-0.671082,314, -2.9, -2.3,0,0,1024,1024,1024,1024,314.6,-89.9,97,4.007,3.987,3.976,3.988,4.018,3.998,19.049,84.2,14,Waypoint,
35.7347764,-118.6147642,4991.675188605,106.955384,0,0.7937336212,16200,2018-07-05 21:32:47,14,0,24.012,4991.675188605,106.955384,0.3131716,1.00666997972,0,0,-0.671082,313.9, -3.1, -2.7,0,0,1024,1024,1024,1024,314.6,-89.9,97,4.007,3.987,3.976,3.988,4.018,3.998,19.049,84.2,14,Waypoint,
35.7347764,-118.6147641,4992.659440605,107.939636,0,0.78651905404,16300,2018-07-05 21:32:47,14,0,24.012,4992.659440605,107.939636,0.3131716,1.00666997972,0,0,-0.671082,313.9, -3.2, -2.9,0,0,1024,1024,1024,1024,314.6,-89.9,97,4.007,3.987,3.976,3.988,4.018,3.998,19.049,84.2,14,Waypoint,
35.7347764,-118.6147641,4993.643692605,108.923888,0,0.78651905404,16400,2018-07-05 21:32:47,14,0,24.012,4993.643692605,108.923888,0.3131716,1.00666997972,0,0,-0.671082,314, -3.2, -2.8,0,0,1024,1024,1024,1024,314.6,-89.9,97,4.007,3.987,3.976,3.988,4.018,3.998,19.049,84.2,14,Waypoint,
35.7347764,-118.614764,4995.612196605,110.892392,0,0.78036091736,16600,2018-07-05 21:32:47,14,0,24.012,4995.612196605,110.892392,0.3131716,1.00666997972,0,0,-0.671082,313.9, -3, -2.3,0,0,1024,1024,1024,1024,314.6,-89.9,97,4.007,3.987,3.976,3.988,4.018,3.998,19.049,84.2,14,Waypoint,
35.7347763,-118.614764,4997.580700605,112.860896,0,0.81621393688,16800,2018-07-05 21:32:47,14,0,24.012,4997.580700605,112.860896,0.3131716,1.00666997972,0,0,-0.671082,313.8, -3.2, -2.2,0,0,1024,1024,1024,1024,314.6,-90,97,4.007,3.987,3.976,3.988,4.018,3.998,19.049,84.2,14,Waypoint,
35.7347763,-118.6147639,4998.564952605,113.845148,0,0.81136485536,16900,2018-07-05 21:32:47,14,0,24.012,4998.564952605,113.845148,0.3131716,1.00666997972,0,0,-0.671082,313.8, -3.5, -2.4,0,0,1024,1024,1024,1024,314.6,-90,97,4.007,3.987,3.976,3.988,4.018,3.998,19.049,84.2,14,Waypoint,
35.7347763,-118.6147639,5000.533456605,115.813652,0,0.81136485536,17110,2018-07-05 21:32:48,14,0,24.012,5000.533456605,115.813652,0.3131716,1.00666997972,0,0,-0.671082,313.7, -3.5, -2.3,0,0,1024,1024,1024,1024,314.6,-89.9,97,4.007,3.987,3.976,3.988,4.018,3.998,19.049,84.2,14,Waypoint,
35.7347763,-118.6147639,5000.533456605,115.813652,0,0.81136485536,17200,2018-07-05 21:32:48,14,0,24.012,5000.533456605,115.813652,0.3131716,1.00666997972,0,0,-0.671082,313.7, -3.5, -2.3,0,0,1024,1024,1024,1024,314.6,-89.9,97,4.007,3.987,3.976,3.988,4.018,3.998,19.049,84.2,14,Waypoint,
35.7347762,-118.614764,5001.517708605,116.797904,0,0.85211944984,17300,2018-07-05 21:32:48,14,0,24.012,5001.517708605,116.797904,0.3131716,1.00666997972,0,0,-0.671082,313.7, -3.4, -2,0,0,1024,1024,1024,1024,314.6,-89.9,97,4.007,3.987,3.976,3.988,4.018,3.998,19.049,84.2,14,Waypoint,
35.7347762,-118.614764,5002.501960605,117.782156,0,0.85211944984,17400,2018-07-05 21:32:48,14,0,24.012,5002.501960605,117.782156,0.3131716,1.00666997972,0,0,-0.671082,313.8, -3.4, -1.9,0,0,1024,1024,1024,1024,314.6,-89.9,97,4.007,3.987,3.976,3.988,4.018,3.998,19.049,84.2,14,Waypoint,
35.7347762,-118.614764,5003.486212605,118.766408,0,0.85211944984,17500,2018-07-05 21:32:48,14,0,24.012,5003.486212605,118.766408,0.3131716,1.00666997972,0,0,-0.671082,313.8, -3.5, -1.8,0,0,1024,1024,1024,1024,314.6,-89.9,97,4.007,3.987,3.976,3.988,4.018,3.998,19.049,84.2,14,Waypoint,
35.7347761,-118.614764,5004.470464605,119.75066,0,0.88807089456,17600,2018-07-05 21:32:48,14,0,24.012,5004.470464605,119.75066,0.3131716,1.00666997972,0,0,-0.671082,313.7, -3.5, -2.1,0,0,1024,1024,1024,1024,314.6,-90,97,4.007,3.987,3.976,3.988,4.018,3.998,19.049,84.2,14,Waypoint,
35.7347761,-118.614764,5005.454716605,120.734912,0,0.88807089456,17700,2018-07-05 21:32:48,14,0,24.012,5005.454716605,120.734912,0.3131716,1.00666997972,0,0,-0.671082,313.6, -3.4, -2,0,0,1024,1024,1024,1024,314.6,-89.9,97,4.007,3.987,3.976,3.988,4.018,3.998,19.049,84.2,14,Waypoint,
35.7347761,-118.614764,5006.110884605,121.39108,0,0.88807089456,17800,2018-07-05 21:32:48,14,0,24.012,5006.110884605,121.39108,0.3131716,1.00666997972,0,0,-0.671082,313.6, -3.4, -2,0,0,1024,1024,1024,1024,314.6,-89.9,97,4.007,3.987,3.976,3.988,4.018,3.998,19.049,84.2,14,Waypoint,
35.7347761,-118.614764,5007.095136605,122.375332,0,0.88807089456,17900,2018-07-05 21:32:48,14,0,24.012,5007.095136605,122.375332,0.3131716,1.00666997972,0,0,-0.671082,313.7, -3.4, -2,0,0,1024,1024,1024,1024,314.6,-89.9,97,4.007,3.987,3.976,3.988,4.018,3.998,19.049,84.2,14,Waypoint,
35.7347761,-118.614764,5008.079388605,123.359584,0,0.88807089456,18000,2018-07-05 21:32:49,14,0,23.802,5008.079388605,123.359584,0.3131716,1.00666997972,0,0,-0.671082,313.7, -3.2, -2,0,0,1024,1024,1024,1024,314.6,-89.9,97,3.977,3.949,3.949,3.946,3.987,3.969,20.784,84.2,14,Waypoint,
35.7347762,-118.614764,5010.375976605,125.656172,0,0.85211944984,18100,2018-07-05 21:32:49,14,0,23.802,5010.375976605,125.656172,0.3131716,1.00666997972,0,0,-0.671082,313.6, -2.9, -2.2,0,0,1024,1024,1024,1024,314.6,-89.9,97,3.977,3.949,3.949,3.946,3.987,3.969,20.784,84.2,14,Waypoint,
35.7347762,-118.614764,5011.360228605,126.640424,0,0.85211944984,18200,2018-07-05 21:32:49,14,0,23.802,5011.360228605,126.640424,0.3131716,1.00666997972,0,0,-0.671082,313.6, -2.7, -2.3,0,0,1024,1024,1024,1024,314.6,-89.9,97,3.977,3.949,3.949,3.946,3.987,3.969,20.784,84.2,14,Waypoint,
35.7347763,-118.614764,5012.344480605,127.624676,0,0.81621393688,18300,2018-07-05 21:32:49,14,0,23.802,5012.344480605,127.624676,0.3131716,1.00666997972,0,0,-0.671082,313.6, -2.6, -2.3,0,0,1024,1024,1024,1024,314.6,-89.9,97,3.977,3.949,3.949,3.946,3.987,3.969,20.784,84.2,14,Waypoint,
35.7347763,-118.614764,5013.328732605,128.608928,0,0.81621393688,18400,2018-07-05 21:32:49,14,0,23.802,5013.328732605,128.608928,0.3131716,1.00666997972,0,0,-0.671082,313.6, -2.8, -2.7,0,0,1024,1024,1024,1024,314.5,-89.9,97,3.977,3.949,3.949,3.946,3.987,3.969,20.784,84.2,14,Waypoint,
35.7347764,-118.6147639,5014.312984605,129.59318,0,0.77528873872,18500,2018-07-05 21:32:49,14,0,23.802,5014.312984605,129.59318,0.3131716,1.00666997972,0,0,-0.671082,313.6, -3, -3.1,0,0,1024,1024,1024,1024,314.5,-89.9,97,3.977,3.949,3.949,3.946,3.987,3.969,20.784,84.2,14,Waypoint,
35.7347764,-118.6147638,5015.297236605,130.577432,0,0.77131892232,18600,2018-07-05 21:32:49,14,0,23.802,5015.297236605,130.577432,0.3131716,1.00666997972,0,0,-0.671082,313.6, -3.2, -3.5,0,0,1024,1024,1024,1024,314.5,-89.9,97,3.977,3.949,3.949,3.946,3.987,3.969,20.784,84.2,14,Waypoint,
35.7347765,-118.6147637,5016.281488605,131.561684,0,0.73209976096,18700,2018-07-05 21:32:49,14,0,23.802,5016.281488605,131.561684,0.3131716,1.00666997972,0,0,-0.671082,313.7, -3.3, -3.7,0,0,1024,1024,1024,1024,314.5,-89.9,97,3.977,3.949,3.949,3.946,3.987,3.969,20.784,84.2,14,Waypoint,
35.7347765,-118.6147637,5016.937656605,132.217852,0,0.73209976096,18800,2018-07-05 21:32:49,14,0,23.802,5016.937656605,132.217852,0.3131716,1.00666997972,0,0,-0.671082,313.8, -3.4, -3.5,0,0,1024,1024,1024,1024,314.5,-89.9,97,3.977,3.949,3.949,3.946,3.987,3.969,20.784,84.2,14,Waypoint,
35.7347765,-118.6147636,5017.921908605,133.202104,0,0.7302985798,18900,2018-07-05 21:32:49,14,0,23.802,5017.921908605,133.202104,0.3131716,1.00666997972,0,0,-0.671082,313.9, -3.3, -3.1,0,0,1024,1024,1024,1024,314.5,-90,97,3.977,3.949,3.949,3.946,3.987,3.969,20.784,84.2,14,Waypoint,
35.7347765,-118.6147636,5018.906160605,134.186356,0,0.7302985798,19000,2018-07-05 21:32:50,14,0,23.734,5018.906160605,134.186356,0.3131716,1.00666997972,0,0,-0.671082,313.9, -3.4, -3,0,0,1024,1024,1024,1024,314.5,-90,97,3.966,3.949,3.936,3.945,3.974,3.965,21.634,84.2,14,Waypoint,
35.7347765,-118.6147635,5019.890412605,135.170608,0,0.72969818608,19110,2018-07-05 21:32:50,14,0,23.734,5019.890412605,135.170608,0.3131716,1.00666997972,0,0,-0.671082,314, -3.6, -3.1,0,0,1024,1024,1024,1024,314.5,-90,97,3.966,3.949,3.936,3.945,3.974,3.965,21.634,84.2,14,Waypoint,
35.7347765,-118.6147635,5019.890412605,135.170608,0,0.72969818608,19200,2018-07-05 21:32:50,14,0,23.734,5019.890412605,135.170608,0.3131716,1.00666997972,0,0,-0.671082,314, -3.6, -3.1,0,0,1024,1024,1024,1024,314.5,-90,97,3.966,3.949,3.936,3.945,3.974,3.965,21.634,84.2,14,Waypoint,
35.7347765,-118.6147635,5020.546580605,135.826776,0,0.72969818608,19300,2018-07-05 21:32:50,14,0,23.734,5020.546580605,135.826776,0.3131716,1.00666997972,0,0,-0.671082,313.9, -3.8, -3,0,0,1024,1024,1024,1024,314.5,-90,97,3.966,3.949,3.936,3.945,3.974,3.965,21.634,84.2,14,Waypoint,
35.7347765,-118.6147635,5021.858916605,137.139112,0,0.72969818608,19400,2018-07-05 21:32:50,14,0,23.734,5021.858916605,137.139112,0.3131716,1.00666997972,0,0,-0.671082,314, -3.7, -2.6,0,0,1024,1024,1024,1024,314.5,-89.9,97,3.966,3.949,3.936,3.945,3.974,3.965,21.634,84.2,14,Waypoint,
35.7347765,-118.6147635,5022.843168605,138.123364,0,0.72969818608,19500,2018-07-05 21:32:50,14,0,23.734,5022.843168605,138.123364,0.3131716,1.00666997972,0,0,-0.671082,313.9, -3.6, -2.5,0,0,1024,1024,1024,1024,314.5,-89.9,97,3.966,3.949,3.936,3.945,3.974,3.965,21.634,84.2,14,Waypoint,
35.7347765,-118.6147635,5023.499336605,138.779532,0,0.72969818608,19600,2018-07-05 21:32:50,14,0,23.734,5023.499336605,138.779532,0.3131716,1.00666997972,0,0,-0.671082,313.8, -3.5, -2.5,0,0,1024,1024,1024,1024,314.5,-89.9,97,3.966,3.949,3.936,3.945,3.974,3.965,21.634,84.2,14,Waypoint,
35.7347765,-118.6147635,5024.483588605,139.763784,0,0.72969818608,19700,2018-07-05 21:32:50,14,0,23.734,5024.483588605,139.763784,0.3131716,1.00666997972,0,0,-0.671082,313.7, -3.5, -2.5,0,0,1024,1024,1024,1024,314.5,-89.9,97,3.966,3.949,3.936,3.945,3.974,3.965,21.634,84.2,14,Waypoint,
35.7347765,-118.6147635,5025.467840605,140.748036,0,0.72969818608,19800,2018-07-05 21:32:50,14,0,23.734,5025.467840605,140.748036,0.3131716,1.00666997972,0,0,-0.671082,313.7, -3.2, -2.5,0,0,1024,1024,1024,1024,314.5,-89.9,97,3.966,3.949,3.936,3.945,3.974,3.965,21.634,84.2,14,Waypoint,
35.7347765,-118.6147635,5026.452092605,141.732288,0,0.72969818608,19900,2018-07-05 21:32:50,14,0,23.734,5026.452092605,141.732288,0.3131716,1.00666997972,0,0,-0.671082,313.8, -3.2, -2.7,0,0,1024,1024,1024,1024,314.5,-89.9,97,3.966,3.949,3.936,3.945,3.974,3.965,21.634,84.2,14,Waypoint,
35.7347765,-118.6147635,5027.436344605,142.71654,0,0.72969818608,20000,2018-07-05 21:32:51,14,0,23.676,5027.436344605,142.71654,0.3131716,1.00666997972,0,0,-0.671082,313.8, -3.2, -2.7,0,0,1024,1024,1024,1024,314.5,-89.9,97,3.963,3.928,3.931,3.926,3.968,3.957,21.895,84.2,14,Waypoint,
35.7347766,-118.6147635,5028.420596605,143.700792,0,0.69321524528,20100,2018-07-05 21:32:51,14,0,23.676,5028.420596605,143.700792,0.3131716,1.00666997972,0,0,-0.671082,313.7, -3.3, -2.7,0,0,1024,1024,1024,1024,314.5,-89.9,97,3.963,3.928,3.931,3.926,3.968,3.957,21.895,84.2,14,Waypoint,
35.7347766,-118.6147635,5029.404848605,144.685044,0,0.69321524528,20200,2018-07-05 21:32:51,14,0,23.676,5029.404848605,144.685044,0.3131716,1.00666997972,0,0,-0.671082,313.6, -3.4, -2.9,0,0,1024,1024,1024,1024,314.5,-90,97,3.963,3.928,3.931,3.926,3.968,3.957,21.895,84.2,14,Waypoint,
35.7347766,-118.6147635,5030.389100605,145.669296,0,0.69321524528,20300,2018-07-05 21:32:51,14,0,23.676,5030.389100605,145.669296,0.3131716,1.00666997972,0,0,-0.671082,313.5, -3.5, -2.9,0,0,1024,1024,1024,1024,314.5,-89.9,97,3.963,3.928,3.931,3.926,3.968,3.957,21.895,84.2,14,Waypoint,
35.7347766,-118.6147635,5031.373352605,146.653548,0,0.69321524528,20400,2018-07-05 21:32:51,14,0,23.676,5031.373352605,146.653548,0.3131716,1.00666997972,0,0,-0.671082,313.5, -3.6, -2.8,0,0,1024,1024,1024,1024,314.5,-89.9,97,3.963,3.928,3.931,3.926,3.968,3.957,21.895,84.2,14,Waypoint,
35.7347766,-118.6147635,5032.357604605,147.6378,0,0.69321524528,20500,2018-07-05 21:32:51,14,0,23.676,5032.357604605,147.6378,0.3131716,1.00666997972,0,0,-0.671082,313.5, -3.4, -2.7,0,0,1024,1024,1024,1024,314.5,-89.9,97,3.963,3.928,3.931,3.926,3.968,3.957,21.895,84.2,14,Waypoint,
35.7347767,-118.6147635,5034.654192605,149.934388,0,0.65672902364,20600,2018-07-05 21:32:51,14,0,23.676,5034.654192605,149.934388,0.3131716,1.00666997972,0,0,-0.671082,313.6, -3.1, -2.9,0,0,1024,1024,1024,1024,314.5,-89.9,97,3.963,3.928,3.931,3.926,3.968,3.957,21.895,84.2,14,Waypoint,
35.7347768,-118.6147635,5035.638444605,150.91864,0,0.620242802,20700,2018-07-05 21:32:51,14,0,23.676,5035.638444605,150.91864,0.3131716,1.00666997972,0,0,-0.671082,313.7, -3, -2.8,0,0,1024,1024,1024,1024,314.5,-89.9,97,3.963,3.928,3.931,3.926,3.968,3.957,21.895,84.2,14,Waypoint,
35.7347768,-118.6147635,5036.622696605,151.902892,0,0.620242802,20800,2018-07-05 21:32:51,14,0,23.676,5036.622696605,151.902892,0.3131716,1.00666997972,0,0,-0.671082,313.7, -3.2, -2.9,0,0,1024,1024,1024,1024,314.5,-89.9,97,3.963,3.928,3.931,3.926,3.968,3.957,21.895,84.2,14,Waypoint,
35.7347768,-118.6147635,5037.606948605,152.887144,0,0.620242802,20900,2018-07-05 21:32:51,14,0,23.676,5037.606948605,152.887144,0.3131716,1.00666997972,0,0,-0.671082,313.7, -3.1, -3.4,0,0,1024,1024,1024,1024,314.5,-89.9,97,3.963,3.928,3.931,3.926,3.968,3.957,21.895,84.2,14,Waypoint,
35.7347769,-118.6147635,5038.591200605,153.871396,0,0.5837598612,21000,2018-07-05 21:32:52,14,0,23.585,5038.591200605,153.871396,0.3131716,1.00666997972,0,0,-0.671082,313.8, -3, -3.8,0,0,1024,1024,1024,1024,314.5,-89.9,97,3.945,3.92,3.92,3.925,3.96,3.939,22.617,84.2,14,Waypoint,
35.7347769,-118.6147635,5039.575452605,154.855648,0,0.5837598612,21100,2018-07-05 21:32:52,14,0,23.585,5039.575452605,154.855648,0.3131716,1.00666997972,0,0,-0.671082,313.7, -3.2, -4.2,0,0,1024,1024,1024,1024,314.5,-89.9,97,3.945,3.92,3.92,3.925,3.96,3.939,22.617,84.2,14,Waypoint,
35.734777,-118.6147634,5040.559704605,155.8399,0,0.54807416452,21200,2018-07-05 21:32:52,14,0,23.585,5040.559704605,155.8399,0.3131716,1.00666997972,0,0,-0.671082,313.7, -3.2, -4.3,0,0,1024,1024,1024,1024,314.5,-89.9,97,3.945,3.92,3.92,3.925,3.96,3.939,22.617,84.2,14,Waypoint,
35.734777,-118.6147634,5041.543956605,156.824152,0,0.54807416452,21300,2018-07-05 21:32:52,14,0,23.585,5041.543956605,156.824152,0.3131716,1.00666997972,0,0,-0.671082,313.8, -3.7, -4.2,0,0,1024,1024,1024,1024,314.5,-90,97,3.945,3.92,3.92,3.925,3.96,3.939,22.617,84.2,14,Waypoint,
35.7347769,-118.6147634,5042.528208605,157.808404,0,0.58451117356,21400,2018-07-05 21:32:52,14,0,23.585,5042.528208605,157.808404,0.3131716,1.00666997972,0,0,-0.671082,313.9, -4, -3.7,0,0,1024,1024,1024,1024,314.5,-90,97,3.945,3.92,3.92,3.925,3.96,3.939,22.617,84.2,14,Waypoint,
35.7347769,-118.6147634,5043.512460605,158.792656,0,0.58451117356,21500,2018-07-05 21:32:52,14,0,23.585,5043.512460605,158.792656,0.3131716,1.00666997972,0,0,-0.671082,313.9, -3.9, -3.3,0,0,1024,1024,1024,1024,314.5,-90,97,3.945,3.92,3.92,3.925,3.96,3.939,22.617,84.2,14,Waypoint,
35.7347769,-118.6147635,5044.496712605,159.776908,0,0.5837598612,21600,2018-07-05 21:32:52,14,0,23.585,5044.496712605,159.776908,0.3131716,1.00666997972,0,0,-0.671082,313.9, -3.6, -2.9,0,0,1024,1024,1024,1024,314.5,-89.9,97,3.945,3.92,3.92,3.925,3.96,3.939,22.617,84.2,14,Waypoint,
35.7347769,-118.6147635,5045.152880605,160.433076,0,0.5837598612,21700,2018-07-05 21:32:52,14,0,23.585,5045.152880605,160.433076,0.3131716,1.00666997972,0,0,-0.671082,313.8, -3.4, -3.1,0,0,1024,1024,1024,1024,314.5,-89.9,97,3.945,3.92,3.92,3.925,3.96,3.939,22.617,84.2,14,Waypoint,
35.7347769,-118.6147635,5047.121384605,162.40158,0,0.5837598612,22000,2018-07-05 21:32:53,14,0,23.585,5047.121384605,162.40158,0.3131716,1.00666997972,0,0,-0.671082,313.8, -3.3, -3.8,0,0,1024,1024,1024,1024,314.5,-89.9,97,3.945,3.92,3.92,3.925,3.96,3.939,22.617,84.2,14,Waypoint,
35.7347769,-118.6147635,5048.433720605,163.713916,0,0.5837598612,22100,2018-07-05 21:32:53,14,0,23.585,5048.433720605,163.713916,0.3131716,1.00666997972,0,0,-0.671082,313.8, -3.7, -3.9,0,0,1024,1024,1024,1024,314.5,-90,97,3.945,3.92,3.92,3.925,3.96,3.939,22.617,84.2,14,Waypoint,
35.7347769,-118.6147635,5049.417972605,164.698168,0,0.5837598612,22200,2018-07-05 21:32:53,14,0,23.585,5049.417972605,164.698168,0.3131716,1.00666997972,0,0,-0.671082,313.8, -4, -4.1,0,0,1024,1024,1024,1024,314.5,-90,97,3.945,3.92,3.92,3.925,3.96,3.939,22.617,84.2,14,Waypoint,
35.7347768,-118.6147635,5050.402224605,165.68242,0,0.620242802,22300,2018-07-05 21:32:53,14,0,23.585,5050.402224605,165.68242,0.3131716,1.00666997972,0,0,-0.671082,313.7, -4.2, -4,0,0,1024,1024,1024,1024,314.5,-89.9,97,3.945,3.92,3.92,3.925,3.96,3.939,22.617,84.2,14,Waypoint,
35.7347768,-118.6147635,5051.386476605,166.666672,0,0.620242802,22400,2018-07-05 21:32:53,14,0,23.585,5051.386476605,166.666672,0.3131716,1.00666997972,0,0,-0.671082,313.6, -4.4, -3.5,0,0,1024,1024,1024,1024,314.5,-89.9,97,3.945,3.92,3.92,3.925,3.96,3.939,22.617,84.2,14,Waypoint,
35.7347767,-118.6147635,5052.370728605,167.650924,0,0.65672902364,22500,2018-07-05 21:32:53,14,0,23.585,5052.370728605,167.650924,0.3131716,1.00666997972,0,0,-0.671082,313.6, -4.4, -3.2,0,0,1024,1024,1024,1024,314.5,-89.9,97,3.945,3.92,3.92,3.925,3.96,3.939,22.617,84.2,14,Waypoint,
35.7347767,-118.6147635,5053.354980605,168.635176,0,0.65672902364,22600,2018-07-05 21:32:53,14,0,23.585,5053.354980605,168.635176,0.3131716,1.00666997972,0,0,-0.671082,313.6, -4.5, -3.1,0,0,1024,1024,1024,1024,314.5,-89.9,97,3.945,3.92,3.92,3.925,3.96,3.939,22.617,84.2,14,Waypoint,
35.7347766,-118.6147635,5054.339232605,169.619428,0,0.69321524528,22700,2018-07-05 21:32:53,14,0,23.585,5054.339232605,169.619428,0.3131716,1.00666997972,0,0,-0.671082,313.7, -4.3, -3.3,0,0,1024,1024,1024,1024,314.5,-89.9,97,3.945,3.92,3.92,3.925,3.96,3.939,22.617,84.2,14,Waypoint,
35.7347766,-118.6147635,5055.323484605,170.60368,0,0.69321524528,22800,2018-07-05 21:32:53,14,0,23.585,5055.323484605,170.60368,0.3131716,1.00666997972,0,0,-0.671082,313.8, -4.3, -3.8,0,0,1024,1024,1024,1024,314.5,-89.9,97,3.945,3.92,3.92,3.925,3.96,3.939,22.617,84.2,14,Waypoint,
35.7347767,-118.6147634,5057.620072605,172.900268,0,0.65739503416,22900,2018-07-05 21:32:53,14,0,23.585,5057.620072605,172.900268,0.3131716,1.00666997972,0,0,-0.671082,314, -4, -4.3,0,0,1024,1024,1024,1024,314.5,-89.9,97,3.945,3.92,3.92,3.925,3.96,3.939,22.617,84.2,14,Waypoint,
35.7347767,-118.6147635,5058.604324605,173.88452,0.223694,0.65672902364,23000,2018-07-05 21:32:54,14,0,23.682,5058.604324605,173.88452,0.3131716,1.00666997972,0,0,-0.671082,314.1, -3.6, -4.6,0,0,1024,1024,1024,1024,314.5,-89.9,96,3.962,3.939,3.939,3.936,3.998,3.952,20.269,84.2,14,Waypoint,
35.7347768,-118.6147635,5059.588576605,174.868772,0.223694,0.620242802,23100,2018-07-05 21:32:54,14,0,23.682,5059.588576605,174.868772,0.3131716,1.00666997972,0,0,-0.671082,314, -3, -5,0,0,1024,1024,1024,1024,314.5,-89.9,96,3.962,3.939,3.939,3.936,3.998,3.952,20.269,84.2,14,Waypoint,
35.7347769,-118.6147635,5060.572828605,175.853024,0.223694,0.5837598612,23200,2018-07-05 21:32:54,14,0,23.682,5060.572828605,175.853024,0.3131716,1.00666997972,0,0,-0.671082,314, -2.8, -5.5,0,0,1024,1024,1024,1024,314.5,-89.9,96,3.962,3.939,3.939,3.936,3.998,3.952,20.269,84.2,14,Waypoint,
35.734777,-118.6147635,5061.557080605,176.837276,0,0.54727363956,23300,2018-07-05 21:32:54,14,0,23.682,5061.557080605,176.837276,0.3131716,1.00666997972,0,0,-0.671082,313.9, -2.7, -5.7,0,0,1024,1024,1024,1024,314.5,-89.9,96,3.962,3.939,3.939,3.936,3.998,3.952,20.269,84.2,14,Waypoint,
35.734777,-118.6147635,5062.541332605,177.821528,0,0.54727363956,23400,2018-07-05 21:32:54,14,0,23.682,5062.541332605,177.821528,0.3131716,1.00666997972,0,0,-0.671082,313.9, -2.9, -5.2,0,0,1024,1024,1024,1024,314.5,-89.9,96,3.962,3.939,3.939,3.936,3.998,3.952,20.269,84.2,14,Waypoint,
35.734777,-118.6147635,5063.525584605,178.80578,0,0.54727363956,23500,2018-07-05 21:32:54,14,0,23.682,5063.525584605,178.80578,0.3131716,1.00666997972,0,0,-0.671082,314, -3.2, -5.4,0,0,1024,1024,1024,1024,314.5,-89.9,96,3.962,3.939,3.939,3.936,3.998,3.952,20.269,84.2,14,Waypoint,
35.734777,-118.6147636,5064.509836605,179.790032,0,0.54807416452,23600,2018-07-05 21:32:54,14,0,23.682,5064.509836605,179.790032,0.3131716,1.00666997972,0,0,-0.671082,314.1, -3.5, -5.3,0,0,1024,1024,1024,1024,314.5,-89.9,96,3.962,3.939,3.939,3.936,3.998,3.952,20.269,84.2,14,Waypoint,
35.734777,-118.6147636,5066.478340605,181.758536,0,0.54807416452,23800,2018-07-05 21:32:54,14,0,23.682,5066.478340605,181.758536,0.3131716,1.00666997972,0,0,-0.671082,314, -3.3, -4.5,0,0,1024,1024,1024,1024,314.5,-89.9,96,3.962,3.939,3.939,3.936,3.998,3.952,20.269,84.2,14,Waypoint,
35.734777,-118.6147637,5067.462592605,182.742788,0,0.55046917772,23900,2018-07-05 21:32:54,14,0,23.682,5067.462592605,182.742788,0.3131716,1.00666997972,0,0,-0.671082,314, -2.9, -4.4,0,0,1024,1024,1024,1024,314.5,-89.9,96,3.962,3.939,3.939,3.936,3.998,3.952,20.269,84.2,14,Waypoint,
35.7347769,-118.6147638,5068.446844605,183.72704,0,0.59048230236,24100,2018-07-05 21:32:55,14,0,23.682,5068.446844605,183.72704,0.3131716,1.00666997972,0,0,-0.671082,313.9, -2.6, -4.9,0,0,1024,1024,1024,1024,314.5,-89.9,96,3.962,3.939,3.939,3.936,3.998,3.952,20.269,84.2,14,Waypoint,
35.7347769,-118.6147639,5070.415348605,185.695544,0,0.59565946788,24200,2018-07-05 21:32:55,14,0,23.682,5070.415348605,185.695544,0.3131716,1.00666997972,0,0,-0.671082,313.6, -2.9, -4.1,0,0,1024,1024,1024,1024,314.5,-90,96,3.962,3.939,3.939,3.936,3.998,3.952,20.269,84.2,14,Waypoint,
35.7347768,-118.6147639,5071.399600605,186.679796,0,0.63145671312,24400,2018-07-05 21:32:55,14,0,23.682,5071.399600605,186.679796,0.3131716,1.00666997972,0,0,-0.671082,313.6, -4, -4.6,0,0,1024,1024,1024,1024,314.5,-90,96,3.962,3.939,3.939,3.936,3.998,3.952,20.269,84.2,14,Waypoint,
35.7347767,-118.6147639,5072.383852605,187.664048,0,0.66732941768,24500,2018-07-05 21:32:55,14,0,23.682,5072.383852605,187.664048,0.3131716,1.00666997972,0,0,-0.671082,313.6, -4.6, -4.4,0,0,1024,1024,1024,1024,314.5,-90,96,3.962,3.939,3.939,3.936,3.998,3.952,20.269,84.2,14,Waypoint,
35.7347767,-118.6147639,5073.368104605,188.6483,0,0.66732941768,24600,2018-07-05 21:32:55,14,0,23.682,5073.368104605,188.6483,0.3131716,1.00666997972,0,0,-0.671082,313.6, -5, -4.5,0,0,1024,1024,1024,1024,314.5,-90,96,3.962,3.939,3.939,3.936,3.998,3.952,20.269,84.2,14,Waypoint,
35.7347766,-118.6147639,5074.352356605,189.632552,0,0.7032644582,24700,2018-07-05 21:32:55,14,0,23.682,5074.352356605,189.632552,0.3131716,1.00666997972,0,0,-0.671082,313.7, -4.7, -4.3,0,0,1024,1024,1024,1024,314.5,-89.9,96,3.962,3.939,3.939,3.936,3.998,3.952,20.269,84.2,14,Waypoint,
35.7347766,-118.6147639,5075.336608605,190.616804,0,0.7032644582,24800,2018-07-05 21:32:55,14,0,23.682,5075.336608605,190.616804,0.3131716,1.00666997972,0,0,-0.671082,313.7, -4.2, -3.7,0,0,1024,1024,1024,1024,314.5,-89.9,96,3.962,3.939,3.939,3.936,3.998,3.952,20.269,84.2,14,Waypoint,
35.7347766,-118.6147639,5076.320860605,191.601056,0,0.7032644582,24900,2018-07-05 21:32:55,14,0,23.682,5076.320860605,191.601056,0.3131716,1.00666997972,0,0,-0.671082,313.6, -3.8, -4.4,0,0,1024,1024,1024,1024,314.5,-89.9,96,3.962,3.939,3.939,3.936,3.998,3.952,20.269,84.2,14,Waypoint,
35.7347767,-118.6147639,5077.305112605,192.585308,0,0.66732941768,25000,2018-07-05 21:32:56,14,0,23.733,5077.305112605,192.585308,0.3131716,1.00666997972,0,0,-0.671082,313.4, -3.5, -4.4,0,0,1024,1024,1024,1024,314.5,-89.9,96,3.975,3.944,3.941,3.941,3.983,3.968,19.684,84.2,14,Waypoint,
35.7347767,-118.6147639,5078.289364605,193.56956,0,0.66732941768,25100,2018-07-05 21:32:56,14,0,23.733,5078.289364605,193.56956,0.3131716,1.00666997972,0,0,-0.671082,313.3, -3.6, -4.6,0,0,1024,1024,1024,1024,314.4,-89.9,96,3.975,3.944,3.941,3.941,3.983,3.968,19.684,84.2,14,Waypoint,
35.7347768,-118.6147638,5079.273616605,194.553812,0,0.6265748232,25200,2018-07-05 21:32:56,14,0,23.733,5079.273616605,194.553812,0.3131716,1.00666997972,0,0,-0.671082,313.3, -3.7, -4.6,0,0,1024,1024,1024,1024,314.5,-89.9,96,3.975,3.944,3.941,3.941,3.983,3.968,19.684,84.2,14,Waypoint,
35.7347769,-118.6147636,5081.242120605,196.522316,0,0.58451117356,25300,2018-07-05 21:32:56,14,0,23.733,5081.242120605,196.522316,0.3131716,1.00666997972,0,0,-0.671082,313.3, -4.4, -5.6,0,0,1024,1024,1024,1024,314.4,-89.9,96,3.975,3.944,3.941,3.941,3.983,3.968,19.684,84.2,14,Waypoint,
35.734777,-118.6147634,5083.210624605,198.49082,0,0.54807416452,25500,2018-07-05 21:32:56,14,0,23.733,5083.210624605,198.49082,0.3131716,1.00666997972,0,0,-0.671082,313.3, -4.6, -6.2,0,0,1024,1024,1024,1024,314.4,-89.9,96,3.975,3.944,3.941,3.941,3.983,3.968,19.684,84.2,14,Waypoint,
35.7347771,-118.6147633,5084.194876605,199.475072,0,0.51421261488,25600,2018-07-05 21:32:56,14,0,23.733,5084.194876605,199.475072,0.3131716,1.00666997972,0,0,-0.671082,313.4, -4.6, -6.1,0,0,1024,1024,1024,1024,314.4,-89.9,96,3.975,3.944,3.941,3.941,3.983,3.968,19.684,84.2,14,Waypoint,
35.7347772,-118.6147632,5085.179128605,200.459324,0,0.48255250888,25700,2018-07-05 21:32:56,14,0,23.733,5085.179128605,200.459324,0.3131716,1.00666997972,0,0,-0.671082,313.5, -4.6, -6,0,0,1024,1024,1024,1024,314.4,-90,96,3.975,3.944,3.941,3.941,3.983,3.968,19.684,84.2,14,Waypoint,
35.7347772,-118.6147632,5086.163380605,201.443576,0,0.48255250888,25800,2018-07-05 21:32:56,14,0,23.733,5086.163380605,201.443576,0.3131716,1.00666997972,0,0,-0.671082,313.7, -4.8, -5.7,0,0,1024,1024,1024,1024,314.4,-89.9,96,3.975,3.944,3.941,3.941,3.983,3.968,19.684,84.2,14,Waypoint,
35.7347773,-118.6147631,5087.147632605,202.427828,0,0.45356300664,25900,2018-07-05 21:32:56,14,0,23.733,5087.147632605,202.427828,0.3131716,1.00666997972,0,0,-0.671082,313.8, -4.4, -5.9,0,0,1024,1024,1024,1024,314.4,-89.9,96,3.975,3.944,3.941,3.941,3.983,3.968,19.684,84.2,14,Waypoint,
35.7347774,-118.6147631,5088.131884605,203.41208,0,0.41845145696,26000,2018-07-05 21:32:57,14,0,23.809,5088.131884605,203.41208,0.3131716,1.00666997972,0,0,-0.671082,313.9, -3.9, -6.2,0,0,1024,1024,1024,1024,314.4,-89.9,96,3.98,3.958,3.949,3.956,3.994,3.976,18.957,86,14,Waypoint,
35.7347775,-118.6147631,5089.116136605,204.396332,0,0.38359909364,26100,2018-07-05 21:32:57,14,0,23.809,5089.116136605,204.396332,0.3131716,1.00666997972,0,0,-0.671082,314, -3.4, -6.4,0,0,1024,1024,1024,1024,314.4,-89.9,96,3.98,3.958,3.949,3.956,3.994,3.976,18.957,86,14,Waypoint,
35.7347776,-118.6147631,5090.100388605,205.380584,0,0.349081376,26200,2018-07-05 21:32:57,14,0,23.809,5090.100388605,205.380584,0.3131716,1.00666997972,0,0,-0.671082,314.2, -3, -6.4,0,0,1024,1024,1024,1024,314.4,-89.9,96,3.98,3.958,3.949,3.956,3.994,3.976,18.957,86,14,Waypoint,
