Latitude, Longitude, Altitude (m), Time, Sats, Speed (m/s), Range (m), Battery (%), Roll (deg), Pitch (deg), Yaw (deg), Images, HD Signal (%), RC Signal (%), Battery Temp (C), Battery Voltage (mV), Battery Current (mA), Battery Energy (mAh), Battery Capacity (mAh), Battery Discharges, flyState, timestamp (Unix), LastUpdate (ms), radioChannel, Rc_elevator, Rc_aileron, Rc_throttle, Rc_rudder, Rc_gyro, Dronetype, Battery_Cell1 (mV), Battery_Cell2 (mV), Battery_Cell3 (mV), Battery_Cell4 (mV), Battery_Cell5 (mV), Battery_Cell6 (mV), Video, isFlying, elapsedTime (ms), gimbalPitch (deg), gimbalRoll (deg), gimbalYaw (deg), VelocityX (m/s), VelocityY (m/s), VelocityZ (m/s), GroundSmear (cm), App Version, Aircraft Name, Aircraft Firmware, Aircraft Serial Number, Battery Serial Number, Battery Lifetime (%), App_Tip, App_Warning, CurrentFlightStartingIndex, CurrentFlightLastVisitedWaypoint, PreviousFlightEndingWaypointIndex
35.7347601, -118.6147778, 0.000, 14:49:44.111, 14, 0.20, 0.05, 100, -1.000, 0.200, -42.300, 376, 100, 100, 27, 25809, -3051, 5339, 5339, 19, 11, 1530827384.111, 68, 0, 1024, 1024, 1024, 1024, 0, 6, 4255, 4275, 4272, 4181, 4235, 4303, 0, 1, 3070, -89.900, 0.000, -42.100, 0.000, -0.200, 0.000, 0.0, MapPilot_2.8.1_04242018, Dendroctonus I, 1.3.1.00, 041DDC1887, 1058163200459, 96, DJI_0382.jpg, Starting Mission from Lat/Long: 35.73476/-118.61478 Camera: Zenmuse X3 - Overlap: 90/90 - Active Connection: No, 15, 15, 15
35.7347601, -118.6147778, 0.000, 14:49:44.141, 14, 0.20, 0.05, 100, -1.000, 0.200, -42.300, 376, 100, 100, 27, 25809, -3051, 5339, 5339, 19, 11, 1530827384.141, 98, 0, 1024, 1024, 1024, 1024, 0, 6, 4255, 4275, 4272, 4181, 4235, 4303, 0, 1, 3100, -89.900, 0.000, -42.100, 0.000, -0.200, 0.000, 0.0, , , , , , 96, , , 15, 15, 15
35.7347601, -118.6147780, 0.000, 14:49:44.241, 14, 0.20, 0.07, 100, -0.500, 1.200, -42.400, 376, 100, 100, 27, 25809, -3051, 5339, 5339, 19, 11, 1530827384.241, 93, 0, 1024, 1024, 1024, 1024, 0, 6, 4255, 4275, 4272, 4181, 4235, 4303, 0, 1, 3200, -89.900, 0.000, -42.100, 0.000, -0.200, -0.200, 0.0, , , , , , 96, , , 15, 15, 15
35.7347601, -118.6147783, 0.000, 14:49:44.341, 14, 0.20, 0.08, 100, -0.100, 1.300, -42.600, 376, 100, 100, 27, 25809, -3051, 5339, 5339, 19, 11, 1530827384.341, 95, 0, 1024, 1024, 1024, 1024, 0, 6, 4255, 4275, 4272, 4181, 4235, 4303, 0, 1, 3300, -89.900, 0.000, -42.100, 0.000, -0.200, -0.300, 0.0, , , , , , 96, , , 15, 15, 15
35.7347600, -118.6147787, 0.000, 14:49:44.441, 15, 0.10, 0.12, 100, 0.900, 0.800, -42.900, 376, 100, 100, 27, 25809, -3051, 5339, 5339, 19, 11, 1530827384.441, 71, 0, 1024, 1024, 1024, 1024, 0, 6, 4255, 4275, 4272, 4181, 4235, 4303, 0, 1, 3400, -89.900, 0.000, -42.100, 0.000, -0.100, -0.300, 0.0, , , , , , 96, , , 15, 15, 15
35.7347599, -118.6147789, 0.100, 14:49:44.541, 15, 0.10, 0.13, 100, 1.100, 0.300, -43.000, 376, 100, 100, 27, 25809, -3051, 5339, 5339, 19, 11, 1530827384.541, 77, 0, 1024, 1024, 1024, 1024, 0, 6, 4255, 4275, 4272, 4181, 4235, 4303, 0, 1, 3500, -90.000, 0.000, -42.100, 0.000, -0.100, -0.400, 0.0, , , , , , 96, , , 15, 15, 15
35.7347599, -118.6147791, 0.100, 14:49:44.641, 15, 0.10, 0.15, 100, 1.500, 0.000, -42.900, 376, 100, 100, 27, 24866, -11812, 5339, 5339, 19, 11, 1530827384.641, 72, 0, 1024, 1024, 1024, 1024, 0, 6, 4126, 4140, 4160, 4085, 4271, 4261, 0, 1, 3600, -89.900, 0.000, -42.100, 0.000, -0.100, -0.400, 0.0, , , , , , 96, , , 15, 15, 15
35.7347598, -118.6147794, 0.200, 14:49:44.741, 15, 0.10, 0.17, 100, 1.600, 0.100, -42.800, 376, 100, 100, 27, 24866, -11812, 5339, 5339, 19, 11, 1530827384.741, 67, 0, 1024, 1024, 1024, 1024, 0, 6, 4126, 4140, 4160, 4085, 4271, 4261, 0, 1, 3700, -89.900, 0.000, -42.100, 0.000, -0.100, -0.400, 0.0, , , , , , 96, , , 15, 15, 15
35.7347598, -118.6147795, 0.200, 14:49:44.841, 15, 0.10, 0.19, 100, 1.500, 0.500, -42.600, 376, 100, 100, 27, 24866, -11812, 5339, 5339, 19, 11, 1530827384.841, 65, 0, 1024, 1024, 1024, 1024, 0, 6, 4126, 4140, 4160, 4085, 4271, 4261, 0, 1, 3800, -89.900, 0.000, -42.100, 0.000, -0.100, -0.500, 0.0, , , , , , 96, , , 15, 15, 15
35.7347597, -118.6147796, 0.300, 14:49:44.941, 15, 0.10, 0.20, 100, 1.300, 0.600, -42.400, 376, 100, 100, 27, 24866, -11812, 5339, 5339, 19, 11, 1530827384.941, 68, 0, 1024, 1024, 1024, 1024, 0, 6, 4126, 4140, 4160, 4085, 4271, 4261, 0, 1, 3900, -89.900, 0.000, -42.100, 0.000, -0.100, -0.500, 0.0, , , , , , 96, , , 15, 15, 15
35.7347597, -118.6147798, 0.300, 14:49:45.040, 16, 0.10, 0.21, 100, 0.900, 0.600, -42.100, 376, 100, 100, 27, 24866, -11812, 5339, 5339, 19, 11, 1530827385.041, 49, 0, 1024, 1024, 1024, 1024, 0, 6, 4126, 4140, 4160, 4085, 4271, 4261, 0, 1, 4000, -89.900, 0.000, -42.100, 0.000, -0.100, -0.500, 0.0, , , , , , 96, , , 15, 15, 15
35.7347597, -118.6147800, 0.400, 14:49:45.141, 16, 0.10, 0.23, 100, 1.200, 0.400, -41.700, 376, 100, 100, 27, 24866, -11812, 5339, 5339, 19, 11, 1530827385.141, 61, 0, 1024, 1024, 1024, 1024, 0, 6, 4126, 4140, 4160, 4085, 4271, 4261, 0, 1, 4100, -89.900, 0.000, -42.100, 0.000, -0.100, -0.500, 0.0, , , , , , 96, , , 15, 15, 15
35.7347596, -118.6147802, 0.500, 14:49:45.240, 14, 0.10, 0.25, 100, 1.600, 0.300, -41.500, 376, 100, 100, 27, 24866, -11812, 5339, 5339, 19, 11, 1530827385.241, 40, 0, 1024, 1024, 1024, 1024, 0, 6, 4126, 4140, 4160, 4085, 4271, 4261, 0, 1, 4200, -89.900, 0.000, -42.100, 0.000, -0.100, -0.500, 0.0, , , , , , 96, , , 15, 15, 15
35.7347595, -118.6147803, 0.500, 14:49:45.341, 14, 0.00, 0.26, 100, 1.800, 0.000, -41.400, 376, 100, 100, 27, 24866, -11812, 5339, 5339, 19, 11, 1530827385.341, 31, 0, 1024, 1024, 1024, 1024, 0, 6, 4126, 4140, 4160, 4085, 4271, 4261, 0, 1, 4300, -90.000, 0.000, -42.100, 0.000, 0.000, -0.500, 0.0, , , , , , 96, , , 15, 15, 15
35.7347594, -118.6147804, 0.600, 14:49:45.441, 14, 0.00, 0.27, 100, 1.800, 0.000, -41.500, 376, 100, 100, 27, 24866, -11812, 5339, 5339, 19, 11, 1530827385.441, 35, 0, 1024, 1024, 1024, 1024, 0, 6, 4126, 4140, 4160, 4085, 4271, 4261, 0, 1, 4400, -89.900, 0.000, -42.100, 0.000, 0.000, -0.400, 0.0, , , , , , 96, , , 15, 15, 15
35.7347593, -118.6147806, 0.600, 14:49:45.541, 14, 0.00, 0.29, 100, 1.800, 0.000, -41.800, 376, 100, 100, 27, 24866, -11812, 5339, 5339, 19, 11, 1530827385.541, 21, 0, 1024, 1024, 1024, 1024, 0, 6, 4126, 4140, 4160, 4085, 4271, 4261, 0, 1, 4500, -89.900, 0.000, -42.100, 0.000, 0.000, -0.400, 0.0, , , , , , 96, , , 15, 15, 15
35.7347593, -118.6147807, 0.700, 14:49:45.641, 14, 0.00, 0.29, 100, 1.700, 0.000, -42.100, 376, 100, 100, 27, 24477, -16331, 5339, 5339, 19, 11, 1530827385.641, 22, 0, 1024, 1024, 1024, 1024, 0, 6, 4058, 4083, 4089, 4069, 4070, 4087, 0, 1, 4600, -89.900, 0.000, -42.100, 0.000, 0.000, -0.400, 0.0, , , , , , 96, , , 15, 15, 15
35.7347593, -118.6147807, 0.700, 14:49:45.741, 14, 0.00, 0.30, 100, 1.800, 0.000, -42.300, 376, 100, 100, 27, 24477, -16331, 5339, 5339, 19, 11, 1530827385.741, 26, 0, 1024, 1024, 1024, 1024, 0, 6, 4058, 4083, 4089, 4069, 4070, 4087, 0, 1, 4700, -89.900, 0.000, -42.100, 0.000, 0.000, -0.500, 0.0, , , , , , 96, , , 15, 15, 15
35.7347592, -118.6147808, 0.800, 14:49:45.841, 14, 0.00, 0.30, 100, 1.800, -0.200, -42.400, 376, 100, 100, 27, 24477, -16331, 5339, 5339, 19, 11, 1530827385.841, 29, 0, 1024, 1024, 1024, 1024, 0, 6, 4058, 4083, 4089, 4069, 4070, 4087, 0, 1, 4800, -90.000, 0.000, -42.100, 0.000, 0.000, -0.400, 0.0, , , , , , 96, , , 15, 15, 15
35.7347591, -118.6147808, 0.900, 14:49:45.941, 14, 0.00, 0.31, 100, 1.700, -0.200, -42.500, 376, 100, 100, 27, 24477, -16331, 5339, 5339, 19, 11, 1530827385.941, 19, 0, 1024, 1024, 1024, 1024, 0, 6, 4058, 4083, 4089, 4069, 4070, 4087, 0, 1, 4900, -89.900, 0.000, -42.100, 0.000, 0.000, -0.400, 0.0, , , , , , 96, , , 15, 15, 15
35.7347590, -118.6147808, 0.900, 14:49:46.043, 14, 0.00, 0.32, 100, 1.900, -0.300, -42.600, 376, 100, 100, 27, 24477, -16331, 5339, 5339, 19, 14, 1530827386.043, 6, 0, 1024, 1024, 1024, 1024, 0, 6, 4058, 4083, 4089, 4069, 4070, 4087, 0, 1, 5002, -89.900, 0.000, -42.100, 0.000, 0.000, -0.500, 0.0, , , , , , 96, , , 15, 15, 15
35.7347590, -118.6147809, 1.000, 14:49:46.141, 14, 0.00, 0.32, 100, 1.900, -0.400, -42.600, 376, 100, 100, 27, 24477, -16331, 5339, 5339, 19, 14, 1530827386.141, 11, 0, 1024, 1024, 1024, 1024, 0, 6, 4058, 4083, 4089, 4069, 4070, 4087, 0, 1, 5100, -90.000, 0.000, -42.100, 0.000, 0.000, -0.300, 0.0, , , , , , 96, , , 15, 15, 15
35.7347589, -118.6147809, 1.000, 14:49:46.241, 14, 0.00, 0.32, 100, 1.300, -0.400, -42.500, 376, 100, 100, 27, 24477, -16331, 5339, 5339, 19, 14, 1530827386.241, 18, 0, 1024, 1024, 1024, 1024, 0, 6, 4058, 4083, 4089, 4069, 4070, 4087, 0, 1, 5200, -90.000, 0.000, -42.100, 0.000, 0.000, -0.200, 0.0, , , , , , 96, , , 15, 15, 15
35.7347589, -118.6147809, 1.000, 14:49:46.341, 14, 0.00, 0.32, 100, 1.300, -0.400, -42.500, 376, 100, 100, 27, 24477, -16331, 5339, 5339, 19, 14, 1530827386.341, 118, 0, 1024, 1024, 1024, 1024, 0, 6, 4058, 4083, 4089, 4069, 4070, 4087, 0, 1, 5300, -90.000, 0.000, -42.100, 0.000, 0.000, -0.200, 0.0, , , , , , 96, , , 15, 15, 15
35.7347589, -118.6147808, 1.000, 14:49:46.441, 14, 0.00, 0.32, 100, 1.200, -0.500, -42.300, 376, 100, 100, 27, 24477, -16331, 5339, 5339, 19, 14, 1530827386.441, 90, 0, 1024, 1024, 1024, 1024, 0, 6, 4058, 4083, 4089, 4069, 4070, 4087, 0, 1, 5400, -90.000, 0.000, -42.100, 0.000, 0.000, -0.300, 0.0, , , , , , 96, , , 15, 15, 15
35.7347589, -118.6147808, 1.100, 14:49:46.541, 14, 0.00, 0.32, 100, 1.100, -0.600, -41.800, 376, 100, 100, 27, 24378, -16154, 5339, 5339, 19, 14, 1530827386.541, 11, 0, 1024, 1024, 1024, 1024, 0, 6, 4058, 4083, 4089, 4069, 4070, 4087, 0, 1, 5500, -90.000, 0.000, -42.100, 0.000, 0.000, -0.400, 0.0, , , , , , 96, , , 15, 15, 15
35.7347589, -118.6147808, 1.100, 14:49:46.641, 14, 0.00, 0.32, 100, 1.100, -0.600, -41.800, 376, 100, 100, 27, 24378, -16154, 5339, 5339, 19, 14, 1530827386.641, 111, 0, 1024, 1024, 1024, 1024, 0, 6, 4058, 4083, 4089, 4069, 4070, 4087, 0, 1, 5600, -90.000, 0.000, -42.100, 0.000, 0.000, -0.400, 0.0, , , , , , 96, , , 15, 15, 15
35.7347588, -118.6147807, 1.200, 14:49:46.741, 14, 0.00, 0.31, 100, 0.800, -0.700, -41.500, 376, 100, 100, 27, 24378, -16154, 5339, 5339, 19, 14, 1530827386.741, 75, 0, 1024, 1024, 1024, 1024, 0, 6, 4042, 4068, 4096, 4054, 4062, 4081, 0, 1, 5700, -90.000, 0.000, -42.100, 0.000, 0.000, -0.600, 0.0, , , , , , 96, , , 15, 15, 15
35.7347588, -118.6147807, 1.200, 14:49:46.841, 14, 0.00, 0.31, 100, 0.900, -0.500, -41.400, 376, 100, 100, 27, 24378, -16154, 5339, 5339, 19, 14, 1530827386.841, 72, 0, 1024, 1024, 1024, 1024, 0, 6, 4042, 4068, 4096, 4054, 4062, 4081, 0, 1, 5800, -89.900, 0.000, -42.100, 0.000, 0.000, -0.700, 0.0, , , , , , 96, , , 15, 15, 15
35.7347587, -118.6147807, 1.300, 14:49:46.941, 14, 0.00, 0.31, 100, 1.000, -0.600, -41.400, 376, 100, 100, 27, 24378, -16154, 5339, 5339, 19, 14, 1530827386.941, 73, 0, 1024, 1024, 1024, 1024, 0, 6, 4042, 4068, 4096, 4054, 4062, 4081, 0, 1, 5900, -89.900, 0.000, -42.100, 0.000, 0.000, -0.900, 0.0, , , , , , 96, , , 15, 15, 15
35.7347587, -118.6147806, 1.400, 14:49:47.041, 14, 0.00, 0.31, 100, 0.900, -0.700, -41.600, 376, 100, 100, 27, 24378, -16154, 5339, 5339, 19, 14, 1530827387.041, 81, 0, 1024, 1024, 1024, 1024, 0, 6, 4042, 4068, 4096, 4054, 4062, 4081, 0, 1, 6000, -90.000, 0.000, -42.100, 0.000, 0.000, -1.100, 0.0, , , , , , 96, , , 15, 15, 15
35.7347585, -118.6147806, 1.700, 14:49:47.141, 14, 0.00, 0.31, 100, 0.500, -0.900, -42.100, 376, 100, 100, 27, 24378, -16154, 5339, 5339, 19, 14, 1530827387.141, 80, 0, 1024, 1024, 1024, 1024, 0, 6, 4042, 4068, 4096, 4054, 4062, 4081, 0, 1, 6100, -90.000, 0.000, -42.100, 0.000, 0.000, -1.500, 0.0, , , , , , 96, , , 15, 15, 15
35.7347584, -118.6147806, 1.900, 14:49:47.241, 13, 0.00, 0.32, 100, 0.400, -1.000, -42.300, 376, 100, 100, 27, 24378, -16154, 5339, 5339, 19, 14, 1530827387.241, 76, 0, 1024, 1024, 1024, 1024, 0, 6, 4042, 4068, 4096, 4054, 4062, 4081, 0, 1, 6200, -89.900, 0.000, -42.100, 0.000, 0.000, -1.800, 0.0, , , , , , 96, , , 15, 15, 15
35.7347583, -118.6147805, 2.100, 14:49:47.341, 13, 0.00, 0.32, 100, 0.800, -1.100, -42.500, 376, 100, 100, 27, 24378, -16154, 5339, 5339, 19, 14, 1530827387.341, 53, 0, 1024, 1024, 1024, 1024, 0, 6, 4042, 4068, 4096, 4054, 4062, 4081, 0, 1, 6300, -90.000, 0.000, -42.100, 0.000, 0.000, -2.100, 0.0, , , , , , 96, , , 15, 15, 15
35.7347582, -118.6147805, 2.300, 14:49:47.441, 14, 0.00, 0.33, 100, 1.300, -1.400, -42.500, 376, 100, 100, 27, 24378, -16154, 5339, 5339, 19, 14, 1530827387.441, 51, 0, 1024, 1024, 1024, 1024, 0, 6, 4042, 4068, 4096, 4054, 4062, 4081, 0, 1, 6400, -90.000, 0.000, -42.100, 0.000, 0.000, -2.300, 0.0, , , , , , 96, , , 15, 15, 15
35.7347582, -118.6147805, 2.600, 14:49:47.541, 14, 0.00, 0.33, 100, 1.600, -1.500, -42.400, 376, 100, 100, 27, 24378, -16154, 5339, 5339, 19, 14, 1530827387.541, 42, 0, 1024, 1024, 1024, 1024, 0, 6, 4042, 4068, 4096, 4054, 4062, 4081, 0, 1, 6500, -90.000, 0.000, -42.100, 0.000, 0.000, -2.500, 0.0, , , , , , 96, , , 15, 15, 15
35.7347581, -118.6147805, 2.900, 14:49:47.641, 14, 0.00, 0.33, 100, 1.600, -1.500, -42.100, 376, 100, 100, 27, 24066, -20248, 5339, 5339, 19, 14, 1530827387.641, 9, 0, 1024, 1024, 1024, 1024, 0, 6, 4042, 4068, 4096, 4054, 4062, 4081, 0, 1, 6600, -89.900, 0.000, -42.100, 0.000, 0.000, -2.700, 0.0, , , , , , 96, , , 15, 15, 15
35.7347581, -118.6147805, 3.200, 14:49:47.741, 14, 0.00, 0.33, 100, 1.500, -1.200, -41.800, 376, 100, 100, 27, 24066, -20248, 5339, 5339, 19, 14, 1530827387.741, 34, 0, 1024, 1024, 1024, 1024, 0, 6, 4042, 4068, 4096, 4054, 4062, 4081, 0, 1, 6700, -89.900, 0.000, -42.100, 0.000, 0.000, -2.900, 0.0, , , , , , 96, , , 15, 15, 15
35.7347580, -118.6147805, 3.500, 14:49:47.841, 13, 0.00, 0.34, 100, 1.500, -1.100, -41.600, 376, 100, 100, 27, 24066, -20248, 5339, 5339, 19, 14, 1530827387.841, 31, 0, 1024, 1024, 1024, 1024, 0, 6, 4042, 4068, 4096, 4054, 4062, 4081, 0, 1, 6800, -89.900, 0.000, -42.100, 0.000, 0.000, -3.000, 0.0, , , , , , 96, , , 15, 15, 15
35.7347579, -118.6147806, 3.800, 14:49:47.941, 13, 0.00, 0.35, 100, 1.500, -1.100, -41.400, 376, 100, 100, 27, 24066, -20248, 5339, 5339, 19, 14, 1530827387.941, 22, 0, 1024, 1024, 1024, 1024, 0, 6, 4042, 4068, 4096, 4054, 4062, 4081, 0, 1, 6900, -90.000, 0.000, -42.100, 0.000, 0.000, -3.100, 0.0, , , , , , 96, , , 15, 15, 15
35.7347578, -118.6147806, 4.100, 14:49:48.040, 13, 0.00, 0.36, 100, 1.400, -1.300, -41.300, 376, 100, 100, 27, 24066, -20248, 5339, 5339, 19, 14, 1530827388.041, 26, 0, 1024, 1024, 1024, 1024, 0, 6, 4042, 4068, 4096, 4054, 4062, 4081, 0, 1, 7000, -89.900, 0.000, -42.100, 0.000, 0.000, -3.200, 0.0, , , , , , 96, , , 15, 15, 15
35.7347578, -118.6147806, 4.500, 14:49:48.141, 13, 0.00, 0.36, 100, 1.200, -1.200, -41.300, 376, 100, 100, 27, 24066, -20248, 5339, 5339, 19, 14, 1530827388.141, 25, 0, 1024, 1024, 1024, 1024, 0, 6, 3983, 4020, 3992, 3969, 3992, 4004, 0, 1, 7100, -89.900, 0.000, -42.100, 0.000, 0.000, -3.200, 0.0, , , , , , 96, , , 15, 15, 15
35.7347578, -118.6147805, 4.800, 14:49:48.240, 15, 0.00, 0.35, 100, 1.000, -1.200, -41.400, 376, 100, 100, 27, 24066, -20248, 5339, 5339, 19, 14, 1530827388.241, 4, 0, 1024, 1024, 1024, 1024, 0, 6, 3983, 4020, 3992, 3969, 3992, 4004, 0, 1, 7200, -89.900, 0.000, -42.100, 0.000, 0.000, -3.200, 0.0, , , , , , 96, , , 15, 15, 15
35.7347578, -118.6147805, 5.100, 14:49:48.344, 15, 0.00, 0.35, 100, 0.800, -1.000, -41.400, 376, 100, 100, 27, 24066, -20248, 5339, 5339, 19, 14, 1530827388.345, 3, 0, 1024, 1024, 1024, 1024, 0, 6, 3983, 4020, 3992, 3969, 3992, 4004, 0, 1, 7304, -89.900, 0.000, -42.100, 0.000, 0.000, -3.200, 0.0, , , , , , 96, , , 15, 15, 15
35.7347578, -118.6147805, 5.100, 14:49:48.440, 15, 0.00, 0.35, 100, 0.800, -1.000, -41.400, 376, 100, 100, 27, 24066, -20248, 5339, 5339, 19, 14, 1530827388.441, 99, 0, 1024, 1024, 1024, 1024, 0, 6, 3983, 4020, 3992, 3969, 3992, 4004, 0, 1, 7400, -89.900, 0.000, -42.100, 0.000, 0.000, -3.200, 0.0, , , , , , 96, , , 15, 15, 15
35.7347579, -118.6147804, 5.500, 14:49:48.540, 15, 0.00, 0.34, 100, 0.600, -0.900, -41.600, 376, 100, 100, 27, 24066, -20248, 5339, 5339, 19, 14, 1530827388.540, 90, 0, 1024, 1024, 1024, 1024, 0, 6, 3983, 4020, 3992, 3969, 3992, 4004, 0, 1, 7499, -89.900, 0.000, -42.100, 0.000, 0.000, -3.200, 0.0, , , , , , 96, , , 15, 15, 15
35.7347580, -118.6147803, 5.800, 14:49:48.640, 15, 0.00, 0.32, 100, 0.200, -1.000, -41.700, 376, 100, 100, 27, 24066, -20248, 5339, 5339, 19, 14, 1530827388.641, 83, 0, 1024, 1024, 1024, 1024, 0, 6, 3983, 4020, 3992, 3969, 3992, 4004, 0, 1, 7600, -89.900, 0.000, -42.100, 0.000, 0.000, -3.200, 0.0, , , , , , 96, , , 15, 15, 15
35.7347583, -118.6147803, 6.500, 14:49:48.740, 14, 0.10, 0.31, 100, -0.100, -0.400, -41.800, 376, 100, 100, 27, 24066, -20248, 5339, 5339, 19, 14, 1530827388.741, 73, 0, 1024, 1024, 1024, 1024, 0, 6, 3983, 4020, 3992, 3969, 3992, 4004, 0, 1, 7700, -89.900, 0.000, -42.100, 0.100, 0.000, -3.100, 0.0, , , , , , 96, , , 15, 15, 15
35.7347583, -118.6147803, 6.500, 14:49:48.840, 14, 0.10, 0.31, 100, -0.100, -0.400, -41.800, 376, 100, 100, 27, 24066, -20248, 5339, 5339, 19, 14, 1530827388.841, 173, 0, 1024, 1024, 1024, 1024, 0, 6, 3983, 4020, 3992, 3969, 3992, 4004, 0, 1, 7800, -89.900, 0.000, -42.100, 0.100, 0.000, -3.100, 0.0, , , , , , 96, , , 15, 15, 15
35.7347584, -118.6147803, 6.800, 14:49:48.940, 14, 0.10, 0.29, 100, -0.100, 0.000, -41.800, 376, 100, 100, 27, 24066, -20248, 5339, 5339, 19, 14, 1530827388.941, 80, 0, 1024, 1024, 1024, 1024, 0, 6, 3983, 4020, 3992, 3969, 3992, 4004, 0, 1, 7900, -89.900, 0.000, -42.100, 0.100, 0.000, -3.100, 0.0, , , , , , 96, , , 15, 15, 15
35.7347586, -118.6147802, 7.200, 14:49:49.040, 14, 0.10, 0.28, 100, -0.400, 0.300, -41.600, 376, 100, 100, 27, 24066, -20248, 5339, 5339, 19, 14, 1530827389.041, 81, 0, 1024, 1024, 1024, 1024, 0, 6, 3983, 4020, 3992, 3969, 3992, 4004, 0, 1, 8000, -89.900, 0.000, -42.100, 0.100, 0.000, -3.100, 0.0, , , , , , 96, , , 15, 15, 15
35.7347589, -118.6147801, 7.800, 14:49:49.140, 15, 0.00, 0.25, 100, -1.500, 0.100, -41.600, 376, 100, 100, 27, 23833, -22183, 5339, 5339, 19, 14, 1530827389.141, 72, 0, 1024, 1024, 1024, 1024, 0, 6, 3951, 3977, 4000, 3974, 3985, 4002, 0, 1, 8100, -89.900, 0.000, -42.100, 0.000, 0.000, -3.100, 0.0, , , , , , 96, , , 15, 15, 15
35.7347591, -118.6147799, 8.100, 14:49:49.240, 15, 0.00, 0.24, 100, -1.700, 0.000, -41.700, 376, 100, 100, 27, 23833, -22183, 5339, 5339, 19, 14, 1530827389.241, 78, 0, 1024, 1024, 1024, 1024, 0, 6, 3951, 3977, 4000, 3974, 3985, 4002, 0, 1, 8200, -89.900, 0.000, -42.100, 0.000, 0.000, -3.100, 0.0, , , , , , 96, , , 15, 15, 15
35.7347592, -118.6147798, 8.500, 14:49:49.340, 15, 0.00, 0.22, 100, -1.700, -0.200, -41.800, 376, 100, 100, 27, 23833, -22183, 5339, 5339, 19, 14, 1530827389.341, 70, 0, 1024, 1024, 1024, 1024, 0, 6, 3951, 3977, 4000, 3974, 3985, 4002, 0, 1, 8300, -89.900, 0.000, -42.100, 0.000, 0.000, -3.100, 0.0, , , , , , 96, , , 15, 15, 15
35.7347593, -118.6147797, 8.800, 14:49:49.440, 16, 0.00, 0.21, 100, -1.600, -0.400, -41.800, 376, 100, 100, 27, 23833, -22183, 5339, 5339, 19, 14, 1530827389.441, 55, 0, 1024, 1024, 1024, 1024, 0, 6, 3951, 3977, 4000, 3974, 3985, 4002, 0, 1, 8400, -89.900, 0.000, -42.100, 0.000, 0.000, -3.000, 0.0, , , , , , 96, , , 15, 15, 15
35.7347594, -118.6147797, 9.100, 14:49:49.540, 16, 0.00, 0.20, 100, -1.300, -0.700, -41.800, 376, 100, 100, 27, 23833, -22183, 5339, 5339, 19, 14, 1530827389.541, 46, 0, 1024, 1024, 1024, 1024, 0, 6, 3951, 3977, 4000, 3974, 3985, 4002, 0, 1, 8500, -90.000, 0.000, -42.100, 0.000, 0.000, -3.000, 0.0, , , , , , 96, , , 15, 15, 15
35.7347595, -118.6147796, 9.400, 14:49:49.640, 16, 0.00, 0.20, 100, -1.000, -0.700, -41.800, 376, 100, 100, 27, 23833, -22183, 5339, 5339, 19, 14, 1530827389.641, 60, 0, 1024, 1024, 1024, 1024, 0, 6, 3951, 3977, 4000, 3974, 3985, 4002, 0, 1, 8600, -90.000, 0.000, -42.100, 0.000, 0.000, -3.000, 0.0, , , , , , 96, , , 15, 15, 15
35.7347595, -118.6147796, 9.700, 14:49:49.740, 16, 0.00, 0.19, 100, -0.900, -0.700, -41.800, 376, 100, 100, 27, 23833, -22183, 5339, 5339, 19, 14, 1530827389.741, 52, 0, 1024, 1024, 1024, 1024, 0, 6, 3951, 3977, 4000, 3974, 3985, 4002, 0, 1, 8700, -89.900, 0.000, -42.100, 0.000, 0.000, -3.000, 0.0, , , , , , 96, , , 15, 15, 15
35.7347596, -118.6147795, 10.000, 14:49:49.840, 16, 0.00, 0.19, 100, -0.700, -0.600, -41.800, 376, 100, 100, 27, 23833, -22183, 5339, 5339, 19, 14, 1530827389.840, 38, 0, 1024, 1024, 1024, 1024, 0, 6, 3951, 3977, 4000, 3974, 3985, 4002, 0, 1, 8799, -89.900, 0.000, -42.100, 0.000, 0.000, -3.000, 0.0, , , , , , 96, , , 15, 15, 15
35.7347597, -118.6147795, 10.400, 14:49:49.940, 16, 0.00, 0.19, 100, -0.700, -0.400, -41.800, 376, 100, 100, 27, 23833, -22183, 5339, 5339, 19, 14, 1530827389.941, 52, 0, 1024, 1024, 1024, 1024, 0, 6, 3951, 3977, 4000, 3974, 3985, 4002, 0, 1, 8900, -89.900, 0.000, -42.100, 0.000, 0.000, -3.000, 0.0, , , , , , 96, , , 15, 15, 15
35.7347598, -118.6147795, 10.700, 14:49:50.040, 16, 0.00, 0.19, 100, -0.500, -0.100, -41.500, 376, 100, 100, 27, 23833, -22183, 5339, 5339, 19, 14, 1530827390.040, 43, 0, 1024, 1024, 1024, 1024, 0, 6, 3951, 3977, 4000, 3974, 3985, 4002, 0, 1, 8999, -89.900, 0.000, -42.100, 0.000, 0.000, -3.000, 0.0, , , , , , 96, , , 15, 15, 15
35.7347599, -118.6147795, 11.000, 14:49:50.140, 16, 0.00, 0.19, 100, -0.500, 0.000, -41.200, 376, 100, 100, 27, 24082, -17822, 5232, 5339, 19, 14, 1530827390.141, 49, 0, 1024, 1024, 1024, 1024, 0, 6, 3994, 4022, 4022, 4009, 4013, 4031, 0, 1, 9100, -89.900, 0.000, -42.100, 0.000, 0.000, -3.000, 0.0, , , , , , 96, , , 15, 15, 15
35.7347599, -118.6147794, 11.300, 14:49:50.240, 16, 0.00, 0.18, 100, -0.600, -0.400, -41.100, 376, 100, 100, 27, 24082, -17822, 5232, 5339, 19, 14, 1530827390.241, 39, 0, 1024, 1024, 1024, 1024, 0, 6, 3994, 4022, 4022, 4009, 4013, 4031, 0, 1, 9199, -89.900, 0.000, -42.100, 0.000, 0.000, -3.000, 0.0, , , , , , 96, , , 15, 15, 15
35.7347600, -118.6147794, 11.600, 14:49:50.340, 16, 0.00, 0.17, 100, -1.200, -0.700, -41.300, 376, 100, 100, 27, 24082, -17822, 5232, 5339, 19, 14, 1530827390.341, 31, 0, 1024, 1024, 1024, 1024, 0, 6, 3994, 4022, 4022, 4009, 4013, 4031, 0, 1, 9300, -90.000, 0.000, -42.100, 0.000, 0.000, -3.000, 0.0, , , , , , 96, , , 15, 15, 15
35.7347601, -118.6147792, 11.900, 14:49:50.440, 16, 0.00, 0.17, 100, -2.000, -0.900, -41.500, 376, 100, 100, 27, 24082, -17822, 5232, 5339, 19, 14, 1530827390.440, 21, 0, 1024, 1024, 1024, 1024, 0, 6, 3994, 4022, 4022, 4009, 4013, 4031, 0, 1, 9399, -90.000, 0.000, -42.100, 0.000, 0.000, -3.000, 0.0, , , , , , 96, , , 15, 15, 15
35.7347601, -118.6147791, 12.200, 14:49:50.540, 16, 0.00, 0.16, 98, -2.200, -1.200, -41.800, 376, 100, 100, 27, 24082, -17822, 5232, 5339, 19, 14, 1530827390.541, 26, 0, 1024, 1024, 1024, 1024, 0, 6, 3994, 4022, 4022, 4009, 4013, 4031, 0, 1, 9499, -90.000, 0.000, -42.100, 0.000, 0.000, -3.000, 0.0, , , , , , 96, , , 15, 15, 15
35.7347601, -118.6147790, 12.500, 14:49:50.640, 16, 0.00, 0.15, 98, -2.000, -1.400, -41.900, 376, 100, 100, 27, 24082, -17822, 5232, 5339, 19, 14, 1530827390.640, 29, 0, 1024, 1024, 1024, 1024, 0, 6, 3994, 4022, 4022, 4009, 4013, 4031, 0, 1, 9599, -90.000, 0.000, -42.100, 0.000, 0.000, -3.000, 0.0, , , , , , 96, , , 15, 15, 15
35.7347601, -118.6147790, 12.800, 14:49:50.742, 16, 0.00, 0.14, 98, -2.100, -1.600, -42.000, 376, 100, 100, 27, 24082, -17822, 5232, 5339, 19, 14, 1530827390.742, 1, 0, 1024, 1024, 1024, 1024, 0, 6, 3994, 4022, 4022, 4009, 4013, 4031, 0, 1, 9701, -90.000, 0.000, -42.100, 0.000, 0.000, -3.000, 0.0, , , , , , 96, , , 15, 15, 15
35.7347601, -118.6147789, 13.200, 14:49:50.841, 16, 0.00, 0.13, 98, -2.000, -2.000, -42.000, 376, 100, 100, 27, 24082, -17822, 5232, 5339, 19, 14, 1530827390.841, 2, 0, 1024, 1024, 1024, 1024, 0, 6, 3994, 4022, 4022, 4009, 4013, 4031, 0, 1, 9800, -89.900, 0.000, -42.100, 0.000, 0.000, -3.000, 0.0, , , , , , 96, , , 15, 15, 15
35.7347601, -118.6147788, 13.500, 14:49:50.940, 16, 0.00, 0.12, 98, -2.000, -2.500, -41.900, 376, 100, 100, 27, 24082, -17822, 5232, 5339, 19, 14, 1530827390.940, 8, 0, 1024, 1024, 1024, 1024, 0, 6, 3994, 4022, 4022, 4009, 4013, 4031, 0, 1, 9899, -89.900, 0.000, -42.100, 0.000, 0.000, -3.000, 0.0, , , , , , 96, , , 15, 15, 15
35.7347601, -118.6147787, 13.800, 14:49:51.045, 16, 0.00, 0.11, 98, -2.100, -2.600, -41.800, 376, 100, 100, 27, 24082, -17822, 5232, 5339, 19, 14, 1530827391.046, 6, 0, 1024, 1024, 1024, 1024, 0, 6, 3994, 4022, 4022, 4009, 4013, 4031, 0, 1, 10005, -89.900, 0.000, -42.100, 0.000, 0.000, -3.000, 0.0, , , , , , 96, , , 15, 15, 15
35.7347601, -118.6147785, 14.100, 14:49:51.145, 16, 0.00, 0.10, 98, -2.400, -2.500, -41.600, 376, 100, 100, 27, 24033, -18574, 5232, 5339, 19, 14, 1530827391.146, 6, 0, 1024, 1024, 1024, 1024, 0, 6, 3981, 4010, 4019, 3998, 3999, 4027, 0, 1, 10105, -89.900, 0.000, -42.100, 0.000, 0.000, -3.000, 0.0, , , , , , 96, , , 15, 15, 15
35.7347601, -118.6147785, 14.100, 14:49:51.240, 16, 0.00, 0.10, 98, -2.400, -2.500, -41.600, 376, 100, 100, 27, 24033, -18574, 5232, 5339, 19, 14, 1530827391.240, 101, 0, 1024, 1024, 1024, 1024, 0, 6, 3981, 4010, 4019, 3998, 3999, 4027, 0, 1, 10199, -89.900, 0.000, -42.100, 0.000, 0.000, -3.000, 0.0, , , , , , 96, , , 15, 15, 15
35.7347601, -118.6147784, 14.500, 14:49:51.340, 16, 0.00, 0.09, 98, -2.600, -2.400, -41.300, 376, 100, 100, 27, 24033, -18574, 5232, 5339, 19, 14, 1530827391.340, 88, 0, 1024, 1024, 1024, 1024, 0, 6, 3981, 4010, 4019, 3998, 3999, 4027, 0, 1, 10299, -89.900, 0.000, -42.100, 0.000, 0.000, -2.900, 0.0, , , , , , 96, , , 15, 15, 15
35.7347600, -118.6147782, 15.100, 14:49:51.440, 16, 0.00, 0.08, 98, -2.900, -2.800, -41.100, 376, 100, 100, 27, 24033, -18574, 5232, 5339, 19, 14, 1530827391.440, 45, 0, 1024, 1024, 1024, 1024, 0, 6, 3981, 4010, 4019, 3998, 3999, 4027, 0, 1, 10399, -89.900, 0.000, -42.100, 0.000, 0.000, -2.900, 0.0, , , , , , 96, , , 15, 15, 15
35.7347600, -118.6147781, 15.400, 14:49:51.540, 16, 0.00, 0.07, 98, -3.000, -3.100, -41.000, 376, 100, 100, 27, 24033, -18574, 5232, 5339, 19, 14, 1530827391.541, 51, 0, 1024, 1024, 1024, 1024, 0, 6, 3981, 4010, 4019, 3998, 3999, 4027, 0, 1, 10499, -89.900, 0.000, -42.100, 0.000, 0.000, -2.800, 0.0, , , , , , 96, , , 15, 15, 15
35.7347600, -118.6147780, 15.700, 14:49:51.640, 16, 0.00, 0.06, 98, -2.900, -3.200, -41.000, 376, 100, 100, 27, 24033, -18574, 5232, 5339, 19, 14, 1530827391.640, 58, 0, 1024, 1024, 1024, 1024, 0, 6, 3981, 4010, 4019, 3998, 3999, 4027, 0, 1, 10599, -89.900, 0.000, -42.100, 0.000, 0.000, -2.800, 0.0, , , , , , 96, , , 15, 15, 15
35.7347600, -118.6147779, 16.000, 14:49:51.740, 16, 0.00, 0.05, 98, -3.100, -3.100, -41.200, 376, 100, 98, 27, 24033, -18574, 5232, 5339, 19, 14, 1530827391.740, 60, 0, 1024, 1024, 1024, 1024, 0, 6, 3981, 4010, 4019, 3998, 3999, 4027, 0, 1, 10699, -89.900, 0.000, -42.100, 0.000, 0.000, -2.800, 0.0, , , , , , 96, , , 15, 15, 15
35.7347600, -118.6147778, 16.300, 14:49:51.840, 16, 0.00, 0.05, 98, -3.400, -2.800, -41.500, 376, 100, 98, 27, 24033, -18574, 5232, 5339, 19, 14, 1530827391.840, 58, 0, 1024, 1024, 1024, 1024, 0, 6, 3981, 4010, 4019, 3998, 3999, 4027, 0, 1, 10799, -89.900, 0.000, -42.100, 0.000, 0.000, -2.800, 0.0, , , , , , 96, , , 15, 15, 15
35.7347601, -118.6147778, 16.500, 14:49:51.940, 16, 0.00, 0.05, 98, -3.700, -2.100, -41.800, 376, 100, 98, 27, 24033, -18574, 5232, 5339, 19, 14, 1530827391.940, 58, 0, 1024, 1024, 1024, 1024, 0, 6, 3981, 4010, 4019, 3998, 3999, 4027, 0, 1, 10899, -89.900, 0.000, -42.100, 0.000, 0.000, -2.700, 0.0, , , , , , 96, , , 15, 15, 15
35.7347602, -118.6147778, 16.800, 14:49:52.040, 16, 0.00, 0.06, 98, -3.600, -1.200, -42.100, 376, 100, 98, 27, 24033, -18574, 5232, 5339, 19, 14, 1530827392.040, 35, 0, 1024, 1024, 1024, 1024, 0, 6, 3981, 4010, 4019, 3998, 3999, 4027, 0, 1, 10999, -89.900, 0.000, -42.100, 0.000, 0.000, -2.800, 0.0, , , , , , 96, , , 15, 15, 15
35.7347602, -118.6147778, 17.100, 14:49:52.140, 16, 0.00, 0.06, 98, -3.400, -0.900, -42.400, 376, 100, 98, 27, 24070, -17738, 5232, 5339, 19, 14, 1530827392.140, 40, 0, 1024, 1024, 1024, 1024, 0, 6, 3985, 4025, 4011, 4006, 4008, 4030, 0, 1, 11099, -89.900, 0.000, -42.100, 0.000, 0.000, -2.800, 0.0, , , , , , 96, , , 15, 15, 15
35.7347602, -118.6147778, 17.400, 14:49:52.240, 16, 0.00, 0.06, 98, -3.000, -1.000, -42.500, 376, 100, 98, 27, 24070, -17738, 5232, 5339, 19, 14, 1530827392.240, 35, 0, 1024, 1024, 1024, 1024, 0, 6, 3985, 4025, 4011, 4006, 4008, 4030, 0, 1, 11199, -89.900, 0.000, -42.100, 0.000, 0.000, -2.800, 0.0, , , , , , 96, , , 15, 15, 15
35.7347602, -118.6147778, 17.600, 14:49:52.340, 16, 0.00, 0.06, 98, -3.000, -1.100, -42.400, 376, 100, 98, 27, 24070, -17738, 5232, 5339, 19, 14, 1530827392.340, 41, 0, 1024, 1024, 1024, 1024, 0, 6, 3985, 4025, 4011, 4006, 4008, 4030, 0, 1, 11299, -89.900, 0.000, -42.100, 0.000, 0.000, -2.800, 0.0, , , , , , 96, , , 15, 15, 15
35.7347602, -118.6147778, 17.900, 14:49:52.440, 16, 0.00, 0.06, 98, -2.900, -1.800, -42.300, 376, 100, 98, 27, 24070, -17738, 5232, 5339, 19, 14, 1530827392.441, 45, 0, 1024, 1024, 1024, 1024, 0, 6, 3985, 4025, 4011, 4006, 4008, 4030, 0, 1, 11400, -90.000, 0.000, -42.100, 0.000, 0.000, -2.800, 0.0, , , , , , 96, , , 15, 15, 15
35.7347601, -118.6147778, 18.200, 14:49:52.540, 16, 0.00, 0.05, 98, -2.900, -2.400, -42.100, 376, 100, 98, 27, 24070, -17738, 5232, 5339, 19, 14, 1530827392.540, 35, 0, 1024, 1024, 1024, 1024, 0, 6, 3985, 4025, 4011, 4006, 4008, 4030, 0, 1, 11499, -90.000, 0.000, -42.100, 0.000, 0.000, -2.800, 0.0, , , , , , 96, , , 15, 15, 15
35.7347600, -118.6147778, 18.500, 14:49:52.640, 16, 0.00, 0.04, 98, -2.700, -2.800, -42.000, 376, 100, 98, 27, 24070, -17738, 5232, 5339, 19, 14, 1530827392.640, 38, 0, 1024, 1024, 1024, 1024, 0, 6, 3985, 4025, 4011, 4006, 4008, 4030, 0, 1, 11599, -89.900, 0.000, -42.100, 0.000, 0.000, -2.800, 0.0, , , , , , 96, , , 15, 15, 15
35.7347600, -118.6147778, 18.700, 14:49:52.740, 16, 0.00, 0.04, 98, -2.600, -3.000, -41.900, 376, 100, 98, 27, 24070, -17738, 5232, 5339, 19, 14, 1530827392.740, 32, 0, 1024, 1024, 1024, 1024, 0, 6, 3985, 4025, 4011, 4006, 4008, 4030, 0, 1, 11699, -89.900, 0.000, -42.100, 0.000, 0.000, -2.800, 0.0, , , , , , 96, , , 15, 15, 15
35.7347599, -118.6147778, 19.000, 14:49:52.840, 16, 0.00, 0.03, 98, -2.500, -3.200, -41.700, 376, 100, 98, 27, 24070, -17738, 5232, 5339, 19, 14, 1530827392.840, 25, 0, 1024, 1024, 1024, 1024, 0, 6, 3985, 4025, 4011, 4006, 4008, 4030, 0, 1, 11799, -89.900, 0.000, -42.100, 0.000, 0.000, -2.900, 0.0, , , , , , 96, , , 15, 15, 15
35.7347598, -118.6147778, 19.300, 14:49:52.940, 16, 0.00, 0.03, 98, -2.400, -3.200, -41.700, 376, 100, 98, 27, 24070, -17738, 5232, 5339, 19, 14, 1530827392.940, 17, 0, 1024, 1024, 1024, 1024, 0, 6, 3985, 4025, 4011, 4006, 4008, 4030, 0, 1, 11899, -89.900, 0.000, -42.100, 0.000, 0.000, -2.900, 0.0, , , , , , 96, , , 15, 15, 15
35.7347598, -118.6147778, 19.600, 14:49:53.040, 16, 0.00, 0.03, 98, -2.300, -2.800, -41.800, 376, 100, 98, 27, 23999, -18221, 5232, 5339, 19, 14, 1530827393.040, 8, 0, 1024, 1024, 1024, 1024, 0, 6, 3985, 4025, 4011, 4006, 4008, 4030, 0, 1, 11999, -89.900, 0.000, -42.100, 0.000, 0.000, -2.900, 0.0, , , , , , 96, , , 15, 15, 15
35.7347597, -118.6147779, 19.900, 14:49:53.140, 16, 0.00, 0.04, 98, -2.000, -2.600, -41.900, 376, 100, 98, 27, 23999, -18221, 5232, 5339, 19, 14, 1530827393.140, 22, 0, 1024, 1024, 1024, 1024, 0, 6, 3985, 4025, 4011, 4006, 4008, 4030, 0, 1, 12099, -89.900, 0.000, -42.100, 0.000, 0.000, -2.900, 0.0, , , , , , 96, , , 15, 15, 15
35.7347596, -118.6147780, 20.200, 14:49:53.240, 16, 0.00, 0.05, 98, -1.800, -2.600, -42.000, 376, 100, 98, 27, 23999, -18221, 5232, 5339, 19, 14, 1530827393.241, 19, 0, 1024, 1024, 1024, 1024, 0, 6, 3985, 4025, 4011, 4006, 4008, 4030, 0, 1, 12200, -89.900, 0.000, -42.100, 0.000, 0.000, -2.900, 0.0, , , , , , 96, , , 15, 15, 15
35.7347596, -118.6147780, 20.500, 14:49:53.341, 16, 0.00, 0.06, 98, -1.900, -2.300, -42.000, 376, 100, 98, 27, 23999, -18221, 5232, 5339, 19, 14, 1530827393.341, 11, 0, 1024, 1024, 1024, 1024, 0, 6, 3985, 4025, 4011, 4006, 4008, 4030, 0, 1, 12300, -89.900, 0.000, -42.100, 0.000, 0.000, -3.000, 0.0, , , , , , 96, , , 15, 15, 15
35.7347595, -118.6147781, 20.700, 14:49:53.440, 16, 0.00, 0.07, 98, -2.000, -2.100, -41.900, 376, 100, 98, 27, 23999, -18221, 5232, 5339, 19, 14, 1530827393.440, 14, 0, 1024, 1024, 1024, 1024, 0, 6, 3985, 4025, 4011, 4006, 4008, 4030, 0, 1, 12399, -89.900, 0.000, -42.100, 0.000, 0.000, -3.000, 0.0, , , , , , 96, , , 15, 15, 15
35.7347594, -118.6147782, 21.000, 14:49:53.540, 16, 0.00, 0.08, 98, -1.500, -2.300, -41.800, 376, 100, 98, 27, 23999, -18221, 5232, 5339, 19, 14, 1530827393.540, 16, 0, 1024, 1024, 1024, 1024, 0, 6, 3963, 3997, 3996, 3990, 3982, 4017, 0, 1, 12499, -89.900, 0.000, -42.100, 0.000, 0.000, -3.000, 0.0, , , , , , 96, , , 15, 15, 15
35.7347593, -118.6147782, 21.300, 14:49:53.640, 16, 0.00, 0.08, 98, -1.500, -2.600, -41.800, 376, 100, 99, 27, 23999, -18221, 5232, 5339, 19, 14, 1530827393.640, 13, 0, 1024, 1024, 1024, 1024, 0, 6, 3963, 3997, 3996, 3990, 3982, 4017, 0, 1, 12599, -90.000, 0.000, -42.100, 0.000, 0.000, -3.000, 0.0, , , , , , 96, , , 15, 15, 15
35.7347593, -118.6147783, 21.600, 14:49:53.740, 16, 0.00, 0.09, 98, -1.700, -2.800, -41.800, 376, 100, 99, 27, 23999, -18221, 5232, 5339, 19, 14, 1530827393.741, 4, 0, 1024, 1024, 1024, 1024, 0, 6, 3963, 3997, 3996, 3990, 3982, 4017, 0, 1, 12700, -90.000, 0.000, -42.100, 0.000, 0.000, -3.000, 0.0, , , , , , 96, , , 15, 15, 15
35.7347593, -118.6147783, 21.900, 14:49:53.849, 16, 0.00, 0.09, 98, -1.900, -2.600, -41.800, 376, 100, 99, 27, 23999, -18221, 5232, 5339, 19, 14, 1530827393.849, 4, 0, 1024, 1024, 1024, 1024, 0, 6, 3963, 3997, 3996, 3990, 3982, 4017, 0, 1, 12808, -89.900, 0.000, -42.100, 0.000, 0.000, -3.100, 0.0, , , , , , 96, , , 15, 15, 15
35.7347593, -118.6147783, 21.900, 14:49:53.940, 16, 0.00, 0.09, 98, -1.900, -2.600, -41.800, 376, 100, 99, 27, 23999, -18221, 5232, 5339, 19, 14, 1530827393.941, 96, 0, 1024, 1024, 1024, 1024, 0, 6, 3963, 3997, 3996, 3990, 3982, 4017, 0, 1, 12900, -89.900, 0.000, -42.100, 0.000, 0.000, -3.100, 0.0, , , , , , 96, , , 15, 15, 15
35.7347593, -118.6147783, 22.200, 14:49:54.040, 16, 0.00, 0.09, 98, -1.900, -2.400, -41.900, 376, 100, 99, 27, 23999, -18221, 5232, 5339, 19, 14, 1530827394.041, 96, 0, 1024, 1024, 1024, 1024, 0, 6, 3963, 3997, 3996, 3990, 3982, 4017, 0, 1, 13000, -89.900, 0.000, -42.100, 0.000, 0.000, -3.100, 0.0, , , , , , 96, , , 15, 15, 15
35.7347592, -118.6147783, 22.500, 14:49:54.140, 16, 0.00, 0.10, 98, -2.100, -2.400, -41.900, 376, 100, 99, 28, 23999, -18221, 5232, 5339, 19, 14, 1530827394.141, 90, 0, 1024, 1024, 1024, 1024, 0, 6, 3963, 3997, 3996, 3990, 3982, 4017, 0, 1, 13100, -89.900, 0.000, -42.100, 0.000, 0.000, -3.100, 0.0, , , , , , 96, , , 15, 15, 15
35.7347592, -118.6147784, 22.800, 14:49:54.240, 16, 0.00, 0.10, 98, -2.100, -2.500, -41.900, 376, 100, 99, 28, 23999, -18221, 5232, 5339, 19, 14, 1530827394.241, 80, 0, 1024, 1024, 1024, 1024, 0, 6, 3963, 3997, 3996, 3990, 3982, 4017, 0, 1, 13200, -89.900, 0.000, -42.100, 0.000, 0.000, -3.100, 0.0, , , , , , 96, , , 15, 15, 15
35.7347591, -118.6147784, 23.500, 14:49:54.340, 16, 0.00, 0.11, 98, -1.900, -2.900, -41.700, 376, 100, 99, 28, 23999, -18221, 5232, 5339, 19, 14, 1530827394.340, 78, 0, 1024, 1024, 1024, 1024, 0, 6, 3963, 3997, 3996, 3990, 3982, 4017, 0, 1, 13299, -90.000, 0.000, -42.100, 0.000, 0.000, -3.100, 0.0, , , , , , 96, , , 15, 15, 15
35.7347591, -118.6147784, 23.800, 14:49:54.440, 16, 0.00, 0.11, 98, -1.900, -3.200, -41.600, 376, 100, 99, 28, 23999, -18221, 5232, 5339, 19, 14, 1530827394.440, 85, 0, 1024, 1024, 1024, 1024, 0, 6, 3963, 3997, 3996, 3990, 3982, 4017, 0, 1, 13399, -89.900, 0.000, -42.100, 0.000, 0.000, -3.200, 0.0, , , , , , 96, , , 15, 15, 15
35.7347591, -118.6147784, 24.100, 14:49:54.540, 16, 0.00, 0.11, 98, -2.300, -3.200, -41.500, 376, 100, 99, 28, 23999, -18221, 5232, 5339, 19, 14, 1530827394.540, 62, 0, 1024, 1024, 1024, 1024, 0, 6, 3963, 3997, 3996, 3990, 3982, 4017, 0, 1, 13499, -89.900, 0.000, -42.100, 0.000, 0.000, -3.100, 0.0, , , , , , 96, , , 15, 15, 15
35.7347591, -118.6147784, 24.500, 14:49:54.641, 16, 0.00, 0.11, 98, -2.700, -3.000, -41.500, 376, 100, 99, 28, 23880, -19359, 5232, 5339, 19, 14, 1530827394.641, 68, 0, 1024, 1024, 1024, 1024, 0, 6, 3962, 3991, 3984, 3975, 3972, 3998, 0, 1, 13600, -89.900, 0.000, -42.100, 0.000, 0.000, -3.100, 0.0, , , , , , 96, , , 15, 15, 15
35.7347591, -118.6147784, 24.800, 14:49:54.740, 16, 0.00, 0.11, 98, -2.900, -2.700, -41.500, 376, 100, 100, 28, 23880, -19359, 5232, 5339, 19, 14, 1530827394.741, 69, 0, 1024, 1024, 1024, 1024, 0, 6, 3962, 3991, 3984, 3975, 3972, 3998, 0, 1, 13700, -89.900, 0.000, -42.100, 0.000, 0.000, -3.100, 0.0, , , , , , 96, , , 15, 15, 15
35.7347591, -118.6147784, 24.800, 14:49:54.841, 16, 0.00, 0.11, 98, -2.900, -2.700, -41.500, 376, 100, 100, 28, 23880, -19359, 5232, 5339, 19, 14, 1530827394.841, 169, 0, 1024, 1024, 1024, 1024, 0, 6, 3962, 3991, 3984, 3975, 3972, 3998, 0, 1, 13800, -90.000, 0.000, -42.100, 0.000, 0.000, -3.100, 0.0, , , , , , 96, , , 15, 15, 15
35.7347591, -118.6147783, 25.500, 14:49:54.949, 16, 0.00, 0.10, 98, -3.200, -3.100, -41.600, 376, 100, 100, 28, 23880, -19359, 5232, 5339, 19, 14, 1530827394.949, 54, 0, 1024, 1024, 1024, 1024, 0, 6, 3962, 3991, 3984, 3975, 3972, 3998, 0, 1, 13908, -89.900, 0.000, -42.100, 0.000, 0.000, -3.100, 0.0, , , , , , 96, , , 15, 15, 15
35.7347592, -118.6147783, 25.800, 14:49:55.040, 16, 0.00, 0.10, 98, -3.200, -3.100, -41.700, 376, 100, 100, 28, 23880, -19359, 5232, 5339, 19, 14, 1530827395.041, 52, 0, 1024, 1024, 1024, 1024, 0, 6, 3962, 3991, 3984, 3975, 3972, 3998, 0, 1, 14000, -89.900, 0.000, -42.100, 0.000, 0.000, -3.100, 0.0, , , , , , 96, , , 15, 15, 15
35.7347592, -118.6147782, 26.100, 14:49:55.140, 16, 0.00, 0.10, 98, -3.300, -3.000, -41.900, 376, 100, 100, 28, 23880, -19359, 5232, 5339, 19, 14, 1530827395.140, 52, 0, 1024, 1024, 1024, 1024, 0, 6, 3962, 3991, 3984, 3975, 3972, 3998, 0, 1, 14099, -89.900, 0.000, -42.100, 0.000, 0.000, -3.100, 0.0, , , , , , 96, , , 15, 15, 15
35.7347592, -118.6147782, 26.500, 14:49:55.240, 16, 0.00, 0.09, 98, -3.400, -2.800, -41.900, 376, 100, 99, 28, 23880, -19359, 5232, 5339, 19, 14, 1530827395.240, 47, 0, 1024, 1024, 1024, 1024, 0, 6, 3962, 3991, 3984, 3975, 3972, 3998, 0, 1, 14199, -89.900, 0.000, -42.100, 0.000, 0.000, -3.100, 0.0, , , , , , 96, , , 15, 15, 15
35.7347593, -118.6147783, 26.800, 14:49:55.340, 16, 0.00, 0.09, 98, -3.600, -2.500, -41.800, 376, 100, 99, 28, 23880, -19359, 5232, 5339, 19, 14, 1530827395.340, 48, 0, 1024, 1024, 1024, 1024, 0, 6, 3962, 3991, 3984, 3975, 3972, 3998, 0, 1, 14299, -89.900, 0.000, -42.100, 0.000, 0.000, -3.000, 0.0, , , , , , 96, , , 15, 15, 15
35.7347594, -118.6147783, 27.100, 14:49:55.441, 16, 0.00, 0.08, 98, -3.700, -2.000, -41.700, 376, 100, 99, 28, 23880, -19359, 5232, 5339, 19, 14, 1530827395.441, 42, 0, 1024, 1024, 1024, 1024, 0, 6, 3962, 3991, 3984, 3975, 3972, 3998, 0, 1, 14400, -89.900, 0.000, -42.100, 0.000, 0.000, -2.900, 0.0, , , , , , 96, , , 15, 15, 15
35.7347595, -118.6147783, 27.400, 14:49:55.540, 16, 0.00, 0.08, 98, -3.900, -1.600, -41.600, 376, 100, 99, 28, 23880, -19359, 5232, 5339, 19, 14, 1530827395.540, 18, 0, 1024, 1024, 1024, 1024, 0, 6, 3962, 3991, 3984, 3975, 3972, 3998, 0, 1, 14499, -89.900, 0.000, -42.100, 0.000, 0.000, -2.800, 0.0, , , , , , 96, , , 15, 15, 15
35.7347596, -118.6147783, 27.700, 14:49:55.640, 16, 0.00, 0.08, 98, -4.200, -1.500, -41.500, 376, 100, 98, 28, 23880, -19359, 5232, 5339, 19, 14, 1530827395.640, 24, 0, 1024, 1024, 1024, 1024, 0, 6, 3962, 3991, 3984, 3975, 3972, 3998, 0, 1, 14599, -89.900, 0.000, -42.100, 0.000, 0.000, -2.700, 0.0, , , , , , 96, , , 15, 15, 15
35.7347596, -118.6147783, 28.000, 14:49:55.740, 16, 0.00, 0.07, 98, -4.600, -1.800, -41.500, 376, 100, 98, 28, 23880, -19359, 5232, 5339, 19, 14, 1530827395.740, 38, 0, 1024, 1024, 1024, 1024, 0, 6, 3962, 3991, 3984, 3975, 3972, 3998, 0, 1, 14699, -89.900, 0.000, -42.100, 0.000, 0.000, -2.600, 0.0, , , , , , 96, , , 15, 15, 15
35.7347597, -118.6147782, 28.200, 14:49:55.840, 16, 0.00, 0.07, 98, -5.100, -2.000, -41.400, 376, 100, 98, 28, 23880, -19359, 5232, 5339, 19, 14, 1530827395.840, 39, 0, 1024, 1024, 1024, 1024, 0, 6, 3962, 3991, 3984, 3975, 3972, 3998, 0, 1, 14799, -89.900, 0.000, -42.100, 0.000, 0.000, -2.600, 0.0, , , , , , 96, , , 15, 15, 15
35.7347598, -118.6147781, 28.500, 14:49:55.940, 16, 0.00, 0.06, 98, -5.300, -2.000, -41.200, 376, 100, 98, 28, 23880, -19359, 5232, 5339, 19, 14, 1530827395.940, 9, 0, 1024, 1024, 1024, 1024, 0, 6, 3962, 3991, 3984, 3975, 3972, 3998, 0, 1, 14899, -89.900, 0.000, -42.100, 0.000, 0.000, -2.600, 0.0, , , , , , 96, , , 15, 15, 15
35.7347599, -118.6147781, 28.800, 14:49:56.040, 16, 0.00, 0.06, 98, -4.800, -2.000, -41.100, 376, 100, 98, 28, 23955, -18116, 5232, 5339, 19, 14, 1530827396.040, 20, 0, 1024, 1024, 1024, 1024, 0, 6, 3977, 4013, 4007, 3996, 3996, 4032, 0, 1, 14999, -89.900, 0.000, -42.100, 0.000, 0.000, -2.800, 0.0, , , , , , 96, , , 15, 15, 15
35.7347600, -118.6147780, 29.100, 14:49:56.140, 16, 0.00, 0.05, 98, -5.200, -2.100, -41.100, 376, 100, 98, 28, 23955, -18116, 5232, 5339, 19, 14, 1530827396.140, 11, 0, 1024, 1024, 1024, 1024, 0, 6, 3977, 4013, 4007, 3996, 3996, 4032, 0, 1, 15099, -89.900, 0.000, -42.100, 0.000, 0.000, -3.000, 0.0, , , , , , 96, , , 15, 15, 15
35.7347600, -118.6147780, 29.100, 14:49:56.240, 16, 0.00, 0.05, 98, -5.200, -2.100, -41.100, 376, 100, 98, 28, 23955, -18116, 5232, 5339, 19, 14, 1530827396.241, 112, 0, 1024, 1024, 1024, 1024, 0, 6, 3977, 4013, 4007, 3996, 3996, 4032, 0, 1, 15199, -89.900, 0.000, -42.100, 0.000, 0.000, -3.000, 0.0, , , , , , 96, , , 15, 15, 15
35.7347601, -118.6147779, 29.400, 14:49:56.341, 16, 0.14, 0.05, 98, -5.600, -2.000, -41.200, 376, 100, 98, 28, 23955, -18116, 5232, 5339, 19, 14, 1530827396.341, 77, 0, 1024, 1024, 1024, 1024, 0, 6, 3977, 4013, 4007, 3996, 3996, 4032, 0, 1, 15300, -89.900, 0.000, -42.100, 0.100, 0.100, -3.000, 0.0, , , , , , 96, , , 15, 15, 15
35.7347603, -118.6147776, 30.000, 14:49:56.440, 16, 0.14, 0.06, 98, -7.000, -2.700, -41.600, 376, 100, 98, 28, 23955, -18116, 5232, 5339, 19, 14, 1530827396.440, 8, 0, 1024, 1024, 1024, 1024, 0, 6, 3977, 4013, 4007, 3996, 3996, 4032, 0, 1, 15399, -90.000, 0.000, -42.100, 0.100, 0.100, -2.900, 0.0, , , , , , 96, , , 15, 15, 15
35.7347604, -118.6147775, 30.300, 14:49:56.542, 16, 0.10, 0.07, 98, -7.800, -2.900, -41.800, 376, 100, 98, 28, 24154, -17440, 5232, 5339, 19, 14, 1530827396.542, 3, 0, 1024, 1024, 1024, 1024, 0, 6, 3966, 4009, 4040, 4020, 4040, 4051, 0, 1, 15501, -89.900, 0.000, -42.100, 0.000, 0.100, -2.800, 0.0, , , , , , 96, , , 15, 15, 15
35.7347604, -118.6147775, 30.300, 14:49:56.640, 16, 0.10, 0.07, 98, -7.800, -2.900, -41.800, 376, 100, 98, 28, 24154, -17440, 5232, 5339, 19, 14, 1530827396.641, 102, 0, 1024, 1024, 1024, 1024, 0, 6, 3966, 4009, 4040, 4020, 4040, 4051, 0, 1, 15600, -89.900, 0.000, -42.100, 0.000, 0.100, -2.800, 0.0, , , , , , 96, , , 15, 15, 15
35.7347604, -118.6147773, 30.600, 14:49:56.740, 16, 0.10, 0.08, 98, -8.100, -2.900, -41.900, 376, 100, 97, 28, 24154, -17440, 5232, 5339, 19, 14, 1530827396.740, 97, 0, 1024, 1024, 1024, 1024, 0, 6, 3966, 4009, 4040, 4020, 4040, 4051, 0, 1, 15699, -89.900, 0.000, -42.100, 0.000, 0.100, -2.600, 0.0, , , , , , 96, , , 15, 15, 15
35.7347605, -118.6147772, 30.800, 14:49:56.840, 16, 0.10, 0.09, 98, -7.800, -3.000, -41.900, 376, 100, 97, 28, 24154, -17440, 5232, 5339, 19, 14, 1530827396.840, 87, 0, 1024, 1024, 1024, 1024, 0, 6, 3966, 4009, 4040, 4020, 4040, 4051, 0, 1, 15799, -90.000, 0.000, -42.100, 0.000, 0.100, -2.600, 0.0, , , , , , 96, , , 15, 15, 15
35.7347606, -118.6147770, 31.100, 14:49:56.940, 17, 0.00, 0.10, 98, -7.400, -3.100, -41.900, 376, 100, 97, 28, 24154, -17440, 5232, 5339, 19, 14, 1530827396.940, 89, 0, 1024, 1024, 1024, 1024, 0, 6, 3966, 4009, 4040, 4020, 4040, 4051, 0, 1, 15899, -90.000, 0.000, -42.100, 0.000, 0.000, -2.600, 0.0, , , , , , 96, , , 15, 15, 15
35.7347605, -118.6147769, 31.500, 14:49:57.040, 17, 0.00, 0.10, 98, -5.800, -2.600, -41.900, 376, 100, 97, 28, 24154, -17440, 5232, 5339, 19, 14, 1530827397.040, 52, 0, 1024, 1024, 1024, 1024, 0, 6, 3966, 4009, 4040, 4020, 4040, 4051, 0, 1, 15999, -89.900, 0.000, -42.100, 0.000, 0.000, -2.600, 0.0, , , , , , 96, , , 15, 15, 15
35.7347605, -118.6147769, 31.700, 14:49:57.140, 17, 0.10, 0.09, 98, -5.100, -3.200, -41.900, 376, 100, 97, 28, 24154, -17440, 5232, 5339, 19, 14, 1530827397.140, 62, 0, 1024, 1024, 1024, 1024, 0, 6, 3966, 4009, 4040, 4020, 4040, 4051, 0, 1, 16099, -90.000, 0.000, -42.100, -0.100, 0.000, -2.700, 0.0, , , , , , 96, , , 15, 15, 15
35.7347604, -118.6147769, 32.000, 14:49:57.240, 17, 0.10, 0.08, 98, -4.300, -3.900, -41.800, 376, 100, 98, 28, 24154, -17440, 5232, 5339, 19, 14, 1530827397.240, 68, 0, 1024, 1024, 1024, 1024, 0, 6, 3966, 4009, 4040, 4020, 4040, 4051, 0, 1, 16199, -90.000, 0.000, -42.100, -0.100, 0.000, -2.800, 0.0, , , , , , 96, , , 15, 15, 15
35.7347602, -118.6147769, 32.200, 14:49:57.340, 17, 0.10, 0.07, 98, -4.000, -4.400, -41.700, 376, 100, 98, 28, 24154, -17440, 5232, 5339, 19, 14, 1530827397.340, 71, 0, 1024, 1024, 1024, 1024, 0, 6, 3966, 4009, 4040, 4020, 4040, 4051, 0, 1, 16299, -90.000, 0.000, -42.100, -0.100, 0.000, -3.000, 0.0, , , , , , 96, , , 15, 15, 15
35.7347601, -118.6147769, 32.500, 14:49:57.440, 17, 0.10, 0.06, 98, -3.900, -5.100, -41.800, 376, 100, 98, 28, 24154, -17440, 5232, 5339, 19, 14, 1530827397.440, 63, 0, 1024, 1024, 1024, 1024, 0, 6, 3966, 4009, 4040, 4020, 4040, 4051, 0, 1, 16399, -90.000, 0.000, -42.100, -0.100, 0.000, -3.000, 0.0, , , , , , 96, , , 15, 15, 15
35.7347600, -118.6147769, 32.800, 14:49:57.540, 17, 0.10, 0.06, 98, -4.200, -5.100, -41.800, 376, 100, 98, 28, 24154, -17440, 5232, 5339, 19, 14, 1530827397.540, 55, 0, 1024, 1024, 1024, 1024, 0, 6, 3966, 4009, 4040, 4020, 4040, 4051, 0, 1, 16499, -89.900, 0.000, -42.100, -0.100, 0.000, -3.100, 0.0, , , , , , 96, , , 15, 15, 15
35.7347599, -118.6147769, 33.100, 14:49:57.640, 17, 0.10, 0.05, 98, -4.500, -5.100, -41.900, 376, 100, 98, 28, 23738, -19020, 5232, 5339, 19, 14, 1530827397.640, 35, 0, 1024, 1024, 1024, 1024, 0, 6, 3926, 3962, 3966, 3947, 3984, 4023, 0, 1, 16599, -90.000, 0.000, -42.100, -0.100, 0.000, -3.000, 0.0, , , , , , 96, , , 15, 15, 15
35.7347598, -118.6147770, 33.300, 14:49:57.740, 17, 0.10, 0.04, 98, -4.200, -5.200, -41.900, 376, 100, 98, 28, 23738, -19020, 5232, 5339, 19, 14, 1530827397.740, 37, 0, 1024, 1024, 1024, 1024, 0, 6, 3926, 3962, 3966, 3947, 3984, 4023, 0, 1, 16699, -89.900, 0.000, -42.100, -0.100, 0.000, -3.000, 0.0, , , , , , 96, , , 15, 15, 15
35.7347597, -118.6147771, 33.600, 14:49:57.840, 16, 0.14, 0.03, 98, -3.200, -5.100, -41.800, 376, 100, 98, 28, 23738, -19020, 5232, 5339, 19, 14, 1530827397.840, 38, 0, 1024, 1024, 1024, 1024, 0, 6, 3926, 3962, 3966, 3947, 3984, 4023, 0, 1, 16799, -89.900, 0.000, -42.100, -0.100, -0.100, -3.100, 0.0, , , , , , 96, , , 15, 15, 15
35.7347596, -118.6147772, 33.900, 14:49:57.940, 16, 0.14, 0.03, 98, -2.100, -4.700, -41.800, 376, 100, 98, 28, 23738, -19020, 5232, 5339, 19, 14, 1530827397.940, 21, 0, 1024, 1024, 1024, 1024, 0, 6, 3926, 3962, 3966, 3947, 3984, 4023, 0, 1, 16899, -89.900, 0.000, -42.100, -0.100, -0.100, -3.100, 0.0, , , , , , 96, , , 15, 15, 15
35.7347595, -118.6147773, 34.200, 14:49:58.040, 16, 0.10, 0.03, 98, -2.200, -4.300, -41.900, 376, 100, 98, 28, 23738, -19020, 5232, 5339, 19, 14, 1530827398.040, 35, 0, 1024, 1024, 1024, 1024, 0, 6, 3926, 3962, 3966, 3947, 3984, 4023, 0, 1, 16999, -89.900, 0.000, -42.100, -0.100, 0.000, -3.100, 0.0, , , , , , 96, , , 15, 15, 15
35.7347594, -118.6147774, 34.600, 14:49:58.140, 16, 0.10, 0.04, 98, -2.300, -4.300, -41.800, 376, 100, 100, 28, 23738, -19020, 5232, 5339, 19, 14, 1530827398.140, 32, 0, 1024, 1024, 1024, 1024, 0, 6, 3926, 3962, 3966, 3947, 3984, 4023, 0, 1, 17099, -89.900, 0.000, -42.100, -0.100, 0.000, -3.300, 0.0, , , , , , 96, , , 15, 15, 15
35.7347593, -118.6147774, 34.900, 14:49:58.240, 16, 0.10, 0.05, 98, -2.400, -4.500, -41.800, 376, 100, 100, 28, 23738, -19020, 5232, 5339, 19, 14, 1530827398.240, 22, 0, 1024, 1024, 1024, 1024, 0, 6, 3926, 3962, 3966, 3947, 3984, 4023, 0, 1, 17199, -90.000, 0.000, -42.100, -0.100, 0.000, -3.300, 0.0, , , , , , 96, , , 15, 15, 15
35.7347593, -118.6147774, 34.900, 14:49:58.340, 16, 0.10, 0.05, 98, -2.400, -4.500, -41.800, 376, 100, 100, 28, 23738, -19020, 5232, 5339, 19, 14, 1530827398.340, 122, 0, 1024, 1024, 1024, 1024, 0, 6, 3926, 3962, 3966, 3947, 3984, 4023, 0, 1, 17299, -90.000, 0.000, -42.100, -0.100, 0.000, -3.300, 0.0, , , , , , 96, , , 15, 15, 15
35.7347593, -118.6147775, 35.200, 14:49:58.440, 16, 0.10, 0.06, 98, -2.600, -4.800, -41.800, 376, 100, 100, 28, 23738, -19020, 5232, 5339, 19, 14, 1530827398.440, 88, 0, 1024, 1024, 1024, 1024, 0, 6, 3926, 3962, 3966, 3947, 3984, 4023, 0, 1, 17399, -90.000, 0.000, -42.100, -0.100, 0.000, -3.200, 0.0, , , , , , 96, , , 15, 15, 15
35.7347591, -118.6147775, 35.900, 14:49:58.542, 16, 0.00, 0.07, 98, -2.600, -5.200, -41.700, 376, 100, 100, 28, 23738, -19020, 5232, 5339, 19, 14, 1530827398.542, 3, 0, 1024, 1024, 1024, 1024, 0, 6, 3926, 3962, 3966, 3947, 3984, 4023, 0, 1, 17501, -90.000, 0.000, -42.100, 0.000, 0.000, -3.200, 0.0, , , , , , 96, , , 15, 15, 15
35.7347591, -118.6147775, 36.200, 14:49:58.642, 16, 0.00, 0.07, 98, -3.100, -5.200, -41.700, 376, 100, 100, 28, 23731, -19871, 5232, 5339, 19, 14, 1530827398.643, 3, 0, 1024, 1024, 1024, 1024, 0, 6, 3926, 3962, 3966, 3947, 3984, 4023, 0, 1, 17601, -89.900, 0.000, -42.100, 0.000, 0.000, -3.300, 0.0, , , , , , 96, , , 15, 15, 15
35.7347591, -118.6147775, 36.200, 14:49:58.740, 16, 0.00, 0.07, 98, -3.100, -5.200, -41.700, 376, 100, 100, 28, 23731, -19871, 5232, 5339, 19, 14, 1530827398.740, 101, 0, 1024, 1024, 1024, 1024, 0, 6, 3926, 3962, 3966, 3947, 3984, 4023, 0, 1, 17699, -89.900, 0.000, -42.100, 0.000, 0.000, -3.300, 0.0, , , , , , 96, , , 15, 15, 15
35.7347591, -118.6147774, 36.600, 14:49:58.840, 16, 0.00, 0.07, 98, -3.600, -5.300, -41.700, 376, 100, 100, 28, 23731, -19871, 5232, 5339, 19, 14, 1530827398.840, 93, 0, 1024, 1024, 1024, 1024, 0, 6, 3926, 3962, 3966, 3947, 3984, 4023, 0, 1, 17799, -90.000, 0.000, -42.100, 0.000, 0.000, -3.300, 0.0, , , , , , 96, , , 15, 15, 15
35.7347591, -118.6147773, 36.900, 14:49:58.940, 16, 0.00, 0.07, 98, -4.000, -5.300, -41.600, 376, 100, 100, 28, 23731, -19871, 5232, 5339, 19, 14, 1530827398.940, 97, 0, 1024, 1024, 1024, 1024, 0, 6, 3926, 3962, 3966, 3947, 3984, 4023, 0, 1, 17899, -89.900, 0.000, -42.100, 0.000, 0.000, -3.300, 0.0, , , , , , 96, , , 15, 15, 15
35.7347592, -118.6147772, 37.300, 14:49:59.040, 16, 0.00, 0.07, 98, -4.700, -4.800, -41.500, 376, 100, 100, 28, 23731, -19871, 5232, 5339, 19, 14, 1530827399.040, 83, 0, 1024, 1024, 1024, 1024, 0, 6, 3926, 3962, 3966, 3947, 3984, 4023, 0, 1, 17999, -89.900, 0.000, -42.100, 0.000, 0.000, -3.200, 0.0, , , , , , 96, , , 15, 15, 15
35.7347593, -118.6147771, 37.600, 14:49:59.140, 16, 0.00, 0.06, 98, -4.900, -4.500, -41.300, 376, 100, 100, 28, 23731, -19871, 5232, 5339, 19, 14, 1530827399.140, 88, 0, 1024, 1024, 1024, 1024, 0, 6, 3932, 3959, 3965, 3950, 3961, 3997, 0, 1, 18099, -90.000, 0.000, -42.100, 0.000, 0.000, -3.000, 0.0, , , , , , 96, , , 15, 15, 15
35.7347593, -118.6147770, 37.900, 14:49:59.240, 16, 0.00, 0.06, 98, -4.800, -4.800, -41.200, 376, 100, 100, 28, 23731, -19871, 5232, 5339, 19, 14, 1530827399.240, 93, 0, 1024, 1024, 1024, 1024, 0, 6, 3932, 3959, 3965, 3950, 3961, 3997, 0, 1, 18199, -89.900, 0.000, -42.100, 0.000, 0.000, -3.100, 0.0, , , , , , 96, , , 15, 15, 15
35.7347595, -118.6147768, 38.500, 14:49:59.340, 16, 0.00, 0.06, 98, -5.500, -4.800, -41.000, 376, 100, 100, 28, 23731, -19871, 5232, 5339, 19, 14, 1530827399.340, 71, 0, 1024, 1024, 1024, 1024, 0, 6, 3932, 3959, 3965, 3950, 3961, 3997, 0, 1, 18299, -89.900, 0.000, -42.100, 0.000, 0.000, -3.100, 0.0, , , , , , 96, , , 15, 15, 15
35.7347595, -118.6147768, 38.900, 14:49:59.440, 16, 0.00, 0.06, 98, -5.400, -4.500, -41.200, 376, 100, 100, 28, 23731, -19871, 5232, 5339, 19, 14, 1530827399.440, 66, 0, 1024, 1024, 1024, 1024, 0, 6, 3932, 3959, 3965, 3950, 3961, 3997, 0, 1, 18399, -89.900, 0.000, -42.100, 0.000, 0.000, -3.100, 0.0, , , , , , 96, , , 15, 15, 15
35.7347596, -118.6147768, 39.200, 14:49:59.540, 16, 0.00, 0.07, 98, -5.100, -4.600, -41.300, 376, 100, 100, 28, 23731, -19871, 5232, 5339, 19, 14, 1530827399.540, 68, 0, 1024, 1024, 1024, 1024, 0, 6, 3932, 3959, 3965, 3950, 3961, 3997, 0, 1, 18499, -89.900, 0.000, -42.100, 0.000, 0.000, -3.100, 0.0, , , , , , 96, , , 15, 15, 15
35.7347597, -118.6147768, 39.500, 14:49:59.640, 16, 0.00, 0.06, 98, -5.100, -4.400, -41.400, 376, 100, 100, 28, 23731, -19871, 5232, 5339, 19, 14, 1530827399.640, 61, 0, 1024, 1024, 1024, 1024, 0, 6, 3932, 3959, 3965, 3950, 3961, 3997, 0, 1, 18599, -89.900, 0.000, -42.100, 0.000, 0.000, -3.000, 0.0, , , , , , 96, , , 15, 15, 15
35.7347597, -118.6147768, 39.800, 14:49:59.740, 16, 0.00, 0.06, 98, -5.200, -4.300, -41.500, 376, 100, 100, 28, 23731, -19871, 5232, 5339, 19, 14, 1530827399.740, 63, 0, 1024, 1024, 1024, 1024, 0, 6, 3932, 3959, 3965, 3950, 3961, 3997, 0, 1, 18699, -89.900, 0.000, -42.100, 0.000, 0.000, -3.000, 0.0, , , , , , 96, , , 15, 15, 15
35.7347597, -118.6147768, 40.200, 14:49:59.840, 16, 0.00, 0.06, 98, -5.000, -4.500, -41.500, 376, 100, 100, 28, 23731, -19871, 5232, 5339, 19, 14, 1530827399.840, 68, 0, 1024, 1024, 1024, 1024, 0, 6, 3932, 3959, 3965, 3950, 3961, 3997, 0, 1, 18799, -89.900, 0.000, -42.100, 0.000, 0.000, -3.000, 0.0, , , , , , 96, , , 15, 15, 15
35.7347597, -118.6147768, 40.200, 14:49:59.940, 16, 0.00, 0.06, 98, -5.000, -4.500, -41.500, 376, 100, 100, 28, 23731, -19871, 5232, 5339, 19, 14, 1530827399.940, 168, 0, 1024, 1024, 1024, 1024, 0, 6, 3932, 3959, 3965, 3950, 3961, 3997, 0, 1, 18899, -89.900, 0.000, -42.100, 0.000, 0.000, -3.000, 0.0, , , , , , 96, , , 15, 15, 15
35.7347598, -118.6147769, 40.800, 14:50:00.040, 16, 0.00, 0.05, 98, -4.700, -4.200, -41.600, 376, 100, 100, 28, 23731, -19871, 5232, 5339, 19, 14, 1530827400.040, 47, 0, 1024, 1024, 1024, 1024, 0, 6, 3932, 3959, 3965, 3950, 3961, 3997, 0, 1, 18999, -89.900, 0.000, -42.100, 0.000, 0.000, -2.900, 0.0, , , , , , 96, , , 15, 15, 15
35.7347598, -118.6147769, 41.100, 14:50:00.140, 16, 0.00, 0.05, 98, -4.700, -4.200, -41.700, 376, 100, 100, 28, 23830, -18673, 5178, 5339, 19, 14, 1530827400.141, 38, 0, 1024, 1024, 1024, 1024, 0, 6, 3953, 3976, 3967, 3968, 3966, 3996, 0, 1, 19100, -90.000, 0.000, -42.100, 0.000, 0.000, -2.900, 0.0, , , , , , 96, , , 15, 15, 15
35.7347598, -118.6147769, 41.400, 14:50:00.240, 16, 0.00, 0.05, 98, -4.500, -4.600, -41.900, 376, 100, 100, 28, 23830, -18673, 5178, 5339, 19, 14, 1530827400.240, 50, 0, 1024, 1024, 1024, 1024, 0, 6, 3953, 3976, 3967, 3968, 3966, 3996, 0, 1, 19199, -90.000, 0.000, -42.100, 0.000, 0.000, -2.900, 0.0, , , , , , 96, , , 15, 15, 15
35.7347598, -118.6147769, 41.700, 14:50:00.340, 16, 0.00, 0.05, 98, -4.100, -5.000, -42.000, 376, 100, 100, 28, 23830, -18673, 5178, 5339, 19, 14, 1530827400.340, 18, 0, 1024, 1024, 1024, 1024, 0, 6, 3953, 3976, 3967, 3968, 3966, 3996, 0, 1, 19299, -90.000, 0.000, -42.100, 0.000, 0.000, -2.900, 0.0, , , , , , 96, , , 15, 15, 15
35.7347598, -118.6147769, 42.000, 14:50:00.440, 17, 0.00, 0.05, 98, -4.200, -5.300, -42.100, 376, 100, 100, 28, 23830, -18673, 5178, 5339, 19, 14, 1530827400.440, 21, 0, 1024, 1024, 1024, 1024, 0, 6, 3953, 3976, 3967, 3968, 3966, 3996, 0, 1, 19399, -90.000, 0.000, -42.100, 0.000, 0.000, -3.000, 0.0, , , , , , 96, , , 15, 15, 15
35.7347598, -118.6147769, 42.300, 14:50:00.540, 17, 0.00, 0.05, 98, -4.600, -5.600, -42.100, 376, 100, 100, 28, 23830, -18673, 5178, 5339, 19, 14, 1530827400.540, 11, 0, 1024, 1024, 1024, 1024, 0, 6, 3953, 3976, 3967, 3968, 3966, 3996, 0, 1, 19499, -90.000, 0.000, -42.100, 0.000, 0.000, -3.000, 0.0, , , , , , 96, , , 15, 15, 15
35.7347598, -118.6147769, 42.600, 14:50:00.640, 17, 0.00, 0.05, 97, -5.100, -5.600, -42.100, 376, 100, 100, 28, 23830, -18673, 5178, 5339, 19, 14, 1530827400.640, 15, 0, 1024, 1024, 1024, 1024, 0, 6, 3953, 3976, 3967, 3968, 3966, 3996, 0, 1, 19599, -90.000, 0.000, -42.100, 0.000, 0.000, -2.900, 0.0, , , , , , 96, , , 15, 15, 15
35.7347598, -118.6147768, 42.900, 14:50:00.740, 17, 0.00, 0.06, 97, -5.400, -5.500, -42.000, 376, 100, 100, 28, 23830, -18673, 5178, 5339, 19, 14, 1530827400.740, 33, 0, 1024, 1024, 1024, 1024, 0, 6, 3953, 3976, 3967, 3968, 3966, 3996, 0, 1, 19699, -89.900, 0.000, -42.100, 0.000, 0.000, -2.900, 0.0, , , , , , 96, , , 15, 15, 15
35.7347599, -118.6147768, 43.200, 14:50:00.840, 16, 0.00, 0.06, 97, -5.400, -5.200, -42.000, 376, 100, 100, 28, 23830, -18673, 5178, 5339, 19, 14, 1530827400.840, 18, 0, 1024, 1024, 1024, 1024, 0, 6, 3953, 3976, 3967, 3968, 3966, 3996, 0, 1, 19799, -89.900, 0.000, -42.100, 0.000, 0.000, -2.900, 0.0, , , , , , 96, , , 15, 15, 15
35.7347599, -118.6147768, 43.200, 14:50:00.940, 16, 0.00, 0.06, 97, -5.400, -5.200, -42.000, 376, 100, 100, 28, 23830, -18673, 5178, 5339, 19, 14, 1530827400.941, 119, 0, 1024, 1024, 1024, 1024, 0, 6, 3953, 3976, 3967, 3968, 3966, 3996, 0, 1, 19900, -89.900, 0.000, -42.100, 0.000, 0.000, -2.900, 0.0, , , , , , 96, , , 15, 15, 15
35.7347599, -118.6147768, 43.800, 14:50:01.040, 17, 0.00, 0.06, 97, -4.300, -5.200, -41.800, 376, 100, 100, 28, 23833, -18171, 5178, 5339, 19, 14, 1530827401.040, 26, 0, 1024, 1024, 1024, 1024, 0, 6, 3939, 3982, 3988, 3968, 3963, 3993, 0, 1, 19999, -89.900, 0.000, -42.100, 0.000, 0.000, -2.900, 0.0, , , , , , 96, , , 15, 15, 15
35.7347599, -118.6147768, 43.800, 14:50:01.139, 17, 0.00, 0.06, 97, -4.300, -5.200, -41.800, 376, 100, 100, 28, 23833, -18171, 5178, 5339, 19, 14, 1530827401.140, 125, 0, 1024, 1024, 1024, 1024, 0, 6, 3939, 3982, 3988, 3968, 3963, 3993, 0, 1, 20099, -89.900, 0.000, -42.100, 0.000, 0.000, -2.900, 0.0, , , , , , 96, , , 15, 15, 15
35.7347599, -118.6147769, 44.500, 14:50:01.242, 17, 0.00, 0.05, 97, -4.600, -5.100, -42.000, 376, 100, 100, 28, 23833, -18171, 5178, 5339, 19, 14, 1530827401.243, 2, 0, 1024, 1024, 1024, 1024, 0, 6, 3939, 3982, 3988, 3968, 3963, 3993, 0, 1, 20202, -89.900, 0.000, -42.100, 0.000, 0.000, -3.000, 0.0, , , , , , 96, , , 15, 15, 15
35.7347599, -118.6147769, 44.500, 14:50:01.339, 17, 0.00, 0.05, 97, -4.600, -5.100, -42.000, 376, 100, 100, 28, 23833, -18171, 5178, 5339, 19, 14, 1530827401.340, 99, 0, 1024, 1024, 1024, 1024, 0, 6, 3939, 3982, 3988, 3968, 3963, 3993, 0, 1, 20299, -89.900, 0.000, -42.100, 0.000, 0.000, -3.000, 0.0, , , , , , 96, , , 15, 15, 15
35.7347599, -118.6147770, 44.800, 14:50:01.439, 17, 0.00, 0.05, 97, -4.500, -5.000, -41.800, 376, 100, 100, 28, 23833, -18171, 5178, 5339, 19, 14, 1530827401.440, 92, 0, 1024, 1024, 1024, 1024, 0, 6, 3939, 3982, 3988, 3968, 3963, 3993, 0, 1, 20399, -89.900, 0.000, -42.100, 0.000, 0.000, -3.000, 0.0, , , , , , 96, , , 15, 15, 15
35.7347600, -118.6147771, 45.400, 14:50:01.541, 16, 0.00, 0.04, 97, -5.000, -4.100, -41.600, 376, 100, 100, 28, 23833, -18171, 5178, 5339, 19, 14, 1530827401.542, 3, 0, 1024, 1024, 1024, 1024, 0, 6, 3939, 3982, 3988, 3968, 3963, 3993, 0, 1, 20501, -89.900, 0.000, -42.100, 0.000, 0.000, -3.000, 0.0, , , , , , 96, , , 15, 15, 15
35.7347600, -118.6147771, 45.400, 14:50:01.639, 16, 0.00, 0.04, 97, -5.000, -4.100, -41.600, 376, 100, 100, 28, 23833, -18171, 5178, 5339, 19, 14, 1530827401.640, 101, 0, 1024, 1024, 1024, 1024, 0, 6, 3939, 3982, 3988, 3968, 3963, 3993, 0, 1, 20598, -89.900, 0.000, -42.100, 0.000, 0.000, -3.000, 0.0, , , , , , 96, , , 15, 15, 15
35.7347601, -118.6147772, 45.800, 14:50:01.739, 16, 0.00, 0.04, 97, -5.600, -3.700, -41.600, 376, 100, 100, 28, 23833, -18171, 5178, 5339, 19, 14, 1530827401.740, 92, 0, 1024, 1024, 1024, 1024, 0, 6, 3939, 3982, 3988, 3968, 3963, 3993, 0, 1, 20699, -89.900, 0.000, -42.100, 0.000, 0.000, -2.900, 0.0, , , , , , 96, , , 15, 15, 15
