latitude,longitude,altitude(feet),ascent(feet),speed(mph),distance(feet),time(millisecond),datetime(utc),satellites,gpslevel,voltage(v),max_altitude(feet),max_ascent(feet),max_speed(mph),max_distance(feet), xSpeed(mph), ySpeed(mph), zSpeed(mph), compass_heading(degrees), pitch(degrees), roll(degrees),isPhoto,isVideo,rc_elevator,rc_aileron,rc_throttle,rc_rudder,gimbal_heading(degrees),gimbal_pitch(degrees),battery_percent,voltageCell1,voltageCell2,voltageCell3,voltageCell4,voltageCell5,voltageCell6,current(A),battery_temperature(f),flycStateRaw,flycState,message
35.7347998,-118.6147851,4884.366169095,0,0.447388,0,3030,2018-07-05 22:08:39,14,0,25.744,4884.366169095,0,0.447388,0,0,0,0,311, -0.6, -1.1,1,0,1024,1024,1024,1024,310.9,-89.9,100,4.28,4.29,4.298,4.294,4.299,4.311,3.86,80.6,11,AutoTakeoff,DJI_0789.jpg Starting Mission from Lat/Long: 35.73480/-118.61479 Camera: Zenmuse X3 - Overlap: 90/90 - Active Connection: No
35.7347998,-118.6147853,4884.366169095,0,0.447388,0.059231629192,3100,2018-07-05 22:08:39,14,0,25.744,4884.366169095,0,0.447388,0.059231629192,0,0,0,311.2, 0.2, -0.5,0,0,1024,1024,1024,1024,310.9,-89.9,100,4.28,4.29,4.298,4.294,4.299,4.311,3.86,80.6,11,AutoTakeoff,
35.7347998,-118.6147855,4884.366169095,0,0.447388,0.118463586468,3200,2018-07-05 22:08:39,15,0,25.744,4884.366169095,0,0.447388,0.118463586468,0,0,0,311.2, 0.7, 0.1,0,0,1024,1024,1024,1024,310.9,-89.9,100,4.28,4.29,4.298,4.294,4.299,4.311,3.86,80.6,11,AutoTakeoff,
35.7347998,-118.6147857,4884.366169095,0,0.447388,0.17769521566,3300,2018-07-05 22:08:39,15,0,25.744,4884.366169095,0,0.447388,0.17769521566,0,0,0,311.2, 1.1, 0.5,0,0,1024,1024,1024,1024,310.9,-89.9,100,4.28,4.29,4.298,4.294,4.299,4.311,3.86,80.6,11,AutoTakeoff,
35.7347998,-118.6147861,4884.694253095,0.328084,0.223694,0.296158802128,3400,2018-07-05 22:08:39,14,0,25.744,4884.694253095,0.328084,0.447388,0.296158802128,0,0,0,311.3, 1.4, 0.8,0,0,1024,1024,1024,1024,310.9,-89.9,100,4.28,4.29,4.298,4.294,4.299,4.311,3.86,80.6,11,AutoTakeoff,
35.7347997,-118.6147863,4885.022337095,0.656168,0.223694,0.35725722928,3700,2018-07-05 22:08:39,14,0,25.744,4885.022337095,0.656168,0.447388,0.35725722928,0,0,-0.223694,311.5, 1, 0.7,0,0,1024,1024,1024,1024,310.9,-89.9,100,4.28,4.29,4.298,4.294,4.299,4.311,3.86,80.6,11,AutoTakeoff,
35.7347997,-118.6147865,4885.350421095,0.984252,0,0.4162237666,3800,2018-07-05 22:08:39,14,0,25.744,4885.350421095,0.984252,0.447388,0.4162237666,0,0,0,311.4, 0.9, 0.6,0,0,1024,1024,1024,1024,310.9,-89.9,100,4.28,4.29,4.298,4.294,4.299,4.311,3.86,80.6,11,AutoTakeoff,
35.7347996,-118.6147866,4885.350421095,0.984252,0,0.45019030312,3900,2018-07-05 22:08:39,14,0,25.744,4885.350421095,0.984252,0.447388,0.45019030312,0,0,0,311.2, 0.6, 0.6,0,0,1024,1024,1024,1024,310.9,-89.9,100,4.28,4.29,4.298,4.294,4.299,4.311,3.86,80.6,11,AutoTakeoff,
35.7347995,-118.6147866,4885.678505095,1.312336,0,0.45752298052,4000,2018-07-05 22:08:40,14,0,25.138,4885.678505095,1.312336,0.447388,0.45752298052,0,0,-0.223694,310.9, 0.3, 0.7,0,0,1024,1024,1024,1024,310.9,-90,100,4.184,4.172,4.2,4.189,4.149,4.161,6.578,80.6,11,AutoTakeoff,
35.7347995,-118.6147867,4886.006589095,1.64042,0,0.48633203656,4100,2018-07-05 22:08:40,14,0,25.138,4886.006589095,1.64042,0.447388,0.48633203656,0,0,-0.223694,310.8, 0, 0.9,0,0,1024,1024,1024,1024,310.9,-90,100,4.184,4.172,4.2,4.189,4.149,4.161,6.578,80.6,11,AutoTakeoff,
35.7347994,-118.6147869,4886.006589095,1.64042,0,0.55270014892,4200,2018-07-05 22:08:40,14,0,25.138,4886.006589095,1.64042,0.447388,0.55270014892,0,0,-0.223694,310.8, 0, 1.1,0,0,1024,1024,1024,1024,310.9,-89.9,100,4.184,4.172,4.2,4.189,4.149,4.161,6.578,80.6,11,AutoTakeoff,
35.7347994,-118.6147869,4886.334673095,1.968504,0,0.55270014892,4300,2018-07-05 22:08:40,14,0,25.138,4886.334673095,1.968504,0.447388,0.55270014892,0,0,-0.223694,310.8, 0, 1.3,0,0,1024,1024,1024,1024,310.9,-90,100,4.184,4.172,4.2,4.189,4.149,4.161,6.578,80.6,11,AutoTakeoff,
35.7347994,-118.6147869,4886.334673095,1.968504,0,0.55270014892,4400,2018-07-05 22:08:40,14,0,25.138,4886.334673095,1.968504,0.447388,0.55270014892,0,0,-0.223694,310.9, 0, 1.3,0,0,1024,1024,1024,1024,310.9,-89.9,100,4.184,4.172,4.2,4.189,4.149,4.161,6.578,80.6,11,AutoTakeoff,
35.7347992,-118.614787,4886.662757095,2.296588,0,0.60378282772,4500,2018-07-05 22:08:40,14,0,25.138,4886.662757095,2.296588,0.447388,0.60378282772,0,0,0,310.9, 0, 1.4,0,0,1024,1024,1024,1024,310.9,-89.9,100,4.184,4.172,4.2,4.189,4.149,4.161,6.578,80.6,11,AutoTakeoff,
35.7347991,-118.6147871,4886.662757095,2.296588,0,0.64503282904,4600,2018-07-05 22:08:40,15,0,25.138,4886.662757095,2.296588,0.447388,0.64503282904,0,0,0,310.8, 0, 1.4,0,0,1024,1024,1024,1024,310.9,-90,100,4.184,4.172,4.2,4.189,4.149,4.161,6.578,80.6,11,AutoTakeoff,
35.734799,-118.6147871,4886.990841095,2.624672,0,0.66032810512,4700,2018-07-05 22:08:40,15,0,25.138,4886.990841095,2.624672,0.447388,0.66032810512,0,0,0,310.7, -0.2, 1.2,0,0,1024,1024,1024,1024,310.9,-90,100,4.184,4.172,4.2,4.189,4.149,4.161,6.578,80.6,11,AutoTakeoff,
35.734799,-118.6147872,4886.990841095,2.624672,0,0.68701773852,4800,2018-07-05 22:08:40,15,0,25.138,4886.990841095,2.624672,0.447388,0.68701773852,0,0,0,310.7, -0.3, 1.2,0,0,1024,1024,1024,1024,310.9,-89.9,100,4.184,4.172,4.2,4.189,4.149,4.161,6.578,80.6,11,AutoTakeoff,
35.7347989,-118.6147872,4887.318925095,2.952756,0,0.70329398576,4900,2018-07-05 22:08:40,15,0,25.138,4887.318925095,2.952756,0.447388,0.70329398576,0,0,-0.223694,310.8, -0.5, 1.3,0,0,1024,1024,1024,1024,310.9,-90,100,4.184,4.172,4.2,4.189,4.149,4.161,6.578,80.6,6,P-GPS,
35.7347988,-118.6147873,4887.647009095,3.28084,0,0.74674871156,5000,2018-07-05 22:08:41,15,0,24.557,4887.647009095,3.28084,0.447388,0.74674871156,0,0,-0.223694,310.8, -0.6, 1.6,0,0,1024,1024,1024,1024,310.9,-89.9,98,4.082,4.086,4.099,4.087,4.089,4.102,16.339,80.6,14,Waypoint,
35.7347988,-118.6147872,4887.647009095,3.28084,0,0.72105317268,5100,2018-07-05 22:08:41,15,0,24.557,4887.647009095,3.28084,0.447388,0.74674871156,0,0,0,310.9, -0.8, 1.1,0,0,1024,1024,1024,1024,310.9,-90,98,4.082,4.086,4.099,4.087,4.089,4.102,16.339,80.6,14,Waypoint,
35.7347987,-118.6147872,4887.975093095,3.608924,0,0.74018375072,5200,2018-07-05 22:08:41,15,0,24.557,4887.975093095,3.608924,0.447388,0.74674871156,0,0,0,311.1, -0.7, 0.9,0,0,1024,1024,1024,1024,310.9,-89.9,98,4.082,4.086,4.099,4.087,4.089,4.102,16.339,80.6,14,Waypoint,
35.7347987,-118.6147872,4887.975093095,3.608924,0,0.74018375072,5300,2018-07-05 22:08:41,15,0,24.557,4887.975093095,3.608924,0.447388,0.74674871156,0,0,0,311.4, -0.3, 0.7,0,0,1024,1024,1024,1024,310.9,-89.9,98,4.082,4.086,4.099,4.087,4.089,4.102,16.339,80.6,14,Waypoint,
35.7347987,-118.6147872,4887.975093095,3.608924,0,0.74018375072,5410,2018-07-05 22:08:41,15,0,24.557,4887.975093095,3.608924,0.447388,0.74674871156,0,0,0,311.6, -0.2, 0.7,0,0,1024,1024,1024,1024,310.9,-89.9,98,4.082,4.086,4.099,4.087,4.089,4.102,16.339,80.6,14,Waypoint,
35.7347986,-118.6147872,4888.303177095,3.937008,0,0.76058401384,5500,2018-07-05 22:08:41,15,0,24.557,4888.303177095,3.937008,0.447388,0.76058401384,0,0,-0.223694,311.6, -0.3, 0.6,0,0,1024,1024,1024,1024,310.9,-90,98,4.082,4.086,4.099,4.087,4.089,4.102,16.339,80.6,14,Waypoint,
35.7347985,-118.6147873,4888.631261095,4.265092,0,0.8059055376,5600,2018-07-05 22:08:41,15,0,24.557,4888.631261095,4.265092,0.447388,0.8059055376,0,0,-0.223694,311.5, -0.6, 0.8,0,0,1024,1024,1024,1024,310.9,-90,98,4.082,4.086,4.099,4.087,4.089,4.102,16.339,80.6,14,Waypoint,
35.7347984,-118.6147872,4888.959345095,4.593176,0,0.80480317536,5800,2018-07-05 22:08:41,15,0,24.557,4888.959345095,4.593176,0.447388,0.8059055376,0,0,-0.223694,311.3, -0.9, 1,0,0,1024,1024,1024,1024,310.9,-90,98,4.082,4.086,4.099,4.087,4.089,4.102,16.339,80.6,14,Waypoint,
35.7347983,-118.6147872,4889.287429095,4.92126,0,0.82843834672,5900,2018-07-05 22:08:41,15,0,24.557,4889.287429095,4.92126,0.447388,0.82843834672,0,0,-0.223694,311.3, -0.9, 1.2,0,0,1024,1024,1024,1024,310.9,-90,98,4.082,4.086,4.099,4.087,4.089,4.102,16.339,80.6,14,Waypoint,
35.7347982,-118.6147873,4889.615513095,5.249344,0,0.87480973928,6000,2018-07-05 22:08:42,15,0,24.46,4889.615513095,5.249344,0.447388,0.87480973928,0,0,-0.223694,311.3, -0.9, 1.3,0,0,1024,1024,1024,1024,310.9,-90,98,4.07,4.059,4.087,4.074,4.088,4.129,16.559,80.6,14,Waypoint,
35.7347979,-118.6147872,4890.599765095,6.233596,0,0.9313156466,6100,2018-07-05 22:08:42,15,0,24.46,4890.599765095,6.233596,0.447388,0.9313156466,0,0,-0.447388,311.3, -1.2, 1.4,0,0,1024,1024,1024,1024,310.9,-90,98,4.07,4.059,4.087,4.074,4.088,4.129,16.559,80.6,14,Waypoint,
35.7347978,-118.6147872,4891.255933095,6.889764,0,0.95878283908,6200,2018-07-05 22:08:42,15,0,24.46,4891.255933095,6.889764,0.447388,0.95878283908,0,0,-0.447388,311.4, -1.7, 1.3,0,0,1024,1024,1024,1024,310.9,-90,98,4.07,4.059,4.087,4.074,4.088,4.129,16.559,80.6,14,Waypoint,
35.7347977,-118.6147871,4891.584017095,7.217848,0,0.96844163204,6300,2018-07-05 22:08:42,15,0,24.46,4891.584017095,7.217848,0.447388,0.96844163204,0,0,-0.447388,311.5, -1.7, 1.7,0,0,1024,1024,1024,1024,310.9,-90,98,4.07,4.059,4.087,4.074,4.088,4.129,16.559,80.6,14,Waypoint,
35.7347976,-118.614787,4892.240185095,7.874016,0,0.98025921772,6400,2018-07-05 22:08:42,15,0,24.46,4892.240185095,7.874016,0.447388,0.98025921772,0,0,-0.447388,311.4, -1.5, 1.6,0,0,1024,1024,1024,1024,310.9,-90,98,4.07,4.059,4.087,4.074,4.088,4.129,16.559,80.6,14,Waypoint,
35.7347976,-118.6147869,4893.224437095,8.858268,0,0.9635663038,6500,2018-07-05 22:08:42,15,0,24.46,4893.224437095,8.858268,0.447388,0.98025921772,0,0,-0.671082,311.4, -1.8, 1,0,0,1024,1024,1024,1024,310.9,-90,98,4.07,4.059,4.087,4.074,4.088,4.129,16.559,80.6,14,Waypoint,
35.7347976,-118.6147869,4894.208689095,9.84252,0,0.9635663038,6600,2018-07-05 22:08:42,15,0,24.46,4894.208689095,9.84252,0.447388,0.98025921772,0,0,-0.671082,311.3, -1.8, 0.3,0,0,1024,1024,1024,1024,310.9,-90,98,4.07,4.059,4.087,4.074,4.088,4.129,16.559,80.6,14,Waypoint,
35.7347977,-118.6147866,4895.192941095,10.826772,0,0.88565619632,6700,2018-07-05 22:08:42,15,0,24.46,4895.192941095,10.826772,0.447388,0.98025921772,0,0,-0.671082,311.3, -1.8, -0.1,0,0,1024,1024,1024,1024,310.9,-90,98,4.07,4.059,4.087,4.074,4.088,4.129,16.559,80.6,14,Waypoint,
35.7347978,-118.6147864,4896.177193095,11.811024,0,0.82503939648,6800,2018-07-05 22:08:42,15,0,24.46,4896.177193095,11.811024,0.447388,0.98025921772,0,0,-0.671082,311.3, -1.6, -0.6,0,0,1024,1024,1024,1024,310.9,-89.9,98,4.07,4.059,4.087,4.074,4.088,4.129,16.559,80.6,14,Waypoint,
35.7347978,-118.6147863,4897.161445095,12.795276,0,0.81164044592,6900,2018-07-05 22:08:42,15,0,24.46,4897.161445095,12.795276,0.447388,0.98025921772,0,0,-0.671082,311.3, -1.3, -0.8,0,0,1024,1024,1024,1024,310.9,-89.9,98,4.07,4.059,4.087,4.074,4.088,4.129,16.559,80.6,14,Waypoint,
35.7347978,-118.6147862,4898.145697095,13.779528,0,0.79911747964,7000,2018-07-05 22:08:43,15,0,24.326,4898.145697095,13.779528,0.447388,0.98025921772,0,0,-0.671082,311.2, -1.2, -0.7,0,0,1024,1024,1024,1024,310.9,-89.9,98,4.051,4.034,4.06,4.033,4.03,4.052,17.707,80.6,14,Waypoint,
35.7347978,-118.6147862,4899.129949095,14.76378,0,0.79911747964,7100,2018-07-05 22:08:43,15,0,24.326,4899.129949095,14.76378,0.447388,0.98025921772,0,0,-0.671082,311.2, -1.2, -0.4,0,0,1024,1024,1024,1024,310.9,-89.9,98,4.051,4.034,4.06,4.033,4.03,4.052,17.707,80.6,14,Waypoint,
35.7347978,-118.6147862,4900.114201095,15.748032,0,0.79911747964,7200,2018-07-05 22:08:43,15,0,24.326,4900.114201095,15.748032,0.447388,0.98025921772,0,0,-0.671082,311.2, -1.2, -0.1,0,0,1024,1024,1024,1024,310.9,-89.9,98,4.051,4.034,4.06,4.033,4.03,4.052,17.707,80.6,14,Waypoint,
35.7347978,-118.6147862,4901.426537095,17.060368,0,0.79911747964,7300,2018-07-05 22:08:43,15,0,24.326,4901.426537095,17.060368,0.447388,0.98025921772,0,0,-0.671082,311.3, -1, 0.1,0,0,1024,1024,1024,1024,310.9,-89.9,98,4.051,4.034,4.06,4.033,4.03,4.052,17.707,80.6,14,Waypoint,
35.7347978,-118.6147861,4902.410789095,18.04462,0,0.78750986772,7400,2018-07-05 22:08:43,16,0,24.326,4902.410789095,18.04462,0.447388,0.98025921772,0,0,-0.671082,311.4, -0.6, 0.2,0,0,1024,1024,1024,1024,310.9,-89.9,98,4.051,4.034,4.06,4.033,4.03,4.052,17.707,80.6,14,Waypoint,
35.7347978,-118.6147862,4903.723125095,19.356956,0,0.79911747964,7500,2018-07-05 22:08:43,16,0,24.326,4903.723125095,19.356956,0.447388,0.98025921772,0,0,-0.671082,311.5, -0.7, 0.1,0,0,1024,1024,1024,1024,310.9,-89.9,98,4.051,4.034,4.06,4.033,4.03,4.052,17.707,80.6,14,Waypoint,
35.7347978,-118.6147862,4904.707377095,20.341208,0,0.79911747964,7600,2018-07-05 22:08:43,16,0,24.326,4904.707377095,20.341208,0.447388,0.98025921772,0,0,-0.671082,311.5, -0.6, 0,0,0,1024,1024,1024,1024,310.9,-89.9,98,4.051,4.034,4.06,4.033,4.03,4.052,17.707,80.6,14,Waypoint,
35.7347978,-118.6147862,4906.019713095,21.653544,0,0.79911747964,7700,2018-07-05 22:08:43,16,0,24.326,4906.019713095,21.653544,0.447388,0.98025921772,0,0,-0.671082,311.5, -0.5, 0,0,0,1024,1024,1024,1024,310.9,-89.9,98,4.051,4.034,4.06,4.033,4.03,4.052,17.707,80.6,14,Waypoint,
35.7347978,-118.6147863,4907.003965095,22.637796,0,0.81164044592,7800,2018-07-05 22:08:43,16,0,24.326,4907.003965095,22.637796,0.447388,0.98025921772,0,0,-0.671082,311.5, -0.7, 0.2,0,0,1024,1024,1024,1024,310.9,-89.9,98,4.051,4.034,4.06,4.033,4.03,4.052,17.707,80.6,14,Waypoint,
35.7347979,-118.6147863,4910.284805095,25.918636,0,0.77900593044,8000,2018-07-05 22:08:44,16,0,23.803,4910.284805095,25.918636,0.447388,0.98025921772,0,0,-0.671082,311.2, -0.2, 0.1,0,0,1024,1024,1024,1024,310.9,-89.9,98,3.958,3.947,3.975,3.977,3.996,3.989,23.565,80.6,14,Waypoint,
35.7347979,-118.6147863,4911.269057095,26.902888,0,0.77900593044,8200,2018-07-05 22:08:44,16,0,23.803,4911.269057095,26.902888,0.447388,0.98025921772,0,0,-0.671082,311.1, -0.2, 0,0,0,1024,1024,1024,1024,310.9,-89.9,98,3.958,3.947,3.975,3.977,3.996,3.989,23.565,80.6,14,Waypoint,
35.7347979,-118.6147863,4912.253309095,27.88714,0,0.77900593044,8300,2018-07-05 22:08:44,16,0,23.803,4912.253309095,27.88714,0.447388,0.98025921772,0,0,-0.671082,311.1, -0.5, -0.1,0,0,1024,1024,1024,1024,310.9,-89.9,98,3.958,3.947,3.975,3.977,3.996,3.989,23.565,80.6,14,Waypoint,
35.7347979,-118.6147863,4913.565645095,29.199476,0,0.77900593044,8400,2018-07-05 22:08:44,16,0,23.803,4913.565645095,29.199476,0.447388,0.98025921772,0,0,-0.671082,311.2, -0.8, -0.1,0,0,1024,1024,1024,1024,310.9,-89.9,98,3.958,3.947,3.975,3.977,3.996,3.989,23.565,80.6,14,Waypoint,
35.7347979,-118.6147863,4914.549897095,30.183728,0,0.77900593044,8500,2018-07-05 22:08:44,16,0,23.803,4914.549897095,30.183728,0.447388,0.98025921772,0,0,-0.671082,311.3, -0.9, 0,0,0,1024,1024,1024,1024,310.9,-89.9,98,3.958,3.947,3.975,3.977,3.996,3.989,23.565,80.6,14,Waypoint,
35.7347979,-118.6147863,4915.534149095,31.16798,0,0.77900593044,8600,2018-07-05 22:08:44,16,0,23.803,4915.534149095,31.16798,0.447388,0.98025921772,0,0,-0.671082,311.4, -1.1, 0,0,0,1024,1024,1024,1024,310.9,-89.9,98,3.958,3.947,3.975,3.977,3.996,3.989,23.565,80.6,14,Waypoint,
35.7347979,-118.6147864,4916.518401095,32.152232,0,0.79295278128,8700,2018-07-05 22:08:44,16,0,23.803,4916.518401095,32.152232,0.447388,0.98025921772,0,0,-0.671082,311.5, -1.1, 0.1,0,0,1024,1024,1024,1024,310.9,-89.9,98,3.958,3.947,3.975,3.977,3.996,3.989,23.565,80.6,14,Waypoint,
35.7347979,-118.6147864,4917.502653095,33.136484,0,0.79295278128,8800,2018-07-05 22:08:44,16,0,23.803,4917.502653095,33.136484,0.447388,0.98025921772,0,0,-0.671082,311.6, -0.9, 0.1,0,0,1024,1024,1024,1024,310.9,-89.9,98,3.958,3.947,3.975,3.977,3.996,3.989,23.565,80.6,14,Waypoint,
35.7347979,-118.6147864,4918.814989095,34.44882,0,0.79295278128,8900,2018-07-05 22:08:44,16,0,23.803,4918.814989095,34.44882,0.447388,0.98025921772,0,0,-0.671082,311.7, -0.6, 0.1,0,0,1024,1024,1024,1024,310.9,-89.9,98,3.958,3.947,3.975,3.977,3.996,3.989,23.565,80.6,14,Waypoint,
35.7347979,-118.6147865,4919.799241095,35.433072,0,0.80774936968,9000,2018-07-05 22:08:45,16,0,24.072,4919.799241095,35.433072,0.447388,0.98025921772,0,0,-0.671082,312, -0.7, 0.3,0,0,1024,1024,1024,1024,310.9,-89.9,98,4.008,4.002,4.008,4.014,4.033,4.019,19.688,82.4,14,Waypoint,
35.7347979,-118.6147865,4920.783493095,36.417324,0,0.80774936968,9100,2018-07-05 22:08:45,16,0,24.072,4920.783493095,36.417324,0.447388,0.98025921772,0,0,-0.671082,312.1, -0.7, 0.5,0,0,1024,1024,1024,1024,310.9,-89.9,98,4.008,4.002,4.008,4.014,4.033,4.019,19.688,82.4,14,Waypoint,
35.7347979,-118.6147865,4921.767745095,37.401576,0,0.80774936968,9200,2018-07-05 22:08:45,16,0,24.072,4921.767745095,37.401576,0.447388,0.98025921772,0,0,-0.671082,312.1, -0.9, 0.4,0,0,1024,1024,1024,1024,310.9,-89.9,98,4.008,4.002,4.008,4.014,4.033,4.019,19.688,82.4,14,Waypoint,
35.7347979,-118.6147864,4922.751997095,38.385828,0,0.79295278128,9300,2018-07-05 22:08:45,16,0,24.072,4922.751997095,38.385828,0.447388,0.98025921772,0,0,-0.671082,312, -1.2, 0,0,0,1024,1024,1024,1024,310.9,-89.9,98,4.008,4.002,4.008,4.014,4.033,4.019,19.688,82.4,14,Waypoint,
35.7347979,-118.6147864,4923.736249095,39.37008,0,0.79295278128,9400,2018-07-05 22:08:45,16,0,24.072,4923.736249095,39.37008,0.447388,0.98025921772,0,0,-0.671082,311.8, -1.4, -0.5,0,0,1024,1024,1024,1024,310.9,-90,98,4.008,4.002,4.008,4.014,4.033,4.019,19.688,82.4,14,Waypoint,
35.7347979,-118.6147863,4925.048585095,40.682416,0,0.77900593044,9500,2018-07-05 22:08:45,16,0,24.072,4925.048585095,40.682416,0.447388,0.98025921772,0,0,-0.671082,311.6, -1.5, -1,0,0,1024,1024,1024,1024,310.9,-90,98,4.008,4.002,4.008,4.014,4.033,4.019,19.688,82.4,14,Waypoint,
35.7347979,-118.6147863,4926.032837095,41.666668,0,0.77900593044,9600,2018-07-05 22:08:45,16,0,24.072,4926.032837095,41.666668,0.447388,0.98025921772,0,0,-0.671082,311.3, -1.6, -1.1,0,0,1024,1024,1024,1024,310.9,-89.9,98,4.008,4.002,4.008,4.014,4.033,4.019,19.688,82.4,14,Waypoint,
35.734798,-118.6147862,4927.017089095,42.65092,0,0.73309057464,9700,2018-07-05 22:08:45,16,0,24.072,4927.017089095,42.65092,0.447388,0.98025921772,0,0,-0.671082,311.1, -1.3, -1.1,0,0,1024,1024,1024,1024,310.9,-89.9,98,4.008,4.002,4.008,4.014,4.033,4.019,19.688,82.4,14,Waypoint,
35.734798,-118.6147862,4928.001341095,43.635172,0,0.73309057464,9800,2018-07-05 22:08:45,15,0,24.072,4928.001341095,43.635172,0.447388,0.98025921772,0,0,-0.671082,311, -1, -1.2,0,0,1024,1024,1024,1024,310.9,-89.9,98,4.008,4.002,4.008,4.014,4.033,4.019,19.688,82.4,14,Waypoint,
35.734798,-118.6147862,4928.985593095,44.619424,0,0.73309057464,10000,2018-07-05 22:08:46,15,0,24.072,4928.985593095,44.619424,0.447388,0.98025921772,0,0,-0.671082,310.9, -1.1, -1.3,0,0,1024,1024,1024,1024,310.9,-89.9,98,4.008,4.002,4.008,4.014,4.033,4.019,19.688,82.4,14,Waypoint,
35.7347981,-118.6147862,4930.954097095,46.587928,0,0.70059385444,10100,2018-07-05 22:08:46,15,0,24.072,4930.954097095,46.587928,0.447388,0.98025921772,0,0,-0.671082,310.8, -0.9, -0.6,0,0,1024,1024,1024,1024,310.9,-89.9,98,4.008,4.002,4.008,4.014,4.033,4.019,19.688,82.4,14,Waypoint,
35.7347981,-118.6147862,4931.938349095,47.57218,0,0.70059385444,10200,2018-07-05 22:08:46,15,0,24.072,4931.938349095,47.57218,0.447388,0.98025921772,0,0,-0.671082,310.8, -0.8, -0.3,0,0,1024,1024,1024,1024,310.9,-89.9,98,4.008,4.002,4.008,4.014,4.033,4.019,19.688,82.4,14,Waypoint,
35.7347982,-118.6147862,4932.922601095,48.556432,0.223694,0.66850723924,10300,2018-07-05 22:08:46,15,0,24.072,4932.922601095,48.556432,0.447388,0.98025921772,0,0,-0.671082,310.6, -0.6, -0.5,0,0,1024,1024,1024,1024,310.9,-89.9,98,4.008,4.002,4.008,4.014,4.033,4.019,19.688,82.4,14,Waypoint,
35.7347983,-118.6147862,4933.906853095,49.540684,0.223694,0.63689634584,10400,2018-07-05 22:08:46,15,0,24.072,4933.906853095,49.540684,0.447388,0.98025921772,0,0,-0.671082,310.6, -0.2, -0.8,0,0,1024,1024,1024,1024,310.9,-89.9,98,4.008,4.002,4.008,4.014,4.033,4.019,19.688,82.4,14,Waypoint,
35.7347983,-118.6147863,4934.891105095,50.524936,0.223694,0.6525426718,10500,2018-07-05 22:08:46,15,0,24.072,4934.891105095,50.524936,0.447388,0.98025921772,0,0,-0.671082,310.6, 0, -1.1,0,0,1024,1024,1024,1024,310.9,-89.9,98,4.008,4.002,4.008,4.014,4.033,4.019,19.688,82.4,14,Waypoint,
35.7347984,-118.6147863,4935.875357095,51.509188,0.223694,0.6222605186,10600,2018-07-05 22:08:46,15,0,24.072,4935.875357095,51.509188,0.447388,0.98025921772,0,0,-0.671082,310.7, 0.1, -1.4,0,0,1024,1024,1024,1024,310.9,-89.9,98,4.008,4.002,4.008,4.014,4.033,4.019,19.688,82.4,14,Waypoint,
35.7347984,-118.6147863,4936.859609095,52.49344,0,0.6222605186,10700,2018-07-05 22:08:46,15,0,24.072,4936.859609095,52.49344,0.447388,0.98025921772,0,0,-0.671082,311, 0.1, -1.2,0,0,1024,1024,1024,1024,310.9,-89.9,98,4.008,4.002,4.008,4.014,4.033,4.019,19.688,82.4,14,Waypoint,
35.7347984,-118.6147863,4937.843861095,53.477692,0,0.6222605186,10800,2018-07-05 22:08:46,15,0,24.072,4937.843861095,53.477692,0.447388,0.98025921772,0,0,-0.671082,311.2, -0.1, -1.1,0,0,1024,1024,1024,1024,310.9,-89.9,98,4.008,4.002,4.008,4.014,4.033,4.019,19.688,82.4,14,Waypoint,
35.7347984,-118.6147863,4938.500029095,54.13386,0,0.6222605186,10900,2018-07-05 22:08:46,15,0,24.072,4938.500029095,54.13386,0.447388,0.98025921772,0,0,-0.671082,311.4, -0.3, -1,0,0,1024,1024,1024,1024,310.9,-89.9,98,4.008,4.002,4.008,4.014,4.033,4.019,19.688,82.4,14,Waypoint,
35.7347985,-118.6147863,4939.484281095,55.118112,0,0.59267718432,11000,2018-07-05 22:08:47,15,0,24.206,4939.484281095,55.118112,0.447388,0.98025921772,0,0,-0.671082,311.6, -0.3, -0.8,0,0,1024,1024,1024,1024,310.9,-89.9,98,4.027,4.017,4.03,4.028,4.039,4.04,17.683,82.4,14,Waypoint,
35.7347985,-118.6147863,4940.468533095,56.102364,0,0.59267718432,11100,2018-07-05 22:08:47,15,0,24.206,4940.468533095,56.102364,0.447388,0.98025921772,0,0,-0.671082,311.7, -0.3, -0.6,0,0,1024,1024,1024,1024,310.9,-89.9,98,4.027,4.017,4.03,4.028,4.039,4.04,17.683,82.4,14,Waypoint,
35.7347986,-118.6147863,4941.780869095,57.4147,0,0.56390421752,11200,2018-07-05 22:08:47,15,0,24.206,4941.780869095,57.4147,0.447388,0.98025921772,0,0,-0.671082,311.7, -0.2, -0.7,0,0,1024,1024,1024,1024,310.9,-89.9,98,4.027,4.017,4.03,4.028,4.039,4.04,17.683,82.4,14,Waypoint,
35.7347986,-118.6147863,4942.765121095,58.398952,0,0.56390421752,11300,2018-07-05 22:08:47,15,0,24.206,4942.765121095,58.398952,0.447388,0.98025921772,0,0,-0.671082,311.7, -0.1, -1,0,0,1024,1024,1024,1024,310.9,-89.9,98,4.027,4.017,4.03,4.028,4.039,4.04,17.683,82.4,14,Waypoint,
35.7347987,-118.6147863,4943.749373095,59.383204,0,0.53606957096,11400,2018-07-05 22:08:47,15,0,24.206,4943.749373095,59.383204,0.447388,0.98025921772,0,0,-0.671082,311.6, 0, -1.4,0,0,1024,1024,1024,1024,310.9,-89.9,98,4.027,4.017,4.03,4.028,4.039,4.04,17.683,82.4,14,Waypoint,
35.7347987,-118.6147863,4944.733625095,60.367456,0,0.53606957096,11500,2018-07-05 22:08:47,15,0,24.206,4944.733625095,60.367456,0.447388,0.98025921772,0,0,-0.671082,311.4, 0.7, -1.7,0,0,1024,1024,1024,1024,310.9,-89.9,98,4.027,4.017,4.03,4.028,4.039,4.04,17.683,82.4,14,Waypoint,
35.7347988,-118.6147863,4946.045961095,61.679792,0,0.50933072496,11600,2018-07-05 22:08:47,15,0,24.206,4946.045961095,61.679792,0.447388,0.98025921772,0,0,-0.671082,311.3, 1.4, -0.8,0,0,1024,1024,1024,1024,310.9,-89.9,98,4.027,4.017,4.03,4.028,4.039,4.04,17.683,82.4,14,Waypoint,
35.7347988,-118.6147863,4947.030213095,62.664044,0,0.50933072496,11700,2018-07-05 22:08:47,15,0,24.206,4947.030213095,62.664044,0.447388,0.98025921772,0,0,-0.671082,311.2, 0.9, -0.3,0,0,1024,1024,1024,1024,310.9,-89.9,98,4.027,4.017,4.03,4.028,4.039,4.04,17.683,82.4,14,Waypoint,
35.7347987,-118.6147862,4948.014465095,63.648296,0,0.5169127462,11900,2018-07-05 22:08:47,15,0,24.206,4948.014465095,63.648296,0.447388,0.98025921772,0,0,-0.671082,311, -0.1, -0.3,0,0,1024,1024,1024,1024,310.9,-90,98,4.027,4.017,4.03,4.028,4.039,4.04,17.683,82.4,14,Waypoint,
35.7347987,-118.6147859,4950.311053095,65.944884,0.223694,0.46604988368,12000,2018-07-05 22:08:48,15,0,24.106,4950.311053095,65.944884,0.447388,0.98025921772,0,0,-0.671082,310.5, -1.6, -1.2,0,0,1024,1024,1024,1024,310.9,-90,98,4.027,4.017,4.03,4.028,4.039,4.04,18.281,82.4,14,Waypoint,
35.7347988,-118.6147857,4951.295305095,66.929136,0.223694,0.40582022296,12200,2018-07-05 22:08:48,15,0,24.106,4951.295305095,66.929136,0.447388,0.98025921772,0,0,-0.671082,310.5, -2.1, -2,0,0,1024,1024,1024,1024,310.9,-90,98,4.027,4.017,4.03,4.028,4.039,4.04,18.281,82.4,14,Waypoint,
35.7347988,-118.6147854,4952.279557095,67.913388,0.223694,0.37551182304,12300,2018-07-05 22:08:48,15,0,24.106,4952.279557095,67.913388,0.447388,0.98025921772,0,0,-0.671082,310.8, -2.9, -2.6,0,0,1024,1024,1024,1024,310.9,-90,98,4.027,4.017,4.03,4.028,4.039,4.04,18.281,82.4,14,Waypoint,
35.7347988,-118.6147849,4954.248061095,69.881892,0.223694,0.36962599608,12400,2018-07-05 22:08:48,15,0,24.106,4954.248061095,69.881892,0.447388,0.98025921772,0,0,-0.671082,311.6, -4, -3.2,0,0,1024,1024,1024,1024,310.9,-90,98,4.027,4.017,4.03,4.028,4.039,4.04,18.281,82.4,14,Waypoint,
35.7347988,-118.6147847,4955.232313095,70.866144,0.223694,0.38359909364,12500,2018-07-05 22:08:48,15,0,24.106,4955.232313095,70.866144,0.447388,0.98025921772,0,0,-0.671082,311.8, -4.1, -3.4,0,0,1024,1024,1024,1024,310.9,-90,98,4.027,4.017,4.03,4.028,4.039,4.04,18.281,82.4,14,Waypoint,
35.7347988,-118.6147844,4956.216565095,71.850396,0.223694,0.4196358402,12600,2018-07-05 22:08:48,15,0,24.106,4956.216565095,71.850396,0.447388,0.98025921772,0,0,-0.671082,311.9, -4.1, -4,0,0,1024,1024,1024,1024,310.9,-89.9,98,4.027,4.017,4.03,4.028,4.039,4.04,18.281,82.4,14,Waypoint,
35.7347989,-118.6147842,4957.200817095,72.834648,0.223694,0.42292980356,12700,2018-07-05 22:08:48,15,0,24.106,4957.200817095,72.834648,0.447388,0.98025921772,0,0,-0.671082,312, -3.9, -4.6,0,0,1024,1024,1024,1024,310.9,-90,98,4.027,4.017,4.03,4.028,4.039,4.04,18.281,82.4,14,Waypoint,
35.7347989,-118.614784,4958.185069095,73.8189,0.223694,0.4625492274,12800,2018-07-05 22:08:48,15,0,24.106,4958.185069095,73.8189,0.447388,0.98025921772,0,0,-0.671082,312.1, -3.8, -4.9,0,0,1024,1024,1024,1024,310.9,-90,98,4.027,4.017,4.03,4.028,4.039,4.04,18.281,82.4,14,Waypoint,
35.734799,-118.6147838,4959.169321095,74.803152,0.223694,0.48313977924,12900,2018-07-05 22:08:48,15,0,24.106,4959.169321095,74.803152,0.447388,0.98025921772,0,0,-0.671082,312, -3.8, -5.3,0,0,1024,1024,1024,1024,310.9,-90,98,4.027,4.017,4.03,4.028,4.039,4.04,18.281,82.4,14,Waypoint,
35.7347991,-118.6147836,4960.153573095,75.787404,0.223694,0.51242127624,13000,2018-07-05 22:08:49,15,0,24.122,4960.153573095,75.787404,0.447388,0.98025921772,0,0,-0.671082,311.8, -3.8, -5.6,0,0,1024,1024,1024,1024,310.9,-90,98,4.01,4,4.019,4.011,4.026,4.015,18.281,82.4,14,Waypoint,
35.7347991,-118.6147834,4960.809741095,76.443572,0,0.56454398132,13100,2018-07-05 22:08:49,15,0,24.122,4960.809741095,76.443572,0.447388,0.98025921772,0,0,-0.671082,311.7, -3.3, -5.2,0,0,1024,1024,1024,1024,310.9,-90,98,4.01,4,4.019,4.011,4.026,4.015,18.281,82.4,14,Waypoint,
35.7347991,-118.6147833,4961.793993095,77.427824,0,0.59110566196,13200,2018-07-05 22:08:49,15,0,24.122,4961.793993095,77.427824,0.447388,0.98025921772,0,0,-0.671082,311.8, -3.4, -4.4,0,0,1024,1024,1024,1024,310.9,-89.9,98,4.01,4,4.019,4.011,4.026,4.015,18.281,82.4,14,Waypoint,
35.7347991,-118.6147832,4962.778245095,78.412076,0,0.61794949484,13300,2018-07-05 22:08:49,15,0,24.122,4962.778245095,78.412076,0.447388,0.98025921772,0,0,-0.671082,311.9, -3.8, -3.7,0,0,1024,1024,1024,1024,310.9,-90,98,4.01,4,4.019,4.011,4.026,4.015,18.281,82.4,14,Waypoint,
35.7347991,-118.6147831,4963.762497095,79.396328,0,0.64503282904,13400,2018-07-05 22:08:49,15,0,24.122,4963.762497095,79.396328,0.447388,0.98025921772,0,0,-0.671082,311.9, -3.7, -3.8,0,0,1024,1024,1024,1024,310.9,-89.9,98,4.01,4,4.019,4.011,4.026,4.015,18.281,82.4,14,Waypoint,
35.7347992,-118.614783,4964.746749095,80.38058,0,0.6593340106,13500,2018-07-05 22:08:49,15,0,24.122,4964.746749095,80.38058,0.447388,0.98025921772,0,0,-0.671082,312, -3.9, -4.2,0,0,1024,1024,1024,1024,310.9,-89.9,98,4.01,4,4.019,4.011,4.026,4.015,18.281,82.4,14,Waypoint,
35.7347992,-118.6147829,4965.731001095,81.364832,0,0.68734254168,13600,2018-07-05 22:08:49,15,0,24.122,4965.731001095,81.364832,0.447388,0.98025921772,0,0,-0.671082,312, -3.8, -4.4,0,0,1024,1024,1024,1024,310.9,-89.9,98,4.01,4,4.019,4.011,4.026,4.015,18.281,82.4,14,Waypoint,
35.7347992,-118.6147829,4966.387169095,82.021,0,0.68734254168,13700,2018-07-05 22:08:49,15,0,24.122,4966.387169095,82.021,0.447388,0.98025921772,0,0,-0.671082,312.1, -3.7, -4.8,0,0,1024,1024,1024,1024,310.9,-89.9,98,4.01,4,4.019,4.011,4.026,4.015,18.281,82.4,14,Waypoint,
35.7347993,-118.6147828,4967.371421095,83.005252,0,0.70517062624,13800,2018-07-05 22:08:49,15,0,24.122,4967.371421095,83.005252,0.447388,0.98025921772,0,0,-0.671082,312.2, -3.7, -5.1,0,0,1024,1024,1024,1024,310.9,-89.9,98,4.01,4,4.019,4.011,4.026,4.015,18.281,82.4,14,Waypoint,
35.7347993,-118.6147827,4969.339925095,84.973756,0,0.73381892112,14000,2018-07-05 22:08:50,15,0,24.122,4969.339925095,84.973756,0.447388,0.98025921772,0,0,-0.671082,312, -3.6, -5.3,0,0,1024,1024,1024,1024,310.9,-89.9,98,4.041,4.032,4.048,4.042,4.039,4.052,18.281,82.4,14,Waypoint,
35.7347994,-118.6147826,4970.324177095,85.958008,0,0.7546424126,14100,2018-07-05 22:08:50,15,0,24.122,4970.324177095,85.958008,0.447388,0.98025921772,0,0,-0.671082,311.9, -3.5, -5.2,0,0,1024,1024,1024,1024,310.9,-89.9,98,4.041,4.032,4.048,4.042,4.039,4.052,18.281,82.4,14,Waypoint,
35.7347994,-118.6147826,4971.964597095,87.598428,0,0.7546424126,14300,2018-07-05 22:08:50,15,0,24.122,4971.964597095,87.598428,0.447388,0.98025921772,0,0,-0.671082,311.4, -3.4, -4.4,0,0,1024,1024,1024,1024,310.9,-89.9,98,4.041,4.032,4.048,4.042,4.039,4.052,18.281,82.4,14,Waypoint,
35.7347994,-118.6147826,4973.605017095,89.238848,0,0.7546424126,14500,2018-07-05 22:08:50,15,0,24.122,4973.605017095,89.238848,0.447388,0.98025921772,0,0,-0.671082,311.3, -3.7, -4.7,0,0,1024,1024,1024,1024,310.9,-90,98,4.041,4.032,4.048,4.042,4.039,4.052,18.281,82.4,14,Waypoint,
35.7347995,-118.6147825,4974.589269095,90.2231,0,0.77775264956,14600,2018-07-05 22:08:50,15,0,24.122,4974.589269095,90.2231,0.447388,0.98025921772,0,0,-0.671082,311.5, -4, -5.4,0,0,1024,1024,1024,1024,310.9,-90,98,4.041,4.032,4.048,4.042,4.039,4.052,18.281,82.4,14,Waypoint,
35.7347995,-118.6147825,4975.573521095,91.207352,0,0.77775264956,14700,2018-07-05 22:08:50,15,0,24.122,4975.573521095,91.207352,0.447388,0.98025921772,0,0,-0.671082,311.8, -4.1, -5.7,0,0,1024,1024,1024,1024,310.9,-90,98,4.041,4.032,4.048,4.042,4.039,4.052,18.281,82.4,14,Waypoint,
35.7347996,-118.6147825,4977.542025095,93.175856,0,0.77346131084,14900,2018-07-05 22:08:50,15,0,24.122,4977.542025095,93.175856,0.447388,0.98025921772,0,0,-0.671082,312.1, -3.5, -5.6,0,0,1024,1024,1024,1024,310.9,-89.9,98,4.041,4.032,4.048,4.042,4.039,4.052,18.281,82.4,14,Waypoint,
35.7347997,-118.6147826,4978.198193095,93.832024,0.223694,0.74129595548,15000,2018-07-05 22:08:51,15,0,24.152,4978.198193095,93.832024,0.447388,0.98025921772,0,0,-0.671082,312.1, -3, -5.8,0,0,1024,1024,1024,1024,310.9,-89.9,98,4.01,4.007,4.013,4.032,4.04,4.024,17.677,82.4,14,Waypoint,
35.7347998,-118.6147827,4979.182445095,94.816276,0.223694,0.71078086264,15100,2018-07-05 22:08:51,15,0,24.152,4979.182445095,94.816276,0.447388,0.98025921772,0,0,-0.671082,312, -2, -6,0,0,1024,1024,1024,1024,310.9,-89.9,98,4.01,4.007,4.013,4.032,4.04,4.024,17.677,82.4,14,Waypoint,
35.7347999,-118.6147829,4980.166697095,95.800528,0,0.65256891852,15200,2018-07-05 22:08:51,15,0,24.152,4980.166697095,95.800528,0.447388,0.98025921772,0,0,-0.671082,311.8, -1.3, -6,0,0,1024,1024,1024,1024,310.9,-89.9,98,4.01,4.007,4.013,4.032,4.04,4.024,17.677,82.4,14,Waypoint,
35.7347999,-118.614783,4981.150949095,96.78478,0,0.62300198844,15300,2018-07-05 22:08:51,15,0,24.152,4981.150949095,96.78478,0.447388,0.98025921772,0,0,-0.671082,311.6, -1.2, -5.8,0,0,1024,1024,1024,1024,310.9,-89.9,98,4.01,4.007,4.013,4.032,4.04,4.024,17.677,82.4,14,Waypoint,
35.7347999,-118.6147832,4982.135201095,97.769032,0,0.56388453248,15400,2018-07-05 22:08:51,15,0,24.152,4982.135201095,97.769032,0.447388,0.98025921772,0,0,-0.671082,311.5, -1.6, -5.3,0,0,1024,1024,1024,1024,310.9,-89.9,98,4.01,4.007,4.013,4.032,4.04,4.024,17.677,82.4,14,Waypoint,
35.7347998,-118.6147833,4983.119453095,98.753284,0,0.5330872874,15500,2018-07-05 22:08:51,15,0,24.152,4983.119453095,98.753284,0.447388,0.98025921772,0,0,-0.671082,311.3, -2.2, -4.8,0,0,1024,1024,1024,1024,310.9,-89.9,98,4.01,4.007,4.013,4.032,4.04,4.024,17.677,82.4,14,Waypoint,
35.7347998,-118.6147834,4984.103705095,99.737536,0,0.50347114472,15600,2018-07-05 22:08:51,15,0,24.152,4984.103705095,99.737536,0.447388,0.98025921772,0,0,-0.671082,311.2, -2.6, -4.7,0,0,1024,1024,1024,1024,310.9,-90,98,4.01,4.007,4.013,4.032,4.04,4.024,17.677,82.4,14,Waypoint,
35.7347997,-118.6147835,4985.087957095,100.721788,0,0.47525592072,15700,2018-07-05 22:08:51,15,0,24.152,4985.087957095,100.721788,0.447388,0.98025921772,0,0,-0.671082,311.2, -3, -4.5,0,0,1024,1024,1024,1024,310.9,-90,98,4.01,4.007,4.013,4.032,4.04,4.024,17.677,82.4,14,Waypoint,
35.7347996,-118.6147837,4986.072209095,101.70604,0,0.42099410796,15800,2018-07-05 22:08:51,15,0,24.152,4986.072209095,101.70604,0.447388,0.98025921772,0,0,-0.671082,311.1, -3.1, -3.7,0,0,1024,1024,1024,1024,310.9,-90,98,4.01,4.007,4.013,4.032,4.04,4.024,17.677,82.4,14,Waypoint,
35.7347995,-118.6147838,4987.056461095,102.690292,0,0.40026248,15900,2018-07-05 22:08:51,15,0,24.152,4987.056461095,102.690292,0.447388,0.98025921772,0,0,-0.671082,311.1, -3.3, -3.2,0,0,1024,1024,1024,1024,310.9,-89.9,98,4.01,4.007,4.013,4.032,4.04,4.024,17.677,82.4,14,Waypoint,
35.7347994,-118.6147839,4988.040713095,103.674544,0,0.38418964484,16000,2018-07-05 22:08:52,15,0,23.98,4988.040713095,103.674544,0.447388,0.98025921772,0,0,-0.671082,311.2, -3.1, -3.1,0,0,1024,1024,1024,1024,310.9,-89.9,97,3.982,3.972,3.996,3.989,4.009,4.024,18.713,82.4,14,Waypoint,
35.7347993,-118.6147841,4989.024965095,104.658796,0,0.3478346568,16100,2018-07-05 22:08:52,15,0,23.98,4989.024965095,104.658796,0.447388,0.98025921772,0,0,-0.671082,311.3, -3.3, -3,0,0,1024,1024,1024,1024,310.9,-90,97,3.982,3.972,3.996,3.989,4.009,4.024,18.713,82.4,14,Waypoint,
35.7347992,-118.6147842,4990.009217095,105.643048,0,0.3449147092,16200,2018-07-05 22:08:52,15,0,23.98,4990.009217095,105.643048,0.447388,0.98025921772,0,0,-0.671082,311.5, -3.4, -2.6,0,0,1024,1024,1024,1024,310.9,-89.9,97,3.982,3.972,3.996,3.989,4.009,4.024,18.713,82.4,14,Waypoint,
35.7347991,-118.6147844,4990.993469095,106.6273,0,0.32894358008,16300,2018-07-05 22:08:52,15,0,23.98,4990.993469095,106.6273,0.447388,0.98025921772,0,0,-0.671082,311.6, -3.6, -2.3,0,0,1024,1024,1024,1024,310.9,-90,97,3.982,3.972,3.996,3.989,4.009,4.024,18.713,82.4,14,Waypoint,
35.734799,-118.6147845,4991.977721095,107.611552,0,0.3417158902,16400,2018-07-05 22:08:52,15,0,23.98,4991.977721095,107.611552,0.447388,0.98025921772,0,0,-0.671082,311.8, -3.6, -2.3,0,0,1024,1024,1024,1024,310.9,-89.9,97,3.982,3.972,3.996,3.989,4.009,4.024,18.713,82.4,14,Waypoint,
35.7347989,-118.6147847,4993.618141095,109.251972,0,0.349081376,16600,2018-07-05 22:08:52,15,0,23.98,4993.618141095,109.251972,0.447388,0.98025921772,0,0,-0.671082,312, -3.6, -2.2,0,0,1024,1024,1024,1024,310.9,-90,97,3.982,3.972,3.996,3.989,4.009,4.024,18.713,82.4,14,Waypoint,
35.7347988,-118.6147849,4994.930477095,110.564308,0,0.36962599608,16700,2018-07-05 22:08:52,15,0,23.98,4994.930477095,110.564308,0.447388,0.98025921772,0,0,-0.671082,311.9, -3.5, -2.4,0,0,1024,1024,1024,1024,310.9,-89.9,97,3.982,3.972,3.996,3.989,4.009,4.024,18.713,82.4,14,Waypoint,
35.7347987,-118.6147851,4996.898981095,112.532812,0,0.40133531468,16900,2018-07-05 22:08:52,15,0,23.98,4996.898981095,112.532812,0.447388,0.98025921772,0,0,-0.671082,311.7, -2.5, -2.5,0,0,1024,1024,1024,1024,310.9,-89.9,97,3.982,3.972,3.996,3.989,4.009,4.024,18.713,82.4,14,Waypoint,
35.7347987,-118.6147853,4998.867485095,114.501316,0,0.40568242768,17100,2018-07-05 22:08:53,15,0,23.98,4998.867485095,114.501316,0.447388,0.98025921772,0,0,-0.671082,311.4, -1.9, -2.4,0,0,1024,1024,1024,1024,310.9,-89.9,97,3.982,3.972,3.996,3.989,4.009,4.024,18.713,82.4,14,Waypoint,
35.7347987,-118.6147854,4999.851737095,115.485568,0,0.41104988192,17200,2018-07-05 22:08:53,15,0,23.98,4999.851737095,115.485568,0.447388,0.98025921772,0,0,-0.671082,311.1, -1.7, -2.4,0,0,1024,1024,1024,1024,310.9,-89.9,97,3.982,3.972,3.996,3.989,4.009,4.024,18.713,82.4,14,Waypoint,
35.7347987,-118.6147855,5000.835989095,116.46982,0,0.41845145696,17300,2018-07-05 22:08:53,15,0,23.98,5000.835989095,116.46982,0.447388,0.98025921772,0,0,-0.671082,311, -1.8, -2.3,0,0,1024,1024,1024,1024,310.9,-89.9,97,3.982,3.972,3.996,3.989,4.009,4.024,18.713,82.4,14,Waypoint,
35.7347987,-118.6147857,5001.820241095,117.454072,0,0.43891405604,17400,2018-07-05 22:08:53,15,0,23.98,5001.820241095,117.454072,0.447388,0.98025921772,0,0,-0.671082,311, -2, -2.3,0,0,1024,1024,1024,1024,310.9,-89.9,97,3.982,3.972,3.996,3.989,4.009,4.024,18.713,82.4,14,Waypoint,
35.7347987,-118.6147858,5002.804493095,118.438324,0,0.45171589372,17500,2018-07-05 22:08:53,15,0,23.98,5002.804493095,118.438324,0.447388,0.98025921772,0,0,-0.671082,311.3, -2.3, -2.3,0,0,1024,1024,1024,1024,310.9,-89.9,97,3.982,3.972,3.996,3.989,4.009,4.024,18.713,82.4,14,Waypoint,
35.7347987,-118.614786,5005.757249095,121.39108,0,0.48178151148,17800,2018-07-05 22:08:53,15,0,23.98,5005.757249095,121.39108,0.447388,0.98025921772,0,0,-0.671082,311.6, -1.1, -2.6,0,0,1024,1024,1024,1024,310.9,-89.9,97,3.982,3.972,3.996,3.989,4.009,4.024,18.713,82.4,14,Waypoint,
35.7347987,-118.6147861,5006.741501095,122.375332,0,0.49877626268,17900,2018-07-05 22:08:53,15,0,23.98,5006.741501095,122.375332,0.447388,0.98025921772,0,0,-0.671082,311.6, -1.2, -2.7,0,0,1024,1024,1024,1024,310.9,-89.9,97,3.982,3.972,3.996,3.989,4.009,4.024,18.713,82.4,14,Waypoint,
35.7347987,-118.6147862,5008.053837095,123.687668,0,0.5169127462,18000,2018-07-05 22:08:54,15,0,23.832,5008.053837095,123.687668,0.447388,0.98025921772,0,0,-0.671082,311.5, -1.2, -2.3,0,0,1024,1024,1024,1024,310.9,-89.9,97,3.966,3.955,3.983,3.966,3.985,3.978,20.235,82.4,14,Waypoint,
35.7347987,-118.6147863,5009.038089095,124.67192,0,0.53606957096,18100,2018-07-05 22:08:54,15,0,23.832,5009.038089095,124.67192,0.447388,0.98025921772,0,0,-0.671082,311.3, -1.1, -2.1,0,0,1024,1024,1024,1024,310.9,-89.9,97,3.966,3.955,3.983,3.966,3.985,3.978,20.235,82.4,14,Waypoint,
35.7347988,-118.6147864,5010.022341095,125.656172,0,0.53041996448,18200,2018-07-05 22:08:54,15,0,23.832,5010.022341095,125.656172,0.447388,0.98025921772,0,0,-0.671082,311.2, -0.9, -2.2,0,0,1024,1024,1024,1024,310.9,-89.9,97,3.966,3.955,3.983,3.966,3.985,3.978,20.235,82.4,14,Waypoint,
35.7347988,-118.6147864,5011.006593095,126.640424,0,0.53041996448,18300,2018-07-05 22:08:54,15,0,23.832,5011.006593095,126.640424,0.447388,0.98025921772,0,0,-0.671082,311, -0.9, -2.2,0,0,1024,1024,1024,1024,310.9,-89.9,97,3.966,3.955,3.983,3.966,3.985,3.978,20.235,82.4,14,Waypoint,
35.7347988,-118.6147865,5011.990845095,127.624676,0,0.55229332476,18400,2018-07-05 22:08:54,15,0,23.832,5011.990845095,127.624676,0.447388,0.98025921772,0,0,-0.671082,311, -0.9, -2.4,0,0,1024,1024,1024,1024,310.9,-89.9,97,3.966,3.955,3.983,3.966,3.985,3.978,20.235,82.4,14,Waypoint,
35.7347988,-118.6147865,5013.303181095,128.937012,0,0.55229332476,18500,2018-07-05 22:08:54,15,0,23.832,5013.303181095,128.937012,0.447388,0.98025921772,0,0,-0.671082,311, -1, -2.6,0,0,1024,1024,1024,1024,310.9,-89.9,97,3.966,3.955,3.983,3.966,3.985,3.978,20.235,82.4,14,Waypoint,
35.7347988,-118.6147865,5014.287433095,129.921264,0,0.55229332476,18600,2018-07-05 22:08:54,15,0,23.832,5014.287433095,129.921264,0.447388,0.98025921772,0,0,-0.671082,311, -1.1, -2.8,0,0,1024,1024,1024,1024,310.9,-89.9,97,3.966,3.955,3.983,3.966,3.985,3.978,20.235,82.4,14,Waypoint,
35.7347988,-118.6147864,5015.271685095,130.905516,0,0.53041996448,18700,2018-07-05 22:08:54,15,0,23.832,5015.271685095,130.905516,0.447388,0.98025921772,0,0,-0.671082,311.2, -1.4, -2.9,0,0,1024,1024,1024,1024,310.9,-89.9,97,3.966,3.955,3.983,3.966,3.985,3.978,20.235,82.4,14,Waypoint,
35.7347988,-118.6147864,5016.255937095,131.889768,0,0.53041996448,18800,2018-07-05 22:08:54,15,0,23.832,5016.255937095,131.889768,0.447388,0.98025921772,0,0,-0.671082,311.4, -1.7, -3,0,0,1024,1024,1024,1024,310.9,-89.9,97,3.966,3.955,3.983,3.966,3.985,3.978,20.235,82.4,14,Waypoint,
35.7347988,-118.6147863,5017.240189095,132.87402,0,0.50933072496,18900,2018-07-05 22:08:54,15,0,23.832,5017.240189095,132.87402,0.447388,0.98025921772,0,0,-0.671082,311.6, -2, -3.2,0,0,1024,1024,1024,1024,310.9,-90,97,3.966,3.955,3.983,3.966,3.985,3.978,20.235,82.4,14,Waypoint,
35.7347987,-118.6147862,5018.224441095,133.858272,0,0.5169127462,19000,2018-07-05 22:08:55,15,0,23.781,5018.224441095,133.858272,0.447388,0.98025921772,0,0,-0.671082,311.7, -2.2, -3.4,0,0,1024,1024,1024,1024,310.9,-90,97,3.96,3.951,3.977,3.944,3.987,3.963,20.049,82.4,14,Waypoint,
35.7347987,-118.6147861,5019.536777095,135.170608,0,0.49877626268,19100,2018-07-05 22:08:55,15,0,23.781,5019.536777095,135.170608,0.447388,0.98025921772,0,0,-0.671082,311.7, -2.3, -3.6,0,0,1024,1024,1024,1024,310.9,-90,97,3.96,3.951,3.977,3.944,3.987,3.963,20.049,82.4,14,Waypoint,
35.7347988,-118.614786,5020.521029095,136.15486,0,0.45184056564,19200,2018-07-05 22:08:55,15,0,23.781,5020.521029095,136.15486,0.447388,0.98025921772,0,0,-0.671082,311.8, -2.4, -3.7,0,0,1024,1024,1024,1024,310.9,-90,97,3.96,3.951,3.977,3.944,3.987,3.963,20.049,82.4,14,Waypoint,
35.7347987,-118.6147859,5021.505281095,137.139112,0,0.46604988368,19300,2018-07-05 22:08:55,15,0,23.781,5021.505281095,137.139112,0.447388,0.98025921772,0,0,-0.671082,311.8, -2.7, -3.7,0,0,1024,1024,1024,1024,310.9,-90,97,3.96,3.951,3.977,3.944,3.987,3.963,20.049,82.4,14,Waypoint,
35.7347987,-118.6147858,5022.489533095,138.123364,0,0.45171589372,19400,2018-07-05 22:08:55,15,0,23.781,5022.489533095,138.123364,0.447388,0.98025921772,0,0,-0.671082,311.8, -2.6, -3.9,0,0,1024,1024,1024,1024,310.9,-89.9,97,3.96,3.951,3.977,3.944,3.987,3.963,20.049,82.4,14,Waypoint,
35.7347987,-118.6147857,5023.473785095,139.107616,0,0.43891405604,19500,2018-07-05 22:08:55,15,0,23.781,5023.473785095,139.107616,0.447388,0.98025921772,0,0,-0.671082,311.7, -2.5, -3.8,0,0,1024,1024,1024,1024,310.9,-90,97,3.96,3.951,3.977,3.944,3.987,3.963,20.049,82.4,14,Waypoint,
35.7347988,-118.6147856,5024.458037095,140.091868,0,0.39375329344,19600,2018-07-05 22:08:55,15,0,23.781,5024.458037095,140.091868,0.447388,0.98025921772,0,0,-0.671082,311.6, -2.4, -4.1,0,0,1024,1024,1024,1024,310.9,-89.9,97,3.96,3.951,3.977,3.944,3.987,3.963,20.049,82.4,14,Waypoint,
35.7347988,-118.6147855,5025.442289095,141.07612,0,0.38359909364,19800,2018-07-05 22:08:55,15,0,23.781,5025.442289095,141.07612,0.447388,0.98025921772,0,0,-0.671082,311.5, -2.2, -4.1,0,0,1024,1024,1024,1024,310.9,-89.9,97,3.96,3.951,3.977,3.944,3.987,3.963,20.049,82.4,14,Waypoint,
35.7347989,-118.6147854,5026.426541095,142.060372,0,0.34017061456,19900,2018-07-05 22:08:55,15,0,23.781,5026.426541095,142.060372,0.447388,0.98025921772,0,0,-0.671082,311.5, -2.2, -4.3,0,0,1024,1024,1024,1024,310.9,-90,97,3.96,3.951,3.977,3.944,3.987,3.963,20.049,82.4,14,Waypoint,
35.7347989,-118.6147853,5027.738877095,143.372708,0,0.33366470884,20000,2018-07-05 22:08:56,15,0,23.781,5027.738877095,143.372708,0.447388,0.98025921772,0,0,-0.671082,311.5, -2.4, -4.5,0,0,1024,1024,1024,1024,310.9,-90,97,3.96,3.951,3.977,3.944,3.987,3.963,20.049,82.4,14,Waypoint,
35.734799,-118.6147851,5029.707381095,145.341212,0,0.291879602516,20100,2018-07-05 22:08:56,15,0,23.781,5029.707381095,145.341212,0.447388,0.98025921772,0,0,-0.671082,311.5, -2.8, -4.5,0,0,1024,1024,1024,1024,310.9,-90,97,3.96,3.951,3.977,3.944,3.987,3.963,20.049,82.4,14,Waypoint,
35.7347991,-118.6147849,5031.675885095,147.309716,0,0.262173236736,20300,2018-07-05 22:08:56,15,0,23.781,5031.675885095,147.309716,0.447388,0.98025921772,0,0,-0.671082,311.7, -2.6, -5,0,0,1024,1024,1024,1024,310.9,-90,97,3.96,3.951,3.977,3.944,3.987,3.963,20.049,82.4,14,Waypoint,
35.7347992,-118.6147847,5032.660137095,148.293968,0,0.248907816364,20400,2018-07-05 22:08:56,15,0,23.781,5032.660137095,148.293968,0.447388,0.98025921772,0,0,-0.671082,311.6, -2.5, -5.3,0,0,1024,1024,1024,1024,310.9,-89.9,97,3.96,3.951,3.977,3.944,3.987,3.963,20.049,82.4,14,Waypoint,
35.7347993,-118.6147846,5033.644389095,149.27822,0,0.234960309356,20500,2018-07-05 22:08:56,15,0,23.781,5033.644389095,149.27822,0.447388,0.98025921772,0,0,-0.671082,311.4, -2.2, -5.5,0,0,1024,1024,1024,1024,310.9,-89.9,97,3.96,3.951,3.977,3.944,3.987,3.963,20.049,82.4,14,Waypoint,
35.7347994,-118.6147843,5035.284809095,150.91864,0,0.27826772544,20700,2018-07-05 22:08:56,15,0,23.781,5035.284809095,150.91864,0.447388,0.98025921772,0,0,-0.671082,311.2, -3.2, -5.1,0,0,1024,1024,1024,1024,310.9,-89.9,97,3.96,3.951,3.977,3.944,3.987,3.963,20.049,82.4,14,Waypoint,
35.7347994,-118.6147841,5036.269061095,151.902892,0,0.33016405256,20800,2018-07-05 22:08:56,15,0,23.781,5036.269061095,151.902892,0.447388,0.98025921772,0,0,-0.671082,311.2, -3.6, -4.9,0,0,1024,1024,1024,1024,310.9,-89.9,97,3.96,3.951,3.977,3.944,3.987,3.963,20.049,82.4,14,Waypoint,
35.7347994,-118.614784,5037.253313095,152.887144,0,0.35696851536,20900,2018-07-05 22:08:56,15,0,23.781,5037.253313095,152.887144,0.447388,0.98025921772,0,0,-0.671082,311.3, -4, -4.8,0,0,1024,1024,1024,1024,310.9,-90,97,3.96,3.951,3.977,3.944,3.987,3.963,20.049,82.4,14,Waypoint,
35.7347993,-118.6147839,5038.237565095,153.871396,0,0.3994750784,21000,2018-07-05 22:08:57,15,0,23.744,5038.237565095,153.871396,0.447388,0.98025921772,0,0,-0.671082,311.6, -4.4, -4.6,0,0,1024,1024,1024,1024,310.9,-90,97,3.953,3.949,3.958,3.951,3.976,3.977,20.482,82.4,14,Waypoint,
35.7347994,-118.6147839,5040.206069095,155.8399,0,0.38418964484,21200,2018-07-05 22:08:57,15,0,23.744,5040.206069095,155.8399,0.447388,0.98025921772,0,0,-0.671082,311.9, -3.7, -4.4,0,0,1024,1024,1024,1024,310.9,-89.9,97,3.953,3.949,3.958,3.951,3.976,3.977,20.482,82.4,14,Waypoint,
35.7347995,-118.6147839,5041.190321095,156.824152,0,0.37186352896,21300,2018-07-05 22:08:57,15,0,23.744,5041.190321095,156.824152,0.447388,0.98025921772,0,0,-0.671082,311.9, -3.1, -4.7,0,0,1024,1024,1024,1024,310.9,-89.9,97,3.953,3.949,3.958,3.951,3.976,3.977,20.482,82.4,14,Waypoint,
35.7347995,-118.6147839,5042.174573095,157.808404,0,0.37186352896,21400,2018-07-05 22:08:57,15,0,23.744,5042.174573095,157.808404,0.447388,0.98025921772,0,0,-0.671082,311.8, -2.5, -4.8,0,0,1024,1024,1024,1024,310.9,-89.9,97,3.953,3.949,3.958,3.951,3.976,3.977,20.482,82.4,14,Waypoint,
35.7347996,-118.6147839,5043.158825095,158.792656,0,0.36280512972,21500,2018-07-05 22:08:57,15,0,23.744,5043.158825095,158.792656,0.447388,0.98025921772,0,0,-0.671082,311.8, -2.2, -5.1,0,0,1024,1024,1024,1024,310.9,-89.9,97,3.953,3.949,3.958,3.951,3.976,3.977,20.482,82.4,14,Waypoint,
35.7347997,-118.6147839,5044.143077095,159.776908,0,0.35725722928,21600,2018-07-05 22:08:57,15,0,23.744,5044.143077095,159.776908,0.447388,0.98025921772,0,0,-0.671082,311.7, -2, -5.2,0,0,1024,1024,1024,1024,310.9,-89.9,97,3.953,3.949,3.958,3.951,3.976,3.977,20.482,82.4,14,Waypoint,
35.7347998,-118.6147839,5045.127329095,160.76116,0,0.35539043132,21700,2018-07-05 22:08:57,15,0,23.744,5045.127329095,160.76116,0.447388,0.98025921772,0,0,-0.671082,311.7, -1.9, -5.3,0,0,1024,1024,1024,1024,310.9,-89.9,97,3.953,3.949,3.958,3.951,3.976,3.977,20.482,82.4,14,Waypoint,
35.7347998,-118.6147839,5046.111581095,161.745412,0,0.35539043132,21800,2018-07-05 22:08:57,15,0,23.744,5046.111581095,161.745412,0.447388,0.98025921772,0,0,-0.671082,311.6, -1.8, -5.6,0,0,1024,1024,1024,1024,310.9,-89.9,97,3.953,3.949,3.958,3.951,3.976,3.977,20.482,82.4,14,Waypoint,
35.7347999,-118.6147839,5047.095833095,162.729664,0,0.35725722928,21900,2018-07-05 22:08:57,15,0,23.744,5047.095833095,162.729664,0.447388,0.98025921772,0,0,-0.671082,311.5, -1.8, -5.3,0,0,1024,1024,1024,1024,310.9,-89.9,97,3.953,3.949,3.958,3.951,3.976,3.977,20.482,82.4,14,Waypoint,
35.7347999,-118.6147839,5048.080085095,163.713916,0,0.35725722928,22000,2018-07-05 22:08:58,15,0,23.756,5048.080085095,163.713916,0.447388,0.98025921772,0,0,-0.671082,311.4, -1.7, -5,0,0,1024,1024,1024,1024,310.9,-89.9,97,3.959,3.944,3.976,3.963,3.981,3.968,19.579,82.4,14,Waypoint,
35.7348,-118.6147839,5049.064337095,164.698168,0,0.36280512972,22100,2018-07-05 22:08:58,15,0,23.756,5049.064337095,164.698168,0.447388,0.98025921772,0,0,-0.671082,311.2, -1.8, -5.1,0,0,1024,1024,1024,1024,310.9,-89.9,97,3.959,3.944,3.976,3.963,3.981,3.968,19.579,82.4,14,Waypoint,
35.7348,-118.614784,5050.048589095,165.68242,0,0.33384843588,22200,2018-07-05 22:08:58,15,0,23.756,5050.048589095,165.68242,0.447388,0.98025921772,0,0,-0.671082,311, -2, -5.2,0,0,1024,1024,1024,1024,310.9,-89.9,97,3.959,3.944,3.976,3.963,3.981,3.968,19.579,82.4,14,Waypoint,
35.7348,-118.614784,5051.032841095,166.666672,0,0.33384843588,22300,2018-07-05 22:08:58,15,0,23.756,5051.032841095,166.666672,0.447388,0.98025921772,0,0,-0.671082,310.8, -1.6, -5.3,0,0,1024,1024,1024,1024,310.9,-89.9,97,3.959,3.944,3.976,3.963,3.981,3.968,19.579,82.4,14,Waypoint,
35.7348,-118.614784,5052.017093095,167.650924,0,0.33384843588,22500,2018-07-05 22:08:58,15,0,23.756,5052.017093095,167.650924,0.447388,0.98025921772,0,0,-0.671082,310.8, -1.6, -5.3,0,0,1024,1024,1024,1024,310.9,-89.9,97,3.959,3.944,3.976,3.963,3.981,3.968,19.579,82.4,14,Waypoint,
35.7348,-118.614784,5053.001345095,168.635176,0,0.33384843588,22600,2018-07-05 22:08:58,15,0,23.756,5053.001345095,168.635176,0.447388,0.98025921772,0,0,-0.671082,310.9, -2.1, -5.5,0,0,1024,1024,1024,1024,310.9,-89.9,97,3.959,3.944,3.976,3.963,3.981,3.968,19.579,82.4,14,Waypoint,
35.7348,-118.614784,5053.985597095,169.619428,0,0.33384843588,22700,2018-07-05 22:08:58,15,0,23.756,5053.985597095,169.619428,0.447388,0.98025921772,0,0,-0.671082,311.1, -2.9, -5.5,0,0,1024,1024,1024,1024,310.9,-89.9,97,3.959,3.944,3.976,3.963,3.981,3.968,19.579,82.4,14,Waypoint,
35.7347999,-118.614784,5054.969849095,170.60368,0,0.327811362196,22800,2018-07-05 22:08:58,15,0,23.756,5054.969849095,170.60368,0.447388,0.98025921772,0,0,-0.671082,311.3, -3.2, -5.6,0,0,1024,1024,1024,1024,310.9,-89.9,97,3.959,3.944,3.976,3.963,3.981,3.968,19.579,82.4,14,Waypoint,
35.7347998,-118.6147841,5056.938353095,172.572184,0,0.296158802128,22900,2018-07-05 22:08:58,15,0,23.756,5056.938353095,172.572184,0.447388,0.98025921772,0,0,-0.671082,311.7, -3, -5.2,0,0,1024,1024,1024,1024,310.9,-90,97,3.959,3.944,3.976,3.963,3.981,3.968,19.579,82.4,14,Waypoint,
35.7347998,-118.6147842,5058.906857095,174.540688,0.223694,0.266542987532,23100,2018-07-05 22:08:59,15,0,23.756,5058.906857095,174.540688,0.447388,0.98025921772,0,0,-0.671082,311.8, -2.6, -4.8,0,0,1024,1024,1024,1024,310.9,-89.9,97,3.959,3.944,3.976,3.963,3.981,3.968,19.579,82.4,14,Waypoint,
35.7347997,-118.6147844,5059.891109095,175.52494,0.223694,0.21049705398,23200,2018-07-05 22:08:59,15,0,23.756,5059.891109095,175.52494,0.447388,0.98025921772,0,0,-0.671082,311.8, -2.3, -4.7,0,0,1024,1024,1024,1024,310.9,-89.9,97,3.959,3.944,3.976,3.963,3.981,3.968,19.579,82.4,14,Waypoint,
35.7347996,-118.6147846,5061.859613095,177.493444,0.223694,0.16508202628,23400,2018-07-05 22:08:59,15,0,23.756,5061.859613095,177.493444,0.447388,0.98025921772,0,0,-0.671082,311.7, -2.2, -3.9,0,0,1024,1024,1024,1024,310.9,-89.9,97,3.959,3.944,3.976,3.963,3.981,3.968,19.579,82.4,14,Waypoint,
35.7347996,-118.6147847,5062.843865095,178.477696,0.223694,0.13913386272,23500,2018-07-05 22:08:59,15,0,23.756,5062.843865095,178.477696,0.447388,0.98025921772,0,0,-0.671082,311.7, -2.3, -3.6,0,0,1024,1024,1024,1024,310.9,-89.9,97,3.959,3.944,3.976,3.963,3.981,3.968,19.579,82.4,14,Waypoint,
35.7347995,-118.6147848,5063.500033095,179.133864,0.223694,0.14097605438,23600,2018-07-05 22:08:59,15,0,23.756,5063.500033095,179.133864,0.447388,0.98025921772,0,0,-0.671082,311.6, -2.3, -3.7,0,0,1024,1024,1024,1024,310.9,-89.9,97,3.959,3.944,3.976,3.963,3.981,3.968,19.579,82.4,14,Waypoint,
35.7347995,-118.6147849,5064.484285095,180.118116,0,0.12445374414,23700,2018-07-05 22:08:59,15,0,23.756,5064.484285095,180.118116,0.447388,0.98025921772,0,0,-0.671082,311.6, -2.1, -3.9,0,0,1024,1024,1024,1024,310.9,-89.9,97,3.959,3.944,3.976,3.963,3.981,3.968,19.579,82.4,14,Waypoint,
35.7347994,-118.614785,5065.468537095,181.102368,0,0.148914374844,23800,2018-07-05 22:08:59,15,0,23.756,5065.468537095,181.102368,0.447388,0.98025921772,0,0,-0.671082,311.5, -1.9, -4,0,0,1024,1024,1024,1024,310.9,-89.9,97,3.959,3.944,3.976,3.963,3.981,3.968,19.579,82.4,14,Waypoint,
35.7347994,-118.6147851,5067.437041095,183.070872,0,0.145939637216,24000,2018-07-05 22:09:00,15,0,23.817,5067.437041095,183.070872,0.447388,0.98025921772,0,0,-0.671082,311.5, -1.9, -4.1,0,0,1024,1024,1024,1024,310.9,-89.9,97,3.952,3.949,3.954,3.953,3.965,3.97,18.627,84.2,14,Waypoint,
35.7347994,-118.6147852,5068.421293095,184.055124,0,0.148914374844,24100,2018-07-05 22:09:00,15,0,23.817,5068.421293095,184.055124,0.447388,0.98025921772,0,0,-0.671082,311.6, -1.9, -4.2,0,0,1024,1024,1024,1024,310.9,-89.9,97,3.952,3.949,3.954,3.953,3.965,3.97,18.627,84.2,14,Waypoint,
35.7347993,-118.6147853,5069.405545095,185.039376,0,0.191799874904,24200,2018-07-05 22:09:00,15,0,23.817,5069.405545095,185.039376,0.447388,0.98025921772,0,0,-0.671082,311.6, -2, -4.2,0,0,1024,1024,1024,1024,310.9,-89.9,97,3.952,3.949,3.954,3.953,3.965,3.97,18.627,84.2,14,Waypoint,
35.7347993,-118.6147854,5070.389797095,186.023628,0,0.202910439564,24300,2018-07-05 22:09:00,15,0,23.817,5070.389797095,186.023628,0.447388,0.98025921772,0,0,-0.671082,311.6, -2.1, -4.2,0,0,1024,1024,1024,1024,310.9,-89.9,97,3.952,3.949,3.954,3.953,3.965,3.97,18.627,84.2,14,Waypoint,
35.7347993,-118.6147854,5071.374049095,187.00788,0,0.202910439564,24400,2018-07-05 22:09:00,15,0,23.817,5071.374049095,187.00788,0.447388,0.98025921772,0,0,-0.671082,311.6, -2.2, -3.9,0,0,1024,1024,1024,1024,310.9,-89.9,97,3.952,3.949,3.954,3.953,3.965,3.97,18.627,84.2,14,Waypoint,
35.7347992,-118.6147855,5072.358301095,187.992132,0,0.248907816364,24500,2018-07-05 22:09:00,15,0,23.817,5072.358301095,187.992132,0.447388,0.98025921772,0,0,-0.671082,311.5, -2, -3.7,0,0,1024,1024,1024,1024,310.9,-89.9,97,3.952,3.949,3.954,3.953,3.965,3.97,18.627,84.2,14,Waypoint,
35.7347992,-118.6147856,5073.342553095,188.976384,0.223694,0.264289378536,24700,2018-07-05 22:09:00,15,0,23.817,5073.342553095,188.976384,0.447388,0.98025921772,0,0,-0.671082,311.4, -1.6, -3.4,0,0,1024,1024,1024,1024,310.9,-89.9,97,3.952,3.949,3.954,3.953,3.965,3.97,18.627,84.2,14,Waypoint,
35.7347992,-118.6147857,5074.326805095,189.960636,0,0.28195210876,24800,2018-07-05 22:09:00,15,0,23.817,5074.326805095,189.960636,0.447388,0.98025921772,0,0,-0.671082,311.2, -1.5, -3.2,0,0,1024,1024,1024,1024,310.9,-89.9,97,3.952,3.949,3.954,3.953,3.965,3.97,18.627,84.2,14,Waypoint,
35.7347991,-118.6147859,5076.295309095,191.92914,0,0.34836943372,24900,2018-07-05 22:09:00,15,0,23.817,5076.295309095,191.92914,0.447388,0.98025921772,0,0,-0.671082,311.2, -1.4, -3.1,0,0,1024,1024,1024,1024,310.9,-89.9,97,3.952,3.949,3.954,3.953,3.965,3.97,18.627,84.2,14,Waypoint,
35.7347991,-118.614786,5077.279561095,192.913392,0,0.36915027428,25000,2018-07-05 22:09:01,15,0,23.817,5077.279561095,192.913392,0.447388,0.98025921772,0,0,-0.671082,311.2, -1.5, -3.1,0,0,1024,1024,1024,1024,310.9,-89.9,97,3.968,3.954,3.964,3.957,3.982,3.976,18.627,84.2,14,Waypoint,
35.734799,-118.6147861,5078.263813095,193.897644,0,0.41581694244,25100,2018-07-05 22:09:01,15,0,23.817,5078.263813095,193.897644,0.447388,0.98025921772,0,0,-0.671082,311.3, -1.6, -3.2,0,0,1024,1024,1024,1024,310.9,-89.9,97,3.968,3.954,3.964,3.957,3.982,3.976,18.627,84.2,14,Waypoint,
35.734799,-118.6147862,5079.248065095,194.881896,0,0.43740486964,25200,2018-07-05 22:09:01,15,0,23.817,5079.248065095,194.881896,0.447388,0.98025921772,0,0,-0.671082,311.3, -1.7, -3.4,0,0,1024,1024,1024,1024,310.9,-89.9,97,3.968,3.954,3.964,3.957,3.982,3.976,18.627,84.2,14,Waypoint,
35.734799,-118.6147862,5080.560401095,196.194232,0,0.43740486964,25300,2018-07-05 22:09:01,15,0,23.817,5080.560401095,196.194232,0.447388,0.98025921772,0,0,-0.671082,311.4, -1.6, -3.3,0,0,1024,1024,1024,1024,310.9,-89.9,97,3.968,3.954,3.964,3.957,3.982,3.976,18.627,84.2,14,Waypoint,
35.734799,-118.6147863,5081.544653095,197.178484,0,0.45988846616,25400,2018-07-05 22:09:01,15,0,23.817,5081.544653095,197.178484,0.447388,0.98025921772,0,0,-0.671082,311.4, -1.5, -3.3,0,0,1024,1024,1024,1024,310.9,-89.9,97,3.968,3.954,3.964,3.957,3.982,3.976,18.627,84.2,14,Waypoint,
35.734799,-118.6147863,5082.528905095,198.162736,0,0.45988846616,25500,2018-07-05 22:09:01,15,0,23.817,5082.528905095,198.162736,0.447388,0.98025921772,0,0,-0.671082,311.4, -1.4, -3.2,0,0,1024,1024,1024,1024,310.9,-89.9,97,3.968,3.954,3.964,3.957,3.982,3.976,18.627,84.2,14,Waypoint,
35.7347989,-118.6147864,5083.513157095,199.146988,0,0.50601707656,25600,2018-07-05 22:09:01,15,0,23.817,5083.513157095,199.146988,0.447388,0.98025921772,0,0,-0.671082,311.3, -1.4, -3.2,0,0,1024,1024,1024,1024,310.9,-89.9,97,3.968,3.954,3.964,3.957,3.982,3.976,18.627,84.2,14,Waypoint,
35.7347989,-118.6147864,5084.497409095,200.13124,0,0.50601707656,25700,2018-07-05 22:09:01,15,0,23.817,5084.497409095,200.13124,0.447388,0.98025921772,0,0,-0.671082,311.3, -1.4, -3.2,0,0,1024,1024,1024,1024,310.9,-89.9,97,3.968,3.954,3.964,3.957,3.982,3.976,18.627,84.2,14,Waypoint,
35.7347989,-118.6147865,5085.481661095,201.115492,0,0.52890093556,25800,2018-07-05 22:09:01,15,0,23.817,5085.481661095,201.115492,0.447388,0.98025921772,0,0,-0.671082,311.3, -1.5, -3.4,0,0,1024,1024,1024,1024,310.9,-89.9,97,3.968,3.954,3.964,3.957,3.982,3.976,18.627,84.2,14,Waypoint,
35.7347989,-118.6147865,5086.465913095,202.099744,0,0.52890093556,25900,2018-07-05 22:09:01,15,0,23.817,5086.465913095,202.099744,0.447388,0.98025921772,0,0,-0.671082,311.4, -1.7, -3.6,0,0,1024,1024,1024,1024,310.9,-89.9,97,3.968,3.954,3.964,3.957,3.982,3.976,18.627,84.2,14,Waypoint,
35.7347989,-118.6147865,5087.450165095,203.083996,0,0.52890093556,26000,2018-07-05 22:09:02,15,0,23.756,5087.450165095,203.083996,0.447388,0.98025921772,0,0,-0.671082,311.4, -1.9, -4,0,0,1024,1024,1024,1024,310.9,-89.9,97,3.947,3.946,3.962,3.958,3.975,3.964,19.461,84.2,14,Waypoint,
35.7347989,-118.6147864,5088.434417095,204.068248,0,0.50601707656,26100,2018-07-05 22:09:02,15,0,23.756,5088.434417095,204.068248,0.447388,0.98025921772,0,0,-0.671082,311.5, -2, -4.1,0,0,1024,1024,1024,1024,310.9,-90,97,3.947,3.946,3.962,3.958,3.975,3.964,19.461,84.2,14,Waypoint,
35.7347988,-118.6147864,5089.418669095,205.0525,0,0.53041996448,26200,2018-07-05 22:09:02,15,0,23.756,5089.418669095,205.0525,0.447388,0.98025921772,0,0,-0.671082,311.5, -2.2, -3.9,0,0,1024,1024,1024,1024,310.9,-90,97,3.947,3.946,3.962,3.958,3.975,3.964,19.461,84.2,14,Waypoint,
35.7347988,-118.6147864,5090.402921095,206.036752,0,0.53041996448,26300,2018-07-05 22:09:02,15,0,23.756,5090.402921095,206.036752,0.447388,0.98025921772,0,0,-0.671082,311.6, -2.2, -3.7,0,0,1024,1024,1024,1024,310.9,-90,97,3.947,3.946,3.962,3.958,3.975,3.964,19.461,84.2,14,Waypoint,
35.7347988,-118.6147864,5091.387173095,207.021004,0,0.53041996448,26400,2018-07-05 22:09:02,15,0,23.756,5091.387173095,207.021004,0.447388,0.98025921772,0,0,-0.671082,311.6, -2.2, -3.7,0,0,1024,1024,1024,1024,310.9,-89.9,97,3.947,3.946,3.962,3.958,3.975,3.964,19.461,84.2,14,Waypoint,
35.7347988,-118.6147864,5092.371425095,208.005256,0,0.53041996448,26500,2018-07-05 22:09:02,15,0,23.756,5092.371425095,208.005256,0.447388,0.98025921772,0,0,-0.671082,311.6, -2.1, -3.8,0,0,1024,1024,1024,1024,310.9,-90,97,3.947,3.946,3.962,3.958,3.975,3.964,19.461,84.2,14,Waypoint,
35.7347988,-118.6147863,5093.355677095,208.989508,0,0.50933072496,26600,2018-07-05 22:09:02,15,0,23.756,5093.355677095,208.989508,0.447388,0.98025921772,0,0,-0.671082,311.6, -2.1, -3.8,0,0,1024,1024,1024,1024,310.9,-89.9,97,3.947,3.946,3.962,3.958,3.975,3.964,19.461,84.2,14,Waypoint,
