Latitude, Longitude, Altitude (m), Time, Sats, Speed (m/s), Range (m), Battery (%), Roll (deg), Pitch (deg), Yaw (deg), Images, HD Signal (%), RC Signal (%), Battery Temp (C), Battery Voltage (mV), Battery Current (mA), Battery Energy (mAh), Battery Capacity (mAh), Battery Discharges, flyState, timestamp (Unix), LastUpdate (ms), radioChannel, Rc_elevator, Rc_aileron, Rc_throttle, Rc_rudder, Rc_gyro, Dronetype, Battery_Cell1 (mV), Battery_Cell2 (mV), Battery_Cell3 (mV), Battery_Cell4 (mV), Battery_Cell5 (mV), Battery_Cell6 (mV), Video, isFlying, elapsedTime (ms), gimbalPitch (deg), gimbalRoll (deg), gimbalYaw (deg), VelocityX (m/s), VelocityY (m/s), VelocityZ (m/s), GroundSmear (cm), App Version, Aircraft Name, Aircraft Firmware, Aircraft Serial Number, Battery Serial Number, Battery Lifetime (%), App_Tip, App_Warning, CurrentFlightStartingIndex, CurrentFlightLastVisitedWaypoint, PreviousFlightEndingWaypointIndex
35.7347785, -118.6147635, 0.000, 14:32:33.465, 14, 0.10, 0.04, 98, -1.800, -0.300, -45.000, 2, 100, 100, 28, 25683, -2954, 5250, 5358, 18, 11, 1530826353.465, 67, 0, 1024, 1024, 1024, 1024, 0, 6, 4292, 4301, 4233, 4303, 4315, 4315, 0, 1, 2952, -89.900, 0.000, -43.700, 0.000, -0.100, 0.000, 0.0, MapPilot_2.8.1_04242018, Dendroctonus I, 1.3.1.00, 041DDC1887, 1058171200279, 96, DJI_0001.jpg, Starting Mission from Lat/Long: 35.73479/-118.61476 Camera: Zenmuse X3 - Overlap: 90/90 - Active Connection: No, 0, 0, 0
35.7347785, -118.6147637, 0.000, 14:32:33.513, 14, 0.10, 0.06, 98, -1.300, 1.100, -45.000, 2, 100, 100, 28, 25683, -2954, 5250, 5358, 18, 11, 1530826353.513, 17, 0, 1024, 1024, 1024, 1024, 0, 6, 4292, 4301, 4233, 4303, 4315, 4315, 0, 1, 3000, -89.900, 0.000, -43.700, 0.000, -0.100, -0.200, 0.0, , , , , , 96, , , 0, 0, 0
35.7347784, -118.6147638, 0.000, 14:32:33.612, 14, 0.10, 0.07, 98, -0.100, 0.900, -44.900, 2, 100, 100, 28, 25683, -2954, 5250, 5358, 18, 11, 1530826353.613, 11, 0, 1024, 1024, 1024, 1024, 0, 6, 4292, 4301, 4233, 4303, 4315, 4315, 0, 1, 3100, -89.900, 0.000, -43.700, 0.000, -0.100, -0.200, 0.0, , , , , , 96, , , 0, 0, 0
35.7347784, -118.6147638, 0.000, 14:32:33.713, 14, 0.10, 0.07, 98, -0.100, 0.900, -44.900, 2, 100, 100, 28, 25683, -2954, 5250, 5358, 18, 11, 1530826353.713, 111, 0, 1024, 1024, 1024, 1024, 0, 6, 4292, 4301, 4233, 4303, 4315, 4315, 0, 1, 3200, -89.900, 0.000, -43.700, 0.000, -0.100, -0.200, 0.0, , , , , , 96, , , 0, 0, 0
35.7347783, -118.6147640, 0.000, 14:32:33.812, 14, 0.14, 0.09, 98, 0.300, 0.700, -44.700, 2, 100, 100, 28, 25683, -2954, 5250, 5358, 18, 11, 1530826353.813, 95, 0, 1024, 1024, 1024, 1024, 0, 6, 4292, 4301, 4233, 4303, 4315, 4315, 0, 1, 3300, -89.900, 0.000, -43.700, -0.100, -0.100, -0.300, 0.0, , , , , , 96, , , 0, 0, 0
35.7347781, -118.6147644, 0.100, 14:32:33.913, 14, 0.14, 0.14, 98, 1.300, 0.800, -44.400, 2, 100, 100, 28, 25696, -3718, 5250, 5358, 18, 11, 1530826353.913, 5, 0, 1024, 1024, 1024, 1024, 0, 6, 4266, 4252, 4253, 4257, 4274, 4260, 0, 1, 3401, -89.900, 0.000, -43.700, -0.100, -0.100, -0.300, 0.0, , , , , , 96, , , 0, 0, 0
35.7347781, -118.6147644, 0.100, 14:32:34.013, 14, 0.14, 0.14, 98, 1.300, 0.800, -44.400, 2, 100, 100, 28, 25696, -3718, 5250, 5358, 18, 11, 1530826354.013, 104, 0, 1024, 1024, 1024, 1024, 0, 6, 4266, 4252, 4253, 4257, 4274, 4260, 0, 1, 3500, -89.900, 0.000, -43.700, -0.100, -0.100, -0.300, 0.0, , , , , , 96, , , 0, 0, 0
35.7347780, -118.6147645, 0.100, 14:32:34.112, 14, 0.10, 0.15, 98, 1.500, 0.300, -44.400, 2, 100, 100, 28, 25696, -3718, 5250, 5358, 18, 11, 1530826354.113, 85, 0, 1024, 1024, 1024, 1024, 0, 6, 4266, 4252, 4253, 4257, 4274, 4260, 0, 1, 3600, -90.000, 0.000, -43.800, -0.100, 0.000, -0.400, 0.0, , , , , , 96, , , 0, 0, 0
35.7347779, -118.6147647, 0.200, 14:32:34.212, 14, 0.10, 0.17, 98, 1.500, -0.100, -44.500, 2, 100, 100, 28, 25696, -3718, 5250, 5358, 18, 11, 1530826354.213, 88, 0, 1024, 1024, 1024, 1024, 0, 6, 4266, 4252, 4253, 4257, 4274, 4260, 0, 1, 3700, -90.000, 0.000, -43.800, -0.100, 0.000, -0.400, 0.0, , , , , , 96, , , 0, 0, 0
35.7347778, -118.6147648, 0.200, 14:32:34.312, 14, 0.00, 0.18, 98, 1.200, -0.500, -44.600, 2, 100, 100, 28, 25696, -3718, 5250, 5358, 18, 11, 1530826354.313, 80, 0, 1024, 1024, 1024, 1024, 0, 6, 4266, 4252, 4253, 4257, 4274, 4260, 0, 1, 3800, -90.000, 0.000, -43.800, 0.000, 0.000, -0.400, 0.0, , , , , , 96, , , 0, 0, 0
35.7347778, -118.6147649, 0.300, 14:32:34.412, 14, 0.00, 0.19, 98, 0.800, -0.500, -44.700, 2, 100, 100, 28, 25696, -3718, 5250, 5358, 18, 11, 1530826354.413, 72, 0, 1024, 1024, 1024, 1024, 0, 6, 4266, 4252, 4253, 4257, 4274, 4260, 0, 1, 3900, -89.900, 0.000, -43.800, 0.000, 0.000, -0.400, 0.0, , , , , , 96, , , 0, 0, 0
35.7347777, -118.6147649, 0.300, 14:32:34.512, 14, 0.00, 0.20, 98, 0.700, -0.400, -44.800, 2, 100, 100, 28, 25696, -3718, 5250, 5358, 18, 11, 1530826354.513, 64, 0, 1024, 1024, 1024, 1024, 0, 6, 4266, 4252, 4253, 4257, 4274, 4260, 0, 1, 4000, -89.900, 0.000, -43.800, 0.000, 0.000, -0.500, 0.0, , , , , , 96, , , 0, 0, 0
35.7347776, -118.6147651, 0.500, 14:32:34.612, 14, 0.00, 0.23, 98, 0.700, -0.200, -44.700, 2, 100, 100, 28, 25696, -3718, 5250, 5358, 18, 11, 1530826354.613, 65, 0, 1024, 1024, 1024, 1024, 0, 6, 4266, 4252, 4253, 4257, 4274, 4260, 0, 1, 4100, -89.900, 0.000, -43.800, 0.000, 0.000, -0.400, 0.0, , , , , , 96, , , 0, 0, 0
35.7347775, -118.6147653, 0.500, 14:32:34.713, 14, 0.00, 0.24, 98, 0.800, -0.200, -44.700, 2, 100, 100, 28, 25696, -3718, 5250, 5358, 18, 11, 1530826354.713, 67, 0, 1024, 1024, 1024, 1024, 0, 6, 4266, 4252, 4253, 4257, 4274, 4260, 0, 1, 4200, -89.900, 0.000, -43.900, 0.000, 0.000, -0.400, 0.0, , , , , , 96, , , 0, 0, 0
35.7347774, -118.6147654, 0.600, 14:32:34.812, 14, 0.00, 0.25, 98, 1.000, -0.100, -44.600, 2, 100, 100, 28, 25696, -3718, 5250, 5358, 18, 11, 1530826354.813, 58, 0, 1024, 1024, 1024, 1024, 0, 6, 4266, 4252, 4253, 4257, 4274, 4260, 0, 1, 4300, -89.900, 0.000, -43.900, 0.000, 0.000, -0.400, 0.0, , , , , , 96, , , 0, 0, 0
35.7347774, -118.6147654, 0.600, 14:32:34.912, 14, 0.00, 0.26, 98, 1.300, -0.100, -44.700, 2, 100, 100, 28, 24761, -14915, 5250, 5358, 18, 11, 1530826354.913, 33, 0, 1024, 1024, 1024, 1024, 0, 6, 4146, 4112, 4097, 4114, 4126, 4123, 0, 1, 4400, -89.900, 0.000, -43.900, 0.000, 0.000, -0.400, 0.0, , , , , , 96, , , 0, 0, 0
35.7347773, -118.6147655, 0.700, 14:32:35.012, 14, 0.00, 0.26, 98, 1.300, 0.000, -44.700, 2, 100, 100, 28, 24761, -14915, 5250, 5358, 18, 11, 1530826355.013, 24, 0, 1024, 1024, 1024, 1024, 0, 6, 4146, 4112, 4097, 4114, 4126, 4123, 0, 1, 4500, -89.900, 0.000, -43.900, 0.000, 0.000, -0.400, 0.0, , , , , , 96, , , 0, 0, 0
35.7347773, -118.6147655, 0.700, 14:32:35.112, 14, 0.00, 0.27, 98, 1.200, -0.100, -44.700, 2, 100, 100, 28, 24761, -14915, 5250, 5358, 18, 11, 1530826355.113, 32, 0, 1024, 1024, 1024, 1024, 0, 6, 4146, 4112, 4097, 4114, 4126, 4123, 0, 1, 4600, -89.900, 0.000, -43.900, 0.000, 0.000, -0.400, 0.0, , , , , , 96, , , 0, 0, 0
35.7347772, -118.6147655, 0.800, 14:32:35.212, 15, 0.00, 0.28, 98, 1.200, -0.200, -44.700, 2, 100, 100, 28, 24761, -14915, 5250, 5358, 18, 11, 1530826355.213, 26, 0, 1024, 1024, 1024, 1024, 0, 6, 4146, 4112, 4097, 4114, 4126, 4123, 0, 1, 4700, -89.900, 0.000, -43.900, 0.000, 0.000, -0.500, 0.0, , , , , , 96, , , 0, 0, 0
35.7347771, -118.6147656, 0.800, 14:32:35.312, 15, 0.00, 0.29, 98, 1.300, -0.400, -44.800, 2, 100, 100, 28, 24761, -14915, 5250, 5358, 18, 11, 1530826355.313, 31, 0, 1024, 1024, 1024, 1024, 0, 6, 4146, 4112, 4097, 4114, 4126, 4123, 0, 1, 4800, -90.000, 0.000, -43.900, 0.000, 0.000, -0.400, 0.0, , , , , , 96, , , 0, 0, 0
35.7347771, -118.6147656, 0.900, 14:32:35.412, 14, 0.00, 0.29, 98, 1.500, -0.600, -44.800, 2, 100, 100, 28, 24761, -14915, 5250, 5358, 18, 14, 1530826355.413, 22, 0, 1024, 1024, 1024, 1024, 0, 6, 4146, 4112, 4097, 4114, 4126, 4123, 0, 1, 4900, -90.000, 0.000, -43.900, 0.000, 0.000, -0.400, 0.0, , , , , , 96, , , 0, 0, 0
35.7347771, -118.6147655, 0.900, 14:32:35.512, 14, 0.00, 0.28, 98, 1.300, -0.800, -44.900, 2, 100, 100, 28, 24761, -14915, 5250, 5358, 18, 14, 1530826355.513, 15, 0, 1024, 1024, 1024, 1024, 0, 6, 4146, 4112, 4097, 4114, 4126, 4123, 0, 1, 5000, -90.000, 0.000, -44.000, 0.000, 0.000, -0.300, 0.0, , , , , , 96, , , 0, 0, 0
35.7347771, -118.6147654, 0.900, 14:32:35.612, 15, 0.00, 0.28, 98, 0.200, -0.900, -44.900, 2, 100, 100, 28, 24761, -14915, 5250, 5358, 18, 14, 1530826355.613, 26, 0, 1024, 1024, 1024, 1024, 0, 6, 4146, 4112, 4097, 4114, 4126, 4123, 0, 1, 5100, -89.900, 0.000, -43.900, 0.000, 0.000, -0.200, 0.0, , , , , , 96, , , 0, 0, 0
35.7347771, -118.6147654, 1.000, 14:32:35.712, 15, 0.00, 0.28, 98, -0.500, -0.800, -44.800, 2, 100, 100, 28, 24761, -14915, 5250, 5358, 18, 14, 1530826355.713, 22, 0, 1024, 1024, 1024, 1024, 0, 6, 4146, 4112, 4097, 4114, 4126, 4123, 0, 1, 5200, -89.900, 0.000, -43.900, 0.000, 0.000, -0.300, 0.0, , , , , , 96, , , 0, 0, 0
35.7347771, -118.6147654, 1.000, 14:32:35.812, 15, 0.00, 0.28, 98, -0.500, -0.800, -44.800, 2, 100, 100, 28, 24761, -14915, 5250, 5358, 18, 14, 1530826355.813, 122, 0, 1024, 1024, 1024, 1024, 0, 6, 4146, 4112, 4097, 4114, 4126, 4123, 0, 1, 5300, -89.900, 0.000, -43.900, 0.000, 0.000, -0.300, 0.0, , , , , , 96, , , 0, 0, 0
35.7347770, -118.6147654, 1.000, 14:32:35.912, 14, 0.00, 0.28, 98, -0.600, -0.600, -44.700, 2, 100, 100, 28, 24761, -14915, 5250, 5358, 18, 14, 1530826355.913, 87, 0, 1024, 1024, 1024, 1024, 0, 6, 4146, 4112, 4097, 4114, 4126, 4123, 0, 1, 5400, -89.900, 0.000, -44.000, 0.000, 0.000, -0.300, 0.0, , , , , , 96, , , 0, 0, 0
35.7347770, -118.6147653, 1.100, 14:32:36.012, 14, 0.00, 0.28, 98, -0.300, -0.500, -44.700, 2, 100, 100, 28, 24592, -16160, 5250, 5358, 18, 14, 1530826356.013, 91, 0, 1024, 1024, 1024, 1024, 0, 6, 4099, 4084, 4082, 4086, 4109, 4105, 0, 1, 5500, -89.900, 0.000, -43.900, 0.000, 0.000, -0.400, 0.0, , , , , , 96, , , 0, 0, 0
35.7347770, -118.6147653, 1.100, 14:32:36.112, 13, 0.00, 0.27, 98, 0.000, -0.400, -44.800, 2, 100, 100, 28, 24592, -16160, 5250, 5358, 18, 14, 1530826356.113, 93, 0, 1024, 1024, 1024, 1024, 0, 6, 4099, 4084, 4082, 4086, 4109, 4105, 0, 1, 5600, -89.900, 0.000, -44.000, 0.000, 0.000, -0.600, 0.0, , , , , , 96, , , 0, 0, 0
35.7347771, -118.6147652, 1.200, 14:32:36.212, 13, 0.00, 0.27, 98, 0.100, -0.400, -45.100, 2, 100, 100, 28, 24592, -16160, 5250, 5358, 18, 14, 1530826356.213, 96, 0, 1024, 1024, 1024, 1024, 0, 6, 4099, 4084, 4082, 4086, 4109, 4105, 0, 1, 5700, -89.900, 0.000, -44.000, 0.000, 0.000, -0.800, 0.0, , , , , , 96, , , 0, 0, 0
35.7347771, -118.6147652, 1.300, 14:32:36.312, 13, 0.00, 0.26, 98, -0.200, -0.400, -45.600, 2, 100, 100, 28, 24592, -16160, 5250, 5358, 18, 14, 1530826356.313, 98, 0, 1024, 1024, 1024, 1024, 0, 6, 4099, 4084, 4082, 4086, 4109, 4105, 0, 1, 5800, -90.000, 0.000, -44.000, 0.000, 0.000, -0.900, 0.0, , , , , , 96, , , 0, 0, 0
35.7347770, -118.6147651, 1.400, 14:32:36.412, 13, 0.00, 0.26, 98, -0.600, -0.300, -46.000, 2, 100, 100, 28, 24592, -16160, 5250, 5358, 18, 14, 1530826356.413, 89, 0, 1024, 1024, 1024, 1024, 0, 6, 4099, 4084, 4082, 4086, 4109, 4105, 0, 1, 5900, -89.900, 0.000, -44.000, 0.000, 0.000, -1.100, 0.0, , , , , , 96, , , 0, 0, 0
35.7347770, -118.6147650, 1.500, 14:32:36.512, 13, 0.00, 0.26, 98, -0.900, -0.400, -46.300, 2, 100, 100, 28, 24592, -16160, 5250, 5358, 18, 14, 1530826356.513, 78, 0, 1024, 1024, 1024, 1024, 0, 6, 4099, 4084, 4082, 4086, 4109, 4105, 0, 1, 6000, -90.000, 0.000, -44.100, 0.000, 0.000, -1.400, 0.0, , , , , , 96, , , 0, 0, 0
35.7347770, -118.6147649, 1.700, 14:32:36.612, 13, 0.00, 0.26, 98, -0.700, -0.600, -46.500, 2, 100, 100, 28, 24592, -16160, 5250, 5358, 18, 14, 1530826356.613, 62, 0, 1024, 1024, 1024, 1024, 0, 6, 4099, 4084, 4082, 4086, 4109, 4105, 0, 1, 6100, -90.000, 0.000, -44.100, 0.000, 0.000, -1.600, 0.0, , , , , , 96, , , 0, 0, 0
35.7347769, -118.6147649, 1.900, 14:32:36.712, 13, 0.00, 0.26, 98, -0.700, -1.000, -46.700, 2, 100, 100, 28, 24592, -16160, 5250, 5358, 18, 14, 1530826356.712, 70, 0, 1024, 1024, 1024, 1024, 0, 6, 4099, 4084, 4082, 4086, 4109, 4105, 0, 1, 6200, -90.000, 0.000, -44.200, 0.000, 0.000, -1.800, 0.0, , , , , , 96, , , 0, 0, 0
35.7347768, -118.6147648, 2.100, 14:32:36.812, 13, 0.00, 0.27, 98, -0.700, -1.300, -46.700, 2, 100, 100, 28, 24592, -16160, 5250, 5358, 18, 14, 1530826356.813, 75, 0, 1024, 1024, 1024, 1024, 0, 6, 4099, 4084, 4082, 4086, 4109, 4105, 0, 1, 6300, -89.900, 0.000, -44.300, 0.000, 0.000, -2.000, 0.0, , , , , , 96, , , 0, 0, 0
35.7347768, -118.6147648, 2.300, 14:32:36.912, 14, 0.00, 0.27, 98, -0.400, -1.400, -46.700, 2, 100, 100, 28, 24484, -17145, 5250, 5358, 18, 14, 1530826356.912, 45, 0, 1024, 1024, 1024, 1024, 0, 6, 4099, 4084, 4082, 4086, 4109, 4105, 0, 1, 6400, -89.900, 0.000, -44.300, 0.000, 0.000, -2.300, 0.0, , , , , , 96, , , 0, 0, 0
35.7347767, -118.6147648, 2.600, 14:32:37.012, 14, 0.00, 0.27, 98, -0.300, -1.200, -46.500, 2, 100, 100, 28, 24484, -17145, 5250, 5358, 18, 14, 1530826357.013, 51, 0, 1024, 1024, 1024, 1024, 0, 6, 4099, 4084, 4082, 4086, 4109, 4105, 0, 1, 6500, -90.000, 0.000, -44.400, 0.000, 0.000, -2.500, 0.0, , , , , , 96, , , 0, 0, 0
35.7347766, -118.6147646, 3.100, 14:32:37.112, 14, 0.00, 0.28, 98, -0.400, -1.000, -46.300, 2, 100, 100, 28, 24484, -17145, 5250, 5358, 18, 14, 1530826357.113, 43, 0, 1024, 1024, 1024, 1024, 0, 6, 4099, 4084, 4082, 4086, 4109, 4105, 0, 1, 6600, -89.900, 0.000, -44.400, 0.000, 0.000, -2.700, 0.0, , , , , , 96, , , 0, 0, 0
35.7347765, -118.6147645, 3.400, 14:32:37.212, 14, 0.00, 0.28, 98, -0.400, -1.100, -46.300, 2, 100, 100, 28, 24484, -17145, 5250, 5358, 18, 14, 1530826357.213, 37, 0, 1024, 1024, 1024, 1024, 0, 6, 4099, 4084, 4082, 4086, 4109, 4105, 0, 1, 6700, -89.900, 0.000, -44.400, 0.000, 0.000, -2.900, 0.0, , , , , , 96, , , 0, 0, 0
35.7347765, -118.6147643, 3.700, 14:32:37.312, 14, 0.00, 0.28, 98, 0.300, -1.000, -46.400, 2, 100, 100, 28, 24484, -17145, 5250, 5358, 18, 14, 1530826357.312, 41, 0, 1024, 1024, 1024, 1024, 0, 6, 4099, 4084, 4082, 4086, 4109, 4105, 0, 1, 6800, -89.900, 0.000, -44.500, 0.000, 0.000, -3.000, 0.0, , , , , , 96, , , 0, 0, 0
35.7347764, -118.6147642, 4.100, 14:32:37.412, 14, 0.00, 0.28, 98, 0.200, -1.000, -46.400, 2, 100, 100, 28, 24484, -17145, 5250, 5358, 18, 14, 1530826357.412, 46, 0, 1024, 1024, 1024, 1024, 0, 6, 4107, 4060, 4041, 4035, 4072, 4058, 0, 1, 6900, -89.900, 0.000, -44.500, 0.000, 0.000, -3.100, 0.0, , , , , , 96, , , 0, 0, 0
35.7347763, -118.6147642, 4.400, 14:32:37.512, 14, 0.00, 0.30, 98, -0.300, -1.400, -46.400, 2, 100, 100, 28, 24484, -17145, 5250, 5358, 18, 14, 1530826357.513, 6, 0, 1024, 1024, 1024, 1024, 0, 6, 4107, 4060, 4041, 4035, 4072, 4058, 0, 1, 7000, -89.900, 0.000, -44.600, 0.000, 0.000, -3.200, 0.0, , , , , , 96, , , 0, 0, 0
35.7347761, -118.6147642, 4.800, 14:32:37.612, 14, 0.00, 0.31, 98, -0.500, -1.900, -46.400, 2, 100, 100, 28, 24484, -17145, 5250, 5358, 18, 14, 1530826357.613, 20, 0, 1024, 1024, 1024, 1024, 0, 6, 4107, 4060, 4041, 4035, 4072, 4058, 0, 1, 7100, -90.000, 0.000, -44.600, 0.000, 0.000, -3.300, 0.0, , , , , , 96, , , 0, 0, 0
35.7347760, -118.6147642, 5.100, 14:32:37.712, 14, 0.00, 0.33, 98, -0.400, -2.200, -46.500, 2, 100, 100, 28, 24484, -17145, 5250, 5358, 18, 14, 1530826357.713, 35, 0, 1024, 1024, 1024, 1024, 0, 6, 4107, 4060, 4041, 4035, 4072, 4058, 0, 1, 7200, -90.000, 0.000, -44.600, 0.000, 0.000, -3.200, 0.0, , , , , , 96, , , 0, 0, 0
35.7347759, -118.6147642, 5.500, 14:32:37.814, 14, 0.00, 0.34, 98, 0.000, -2.400, -46.600, 2, 100, 100, 28, 24484, -17145, 5250, 5358, 18, 14, 1530826357.814, 2, 0, 1024, 1024, 1024, 1024, 0, 6, 4107, 4060, 4041, 4035, 4072, 4058, 0, 1, 7302, -90.000, 0.000, -44.700, 0.000, 0.000, -3.200, 0.0, , , , , , 96, , , 0, 0, 0
35.7347758, -118.6147642, 5.800, 14:32:37.912, 14, 0.00, 0.35, 98, 0.100, -2.800, -46.700, 2, 100, 100, 28, 24484, -17145, 5250, 5358, 18, 14, 1530826357.912, 5, 0, 1024, 1024, 1024, 1024, 0, 6, 4107, 4060, 4041, 4035, 4072, 4058, 0, 1, 7400, -89.900, 0.000, -44.700, 0.000, 0.000, -3.100, 0.0, , , , , , 96, , , 0, 0, 0
35.7347758, -118.6147641, 6.100, 14:32:38.012, 14, 0.00, 0.35, 98, -0.100, -3.000, -46.700, 2, 100, 100, 28, 24484, -17145, 5250, 5358, 18, 14, 1530826358.012, 8, 0, 1024, 1024, 1024, 1024, 0, 6, 4107, 4060, 4041, 4035, 4072, 4058, 0, 1, 7500, -89.900, 0.000, -44.700, 0.000, 0.000, -3.100, 0.0, , , , , , 96, , , 0, 0, 0
35.7347758, -118.6147641, 6.100, 14:32:38.112, 14, 0.00, 0.35, 98, -0.100, -3.000, -46.700, 2, 100, 100, 28, 24484, -17145, 5250, 5358, 18, 14, 1530826358.112, 108, 0, 1024, 1024, 1024, 1024, 0, 6, 4107, 4060, 4041, 4035, 4072, 4058, 0, 1, 7600, -89.900, 0.000, -44.700, 0.000, 0.000, -3.100, 0.0, , , , , , 96, , , 0, 0, 0
35.7347758, -118.6147638, 6.800, 14:32:38.214, 14, 0.10, 0.34, 98, -1.000, -3.300, -46.500, 2, 100, 100, 28, 24484, -17145, 5250, 5358, 18, 14, 1530826358.214, 1, 0, 1024, 1024, 1024, 1024, 0, 6, 4107, 4060, 4041, 4035, 4072, 4058, 0, 1, 7701, -89.900, 0.000, -44.800, 0.000, 0.100, -3.100, 0.0, , , , , , 96, , , 0, 0, 0
35.7347758, -118.6147637, 7.100, 14:32:38.312, 14, 0.10, 0.33, 98, -1.400, -3.300, -46.300, 2, 100, 100, 28, 23999, -23120, 5250, 5358, 18, 14, 1530826358.312, 3, 0, 1024, 1024, 1024, 1024, 0, 6, 4012, 3980, 3972, 3980, 4002, 4004, 0, 1, 7799, -89.900, 0.000, -44.800, 0.000, 0.100, -3.100, 0.0, , , , , , 96, , , 0, 0, 0
35.7347758, -118.6147637, 7.100, 14:32:38.412, 14, 0.10, 0.33, 98, -1.400, -3.300, -46.300, 2, 100, 100, 28, 23999, -23120, 5250, 5358, 18, 14, 1530826358.412, 103, 0, 1024, 1024, 1024, 1024, 0, 6, 4012, 3980, 3972, 3980, 4002, 4004, 0, 1, 7900, -89.900, 0.000, -44.800, 0.000, 0.100, -3.100, 0.0, , , , , , 96, , , 0, 0, 0
35.7347759, -118.6147636, 7.400, 14:32:38.512, 14, 0.10, 0.32, 98, -1.800, -3.600, -46.100, 2, 100, 100, 28, 23999, -23120, 5250, 5358, 18, 14, 1530826358.512, 92, 0, 1024, 1024, 1024, 1024, 0, 6, 4012, 3980, 3972, 3980, 4002, 4004, 0, 1, 7999, -89.900, 0.000, -44.800, 0.000, 0.100, -3.100, 0.0, , , , , , 96, , , 0, 0, 0
35.7347760, -118.6147635, 7.700, 14:32:38.612, 14, 0.10, 0.31, 98, -2.200, -3.800, -45.900, 2, 100, 100, 28, 23999, -23120, 5250, 5358, 18, 14, 1530826358.612, 86, 0, 1024, 1024, 1024, 1024, 0, 6, 4012, 3980, 3972, 3980, 4002, 4004, 0, 1, 8099, -89.900, 0.000, -44.900, 0.000, 0.100, -3.100, 0.0, , , , , , 96, , , 0, 0, 0
35.7347761, -118.6147634, 8.000, 14:32:38.712, 13, 0.00, 0.30, 98, -2.500, -3.600, -45.800, 2, 100, 100, 28, 23999, -23120, 5250, 5358, 18, 14, 1530826358.712, 59, 0, 1024, 1024, 1024, 1024, 0, 6, 4012, 3980, 3972, 3980, 4002, 4004, 0, 1, 8199, -89.900, 0.000, -44.900, 0.000, 0.000, -3.100, 0.0, , , , , , 96, , , 0, 0, 0
35.7347763, -118.6147633, 8.700, 14:32:38.812, 14, 0.10, 0.28, 98, -2.600, -2.700, -45.900, 2, 100, 100, 28, 23999, -23120, 5250, 5358, 18, 14, 1530826358.813, 73, 0, 1024, 1024, 1024, 1024, 0, 6, 4012, 3980, 3972, 3980, 4002, 4004, 0, 1, 8300, -89.900, 0.000, -45.000, 0.100, 0.000, -3.100, 0.0, , , , , , 96, , , 0, 0, 0
35.7347763, -118.6147633, 8.700, 14:32:38.912, 14, 0.10, 0.28, 98, -2.600, -2.700, -45.900, 2, 100, 100, 28, 23999, -23120, 5250, 5358, 18, 14, 1530826358.912, 173, 0, 1024, 1024, 1024, 1024, 0, 6, 4012, 3980, 3972, 3980, 4002, 4004, 0, 1, 8399, -89.900, 0.000, -45.000, 0.100, 0.000, -3.100, 0.0, , , , , , 96, , , 0, 0, 0
35.7347766, -118.6147633, 9.300, 14:32:39.012, 14, 0.10, 0.25, 98, -2.900, -1.900, -46.200, 2, 100, 100, 28, 23999, -23120, 5250, 5358, 18, 14, 1530826359.012, 49, 0, 1024, 1024, 1024, 1024, 0, 6, 4012, 3980, 3972, 3980, 4002, 4004, 0, 1, 8500, -89.900, 0.000, -45.000, 0.100, 0.000, -3.000, 0.0, , , , , , 96, , , 0, 0, 0
35.7347767, -118.6147633, 9.700, 14:32:39.112, 14, 0.00, 0.24, 98, -2.600, -1.900, -46.300, 2, 100, 100, 28, 23999, -23120, 5250, 5358, 18, 14, 1530826359.113, 55, 0, 1024, 1024, 1024, 1024, 0, 6, 4012, 3980, 3972, 3980, 4002, 4004, 0, 1, 8600, -89.900, 0.000, -45.000, 0.000, 0.000, -3.000, 0.0, , , , , , 96, , , 0, 0, 0
35.7347768, -118.6147633, 10.000, 14:32:39.212, 14, 0.00, 0.23, 98, -2.400, -1.800, -46.400, 2, 100, 100, 28, 23999, -23120, 5250, 5358, 18, 14, 1530826359.212, 47, 0, 1024, 1024, 1024, 1024, 0, 6, 4012, 3980, 3972, 3980, 4002, 4004, 0, 1, 8699, -89.900, 0.000, -45.000, 0.000, 0.000, -3.100, 0.0, , , , , , 96, , , 0, 0, 0
35.7347769, -118.6147633, 10.300, 14:32:39.312, 14, 0.00, 0.22, 98, -2.400, -1.800, -46.300, 2, 100, 100, 28, 23999, -23120, 5250, 5358, 18, 14, 1530826359.312, 26, 0, 1024, 1024, 1024, 1024, 0, 6, 4012, 3980, 3972, 3980, 4002, 4004, 0, 1, 8799, -89.900, 0.000, -45.100, 0.000, 0.000, -3.000, 0.0, , , , , , 96, , , 0, 0, 0
35.7347770, -118.6147633, 10.600, 14:32:39.412, 14, 0.00, 0.21, 98, -2.800, -1.800, -46.000, 2, 100, 100, 29, 24160, -19260, 5250, 5358, 18, 14, 1530826359.412, 33, 0, 1024, 1024, 1024, 1024, 0, 6, 4034, 4022, 4013, 4013, 4052, 4038, 0, 1, 8899, -89.900, 0.000, -45.100, 0.000, 0.000, -3.000, 0.0, , , , , , 96, , , 0, 0, 0
35.7347771, -118.6147633, 10.900, 14:32:39.512, 14, 0.00, 0.19, 98, -3.000, -1.600, -45.700, 2, 100, 100, 29, 24160, -19260, 5250, 5358, 18, 14, 1530826359.512, 27, 0, 1024, 1024, 1024, 1024, 0, 6, 4034, 4022, 4013, 4013, 4052, 4038, 0, 1, 8999, -89.900, 0.000, -45.100, 0.000, 0.000, -3.000, 0.0, , , , , , 96, , , 0, 0, 0
35.7347772, -118.6147632, 11.200, 14:32:39.612, 14, 0.00, 0.18, 98, -3.200, -1.700, -45.300, 2, 100, 100, 29, 24160, -19260, 5250, 5358, 18, 14, 1530826359.612, 14, 0, 1024, 1024, 1024, 1024, 0, 6, 4034, 4022, 4013, 4013, 4052, 4038, 0, 1, 9099, -89.900, 0.000, -45.100, 0.000, 0.000, -3.000, 0.0, , , , , , 96, , , 0, 0, 0
35.7347773, -118.6147632, 11.500, 14:32:39.712, 14, 0.00, 0.17, 98, -3.200, -1.900, -44.900, 2, 100, 100, 29, 24160, -19260, 5250, 5358, 18, 14, 1530826359.712, 26, 0, 1024, 1024, 1024, 1024, 0, 6, 4034, 4022, 4013, 4013, 4052, 4038, 0, 1, 9199, -89.900, 0.000, -45.100, 0.000, 0.000, -2.900, 0.0, , , , , , 96, , , 0, 0, 0
35.7347774, -118.6147632, 11.900, 14:32:39.813, 14, 0.00, 0.16, 98, -3.300, -1.900, -44.700, 2, 100, 100, 29, 24160, -19260, 5250, 5358, 18, 14, 1530826359.813, 3, 0, 1024, 1024, 1024, 1024, 0, 6, 4034, 4022, 4013, 4013, 4052, 4038, 0, 1, 9300, -89.900, 0.000, -45.100, 0.000, 0.000, -3.000, 0.0, , , , , , 96, , , 0, 0, 0
35.7347775, -118.6147631, 12.200, 14:32:39.912, 14, 0.00, 0.15, 98, -3.200, -1.600, -44.800, 2, 100, 100, 29, 24160, -19260, 5250, 5358, 18, 14, 1530826359.912, 17, 0, 1024, 1024, 1024, 1024, 0, 6, 4034, 4022, 4013, 4013, 4052, 4038, 0, 1, 9399, -89.900, 0.000, -45.200, 0.000, 0.000, -2.900, 0.0, , , , , , 96, , , 0, 0, 0
35.7347776, -118.6147632, 12.400, 14:32:40.012, 14, 0.10, 0.13, 98, -3.400, -1.200, -45.000, 2, 100, 100, 29, 24160, -19260, 5250, 5358, 18, 14, 1530826360.012, 20, 0, 1024, 1024, 1024, 1024, 0, 6, 4034, 4022, 4013, 4013, 4052, 4038, 0, 1, 9499, -89.900, 0.000, -45.200, 0.100, 0.000, -2.800, 0.0, , , , , , 96, , , 0, 0, 0
35.7347776, -118.6147632, 12.400, 14:32:40.112, 14, 0.10, 0.13, 98, -3.400, -1.200, -45.000, 2, 100, 100, 29, 24160, -19260, 5250, 5358, 18, 14, 1530826360.112, 120, 0, 1024, 1024, 1024, 1024, 0, 6, 4034, 4022, 4013, 4013, 4052, 4038, 0, 1, 9599, -89.900, 0.000, -45.200, 0.100, 0.000, -2.800, 0.0, , , , , , 96, , , 0, 0, 0
35.7347777, -118.6147632, 12.700, 14:32:40.212, 14, 0.10, 0.12, 98, -3.700, -0.800, -45.300, 2, 100, 100, 29, 24160, -19260, 5250, 5358, 18, 14, 1530826360.212, 95, 0, 1024, 1024, 1024, 1024, 0, 6, 4034, 4022, 4013, 4013, 4052, 4038, 0, 1, 9699, -89.900, 0.000, -45.200, 0.100, 0.000, -2.700, 0.0, , , , , , 96, , , 0, 0, 0
35.7347779, -118.6147632, 13.000, 14:32:40.312, 14, 0.10, 0.11, 98, -3.800, -0.400, -45.500, 2, 100, 100, 29, 24160, -19260, 5250, 5358, 18, 14, 1530826360.312, 98, 0, 1024, 1024, 1024, 1024, 0, 6, 4034, 4022, 4013, 4013, 4052, 4038, 0, 1, 9799, -89.900, 0.000, -45.200, 0.100, 0.000, -2.800, 0.0, , , , , , 96, , , 0, 0, 0
35.7347780, -118.6147633, 13.300, 14:32:40.412, 14, 0.00, 0.09, 98, -3.600, -0.400, -46.000, 2, 100, 100, 29, 24160, -19260, 5250, 5358, 18, 14, 1530826360.412, 78, 0, 1024, 1024, 1024, 1024, 0, 6, 4034, 4022, 4013, 4013, 4052, 4038, 0, 1, 9899, -89.900, 0.000, -45.200, 0.000, 0.000, -2.900, 0.0, , , , , , 96, , , 0, 0, 0
35.7347781, -118.6147633, 13.600, 14:32:40.512, 14, 0.00, 0.08, 98, -3.700, -0.200, -46.600, 2, 100, 100, 29, 24150, -18745, 5250, 5358, 18, 14, 1530826360.512, 82, 0, 1024, 1024, 1024, 1024, 0, 6, 4046, 4019, 4004, 4008, 4052, 4035, 0, 1, 9999, -89.900, 0.000, -45.200, 0.000, 0.000, -2.900, 0.0, , , , , , 96, , , 0, 0, 0
35.7347781, -118.6147634, 13.800, 14:32:40.612, 14, 0.00, 0.08, 98, -3.500, 0.000, -47.000, 2, 100, 100, 29, 24150, -18745, 5250, 5358, 18, 14, 1530826360.612, 77, 0, 1024, 1024, 1024, 1024, 0, 6, 4046, 4019, 4004, 4008, 4052, 4035, 0, 1, 10099, -89.900, 0.000, -45.300, 0.000, 0.000, -2.800, 0.0, , , , , , 96, , , 0, 0, 0
35.7347781, -118.6147634, 14.100, 14:32:40.712, 14, 0.00, 0.08, 98, -3.200, -0.300, -47.000, 2, 100, 100, 29, 24150, -18745, 5250, 5358, 18, 14, 1530826360.712, 90, 0, 1024, 1024, 1024, 1024, 0, 6, 4046, 4019, 4004, 4008, 4052, 4035, 0, 1, 10199, -89.900, 0.000, -45.300, 0.000, 0.000, -2.900, 0.0, , , , , , 96, , , 0, 0, 0
35.7347781, -118.6147635, 14.400, 14:32:40.812, 14, 0.00, 0.08, 98, -2.800, -0.900, -46.800, 2, 100, 100, 29, 24150, -18745, 5250, 5358, 18, 14, 1530826360.812, 80, 0, 1024, 1024, 1024, 1024, 0, 6, 4046, 4019, 4004, 4008, 4052, 4035, 0, 1, 10299, -89.900, 0.000, -45.300, 0.000, 0.000, -3.000, 0.0, , , , , , 96, , , 0, 0, 0
35.7347781, -118.6147635, 14.700, 14:32:40.912, 14, 0.00, 0.08, 98, -2.800, -1.200, -46.600, 2, 100, 100, 29, 24150, -18745, 5250, 5358, 18, 14, 1530826360.912, 92, 0, 1024, 1024, 1024, 1024, 0, 6, 4046, 4019, 4004, 4008, 4052, 4035, 0, 1, 10399, -90.000, 0.000, -45.300, 0.000, 0.000, -3.000, 0.0, , , , , , 96, , , 0, 0, 0
35.7347781, -118.6147634, 15.000, 14:32:41.012, 14, 0.00, 0.08, 98, -2.800, -1.500, -46.400, 2, 100, 100, 29, 24150, -18745, 5250, 5358, 18, 14, 1530826361.012, 83, 0, 1024, 1024, 1024, 1024, 0, 6, 4046, 4019, 4004, 4008, 4052, 4035, 0, 1, 10499, -89.900, 0.000, -45.300, 0.000, 0.000, -3.000, 0.0, , , , , , 96, , , 0, 0, 0
35.7347781, -118.6147635, 15.300, 14:32:41.112, 14, 0.00, 0.09, 98, -2.700, -1.600, -46.300, 2, 100, 100, 29, 24150, -18745, 5250, 5358, 18, 14, 1530826361.112, 87, 0, 1024, 1024, 1024, 1024, 0, 6, 4046, 4019, 4004, 4008, 4052, 4035, 0, 1, 10599, -90.000, 0.000, -45.300, 0.000, 0.000, -3.000, 0.0, , , , , , 96, , , 0, 0, 0
35.7347780, -118.6147635, 15.600, 14:32:41.212, 14, 0.00, 0.10, 98, -3.000, -1.900, -46.300, 2, 100, 100, 29, 24150, -18745, 5250, 5358, 18, 14, 1530826361.212, 52, 0, 1024, 1024, 1024, 1024, 0, 6, 4046, 4019, 4004, 4008, 4052, 4035, 0, 1, 10699, -90.000, 0.000, -45.400, 0.000, 0.000, -3.000, 0.0, , , , , , 96, , , 0, 0, 0
35.7347780, -118.6147635, 15.900, 14:32:41.312, 14, 0.00, 0.10, 98, -2.900, -2.100, -46.500, 2, 100, 100, 29, 24150, -18745, 5250, 5358, 18, 14, 1530826361.312, 59, 0, 1024, 1024, 1024, 1024, 0, 6, 4046, 4019, 4004, 4008, 4052, 4035, 0, 1, 10799, -89.900, 0.000, -45.400, 0.000, 0.000, -3.000, 0.0, , , , , , 96, , , 0, 0, 0
35.7347779, -118.6147635, 16.500, 14:32:41.412, 14, 0.00, 0.10, 98, -3.400, -1.300, -47.000, 2, 100, 100, 29, 24039, -19986, 5250, 5358, 18, 14, 1530826361.412, 48, 0, 1024, 1024, 1024, 1024, 0, 6, 4032, 3991, 3986, 3994, 4027, 4007, 0, 1, 10899, -89.900, 0.000, -45.400, 0.000, 0.000, -3.000, 0.0, , , , , , 96, , , 0, 0, 0
35.7347779, -118.6147636, 16.800, 14:32:41.512, 14, 0.00, 0.11, 98, -3.300, -1.100, -47.200, 2, 100, 99, 29, 24039, -19986, 5250, 5358, 18, 14, 1530826361.512, 31, 0, 1024, 1024, 1024, 1024, 0, 6, 4032, 3991, 3986, 3994, 4027, 4007, 0, 1, 10999, -89.900, 0.000, -45.400, 0.000, 0.000, -3.000, 0.0, , , , , , 96, , , 0, 0, 0
35.7347779, -118.6147637, 17.100, 14:32:41.612, 14, 0.00, 0.11, 98, -2.800, -0.900, -47.200, 2, 100, 99, 29, 24039, -19986, 5250, 5358, 18, 14, 1530826361.612, 55, 0, 1024, 1024, 1024, 1024, 0, 6, 4032, 3991, 3986, 3994, 4027, 4007, 0, 1, 11099, -89.900, 0.000, -45.400, 0.000, 0.000, -2.900, 0.0, , , , , , 96, , , 0, 0, 0
35.7347779, -118.6147637, 17.100, 14:32:41.712, 14, 0.00, 0.11, 98, -2.800, -0.900, -47.200, 2, 100, 99, 29, 24039, -19986, 5250, 5358, 18, 14, 1530826361.712, 155, 0, 1024, 1024, 1024, 1024, 0, 6, 4032, 3991, 3986, 3994, 4027, 4007, 0, 1, 11199, -90.000, 0.000, -45.400, 0.000, 0.000, -2.900, 0.0, , , , , , 96, , , 0, 0, 0
35.7347778, -118.6147637, 17.700, 14:32:41.812, 14, 0.00, 0.12, 98, -2.900, -1.700, -46.800, 2, 100, 99, 29, 24039, -19986, 5250, 5358, 18, 14, 1530826361.812, 44, 0, 1024, 1024, 1024, 1024, 0, 6, 4032, 3991, 3986, 3994, 4027, 4007, 0, 1, 11299, -90.000, 0.000, -45.400, 0.000, 0.000, -3.000, 0.0, , , , , , 96, , , 0, 0, 0
35.7347777, -118.6147638, 18.000, 14:32:41.912, 14, 0.00, 0.13, 98, -2.800, -2.000, -46.700, 2, 100, 99, 29, 24039, -19986, 5250, 5358, 18, 14, 1530826361.912, 47, 0, 1024, 1024, 1024, 1024, 0, 6, 4032, 3991, 3986, 3994, 4027, 4007, 0, 1, 11399, -90.000, 0.000, -45.400, 0.000, 0.000, -3.000, 0.0, , , , , , 96, , , 0, 0, 0
35.7347777, -118.6147639, 18.300, 14:32:42.012, 14, 0.00, 0.14, 98, -2.400, -2.000, -46.600, 2, 100, 99, 29, 24039, -19986, 5250, 5358, 18, 14, 1530826362.013, 37, 0, 1024, 1024, 1024, 1024, 0, 6, 4032, 3991, 3986, 3994, 4027, 4007, 0, 1, 11500, -89.900, 0.000, -45.400, 0.000, 0.000, -3.000, 0.0, , , , , , 96, , , 0, 0, 0
35.7347776, -118.6147639, 18.600, 14:32:42.112, 14, 0.00, 0.15, 98, -1.900, -1.500, -46.500, 2, 100, 99, 29, 24039, -19986, 5250, 5358, 18, 14, 1530826362.112, 33, 0, 1024, 1024, 1024, 1024, 0, 6, 4032, 3991, 3986, 3994, 4027, 4007, 0, 1, 11599, -89.900, 0.000, -45.400, 0.000, 0.000, -3.000, 0.0, , , , , , 96, , , 0, 0, 0
35.7347776, -118.6147640, 18.900, 14:32:42.212, 14, 0.00, 0.16, 98, -1.700, -1.100, -46.400, 2, 100, 99, 29, 24039, -19986, 5250, 5358, 18, 14, 1530826362.212, 33, 0, 1024, 1024, 1024, 1024, 0, 6, 4032, 3991, 3986, 3994, 4027, 4007, 0, 1, 11699, -89.900, 0.000, -45.400, 0.000, 0.000, -3.000, 0.0, , , , , , 96, , , 0, 0, 0
35.7347775, -118.6147641, 19.200, 14:32:42.312, 14, 0.00, 0.17, 98, -1.600, -1.300, -46.300, 2, 100, 99, 29, 24039, -19986, 5250, 5358, 18, 14, 1530826362.312, 35, 0, 1024, 1024, 1024, 1024, 0, 6, 4032, 3991, 3986, 3994, 4027, 4007, 0, 1, 11799, -89.900, 0.000, -45.400, 0.000, 0.000, -3.000, 0.0, , , , , , 96, , , 0, 0, 0
35.7347774, -118.6147641, 19.500, 14:32:42.412, 14, 0.00, 0.17, 98, -1.600, -1.500, -46.200, 2, 100, 99, 29, 24049, -19371, 5250, 5358, 18, 14, 1530826362.412, 8, 0, 1024, 1024, 1024, 1024, 0, 6, 4032, 3991, 3986, 3994, 4027, 4007, 0, 1, 11899, -89.900, 0.000, -45.400, 0.000, 0.000, -3.000, 0.0, , , , , , 96, , , 0, 0, 0
35.7347774, -118.6147641, 19.500, 14:32:42.512, 14, 0.00, 0.17, 98, -1.600, -1.500, -46.200, 2, 100, 99, 29, 24049, -19371, 5250, 5358, 18, 14, 1530826362.512, 108, 0, 1024, 1024, 1024, 1024, 0, 6, 4032, 3991, 3986, 3994, 4027, 4007, 0, 1, 11999, -89.900, 0.000, -45.400, 0.000, 0.000, -3.000, 0.0, , , , , , 96, , , 0, 0, 0
35.7347773, -118.6147641, 20.100, 14:32:42.612, 14, 0.00, 0.19, 98, -1.800, -2.200, -46.200, 2, 100, 99, 29, 24049, -19371, 5250, 5358, 18, 14, 1530826362.612, 8, 0, 1024, 1024, 1024, 1024, 0, 6, 4032, 3991, 3986, 3994, 4027, 4007, 0, 1, 12099, -90.000, 0.000, -45.400, 0.000, 0.000, -3.000, 0.0, , , , , , 96, , , 0, 0, 0
35.7347772, -118.6147641, 20.400, 14:32:42.712, 14, 0.00, 0.19, 98, -2.000, -2.700, -46.300, 2, 100, 99, 29, 24049, -19371, 5250, 5358, 18, 14, 1530826362.712, 13, 0, 1024, 1024, 1024, 1024, 0, 6, 4032, 3991, 3986, 3994, 4027, 4007, 0, 1, 12199, -90.000, 0.000, -45.400, 0.000, 0.000, -3.000, 0.0, , , , , , 96, , , 0, 0, 0
35.7347772, -118.6147641, 20.400, 14:32:42.812, 14, 0.00, 0.19, 98, -2.000, -2.700, -46.300, 2, 100, 99, 29, 24049, -19371, 5250, 5358, 18, 14, 1530826362.812, 113, 0, 1024, 1024, 1024, 1024, 0, 6, 4032, 3991, 3986, 3994, 4027, 4007, 0, 1, 12299, -90.000, 0.000, -45.400, 0.000, 0.000, -3.000, 0.0, , , , , , 96, , , 0, 0, 0
35.7347772, -118.6147641, 20.700, 14:32:42.912, 14, 0.00, 0.20, 98, -2.100, -2.800, -46.300, 2, 100, 99, 29, 24049, -19371, 5250, 5358, 18, 14, 1530826362.912, 95, 0, 1024, 1024, 1024, 1024, 0, 6, 4032, 3991, 3986, 3994, 4027, 4007, 0, 1, 12399, -89.900, 0.000, -45.400, 0.000, 0.000, -3.000, 0.0, , , , , , 96, , , 0, 0, 0
35.7347771, -118.6147641, 21.000, 14:32:43.012, 14, 0.00, 0.21, 98, -2.300, -2.500, -46.400, 2, 100, 100, 29, 24049, -19371, 5197, 5358, 18, 14, 1530826363.012, 84, 0, 1024, 1024, 1024, 1024, 0, 6, 4021, 4001, 3994, 3990, 4032, 4003, 0, 1, 12499, -89.900, 0.000, -45.400, 0.000, 0.000, -3.000, 0.0, , , , , , 96, , , 0, 0, 0
35.7347770, -118.6147641, 21.400, 14:32:43.112, 14, 0.00, 0.21, 98, -2.500, -2.400, -46.400, 2, 100, 100, 29, 24049, -19371, 5197, 5358, 18, 14, 1530826363.112, 79, 0, 1024, 1024, 1024, 1024, 0, 6, 4021, 4001, 3994, 3990, 4032, 4003, 0, 1, 12599, -89.900, 0.000, -45.400, 0.000, 0.000, -3.100, 0.0, , , , , , 96, , , 0, 0, 0
35.7347770, -118.6147641, 21.400, 14:32:43.212, 14, 0.00, 0.21, 98, -2.500, -2.400, -46.400, 2, 100, 100, 29, 24049, -19371, 5197, 5358, 18, 14, 1530826363.212, 179, 0, 1024, 1024, 1024, 1024, 0, 6, 4021, 4001, 3994, 3990, 4032, 4003, 0, 1, 12699, -90.000, 0.000, -45.400, 0.000, 0.000, -3.100, 0.0, , , , , , 96, , , 0, 0, 0
35.7347770, -118.6147641, 22.000, 14:32:43.312, 14, 0.00, 0.22, 98, -2.200, -2.400, -46.300, 2, 100, 100, 29, 24049, -19371, 5197, 5358, 18, 14, 1530826363.312, 84, 0, 1024, 1024, 1024, 1024, 0, 6, 4021, 4001, 3994, 3990, 4032, 4003, 0, 1, 12799, -89.900, 0.000, -45.400, 0.000, 0.000, -3.000, 0.0, , , , , , 96, , , 0, 0, 0
35.7347769, -118.6147641, 22.300, 14:32:43.412, 14, 0.00, 0.23, 97, -1.900, -2.300, -46.300, 2, 100, 100, 29, 24049, -19371, 5197, 5358, 18, 14, 1530826363.412, 86, 0, 1024, 1024, 1024, 1024, 0, 6, 4021, 4001, 3994, 3990, 4032, 4003, 0, 1, 12899, -89.900, 0.000, -45.400, 0.000, 0.000, -3.000, 0.0, , , , , , 96, , , 0, 0, 0
35.7347769, -118.6147641, 22.600, 14:32:43.512, 14, 0.00, 0.23, 97, -1.900, -2.000, -46.300, 2, 100, 100, 29, 24049, -19371, 5197, 5358, 18, 14, 1530826363.512, 64, 0, 1024, 1024, 1024, 1024, 0, 6, 4021, 4001, 3994, 3990, 4032, 4003, 0, 1, 12999, -89.900, 0.000, -45.400, 0.000, 0.000, -3.000, 0.0, , , , , , 96, , , 0, 0, 0
35.7347769, -118.6147641, 22.900, 14:32:43.612, 14, 0.00, 0.23, 97, -2.200, -1.700, -46.400, 2, 100, 99, 29, 24049, -19371, 5197, 5358, 18, 14, 1530826363.612, 79, 0, 1024, 1024, 1024, 1024, 0, 6, 4021, 4001, 3994, 3990, 4032, 4003, 0, 1, 13099, -89.900, 0.000, -45.400, 0.000, 0.000, -3.000, 0.0, , , , , , 96, , , 0, 0, 0
35.7347769, -118.6147641, 23.200, 14:32:43.712, 14, 0.00, 0.23, 97, -2.900, -1.700, -46.400, 2, 100, 99, 29, 24049, -19371, 5197, 5358, 18, 14, 1530826363.712, 76, 0, 1024, 1024, 1024, 1024, 0, 6, 4021, 4001, 3994, 3990, 4032, 4003, 0, 1, 13199, -89.900, 0.000, -45.400, 0.000, 0.000, -3.100, 0.0, , , , , , 96, , , 0, 0, 0
35.7347768, -118.6147640, 23.500, 14:32:43.812, 14, 0.00, 0.23, 97, -3.200, -1.800, -46.400, 2, 100, 99, 29, 24049, -19371, 5197, 5358, 18, 14, 1530826363.812, 43, 0, 1024, 1024, 1024, 1024, 0, 6, 4021, 4001, 3994, 3990, 4032, 4003, 0, 1, 13299, -90.000, 0.000, -45.400, 0.000, 0.000, -3.000, 0.0, , , , , , 96, , , 0, 0, 0
35.7347768, -118.6147640, 23.800, 14:32:43.912, 14, 0.00, 0.23, 97, -3.300, -2.100, -46.400, 2, 100, 99, 29, 23967, -20037, 5197, 5358, 18, 14, 1530826363.912, 70, 0, 1024, 1024, 1024, 1024, 0, 6, 4007, 3987, 3977, 3982, 4025, 4002, 0, 1, 13399, -90.000, 0.000, -45.400, 0.000, 0.000, -3.000, 0.0, , , , , , 96, , , 0, 0, 0
35.7347767, -118.6147640, 24.100, 14:32:44.012, 14, 0.00, 0.24, 97, -3.000, -2.500, -46.400, 2, 100, 99, 29, 23967, -20037, 5197, 5358, 18, 14, 1530826364.012, 47, 0, 1024, 1024, 1024, 1024, 0, 6, 4007, 3987, 3977, 3982, 4025, 4002, 0, 1, 13499, -90.000, 0.000, -45.400, 0.000, 0.000, -3.000, 0.0, , , , , , 96, , , 0, 0, 0
35.7347764, -118.6147639, 24.700, 14:32:44.112, 14, 0.00, 0.27, 97, -1.800, -3.100, -46.400, 2, 100, 99, 29, 23967, -20037, 5197, 5358, 18, 14, 1530826364.112, 59, 0, 1024, 1024, 1024, 1024, 0, 6, 4007, 3987, 3977, 3982, 4025, 4002, 0, 1, 13599, -89.900, 0.000, -45.400, 0.000, 0.000, -2.900, 0.0, , , , , , 96, , , 0, 0, 0
35.7347763, -118.6147639, 25.000, 14:32:44.212, 14, 0.00, 0.29, 97, -1.200, -3.500, -46.400, 2, 100, 99, 29, 23967, -20037, 5197, 5358, 18, 14, 1530826364.212, 39, 0, 1024, 1024, 1024, 1024, 0, 6, 4007, 3987, 3977, 3982, 4025, 4002, 0, 1, 13699, -89.900, 0.000, -45.400, 0.000, 0.000, -2.900, 0.0, , , , , , 96, , , 0, 0, 0
35.7347761, -118.6147639, 25.300, 14:32:44.312, 14, 0.00, 0.30, 97, -1.100, -4.100, -46.300, 2, 100, 99, 29, 23967, -20037, 5197, 5358, 18, 14, 1530826364.313, 33, 0, 1024, 1024, 1024, 1024, 0, 6, 4007, 3987, 3977, 3982, 4025, 4002, 0, 1, 13800, -90.000, 0.000, -45.400, 0.000, 0.000, -3.000, 0.0, , , , , , 96, , , 0, 0, 0
35.7347761, -118.6147639, 25.600, 14:32:44.412, 14, 0.00, 0.31, 97, -1.400, -4.300, -46.300, 2, 100, 99, 29, 23967, -20037, 5197, 5358, 18, 14, 1530826364.412, 39, 0, 1024, 1024, 1024, 1024, 0, 6, 4007, 3987, 3977, 3982, 4025, 4002, 0, 1, 13899, -89.900, 0.000, -45.400, 0.000, 0.000, -2.900, 0.0, , , , , , 96, , , 0, 0, 0
35.7347760, -118.6147639, 25.900, 14:32:44.512, 14, 0.00, 0.32, 97, -1.300, -4.300, -46.300, 2, 100, 99, 29, 23967, -20037, 5197, 5358, 18, 14, 1530826364.512, 42, 0, 1024, 1024, 1024, 1024, 0, 6, 4007, 3987, 3977, 3982, 4025, 4002, 0, 1, 13999, -89.900, 0.000, -45.400, 0.000, 0.000, -3.000, 0.0, , , , , , 96, , , 0, 0, 0
35.7347760, -118.6147639, 26.200, 14:32:44.612, 14, 0.00, 0.32, 97, -1.700, -4.400, -46.200, 2, 100, 99, 29, 23967, -20037, 5197, 5358, 18, 14, 1530826364.612, 21, 0, 1024, 1024, 1024, 1024, 0, 6, 4007, 3987, 3977, 3982, 4025, 4002, 0, 1, 14099, -89.900, 0.000, -45.400, 0.000, 0.000, -3.000, 0.0, , , , , , 96, , , 0, 0, 0
35.7347759, -118.6147639, 26.600, 14:32:44.712, 14, 0.00, 0.33, 97, -1.800, -4.600, -46.100, 2, 100, 99, 29, 23967, -20037, 5197, 5358, 18, 14, 1530826364.712, 13, 0, 1024, 1024, 1024, 1024, 0, 6, 4007, 3987, 3977, 3982, 4025, 4002, 0, 1, 14199, -89.900, 0.000, -45.400, 0.000, 0.000, -3.000, 0.0, , , , , , 96, , , 0, 0, 0
35.7347759, -118.6147639, 26.600, 14:32:44.812, 14, 0.00, 0.33, 97, -1.800, -4.600, -46.100, 2, 100, 99, 29, 23967, -20037, 5197, 5358, 18, 14, 1530826364.812, 113, 0, 1024, 1024, 1024, 1024, 0, 6, 4007, 3987, 3977, 3982, 4025, 4002, 0, 1, 14299, -89.900, 0.000, -45.400, 0.000, 0.000, -3.000, 0.0, , , , , , 96, , , 0, 0, 0
35.7347760, -118.6147641, 27.200, 14:32:44.912, 14, 0.00, 0.33, 97, -1.300, -2.500, -46.300, 2, 100, 99, 29, 24017, -19007, 5197, 5358, 18, 14, 1530826364.912, 8, 0, 1024, 1024, 1024, 1024, 0, 6, 4017, 4001, 3984, 3991, 4023, 4005, 0, 1, 14399, -89.900, 0.000, -45.400, 0.000, 0.000, -2.800, 0.0, , , , , , 96, , , 0, 0, 0
35.7347760, -118.6147641, 27.200, 14:32:45.012, 14, 0.00, 0.33, 97, -1.300, -2.500, -46.300, 2, 100, 99, 29, 24017, -19007, 5197, 5358, 18, 14, 1530826365.012, 108, 0, 1024, 1024, 1024, 1024, 0, 6, 4017, 4001, 3984, 3991, 4023, 4005, 0, 1, 14500, -89.900, 0.000, -45.400, 0.000, 0.000, -2.800, 0.0, , , , , , 96, , , 0, 0, 0
35.7347760, -118.6147643, 27.800, 14:32:45.112, 14, 0.00, 0.33, 97, -0.600, -1.400, -46.600, 2, 100, 100, 29, 24017, -19007, 5197, 5358, 18, 14, 1530826365.112, 8, 0, 1024, 1024, 1024, 1024, 0, 6, 4017, 4001, 3984, 3991, 4023, 4005, 0, 1, 14599, -89.900, 0.000, -45.400, 0.000, 0.000, -2.800, 0.0, , , , , , 96, , , 0, 0, 0
35.7347760, -118.6147643, 27.800, 14:32:45.212, 14, 0.00, 0.33, 97, -0.600, -1.400, -46.600, 2, 100, 100, 29, 24017, -19007, 5197, 5358, 18, 14, 1530826365.212, 108, 0, 1024, 1024, 1024, 1024, 0, 6, 4017, 4001, 3984, 3991, 4023, 4005, 0, 1, 14699, -89.900, 0.000, -45.400, 0.000, 0.000, -2.800, 0.0, , , , , , 96, , , 0, 0, 0
35.7347761, -118.6147644, 28.100, 14:32:45.312, 14, 0.00, 0.32, 97, -0.600, -1.300, -46.600, 2, 100, 100, 29, 24017, -19007, 5197, 5358, 18, 14, 1530826365.312, 85, 0, 1024, 1024, 1024, 1024, 0, 6, 4017, 4001, 3984, 3991, 4023, 4005, 0, 1, 14799, -89.900, 0.000, -45.400, 0.000, 0.000, -2.800, 0.0, , , , , , 96, , , 0, 0, 0
35.7347761, -118.6147644, 28.300, 14:32:45.412, 14, 0.00, 0.32, 97, -1.000, -1.300, -46.400, 2, 100, 100, 29, 24017, -19007, 5197, 5358, 18, 14, 1530826365.412, 88, 0, 1024, 1024, 1024, 1024, 0, 6, 4017, 4001, 3984, 3991, 4023, 4005, 0, 1, 14899, -89.900, 0.000, -45.400, 0.000, 0.000, -2.800, 0.0, , , , , , 96, , , 0, 0, 0
35.7347762, -118.6147645, 28.600, 14:32:45.512, 14, 0.00, 0.32, 97, -1.500, -1.400, -46.300, 2, 100, 99, 29, 24017, -19007, 5197, 5358, 18, 14, 1530826365.512, 80, 0, 1024, 1024, 1024, 1024, 0, 6, 4017, 4001, 3984, 3991, 4023, 4005, 0, 1, 14999, -89.900, 0.000, -45.400, 0.000, 0.000, -2.900, 0.0, , , , , , 96, , , 0, 0, 0
35.7347762, -118.6147645, 29.000, 14:32:45.612, 14, 0.00, 0.31, 97, -1.900, -1.500, -46.300, 2, 100, 99, 29, 24017, -19007, 5197, 5358, 18, 14, 1530826365.612, 81, 0, 1024, 1024, 1024, 1024, 0, 6, 4017, 4001, 3984, 3991, 4023, 4005, 0, 1, 15099, -89.900, 0.000, -45.400, 0.000, 0.000, -2.900, 0.0, , , , , , 96, , , 0, 0, 0
35.7347763, -118.6147645, 29.300, 14:32:45.712, 14, 0.00, 0.30, 97, -1.900, -1.400, -46.500, 2, 100, 99, 29, 24017, -19007, 5197, 5358, 18, 14, 1530826365.712, 66, 0, 1024, 1024, 1024, 1024, 0, 6, 4017, 4001, 3984, 3991, 4023, 4005, 0, 1, 15199, -89.900, 0.000, -45.400, 0.000, 0.000, -2.900, 0.0, , , , , , 96, , , 0, 0, 0
35.7347763, -118.6147645, 29.600, 14:32:45.812, 14, 0.00, 0.30, 97, -2.100, -1.400, -46.700, 2, 100, 99, 29, 24017, -19007, 5197, 5358, 18, 14, 1530826365.812, 75, 0, 1024, 1024, 1024, 1024, 0, 6, 4017, 4001, 3984, 3991, 4023, 4005, 0, 1, 15299, -89.900, 0.000, -45.400, 0.000, 0.000, -2.900, 0.0, , , , , , 96, , , 0, 0, 0
35.7347764, -118.6147645, 29.900, 14:32:45.912, 14, 0.00, 0.29, 97, -2.300, -1.700, -46.700, 2, 100, 99, 29, 24012, -19049, 5197, 5358, 18, 14, 1530826365.912, 53, 0, 1024, 1024, 1024, 1024, 0, 6, 4007, 3987, 3976, 3988, 4018, 3998, 0, 1, 15399, -89.900, 0.000, -45.400, 0.000, 0.000, -2.900, 0.0, , , , , , 96, , , 0, 0, 0
35.7347764, -118.6147644, 30.200, 14:32:46.012, 14, 0.00, 0.29, 97, -2.500, -2.200, -46.500, 2, 100, 99, 29, 24012, -19049, 5197, 5358, 18, 14, 1530826366.012, 54, 0, 1024, 1024, 1024, 1024, 0, 6, 4007, 3987, 3976, 3988, 4018, 3998, 0, 1, 15499, -90.000, 0.000, -45.400, 0.000, 0.000, -2.900, 0.0, , , , , , 96, , , 0, 0, 0
35.7347764, -118.6147644, 30.500, 14:32:46.112, 14, 0.00, 0.29, 97, -2.500, -2.500, -46.400, 2, 100, 99, 29, 24012, -19049, 5197, 5358, 18, 14, 1530826366.112, 67, 0, 1024, 1024, 1024, 1024, 0, 6, 4007, 3987, 3976, 3988, 4018, 3998, 0, 1, 15599, -89.900, 0.000, -45.400, 0.000, 0.000, -3.000, 0.0, , , , , , 96, , , 0, 0, 0
35.7347764, -118.6147643, 31.100, 14:32:46.212, 14, 0.00, 0.28, 97, -2.000, -2.500, -46.200, 2, 100, 99, 29, 24012, -19049, 5197, 5358, 18, 14, 1530826366.212, 41, 0, 1024, 1024, 1024, 1024, 0, 6, 4007, 3987, 3976, 3988, 4018, 3998, 0, 1, 15699, -89.900, 0.000, -45.400, 0.000, 0.000, -2.900, 0.0, , , , , , 96, , , 0, 0, 0
35.7347764, -118.6147643, 31.400, 14:32:46.312, 14, 0.00, 0.28, 97, -2.100, -2.400, -46.200, 2, 100, 99, 29, 24012, -19049, 5197, 5358, 18, 14, 1530826366.312, 60, 0, 1024, 1024, 1024, 1024, 0, 6, 4007, 3987, 3976, 3988, 4018, 3998, 0, 1, 15799, -89.900, 0.000, -45.400, 0.000, 0.000, -2.900, 0.0, , , , , , 96, , , 0, 0, 0
35.7347765, -118.6147643, 31.700, 14:32:46.412, 14, 0.00, 0.28, 97, -2.200, -2.500, -46.200, 2, 100, 99, 29, 24012, -19049, 5197, 5358, 18, 14, 1530826366.412, 52, 0, 1024, 1024, 1024, 1024, 0, 6, 4007, 3987, 3976, 3988, 4018, 3998, 0, 1, 15899, -89.900, 0.000, -45.400, 0.000, 0.000, -2.900, 0.0, , , , , , 96, , , 0, 0, 0
35.7347765, -118.6147643, 32.000, 14:32:46.512, 14, 0.00, 0.28, 97, -2.300, -2.700, -46.100, 2, 100, 99, 29, 24012, -19049, 5197, 5358, 18, 14, 1530826366.512, 57, 0, 1024, 1024, 1024, 1024, 0, 6, 4007, 3987, 3976, 3988, 4018, 3998, 0, 1, 15999, -89.900, 0.000, -45.400, 0.000, 0.000, -2.900, 0.0, , , , , , 96, , , 0, 0, 0
35.7347765, -118.6147642, 32.300, 14:32:46.612, 14, 0.00, 0.28, 97, -2.300, -2.900, -46.000, 2, 100, 99, 29, 24012, -19049, 5197, 5358, 18, 14, 1530826366.612, 27, 0, 1024, 1024, 1024, 1024, 0, 6, 4007, 3987, 3976, 3988, 4018, 3998, 0, 1, 16099, -89.900, 0.000, -45.400, 0.000, 0.000, -2.900, 0.0, , , , , , 96, , , 0, 0, 0
35.7347764, -118.6147642, 32.600, 14:32:46.712, 14, 0.00, 0.28, 97, -2.700, -3.100, -46.100, 2, 100, 99, 29, 24012, -19049, 5197, 5358, 18, 14, 1530826366.712, 31, 0, 1024, 1024, 1024, 1024, 0, 6, 4007, 3987, 3976, 3988, 4018, 3998, 0, 1, 16199, -89.900, 0.000, -45.400, 0.000, 0.000, -2.900, 0.0, , , , , , 96, , , 0, 0, 0
35.7347764, -118.6147641, 32.900, 14:32:46.812, 14, 0.00, 0.28, 97, -2.900, -3.200, -46.100, 2, 100, 99, 29, 24012, -19049, 5197, 5358, 18, 14, 1530826366.812, 13, 0, 1024, 1024, 1024, 1024, 0, 6, 4007, 3987, 3976, 3988, 4018, 3998, 0, 1, 16299, -89.900, 0.000, -45.400, 0.000, 0.000, -2.900, 0.0, , , , , , 96, , , 0, 0, 0
35.7347764, -118.6147641, 33.200, 14:32:46.912, 14, 0.00, 0.28, 97, -2.800, -3.200, -46.000, 2, 100, 99, 29, 23842, -21135, 5197, 5358, 18, 14, 1530826366.912, 17, 0, 1024, 1024, 1024, 1024, 0, 6, 3975, 3957, 3953, 3952, 3992, 3974, 0, 1, 16399, -89.900, 0.000, -45.400, 0.000, 0.000, -2.800, 0.0, , , , , , 96, , , 0, 0, 0
35.7347764, -118.6147641, 33.200, 14:32:47.012, 14, 0.00, 0.28, 97, -2.800, -3.200, -46.000, 2, 100, 99, 29, 23842, -21135, 5197, 5358, 18, 14, 1530826367.012, 117, 0, 1024, 1024, 1024, 1024, 0, 6, 3975, 3957, 3953, 3952, 3992, 3974, 0, 1, 16499, -89.900, 0.000, -45.400, 0.000, 0.000, -2.800, 0.0, , , , , , 96, , , 0, 0, 0
35.7347764, -118.6147640, 33.800, 14:32:47.112, 14, 0.00, 0.28, 97, -2.300, -3.000, -46.100, 2, 100, 98, 29, 23842, -21135, 5197, 5358, 18, 14, 1530826367.112, 23, 0, 1024, 1024, 1024, 1024, 0, 6, 3975, 3957, 3953, 3952, 3992, 3974, 0, 1, 16599, -89.900, 0.000, -45.400, 0.000, 0.000, -2.700, 0.0, , , , , , 96, , , 0, 0, 0
35.7347764, -118.6147640, 33.800, 14:32:47.213, 14, 0.00, 0.28, 97, -2.300, -3.000, -46.100, 2, 100, 98, 29, 23842, -21135, 5197, 5358, 18, 14, 1530826367.213, 124, 0, 1024, 1024, 1024, 1024, 0, 6, 3975, 3957, 3953, 3952, 3992, 3974, 0, 1, 16700, -90.000, 0.000, -45.400, 0.000, 0.000, -2.700, 0.0, , , , , , 96, , , 0, 0, 0
35.7347763, -118.6147640, 34.400, 14:32:47.312, 14, 0.00, 0.29, 97, -2.200, -3.200, -46.200, 2, 100, 98, 29, 23842, -21135, 5197, 5358, 18, 14, 1530826367.312, 2, 0, 1024, 1024, 1024, 1024, 0, 6, 3975, 3957, 3953, 3952, 3992, 3974, 0, 1, 16799, -90.000, 0.000, -45.400, 0.000, 0.000, -2.900, 0.0, , , , , , 96, , , 0, 0, 0
35.7347763, -118.6147639, 34.700, 14:32:47.412, 14, 0.00, 0.29, 97, -2.400, -3.500, -46.200, 2, 100, 98, 29, 23842, -21135, 5197, 5358, 18, 14, 1530826367.412, 5, 0, 1024, 1024, 1024, 1024, 0, 6, 3975, 3957, 3953, 3952, 3992, 3974, 0, 1, 16899, -90.000, 0.000, -45.400, 0.000, 0.000, -2.900, 0.0, , , , , , 96, , , 0, 0, 0
35.7347763, -118.6147639, 34.700, 14:32:47.512, 14, 0.00, 0.29, 97, -2.400, -3.500, -46.200, 2, 100, 98, 29, 23842, -21135, 5197, 5358, 18, 14, 1530826367.513, 106, 0, 1024, 1024, 1024, 1024, 0, 6, 3975, 3957, 3953, 3952, 3992, 3974, 0, 1, 17000, -89.900, 0.000, -45.400, 0.000, 0.000, -2.900, 0.0, , , , , , 96, , , 0, 0, 0
35.7347763, -118.6147639, 35.300, 14:32:47.622, 14, 0.00, 0.29, 97, -2.300, -3.500, -46.300, 2, 100, 98, 29, 23842, -21135, 5197, 5358, 18, 14, 1530826367.622, 2, 0, 1024, 1024, 1024, 1024, 0, 6, 3975, 3957, 3953, 3952, 3992, 3974, 0, 1, 17109, -89.900, 0.000, -45.400, 0.000, 0.000, -2.900, 0.0, , , , , , 96, , , 0, 0, 0
35.7347763, -118.6147639, 35.300, 14:32:47.712, 14, 0.00, 0.29, 97, -2.300, -3.500, -46.300, 2, 100, 98, 29, 23842, -21135, 5197, 5358, 18, 14, 1530826367.712, 92, 0, 1024, 1024, 1024, 1024, 0, 6, 3975, 3957, 3953, 3952, 3992, 3974, 0, 1, 17199, -89.900, 0.000, -45.400, 0.000, 0.000, -2.900, 0.0, , , , , , 96, , , 0, 0, 0
35.7347762, -118.6147640, 35.600, 14:32:47.812, 14, 0.00, 0.29, 97, -2.000, -3.400, -46.300, 2, 100, 98, 29, 23842, -21135, 5197, 5358, 18, 14, 1530826367.812, 86, 0, 1024, 1024, 1024, 1024, 0, 6, 3975, 3957, 3953, 3952, 3992, 3974, 0, 1, 17299, -89.900, 0.000, -45.400, 0.000, 0.000, -2.900, 0.0, , , , , , 96, , , 0, 0, 0
35.7347762, -118.6147640, 35.900, 14:32:47.912, 14, 0.00, 0.30, 97, -1.900, -3.400, -46.200, 2, 100, 98, 29, 23842, -21135, 5197, 5358, 18, 14, 1530826367.912, 83, 0, 1024, 1024, 1024, 1024, 0, 6, 3975, 3957, 3953, 3952, 3992, 3974, 0, 1, 17399, -89.900, 0.000, -45.400, 0.000, 0.000, -2.900, 0.0, , , , , , 96, , , 0, 0, 0
35.7347762, -118.6147640, 36.200, 14:32:48.012, 14, 0.00, 0.30, 97, -1.800, -3.500, -46.200, 2, 100, 98, 29, 23802, -20784, 5197, 5358, 18, 14, 1530826368.012, 87, 0, 1024, 1024, 1024, 1024, 0, 6, 3975, 3957, 3953, 3952, 3992, 3974, 0, 1, 17499, -89.900, 0.000, -45.400, 0.000, 0.000, -2.900, 0.0, , , , , , 96, , , 0, 0, 0
35.7347761, -118.6147640, 36.500, 14:32:48.112, 14, 0.00, 0.31, 97, -2.100, -3.500, -46.300, 2, 100, 98, 29, 23802, -20784, 5197, 5358, 18, 14, 1530826368.112, 76, 0, 1024, 1024, 1024, 1024, 0, 6, 3975, 3957, 3953, 3952, 3992, 3974, 0, 1, 17599, -90.000, 0.000, -45.400, 0.000, 0.000, -2.800, 0.0, , , , , , 96, , , 0, 0, 0
35.7347761, -118.6147640, 36.800, 14:32:48.212, 14, 0.00, 0.31, 97, -2.000, -3.400, -46.400, 2, 100, 98, 29, 23802, -20784, 5197, 5358, 18, 14, 1530826368.212, 78, 0, 1024, 1024, 1024, 1024, 0, 6, 3975, 3957, 3953, 3952, 3992, 3974, 0, 1, 17699, -89.900, 0.000, -45.400, 0.000, 0.000, -2.800, 0.0, , , , , , 96, , , 0, 0, 0
35.7347761, -118.6147640, 37.000, 14:32:48.312, 14, 0.00, 0.31, 97, -2.000, -3.400, -46.400, 2, 100, 98, 29, 23802, -20784, 5197, 5358, 18, 14, 1530826368.312, 58, 0, 1024, 1024, 1024, 1024, 0, 6, 3975, 3957, 3953, 3952, 3992, 3974, 0, 1, 17799, -89.900, 0.000, -45.400, 0.000, 0.000, -2.800, 0.0, , , , , , 96, , , 0, 0, 0
35.7347761, -118.6147640, 37.300, 14:32:48.412, 14, 0.00, 0.31, 97, -2.000, -3.400, -46.300, 2, 100, 98, 29, 23802, -20784, 5197, 5358, 18, 14, 1530826368.412, 49, 0, 1024, 1024, 1024, 1024, 0, 6, 3975, 3957, 3953, 3952, 3992, 3974, 0, 1, 17899, -89.900, 0.000, -45.400, 0.000, 0.000, -2.900, 0.0, , , , , , 96, , , 0, 0, 0
35.7347761, -118.6147640, 37.600, 14:32:48.512, 14, 0.00, 0.31, 97, -2.000, -3.200, -46.300, 2, 100, 96, 29, 23802, -20784, 5197, 5358, 18, 14, 1530826368.512, 51, 0, 1024, 1024, 1024, 1024, 0, 6, 3977, 3949, 3949, 3946, 3987, 3969, 0, 1, 17999, -89.900, 0.000, -45.400, 0.000, 0.000, -3.000, 0.0, , , , , , 96, , , 0, 0, 0
35.7347762, -118.6147640, 38.300, 14:32:48.612, 14, 0.00, 0.30, 97, -2.200, -2.900, -46.400, 2, 100, 96, 29, 23802, -20784, 5197, 5358, 18, 14, 1530826368.612, 44, 0, 1024, 1024, 1024, 1024, 0, 6, 3977, 3949, 3949, 3946, 3987, 3969, 0, 1, 18099, -89.900, 0.000, -45.400, 0.000, 0.000, -2.900, 0.0, , , , , , 96, , , 0, 0, 0
35.7347762, -118.6147640, 38.600, 14:32:48.712, 14, 0.00, 0.30, 97, -2.300, -2.700, -46.400, 2, 100, 96, 29, 23802, -20784, 5197, 5358, 18, 14, 1530826368.712, 47, 0, 1024, 1024, 1024, 1024, 0, 6, 3977, 3949, 3949, 3946, 3987, 3969, 0, 1, 18199, -89.900, 0.000, -45.400, 0.000, 0.000, -2.900, 0.0, , , , , , 96, , , 0, 0, 0
35.7347763, -118.6147640, 38.900, 14:32:48.812, 14, 0.00, 0.29, 97, -2.300, -2.600, -46.400, 2, 100, 96, 29, 23802, -20784, 5197, 5358, 18, 14, 1530826368.812, 35, 0, 1024, 1024, 1024, 1024, 0, 6, 3977, 3949, 3949, 3946, 3987, 3969, 0, 1, 18299, -89.900, 0.000, -45.400, 0.000, 0.000, -2.900, 0.0, , , , , , 96, , , 0, 0, 0
35.7347763, -118.6147640, 39.200, 14:32:48.912, 14, 0.00, 0.28, 97, -2.700, -2.800, -46.400, 2, 100, 96, 29, 23802, -20784, 5197, 5358, 18, 14, 1530826368.912, 39, 0, 1024, 1024, 1024, 1024, 0, 6, 3977, 3949, 3949, 3946, 3987, 3969, 0, 1, 18399, -89.900, 0.000, -45.500, 0.000, 0.000, -2.900, 0.0, , , , , , 96, , , 0, 0, 0
35.7347764, -118.6147639, 39.500, 14:32:49.012, 14, 0.00, 0.28, 97, -3.100, -3.000, -46.400, 2, 100, 96, 29, 23802, -20784, 5197, 5358, 18, 14, 1530826369.012, 43, 0, 1024, 1024, 1024, 1024, 0, 6, 3977, 3949, 3949, 3946, 3987, 3969, 0, 1, 18499, -89.900, 0.000, -45.500, 0.000, 0.000, -2.900, 0.0, , , , , , 96, , , 0, 0, 0
35.7347764, -118.6147638, 39.800, 14:32:49.112, 14, 0.00, 0.27, 97, -3.500, -3.200, -46.400, 2, 100, 96, 29, 23802, -20784, 5197, 5358, 18, 14, 1530826369.112, 39, 0, 1024, 1024, 1024, 1024, 0, 6, 3977, 3949, 3949, 3946, 3987, 3969, 0, 1, 18599, -89.900, 0.000, -45.500, 0.000, 0.000, -3.000, 0.0, , , , , , 96, , , 0, 0, 0
35.7347765, -118.6147637, 40.100, 14:32:49.212, 14, 0.00, 0.27, 97, -3.700, -3.300, -46.300, 2, 100, 96, 29, 23802, -20784, 5197, 5358, 18, 14, 1530826369.212, 31, 0, 1024, 1024, 1024, 1024, 0, 6, 3977, 3949, 3949, 3946, 3987, 3969, 0, 1, 18699, -89.900, 0.000, -45.500, 0.000, 0.000, -2.900, 0.0, , , , , , 96, , , 0, 0, 0
35.7347765, -118.6147637, 40.300, 14:32:49.312, 14, 0.00, 0.26, 97, -3.500, -3.400, -46.200, 2, 100, 96, 29, 23802, -20784, 5197, 5358, 18, 14, 1530826369.312, 18, 0, 1024, 1024, 1024, 1024, 0, 6, 3977, 3949, 3949, 3946, 3987, 3969, 0, 1, 18799, -89.900, 0.000, -45.500, 0.000, 0.000, -2.800, 0.0, , , , , , 96, , , 0, 0, 0
35.7347765, -118.6147636, 40.600, 14:32:49.412, 14, 0.00, 0.26, 97, -3.100, -3.300, -46.100, 2, 100, 96, 29, 23734, -21634, 5197, 5358, 18, 14, 1530826369.412, 33, 0, 1024, 1024, 1024, 1024, 0, 6, 3966, 3949, 3936, 3945, 3974, 3965, 0, 1, 18899, -90.000, 0.000, -45.500, 0.000, 0.000, -2.800, 0.0, , , , , , 96, , , 0, 0, 0
35.7347765, -118.6147636, 40.900, 14:32:49.512, 14, 0.00, 0.26, 97, -3.000, -3.400, -46.100, 2, 100, 96, 29, 23734, -21634, 5197, 5358, 18, 14, 1530826369.512, 1, 0, 1024, 1024, 1024, 1024, 0, 6, 3966, 3949, 3936, 3945, 3974, 3965, 0, 1, 18999, -90.000, 0.000, -45.500, 0.000, 0.000, -2.800, 0.0, , , , , , 96, , , 0, 0, 0
35.7347765, -118.6147635, 41.200, 14:32:49.620, 14, 0.00, 0.26, 97, -3.100, -3.600, -46.000, 2, 100, 96, 29, 23734, -21634, 5197, 5358, 18, 14, 1530826369.620, 2, 0, 1024, 1024, 1024, 1024, 0, 6, 3966, 3949, 3936, 3945, 3974, 3965, 0, 1, 19107, -90.000, 0.000, -45.500, 0.000, 0.000, -2.800, 0.0, , , , , , 96, , , 0, 0, 0
35.7347765, -118.6147635, 41.200, 14:32:49.712, 14, 0.00, 0.26, 97, -3.100, -3.600, -46.000, 2, 100, 96, 29, 23734, -21634, 5197, 5358, 18, 14, 1530826369.712, 93, 0, 1024, 1024, 1024, 1024, 0, 6, 3966, 3949, 3936, 3945, 3974, 3965, 0, 1, 19199, -90.000, 0.000, -45.500, 0.000, 0.000, -2.800, 0.0, , , , , , 96, , , 0, 0, 0
35.7347765, -118.6147635, 41.400, 14:32:49.811, 14, 0.00, 0.26, 97, -3.000, -3.800, -46.100, 2, 100, 96, 29, 23734, -21634, 5197, 5358, 18, 14, 1530826369.812, 96, 0, 1024, 1024, 1024, 1024, 0, 6, 3966, 3949, 3936, 3945, 3974, 3965, 0, 1, 19299, -90.000, 0.000, -45.500, 0.000, 0.000, -2.900, 0.0, , , , , , 96, , , 0, 0, 0
35.7347765, -118.6147635, 41.800, 14:32:49.911, 14, 0.00, 0.26, 97, -2.600, -3.700, -46.000, 2, 100, 96, 29, 23734, -21634, 5197, 5358, 18, 14, 1530826369.912, 99, 0, 1024, 1024, 1024, 1024, 0, 6, 3966, 3949, 3936, 3945, 3974, 3965, 0, 1, 19399, -89.900, 0.000, -45.500, 0.000, 0.000, -3.000, 0.0, , , , , , 96, , , 0, 0, 0
35.7347765, -118.6147635, 42.100, 14:32:50.012, 14, 0.00, 0.26, 97, -2.500, -3.600, -46.100, 2, 100, 99, 29, 23734, -21634, 5197, 5358, 18, 14, 1530826370.012, 92, 0, 1024, 1024, 1024, 1024, 0, 6, 3966, 3949, 3936, 3945, 3974, 3965, 0, 1, 19499, -89.900, 0.000, -45.500, 0.000, 0.000, -2.900, 0.0, , , , , , 96, , , 0, 0, 0
35.7347765, -118.6147635, 42.300, 14:32:50.111, 14, 0.00, 0.26, 97, -2.500, -3.500, -46.200, 2, 100, 99, 29, 23734, -21634, 5197, 5358, 18, 14, 1530826370.112, 94, 0, 1024, 1024, 1024, 1024, 0, 6, 3966, 3949, 3936, 3945, 3974, 3965, 0, 1, 19599, -89.900, 0.000, -45.500, 0.000, 0.000, -2.900, 0.0, , , , , , 96, , , 0, 0, 0
35.7347765, -118.6147635, 42.600, 14:32:50.212, 14, 0.00, 0.26, 97, -2.500, -3.500, -46.300, 2, 100, 99, 29, 23734, -21634, 5197, 5358, 18, 14, 1530826370.212, 87, 0, 1024, 1024, 1024, 1024, 0, 6, 3966, 3949, 3936, 3945, 3974, 3965, 0, 1, 19699, -89.900, 0.000, -45.500, 0.000, 0.000, -3.000, 0.0, , , , , , 96, , , 0, 0, 0
35.7347765, -118.6147635, 42.900, 14:32:50.312, 14, 0.00, 0.26, 97, -2.500, -3.200, -46.300, 2, 100, 99, 29, 23734, -21634, 5197, 5358, 18, 14, 1530826370.312, 93, 0, 1024, 1024, 1024, 1024, 0, 6, 3966, 3949, 3936, 3945, 3974, 3965, 0, 1, 19799, -89.900, 0.000, -45.500, 0.000, 0.000, -3.000, 0.0, , , , , , 96, , , 0, 0, 0
35.7347765, -118.6147635, 43.200, 14:32:50.411, 14, 0.00, 0.26, 97, -2.700, -3.200, -46.200, 2, 100, 99, 29, 23676, -21895, 5197, 5358, 18, 14, 1530826370.412, 86, 0, 1024, 1024, 1024, 1024, 0, 6, 3963, 3928, 3931, 3926, 3968, 3957, 0, 1, 19899, -89.900, 0.000, -45.500, 0.000, 0.000, -3.000, 0.0, , , , , , 96, , , 0, 0, 0
35.7347765, -118.6147635, 43.500, 14:32:50.511, 14, 0.00, 0.25, 97, -2.700, -3.200, -46.200, 2, 100, 99, 29, 23676, -21895, 5197, 5358, 18, 14, 1530826370.512, 65, 0, 1024, 1024, 1024, 1024, 0, 6, 3963, 3928, 3931, 3926, 3968, 3957, 0, 1, 19999, -89.900, 0.000, -45.500, 0.000, 0.000, -3.000, 0.0, , , , , , 96, , , 0, 0, 0
35.7347766, -118.6147635, 43.800, 14:32:50.611, 14, 0.00, 0.25, 97, -2.700, -3.300, -46.300, 2, 100, 99, 29, 23676, -21895, 5197, 5358, 18, 14, 1530826370.612, 70, 0, 1024, 1024, 1024, 1024, 0, 6, 3963, 3928, 3931, 3926, 3968, 3957, 0, 1, 20099, -89.900, 0.000, -45.500, 0.000, 0.000, -3.000, 0.0, , , , , , 96, , , 0, 0, 0
35.7347766, -118.6147635, 44.100, 14:32:50.712, 14, 0.00, 0.25, 97, -2.900, -3.400, -46.400, 2, 100, 99, 29, 23676, -21895, 5197, 5358, 18, 14, 1530826370.712, 55, 0, 1024, 1024, 1024, 1024, 0, 6, 3963, 3928, 3931, 3926, 3968, 3957, 0, 1, 20199, -90.000, 0.000, -45.500, 0.000, 0.000, -3.000, 0.0, , , , , , 96, , , 0, 0, 0
35.7347766, -118.6147635, 44.400, 14:32:50.811, 14, 0.00, 0.25, 97, -2.900, -3.500, -46.500, 2, 100, 99, 29, 23676, -21895, 5197, 5358, 18, 14, 1530826370.812, 57, 0, 1024, 1024, 1024, 1024, 0, 6, 3963, 3928, 3931, 3926, 3968, 3957, 0, 1, 20299, -89.900, 0.000, -45.500, 0.000, 0.000, -3.100, 0.0, , , , , , 96, , , 0, 0, 0
35.7347766, -118.6147635, 44.700, 14:32:50.911, 14, 0.00, 0.25, 97, -2.800, -3.600, -46.500, 2, 100, 99, 29, 23676, -21895, 5197, 5358, 18, 14, 1530826370.912, 58, 0, 1024, 1024, 1024, 1024, 0, 6, 3963, 3928, 3931, 3926, 3968, 3957, 0, 1, 20399, -89.900, 0.000, -45.500, 0.000, 0.000, -3.000, 0.0, , , , , , 96, , , 0, 0, 0
35.7347766, -118.6147635, 45.000, 14:32:51.011, 14, 0.00, 0.25, 97, -2.700, -3.400, -46.500, 2, 100, 99, 29, 23676, -21895, 5197, 5358, 18, 14, 1530826371.012, 73, 0, 1024, 1024, 1024, 1024, 0, 6, 3963, 3928, 3931, 3926, 3968, 3957, 0, 1, 20499, -89.900, 0.000, -45.500, 0.000, 0.000, -3.000, 0.0, , , , , , 96, , , 0, 0, 0
35.7347767, -118.6147635, 45.700, 14:32:51.111, 14, 0.00, 0.24, 97, -2.900, -3.100, -46.400, 2, 100, 99, 29, 23676, -21895, 5197, 5358, 18, 14, 1530826371.112, 35, 0, 1024, 1024, 1024, 1024, 0, 6, 3963, 3928, 3931, 3926, 3968, 3957, 0, 1, 20599, -89.900, 0.000, -45.500, 0.000, 0.000, -3.100, 0.0, , , , , , 96, , , 0, 0, 0
35.7347768, -118.6147635, 46.000, 14:32:51.211, 14, 0.00, 0.23, 97, -2.800, -3.000, -46.300, 2, 100, 99, 29, 23676, -21895, 5197, 5358, 18, 14, 1530826371.212, 30, 0, 1024, 1024, 1024, 1024, 0, 6, 3963, 3928, 3931, 3926, 3968, 3957, 0, 1, 20699, -89.900, 0.000, -45.500, 0.000, 0.000, -3.000, 0.0, , , , , , 96, , , 0, 0, 0
35.7347768, -118.6147635, 46.300, 14:32:51.311, 14, 0.00, 0.23, 97, -2.900, -3.200, -46.300, 2, 100, 99, 29, 23676, -21895, 5197, 5358, 18, 14, 1530826371.312, 48, 0, 1024, 1024, 1024, 1024, 0, 6, 3963, 3928, 3931, 3926, 3968, 3957, 0, 1, 20799, -89.900, 0.000, -45.500, 0.000, 0.000, -3.000, 0.0, , , , , , 96, , , 0, 0, 0
35.7347768, -118.6147635, 46.600, 14:32:51.411, 14, 0.00, 0.22, 97, -3.400, -3.100, -46.300, 2, 100, 99, 29, 23585, -22617, 5197, 5358, 18, 14, 1530826371.412, 55, 0, 1024, 1024, 1024, 1024, 0, 6, 3945, 3920, 3920, 3925, 3960, 3939, 0, 1, 20899, -89.900, 0.000, -45.500, 0.000, 0.000, -3.000, 0.0, , , , , , 96, , , 0, 0, 0
