Latitude, Longitude, Altitude (m), Time, Sats, Speed (m/s), Range (m), Battery (%), Roll (deg), Pitch (deg), Yaw (deg), Images, HD Signal (%), RC Signal (%), Battery Temp (C), Battery Voltage (mV), Battery Current (mA), Battery Energy (mAh), Battery Capacity (mAh), Battery Discharges, flyState, timestamp (Unix), LastUpdate (ms), radioChannel, Rc_elevator, Rc_aileron, Rc_throttle, Rc_rudder, Rc_gyro, Dronetype, Battery_Cell1 (mV), Battery_Cell2 (mV), Battery_Cell3 (mV), Battery_Cell4 (mV), Battery_Cell5 (mV), Battery_Cell6 (mV), Video, isFlying, elapsedTime (ms), gimbalPitch (deg), gimbalRoll (deg), gimbalYaw (deg), VelocityX (m/s), VelocityY (m/s), VelocityZ (m/s), GroundSmear (cm), App Version, Aircraft Name, Aircraft Firmware, Aircraft Serial Number, Battery Serial Number, Battery Lifetime (%), App_Tip, App_Warning, CurrentFlightStartingIndex, CurrentFlightLastVisitedWaypoint, PreviousFlightEndingWaypointIndex
38.7448366, -120.4088176, 0.000, 14:01:30.248, 8, 0.00, 0.09, 97, -0.600, 0.200, -36.300, 779, 100, 100, 25, 25495, -2937, 5234, 5396, 16, 11, 1528405290.248, 119, 0, 1024, 1024, 1024, 1024, 0, 6, 4151, 4268, 4255, 4279, 4216, 4253, 0, 1, 2969, -90.000, 0.000, -38.800, 0.000, 0.000, -0.100, 0.0, MapPilot_2.8.1_04242018, Dendroctonus I, 1.3.1.00, 041DDC1887, 1058163200505, 96, DJI_0779.jpg, Starting Mission from Lat/Long: 38.74483/-120.40886 Camera: Zenmuse X3 - Overlap: 90/90 - Active Connection: No, 29, 29, 29
38.7448364, -120.4088177, 0.000, 14:01:30.413, 8, 0.00, 0.11, 97, 0.100, -0.400, -35.700, 779, 100, 100, 25, 25393, -2937, 5234, 5396, 16, 11, 1528405290.413, 16, 0, 1024, 1024, 1024, 1024, 0, 6, 4151, 4268, 4255, 4279, 4216, 4253, 0, 1, 3134, -89.900, 0.000, -38.700, 0.000, 0.000, -0.300, 0.0, , , , , , 96, , , 29, 29, 29
38.7448363, -120.4088178, 0.000, 14:01:30.479, 8, 0.00, 0.12, 97, 0.000, -0.300, -35.600, 779, 100, 100, 25, 25393, -2937, 5234, 5396, 16, 11, 1528405290.480, 6, 0, 1024, 1024, 1024, 1024, 0, 6, 4151, 4268, 4255, 4279, 4216, 4253, 0, 1, 3200, -89.900, 0.000, -38.600, 0.000, 0.000, -0.400, 0.0, , , , , , 96, , , 29, 29, 29
38.7448362, -120.4088179, 0.000, 14:01:30.580, 8, 0.00, 0.13, 97, 0.400, -0.400, -35.700, 779, 100, 100, 25, 25393, -2937, 5234, 5396, 16, 11, 1528405290.581, 20, 0, 1024, 1024, 1024, 1024, 0, 6, 4151, 4268, 4255, 4279, 4216, 4253, 0, 1, 3301, -90.000, 0.000, -38.500, 0.000, 0.000, -0.400, 0.0, , , , , , 96, , , 29, 29, 29
38.7448362, -120.4088180, 0.100, 14:01:30.680, 9, 0.00, 0.13, 97, 0.700, -0.200, -35.800, 779, 100, 100, 25, 25393, -2937, 5234, 5396, 16, 11, 1528405290.680, 22, 0, 1024, 1024, 1024, 1024, 0, 6, 4151, 4268, 4255, 4279, 4216, 4253, 0, 1, 3401, -89.900, 0.000, -38.500, 0.000, 0.000, -0.400, 0.0, , , , , , 96, , , 29, 29, 29
38.7448361, -120.4088181, 0.100, 14:01:30.780, 9, 0.00, 0.14, 97, 0.700, 0.000, -36.000, 779, 100, 100, 25, 25393, -4334, 5234, 5396, 16, 11, 1528405290.781, 23, 0, 1024, 1024, 1024, 1024, 0, 6, 4169, 4208, 4188, 4228, 4218, 4175, 0, 1, 3501, -89.900, 0.000, -38.400, 0.000, 0.000, -0.400, 0.0, , , , , , 96, , , 29, 29, 29
38.7448360, -120.4088182, 0.200, 14:01:30.879, 9, 0.00, 0.15, 97, 0.700, 0.100, -36.200, 779, 100, 100, 25, 25393, -4334, 5234, 5396, 16, 11, 1528405290.880, 20, 0, 1024, 1024, 1024, 1024, 0, 6, 4169, 4208, 4188, 4228, 4218, 4175, 0, 1, 3600, -89.900, 0.000, -38.400, 0.000, 0.000, -0.400, 0.0, , , , , , 96, , , 29, 29, 29
38.7448359, -120.4088183, 0.200, 14:01:30.982, 9, 0.00, 0.17, 97, 0.700, 0.000, -36.500, 779, 100, 100, 25, 25393, -4334, 5234, 5396, 16, 11, 1528405290.982, 3, 0, 1024, 1024, 1024, 1024, 0, 6, 4169, 4208, 4188, 4228, 4218, 4175, 0, 1, 3703, -89.900, 0.000, -38.300, 0.000, 0.000, -0.400, 0.0, , , , , , 96, , , 29, 29, 29
38.7448359, -120.4088183, 0.200, 14:01:31.080, 9, 0.00, 0.17, 97, 0.700, 0.000, -36.500, 779, 100, 100, 25, 25393, -4334, 5234, 5396, 16, 11, 1528405291.081, 101, 0, 1024, 1024, 1024, 1024, 0, 6, 4169, 4208, 4188, 4228, 4218, 4175, 0, 1, 3801, -89.900, 0.000, -38.300, 0.000, 0.000, -0.400, 0.0, , , , , , 96, , , 29, 29, 29
38.7448358, -120.4088184, 0.300, 14:01:31.180, 9, 0.00, 0.18, 97, 0.900, 0.100, -36.700, 779, 100, 100, 25, 25393, -4334, 5234, 5396, 16, 11, 1528405291.180, 90, 0, 1024, 1024, 1024, 1024, 0, 6, 4169, 4208, 4188, 4228, 4218, 4175, 0, 1, 3901, -89.900, 0.000, -38.300, 0.000, 0.000, -0.400, 0.0, , , , , , 96, , , 29, 29, 29
38.7448356, -120.4088186, 0.400, 14:01:31.293, 9, 0.00, 0.20, 97, 1.700, -0.100, -36.600, 779, 100, 100, 25, 25393, -4334, 5234, 5396, 16, 11, 1528405291.294, 13, 0, 1024, 1024, 1024, 1024, 0, 6, 4169, 4208, 4188, 4228, 4218, 4175, 0, 1, 4014, -89.900, 0.000, -38.200, 0.000, 0.000, -0.500, 0.0, , , , , , 96, , , 29, 29, 29
38.7448356, -120.4088186, 0.500, 14:01:31.381, 9, 0.00, 0.21, 97, 1.600, -0.100, -36.500, 779, 100, 100, 25, 25393, -4334, 5234, 5396, 16, 11, 1528405291.381, 3, 0, 1024, 1024, 1024, 1024, 0, 6, 4169, 4208, 4188, 4228, 4218, 4175, 0, 1, 4102, -89.900, 0.000, -38.200, 0.000, 0.000, -0.500, 0.0, , , , , , 96, , , 29, 29, 29
38.7448356, -120.4088186, 0.500, 14:01:31.479, 9, 0.00, 0.21, 97, 1.600, -0.100, -36.500, 779, 100, 100, 25, 25393, -4334, 5234, 5396, 16, 11, 1528405291.480, 102, 0, 1024, 1024, 1024, 1024, 0, 6, 4169, 4208, 4188, 4228, 4218, 4175, 0, 1, 4201, -89.900, 0.000, -38.200, 0.000, 0.000, -0.500, 0.0, , , , , , 96, , , 29, 29, 29
38.7448355, -120.4088185, 0.600, 14:01:31.580, 9, 0.00, 0.22, 97, 1.500, -0.100, -36.500, 779, 100, 100, 25, 25393, -4334, 5234, 5396, 16, 11, 1528405291.581, 75, 0, 1024, 1024, 1024, 1024, 0, 6, 4169, 4208, 4188, 4228, 4218, 4175, 0, 1, 4301, -89.900, 0.000, -38.100, 0.000, 0.000, -0.500, 0.0, , , , , , 96, , , 29, 29, 29
38.7448354, -120.4088186, 0.600, 14:01:31.680, 9, 0.00, 0.22, 97, 1.200, -0.200, -36.500, 779, 100, 100, 25, 25393, -4334, 5234, 5396, 16, 11, 1528405291.680, 65, 0, 1024, 1024, 1024, 1024, 0, 6, 4169, 4208, 4188, 4228, 4218, 4175, 0, 1, 4401, -89.900, 0.000, -38.100, 0.000, 0.000, -0.400, 0.0, , , , , , 96, , , 29, 29, 29
38.7448354, -120.4088186, 0.700, 14:01:31.780, 9, 0.00, 0.23, 97, 0.900, -0.200, -36.400, 779, 100, 100, 25, 24155, -15567, 5234, 5396, 16, 11, 1528405291.781, 66, 0, 1024, 1024, 1024, 1024, 0, 6, 3998, 3995, 4000, 4034, 4031, 4006, 0, 1, 4501, -89.900, 0.000, -38.000, 0.000, 0.000, -0.400, 0.0, , , , , , 96, , , 29, 29, 29
38.7448354, -120.4088186, 0.700, 14:01:31.880, 8, 0.00, 0.23, 97, 1.000, -0.200, -36.400, 779, 100, 100, 25, 24155, -15567, 5234, 5396, 16, 11, 1528405291.881, 70, 0, 1024, 1024, 1024, 1024, 0, 6, 3998, 3995, 4000, 4034, 4031, 4006, 0, 1, 4601, -89.900, 0.000, -38.000, 0.000, 0.000, -0.500, 0.0, , , , , , 96, , , 29, 29, 29
38.7448353, -120.4088184, 0.800, 14:01:31.979, 8, 0.00, 0.23, 97, 1.000, -0.100, -36.300, 779, 100, 100, 25, 24155, -15567, 5234, 5396, 16, 11, 1528405291.980, 80, 0, 1024, 1024, 1024, 1024, 0, 6, 3998, 3995, 4000, 4034, 4031, 4006, 0, 1, 4700, -89.900, 0.000, -38.000, 0.000, 0.000, -0.400, 0.0, , , , , , 96, , , 29, 29, 29
38.7448353, -120.4088184, 0.800, 14:01:32.080, 8, 0.00, 0.23, 97, 0.900, -0.200, -36.200, 779, 100, 100, 25, 24155, -15567, 5234, 5396, 16, 11, 1528405292.081, 72, 0, 1024, 1024, 1024, 1024, 0, 6, 3998, 3995, 4000, 4034, 4031, 4006, 0, 1, 4801, -89.900, 0.000, -37.900, 0.000, 0.000, -0.500, 0.0, , , , , , 96, , , 29, 29, 29
38.7448353, -120.4088185, 0.900, 14:01:32.180, 8, 0.00, 0.24, 97, 0.800, -0.200, -36.200, 779, 100, 100, 25, 24155, -15567, 5234, 5396, 16, 6, 1528405292.180, 37, 0, 1024, 1024, 1024, 1024, 0, 6, 3998, 3995, 4000, 4034, 4031, 4006, 0, 1, 4901, -89.900, 0.000, -37.900, 0.000, 0.000, -0.500, 0.0, , , , , , 96, , , 29, 29, 29
38.7448353, -120.4088185, 0.900, 14:01:32.280, 7, 0.00, 0.24, 97, 0.800, -0.300, -36.200, 779, 100, 100, 25, 24155, -15567, 5234, 5396, 16, 14, 1528405292.280, 56, 0, 1024, 1024, 1024, 1024, 0, 6, 3998, 3995, 4000, 4034, 4031, 4006, 0, 1, 5001, -89.900, 0.000, -37.900, 0.000, 0.000, -0.400, 0.0, , , , , , 96, , , 29, 29, 29
38.7448353, -120.4088184, 0.900, 14:01:32.380, 7, 0.00, 0.24, 97, 0.200, 0.000, -36.200, 779, 100, 100, 25, 24155, -15567, 5234, 5396, 16, 14, 1528405292.381, 59, 0, 1024, 1024, 1024, 1024, 0, 6, 3998, 3995, 4000, 4034, 4031, 4006, 0, 1, 5101, -89.900, 0.000, -37.800, 0.000, 0.000, -0.300, 0.0, , , , , , 96, , , 29, 29, 29
38.7448353, -120.4088183, 1.000, 14:01:32.479, 8, 0.00, 0.23, 97, -0.300, 0.000, -36.200, 779, 100, 100, 25, 24155, -15567, 5234, 5396, 16, 14, 1528405292.480, 52, 0, 1024, 1024, 1024, 1024, 0, 6, 3998, 3995, 4000, 4034, 4031, 4006, 0, 1, 5201, -89.900, 0.000, -37.800, 0.000, 0.000, -0.200, 0.0, , , , , , 96, , , 29, 29, 29
38.7448353, -120.4088181, 1.000, 14:01:32.580, 8, 0.00, 0.23, 97, -0.700, 0.000, -36.100, 779, 100, 100, 25, 24155, -15567, 5234, 5396, 16, 14, 1528405292.581, 59, 0, 1024, 1024, 1024, 1024, 0, 6, 3998, 3995, 4000, 4034, 4031, 4006, 0, 1, 5301, -89.900, 0.000, -37.800, 0.000, 0.000, -0.300, 0.0, , , , , , 96, , , 29, 29, 29
38.7448353, -120.4088181, 1.000, 14:01:32.680, 9, 0.00, 0.23, 97, -1.000, -0.100, -36.100, 779, 100, 100, 25, 24155, -15567, 5234, 5396, 16, 14, 1528405292.681, 44, 0, 1024, 1024, 1024, 1024, 0, 6, 3998, 3995, 4000, 4034, 4031, 4006, 0, 1, 5401, -90.000, 0.000, -37.800, 0.000, 0.000, -0.300, 0.0, , , , , , 96, , , 29, 29, 29
38.7448353, -120.4088181, 1.100, 14:01:32.780, 9, 0.00, 0.23, 97, -0.900, -0.200, -36.100, 779, 100, 100, 25, 23913, -16422, 5234, 5396, 16, 14, 1528405292.781, 30, 0, 1024, 1024, 1024, 1024, 0, 6, 3998, 3995, 4000, 4034, 4031, 4006, 0, 1, 5501, -90.000, 0.000, -37.700, 0.000, 0.000, -0.500, 0.0, , , , , , 96, , , 29, 29, 29
38.7448352, -120.4088181, 1.200, 14:01:32.880, 8, 0.00, 0.24, 97, -0.500, -0.300, -36.000, 779, 100, 100, 25, 23913, -16422, 5234, 5396, 16, 14, 1528405292.881, 22, 0, 1024, 1024, 1024, 1024, 0, 6, 3964, 3968, 3966, 4011, 4007, 3970, 0, 1, 5601, -90.000, 0.000, -37.700, 0.000, 0.000, -0.600, 0.0, , , , , , 96, , , 29, 29, 29
38.7448351, -120.4088182, 1.200, 14:01:32.979, 8, 0.00, 0.26, 97, 0.100, -0.400, -35.900, 779, 100, 100, 25, 23913, -16422, 5234, 5396, 16, 14, 1528405292.980, 25, 0, 1024, 1024, 1024, 1024, 0, 6, 3964, 3968, 3966, 4011, 4007, 3970, 0, 1, 5700, -89.900, 0.000, -37.700, 0.000, 0.000, -0.800, 0.0, , , , , , 96, , , 29, 29, 29
38.7448350, -120.4088183, 1.300, 14:01:33.080, 9, 0.00, 0.27, 97, 0.600, -0.400, -35.800, 779, 100, 100, 25, 23913, -16422, 5234, 5396, 16, 14, 1528405293.081, 25, 0, 1024, 1024, 1024, 1024, 0, 6, 3964, 3968, 3966, 4011, 4007, 3970, 0, 1, 5801, -89.900, 0.000, -37.700, 0.000, 0.000, -1.000, 0.0, , , , , , 96, , , 29, 29, 29
38.7448349, -120.4088184, 1.500, 14:01:33.180, 9, 0.00, 0.27, 97, 0.800, -0.300, -35.700, 779, 100, 100, 25, 23913, -16422, 5234, 5396, 16, 14, 1528405293.180, 19, 0, 1024, 1024, 1024, 1024, 0, 6, 3964, 3968, 3966, 4011, 4007, 3970, 0, 1, 5901, -89.900, 0.000, -37.600, 0.000, 0.000, -1.200, 0.0, , , , , , 96, , , 29, 29, 29
38.7448350, -120.4088185, 1.600, 14:01:33.282, 8, 0.00, 0.26, 97, 0.700, -0.200, -35.700, 779, 100, 100, 25, 23913, -16422, 5234, 5396, 16, 14, 1528405293.284, 7, 0, 1024, 1024, 1024, 1024, 0, 6, 3964, 3968, 3966, 4011, 4007, 3970, 0, 1, 6005, -89.900, 0.000, -37.600, 0.000, 0.000, -1.500, 0.0, , , , , , 96, , , 29, 29, 29
38.7448352, -120.4088184, 1.700, 14:01:33.380, 8, 0.00, 0.25, 97, 0.300, 0.000, -35.700, 779, 100, 100, 25, 23913, -16422, 5234, 5396, 16, 14, 1528405293.381, 15, 0, 1024, 1024, 1024, 1024, 0, 6, 3964, 3968, 3966, 4011, 4007, 3970, 0, 1, 6101, -89.900, 0.000, -37.600, 0.000, 0.000, -1.600, 0.0, , , , , , 96, , , 29, 29, 29
38.7448354, -120.4088184, 1.900, 14:01:33.479, 9, 0.00, 0.22, 97, -0.100, 0.000, -35.700, 779, 100, 100, 25, 23913, -16422, 5234, 5396, 16, 14, 1528405293.480, 15, 0, 1024, 1024, 1024, 1024, 0, 6, 3964, 3968, 3966, 4011, 4007, 3970, 0, 1, 6200, -89.900, 0.000, -37.600, 0.000, 0.000, -1.800, 0.0, , , , , , 96, , , 29, 29, 29
38.7448357, -120.4088183, 2.100, 14:01:33.580, 9, 0.00, 0.19, 97, -0.500, 0.300, -35.700, 779, 100, 100, 25, 23913, -16422, 5234, 5396, 16, 14, 1528405293.581, 22, 0, 1024, 1024, 1024, 1024, 0, 6, 3964, 3968, 3966, 4011, 4007, 3970, 0, 1, 6301, -89.900, 0.000, -37.500, 0.000, 0.000, -2.100, 0.0, , , , , , 96, , , 29, 29, 29
38.7448358, -120.4088183, 2.600, 14:01:33.684, 9, 0.00, 0.17, 97, -0.400, 0.900, -36.100, 779, 100, 100, 25, 23913, -16422, 5234, 5396, 16, 14, 1528405293.684, 6, 0, 1024, 1024, 1024, 1024, 0, 6, 3964, 3968, 3966, 4011, 4007, 3970, 0, 1, 6405, -89.900, 0.000, -37.500, 0.000, 0.000, -2.500, 0.0, , , , , , 96, , , 29, 29, 29
38.7448358, -120.4088183, 2.600, 14:01:33.782, 9, 0.00, 0.17, 97, -0.400, 0.900, -36.100, 779, 100, 100, 25, 23823, -17124, 5234, 5396, 16, 14, 1528405293.782, 104, 0, 1024, 1024, 1024, 1024, 0, 6, 3964, 3968, 3966, 4011, 4007, 3970, 0, 1, 6503, -89.900, 0.000, -37.500, 0.000, 0.000, -2.500, 0.0, , , , , , 96, , , 29, 29, 29
38.7448358, -120.4088182, 2.900, 14:01:33.880, 9, 0.00, 0.17, 97, 0.000, 0.900, -36.400, 779, 100, 99, 25, 23823, -17124, 5234, 5396, 16, 14, 1528405293.881, 93, 0, 1024, 1024, 1024, 1024, 0, 6, 3975, 3955, 3907, 3964, 3963, 3935, 0, 1, 6601, -89.900, 0.000, -37.500, 0.000, 0.000, -2.800, 0.0, , , , , , 96, , , 29, 29, 29
38.7448358, -120.4088182, 2.900, 14:01:33.980, 9, 0.00, 0.17, 97, 0.000, 0.900, -36.400, 779, 100, 99, 25, 23823, -17124, 5234, 5396, 16, 14, 1528405293.980, 193, 0, 1024, 1024, 1024, 1024, 0, 6, 3975, 3955, 3907, 3964, 3963, 3935, 0, 1, 6701, -89.900, 0.000, -37.500, 0.000, 0.000, -2.800, 0.0, , , , , , 96, , , 29, 29, 29
38.7448357, -120.4088177, 3.500, 14:01:34.080, 10, 0.00, 0.19, 97, 0.100, 0.000, -36.800, 779, 100, 99, 25, 23823, -17124, 5234, 5396, 16, 14, 1528405294.081, 91, 0, 1024, 1024, 1024, 1024, 0, 6, 3975, 3955, 3907, 3964, 3963, 3935, 0, 1, 6801, -90.000, 0.000, -37.500, 0.000, 0.000, -3.100, 0.0, , , , , , 96, , , 29, 29, 29
38.7448355, -120.4088177, 3.800, 14:01:34.180, 10, 0.00, 0.20, 97, 0.200, -0.400, -36.900, 779, 100, 99, 25, 23823, -17124, 5234, 5396, 16, 14, 1528405294.180, 92, 0, 1024, 1024, 1024, 1024, 0, 6, 3975, 3955, 3907, 3964, 3963, 3935, 0, 1, 6901, -90.000, 0.000, -37.400, 0.000, 0.000, -3.100, 0.0, , , , , , 96, , , 29, 29, 29
38.7448355, -120.4088174, 4.200, 14:01:34.280, 10, 0.00, 0.21, 97, 0.400, -0.600, -36.800, 779, 100, 99, 25, 23823, -17124, 5234, 5396, 16, 14, 1528405294.281, 24, 0, 1024, 1024, 1024, 1024, 0, 6, 3975, 3955, 3907, 3964, 3963, 3935, 0, 1, 7001, -90.000, 0.000, -37.400, 0.000, 0.000, -3.200, 0.0, , , , , , 96, , , 29, 29, 29
38.7448354, -120.4088171, 4.500, 14:01:34.380, 10, 0.00, 0.22, 97, 0.200, -0.700, -36.600, 779, 100, 92, 25, 23823, -17124, 5234, 5396, 16, 14, 1528405294.381, 53, 0, 1024, 1024, 1024, 1024, 0, 6, 3975, 3955, 3907, 3964, 3963, 3935, 0, 1, 7101, -90.000, 0.000, -37.400, 0.000, 0.000, -3.200, 0.0, , , , , , 96, , , 29, 29, 29
38.7448353, -120.4088169, 4.800, 14:01:34.479, 10, 0.00, 0.24, 97, 0.000, -0.700, -36.400, 779, 100, 92, 25, 23823, -17124, 5234, 5396, 16, 14, 1528405294.480, 68, 0, 1024, 1024, 1024, 1024, 0, 6, 3975, 3955, 3907, 3964, 3963, 3935, 0, 1, 7200, -90.000, 0.000, -37.400, 0.000, 0.000, -3.200, 0.0, , , , , , 96, , , 29, 29, 29
38.7448351, -120.4088166, 5.200, 14:01:34.579, 10, 0.00, 0.27, 97, -0.100, -1.000, -36.300, 779, 100, 92, 25, 23823, -17124, 5234, 5396, 16, 14, 1528405294.580, 56, 0, 1024, 1024, 1024, 1024, 0, 6, 3975, 3955, 3907, 3964, 3963, 3935, 0, 1, 7301, -90.000, 0.000, -37.400, 0.000, 0.000, -3.200, 0.0, , , , , , 96, , , 29, 29, 29
38.7448350, -120.4088165, 5.500, 14:01:34.680, 11, 0.00, 0.29, 97, -0.200, -1.400, -36.100, 779, 100, 92, 25, 23823, -17124, 5234, 5396, 16, 14, 1528405294.681, 51, 0, 1024, 1024, 1024, 1024, 0, 6, 3975, 3955, 3907, 3964, 3963, 3935, 0, 1, 7401, -89.900, 0.000, -37.400, 0.000, 0.000, -3.300, 0.0, , , , , , 96, , , 29, 29, 29
38.7448349, -120.4088163, 5.900, 14:01:34.780, 11, 0.00, 0.31, 97, -0.500, -1.800, -36.100, 779, 100, 92, 25, 23157, -23921, 5234, 5396, 16, 14, 1528405294.781, 51, 0, 1024, 1024, 1024, 1024, 0, 6, 3975, 3955, 3907, 3964, 3963, 3935, 0, 1, 7501, -89.900, 0.000, -37.400, 0.000, 0.000, -3.200, 0.0, , , , , , 96, , , 29, 29, 29
38.7448348, -120.4088162, 6.200, 14:01:34.880, 11, 0.00, 0.32, 97, -0.800, -1.800, -36.000, 779, 100, 92, 25, 23157, -23921, 5234, 5396, 16, 14, 1528405294.881, 53, 0, 1024, 1024, 1024, 1024, 0, 6, 3975, 3955, 3907, 3964, 3963, 3935, 0, 1, 7601, -89.900, 0.000, -37.300, 0.000, 0.000, -3.200, 0.0, , , , , , 96, , , 29, 29, 29
38.7448347, -120.4088160, 6.500, 14:01:34.979, 11, 0.00, 0.33, 97, -0.800, -1.900, -36.100, 779, 100, 92, 25, 23157, -23921, 5234, 5396, 16, 14, 1528405294.980, 55, 0, 1024, 1024, 1024, 1024, 0, 6, 3975, 3955, 3907, 3964, 3963, 3935, 0, 1, 7701, -89.900, 0.000, -37.300, 0.000, 0.000, -3.200, 0.0, , , , , , 96, , , 29, 29, 29
38.7448347, -120.4088160, 6.900, 14:01:35.080, 11, 0.00, 0.34, 97, -0.600, -2.000, -36.200, 779, 100, 92, 25, 23157, -23921, 5234, 5396, 16, 14, 1528405295.081, 58, 0, 1024, 1024, 1024, 1024, 0, 6, 3975, 3955, 3907, 3964, 3963, 3935, 0, 1, 7801, -89.900, 0.000, -37.300, 0.000, 0.000, -3.100, 0.0, , , , , , 96, , , 29, 29, 29
38.7448346, -120.4088161, 7.200, 14:01:35.180, 11, 0.00, 0.34, 97, -0.300, -1.800, -36.300, 779, 100, 92, 25, 23157, -23921, 5234, 5396, 16, 14, 1528405295.180, 56, 0, 1024, 1024, 1024, 1024, 0, 6, 3975, 3955, 3907, 3964, 3963, 3935, 0, 1, 7901, -89.900, 0.000, -37.300, 0.000, 0.000, -3.100, 0.0, , , , , , 96, , , 29, 29, 29
38.7448345, -120.4088161, 7.500, 14:01:35.280, 11, 0.00, 0.35, 97, -0.300, -1.400, -36.400, 779, 100, 92, 25, 23157, -23921, 5234, 5396, 16, 14, 1528405295.281, 23, 0, 1024, 1024, 1024, 1024, 0, 6, 3975, 3955, 3907, 3964, 3963, 3935, 0, 1, 8001, -89.900, 0.000, -37.300, 0.000, 0.000, -3.100, 0.0, , , , , , 96, , , 29, 29, 29
38.7448343, -120.4088161, 7.800, 14:01:35.380, 11, 0.00, 0.37, 97, -0.100, -1.300, -36.400, 779, 100, 94, 25, 23157, -23921, 5234, 5396, 16, 14, 1528405295.381, 38, 0, 1024, 1024, 1024, 1024, 0, 6, 3835, 3823, 3832, 3873, 3893, 3831, 0, 1, 8101, -89.900, 0.000, -37.300, 0.000, 0.000, -3.100, 0.0, , , , , , 96, , , 29, 29, 29
38.7448342, -120.4088162, 8.200, 14:01:35.479, 10, 0.10, 0.38, 97, 0.100, -1.400, -36.400, 779, 100, 94, 25, 23157, -23921, 5234, 5396, 16, 14, 1528405295.480, 26, 0, 1024, 1024, 1024, 1024, 0, 6, 3835, 3823, 3832, 3873, 3893, 3831, 0, 1, 8201, -89.900, 0.000, -37.300, 0.000, -0.100, -3.000, 0.0, , , , , , 96, , , 29, 29, 29
38.7448341, -120.4088164, 8.500, 14:01:35.580, 10, 0.10, 0.38, 97, 0.500, -1.300, -36.300, 779, 100, 94, 25, 23157, -23921, 5234, 5396, 16, 14, 1528405295.581, 39, 0, 1024, 1024, 1024, 1024, 0, 6, 3835, 3823, 3832, 3873, 3893, 3831, 0, 1, 8301, -89.900, 0.000, -37.300, 0.000, -0.100, -3.000, 0.0, , , , , , 96, , , 29, 29, 29
38.7448341, -120.4088166, 8.800, 14:01:35.680, 11, 0.10, 0.38, 97, 0.900, -1.100, -36.200, 779, 100, 94, 25, 23157, -23921, 5234, 5396, 16, 14, 1528405295.680, 43, 0, 1024, 1024, 1024, 1024, 0, 6, 3835, 3823, 3832, 3873, 3893, 3831, 0, 1, 8401, -89.900, 0.000, -37.200, 0.000, -0.100, -3.000, 0.0, , , , , , 96, , , 29, 29, 29
38.7448341, -120.4088169, 9.100, 14:01:35.780, 11, 0.10, 0.37, 97, 1.200, -0.900, -36.200, 779, 100, 94, 25, 23157, -23921, 5234, 5396, 16, 14, 1528405295.783, 52, 0, 1024, 1024, 1024, 1024, 0, 6, 3835, 3823, 3832, 3873, 3893, 3831, 0, 1, 8504, -89.900, 0.000, -37.200, 0.000, -0.100, -3.000, 0.0, , , , , , 96, , , 29, 29, 29
38.7448343, -120.4088172, 9.400, 14:01:35.880, 11, 0.10, 0.34, 97, 1.200, -0.600, -36.200, 779, 100, 100, 25, 23157, -23921, 5234, 5396, 16, 14, 1528405295.881, 32, 0, 1024, 1024, 1024, 1024, 0, 6, 3835, 3823, 3832, 3873, 3893, 3831, 0, 1, 8601, -89.900, 0.000, -37.200, 0.000, -0.100, -3.000, 0.0, , , , , , 96, , , 29, 29, 29
38.7448346, -120.4088176, 9.700, 14:01:35.980, 11, 0.14, 0.30, 97, 1.000, 0.200, -36.200, 779, 100, 100, 25, 23157, -23921, 5234, 5396, 16, 14, 1528405295.980, 36, 0, 1024, 1024, 1024, 1024, 0, 6, 3835, 3823, 3832, 3873, 3893, 3831, 0, 1, 8701, -89.900, 0.000, -37.200, 0.100, -0.100, -3.000, 0.0, , , , , , 96, , , 29, 29, 29
38.7448348, -120.4088179, 10.100, 14:01:36.082, 11, 0.14, 0.28, 97, 0.600, 1.200, -36.200, 779, 100, 100, 25, 23157, -23921, 5234, 5396, 16, 14, 1528405296.083, 6, 0, 1024, 1024, 1024, 1024, 0, 6, 3835, 3823, 3832, 3873, 3893, 3831, 0, 1, 8803, -89.900, 0.000, -37.200, 0.100, -0.100, -3.000, 0.0, , , , , , 96, , , 29, 29, 29
38.7448349, -120.4088182, 10.400, 14:01:36.187, 11, 0.14, 0.28, 97, 0.400, 1.900, -36.200, 779, 100, 100, 25, 23157, -23921, 5234, 5396, 16, 14, 1528405296.187, 9, 0, 1024, 1024, 1024, 1024, 0, 6, 3835, 3823, 3832, 3873, 3893, 3831, 0, 1, 8908, -89.900, 0.000, -37.200, 0.100, -0.100, -3.000, 0.0, , , , , , 96, , , 29, 29, 29
38.7448350, -120.4088184, 10.700, 14:01:36.287, 11, 0.14, 0.26, 97, 0.500, 2.000, -36.200, 779, 100, 100, 25, 23157, -23921, 5234, 5396, 16, 14, 1528405296.288, 7, 0, 1024, 1024, 1024, 1024, 0, 6, 3835, 3823, 3832, 3873, 3893, 3831, 0, 1, 9009, -89.900, 0.000, -37.200, 0.100, -0.100, -3.000, 0.0, , , , , , 96, , , 29, 29, 29
38.7448352, -120.4088186, 11.000, 14:01:36.380, 11, 0.14, 0.25, 97, 0.600, 2.000, -36.300, 779, 100, 100, 25, 23423, -19249, 5234, 5396, 16, 14, 1528405296.381, 17, 0, 1024, 1024, 1024, 1024, 0, 6, 3886, 3890, 3885, 3951, 3936, 3898, 0, 1, 9101, -89.900, 0.000, -37.200, 0.100, -0.100, -3.000, 0.0, , , , , , 96, , , 29, 29, 29
38.7448353, -120.4088189, 11.300, 14:01:36.485, 11, 0.10, 0.25, 97, 0.400, 2.200, -36.300, 779, 100, 100, 25, 23423, -19249, 5234, 5396, 16, 14, 1528405296.486, 5, 0, 1024, 1024, 1024, 1024, 0, 6, 3886, 3890, 3885, 3951, 3936, 3898, 0, 1, 9206, -89.900, 0.000, -37.200, 0.100, 0.000, -3.000, 0.0, , , , , , 96, , , 29, 29, 29
38.7448353, -120.4088191, 11.600, 14:01:36.584, 11, 0.00, 0.25, 97, 0.300, 2.100, -36.300, 779, 100, 100, 25, 23423, -19249, 5234, 5396, 16, 14, 1528405296.587, 8, 0, 1024, 1024, 1024, 1024, 0, 6, 3886, 3890, 3885, 3951, 3936, 3898, 0, 1, 9307, -89.900, 0.000, -37.200, 0.000, 0.000, -3.000, 0.0, , , , , , 96, , , 29, 29, 29
38.7448353, -120.4088192, 11.900, 14:01:36.681, 11, 0.00, 0.26, 97, 0.300, 1.800, -36.200, 779, 100, 100, 25, 23423, -19249, 5234, 5396, 16, 14, 1528405296.682, 5, 0, 1024, 1024, 1024, 1024, 0, 6, 3886, 3890, 3885, 3951, 3936, 3898, 0, 1, 9402, -89.900, 0.000, -37.200, 0.000, 0.000, -2.900, 0.0, , , , , , 96, , , 29, 29, 29
38.7448353, -120.4088193, 12.200, 14:01:36.780, 11, 0.00, 0.26, 97, 0.500, 1.300, -36.200, 779, 100, 100, 25, 23423, -19249, 5234, 5396, 16, 14, 1528405296.782, 96, 0, 1024, 1024, 1024, 1024, 0, 6, 3886, 3890, 3885, 3951, 3936, 3898, 0, 1, 9502, -89.900, 0.000, -37.200, 0.000, 0.000, -2.900, 0.0, , , , , , 96, , , 29, 29, 29
38.7448354, -120.4088197, 12.900, 14:01:36.882, 11, 0.00, 0.27, 97, 0.500, 1.200, -36.200, 779, 100, 100, 25, 23423, -19249, 5234, 5396, 16, 14, 1528405296.882, 5, 0, 1024, 1024, 1024, 1024, 0, 6, 3886, 3890, 3885, 3951, 3936, 3898, 0, 1, 9603, -89.900, 0.000, -37.200, 0.000, 0.000, -3.000, 0.0, , , , , , 96, , , 29, 29, 29
38.7448354, -120.4088197, 12.900, 14:01:36.980, 11, 0.00, 0.27, 97, 0.500, 1.200, -36.200, 779, 100, 100, 25, 23423, -19249, 5234, 5396, 16, 14, 1528405296.981, 104, 0, 1024, 1024, 1024, 1024, 0, 6, 3886, 3890, 3885, 3951, 3936, 3898, 0, 1, 9701, -89.900, 0.000, -37.200, 0.000, 0.000, -3.000, 0.0, , , , , , 96, , , 29, 29, 29
38.7448354, -120.4088198, 13.200, 14:01:37.080, 11, 0.00, 0.27, 97, 0.500, 1.400, -36.200, 779, 100, 100, 25, 23423, -19249, 5234, 5396, 16, 14, 1528405297.081, 79, 0, 1024, 1024, 1024, 1024, 0, 6, 3886, 3890, 3885, 3951, 3936, 3898, 0, 1, 9801, -89.900, 0.000, -37.200, 0.000, 0.000, -3.000, 0.0, , , , , , 96, , , 29, 29, 29
38.7448354, -120.4088198, 13.500, 14:01:37.180, 11, 0.00, 0.27, 97, 0.500, 1.300, -36.100, 779, 100, 100, 25, 23423, -19249, 5234, 5396, 16, 14, 1528405297.180, 61, 0, 1024, 1024, 1024, 1024, 0, 6, 3886, 3890, 3885, 3951, 3936, 3898, 0, 1, 9901, -89.900, 0.000, -37.200, 0.000, 0.000, -2.900, 0.0, , , , , , 96, , , 29, 29, 29
38.7448354, -120.4088199, 13.800, 14:01:37.280, 11, 0.00, 0.28, 97, 0.600, 1.000, -36.100, 779, 100, 100, 25, 23423, -19249, 5234, 5396, 16, 14, 1528405297.281, 67, 0, 1024, 1024, 1024, 1024, 0, 6, 3886, 3890, 3885, 3951, 3936, 3898, 0, 1, 10001, -89.900, 0.000, -37.200, 0.000, 0.000, -2.900, 0.0, , , , , , 96, , , 29, 29, 29
38.7448355, -120.4088200, 14.100, 14:01:37.380, 11, 0.00, 0.28, 97, 0.700, 0.700, -36.100, 779, 100, 100, 25, 23416, -18980, 5234, 5396, 16, 14, 1528405297.381, 88, 0, 1024, 1024, 1024, 1024, 0, 6, 3888, 3886, 3884, 3940, 3934, 3898, 0, 1, 10101, -89.900, 0.000, -37.200, 0.000, 0.000, -2.900, 0.0, , , , , , 96, , , 29, 29, 29
38.7448355, -120.4088201, 14.400, 14:01:37.480, 11, 0.00, 0.28, 97, 0.600, 0.600, -36.100, 779, 100, 100, 25, 23416, -18980, 5234, 5396, 16, 14, 1528405297.480, 57, 0, 1024, 1024, 1024, 1024, 0, 6, 3888, 3886, 3884, 3940, 3934, 3898, 0, 1, 10200, -89.900, 0.000, -37.200, 0.000, 0.000, -2.900, 0.0, , , , , , 96, , , 29, 29, 29
38.7448354, -120.4088201, 14.700, 14:01:37.580, 11, 0.00, 0.29, 97, 0.600, 0.500, -36.100, 779, 100, 100, 25, 23416, -18980, 5234, 5396, 16, 14, 1528405297.581, 37, 0, 1024, 1024, 1024, 1024, 0, 6, 3888, 3886, 3884, 3940, 3934, 3898, 0, 1, 10301, -89.900, 0.000, -37.200, 0.000, 0.000, -2.900, 0.0, , , , , , 96, , , 29, 29, 29
38.7448354, -120.4088201, 15.000, 14:01:37.680, 11, 0.00, 0.29, 97, 0.400, 0.400, -36.100, 779, 100, 100, 25, 23416, -18980, 5234, 5396, 16, 14, 1528405297.680, 60, 0, 1024, 1024, 1024, 1024, 0, 6, 3888, 3886, 3884, 3940, 3934, 3898, 0, 1, 10401, -89.900, 0.000, -37.200, 0.000, 0.000, -2.900, 0.0, , , , , , 96, , , 29, 29, 29
38.7448354, -120.4088201, 15.300, 14:01:37.780, 11, 0.00, 0.29, 97, 0.300, 0.300, -36.100, 779, 100, 100, 25, 23416, -18980, 5234, 5396, 16, 14, 1528405297.781, 51, 0, 1024, 1024, 1024, 1024, 0, 6, 3888, 3886, 3884, 3940, 3934, 3898, 0, 1, 10501, -90.000, 0.000, -37.200, 0.000, 0.000, -2.900, 0.0, , , , , , 96, , , 29, 29, 29
38.7448354, -120.4088201, 15.600, 14:01:37.880, 11, 0.00, 0.29, 97, 0.000, 0.200, -36.100, 779, 100, 99, 25, 23416, -18980, 5234, 5396, 16, 14, 1528405297.881, 39, 0, 1024, 1024, 1024, 1024, 0, 6, 3888, 3886, 3884, 3940, 3934, 3898, 0, 1, 10601, -89.900, 0.000, -37.200, 0.000, 0.000, -2.900, 0.0, , , , , , 96, , , 29, 29, 29
38.7448353, -120.4088201, 15.900, 14:01:37.980, 11, 0.00, 0.30, 97, 0.000, 0.200, -36.100, 779, 100, 99, 25, 23416, -18980, 5234, 5396, 16, 14, 1528405297.980, 57, 0, 1024, 1024, 1024, 1024, 0, 6, 3888, 3886, 3884, 3940, 3934, 3898, 0, 1, 10700, -89.900, 0.000, -37.200, 0.000, 0.000, -2.900, 0.0, , , , , , 96, , , 29, 29, 29
38.7448354, -120.4088201, 16.200, 14:01:38.080, 11, 0.00, 0.30, 97, 0.100, 0.500, -36.200, 779, 100, 99, 25, 23416, -18980, 5234, 5396, 16, 14, 1528405298.080, 58, 0, 1024, 1024, 1024, 1024, 0, 6, 3888, 3886, 3884, 3940, 3934, 3898, 0, 1, 10801, -89.900, 0.000, -37.200, 0.000, 0.000, -2.900, 0.0, , , , , , 96, , , 29, 29, 29
38.7448354, -120.4088201, 16.500, 14:01:38.180, 11, 0.00, 0.29, 97, 0.300, 0.800, -36.200, 779, 100, 99, 25, 23416, -18980, 5234, 5396, 16, 14, 1528405298.180, 33, 0, 1024, 1024, 1024, 1024, 0, 6, 3888, 3886, 3884, 3940, 3934, 3898, 0, 1, 10901, -89.900, 0.000, -37.200, 0.000, 0.000, -2.900, 0.0, , , , , , 96, , , 29, 29, 29
38.7448354, -120.4088201, 16.800, 14:01:38.280, 11, 0.00, 0.29, 97, 0.400, 1.000, -36.300, 779, 100, 99, 25, 23393, -19126, 5180, 5396, 16, 14, 1528405298.281, 16, 0, 1024, 1024, 1024, 1024, 0, 6, 3888, 3886, 3884, 3940, 3934, 3898, 0, 1, 11002, -89.900, 0.000, -37.200, 0.000, 0.000, -2.900, 0.0, , , , , , 96, , , 29, 29, 29
38.7448354, -120.4088200, 17.100, 14:01:38.380, 11, 0.00, 0.29, 97, 0.300, 1.000, -36.300, 779, 100, 94, 25, 23393, -19126, 5180, 5396, 16, 14, 1528405298.381, 29, 0, 1024, 1024, 1024, 1024, 0, 6, 3882, 3884, 3883, 3930, 3926, 3889, 0, 1, 11101, -89.900, 0.000, -37.200, 0.000, 0.000, -2.900, 0.0, , , , , , 96, , , 29, 29, 29
38.7448353, -120.4088199, 17.400, 14:01:38.480, 11, 0.00, 0.28, 97, 0.100, 0.800, -36.200, 779, 100, 94, 25, 23393, -19126, 5180, 5396, 16, 14, 1528405298.480, 11, 0, 1024, 1024, 1024, 1024, 0, 6, 3882, 3884, 3883, 3930, 3926, 3889, 0, 1, 11201, -89.900, 0.000, -37.200, 0.000, 0.000, -2.900, 0.0, , , , , , 96, , , 29, 29, 29
38.7448353, -120.4088198, 17.600, 14:01:38.583, 11, 0.00, 0.28, 97, 0.000, 0.500, -36.200, 779, 100, 94, 25, 23393, -19126, 5180, 5396, 16, 14, 1528405298.585, 5, 0, 1024, 1024, 1024, 1024, 0, 6, 3882, 3884, 3883, 3930, 3926, 3889, 0, 1, 11305, -89.900, 0.000, -37.200, 0.000, 0.000, -2.900, 0.0, , , , , , 96, , , 29, 29, 29
38.7448352, -120.4088197, 17.900, 14:01:38.680, 11, 0.00, 0.28, 97, 0.000, 0.200, -36.200, 779, 100, 94, 25, 23393, -19126, 5180, 5396, 16, 14, 1528405298.680, 8, 0, 1024, 1024, 1024, 1024, 0, 6, 3882, 3884, 3883, 3930, 3926, 3889, 0, 1, 11401, -90.000, 0.000, -37.200, 0.000, 0.000, -2.900, 0.0, , , , , , 96, , , 29, 29, 29
38.7448351, -120.4088195, 18.200, 14:01:38.784, 11, 0.00, 0.28, 96, 0.100, 0.100, -36.200, 779, 100, 94, 25, 23393, -19126, 5180, 5396, 16, 14, 1528405298.784, 14, 0, 1024, 1024, 1024, 1024, 0, 6, 3882, 3884, 3883, 3930, 3926, 3889, 0, 1, 11505, -90.000, 0.000, -37.200, 0.000, 0.000, -2.900, 0.0, , , , , , 96, , , 29, 29, 29
38.7448351, -120.4088193, 18.500, 14:01:38.881, 11, 0.00, 0.28, 96, 0.100, -0.200, -36.200, 779, 100, 94, 25, 23393, -19126, 5180, 5396, 16, 14, 1528405298.881, 14, 0, 1024, 1024, 1024, 1024, 0, 6, 3882, 3884, 3883, 3930, 3926, 3889, 0, 1, 11602, -90.000, 0.000, -37.200, 0.000, 0.000, -2.900, 0.0, , , , , , 96, , , 29, 29, 29
38.7448351, -120.4088193, 18.500, 14:01:38.980, 11, 0.00, 0.28, 96, 0.100, -0.200, -36.200, 779, 100, 94, 25, 23393, -19126, 5180, 5396, 16, 14, 1528405298.980, 113, 0, 1024, 1024, 1024, 1024, 0, 6, 3882, 3884, 3883, 3930, 3926, 3889, 0, 1, 11701, -90.000, 0.000, -37.200, 0.000, 0.000, -2.900, 0.0, , , , , , 96, , , 29, 29, 29
38.7448351, -120.4088191, 18.800, 14:01:39.080, 11, 0.00, 0.27, 96, 0.000, -0.400, -36.300, 779, 100, 94, 25, 23393, -19126, 5180, 5396, 16, 14, 1528405299.080, 90, 0, 1024, 1024, 1024, 1024, 0, 6, 3882, 3884, 3883, 3930, 3926, 3889, 0, 1, 11801, -90.000, 0.000, -37.200, 0.000, 0.000, -3.000, 0.0, , , , , , 96, , , 29, 29, 29
38.7448351, -120.4088191, 18.800, 14:01:39.180, 11, 0.00, 0.27, 96, 0.000, -0.400, -36.300, 779, 100, 94, 25, 23393, -19126, 5180, 5396, 16, 14, 1528405299.181, 190, 0, 1024, 1024, 1024, 1024, 0, 6, 3882, 3884, 3883, 3930, 3926, 3889, 0, 1, 11901, -90.000, 0.000, -37.200, 0.000, 0.000, -3.000, 0.0, , , , , , 96, , , 29, 29, 29
38.7448350, -120.4088189, 19.700, 14:01:39.280, 12, 0.00, 0.28, 96, -0.400, -0.700, -36.500, 779, 100, 94, 25, 23393, -19126, 5180, 5396, 16, 14, 1528405299.281, 88, 0, 1024, 1024, 1024, 1024, 0, 6, 3882, 3884, 3883, 3930, 3926, 3889, 0, 1, 12001, -90.000, 0.000, -37.200, 0.000, 0.000, -2.900, 0.0, , , , , , 96, , , 29, 29, 29
38.7448350, -120.4088188, 20.000, 14:01:39.380, 12, 0.00, 0.28, 96, -0.100, -0.500, -36.500, 779, 100, 93, 26, 23339, -19487, 5180, 5396, 16, 14, 1528405299.381, 57, 0, 1024, 1024, 1024, 1024, 0, 6, 3872, 3872, 3879, 3922, 3919, 3875, 0, 1, 12101, -90.000, 0.000, -37.200, 0.000, 0.000, -2.900, 0.0, , , , , , 96, , , 29, 29, 29
38.7448349, -120.4088186, 20.600, 14:01:39.485, 12, 0.00, 0.28, 96, 0.000, -0.300, -36.500, 779, 100, 93, 26, 23339, -19487, 5180, 5396, 16, 14, 1528405299.486, 6, 0, 1024, 1024, 1024, 1024, 0, 6, 3872, 3872, 3879, 3922, 3919, 3875, 0, 1, 12206, -90.000, 0.000, -37.200, 0.000, 0.000, -3.000, 0.0, , , , , , 96, , , 29, 29, 29
38.7448349, -120.4088186, 20.600, 14:01:39.580, 12, 0.00, 0.28, 96, 0.000, -0.300, -36.500, 779, 100, 93, 26, 23339, -19487, 5180, 5396, 16, 14, 1528405299.581, 102, 0, 1024, 1024, 1024, 1024, 0, 6, 3872, 3872, 3879, 3922, 3919, 3875, 0, 1, 12301, -90.000, 0.000, -37.200, 0.000, 0.000, -3.000, 0.0, , , , , , 96, , , 29, 29, 29
38.7448348, -120.4088185, 20.900, 14:01:39.680, 12, 0.00, 0.29, 96, 0.000, -0.200, -36.500, 779, 100, 93, 26, 23339, -19487, 5180, 5396, 16, 14, 1528405299.680, 70, 0, 1024, 1024, 1024, 1024, 0, 6, 3872, 3872, 3879, 3922, 3919, 3875, 0, 1, 12401, -89.900, 0.000, -37.200, 0.000, 0.000, -3.000, 0.0, , , , , , 96, , , 29, 29, 29
38.7448347, -120.4088185, 21.200, 14:01:39.780, 12, 0.00, 0.30, 96, 0.000, -0.300, -36.400, 779, 100, 93, 26, 23339, -19487, 5180, 5396, 16, 14, 1528405299.781, 58, 0, 1024, 1024, 1024, 1024, 0, 6, 3872, 3872, 3879, 3922, 3919, 3875, 0, 1, 12501, -89.900, 0.000, -37.200, 0.000, 0.000, -3.000, 0.0, , , , , , 96, , , 29, 29, 29
38.7448347, -120.4088184, 21.500, 14:01:39.880, 12, 0.00, 0.30, 96, -0.100, -0.400, -36.300, 779, 100, 91, 26, 23339, -19487, 5180, 5396, 16, 14, 1528405299.881, 74, 0, 1024, 1024, 1024, 1024, 0, 6, 3872, 3872, 3879, 3922, 3919, 3875, 0, 1, 12601, -90.000, 0.000, -37.200, 0.000, 0.000, -2.900, 0.0, , , , , , 96, , , 29, 29, 29
38.7448347, -120.4088182, 21.800, 14:01:39.980, 12, 0.00, 0.30, 96, -0.200, -0.500, -36.300, 779, 100, 91, 26, 23339, -19487, 5180, 5396, 16, 14, 1528405299.980, 79, 0, 1024, 1024, 1024, 1024, 0, 6, 3872, 3872, 3879, 3922, 3919, 3875, 0, 1, 12701, -90.000, 0.000, -37.200, 0.000, 0.000, -2.900, 0.0, , , , , , 96, , , 29, 29, 29
38.7448347, -120.4088181, 22.100, 14:01:40.080, 12, 0.00, 0.30, 96, -0.300, -0.500, -36.200, 779, 100, 91, 26, 23339, -19487, 5180, 5396, 16, 14, 1528405300.081, 61, 0, 1024, 1024, 1024, 1024, 0, 6, 3872, 3872, 3879, 3922, 3919, 3875, 0, 1, 12801, -89.900, 0.000, -37.200, 0.000, 0.000, -2.900, 0.0, , , , , , 96, , , 29, 29, 29
38.7448347, -120.4088181, 22.400, 14:01:40.180, 12, 0.00, 0.30, 96, -0.400, -0.400, -36.200, 779, 100, 91, 26, 23339, -19487, 5180, 5396, 16, 14, 1528405300.180, 49, 0, 1024, 1024, 1024, 1024, 0, 6, 3872, 3872, 3879, 3922, 3919, 3875, 0, 1, 12901, -90.000, 0.000, -37.200, 0.000, 0.000, -2.900, 0.0, , , , , , 96, , , 29, 29, 29
38.7448347, -120.4088180, 22.700, 14:01:40.280, 12, 0.00, 0.29, 96, -0.300, -0.600, -36.100, 779, 100, 91, 26, 23339, -19487, 5180, 5396, 16, 14, 1528405300.281, 50, 0, 1024, 1024, 1024, 1024, 0, 6, 3872, 3872, 3879, 3922, 3919, 3875, 0, 1, 13001, -90.000, 0.000, -37.200, 0.000, 0.000, -2.900, 0.0, , , , , , 96, , , 29, 29, 29
38.7448348, -120.4088178, 23.000, 14:01:40.380, 12, 0.00, 0.29, 96, -0.600, -0.800, -36.000, 779, 100, 89, 26, 23339, -19487, 5180, 5396, 16, 14, 1528405300.381, 47, 0, 1024, 1024, 1024, 1024, 0, 6, 3872, 3872, 3879, 3922, 3919, 3875, 0, 1, 13102, -90.000, 0.000, -37.200, 0.000, 0.000, -3.000, 0.0, , , , , , 96, , , 29, 29, 29
38.7448348, -120.4088177, 23.300, 14:01:40.480, 12, 0.00, 0.29, 96, -0.800, -0.700, -35.900, 779, 100, 89, 26, 23339, -19487, 5180, 5396, 16, 14, 1528405300.480, 54, 0, 1024, 1024, 1024, 1024, 0, 6, 3872, 3872, 3879, 3922, 3919, 3875, 0, 1, 13201, -89.900, 0.000, -37.200, 0.000, 0.000, -3.100, 0.0, , , , , , 96, , , 29, 29, 29
38.7448347, -120.4088176, 23.700, 14:01:40.580, 12, 0.00, 0.29, 96, -0.800, -0.400, -35.800, 779, 100, 89, 26, 23339, -19487, 5180, 5396, 16, 14, 1528405300.581, 53, 0, 1024, 1024, 1024, 1024, 0, 6, 3872, 3872, 3879, 3922, 3919, 3875, 0, 1, 13301, -90.000, 0.000, -37.200, 0.000, 0.000, -3.100, 0.0, , , , , , 96, , , 29, 29, 29
38.7448347, -120.4088176, 24.000, 14:01:40.679, 12, 0.00, 0.29, 96, -0.800, -0.600, -35.900, 779, 100, 89, 26, 23339, -19487, 5180, 5396, 16, 14, 1528405300.680, 39, 0, 1024, 1024, 1024, 1024, 0, 6, 3872, 3872, 3879, 3922, 3919, 3875, 0, 1, 13400, -90.000, 0.000, -37.200, 0.000, 0.000, -3.000, 0.0, , , , , , 96, , , 29, 29, 29
38.7448347, -120.4088175, 24.300, 14:01:40.780, 12, 0.00, 0.29, 96, -0.900, -0.800, -35.900, 779, 100, 89, 26, 23342, -19022, 5180, 5396, 16, 14, 1528405300.781, 18, 0, 1024, 1024, 1024, 1024, 0, 6, 3864, 3868, 3869, 3925, 3919, 3873, 0, 1, 13501, -89.900, 0.000, -37.200, 0.000, 0.000, -2.900, 0.0, , , , , , 96, , , 29, 29, 29
38.7448347, -120.4088175, 24.300, 14:01:40.880, 12, 0.00, 0.29, 96, -0.900, -0.800, -35.900, 779, 100, 89, 26, 23342, -19022, 5180, 5396, 16, 14, 1528405300.881, 118, 0, 1024, 1024, 1024, 1024, 0, 6, 3864, 3868, 3869, 3925, 3919, 3873, 0, 1, 13601, -89.900, 0.000, -37.200, 0.000, 0.000, -2.900, 0.0, , , , , , 96, , , 29, 29, 29
38.7448348, -120.4088173, 24.900, 14:01:40.980, 12, 0.00, 0.29, 96, -1.400, -0.200, -36.100, 779, 100, 89, 26, 23342, -19022, 5180, 5396, 16, 14, 1528405300.980, 22, 0, 1024, 1024, 1024, 1024, 0, 6, 3864, 3868, 3869, 3925, 3919, 3873, 0, 1, 13701, -89.900, 0.000, -37.200, 0.000, 0.000, -2.900, 0.0, , , , , , 96, , , 29, 29, 29
38.7448348, -120.4088172, 25.200, 14:01:41.080, 12, 0.00, 0.29, 96, -1.800, 0.000, -36.300, 779, 100, 89, 26, 23342, -19022, 5180, 5396, 16, 14, 1528405301.080, 13, 0, 1024, 1024, 1024, 1024, 0, 6, 3864, 3868, 3869, 3925, 3919, 3873, 0, 1, 13801, -89.900, 0.000, -37.200, 0.000, 0.000, -2.900, 0.0, , , , , , 96, , , 29, 29, 29
38.7448349, -120.4088171, 25.500, 14:01:41.180, 12, 0.00, 0.28, 96, -2.000, 0.100, -36.400, 779, 100, 89, 26, 23342, -19022, 5180, 5396, 16, 14, 1528405301.180, 10, 0, 1024, 1024, 1024, 1024, 0, 6, 3864, 3868, 3869, 3925, 3919, 3873, 0, 1, 13901, -89.900, 0.000, -37.200, 0.000, 0.000, -2.900, 0.0, , , , , , 96, , , 29, 29, 29
38.7448349, -120.4088170, 25.800, 14:01:41.281, 12, 0.00, 0.28, 96, -1.700, 0.000, -36.400, 779, 100, 89, 26, 23342, -19022, 5180, 5396, 16, 14, 1528405301.282, 5, 0, 1024, 1024, 1024, 1024, 0, 6, 3864, 3868, 3869, 3925, 3919, 3873, 0, 1, 14002, -89.900, 0.000, -37.200, 0.000, 0.000, -2.900, 0.0, , , , , , 96, , , 29, 29, 29
38.7448349, -120.4088169, 26.100, 14:01:41.388, 12, 0.00, 0.28, 96, -1.300, -0.100, -36.500, 779, 100, 95, 26, 23342, -19022, 5180, 5396, 16, 14, 1528405301.388, 17, 0, 1024, 1024, 1024, 1024, 0, 6, 3864, 3868, 3869, 3925, 3919, 3873, 0, 1, 14109, -89.900, 0.000, -37.200, 0.000, 0.000, -3.000, 0.0, , , , , , 96, , , 29, 29, 29
38.7448349, -120.4088169, 26.100, 14:01:41.480, 12, 0.00, 0.28, 96, -1.300, -0.100, -36.500, 779, 100, 95, 26, 23342, -19022, 5180, 5396, 16, 14, 1528405301.480, 109, 0, 1024, 1024, 1024, 1024, 0, 6, 3864, 3868, 3869, 3925, 3919, 3873, 0, 1, 14201, -89.900, 0.000, -37.200, 0.000, 0.000, -3.000, 0.0, , , , , , 96, , , 29, 29, 29
38.7448349, -120.4088169, 26.100, 14:01:41.579, 12, 0.00, 0.28, 96, -1.300, -0.100, -36.500, 779, 100, 95, 26, 23342, -19022, 5180, 5396, 16, 14, 1528405301.580, 208, 0, 1024, 1024, 1024, 1024, 0, 6, 3864, 3868, 3869, 3925, 3919, 3873, 0, 1, 14300, -89.900, 0.000, -37.200, 0.000, 0.000, -3.000, 0.0, , , , , , 96, , , 29, 29, 29
38.7448349, -120.4088169, 26.100, 14:01:41.680, 12, 0.00, 0.28, 96, -1.300, -0.100, -36.500, 779, 100, 95, 26, 23342, -19022, 5180, 5396, 16, 14, 1528405301.680, 309, 0, 1024, 1024, 1024, 1024, 0, 6, 3864, 3868, 3869, 3925, 3919, 3873, 0, 1, 14401, -89.900, 0.000, -37.200, 0.000, 0.000, -3.000, 0.0, , , , , , 96, , , 29, 29, 29
38.7448349, -120.4088165, 27.400, 14:01:41.780, 12, 0.00, 0.30, 96, -1.700, -1.800, -36.200, 779, 100, 95, 26, 23284, -19548, 5180, 5396, 16, 14, 1528405301.781, 37, 0, 1024, 1024, 1024, 1024, 0, 6, 3854, 3862, 3856, 3911, 3899, 3867, 0, 1, 14502, -89.900, 0.000, -37.200, 0.000, 0.000, -2.900, 0.0, , , , , , 96, , , 29, 29, 29
38.7448349, -120.4088165, 27.600, 14:01:41.880, 12, 0.00, 0.30, 96, -1.100, -1.900, -36.200, 779, 100, 88, 26, 23284, -19548, 5180, 5396, 16, 14, 1528405301.881, 93, 0, 1024, 1024, 1024, 1024, 0, 6, 3854, 3862, 3856, 3911, 3899, 3867, 0, 1, 14601, -89.900, 0.000, -37.200, 0.000, 0.000, -2.800, 0.0, , , , , , 96, , , 29, 29, 29
38.7448348, -120.4088165, 27.900, 14:01:41.980, 12, 0.00, 0.31, 96, -0.700, -1.800, -36.300, 779, 100, 88, 26, 23284, -19548, 5180, 5396, 16, 14, 1528405301.980, 82, 0, 1024, 1024, 1024, 1024, 0, 6, 3854, 3862, 3856, 3911, 3899, 3867, 0, 1, 14701, -89.900, 0.000, -37.200, 0.000, 0.000, -2.800, 0.0, , , , , , 96, , , 29, 29, 29
38.7448348, -120.4088165, 28.200, 14:01:42.080, 12, 0.00, 0.31, 96, -0.600, -1.500, -36.500, 779, 100, 88, 26, 23284, -19548, 5180, 5396, 16, 14, 1528405302.080, 95, 0, 1024, 1024, 1024, 1024, 0, 6, 3854, 3862, 3856, 3911, 3899, 3867, 0, 1, 14801, -89.900, 0.000, -37.200, 0.000, 0.000, -2.800, 0.0, , , , , , 96, , , 29, 29, 29
38.7448348, -120.4088164, 28.500, 14:01:42.180, 12, 0.00, 0.31, 96, -0.700, -1.500, -36.800, 779, 100, 88, 26, 23284, -19548, 5180, 5396, 16, 14, 1528405302.180, 51, 0, 1024, 1024, 1024, 1024, 0, 6, 3854, 3862, 3856, 3911, 3899, 3867, 0, 1, 14901, -89.900, 0.000, -37.200, 0.000, 0.000, -2.900, 0.0, , , , , , 96, , , 29, 29, 29
38.7448347, -120.4088164, 28.800, 14:01:42.280, 12, 0.00, 0.32, 96, -1.400, -1.500, -37.100, 779, 100, 88, 26, 23284, -19548, 5180, 5396, 16, 14, 1528405302.281, 75, 0, 1024, 1024, 1024, 1024, 0, 6, 3854, 3862, 3856, 3911, 3899, 3867, 0, 1, 15001, -89.900, 0.000, -37.200, 0.000, 0.000, -2.900, 0.0, , , , , , 96, , , 29, 29, 29
38.7448347, -120.4088163, 29.100, 14:01:42.380, 12, 0.00, 0.32, 96, -1.500, -1.400, -37.200, 779, 100, 88, 26, 23284, -19548, 5180, 5396, 16, 14, 1528405302.381, 77, 0, 1024, 1024, 1024, 1024, 0, 6, 3854, 3862, 3856, 3911, 3899, 3867, 0, 1, 15102, -89.900, 0.000, -37.200, 0.000, 0.000, -2.900, 0.0, , , , , , 96, , , 29, 29, 29
38.7448347, -120.4088162, 29.400, 14:01:42.479, 12, 0.00, 0.32, 96, -1.800, -1.300, -37.100, 779, 100, 88, 26, 23284, -19548, 5180, 5396, 16, 14, 1528405302.480, 51, 0, 1024, 1024, 1024, 1024, 0, 6, 3854, 3862, 3856, 3911, 3899, 3867, 0, 1, 15200, -89.900, 0.000, -37.200, 0.000, 0.000, -2.800, 0.0, , , , , , 96, , , 29, 29, 29
38.7448347, -120.4088162, 29.700, 14:01:42.580, 12, 0.00, 0.33, 96, -2.000, -1.500, -36.700, 779, 100, 88, 26, 23284, -19548, 5180, 5396, 16, 14, 1528405302.581, 67, 0, 1024, 1024, 1024, 1024, 0, 6, 3854, 3862, 3856, 3911, 3899, 3867, 0, 1, 15302, -89.900, 0.000, -37.200, 0.000, 0.000, -2.800, 0.0, , , , , , 96, , , 29, 29, 29
38.7448347, -120.4088162, 30.000, 14:01:42.680, 12, 0.00, 0.33, 96, -1.900, -2.000, -36.300, 779, 100, 88, 26, 23284, -19548, 5180, 5396, 16, 14, 1528405302.680, 20, 0, 1024, 1024, 1024, 1024, 0, 6, 3854, 3862, 3856, 3911, 3899, 3867, 0, 1, 15401, -90.000, 0.000, -37.200, 0.000, 0.000, -2.800, 0.0, , , , , , 96, , , 29, 29, 29
38.7448347, -120.4088162, 30.300, 14:01:42.780, 12, 0.00, 0.34, 96, -2.000, -2.300, -35.700, 779, 100, 88, 26, 23222, -19669, 5180, 5396, 16, 14, 1528405302.780, 25, 0, 1024, 1024, 1024, 1024, 0, 6, 3854, 3862, 3856, 3911, 3899, 3867, 0, 1, 15501, -89.900, 0.000, -37.200, 0.000, 0.000, -2.800, 0.0, , , , , , 96, , , 29, 29, 29
38.7448346, -120.4088161, 30.600, 14:01:42.880, 12, 0.00, 0.34, 96, -1.800, -2.300, -35.200, 779, 100, 88, 26, 23222, -19669, 5180, 5396, 16, 14, 1528405302.881, 33, 0, 1024, 1024, 1024, 1024, 0, 6, 3846, 3851, 3857, 3905, 3906, 3857, 0, 1, 15601, -89.900, 0.000, -37.200, 0.000, 0.000, -2.800, 0.0, , , , , , 96, , , 29, 29, 29
38.7448346, -120.4088161, 30.800, 14:01:42.980, 12, 0.00, 0.34, 96, -1.700, -1.900, -34.900, 779, 100, 88, 26, 23222, -19669, 5180, 5396, 16, 14, 1528405302.980, 34, 0, 1024, 1024, 1024, 1024, 0, 6, 3846, 3851, 3857, 3905, 3906, 3857, 0, 1, 15701, -89.900, 0.000, -37.200, 0.000, 0.000, -2.800, 0.0, , , , , , 96, , , 29, 29, 29
38.7448347, -120.4088161, 31.100, 14:01:43.080, 12, 0.00, 0.34, 96, -2.100, -1.600, -34.800, 779, 100, 88, 26, 23222, -19669, 5180, 5396, 16, 14, 1528405303.081, 40, 0, 1024, 1024, 1024, 1024, 0, 6, 3846, 3851, 3857, 3905, 3906, 3857, 0, 1, 15801, -89.900, 0.000, -37.200, 0.000, 0.000, -2.800, 0.0, , , , , , 96, , , 29, 29, 29
38.7448347, -120.4088162, 31.400, 14:01:43.179, 12, 0.00, 0.33, 96, -2.300, -1.400, -35.000, 779, 100, 88, 26, 23222, -19669, 5180, 5396, 16, 14, 1528405303.180, 24, 0, 1024, 1024, 1024, 1024, 0, 6, 3846, 3851, 3857, 3905, 3906, 3857, 0, 1, 15900, -89.900, 0.000, -37.200, 0.000, 0.000, -2.900, 0.0, , , , , , 96, , , 29, 29, 29
38.7448347, -120.4088162, 31.700, 14:01:43.280, 12, 0.00, 0.33, 96, -2.100, -1.000, -35.300, 779, 100, 88, 26, 23222, -19669, 5180, 5396, 16, 14, 1528405303.281, 40, 0, 1024, 1024, 1024, 1024, 0, 6, 3846, 3851, 3857, 3905, 3906, 3857, 0, 1, 16001, -89.900, 0.000, -37.200, 0.000, 0.000, -2.900, 0.0, , , , , , 96, , , 29, 29, 29
38.7448347, -120.4088162, 32.000, 14:01:43.380, 12, 0.00, 0.33, 96, -2.000, -0.600, -35.600, 779, 100, 93, 26, 23222, -19669, 5180, 5396, 16, 14, 1528405303.381, 24, 0, 1024, 1024, 1024, 1024, 0, 6, 3846, 3851, 3857, 3905, 3906, 3857, 0, 1, 16101, -89.900, 0.000, -37.200, 0.000, 0.000, -2.900, 0.0, , , , , , 96, , , 29, 29, 29
38.7448347, -120.4088163, 32.300, 14:01:43.480, 12, 0.00, 0.32, 96, -2.000, -0.600, -35.900, 779, 100, 93, 26, 23222, -19669, 5180, 5396, 16, 14, 1528405303.480, 34, 0, 1024, 1024, 1024, 1024, 0, 6, 3846, 3851, 3857, 3905, 3906, 3857, 0, 1, 16201, -89.900, 0.000, -37.200, 0.000, 0.000, -2.900, 0.0, , , , , , 96, , , 29, 29, 29
38.7448347, -120.4088163, 32.600, 14:01:43.580, 12, 0.00, 0.32, 96, -1.900, -0.700, -36.100, 779, 100, 93, 26, 23222, -19669, 5180, 5396, 16, 14, 1528405303.581, 38, 0, 1024, 1024, 1024, 1024, 0, 6, 3846, 3851, 3857, 3905, 3906, 3857, 0, 1, 16301, -89.900, 0.000, -37.200, 0.000, 0.000, -2.900, 0.0, , , , , , 96, , , 29, 29, 29
38.7448347, -120.4088163, 32.900, 14:01:43.680, 12, 0.00, 0.32, 96, -1.700, -0.900, -36.200, 779, 100, 93, 26, 23222, -19669, 5180, 5396, 16, 14, 1528405303.680, 30, 0, 1024, 1024, 1024, 1024, 0, 6, 3846, 3851, 3857, 3905, 3906, 3857, 0, 1, 16401, -89.900, 0.000, -37.200, 0.000, 0.000, -2.900, 0.0, , , , , , 96, , , 29, 29, 29
38.7448347, -120.4088163, 33.200, 14:01:43.780, 12, 0.00, 0.32, 96, -1.700, -1.000, -36.300, 779, 100, 92, 26, 23103, -21011, 5180, 5396, 16, 14, 1528405303.781, 6, 0, 1024, 1024, 1024, 1024, 0, 6, 3846, 3851, 3857, 3905, 3906, 3857, 0, 1, 16501, -89.900, 0.000, -37.200, 0.000, 0.000, -2.900, 0.0, , , , , , 96, , , 29, 29, 29
38.7448347, -120.4088164, 33.500, 14:01:43.880, 12, 0.00, 0.32, 96, -1.800, -1.200, -36.500, 779, 100, 92, 26, 23103, -21011, 5180, 5396, 16, 14, 1528405303.881, 24, 0, 1024, 1024, 1024, 1024, 0, 6, 3827, 3818, 3831, 3882, 3883, 3834, 0, 1, 16601, -89.900, 0.000, -37.200, 0.000, 0.000, -2.900, 0.0, , , , , , 96, , , 29, 29, 29
38.7448347, -120.4088164, 33.500, 14:01:43.980, 12, 0.00, 0.32, 96, -1.800, -1.200, -36.500, 779, 100, 92, 26, 23103, -21011, 5180, 5396, 16, 14, 1528405303.980, 123, 0, 1024, 1024, 1024, 1024, 0, 6, 3827, 3818, 3831, 3882, 3883, 3834, 0, 1, 16701, -89.900, 0.000, -37.200, 0.000, 0.000, -2.900, 0.0, , , , , , 96, , , 29, 29, 29
38.7448347, -120.4088164, 33.700, 14:01:44.080, 12, 0.00, 0.32, 96, -1.700, -1.200, -36.500, 779, 100, 92, 26, 23103, -21011, 5180, 5396, 16, 14, 1528405304.080, 98, 0, 1024, 1024, 1024, 1024, 0, 6, 3827, 3818, 3831, 3882, 3883, 3834, 0, 1, 16801, -89.900, 0.000, -37.200, 0.000, 0.000, -2.900, 0.0, , , , , , 96, , , 29, 29, 29
38.7448347, -120.4088165, 34.000, 14:01:44.180, 12, 0.00, 0.32, 96, -1.600, -1.200, -36.500, 779, 100, 92, 26, 23103, -21011, 5180, 5396, 16, 14, 1528405304.180, 66, 0, 1024, 1024, 1024, 1024, 0, 6, 3827, 3818, 3831, 3882, 3883, 3834, 0, 1, 16901, -89.900, 0.000, -37.200, 0.000, 0.000, -2.900, 0.0, , , , , , 96, , , 29, 29, 29
38.7448347, -120.4088166, 34.900, 14:01:44.291, 12, 0.00, 0.32, 96, -1.300, -0.700, -36.200, 779, 100, 94, 26, 23103, -21011, 5180, 5396, 16, 14, 1528405304.292, 13, 0, 1024, 1024, 1024, 1024, 0, 6, 3827, 3818, 3831, 3882, 3883, 3834, 0, 1, 17012, -89.900, 0.000, -37.200, 0.000, 0.000, -3.000, 0.0, , , , , , 96, , , 29, 29, 29
38.7448347, -120.4088166, 34.900, 14:01:44.380, 12, 0.00, 0.32, 96, -1.300, -0.700, -36.200, 779, 100, 94, 26, 23103, -21011, 5180, 5396, 16, 14, 1528405304.381, 102, 0, 1024, 1024, 1024, 1024, 0, 6, 3827, 3818, 3831, 3882, 3883, 3834, 0, 1, 17102, -89.900, 0.000, -37.200, 0.000, 0.000, -3.000, 0.0, , , , , , 96, , , 29, 29, 29
38.7448347, -120.4088167, 35.300, 14:01:44.480, 12, 0.00, 0.32, 96, -1.200, -0.800, -36.100, 779, 100, 94, 26, 23103, -21011, 5180, 5396, 16, 14, 1528405304.480, 78, 0, 1024, 1024, 1024, 1024, 0, 6, 3827, 3818, 3831, 3882, 3883, 3834, 0, 1, 17201, -89.900, 0.000, -37.200, 0.000, 0.000, -3.000, 0.0, , , , , , 96, , , 29, 29, 29
38.7448346, -120.4088168, 35.600, 14:01:44.580, 12, 0.00, 0.32, 96, -1.100, -0.900, -36.100, 779, 100, 94, 26, 23103, -21011, 5180, 5396, 16, 14, 1528405304.580, 88, 0, 1024, 1024, 1024, 1024, 0, 6, 3827, 3818, 3831, 3882, 3883, 3834, 0, 1, 17301, -89.900, 0.000, -37.200, 0.000, 0.000, -3.000, 0.0, , , , , , 96, , , 29, 29, 29
38.7448346, -120.4088168, 35.900, 14:01:44.680, 12, 0.00, 0.32, 96, -1.100, -1.000, -36.100, 779, 100, 94, 26, 23103, -21011, 5180, 5396, 16, 14, 1528405304.681, 79, 0, 1024, 1024, 1024, 1024, 0, 6, 3827, 3818, 3831, 3882, 3883, 3834, 0, 1, 17401, -89.900, 0.000, -37.200, 0.000, 0.000, -2.900, 0.0, , , , , , 96, , , 29, 29, 29
38.7448346, -120.4088169, 36.100, 14:01:44.780, 12, 0.00, 0.32, 96, -1.000, -1.000, -36.100, 779, 100, 94, 26, 22949, -22256, 5180, 5396, 16, 14, 1528405304.780, 43, 0, 1024, 1024, 1024, 1024, 0, 6, 3805, 3805, 3804, 3857, 3857, 3810, 0, 1, 17501, -89.900, 0.000, -37.200, 0.000, 0.000, -2.900, 0.0, , , , , , 96, , , 29, 29, 29
38.7448346, -120.4088169, 36.400, 14:01:44.880, 12, 0.00, 0.32, 96, -0.900, -1.000, -36.100, 779, 100, 94, 26, 22949, -22256, 5180, 5396, 16, 14, 1528405304.881, 89, 0, 1024, 1024, 1024, 1024, 0, 6, 3805, 3805, 3804, 3857, 3857, 3810, 0, 1, 17601, -89.900, 0.000, -37.200, 0.000, 0.000, -2.900, 0.0, , , , , , 96, , , 29, 29, 29
38.7448346, -120.4088170, 36.700, 14:01:44.980, 12, 0.00, 0.32, 96, -0.700, -0.900, -36.100, 779, 100, 94, 26, 22949, -22256, 5180, 5396, 16, 14, 1528405304.980, 69, 0, 1024, 1024, 1024, 1024, 0, 6, 3805, 3805, 3804, 3857, 3857, 3810, 0, 1, 17701, -89.900, 0.000, -37.200, 0.000, 0.000, -3.000, 0.0, , , , , , 96, , , 29, 29, 29
38.7448346, -120.4088170, 37.000, 14:01:45.080, 12, 0.00, 0.32, 96, -0.700, -0.900, -36.200, 779, 100, 94, 26, 22949, -22256, 5180, 5396, 16, 14, 1528405305.081, 59, 0, 1024, 1024, 1024, 1024, 0, 6, 3805, 3805, 3804, 3857, 3857, 3810, 0, 1, 17801, -89.900, 0.000, -37.200, 0.000, 0.000, -3.000, 0.0, , , , , , 96, , , 29, 29, 29
38.7448345, -120.4088170, 37.300, 14:01:45.180, 12, 0.00, 0.32, 96, -1.000, -0.900, -36.200, 779, 100, 94, 26, 22949, -22256, 5180, 5396, 16, 14, 1528405305.180, 34, 0, 1024, 1024, 1024, 1024, 0, 6, 3805, 3805, 3804, 3857, 3857, 3810, 0, 1, 17901, -89.900, 0.000, -37.200, 0.000, 0.000, -3.000, 0.0, , , , , , 96, , , 29, 29, 29
38.7448345, -120.4088171, 37.600, 14:01:45.280, 12, 0.00, 0.32, 96, -1.200, -1.000, -36.200, 779, 100, 94, 26, 22949, -22256, 5180, 5396, 16, 14, 1528405305.280, 75, 0, 1024, 1024, 1024, 1024, 0, 6, 3805, 3805, 3804, 3857, 3857, 3810, 0, 1, 18001, -89.900, 0.000, -37.200, 0.000, 0.000, -3.000, 0.0, , , , , , 96, , , 29, 29, 29
38.7448345, -120.4088172, 38.000, 14:01:45.380, 12, 0.00, 0.32, 96, -1.300, -1.100, -36.100, 779, 100, 95, 26, 22949, -22256, 5180, 5396, 16, 14, 1528405305.381, 62, 0, 1024, 1024, 1024, 1024, 0, 6, 3805, 3805, 3804, 3857, 3857, 3810, 0, 1, 18102, -89.900, 0.000, -37.200, 0.000, 0.000, -3.100, 0.0, , , , , , 96, , , 29, 29, 29
38.7448345, -120.4088172, 38.300, 14:01:45.480, 12, 0.00, 0.32, 96, -1.300, -1.000, -36.100, 779, 100, 95, 26, 22949, -22256, 5180, 5396, 16, 14, 1528405305.480, 53, 0, 1024, 1024, 1024, 1024, 0, 6, 3805, 3805, 3804, 3857, 3857, 3810, 0, 1, 18201, -89.900, 0.000, -37.200, 0.000, 0.000, -3.000, 0.0, , , , , , 96, , , 29, 29, 29
38.7448345, -120.4088173, 38.500, 14:01:45.580, 12, 0.00, 0.32, 96, -1.300, -0.600, -36.100, 779, 100, 95, 26, 22949, -22256, 5180, 5396, 16, 14, 1528405305.582, 33, 0, 1024, 1024, 1024, 1024, 0, 6, 3805, 3805, 3804, 3857, 3857, 3810, 0, 1, 18302, -89.900, 0.000, -37.200, 0.000, 0.000, -2.900, 0.0, , , , , , 96, , , 29, 29, 29
38.7448346, -120.4088173, 38.900, 14:01:45.680, 12, 0.00, 0.32, 96, -1.400, 0.000, -36.100, 779, 100, 95, 26, 22949, -22256, 5180, 5396, 16, 14, 1528405305.680, 46, 0, 1024, 1024, 1024, 1024, 0, 6, 3805, 3805, 3804, 3857, 3857, 3810, 0, 1, 18401, -89.900, 0.000, -37.200, 0.000, 0.000, -3.000, 0.0, , , , , , 96, , , 29, 29, 29
38.7448346, -120.4088174, 39.200, 14:01:45.780, 12, 0.00, 0.31, 96, -1.600, 0.400, -36.100, 779, 100, 95, 26, 22930, -22267, 5180, 5396, 16, 14, 1528405305.781, 30, 0, 1024, 1024, 1024, 1024, 0, 6, 3805, 3805, 3804, 3857, 3857, 3810, 0, 1, 18501, -89.900, 0.000, -37.200, 0.000, 0.000, -3.000, 0.0, , , , , , 96, , , 29, 29, 29
38.7448345, -120.4088174, 39.500, 14:01:45.880, 12, 0.00, 0.32, 96, -1.100, 0.100, -36.100, 779, 100, 95, 26, 22930, -22267, 5180, 5396, 16, 14, 1528405305.881, 40, 0, 1024, 1024, 1024, 1024, 0, 6, 3805, 3805, 3804, 3857, 3857, 3810, 0, 1, 18601, -89.900, 0.000, -37.200, 0.000, 0.000, -3.000, 0.0, , , , , , 96, , , 29, 29, 29
38.7448345, -120.4088174, 39.700, 14:01:45.980, 12, 0.00, 0.32, 96, -0.800, -0.500, -36.200, 779, 100, 95, 26, 22930, -22267, 5180, 5396, 16, 14, 1528405305.980, 42, 0, 1024, 1024, 1024, 1024, 0, 6, 3805, 3805, 3804, 3857, 3857, 3810, 0, 1, 18701, -90.000, 0.000, -37.200, 0.000, 0.000, -2.900, 0.0, , , , , , 96, , , 29, 29, 29
38.7448344, -120.4088174, 40.000, 14:01:46.080, 12, 0.00, 0.33, 96, -0.700, -1.200, -36.200, 779, 100, 95, 26, 22930, -22267, 5180, 5396, 16, 14, 1528405306.080, 7, 0, 1024, 1024, 1024, 1024, 0, 6, 3805, 3805, 3804, 3857, 3857, 3810, 0, 1, 18801, -90.000, 0.000, -37.200, 0.000, 0.000, -3.000, 0.0, , , , , , 96, , , 29, 29, 29
38.7448344, -120.4088174, 40.000, 14:01:46.180, 12, 0.00, 0.33, 96, -0.700, -1.200, -36.200, 779, 100, 95, 26, 22930, -22267, 5180, 5396, 16, 14, 1528405306.180, 107, 0, 1024, 1024, 1024, 1024, 0, 6, 3805, 3805, 3804, 3857, 3857, 3810, 0, 1, 18901, -90.000, 0.000, -37.200, 0.000, 0.000, -3.000, 0.0, , , , , , 96, , , 29, 29, 29
38.7448344, -120.4088174, 40.600, 14:01:46.280, 12, 0.00, 0.33, 96, -0.600, -1.400, -36.300, 779, 100, 95, 26, 22930, -22267, 5180, 5396, 16, 14, 1528405306.281, 29, 0, 1024, 1024, 1024, 1024, 0, 6, 3805, 3805, 3804, 3857, 3857, 3810, 0, 1, 19001, -90.000, 0.000, -37.200, 0.000, 0.000, -3.000, 0.0, , , , , , 96, , , 29, 29, 29
38.7448343, -120.4088175, 40.900, 14:01:46.380, 12, 0.00, 0.34, 96, -0.500, -1.300, -36.300, 779, 100, 90, 26, 22930, -22267, 5180, 5396, 16, 14, 1528405306.380, 17, 0, 1024, 1024, 1024, 1024, 0, 6, 3806, 3811, 3803, 3852, 3850, 3799, 0, 1, 19101, -90.000, 0.000, -37.200, 0.000, 0.000, -3.000, 0.0, , , , , , 96, , , 29, 29, 29
38.7448343, -120.4088175, 41.200, 14:01:46.479, 12, 0.00, 0.34, 96, -0.400, -1.300, -36.300, 779, 100, 90, 26, 22930, -22267, 5180, 5396, 16, 14, 1528405306.480, 8, 0, 1024, 1024, 1024, 1024, 0, 6, 3806, 3811, 3803, 3852, 3850, 3799, 0, 1, 19201, -90.000, 0.000, -37.200, 0.000, 0.000, -3.000, 0.0, , , , , , 96, , , 29, 29, 29
38.7448342, -120.4088175, 41.800, 14:01:46.580, 12, 0.00, 0.35, 96, -0.500, -1.100, -36.400, 779, 100, 90, 26, 22930, -22267, 5180, 5396, 16, 14, 1528405306.581, 5, 0, 1024, 1024, 1024, 1024, 0, 6, 3806, 3811, 3803, 3852, 3850, 3799, 0, 1, 19301, -89.900, 0.000, -37.200, 0.000, 0.000, -3.000, 0.0, , , , , , 96, , , 29, 29, 29
38.7448342, -120.4088175, 41.800, 14:01:46.682, 12, 0.00, 0.35, 96, -0.500, -1.100, -36.400, 779, 100, 90, 26, 22930, -22267, 5180, 5396, 16, 14, 1528405306.682, 107, 0, 1024, 1024, 1024, 1024, 0, 6, 3806, 3811, 3803, 3852, 3850, 3799, 0, 1, 19403, -89.900, 0.000, -37.200, 0.000, 0.000, -3.000, 0.0, , , , , , 96, , , 29, 29, 29
38.7448342, -120.4088175, 42.100, 14:01:46.780, 12, 0.00, 0.35, 96, -0.600, -1.000, -36.300, 779, 100, 90, 26, 22930, -22267, 5180, 5396, 16, 14, 1528405306.781, 71, 0, 1024, 1024, 1024, 1024, 0, 6, 3806, 3811, 3803, 3852, 3850, 3799, 0, 1, 19501, -89.900, 0.000, -37.200, 0.000, 0.000, -3.000, 0.0, , , , , , 96, , , 29, 29, 29
38.7448342, -120.4088175, 42.100, 14:01:46.880, 12, 0.00, 0.35, 96, -0.600, -1.000, -36.300, 779, 100, 90, 26, 22930, -22267, 5180, 5396, 16, 14, 1528405306.881, 171, 0, 1024, 1024, 1024, 1024, 0, 6, 3806, 3811, 3803, 3852, 3850, 3799, 0, 1, 19601, -90.000, 0.000, -37.200, 0.000, 0.000, -3.000, 0.0, , , , , , 96, , , 29, 29, 29
38.7448342, -120.4088175, 42.700, 14:01:46.980, 12, 0.00, 0.36, 96, -0.600, -1.100, -36.300, 779, 100, 90, 26, 22930, -22267, 5180, 5396, 16, 14, 1528405306.980, 37, 0, 1024, 1024, 1024, 1024, 0, 6, 3806, 3811, 3803, 3852, 3850, 3799, 0, 1, 19701, -89.900, 0.000, -37.200, 0.000, 0.000, -3.000, 0.0, , , , , , 96, , , 29, 29, 29
38.7448341, -120.4088175, 43.000, 14:01:47.080, 12, 0.00, 0.36, 96, -0.600, -1.000, -36.300, 779, 100, 90, 26, 22930, -22267, 5180, 5396, 16, 14, 1528405307.080, 68, 0, 1024, 1024, 1024, 1024, 0, 6, 3806, 3811, 3803, 3852, 3850, 3799, 0, 1, 19801, -89.900, 0.000, -37.200, 0.000, 0.000, -3.000, 0.0, , , , , , 96, , , 29, 29, 29
38.7448341, -120.4088175, 43.300, 14:01:47.180, 12, 0.00, 0.36, 96, -0.600, -1.100, -36.300, 779, 100, 90, 26, 22930, -22267, 5180, 5396, 16, 14, 1528405307.180, 41, 0, 1024, 1024, 1024, 1024, 0, 6, 3806, 3811, 3803, 3852, 3850, 3799, 0, 1, 19901, -89.900, 0.000, -37.200, 0.000, 0.000, -3.000, 0.0, , , , , , 96, , , 29, 29, 29
38.7448341, -120.4088175, 43.300, 14:01:47.280, 12, 0.00, 0.36, 96, -0.600, -1.100, -36.300, 779, 100, 90, 26, 22930, -22267, 5180, 5396, 16, 14, 1528405307.281, 141, 0, 1024, 1024, 1024, 1024, 0, 6, 3806, 3811, 3803, 3852, 3850, 3799, 0, 1, 20001, -89.900, 0.000, -37.200, 0.000, 0.000, -3.000, 0.0, , , , , , 96, , , 29, 29, 29
38.7448341, -120.4088175, 43.300, 14:01:47.380, 12, 0.00, 0.36, 96, -0.600, -1.100, -36.300, 779, 100, 90, 26, 22930, -22267, 5180, 5396, 16, 14, 1528405307.381, 242, 0, 1024, 1024, 1024, 1024, 0, 6, 3806, 3811, 3803, 3852, 3850, 3799, 0, 1, 20101, -89.900, 0.000, -37.200, 0.000, 0.000, -3.000, 0.0, , , , , , 96, , , 29, 29, 29
38.7448341, -120.4088175, 43.300, 14:01:47.480, 12, 0.00, 0.36, 96, -0.600, -1.100, -36.300, 779, 100, 90, 26, 22930, -22267, 5180, 5396, 16, 14, 1528405307.481, 341, 0, 1024, 1024, 1024, 1024, 0, 6, 3806, 3811, 3803, 3852, 3850, 3799, 0, 1, 20201, -89.900, 0.000, -37.200, 0.000, 0.000, -3.000, 0.0, , , , , , 96, , , 29, 29, 29
38.7448341, -120.4088175, 43.300, 14:01:47.580, 12, 0.00, 0.36, 96, -0.600, -1.100, -36.300, 779, 100, 90, 26, 22930, -22267, 5180, 5396, 16, 14, 1528405307.581, 442, 0, 1024, 1024, 1024, 1024, 0, 6, 3806, 3811, 3803, 3852, 3850, 3799, 0, 1, 20302, -89.900, 0.000, -37.200, 0.000, 0.000, -3.000, 0.0, , , , , , 96, , , 29, 29, 29
38.7448340, -120.4088176, 44.800, 14:01:47.680, 12, 0.00, 0.37, 96, -0.300, -0.700, -36.200, 779, 100, 90, 26, 22930, -22267, 5180, 5396, 16, 14, 1528405307.680, 41, 0, 1024, 1024, 1024, 1024, 0, 6, 3806, 3811, 3803, 3852, 3850, 3799, 0, 1, 20401, -89.900, 0.000, -37.200, 0.000, 0.000, -3.100, 0.0, , , , , , 96, , , 29, 29, 29
38.7448340, -120.4088176, 45.100, 14:01:47.781, 12, 0.00, 0.37, 96, -0.500, -0.800, -36.200, 779, 100, 90, 26, 22899, -22191, 5126, 5396, 16, 14, 1528405307.781, 43, 0, 1024, 1024, 1024, 1024, 0, 6, 3806, 3811, 3803, 3852, 3850, 3799, 0, 1, 20502, -89.900, 0.000, -37.300, 0.000, 0.000, -3.000, 0.0, , , , , , 96, , , 29, 29, 29
38.7448340, -120.4088176, 45.100, 14:01:47.880, 12, 0.00, 0.37, 96, -0.500, -0.800, -36.200, 779, 100, 90, 26, 22899, -22191, 5126, 5396, 16, 14, 1528405307.881, 142, 0, 1024, 1024, 1024, 1024, 0, 6, 3806, 3811, 3803, 3852, 3850, 3799, 0, 1, 20601, -89.900, 0.000, -37.300, 0.000, 0.000, -3.000, 0.0, , , , , , 96, , , 29, 29, 29
38.7448340, -120.4088176, 45.400, 14:01:47.980, 12, 0.00, 0.38, 96, -0.500, -1.100, -36.200, 779, 100, 91, 26, 22899, -22191, 5126, 5396, 16, 14, 1528405307.980, 96, 0, 1024, 1024, 1024, 1024, 0, 6, 3806, 3811, 3803, 3852, 3850, 3799, 0, 1, 20701, -90.000, 0.000, -37.200, 0.000, 0.000, -3.000, 0.0, , , , , , 96, , , 29, 29, 29
38.7448339, -120.4088176, 46.100, 14:01:48.080, 12, 0.00, 0.38, 96, -0.700, -1.500, -36.200, 779, 100, 91, 26, 22899, -22191, 5126, 5396, 16, 14, 1528405308.081, 17, 0, 1024, 1024, 1024, 1024, 0, 6, 3806, 3811, 3803, 3852, 3850, 3799, 0, 1, 20801, -89.900, 0.000, -37.200, 0.000, 0.000, -3.100, 0.0, , , , , , 96, , , 29, 29, 29
