Latitude, Longitude, Altitude (m), Time, Sats, Speed (m/s), Range (m), Battery (%), Roll (deg), Pitch (deg), Yaw (deg), Images, HD Signal (%), RC Signal (%), Battery Temp (C), Battery Voltage (mV), Battery Current (mA), Battery Energy (mAh), Battery Capacity (mAh), Battery Discharges, flyState, timestamp (Unix), LastUpdate (ms), radioChannel, Rc_elevator, Rc_aileron, Rc_throttle, Rc_rudder, Rc_gyro, Dronetype, Battery_Cell1 (mV), Battery_Cell2 (mV), Battery_Cell3 (mV), Battery_Cell4 (mV), Battery_Cell5 (mV), Battery_Cell6 (mV), Video, isFlying, elapsedTime (ms), gimbalPitch (deg), gimbalRoll (deg), gimbalYaw (deg), VelocityX (m/s), VelocityY (m/s), VelocityZ (m/s), GroundSmear (cm), App Version, Aircraft Name, Aircraft Firmware, Aircraft Serial Number, Battery Serial Number, Battery Lifetime (%), App_Tip, App_Warning, CurrentFlightStartingIndex, CurrentFlightLastVisitedWaypoint, PreviousFlightEndingWaypointIndex
38.7448311, -120.4087933, 0.000, 13:36:43.359, 10, 0.00, 0.07, 98, -0.300, -1.300, -31.600, 368, 100, 100, 23, 25778, -1174, 5418, 5529, 9, 11, 1528403803.359, 155, 0, 1024, 1024, 1024, 1024, 0, 6, 4295, 4293, 4285, 4299, 4301, 4299, 0, 1, 3140, -90.000, 0.000, -34.900, 0.000, 0.000, 0.000, 0.0, MapPilot_2.8.1_04242018, Dendroctonus I, 1.3.1.00, 041DDC1887, 1058163200468, 98, Photo, Starting Mission from Lat/Long: 38.74483/-120.40879 Camera: Zenmuse X3 - Overlap: 90/90 - Active Connection: No, 13, 13, 13
38.7448311, -120.4087935, 0.000, 13:36:43.420, 10, 0.10, 0.08, 98, 0.600, -1.400, -31.200, 368, 100, 100, 23, 25778, -1174, 5418, 5529, 9, 11, 1528403803.421, 58, 0, 1024, 1024, 1024, 1024, 0, 6, 4295, 4293, 4285, 4299, 4301, 4299, 0, 1, 3201, -89.900, 0.000, -34.800, 0.000, -0.100, -0.200, 0.0, , , , , , 98, , , 13, 13, 13
38.7448312, -120.4087936, 0.000, 13:36:43.520, 10, 0.10, 0.09, 98, 0.400, -0.400, -31.200, 368, 100, 100, 23, 25475, -4780, 5418, 5529, 9, 11, 1528403803.520, 82, 0, 1024, 1024, 1024, 1024, 0, 6, 4153, 4293, 4285, 4299, 4301, 4299, 0, 1, 3301, -89.900, 0.000, -34.700, 0.000, -0.100, -0.300, 0.0, , , , , , 98, , , 13, 13, 13
38.7448313, -120.4087939, 0.000, 13:36:43.620, 10, 0.10, 0.11, 98, 0.500, 0.500, -31.500, 368, 100, 100, 23, 25475, -4780, 5418, 5529, 9, 11, 1528403803.621, 46, 0, 1024, 1024, 1024, 1024, 0, 6, 4153, 4293, 4285, 4299, 4301, 4299, 0, 1, 3401, -89.900, 0.000, -34.500, 0.000, -0.100, -0.400, 0.0, , , , , , 98, , , 13, 13, 13
38.7448313, -120.4087940, 0.100, 13:36:43.720, 10, 0.00, 0.12, 98, 0.600, 0.700, -31.800, 368, 100, 100, 23, 25475, -4780, 5418, 5529, 9, 11, 1528403803.721, 48, 0, 1024, 1024, 1024, 1024, 0, 6, 4153, 4293, 4285, 4299, 4301, 4299, 0, 1, 3501, -89.900, 0.000, -34.500, 0.000, 0.000, -0.400, 0.0, , , , , , 98, , , 13, 13, 13
38.7448314, -120.4087941, 0.100, 13:36:43.820, 10, 0.00, 0.13, 98, 0.500, 0.700, -32.100, 368, 100, 100, 23, 25475, -4780, 5418, 5529, 9, 11, 1528403803.820, 34, 0, 1024, 1024, 1024, 1024, 0, 6, 4153, 4293, 4285, 4299, 4301, 4299, 0, 1, 3601, -89.900, 0.000, -34.400, 0.000, 0.000, -0.400, 0.0, , , , , , 98, , , 13, 13, 13
38.7448315, -120.4087942, 0.200, 13:36:43.919, 10, 0.00, 0.14, 98, 0.300, 0.800, -32.400, 368, 100, 100, 23, 25475, -4780, 5418, 5529, 9, 11, 1528403803.920, 33, 0, 1024, 1024, 1024, 1024, 0, 6, 4153, 4293, 4285, 4299, 4301, 4299, 0, 1, 3701, -89.900, 0.000, -34.300, 0.000, 0.000, -0.400, 0.0, , , , , , 98, , , 13, 13, 13
38.7448315, -120.4087942, 0.200, 13:36:44.020, 10, 0.00, 0.15, 98, 0.000, 0.800, -32.500, 368, 100, 100, 23, 25475, -4780, 5418, 5529, 9, 11, 1528403804.021, 27, 0, 1024, 1024, 1024, 1024, 0, 6, 4153, 4293, 4285, 4299, 4301, 4299, 0, 1, 3801, -89.900, 0.000, -34.200, 0.000, 0.000, -0.400, 0.0, , , , , , 98, , , 13, 13, 13
38.7448315, -120.4087942, 0.200, 13:36:44.120, 10, 0.00, 0.15, 98, 0.000, 0.800, -32.500, 368, 100, 100, 23, 25475, -4780, 5418, 5529, 9, 11, 1528403804.120, 126, 0, 1024, 1024, 1024, 1024, 0, 6, 4153, 4293, 4285, 4299, 4301, 4299, 0, 1, 3901, -89.900, 0.000, -34.200, 0.000, 0.000, -0.400, 0.0, , , , , , 98, , , 13, 13, 13
38.7448315, -120.4087943, 0.300, 13:36:44.220, 10, 0.00, 0.15, 98, 0.100, 0.700, -32.500, 368, 100, 100, 23, 25475, -4780, 5418, 5529, 9, 11, 1528403804.222, 17, 0, 1024, 1024, 1024, 1024, 0, 6, 4153, 4293, 4285, 4299, 4301, 4299, 0, 1, 4002, -89.900, 0.000, -34.100, 0.000, 0.000, -0.400, 0.0, , , , , , 98, , , 13, 13, 13
38.7448314, -120.4087944, 0.400, 13:36:44.319, 10, 0.00, 0.15, 98, 0.400, 0.600, -32.400, 368, 100, 100, 23, 25191, -15305, 5418, 5529, 9, 11, 1528403804.320, 11, 0, 1024, 1024, 1024, 1024, 0, 6, 4153, 4293, 4285, 4299, 4301, 4299, 0, 1, 4100, -89.900, 0.000, -34.000, 0.000, 0.000, -0.400, 0.0, , , , , , 98, , , 13, 13, 13
38.7448314, -120.4087944, 0.400, 13:36:44.422, 10, 0.00, 0.15, 98, 0.500, 0.400, -32.100, 368, 100, 100, 23, 25191, -15305, 5418, 5529, 9, 11, 1528403804.422, 17, 0, 1024, 1024, 1024, 1024, 0, 6, 4005, 4141, 4118, 4160, 4163, 4180, 0, 1, 4203, -89.900, 0.000, -34.000, 0.000, 0.000, -0.400, 0.0, , , , , , 98, , , 13, 13, 13
38.7448314, -120.4087945, 0.500, 13:36:44.520, 10, 0.00, 0.15, 98, 0.400, 0.400, -31.900, 368, 100, 100, 23, 25191, -15305, 5418, 5529, 9, 11, 1528403804.521, 15, 0, 1024, 1024, 1024, 1024, 0, 6, 4005, 4141, 4118, 4160, 4163, 4180, 0, 1, 4301, -89.900, 0.000, -33.900, 0.000, 0.000, -0.400, 0.0, , , , , , 98, , , 13, 13, 13
38.7448314, -120.4087945, 0.500, 13:36:44.620, 10, 0.00, 0.15, 98, 0.400, 0.400, -31.900, 368, 100, 100, 23, 25191, -15305, 5418, 5529, 9, 11, 1528403804.620, 114, 0, 1024, 1024, 1024, 1024, 0, 6, 4005, 4141, 4118, 4160, 4163, 4180, 0, 1, 4401, -89.900, 0.000, -33.900, 0.000, 0.000, -0.400, 0.0, , , , , , 98, , , 13, 13, 13
38.7448314, -120.4087944, 0.500, 13:36:44.720, 10, 0.00, 0.15, 98, 0.400, 0.300, -31.700, 368, 100, 100, 23, 25191, -15305, 5418, 5529, 9, 11, 1528403804.721, 96, 0, 1024, 1024, 1024, 1024, 0, 6, 4005, 4141, 4118, 4160, 4163, 4180, 0, 1, 4501, -89.900, 0.000, -33.900, 0.000, 0.000, -0.400, 0.0, , , , , , 98, , , 13, 13, 13
38.7448314, -120.4087943, 0.600, 13:36:44.820, 10, 0.00, 0.14, 98, 0.400, 0.100, -31.600, 368, 100, 100, 23, 25191, -15305, 5418, 5529, 9, 11, 1528403804.821, 97, 0, 1024, 1024, 1024, 1024, 0, 6, 4005, 4141, 4118, 4160, 4163, 4180, 0, 1, 4601, -89.900, 0.000, -33.800, 0.000, 0.000, -0.400, 0.0, , , , , , 98, , , 13, 13, 13
38.7448313, -120.4087945, 0.600, 13:36:44.920, 10, 0.00, 0.14, 98, 0.200, 0.100, -31.600, 368, 100, 100, 23, 25191, -15305, 5418, 5529, 9, 11, 1528403804.920, 55, 0, 1024, 1024, 1024, 1024, 0, 6, 4005, 4141, 4118, 4160, 4163, 4180, 0, 1, 4701, -89.900, 0.000, -33.800, 0.000, 0.000, -0.500, 0.0, , , , , , 98, , , 13, 13, 13
38.7448311, -120.4087948, 0.700, 13:36:45.020, 10, 0.00, 0.15, 98, 0.200, 0.200, -31.600, 368, 100, 100, 23, 25191, -15305, 5418, 5529, 9, 11, 1528403805.020, 83, 0, 1024, 1024, 1024, 1024, 0, 6, 4005, 4141, 4118, 4160, 4163, 4180, 0, 1, 4801, -89.900, 0.000, -33.700, 0.000, 0.000, -0.500, 0.0, , , , , , 98, , , 13, 13, 13
38.7448309, -120.4087949, 0.700, 13:36:45.119, 10, 0.00, 0.16, 98, 0.700, 0.300, -31.600, 368, 100, 100, 23, 25191, -15305, 5418, 5529, 9, 11, 1528403805.120, 82, 0, 1024, 1024, 1024, 1024, 0, 6, 4005, 4141, 4118, 4160, 4163, 4180, 0, 1, 4901, -89.900, 0.000, -33.700, 0.000, 0.000, -0.400, 0.0, , , , , , 98, , , 13, 13, 13
38.7448309, -120.4087949, 0.800, 13:36:45.219, 10, 0.00, 0.15, 98, 0.900, 0.100, -31.600, 368, 100, 100, 23, 25191, -15305, 5418, 5529, 9, 11, 1528403805.220, 77, 0, 1024, 1024, 1024, 1024, 0, 6, 4005, 4141, 4118, 4160, 4163, 4180, 0, 1, 5000, -89.900, 0.000, -33.600, 0.000, 0.000, -0.400, 0.0, , , , , , 98, , , 13, 13, 13
38.7448308, -120.4087948, 0.800, 13:36:45.320, 10, 0.00, 0.14, 98, 0.900, 0.000, -31.500, 368, 100, 100, 23, 25191, -15305, 5418, 5529, 9, 11, 1528403805.321, 80, 0, 1024, 1024, 1024, 1024, 0, 6, 4005, 4141, 4118, 4160, 4163, 4180, 0, 1, 5101, -89.900, 0.000, -33.600, 0.000, 0.000, -0.400, 0.0, , , , , , 98, , , 13, 13, 13
38.7448308, -120.4087947, 0.900, 13:36:45.420, 10, 0.00, 0.14, 98, 0.800, -0.100, -31.400, 368, 100, 100, 23, 23821, -16702, 5418, 5529, 9, 6, 1528403805.421, 79, 0, 1024, 1024, 1024, 1024, 0, 6, 4005, 4141, 4118, 4160, 4163, 4180, 0, 1, 5201, -89.900, 0.000, -33.600, 0.000, 0.000, -0.500, 0.0, , , , , , 98, , , 13, 13, 13
38.7448309, -120.4087945, 0.900, 13:36:45.520, 10, 0.00, 0.12, 98, 0.500, -0.200, -31.300, 368, 100, 100, 23, 23821, -16702, 5418, 5529, 9, 14, 1528403805.520, 80, 0, 1024, 1024, 1024, 1024, 0, 6, 3955, 3959, 3945, 3970, 3988, 4012, 0, 1, 5301, -89.900, 0.000, -33.500, 0.000, 0.000, -0.400, 0.0, , , , , , 98, , , 13, 13, 13
38.7448309, -120.4087943, 1.000, 13:36:45.620, 10, 0.00, 0.11, 98, -0.100, -0.400, -31.200, 368, 100, 100, 23, 23821, -16702, 5418, 5529, 9, 14, 1528403805.621, 58, 0, 1024, 1024, 1024, 1024, 0, 6, 3955, 3959, 3945, 3970, 3988, 4012, 0, 1, 5401, -90.000, 0.000, -33.500, 0.000, 0.000, -0.300, 0.0, , , , , , 98, , , 13, 13, 13
38.7448309, -120.4087942, 1.000, 13:36:45.720, 10, 0.00, 0.10, 98, -1.100, -0.500, -30.900, 368, 100, 100, 23, 23821, -16702, 5418, 5529, 9, 14, 1528403805.720, 32, 0, 1024, 1024, 1024, 1024, 0, 6, 3955, 3959, 3945, 3970, 3988, 4012, 0, 1, 5501, -90.000, 0.000, -33.400, 0.000, 0.000, -0.300, 0.0, , , , , , 98, , , 13, 13, 13
38.7448309, -120.4087941, 1.000, 13:36:45.820, 11, 0.00, 0.09, 98, -0.900, -0.400, -30.900, 368, 100, 100, 23, 23821, -16702, 5418, 5529, 9, 14, 1528403805.820, 58, 0, 1024, 1024, 1024, 1024, 0, 6, 3955, 3959, 3945, 3970, 3988, 4012, 0, 1, 5601, -89.900, 0.000, -33.300, 0.000, 0.000, -0.300, 0.0, , , , , , 98, , , 13, 13, 13
38.7448310, -120.4087940, 1.100, 13:36:45.920, 11, 0.00, 0.09, 98, -0.800, -0.300, -30.900, 368, 100, 100, 23, 23821, -16702, 5418, 5529, 9, 14, 1528403805.922, 49, 0, 1024, 1024, 1024, 1024, 0, 6, 3955, 3959, 3945, 3970, 3988, 4012, 0, 1, 5702, -89.900, 0.000, -33.300, 0.000, 0.000, -0.400, 0.0, , , , , , 98, , , 13, 13, 13
38.7448311, -120.4087939, 1.100, 13:36:46.020, 11, 0.00, 0.09, 98, -0.900, -0.100, -31.000, 368, 100, 100, 23, 23821, -16702, 5418, 5529, 9, 14, 1528403806.020, 51, 0, 1024, 1024, 1024, 1024, 0, 6, 3955, 3959, 3945, 3970, 3988, 4012, 0, 1, 5801, -89.900, 0.000, -33.200, 0.000, 0.000, -0.600, 0.0, , , , , , 98, , , 13, 13, 13
38.7448310, -120.4087938, 1.200, 13:36:46.119, 11, 0.00, 0.08, 98, -0.900, -0.100, -31.100, 368, 100, 100, 23, 23821, -16702, 5418, 5529, 9, 14, 1528403806.119, 53, 0, 1024, 1024, 1024, 1024, 0, 6, 3955, 3959, 3945, 3970, 3988, 4012, 0, 1, 5900, -89.900, 0.000, -33.200, 0.000, 0.000, -0.800, 0.0, , , , , , 98, , , 13, 13, 13
38.7448310, -120.4087938, 1.300, 13:36:46.220, 11, 0.00, 0.08, 98, -0.900, -0.100, -31.200, 368, 100, 100, 23, 23821, -16702, 5418, 5529, 9, 14, 1528403806.221, 33, 0, 1024, 1024, 1024, 1024, 0, 6, 3955, 3959, 3945, 3970, 3988, 4012, 0, 1, 6001, -89.900, 0.000, -33.100, 0.000, 0.000, -1.000, 0.0, , , , , , 98, , , 13, 13, 13
38.7448310, -120.4087937, 1.400, 13:36:46.320, 11, 0.00, 0.08, 98, -0.900, -0.200, -31.300, 368, 100, 100, 23, 23782, -15984, 5418, 5529, 9, 14, 1528403806.321, 50, 0, 1024, 1024, 1024, 1024, 0, 6, 3955, 3959, 3945, 3970, 3988, 4012, 0, 1, 6101, -89.900, 0.000, -33.100, 0.000, 0.000, -1.200, 0.0, , , , , , 98, , , 13, 13, 13
38.7448310, -120.4087937, 1.600, 13:36:46.420, 10, 0.00, 0.08, 98, -0.800, -0.300, -31.400, 368, 100, 100, 23, 23782, -15984, 5418, 5529, 9, 14, 1528403806.421, 29, 0, 1024, 1024, 1024, 1024, 0, 6, 3938, 3934, 3946, 4032, 3982, 3977, 0, 1, 6201, -89.900, 0.000, -33.000, 0.000, 0.000, -1.400, 0.0, , , , , , 98, , , 13, 13, 13
38.7448311, -120.4087936, 1.700, 13:36:46.519, 10, 0.00, 0.08, 98, -0.900, -0.300, -31.400, 368, 100, 100, 23, 23782, -15984, 5418, 5529, 9, 14, 1528403806.521, 34, 0, 1024, 1024, 1024, 1024, 0, 6, 3938, 3934, 3946, 4032, 3982, 3977, 0, 1, 6301, -89.900, 0.000, -33.000, 0.000, 0.000, -1.600, 0.0, , , , , , 98, , , 13, 13, 13
38.7448311, -120.4087935, 1.900, 13:36:46.620, 10, 0.00, 0.08, 98, -1.000, -0.200, -31.400, 368, 100, 100, 23, 23782, -15984, 5418, 5529, 9, 14, 1528403806.620, 25, 0, 1024, 1024, 1024, 1024, 0, 6, 3938, 3934, 3946, 4032, 3982, 3977, 0, 1, 6401, -89.900, 0.000, -33.000, 0.000, 0.000, -1.800, 0.0, , , , , , 98, , , 13, 13, 13
38.7448312, -120.4087934, 2.100, 13:36:46.720, 10, 0.00, 0.09, 98, -0.900, 0.000, -31.300, 368, 100, 100, 23, 23782, -15984, 5418, 5529, 9, 14, 1528403806.720, 9, 0, 1024, 1024, 1024, 1024, 0, 6, 3938, 3934, 3946, 4032, 3982, 3977, 0, 1, 6501, -89.900, 0.000, -32.900, 0.000, 0.000, -2.000, 0.0, , , , , , 98, , , 13, 13, 13
38.7448313, -120.4087934, 2.300, 13:36:46.820, 11, 0.00, 0.09, 98, -1.000, 0.100, -31.200, 368, 100, 100, 23, 23782, -15984, 5418, 5529, 9, 14, 1528403806.821, 30, 0, 1024, 1024, 1024, 1024, 0, 6, 3938, 3934, 3946, 4032, 3982, 3977, 0, 1, 6602, -89.900, 0.000, -32.900, 0.000, 0.000, -2.300, 0.0, , , , , , 98, , , 13, 13, 13
38.7448313, -120.4087933, 2.600, 13:36:46.920, 11, 0.00, 0.09, 98, -1.000, 0.100, -31.000, 368, 100, 100, 23, 23782, -15984, 5418, 5529, 9, 14, 1528403806.921, 25, 0, 1024, 1024, 1024, 1024, 0, 6, 3938, 3934, 3946, 4032, 3982, 3977, 0, 1, 6701, -89.900, 0.000, -32.900, 0.000, 0.000, -2.500, 0.0, , , , , , 98, , , 13, 13, 13
38.7448312, -120.4087934, 2.900, 13:36:47.019, 10, 0.00, 0.08, 98, -0.800, -0.100, -30.900, 368, 100, 100, 23, 23782, -15984, 5418, 5529, 9, 14, 1528403807.020, 13, 0, 1024, 1024, 1024, 1024, 0, 6, 3938, 3934, 3946, 4032, 3982, 3977, 0, 1, 6800, -89.900, 0.000, -32.800, 0.000, 0.000, -2.800, 0.0, , , , , , 98, , , 13, 13, 13
38.7448312, -120.4087934, 2.900, 13:36:47.120, 10, 0.00, 0.08, 98, -0.800, -0.100, -30.900, 368, 100, 100, 23, 23782, -15984, 5418, 5529, 9, 14, 1528403807.120, 113, 0, 1024, 1024, 1024, 1024, 0, 6, 3938, 3934, 3946, 4032, 3982, 3977, 0, 1, 6900, -89.900, 0.000, -32.800, 0.000, 0.000, -2.800, 0.0, , , , , , 98, , , 13, 13, 13
38.7448310, -120.4087936, 3.500, 13:36:47.219, 10, 0.00, 0.07, 98, 0.000, -0.200, -30.900, 368, 100, 100, 23, 23782, -15984, 5418, 5529, 9, 14, 1528403807.221, 14, 0, 1024, 1024, 1024, 1024, 0, 6, 3938, 3934, 3946, 4032, 3982, 3977, 0, 1, 7002, -89.900, 0.000, -32.800, 0.000, 0.000, -3.100, 0.0, , , , , , 98, , , 13, 13, 13
38.7448309, -120.4087935, 3.800, 13:36:47.323, 10, 0.00, 0.05, 98, 0.300, -0.400, -30.900, 368, 100, 100, 23, 23782, -15984, 5418, 5529, 9, 14, 1528403807.324, 5, 0, 1024, 1024, 1024, 1024, 0, 6, 3938, 3934, 3946, 4032, 3982, 3977, 0, 1, 7104, -89.900, 0.000, -32.800, 0.000, 0.000, -3.100, 0.0, , , , , , 98, , , 13, 13, 13
38.7448309, -120.4087935, 3.800, 13:36:47.420, 10, 0.00, 0.05, 98, 0.300, -0.400, -30.900, 368, 100, 100, 23, 23239, -22475, 5418, 5529, 9, 14, 1528403807.420, 101, 0, 1024, 1024, 1024, 1024, 0, 6, 3843, 3831, 3839, 3873, 3870, 3861, 0, 1, 7201, -90.000, 0.000, -32.800, 0.000, 0.000, -3.100, 0.0, , , , , , 98, , , 13, 13, 13
38.7448308, -120.4087934, 4.100, 13:36:47.519, 10, 0.00, 0.04, 98, 0.300, -0.600, -30.900, 368, 100, 100, 23, 23239, -22475, 5418, 5529, 9, 14, 1528403807.520, 74, 0, 1024, 1024, 1024, 1024, 0, 6, 3843, 3831, 3839, 3873, 3870, 3861, 0, 1, 7300, -90.000, 0.000, -32.700, 0.000, 0.000, -3.100, 0.0, , , , , , 98, , , 13, 13, 13
38.7448306, -120.4087934, 4.400, 13:36:47.620, 10, 0.00, 0.02, 98, 0.100, -0.800, -31.000, 368, 100, 100, 23, 23239, -22475, 5418, 5529, 9, 14, 1528403807.622, 79, 0, 1024, 1024, 1024, 1024, 0, 6, 3843, 3831, 3839, 3873, 3870, 3861, 0, 1, 7402, -90.000, 0.000, -32.700, 0.000, 0.000, -3.200, 0.0, , , , , , 98, , , 13, 13, 13
38.7448304, -120.4087932, 4.800, 13:36:47.720, 10, 0.00, 0.00, 98, 0.000, -1.100, -31.100, 368, 100, 100, 23, 23239, -22475, 5418, 5529, 9, 14, 1528403807.720, 79, 0, 1024, 1024, 1024, 1024, 0, 6, 3843, 3831, 3839, 3873, 3870, 3861, 0, 1, 7500, -90.000, 0.000, -32.700, 0.000, 0.000, -3.200, 0.0, , , , , , 98, , , 13, 13, 13
38.7448302, -120.4087931, 5.100, 13:36:47.820, 10, 0.00, 0.03, 98, -0.100, -1.300, -31.100, 368, 100, 100, 23, 23239, -22475, 5418, 5529, 9, 14, 1528403807.820, 64, 0, 1024, 1024, 1024, 1024, 0, 6, 3843, 3831, 3839, 3873, 3870, 3861, 0, 1, 7601, -90.000, 0.000, -32.700, 0.000, 0.000, -3.200, 0.0, , , , , , 98, , , 13, 13, 13
38.7448300, -120.4087929, 5.500, 13:36:47.920, 10, 0.00, 0.05, 98, -0.100, -1.600, -31.100, 368, 100, 100, 23, 23239, -22475, 5418, 5529, 9, 14, 1528403807.921, 65, 0, 1024, 1024, 1024, 1024, 0, 6, 3843, 3831, 3839, 3873, 3870, 3861, 0, 1, 7701, -90.000, 0.000, -32.600, 0.000, 0.000, -3.200, 0.0, , , , , , 98, , , 13, 13, 13
38.7448299, -120.4087929, 5.800, 13:36:48.020, 10, 0.00, 0.07, 98, -0.100, -1.900, -31.100, 368, 100, 98, 23, 23239, -22475, 5418, 5529, 9, 14, 1528403808.021, 68, 0, 1024, 1024, 1024, 1024, 0, 6, 3843, 3831, 3839, 3873, 3870, 3861, 0, 1, 7801, -90.000, 0.000, -32.600, 0.000, 0.000, -3.200, 0.0, , , , , , 98, , , 13, 13, 13
38.7448294, -120.4087926, 6.500, 13:36:48.120, 9, 0.00, 0.12, 98, -0.100, -1.800, -31.100, 368, 100, 98, 23, 23239, -22475, 5418, 5529, 9, 14, 1528403808.121, 50, 0, 1024, 1024, 1024, 1024, 0, 6, 3843, 3831, 3839, 3873, 3870, 3861, 0, 1, 7901, -90.000, 0.000, -32.600, 0.000, 0.000, -3.200, 0.0, , , , , , 98, , , 13, 13, 13
38.7448293, -120.4087925, 6.800, 13:36:48.220, 10, 0.00, 0.14, 98, -0.100, -2.200, -31.100, 368, 100, 98, 23, 23239, -22475, 5418, 5529, 9, 14, 1528403808.221, 69, 0, 1024, 1024, 1024, 1024, 0, 6, 3843, 3831, 3839, 3873, 3870, 3861, 0, 1, 8001, -90.000, 0.000, -32.600, 0.000, 0.000, -3.200, 0.0, , , , , , 98, , , 13, 13, 13
38.7448294, -120.4087923, 7.200, 13:36:48.320, 10, 0.00, 0.14, 98, -0.400, -2.300, -31.100, 368, 100, 98, 23, 23239, -22475, 5418, 5529, 9, 14, 1528403808.320, 71, 0, 1024, 1024, 1024, 1024, 0, 6, 3843, 3831, 3839, 3873, 3870, 3861, 0, 1, 8101, -89.900, 0.000, -32.500, 0.000, 0.000, -3.200, 0.0, , , , , , 98, , , 13, 13, 13
38.7448295, -120.4087922, 7.500, 13:36:48.420, 10, 0.00, 0.13, 98, -0.700, -2.000, -31.100, 368, 100, 98, 23, 23142, -23414, 5418, 5529, 9, 14, 1528403808.420, 49, 0, 1024, 1024, 1024, 1024, 0, 6, 3843, 3831, 3839, 3873, 3870, 3861, 0, 1, 8200, -89.900, 0.000, -32.500, 0.000, 0.000, -3.100, 0.0, , , , , , 98, , , 13, 13, 13
38.7448297, -120.4087921, 7.800, 13:36:48.519, 10, 0.00, 0.12, 98, -1.000, -1.300, -31.100, 368, 100, 98, 23, 23142, -23414, 5418, 5529, 9, 14, 1528403808.520, 36, 0, 1024, 1024, 1024, 1024, 0, 6, 3843, 3831, 3839, 3873, 3870, 3861, 0, 1, 8301, -89.900, 0.000, -32.500, 0.000, 0.000, -3.100, 0.0, , , , , , 98, , , 13, 13, 13
38.7448300, -120.4087921, 8.200, 13:36:48.620, 10, 0.10, 0.11, 98, -1.200, -0.600, -31.100, 368, 100, 98, 23, 23142, -23414, 5418, 5529, 9, 14, 1528403808.621, 40, 0, 1024, 1024, 1024, 1024, 0, 6, 3843, 3831, 3839, 3873, 3870, 3861, 0, 1, 8401, -89.900, 0.000, -32.500, 0.100, 0.000, -3.100, 0.0, , , , , , 98, , , 13, 13, 13
38.7448302, -120.4087922, 8.500, 13:36:48.720, 10, 0.10, 0.09, 98, -1.300, 0.000, -31.100, 368, 100, 98, 23, 23142, -23414, 5418, 5529, 9, 14, 1528403808.722, 21, 0, 1024, 1024, 1024, 1024, 0, 6, 3843, 3831, 3839, 3873, 3870, 3861, 0, 1, 8503, -89.900, 0.000, -32.400, 0.100, 0.000, -3.100, 0.0, , , , , , 98, , , 13, 13, 13
38.7448304, -120.4087924, 8.800, 13:36:48.820, 10, 0.14, 0.07, 98, -1.300, 0.500, -31.100, 368, 100, 98, 23, 23142, -23414, 5418, 5529, 9, 14, 1528403808.821, 45, 0, 1024, 1024, 1024, 1024, 0, 6, 3866, 3863, 3858, 3864, 3857, 3899, 0, 1, 8601, -89.900, 0.000, -32.400, 0.100, -0.100, -3.100, 0.0, , , , , , 98, , , 13, 13, 13
38.7448306, -120.4087926, 9.100, 13:36:48.919, 10, 0.14, 0.06, 98, -1.100, 0.900, -31.200, 368, 100, 98, 23, 23142, -23414, 5418, 5529, 9, 14, 1528403808.920, 33, 0, 1024, 1024, 1024, 1024, 0, 6, 3866, 3863, 3858, 3864, 3857, 3899, 0, 1, 8700, -89.900, 0.000, -32.400, 0.100, -0.100, -3.100, 0.0, , , , , , 98, , , 13, 13, 13
38.7448306, -120.4087931, 9.500, 13:36:49.019, 11, 0.10, 0.02, 98, -0.800, 1.200, -31.300, 368, 100, 98, 23, 23142, -23414, 5418, 5529, 9, 14, 1528403809.020, 18, 0, 1024, 1024, 1024, 1024, 0, 6, 3866, 3863, 3858, 3864, 3857, 3899, 0, 1, 8800, -89.900, 0.000, -32.400, 0.000, -0.100, -3.100, 0.0, , , , , , 98, , , 13, 13, 13
38.7448306, -120.4087931, 9.500, 13:36:49.120, 11, 0.10, 0.02, 98, -0.800, 1.200, -31.300, 368, 100, 98, 23, 23142, -23414, 5418, 5529, 9, 14, 1528403809.120, 118, 0, 1024, 1024, 1024, 1024, 0, 6, 3866, 3863, 3858, 3864, 3857, 3899, 0, 1, 8901, -89.900, 0.000, -32.400, 0.000, -0.100, -3.100, 0.0, , , , , , 98, , , 13, 13, 13
38.7448302, -120.4087942, 10.100, 13:36:49.220, 10, 0.20, 0.09, 98, 1.600, 0.600, -31.300, 368, 100, 98, 23, 23142, -23414, 5418, 5529, 9, 14, 1528403809.220, 17, 0, 1024, 1024, 1024, 1024, 0, 6, 3866, 3863, 3858, 3864, 3857, 3899, 0, 1, 9001, -89.900, 0.000, -32.400, 0.000, -0.200, -3.000, 0.0, , , , , , 98, , , 13, 13, 13
38.7448303, -120.4087944, 10.400, 13:36:49.321, 10, 0.10, 0.10, 98, 2.500, 0.300, -31.300, 368, 100, 98, 24, 23142, -23414, 5418, 5529, 9, 14, 1528403809.321, 7, 0, 1024, 1024, 1024, 1024, 0, 6, 3866, 3863, 3858, 3864, 3857, 3899, 0, 1, 9102, -89.900, 0.000, -32.400, 0.000, -0.100, -3.000, 0.0, , , , , , 98, , , 13, 13, 13
38.7448305, -120.4087945, 10.700, 13:36:49.419, 10, 0.10, 0.11, 98, 2.300, 0.300, -31.300, 368, 100, 100, 24, 23142, -23414, 5418, 5529, 9, 14, 1528403809.420, 23, 0, 1024, 1024, 1024, 1024, 0, 6, 3866, 3863, 3858, 3864, 3857, 3899, 0, 1, 9200, -89.900, 0.000, -32.300, 0.000, -0.100, -3.000, 0.0, , , , , , 98, , , 13, 13, 13
38.7448308, -120.4087945, 11.000, 13:36:49.518, 10, 0.00, 0.12, 98, 1.500, 0.400, -31.200, 368, 100, 100, 24, 23142, -23414, 5418, 5529, 9, 14, 1528403809.519, 23, 0, 1024, 1024, 1024, 1024, 0, 6, 3866, 3863, 3858, 3864, 3857, 3899, 0, 1, 9299, -89.900, 0.000, -32.300, 0.000, 0.000, -3.000, 0.0, , , , , , 98, , , 13, 13, 13
38.7448308, -120.4087945, 11.000, 13:36:49.620, 10, 0.00, 0.12, 98, 1.500, 0.400, -31.200, 368, 100, 100, 24, 23142, -23414, 5418, 5529, 9, 14, 1528403809.620, 124, 0, 1024, 1024, 1024, 1024, 0, 6, 3866, 3863, 3858, 3864, 3857, 3899, 0, 1, 9401, -89.900, 0.000, -32.300, 0.000, 0.000, -3.000, 0.0, , , , , , 98, , , 13, 13, 13
38.7448310, -120.4087946, 11.300, 13:36:49.719, 10, 0.00, 0.13, 98, 0.600, 0.700, -31.200, 368, 100, 100, 24, 23142, -23414, 5418, 5529, 9, 14, 1528403809.720, 86, 0, 1024, 1024, 1024, 1024, 0, 6, 3866, 3863, 3858, 3864, 3857, 3899, 0, 1, 9501, -89.900, 0.000, -32.300, 0.000, 0.000, -3.000, 0.0, , , , , , 98, , , 13, 13, 13
38.7448312, -120.4087947, 11.600, 13:36:49.819, 10, 0.00, 0.15, 98, 0.000, 1.100, -31.100, 368, 100, 100, 24, 23142, -23414, 5418, 5529, 9, 14, 1528403809.820, 79, 0, 1024, 1024, 1024, 1024, 0, 6, 3866, 3863, 3858, 3864, 3857, 3899, 0, 1, 9601, -89.900, 0.000, -32.300, 0.000, 0.000, -2.900, 0.0, , , , , , 98, , , 13, 13, 13
38.7448318, -120.4087948, 12.300, 13:36:49.931, 10, 0.00, 0.20, 98, -0.400, 1.800, -30.800, 368, 100, 100, 24, 23329, -19549, 5418, 5529, 9, 14, 1528403809.931, 10, 0, 1024, 1024, 1024, 1024, 0, 6, 3866, 3863, 3858, 3864, 3857, 3899, 0, 1, 9712, -89.900, 0.000, -32.300, 0.000, 0.000, -3.000, 0.0, , , , , , 98, , , 13, 13, 13
38.7448318, -120.4087948, 12.300, 13:36:50.019, 10, 0.00, 0.20, 98, -0.400, 1.800, -30.800, 368, 100, 100, 24, 23329, -19549, 5418, 5529, 9, 14, 1528403810.020, 99, 0, 1024, 1024, 1024, 1024, 0, 6, 3887, 3877, 3876, 3892, 3878, 3916, 0, 1, 9801, -89.900, 0.000, -32.300, 0.000, 0.000, -3.000, 0.0, , , , , , 98, , , 13, 13, 13
38.7448320, -120.4087948, 12.600, 13:36:50.119, 10, 0.00, 0.22, 98, -0.800, 1.600, -30.700, 368, 100, 100, 24, 23329, -19549, 5418, 5529, 9, 14, 1528403810.120, 85, 0, 1024, 1024, 1024, 1024, 0, 6, 3887, 3877, 3876, 3892, 3878, 3916, 0, 1, 9900, -89.900, 0.000, -32.300, 0.000, 0.000, -3.000, 0.0, , , , , , 98, , , 13, 13, 13
38.7448322, -120.4087948, 12.900, 13:36:50.219, 10, 0.00, 0.23, 98, -1.100, 1.600, -30.800, 368, 100, 100, 24, 23329, -19549, 5418, 5529, 9, 14, 1528403810.220, 90, 0, 1024, 1024, 1024, 1024, 0, 6, 3887, 3877, 3876, 3892, 3878, 3916, 0, 1, 10000, -89.900, 0.000, -32.200, 0.000, 0.000, -2.900, 0.0, , , , , , 98, , , 13, 13, 13
38.7448323, -120.4087947, 13.200, 13:36:50.320, 10, 0.00, 0.24, 98, -1.200, 1.300, -30.900, 368, 100, 100, 24, 23329, -19549, 5418, 5529, 9, 14, 1528403810.321, 83, 0, 1024, 1024, 1024, 1024, 0, 6, 3887, 3877, 3876, 3892, 3878, 3916, 0, 1, 10101, -89.900, 0.000, -32.200, 0.000, 0.000, -2.900, 0.0, , , , , , 98, , , 13, 13, 13
38.7448324, -120.4087947, 13.500, 13:36:50.419, 10, 0.00, 0.25, 98, -1.300, 0.900, -31.000, 368, 100, 100, 24, 23329, -19549, 5418, 5529, 9, 14, 1528403810.420, 84, 0, 1024, 1024, 1024, 1024, 0, 6, 3887, 3877, 3876, 3892, 3878, 3916, 0, 1, 10201, -89.900, 0.000, -32.200, 0.000, 0.000, -2.900, 0.0, , , , , , 98, , , 13, 13, 13
38.7448324, -120.4087947, 13.500, 13:36:50.519, 10, 0.00, 0.25, 98, -1.300, 0.900, -31.000, 368, 100, 100, 24, 23329, -19549, 5418, 5529, 9, 14, 1528403810.520, 184, 0, 1024, 1024, 1024, 1024, 0, 6, 3887, 3877, 3876, 3892, 3878, 3916, 0, 1, 10300, -89.900, 0.000, -32.200, 0.000, 0.000, -2.900, 0.0, , , , , , 98, , , 13, 13, 13
38.7448326, -120.4087946, 14.100, 13:36:50.619, 10, 0.00, 0.27, 98, -1.500, 0.800, -31.100, 368, 100, 100, 24, 23329, -19549, 5418, 5529, 9, 14, 1528403810.621, 89, 0, 1024, 1024, 1024, 1024, 0, 6, 3887, 3877, 3876, 3892, 3878, 3916, 0, 1, 10401, -89.900, 0.000, -32.200, 0.000, 0.000, -2.800, 0.0, , , , , , 98, , , 13, 13, 13
38.7448328, -120.4087945, 14.800, 13:36:50.720, 10, 0.00, 0.28, 98, -1.500, 0.100, -31.100, 368, 100, 100, 24, 23329, -19549, 5418, 5529, 9, 14, 1528403810.721, 51, 0, 1024, 1024, 1024, 1024, 0, 6, 3887, 3877, 3876, 3892, 3878, 3916, 0, 1, 10501, -89.900, 0.000, -32.200, 0.000, 0.000, -2.800, 0.0, , , , , , 98, , , 13, 13, 13
38.7448328, -120.4087944, 15.000, 13:36:50.819, 10, 0.00, 0.28, 98, -1.600, 0.000, -31.100, 368, 100, 100, 24, 23329, -19549, 5418, 5529, 9, 14, 1528403810.820, 53, 0, 1024, 1024, 1024, 1024, 0, 6, 3887, 3877, 3876, 3892, 3878, 3916, 0, 1, 10601, -89.900, 0.000, -32.200, 0.000, 0.000, -2.800, 0.0, , , , , , 98, , , 13, 13, 13
38.7448327, -120.4087944, 15.300, 13:36:50.920, 10, 0.10, 0.27, 98, -1.600, -0.200, -31.000, 368, 100, 100, 24, 23272, -19437, 5418, 5529, 9, 14, 1528403810.921, 72, 0, 1024, 1024, 1024, 1024, 0, 6, 3878, 3863, 3872, 3874, 3880, 3895, 0, 1, 10702, -89.900, 0.000, -32.200, -0.100, 0.000, -2.800, 0.0, , , , , , 98, , , 13, 13, 13
38.7448327, -120.4087943, 15.600, 13:36:51.020, 11, 0.10, 0.27, 98, -1.400, -0.500, -31.000, 368, 100, 100, 24, 23272, -19437, 5418, 5529, 9, 14, 1528403811.021, 48, 0, 1024, 1024, 1024, 1024, 0, 6, 3878, 3863, 3872, 3874, 3880, 3895, 0, 1, 10801, -90.000, 0.000, -32.200, -0.100, 0.000, -2.900, 0.0, , , , , , 98, , , 13, 13, 13
38.7448326, -120.4087942, 15.900, 13:36:51.120, 11, 0.10, 0.26, 98, -1.100, -0.800, -31.100, 368, 100, 100, 24, 23272, -19437, 5418, 5529, 9, 14, 1528403811.121, 30, 0, 1024, 1024, 1024, 1024, 0, 6, 3878, 3863, 3872, 3874, 3880, 3895, 0, 1, 10901, -90.000, 0.000, -32.200, -0.100, 0.000, -2.900, 0.0, , , , , , 98, , , 13, 13, 13
38.7448325, -120.4087942, 16.200, 13:36:51.218, 11, 0.10, 0.25, 98, -0.800, -0.900, -31.200, 368, 100, 100, 24, 23272, -19437, 5418, 5529, 9, 14, 1528403811.219, 42, 0, 1024, 1024, 1024, 1024, 0, 6, 3878, 3863, 3872, 3874, 3880, 3895, 0, 1, 11000, -90.000, 0.000, -32.200, -0.100, 0.000, -2.900, 0.0, , , , , , 98, , , 13, 13, 13
38.7448324, -120.4087943, 16.500, 13:36:51.320, 11, 0.10, 0.23, 98, -0.700, -0.900, -31.200, 368, 100, 100, 24, 23272, -19437, 5418, 5529, 9, 14, 1528403811.321, 39, 0, 1024, 1024, 1024, 1024, 0, 6, 3878, 3863, 3872, 3874, 3880, 3895, 0, 1, 11102, -89.900, 0.000, -32.200, -0.100, 0.000, -2.800, 0.0, , , , , , 98, , , 13, 13, 13
38.7448323, -120.4087943, 16.800, 13:36:51.419, 10, 0.10, 0.22, 98, -0.400, -1.000, -31.300, 368, 100, 100, 24, 23272, -19437, 5418, 5529, 9, 14, 1528403811.421, 46, 0, 1024, 1024, 1024, 1024, 0, 6, 3878, 3863, 3872, 3874, 3880, 3895, 0, 1, 11201, -90.000, 0.000, -32.200, -0.100, 0.000, -2.800, 0.0, , , , , , 98, , , 13, 13, 13
38.7448323, -120.4087943, 16.800, 13:36:51.519, 10, 0.10, 0.22, 98, -0.400, -1.000, -31.300, 368, 100, 100, 24, 23272, -19437, 5418, 5529, 9, 14, 1528403811.520, 145, 0, 1024, 1024, 1024, 1024, 0, 6, 3878, 3863, 3872, 3874, 3880, 3895, 0, 1, 11300, -90.000, 0.000, -32.200, -0.100, 0.000, -2.800, 0.0, , , , , , 98, , , 13, 13, 13
38.7448322, -120.4087943, 17.400, 13:36:51.622, 10, 0.10, 0.21, 98, -0.200, -1.000, -31.300, 368, 100, 100, 24, 23272, -19437, 5418, 5529, 9, 14, 1528403811.623, 14, 0, 1024, 1024, 1024, 1024, 0, 6, 3878, 3863, 3872, 3874, 3880, 3895, 0, 1, 11404, -89.900, 0.000, -32.200, -0.100, 0.000, -2.900, 0.0, , , , , , 98, , , 13, 13, 13
38.7448320, -120.4087943, 17.700, 13:36:51.719, 10, 0.10, 0.20, 98, -0.300, -1.000, -31.300, 368, 100, 100, 24, 23272, -19437, 5418, 5529, 9, 14, 1528403811.720, 13, 0, 1024, 1024, 1024, 1024, 0, 6, 3878, 3863, 3872, 3874, 3880, 3895, 0, 1, 11500, -89.900, 0.000, -32.200, -0.100, 0.000, -2.800, 0.0, , , , , , 98, , , 13, 13, 13
38.7448319, -120.4087944, 17.900, 13:36:51.829, 12, 0.10, 0.19, 98, -0.100, -0.800, -31.200, 368, 100, 100, 24, 23151, -20728, 5418, 5529, 9, 14, 1528403811.830, 7, 0, 1024, 1024, 1024, 1024, 0, 6, 3878, 3863, 3872, 3874, 3880, 3895, 0, 1, 11610, -89.900, 0.000, -32.200, -0.100, 0.000, -2.800, 0.0, , , , , , 98, , , 13, 13, 13
38.7448318, -120.4087943, 18.200, 13:36:51.930, 12, 0.10, 0.18, 98, 0.000, -0.700, -31.200, 368, 100, 100, 24, 23151, -20728, 5418, 5529, 9, 14, 1528403811.931, 12, 0, 1024, 1024, 1024, 1024, 0, 6, 3854, 3848, 3842, 3858, 3863, 3877, 0, 1, 11711, -89.900, 0.000, -32.200, -0.100, 0.000, -2.900, 0.0, , , , , , 98, , , 13, 13, 13
38.7448317, -120.4087943, 18.500, 13:36:52.025, 12, 0.10, 0.17, 98, 0.000, -0.900, -31.200, 368, 100, 100, 24, 23151, -20728, 5418, 5529, 9, 14, 1528403812.025, 5, 0, 1024, 1024, 1024, 1024, 0, 6, 3854, 3848, 3842, 3858, 3863, 3877, 0, 1, 11806, -89.900, 0.000, -32.200, -0.100, 0.000, -2.900, 0.0, , , , , , 98, , , 13, 13, 13
38.7448317, -120.4087943, 18.500, 13:36:52.119, 12, 0.10, 0.17, 98, 0.000, -0.900, -31.200, 368, 100, 100, 24, 23151, -20728, 5418, 5529, 9, 14, 1528403812.120, 100, 0, 1024, 1024, 1024, 1024, 0, 6, 3854, 3848, 3842, 3858, 3863, 3877, 0, 1, 11900, -89.900, 0.000, -32.200, -0.100, 0.000, -2.900, 0.0, , , , , , 98, , , 13, 13, 13
38.7448317, -120.4087943, 18.900, 13:36:52.220, 12, 0.10, 0.17, 98, -0.100, -0.900, -31.300, 368, 100, 100, 24, 23151, -20728, 5418, 5529, 9, 14, 1528403812.221, 96, 0, 1024, 1024, 1024, 1024, 0, 6, 3854, 3848, 3842, 3858, 3863, 3877, 0, 1, 12001, -89.900, 0.000, -32.200, -0.100, 0.000, -3.000, 0.0, , , , , , 98, , , 13, 13, 13
38.7448316, -120.4087943, 19.200, 13:36:52.320, 11, 0.10, 0.16, 98, -0.300, -1.000, -31.200, 368, 100, 100, 24, 23151, -20728, 5418, 5529, 9, 14, 1528403812.320, 73, 0, 1024, 1024, 1024, 1024, 0, 6, 3854, 3848, 3842, 3858, 3863, 3877, 0, 1, 12101, -89.900, 0.000, -32.200, -0.100, 0.000, -3.000, 0.0, , , , , , 98, , , 13, 13, 13
38.7448314, -120.4087943, 19.400, 13:36:52.420, 11, 0.10, 0.15, 98, -0.200, -1.200, -31.200, 368, 100, 100, 24, 23151, -20728, 5418, 5529, 9, 14, 1528403812.421, 85, 0, 1024, 1024, 1024, 1024, 0, 6, 3854, 3848, 3842, 3858, 3863, 3877, 0, 1, 12201, -89.900, 0.000, -32.200, -0.100, 0.000, -2.900, 0.0, , , , , , 98, , , 13, 13, 13
38.7448314, -120.4087943, 19.700, 13:36:52.519, 12, 0.10, 0.14, 98, 0.000, -1.100, -31.100, 368, 100, 99, 24, 23151, -20728, 5418, 5529, 9, 14, 1528403812.520, 86, 0, 1024, 1024, 1024, 1024, 0, 6, 3854, 3848, 3842, 3858, 3863, 3877, 0, 1, 12301, -89.900, 0.000, -32.200, -0.100, 0.000, -2.900, 0.0, , , , , , 98, , , 13, 13, 13
38.7448314, -120.4087943, 20.000, 13:36:52.619, 12, 0.00, 0.14, 98, 0.000, -1.100, -31.000, 368, 100, 99, 24, 23151, -20728, 5418, 5529, 9, 14, 1528403812.620, 17, 0, 1024, 1024, 1024, 1024, 0, 6, 3854, 3848, 3842, 3858, 3863, 3877, 0, 1, 12401, -89.900, 0.000, -32.200, 0.000, 0.000, -2.900, 0.0, , , , , , 98, , , 13, 13, 13
38.7448311, -120.4087940, 20.700, 13:36:52.719, 12, 0.10, 0.10, 98, -0.200, -1.300, -31.100, 368, 100, 99, 24, 23151, -20728, 5418, 5529, 9, 14, 1528403812.720, 43, 0, 1024, 1024, 1024, 1024, 0, 6, 3854, 3848, 3842, 3858, 3863, 3877, 0, 1, 12501, -89.900, 0.000, -32.200, -0.100, 0.000, -3.000, 0.0, , , , , , 98, , , 13, 13, 13
38.7448310, -120.4087940, 21.000, 13:36:52.820, 12, 0.10, 0.09, 98, -0.200, -1.800, -31.100, 368, 100, 99, 24, 23151, -20728, 5418, 5529, 9, 14, 1528403812.820, 14, 0, 1024, 1024, 1024, 1024, 0, 6, 3854, 3848, 3842, 3858, 3863, 3877, 0, 1, 12600, -89.900, 0.000, -32.200, -0.100, 0.000, -3.000, 0.0, , , , , , 98, , , 13, 13, 13
38.7448310, -120.4087940, 21.000, 13:36:52.919, 12, 0.10, 0.09, 98, -0.200, -1.800, -31.100, 368, 100, 99, 24, 23035, -21810, 5363, 5529, 9, 14, 1528403812.920, 113, 0, 1024, 1024, 1024, 1024, 0, 6, 3854, 3848, 3842, 3858, 3863, 3877, 0, 1, 12700, -90.000, 0.000, -32.200, -0.100, 0.000, -3.000, 0.0, , , , , , 98, , , 13, 13, 13
38.7448308, -120.4087939, 21.600, 13:36:53.019, 13, 0.00, 0.08, 98, 0.400, -2.100, -31.000, 368, 100, 99, 24, 23035, -21810, 5363, 5529, 9, 14, 1528403813.020, 52, 0, 1024, 1024, 1024, 1024, 0, 6, 3840, 3829, 3822, 3844, 3832, 3858, 0, 1, 12800, -89.900, 0.000, -32.200, 0.000, 0.000, -3.000, 0.0, , , , , , 98, , , 13, 13, 13
38.7448308, -120.4087939, 21.600, 13:36:53.119, 13, 0.00, 0.08, 98, 0.400, -2.100, -31.000, 368, 100, 99, 24, 23035, -21810, 5363, 5529, 9, 14, 1528403813.120, 152, 0, 1024, 1024, 1024, 1024, 0, 6, 3840, 3829, 3822, 3844, 3832, 3858, 0, 1, 12900, -89.900, 0.000, -32.200, 0.000, 0.000, -3.000, 0.0, , , , , , 98, , , 13, 13, 13
38.7448306, -120.4087939, 22.200, 13:36:53.219, 12, 0.00, 0.06, 98, 0.400, -2.000, -30.800, 368, 100, 99, 24, 23035, -21810, 5363, 5529, 9, 14, 1528403813.220, 51, 0, 1024, 1024, 1024, 1024, 0, 6, 3840, 3829, 3822, 3844, 3832, 3858, 0, 1, 13001, -89.900, 0.000, -32.200, 0.000, 0.000, -2.900, 0.0, , , , , , 98, , , 13, 13, 13
38.7448305, -120.4087938, 22.500, 13:36:53.320, 12, 0.00, 0.05, 98, 0.000, -2.000, -30.800, 368, 100, 99, 24, 23035, -21810, 5363, 5529, 9, 14, 1528403813.320, 25, 0, 1024, 1024, 1024, 1024, 0, 6, 3840, 3829, 3822, 3844, 3832, 3858, 0, 1, 13101, -89.900, 0.000, -32.200, 0.000, 0.000, -2.900, 0.0, , , , , , 98, , , 13, 13, 13
38.7448304, -120.4087938, 22.800, 13:36:53.426, 12, 0.00, 0.05, 98, -0.500, -1.500, -30.900, 368, 100, 97, 24, 23035, -21810, 5363, 5529, 9, 14, 1528403813.427, 35, 0, 1024, 1024, 1024, 1024, 0, 6, 3840, 3829, 3822, 3844, 3832, 3858, 0, 1, 13207, -89.900, 0.000, -32.200, 0.000, 0.000, -2.900, 0.0, , , , , , 98, , , 13, 13, 13
38.7448304, -120.4087937, 23.100, 13:36:53.524, 12, 0.00, 0.04, 98, -1.100, -1.400, -31.300, 368, 100, 97, 24, 23035, -21810, 5363, 5529, 9, 14, 1528403813.524, 5, 0, 1024, 1024, 1024, 1024, 0, 6, 3840, 3829, 3822, 3844, 3832, 3858, 0, 1, 13305, -89.900, 0.000, -32.200, 0.000, 0.000, -2.900, 0.0, , , , , , 98, , , 13, 13, 13
38.7448304, -120.4087937, 23.400, 13:36:53.620, 11, 0.00, 0.04, 98, -1.300, -1.500, -31.700, 368, 100, 97, 24, 23035, -21810, 5363, 5529, 9, 14, 1528403813.620, 15, 0, 1024, 1024, 1024, 1024, 0, 6, 3840, 3829, 3822, 3844, 3832, 3858, 0, 1, 13401, -89.900, 0.000, -32.200, 0.000, 0.000, -2.900, 0.0, , , , , , 98, , , 13, 13, 13
38.7448304, -120.4087936, 23.700, 13:36:53.719, 11, 0.00, 0.04, 98, -0.900, -1.400, -31.900, 368, 100, 97, 24, 23035, -21810, 5363, 5529, 9, 14, 1528403813.720, 18, 0, 1024, 1024, 1024, 1024, 0, 6, 3840, 3829, 3822, 3844, 3832, 3858, 0, 1, 13500, -89.900, 0.000, -32.200, 0.000, 0.000, -2.900, 0.0, , , , , , 98, , , 13, 13, 13
38.7448303, -120.4087936, 24.000, 13:36:53.819, 12, 0.00, 0.04, 97, -0.400, -1.400, -31.900, 368, 100, 97, 24, 23019, -21453, 5363, 5529, 9, 14, 1528403813.819, 15, 0, 1024, 1024, 1024, 1024, 0, 6, 3840, 3829, 3822, 3844, 3832, 3858, 0, 1, 13600, -89.900, 0.000, -32.200, 0.000, 0.000, -2.900, 0.0, , , , , , 98, , , 13, 13, 13
38.7448303, -120.4087936, 24.300, 13:36:53.927, 12, 0.00, 0.04, 97, 0.100, -1.700, -31.700, 368, 100, 98, 24, 23019, -21453, 5363, 5529, 9, 14, 1528403813.927, 10, 0, 1024, 1024, 1024, 1024, 0, 6, 3840, 3829, 3822, 3844, 3832, 3858, 0, 1, 13708, -89.900, 0.000, -32.200, 0.000, 0.000, -2.900, 0.0, , , , , , 98, , , 13, 13, 13
38.7448302, -120.4087936, 24.600, 13:36:54.019, 12, 0.00, 0.04, 97, 0.200, -2.000, -31.400, 368, 100, 98, 24, 23019, -21453, 5363, 5529, 9, 14, 1528403814.019, 10, 0, 1024, 1024, 1024, 1024, 0, 6, 3840, 3829, 3822, 3844, 3832, 3858, 0, 1, 13800, -90.000, 0.000, -32.200, 0.000, 0.000, -2.900, 0.0, , , , , , 98, , , 13, 13, 13
38.7448302, -120.4087936, 24.600, 13:36:54.119, 12, 0.00, 0.04, 97, 0.200, -2.000, -31.400, 368, 100, 98, 24, 23019, -21453, 5363, 5529, 9, 14, 1528403814.120, 111, 0, 1024, 1024, 1024, 1024, 0, 6, 3840, 3829, 3822, 3844, 3832, 3858, 0, 1, 13901, -90.000, 0.000, -32.200, 0.000, 0.000, -2.900, 0.0, , , , , , 98, , , 13, 13, 13
38.7448301, -120.4087937, 24.900, 13:36:54.219, 12, 0.00, 0.05, 97, 0.400, -2.000, -31.000, 368, 100, 98, 24, 23019, -21453, 5363, 5529, 9, 14, 1528403814.220, 79, 0, 1024, 1024, 1024, 1024, 0, 6, 3840, 3829, 3822, 3844, 3832, 3858, 0, 1, 14000, -89.900, 0.000, -32.200, 0.000, 0.000, -2.900, 0.0, , , , , , 98, , , 13, 13, 13
38.7448301, -120.4087937, 25.200, 13:36:54.319, 13, 0.00, 0.06, 97, 0.400, -1.900, -30.700, 368, 100, 98, 24, 23019, -21453, 5363, 5529, 9, 14, 1528403814.320, 94, 0, 1024, 1024, 1024, 1024, 0, 6, 3840, 3829, 3822, 3844, 3832, 3858, 0, 1, 14100, -89.900, 0.000, -32.200, 0.000, 0.000, -3.000, 0.0, , , , , , 98, , , 13, 13, 13
38.7448301, -120.4087937, 25.800, 13:36:54.423, 13, 0.00, 0.05, 97, -0.100, -1.300, -30.400, 368, 100, 98, 24, 23019, -21453, 5363, 5529, 9, 14, 1528403814.424, 7, 0, 1024, 1024, 1024, 1024, 0, 6, 3840, 3829, 3822, 3844, 3832, 3858, 0, 1, 14204, -89.900, 0.000, -32.200, 0.000, 0.000, -3.000, 0.0, , , , , , 98, , , 13, 13, 13
38.7448301, -120.4087937, 25.800, 13:36:54.519, 13, 0.00, 0.05, 97, -0.100, -1.300, -30.400, 368, 100, 98, 24, 23019, -21453, 5363, 5529, 9, 14, 1528403814.520, 103, 0, 1024, 1024, 1024, 1024, 0, 6, 3840, 3829, 3822, 3844, 3832, 3858, 0, 1, 14300, -89.900, 0.000, -32.200, 0.000, 0.000, -3.000, 0.0, , , , , , 98, , , 13, 13, 13
38.7448301, -120.4087936, 26.100, 13:36:54.619, 13, 0.00, 0.05, 97, -0.400, -1.300, -30.600, 368, 100, 98, 24, 23019, -21453, 5363, 5529, 9, 14, 1528403814.620, 93, 0, 1024, 1024, 1024, 1024, 0, 6, 3829, 3821, 3825, 3835, 3835, 3863, 0, 1, 14400, -89.900, 0.000, -32.200, 0.000, 0.000, -3.000, 0.0, , , , , , 98, , , 13, 13, 13
38.7448301, -120.4087935, 26.400, 13:36:54.719, 13, 0.00, 0.05, 97, -0.700, -1.600, -30.800, 368, 100, 98, 24, 23019, -21453, 5363, 5529, 9, 14, 1528403814.720, 81, 0, 1024, 1024, 1024, 1024, 0, 6, 3829, 3821, 3825, 3835, 3835, 3863, 0, 1, 14500, -90.000, 0.000, -32.200, 0.000, 0.000, -3.000, 0.0, , , , , , 98, , , 13, 13, 13
38.7448301, -120.4087934, 26.700, 13:36:54.819, 13, 0.00, 0.04, 97, -1.200, -1.900, -31.100, 368, 100, 98, 24, 23019, -21453, 5363, 5529, 9, 14, 1528403814.820, 82, 0, 1024, 1024, 1024, 1024, 0, 6, 3829, 3821, 3825, 3835, 3835, 3863, 0, 1, 14601, -89.900, 0.000, -32.200, 0.000, 0.000, -3.000, 0.0, , , , , , 98, , , 13, 13, 13
38.7448301, -120.4087934, 26.700, 13:36:54.919, 13, 0.00, 0.04, 97, -1.200, -1.900, -31.100, 368, 100, 98, 24, 23019, -21453, 5363, 5529, 9, 14, 1528403814.920, 181, 0, 1024, 1024, 1024, 1024, 0, 6, 3829, 3821, 3825, 3835, 3835, 3863, 0, 1, 14700, -89.900, 0.000, -32.200, 0.000, 0.000, -3.000, 0.0, , , , , , 98, , , 13, 13, 13
38.7448300, -120.4087934, 27.600, 13:36:55.019, 12, 0.00, 0.05, 97, -1.000, -1.600, -31.400, 368, 100, 99, 24, 23019, -21453, 5363, 5529, 9, 14, 1528403815.019, 33, 0, 1024, 1024, 1024, 1024, 0, 6, 3829, 3821, 3825, 3835, 3835, 3863, 0, 1, 14799, -89.900, 0.000, -32.200, 0.000, 0.000, -2.900, 0.0, , , , , , 98, , , 13, 13, 13
38.7448300, -120.4087934, 27.900, 13:36:55.121, 12, 0.00, 0.05, 97, -0.700, -1.700, -31.300, 368, 100, 99, 24, 23019, -21453, 5363, 5529, 9, 14, 1528403815.122, 64, 0, 1024, 1024, 1024, 1024, 0, 6, 3829, 3821, 3825, 3835, 3835, 3863, 0, 1, 14902, -89.900, 0.000, -32.200, 0.000, 0.000, -3.000, 0.0, , , , , , 98, , , 13, 13, 13
38.7448300, -120.4087934, 27.900, 13:36:55.219, 12, 0.00, 0.05, 97, -0.700, -1.700, -31.300, 368, 100, 99, 24, 23019, -21453, 5363, 5529, 9, 14, 1528403815.221, 163, 0, 1024, 1024, 1024, 1024, 0, 6, 3829, 3821, 3825, 3835, 3835, 3863, 0, 1, 15002, -89.900, 0.000, -32.200, 0.000, 0.000, -3.000, 0.0, , , , , , 98, , , 13, 13, 13
38.7448300, -120.4087934, 28.200, 13:36:55.319, 13, 0.00, 0.05, 97, -0.700, -1.700, -31.300, 368, 100, 99, 24, 23019, -21453, 5363, 5529, 9, 14, 1528403815.320, 66, 0, 1024, 1024, 1024, 1024, 0, 6, 3829, 3821, 3825, 3835, 3835, 3863, 0, 1, 15101, -89.900, 0.000, -32.200, 0.000, 0.000, -2.900, 0.0, , , , , , 98, , , 13, 13, 13
38.7448300, -120.4087934, 28.200, 13:36:55.419, 13, 0.00, 0.05, 97, -0.700, -1.700, -31.300, 368, 100, 99, 24, 23019, -21453, 5363, 5529, 9, 14, 1528403815.421, 166, 0, 1024, 1024, 1024, 1024, 0, 6, 3829, 3821, 3825, 3835, 3835, 3863, 0, 1, 15201, -89.900, 0.000, -32.200, 0.000, 0.000, -2.900, 0.0, , , , , , 98, , , 13, 13, 13
38.7448300, -120.4087934, 28.200, 13:36:55.519, 13, 0.00, 0.05, 97, -0.700, -1.700, -31.300, 368, 100, 99, 24, 23019, -21453, 5363, 5529, 9, 14, 1528403815.520, 265, 0, 1024, 1024, 1024, 1024, 0, 6, 3829, 3821, 3825, 3835, 3835, 3863, 0, 1, 15300, -89.900, 0.000, -32.200, 0.000, 0.000, -2.900, 0.0, , , , , , 98, , , 13, 13, 13
38.7448300, -120.4087933, 28.800, 13:36:55.619, 13, 0.00, 0.05, 97, -1.000, -1.800, -31.200, 368, 100, 96, 24, 23019, -21453, 5363, 5529, 9, 14, 1528403815.620, 63, 0, 1024, 1024, 1024, 1024, 0, 6, 3829, 3821, 3825, 3835, 3835, 3863, 0, 1, 15400, -89.900, 0.000, -32.200, 0.000, 0.000, -2.900, 0.0, , , , , , 98, , , 13, 13, 13
38.7448300, -120.4087933, 29.100, 13:36:55.720, 13, 0.00, 0.05, 97, -1.100, -1.500, -31.200, 368, 100, 96, 24, 23019, -21453, 5363, 5529, 9, 14, 1528403815.721, 40, 0, 1024, 1024, 1024, 1024, 0, 6, 3829, 3821, 3825, 3835, 3835, 3863, 0, 1, 15501, -89.900, 0.000, -32.200, 0.000, 0.000, -2.900, 0.0, , , , , , 98, , , 13, 13, 13
38.7448301, -120.4087934, 29.400, 13:36:55.819, 13, 0.00, 0.04, 97, -1.000, -1.200, -31.300, 368, 100, 96, 24, 23019, -21453, 5363, 5529, 9, 14, 1528403815.820, 39, 0, 1024, 1024, 1024, 1024, 0, 6, 3829, 3821, 3825, 3835, 3835, 3863, 0, 1, 15600, -89.900, 0.000, -32.200, 0.000, 0.000, -3.000, 0.0, , , , , , 98, , , 13, 13, 13
38.7448302, -120.4087934, 29.700, 13:36:55.919, 13, 0.00, 0.04, 97, -1.100, -1.100, -31.400, 368, 100, 96, 24, 23019, -21453, 5363, 5529, 9, 14, 1528403815.920, 44, 0, 1024, 1024, 1024, 1024, 0, 6, 3829, 3821, 3825, 3835, 3835, 3863, 0, 1, 15700, -89.900, 0.000, -32.200, 0.000, 0.000, -3.000, 0.0, , , , , , 98, , , 13, 13, 13
38.7448302, -120.4087934, 30.000, 13:36:56.019, 13, 0.00, 0.03, 97, -1.400, -0.900, -31.400, 368, 100, 96, 24, 22991, -21423, 5363, 5529, 9, 14, 1528403816.020, 57, 0, 1024, 1024, 1024, 1024, 0, 6, 3826, 3819, 3818, 3833, 3830, 3857, 0, 1, 15800, -89.900, 0.000, -32.200, 0.000, 0.000, -2.900, 0.0, , , , , , 98, , , 13, 13, 13
38.7448302, -120.4087934, 30.000, 13:36:56.119, 13, 0.00, 0.03, 97, -1.400, -0.900, -31.400, 368, 100, 96, 24, 22991, -21423, 5363, 5529, 9, 14, 1528403816.120, 157, 0, 1024, 1024, 1024, 1024, 0, 6, 3826, 3819, 3818, 3833, 3830, 3857, 0, 1, 15900, -89.900, 0.000, -32.200, 0.000, 0.000, -2.900, 0.0, , , , , , 98, , , 13, 13, 13
38.7448303, -120.4087934, 30.300, 13:36:56.219, 13, 0.00, 0.02, 97, -1.600, -0.800, -31.300, 368, 100, 95, 24, 22991, -21423, 5363, 5529, 9, 14, 1528403816.221, 28, 0, 1024, 1024, 1024, 1024, 0, 6, 3826, 3819, 3818, 3833, 3830, 3857, 0, 1, 16001, -89.900, 0.000, -32.200, 0.000, 0.000, -2.800, 0.0, , , , , , 98, , , 13, 13, 13
38.7448304, -120.4087934, 30.600, 13:36:56.320, 13, 0.00, 0.02, 97, -1.900, -0.700, -31.300, 368, 100, 95, 24, 22991, -21423, 5363, 5529, 9, 14, 1528403816.321, 41, 0, 1024, 1024, 1024, 1024, 0, 6, 3826, 3819, 3818, 3833, 3830, 3857, 0, 1, 16101, -89.900, 0.000, -32.200, 0.000, 0.000, -2.900, 0.0, , , , , , 98, , , 13, 13, 13
38.7448304, -120.4087934, 30.600, 13:36:56.419, 13, 0.00, 0.02, 97, -1.900, -0.700, -31.300, 368, 100, 95, 24, 22991, -21423, 5363, 5529, 9, 14, 1528403816.420, 141, 0, 1024, 1024, 1024, 1024, 0, 6, 3826, 3819, 3818, 3833, 3830, 3857, 0, 1, 16201, -89.900, 0.000, -32.200, 0.000, 0.000, -2.900, 0.0, , , , , , 98, , , 13, 13, 13
38.7448305, -120.4087934, 31.200, 13:36:56.519, 13, 0.00, 0.01, 97, -1.900, -0.700, -31.100, 368, 100, 95, 24, 22991, -21423, 5363, 5529, 9, 14, 1528403816.520, 52, 0, 1024, 1024, 1024, 1024, 0, 6, 3826, 3819, 3818, 3833, 3830, 3857, 0, 1, 16300, -89.900, 0.000, -32.200, 0.000, 0.000, -2.800, 0.0, , , , , , 98, , , 13, 13, 13
38.7448305, -120.4087934, 31.500, 13:36:56.619, 13, 0.00, 0.02, 97, -1.700, -0.800, -31.100, 368, 100, 95, 24, 23040, -20436, 5363, 5529, 9, 14, 1528403816.620, 76, 0, 1024, 1024, 1024, 1024, 0, 6, 3831, 3837, 3824, 3840, 3844, 3860, 0, 1, 16400, -89.900, 0.000, -32.200, 0.000, 0.000, -2.800, 0.0, , , , , , 98, , , 13, 13, 13
38.7448305, -120.4087935, 31.800, 13:36:56.719, 13, 0.00, 0.02, 97, -1.400, -0.800, -31.000, 368, 100, 96, 24, 23040, -20436, 5363, 5529, 9, 14, 1528403816.720, 78, 0, 1024, 1024, 1024, 1024, 0, 6, 3831, 3837, 3824, 3840, 3844, 3860, 0, 1, 16500, -89.900, 0.000, -32.200, 0.000, 0.000, -2.800, 0.0, , , , , , 98, , , 13, 13, 13
38.7448306, -120.4087935, 32.400, 13:36:56.895, 13, 0.00, 0.03, 97, -1.200, -0.800, -31.100, 368, 100, 96, 24, 23040, -20436, 5363, 5529, 9, 14, 1528403816.896, 110, 0, 1024, 1024, 1024, 1024, 0, 6, 3831, 3837, 3824, 3840, 3844, 3860, 0, 1, 16676, -89.900, 0.000, -32.200, 0.000, 0.000, -2.900, 0.0, , , , , , 98, , , 13, 13, 13
38.7448307, -120.4087935, 32.900, 13:36:56.924, 13, 0.00, 0.04, 97, -1.200, -1.000, -31.000, 368, 100, 96, 24, 23040, -20436, 5363, 5529, 9, 14, 1528403816.927, 23, 0, 1024, 1024, 1024, 1024, 0, 6, 3831, 3837, 3824, 3840, 3844, 3860, 0, 1, 16707, -89.900, 0.000, -32.200, 0.000, 0.000, -2.900, 0.0, , , , , , 98, , , 13, 13, 13
38.7448307, -120.4087935, 33.200, 13:36:57.019, 13, 0.00, 0.04, 97, -1.300, -1.000, -31.000, 368, 100, 98, 24, 23040, -20436, 5363, 5529, 9, 14, 1528403817.020, 48, 0, 1024, 1024, 1024, 1024, 0, 6, 3831, 3837, 3824, 3840, 3844, 3860, 0, 1, 16800, -89.900, 0.000, -32.200, 0.000, 0.000, -2.900, 0.0, , , , , , 98, , , 13, 13, 13
38.7448307, -120.4087935, 33.200, 13:36:57.119, 13, 0.00, 0.04, 97, -1.300, -1.000, -31.000, 368, 100, 98, 24, 23040, -20436, 5363, 5529, 9, 14, 1528403817.120, 148, 0, 1024, 1024, 1024, 1024, 0, 6, 3831, 3837, 3824, 3840, 3844, 3860, 0, 1, 16900, -89.900, 0.000, -32.200, 0.000, 0.000, -2.900, 0.0, , , , , , 98, , , 13, 13, 13
38.7448308, -120.4087935, 33.800, 13:36:57.218, 13, 0.00, 0.04, 97, -1.700, -0.800, -31.000, 368, 100, 98, 24, 23040, -20436, 5363, 5529, 9, 14, 1528403817.219, 68, 0, 1024, 1024, 1024, 1024, 0, 6, 3831, 3837, 3824, 3840, 3844, 3860, 0, 1, 16999, -89.900, 0.000, -32.200, 0.000, 0.000, -2.900, 0.0, , , , , , 98, , , 13, 13, 13
38.7448308, -120.4087935, 34.100, 13:36:57.319, 13, 0.00, 0.05, 97, -2.400, -1.000, -31.100, 368, 100, 98, 24, 23040, -20436, 5363, 5529, 9, 14, 1528403817.320, 73, 0, 1024, 1024, 1024, 1024, 0, 6, 3831, 3837, 3824, 3840, 3844, 3860, 0, 1, 17100, -89.900, 0.000, -32.200, 0.000, 0.000, -2.900, 0.0, , , , , , 98, , , 13, 13, 13
38.7448308, -120.4087935, 34.400, 13:36:57.419, 13, 0.00, 0.05, 97, -2.900, -1.200, -31.200, 368, 100, 98, 24, 23004, -20601, 5363, 5529, 9, 14, 1528403817.420, 44, 0, 1024, 1024, 1024, 1024, 0, 6, 3819, 3825, 3815, 3832, 3827, 3860, 0, 1, 17200, -89.900, 0.000, -32.200, 0.000, 0.000, -2.900, 0.0, , , , , , 98, , , 13, 13, 13
38.7448308, -120.4087935, 34.700, 13:36:57.518, 13, 0.00, 0.05, 97, -2.700, -1.300, -31.300, 368, 100, 97, 24, 23004, -20601, 5363, 5529, 9, 14, 1528403817.519, 75, 0, 1024, 1024, 1024, 1024, 0, 6, 3819, 3825, 3815, 3832, 3827, 3860, 0, 1, 17300, -89.900, 0.000, -32.200, 0.000, 0.000, -2.900, 0.0, , , , , , 98, , , 13, 13, 13
38.7448309, -120.4087934, 35.000, 13:36:57.619, 13, 0.00, 0.05, 97, -2.400, -1.600, -31.200, 368, 100, 97, 24, 23004, -20601, 5363, 5529, 9, 14, 1528403817.619, 49, 0, 1024, 1024, 1024, 1024, 0, 6, 3819, 3825, 3815, 3832, 3827, 3860, 0, 1, 17400, -89.900, 0.000, -32.200, 0.000, 0.000, -2.900, 0.0, , , , , , 98, , , 13, 13, 13
38.7448309, -120.4087935, 35.600, 13:36:57.719, 13, 0.00, 0.06, 97, -1.800, -0.900, -31.200, 368, 100, 97, 24, 23004, -20601, 5363, 5529, 9, 14, 1528403817.720, 67, 0, 1024, 1024, 1024, 1024, 0, 6, 3819, 3825, 3815, 3832, 3827, 3860, 0, 1, 17500, -89.900, 0.000, -32.200, 0.000, 0.000, -2.900, 0.0, , , , , , 98, , , 13, 13, 13
38.7448310, -120.4087936, 35.900, 13:36:57.819, 13, 0.00, 0.07, 97, -1.700, -0.400, -31.100, 368, 100, 97, 24, 23004, -20601, 5363, 5529, 9, 14, 1528403817.819, 46, 0, 1024, 1024, 1024, 1024, 0, 6, 3819, 3825, 3815, 3832, 3827, 3860, 0, 1, 17600, -89.900, 0.000, -32.200, 0.000, 0.000, -3.000, 0.0, , , , , , 98, , , 13, 13, 13
38.7448310, -120.4087937, 36.200, 13:36:57.918, 13, 0.00, 0.07, 97, -1.600, -0.100, -31.100, 368, 100, 97, 24, 23004, -20601, 5363, 5529, 9, 14, 1528403817.919, 61, 0, 1024, 1024, 1024, 1024, 0, 6, 3819, 3825, 3815, 3832, 3827, 3860, 0, 1, 17699, -89.900, 0.000, -32.200, 0.000, 0.000, -3.000, 0.0, , , , , , 98, , , 13, 13, 13
38.7448311, -120.4087937, 36.500, 13:36:58.018, 13, 0.00, 0.08, 97, -1.500, -0.100, -31.100, 368, 100, 98, 24, 23004, -20601, 5363, 5529, 9, 14, 1528403818.019, 46, 0, 1024, 1024, 1024, 1024, 0, 6, 3819, 3825, 3815, 3832, 3827, 3860, 0, 1, 17799, -89.900, 0.000, -32.200, 0.000, 0.000, -2.900, 0.0, , , , , , 98, , , 13, 13, 13
38.7448311, -120.4087936, 36.800, 13:36:58.119, 13, 0.00, 0.08, 97, -1.700, -0.500, -31.100, 368, 100, 98, 24, 23004, -20601, 5363, 5529, 9, 14, 1528403818.120, 8, 0, 1024, 1024, 1024, 1024, 0, 6, 3819, 3825, 3815, 3832, 3827, 3860, 0, 1, 17900, -89.900, 0.000, -32.200, 0.000, 0.000, -3.000, 0.0, , , , , , 98, , , 13, 13, 13
38.7448311, -120.4087936, 37.100, 13:36:58.220, 13, 0.00, 0.08, 97, -2.200, -1.100, -31.200, 368, 100, 98, 24, 23004, -20601, 5363, 5529, 9, 14, 1528403818.221, 30, 0, 1024, 1024, 1024, 1024, 0, 6, 3819, 3825, 3815, 3832, 3827, 3860, 0, 1, 18001, -89.900, 0.000, -32.200, 0.000, 0.000, -3.000, 0.0, , , , , , 98, , , 13, 13, 13
38.7448311, -120.4087935, 37.400, 13:36:58.320, 13, 0.00, 0.08, 97, -2.500, -1.000, -31.200, 368, 100, 98, 24, 22888, -21831, 5363, 5529, 9, 14, 1528403818.321, 7, 0, 1024, 1024, 1024, 1024, 0, 6, 3819, 3825, 3815, 3832, 3827, 3860, 0, 1, 18101, -89.900, 0.000, -32.200, 0.000, 0.000, -2.900, 0.0, , , , , , 98, , , 13, 13, 13
38.7448312, -120.4087935, 37.600, 13:36:58.419, 13, 0.00, 0.08, 97, -2.600, -1.400, -31.100, 368, 100, 95, 24, 22888, -21831, 5363, 5529, 9, 14, 1528403818.420, 49, 0, 1024, 1024, 1024, 1024, 0, 6, 3809, 3801, 3800, 3818, 3813, 3836, 0, 1, 18200, -89.900, 0.000, -32.200, 0.000, 0.000, -2.900, 0.0, , , , , , 98, , , 13, 13, 13
38.7448312, -120.4087935, 38.000, 13:36:58.519, 13, 0.00, 0.09, 97, -2.500, -1.400, -30.900, 368, 100, 95, 24, 22888, -21831, 5363, 5529, 9, 14, 1528403818.520, 8, 0, 1024, 1024, 1024, 1024, 0, 6, 3809, 3801, 3800, 3818, 3813, 3836, 0, 1, 18300, -89.900, 0.000, -32.200, 0.000, 0.000, -3.000, 0.0, , , , , , 98, , , 13, 13, 13
38.7448312, -120.4087935, 38.000, 13:36:58.620, 13, 0.00, 0.09, 97, -2.500, -1.400, -30.900, 368, 100, 95, 24, 22888, -21831, 5363, 5529, 9, 14, 1528403818.621, 108, 0, 1024, 1024, 1024, 1024, 0, 6, 3809, 3801, 3800, 3818, 3813, 3836, 0, 1, 18401, -89.900, 0.000, -32.200, 0.000, 0.000, -3.000, 0.0, , , , , , 98, , , 13, 13, 13
38.7448313, -120.4087936, 38.600, 13:36:58.719, 13, 0.00, 0.10, 97, -2.500, -0.700, -30.900, 368, 100, 95, 24, 22888, -21831, 5363, 5529, 9, 14, 1528403818.720, 18, 0, 1024, 1024, 1024, 1024, 0, 6, 3809, 3801, 3800, 3818, 3813, 3836, 0, 1, 18500, -89.900, 0.000, -32.200, 0.000, 0.000, -3.100, 0.0, , , , , , 98, , , 13, 13, 13
38.7448313, -120.4087936, 38.900, 13:36:58.819, 13, 0.00, 0.10, 97, -2.400, -0.400, -30.900, 368, 100, 95, 24, 22888, -21831, 5363, 5529, 9, 14, 1528403818.819, 9, 0, 1024, 1024, 1024, 1024, 0, 6, 3809, 3801, 3800, 3818, 3813, 3836, 0, 1, 18600, -89.900, 0.000, -32.200, 0.000, 0.000, -3.000, 0.0, , , , , , 98, , , 13, 13, 13
38.7448314, -120.4087936, 39.200, 13:36:58.919, 13, 0.00, 0.11, 97, -2.500, -0.100, -30.900, 368, 100, 96, 24, 22888, -21831, 5363, 5529, 9, 14, 1528403818.921, 14, 0, 1024, 1024, 1024, 1024, 0, 6, 3809, 3801, 3800, 3818, 3813, 3836, 0, 1, 18701, -89.900, 0.000, -32.200, 0.000, 0.000, -3.000, 0.0, , , , , , 98, , , 13, 13, 13
38.7448315, -120.4087936, 39.500, 13:36:59.024, 13, 0.00, 0.12, 97, -2.800, 0.000, -31.000, 368, 100, 96, 24, 22888, -21831, 5363, 5529, 9, 14, 1528403819.025, 4, 0, 1024, 1024, 1024, 1024, 0, 6, 3809, 3801, 3800, 3818, 3813, 3836, 0, 1, 18805, -89.900, 0.000, -32.200, 0.000, 0.000, -3.000, 0.0, , , , , , 98, , , 13, 13, 13
38.7448315, -120.4087936, 39.500, 13:36:59.119, 13, 0.00, 0.12, 97, -2.800, 0.000, -31.000, 368, 100, 96, 24, 22888, -21831, 5363, 5529, 9, 14, 1528403819.120, 99, 0, 1024, 1024, 1024, 1024, 0, 6, 3809, 3801, 3800, 3818, 3813, 3836, 0, 1, 18900, -89.900, 0.000, -32.200, 0.000, 0.000, -3.000, 0.0, , , , , , 98, , , 13, 13, 13
38.7448315, -120.4087934, 40.100, 13:36:59.219, 13, 0.00, 0.12, 97, -3.200, -0.700, -31.300, 368, 100, 96, 24, 22888, -21831, 5363, 5529, 9, 14, 1528403819.220, 8, 0, 1024, 1024, 1024, 1024, 0, 6, 3809, 3801, 3800, 3818, 3813, 3836, 0, 1, 19000, -89.900, 0.000, -32.200, 0.000, 0.000, -3.000, 0.0, , , , , , 98, , , 13, 13, 13
38.7448315, -120.4087934, 40.100, 13:36:59.319, 13, 0.00, 0.12, 97, -3.200, -0.700, -31.300, 368, 100, 96, 24, 22888, -21831, 5363, 5529, 9, 14, 1528403819.320, 108, 0, 1024, 1024, 1024, 1024, 0, 6, 3809, 3801, 3800, 3818, 3813, 3836, 0, 1, 19100, -89.900, 0.000, -32.200, 0.000, 0.000, -3.000, 0.0, , , , , , 98, , , 13, 13, 13
38.7448316, -120.4087934, 40.400, 13:36:59.418, 13, 0.00, 0.12, 97, -3.300, -0.900, -31.500, 368, 100, 96, 24, 22924, -21176, 5363, 5529, 9, 14, 1528403819.419, 77, 0, 1024, 1024, 1024, 1024, 0, 6, 3809, 3801, 3800, 3818, 3813, 3836, 0, 1, 19199, -89.900, 0.000, -32.200, 0.000, 0.000, -3.000, 0.0, , , , , , 98, , , 13, 13, 13
38.7448316, -120.4087933, 40.700, 13:36:59.519, 13, 0.00, 0.13, 97, -3.200, -0.900, -31.600, 368, 100, 96, 24, 22924, -21176, 5363, 5529, 9, 14, 1528403819.520, 98, 0, 1024, 1024, 1024, 1024, 0, 6, 3809, 3801, 3800, 3818, 3813, 3836, 0, 1, 19300, -90.000, 0.000, -32.200, 0.000, 0.000, -3.000, 0.0, , , , , , 98, , , 13, 13, 13
38.7448316, -120.4087933, 41.300, 13:36:59.631, 13, 0.00, 0.12, 97, -3.200, -0.900, -31.800, 368, 100, 96, 24, 22924, -21176, 5363, 5529, 9, 14, 1528403819.634, 14, 0, 1024, 1024, 1024, 1024, 0, 6, 3809, 3801, 3800, 3818, 3813, 3836, 0, 1, 19414, -89.900, 0.000, -32.200, 0.000, 0.000, -3.000, 0.0, , , , , , 98, , , 13, 13, 13
38.7448316, -120.4087933, 41.600, 13:36:59.720, 13, 0.00, 0.13, 97, -2.900, -0.700, -31.700, 368, 100, 96, 24, 22924, -21176, 5363, 5529, 9, 14, 1528403819.721, 5, 0, 1024, 1024, 1024, 1024, 0, 6, 3809, 3801, 3800, 3818, 3813, 3836, 0, 1, 19502, -89.900, 0.000, -32.200, 0.000, 0.000, -2.900, 0.0, , , , , , 98, , , 13, 13, 13
38.7448316, -120.4087933, 41.600, 13:36:59.819, 13, 0.00, 0.13, 97, -2.900, -0.700, -31.700, 368, 100, 96, 24, 22924, -21176, 5363, 5529, 9, 14, 1528403819.820, 103, 0, 1024, 1024, 1024, 1024, 0, 6, 3809, 3801, 3800, 3818, 3813, 3836, 0, 1, 19600, -89.900, 0.000, -32.200, 0.000, 0.000, -2.900, 0.0, , , , , , 98, , , 13, 13, 13
38.7448316, -120.4087933, 41.900, 13:36:59.919, 13, 0.00, 0.13, 97, -2.600, -0.500, -31.700, 368, 100, 96, 24, 22924, -21176, 5363, 5529, 9, 14, 1528403819.920, 93, 0, 1024, 1024, 1024, 1024, 0, 6, 3817, 3812, 3810, 3823, 3814, 3836, 0, 1, 19700, -89.900, 0.000, -32.200, 0.000, 0.000, -2.900, 0.0, , , , , , 98, , , 13, 13, 13
38.7448316, -120.4087933, 42.100, 13:37:00.019, 13, 0.00, 0.13, 97, -2.500, -0.500, -31.700, 368, 100, 96, 24, 22924, -21176, 5363, 5529, 9, 14, 1528403820.020, 83, 0, 1024, 1024, 1024, 1024, 0, 6, 3817, 3812, 3810, 3823, 3814, 3836, 0, 1, 19800, -89.900, 0.000, -32.200, 0.000, 0.000, -2.900, 0.0, , , , , , 98, , , 13, 13, 13
38.7448315, -120.4087933, 42.400, 13:37:00.119, 13, 0.00, 0.12, 97, -2.500, -0.400, -31.700, 368, 100, 96, 24, 22924, -21176, 5363, 5529, 9, 14, 1528403820.120, 61, 0, 1024, 1024, 1024, 1024, 0, 6, 3817, 3812, 3810, 3823, 3814, 3836, 0, 1, 19900, -89.900, 0.000, -32.200, 0.000, 0.000, -2.900, 0.0, , , , , , 98, , , 13, 13, 13
38.7448315, -120.4087934, 42.700, 13:37:00.219, 13, 0.00, 0.12, 97, -2.400, -0.500, -31.800, 368, 100, 96, 24, 22924, -21176, 5363, 5529, 9, 14, 1528403820.220, 63, 0, 1024, 1024, 1024, 1024, 0, 6, 3817, 3812, 3810, 3823, 3814, 3836, 0, 1, 20000, -89.900, 0.000, -32.200, 0.000, 0.000, -3.000, 0.0, , , , , , 98, , , 13, 13, 13
38.7448315, -120.4087934, 43.000, 13:37:00.320, 13, 0.00, 0.11, 97, -2.300, -0.500, -31.800, 368, 100, 96, 24, 22924, -21176, 5363, 5529, 9, 14, 1528403820.320, 66, 0, 1024, 1024, 1024, 1024, 0, 6, 3817, 3812, 3810, 3823, 3814, 3836, 0, 1, 20101, -89.900, 0.000, -32.200, 0.000, 0.000, -3.000, 0.0, , , , , , 98, , , 13, 13, 13
38.7448313, -120.4087935, 43.600, 13:37:00.420, 13, 0.00, 0.10, 97, -1.900, -1.100, -31.700, 368, 100, 96, 25, 22924, -21176, 5363, 5529, 9, 14, 1528403820.421, 31, 0, 1024, 1024, 1024, 1024, 0, 6, 3817, 3812, 3810, 3823, 3814, 3836, 0, 1, 20201, -89.900, 0.000, -32.200, 0.000, 0.000, -3.000, 0.0, , , , , , 98, , , 13, 13, 13
38.7448313, -120.4087935, 43.900, 13:37:00.519, 13, 0.00, 0.09, 97, -1.600, -1.600, -31.400, 368, 100, 95, 25, 22924, -21176, 5363, 5529, 9, 14, 1528403820.519, 43, 0, 1024, 1024, 1024, 1024, 0, 6, 3817, 3812, 3810, 3823, 3814, 3836, 0, 1, 20300, -90.000, 0.000, -32.200, 0.000, 0.000, -3.000, 0.0, , , , , , 98, , , 13, 13, 13
38.7448312, -120.4087935, 44.200, 13:37:00.618, 13, 0.00, 0.08, 97, -1.600, -1.900, -31.100, 368, 100, 95, 25, 22924, -21176, 5363, 5529, 9, 14, 1528403820.619, 48, 0, 1024, 1024, 1024, 1024, 0, 6, 3817, 3812, 3810, 3823, 3814, 3836, 0, 1, 20399, -89.900, 0.000, -32.200, 0.000, 0.000, -3.100, 0.0, , , , , , 98, , , 13, 13, 13
38.7448312, -120.4087935, 44.200, 13:37:00.730, 13, 0.00, 0.08, 97, -1.600, -1.900, -31.100, 368, 100, 95, 25, 22924, -21176, 5363, 5529, 9, 14, 1528403820.730, 160, 0, 1024, 1024, 1024, 1024, 0, 6, 3817, 3812, 3810, 3823, 3814, 3836, 0, 1, 20511, -89.900, 0.000, -32.200, 0.000, 0.000, -3.100, 0.0, , , , , , 98, , , 13, 13, 13
38.7448311, -120.4087935, 44.800, 13:37:00.819, 13, 0.00, 0.07, 97, -1.800, -1.700, -30.700, 368, 100, 95, 25, 22924, -21176, 5363, 5529, 9, 14, 1528403820.819, 34, 0, 1024, 1024, 1024, 1024, 0, 6, 3817, 3812, 3810, 3823, 3814, 3836, 0, 1, 20600, -89.900, 0.000, -32.200, 0.000, 0.000, -3.100, 0.0, , , , , , 98, , , 13, 13, 13
38.7448310, -120.4087935, 45.200, 13:37:00.919, 13, 0.00, 0.07, 97, -2.100, -1.500, -30.600, 368, 100, 95, 25, 22889, -20671, 5307, 5529, 9, 14, 1528403820.920, 24, 0, 1024, 1024, 1024, 1024, 0, 6, 3817, 3812, 3810, 3823, 3814, 3836, 0, 1, 20700, -89.900, 0.000, -32.200, 0.000, 0.000, -3.100, 0.0, , , , , , 98, , , 13, 13, 13
38.7448310, -120.4087935, 45.500, 13:37:01.020, 13, 0.00, 0.07, 97, -2.300, -1.500, -30.600, 368, 100, 95, 25, 22889, -20671, 5307, 5529, 9, 14, 1528403821.021, 30, 0, 1024, 1024, 1024, 1024, 0, 6, 3817, 3812, 3810, 3823, 3814, 3836, 0, 1, 20802, -89.900, 0.000, -32.200, 0.000, 0.000, -3.100, 0.0, , , , , , 98, , , 13, 13, 13
38.7448310, -120.4087935, 45.500, 13:37:01.123, 13, 0.00, 0.07, 97, -2.300, -1.500, -30.600, 368, 100, 95, 25, 22889, -20671, 5307, 5529, 9, 14, 1528403821.123, 132, 0, 1024, 1024, 1024, 1024, 0, 6, 3817, 3812, 3810, 3823, 3814, 3836, 0, 1, 20904, -89.900, 0.000, -32.200, 0.000, 0.000, -3.100, 0.0, , , , , , 98, , , 13, 13, 13
