latitude,longitude,altitude(feet),ascent(feet),speed(mph),distance(feet),time(millisecond),datetime(utc),satellites,gpslevel,voltage(v),max_altitude(feet),max_ascent(feet),max_speed(mph),max_distance(feet), xSpeed(mph), ySpeed(mph), zSpeed(mph), compass_heading(degrees), pitch(degrees), roll(degrees),isPhoto,isVideo,rc_elevator,rc_aileron,rc_throttle,rc_rudder,gimbal_heading(degrees),gimbal_pitch(degrees),battery_percent,voltageCell1,voltageCell2,voltageCell3,voltageCell4,voltageCell5,voltageCell6,current(A),battery_temperature(f),flycStateRaw,flycState,message
38.7448311,-120.4087935,4218.4677872219,0,0.223694,0,3200,2018-06-07 20:36:43,10,0,0,4218.4677872219,0,0.223694,0,0,0,0,328.8, -1.4, 0.6,1,0,1024,1024,1024,1024,325.2,-89.9,98,4.153,4.293,4.285,4.299,4.301,4.299,0,73.4,11,AutoTakeoff,
38.7448312,-120.4087936,4218.4677872219,0,0.223694,0.046270014604,3300,2018-06-07 20:36:44,10,0,0,4218.4677872219,0,0.223694,0.046270014604,0,0,0,328.8, -0.4, 0.4,0,0,1024,1024,1024,1024,325.3,-89.9,98,4.153,4.293,4.285,4.299,4.301,4.299,0,73.4,11,AutoTakeoff,
38.7448313,-120.4087939,4218.4677872219,0,0.223694,0.135205712988,3400,2018-06-07 20:36:44,10,0,0,4218.4677872219,0,0.223694,0.135205712988,0,0,0,328.5, 0.5, 0.5,0,0,1024,1024,1024,1024,325.5,-89.9,98,4.153,4.293,4.285,4.299,4.301,4.299,0,73.4,11,AutoTakeoff,
38.7448313,-120.408794,4218.7958712219,0.328084,0,0.159900923752,3500,2018-06-07 20:36:44,10,0,0,4218.7958712219,0.328084,0.223694,0.159900923752,0,0,0,328.2, 0.7, 0.6,0,0,1024,1024,1024,1024,325.5,-89.9,98,4.153,4.293,4.285,4.299,4.301,4.299,0,73.4,11,AutoTakeoff,
38.7448314,-120.4087941,4218.7958712219,0.328084,0,0.202808733524,3600,2018-06-07 20:36:44,10,0,0,4218.7958712219,0.328084,0.223694,0.202808733524,0,0,0,327.9, 0.7, 0.5,0,0,1024,1024,1024,1024,325.6,-89.9,98,4.153,4.293,4.285,4.299,4.301,4.299,0,73.4,11,AutoTakeoff,
38.7448315,-120.4087942,4219.1239552219,0.656168,0,0.246933406852,3700,2018-06-07 20:36:44,10,0,0,4219.1239552219,0.656168,0.223694,0.246933406852,0,0,0,327.6, 0.8, 0.3,0,0,1024,1024,1024,1024,325.7,-89.9,98,4.153,4.293,4.285,4.299,4.301,4.299,0,73.4,11,AutoTakeoff,
38.7448315,-120.4087942,4219.1239552219,0.656168,0,0.246933406852,3800,2018-06-07 20:36:44,10,0,0,4219.1239552219,0.656168,0.223694,0.246933406852,0,0,0,327.5, 0.8, 0,0,0,1024,1024,1024,1024,325.8,-89.9,98,4.153,4.293,4.285,4.299,4.301,4.299,0,73.4,11,AutoTakeoff,
38.7448315,-120.4087943,4219.4520392219,0.984252,0,0.270411425976,4000,2018-06-07 20:36:44,10,0,25.475,4219.4520392219,0.984252,0.223694,0.270411425976,0,0,0,327.5, 0.7, 0.1,0,0,1024,1024,1024,1024,325.9,-89.9,98,4.153,4.293,4.285,4.299,4.301,4.299,4.78,73.4,11,AutoTakeoff,
38.7448314,-120.4087944,4219.7801232219,1.312336,0,0.278514116524,4100,2018-06-07 20:36:44,10,0,25.475,4219.7801232219,1.312336,0.223694,0.278514116524,0,0,0,327.6, 0.6, 0.4,0,0,1024,1024,1024,1024,326,-89.9,98,4.153,4.293,4.285,4.299,4.301,4.299,4.78,73.4,11,AutoTakeoff,
38.7448314,-120.4087944,4219.7801232219,1.312336,0,0.278514116524,4200,2018-06-07 20:36:44,10,0,25.475,4219.7801232219,1.312336,0.223694,0.278514116524,0,0,0,327.9, 0.4, 0.5,0,0,1024,1024,1024,1024,326,-89.9,98,4.153,4.293,4.285,4.299,4.301,4.299,4.78,73.4,11,AutoTakeoff,
38.7448314,-120.4087945,4220.1082072219,1.64042,0,0.304885836528,4300,2018-06-07 20:36:45,10,0,25.475,4220.1082072219,1.64042,0.223694,0.304885836528,0,0,0,328.1, 0.4, 0.4,0,0,1024,1024,1024,1024,326.1,-89.9,98,4.153,4.293,4.285,4.299,4.301,4.299,4.78,73.4,11,AutoTakeoff,
38.7448314,-120.4087944,4220.1082072219,1.64042,0,0.278514116524,4500,2018-06-07 20:36:45,10,0,25.475,4220.1082072219,1.64042,0.223694,0.304885836528,0,0,0,328.3, 0.3, 0.4,0,0,1024,1024,1024,1024,326.1,-89.9,98,4.153,4.293,4.285,4.299,4.301,4.299,4.78,73.4,11,AutoTakeoff,
38.7448314,-120.4087943,4220.4362912219,1.968504,0,0.25259515244,4600,2018-06-07 20:36:45,10,0,25.475,4220.4362912219,1.968504,0.223694,0.304885836528,0,0,0,328.4, 0.1, 0.4,0,0,1024,1024,1024,1024,326.2,-89.9,98,4.153,4.293,4.285,4.299,4.301,4.299,4.78,73.4,11,AutoTakeoff,
38.7448313,-120.4087945,4220.4362912219,1.968504,0,0.293767725936,4700,2018-06-07 20:36:45,10,0,25.475,4220.4362912219,1.968504,0.223694,0.304885836528,0,0,-0.223694,328.4, 0.1, 0.2,0,0,1024,1024,1024,1024,326.2,-89.9,98,4.153,4.293,4.285,4.299,4.301,4.299,4.78,73.4,11,AutoTakeoff,
38.7448311,-120.4087948,4220.7643752219,2.296588,0,0.36992783336,4800,2018-06-07 20:36:45,10,0,25.475,4220.7643752219,2.296588,0.223694,0.36992783336,0,0,-0.223694,328.4, 0.2, 0.2,0,0,1024,1024,1024,1024,326.3,-89.9,98,4.153,4.293,4.285,4.299,4.301,4.299,4.78,73.4,11,AutoTakeoff,
38.7448309,-120.4087949,4220.7643752219,2.296588,0,0.40501313632,4900,2018-06-07 20:36:45,10,0,25.475,4220.7643752219,2.296588,0.223694,0.40501313632,0,0,0,328.4, 0.3, 0.7,0,0,1024,1024,1024,1024,326.3,-89.9,98,4.153,4.293,4.285,4.299,4.301,4.299,4.78,73.4,11,AutoTakeoff,
38.7448309,-120.4087949,4221.0924592219,2.624672,0,0.40501313632,5000,2018-06-07 20:36:45,10,0,25.191,4221.0924592219,2.624672,0.223694,0.40501313632,0,0,0,328.4, 0.1, 0.9,0,0,1024,1024,1024,1024,326.4,-89.9,98,4.005,4.141,4.118,4.16,4.163,4.18,15.305,73.4,11,AutoTakeoff,
38.7448308,-120.4087948,4221.0924592219,2.624672,0,0.38578085224,5100,2018-06-07 20:36:45,10,0,25.191,4221.0924592219,2.624672,0.223694,0.40501313632,0,0,0,328.5, 0, 0.9,0,0,1024,1024,1024,1024,326.4,-89.9,98,4.005,4.141,4.118,4.16,4.163,4.18,15.305,73.4,11,AutoTakeoff,
38.7448308,-120.4087947,4221.4205432219,2.952756,0,0.35858596948,5200,2018-06-07 20:36:45,10,0,25.191,4221.4205432219,2.952756,0.223694,0.40501313632,0,0,-0.223694,328.6, -0.1, 0.8,0,0,1024,1024,1024,1024,326.4,-89.9,98,4.005,4.141,4.118,4.16,4.163,4.18,15.305,73.4,6,P-GPS,
38.7448309,-120.4087945,4221.4205432219,2.952756,0,0.293767725936,5300,2018-06-07 20:36:46,10,0,25.191,4221.4205432219,2.952756,0.223694,0.40501313632,0,0,0,328.7, -0.2, 0.5,0,0,1024,1024,1024,1024,326.5,-89.9,98,4.005,4.141,4.118,4.16,4.163,4.18,15.305,73.4,14,Waypoint,
38.7448309,-120.4087943,4221.7486272219,3.28084,0,0.239057750432,5400,2018-06-07 20:36:46,10,0,25.191,4221.7486272219,3.28084,0.223694,0.40501313632,0,0,0,328.8, -0.4, -0.1,0,0,1024,1024,1024,1024,326.5,-90,98,4.005,4.141,4.118,4.16,4.163,4.18,15.305,73.4,14,Waypoint,
38.7448309,-120.4087942,4221.7486272219,3.28084,0,0.21213747398,5500,2018-06-07 20:36:46,10,0,25.191,4221.7486272219,3.28084,0.223694,0.40501313632,0,0,0,329.1, -0.5, -1.1,0,0,1024,1024,1024,1024,326.6,-90,98,4.005,4.141,4.118,4.16,4.163,4.18,15.305,73.4,14,Waypoint,
38.7448309,-120.4087941,4221.7486272219,3.28084,0,0.185676187044,5600,2018-06-07 20:36:46,11,0,25.191,4221.7486272219,3.28084,0.223694,0.40501313632,0,0,0,329.1, -0.4, -0.9,0,0,1024,1024,1024,1024,326.7,-89.9,98,4.005,4.141,4.118,4.16,4.163,4.18,15.305,73.4,14,Waypoint,
38.744831,-120.408794,4222.0767112219,3.608924,0,0.146883862968,5700,2018-06-07 20:36:46,11,0,25.191,4222.0767112219,3.608924,0.223694,0.40501313632,0,0,0,329.1, -0.3, -0.8,0,0,1024,1024,1024,1024,326.7,-89.9,98,4.005,4.141,4.118,4.16,4.163,4.18,15.305,73.4,14,Waypoint,
38.7448311,-120.4087939,4222.0767112219,3.608924,0,0.113824478708,5800,2018-06-07 20:36:46,11,0,25.191,4222.0767112219,3.608924,0.223694,0.40501313632,0,0,-0.223694,329, -0.1, -0.9,0,0,1024,1024,1024,1024,326.8,-89.9,98,4.005,4.141,4.118,4.16,4.163,4.18,15.305,73.4,14,Waypoint,
38.744831,-120.4087938,4222.4047952219,3.937008,0,0.09283792948,5900,2018-06-07 20:36:46,11,0,25.191,4222.4047952219,3.937008,0.223694,0.40501313632,0,0,-0.223694,328.9, -0.1, -0.9,0,0,1024,1024,1024,1024,326.8,-89.9,98,4.005,4.141,4.118,4.16,4.163,4.18,15.305,73.4,14,Waypoint,
38.744831,-120.4087938,4222.7328792219,4.265092,0,0.09283792948,6000,2018-06-07 20:36:46,11,0,23.821,4222.7328792219,4.265092,0.223694,0.40501313632,0,0,-0.223694,328.8, -0.1, -0.9,0,0,1024,1024,1024,1024,326.9,-89.9,98,3.955,3.959,3.945,3.97,3.988,4.012,16.702,73.4,14,Waypoint,
38.744831,-120.4087937,4223.0609632219,4.593176,0,0.067603020536,6100,2018-06-07 20:36:46,11,0,23.821,4223.0609632219,4.593176,0.223694,0.40501313632,0,0,-0.223694,328.7, -0.2, -0.9,0,0,1024,1024,1024,1024,326.9,-89.9,98,3.955,3.959,3.945,3.97,3.988,4.012,16.702,73.4,14,Waypoint,
38.744831,-120.4087937,4223.7171312219,5.249344,0,0.067603020536,6200,2018-06-07 20:36:46,10,0,23.821,4223.7171312219,5.249344,0.223694,0.40501313632,0,0,-0.223694,328.6, -0.3, -0.8,0,0,1024,1024,1024,1024,327,-89.9,98,3.955,3.959,3.945,3.97,3.988,4.012,16.702,73.4,14,Waypoint,
38.7448311,-120.4087936,4224.0452152219,5.577428,0,0.0284561032728,6300,2018-06-07 20:36:47,10,0,23.821,4224.0452152219,5.577428,0.223694,0.40501313632,0,0,-0.447388,328.6, -0.3, -0.9,0,0,1024,1024,1024,1024,327,-89.9,98,3.955,3.959,3.945,3.97,3.988,4.012,16.702,73.4,14,Waypoint,
38.7448311,-120.4087935,4224.7013832219,6.233596,0,0,6400,2018-06-07 20:36:47,10,0,23.821,4224.7013832219,6.233596,0.223694,0.40501313632,0,0,-0.447388,328.6, -0.2, -1,0,0,1024,1024,1024,1024,327,-89.9,98,3.955,3.959,3.945,3.97,3.988,4.012,16.702,73.4,14,Waypoint,
38.7448312,-120.4087934,4225.3575512219,6.889764,0,0.046270014604,6500,2018-06-07 20:36:47,10,0,23.821,4225.3575512219,6.889764,0.223694,0.40501313632,0,0,-0.447388,328.7, 0, -0.9,0,0,1024,1024,1024,1024,327.1,-89.9,98,3.955,3.959,3.945,3.97,3.988,4.012,16.702,73.4,14,Waypoint,
38.7448313,-120.4087934,4226.0137192219,7.545932,0,0.078322180984,6600,2018-06-07 20:36:47,11,0,23.821,4226.0137192219,7.545932,0.223694,0.40501313632,0,0,-0.447388,328.8, 0.1, -1,0,0,1024,1024,1024,1024,327.1,-89.9,98,3.955,3.959,3.945,3.97,3.988,4.012,16.702,73.4,14,Waypoint,
38.7448313,-120.4087933,4226.9979712219,8.530184,0,0.092539701124,6700,2018-06-07 20:36:47,11,0,23.821,4226.9979712219,8.530184,0.223694,0.40501313632,0,0,-0.671082,329, 0.1, -1,0,0,1024,1024,1024,1024,327.1,-89.9,98,3.955,3.959,3.945,3.97,3.988,4.012,16.702,73.4,14,Waypoint,
38.7448312,-120.4087934,4227.9822232219,9.514436,0,0.046270014604,6800,2018-06-07 20:36:47,10,0,23.821,4227.9822232219,9.514436,0.223694,0.40501313632,0,0,-0.671082,329.1, -0.1, -0.8,0,0,1024,1024,1024,1024,327.2,-89.9,98,3.955,3.959,3.945,3.97,3.988,4.012,16.702,73.4,14,Waypoint,
38.744831,-120.4087936,4229.9507272219,11.48294,0,0.046270014604,7000,2018-06-07 20:36:47,10,0,23.782,4229.9507272219,11.48294,0.223694,0.40501313632,0,0,-0.671082,329.1, -0.2, 0,0,0,1024,1024,1024,1024,327.2,-89.9,98,3.938,3.934,3.946,4.032,3.982,3.977,15.984,73.4,14,Waypoint,
38.7448309,-120.4087935,4230.9349792219,12.467192,0,0.072969818608,7100,2018-06-07 20:36:47,10,0,23.782,4230.9349792219,12.467192,0.223694,0.40501313632,0,0,-0.671082,329.1, -0.4, 0.3,0,0,1024,1024,1024,1024,327.2,-89.9,98,3.938,3.934,3.946,4.032,3.982,3.977,15.984,73.4,14,Waypoint,
38.7448308,-120.4087934,4231.9192312219,13.451444,0,0.113093507556,7300,2018-06-07 20:36:48,10,0,23.782,4231.9192312219,13.451444,0.223694,0.40501313632,0,0,-0.671082,329.1, -0.6, 0.3,0,0,1024,1024,1024,1024,327.3,-90,98,3.938,3.934,3.946,4.032,3.982,3.977,15.984,73.4,14,Waypoint,
38.7448306,-120.4087934,4232.9034832219,14.435696,0,0.18463091142,7400,2018-06-07 20:36:48,10,0,23.782,4232.9034832219,14.435696,0.223694,0.40501313632,0,0,-0.671082,329, -0.8, 0.1,0,0,1024,1024,1024,1024,327.3,-90,98,3.938,3.934,3.946,4.032,3.982,3.977,15.984,73.4,14,Waypoint,
38.7448304,-120.4087932,4234.2158192219,15.748032,0,0.269284457436,7500,2018-06-07 20:36:48,10,0,23.782,4234.2158192219,15.748032,0.223694,0.40501313632,0,0,-0.671082,328.9, -1.1, 0,0,0,1024,1024,1024,1024,327.3,-90,98,3.938,3.934,3.946,4.032,3.982,3.977,15.984,73.4,14,Waypoint,
38.7448302,-120.4087931,4235.2000712219,16.732284,0,0.34753281952,7600,2018-06-07 20:36:48,10,0,23.782,4235.2000712219,16.732284,0.223694,0.40501313632,0,0,-0.671082,328.9, -1.3, -0.1,0,0,1024,1024,1024,1024,327.3,-90,98,3.938,3.934,3.946,4.032,3.982,3.977,15.984,73.4,14,Waypoint,
38.74483,-120.4087929,4236.5124072219,18.04462,0,0.43614174624,7700,2018-06-07 20:36:48,10,0,23.782,4236.5124072219,18.04462,0.223694,0.43614174624,0,0,-0.671082,328.9, -1.6, -0.1,0,0,1024,1024,1024,1024,327.4,-90,98,3.938,3.934,3.946,4.032,3.982,3.977,15.984,73.4,14,Waypoint,
38.7448299,-120.4087929,4237.4966592219,19.028872,0,0.4699311174,7800,2018-06-07 20:36:48,10,0,23.782,4237.4966592219,19.028872,0.223694,0.4699311174,0,0,-0.671082,328.9, -1.9, -0.1,0,0,1024,1024,1024,1024,327.4,-90,98,3.938,3.934,3.946,4.032,3.982,3.977,15.984,73.4,14,Waypoint,
38.7448294,-120.4087926,4239.7932472219,21.32546,0,0.67103676688,7900,2018-06-07 20:36:48,9,0,23.782,4239.7932472219,21.32546,0.223694,0.67103676688,0,0,-0.671082,328.9, -1.8, -0.1,0,0,1024,1024,1024,1024,327.4,-90,98,3.938,3.934,3.946,4.032,3.982,3.977,15.984,73.4,14,Waypoint,
38.7448293,-120.4087925,4240.7774992219,22.309712,0,0.71572836936,8000,2018-06-07 20:36:48,10,0,23.239,4240.7774992219,22.309712,0.223694,0.71572836936,0,0,-0.671082,328.9, -2.2, -0.1,0,0,1024,1024,1024,1024,327.4,-90,98,3.843,3.831,3.839,3.873,3.87,3.861,22.475,73.4,14,Waypoint,
38.7448294,-120.4087923,4242.0898352219,23.622048,0,0.70803151872,8100,2018-06-07 20:36:48,10,0,23.239,4242.0898352219,23.622048,0.223694,0.71572836936,0,0,-0.671082,328.9, -2.3, -0.4,0,0,1024,1024,1024,1024,327.5,-89.9,98,3.843,3.831,3.839,3.873,3.87,3.861,22.475,73.4,14,Waypoint,
38.7448295,-120.4087922,4243.0740872219,24.6063,0,0.69110238432,8200,2018-06-07 20:36:48,10,0,23.239,4243.0740872219,24.6063,0.223694,0.71572836936,0,0,-0.671082,328.9, -2, -0.7,0,0,1024,1024,1024,1024,327.5,-89.9,98,3.843,3.831,3.839,3.873,3.87,3.861,22.475,73.4,14,Waypoint,
38.7448297,-120.4087921,4244.0583392219,25.590552,0,0.64777889212,8300,2018-06-07 20:36:49,10,0,23.239,4244.0583392219,25.590552,0.223694,0.71572836936,0,0,-0.671082,328.9, -1.3, -1,0,0,1024,1024,1024,1024,327.5,-89.9,98,3.843,3.831,3.839,3.873,3.87,3.861,22.475,73.4,14,Waypoint,
38.74483,-120.4087921,4245.3706752219,26.902888,0.223694,0.56549214408,8400,2018-06-07 20:36:49,10,0,23.239,4245.3706752219,26.902888,0.223694,0.71572836936,0,0,-0.671082,328.9, -0.6, -1.2,0,0,1024,1024,1024,1024,327.5,-89.9,98,3.843,3.831,3.839,3.873,3.87,3.861,22.475,73.4,14,Waypoint,
38.7448302,-120.4087922,4246.3549272219,27.88714,0.223694,0.49464240428,8500,2018-06-07 20:36:49,10,0,23.239,4246.3549272219,27.88714,0.223694,0.71572836936,0,0,-0.671082,328.9, 0, -1.3,0,0,1024,1024,1024,1024,327.6,-89.9,98,3.843,3.831,3.839,3.873,3.87,3.861,22.475,73.4,14,Waypoint,
38.7448304,-120.4087924,4247.3391792219,28.871392,0.3131716,0.4039862334,8600,2018-06-07 20:36:49,10,0,23.239,4247.3391792219,28.871392,0.3131716,0.71572836936,0,0,-0.671082,328.9, 0.5, -1.3,0,0,1024,1024,1024,1024,327.6,-89.9,98,3.843,3.831,3.839,3.873,3.87,3.861,22.475,73.4,14,Waypoint,
38.7448306,-120.4087926,4248.3234312219,29.855644,0.3131716,0.314433737096,8700,2018-06-07 20:36:49,10,0,23.239,4248.3234312219,29.855644,0.3131716,0.71572836936,0,0,-0.671082,328.8, 0.9, -1.1,0,0,1024,1024,1024,1024,327.6,-89.9,98,3.843,3.831,3.839,3.873,3.87,3.861,22.475,73.4,14,Waypoint,
38.7448306,-120.4087931,4249.6357672219,31.16798,0.223694,0.215022644676,8800,2018-06-07 20:36:49,11,0,23.239,4249.6357672219,31.16798,0.3131716,0.71572836936,0,0,-0.671082,328.7, 1.2, -0.8,0,0,1024,1024,1024,1024,327.6,-89.9,98,3.843,3.831,3.839,3.873,3.87,3.861,22.475,73.4,14,Waypoint,
38.7448302,-120.4087942,4251.6042712219,33.136484,0.447388,0.38405841124,9000,2018-06-07 20:36:49,10,0,23.142,4251.6042712219,33.136484,0.447388,0.71572836936,0,0,-0.671082,328.7, 0.6, 1.6,0,0,1024,1024,1024,1024,327.6,-89.9,98,3.866,3.863,3.858,3.864,3.857,3.899,23.414,73.4,14,Waypoint,
38.7448303,-120.4087944,4252.5885232219,34.120736,0.223694,0.38830709904,9100,2018-06-07 20:36:49,10,0,23.142,4252.5885232219,34.120736,0.447388,0.71572836936,0,0,-0.671082,328.7, 0.3, 2.5,0,0,1024,1024,1024,1024,327.6,-89.9,98,3.866,3.863,3.858,3.864,3.857,3.899,23.414,73.4,14,Waypoint,
38.7448305,-120.4087945,4253.5727752219,35.104988,0.223694,0.3590223212,9200,2018-06-07 20:36:49,10,0,23.142,4253.5727752219,35.104988,0.447388,0.71572836936,0,0,-0.671082,328.7, 0.3, 2.3,0,0,1024,1024,1024,1024,327.7,-89.9,98,3.866,3.863,3.858,3.864,3.857,3.899,23.414,73.4,14,Waypoint,
38.7448308,-120.4087945,4254.5570272219,36.08924,0,0.304885836528,9300,2018-06-07 20:36:50,10,0,23.142,4254.5570272219,36.08924,0.447388,0.71572836936,0,0,-0.671082,328.8, 0.4, 1.5,0,0,1024,1024,1024,1024,327.7,-89.9,98,3.866,3.863,3.858,3.864,3.857,3.899,23.414,73.4,14,Waypoint,
38.744831,-120.4087946,4255.5412792219,37.073492,0,0.31513616494,9500,2018-06-07 20:36:50,10,0,23.142,4255.5412792219,37.073492,0.447388,0.71572836936,0,0,-0.671082,328.8, 0.7, 0.6,0,0,1024,1024,1024,1024,327.7,-89.9,98,3.866,3.863,3.858,3.864,3.857,3.899,23.414,73.4,14,Waypoint,
38.7448312,-120.4087947,4256.5255312219,38.057744,0,0.34341536532,9600,2018-06-07 20:36:50,10,0,23.142,4256.5255312219,38.057744,0.447388,0.71572836936,0,0,-0.671082,328.9, 1.1, 0,0,0,1024,1024,1024,1024,327.7,-89.9,98,3.866,3.863,3.858,3.864,3.857,3.899,23.414,73.4,14,Waypoint,
38.7448318,-120.4087948,4258.8221192219,40.354332,0,0.44952757344,9710,2018-06-07 20:36:50,10,0,23.142,4258.8221192219,40.354332,0.447388,0.71572836936,0,0,-0.671082,329.2, 1.8, -0.4,0,0,1024,1024,1024,1024,327.7,-89.9,98,3.866,3.863,3.858,3.864,3.857,3.899,23.414,73.4,14,Waypoint,
38.7448318,-120.4087948,4258.8221192219,40.354332,0,0.44952757344,9800,2018-06-07 20:36:50,10,0,23.142,4258.8221192219,40.354332,0.447388,0.71572836936,0,0,-0.671082,329.2, 1.8, -0.4,0,0,1024,1024,1024,1024,327.7,-89.9,98,3.866,3.863,3.858,3.864,3.857,3.899,23.414,73.4,14,Waypoint,
38.744832,-120.4087948,4259.8063712219,41.338584,0,0.49464240428,9900,2018-06-07 20:36:50,10,0,23.142,4259.8063712219,41.338584,0.447388,0.71572836936,0,0,-0.671082,329.3, 1.6, -0.8,0,0,1024,1024,1024,1024,327.7,-89.9,98,3.866,3.863,3.858,3.864,3.857,3.899,23.414,73.4,14,Waypoint,
38.7448322,-120.4087948,4260.7906232219,42.322836,0,0.5458169466,10000,2018-06-07 20:36:50,10,0,23.329,4260.7906232219,42.322836,0.447388,0.71572836936,0,0,-0.671082,329.2, 1.6, -1.1,0,0,1024,1024,1024,1024,327.8,-89.9,98,3.887,3.877,3.876,3.892,3.878,3.916,19.549,75.2,14,Waypoint,
38.7448323,-120.4087947,4261.7748752219,43.307088,0,0.55523951908,10100,2018-06-07 20:36:50,10,0,23.329,4261.7748752219,43.307088,0.447388,0.71572836936,0,0,-0.671082,329.1, 1.3, -1.2,0,0,1024,1024,1024,1024,327.8,-89.9,98,3.887,3.877,3.876,3.892,3.878,3.916,19.549,75.2,14,Waypoint,
38.7448324,-120.4087947,4262.7591272219,44.29134,0,0.58443899508,10200,2018-06-07 20:36:50,10,0,23.329,4262.7591272219,44.29134,0.447388,0.71572836936,0,0,-0.671082,329, 0.9, -1.3,0,0,1024,1024,1024,1024,327.8,-89.9,98,3.887,3.877,3.876,3.892,3.878,3.916,19.549,75.2,14,Waypoint,
38.7448326,-120.4087946,4264.7276312219,46.259844,0,0.63046589944,10400,2018-06-07 20:36:51,10,0,23.329,4264.7276312219,46.259844,0.447388,0.71572836936,0,0,-0.671082,328.9, 0.8, -1.5,0,0,1024,1024,1024,1024,327.8,-89.9,98,3.887,3.877,3.876,3.892,3.878,3.916,19.549,75.2,14,Waypoint,
38.7448328,-120.4087945,4267.0242192219,48.556432,0,0.68240487748,10500,2018-06-07 20:36:51,10,0,23.329,4267.0242192219,48.556432,0.447388,0.71572836936,0,0,-0.671082,328.9, 0.1, -1.5,0,0,1024,1024,1024,1024,327.8,-89.9,98,3.887,3.877,3.876,3.892,3.878,3.916,19.549,75.2,14,Waypoint,
38.7448328,-120.4087944,4267.6803872219,49.2126,0,0.67103676688,10600,2018-06-07 20:36:51,10,0,23.329,4267.6803872219,49.2126,0.447388,0.71572836936,0,0,-0.671082,328.9, 0, -1.6,0,0,1024,1024,1024,1024,327.8,-89.9,98,3.887,3.877,3.876,3.892,3.878,3.916,19.549,75.2,14,Waypoint,
38.7448327,-120.4087944,4268.6646392219,50.196852,0.223694,0.637467212,10700,2018-06-07 20:36:51,10,0,23.329,4268.6646392219,50.196852,0.447388,0.71572836936,0,0,-0.671082,329, -0.2, -1.6,0,0,1024,1024,1024,1024,327.8,-89.9,98,3.887,3.877,3.876,3.892,3.878,3.916,19.549,75.2,14,Waypoint,
38.7448327,-120.4087943,4269.6488912219,51.181104,0.223694,0.62657810404,10800,2018-06-07 20:36:51,11,0,23.329,4269.6488912219,51.181104,0.447388,0.71572836936,0,0,-0.671082,329, -0.5, -1.4,0,0,1024,1024,1024,1024,327.8,-90,98,3.887,3.877,3.876,3.892,3.878,3.916,19.549,75.2,14,Waypoint,
38.7448326,-120.4087942,4270.6331432219,52.165356,0.223694,0.5823983126,10900,2018-06-07 20:36:51,11,0,23.329,4270.6331432219,52.165356,0.447388,0.71572836936,0,0,-0.671082,328.9, -0.8, -1.1,0,0,1024,1024,1024,1024,327.8,-90,98,3.887,3.877,3.876,3.892,3.878,3.916,19.549,75.2,14,Waypoint,
38.7448325,-120.4087942,4271.6173952219,53.149608,0.223694,0.54825461072,11000,2018-06-07 20:36:51,11,0,23.272,4271.6173952219,53.149608,0.447388,0.71572836936,0,0,-0.671082,328.8, -0.9, -0.8,0,0,1024,1024,1024,1024,327.8,-90,98,3.878,3.863,3.872,3.874,3.88,3.895,19.437,75.2,14,Waypoint,
38.7448324,-120.4087943,4272.6016472219,54.13386,0.223694,0.52610565988,11100,2018-06-07 20:36:51,11,0,23.272,4272.6016472219,54.13386,0.447388,0.71572836936,0,0,-0.671082,328.8, -0.9, -0.7,0,0,1024,1024,1024,1024,327.8,-89.9,98,3.878,3.863,3.872,3.874,3.88,3.895,19.437,75.2,14,Waypoint,
38.7448323,-120.4087943,4273.5858992219,55.118112,0.223694,0.49346786356,11200,2018-06-07 20:36:51,10,0,23.272,4273.5858992219,55.118112,0.447388,0.71572836936,0,0,-0.671082,328.7, -1, -0.4,0,0,1024,1024,1024,1024,327.8,-90,98,3.878,3.863,3.872,3.874,3.88,3.895,19.437,75.2,14,Waypoint,
38.7448322,-120.4087943,4275.5544032219,57.086616,0.223694,0.46140421424,11400,2018-06-07 20:36:52,10,0,23.272,4275.5544032219,57.086616,0.447388,0.71572836936,0,0,-0.671082,328.7, -1, -0.2,0,0,1024,1024,1024,1024,327.8,-89.9,98,3.878,3.863,3.872,3.874,3.88,3.895,19.437,75.2,14,Waypoint,
38.744832,-120.4087943,4276.5386552219,58.070868,0.223694,0.39956038024,11500,2018-06-07 20:36:52,10,0,23.272,4276.5386552219,58.070868,0.447388,0.71572836936,0,0,-0.671082,328.7, -1, -0.3,0,0,1024,1024,1024,1024,327.8,-89.9,98,3.878,3.863,3.872,3.874,3.88,3.895,19.437,75.2,14,Waypoint,
38.7448319,-120.4087944,4277.1948232219,58.727036,0.223694,0.38830709904,11610,2018-06-07 20:36:52,12,0,23.272,4277.1948232219,58.727036,0.447388,0.71572836936,0,0,-0.671082,328.8, -0.8, -0.1,0,0,1024,1024,1024,1024,327.8,-89.9,98,3.878,3.863,3.872,3.874,3.88,3.895,19.437,75.2,14,Waypoint,
38.7448318,-120.4087943,4278.1790752219,59.711288,0.223694,0.3421259952,11710,2018-06-07 20:36:52,12,0,23.272,4278.1790752219,59.711288,0.447388,0.71572836936,0,0,-0.671082,328.8, -0.7, 0,0,0,1024,1024,1024,1024,327.8,-89.9,98,3.878,3.863,3.872,3.874,3.88,3.895,19.437,75.2,14,Waypoint,
38.7448317,-120.4087943,4279.1633272219,60.69554,0.223694,0.315824813256,11810,2018-06-07 20:36:52,12,0,23.272,4279.1633272219,60.69554,0.447388,0.71572836936,0,0,-0.671082,328.8, -0.9, 0,0,0,1024,1024,1024,1024,327.8,-89.9,98,3.878,3.863,3.872,3.874,3.88,3.895,19.437,75.2,14,Waypoint,
38.7448317,-120.4087943,4280.4756632219,62.007876,0.223694,0.315824813256,12000,2018-06-07 20:36:52,12,0,23.151,4280.4756632219,62.007876,0.447388,0.71572836936,0,0,-0.671082,328.7, -0.9, -0.1,0,0,1024,1024,1024,1024,327.8,-89.9,98,3.854,3.848,3.842,3.858,3.863,3.877,20.728,75.2,14,Waypoint,
38.7448316,-120.4087943,4281.4599152219,62.992128,0.223694,0.291723762616,12100,2018-06-07 20:36:52,11,0,23.151,4281.4599152219,62.992128,0.447388,0.71572836936,0,0,-0.671082,328.8, -1, -0.3,0,0,1024,1024,1024,1024,327.8,-89.9,98,3.854,3.848,3.842,3.858,3.863,3.877,20.728,75.2,14,Waypoint,
38.7448314,-120.4087943,4282.1160832219,63.648296,0.223694,0.25259515244,12200,2018-06-07 20:36:52,11,0,23.151,4282.1160832219,63.648296,0.447388,0.71572836936,0,0,-0.671082,328.8, -1.2, -0.2,0,0,1024,1024,1024,1024,327.8,-89.9,98,3.854,3.848,3.842,3.858,3.863,3.877,20.728,75.2,14,Waypoint,
38.7448314,-120.4087943,4283.1003352219,64.632548,0.223694,0.25259515244,12300,2018-06-07 20:36:53,12,0,23.151,4283.1003352219,64.632548,0.447388,0.71572836936,0,0,-0.671082,328.9, -1.1, 0,0,0,1024,1024,1024,1024,327.8,-89.9,98,3.854,3.848,3.842,3.858,3.863,3.877,20.728,75.2,14,Waypoint,
38.7448314,-120.4087943,4284.0845872219,65.6168,0,0.25259515244,12400,2018-06-07 20:36:53,12,0,23.151,4284.0845872219,65.6168,0.447388,0.71572836936,0,0,-0.671082,329, -1.1, 0,0,0,1024,1024,1024,1024,327.8,-89.9,98,3.854,3.848,3.842,3.858,3.863,3.877,20.728,75.2,14,Waypoint,
38.7448311,-120.408794,4286.3811752219,67.913388,0.223694,0.142280516364,12500,2018-06-07 20:36:53,12,0,23.151,4286.3811752219,67.913388,0.447388,0.71572836936,0,0,-0.671082,328.9, -1.3, -0.2,0,0,1024,1024,1024,1024,327.8,-89.9,98,3.854,3.848,3.842,3.858,3.863,3.877,20.728,75.2,14,Waypoint,
38.744831,-120.408794,4287.3654272219,68.89764,0.223694,0.146883862968,12600,2018-06-07 20:36:53,12,0,23.151,4287.3654272219,68.89764,0.447388,0.71572836936,0,0,-0.671082,328.9, -1.8, -0.2,0,0,1024,1024,1024,1024,327.8,-89.9,98,3.854,3.848,3.842,3.858,3.863,3.877,20.728,75.2,14,Waypoint,
38.7448308,-120.4087939,4289.3339312219,70.866144,0,0.157912406628,12800,2018-06-07 20:36:53,13,0,23.151,4289.3339312219,70.866144,0.447388,0.71572836936,0,0,-0.671082,329, -2.1, 0.4,0,0,1024,1024,1024,1024,327.8,-89.9,98,3.854,3.848,3.842,3.858,3.863,3.877,20.728,75.2,14,Waypoint,
38.7448306,-120.4087939,4291.3024352219,72.834648,0,0.215022644676,13000,2018-06-07 20:36:53,12,0,23.035,4291.3024352219,72.834648,0.447388,0.71572836936,0,0,-0.671082,329.2, -2, 0.4,0,0,1024,1024,1024,1024,327.8,-89.9,98,3.84,3.829,3.822,3.844,3.832,3.858,21.81,75.2,14,Waypoint,
38.7448305,-120.4087938,4292.2866872219,73.8189,0,0.234966214868,13100,2018-06-07 20:36:53,12,0,23.035,4292.2866872219,73.8189,0.447388,0.71572836936,0,0,-0.671082,329.2, -2, 0,0,0,1024,1024,1024,1024,327.8,-89.9,98,3.84,3.829,3.822,3.844,3.832,3.858,21.81,75.2,14,Waypoint,
38.7448304,-120.4087938,4293.2709392219,74.803152,0,0.269284457436,13210,2018-06-07 20:36:53,12,0,23.035,4293.2709392219,74.803152,0.447388,0.71572836936,0,0,-0.671082,329.1, -1.5, -0.5,0,0,1024,1024,1024,1024,327.8,-89.9,98,3.84,3.829,3.822,3.844,3.832,3.858,21.81,75.2,14,Waypoint,
38.7448304,-120.4087937,4294.2551912219,75.787404,0,0.261658801024,13300,2018-06-07 20:36:54,12,0,23.035,4294.2551912219,75.787404,0.447388,0.71572836936,0,0,-0.671082,328.7, -1.4, -1.1,0,0,1024,1024,1024,1024,327.8,-89.9,98,3.84,3.829,3.822,3.844,3.832,3.858,21.81,75.2,14,Waypoint,
38.7448304,-120.4087937,4295.2394432219,76.771656,0,0.261658801024,13400,2018-06-07 20:36:54,11,0,23.035,4295.2394432219,76.771656,0.447388,0.71572836936,0,0,-0.671082,328.3, -1.5, -1.3,0,0,1024,1024,1024,1024,327.8,-89.9,98,3.84,3.829,3.822,3.844,3.832,3.858,21.81,75.2,14,Waypoint,
38.7448304,-120.4087936,4296.2236952219,77.755908,0,0.25697507384,13500,2018-06-07 20:36:54,11,0,23.035,4296.2236952219,77.755908,0.447388,0.71572836936,0,0,-0.671082,328.1, -1.4, -0.9,0,0,1024,1024,1024,1024,327.8,-89.9,98,3.84,3.829,3.822,3.844,3.832,3.858,21.81,75.2,14,Waypoint,
38.7448303,-120.4087936,4297.2079472219,78.74016,0,0.293263460828,13600,2018-06-07 20:36:54,12,0,23.035,4297.2079472219,78.74016,0.447388,0.71572836936,0,0,-0.671082,328.1, -1.4, -0.4,0,0,1024,1024,1024,1024,327.8,-89.9,98,3.84,3.829,3.822,3.844,3.832,3.858,21.81,75.2,14,Waypoint,
38.7448303,-120.4087936,4298.1921992219,79.724412,0,0.293263460828,13710,2018-06-07 20:36:54,12,0,23.035,4298.1921992219,79.724412,0.447388,0.71572836936,0,0,-0.671082,328.3, -1.7, 0.1,0,0,1024,1024,1024,1024,327.8,-89.9,98,3.84,3.829,3.822,3.844,3.832,3.858,21.81,75.2,14,Waypoint,
38.7448302,-120.4087936,4299.1764512219,80.708664,0,0.32959646724,13800,2018-06-07 20:36:54,12,0,23.035,4299.1764512219,80.708664,0.447388,0.71572836936,0,0,-0.671082,328.6, -2, 0.2,0,0,1024,1024,1024,1024,327.8,-90,98,3.84,3.829,3.822,3.844,3.832,3.858,21.81,75.2,14,Waypoint,
38.7448301,-120.4087937,4300.1607032219,81.692916,0,0.36926182284,14000,2018-06-07 20:36:54,12,0,23.019,4300.1607032219,81.692916,0.447388,0.71572836936,0,0,-0.671082,329, -2, 0.4,0,0,1024,1024,1024,1024,327.8,-89.9,97,3.84,3.829,3.822,3.844,3.832,3.858,21.453,75.2,14,Waypoint,
38.7448301,-120.4087937,4301.1449552219,82.677168,0,0.36926182284,14100,2018-06-07 20:36:54,13,0,23.019,4301.1449552219,82.677168,0.447388,0.71572836936,0,0,-0.671082,329.3, -1.9, 0.4,0,0,1024,1024,1024,1024,327.8,-89.9,97,3.84,3.829,3.822,3.844,3.832,3.858,21.453,75.2,14,Waypoint,
38.7448301,-120.4087937,4303.1134592219,84.645672,0,0.36926182284,14200,2018-06-07 20:36:54,13,0,23.019,4303.1134592219,84.645672,0.447388,0.71572836936,0,0,-0.671082,329.6, -1.3, -0.1,0,0,1024,1024,1024,1024,327.8,-89.9,97,3.84,3.829,3.822,3.844,3.832,3.858,21.453,75.2,14,Waypoint,
38.7448301,-120.4087936,4304.0977112219,85.629924,0,0.36595801696,14400,2018-06-07 20:36:55,13,0,23.019,4304.0977112219,85.629924,0.447388,0.71572836936,0,0,-0.671082,329.4, -1.3, -0.4,0,0,1024,1024,1024,1024,327.8,-89.9,97,3.84,3.829,3.822,3.844,3.832,3.858,21.453,75.2,14,Waypoint,
38.7448301,-120.4087935,4305.0819632219,86.614176,0,0.36484909304,14500,2018-06-07 20:36:55,13,0,23.019,4305.0819632219,86.614176,0.447388,0.71572836936,0,0,-0.671082,329.2, -1.6, -0.7,0,0,1024,1024,1024,1024,327.8,-90,97,3.84,3.829,3.822,3.844,3.832,3.858,21.453,75.2,14,Waypoint,
38.7448301,-120.4087934,4306.0662152219,87.598428,0,0.36595801696,14600,2018-06-07 20:36:55,13,0,23.019,4306.0662152219,87.598428,0.447388,0.71572836936,0,0,-0.671082,328.9, -1.9, -1.2,0,0,1024,1024,1024,1024,327.8,-89.9,97,3.84,3.829,3.822,3.844,3.832,3.858,21.453,75.2,14,Waypoint,
38.74483,-120.4087934,4309.0189712219,90.551184,0,0.40234253256,14800,2018-06-07 20:36:55,12,0,23.019,4309.0189712219,90.551184,0.447388,0.71572836936,0,0,-0.671082,328.6, -1.6, -1,0,0,1024,1024,1024,1024,327.8,-89.9,97,3.84,3.829,3.822,3.844,3.832,3.858,21.453,75.2,14,Waypoint,
38.74483,-120.4087934,4310.0032232219,91.535436,0,0.40234253256,14900,2018-06-07 20:36:55,12,0,23.019,4310.0032232219,91.535436,0.447388,0.71572836936,0,0,-0.671082,328.7, -1.7, -0.7,0,0,1024,1024,1024,1024,327.8,-89.9,97,3.84,3.829,3.822,3.844,3.832,3.858,21.453,75.2,14,Waypoint,
38.74483,-120.4087934,4310.9874752219,92.519688,0,0.40234253256,15100,2018-06-07 20:36:55,13,0,23.019,4310.9874752219,92.519688,0.447388,0.71572836936,0,0,-0.671082,328.7, -1.7, -0.7,0,0,1024,1024,1024,1024,327.8,-89.9,97,3.84,3.829,3.822,3.844,3.832,3.858,21.453,75.2,14,Waypoint,
38.74483,-120.4087933,4312.9559792219,94.488192,0,0.40535106284,15400,2018-06-07 20:36:56,13,0,23.019,4312.9559792219,94.488192,0.447388,0.71572836936,0,0,-0.671082,328.8, -1.8, -1,0,0,1024,1024,1024,1024,327.8,-89.9,97,3.84,3.829,3.822,3.844,3.832,3.858,21.453,75.2,14,Waypoint,
38.74483,-120.4087933,4313.9402312219,95.472444,0,0.40535106284,15500,2018-06-07 20:36:56,13,0,23.019,4313.9402312219,95.472444,0.447388,0.71572836936,0,0,-0.671082,328.8, -1.5, -1.1,0,0,1024,1024,1024,1024,327.8,-89.9,97,3.84,3.829,3.822,3.844,3.832,3.858,21.453,75.2,14,Waypoint,
38.7448301,-120.4087934,4314.9244832219,96.456696,0,0.36595801696,15600,2018-06-07 20:36:56,13,0,23.019,4314.9244832219,96.456696,0.447388,0.71572836936,0,0,-0.671082,328.7, -1.2, -1,0,0,1024,1024,1024,1024,327.8,-89.9,97,3.84,3.829,3.822,3.844,3.832,3.858,21.453,75.2,14,Waypoint,
38.7448302,-120.4087934,4315.9087352219,97.440948,0,0.32959646724,15700,2018-06-07 20:36:56,13,0,23.019,4315.9087352219,97.440948,0.447388,0.71572836936,0,0,-0.671082,328.6, -1.1, -1.1,0,0,1024,1024,1024,1024,327.8,-89.9,97,3.84,3.829,3.822,3.844,3.832,3.858,21.453,75.2,14,Waypoint,
38.7448302,-120.4087934,4316.8929872219,98.4252,0,0.32959646724,15800,2018-06-07 20:36:56,13,0,23.019,4316.8929872219,98.4252,0.447388,0.71572836936,0,0,-0.671082,328.6, -0.9, -1.4,0,0,1024,1024,1024,1024,327.8,-89.9,97,3.84,3.829,3.822,3.844,3.832,3.858,21.453,75.2,14,Waypoint,
38.7448303,-120.4087934,4317.8772392219,99.409452,0,0.293263460828,16000,2018-06-07 20:36:56,13,0,22.991,4317.8772392219,99.409452,0.447388,0.71572836936,0,0,-0.671082,328.7, -0.8, -1.6,0,0,1024,1024,1024,1024,327.8,-89.9,97,3.826,3.819,3.818,3.833,3.83,3.857,21.423,75.2,14,Waypoint,
38.7448304,-120.4087934,4318.8614912219,100.393704,0,0.25697507384,16100,2018-06-07 20:36:56,13,0,22.991,4318.8614912219,100.393704,0.447388,0.71572836936,0,0,-0.671082,328.7, -0.7, -1.9,0,0,1024,1024,1024,1024,327.8,-89.9,97,3.826,3.819,3.818,3.833,3.83,3.857,21.423,75.2,14,Waypoint,
38.7448305,-120.4087934,4320.8299952219,102.362208,0,0.2207513194,16300,2018-06-07 20:36:57,13,0,22.991,4320.8299952219,102.362208,0.447388,0.71572836936,0,0,-0.671082,328.9, -0.7, -1.9,0,0,1024,1024,1024,1024,327.8,-89.9,97,3.826,3.819,3.818,3.833,3.83,3.857,21.423,75.2,14,Waypoint,
38.7448305,-120.4087934,4321.8142472219,103.34646,0,0.2207513194,16400,2018-06-07 20:36:57,13,0,22.991,4321.8142472219,103.34646,0.447388,0.71572836936,0,0,-0.671082,328.9, -0.8, -1.7,0,0,1024,1024,1024,1024,327.8,-89.9,97,3.826,3.819,3.818,3.833,3.83,3.857,21.423,75.2,14,Waypoint,
38.7448305,-120.4087935,4322.7984992219,104.330712,0,0.218909783908,16500,2018-06-07 20:36:57,13,0,22.991,4322.7984992219,104.330712,0.447388,0.71572836936,0,0,-0.671082,329, -0.8, -1.4,0,0,1024,1024,1024,1024,327.8,-89.9,97,3.826,3.819,3.818,3.833,3.83,3.857,21.423,75.2,14,Waypoint,
38.7448307,-120.4087935,4326.4074232219,107.939636,0,0.145939637216,16710,2018-06-07 20:36:57,13,0,22.991,4326.4074232219,107.939636,0.447388,0.71572836936,0,0,-0.671082,329, -1, -1.2,0,0,1024,1024,1024,1024,327.8,-89.9,97,3.826,3.819,3.818,3.833,3.83,3.857,21.423,75.2,14,Waypoint,
38.7448307,-120.4087935,4327.3916752219,108.923888,0,0.145939637216,16800,2018-06-07 20:36:57,13,0,22.991,4327.3916752219,108.923888,0.447388,0.71572836936,0,0,-0.671082,329, -1, -1.3,0,0,1024,1024,1024,1024,327.8,-89.9,97,3.826,3.819,3.818,3.833,3.83,3.857,21.423,75.2,14,Waypoint,
38.7448308,-120.4087935,4329.3601792219,110.892392,0,0.109454727912,17000,2018-06-07 20:36:57,13,0,23.04,4329.3601792219,110.892392,0.447388,0.71572836936,0,0,-0.671082,329, -0.8, -1.7,0,0,1024,1024,1024,1024,327.8,-89.9,97,3.831,3.837,3.824,3.84,3.844,3.86,20.436,75.2,14,Waypoint,
38.7448308,-120.4087935,4330.3444312219,111.876644,0,0.109454727912,17100,2018-06-07 20:36:57,13,0,23.04,4330.3444312219,111.876644,0.447388,0.71572836936,0,0,-0.671082,328.9, -1, -2.4,0,0,1024,1024,1024,1024,327.8,-89.9,97,3.831,3.837,3.824,3.84,3.844,3.86,20.436,75.2,14,Waypoint,
38.7448308,-120.4087935,4331.3286832219,112.860896,0,0.109454727912,17200,2018-06-07 20:36:57,13,0,23.04,4331.3286832219,112.860896,0.447388,0.71572836936,0,0,-0.671082,328.8, -1.2, -2.9,0,0,1024,1024,1024,1024,327.8,-89.9,97,3.831,3.837,3.824,3.84,3.844,3.86,20.436,75.2,14,Waypoint,
38.7448308,-120.4087935,4332.3129352219,113.845148,0,0.109454727912,17300,2018-06-07 20:36:58,13,0,23.04,4332.3129352219,113.845148,0.447388,0.71572836936,0,0,-0.671082,328.7, -1.3, -2.7,0,0,1024,1024,1024,1024,327.8,-89.9,97,3.831,3.837,3.824,3.84,3.844,3.86,20.436,75.2,14,Waypoint,
38.7448309,-120.4087934,4333.2971872219,114.8294,0,0.078322180984,17400,2018-06-07 20:36:58,13,0,23.04,4333.2971872219,114.8294,0.447388,0.71572836936,0,0,-0.671082,328.8, -1.6, -2.4,0,0,1024,1024,1024,1024,327.8,-89.9,97,3.831,3.837,3.824,3.84,3.844,3.86,20.436,75.2,14,Waypoint,
38.7448309,-120.4087935,4335.2656912219,116.797904,0,0.072969818608,17500,2018-06-07 20:36:58,13,0,23.04,4335.2656912219,116.797904,0.447388,0.71572836936,0,0,-0.671082,328.8, -0.9, -1.8,0,0,1024,1024,1024,1024,327.8,-89.9,97,3.831,3.837,3.824,3.84,3.844,3.86,20.436,75.2,14,Waypoint,
38.744831,-120.4087936,4336.2499432219,117.782156,0,0.046270014604,17600,2018-06-07 20:36:58,13,0,23.04,4336.2499432219,117.782156,0.447388,0.71572836936,0,0,-0.671082,328.9, -0.4, -1.7,0,0,1024,1024,1024,1024,327.8,-89.9,97,3.831,3.837,3.824,3.84,3.844,3.86,20.436,75.2,14,Waypoint,
38.744831,-120.4087937,4337.2341952219,118.766408,0,0.067603020536,17700,2018-06-07 20:36:58,13,0,23.04,4337.2341952219,118.766408,0.447388,0.71572836936,0,0,-0.671082,328.9, -0.1, -1.6,0,0,1024,1024,1024,1024,327.8,-89.9,97,3.831,3.837,3.824,3.84,3.844,3.86,20.436,75.2,14,Waypoint,
38.7448311,-120.4087937,4338.2184472219,119.75066,0,0.056912075312,17800,2018-06-07 20:36:58,13,0,23.04,4338.2184472219,119.75066,0.447388,0.71572836936,0,0,-0.671082,328.9, -0.1, -1.5,0,0,1024,1024,1024,1024,327.8,-89.9,97,3.831,3.837,3.824,3.84,3.844,3.86,20.436,75.2,14,Waypoint,
38.7448311,-120.4087936,4339.2026992219,120.734912,0,0.0284561032728,17900,2018-06-07 20:36:58,13,0,23.04,4339.2026992219,120.734912,0.447388,0.71572836936,0,0,-0.671082,328.9, -0.5, -1.7,0,0,1024,1024,1024,1024,327.8,-89.9,97,3.831,3.837,3.824,3.84,3.844,3.86,20.436,75.2,14,Waypoint,
38.7448311,-120.4087936,4340.1869512219,121.719164,0,0.0284561032728,18000,2018-06-07 20:36:58,13,0,23.004,4340.1869512219,121.719164,0.447388,0.71572836936,0,0,-0.671082,328.8, -1.1, -2.2,0,0,1024,1024,1024,1024,327.8,-89.9,97,3.819,3.825,3.815,3.832,3.827,3.86,20.601,75.2,14,Waypoint,
38.7448311,-120.4087935,4341.1712032219,122.703416,0,0,18100,2018-06-07 20:36:58,13,0,23.004,4341.1712032219,122.703416,0.447388,0.71572836936,0,0,-0.671082,328.8, -1, -2.5,0,0,1024,1024,1024,1024,327.8,-89.9,97,3.819,3.825,3.815,3.832,3.827,3.86,20.601,75.2,14,Waypoint,
38.7448312,-120.4087935,4341.8273712219,123.359584,0,0.036484909304,18200,2018-06-07 20:36:58,13,0,23.004,4341.8273712219,123.359584,0.447388,0.71572836936,0,0,-0.671082,328.9, -1.4, -2.6,0,0,1024,1024,1024,1024,327.8,-89.9,97,3.819,3.825,3.815,3.832,3.827,3.86,20.601,75.2,14,Waypoint,
38.7448312,-120.4087935,4343.1397072219,124.67192,0,0.036484909304,18300,2018-06-07 20:36:59,13,0,23.004,4343.1397072219,124.67192,0.447388,0.71572836936,0,0,-0.671082,329.1, -1.4, -2.5,0,0,1024,1024,1024,1024,327.8,-89.9,97,3.819,3.825,3.815,3.832,3.827,3.86,20.601,75.2,14,Waypoint,
38.7448313,-120.4087936,4345.1082112219,126.640424,0,0.078322180984,18500,2018-06-07 20:36:59,13,0,23.004,4345.1082112219,126.640424,0.447388,0.71572836936,0,0,-0.671082,329.1, -0.7, -2.5,0,0,1024,1024,1024,1024,327.8,-89.9,97,3.819,3.825,3.815,3.832,3.827,3.86,20.601,75.2,14,Waypoint,
38.7448313,-120.4087936,4346.0924632219,127.624676,0,0.078322180984,18600,2018-06-07 20:36:59,13,0,23.004,4346.0924632219,127.624676,0.447388,0.71572836936,0,0,-0.671082,329.1, -0.4, -2.4,0,0,1024,1024,1024,1024,327.8,-89.9,97,3.819,3.825,3.815,3.832,3.827,3.86,20.601,75.2,14,Waypoint,
38.7448314,-120.4087936,4347.0767152219,128.608928,0,0.113093507556,18700,2018-06-07 20:36:59,13,0,23.004,4347.0767152219,128.608928,0.447388,0.71572836936,0,0,-0.671082,329.1, -0.1, -2.5,0,0,1024,1024,1024,1024,327.8,-89.9,97,3.819,3.825,3.815,3.832,3.827,3.86,20.601,75.2,14,Waypoint,
38.7448315,-120.4087936,4348.0609672219,129.59318,0,0.148687996884,18800,2018-06-07 20:36:59,13,0,23.004,4348.0609672219,129.59318,0.447388,0.71572836936,0,0,-0.671082,329, 0, -2.8,0,0,1024,1024,1024,1024,327.8,-89.9,97,3.819,3.825,3.815,3.832,3.827,3.86,20.601,75.2,14,Waypoint,
38.7448315,-120.4087936,4348.0609672219,129.59318,0,0.148687996884,18900,2018-06-07 20:36:59,13,0,23.004,4348.0609672219,129.59318,0.447388,0.71572836936,0,0,-0.671082,329, 0, -2.8,0,0,1024,1024,1024,1024,327.8,-89.9,97,3.819,3.825,3.815,3.832,3.827,3.86,20.601,75.2,14,Waypoint,
38.7448315,-120.4087934,4350.0294712219,131.561684,0,0.148687996884,19000,2018-06-07 20:36:59,13,0,22.888,4350.0294712219,131.561684,0.447388,0.71572836936,0,0,-0.671082,328.7, -0.7, -3.2,0,0,1024,1024,1024,1024,327.8,-89.9,97,3.809,3.801,3.8,3.818,3.813,3.836,21.831,75.2,14,Waypoint,
38.7448316,-120.4087934,4351.0137232219,132.545936,0,0.18463091142,19200,2018-06-07 20:36:59,13,0,22.888,4351.0137232219,132.545936,0.447388,0.71572836936,0,0,-0.671082,328.5, -0.9, -3.3,0,0,1024,1024,1024,1024,327.8,-89.9,97,3.809,3.801,3.8,3.818,3.813,3.836,21.831,75.2,14,Waypoint,
38.7448316,-120.4087933,4351.9979752219,133.530188,0,0.191096134724,19300,2018-06-07 20:37:00,13,0,22.888,4351.9979752219,133.530188,0.447388,0.71572836936,0,0,-0.671082,328.4, -0.9, -3.2,0,0,1024,1024,1024,1024,327.8,-90,97,3.809,3.801,3.8,3.818,3.813,3.836,21.831,75.2,14,Waypoint,
38.7448316,-120.4087933,4353.9664792219,135.498692,0,0.191096134724,19410,2018-06-07 20:37:00,13,0,22.888,4353.9664792219,135.498692,0.447388,0.71572836936,0,0,-0.671082,328.2, -0.9, -3.2,0,0,1024,1024,1024,1024,327.8,-89.9,97,3.809,3.801,3.8,3.818,3.813,3.836,21.831,75.2,14,Waypoint,
38.7448316,-120.4087933,4354.9507312219,136.482944,0,0.191096134724,19500,2018-06-07 20:37:00,13,0,22.888,4354.9507312219,136.482944,0.447388,0.71572836936,0,0,-0.671082,328.3, -0.7, -2.9,0,0,1024,1024,1024,1024,327.8,-89.9,97,3.809,3.801,3.8,3.818,3.813,3.836,21.831,75.2,14,Waypoint,
38.7448316,-120.4087933,4355.9349832219,137.467196,0,0.191096134724,19700,2018-06-07 20:37:00,13,0,22.888,4355.9349832219,137.467196,0.447388,0.71572836936,0,0,-0.671082,328.3, -0.5, -2.6,0,0,1024,1024,1024,1024,327.8,-89.9,97,3.809,3.801,3.8,3.818,3.813,3.836,21.831,75.2,14,Waypoint,
38.7448316,-120.4087933,4356.5911512219,138.123364,0,0.191096134724,19800,2018-06-07 20:37:00,13,0,22.888,4356.5911512219,138.123364,0.447388,0.71572836936,0,0,-0.671082,328.3, -0.5, -2.5,0,0,1024,1024,1024,1024,327.8,-89.9,97,3.809,3.801,3.8,3.818,3.813,3.836,21.831,75.2,14,Waypoint,
38.7448315,-120.4087933,4357.5754032219,139.107616,0,0.156644361968,19900,2018-06-07 20:37:00,13,0,22.888,4357.5754032219,139.107616,0.447388,0.71572836936,0,0,-0.671082,328.3, -0.4, -2.5,0,0,1024,1024,1024,1024,327.8,-89.9,97,3.809,3.801,3.8,3.818,3.813,3.836,21.831,75.2,14,Waypoint,
38.7448315,-120.4087934,4358.5596552219,140.091868,0,0.148687996884,20000,2018-06-07 20:37:00,13,0,22.924,4358.5596552219,140.091868,0.447388,0.71572836936,0,0,-0.671082,328.2, -0.5, -2.4,0,0,1024,1024,1024,1024,327.8,-89.9,97,3.817,3.812,3.81,3.823,3.814,3.836,21.176,75.2,14,Waypoint,
38.7448315,-120.4087934,4359.5439072219,141.07612,0,0.148687996884,20100,2018-06-07 20:37:00,13,0,22.924,4359.5439072219,141.07612,0.447388,0.71572836936,0,0,-0.671082,328.2, -0.5, -2.3,0,0,1024,1024,1024,1024,327.8,-89.9,97,3.817,3.812,3.81,3.823,3.814,3.836,21.176,75.2,14,Waypoint,
38.7448313,-120.4087935,4361.5124112219,143.044624,0,0.072969818608,20200,2018-06-07 20:37:00,13,0,22.924,4361.5124112219,143.044624,0.447388,0.71572836936,0,0,-0.671082,328.3, -1.1, -1.9,0,0,1024,1024,1024,1024,327.8,-89.9,97,3.817,3.812,3.81,3.823,3.814,3.836,21.176,75.2,14,Waypoint,
38.7448313,-120.4087935,4362.4966632219,144.028876,0,0.072969818608,20300,2018-06-07 20:37:01,13,0,22.924,4362.4966632219,144.028876,0.447388,0.71572836936,0,0,-0.671082,328.6, -1.6, -1.6,0,0,1024,1024,1024,1024,327.8,-90,97,3.817,3.812,3.81,3.823,3.814,3.836,21.176,75.2,14,Waypoint,
38.7448312,-120.4087935,4363.4809152219,145.013128,0,0.036484909304,20400,2018-06-07 20:37:01,13,0,22.924,4363.4809152219,145.013128,0.447388,0.71572836936,0,0,-0.671082,328.9, -1.9, -1.6,0,0,1024,1024,1024,1024,327.8,-89.9,97,3.817,3.812,3.81,3.823,3.814,3.836,21.176,75.2,14,Waypoint,
38.7448311,-120.4087935,4365.4494192219,146.981632,0,0,20600,2018-06-07 20:37:01,13,0,22.924,4365.4494192219,146.981632,0.447388,0.71572836936,0,0,-0.671082,329.3, -1.7, -1.8,0,0,1024,1024,1024,1024,327.8,-89.9,97,3.817,3.812,3.81,3.823,3.814,3.836,21.176,75.2,14,Waypoint,
38.744831,-120.4087935,4366.7617552219,148.293968,0,0.036484909304,20700,2018-06-07 20:37:01,13,0,22.924,4366.7617552219,148.293968,0.447388,0.71572836936,0,0,-0.671082,329.4, -1.5, -2.1,0,0,1024,1024,1024,1024,327.8,-89.9,97,3.817,3.812,3.81,3.823,3.814,3.836,21.176,75.2,14,Waypoint,
38.744831,-120.4087935,4367.7460072219,149.27822,0,0.036484909304,20800,2018-06-07 20:37:01,13,0,22.924,4367.7460072219,149.27822,0.447388,0.71572836936,0,0,-0.671082,329.4, -1.5, -2.3,0,0,1024,1024,1024,1024,327.8,-89.9,97,3.817,3.812,3.81,3.823,3.814,3.836,21.176,75.2,14,Waypoint,
38.7448309,-120.4087935,4369.7145112219,151.246724,0,0.072969818608,21000,2018-06-07 20:37:01,13,0,22.889,4369.7145112219,151.246724,0.447388,0.71572836936,0,0,-0.671082,329.2, -1.6, -2.3,0,0,1024,1024,1024,1024,327.8,-89.9,97,3.811,3.81,3.799,3.811,3.81,3.844,20.671,77,14,Waypoint,
38.7448309,-120.4087935,4370.6987632219,152.230976,0,0.072969818608,21100,2018-06-07 20:37:01,13,0,22.889,4370.6987632219,152.230976,0.447388,0.71572836936,0,0,-0.671082,329.1, -1.7, -2.3,0,0,1024,1024,1024,1024,327.8,-89.9,97,3.811,3.81,3.799,3.811,3.81,3.844,20.671,77,14,Waypoint,
38.7448308,-120.4087934,4371.6830152219,153.215228,0,0.113093507556,21200,2018-06-07 20:37:01,13,0,22.889,4371.6830152219,153.215228,0.447388,0.71572836936,0,0,-0.671082,329, -1.8, -2.4,0,0,1024,1024,1024,1024,327.8,-90,97,3.811,3.81,3.799,3.811,3.81,3.844,20.671,77,14,Waypoint,
38.7448307,-120.4087934,4372.6672672219,154.19948,0,0.148687996884,21300,2018-06-07 20:37:02,13,0,22.889,4372.6672672219,154.19948,0.447388,0.71572836936,0,0,-0.671082,328.9, -1.9, -2.4,0,0,1024,1024,1024,1024,327.8,-90,97,3.811,3.81,3.799,3.811,3.81,3.844,20.671,77,14,Waypoint,
38.7448307,-120.4087934,4373.6515192219,155.183732,0,0.148687996884,21400,2018-06-07 20:37:02,13,0,22.889,4373.6515192219,155.183732,0.447388,0.71572836936,0,0,-0.671082,328.8, -1.9, -2.5,0,0,1024,1024,1024,1024,327.8,-89.9,97,3.811,3.81,3.799,3.811,3.81,3.844,20.671,77,14,Waypoint,
38.7448306,-120.4087934,4374.6357712219,156.167984,0,0.18463091142,21510,2018-06-07 20:37:02,13,0,22.889,4374.6357712219,156.167984,0.447388,0.71572836936,0,0,-0.671082,328.7, -1.8, -2.3,0,0,1024,1024,1024,1024,327.8,-89.9,97,3.811,3.81,3.799,3.811,3.81,3.844,20.671,77,14,Waypoint,
38.7448306,-120.4087934,4375.6200232219,157.152236,0,0.18463091142,21600,2018-06-07 20:37:02,13,0,22.889,4375.6200232219,157.152236,0.447388,0.71572836936,0,0,-0.671082,328.6, -1.8, -2.1,0,0,1024,1024,1024,1024,327.8,-90,97,3.811,3.81,3.799,3.811,3.81,3.844,20.671,77,14,Waypoint,
38.7448305,-120.4087934,4376.6042752219,158.136488,0,0.2207513194,21700,2018-06-07 20:37:02,13,0,22.889,4376.6042752219,158.136488,0.447388,0.71572836936,0,0,-0.671082,328.6, -1.9, -2.1,0,0,1024,1024,1024,1024,327.8,-90,97,3.811,3.81,3.799,3.811,3.81,3.844,20.671,77,14,Waypoint,
38.7448305,-120.4087934,4377.5885272219,159.12074,0,0.2207513194,21900,2018-06-07 20:37:02,13,0,22.889,4377.5885272219,159.12074,0.447388,0.71572836936,0,0,-0.671082,328.7, -2.1, -2,0,0,1024,1024,1024,1024,327.8,-90,97,3.811,3.81,3.799,3.811,3.81,3.844,20.671,77,14,Waypoint,
38.7448304,-120.4087934,4378.9008632219,160.433076,0,0.25697507384,22000,2018-06-07 20:37:02,13,0,22.975,4378.9008632219,160.433076,0.447388,0.71572836936,0,0,-0.671082,328.8, -2.1, -2.1,0,0,1024,1024,1024,1024,327.8,-89.9,96,3.828,3.825,3.808,3.829,3.831,3.859,19.832,77,14,Waypoint,
38.7448304,-120.4087934,4379.8851152219,161.417328,0,0.25697507384,22100,2018-06-07 20:37:02,13,0,22.975,4379.8851152219,161.417328,0.447388,0.71572836936,0,0,-0.671082,328.8, -2, -2.1,0,0,1024,1024,1024,1024,327.8,-89.9,96,3.828,3.825,3.808,3.829,3.831,3.859,19.832,77,14,Waypoint,
38.7448304,-120.4087935,4380.8693672219,162.40158,0,0.255394693212,22200,2018-06-07 20:37:02,13,0,22.975,4380.8693672219,162.40158,0.447388,0.71572836936,0,0,-0.671082,328.9, -1.8, -2.1,0,0,1024,1024,1024,1024,327.8,-89.9,96,3.828,3.825,3.808,3.829,3.831,3.859,19.832,77,14,Waypoint,
38.7448304,-120.4087935,4381.8536192219,163.385832,0,0.255394693212,22300,2018-06-07 20:37:03,13,0,22.975,4381.8536192219,163.385832,0.447388,0.71572836936,0,0,-0.671082,328.8, -1.4, -2.2,0,0,1024,1024,1024,1024,327.8,-89.9,96,3.828,3.825,3.808,3.829,3.831,3.859,19.832,77,14,Waypoint,
38.7448304,-120.4087935,4382.8378712219,164.370084,0,0.255394693212,22400,2018-06-07 20:37:03,13,0,22.975,4382.8378712219,164.370084,0.447388,0.71572836936,0,0,-0.671082,328.8, -1, -2.3,0,0,1024,1024,1024,1024,327.8,-89.9,96,3.828,3.825,3.808,3.829,3.831,3.859,19.832,77,14,Waypoint,
38.7448305,-120.4087935,4383.8221232219,165.354336,0,0.218909783908,22500,2018-06-07 20:37:03,13,0,22.975,4383.8221232219,165.354336,0.447388,0.71572836936,0,0,-0.671082,328.7, -0.8, -2.4,0,0,1024,1024,1024,1024,327.8,-89.9,96,3.828,3.825,3.808,3.829,3.831,3.859,19.832,77,14,Waypoint,
38.7448304,-120.4087936,4385.7906272219,167.32284,0,0.25697507384,22700,2018-06-07 20:37:03,13,0,22.975,4385.7906272219,167.32284,0.447388,0.71572836936,0,0,-0.671082,328.8, -1.3, -2.3,0,0,1024,1024,1024,1024,327.8,-89.9,96,3.828,3.825,3.808,3.829,3.831,3.859,19.832,77,14,Waypoint,
38.7448304,-120.4087935,4387.7591312219,169.291344,0,0.255394693212,22800,2018-06-07 20:37:03,13,0,22.975,4387.7591312219,169.291344,0.447388,0.71572836936,0,0,-0.671082,329.1, -1.8, -2.3,0,0,1024,1024,1024,1024,327.8,-89.9,96,3.828,3.825,3.808,3.829,3.831,3.859,19.832,77,14,Waypoint,
38.7448303,-120.4087935,4389.7276352219,171.259848,0,0.291879602516,23000,2018-06-07 20:37:03,13,0,22.995,4389.7276352219,171.259848,0.447388,0.71572836936,0,0,-0.671082,329.3, -1.8, -2.5,0,0,1024,1024,1024,1024,327.8,-90,96,3.829,3.823,3.816,3.837,3.839,3.862,19.299,77,14,Waypoint,
38.7448303,-120.4087935,4391.6961392219,173.228352,0,0.291879602516,23310,2018-06-07 20:37:04,13,0,22.995,4391.6961392219,173.228352,0.447388,0.71572836936,0,0,-0.671082,329.5, -1.8, -2.8,0,0,1024,1024,1024,1024,327.8,-90,96,3.829,3.823,3.816,3.837,3.839,3.862,19.299,77,14,Waypoint,
38.7448302,-120.4087935,4392.6803912219,174.212604,0,0.3283628714,23500,2018-06-07 20:37:04,13,0,22.995,4392.6803912219,174.212604,0.447388,0.71572836936,0,0,-0.671082,329.5, -1.9, -2.5,0,0,1024,1024,1024,1024,327.8,-89.9,96,3.829,3.823,3.816,3.837,3.839,3.862,19.299,77,14,Waypoint,
38.7448302,-120.4087935,4393.6646432219,175.196856,0,0.3283628714,23620,2018-06-07 20:37:04,13,0,22.995,4393.6646432219,175.196856,0.447388,0.71572836936,0,0,-0.671082,329.3, -1.7, -2.3,0,0,1024,1024,1024,1024,327.8,-89.9,96,3.829,3.823,3.816,3.837,3.839,3.862,19.299,77,14,Waypoint,
38.7448302,-120.4087935,4393.6646432219,175.196856,0,0.3283628714,23700,2018-06-07 20:37:04,13,0,22.995,4393.6646432219,175.196856,0.447388,0.71572836936,0,0,-0.671082,329.3, -1.7, -2.3,0,0,1024,1024,1024,1024,327.8,-89.9,96,3.829,3.823,3.816,3.837,3.839,3.862,19.299,77,14,Waypoint,
38.7448302,-120.4087935,4394.6488952219,176.181108,0,0.3283628714,23900,2018-06-07 20:37:04,13,0,22.995,4394.6488952219,176.181108,0.447388,0.71572836936,0,0,-0.671082,329.2, -1.3, -2.2,0,0,1024,1024,1024,1024,327.8,-89.9,96,3.829,3.823,3.816,3.837,3.839,3.862,19.299,77,14,Waypoint,
38.7448302,-120.4087936,4395.6331472219,177.16536,0,0.32959646724,24110,2018-06-07 20:37:04,13,0,22.995,4395.6331472219,177.16536,0.447388,0.71572836936,0,0,-0.671082,329, -1.2, -2.2,0,0,1024,1024,1024,1024,327.8,-89.9,96,3.829,3.823,3.816,3.837,3.839,3.862,19.299,77,14,Waypoint,
38.7448302,-120.4087937,4397.2735672219,178.80578,0,0.33326116552,24310,2018-06-07 20:37:05,13,0,22.995,4397.2735672219,178.80578,0.447388,0.71572836936,0,0,-0.671082,328.7, -1.6, -1.7,0,0,1024,1024,1024,1024,327.8,-90,96,3.829,3.823,3.816,3.837,3.839,3.862,19.299,77,14,Waypoint,
38.7448301,-120.4087938,4400.2263232219,181.758536,0,0.3747047364,24510,2018-06-07 20:37:05,13,0,22.995,4400.2263232219,181.758536,0.447388,0.71572836936,0,0,-0.671082,328.3, -1.8, -1.3,0,0,1024,1024,1024,1024,327.8,-89.9,96,3.829,3.823,3.816,3.837,3.839,3.862,19.299,77,14,Waypoint,
38.7448301,-120.4087939,4401.2105752219,182.742788,0,0.38219161328,24600,2018-06-07 20:37:05,13,0,22.995,4401.2105752219,182.742788,0.447388,0.71572836936,0,0,-0.671082,328.3, -1.6, -1.3,0,0,1024,1024,1024,1024,327.8,-89.9,96,3.829,3.823,3.816,3.837,3.839,3.862,19.299,77,14,Waypoint,
38.7448301,-120.4087939,4402.1948272219,183.72704,0,0.38219161328,24700,2018-06-07 20:37:05,13,0,22.995,4402.1948272219,183.72704,0.447388,0.71572836936,0,0,-0.671082,328.5, -1.5, -1.4,0,0,1024,1024,1024,1024,327.8,-89.9,96,3.829,3.823,3.816,3.837,3.839,3.862,19.299,77,14,Waypoint,
38.7448301,-120.408794,4404.1633312219,185.695544,0,0.39161090492,24900,2018-06-07 20:37:05,13,0,22.995,4404.1633312219,185.695544,0.447388,0.71572836936,0,0,-0.671082,328.6, -1.1, -1.5,0,0,1024,1024,1024,1024,327.8,-89.9,96,3.829,3.823,3.816,3.837,3.839,3.862,19.299,77,14,Waypoint,
38.7448302,-120.408794,4407.4441712219,188.976384,0,0.35786418468,25010,2018-06-07 20:37:05,13,0,22.872,4407.4441712219,188.976384,0.447388,0.71572836936,0,0,-0.671082,328.7, -1.1, -2.6,0,0,1024,1024,1024,1024,327.8,-89.9,96,3.826,3.823,3.824,3.83,3.832,3.856,20.622,77,14,Waypoint,
38.7448302,-120.408794,4407.4441712219,188.976384,0,0.35786418468,25100,2018-06-07 20:37:05,13,0,22.872,4407.4441712219,188.976384,0.447388,0.71572836936,0,0,-0.671082,328.7, -1.1, -2.6,0,0,1024,1024,1024,1024,327.8,-89.9,96,3.826,3.823,3.824,3.83,3.832,3.856,20.622,77,14,Waypoint,
38.7448303,-120.408794,4410.3969272219,191.92914,0,0.32471129648,25200,2018-06-07 20:37:05,13,0,22.872,4410.3969272219,191.92914,0.447388,0.71572836936,0,0,-0.671082,328.8, -1, -2.2,0,0,1024,1024,1024,1024,327.8,-89.9,96,3.826,3.823,3.824,3.83,3.832,3.856,20.622,77,14,Waypoint,
38.7448303,-120.4087941,4411.3811792219,192.913392,0,0.33814961712,25300,2018-06-07 20:37:06,13,0,22.872,4411.3811792219,192.913392,0.447388,0.71572836936,0,0,-0.671082,328.7, -1, -2.1,0,0,1024,1024,1024,1024,327.8,-89.9,96,3.826,3.823,3.824,3.83,3.832,3.856,20.622,77,14,Waypoint,
38.7448303,-120.4087941,4413.0215992219,194.553812,0,0.33814961712,25400,2018-06-07 20:37:06,13,0,22.872,4413.0215992219,194.553812,0.447388,0.71572836936,0,0,-0.671082,328.8, -1.2, -2.1,0,0,1024,1024,1024,1024,327.8,-89.9,96,3.826,3.823,3.824,3.83,3.832,3.856,20.622,77,14,Waypoint,
38.7448303,-120.4087942,4414.0058512219,195.538064,0,0.35337271472,25500,2018-06-07 20:37:06,13,0,22.872,4414.0058512219,195.538064,0.447388,0.71572836936,0,0,-0.671082,329, -1.4, -2,0,0,1024,1024,1024,1024,327.8,-89.9,96,3.826,3.823,3.824,3.83,3.832,3.856,20.622,77,14,Waypoint,
38.7448303,-120.4087942,4414.9901032219,196.522316,0,0.35337271472,25600,2018-06-07 20:37:06,13,0,22.872,4414.9901032219,196.522316,0.447388,0.71572836936,0,0,-0.671082,329.1, -1.3, -1.9,0,0,1024,1024,1024,1024,327.8,-89.9,96,3.826,3.823,3.824,3.83,3.832,3.856,20.622,77,14,Waypoint,
38.7448303,-120.4087943,4416.3024392219,197.834652,0,0.37015749216,25700,2018-06-07 20:37:06,13,0,22.872,4416.3024392219,197.834652,0.447388,0.71572836936,0,0,-0.671082,329.1, -1.1, -2,0,0,1024,1024,1024,1024,327.8,-89.9,96,3.826,3.823,3.824,3.83,3.832,3.856,20.622,77,14,Waypoint,
38.7448304,-120.4087944,4419.2551952219,200.787408,0,0.36168636328,26000,2018-06-07 20:37:06,13,0,22.872,4419.2551952219,200.787408,0.447388,0.71572836936,0,0,-0.671082,328.6, -1.1, -2,0,0,1024,1024,1024,1024,327.8,-89.9,96,3.801,3.797,3.801,3.817,3.823,3.834,20.622,77,14,Waypoint,
38.7448304,-120.4087945,4420.2394472219,201.77166,0,0.38236221696,26100,2018-06-07 20:37:06,13,0,22.872,4420.2394472219,201.77166,0.447388,0.71572836936,0,0,-0.671082,328.5, -1, -1.7,0,0,1024,1024,1024,1024,327.8,-89.9,96,3.801,3.797,3.801,3.817,3.823,3.834,20.622,77,14,Waypoint,
38.7448304,-120.4087946,4422.2079512219,203.740164,0,0.4039862334,26400,2018-06-07 20:37:07,13,0,22.872,4422.2079512219,203.740164,0.447388,0.71572836936,0,0,-0.671082,328.6, -0.7, -1.4,0,0,1024,1024,1024,1024,327.8,-89.9,96,3.801,3.797,3.801,3.817,3.823,3.834,20.622,77,14,Waypoint,
38.7448305,-120.4087947,4424.1764552219,205.708668,0,0.40561681088,26500,2018-06-07 20:37:07,13,0,22.872,4424.1764552219,205.708668,0.447388,0.71572836936,0,0,-0.671082,328.8, -0.6, -1.2,0,0,1024,1024,1024,1024,327.8,-89.9,96,3.801,3.797,3.801,3.817,3.823,3.834,20.622,77,14,Waypoint,
38.7448305,-120.4087948,4425.1607072219,206.69292,0,0.42984909512,26700,2018-06-07 20:37:07,13,0,22.872,4425.1607072219,206.69292,0.447388,0.71572836936,0,0,-0.671082,328.9, -0.6, -1.1,0,0,1024,1024,1024,1024,327.8,-89.9,96,3.801,3.797,3.801,3.817,3.823,3.834,20.622,77,14,Waypoint,
38.7448305,-120.4087948,4426.1449592219,207.677172,0,0.42984909512,26800,2018-06-07 20:37:07,13,0,22.872,4426.1449592219,207.677172,0.447388,0.71572836936,0,0,-0.671082,329, -0.7, -1.2,0,0,1024,1024,1024,1024,327.8,-89.9,96,3.801,3.797,3.801,3.817,3.823,3.834,20.622,77,14,Waypoint,
38.7448306,-120.4087948,4428.1134632219,209.645676,0,0.41246392396,26910,2018-06-07 20:37:07,13,0,22.872,4428.1134632219,209.645676,0.447388,0.71572836936,0,0,-0.671082,329, -0.7, -2,0,0,1024,1024,1024,1024,327.8,-89.9,96,3.801,3.797,3.801,3.817,3.823,3.834,20.622,77,14,Waypoint,
38.7448306,-120.4087948,4429.0977152219,210.629928,0,0.41246392396,27000,2018-06-07 20:37:07,13,0,22.914,4429.0977152219,210.629928,0.447388,0.71572836936,0,0,-0.671082,329, -1, -2.2,0,0,1024,1024,1024,1024,327.8,-90,96,3.813,3.811,3.814,3.817,3.823,3.844,20.09,77,14,Waypoint,
38.7448307,-120.4087948,4430.0819672219,211.61418,0,0.39767717808,27110,2018-06-07 20:37:07,13,0,22.914,4430.0819672219,211.61418,0.447388,0.71572836936,0,0,-0.671082,329.2, -1.2, -2.2,0,0,1024,1024,1024,1024,327.8,-90,96,3.813,3.811,3.814,3.817,3.823,3.844,20.09,77,14,Waypoint,
38.7448308,-120.4087947,4431.0662192219,212.598432,0,0.35858596948,27210,2018-06-07 20:37:07,13,0,22.914,4431.0662192219,212.598432,0.447388,0.71572836936,0,0,-0.671082,329.3, -1.4, -2.5,0,0,1024,1024,1024,1024,327.8,-90,96,3.813,3.811,3.814,3.817,3.823,3.844,20.09,77,14,Waypoint,
38.7448308,-120.4087946,4432.0504712219,213.582684,0,0.33160106048,27500,2018-06-07 20:37:08,13,0,22.914,4432.0504712219,213.582684,0.447388,0.71572836936,0,0,-0.671082,329.3, -1.3, -2.9,0,0,1024,1024,1024,1024,327.8,-90,96,3.813,3.811,3.814,3.817,3.823,3.844,20.09,77,14,Waypoint,
38.7448309,-120.4087946,4433.0347232219,214.566936,0,0.321409787188,27610,2018-06-07 20:37:08,13,0,22.914,4433.0347232219,214.566936,0.447388,0.71572836936,0,0,-0.671082,329.1, -0.7, -3.2,0,0,1024,1024,1024,1024,327.8,-89.9,96,3.813,3.811,3.814,3.817,3.823,3.844,20.09,77,14,Waypoint,
38.7448309,-120.4087945,4434.0189752219,215.551188,0,0.293767725936,27800,2018-06-07 20:37:08,13,0,22.914,4434.0189752219,215.551188,0.447388,0.71572836936,0,0,-0.671082,328.8, -0.4, -3,0,0,1024,1024,1024,1024,327.8,-89.9,96,3.813,3.811,3.814,3.817,3.823,3.844,20.09,77,14,Waypoint,
38.744831,-120.4087945,4435.0032272219,216.53544,0,0.286890429128,28000,2018-06-07 20:37:08,13,0,22.937,4435.0032272219,216.53544,0.447388,0.71572836936,0,0,-0.671082,328.7, -0.4, -3,0,0,1024,1024,1024,1024,327.8,-89.9,96,3.821,3.816,3.815,3.826,3.819,3.849,19.844,77,14,Waypoint,
38.744831,-120.4087944,4435.9874792219,217.519692,0,0.258690625076,28100,2018-06-07 20:37:08,13,0,22.937,4435.9874792219,217.519692,0.447388,0.71572836936,0,0,-0.671082,328.8, -0.6, -2.7,0,0,1024,1024,1024,1024,327.8,-89.9,96,3.821,3.816,3.815,3.826,3.819,3.849,19.844,77,14,Waypoint,
38.744831,-120.4087944,4436.9717312219,218.503944,0,0.258690625076,28200,2018-06-07 20:37:08,13,0,22.937,4436.9717312219,218.503944,0.447388,0.71572836936,0,0,-0.671082,328.9, -0.8, -2.6,0,0,1024,1024,1024,1024,327.8,-89.9,96,3.821,3.816,3.815,3.826,3.819,3.849,19.844,77,14,Waypoint,
38.744831,-120.4087943,4438.9402352219,220.472448,0,0.230553813152,28400,2018-06-07 20:37:09,13,0,22.937,4438.9402352219,220.472448,0.447388,0.71572836936,0,0,-0.671082,328.9, -1.5, -2.5,0,0,1024,1024,1024,1024,327.8,-89.9,96,3.821,3.816,3.815,3.826,3.819,3.849,19.844,77,14,Waypoint,
38.7448311,-120.4087943,4439.9244872219,221.4567,0,0.227648957416,28500,2018-06-07 20:37:09,13,0,22.937,4439.9244872219,221.4567,0.447388,0.71572836936,0,0,-0.671082,328.8, -1.2, -2.4,0,0,1024,1024,1024,1024,327.8,-89.9,96,3.821,3.816,3.815,3.826,3.819,3.849,19.844,77,14,Waypoint,
38.7448311,-120.4087944,4440.9087392219,222.440952,0,0.256104995072,28610,2018-06-07 20:37:09,13,0,22.937,4440.9087392219,222.440952,0.447388,0.71572836936,0,0,-0.671082,328.7, -0.8, -2.3,0,0,1024,1024,1024,1024,327.8,-89.9,96,3.821,3.816,3.815,3.826,3.819,3.849,19.844,77,14,Waypoint,
38.7448312,-120.4087946,4442.8772432219,224.409456,0,0.31513616494,28800,2018-06-07 20:37:09,13,0,22.937,4442.8772432219,224.409456,0.447388,0.71572836936,0,0,-0.671082,328.5, 0, -1.8,0,0,1024,1024,1024,1024,327.8,-89.9,96,3.821,3.816,3.815,3.826,3.819,3.849,19.844,77,14,Waypoint,
38.7448312,-120.4087947,4444.5176632219,226.049876,0,0.34341536532,29000,2018-06-07 20:37:09,13,0,22.966,4444.5176632219,226.049876,0.447388,0.71572836936,0,0,-0.671082,328.5, 0, -1.4,0,0,1024,1024,1024,1024,327.8,-89.9,96,3.827,3.819,3.811,3.832,3.824,3.849,19.663,77,14,Waypoint,
