Latitude, Longitude, Altitude (m), Time, Sats, Speed (m/s), Range (m), Battery (%), Roll (deg), Pitch (deg), Yaw (deg), Images, HD Signal (%), RC Signal (%), Battery Temp (C), Battery Voltage (mV), Battery Current (mA), Battery Energy (mAh), Battery Capacity (mAh), Battery Discharges, flyState, timestamp (Unix), LastUpdate (ms), radioChannel, Rc_elevator, Rc_aileron, Rc_throttle, Rc_rudder, Rc_gyro, Dronetype, Battery_Cell1 (mV), Battery_Cell2 (mV), Battery_Cell3 (mV), Battery_Cell4 (mV), Battery_Cell5 (mV), Battery_Cell6 (mV), Video, isFlying, elapsedTime (ms), gimbalPitch (deg), gimbalRoll (deg), gimbalYaw (deg), VelocityX (m/s), VelocityY (m/s), VelocityZ (m/s), GroundSmear (cm), App Version, Aircraft Name, Aircraft Firmware, Aircraft Serial Number, Battery Serial Number, Battery Lifetime (%), App_Tip, App_Warning, CurrentFlightStartingIndex, CurrentFlightLastVisitedWaypoint, PreviousFlightEndingWaypointIndex
38.6884643, -120.4165693, 0.000, 10:15:42.235, 15, 0.10, 0.09, 98, -0.900, -1.800, 47.400, 785, 100, 100, 17, 25248, -3833, 5381, 5491, 11, 11, 1528391742.236, 108, 0, 1024, 1024, 1024, 1024, 0, 6, 4229, 4240, 4243, 4255, 4246, 4218, 0, 1, 3097, -90.000, 0.000, 46.800, 0.100, 0.000, -0.100, 0.0, MapPilot_2.8.1_04242018, Dendroctonus I, 1.3.1.00, 041DDC1887, 1058171200149, 98, DJI_0782.jpg, Starting Mission from Lat/Long: 38.68844/-120.41657 Camera: Zenmuse X3 - Overlap: 90/90 - Active Connection: No, 32, 7, 32
38.6884644, -120.4165693, 0.000, 10:15:42.250, 15, 0.10, 0.11, 98, -0.500, -1.000, 47.600, 785, 100, 100, 17, 25248, -3833, 5381, 5491, 11, 11, 1528391742.250, 11, 0, 1024, 1024, 1024, 1024, 0, 6, 4229, 4240, 4243, 4255, 4246, 4218, 0, 1, 3112, -89.900, 0.000, 46.800, 0.100, 0.000, -0.200, 0.0, , , , , , 98, , , 32, 7, 32
38.6884649, -120.4165693, 0.000, 10:15:42.339, 15, 0.20, 0.16, 98, 0.200, 0.300, 47.400, 785, 100, 100, 17, 25248, -3833, 5381, 5491, 11, 11, 1528391742.340, 36, 0, 1024, 1024, 1024, 1024, 0, 6, 4229, 4240, 4243, 4255, 4246, 4218, 0, 1, 3202, -89.900, 0.000, 46.800, 0.200, 0.000, -0.300, 0.0, , , , , , 98, , , 32, 7, 32
38.6884651, -120.4165694, 0.000, 10:15:42.439, 15, 0.20, 0.19, 98, 0.600, 0.800, 47.200, 785, 100, 100, 17, 24875, -6313, 5381, 5491, 11, 11, 1528391742.439, 42, 0, 1024, 1024, 1024, 1024, 0, 6, 4077, 4057, 4115, 4100, 4097, 4104, 0, 1, 3301, -89.900, 0.000, 46.800, 0.200, 0.000, -0.300, 0.0, , , , , , 98, , , 32, 7, 32
38.6884654, -120.4165694, 0.100, 10:15:42.539, 15, 0.20, 0.22, 98, 1.400, 1.500, 47.100, 785, 100, 100, 17, 24875, -6313, 5381, 5491, 11, 11, 1528391742.540, 16, 0, 1024, 1024, 1024, 1024, 0, 6, 4077, 4057, 4115, 4100, 4097, 4104, 0, 1, 3402, -89.900, 0.000, 46.800, 0.200, 0.000, -0.300, 0.0, , , , , , 98, , , 32, 7, 32
38.6884656, -120.4165694, 0.100, 10:15:42.639, 15, 0.20, 0.24, 98, 2.000, 1.900, 47.200, 785, 100, 100, 17, 24875, -6313, 5381, 5491, 11, 11, 1528391742.640, 10, 0, 1024, 1024, 1024, 1024, 0, 6, 4077, 4057, 4115, 4100, 4097, 4104, 0, 1, 3502, -89.900, 0.000, 46.800, 0.200, 0.000, -0.300, 0.0, , , , , , 98, , , 32, 7, 32
38.6884658, -120.4165694, 0.200, 10:15:42.738, 15, 0.10, 0.26, 98, 2.100, 1.800, 47.300, 785, 100, 100, 17, 24875, -6313, 5381, 5491, 11, 11, 1528391742.738, 7, 0, 1024, 1024, 1024, 1024, 0, 6, 4077, 4057, 4115, 4100, 4097, 4104, 0, 1, 3600, -89.900, 0.000, 46.800, 0.100, 0.000, -0.300, 0.0, , , , , , 98, , , 32, 7, 32
38.6884658, -120.4165694, 0.200, 10:15:42.839, 15, 0.10, 0.26, 98, 2.100, 1.800, 47.300, 785, 100, 100, 17, 24875, -6313, 5381, 5491, 11, 11, 1528391742.839, 108, 0, 1024, 1024, 1024, 1024, 0, 6, 4077, 4057, 4115, 4100, 4097, 4104, 0, 1, 3701, -89.900, 0.000, 46.800, 0.100, 0.000, -0.300, 0.0, , , , , , 98, , , 32, 7, 32
38.6884661, -120.4165694, 0.200, 10:15:42.939, 15, 0.10, 0.30, 98, 1.600, 1.200, 47.300, 785, 100, 100, 17, 24875, -6313, 5381, 5491, 11, 11, 1528391742.939, 14, 0, 1024, 1024, 1024, 1024, 0, 6, 4077, 4057, 4115, 4100, 4097, 4104, 0, 1, 3801, -89.900, 0.000, 46.800, 0.100, 0.000, -0.400, 0.0, , , , , , 98, , , 32, 7, 32
38.6884663, -120.4165694, 0.300, 10:15:43.039, 15, 0.10, 0.32, 98, 1.200, 0.900, 47.300, 785, 100, 100, 17, 24875, -6313, 5381, 5491, 11, 11, 1528391743.039, 20, 0, 1024, 1024, 1024, 1024, 0, 6, 4077, 4057, 4115, 4100, 4097, 4104, 0, 1, 3901, -90.000, 0.000, 46.800, 0.100, 0.000, -0.400, 0.0, , , , , , 98, , , 32, 7, 32
38.6884663, -120.4165694, 0.300, 10:15:43.138, 15, 0.10, 0.32, 98, 1.200, 0.900, 47.300, 785, 100, 100, 17, 24875, -6313, 5381, 5491, 11, 11, 1528391743.138, 119, 0, 1024, 1024, 1024, 1024, 0, 6, 4077, 4057, 4115, 4100, 4097, 4104, 0, 1, 4000, -90.000, 0.000, 46.800, 0.100, 0.000, -0.400, 0.0, , , , , , 98, , , 32, 7, 32
38.6884667, -120.4165693, 0.400, 10:15:43.246, 16, 0.10, 0.36, 98, 1.600, 1.200, 47.200, 785, 100, 100, 17, 24875, -6313, 5381, 5491, 11, 11, 1528391743.247, 9, 0, 1024, 1024, 1024, 1024, 0, 6, 4077, 4057, 4115, 4100, 4097, 4104, 0, 1, 4109, -89.900, 0.000, 46.800, 0.100, 0.000, -0.400, 0.0, , , , , , 98, , , 32, 7, 32
38.6884668, -120.4165693, 0.400, 10:15:43.341, 14, 0.10, 0.37, 98, 1.700, 1.600, 47.200, 785, 100, 100, 17, 23752, -15937, 5381, 5491, 11, 11, 1528391743.342, 7, 0, 1024, 1024, 1024, 1024, 0, 6, 4077, 4057, 4115, 4100, 4097, 4104, 0, 1, 4204, -89.900, 0.000, 46.800, 0.100, 0.000, -0.400, 0.0, , , , , , 98, , , 32, 7, 32
38.6884668, -120.4165693, 0.400, 10:15:43.439, 14, 0.10, 0.37, 98, 1.700, 1.600, 47.200, 785, 100, 100, 17, 23752, -15937, 5381, 5491, 11, 11, 1528391743.439, 105, 0, 1024, 1024, 1024, 1024, 0, 6, 3922, 3905, 3961, 3947, 3955, 3951, 0, 1, 4301, -89.900, 0.000, 46.800, 0.100, 0.000, -0.400, 0.0, , , , , , 98, , , 32, 7, 32
38.6884669, -120.4165692, 0.500, 10:15:43.539, 14, 0.10, 0.38, 98, 1.600, 1.700, 47.200, 785, 100, 100, 17, 23752, -15937, 5381, 5491, 11, 11, 1528391743.539, 77, 0, 1024, 1024, 1024, 1024, 0, 6, 3922, 3905, 3961, 3947, 3955, 3951, 0, 1, 4401, -89.900, 0.000, 46.800, 0.100, 0.000, -0.400, 0.0, , , , , , 98, , , 32, 7, 32
38.6884670, -120.4165691, 0.500, 10:15:43.639, 12, 0.00, 0.39, 98, 1.300, 1.600, 47.100, 785, 100, 100, 17, 23752, -15937, 5381, 5491, 11, 11, 1528391743.640, 89, 0, 1024, 1024, 1024, 1024, 0, 6, 3922, 3905, 3961, 3947, 3955, 3951, 0, 1, 4502, -89.900, 0.000, 46.800, 0.000, 0.000, -0.400, 0.0, , , , , , 98, , , 32, 7, 32
38.6884672, -120.4165690, 0.600, 10:15:43.739, 12, 0.00, 0.41, 98, 0.900, 1.500, 47.100, 785, 100, 100, 17, 23752, -15937, 5381, 5491, 11, 11, 1528391743.740, 67, 0, 1024, 1024, 1024, 1024, 0, 6, 3922, 3905, 3961, 3947, 3955, 3951, 0, 1, 4602, -89.900, 0.000, 46.800, 0.000, 0.000, -0.400, 0.0, , , , , , 98, , , 32, 7, 32
38.6884673, -120.4165690, 0.600, 10:15:43.839, 15, 0.00, 0.42, 98, 0.600, 1.500, 47.000, 785, 100, 100, 17, 23752, -15937, 5381, 5491, 11, 11, 1528391743.840, 69, 0, 1024, 1024, 1024, 1024, 0, 6, 3922, 3905, 3961, 3947, 3955, 3951, 0, 1, 4701, -89.900, 0.000, 46.800, 0.000, 0.000, -0.500, 0.0, , , , , , 98, , , 32, 7, 32
38.6884674, -120.4165689, 0.700, 10:15:43.939, 15, 0.00, 0.44, 98, 0.600, 1.600, 46.900, 785, 100, 100, 17, 23752, -15937, 5381, 5491, 11, 11, 1528391743.939, 58, 0, 1024, 1024, 1024, 1024, 0, 6, 3922, 3905, 3961, 3947, 3955, 3951, 0, 1, 4801, -89.900, 0.000, 46.800, 0.000, 0.000, -0.500, 0.0, , , , , , 98, , , 32, 7, 32
38.6884675, -120.4165688, 0.700, 10:15:44.039, 15, 0.00, 0.45, 98, 0.700, 1.800, 46.800, 785, 100, 100, 17, 23752, -15937, 5381, 5491, 11, 11, 1528391744.039, 61, 0, 1024, 1024, 1024, 1024, 0, 6, 3922, 3905, 3961, 3947, 3955, 3951, 0, 1, 4901, -89.900, 0.000, 46.800, 0.000, 0.000, -0.400, 0.0, , , , , , 98, , , 32, 7, 32
38.6884677, -120.4165688, 0.800, 10:15:44.139, 15, 0.00, 0.47, 98, 0.700, 1.800, 46.800, 785, 100, 100, 17, 23752, -15937, 5381, 5491, 11, 11, 1528391744.139, 62, 0, 1024, 1024, 1024, 1024, 0, 6, 3922, 3905, 3961, 3947, 3955, 3951, 0, 1, 5001, -89.900, 0.000, 46.800, 0.000, 0.000, -0.500, 0.0, , , , , , 98, , , 32, 7, 32
38.6884678, -120.4165688, 0.800, 10:15:44.239, 15, 0.10, 0.48, 98, 0.900, 1.900, 46.900, 785, 100, 100, 17, 23752, -15937, 5381, 5491, 11, 11, 1528391744.240, 33, 0, 1024, 1024, 1024, 1024, 0, 6, 3922, 3905, 3961, 3947, 3955, 3951, 0, 1, 5101, -89.900, 0.000, 46.800, 0.100, 0.000, -0.400, 0.0, , , , , , 98, , , 32, 7, 32
38.6884680, -120.4165687, 0.900, 10:15:44.339, 15, 0.10, 0.50, 98, 1.200, 2.100, 47.000, 785, 100, 100, 17, 23752, -15937, 5381, 5491, 11, 14, 1528391744.339, 41, 0, 1024, 1024, 1024, 1024, 0, 6, 3922, 3905, 3961, 3947, 3955, 3951, 0, 1, 5201, -89.900, 0.000, 46.800, 0.100, 0.000, -0.400, 0.0, , , , , , 98, , , 32, 7, 32
38.6884681, -120.4165686, 0.900, 10:15:44.439, 15, 0.00, 0.51, 98, 1.200, 2.500, 47.000, 785, 100, 100, 17, 23485, -17160, 5381, 5491, 11, 14, 1528391744.440, 25, 0, 1024, 1024, 1024, 1024, 0, 6, 3922, 3905, 3961, 3947, 3955, 3951, 0, 1, 5301, -89.900, 0.000, 46.800, 0.000, 0.000, -0.300, 0.0, , , , , , 98, , , 32, 7, 32
38.6884682, -120.4165685, 1.000, 10:15:44.539, 15, 0.00, 0.52, 98, 0.800, 2.300, 47.000, 785, 100, 100, 17, 23485, -17160, 5381, 5491, 11, 14, 1528391744.539, 30, 0, 1024, 1024, 1024, 1024, 0, 6, 3922, 3905, 3961, 3947, 3955, 3951, 0, 1, 5401, -90.000, 0.000, 46.800, 0.000, 0.000, -0.300, 0.0, , , , , , 98, , , 32, 7, 32
38.6884682, -120.4165685, 1.000, 10:15:44.638, 16, 0.00, 0.53, 98, 0.600, 2.100, 47.100, 785, 100, 100, 17, 23485, -17160, 5381, 5491, 11, 14, 1528391744.639, 33, 0, 1024, 1024, 1024, 1024, 0, 6, 3922, 3905, 3961, 3947, 3955, 3951, 0, 1, 5501, -90.000, 0.000, 46.800, 0.000, 0.000, -0.200, 0.0, , , , , , 98, , , 32, 7, 32
38.6884683, -120.4165684, 1.000, 10:15:44.738, 16, 0.00, 0.54, 98, 0.400, 1.900, 47.100, 785, 100, 100, 17, 23485, -17160, 5381, 5491, 11, 14, 1528391744.738, 26, 0, 1024, 1024, 1024, 1024, 0, 6, 3922, 3905, 3961, 3947, 3955, 3951, 0, 1, 5600, -90.000, 0.000, 46.800, 0.000, 0.000, -0.300, 0.0, , , , , , 98, , , 32, 7, 32
38.6884685, -120.4165684, 1.100, 10:15:44.839, 14, 0.00, 0.56, 98, 0.300, 2.000, 47.300, 785, 100, 100, 17, 23485, -17160, 5381, 5491, 11, 14, 1528391744.839, 42, 0, 1024, 1024, 1024, 1024, 0, 6, 3922, 3905, 3961, 3947, 3955, 3951, 0, 1, 5701, -89.900, 0.000, 46.800, 0.000, 0.000, -0.400, 0.0, , , , , , 98, , , 32, 7, 32
38.6884686, -120.4165682, 1.200, 10:15:44.939, 14, 0.00, 0.57, 98, 0.400, 1.900, 47.700, 785, 100, 100, 17, 23485, -17160, 5381, 5491, 11, 14, 1528391744.940, 37, 0, 1024, 1024, 1024, 1024, 0, 6, 3890, 3877, 3922, 3914, 3928, 3906, 0, 1, 5802, -90.000, 0.000, 46.800, 0.000, 0.000, -0.700, 0.0, , , , , , 98, , , 32, 7, 32
38.6884687, -120.4165682, 1.300, 10:15:45.040, 14, 0.00, 0.58, 98, 0.800, 1.900, 47.800, 785, 100, 100, 17, 23485, -17160, 5381, 5491, 11, 14, 1528391745.041, 4, 0, 1024, 1024, 1024, 1024, 0, 6, 3890, 3877, 3922, 3914, 3928, 3906, 0, 1, 5902, -89.900, 0.000, 46.800, 0.000, 0.000, -0.900, 0.0, , , , , , 98, , , 32, 7, 32
38.6884687, -120.4165682, 1.300, 10:15:45.139, 14, 0.00, 0.58, 98, 0.800, 1.900, 47.800, 785, 100, 100, 17, 23485, -17160, 5381, 5491, 11, 14, 1528391745.140, 103, 0, 1024, 1024, 1024, 1024, 0, 6, 3890, 3877, 3922, 3914, 3928, 3906, 0, 1, 6002, -89.900, 0.000, 46.800, 0.000, 0.000, -0.900, 0.0, , , , , , 98, , , 32, 7, 32
38.6884689, -120.4165681, 1.500, 10:15:45.240, 14, 0.00, 0.60, 98, 1.000, 2.100, 47.900, 785, 100, 100, 17, 23485, -17160, 5381, 5491, 11, 14, 1528391745.240, 12, 0, 1024, 1024, 1024, 1024, 0, 6, 3890, 3877, 3922, 3914, 3928, 3906, 0, 1, 6102, -90.000, 0.000, 46.800, 0.000, 0.000, -1.200, 0.0, , , , , , 98, , , 32, 7, 32
38.6884689, -120.4165681, 1.500, 10:15:45.343, 14, 0.00, 0.60, 98, 1.000, 2.100, 47.900, 785, 100, 100, 17, 23485, -17160, 5381, 5491, 11, 14, 1528391745.344, 116, 0, 1024, 1024, 1024, 1024, 0, 6, 3890, 3877, 3922, 3914, 3928, 3906, 0, 1, 6206, -89.900, 0.000, 46.800, 0.000, 0.000, -1.200, 0.0, , , , , , 98, , , 32, 7, 32
38.6884691, -120.4165679, 1.800, 10:15:45.450, 14, 0.00, 0.63, 98, 1.200, 2.300, 47.700, 785, 100, 100, 17, 23485, -17160, 5381, 5491, 11, 14, 1528391745.450, 8, 0, 1024, 1024, 1024, 1024, 0, 6, 3890, 3877, 3922, 3914, 3928, 3906, 0, 1, 6312, -89.900, 0.000, 46.800, 0.000, 0.000, -1.600, 0.0, , , , , , 98, , , 32, 7, 32
38.6884692, -120.4165678, 1.900, 10:15:45.541, 14, 0.00, 0.64, 98, 1.000, 2.200, 47.700, 785, 100, 100, 17, 23485, -17160, 5381, 5491, 11, 14, 1528391745.543, 13, 0, 1024, 1024, 1024, 1024, 0, 6, 3890, 3877, 3922, 3914, 3928, 3906, 0, 1, 6405, -89.900, 0.000, 46.800, 0.000, 0.000, -1.800, 0.0, , , , , , 98, , , 32, 7, 32
38.6884692, -120.4165678, 1.900, 10:15:45.642, 14, 0.00, 0.64, 98, 1.000, 2.200, 47.700, 785, 100, 100, 17, 23485, -17160, 5381, 5491, 11, 14, 1528391745.644, 114, 0, 1024, 1024, 1024, 1024, 0, 6, 3890, 3877, 3922, 3914, 3928, 3906, 0, 1, 6506, -89.900, 0.000, 46.800, 0.000, 0.000, -1.800, 0.0, , , , , , 98, , , 32, 7, 32
38.6884696, -120.4165678, 2.400, 10:15:45.750, 14, 0.00, 0.69, 98, 1.200, 2.600, 47.700, 785, 100, 100, 17, 23485, -17160, 5381, 5491, 11, 14, 1528391745.750, 6, 0, 1024, 1024, 1024, 1024, 0, 6, 3890, 3877, 3922, 3914, 3928, 3906, 0, 1, 6612, -89.900, 0.000, 46.800, 0.000, 0.000, -2.500, 0.0, , , , , , 98, , , 32, 7, 32
38.6884696, -120.4165678, 2.400, 10:15:45.840, 14, 0.00, 0.69, 98, 1.200, 2.600, 47.700, 785, 100, 100, 17, 23485, -17160, 5381, 5491, 11, 14, 1528391745.840, 96, 0, 1024, 1024, 1024, 1024, 0, 6, 3890, 3877, 3922, 3914, 3928, 3906, 0, 1, 6702, -89.900, 0.000, 46.800, 0.000, 0.000, -2.500, 0.0, , , , , , 98, , , 32, 7, 32
38.6884697, -120.4165678, 2.700, 10:15:45.940, 14, 0.00, 0.70, 98, 1.800, 3.000, 47.800, 785, 100, 100, 17, 23558, -16124, 5381, 5491, 11, 14, 1528391745.941, 93, 0, 1024, 1024, 1024, 1024, 0, 6, 3872, 3890, 3908, 3890, 3942, 3895, 0, 1, 6803, -89.900, 0.000, 46.800, 0.000, 0.000, -2.700, 0.0, , , , , , 98, , , 32, 7, 32
38.6884698, -120.4165678, 2.900, 10:15:46.040, 14, 0.00, 0.71, 98, 1.900, 2.900, 47.900, 785, 100, 100, 17, 23558, -16124, 5381, 5491, 11, 14, 1528391746.041, 93, 0, 1024, 1024, 1024, 1024, 0, 6, 3872, 3890, 3908, 3890, 3942, 3895, 0, 1, 6903, -89.900, 0.000, 46.800, 0.000, 0.000, -2.800, 0.0, , , , , , 98, , , 32, 7, 32
38.6884698, -120.4165678, 3.300, 10:15:46.143, 14, 0.00, 0.71, 98, 1.800, 2.700, 47.900, 785, 100, 100, 17, 23558, -16124, 5381, 5491, 11, 14, 1528391746.144, 32, 0, 1024, 1024, 1024, 1024, 0, 6, 3872, 3890, 3908, 3890, 3942, 3895, 0, 1, 7005, -89.900, 0.000, 46.800, 0.000, 0.000, -3.000, 0.0, , , , , , 98, , , 32, 7, 32
38.6884698, -120.4165679, 3.600, 10:15:46.243, 15, 0.00, 0.71, 98, 1.600, 2.500, 47.800, 785, 100, 100, 17, 23558, -16124, 5381, 5491, 11, 14, 1528391746.244, 65, 0, 1024, 1024, 1024, 1024, 0, 6, 3872, 3890, 3908, 3890, 3942, 3895, 0, 1, 7106, -90.000, 0.000, 46.800, 0.000, 0.000, -3.100, 0.0, , , , , , 98, , , 32, 7, 32
38.6884699, -120.4165681, 3.900, 10:15:46.343, 15, 0.00, 0.72, 98, 1.500, 2.200, 47.700, 785, 100, 100, 17, 23558, -16124, 5381, 5491, 11, 14, 1528391746.344, 77, 0, 1024, 1024, 1024, 1024, 0, 6, 3872, 3890, 3908, 3890, 3942, 3895, 0, 1, 7206, -90.000, 0.000, 46.800, 0.000, 0.000, -3.100, 0.0, , , , , , 98, , , 32, 7, 32
38.6884700, -120.4165682, 4.200, 10:15:46.443, 14, 0.00, 0.73, 98, 1.700, 2.000, 47.700, 785, 100, 100, 17, 23558, -16124, 5381, 5491, 11, 14, 1528391746.444, 79, 0, 1024, 1024, 1024, 1024, 0, 6, 3872, 3890, 3908, 3890, 3942, 3895, 0, 1, 7306, -90.000, 0.000, 46.800, 0.000, 0.000, -3.200, 0.0, , , , , , 98, , , 32, 7, 32
38.6884700, -120.4165683, 4.600, 10:15:46.543, 14, 0.00, 0.73, 98, 1.800, 1.900, 47.600, 785, 100, 100, 17, 23558, -16124, 5381, 5491, 11, 14, 1528391746.544, 48, 0, 1024, 1024, 1024, 1024, 0, 6, 3872, 3890, 3908, 3890, 3942, 3895, 0, 1, 7406, -90.000, 0.000, 46.800, 0.000, 0.000, -3.200, 0.0, , , , , , 98, , , 32, 7, 32
38.6884700, -120.4165683, 4.900, 10:15:46.640, 16, 0.00, 0.73, 98, 2.000, 1.800, 47.500, 785, 100, 100, 17, 23558, -16124, 5381, 5491, 11, 14, 1528391746.641, 46, 0, 1024, 1024, 1024, 1024, 0, 6, 3872, 3890, 3908, 3890, 3942, 3895, 0, 1, 7503, -90.000, 0.000, 46.800, 0.000, 0.000, -3.300, 0.0, , , , , , 98, , , 32, 7, 32
38.6884700, -120.4165684, 5.200, 10:15:46.743, 16, 0.00, 0.72, 98, 2.100, 1.800, 47.500, 785, 100, 100, 17, 23558, -16124, 5381, 5491, 11, 14, 1528391746.744, 52, 0, 1024, 1024, 1024, 1024, 0, 6, 3872, 3890, 3908, 3890, 3942, 3895, 0, 1, 7606, -90.000, 0.000, 46.800, 0.000, 0.000, -3.300, 0.0, , , , , , 98, , , 32, 7, 32
38.6884699, -120.4165684, 5.600, 10:15:46.843, 14, 0.00, 0.71, 98, 2.000, 1.700, 47.500, 785, 100, 100, 17, 23558, -16124, 5381, 5491, 11, 14, 1528391746.844, 33, 0, 1024, 1024, 1024, 1024, 0, 6, 3872, 3890, 3908, 3890, 3942, 3895, 0, 1, 7706, -90.000, 0.000, 46.800, 0.000, 0.000, -3.300, 0.0, , , , , , 98, , , 32, 7, 32
38.6884697, -120.4165684, 5.900, 10:15:46.940, 14, 0.10, 0.70, 98, 1.700, 1.700, 47.500, 785, 100, 100, 17, 22575, -24930, 5326, 5491, 11, 14, 1528391746.940, 45, 0, 1024, 1024, 1024, 1024, 0, 6, 3872, 3890, 3908, 3890, 3942, 3895, 0, 1, 7802, -90.000, 0.000, 46.800, -0.100, 0.000, -3.300, 0.0, , , , , , 98, , , 32, 7, 32
38.6884696, -120.4165685, 6.300, 10:15:47.040, 14, 0.10, 0.68, 98, 1.200, 1.600, 47.600, 785, 100, 100, 17, 22575, -24930, 5326, 5491, 11, 14, 1528391747.041, 30, 0, 1024, 1024, 1024, 1024, 0, 6, 3872, 3890, 3908, 3890, 3942, 3895, 0, 1, 7903, -90.000, 0.000, 46.800, -0.100, 0.000, -3.300, 0.0, , , , , , 98, , , 32, 7, 32
38.6884696, -120.4165685, 6.300, 10:15:47.140, 14, 0.10, 0.68, 98, 1.200, 1.600, 47.600, 785, 100, 100, 17, 22575, -24930, 5326, 5491, 11, 14, 1528391747.141, 130, 0, 1024, 1024, 1024, 1024, 0, 6, 3741, 3724, 3787, 3757, 3766, 3757, 0, 1, 8003, -90.000, 0.000, 46.800, -0.100, 0.000, -3.300, 0.0, , , , , , 98, , , 32, 7, 32
38.6884695, -120.4165683, 7.000, 10:15:47.240, 14, 0.10, 0.67, 98, 0.800, 1.700, 47.600, 785, 100, 100, 17, 22575, -24930, 5326, 5491, 11, 14, 1528391747.241, 26, 0, 1024, 1024, 1024, 1024, 0, 6, 3741, 3724, 3787, 3757, 3766, 3757, 0, 1, 8102, -89.900, 0.000, 46.800, -0.100, 0.000, -3.300, 0.0, , , , , , 98, , , 32, 7, 32
38.6884689, -120.4165683, 7.700, 10:15:47.342, 15, 0.10, 0.61, 98, -0.100, 1.300, 47.500, 785, 100, 100, 17, 22575, -24930, 5326, 5491, 11, 14, 1528391747.342, 20, 0, 1024, 1024, 1024, 1024, 0, 6, 3741, 3724, 3787, 3757, 3766, 3757, 0, 1, 8204, -90.000, 0.000, 46.800, -0.100, 0.000, -3.200, 0.0, , , , , , 98, , , 32, 7, 32
38.6884690, -120.4165684, 8.000, 10:15:47.440, 15, 0.10, 0.62, 98, -0.400, 0.800, 47.600, 785, 100, 100, 17, 22575, -24930, 5326, 5491, 11, 14, 1528391747.441, 28, 0, 1024, 1024, 1024, 1024, 0, 6, 3741, 3724, 3787, 3757, 3766, 3757, 0, 1, 8303, -90.000, 0.000, 46.800, -0.100, 0.000, -3.100, 0.0, , , , , , 98, , , 32, 7, 32
38.6884691, -120.4165685, 8.300, 10:15:47.543, 15, 0.00, 0.63, 98, 0.000, 0.600, 47.600, 785, 100, 100, 17, 22575, -24930, 5326, 5491, 11, 14, 1528391747.544, 31, 0, 1024, 1024, 1024, 1024, 0, 6, 3741, 3724, 3787, 3757, 3766, 3757, 0, 1, 8406, -90.000, 0.000, 46.800, 0.000, 0.000, -3.100, 0.0, , , , , , 98, , , 32, 7, 32
38.6884691, -120.4165686, 8.600, 10:15:47.641, 15, 0.00, 0.62, 98, 0.700, 0.700, 47.600, 785, 100, 100, 17, 22575, -24930, 5326, 5491, 11, 14, 1528391747.642, 24, 0, 1024, 1024, 1024, 1024, 0, 6, 3741, 3724, 3787, 3757, 3766, 3757, 0, 1, 8504, -90.000, 0.000, 46.800, 0.000, 0.000, -3.100, 0.0, , , , , , 98, , , 32, 7, 32
38.6884691, -120.4165687, 8.900, 10:15:47.742, 15, 0.00, 0.62, 98, 1.100, 0.800, 47.600, 785, 100, 100, 17, 22575, -24930, 5326, 5491, 11, 14, 1528391747.743, 24, 0, 1024, 1024, 1024, 1024, 0, 6, 3741, 3724, 3787, 3757, 3766, 3757, 0, 1, 8605, -90.000, 0.000, 46.800, 0.000, 0.000, -3.100, 0.0, , , , , , 98, , , 32, 7, 32
38.6884691, -120.4165687, 9.300, 10:15:47.840, 15, 0.00, 0.62, 98, 1.400, 0.900, 47.500, 785, 100, 100, 17, 22575, -24930, 5326, 5491, 11, 14, 1528391747.841, 12, 0, 1024, 1024, 1024, 1024, 0, 6, 3741, 3724, 3787, 3757, 3766, 3757, 0, 1, 8703, -90.000, 0.000, 46.800, 0.000, 0.000, -3.100, 0.0, , , , , , 98, , , 32, 7, 32
38.6884691, -120.4165686, 9.600, 10:15:47.947, 14, 0.00, 0.62, 97, 1.300, 1.000, 47.500, 785, 100, 100, 17, 22772, -21945, 5326, 5491, 11, 14, 1528391747.947, 19, 0, 1024, 1024, 1024, 1024, 0, 6, 3741, 3724, 3787, 3757, 3766, 3757, 0, 1, 8809, -90.000, 0.000, 46.800, 0.000, 0.000, -3.000, 0.0, , , , , , 98, , , 32, 7, 32
38.6884691, -120.4165686, 9.600, 10:15:48.041, 14, 0.00, 0.62, 97, 1.300, 1.000, 47.500, 785, 100, 100, 17, 22772, -21945, 5326, 5491, 11, 14, 1528391748.042, 114, 0, 1024, 1024, 1024, 1024, 0, 6, 3741, 3724, 3787, 3757, 3766, 3757, 0, 1, 8904, -90.000, 0.000, 46.800, 0.000, 0.000, -3.000, 0.0, , , , , , 98, , , 32, 7, 32
38.6884689, -120.4165685, 9.900, 10:15:48.140, 14, 0.00, 0.60, 97, 0.800, 1.100, 47.400, 785, 100, 99, 17, 22772, -21945, 5326, 5491, 11, 14, 1528391748.143, 61, 0, 1024, 1024, 1024, 1024, 0, 6, 3775, 3759, 3820, 3818, 3830, 3815, 0, 1, 9005, -90.000, 0.000, 46.800, 0.000, 0.000, -3.100, 0.0, , , , , , 98, , , 32, 7, 32
38.6884687, -120.4165683, 10.200, 10:15:48.240, 16, 0.10, 0.58, 97, 0.100, 1.300, 47.400, 785, 100, 99, 17, 22772, -21945, 5326, 5491, 11, 14, 1528391748.243, 67, 0, 1024, 1024, 1024, 1024, 0, 6, 3775, 3759, 3820, 3818, 3830, 3815, 0, 1, 9105, -90.000, 0.000, 46.800, -0.100, 0.000, -3.000, 0.0, , , , , , 98, , , 32, 7, 32
38.6884686, -120.4165681, 10.500, 10:15:48.339, 16, 0.10, 0.57, 97, -0.600, 1.300, 47.300, 785, 100, 99, 17, 22772, -21945, 5326, 5491, 11, 14, 1528391748.339, 91, 0, 1024, 1024, 1024, 1024, 0, 6, 3775, 3759, 3820, 3818, 3830, 3815, 0, 1, 9201, -90.000, 0.000, 46.800, -0.100, 0.000, -3.100, 0.0, , , , , , 98, , , 32, 7, 32
38.6884684, -120.4165677, 11.200, 10:15:48.443, 15, 0.10, 0.55, 97, -1.600, 1.200, 47.100, 785, 100, 99, 17, 22772, -21945, 5326, 5491, 11, 14, 1528391748.443, 6, 0, 1024, 1024, 1024, 1024, 0, 6, 3775, 3759, 3820, 3818, 3830, 3815, 0, 1, 9305, -89.900, 0.000, 46.800, -0.100, 0.000, -3.000, 0.0, , , , , , 98, , , 32, 7, 32
38.6884684, -120.4165677, 11.200, 10:15:48.539, 15, 0.10, 0.55, 97, -1.600, 1.200, 47.100, 785, 100, 97, 17, 22772, -21945, 5326, 5491, 11, 14, 1528391748.540, 102, 0, 1024, 1024, 1024, 1024, 0, 6, 3775, 3759, 3820, 3818, 3830, 3815, 0, 1, 9401, -90.000, 0.000, 46.800, -0.100, 0.000, -3.000, 0.0, , , , , , 98, , , 32, 7, 32
38.6884682, -120.4165675, 11.500, 10:15:48.639, 16, 0.00, 0.54, 97, -1.500, 1.300, 47.200, 785, 100, 97, 17, 22772, -21945, 5326, 5491, 11, 14, 1528391748.639, 81, 0, 1024, 1024, 1024, 1024, 0, 6, 3775, 3759, 3820, 3818, 3830, 3815, 0, 1, 9501, -90.000, 0.000, 46.800, 0.000, 0.000, -3.100, 0.0, , , , , , 98, , , 32, 7, 32
38.6884681, -120.4165674, 11.800, 10:15:48.739, 16, 0.00, 0.53, 97, -1.300, 1.200, 47.200, 785, 100, 97, 17, 22772, -21945, 5326, 5491, 11, 14, 1528391748.740, 71, 0, 1024, 1024, 1024, 1024, 0, 6, 3775, 3759, 3820, 3818, 3830, 3815, 0, 1, 9601, -90.000, 0.000, 46.800, 0.000, 0.000, -3.000, 0.0, , , , , , 98, , , 32, 7, 32
38.6884680, -120.4165673, 12.100, 10:15:48.839, 15, 0.00, 0.52, 97, -1.100, 1.000, 47.300, 785, 100, 97, 17, 22772, -21945, 5326, 5491, 11, 14, 1528391748.839, 74, 0, 1024, 1024, 1024, 1024, 0, 6, 3775, 3759, 3820, 3818, 3830, 3815, 0, 1, 9701, -89.900, 0.000, 46.800, 0.000, 0.000, -3.000, 0.0, , , , , , 98, , , 32, 7, 32
38.6884679, -120.4165672, 12.400, 10:15:48.939, 15, 0.00, 0.51, 97, -0.800, 1.000, 47.400, 785, 100, 97, 17, 22928, -19273, 5326, 5491, 11, 14, 1528391748.939, 73, 0, 1024, 1024, 1024, 1024, 0, 6, 3801, 3789, 3843, 3828, 3844, 3820, 0, 1, 9801, -90.000, 0.000, 46.800, 0.000, 0.000, -3.000, 0.0, , , , , , 98, , , 32, 7, 32
38.6884679, -120.4165672, 12.400, 10:15:49.039, 15, 0.00, 0.51, 97, -0.800, 1.000, 47.400, 785, 100, 96, 17, 22928, -19273, 5326, 5491, 11, 14, 1528391749.039, 174, 0, 1024, 1024, 1024, 1024, 0, 6, 3801, 3789, 3843, 3828, 3844, 3820, 0, 1, 9901, -89.900, 0.000, 46.800, 0.000, 0.000, -3.000, 0.0, , , , , , 98, , , 32, 7, 32
38.6884678, -120.4165671, 13.000, 10:15:49.139, 16, 0.00, 0.51, 97, -0.800, 1.200, 47.600, 785, 100, 96, 17, 22928, -19273, 5326, 5491, 11, 14, 1528391749.140, 80, 0, 1024, 1024, 1024, 1024, 0, 6, 3801, 3789, 3843, 3828, 3844, 3820, 0, 1, 10002, -89.900, 0.000, 46.800, 0.000, 0.000, -3.000, 0.0, , , , , , 98, , , 32, 7, 32
38.6884678, -120.4165670, 13.300, 10:15:49.243, 16, 0.00, 0.50, 97, -0.700, 1.300, 47.700, 785, 100, 96, 17, 22928, -19273, 5326, 5491, 11, 14, 1528391749.244, 59, 0, 1024, 1024, 1024, 1024, 0, 6, 3801, 3789, 3843, 3828, 3844, 3820, 0, 1, 10106, -89.900, 0.000, 46.800, 0.000, 0.000, -3.000, 0.0, , , , , , 98, , , 32, 7, 32
38.6884677, -120.4165670, 13.600, 10:15:49.339, 16, 0.00, 0.50, 97, -0.700, 1.100, 47.800, 785, 100, 96, 17, 22928, -19273, 5326, 5491, 11, 14, 1528391749.339, 72, 0, 1024, 1024, 1024, 1024, 0, 6, 3801, 3789, 3843, 3828, 3844, 3820, 0, 1, 10201, -90.000, 0.000, 46.800, 0.000, 0.000, -2.900, 0.0, , , , , , 98, , , 32, 7, 32
38.6884676, -120.4165669, 13.900, 10:15:49.439, 16, 0.00, 0.49, 97, -0.700, 1.000, 47.800, 785, 100, 96, 17, 22928, -19273, 5326, 5491, 11, 14, 1528391749.439, 75, 0, 1024, 1024, 1024, 1024, 0, 6, 3801, 3789, 3843, 3828, 3844, 3820, 0, 1, 10301, -90.000, 0.000, 46.800, 0.000, 0.000, -2.900, 0.0, , , , , , 98, , , 32, 7, 32
38.6884677, -120.4165669, 14.200, 10:15:49.539, 16, 0.00, 0.50, 97, -0.700, 1.000, 47.900, 785, 100, 97, 17, 22928, -19273, 5326, 5491, 11, 14, 1528391749.540, 43, 0, 1024, 1024, 1024, 1024, 0, 6, 3801, 3789, 3843, 3828, 3844, 3820, 0, 1, 10402, -90.000, 0.000, 46.800, 0.000, 0.000, -2.900, 0.0, , , , , , 98, , , 32, 7, 32
38.6884678, -120.4165668, 14.500, 10:15:49.639, 16, 0.00, 0.51, 97, -0.400, 1.300, 47.900, 785, 100, 97, 17, 22928, -19273, 5326, 5491, 11, 14, 1528391749.640, 55, 0, 1024, 1024, 1024, 1024, 0, 6, 3801, 3789, 3843, 3828, 3844, 3820, 0, 1, 10502, -89.900, 0.000, 46.800, 0.000, 0.000, -2.900, 0.0, , , , , , 98, , , 32, 7, 32
38.6884678, -120.4165668, 14.800, 10:15:49.739, 16, 0.00, 0.51, 97, -0.300, 1.400, 47.900, 785, 100, 97, 17, 22928, -19273, 5326, 5491, 11, 14, 1528391749.740, 48, 0, 1024, 1024, 1024, 1024, 0, 6, 3801, 3789, 3843, 3828, 3844, 3820, 0, 1, 10602, -90.000, 0.000, 46.800, 0.000, 0.000, -3.000, 0.0, , , , , , 98, , , 32, 7, 32
38.6884678, -120.4165669, 15.200, 10:15:49.838, 18, 0.00, 0.51, 97, -0.100, 1.300, 47.800, 785, 100, 97, 17, 22928, -19273, 5326, 5491, 11, 14, 1528391749.839, 52, 0, 1024, 1024, 1024, 1024, 0, 6, 3801, 3789, 3843, 3828, 3844, 3820, 0, 1, 10701, -90.000, 0.000, 46.800, 0.000, 0.000, -3.000, 0.0, , , , , , 98, , , 32, 7, 32
38.6884678, -120.4165669, 15.200, 10:15:49.939, 18, 0.00, 0.51, 97, -0.100, 1.300, 47.800, 785, 100, 97, 17, 22938, -19273, 5326, 5491, 11, 14, 1528391749.939, 152, 0, 1024, 1024, 1024, 1024, 0, 6, 3801, 3789, 3843, 3828, 3844, 3820, 0, 1, 10801, -90.000, 0.000, 46.800, 0.000, 0.000, -3.000, 0.0, , , , , , 98, , , 32, 7, 32
38.6884678, -120.4165669, 15.800, 10:15:50.039, 18, 0.00, 0.51, 97, 0.000, 1.200, 47.800, 785, 100, 98, 17, 22938, -19273, 5326, 5491, 11, 14, 1528391750.039, 33, 0, 1024, 1024, 1024, 1024, 0, 6, 3801, 3789, 3843, 3828, 3844, 3820, 0, 1, 10901, -90.000, 0.000, 46.800, 0.000, 0.000, -3.000, 0.0, , , , , , 98, , , 32, 7, 32
38.6884678, -120.4165670, 16.400, 10:15:50.146, 16, 0.00, 0.51, 97, -0.200, 0.900, 47.800, 785, 100, 98, 17, 22938, -19273, 5326, 5491, 11, 14, 1528391750.147, 8, 0, 1024, 1024, 1024, 1024, 0, 6, 3801, 3789, 3843, 3828, 3844, 3820, 0, 1, 11009, -90.000, 0.000, 46.800, 0.000, 0.000, -2.900, 0.0, , , , , , 98, , , 32, 7, 32
38.6884678, -120.4165670, 16.400, 10:15:50.239, 16, 0.00, 0.51, 97, -0.200, 0.900, 47.800, 785, 100, 98, 17, 22938, -19273, 5326, 5491, 11, 14, 1528391750.239, 101, 0, 1024, 1024, 1024, 1024, 0, 6, 3801, 3789, 3843, 3828, 3844, 3820, 0, 1, 11101, -90.000, 0.000, 46.800, 0.000, 0.000, -2.900, 0.0, , , , , , 98, , , 32, 7, 32
38.6884678, -120.4165671, 16.700, 10:15:50.339, 16, 0.00, 0.51, 97, -0.400, 0.800, 47.800, 785, 100, 98, 17, 22938, -19273, 5326, 5491, 11, 14, 1528391750.339, 80, 0, 1024, 1024, 1024, 1024, 0, 6, 3801, 3789, 3843, 3828, 3844, 3820, 0, 1, 11201, -90.000, 0.000, 46.800, 0.000, 0.000, -2.900, 0.0, , , , , , 98, , , 32, 7, 32
38.6884679, -120.4165672, 17.300, 10:15:50.439, 17, 0.00, 0.51, 97, -0.200, 0.800, 47.800, 785, 100, 98, 17, 22938, -19273, 5326, 5491, 11, 14, 1528391750.439, 30, 0, 1024, 1024, 1024, 1024, 0, 6, 3804, 3791, 3841, 3826, 3844, 3822, 0, 1, 11301, -90.000, 0.000, 46.800, 0.000, 0.000, -2.900, 0.0, , , , , , 98, , , 32, 7, 32
38.6884679, -120.4165672, 17.300, 10:15:50.539, 17, 0.00, 0.51, 97, -0.200, 0.800, 47.800, 785, 100, 99, 17, 22938, -19273, 5326, 5491, 11, 14, 1528391750.541, 131, 0, 1024, 1024, 1024, 1024, 0, 6, 3804, 3791, 3841, 3826, 3844, 3822, 0, 1, 11403, -89.900, 0.000, 46.800, 0.000, 0.000, -2.900, 0.0, , , , , , 98, , , 32, 7, 32
38.6884679, -120.4165673, 17.900, 10:15:50.647, 17, 0.00, 0.51, 97, 0.000, 0.800, 47.700, 785, 100, 99, 17, 22938, -19273, 5326, 5491, 11, 14, 1528391750.647, 9, 0, 1024, 1024, 1024, 1024, 0, 6, 3804, 3791, 3841, 3826, 3844, 3822, 0, 1, 11509, -90.000, 0.000, 46.800, 0.000, 0.000, -2.900, 0.0, , , , , , 98, , , 32, 7, 32
38.6884680, -120.4165674, 18.200, 10:15:50.741, 17, 0.00, 0.51, 97, 0.200, 0.800, 47.600, 785, 100, 99, 17, 22938, -19273, 5326, 5491, 11, 14, 1528391750.742, 7, 0, 1024, 1024, 1024, 1024, 0, 6, 3804, 3791, 3841, 3826, 3844, 3822, 0, 1, 11604, -90.000, 0.000, 46.800, 0.000, 0.000, -2.800, 0.0, , , , , , 98, , , 32, 7, 32
38.6884680, -120.4165674, 18.500, 10:15:50.839, 17, 0.00, 0.52, 97, 0.400, 0.700, 47.600, 785, 100, 99, 17, 22938, -19273, 5326, 5491, 11, 14, 1528391750.840, 11, 0, 1024, 1024, 1024, 1024, 0, 6, 3804, 3791, 3841, 3826, 3844, 3822, 0, 1, 11702, -90.000, 0.000, 46.800, 0.000, 0.000, -2.800, 0.0, , , , , , 98, , , 32, 7, 32
38.6884681, -120.4165675, 18.800, 10:15:50.940, 17, 0.00, 0.52, 97, 0.400, 0.600, 47.500, 785, 100, 99, 17, 22938, -19273, 5326, 5491, 11, 14, 1528391750.941, 24, 0, 1024, 1024, 1024, 1024, 0, 6, 3804, 3791, 3841, 3826, 3844, 3822, 0, 1, 11803, -89.900, 0.000, 46.800, 0.000, 0.000, -2.900, 0.0, , , , , , 98, , , 32, 7, 32
38.6884682, -120.4165676, 19.100, 10:15:51.039, 17, 0.00, 0.53, 97, 0.400, 0.700, 47.500, 785, 100, 99, 17, 22938, -19273, 5326, 5491, 11, 14, 1528391751.040, 13, 0, 1024, 1024, 1024, 1024, 0, 6, 3804, 3791, 3841, 3826, 3844, 3822, 0, 1, 11902, -90.000, 0.000, 46.800, 0.000, 0.000, -3.000, 0.0, , , , , , 98, , , 32, 7, 32
38.6884682, -120.4165677, 19.400, 10:15:51.140, 18, 0.00, 0.54, 97, 0.400, 0.800, 47.500, 785, 100, 99, 17, 22938, -19273, 5326, 5491, 11, 14, 1528391751.141, 7, 0, 1024, 1024, 1024, 1024, 0, 6, 3804, 3791, 3841, 3826, 3844, 3822, 0, 1, 12003, -89.900, 0.000, 46.800, 0.000, 0.000, -2.900, 0.0, , , , , , 98, , , 32, 7, 32
38.6884682, -120.4165677, 19.400, 10:15:51.238, 18, 0.00, 0.54, 97, 0.400, 0.800, 47.500, 785, 100, 99, 17, 22938, -19273, 5326, 5491, 11, 14, 1528391751.239, 105, 0, 1024, 1024, 1024, 1024, 0, 6, 3804, 3791, 3841, 3826, 3844, 3822, 0, 1, 12101, -89.900, 0.000, 46.800, 0.000, 0.000, -2.900, 0.0, , , , , , 98, , , 32, 7, 32
38.6884683, -120.4165677, 19.700, 10:15:51.338, 18, 0.00, 0.54, 97, 0.500, 0.900, 47.500, 785, 100, 99, 17, 22938, -19273, 5326, 5491, 11, 14, 1528391751.340, 76, 0, 1024, 1024, 1024, 1024, 0, 6, 3804, 3791, 3841, 3826, 3844, 3822, 0, 1, 12202, -89.900, 0.000, 46.800, 0.000, 0.000, -2.900, 0.0, , , , , , 98, , , 32, 7, 32
38.6884684, -120.4165678, 20.000, 10:15:51.439, 19, 0.00, 0.55, 97, 0.500, 1.100, 47.500, 785, 100, 99, 17, 22906, -19086, 5326, 5491, 11, 14, 1528391751.440, 70, 0, 1024, 1024, 1024, 1024, 0, 6, 3786, 3775, 3845, 3826, 3844, 3828, 0, 1, 12302, -89.900, 0.000, 46.800, 0.000, 0.000, -2.900, 0.0, , , , , , 98, , , 32, 7, 32
38.6884684, -120.4165678, 20.300, 10:15:51.539, 19, 0.00, 0.55, 97, 0.500, 1.000, 47.500, 785, 100, 99, 17, 22906, -19086, 5326, 5491, 11, 14, 1528391751.539, 97, 0, 1024, 1024, 1024, 1024, 0, 6, 3786, 3775, 3845, 3826, 3844, 3828, 0, 1, 12401, -89.900, 0.000, 46.800, 0.000, 0.000, -2.800, 0.0, , , , , , 98, , , 32, 7, 32
38.6884684, -120.4165679, 20.600, 10:15:51.639, 19, 0.00, 0.56, 97, 0.500, 0.900, 47.500, 785, 100, 99, 17, 22906, -19086, 5326, 5491, 11, 14, 1528391751.640, 78, 0, 1024, 1024, 1024, 1024, 0, 6, 3786, 3775, 3845, 3826, 3844, 3828, 0, 1, 12502, -89.900, 0.000, 46.800, 0.000, 0.000, -2.900, 0.0, , , , , , 98, , , 32, 7, 32
38.6884685, -120.4165679, 20.900, 10:15:51.739, 19, 0.00, 0.56, 97, 0.500, 0.900, 47.600, 785, 100, 99, 17, 22906, -19086, 5326, 5491, 11, 14, 1528391751.739, 80, 0, 1024, 1024, 1024, 1024, 0, 6, 3786, 3775, 3845, 3826, 3844, 3828, 0, 1, 12601, -90.000, 0.000, 46.800, 0.000, 0.000, -2.900, 0.0, , , , , , 98, , , 32, 7, 32
38.6884685, -120.4165680, 21.200, 10:15:51.839, 19, 0.00, 0.56, 97, 0.500, 0.800, 47.700, 785, 100, 99, 17, 22906, -19086, 5326, 5491, 11, 14, 1528391751.839, 79, 0, 1024, 1024, 1024, 1024, 0, 6, 3786, 3775, 3845, 3826, 3844, 3828, 0, 1, 12701, -90.000, 0.000, 46.800, 0.000, 0.000, -2.900, 0.0, , , , , , 98, , , 32, 7, 32
38.6884685, -120.4165681, 21.500, 10:15:51.938, 19, 0.00, 0.57, 97, 0.300, 0.700, 47.700, 785, 100, 99, 17, 22906, -19086, 5326, 5491, 11, 14, 1528391751.938, 59, 0, 1024, 1024, 1024, 1024, 0, 6, 3786, 3775, 3845, 3826, 3844, 3828, 0, 1, 12800, -90.000, 0.000, 46.800, 0.000, 0.000, -2.800, 0.0, , , , , , 98, , , 32, 7, 32
38.6884686, -120.4165681, 21.800, 10:15:52.039, 18, 0.00, 0.57, 97, 0.300, 0.600, 47.800, 785, 100, 98, 17, 22906, -19086, 5326, 5491, 11, 14, 1528391752.040, 75, 0, 1024, 1024, 1024, 1024, 0, 6, 3786, 3775, 3845, 3826, 3844, 3828, 0, 1, 12902, -90.000, 0.000, 46.800, 0.000, 0.000, -2.900, 0.0, , , , , , 98, , , 32, 7, 32
38.6884686, -120.4165682, 22.100, 10:15:52.139, 18, 0.00, 0.57, 97, 0.400, 0.600, 47.800, 785, 100, 98, 17, 22906, -19086, 5326, 5491, 11, 14, 1528391752.139, 68, 0, 1024, 1024, 1024, 1024, 0, 6, 3786, 3775, 3845, 3826, 3844, 3828, 0, 1, 13001, -90.000, 0.000, 46.800, 0.000, 0.000, -2.800, 0.0, , , , , , 98, , , 32, 7, 32
38.6884686, -120.4165682, 22.300, 10:15:52.238, 18, 0.00, 0.58, 97, 0.300, 0.600, 47.800, 785, 100, 98, 17, 22906, -19086, 5326, 5491, 11, 14, 1528391752.239, 36, 0, 1024, 1024, 1024, 1024, 0, 6, 3786, 3775, 3845, 3826, 3844, 3828, 0, 1, 13101, -90.000, 0.000, 46.800, 0.000, 0.000, -2.900, 0.0, , , , , , 98, , , 32, 7, 32
38.6884687, -120.4165683, 22.600, 10:15:52.339, 18, 0.00, 0.58, 97, 0.300, 0.700, 47.800, 785, 100, 98, 17, 22906, -19086, 5326, 5491, 11, 14, 1528391752.340, 24, 0, 1024, 1024, 1024, 1024, 0, 6, 3786, 3775, 3845, 3826, 3844, 3828, 0, 1, 13202, -89.900, 0.000, 46.800, 0.000, 0.000, -2.900, 0.0, , , , , , 98, , , 32, 7, 32
38.6884687, -120.4165683, 22.900, 10:15:52.439, 19, 0.00, 0.59, 97, 0.300, 0.800, 47.700, 785, 100, 98, 17, 22789, -19634, 5326, 5491, 11, 14, 1528391752.441, 29, 0, 1024, 1024, 1024, 1024, 0, 6, 3775, 3763, 3826, 3799, 3819, 3811, 0, 1, 13303, -90.000, 0.000, 46.800, 0.000, 0.000, -2.900, 0.0, , , , , , 98, , , 32, 7, 32
38.6884687, -120.4165684, 23.200, 10:15:52.539, 19, 0.00, 0.58, 97, 0.400, 0.700, 47.700, 785, 100, 99, 17, 22789, -19634, 5326, 5491, 11, 14, 1528391752.539, 45, 0, 1024, 1024, 1024, 1024, 0, 6, 3775, 3763, 3826, 3799, 3819, 3811, 0, 1, 13401, -90.000, 0.000, 46.800, 0.000, 0.000, -2.900, 0.0, , , , , , 98, , , 32, 7, 32
38.6884687, -120.4165685, 23.500, 10:15:52.639, 20, 0.00, 0.58, 97, 0.600, 0.600, 47.700, 785, 100, 99, 17, 22789, -19634, 5326, 5491, 11, 14, 1528391752.640, 38, 0, 1024, 1024, 1024, 1024, 0, 6, 3775, 3763, 3826, 3799, 3819, 3811, 0, 1, 13501, -90.000, 0.000, 46.800, 0.000, 0.000, -2.900, 0.0, , , , , , 98, , , 32, 7, 32
38.6884688, -120.4165686, 24.100, 10:15:52.739, 18, 0.00, 0.59, 97, 0.700, 0.200, 47.500, 785, 100, 99, 17, 22789, -19634, 5326, 5491, 11, 14, 1528391752.740, 38, 0, 1024, 1024, 1024, 1024, 0, 6, 3775, 3763, 3826, 3799, 3819, 3811, 0, 1, 13602, -90.000, 0.000, 46.800, 0.000, 0.000, -2.900, 0.0, , , , , , 98, , , 32, 7, 32
38.6884688, -120.4165687, 24.400, 10:15:52.839, 18, 0.00, 0.59, 97, 0.700, 0.300, 47.300, 785, 100, 99, 17, 22789, -19634, 5326, 5491, 11, 14, 1528391752.839, 41, 0, 1024, 1024, 1024, 1024, 0, 6, 3775, 3763, 3826, 3799, 3819, 3811, 0, 1, 13701, -90.000, 0.000, 46.800, 0.000, 0.000, -2.900, 0.0, , , , , , 98, , , 32, 7, 32
38.6884689, -120.4165687, 24.700, 10:15:52.939, 19, 0.00, 0.60, 97, 0.700, 0.600, 47.300, 785, 100, 99, 17, 22789, -19634, 5326, 5491, 11, 14, 1528391752.939, 29, 0, 1024, 1024, 1024, 1024, 0, 6, 3775, 3763, 3826, 3799, 3819, 3811, 0, 1, 13801, -89.900, 0.000, 46.800, 0.000, 0.000, -2.800, 0.0, , , , , , 98, , , 32, 7, 32
38.6884689, -120.4165687, 25.000, 10:15:53.038, 19, 0.00, 0.60, 97, 0.900, 0.800, 47.400, 785, 100, 97, 17, 22789, -19634, 5326, 5491, 11, 14, 1528391753.038, 19, 0, 1024, 1024, 1024, 1024, 0, 6, 3775, 3763, 3826, 3799, 3819, 3811, 0, 1, 13900, -89.900, 0.000, 46.800, 0.000, 0.000, -2.800, 0.0, , , , , , 98, , , 32, 7, 32
38.6884689, -120.4165687, 25.300, 10:15:53.138, 19, 0.00, 0.60, 97, 0.900, 0.900, 47.500, 785, 100, 97, 17, 22789, -19634, 5326, 5491, 11, 14, 1528391753.140, 15, 0, 1024, 1024, 1024, 1024, 0, 6, 3775, 3763, 3826, 3799, 3819, 3811, 0, 1, 14002, -89.900, 0.000, 46.800, 0.000, 0.000, -2.900, 0.0, , , , , , 98, , , 32, 7, 32
38.6884690, -120.4165687, 25.600, 10:15:53.239, 19, 0.00, 0.61, 97, 0.800, 1.000, 47.500, 785, 100, 97, 17, 22789, -19634, 5326, 5491, 11, 14, 1528391753.240, 10, 0, 1024, 1024, 1024, 1024, 0, 6, 3775, 3763, 3826, 3799, 3819, 3811, 0, 1, 14101, -89.900, 0.000, 46.800, 0.000, 0.000, -2.900, 0.0, , , , , , 98, , , 32, 7, 32
38.6884690, -120.4165687, 25.900, 10:15:53.359, 19, 0.00, 0.62, 97, 0.800, 1.400, 47.600, 785, 100, 97, 17, 22789, -19634, 5326, 5491, 11, 14, 1528391753.360, 6, 0, 1024, 1024, 1024, 1024, 0, 6, 3775, 3763, 3826, 3799, 3819, 3811, 0, 1, 14222, -89.900, 0.000, 46.800, 0.000, 0.000, -2.900, 0.0, , , , , , 98, , , 32, 7, 32
38.6884691, -120.4165687, 26.200, 10:15:53.440, 19, 0.00, 0.62, 97, 0.100, 1.900, 47.800, 785, 100, 93, 17, 22753, -19979, 5326, 5491, 11, 14, 1528391753.440, 12, 0, 1024, 1024, 1024, 1024, 0, 6, 3775, 3763, 3826, 3799, 3819, 3811, 0, 1, 14302, -89.900, 0.000, 46.800, 0.000, 0.000, -2.900, 0.0, , , , , , 98, , , 32, 7, 32
38.6884691, -120.4165687, 26.200, 10:15:53.539, 19, 0.00, 0.62, 97, 0.100, 1.900, 47.800, 785, 100, 93, 17, 22753, -19979, 5326, 5491, 11, 14, 1528391753.539, 111, 0, 1024, 1024, 1024, 1024, 0, 6, 3774, 3761, 3811, 3796, 3812, 3792, 0, 1, 14401, -89.900, 0.000, 46.800, 0.000, 0.000, -2.900, 0.0, , , , , , 98, , , 32, 7, 32
38.6884691, -120.4165686, 26.500, 10:15:53.639, 19, 0.00, 0.63, 97, -0.300, 2.200, 48.100, 785, 100, 93, 17, 22753, -19979, 5326, 5491, 11, 14, 1528391753.639, 91, 0, 1024, 1024, 1024, 1024, 0, 6, 3774, 3761, 3811, 3796, 3812, 3792, 0, 1, 14501, -89.900, 0.000, 46.800, 0.000, 0.000, -2.900, 0.0, , , , , , 98, , , 32, 7, 32
38.6884692, -120.4165685, 26.800, 10:15:53.739, 19, 0.00, 0.64, 97, -0.300, 2.600, 48.400, 785, 100, 93, 17, 22753, -19979, 5326, 5491, 11, 14, 1528391753.740, 80, 0, 1024, 1024, 1024, 1024, 0, 6, 3774, 3761, 3811, 3796, 3812, 3792, 0, 1, 14601, -89.900, 0.000, 46.800, 0.000, 0.000, -2.800, 0.0, , , , , , 98, , , 32, 7, 32
38.6884694, -120.4165685, 27.100, 10:15:53.839, 19, 0.00, 0.65, 97, 0.000, 2.900, 48.400, 785, 100, 93, 17, 22753, -19979, 5326, 5491, 11, 14, 1528391753.839, 84, 0, 1024, 1024, 1024, 1024, 0, 6, 3774, 3761, 3811, 3796, 3812, 3792, 0, 1, 14701, -89.900, 0.000, 46.800, 0.000, 0.000, -2.900, 0.0, , , , , , 98, , , 32, 7, 32
38.6884695, -120.4165685, 27.400, 10:15:53.939, 19, 0.00, 0.67, 97, 0.800, 3.200, 48.300, 785, 100, 93, 17, 22753, -19979, 5326, 5491, 11, 14, 1528391753.939, 92, 0, 1024, 1024, 1024, 1024, 0, 6, 3774, 3761, 3811, 3796, 3812, 3792, 0, 1, 14801, -89.900, 0.000, 46.800, 0.000, 0.000, -3.000, 0.0, , , , , , 98, , , 32, 7, 32
38.6884696, -120.4165685, 27.700, 10:15:54.039, 19, 0.00, 0.68, 97, 1.500, 3.200, 48.300, 785, 100, 93, 17, 22753, -19979, 5326, 5491, 11, 14, 1528391754.039, 81, 0, 1024, 1024, 1024, 1024, 0, 6, 3774, 3761, 3811, 3796, 3812, 3792, 0, 1, 14901, -89.900, 0.000, 46.800, 0.000, 0.000, -3.000, 0.0, , , , , , 98, , , 32, 7, 32
38.6884697, -120.4165686, 28.000, 10:15:54.139, 19, 0.00, 0.69, 97, 2.300, 3.100, 48.400, 785, 100, 93, 17, 22753, -19979, 5326, 5491, 11, 14, 1528391754.139, 88, 0, 1024, 1024, 1024, 1024, 0, 6, 3774, 3761, 3811, 3796, 3812, 3792, 0, 1, 15001, -89.900, 0.000, 46.800, 0.000, 0.000, -2.900, 0.0, , , , , , 98, , , 32, 7, 32
38.6884698, -120.4165687, 28.300, 10:15:54.239, 19, 0.00, 0.71, 97, 3.000, 3.200, 48.400, 785, 100, 93, 17, 22753, -19979, 5326, 5491, 11, 14, 1528391754.240, 38, 0, 1024, 1024, 1024, 1024, 0, 6, 3774, 3761, 3811, 3796, 3812, 3792, 0, 1, 15102, -89.900, 0.000, 46.800, 0.000, 0.000, -3.000, 0.0, , , , , , 98, , , 32, 7, 32
38.6884699, -120.4165687, 28.600, 10:15:54.339, 19, 0.00, 0.72, 97, 3.300, 2.800, 48.300, 785, 100, 93, 17, 22753, -19979, 5326, 5491, 11, 14, 1528391754.339, 79, 0, 1024, 1024, 1024, 1024, 0, 6, 3774, 3761, 3811, 3796, 3812, 3792, 0, 1, 15201, -89.900, 0.000, 46.800, 0.000, 0.000, -3.000, 0.0, , , , , , 98, , , 32, 7, 32
38.6884700, -120.4165688, 28.900, 10:15:54.438, 19, 0.00, 0.72, 97, 3.100, 2.500, 48.100, 785, 100, 93, 17, 22656, -20731, 5326, 5491, 11, 14, 1528391754.439, 21, 0, 1024, 1024, 1024, 1024, 0, 6, 3774, 3761, 3811, 3796, 3812, 3792, 0, 1, 15301, -90.000, 0.000, 46.800, 0.000, 0.000, -3.000, 0.0, , , , , , 98, , , 32, 7, 32
38.6884700, -120.4165688, 29.200, 10:15:54.538, 19, 0.00, 0.73, 97, 2.500, 2.200, 47.800, 785, 100, 95, 17, 22656, -20731, 5326, 5491, 11, 14, 1528391754.538, 47, 0, 1024, 1024, 1024, 1024, 0, 6, 3756, 3741, 3794, 3771, 3800, 3764, 0, 1, 15400, -90.000, 0.000, 46.800, 0.000, 0.000, -3.000, 0.0, , , , , , 98, , , 32, 7, 32
38.6884700, -120.4165688, 29.500, 10:15:54.639, 19, 0.00, 0.73, 97, 2.300, 1.900, 47.700, 785, 100, 95, 17, 22656, -20731, 5326, 5491, 11, 14, 1528391754.640, 62, 0, 1024, 1024, 1024, 1024, 0, 6, 3756, 3741, 3794, 3771, 3800, 3764, 0, 1, 15501, -90.000, 0.000, 46.800, 0.000, 0.000, -3.000, 0.0, , , , , , 98, , , 32, 7, 32
38.6884701, -120.4165689, 29.900, 10:15:54.739, 19, 0.00, 0.73, 97, 2.100, 1.800, 47.600, 785, 100, 95, 17, 22656, -20731, 5326, 5491, 11, 14, 1528391754.739, 68, 0, 1024, 1024, 1024, 1024, 0, 6, 3756, 3741, 3794, 3771, 3800, 3764, 0, 1, 15601, -90.000, 0.000, 46.800, 0.000, 0.000, -3.000, 0.0, , , , , , 98, , , 32, 7, 32
38.6884701, -120.4165689, 30.100, 10:15:54.839, 19, 0.00, 0.73, 97, 2.200, 2.100, 47.500, 785, 100, 95, 17, 22656, -20731, 5326, 5491, 11, 14, 1528391754.839, 30, 0, 1024, 1024, 1024, 1024, 0, 6, 3756, 3741, 3794, 3771, 3800, 3764, 0, 1, 15701, -89.900, 0.000, 46.800, 0.000, 0.000, -2.900, 0.0, , , , , , 98, , , 32, 7, 32
38.6884701, -120.4165689, 30.400, 10:15:54.939, 19, 0.00, 0.74, 97, 2.100, 2.300, 47.500, 785, 100, 95, 17, 22656, -20731, 5326, 5491, 11, 14, 1528391754.940, 55, 0, 1024, 1024, 1024, 1024, 0, 6, 3756, 3741, 3794, 3771, 3800, 3764, 0, 1, 15802, -89.900, 0.000, 46.800, 0.000, 0.000, -2.800, 0.0, , , , , , 98, , , 32, 7, 32
38.6884701, -120.4165689, 30.700, 10:15:55.039, 19, 0.00, 0.74, 97, 2.100, 2.300, 47.400, 785, 100, 96, 17, 22656, -20731, 5326, 5491, 11, 14, 1528391755.039, 34, 0, 1024, 1024, 1024, 1024, 0, 6, 3756, 3741, 3794, 3771, 3800, 3764, 0, 1, 15901, -90.000, 0.000, 46.800, 0.000, 0.000, -2.700, 0.0, , , , , , 98, , , 32, 7, 32
38.6884702, -120.4165688, 31.300, 10:15:55.139, 19, 0.00, 0.74, 97, 1.700, 2.300, 47.400, 785, 100, 96, 17, 22656, -20731, 5326, 5491, 11, 14, 1528391755.141, 13, 0, 1024, 1024, 1024, 1024, 0, 6, 3756, 3741, 3794, 3771, 3800, 3764, 0, 1, 16003, -89.900, 0.000, 46.800, 0.000, 0.000, -2.900, 0.0, , , , , , 98, , , 32, 7, 32
38.6884701, -120.4165688, 31.500, 10:15:55.239, 19, 0.00, 0.74, 97, 1.800, 2.500, 47.400, 785, 100, 96, 17, 22656, -20731, 5326, 5491, 11, 14, 1528391755.240, 32, 0, 1024, 1024, 1024, 1024, 0, 6, 3756, 3741, 3794, 3771, 3800, 3764, 0, 1, 16102, -89.900, 0.000, 46.800, 0.000, 0.000, -2.900, 0.0, , , , , , 98, , , 32, 7, 32
38.6884701, -120.4165687, 31.800, 10:15:55.350, 20, 0.00, 0.74, 97, 1.700, 2.700, 47.400, 785, 100, 96, 17, 22656, -20731, 5326, 5491, 11, 14, 1528391755.351, 7, 0, 1024, 1024, 1024, 1024, 0, 6, 3756, 3741, 3794, 3771, 3800, 3764, 0, 1, 16213, -89.900, 0.000, 46.800, 0.000, 0.000, -2.900, 0.0, , , , , , 98, , , 32, 7, 32
38.6884700, -120.4165686, 32.100, 10:15:55.439, 20, 0.00, 0.73, 97, 1.600, 2.600, 47.400, 785, 100, 96, 17, 22690, -19759, 5326, 5491, 11, 14, 1528391755.439, 15, 0, 1024, 1024, 1024, 1024, 0, 6, 3756, 3741, 3794, 3771, 3800, 3764, 0, 1, 16301, -89.900, 0.000, 46.800, 0.000, 0.000, -3.000, 0.0, , , , , , 98, , , 32, 7, 32
38.6884700, -120.4165686, 32.400, 10:15:55.538, 20, 0.10, 0.72, 97, 1.500, 2.400, 47.400, 785, 100, 96, 17, 22690, -19759, 5326, 5491, 11, 14, 1528391755.539, 9, 0, 1024, 1024, 1024, 1024, 0, 6, 3756, 3741, 3794, 3771, 3800, 3764, 0, 1, 16401, -89.900, 0.000, 46.800, -0.100, 0.000, -3.000, 0.0, , , , , , 98, , , 32, 7, 32
38.6884700, -120.4165686, 32.400, 10:15:55.639, 20, 0.10, 0.72, 97, 1.500, 2.400, 47.400, 785, 100, 96, 17, 22690, -19759, 5326, 5491, 11, 14, 1528391755.639, 109, 0, 1024, 1024, 1024, 1024, 0, 6, 3756, 3741, 3794, 3771, 3800, 3764, 0, 1, 16501, -89.900, 0.000, 46.800, -0.100, 0.000, -3.000, 0.0, , , , , , 98, , , 32, 7, 32
38.6884699, -120.4165685, 32.700, 10:15:55.738, 20, 0.10, 0.71, 97, 1.100, 2.100, 47.400, 785, 100, 96, 17, 22690, -19759, 5326, 5491, 11, 14, 1528391755.739, 77, 0, 1024, 1024, 1024, 1024, 0, 6, 3756, 3741, 3794, 3771, 3800, 3764, 0, 1, 16601, -90.000, 0.000, 46.800, -0.100, 0.000, -2.900, 0.0, , , , , , 98, , , 32, 7, 32
38.6884698, -120.4165685, 33.100, 10:15:55.839, 20, 0.10, 0.70, 97, 0.900, 1.900, 47.500, 785, 100, 96, 17, 22690, -19759, 5326, 5491, 11, 14, 1528391755.839, 95, 0, 1024, 1024, 1024, 1024, 0, 6, 3756, 3741, 3794, 3771, 3800, 3764, 0, 1, 16701, -89.900, 0.000, 46.800, -0.100, 0.000, -3.100, 0.0, , , , , , 98, , , 32, 7, 32
38.6884697, -120.4165684, 33.400, 10:15:55.938, 20, 0.10, 0.69, 97, 0.800, 2.200, 47.600, 785, 100, 96, 17, 22690, -19759, 5326, 5491, 11, 14, 1528391755.939, 97, 0, 1024, 1024, 1024, 1024, 0, 6, 3756, 3741, 3794, 3771, 3800, 3764, 0, 1, 16801, -89.900, 0.000, 46.800, -0.100, 0.000, -3.100, 0.0, , , , , , 98, , , 32, 7, 32
38.6884697, -120.4165684, 33.400, 10:15:56.039, 20, 0.10, 0.69, 96, 0.800, 2.200, 47.600, 785, 100, 96, 17, 22690, -19759, 5271, 5491, 11, 14, 1528391756.040, 198, 0, 1024, 1024, 1024, 1024, 0, 6, 3756, 3741, 3794, 3771, 3800, 3764, 0, 1, 16902, -89.900, 0.000, 46.800, -0.100, 0.000, -3.100, 0.0, , , , , , 98, , , 32, 7, 32
38.6884697, -120.4165684, 33.400, 10:15:56.139, 20, 0.10, 0.69, 96, 0.800, 2.200, 47.600, 785, 100, 97, 17, 22690, -19759, 5271, 5491, 11, 14, 1528391756.140, 298, 0, 1024, 1024, 1024, 1024, 0, 6, 3756, 3741, 3794, 3771, 3800, 3764, 0, 1, 17002, -89.900, 0.000, 46.800, -0.100, 0.000, -3.100, 0.0, , , , , , 98, , , 32, 7, 32
38.6884694, -120.4165681, 34.300, 10:15:56.238, 20, 0.00, 0.66, 96, 0.100, 2.200, 48.100, 785, 100, 97, 17, 22690, -19759, 5271, 5491, 11, 14, 1528391756.239, 76, 0, 1024, 1024, 1024, 1024, 0, 6, 3749, 3732, 3807, 3771, 3789, 3778, 0, 1, 17101, -90.000, 0.000, 46.800, 0.000, 0.000, -3.000, 0.0, , , , , , 98, , , 32, 7, 32
38.6884693, -120.4165680, 34.600, 10:15:56.339, 20, 0.00, 0.66, 96, 0.000, 2.300, 48.200, 785, 100, 97, 17, 22690, -19759, 5271, 5491, 11, 14, 1528391756.339, 69, 0, 1024, 1024, 1024, 1024, 0, 6, 3749, 3732, 3807, 3771, 3789, 3778, 0, 1, 17201, -90.000, 0.000, 46.800, 0.000, 0.000, -2.900, 0.0, , , , , , 98, , , 32, 7, 32
38.6884693, -120.4165680, 34.900, 10:15:56.439, 20, 0.00, 0.65, 96, 0.100, 2.400, 48.200, 785, 100, 97, 17, 22690, -19759, 5271, 5491, 11, 14, 1528391756.439, 71, 0, 1024, 1024, 1024, 1024, 0, 6, 3749, 3732, 3807, 3771, 3789, 3778, 0, 1, 17301, -89.900, 0.000, 46.800, 0.000, 0.000, -2.900, 0.0, , , , , , 98, , , 32, 7, 32
38.6884693, -120.4165679, 35.200, 10:15:56.539, 20, 0.00, 0.65, 96, 0.600, 2.500, 48.000, 785, 100, 97, 17, 22690, -19759, 5271, 5491, 11, 14, 1528391756.539, 68, 0, 1024, 1024, 1024, 1024, 0, 6, 3749, 3732, 3807, 3771, 3789, 3778, 0, 1, 17401, -89.900, 0.000, 46.800, 0.000, 0.000, -3.000, 0.0, , , , , , 98, , , 32, 7, 32
38.6884693, -120.4165678, 35.500, 10:15:56.639, 20, 0.00, 0.65, 96, 1.000, 2.700, 47.800, 785, 100, 97, 17, 22690, -19759, 5271, 5491, 11, 14, 1528391756.640, 57, 0, 1024, 1024, 1024, 1024, 0, 6, 3749, 3732, 3807, 3771, 3789, 3778, 0, 1, 17502, -89.900, 0.000, 46.800, 0.000, 0.000, -3.100, 0.0, , , , , , 98, , , 32, 7, 32
38.6884693, -120.4165678, 35.800, 10:15:56.739, 20, 0.00, 0.65, 96, 1.500, 3.000, 47.600, 785, 100, 97, 17, 22690, -19759, 5271, 5491, 11, 14, 1528391756.739, 62, 0, 1024, 1024, 1024, 1024, 0, 6, 3749, 3732, 3807, 3771, 3789, 3778, 0, 1, 17601, -89.900, 0.000, 46.800, 0.000, 0.000, -3.000, 0.0, , , , , , 98, , , 32, 7, 32
38.6884693, -120.4165678, 36.100, 10:15:56.839, 20, 0.00, 0.66, 96, 1.800, 3.200, 47.500, 785, 100, 97, 17, 22690, -19759, 5271, 5491, 11, 14, 1528391756.839, 32, 0, 1024, 1024, 1024, 1024, 0, 6, 3749, 3732, 3807, 3771, 3789, 3778, 0, 1, 17701, -89.900, 0.000, 46.800, 0.000, 0.000, -3.000, 0.0, , , , , , 98, , , 32, 7, 32
38.6884693, -120.4165677, 36.400, 10:15:56.939, 20, 0.00, 0.66, 96, 1.800, 3.200, 47.400, 785, 100, 97, 17, 22547, -21432, 5271, 5491, 11, 14, 1528391756.939, 47, 0, 1024, 1024, 1024, 1024, 0, 6, 3749, 3739, 3784, 3774, 3792, 3762, 0, 1, 17801, -90.000, 0.000, 46.800, 0.000, 0.000, -3.000, 0.0, , , , , , 98, , , 32, 7, 32
38.6884693, -120.4165677, 36.700, 10:15:57.044, 20, 0.00, 0.66, 96, 1.800, 3.100, 47.400, 785, 100, 97, 17, 22547, -21432, 5271, 5491, 11, 14, 1528391757.044, 17, 0, 1024, 1024, 1024, 1024, 0, 6, 3749, 3739, 3784, 3774, 3792, 3762, 0, 1, 17906, -89.900, 0.000, 46.800, 0.000, 0.000, -3.000, 0.0, , , , , , 98, , , 32, 7, 32
38.6884693, -120.4165677, 37.000, 10:15:57.139, 20, 0.00, 0.66, 96, 1.800, 3.100, 47.500, 785, 100, 97, 17, 22547, -21432, 5271, 5491, 11, 14, 1528391757.139, 13, 0, 1024, 1024, 1024, 1024, 0, 6, 3749, 3739, 3784, 3774, 3792, 3762, 0, 1, 18001, -89.900, 0.000, 46.800, 0.000, 0.000, -2.900, 0.0, , , , , , 98, , , 32, 7, 32
38.6884693, -120.4165677, 37.600, 10:15:57.238, 20, 0.00, 0.66, 96, 1.600, 3.200, 47.800, 785, 100, 97, 17, 22547, -21432, 5271, 5491, 11, 14, 1528391757.238, 10, 0, 1024, 1024, 1024, 1024, 0, 6, 3749, 3739, 3784, 3774, 3792, 3762, 0, 1, 18100, -89.900, 0.000, 46.800, 0.000, 0.000, -2.900, 0.0, , , , , , 98, , , 32, 7, 32
38.6884693, -120.4165677, 37.600, 10:15:57.339, 20, 0.00, 0.66, 96, 1.600, 3.200, 47.800, 785, 100, 97, 17, 22547, -21432, 5271, 5491, 11, 14, 1528391757.339, 111, 0, 1024, 1024, 1024, 1024, 0, 6, 3749, 3739, 3784, 3774, 3792, 3762, 0, 1, 18201, -89.900, 0.000, 46.800, 0.000, 0.000, -2.900, 0.0, , , , , , 98, , , 32, 7, 32
38.6884693, -120.4165677, 38.200, 10:15:57.440, 20, 0.00, 0.65, 96, 2.100, 2.800, 48.000, 785, 100, 97, 17, 22547, -21432, 5271, 5491, 11, 14, 1528391757.441, 7, 0, 1024, 1024, 1024, 1024, 0, 6, 3749, 3739, 3784, 3774, 3792, 3762, 0, 1, 18303, -90.000, 0.000, 46.800, 0.000, 0.000, -3.000, 0.0, , , , , , 98, , , 32, 7, 32
38.6884693, -120.4165677, 38.500, 10:15:57.539, 20, 0.00, 0.65, 96, 2.200, 2.700, 47.900, 785, 100, 96, 17, 22547, -21432, 5271, 5491, 11, 14, 1528391757.540, 10, 0, 1024, 1024, 1024, 1024, 0, 6, 3749, 3739, 3784, 3774, 3792, 3762, 0, 1, 18402, -90.000, 0.000, 46.800, 0.000, 0.000, -3.000, 0.0, , , , , , 98, , , 32, 7, 32
38.6884693, -120.4165678, 38.900, 10:15:57.640, 20, 0.00, 0.65, 96, 2.100, 2.500, 47.800, 785, 100, 96, 17, 22547, -21432, 5271, 5491, 11, 14, 1528391757.641, 12, 0, 1024, 1024, 1024, 1024, 0, 6, 3749, 3739, 3784, 3774, 3792, 3762, 0, 1, 18503, -90.000, 0.000, 46.800, 0.000, 0.000, -2.900, 0.0, , , , , , 98, , , 32, 7, 32
38.6884693, -120.4165678, 39.200, 10:15:57.746, 20, 0.00, 0.65, 96, 2.400, 2.400, 47.800, 785, 100, 96, 17, 22547, -21432, 5271, 5491, 11, 14, 1528391757.746, 4, 0, 1024, 1024, 1024, 1024, 0, 6, 3749, 3739, 3784, 3774, 3792, 3762, 0, 1, 18608, -90.000, 0.000, 46.800, 0.000, 0.000, -2.900, 0.0, , , , , , 98, , , 32, 7, 32
38.6884693, -120.4165678, 39.200, 10:15:57.839, 20, 0.00, 0.65, 96, 2.400, 2.400, 47.800, 785, 100, 96, 17, 22547, -21432, 5271, 5491, 11, 14, 1528391757.840, 98, 0, 1024, 1024, 1024, 1024, 0, 6, 3749, 3739, 3784, 3774, 3792, 3762, 0, 1, 18702, -89.900, 0.000, 46.800, 0.000, 0.000, -2.900, 0.0, , , , , , 98, , , 32, 7, 32
38.6884693, -120.4165678, 39.200, 10:15:57.939, 20, 0.00, 0.65, 96, 2.400, 2.400, 47.800, 785, 100, 96, 17, 22662, -19337, 5271, 5491, 11, 14, 1528391757.940, 198, 0, 1024, 1024, 1024, 1024, 0, 6, 3749, 3739, 3784, 3774, 3792, 3762, 0, 1, 18801, -90.000, 0.000, 46.800, 0.000, 0.000, -2.900, 0.0, , , , , , 98, , , 32, 7, 32
38.6884693, -120.4165678, 39.200, 10:15:58.039, 20, 0.00, 0.65, 96, 2.400, 2.400, 47.800, 785, 100, 96, 17, 22662, -19337, 5271, 5491, 11, 14, 1528391758.039, 297, 0, 1024, 1024, 1024, 1024, 0, 6, 3749, 3739, 3784, 3774, 3792, 3762, 0, 1, 18901, -90.000, 0.000, 46.800, 0.000, 0.000, -2.900, 0.0, , , , , , 98, , , 32, 7, 32
38.6884693, -120.4165678, 39.200, 10:15:58.138, 20, 0.00, 0.65, 96, 2.400, 2.400, 47.800, 785, 100, 96, 17, 22662, -19337, 5271, 5491, 11, 14, 1528391758.139, 397, 0, 1024, 1024, 1024, 1024, 0, 6, 3749, 3739, 3784, 3774, 3792, 3762, 0, 1, 19001, -90.000, 0.000, 46.800, 0.000, 0.000, -2.900, 0.0, , , , , , 98, , , 32, 7, 32
38.6884693, -120.4165678, 40.300, 10:15:58.239, 20, 0.00, 0.65, 96, 1.500, 2.500, 47.000, 785, 100, 96, 17, 22662, -19337, 5271, 5491, 11, 14, 1528391758.240, 75, 0, 1024, 1024, 1024, 1024, 0, 6, 3759, 3745, 3803, 3784, 3806, 3782, 0, 1, 19102, -89.900, 0.000, 46.800, 0.000, 0.000, -2.800, 0.0, , , , , , 98, , , 32, 7, 32
38.6884692, -120.4165677, 40.500, 10:15:58.339, 20, 0.00, 0.65, 96, 0.900, 2.800, 46.900, 785, 100, 96, 17, 22662, -19337, 5271, 5491, 11, 14, 1528391758.340, 79, 0, 1024, 1024, 1024, 1024, 0, 6, 3759, 3745, 3803, 3784, 3806, 3782, 0, 1, 19201, -89.900, 0.000, 46.800, 0.000, 0.000, -2.800, 0.0, , , , , , 98, , , 32, 7, 32
38.6884692, -120.4165676, 40.800, 10:15:58.438, 20, 0.00, 0.65, 96, 0.600, 3.700, 47.100, 785, 100, 96, 17, 22662, -19337, 5271, 5491, 11, 14, 1528391758.439, 46, 0, 1024, 1024, 1024, 1024, 0, 6, 3759, 3745, 3803, 3784, 3806, 3782, 0, 1, 19301, -89.900, 0.000, 46.800, 0.000, 0.000, -2.800, 0.0, , , , , , 98, , , 32, 7, 32
38.6884692, -120.4165675, 41.100, 10:15:58.539, 20, 0.00, 0.65, 96, 0.700, 4.000, 47.300, 785, 100, 96, 17, 22662, -19337, 5271, 5491, 11, 14, 1528391758.540, 63, 0, 1024, 1024, 1024, 1024, 0, 6, 3759, 3745, 3803, 3784, 3806, 3782, 0, 1, 19402, -89.900, 0.000, 46.800, 0.000, 0.000, -2.900, 0.0, , , , , , 98, , , 32, 7, 32
38.6884692, -120.4165675, 41.400, 10:15:58.639, 20, 0.00, 0.65, 96, 0.900, 3.800, 47.400, 785, 100, 96, 17, 22662, -19337, 5271, 5491, 11, 14, 1528391758.639, 65, 0, 1024, 1024, 1024, 1024, 0, 6, 3759, 3745, 3803, 3784, 3806, 3782, 0, 1, 19501, -89.900, 0.000, 46.800, 0.000, 0.000, -2.800, 0.0, , , , , , 98, , , 32, 7, 32
38.6884692, -120.4165675, 41.700, 10:15:58.738, 20, 0.00, 0.65, 96, 0.900, 3.200, 47.500, 785, 100, 96, 17, 22662, -19337, 5271, 5491, 11, 14, 1528391758.738, 29, 0, 1024, 1024, 1024, 1024, 0, 6, 3759, 3745, 3803, 3784, 3806, 3782, 0, 1, 19600, -90.000, 0.000, 46.800, 0.000, 0.000, -2.800, 0.0, , , , , , 98, , , 32, 7, 32
38.6884692, -120.4165675, 41.900, 10:15:58.839, 20, 0.00, 0.64, 96, 0.700, 3.000, 47.700, 785, 100, 96, 17, 22662, -19337, 5271, 5491, 11, 14, 1528391758.839, 36, 0, 1024, 1024, 1024, 1024, 0, 6, 3759, 3745, 3803, 3784, 3806, 3782, 0, 1, 19701, -90.000, 0.000, 46.800, 0.000, 0.000, -2.900, 0.0, , , , , , 98, , , 32, 7, 32
38.6884691, -120.4165674, 42.200, 10:15:58.939, 20, 0.00, 0.64, 96, 0.800, 2.900, 47.900, 785, 100, 96, 18, 22667, -19216, 5271, 5491, 11, 14, 1528391758.939, 36, 0, 1024, 1024, 1024, 1024, 0, 6, 3759, 3745, 3803, 3784, 3806, 3782, 0, 1, 19801, -90.000, 0.000, 46.800, 0.000, 0.000, -2.900, 0.0, , , , , , 98, , , 32, 7, 32
38.6884691, -120.4165674, 42.800, 10:15:59.075, 20, 0.00, 0.64, 96, 0.800, 3.500, 48.400, 785, 100, 99, 18, 22667, -19216, 5271, 5491, 11, 14, 1528391759.076, 19, 0, 1024, 1024, 1024, 1024, 0, 6, 3751, 3740, 3804, 3776, 3786, 3773, 0, 1, 19938, -89.900, 0.000, 46.800, 0.000, 0.000, -3.100, 0.0, , , , , , 98, , , 32, 7, 32
38.6884691, -120.4165674, 42.800, 10:15:59.139, 20, 0.00, 0.64, 96, 0.800, 3.500, 48.400, 785, 100, 99, 18, 22667, -19216, 5271, 5491, 11, 14, 1528391759.139, 83, 0, 1024, 1024, 1024, 1024, 0, 6, 3751, 3740, 3804, 3776, 3786, 3773, 0, 1, 20001, -89.900, 0.000, 46.800, 0.000, 0.000, -3.100, 0.0, , , , , , 98, , , 32, 7, 32
38.6884691, -120.4165673, 43.500, 10:15:59.239, 20, 0.00, 0.64, 96, 1.300, 3.600, 48.500, 785, 100, 99, 18, 22667, -19216, 5271, 5491, 11, 14, 1528391759.239, 11, 0, 1024, 1024, 1024, 1024, 0, 6, 3751, 3740, 3804, 3776, 3786, 3773, 0, 1, 20101, -89.900, 0.000, 46.800, 0.000, 0.000, -3.100, 0.0, , , , , , 98, , , 32, 7, 32
38.6884691, -120.4165673, 43.500, 10:15:59.339, 20, 0.00, 0.64, 96, 1.300, 3.600, 48.500, 785, 100, 99, 18, 22667, -19216, 5271, 5491, 11, 14, 1528391759.341, 113, 0, 1024, 1024, 1024, 1024, 0, 6, 3751, 3740, 3804, 3776, 3786, 3773, 0, 1, 20203, -89.900, 0.000, 46.800, 0.000, 0.000, -3.100, 0.0, , , , , , 98, , , 32, 7, 32
38.6884692, -120.4165673, 44.200, 10:15:59.439, 20, 0.00, 0.65, 96, 1.900, 3.700, 48.400, 785, 100, 99, 18, 22667, -19216, 5271, 5491, 11, 14, 1528391759.440, 23, 0, 1024, 1024, 1024, 1024, 0, 6, 3751, 3740, 3804, 3776, 3786, 3773, 0, 1, 20302, -89.900, 0.000, 46.800, 0.000, 0.000, -3.100, 0.0, , , , , , 98, , , 32, 7, 32
38.6884692, -120.4165673, 44.200, 10:15:59.539, 20, 0.00, 0.65, 96, 1.900, 3.700, 48.400, 785, 100, 99, 18, 22667, -19216, 5271, 5491, 11, 14, 1528391759.540, 123, 0, 1024, 1024, 1024, 1024, 0, 6, 3751, 3740, 3804, 3776, 3786, 3773, 0, 1, 20401, -89.900, 0.000, 46.800, 0.000, 0.000, -3.100, 0.0, , , , , , 98, , , 32, 7, 32
38.6884692, -120.4165673, 44.200, 10:15:59.639, 20, 0.00, 0.65, 96, 1.900, 3.700, 48.400, 785, 100, 99, 18, 22667, -19216, 5271, 5491, 11, 14, 1528391759.639, 223, 0, 1024, 1024, 1024, 1024, 0, 6, 3751, 3740, 3804, 3776, 3786, 3773, 0, 1, 20501, -89.900, 0.000, 46.800, 0.000, 0.000, -3.100, 0.0, , , , , , 98, , , 32, 7, 32
38.6884692, -120.4165672, 44.800, 10:15:59.739, 20, 0.00, 0.65, 96, 1.300, 4.000, 48.100, 785, 100, 99, 18, 22667, -19216, 5271, 5491, 11, 14, 1528391759.739, 89, 0, 1024, 1024, 1024, 1024, 0, 6, 3751, 3740, 3804, 3776, 3786, 3773, 0, 1, 20601, -89.900, 0.000, 46.800, 0.000, 0.000, -3.000, 0.0, , , , , , 98, , , 32, 7, 32
38.6884692, -120.4165672, 45.100, 10:15:59.839, 20, 0.00, 0.66, 96, 1.400, 3.800, 47.900, 785, 100, 99, 18, 22667, -19216, 5271, 5491, 11, 14, 1528391759.839, 91, 0, 1024, 1024, 1024, 1024, 0, 6, 3751, 3740, 3804, 3776, 3786, 3773, 0, 1, 20701, -90.000, 0.000, 46.800, 0.000, 0.000, -3.000, 0.0, , , , , , 98, , , 32, 7, 32
38.6884692, -120.4165672, 45.400, 10:15:59.938, 20, 0.00, 0.66, 96, 1.500, 3.300, 47.600, 785, 100, 99, 18, 22368, -21662, 5271, 5491, 11, 14, 1528391759.940, 80, 0, 1024, 1024, 1024, 1024, 0, 6, 3707, 3691, 3759, 3729, 3744, 3746, 0, 1, 20802, -90.000, 0.000, 46.800, 0.000, 0.000, -3.000, 0.0, , , , , , 98, , , 32, 7, 32
38.6884692, -120.4165672, 45.400, 10:16:00.039, 20, 0.00, 0.66, 96, 1.500, 3.300, 47.600, 785, 100, 97, 18, 22368, -21662, 5271, 5491, 11, 14, 1528391760.042, 182, 0, 1024, 1024, 1024, 1024, 0, 6, 3707, 3691, 3759, 3729, 3744, 3746, 0, 1, 20904, -89.900, 0.000, 46.800, 0.000, 0.000, -3.000, 0.0, , , , , , 98, , , 32, 7, 32
38.6884693, -120.4165671, 46.000, 10:16:00.139, 20, 0.00, 0.66, 96, 1.100, 4.500, 47.300, 785, 100, 97, 18, 22368, -21662, 5271, 5491, 11, 14, 1528391760.139, 68, 0, 1024, 1024, 1024, 1024, 0, 6, 3707, 3691, 3759, 3729, 3744, 3746, 0, 1, 21001, -89.900, 0.000, 46.800, 0.000, 0.000, -3.000, 0.0, , , , , , 98, , , 32, 7, 32
