Latitude, Longitude, Altitude (m), Time, Sats, Speed (m/s), Range (m), Battery (%), Roll (deg), Pitch (deg), Yaw (deg), Images, HD Signal (%), RC Signal (%), Battery Temp (C), Battery Voltage (mV), Battery Current (mA), Battery Energy (mAh), Battery Capacity (mAh), Battery Discharges, flyState, timestamp (Unix), LastUpdate (ms), radioChannel, Rc_elevator, Rc_aileron, Rc_throttle, Rc_rudder, Rc_gyro, Dronetype, Battery_Cell1 (mV), Battery_Cell2 (mV), Battery_Cell3 (mV), Battery_Cell4 (mV), Battery_Cell5 (mV), Battery_Cell6 (mV), Video, isFlying, elapsedTime (ms), gimbalPitch (deg), gimbalRoll (deg), gimbalYaw (deg), VelocityX (m/s), VelocityY (m/s), VelocityZ (m/s), GroundSmear (cm), App Version, Aircraft Name, Aircraft Firmware, Aircraft Serial Number, Battery Serial Number, Battery Lifetime (%), App_Tip, App_Warning, CurrentFlightStartingIndex, CurrentFlightLastVisitedWaypoint, PreviousFlightEndingWaypointIndex
38.6884898, -120.4165365, 0.000, 09:29:24.259, 13, 0.00, 0.11, 98, -0.300, -1.300, 45.500, 2, 100, 100, 16, 25454, -3258, 5306, 5415, 15, 11, 1528388964.260, 15, 0, 1024, 1024, 1024, 1024, 0, 6, 4205, 4218, 4209, 4211, 4263, 4222, 0, 1, 3481, -89.900, 0.000, 45.500, 0.000, 0.000, -0.200, 0.0, MapPilot_2.8.1_04242018, Dendroctonus I, 1.3.1.00, 041DDC1887, 1058163200459, 97, DJI_0001.jpg, Starting Mission from Lat/Long: 38.68848/-120.41654 Camera: Zenmuse X3 - Overlap: 90/90 - Active Connection: No, 0, 0, 0
38.6884898, -120.4165365, 0.000, 09:29:24.280, 13, 0.00, 0.11, 98, -0.300, -1.300, 45.500, 2, 100, 100, 16, 25454, -3258, 5306, 5415, 15, 11, 1528388964.280, 35, 0, 1024, 1024, 1024, 1024, 0, 6, 4205, 4218, 4209, 4211, 4263, 4222, 0, 1, 3502, -89.900, 0.000, 45.500, 0.000, 0.000, -0.200, 0.0, , , , , , 97, , , 0, 0, 0
38.6884901, -120.4165365, 0.000, 09:29:24.379, 13, 0.10, 0.14, 98, 0.500, 0.000, 45.800, 2, 100, 100, 16, 25454, -3258, 5306, 5415, 15, 11, 1528388964.380, 92, 0, 1024, 1024, 1024, 1024, 0, 6, 4205, 4218, 4209, 4211, 4263, 4222, 0, 1, 3601, -89.900, 0.000, 45.500, 0.100, 0.000, -0.300, 0.0, , , , , , 97, , , 0, 0, 0
38.6884906, -120.4165364, 0.100, 09:29:24.479, 13, 0.10, 0.20, 98, 0.300, 0.800, 45.500, 2, 100, 100, 16, 25454, -3258, 5306, 5415, 15, 11, 1528388964.480, 77, 0, 1024, 1024, 1024, 1024, 0, 6, 4205, 4218, 4209, 4211, 4263, 4222, 0, 1, 3702, -89.900, 0.000, 45.500, 0.100, 0.000, -0.300, 0.0, , , , , , 97, , , 0, 0, 0
38.6884911, -120.4165364, 0.200, 09:29:24.579, 13, 0.10, 0.25, 98, 1.100, 1.100, 45.200, 2, 100, 100, 16, 25454, -3258, 5306, 5415, 15, 11, 1528388964.580, 8, 0, 1024, 1024, 1024, 1024, 0, 6, 4205, 4218, 4209, 4211, 4263, 4222, 0, 1, 3801, -89.900, 0.000, 45.500, 0.100, 0.000, -0.400, 0.0, , , , , , 97, , , 0, 0, 0
38.6884913, -120.4165363, 0.300, 09:29:24.679, 11, 0.10, 0.27, 98, 1.500, 1.300, 45.100, 2, 100, 100, 16, 24388, -10549, 5306, 5415, 15, 11, 1528388964.680, 11, 0, 1024, 1024, 1024, 1024, 0, 6, 4205, 4218, 4209, 4211, 4263, 4222, 0, 1, 3901, -89.900, 0.000, 45.500, 0.100, 0.000, -0.400, 0.0, , , , , , 97, , , 0, 0, 0
38.6884915, -120.4165364, 0.300, 09:29:24.779, 11, 0.10, 0.29, 98, 2.100, 1.600, 45.100, 2, 100, 100, 16, 24388, -10549, 5306, 5415, 15, 11, 1528388964.779, 54, 0, 1024, 1024, 1024, 1024, 0, 6, 4205, 4218, 4209, 4211, 4263, 4222, 0, 1, 4001, -89.900, 0.000, 45.500, 0.100, 0.000, -0.400, 0.0, , , , , , 97, , , 0, 0, 0
38.6884916, -120.4165364, 0.400, 09:29:24.887, 11, 0.10, 0.30, 98, 2.400, 1.800, 45.100, 2, 100, 100, 16, 24388, -10549, 5306, 5415, 15, 11, 1528388964.887, 9, 0, 1024, 1024, 1024, 1024, 0, 6, 3964, 3981, 4005, 3999, 4016, 4013, 0, 1, 4109, -89.900, 0.000, 45.500, 0.100, 0.000, -0.500, 0.0, , , , , , 97, , , 0, 0, 0
38.6884917, -120.4165364, 0.400, 09:29:24.979, 11, 0.00, 0.31, 98, 2.400, 1.800, 45.100, 2, 100, 100, 16, 24388, -10549, 5306, 5415, 15, 11, 1528388964.980, 37, 0, 1024, 1024, 1024, 1024, 0, 6, 3964, 3981, 4005, 3999, 4016, 4013, 0, 1, 4201, -89.900, 0.000, 45.500, 0.000, 0.000, -0.500, 0.0, , , , , , 97, , , 0, 0, 0
38.6884917, -120.4165364, 0.500, 09:29:25.079, 12, 0.00, 0.32, 98, 2.200, 1.800, 45.100, 2, 100, 100, 16, 24388, -10549, 5306, 5415, 15, 11, 1528388965.079, 87, 0, 1024, 1024, 1024, 1024, 0, 6, 3964, 3981, 4005, 3999, 4016, 4013, 0, 1, 4300, -89.900, 0.000, 45.500, 0.000, 0.000, -0.400, 0.0, , , , , , 97, , , 0, 0, 0
38.6884919, -120.4165364, 0.500, 09:29:25.179, 12, 0.00, 0.33, 98, 2.200, 1.800, 45.100, 2, 100, 100, 16, 24388, -10549, 5306, 5415, 15, 11, 1528388965.180, 21, 0, 1024, 1024, 1024, 1024, 0, 6, 3964, 3981, 4005, 3999, 4016, 4013, 0, 1, 4402, -89.900, 0.000, 45.500, 0.000, 0.000, -0.400, 0.0, , , , , , 97, , , 0, 0, 0
38.6884920, -120.4165364, 0.600, 09:29:25.279, 13, 0.00, 0.34, 98, 2.200, 1.900, 45.200, 2, 100, 100, 16, 24388, -10549, 5306, 5415, 15, 11, 1528388965.280, 56, 0, 1024, 1024, 1024, 1024, 0, 6, 3964, 3981, 4005, 3999, 4016, 4013, 0, 1, 4501, -89.900, 0.000, 45.500, 0.000, 0.000, -0.400, 0.0, , , , , , 97, , , 0, 0, 0
38.6884920, -120.4165363, 0.600, 09:29:25.379, 13, 0.00, 0.35, 98, 2.100, 1.900, 45.300, 2, 100, 100, 16, 24388, -10549, 5306, 5415, 15, 11, 1528388965.380, 67, 0, 1024, 1024, 1024, 1024, 0, 6, 3964, 3981, 4005, 3999, 4016, 4013, 0, 1, 4601, -89.900, 0.000, 45.500, 0.000, 0.000, -0.400, 0.0, , , , , , 97, , , 0, 0, 0
38.6884921, -120.4165363, 0.700, 09:29:25.482, 13, 0.00, 0.36, 98, 1.800, 1.700, 45.300, 2, 100, 100, 16, 24388, -10549, 5306, 5415, 15, 11, 1528388965.482, 7, 0, 1024, 1024, 1024, 1024, 0, 6, 3964, 3981, 4005, 3999, 4016, 4013, 0, 1, 4703, -89.900, 0.000, 45.500, 0.000, 0.000, -0.500, 0.0, , , , , , 97, , , 0, 0, 0
38.6884921, -120.4165363, 0.800, 09:29:25.582, 13, 0.00, 0.35, 98, 1.700, 1.600, 45.300, 2, 100, 100, 16, 24388, -10549, 5306, 5415, 15, 11, 1528388965.582, 4, 0, 1024, 1024, 1024, 1024, 0, 6, 3964, 3981, 4005, 3999, 4016, 4013, 0, 1, 4804, -89.900, 0.000, 45.500, 0.000, 0.000, -0.500, 0.0, , , , , , 97, , , 0, 0, 0
38.6884921, -120.4165363, 0.800, 09:29:25.678, 13, 0.00, 0.35, 98, 1.700, 1.600, 45.300, 2, 100, 100, 16, 23461, -17011, 5306, 5415, 15, 11, 1528388965.680, 102, 0, 1024, 1024, 1024, 1024, 0, 6, 3884, 3921, 3914, 3899, 3907, 3927, 0, 1, 4901, -89.900, 0.000, 45.500, 0.000, 0.000, -0.500, 0.0, , , , , , 97, , , 0, 0, 0
38.6884920, -120.4165363, 0.800, 09:29:25.779, 13, 0.00, 0.35, 98, 1.500, 1.600, 45.300, 2, 100, 100, 16, 23461, -17011, 5306, 5415, 15, 11, 1528388965.780, 90, 0, 1024, 1024, 1024, 1024, 0, 6, 3884, 3921, 3914, 3899, 3907, 3927, 0, 1, 5001, -89.900, 0.000, 45.500, 0.000, 0.000, -0.400, 0.0, , , , , , 97, , , 0, 0, 0
38.6884919, -120.4165363, 0.900, 09:29:25.879, 16, 0.10, 0.34, 98, 1.500, 1.600, 45.300, 2, 100, 100, 16, 23461, -17011, 5306, 5415, 15, 14, 1528388965.880, 70, 0, 1024, 1024, 1024, 1024, 0, 6, 3884, 3921, 3914, 3899, 3907, 3927, 0, 1, 5101, -89.900, 0.000, 45.500, -0.100, 0.000, -0.500, 0.0, , , , , , 97, , , 0, 0, 0
38.6884918, -120.4165362, 0.900, 09:29:25.979, 16, 0.10, 0.33, 98, 1.400, 1.600, 45.200, 2, 100, 100, 16, 23461, -17011, 5306, 5415, 15, 14, 1528388965.980, 49, 0, 1024, 1024, 1024, 1024, 0, 6, 3884, 3921, 3914, 3899, 3907, 3927, 0, 1, 5201, -90.000, 0.000, 45.500, -0.100, 0.000, -0.400, 0.0, , , , , , 97, , , 0, 0, 0
38.6884917, -120.4165361, 1.000, 09:29:26.079, 15, 0.10, 0.32, 98, 0.100, 0.300, 45.100, 2, 100, 100, 16, 23461, -17011, 5306, 5415, 15, 14, 1528388966.079, 78, 0, 1024, 1024, 1024, 1024, 0, 6, 3884, 3921, 3914, 3899, 3907, 3927, 0, 1, 5301, -90.000, 0.000, 45.500, -0.100, 0.000, -0.200, 0.0, , , , , , 97, , , 0, 0, 0
38.6884918, -120.4165360, 1.000, 09:29:26.179, 14, 0.00, 0.33, 98, -0.600, -0.400, 45.000, 2, 100, 100, 16, 23461, -17011, 5306, 5415, 15, 14, 1528388966.179, 26, 0, 1024, 1024, 1024, 1024, 0, 6, 3884, 3921, 3914, 3899, 3907, 3927, 0, 1, 5401, -90.000, 0.000, 45.500, 0.000, 0.000, -0.300, 0.0, , , , , , 97, , , 0, 0, 0
38.6884918, -120.4165360, 1.100, 09:29:26.279, 14, 0.00, 0.34, 98, -0.200, 0.000, 45.000, 2, 100, 100, 16, 23461, -17011, 5306, 5415, 15, 14, 1528388966.280, 67, 0, 1024, 1024, 1024, 1024, 0, 6, 3884, 3921, 3914, 3899, 3907, 3927, 0, 1, 5501, -89.900, 0.000, 45.500, 0.000, 0.000, -0.400, 0.0, , , , , , 97, , , 0, 0, 0
38.6884919, -120.4165359, 1.100, 09:29:26.378, 14, 0.00, 0.34, 98, 0.300, 0.600, 45.000, 2, 100, 100, 16, 23461, -17011, 5306, 5415, 15, 14, 1528388966.379, 69, 0, 1024, 1024, 1024, 1024, 0, 6, 3884, 3921, 3914, 3899, 3907, 3927, 0, 1, 5601, -89.900, 0.000, 45.500, 0.000, 0.000, -0.600, 0.0, , , , , , 97, , , 0, 0, 0
38.6884920, -120.4165359, 1.200, 09:29:26.479, 14, 0.00, 0.35, 98, 0.600, 1.100, 45.100, 2, 100, 100, 16, 23461, -17011, 5306, 5415, 15, 14, 1528388966.480, 70, 0, 1024, 1024, 1024, 1024, 0, 6, 3884, 3921, 3914, 3899, 3907, 3927, 0, 1, 5701, -89.900, 0.000, 45.400, 0.000, 0.000, -0.700, 0.0, , , , , , 97, , , 0, 0, 0
38.6884920, -120.4165359, 1.300, 09:29:26.579, 14, 0.00, 0.36, 98, 0.800, 1.300, 45.200, 2, 100, 100, 16, 23461, -17011, 5306, 5415, 15, 14, 1528388966.580, 35, 0, 1024, 1024, 1024, 1024, 0, 6, 3884, 3921, 3914, 3899, 3907, 3927, 0, 1, 5801, -89.900, 0.000, 45.500, 0.000, 0.000, -0.800, 0.0, , , , , , 97, , , 0, 0, 0
38.6884921, -120.4165358, 1.400, 09:29:26.679, 14, 0.00, 0.37, 98, 0.800, 1.300, 45.300, 2, 100, 100, 16, 23312, -17176, 5306, 5415, 15, 14, 1528388966.680, 50, 0, 1024, 1024, 1024, 1024, 0, 6, 3884, 3921, 3914, 3899, 3907, 3927, 0, 1, 5901, -89.900, 0.000, 45.500, 0.000, 0.000, -1.000, 0.0, , , , , , 97, , , 0, 0, 0
38.6884921, -120.4165358, 1.500, 09:29:26.779, 13, 0.00, 0.37, 98, 0.800, 1.200, 45.400, 2, 100, 100, 16, 23312, -17176, 5306, 5415, 15, 14, 1528388966.780, 19, 0, 1024, 1024, 1024, 1024, 0, 6, 3884, 3921, 3914, 3899, 3907, 3927, 0, 1, 6001, -89.900, 0.000, 45.500, 0.000, 0.000, -1.300, 0.0, , , , , , 97, , , 0, 0, 0
38.6884922, -120.4165358, 1.600, 09:29:26.879, 13, 0.00, 0.38, 98, 0.800, 1.200, 45.400, 2, 100, 100, 16, 23312, -17176, 5306, 5415, 15, 14, 1528388966.880, 21, 0, 1024, 1024, 1024, 1024, 0, 6, 3884, 3921, 3914, 3899, 3907, 3927, 0, 1, 6101, -89.900, 0.000, 45.500, 0.000, 0.000, -1.500, 0.0, , , , , , 97, , , 0, 0, 0
38.6884923, -120.4165357, 1.800, 09:29:26.979, 10, 0.00, 0.39, 98, 0.800, 1.100, 45.300, 2, 100, 100, 16, 23312, -17176, 5306, 5415, 15, 14, 1528388966.980, 11, 0, 1024, 1024, 1024, 1024, 0, 6, 3884, 3921, 3914, 3899, 3907, 3927, 0, 1, 6201, -89.900, 0.000, 45.500, 0.000, 0.000, -1.700, 0.0, , , , , , 97, , , 0, 0, 0
38.6884924, -120.4165358, 2.000, 09:29:27.079, 10, 0.00, 0.41, 98, 1.000, 1.100, 45.300, 2, 100, 100, 16, 23312, -17176, 5306, 5415, 15, 14, 1528388967.079, 18, 0, 1024, 1024, 1024, 1024, 0, 6, 3884, 3921, 3914, 3899, 3907, 3927, 0, 1, 6300, -89.900, 0.000, 45.500, 0.000, 0.000, -1.900, 0.0, , , , , , 97, , , 0, 0, 0
38.6884926, -120.4165359, 2.200, 09:29:27.183, 11, 0.00, 0.42, 98, 1.300, 1.200, 45.300, 2, 100, 100, 16, 23312, -17176, 5306, 5415, 15, 14, 1528388967.183, 5, 0, 1024, 1024, 1024, 1024, 0, 6, 3858, 3893, 3899, 3870, 3885, 3907, 0, 1, 6405, -89.900, 0.000, 45.500, 0.000, 0.000, -2.100, 0.0, , , , , , 97, , , 0, 0, 0
38.6884927, -120.4165359, 2.400, 09:29:27.279, 11, 0.00, 0.43, 98, 1.500, 1.300, 45.200, 2, 100, 100, 16, 23312, -17176, 5306, 5415, 15, 14, 1528388967.280, 35, 0, 1024, 1024, 1024, 1024, 0, 6, 3858, 3893, 3899, 3870, 3885, 3907, 0, 1, 6501, -89.900, 0.000, 45.500, 0.000, 0.000, -2.300, 0.0, , , , , , 97, , , 0, 0, 0
38.6884927, -120.4165360, 2.600, 09:29:27.379, 10, 0.00, 0.43, 98, 1.500, 1.200, 45.200, 2, 100, 100, 16, 23312, -17176, 5306, 5415, 15, 14, 1528388967.379, 22, 0, 1024, 1024, 1024, 1024, 0, 6, 3858, 3893, 3899, 3870, 3885, 3907, 0, 1, 6601, -89.900, 0.000, 45.500, 0.000, 0.000, -2.400, 0.0, , , , , , 97, , , 0, 0, 0
38.6884928, -120.4165360, 2.900, 09:29:27.481, 10, 0.00, 0.43, 98, 1.300, 1.100, 45.200, 2, 100, 100, 16, 23312, -17176, 5306, 5415, 15, 14, 1528388967.481, 5, 0, 1024, 1024, 1024, 1024, 0, 6, 3858, 3893, 3899, 3870, 3885, 3907, 0, 1, 6702, -89.900, 0.000, 45.500, 0.000, 0.000, -2.700, 0.0, , , , , , 97, , , 0, 0, 0
38.6884928, -120.4165360, 2.900, 09:29:27.579, 10, 0.00, 0.43, 98, 1.300, 1.100, 45.200, 2, 100, 100, 16, 23312, -17176, 5306, 5415, 15, 14, 1528388967.579, 103, 0, 1024, 1024, 1024, 1024, 0, 6, 3858, 3893, 3899, 3870, 3885, 3907, 0, 1, 6801, -89.900, 0.000, 45.500, 0.000, 0.000, -2.700, 0.0, , , , , , 97, , , 0, 0, 0
38.6884929, -120.4165362, 3.500, 09:29:27.682, 12, 0.00, 0.45, 98, 1.200, 1.200, 45.400, 2, 100, 100, 16, 23312, -17176, 5306, 5415, 15, 14, 1528388967.683, 5, 0, 1024, 1024, 1024, 1024, 0, 6, 3858, 3893, 3899, 3870, 3885, 3907, 0, 1, 6904, -89.900, 0.000, 45.500, 0.000, 0.000, -3.100, 0.0, , , , , , 97, , , 0, 0, 0
38.6884929, -120.4165362, 3.500, 09:29:27.779, 12, 0.00, 0.45, 98, 1.200, 1.200, 45.400, 2, 100, 100, 16, 23312, -17176, 5306, 5415, 15, 14, 1528388967.780, 103, 0, 1024, 1024, 1024, 1024, 0, 6, 3858, 3893, 3899, 3870, 3885, 3907, 0, 1, 7002, -89.900, 0.000, 45.500, 0.000, 0.000, -3.100, 0.0, , , , , , 97, , , 0, 0, 0
38.6884930, -120.4165363, 3.800, 09:29:27.879, 11, 0.00, 0.46, 98, 1.400, 1.100, 45.400, 2, 100, 100, 16, 23312, -17176, 5306, 5415, 15, 14, 1528388967.880, 33, 0, 1024, 1024, 1024, 1024, 0, 6, 3858, 3893, 3899, 3870, 3885, 3907, 0, 1, 7102, -89.900, 0.000, 45.500, 0.000, 0.000, -3.200, 0.0, , , , , , 97, , , 0, 0, 0
38.6884930, -120.4165366, 4.200, 09:29:27.979, 11, 0.00, 0.45, 98, 1.600, 0.900, 45.400, 2, 100, 100, 16, 23312, -17176, 5306, 5415, 15, 14, 1528388967.980, 37, 0, 1024, 1024, 1024, 1024, 0, 6, 3858, 3893, 3899, 3870, 3885, 3907, 0, 1, 7201, -89.900, 0.000, 45.500, 0.000, 0.000, -3.300, 0.0, , , , , , 97, , , 0, 0, 0
38.6884930, -120.4165368, 4.500, 09:29:28.079, 12, 0.00, 0.45, 98, 1.800, 0.600, 45.400, 2, 100, 100, 16, 23312, -17176, 5306, 5415, 15, 14, 1528388968.079, 64, 0, 1024, 1024, 1024, 1024, 0, 6, 3858, 3893, 3899, 3870, 3885, 3907, 0, 1, 7301, -90.000, 0.000, 45.500, 0.000, 0.000, -3.200, 0.0, , , , , , 97, , , 0, 0, 0
38.6884930, -120.4165368, 4.500, 09:29:28.179, 12, 0.00, 0.45, 98, 1.800, 0.600, 45.400, 2, 100, 100, 16, 23312, -17176, 5306, 5415, 15, 14, 1528388968.179, 164, 0, 1024, 1024, 1024, 1024, 0, 6, 3858, 3893, 3899, 3870, 3885, 3907, 0, 1, 7401, -90.000, 0.000, 45.500, 0.000, 0.000, -3.200, 0.0, , , , , , 97, , , 0, 0, 0
38.6884932, -120.4165370, 4.900, 09:29:28.279, 12, 0.00, 0.47, 98, 2.000, 0.200, 45.300, 2, 100, 100, 16, 23031, -20130, 5306, 5415, 15, 14, 1528388968.280, 86, 0, 1024, 1024, 1024, 1024, 0, 6, 3782, 3812, 3787, 3800, 3796, 3811, 0, 1, 7501, -89.900, 0.000, 45.500, 0.000, 0.000, -3.300, 0.0, , , , , , 97, , , 0, 0, 0
38.6884934, -120.4165371, 5.200, 09:29:28.379, 12, 0.00, 0.49, 98, 2.400, 0.200, 45.200, 2, 100, 100, 16, 23031, -20130, 5306, 5415, 15, 14, 1528388968.380, 31, 0, 1024, 1024, 1024, 1024, 0, 6, 3782, 3812, 3787, 3800, 3796, 3811, 0, 1, 7601, -89.900, 0.000, 45.500, 0.000, 0.000, -3.300, 0.0, , , , , , 97, , , 0, 0, 0
38.6884933, -120.4165372, 5.600, 09:29:28.479, 12, 0.00, 0.48, 98, 2.700, 0.400, 45.200, 2, 100, 100, 16, 23031, -20130, 5306, 5415, 15, 14, 1528388968.480, 34, 0, 1024, 1024, 1024, 1024, 0, 6, 3782, 3812, 3787, 3800, 3796, 3811, 0, 1, 7701, -89.900, 0.000, 45.500, 0.000, 0.000, -3.300, 0.0, , , , , , 97, , , 0, 0, 0
38.6884931, -120.4165372, 5.900, 09:29:28.579, 14, 0.00, 0.46, 98, 2.500, 0.500, 45.100, 2, 100, 100, 16, 23031, -20130, 5306, 5415, 15, 14, 1528388968.580, 60, 0, 1024, 1024, 1024, 1024, 0, 6, 3782, 3812, 3787, 3800, 3796, 3811, 0, 1, 7801, -89.900, 0.000, 45.500, 0.000, 0.000, -3.400, 0.0, , , , , , 97, , , 0, 0, 0
38.6884931, -120.4165371, 6.300, 09:29:28.679, 14, 0.00, 0.46, 98, 1.900, 0.600, 45.100, 2, 100, 100, 16, 23031, -20130, 5306, 5415, 15, 14, 1528388968.679, 72, 0, 1024, 1024, 1024, 1024, 0, 6, 3782, 3812, 3787, 3800, 3796, 3811, 0, 1, 7901, -89.900, 0.000, 45.500, 0.000, 0.000, -3.300, 0.0, , , , , , 97, , , 0, 0, 0
38.6884931, -120.4165371, 6.300, 09:29:28.779, 14, 0.00, 0.46, 98, 1.900, 0.600, 45.100, 2, 100, 100, 16, 23031, -20130, 5306, 5415, 15, 14, 1528388968.780, 172, 0, 1024, 1024, 1024, 1024, 0, 6, 3782, 3812, 3787, 3800, 3796, 3811, 0, 1, 8001, -89.900, 0.000, 45.500, 0.000, 0.000, -3.300, 0.0, , , , , , 97, , , 0, 0, 0
38.6884931, -120.4165370, 6.600, 09:29:28.879, 14, 0.00, 0.45, 98, 1.400, 0.600, 45.200, 2, 100, 100, 16, 23031, -20130, 5306, 5415, 15, 14, 1528388968.880, 28, 0, 1024, 1024, 1024, 1024, 0, 6, 3782, 3812, 3787, 3800, 3796, 3811, 0, 1, 8102, -89.900, 0.000, 45.500, 0.000, 0.000, -3.300, 0.0, , , , , , 97, , , 0, 0, 0
38.6884930, -120.4165368, 7.000, 09:29:28.979, 14, 0.00, 0.45, 98, 0.900, 0.700, 45.200, 2, 100, 100, 16, 23031, -20130, 5306, 5415, 15, 14, 1528388968.980, 53, 0, 1024, 1024, 1024, 1024, 0, 6, 3782, 3812, 3787, 3800, 3796, 3811, 0, 1, 8201, -89.900, 0.000, 45.500, 0.000, 0.000, -3.300, 0.0, , , , , , 97, , , 0, 0, 0
38.6884929, -120.4165367, 7.300, 09:29:29.084, 15, 0.00, 0.44, 98, 0.600, 1.000, 45.300, 2, 100, 100, 16, 23031, -20130, 5306, 5415, 15, 14, 1528388969.085, 7, 0, 1024, 1024, 1024, 1024, 0, 6, 3782, 3812, 3787, 3800, 3796, 3811, 0, 1, 8306, -89.900, 0.000, 45.500, 0.000, 0.000, -3.300, 0.0, , , , , , 97, , , 0, 0, 0
38.6884929, -120.4165365, 7.700, 09:29:29.179, 15, 0.00, 0.44, 98, 0.300, 1.100, 45.300, 2, 100, 100, 16, 23031, -20130, 5306, 5415, 15, 14, 1528388969.180, 77, 0, 1024, 1024, 1024, 1024, 0, 6, 3782, 3812, 3787, 3800, 3796, 3811, 0, 1, 8401, -89.900, 0.000, 45.500, 0.000, 0.000, -3.200, 0.0, , , , , , 97, , , 0, 0, 0
38.6884929, -120.4165364, 8.000, 09:29:29.281, 14, 0.00, 0.44, 98, 0.200, 1.200, 45.300, 2, 100, 100, 16, 23031, -20130, 5306, 5415, 15, 14, 1528388969.282, 5, 0, 1024, 1024, 1024, 1024, 0, 6, 3782, 3812, 3787, 3800, 3796, 3811, 0, 1, 8503, -89.900, 0.000, 45.500, 0.000, 0.000, -3.200, 0.0, , , , , , 97, , , 0, 0, 0
38.6884926, -120.4165362, 8.700, 09:29:29.380, 13, 0.00, 0.42, 97, 0.000, 1.000, 45.200, 2, 100, 100, 16, 22374, -25576, 5252, 5415, 15, 14, 1528388969.381, 21, 0, 1024, 1024, 1024, 1024, 0, 6, 3695, 3729, 3756, 3718, 3742, 3769, 0, 1, 8602, -89.900, 0.000, 45.500, 0.000, 0.000, -3.100, 0.0, , , , , , 97, , , 0, 0, 0
38.6884926, -120.4165362, 8.700, 09:29:29.479, 13, 0.00, 0.42, 97, 0.000, 1.000, 45.200, 2, 100, 100, 16, 22374, -25576, 5252, 5415, 15, 14, 1528388969.480, 120, 0, 1024, 1024, 1024, 1024, 0, 6, 3695, 3729, 3756, 3718, 3742, 3769, 0, 1, 8701, -89.900, 0.000, 45.500, 0.000, 0.000, -3.100, 0.0, , , , , , 97, , , 0, 0, 0
38.6884923, -120.4165356, 9.600, 09:29:29.580, 14, 0.00, 0.40, 97, -0.400, 0.800, 45.100, 2, 100, 100, 16, 22374, -25576, 5252, 5415, 15, 14, 1528388969.581, 5, 0, 1024, 1024, 1024, 1024, 0, 6, 3695, 3729, 3756, 3718, 3742, 3769, 0, 1, 8802, -89.900, 0.000, 45.500, 0.000, 0.000, -3.100, 0.0, , , , , , 97, , , 0, 0, 0
38.6884922, -120.4165354, 10.000, 09:29:29.679, 14, 0.00, 0.40, 97, -0.500, 0.800, 45.100, 2, 100, 100, 16, 22374, -25576, 5252, 5415, 15, 14, 1528388969.679, 20, 0, 1024, 1024, 1024, 1024, 0, 6, 3695, 3729, 3756, 3718, 3742, 3769, 0, 1, 8901, -89.900, 0.000, 45.500, 0.000, 0.000, -3.000, 0.0, , , , , , 97, , , 0, 0, 0
38.6884921, -120.4165351, 10.300, 09:29:29.779, 14, 0.00, 0.40, 97, -0.600, 0.800, 45.100, 2, 100, 100, 16, 22374, -25576, 5252, 5415, 15, 14, 1528388969.780, 19, 0, 1024, 1024, 1024, 1024, 0, 6, 3695, 3729, 3756, 3718, 3742, 3769, 0, 1, 9001, -89.900, 0.000, 45.500, 0.000, 0.000, -3.000, 0.0, , , , , , 97, , , 0, 0, 0
38.6884921, -120.4165351, 10.300, 09:29:29.879, 14, 0.00, 0.40, 97, -0.600, 0.800, 45.100, 2, 100, 100, 16, 22374, -25576, 5252, 5415, 15, 14, 1528388969.880, 119, 0, 1024, 1024, 1024, 1024, 0, 6, 3695, 3729, 3756, 3718, 3742, 3769, 0, 1, 9101, -89.900, 0.000, 45.500, 0.000, 0.000, -3.000, 0.0, , , , , , 97, , , 0, 0, 0
38.6884920, -120.4165349, 10.600, 09:29:29.979, 13, 0.00, 0.40, 97, -0.700, 0.800, 45.100, 2, 100, 100, 16, 22374, -25576, 5252, 5415, 15, 14, 1528388969.980, 55, 0, 1024, 1024, 1024, 1024, 0, 6, 3695, 3729, 3756, 3718, 3742, 3769, 0, 1, 9201, -89.900, 0.000, 45.500, 0.000, 0.000, -3.000, 0.0, , , , , , 97, , , 0, 0, 0
38.6884920, -120.4165349, 10.900, 09:29:30.079, 13, 0.00, 0.39, 97, -0.700, 0.900, 45.000, 2, 100, 100, 16, 22374, -25576, 5252, 5415, 15, 14, 1528388970.079, 70, 0, 1024, 1024, 1024, 1024, 0, 6, 3695, 3729, 3756, 3718, 3742, 3769, 0, 1, 9301, -89.900, 0.000, 45.400, 0.000, 0.000, -3.000, 0.0, , , , , , 97, , , 0, 0, 0
38.6884920, -120.4165349, 10.900, 09:29:30.179, 13, 0.00, 0.39, 97, -0.700, 0.900, 45.000, 2, 100, 100, 16, 22374, -25576, 5252, 5415, 15, 14, 1528388970.180, 171, 0, 1024, 1024, 1024, 1024, 0, 6, 3695, 3729, 3756, 3718, 3742, 3769, 0, 1, 9401, -89.900, 0.000, 45.400, 0.000, 0.000, -3.000, 0.0, , , , , , 97, , , 0, 0, 0
38.6884922, -120.4165349, 11.500, 09:29:30.279, 14, 0.00, 0.42, 97, -0.100, 0.900, 44.900, 2, 100, 100, 16, 22813, -18665, 5252, 5415, 15, 14, 1528388970.280, 39, 0, 1024, 1024, 1024, 1024, 0, 6, 3793, 3832, 3816, 3786, 3803, 3844, 0, 1, 9501, -89.900, 0.000, 45.500, 0.000, 0.000, -2.900, 0.0, , , , , , 97, , , 0, 0, 0
38.6884922, -120.4165349, 11.500, 09:29:30.379, 14, 0.00, 0.42, 97, -0.100, 0.900, 44.900, 2, 100, 100, 16, 22813, -18665, 5252, 5415, 15, 14, 1528388970.380, 139, 0, 1024, 1024, 1024, 1024, 0, 6, 3793, 3832, 3816, 3786, 3803, 3844, 0, 1, 9601, -89.900, 0.000, 45.500, 0.000, 0.000, -2.900, 0.0, , , , , , 97, , , 0, 0, 0
38.6884925, -120.4165349, 11.800, 09:29:30.486, 14, 0.00, 0.45, 97, 0.500, 1.300, 45.000, 2, 100, 100, 16, 22813, -18665, 5252, 5415, 15, 14, 1528388970.487, 11, 0, 1024, 1024, 1024, 1024, 0, 6, 3793, 3832, 3816, 3786, 3803, 3844, 0, 1, 9708, -89.900, 0.000, 45.500, 0.000, 0.000, -2.900, 0.0, , , , , , 97, , , 0, 0, 0
38.6884925, -120.4165349, 11.800, 09:29:30.579, 14, 0.00, 0.45, 97, 0.500, 1.300, 45.000, 2, 100, 100, 16, 22813, -18665, 5252, 5415, 15, 14, 1528388970.580, 104, 0, 1024, 1024, 1024, 1024, 0, 6, 3793, 3832, 3816, 3786, 3803, 3844, 0, 1, 9801, -89.900, 0.000, 45.500, 0.000, 0.000, -2.900, 0.0, , , , , , 97, , , 0, 0, 0
38.6884925, -120.4165349, 11.800, 09:29:30.679, 14, 0.00, 0.45, 97, 0.500, 1.300, 45.000, 2, 100, 100, 16, 22813, -18665, 5252, 5415, 15, 14, 1528388970.679, 203, 0, 1024, 1024, 1024, 1024, 0, 6, 3793, 3832, 3816, 3786, 3803, 3844, 0, 1, 9901, -89.900, 0.000, 45.500, 0.000, 0.000, -2.900, 0.0, , , , , , 97, , , 0, 0, 0
38.6884929, -120.4165348, 12.100, 09:29:30.779, 14, 0.10, 0.49, 97, 1.300, 1.800, 45.100, 2, 100, 100, 16, 22813, -18665, 5252, 5415, 15, 14, 1528388970.780, 98, 0, 1024, 1024, 1024, 1024, 0, 6, 3793, 3832, 3816, 3786, 3803, 3844, 0, 1, 10001, -89.900, 0.000, 45.500, 0.100, 0.000, -2.900, 0.0, , , , , , 97, , , 0, 0, 0
38.6884935, -120.4165346, 12.700, 09:29:30.892, 13, 0.00, 0.55, 97, 2.400, 3.000, 45.300, 2, 100, 100, 16, 22813, -18665, 5252, 5415, 15, 14, 1528388970.893, 23, 0, 1024, 1024, 1024, 1024, 0, 6, 3793, 3832, 3816, 3786, 3803, 3844, 0, 1, 10114, -89.900, 0.000, 45.500, 0.000, 0.000, -2.900, 0.0, , , , , , 97, , , 0, 0, 0
38.6884935, -120.4165346, 12.700, 09:29:30.979, 13, 0.00, 0.55, 97, 2.400, 3.000, 45.300, 2, 100, 100, 16, 22813, -18665, 5252, 5415, 15, 14, 1528388970.981, 111, 0, 1024, 1024, 1024, 1024, 0, 6, 3793, 3832, 3816, 3786, 3803, 3844, 0, 1, 10202, -89.900, 0.000, 45.500, 0.000, 0.000, -2.900, 0.0, , , , , , 97, , , 0, 0, 0
38.6884935, -120.4165346, 12.700, 09:29:31.079, 13, 0.00, 0.55, 97, 2.400, 3.000, 45.300, 2, 100, 100, 16, 22813, -18665, 5252, 5415, 15, 14, 1528388971.079, 210, 0, 1024, 1024, 1024, 1024, 0, 6, 3793, 3832, 3816, 3786, 3803, 3844, 0, 1, 10301, -89.900, 0.000, 45.500, 0.000, 0.000, -2.900, 0.0, , , , , , 97, , , 0, 0, 0
38.6884940, -120.4165345, 13.300, 09:29:31.180, 14, 0.00, 0.61, 97, 2.000, 2.900, 45.400, 2, 100, 99, 16, 22813, -18665, 5252, 5415, 15, 14, 1528388971.180, 18, 0, 1024, 1024, 1024, 1024, 0, 6, 3793, 3832, 3816, 3786, 3803, 3844, 0, 1, 10401, -89.900, 0.000, 45.500, 0.000, 0.000, -3.000, 0.0, , , , , , 97, , , 0, 0, 0
38.6884944, -120.4165345, 13.900, 09:29:31.282, 15, 0.00, 0.65, 97, 1.900, 3.200, 45.500, 2, 100, 99, 16, 22813, -18665, 5252, 5415, 15, 14, 1528388971.282, 9, 0, 1024, 1024, 1024, 1024, 0, 6, 3793, 3832, 3816, 3786, 3803, 3844, 0, 1, 10504, -89.900, 0.000, 45.500, 0.000, 0.000, -2.900, 0.0, , , , , , 97, , , 0, 0, 0
38.6884940, -120.4165345, 14.800, 09:29:31.380, 14, 0.10, 0.61, 97, 1.300, 1.800, 45.400, 2, 100, 99, 16, 22813, -18665, 5252, 5415, 15, 14, 1528388971.380, 31, 0, 1024, 1024, 1024, 1024, 0, 6, 3793, 3832, 3816, 3786, 3803, 3844, 0, 1, 10602, -90.000, 0.000, 45.500, -0.100, 0.000, -2.900, 0.0, , , , , , 97, , , 0, 0, 0
38.6884936, -120.4165346, 15.400, 09:29:31.479, 14, 0.10, 0.57, 97, 0.500, 0.900, 45.200, 2, 100, 99, 16, 22813, -18665, 5252, 5415, 15, 14, 1528388971.480, 29, 0, 1024, 1024, 1024, 1024, 0, 6, 3793, 3832, 3816, 3786, 3803, 3844, 0, 1, 10701, -90.000, 0.000, 45.500, -0.100, 0.000, -3.000, 0.0, , , , , , 97, , , 0, 0, 0
38.6884936, -120.4165346, 15.400, 09:29:31.579, 14, 0.10, 0.57, 97, 0.500, 0.900, 45.200, 2, 100, 99, 16, 22813, -18665, 5252, 5415, 15, 14, 1528388971.580, 129, 0, 1024, 1024, 1024, 1024, 0, 6, 3793, 3832, 3816, 3786, 3803, 3844, 0, 1, 10801, -90.000, 0.000, 45.500, -0.100, 0.000, -3.000, 0.0, , , , , , 97, , , 0, 0, 0
38.6884928, -120.4165349, 16.300, 09:29:31.679, 15, 0.14, 0.48, 97, 0.000, 0.000, 45.000, 2, 100, 100, 16, 22864, -19560, 5252, 5415, 15, 14, 1528388971.679, 32, 0, 1024, 1024, 1024, 1024, 0, 6, 3793, 3832, 3816, 3786, 3803, 3844, 0, 1, 10901, -90.000, 0.000, 45.500, -0.100, -0.100, -3.000, 0.0, , , , , , 97, , , 0, 0, 0
38.6884926, -120.4165350, 16.600, 09:29:31.779, 16, 0.14, 0.45, 97, 0.000, -0.300, 45.100, 2, 100, 100, 16, 22864, -19560, 5252, 5415, 15, 14, 1528388971.780, 49, 0, 1024, 1024, 1024, 1024, 0, 6, 3785, 3821, 3817, 3795, 3798, 3839, 0, 1, 11001, -90.000, 0.000, 45.500, -0.100, -0.100, -2.900, 0.0, , , , , , 97, , , 0, 0, 0
38.6884925, -120.4165351, 16.900, 09:29:31.879, 16, 0.14, 0.43, 97, 0.000, -0.600, 45.200, 2, 100, 100, 16, 22864, -19560, 5252, 5415, 15, 14, 1528388971.880, 52, 0, 1024, 1024, 1024, 1024, 0, 6, 3785, 3821, 3817, 3795, 3798, 3839, 0, 1, 11101, -90.000, 0.000, 45.500, -0.100, -0.100, -2.900, 0.0, , , , , , 97, , , 0, 0, 0
38.6884924, -120.4165352, 17.200, 09:29:32.047, 15, 0.10, 0.42, 97, 0.100, -0.400, 45.300, 2, 100, 100, 16, 22864, -19560, 5252, 5415, 15, 14, 1528388972.047, 113, 0, 1024, 1024, 1024, 1024, 0, 6, 3785, 3821, 3817, 3795, 3798, 3839, 0, 1, 11269, -89.900, 0.000, 45.500, 0.000, -0.100, -2.900, 0.0, , , , , , 97, , , 0, 0, 0
38.6884922, -120.4165353, 17.500, 09:29:32.078, 15, 0.00, 0.40, 97, 0.400, -0.100, 45.400, 2, 100, 100, 16, 22843, -19366, 5252, 5415, 15, 14, 1528388972.079, 12, 0, 1024, 1024, 1024, 1024, 0, 6, 3785, 3821, 3817, 3795, 3798, 3839, 0, 1, 11300, -89.900, 0.000, 45.500, 0.000, 0.000, -2.900, 0.0, , , , , , 97, , , 0, 0, 0
38.6884920, -120.4165354, 17.800, 09:29:32.184, 16, 0.00, 0.37, 97, 0.600, 0.000, 45.400, 2, 100, 100, 16, 22843, -19366, 5252, 5415, 15, 14, 1528388972.184, 9, 0, 1024, 1024, 1024, 1024, 0, 6, 3785, 3821, 3817, 3795, 3798, 3839, 0, 1, 11406, -89.900, 0.000, 45.500, 0.000, 0.000, -2.900, 0.0, , , , , , 97, , , 0, 0, 0
38.6884919, -120.4165355, 18.100, 09:29:32.279, 16, 0.00, 0.35, 97, 0.500, 0.000, 45.300, 2, 100, 100, 16, 22843, -19366, 5252, 5415, 15, 14, 1528388972.279, 47, 0, 1024, 1024, 1024, 1024, 0, 6, 3785, 3821, 3817, 3795, 3798, 3839, 0, 1, 11501, -89.900, 0.000, 45.500, 0.000, 0.000, -2.900, 0.0, , , , , , 97, , , 0, 0, 0
38.6884917, -120.4165357, 18.400, 09:29:32.379, 16, 0.00, 0.33, 97, 0.400, -0.200, 45.300, 2, 100, 100, 16, 22843, -19366, 5252, 5415, 15, 14, 1528388972.380, 22, 0, 1024, 1024, 1024, 1024, 0, 6, 3785, 3821, 3817, 3795, 3798, 3839, 0, 1, 11601, -89.900, 0.000, 45.500, 0.000, 0.000, -2.900, 0.0, , , , , , 97, , , 0, 0, 0
38.6884916, -120.4165357, 18.700, 09:29:32.479, 16, 0.00, 0.32, 97, 0.300, -0.500, 45.200, 2, 100, 100, 16, 22843, -19366, 5252, 5415, 15, 14, 1528388972.479, 13, 0, 1024, 1024, 1024, 1024, 0, 6, 3785, 3821, 3817, 3795, 3798, 3839, 0, 1, 11701, -89.900, 0.000, 45.500, 0.000, 0.000, -2.900, 0.0, , , , , , 97, , , 0, 0, 0
38.6884916, -120.4165358, 19.000, 09:29:32.579, 16, 0.00, 0.32, 97, 0.400, -0.600, 45.200, 2, 100, 100, 16, 22843, -19366, 5252, 5415, 15, 14, 1528388972.580, 30, 0, 1024, 1024, 1024, 1024, 0, 6, 3783, 3814, 3816, 3796, 3799, 3834, 0, 1, 11801, -89.900, 0.000, 45.500, 0.000, 0.000, -2.800, 0.0, , , , , , 97, , , 0, 0, 0
38.6884915, -120.4165358, 19.300, 09:29:32.679, 16, 0.00, 0.31, 97, 0.400, -0.600, 45.200, 2, 100, 100, 16, 22843, -19366, 5252, 5415, 15, 14, 1528388972.680, 29, 0, 1024, 1024, 1024, 1024, 0, 6, 3783, 3814, 3816, 3796, 3799, 3834, 0, 1, 11902, -89.900, 0.000, 45.500, 0.000, 0.000, -2.800, 0.0, , , , , , 97, , , 0, 0, 0
38.6884915, -120.4165359, 19.600, 09:29:32.779, 16, 0.00, 0.30, 97, 0.500, -0.400, 45.200, 2, 100, 100, 16, 22843, -19366, 5252, 5415, 15, 14, 1528388972.780, 19, 0, 1024, 1024, 1024, 1024, 0, 6, 3783, 3814, 3816, 3796, 3799, 3834, 0, 1, 12001, -89.900, 0.000, 45.500, 0.000, 0.000, -2.900, 0.0, , , , , , 97, , , 0, 0, 0
38.6884915, -120.4165359, 19.600, 09:29:32.879, 16, 0.00, 0.30, 97, 0.500, -0.400, 45.200, 2, 100, 100, 16, 22843, -19366, 5252, 5415, 15, 14, 1528388972.879, 119, 0, 1024, 1024, 1024, 1024, 0, 6, 3783, 3814, 3816, 3796, 3799, 3834, 0, 1, 12101, -89.900, 0.000, 45.500, 0.000, 0.000, -2.900, 0.0, , , , , , 97, , , 0, 0, 0
38.6884914, -120.4165360, 20.200, 09:29:32.979, 16, 0.00, 0.29, 97, 0.500, 0.200, 45.300, 2, 100, 100, 16, 22843, -19366, 5252, 5415, 15, 14, 1528388972.980, 22, 0, 1024, 1024, 1024, 1024, 0, 6, 3783, 3814, 3816, 3796, 3799, 3834, 0, 1, 12201, -89.900, 0.000, 45.500, 0.000, 0.000, -3.000, 0.0, , , , , , 97, , , 0, 0, 0
38.6884914, -120.4165361, 20.500, 09:29:33.091, 16, 0.00, 0.28, 97, 0.600, 0.300, 45.200, 2, 100, 98, 16, 22843, -19366, 5252, 5415, 15, 14, 1528388973.091, 10, 0, 1024, 1024, 1024, 1024, 0, 6, 3783, 3814, 3816, 3796, 3799, 3834, 0, 1, 12312, -89.900, 0.000, 45.500, 0.000, 0.000, -3.000, 0.0, , , , , , 97, , , 0, 0, 0
38.6884914, -120.4165361, 20.500, 09:29:33.179, 16, 0.00, 0.28, 97, 0.600, 0.300, 45.200, 2, 100, 98, 16, 22843, -19366, 5252, 5415, 15, 14, 1528388973.179, 98, 0, 1024, 1024, 1024, 1024, 0, 6, 3783, 3814, 3816, 3796, 3799, 3834, 0, 1, 12401, -89.900, 0.000, 45.500, 0.000, 0.000, -3.000, 0.0, , , , , , 97, , , 0, 0, 0
38.6884914, -120.4165361, 20.800, 09:29:33.279, 16, 0.00, 0.28, 97, 0.700, 0.300, 45.200, 2, 100, 98, 16, 22843, -19366, 5252, 5415, 15, 14, 1528388973.280, 61, 0, 1024, 1024, 1024, 1024, 0, 6, 3783, 3814, 3816, 3796, 3799, 3834, 0, 1, 12501, -89.900, 0.000, 45.500, 0.000, 0.000, -3.000, 0.0, , , , , , 97, , , 0, 0, 0
38.6884914, -120.4165362, 21.100, 09:29:33.379, 16, 0.00, 0.28, 97, 0.800, 0.200, 45.100, 2, 100, 98, 16, 22843, -19366, 5252, 5415, 15, 14, 1528388973.380, 42, 0, 1024, 1024, 1024, 1024, 0, 6, 3783, 3814, 3816, 3796, 3799, 3834, 0, 1, 12602, -90.000, 0.000, 45.500, 0.000, 0.000, -2.900, 0.0, , , , , , 97, , , 0, 0, 0
38.6884914, -120.4165362, 21.400, 09:29:33.479, 16, 0.00, 0.28, 97, 0.700, 0.100, 45.100, 2, 100, 98, 16, 22843, -19366, 5252, 5415, 15, 14, 1528388973.480, 40, 0, 1024, 1024, 1024, 1024, 0, 6, 3783, 3814, 3816, 3796, 3799, 3834, 0, 1, 12701, -89.900, 0.000, 45.400, 0.000, 0.000, -2.900, 0.0, , , , , , 97, , , 0, 0, 0
38.6884915, -120.4165363, 21.700, 09:29:33.579, 16, 0.00, 0.29, 97, 0.800, 0.100, 45.100, 2, 100, 98, 16, 22843, -19366, 5252, 5415, 15, 14, 1528388973.580, 88, 0, 1024, 1024, 1024, 1024, 0, 6, 3783, 3814, 3816, 3796, 3799, 3834, 0, 1, 12801, -89.900, 0.000, 45.500, 0.000, 0.000, -2.900, 0.0, , , , , , 97, , , 0, 0, 0
38.6884916, -120.4165363, 22.000, 09:29:33.679, 16, 0.00, 0.30, 97, 1.000, 0.300, 45.100, 2, 100, 96, 16, 22830, -19271, 5252, 5415, 15, 14, 1528388973.680, 35, 0, 1024, 1024, 1024, 1024, 0, 6, 3783, 3814, 3816, 3796, 3799, 3834, 0, 1, 12901, -89.900, 0.000, 45.500, 0.000, 0.000, -2.900, 0.0, , , , , , 97, , , 0, 0, 0
38.6884916, -120.4165364, 22.300, 09:29:33.779, 16, 0.00, 0.30, 97, 1.200, 0.600, 45.000, 2, 100, 96, 16, 22830, -19271, 5252, 5415, 15, 14, 1528388973.780, 85, 0, 1024, 1024, 1024, 1024, 0, 6, 3783, 3816, 3800, 3793, 3804, 3815, 0, 1, 13001, -89.900, 0.000, 45.500, 0.000, 0.000, -2.900, 0.0, , , , , , 97, , , 0, 0, 0
38.6884917, -120.4165364, 22.800, 09:29:33.879, 16, 0.00, 0.31, 97, 1.200, 0.700, 45.000, 2, 100, 96, 16, 22830, -19271, 5252, 5415, 15, 14, 1528388973.880, 81, 0, 1024, 1024, 1024, 1024, 0, 6, 3783, 3816, 3800, 3793, 3804, 3815, 0, 1, 13101, -89.900, 0.000, 45.500, 0.000, 0.000, -2.900, 0.0, , , , , , 97, , , 0, 0, 0
38.6884917, -120.4165364, 23.100, 09:29:33.979, 16, 0.00, 0.32, 97, 1.200, 0.700, 45.000, 2, 100, 96, 16, 22830, -19271, 5252, 5415, 15, 14, 1528388973.980, 38, 0, 1024, 1024, 1024, 1024, 0, 6, 3783, 3816, 3800, 3793, 3804, 3815, 0, 1, 13201, -89.900, 0.000, 45.500, 0.000, 0.000, -2.900, 0.0, , , , , , 97, , , 0, 0, 0
38.6884917, -120.4165364, 23.100, 09:29:34.079, 16, 0.00, 0.32, 97, 1.200, 0.700, 45.000, 2, 100, 96, 16, 22830, -19271, 5252, 5415, 15, 14, 1528388974.079, 138, 0, 1024, 1024, 1024, 1024, 0, 6, 3783, 3816, 3800, 3793, 3804, 3815, 0, 1, 13301, -89.900, 0.000, 45.500, 0.000, 0.000, -2.900, 0.0, , , , , , 97, , , 0, 0, 0
38.6884918, -120.4165364, 23.400, 09:29:34.179, 16, 0.00, 0.32, 97, 1.200, 0.800, 45.100, 2, 100, 96, 16, 22830, -19271, 5252, 5415, 15, 14, 1528388974.180, 26, 0, 1024, 1024, 1024, 1024, 0, 6, 3783, 3816, 3800, 3793, 3804, 3815, 0, 1, 13401, -89.900, 0.000, 45.500, 0.000, 0.000, -2.900, 0.0, , , , , , 97, , , 0, 0, 0
38.6884919, -120.4165365, 24.000, 09:29:34.279, 16, 0.00, 0.33, 97, 1.300, 0.800, 45.100, 2, 100, 96, 16, 22830, -19271, 5252, 5415, 15, 14, 1528388974.280, 35, 0, 1024, 1024, 1024, 1024, 0, 6, 3783, 3816, 3800, 3793, 3804, 3815, 0, 1, 13501, -89.900, 0.000, 45.500, 0.000, 0.000, -3.000, 0.0, , , , , , 97, , , 0, 0, 0
38.6884920, -120.4165365, 24.300, 09:29:34.379, 16, 0.00, 0.34, 97, 1.300, 0.800, 45.100, 2, 100, 96, 16, 22830, -19271, 5252, 5415, 15, 14, 1528388974.380, 51, 0, 1024, 1024, 1024, 1024, 0, 6, 3783, 3816, 3800, 3793, 3804, 3815, 0, 1, 13601, -89.900, 0.000, 45.500, 0.000, 0.000, -3.000, 0.0, , , , , , 97, , , 0, 0, 0
38.6884920, -120.4165365, 24.600, 09:29:34.479, 16, 0.00, 0.34, 97, 1.300, 0.800, 45.100, 2, 100, 96, 16, 22830, -19271, 5252, 5415, 15, 14, 1528388974.480, 38, 0, 1024, 1024, 1024, 1024, 0, 6, 3783, 3816, 3800, 3793, 3804, 3815, 0, 1, 13701, -89.900, 0.000, 45.500, 0.000, 0.000, -2.900, 0.0, , , , , , 97, , , 0, 0, 0
38.6884920, -120.4165365, 24.900, 09:29:34.579, 16, 0.00, 0.34, 97, 1.300, 0.700, 45.100, 2, 100, 96, 17, 22802, -18939, 5252, 5415, 15, 14, 1528388974.580, 25, 0, 1024, 1024, 1024, 1024, 0, 6, 3774, 3814, 3806, 3780, 3797, 3818, 0, 1, 13801, -89.900, 0.000, 45.500, 0.000, 0.000, -3.000, 0.0, , , , , , 97, , , 0, 0, 0
38.6884920, -120.4165366, 25.200, 09:29:34.679, 16, 0.00, 0.35, 97, 1.100, 0.600, 45.100, 2, 100, 96, 17, 22802, -18939, 5252, 5415, 15, 14, 1528388974.680, 38, 0, 1024, 1024, 1024, 1024, 0, 6, 3774, 3814, 3806, 3780, 3797, 3818, 0, 1, 13901, -89.900, 0.000, 45.500, 0.000, 0.000, -3.000, 0.0, , , , , , 97, , , 0, 0, 0
38.6884921, -120.4165366, 25.500, 09:29:34.779, 16, 0.00, 0.35, 97, 1.000, 0.700, 45.200, 2, 100, 96, 17, 22802, -18939, 5252, 5415, 15, 14, 1528388974.780, 19, 0, 1024, 1024, 1024, 1024, 0, 6, 3774, 3814, 3806, 3780, 3797, 3818, 0, 1, 14001, -89.900, 0.000, 45.500, 0.000, 0.000, -3.000, 0.0, , , , , , 97, , , 0, 0, 0
38.6884921, -120.4165366, 25.800, 09:29:34.879, 16, 0.00, 0.35, 97, 1.000, 0.900, 45.100, 2, 100, 96, 17, 22802, -18939, 5252, 5415, 15, 14, 1528388974.879, 22, 0, 1024, 1024, 1024, 1024, 0, 6, 3774, 3814, 3806, 3780, 3797, 3818, 0, 1, 14101, -89.900, 0.000, 45.500, 0.000, 0.000, -3.000, 0.0, , , , , , 97, , , 0, 0, 0
38.6884921, -120.4165366, 25.800, 09:29:34.979, 16, 0.00, 0.35, 97, 1.000, 0.900, 45.100, 2, 100, 96, 17, 22802, -18939, 5252, 5415, 15, 14, 1528388974.980, 123, 0, 1024, 1024, 1024, 1024, 0, 6, 3774, 3814, 3806, 3780, 3797, 3818, 0, 1, 14201, -89.900, 0.000, 45.500, 0.000, 0.000, -3.000, 0.0, , , , , , 97, , , 0, 0, 0
38.6884922, -120.4165366, 26.500, 09:29:35.107, 16, 0.00, 0.36, 97, 1.000, 0.700, 45.000, 2, 100, 98, 17, 22802, -18939, 5252, 5415, 15, 14, 1528388975.108, 20, 0, 1024, 1024, 1024, 1024, 0, 6, 3774, 3814, 3806, 3780, 3797, 3818, 0, 1, 14329, -89.900, 0.000, 45.400, 0.000, 0.000, -3.000, 0.0, , , , , , 97, , , 0, 0, 0
38.6884922, -120.4165366, 26.500, 09:29:35.179, 16, 0.00, 0.36, 97, 1.000, 0.700, 45.000, 2, 100, 98, 17, 22802, -18939, 5252, 5415, 15, 14, 1528388975.180, 93, 0, 1024, 1024, 1024, 1024, 0, 6, 3774, 3814, 3806, 3780, 3797, 3818, 0, 1, 14402, -89.900, 0.000, 45.400, 0.000, 0.000, -3.000, 0.0, , , , , , 97, , , 0, 0, 0
38.6884922, -120.4165367, 26.700, 09:29:35.279, 16, 0.00, 0.36, 97, 1.100, 0.500, 44.900, 2, 100, 98, 17, 22802, -18939, 5252, 5415, 15, 14, 1528388975.280, 62, 0, 1024, 1024, 1024, 1024, 0, 6, 3774, 3814, 3806, 3780, 3797, 3818, 0, 1, 14501, -89.900, 0.000, 45.400, 0.000, 0.000, -2.900, 0.0, , , , , , 97, , , 0, 0, 0
38.6884922, -120.4165367, 27.000, 09:29:35.379, 16, 0.00, 0.36, 97, 1.300, 0.400, 44.800, 2, 100, 98, 17, 22802, -18939, 5252, 5415, 15, 14, 1528388975.380, 62, 0, 1024, 1024, 1024, 1024, 0, 6, 3774, 3814, 3806, 3780, 3797, 3818, 0, 1, 14601, -89.900, 0.000, 45.500, 0.000, 0.000, -2.900, 0.0, , , , , , 97, , , 0, 0, 0
38.6884923, -120.4165368, 27.300, 09:29:35.479, 16, 0.00, 0.37, 97, 1.500, 0.200, 44.700, 2, 100, 98, 17, 22802, -18939, 5252, 5415, 15, 14, 1528388975.480, 37, 0, 1024, 1024, 1024, 1024, 0, 6, 3774, 3814, 3806, 3780, 3797, 3818, 0, 1, 14701, -90.000, 0.000, 45.500, 0.000, 0.000, -3.000, 0.0, , , , , , 97, , , 0, 0, 0
38.6884923, -120.4165368, 27.700, 09:29:35.579, 16, 0.00, 0.37, 97, 1.600, 0.100, 44.700, 2, 100, 98, 17, 22802, -18939, 5252, 5415, 15, 14, 1528388975.580, 75, 0, 1024, 1024, 1024, 1024, 0, 6, 3774, 3814, 3806, 3780, 3797, 3818, 0, 1, 14801, -89.900, 0.000, 45.500, 0.000, 0.000, -3.000, 0.0, , , , , , 97, , , 0, 0, 0
38.6884923, -120.4165368, 27.700, 09:29:35.679, 16, 0.00, 0.37, 97, 1.600, 0.100, 44.700, 2, 100, 97, 17, 22790, -18789, 5252, 5415, 15, 14, 1528388975.680, 175, 0, 1024, 1024, 1024, 1024, 0, 6, 3774, 3814, 3806, 3780, 3797, 3818, 0, 1, 14901, -89.900, 0.000, 45.500, 0.000, 0.000, -3.000, 0.0, , , , , , 97, , , 0, 0, 0
38.6884923, -120.4165368, 27.700, 09:29:35.778, 16, 0.00, 0.37, 97, 1.600, 0.100, 44.700, 2, 100, 97, 17, 22790, -18789, 5252, 5415, 15, 14, 1528388975.779, 274, 0, 1024, 1024, 1024, 1024, 0, 6, 3774, 3814, 3806, 3780, 3797, 3818, 0, 1, 15000, -89.900, 0.000, 45.500, 0.000, 0.000, -3.000, 0.0, , , , , , 97, , , 0, 0, 0
38.6884924, -120.4165369, 28.600, 09:29:35.879, 16, 0.00, 0.38, 97, 1.600, 0.200, 45.000, 2, 100, 97, 17, 22790, -18789, 5252, 5415, 15, 14, 1528388975.879, 93, 0, 1024, 1024, 1024, 1024, 0, 6, 3772, 3808, 3808, 3779, 3798, 3830, 0, 1, 15101, -89.900, 0.000, 45.500, 0.000, 0.000, -2.900, 0.0, , , , , , 97, , , 0, 0, 0
38.6884924, -120.4165369, 28.600, 09:29:35.979, 16, 0.00, 0.38, 97, 1.600, 0.200, 45.000, 2, 100, 97, 17, 22790, -18789, 5252, 5415, 15, 14, 1528388975.980, 193, 0, 1024, 1024, 1024, 1024, 0, 6, 3772, 3808, 3808, 3779, 3798, 3830, 0, 1, 15201, -89.900, 0.000, 45.500, 0.000, 0.000, -2.900, 0.0, , , , , , 97, , , 0, 0, 0
38.6884925, -120.4165370, 29.100, 09:29:36.078, 16, 0.00, 0.39, 97, 1.700, 0.300, 45.200, 2, 100, 97, 17, 22790, -18789, 5252, 5415, 15, 14, 1528388976.079, 96, 0, 1024, 1024, 1024, 1024, 0, 6, 3772, 3808, 3808, 3779, 3798, 3830, 0, 1, 15300, -89.900, 0.000, 45.500, 0.000, 0.000, -2.900, 0.0, , , , , , 97, , , 0, 0, 0
38.6884925, -120.4165370, 29.400, 09:29:36.178, 16, 0.00, 0.39, 97, 1.700, 0.500, 45.300, 2, 100, 94, 17, 22790, -18789, 5252, 5415, 15, 14, 1528388976.179, 73, 0, 1024, 1024, 1024, 1024, 0, 6, 3772, 3808, 3808, 3779, 3798, 3830, 0, 1, 15400, -89.900, 0.000, 45.500, 0.000, 0.000, -2.900, 0.0, , , , , , 97, , , 0, 0, 0
38.6884926, -120.4165371, 29.700, 09:29:36.279, 16, 0.00, 0.40, 97, 1.800, 0.700, 45.400, 2, 100, 94, 17, 22790, -18789, 5252, 5415, 15, 14, 1528388976.280, 60, 0, 1024, 1024, 1024, 1024, 0, 6, 3772, 3808, 3808, 3779, 3798, 3830, 0, 1, 15501, -89.900, 0.000, 45.500, 0.000, 0.000, -2.900, 0.0, , , , , , 97, , , 0, 0, 0
38.6884927, -120.4165371, 30.300, 09:29:36.379, 16, 0.00, 0.42, 97, 1.800, 0.900, 45.500, 2, 100, 94, 17, 22790, -18789, 5252, 5415, 15, 14, 1528388976.380, 74, 0, 1024, 1024, 1024, 1024, 0, 6, 3772, 3808, 3808, 3779, 3798, 3830, 0, 1, 15602, -89.900, 0.000, 45.500, 0.000, 0.000, -2.900, 0.0, , , , , , 97, , , 0, 0, 0
38.6884928, -120.4165371, 30.600, 09:29:36.479, 16, 0.00, 0.42, 97, 1.900, 1.000, 45.400, 2, 100, 94, 17, 22790, -18789, 5252, 5415, 15, 14, 1528388976.480, 56, 0, 1024, 1024, 1024, 1024, 0, 6, 3772, 3808, 3808, 3779, 3798, 3830, 0, 1, 15701, -89.900, 0.000, 45.500, 0.000, 0.000, -3.000, 0.0, , , , , , 97, , , 0, 0, 0
38.6884928, -120.4165371, 30.900, 09:29:36.579, 16, 0.00, 0.42, 97, 1.800, 1.000, 45.300, 2, 100, 94, 17, 22790, -18789, 5252, 5415, 15, 14, 1528388976.580, 48, 0, 1024, 1024, 1024, 1024, 0, 6, 3772, 3808, 3808, 3779, 3798, 3830, 0, 1, 15801, -89.900, 0.000, 45.500, 0.000, 0.000, -3.000, 0.0, , , , , , 97, , , 0, 0, 0
38.6884928, -120.4165371, 31.200, 09:29:36.679, 16, 0.00, 0.43, 97, 2.000, 1.000, 45.200, 2, 100, 89, 17, 22842, -18162, 5252, 5415, 15, 14, 1528388976.679, 39, 0, 1024, 1024, 1024, 1024, 0, 6, 3772, 3808, 3808, 3779, 3798, 3830, 0, 1, 15901, -89.900, 0.000, 45.500, 0.000, 0.000, -3.000, 0.0, , , , , , 97, , , 0, 0, 0
38.6884929, -120.4165371, 31.500, 09:29:36.779, 16, 0.00, 0.44, 97, 2.100, 1.000, 45.100, 2, 100, 89, 17, 22842, -18162, 5252, 5415, 15, 14, 1528388976.780, 38, 0, 1024, 1024, 1024, 1024, 0, 6, 3782, 3812, 3816, 3785, 3798, 3837, 0, 1, 16002, -89.900, 0.000, 45.500, 0.000, 0.000, -2.900, 0.0, , , , , , 97, , , 0, 0, 0
38.6884930, -120.4165371, 31.800, 09:29:36.879, 16, 0.00, 0.44, 97, 2.200, 1.000, 45.000, 2, 100, 89, 17, 22842, -18162, 5252, 5415, 15, 14, 1528388976.880, 51, 0, 1024, 1024, 1024, 1024, 0, 6, 3782, 3812, 3816, 3785, 3798, 3837, 0, 1, 16101, -89.900, 0.000, 45.500, 0.000, 0.000, -3.000, 0.0, , , , , , 97, , , 0, 0, 0
38.6884930, -120.4165372, 32.100, 09:29:36.979, 16, 0.00, 0.45, 97, 2.200, 1.000, 44.900, 2, 100, 89, 17, 22842, -18162, 5252, 5415, 15, 14, 1528388976.981, 40, 0, 1024, 1024, 1024, 1024, 0, 6, 3782, 3812, 3816, 3785, 3798, 3837, 0, 1, 16202, -89.900, 0.000, 45.500, 0.000, 0.000, -3.000, 0.0, , , , , , 97, , , 0, 0, 0
38.6884930, -120.4165372, 32.400, 09:29:37.084, 16, 0.00, 0.45, 97, 2.300, 0.900, 45.000, 2, 100, 89, 17, 22842, -18162, 5252, 5415, 15, 14, 1528388977.085, 9, 0, 1024, 1024, 1024, 1024, 0, 6, 3782, 3812, 3816, 3785, 3798, 3837, 0, 1, 16306, -89.900, 0.000, 45.500, 0.000, 0.000, -3.000, 0.0, , , , , , 97, , , 0, 0, 0
38.6884930, -120.4165372, 32.400, 09:29:37.179, 16, 0.00, 0.45, 97, 2.300, 0.900, 45.000, 2, 100, 89, 17, 22842, -18162, 5252, 5415, 15, 14, 1528388977.179, 103, 0, 1024, 1024, 1024, 1024, 0, 6, 3782, 3812, 3816, 3785, 3798, 3837, 0, 1, 16401, -89.900, 0.000, 45.500, 0.000, 0.000, -3.000, 0.0, , , , , , 97, , , 0, 0, 0
38.6884930, -120.4165372, 32.700, 09:29:37.279, 16, 0.00, 0.45, 97, 2.200, 0.900, 45.000, 2, 100, 92, 17, 22842, -18162, 5252, 5415, 15, 14, 1528388977.280, 19, 0, 1024, 1024, 1024, 1024, 0, 6, 3782, 3812, 3816, 3785, 3798, 3837, 0, 1, 16501, -89.900, 0.000, 45.500, 0.000, 0.000, -3.000, 0.0, , , , , , 97, , , 0, 0, 0
38.6884930, -120.4165371, 33.300, 09:29:37.380, 16, 0.00, 0.45, 97, 2.100, 1.100, 45.000, 2, 100, 92, 17, 22842, -18162, 5252, 5415, 15, 14, 1528388977.380, 9, 0, 1024, 1024, 1024, 1024, 0, 6, 3782, 3812, 3816, 3785, 3798, 3837, 0, 1, 16602, -89.900, 0.000, 45.500, 0.000, 0.000, -3.000, 0.0, , , , , , 97, , , 0, 0, 0
38.6884930, -120.4165371, 33.300, 09:29:37.479, 16, 0.00, 0.45, 97, 2.100, 1.100, 45.000, 2, 100, 92, 17, 22842, -18162, 5252, 5415, 15, 14, 1528388977.481, 109, 0, 1024, 1024, 1024, 1024, 0, 6, 3782, 3812, 3816, 3785, 3798, 3837, 0, 1, 16702, -89.900, 0.000, 45.500, 0.000, 0.000, -3.000, 0.0, , , , , , 97, , , 0, 0, 0
38.6884930, -120.4165371, 33.600, 09:29:37.579, 16, 0.00, 0.45, 97, 2.200, 1.200, 45.100, 2, 100, 92, 17, 22842, -18162, 5252, 5415, 15, 14, 1528388977.580, 49, 0, 1024, 1024, 1024, 1024, 0, 6, 3782, 3812, 3816, 3785, 3798, 3837, 0, 1, 16801, -89.900, 0.000, 45.500, 0.000, 0.000, -3.000, 0.0, , , , , , 97, , , 0, 0, 0
38.6884930, -120.4165371, 33.900, 09:29:37.679, 16, 0.00, 0.45, 97, 2.300, 1.200, 45.000, 2, 100, 92, 17, 22780, -18648, 5252, 5415, 15, 14, 1528388977.680, 87, 0, 1024, 1024, 1024, 1024, 0, 6, 3782, 3812, 3816, 3785, 3798, 3837, 0, 1, 16901, -89.900, 0.000, 45.500, 0.000, 0.000, -3.000, 0.0, , , , , , 97, , , 0, 0, 0
38.6884930, -120.4165371, 34.200, 09:29:37.779, 16, 0.00, 0.45, 97, 2.300, 1.200, 45.000, 2, 100, 92, 17, 22780, -18648, 5252, 5415, 15, 14, 1528388977.780, 47, 0, 1024, 1024, 1024, 1024, 0, 6, 3782, 3812, 3816, 3785, 3798, 3837, 0, 1, 17001, -89.900, 0.000, 45.500, 0.000, 0.000, -3.000, 0.0, , , , , , 97, , , 0, 0, 0
38.6884930, -120.4165371, 34.500, 09:29:37.879, 16, 0.00, 0.44, 97, 2.100, 1.200, 45.100, 2, 100, 92, 17, 22780, -18648, 5252, 5415, 15, 14, 1528388977.880, 53, 0, 1024, 1024, 1024, 1024, 0, 6, 3782, 3812, 3816, 3785, 3798, 3837, 0, 1, 17101, -89.900, 0.000, 45.500, 0.000, 0.000, -2.900, 0.0, , , , , , 97, , , 0, 0, 0
38.6884929, -120.4165370, 34.700, 09:29:37.979, 16, 0.00, 0.44, 97, 1.700, 1.100, 45.200, 2, 100, 92, 17, 22780, -18648, 5252, 5415, 15, 14, 1528388977.980, 27, 0, 1024, 1024, 1024, 1024, 0, 6, 3782, 3812, 3816, 3785, 3798, 3837, 0, 1, 17201, -89.900, 0.000, 45.500, 0.000, 0.000, -2.900, 0.0, , , , , , 97, , , 0, 0, 0
38.6884928, -120.4165369, 35.000, 09:29:38.079, 16, 0.00, 0.43, 97, 1.300, 1.200, 45.300, 2, 100, 92, 17, 22780, -18648, 5252, 5415, 15, 14, 1528388978.079, 26, 0, 1024, 1024, 1024, 1024, 0, 6, 3782, 3812, 3816, 3785, 3798, 3837, 0, 1, 17300, -89.900, 0.000, 45.500, 0.000, 0.000, -2.900, 0.0, , , , , , 97, , , 0, 0, 0
38.6884928, -120.4165369, 35.000, 09:29:38.179, 16, 0.00, 0.43, 97, 1.300, 1.200, 45.300, 2, 100, 92, 17, 22780, -18648, 5252, 5415, 15, 14, 1528388978.180, 126, 0, 1024, 1024, 1024, 1024, 0, 6, 3782, 3812, 3816, 3785, 3798, 3837, 0, 1, 17401, -89.900, 0.000, 45.500, 0.000, 0.000, -2.900, 0.0, , , , , , 97, , , 0, 0, 0
38.6884927, -120.4165368, 35.600, 09:29:38.279, 16, 0.00, 0.42, 97, 0.900, 1.500, 45.600, 2, 100, 93, 17, 22780, -18648, 5252, 5415, 15, 14, 1528388978.280, 24, 0, 1024, 1024, 1024, 1024, 0, 6, 3769, 3814, 3801, 3789, 3799, 3824, 0, 1, 17501, -89.900, 0.000, 45.500, 0.000, 0.000, -3.100, 0.0, , , , , , 97, , , 0, 0, 0
38.6884927, -120.4165367, 35.900, 09:29:38.379, 16, 0.00, 0.41, 97, 0.900, 1.600, 45.600, 2, 100, 93, 17, 22780, -18648, 5252, 5415, 15, 14, 1528388978.380, 73, 0, 1024, 1024, 1024, 1024, 0, 6, 3769, 3814, 3801, 3789, 3799, 3824, 0, 1, 17601, -89.900, 0.000, 45.500, 0.000, 0.000, -3.000, 0.0, , , , , , 97, , , 0, 0, 0
38.6884926, -120.4165367, 36.500, 09:29:38.480, 16, 0.00, 0.41, 97, 1.100, 1.400, 45.600, 2, 100, 93, 17, 22780, -18648, 5252, 5415, 15, 14, 1528388978.481, 3, 0, 1024, 1024, 1024, 1024, 0, 6, 3769, 3814, 3801, 3789, 3799, 3824, 0, 1, 17702, -89.900, 0.000, 45.500, 0.000, 0.000, -3.000, 0.0, , , , , , 97, , , 0, 0, 0
38.6884926, -120.4165367, 36.500, 09:29:38.579, 16, 0.00, 0.41, 97, 1.100, 1.400, 45.600, 2, 100, 93, 17, 22780, -18648, 5252, 5415, 15, 14, 1528388978.580, 102, 0, 1024, 1024, 1024, 1024, 0, 6, 3769, 3814, 3801, 3789, 3799, 3824, 0, 1, 17801, -89.900, 0.000, 45.500, 0.000, 0.000, -3.000, 0.0, , , , , , 97, , , 0, 0, 0
38.6884926, -120.4165367, 36.800, 09:29:38.679, 16, 0.00, 0.40, 97, 1.300, 1.200, 45.500, 2, 100, 92, 17, 22780, -18648, 5252, 5415, 15, 14, 1528388978.680, 69, 0, 1024, 1024, 1024, 1024, 0, 6, 3769, 3814, 3801, 3789, 3799, 3824, 0, 1, 17901, -89.900, 0.000, 45.500, 0.000, 0.000, -3.000, 0.0, , , , , , 97, , , 0, 0, 0
38.6884926, -120.4165367, 37.100, 09:29:38.779, 16, 0.00, 0.40, 97, 1.500, 1.200, 45.500, 2, 100, 92, 17, 22780, -18648, 5252, 5415, 15, 14, 1528388978.780, 83, 0, 1024, 1024, 1024, 1024, 0, 6, 3769, 3814, 3801, 3789, 3799, 3824, 0, 1, 18001, -89.900, 0.000, 45.500, 0.000, 0.000, -2.900, 0.0, , , , , , 97, , , 0, 0, 0
38.6884926, -120.4165367, 37.100, 09:29:38.879, 16, 0.00, 0.40, 97, 1.500, 1.200, 45.500, 2, 100, 92, 17, 22780, -18648, 5252, 5415, 15, 14, 1528388978.880, 182, 0, 1024, 1024, 1024, 1024, 0, 6, 3769, 3814, 3801, 3789, 3799, 3824, 0, 1, 18101, -89.900, 0.000, 45.500, 0.000, 0.000, -2.900, 0.0, , , , , , 97, , , 0, 0, 0
38.6884924, -120.4165367, 38.000, 09:29:38.979, 16, 0.00, 0.39, 97, 1.600, 1.400, 45.200, 2, 100, 92, 17, 22780, -18648, 5252, 5415, 15, 14, 1528388978.980, 53, 0, 1024, 1024, 1024, 1024, 0, 6, 3769, 3814, 3801, 3789, 3799, 3824, 0, 1, 18201, -89.900, 0.000, 45.500, 0.000, 0.000, -3.000, 0.0, , , , , , 97, , , 0, 0, 0
38.6884924, -120.4165367, 38.000, 09:29:39.079, 16, 0.00, 0.39, 97, 1.600, 1.400, 45.200, 2, 100, 92, 17, 22780, -18648, 5252, 5415, 15, 14, 1528388979.079, 153, 0, 1024, 1024, 1024, 1024, 0, 6, 3769, 3814, 3801, 3789, 3799, 3824, 0, 1, 18301, -89.900, 0.000, 45.400, 0.000, 0.000, -3.000, 0.0, , , , , , 97, , , 0, 0, 0
38.6884923, -120.4165367, 38.600, 09:29:39.179, 16, 0.00, 0.38, 96, 1.100, 1.200, 45.100, 2, 100, 92, 17, 22797, -18185, 5198, 5415, 15, 14, 1528388979.180, 25, 0, 1024, 1024, 1024, 1024, 0, 6, 3769, 3814, 3801, 3789, 3799, 3824, 0, 1, 18401, -89.900, 0.000, 45.500, 0.000, 0.000, -3.000, 0.0, , , , , , 97, , , 0, 0, 0
38.6884923, -120.4165367, 38.900, 09:29:39.278, 16, 0.00, 0.37, 96, 0.900, 1.000, 45.200, 2, 100, 92, 17, 22797, -18185, 5198, 5415, 15, 14, 1528388979.279, 61, 0, 1024, 1024, 1024, 1024, 0, 6, 3767, 3808, 3795, 3778, 3797, 3815, 0, 1, 18500, -89.900, 0.000, 45.500, 0.000, 0.000, -3.000, 0.0, , , , , , 97, , , 0, 0, 0
38.6884922, -120.4165367, 39.200, 09:29:39.379, 16, 0.00, 0.36, 96, 0.900, 1.000, 45.300, 2, 100, 92, 17, 22797, -18185, 5198, 5415, 15, 14, 1528388979.380, 40, 0, 1024, 1024, 1024, 1024, 0, 6, 3767, 3808, 3795, 3778, 3797, 3815, 0, 1, 18601, -89.900, 0.000, 45.500, 0.000, 0.000, -3.100, 0.0, , , , , , 97, , , 0, 0, 0
38.6884921, -120.4165366, 39.500, 09:29:39.479, 16, 0.00, 0.36, 96, 1.000, 1.100, 45.400, 2, 100, 92, 17, 22797, -18185, 5198, 5415, 15, 14, 1528388979.480, 34, 0, 1024, 1024, 1024, 1024, 0, 6, 3767, 3808, 3795, 3778, 3797, 3815, 0, 1, 18701, -89.900, 0.000, 45.500, 0.000, 0.000, -3.100, 0.0, , , , , , 97, , , 0, 0, 0
38.6884921, -120.4165366, 39.900, 09:29:39.579, 16, 0.00, 0.35, 96, 0.800, 1.100, 45.500, 2, 100, 92, 17, 22797, -18185, 5198, 5415, 15, 14, 1528388979.580, 59, 0, 1024, 1024, 1024, 1024, 0, 6, 3767, 3808, 3795, 3778, 3797, 3815, 0, 1, 18801, -89.900, 0.000, 45.500, 0.000, 0.000, -3.100, 0.0, , , , , , 97, , , 0, 0, 0
38.6884920, -120.4165366, 40.200, 09:29:39.679, 16, 0.00, 0.35, 96, 0.700, 1.200, 45.600, 2, 100, 96, 17, 22797, -18185, 5198, 5415, 15, 14, 1528388979.680, 63, 0, 1024, 1024, 1024, 1024, 0, 6, 3767, 3808, 3795, 3778, 3797, 3815, 0, 1, 18901, -89.900, 0.000, 45.500, 0.000, 0.000, -3.100, 0.0, , , , , , 97, , , 0, 0, 0
38.6884920, -120.4165366, 40.500, 09:29:39.779, 16, 0.00, 0.34, 96, 1.000, 1.300, 45.500, 2, 100, 96, 17, 22797, -18185, 5198, 5415, 15, 14, 1528388979.780, 22, 0, 1024, 1024, 1024, 1024, 0, 6, 3767, 3808, 3795, 3778, 3797, 3815, 0, 1, 19001, -89.900, 0.000, 45.500, 0.000, 0.000, -3.100, 0.0, , , , , , 97, , , 0, 0, 0
38.6884920, -120.4165366, 40.800, 09:29:39.879, 16, 0.00, 0.34, 96, 1.400, 1.300, 45.400, 2, 100, 96, 17, 22797, -18185, 5198, 5415, 15, 14, 1528388979.879, 18, 0, 1024, 1024, 1024, 1024, 0, 6, 3767, 3808, 3795, 3778, 3797, 3815, 0, 1, 19100, -89.900, 0.000, 45.500, 0.000, 0.000, -3.000, 0.0, , , , , , 97, , , 0, 0, 0
38.6884920, -120.4165367, 41.100, 09:29:39.979, 16, 0.00, 0.34, 96, 1.600, 1.200, 45.300, 2, 100, 96, 17, 22797, -18185, 5198, 5415, 15, 14, 1528388979.980, 8, 0, 1024, 1024, 1024, 1024, 0, 6, 3767, 3808, 3795, 3778, 3797, 3815, 0, 1, 19201, -89.900, 0.000, 45.500, 0.000, 0.000, -2.900, 0.0, , , , , , 97, , , 0, 0, 0
38.6884919, -120.4165367, 41.400, 09:29:40.079, 16, 0.00, 0.33, 96, 1.600, 1.000, 45.200, 2, 100, 96, 17, 22701, -18986, 5198, 5415, 15, 14, 1528388980.079, 45, 0, 1024, 1024, 1024, 1024, 0, 6, 3748, 3793, 3794, 3769, 3775, 3807, 0, 1, 19300, -89.900, 0.000, 45.500, 0.000, 0.000, -2.900, 0.0, , , , , , 97, , , 0, 0, 0
38.6884919, -120.4165367, 41.700, 09:29:40.179, 16, 0.00, 0.33, 96, 1.500, 0.900, 45.200, 2, 100, 96, 17, 22701, -18986, 5198, 5415, 15, 14, 1528388980.180, 33, 0, 1024, 1024, 1024, 1024, 0, 6, 3748, 3793, 3794, 3769, 3775, 3807, 0, 1, 19401, -90.000, 0.000, 45.500, 0.000, 0.000, -2.900, 0.0, , , , , , 97, , , 0, 0, 0
38.6884918, -120.4165367, 42.000, 09:29:40.279, 16, 0.00, 0.32, 96, 1.500, 1.100, 45.100, 2, 100, 96, 17, 22701, -18986, 5198, 5415, 15, 14, 1528388980.279, 21, 0, 1024, 1024, 1024, 1024, 0, 6, 3748, 3793, 3794, 3769, 3775, 3807, 0, 1, 19501, -89.900, 0.000, 45.500, 0.000, 0.000, -3.000, 0.0, , , , , , 97, , , 0, 0, 0
38.6884918, -120.4165367, 42.300, 09:29:40.379, 16, 0.00, 0.31, 96, 1.500, 1.100, 45.000, 2, 100, 96, 17, 22701, -18986, 5198, 5415, 15, 14, 1528388980.380, 27, 0, 1024, 1024, 1024, 1024, 0, 6, 3748, 3793, 3794, 3769, 3775, 3807, 0, 1, 19601, -89.900, 0.000, 45.500, 0.000, 0.000, -3.000, 0.0, , , , , , 97, , , 0, 0, 0
38.6884917, -120.4165367, 42.600, 09:29:40.479, 16, 0.00, 0.31, 96, 1.300, 1.100, 45.000, 2, 100, 96, 17, 22701, -18986, 5198, 5415, 15, 14, 1528388980.480, 24, 0, 1024, 1024, 1024, 1024, 0, 6, 3748, 3793, 3794, 3769, 3775, 3807, 0, 1, 19701, -89.900, 0.000, 45.500, 0.000, 0.000, -2.900, 0.0, , , , , , 97, , , 0, 0, 0
38.6884917, -120.4165366, 42.900, 09:29:40.579, 16, 0.00, 0.30, 96, 0.900, 1.000, 44.900, 2, 100, 96, 17, 22701, -18986, 5198, 5415, 15, 14, 1528388980.579, 22, 0, 1024, 1024, 1024, 1024, 0, 6, 3748, 3793, 3794, 3769, 3775, 3807, 0, 1, 19801, -89.900, 0.000, 45.500, 0.000, 0.000, -3.000, 0.0, , , , , , 97, , , 0, 0, 0
38.6884916, -120.4165366, 43.200, 09:29:40.678, 16, 0.00, 0.30, 96, 0.800, 1.100, 45.000, 2, 100, 98, 17, 22701, -18986, 5198, 5415, 15, 14, 1528388980.679, 11, 0, 1024, 1024, 1024, 1024, 0, 6, 3748, 3793, 3794, 3769, 3775, 3807, 0, 1, 19900, -89.900, 0.000, 45.500, 0.000, 0.000, -3.000, 0.0, , , , , , 97, , , 0, 0, 0
38.6884916, -120.4165366, 43.500, 09:29:40.779, 16, 0.00, 0.30, 96, 0.700, 1.300, 44.900, 2, 100, 98, 17, 22701, -18986, 5198, 5415, 15, 14, 1528388980.780, 5, 0, 1024, 1024, 1024, 1024, 0, 6, 3748, 3793, 3794, 3769, 3775, 3807, 0, 1, 20001, -89.900, 0.000, 45.500, 0.000, 0.000, -3.000, 0.0, , , , , , 97, , , 0, 0, 0
38.6884916, -120.4165365, 43.800, 09:29:40.885, 16, 0.00, 0.30, 96, 0.700, 1.500, 44.900, 2, 100, 98, 17, 22701, -18986, 5198, 5415, 15, 14, 1528388980.887, 6, 0, 1024, 1024, 1024, 1024, 0, 6, 3748, 3793, 3794, 3769, 3775, 3807, 0, 1, 20108, -89.900, 0.000, 45.500, 0.000, 0.000, -3.000, 0.0, , , , , , 97, , , 0, 0, 0
38.6884916, -120.4165365, 43.800, 09:29:40.979, 16, 0.00, 0.30, 96, 0.700, 1.500, 44.900, 2, 100, 98, 17, 22701, -18986, 5198, 5415, 15, 14, 1528388980.980, 99, 0, 1024, 1024, 1024, 1024, 0, 6, 3748, 3793, 3794, 3769, 3775, 3807, 0, 1, 20201, -89.900, 0.000, 45.500, 0.000, 0.000, -3.000, 0.0, , , , , , 97, , , 0, 0, 0
38.6884916, -120.4165365, 44.100, 09:29:41.079, 16, 0.00, 0.30, 96, 0.700, 1.700, 44.900, 2, 100, 98, 17, 22701, -18986, 5198, 5415, 15, 14, 1528388981.079, 82, 0, 1024, 1024, 1024, 1024, 0, 6, 3748, 3793, 3794, 3769, 3775, 3807, 0, 1, 20301, -89.900, 0.000, 45.500, 0.000, 0.000, -3.000, 0.0, , , , , , 97, , , 0, 0, 0
38.6884916, -120.4165365, 44.400, 09:29:41.179, 16, 0.00, 0.30, 96, 0.800, 1.700, 44.900, 2, 100, 98, 17, 22765, -18113, 5198, 5415, 15, 14, 1528388981.180, 82, 0, 1024, 1024, 1024, 1024, 0, 6, 3748, 3793, 3794, 3769, 3775, 3807, 0, 1, 20401, -89.900, 0.000, 45.500, 0.000, 0.000, -2.900, 0.0, , , , , , 97, , , 0, 0, 0
38.6884916, -120.4165364, 44.700, 09:29:41.279, 16, 0.00, 0.30, 96, 0.800, 1.800, 44.900, 2, 100, 98, 17, 22765, -18113, 5198, 5415, 15, 14, 1528388981.280, 89, 0, 1024, 1024, 1024, 1024, 0, 6, 3758, 3800, 3803, 3787, 3792, 3813, 0, 1, 20501, -89.900, 0.000, 45.500, 0.000, 0.000, -2.900, 0.0, , , , , , 97, , , 0, 0, 0
38.6884915, -120.4165364, 45.000, 09:29:41.379, 16, 0.00, 0.29, 96, 0.900, 1.800, 45.100, 2, 100, 98, 17, 22765, -18113, 5198, 5415, 15, 14, 1528388981.380, 83, 0, 1024, 1024, 1024, 1024, 0, 6, 3758, 3800, 3803, 3787, 3792, 3813, 0, 1, 20601, -89.900, 0.000, 45.500, 0.000, 0.000, -2.900, 0.0, , , , , , 97, , , 0, 0, 0
38.6884915, -120.4165364, 45.000, 09:29:41.478, 16, 0.00, 0.29, 96, 0.900, 1.800, 45.100, 2, 100, 98, 17, 22765, -18113, 5198, 5415, 15, 14, 1528388981.479, 182, 0, 1024, 1024, 1024, 1024, 0, 6, 3758, 3800, 3803, 3787, 3792, 3813, 0, 1, 20700, -89.900, 0.000, 45.500, 0.000, 0.000, -2.900, 0.0, , , , , , 97, , , 0, 0, 0
38.6884915, -120.4165363, 45.600, 09:29:41.579, 16, 0.00, 0.29, 96, 0.400, 1.600, 45.400, 2, 100, 98, 17, 22765, -18113, 5198, 5415, 15, 14, 1528388981.580, 88, 0, 1024, 1024, 1024, 1024, 0, 6, 3758, 3800, 3803, 3787, 3792, 3813, 0, 1, 20801, -89.900, 0.000, 45.500, 0.000, 0.000, -3.000, 0.0, , , , , , 97, , , 0, 0, 0
38.6884915, -120.4165363, 45.900, 09:29:41.679, 16, 0.00, 0.29, 96, 0.300, 1.700, 45.500, 2, 100, 98, 17, 22765, -18113, 5198, 5415, 15, 14, 1528388981.680, 89, 0, 1024, 1024, 1024, 1024, 0, 6, 3758, 3800, 3803, 3787, 3792, 3813, 0, 1, 20901, -89.900, 0.000, 45.500, 0.000, 0.000, -3.000, 0.0, , , , , , 97, , , 0, 0, 0
38.6884914, -120.4165362, 46.500, 09:29:41.779, 16, 0.00, 0.29, 96, 0.300, 1.800, 45.700, 2, 100, 98, 17, 22765, -18113, 5198, 5415, 15, 14, 1528388981.780, 65, 0, 1024, 1024, 1024, 1024, 0, 6, 3758, 3800, 3803, 3787, 3792, 3813, 0, 1, 21001, -89.900, 0.000, 45.500, 0.000, 0.000, -3.000, 0.0, , , , , , 97, , , 0, 0, 0
38.6884915, -120.4165362, 46.800, 09:29:41.879, 16, 0.00, 0.29, 96, 0.400, 1.900, 45.700, 2, 100, 98, 17, 22765, -18113, 5198, 5415, 15, 14, 1528388981.880, 51, 0, 1024, 1024, 1024, 1024, 0, 6, 3758, 3800, 3803, 3787, 3792, 3813, 0, 1, 21101, -89.900, 0.000, 45.500, 0.000, 0.000, -3.000, 0.0, , , , , , 97, , , 0, 0, 0
38.6884915, -120.4165362, 47.100, 09:29:41.979, 16, 0.00, 0.29, 96, 0.600, 2.100, 45.700, 2, 100, 98, 17, 22765, -18113, 5198, 5415, 15, 14, 1528388981.980, 53, 0, 1024, 1024, 1024, 1024, 0, 6, 3758, 3800, 3803, 3787, 3792, 3813, 0, 1, 21201, -89.900, 0.000, 45.500, 0.000, 0.000, -3.100, 0.0, , , , , , 97, , , 0, 0, 0
38.6884915, -120.4165362, 47.400, 09:29:42.079, 16, 0.00, 0.30, 96, 0.700, 2.200, 45.600, 2, 100, 98, 17, 22708, -18604, 5198, 5415, 15, 14, 1528388982.079, 44, 0, 1024, 1024, 1024, 1024, 0, 6, 3756, 3791, 3796, 3766, 3778, 3811, 0, 1, 21301, -89.900, 0.000, 45.500, 0.000, 0.000, -3.100, 0.0, , , , , , 97, , , 0, 0, 0
38.6884915, -120.4165362, 47.700, 09:29:42.179, 16, 0.00, 0.30, 96, 0.900, 2.200, 45.400, 2, 100, 97, 17, 22708, -18604, 5198, 5415, 15, 14, 1528388982.180, 48, 0, 1024, 1024, 1024, 1024, 0, 6, 3756, 3791, 3796, 3766, 3778, 3811, 0, 1, 21401, -89.900, 0.000, 45.500, 0.000, 0.000, -3.100, 0.0, , , , , , 97, , , 0, 0, 0
38.6884915, -120.4165362, 48.000, 09:29:42.279, 16, 0.00, 0.30, 96, 1.400, 2.300, 45.100, 2, 100, 97, 17, 22708, -18604, 5198, 5415, 15, 14, 1528388982.280, 54, 0, 1024, 1024, 1024, 1024, 0, 6, 3756, 3791, 3796, 3766, 3778, 3811, 0, 1, 21501, -89.900, 0.000, 45.500, 0.000, 0.000, -3.000, 0.0, , , , , , 97, , , 0, 0, 0
38.6884915, -120.4165363, 48.300, 09:29:42.379, 16, 0.00, 0.30, 96, 1.400, 2.300, 44.800, 2, 100, 97, 17, 22708, -18604, 5198, 5415, 15, 14, 1528388982.380, 47, 0, 1024, 1024, 1024, 1024, 0, 6, 3756, 3791, 3796, 3766, 3778, 3811, 0, 1, 21601, -89.900, 0.000, 45.500, 0.000, 0.000, -3.100, 0.0, , , , , , 97, , , 0, 0, 0
