latitude,longitude,altitude(feet),ascent(feet),speed(mph),distance(feet),time(millisecond),datetime(utc),satellites,gpslevel,voltage(v),max_altitude(feet),max_ascent(feet),max_speed(mph),max_distance(feet), xSpeed(mph), ySpeed(mph), zSpeed(mph), compass_heading(degrees), pitch(degrees), roll(degrees),isPhoto,isVideo,rc_elevator,rc_aileron,rc_throttle,rc_rudder,gimbal_heading(degrees),gimbal_pitch(degrees),battery_percent,voltageCell1,voltageCell2,voltageCell3,voltageCell4,voltageCell5,voltageCell6,current(A),battery_temperature(f),flycStateRaw,flycState,message
38.6884898,-120.4165365,5213.3801143347,0,0,0,3480,2018-06-07 16:29:24,13,0,0,5213.3801143347,0,0,0,0,0,0,45.5, -1.3, -0.3,1,0,1024,1024,1024,1024,45.5,-89.9,98,4.205,4.218,4.209,4.211,4.263,4.222,0,60.8,11,AutoTakeoff,DJI_0001.jpg Starting Mission from Lat/Long: 38.68848/-120.41654 Camera: Zenmuse X3 - Overlap: 90/90 - Active Connection: No
38.6884898,-120.4165365,5213.3801143347,0,0,0,3500,2018-06-07 16:29:24,13,0,0,5213.3801143347,0,0,0,0,0,0,45.5, -1.3, -0.3,0,0,1024,1024,1024,1024,45.5,-89.9,98,4.205,4.218,4.209,4.211,4.263,4.222,0,60.8,11,AutoTakeoff,
38.6884901,-120.4165365,5213.3801143347,0,0.223694,0.109454727912,3600,2018-06-07 16:29:24,13,0,0,5213.3801143347,0,0.223694,0.109454727912,0,0,0,45.8, 0, 0.5,0,0,1024,1024,1024,1024,45.5,-89.9,98,4.205,4.218,4.209,4.211,4.263,4.222,0,60.8,11,AutoTakeoff,
38.6884906,-120.4165364,5213.7081983347,0.328084,0.223694,0.293265429332,3700,2018-06-07 16:29:24,13,0,0,5213.7081983347,0.328084,0.223694,0.293265429332,0,0,0,45.5, 0.8, 0.3,0,0,1024,1024,1024,1024,45.5,-89.9,98,4.205,4.218,4.209,4.211,4.263,4.222,0,60.8,11,AutoTakeoff,
38.6884911,-120.4165364,5214.0362823347,0.656168,0.223694,0.47515749552,3800,2018-06-07 16:29:25,13,0,0,5214.0362823347,0.656168,0.223694,0.47515749552,0,0,0,45.2, 1.1, 1.1,0,0,1024,1024,1024,1024,45.5,-89.9,98,4.205,4.218,4.209,4.211,4.263,4.222,0,60.8,11,AutoTakeoff,
38.6884913,-120.4165363,5214.3643663347,0.984252,0.223694,0.5502296764,3900,2018-06-07 16:29:25,11,0,0,5214.3643663347,0.984252,0.223694,0.5502296764,0,0,0,45.1, 1.3, 1.5,0,0,1024,1024,1024,1024,45.5,-89.9,98,4.205,4.218,4.209,4.211,4.263,4.222,0,60.8,11,AutoTakeoff,
38.6884915,-120.4165364,5214.3643663347,0.984252,0.223694,0.62089897,4000,2018-06-07 16:29:25,11,0,24.388,5214.3643663347,0.984252,0.223694,0.62089897,0,0,0,45.1, 1.6, 2.1,0,0,1024,1024,1024,1024,45.5,-89.9,98,4.205,4.218,4.209,4.211,4.263,4.222,10.549,60.8,11,AutoTakeoff,
38.6884916,-120.4165364,5214.6924503347,1.312336,0.223694,0.65734582156,4110,2018-06-07 16:29:25,11,0,24.388,5214.6924503347,1.312336,0.223694,0.65734582156,0,0,-0.223694,45.1, 1.8, 2.4,0,0,1024,1024,1024,1024,45.5,-89.9,98,4.205,4.218,4.209,4.211,4.263,4.222,10.549,60.8,11,AutoTakeoff,
38.6884917,-120.4165364,5214.6924503347,1.312336,0,0.6937992348,4200,2018-06-07 16:29:25,11,0,24.388,5214.6924503347,1.312336,0.223694,0.6937992348,0,0,-0.223694,45.1, 1.8, 2.4,0,0,1024,1024,1024,1024,45.5,-89.9,98,4.205,4.218,4.209,4.211,4.263,4.222,10.549,60.8,11,AutoTakeoff,
38.6884917,-120.4165364,5215.0205343347,1.64042,0,0.6937992348,4300,2018-06-07 16:29:25,12,0,24.388,5215.0205343347,1.64042,0.223694,0.6937992348,0,0,0,45.1, 1.8, 2.2,0,0,1024,1024,1024,1024,45.5,-89.9,98,4.205,4.218,4.209,4.211,4.263,4.222,10.549,60.8,11,AutoTakeoff,
38.6884919,-120.4165364,5215.0205343347,1.64042,0,0.76671262296,4400,2018-06-07 16:29:25,12,0,24.388,5215.0205343347,1.64042,0.223694,0.76671262296,0,0,0,45.1, 1.8, 2.2,0,0,1024,1024,1024,1024,45.5,-89.9,98,4.205,4.218,4.209,4.211,4.263,4.222,10.549,60.8,11,AutoTakeoff,
38.688492,-120.4165364,5215.3486183347,1.968504,0,0.80317259788,4500,2018-06-07 16:29:25,13,0,24.388,5215.3486183347,1.968504,0.223694,0.80317259788,0,0,0,45.2, 1.9, 2.2,0,0,1024,1024,1024,1024,45.5,-89.9,98,4.205,4.218,4.209,4.211,4.263,4.222,10.549,60.8,11,AutoTakeoff,
38.688492,-120.4165363,5215.3486183347,1.968504,0,0.80468834596,4600,2018-06-07 16:29:25,13,0,24.388,5215.3486183347,1.968504,0.223694,0.80468834596,0,0,0,45.3, 1.9, 2.1,0,0,1024,1024,1024,1024,45.5,-89.9,98,4.205,4.218,4.209,4.211,4.263,4.222,10.549,60.8,11,AutoTakeoff,
38.6884921,-120.4165363,5215.6767023347,2.296588,0,0.84108598492,4700,2018-06-07 16:29:25,13,0,24.388,5215.6767023347,2.296588,0.223694,0.84108598492,0,0,-0.223694,45.3, 1.7, 1.8,0,0,1024,1024,1024,1024,45.5,-89.9,98,4.205,4.218,4.209,4.211,4.263,4.222,10.549,60.8,11,AutoTakeoff,
38.6884921,-120.4165363,5216.0047863347,2.624672,0,0.84108598492,4800,2018-06-07 16:29:26,13,0,24.388,5216.0047863347,2.624672,0.223694,0.84108598492,0,0,-0.223694,45.3, 1.6, 1.7,0,0,1024,1024,1024,1024,45.5,-89.9,98,4.205,4.218,4.209,4.211,4.263,4.222,10.549,60.8,11,AutoTakeoff,
38.688492,-120.4165363,5216.0047863347,2.624672,0,0.80468834596,5000,2018-06-07 16:29:26,13,0,23.461,5216.0047863347,2.624672,0.223694,0.84108598492,0,0,0,45.3, 1.6, 1.5,0,0,1024,1024,1024,1024,45.5,-89.9,98,3.884,3.921,3.914,3.899,3.907,3.927,17.011,60.8,11,AutoTakeoff,
38.6884919,-120.4165363,5216.3328703347,2.952756,0.223694,0.76829726868,5100,2018-06-07 16:29:26,16,0,23.461,5216.3328703347,2.952756,0.223694,0.84108598492,0,0,-0.223694,45.3, 1.6, 1.5,0,0,1024,1024,1024,1024,45.5,-89.9,98,3.884,3.921,3.914,3.899,3.907,3.927,17.011,60.8,14,Waypoint,
38.6884918,-120.4165362,5216.3328703347,2.952756,0.223694,0.73468178204,5200,2018-06-07 16:29:26,16,0,23.461,5216.3328703347,2.952756,0.223694,0.84108598492,0,0,0,45.2, 1.6, 1.4,0,0,1024,1024,1024,1024,45.5,-90,98,3.884,3.921,3.914,3.899,3.907,3.927,17.011,60.8,14,Waypoint,
38.6884917,-120.4165361,5216.6609543347,3.28084,0.223694,0.702509865,5300,2018-06-07 16:29:26,15,0,23.461,5216.6609543347,3.28084,0.223694,0.84108598492,0,0,0,45.1, 0.3, 0.1,0,0,1024,1024,1024,1024,45.5,-90,98,3.884,3.921,3.914,3.899,3.907,3.927,17.011,60.8,14,Waypoint,
38.6884918,-120.416536,5216.6609543347,3.28084,0,0.74346130988,5400,2018-06-07 16:29:26,14,0,23.461,5216.6609543347,3.28084,0.223694,0.84108598492,0,0,0,45, -0.4, -0.6,0,0,1024,1024,1024,1024,45.5,-90,98,3.884,3.921,3.914,3.899,3.907,3.927,17.011,60.8,14,Waypoint,
38.6884918,-120.416536,5216.9890383347,3.608924,0,0.74346130988,5500,2018-06-07 16:29:26,14,0,23.461,5216.9890383347,3.608924,0.223694,0.84108598492,0,0,0,45, 0, -0.2,0,0,1024,1024,1024,1024,45.5,-89.9,98,3.884,3.921,3.914,3.899,3.907,3.927,17.011,60.8,14,Waypoint,
38.6884919,-120.4165359,5216.9890383347,3.608924,0,0.7850065868,5600,2018-06-07 16:29:26,14,0,23.461,5216.9890383347,3.608924,0.223694,0.84108598492,0,0,-0.223694,45, 0.6, 0.3,0,0,1024,1024,1024,1024,45.5,-89.9,98,3.884,3.921,3.914,3.899,3.907,3.927,17.011,60.8,14,Waypoint,
38.688492,-120.4165359,5217.3171223347,3.937008,0,0.82065619424,5700,2018-06-07 16:29:26,14,0,23.461,5217.3171223347,3.937008,0.223694,0.84108598492,0,0,-0.223694,45.1, 1.1, 0.6,0,0,1024,1024,1024,1024,45.4,-89.9,98,3.884,3.921,3.914,3.899,3.907,3.927,17.011,60.8,14,Waypoint,
38.688492,-120.4165359,5217.6452063347,4.265092,0,0.82065619424,5800,2018-06-07 16:29:27,14,0,23.461,5217.6452063347,4.265092,0.223694,0.84108598492,0,0,-0.223694,45.2, 1.3, 0.8,0,0,1024,1024,1024,1024,45.5,-89.9,98,3.884,3.921,3.914,3.899,3.907,3.927,17.011,60.8,14,Waypoint,
38.6884921,-120.4165358,5217.9732903347,4.593176,0,0.86250658928,5900,2018-06-07 16:29:27,14,0,23.461,5217.9732903347,4.593176,0.223694,0.86250658928,0,0,-0.223694,45.3, 1.3, 0.8,0,0,1024,1024,1024,1024,45.5,-89.9,98,3.884,3.921,3.914,3.899,3.907,3.927,17.011,60.8,14,Waypoint,
38.6884921,-120.4165358,5218.3013743347,4.92126,0,0.86250658928,6000,2018-06-07 16:29:27,13,0,23.312,5218.3013743347,4.92126,0.223694,0.86250658928,0,0,-0.223694,45.4, 1.2, 0.8,0,0,1024,1024,1024,1024,45.5,-89.9,98,3.884,3.921,3.914,3.899,3.907,3.927,17.176,60.8,14,Waypoint,
38.6884922,-120.4165358,5218.6294583347,5.249344,0,0.89804464816,6100,2018-06-07 16:29:27,13,0,23.312,5218.6294583347,5.249344,0.223694,0.89804464816,0,0,-0.447388,45.4, 1.2, 0.8,0,0,1024,1024,1024,1024,45.5,-89.9,98,3.884,3.921,3.914,3.899,3.907,3.927,17.176,60.8,14,Waypoint,
38.6884923,-120.4165357,5219.2856263347,5.905512,0,0.94014766788,6200,2018-06-07 16:29:27,10,0,23.312,5219.2856263347,5.905512,0.223694,0.94014766788,0,0,-0.447388,45.3, 1.1, 0.8,0,0,1024,1024,1024,1024,45.5,-89.9,98,3.884,3.921,3.914,3.899,3.907,3.927,17.176,60.8,14,Waypoint,
38.6884924,-120.4165358,5219.9417943347,6.56168,0,0.96932745884,6300,2018-06-07 16:29:27,10,0,23.312,5219.9417943347,6.56168,0.223694,0.96932745884,0,0,-0.447388,45.3, 1.1, 1,0,0,1024,1024,1024,1024,45.5,-89.9,98,3.884,3.921,3.914,3.899,3.907,3.927,17.176,60.8,14,Waypoint,
38.6884926,-120.4165359,5220.5979623347,7.217848,0,1.03577103052,6410,2018-06-07 16:29:27,11,0,23.312,5220.5979623347,7.217848,0.223694,1.03577103052,0,0,-0.447388,45.3, 1.2, 1.3,0,0,1024,1024,1024,1024,45.5,-89.9,98,3.884,3.921,3.914,3.899,3.907,3.927,17.176,60.8,14,Waypoint,
38.6884927,-120.4165359,5221.2541303347,7.874016,0,1.07177168784,6500,2018-06-07 16:29:27,11,0,23.312,5221.2541303347,7.874016,0.223694,1.07177168784,0,0,-0.447388,45.2, 1.3, 1.5,0,0,1024,1024,1024,1024,45.5,-89.9,98,3.884,3.921,3.914,3.899,3.907,3.927,17.176,60.8,14,Waypoint,
38.6884927,-120.416536,5221.9102983347,8.530184,0,1.0676017402,6600,2018-06-07 16:29:27,10,0,23.312,5221.9102983347,8.530184,0.223694,1.07177168784,0,0,-0.447388,45.2, 1.2, 1.5,0,0,1024,1024,1024,1024,45.5,-89.9,98,3.884,3.921,3.914,3.899,3.907,3.927,17.176,60.8,14,Waypoint,
38.6884928,-120.416536,5222.8945503347,9.514436,0,1.1037730012,6700,2018-06-07 16:29:27,10,0,23.312,5222.8945503347,9.514436,0.223694,1.1037730012,0,0,-0.671082,45.2, 1.1, 1.3,0,0,1024,1024,1024,1024,45.5,-89.9,98,3.884,3.921,3.914,3.899,3.907,3.927,17.176,60.8,14,Waypoint,
38.6884929,-120.4165362,5224.8630543347,11.48294,0,1.13425528564,6900,2018-06-07 16:29:28,12,0,23.312,5224.8630543347,11.48294,0.223694,1.13425528564,0,0,-0.671082,45.4, 1.2, 1.2,0,0,1024,1024,1024,1024,45.5,-89.9,98,3.884,3.921,3.914,3.899,3.907,3.927,17.176,60.8,14,Waypoint,
38.688493,-120.4165363,5225.8473063347,12.467192,0,1.16890751772,7100,2018-06-07 16:29:28,11,0,23.312,5225.8473063347,12.467192,0.223694,1.16890751772,0,0,-0.671082,45.4, 1.1, 1.4,0,0,1024,1024,1024,1024,45.5,-89.9,98,3.884,3.921,3.914,3.899,3.907,3.927,17.176,60.8,14,Waypoint,
38.688493,-120.4165366,5227.1596423347,13.779528,0,1.1678642106,7200,2018-06-07 16:29:28,11,0,23.312,5227.1596423347,13.779528,0.223694,1.16890751772,0,0,-0.671082,45.4, 0.9, 1.6,0,0,1024,1024,1024,1024,45.5,-89.9,98,3.884,3.921,3.914,3.899,3.907,3.927,17.176,60.8,14,Waypoint,
38.688493,-120.4165368,5228.1438943347,14.76378,0,1.17063980124,7300,2018-06-07 16:29:28,12,0,23.312,5228.1438943347,14.76378,0.223694,1.17063980124,0,0,-0.671082,45.4, 0.6, 1.8,0,0,1024,1024,1024,1024,45.5,-90,98,3.884,3.921,3.914,3.899,3.907,3.927,17.176,60.8,14,Waypoint,
38.6884932,-120.416537,5229.4562303347,16.076116,0,1.24863521056,7500,2018-06-07 16:29:28,12,0,23.312,5229.4562303347,16.076116,0.223694,1.24863521056,0,0,-0.671082,45.3, 0.2, 2,0,0,1024,1024,1024,1024,45.5,-89.9,98,3.884,3.921,3.914,3.899,3.907,3.927,17.176,60.8,14,Waypoint,
38.6884934,-120.4165371,5230.4404823347,17.060368,0,1.3245243206,7600,2018-06-07 16:29:28,12,0,23.312,5230.4404823347,17.060368,0.223694,1.3245243206,0,0,-0.671082,45.2, 0.2, 2.4,0,0,1024,1024,1024,1024,45.5,-89.9,98,3.884,3.921,3.914,3.899,3.907,3.927,17.176,60.8,14,Waypoint,
38.6884933,-120.4165372,5231.7528183347,18.372704,0,1.29244098624,7700,2018-06-07 16:29:28,12,0,23.312,5231.7528183347,18.372704,0.223694,1.3245243206,0,0,-0.671082,45.2, 0.4, 2.7,0,0,1024,1024,1024,1024,45.5,-89.9,98,3.884,3.921,3.914,3.899,3.907,3.927,17.176,60.8,14,Waypoint,
38.6884931,-120.4165372,5232.7370703347,19.356956,0,1.22039373984,7800,2018-06-07 16:29:29,14,0,23.312,5232.7370703347,19.356956,0.223694,1.3245243206,0,0,-0.671082,45.1, 0.5, 2.5,0,0,1024,1024,1024,1024,45.5,-89.9,98,3.884,3.921,3.914,3.899,3.907,3.927,17.176,60.8,14,Waypoint,
38.6884931,-120.4165371,5234.0494063347,20.669292,0,1.21606631188,7900,2018-06-07 16:29:29,14,0,23.312,5234.0494063347,20.669292,0.223694,1.3245243206,0,0,-0.671082,45.1, 0.6, 1.9,0,0,1024,1024,1024,1024,45.5,-89.9,98,3.884,3.921,3.914,3.899,3.907,3.927,17.176,60.8,14,Waypoint,
38.6884931,-120.416537,5235.0336583347,21.653544,0,1.21239505192,8100,2018-06-07 16:29:29,14,0,23.312,5235.0336583347,21.653544,0.223694,1.3245243206,0,0,-0.671082,45.2, 0.6, 1.4,0,0,1024,1024,1024,1024,45.5,-89.9,98,3.884,3.921,3.914,3.899,3.907,3.927,17.176,60.8,14,Waypoint,
38.688493,-120.4165368,5236.3459943347,22.96588,0,1.17063980124,8200,2018-06-07 16:29:29,14,0,23.312,5236.3459943347,22.96588,0.223694,1.3245243206,0,0,-0.671082,45.2, 0.7, 0.9,0,0,1024,1024,1024,1024,45.5,-89.9,98,3.884,3.921,3.914,3.899,3.907,3.927,17.176,60.8,14,Waypoint,
38.6884929,-120.4165367,5237.3302463347,23.950132,0,1.13246722784,8310,2018-06-07 16:29:29,15,0,23.312,5237.3302463347,23.950132,0.223694,1.3245243206,0,0,-0.671082,45.3, 1, 0.6,0,0,1024,1024,1024,1024,45.5,-89.9,98,3.884,3.921,3.914,3.899,3.907,3.927,17.176,60.8,14,Waypoint,
38.6884929,-120.4165365,5238.6425823347,25.262468,0,1.13103350076,8400,2018-06-07 16:29:29,15,0,23.312,5238.6425823347,25.262468,0.223694,1.3245243206,0,0,-0.671082,45.3, 1.1, 0.3,0,0,1024,1024,1024,1024,45.5,-89.9,98,3.884,3.921,3.914,3.899,3.907,3.927,17.176,60.8,14,Waypoint,
38.6884929,-120.4165364,5239.6268343347,26.24672,0,1.13139111232,8500,2018-06-07 16:29:29,14,0,23.312,5239.6268343347,26.24672,0.223694,1.3245243206,0,0,-0.671082,45.3, 1.2, 0.2,0,0,1024,1024,1024,1024,45.5,-89.9,98,3.884,3.921,3.914,3.899,3.907,3.927,17.176,60.8,14,Waypoint,
38.6884926,-120.4165362,5241.9234223347,28.543308,0,1.02514438976,8600,2018-06-07 16:29:29,13,0,23.312,5241.9234223347,28.543308,0.223694,1.3245243206,0,0,-0.671082,45.2, 1, 0,0,0,1024,1024,1024,1024,45.5,-89.9,98,3.884,3.921,3.914,3.899,3.907,3.927,17.176,60.8,14,Waypoint,
38.6884923,-120.4165356,5244.8761783347,31.496064,0,0.94745081772,8800,2018-06-07 16:29:30,14,0,23.312,5244.8761783347,31.496064,0.223694,1.3245243206,0,0,-0.671082,45.1, 0.8, -0.4,0,0,1024,1024,1024,1024,45.5,-89.9,98,3.884,3.921,3.914,3.899,3.907,3.927,17.176,60.8,14,Waypoint,
38.6884922,-120.4165354,5246.1885143347,32.8084,0,0.9299869064,8900,2018-06-07 16:29:30,14,0,23.312,5246.1885143347,32.8084,0.223694,1.3245243206,0,0,-0.671082,45.1, 0.8, -0.5,0,0,1024,1024,1024,1024,45.5,-89.9,98,3.884,3.921,3.914,3.899,3.907,3.927,17.176,60.8,14,Waypoint,
38.6884921,-120.4165351,5247.1727663347,33.792652,0,0.929051867,9000,2018-06-07 16:29:30,14,0,22.374,5247.1727663347,33.792652,0.223694,1.3245243206,0,0,-0.671082,45.1, 0.8, -0.6,0,0,1024,1024,1024,1024,45.5,-89.9,97,3.695,3.729,3.756,3.718,3.742,3.769,25.576,60.8,14,Waypoint,
38.688492,-120.4165349,5248.1570183347,34.776904,0,0.92298559384,9200,2018-06-07 16:29:30,13,0,22.374,5248.1570183347,34.776904,0.223694,1.3245243206,0,0,-0.671082,45.1, 0.8, -0.7,0,0,1024,1024,1024,1024,45.5,-89.9,97,3.695,3.729,3.756,3.718,3.742,3.769,25.576,60.8,14,Waypoint,
38.688492,-120.4165349,5249.1412703347,35.761156,0,0.92298559384,9300,2018-06-07 16:29:30,13,0,22.374,5249.1412703347,35.761156,0.223694,1.3245243206,0,0,-0.671082,45, 0.9, -0.7,0,0,1024,1024,1024,1024,45.4,-89.9,97,3.695,3.729,3.756,3.718,3.742,3.769,25.576,60.8,14,Waypoint,
38.6884922,-120.4165349,5251.1097743347,37.72966,0,0.98709976912,9500,2018-06-07 16:29:30,14,0,22.374,5251.1097743347,37.72966,0.223694,1.3245243206,0,0,-0.671082,44.9, 0.9, -0.1,0,0,1024,1024,1024,1024,45.5,-89.9,97,3.695,3.729,3.756,3.718,3.742,3.769,25.576,60.8,14,Waypoint,
38.6884925,-120.4165349,5252.0940263347,38.713912,0,1.08537076964,9710,2018-06-07 16:29:30,14,0,22.374,5252.0940263347,38.713912,0.223694,1.3245243206,0,0,-0.671082,45, 1.3, 0.5,0,0,1024,1024,1024,1024,45.5,-89.9,97,3.695,3.729,3.756,3.718,3.742,3.769,25.576,60.8,14,Waypoint,
38.6884929,-120.4165348,5253.0782783347,39.698164,0.223694,1.23029531496,10000,2018-06-07 16:29:31,14,0,22.813,5253.0782783347,39.698164,0.223694,1.3245243206,0,0,-0.671082,45.1, 1.8, 1.3,0,0,1024,1024,1024,1024,45.5,-89.9,97,3.793,3.832,3.816,3.786,3.803,3.844,18.665,60.8,14,Waypoint,
38.6884935,-120.4165346,5255.0467823347,41.666668,0,1.4543471594,10110,2018-06-07 16:29:31,13,0,22.813,5255.0467823347,41.666668,0.223694,1.4543471594,0,0,-0.671082,45.3, 3, 2.4,0,0,1024,1024,1024,1024,45.5,-89.9,97,3.793,3.832,3.816,3.786,3.803,3.844,18.665,60.8,14,Waypoint,
38.688494,-120.4165345,5257.0152863347,43.635172,0,1.63479664024,10400,2018-06-07 16:29:31,14,0,22.813,5257.0152863347,43.635172,0.223694,1.63479664024,0,0,-0.671082,45.4, 2.9, 2,0,0,1024,1024,1024,1024,45.5,-89.9,97,3.793,3.832,3.816,3.786,3.803,3.844,18.665,60.8,14,Waypoint,
38.6884944,-120.4165345,5258.9837903347,45.603676,0,1.77232289136,10500,2018-06-07 16:29:31,15,0,22.813,5258.9837903347,45.603676,0.223694,1.77232289136,0,0,-0.671082,45.5, 3.2, 1.9,0,0,1024,1024,1024,1024,45.5,-89.9,97,3.793,3.832,3.816,3.786,3.803,3.844,18.665,60.8,14,Waypoint,
38.688494,-120.4165345,5261.9365463347,48.556432,0.223694,1.63479664024,10600,2018-06-07 16:29:31,14,0,22.813,5261.9365463347,48.556432,0.223694,1.77232289136,0,0,-0.671082,45.4, 1.8, 1.3,0,0,1024,1024,1024,1024,45.5,-90,97,3.793,3.832,3.816,3.786,3.803,3.844,18.665,60.8,14,Waypoint,
38.6884936,-120.4165346,5263.9050503347,50.524936,0.223694,1.48827432584,10700,2018-06-07 16:29:31,14,0,22.813,5263.9050503347,50.524936,0.223694,1.77232289136,0,0,-0.671082,45.2, 0.9, 0.5,0,0,1024,1024,1024,1024,45.5,-90,97,3.793,3.832,3.816,3.786,3.803,3.844,18.665,60.8,14,Waypoint,
38.6884928,-120.4165349,5266.8578063347,53.477692,0.3131716,1.18560371248,10900,2018-06-07 16:29:32,15,0,22.813,5266.8578063347,53.477692,0.3131716,1.77232289136,0,0,-0.671082,45, 0, 0,0,0,1024,1024,1024,1024,45.5,-90,97,3.793,3.832,3.816,3.786,3.803,3.844,18.665,60.8,14,Waypoint,
38.6884926,-120.416535,5267.8420583347,54.461944,0.3131716,1.10729662336,11000,2018-06-07 16:29:32,16,0,22.864,5267.8420583347,54.461944,0.3131716,1.77232289136,0,0,-0.671082,45.1, -0.3, 0,0,0,1024,1024,1024,1024,45.5,-90,97,3.785,3.821,3.817,3.795,3.798,3.839,19.56,60.8,14,Waypoint,
38.6884925,-120.4165351,5268.8263103347,55.446196,0.3131716,1.06271985028,11100,2018-06-07 16:29:32,16,0,22.864,5268.8263103347,55.446196,0.3131716,1.77232289136,0,0,-0.671082,45.2, -0.6, 0,0,0,1024,1024,1024,1024,45.5,-90,97,3.785,3.821,3.817,3.795,3.798,3.839,19.56,60.8,14,Waypoint,
38.6884922,-120.4165353,5270.7948143347,57.4147,0,0.93996394084,11300,2018-06-07 16:29:32,15,0,22.864,5270.7948143347,57.4147,0.3131716,1.77232289136,0,0,-0.671082,45.4, -0.1, 0.4,0,0,1024,1024,1024,1024,45.5,-89.9,97,3.785,3.821,3.817,3.795,3.798,3.839,19.56,60.8,14,Waypoint,
38.688492,-120.4165354,5271.7790663347,58.398952,0,0.86163388584,11410,2018-06-07 16:29:32,16,0,22.864,5271.7790663347,58.398952,0.3131716,1.77232289136,0,0,-0.671082,45.4, 0, 0.6,0,0,1024,1024,1024,1024,45.5,-89.9,97,3.785,3.821,3.817,3.795,3.798,3.839,19.56,60.8,14,Waypoint,
38.6884919,-120.4165355,5272.7633183347,59.383204,0,0.81739832012,11500,2018-06-07 16:29:32,16,0,22.864,5272.7633183347,59.383204,0.3131716,1.77232289136,0,0,-0.671082,45.3, 0, 0.5,0,0,1024,1024,1024,1024,45.5,-89.9,97,3.785,3.821,3.817,3.795,3.798,3.839,19.56,60.8,14,Waypoint,
38.6884917,-120.4165357,5273.7475703347,60.367456,0,0.7296916244,11600,2018-06-07 16:29:32,16,0,22.864,5273.7475703347,60.367456,0.3131716,1.77232289136,0,0,-0.671082,45.3, -0.2, 0.4,0,0,1024,1024,1024,1024,45.5,-89.9,97,3.785,3.821,3.817,3.795,3.798,3.839,19.56,60.8,14,Waypoint,
38.6884916,-120.4165357,5274.7318223347,61.351708,0,0.69512469416,11700,2018-06-07 16:29:32,16,0,22.864,5274.7318223347,61.351708,0.3131716,1.77232289136,0,0,-0.671082,45.2, -0.5, 0.3,0,0,1024,1024,1024,1024,45.5,-89.9,97,3.785,3.821,3.817,3.795,3.798,3.839,19.56,60.8,14,Waypoint,
38.6884916,-120.4165358,5275.7160743347,62.33596,0,0.6863189196,11800,2018-06-07 16:29:33,16,0,22.864,5275.7160743347,62.33596,0.3131716,1.77232289136,0,0,-0.671082,45.2, -0.6, 0.4,0,0,1024,1024,1024,1024,45.5,-89.9,97,3.785,3.821,3.817,3.795,3.798,3.839,19.56,60.8,14,Waypoint,
38.6884915,-120.4165358,5276.7003263347,63.320212,0,0.651492803,11900,2018-06-07 16:29:33,16,0,22.864,5276.7003263347,63.320212,0.3131716,1.77232289136,0,0,-0.671082,45.2, -0.6, 0.4,0,0,1024,1024,1024,1024,45.5,-89.9,97,3.785,3.821,3.817,3.795,3.798,3.839,19.56,60.8,14,Waypoint,
38.6884915,-120.4165359,5277.6845783347,64.304464,0,0.64334975812,12000,2018-06-07 16:29:33,16,0,22.843,5277.6845783347,64.304464,0.3131716,1.77232289136,0,0,-0.671082,45.2, -0.4, 0.5,0,0,1024,1024,1024,1024,45.5,-89.9,97,3.783,3.814,3.816,3.796,3.799,3.834,19.366,60.8,14,Waypoint,
38.6884914,-120.416536,5279.6530823347,66.272968,0,0.60087600348,12200,2018-06-07 16:29:33,16,0,22.843,5279.6530823347,66.272968,0.3131716,1.77232289136,0,0,-0.671082,45.3, 0.2, 0.5,0,0,1024,1024,1024,1024,45.5,-89.9,97,3.783,3.814,3.816,3.796,3.799,3.834,19.366,60.8,14,Waypoint,
38.6884914,-120.4165361,5280.6373343347,67.25722,0,0.59477036024,12310,2018-06-07 16:29:33,16,0,22.843,5280.6373343347,67.25722,0.3131716,1.77232289136,0,0,-0.671082,45.2, 0.3, 0.6,0,0,1024,1024,1024,1024,45.5,-89.9,97,3.783,3.814,3.816,3.796,3.799,3.834,19.366,60.8,14,Waypoint,
38.6884914,-120.4165361,5280.6373343347,67.25722,0,0.59477036024,12400,2018-06-07 16:29:33,16,0,22.843,5280.6373343347,67.25722,0.3131716,1.77232289136,0,0,-0.671082,45.2, 0.3, 0.6,0,0,1024,1024,1024,1024,45.5,-89.9,97,3.783,3.814,3.816,3.796,3.799,3.834,19.366,60.8,14,Waypoint,
38.6884914,-120.4165361,5281.6215863347,68.241472,0,0.59477036024,12500,2018-06-07 16:29:33,16,0,22.843,5281.6215863347,68.241472,0.3131716,1.77232289136,0,0,-0.671082,45.2, 0.3, 0.7,0,0,1024,1024,1024,1024,45.5,-89.9,97,3.783,3.814,3.816,3.796,3.799,3.834,19.366,60.8,14,Waypoint,
38.6884914,-120.4165362,5282.6058383347,69.225724,0,0.589977053,12600,2018-06-07 16:29:33,16,0,22.843,5282.6058383347,69.225724,0.3131716,1.77232289136,0,0,-0.671082,45.1, 0.2, 0.8,0,0,1024,1024,1024,1024,45.5,-90,97,3.783,3.814,3.816,3.796,3.799,3.834,19.366,60.8,14,Waypoint,
38.6884914,-120.4165362,5283.5900903347,70.209976,0,0.589977053,12700,2018-06-07 16:29:33,16,0,22.843,5283.5900903347,70.209976,0.3131716,1.77232289136,0,0,-0.671082,45.1, 0.1, 0.7,0,0,1024,1024,1024,1024,45.4,-89.9,97,3.783,3.814,3.816,3.796,3.799,3.834,19.366,60.8,14,Waypoint,
38.6884915,-120.4165363,5284.5743423347,71.194228,0,0.62285435064,12800,2018-06-07 16:29:34,16,0,22.843,5284.5743423347,71.194228,0.3131716,1.77232289136,0,0,-0.671082,45.1, 0.1, 0.8,0,0,1024,1024,1024,1024,45.5,-89.9,97,3.783,3.814,3.816,3.796,3.799,3.834,19.366,60.8,14,Waypoint,
38.6884916,-120.4165363,5285.5585943347,72.17848,0,0.65919293448,12900,2018-06-07 16:29:34,16,0,22.843,5285.5585943347,72.17848,0.3131716,1.77232289136,0,0,-0.671082,45.1, 0.3, 1,0,0,1024,1024,1024,1024,45.5,-89.9,97,3.783,3.814,3.816,3.796,3.799,3.834,19.366,60.8,14,Waypoint,
38.6884916,-120.4165364,5286.5428463347,73.162732,0,0.65734582156,13000,2018-06-07 16:29:34,16,0,22.83,5286.5428463347,73.162732,0.3131716,1.77232289136,0,0,-0.671082,45, 0.6, 1.2,0,0,1024,1024,1024,1024,45.5,-89.9,97,3.783,3.816,3.8,3.793,3.804,3.815,19.271,60.8,14,Waypoint,
38.6884917,-120.4165364,5288.1832663347,74.803152,0,0.6937992348,13100,2018-06-07 16:29:34,16,0,22.83,5288.1832663347,74.803152,0.3131716,1.77232289136,0,0,-0.671082,45, 0.7, 1.2,0,0,1024,1024,1024,1024,45.5,-89.9,97,3.783,3.816,3.8,3.793,3.804,3.815,19.271,60.8,14,Waypoint,
38.6884917,-120.4165364,5289.1675183347,75.787404,0,0.6937992348,13200,2018-06-07 16:29:34,16,0,22.83,5289.1675183347,75.787404,0.3131716,1.77232289136,0,0,-0.671082,45, 0.7, 1.2,0,0,1024,1024,1024,1024,45.5,-89.9,97,3.783,3.816,3.8,3.793,3.804,3.815,19.271,60.8,14,Waypoint,
38.6884918,-120.4165364,5290.1517703347,76.771656,0,0.73025592888,13400,2018-06-07 16:29:34,16,0,22.83,5290.1517703347,76.771656,0.3131716,1.77232289136,0,0,-0.671082,45.1, 0.8, 1.2,0,0,1024,1024,1024,1024,45.5,-89.9,97,3.783,3.816,3.8,3.793,3.804,3.815,19.271,60.8,14,Waypoint,
38.6884919,-120.4165365,5292.1202743347,78.74016,0,0.76618440772,13500,2018-06-07 16:29:34,16,0,22.83,5292.1202743347,78.74016,0.3131716,1.77232289136,0,0,-0.671082,45.1, 0.8, 1.3,0,0,1024,1024,1024,1024,45.5,-89.9,97,3.783,3.816,3.8,3.793,3.804,3.815,19.271,60.8,14,Waypoint,
38.688492,-120.4165365,5293.1045263347,79.724412,0,0.80266734852,13600,2018-06-07 16:29:34,16,0,22.83,5293.1045263347,79.724412,0.3131716,1.77232289136,0,0,-0.671082,45.1, 0.8, 1.3,0,0,1024,1024,1024,1024,45.5,-89.9,97,3.783,3.816,3.8,3.793,3.804,3.815,19.271,60.8,14,Waypoint,
38.688492,-120.4165365,5294.0887783347,80.708664,0,0.80266734852,13700,2018-06-07 16:29:34,16,0,22.83,5294.0887783347,80.708664,0.3131716,1.77232289136,0,0,-0.671082,45.1, 0.8, 1.3,0,0,1024,1024,1024,1024,45.5,-89.9,97,3.783,3.816,3.8,3.793,3.804,3.815,19.271,60.8,14,Waypoint,
38.688492,-120.4165365,5295.0730303347,81.692916,0,0.80266734852,13800,2018-06-07 16:29:35,16,0,22.83,5295.0730303347,81.692916,0.3131716,1.77232289136,0,0,-0.671082,45.1, 0.7, 1.3,0,0,1024,1024,1024,1024,45.5,-89.9,97,3.783,3.816,3.8,3.793,3.804,3.815,19.271,60.8,14,Waypoint,
38.688492,-120.4165366,5296.0572823347,82.677168,0,0.80317259788,13900,2018-06-07 16:29:35,16,0,22.83,5296.0572823347,82.677168,0.3131716,1.77232289136,0,0,-0.671082,45.1, 0.6, 1.1,0,0,1024,1024,1024,1024,45.5,-89.9,97,3.783,3.816,3.8,3.793,3.804,3.815,19.271,60.8,14,Waypoint,
38.6884921,-120.4165366,5297.0415343347,83.66142,0,0.83963585364,14000,2018-06-07 16:29:35,16,0,22.802,5297.0415343347,83.66142,0.3131716,1.77232289136,0,0,-0.671082,45.2, 0.7, 1,0,0,1024,1024,1024,1024,45.5,-89.9,97,3.774,3.814,3.806,3.78,3.797,3.818,18.939,62.6,14,Waypoint,
38.6884921,-120.4165366,5298.0257863347,84.645672,0,0.83963585364,14100,2018-06-07 16:29:35,16,0,22.802,5298.0257863347,84.645672,0.3131716,1.77232289136,0,0,-0.671082,45.1, 0.9, 1,0,0,1024,1024,1024,1024,45.5,-89.9,97,3.774,3.814,3.806,3.78,3.797,3.818,18.939,62.6,14,Waypoint,
38.6884922,-120.4165366,5300.3223743347,86.94226,0,0.87610239024,14330,2018-06-07 16:29:35,16,0,22.802,5300.3223743347,86.94226,0.3131716,1.77232289136,0,0,-0.671082,45, 0.7, 1,0,0,1024,1024,1024,1024,45.4,-89.9,97,3.774,3.814,3.806,3.78,3.797,3.818,18.939,62.6,14,Waypoint,
38.6884922,-120.4165366,5300.3223743347,86.94226,0,0.87610239024,14400,2018-06-07 16:29:35,16,0,22.802,5300.3223743347,86.94226,0.3131716,1.77232289136,0,0,-0.671082,45, 0.7, 1,0,0,1024,1024,1024,1024,45.4,-89.9,97,3.774,3.814,3.806,3.78,3.797,3.818,18.939,62.6,14,Waypoint,
38.6884922,-120.4165367,5300.9785423347,87.598428,0,0.87749018556,14500,2018-06-07 16:29:35,16,0,22.802,5300.9785423347,87.598428,0.3131716,1.77232289136,0,0,-0.671082,44.9, 0.5, 1.1,0,0,1024,1024,1024,1024,45.4,-89.9,97,3.774,3.814,3.806,3.78,3.797,3.818,18.939,62.6,14,Waypoint,
38.6884922,-120.4165367,5301.9627943347,88.58268,0,0.87749018556,14600,2018-06-07 16:29:35,16,0,22.802,5301.9627943347,88.58268,0.3131716,1.77232289136,0,0,-0.671082,44.8, 0.4, 1.3,0,0,1024,1024,1024,1024,45.5,-89.9,97,3.774,3.814,3.806,3.78,3.797,3.818,18.939,62.6,14,Waypoint,
38.6884923,-120.4165368,5302.9470463347,89.566932,0,0.91611551488,14700,2018-06-07 16:29:35,16,0,22.802,5302.9470463347,89.566932,0.3131716,1.77232289136,0,0,-0.671082,44.7, 0.2, 1.5,0,0,1024,1024,1024,1024,45.5,-90,97,3.774,3.814,3.806,3.78,3.797,3.818,18.939,62.6,14,Waypoint,
38.6884923,-120.4165368,5304.2593823347,90.879268,0,0.91611551488,14800,2018-06-07 16:29:36,16,0,22.802,5304.2593823347,90.879268,0.3131716,1.77232289136,0,0,-0.671082,44.7, 0.1, 1.6,0,0,1024,1024,1024,1024,45.5,-89.9,97,3.774,3.814,3.806,3.78,3.797,3.818,18.939,62.6,14,Waypoint,
38.6884924,-120.4165369,5307.2121383347,93.832024,0,0.95542325892,15100,2018-06-07 16:29:36,16,0,22.802,5307.2121383347,93.832024,0.3131716,1.77232289136,0,0,-0.671082,45, 0.2, 1.6,0,0,1024,1024,1024,1024,45.5,-89.9,97,3.774,3.814,3.806,3.78,3.797,3.818,18.939,62.6,14,Waypoint,
38.6884925,-120.416537,5308.8525583347,95.472444,0,0.99533139668,15300,2018-06-07 16:29:36,16,0,22.802,5308.8525583347,95.472444,0.3131716,1.77232289136,0,0,-0.671082,45.2, 0.3, 1.7,0,0,1024,1024,1024,1024,45.5,-89.9,97,3.774,3.814,3.806,3.78,3.797,3.818,18.939,62.6,14,Waypoint,
38.6884925,-120.416537,5309.8368103347,96.456696,0,0.99533139668,15400,2018-06-07 16:29:36,16,0,22.802,5309.8368103347,96.456696,0.3131716,1.77232289136,0,0,-0.671082,45.3, 0.5, 1.7,0,0,1024,1024,1024,1024,45.5,-89.9,97,3.774,3.814,3.806,3.78,3.797,3.818,18.939,62.6,14,Waypoint,
38.6884926,-120.4165371,5310.8210623347,97.440948,0,1.03577103052,15500,2018-06-07 16:29:36,16,0,22.802,5310.8210623347,97.440948,0.3131716,1.77232289136,0,0,-0.671082,45.4, 0.7, 1.8,0,0,1024,1024,1024,1024,45.5,-89.9,97,3.774,3.814,3.806,3.78,3.797,3.818,18.939,62.6,14,Waypoint,
38.6884927,-120.4165371,5312.7895663347,99.409452,0,1.07177168784,15600,2018-06-07 16:29:36,16,0,22.802,5312.7895663347,99.409452,0.3131716,1.77232289136,0,0,-0.671082,45.5, 0.9, 1.8,0,0,1024,1024,1024,1024,45.5,-89.9,97,3.774,3.814,3.806,3.78,3.797,3.818,18.939,62.6,14,Waypoint,
38.6884928,-120.4165371,5313.7738183347,100.393704,0,1.10780515356,15700,2018-06-07 16:29:36,16,0,22.802,5313.7738183347,100.393704,0.3131716,1.77232289136,0,0,-0.671082,45.4, 1, 1.9,0,0,1024,1024,1024,1024,45.5,-89.9,97,3.774,3.814,3.806,3.78,3.797,3.818,18.939,62.6,14,Waypoint,
38.6884928,-120.4165371,5314.7580703347,101.377956,0,1.10780515356,15800,2018-06-07 16:29:37,16,0,22.802,5314.7580703347,101.377956,0.3131716,1.77232289136,0,0,-0.671082,45.3, 1, 1.8,0,0,1024,1024,1024,1024,45.5,-89.9,97,3.774,3.814,3.806,3.78,3.797,3.818,18.939,62.6,14,Waypoint,
38.6884928,-120.4165371,5315.7423223347,102.362208,0,1.10780515356,15900,2018-06-07 16:29:37,16,0,22.802,5315.7423223347,102.362208,0.3131716,1.77232289136,0,0,-0.671082,45.2, 1, 2,0,0,1024,1024,1024,1024,45.5,-89.9,97,3.774,3.814,3.806,3.78,3.797,3.818,18.939,62.6,14,Waypoint,
38.6884929,-120.4165371,5316.7265743347,103.34646,0,1.14386814684,16000,2018-06-07 16:29:37,16,0,22.842,5316.7265743347,103.34646,0.3131716,1.77232289136,0,0,-0.671082,45.1, 1, 2.1,0,0,1024,1024,1024,1024,45.5,-89.9,97,3.782,3.812,3.816,3.785,3.798,3.837,18.162,62.6,14,Waypoint,
38.688493,-120.4165371,5317.7108263347,104.330712,0,1.179954106,16100,2018-06-07 16:29:37,16,0,22.842,5317.7108263347,104.330712,0.3131716,1.77232289136,0,0,-0.671082,45, 1, 2.2,0,0,1024,1024,1024,1024,45.5,-89.9,97,3.782,3.812,3.816,3.785,3.798,3.837,18.162,62.6,14,Waypoint,
38.688493,-120.4165372,5318.6950783347,105.314964,0,1.1844160484,16200,2018-06-07 16:29:37,16,0,22.842,5318.6950783347,105.314964,0.3131716,1.77232289136,0,0,-0.671082,44.9, 1, 2.2,0,0,1024,1024,1024,1024,45.5,-89.9,97,3.782,3.812,3.816,3.785,3.798,3.837,18.162,62.6,14,Waypoint,
38.688493,-120.4165372,5319.6793303347,106.299216,0,1.1844160484,16310,2018-06-07 16:29:37,16,0,22.842,5319.6793303347,106.299216,0.3131716,1.77232289136,0,0,-0.671082,45, 0.9, 2.3,0,0,1024,1024,1024,1024,45.5,-89.9,97,3.782,3.812,3.816,3.785,3.798,3.837,18.162,62.6,14,Waypoint,
38.688493,-120.4165372,5320.6635823347,107.283468,0,1.1844160484,16500,2018-06-07 16:29:37,16,0,22.842,5320.6635823347,107.283468,0.3131716,1.77232289136,0,0,-0.671082,45, 0.9, 2.2,0,0,1024,1024,1024,1024,45.5,-89.9,97,3.782,3.812,3.816,3.785,3.798,3.837,18.162,62.6,14,Waypoint,
38.688493,-120.4165371,5322.6320863347,109.251972,0,1.179954106,16600,2018-06-07 16:29:37,16,0,22.842,5322.6320863347,109.251972,0.3131716,1.77232289136,0,0,-0.671082,45, 1.1, 2.1,0,0,1024,1024,1024,1024,45.5,-89.9,97,3.782,3.812,3.816,3.785,3.798,3.837,18.162,62.6,14,Waypoint,
38.688493,-120.4165371,5323.6163383347,110.236224,0,1.179954106,16800,2018-06-07 16:29:38,16,0,22.842,5323.6163383347,110.236224,0.3131716,1.77232289136,0,0,-0.671082,45.1, 1.2, 2.2,0,0,1024,1024,1024,1024,45.5,-89.9,97,3.782,3.812,3.816,3.785,3.798,3.837,18.162,62.6,14,Waypoint,
38.688493,-120.4165371,5324.6005903347,111.220476,0,1.179954106,16900,2018-06-07 16:29:38,16,0,22.842,5324.6005903347,111.220476,0.3131716,1.77232289136,0,0,-0.671082,45, 1.2, 2.3,0,0,1024,1024,1024,1024,45.5,-89.9,97,3.782,3.812,3.816,3.785,3.798,3.837,18.162,62.6,14,Waypoint,
38.688493,-120.4165371,5325.5848423347,112.204728,0,1.179954106,17000,2018-06-07 16:29:38,16,0,22.78,5325.5848423347,112.204728,0.3131716,1.77232289136,0,0,-0.671082,45, 1.2, 2.3,0,0,1024,1024,1024,1024,45.5,-89.9,97,3.782,3.812,3.816,3.785,3.798,3.837,18.648,62.6,14,Waypoint,
38.688493,-120.4165371,5326.5690943347,113.18898,0,1.179954106,17100,2018-06-07 16:29:38,16,0,22.78,5326.5690943347,113.18898,0.3131716,1.77232289136,0,0,-0.671082,45.1, 1.2, 2.1,0,0,1024,1024,1024,1024,45.5,-89.9,97,3.782,3.812,3.816,3.785,3.798,3.837,18.648,62.6,14,Waypoint,
38.6884929,-120.416537,5327.2252623347,113.845148,0,1.1399606664,17200,2018-06-07 16:29:38,16,0,22.78,5327.2252623347,113.845148,0.3131716,1.77232289136,0,0,-0.671082,45.2, 1.1, 1.7,0,0,1024,1024,1024,1024,45.5,-89.9,97,3.782,3.812,3.816,3.785,3.798,3.837,18.648,62.6,14,Waypoint,
38.6884928,-120.4165369,5328.2095143347,114.8294,0,1.1004593528,17300,2018-06-07 16:29:38,16,0,22.78,5328.2095143347,114.8294,0.3131716,1.77232289136,0,0,-0.671082,45.3, 1.2, 1.3,0,0,1024,1024,1024,1024,45.5,-89.9,97,3.782,3.812,3.816,3.785,3.798,3.837,18.648,62.6,14,Waypoint,
38.6884927,-120.4165368,5330.1780183347,116.797904,0,1.06150593948,17500,2018-06-07 16:29:38,16,0,22.78,5330.1780183347,116.797904,0.3131716,1.77232289136,0,0,-0.671082,45.6, 1.5, 0.9,0,0,1024,1024,1024,1024,45.5,-89.9,97,3.782,3.812,3.816,3.785,3.798,3.837,18.648,62.6,14,Waypoint,
38.6884927,-120.4165367,5331.1622703347,117.782156,0,1.0595964906,17600,2018-06-07 16:29:38,16,0,22.78,5331.1622703347,117.782156,0.3131716,1.77232289136,0,0,-0.671082,45.6, 1.6, 0.9,0,0,1024,1024,1024,1024,45.5,-89.9,97,3.782,3.812,3.816,3.785,3.798,3.837,18.648,62.6,14,Waypoint,
38.6884926,-120.4165367,5333.1307743347,119.75066,0,1.02316604324,17700,2018-06-07 16:29:38,16,0,22.78,5333.1307743347,119.75066,0.3131716,1.77232289136,0,0,-0.671082,45.6, 1.4, 1.1,0,0,1024,1024,1024,1024,45.5,-89.9,97,3.782,3.812,3.816,3.785,3.798,3.837,18.648,62.6,14,Waypoint,
38.6884926,-120.4165367,5334.1150263347,120.734912,0,1.02316604324,17900,2018-06-07 16:29:39,16,0,22.78,5334.1150263347,120.734912,0.3131716,1.77232289136,0,0,-0.671082,45.5, 1.2, 1.3,0,0,1024,1024,1024,1024,45.5,-89.9,97,3.782,3.812,3.816,3.785,3.798,3.837,18.648,62.6,14,Waypoint,
38.6884926,-120.4165367,5335.0992783347,121.719164,0,1.02316604324,18000,2018-06-07 16:29:39,16,0,22.78,5335.0992783347,121.719164,0.3131716,1.77232289136,0,0,-0.671082,45.5, 1.2, 1.5,0,0,1024,1024,1024,1024,45.5,-89.9,97,3.769,3.814,3.801,3.789,3.799,3.824,18.648,62.6,14,Waypoint,
38.6884924,-120.4165367,5338.0520343347,124.67192,0,0.95031827188,18200,2018-06-07 16:29:39,16,0,22.78,5338.0520343347,124.67192,0.3131716,1.77232289136,0,0,-0.671082,45.2, 1.4, 1.6,0,0,1024,1024,1024,1024,45.5,-89.9,97,3.769,3.814,3.801,3.789,3.799,3.824,18.648,62.6,14,Waypoint,
38.6884923,-120.4165367,5340.0205383347,126.640424,0,0.91390094788,18400,2018-06-07 16:29:39,16,0,22.78,5340.0205383347,126.640424,0.3131716,1.77232289136,0,0,-0.671082,45.1, 1.2, 1.1,0,0,1024,1024,1024,1024,45.5,-89.9,97,3.769,3.814,3.801,3.789,3.799,3.824,18.648,62.6,14,Waypoint,
38.6884923,-120.4165367,5341.0047903347,127.624676,0,0.91390094788,18500,2018-06-07 16:29:39,16,0,22.78,5341.0047903347,127.624676,0.3131716,1.77232289136,0,0,-0.671082,45.2, 1, 0.9,0,0,1024,1024,1024,1024,45.5,-89.9,97,3.769,3.814,3.801,3.789,3.799,3.824,18.648,62.6,14,Waypoint,
38.6884922,-120.4165367,5341.9890423347,128.608928,0,0.87749018556,18600,2018-06-07 16:29:39,16,0,22.78,5341.9890423347,128.608928,0.3131716,1.77232289136,0,0,-0.671082,45.3, 1, 0.9,0,0,1024,1024,1024,1024,45.5,-89.9,97,3.769,3.814,3.801,3.789,3.799,3.824,18.648,62.6,14,Waypoint,
38.6884921,-120.4165366,5342.9732943347,129.59318,0,0.83963585364,18700,2018-06-07 16:29:39,16,0,22.78,5342.9732943347,129.59318,0.3131716,1.77232289136,0,0,-0.671082,45.4, 1.1, 1,0,0,1024,1024,1024,1024,45.5,-89.9,97,3.769,3.814,3.801,3.789,3.799,3.824,18.648,62.6,14,Waypoint,
38.6884921,-120.4165366,5344.2856303347,130.905516,0,0.83963585364,18800,2018-06-07 16:29:40,16,0,22.78,5344.2856303347,130.905516,0.3131716,1.77232289136,0,0,-0.671082,45.5, 1.1, 0.8,0,0,1024,1024,1024,1024,45.5,-89.9,97,3.769,3.814,3.801,3.789,3.799,3.824,18.648,62.6,14,Waypoint,
38.688492,-120.4165366,5345.2698823347,131.889768,0,0.80317259788,18900,2018-06-07 16:29:40,16,0,22.78,5345.2698823347,131.889768,0.3131716,1.77232289136,0,0,-0.671082,45.6, 1.2, 0.7,0,0,1024,1024,1024,1024,45.5,-89.9,97,3.769,3.814,3.801,3.789,3.799,3.824,18.648,62.6,14,Waypoint,
38.688492,-120.4165366,5346.2541343347,132.87402,0,0.80317259788,19000,2018-06-07 16:29:40,16,0,22.797,5346.2541343347,132.87402,0.3131716,1.77232289136,0,0,-0.671082,45.5, 1.3, 1,0,0,1024,1024,1024,1024,45.5,-89.9,96,3.767,3.808,3.795,3.778,3.797,3.815,18.185,62.6,14,Waypoint,
38.688492,-120.4165366,5347.2383863347,133.858272,0,0.80317259788,19100,2018-06-07 16:29:40,16,0,22.797,5347.2383863347,133.858272,0.3131716,1.77232289136,0,0,-0.671082,45.4, 1.3, 1.4,0,0,1024,1024,1024,1024,45.5,-89.9,96,3.767,3.808,3.795,3.778,3.797,3.815,18.185,62.6,14,Waypoint,
38.688492,-120.4165367,5348.2226383347,134.842524,0,0.80468834596,19200,2018-06-07 16:29:40,16,0,22.797,5348.2226383347,134.842524,0.3131716,1.77232289136,0,0,-0.671082,45.3, 1.2, 1.6,0,0,1024,1024,1024,1024,45.5,-89.9,96,3.767,3.808,3.795,3.778,3.797,3.815,18.185,62.6,14,Waypoint,
38.6884919,-120.4165367,5349.2068903347,135.826776,0,0.76829726868,19300,2018-06-07 16:29:40,16,0,22.797,5349.2068903347,135.826776,0.3131716,1.77232289136,0,0,-0.671082,45.2, 1, 1.6,0,0,1024,1024,1024,1024,45.5,-89.9,96,3.767,3.808,3.795,3.778,3.797,3.815,18.185,62.6,14,Waypoint,
38.6884919,-120.4165367,5350.1911423347,136.811028,0,0.76829726868,19400,2018-06-07 16:29:40,16,0,22.797,5350.1911423347,136.811028,0.3131716,1.77232289136,0,0,-0.671082,45.2, 0.9, 1.5,0,0,1024,1024,1024,1024,45.5,-90,96,3.767,3.808,3.795,3.778,3.797,3.815,18.185,62.6,14,Waypoint,
38.6884918,-120.4165367,5351.1753943347,137.79528,0,0.73191931476,19500,2018-06-07 16:29:40,16,0,22.797,5351.1753943347,137.79528,0.3131716,1.77232289136,0,0,-0.671082,45.1, 1.1, 1.5,0,0,1024,1024,1024,1024,45.5,-89.9,96,3.767,3.808,3.795,3.778,3.797,3.815,18.185,62.6,14,Waypoint,
38.6884918,-120.4165367,5352.1596463347,138.779532,0,0.73191931476,19600,2018-06-07 16:29:40,16,0,22.797,5352.1596463347,138.779532,0.3131716,1.77232289136,0,0,-0.671082,45, 1.1, 1.5,0,0,1024,1024,1024,1024,45.5,-89.9,96,3.767,3.808,3.795,3.778,3.797,3.815,18.185,62.6,14,Waypoint,
38.6884917,-120.4165367,5353.1438983347,139.763784,0,0.69555120336,19700,2018-06-07 16:29:40,16,0,22.797,5353.1438983347,139.763784,0.3131716,1.77232289136,0,0,-0.671082,45, 1.1, 1.3,0,0,1024,1024,1024,1024,45.5,-89.9,96,3.767,3.808,3.795,3.778,3.797,3.815,18.185,62.6,14,Waypoint,
38.6884917,-120.4165366,5354.1281503347,140.748036,0,0.6937992348,19800,2018-06-07 16:29:41,16,0,22.797,5354.1281503347,140.748036,0.3131716,1.77232289136,0,0,-0.671082,44.9, 1, 0.9,0,0,1024,1024,1024,1024,45.5,-89.9,96,3.767,3.808,3.795,3.778,3.797,3.815,18.185,62.6,14,Waypoint,
38.6884916,-120.4165366,5355.1124023347,141.732288,0,0.65734582156,19900,2018-06-07 16:29:41,16,0,22.797,5355.1124023347,141.732288,0.3131716,1.77232289136,0,0,-0.671082,45, 1.1, 0.8,0,0,1024,1024,1024,1024,45.5,-89.9,96,3.767,3.808,3.795,3.778,3.797,3.815,18.185,62.6,14,Waypoint,
38.6884916,-120.4165366,5356.0966543347,142.71654,0,0.65734582156,20000,2018-06-07 16:29:41,16,0,22.701,5356.0966543347,142.71654,0.3131716,1.77232289136,0,0,-0.671082,44.9, 1.3, 0.7,0,0,1024,1024,1024,1024,45.5,-89.9,96,3.748,3.793,3.794,3.769,3.775,3.807,18.986,62.6,14,Waypoint,
38.6884916,-120.4165365,5357.0809063347,143.700792,0,0.65672902364,20110,2018-06-07 16:29:41,16,0,22.701,5357.0809063347,143.700792,0.3131716,1.77232289136,0,0,-0.671082,44.9, 1.5, 0.7,0,0,1024,1024,1024,1024,45.5,-89.9,96,3.748,3.793,3.794,3.769,3.775,3.807,18.986,62.6,14,Waypoint,
38.6884916,-120.4165365,5357.0809063347,143.700792,0,0.65672902364,20200,2018-06-07 16:29:41,16,0,22.701,5357.0809063347,143.700792,0.3131716,1.77232289136,0,0,-0.671082,44.9, 1.5, 0.7,0,0,1024,1024,1024,1024,45.5,-89.9,96,3.748,3.793,3.794,3.769,3.775,3.807,18.986,62.6,14,Waypoint,
38.6884916,-120.4165365,5358.0651583347,144.685044,0,0.65672902364,20300,2018-06-07 16:29:41,16,0,22.701,5358.0651583347,144.685044,0.3131716,1.77232289136,0,0,-0.671082,44.9, 1.7, 0.7,0,0,1024,1024,1024,1024,45.5,-89.9,96,3.748,3.793,3.794,3.769,3.775,3.807,18.986,62.6,14,Waypoint,
38.6884916,-120.4165365,5359.0494103347,145.669296,0,0.65672902364,20400,2018-06-07 16:29:41,16,0,22.701,5359.0494103347,145.669296,0.3131716,1.77232289136,0,0,-0.671082,44.9, 1.7, 0.8,0,0,1024,1024,1024,1024,45.5,-89.9,96,3.748,3.793,3.794,3.769,3.775,3.807,18.986,62.6,14,Waypoint,
38.6884916,-120.4165364,5360.0336623347,146.653548,0,0.65734582156,20500,2018-06-07 16:29:41,16,0,22.701,5360.0336623347,146.653548,0.3131716,1.77232289136,0,0,-0.671082,44.9, 1.8, 0.8,0,0,1024,1024,1024,1024,45.5,-89.9,96,3.748,3.793,3.794,3.769,3.775,3.807,18.986,62.6,14,Waypoint,
38.6884915,-120.4165364,5361.0179143347,147.6378,0,0.62089897,20600,2018-06-07 16:29:41,16,0,22.701,5361.0179143347,147.6378,0.3131716,1.77232289136,0,0,-0.671082,45.1, 1.8, 0.9,0,0,1024,1024,1024,1024,45.5,-89.9,96,3.748,3.793,3.794,3.769,3.775,3.807,18.986,62.6,14,Waypoint,
38.6884915,-120.4165363,5362.9864183347,149.606304,0,0.62285435064,20800,2018-06-07 16:29:42,16,0,22.701,5362.9864183347,149.606304,0.3131716,1.77232289136,0,0,-0.671082,45.4, 1.6, 0.4,0,0,1024,1024,1024,1024,45.5,-89.9,96,3.748,3.793,3.794,3.769,3.775,3.807,18.986,62.6,14,Waypoint,
38.6884915,-120.4165363,5363.9706703347,150.590556,0,0.62285435064,20900,2018-06-07 16:29:42,16,0,22.701,5363.9706703347,150.590556,0.3131716,1.77232289136,0,0,-0.671082,45.5, 1.7, 0.3,0,0,1024,1024,1024,1024,45.5,-89.9,96,3.748,3.793,3.794,3.769,3.775,3.807,18.986,62.6,14,Waypoint,
38.6884914,-120.4165362,5365.9391743347,152.55906,0,0.589977053,21000,2018-06-07 16:29:42,16,0,22.765,5365.9391743347,152.55906,0.3131716,1.77232289136,0,0,-0.671082,45.7, 1.8, 0.3,0,0,1024,1024,1024,1024,45.5,-89.9,96,3.758,3.8,3.803,3.787,3.792,3.813,18.113,62.6,14,Waypoint,
38.6884915,-120.4165362,5366.9234263347,153.543312,0,0.6260991014,21100,2018-06-07 16:29:42,16,0,22.765,5366.9234263347,153.543312,0.3131716,1.77232289136,0,0,-0.671082,45.7, 1.9, 0.4,0,0,1024,1024,1024,1024,45.5,-89.9,96,3.758,3.8,3.803,3.787,3.792,3.813,18.113,62.6,14,Waypoint,
38.6884915,-120.4165362,5367.9076783347,154.527564,0,0.6260991014,21200,2018-06-07 16:29:42,16,0,22.765,5367.9076783347,154.527564,0.3131716,1.77232289136,0,0,-0.671082,45.7, 2.1, 0.6,0,0,1024,1024,1024,1024,45.5,-89.9,96,3.758,3.8,3.803,3.787,3.792,3.813,18.113,62.6,14,Waypoint,
38.6884915,-120.4165362,5368.8919303347,155.511816,0,0.6260991014,21300,2018-06-07 16:29:42,16,0,22.765,5368.8919303347,155.511816,0.3131716,1.77232289136,0,0,-0.671082,45.6, 2.2, 0.7,0,0,1024,1024,1024,1024,45.5,-89.9,96,3.758,3.8,3.803,3.787,3.792,3.813,18.113,62.6,14,Waypoint,
38.6884915,-120.4165362,5369.8761823347,156.496068,0,0.6260991014,21400,2018-06-07 16:29:42,16,0,22.765,5369.8761823347,156.496068,0.3131716,1.77232289136,0,0,-0.671082,45.4, 2.2, 0.9,0,0,1024,1024,1024,1024,45.5,-89.9,96,3.758,3.8,3.803,3.787,3.792,3.813,18.113,62.6,14,Waypoint,
38.6884915,-120.4165362,5370.8604343347,157.48032,0,0.6260991014,21500,2018-06-07 16:29:42,16,0,22.765,5370.8604343347,157.48032,0.3131716,1.77232289136,0,0,-0.671082,45.1, 2.3, 1.4,0,0,1024,1024,1024,1024,45.5,-89.9,96,3.758,3.8,3.803,3.787,3.792,3.813,18.113,62.6,14,Waypoint,
38.6884915,-120.4165363,5371.8446863347,158.464572,0,0.62285435064,21600,2018-06-07 16:29:42,16,0,22.765,5371.8446863347,158.464572,0.3131716,1.77232289136,0,0,-0.671082,44.8, 2.3, 1.4,0,0,1024,1024,1024,1024,45.5,-89.9,96,3.758,3.8,3.803,3.787,3.792,3.813,18.113,62.6,14,Waypoint,
38.6884915,-120.4165363,5373.1570223347,159.776908,0,0.62285435064,21700,2018-06-07 16:29:42,16,0,22.765,5373.1570223347,159.776908,0.3131716,1.77232289136,0,0,-0.671082,44.6, 2.1, 1.1,0,0,1024,1024,1024,1024,45.5,-89.9,96,3.758,3.8,3.803,3.787,3.792,3.813,18.113,62.6,14,Waypoint,
38.6884915,-120.4165363,5374.1412743347,160.76116,0,0.62285435064,21800,2018-06-07 16:29:43,16,0,22.765,5374.1412743347,160.76116,0.3131716,1.77232289136,0,0,-0.671082,44.5, 1.9, 0.9,0,0,1024,1024,1024,1024,45.5,-89.9,96,3.758,3.8,3.803,3.787,3.792,3.813,18.113,62.6,14,Waypoint,
38.6884915,-120.4165363,5375.1255263347,161.745412,0,0.62285435064,21900,2018-06-07 16:29:43,16,0,22.765,5375.1255263347,161.745412,0.3131716,1.77232289136,0,0,-0.671082,44.5, 1.8, 0.8,0,0,1024,1024,1024,1024,45.5,-89.9,96,3.758,3.8,3.803,3.787,3.792,3.813,18.113,62.6,14,Waypoint,
38.6884914,-120.4165363,5376.1097783347,162.729664,0,0.586532171,22000,2018-06-07 16:29:43,16,0,22.708,5376.1097783347,162.729664,0.3131716,1.77232289136,0,0,-0.671082,44.5, 1.7, 0.6,0,0,1024,1024,1024,1024,45.5,-89.9,96,3.756,3.791,3.796,3.766,3.778,3.811,18.604,62.6,14,Waypoint,
38.6884914,-120.4165363,5377.0940303347,163.713916,0,0.586532171,22100,2018-06-07 16:29:43,16,0,22.708,5377.0940303347,163.713916,0.3131716,1.77232289136,0,0,-0.671082,44.4, 1.6, 0.5,0,0,1024,1024,1024,1024,45.5,-89.9,96,3.756,3.791,3.796,3.766,3.778,3.811,18.604,62.6,14,Waypoint,
38.6884914,-120.4165363,5378.0782823347,164.698168,0,0.586532171,22210,2018-06-07 16:29:43,16,0,22.708,5378.0782823347,164.698168,0.3131716,1.77232289136,0,0,-0.671082,44.4, 1.5, 0.5,0,0,1024,1024,1024,1024,45.5,-89.9,96,3.756,3.791,3.796,3.766,3.778,3.811,18.604,62.6,14,Waypoint,
38.6884913,-120.4165364,5379.0625343347,165.68242,0,0.5480151094,22300,2018-06-07 16:29:43,16,0,22.708,5379.0625343347,165.68242,0.3131716,1.77232289136,0,0,-0.671082,44.5, 1.4, 0.7,0,0,1024,1024,1024,1024,45.5,-89.9,96,3.756,3.791,3.796,3.766,3.778,3.811,18.604,62.6,14,Waypoint,
38.6884913,-120.4165364,5381.0310383347,167.650924,0,0.5480151094,22500,2018-06-07 16:29:43,16,0,22.708,5381.0310383347,167.650924,0.3131716,1.77232289136,0,0,-0.671082,45, 1.2, 0.6,0,0,1024,1024,1024,1024,45.5,-90,96,3.756,3.791,3.796,3.766,3.778,3.811,18.604,62.6,14,Waypoint,
38.6884913,-120.4165364,5382.0152903347,168.635176,0,0.5480151094,22700,2018-06-07 16:29:43,16,0,22.708,5382.0152903347,168.635176,0.3131716,1.77232289136,0,0,-0.671082,45.3, 1.2, 0.5,0,0,1024,1024,1024,1024,45.5,-89.9,96,3.756,3.791,3.796,3.766,3.778,3.811,18.604,62.6,14,Waypoint,
38.6884912,-120.4165364,5382.9995423347,169.619428,0,0.5115813812,22800,2018-06-07 16:29:44,16,0,22.708,5382.9995423347,169.619428,0.3131716,1.77232289136,0,0,-0.671082,45.7, 1.2, 0.4,0,0,1024,1024,1024,1024,45.5,-89.9,96,3.756,3.791,3.796,3.766,3.778,3.811,18.604,62.6,14,Waypoint,
38.6884912,-120.4165365,5383.9837943347,170.60368,0,0.51079069876,22900,2018-06-07 16:29:44,16,0,22.708,5383.9837943347,170.60368,0.3131716,1.77232289136,0,0,-0.671082,46, 1.4, 0.3,0,0,1024,1024,1024,1024,45.5,-89.9,96,3.756,3.791,3.796,3.766,3.778,3.811,18.604,62.6,14,Waypoint,
38.6884912,-120.4165365,5384.9680463347,171.587932,0,0.51079069876,23000,2018-06-07 16:29:44,16,0,22.665,5384.9680463347,171.587932,0.3131716,1.77232289136,0,0,-0.671082,46.2, 1.4, 0.4,0,0,1024,1024,1024,1024,45.5,-89.9,96,3.756,3.791,3.796,3.766,3.778,3.811,17.744,62.6,14,Waypoint,
38.6884912,-120.4165365,5385.9522983347,172.572184,0,0.51079069876,23100,2018-06-07 16:29:44,16,0,22.665,5385.9522983347,172.572184,0.3131716,1.77232289136,0,0,-0.671082,46.3, 1.4, 0.6,0,0,1024,1024,1024,1024,45.5,-89.9,96,3.756,3.791,3.796,3.766,3.778,3.811,17.744,62.6,14,Waypoint,
38.6884912,-120.4165366,5386.9365503347,173.556436,0,0.5115813812,23200,2018-06-07 16:29:44,16,0,22.665,5386.9365503347,173.556436,0.3131716,1.77232289136,0,0,-0.671082,46.3, 1.4, 0.7,0,0,1024,1024,1024,1024,45.5,-89.9,96,3.756,3.791,3.796,3.766,3.778,3.811,17.744,62.6,14,Waypoint,
38.6884912,-120.4165366,5387.9208023347,174.540688,0,0.5115813812,23300,2018-06-07 16:29:44,16,0,22.665,5387.9208023347,174.540688,0.3131716,1.77232289136,0,0,-0.671082,46.1, 1.3, 0.9,0,0,1024,1024,1024,1024,45.5,-89.9,96,3.756,3.791,3.796,3.766,3.778,3.811,17.744,62.6,14,Waypoint,
38.6884912,-120.4165367,5388.9050543347,175.52494,0,0.51395342852,23400,2018-06-07 16:29:44,16,0,22.665,5388.9050543347,175.52494,0.3131716,1.77232289136,0,0,-0.671082,45.9, 1.3, 1.3,0,0,1024,1024,1024,1024,45.5,-89.9,96,3.756,3.791,3.796,3.766,3.778,3.811,17.744,62.6,14,Waypoint,
38.6884912,-120.4165368,5390.8735583347,177.493444,0,0.51788387484,23500,2018-06-07 16:29:44,16,0,22.665,5390.8735583347,177.493444,0.3131716,1.77232289136,0,0,-0.671082,45.6, 1.2, 1.3,0,0,1024,1024,1024,1024,45.5,-90,96,3.756,3.791,3.796,3.766,3.778,3.811,17.744,62.6,14,Waypoint,
38.6884911,-120.4165368,5392.8420623347,179.461948,0,0.4819389918,23700,2018-06-07 16:29:44,16,0,22.665,5392.8420623347,179.461948,0.3131716,1.77232289136,0,0,-0.671082,45.4, 1.1, 0.8,0,0,1024,1024,1024,1024,45.5,-90,96,3.756,3.791,3.796,3.766,3.778,3.811,17.744,62.6,14,Waypoint,
38.6884911,-120.4165369,5393.8263143347,180.4462,0,0.48779201036,23800,2018-06-07 16:29:45,16,0,22.665,5393.8263143347,180.4462,0.3131716,1.77232289136,0,0,-0.671082,45.3, 1.1, 0.7,0,0,1024,1024,1024,1024,45.5,-89.9,96,3.756,3.791,3.796,3.766,3.778,3.811,17.744,62.6,14,Waypoint,
38.6884911,-120.416537,5395.7948183347,182.414704,0,0.49521655128,24000,2018-06-07 16:29:45,16,0,22.777,5395.7948183347,182.414704,0.3131716,1.77232289136,0,0,-0.671082,45, 1.2, 1,0,0,1024,1024,1024,1024,45.5,-89.9,96,3.776,3.813,3.811,3.781,3.792,3.817,17.695,62.6,14,Waypoint,
38.6884911,-120.416537,5396.7790703347,183.398956,0,0.49521655128,24100,2018-06-07 16:29:45,16,0,22.777,5396.7790703347,183.398956,0.3131716,1.77232289136,0,0,-0.671082,44.9, 1.2, 1.2,0,0,1024,1024,1024,1024,45.5,-89.9,96,3.776,3.813,3.811,3.781,3.792,3.817,17.695,62.6,14,Waypoint,
38.6884911,-120.4165371,5397.7633223347,184.383208,0,0.50414371692,24200,2018-06-07 16:29:45,16,0,22.777,5397.7633223347,184.383208,0.3131716,1.77232289136,0,0,-0.671082,44.8, 1.2, 1.5,0,0,1024,1024,1024,1024,45.5,-89.9,96,3.776,3.813,3.811,3.781,3.792,3.817,17.695,62.6,14,Waypoint,
38.6884911,-120.4165372,5399.7318263347,186.351712,0,0.51449476712,24400,2018-06-07 16:29:45,16,0,22.777,5399.7318263347,186.351712,0.3131716,1.77232289136,0,0,-0.671082,45.2, 0.9, 1.5,0,0,1024,1024,1024,1024,45.5,-90,96,3.776,3.813,3.811,3.781,3.792,3.817,17.695,62.6,14,Waypoint,
38.688491,-120.4165372,5400.7160783347,187.335964,0,0.48106628836,24500,2018-06-07 16:29:45,16,0,22.777,5400.7160783347,187.335964,0.3131716,1.77232289136,0,0,-0.671082,45.6, 0.7, 1.4,0,0,1024,1024,1024,1024,45.5,-90,96,3.776,3.813,3.811,3.781,3.792,3.817,17.695,62.6,14,Waypoint,
38.688491,-120.4165373,5401.7003303347,188.320216,0,0.49354988456,24600,2018-06-07 16:29:45,16,0,22.777,5401.7003303347,188.320216,0.3131716,1.77232289136,0,0,-0.671082,45.9, 0.6, 1.2,0,0,1024,1024,1024,1024,45.5,-90,96,3.776,3.813,3.811,3.781,3.792,3.817,17.695,62.6,14,Waypoint,
38.688491,-120.4165373,5402.6845823347,189.304468,0,0.49354988456,24700,2018-06-07 16:29:45,16,0,22.777,5402.6845823347,189.304468,0.3131716,1.77232289136,0,0,-0.671082,46.1, 0.6, 1.1,0,0,1024,1024,1024,1024,45.5,-90,96,3.776,3.813,3.811,3.781,3.792,3.817,17.695,62.6,14,Waypoint,
38.6884909,-120.4165373,5403.6688343347,190.28872,0,0.46149279692,24800,2018-06-07 16:29:46,16,0,22.777,5403.6688343347,190.28872,0.3131716,1.77232289136,0,0,-0.671082,46, 0.6, 1,0,0,1024,1024,1024,1024,45.5,-90,96,3.776,3.813,3.811,3.781,3.792,3.817,17.695,62.6,14,Waypoint,
38.6884909,-120.4165374,5404.6530863347,191.272972,0,0.47619424096,24900,2018-06-07 16:29:46,16,0,22.777,5404.6530863347,191.272972,0.3131716,1.77232289136,0,0,-0.671082,45.8, 0.6, 1.1,0,0,1024,1024,1024,1024,45.5,-89.9,96,3.776,3.813,3.811,3.781,3.792,3.817,17.695,62.6,14,Waypoint,
38.6884909,-120.4165375,5405.6373383347,192.257224,0,0.4921095958,25000,2018-06-07 16:29:46,16,0,22.799,5405.6373383347,192.257224,0.3131716,1.77232289136,0,0,-0.671082,45.5, 0.6, 1.3,0,0,1024,1024,1024,1024,45.5,-90,96,3.776,3.813,3.811,3.781,3.792,3.817,17.455,64.4,14,Waypoint,
38.6884909,-120.4165376,5407.6058423347,194.225728,0,0.5091207512,25200,2018-06-07 16:29:46,16,0,22.799,5407.6058423347,194.225728,0.3131716,1.77232289136,0,0,-0.671082,45.2, 0.6, 1.6,0,0,1024,1024,1024,1024,45.5,-89.9,96,3.776,3.813,3.811,3.781,3.792,3.817,17.455,64.4,14,Waypoint,
38.6884909,-120.4165377,5409.5743463347,196.194232,0,0.52712272028,25500,2018-06-07 16:29:46,16,0,22.799,5409.5743463347,196.194232,0.3131716,1.77232289136,0,0,-0.671082,45.1, 0.4, 1.7,0,0,1024,1024,1024,1024,45.5,-89.9,96,3.776,3.813,3.811,3.781,3.792,3.817,17.455,64.4,14,Waypoint,
38.6884909,-120.4165377,5410.5585983347,197.178484,0.223694,0.52712272028,25600,2018-06-07 16:29:46,16,0,22.799,5410.5585983347,197.178484,0.3131716,1.77232289136,0,0,-0.671082,45, 0.3, 1.9,0,0,1024,1024,1024,1024,45.5,-89.9,96,3.776,3.813,3.811,3.781,3.792,3.817,17.455,64.4,14,Waypoint,
38.6884909,-120.4165377,5412.5271023347,199.146988,0.223694,0.52712272028,25700,2018-06-07 16:29:46,16,0,22.799,5412.5271023347,199.146988,0.3131716,1.77232289136,0,0,-0.671082,45, 0.6, 2.2,0,0,1024,1024,1024,1024,45.5,-89.9,96,3.776,3.813,3.811,3.781,3.792,3.817,17.455,64.4,14,Waypoint,
38.6884909,-120.4165377,5414.4956063347,201.115492,0,0.52712272028,25900,2018-06-07 16:29:47,16,0,22.799,5414.4956063347,201.115492,0.3131716,1.77232289136,0,0,-0.671082,44.8, 0.7, 2,0,0,1024,1024,1024,1024,45.5,-89.9,96,3.776,3.813,3.811,3.781,3.792,3.817,17.455,64.4,14,Waypoint,
38.6884909,-120.4165377,5415.4798583347,202.099744,0,0.52712272028,26000,2018-06-07 16:29:47,16,0,22.787,5415.4798583347,202.099744,0.3131716,1.77232289136,0,0,-0.671082,44.8, 0.8, 1.9,0,0,1024,1024,1024,1024,45.5,-89.9,96,3.765,3.815,3.808,3.781,3.805,3.829,17.664,64.4,14,Waypoint,
38.688491,-120.4165376,5417.1202783347,203.740164,0,0.53834975476,26200,2018-06-07 16:29:47,16,0,22.787,5417.1202783347,203.740164,0.3131716,1.77232289136,0,0,-0.671082,44.9, 1.1, 1.4,0,0,1024,1024,1024,1024,45.5,-89.9,96,3.765,3.815,3.808,3.781,3.805,3.829,17.664,64.4,14,Waypoint,
38.688491,-120.4165375,5418.1045303347,204.724416,0,0.52229004296,26300,2018-06-07 16:29:47,16,0,22.787,5418.1045303347,204.724416,0.3131716,1.77232289136,0,0,-0.671082,45, 1.2, 1.3,0,0,1024,1024,1024,1024,45.4,-89.9,96,3.765,3.815,3.808,3.781,3.805,3.829,17.664,64.4,14,Waypoint,
38.688491,-120.4165375,5419.0887823347,205.708668,0,0.52229004296,26410,2018-06-07 16:29:47,16,0,22.787,5419.0887823347,205.708668,0.3131716,1.77232289136,0,0,-0.671082,45.1, 1.2, 1.2,0,0,1024,1024,1024,1024,45.5,-89.9,96,3.765,3.815,3.808,3.781,3.805,3.829,17.664,64.4,14,Waypoint,
38.688491,-120.4165375,5420.0730343347,206.69292,0,0.52229004296,26500,2018-06-07 16:29:47,16,0,22.787,5420.0730343347,206.69292,0.3131716,1.77232289136,0,0,-0.671082,45.1, 1.3, 1.2,0,0,1024,1024,1024,1024,45.5,-89.9,96,3.765,3.815,3.808,3.781,3.805,3.829,17.664,64.4,14,Waypoint,
38.6884911,-120.4165375,5421.3853703347,208.005256,0.223694,0.55323492584,26610,2018-06-07 16:29:47,16,0,22.787,5421.3853703347,208.005256,0.3131716,1.77232289136,0,0,-0.671082,45.1, 1.3, 1.5,0,0,1024,1024,1024,1024,45.5,-89.9,96,3.765,3.815,3.808,3.781,3.805,3.829,17.664,64.4,14,Waypoint,
38.6884911,-120.4165375,5422.3696223347,208.989508,0.223694,0.55323492584,26700,2018-06-07 16:29:47,16,0,22.787,5422.3696223347,208.989508,0.3131716,1.77232289136,0,0,-0.671082,45.1, 1.2, 1.8,0,0,1024,1024,1024,1024,45.5,-89.9,96,3.765,3.815,3.808,3.781,3.805,3.829,17.664,64.4,14,Waypoint,
38.6884911,-120.4165375,5423.3538743347,209.97376,0,0.55323492584,26900,2018-06-07 16:29:48,16,0,22.787,5423.3538743347,209.97376,0.3131716,1.77232289136,0,0,-0.671082,45, 1.2, 2,0,0,1024,1024,1024,1024,45.4,-89.9,96,3.765,3.815,3.808,3.781,3.805,3.829,17.664,64.4,14,Waypoint,
38.6884911,-120.4165374,5424.3381263347,210.958012,0,0.53912731384,27000,2018-06-07 16:29:48,16,0,22.775,5424.3381263347,210.958012,0.3131716,1.77232289136,0,0,-0.671082,44.9, 1.1, 2,0,0,1024,1024,1024,1024,45.5,-89.9,96,3.768,3.806,3.799,3.783,3.786,3.821,17.704,64.4,14,Waypoint,
38.6884912,-120.4165373,5425.9785463347,212.598432,0,0.55929463732,27200,2018-06-07 16:29:48,16,0,22.775,5425.9785463347,212.598432,0.3131716,1.77232289136,0,0,-0.671082,44.7, 1.2, 1.6,0,0,1024,1024,1024,1024,45.5,-89.9,96,3.768,3.806,3.799,3.783,3.786,3.821,17.704,64.4,14,Waypoint,
38.6884912,-120.4165373,5426.9627983347,213.582684,0,0.55929463732,27300,2018-06-07 16:29:48,16,0,22.775,5426.9627983347,213.582684,0.3131716,1.77232289136,0,0,-0.671082,44.6, 1.3, 1.4,0,0,1024,1024,1024,1024,45.5,-89.9,96,3.768,3.806,3.799,3.783,3.786,3.821,17.704,64.4,14,Waypoint,
38.6884913,-120.4165371,5428.9313023347,215.551188,0.3131716,0.57333007084,27700,2018-06-07 16:29:48,16,0,22.775,5428.9313023347,215.551188,0.3131716,1.77232289136,0,0,-0.671082,44.7, 2, 0.9,0,0,1024,1024,1024,1024,45.5,-89.9,96,3.768,3.806,3.799,3.783,3.786,3.821,17.704,64.4,14,Waypoint,
38.6884913,-120.416537,5430.2436383347,216.863524,0.223694,0.56549542492,27800,2018-06-07 16:29:49,16,0,22.775,5430.2436383347,216.863524,0.3131716,1.77232289136,0,0,-0.671082,44.9, 2.2, 1,0,0,1024,1024,1024,1024,45.5,-89.9,96,3.768,3.806,3.799,3.783,3.786,3.821,17.704,64.4,14,Waypoint,
38.6884914,-120.4165368,5433.1963943347,219.81628,0,0.589977053,28000,2018-06-07 16:29:49,16,0,22.775,5433.1963943347,219.81628,0.3131716,1.77232289136,0,0,-0.671082,45.4, 2.1, 1.5,0,0,1024,1024,1024,1024,45.5,-89.9,96,3.768,3.806,3.799,3.783,3.786,3.821,17.704,64.4,14,Waypoint,
38.6884915,-120.4165367,5436.1491503347,222.769036,0,0.62285435064,28220,2018-06-07 16:29:49,16,0,22.775,5436.1491503347,222.769036,0.3131716,1.77232289136,0,0,-0.671082,45.7, 2, 1.4,0,0,1024,1024,1024,1024,45.5,-89.9,96,3.768,3.806,3.799,3.783,3.786,3.821,17.704,64.4,14,Waypoint,
38.6884915,-120.4165367,5437.1334023347,223.753288,0,0.62285435064,28300,2018-06-07 16:29:49,16,0,22.775,5437.1334023347,223.753288,0.3131716,1.77232289136,0,0,-0.671082,45.7, 1.9, 1.4,0,0,1024,1024,1024,1024,45.5,-89.9,96,3.768,3.806,3.799,3.783,3.786,3.821,17.704,64.4,14,Waypoint,
38.6884915,-120.4165366,5438.1176543347,224.73754,0,0.62089897,28400,2018-06-07 16:29:49,16,0,22.775,5438.1176543347,224.73754,0.3131716,1.77232289136,0,0,-0.671082,45.7, 2.1, 1.5,0,0,1024,1024,1024,1024,45.5,-89.9,96,3.768,3.806,3.799,3.783,3.786,3.821,17.704,64.4,14,Waypoint,
38.6884916,-120.4165366,5440.0861583347,226.706044,0,0.65734582156,28500,2018-06-07 16:29:49,16,0,22.775,5440.0861583347,226.706044,0.3131716,1.77232289136,0,0,-0.671082,45.5, 2.1, 1.6,0,0,1024,1024,1024,1024,45.5,-89.9,96,3.768,3.806,3.799,3.783,3.786,3.821,17.704,64.4,14,Waypoint,
38.6884916,-120.4165366,5441.0704103347,227.690296,0,0.65734582156,28600,2018-06-07 16:29:49,16,0,22.775,5441.0704103347,227.690296,0.3131716,1.77232289136,0,0,-0.671082,45.3, 2, 1.6,0,0,1024,1024,1024,1024,45.5,-89.9,96,3.768,3.806,3.799,3.783,3.786,3.821,17.704,64.4,14,Waypoint,
38.6884916,-120.4165365,5442.0546623347,228.674548,0,0.65672902364,28700,2018-06-07 16:29:49,16,0,22.775,5442.0546623347,228.674548,0.3131716,1.77232289136,0,0,-0.671082,45.2, 2, 1.6,0,0,1024,1024,1024,1024,45.5,-89.9,96,3.768,3.806,3.799,3.783,3.786,3.821,17.704,64.4,14,Waypoint,
38.6884916,-120.4165365,5443.0389143347,229.6588,0,0.65672902364,28800,2018-06-07 16:29:50,16,0,22.775,5443.0389143347,229.6588,0.3131716,1.77232289136,0,0,-0.671082,45.1, 1.9, 1.7,0,0,1024,1024,1024,1024,45.5,-89.9,96,3.768,3.806,3.799,3.783,3.786,3.821,17.704,64.4,14,Waypoint,
38.6884916,-120.4165365,5444.0231663347,230.643052,0,0.65672902364,28900,2018-06-07 16:29:50,16,0,22.775,5444.0231663347,230.643052,0.3131716,1.77232289136,0,0,-0.671082,45.1, 1.9, 1.8,0,0,1024,1024,1024,1024,45.5,-89.9,96,3.768,3.806,3.799,3.783,3.786,3.821,17.704,64.4,14,Waypoint,
38.6884916,-120.4165365,5445.0074183347,231.627304,0,0.65672902364,29000,2018-06-07 16:29:50,16,0,22.78,5445.0074183347,231.627304,0.3131716,1.77232289136,0,0,-0.671082,45.1, 1.9, 1.8,0,0,1024,1024,1024,1024,45.5,-89.9,96,3.776,3.802,3.804,3.78,3.793,3.824,17.239,64.4,14,Waypoint,
