latitude,longitude,altitude(feet),ascent(feet),speed(mph),distance(feet),time(millisecond),datetime(utc),satellites,gpslevel,voltage(v),max_altitude(feet),max_ascent(feet),max_speed(mph),max_distance(feet), xSpeed(mph), ySpeed(mph), zSpeed(mph), compass_heading(degrees), pitch(degrees), roll(degrees),isPhoto,isVideo,rc_elevator,rc_aileron,rc_throttle,rc_rudder,gimbal_heading(degrees),gimbal_pitch(degrees),battery_percent,voltageCell1,voltageCell2,voltageCell3,voltageCell4,voltageCell5,voltageCell6,current(A),battery_temperature(f),flycStateRaw,flycState,message
38.744847,-120.4087962,4218.3696664839,0,0.223694,0,3100,2018-06-07 20:16:34,10,0,0,4218.3696664839,0,0.223694,0,0,0,0,52.9, 0, 0.2,1,0,1024,1024,1024,1024,52.6,-90,98,4.257,4.269,4.271,4.242,4.254,4.262,0,73.4,11,AutoTakeoff,
38.7448469,-120.4087962,4218.3696664839,0,0.223694,0.036484909304,3200,2018-06-07 20:16:34,10,0,0,4218.3696664839,0,0.223694,0.036484909304,0,0,0,53, -0.6, 0,0,0,1024,1024,1024,1024,52.6,-89.9,98,4.257,4.269,4.271,4.242,4.254,4.262,0,73.4,11,AutoTakeoff,
38.7448469,-120.4087963,4218.3696664839,0,0,0.046270014604,3300,2018-06-07 20:16:34,10,0,0,4218.3696664839,0,0.223694,0.046270014604,0,0,0,53, -0.9, 0.2,0,0,1024,1024,1024,1024,52.6,-90,98,4.257,4.269,4.271,4.242,4.254,4.262,0,73.4,11,AutoTakeoff,
38.7448469,-120.4087963,4218.3696664839,0,0,0.046270014604,3400,2018-06-07 20:16:35,10,0,0,4218.3696664839,0,0.223694,0.046270014604,0,0,0,53, -1.2, 0.5,0,0,1024,1024,1024,1024,52.6,-89.9,98,4.257,4.269,4.271,4.242,4.254,4.262,0,73.4,11,AutoTakeoff,
38.7448469,-120.4087964,4218.6977504839,0.328084,0,0.067603020536,3600,2018-06-07 20:16:35,9,0,0,4218.6977504839,0.328084,0.223694,0.067603020536,0,0,0,53.1, -0.8, 0.6,0,0,1024,1024,1024,1024,52.6,-89.9,98,4.257,4.269,4.271,4.242,4.254,4.262,0,73.4,11,AutoTakeoff,
38.7448469,-120.4087963,4218.6977504839,0.328084,0,0.046270014604,3700,2018-06-07 20:16:35,9,0,0,4218.6977504839,0.328084,0.223694,0.067603020536,0,0,0,53.2, -0.3, 0.5,0,0,1024,1024,1024,1024,52.6,-89.9,98,4.257,4.269,4.271,4.242,4.254,4.262,0,73.4,11,AutoTakeoff,
38.744847,-120.4087963,4219.0258344839,0.656168,0,0.0284561032728,3810,2018-06-07 20:16:35,11,0,0,4219.0258344839,0.656168,0.223694,0.067603020536,0,0,0,53.2, 0, 0.3,0,0,1024,1024,1024,1024,52.6,-89.9,98,4.257,4.269,4.271,4.242,4.254,4.262,0,73.4,11,AutoTakeoff,
38.7448471,-120.4087963,4219.0258344839,0.656168,0,0.046270014604,4000,2018-06-07 20:16:35,11,0,25.512,4219.0258344839,0.656168,0.223694,0.067603020536,0,0,0,53.3, 0.3, 0.3,0,0,1024,1024,1024,1024,52.6,-89.9,98,4.257,4.269,4.271,4.242,4.254,4.262,3.927,73.4,11,AutoTakeoff,
38.7448471,-120.4087962,4219.3539184839,0.984252,0,0.036484909304,4100,2018-06-07 20:16:35,10,0,25.512,4219.3539184839,0.984252,0.223694,0.067603020536,0,0,0,53.3, 0.5, 0.4,0,0,1024,1024,1024,1024,52.6,-89.9,98,4.257,4.269,4.271,4.242,4.254,4.262,3.927,73.4,11,AutoTakeoff,
38.744847,-120.4087962,4219.3539184839,0.984252,0,0,4200,2018-06-07 20:16:35,10,0,25.512,4219.3539184839,0.984252,0.223694,0.067603020536,0,0,0,53.3, 0.7, 0.5,0,0,1024,1024,1024,1024,52.6,-89.9,98,4.257,4.269,4.271,4.242,4.254,4.262,3.927,73.4,11,AutoTakeoff,
38.7448471,-120.408796,4219.6820024839,1.312336,0,0.067603020536,4400,2018-06-07 20:16:36,10,0,25.512,4219.6820024839,1.312336,0.223694,0.067603020536,0,0,-0.223694,53.2, 0.7, 0.6,0,0,1024,1024,1024,1024,52.6,-89.9,98,4.257,4.269,4.271,4.242,4.254,4.262,3.927,73.4,11,AutoTakeoff,
38.7448471,-120.4087958,4220.0100864839,1.64042,0,0.119528875216,4500,2018-06-07 20:16:36,10,0,25.512,4220.0100864839,1.64042,0.223694,0.119528875216,0,0,0,52.8, 0.9, 0,0,0,1024,1024,1024,1024,52.6,-89.9,98,4.257,4.269,4.271,4.242,4.254,4.262,3.927,73.4,11,AutoTakeoff,
38.7448472,-120.4087957,4220.3381704839,1.968504,0,0.159900923752,4600,2018-06-07 20:16:36,10,0,25.512,4220.3381704839,1.968504,0.223694,0.159900923752,0,0,0,52.5, 0.9, 0,0,0,1024,1024,1024,1024,52.6,-89.9,98,4.257,4.269,4.271,4.242,4.254,4.262,3.927,73.4,11,AutoTakeoff,
38.7448472,-120.4087956,4220.3381704839,1.968504,0,0.18567585896,4700,2018-06-07 20:16:36,10,0,25.512,4220.3381704839,1.968504,0.223694,0.18567585896,0,0,0,52.1, 1.1, 0,0,0,1024,1024,1024,1024,52.6,-89.9,98,4.257,4.269,4.271,4.242,4.254,4.262,3.927,73.4,11,AutoTakeoff,
38.7448472,-120.4087956,4220.6662544839,2.296588,0,0.18567585896,4800,2018-06-07 20:16:36,10,0,25.512,4220.6662544839,2.296588,0.223694,0.18567585896,0,0,0,52, 1.3, 0.1,0,0,1024,1024,1024,1024,52.6,-89.9,98,4.257,4.269,4.271,4.242,4.254,4.262,3.927,73.4,11,AutoTakeoff,
38.7448472,-120.4087956,4220.6662544839,2.296588,0,0.18567585896,4900,2018-06-07 20:16:36,11,0,25.512,4220.6662544839,2.296588,0.223694,0.18567585896,0,0,-0.223694,52, 1.3, 0.2,0,0,1024,1024,1024,1024,52.6,-89.9,98,4.257,4.269,4.271,4.242,4.254,4.262,3.927,73.4,11,AutoTakeoff,
38.7448472,-120.4087955,4220.9943384839,2.624672,0,0.21213747398,5000,2018-06-07 20:16:36,11,0,24.275,4220.9943384839,2.624672,0.223694,0.21213747398,0,0,-0.223694,52, 1.3, 0.3,0,0,1024,1024,1024,1024,52.6,-89.9,98,4.134,4.117,4.048,4.052,4.106,4.081,15.936,73.4,11,AutoTakeoff,
38.7448473,-120.4087954,4220.9943384839,2.624672,0,0.25259515244,5100,2018-06-07 20:16:36,11,0,24.275,4220.9943384839,2.624672,0.223694,0.25259515244,0,0,0,52.1, 1.2, 0.3,0,0,1024,1024,1024,1024,52.6,-89.9,98,4.134,4.117,4.048,4.052,4.106,4.081,15.936,73.4,11,AutoTakeoff,
38.7448474,-120.4087952,4221.3224224839,2.952756,0,0.319802175588,5200,2018-06-07 20:16:36,11,0,24.275,4221.3224224839,2.952756,0.223694,0.319802175588,0,0,0,52.2, 1.2, 0.1,0,0,1024,1024,1024,1024,52.6,-89.9,98,4.134,4.117,4.048,4.052,4.106,4.081,15.936,73.4,14,Waypoint,
38.7448474,-120.4087951,4221.3224224839,2.952756,0,0.34536746512,5300,2018-06-07 20:16:36,11,0,24.275,4221.3224224839,2.952756,0.223694,0.34536746512,0,0,0,52.3, 1.5, 0,0,0,1024,1024,1024,1024,52.6,-89.9,98,4.134,4.117,4.048,4.052,4.106,4.081,15.936,73.4,14,Waypoint,
38.7448474,-120.408795,4221.6505064839,3.28084,0,0.37135171792,5400,2018-06-07 20:16:37,11,0,24.275,4221.6505064839,3.28084,0.223694,0.37135171792,0,0,0,52.3, 1.5, 0.2,0,0,1024,1024,1024,1024,52.6,-89.9,98,4.134,4.117,4.048,4.052,4.106,4.081,15.936,73.4,14,Waypoint,
38.7448476,-120.408795,4221.6505064839,3.28084,0,0.40561681088,5500,2018-06-07 20:16:37,11,0,24.275,4221.6505064839,3.28084,0.223694,0.40561681088,0,0,0,52.3, 1.6, 0.5,0,0,1024,1024,1024,1024,52.6,-89.9,98,4.134,4.117,4.048,4.052,4.106,4.081,15.936,73.4,14,Waypoint,
38.7448478,-120.4087949,4221.6505064839,3.28084,0,0.47121392584,5600,2018-06-07 20:16:37,11,0,24.275,4221.6505064839,3.28084,0.223694,0.47121392584,0,0,0,52.2, 1.5, 0.9,0,0,1024,1024,1024,1024,52.6,-89.9,98,4.134,4.117,4.048,4.052,4.106,4.081,15.936,73.4,14,Waypoint,
38.7448478,-120.4087949,4221.9785904839,3.608924,0,0.47121392584,5700,2018-06-07 20:16:37,9,0,24.275,4221.9785904839,3.608924,0.223694,0.47121392584,0,0,0,52, 1.5, 1.1,0,0,1024,1024,1024,1024,52.6,-89.9,98,4.134,4.117,4.048,4.052,4.106,4.081,15.936,73.4,14,Waypoint,
38.7448478,-120.4087947,4222.3066744839,3.937008,0,0.51709647324,5800,2018-06-07 20:16:37,9,0,24.275,4222.3066744839,3.937008,0.223694,0.51709647324,0,0,-0.223694,51.9, 1.5, 0.9,0,0,1024,1024,1024,1024,52.6,-89.9,98,4.134,4.117,4.048,4.052,4.106,4.081,15.936,73.4,14,Waypoint,
38.7448479,-120.4087946,4222.3066744839,3.937008,0,0.56135500484,5900,2018-06-07 20:16:37,9,0,24.275,4222.3066744839,3.937008,0.223694,0.56135500484,0,0,-0.223694,51.8, 1.5, 0.8,0,0,1024,1024,1024,1024,52.6,-89.9,98,4.134,4.117,4.048,4.052,4.106,4.081,15.936,73.4,14,Waypoint,
38.744848,-120.4087945,4222.6347584839,4.265092,0,0.60591537372,6000,2018-06-07 20:16:37,9,0,24.108,4222.6347584839,4.265092,0.223694,0.60591537372,0,0,-0.223694,51.8, 1.5, 0.7,0,0,1024,1024,1024,1024,52.6,-89.9,98,4.037,4.02,4.033,4.03,4.052,4.041,17.137,73.4,14,Waypoint,
38.7448481,-120.4087944,4222.9628424839,4.593176,0,0.65071196308,6100,2018-06-07 20:16:37,9,0,24.108,4222.9628424839,4.593176,0.223694,0.65071196308,0,0,-0.223694,51.9, 1.6, 0.7,0,0,1024,1024,1024,1024,52.6,-89.9,98,4.037,4.02,4.033,4.03,4.052,4.041,17.137,73.4,14,Waypoint,
38.7448482,-120.4087943,4223.2909264839,4.92126,0,0.69570540284,6200,2018-06-07 20:16:37,9,0,24.108,4223.2909264839,4.92126,0.223694,0.69570540284,0,0,-0.223694,52.1, 1.8, 0.6,0,0,1024,1024,1024,1024,52.6,-89.9,98,4.037,4.02,4.033,4.03,4.052,4.041,17.137,73.4,14,Waypoint,
38.7448483,-120.4087941,4223.9470944839,5.577428,0,0.76292981444,6400,2018-06-07 20:16:38,8,0,24.108,4223.9470944839,5.577428,0.223694,0.76292981444,0,0,-0.447388,52.3, 2.1, 0.5,0,0,1024,1024,1024,1024,52.6,-89.9,98,4.037,4.02,4.033,4.03,4.052,4.041,17.137,73.4,14,Waypoint,
38.7448484,-120.4087938,4224.2751784839,5.905512,0,0.85283139212,6500,2018-06-07 20:16:38,8,0,24.108,4224.2751784839,5.905512,0.223694,0.85283139212,0,0,-0.447388,52.5, 2.2, 0.5,0,0,1024,1024,1024,1024,52.6,-89.9,98,4.037,4.02,4.033,4.03,4.052,4.041,17.137,73.4,14,Waypoint,
38.7448484,-120.4087937,4224.9313464839,6.56168,0,0.87578414876,6600,2018-06-07 20:16:38,9,0,24.108,4224.9313464839,6.56168,0.223694,0.87578414876,0,0,-0.447388,52.6, 2.4, 0.3,0,0,1024,1024,1024,1024,52.6,-89.9,98,4.037,4.02,4.033,4.03,4.052,4.041,17.137,73.4,14,Waypoint,
38.7448485,-120.4087935,4226.2436824839,7.874016,0,0.94330055512,6800,2018-06-07 20:16:38,10,0,24.108,4226.2436824839,7.874016,0.223694,0.94330055512,0,0,-0.671082,52.6, 2.6, 0.1,0,0,1024,1024,1024,1024,52.6,-89.9,98,4.037,4.02,4.033,4.03,4.052,4.041,17.137,73.4,14,Waypoint,
38.7448486,-120.4087934,4227.2279344839,8.858268,0,0.98773297124,7000,2018-06-07 20:16:38,10,0,24.108,4227.2279344839,8.858268,0.223694,0.98773297124,0,0,-0.671082,52.5, 2.5, 0.2,0,0,1024,1024,1024,1024,52.6,-89.9,97,3.963,3.951,4.01,4.006,4.028,4.015,17.137,73.4,14,Waypoint,
38.7448486,-120.4087932,4228.2121864839,9.84252,0,1.03418966564,7100,2018-06-07 20:16:38,10,0,24.108,4228.2121864839,9.84252,0.223694,1.03418966564,0,0,-0.671082,52.5, 2.4, 0.2,0,0,1024,1024,1024,1024,52.6,-89.9,97,3.963,3.951,4.01,4.006,4.028,4.015,17.137,73.4,14,Waypoint,
38.7448483,-120.408793,4230.1806904839,11.811024,0,1.02671591212,7200,2018-06-07 20:16:38,10,0,24.108,4230.1806904839,11.811024,0.223694,1.03418966564,0,0,-0.671082,52.5, 2.3, 0,0,0,1024,1024,1024,1024,52.6,-89.9,97,3.963,3.951,4.01,4.006,4.028,4.015,17.137,73.4,14,Waypoint,
38.7448482,-120.408793,4231.1649424839,12.795276,0,1.01038060976,7320,2018-06-07 20:16:38,10,0,24.108,4231.1649424839,12.795276,0.223694,1.03418966564,0,0,-0.671082,52.4, 2.1, -0.1,0,0,1024,1024,1024,1024,52.6,-89.9,97,3.963,3.951,4.01,4.006,4.028,4.015,17.137,73.4,14,Waypoint,
38.7448481,-120.408793,4232.4772784839,14.107612,0,0.99511486124,7410,2018-06-07 20:16:39,10,0,24.108,4232.4772784839,14.107612,0.223694,1.03418966564,0,0,-0.671082,52.4, 1.7, -0.1,0,0,1024,1024,1024,1024,52.6,-89.9,97,3.963,3.951,4.01,4.006,4.028,4.015,17.137,73.4,14,Waypoint,
38.744848,-120.408793,4233.4615304839,15.091864,0,0.98096787916,7500,2018-06-07 20:16:39,10,0,24.108,4233.4615304839,15.091864,0.223694,1.03418966564,0,0,-0.671082,52.3, 1.5, -0.2,0,0,1024,1024,1024,1024,52.6,-89.9,97,3.963,3.951,4.01,4.006,4.028,4.015,17.137,73.4,14,Waypoint,
38.7448479,-120.4087931,4234.4457824839,16.076116,0,0.941272996,7600,2018-06-07 20:16:39,10,0,24.108,4234.4457824839,16.076116,0.223694,1.03418966564,0,0,-0.671082,52.2, 1.3, -0.5,0,0,1024,1024,1024,1024,52.6,-89.9,97,3.963,3.951,4.01,4.006,4.028,4.015,17.137,73.4,14,Waypoint,
38.7448478,-120.4087933,4235.7581184839,17.388452,0,0.87532483116,7700,2018-06-07 20:16:39,10,0,24.108,4235.7581184839,17.388452,0.223694,1.03418966564,0,0,-0.671082,52.2, 1.1, -0.6,0,0,1024,1024,1024,1024,52.6,-89.9,97,3.963,3.951,4.01,4.006,4.028,4.015,17.137,73.4,14,Waypoint,
38.7448478,-120.4087932,4236.7423704839,18.372704,0,0.90220147244,7800,2018-06-07 20:16:39,11,0,24.108,4236.7423704839,18.372704,0.223694,1.03418966564,0,0,-0.671082,52.1, 1.1, -0.4,0,0,1024,1024,1024,1024,52.6,-89.9,97,3.963,3.951,4.01,4.006,4.028,4.015,17.137,73.4,14,Waypoint,
38.7448477,-120.4087931,4238.0547064839,19.68504,0,0.91836617112,7900,2018-06-07 20:16:39,11,0,24.108,4238.0547064839,19.68504,0.223694,1.03418966564,0,0,-0.671082,52, 1.3, -0.6,0,0,1024,1024,1024,1024,52.6,-89.9,97,3.963,3.951,4.01,4.006,4.028,4.015,17.137,73.4,14,Waypoint,
38.7448476,-120.4087931,4241.3355464839,22.96588,0,0.90889438604,8210,2018-06-07 20:16:39,9,0,24.108,4241.3355464839,22.96588,0.223694,1.03418966564,0,0,-0.671082,51.8, 1.7, -0.9,0,0,1024,1024,1024,1024,52.6,-89.9,97,3.963,3.951,4.01,4.006,4.028,4.015,17.137,73.4,14,Waypoint,
38.7448477,-120.4087932,4242.3197984839,23.950132,0,0.89106630148,8300,2018-06-07 20:16:39,9,0,24.108,4242.3197984839,23.950132,0.223694,1.03418966564,0,0,-0.671082,51.8, 1.7, -0.5,0,0,1024,1024,1024,1024,52.6,-89.9,97,3.963,3.951,4.01,4.006,4.028,4.015,17.137,73.4,14,Waypoint,
38.7448478,-120.4087933,4243.6321344839,25.262468,0,0.87532483116,8400,2018-06-07 20:16:40,9,0,24.108,4243.6321344839,25.262468,0.223694,1.03418966564,0,0,-0.671082,51.9, 1.6, 0.1,0,0,1024,1024,1024,1024,52.6,-89.9,97,3.963,3.951,4.01,4.006,4.028,4.015,17.137,73.4,14,Waypoint,
38.7448478,-120.4087934,4244.6163864839,26.24672,0,0.84854989592,8500,2018-06-07 20:16:40,9,0,24.108,4244.6163864839,26.24672,0.223694,1.03418966564,0,0,-0.671082,52, 1.6, 0.4,0,0,1024,1024,1024,1024,52.6,-89.9,97,3.963,3.951,4.01,4.006,4.028,4.015,17.137,73.4,14,Waypoint,
38.7448479,-120.4087935,4245.6006384839,27.230972,0,0.83554136532,8600,2018-06-07 20:16:40,9,0,24.108,4245.6006384839,27.230972,0.223694,1.03418966564,0,0,-0.671082,52, 1.6, 0.5,0,0,1024,1024,1024,1024,52.6,-89.9,97,3.963,3.951,4.01,4.006,4.028,4.015,17.137,73.4,14,Waypoint,
38.744848,-120.4087937,4246.9129744839,28.543308,0.223694,0.79950461876,8700,2018-06-07 20:16:40,9,0,24.108,4246.9129744839,28.543308,0.223694,1.03418966564,0,0,-0.671082,52, 1.4, 0.6,0,0,1024,1024,1024,1024,52.6,-89.9,97,3.963,3.951,4.01,4.006,4.028,4.015,17.137,73.4,14,Waypoint,
38.7448481,-120.4087938,4247.8972264839,29.52756,0,0.79213913296,8800,2018-06-07 20:16:40,9,0,24.108,4247.8972264839,29.52756,0.223694,1.03418966564,0,0,-0.671082,52.1, 1.2, 0.8,0,0,1024,1024,1024,1024,52.6,-89.9,97,3.963,3.951,4.01,4.006,4.028,4.015,17.137,73.4,14,Waypoint,
38.7448482,-120.4087939,4249.8657304839,31.496064,0,0.78742784672,8910,2018-06-07 20:16:40,10,0,24.108,4249.8657304839,31.496064,0.223694,1.03418966564,0,0,-0.671082,52.1, 1.4, 0.5,0,0,1024,1024,1024,1024,52.6,-89.9,97,3.963,3.951,4.01,4.006,4.028,4.015,17.137,73.4,14,Waypoint,
38.7448483,-120.4087941,4251.1780664839,32.8084,0,0.76292981444,9100,2018-06-07 20:16:40,10,0,24.108,4251.1780664839,32.8084,0.223694,1.03418966564,0,0,-0.671082,52.1, 1.4, 0.5,0,0,1024,1024,1024,1024,52.6,-89.9,97,3.963,3.951,4.01,4.006,4.028,4.015,17.137,73.4,14,Waypoint,
38.7448484,-120.4087941,4252.1623184839,33.792652,0,0.78613191492,9200,2018-06-07 20:16:40,9,0,24.108,4252.1623184839,33.792652,0.223694,1.03418966564,0,0,-0.671082,52.1, 1.3, 0.6,0,0,1024,1024,1024,1024,52.6,-89.9,97,3.963,3.951,4.01,4.006,4.028,4.015,17.137,73.4,14,Waypoint,
38.7448484,-120.4087941,4253.1465704839,34.776904,0,0.78613191492,9300,2018-06-07 20:16:40,9,0,24.108,4253.1465704839,34.776904,0.223694,1.03418966564,0,0,-0.671082,52.2, 1.3, 0.6,0,0,1024,1024,1024,1024,52.6,-89.9,97,3.963,3.951,4.01,4.006,4.028,4.015,17.137,73.4,14,Waypoint,
38.7448485,-120.4087943,4254.1308224839,35.761156,0,0.76930448656,9400,2018-06-07 20:16:41,10,0,24.108,4254.1308224839,35.761156,0.223694,1.03418966564,0,0,-0.671082,52.2, 1.4, 0.6,0,0,1024,1024,1024,1024,52.6,-89.9,97,3.963,3.951,4.01,4.006,4.028,4.015,17.137,73.4,14,Waypoint,
38.7448486,-120.4087947,4255.1150744839,36.745408,0,0.72316603364,9500,2018-06-07 20:16:41,10,0,24.108,4255.1150744839,36.745408,0.223694,1.03418966564,0,0,-0.671082,52.3, 1.2, 0.9,0,0,1024,1024,1024,1024,52.6,-89.9,97,3.963,3.951,4.01,4.006,4.028,4.015,17.137,73.4,14,Waypoint,
38.7448487,-120.4087949,4256.0993264839,37.72966,0,0.72218506248,9600,2018-06-07 20:16:41,10,0,24.108,4256.0993264839,37.72966,0.223694,1.03418966564,0,0,-0.671082,52.3, 0.9, 1.3,0,0,1024,1024,1024,1024,52.6,-89.9,97,3.963,3.951,4.01,4.006,4.028,4.015,17.137,73.4,14,Waypoint,
38.7448489,-120.4087952,4258.0678304839,39.698164,0,0.74934713684,9700,2018-06-07 20:16:41,11,0,24.108,4258.0678304839,39.698164,0.223694,1.03418966564,0,0,-0.671082,52.2, 0.8, 1.7,0,0,1024,1024,1024,1024,52.6,-89.9,97,3.963,3.951,4.01,4.006,4.028,4.015,17.137,73.4,14,Waypoint,
38.7448491,-120.4087955,4260.0363344839,41.666668,0,0.79165356864,9900,2018-06-07 20:16:41,11,0,24.108,4260.0363344839,41.666668,0.223694,1.03418966564,0,0,-0.671082,52.2, 1.2, 1.6,0,0,1024,1024,1024,1024,52.6,-89.9,97,3.963,3.951,4.01,4.006,4.028,4.015,17.137,73.4,14,Waypoint,
38.7448492,-120.4087955,4261.0205864839,42.65092,0,0.82701446216,10100,2018-06-07 20:16:41,11,0,24.108,4261.0205864839,42.65092,0.223694,1.03418966564,0,0,-0.671082,52.2, 1.3, 1.4,0,0,1024,1024,1024,1024,52.6,-89.9,97,3.963,3.951,4.01,4.006,4.028,4.015,17.137,73.4,14,Waypoint,
38.7448492,-120.4087957,4262.0048384839,43.635172,0,0.81518047228,10200,2018-06-07 20:16:41,11,0,24.108,4262.0048384839,43.635172,0.223694,1.03418966564,0,0,-0.671082,52.3, 1.2, 1.3,0,0,1024,1024,1024,1024,52.6,-89.9,97,3.963,3.951,4.01,4.006,4.028,4.015,17.137,73.4,14,Waypoint,
38.7448493,-120.408796,4263.9733424839,45.603676,0,0.84108270408,10320,2018-06-07 20:16:41,10,0,24.108,4263.9733424839,45.603676,0.223694,1.03418966564,0,0,-0.671082,52.3, 0.7, 1.5,0,0,1024,1024,1024,1024,52.6,-89.9,97,3.963,3.951,4.01,4.006,4.028,4.015,17.137,73.4,14,Waypoint,
38.7448493,-120.4087961,4264.9575944839,46.587928,0,0.83963585364,10600,2018-06-07 20:16:42,10,0,24.108,4264.9575944839,46.587928,0.223694,1.03418966564,0,0,-0.671082,52.3, 0.6, 1.6,0,0,1024,1024,1024,1024,52.6,-89.9,97,3.963,3.951,4.01,4.006,4.028,4.015,17.137,73.4,14,Waypoint,
38.7448493,-120.4087961,4266.9260984839,48.556432,0,0.83963585364,10810,2018-06-07 20:16:42,11,0,24.108,4266.9260984839,48.556432,0.223694,1.03418966564,0,0,-0.671082,52.2, 0.9, 1.3,0,0,1024,1024,1024,1024,52.6,-89.9,97,3.963,3.951,4.01,4.006,4.028,4.015,17.137,73.4,14,Waypoint,
38.7448493,-120.4087962,4267.9103504839,49.540684,0,0.83915357016,10900,2018-06-07 20:16:42,10,0,24.108,4267.9103504839,49.540684,0.223694,1.03418966564,0,0,-0.671082,52.1, 1.1, 1.2,0,0,1024,1024,1024,1024,52.6,-89.9,97,3.963,3.951,4.01,4.006,4.028,4.015,17.137,73.4,14,Waypoint,
38.7448493,-120.4087962,4269.8788544839,51.509188,0,0.83915357016,11000,2018-06-07 20:16:42,12,0,23.697,4269.8788544839,51.509188,0.223694,1.03418966564,0,0,-0.671082,52.2, 1.1, 1.1,0,0,1024,1024,1024,1024,52.6,-89.9,97,3.938,3.933,3.946,3.945,3.97,3.953,18.576,75.2,14,Waypoint,
38.7448494,-120.4087962,4270.8631064839,52.49344,0,0.8756397918,11100,2018-06-07 20:16:42,12,0,23.697,4270.8631064839,52.49344,0.223694,1.03418966564,0,0,-0.671082,52.2, 1.1, 0.9,0,0,1024,1024,1024,1024,52.6,-89.9,97,3.938,3.933,3.946,3.945,3.97,3.953,18.576,75.2,14,Waypoint,
38.7448493,-120.4087961,4271.8473584839,53.477692,0.223694,0.83963585364,11200,2018-06-07 20:16:42,12,0,23.697,4271.8473584839,53.477692,0.223694,1.03418966564,0,0,-0.671082,52.2, 1.2, 0.9,0,0,1024,1024,1024,1024,52.6,-89.9,97,3.938,3.933,3.946,3.945,3.97,3.953,18.576,75.2,14,Waypoint,
38.7448491,-120.408796,4273.8158624839,55.446196,0.223694,0.76829398784,11400,2018-06-07 20:16:43,12,0,23.697,4273.8158624839,55.446196,0.223694,1.03418966564,0,0,-0.671082,52.2, 1.2, 0.5,0,0,1024,1024,1024,1024,52.6,-89.9,97,3.938,3.933,3.946,3.945,3.97,3.953,18.576,75.2,14,Waypoint,
38.744849,-120.408796,4274.8001144839,56.430448,0.223694,0.73191603392,11500,2018-06-07 20:16:43,12,0,23.697,4274.8001144839,56.430448,0.223694,1.03418966564,0,0,-0.671082,52.2, 1.1, 0.3,0,0,1024,1024,1024,1024,52.6,-90,97,3.938,3.933,3.946,3.945,3.97,3.953,18.576,75.2,14,Waypoint,
38.7448489,-120.4087959,4275.7843664839,57.4147,0.223694,0.69845146592,11600,2018-06-07 20:16:43,12,0,23.697,4275.7843664839,57.4147,0.223694,1.03418966564,0,0,-0.671082,52.1, 1, 0.1,0,0,1024,1024,1024,1024,52.6,-89.9,97,3.938,3.933,3.946,3.945,3.97,3.953,18.576,75.2,14,Waypoint,
38.7448488,-120.4087958,4276.7686184839,58.398952,0.223694,0.6665190502,11700,2018-06-07 20:16:43,12,0,23.697,4276.7686184839,58.398952,0.223694,1.03418966564,0,0,-0.671082,52, 1, -0.1,0,0,1024,1024,1024,1024,52.6,-89.9,97,3.938,3.933,3.946,3.945,3.97,3.953,18.576,75.2,14,Waypoint,
38.7448487,-120.4087957,4277.7528704839,59.383204,0.223694,0.63635500724,11800,2018-06-07 20:16:43,12,0,23.697,4277.7528704839,59.383204,0.223694,1.03418966564,0,0,-0.671082,52, 1.2, -0.4,0,0,1024,1024,1024,1024,52.6,-89.9,97,3.938,3.933,3.946,3.945,3.97,3.953,18.576,75.2,14,Waypoint,
38.7448484,-120.4087953,4280.7056264839,62.33596,0.223694,0.57139765608,11900,2018-06-07 20:16:43,12,0,23.697,4280.7056264839,62.33596,0.223694,1.03418966564,0,0,-0.671082,52.1, 1.6, -0.9,0,0,1024,1024,1024,1024,52.6,-89.9,97,3.938,3.933,3.946,3.945,3.97,3.953,18.576,75.2,14,Waypoint,
38.7448482,-120.4087952,4282.6741304839,64.304464,0,0.52216865188,12100,2018-06-07 20:16:43,12,0,23.697,4282.6741304839,64.304464,0.223694,1.03418966564,0,0,-0.671082,52.2, 1.5, -0.9,0,0,1024,1024,1024,1024,52.6,-89.9,97,3.938,3.933,3.946,3.945,3.97,3.953,18.576,75.2,14,Waypoint,
38.744848,-120.4087951,4284.6426344839,66.272968,0,0.48072180016,12200,2018-06-07 20:16:43,12,0,23.697,4284.6426344839,66.272968,0.223694,1.03418966564,0,0,-0.671082,52.2, 1.2, -0.6,0,0,1024,1024,1024,1024,52.6,-89.9,97,3.938,3.933,3.946,3.945,3.97,3.953,18.576,75.2,14,Waypoint,
38.7448479,-120.4087949,4286.6111384839,68.241472,0,0.49464240428,12400,2018-06-07 20:16:44,12,0,23.697,4286.6111384839,68.241472,0.223694,1.03418966564,0,0,-0.671082,52.2, 1.3, -0.8,0,0,1024,1024,1024,1024,52.6,-89.9,97,3.938,3.933,3.946,3.945,3.97,3.953,18.576,75.2,14,Waypoint,
38.7448479,-120.4087948,4287.5953904839,69.225724,0,0.51626970156,12530,2018-06-07 20:16:44,12,0,23.697,4287.5953904839,69.225724,0.223694,1.03418966564,0,0,-0.671082,52.2, 1.5, -0.9,0,0,1024,1024,1024,1024,52.6,-89.9,97,3.938,3.933,3.946,3.945,3.97,3.953,18.576,75.2,14,Waypoint,
38.7448479,-120.4087948,4287.5953904839,69.225724,0,0.51626970156,12600,2018-06-07 20:16:44,12,0,23.697,4287.5953904839,69.225724,0.223694,1.03418966564,0,0,-0.671082,52.2, 1.5, -0.9,0,0,1024,1024,1024,1024,52.6,-89.9,97,3.938,3.933,3.946,3.945,3.97,3.953,18.576,75.2,14,Waypoint,
38.7448478,-120.4087949,4288.5796424839,70.209976,0,0.47121392584,12700,2018-06-07 20:16:44,12,0,23.697,4288.5796424839,70.209976,0.223694,1.03418966564,0,0,-0.671082,52.1, 1.4, -0.9,0,0,1024,1024,1024,1024,52.6,-89.9,97,3.938,3.933,3.946,3.945,3.97,3.953,18.576,75.2,14,Waypoint,
38.7448476,-120.4087948,4291.5323984839,73.162732,0,0.45456694368,13000,2018-06-07 20:16:44,12,0,23.615,4291.5323984839,73.162732,0.223694,1.03418966564,0,0,-0.671082,52.1, 0.9, -0.8,0,0,1024,1024,1024,1024,52.6,-90,97,3.94,3.918,3.941,3.945,3.966,3.95,19.134,75.2,14,Waypoint,
38.7448475,-120.4087948,4292.8447344839,74.475068,0,0.43816602452,13110,2018-06-07 20:16:44,12,0,23.615,4292.8447344839,74.475068,0.223694,1.03418966564,0,0,-0.671082,52.1, 0.8, -1.1,0,0,1024,1024,1024,1024,52.6,-90,97,3.94,3.918,3.941,3.945,3.966,3.95,19.134,75.2,14,Waypoint,
38.7448473,-120.4087948,4293.8289864839,75.45932,0,0.41314633868,13300,2018-06-07 20:16:44,12,0,23.615,4293.8289864839,75.45932,0.223694,1.03418966564,0,0,-0.671082,52.1, 0.6, -1.2,0,0,1024,1024,1024,1024,52.6,-90,97,3.94,3.918,3.941,3.945,3.966,3.95,19.134,75.2,14,Waypoint,
38.7448472,-120.4087948,4294.4851544839,76.115488,0,0.40501313632,13400,2018-06-07 20:16:45,12,0,23.615,4294.4851544839,76.115488,0.223694,1.03418966564,0,0,-0.671082,52.1, 0.5, -0.8,0,0,1024,1024,1024,1024,52.6,-90,97,3.94,3.918,3.941,3.945,3.966,3.95,19.134,75.2,14,Waypoint,
38.7448471,-120.4087947,4295.4694064839,77.09974,0,0.42839896384,13500,2018-06-07 20:16:45,12,0,23.615,4295.4694064839,77.09974,0.223694,1.03418966564,0,0,-0.671082,52.1, 0.4, -0.4,0,0,1024,1024,1024,1024,52.6,-90,97,3.94,3.918,3.941,3.945,3.966,3.95,19.134,75.2,14,Waypoint,
38.744847,-120.4087946,4296.4536584839,78.083992,0,0.455298571,13600,2018-06-07 20:16:45,12,0,23.615,4296.4536584839,78.083992,0.223694,1.03418966564,0,0,-0.671082,52.1, 0.6, -0.4,0,0,1024,1024,1024,1024,52.6,-89.9,97,3.94,3.918,3.941,3.945,3.966,3.95,19.134,75.2,14,Waypoint,
38.744847,-120.4087946,4297.4379104839,79.068244,0,0.455298571,13700,2018-06-07 20:16:45,12,0,23.615,4297.4379104839,79.068244,0.223694,1.03418966564,0,0,-0.671082,52.3, 0.8, -0.3,0,0,1024,1024,1024,1024,52.6,-89.9,97,3.94,3.918,3.941,3.945,3.966,3.95,19.134,75.2,14,Waypoint,
38.7448469,-120.4087945,4298.4221624839,80.052496,0,0.48512796828,13800,2018-06-07 20:16:45,12,0,23.615,4298.4221624839,80.052496,0.223694,1.03418966564,0,0,-0.671082,52.4, 1.1, -0.6,0,0,1024,1024,1024,1024,52.6,-89.9,97,3.94,3.918,3.941,3.945,3.966,3.95,19.134,75.2,14,Waypoint,
38.7448469,-120.4087944,4299.4064144839,81.036748,0,0.51350723428,13900,2018-06-07 20:16:45,12,0,23.615,4299.4064144839,81.036748,0.223694,1.03418966564,0,0,-0.671082,52.5, 1.3, -1.2,0,0,1024,1024,1024,1024,52.6,-89.9,97,3.94,3.918,3.941,3.945,3.966,3.95,19.134,75.2,14,Waypoint,
38.7448468,-120.4087943,4301.3749184839,83.005252,0,0.54556760276,14100,2018-06-07 20:16:45,12,0,23.615,4301.3749184839,83.005252,0.223694,1.03418966564,0,0,-0.671082,52.5, 1.8, -1.7,0,0,1024,1024,1024,1024,52.6,-89.9,97,3.94,3.918,3.941,3.945,3.966,3.95,19.134,75.2,14,Waypoint,
38.7448468,-120.4087943,4302.3591704839,83.989504,0,0.54556760276,14200,2018-06-07 20:16:45,12,0,23.615,4302.3591704839,83.989504,0.223694,1.03418966564,0,0,-0.671082,52.4, 2, -1.4,0,0,1024,1024,1024,1024,52.6,-89.9,97,3.94,3.918,3.941,3.945,3.966,3.95,19.134,75.2,14,Waypoint,
38.7448468,-120.4087942,4303.3434224839,84.973756,0,0.57377954592,14300,2018-06-07 20:16:45,12,0,23.615,4303.3434224839,84.973756,0.223694,1.03418966564,0,0,-0.671082,52.3, 2.1, -1.1,0,0,1024,1024,1024,1024,52.6,-89.9,97,3.94,3.918,3.941,3.945,3.966,3.95,19.134,75.2,14,Waypoint,
38.7448468,-120.408794,4305.3119264839,86.94226,0,0.63027232988,14600,2018-06-07 20:16:46,12,0,23.615,4305.3119264839,86.94226,0.223694,1.03418966564,0,0,-0.671082,51.9, 2.3, -1.3,0,0,1024,1024,1024,1024,52.6,-89.9,97,3.94,3.918,3.941,3.945,3.966,3.95,19.134,75.2,14,Waypoint,
38.7448468,-120.4087938,4307.2804304839,88.910764,0,0.68683401148,14700,2018-06-07 20:16:46,12,0,23.615,4307.2804304839,88.910764,0.223694,1.03418966564,0,0,-0.671082,51.8, 2.3, -1.8,0,0,1024,1024,1024,1024,52.6,-89.9,97,3.94,3.918,3.941,3.945,3.966,3.95,19.134,75.2,14,Waypoint,
38.7448467,-120.4087938,4308.2646824839,89.895016,0,0.69166012712,14900,2018-06-07 20:16:46,12,0,23.615,4308.2646824839,89.895016,0.223694,1.03418966564,0,0,-0.671082,51.8, 2.1, -1.8,0,0,1024,1024,1024,1024,52.6,-89.9,97,3.94,3.918,3.941,3.945,3.966,3.95,19.134,75.2,14,Waypoint,
38.7448467,-120.4087937,4309.2489344839,90.879268,0,0.71977364508,15000,2018-06-07 20:16:46,12,0,23.559,4309.2489344839,90.879268,0.223694,1.03418966564,0,0,-0.671082,51.9, 2, -2.1,0,0,1024,1024,1024,1024,52.6,-89.9,97,3.909,3.905,3.927,3.921,3.94,3.932,19.351,75.2,14,Waypoint,
38.7448467,-120.4087936,4310.2331864839,91.86352,0,0.74791012892,15100,2018-06-07 20:16:46,12,0,23.559,4310.2331864839,91.86352,0.223694,1.03418966564,0,0,-0.671082,52, 1.7, -2.3,0,0,1024,1024,1024,1024,52.6,-89.9,97,3.909,3.905,3.927,3.921,3.94,3.932,19.351,75.2,14,Waypoint,
38.7448466,-120.4087935,4312.2016904839,93.832024,0,0.78205054996,15300,2018-06-07 20:16:46,12,0,23.559,4312.2016904839,93.832024,0.223694,1.03418966564,0,0,-0.671082,51.7, 2, -2.5,0,0,1024,1024,1024,1024,52.6,-89.9,97,3.909,3.905,3.927,3.921,3.94,3.932,19.351,75.2,14,Waypoint,
38.7448467,-120.4087936,4313.8421104839,95.472444,0,0.74791012892,15500,2018-06-07 20:16:47,12,0,23.559,4313.8421104839,95.472444,0.223694,1.03418966564,0,0,-0.671082,51.8, 2, -1.6,0,0,1024,1024,1024,1024,52.6,-89.9,97,3.909,3.905,3.927,3.921,3.94,3.932,19.351,75.2,14,Waypoint,
38.7448468,-120.4087935,4314.8263624839,96.456696,0,0.77177167824,15600,2018-06-07 20:16:47,12,0,23.559,4314.8263624839,96.456696,0.223694,1.03418966564,0,0,-0.671082,52, 2.2, -1.2,0,0,1024,1024,1024,1024,52.6,-89.9,97,3.909,3.905,3.927,3.921,3.94,3.932,19.351,75.2,14,Waypoint,
38.744847,-120.4087934,4316.7948664839,98.4252,0,0.79677167904,15800,2018-06-07 20:16:47,12,0,23.559,4316.7948664839,98.4252,0.223694,1.03418966564,0,0,-0.671082,52.2, 2.9, -1,0,0,1024,1024,1024,1024,52.6,-89.9,97,3.909,3.905,3.927,3.921,3.94,3.932,19.351,75.2,14,Waypoint,
38.744847,-120.4087933,4317.7791184839,99.409452,0,0.82522640436,15900,2018-06-07 20:16:47,12,0,23.559,4317.7791184839,99.409452,0.223694,1.03418966564,0,0,-0.671082,52.3, 3.2, -1.4,0,0,1024,1024,1024,1024,52.6,-89.9,97,3.909,3.905,3.927,3.921,3.94,3.932,19.351,75.2,14,Waypoint,
38.7448471,-120.4087933,4318.7633704839,100.393704,0,0.826033491,16100,2018-06-07 20:16:47,12,0,23.559,4318.7633704839,100.393704,0.223694,1.03418966564,0,0,-0.671082,52.3, 3.1, -1.5,0,0,1024,1024,1024,1024,52.6,-89.9,97,3.909,3.905,3.927,3.921,3.94,3.932,19.351,75.2,14,Waypoint,
38.7448471,-120.4087933,4319.7476224839,101.377956,0,0.826033491,16200,2018-06-07 20:16:47,12,0,23.559,4319.7476224839,101.377956,0.223694,1.03418966564,0,0,-0.671082,52.5, 3.3, -0.7,0,0,1024,1024,1024,1024,52.6,-89.9,97,3.909,3.905,3.927,3.921,3.94,3.932,19.351,75.2,14,Waypoint,
38.7448472,-120.4087933,4320.7318744839,102.362208,0,0.82844818924,16300,2018-06-07 20:16:47,12,0,23.559,4320.7318744839,102.362208,0.223694,1.03418966564,0,0,-0.671082,52.5, 3.7, -0.5,0,0,1024,1024,1024,1024,52.6,-89.9,97,3.909,3.905,3.927,3.921,3.94,3.932,19.351,75.2,14,Waypoint,
38.7448473,-120.4087933,4322.7003784839,104.330712,0,0.83245409488,16500,2018-06-07 20:16:48,12,0,23.559,4322.7003784839,104.330712,0.223694,1.03418966564,0,0,-0.671082,51.8, 3.4, -1.9,0,0,1024,1024,1024,1024,52.6,-89.9,97,3.909,3.905,3.927,3.921,3.94,3.932,19.351,75.2,14,Waypoint,
38.7448473,-120.4087932,4323.6846304839,105.314964,0,0.86067259972,16700,2018-06-07 20:16:48,12,0,23.559,4323.6846304839,105.314964,0.223694,1.03418966564,0,0,-0.671082,51.4, 3, -2,0,0,1024,1024,1024,1024,52.6,-89.9,97,3.909,3.905,3.927,3.921,3.94,3.932,19.351,75.2,14,Waypoint,
38.7448472,-120.4087932,4324.9969664839,106.6273,0,0.85679464684,16800,2018-06-07 20:16:48,12,0,23.559,4324.9969664839,106.6273,0.223694,1.03418966564,0,0,-0.671082,51.1, 2.6, -2.4,0,0,1024,1024,1024,1024,52.6,-90,97,3.909,3.905,3.927,3.921,3.94,3.932,19.351,75.2,14,Waypoint,
38.7448472,-120.408793,4328.9339744839,110.564308,0.223694,0.91351380876,16910,2018-06-07 20:16:48,12,0,23.559,4328.9339744839,110.564308,0.223694,1.03418966564,0,0,-0.671082,51.8, 2.6, -3.1,0,0,1024,1024,1024,1024,52.6,-89.9,97,3.909,3.905,3.927,3.921,3.94,3.932,19.351,75.2,14,Waypoint,
38.7448472,-120.4087929,4329.9182264839,111.54856,0.223694,0.94188323224,17300,2018-06-07 20:16:48,12,0,23.559,4329.9182264839,111.54856,0.223694,1.03418966564,0,0,-0.671082,52.1, 3.9, -3.4,0,0,1024,1024,1024,1024,52.6,-89.9,97,3.909,3.905,3.927,3.921,3.94,3.932,19.351,75.2,14,Waypoint,
38.7448473,-120.4087928,4330.9024784839,112.532812,0.223694,0.97367785268,17410,2018-06-07 20:16:49,12,0,23.559,4330.9024784839,112.532812,0.223694,1.03418966564,0,0,-0.671082,52.3, 4.6, -3.1,0,0,1024,1024,1024,1024,52.6,-89.9,97,3.909,3.905,3.927,3.921,3.94,3.932,19.351,75.2,14,Waypoint,
38.7448474,-120.4087926,4332.5428984839,114.173232,0,1.03476381264,17700,2018-06-07 20:16:49,12,0,23.559,4332.5428984839,114.173232,0.223694,1.03476381264,0,0,-0.671082,52.4, 5.2, -2.1,0,0,1024,1024,1024,1024,52.6,-89.9,97,3.909,3.905,3.927,3.921,3.94,3.932,19.351,75.2,14,Waypoint,
38.7448476,-120.4087925,4335.4956544839,117.125988,0,1.0753937352,17840,2018-06-07 20:16:49,12,0,23.559,4335.4956544839,117.125988,0.223694,1.0753937352,0,0,-0.671082,52.1, 4.9, -2.6,0,0,1024,1024,1024,1024,52.6,-89.9,97,3.909,3.905,3.927,3.921,3.94,3.932,19.351,75.2,14,Waypoint,
38.7448476,-120.4087925,4335.4956544839,117.125988,0,1.0753937352,17900,2018-06-07 20:16:49,12,0,23.559,4335.4956544839,117.125988,0.223694,1.0753937352,0,0,-0.671082,52.1, 4.9, -2.6,0,0,1024,1024,1024,1024,52.6,-89.9,97,3.909,3.905,3.927,3.921,3.94,3.932,19.351,75.2,14,Waypoint,
38.7448476,-120.4087924,4337.1360744839,118.766408,0,1.10326775184,18110,2018-06-07 20:16:49,12,0,23.559,4337.1360744839,118.766408,0.223694,1.10326775184,0,0,-0.671082,51.9, 4.5, -2.7,0,0,1024,1024,1024,1024,52.6,-89.9,97,3.909,3.905,3.927,3.921,3.94,3.932,19.351,75.2,14,Waypoint,
38.7448476,-120.4087923,4338.1203264839,119.75066,0,1.13117129604,18210,2018-06-07 20:16:49,12,0,23.559,4338.1203264839,119.75066,0.223694,1.13117129604,0,0,-0.671082,51.9, 4.4, -3.1,0,0,1024,1024,1024,1024,52.6,-89.9,97,3.909,3.905,3.927,3.921,3.94,3.932,19.351,75.2,14,Waypoint,
38.7448475,-120.4087923,4339.1045784839,120.734912,0,1.12468179452,18400,2018-06-07 20:16:50,12,0,23.559,4339.1045784839,120.734912,0.223694,1.13117129604,0,0,-0.671082,51.8, 4.4, -3.5,0,0,1024,1024,1024,1024,52.6,-89.9,97,3.909,3.905,3.927,3.921,3.94,3.932,19.351,75.2,14,Waypoint,
38.7448475,-120.408792,4342.0573344839,123.687668,0,1.20899938252,18500,2018-06-07 20:16:50,12,0,23.559,4342.0573344839,123.687668,0.223694,1.20899938252,0,0,-0.671082,51.9, 4.1, -3.9,0,0,1024,1024,1024,1024,52.6,-89.9,97,3.909,3.905,3.927,3.921,3.94,3.932,19.351,75.2,14,Waypoint,
38.7448475,-120.408792,4343.0415864839,124.67192,0,1.20899938252,18700,2018-06-07 20:16:50,12,0,23.559,4343.0415864839,124.67192,0.223694,1.20899938252,0,0,-0.671082,51.8, 4.4, -4,0,0,1024,1024,1024,1024,52.6,-89.9,97,3.909,3.905,3.927,3.921,3.94,3.932,19.351,75.2,14,Waypoint,
38.7448475,-120.4087919,4345.9943424839,127.624676,0,1.23713586636,19000,2018-06-07 20:16:50,12,0,23.551,4345.9943424839,127.624676,0.223694,1.23713586636,0,0,-0.671082,51.8, 4.8, -4.7,0,0,1024,1024,1024,1024,52.6,-89.9,96,3.913,3.9,3.914,3.915,3.942,3.929,19.342,75.2,14,Waypoint,
38.7448475,-120.4087918,4347.9628464839,129.59318,0,1.2652887544,19100,2018-06-07 20:16:50,12,0,23.551,4347.9628464839,129.59318,0.223694,1.2652887544,0,0,-0.671082,51.9, 4.5, -4.8,0,0,1024,1024,1024,1024,52.6,-89.9,96,3.913,3.9,3.914,3.915,3.942,3.929,19.342,75.2,14,Waypoint,
38.7448475,-120.4087918,4348.9470984839,130.577432,0,1.2652887544,19200,2018-06-07 20:16:50,12,0,23.551,4348.9470984839,130.577432,0.223694,1.2652887544,0,0,-0.671082,51.9, 4.6, -4.4,0,0,1024,1024,1024,1024,52.6,-89.9,96,3.913,3.9,3.914,3.915,3.942,3.929,19.342,75.2,14,Waypoint,
38.7448477,-120.4087918,4350.5875184839,132.217852,0,1.27785109076,19500,2018-06-07 20:16:51,12,0,23.551,4350.5875184839,132.217852,0.223694,1.27785109076,0,0,-0.671082,51.9, 4.9, -3.6,0,0,1024,1024,1024,1024,52.6,-89.9,96,3.913,3.9,3.914,3.915,3.942,3.929,19.342,75.2,14,Waypoint,
38.7448478,-120.4087918,4352.5560224839,134.186356,0,1.28563980492,19600,2018-06-07 20:16:51,12,0,23.551,4352.5560224839,134.186356,0.223694,1.28563980492,0,0,-0.671082,51.8, 5.3, -3.3,0,0,1024,1024,1024,1024,52.6,-89.9,96,3.913,3.9,3.914,3.915,3.942,3.929,19.342,75.2,14,Waypoint,
38.7448479,-120.4087919,4353.5402744839,135.170608,0,1.26690620852,19700,2018-06-07 20:16:51,12,0,23.551,4353.5402744839,135.170608,0.223694,1.28563980492,0,0,-0.671082,51.8, 5.1, -3.4,0,0,1024,1024,1024,1024,52.6,-89.9,96,3.913,3.9,3.914,3.915,3.942,3.929,19.342,75.2,14,Waypoint,
38.7448479,-120.4087919,4354.5245264839,136.15486,0,1.26690620852,19800,2018-06-07 20:16:51,12,0,23.551,4354.5245264839,136.15486,0.223694,1.28563980492,0,0,-0.671082,51.8, 5.1, -3.3,0,0,1024,1024,1024,1024,52.6,-89.9,96,3.913,3.9,3.914,3.915,3.942,3.929,19.342,75.2,14,Waypoint,
38.744848,-120.4087919,4358.4615344839,140.091868,0,1.27684715372,20110,2018-06-07 20:16:51,12,0,23.551,4358.4615344839,140.091868,0.223694,1.28563980492,0,0,-0.671082,51.9, 5, -3.9,0,0,1024,1024,1024,1024,52.6,-89.9,96,3.913,3.9,3.914,3.915,3.942,3.929,19.342,75.2,14,Waypoint,
38.744848,-120.4087919,4359.7738704839,141.404204,0,1.27684715372,20300,2018-06-07 20:16:51,12,0,23.551,4359.7738704839,141.404204,0.223694,1.28563980492,0,0,-0.671082,51.8, 4.7, -3.9,0,0,1024,1024,1024,1024,52.6,-89.9,96,3.913,3.9,3.914,3.915,3.942,3.929,19.342,75.2,14,Waypoint,
38.7448479,-120.4087919,4360.7581224839,142.388456,0,1.26690620852,20400,2018-06-07 20:16:52,12,0,23.551,4360.7581224839,142.388456,0.223694,1.28563980492,0,0,-0.671082,51.7, 4.9, -3.9,0,0,1024,1024,1024,1024,52.6,-89.9,96,3.913,3.9,3.914,3.915,3.942,3.929,19.342,75.2,14,Waypoint,
38.7448477,-120.4087919,4364.0389624839,145.669296,0,1.24998035496,20600,2018-06-07 20:16:52,12,0,23.551,4364.0389624839,145.669296,0.223694,1.28563980492,0,0,-0.671082,51.7, 5, -4.9,0,0,1024,1024,1024,1024,52.6,-89.9,96,3.913,3.9,3.914,3.915,3.942,3.929,19.342,75.2,14,Waypoint,
38.7448476,-120.4087919,4365.0232144839,146.653548,0,1.24304137836,20700,2018-06-07 20:16:52,12,0,23.551,4365.0232144839,146.653548,0.223694,1.28563980492,0,0,-0.671082,51.9, 5.1, -5.2,0,0,1024,1024,1024,1024,52.6,-89.9,96,3.913,3.9,3.914,3.915,3.942,3.929,19.342,75.2,14,Waypoint,
38.7448476,-120.4087919,4366.0074664839,147.6378,0,1.24304137836,20900,2018-06-07 20:16:52,12,0,23.551,4366.0074664839,147.6378,0.223694,1.28563980492,0,0,-0.671082,52, 5.2, -5.1,0,0,1024,1024,1024,1024,52.6,-89.9,96,3.913,3.9,3.914,3.915,3.942,3.929,19.342,75.2,14,Waypoint,
38.7448475,-120.4087919,4367.3198024839,148.950136,0,1.23713586636,21000,2018-06-07 20:16:52,12,0,23.177,4367.3198024839,148.950136,0.223694,1.28563980492,0,0,-0.671082,52.2, 5.2, -4.7,0,0,1024,1024,1024,1024,52.6,-89.9,96,3.856,3.842,3.868,3.861,3.883,3.884,22.029,75.2,14,Waypoint,
38.7448474,-120.4087918,4369.2883064839,150.91864,0,1.26054465976,21200,2018-06-07 20:16:52,12,0,23.177,4369.2883064839,150.91864,0.223694,1.28563980492,0,0,-0.671082,52.3, 5.2, -4.7,0,0,1024,1024,1024,1024,52.6,-89.9,96,3.856,3.842,3.868,3.861,3.883,3.884,22.029,75.2,14,Waypoint,
38.7448473,-120.4087918,4370.2725584839,151.902892,0,1.25684387224,21300,2018-06-07 20:16:52,12,0,23.177,4370.2725584839,151.902892,0.223694,1.28563980492,0,0,-0.671082,52.2, 5.3, -4.8,0,0,1024,1024,1024,1024,52.6,-89.9,96,3.856,3.842,3.868,3.861,3.883,3.884,22.029,75.2,14,Waypoint,
38.7448473,-120.4087918,4372.2410624839,153.871396,0,1.25684387224,21500,2018-06-07 20:16:53,12,0,23.177,4372.2410624839,153.871396,0.223694,1.28563980492,0,0,-0.671082,52.1, 5.6, -4.4,0,0,1024,1024,1024,1024,52.6,-89.9,96,3.856,3.842,3.868,3.861,3.883,3.884,22.029,75.2,14,Waypoint,
38.7448473,-120.4087918,4373.2253144839,154.855648,0,1.25684387224,21600,2018-06-07 20:16:53,12,0,23.177,4373.2253144839,154.855648,0.223694,1.28563980492,0,0,-0.671082,52, 5.7, -4.4,0,0,1024,1024,1024,1024,52.6,-89.9,96,3.856,3.842,3.868,3.861,3.883,3.884,22.029,75.2,14,Waypoint,
38.7448472,-120.4087919,4375.5219024839,157.152236,0,1.2257874408,21720,2018-06-07 20:16:53,12,0,23.177,4375.5219024839,157.152236,0.223694,1.28563980492,0,0,-0.671082,51.9, 5.3, -4.2,0,0,1024,1024,1024,1024,52.6,-89.9,96,3.856,3.842,3.868,3.861,3.883,3.884,22.029,75.2,14,Waypoint,
38.7448472,-120.4087919,4376.5061544839,158.136488,0,1.2257874408,21900,2018-06-07 20:16:53,12,0,23.177,4376.5061544839,158.136488,0.223694,1.28563980492,0,0,-0.671082,51.8, 5.5, -4.2,0,0,1024,1024,1024,1024,52.6,-89.9,96,3.856,3.842,3.868,3.861,3.883,3.884,22.029,75.2,14,Waypoint,
38.7448471,-120.408792,4378.4746584839,160.104992,0,1.19571198052,22000,2018-06-07 20:16:53,12,0,23.287,4378.4746584839,160.104992,0.223694,1.28563980492,0,0,-0.671082,51.9, 5.6, -4.2,0,0,1024,1024,1024,1024,52.6,-89.9,96,3.879,3.868,3.88,3.875,3.896,3.898,20.294,77,14,Waypoint,
38.744847,-120.408792,4380.4431624839,162.073496,0,1.19515751856,22300,2018-06-07 20:16:53,12,0,23.287,4380.4431624839,162.073496,0.223694,1.28563980492,0,0,-0.671082,52.1, 5.4, -4.6,0,0,1024,1024,1024,1024,52.6,-89.9,96,3.879,3.868,3.88,3.875,3.896,3.898,20.294,77,14,Waypoint,
38.7448469,-120.4087921,4382.4116664839,164.042,0,1.16727037856,22400,2018-06-07 20:16:54,12,0,23.287,4382.4116664839,164.042,0.223694,1.28563980492,0,0,-0.671082,52, 4.8, -5.3,0,0,1024,1024,1024,1024,52.6,-90,96,3.879,3.868,3.88,3.875,3.896,3.898,20.294,77,14,Waypoint,
38.7448467,-120.4087921,4384.3801704839,166.010504,0,1.17182418448,22700,2018-06-07 20:16:54,12,0,23.287,4384.3801704839,166.010504,0.223694,1.28563980492,0,0,-0.671082,52, 5, -5.2,0,0,1024,1024,1024,1024,52.6,-89.9,96,3.879,3.868,3.88,3.875,3.896,3.898,20.294,77,14,Waypoint,
38.7448467,-120.4087921,4386.3486744839,167.979008,0,1.17182418448,22800,2018-06-07 20:16:54,12,0,23.287,4386.3486744839,167.979008,0.223694,1.28563980492,0,0,-0.671082,52, 5.8, -4.7,0,0,1024,1024,1024,1024,52.6,-89.9,96,3.879,3.868,3.88,3.875,3.896,3.898,20.294,77,14,Waypoint,
38.7448468,-120.4087922,4388.3171784839,169.947512,0,1.14058074516,23000,2018-06-07 20:16:54,12,0,23.274,4388.3171784839,169.947512,0.223694,1.28563980492,0,0,-0.671082,51.9, 5.3, -4.4,0,0,1024,1024,1024,1024,52.6,-89.9,96,3.879,3.868,3.88,3.875,3.896,3.898,20.438,77,14,Waypoint,
38.7448468,-120.4087923,4389.3014304839,170.931764,0,1.11218507496,23200,2018-06-07 20:16:54,12,0,23.274,4389.3014304839,170.931764,0.223694,1.28563980492,0,0,-0.671082,51.8, 5, -4.6,0,0,1024,1024,1024,1024,52.6,-90,96,3.879,3.868,3.88,3.875,3.896,3.898,20.438,77,14,Waypoint,
38.7448467,-120.4087924,4391.5980184839,173.228352,0,1.08685699016,23400,2018-06-07 20:16:55,12,0,23.274,4391.5980184839,173.228352,0.223694,1.28563980492,0,0,-0.671082,51.8, 4.3, -4.6,0,0,1024,1024,1024,1024,52.6,-90,96,3.879,3.868,3.88,3.875,3.896,3.898,20.438,77,14,Waypoint,
38.7448466,-120.4087925,4392.2541864839,173.88452,0,1.0629429474,23500,2018-06-07 20:16:55,12,0,23.274,4392.2541864839,173.88452,0.223694,1.28563980492,0,0,-0.671082,51.8, 4.1, -4.8,0,0,1024,1024,1024,1024,52.6,-90,96,3.879,3.868,3.88,3.875,3.896,3.898,20.438,77,14,Waypoint,
38.7448466,-120.4087926,4393.2384384839,174.868772,0,1.03476381264,23600,2018-06-07 20:16:55,12,0,23.274,4393.2384384839,174.868772,0.223694,1.28563980492,0,0,-0.671082,51.7, 3.9, -4.9,0,0,1024,1024,1024,1024,52.6,-90,96,3.879,3.868,3.88,3.875,3.896,3.898,20.438,77,14,Waypoint,
38.7448464,-120.4087926,4395.2069424839,176.837276,0,1.04754924612,23800,2018-06-07 20:16:55,12,0,23.274,4395.2069424839,176.837276,0.223694,1.28563980492,0,0,-0.671082,51.7, 4.1, -5.7,0,0,1024,1024,1024,1024,52.6,-90,96,3.879,3.868,3.88,3.875,3.896,3.898,20.438,77,14,Waypoint,
38.7448462,-120.4087928,4399.1439504839,180.774284,0,1.01057746016,24100,2018-06-07 20:16:55,12,0,23.274,4399.1439504839,180.774284,0.223694,1.28563980492,0,0,-0.671082,51.9, 3.5, -5,0,0,1024,1024,1024,1024,52.6,-90,96,3.879,3.868,3.88,3.875,3.896,3.898,20.438,77,14,Waypoint,
38.7448462,-120.4087929,4401.7686224839,183.398956,0,0.9833661732,24520,2018-06-07 20:16:56,12,0,23.274,4401.7686224839,183.398956,0.223694,1.28563980492,0,0,-0.671082,51.9, 4.2, -5.1,0,0,1024,1024,1024,1024,52.6,-89.9,96,3.879,3.868,3.88,3.875,3.896,3.898,20.438,77,14,Waypoint,
38.7448461,-120.408793,4403.7371264839,185.36746,0,0.96799215696,24600,2018-06-07 20:16:56,12,0,23.274,4403.7371264839,185.36746,0.223694,1.28563980492,0,0,-0.671082,51.9, 4.1, -5.1,0,0,1024,1024,1024,1024,52.6,-90,96,3.879,3.868,3.88,3.875,3.896,3.898,20.438,77,14,Waypoint,
38.7448461,-120.4087931,4405.7056304839,187.335964,0,0.941272996,24800,2018-06-07 20:16:56,12,0,23.274,4405.7056304839,187.335964,0.223694,1.28563980492,0,0,-0.671082,51.7, 3.4, -5,0,0,1024,1024,1024,1024,52.6,-89.9,96,3.879,3.868,3.88,3.875,3.896,3.898,20.438,77,14,Waypoint,
38.7448462,-120.4087932,4407.6741344839,189.304468,0,0.90220147244,25100,2018-06-07 20:16:56,12,0,23.274,4407.6741344839,189.304468,0.223694,1.28563980492,0,0,-0.671082,51.7, 3.7, -4.7,0,0,1024,1024,1024,1024,52.6,-89.9,96,3.879,3.868,3.88,3.875,3.896,3.898,20.438,77,14,Waypoint,
38.7448462,-120.4087933,4408.6583864839,190.28872,0,0.87532483116,25200,2018-06-07 20:16:56,12,0,23.274,4408.6583864839,190.28872,0.223694,1.28563980492,0,0,-0.671082,51.8, 3.8, -4.7,0,0,1024,1024,1024,1024,52.6,-89.9,96,3.879,3.868,3.88,3.875,3.896,3.898,20.438,77,14,Waypoint,
38.7448462,-120.4087933,4409.6426384839,191.272972,0,0.87532483116,25300,2018-06-07 20:16:56,12,0,23.274,4409.6426384839,191.272972,0.223694,1.28563980492,0,0,-0.671082,51.9, 3.8, -4.6,0,0,1024,1024,1024,1024,52.6,-89.9,96,3.879,3.868,3.88,3.875,3.896,3.898,20.438,77,14,Waypoint,
38.7448462,-120.4087933,4410.6268904839,192.257224,0,0.87532483116,25400,2018-06-07 20:16:57,12,0,23.274,4410.6268904839,192.257224,0.223694,1.28563980492,0,0,-0.671082,51.9, 3.8, -4.6,0,0,1024,1024,1024,1024,52.6,-89.9,96,3.879,3.868,3.88,3.875,3.896,3.898,20.438,77,14,Waypoint,
38.7448463,-120.4087935,4413.5796464839,195.20998,0,0.80964897604,25500,2018-06-07 20:16:57,12,0,23.274,4413.5796464839,195.20998,0.223694,1.28563980492,0,0,-0.671082,52.1, 4, -4.9,0,0,1024,1024,1024,1024,52.6,-89.9,96,3.879,3.868,3.88,3.875,3.896,3.898,20.438,77,14,Waypoint,
38.7448463,-120.4087935,4414.5638984839,196.194232,0,0.80964897604,25700,2018-06-07 20:16:57,12,0,23.274,4414.5638984839,196.194232,0.223694,1.28563980492,0,0,-0.671082,52.2, 4, -4.8,0,0,1024,1024,1024,1024,52.6,-89.9,96,3.879,3.868,3.88,3.875,3.896,3.898,20.438,77,14,Waypoint,
38.7448462,-120.4087935,4415.5481504839,197.178484,0,0.82188979008,25810,2018-06-07 20:16:57,12,0,23.274,4415.5481504839,197.178484,0.223694,1.28563980492,0,0,-0.671082,52.4, 4, -5,0,0,1024,1024,1024,1024,52.6,-89.9,96,3.879,3.868,3.88,3.875,3.896,3.898,20.438,77,14,Waypoint,
38.7448462,-120.4087936,4416.5324024839,198.162736,0,0.79535107532,26000,2018-06-07 20:16:57,12,0,23.056,4416.5324024839,198.162736,0.223694,1.28563980492,0,0,-0.671082,52.5, 3.7, -5.1,0,0,1024,1024,1024,1024,52.6,-89.9,96,3.826,3.813,3.829,3.832,3.844,3.834,22.85,77,14,Waypoint,
38.7448463,-120.4087937,4418.5009064839,200.13124,0,0.7558563234,26130,2018-06-07 20:16:57,12,0,23.056,4418.5009064839,200.13124,0.223694,1.28563980492,0,0,-0.671082,52.4, 3.6, -4.3,0,0,1024,1024,1024,1024,52.6,-89.9,96,3.826,3.813,3.829,3.832,3.844,3.834,22.85,77,14,Waypoint,
38.7448463,-120.4087937,4420.4694104839,202.099744,0,0.7558563234,26210,2018-06-07 20:16:57,12,0,23.056,4420.4694104839,202.099744,0.223694,1.28563980492,0,0,-0.671082,52.2, 3.5, -4.2,0,0,1024,1024,1024,1024,52.6,-89.9,96,3.826,3.813,3.829,3.832,3.844,3.834,22.85,77,14,Waypoint,
38.7448463,-120.4087938,4421.4536624839,203.083996,0,0.72913716244,26300,2018-06-07 20:16:57,12,0,23.056,4421.4536624839,203.083996,0.223694,1.28563980492,0,0,-0.671082,52.1, 3.7, -4.2,0,0,1024,1024,1024,1024,52.6,-89.9,96,3.826,3.813,3.829,3.832,3.844,3.834,22.85,77,14,Waypoint,
38.7448463,-120.4087938,4422.4379144839,204.068248,0,0.72913716244,26400,2018-06-07 20:16:58,12,0,23.056,4422.4379144839,204.068248,0.223694,1.28563980492,0,0,-0.671082,52, 3.8, -4.4,0,0,1024,1024,1024,1024,52.6,-89.9,96,3.826,3.813,3.829,3.832,3.844,3.834,22.85,77,14,Waypoint,
38.7448464,-120.4087939,4425.0625864839,206.69292,0,0.69012797484,26500,2018-06-07 20:16:58,12,0,23.056,4425.0625864839,206.69292,0.223694,1.28563980492,0,0,-0.671082,51.9, 4.1, -3.4,0,0,1024,1024,1024,1024,52.6,-89.9,96,3.826,3.813,3.829,3.832,3.844,3.834,22.85,77,14,Waypoint,
38.7448464,-120.4087939,4426.0468384839,207.677172,0,0.69012797484,26600,2018-06-07 20:16:58,12,0,23.056,4426.0468384839,207.677172,0.223694,1.28563980492,0,0,-0.671082,51.9, 4, -3.7,0,0,1024,1024,1024,1024,52.6,-89.9,96,3.826,3.813,3.829,3.832,3.844,3.834,22.85,77,14,Waypoint,
38.7448464,-120.4087939,4427.3591744839,208.989508,0,0.69012797484,26700,2018-06-07 20:16:58,12,0,23.056,4427.3591744839,208.989508,0.223694,1.28563980492,0,0,-0.671082,51.8, 4, -4,0,0,1024,1024,1024,1024,52.6,-90,96,3.826,3.813,3.829,3.832,3.844,3.834,22.85,77,14,Waypoint,
38.7448463,-120.4087939,4428.3434264839,209.97376,0,0.70255579676,26900,2018-06-07 20:16:58,12,0,23.056,4428.3434264839,209.97376,0.223694,1.28563980492,0,0,-0.671082,51.9, 3.7, -4.3,0,0,1024,1024,1024,1024,52.6,-89.9,96,3.826,3.813,3.829,3.832,3.844,3.834,22.85,77,14,Waypoint,
38.7448463,-120.4087939,4429.3276784839,210.958012,0,0.70255579676,27000,2018-06-07 20:16:58,12,0,23.021,4429.3276784839,210.958012,0.223694,1.28563980492,0,0,-0.671082,51.9, 3.6, -4.8,0,0,1024,1024,1024,1024,52.6,-89.9,95,3.831,3.81,3.837,3.825,3.852,3.839,22.592,77,14,Waypoint,
38.7448463,-120.4087938,4430.3119304839,211.942264,0,0.72913716244,27100,2018-06-07 20:16:58,12,0,23.021,4430.3119304839,211.942264,0.223694,1.28563980492,0,0,-0.671082,52, 3.7, -4.9,0,0,1024,1024,1024,1024,52.6,-89.9,95,3.831,3.81,3.837,3.825,3.852,3.839,22.592,77,14,Waypoint,
38.7448463,-120.4087938,4431.2961824839,212.926516,0,0.72913716244,27200,2018-06-07 20:16:58,12,0,23.021,4431.2961824839,212.926516,0.223694,1.28563980492,0,0,-0.671082,52, 3.9, -4.4,0,0,1024,1024,1024,1024,52.6,-89.9,95,3.831,3.81,3.837,3.825,3.852,3.839,22.592,77,14,Waypoint,
38.7448462,-120.4087938,4433.2646864839,214.89502,0,0.74270343584,27300,2018-06-07 20:16:58,12,0,23.021,4433.2646864839,214.89502,0.223694,1.28563980492,0,0,-0.671082,51.9, 3.9, -4.6,0,0,1024,1024,1024,1024,52.6,-89.9,95,3.831,3.81,3.837,3.825,3.852,3.839,22.592,77,14,Waypoint,
38.7448461,-120.4087938,4434.2489384839,215.879272,0,0.75778545732,27400,2018-06-07 20:16:59,12,0,23.021,4434.2489384839,215.879272,0.223694,1.28563980492,0,0,-0.671082,51.8, 4, -5.3,0,0,1024,1024,1024,1024,52.6,-89.9,95,3.831,3.81,3.837,3.825,3.852,3.839,22.592,77,14,Waypoint,
38.744846,-120.4087938,4435.2331904839,216.863524,0,0.7742946442,27600,2018-06-07 20:16:59,12,0,23.021,4435.2331904839,216.863524,0.223694,1.28563980492,0,0,-0.671082,51.9, 3.6, -5.9,0,0,1024,1024,1024,1024,52.6,-89.9,95,3.831,3.81,3.837,3.825,3.852,3.839,22.592,77,14,Waypoint,
38.744846,-120.4087937,4436.5455264839,218.17586,0,0.79950461876,27700,2018-06-07 20:16:59,12,0,23.021,4436.5455264839,218.17586,0.223694,1.28563980492,0,0,-0.671082,52, 3.4, -5.9,0,0,1024,1024,1024,1024,52.6,-90,95,3.831,3.81,3.837,3.825,3.852,3.839,22.592,77,14,Waypoint,
38.7448459,-120.4087938,4437.2016944839,218.832028,0,0.79213913296,27800,2018-06-07 20:16:59,12,0,23.021,4437.2016944839,218.832028,0.223694,1.28563980492,0,0,-0.671082,52, 2.8, -5.3,0,0,1024,1024,1024,1024,52.6,-89.9,95,3.831,3.81,3.837,3.825,3.852,3.839,22.592,77,14,Waypoint,
38.7448459,-120.4087938,4438.1859464839,219.81628,0,0.79213913296,27900,2018-06-07 20:16:59,12,0,23.021,4438.1859464839,219.81628,0.223694,1.28563980492,0,0,-0.671082,52, 3, -4.8,0,0,1024,1024,1024,1024,52.6,-89.9,95,3.831,3.81,3.837,3.825,3.852,3.839,22.592,77,14,Waypoint,
38.7448459,-120.4087938,4439.1701984839,220.800532,0,0.79213913296,28000,2018-06-07 20:16:59,12,0,22.963,4439.1701984839,220.800532,0.223694,1.28563980492,0,0,-0.671082,52, 3.2, -4.6,0,0,1024,1024,1024,1024,52.6,-89.9,95,3.831,3.81,3.837,3.825,3.852,3.839,23.81,77,14,Waypoint,
38.7448459,-120.4087938,4440.1544504839,221.784784,0,0.79213913296,28100,2018-06-07 20:16:59,12,0,22.963,4440.1544504839,221.784784,0.223694,1.28563980492,0,0,-0.671082,52, 3.6, -4.6,0,0,1024,1024,1024,1024,52.6,-89.9,95,3.831,3.81,3.837,3.825,3.852,3.839,23.81,77,14,Waypoint,
38.7448459,-120.4087938,4441.1387024839,222.769036,0,0.79213913296,28200,2018-06-07 20:16:59,12,0,22.963,4441.1387024839,222.769036,0.223694,1.28563980492,0,0,-0.671082,52, 3.8, -4.9,0,0,1024,1024,1024,1024,52.6,-89.9,95,3.831,3.81,3.837,3.825,3.852,3.839,23.81,77,14,Waypoint,
38.7448459,-120.4087938,4442.1229544839,223.753288,0,0.79213913296,28300,2018-06-07 20:16:59,12,0,22.963,4442.1229544839,223.753288,0.223694,1.28563980492,0,0,-0.671082,52.1, 4, -5.2,0,0,1024,1024,1024,1024,52.6,-89.9,95,3.831,3.81,3.837,3.825,3.852,3.839,23.81,77,14,Waypoint,
38.7448459,-120.4087938,4443.1072064839,224.73754,0,0.79213913296,28400,2018-06-07 20:17:00,12,0,22.963,4443.1072064839,224.73754,0.223694,1.28563980492,0,0,-0.671082,52.1, 4.2, -5.4,0,0,1024,1024,1024,1024,52.6,-89.9,95,3.831,3.81,3.837,3.825,3.852,3.839,23.81,77,14,Waypoint,
38.7448459,-120.4087938,4444.0914584839,225.721792,0,0.79213913296,28500,2018-06-07 20:17:00,12,0,22.963,4444.0914584839,225.721792,0.223694,1.28563980492,0,0,-0.671082,52.2, 4.6, -5.3,0,0,1024,1024,1024,1024,52.6,-89.9,95,3.831,3.81,3.837,3.825,3.852,3.839,23.81,77,14,Waypoint,
38.7448459,-120.4087937,4445.0757104839,226.706044,0,0.81680120724,28600,2018-06-07 20:17:00,12,0,22.963,4445.0757104839,226.706044,0.223694,1.28563980492,0,0,-0.671082,52.3, 4.6, -5.6,0,0,1024,1024,1024,1024,52.6,-89.9,95,3.831,3.81,3.837,3.825,3.852,3.839,23.81,77,14,Waypoint,
38.744846,-120.4087937,4446.3880464839,228.01838,0,0.79950461876,28700,2018-06-07 20:17:00,12,0,22.963,4446.3880464839,228.01838,0.223694,1.28563980492,0,0,-0.671082,52.3, 4.6, -5.6,0,0,1024,1024,1024,1024,52.6,-89.9,95,3.831,3.81,3.837,3.825,3.852,3.839,23.81,77,14,Waypoint,
38.744846,-120.4087937,4447.3722984839,229.002632,0,0.79950461876,28800,2018-06-07 20:17:00,12,0,22.963,4447.3722984839,229.002632,0.223694,1.28563980492,0,0,-0.671082,52.2, 4.5, -5.4,0,0,1024,1024,1024,1024,52.6,-89.9,95,3.831,3.81,3.837,3.825,3.852,3.839,23.81,77,14,Waypoint,
38.744846,-120.4087937,4448.3565504839,229.986884,0,0.79950461876,28900,2018-06-07 20:17:00,12,0,22.963,4448.3565504839,229.986884,0.223694,1.28563980492,0,0,-0.671082,52.2, 4.3, -5.2,0,0,1024,1024,1024,1024,52.6,-89.9,95,3.831,3.81,3.837,3.825,3.852,3.839,23.81,77,14,Waypoint,
38.744846,-120.4087937,4449.3408024839,230.971136,0,0.79950461876,29000,2018-06-07 20:17:00,12,0,22.963,4449.3408024839,230.971136,0.223694,1.28563980492,0,0,-0.671082,52.2, 4, -5.4,0,0,1024,1024,1024,1024,52.6,-89.9,95,3.821,3.823,3.829,3.818,3.85,3.844,23.81,77,14,Waypoint,
38.744846,-120.4087938,4450.3250544839,231.955388,0,0.7742946442,29100,2018-06-07 20:17:00,12,0,22.963,4450.3250544839,231.955388,0.223694,1.28563980492,0,0,-0.671082,52.2, 3.8, -5,0,0,1024,1024,1024,1024,52.6,-89.9,95,3.821,3.823,3.829,3.818,3.85,3.844,23.81,77,14,Waypoint,
38.7448461,-120.4087938,4451.3093064839,232.93964,0,0.75778545732,29200,2018-06-07 20:17:00,12,0,22.963,4451.3093064839,232.93964,0.223694,1.28563980492,0,0,-0.671082,52.2, 3.2, -4.3,0,0,1024,1024,1024,1024,52.6,-89.9,95,3.821,3.823,3.829,3.818,3.85,3.844,23.81,77,14,Waypoint,
38.7448461,-120.4087939,4452.2935584839,233.923892,0,0.73224411792,29300,2018-06-07 20:17:00,12,0,22.963,4452.2935584839,233.923892,0.223694,1.28563980492,0,0,-0.671082,52.3, 3.3, -4.1,0,0,1024,1024,1024,1024,52.6,-89.9,95,3.821,3.823,3.829,3.818,3.85,3.844,23.81,77,14,Waypoint,
38.7448461,-120.408794,4453.2778104839,234.908144,0,0.7069225948,29400,2018-06-07 20:17:01,12,0,22.963,4453.2778104839,234.908144,0.223694,1.28563980492,0,0,-0.671082,52.4, 3.3, -3.8,0,0,1024,1024,1024,1024,52.6,-89.9,95,3.821,3.823,3.829,3.818,3.85,3.844,23.81,77,14,Waypoint,
38.7448462,-120.408794,4453.9339784839,235.564312,0,0.6907316494,29500,2018-06-07 20:17:01,12,0,22.963,4453.9339784839,235.564312,0.223694,1.28563980492,0,0,-0.671082,52.4, 3.4, -3.8,0,0,1024,1024,1024,1024,52.6,-89.9,95,3.821,3.823,3.829,3.818,3.85,3.844,23.81,77,14,Waypoint,
38.7448463,-120.4087941,4455.9024824839,237.532816,0,0.64986550636,29600,2018-06-07 20:17:01,12,0,22.963,4455.9024824839,237.532816,0.223694,1.28563980492,0,0,-0.671082,52, 4.2, -4,0,0,1024,1024,1024,1024,52.6,-89.9,95,3.821,3.823,3.829,3.818,3.85,3.844,23.81,77,14,Waypoint,
38.7448464,-120.408794,4456.8867344839,238.517068,0,0.6632054018,29800,2018-06-07 20:17:01,12,0,22.963,4456.8867344839,238.517068,0.223694,1.28563980492,0,0,-0.671082,51.9, 4.6, -4.5,0,0,1024,1024,1024,1024,52.6,-89.9,95,3.821,3.823,3.829,3.818,3.85,3.844,23.81,77,14,Waypoint,
38.7448465,-120.4087939,4458.8552384839,240.485572,0,0.67943899812,29920,2018-06-07 20:17:01,12,0,22.963,4458.8552384839,240.485572,0.223694,1.28563980492,0,0,-0.671082,51.6, 5.1, -4.6,0,0,1024,1024,1024,1024,52.6,-89.9,95,3.821,3.823,3.829,3.818,3.85,3.844,23.81,77,14,Waypoint,
38.7448465,-120.4087938,4459.8394904839,241.469824,0,0.7068897864,30000,2018-06-07 20:17:01,12,0,22.989,4459.8394904839,241.469824,0.223694,1.28563980492,0,0,-0.671082,51.4, 5.2, -4.8,0,0,1024,1024,1024,1024,52.6,-89.9,95,3.82,3.82,3.833,3.83,3.848,3.837,22.506,77,14,Waypoint,
38.7448465,-120.4087938,4460.4956584839,242.125992,0,0.7068897864,30100,2018-06-07 20:17:01,12,0,22.989,4460.4956584839,242.125992,0.223694,1.28563980492,0,0,-0.671082,51.3, 5, -4.7,0,0,1024,1024,1024,1024,52.6,-89.9,95,3.82,3.82,3.833,3.83,3.848,3.837,22.506,77,14,Waypoint,
38.7448466,-120.4087938,4461.4799104839,243.110244,0,0.69836616408,30200,2018-06-07 20:17:01,12,0,22.989,4461.4799104839,243.110244,0.223694,1.28563980492,0,0,-0.671082,51.3, 4.7, -4.6,0,0,1024,1024,1024,1024,52.6,-89.9,95,3.82,3.82,3.833,3.83,3.848,3.837,22.506,77,14,Waypoint,
38.7448467,-120.4087938,4464.4326664839,246.063,0,0.69166012712,30520,2018-06-07 20:17:02,12,0,22.989,4464.4326664839,246.063,0.223694,1.28563980492,0,0,-0.671082,51.6, 4.6, -4.3,0,0,1024,1024,1024,1024,52.6,-89.9,95,3.82,3.82,3.833,3.83,3.848,3.837,22.506,77,14,Waypoint,
38.7448467,-120.4087938,4465.4169184839,247.047252,0,0.69166012712,30610,2018-06-07 20:17:02,12,0,22.989,4465.4169184839,247.047252,0.223694,1.28563980492,0,0,-0.671082,51.6, 4.3, -3.7,0,0,1024,1024,1024,1024,52.6,-89.9,95,3.82,3.82,3.833,3.83,3.848,3.837,22.506,77,14,Waypoint,
38.7448468,-120.4087938,4466.4011704839,248.031504,0,0.68683401148,30700,2018-06-07 20:17:02,12,0,22.989,4466.4011704839,248.031504,0.223694,1.28563980492,0,0,-0.671082,51.6, 4.9, -3.6,0,0,1024,1024,1024,1024,52.6,-89.9,95,3.82,3.82,3.833,3.83,3.848,3.837,22.506,77,14,Waypoint,
38.7448468,-120.4087937,4468.6977584839,250.328092,0,0.71513453732,30910,2018-06-07 20:17:02,12,0,22.989,4468.6977584839,250.328092,0.223694,1.28563980492,0,0,-0.671082,51.8, 5.9, -5.4,0,0,1024,1024,1024,1024,52.6,-89.9,95,3.82,3.82,3.833,3.83,3.848,3.837,22.506,77,14,Waypoint,
38.7448468,-120.4087937,4468.6977584839,250.328092,0,0.71513453732,31000,2018-06-07 20:17:02,12,0,23.185,4468.6977584839,250.328092,0.223694,1.28563980492,0,0,-0.671082,51.8, 5.9, -5.4,0,0,1024,1024,1024,1024,52.6,-89.9,95,3.845,3.844,3.862,3.864,3.87,3.882,19.56,78.8,14,Waypoint,
38.7448467,-120.4087936,4469.6820104839,251.312344,0,0.74791012892,31100,2018-06-07 20:17:02,12,0,23.185,4469.6820104839,251.312344,0.223694,1.28563980492,0,0,-0.671082,52, 5.6, -5.6,0,0,1024,1024,1024,1024,52.6,-89.9,95,3.845,3.844,3.862,3.864,3.87,3.882,19.56,78.8,14,Waypoint,
38.7448467,-120.4087936,4470.6662624839,252.296596,0,0.74791012892,31200,2018-06-07 20:17:02,12,0,23.185,4470.6662624839,252.296596,0.223694,1.28563980492,0,0,-0.671082,52.1, 5.2, -5.5,0,0,1024,1024,1024,1024,52.6,-89.9,95,3.845,3.844,3.862,3.864,3.87,3.882,19.56,78.8,14,Waypoint,
38.7448467,-120.4087936,4471.6505144839,253.280848,0,0.74791012892,31300,2018-06-07 20:17:02,12,0,23.185,4471.6505144839,253.280848,0.223694,1.28563980492,0,0,-0.671082,52.2, 4.8, -5.4,0,0,1024,1024,1024,1024,52.6,-89.9,95,3.845,3.844,3.862,3.864,3.87,3.882,19.56,78.8,14,Waypoint,
38.7448467,-120.4087937,4472.6347664839,254.2651,0,0.71977364508,31400,2018-06-07 20:17:03,12,0,23.185,4472.6347664839,254.2651,0.223694,1.28563980492,0,0,-0.671082,52.2, 4.5, -5.4,0,0,1024,1024,1024,1024,52.6,-90,95,3.845,3.844,3.862,3.864,3.87,3.882,19.56,78.8,14,Waypoint,
38.7448467,-120.4087937,4473.6190184839,255.249352,0,0.71977364508,31500,2018-06-07 20:17:03,12,0,23.185,4473.6190184839,255.249352,0.223694,1.28563980492,0,0,-0.671082,52.2, 4.3, -5.4,0,0,1024,1024,1024,1024,52.6,-90,95,3.845,3.844,3.862,3.864,3.87,3.882,19.56,78.8,14,Waypoint,
38.7448467,-120.4087937,4474.6032704839,256.233604,0,0.71977364508,31600,2018-06-07 20:17:03,12,0,23.185,4474.6032704839,256.233604,0.223694,1.28563980492,0,0,-0.671082,52.2, 4.2, -5.5,0,0,1024,1024,1024,1024,52.6,-89.9,95,3.845,3.844,3.862,3.864,3.87,3.882,19.56,78.8,14,Waypoint,
38.7448466,-120.4087937,4475.5875224839,257.217856,0,0.72621721484,31700,2018-06-07 20:17:03,12,0,23.185,4475.5875224839,257.217856,0.223694,1.28563980492,0,0,-0.671082,52.1, 4.3, -5.5,0,0,1024,1024,1024,1024,52.6,-89.9,95,3.845,3.844,3.862,3.864,3.87,3.882,19.56,78.8,14,Waypoint,
