Latitude, Longitude, Altitude (m), Time, Sats, Speed (m/s), Range (m), Battery (%), Roll (deg), Pitch (deg), Yaw (deg), Images, HD Signal (%), RC Signal (%), Battery Temp (C), Battery Voltage (mV), Battery Current (mA), Battery Energy (mAh), Battery Capacity (mAh), Battery Discharges, flyState, timestamp (Unix), LastUpdate (ms), radioChannel, Rc_elevator, Rc_aileron, Rc_throttle, Rc_rudder, Rc_gyro, Dronetype, Battery_Cell1 (mV), Battery_Cell2 (mV), Battery_Cell3 (mV), Battery_Cell4 (mV), Battery_Cell5 (mV), Battery_Cell6 (mV), Video, isFlying, elapsedTime (ms), gimbalPitch (deg), gimbalRoll (deg), gimbalYaw (deg), VelocityX (m/s), VelocityY (m/s), VelocityZ (m/s), GroundSmear (cm), App Version, Aircraft Name, Aircraft Firmware, Aircraft Serial Number, Battery Serial Number, Battery Lifetime (%), App_Tip, App_Warning, CurrentFlightStartingIndex, CurrentFlightLastVisitedWaypoint, PreviousFlightEndingWaypointIndex
38.7448470, -120.4087961, 0.000, 13:16:34.179, 10, 0.00, 0.15, 98, 0.300, 1.300, 52.800, 2, 100, 100, 23, 25512, -3927, 5362, 5472, 12, 11, 1528402594.179, 229, 0, 1024, 1024, 1024, 1024, 0, 6, 4182, 4290, 4289, 4295, 4258, 4295, 0, 1, 3064, -89.900, 0.000, 52.600, 0.000, 0.000, 0.000, 0.0, MapPilot_2.8.1_04242018, Dendroctonus I, 1.3.1.00, 041DDC1887, 1058163200563, 97, DJI_0001.jpg, Starting Mission from Lat/Long: 38.74484/-120.40882 Camera: Zenmuse X3 - Overlap: 90/90 - Active Connection: No, 0, 0, 0
38.7448470, -120.4087962, 0.000, 13:16:34.216, 10, 0.10, 0.15, 98, 0.200, 0.000, 52.900, 2, 100, 100, 23, 25512, -3927, 5362, 5472, 12, 11, 1528402594.217, 31, 0, 1024, 1024, 1024, 1024, 0, 6, 4257, 4269, 4271, 4242, 4254, 4262, 0, 1, 3101, -90.000, 0.000, 52.600, 0.000, -0.100, -0.200, 0.0, , , , , , 97, , , 0, 0, 0
38.7448469, -120.4087962, 0.000, 13:16:34.316, 10, 0.10, 0.14, 98, 0.000, -0.600, 53.000, 2, 100, 100, 23, 25512, -3927, 5362, 5472, 12, 11, 1528402594.317, 53, 0, 1024, 1024, 1024, 1024, 0, 6, 4257, 4269, 4271, 4242, 4254, 4262, 0, 1, 3201, -89.900, 0.000, 52.600, 0.000, -0.100, -0.300, 0.0, , , , , , 97, , , 0, 0, 0
38.7448469, -120.4087963, 0.000, 13:16:34.416, 10, 0.00, 0.14, 98, 0.200, -0.900, 53.000, 2, 100, 100, 23, 25512, -3927, 5362, 5472, 12, 11, 1528402594.417, 52, 0, 1024, 1024, 1024, 1024, 0, 6, 4257, 4269, 4271, 4242, 4254, 4262, 0, 1, 3301, -90.000, 0.000, 52.600, 0.000, 0.000, -0.300, 0.0, , , , , , 97, , , 0, 0, 0
38.7448469, -120.4087963, 0.000, 13:16:34.516, 10, 0.00, 0.13, 98, 0.500, -1.200, 53.000, 2, 100, 100, 23, 25512, -3927, 5362, 5472, 12, 11, 1528402594.517, 18, 0, 1024, 1024, 1024, 1024, 0, 6, 4257, 4269, 4271, 4242, 4254, 4262, 0, 1, 3401, -89.900, 0.000, 52.600, 0.000, 0.000, -0.300, 0.0, , , , , , 97, , , 0, 0, 0
38.7448469, -120.4087963, 0.000, 13:16:34.616, 10, 0.00, 0.13, 98, 0.500, -1.200, 53.000, 2, 100, 100, 23, 25512, -3927, 5362, 5472, 12, 11, 1528402594.617, 118, 0, 1024, 1024, 1024, 1024, 0, 6, 4257, 4269, 4271, 4242, 4254, 4262, 0, 1, 3501, -89.900, 0.000, 52.600, 0.000, 0.000, -0.300, 0.0, , , , , , 97, , , 0, 0, 0
38.7448469, -120.4087964, 0.100, 13:16:34.716, 9, 0.00, 0.13, 98, 0.600, -0.800, 53.100, 2, 100, 100, 23, 25512, -3927, 5362, 5472, 12, 11, 1528402594.717, 33, 0, 1024, 1024, 1024, 1024, 0, 6, 4257, 4269, 4271, 4242, 4254, 4262, 0, 1, 3601, -89.900, 0.000, 52.600, 0.000, 0.000, -0.300, 0.0, , , , , , 97, , , 0, 0, 0
38.7448469, -120.4087963, 0.100, 13:16:34.816, 9, 0.00, 0.13, 98, 0.500, -0.300, 53.200, 2, 100, 100, 23, 25512, -3927, 5362, 5472, 12, 11, 1528402594.817, 57, 0, 1024, 1024, 1024, 1024, 0, 6, 4257, 4269, 4271, 4242, 4254, 4262, 0, 1, 3701, -89.900, 0.000, 52.600, 0.000, 0.000, -0.300, 0.0, , , , , , 97, , , 0, 0, 0
38.7448470, -120.4087963, 0.200, 13:16:34.920, 11, 0.00, 0.14, 98, 0.300, 0.000, 53.200, 2, 100, 100, 23, 25512, -3927, 5362, 5472, 12, 11, 1528402594.921, 7, 0, 1024, 1024, 1024, 1024, 0, 6, 4257, 4269, 4271, 4242, 4254, 4262, 0, 1, 3805, -89.900, 0.000, 52.600, 0.000, 0.000, -0.300, 0.0, , , , , , 97, , , 0, 0, 0
38.7448470, -120.4087963, 0.200, 13:16:35.016, 11, 0.00, 0.14, 98, 0.300, 0.000, 53.200, 2, 100, 100, 23, 25512, -3927, 5362, 5472, 12, 11, 1528402595.017, 103, 0, 1024, 1024, 1024, 1024, 0, 6, 4257, 4269, 4271, 4242, 4254, 4262, 0, 1, 3901, -89.900, 0.000, 52.600, 0.000, 0.000, -0.300, 0.0, , , , , , 97, , , 0, 0, 0
38.7448471, -120.4087963, 0.200, 13:16:35.116, 11, 0.00, 0.14, 98, 0.300, 0.300, 53.300, 2, 100, 100, 23, 25512, -3927, 5362, 5472, 12, 11, 1528402595.117, 96, 0, 1024, 1024, 1024, 1024, 0, 6, 4257, 4269, 4271, 4242, 4254, 4262, 0, 1, 4001, -89.900, 0.000, 52.600, 0.000, 0.000, -0.400, 0.0, , , , , , 97, , , 0, 0, 0
38.7448471, -120.4087962, 0.300, 13:16:35.216, 10, 0.00, 0.14, 98, 0.400, 0.500, 53.300, 2, 100, 100, 23, 25512, -3927, 5362, 5472, 12, 11, 1528402595.217, 23, 0, 1024, 1024, 1024, 1024, 0, 6, 4257, 4269, 4271, 4242, 4254, 4262, 0, 1, 4101, -89.900, 0.000, 52.600, 0.000, 0.000, -0.400, 0.0, , , , , , 97, , , 0, 0, 0
38.7448470, -120.4087962, 0.300, 13:16:35.316, 10, 0.00, 0.15, 98, 0.500, 0.700, 53.300, 2, 100, 100, 23, 24756, -10045, 5362, 5472, 12, 11, 1528402595.317, 62, 0, 1024, 1024, 1024, 1024, 0, 6, 4257, 4269, 4271, 4242, 4254, 4262, 0, 1, 4201, -89.900, 0.000, 52.600, 0.000, 0.000, -0.400, 0.0, , , , , , 97, , , 0, 0, 0
38.7448470, -120.4087962, 0.300, 13:16:35.416, 10, 0.00, 0.15, 98, 0.500, 0.700, 53.300, 2, 100, 100, 23, 24756, -10045, 5362, 5472, 12, 11, 1528402595.417, 162, 0, 1024, 1024, 1024, 1024, 0, 6, 4257, 4269, 4271, 4242, 4254, 4262, 0, 1, 4301, -89.900, 0.000, 52.600, 0.000, 0.000, -0.400, 0.0, , , , , , 97, , , 0, 0, 0
38.7448471, -120.4087960, 0.400, 13:16:35.516, 10, 0.00, 0.17, 98, 0.600, 0.700, 53.200, 2, 100, 100, 23, 24756, -10045, 5362, 5472, 12, 11, 1528402595.517, 41, 0, 1024, 1024, 1024, 1024, 0, 6, 4257, 4269, 4271, 4242, 4254, 4262, 0, 1, 4401, -89.900, 0.000, 52.600, 0.000, 0.000, -0.500, 0.0, , , , , , 97, , , 0, 0, 0
38.7448471, -120.4087958, 0.500, 13:16:35.616, 10, 0.00, 0.18, 98, 0.000, 0.900, 52.800, 2, 100, 100, 23, 24756, -10045, 5362, 5472, 12, 11, 1528402595.617, 87, 0, 1024, 1024, 1024, 1024, 0, 6, 4134, 4117, 4048, 4052, 4106, 4081, 0, 1, 4501, -89.900, 0.000, 52.600, 0.000, 0.000, -0.400, 0.0, , , , , , 97, , , 0, 0, 0
38.7448472, -120.4087957, 0.600, 13:16:35.716, 10, 0.00, 0.19, 98, 0.000, 0.900, 52.500, 2, 100, 100, 23, 24756, -10045, 5362, 5472, 12, 11, 1528402595.717, 48, 0, 1024, 1024, 1024, 1024, 0, 6, 4134, 4117, 4048, 4052, 4106, 4081, 0, 1, 4601, -89.900, 0.000, 52.600, 0.000, 0.000, -0.400, 0.0, , , , , , 97, , , 0, 0, 0
38.7448472, -120.4087956, 0.600, 13:16:35.816, 10, 0.00, 0.20, 98, 0.000, 1.100, 52.100, 2, 100, 100, 23, 24756, -10045, 5362, 5472, 12, 11, 1528402595.817, 22, 0, 1024, 1024, 1024, 1024, 0, 6, 4134, 4117, 4048, 4052, 4106, 4081, 0, 1, 4701, -89.900, 0.000, 52.600, 0.000, 0.000, -0.400, 0.0, , , , , , 97, , , 0, 0, 0
38.7448472, -120.4087956, 0.700, 13:16:35.916, 10, 0.00, 0.20, 98, 0.100, 1.300, 52.000, 2, 100, 100, 23, 24756, -10045, 5362, 5472, 12, 11, 1528402595.917, 23, 0, 1024, 1024, 1024, 1024, 0, 6, 4134, 4117, 4048, 4052, 4106, 4081, 0, 1, 4802, -89.900, 0.000, 52.600, 0.000, 0.000, -0.400, 0.0, , , , , , 97, , , 0, 0, 0
38.7448472, -120.4087956, 0.700, 13:16:36.016, 11, 0.00, 0.20, 98, 0.200, 1.300, 52.000, 2, 100, 100, 23, 24756, -10045, 5362, 5472, 12, 11, 1528402596.017, 74, 0, 1024, 1024, 1024, 1024, 0, 6, 4134, 4117, 4048, 4052, 4106, 4081, 0, 1, 4901, -89.900, 0.000, 52.600, 0.000, 0.000, -0.500, 0.0, , , , , , 97, , , 0, 0, 0
38.7448472, -120.4087955, 0.800, 13:16:36.116, 11, 0.00, 0.21, 98, 0.300, 1.300, 52.000, 2, 100, 100, 23, 24275, -15936, 5362, 5472, 12, 11, 1528402596.117, 73, 0, 1024, 1024, 1024, 1024, 0, 6, 4134, 4117, 4048, 4052, 4106, 4081, 0, 1, 5001, -89.900, 0.000, 52.600, 0.000, 0.000, -0.500, 0.0, , , , , , 97, , , 0, 0, 0
38.7448473, -120.4087954, 0.800, 13:16:36.216, 11, 0.00, 0.22, 98, 0.300, 1.200, 52.100, 2, 100, 100, 23, 24275, -15936, 5362, 5472, 12, 11, 1528402596.217, 41, 0, 1024, 1024, 1024, 1024, 0, 6, 4037, 4020, 4033, 4030, 4052, 4041, 0, 1, 5101, -89.900, 0.000, 52.600, 0.000, 0.000, -0.400, 0.0, , , , , , 97, , , 0, 0, 0
38.7448474, -120.4087952, 0.900, 13:16:36.316, 11, 0.00, 0.24, 98, 0.100, 1.200, 52.200, 2, 100, 100, 23, 24275, -15936, 5362, 5472, 12, 14, 1528402596.317, 67, 0, 1024, 1024, 1024, 1024, 0, 6, 4037, 4020, 4033, 4030, 4052, 4041, 0, 1, 5201, -89.900, 0.000, 52.600, 0.000, 0.000, -0.400, 0.0, , , , , , 97, , , 0, 0, 0
38.7448474, -120.4087951, 0.900, 13:16:36.416, 11, 0.00, 0.25, 98, 0.000, 1.500, 52.300, 2, 100, 100, 23, 24275, -15936, 5362, 5472, 12, 14, 1528402596.417, 34, 0, 1024, 1024, 1024, 1024, 0, 6, 4037, 4020, 4033, 4030, 4052, 4041, 0, 1, 5301, -89.900, 0.000, 52.600, 0.000, 0.000, -0.300, 0.0, , , , , , 97, , , 0, 0, 0
38.7448474, -120.4087950, 1.000, 13:16:36.516, 11, 0.00, 0.26, 98, 0.200, 1.500, 52.300, 2, 100, 100, 23, 24275, -15936, 5362, 5472, 12, 14, 1528402596.517, 71, 0, 1024, 1024, 1024, 1024, 0, 6, 4037, 4020, 4033, 4030, 4052, 4041, 0, 1, 5401, -89.900, 0.000, 52.600, 0.000, 0.000, -0.300, 0.0, , , , , , 97, , , 0, 0, 0
38.7448476, -120.4087950, 1.000, 13:16:36.616, 11, 0.00, 0.26, 98, 0.500, 1.600, 52.300, 2, 100, 100, 23, 24275, -15936, 5362, 5472, 12, 14, 1528402596.617, 82, 0, 1024, 1024, 1024, 1024, 0, 6, 4037, 4020, 4033, 4030, 4052, 4041, 0, 1, 5501, -89.900, 0.000, 52.600, 0.000, 0.000, -0.300, 0.0, , , , , , 97, , , 0, 0, 0
38.7448478, -120.4087949, 1.000, 13:16:36.716, 11, 0.00, 0.27, 98, 0.900, 1.500, 52.200, 2, 100, 100, 23, 24275, -15936, 5362, 5472, 12, 14, 1528402596.717, 83, 0, 1024, 1024, 1024, 1024, 0, 6, 4037, 4020, 4033, 4030, 4052, 4041, 0, 1, 5601, -89.900, 0.000, 52.600, 0.000, 0.000, -0.300, 0.0, , , , , , 97, , , 0, 0, 0
38.7448478, -120.4087949, 1.100, 13:16:36.816, 9, 0.00, 0.28, 98, 1.100, 1.500, 52.000, 2, 100, 100, 23, 24275, -15936, 5362, 5472, 12, 14, 1528402596.817, 80, 0, 1024, 1024, 1024, 1024, 0, 6, 4037, 4020, 4033, 4030, 4052, 4041, 0, 1, 5701, -89.900, 0.000, 52.600, 0.000, 0.000, -0.400, 0.0, , , , , , 97, , , 0, 0, 0
38.7448478, -120.4087947, 1.200, 13:16:36.915, 9, 0.00, 0.29, 98, 0.900, 1.500, 51.900, 2, 100, 100, 23, 24275, -15936, 5362, 5472, 12, 14, 1528402596.916, 78, 0, 1024, 1024, 1024, 1024, 0, 6, 4037, 4020, 4033, 4030, 4052, 4041, 0, 1, 5801, -89.900, 0.000, 52.600, 0.000, 0.000, -0.600, 0.0, , , , , , 97, , , 0, 0, 0
38.7448479, -120.4087946, 1.200, 13:16:37.016, 9, 0.00, 0.30, 98, 0.800, 1.500, 51.800, 2, 100, 100, 23, 24275, -15936, 5362, 5472, 12, 14, 1528402597.018, 96, 0, 1024, 1024, 1024, 1024, 0, 6, 4037, 4020, 4033, 4030, 4052, 4041, 0, 1, 5902, -89.900, 0.000, 52.600, 0.000, 0.000, -0.700, 0.0, , , , , , 97, , , 0, 0, 0
38.7448480, -120.4087945, 1.300, 13:16:37.116, 9, 0.00, 0.31, 98, 0.700, 1.500, 51.800, 2, 100, 100, 23, 24108, -17137, 5362, 5472, 12, 14, 1528402597.117, 51, 0, 1024, 1024, 1024, 1024, 0, 6, 4037, 4020, 4033, 4030, 4052, 4041, 0, 1, 6002, -89.900, 0.000, 52.600, 0.000, 0.000, -0.900, 0.0, , , , , , 97, , , 0, 0, 0
38.7448481, -120.4087944, 1.400, 13:16:37.216, 9, 0.00, 0.33, 98, 0.700, 1.600, 51.900, 2, 100, 100, 23, 24108, -17137, 5362, 5472, 12, 14, 1528402597.217, 36, 0, 1024, 1024, 1024, 1024, 0, 6, 4037, 4020, 4033, 4030, 4052, 4041, 0, 1, 6101, -89.900, 0.000, 52.600, 0.000, 0.000, -1.100, 0.0, , , , , , 97, , , 0, 0, 0
38.7448482, -120.4087943, 1.500, 13:16:37.316, 9, 0.00, 0.34, 98, 0.600, 1.800, 52.100, 2, 100, 100, 23, 24108, -17137, 5362, 5472, 12, 14, 1528402597.317, 65, 0, 1024, 1024, 1024, 1024, 0, 6, 4037, 4020, 4033, 4030, 4052, 4041, 0, 1, 6201, -89.900, 0.000, 52.600, 0.000, 0.000, -1.300, 0.0, , , , , , 97, , , 0, 0, 0
38.7448482, -120.4087943, 1.500, 13:16:37.416, 9, 0.00, 0.34, 98, 0.600, 1.800, 52.100, 2, 100, 100, 23, 24108, -17137, 5362, 5472, 12, 14, 1528402597.417, 165, 0, 1024, 1024, 1024, 1024, 0, 6, 4037, 4020, 4033, 4030, 4052, 4041, 0, 1, 6301, -89.900, 0.000, 52.600, 0.000, 0.000, -1.300, 0.0, , , , , , 97, , , 0, 0, 0
38.7448483, -120.4087941, 1.700, 13:16:37.516, 8, 0.00, 0.36, 98, 0.500, 2.100, 52.300, 2, 100, 100, 23, 24108, -17137, 5362, 5472, 12, 14, 1528402597.516, 57, 0, 1024, 1024, 1024, 1024, 0, 6, 4037, 4020, 4033, 4030, 4052, 4041, 0, 1, 6401, -89.900, 0.000, 52.600, 0.000, 0.000, -1.500, 0.0, , , , , , 97, , , 0, 0, 0
38.7448484, -120.4087938, 1.800, 13:16:37.616, 8, 0.00, 0.39, 98, 0.500, 2.200, 52.500, 2, 100, 100, 23, 24108, -17137, 5362, 5472, 12, 14, 1528402597.617, 70, 0, 1024, 1024, 1024, 1024, 0, 6, 4037, 4020, 4033, 4030, 4052, 4041, 0, 1, 6501, -89.900, 0.000, 52.600, 0.000, 0.000, -1.700, 0.0, , , , , , 97, , , 0, 0, 0
38.7448484, -120.4087937, 2.000, 13:16:37.717, 9, 0.00, 0.40, 97, 0.300, 2.400, 52.600, 2, 100, 100, 23, 24108, -17137, 5307, 5472, 12, 14, 1528402597.718, 8, 0, 1024, 1024, 1024, 1024, 0, 6, 4037, 4020, 4033, 4030, 4052, 4041, 0, 1, 6602, -89.900, 0.000, 52.600, 0.000, 0.000, -1.900, 0.0, , , , , , 97, , , 0, 0, 0
38.7448484, -120.4087937, 2.000, 13:16:37.816, 9, 0.00, 0.40, 97, 0.300, 2.400, 52.600, 2, 100, 100, 23, 24108, -17137, 5307, 5472, 12, 14, 1528402597.817, 107, 0, 1024, 1024, 1024, 1024, 0, 6, 3963, 3951, 4010, 4006, 4028, 4015, 0, 1, 6701, -89.900, 0.000, 52.600, 0.000, 0.000, -1.900, 0.0, , , , , , 97, , , 0, 0, 0
38.7448485, -120.4087935, 2.400, 13:16:37.917, 10, 0.00, 0.42, 97, 0.100, 2.600, 52.600, 2, 100, 100, 23, 24108, -17137, 5307, 5472, 12, 14, 1528402597.917, 8, 0, 1024, 1024, 1024, 1024, 0, 6, 3963, 3951, 4010, 4006, 4028, 4015, 0, 1, 6802, -89.900, 0.000, 52.600, 0.000, 0.000, -2.500, 0.0, , , , , , 97, , , 0, 0, 0
38.7448485, -120.4087935, 2.400, 13:16:38.016, 10, 0.00, 0.42, 97, 0.100, 2.600, 52.600, 2, 100, 100, 23, 24108, -17137, 5307, 5472, 12, 14, 1528402598.017, 108, 0, 1024, 1024, 1024, 1024, 0, 6, 3963, 3951, 4010, 4006, 4028, 4015, 0, 1, 6901, -89.900, 0.000, 52.600, 0.000, 0.000, -2.500, 0.0, , , , , , 97, , , 0, 0, 0
38.7448486, -120.4087934, 2.700, 13:16:38.116, 10, 0.00, 0.43, 97, 0.200, 2.500, 52.500, 2, 100, 100, 23, 24108, -17137, 5307, 5472, 12, 14, 1528402598.116, 51, 0, 1024, 1024, 1024, 1024, 0, 6, 3963, 3951, 4010, 4006, 4028, 4015, 0, 1, 7001, -89.900, 0.000, 52.600, 0.000, 0.000, -2.600, 0.0, , , , , , 97, , , 0, 0, 0
38.7448486, -120.4087932, 3.000, 13:16:38.216, 10, 0.00, 0.44, 97, 0.200, 2.400, 52.500, 2, 100, 100, 23, 24108, -17137, 5307, 5472, 12, 14, 1528402598.217, 42, 0, 1024, 1024, 1024, 1024, 0, 6, 3963, 3951, 4010, 4006, 4028, 4015, 0, 1, 7101, -89.900, 0.000, 52.600, 0.000, 0.000, -2.800, 0.0, , , , , , 97, , , 0, 0, 0
38.7448483, -120.4087930, 3.600, 13:16:38.316, 10, 0.00, 0.45, 97, 0.000, 2.300, 52.500, 2, 100, 100, 23, 24108, -17137, 5307, 5472, 12, 14, 1528402598.317, 35, 0, 1024, 1024, 1024, 1024, 0, 6, 3963, 3951, 4010, 4006, 4028, 4015, 0, 1, 7201, -89.900, 0.000, 52.600, 0.000, 0.000, -3.100, 0.0, , , , , , 97, , , 0, 0, 0
38.7448482, -120.4087930, 3.900, 13:16:38.430, 10, 0.00, 0.45, 97, -0.100, 2.100, 52.400, 2, 100, 100, 23, 24108, -17137, 5307, 5472, 12, 14, 1528402598.431, 12, 0, 1024, 1024, 1024, 1024, 0, 6, 3963, 3951, 4010, 4006, 4028, 4015, 0, 1, 7315, -89.900, 0.000, 52.600, 0.000, 0.000, -3.200, 0.0, , , , , , 97, , , 0, 0, 0
38.7448481, -120.4087930, 4.300, 13:16:38.528, 10, 0.00, 0.45, 97, -0.100, 1.700, 52.400, 2, 100, 100, 23, 24108, -17137, 5307, 5472, 12, 14, 1528402598.529, 13, 0, 1024, 1024, 1024, 1024, 0, 6, 3963, 3951, 4010, 4006, 4028, 4015, 0, 1, 7413, -89.900, 0.000, 52.600, 0.000, 0.000, -3.300, 0.0, , , , , , 97, , , 0, 0, 0
38.7448480, -120.4087930, 4.600, 13:16:38.616, 10, 0.00, 0.44, 97, -0.200, 1.500, 52.300, 2, 100, 100, 23, 24108, -17137, 5307, 5472, 12, 14, 1528402598.617, 41, 0, 1024, 1024, 1024, 1024, 0, 6, 3963, 3951, 4010, 4006, 4028, 4015, 0, 1, 7501, -89.900, 0.000, 52.600, 0.000, 0.000, -3.300, 0.0, , , , , , 97, , , 0, 0, 0
38.7448479, -120.4087931, 4.900, 13:16:38.716, 10, 0.00, 0.43, 97, -0.500, 1.300, 52.200, 2, 100, 100, 23, 23382, -24220, 5307, 5472, 12, 14, 1528402598.717, 69, 0, 1024, 1024, 1024, 1024, 0, 6, 3878, 3881, 3882, 3860, 3906, 4000, 0, 1, 7601, -89.900, 0.000, 52.600, 0.000, 0.000, -3.300, 0.0, , , , , , 97, , , 0, 0, 0
38.7448478, -120.4087933, 5.300, 13:16:38.815, 10, 0.00, 0.42, 97, -0.600, 1.100, 52.200, 2, 100, 100, 23, 23382, -24220, 5307, 5472, 12, 14, 1528402598.816, 10, 0, 1024, 1024, 1024, 1024, 0, 6, 3878, 3881, 3882, 3860, 3906, 4000, 0, 1, 7700, -89.900, 0.000, 52.600, 0.000, 0.000, -3.300, 0.0, , , , , , 97, , , 0, 0, 0
38.7448478, -120.4087932, 5.600, 13:16:38.916, 11, 0.00, 0.42, 97, -0.400, 1.100, 52.100, 2, 100, 100, 23, 23382, -24220, 5307, 5472, 12, 14, 1528402598.917, 48, 0, 1024, 1024, 1024, 1024, 0, 6, 3878, 3881, 3882, 3860, 3906, 4000, 0, 1, 7801, -89.900, 0.000, 52.600, 0.000, 0.000, -3.300, 0.0, , , , , , 97, , , 0, 0, 0
38.7448477, -120.4087931, 6.000, 13:16:39.016, 11, 0.00, 0.43, 97, -0.600, 1.300, 52.000, 2, 100, 100, 23, 23382, -24220, 5307, 5472, 12, 14, 1528402599.017, 48, 0, 1024, 1024, 1024, 1024, 0, 6, 3878, 3881, 3882, 3860, 3906, 4000, 0, 1, 7901, -89.900, 0.000, 52.600, 0.000, 0.000, -3.200, 0.0, , , , , , 97, , , 0, 0, 0
38.7448477, -120.4087931, 6.000, 13:16:39.116, 11, 0.00, 0.43, 97, -0.600, 1.300, 52.000, 2, 100, 100, 23, 23382, -24220, 5307, 5472, 12, 14, 1528402599.117, 148, 0, 1024, 1024, 1024, 1024, 0, 6, 3878, 3881, 3882, 3860, 3906, 4000, 0, 1, 8001, -89.900, 0.000, 52.600, 0.000, 0.000, -3.200, 0.0, , , , , , 97, , , 0, 0, 0
38.7448477, -120.4087931, 6.000, 13:16:39.216, 11, 0.00, 0.43, 97, -0.600, 1.300, 52.000, 2, 100, 100, 23, 23382, -24220, 5307, 5472, 12, 14, 1528402599.217, 248, 0, 1024, 1024, 1024, 1024, 0, 6, 3878, 3881, 3882, 3860, 3906, 4000, 0, 1, 8101, -89.900, 0.000, 52.600, 0.000, 0.000, -3.200, 0.0, , , , , , 97, , , 0, 0, 0
38.7448476, -120.4087931, 7.000, 13:16:39.324, 9, 0.00, 0.43, 97, -0.900, 1.700, 51.800, 2, 100, 98, 23, 23382, -24220, 5307, 5472, 12, 14, 1528402599.326, 10, 0, 1024, 1024, 1024, 1024, 0, 6, 3878, 3881, 3882, 3860, 3906, 4000, 0, 1, 8210, -89.900, 0.000, 52.600, 0.000, 0.000, -3.200, 0.0, , , , , , 97, , , 0, 0, 0
38.7448477, -120.4087932, 7.300, 13:16:39.416, 9, 0.00, 0.41, 97, -0.500, 1.700, 51.800, 2, 100, 98, 23, 23382, -24220, 5307, 5472, 12, 14, 1528402599.417, 41, 0, 1024, 1024, 1024, 1024, 0, 6, 3878, 3881, 3882, 3860, 3906, 4000, 0, 1, 8302, -89.900, 0.000, 52.600, 0.000, 0.000, -3.200, 0.0, , , , , , 97, , , 0, 0, 0
38.7448478, -120.4087933, 7.700, 13:16:39.516, 9, 0.00, 0.41, 97, 0.100, 1.600, 51.900, 2, 100, 98, 23, 23382, -24220, 5307, 5472, 12, 14, 1528402599.517, 64, 0, 1024, 1024, 1024, 1024, 0, 6, 3878, 3881, 3882, 3860, 3906, 4000, 0, 1, 8401, -89.900, 0.000, 52.600, 0.000, 0.000, -3.200, 0.0, , , , , , 97, , , 0, 0, 0
38.7448478, -120.4087934, 8.000, 13:16:39.616, 9, 0.00, 0.40, 97, 0.400, 1.600, 52.000, 2, 100, 98, 23, 23382, -24220, 5307, 5472, 12, 14, 1528402599.616, 51, 0, 1024, 1024, 1024, 1024, 0, 6, 3878, 3881, 3882, 3860, 3906, 4000, 0, 1, 8501, -89.900, 0.000, 52.600, 0.000, 0.000, -3.100, 0.0, , , , , , 97, , , 0, 0, 0
38.7448479, -120.4087935, 8.300, 13:16:39.716, 9, 0.00, 0.40, 97, 0.500, 1.600, 52.000, 2, 100, 98, 24, 23571, -19629, 5307, 5472, 12, 14, 1528402599.717, 61, 0, 1024, 1024, 1024, 1024, 0, 6, 3878, 3881, 3882, 3860, 3906, 4000, 0, 1, 8601, -89.900, 0.000, 52.600, 0.000, 0.000, -3.200, 0.0, , , , , , 97, , , 0, 0, 0
38.7448480, -120.4087937, 8.700, 13:16:39.816, 9, 0.10, 0.38, 97, 0.600, 1.400, 52.000, 2, 100, 98, 24, 23571, -19629, 5307, 5472, 12, 14, 1528402599.817, 22, 0, 1024, 1024, 1024, 1024, 0, 6, 3936, 3924, 3955, 3936, 3957, 3962, 0, 1, 8701, -89.900, 0.000, 52.600, 0.000, -0.100, -3.200, 0.0, , , , , , 97, , , 0, 0, 0
38.7448481, -120.4087938, 9.000, 13:16:39.916, 9, 0.00, 0.38, 97, 0.800, 1.200, 52.100, 2, 100, 98, 24, 23571, -19629, 5307, 5472, 12, 14, 1528402599.917, 50, 0, 1024, 1024, 1024, 1024, 0, 6, 3936, 3924, 3955, 3936, 3957, 3962, 0, 1, 8801, -89.900, 0.000, 52.600, 0.000, 0.000, -3.100, 0.0, , , , , , 97, , , 0, 0, 0
38.7448482, -120.4087939, 9.600, 13:16:40.023, 10, 0.00, 0.38, 97, 0.500, 1.400, 52.100, 2, 100, 98, 24, 23571, -19629, 5307, 5472, 12, 14, 1528402600.024, 12, 0, 1024, 1024, 1024, 1024, 0, 6, 3936, 3924, 3955, 3936, 3957, 3962, 0, 1, 8909, -89.900, 0.000, 52.600, 0.000, 0.000, -3.000, 0.0, , , , , , 97, , , 0, 0, 0
38.7448482, -120.4087939, 9.600, 13:16:40.116, 10, 0.00, 0.38, 97, 0.500, 1.400, 52.100, 2, 100, 98, 24, 23571, -19629, 5307, 5472, 12, 14, 1528402600.117, 105, 0, 1024, 1024, 1024, 1024, 0, 6, 3936, 3924, 3955, 3936, 3957, 3962, 0, 1, 9001, -89.900, 0.000, 52.600, 0.000, 0.000, -3.000, 0.0, , , , , , 97, , , 0, 0, 0
38.7448483, -120.4087941, 10.000, 13:16:40.216, 10, 0.00, 0.36, 97, 0.500, 1.400, 52.100, 2, 100, 98, 24, 23571, -19629, 5307, 5472, 12, 14, 1528402600.217, 6, 0, 1024, 1024, 1024, 1024, 0, 6, 3936, 3924, 3955, 3936, 3957, 3962, 0, 1, 9101, -89.900, 0.000, 52.600, 0.000, 0.000, -3.000, 0.0, , , , , , 97, , , 0, 0, 0
38.7448484, -120.4087941, 10.300, 13:16:40.316, 9, 0.00, 0.36, 97, 0.600, 1.300, 52.100, 2, 100, 96, 24, 23571, -19629, 5307, 5472, 12, 14, 1528402600.317, 14, 0, 1024, 1024, 1024, 1024, 0, 6, 3936, 3924, 3955, 3936, 3957, 3962, 0, 1, 9201, -89.900, 0.000, 52.600, 0.000, 0.000, -3.000, 0.0, , , , , , 97, , , 0, 0, 0
38.7448484, -120.4087941, 10.600, 13:16:40.417, 9, 0.00, 0.37, 97, 0.600, 1.300, 52.200, 2, 100, 96, 24, 23571, -19629, 5307, 5472, 12, 14, 1528402600.418, 5, 0, 1024, 1024, 1024, 1024, 0, 6, 3936, 3924, 3955, 3936, 3957, 3962, 0, 1, 9302, -89.900, 0.000, 52.600, 0.000, 0.000, -3.000, 0.0, , , , , , 97, , , 0, 0, 0
38.7448485, -120.4087943, 10.900, 13:16:40.516, 10, 0.00, 0.36, 97, 0.600, 1.400, 52.200, 2, 100, 96, 24, 23571, -19629, 5307, 5472, 12, 14, 1528402600.516, 20, 0, 1024, 1024, 1024, 1024, 0, 6, 3936, 3924, 3955, 3936, 3957, 3962, 0, 1, 9401, -89.900, 0.000, 52.600, 0.000, 0.000, -3.000, 0.0, , , , , , 97, , , 0, 0, 0
38.7448486, -120.4087947, 11.200, 13:16:40.616, 10, 0.00, 0.34, 97, 0.900, 1.200, 52.300, 2, 100, 96, 24, 23571, -19629, 5307, 5472, 12, 14, 1528402600.617, 25, 0, 1024, 1024, 1024, 1024, 0, 6, 3936, 3924, 3955, 3936, 3957, 3962, 0, 1, 9501, -89.900, 0.000, 52.600, 0.000, 0.000, -3.000, 0.0, , , , , , 97, , , 0, 0, 0
38.7448487, -120.4087949, 11.500, 13:16:40.716, 10, 0.00, 0.33, 97, 1.300, 0.900, 52.300, 2, 100, 96, 24, 23741, -18055, 5307, 5472, 12, 14, 1528402600.717, 24, 0, 1024, 1024, 1024, 1024, 0, 6, 3946, 3946, 3959, 3961, 3982, 3967, 0, 1, 9601, -89.900, 0.000, 52.600, 0.000, 0.000, -3.000, 0.0, , , , , , 97, , , 0, 0, 0
38.7448489, -120.4087952, 12.100, 13:16:40.815, 11, 0.00, 0.33, 97, 1.700, 0.800, 52.200, 2, 100, 98, 24, 23741, -18055, 5307, 5472, 12, 14, 1528402600.816, 13, 0, 1024, 1024, 1024, 1024, 0, 6, 3946, 3946, 3959, 3961, 3982, 3967, 0, 1, 9700, -89.900, 0.000, 52.600, 0.000, 0.000, -2.900, 0.0, , , , , , 97, , , 0, 0, 0
38.7448489, -120.4087952, 12.100, 13:16:40.916, 11, 0.00, 0.33, 97, 1.700, 0.800, 52.200, 2, 100, 98, 24, 23741, -18055, 5307, 5472, 12, 14, 1528402600.917, 114, 0, 1024, 1024, 1024, 1024, 0, 6, 3946, 3946, 3959, 3961, 3982, 3967, 0, 1, 9801, -89.900, 0.000, 52.600, 0.000, 0.000, -2.900, 0.0, , , , , , 97, , , 0, 0, 0
38.7448491, -120.4087955, 12.700, 13:16:41.018, 11, 0.00, 0.33, 97, 1.600, 1.200, 52.200, 2, 100, 98, 24, 23741, -18055, 5307, 5472, 12, 14, 1528402601.018, 7, 0, 1024, 1024, 1024, 1024, 0, 6, 3946, 3946, 3959, 3961, 3982, 3967, 0, 1, 9903, -89.900, 0.000, 52.600, 0.000, 0.000, -2.900, 0.0, , , , , , 97, , , 0, 0, 0
38.7448491, -120.4087955, 12.700, 13:16:41.116, 11, 0.00, 0.33, 97, 1.600, 1.200, 52.200, 2, 100, 98, 24, 23741, -18055, 5307, 5472, 12, 14, 1528402601.116, 105, 0, 1024, 1024, 1024, 1024, 0, 6, 3946, 3946, 3959, 3961, 3982, 3967, 0, 1, 10001, -89.900, 0.000, 52.600, 0.000, 0.000, -2.900, 0.0, , , , , , 97, , , 0, 0, 0
38.7448492, -120.4087955, 13.000, 13:16:41.216, 11, 0.00, 0.33, 97, 1.400, 1.300, 52.200, 2, 100, 98, 24, 23741, -18055, 5307, 5472, 12, 14, 1528402601.217, 21, 0, 1024, 1024, 1024, 1024, 0, 6, 3946, 3946, 3959, 3961, 3982, 3967, 0, 1, 10101, -89.900, 0.000, 52.600, 0.000, 0.000, -2.900, 0.0, , , , , , 97, , , 0, 0, 0
38.7448492, -120.4087957, 13.300, 13:16:41.316, 11, 0.00, 0.32, 97, 1.300, 1.200, 52.300, 2, 100, 97, 24, 23741, -18055, 5307, 5472, 12, 14, 1528402601.317, 49, 0, 1024, 1024, 1024, 1024, 0, 6, 3946, 3946, 3959, 3961, 3982, 3967, 0, 1, 10201, -89.900, 0.000, 52.600, 0.000, 0.000, -3.000, 0.0, , , , , , 97, , , 0, 0, 0
38.7448493, -120.4087960, 13.900, 13:16:41.433, 10, 0.00, 0.31, 97, 1.500, 0.700, 52.300, 2, 100, 97, 24, 23741, -18055, 5307, 5472, 12, 14, 1528402601.433, 19, 0, 1024, 1024, 1024, 1024, 0, 6, 3946, 3946, 3959, 3961, 3982, 3967, 0, 1, 10318, -89.900, 0.000, 52.600, 0.000, 0.000, -2.900, 0.0, , , , , , 97, , , 0, 0, 0
38.7448493, -120.4087960, 13.900, 13:16:41.516, 10, 0.00, 0.31, 97, 1.500, 0.700, 52.300, 2, 100, 97, 24, 23741, -18055, 5307, 5472, 12, 14, 1528402601.517, 102, 0, 1024, 1024, 1024, 1024, 0, 6, 3946, 3946, 3959, 3961, 3982, 3967, 0, 1, 10401, -89.900, 0.000, 52.600, 0.000, 0.000, -2.900, 0.0, , , , , , 97, , , 0, 0, 0
38.7448493, -120.4087960, 13.900, 13:16:41.616, 10, 0.00, 0.31, 97, 1.500, 0.700, 52.300, 2, 100, 97, 24, 23741, -18055, 5307, 5472, 12, 14, 1528402601.617, 203, 0, 1024, 1024, 1024, 1024, 0, 6, 3946, 3946, 3959, 3961, 3982, 3967, 0, 1, 10501, -89.900, 0.000, 52.600, 0.000, 0.000, -2.900, 0.0, , , , , , 97, , , 0, 0, 0
38.7448493, -120.4087961, 14.200, 13:16:41.716, 10, 0.00, 0.31, 97, 1.600, 0.600, 52.300, 2, 100, 97, 24, 23741, -18055, 5307, 5472, 12, 14, 1528402601.717, 82, 0, 1024, 1024, 1024, 1024, 0, 6, 3946, 3946, 3959, 3961, 3982, 3967, 0, 1, 10601, -89.900, 0.000, 52.600, 0.000, 0.000, -3.000, 0.0, , , , , , 97, , , 0, 0, 0
38.7448493, -120.4087961, 14.200, 13:16:41.816, 10, 0.00, 0.31, 97, 1.600, 0.600, 52.300, 2, 100, 97, 24, 23741, -18055, 5307, 5472, 12, 14, 1528402601.817, 183, 0, 1024, 1024, 1024, 1024, 0, 6, 3946, 3946, 3959, 3961, 3982, 3967, 0, 1, 10701, -89.900, 0.000, 52.600, 0.000, 0.000, -3.000, 0.0, , , , , , 97, , , 0, 0, 0
38.7448493, -120.4087961, 14.800, 13:16:41.927, 11, 0.00, 0.31, 97, 1.300, 0.900, 52.200, 2, 100, 98, 24, 23697, -18576, 5307, 5472, 12, 14, 1528402601.927, 14, 0, 1024, 1024, 1024, 1024, 0, 6, 3938, 3933, 3946, 3945, 3970, 3953, 0, 1, 10811, -89.900, 0.000, 52.600, 0.000, 0.000, -3.000, 0.0, , , , , , 97, , , 0, 0, 0
38.7448493, -120.4087962, 15.100, 13:16:42.016, 10, 0.00, 0.31, 97, 1.200, 1.100, 52.100, 2, 100, 98, 24, 23697, -18576, 5307, 5472, 12, 14, 1528402602.017, 30, 0, 1024, 1024, 1024, 1024, 0, 6, 3938, 3933, 3946, 3945, 3970, 3953, 0, 1, 10901, -89.900, 0.000, 52.600, 0.000, 0.000, -3.000, 0.0, , , , , , 97, , , 0, 0, 0
38.7448493, -120.4087962, 15.700, 13:16:42.116, 12, 0.00, 0.31, 97, 1.100, 1.100, 52.200, 2, 100, 98, 24, 23697, -18576, 5307, 5472, 12, 14, 1528402602.117, 68, 0, 1024, 1024, 1024, 1024, 0, 6, 3938, 3933, 3946, 3945, 3970, 3953, 0, 1, 11001, -89.900, 0.000, 52.600, 0.000, 0.000, -2.900, 0.0, , , , , , 97, , , 0, 0, 0
38.7448494, -120.4087962, 16.000, 13:16:42.216, 12, 0.00, 0.31, 97, 0.900, 1.100, 52.200, 2, 100, 98, 24, 23697, -18576, 5307, 5472, 12, 14, 1528402602.217, 19, 0, 1024, 1024, 1024, 1024, 0, 6, 3938, 3933, 3946, 3945, 3970, 3953, 0, 1, 11101, -89.900, 0.000, 52.600, 0.000, 0.000, -2.900, 0.0, , , , , , 97, , , 0, 0, 0
38.7448493, -120.4087961, 16.300, 13:16:42.316, 12, 0.10, 0.31, 97, 0.900, 1.200, 52.200, 2, 100, 97, 24, 23697, -18576, 5307, 5472, 12, 14, 1528402602.317, 45, 0, 1024, 1024, 1024, 1024, 0, 6, 3938, 3933, 3946, 3945, 3970, 3953, 0, 1, 11201, -89.900, 0.000, 52.600, -0.100, 0.000, -2.900, 0.0, , , , , , 97, , , 0, 0, 0
38.7448493, -120.4087961, 16.300, 13:16:42.416, 12, 0.10, 0.31, 97, 0.900, 1.200, 52.200, 2, 100, 97, 24, 23697, -18576, 5307, 5472, 12, 14, 1528402602.417, 145, 0, 1024, 1024, 1024, 1024, 0, 6, 3938, 3933, 3946, 3945, 3970, 3953, 0, 1, 11301, -89.900, 0.000, 52.600, -0.100, 0.000, -2.900, 0.0, , , , , , 97, , , 0, 0, 0
38.7448491, -120.4087960, 16.900, 13:16:42.516, 12, 0.10, 0.30, 97, 0.500, 1.200, 52.200, 2, 100, 97, 24, 23697, -18576, 5307, 5472, 12, 14, 1528402602.517, 14, 0, 1024, 1024, 1024, 1024, 0, 6, 3938, 3933, 3946, 3945, 3970, 3953, 0, 1, 11401, -89.900, 0.000, 52.600, -0.100, 0.000, -3.000, 0.0, , , , , , 97, , , 0, 0, 0
38.7448490, -120.4087960, 17.200, 13:16:42.616, 12, 0.10, 0.29, 97, 0.300, 1.100, 52.200, 2, 100, 97, 24, 23697, -18576, 5307, 5472, 12, 14, 1528402602.617, 57, 0, 1024, 1024, 1024, 1024, 0, 6, 3938, 3933, 3946, 3945, 3970, 3953, 0, 1, 11501, -90.000, 0.000, 52.600, -0.100, 0.000, -2.900, 0.0, , , , , , 97, , , 0, 0, 0
38.7448489, -120.4087959, 17.500, 13:16:42.716, 12, 0.10, 0.28, 97, 0.100, 1.000, 52.100, 2, 100, 97, 24, 23670, -18684, 5307, 5472, 12, 14, 1528402602.717, 43, 0, 1024, 1024, 1024, 1024, 0, 6, 3938, 3933, 3946, 3945, 3970, 3953, 0, 1, 11601, -89.900, 0.000, 52.600, -0.100, 0.000, -2.900, 0.0, , , , , , 97, , , 0, 0, 0
38.7448488, -120.4087958, 17.800, 13:16:42.816, 12, 0.10, 0.28, 97, -0.100, 1.000, 52.000, 2, 100, 98, 24, 23670, -18684, 5307, 5472, 12, 14, 1528402602.817, 50, 0, 1024, 1024, 1024, 1024, 0, 6, 3938, 3933, 3946, 3945, 3970, 3953, 0, 1, 11701, -89.900, 0.000, 52.600, -0.100, 0.000, -2.900, 0.0, , , , , , 97, , , 0, 0, 0
38.7448487, -120.4087957, 18.100, 13:16:42.916, 12, 0.10, 0.28, 97, -0.400, 1.200, 52.000, 2, 100, 98, 24, 23670, -18684, 5307, 5472, 12, 14, 1528402602.917, 54, 0, 1024, 1024, 1024, 1024, 0, 6, 3938, 3933, 3946, 3945, 3970, 3953, 0, 1, 11801, -89.900, 0.000, 52.600, -0.100, 0.000, -2.900, 0.0, , , , , , 97, , , 0, 0, 0
38.7448484, -120.4087953, 19.000, 13:16:43.020, 12, 0.10, 0.29, 97, -0.900, 1.600, 52.100, 2, 100, 98, 24, 23670, -18684, 5307, 5472, 12, 14, 1528402603.021, 5, 0, 1024, 1024, 1024, 1024, 0, 6, 3938, 3933, 3946, 3945, 3970, 3953, 0, 1, 11905, -89.900, 0.000, 52.600, -0.100, 0.000, -2.900, 0.0, , , , , , 97, , , 0, 0, 0
38.7448484, -120.4087953, 19.000, 13:16:43.116, 12, 0.10, 0.29, 97, -0.900, 1.600, 52.100, 2, 100, 98, 24, 23670, -18684, 5307, 5472, 12, 14, 1528402603.116, 100, 0, 1024, 1024, 1024, 1024, 0, 6, 3938, 3933, 3946, 3945, 3970, 3953, 0, 1, 12001, -89.900, 0.000, 52.600, -0.100, 0.000, -2.900, 0.0, , , , , , 97, , , 0, 0, 0
38.7448482, -120.4087952, 19.600, 13:16:43.216, 12, 0.00, 0.28, 97, -0.900, 1.500, 52.200, 2, 100, 98, 24, 23670, -18684, 5307, 5472, 12, 14, 1528402603.217, 30, 0, 1024, 1024, 1024, 1024, 0, 6, 3940, 3918, 3941, 3945, 3966, 3950, 0, 1, 12101, -89.900, 0.000, 52.600, 0.000, 0.000, -2.800, 0.0, , , , , , 97, , , 0, 0, 0
38.7448480, -120.4087951, 20.200, 13:16:43.315, 12, 0.00, 0.27, 97, -0.600, 1.200, 52.200, 2, 100, 98, 24, 23670, -18684, 5307, 5472, 12, 14, 1528402603.316, 4, 0, 1024, 1024, 1024, 1024, 0, 6, 3940, 3918, 3941, 3945, 3966, 3950, 0, 1, 12200, -89.900, 0.000, 52.600, 0.000, 0.000, -3.000, 0.0, , , , , , 97, , , 0, 0, 0
38.7448480, -120.4087951, 20.200, 13:16:43.416, 12, 0.00, 0.27, 97, -0.600, 1.200, 52.200, 2, 100, 98, 24, 23670, -18684, 5307, 5472, 12, 14, 1528402603.417, 106, 0, 1024, 1024, 1024, 1024, 0, 6, 3940, 3918, 3941, 3945, 3966, 3950, 0, 1, 12301, -89.900, 0.000, 52.600, 0.000, 0.000, -3.000, 0.0, , , , , , 97, , , 0, 0, 0
38.7448479, -120.4087949, 20.800, 13:16:43.519, 12, 0.00, 0.28, 97, -0.800, 1.300, 52.200, 2, 100, 98, 24, 23670, -18684, 5307, 5472, 12, 14, 1528402603.520, 4, 0, 1024, 1024, 1024, 1024, 0, 6, 3940, 3918, 3941, 3945, 3966, 3950, 0, 1, 12404, -89.900, 0.000, 52.600, 0.000, 0.000, -3.000, 0.0, , , , , , 97, , , 0, 0, 0
38.7448479, -120.4087948, 21.100, 13:16:43.645, 12, 0.00, 0.28, 97, -0.900, 1.500, 52.200, 2, 100, 98, 24, 23670, -18684, 5307, 5472, 12, 14, 1528402603.645, 8, 0, 1024, 1024, 1024, 1024, 0, 6, 3940, 3918, 3941, 3945, 3966, 3950, 0, 1, 12530, -89.900, 0.000, 52.600, 0.000, 0.000, -3.000, 0.0, , , , , , 97, , , 0, 0, 0
38.7448479, -120.4087948, 21.100, 13:16:43.716, 12, 0.00, 0.28, 97, -0.900, 1.500, 52.200, 2, 100, 98, 24, 23670, -18684, 5307, 5472, 12, 14, 1528402603.717, 80, 0, 1024, 1024, 1024, 1024, 0, 6, 3940, 3918, 3941, 3945, 3966, 3950, 0, 1, 12601, -89.900, 0.000, 52.600, 0.000, 0.000, -3.000, 0.0, , , , , , 97, , , 0, 0, 0
38.7448478, -120.4087949, 21.400, 13:16:43.816, 12, 0.00, 0.28, 97, -0.900, 1.400, 52.100, 2, 100, 98, 24, 23670, -18684, 5307, 5472, 12, 14, 1528402603.817, 53, 0, 1024, 1024, 1024, 1024, 0, 6, 3940, 3918, 3941, 3945, 3966, 3950, 0, 1, 12702, -89.900, 0.000, 52.600, 0.000, 0.000, -3.000, 0.0, , , , , , 97, , , 0, 0, 0
38.7448478, -120.4087949, 21.400, 13:16:43.916, 12, 0.00, 0.28, 97, -0.900, 1.400, 52.100, 2, 100, 98, 24, 23670, -18684, 5307, 5472, 12, 14, 1528402603.917, 153, 0, 1024, 1024, 1024, 1024, 0, 6, 3940, 3918, 3941, 3945, 3966, 3950, 0, 1, 12801, -89.900, 0.000, 52.600, 0.000, 0.000, -3.000, 0.0, , , , , , 97, , , 0, 0, 0
38.7448478, -120.4087949, 21.400, 13:16:44.016, 12, 0.00, 0.28, 97, -0.900, 1.400, 52.100, 2, 100, 98, 24, 23615, -19134, 5307, 5472, 12, 14, 1528402604.017, 253, 0, 1024, 1024, 1024, 1024, 0, 6, 3940, 3918, 3941, 3945, 3966, 3950, 0, 1, 12901, -89.900, 0.000, 52.600, 0.000, 0.000, -3.000, 0.0, , , , , , 97, , , 0, 0, 0
38.7448476, -120.4087948, 22.300, 13:16:44.116, 12, 0.00, 0.28, 97, -0.800, 0.900, 52.100, 2, 100, 98, 24, 23615, -19134, 5307, 5472, 12, 14, 1528402604.117, 72, 0, 1024, 1024, 1024, 1024, 0, 6, 3940, 3918, 3941, 3945, 3966, 3950, 0, 1, 13002, -90.000, 0.000, 52.600, 0.000, 0.000, -3.000, 0.0, , , , , , 97, , , 0, 0, 0
38.7448475, -120.4087948, 22.700, 13:16:44.221, 12, 0.00, 0.28, 97, -1.100, 0.800, 52.100, 2, 100, 98, 24, 23615, -19134, 5307, 5472, 12, 14, 1528402604.221, 9, 0, 1024, 1024, 1024, 1024, 0, 6, 3930, 3916, 3927, 3933, 3952, 3928, 0, 1, 13106, -90.000, 0.000, 52.600, 0.000, 0.000, -2.900, 0.0, , , , , , 97, , , 0, 0, 0
38.7448475, -120.4087948, 22.700, 13:16:44.316, 12, 0.00, 0.28, 97, -1.100, 0.800, 52.100, 2, 100, 98, 24, 23615, -19134, 5307, 5472, 12, 14, 1528402604.317, 104, 0, 1024, 1024, 1024, 1024, 0, 6, 3930, 3916, 3927, 3933, 3952, 3928, 0, 1, 13201, -90.000, 0.000, 52.600, 0.000, 0.000, -2.900, 0.0, , , , , , 97, , , 0, 0, 0
38.7448473, -120.4087948, 23.000, 13:16:44.416, 12, 0.00, 0.27, 97, -1.200, 0.600, 52.100, 2, 100, 98, 24, 23615, -19134, 5307, 5472, 12, 14, 1528402604.417, 89, 0, 1024, 1024, 1024, 1024, 0, 6, 3930, 3916, 3927, 3933, 3952, 3928, 0, 1, 13301, -90.000, 0.000, 52.600, 0.000, 0.000, -2.900, 0.0, , , , , , 97, , , 0, 0, 0
38.7448472, -120.4087948, 23.200, 13:16:44.516, 12, 0.00, 0.27, 97, -0.800, 0.500, 52.100, 2, 100, 98, 24, 23615, -19134, 5307, 5472, 12, 14, 1528402604.517, 57, 0, 1024, 1024, 1024, 1024, 0, 6, 3930, 3916, 3927, 3933, 3952, 3928, 0, 1, 13401, -90.000, 0.000, 52.600, 0.000, 0.000, -2.800, 0.0, , , , , , 97, , , 0, 0, 0
38.7448471, -120.4087947, 23.500, 13:16:44.616, 12, 0.00, 0.27, 97, -0.400, 0.400, 52.100, 2, 100, 98, 24, 23615, -19134, 5307, 5472, 12, 14, 1528402604.617, 47, 0, 1024, 1024, 1024, 1024, 0, 6, 3930, 3916, 3927, 3933, 3952, 3928, 0, 1, 13501, -90.000, 0.000, 52.600, 0.000, 0.000, -2.800, 0.0, , , , , , 97, , , 0, 0, 0
38.7448470, -120.4087946, 23.800, 13:16:44.716, 12, 0.00, 0.28, 97, -0.400, 0.600, 52.100, 2, 100, 97, 24, 23615, -19134, 5307, 5472, 12, 14, 1528402604.717, 49, 0, 1024, 1024, 1024, 1024, 0, 6, 3930, 3916, 3927, 3933, 3952, 3928, 0, 1, 13601, -89.900, 0.000, 52.600, 0.000, 0.000, -2.900, 0.0, , , , , , 97, , , 0, 0, 0
38.7448470, -120.4087946, 24.100, 13:16:44.816, 12, 0.00, 0.29, 97, -0.300, 0.800, 52.300, 2, 100, 97, 24, 23615, -19134, 5307, 5472, 12, 14, 1528402604.817, 54, 0, 1024, 1024, 1024, 1024, 0, 6, 3930, 3916, 3927, 3933, 3952, 3928, 0, 1, 13701, -89.900, 0.000, 52.600, 0.000, 0.000, -2.900, 0.0, , , , , , 97, , , 0, 0, 0
38.7448469, -120.4087945, 24.400, 13:16:44.916, 12, 0.00, 0.29, 97, -0.600, 1.100, 52.400, 2, 100, 97, 24, 23615, -19134, 5307, 5472, 12, 14, 1528402604.917, 34, 0, 1024, 1024, 1024, 1024, 0, 6, 3930, 3916, 3927, 3933, 3952, 3928, 0, 1, 13802, -89.900, 0.000, 52.600, 0.000, 0.000, -2.900, 0.0, , , , , , 97, , , 0, 0, 0
38.7448469, -120.4087944, 24.700, 13:16:45.020, 12, 0.00, 0.30, 97, -1.200, 1.300, 52.500, 2, 100, 97, 24, 23615, -19134, 5307, 5472, 12, 14, 1528402605.021, 8, 0, 1024, 1024, 1024, 1024, 0, 6, 3930, 3916, 3927, 3933, 3952, 3928, 0, 1, 13905, -89.900, 0.000, 52.600, 0.000, 0.000, -3.000, 0.0, , , , , , 97, , , 0, 0, 0
38.7448469, -120.4087944, 24.700, 13:16:45.116, 12, 0.00, 0.30, 97, -1.200, 1.300, 52.500, 2, 100, 97, 24, 23615, -19134, 5307, 5472, 12, 14, 1528402605.117, 104, 0, 1024, 1024, 1024, 1024, 0, 6, 3930, 3916, 3927, 3933, 3952, 3928, 0, 1, 14001, -89.900, 0.000, 52.600, 0.000, 0.000, -3.000, 0.0, , , , , , 97, , , 0, 0, 0
38.7448468, -120.4087943, 25.300, 13:16:45.216, 12, 0.00, 0.31, 97, -1.700, 1.800, 52.500, 2, 100, 97, 24, 23559, -19351, 5307, 5472, 12, 14, 1528402605.217, 60, 0, 1024, 1024, 1024, 1024, 0, 6, 3909, 3905, 3927, 3921, 3940, 3932, 0, 1, 14101, -89.900, 0.000, 52.600, 0.000, 0.000, -3.000, 0.0, , , , , , 97, , , 0, 0, 0
38.7448468, -120.4087943, 25.600, 13:16:45.316, 12, 0.00, 0.31, 97, -1.400, 2.000, 52.400, 2, 100, 95, 24, 23559, -19351, 5307, 5472, 12, 14, 1528402605.317, 70, 0, 1024, 1024, 1024, 1024, 0, 6, 3909, 3905, 3927, 3921, 3940, 3932, 0, 1, 14201, -89.900, 0.000, 52.600, 0.000, 0.000, -3.000, 0.0, , , , , , 97, , , 0, 0, 0
38.7448468, -120.4087942, 25.900, 13:16:45.416, 12, 0.00, 0.32, 97, -1.100, 2.100, 52.300, 2, 100, 95, 24, 23559, -19351, 5307, 5472, 12, 14, 1528402605.418, 25, 0, 1024, 1024, 1024, 1024, 0, 6, 3909, 3905, 3927, 3921, 3940, 3932, 0, 1, 14302, -89.900, 0.000, 52.600, 0.000, 0.000, -3.000, 0.0, , , , , , 97, , , 0, 0, 0
38.7448468, -120.4087942, 25.900, 13:16:45.517, 12, 0.00, 0.32, 97, -1.100, 2.100, 52.300, 2, 100, 95, 24, 23559, -19351, 5307, 5472, 12, 14, 1528402605.517, 124, 0, 1024, 1024, 1024, 1024, 0, 6, 3909, 3905, 3927, 3921, 3940, 3932, 0, 1, 14402, -89.900, 0.000, 52.600, 0.000, 0.000, -3.000, 0.0, , , , , , 97, , , 0, 0, 0
38.7448468, -120.4087942, 25.900, 13:16:45.616, 12, 0.00, 0.32, 97, -1.100, 2.100, 52.300, 2, 100, 95, 24, 23559, -19351, 5307, 5472, 12, 14, 1528402605.617, 224, 0, 1024, 1024, 1024, 1024, 0, 6, 3909, 3905, 3927, 3921, 3940, 3932, 0, 1, 14501, -89.900, 0.000, 52.600, 0.000, 0.000, -3.000, 0.0, , , , , , 97, , , 0, 0, 0
38.7448468, -120.4087940, 26.500, 13:16:45.717, 12, 0.00, 0.33, 97, -1.300, 2.300, 51.900, 2, 100, 95, 24, 23559, -19351, 5307, 5472, 12, 14, 1528402605.718, 82, 0, 1024, 1024, 1024, 1024, 0, 6, 3909, 3905, 3927, 3921, 3940, 3932, 0, 1, 14602, -89.900, 0.000, 52.600, 0.000, 0.000, -3.000, 0.0, , , , , , 97, , , 0, 0, 0
38.7448468, -120.4087938, 27.100, 13:16:45.816, 12, 0.00, 0.35, 97, -1.800, 2.300, 51.800, 2, 100, 96, 24, 23559, -19351, 5307, 5472, 12, 14, 1528402605.817, 20, 0, 1024, 1024, 1024, 1024, 0, 6, 3909, 3905, 3927, 3921, 3940, 3932, 0, 1, 14702, -89.900, 0.000, 52.600, 0.000, 0.000, -2.900, 0.0, , , , , , 97, , , 0, 0, 0
38.7448468, -120.4087938, 27.100, 13:16:45.916, 12, 0.00, 0.35, 97, -1.800, 2.300, 51.800, 2, 100, 96, 24, 23559, -19351, 5307, 5472, 12, 14, 1528402605.917, 119, 0, 1024, 1024, 1024, 1024, 0, 6, 3909, 3905, 3927, 3921, 3940, 3932, 0, 1, 14801, -89.900, 0.000, 52.600, 0.000, 0.000, -2.900, 0.0, , , , , , 97, , , 0, 0, 0
38.7448467, -120.4087938, 27.400, 13:16:46.016, 12, 0.00, 0.36, 97, -1.800, 2.100, 51.800, 2, 100, 96, 24, 23559, -19351, 5307, 5472, 12, 14, 1528402606.017, 62, 0, 1024, 1024, 1024, 1024, 0, 6, 3909, 3905, 3927, 3921, 3940, 3932, 0, 1, 14901, -89.900, 0.000, 52.600, 0.000, 0.000, -3.000, 0.0, , , , , , 97, , , 0, 0, 0
38.7448467, -120.4087937, 27.700, 13:16:46.116, 12, 0.00, 0.36, 97, -2.100, 2.000, 51.900, 2, 100, 96, 24, 23559, -19351, 5307, 5472, 12, 14, 1528402606.117, 57, 0, 1024, 1024, 1024, 1024, 0, 6, 3909, 3905, 3927, 3921, 3940, 3932, 0, 1, 15001, -89.900, 0.000, 52.600, 0.000, 0.000, -3.000, 0.0, , , , , , 97, , , 0, 0, 0
38.7448467, -120.4087936, 28.000, 13:16:46.216, 12, 0.00, 0.37, 97, -2.300, 1.700, 52.000, 2, 100, 96, 24, 23446, -19703, 5307, 5472, 12, 14, 1528402606.217, 37, 0, 1024, 1024, 1024, 1024, 0, 6, 3905, 3887, 3921, 3915, 3931, 3919, 0, 1, 15101, -89.900, 0.000, 52.600, 0.000, 0.000, -3.000, 0.0, , , , , , 97, , , 0, 0, 0
38.7448467, -120.4087936, 28.000, 13:16:46.316, 12, 0.00, 0.37, 97, -2.300, 1.700, 52.000, 2, 100, 96, 24, 23446, -19703, 5307, 5472, 12, 14, 1528402606.317, 136, 0, 1024, 1024, 1024, 1024, 0, 6, 3905, 3887, 3921, 3915, 3931, 3919, 0, 1, 15201, -89.900, 0.000, 52.600, 0.000, 0.000, -3.000, 0.0, , , , , , 97, , , 0, 0, 0
38.7448466, -120.4087935, 28.600, 13:16:46.416, 12, 0.00, 0.38, 97, -2.500, 2.000, 51.700, 2, 100, 95, 24, 23446, -19703, 5307, 5472, 12, 14, 1528402606.417, 19, 0, 1024, 1024, 1024, 1024, 0, 6, 3905, 3887, 3921, 3915, 3931, 3919, 0, 1, 15301, -89.900, 0.000, 52.600, 0.000, 0.000, -2.900, 0.0, , , , , , 97, , , 0, 0, 0
38.7448466, -120.4087935, 28.600, 13:16:46.516, 12, 0.00, 0.38, 97, -2.500, 2.000, 51.700, 2, 100, 95, 24, 23446, -19703, 5307, 5472, 12, 14, 1528402606.517, 119, 0, 1024, 1024, 1024, 1024, 0, 6, 3905, 3887, 3921, 3915, 3931, 3919, 0, 1, 15401, -89.900, 0.000, 52.600, 0.000, 0.000, -2.900, 0.0, , , , , , 97, , , 0, 0, 0
38.7448467, -120.4087936, 29.100, 13:16:46.616, 12, 0.00, 0.37, 97, -1.600, 2.000, 51.800, 2, 100, 95, 24, 23446, -19703, 5307, 5472, 12, 14, 1528402606.617, 11, 0, 1024, 1024, 1024, 1024, 0, 6, 3905, 3887, 3921, 3915, 3931, 3919, 0, 1, 15501, -89.900, 0.000, 52.600, 0.000, 0.000, -2.900, 0.0, , , , , , 97, , , 0, 0, 0
38.7448468, -120.4087935, 29.400, 13:16:46.716, 12, 0.00, 0.38, 97, -1.200, 2.200, 52.000, 2, 100, 95, 24, 23446, -19703, 5307, 5472, 12, 14, 1528402606.717, 80, 0, 1024, 1024, 1024, 1024, 0, 6, 3905, 3887, 3921, 3915, 3931, 3919, 0, 1, 15601, -89.900, 0.000, 52.600, 0.000, 0.000, -2.900, 0.0, , , , , , 97, , , 0, 0, 0
38.7448468, -120.4087935, 29.400, 13:16:46.816, 12, 0.00, 0.38, 97, -1.200, 2.200, 52.000, 2, 100, 95, 24, 23446, -19703, 5307, 5472, 12, 14, 1528402606.817, 179, 0, 1024, 1024, 1024, 1024, 0, 6, 3905, 3887, 3921, 3915, 3931, 3919, 0, 1, 15701, -89.900, 0.000, 52.600, 0.000, 0.000, -2.900, 0.0, , , , , , 97, , , 0, 0, 0
38.7448470, -120.4087934, 30.000, 13:16:46.916, 12, 0.00, 0.39, 97, -1.000, 2.900, 52.200, 2, 100, 95, 24, 23446, -19703, 5307, 5472, 12, 14, 1528402606.916, 43, 0, 1024, 1024, 1024, 1024, 0, 6, 3905, 3887, 3921, 3915, 3931, 3919, 0, 1, 15801, -89.900, 0.000, 52.600, 0.000, 0.000, -2.900, 0.0, , , , , , 97, , , 0, 0, 0
38.7448470, -120.4087933, 30.300, 13:16:47.016, 12, 0.00, 0.40, 97, -1.400, 3.200, 52.300, 2, 100, 95, 24, 23446, -19703, 5307, 5472, 12, 14, 1528402607.016, 32, 0, 1024, 1024, 1024, 1024, 0, 6, 3905, 3887, 3921, 3915, 3931, 3919, 0, 1, 15901, -89.900, 0.000, 52.600, 0.000, 0.000, -2.900, 0.0, , , , , , 97, , , 0, 0, 0
38.7448470, -120.4087933, 30.300, 13:16:47.116, 12, 0.00, 0.40, 97, -1.400, 3.200, 52.300, 2, 100, 95, 24, 23446, -19703, 5307, 5472, 12, 14, 1528402607.117, 133, 0, 1024, 1024, 1024, 1024, 0, 6, 3905, 3887, 3921, 3915, 3931, 3919, 0, 1, 16002, -89.900, 0.000, 52.600, 0.000, 0.000, -2.900, 0.0, , , , , , 97, , , 0, 0, 0
38.7448471, -120.4087933, 30.600, 13:16:47.216, 12, 0.00, 0.40, 97, -1.500, 3.100, 52.300, 2, 100, 95, 24, 23446, -19703, 5307, 5472, 12, 14, 1528402607.217, 89, 0, 1024, 1024, 1024, 1024, 0, 6, 3905, 3887, 3921, 3915, 3931, 3919, 0, 1, 16101, -89.900, 0.000, 52.600, 0.000, 0.000, -3.000, 0.0, , , , , , 97, , , 0, 0, 0
38.7448471, -120.4087933, 30.900, 13:16:47.316, 12, 0.00, 0.40, 97, -0.700, 3.300, 52.500, 2, 100, 95, 24, 23446, -19703, 5307, 5472, 12, 14, 1528402607.317, 48, 0, 1024, 1024, 1024, 1024, 0, 6, 3905, 3887, 3921, 3915, 3931, 3919, 0, 1, 16201, -89.900, 0.000, 52.600, 0.000, 0.000, -3.000, 0.0, , , , , , 97, , , 0, 0, 0
38.7448472, -120.4087933, 31.200, 13:16:47.416, 12, 0.00, 0.40, 97, -0.500, 3.700, 52.500, 2, 100, 89, 24, 23446, -19703, 5307, 5472, 12, 14, 1528402607.417, 38, 0, 1024, 1024, 1024, 1024, 0, 6, 3905, 3887, 3921, 3915, 3931, 3919, 0, 1, 16302, -89.900, 0.000, 52.600, 0.000, 0.000, -3.000, 0.0, , , , , , 97, , , 0, 0, 0
38.7448472, -120.4087933, 31.200, 13:16:47.516, 12, 0.00, 0.40, 97, -0.500, 3.700, 52.500, 2, 100, 89, 24, 23446, -19703, 5307, 5472, 12, 14, 1528402607.517, 138, 0, 1024, 1024, 1024, 1024, 0, 6, 3905, 3887, 3921, 3915, 3931, 3919, 0, 1, 16401, -89.900, 0.000, 52.600, 0.000, 0.000, -3.000, 0.0, , , , , , 97, , , 0, 0, 0
38.7448473, -120.4087933, 31.800, 13:16:47.615, 12, 0.00, 0.40, 97, -1.900, 3.400, 51.800, 2, 100, 89, 24, 23446, -19703, 5307, 5472, 12, 14, 1528402607.616, 61, 0, 1024, 1024, 1024, 1024, 0, 6, 3905, 3887, 3921, 3915, 3931, 3919, 0, 1, 16500, -89.900, 0.000, 52.600, 0.000, 0.000, -3.000, 0.0, , , , , , 97, , , 0, 0, 0
38.7448473, -120.4087933, 31.800, 13:16:47.716, 12, 0.00, 0.40, 97, -1.900, 3.400, 51.800, 2, 100, 89, 24, 23446, -19703, 5307, 5472, 12, 14, 1528402607.717, 162, 0, 1024, 1024, 1024, 1024, 0, 6, 3905, 3887, 3921, 3915, 3931, 3919, 0, 1, 16601, -89.900, 0.000, 52.600, 0.000, 0.000, -3.000, 0.0, , , , , , 97, , , 0, 0, 0
38.7448473, -120.4087932, 32.100, 13:16:47.816, 12, 0.00, 0.41, 97, -2.000, 3.000, 51.400, 2, 100, 89, 24, 23446, -19703, 5307, 5472, 12, 14, 1528402607.817, 49, 0, 1024, 1024, 1024, 1024, 0, 6, 3905, 3887, 3921, 3915, 3931, 3919, 0, 1, 16701, -89.900, 0.000, 52.600, 0.000, 0.000, -3.100, 0.0, , , , , , 97, , , 0, 0, 0
38.7448472, -120.4087932, 32.500, 13:16:47.915, 12, 0.00, 0.41, 97, -2.400, 2.600, 51.100, 2, 100, 89, 24, 23548, -18597, 5307, 5472, 12, 14, 1528402607.916, 76, 0, 1024, 1024, 1024, 1024, 0, 6, 3905, 3887, 3921, 3915, 3931, 3919, 0, 1, 16800, -90.000, 0.000, 52.600, 0.000, 0.000, -3.100, 0.0, , , , , , 97, , , 0, 0, 0
38.7448472, -120.4087930, 33.700, 13:16:48.026, 12, 0.10, 0.42, 97, -3.100, 2.600, 51.800, 2, 100, 89, 24, 23548, -18597, 5307, 5472, 12, 14, 1528402608.027, 12, 0, 1024, 1024, 1024, 1024, 0, 6, 3916, 3906, 3923, 3924, 3948, 3930, 0, 1, 16911, -89.900, 0.000, 52.600, 0.000, 0.100, -2.800, 0.0, , , , , , 97, , , 0, 0, 0
38.7448472, -120.4087930, 33.700, 13:16:48.116, 12, 0.10, 0.42, 97, -3.100, 2.600, 51.800, 2, 100, 89, 24, 23548, -18597, 5307, 5472, 12, 14, 1528402608.117, 101, 0, 1024, 1024, 1024, 1024, 0, 6, 3916, 3906, 3923, 3924, 3948, 3930, 0, 1, 17001, -89.900, 0.000, 52.600, 0.000, 0.100, -2.800, 0.0, , , , , , 97, , , 0, 0, 0
38.7448472, -120.4087930, 33.700, 13:16:48.215, 12, 0.10, 0.42, 97, -3.100, 2.600, 51.800, 2, 100, 89, 24, 23548, -18597, 5307, 5472, 12, 14, 1528402608.216, 201, 0, 1024, 1024, 1024, 1024, 0, 6, 3916, 3906, 3923, 3924, 3948, 3930, 0, 1, 17100, -89.900, 0.000, 52.600, 0.000, 0.100, -2.800, 0.0, , , , , , 97, , , 0, 0, 0
38.7448472, -120.4087930, 33.700, 13:16:48.315, 12, 0.10, 0.42, 97, -3.100, 2.600, 51.800, 2, 100, 89, 24, 23548, -18597, 5307, 5472, 12, 14, 1528402608.316, 301, 0, 1024, 1024, 1024, 1024, 0, 6, 3916, 3906, 3923, 3924, 3948, 3930, 0, 1, 17200, -89.900, 0.000, 52.600, 0.000, 0.100, -2.800, 0.0, , , , , , 97, , , 0, 0, 0
38.7448472, -120.4087929, 34.000, 13:16:48.416, 12, 0.10, 0.43, 97, -3.400, 3.900, 52.100, 2, 100, 89, 24, 23548, -18597, 5307, 5472, 12, 14, 1528402608.417, 65, 0, 1024, 1024, 1024, 1024, 0, 6, 3916, 3906, 3923, 3924, 3948, 3930, 0, 1, 17301, -89.900, 0.000, 52.600, 0.000, 0.100, -2.900, 0.0, , , , , , 97, , , 0, 0, 0
38.7448473, -120.4087928, 34.300, 13:16:48.525, 12, 0.10, 0.44, 97, -3.100, 4.600, 52.300, 2, 100, 90, 24, 23465, -19342, 5307, 5472, 12, 14, 1528402608.526, 28, 0, 1024, 1024, 1024, 1024, 0, 6, 3916, 3906, 3923, 3924, 3948, 3930, 0, 1, 17410, -89.900, 0.000, 52.600, 0.000, 0.100, -2.900, 0.0, , , , , , 97, , , 0, 0, 0
38.7448473, -120.4087928, 34.300, 13:16:48.616, 12, 0.10, 0.44, 97, -3.100, 4.600, 52.300, 2, 100, 90, 24, 23465, -19342, 5307, 5472, 12, 14, 1528402608.617, 119, 0, 1024, 1024, 1024, 1024, 0, 6, 3916, 3906, 3923, 3924, 3948, 3930, 0, 1, 17501, -89.900, 0.000, 52.600, 0.000, 0.100, -2.900, 0.0, , , , , , 97, , , 0, 0, 0
38.7448473, -120.4087928, 34.300, 13:16:48.716, 12, 0.10, 0.44, 97, -3.100, 4.600, 52.300, 2, 100, 90, 24, 23465, -19342, 5307, 5472, 12, 14, 1528402608.717, 219, 0, 1024, 1024, 1024, 1024, 0, 6, 3916, 3906, 3923, 3924, 3948, 3930, 0, 1, 17601, -89.900, 0.000, 52.600, 0.000, 0.100, -2.900, 0.0, , , , , , 97, , , 0, 0, 0
38.7448474, -120.4087926, 34.800, 13:16:48.815, 12, 0.00, 0.46, 97, -2.100, 5.200, 52.400, 2, 100, 90, 24, 23465, -19342, 5307, 5472, 12, 14, 1528402608.816, 73, 0, 1024, 1024, 1024, 1024, 0, 6, 3916, 3906, 3923, 3924, 3948, 3930, 0, 1, 17700, -89.900, 0.000, 52.600, 0.000, 0.000, -2.900, 0.0, , , , , , 97, , , 0, 0, 0
38.7448476, -120.4087925, 35.700, 13:16:48.950, 12, 0.00, 0.47, 97, -2.600, 4.900, 52.100, 2, 100, 94, 24, 23465, -19342, 5307, 5472, 12, 14, 1528402608.952, 15, 0, 1024, 1024, 1024, 1024, 0, 6, 3916, 3906, 3923, 3924, 3948, 3930, 0, 1, 17837, -89.900, 0.000, 52.600, 0.000, 0.000, -2.900, 0.0, , , , , , 97, , , 0, 0, 0
38.7448476, -120.4087925, 35.700, 13:16:49.019, 12, 0.00, 0.47, 97, -2.600, 4.900, 52.100, 2, 100, 94, 24, 23465, -19342, 5307, 5472, 12, 14, 1528402609.020, 83, 0, 1024, 1024, 1024, 1024, 0, 6, 3916, 3906, 3923, 3924, 3948, 3930, 0, 1, 17904, -89.900, 0.000, 52.600, 0.000, 0.000, -2.900, 0.0, , , , , , 97, , , 0, 0, 0
38.7448476, -120.4087925, 35.700, 13:16:49.116, 12, 0.00, 0.47, 97, -2.600, 4.900, 52.100, 2, 100, 94, 24, 23465, -19342, 5307, 5472, 12, 14, 1528402609.117, 179, 0, 1024, 1024, 1024, 1024, 0, 6, 3916, 3906, 3923, 3924, 3948, 3930, 0, 1, 18001, -89.900, 0.000, 52.600, 0.000, 0.000, -2.900, 0.0, , , , , , 97, , , 0, 0, 0
38.7448476, -120.4087924, 36.200, 13:16:49.221, 12, 0.00, 0.48, 97, -2.700, 4.500, 51.900, 2, 100, 94, 24, 23465, -19342, 5307, 5472, 12, 14, 1528402609.222, 11, 0, 1024, 1024, 1024, 1024, 0, 6, 3916, 3906, 3923, 3924, 3948, 3930, 0, 1, 18107, -89.900, 0.000, 52.600, 0.000, 0.000, -2.900, 0.0, , , , , , 97, , , 0, 0, 0
38.7448476, -120.4087923, 36.500, 13:16:49.324, 12, 0.00, 0.49, 97, -3.100, 4.400, 51.900, 2, 100, 94, 24, 23465, -19342, 5307, 5472, 12, 14, 1528402609.324, 10, 0, 1024, 1024, 1024, 1024, 0, 6, 3916, 3906, 3923, 3924, 3948, 3930, 0, 1, 18209, -89.900, 0.000, 52.600, 0.000, 0.000, -3.000, 0.0, , , , , , 97, , , 0, 0, 0
38.7448476, -120.4087923, 36.500, 13:16:49.416, 12, 0.00, 0.49, 97, -3.100, 4.400, 51.900, 2, 100, 94, 24, 23465, -19342, 5307, 5472, 12, 14, 1528402609.417, 102, 0, 1024, 1024, 1024, 1024, 0, 6, 3916, 3906, 3923, 3924, 3948, 3930, 0, 1, 18301, -89.900, 0.000, 52.600, 0.000, 0.000, -3.000, 0.0, , , , , , 97, , , 0, 0, 0
38.7448475, -120.4087923, 36.800, 13:16:49.516, 12, 0.00, 0.49, 96, -3.500, 4.400, 51.800, 2, 100, 94, 24, 23465, -19342, 5253, 5472, 12, 14, 1528402609.518, 70, 0, 1024, 1024, 1024, 1024, 0, 6, 3905, 3890, 3918, 3910, 3930, 3919, 0, 1, 18402, -89.900, 0.000, 52.600, 0.000, 0.000, -3.000, 0.0, , , , , , 97, , , 0, 0, 0
38.7448475, -120.4087920, 37.700, 13:16:49.616, 12, 0.00, 0.51, 96, -3.900, 4.100, 51.900, 2, 100, 94, 24, 23465, -19342, 5253, 5472, 12, 14, 1528402609.617, 97, 0, 1024, 1024, 1024, 1024, 0, 6, 3905, 3890, 3918, 3910, 3930, 3919, 0, 1, 18501, -89.900, 0.000, 52.600, 0.000, 0.000, -3.000, 0.0, , , , , , 97, , , 0, 0, 0
38.7448475, -120.4087920, 37.700, 13:16:49.716, 12, 0.00, 0.51, 96, -3.900, 4.100, 51.900, 2, 100, 94, 24, 23465, -19342, 5253, 5472, 12, 14, 1528402609.717, 197, 0, 1024, 1024, 1024, 1024, 0, 6, 3905, 3890, 3918, 3910, 3930, 3919, 0, 1, 18601, -89.900, 0.000, 52.600, 0.000, 0.000, -3.000, 0.0, , , , , , 97, , , 0, 0, 0
38.7448475, -120.4087920, 38.000, 13:16:49.816, 12, 0.00, 0.51, 96, -4.000, 4.400, 51.800, 2, 100, 94, 24, 23465, -19342, 5253, 5472, 12, 14, 1528402609.817, 66, 0, 1024, 1024, 1024, 1024, 0, 6, 3905, 3890, 3918, 3910, 3930, 3919, 0, 1, 18701, -89.900, 0.000, 52.600, 0.000, 0.000, -2.900, 0.0, , , , , , 97, , , 0, 0, 0
38.7448475, -120.4087920, 38.000, 13:16:49.916, 12, 0.00, 0.51, 96, -4.000, 4.400, 51.800, 2, 100, 94, 24, 23551, -19342, 5253, 5472, 12, 14, 1528402609.917, 166, 0, 1024, 1024, 1024, 1024, 0, 6, 3905, 3890, 3918, 3910, 3930, 3919, 0, 1, 18801, -89.900, 0.000, 52.600, 0.000, 0.000, -2.900, 0.0, , , , , , 97, , , 0, 0, 0
38.7448475, -120.4087920, 38.000, 13:16:50.016, 12, 0.00, 0.51, 96, -4.000, 4.400, 51.800, 2, 100, 97, 24, 23551, -19342, 5253, 5472, 12, 14, 1528402610.017, 266, 0, 1024, 1024, 1024, 1024, 0, 6, 3905, 3890, 3918, 3910, 3930, 3919, 0, 1, 18901, -89.900, 0.000, 52.600, 0.000, 0.000, -2.900, 0.0, , , , , , 97, , , 0, 0, 0
38.7448475, -120.4087919, 38.900, 13:16:50.116, 12, 0.00, 0.53, 96, -4.700, 4.800, 51.800, 2, 100, 97, 24, 23551, -19342, 5253, 5472, 12, 14, 1528402610.116, 89, 0, 1024, 1024, 1024, 1024, 0, 6, 3913, 3900, 3914, 3915, 3942, 3929, 0, 1, 19001, -89.900, 0.000, 52.600, 0.000, 0.000, -3.000, 0.0, , , , , , 97, , , 0, 0, 0
38.7448475, -120.4087918, 39.500, 13:16:50.217, 12, 0.00, 0.53, 96, -4.800, 4.500, 51.900, 2, 100, 97, 24, 23551, -19342, 5253, 5472, 12, 14, 1528402610.218, 6, 0, 1024, 1024, 1024, 1024, 0, 6, 3913, 3900, 3914, 3915, 3942, 3929, 0, 1, 19102, -89.900, 0.000, 52.600, 0.000, 0.000, -3.000, 0.0, , , , , , 97, , , 0, 0, 0
38.7448475, -120.4087918, 39.800, 13:16:50.316, 12, 0.00, 0.53, 96, -4.400, 4.600, 51.900, 2, 100, 97, 24, 23551, -19342, 5253, 5472, 12, 14, 1528402610.317, 29, 0, 1024, 1024, 1024, 1024, 0, 6, 3913, 3900, 3914, 3915, 3942, 3929, 0, 1, 19201, -89.900, 0.000, 52.600, 0.000, 0.000, -2.900, 0.0, , , , , , 97, , , 0, 0, 0
38.7448475, -120.4087918, 39.800, 13:16:50.416, 12, 0.00, 0.53, 96, -4.400, 4.600, 51.900, 2, 100, 97, 24, 23551, -19342, 5253, 5472, 12, 14, 1528402610.416, 128, 0, 1024, 1024, 1024, 1024, 0, 6, 3913, 3900, 3914, 3915, 3942, 3929, 0, 1, 19301, -89.900, 0.000, 52.600, 0.000, 0.000, -2.900, 0.0, , , , , , 97, , , 0, 0, 0
38.7448475, -120.4087918, 39.800, 13:16:50.516, 12, 0.00, 0.53, 96, -4.400, 4.600, 51.900, 2, 100, 97, 24, 23551, -19342, 5253, 5472, 12, 14, 1528402610.517, 229, 0, 1024, 1024, 1024, 1024, 0, 6, 3913, 3900, 3914, 3915, 3942, 3929, 0, 1, 19401, -89.900, 0.000, 52.600, 0.000, 0.000, -2.900, 0.0, , , , , , 97, , , 0, 0, 0
38.7448477, -120.4087918, 40.300, 13:16:50.616, 12, 0.00, 0.53, 96, -3.600, 4.900, 51.900, 2, 100, 97, 24, 23551, -19342, 5253, 5472, 12, 14, 1528402610.617, 63, 0, 1024, 1024, 1024, 1024, 0, 6, 3913, 3900, 3914, 3915, 3942, 3929, 0, 1, 19501, -89.900, 0.000, 52.600, 0.000, 0.000, -2.900, 0.0, , , , , , 97, , , 0, 0, 0
38.7448478, -120.4087918, 40.900, 13:16:50.716, 12, 0.00, 0.53, 96, -3.300, 5.300, 51.800, 2, 100, 97, 24, 23551, -19342, 5253, 5472, 12, 14, 1528402610.717, 48, 0, 1024, 1024, 1024, 1024, 0, 6, 3913, 3900, 3914, 3915, 3942, 3929, 0, 1, 19601, -89.900, 0.000, 52.600, 0.000, 0.000, -3.100, 0.0, , , , , , 97, , , 0, 0, 0
38.7448479, -120.4087919, 41.200, 13:16:50.816, 12, 0.00, 0.53, 96, -3.400, 5.100, 51.800, 2, 100, 97, 24, 23551, -19342, 5253, 5472, 12, 14, 1528402610.817, 64, 0, 1024, 1024, 1024, 1024, 0, 6, 3913, 3900, 3914, 3915, 3942, 3929, 0, 1, 19701, -89.900, 0.000, 52.600, 0.000, 0.000, -3.000, 0.0, , , , , , 97, , , 0, 0, 0
38.7448479, -120.4087919, 41.500, 13:16:50.916, 12, 0.00, 0.53, 96, -3.300, 5.100, 51.800, 2, 100, 95, 24, 23424, -20733, 5253, 5472, 12, 14, 1528402610.917, 81, 0, 1024, 1024, 1024, 1024, 0, 6, 3913, 3900, 3914, 3915, 3942, 3929, 0, 1, 19802, -89.900, 0.000, 52.600, 0.000, 0.000, -3.000, 0.0, , , , , , 97, , , 0, 0, 0
38.7448479, -120.4087919, 41.500, 13:16:51.016, 12, 0.00, 0.53, 96, -3.300, 5.100, 51.800, 2, 100, 95, 24, 23424, -20733, 5253, 5472, 12, 14, 1528402611.017, 181, 0, 1024, 1024, 1024, 1024, 0, 6, 3872, 3845, 3903, 3899, 3915, 3902, 0, 1, 19901, -89.900, 0.000, 52.600, 0.000, 0.000, -3.000, 0.0, , , , , , 97, , , 0, 0, 0
38.7448479, -120.4087919, 41.500, 13:16:51.116, 12, 0.00, 0.53, 96, -3.300, 5.100, 51.800, 2, 100, 95, 24, 23424, -20733, 5253, 5472, 12, 14, 1528402611.117, 281, 0, 1024, 1024, 1024, 1024, 0, 6, 3872, 3845, 3903, 3899, 3915, 3902, 0, 1, 20001, -89.900, 0.000, 52.600, 0.000, 0.000, -3.000, 0.0, , , , , , 97, , , 0, 0, 0
38.7448480, -120.4087919, 42.700, 13:16:51.220, 12, 0.00, 0.53, 96, -3.900, 5.000, 51.900, 2, 100, 95, 24, 23424, -20733, 5253, 5472, 12, 14, 1528402611.220, 8, 0, 1024, 1024, 1024, 1024, 0, 6, 3872, 3845, 3903, 3899, 3915, 3902, 0, 1, 20105, -89.900, 0.000, 52.600, 0.000, 0.000, -3.100, 0.0, , , , , , 97, , , 0, 0, 0
38.7448480, -120.4087919, 42.700, 13:16:51.316, 12, 0.00, 0.53, 96, -3.900, 5.000, 51.900, 2, 100, 95, 24, 23424, -20733, 5253, 5472, 12, 14, 1528402611.317, 105, 0, 1024, 1024, 1024, 1024, 0, 6, 3872, 3845, 3903, 3899, 3915, 3902, 0, 1, 20201, -89.900, 0.000, 52.600, 0.000, 0.000, -3.100, 0.0, , , , , , 97, , , 0, 0, 0
38.7448480, -120.4087919, 43.100, 13:16:51.416, 12, 0.00, 0.53, 96, -3.900, 4.700, 51.800, 2, 100, 98, 24, 23424, -20733, 5253, 5472, 12, 14, 1528402611.417, 65, 0, 1024, 1024, 1024, 1024, 0, 6, 3872, 3845, 3903, 3899, 3915, 3902, 0, 1, 20301, -89.900, 0.000, 52.600, 0.000, 0.000, -3.100, 0.0, , , , , , 97, , , 0, 0, 0
38.7448479, -120.4087919, 43.400, 13:16:51.516, 12, 0.00, 0.53, 96, -3.900, 4.900, 51.700, 2, 100, 98, 24, 23424, -20733, 5253, 5472, 12, 14, 1528402611.517, 88, 0, 1024, 1024, 1024, 1024, 0, 6, 3872, 3845, 3903, 3899, 3915, 3902, 0, 1, 20401, -89.900, 0.000, 52.600, 0.000, 0.000, -3.200, 0.0, , , , , , 97, , , 0, 0, 0
38.7448479, -120.4087919, 43.400, 13:16:51.616, 12, 0.00, 0.53, 96, -3.900, 4.900, 51.700, 2, 100, 98, 24, 23424, -20733, 5253, 5472, 12, 14, 1528402611.617, 188, 0, 1024, 1024, 1024, 1024, 0, 6, 3872, 3845, 3903, 3899, 3915, 3902, 0, 1, 20501, -89.900, 0.000, 52.600, 0.000, 0.000, -3.200, 0.0, , , , , , 97, , , 0, 0, 0
38.7448477, -120.4087919, 44.400, 13:16:51.716, 12, 0.00, 0.53, 96, -4.900, 5.000, 51.700, 2, 100, 98, 24, 23177, -22029, 5253, 5472, 12, 14, 1528402611.717, 18, 0, 1024, 1024, 1024, 1024, 0, 6, 3872, 3845, 3903, 3899, 3915, 3902, 0, 1, 20601, -89.900, 0.000, 52.600, 0.000, 0.000, -3.100, 0.0, , , , , , 97, , , 0, 0, 0
38.7448476, -120.4087919, 44.700, 13:16:51.820, 12, 0.00, 0.53, 96, -5.200, 5.100, 51.900, 2, 100, 98, 24, 23177, -22029, 5253, 5472, 12, 14, 1528402611.820, 14, 0, 1024, 1024, 1024, 1024, 0, 6, 3856, 3842, 3868, 3861, 3883, 3884, 0, 1, 20705, -89.900, 0.000, 52.600, 0.000, 0.000, -3.100, 0.0, , , , , , 97, , , 0, 0, 0
38.7448476, -120.4087919, 44.700, 13:16:51.915, 12, 0.00, 0.53, 96, -5.200, 5.100, 51.900, 2, 100, 99, 24, 23177, -22029, 5253, 5472, 12, 14, 1528402611.916, 110, 0, 1024, 1024, 1024, 1024, 0, 6, 3856, 3842, 3868, 3861, 3883, 3884, 0, 1, 20800, -89.900, 0.000, 52.600, 0.000, 0.000, -3.100, 0.0, , , , , , 97, , , 0, 0, 0
38.7448476, -120.4087919, 45.000, 13:16:52.016, 12, 0.00, 0.53, 96, -5.100, 5.200, 52.000, 2, 100, 99, 24, 23177, -22029, 5253, 5472, 12, 14, 1528402612.016, 85, 0, 1024, 1024, 1024, 1024, 0, 6, 3856, 3842, 3868, 3861, 3883, 3884, 0, 1, 20901, -89.900, 0.000, 52.600, 0.000, 0.000, -3.100, 0.0, , , , , , 97, , , 0, 0, 0
38.7448475, -120.4087919, 45.400, 13:16:52.116, 12, 0.00, 0.53, 96, -4.700, 5.200, 52.200, 2, 100, 99, 24, 23177, -22029, 5253, 5472, 12, 14, 1528402612.117, 81, 0, 1024, 1024, 1024, 1024, 0, 6, 3856, 3842, 3868, 3861, 3883, 3884, 0, 1, 21002, -89.900, 0.000, 52.600, 0.000, 0.000, -3.100, 0.0, , , , , , 97, , , 0, 0, 0
38.7448475, -120.4087919, 45.400, 13:16:52.216, 12, 0.00, 0.53, 96, -4.700, 5.200, 52.200, 2, 100, 99, 24, 23177, -22029, 5253, 5472, 12, 14, 1528402612.217, 180, 0, 1024, 1024, 1024, 1024, 0, 6, 3856, 3842, 3868, 3861, 3883, 3884, 0, 1, 21101, -89.900, 0.000, 52.600, 0.000, 0.000, -3.100, 0.0, , , , , , 97, , , 0, 0, 0
38.7448474, -120.4087918, 46.000, 13:16:52.316, 12, 0.00, 0.53, 96, -4.700, 5.200, 52.300, 2, 100, 99, 24, 23177, -22029, 5253, 5472, 12, 14, 1528402612.317, 30, 0, 1024, 1024, 1024, 1024, 0, 6, 3856, 3842, 3868, 3861, 3883, 3884, 0, 1, 21201, -89.900, 0.000, 52.600, 0.000, 0.000, -3.100, 0.0, , , , , , 97, , , 0, 0, 0
