latitude,longitude,altitude(feet),ascent(feet),speed(mph),distance(feet),time(millisecond),datetime(utc),satellites,gpslevel,voltage(v),max_altitude(feet),max_ascent(feet),max_speed(mph),max_distance(feet), xSpeed(mph), ySpeed(mph), zSpeed(mph), compass_heading(degrees), pitch(degrees), roll(degrees),isPhoto,isVideo,rc_elevator,rc_aileron,rc_throttle,rc_rudder,gimbal_heading(degrees),gimbal_pitch(degrees),battery_percent,voltageCell1,voltageCell2,voltageCell3,voltageCell4,voltageCell5,voltageCell6,current(A),battery_temperature(f),flycStateRaw,flycState,message
38.7448245,-120.4088406,4220.1009985603,0,0,0,3110,2018-06-07 21:11:55,9,0,0,4220.1009985603,0,0,0,0,0,0,321.2, -0.5, 0.1,1,0,1024,1024,1024,1024,320.5,-89.9,98,4.225,4.24,4.249,4.248,4.236,4.246,0,75.2,11,AutoTakeoff,DJI_0859.jpg Starting Mission from Lat/Long: 38.74482/-120.40884 Camera: Zenmuse X3 - Overlap: 90/90 - Active Connection: No
38.7448245,-120.4088407,4220.4290825603,0.328084,0,0.0284561032728,3200,2018-06-07 21:11:55,8,0,0,4220.4290825603,0.328084,0,0.0284561032728,0,0,0,321.2, 0, 0.5,0,0,1024,1024,1024,1024,320.5,-89.9,98,4.225,4.24,4.249,4.248,4.236,4.246,0,75.2,11,AutoTakeoff,
38.7448245,-120.4088407,4220.4290825603,0.328084,0,0.0284561032728,3300,2018-06-07 21:11:55,8,0,0,4220.4290825603,0.328084,0,0.0284561032728,0,0,0,321, 0, 0.6,0,0,1024,1024,1024,1024,320.5,-89.9,98,4.225,4.24,4.249,4.248,4.236,4.246,0,75.2,11,AutoTakeoff,
38.7448245,-120.4088408,4220.7571665603,0.656168,0,0.056912075312,3400,2018-06-07 21:11:55,9,0,0,4220.7571665603,0.656168,0,0.056912075312,0,0,0,320.9, 0, 0.6,0,0,1024,1024,1024,1024,320.5,-89.9,98,4.225,4.24,4.249,4.248,4.236,4.246,0,75.2,11,AutoTakeoff,
38.7448245,-120.408841,4221.0852505603,0.984252,0,0.113824478708,3600,2018-06-07 21:11:55,11,0,0,4221.0852505603,0.984252,0,0.113824478708,0,0,0,320.7, 0.4, 0.1,0,0,1024,1024,1024,1024,320.5,-89.9,98,4.225,4.24,4.249,4.248,4.236,4.246,0,75.2,11,AutoTakeoff,
38.7448245,-120.4088411,4221.0852505603,0.984252,0,0.142280516364,3800,2018-06-07 21:11:55,11,0,0,4221.0852505603,0.984252,0,0.142280516364,0,0,0,320.8, 0.2, -0.1,0,0,1024,1024,1024,1024,320.5,-89.9,98,4.225,4.24,4.249,4.248,4.236,4.246,0,75.2,11,AutoTakeoff,
38.7448245,-120.4088412,4221.4133345603,1.312336,0,0.17073655402,3900,2018-06-07 21:11:56,11,0,0,4221.4133345603,1.312336,0,0.17073655402,0,0,0,320.9, 0, 0,0,0,1024,1024,1024,1024,320.5,-89.9,98,4.225,4.24,4.249,4.248,4.236,4.246,0,75.2,11,AutoTakeoff,
38.7448244,-120.4088412,4221.7414185603,1.64042,0,0.174591212936,4000,2018-06-07 21:11:56,11,0,25.617,4221.7414185603,1.64042,0,0.174591212936,0,0,0,321, 0.2, 0,0,0,1024,1024,1024,1024,320.5,-89.9,98,4.225,4.24,4.249,4.248,4.236,4.246,3.609,75.2,11,AutoTakeoff,
38.7448244,-120.4088413,4222.0695025603,1.968504,0,0.20250656816,4210,2018-06-07 21:11:56,12,0,25.617,4222.0695025603,1.968504,0,0.20250656816,0,0,0,321, 0.3, 0,0,0,1024,1024,1024,1024,320.5,-89.9,98,4.225,4.24,4.249,4.248,4.236,4.246,3.609,75.2,11,AutoTakeoff,
38.7448243,-120.4088414,4222.0695025603,1.968504,0,0.239057750432,4400,2018-06-07 21:11:56,12,0,25.617,4222.0695025603,1.968504,0,0.239057750432,0,0,0,321, 0.1, 0.2,0,0,1024,1024,1024,1024,320.5,-89.9,98,4.225,4.24,4.249,4.248,4.236,4.246,3.609,75.2,11,AutoTakeoff,
38.7448243,-120.4088415,4222.3975865603,2.296588,0,0.2662975807,4500,2018-06-07 21:11:56,11,0,25.617,4222.3975865603,2.296588,0,0.2662975807,0,0,-0.223694,321, 0.1, 0.5,0,0,1024,1024,1024,1024,320.5,-89.9,98,4.225,4.24,4.249,4.248,4.236,4.246,3.609,75.2,11,AutoTakeoff,
38.7448243,-120.4088415,4222.3975865603,2.296588,0,0.2662975807,4600,2018-06-07 21:11:56,11,0,25.617,4222.3975865603,2.296588,0,0.2662975807,0,0,-0.223694,320.9, 0.1, 0.4,0,0,1024,1024,1024,1024,320.5,-89.9,98,4.225,4.24,4.249,4.248,4.236,4.246,3.609,75.2,11,AutoTakeoff,
38.7448243,-120.4088414,4222.7256705603,2.624672,0,0.239057750432,4700,2018-06-07 21:11:56,11,0,25.617,4222.7256705603,2.624672,0,0.2662975807,0,0,-0.223694,320.9, 0.1, 0.4,0,0,1024,1024,1024,1024,320.5,-89.9,98,4.225,4.24,4.249,4.248,4.236,4.246,3.609,75.2,11,AutoTakeoff,
38.7448242,-120.4088414,4222.7256705603,2.624672,0,0.25259515244,4800,2018-06-07 21:11:56,11,0,25.617,4222.7256705603,2.624672,0,0.2662975807,0,0,0,320.8, 0, 0.2,0,0,1024,1024,1024,1024,320.5,-89.9,98,4.225,4.24,4.249,4.248,4.236,4.246,3.609,75.2,11,AutoTakeoff,
38.7448242,-120.4088414,4223.0537545603,2.952756,0,0.25259515244,4900,2018-06-07 21:11:57,11,0,25.617,4223.0537545603,2.952756,0,0.2662975807,0,0,-0.223694,320.7, 0, 0.1,0,0,1024,1024,1024,1024,320.5,-89.9,98,4.225,4.24,4.249,4.248,4.236,4.246,3.609,75.2,14,Waypoint,
38.7448241,-120.4088415,4223.0537545603,2.952756,0,0.294768054052,5000,2018-06-07 21:11:57,11,0,24.597,4223.0537545603,2.952756,0,0.294768054052,0,0,0,320.7, -0.1, 0,0,0,1024,1024,1024,1024,320.5,-90,98,4.063,4.086,4.055,4.051,4.077,4.059,13.34,75.2,14,Waypoint,
38.7448241,-120.4088415,4223.3818385603,3.28084,0,0.294768054052,5100,2018-06-07 21:11:57,10,0,24.597,4223.3818385603,3.28084,0,0.294768054052,0,0,0,320.6, -0.4, 0,0,0,1024,1024,1024,1024,320.5,-90,98,4.063,4.086,4.055,4.051,4.077,4.059,13.34,75.2,14,Waypoint,
38.744824,-120.4088411,4223.3818385603,3.28084,0,0.231349416852,5200,2018-06-07 21:11:57,12,0,24.597,4223.3818385603,3.28084,0,0.294768054052,0,0,0,320.6, -0.9, -0.5,0,0,1024,1024,1024,1024,320.5,-90,98,4.063,4.086,4.055,4.051,4.077,4.059,13.34,75.2,14,Waypoint,
38.7448241,-120.4088409,4223.7099225603,3.608924,0,0.169074480476,5300,2018-06-07 21:11:57,12,0,24.597,4223.7099225603,3.608924,0,0.294768054052,0,0,0,320.6, -1.1, -0.7,0,0,1024,1024,1024,1024,320.5,-90,98,4.063,4.086,4.055,4.051,4.077,4.059,13.34,75.2,14,Waypoint,
38.744824,-120.4088409,4223.7099225603,3.608924,0,0.201411423768,5400,2018-06-07 21:11:57,12,0,24.597,4223.7099225603,3.608924,0,0.294768054052,0,0,-0.223694,320.6, -1.1, -0.9,0,0,1024,1024,1024,1024,320.5,-90,98,4.063,4.086,4.055,4.051,4.077,4.059,13.34,75.2,14,Waypoint,
38.7448239,-120.4088411,4224.0380065603,3.937008,0,0.261084654024,5510,2018-06-07 21:11:57,12,0,24.597,4224.0380065603,3.937008,0,0.294768054052,0,0,-0.223694,320.5, -1, -0.8,0,0,1024,1024,1024,1024,320.5,-90,98,4.063,4.086,4.055,4.051,4.077,4.059,13.34,75.2,14,Waypoint,
38.7448239,-120.4088412,4224.3660905603,4.265092,0,0.277619103372,5600,2018-06-07 21:11:57,12,0,24.597,4224.3660905603,4.265092,0,0.294768054052,0,0,-0.223694,320.6, -0.8, -0.3,0,0,1024,1024,1024,1024,320.5,-90,98,4.063,4.086,4.055,4.051,4.077,4.059,13.34,75.2,14,Waypoint,
38.7448239,-120.4088413,4224.6941745603,4.593176,0,0.295971466164,5800,2018-06-07 21:11:57,12,0,24.597,4224.6941745603,4.593176,0,0.295971466164,0,0,-0.223694,320.6, -0.5, 0,0,0,1024,1024,1024,1024,320.5,-90,98,4.063,4.086,4.055,4.051,4.077,4.059,13.34,75.2,14,Waypoint,
38.744824,-120.4088414,4225.0222585603,4.92126,0,0.291723762616,5900,2018-06-07 21:11:58,11,0,24.597,4225.0222585603,4.92126,0,0.295971466164,0,0,-0.223694,320.6, -0.2, 0.1,0,0,1024,1024,1024,1024,320.5,-89.9,98,4.063,4.086,4.055,4.051,4.077,4.059,13.34,75.2,14,Waypoint,
38.7448241,-120.4088414,4225.6784265603,5.577428,0,0.270411425976,6000,2018-06-07 21:11:58,11,0,24.201,4225.6784265603,5.577428,0,0.295971466164,0,0,-0.447388,320.6, 0, 0,0,0,1024,1024,1024,1024,320.5,-89.9,98,4.013,4.044,4.025,4.025,4.032,4.029,16.161,75.2,14,Waypoint,
38.7448242,-120.4088415,4226.0065105603,5.905512,0,0.278514116524,6100,2018-06-07 21:11:58,9,0,24.201,4226.0065105603,5.905512,0,0.295971466164,0,0,-0.447388,320.6, 0.2, -0.1,0,0,1024,1024,1024,1024,320.5,-89.9,98,4.013,4.044,4.025,4.025,4.032,4.029,16.161,75.2,14,Waypoint,
38.7448243,-120.4088414,4226.6626785603,6.56168,0,0.239057750432,6200,2018-06-07 21:11:58,9,0,24.201,4226.6626785603,6.56168,0,0.295971466164,0,0,-0.447388,320.6, 0.4, -0.2,0,0,1024,1024,1024,1024,320.5,-89.9,98,4.013,4.044,4.025,4.025,4.032,4.029,16.161,75.2,14,Waypoint,
38.7448244,-120.4088414,4227.3188465603,7.217848,0,0.230553813152,6310,2018-06-07 21:11:58,10,0,24.201,4227.3188465603,7.217848,0,0.295971466164,0,0,-0.447388,320.6, 0.6, -0.4,0,0,1024,1024,1024,1024,320.5,-89.9,98,4.013,4.044,4.025,4.025,4.032,4.029,16.161,75.2,14,Waypoint,
38.7448244,-120.4088414,4227.3188465603,7.217848,0,0.230553813152,6400,2018-06-07 21:11:58,10,0,24.201,4227.3188465603,7.217848,0,0.295971466164,0,0,-0.447388,320.6, 0.6, -0.4,0,0,1024,1024,1024,1024,320.5,-89.9,98,4.013,4.044,4.025,4.025,4.032,4.029,16.161,75.2,14,Waypoint,
38.7448246,-120.4088411,4228.9592665603,8.858268,0,0.146883862968,6600,2018-06-07 21:11:58,10,0,24.201,4228.9592665603,8.858268,0,0.295971466164,0,0,-0.671082,320.6, 0.1, -0.6,0,0,1024,1024,1024,1024,320.5,-89.9,98,4.013,4.044,4.025,4.025,4.032,4.029,16.161,75.2,14,Waypoint,
38.7448247,-120.4088411,4229.9435185603,9.84252,0,0.159900923752,6700,2018-06-07 21:11:58,10,0,24.201,4229.9435185603,9.84252,0,0.295971466164,0,0,-0.671082,320.6, 0, -0.6,0,0,1024,1024,1024,1024,320.5,-89.9,98,4.013,4.044,4.025,4.025,4.032,4.029,16.161,75.2,14,Waypoint,
38.7448248,-120.4088409,4232.2401065603,12.139108,0,0.138809715728,6810,2018-06-07 21:11:58,9,0,24.201,4232.2401065603,12.139108,0,0.295971466164,0,0,-0.671082,320.7, 0, -0.7,0,0,1024,1024,1024,1024,320.5,-89.9,98,4.013,4.044,4.025,4.025,4.032,4.029,16.161,75.2,14,Waypoint,
38.7448248,-120.4088408,4233.2243585603,13.12336,0,0.123366801848,6900,2018-06-07 21:11:59,9,0,24.201,4233.2243585603,13.12336,0,0.295971466164,0,0,-0.671082,320.7, -0.1, -0.8,0,0,1024,1024,1024,1024,320.5,-89.9,98,4.013,4.044,4.025,4.025,4.032,4.029,16.161,75.2,14,Waypoint,
38.744825,-120.4088406,4234.2086105603,14.107612,0,0.18242454652,7000,2018-06-07 21:11:59,9,0,24.034,4234.2086105603,14.107612,0,0.295971466164,0,0,-0.671082,320.7, -0.3, -0.9,0,0,1024,1024,1024,1024,320.5,-90,98,3.982,4.026,4.009,3.975,3.97,3.984,16.485,75.2,14,Waypoint,
38.744825,-120.4088404,4235.5209465603,15.419948,0,0.191096134724,7100,2018-06-07 21:11:59,11,0,24.034,4235.5209465603,15.419948,0,0.295971466164,0,0,-0.671082,320.8, -0.4, -1.2,0,0,1024,1024,1024,1024,320.5,-90,98,3.982,4.026,4.009,3.975,3.97,3.984,16.485,75.2,14,Waypoint,
38.744825,-120.4088403,4236.5051985603,16.4042,0,0.201411423768,7200,2018-06-07 21:11:59,11,0,24.034,4236.5051985603,16.4042,0,0.295971466164,0,0,-0.671082,320.8, -0.5, -1.3,0,0,1024,1024,1024,1024,320.5,-90,98,3.982,4.026,4.009,3.975,3.97,3.984,16.485,75.2,14,Waypoint,
38.7448249,-120.4088402,4237.4894505603,17.388452,0,0.185079402248,7300,2018-06-07 21:11:59,11,0,24.034,4237.4894505603,17.388452,0,0.295971466164,0,0,-0.671082,320.8, -0.8, -1.2,0,0,1024,1024,1024,1024,320.5,-90,98,3.982,4.026,4.009,3.975,3.97,3.984,16.485,75.2,14,Waypoint,
38.7448248,-120.4088402,4238.8017865603,18.700788,0,0.157912406628,7400,2018-06-07 21:11:59,11,0,24.034,4238.8017865603,18.700788,0,0.295971466164,0,0,-0.671082,320.8, -0.9, -0.9,0,0,1024,1024,1024,1024,320.5,-90,98,3.982,4.026,4.009,3.975,3.97,3.984,16.485,75.2,14,Waypoint,
38.7448247,-120.4088403,4239.7860385603,19.68504,0,0.11230479362,7500,2018-06-07 21:11:59,11,0,24.034,4239.7860385603,19.68504,0,0.295971466164,0,0,-0.671082,320.8, -0.9, -0.5,0,0,1024,1024,1024,1024,320.5,-89.9,98,3.982,4.026,4.009,3.975,3.97,3.984,16.485,75.2,14,Waypoint,
38.7448247,-120.4088403,4241.0983745603,20.997376,0,0.11230479362,7600,2018-06-07 21:11:59,11,0,24.034,4241.0983745603,20.997376,0,0.295971466164,0,0,-0.671082,320.8, -0.7, -0.4,0,0,1024,1024,1024,1024,320.5,-89.9,98,3.982,4.026,4.009,3.975,3.97,3.984,16.485,75.2,14,Waypoint,
38.7448247,-120.4088403,4242.0826265603,21.981628,0,0.11230479362,7700,2018-06-07 21:11:59,11,0,24.034,4242.0826265603,21.981628,0,0.295971466164,0,0,-0.671082,320.8, -0.5, -0.3,0,0,1024,1024,1024,1024,320.5,-89.9,98,3.982,4.026,4.009,3.975,3.97,3.984,16.485,75.2,14,Waypoint,
38.7448245,-120.4088405,4244.3792145603,24.278216,0,0.0284561032728,7800,2018-06-07 21:11:59,11,0,24.034,4244.3792145603,24.278216,0,0.295971466164,0,0,-0.671082,320.8, -0.2, -0.1,0,0,1024,1024,1024,1024,320.5,-89.9,98,3.982,4.026,4.009,3.975,3.97,3.984,16.485,75.2,14,Waypoint,
38.7448244,-120.4088406,4245.3634665603,25.262468,0,0.036484909304,7900,2018-06-07 21:12:00,11,0,24.034,4245.3634665603,25.262468,0,0.295971466164,0,0,-0.671082,320.8, -0.2, 0,0,0,1024,1024,1024,1024,320.5,-89.9,98,3.982,4.026,4.009,3.975,3.97,3.984,16.485,75.2,14,Waypoint,
38.7448244,-120.4088408,4246.3477185603,26.24672,0,0.067603020536,8000,2018-06-07 21:12:00,11,0,23.438,4246.3477185603,26.24672,0,0.295971466164,0,0,-0.671082,320.8, -0.3, 0.1,0,0,1024,1024,1024,1024,320.5,-89.9,98,3.881,3.921,3.903,3.902,3.884,3.903,23.757,75.2,14,Waypoint,
38.7448244,-120.4088409,4247.3319705603,27.230972,0,0.09283792948,8100,2018-06-07 21:12:00,11,0,23.438,4247.3319705603,27.230972,0,0.295971466164,0,0,-0.671082,320.7, -0.3, 0.1,0,0,1024,1024,1024,1024,320.5,-89.9,98,3.881,3.921,3.903,3.902,3.884,3.903,23.757,75.2,14,Waypoint,
38.7448243,-120.4088411,4248.3162225603,28.215224,0,0.159900923752,8200,2018-06-07 21:12:00,11,0,23.438,4248.3162225603,28.215224,0,0.295971466164,0,0,-0.671082,320.7, -0.1, 0.3,0,0,1024,1024,1024,1024,320.5,-89.9,98,3.881,3.921,3.903,3.902,3.884,3.903,23.757,75.2,14,Waypoint,
38.7448241,-120.4088412,4249.3004745603,29.199476,0,0.22460958724,8300,2018-06-07 21:12:00,11,0,23.438,4249.3004745603,29.199476,0,0.295971466164,0,0,-0.671082,320.7, 0, 0.4,0,0,1024,1024,1024,1024,320.5,-89.9,98,3.881,3.921,3.903,3.902,3.884,3.903,23.757,75.2,14,Waypoint,
38.7448241,-120.4088413,4250.6128105603,30.511812,0,0.246933406852,8400,2018-06-07 21:12:00,11,0,23.438,4250.6128105603,30.511812,0,0.295971466164,0,0,-0.671082,320.7, -0.1, 0.7,0,0,1024,1024,1024,1024,320.5,-89.9,98,3.881,3.921,3.903,3.902,3.884,3.903,23.757,75.2,14,Waypoint,
38.744824,-120.4088417,4252.5813145603,32.480316,0,0.36229659952,8600,2018-06-07 21:12:00,12,0,23.438,4252.5813145603,32.480316,0,0.36229659952,0,0,-0.671082,320.7, 0, 1,0,0,1024,1024,1024,1024,320.5,-89.9,98,3.881,3.921,3.903,3.902,3.884,3.903,23.757,75.2,14,Waypoint,
38.744824,-120.4088419,4254.5498185603,34.44882,0,0.41246392396,8810,2018-06-07 21:12:00,12,0,23.438,4254.5498185603,34.44882,0,0.41246392396,0,0,-0.671082,320.8, 0, 0.8,0,0,1024,1024,1024,1024,320.5,-89.9,98,3.881,3.921,3.903,3.902,3.884,3.903,23.757,75.2,14,Waypoint,
38.744824,-120.4088419,4255.5340705603,35.433072,0,0.41246392396,8900,2018-06-07 21:12:01,12,0,23.438,4255.5340705603,35.433072,0,0.41246392396,0,0,-0.671082,320.8, 0, 0.6,0,0,1024,1024,1024,1024,320.5,-89.9,98,3.881,3.921,3.903,3.902,3.884,3.903,23.757,75.2,14,Waypoint,
38.744824,-120.408842,4256.5183225603,36.417324,0,0.43816602452,9000,2018-06-07 21:12:01,12,0,23.65,4256.5183225603,36.417324,0,0.43816602452,0,0,-0.671082,320.7, -0.1, 0.4,0,0,1024,1024,1024,1024,320.5,-89.9,98,3.921,3.955,3.946,3.947,3.942,3.949,20.985,75.2,14,Waypoint,
38.744824,-120.4088421,4257.8306585603,37.72966,0,0.4641896474,9100,2018-06-07 21:12:01,12,0,23.65,4257.8306585603,37.72966,0,0.4641896474,0,0,-0.671082,320.6, -0.1, 0.2,0,0,1024,1024,1024,1024,320.5,-89.9,98,3.921,3.955,3.946,3.947,3.942,3.949,20.985,75.2,14,Waypoint,
38.744824,-120.4088422,4258.8149105603,38.713912,0,0.49048558,9200,2018-06-07 21:12:01,11,0,23.65,4258.8149105603,38.713912,0,0.49048558,0,0,-0.671082,320.6, -0.1, 0.3,0,0,1024,1024,1024,1024,320.5,-89.9,98,3.921,3.955,3.946,3.947,3.942,3.949,20.985,75.2,14,Waypoint,
38.744824,-120.4088422,4259.7991625603,39.698164,0,0.49048558,9300,2018-06-07 21:12:01,11,0,23.65,4259.7991625603,39.698164,0,0.49048558,0,0,-0.671082,320.6, 0, 0.5,0,0,1024,1024,1024,1024,320.5,-89.9,98,3.921,3.955,3.946,3.947,3.942,3.949,20.985,75.2,14,Waypoint,
38.744824,-120.4088423,4260.7834145603,40.682416,0,0.51700789056,9500,2018-06-07 21:12:01,11,0,23.65,4260.7834145603,40.682416,0,0.51700789056,0,0,-0.671082,320.6, 0, 0.5,0,0,1024,1024,1024,1024,320.5,-89.9,98,3.921,3.955,3.946,3.947,3.942,3.949,20.985,75.2,14,Waypoint,
38.744824,-120.4088423,4261.7676665603,41.666668,0,0.51700789056,9600,2018-06-07 21:12:01,11,0,23.65,4261.7676665603,41.666668,0,0.51700789056,0,0,-0.671082,320.6, -0.1, 0.4,0,0,1024,1024,1024,1024,320.5,-89.9,98,3.921,3.955,3.946,3.947,3.942,3.949,20.985,75.2,14,Waypoint,
38.744824,-120.4088424,4262.7519185603,42.65092,0,0.54372705152,9700,2018-06-07 21:12:01,11,0,23.65,4262.7519185603,42.65092,0,0.54372705152,0,0,-0.671082,320.7, -0.1, 0.5,0,0,1024,1024,1024,1024,320.5,-89.9,98,3.921,3.955,3.946,3.947,3.942,3.949,20.985,75.2,14,Waypoint,
38.7448239,-120.4088424,4263.7361705603,43.635172,0,0.55702757688,9800,2018-06-07 21:12:01,11,0,23.65,4263.7361705603,43.635172,0,0.55702757688,0,0,-0.671082,320.7, -0.1, 0.7,0,0,1024,1024,1024,1024,320.5,-89.9,98,3.921,3.955,3.946,3.947,3.942,3.949,20.985,75.2,14,Waypoint,
38.7448239,-120.4088424,4264.7204225603,44.619424,0,0.55702757688,9900,2018-06-07 21:12:02,12,0,23.65,4264.7204225603,44.619424,0,0.55702757688,0,0,-0.671082,320.6, -0.2, 0.6,0,0,1024,1024,1024,1024,320.5,-89.9,98,3.921,3.955,3.946,3.947,3.942,3.949,20.985,75.2,14,Waypoint,
38.7448239,-120.4088424,4265.7046745603,45.603676,0,0.55702757688,10000,2018-06-07 21:12:02,12,0,23.693,4265.7046745603,45.603676,0,0.55702757688,0,0,-0.671082,320.6, -0.2, 0.5,0,0,1024,1024,1024,1024,320.5,-89.9,97,3.93,3.962,3.95,3.956,3.946,3.951,19.189,75.2,14,Waypoint,
38.744824,-120.4088424,4266.6889265603,46.587928,0,0.54372705152,10100,2018-06-07 21:12:02,12,0,23.693,4266.6889265603,46.587928,0,0.55702757688,0,0,-0.671082,320.6, -0.2, 0.4,0,0,1024,1024,1024,1024,320.5,-89.9,97,3.93,3.962,3.95,3.956,3.946,3.951,19.189,75.2,14,Waypoint,
38.744824,-120.4088424,4268.6574305603,48.556432,0,0.54372705152,10200,2018-06-07 21:12:02,12,0,23.693,4268.6574305603,48.556432,0,0.55702757688,0,0,-0.671082,320.6, 0, 0.1,0,0,1024,1024,1024,1024,320.5,-89.9,97,3.93,3.962,3.95,3.956,3.946,3.951,19.189,75.2,14,Waypoint,
38.744824,-120.4088422,4270.6259345603,50.524936,0,0.49048558,10400,2018-06-07 21:12:02,12,0,23.693,4270.6259345603,50.524936,0,0.55702757688,0,0,-0.671082,320.5, 0, 0,0,0,1024,1024,1024,1024,320.5,-89.9,97,3.93,3.962,3.95,3.956,3.946,3.951,19.189,75.2,14,Waypoint,
38.7448241,-120.4088422,4271.6101865603,51.509188,0,0.4781168132,10500,2018-06-07 21:12:02,12,0,23.693,4271.6101865603,51.509188,0,0.55702757688,0,0,-0.671082,320.5, -0.2, -0.1,0,0,1024,1024,1024,1024,320.5,-90,97,3.93,3.962,3.95,3.956,3.946,3.951,19.189,75.2,14,Waypoint,
38.7448241,-120.4088421,4272.5944385603,52.49344,0,0.45110237664,10600,2018-06-07 21:12:02,12,0,23.693,4272.5944385603,52.49344,0,0.55702757688,0,0,-0.671082,320.5, -0.5, -0.2,0,0,1024,1024,1024,1024,320.5,-90,97,3.93,3.962,3.95,3.956,3.946,3.951,19.189,75.2,14,Waypoint,
38.744824,-120.408842,4273.5786905603,53.477692,0,0.43816602452,10700,2018-06-07 21:12:02,12,0,23.693,4273.5786905603,53.477692,0,0.55702757688,0,0,-0.671082,320.6, -0.6, -0.2,0,0,1024,1024,1024,1024,320.5,-90,97,3.93,3.962,3.95,3.956,3.946,3.951,19.189,75.2,14,Waypoint,
38.744824,-120.4088419,4274.5629425603,54.461944,0,0.41246392396,10810,2018-06-07 21:12:02,12,0,23.693,4274.5629425603,54.461944,0,0.55702757688,0,0,-0.671082,320.6, -0.7, -0.2,0,0,1024,1024,1024,1024,320.5,-90,97,3.93,3.962,3.95,3.956,3.946,3.951,19.189,75.2,14,Waypoint,
38.744824,-120.4088419,4275.5471945603,55.446196,0,0.41246392396,10900,2018-06-07 21:12:03,12,0,23.693,4275.5471945603,55.446196,0,0.55702757688,0,0,-0.671082,320.6, -0.7, -0.1,0,0,1024,1024,1024,1024,320.5,-90,97,3.93,3.962,3.95,3.956,3.946,3.951,19.189,75.2,14,Waypoint,
38.744824,-120.4088419,4276.5314465603,56.430448,0,0.41246392396,11000,2018-06-07 21:12:03,12,0,23.718,4276.5314465603,56.430448,0,0.55702757688,0,0,-0.671082,320.6, -0.6, -0.1,0,0,1024,1024,1024,1024,320.5,-89.9,97,3.933,3.967,3.955,3.953,3.954,3.947,18.249,75.2,14,Waypoint,
38.744824,-120.4088418,4277.5156985603,57.4147,0,0.38714568168,11200,2018-06-07 21:12:03,12,0,23.718,4277.5156985603,57.4147,0,0.55702757688,0,0,-0.671082,320.6, -0.5, 0,0,0,1024,1024,1024,1024,320.5,-90,97,3.933,3.967,3.955,3.953,3.954,3.947,18.249,75.2,14,Waypoint,
38.744824,-120.4088418,4279.8122865603,59.711288,0,0.38714568168,11300,2018-06-07 21:12:03,12,0,23.718,4279.8122865603,59.711288,0,0.55702757688,0,0,-0.671082,320.7, -0.3, 0,0,0,1024,1024,1024,1024,320.5,-89.9,97,3.933,3.967,3.955,3.953,3.954,3.947,18.249,75.2,14,Waypoint,
38.7448241,-120.4088417,4280.7965385603,60.69554,0,0.34536746512,11400,2018-06-07 21:12:03,12,0,23.718,4280.7965385603,60.69554,0,0.55702757688,0,0,-0.671082,320.7, -0.3, 0,0,0,1024,1024,1024,1024,320.5,-89.9,97,3.933,3.967,3.955,3.953,3.954,3.947,18.249,75.2,14,Waypoint,
38.7448241,-120.4088417,4282.7650425603,62.664044,0,0.34536746512,11600,2018-06-07 21:12:03,12,0,23.718,4282.7650425603,62.664044,0,0.55702757688,0,0,-0.671082,320.7, -0.5, 0,0,0,1024,1024,1024,1024,320.5,-90,97,3.933,3.967,3.955,3.953,3.954,3.947,18.249,75.2,14,Waypoint,
38.7448241,-120.4088416,4283.7492945603,63.648296,0,0.319802175588,11800,2018-06-07 21:12:03,12,0,23.718,4283.7492945603,63.648296,0,0.55702757688,0,0,-0.671082,320.6, -0.5, 0,0,0,1024,1024,1024,1024,320.5,-89.9,97,3.933,3.967,3.955,3.953,3.954,3.947,18.249,75.2,14,Waypoint,
38.7448241,-120.4088415,4284.4054625603,64.304464,0,0.294768054052,11900,2018-06-07 21:12:04,12,0,23.718,4284.4054625603,64.304464,0,0.55702757688,0,0,-0.671082,320.6, -0.5, -0.1,0,0,1024,1024,1024,1024,320.5,-89.9,97,3.933,3.967,3.955,3.953,3.954,3.947,18.249,75.2,14,Waypoint,
38.7448241,-120.4088414,4285.3897145603,65.288716,0,0.270411425976,12000,2018-06-07 21:12:04,12,0,23.681,4285.3897145603,65.288716,0,0.55702757688,0,0,-0.671082,320.6, -0.4, 0,0,0,1024,1024,1024,1024,320.5,-89.9,97,3.932,3.961,3.96,3.951,3.944,3.955,18.354,75.2,14,Waypoint,
38.744824,-120.4088414,4286.3739665603,66.272968,0,0.291723762616,12100,2018-06-07 21:12:04,12,0,23.681,4286.3739665603,66.272968,0,0.55702757688,0,0,-0.671082,320.6, -0.5, 0,0,0,1024,1024,1024,1024,320.5,-90,97,3.932,3.961,3.96,3.951,3.944,3.955,18.354,75.2,14,Waypoint,
38.7448241,-120.4088415,4287.3582185603,67.25722,0,0.294768054052,12200,2018-06-07 21:12:04,12,0,23.681,4287.3582185603,67.25722,0,0.55702757688,0,0,-0.671082,320.6, -0.5, 0.1,0,0,1024,1024,1024,1024,320.5,-89.9,97,3.932,3.961,3.96,3.951,3.944,3.955,18.354,75.2,14,Waypoint,
38.744824,-120.4088415,4288.3424705603,68.241472,0,0.314433737096,12300,2018-06-07 21:12:04,12,0,23.681,4288.3424705603,68.241472,0,0.55702757688,0,0,-0.671082,320.6, -0.4, 0.3,0,0,1024,1024,1024,1024,320.5,-89.9,97,3.932,3.961,3.96,3.951,3.944,3.955,18.354,75.2,14,Waypoint,
38.744824,-120.4088415,4290.3109745603,70.209976,0,0.314433737096,12400,2018-06-07 21:12:04,12,0,23.681,4290.3109745603,70.209976,0,0.55702757688,0,0,-0.671082,320.6, -0.2, 0.5,0,0,1024,1024,1024,1024,320.5,-89.9,97,3.932,3.961,3.96,3.951,3.944,3.955,18.354,75.2,14,Waypoint,
38.744824,-120.4088416,4292.2794785603,72.17848,0,0.33801510268,12600,2018-06-07 21:12:04,12,0,23.681,4292.2794785603,72.17848,0,0.55702757688,0,0,-0.671082,320.7, -0.1, 0.5,0,0,1024,1024,1024,1024,320.5,-89.9,97,3.932,3.961,3.96,3.951,3.944,3.955,18.354,75.2,14,Waypoint,
38.744824,-120.4088415,4293.2637305603,73.162732,0,0.314433737096,12700,2018-06-07 21:12:04,12,0,23.681,4293.2637305603,73.162732,0,0.55702757688,0,0,-0.671082,320.8, -0.1, 0.6,0,0,1024,1024,1024,1024,320.5,-89.9,97,3.932,3.961,3.96,3.951,3.944,3.955,18.354,75.2,14,Waypoint,
38.744824,-120.4088415,4294.2479825603,74.146984,0,0.314433737096,12800,2018-06-07 21:12:04,12,0,23.681,4294.2479825603,74.146984,0,0.55702757688,0,0,-0.671082,320.9, -0.3, 0.5,0,0,1024,1024,1024,1024,320.5,-89.9,97,3.932,3.961,3.96,3.951,3.944,3.955,18.354,75.2,14,Waypoint,
38.7448239,-120.4088415,4295.2322345603,75.131236,0,0.33691274044,12900,2018-06-07 21:12:05,12,0,23.681,4295.2322345603,75.131236,0,0.55702757688,0,0,-0.671082,320.9, -0.5, 0.4,0,0,1024,1024,1024,1024,320.5,-90,97,3.932,3.961,3.96,3.951,3.944,3.955,18.354,75.2,14,Waypoint,
38.7448239,-120.4088414,4296.2164865603,76.115488,0,0.31582514134,13000,2018-06-07 21:12:05,12,0,23.608,4296.2164865603,76.115488,0,0.55702757688,0,0,-0.671082,320.8, -0.7, 0.3,0,0,1024,1024,1024,1024,320.5,-90,97,3.932,3.961,3.96,3.951,3.944,3.955,18.764,75.2,14,Waypoint,
38.7448238,-120.4088413,4298.1849905603,78.083992,0,0.323889117976,13200,2018-06-07 21:12:05,12,0,23.608,4298.1849905603,78.083992,0,0.55702757688,0,0,-0.671082,320.6, -0.9, 0.2,0,0,1024,1024,1024,1024,320.5,-90,97,3.932,3.961,3.96,3.951,3.944,3.955,18.764,75.2,14,Waypoint,
38.7448238,-120.4088413,4299.1692425603,79.068244,0,0.323889117976,13300,2018-06-07 21:12:05,12,0,23.608,4299.1692425603,79.068244,0,0.55702757688,0,0,-0.671082,320.6, -0.8, 0.3,0,0,1024,1024,1024,1024,320.5,-90,97,3.932,3.961,3.96,3.951,3.944,3.955,18.764,75.2,14,Waypoint,
38.7448238,-120.4088414,4300.1534945603,80.052496,0,0.3421259952,13400,2018-06-07 21:12:05,12,0,23.608,4300.1534945603,80.052496,0,0.55702757688,0,0,-0.671082,320.6, -0.6, 0.4,0,0,1024,1024,1024,1024,320.5,-89.9,97,3.932,3.961,3.96,3.951,3.944,3.955,18.764,75.2,14,Waypoint,
38.7448238,-120.4088415,4301.1377465603,81.036748,0,0.36168636328,13600,2018-06-07 21:12:05,12,0,23.608,4301.1377465603,81.036748,0,0.55702757688,0,0,-0.671082,320.7, -0.4, 0.5,0,0,1024,1024,1024,1024,320.5,-89.9,97,3.932,3.961,3.96,3.951,3.944,3.955,18.764,75.2,14,Waypoint,
38.7448238,-120.4088415,4303.1062505603,83.005252,0,0.36168636328,13700,2018-06-07 21:12:05,13,0,23.608,4303.1062505603,83.005252,0,0.55702757688,0,0,-0.671082,320.7, -0.1, 0.9,0,0,1024,1024,1024,1024,320.5,-89.9,97,3.932,3.961,3.96,3.951,3.944,3.955,18.764,75.2,14,Waypoint,
38.7448238,-120.4088415,4304.0905025603,83.989504,0,0.36168636328,13900,2018-06-07 21:12:06,13,0,23.608,4304.0905025603,83.989504,0,0.55702757688,0,0,-0.671082,320.6, -0.1, 1,0,0,1024,1024,1024,1024,320.5,-89.9,97,3.932,3.961,3.96,3.951,3.944,3.955,18.764,75.2,14,Waypoint,
38.7448238,-120.4088414,4305.0747545603,84.973756,0,0.3421259952,14000,2018-06-07 21:12:06,13,0,23.608,4305.0747545603,84.973756,0,0.55702757688,0,0,-0.671082,320.6, -0.4, 0.8,0,0,1024,1024,1024,1024,320.5,-89.9,97,3.912,3.95,3.94,3.938,3.937,3.939,18.764,75.2,14,Waypoint,
38.7448238,-120.4088414,4306.0590065603,85.958008,0,0.3421259952,14100,2018-06-07 21:12:06,13,0,23.608,4306.0590065603,85.958008,0,0.55702757688,0,0,-0.671082,320.5, -0.5, 0.4,0,0,1024,1024,1024,1024,320.5,-89.9,97,3.912,3.95,3.94,3.938,3.937,3.939,18.764,75.2,14,Waypoint,
38.7448238,-120.4088413,4307.0432585603,86.94226,0,0.323889117976,14200,2018-06-07 21:12:06,13,0,23.608,4307.0432585603,86.94226,0,0.55702757688,0,0,-0.671082,320.5, -0.5, 0.2,0,0,1024,1024,1024,1024,320.5,-90,97,3.912,3.95,3.94,3.938,3.937,3.939,18.764,75.2,14,Waypoint,
38.7448238,-120.4088413,4308.0275105603,87.926512,0,0.323889117976,14300,2018-06-07 21:12:06,13,0,23.608,4308.0275105603,87.926512,0,0.55702757688,0,0,-0.671082,320.6, -0.5, 0,0,0,1024,1024,1024,1024,320.5,-89.9,97,3.912,3.95,3.94,3.938,3.937,3.939,18.764,75.2,14,Waypoint,
38.7448238,-120.4088413,4309.0117625603,88.910764,0,0.323889117976,14400,2018-06-07 21:12:06,13,0,23.608,4309.0117625603,88.910764,0,0.55702757688,0,0,-0.671082,320.7, -0.3, -0.1,0,0,1024,1024,1024,1024,320.5,-89.9,97,3.912,3.95,3.94,3.938,3.937,3.939,18.764,75.2,14,Waypoint,
38.7448239,-120.4088413,4309.9960145603,89.895016,0,0.295971466164,14500,2018-06-07 21:12:06,13,0,23.608,4309.9960145603,89.895016,0,0.55702757688,0,0,-0.671082,320.9, -0.1, 0,0,0,1024,1024,1024,1024,320.5,-89.9,97,3.912,3.95,3.94,3.938,3.937,3.939,18.764,75.2,14,Waypoint,
38.7448239,-120.4088414,4310.9802665603,90.879268,0,0.31582514134,14600,2018-06-07 21:12:06,13,0,23.608,4310.9802665603,90.879268,0,0.55702757688,0,0,-0.671082,321, 0, 0.1,0,0,1024,1024,1024,1024,320.5,-89.9,97,3.912,3.95,3.94,3.938,3.937,3.939,18.764,75.2,14,Waypoint,
38.7448239,-120.4088414,4311.9645185603,91.86352,0,0.31582514134,14700,2018-06-07 21:12:06,13,0,23.608,4311.9645185603,91.86352,0,0.55702757688,0,0,-0.671082,321, 0, 0.4,0,0,1024,1024,1024,1024,320.5,-89.9,97,3.912,3.95,3.94,3.938,3.937,3.939,18.764,75.2,14,Waypoint,
38.7448239,-120.4088414,4312.9487705603,92.847772,0,0.31582514134,14800,2018-06-07 21:12:06,13,0,23.608,4312.9487705603,92.847772,0,0.55702757688,0,0,-0.671082,321, 0, 0.5,0,0,1024,1024,1024,1024,320.5,-89.9,97,3.912,3.95,3.94,3.938,3.937,3.939,18.764,75.2,14,Waypoint,
38.7448239,-120.4088414,4313.9330225603,93.832024,0,0.31582514134,14900,2018-06-07 21:12:07,13,0,23.608,4313.9330225603,93.832024,0,0.55702757688,0,0,-0.671082,320.9, -0.2, 0.6,0,0,1024,1024,1024,1024,320.5,-89.9,97,3.912,3.95,3.94,3.938,3.937,3.939,18.764,75.2,14,Waypoint,
38.7448239,-120.4088414,4314.9172745603,94.816276,0,0.31582514134,15000,2018-06-07 21:12:07,13,0,23.559,4314.9172745603,94.816276,0,0.55702757688,0,0,-0.671082,320.8, -0.5, 0.5,0,0,1024,1024,1024,1024,320.5,-90,97,3.901,3.939,3.94,3.926,3.923,3.927,19.003,75.2,14,Waypoint,
38.7448238,-120.4088412,4317.8700305603,97.769032,0,0.307208999332,15200,2018-06-07 21:12:07,13,0,23.559,4317.8700305603,97.769032,0,0.55702757688,0,0,-0.671082,320.7, -0.6, 0,0,0,1024,1024,1024,1024,320.5,-90,97,3.901,3.939,3.94,3.926,3.923,3.927,19.003,75.2,14,Waypoint,
38.7448238,-120.4088413,4318.8542825603,98.753284,0,0.323889117976,15300,2018-06-07 21:12:07,13,0,23.559,4318.8542825603,98.753284,0,0.55702757688,0,0,-0.671082,320.7, -0.6, 0,0,0,1024,1024,1024,1024,320.5,-90,97,3.901,3.939,3.94,3.926,3.923,3.927,19.003,75.2,14,Waypoint,
38.7448238,-120.4088413,4319.8385345603,99.737536,0,0.323889117976,15400,2018-06-07 21:12:07,13,0,23.559,4319.8385345603,99.737536,0,0.55702757688,0,0,-0.671082,320.7, -0.6, 0.1,0,0,1024,1024,1024,1024,320.5,-89.9,97,3.901,3.939,3.94,3.926,3.923,3.927,19.003,75.2,14,Waypoint,
38.7448238,-120.4088413,4320.8227865603,100.721788,0,0.323889117976,15500,2018-06-07 21:12:07,13,0,23.559,4320.8227865603,100.721788,0,0.55702757688,0,0,-0.671082,320.6, -0.5, 0.2,0,0,1024,1024,1024,1024,320.5,-89.9,97,3.901,3.939,3.94,3.926,3.923,3.927,19.003,75.2,14,Waypoint,
38.7448238,-120.4088413,4321.8070385603,101.70604,0,0.323889117976,15600,2018-06-07 21:12:07,13,0,23.559,4321.8070385603,101.70604,0,0.55702757688,0,0,-0.671082,320.6, -0.6, 0.3,0,0,1024,1024,1024,1024,320.5,-90,97,3.901,3.939,3.94,3.926,3.923,3.927,19.003,75.2,14,Waypoint,
38.7448237,-120.4088412,4324.7597945603,104.658796,0,0.33814961712,15900,2018-06-07 21:12:08,13,0,23.559,4324.7597945603,104.658796,0,0.55702757688,0,0,-0.671082,320.5, -0.7, 0.7,0,0,1024,1024,1024,1024,320.5,-90,97,3.901,3.939,3.94,3.926,3.923,3.927,19.003,75.2,14,Waypoint,
38.7448237,-120.4088412,4325.7440465603,105.643048,0,0.33814961712,16010,2018-06-07 21:12:08,13,0,23.572,4325.7440465603,105.643048,0,0.55702757688,0,0,-0.671082,320.5, -0.6, 0.5,0,0,1024,1024,1024,1024,320.5,-89.9,97,3.913,3.941,3.93,3.928,3.924,3.925,18.843,75.2,14,Waypoint,
38.7448237,-120.4088413,4326.7282985603,106.6273,0,0.35337271472,16110,2018-06-07 21:12:08,13,0,23.572,4326.7282985603,106.6273,0,0.55702757688,0,0,-0.671082,320.5, -0.6, 0.3,0,0,1024,1024,1024,1024,320.5,-89.9,97,3.913,3.941,3.93,3.928,3.924,3.925,18.843,75.2,14,Waypoint,
38.7448237,-120.4088413,4327.3844665603,107.283468,0,0.35337271472,16210,2018-06-07 21:12:08,13,0,23.572,4327.3844665603,107.283468,0,0.55702757688,0,0,-0.671082,320.6, -0.5, 0.1,0,0,1024,1024,1024,1024,320.5,-89.9,97,3.913,3.941,3.93,3.928,3.924,3.925,18.843,75.2,14,Waypoint,
38.7448237,-120.4088413,4327.3844665603,107.283468,0,0.35337271472,16300,2018-06-07 21:12:08,13,0,23.572,4327.3844665603,107.283468,0,0.55702757688,0,0,-0.671082,320.6, -0.5, 0.1,0,0,1024,1024,1024,1024,320.5,-89.9,97,3.913,3.941,3.93,3.928,3.924,3.925,18.843,75.2,14,Waypoint,
38.7448237,-120.4088412,4329.3529705603,109.251972,0,0.33814961712,16400,2018-06-07 21:12:08,13,0,23.572,4329.3529705603,109.251972,0,0.55702757688,0,0,-0.671082,320.7, -0.2, 0,0,0,1024,1024,1024,1024,320.5,-89.9,97,3.913,3.941,3.93,3.928,3.924,3.925,18.843,75.2,14,Waypoint,
38.7448237,-120.4088412,4330.6653065603,110.564308,0,0.33814961712,16600,2018-06-07 21:12:08,13,0,23.572,4330.6653065603,110.564308,0,0.55702757688,0,0,-0.671082,320.7, -0.1, -0.1,0,0,1024,1024,1024,1024,320.5,-89.9,97,3.913,3.941,3.93,3.928,3.924,3.925,18.843,75.2,14,Waypoint,
38.7448237,-120.4088412,4332.6338105603,112.532812,0,0.33814961712,16800,2018-06-07 21:12:08,13,0,23.572,4332.6338105603,112.532812,0,0.55702757688,0,0,-0.671082,320.8, -0.2, 0.1,0,0,1024,1024,1024,1024,320.5,-89.9,97,3.913,3.941,3.93,3.928,3.924,3.925,18.843,75.2,14,Waypoint,
38.7448236,-120.4088412,4334.6023145603,114.501316,0,0.37010171788,17000,2018-06-07 21:12:09,13,0,23.565,4334.6023145603,114.501316,0,0.55702757688,0,0,-0.671082,320.6, -0.5, 0.6,0,0,1024,1024,1024,1024,320.5,-90,97,3.903,3.94,3.924,3.924,3.924,3.926,18.591,77,14,Waypoint,
38.7448236,-120.4088412,4335.5865665603,115.485568,0,0.37010171788,17100,2018-06-07 21:12:09,13,0,23.565,4335.5865665603,115.485568,0,0.55702757688,0,0,-0.671082,320.6, -0.6, 0.6,0,0,1024,1024,1024,1024,320.5,-90,97,3.903,3.94,3.924,3.924,3.924,3.926,18.591,77,14,Waypoint,
38.7448235,-120.4088411,4337.5550705603,117.454072,0,0.39161090492,17200,2018-06-07 21:12:09,13,0,23.565,4337.5550705603,117.454072,0,0.55702757688,0,0,-0.671082,320.6, -0.5, 0.6,0,0,1024,1024,1024,1024,320.5,-89.9,97,3.903,3.94,3.924,3.924,3.924,3.926,18.591,77,14,Waypoint,
38.7448235,-120.4088411,4339.5235745603,119.422576,0,0.39161090492,17400,2018-06-07 21:12:09,13,0,23.565,4339.5235745603,119.422576,0,0.55702757688,0,0,-0.671082,320.7, -0.4, 0.6,0,0,1024,1024,1024,1024,320.5,-89.9,97,3.903,3.94,3.924,3.924,3.924,3.926,18.591,77,14,Waypoint,
38.7448235,-120.4088411,4340.5078265603,120.406828,0,0.39161090492,17500,2018-06-07 21:12:09,13,0,23.565,4340.5078265603,120.406828,0,0.55702757688,0,0,-0.671082,320.7, -0.4, 0.6,0,0,1024,1024,1024,1024,320.5,-89.9,97,3.903,3.94,3.924,3.924,3.924,3.926,18.591,77,14,Waypoint,
38.7448235,-120.4088411,4341.4920785603,121.39108,0,0.39161090492,17610,2018-06-07 21:12:09,13,0,23.565,4341.4920785603,121.39108,0,0.55702757688,0,0,-0.671082,320.8, -0.6, 0.6,0,0,1024,1024,1024,1024,320.5,-90,97,3.903,3.94,3.924,3.924,3.924,3.926,18.591,77,14,Waypoint,
38.7448235,-120.408841,4342.4763305603,122.375332,0,0.38219161328,17700,2018-06-07 21:12:09,13,0,23.565,4342.4763305603,122.375332,0,0.55702757688,0,0,-0.671082,320.8, -0.9, 0.5,0,0,1024,1024,1024,1024,320.5,-90,97,3.903,3.94,3.924,3.924,3.924,3.926,18.591,77,14,Waypoint,
38.7448235,-120.408841,4343.1324985603,123.0315,0,0.38219161328,17900,2018-06-07 21:12:10,13,0,23.565,4343.1324985603,123.0315,0,0.55702757688,0,0,-0.671082,320.8, -0.9, 0.2,0,0,1024,1024,1024,1024,320.5,-90,97,3.903,3.94,3.924,3.924,3.924,3.926,18.591,77,14,Waypoint,
38.7448235,-120.4088409,4345.4290865603,125.328088,0,0.3747047364,18000,2018-06-07 21:12:10,13,0,23.535,4345.4290865603,125.328088,0,0.55702757688,0,0,-0.671082,320.8, -0.5, 0.1,0,0,1024,1024,1024,1024,320.5,-89.9,97,3.896,3.938,3.926,3.927,3.914,3.92,18.6,77,14,Waypoint,
38.7448235,-120.408841,4348.3818425603,128.280844,0,0.38219161328,18300,2018-06-07 21:12:10,13,0,23.535,4348.3818425603,128.280844,0,0.55702757688,0,0,-0.671082,320.5, -0.3, 0.3,0,0,1024,1024,1024,1024,320.5,-89.9,97,3.896,3.938,3.926,3.927,3.914,3.92,18.6,77,14,Waypoint,
38.7448234,-120.408841,4349.3660945603,129.265096,0,0.41716208684,18500,2018-06-07 21:12:10,13,0,23.535,4349.3660945603,129.265096,0,0.55702757688,0,0,-0.671082,320.4, -0.2, 0.5,0,0,1024,1024,1024,1024,320.5,-89.9,97,3.896,3.938,3.926,3.927,3.914,3.92,18.6,77,14,Waypoint,
38.7448234,-120.4088411,4350.3503465603,130.249348,0,0.42580710024,18600,2018-06-07 21:12:10,13,0,23.535,4350.3503465603,130.249348,0,0.55702757688,0,0,-0.671082,320.4, -0.1, 0.6,0,0,1024,1024,1024,1024,320.5,-89.9,97,3.896,3.938,3.926,3.927,3.914,3.92,18.6,77,14,Waypoint,
38.7448234,-120.4088411,4351.3345985603,131.2336,0,0.42580710024,18700,2018-06-07 21:12:10,13,0,23.535,4351.3345985603,131.2336,0,0.55702757688,0,0,-0.671082,320.4, -0.1, 0.5,0,0,1024,1024,1024,1024,320.5,-89.9,97,3.896,3.938,3.926,3.927,3.914,3.92,18.6,77,14,Waypoint,
38.7448234,-120.4088411,4352.3188505603,132.217852,0,0.42580710024,18800,2018-06-07 21:12:10,13,0,23.535,4352.3188505603,132.217852,0,0.55702757688,0,0,-0.671082,320.5, -0.1, 0.7,0,0,1024,1024,1024,1024,320.5,-89.9,97,3.896,3.938,3.926,3.927,3.914,3.92,18.6,77,14,Waypoint,
38.7448234,-120.4088411,4354.2873545603,134.186356,0,0.42580710024,19000,2018-06-07 21:12:11,13,0,23.535,4354.2873545603,134.186356,0,0.55702757688,0,0,-0.671082,320.7, -0.5, 0.7,0,0,1024,1024,1024,1024,320.5,-90,97,3.896,3.938,3.926,3.927,3.914,3.92,18.6,77,14,Waypoint,
38.7448234,-120.4088411,4355.2716065603,135.170608,0,0.42580710024,19100,2018-06-07 21:12:11,13,0,23.535,4355.2716065603,135.170608,0,0.55702757688,0,0,-0.671082,320.8, -0.7, 0.6,0,0,1024,1024,1024,1024,320.5,-90,97,3.896,3.938,3.926,3.927,3.914,3.92,18.6,77,14,Waypoint,
38.7448234,-120.4088411,4357.2401105603,137.139112,0,0.42580710024,19200,2018-06-07 21:12:11,13,0,23.535,4357.2401105603,137.139112,0,0.55702757688,0,0,-0.671082,320.9, -0.8, 0.5,0,0,1024,1024,1024,1024,320.5,-90,97,3.896,3.938,3.926,3.927,3.914,3.92,18.6,77,14,Waypoint,
38.7448234,-120.4088411,4359.2086145603,139.107616,0,0.42580710024,19400,2018-06-07 21:12:11,13,0,23.535,4359.2086145603,139.107616,0,0.55702757688,0,0,-0.671082,320.9, -0.7, 0.5,0,0,1024,1024,1024,1024,320.5,-90,97,3.896,3.938,3.926,3.927,3.914,3.92,18.6,77,14,Waypoint,
38.7448234,-120.4088411,4361.1771185603,141.07612,0,0.42580710024,19600,2018-06-07 21:12:11,13,0,23.535,4361.1771185603,141.07612,0,0.55702757688,0,0,-0.671082,320.8, -0.5, 0.3,0,0,1024,1024,1024,1024,320.5,-89.9,97,3.896,3.938,3.926,3.927,3.914,3.92,18.6,77,14,Waypoint,
38.7448234,-120.4088411,4362.1613705603,142.060372,0,0.42580710024,19700,2018-06-07 21:12:11,13,0,23.535,4362.1613705603,142.060372,0,0.55702757688,0,0,-0.671082,320.7, -0.3, 0.3,0,0,1024,1024,1024,1024,320.5,-89.9,97,3.896,3.938,3.926,3.927,3.914,3.92,18.6,77,14,Waypoint,
38.7448235,-120.4088411,4363.1456225603,143.044624,0,0.39161090492,19800,2018-06-07 21:12:11,13,0,23.535,4363.1456225603,143.044624,0,0.55702757688,0,0,-0.671082,320.6, -0.1, 0.3,0,0,1024,1024,1024,1024,320.5,-89.9,97,3.896,3.938,3.926,3.927,3.914,3.92,18.6,77,14,Waypoint,
38.7448235,-120.4088411,4364.1298745603,144.028876,0,0.39161090492,19900,2018-06-07 21:12:12,13,0,23.535,4364.1298745603,144.028876,0,0.55702757688,0,0,-0.671082,320.6, -0.1, 0.2,0,0,1024,1024,1024,1024,320.5,-89.9,97,3.896,3.938,3.926,3.927,3.914,3.92,18.6,77,14,Waypoint,
38.7448236,-120.4088411,4365.1141265603,145.013128,0,0.35786418468,20000,2018-06-07 21:12:12,13,0,23.52,4365.1141265603,145.013128,0,0.55702757688,0,0,-0.671082,320.7, -0.2, 0.1,0,0,1024,1024,1024,1024,320.5,-89.9,97,3.902,3.932,3.927,3.93,3.915,3.915,18.144,77,14,Waypoint,
38.7448236,-120.4088411,4366.0983785603,145.99738,0,0.35786418468,20100,2018-06-07 21:12:12,13,0,23.52,4366.0983785603,145.99738,0,0.55702757688,0,0,-0.671082,320.8, -0.2, 0,0,0,1024,1024,1024,1024,320.5,-89.9,97,3.902,3.932,3.927,3.93,3.915,3.915,18.144,77,14,Waypoint,
38.7448237,-120.4088411,4367.0826305603,146.981632,0,0.32471129648,20200,2018-06-07 21:12:12,13,0,23.52,4367.0826305603,146.981632,0,0.55702757688,0,0,-0.671082,320.9, -0.2, -0.1,0,0,1024,1024,1024,1024,320.5,-89.9,97,3.902,3.932,3.927,3.93,3.915,3.915,18.144,77,14,Waypoint,
38.7448237,-120.408841,4368.0668825603,147.965884,0,0.313288395852,20310,2018-06-07 21:12:12,13,0,23.52,4368.0668825603,147.965884,0,0.55702757688,0,0,-0.671082,321, -0.1, -0.2,0,0,1024,1024,1024,1024,320.5,-89.9,97,3.902,3.932,3.927,3.93,3.915,3.915,18.144,77,14,Waypoint,
38.7448238,-120.408841,4369.0511345603,148.950136,0,0.27961122942,20500,2018-06-07 21:12:12,13,0,23.52,4369.0511345603,148.950136,0,0.55702757688,0,0,-0.671082,321, -0.1, -0.2,0,0,1024,1024,1024,1024,320.5,-89.9,97,3.902,3.932,3.927,3.93,3.915,3.915,18.144,77,14,Waypoint,
38.7448239,-120.408841,4371.0196385603,150.91864,0,0.246733603696,20610,2018-06-07 21:12:12,13,0,23.52,4371.0196385603,150.91864,0,0.55702757688,0,0,-0.671082,320.9, 0, -0.1,0,0,1024,1024,1024,1024,320.5,-89.9,97,3.902,3.932,3.927,3.93,3.915,3.915,18.144,77,14,Waypoint,
38.7448239,-120.408841,4372.0038905603,151.902892,0,0.246733603696,20800,2018-06-07 21:12:12,13,0,23.52,4372.0038905603,151.902892,0,0.55702757688,0,0,-0.671082,320.9, 0, -0.1,0,0,1024,1024,1024,1024,320.5,-89.9,97,3.902,3.932,3.927,3.93,3.915,3.915,18.144,77,14,Waypoint,
38.7448239,-120.408841,4372.6600585603,152.55906,0,0.246733603696,20900,2018-06-07 21:12:13,13,0,23.52,4372.6600585603,152.55906,0,0.55702757688,0,0,-0.671082,320.7, 0, -0.2,0,0,1024,1024,1024,1024,320.5,-89.9,97,3.902,3.932,3.927,3.93,3.915,3.915,18.144,77,14,Waypoint,
38.744824,-120.408841,4373.6443105603,153.543312,0,0.215022644676,21000,2018-06-07 21:12:13,13,0,23.494,4373.6443105603,153.543312,0,0.55702757688,0,0,-0.671082,320.6, 0, -0.2,0,0,1024,1024,1024,1024,320.5,-89.9,96,3.891,3.93,3.928,3.921,3.922,3.912,18.14,77,14,Waypoint,
38.744824,-120.408841,4374.6285625603,154.527564,0,0.215022644676,21100,2018-06-07 21:12:13,13,0,23.494,4374.6285625603,154.527564,0,0.55702757688,0,0,-0.671082,320.5, 0, -0.3,0,0,1024,1024,1024,1024,320.5,-89.9,96,3.891,3.93,3.928,3.921,3.922,3.912,18.14,77,14,Waypoint,
38.7448241,-120.4088409,4376.5970665603,156.496068,0,0.169074480476,21200,2018-06-07 21:12:13,13,0,23.494,4376.5970665603,156.496068,0,0.55702757688,0,0,-0.671082,320.4, 0, -0.4,0,0,1024,1024,1024,1024,320.5,-89.9,96,3.891,3.93,3.928,3.921,3.922,3.912,18.14,77,14,Waypoint,
38.7448242,-120.4088409,4378.8936545603,158.792656,0,0.138809715728,21400,2018-06-07 21:12:13,13,0,23.494,4378.8936545603,158.792656,0,0.55702757688,0,0,-0.671082,320.6, 0, -0.5,0,0,1024,1024,1024,1024,320.5,-89.9,96,3.891,3.93,3.928,3.921,3.922,3.912,18.14,77,14,Waypoint,
38.7448243,-120.4088408,4380.8621585603,160.76116,0,0.092539701124,21710,2018-06-07 21:12:13,13,0,23.494,4380.8621585603,160.76116,0,0.55702757688,0,0,-0.671082,320.7, 0.2, -0.4,0,0,1024,1024,1024,1024,320.5,-89.9,96,3.891,3.93,3.928,3.921,3.922,3.912,18.14,77,14,Waypoint,
38.7448243,-120.4088408,4381.8464105603,161.745412,0,0.092539701124,21810,2018-06-07 21:12:13,13,0,23.494,4381.8464105603,161.745412,0,0.55702757688,0,0,-0.671082,320.7, 0.2, -0.4,0,0,1024,1024,1024,1024,320.5,-89.9,96,3.891,3.93,3.928,3.921,3.922,3.912,18.14,77,14,Waypoint,
38.7448243,-120.4088408,4382.8306625603,162.729664,0,0.092539701124,21900,2018-06-07 21:12:14,13,0,23.494,4382.8306625603,162.729664,0,0.55702757688,0,0,-0.671082,320.6, 0.3, -0.6,0,0,1024,1024,1024,1024,320.5,-89.9,96,3.891,3.93,3.928,3.921,3.922,3.912,18.14,77,14,Waypoint,
38.7448243,-120.4088407,4383.8149145603,163.713916,0,0.078322180984,22300,2018-06-07 21:12:14,13,0,23.494,4383.8149145603,163.713916,0,0.55702757688,0,0,-0.671082,320.5, 0.2, -0.8,0,0,1024,1024,1024,1024,320.5,-89.9,96,3.891,3.93,3.928,3.921,3.922,3.912,18.14,77,14,Waypoint,
38.7448243,-120.4088406,4386.4395865603,166.338588,0,0.072969818608,22600,2018-06-07 21:12:14,13,0,23.494,4386.4395865603,166.338588,0,0.55702757688,0,0,-0.671082,320.5, -0.2, 0,0,0,1024,1024,1024,1024,320.5,-89.9,96,3.891,3.93,3.928,3.921,3.922,3.912,18.14,77,14,Waypoint,
38.7448242,-120.4088406,4387.7519225603,167.650924,0,0.109454727912,22700,2018-06-07 21:12:14,13,0,23.494,4387.7519225603,167.650924,0,0.55702757688,0,0,-0.671082,320.5, -0.5, 0,0,0,1024,1024,1024,1024,320.5,-90,96,3.891,3.93,3.928,3.921,3.922,3.912,18.14,77,14,Waypoint,
38.7448241,-120.4088405,4391.6889305603,171.587932,0,0.148687996884,22900,2018-06-07 21:12:15,13,0,23.494,4391.6889305603,171.587932,0,0.55702757688,0,0,-0.671082,320.5, -1.1, -0.4,0,0,1024,1024,1024,1024,320.5,-90,96,3.891,3.93,3.928,3.921,3.922,3.912,18.14,77,14,Waypoint,
38.7448241,-120.4088404,4392.6731825603,172.572184,0,0.156644361968,23100,2018-06-07 21:12:15,13,0,23.494,4392.6731825603,172.572184,0,0.55702757688,0,0,-0.671082,320.6, -0.9, -0.5,0,0,1024,1024,1024,1024,320.5,-89.9,96,3.891,3.93,3.928,3.921,3.922,3.912,18.14,77,14,Waypoint,
38.7448241,-120.4088403,4394.3136025603,174.212604,0,0.169074480476,23200,2018-06-07 21:12:15,13,0,23.494,4394.3136025603,174.212604,0,0.55702757688,0,0,-0.671082,320.6, -0.9, -0.7,0,0,1024,1024,1024,1024,320.5,-89.9,96,3.891,3.93,3.928,3.921,3.922,3.912,18.14,77,14,Waypoint,
38.7448241,-120.4088401,4396.2821065603,176.181108,0,0.20381890416,23300,2018-06-07 21:12:15,13,0,23.494,4396.2821065603,176.181108,0,0.55702757688,0,0,-0.671082,320.6, -0.8, -0.9,0,0,1024,1024,1024,1024,320.5,-89.9,96,3.891,3.93,3.928,3.921,3.922,3.912,18.14,77,14,Waypoint,
38.744824,-120.4088401,4397.2663585603,177.16536,0,0.231349416852,23410,2018-06-07 21:12:15,13,0,23.494,4397.2663585603,177.16536,0,0.55702757688,0,0,-0.671082,320.7, -0.9, -0.8,0,0,1024,1024,1024,1024,320.5,-90,96,3.891,3.93,3.928,3.921,3.922,3.912,18.14,77,14,Waypoint,
38.744824,-120.40884,4398.2506105603,178.149612,0,0.249859588048,23530,2018-06-07 21:12:15,13,0,23.494,4398.2506105603,178.149612,0,0.55702757688,0,0,-0.671082,320.6, -1.1, -0.7,0,0,1024,1024,1024,1024,320.5,-90,96,3.891,3.93,3.928,3.921,3.922,3.912,18.14,77,14,Waypoint,
38.7448239,-120.4088399,4400.2191145603,180.118116,0,0.295971466164,23600,2018-06-07 21:12:15,13,0,23.494,4400.2191145603,180.118116,0,0.55702757688,0,0,-0.671082,320.4, -1.4, -0.6,0,0,1024,1024,1024,1024,320.5,-90,96,3.891,3.93,3.928,3.921,3.922,3.912,18.14,77,14,Waypoint,
38.7448239,-120.4088399,4401.2033665603,181.102368,0,0.295971466164,23800,2018-06-07 21:12:15,13,0,23.494,4401.2033665603,181.102368,0,0.55702757688,0,0,-0.671082,320.4, -1.3, -0.6,0,0,1024,1024,1024,1024,320.5,-90,96,3.891,3.93,3.928,3.921,3.922,3.912,18.14,77,14,Waypoint,
38.7448238,-120.4088398,4402.1876185603,182.08662,0,0.3421259952,23900,2018-06-07 21:12:16,13,0,23.494,4402.1876185603,182.08662,0,0.55702757688,0,0,-0.671082,320.4, -1.2, -0.6,0,0,1024,1024,1024,1024,320.5,-90,96,3.891,3.93,3.928,3.921,3.922,3.912,18.14,77,14,Waypoint,
38.7448238,-120.4088398,4403.1718705603,183.070872,0,0.3421259952,24000,2018-06-07 21:12:16,13,0,23.467,4403.1718705603,183.070872,0,0.55702757688,0,0,-0.671082,320.5, -1.2, -0.4,0,0,1024,1024,1024,1024,320.5,-89.9,96,3.889,3.932,3.918,3.915,3.904,3.915,18.333,77,14,Waypoint,
38.7448237,-120.4088399,4405.1403745603,185.039376,0,0.35337271472,24100,2018-06-07 21:12:16,13,0,23.467,4405.1403745603,185.039376,0,0.55702757688,0,0,-0.671082,320.9, -1.1, -0.3,0,0,1024,1024,1024,1024,320.5,-89.9,96,3.889,3.932,3.918,3.915,3.904,3.915,18.333,77,14,Waypoint,
38.7448236,-120.4088399,4407.1088785603,187.00788,0,0.38405841124,24300,2018-06-07 21:12:16,13,0,23.467,4407.1088785603,187.00788,0,0.55702757688,0,0,-0.671082,321.1, -1.2, 0,0,0,1024,1024,1024,1024,320.5,-90,96,3.889,3.932,3.918,3.915,3.904,3.915,18.333,77,14,Waypoint,
38.7448235,-120.4088399,4408.0931305603,187.992132,0,0.415682428,24400,2018-06-07 21:12:16,13,0,23.467,4408.0931305603,187.992132,0,0.55702757688,0,0,-0.671082,321.1, -1.3, 0.1,0,0,1024,1024,1024,1024,320.5,-90,96,3.889,3.932,3.918,3.915,3.904,3.915,18.333,77,14,Waypoint,
38.7448234,-120.4088399,4409.0773825603,188.976384,0,0.4480479146,24500,2018-06-07 21:12:16,13,0,23.467,4409.0773825603,188.976384,0,0.55702757688,0,0,-0.671082,321, -1.1, 0.3,0,0,1024,1024,1024,1024,320.5,-89.9,96,3.889,3.932,3.918,3.915,3.904,3.915,18.333,77,14,Waypoint,
38.7448234,-120.40884,4410.0616345603,189.960636,0,0.43614174624,24600,2018-06-07 21:12:16,13,0,23.467,4410.0616345603,189.960636,0,0.55702757688,0,0,-0.671082,321, -1.1, 0.4,0,0,1024,1024,1024,1024,320.5,-90,96,3.889,3.932,3.918,3.915,3.904,3.915,18.333,77,14,Waypoint,
38.7448233,-120.40884,4411.0458865603,190.944888,0,0.4699311174,24700,2018-06-07 21:12:16,13,0,23.467,4411.0458865603,190.944888,0,0.55702757688,0,0,-0.671082,320.9, -1.5, 0.1,0,0,1024,1024,1024,1024,320.5,-90,96,3.889,3.932,3.918,3.915,3.904,3.915,18.333,77,14,Waypoint,
38.7448233,-120.40884,4412.0301385603,191.92914,0,0.4699311174,24800,2018-06-07 21:12:16,13,0,23.467,4412.0301385603,191.92914,0,0.55702757688,0,0,-0.671082,320.8, -1.8, 0,0,0,1024,1024,1024,1024,320.5,-90,96,3.889,3.932,3.918,3.915,3.904,3.915,18.333,77,14,Waypoint,
38.7448232,-120.4088399,4413.0143905603,192.913392,0,0.51443243116,24900,2018-06-07 21:12:17,13,0,23.467,4413.0143905603,192.913392,0,0.55702757688,0,0,-0.671082,320.7, -2, -0.1,0,0,1024,1024,1024,1024,320.5,-90,96,3.889,3.932,3.918,3.915,3.904,3.915,18.333,77,14,Waypoint,
38.7448231,-120.4088399,4413.9986425603,193.897644,0,0.54825461072,25000,2018-06-07 21:12:17,13,0,23.467,4413.9986425603,193.897644,0,0.55702757688,0,0,-0.671082,320.6, -2, -0.1,0,0,1024,1024,1024,1024,320.5,-90,96,3.875,3.928,3.911,3.911,3.904,3.914,18.333,77,14,Waypoint,
38.7448231,-120.4088399,4415.3109785603,195.20998,0,0.54825461072,25100,2018-06-07 21:12:17,13,0,23.467,4415.3109785603,195.20998,0,0.55702757688,0,0,-0.671082,320.6, -2, 0.1,0,0,1024,1024,1024,1024,320.5,-90,96,3.875,3.928,3.911,3.911,3.904,3.914,18.333,77,14,Waypoint,
38.7448231,-120.4088399,4416.2952305603,196.194232,0,0.54825461072,25200,2018-06-07 21:12:17,13,0,23.467,4416.2952305603,196.194232,0,0.55702757688,0,0,-0.671082,320.6, -2.2, 0.1,0,0,1024,1024,1024,1024,320.5,-90,96,3.875,3.928,3.911,3.911,3.904,3.914,18.333,77,14,Waypoint,
38.7448231,-120.4088398,4417.2794825603,197.178484,0,0.55922245884,25310,2018-06-07 21:12:17,13,0,23.467,4417.2794825603,197.178484,0,0.55922245884,0,0,-0.671082,320.7, -2, -0.1,0,0,1024,1024,1024,1024,320.5,-90,96,3.875,3.928,3.911,3.911,3.904,3.914,18.333,77,14,Waypoint,
38.7448231,-120.4088398,4418.2637345603,198.162736,0,0.55922245884,25400,2018-06-07 21:12:17,13,0,23.467,4418.2637345603,198.162736,0,0.55922245884,0,0,-0.671082,320.8, -2, -0.8,0,0,1024,1024,1024,1024,320.5,-89.9,96,3.875,3.928,3.911,3.911,3.904,3.914,18.333,77,14,Waypoint,
38.7448231,-120.4088398,4419.2479865603,199.146988,0,0.55922245884,25500,2018-06-07 21:12:17,13,0,23.467,4419.2479865603,199.146988,0,0.55922245884,0,0,-0.671082,320.8, -1.8, -1.2,0,0,1024,1024,1024,1024,320.5,-89.9,96,3.875,3.928,3.911,3.911,3.904,3.914,18.333,77,14,Waypoint,
38.7448231,-120.4088398,4420.2322385603,200.13124,0,0.55922245884,25600,2018-06-07 21:12:17,13,0,23.467,4420.2322385603,200.13124,0,0.55922245884,0,0,-0.671082,320.8, -1.5, -1.2,0,0,1024,1024,1024,1024,320.5,-89.9,96,3.875,3.928,3.911,3.911,3.904,3.914,18.333,77,14,Waypoint,
38.7448231,-120.4088398,4422.2007425603,202.099744,0,0.55922245884,25800,2018-06-07 21:12:17,13,0,23.467,4422.2007425603,202.099744,0,0.55922245884,0,0,-0.671082,320.6, -1.5, -0.3,0,0,1024,1024,1024,1024,320.5,-89.9,96,3.875,3.928,3.911,3.911,3.904,3.914,18.333,77,14,Waypoint,
38.7448231,-120.4088398,4422.8569105603,202.755912,0,0.55922245884,25900,2018-06-07 21:12:18,13,0,23.467,4422.8569105603,202.755912,0,0.55922245884,0,0,-0.671082,320.5, -1.6, 0,0,0,1024,1024,1024,1024,320.5,-89.9,96,3.875,3.928,3.911,3.911,3.904,3.914,18.333,77,14,Waypoint,
38.744823,-120.4088399,4423.8411625603,203.740164,0,0.5823983126,26110,2018-06-07 21:12:18,13,0,23.467,4423.8411625603,203.740164,0,0.5823983126,0,0,-0.671082,320.5, -1.7, -0.2,0,0,1024,1024,1024,1024,320.5,-89.9,96,3.875,3.928,3.911,3.911,3.904,3.914,18.333,77,14,Waypoint,
38.744823,-120.4088399,4424.8254145603,204.724416,0,0.5823983126,26200,2018-06-07 21:12:18,13,0,23.467,4424.8254145603,204.724416,0,0.5823983126,0,0,-0.671082,320.6, -1.9, -0.2,0,0,1024,1024,1024,1024,320.5,-90,96,3.875,3.928,3.911,3.911,3.904,3.914,18.333,77,14,Waypoint,
38.744823,-120.4088399,4426.7939185603,206.69292,0,0.5823983126,26300,2018-06-07 21:12:18,13,0,23.467,4426.7939185603,206.69292,0,0.5823983126,0,0,-0.671082,320.8, -1.9, 0.1,0,0,1024,1024,1024,1024,320.5,-89.9,96,3.875,3.928,3.911,3.911,3.904,3.914,18.333,77,14,Waypoint,
38.7448229,-120.40884,4428.7624225603,208.661424,0,0.60821524256,26600,2018-06-07 21:12:18,13,0,23.467,4428.7624225603,208.661424,0,0.60821524256,0,0,-0.671082,320.7, -2, -0.2,0,0,1024,1024,1024,1024,320.5,-89.9,96,3.875,3.928,3.911,3.911,3.904,3.914,18.333,77,14,Waypoint,
38.7448229,-120.40884,4429.7466745603,209.645676,0,0.60821524256,26700,2018-06-07 21:12:18,13,0,23.467,4429.7466745603,209.645676,0,0.60821524256,0,0,-0.671082,320.6, -2.1, -0.1,0,0,1024,1024,1024,1024,320.5,-89.9,96,3.875,3.928,3.911,3.911,3.904,3.914,18.333,77,14,Waypoint,
38.7448229,-120.40884,4431.0590105603,210.958012,0,0.60821524256,26800,2018-06-07 21:12:18,13,0,23.467,4431.0590105603,210.958012,0,0.60821524256,0,0,-0.671082,320.6, -2.1, 0,0,0,1024,1024,1024,1024,320.5,-89.9,96,3.875,3.928,3.911,3.911,3.904,3.914,18.333,77,14,Waypoint,
38.7448228,-120.40884,4432.0432625603,211.942264,0,0.64331366888,26900,2018-06-07 21:12:19,13,0,23.467,4432.0432625603,211.942264,0,0.64331366888,0,0,-0.671082,320.6, -1.9, 0.1,0,0,1024,1024,1024,1024,320.5,-89.9,96,3.875,3.928,3.911,3.911,3.904,3.914,18.333,77,14,Waypoint,
38.7448228,-120.40884,4433.0275145603,212.926516,0,0.64331366888,27000,2018-06-07 21:12:19,13,0,23.356,4433.0275145603,212.926516,0,0.64331366888,0,0,-0.671082,320.7, -2.3, 0,0,0,1024,1024,1024,1024,320.5,-89.9,96,3.867,3.913,3.891,3.891,3.881,3.891,18.826,78.8,14,Waypoint,
38.7448227,-120.40884,4434.0117665603,213.910768,0,0.678559733,27100,2018-06-07 21:12:19,13,0,23.356,4434.0117665603,213.910768,0,0.678559733,0,0,-0.671082,320.8, -2.6, 0,0,0,1024,1024,1024,1024,320.5,-89.9,96,3.867,3.913,3.891,3.891,3.881,3.891,18.826,78.8,14,Waypoint,
38.7448227,-120.4088399,4434.9960185603,214.89502,0,0.68627298784,27200,2018-06-07 21:12:19,13,0,23.356,4434.9960185603,214.89502,0,0.68627298784,0,0,-0.671082,320.7, -2.9, -0.2,0,0,1024,1024,1024,1024,320.5,-90,96,3.867,3.913,3.891,3.891,3.881,3.891,18.826,78.8,14,Waypoint,
38.7448227,-120.4088399,4435.9802705603,215.879272,0,0.68627298784,27300,2018-06-07 21:12:19,13,0,23.356,4435.9802705603,215.879272,0,0.68627298784,0,0,-0.671082,320.6, -3, -0.6,0,0,1024,1024,1024,1024,320.5,-90,96,3.867,3.913,3.891,3.891,3.881,3.891,18.826,78.8,14,Waypoint,
38.7448227,-120.4088398,4436.9645225603,216.863524,0,0.69506563904,27400,2018-06-07 21:12:19,13,0,23.356,4436.9645225603,216.863524,0,0.69506563904,0,0,-0.671082,320.5, -3, -0.7,0,0,1024,1024,1024,1024,320.5,-89.9,96,3.867,3.913,3.891,3.891,3.881,3.891,18.826,78.8,14,Waypoint,
38.7448226,-120.4088397,4438.9330265603,218.832028,0,0.73900921,27500,2018-06-07 21:12:19,13,0,23.356,4438.9330265603,218.832028,0,0.73900921,0,0,-0.671082,320.5, -2.7, -0.6,0,0,1024,1024,1024,1024,320.5,-89.9,96,3.867,3.913,3.891,3.891,3.881,3.891,18.826,78.8,14,Waypoint,
38.7448226,-120.4088397,4439.9172785603,219.81628,0,0.73900921,27600,2018-06-07 21:12:19,13,0,23.356,4439.9172785603,219.81628,0,0.73900921,0,0,-0.671082,320.5, -2.4, -0.5,0,0,1024,1024,1024,1024,320.5,-89.9,96,3.867,3.913,3.891,3.891,3.881,3.891,18.826,78.8,14,Waypoint,
38.7448225,-120.4088396,4442.5419505603,222.440952,0,0.78322180984,27900,2018-06-07 21:12:20,13,0,23.356,4442.5419505603,222.440952,0,0.78322180984,0,0,-0.671082,320.4, -2.6, -0.5,0,0,1024,1024,1024,1024,320.5,-90,96,3.867,3.913,3.891,3.891,3.881,3.891,18.826,78.8,14,Waypoint,
38.7448224,-120.4088396,4443.5262025603,223.425204,0,0.81731957996,28000,2018-06-07 21:12:20,13,0,23.232,4443.5262025603,223.425204,0,0.81731957996,0,0,-0.671082,320.6, -3, -0.4,0,0,1024,1024,1024,1024,320.5,-89.9,96,3.845,3.896,3.883,3.885,3.874,3.876,20.079,78.8,14,Waypoint,
38.7448224,-120.4088395,4444.5104545603,224.409456,0,0.8276575068,28100,2018-06-07 21:12:20,13,0,23.232,4444.5104545603,224.409456,0,0.8276575068,0,0,-0.671082,320.8, -3.3, -0.2,0,0,1024,1024,1024,1024,320.5,-90,96,3.845,3.896,3.883,3.885,3.874,3.876,20.079,78.8,14,Waypoint,
38.7448223,-120.4088395,4445.4947065603,225.393708,0,0.86154202232,28200,2018-06-07 21:12:20,13,0,23.232,4445.4947065603,225.393708,0,0.86154202232,0,0,-0.671082,321, -3.4, 0,0,0,1024,1024,1024,1024,320.5,-90,96,3.845,3.896,3.883,3.885,3.874,3.876,20.079,78.8,14,Waypoint,
38.7448223,-120.4088394,4446.4789585603,226.37796,0,0.87228349248,28300,2018-06-07 21:12:20,13,0,23.232,4446.4789585603,226.37796,0,0.87228349248,0,0,-0.671082,321.1, -3.5, 0,0,0,1024,1024,1024,1024,320.5,-90,96,3.845,3.896,3.883,3.885,3.874,3.876,20.079,78.8,14,Waypoint,
38.7448222,-120.4088394,4447.4632105603,227.362212,0,0.9059711576,28400,2018-06-07 21:12:20,13,0,23.232,4447.4632105603,227.362212,0,0.9059711576,0,0,-0.671082,321, -3.6, 0,0,0,1024,1024,1024,1024,320.5,-89.9,96,3.845,3.896,3.883,3.885,3.874,3.876,20.079,78.8,14,Waypoint,
38.7448222,-120.4088394,4448.4474625603,228.346464,0,0.9059711576,28500,2018-06-07 21:12:20,13,0,23.232,4448.4474625603,228.346464,0,0.9059711576,0,0,-0.671082,321, -3.6, 0,0,0,1024,1024,1024,1024,320.5,-89.9,96,3.845,3.896,3.883,3.885,3.874,3.876,20.079,78.8,14,Waypoint,
38.7448221,-120.4088394,4450.7440505603,230.643052,0,0.93986551564,28700,2018-06-07 21:12:20,13,0,23.232,4450.7440505603,230.643052,0,0.93986551564,0,0,-0.671082,321, -3.6, 0.3,0,0,1024,1024,1024,1024,320.5,-89.9,96,3.845,3.896,3.883,3.885,3.874,3.876,20.079,78.8,14,Waypoint,
38.7448221,-120.4088393,4451.7283025603,231.627304,0,0.9505741774,28800,2018-06-07 21:12:20,13,0,23.232,4451.7283025603,231.627304,0,0.9505741774,0,0,-0.671082,321.1, -3.8, -0.1,0,0,1024,1024,1024,1024,320.5,-89.9,96,3.845,3.896,3.883,3.885,3.874,3.876,20.079,78.8,14,Waypoint,
38.7448221,-120.4088392,4452.7125545603,232.611556,0,0.96200462396,28900,2018-06-07 21:12:21,13,0,23.232,4452.7125545603,232.611556,0,0.96200462396,0,0,-0.671082,321, -4.2, -1.2,0,0,1024,1024,1024,1024,320.5,-89.9,96,3.845,3.896,3.883,3.885,3.874,3.876,20.079,78.8,14,Waypoint,
38.744822,-120.4088392,4453.3687225603,233.267724,0,0.99532811584,29000,2018-06-07 21:12:21,13,0,23.256,4453.3687225603,233.267724,0,0.99532811584,0,0,-0.671082,321, -4.1, -1.5,0,0,1024,1024,1024,1024,320.5,-89.9,96,3.851,3.894,3.874,3.863,3.865,3.865,19.755,78.8,14,Waypoint,
38.744822,-120.4088391,4454.3529745603,234.251976,0,1.00705711884,29100,2018-06-07 21:12:21,13,0,23.256,4454.3529745603,234.251976,0,1.00705711884,0,0,-0.671082,321.1, -3.7, -1.1,0,0,1024,1024,1024,1024,320.5,-89.9,96,3.851,3.894,3.874,3.863,3.865,3.865,19.755,78.8,14,Waypoint,
38.744822,-120.408839,4455.3372265603,235.236228,0,1.01944228984,29200,2018-06-07 21:12:21,13,0,23.256,4455.3372265603,235.236228,0,1.01944228984,0,0,-0.671082,321, -3.6, -0.7,0,0,1024,1024,1024,1024,320.5,-89.9,96,3.851,3.894,3.874,3.863,3.865,3.865,19.755,78.8,14,Waypoint,
38.744822,-120.408839,4456.3214785603,236.22048,0,1.01944228984,29300,2018-06-07 21:12:21,13,0,23.256,4456.3214785603,236.22048,0,1.01944228984,0,0,-0.671082,320.8, -3.6, -0.8,0,0,1024,1024,1024,1024,320.5,-89.9,96,3.851,3.894,3.874,3.863,3.865,3.865,19.755,78.8,14,Waypoint,
38.744822,-120.4088389,4457.3057305603,237.204732,0,1.03246722464,29400,2018-06-07 21:12:21,13,0,23.256,4457.3057305603,237.204732,0,1.03246722464,0,0,-0.671082,320.6, -3.8, -1.5,0,0,1024,1024,1024,1024,320.5,-90,96,3.851,3.894,3.874,3.863,3.865,3.865,19.755,78.8,14,Waypoint,
38.744822,-120.4088388,4458.2899825603,238.188984,0,1.04610239568,29520,2018-06-07 21:12:21,13,0,23.256,4458.2899825603,238.188984,0,1.04610239568,0,0,-0.671082,320.5, -4.4, -2,0,0,1024,1024,1024,1024,320.5,-90,96,3.851,3.894,3.874,3.863,3.865,3.865,19.755,78.8,14,Waypoint,
38.744822,-120.4088388,4459.6023185603,239.50132,0,1.04610239568,29600,2018-06-07 21:12:21,13,0,23.256,4459.6023185603,239.50132,0,1.04610239568,0,0,-0.671082,320.5, -4.6, -2.1,0,0,1024,1024,1024,1024,320.5,-90,96,3.851,3.894,3.874,3.863,3.865,3.865,19.755,78.8,14,Waypoint,
38.744822,-120.4088388,4460.2584865603,240.157488,0,1.04610239568,29710,2018-06-07 21:12:21,13,0,23.256,4460.2584865603,240.157488,0,1.04610239568,0,0,-0.671082,320.5, -4.9, -1.4,0,0,1024,1024,1024,1024,320.5,-90,96,3.851,3.894,3.874,3.863,3.865,3.865,19.755,78.8,14,Waypoint,
38.744822,-120.4088388,4460.2584865603,240.157488,0,1.04610239568,29800,2018-06-07 21:12:21,13,0,23.256,4460.2584865603,240.157488,0,1.04610239568,0,0,-0.671082,320.5, -4.9, -1.4,0,0,1024,1024,1024,1024,320.5,-89.9,96,3.851,3.894,3.874,3.863,3.865,3.865,19.755,78.8,14,Waypoint,
38.7448219,-120.4088388,4462.2269905603,242.125992,0,1.07806105812,29920,2018-06-07 21:12:22,13,0,23.256,4462.2269905603,242.125992,0,1.07806105812,0,0,-0.671082,320.5, -4.2, 0.3,0,0,1024,1024,1024,1024,320.5,-89.9,96,3.851,3.894,3.874,3.863,3.865,3.865,19.755,78.8,14,Waypoint,
