latitude,longitude,altitude(feet),ascent(feet),speed(mph),distance(feet),time(millisecond),datetime(utc),satellites,gpslevel,voltage(v),max_altitude(feet),max_ascent(feet),max_speed(mph),max_distance(feet), xSpeed(mph), ySpeed(mph), zSpeed(mph), compass_heading(degrees), pitch(degrees), roll(degrees),isPhoto,isVideo,rc_elevator,rc_aileron,rc_throttle,rc_rudder,gimbal_heading(degrees),gimbal_pitch(degrees),battery_percent,voltageCell1,voltageCell2,voltageCell3,voltageCell4,voltageCell5,voltageCell6,current(A),battery_temperature(f),flycStateRaw,flycState,message
38.7448358,-120.4088714,4220.9620586272,0,0.223694,0,3010,2018-06-07 21:35:02,10,0,25.565,4220.9620586272,0,0.223694,0,0,0,0,323.2, -0.7, -0.4,1,0,1024,1024,1024,1024,321.2,-90,100,4.31,4.274,4.234,4.242,4.263,4.241,3.898,73.4,11,AutoTakeoff,DJI_0301.jpg Starting Mission from Lat/Long: 38.74483/-120.40888 Camera: Zenmuse X3 - Overlap: 90/90 - Active Connection: No
38.7448357,-120.4088716,4220.9620586272,0,0.223694,0.067603020536,3100,2018-06-07 21:35:02,9,0,25.565,4220.9620586272,0,0.223694,0.067603020536,0,0,0,323.6, -0.3, 0.4,0,0,1024,1024,1024,1024,321.2,-89.9,100,4.31,4.274,4.234,4.242,4.263,4.241,3.898,73.4,11,AutoTakeoff,
38.7448357,-120.4088717,4220.9620586272,0,0.223694,0.09283792948,3200,2018-06-07 21:35:03,9,0,25.565,4220.9620586272,0,0.223694,0.09283792948,0,0,0,323.5, 0, 0.5,0,0,1024,1024,1024,1024,321.3,-89.9,100,4.31,4.274,4.234,4.242,4.263,4.241,3.898,73.4,11,AutoTakeoff,
38.7448357,-120.4088718,4220.9620586272,0,0.223694,0.119528875216,3300,2018-06-07 21:35:03,10,0,25.565,4220.9620586272,0,0.223694,0.119528875216,0,0,0,323.1, 0.2, 0.7,0,0,1024,1024,1024,1024,321.3,-89.9,100,4.31,4.274,4.234,4.242,4.263,4.241,3.898,73.4,11,AutoTakeoff,
38.7448357,-120.4088719,4221.2901426272,0.328084,0.223694,0.146883862968,3400,2018-06-07 21:35:03,10,0,25.565,4221.2901426272,0.328084,0.223694,0.146883862968,0,0,0,322.7, 0.2, 0.7,0,0,1024,1024,1024,1024,321.3,-89.9,100,4.31,4.274,4.234,4.242,4.263,4.241,3.898,73.4,11,AutoTakeoff,
38.7448357,-120.408872,4221.2901426272,0.328084,0.223694,0.174591212936,3500,2018-06-07 21:35:03,12,0,25.565,4221.2901426272,0.328084,0.223694,0.174591212936,0,0,0,322.4, 0.5, 0.6,0,0,1024,1024,1024,1024,321.3,-89.9,100,4.31,4.274,4.234,4.242,4.263,4.241,3.898,73.4,11,AutoTakeoff,
38.7448357,-120.4088721,4221.6182266272,0.656168,0,0.20250656816,3600,2018-06-07 21:35:03,12,0,25.565,4221.6182266272,0.656168,0.223694,0.20250656816,0,0,0,322.2, 0.7, 0.1,0,0,1024,1024,1024,1024,321.3,-89.9,100,4.31,4.274,4.234,4.242,4.263,4.241,3.898,73.4,11,AutoTakeoff,
38.7448357,-120.4088722,4221.6182266272,0.656168,0,0.230553813152,3700,2018-06-07 21:35:03,10,0,25.565,4221.6182266272,0.656168,0.223694,0.230553813152,0,0,0,322, 0.7, 0,0,0,1024,1024,1024,1024,321.3,-89.9,100,4.31,4.274,4.234,4.242,4.263,4.241,3.898,73.4,11,AutoTakeoff,
38.7448357,-120.4088723,4221.6182266272,0.656168,0,0.258690625076,3800,2018-06-07 21:35:03,10,0,25.565,4221.6182266272,0.656168,0.223694,0.258690625076,0,0,0,321.9, 0.5, 0,0,0,1024,1024,1024,1024,321.4,-89.9,100,4.31,4.274,4.234,4.242,4.263,4.241,3.898,73.4,11,AutoTakeoff,
38.7448356,-120.4088723,4221.9463106272,0.984252,0,0.2662975807,3900,2018-06-07 21:35:03,11,0,25.565,4221.9463106272,0.984252,0.223694,0.2662975807,0,0,0,322, 0.5, 0.4,0,0,1024,1024,1024,1024,321.4,-89.9,100,4.31,4.274,4.234,4.242,4.263,4.241,3.898,73.4,11,AutoTakeoff,
38.7448355,-120.4088723,4221.9463106272,0.984252,0,0.278514116524,4000,2018-06-07 21:35:03,11,0,25.321,4221.9463106272,0.984252,0.223694,0.278514116524,0,0,0,322.1, 0.5, 0.7,0,0,1024,1024,1024,1024,321.4,-89.9,98,4.208,4.223,4.194,4.239,4.205,4.171,6.85,73.4,11,AutoTakeoff,
38.7448354,-120.4088723,4222.2743946272,1.312336,0,0.294768054052,4100,2018-06-07 21:35:03,12,0,25.321,4222.2743946272,1.312336,0.223694,0.294768054052,0,0,0,322.3, 0.3, 0.8,0,0,1024,1024,1024,1024,321.4,-90,98,4.208,4.223,4.194,4.239,4.205,4.171,6.85,73.4,11,AutoTakeoff,
38.7448354,-120.4088723,4222.2743946272,1.312336,0,0.294768054052,4200,2018-06-07 21:35:04,12,0,25.321,4222.2743946272,1.312336,0.223694,0.294768054052,0,0,0,322.5, 0.2, 0.8,0,0,1024,1024,1024,1024,321.4,-90,98,4.208,4.223,4.194,4.239,4.205,4.171,6.85,73.4,11,AutoTakeoff,
38.7448353,-120.4088723,4222.6024786272,1.64042,0,0.314433737096,4300,2018-06-07 21:35:04,12,0,25.321,4222.6024786272,1.64042,0.223694,0.314433737096,0,0,0,322.7, -0.1, 0.8,0,0,1024,1024,1024,1024,321.4,-90,98,4.208,4.223,4.194,4.239,4.205,4.171,6.85,73.4,11,AutoTakeoff,
38.7448353,-120.4088722,4222.6024786272,1.64042,0,0.291723762616,4500,2018-06-07 21:35:04,12,0,25.321,4222.6024786272,1.64042,0.223694,0.314433737096,0,0,0,322.7, -0.2, 0.8,0,0,1024,1024,1024,1024,321.4,-90,98,4.208,4.223,4.194,4.239,4.205,4.171,6.85,73.4,11,AutoTakeoff,
38.7448353,-120.4088721,4222.9305626272,1.968504,0,0.270104667436,4600,2018-06-07 21:35:04,11,0,25.321,4222.9305626272,1.968504,0.223694,0.314433737096,0,0,-0.223694,322.7, -0.1, 0.8,0,0,1024,1024,1024,1024,321.5,-90,98,4.208,4.223,4.194,4.239,4.205,4.171,6.85,73.4,11,AutoTakeoff,
38.7448354,-120.408872,4222.9305626272,1.968504,0,0.22460958724,4700,2018-06-07 21:35:04,11,0,25.321,4222.9305626272,1.968504,0.223694,0.314433737096,0,0,-0.223694,322.7, 0, 0.5,0,0,1024,1024,1024,1024,321.5,-90,98,4.208,4.223,4.194,4.239,4.205,4.171,6.85,73.4,11,AutoTakeoff,
38.7448354,-120.4088721,4223.2586466272,2.296588,0,0.246933406852,4800,2018-06-07 21:35:04,10,0,25.321,4223.2586466272,2.296588,0.223694,0.314433737096,0,0,-0.223694,322.6, 0.2, 0,0,0,1024,1024,1024,1024,321.5,-89.9,98,4.208,4.223,4.194,4.239,4.205,4.171,6.85,73.4,11,AutoTakeoff,
38.7448355,-120.4088721,4223.5867306272,2.624672,0,0.227284128008,4900,2018-06-07 21:35:04,10,0,25.321,4223.5867306272,2.624672,0.223694,0.314433737096,0,0,-0.223694,322.5, 0.6, -0.2,0,0,1024,1024,1024,1024,321.5,-89.9,98,4.208,4.223,4.194,4.239,4.205,4.171,6.85,73.4,11,AutoTakeoff,
38.7448355,-120.4088718,4223.9148146272,2.952756,0,0.157912406628,5100,2018-06-07 21:35:04,11,0,25.321,4223.9148146272,2.952756,0.223694,0.314433737096,0,0,-0.223694,322.4, 0.5, -0.3,0,0,1024,1024,1024,1024,321.5,-89.9,98,4.208,4.223,4.194,4.239,4.205,4.171,6.85,73.4,14,Waypoint,
38.7448356,-120.4088718,4224.2428986272,3.28084,0,0.135205712988,5200,2018-06-07 21:35:05,11,0,25.321,4224.2428986272,3.28084,0.223694,0.314433737096,0,0,0,322.3, 0.4, -0.5,0,0,1024,1024,1024,1024,321.5,-89.9,98,4.208,4.223,4.194,4.239,4.205,4.171,6.85,73.4,14,Waypoint,
38.7448356,-120.4088716,4224.2428986272,3.28084,0,0.092539701124,5300,2018-06-07 21:35:05,11,0,25.321,4224.2428986272,3.28084,0.223694,0.314433737096,0,0,0,322.3, 0.5, -0.8,0,0,1024,1024,1024,1024,321.5,-89.9,98,4.208,4.223,4.194,4.239,4.205,4.171,6.85,73.4,14,Waypoint,
38.7448357,-120.4088714,4224.2428986272,3.28084,0,0.036484909304,5400,2018-06-07 21:35:05,11,0,25.321,4224.2428986272,3.28084,0.223694,0.314433737096,0,0,0,322.2, 0.4, -1,0,0,1024,1024,1024,1024,321.5,-90,98,4.208,4.223,4.194,4.239,4.205,4.171,6.85,73.4,14,Waypoint,
38.7448357,-120.4088714,4224.2428986272,3.28084,0,0.036484909304,5500,2018-06-07 21:35:05,10,0,25.321,4224.2428986272,3.28084,0.223694,0.314433737096,0,0,0,322.2, 0.2, -1.1,0,0,1024,1024,1024,1024,321.5,-90,98,4.208,4.223,4.194,4.239,4.205,4.171,6.85,73.4,14,Waypoint,
38.7448358,-120.4088715,4224.5709826272,3.608924,0,0.0284561032728,5600,2018-06-07 21:35:05,10,0,25.321,4224.5709826272,3.608924,0.223694,0.314433737096,0,0,-0.223694,322.2, 0.2, -1,0,0,1024,1024,1024,1024,321.5,-89.9,98,4.208,4.223,4.194,4.239,4.205,4.171,6.85,73.4,14,Waypoint,
38.7448358,-120.4088714,4224.5709826272,3.608924,0,0,5710,2018-06-07 21:35:05,11,0,25.321,4224.5709826272,3.608924,0.223694,0.314433737096,0,0,-0.223694,322.1, 0.3, -0.7,0,0,1024,1024,1024,1024,321.5,-89.9,98,4.208,4.223,4.194,4.239,4.205,4.171,6.85,73.4,14,Waypoint,
38.7448357,-120.4088713,4224.8990666272,3.937008,0,0.046270014604,5820,2018-06-07 21:35:05,11,0,25.321,4224.8990666272,3.937008,0.223694,0.314433737096,0,0,-0.223694,322, 0.3, -0.5,0,0,1024,1024,1024,1024,321.5,-90,98,4.208,4.223,4.194,4.239,4.205,4.171,6.85,73.4,14,Waypoint,
38.7448358,-120.4088712,4225.2271506272,4.265092,0,0.056912075312,5910,2018-06-07 21:35:05,11,0,25.321,4225.2271506272,4.265092,0.223694,0.314433737096,0,0,-0.223694,322, 0.2, -0.6,0,0,1024,1024,1024,1024,321.5,-90,98,4.208,4.223,4.194,4.239,4.205,4.171,6.85,73.4,14,Waypoint,
38.7448358,-120.4088712,4225.5552346272,4.593176,0,0.056912075312,6000,2018-06-07 21:35:05,11,0,24.157,4225.5552346272,4.593176,0.223694,0.314433737096,0,0,-0.223694,322, 0.2, -0.7,0,0,1024,1024,1024,1024,321.5,-90,98,4.055,4.063,4.039,4.032,4.054,4.053,16.598,73.4,14,Waypoint,
38.7448359,-120.4088712,4225.8833186272,4.92126,0,0.067603020536,6100,2018-06-07 21:35:05,11,0,24.157,4225.8833186272,4.92126,0.223694,0.314433737096,0,0,-0.223694,322.1, 0.3, -0.8,0,0,1024,1024,1024,1024,321.5,-89.9,98,4.055,4.063,4.039,4.032,4.054,4.053,16.598,73.4,14,Waypoint,
38.7448361,-120.4088711,4226.5394866272,5.577428,0,0.138809715728,6210,2018-06-07 21:35:06,11,0,24.157,4226.5394866272,5.577428,0.223694,0.314433737096,0,0,-0.447388,322.2, 0.5, -0.9,0,0,1024,1024,1024,1024,321.5,-89.9,98,4.055,4.063,4.039,4.032,4.054,4.053,16.598,73.4,14,Waypoint,
38.7448361,-120.4088711,4227.1956546272,6.233596,0,0.138809715728,6300,2018-06-07 21:35:06,11,0,24.157,4227.1956546272,6.233596,0.223694,0.314433737096,0,0,-0.447388,322.3, 0.7, -0.9,0,0,1024,1024,1024,1024,321.5,-89.9,98,4.055,4.063,4.039,4.032,4.054,4.053,16.598,73.4,14,Waypoint,
38.7448361,-120.408871,4228.5079906272,7.545932,0,0.157912406628,6500,2018-06-07 21:35:06,10,0,24.157,4228.5079906272,7.545932,0.223694,0.314433737096,0,0,-0.447388,322.5, 0.7, -1,0,0,1024,1024,1024,1024,321.5,-90,98,4.055,4.063,4.039,4.032,4.054,4.053,16.598,73.4,14,Waypoint,
38.744836,-120.408871,4229.1641586272,8.2021,0,0.135205712988,6610,2018-06-07 21:35:06,10,0,24.157,4229.1641586272,8.2021,0.223694,0.314433737096,0,0,-0.671082,322.5, 0.5, -0.8,0,0,1024,1024,1024,1024,321.5,-90,98,4.055,4.063,4.039,4.032,4.054,4.053,16.598,73.4,14,Waypoint,
38.744836,-120.408871,4229.1641586272,8.2021,0,0.135205712988,6700,2018-06-07 21:35:06,10,0,24.157,4229.1641586272,8.2021,0.223694,0.314433737096,0,0,-0.671082,322.5, 0.5, -0.8,0,0,1024,1024,1024,1024,321.5,-90,98,4.055,4.063,4.039,4.032,4.054,4.053,16.598,73.4,14,Waypoint,
38.744836,-120.4088709,4230.1484106272,9.186352,0,0.159900923752,6810,2018-06-07 21:35:06,11,0,24.157,4230.1484106272,9.186352,0.223694,0.314433737096,0,0,-0.671082,322.5, 0.3, -0.7,0,0,1024,1024,1024,1024,321.5,-90,98,4.055,4.063,4.039,4.032,4.054,4.053,16.598,73.4,14,Waypoint,
38.7448361,-120.4088709,4231.1326626272,10.170604,0,0.179510832516,6900,2018-06-07 21:35:06,11,0,24.157,4231.1326626272,10.170604,0.223694,0.314433737096,0,0,-0.671082,322.5, 0.1, -0.7,0,0,1024,1024,1024,1024,321.5,-90,98,4.055,4.063,4.039,4.032,4.054,4.053,16.598,73.4,14,Waypoint,
38.7448362,-120.4088709,4232.1169146272,11.154856,0,0.20381890416,7100,2018-06-07 21:35:06,11,0,24.157,4232.1169146272,11.154856,0.223694,0.314433737096,0,0,-0.671082,322.5, 0.2, -0.9,0,0,1024,1024,1024,1024,321.5,-89.9,98,4.055,4.063,4.039,4.032,4.054,4.053,16.598,73.4,14,Waypoint,
38.7448363,-120.4088708,4234.4135026272,13.451444,0,0.249859588048,7200,2018-06-07 21:35:07,11,0,24.157,4234.4135026272,13.451444,0.223694,0.314433737096,0,0,-0.671082,322.6, 0.9, -1.1,0,0,1024,1024,1024,1024,321.5,-89.9,98,4.055,4.063,4.039,4.032,4.054,4.053,16.598,73.4,14,Waypoint,
38.7448364,-120.4088707,4235.3977546272,14.435696,0,0.295971466164,7300,2018-06-07 21:35:07,11,0,24.157,4235.3977546272,14.435696,0.223694,0.314433737096,0,0,-0.671082,322.7, 1, -1.1,0,0,1024,1024,1024,1024,321.5,-89.9,98,4.055,4.063,4.039,4.032,4.054,4.053,16.598,73.4,14,Waypoint,
38.7448363,-120.4088705,4236.3820066272,15.419948,0,0.314433737096,7410,2018-06-07 21:35:07,11,0,24.157,4236.3820066272,15.419948,0.223694,0.314433737096,0,0,-0.671082,322.8, 0.7, -1.2,0,0,1024,1024,1024,1024,321.5,-89.9,98,4.055,4.063,4.039,4.032,4.054,4.053,16.598,73.4,14,Waypoint,
38.7448362,-120.4088703,4237.6943426272,16.732284,0,0.34536746512,7600,2018-06-07 21:35:07,11,0,24.157,4237.6943426272,16.732284,0.223694,0.34536746512,0,0,-0.671082,322.8, 0.2, -1.2,0,0,1024,1024,1024,1024,321.5,-90,98,4.055,4.063,4.039,4.032,4.054,4.053,16.598,73.4,14,Waypoint,
38.7448361,-120.4088702,4238.6785946272,17.716536,0,0.35858596948,7700,2018-06-07 21:35:07,11,0,24.157,4238.6785946272,17.716536,0.223694,0.35858596948,0,0,-0.671082,322.8, -0.3, -1.2,0,0,1024,1024,1024,1024,321.5,-90,98,4.055,4.063,4.039,4.032,4.054,4.053,16.598,73.4,14,Waypoint,
38.7448361,-120.4088702,4239.9909306272,19.028872,0,0.35858596948,7900,2018-06-07 21:35:07,11,0,24.157,4239.9909306272,19.028872,0.223694,0.35858596948,0,0,-0.671082,322.7, -0.5, -1.1,0,0,1024,1024,1024,1024,321.5,-90,98,4.055,4.063,4.039,4.032,4.054,4.053,16.598,73.4,14,Waypoint,
38.744836,-120.4088702,4240.9751826272,20.013124,0,0.34918308204,8000,2018-06-07 21:35:07,11,0,24.347,4240.9751826272,20.013124,0.223694,0.35858596948,0,0,-0.671082,322.6, -0.6, -0.8,0,0,1024,1024,1024,1024,321.5,-90,98,4.033,3.965,4.025,4.011,3.996,4.002,15.792,73.4,14,Waypoint,
38.744836,-120.4088702,4241.9594346272,20.997376,0,0.34918308204,8100,2018-06-07 21:35:07,11,0,24.347,4241.9594346272,20.997376,0.223694,0.35858596948,0,0,-0.671082,322.5, -0.5, -0.6,0,0,1024,1024,1024,1024,321.5,-90,98,4.033,3.965,4.025,4.011,3.996,4.002,15.792,73.4,14,Waypoint,
38.744836,-120.4088702,4243.2717706272,22.309712,0,0.34918308204,8200,2018-06-07 21:35:08,10,0,24.347,4243.2717706272,22.309712,0.223694,0.35858596948,0,0,-0.671082,322.3, -0.2, -0.4,0,0,1024,1024,1024,1024,321.5,-90,98,4.033,3.965,4.025,4.011,3.996,4.002,15.792,73.4,14,Waypoint,
38.744836,-120.4088702,4244.2560226272,23.293964,0,0.34918308204,8300,2018-06-07 21:35:08,10,0,24.347,4244.2560226272,23.293964,0.223694,0.35858596948,0,0,-0.671082,322.2, 0, -0.4,0,0,1024,1024,1024,1024,321.5,-89.9,98,4.033,3.965,4.025,4.011,3.996,4.002,15.792,73.4,14,Waypoint,
38.7448361,-120.4088702,4245.2402746272,24.278216,0,0.35858596948,8400,2018-06-07 21:35:08,11,0,24.347,4245.2402746272,24.278216,0.223694,0.35858596948,0,0,-0.671082,322.2, 0.1, -0.5,0,0,1024,1024,1024,1024,321.5,-89.9,98,4.033,3.965,4.025,4.011,3.996,4.002,15.792,73.4,14,Waypoint,
38.7448361,-120.4088703,4247.5368626272,26.574804,0,0.33160106048,8610,2018-06-07 21:35:08,11,0,24.347,4247.5368626272,26.574804,0.223694,0.35858596948,0,0,-0.671082,322.2, 0.5, -0.7,0,0,1024,1024,1024,1024,321.5,-89.9,98,4.033,3.965,4.025,4.011,3.996,4.002,15.792,73.4,14,Waypoint,
38.744836,-120.4088704,4248.5211146272,27.559056,0,0.293767725936,8700,2018-06-07 21:35:08,11,0,24.347,4248.5211146272,27.559056,0.223694,0.35858596948,0,0,-0.671082,322.2, 0.7, -0.7,0,0,1024,1024,1024,1024,321.5,-89.9,98,4.033,3.965,4.025,4.011,3.996,4.002,15.792,73.4,14,Waypoint,
38.744836,-120.4088705,4249.5053666272,28.543308,0,0.266297252616,8900,2018-06-07 21:35:08,11,0,24.347,4249.5053666272,28.543308,0.223694,0.35858596948,0,0,-0.671082,322.3, 0.7, -0.4,0,0,1024,1024,1024,1024,321.5,-89.9,98,4.033,3.965,4.025,4.011,3.996,4.002,15.792,73.4,14,Waypoint,
38.7448361,-120.4088707,4252.7862066272,31.824148,0,0.227284128008,9010,2018-06-07 21:35:08,11,0,23.424,4252.7862066272,31.824148,0.223694,0.35858596948,0,0,-0.671082,322.3, 0.7, 0,0,0,1024,1024,1024,1024,321.5,-89.9,98,3.9,3.87,3.879,3.875,3.918,3.905,23.72,73.4,14,Waypoint,
38.7448361,-120.4088707,4253.7704586272,32.8084,0,0.227284128008,9100,2018-06-07 21:35:08,11,0,23.424,4253.7704586272,32.8084,0.223694,0.35858596948,0,0,-0.671082,322.2, 0.7, -0.1,0,0,1024,1024,1024,1024,321.5,-89.9,98,3.9,3.87,3.879,3.875,3.918,3.905,23.72,73.4,14,Waypoint,
38.7448361,-120.4088706,4255.7389626272,34.776904,0,0.25259515244,9200,2018-06-07 21:35:09,11,0,23.424,4255.7389626272,34.776904,0.223694,0.35858596948,0,0,-0.671082,322.1, 0.6, -0.4,0,0,1024,1024,1024,1024,321.5,-89.9,98,3.9,3.87,3.879,3.875,3.918,3.905,23.72,73.4,14,Waypoint,
38.7448362,-120.4088706,4257.7074666272,36.745408,0,0.270411425976,9300,2018-06-07 21:35:09,12,0,23.424,4257.7074666272,36.745408,0.223694,0.35858596948,0,0,-0.671082,322.2, 0.7, -1,0,0,1024,1024,1024,1024,321.5,-89.9,98,3.9,3.87,3.879,3.875,3.918,3.905,23.72,73.4,14,Waypoint,
38.7448361,-120.4088708,4258.6917186272,37.72966,0,0.202808733524,9400,2018-06-07 21:35:09,12,0,23.424,4258.6917186272,37.72966,0.223694,0.35858596948,0,0,-0.671082,322.2, 0.7, -0.9,0,0,1024,1024,1024,1024,321.5,-89.9,98,3.9,3.87,3.879,3.875,3.918,3.905,23.72,73.4,14,Waypoint,
38.7448361,-120.4088709,4260.0040546272,39.041996,0,0.179510832516,9500,2018-06-07 21:35:09,12,0,23.424,4260.0040546272,39.041996,0.223694,0.35858596948,0,0,-0.671082,322.3, 0.6, -0.6,0,0,1024,1024,1024,1024,321.5,-89.9,98,3.9,3.87,3.879,3.875,3.918,3.905,23.72,73.4,14,Waypoint,
38.744836,-120.408871,4260.9883066272,40.026248,0,0.135205712988,9600,2018-06-07 21:35:09,12,0,23.424,4260.9883066272,40.026248,0.223694,0.35858596948,0,0,-0.671082,322.4, 0.5, -0.3,0,0,1024,1024,1024,1024,321.5,-89.9,98,3.9,3.87,3.879,3.875,3.918,3.905,23.72,73.4,14,Waypoint,
38.744836,-120.4088711,4261.9725586272,41.0105,0,0.11230479362,9700,2018-06-07 21:35:09,12,0,23.424,4261.9725586272,41.0105,0.223694,0.35858596948,0,0,-0.671082,322.4, 0.5, -0.1,0,0,1024,1024,1024,1024,321.5,-89.9,98,3.9,3.87,3.879,3.875,3.918,3.905,23.72,73.4,14,Waypoint,
38.744836,-120.4088712,4262.9568106272,41.994752,0,0.092539701124,9800,2018-06-07 21:35:09,12,0,23.424,4262.9568106272,41.994752,0.223694,0.35858596948,0,0,-0.671082,322.4, 0.5, 0,0,0,1024,1024,1024,1024,321.5,-89.9,98,3.9,3.87,3.879,3.875,3.918,3.905,23.72,73.4,14,Waypoint,
38.7448359,-120.4088711,4263.9410626272,42.979004,0,0.09283792948,9900,2018-06-07 21:35:09,12,0,23.424,4263.9410626272,42.979004,0.223694,0.35858596948,0,0,-0.671082,322.5, 0.6, 0,0,0,1024,1024,1024,1024,321.5,-89.9,98,3.9,3.87,3.879,3.875,3.918,3.905,23.72,73.4,14,Waypoint,
38.7448359,-120.4088711,4264.9253146272,43.963256,0,0.09283792948,10000,2018-06-07 21:35:09,12,0,23.77,4264.9253146272,43.963256,0.223694,0.35858596948,0,0,-0.671082,322.5, 0.4, 0,0,0,1024,1024,1024,1024,321.5,-89.9,98,3.975,3.945,3.941,3.953,3.976,3.97,18.504,73.4,14,Waypoint,
38.7448358,-120.408871,4265.9095666272,44.947508,0,0.113824478708,10100,2018-06-07 21:35:09,12,0,23.77,4265.9095666272,44.947508,0.223694,0.35858596948,0,0,-0.671082,322.4, 0.2, 0,0,0,1024,1024,1024,1024,321.5,-90,98,3.975,3.945,3.941,3.953,3.976,3.97,18.504,73.4,14,Waypoint,
38.7448358,-120.4088708,4266.8938186272,45.93176,0,0.17073655402,10200,2018-06-07 21:35:10,12,0,23.77,4266.8938186272,45.93176,0.223694,0.35858596948,0,0,-0.671082,322.4, 0, -0.3,0,0,1024,1024,1024,1024,321.5,-90,98,3.975,3.945,3.941,3.953,3.976,3.97,18.504,73.4,14,Waypoint,
38.7448358,-120.4088708,4267.8780706272,46.916012,0,0.17073655402,10300,2018-06-07 21:35:10,12,0,23.77,4267.8780706272,46.916012,0.223694,0.35858596948,0,0,-0.671082,322.4, 0, -0.5,0,0,1024,1024,1024,1024,321.5,-90,98,3.975,3.945,3.941,3.953,3.976,3.97,18.504,73.4,14,Waypoint,
38.7448359,-120.4088708,4268.8623226272,47.900264,0,0.174591212936,10400,2018-06-07 21:35:10,12,0,23.77,4268.8623226272,47.900264,0.223694,0.35858596948,0,0,-0.671082,322.4, 0.1, -0.8,0,0,1024,1024,1024,1024,321.5,-90,98,3.975,3.945,3.941,3.953,3.976,3.97,18.504,73.4,14,Waypoint,
38.7448359,-120.4088707,4269.8465746272,48.884516,0,0.20250656816,10510,2018-06-07 21:35:10,12,0,23.77,4269.8465746272,48.884516,0.223694,0.35858596948,0,0,-0.671082,322.4, 0.3, -0.8,0,0,1024,1024,1024,1024,321.5,-89.9,98,3.975,3.945,3.941,3.953,3.976,3.97,18.504,73.4,14,Waypoint,
38.7448359,-120.4088706,4270.8308266272,49.868768,0,0.230553813152,10600,2018-06-07 21:35:10,12,0,23.77,4270.8308266272,49.868768,0.223694,0.35858596948,0,0,-0.671082,322.4, 0.4, -0.8,0,0,1024,1024,1024,1024,321.5,-89.9,98,3.975,3.945,3.941,3.953,3.976,3.97,18.504,73.4,14,Waypoint,
38.7448359,-120.4088706,4271.8150786272,50.85302,0,0.230553813152,10720,2018-06-07 21:35:10,11,0,23.77,4271.8150786272,50.85302,0.223694,0.35858596948,0,0,-0.671082,322.4, 0.4, -0.8,0,0,1024,1024,1024,1024,321.5,-90,98,3.975,3.945,3.941,3.953,3.976,3.97,18.504,73.4,14,Waypoint,
38.7448359,-120.4088706,4272.7993306272,51.837272,0,0.230553813152,10800,2018-06-07 21:35:10,11,0,23.77,4272.7993306272,51.837272,0.223694,0.35858596948,0,0,-0.671082,322.4, 0.2, -0.7,0,0,1024,1024,1024,1024,321.5,-90,98,3.975,3.945,3.941,3.953,3.976,3.97,18.504,73.4,14,Waypoint,
38.7448358,-120.4088706,4273.7835826272,52.821524,0,0.227648629332,10900,2018-06-07 21:35:10,12,0,23.77,4273.7835826272,52.821524,0.223694,0.35858596948,0,0,-0.671082,322.4, 0, -0.5,0,0,1024,1024,1024,1024,321.5,-90,98,3.975,3.945,3.941,3.953,3.976,3.97,18.504,73.4,14,Waypoint,
38.7448356,-120.4088706,4274.7678346272,53.805776,0,0.239057750432,11100,2018-06-07 21:35:10,12,0,23.77,4274.7678346272,53.805776,0.223694,0.35858596948,0,0,-0.671082,322.4, -0.1, -0.3,0,0,1024,1024,1024,1024,321.5,-90,98,3.975,3.945,3.941,3.953,3.976,3.97,18.504,73.4,14,Waypoint,
38.7448356,-120.4088706,4275.7520866272,54.790028,0,0.239057750432,11200,2018-06-07 21:35:11,12,0,23.77,4275.7520866272,54.790028,0.223694,0.35858596948,0,0,-0.671082,322.3, -0.2, -0.1,0,0,1024,1024,1024,1024,321.5,-90,98,3.975,3.945,3.941,3.953,3.976,3.97,18.504,73.4,14,Waypoint,
38.7448356,-120.4088706,4276.7363386272,55.77428,0,0.239057750432,11300,2018-06-07 21:35:11,12,0,23.77,4276.7363386272,55.77428,0.223694,0.35858596948,0,0,-0.671082,322.3, -0.1, -0.1,0,0,1024,1024,1024,1024,321.5,-89.9,98,3.975,3.945,3.941,3.953,3.976,3.97,18.504,73.4,14,Waypoint,
38.7448356,-120.4088706,4277.7205906272,56.758532,0,0.239057750432,11400,2018-06-07 21:35:11,12,0,23.77,4277.7205906272,56.758532,0.223694,0.35858596948,0,0,-0.671082,322.3, 0.1, -0.2,0,0,1024,1024,1024,1024,321.5,-89.9,98,3.975,3.945,3.941,3.953,3.976,3.97,18.504,73.4,14,Waypoint,
38.7448356,-120.4088706,4278.7048426272,57.742784,0,0.239057750432,11500,2018-06-07 21:35:11,12,0,23.77,4278.7048426272,57.742784,0.223694,0.35858596948,0,0,-0.671082,322.3, 0.2, -0.3,0,0,1024,1024,1024,1024,321.5,-89.9,98,3.975,3.945,3.941,3.953,3.976,3.97,18.504,73.4,14,Waypoint,
38.7448357,-120.4088706,4280.6733466272,59.711288,0,0.230553813152,11600,2018-06-07 21:35:11,12,0,23.77,4280.6733466272,59.711288,0.223694,0.35858596948,0,0,-0.671082,322.3, 0.2, -0.3,0,0,1024,1024,1024,1024,321.5,-89.9,98,3.975,3.945,3.941,3.953,3.976,3.97,18.504,73.4,14,Waypoint,
38.7448357,-120.4088705,4281.6575986272,60.69554,0,0.258690625076,11700,2018-06-07 21:35:11,12,0,23.77,4281.6575986272,60.69554,0.223694,0.35858596948,0,0,-0.671082,322.4, 0.3, -0.4,0,0,1024,1024,1024,1024,321.5,-89.9,98,3.975,3.945,3.941,3.953,3.976,3.97,18.504,73.4,14,Waypoint,
38.7448357,-120.4088705,4282.6418506272,61.679792,0,0.258690625076,11900,2018-06-07 21:35:11,12,0,23.77,4282.6418506272,61.679792,0.223694,0.35858596948,0,0,-0.671082,322.4, 0.4, -0.5,0,0,1024,1024,1024,1024,321.5,-90,98,3.975,3.945,3.941,3.953,3.976,3.97,18.504,73.4,14,Waypoint,
38.7448356,-120.4088704,4284.6103546272,63.648296,0,0.293767725936,12000,2018-06-07 21:35:11,12,0,23.724,4284.6103546272,63.648296,0.223694,0.35858596948,0,0,-0.671082,322.4, 0.2, -0.7,0,0,1024,1024,1024,1024,321.5,-90,98,3.969,3.927,3.934,3.934,3.965,3.962,18.283,73.4,14,Waypoint,
38.7448356,-120.4088704,4285.5946066272,64.632548,0,0.293767725936,12100,2018-06-07 21:35:11,12,0,23.724,4285.5946066272,64.632548,0.223694,0.35858596948,0,0,-0.671082,322.4, 0.1, -0.5,0,0,1024,1024,1024,1024,321.5,-90,98,3.969,3.927,3.934,3.934,3.965,3.962,18.283,73.4,14,Waypoint,
38.7448355,-120.4088705,4287.5631106272,66.601052,0,0.278514116524,12300,2018-06-07 21:35:12,12,0,23.724,4287.5631106272,66.601052,0.223694,0.35858596948,0,0,-0.671082,322.3, 0.3, -0.2,0,0,1024,1024,1024,1024,321.5,-89.9,98,3.969,3.927,3.934,3.934,3.965,3.962,18.283,73.4,14,Waypoint,
38.7448354,-120.4088706,4288.5473626272,67.585304,0,0.270411425976,12400,2018-06-07 21:35:12,12,0,23.724,4288.5473626272,67.585304,0.223694,0.35858596948,0,0,-0.671082,322.3, 0.3, 0,0,0,1024,1024,1024,1024,321.5,-89.9,98,3.969,3.927,3.934,3.934,3.965,3.962,18.283,73.4,14,Waypoint,
38.7448354,-120.4088706,4289.5316146272,68.569556,0,0.270411425976,12500,2018-06-07 21:35:12,12,0,23.724,4289.5316146272,68.569556,0.223694,0.35858596948,0,0,-0.671082,322.3, 0.2, 0,0,0,1024,1024,1024,1024,321.5,-90,98,3.969,3.927,3.934,3.934,3.965,3.962,18.283,73.4,14,Waypoint,
38.7448355,-120.4088706,4290.5158666272,69.553808,0,0.25259515244,12600,2018-06-07 21:35:12,12,0,23.724,4290.5158666272,69.553808,0.223694,0.35858596948,0,0,-0.671082,322.3, 0.1, 0,0,0,1024,1024,1024,1024,321.5,-90,98,3.969,3.927,3.934,3.934,3.965,3.962,18.283,73.4,14,Waypoint,
38.7448354,-120.4088706,4291.5001186272,70.53806,0,0.270411425976,12700,2018-06-07 21:35:12,12,0,23.724,4291.5001186272,70.53806,0.223694,0.35858596948,0,0,-0.671082,322.3, 0.1, -0.2,0,0,1024,1024,1024,1024,321.5,-90,98,3.969,3.927,3.934,3.934,3.965,3.962,18.283,73.4,14,Waypoint,
38.7448354,-120.4088706,4292.4843706272,71.522312,0,0.270411425976,12800,2018-06-07 21:35:12,12,0,23.724,4292.4843706272,71.522312,0.223694,0.35858596948,0,0,-0.671082,322.3, 0, -0.2,0,0,1024,1024,1024,1024,321.5,-90,98,3.969,3.927,3.934,3.934,3.965,3.962,18.283,73.4,14,Waypoint,
38.7448354,-120.4088706,4293.4686226272,72.506564,0,0.270411425976,12900,2018-06-07 21:35:12,12,0,23.724,4293.4686226272,72.506564,0.223694,0.35858596948,0,0,-0.671082,322.3, 0, -0.1,0,0,1024,1024,1024,1024,321.5,-90,98,3.969,3.927,3.934,3.934,3.965,3.962,18.283,73.4,14,Waypoint,
38.7448353,-120.4088706,4294.4528746272,73.490816,0,0.291723762616,13010,2018-06-07 21:35:12,12,0,23.6,4294.4528746272,73.490816,0.223694,0.35858596948,0,0,-0.671082,322.3, -0.1, -0.1,0,0,1024,1024,1024,1024,321.5,-90,98,3.949,3.918,3.916,3.93,3.954,3.944,19.227,73.4,14,Waypoint,
38.7448353,-120.4088706,4295.4371266272,74.475068,0,0.291723762616,13100,2018-06-07 21:35:12,12,0,23.6,4295.4371266272,74.475068,0.223694,0.35858596948,0,0,-0.671082,322.3, -0.2, 0,0,0,1024,1024,1024,1024,321.5,-90,98,3.949,3.918,3.916,3.93,3.954,3.944,19.227,73.4,14,Waypoint,
38.7448353,-120.4088705,4296.4213786272,75.45932,0,0.314433737096,13210,2018-06-07 21:35:13,12,0,23.6,4296.4213786272,75.45932,0.223694,0.35858596948,0,0,-0.671082,322.3, -0.2, -0.1,0,0,1024,1024,1024,1024,321.5,-90,98,3.949,3.918,3.916,3.93,3.954,3.944,19.227,73.4,14,Waypoint,
38.7448353,-120.4088705,4297.4056306272,76.443572,0,0.314433737096,13400,2018-06-07 21:35:13,12,0,23.6,4297.4056306272,76.443572,0.223694,0.35858596948,0,0,-0.671082,322.3, -0.2, -0.2,0,0,1024,1024,1024,1024,321.5,-90,98,3.949,3.918,3.916,3.93,3.954,3.944,19.227,73.4,14,Waypoint,
38.7448352,-120.4088705,4298.3898826272,77.427824,0,0.33691274044,13500,2018-06-07 21:35:13,12,0,23.6,4298.3898826272,77.427824,0.223694,0.35858596948,0,0,-0.671082,322.3, -0.2, -0.2,0,0,1024,1024,1024,1024,321.5,-90,98,3.949,3.918,3.916,3.93,3.954,3.944,19.227,73.4,14,Waypoint,
38.7448352,-120.4088705,4299.3741346272,78.412076,0,0.33691274044,13600,2018-06-07 21:35:13,12,0,23.6,4299.3741346272,78.412076,0.223694,0.35858596948,0,0,-0.671082,322.3, -0.2, -0.1,0,0,1024,1024,1024,1024,321.5,-90,98,3.949,3.918,3.916,3.93,3.954,3.944,19.227,73.4,14,Waypoint,
38.7448352,-120.4088706,4300.3583866272,79.396328,0,0.315824813256,13700,2018-06-07 21:35:13,12,0,23.6,4300.3583866272,79.396328,0.223694,0.35858596948,0,0,-0.671082,322.3, -0.1, 0,0,0,1024,1024,1024,1024,321.5,-90,98,3.949,3.918,3.916,3.93,3.954,3.944,19.227,73.4,14,Waypoint,
38.7448352,-120.4088706,4301.3426386272,80.38058,0,0.315824813256,13800,2018-06-07 21:35:13,12,0,23.6,4301.3426386272,80.38058,0.223694,0.35858596948,0,0,-0.671082,322.3, 0, 0,0,0,1024,1024,1024,1024,321.5,-90,98,3.949,3.918,3.916,3.93,3.954,3.944,19.227,73.4,14,Waypoint,
38.7448352,-120.4088706,4302.3268906272,81.364832,0,0.315824813256,13900,2018-06-07 21:35:13,12,0,23.6,4302.3268906272,81.364832,0.223694,0.35858596948,0,0,-0.671082,322.4, 0, 0,0,0,1024,1024,1024,1024,321.5,-89.9,98,3.949,3.918,3.916,3.93,3.954,3.944,19.227,73.4,14,Waypoint,
38.7448352,-120.4088706,4303.3111426272,82.349084,0,0.315824813256,14000,2018-06-07 21:35:13,12,0,23.581,4303.3111426272,82.349084,0.223694,0.35858596948,0,0,-0.671082,322.4, 0.1, -0.1,0,0,1024,1024,1024,1024,321.5,-90,98,3.939,3.912,3.913,3.921,3.95,3.936,19.199,75.2,14,Waypoint,
38.7448352,-120.4088706,4305.2796466272,84.317588,0,0.315824813256,14100,2018-06-07 21:35:13,12,0,23.581,4305.2796466272,84.317588,0.223694,0.35858596948,0,0,-0.671082,322.4, 0.1, -0.3,0,0,1024,1024,1024,1024,321.5,-90,98,3.939,3.912,3.913,3.921,3.95,3.936,19.199,75.2,14,Waypoint,
38.7448352,-120.4088706,4306.2638986272,85.30184,0,0.315824813256,14200,2018-06-07 21:35:14,12,0,23.581,4306.2638986272,85.30184,0.223694,0.35858596948,0,0,-0.671082,322.4, 0.2, -0.3,0,0,1024,1024,1024,1024,321.5,-89.9,98,3.939,3.912,3.913,3.921,3.95,3.936,19.199,75.2,14,Waypoint,
38.7448352,-120.4088707,4307.2481506272,86.286092,0,0.295971466164,14300,2018-06-07 21:35:14,12,0,23.581,4307.2481506272,86.286092,0.223694,0.35858596948,0,0,-0.671082,322.3, 0.2, -0.2,0,0,1024,1024,1024,1024,321.5,-89.9,98,3.939,3.912,3.913,3.921,3.95,3.936,19.199,75.2,14,Waypoint,
38.7448352,-120.4088707,4308.2324026272,87.270344,0,0.295971466164,14400,2018-06-07 21:35:14,12,0,23.581,4308.2324026272,87.270344,0.223694,0.35858596948,0,0,-0.671082,322.3, 0.3, -0.1,0,0,1024,1024,1024,1024,321.5,-89.9,98,3.939,3.912,3.913,3.921,3.95,3.936,19.199,75.2,14,Waypoint,
38.7448352,-120.4088707,4309.2166546272,88.254596,0,0.295971466164,14500,2018-06-07 21:35:14,12,0,23.581,4309.2166546272,88.254596,0.223694,0.35858596948,0,0,-0.671082,322.3, 0.4, -0.1,0,0,1024,1024,1024,1024,321.5,-89.9,98,3.939,3.912,3.913,3.921,3.95,3.936,19.199,75.2,14,Waypoint,
38.7448352,-120.4088708,4310.2009066272,89.238848,0,0.277619103372,14600,2018-06-07 21:35:14,12,0,23.581,4310.2009066272,89.238848,0.223694,0.35858596948,0,0,-0.671082,322.3, 0.4, -0.1,0,0,1024,1024,1024,1024,321.5,-89.9,98,3.939,3.912,3.913,3.921,3.95,3.936,19.199,75.2,14,Waypoint,
38.7448352,-120.4088707,4311.1851586272,90.2231,0,0.295971466164,14700,2018-06-07 21:35:14,12,0,23.581,4311.1851586272,90.2231,0.223694,0.35858596948,0,0,-0.671082,322.3, 0.4, 0,0,0,1024,1024,1024,1024,321.5,-89.9,98,3.939,3.912,3.913,3.921,3.95,3.936,19.199,75.2,14,Waypoint,
38.7448353,-120.4088707,4312.1694106272,91.207352,0,0.270104667436,14800,2018-06-07 21:35:14,12,0,23.581,4312.1694106272,91.207352,0.223694,0.35858596948,0,0,-0.671082,322.4, 0.3, -0.1,0,0,1024,1024,1024,1024,321.5,-89.9,98,3.939,3.912,3.913,3.921,3.95,3.936,19.199,75.2,14,Waypoint,
38.7448353,-120.4088707,4313.1536626272,92.191604,0,0.270104667436,14900,2018-06-07 21:35:14,12,0,23.581,4313.1536626272,92.191604,0.223694,0.35858596948,0,0,-0.671082,322.4, 0.2, -0.3,0,0,1024,1024,1024,1024,321.5,-90,98,3.939,3.912,3.913,3.921,3.95,3.936,19.199,75.2,14,Waypoint,
38.7448353,-120.4088707,4314.1379146272,93.175856,0,0.270104667436,15000,2018-06-07 21:35:14,12,0,23.562,4314.1379146272,93.175856,0.223694,0.35858596948,0,0,-0.671082,322.3, 0.1, -0.3,0,0,1024,1024,1024,1024,321.5,-90,98,3.932,3.909,3.909,3.928,3.949,3.927,19.076,75.2,14,Waypoint,
38.7448353,-120.4088707,4315.1221666272,94.160108,0,0.270104667436,15100,2018-06-07 21:35:14,12,0,23.562,4315.1221666272,94.160108,0.223694,0.35858596948,0,0,-0.671082,322.3, 0.1, -0.4,0,0,1024,1024,1024,1024,321.5,-90,98,3.932,3.909,3.909,3.928,3.949,3.927,19.076,75.2,14,Waypoint,
38.7448353,-120.4088706,4316.1064186272,95.14436,0,0.291723762616,15210,2018-06-07 21:35:15,12,0,23.562,4316.1064186272,95.14436,0.223694,0.35858596948,0,0,-0.671082,322.2, 0.3, -0.3,0,0,1024,1024,1024,1024,321.5,-89.9,98,3.932,3.909,3.909,3.928,3.949,3.927,19.076,75.2,14,Waypoint,
38.7448353,-120.4088706,4317.0906706272,96.128612,0,0.291723762616,15300,2018-06-07 21:35:15,12,0,23.562,4317.0906706272,96.128612,0.223694,0.35858596948,0,0,-0.671082,322.3, 0.3, -0.1,0,0,1024,1024,1024,1024,321.5,-89.9,98,3.932,3.909,3.909,3.928,3.949,3.927,19.076,75.2,14,Waypoint,
38.7448353,-120.4088706,4318.0749226272,97.112864,0,0.291723762616,15400,2018-06-07 21:35:15,12,0,23.562,4318.0749226272,97.112864,0.223694,0.35858596948,0,0,-0.671082,322.3, 0.4, 0,0,0,1024,1024,1024,1024,321.5,-89.9,98,3.932,3.909,3.909,3.928,3.949,3.927,19.076,75.2,14,Waypoint,
38.7448352,-120.4088706,4319.0591746272,98.097116,0,0.315824813256,15510,2018-06-07 21:35:15,12,0,23.562,4319.0591746272,98.097116,0.223694,0.35858596948,0,0,-0.671082,322.4, 0.3, 0,0,0,1024,1024,1024,1024,321.5,-89.9,98,3.932,3.909,3.909,3.928,3.949,3.927,19.076,75.2,14,Waypoint,
38.7448352,-120.4088706,4320.3715106272,99.409452,0,0.315824813256,15600,2018-06-07 21:35:15,12,0,23.562,4320.3715106272,99.409452,0.223694,0.35858596948,0,0,-0.671082,322.5, 0.1, 0,0,0,1024,1024,1024,1024,321.5,-90,98,3.932,3.909,3.909,3.928,3.949,3.927,19.076,75.2,14,Waypoint,
38.7448352,-120.4088706,4321.3557626272,100.393704,0,0.315824813256,15720,2018-06-07 21:35:15,12,0,23.562,4321.3557626272,100.393704,0.223694,0.35858596948,0,0,-0.671082,322.5, 0, -0.2,0,0,1024,1024,1024,1024,321.5,-90,98,3.932,3.909,3.909,3.928,3.949,3.927,19.076,75.2,14,Waypoint,
38.7448353,-120.4088705,4322.3400146272,101.377956,0,0.314433737096,15800,2018-06-07 21:35:15,12,0,23.562,4322.3400146272,101.377956,0.223694,0.35858596948,0,0,-0.671082,322.4, 0.1, -0.5,0,0,1024,1024,1024,1024,321.5,-90,98,3.932,3.909,3.909,3.928,3.949,3.927,19.076,75.2,14,Waypoint,
38.7448352,-120.4088704,4323.3242666272,102.362208,0,0.3590223212,16000,2018-06-07 21:35:15,12,0,23.513,4323.3242666272,102.362208,0.223694,0.3590223212,0,0,-0.671082,322.3, 0, -0.7,0,0,1024,1024,1024,1024,321.5,-90,97,3.927,3.9,3.899,3.913,3.95,3.929,19.219,75.2,14,Waypoint,
38.7448352,-120.4088703,4324.3085186272,103.34646,0,0.38196851616,16100,2018-06-07 21:35:15,12,0,23.513,4324.3085186272,103.34646,0.223694,0.38196851616,0,0,-0.671082,322.2, -0.2, -0.8,0,0,1024,1024,1024,1024,321.5,-90,97,3.927,3.9,3.899,3.913,3.95,3.929,19.219,75.2,14,Waypoint,
38.7448352,-120.4088702,4325.2927706272,104.330712,0,0.40561681088,16200,2018-06-07 21:35:16,12,0,23.513,4325.2927706272,104.330712,0.223694,0.40561681088,0,0,-0.671082,322.1, -0.3, -0.9,0,0,1024,1024,1024,1024,321.5,-90,97,3.927,3.9,3.899,3.913,3.95,3.929,19.219,75.2,14,Waypoint,
38.7448352,-120.4088701,4326.2770226272,105.314964,0,0.42984909512,16300,2018-06-07 21:35:16,12,0,23.513,4326.2770226272,105.314964,0.223694,0.42984909512,0,0,-0.671082,322, -0.4, -0.9,0,0,1024,1024,1024,1024,321.5,-90,97,3.927,3.9,3.899,3.913,3.95,3.929,19.219,75.2,14,Waypoint,
38.7448351,-120.40887,4327.2612746272,106.299216,0,0.47321851908,16400,2018-06-07 21:35:16,12,0,23.513,4327.2612746272,106.299216,0.223694,0.47321851908,0,0,-0.671082,322.1, -0.7, -1,0,0,1024,1024,1024,1024,321.5,-90,97,3.927,3.9,3.899,3.913,3.95,3.929,19.219,75.2,14,Waypoint,
38.744835,-120.4088699,4328.9016946272,107.939636,0,0.51709647324,16500,2018-06-07 21:35:16,12,0,23.513,4328.9016946272,107.939636,0.223694,0.51709647324,0,0,-0.671082,322.4, -1.2, -0.3,0,0,1024,1024,1024,1024,321.5,-90,97,3.927,3.9,3.899,3.913,3.95,3.929,19.219,75.2,14,Waypoint,
38.744835,-120.4088699,4329.8859466272,108.923888,0,0.51709647324,16600,2018-06-07 21:35:16,12,0,23.513,4329.8859466272,108.923888,0.223694,0.51709647324,0,0,-0.671082,322.5, -1, -0.2,0,0,1024,1024,1024,1024,321.5,-90,97,3.927,3.9,3.899,3.913,3.95,3.929,19.219,75.2,14,Waypoint,
38.744835,-120.4088698,4330.8701986272,109.90814,0,0.54082350812,16700,2018-06-07 21:35:16,13,0,23.513,4330.8701986272,109.90814,0.223694,0.54082350812,0,0,-0.671082,322.5, -0.7, -0.5,0,0,1024,1024,1024,1024,321.5,-90,97,3.927,3.9,3.899,3.913,3.95,3.929,19.219,75.2,14,Waypoint,
38.744835,-120.4088698,4331.8544506272,110.892392,0,0.54082350812,16800,2018-06-07 21:35:16,13,0,23.513,4331.8544506272,110.892392,0.223694,0.54082350812,0,0,-0.671082,322.5, -0.5, -0.7,0,0,1024,1024,1024,1024,321.5,-89.9,97,3.927,3.9,3.899,3.913,3.95,3.929,19.219,75.2,14,Waypoint,
38.744835,-120.4088698,4332.8387026272,111.876644,0,0.54082350812,16900,2018-06-07 21:35:16,13,0,23.513,4332.8387026272,111.876644,0.223694,0.54082350812,0,0,-0.671082,322.4, -0.3, -0.6,0,0,1024,1024,1024,1024,321.5,-89.9,97,3.927,3.9,3.899,3.913,3.95,3.929,19.219,75.2,14,Waypoint,
38.7448349,-120.4088698,4334.1510386272,113.18898,0,0.56135500484,17000,2018-06-07 21:35:16,13,0,23.477,4334.1510386272,113.18898,0.223694,0.56135500484,0,0,-0.671082,322.3, -0.2, -0.5,0,0,1024,1024,1024,1024,321.5,-90,97,3.941,3.899,3.896,3.905,3.939,3.924,19.26,75.2,14,Waypoint,
38.7448349,-120.4088697,4335.1352906272,114.173232,0,0.58467193472,17100,2018-06-07 21:35:16,13,0,23.477,4335.1352906272,114.173232,0.223694,0.58467193472,0,0,-0.671082,322.2, -0.3, -0.4,0,0,1024,1024,1024,1024,321.5,-90,97,3.941,3.899,3.896,3.905,3.939,3.924,19.26,75.2,14,Waypoint,
38.7448349,-120.4088697,4335.7914586272,114.8294,0,0.58467193472,17200,2018-06-07 21:35:17,13,0,23.477,4335.7914586272,114.8294,0.223694,0.58467193472,0,0,-0.671082,322.2, -0.5, -0.6,0,0,1024,1024,1024,1024,321.5,-90,97,3.941,3.899,3.896,3.905,3.939,3.924,19.26,75.2,14,Waypoint,
38.7448349,-120.4088697,4336.7757106272,115.813652,0,0.58467193472,17300,2018-06-07 21:35:17,13,0,23.477,4336.7757106272,115.813652,0.223694,0.58467193472,0,0,-0.671082,322.2, -0.7, -0.7,0,0,1024,1024,1024,1024,321.5,-90,97,3.941,3.899,3.896,3.905,3.939,3.924,19.26,75.2,14,Waypoint,
38.7448349,-120.4088698,4337.7599626272,116.797904,0,0.56135500484,17400,2018-06-07 21:35:17,13,0,23.477,4337.7599626272,116.797904,0.223694,0.58467193472,0,0,-0.671082,322.2, -0.9, -0.5,0,0,1024,1024,1024,1024,321.5,-90,97,3.941,3.899,3.896,3.905,3.939,3.924,19.26,75.2,14,Waypoint,
38.7448348,-120.4088698,4339.0722986272,118.11024,0,0.5834481814,17500,2018-06-07 21:35:17,13,0,23.477,4339.0722986272,118.11024,0.223694,0.58467193472,0,0,-0.671082,322.2, -1, -0.3,0,0,1024,1024,1024,1024,321.5,-90,97,3.941,3.899,3.896,3.905,3.939,3.924,19.26,75.2,14,Waypoint,
38.7448348,-120.4088698,4339.7284666272,118.766408,0,0.5834481814,17600,2018-06-07 21:35:17,13,0,23.477,4339.7284666272,118.766408,0.223694,0.58467193472,0,0,-0.671082,322.3, -1, -0.2,0,0,1024,1024,1024,1024,321.5,-90,97,3.941,3.899,3.896,3.905,3.939,3.924,19.26,75.2,14,Waypoint,
38.7448348,-120.4088698,4340.7127186272,119.75066,0,0.5834481814,17700,2018-06-07 21:35:17,13,0,23.477,4340.7127186272,119.75066,0.223694,0.58467193472,0,0,-0.671082,322.4, -0.9, -0.1,0,0,1024,1024,1024,1024,321.5,-90,97,3.941,3.899,3.896,3.905,3.939,3.924,19.26,75.2,14,Waypoint,
38.7448348,-120.4088698,4341.6969706272,120.734912,0,0.5834481814,17800,2018-06-07 21:35:17,13,0,23.477,4341.6969706272,120.734912,0.223694,0.58467193472,0,0,-0.671082,322.4, -0.9, 0,0,0,1024,1024,1024,1024,321.5,-90,97,3.941,3.899,3.896,3.905,3.939,3.924,19.26,75.2,14,Waypoint,
38.7448348,-120.4088698,4342.6812226272,121.719164,0,0.5834481814,17900,2018-06-07 21:35:17,13,0,23.477,4342.6812226272,121.719164,0.223694,0.58467193472,0,0,-0.671082,322.5, -0.9, -0.2,0,0,1024,1024,1024,1024,321.5,-90,97,3.941,3.899,3.896,3.905,3.939,3.924,19.26,75.2,14,Waypoint,
38.7448348,-120.4088699,4343.6654746272,122.703416,0,0.56152232768,18000,2018-06-07 21:35:17,13,0,23.446,4343.6654746272,122.703416,0.223694,0.58467193472,0,0,-0.671082,322.5, -0.9, -0.1,0,0,1024,1024,1024,1024,321.5,-90,97,3.932,3.893,3.885,3.891,3.926,3.915,18.974,75.2,14,Waypoint,
38.7448347,-120.40887,4345.6339786272,124.67192,0,0.56549214408,18210,2018-06-07 21:35:18,13,0,23.446,4345.6339786272,124.67192,0.223694,0.58467193472,0,0,-0.671082,322.4, -0.9, -0.1,0,0,1024,1024,1024,1024,321.5,-90,97,3.932,3.893,3.885,3.891,3.926,3.915,18.974,75.2,14,Waypoint,
38.7448347,-120.40887,4346.6182306272,125.656172,0,0.56549214408,18300,2018-06-07 21:35:18,13,0,23.446,4346.6182306272,125.656172,0.223694,0.58467193472,0,0,-0.671082,322.3, -0.6, -0.2,0,0,1024,1024,1024,1024,321.5,-90,97,3.932,3.893,3.885,3.891,3.926,3.915,18.974,75.2,14,Waypoint,
38.7448348,-120.40887,4347.6024826272,126.640424,0,0.54020999104,18500,2018-06-07 21:35:18,13,0,23.446,4347.6024826272,126.640424,0.223694,0.58467193472,0,0,-0.671082,322.3, -0.5, -0.4,0,0,1024,1024,1024,1024,321.5,-90,97,3.932,3.893,3.885,3.891,3.926,3.915,18.974,75.2,14,Waypoint,
38.7448348,-120.40887,4348.9148186272,127.95276,0,0.54020999104,18600,2018-06-07 21:35:18,13,0,23.446,4348.9148186272,127.95276,0.223694,0.58467193472,0,0,-0.671082,322.3, -0.5, -0.5,0,0,1024,1024,1024,1024,321.5,-90,97,3.932,3.893,3.885,3.891,3.926,3.915,18.974,75.2,14,Waypoint,
38.7448348,-120.40887,4349.8990706272,128.937012,0,0.54020999104,18700,2018-06-07 21:35:18,13,0,23.446,4349.8990706272,128.937012,0.223694,0.58467193472,0,0,-0.671082,322.3, -0.5, -0.6,0,0,1024,1024,1024,1024,321.5,-89.9,97,3.932,3.893,3.885,3.891,3.926,3.915,18.974,75.2,14,Waypoint,
38.7448348,-120.40887,4350.8833226272,129.921264,0,0.54020999104,18800,2018-06-07 21:35:18,13,0,23.446,4350.8833226272,129.921264,0.223694,0.58467193472,0,0,-0.671082,322.3, -0.5, -0.8,0,0,1024,1024,1024,1024,321.5,-89.9,97,3.932,3.893,3.885,3.891,3.926,3.915,18.974,75.2,14,Waypoint,
38.7448348,-120.40887,4351.8675746272,130.905516,0,0.54020999104,18900,2018-06-07 21:35:18,13,0,23.446,4351.8675746272,130.905516,0.223694,0.58467193472,0,0,-0.671082,322.2, -0.5, -0.8,0,0,1024,1024,1024,1024,321.5,-90,97,3.932,3.893,3.885,3.891,3.926,3.915,18.974,75.2,14,Waypoint,
38.7448348,-120.40887,4352.8518266272,131.889768,0,0.54020999104,19000,2018-06-07 21:35:18,13,0,23.485,4352.8518266272,131.889768,0.223694,0.58467193472,0,0,-0.671082,322.2, -0.6, -0.7,0,0,1024,1024,1024,1024,321.5,-89.9,97,3.923,3.896,3.894,3.909,3.934,3.927,18.513,75.2,14,Waypoint,
38.7448349,-120.40887,4354.8203306272,133.858272,0,0.51626970156,19100,2018-06-07 21:35:18,13,0,23.485,4354.8203306272,133.858272,0.223694,0.58467193472,0,0,-0.671082,322.2, -0.6, -0.3,0,0,1024,1024,1024,1024,321.5,-89.9,97,3.923,3.896,3.894,3.909,3.934,3.927,18.513,75.2,14,Waypoint,
38.7448349,-120.40887,4355.8045826272,134.842524,0,0.51626970156,19200,2018-06-07 21:35:19,13,0,23.485,4355.8045826272,134.842524,0.223694,0.58467193472,0,0,-0.671082,322.2, -0.6, -0.2,0,0,1024,1024,1024,1024,321.5,-89.9,97,3.923,3.896,3.894,3.909,3.934,3.927,18.513,75.2,14,Waypoint,
38.7448349,-120.40887,4356.7888346272,135.826776,0,0.51626970156,19300,2018-06-07 21:35:19,13,0,23.485,4356.7888346272,135.826776,0.223694,0.58467193472,0,0,-0.671082,322.3, -0.4, -0.4,0,0,1024,1024,1024,1024,321.5,-89.9,97,3.923,3.896,3.894,3.909,3.934,3.927,18.513,75.2,14,Waypoint,
38.744835,-120.4088699,4357.7730866272,136.811028,0,0.51709647324,19400,2018-06-07 21:35:19,13,0,23.485,4357.7730866272,136.811028,0.223694,0.58467193472,0,0,-0.671082,322.4, -0.2, -0.8,0,0,1024,1024,1024,1024,321.5,-89.9,97,3.923,3.896,3.894,3.909,3.934,3.927,18.513,75.2,14,Waypoint,
38.7448351,-120.4088698,4358.7573386272,137.79528,0,0.52203741828,19500,2018-06-07 21:35:19,13,0,23.485,4358.7573386272,137.79528,0.223694,0.58467193472,0,0,-0.671082,322.5, -0.2, -1.5,0,0,1024,1024,1024,1024,321.5,-89.9,97,3.923,3.896,3.894,3.909,3.934,3.927,18.513,75.2,14,Waypoint,
38.7448351,-120.4088698,4359.7415906272,138.779532,0,0.52203741828,19600,2018-06-07 21:35:19,13,0,23.485,4359.7415906272,138.779532,0.223694,0.58467193472,0,0,-0.671082,322.5, -0.4, -1.8,0,0,1024,1024,1024,1024,321.5,-89.9,97,3.923,3.896,3.894,3.909,3.934,3.927,18.513,75.2,14,Waypoint,
38.7448351,-120.4088697,4360.7258426272,139.763784,0,0.5470308574,19700,2018-06-07 21:35:19,13,0,23.485,4360.7258426272,139.763784,0.223694,0.58467193472,0,0,-0.671082,322.4, -0.4, -2,0,0,1024,1024,1024,1024,321.5,-89.9,97,3.923,3.896,3.894,3.909,3.934,3.927,18.513,75.2,14,Waypoint,
38.7448352,-120.4088697,4361.7100946272,140.748036,0,0.53097770728,19800,2018-06-07 21:35:19,13,0,23.485,4361.7100946272,140.748036,0.223694,0.58467193472,0,0,-0.671082,322.4, -0.4, -1.8,0,0,1024,1024,1024,1024,321.5,-89.9,97,3.923,3.896,3.894,3.909,3.934,3.927,18.513,75.2,14,Waypoint,
38.7448352,-120.4088697,4362.6943466272,141.732288,0,0.53097770728,19900,2018-06-07 21:35:19,13,0,23.485,4362.6943466272,141.732288,0.223694,0.58467193472,0,0,-0.671082,322.4, -0.4, -1.6,0,0,1024,1024,1024,1024,321.5,-89.9,97,3.923,3.896,3.894,3.909,3.934,3.927,18.513,75.2,14,Waypoint,
38.7448352,-120.4088697,4363.6785986272,142.71654,0,0.53097770728,20010,2018-06-07 21:35:19,13,0,23.44,4363.6785986272,142.71654,0.223694,0.58467193472,0,0,-0.671082,322.4, -0.5, -1.2,0,0,1024,1024,1024,1024,321.5,-90,97,3.917,3.896,3.89,3.899,3.935,3.911,19.099,75.2,14,Waypoint,
38.7448351,-120.4088697,4364.3347666272,143.372708,0,0.5470308574,20110,2018-06-07 21:35:19,13,0,23.44,4364.3347666272,143.372708,0.223694,0.58467193472,0,0,-0.671082,322.4, -0.6, -1,0,0,1024,1024,1024,1024,321.5,-90,97,3.917,3.896,3.89,3.899,3.935,3.911,19.099,75.2,14,Waypoint,
38.7448351,-120.4088697,4364.3347666272,143.372708,0,0.5470308574,20200,2018-06-07 21:35:20,13,0,23.44,4364.3347666272,143.372708,0.223694,0.58467193472,0,0,-0.671082,322.4, -0.6, -1,0,0,1024,1024,1024,1024,321.5,-90,97,3.917,3.896,3.89,3.899,3.935,3.911,19.099,75.2,14,Waypoint,
38.7448351,-120.4088698,4366.3032706272,145.341212,0,0.52203741828,20310,2018-06-07 21:35:20,13,0,23.44,4366.3032706272,145.341212,0.223694,0.58467193472,0,0,-0.671082,322.5, -0.8, -0.5,0,0,1024,1024,1024,1024,321.5,-90,97,3.917,3.896,3.89,3.899,3.935,3.911,19.099,75.2,14,Waypoint,
38.744835,-120.4088698,4367.2875226272,146.325464,0.223694,0.54082350812,20510,2018-06-07 21:35:20,13,0,23.44,4367.2875226272,146.325464,0.223694,0.58467193472,0,0,-0.671082,322.5, -0.9, -0.4,0,0,1024,1024,1024,1024,321.5,-89.9,97,3.917,3.896,3.89,3.899,3.935,3.911,19.099,75.2,14,Waypoint,
38.744835,-120.4088699,4368.2717746272,147.309716,0.223694,0.51709647324,20610,2018-06-07 21:35:20,13,0,23.44,4368.2717746272,147.309716,0.223694,0.58467193472,0,0,-0.671082,322.4, -0.7, -0.3,0,0,1024,1024,1024,1024,321.5,-89.9,97,3.917,3.896,3.89,3.899,3.935,3.911,19.099,75.2,14,Waypoint,
38.7448351,-120.4088699,4369.2560266272,148.293968,0.223694,0.49741471408,20710,2018-06-07 21:35:20,13,0,23.44,4369.2560266272,148.293968,0.223694,0.58467193472,0,0,-0.671082,322.3, -0.5, -0.4,0,0,1024,1024,1024,1024,321.5,-89.9,97,3.917,3.896,3.89,3.899,3.935,3.911,19.099,75.2,14,Waypoint,
38.7448351,-120.4088699,4370.2402786272,149.27822,0.223694,0.49741471408,20810,2018-06-07 21:35:20,13,0,23.44,4370.2402786272,149.27822,0.223694,0.58467193472,0,0,-0.671082,322.2, -0.4, -0.5,0,0,1024,1024,1024,1024,321.5,-89.9,97,3.917,3.896,3.89,3.899,3.935,3.911,19.099,75.2,14,Waypoint,
38.7448351,-120.40887,4371.2245306272,150.262472,0,0.47321851908,20900,2018-06-07 21:35:20,13,0,23.44,4371.2245306272,150.262472,0.223694,0.58467193472,0,0,-0.671082,322.1, -0.2, -0.6,0,0,1024,1024,1024,1024,321.5,-89.9,97,3.917,3.896,3.89,3.899,3.935,3.911,19.099,75.2,14,Waypoint,
38.7448351,-120.40887,4372.2087826272,151.246724,0,0.47321851908,21010,2018-06-07 21:35:20,13,0,23.404,4372.2087826272,151.246724,0.223694,0.58467193472,0,0,-0.671082,322, -0.3, -0.7,0,0,1024,1024,1024,1024,321.5,-89.9,97,3.921,3.896,3.879,3.89,3.931,3.912,18.957,75.2,14,Waypoint,
38.7448351,-120.40887,4373.1930346272,152.230976,0,0.47321851908,21110,2018-06-07 21:35:20,13,0,23.404,4373.1930346272,152.230976,0.223694,0.58467193472,0,0,-0.671082,321.8, -0.2, -0.7,0,0,1024,1024,1024,1024,321.5,-89.9,97,3.921,3.896,3.879,3.89,3.931,3.912,18.957,75.2,14,Waypoint,
38.7448352,-120.4088701,4374.1772866272,153.215228,0,0.42984909512,21200,2018-06-07 21:35:21,13,0,23.404,4374.1772866272,153.215228,0.223694,0.58467193472,0,0,-0.671082,321.8, -0.1, -0.5,0,0,1024,1024,1024,1024,321.5,-89.9,97,3.921,3.896,3.879,3.89,3.931,3.912,18.957,75.2,14,Waypoint,
38.7448352,-120.4088701,4376.1457906272,155.183732,0,0.42984909512,21310,2018-06-07 21:35:21,13,0,23.404,4376.1457906272,155.183732,0.223694,0.58467193472,0,0,-0.671082,321.8, -0.1, -0.5,0,0,1024,1024,1024,1024,321.5,-89.9,97,3.921,3.896,3.879,3.89,3.931,3.912,18.957,75.2,14,Waypoint,
38.7448352,-120.4088701,4377.1300426272,156.167984,0,0.42984909512,21410,2018-06-07 21:35:21,13,0,23.404,4377.1300426272,156.167984,0.223694,0.58467193472,0,0,-0.671082,321.9, -0.1, -0.7,0,0,1024,1024,1024,1024,321.5,-89.9,97,3.921,3.896,3.879,3.89,3.931,3.912,18.957,75.2,14,Waypoint,
38.7448353,-120.40887,4378.1142946272,157.152236,0,0.43816602452,21500,2018-06-07 21:35:21,13,0,23.404,4378.1142946272,157.152236,0.223694,0.58467193472,0,0,-0.671082,322.1, 0, -0.9,0,0,1024,1024,1024,1024,321.5,-89.9,97,3.921,3.896,3.879,3.89,3.931,3.912,18.957,75.2,14,Waypoint,
38.7448353,-120.40887,4379.0985466272,158.136488,0,0.43816602452,21600,2018-06-07 21:35:21,13,0,23.404,4379.0985466272,158.136488,0.223694,0.58467193472,0,0,-0.671082,322.2, 0.1, -1.2,0,0,1024,1024,1024,1024,321.5,-89.9,97,3.921,3.896,3.879,3.89,3.931,3.912,18.957,75.2,14,Waypoint,
38.7448353,-120.40887,4380.0827986272,159.12074,0,0.43816602452,21700,2018-06-07 21:35:21,13,0,23.404,4380.0827986272,159.12074,0.223694,0.58467193472,0,0,-0.671082,322.3, 0.2, -1.5,0,0,1024,1024,1024,1024,321.5,-89.9,97,3.921,3.896,3.879,3.89,3.931,3.912,18.957,75.2,14,Waypoint,
38.7448353,-120.4088701,4381.0670506272,160.104992,0,0.41246392396,21810,2018-06-07 21:35:21,13,0,23.404,4381.0670506272,160.104992,0.223694,0.58467193472,0,0,-0.671082,322.4, 0.1, -1.5,0,0,1024,1024,1024,1024,321.5,-89.9,97,3.921,3.896,3.879,3.89,3.931,3.912,18.957,75.2,14,Waypoint,
38.7448354,-120.4088701,4382.0513026272,161.089244,0,0.39767717808,21900,2018-06-07 21:35:21,13,0,23.404,4382.0513026272,161.089244,0.223694,0.58467193472,0,0,-0.671082,322.5, 0, -1.2,0,0,1024,1024,1024,1024,321.5,-89.9,97,3.921,3.896,3.879,3.89,3.931,3.912,18.957,75.2,14,Waypoint,
38.7448354,-120.4088701,4384.0198066272,163.057748,0,0.39767717808,22110,2018-06-07 21:35:21,13,0,23.404,4384.0198066272,163.057748,0.223694,0.58467193472,0,0,-0.671082,322.6, 0, -0.9,0,0,1024,1024,1024,1024,321.5,-89.9,97,3.921,3.896,3.879,3.89,3.931,3.912,18.957,75.2,14,Waypoint,
38.7448354,-120.4088701,4385.3321426272,164.370084,0,0.39767717808,22210,2018-06-07 21:35:22,13,0,23.404,4385.3321426272,164.370084,0.223694,0.58467193472,0,0,-0.671082,322.7, -0.1, -0.9,0,0,1024,1024,1024,1024,321.5,-89.9,97,3.921,3.896,3.879,3.89,3.931,3.912,18.957,75.2,14,Waypoint,
38.7448354,-120.4088701,4386.3163946272,165.354336,0,0.39767717808,22300,2018-06-07 21:35:22,13,0,23.404,4386.3163946272,165.354336,0.223694,0.58467193472,0,0,-0.671082,322.6, -0.1, -0.9,0,0,1024,1024,1024,1024,321.5,-89.9,97,3.921,3.896,3.879,3.89,3.931,3.912,18.957,75.2,14,Waypoint,
38.7448354,-120.4088702,4387.3006466272,166.338588,0,0.37135171792,22400,2018-06-07 21:35:22,13,0,23.404,4387.3006466272,166.338588,0.223694,0.58467193472,0,0,-0.671082,322.5, 0, -0.8,0,0,1024,1024,1024,1024,321.5,-89.9,97,3.921,3.896,3.879,3.89,3.931,3.912,18.957,75.2,14,Waypoint,
38.7448354,-120.4088702,4387.9568146272,166.994756,0,0.37135171792,22600,2018-06-07 21:35:22,13,0,23.404,4387.9568146272,166.994756,0.223694,0.58467193472,0,0,-0.671082,322.3, 0, -0.9,0,0,1024,1024,1024,1024,321.5,-89.9,97,3.921,3.896,3.879,3.89,3.931,3.912,18.957,75.2,14,Waypoint,
38.7448354,-120.4088701,4388.9410666272,167.979008,0,0.39767717808,22700,2018-06-07 21:35:22,13,0,23.404,4388.9410666272,167.979008,0.223694,0.58467193472,0,0,-0.671082,322.2, 0, -0.8,0,0,1024,1024,1024,1024,321.5,-89.9,97,3.921,3.896,3.879,3.89,3.931,3.912,18.957,75.2,14,Waypoint,
38.7448354,-120.4088701,4389.9253186272,168.96326,0,0.39767717808,22810,2018-06-07 21:35:22,13,0,23.404,4389.9253186272,168.96326,0.223694,0.58467193472,0,0,-0.671082,322.2, 0.1, -0.8,0,0,1024,1024,1024,1024,321.5,-89.9,97,3.921,3.896,3.879,3.89,3.931,3.912,18.957,75.2,14,Waypoint,
38.7448354,-120.4088701,4389.9253186272,168.96326,0,0.39767717808,22900,2018-06-07 21:35:22,13,0,23.404,4389.9253186272,168.96326,0.223694,0.58467193472,0,0,-0.671082,322.2, 0.1, -0.8,0,0,1024,1024,1024,1024,321.5,-89.9,97,3.921,3.896,3.879,3.89,3.931,3.912,18.957,75.2,14,Waypoint,
38.7448355,-120.4088701,4391.8938226272,170.931764,0,0.38578085224,23010,2018-06-07 21:35:22,13,0,23.426,4391.8938226272,170.931764,0.223694,0.58467193472,0,0,-0.671082,322.4, 0, -1,0,0,1024,1024,1024,1024,321.5,-89.9,97,3.918,3.887,3.89,3.899,3.93,3.919,18.571,75.2,14,Waypoint,
38.7448354,-120.4088701,4393.8623266272,172.900268,0,0.39767717808,23310,2018-06-07 21:35:23,13,0,23.426,4393.8623266272,172.900268,0.223694,0.58467193472,0,0,-0.671082,322.3, -0.2, -0.7,0,0,1024,1024,1024,1024,321.5,-90,97,3.918,3.887,3.89,3.899,3.93,3.919,18.571,75.2,14,Waypoint,
38.7448354,-120.4088701,4394.8465786272,173.88452,0,0.39767717808,23500,2018-06-07 21:35:23,13,0,23.426,4394.8465786272,173.88452,0.223694,0.58467193472,0,0,-0.671082,322.3, -0.2, -0.6,0,0,1024,1024,1024,1024,321.5,-90,97,3.918,3.887,3.89,3.899,3.93,3.919,18.571,75.2,14,Waypoint,
38.7448353,-120.4088701,4396.8150826272,175.853024,0,0.41246392396,23600,2018-06-07 21:35:23,13,0,23.426,4396.8150826272,175.853024,0.223694,0.58467193472,0,0,-0.671082,322.2, -0.4, -0.8,0,0,1024,1024,1024,1024,321.5,-90,97,3.918,3.887,3.89,3.899,3.93,3.919,18.571,75.2,14,Waypoint,
38.7448353,-120.4088701,4398.7835866272,177.821528,0,0.41246392396,23900,2018-06-07 21:35:23,13,0,23.426,4398.7835866272,177.821528,0.223694,0.58467193472,0,0,-0.671082,322.3, -0.2, -0.9,0,0,1024,1024,1024,1024,321.5,-90,97,3.918,3.887,3.89,3.899,3.93,3.919,18.571,75.2,14,Waypoint,
38.7448353,-120.4088702,4400.7520906272,179.790032,0,0.38714568168,24000,2018-06-07 21:35:23,13,0,23.54,4400.7520906272,179.790032,0.223694,0.58467193472,0,0,-0.671082,322.3, -0.3, -1,0,0,1024,1024,1024,1024,321.5,-89.9,97,3.942,3.912,3.901,3.911,3.952,3.923,17.346,75.2,14,Waypoint,
38.7448352,-120.4088702,4402.7205946272,181.758536,0,0.40561681088,24100,2018-06-07 21:35:23,13,0,23.54,4402.7205946272,181.758536,0.223694,0.58467193472,0,0,-0.671082,322.5, -0.5, -1.1,0,0,1024,1024,1024,1024,321.5,-90,97,3.942,3.912,3.901,3.911,3.952,3.923,17.346,75.2,14,Waypoint,
38.7448351,-120.4088701,4404.6890986272,183.72704,0,0.44952757344,24300,2018-06-07 21:35:24,13,0,23.54,4404.6890986272,183.72704,0.223694,0.58467193472,0,0,-0.671082,322.5, -0.7, -1.3,0,0,1024,1024,1024,1024,321.5,-90,97,3.942,3.912,3.901,3.911,3.952,3.923,17.346,75.2,14,Waypoint,
38.7448351,-120.4088701,4405.6733506272,184.711292,0,0.44952757344,24400,2018-06-07 21:35:24,13,0,23.54,4405.6733506272,184.711292,0.223694,0.58467193472,0,0,-0.671082,322.5, -0.6, -1.3,0,0,1024,1024,1024,1024,321.5,-90,97,3.942,3.912,3.901,3.911,3.952,3.923,17.346,75.2,14,Waypoint,
38.744835,-120.4088702,4407.6418546272,186.679796,0,0.44921917448,24500,2018-06-07 21:35:24,13,0,23.54,4407.6418546272,186.679796,0.223694,0.58467193472,0,0,-0.671082,322.3, -0.5, -0.7,0,0,1024,1024,1024,1024,321.5,-89.9,97,3.942,3.912,3.901,3.911,3.952,3.923,17.346,75.2,14,Waypoint,
38.7448349,-120.4088703,4408.6261066272,187.664048,0.223694,0.45365487016,24600,2018-06-07 21:35:24,13,0,23.54,4408.6261066272,187.664048,0.223694,0.58467193472,0,0,-0.671082,322.3, -0.6, -0.3,0,0,1024,1024,1024,1024,321.5,-90,97,3.942,3.912,3.901,3.911,3.952,3.923,17.346,75.2,14,Waypoint,
38.7448349,-120.4088704,4409.6103586272,188.6483,0.223694,0.43450788792,24700,2018-06-07 21:35:24,13,0,23.54,4409.6103586272,188.6483,0.223694,0.58467193472,0,0,-0.671082,322.4, -0.7, 0.2,0,0,1024,1024,1024,1024,321.5,-90,97,3.942,3.912,3.901,3.911,3.952,3.923,17.346,75.2,14,Waypoint,
38.7448348,-120.4088704,4410.5946106272,189.632552,0,0.46270014604,24810,2018-06-07 21:35:24,13,0,23.54,4410.5946106272,189.632552,0.223694,0.58467193472,0,0,-0.671082,322.6, -0.6, 0.3,0,0,1024,1024,1024,1024,321.5,-89.9,97,3.942,3.912,3.901,3.911,3.952,3.923,17.346,75.2,14,Waypoint,
38.7448348,-120.4088705,4411.5788626272,190.616804,0,0.44576444996,24900,2018-06-07 21:35:24,13,0,23.54,4411.5788626272,190.616804,0.223694,0.58467193472,0,0,-0.671082,322.7, -0.3, 0,0,0,1024,1024,1024,1024,321.5,-89.9,97,3.942,3.912,3.901,3.911,3.952,3.923,17.346,75.2,14,Waypoint,
38.7448347,-120.4088705,4412.5631146272,191.601056,0,0.47608597324,25000,2018-06-07 21:35:24,13,0,23.461,4412.5631146272,191.601056,0.223694,0.58467193472,0,0,-0.671082,322.7, -0.2, -0.1,0,0,1024,1024,1024,1024,321.5,-89.9,97,3.923,3.895,3.898,3.895,3.933,3.928,17.752,75.2,14,Waypoint,
38.7448346,-120.4088705,4413.5473666272,192.585308,0,0.50722442568,25100,2018-06-07 21:35:24,13,0,23.461,4413.5473666272,192.585308,0.223694,0.58467193472,0,0,-0.671082,322.6, -0.6, 0.2,0,0,1024,1024,1024,1024,321.5,-90,97,3.923,3.895,3.898,3.895,3.933,3.928,17.752,75.2,14,Waypoint,
38.7448346,-120.4088705,4414.5316186272,193.56956,0,0.50722442568,25300,2018-06-07 21:35:25,13,0,23.461,4414.5316186272,193.56956,0.223694,0.58467193472,0,0,-0.671082,322.5, -0.7, 0.2,0,0,1024,1024,1024,1024,321.5,-90,97,3.923,3.895,3.898,3.895,3.933,3.928,17.752,75.2,14,Waypoint,
38.7448345,-120.4088705,4415.5158706272,194.553812,0,0.53903216948,25400,2018-06-07 21:35:25,13,0,23.461,4415.5158706272,194.553812,0.223694,0.58467193472,0,0,-0.671082,322.3, -0.8, 0.1,0,0,1024,1024,1024,1024,321.5,-90,97,3.923,3.895,3.898,3.895,3.933,3.928,17.752,75.2,14,Waypoint,
38.7448345,-120.4088705,4416.5001226272,195.538064,0,0.53903216948,25500,2018-06-07 21:35:25,13,0,23.461,4416.5001226272,195.538064,0.223694,0.58467193472,0,0,-0.671082,322.2, -1.1, 0.1,0,0,1024,1024,1024,1024,321.5,-90,97,3.923,3.895,3.898,3.895,3.933,3.928,17.752,75.2,14,Waypoint,
38.7448344,-120.4088705,4417.4843746272,196.522316,0,0.57139765608,25600,2018-06-07 21:35:25,13,0,23.461,4417.4843746272,196.522316,0.223694,0.58467193472,0,0,-0.671082,322.2, -1.3, 0.2,0,0,1024,1024,1024,1024,321.5,-90,97,3.923,3.895,3.898,3.895,3.933,3.928,17.752,75.2,14,Waypoint,
38.7448344,-120.4088705,4418.4686266272,197.506568,0,0.57139765608,25700,2018-06-07 21:35:25,13,0,23.461,4418.4686266272,197.506568,0.223694,0.58467193472,0,0,-0.671082,322.2, -1.5, 0.2,0,0,1024,1024,1024,1024,321.5,-90,97,3.923,3.895,3.898,3.895,3.933,3.928,17.752,75.2,14,Waypoint,
38.7448344,-120.4088705,4419.4528786272,198.49082,0,0.57139765608,25800,2018-06-07 21:35:25,13,0,23.461,4419.4528786272,198.49082,0.223694,0.58467193472,0,0,-0.671082,322.3, -1.3, 0,0,0,1024,1024,1024,1024,321.5,-89.9,97,3.923,3.895,3.898,3.895,3.933,3.928,17.752,75.2,14,Waypoint,
38.7448344,-120.4088705,4420.4371306272,199.475072,0,0.57139765608,25900,2018-06-07 21:35:25,13,0,23.461,4420.4371306272,199.475072,0.223694,0.58467193472,0,0,-0.671082,322.4, -1, -0.1,0,0,1024,1024,1024,1024,321.5,-89.9,97,3.923,3.895,3.898,3.895,3.933,3.928,17.752,75.2,14,Waypoint,
38.7448344,-120.4088706,4422.4056346272,201.443576,0,0.55922245884,26000,2018-06-07 21:35:25,13,0,23.484,4422.4056346272,201.443576,0.223694,0.58467193472,0,0,-0.671082,322.4, -0.8, -0.5,0,0,1024,1024,1024,1024,321.5,-89.9,96,3.932,3.902,3.888,3.903,3.939,3.914,17.726,75.2,14,Waypoint,
38.7448344,-120.4088707,4424.3741386272,203.41208,0.223694,0.54825461072,26200,2018-06-07 21:35:26,13,0,23.484,4424.3741386272,203.41208,0.223694,0.58467193472,0,0,-0.671082,322.3, -0.2, -0.2,0,0,1024,1024,1024,1024,321.5,-89.9,96,3.932,3.902,3.888,3.903,3.939,3.914,17.726,75.2,14,Waypoint,
38.7448345,-120.4088707,4426.3426426272,205.380584,0,0.51443243116,26400,2018-06-07 21:35:26,13,0,23.484,4426.3426426272,205.380584,0.223694,0.58467193472,0,0,-0.671082,322.2, 0.3, 0.2,0,0,1024,1024,1024,1024,321.5,-89.9,96,3.932,3.902,3.888,3.903,3.939,3.914,17.726,75.2,14,Waypoint,
38.7448345,-120.4088708,4427.3268946272,206.364836,0,0.50409778516,26500,2018-06-07 21:35:26,13,0,23.484,4427.3268946272,206.364836,0.223694,0.58467193472,0,0,-0.671082,322.2, 0.3, 0.2,0,0,1024,1024,1024,1024,321.5,-89.9,96,3.932,3.902,3.888,3.903,3.939,3.914,17.726,75.2,14,Waypoint,
38.7448345,-120.4088708,4428.3111466272,207.349088,0,0.50409778516,26600,2018-06-07 21:35:26,13,0,23.484,4428.3111466272,207.349088,0.223694,0.58467193472,0,0,-0.671082,322.2, 0.3, 0.2,0,0,1024,1024,1024,1024,321.5,-89.9,96,3.932,3.902,3.888,3.903,3.939,3.914,17.726,75.2,14,Waypoint,
38.7448345,-120.4088708,4429.2953986272,208.33334,0,0.50409778516,26700,2018-06-07 21:35:26,13,0,23.484,4429.2953986272,208.33334,0.223694,0.58467193472,0,0,-0.671082,322.3, 0.2, 0.1,0,0,1024,1024,1024,1024,321.5,-89.9,96,3.932,3.902,3.888,3.903,3.939,3.914,17.726,75.2,14,Waypoint,
