Latitude, Longitude, Altitude (m), Time, Sats, Speed (m/s), Range (m), Battery (%), Roll (deg), Pitch (deg), Yaw (deg), Images, HD Signal (%), RC Signal (%), Battery Temp (C), Battery Voltage (mV), Battery Current (mA), Battery Energy (mAh), Battery Capacity (mAh), Battery Discharges, flyState, timestamp (Unix), LastUpdate (ms), radioChannel, Rc_elevator, Rc_aileron, Rc_throttle, Rc_rudder, Rc_gyro, Dronetype, Battery_Cell1 (mV), Battery_Cell2 (mV), Battery_Cell3 (mV), Battery_Cell4 (mV), Battery_Cell5 (mV), Battery_Cell6 (mV), Video, isFlying, elapsedTime (ms), gimbalPitch (deg), gimbalRoll (deg), gimbalYaw (deg), VelocityX (m/s), VelocityY (m/s), VelocityZ (m/s), GroundSmear (cm), App Version, Aircraft Name, Aircraft Firmware, Aircraft Serial Number, Battery Serial Number, Battery Lifetime (%), App_Tip, App_Warning, CurrentFlightStartingIndex, CurrentFlightLastVisitedWaypoint, PreviousFlightEndingWaypointIndex
38.7448523, -120.4088436, 0.000, 14:57:27.685, 11, 0.14, 0.04, 98, -1.400, -0.100, -35.300, 1710, 100, 100, 25, 25158, -3986, 5093, 5197, 13, 11, 1528408647.686, 72, 0, 1024, 1024, 1024, 1024, 0, 6, 4074, 4175, 4206, 4066, 4159, 4216, 0, 1, 2868, -90.000, 0.000, -36.500, -0.100, -0.100, -0.100, 0.0, MapPilot_2.8.1_04242018, Dendroctonus I, 1.3.1.00, 041DDC1887, 1058171200154, 97, Photo, Starting Mission from Lat/Long: 38.74485/-120.40884 Camera: Zenmuse X3 - Overlap: 90/90 - Active Connection: No, 65, 65, 65
38.7448523, -120.4088436, 0.000, 14:57:27.718, 11, 0.14, 0.04, 98, -1.400, -0.100, -35.300, 1710, 100, 100, 25, 25158, -3986, 5093, 5197, 13, 11, 1528408647.720, 106, 0, 1024, 1024, 1024, 1024, 0, 6, 4167, 4176, 4181, 4170, 4171, 4188, 0, 1, 2902, -90.000, 0.000, -36.500, -0.100, -0.100, -0.100, 0.0, , , , , , 97, , , 65, 65, 65
38.7448522, -120.4088438, 0.000, 14:57:27.832, 11, 0.14, 0.06, 98, 0.000, -0.500, -35.000, 1710, 100, 100, 25, 25158, -3986, 5093, 5197, 13, 11, 1528408647.833, 20, 0, 1024, 1024, 1024, 1024, 0, 6, 4167, 4176, 4181, 4170, 4171, 4188, 0, 1, 3016, -90.000, 0.000, -36.500, -0.100, -0.100, -0.200, 0.0, , , , , , 97, , , 65, 65, 65
38.7448520, -120.4088440, 0.000, 14:57:27.926, 11, 0.14, 0.08, 98, 1.200, -0.600, -34.900, 1710, 100, 100, 25, 25158, -3986, 5093, 5197, 13, 11, 1528408647.930, 10, 0, 1024, 1024, 1024, 1024, 0, 6, 4167, 4176, 4181, 4170, 4171, 4188, 0, 1, 3113, -90.000, 0.000, -36.500, -0.100, -0.100, -0.300, 0.0, , , , , , 97, , , 65, 65, 65
38.7448520, -120.4088441, 0.000, 14:57:28.021, 10, 0.10, 0.10, 98, 1.500, -0.200, -34.900, 1710, 100, 100, 25, 25158, -3986, 5093, 5197, 13, 11, 1528408648.021, 12, 0, 1024, 1024, 1024, 1024, 0, 6, 4167, 4176, 4181, 4170, 4171, 4188, 0, 1, 3204, -90.000, 0.000, -36.500, 0.000, -0.100, -0.300, 0.0, , , , , , 97, , , 65, 65, 65
38.7448520, -120.4088441, 0.000, 14:57:28.118, 10, 0.10, 0.10, 98, 1.500, -0.200, -34.900, 1710, 100, 100, 25, 25158, -3986, 5093, 5197, 13, 11, 1528408648.119, 109, 0, 1024, 1024, 1024, 1024, 0, 6, 4167, 4176, 4181, 4170, 4171, 4188, 0, 1, 3301, -90.000, 0.000, -36.500, 0.000, -0.100, -0.300, 0.0, , , , , , 97, , , 65, 65, 65
38.7448519, -120.4088442, 0.100, 14:57:28.218, 10, 0.10, 0.11, 98, 1.300, 0.100, -35.200, 1710, 100, 100, 25, 25158, -3986, 5093, 5197, 13, 11, 1528408648.219, 36, 0, 1024, 1024, 1024, 1024, 0, 6, 4167, 4176, 4181, 4170, 4171, 4188, 0, 1, 3401, -90.000, 0.000, -36.500, 0.000, -0.100, -0.300, 0.0, , , , , , 97, , , 65, 65, 65
38.7448519, -120.4088444, 0.100, 14:57:28.318, 10, 0.00, 0.12, 98, 0.700, 0.200, -35.500, 1710, 100, 100, 25, 25158, -3986, 5093, 5197, 13, 11, 1528408648.319, 70, 0, 1024, 1024, 1024, 1024, 0, 6, 4167, 4176, 4181, 4170, 4171, 4188, 0, 1, 3502, -89.900, 0.000, -36.500, 0.000, 0.000, -0.300, 0.0, , , , , , 97, , , 65, 65, 65
38.7448519, -120.4088445, 0.200, 14:57:28.418, 10, 0.00, 0.13, 98, 0.600, 0.200, -35.800, 1710, 100, 100, 25, 25158, -3986, 5093, 5197, 13, 11, 1528408648.419, 55, 0, 1024, 1024, 1024, 1024, 0, 6, 4167, 4176, 4181, 4170, 4171, 4188, 0, 1, 3601, -89.900, 0.000, -36.500, 0.000, 0.000, -0.300, 0.0, , , , , , 97, , , 65, 65, 65
38.7448519, -120.4088445, 0.200, 14:57:28.518, 10, 0.00, 0.13, 98, 0.600, 0.200, -35.800, 1710, 100, 100, 25, 25158, -3986, 5093, 5197, 13, 11, 1528408648.519, 155, 0, 1024, 1024, 1024, 1024, 0, 6, 4167, 4176, 4181, 4170, 4171, 4188, 0, 1, 3701, -89.900, 0.000, -36.500, 0.000, 0.000, -0.300, 0.0, , , , , , 97, , , 65, 65, 65
38.7448518, -120.4088449, 0.300, 14:57:28.618, 10, 0.00, 0.16, 98, 0.300, 0.300, -36.200, 1710, 100, 100, 25, 25158, -3986, 5093, 5197, 13, 11, 1528408648.618, 13, 0, 1024, 1024, 1024, 1024, 0, 6, 4167, 4176, 4181, 4170, 4171, 4188, 0, 1, 3801, -90.000, 0.000, -36.500, 0.000, 0.000, -0.400, 0.0, , , , , , 97, , , 65, 65, 65
38.7448518, -120.4088450, 0.300, 14:57:28.718, 10, 0.00, 0.17, 98, 0.300, 0.200, -35.900, 1710, 100, 100, 25, 25158, -3986, 5093, 5197, 13, 11, 1528408648.719, 70, 0, 1024, 1024, 1024, 1024, 0, 6, 4167, 4176, 4181, 4170, 4171, 4188, 0, 1, 3902, -90.000, 0.000, -36.500, 0.000, 0.000, -0.400, 0.0, , , , , , 97, , , 65, 65, 65
38.7448518, -120.4088450, 0.400, 14:57:28.818, 10, 0.00, 0.17, 98, 0.500, 0.400, -35.700, 1710, 100, 100, 25, 24089, -13151, 5041, 5197, 13, 11, 1528408648.819, 80, 0, 1024, 1024, 1024, 1024, 0, 6, 4167, 4176, 4181, 4170, 4171, 4188, 0, 1, 4001, -89.900, 0.000, -36.500, 0.000, 0.000, -0.400, 0.0, , , , , , 97, , , 65, 65, 65
38.7448518, -120.4088450, 0.400, 14:57:28.918, 10, 0.00, 0.17, 98, 0.500, 0.400, -35.700, 1710, 100, 100, 25, 24089, -13151, 5041, 5197, 13, 11, 1528408648.919, 180, 0, 1024, 1024, 1024, 1024, 0, 6, 3962, 3986, 3976, 3964, 3974, 3986, 0, 1, 4101, -89.900, 0.000, -36.500, 0.000, 0.000, -0.400, 0.0, , , , , , 97, , , 65, 65, 65
38.7448517, -120.4088453, 0.600, 14:57:29.023, 9, 0.00, 0.20, 98, 0.800, 0.700, -35.300, 1710, 100, 100, 25, 24089, -13151, 5041, 5197, 13, 11, 1528408649.024, 8, 0, 1024, 1024, 1024, 1024, 0, 6, 3962, 3986, 3976, 3964, 3974, 3986, 0, 1, 4207, -89.900, 0.000, -36.500, 0.000, 0.000, -0.500, 0.0, , , , , , 97, , , 65, 65, 65
38.7448517, -120.4088453, 0.600, 14:57:29.118, 9, 0.00, 0.20, 98, 0.800, 0.700, -35.300, 1710, 100, 100, 25, 24089, -13151, 5041, 5197, 13, 11, 1528408649.119, 103, 0, 1024, 1024, 1024, 1024, 0, 6, 3962, 3986, 3976, 3964, 3974, 3986, 0, 1, 4301, -89.900, 0.000, -36.500, 0.000, 0.000, -0.500, 0.0, , , , , , 97, , , 65, 65, 65
38.7448517, -120.4088454, 0.600, 14:57:29.219, 10, 0.00, 0.21, 97, 1.000, 0.500, -35.400, 1710, 100, 100, 25, 24089, -13151, 5041, 5197, 13, 11, 1528408649.219, 43, 0, 1024, 1024, 1024, 1024, 0, 6, 3962, 3986, 3976, 3964, 3974, 3986, 0, 1, 4402, -90.000, 0.000, -36.500, 0.000, 0.000, -0.400, 0.0, , , , , , 97, , , 65, 65, 65
38.7448517, -120.4088455, 0.700, 14:57:29.318, 10, 0.00, 0.22, 97, 1.000, 0.400, -35.500, 1710, 100, 100, 25, 24089, -13151, 5041, 5197, 13, 11, 1528408649.319, 60, 0, 1024, 1024, 1024, 1024, 0, 6, 3962, 3986, 3976, 3964, 3974, 3986, 0, 1, 4502, -90.000, 0.000, -36.500, 0.000, 0.000, -0.400, 0.0, , , , , , 97, , , 65, 65, 65
38.7448517, -120.4088454, 0.700, 14:57:29.418, 10, 0.00, 0.21, 97, 1.100, 0.400, -35.500, 1710, 100, 100, 25, 24089, -13151, 5041, 5197, 13, 11, 1528408649.419, 47, 0, 1024, 1024, 1024, 1024, 0, 6, 3962, 3986, 3976, 3964, 3974, 3986, 0, 1, 4601, -90.000, 0.000, -36.500, 0.000, 0.000, -0.400, 0.0, , , , , , 97, , , 65, 65, 65
38.7448517, -120.4088454, 0.700, 14:57:29.518, 10, 0.00, 0.21, 97, 1.100, 0.400, -35.500, 1710, 100, 100, 25, 24089, -13151, 5041, 5197, 13, 11, 1528408649.519, 147, 0, 1024, 1024, 1024, 1024, 0, 6, 3962, 3986, 3976, 3964, 3974, 3986, 0, 1, 4701, -90.000, 0.000, -36.500, 0.000, 0.000, -0.400, 0.0, , , , , , 97, , , 65, 65, 65
38.7448520, -120.4088454, 0.900, 14:57:29.622, 10, 0.00, 0.20, 97, 0.300, 0.700, -35.400, 1710, 100, 100, 25, 23682, -16545, 5041, 5197, 13, 6, 1528408649.623, 7, 0, 1024, 1024, 1024, 1024, 0, 6, 3962, 3986, 3976, 3964, 3974, 3986, 0, 1, 4806, -89.900, 0.000, -36.500, 0.000, 0.000, -0.500, 0.0, , , , , , 97, , , 65, 65, 65
38.7448520, -120.4088453, 0.900, 14:57:29.736, 11, 0.00, 0.19, 97, 0.000, 0.900, -35.300, 1710, 100, 100, 25, 23682, -16545, 5041, 5197, 13, 14, 1528408649.736, 20, 0, 1024, 1024, 1024, 1024, 0, 6, 3962, 3986, 3976, 3964, 3974, 3986, 0, 1, 4919, -89.900, 0.000, -36.500, 0.000, 0.000, -0.400, 0.0, , , , , , 97, , , 65, 65, 65
38.7448520, -120.4088453, 0.900, 14:57:29.818, 11, 0.00, 0.19, 97, 0.000, 0.900, -35.300, 1710, 100, 100, 25, 23682, -16545, 5041, 5197, 13, 14, 1528408649.819, 103, 0, 1024, 1024, 1024, 1024, 0, 6, 3962, 3986, 3976, 3964, 3974, 3986, 0, 1, 5002, -89.900, 0.000, -36.500, 0.000, 0.000, -0.400, 0.0, , , , , , 97, , , 65, 65, 65
38.7448520, -120.4088452, 1.000, 14:57:29.918, 11, 0.00, 0.18, 97, -0.700, 0.900, -35.100, 1710, 100, 100, 25, 23682, -16545, 5041, 5197, 13, 14, 1528408649.919, 66, 0, 1024, 1024, 1024, 1024, 0, 6, 3962, 3986, 3976, 3964, 3974, 3986, 0, 1, 5102, -89.900, 0.000, -36.500, 0.000, 0.000, -0.300, 0.0, , , , , , 97, , , 65, 65, 65
38.7448521, -120.4088451, 1.000, 14:57:30.018, 11, 0.00, 0.18, 97, -1.300, 0.700, -35.000, 1710, 100, 100, 25, 23682, -16545, 5041, 5197, 13, 14, 1528408650.019, 58, 0, 1024, 1024, 1024, 1024, 0, 6, 3962, 3986, 3976, 3964, 3974, 3986, 0, 1, 5201, -90.000, 0.000, -36.400, 0.000, 0.000, -0.200, 0.0, , , , , , 97, , , 65, 65, 65
38.7448521, -120.4088452, 1.000, 14:57:30.118, 11, 0.00, 0.18, 97, -1.200, 0.600, -34.900, 1710, 100, 100, 25, 23682, -16545, 5041, 5197, 13, 14, 1528408650.119, 62, 0, 1024, 1024, 1024, 1024, 0, 6, 3962, 3986, 3976, 3964, 3974, 3986, 0, 1, 5301, -90.000, 0.000, -36.400, 0.000, 0.000, -0.300, 0.0, , , , , , 97, , , 65, 65, 65
38.7448521, -120.4088451, 1.100, 14:57:30.218, 11, 0.00, 0.17, 97, -1.000, 0.600, -34.900, 1710, 100, 100, 25, 23682, -16545, 5041, 5197, 13, 14, 1528408650.219, 48, 0, 1024, 1024, 1024, 1024, 0, 6, 3962, 3986, 3976, 3964, 3974, 3986, 0, 1, 5402, -90.000, 0.000, -36.400, 0.000, 0.000, -0.400, 0.0, , , , , , 97, , , 65, 65, 65
38.7448521, -120.4088451, 1.200, 14:57:30.321, 11, 0.00, 0.17, 97, -0.400, 0.400, -35.200, 1710, 100, 100, 25, 23682, -16545, 5041, 5197, 13, 14, 1528408650.322, 14, 0, 1024, 1024, 1024, 1024, 0, 6, 3928, 3937, 3946, 3932, 3934, 3949, 0, 1, 5505, -90.000, 0.000, -36.400, 0.000, 0.000, -0.600, 0.0, , , , , , 97, , , 65, 65, 65
38.7448522, -120.4088450, 1.400, 14:57:30.418, 10, 0.00, 0.16, 97, -0.200, 0.600, -35.600, 1710, 100, 100, 25, 23682, -16545, 5041, 5197, 13, 14, 1528408650.419, 21, 0, 1024, 1024, 1024, 1024, 0, 6, 3928, 3937, 3946, 3932, 3934, 3949, 0, 1, 5601, -90.000, 0.000, -36.400, 0.000, 0.000, -1.000, 0.0, , , , , , 97, , , 65, 65, 65
38.7448522, -120.4088450, 1.500, 14:57:30.518, 10, 0.00, 0.16, 97, -0.300, 0.700, -35.900, 1710, 100, 100, 25, 23682, -16545, 5041, 5197, 13, 14, 1528408650.519, 37, 0, 1024, 1024, 1024, 1024, 0, 6, 3928, 3937, 3946, 3932, 3934, 3949, 0, 1, 5701, -89.900, 0.000, -36.400, 0.000, 0.000, -1.200, 0.0, , , , , , 97, , , 65, 65, 65
38.7448524, -120.4088450, 1.700, 14:57:30.618, 11, 0.00, 0.16, 97, -0.400, 0.800, -36.000, 1710, 100, 100, 25, 23682, -16545, 5041, 5197, 13, 14, 1528408650.619, 70, 0, 1024, 1024, 1024, 1024, 0, 6, 3928, 3937, 3946, 3932, 3934, 3949, 0, 1, 5801, -90.000, 0.000, -36.400, 0.000, 0.000, -1.400, 0.0, , , , , , 97, , , 65, 65, 65
38.7448525, -120.4088450, 1.800, 14:57:30.718, 11, 0.00, 0.16, 97, -0.700, 0.800, -35.900, 1710, 100, 100, 25, 23682, -16545, 5041, 5197, 13, 14, 1528408650.719, 54, 0, 1024, 1024, 1024, 1024, 0, 6, 3928, 3937, 3946, 3932, 3934, 3949, 0, 1, 5901, -89.900, 0.000, -36.400, 0.000, 0.000, -1.600, 0.0, , , , , , 97, , , 65, 65, 65
38.7448525, -120.4088450, 1.800, 14:57:30.818, 11, 0.00, 0.16, 97, -0.700, 0.800, -35.900, 1710, 100, 100, 25, 23682, -16545, 5041, 5197, 13, 14, 1528408650.819, 154, 0, 1024, 1024, 1024, 1024, 0, 6, 3928, 3937, 3946, 3932, 3934, 3949, 0, 1, 6001, -89.900, 0.000, -36.400, 0.000, 0.000, -1.600, 0.0, , , , , , 97, , , 65, 65, 65
38.7448526, -120.4088449, 2.000, 14:57:30.918, 11, 0.00, 0.15, 97, -1.000, 0.800, -35.900, 1710, 100, 100, 25, 23682, -16545, 5041, 5197, 13, 14, 1528408650.918, 29, 0, 1024, 1024, 1024, 1024, 0, 6, 3928, 3937, 3946, 3932, 3934, 3949, 0, 1, 6101, -90.000, 0.000, -36.400, 0.000, 0.000, -1.900, 0.0, , , , , , 97, , , 65, 65, 65
38.7448527, -120.4088448, 2.200, 14:57:31.021, 11, 0.00, 0.14, 97, -1.300, 0.700, -35.700, 1710, 100, 100, 25, 23682, -16545, 5041, 5197, 13, 14, 1528408651.021, 6, 0, 1024, 1024, 1024, 1024, 0, 6, 3928, 3937, 3946, 3932, 3934, 3949, 0, 1, 6204, -90.000, 0.000, -36.400, 0.000, 0.000, -2.100, 0.0, , , , , , 97, , , 65, 65, 65
38.7448527, -120.4088448, 2.200, 14:57:31.118, 11, 0.00, 0.14, 97, -1.300, 0.700, -35.700, 1710, 100, 100, 25, 23682, -16545, 5041, 5197, 13, 14, 1528408651.119, 103, 0, 1024, 1024, 1024, 1024, 0, 6, 3928, 3937, 3946, 3932, 3934, 3949, 0, 1, 6301, -90.000, 0.000, -36.400, 0.000, 0.000, -2.100, 0.0, , , , , , 97, , , 65, 65, 65
38.7448527, -120.4088447, 2.500, 14:57:31.218, 11, 0.00, 0.14, 97, -1.500, 0.700, -35.600, 1710, 100, 100, 25, 23609, -16485, 5041, 5197, 13, 14, 1528408651.219, 15, 0, 1024, 1024, 1024, 1024, 0, 6, 3928, 3937, 3946, 3932, 3934, 3949, 0, 1, 6401, -90.000, 0.000, -36.400, 0.000, 0.000, -2.300, 0.0, , , , , , 97, , , 65, 65, 65
38.7448528, -120.4088446, 2.700, 14:57:31.353, 11, 0.00, 0.13, 97, -1.700, 0.700, -35.500, 1710, 100, 100, 25, 23609, -16485, 5041, 5197, 13, 14, 1528408651.353, 17, 0, 1024, 1024, 1024, 1024, 0, 6, 3979, 3923, 3917, 3907, 3953, 3928, 0, 1, 6536, -90.000, 0.000, -36.400, 0.000, 0.000, -2.400, 0.0, , , , , , 97, , , 65, 65, 65
38.7448528, -120.4088446, 2.700, 14:57:31.418, 11, 0.00, 0.13, 97, -1.700, 0.700, -35.500, 1710, 100, 100, 25, 23609, -16485, 5041, 5197, 13, 14, 1528408651.419, 82, 0, 1024, 1024, 1024, 1024, 0, 6, 3979, 3923, 3917, 3907, 3953, 3928, 0, 1, 6601, -90.000, 0.000, -36.400, 0.000, 0.000, -2.400, 0.0, , , , , , 97, , , 65, 65, 65
38.7448524, -120.4088447, 3.600, 14:57:31.517, 11, 0.00, 0.13, 97, -0.400, 0.200, -35.200, 1710, 100, 100, 25, 23609, -16485, 5041, 5197, 13, 14, 1528408651.518, 11, 0, 1024, 1024, 1024, 1024, 0, 6, 3979, 3923, 3917, 3907, 3953, 3928, 0, 1, 6701, -90.000, 0.000, -36.400, 0.000, 0.000, -2.900, 0.0, , , , , , 97, , , 65, 65, 65
38.7448524, -120.4088447, 3.600, 14:57:31.618, 11, 0.00, 0.13, 97, -0.400, 0.200, -35.200, 1710, 100, 100, 25, 23609, -16485, 5041, 5197, 13, 14, 1528408651.619, 111, 0, 1024, 1024, 1024, 1024, 0, 6, 3979, 3923, 3917, 3907, 3953, 3928, 0, 1, 6801, -90.000, 0.000, -36.400, 0.000, 0.000, -2.900, 0.0, , , , , , 97, , , 65, 65, 65
38.7448523, -120.4088447, 3.900, 14:57:31.718, 11, 0.00, 0.14, 97, 0.000, 0.000, -35.200, 1710, 100, 100, 25, 23609, -16485, 5041, 5197, 13, 14, 1528408651.719, 43, 0, 1024, 1024, 1024, 1024, 0, 6, 3979, 3923, 3917, 3907, 3953, 3928, 0, 1, 6902, -90.000, 0.000, -36.400, 0.000, 0.000, -3.000, 0.0, , , , , , 97, , , 65, 65, 65
38.7448521, -120.4088449, 4.200, 14:57:31.818, 10, 0.00, 0.15, 97, 0.400, 0.000, -35.300, 1710, 100, 100, 25, 23609, -16485, 5041, 5197, 13, 14, 1528408651.819, 80, 0, 1024, 1024, 1024, 1024, 0, 6, 3979, 3923, 3917, 3907, 3953, 3928, 0, 1, 7002, -90.000, 0.000, -36.400, 0.000, 0.000, -3.100, 0.0, , , , , , 97, , , 65, 65, 65
38.7448518, -120.4088450, 4.500, 14:57:31.918, 10, 0.00, 0.18, 97, 0.700, -0.200, -35.500, 1710, 100, 100, 25, 23609, -16485, 5041, 5197, 13, 14, 1528408651.919, 40, 0, 1024, 1024, 1024, 1024, 0, 6, 3979, 3923, 3917, 3907, 3953, 3928, 0, 1, 7101, -90.000, 0.000, -36.400, 0.000, 0.000, -3.200, 0.0, , , , , , 97, , , 65, 65, 65
38.7448518, -120.4088450, 4.500, 14:57:32.018, 10, 0.00, 0.18, 97, 0.700, -0.200, -35.500, 1710, 100, 100, 25, 23609, -16485, 5041, 5197, 13, 14, 1528408652.019, 140, 0, 1024, 1024, 1024, 1024, 0, 6, 3979, 3923, 3917, 3907, 3953, 3928, 0, 1, 7202, -90.000, 0.000, -36.400, 0.000, 0.000, -3.200, 0.0, , , , , , 97, , , 65, 65, 65
38.7448521, -120.4088453, 5.200, 14:57:32.118, 11, 0.00, 0.19, 97, 0.800, 0.000, -35.800, 1710, 100, 100, 25, 23609, -16485, 5041, 5197, 13, 14, 1528408652.119, 86, 0, 1024, 1024, 1024, 1024, 0, 6, 3979, 3923, 3917, 3907, 3953, 3928, 0, 1, 7301, -89.900, 0.000, -36.400, 0.000, 0.000, -3.200, 0.0, , , , , , 97, , , 65, 65, 65
38.7448521, -120.4088453, 5.200, 14:57:32.218, 11, 0.00, 0.19, 97, 0.800, 0.000, -35.800, 1710, 100, 100, 25, 23609, -16485, 5041, 5197, 13, 14, 1528408652.218, 185, 0, 1024, 1024, 1024, 1024, 0, 6, 3979, 3923, 3917, 3907, 3953, 3928, 0, 1, 7401, -89.900, 0.000, -36.400, 0.000, 0.000, -3.200, 0.0, , , , , , 97, , , 65, 65, 65
38.7448523, -120.4088456, 6.200, 14:57:32.319, 11, 0.00, 0.21, 97, 0.300, 1.200, -35.900, 1710, 100, 100, 25, 23609, -16485, 5041, 5197, 13, 14, 1528408652.320, 14, 0, 1024, 1024, 1024, 1024, 0, 6, 3979, 3923, 3917, 3907, 3953, 3928, 0, 1, 7502, -89.900, 0.000, -36.400, 0.000, 0.000, -3.200, 0.0, , , , , , 97, , , 65, 65, 65
38.7448523, -120.4088456, 6.200, 14:57:32.418, 11, 0.00, 0.21, 97, 0.300, 1.200, -35.900, 1710, 100, 100, 25, 23609, -16485, 5041, 5197, 13, 14, 1528408652.419, 113, 0, 1024, 1024, 1024, 1024, 0, 6, 3979, 3923, 3917, 3907, 3953, 3928, 0, 1, 7601, -89.900, 0.000, -36.400, 0.000, 0.000, -3.200, 0.0, , , , , , 97, , , 65, 65, 65
38.7448523, -120.4088456, 6.200, 14:57:32.518, 11, 0.00, 0.21, 97, 0.300, 1.200, -35.900, 1710, 100, 100, 25, 23609, -16485, 5041, 5197, 13, 14, 1528408652.519, 213, 0, 1024, 1024, 1024, 1024, 0, 6, 3979, 3923, 3917, 3907, 3953, 3928, 0, 1, 7701, -89.900, 0.000, -36.400, 0.000, 0.000, -3.200, 0.0, , , , , , 97, , , 65, 65, 65
38.7448524, -120.4088454, 7.600, 14:57:32.654, 10, 0.00, 0.20, 97, -0.100, 1.000, -35.900, 1710, 100, 100, 25, 23110, -22646, 5041, 5197, 13, 14, 1528408652.655, 21, 0, 1024, 1024, 1024, 1024, 0, 6, 3979, 3923, 3917, 3907, 3953, 3928, 0, 1, 7837, -89.900, 0.000, -36.400, 0.000, 0.000, -3.200, 0.0, , , , , , 97, , , 65, 65, 65
38.7448524, -120.4088454, 7.600, 14:57:32.718, 10, 0.00, 0.20, 97, -0.100, 1.000, -35.900, 1710, 100, 100, 25, 23110, -22646, 5041, 5197, 13, 14, 1528408652.719, 86, 0, 1024, 1024, 1024, 1024, 0, 6, 3830, 3844, 3838, 3821, 3830, 3846, 0, 1, 7902, -89.900, 0.000, -36.400, 0.000, 0.000, -3.200, 0.0, , , , , , 97, , , 65, 65, 65
38.7448524, -120.4088454, 7.600, 14:57:32.818, 10, 0.00, 0.20, 97, -0.100, 1.000, -35.900, 1710, 100, 100, 25, 23110, -22646, 5041, 5197, 13, 14, 1528408652.819, 186, 0, 1024, 1024, 1024, 1024, 0, 6, 3830, 3844, 3838, 3821, 3830, 3846, 0, 1, 8002, -90.000, 0.000, -36.400, 0.000, 0.000, -3.200, 0.0, , , , , , 97, , , 65, 65, 65
38.7448524, -120.4088451, 8.200, 14:57:32.918, 11, 0.00, 0.17, 97, -0.200, 0.400, -35.900, 1710, 100, 100, 25, 23110, -22646, 5041, 5197, 13, 14, 1528408652.919, 69, 0, 1024, 1024, 1024, 1024, 0, 6, 3830, 3844, 3838, 3821, 3830, 3846, 0, 1, 8101, -90.000, 0.000, -36.400, 0.000, 0.000, -3.100, 0.0, , , , , , 97, , , 65, 65, 65
38.7448523, -120.4088449, 8.600, 14:57:33.018, 11, 0.00, 0.15, 97, -0.400, 0.100, -36.000, 1710, 100, 100, 25, 23110, -22646, 5041, 5197, 13, 14, 1528408653.019, 85, 0, 1024, 1024, 1024, 1024, 0, 6, 3830, 3844, 3838, 3821, 3830, 3846, 0, 1, 8201, -90.000, 0.000, -36.400, 0.000, 0.000, -3.100, 0.0, , , , , , 97, , , 65, 65, 65
38.7448523, -120.4088448, 8.900, 14:57:33.118, 11, 0.00, 0.14, 97, -0.400, 0.000, -36.000, 1710, 100, 100, 25, 23077, -21030, 5041, 5197, 13, 14, 1528408653.119, 82, 0, 1024, 1024, 1024, 1024, 0, 6, 3830, 3844, 3838, 3821, 3830, 3846, 0, 1, 8302, -90.000, 0.000, -36.400, 0.000, 0.000, -3.100, 0.0, , , , , , 97, , , 65, 65, 65
38.7448524, -120.4088446, 9.200, 14:57:33.218, 11, 0.00, 0.13, 97, -0.500, 0.000, -36.000, 1710, 100, 100, 25, 23077, -21030, 5041, 5197, 13, 14, 1528408653.219, 69, 0, 1024, 1024, 1024, 1024, 0, 6, 3825, 3850, 3865, 3862, 3841, 3874, 0, 1, 8402, -90.000, 0.000, -36.400, 0.000, 0.000, -3.000, 0.0, , , , , , 97, , , 65, 65, 65
38.7448525, -120.4088445, 9.500, 14:57:33.319, 11, 0.00, 0.11, 97, -0.600, 0.300, -36.000, 1710, 100, 100, 25, 23077, -21030, 5041, 5197, 13, 14, 1528408653.322, 37, 0, 1024, 1024, 1024, 1024, 0, 6, 3825, 3850, 3865, 3862, 3841, 3874, 0, 1, 8505, -90.000, 0.000, -36.400, 0.000, 0.000, -3.000, 0.0, , , , , , 97, , , 65, 65, 65
38.7448525, -120.4088443, 9.900, 14:57:33.423, 11, 0.00, 0.10, 97, -0.800, 0.400, -36.000, 1710, 100, 100, 25, 23077, -21030, 5041, 5197, 13, 14, 1528408653.424, 10, 0, 1024, 1024, 1024, 1024, 0, 6, 3825, 3850, 3865, 3862, 3841, 3874, 0, 1, 8606, -89.900, 0.000, -36.400, 0.000, 0.000, -3.000, 0.0, , , , , , 97, , , 65, 65, 65
38.7448526, -120.4088442, 10.200, 14:57:33.518, 12, 0.00, 0.09, 97, -1.000, 0.600, -36.000, 1710, 100, 100, 25, 23077, -21030, 5041, 5197, 13, 14, 1528408653.519, 14, 0, 1024, 1024, 1024, 1024, 0, 6, 3825, 3850, 3865, 3862, 3841, 3874, 0, 1, 8701, -89.900, 0.000, -36.400, 0.000, 0.000, -3.000, 0.0, , , , , , 97, , , 65, 65, 65
38.7448526, -120.4088442, 10.200, 14:57:33.618, 12, 0.00, 0.09, 97, -1.000, 0.600, -36.000, 1710, 100, 100, 25, 23077, -21030, 5041, 5197, 13, 14, 1528408653.619, 114, 0, 1024, 1024, 1024, 1024, 0, 6, 3825, 3850, 3865, 3862, 3841, 3874, 0, 1, 8802, -89.900, 0.000, -36.400, 0.000, 0.000, -3.000, 0.0, , , , , , 97, , , 65, 65, 65
38.7448528, -120.4088438, 10.800, 14:57:33.718, 11, 0.00, 0.07, 97, -1.200, 0.600, -36.000, 1710, 100, 100, 25, 23077, -21030, 5041, 5197, 13, 14, 1528408653.719, 19, 0, 1024, 1024, 1024, 1024, 0, 6, 3825, 3850, 3865, 3862, 3841, 3874, 0, 1, 8902, -89.900, 0.000, -36.400, 0.000, 0.000, -3.000, 0.0, , , , , , 97, , , 65, 65, 65
38.7448530, -120.4088437, 11.100, 14:57:33.825, 11, 0.00, 0.08, 97, -1.500, 0.700, -35.900, 1710, 100, 100, 25, 23077, -21030, 5041, 5197, 13, 14, 1528408653.826, 8, 0, 1024, 1024, 1024, 1024, 0, 6, 3825, 3850, 3865, 3862, 3841, 3874, 0, 1, 9008, -89.900, 0.000, -36.400, 0.000, 0.000, -3.000, 0.0, , , , , , 97, , , 65, 65, 65
38.7448530, -120.4088437, 11.100, 14:57:33.918, 11, 0.00, 0.08, 97, -1.500, 0.700, -35.900, 1710, 100, 100, 25, 23077, -21030, 5041, 5197, 13, 14, 1528408653.919, 101, 0, 1024, 1024, 1024, 1024, 0, 6, 3825, 3850, 3865, 3862, 3841, 3874, 0, 1, 9102, -89.900, 0.000, -36.400, 0.000, 0.000, -3.000, 0.0, , , , , , 97, , , 65, 65, 65
38.7448531, -120.4088434, 11.500, 14:57:34.017, 11, 0.00, 0.08, 97, -1.800, 0.800, -35.900, 1710, 100, 100, 25, 23077, -21030, 5041, 5197, 13, 14, 1528408654.018, 33, 0, 1024, 1024, 1024, 1024, 0, 6, 3825, 3850, 3865, 3862, 3841, 3874, 0, 1, 9201, -89.900, 0.000, -36.400, 0.000, 0.000, -2.900, 0.0, , , , , , 97, , , 65, 65, 65
38.7448532, -120.4088432, 11.800, 14:57:34.118, 11, 0.00, 0.09, 97, -2.200, 0.800, -35.900, 1710, 100, 100, 25, 23077, -21030, 5041, 5197, 13, 14, 1528408654.118, 47, 0, 1024, 1024, 1024, 1024, 0, 6, 3825, 3850, 3865, 3862, 3841, 3874, 0, 1, 9301, -89.900, 0.000, -36.400, 0.000, 0.000, -2.900, 0.0, , , , , , 97, , , 65, 65, 65
38.7448532, -120.4088432, 11.800, 14:57:34.217, 11, 0.00, 0.09, 97, -2.200, 0.800, -35.900, 1710, 100, 100, 25, 23077, -21030, 5041, 5197, 13, 14, 1528408654.218, 147, 0, 1024, 1024, 1024, 1024, 0, 6, 3825, 3850, 3865, 3862, 3841, 3874, 0, 1, 9401, -89.900, 0.000, -36.400, 0.000, 0.000, -2.900, 0.0, , , , , , 97, , , 65, 65, 65
38.7448532, -120.4088432, 11.800, 14:57:34.318, 11, 0.00, 0.09, 97, -2.200, 0.800, -35.900, 1710, 100, 100, 25, 23077, -21030, 5041, 5197, 13, 14, 1528408654.319, 248, 0, 1024, 1024, 1024, 1024, 0, 6, 3825, 3850, 3865, 3862, 3841, 3874, 0, 1, 9501, -89.900, 0.000, -36.400, 0.000, 0.000, -2.900, 0.0, , , , , , 97, , , 65, 65, 65
38.7448533, -120.4088430, 12.700, 14:57:34.418, 11, 0.00, 0.10, 97, -1.800, 0.300, -35.900, 1710, 100, 100, 25, 23077, -21030, 5041, 5197, 13, 14, 1528408654.419, 73, 0, 1024, 1024, 1024, 1024, 0, 6, 3825, 3850, 3865, 3862, 3841, 3874, 0, 1, 9601, -90.000, 0.000, -36.400, 0.000, 0.000, -2.900, 0.0, , , , , , 97, , , 65, 65, 65
38.7448533, -120.4088430, 13.000, 14:57:34.518, 11, 0.00, 0.10, 97, -1.700, 0.300, -36.000, 1710, 100, 100, 25, 23077, -21030, 5041, 5197, 13, 14, 1528408654.519, 39, 0, 1024, 1024, 1024, 1024, 0, 6, 3825, 3850, 3865, 3862, 3841, 3874, 0, 1, 9701, -90.000, 0.000, -36.400, 0.000, 0.000, -2.900, 0.0, , , , , , 97, , , 65, 65, 65
38.7448533, -120.4088431, 13.300, 14:57:34.618, 11, 0.00, 0.10, 97, -1.500, 0.400, -35.900, 1710, 100, 100, 25, 23077, -21030, 5041, 5197, 13, 14, 1528408654.619, 63, 0, 1024, 1024, 1024, 1024, 0, 6, 3825, 3850, 3865, 3862, 3841, 3874, 0, 1, 9802, -89.900, 0.000, -36.400, 0.000, 0.000, -2.900, 0.0, , , , , , 97, , , 65, 65, 65
38.7448533, -120.4088431, 13.300, 14:57:34.718, 11, 0.00, 0.10, 97, -1.500, 0.400, -35.900, 1710, 100, 100, 25, 23077, -21030, 5041, 5197, 13, 14, 1528408654.719, 163, 0, 1024, 1024, 1024, 1024, 0, 6, 3825, 3850, 3865, 3862, 3841, 3874, 0, 1, 9901, -89.900, 0.000, -36.400, 0.000, 0.000, -2.900, 0.0, , , , , , 97, , , 65, 65, 65
38.7448533, -120.4088432, 14.000, 14:57:34.825, 12, 0.00, 0.09, 97, -1.000, 0.600, -35.800, 1710, 100, 100, 25, 23215, -18593, 5041, 5197, 13, 14, 1528408654.825, 17, 0, 1024, 1024, 1024, 1024, 0, 6, 3825, 3850, 3865, 3862, 3841, 3874, 0, 1, 10008, -89.900, 0.000, -36.400, 0.000, 0.000, -2.900, 0.0, , , , , , 97, , , 65, 65, 65
38.7448532, -120.4088433, 14.300, 14:57:34.918, 12, 0.00, 0.09, 97, -0.900, 0.600, -35.700, 1710, 100, 100, 25, 23215, -18593, 5041, 5197, 13, 14, 1528408654.919, 22, 0, 1024, 1024, 1024, 1024, 0, 6, 3825, 3850, 3865, 3862, 3841, 3874, 0, 1, 10101, -90.000, 0.000, -36.400, 0.000, 0.000, -2.900, 0.0, , , , , , 97, , , 65, 65, 65
38.7448532, -120.4088433, 14.300, 14:57:35.018, 12, 0.00, 0.09, 97, -0.900, 0.600, -35.700, 1710, 100, 100, 25, 23215, -18593, 5041, 5197, 13, 14, 1528408655.019, 122, 0, 1024, 1024, 1024, 1024, 0, 6, 3825, 3850, 3865, 3862, 3841, 3874, 0, 1, 10201, -90.000, 0.000, -36.400, 0.000, 0.000, -2.900, 0.0, , , , , , 97, , , 65, 65, 65
38.7448533, -120.4088435, 14.900, 14:57:35.118, 12, 0.10, 0.10, 97, -0.700, 0.700, -35.700, 1710, 100, 100, 25, 23215, -18593, 5041, 5197, 13, 14, 1528408655.121, 35, 0, 1024, 1024, 1024, 1024, 0, 6, 3855, 3874, 3878, 3876, 3854, 3891, 0, 1, 10304, -89.900, 0.000, -36.400, 0.000, -0.100, -2.800, 0.0, , , , , , 97, , , 65, 65, 65
38.7448533, -120.4088435, 14.900, 14:57:35.218, 12, 0.10, 0.10, 97, -0.700, 0.700, -35.700, 1710, 100, 100, 25, 23215, -18593, 5041, 5197, 13, 14, 1528408655.219, 133, 0, 1024, 1024, 1024, 1024, 0, 6, 3855, 3874, 3878, 3876, 3854, 3891, 0, 1, 10401, -89.900, 0.000, -36.400, 0.000, -0.100, -2.800, 0.0, , , , , , 97, , , 65, 65, 65
38.7448532, -120.4088435, 15.200, 14:57:35.318, 13, 0.10, 0.10, 97, -0.600, 0.900, -35.800, 1710, 100, 100, 25, 23215, -18593, 5041, 5197, 13, 14, 1528408655.319, 92, 0, 1024, 1024, 1024, 1024, 0, 6, 3855, 3874, 3878, 3876, 3854, 3891, 0, 1, 10501, -89.900, 0.000, -36.400, 0.000, -0.100, -2.800, 0.0, , , , , , 97, , , 65, 65, 65
38.7448532, -120.4088436, 15.400, 14:57:35.418, 13, 0.00, 0.09, 97, -0.500, 0.900, -35.800, 1710, 100, 100, 25, 23243, -18191, 5041, 5197, 13, 14, 1528408655.419, 68, 0, 1024, 1024, 1024, 1024, 0, 6, 3855, 3874, 3878, 3876, 3854, 3891, 0, 1, 10601, -89.900, 0.000, -36.400, 0.000, 0.000, -2.800, 0.0, , , , , , 97, , , 65, 65, 65
38.7448532, -120.4088437, 15.700, 14:57:35.518, 13, 0.00, 0.10, 97, -0.400, 0.900, -35.800, 1710, 100, 98, 25, 23243, -18191, 5041, 5197, 13, 14, 1528408655.518, 13, 0, 1024, 1024, 1024, 1024, 0, 6, 3855, 3874, 3878, 3876, 3854, 3891, 0, 1, 10701, -89.900, 0.000, -36.400, 0.000, 0.000, -2.800, 0.0, , , , , , 97, , , 65, 65, 65
38.7448531, -120.4088439, 16.300, 14:57:35.618, 12, 0.00, 0.10, 97, -0.500, 0.900, -35.800, 1710, 100, 98, 25, 23243, -18191, 5041, 5197, 13, 14, 1528408655.619, 43, 0, 1024, 1024, 1024, 1024, 0, 6, 3855, 3874, 3878, 3876, 3854, 3891, 0, 1, 10801, -90.000, 0.000, -36.400, 0.000, 0.000, -2.800, 0.0, , , , , , 97, , , 65, 65, 65
38.7448529, -120.4088440, 16.600, 14:57:35.718, 12, 0.00, 0.09, 97, -0.500, 0.700, -35.800, 1710, 100, 98, 25, 23243, -18191, 5041, 5197, 13, 14, 1528408655.719, 46, 0, 1024, 1024, 1024, 1024, 0, 6, 3868, 3879, 3886, 3866, 3856, 3879, 0, 1, 10902, -90.000, 0.000, -36.400, 0.000, 0.000, -2.800, 0.0, , , , , , 97, , , 65, 65, 65
38.7448529, -120.4088440, 16.600, 14:57:35.818, 12, 0.00, 0.09, 97, -0.500, 0.700, -35.800, 1710, 100, 98, 25, 23243, -18191, 5041, 5197, 13, 14, 1528408655.819, 146, 0, 1024, 1024, 1024, 1024, 0, 6, 3868, 3879, 3886, 3866, 3856, 3879, 0, 1, 11002, -90.000, 0.000, -36.400, 0.000, 0.000, -2.800, 0.0, , , , , , 97, , , 65, 65, 65
38.7448528, -120.4088440, 17.200, 14:57:35.918, 12, 0.00, 0.09, 97, -0.400, 0.400, -35.900, 1710, 100, 98, 25, 23243, -18191, 5041, 5197, 13, 14, 1528408655.919, 79, 0, 1024, 1024, 1024, 1024, 0, 6, 3868, 3879, 3886, 3866, 3856, 3879, 0, 1, 11101, -90.000, 0.000, -36.400, 0.000, 0.000, -2.900, 0.0, , , , , , 97, , , 65, 65, 65
38.7448527, -120.4088441, 17.500, 14:57:36.018, 12, 0.00, 0.09, 97, -0.400, 0.300, -35.900, 1710, 100, 98, 25, 23243, -18191, 5041, 5197, 13, 14, 1528408656.019, 78, 0, 1024, 1024, 1024, 1024, 0, 6, 3868, 3879, 3886, 3866, 3856, 3879, 0, 1, 11201, -90.000, 0.000, -36.400, 0.000, 0.000, -2.900, 0.0, , , , , , 97, , , 65, 65, 65
38.7448527, -120.4088443, 17.800, 14:57:36.118, 12, 0.00, 0.10, 97, -0.300, 0.400, -35.900, 1710, 100, 98, 25, 23243, -18191, 5041, 5197, 13, 14, 1528408656.119, 53, 0, 1024, 1024, 1024, 1024, 0, 6, 3868, 3879, 3886, 3866, 3856, 3879, 0, 1, 11301, -90.000, 0.000, -36.400, 0.000, 0.000, -2.900, 0.0, , , , , , 97, , , 65, 65, 65
38.7448527, -120.4088443, 17.800, 14:57:36.218, 12, 0.00, 0.10, 97, -0.300, 0.400, -35.900, 1710, 100, 98, 25, 23243, -18191, 5041, 5197, 13, 14, 1528408656.219, 153, 0, 1024, 1024, 1024, 1024, 0, 6, 3868, 3879, 3886, 3866, 3856, 3879, 0, 1, 11402, -90.000, 0.000, -36.400, 0.000, 0.000, -2.900, 0.0, , , , , , 97, , , 65, 65, 65
38.7448527, -120.4088443, 17.800, 14:57:36.318, 12, 0.00, 0.10, 97, -0.300, 0.400, -35.900, 1710, 100, 98, 25, 23243, -18191, 5041, 5197, 13, 14, 1528408656.319, 253, 0, 1024, 1024, 1024, 1024, 0, 6, 3868, 3879, 3886, 3866, 3856, 3879, 0, 1, 11501, -90.000, 0.000, -36.400, 0.000, 0.000, -2.900, 0.0, , , , , , 97, , , 65, 65, 65
38.7448528, -120.4088444, 18.500, 14:57:36.418, 12, 0.00, 0.11, 97, -0.300, 0.600, -35.900, 1710, 100, 97, 25, 23243, -18191, 5041, 5197, 13, 14, 1528408656.419, 60, 0, 1024, 1024, 1024, 1024, 0, 6, 3868, 3879, 3886, 3866, 3856, 3879, 0, 1, 11601, -89.900, 0.000, -36.400, 0.000, 0.000, -2.900, 0.0, , , , , , 97, , , 65, 65, 65
38.7448527, -120.4088445, 18.700, 14:57:36.518, 13, 0.00, 0.12, 97, -0.600, 0.800, -35.800, 1710, 100, 97, 25, 23243, -18191, 5041, 5197, 13, 14, 1528408656.519, 38, 0, 1024, 1024, 1024, 1024, 0, 6, 3868, 3879, 3886, 3866, 3856, 3879, 0, 1, 11701, -89.900, 0.000, -36.400, 0.000, 0.000, -2.800, 0.0, , , , , , 97, , , 65, 65, 65
38.7448527, -120.4088447, 19.300, 14:57:36.618, 12, 0.00, 0.14, 97, -0.500, 0.900, -35.700, 1710, 100, 97, 25, 23243, -18191, 5041, 5197, 13, 14, 1528408656.619, 59, 0, 1024, 1024, 1024, 1024, 0, 6, 3868, 3879, 3886, 3866, 3856, 3879, 0, 1, 11801, -89.900, 0.000, -36.400, 0.000, 0.000, -2.800, 0.0, , , , , , 97, , , 65, 65, 65
38.7448527, -120.4088447, 19.300, 14:57:36.718, 12, 0.00, 0.14, 97, -0.500, 0.900, -35.700, 1710, 100, 97, 25, 23243, -18191, 5041, 5197, 13, 14, 1528408656.719, 160, 0, 1024, 1024, 1024, 1024, 0, 6, 3868, 3879, 3886, 3866, 3856, 3879, 0, 1, 11902, -89.900, 0.000, -36.400, 0.000, 0.000, -2.800, 0.0, , , , , , 97, , , 65, 65, 65
38.7448527, -120.4088448, 19.900, 14:57:36.821, 12, 0.00, 0.14, 97, -0.900, 0.800, -35.500, 1710, 100, 98, 25, 23215, -17938, 5041, 5197, 13, 14, 1528408656.825, 65, 0, 1024, 1024, 1024, 1024, 0, 6, 3868, 3879, 3886, 3866, 3856, 3879, 0, 1, 12007, -90.000, 0.000, -36.400, 0.000, 0.000, -2.800, 0.0, , , , , , 97, , , 65, 65, 65
38.7448526, -120.4088449, 20.200, 14:57:36.918, 12, 0.00, 0.15, 97, -0.900, 0.800, -35.400, 1710, 100, 98, 25, 23215, -17938, 5041, 5197, 13, 14, 1528408656.919, 75, 0, 1024, 1024, 1024, 1024, 0, 6, 3857, 3873, 3877, 3874, 3845, 3878, 0, 1, 12101, -89.900, 0.000, -36.400, 0.000, 0.000, -2.800, 0.0, , , , , , 97, , , 65, 65, 65
38.7448526, -120.4088452, 20.700, 14:57:37.018, 12, 0.00, 0.18, 97, -0.200, 1.100, -35.300, 1710, 100, 98, 25, 23215, -17938, 5041, 5197, 13, 14, 1528408657.019, 93, 0, 1024, 1024, 1024, 1024, 0, 6, 3857, 3873, 3877, 3874, 3845, 3878, 0, 1, 12202, -89.900, 0.000, -36.400, 0.000, 0.000, -2.800, 0.0, , , , , , 97, , , 65, 65, 65
38.7448526, -120.4088452, 20.700, 14:57:37.118, 12, 0.00, 0.18, 97, -0.200, 1.100, -35.300, 1710, 100, 98, 25, 23215, -17938, 5041, 5197, 13, 14, 1528408657.119, 192, 0, 1024, 1024, 1024, 1024, 0, 6, 3857, 3873, 3877, 3874, 3845, 3878, 0, 1, 12301, -89.900, 0.000, -36.400, 0.000, 0.000, -2.800, 0.0, , , , , , 97, , , 65, 65, 65
38.7448526, -120.4088452, 21.000, 14:57:37.235, 12, 0.00, 0.18, 97, 0.000, 1.400, -35.400, 1710, 100, 98, 25, 23215, -17938, 5041, 5197, 13, 14, 1528408657.236, 10, 0, 1024, 1024, 1024, 1024, 0, 6, 3857, 3873, 3877, 3874, 3845, 3878, 0, 1, 12418, -89.900, 0.000, -36.400, 0.000, 0.000, -2.900, 0.0, , , , , , 97, , , 65, 65, 65
38.7448526, -120.4088452, 21.000, 14:57:37.318, 12, 0.00, 0.18, 97, 0.000, 1.400, -35.400, 1710, 100, 98, 25, 23215, -17938, 5041, 5197, 13, 14, 1528408657.319, 93, 0, 1024, 1024, 1024, 1024, 0, 6, 3857, 3873, 3877, 3874, 3845, 3878, 0, 1, 12501, -89.900, 0.000, -36.400, 0.000, 0.000, -2.900, 0.0, , , , , , 97, , , 65, 65, 65
38.7448526, -120.4088453, 21.300, 14:57:37.418, 12, 0.00, 0.18, 97, -0.100, 1.400, -35.500, 1710, 100, 98, 25, 23215, -17938, 5041, 5197, 13, 14, 1528408657.419, 20, 0, 1024, 1024, 1024, 1024, 0, 6, 3857, 3873, 3877, 3874, 3845, 3878, 0, 1, 12601, -89.900, 0.000, -36.400, 0.000, 0.000, -2.900, 0.0, , , , , , 97, , , 65, 65, 65
38.7448526, -120.4088453, 21.300, 14:57:37.518, 12, 0.00, 0.18, 97, -0.100, 1.400, -35.500, 1710, 100, 98, 25, 23215, -17938, 5041, 5197, 13, 14, 1528408657.519, 120, 0, 1024, 1024, 1024, 1024, 0, 6, 3857, 3873, 3877, 3874, 3845, 3878, 0, 1, 12702, -89.900, 0.000, -36.400, 0.000, 0.000, -2.900, 0.0, , , , , , 97, , , 65, 65, 65
38.7448526, -120.4088453, 21.900, 14:57:37.626, 12, 0.00, 0.19, 97, -0.600, 1.100, -35.900, 1710, 100, 98, 25, 23215, -17938, 5041, 5197, 13, 14, 1528408657.626, 11, 0, 1024, 1024, 1024, 1024, 0, 6, 3857, 3873, 3877, 3874, 3845, 3878, 0, 1, 12809, -89.900, 0.000, -36.400, 0.000, 0.000, -2.900, 0.0, , , , , , 97, , , 65, 65, 65
38.7448526, -120.4088453, 21.900, 14:57:37.718, 12, 0.00, 0.19, 97, -0.600, 1.100, -35.900, 1710, 100, 98, 25, 23215, -17938, 5041, 5197, 13, 14, 1528408657.718, 102, 0, 1024, 1024, 1024, 1024, 0, 6, 3857, 3873, 3877, 3874, 3845, 3878, 0, 1, 12901, -89.900, 0.000, -36.400, 0.000, 0.000, -2.900, 0.0, , , , , , 97, , , 65, 65, 65
38.7448526, -120.4088453, 21.900, 14:57:37.818, 12, 0.00, 0.19, 97, -0.600, 1.100, -35.900, 1710, 100, 98, 25, 23215, -17938, 5041, 5197, 13, 14, 1528408657.818, 202, 0, 1024, 1024, 1024, 1024, 0, 6, 3857, 3873, 3877, 3874, 3845, 3878, 0, 1, 13001, -89.900, 0.000, -36.400, 0.000, 0.000, -2.900, 0.0, , , , , , 97, , , 65, 65, 65
38.7448526, -120.4088453, 21.900, 14:57:37.918, 12, 0.00, 0.19, 97, -0.600, 1.100, -35.900, 1710, 100, 98, 25, 23215, -17938, 5041, 5197, 13, 14, 1528408657.919, 303, 0, 1024, 1024, 1024, 1024, 0, 6, 3857, 3873, 3877, 3874, 3845, 3878, 0, 1, 13101, -89.900, 0.000, -36.400, 0.000, 0.000, -2.900, 0.0, , , , , , 97, , , 65, 65, 65
38.7448526, -120.4088453, 21.900, 14:57:38.018, 12, 0.00, 0.19, 97, -0.600, 1.100, -35.900, 1710, 100, 98, 25, 23215, -17938, 5041, 5197, 13, 14, 1528408658.019, 404, 0, 1024, 1024, 1024, 1024, 0, 6, 3857, 3873, 3877, 3874, 3845, 3878, 0, 1, 13202, -89.900, 0.000, -36.400, 0.000, 0.000, -2.900, 0.0, , , , , , 97, , , 65, 65, 65
38.7448526, -120.4088453, 21.900, 14:57:38.118, 12, 0.00, 0.19, 97, -0.600, 1.100, -35.900, 1710, 100, 98, 25, 23215, -17938, 5041, 5197, 13, 14, 1528408658.119, 503, 0, 1024, 1024, 1024, 1024, 0, 6, 3857, 3873, 3877, 3874, 3845, 3878, 0, 1, 13301, -89.900, 0.000, -36.400, 0.000, 0.000, -2.900, 0.0, , , , , , 97, , , 65, 65, 65
38.7448525, -120.4088454, 23.700, 14:57:38.218, 12, 0.00, 0.19, 97, -0.200, 1.300, -35.900, 1710, 100, 98, 25, 23215, -17938, 5041, 5197, 13, 14, 1528408658.219, 42, 0, 1024, 1024, 1024, 1024, 0, 6, 3857, 3873, 3877, 3874, 3845, 3878, 0, 1, 13402, -89.900, 0.000, -36.400, 0.000, 0.000, -3.000, 0.0, , , , , , 97, , , 65, 65, 65
38.7448525, -120.4088454, 24.000, 14:57:38.318, 14, 0.00, 0.20, 97, -0.400, 1.000, -35.700, 1710, 100, 98, 25, 23195, -18130, 5041, 5197, 13, 14, 1528408658.320, 20, 0, 1024, 1024, 1024, 1024, 0, 6, 3851, 3866, 3866, 3868, 3851, 3873, 0, 1, 13503, -89.900, 0.000, -36.400, 0.000, 0.000, -2.900, 0.0, , , , , , 97, , , 65, 65, 65
38.7448525, -120.4088454, 24.000, 14:57:38.419, 14, 0.00, 0.20, 97, -0.400, 1.000, -35.700, 1710, 100, 98, 25, 23195, -18130, 5041, 5197, 13, 14, 1528408658.420, 120, 0, 1024, 1024, 1024, 1024, 0, 6, 3851, 3866, 3866, 3868, 3851, 3873, 0, 1, 13603, -90.000, 0.000, -36.400, 0.000, 0.000, -2.900, 0.0, , , , , , 97, , , 65, 65, 65
38.7448524, -120.4088455, 24.600, 14:57:38.525, 13, 0.00, 0.20, 97, -0.500, 0.700, -35.500, 1710, 100, 93, 25, 23195, -18130, 5041, 5197, 13, 14, 1528408658.527, 7, 0, 1024, 1024, 1024, 1024, 0, 6, 3851, 3866, 3866, 3868, 3851, 3873, 0, 1, 13709, -90.000, 0.000, -36.400, 0.000, 0.000, -2.900, 0.0, , , , , , 97, , , 65, 65, 65
38.7448522, -120.4088455, 25.200, 14:57:38.618, 13, 0.00, 0.20, 97, 0.200, 0.600, -35.900, 1710, 100, 93, 25, 23195, -18130, 5041, 5197, 13, 14, 1528408658.618, 11, 0, 1024, 1024, 1024, 1024, 0, 6, 3851, 3866, 3866, 3868, 3851, 3873, 0, 1, 13801, -90.000, 0.000, -36.400, 0.000, 0.000, -2.800, 0.0, , , , , , 97, , , 65, 65, 65
38.7448521, -120.4088455, 25.500, 14:57:38.718, 13, 0.00, 0.20, 97, 0.200, 0.500, -36.000, 1710, 100, 93, 25, 23092, -18944, 4989, 5197, 13, 14, 1528408658.720, 17, 0, 1024, 1024, 1024, 1024, 0, 6, 3851, 3866, 3866, 3868, 3851, 3873, 0, 1, 13902, -90.000, 0.000, -36.400, 0.000, 0.000, -2.800, 0.0, , , , , , 97, , , 65, 65, 65
38.7448521, -120.4088455, 25.500, 14:57:38.818, 13, 0.00, 0.20, 97, 0.200, 0.500, -36.000, 1710, 100, 93, 25, 23092, -18944, 4989, 5197, 13, 14, 1528408658.819, 116, 0, 1024, 1024, 1024, 1024, 0, 6, 3842, 3858, 3867, 3850, 3836, 3861, 0, 1, 14001, -90.000, 0.000, -36.400, 0.000, 0.000, -2.800, 0.0, , , , , , 97, , , 65, 65, 65
38.7448520, -120.4088455, 26.100, 14:57:38.919, 13, 0.00, 0.21, 97, 0.100, 0.400, -36.100, 1710, 100, 90, 25, 23092, -18944, 4989, 5197, 13, 14, 1528408658.920, 6, 0, 1024, 1024, 1024, 1024, 0, 6, 3842, 3858, 3867, 3850, 3836, 3861, 0, 1, 14103, -90.000, 0.000, -36.400, 0.000, 0.000, -2.900, 0.0, , , , , , 97, , , 65, 65, 65
38.7448520, -120.4088455, 26.400, 14:57:39.018, 14, 0.00, 0.21, 97, 0.000, 0.500, -36.100, 1710, 100, 90, 25, 23092, -18944, 4989, 5197, 13, 14, 1528408659.019, 38, 0, 1024, 1024, 1024, 1024, 0, 6, 3842, 3858, 3867, 3850, 3836, 3861, 0, 1, 14202, -90.000, 0.000, -36.400, 0.000, 0.000, -2.900, 0.0, , , , , , 97, , , 65, 65, 65
38.7448520, -120.4088455, 26.400, 14:57:39.118, 14, 0.00, 0.21, 97, 0.000, 0.500, -36.100, 1710, 100, 90, 25, 23092, -18944, 4989, 5197, 13, 14, 1528408659.119, 138, 0, 1024, 1024, 1024, 1024, 0, 6, 3842, 3858, 3867, 3850, 3836, 3861, 0, 1, 14301, -90.000, 0.000, -36.400, 0.000, 0.000, -2.900, 0.0, , , , , , 97, , , 65, 65, 65
38.7448520, -120.4088455, 26.400, 14:57:39.217, 14, 0.00, 0.21, 97, 0.000, 0.500, -36.100, 1710, 100, 90, 25, 23092, -18944, 4989, 5197, 13, 14, 1528408659.218, 237, 0, 1024, 1024, 1024, 1024, 0, 6, 3842, 3858, 3867, 3850, 3836, 3861, 0, 1, 14400, -90.000, 0.000, -36.400, 0.000, 0.000, -2.900, 0.0, , , , , , 97, , , 65, 65, 65
38.7448519, -120.4088454, 27.000, 14:57:39.318, 14, 0.00, 0.20, 97, -0.300, 0.500, -36.100, 1710, 100, 90, 25, 23092, -18944, 4989, 5197, 13, 14, 1528408659.319, 77, 0, 1024, 1024, 1024, 1024, 0, 6, 3842, 3858, 3867, 3850, 3836, 3861, 0, 1, 14501, -90.000, 0.000, -36.400, 0.000, 0.000, -2.900, 0.0, , , , , , 97, , , 65, 65, 65
38.7448518, -120.4088454, 27.300, 14:57:39.418, 14, 0.00, 0.20, 97, -0.300, 0.500, -36.100, 1710, 100, 91, 25, 23092, -18944, 4989, 5197, 13, 14, 1528408659.419, 56, 0, 1024, 1024, 1024, 1024, 0, 6, 3842, 3858, 3867, 3850, 3836, 3861, 0, 1, 14602, -90.000, 0.000, -36.400, 0.000, 0.000, -2.900, 0.0, , , , , , 97, , , 65, 65, 65
38.7448518, -120.4088453, 27.600, 14:57:39.518, 13, 0.00, 0.20, 97, -0.500, 0.500, -36.000, 1710, 100, 91, 25, 23092, -18944, 4989, 5197, 13, 14, 1528408659.519, 77, 0, 1024, 1024, 1024, 1024, 0, 6, 3842, 3858, 3867, 3850, 3836, 3861, 0, 1, 14702, -90.000, 0.000, -36.400, 0.000, 0.000, -3.000, 0.0, , , , , , 97, , , 65, 65, 65
38.7448518, -120.4088452, 28.200, 14:57:39.624, 15, 0.00, 0.19, 97, -0.900, 0.500, -36.000, 1710, 100, 91, 25, 23092, -18944, 4989, 5197, 13, 14, 1528408659.625, 15, 0, 1024, 1024, 1024, 1024, 0, 6, 3842, 3858, 3867, 3850, 3836, 3861, 0, 1, 14807, -90.000, 0.000, -36.400, 0.000, 0.000, -3.000, 0.0, , , , , , 97, , , 65, 65, 65
38.7448518, -120.4088452, 28.500, 14:57:39.724, 15, 0.00, 0.19, 97, -0.900, 0.600, -36.000, 1710, 100, 91, 25, 23092, -18944, 4989, 5197, 13, 14, 1528408659.725, 11, 0, 1024, 1024, 1024, 1024, 0, 6, 3842, 3858, 3867, 3850, 3836, 3861, 0, 1, 14907, -90.000, 0.000, -36.400, 0.000, 0.000, -2.900, 0.0, , , , , , 97, , , 65, 65, 65
38.7448518, -120.4088452, 28.500, 14:57:39.818, 15, 0.00, 0.19, 97, -0.900, 0.600, -36.000, 1710, 100, 91, 25, 23102, -18586, 4989, 5197, 13, 14, 1528408659.819, 105, 0, 1024, 1024, 1024, 1024, 0, 6, 3842, 3858, 3867, 3850, 3836, 3861, 0, 1, 15001, -90.000, 0.000, -36.400, 0.000, 0.000, -2.900, 0.0, , , , , , 97, , , 65, 65, 65
38.7448518, -120.4088452, 28.800, 14:57:39.918, 15, 0.00, 0.19, 97, -0.800, 0.600, -36.000, 1710, 100, 97, 25, 23102, -18586, 4989, 5197, 13, 14, 1528408659.919, 63, 0, 1024, 1024, 1024, 1024, 0, 6, 3831, 3848, 3857, 3851, 3828, 3854, 0, 1, 15101, -90.000, 0.000, -36.400, 0.000, 0.000, -2.900, 0.0, , , , , , 97, , , 65, 65, 65
38.7448518, -120.4088452, 29.100, 14:57:40.018, 15, 0.00, 0.19, 97, -0.600, 0.600, -36.000, 1710, 100, 97, 25, 23102, -18586, 4989, 5197, 13, 14, 1528408660.020, 60, 0, 1024, 1024, 1024, 1024, 0, 6, 3831, 3848, 3857, 3851, 3828, 3854, 0, 1, 15202, -90.000, 0.000, -36.400, 0.000, 0.000, -2.900, 0.0, , , , , , 97, , , 65, 65, 65
38.7448518, -120.4088452, 29.100, 14:57:40.122, 15, 0.00, 0.19, 97, -0.600, 0.600, -36.000, 1710, 100, 97, 25, 23102, -18586, 4989, 5197, 13, 14, 1528408660.124, 164, 0, 1024, 1024, 1024, 1024, 0, 6, 3831, 3848, 3857, 3851, 3828, 3854, 0, 1, 15306, -90.000, 0.000, -36.400, 0.000, 0.000, -2.900, 0.0, , , , , , 97, , , 65, 65, 65
38.7448518, -120.4088452, 29.100, 14:57:40.218, 15, 0.00, 0.19, 97, -0.600, 0.600, -36.000, 1710, 100, 97, 25, 23102, -18586, 4989, 5197, 13, 14, 1528408660.219, 260, 0, 1024, 1024, 1024, 1024, 0, 6, 3831, 3848, 3857, 3851, 3828, 3854, 0, 1, 15402, -90.000, 0.000, -36.400, 0.000, 0.000, -2.900, 0.0, , , , , , 97, , , 65, 65, 65
38.7448517, -120.4088452, 29.700, 14:57:40.318, 15, 0.00, 0.19, 97, -0.400, 0.400, -35.900, 1710, 100, 97, 25, 23102, -18586, 4989, 5197, 13, 14, 1528408660.319, 57, 0, 1024, 1024, 1024, 1024, 0, 6, 3831, 3848, 3857, 3851, 3828, 3854, 0, 1, 15501, -90.000, 0.000, -36.400, 0.000, 0.000, -2.900, 0.0, , , , , , 97, , , 65, 65, 65
38.7448517, -120.4088452, 29.700, 14:57:40.418, 15, 0.00, 0.19, 97, -0.400, 0.400, -35.900, 1710, 100, 97, 25, 23102, -18586, 4989, 5197, 13, 14, 1528408660.419, 158, 0, 1024, 1024, 1024, 1024, 0, 6, 3831, 3848, 3857, 3851, 3828, 3854, 0, 1, 15602, -90.000, 0.000, -36.400, 0.000, 0.000, -2.900, 0.0, , , , , , 97, , , 65, 65, 65
38.7448516, -120.4088450, 30.300, 14:57:40.518, 15, 0.00, 0.18, 97, -0.500, 0.300, -36.000, 1710, 100, 98, 25, 23102, -18586, 4989, 5197, 13, 14, 1528408660.519, 90, 0, 1024, 1024, 1024, 1024, 0, 6, 3831, 3848, 3857, 3851, 3828, 3854, 0, 1, 15702, -90.000, 0.000, -36.400, 0.000, 0.000, -2.900, 0.0, , , , , , 97, , , 65, 65, 65
38.7448516, -120.4088450, 30.300, 14:57:40.618, 15, 0.00, 0.18, 97, -0.500, 0.300, -36.000, 1710, 100, 98, 25, 23102, -18586, 4989, 5197, 13, 14, 1528408660.619, 190, 0, 1024, 1024, 1024, 1024, 0, 6, 3831, 3848, 3857, 3851, 3828, 3854, 0, 1, 15801, -90.000, 0.000, -36.400, 0.000, 0.000, -2.900, 0.0, , , , , , 97, , , 65, 65, 65
38.7448515, -120.4088448, 31.200, 14:57:40.746, 15, 0.00, 0.18, 97, -0.700, 0.200, -35.800, 1710, 100, 98, 25, 23102, -18586, 4989, 5197, 13, 14, 1528408660.747, 12, 0, 1024, 1024, 1024, 1024, 0, 6, 3831, 3848, 3857, 3851, 3828, 3854, 0, 1, 15930, -90.000, 0.000, -36.400, 0.000, 0.000, -2.900, 0.0, , , , , , 97, , , 65, 65, 65
38.7448515, -120.4088448, 31.200, 14:57:40.817, 15, 0.00, 0.18, 97, -0.700, 0.200, -35.800, 1710, 100, 98, 25, 23102, -18586, 4989, 5197, 13, 14, 1528408660.818, 82, 0, 1024, 1024, 1024, 1024, 0, 6, 3831, 3848, 3857, 3851, 3828, 3854, 0, 1, 16001, -90.000, 0.000, -36.400, 0.000, 0.000, -2.900, 0.0, , , , , , 97, , , 65, 65, 65
38.7448515, -120.4088448, 31.200, 14:57:40.918, 15, 0.00, 0.18, 97, -0.700, 0.200, -35.800, 1710, 100, 98, 25, 23102, -18586, 4989, 5197, 13, 14, 1528408660.919, 184, 0, 1024, 1024, 1024, 1024, 0, 6, 3831, 3848, 3857, 3851, 3828, 3854, 0, 1, 16102, -90.000, 0.000, -36.400, 0.000, 0.000, -2.900, 0.0, , , , , , 97, , , 65, 65, 65
38.7448515, -120.4088448, 31.800, 14:57:41.018, 15, 0.00, 0.17, 96, -0.600, 0.100, -35.600, 1710, 100, 99, 26, 23073, -18347, 4989, 5197, 13, 14, 1528408661.019, 57, 0, 1024, 1024, 1024, 1024, 0, 6, 3831, 3848, 3857, 3851, 3828, 3854, 0, 1, 16201, -90.000, 0.000, -36.400, 0.000, 0.000, -2.900, 0.0, , , , , , 97, , , 65, 65, 65
38.7448515, -120.4088448, 32.100, 14:57:41.118, 15, 0.00, 0.17, 96, -0.500, 0.300, -35.600, 1710, 100, 99, 26, 23073, -18347, 4989, 5197, 13, 14, 1528408661.119, 46, 0, 1024, 1024, 1024, 1024, 0, 6, 3831, 3848, 3857, 3851, 3828, 3854, 0, 1, 16301, -90.000, 0.000, -36.400, 0.000, 0.000, -2.900, 0.0, , , , , , 97, , , 65, 65, 65
38.7448515, -120.4088448, 32.100, 14:57:41.222, 15, 0.00, 0.17, 96, -0.500, 0.300, -35.600, 1710, 100, 99, 26, 23073, -18347, 4989, 5197, 13, 14, 1528408661.222, 150, 0, 1024, 1024, 1024, 1024, 0, 6, 3831, 3848, 3857, 3851, 3828, 3854, 0, 1, 16405, -90.000, 0.000, -36.400, 0.000, 0.000, -2.900, 0.0, , , , , , 97, , , 65, 65, 65
38.7448515, -120.4088447, 32.700, 14:57:41.318, 15, 0.00, 0.16, 96, -0.700, 0.500, -35.600, 1710, 100, 99, 26, 23073, -18347, 4989, 5197, 13, 14, 1528408661.319, 92, 0, 1024, 1024, 1024, 1024, 0, 6, 3831, 3848, 3857, 3851, 3828, 3854, 0, 1, 16502, -90.000, 0.000, -36.400, 0.000, 0.000, -2.900, 0.0, , , , , , 97, , , 65, 65, 65
38.7448515, -120.4088447, 33.000, 14:57:41.418, 15, 0.00, 0.17, 96, -0.700, 0.400, -35.600, 1710, 100, 99, 26, 23073, -18347, 4989, 5197, 13, 14, 1528408661.419, 88, 0, 1024, 1024, 1024, 1024, 0, 6, 3831, 3848, 3857, 3851, 3828, 3854, 0, 1, 16602, -90.000, 0.000, -36.400, 0.000, 0.000, -2.900, 0.0, , , , , , 97, , , 65, 65, 65
38.7448515, -120.4088447, 33.000, 14:57:41.518, 15, 0.00, 0.17, 96, -0.700, 0.400, -35.600, 1710, 100, 99, 26, 23073, -18347, 4989, 5197, 13, 14, 1528408661.519, 188, 0, 1024, 1024, 1024, 1024, 0, 6, 3834, 3854, 3859, 3848, 3839, 3853, 0, 1, 16702, -90.000, 0.000, -36.400, 0.000, 0.000, -2.900, 0.0, , , , , , 97, , , 65, 65, 65
38.7448515, -120.4088447, 33.000, 14:57:41.618, 15, 0.00, 0.17, 96, -0.700, 0.400, -35.600, 1710, 100, 99, 26, 23073, -18347, 4989, 5197, 13, 14, 1528408661.619, 288, 0, 1024, 1024, 1024, 1024, 0, 6, 3834, 3854, 3859, 3848, 3839, 3853, 0, 1, 16801, -90.000, 0.000, -36.400, 0.000, 0.000, -2.900, 0.0, , , , , , 97, , , 65, 65, 65
38.7448515, -120.4088447, 33.000, 14:57:41.718, 15, 0.00, 0.17, 96, -0.700, 0.400, -35.600, 1710, 100, 99, 26, 23073, -18347, 4989, 5197, 13, 14, 1528408661.719, 387, 0, 1024, 1024, 1024, 1024, 0, 6, 3834, 3854, 3859, 3848, 3839, 3853, 0, 1, 16901, -90.000, 0.000, -36.400, 0.000, 0.000, -2.900, 0.0, , , , , , 97, , , 65, 65, 65
38.7448515, -120.4088446, 34.800, 14:57:41.818, 15, 0.00, 0.16, 96, -0.700, 0.500, -35.900, 1710, 100, 97, 26, 23073, -18347, 4989, 5197, 13, 14, 1528408661.819, 94, 0, 1024, 1024, 1024, 1024, 0, 6, 3834, 3854, 3859, 3848, 3839, 3853, 0, 1, 17001, -90.000, 0.000, -36.400, 0.000, 0.000, -2.900, 0.0, , , , , , 97, , , 65, 65, 65
38.7448515, -120.4088446, 35.100, 14:57:41.918, 15, 0.00, 0.16, 96, -0.800, 0.500, -35.800, 1710, 100, 97, 26, 23073, -18347, 4989, 5197, 13, 14, 1528408661.919, 32, 0, 1024, 1024, 1024, 1024, 0, 6, 3834, 3854, 3859, 3848, 3839, 3853, 0, 1, 17102, -90.000, 0.000, -36.400, 0.000, 0.000, -2.900, 0.0, , , , , , 97, , , 65, 65, 65
38.7448515, -120.4088446, 35.100, 14:57:42.018, 15, 0.00, 0.16, 96, -0.800, 0.500, -35.800, 1710, 100, 97, 26, 23073, -18347, 4989, 5197, 13, 14, 1528408662.019, 131, 0, 1024, 1024, 1024, 1024, 0, 6, 3834, 3854, 3859, 3848, 3839, 3853, 0, 1, 17201, -90.000, 0.000, -36.400, 0.000, 0.000, -2.900, 0.0, , , , , , 97, , , 65, 65, 65
38.7448514, -120.4088445, 35.400, 14:57:42.118, 15, 0.00, 0.16, 96, -0.700, 0.400, -35.800, 1710, 100, 97, 26, 23073, -18347, 4989, 5197, 13, 14, 1528408662.119, 83, 0, 1024, 1024, 1024, 1024, 0, 6, 3834, 3854, 3859, 3848, 3839, 3853, 0, 1, 17301, -90.000, 0.000, -36.400, 0.000, 0.000, -2.900, 0.0, , , , , , 97, , , 65, 65, 65
38.7448514, -120.4088445, 35.400, 14:57:42.218, 15, 0.00, 0.16, 96, -0.700, 0.400, -35.800, 1710, 100, 97, 26, 23073, -18347, 4989, 5197, 13, 14, 1528408662.220, 184, 0, 1024, 1024, 1024, 1024, 0, 6, 3834, 3854, 3859, 3848, 3839, 3853, 0, 1, 17402, -90.000, 0.000, -36.400, 0.000, 0.000, -2.900, 0.0, , , , , , 97, , , 65, 65, 65
38.7448514, -120.4088445, 35.700, 14:57:42.324, 15, 0.00, 0.16, 96, -0.900, 0.200, -35.800, 1710, 100, 97, 26, 23073, -18347, 4989, 5197, 13, 14, 1528408662.324, 22, 0, 1024, 1024, 1024, 1024, 0, 6, 3834, 3854, 3859, 3848, 3839, 3853, 0, 1, 17507, -90.000, 0.000, -36.400, 0.000, 0.000, -3.000, 0.0, , , , , , 97, , , 65, 65, 65
38.7448514, -120.4088445, 35.700, 14:57:42.420, 15, 0.00, 0.16, 96, -0.900, 0.200, -35.800, 1710, 100, 97, 26, 23073, -18347, 4989, 5197, 13, 14, 1528408662.421, 118, 0, 1024, 1024, 1024, 1024, 0, 6, 3834, 3854, 3859, 3848, 3839, 3853, 0, 1, 17603, -90.000, 0.000, -36.400, 0.000, 0.000, -3.000, 0.0, , , , , , 97, , , 65, 65, 65
38.7448514, -120.4088444, 36.300, 14:57:42.537, 15, 0.00, 0.15, 96, -0.900, 0.300, -35.800, 1710, 100, 96, 26, 23073, -18347, 4989, 5197, 13, 14, 1528408662.538, 19, 0, 1024, 1024, 1024, 1024, 0, 6, 3834, 3854, 3859, 3848, 3839, 3853, 0, 1, 17721, -90.000, 0.000, -36.400, 0.000, 0.000, -2.900, 0.0, , , , , , 97, , , 65, 65, 65
38.7448514, -120.4088444, 36.300, 14:57:42.620, 15, 0.00, 0.15, 96, -0.900, 0.300, -35.800, 1710, 100, 96, 26, 23073, -18347, 4989, 5197, 13, 14, 1528408662.621, 102, 0, 1024, 1024, 1024, 1024, 0, 6, 3834, 3854, 3859, 3848, 3839, 3853, 0, 1, 17803, -90.000, 0.000, -36.400, 0.000, 0.000, -2.900, 0.0, , , , , , 97, , , 65, 65, 65
38.7448514, -120.4088444, 36.300, 14:57:42.725, 15, 0.00, 0.15, 96, -0.900, 0.300, -35.800, 1710, 100, 96, 26, 23073, -18347, 4989, 5197, 13, 14, 1528408662.726, 207, 0, 1024, 1024, 1024, 1024, 0, 6, 3834, 3854, 3859, 3848, 3839, 3853, 0, 1, 17909, -90.000, 0.000, -36.400, 0.000, 0.000, -2.900, 0.0, , , , , , 97, , , 65, 65, 65
38.7448514, -120.4088444, 36.300, 14:57:42.820, 15, 0.00, 0.15, 96, -0.900, 0.300, -35.800, 1710, 100, 96, 26, 23073, -18347, 4989, 5197, 13, 14, 1528408662.820, 301, 0, 1024, 1024, 1024, 1024, 0, 6, 3834, 3854, 3859, 3848, 3839, 3853, 0, 1, 18003, -90.000, 0.000, -36.400, 0.000, 0.000, -2.900, 0.0, , , , , , 97, , , 65, 65, 65
38.7448514, -120.4088444, 36.300, 14:57:42.923, 15, 0.00, 0.15, 96, -0.900, 0.300, -35.800, 1710, 100, 96, 26, 23073, -18347, 4989, 5197, 13, 14, 1528408662.924, 404, 0, 1024, 1024, 1024, 1024, 0, 6, 3834, 3854, 3859, 3848, 3839, 3853, 0, 1, 18106, -90.000, 0.000, -36.400, 0.000, 0.000, -2.900, 0.0, , , , , , 97, , , 65, 65, 65
38.7448514, -120.4088444, 36.300, 14:57:43.019, 15, 0.00, 0.15, 96, -0.900, 0.300, -35.800, 1710, 100, 96, 26, 23073, -18347, 4989, 5197, 13, 14, 1528408663.020, 501, 0, 1024, 1024, 1024, 1024, 0, 6, 3834, 3854, 3859, 3848, 3839, 3853, 0, 1, 18202, -90.000, 0.000, -36.400, 0.000, 0.000, -2.900, 0.0, , , , , , 97, , , 65, 65, 65
38.7448514, -120.4088444, 36.300, 14:57:43.122, 15, 0.00, 0.15, 96, -0.900, 0.300, -35.800, 1710, 100, 96, 26, 23073, -18347, 4989, 5197, 13, 14, 1528408663.126, 607, 0, 1024, 1024, 1024, 1024, 0, 6, 3834, 3854, 3859, 3848, 3839, 3853, 0, 1, 18309, -90.000, 0.000, -36.400, 0.000, 0.000, -2.900, 0.0, , , , , , 97, , , 65, 65, 65
38.7448514, -120.4088444, 36.300, 14:57:43.218, 15, 0.00, 0.15, 96, -0.900, 0.300, -35.800, 1710, 100, 96, 26, 23073, -18347, 4989, 5197, 13, 14, 1528408663.219, 700, 0, 1024, 1024, 1024, 1024, 0, 6, 3834, 3854, 3859, 3848, 3839, 3853, 0, 1, 18402, -90.000, 0.000, -36.400, 0.000, 0.000, -2.900, 0.0, , , , , , 97, , , 65, 65, 65
38.7448514, -120.4088444, 36.300, 14:57:43.320, 15, 0.00, 0.15, 96, -0.900, 0.300, -35.800, 1710, 100, 96, 26, 23073, -18347, 4989, 5197, 13, 14, 1528408663.321, 802, 0, 1024, 1024, 1024, 1024, 0, 6, 3834, 3854, 3859, 3848, 3839, 3853, 0, 1, 18503, -90.000, 0.000, -36.400, 0.000, 0.000, -2.900, 0.0, , , , , , 97, , , 65, 65, 65
38.7448514, -120.4088444, 36.300, 14:57:43.418, 15, 0.00, 0.15, 96, -0.900, 0.300, -35.800, 1710, 100, 96, 26, 23073, -18347, 4989, 5197, 13, 14, 1528408663.421, 901, 0, 1024, 1024, 1024, 1024, 0, 6, 3834, 3854, 3859, 3848, 3839, 3853, 0, 1, 18603, -90.000, 0.000, -36.400, 0.000, 0.000, -2.900, 0.0, , , , , , 97, , , 65, 65, 65
38.7448513, -120.4088443, 38.400, 14:57:43.530, 15, 0.00, 0.16, 96, -0.900, 0.100, -35.900, 1710, 100, 96, 26, 23073, -18347, 4989, 5197, 13, 14, 1528408663.531, 20, 0, 1024, 1024, 1024, 1024, 0, 6, 3834, 3854, 3859, 3848, 3839, 3853, 0, 1, 18713, -90.000, 0.000, -36.400, 0.000, 0.000, -2.900, 0.0, , , , , , 97, , , 65, 65, 65
38.7448513, -120.4088444, 38.700, 14:57:43.621, 15, 0.00, 0.16, 96, -1.000, 0.100, -35.900, 1710, 100, 96, 26, 23073, -18347, 4989, 5197, 13, 14, 1528408663.621, 34, 0, 1024, 1024, 1024, 1024, 0, 6, 3834, 3854, 3859, 3848, 3839, 3853, 0, 1, 18804, -90.000, 0.000, -36.400, 0.000, 0.000, -2.900, 0.0, , , , , , 97, , , 65, 65, 65
38.7448513, -120.4088444, 39.000, 14:57:43.817, 15, 0.00, 0.17, 96, -0.800, 0.200, -36.000, 1710, 100, 96, 26, 22987, -18941, 4989, 5197, 13, 14, 1528408663.818, 27, 0, 1024, 1024, 1024, 1024, 0, 6, 3834, 3854, 3859, 3848, 3839, 3853, 0, 1, 19000, -90.000, 0.000, -36.400, 0.000, 0.000, -2.900, 0.0, , , , , , 97, , , 65, 65, 65
38.7448512, -120.4088445, 40.700, 14:57:43.918, 15, 0.00, 0.18, 96, -0.400, 0.600, -35.500, 1710, 100, 96, 26, 22987, -18941, 4989, 5197, 13, 14, 1528408663.919, 45, 0, 1024, 1024, 1024, 1024, 0, 6, 3824, 3839, 3839, 3832, 3821, 3838, 0, 1, 19102, -90.000, 0.000, -36.400, 0.000, 0.000, -2.900, 0.0, , , , , , 97, , , 65, 65, 65
38.7448512, -120.4088445, 41.000, 14:57:44.018, 15, 0.00, 0.18, 96, -0.400, 0.500, -35.400, 1710, 100, 99, 26, 22987, -18941, 4989, 5197, 13, 14, 1528408664.019, 64, 0, 1024, 1024, 1024, 1024, 0, 6, 3824, 3839, 3839, 3832, 3821, 3838, 0, 1, 19201, -90.000, 0.000, -36.400, 0.000, 0.000, -2.900, 0.0, , , , , , 97, , , 65, 65, 65
38.7448512, -120.4088446, 41.300, 14:57:44.128, 15, 0.00, 0.18, 96, -0.300, 0.500, -35.500, 1710, 100, 99, 26, 22987, -18941, 4989, 5197, 13, 14, 1528408664.128, 75, 0, 1024, 1024, 1024, 1024, 0, 6, 3824, 3839, 3839, 3832, 3821, 3838, 0, 1, 19311, -90.000, 0.000, -36.400, 0.000, 0.000, -2.900, 0.0, , , , , , 97, , , 65, 65, 65
38.7448512, -120.4088446, 41.600, 14:57:44.219, 15, 0.00, 0.19, 96, -0.100, 0.500, -35.700, 1710, 100, 99, 26, 22987, -18941, 4989, 5197, 13, 14, 1528408664.219, 32, 0, 1024, 1024, 1024, 1024, 0, 6, 3824, 3839, 3839, 3832, 3821, 3838, 0, 1, 19402, -90.000, 0.000, -36.400, 0.000, 0.000, -2.900, 0.0, , , , , , 97, , , 65, 65, 65
38.7448512, -120.4088447, 41.900, 14:57:44.324, 15, 0.00, 0.19, 96, -0.100, 0.500, -35.900, 1710, 100, 99, 26, 22963, -18653, 4989, 5197, 13, 14, 1528408664.324, 16, 0, 1024, 1024, 1024, 1024, 0, 6, 3824, 3839, 3839, 3832, 3821, 3838, 0, 1, 19507, -90.000, 0.000, -36.400, 0.000, 0.000, -3.000, 0.0, , , , , , 97, , , 65, 65, 65
38.7448512, -120.4088447, 41.900, 14:57:44.417, 15, 0.00, 0.19, 96, -0.100, 0.500, -35.900, 1710, 100, 99, 26, 22963, -18653, 4989, 5197, 13, 14, 1528408664.418, 109, 0, 1024, 1024, 1024, 1024, 0, 6, 3817, 3828, 3845, 3820, 3802, 3840, 0, 1, 19601, -90.000, 0.000, -36.400, 0.000, 0.000, -3.000, 0.0, , , , , , 97, , , 65, 65, 65
38.7448511, -120.4088447, 43.100, 14:57:44.518, 15, 0.00, 0.20, 96, -0.200, 0.600, -36.400, 1710, 100, 99, 26, 22963, -18653, 4989, 5197, 13, 14, 1528408664.519, 79, 0, 1024, 1024, 1024, 1024, 0, 6, 3817, 3828, 3845, 3820, 3802, 3840, 0, 1, 19701, -89.900, 0.000, -36.400, 0.000, 0.000, -3.000, 0.0, , , , , , 97, , , 65, 65, 65
38.7448511, -120.4088447, 43.700, 14:57:44.620, 15, 0.00, 0.20, 96, -0.500, 0.400, -36.100, 1710, 100, 98, 26, 22963, -18653, 4989, 5197, 13, 14, 1528408664.621, 14, 0, 1024, 1024, 1024, 1024, 0, 6, 3817, 3828, 3845, 3820, 3802, 3840, 0, 1, 19804, -90.000, 0.000, -36.400, 0.000, 0.000, -2.900, 0.0, , , , , , 97, , , 65, 65, 65
38.7448510, -120.4088446, 44.000, 14:57:44.737, 15, 0.00, 0.20, 96, -0.600, 0.200, -35.900, 1710, 100, 98, 26, 22963, -18653, 4989, 5197, 13, 14, 1528408664.737, 13, 0, 1024, 1024, 1024, 1024, 0, 6, 3817, 3828, 3845, 3820, 3802, 3840, 0, 1, 19920, -90.000, 0.000, -36.400, 0.000, 0.000, -2.900, 0.0, , , , , , 97, , , 65, 65, 65
38.7448510, -120.4088446, 44.300, 14:57:44.818, 15, 0.00, 0.20, 96, -0.600, 0.100, -35.800, 1710, 100, 98, 26, 22963, -18653, 4989, 5197, 13, 14, 1528408664.818, 41, 0, 1024, 1024, 1024, 1024, 0, 6, 3817, 3828, 3845, 3820, 3802, 3840, 0, 1, 20001, -90.000, 0.000, -36.400, 0.000, 0.000, -2.900, 0.0, , , , , , 97, , , 65, 65, 65
38.7448510, -120.4088446, 44.600, 14:57:44.919, 15, 0.00, 0.20, 96, -0.500, 0.000, -35.600, 1710, 100, 98, 26, 22963, -18653, 4989, 5197, 13, 14, 1528408664.920, 76, 0, 1024, 1024, 1024, 1024, 0, 6, 3817, 3828, 3845, 3820, 3802, 3840, 0, 1, 20102, -90.000, 0.000, -36.400, 0.000, 0.000, -3.000, 0.0, , , , , , 97, , , 65, 65, 65
38.7448510, -120.4088446, 44.600, 14:57:45.018, 15, 0.00, 0.20, 96, -0.500, 0.000, -35.600, 1710, 100, 98, 26, 22963, -18653, 4989, 5197, 13, 14, 1528408665.019, 175, 0, 1024, 1024, 1024, 1024, 0, 6, 3817, 3828, 3845, 3820, 3802, 3840, 0, 1, 20202, -90.000, 0.000, -36.400, 0.000, 0.000, -3.000, 0.0, , , , , , 97, , , 65, 65, 65
38.7448510, -120.4088446, 44.600, 14:57:45.118, 15, 0.00, 0.20, 96, -0.500, 0.000, -35.600, 1710, 100, 98, 26, 22963, -18653, 4989, 5197, 13, 14, 1528408665.118, 275, 0, 1024, 1024, 1024, 1024, 0, 6, 3817, 3828, 3845, 3820, 3802, 3840, 0, 1, 20301, -90.000, 0.000, -36.400, 0.000, 0.000, -3.000, 0.0, , , , , , 97, , , 65, 65, 65
38.7448510, -120.4088446, 44.900, 14:57:45.218, 15, 0.00, 0.20, 96, -0.400, 0.000, -35.600, 1710, 100, 98, 26, 22883, -19331, 4989, 5197, 13, 14, 1528408665.219, 35, 0, 1024, 1024, 1024, 1024, 0, 6, 3817, 3828, 3845, 3820, 3802, 3840, 0, 1, 20402, -90.000, 0.000, -36.400, 0.000, 0.000, -2.900, 0.0, , , , , , 97, , , 65, 65, 65
38.7448510, -120.4088446, 44.900, 14:57:45.318, 15, 0.00, 0.20, 96, -0.400, 0.000, -35.600, 1710, 100, 98, 26, 22883, -19331, 4989, 5197, 13, 14, 1528408665.319, 135, 0, 1024, 1024, 1024, 1024, 0, 6, 3817, 3828, 3845, 3820, 3802, 3840, 0, 1, 20501, -90.000, 0.000, -36.400, 0.000, 0.000, -2.900, 0.0, , , , , , 97, , , 65, 65, 65
38.7448510, -120.4088446, 45.300, 14:57:45.418, 15, 0.00, 0.20, 96, -0.400, 0.100, -35.600, 1710, 100, 98, 26, 22883, -19331, 4989, 5197, 13, 14, 1528408665.419, 86, 0, 1024, 1024, 1024, 1024, 0, 6, 3804, 3817, 3833, 3815, 3804, 3827, 0, 1, 20602, -90.000, 0.000, -36.400, 0.000, 0.000, -3.000, 0.0, , , , , , 97, , , 65, 65, 65
38.7448509, -120.4088445, 45.600, 14:57:45.518, 15, 0.00, 0.21, 96, -0.300, 0.200, -35.600, 1710, 100, 98, 26, 22883, -19331, 4989, 5197, 13, 14, 1528408665.519, 58, 0, 1024, 1024, 1024, 1024, 0, 6, 3804, 3817, 3833, 3815, 3804, 3827, 0, 1, 20702, -90.000, 0.000, -36.400, 0.000, 0.000, -3.000, 0.0, , , , , , 97, , , 65, 65, 65
