Latitude, Longitude, Altitude (m), Time, Sats, Speed (m/s), Range (m), Battery (%), Roll (deg), Pitch (deg), Yaw (deg), Images, HD Signal (%), RC Signal (%), Battery Temp (C), Battery Voltage (mV), Battery Current (mA), Battery Energy (mAh), Battery Capacity (mAh), Battery Discharges, flyState, timestamp (Unix), LastUpdate (ms), radioChannel, Rc_elevator, Rc_aileron, Rc_throttle, Rc_rudder, Rc_gyro, Dronetype, Battery_Cell1 (mV), Battery_Cell2 (mV), Battery_Cell3 (mV), Battery_Cell4 (mV), Battery_Cell5 (mV), Battery_Cell6 (mV), Video, isFlying, elapsedTime (ms), gimbalPitch (deg), gimbalRoll (deg), gimbalYaw (deg), VelocityX (m/s), VelocityY (m/s), VelocityZ (m/s), GroundSmear (cm), App Version, Aircraft Name, Aircraft Firmware, Aircraft Serial Number, Battery Serial Number, Battery Lifetime (%), App_Tip, App_Warning, CurrentFlightStartingIndex, CurrentFlightLastVisitedWaypoint, PreviousFlightEndingWaypointIndex
38.5270925, -120.3542955, 0.000, 12:01:32.557, 8, 0.00, 1.19, 98, -0.300, 0.400, -42.600, 1126, 100, 100, 23, 25192, -3740, 5194, 5301, 21, 11, 1530990092.558, 66, 0, 1024, 1024, 1024, 1024, 0, 6, 4148, 4203, 4244, 4245, 4198, 4214, 0, 1, 3201, -89.900, 0.000, -44.400, 0.000, 0.000, -0.100, 0.0, MapPilot_2.8.1_04242018, Dendroctonus I, 1.3.1.00, 041DDC1887, 1058163200627, 95, DJI_0124.jpg, Starting Mission from Lat/Long: 38.52710/-120.35429 Camera: Zenmuse X3 - Overlap: 90/90 - Active Connection: No, 45, 45, 45
38.5270925, -120.3542955, 0.000, 12:01:32.657, 8, 0.00, 1.18, 98, -0.100, 0.300, -42.300, 1126, 100, 100, 23, 25192, -3740, 5194, 5301, 21, 11, 1530990092.658, 69, 0, 1024, 1024, 1024, 1024, 0, 6, 4148, 4203, 4244, 4245, 4198, 4214, 0, 1, 3300, -90.000, 0.000, -44.300, 0.000, 0.000, -0.200, 0.0, , , , , , 95, , , 45, 45, 45
38.5270925, -120.3542954, 0.000, 12:01:32.758, 8, 0.00, 1.18, 98, 0.300, 0.000, -42.200, 1126, 100, 100, 23, 25192, -3740, 5194, 5301, 21, 11, 1530990092.758, 58, 0, 1024, 1024, 1024, 1024, 0, 6, 4148, 4203, 4244, 4245, 4198, 4214, 0, 1, 3400, -89.900, 0.000, -44.300, 0.000, 0.000, -0.300, 0.0, , , , , , 95, , , 45, 45, 45
38.5270926, -120.3542954, 0.000, 12:01:32.857, 8, 0.00, 1.18, 98, 0.400, 0.100, -42.200, 1126, 100, 100, 23, 25192, -3740, 5194, 5301, 21, 11, 1530990092.858, 58, 0, 1024, 1024, 1024, 1024, 0, 6, 4148, 4203, 4244, 4245, 4198, 4214, 0, 1, 3500, -89.900, 0.000, -44.300, 0.000, 0.000, -0.300, 0.0, , , , , , 95, , , 45, 45, 45
38.5270926, -120.3542953, 0.100, 12:01:32.957, 8, 0.00, 1.17, 98, 0.300, 0.000, -42.400, 1126, 100, 100, 23, 25192, -3740, 5194, 5301, 21, 11, 1530990092.958, 37, 0, 1024, 1024, 1024, 1024, 0, 6, 4148, 4203, 4244, 4245, 4198, 4214, 0, 1, 3600, -89.900, 0.000, -44.200, 0.000, 0.000, -0.400, 0.0, , , , , , 95, , , 45, 45, 45
38.5270926, -120.3542953, 0.100, 12:01:33.061, 8, 0.00, 1.17, 98, 0.200, 0.200, -42.500, 1126, 100, 100, 23, 25192, -3740, 5194, 5301, 21, 11, 1530990093.061, 40, 0, 1024, 1024, 1024, 1024, 0, 6, 4148, 4203, 4244, 4245, 4198, 4214, 0, 1, 3703, -89.900, 0.000, -44.200, 0.000, 0.000, -0.400, 0.0, , , , , , 95, , , 45, 45, 45
38.5270926, -120.3542953, 0.100, 12:01:33.157, 8, 0.00, 1.16, 98, -0.300, 0.000, -42.700, 1126, 100, 100, 23, 24619, -8361, 5194, 5301, 21, 11, 1530990093.157, 51, 0, 1024, 1024, 1024, 1024, 0, 6, 4085, 4072, 4110, 4121, 4063, 4064, 0, 1, 3800, -89.900, 0.000, -44.200, 0.000, 0.000, -0.400, 0.0, , , , , , 95, , , 45, 45, 45
38.5270926, -120.3542953, 0.200, 12:01:33.257, 8, 0.00, 1.16, 98, -0.500, 0.000, -42.800, 1126, 100, 100, 23, 24619, -8361, 5194, 5301, 21, 11, 1530990093.258, 18, 0, 1024, 1024, 1024, 1024, 0, 6, 4085, 4072, 4110, 4121, 4063, 4064, 0, 1, 3900, -89.900, 0.000, -44.100, 0.000, 0.000, -0.400, 0.0, , , , , , 95, , , 45, 45, 45
38.5270927, -120.3542953, 0.200, 12:01:33.357, 8, 0.00, 1.16, 98, -0.500, 0.100, -42.900, 1126, 100, 100, 23, 24619, -8361, 5194, 5301, 21, 11, 1530990093.358, 28, 0, 1024, 1024, 1024, 1024, 0, 6, 4085, 4072, 4110, 4121, 4063, 4064, 0, 1, 4000, -89.900, 0.000, -44.100, 0.000, 0.000, -0.400, 0.0, , , , , , 95, , , 45, 45, 45
38.5270928, -120.3542953, 0.300, 12:01:33.457, 8, 0.00, 1.15, 98, -0.600, 0.100, -43.100, 1126, 100, 100, 23, 24619, -8361, 5194, 5301, 21, 11, 1530990093.458, 23, 0, 1024, 1024, 1024, 1024, 0, 6, 4085, 4072, 4110, 4121, 4063, 4064, 0, 1, 4100, -89.900, 0.000, -44.100, 0.000, 0.000, -0.400, 0.0, , , , , , 95, , , 45, 45, 45
38.5270928, -120.3542953, 0.300, 12:01:33.557, 8, 0.00, 1.15, 98, -0.600, 0.100, -43.100, 1126, 100, 100, 23, 24619, -8361, 5194, 5301, 21, 11, 1530990093.558, 123, 0, 1024, 1024, 1024, 1024, 0, 6, 4085, 4072, 4110, 4121, 4063, 4064, 0, 1, 4200, -89.900, 0.000, -44.100, 0.000, 0.000, -0.400, 0.0, , , , , , 95, , , 45, 45, 45
38.5270930, -120.3542952, 0.400, 12:01:33.657, 8, 0.00, 1.13, 98, -0.700, 0.400, -43.100, 1126, 100, 100, 23, 24619, -8361, 5194, 5301, 21, 11, 1530990093.658, 18, 0, 1024, 1024, 1024, 1024, 0, 6, 4085, 4072, 4110, 4121, 4063, 4064, 0, 1, 4300, -89.900, 0.000, -44.000, 0.000, 0.000, -0.500, 0.0, , , , , , 95, , , 45, 45, 45
38.5270930, -120.3542951, 0.400, 12:01:33.758, 7, 0.00, 1.12, 98, -0.800, 0.600, -43.100, 1126, 100, 100, 23, 24619, -8361, 5194, 5301, 21, 11, 1530990093.758, 9, 0, 1024, 1024, 1024, 1024, 0, 6, 4085, 4072, 4110, 4121, 4063, 4064, 0, 1, 4400, -89.900, 0.000, -44.000, 0.000, 0.000, -0.400, 0.0, , , , , , 95, , , 45, 45, 45
38.5270930, -120.3542951, 0.400, 12:01:33.857, 7, 0.00, 1.12, 98, -0.800, 0.600, -43.100, 1126, 100, 100, 23, 24619, -8361, 5194, 5301, 21, 11, 1530990093.858, 109, 0, 1024, 1024, 1024, 1024, 0, 6, 4085, 4072, 4110, 4121, 4063, 4064, 0, 1, 4500, -89.900, 0.000, -44.000, 0.000, 0.000, -0.400, 0.0, , , , , , 95, , , 45, 45, 45
38.5270931, -120.3542950, 0.500, 12:01:33.958, 7, 0.00, 1.11, 98, -1.100, 0.700, -43.000, 1126, 100, 100, 23, 24619, -8361, 5194, 5301, 21, 11, 1530990093.958, 92, 0, 1024, 1024, 1024, 1024, 0, 6, 4085, 4072, 4110, 4121, 4063, 4064, 0, 1, 4600, -89.900, 0.000, -44.000, 0.000, 0.000, -0.400, 0.0, , , , , , 95, , , 45, 45, 45
38.5270932, -120.3542950, 0.500, 12:01:34.057, 7, 0.00, 1.10, 98, -1.100, 0.700, -42.900, 1126, 100, 100, 23, 24619, -8361, 5194, 5301, 21, 11, 1530990094.057, 77, 0, 1024, 1024, 1024, 1024, 0, 6, 4085, 4072, 4110, 4121, 4063, 4064, 0, 1, 4700, -89.900, 0.000, -44.000, 0.000, 0.000, -0.500, 0.0, , , , , , 95, , , 45, 45, 45
38.5270933, -120.3542950, 0.600, 12:01:34.157, 8, 0.00, 1.09, 98, -0.800, 0.500, -42.500, 1126, 100, 100, 23, 23592, -17232, 5141, 5301, 21, 11, 1530990094.157, 9, 0, 1024, 1024, 1024, 1024, 0, 6, 3923, 3916, 3931, 3931, 3939, 3916, 0, 1, 4800, -89.900, 0.000, -43.900, 0.000, 0.000, -0.500, 0.0, , , , , , 95, , , 45, 45, 45
38.5270933, -120.3542950, 0.600, 12:01:34.257, 8, 0.00, 1.09, 98, -0.800, 0.500, -42.500, 1126, 100, 100, 23, 23592, -17232, 5141, 5301, 21, 11, 1530990094.258, 109, 0, 1024, 1024, 1024, 1024, 0, 6, 3923, 3916, 3931, 3931, 3939, 3916, 0, 1, 4900, -89.900, 0.000, -43.900, 0.000, 0.000, -0.500, 0.0, , , , , , 95, , , 45, 45, 45
38.5270934, -120.3542951, 0.700, 12:01:34.357, 8, 0.00, 1.09, 98, -0.700, 0.500, -42.400, 1126, 100, 100, 23, 23592, -17232, 5141, 5301, 21, 11, 1530990094.358, 98, 0, 1024, 1024, 1024, 1024, 0, 6, 3923, 3916, 3931, 3931, 3939, 3916, 0, 1, 5000, -89.900, 0.000, -43.900, 0.000, 0.000, -0.500, 0.0, , , , , , 95, , , 45, 45, 45
38.5270934, -120.3542951, 0.800, 12:01:34.458, 8, 0.00, 1.09, 98, -0.500, 0.500, -42.300, 1126, 100, 100, 23, 23592, -17232, 5141, 5301, 21, 11, 1530990094.458, 84, 0, 1024, 1024, 1024, 1024, 0, 6, 3923, 3916, 3931, 3931, 3939, 3916, 0, 1, 5100, -89.900, 0.000, -43.900, 0.000, 0.000, -0.500, 0.0, , , , , , 95, , , 45, 45, 45
38.5270935, -120.3542951, 0.800, 12:01:34.557, 8, 0.00, 1.08, 98, -0.600, 0.600, -42.300, 1126, 100, 100, 23, 23592, -17232, 5141, 5301, 21, 11, 1530990094.558, 92, 0, 1024, 1024, 1024, 1024, 0, 6, 3923, 3916, 3931, 3931, 3939, 3916, 0, 1, 5200, -89.900, 0.000, -43.900, 0.000, 0.000, -0.500, 0.0, , , , , , 95, , , 45, 45, 45
38.5270936, -120.3542952, 0.900, 12:01:34.657, 7, 0.00, 1.08, 97, -0.800, 0.700, -42.300, 1126, 100, 100, 23, 23592, -17232, 5141, 5301, 21, 11, 1530990094.658, 66, 0, 1024, 1024, 1024, 1024, 0, 6, 3923, 3916, 3931, 3931, 3939, 3916, 0, 1, 5300, -89.900, 0.000, -43.900, 0.000, 0.000, -0.400, 0.0, , , , , , 95, , , 45, 45, 45
38.5270936, -120.3542952, 0.900, 12:01:34.757, 7, 0.00, 1.08, 97, -1.000, 0.800, -42.400, 1126, 100, 100, 23, 23592, -17232, 5141, 5301, 21, 14, 1530990094.758, 81, 0, 1024, 1024, 1024, 1024, 0, 6, 3923, 3916, 3931, 3931, 3939, 3916, 0, 1, 5400, -89.900, 0.000, -43.800, 0.000, 0.000, -0.400, 0.0, , , , , , 95, , , 45, 45, 45
38.5270936, -120.3542953, 1.000, 12:01:34.858, 8, 0.00, 1.08, 97, -1.000, 0.600, -42.500, 1126, 100, 100, 23, 23592, -17232, 5141, 5301, 21, 14, 1530990094.858, 49, 0, 1024, 1024, 1024, 1024, 0, 6, 3923, 3916, 3931, 3931, 3939, 3916, 0, 1, 5500, -89.900, 0.000, -43.800, 0.000, 0.000, -0.400, 0.0, , , , , , 95, , , 45, 45, 45
38.5270936, -120.3542953, 1.000, 12:01:34.957, 8, 0.00, 1.08, 97, -0.600, 0.400, -42.600, 1126, 100, 100, 23, 23592, -17232, 5141, 5301, 21, 14, 1530990094.958, 67, 0, 1024, 1024, 1024, 1024, 0, 6, 3923, 3916, 3931, 3931, 3939, 3916, 0, 1, 5600, -89.900, 0.000, -43.800, 0.000, 0.000, -0.300, 0.0, , , , , , 95, , , 45, 45, 45
38.5270936, -120.3542953, 1.000, 12:01:35.057, 9, 0.00, 1.08, 97, -0.400, 0.400, -42.600, 1126, 100, 100, 23, 23592, -17232, 5141, 5301, 21, 14, 1530990095.057, 57, 0, 1024, 1024, 1024, 1024, 0, 6, 3923, 3916, 3931, 3931, 3939, 3916, 0, 1, 5700, -89.900, 0.000, -43.800, 0.000, 0.000, -0.300, 0.0, , , , , , 95, , , 45, 45, 45
38.5270936, -120.3542954, 1.100, 12:01:35.157, 9, 0.00, 1.09, 97, -0.200, 0.400, -42.600, 1126, 100, 100, 23, 23382, -17504, 5141, 5301, 21, 14, 1530990095.158, 50, 0, 1024, 1024, 1024, 1024, 0, 6, 3923, 3916, 3931, 3931, 3939, 3916, 0, 1, 5800, -89.900, 0.000, -43.800, 0.000, 0.000, -0.300, 0.0, , , , , , 95, , , 45, 45, 45
38.5270936, -120.3542955, 1.100, 12:01:35.257, 9, 0.00, 1.10, 97, 0.000, 0.400, -42.600, 1126, 100, 100, 23, 23382, -17504, 5141, 5301, 21, 14, 1530990095.258, 60, 0, 1024, 1024, 1024, 1024, 0, 6, 3923, 3916, 3931, 3931, 3939, 3916, 0, 1, 5900, -89.900, 0.000, -43.700, 0.000, 0.000, -0.400, 0.0, , , , , , 95, , , 45, 45, 45
38.5270936, -120.3542956, 1.100, 12:01:35.357, 9, 0.00, 1.10, 97, 0.300, 0.500, -42.500, 1126, 100, 100, 23, 23382, -17504, 5141, 5301, 21, 14, 1530990095.358, 51, 0, 1024, 1024, 1024, 1024, 0, 6, 3923, 3916, 3931, 3931, 3939, 3916, 0, 1, 6000, -89.900, 0.000, -43.700, 0.000, 0.000, -0.600, 0.0, , , , , , 95, , , 45, 45, 45
38.5270936, -120.3542957, 1.200, 12:01:35.457, 9, 0.00, 1.11, 97, 0.500, 0.600, -42.400, 1126, 100, 100, 23, 23382, -17504, 5141, 5301, 21, 14, 1530990095.458, 43, 0, 1024, 1024, 1024, 1024, 0, 6, 3923, 3916, 3931, 3931, 3939, 3916, 0, 1, 6100, -89.900, 0.000, -43.700, 0.000, 0.000, -0.700, 0.0, , , , , , 95, , , 45, 45, 45
38.5270937, -120.3542958, 1.300, 12:01:35.557, 9, 0.00, 1.11, 97, 0.300, 0.700, -42.300, 1126, 100, 100, 23, 23382, -17504, 5141, 5301, 21, 14, 1530990095.558, 16, 0, 1024, 1024, 1024, 1024, 0, 6, 3923, 3916, 3931, 3931, 3939, 3916, 0, 1, 6200, -89.900, 0.000, -43.700, 0.000, 0.000, -0.900, 0.0, , , , , , 95, , , 45, 45, 45
38.5270937, -120.3542960, 1.500, 12:01:35.657, 9, 0.00, 1.12, 97, 0.000, 1.000, -42.300, 1126, 100, 100, 23, 23382, -17504, 5141, 5301, 21, 14, 1530990095.658, 25, 0, 1024, 1024, 1024, 1024, 0, 6, 3881, 3880, 3904, 3900, 3923, 3893, 0, 1, 6300, -89.900, 0.000, -43.700, 0.000, 0.000, -1.400, 0.0, , , , , , 95, , , 45, 45, 45
38.5270936, -120.3542961, 1.700, 12:01:35.760, 9, 0.00, 1.13, 97, 0.000, 0.900, -42.400, 1126, 100, 100, 23, 23382, -17504, 5141, 5301, 21, 14, 1530990095.760, 3, 0, 1024, 1024, 1024, 1024, 0, 6, 3881, 3880, 3904, 3900, 3923, 3893, 0, 1, 6402, -89.900, 0.000, -43.600, 0.000, 0.000, -1.600, 0.0, , , , , , 95, , , 45, 45, 45
38.5270936, -120.3542963, 1.800, 12:01:35.857, 9, 0.00, 1.15, 97, -0.200, 1.000, -42.500, 1126, 100, 100, 23, 23382, -17504, 5141, 5301, 21, 14, 1530990095.858, 27, 0, 1024, 1024, 1024, 1024, 0, 6, 3881, 3880, 3904, 3900, 3923, 3893, 0, 1, 6500, -89.900, 0.000, -43.600, 0.000, 0.000, -1.700, 0.0, , , , , , 95, , , 45, 45, 45
38.5270935, -120.3542965, 2.000, 12:01:35.957, 9, 0.00, 1.17, 97, -0.100, 0.900, -42.500, 1126, 100, 100, 23, 23382, -17504, 5141, 5301, 21, 14, 1530990095.958, 19, 0, 1024, 1024, 1024, 1024, 0, 6, 3881, 3880, 3904, 3900, 3923, 3893, 0, 1, 6600, -89.900, 0.000, -43.600, 0.000, 0.000, -2.000, 0.0, , , , , , 95, , , 45, 45, 45
38.5270934, -120.3542965, 2.200, 12:01:36.057, 9, 0.00, 1.18, 97, 0.100, 0.800, -42.500, 1126, 100, 100, 23, 23382, -17504, 5141, 5301, 21, 14, 1530990096.058, 8, 0, 1024, 1024, 1024, 1024, 0, 6, 3881, 3880, 3904, 3900, 3923, 3893, 0, 1, 6700, -89.900, 0.000, -43.600, 0.000, 0.000, -2.200, 0.0, , , , , , 95, , , 45, 45, 45
38.5270932, -120.3542966, 2.500, 12:01:36.157, 9, 0.00, 1.20, 97, 0.600, 0.400, -42.500, 1126, 100, 100, 23, 23382, -17504, 5141, 5301, 21, 14, 1530990096.158, 9, 0, 1024, 1024, 1024, 1024, 0, 6, 3881, 3880, 3904, 3900, 3923, 3893, 0, 1, 6800, -90.000, 0.000, -43.600, 0.000, 0.000, -2.400, 0.0, , , , , , 95, , , 45, 45, 45
38.5270932, -120.3542966, 2.700, 12:01:36.257, 9, 0.00, 1.20, 97, 0.900, 0.000, -42.400, 1126, 100, 100, 23, 23382, -17504, 5141, 5301, 21, 14, 1530990096.258, 9, 0, 1024, 1024, 1024, 1024, 0, 6, 3881, 3880, 3904, 3900, 3923, 3893, 0, 1, 6900, -90.000, 0.000, -43.600, 0.000, 0.000, -2.600, 0.0, , , , , , 95, , , 45, 45, 45
38.5270932, -120.3542966, 2.700, 12:01:36.357, 9, 0.00, 1.20, 97, 0.900, 0.000, -42.400, 1126, 100, 100, 23, 23382, -17504, 5141, 5301, 21, 14, 1530990096.358, 109, 0, 1024, 1024, 1024, 1024, 0, 6, 3881, 3880, 3904, 3900, 3923, 3893, 0, 1, 7000, -90.000, 0.000, -43.600, 0.000, 0.000, -2.600, 0.0, , , , , , 95, , , 45, 45, 45
38.5270933, -120.3542965, 3.300, 12:01:36.459, 9, 0.00, 1.19, 97, 0.500, 0.000, -42.100, 1126, 100, 100, 23, 23382, -17504, 5141, 5301, 21, 14, 1530990096.459, 2, 0, 1024, 1024, 1024, 1024, 0, 6, 3881, 3880, 3904, 3900, 3923, 3893, 0, 1, 7101, -89.900, 0.000, -43.500, 0.000, 0.000, -3.100, 0.0, , , , , , 95, , , 45, 45, 45
38.5270933, -120.3542965, 3.300, 12:01:36.557, 9, 0.00, 1.19, 97, 0.500, 0.000, -42.100, 1126, 100, 100, 23, 23382, -17504, 5141, 5301, 21, 14, 1530990096.557, 101, 0, 1024, 1024, 1024, 1024, 0, 6, 3881, 3880, 3904, 3900, 3923, 3893, 0, 1, 7200, -89.900, 0.000, -43.500, 0.000, 0.000, -3.100, 0.0, , , , , , 95, , , 45, 45, 45
38.5270933, -120.3542965, 3.700, 12:01:36.657, 9, 0.00, 1.18, 97, 0.100, 0.200, -42.100, 1126, 100, 100, 23, 23184, -17222, 5141, 5301, 21, 14, 1530990096.658, 66, 0, 1024, 1024, 1024, 1024, 0, 6, 3835, 3833, 3865, 3863, 3918, 3842, 0, 1, 7300, -89.900, 0.000, -43.500, 0.000, 0.000, -3.100, 0.0, , , , , , 95, , , 45, 45, 45
38.5270935, -120.3542964, 4.000, 12:01:36.757, 9, 0.00, 1.16, 97, -0.200, 0.400, -42.100, 1126, 100, 100, 23, 23184, -17222, 5141, 5301, 21, 14, 1530990096.758, 76, 0, 1024, 1024, 1024, 1024, 0, 6, 3835, 3833, 3865, 3863, 3918, 3842, 0, 1, 7400, -89.900, 0.000, -43.500, 0.000, 0.000, -3.200, 0.0, , , , , , 95, , , 45, 45, 45
38.5270936, -120.3542963, 4.300, 12:01:36.857, 9, 0.00, 1.15, 97, -0.300, 0.500, -42.200, 1126, 100, 100, 23, 23184, -17222, 5141, 5301, 21, 14, 1530990096.858, 69, 0, 1024, 1024, 1024, 1024, 0, 6, 3835, 3833, 3865, 3863, 3918, 3842, 0, 1, 7500, -89.900, 0.000, -43.500, 0.000, 0.000, -3.300, 0.0, , , , , , 95, , , 45, 45, 45
38.5270936, -120.3542962, 4.700, 12:01:36.957, 9, 0.00, 1.14, 97, -0.400, 0.700, -42.300, 1126, 100, 100, 23, 23184, -17222, 5141, 5301, 21, 14, 1530990096.957, 73, 0, 1024, 1024, 1024, 1024, 0, 6, 3835, 3833, 3865, 3863, 3918, 3842, 0, 1, 7600, -89.900, 0.000, -43.500, 0.000, 0.000, -3.300, 0.0, , , , , , 95, , , 45, 45, 45
38.5270937, -120.3542962, 5.100, 12:01:37.057, 9, 0.00, 1.13, 97, -0.400, 0.800, -42.400, 1126, 100, 100, 23, 23184, -17222, 5141, 5301, 21, 14, 1530990097.058, 60, 0, 1024, 1024, 1024, 1024, 0, 6, 3835, 3833, 3865, 3863, 3918, 3842, 0, 1, 7700, -89.900, 0.000, -43.500, 0.000, 0.000, -3.400, 0.0, , , , , , 95, , , 45, 45, 45
38.5270939, -120.3542962, 5.400, 12:01:37.157, 9, 0.00, 1.12, 97, -0.600, 0.900, -42.400, 1126, 100, 100, 23, 23184, -17222, 5141, 5301, 21, 14, 1530990097.158, 76, 0, 1024, 1024, 1024, 1024, 0, 6, 3835, 3833, 3865, 3863, 3918, 3842, 0, 1, 7800, -89.900, 0.000, -43.500, 0.000, 0.000, -3.300, 0.0, , , , , , 95, , , 45, 45, 45
38.5270941, -120.3542962, 5.800, 12:01:37.257, 9, 0.00, 1.11, 97, -0.700, 1.100, -42.400, 1126, 100, 100, 23, 23184, -17222, 5141, 5301, 21, 14, 1530990097.258, 67, 0, 1024, 1024, 1024, 1024, 0, 6, 3835, 3833, 3865, 3863, 3918, 3842, 0, 1, 7900, -89.900, 0.000, -43.500, 0.000, 0.000, -3.300, 0.0, , , , , , 95, , , 45, 45, 45
38.5270943, -120.3542961, 6.100, 12:01:37.357, 9, 0.00, 1.09, 97, -0.900, 1.100, -42.400, 1126, 100, 100, 23, 23184, -17222, 5141, 5301, 21, 14, 1530990097.358, 72, 0, 1024, 1024, 1024, 1024, 0, 6, 3835, 3833, 3865, 3863, 3918, 3842, 0, 1, 8000, -89.900, 0.000, -43.500, 0.000, 0.000, -3.200, 0.0, , , , , , 95, , , 45, 45, 45
38.5270944, -120.3542961, 6.400, 12:01:37.457, 9, 0.00, 1.08, 97, -1.000, 1.200, -42.300, 1126, 100, 100, 23, 23184, -17222, 5141, 5301, 21, 14, 1530990097.458, 58, 0, 1024, 1024, 1024, 1024, 0, 6, 3835, 3833, 3865, 3863, 3918, 3842, 0, 1, 8100, -89.900, 0.000, -43.500, 0.000, 0.000, -3.200, 0.0, , , , , , 95, , , 45, 45, 45
38.5270944, -120.3542961, 6.800, 12:01:37.557, 9, 0.00, 1.08, 97, -0.800, 1.300, -42.300, 1126, 100, 100, 23, 23184, -17222, 5141, 5301, 21, 14, 1530990097.558, 60, 0, 1024, 1024, 1024, 1024, 0, 6, 3835, 3833, 3865, 3863, 3918, 3842, 0, 1, 8200, -89.900, 0.000, -43.500, 0.000, 0.000, -3.200, 0.0, , , , , , 95, , , 45, 45, 45
38.5270944, -120.3542962, 7.100, 12:01:37.657, 9, 0.00, 1.08, 97, -0.500, 1.200, -42.200, 1126, 100, 100, 23, 22538, -25613, 5141, 5301, 21, 14, 1530990097.658, 51, 0, 1024, 1024, 1024, 1024, 0, 6, 3738, 3749, 3767, 3779, 3806, 3759, 0, 1, 8300, -89.900, 0.000, -43.500, 0.000, 0.000, -3.200, 0.0, , , , , , 95, , , 45, 45, 45
38.5270943, -120.3542962, 7.400, 12:01:37.757, 9, 0.00, 1.09, 97, -0.300, 0.800, -42.200, 1126, 100, 100, 23, 22538, -25613, 5141, 5301, 21, 14, 1530990097.758, 59, 0, 1024, 1024, 1024, 1024, 0, 6, 3738, 3749, 3767, 3779, 3806, 3759, 0, 1, 8400, -90.000, 0.000, -43.500, 0.000, 0.000, -3.200, 0.0, , , , , , 95, , , 45, 45, 45
38.5270942, -120.3542962, 7.800, 12:01:37.857, 9, 0.00, 1.10, 97, 0.000, 0.100, -42.200, 1126, 100, 100, 23, 22538, -25613, 5141, 5301, 21, 14, 1530990097.858, 47, 0, 1024, 1024, 1024, 1024, 0, 6, 3738, 3749, 3767, 3779, 3806, 3759, 0, 1, 8500, -90.000, 0.000, -43.500, 0.000, 0.000, -3.100, 0.0, , , , , , 95, , , 45, 45, 45
38.5270942, -120.3542962, 8.100, 12:01:37.957, 9, 0.00, 1.10, 97, 0.200, -0.200, -42.300, 1126, 100, 100, 23, 22538, -25613, 5141, 5301, 21, 14, 1530990097.958, 39, 0, 1024, 1024, 1024, 1024, 0, 6, 3738, 3749, 3767, 3779, 3806, 3759, 0, 1, 8600, -90.000, 0.000, -43.500, 0.000, 0.000, -3.100, 0.0, , , , , , 95, , , 45, 45, 45
38.5270941, -120.3542962, 8.400, 12:01:38.057, 9, 0.00, 1.11, 97, 0.100, -0.200, -42.500, 1126, 100, 100, 23, 22538, -25613, 5141, 5301, 21, 14, 1530990098.057, 54, 0, 1024, 1024, 1024, 1024, 0, 6, 3738, 3749, 3767, 3779, 3806, 3759, 0, 1, 8700, -89.900, 0.000, -43.500, 0.000, 0.000, -3.100, 0.0, , , , , , 95, , , 45, 45, 45
38.5270940, -120.3542962, 8.700, 12:01:38.157, 9, 0.00, 1.11, 97, 0.000, 0.000, -42.700, 1126, 100, 100, 23, 22538, -25613, 5141, 5301, 21, 14, 1530990098.157, 42, 0, 1024, 1024, 1024, 1024, 0, 6, 3738, 3749, 3767, 3779, 3806, 3759, 0, 1, 8800, -89.900, 0.000, -43.500, 0.000, 0.000, -3.100, 0.0, , , , , , 95, , , 45, 45, 45
38.5270938, -120.3542963, 9.400, 12:01:38.257, 9, 0.00, 1.14, 97, 0.000, 0.100, -42.900, 1126, 100, 100, 23, 22538, -25613, 5141, 5301, 21, 14, 1530990098.257, 8, 0, 1024, 1024, 1024, 1024, 0, 6, 3738, 3749, 3767, 3779, 3806, 3759, 0, 1, 8899, -89.900, 0.000, -43.500, 0.000, 0.000, -3.100, 0.0, , , , , , 95, , , 45, 45, 45
38.5270937, -120.3542964, 9.700, 12:01:38.357, 9, 0.00, 1.15, 97, 0.100, 0.100, -43.000, 1126, 100, 100, 23, 22538, -25613, 5141, 5301, 21, 14, 1530990098.357, 21, 0, 1024, 1024, 1024, 1024, 0, 6, 3738, 3749, 3767, 3779, 3806, 3759, 0, 1, 9000, -89.900, 0.000, -43.500, 0.000, 0.000, -3.100, 0.0, , , , , , 95, , , 45, 45, 45
38.5270937, -120.3542964, 9.700, 12:01:38.457, 9, 0.00, 1.15, 97, 0.100, 0.100, -43.000, 1126, 100, 100, 23, 22538, -25613, 5141, 5301, 21, 14, 1530990098.458, 121, 0, 1024, 1024, 1024, 1024, 0, 6, 3738, 3749, 3767, 3779, 3806, 3759, 0, 1, 9100, -89.900, 0.000, -43.500, 0.000, 0.000, -3.100, 0.0, , , , , , 95, , , 45, 45, 45
38.5270936, -120.3542967, 10.300, 12:01:38.557, 9, 0.00, 1.17, 97, 0.700, 0.200, -42.900, 1126, 100, 100, 23, 22538, -25613, 5141, 5301, 21, 14, 1530990098.557, 25, 0, 1024, 1024, 1024, 1024, 0, 6, 3738, 3749, 3767, 3779, 3806, 3759, 0, 1, 9200, -89.900, 0.000, -43.500, 0.000, 0.000, -3.100, 0.0, , , , , , 95, , , 45, 45, 45
38.5270936, -120.3542967, 10.300, 12:01:38.657, 9, 0.00, 1.17, 97, 0.700, 0.200, -42.900, 1126, 100, 100, 23, 22538, -25613, 5141, 5301, 21, 14, 1530990098.657, 125, 0, 1024, 1024, 1024, 1024, 0, 6, 3738, 3749, 3767, 3779, 3806, 3759, 0, 1, 9300, -89.900, 0.000, -43.500, 0.000, 0.000, -3.100, 0.0, , , , , , 95, , , 45, 45, 45
38.5270936, -120.3542968, 10.600, 12:01:38.757, 9, 0.00, 1.18, 97, 0.800, 0.400, -42.900, 1126, 100, 100, 23, 22877, -20259, 5141, 5301, 21, 14, 1530990098.757, 87, 0, 1024, 1024, 1024, 1024, 0, 6, 3799, 3807, 3822, 3825, 3841, 3813, 0, 1, 9400, -89.900, 0.000, -43.500, 0.000, 0.000, -3.000, 0.0, , , , , , 95, , , 45, 45, 45
38.5270936, -120.3542969, 11.000, 12:01:38.857, 9, 0.00, 1.19, 97, 0.500, 0.700, -42.800, 1126, 100, 100, 23, 22877, -20259, 5141, 5301, 21, 14, 1530990098.857, 89, 0, 1024, 1024, 1024, 1024, 0, 6, 3799, 3807, 3822, 3825, 3841, 3813, 0, 1, 9500, -89.900, 0.000, -43.500, 0.000, 0.000, -3.100, 0.0, , , , , , 95, , , 45, 45, 45
38.5270935, -120.3542971, 11.300, 12:01:38.957, 9, 0.00, 1.20, 97, 0.300, 0.900, -42.800, 1126, 100, 100, 23, 22877, -20259, 5141, 5301, 21, 14, 1530990098.957, 76, 0, 1024, 1024, 1024, 1024, 0, 6, 3799, 3807, 3822, 3825, 3841, 3813, 0, 1, 9600, -89.900, 0.000, -43.500, 0.000, 0.000, -3.000, 0.0, , , , , , 95, , , 45, 45, 45
38.5270935, -120.3542972, 11.600, 12:01:39.057, 9, 0.00, 1.22, 97, 0.300, 1.000, -42.700, 1126, 100, 100, 23, 22877, -20259, 5141, 5301, 21, 14, 1530990099.057, 83, 0, 1024, 1024, 1024, 1024, 0, 6, 3799, 3807, 3822, 3825, 3841, 3813, 0, 1, 9700, -89.900, 0.000, -43.500, 0.000, 0.000, -3.000, 0.0, , , , , , 95, , , 45, 45, 45
38.5270934, -120.3542972, 11.900, 12:01:39.157, 9, 0.00, 1.22, 97, 0.400, 0.900, -42.700, 1126, 100, 100, 23, 22877, -20259, 5141, 5301, 21, 14, 1530990099.157, 97, 0, 1024, 1024, 1024, 1024, 0, 6, 3799, 3807, 3822, 3825, 3841, 3813, 0, 1, 9800, -89.900, 0.000, -43.500, 0.000, 0.000, -3.000, 0.0, , , , , , 95, , , 45, 45, 45
38.5270933, -120.3542972, 12.200, 12:01:39.257, 9, 0.00, 1.23, 97, 0.500, 0.700, -42.500, 1126, 100, 100, 23, 22877, -20259, 5141, 5301, 21, 14, 1530990099.257, 83, 0, 1024, 1024, 1024, 1024, 0, 6, 3799, 3807, 3822, 3825, 3841, 3813, 0, 1, 9900, -89.900, 0.000, -43.500, 0.000, 0.000, -3.000, 0.0, , , , , , 95, , , 45, 45, 45
38.5270933, -120.3542973, 12.500, 12:01:39.357, 9, 0.00, 1.24, 97, 0.600, 0.500, -42.400, 1126, 100, 100, 23, 22877, -20259, 5141, 5301, 21, 14, 1530990099.357, 85, 0, 1024, 1024, 1024, 1024, 0, 6, 3799, 3807, 3822, 3825, 3841, 3813, 0, 1, 10000, -89.900, 0.000, -43.500, 0.000, 0.000, -3.000, 0.0, , , , , , 95, , , 45, 45, 45
38.5270932, -120.3542973, 12.900, 12:01:39.457, 9, 0.00, 1.24, 97, 0.700, 0.400, -42.300, 1126, 100, 100, 23, 22877, -20259, 5141, 5301, 21, 14, 1530990099.457, 82, 0, 1024, 1024, 1024, 1024, 0, 6, 3799, 3807, 3822, 3825, 3841, 3813, 0, 1, 10100, -89.900, 0.000, -43.500, 0.000, 0.000, -3.000, 0.0, , , , , , 95, , , 45, 45, 45
38.5270932, -120.3542972, 13.200, 12:01:39.557, 9, 0.00, 1.24, 97, 0.600, 0.500, -42.200, 1126, 100, 100, 23, 22877, -20259, 5141, 5301, 21, 14, 1530990099.557, 74, 0, 1024, 1024, 1024, 1024, 0, 6, 3799, 3807, 3822, 3825, 3841, 3813, 0, 1, 10200, -89.900, 0.000, -43.500, 0.000, 0.000, -2.900, 0.0, , , , , , 95, , , 45, 45, 45
38.5270932, -120.3542972, 13.500, 12:01:39.657, 9, 0.00, 1.24, 97, 0.400, 0.400, -42.200, 1126, 100, 100, 23, 22966, -19138, 5141, 5301, 21, 14, 1530990099.657, 54, 0, 1024, 1024, 1024, 1024, 0, 6, 3810, 3811, 3838, 3842, 3848, 3818, 0, 1, 10300, -90.000, 0.000, -43.500, 0.000, 0.000, -3.000, 0.0, , , , , , 95, , , 45, 45, 45
38.5270931, -120.3542971, 13.800, 12:01:39.757, 9, 0.10, 1.24, 97, 0.000, 0.400, -42.200, 1126, 100, 100, 23, 22966, -19138, 5141, 5301, 21, 14, 1530990099.757, 58, 0, 1024, 1024, 1024, 1024, 0, 6, 3810, 3811, 3838, 3842, 3848, 3818, 0, 1, 10400, -90.000, 0.000, -43.500, 0.000, 0.100, -2.900, 0.0, , , , , , 95, , , 45, 45, 45
38.5270931, -120.3542971, 14.100, 12:01:39.857, 9, 0.10, 1.24, 97, -0.100, 0.300, -42.300, 1126, 100, 100, 23, 22966, -19138, 5141, 5301, 21, 14, 1530990099.857, 49, 0, 1024, 1024, 1024, 1024, 0, 6, 3810, 3811, 3838, 3842, 3848, 3818, 0, 1, 10500, -89.900, 0.000, -43.500, 0.000, 0.100, -2.900, 0.0, , , , , , 95, , , 45, 45, 45
38.5270930, -120.3542971, 14.400, 12:01:39.957, 9, 0.00, 1.24, 97, -0.100, 0.200, -42.400, 1126, 100, 100, 23, 22966, -19138, 5141, 5301, 21, 14, 1530990099.957, 41, 0, 1024, 1024, 1024, 1024, 0, 6, 3810, 3811, 3838, 3842, 3848, 3818, 0, 1, 10600, -89.900, 0.000, -43.500, 0.000, 0.000, -2.900, 0.0, , , , , , 95, , , 45, 45, 45
38.5270930, -120.3542971, 14.700, 12:01:40.057, 10, 0.00, 1.25, 97, 0.000, 0.300, -42.400, 1126, 100, 100, 23, 22966, -19138, 5141, 5301, 21, 14, 1530990100.057, 51, 0, 1024, 1024, 1024, 1024, 0, 6, 3810, 3811, 3838, 3842, 3848, 3818, 0, 1, 10700, -89.900, 0.000, -43.500, 0.000, 0.000, -2.900, 0.0, , , , , , 95, , , 45, 45, 45
38.5270929, -120.3542970, 15.000, 12:01:40.157, 10, 0.10, 1.25, 97, 0.000, 0.200, -42.400, 1126, 100, 100, 23, 22966, -19138, 5141, 5301, 21, 14, 1530990100.158, 33, 0, 1024, 1024, 1024, 1024, 0, 6, 3810, 3811, 3838, 3842, 3848, 3818, 0, 1, 10800, -90.000, 0.000, -43.500, 0.000, 0.100, -2.900, 0.0, , , , , , 95, , , 45, 45, 45
38.5270929, -120.3542969, 15.300, 12:01:40.257, 10, 0.10, 1.24, 97, 0.000, 0.000, -42.400, 1126, 100, 99, 23, 22966, -19138, 5141, 5301, 21, 14, 1530990100.257, 47, 0, 1024, 1024, 1024, 1024, 0, 6, 3810, 3811, 3838, 3842, 3848, 3818, 0, 1, 10900, -90.000, 0.000, -43.400, 0.000, 0.100, -2.900, 0.0, , , , , , 95, , , 45, 45, 45
38.5270929, -120.3542968, 15.600, 12:01:40.357, 10, 0.10, 1.23, 97, -0.200, 0.000, -42.400, 1126, 100, 99, 23, 22966, -19138, 5141, 5301, 21, 14, 1530990100.357, 35, 0, 1024, 1024, 1024, 1024, 0, 6, 3810, 3811, 3838, 3842, 3848, 3818, 0, 1, 11000, -90.000, 0.000, -43.500, 0.000, 0.100, -2.900, 0.0, , , , , , 95, , , 45, 45, 45
38.5270929, -120.3542967, 15.800, 12:01:40.457, 10, 0.10, 1.23, 97, -0.500, 0.000, -42.400, 1126, 100, 99, 23, 22966, -19138, 5141, 5301, 21, 14, 1530990100.458, 30, 0, 1024, 1024, 1024, 1024, 0, 6, 3810, 3811, 3838, 3842, 3848, 3818, 0, 1, 11100, -90.000, 0.000, -43.500, 0.000, 0.100, -2.800, 0.0, , , , , , 95, , , 45, 45, 45
38.5270929, -120.3542966, 16.100, 12:01:40.557, 10, 0.10, 1.22, 97, -0.500, 0.200, -42.300, 1126, 100, 99, 23, 22966, -19138, 5141, 5301, 21, 14, 1530990100.557, 33, 0, 1024, 1024, 1024, 1024, 0, 6, 3810, 3811, 3838, 3842, 3848, 3818, 0, 1, 11200, -89.900, 0.000, -43.500, 0.000, 0.100, -2.800, 0.0, , , , , , 95, , , 45, 45, 45
38.5270929, -120.3542965, 16.700, 12:01:40.657, 10, 0.00, 1.21, 97, -0.600, 0.600, -42.100, 1126, 100, 99, 23, 22964, -18970, 5141, 5301, 21, 14, 1530990100.657, 33, 0, 1024, 1024, 1024, 1024, 0, 6, 3810, 3811, 3838, 3842, 3848, 3818, 0, 1, 11300, -89.900, 0.000, -43.500, 0.000, 0.000, -2.800, 0.0, , , , , , 95, , , 45, 45, 45
38.5270929, -120.3542965, 16.700, 12:01:40.757, 10, 0.00, 1.21, 97, -0.600, 0.600, -42.100, 1126, 100, 97, 23, 22964, -18970, 5141, 5301, 21, 14, 1530990100.757, 133, 0, 1024, 1024, 1024, 1024, 0, 6, 3810, 3811, 3838, 3842, 3848, 3818, 0, 1, 11400, -89.900, 0.000, -43.500, 0.000, 0.000, -2.800, 0.0, , , , , , 95, , , 45, 45, 45
38.5270929, -120.3542963, 17.300, 12:01:40.857, 10, 0.00, 1.20, 97, -0.300, 0.200, -41.900, 1126, 100, 97, 23, 22964, -18970, 5141, 5301, 21, 14, 1530990100.857, 7, 0, 1024, 1024, 1024, 1024, 0, 6, 3810, 3811, 3838, 3842, 3848, 3818, 0, 1, 11500, -89.900, 0.000, -43.500, 0.000, 0.000, -3.000, 0.0, , , , , , 95, , , 45, 45, 45
38.5270929, -120.3542963, 17.300, 12:01:40.957, 10, 0.00, 1.20, 97, -0.300, 0.200, -41.900, 1126, 100, 97, 23, 22964, -18970, 5141, 5301, 21, 14, 1530990100.957, 107, 0, 1024, 1024, 1024, 1024, 0, 6, 3810, 3811, 3838, 3842, 3848, 3818, 0, 1, 11600, -89.900, 0.000, -43.500, 0.000, 0.000, -3.000, 0.0, , , , , , 95, , , 45, 45, 45
38.5270929, -120.3542961, 17.900, 12:01:41.057, 10, 0.00, 1.19, 97, -0.300, 0.000, -42.000, 1126, 100, 97, 23, 22964, -18970, 5141, 5301, 21, 14, 1530990101.057, 33, 0, 1024, 1024, 1024, 1024, 0, 6, 3810, 3811, 3838, 3842, 3848, 3818, 0, 1, 11700, -90.000, 0.000, -43.500, 0.000, 0.000, -3.000, 0.0, , , , , , 95, , , 45, 45, 45
38.5270929, -120.3542961, 17.900, 12:01:41.157, 10, 0.00, 1.19, 97, -0.300, 0.000, -42.000, 1126, 100, 97, 23, 22964, -18970, 5141, 5301, 21, 14, 1530990101.157, 133, 0, 1024, 1024, 1024, 1024, 0, 6, 3810, 3811, 3838, 3842, 3848, 3818, 0, 1, 11800, -90.000, 0.000, -43.500, 0.000, 0.000, -3.000, 0.0, , , , , , 95, , , 45, 45, 45
38.5270929, -120.3542960, 18.200, 12:01:41.257, 12, 0.00, 1.18, 97, -0.600, 0.000, -42.200, 1126, 100, 97, 23, 22964, -18970, 5141, 5301, 21, 14, 1530990101.258, 98, 0, 1024, 1024, 1024, 1024, 0, 6, 3810, 3811, 3838, 3842, 3848, 3818, 0, 1, 11900, -90.000, 0.000, -43.500, 0.000, 0.000, -3.000, 0.0, , , , , , 95, , , 45, 45, 45
38.5270930, -120.3542959, 18.800, 12:01:41.371, 10, 0.00, 1.17, 97, -0.900, 0.000, -42.600, 1126, 100, 94, 23, 22964, -18970, 5141, 5301, 21, 14, 1530990101.371, 6, 0, 1024, 1024, 1024, 1024, 0, 6, 3810, 3811, 3838, 3842, 3848, 3818, 0, 1, 12014, -89.900, 0.000, -43.500, 0.000, 0.000, -3.000, 0.0, , , , , , 95, , , 45, 45, 45
38.5270930, -120.3542959, 19.100, 12:01:41.457, 10, 0.00, 1.17, 97, -0.800, 0.400, -42.700, 1126, 100, 94, 23, 22964, -18970, 5141, 5301, 21, 14, 1530990101.457, 7, 0, 1024, 1024, 1024, 1024, 0, 6, 3810, 3811, 3838, 3842, 3848, 3818, 0, 1, 12100, -89.900, 0.000, -43.500, 0.000, 0.000, -2.900, 0.0, , , , , , 95, , , 45, 45, 45
38.5270930, -120.3542959, 19.100, 12:01:41.557, 10, 0.00, 1.17, 97, -0.800, 0.400, -42.700, 1126, 100, 94, 23, 22964, -18970, 5141, 5301, 21, 14, 1530990101.557, 107, 0, 1024, 1024, 1024, 1024, 0, 6, 3810, 3811, 3838, 3842, 3848, 3818, 0, 1, 12200, -89.900, 0.000, -43.500, 0.000, 0.000, -2.900, 0.0, , , , , , 95, , , 45, 45, 45
38.5270931, -120.3542959, 19.400, 12:01:41.657, 11, 0.00, 1.17, 97, -0.500, 0.400, -42.800, 1126, 100, 94, 23, 22964, -18970, 5141, 5301, 21, 14, 1530990101.657, 73, 0, 1024, 1024, 1024, 1024, 0, 6, 3813, 3807, 3834, 3840, 3851, 3812, 0, 1, 12300, -89.900, 0.000, -43.500, 0.000, 0.000, -2.900, 0.0, , , , , , 95, , , 45, 45, 45
38.5270931, -120.3542959, 19.700, 12:01:41.757, 11, 0.00, 1.16, 97, -0.300, 0.500, -42.800, 1126, 100, 95, 23, 22964, -18970, 5141, 5301, 21, 14, 1530990101.757, 87, 0, 1024, 1024, 1024, 1024, 0, 6, 3813, 3807, 3834, 3840, 3851, 3812, 0, 1, 12400, -89.900, 0.000, -43.500, 0.000, 0.000, -2.900, 0.0, , , , , , 95, , , 45, 45, 45
38.5270931, -120.3542958, 20.000, 12:01:41.857, 11, 0.00, 1.15, 97, -0.300, 0.400, -42.800, 1126, 100, 95, 23, 22964, -18970, 5141, 5301, 21, 14, 1530990101.857, 77, 0, 1024, 1024, 1024, 1024, 0, 6, 3813, 3807, 3834, 3840, 3851, 3812, 0, 1, 12500, -89.900, 0.000, -43.500, 0.000, 0.000, -2.900, 0.0, , , , , , 95, , , 45, 45, 45
38.5270931, -120.3542958, 20.300, 12:01:41.957, 11, 0.00, 1.15, 97, -0.200, 0.400, -42.800, 1126, 100, 95, 23, 22964, -18970, 5141, 5301, 21, 14, 1530990101.957, 83, 0, 1024, 1024, 1024, 1024, 0, 6, 3813, 3807, 3834, 3840, 3851, 3812, 0, 1, 12600, -89.900, 0.000, -43.500, 0.000, 0.000, -2.900, 0.0, , , , , , 95, , , 45, 45, 45
38.5270932, -120.3542958, 20.500, 12:01:42.057, 11, 0.00, 1.15, 97, 0.000, 0.500, -42.700, 1126, 100, 95, 23, 22964, -18970, 5141, 5301, 21, 14, 1530990102.057, 77, 0, 1024, 1024, 1024, 1024, 0, 6, 3813, 3807, 3834, 3840, 3851, 3812, 0, 1, 12700, -89.900, 0.000, -43.500, 0.000, 0.000, -2.900, 0.0, , , , , , 95, , , 45, 45, 45
38.5270932, -120.3542958, 20.800, 12:01:42.157, 11, 0.00, 1.15, 97, 0.000, 0.700, -42.600, 1126, 100, 95, 23, 22828, -19772, 5141, 5301, 21, 14, 1530990102.157, 67, 0, 1024, 1024, 1024, 1024, 0, 6, 3785, 3791, 3805, 3823, 3834, 3800, 0, 1, 12800, -89.900, 0.000, -43.500, 0.000, 0.000, -2.900, 0.0, , , , , , 95, , , 45, 45, 45
38.5270932, -120.3542958, 20.800, 12:01:42.257, 11, 0.00, 1.15, 97, 0.000, 0.700, -42.600, 1126, 100, 96, 23, 22828, -19772, 5141, 5301, 21, 14, 1530990102.257, 167, 0, 1024, 1024, 1024, 1024, 0, 6, 3785, 3791, 3805, 3823, 3834, 3800, 0, 1, 12900, -89.900, 0.000, -43.500, 0.000, 0.000, -2.900, 0.0, , , , , , 95, , , 45, 45, 45
38.5270932, -120.3542959, 21.400, 12:01:42.357, 10, 0.00, 1.15, 97, 0.000, 0.800, -42.400, 1126, 100, 96, 23, 22828, -19772, 5141, 5301, 21, 14, 1530990102.357, 55, 0, 1024, 1024, 1024, 1024, 0, 6, 3785, 3791, 3805, 3823, 3834, 3800, 0, 1, 13000, -89.900, 0.000, -43.500, 0.000, 0.000, -3.000, 0.0, , , , , , 95, , , 45, 45, 45
38.5270932, -120.3542959, 21.700, 12:01:42.457, 11, 0.00, 1.15, 97, 0.000, 0.700, -42.300, 1126, 100, 96, 23, 22828, -19772, 5141, 5301, 21, 14, 1530990102.457, 61, 0, 1024, 1024, 1024, 1024, 0, 6, 3785, 3791, 3805, 3823, 3834, 3800, 0, 1, 13100, -89.900, 0.000, -43.500, 0.000, 0.000, -3.000, 0.0, , , , , , 95, , , 45, 45, 45
38.5270933, -120.3542960, 22.100, 12:01:42.557, 11, 0.00, 1.15, 97, 0.000, 0.600, -42.300, 1126, 100, 96, 23, 22828, -19772, 5141, 5301, 21, 14, 1530990102.557, 54, 0, 1024, 1024, 1024, 1024, 0, 6, 3785, 3791, 3805, 3823, 3834, 3800, 0, 1, 13200, -89.900, 0.000, -43.500, 0.000, 0.000, -3.000, 0.0, , , , , , 95, , , 45, 45, 45
38.5270933, -120.3542960, 22.400, 12:01:42.657, 11, 0.00, 1.15, 97, 0.000, 0.600, -42.300, 1126, 100, 96, 23, 22828, -19772, 5141, 5301, 21, 14, 1530990102.657, 55, 0, 1024, 1024, 1024, 1024, 0, 6, 3785, 3791, 3805, 3823, 3834, 3800, 0, 1, 13299, -89.900, 0.000, -43.500, 0.000, 0.000, -3.000, 0.0, , , , , , 95, , , 45, 45, 45
38.5270933, -120.3542960, 22.700, 12:01:42.757, 11, 0.00, 1.15, 97, 0.000, 0.700, -42.400, 1126, 100, 99, 23, 22828, -19772, 5141, 5301, 21, 14, 1530990102.757, 62, 0, 1024, 1024, 1024, 1024, 0, 6, 3785, 3791, 3805, 3823, 3834, 3800, 0, 1, 13400, -89.900, 0.000, -43.500, 0.000, 0.000, -3.000, 0.0, , , , , , 95, , , 45, 45, 45
38.5270933, -120.3542960, 23.000, 12:01:42.857, 11, 0.00, 1.15, 97, 0.000, 0.700, -42.500, 1126, 100, 99, 23, 22828, -19772, 5141, 5301, 21, 14, 1530990102.857, 33, 0, 1024, 1024, 1024, 1024, 0, 6, 3785, 3791, 3805, 3823, 3834, 3800, 0, 1, 13500, -89.900, 0.000, -43.500, 0.000, 0.000, -2.900, 0.0, , , , , , 95, , , 45, 45, 45
38.5270934, -120.3542960, 23.300, 12:01:42.957, 11, 0.00, 1.14, 97, 0.000, 0.800, -42.600, 1126, 100, 99, 23, 22828, -19772, 5141, 5301, 21, 14, 1530990102.957, 35, 0, 1024, 1024, 1024, 1024, 0, 6, 3785, 3791, 3805, 3823, 3834, 3800, 0, 1, 13600, -89.900, 0.000, -43.500, 0.000, 0.000, -2.900, 0.0, , , , , , 95, , , 45, 45, 45
38.5270934, -120.3542961, 23.900, 12:01:43.057, 11, 0.00, 1.15, 97, -0.100, 0.900, -42.600, 1126, 100, 99, 23, 22828, -19772, 5141, 5301, 21, 14, 1530990103.057, 40, 0, 1024, 1024, 1024, 1024, 0, 6, 3785, 3791, 3805, 3823, 3834, 3800, 0, 1, 13700, -89.900, 0.000, -43.500, 0.000, 0.000, -2.900, 0.0, , , , , , 95, , , 45, 45, 45
38.5270933, -120.3542961, 24.200, 12:01:43.157, 11, 0.00, 1.16, 97, 0.100, 0.900, -42.600, 1126, 100, 99, 23, 22821, -19574, 5141, 5301, 21, 14, 1530990103.157, 28, 0, 1024, 1024, 1024, 1024, 0, 6, 3787, 3784, 3802, 3813, 3827, 3795, 0, 1, 13800, -89.900, 0.000, -43.500, 0.000, 0.000, -2.900, 0.0, , , , , , 95, , , 45, 45, 45
38.5270933, -120.3542961, 24.500, 12:01:43.257, 11, 0.00, 1.16, 97, 0.300, 0.800, -42.600, 1126, 100, 98, 23, 22821, -19574, 5141, 5301, 21, 14, 1530990103.257, 32, 0, 1024, 1024, 1024, 1024, 0, 6, 3787, 3784, 3802, 3813, 3827, 3795, 0, 1, 13900, -89.900, 0.000, -43.500, 0.000, 0.000, -2.900, 0.0, , , , , , 95, , , 45, 45, 45
38.5270933, -120.3542961, 24.800, 12:01:43.357, 11, 0.00, 1.16, 97, 0.400, 0.800, -42.500, 1126, 100, 98, 23, 22821, -19574, 5141, 5301, 21, 14, 1530990103.357, 23, 0, 1024, 1024, 1024, 1024, 0, 6, 3787, 3784, 3802, 3813, 3827, 3795, 0, 1, 14000, -89.900, 0.000, -43.500, 0.000, 0.000, -2.900, 0.0, , , , , , 95, , , 45, 45, 45
38.5270933, -120.3542961, 25.100, 12:01:43.467, 11, 0.00, 1.16, 97, 0.400, 0.600, -42.400, 1126, 100, 98, 23, 22821, -19574, 5141, 5301, 21, 14, 1530990103.467, 2, 0, 1024, 1024, 1024, 1024, 0, 6, 3787, 3784, 3802, 3813, 3827, 3795, 0, 1, 14110, -89.900, 0.000, -43.500, 0.000, 0.000, -3.000, 0.0, , , , , , 95, , , 45, 45, 45
38.5270933, -120.3542961, 25.400, 12:01:43.557, 12, 0.00, 1.16, 97, 0.300, 0.300, -42.200, 1126, 100, 98, 23, 22821, -19574, 5141, 5301, 21, 14, 1530990103.557, 9, 0, 1024, 1024, 1024, 1024, 0, 6, 3787, 3784, 3802, 3813, 3827, 3795, 0, 1, 14200, -90.000, 0.000, -43.500, 0.000, 0.000, -3.000, 0.0, , , , , , 95, , , 45, 45, 45
38.5270933, -120.3542961, 25.400, 12:01:43.657, 12, 0.00, 1.16, 97, 0.300, 0.300, -42.200, 1126, 100, 98, 23, 22821, -19574, 5141, 5301, 21, 14, 1530990103.657, 109, 0, 1024, 1024, 1024, 1024, 0, 6, 3787, 3784, 3802, 3813, 3827, 3795, 0, 1, 14300, -90.000, 0.000, -43.500, 0.000, 0.000, -3.000, 0.0, , , , , , 95, , , 45, 45, 45
38.5270933, -120.3542960, 25.700, 12:01:43.757, 12, 0.00, 1.15, 97, 0.100, 0.200, -42.100, 1126, 100, 97, 23, 22821, -19574, 5141, 5301, 21, 14, 1530990103.757, 92, 0, 1024, 1024, 1024, 1024, 0, 6, 3787, 3784, 3802, 3813, 3827, 3795, 0, 1, 14400, -90.000, 0.000, -43.500, 0.000, 0.000, -3.000, 0.0, , , , , , 95, , , 45, 45, 45
38.5270933, -120.3542960, 25.700, 12:01:43.857, 12, 0.00, 1.15, 97, 0.100, 0.200, -42.100, 1126, 100, 97, 23, 22821, -19574, 5141, 5301, 21, 14, 1530990103.857, 192, 0, 1024, 1024, 1024, 1024, 0, 6, 3787, 3784, 3802, 3813, 3827, 3795, 0, 1, 14499, -90.000, 0.000, -43.500, 0.000, 0.000, -3.000, 0.0, , , , , , 95, , , 45, 45, 45
38.5270934, -120.3542960, 26.400, 12:01:43.957, 12, 0.00, 1.14, 97, -1.100, -0.100, -42.400, 1126, 100, 97, 23, 22821, -19574, 5141, 5301, 21, 14, 1530990103.957, 96, 0, 1024, 1024, 1024, 1024, 0, 6, 3787, 3784, 3802, 3813, 3827, 3795, 0, 1, 14600, -89.900, 0.000, -43.500, 0.000, 0.000, -3.000, 0.0, , , , , , 95, , , 45, 45, 45
38.5270935, -120.3542960, 26.700, 12:01:44.057, 11, 0.00, 1.14, 97, -1.300, 0.100, -42.600, 1126, 100, 97, 23, 22821, -19574, 5141, 5301, 21, 14, 1530990104.057, 77, 0, 1024, 1024, 1024, 1024, 0, 6, 3787, 3784, 3802, 3813, 3827, 3795, 0, 1, 14700, -89.900, 0.000, -43.500, 0.000, 0.000, -2.900, 0.0, , , , , , 95, , , 45, 45, 45
38.5270935, -120.3542960, 26.700, 12:01:44.157, 11, 0.00, 1.14, 97, -1.300, 0.100, -42.600, 1126, 100, 97, 23, 22786, -19528, 5088, 5301, 21, 14, 1530990104.157, 177, 0, 1024, 1024, 1024, 1024, 0, 6, 3787, 3784, 3802, 3813, 3827, 3795, 0, 1, 14800, -89.900, 0.000, -43.400, 0.000, 0.000, -2.900, 0.0, , , , , , 95, , , 45, 45, 45
38.5270937, -120.3542959, 27.300, 12:01:44.257, 11, 0.00, 1.12, 97, -1.100, 1.300, -42.400, 1126, 100, 95, 23, 22786, -19528, 5088, 5301, 21, 14, 1530990104.257, 63, 0, 1024, 1024, 1024, 1024, 0, 6, 3780, 3786, 3803, 3809, 3809, 3793, 0, 1, 14900, -89.900, 0.000, -43.400, 0.000, 0.000, -2.800, 0.0, , , , , , 95, , , 45, 45, 45
38.5270938, -120.3542959, 27.500, 12:01:44.357, 11, 0.00, 1.11, 97, -1.100, 1.300, -42.300, 1126, 100, 95, 23, 22786, -19528, 5088, 5301, 21, 14, 1530990104.357, 82, 0, 1024, 1024, 1024, 1024, 0, 6, 3780, 3786, 3803, 3809, 3809, 3793, 0, 1, 15000, -89.900, 0.000, -43.400, 0.000, 0.000, -2.900, 0.0, , , , , , 95, , , 45, 45, 45
38.5270939, -120.3542958, 27.900, 12:01:44.457, 12, 0.10, 1.10, 97, -1.400, 1.400, -42.300, 1126, 100, 95, 23, 22786, -19528, 5088, 5301, 21, 14, 1530990104.457, 62, 0, 1024, 1024, 1024, 1024, 0, 6, 3780, 3786, 3803, 3809, 3809, 3793, 0, 1, 15100, -89.900, 0.000, -43.400, 0.000, 0.100, -2.900, 0.0, , , , , , 95, , , 45, 45, 45
38.5270939, -120.3542958, 28.200, 12:01:44.557, 12, 0.10, 1.09, 97, -2.000, 1.200, -42.400, 1126, 100, 95, 23, 22786, -19528, 5088, 5301, 21, 14, 1530990104.557, 67, 0, 1024, 1024, 1024, 1024, 0, 6, 3780, 3786, 3803, 3809, 3809, 3793, 0, 1, 15200, -89.900, 0.000, -43.400, 0.000, 0.100, -2.900, 0.0, , , , , , 95, , , 45, 45, 45
38.5270940, -120.3542957, 28.500, 12:01:44.657, 12, 0.10, 1.08, 96, -2.400, 1.000, -42.500, 1126, 100, 95, 23, 22786, -19528, 5088, 5301, 21, 14, 1530990104.657, 74, 0, 1024, 1024, 1024, 1024, 0, 6, 3780, 3786, 3803, 3809, 3809, 3793, 0, 1, 15300, -89.900, 0.000, -43.400, 0.000, 0.100, -2.900, 0.0, , , , , , 95, , , 45, 45, 45
38.5270940, -120.3542956, 28.800, 12:01:44.757, 12, 0.10, 1.07, 96, -2.700, 0.800, -42.600, 1126, 100, 96, 23, 22786, -19528, 5088, 5301, 21, 14, 1530990104.757, 44, 0, 1024, 1024, 1024, 1024, 0, 6, 3780, 3786, 3803, 3809, 3809, 3793, 0, 1, 15400, -89.900, 0.000, -43.400, 0.000, 0.100, -2.800, 0.0, , , , , , 95, , , 45, 45, 45
38.5270940, -120.3542955, 29.100, 12:01:44.857, 12, 0.10, 1.07, 96, -2.800, 0.600, -42.600, 1126, 100, 96, 23, 22786, -19528, 5088, 5301, 21, 14, 1530990104.857, 55, 0, 1024, 1024, 1024, 1024, 0, 6, 3780, 3786, 3803, 3809, 3809, 3793, 0, 1, 15500, -89.900, 0.000, -43.400, 0.000, 0.100, -2.900, 0.0, , , , , , 95, , , 45, 45, 45
38.5270941, -120.3542955, 29.400, 12:01:44.957, 12, 0.00, 1.06, 96, -2.600, 0.400, -42.600, 1126, 100, 96, 23, 22786, -19528, 5088, 5301, 21, 14, 1530990104.957, 56, 0, 1024, 1024, 1024, 1024, 0, 6, 3780, 3786, 3803, 3809, 3809, 3793, 0, 1, 15600, -90.000, 0.000, -43.400, 0.000, 0.000, -2.900, 0.0, , , , , , 95, , , 45, 45, 45
38.5270941, -120.3542955, 29.700, 12:01:45.057, 12, 0.00, 1.06, 96, -2.000, -0.200, -42.700, 1126, 100, 96, 23, 22786, -19528, 5088, 5301, 21, 14, 1530990105.057, 37, 0, 1024, 1024, 1024, 1024, 0, 6, 3780, 3786, 3803, 3809, 3809, 3793, 0, 1, 15700, -90.000, 0.000, -43.400, 0.000, 0.000, -2.900, 0.0, , , , , , 95, , , 45, 45, 45
38.5270941, -120.3542955, 30.000, 12:01:45.157, 12, 0.00, 1.06, 96, -1.700, 0.000, -42.800, 1126, 100, 96, 23, 22819, -19543, 5088, 5301, 21, 14, 1530990105.157, 50, 0, 1024, 1024, 1024, 1024, 0, 6, 3793, 3789, 3800, 3817, 3808, 3785, 0, 1, 15800, -89.900, 0.000, -43.400, 0.000, 0.000, -2.900, 0.0, , , , , , 95, , , 45, 45, 45
38.5270941, -120.3542955, 30.200, 12:01:45.257, 12, 0.00, 1.06, 96, -1.600, 0.200, -42.900, 1126, 100, 96, 23, 22819, -19543, 5088, 5301, 21, 14, 1530990105.257, 28, 0, 1024, 1024, 1024, 1024, 0, 6, 3793, 3789, 3800, 3817, 3808, 3785, 0, 1, 15900, -89.900, 0.000, -43.500, 0.000, 0.000, -2.800, 0.0, , , , , , 95, , , 45, 45, 45
38.5270941, -120.3542955, 30.500, 12:01:45.357, 12, 0.00, 1.05, 96, -1.500, 0.500, -43.000, 1126, 100, 96, 23, 22819, -19543, 5088, 5301, 21, 14, 1530990105.358, 33, 0, 1024, 1024, 1024, 1024, 0, 6, 3793, 3789, 3800, 3817, 3808, 3785, 0, 1, 16000, -89.900, 0.000, -43.400, 0.000, 0.000, -2.900, 0.0, , , , , , 95, , , 45, 45, 45
38.5270942, -120.3542955, 31.100, 12:01:45.457, 12, 0.00, 1.06, 96, -1.800, 0.500, -43.200, 1126, 100, 96, 23, 22819, -19543, 5088, 5301, 21, 14, 1530990105.457, 19, 0, 1024, 1024, 1024, 1024, 0, 6, 3793, 3789, 3800, 3817, 3808, 3785, 0, 1, 16100, -89.900, 0.000, -43.400, 0.000, 0.000, -2.800, 0.0, , , , , , 95, , , 45, 45, 45
38.5270942, -120.3542955, 31.100, 12:01:45.557, 12, 0.00, 1.06, 96, -1.800, 0.500, -43.200, 1126, 100, 96, 23, 22819, -19543, 5088, 5301, 21, 14, 1530990105.557, 119, 0, 1024, 1024, 1024, 1024, 0, 6, 3793, 3789, 3800, 3817, 3808, 3785, 0, 1, 16200, -89.900, 0.000, -43.400, 0.000, 0.000, -2.800, 0.0, , , , , , 95, , , 45, 45, 45
38.5270942, -120.3542956, 31.700, 12:01:45.657, 12, 0.00, 1.06, 96, -1.800, 0.600, -43.000, 1126, 100, 96, 23, 22819, -19543, 5088, 5301, 21, 14, 1530990105.657, 17, 0, 1024, 1024, 1024, 1024, 0, 6, 3793, 3789, 3800, 3817, 3808, 3785, 0, 1, 16300, -89.900, 0.000, -43.400, 0.000, 0.000, -2.900, 0.0, , , , , , 95, , , 45, 45, 45
38.5270941, -120.3542956, 32.000, 12:01:45.757, 12, 0.00, 1.06, 96, -1.500, 0.700, -42.700, 1126, 100, 99, 23, 22819, -19543, 5088, 5301, 21, 14, 1530990105.757, 23, 0, 1024, 1024, 1024, 1024, 0, 6, 3793, 3789, 3800, 3817, 3808, 3785, 0, 1, 16400, -89.900, 0.000, -43.400, 0.000, 0.000, -2.900, 0.0, , , , , , 95, , , 45, 45, 45
38.5270941, -120.3542956, 32.000, 12:01:45.857, 12, 0.00, 1.06, 96, -1.500, 0.700, -42.700, 1126, 100, 99, 23, 22819, -19543, 5088, 5301, 21, 14, 1530990105.857, 123, 0, 1024, 1024, 1024, 1024, 0, 6, 3793, 3789, 3800, 3817, 3808, 3785, 0, 1, 16500, -89.900, 0.000, -43.400, 0.000, 0.000, -2.900, 0.0, , , , , , 95, , , 45, 45, 45
38.5270941, -120.3542956, 32.300, 12:01:45.957, 12, 0.00, 1.06, 96, -1.400, 0.800, -42.400, 1126, 100, 99, 23, 22819, -19543, 5088, 5301, 21, 14, 1530990105.957, 87, 0, 1024, 1024, 1024, 1024, 0, 6, 3793, 3789, 3800, 3817, 3808, 3785, 0, 1, 16600, -89.900, 0.000, -43.400, 0.000, 0.000, -3.000, 0.0, , , , , , 95, , , 45, 45, 45
38.5270941, -120.3542957, 32.900, 12:01:46.057, 12, 0.00, 1.07, 96, -1.300, 0.400, -42.000, 1126, 100, 99, 24, 22686, -20469, 5088, 5301, 21, 14, 1530990106.057, 5, 0, 1024, 1024, 1024, 1024, 0, 6, 3793, 3789, 3800, 3817, 3808, 3785, 0, 1, 16699, -89.900, 0.000, -43.400, 0.000, 0.000, -3.000, 0.0, , , , , , 95, , , 45, 45, 45
38.5270940, -120.3542957, 33.200, 12:01:46.157, 13, 0.00, 1.08, 96, -1.300, 0.400, -41.900, 1126, 100, 95, 24, 22686, -20469, 5088, 5301, 21, 14, 1530990106.157, 11, 0, 1024, 1024, 1024, 1024, 0, 6, 3793, 3789, 3800, 3817, 3808, 3785, 0, 1, 16799, -89.900, 0.000, -43.400, 0.000, 0.000, -3.000, 0.0, , , , , , 95, , , 45, 45, 45
38.5270940, -120.3542957, 33.500, 12:01:46.257, 13, 0.00, 1.08, 96, -1.400, 0.300, -41.800, 1126, 100, 95, 24, 22686, -20469, 5088, 5301, 21, 14, 1530990106.257, 3, 0, 1024, 1024, 1024, 1024, 0, 6, 3793, 3789, 3800, 3817, 3808, 3785, 0, 1, 16899, -89.900, 0.000, -43.400, 0.000, 0.000, -3.000, 0.0, , , , , , 95, , , 45, 45, 45
38.5270940, -120.3542957, 33.500, 12:01:46.357, 13, 0.00, 1.08, 96, -1.400, 0.300, -41.800, 1126, 100, 95, 24, 22686, -20469, 5088, 5301, 21, 14, 1530990106.357, 103, 0, 1024, 1024, 1024, 1024, 0, 6, 3793, 3789, 3800, 3817, 3808, 3785, 0, 1, 17000, -89.900, 0.000, -43.400, 0.000, 0.000, -3.000, 0.0, , , , , , 95, , , 45, 45, 45
38.5270939, -120.3542957, 33.800, 12:01:46.457, 13, 0.00, 1.09, 96, -1.600, 0.300, -41.900, 1126, 100, 95, 24, 22686, -20469, 5088, 5301, 21, 14, 1530990106.457, 74, 0, 1024, 1024, 1024, 1024, 0, 6, 3793, 3789, 3800, 3817, 3808, 3785, 0, 1, 17099, -89.900, 0.000, -43.400, 0.000, 0.000, -3.000, 0.0, , , , , , 95, , , 45, 45, 45
38.5270939, -120.3542957, 34.100, 12:01:46.557, 13, 0.00, 1.09, 96, -1.500, 0.200, -42.000, 1126, 100, 95, 24, 22686, -20469, 5088, 5301, 21, 14, 1530990106.557, 78, 0, 1024, 1024, 1024, 1024, 0, 6, 3793, 3789, 3800, 3817, 3808, 3785, 0, 1, 17200, -89.900, 0.000, -43.400, 0.000, 0.000, -3.000, 0.0, , , , , , 95, , , 45, 45, 45
38.5270938, -120.3542957, 34.400, 12:01:46.657, 13, 0.00, 1.09, 96, -1.500, 0.100, -42.200, 1126, 100, 95, 24, 22686, -20469, 5088, 5301, 21, 14, 1530990106.657, 82, 0, 1024, 1024, 1024, 1024, 0, 6, 3774, 3765, 3777, 3798, 3806, 3767, 0, 1, 17300, -89.900, 0.000, -43.400, 0.000, 0.000, -2.900, 0.0, , , , , , 95, , , 45, 45, 45
38.5270938, -120.3542957, 34.700, 12:01:46.757, 13, 0.00, 1.10, 96, -1.300, 0.000, -42.300, 1126, 100, 96, 24, 22686, -20469, 5088, 5301, 21, 14, 1530990106.757, 62, 0, 1024, 1024, 1024, 1024, 0, 6, 3774, 3765, 3777, 3798, 3806, 3767, 0, 1, 17399, -90.000, 0.000, -43.400, 0.000, 0.000, -2.900, 0.0, , , , , , 95, , , 45, 45, 45
38.5270938, -120.3542957, 35.000, 12:01:46.857, 13, 0.00, 1.10, 96, -1.100, 0.000, -42.400, 1126, 100, 96, 24, 22686, -20469, 5088, 5301, 21, 14, 1530990106.857, 77, 0, 1024, 1024, 1024, 1024, 0, 6, 3774, 3765, 3777, 3798, 3806, 3767, 0, 1, 17499, -89.900, 0.000, -43.400, 0.000, 0.000, -2.900, 0.0, , , , , , 95, , , 45, 45, 45
38.5270938, -120.3542957, 35.300, 12:01:46.957, 13, 0.00, 1.10, 96, -1.300, 0.100, -42.600, 1126, 100, 96, 24, 22686, -20469, 5088, 5301, 21, 14, 1530990106.957, 46, 0, 1024, 1024, 1024, 1024, 0, 6, 3774, 3765, 3777, 3798, 3806, 3767, 0, 1, 17599, -89.900, 0.000, -43.400, 0.000, 0.000, -2.900, 0.0, , , , , , 95, , , 45, 45, 45
38.5270938, -120.3542958, 35.600, 12:01:47.057, 14, 0.00, 1.10, 96, -1.400, 0.300, -42.600, 1126, 100, 96, 24, 22686, -20469, 5088, 5301, 21, 14, 1530990107.057, 53, 0, 1024, 1024, 1024, 1024, 0, 6, 3774, 3765, 3777, 3798, 3806, 3767, 0, 1, 17699, -89.900, 0.000, -43.400, 0.000, 0.000, -2.900, 0.0, , , , , , 95, , , 45, 45, 45
38.5270938, -120.3542958, 35.800, 12:01:47.157, 14, 0.00, 1.10, 96, -1.400, 0.400, -42.700, 1126, 100, 96, 24, 22686, -20469, 5088, 5301, 21, 14, 1530990107.157, 47, 0, 1024, 1024, 1024, 1024, 0, 6, 3774, 3765, 3777, 3798, 3806, 3767, 0, 1, 17799, -89.900, 0.000, -43.400, 0.000, 0.000, -2.900, 0.0, , , , , , 95, , , 45, 45, 45
38.5270937, -120.3542958, 36.100, 12:01:47.257, 14, 0.00, 1.11, 96, -1.400, 0.500, -42.700, 1126, 100, 96, 24, 22686, -20469, 5088, 5301, 21, 14, 1530990107.257, 48, 0, 1024, 1024, 1024, 1024, 0, 6, 3774, 3765, 3777, 3798, 3806, 3767, 0, 1, 17899, -89.900, 0.000, -43.400, 0.000, 0.000, -2.900, 0.0, , , , , , 95, , , 45, 45, 45
38.5270938, -120.3542958, 36.400, 12:01:47.357, 14, 0.00, 1.10, 96, -1.600, 0.600, -42.700, 1126, 100, 96, 24, 22686, -20469, 5088, 5301, 21, 14, 1530990107.357, 43, 0, 1024, 1024, 1024, 1024, 0, 6, 3774, 3765, 3777, 3798, 3806, 3767, 0, 1, 17999, -89.900, 0.000, -43.400, 0.000, 0.000, -2.900, 0.0, , , , , , 95, , , 45, 45, 45
38.5270938, -120.3542958, 36.700, 12:01:47.457, 13, 0.00, 1.10, 96, -1.800, 0.600, -42.700, 1126, 100, 96, 24, 22686, -20469, 5088, 5301, 21, 14, 1530990107.457, 56, 0, 1024, 1024, 1024, 1024, 0, 6, 3774, 3765, 3777, 3798, 3806, 3767, 0, 1, 18099, -89.900, 0.000, -43.400, 0.000, 0.000, -3.000, 0.0, , , , , , 95, , , 45, 45, 45
38.5270938, -120.3542958, 37.000, 12:01:47.557, 13, 0.00, 1.10, 96, -2.100, 0.400, -42.700, 1126, 100, 96, 24, 22686, -20469, 5088, 5301, 21, 14, 1530990107.557, 44, 0, 1024, 1024, 1024, 1024, 0, 6, 3774, 3765, 3777, 3798, 3806, 3767, 0, 1, 18200, -89.900, 0.000, -43.400, 0.000, 0.000, -3.000, 0.0, , , , , , 95, , , 45, 45, 45
38.5270937, -120.3542958, 37.600, 12:01:47.656, 13, 0.00, 1.11, 96, -1.900, 0.300, -42.700, 1126, 100, 96, 24, 22637, -20396, 5088, 5301, 21, 14, 1530990107.656, 9, 0, 1024, 1024, 1024, 1024, 0, 6, 3756, 3756, 3774, 3781, 3794, 3776, 0, 1, 18299, -89.900, 0.000, -43.400, 0.000, 0.000, -3.000, 0.0, , , , , , 95, , , 45, 45, 45
38.5270937, -120.3542958, 37.600, 12:01:47.757, 13, 0.00, 1.11, 96, -1.900, 0.300, -42.700, 1126, 100, 100, 24, 22637, -20396, 5088, 5301, 21, 14, 1530990107.757, 110, 0, 1024, 1024, 1024, 1024, 0, 6, 3756, 3756, 3774, 3781, 3794, 3776, 0, 1, 18399, -89.900, 0.000, -43.400, 0.000, 0.000, -3.000, 0.0, , , , , , 95, , , 45, 45, 45
38.5270937, -120.3542958, 38.200, 12:01:47.857, 14, 0.00, 1.11, 96, -1.300, 0.200, -42.400, 1126, 100, 100, 24, 22637, -20396, 5088, 5301, 21, 14, 1530990107.857, 18, 0, 1024, 1024, 1024, 1024, 0, 6, 3756, 3756, 3774, 3781, 3794, 3776, 0, 1, 18499, -89.900, 0.000, -43.400, 0.000, 0.000, -3.000, 0.0, , , , , , 95, , , 45, 45, 45
38.5270937, -120.3542958, 38.200, 12:01:47.957, 14, 0.00, 1.11, 96, -1.300, 0.200, -42.400, 1126, 100, 100, 24, 22637, -20396, 5088, 5301, 21, 14, 1530990107.957, 118, 0, 1024, 1024, 1024, 1024, 0, 6, 3756, 3756, 3774, 3781, 3794, 3776, 0, 1, 18599, -89.900, 0.000, -43.400, 0.000, 0.000, -3.000, 0.0, , , , , , 95, , , 45, 45, 45
38.5270936, -120.3542958, 38.800, 12:01:48.057, 14, 0.00, 1.11, 96, -1.500, 0.000, -42.300, 1126, 100, 100, 24, 22637, -20396, 5088, 5301, 21, 14, 1530990108.057, 27, 0, 1024, 1024, 1024, 1024, 0, 6, 3756, 3756, 3774, 3781, 3794, 3776, 0, 1, 18699, -90.000, 0.000, -43.500, 0.000, 0.000, -3.000, 0.0, , , , , , 95, , , 45, 45, 45
38.5270936, -120.3542958, 39.100, 12:01:48.156, 14, 0.00, 1.11, 96, -1.600, 0.000, -42.300, 1126, 100, 100, 24, 22637, -20396, 5088, 5301, 21, 14, 1530990108.157, 7, 0, 1024, 1024, 1024, 1024, 0, 6, 3756, 3756, 3774, 3781, 3794, 3776, 0, 1, 18799, -89.900, 0.000, -43.400, 0.000, 0.000, -3.000, 0.0, , , , , , 95, , , 45, 45, 45
38.5270936, -120.3542957, 39.400, 12:01:48.257, 14, 0.00, 1.11, 96, -1.800, 0.200, -42.400, 1126, 100, 98, 24, 22637, -20396, 5088, 5301, 21, 14, 1530990108.257, 9, 0, 1024, 1024, 1024, 1024, 0, 6, 3756, 3756, 3774, 3781, 3794, 3776, 0, 1, 18899, -89.900, 0.000, -43.400, 0.000, 0.000, -3.000, 0.0, , , , , , 95, , , 45, 45, 45
38.5270936, -120.3542957, 39.700, 12:01:48.357, 14, 0.00, 1.11, 96, -1.600, 0.200, -42.500, 1126, 100, 98, 24, 22637, -20396, 5088, 5301, 21, 14, 1530990108.357, 23, 0, 1024, 1024, 1024, 1024, 0, 6, 3756, 3756, 3774, 3781, 3794, 3776, 0, 1, 18999, -89.900, 0.000, -43.400, 0.000, 0.000, -2.900, 0.0, , , , , , 95, , , 45, 45, 45
38.5270936, -120.3542957, 39.700, 12:01:48.457, 14, 0.00, 1.11, 96, -1.600, 0.200, -42.500, 1126, 100, 98, 24, 22637, -20396, 5088, 5301, 21, 14, 1530990108.457, 123, 0, 1024, 1024, 1024, 1024, 0, 6, 3756, 3756, 3774, 3781, 3794, 3776, 0, 1, 19099, -89.900, 0.000, -43.400, 0.000, 0.000, -2.900, 0.0, , , , , , 95, , , 45, 45, 45
38.5270937, -120.3542957, 40.000, 12:01:48.557, 14, 0.00, 1.10, 96, -1.800, 0.300, -42.400, 1126, 100, 98, 24, 22637, -20396, 5088, 5301, 21, 14, 1530990108.557, 93, 0, 1024, 1024, 1024, 1024, 0, 6, 3756, 3756, 3774, 3781, 3794, 3776, 0, 1, 19199, -89.900, 0.000, -43.400, 0.000, 0.000, -3.000, 0.0, , , , , , 95, , , 45, 45, 45
38.5270937, -120.3542956, 40.300, 12:01:48.657, 14, 0.00, 1.10, 96, -2.100, 0.300, -42.400, 1126, 100, 98, 24, 22637, -20396, 5088, 5301, 21, 14, 1530990108.657, 97, 0, 1024, 1024, 1024, 1024, 0, 6, 3756, 3756, 3774, 3781, 3794, 3776, 0, 1, 19299, -89.900, 0.000, -43.400, 0.000, 0.000, -3.000, 0.0, , , , , , 95, , , 45, 45, 45
38.5270937, -120.3542955, 40.600, 12:01:48.757, 14, 0.00, 1.09, 96, -2.300, 0.200, -42.300, 1126, 100, 98, 24, 22630, -20394, 5088, 5301, 21, 14, 1530990108.757, 90, 0, 1024, 1024, 1024, 1024, 0, 6, 3757, 3754, 3772, 3775, 3794, 3762, 0, 1, 19399, -89.900, 0.000, -43.400, 0.000, 0.000, -3.000, 0.0, , , , , , 95, , , 45, 45, 45
38.5270937, -120.3542954, 40.900, 12:01:48.857, 14, 0.10, 1.08, 96, -2.400, 0.000, -42.200, 1126, 100, 98, 24, 22630, -20394, 5088, 5301, 21, 14, 1530990108.857, 93, 0, 1024, 1024, 1024, 1024, 0, 6, 3757, 3754, 3772, 3775, 3794, 3762, 0, 1, 19499, -90.000, 0.000, -43.400, 0.000, 0.100, -2.900, 0.0, , , , , , 95, , , 45, 45, 45
38.5270938, -120.3542953, 41.200, 12:01:48.957, 14, 0.00, 1.07, 96, -2.600, 0.000, -42.100, 1126, 100, 98, 24, 22630, -20394, 5088, 5301, 21, 14, 1530990108.957, 96, 0, 1024, 1024, 1024, 1024, 0, 6, 3757, 3754, 3772, 3775, 3794, 3762, 0, 1, 19599, -90.000, 0.000, -43.400, 0.000, 0.000, -3.000, 0.0, , , , , , 95, , , 45, 45, 45
38.5270938, -120.3542953, 41.500, 12:01:49.057, 14, 0.00, 1.07, 96, -2.700, -0.100, -42.100, 1126, 100, 98, 24, 22630, -20394, 5088, 5301, 21, 14, 1530990109.057, 86, 0, 1024, 1024, 1024, 1024, 0, 6, 3757, 3754, 3772, 3775, 3794, 3762, 0, 1, 19699, -90.000, 0.000, -43.400, 0.000, 0.000, -3.000, 0.0, , , , , , 95, , , 45, 45, 45
38.5270938, -120.3542952, 41.800, 12:01:49.157, 14, 0.00, 1.06, 96, -2.600, -0.100, -42.200, 1126, 100, 98, 24, 22630, -20394, 5088, 5301, 21, 14, 1530990109.157, 93, 0, 1024, 1024, 1024, 1024, 0, 6, 3757, 3754, 3772, 3775, 3794, 3762, 0, 1, 19799, -89.900, 0.000, -43.400, 0.000, 0.000, -3.000, 0.0, , , , , , 95, , , 45, 45, 45
38.5270938, -120.3542952, 42.100, 12:01:49.257, 14, 0.00, 1.06, 96, -2.500, 0.000, -42.300, 1126, 100, 98, 24, 22630, -20394, 5088, 5301, 21, 14, 1530990109.257, 63, 0, 1024, 1024, 1024, 1024, 0, 6, 3757, 3754, 3772, 3775, 3794, 3762, 0, 1, 19899, -89.900, 0.000, -43.400, 0.000, 0.000, -3.000, 0.0, , , , , , 95, , , 45, 45, 45
38.5270939, -120.3542951, 42.400, 12:01:49.357, 14, 0.00, 1.06, 96, -2.300, 0.000, -42.300, 1126, 100, 98, 24, 22630, -20394, 5088, 5301, 21, 14, 1530990109.357, 62, 0, 1024, 1024, 1024, 1024, 0, 6, 3757, 3754, 3772, 3775, 3794, 3762, 0, 1, 19999, -89.900, 0.000, -43.400, 0.000, 0.000, -3.000, 0.0, , , , , , 95, , , 45, 45, 45
38.5270939, -120.3542951, 42.700, 12:01:49.457, 14, 0.00, 1.05, 96, -2.100, 0.100, -42.400, 1126, 100, 98, 24, 22630, -20394, 5088, 5301, 21, 14, 1530990109.457, 63, 0, 1024, 1024, 1024, 1024, 0, 6, 3757, 3754, 3772, 3775, 3794, 3762, 0, 1, 20099, -89.900, 0.000, -43.400, 0.000, 0.000, -3.000, 0.0, , , , , , 95, , , 45, 45, 45
38.5270939, -120.3542951, 43.000, 12:01:49.557, 14, 0.00, 1.05, 96, -1.900, 0.200, -42.400, 1126, 100, 98, 24, 22630, -20394, 5088, 5301, 21, 14, 1530990109.557, 55, 0, 1024, 1024, 1024, 1024, 0, 6, 3757, 3754, 3772, 3775, 3794, 3762, 0, 1, 20199, -89.900, 0.000, -43.400, 0.000, 0.000, -3.000, 0.0, , , , , , 95, , , 45, 45, 45
38.5270938, -120.3542951, 43.300, 12:01:49.657, 14, 0.00, 1.06, 96, -1.700, 0.200, -42.300, 1126, 100, 98, 24, 22616, -20083, 5088, 5301, 21, 14, 1530990109.657, 74, 0, 1024, 1024, 1024, 1024, 0, 6, 3759, 3751, 3772, 3787, 3791, 3761, 0, 1, 20299, -89.900, 0.000, -43.400, 0.000, 0.000, -3.000, 0.0, , , , , , 95, , , 45, 45, 45
38.5270938, -120.3542951, 43.600, 12:01:49.757, 14, 0.00, 1.06, 96, -1.600, 0.200, -42.300, 1126, 100, 100, 24, 22616, -20083, 5088, 5301, 21, 14, 1530990109.757, 32, 0, 1024, 1024, 1024, 1024, 0, 6, 3759, 3751, 3772, 3787, 3791, 3761, 0, 1, 20399, -89.900, 0.000, -43.400, 0.000, 0.000, -3.000, 0.0, , , , , , 95, , , 45, 45, 45
38.5270938, -120.3542951, 43.900, 12:01:49.857, 14, 0.00, 1.06, 96, -1.700, 0.100, -42.300, 1126, 100, 100, 24, 22616, -20083, 5088, 5301, 21, 14, 1530990109.857, 57, 0, 1024, 1024, 1024, 1024, 0, 6, 3759, 3751, 3772, 3787, 3791, 3761, 0, 1, 20499, -89.900, 0.000, -43.400, 0.000, 0.000, -3.000, 0.0, , , , , , 95, , , 45, 45, 45
38.5270938, -120.3542951, 44.200, 12:01:49.957, 14, 0.00, 1.06, 96, -1.900, 0.000, -42.300, 1126, 100, 100, 24, 22616, -20083, 5088, 5301, 21, 14, 1530990109.957, 37, 0, 1024, 1024, 1024, 1024, 0, 6, 3759, 3751, 3772, 3787, 3791, 3761, 0, 1, 20599, -89.900, 0.000, -43.400, 0.000, 0.000, -3.000, 0.0, , , , , , 95, , , 45, 45, 45
38.5270938, -120.3542951, 44.500, 12:01:50.057, 14, 0.00, 1.06, 96, -2.000, -0.100, -42.300, 1126, 100, 100, 24, 22616, -20083, 5088, 5301, 21, 14, 1530990110.057, 38, 0, 1024, 1024, 1024, 1024, 0, 6, 3759, 3751, 3772, 3787, 3791, 3761, 0, 1, 20699, -89.900, 0.000, -43.400, 0.000, 0.000, -3.000, 0.0, , , , , , 95, , , 45, 45, 45
38.5270938, -120.3542950, 44.800, 12:01:50.157, 14, 0.00, 1.05, 96, -2.100, -0.100, -42.400, 1126, 100, 100, 24, 22616, -20083, 5088, 5301, 21, 14, 1530990110.157, 43, 0, 1024, 1024, 1024, 1024, 0, 6, 3759, 3751, 3772, 3787, 3791, 3761, 0, 1, 20799, -89.900, 0.000, -43.400, 0.000, 0.000, -3.000, 0.0, , , , , , 95, , , 45, 45, 45
38.5270939, -120.3542949, 45.400, 12:01:50.256, 14, 0.00, 1.04, 96, -2.300, 0.100, -42.500, 1126, 100, 100, 24, 22616, -20083, 5088, 5301, 21, 14, 1530990110.257, 6, 0, 1024, 1024, 1024, 1024, 0, 6, 3759, 3751, 3772, 3787, 3791, 3761, 0, 1, 20899, -89.900, 0.000, -43.400, 0.000, 0.000, -3.000, 0.0, , , , , , 95, , , 45, 45, 45
38.5270939, -120.3542949, 45.700, 12:01:50.357, 14, 0.00, 1.04, 96, -2.400, 0.100, -42.600, 1126, 100, 100, 24, 22616, -20083, 5088, 5301, 21, 14, 1530990110.357, 33, 0, 1024, 1024, 1024, 1024, 0, 6, 3759, 3751, 3772, 3787, 3791, 3761, 0, 1, 20999, -89.900, 0.000, -43.400, 0.000, 0.000, -2.900, 0.0, , , , , , 95, , , 45, 45, 45
