latitude,longitude,altitude(feet),ascent(feet),speed(mph),distance(feet),time(millisecond),datetime(utc),satellites,gpslevel,voltage(v),max_altitude(feet),max_ascent(feet),max_speed(mph),max_distance(feet), xSpeed(mph), ySpeed(mph), zSpeed(mph), compass_heading(degrees), pitch(degrees), roll(degrees),isPhoto,isVideo,rc_elevator,rc_aileron,rc_throttle,rc_rudder,gimbal_heading(degrees),gimbal_pitch(degrees),battery_percent,voltageCell1,voltageCell2,voltageCell3,voltageCell4,voltageCell5,voltageCell6,current(A),battery_temperature(f),flycStateRaw,flycState,message
38.5271192,-120.3543223,5052.8131935142,0,0,0,3110,2018-07-07 18:05:34,12,0,0,5052.8131935142,0,0,0,0,0,0,280.2, 0.5, 0.4,1,0,1024,1024,1024,1024,279,-90,96,3.96,3.957,4.008,3.978,3.982,3.979,0,73.4,11,AutoTakeoff,DJI_0001.jpg Starting Mission from Lat/Long: 38.52711/-120.35431 Camera: Zenmuse X3 - Overlap: 90/90 - Active Connection: No
38.5271193,-120.3543222,5052.8131935142,0,0,0.046323164212,3200,2018-07-07 18:05:34,12,0,0,5052.8131935142,0,0,0.046323164212,0,0,0,280.2, 0.2, 0.2,0,0,1024,1024,1024,1024,279.1,-90,96,3.96,3.957,4.008,3.978,3.982,3.979,0,73.4,11,AutoTakeoff,
38.5271193,-120.3543221,5052.8131935142,0,0,0.067748689832,3300,2018-07-07 18:05:34,12,0,0,5052.8131935142,0,0,0.067748689832,0,0,0,280, 0, 0.1,0,0,1024,1024,1024,1024,279.1,-90,96,3.96,3.957,4.008,3.978,3.982,3.979,0,73.4,11,AutoTakeoff,
38.5271193,-120.354322,5053.1412775142,0.328084,0,0.093076774632,3400,2018-07-07 18:05:35,12,0,0,5053.1412775142,0.328084,0,0.093076774632,0,0,0,279.8, -0.2, 0,0,0,1024,1024,1024,1024,279.1,-90,96,3.96,3.957,4.008,3.978,3.982,3.979,0,73.4,11,AutoTakeoff,
38.5271194,-120.3543219,5053.1412775142,0.328084,0,0.135497379664,3500,2018-07-07 18:05:35,12,0,0,5053.1412775142,0.328084,0,0.135497379664,0,0,0,279.5, -0.4, 0,0,0,1024,1024,1024,1024,279.1,-90,96,3.96,3.957,4.008,3.978,3.982,3.979,0,73.4,11,AutoTakeoff,
38.5271194,-120.3543218,5053.1412775142,0.328084,0,0.160286422452,3600,2018-07-07 18:05:35,12,0,0,5053.1412775142,0.328084,0,0.160286422452,0,0,0,279.3, -0.5, 0,0,0,1024,1024,1024,1024,279.1,-90,96,3.96,3.957,4.008,3.978,3.982,3.979,0,73.4,11,AutoTakeoff,
38.5271195,-120.3543217,5053.4693615142,0.656168,0,0.203246069496,3700,2018-07-07 18:05:35,11,0,0,5053.4693615142,0.656168,0,0.203246069496,0,0,-0.223694,279.1, -0.4, 0,0,0,1024,1024,1024,1024,279.2,-90,96,3.96,3.957,4.008,3.978,3.982,3.979,0,73.4,11,AutoTakeoff,
38.5271195,-120.3543217,5053.7974455142,0.984252,0,0.203246069496,3800,2018-07-07 18:05:35,11,0,0,5053.7974455142,0.984252,0,0.203246069496,0,0,-0.223694,279, -0.4, -0.1,0,0,1024,1024,1024,1024,279.2,-89.9,96,3.96,3.957,4.008,3.978,3.982,3.979,0,73.4,11,AutoTakeoff,
38.5271196,-120.3543217,5053.7974455142,0.984252,0,0.225004600376,3900,2018-07-07 18:05:35,11,0,0,5053.7974455142,0.984252,0,0.225004600376,0,0,0,279, 0, -0.2,0,0,1024,1024,1024,1024,279.2,-89.9,96,3.96,3.957,4.008,3.978,3.982,3.979,0,73.4,11,AutoTakeoff,
38.5271196,-120.3543215,5054.1255295142,1.312336,0,0.270994759328,4000,2018-07-07 18:05:35,11,0,23.907,5054.1255295142,1.312336,0,0.270994759328,0,0,0,279.1, 0.1, -0.4,0,0,1024,1024,1024,1024,279.2,-90,96,3.96,3.957,4.008,3.978,3.982,3.979,16.314,73.4,11,AutoTakeoff,
38.5271197,-120.3543214,5054.1255295142,1.312336,0,0.315068579636,4100,2018-07-07 18:05:35,11,0,23.907,5054.1255295142,1.312336,0,0.315068579636,0,0,0,279.4, 0, -0.5,0,0,1024,1024,1024,1024,279.2,-90,96,3.96,3.957,4.008,3.978,3.982,3.979,16.314,73.4,11,AutoTakeoff,
38.5271197,-120.3543213,5054.4536135142,1.64042,0,0.33874344916,4200,2018-07-07 18:05:35,11,0,23.907,5054.4536135142,1.64042,0,0.33874344916,0,0,-0.223694,279.8, -0.2, -0.6,0,0,1024,1024,1024,1024,279.2,-90,96,3.96,3.957,4.008,3.978,3.982,3.979,16.314,73.4,11,AutoTakeoff,
38.5271197,-120.3543212,5054.4536135142,1.64042,0,0.36312009036,4300,2018-07-07 18:05:35,11,0,23.907,5054.4536135142,1.64042,0,0.36312009036,0,0,-0.223694,280.3, -0.3, -0.4,0,0,1024,1024,1024,1024,279.2,-90,96,3.96,3.957,4.008,3.978,3.982,3.979,16.314,73.4,11,AutoTakeoff,
38.5271197,-120.3543212,5054.7816975142,1.968504,0,0.36312009036,4400,2018-07-07 18:05:36,11,0,23.907,5054.7816975142,1.968504,0,0.36312009036,0,0,0,280.7, -0.3, -0.1,0,0,1024,1024,1024,1024,279.2,-90,96,3.96,3.957,4.008,3.978,3.982,3.979,16.314,73.4,11,AutoTakeoff,
38.5271198,-120.354321,5055.4378655142,2.624672,0,0.43081694292,4600,2018-07-07 18:05:36,11,0,23.907,5055.4378655142,2.624672,0,0.43081694292,0,0,0,281.4, -0.7, 0.1,0,0,1024,1024,1024,1024,279.2,-90,96,3.96,3.957,4.008,3.978,3.982,3.979,16.314,73.4,11,AutoTakeoff,
38.5271199,-120.3543211,5055.4378655142,2.624672,0,0.427247389,4700,2018-07-07 18:05:36,11,0,23.907,5055.4378655142,2.624672,0,0.43081694292,0,0,0,281.3, -0.7, 0,0,0,1024,1024,1024,1024,279.2,-90,96,3.96,3.957,4.008,3.978,3.982,3.979,16.314,73.4,11,AutoTakeoff,
38.5271199,-120.3543212,5055.7659495142,2.952756,0,0.4047244224,4900,2018-07-07 18:05:36,10,0,23.907,5055.7659495142,2.952756,0,0.43081694292,0,0,0,280.8, -0.2, 0,0,0,1024,1024,1024,1024,279.2,-89.9,96,3.96,3.957,4.008,3.978,3.982,3.979,16.314,73.4,14,Waypoint,
38.5271199,-120.3543212,5055.7659495142,2.952756,0,0.4047244224,5100,2018-07-07 18:05:36,9,0,23.907,5055.7659495142,2.952756,0,0.43081694292,0,0,0,280.6, 0, 0.1,0,0,1024,1024,1024,1024,279.2,-89.9,96,3.96,3.957,4.008,3.978,3.982,3.979,16.314,73.4,14,Waypoint,
38.5271199,-120.3543212,5056.0940335142,3.28084,0,0.4047244224,5200,2018-07-07 18:05:36,9,0,23.907,5056.0940335142,3.28084,0,0.43081694292,0,0,0,280.3, 0.2, 0.5,0,0,1024,1024,1024,1024,279.2,-89.9,96,3.96,3.957,4.008,3.978,3.982,3.979,16.314,73.4,14,Waypoint,
38.5271199,-120.3543213,5056.0940335142,3.28084,0,0.38300854244,5300,2018-07-07 18:05:36,10,0,23.907,5056.0940335142,3.28084,0,0.43081694292,0,0,0,280.1, 0.4, 0.5,0,0,1024,1024,1024,1024,279.2,-89.9,96,3.96,3.957,4.008,3.978,3.982,3.979,16.314,73.4,14,Waypoint,
38.52712,-120.3543214,5056.0940335142,3.28084,0,0.38882219092,5400,2018-07-07 18:05:37,10,0,23.907,5056.0940335142,3.28084,0,0.43081694292,0,0,0,279.8, 0.4, 0.3,0,0,1024,1024,1024,1024,279.2,-89.9,96,3.96,3.957,4.008,3.978,3.982,3.979,16.314,73.4,14,Waypoint,
38.52712,-120.3543215,5056.4221175142,3.608924,0,0.37058400136,5500,2018-07-07 18:05:37,12,0,23.907,5056.4221175142,3.608924,0,0.43081694292,0,0,0,279.5, 0.5, 0,0,0,1024,1024,1024,1024,279.2,-89.9,96,3.96,3.957,4.008,3.978,3.982,3.979,16.314,73.4,14,Waypoint,
38.5271199,-120.3543215,5056.4221175142,3.608924,0,0.34258859364,5600,2018-07-07 18:05:37,12,0,23.907,5056.4221175142,3.608924,0,0.43081694292,0,0,-0.223694,279.3, 0.5, -0.1,0,0,1024,1024,1024,1024,279.2,-89.9,96,3.96,3.957,4.008,3.978,3.982,3.979,16.314,73.4,14,Waypoint,
38.5271199,-120.3543216,5056.7502015142,3.937008,0,0.324262149484,5700,2018-07-07 18:05:37,11,0,23.907,5056.7502015142,3.937008,0,0.43081694292,0,0,-0.223694,279.1, 0.4, 0,0,0,1024,1024,1024,1024,279.2,-90,96,3.96,3.957,4.008,3.978,3.982,3.979,16.314,73.4,14,Waypoint,
38.52712,-120.3543216,5057.0782855142,4.265092,0,0.35371392208,5800,2018-07-07 18:05:37,11,0,23.907,5057.0782855142,4.265092,0,0.43081694292,0,0,-0.223694,279.1, 0.3, 0.1,0,0,1024,1024,1024,1024,279.2,-90,96,3.96,3.957,4.008,3.978,3.982,3.979,16.314,73.4,14,Waypoint,
38.52712,-120.3543216,5057.4063695142,4.593176,0,0.35371392208,5900,2018-07-07 18:05:37,11,0,23.907,5057.4063695142,4.593176,0,0.43081694292,0,0,-0.223694,279.1, 0.1, 0.1,0,0,1024,1024,1024,1024,279.2,-90,96,3.96,3.957,4.008,3.978,3.982,3.979,16.314,73.4,14,Waypoint,
38.52712,-120.3543216,5057.7344535142,4.92126,0,0.35371392208,6000,2018-07-07 18:05:37,11,0,23.692,5057.7344535142,4.92126,0,0.43081694292,0,0,-0.223694,279.1, 0.1, 0.1,0,0,1024,1024,1024,1024,279.2,-90,96,3.929,3.926,3.969,3.955,3.962,3.944,16.836,73.4,14,Waypoint,
38.5271201,-120.3543214,5058.3906215142,5.577428,0,0.41690946216,6100,2018-07-07 18:05:37,11,0,23.692,5058.3906215142,5.577428,0,0.43081694292,0,0,-0.447388,279.2, 0, 0.2,0,0,1024,1024,1024,1024,279.2,-90,96,3.929,3.926,3.969,3.955,3.962,3.944,16.836,73.4,14,Waypoint,
38.5271202,-120.3543212,5059.0467895142,6.233596,0,0.48134515976,6200,2018-07-07 18:05:37,11,0,23.692,5059.0467895142,6.233596,0,0.48134515976,0,0,-0.447388,279.2, -0.2, 0,0,0,1024,1024,1024,1024,279.2,-90,96,3.929,3.926,3.969,3.955,3.962,3.944,16.836,73.4,14,Waypoint,
38.5271203,-120.3543209,5059.7029575142,6.889764,0,0.56634516248,6300,2018-07-07 18:05:37,11,0,23.692,5059.7029575142,6.889764,0,0.56634516248,0,0,-0.447388,279.3, -0.7, -0.3,0,0,1024,1024,1024,1024,279.2,-90,96,3.929,3.926,3.969,3.955,3.962,3.944,16.836,73.4,14,Waypoint,
38.5271204,-120.3543205,5060.3591255142,7.545932,0,0.67501314496,6400,2018-07-07 18:05:38,11,0,23.692,5060.3591255142,7.545932,0,0.67501314496,0,0,-0.447388,279.5, -1, -0.7,0,0,1024,1024,1024,1024,279.2,-90,96,3.929,3.926,3.969,3.955,3.962,3.944,16.836,73.4,14,Waypoint,
38.5271205,-120.3543201,5061.3433775142,8.530184,0,0.78693900156,6500,2018-07-07 18:05:38,10,0,23.692,5061.3433775142,8.530184,0,0.78693900156,0,0,-0.447388,279.7, -1.3, -1,0,0,1024,1024,1024,1024,279.2,-90,96,3.929,3.926,3.969,3.955,3.962,3.944,16.836,73.4,14,Waypoint,
38.5271206,-120.3543195,5061.9995455142,9.186352,0.223694,0.94848100148,6600,2018-07-07 18:05:38,10,0,23.692,5061.9995455142,9.186352,0.223694,0.94848100148,0,0,-0.671082,280, -1.6, -1.3,0,0,1024,1024,1024,1024,279.2,-90,96,3.929,3.926,3.969,3.955,3.962,3.944,16.836,73.4,14,Waypoint,
38.5271207,-120.3543191,5062.9837975142,10.170604,0.223694,1.06477365612,6700,2018-07-07 18:05:38,10,0,23.692,5062.9837975142,10.170604,0.223694,1.06477365612,0,0,-0.671082,280.2, -2.1, -1.5,0,0,1024,1024,1024,1024,279.2,-90,96,3.929,3.926,3.969,3.955,3.962,3.944,16.836,73.4,14,Waypoint,
38.5271209,-120.3543187,5063.9680495142,11.154856,0,1.20022313552,6800,2018-07-07 18:05:38,10,0,23.692,5063.9680495142,11.154856,0.223694,1.20022313552,0,0,-0.671082,280.3, -2.6, -1.7,0,0,1024,1024,1024,1024,279.2,-90,96,3.929,3.926,3.969,3.955,3.962,3.944,16.836,73.4,14,Waypoint,
38.5271211,-120.3543184,5064.9523015142,12.139108,0,1.31136487136,6900,2018-07-07 18:05:38,13,0,23.692,5064.9523015142,12.139108,0.223694,1.31136487136,0,0,-0.671082,280.3, -2.7, -1.8,0,0,1024,1024,1024,1024,279.2,-90,96,3.929,3.926,3.969,3.955,3.962,3.944,16.836,73.4,14,Waypoint,
38.5271213,-120.3543181,5065.9365535142,13.12336,0,1.42272314264,7000,2018-07-07 18:05:38,13,0,23.539,5065.9365535142,13.12336,0.223694,1.42272314264,0,0,-0.671082,280.3, -2.6, -2,0,0,1024,1024,1024,1024,279.2,-90,96,3.885,3.88,3.958,3.903,3.895,3.901,18.221,73.4,14,Waypoint,
38.5271217,-120.354318,5068.2331415142,15.419948,0,1.52915687308,7110,2018-07-07 18:05:38,11,0,23.539,5068.2331415142,15.419948,0.223694,1.52915687308,0,0,-0.671082,280, -2.2, -2.7,0,0,1024,1024,1024,1024,279.2,-90,96,3.885,3.88,3.958,3.903,3.895,3.901,18.221,73.4,14,Waypoint,
38.5271217,-120.354318,5068.2331415142,15.419948,0,1.52915687308,7200,2018-07-07 18:05:38,11,0,23.539,5068.2331415142,15.419948,0.223694,1.52915687308,0,0,-0.671082,280, -2.2, -2.7,0,0,1024,1024,1024,1024,279.2,-90,96,3.885,3.88,3.958,3.903,3.895,3.901,18.221,73.4,14,Waypoint,
38.527122,-120.354318,5069.2173935142,16.4042,0,1.59686356816,7300,2018-07-07 18:05:38,11,0,23.539,5069.2173935142,16.4042,0.223694,1.59686356816,0,0,-0.671082,279.8, -1.7, -2.8,0,0,1024,1024,1024,1024,279.2,-90,96,3.885,3.88,3.958,3.903,3.895,3.901,18.221,73.4,14,Waypoint,
38.5271223,-120.3543181,5070.5297295142,17.716536,0.223694,1.648129974,7400,2018-07-07 18:05:39,11,0,23.539,5070.5297295142,17.716536,0.223694,1.648129974,0,0,-0.671082,279.6, -1.1, -2.9,0,0,1024,1024,1024,1024,279.2,-89.9,96,3.885,3.88,3.958,3.903,3.895,3.901,18.221,73.4,14,Waypoint,
38.5271226,-120.3543183,5071.5139815142,18.700788,0.223694,1.68591212744,7500,2018-07-07 18:05:39,11,0,23.539,5071.5139815142,18.700788,0.223694,1.68591212744,0,0,-0.671082,279.4, -0.6, -3.2,0,0,1024,1024,1024,1024,279.2,-89.9,96,3.885,3.88,3.958,3.903,3.895,3.901,18.221,73.4,14,Waypoint,
38.5271228,-120.3543184,5072.8263175142,20.013124,0.223694,1.72171593436,7600,2018-07-07 18:05:39,11,0,23.539,5072.8263175142,20.013124,0.223694,1.72171593436,0,0,-0.671082,279.3, -0.2, -3.2,0,0,1024,1024,1024,1024,279.2,-89.9,96,3.885,3.88,3.958,3.903,3.895,3.901,18.221,73.4,14,Waypoint,
38.5271229,-120.3543187,5073.8105695142,20.997376,0.223694,1.69651908316,7700,2018-07-07 18:05:39,11,0,23.539,5073.8105695142,20.997376,0.223694,1.72171593436,0,0,-0.671082,279.3, 0, -3.1,0,0,1024,1024,1024,1024,279.2,-89.9,96,3.885,3.88,3.958,3.903,3.895,3.901,18.221,73.4,14,Waypoint,
38.5271227,-120.354319,5075.1229055142,22.309712,0.3131716,1.58677498516,7800,2018-07-07 18:05:39,11,0,23.539,5075.1229055142,22.309712,0.3131716,1.72171593436,0,0,-0.671082,279.4, 0.1, -2.8,0,0,1024,1024,1024,1024,279.2,-89.9,96,3.885,3.88,3.958,3.903,3.895,3.901,18.221,73.4,14,Waypoint,
38.5271225,-120.3543194,5076.1071575142,23.293964,0.3131716,1.46108600476,7900,2018-07-07 18:05:39,12,0,23.539,5076.1071575142,23.293964,0.3131716,1.72171593436,0,0,-0.671082,279.4, 0.2, -2,0,0,1024,1024,1024,1024,279.2,-89.9,96,3.885,3.88,3.958,3.903,3.895,3.901,18.221,73.4,14,Waypoint,
38.5271223,-120.3543199,5077.0914095142,24.278216,0.3131716,1.32230647276,8000,2018-07-07 18:05:39,12,0,22.911,5077.0914095142,24.278216,0.3131716,1.72171593436,0,0,-0.671082,279.5, 0.4, -1.3,0,0,1024,1024,1024,1024,279.2,-89.9,96,3.792,3.785,3.847,3.808,3.825,3.8,24.809,73.4,14,Waypoint,
38.5271221,-120.3543203,5078.4037455142,25.590552,0.3131716,1.20223757128,8100,2018-07-07 18:05:39,12,0,22.911,5078.4037455142,25.590552,0.3131716,1.72171593436,0,0,-0.671082,279.5, 0.8, -0.8,0,0,1024,1024,1024,1024,279.2,-89.9,96,3.792,3.785,3.847,3.808,3.825,3.8,24.809,73.4,14,Waypoint,
38.5271219,-120.3543207,5079.3879975142,26.574804,0.3131716,1.08580384052,8200,2018-07-07 18:05:39,12,0,22.911,5079.3879975142,26.574804,0.3131716,1.72171593436,0,0,-0.671082,279.4, 1.2, -0.3,0,0,1024,1024,1024,1024,279.2,-89.9,96,3.792,3.785,3.847,3.808,3.825,3.8,24.809,73.4,14,Waypoint,
38.5271215,-120.3543217,5081.3565015142,28.543308,0.3131716,0.85645015864,8400,2018-07-07 18:05:40,13,0,22.911,5081.3565015142,28.543308,0.3131716,1.72171593436,0,0,-0.671082,279.4, 1.5, 0.2,0,0,1024,1024,1024,1024,279.2,-89.9,96,3.792,3.785,3.847,3.808,3.825,3.8,24.809,73.4,14,Waypoint,
38.5271213,-120.3543224,5082.6688375142,29.855644,0.3131716,0.7667159038,8500,2018-07-07 18:05:40,12,0,22.911,5082.6688375142,29.855644,0.3131716,1.72171593436,0,0,-0.671082,279.4, 2, 0.4,0,0,1024,1024,1024,1024,279.2,-89.9,96,3.792,3.785,3.847,3.808,3.825,3.8,24.809,73.4,14,Waypoint,
38.527121,-120.3543231,5083.6530895142,30.839896,0.3131716,0.695292017,8600,2018-07-07 18:05:40,12,0,22.911,5083.6530895142,30.839896,0.3131716,1.72171593436,0,0,-0.671082,279.4, 2.5, 0.8,0,0,1024,1024,1024,1024,279.2,-89.9,96,3.792,3.785,3.847,3.808,3.825,3.8,24.809,73.4,14,Waypoint,
38.5271208,-120.3543237,5084.6373415142,31.824148,0.3131716,0.70742784416,8700,2018-07-07 18:05:40,12,0,22.911,5084.6373415142,31.824148,0.3131716,1.72171593436,0,0,-0.671082,279.3, 2.9, 1.2,0,0,1024,1024,1024,1024,279.2,-89.9,96,3.792,3.785,3.847,3.808,3.825,3.8,24.809,73.4,14,Waypoint,
38.5271202,-120.3543247,5086.9339295142,34.120736,0.223694,0.77612535292,8900,2018-07-07 18:05:40,12,0,22.911,5086.9339295142,34.120736,0.3131716,1.72171593436,0,0,-0.671082,279.2, 2.9, 1.6,0,0,1024,1024,1024,1024,279.2,-90,96,3.792,3.785,3.847,3.808,3.825,3.8,24.809,73.4,14,Waypoint,
38.5271199,-120.3543252,5087.9181815142,35.104988,0.223694,0.86624346604,9000,2018-07-07 18:05:40,12,0,23.094,5087.9181815142,35.104988,0.3131716,1.72171593436,0,0,-0.671082,279.2, 2.7, 1.6,0,0,1024,1024,1024,1024,279.2,-89.9,95,3.829,3.835,3.888,3.868,3.879,3.852,20.844,73.4,14,Waypoint,
38.5271196,-120.3543256,5088.9024335142,36.08924,0.223694,0.95314635596,9100,2018-07-07 18:05:40,12,0,23.094,5088.9024335142,36.08924,0.3131716,1.72171593436,0,0,-0.671082,279.2, 2.5, 1.7,0,0,1024,1024,1024,1024,279.2,-90,95,3.829,3.835,3.888,3.868,3.879,3.852,20.844,73.4,14,Waypoint,
38.5271193,-120.3543259,5089.8866855142,37.073492,0.223694,1.0281824476,9200,2018-07-07 18:05:40,12,0,23.094,5089.8866855142,37.073492,0.3131716,1.72171593436,0,0,-0.671082,279.3, 2.3, 2,0,0,1024,1024,1024,1024,279.2,-90,95,3.829,3.835,3.888,3.868,3.879,3.852,20.844,73.4,14,Waypoint,
38.5271189,-120.3543262,5090.8709375142,38.057744,0.223694,1.11853350036,9300,2018-07-07 18:05:40,12,0,23.094,5090.8709375142,38.057744,0.3131716,1.72171593436,0,0,-0.671082,279.3, 1.9, 2.2,0,0,1024,1024,1024,1024,279.2,-90,95,3.829,3.835,3.888,3.868,3.879,3.852,20.844,73.4,14,Waypoint,
38.5271183,-120.3543266,5092.8394415142,40.026248,0,1.27050200916,9500,2018-07-07 18:05:41,12,0,23.094,5092.8394415142,40.026248,0.3131716,1.72171593436,0,0,-0.671082,279.4, 2, 3,0,0,1024,1024,1024,1024,279.2,-89.9,95,3.829,3.835,3.888,3.868,3.879,3.852,20.844,73.4,14,Waypoint,
38.5271181,-120.3543268,5093.8236935142,41.0105,0.223694,1.34565949188,9600,2018-07-07 18:05:41,12,0,23.094,5093.8236935142,41.0105,0.3131716,1.72171593436,0,0,-0.671082,279.4, 2, 3,0,0,1024,1024,1024,1024,279.2,-89.9,95,3.829,3.835,3.888,3.868,3.879,3.852,20.844,73.4,14,Waypoint,
38.5271178,-120.354327,5095.7921975142,42.979004,0.223694,1.43545936352,9800,2018-07-07 18:05:41,12,0,23.094,5095.7921975142,42.979004,0.3131716,1.72171593436,0,0,-0.671082,279.5, 1.9, 2.2,0,0,1024,1024,1024,1024,279.2,-89.9,95,3.829,3.835,3.888,3.868,3.879,3.852,20.844,73.4,14,Waypoint,
38.5271177,-120.3543271,5096.7764495142,43.963256,0.223694,1.47530844616,9900,2018-07-07 18:05:41,12,0,23.094,5096.7764495142,43.963256,0.3131716,1.72171593436,0,0,-0.671082,279.4, 1.9, 2,0,0,1024,1024,1024,1024,279.2,-89.9,95,3.829,3.835,3.888,3.868,3.879,3.852,20.844,73.4,14,Waypoint,
38.5271176,-120.3543271,5097.7607015142,44.947508,0.223694,1.48922905028,10000,2018-07-07 18:05:41,12,0,23.275,5097.7607015142,44.947508,0.3131716,1.72171593436,0,0,-0.671082,279.4, 1.8, 1.8,0,0,1024,1024,1024,1024,279.2,-89.9,95,3.859,3.854,3.903,3.883,3.891,3.872,18.745,73.4,14,Waypoint,
38.5271175,-120.354327,5098.7449535142,45.93176,0.447388,1.47794952236,10100,2018-07-07 18:05:41,12,0,23.275,5098.7449535142,45.93176,0.447388,1.72171593436,0,0,-0.671082,279.4, 1.5, 1.6,0,0,1024,1024,1024,1024,279.2,-89.9,95,3.859,3.854,3.903,3.883,3.891,3.872,18.745,73.4,14,Waypoint,
38.5271174,-120.3543267,5099.7292055142,46.916012,0.447388,1.41722117396,10200,2018-07-07 18:05:41,12,0,23.275,5099.7292055142,46.916012,0.447388,1.72171593436,0,0,-0.671082,279.3, 1.1, 1.4,0,0,1024,1024,1024,1024,279.2,-90,95,3.859,3.854,3.903,3.883,3.891,3.872,18.745,73.4,14,Waypoint,
38.5271174,-120.3543266,5100.7134575142,47.900264,0.447388,1.39199151436,10300,2018-07-07 18:05:41,12,0,23.275,5100.7134575142,47.900264,0.447388,1.72171593436,0,0,-0.671082,279.3, 0.6, 1.5,0,0,1024,1024,1024,1024,279.2,-90,95,3.859,3.854,3.903,3.883,3.891,3.872,18.745,73.4,14,Waypoint,
38.5271173,-120.3543265,5101.6977095142,48.884516,0.447388,1.38479007056,10400,2018-07-07 18:05:42,12,0,23.275,5101.6977095142,48.884516,0.447388,1.72171593436,0,0,-0.671082,279.3, 0.4, 1.7,0,0,1024,1024,1024,1024,279.2,-90,95,3.859,3.854,3.903,3.883,3.891,3.872,18.745,73.4,14,Waypoint,
38.5271173,-120.3543263,5102.6819615142,49.868768,0.4921268,1.3356791766,10500,2018-07-07 18:05:42,11,0,23.275,5102.6819615142,49.868768,0.4921268,1.72171593436,0,0,-0.671082,279.2, 0.4, 1.6,0,0,1024,1024,1024,1024,279.2,-90,95,3.859,3.854,3.903,3.883,3.891,3.872,18.745,73.4,14,Waypoint,
38.5271172,-120.3543261,5103.6662135142,50.85302,0.4921268,1.3072342938,10600,2018-07-07 18:05:42,11,0,23.275,5103.6662135142,50.85302,0.4921268,1.72171593436,0,0,-0.671082,279.2, 0.3, 1.4,0,0,1024,1024,1024,1024,279.2,-90,95,3.859,3.854,3.903,3.883,3.891,3.872,18.745,73.4,14,Waypoint,
38.5271172,-120.3543258,5104.6504655142,51.837272,0.4921268,1.23711290048,10700,2018-07-07 18:05:42,12,0,23.275,5104.6504655142,51.837272,0.4921268,1.72171593436,0,0,-0.671082,279.2, 0.1, 1.2,0,0,1024,1024,1024,1024,279.2,-90,95,3.859,3.854,3.903,3.883,3.891,3.872,18.745,73.4,14,Waypoint,
38.5271172,-120.3543256,5105.6347175142,52.821524,0.4921268,1.19148953944,10800,2018-07-07 18:05:42,12,0,23.275,5105.6347175142,52.821524,0.4921268,1.72171593436,0,0,-0.671082,279.2, 0, 1.1,0,0,1024,1024,1024,1024,279.2,-90,95,3.859,3.854,3.903,3.883,3.891,3.872,18.745,73.4,14,Waypoint,
38.5271173,-120.3543254,5106.6189695142,53.805776,0.4921268,1.12403546904,10900,2018-07-07 18:05:42,12,0,23.275,5106.6189695142,53.805776,0.4921268,1.72171593436,0,0,-0.671082,279.1, -0.1, 1.1,0,0,1024,1024,1024,1024,279.2,-90,95,3.859,3.854,3.903,3.883,3.891,3.872,18.745,73.4,14,Waypoint,
38.5271174,-120.3543251,5107.6032215142,54.790028,0.4921268,1.03440948192,11000,2018-07-07 18:05:42,12,0,23.222,5107.6032215142,54.790028,0.4921268,1.72171593436,0,0,-0.671082,279.2, -0.2, 0.9,0,0,1024,1024,1024,1024,279.2,-90,95,3.859,3.854,3.903,3.883,3.891,3.872,18.922,73.4,14,Waypoint,
38.5271175,-120.3543247,5108.5874735142,55.77428,0.4921268,0.92410107944,11100,2018-07-07 18:05:42,12,0,23.222,5108.5874735142,55.77428,0.4921268,1.72171593436,0,0,-0.671082,279.2, -0.3, 0.3,0,0,1024,1024,1024,1024,279.2,-90,95,3.859,3.854,3.903,3.883,3.891,3.872,18.922,73.4,14,Waypoint,
38.5271176,-120.3543244,5109.5717255142,56.758532,0.4921268,0.83668965932,11200,2018-07-07 18:05:42,12,0,23.222,5109.5717255142,56.758532,0.4921268,1.72171593436,0,0,-0.671082,279.3, -0.6, -0.1,0,0,1024,1024,1024,1024,279.2,-90,95,3.859,3.854,3.903,3.883,3.891,3.872,18.922,73.4,14,Waypoint,
38.5271178,-120.354324,5110.5559775142,57.742784,0.4921268,0.70452101992,11300,2018-07-07 18:05:42,12,0,23.222,5110.5559775142,57.742784,0.4921268,1.72171593436,0,0,-0.671082,279.4, -0.9, -0.3,0,0,1024,1024,1024,1024,279.2,-90,95,3.859,3.854,3.903,3.883,3.891,3.872,18.922,73.4,14,Waypoint,
38.5271179,-120.3543237,5111.5402295142,58.727036,0.4921268,0.62019687024,11400,2018-07-07 18:05:43,12,0,23.222,5111.5402295142,58.727036,0.4921268,1.72171593436,0,0,-0.671082,279.4, -1.1, -0.5,0,0,1024,1024,1024,1024,279.2,-90,95,3.859,3.854,3.903,3.883,3.891,3.872,18.922,73.4,14,Waypoint,
38.5271181,-120.354323,5113.1806495142,60.367456,0.4921268,0.44831694348,11600,2018-07-07 18:05:43,12,0,23.222,5113.1806495142,60.367456,0.4921268,1.72171593436,0,0,-0.671082,279.5, -1.4, -0.6,0,0,1024,1024,1024,1024,279.2,-90,95,3.859,3.854,3.903,3.883,3.891,3.872,18.922,73.4,14,Waypoint,
38.5271183,-120.3543227,5114.1649015142,61.351708,0.4921268,0.34764764892,11700,2018-07-07 18:05:43,12,0,23.222,5114.1649015142,61.351708,0.4921268,1.72171593436,0,0,-0.671082,279.5, -1.5, -0.5,0,0,1024,1024,1024,1024,279.2,-90,95,3.859,3.854,3.903,3.883,3.891,3.872,18.922,73.4,14,Waypoint,
38.5271184,-120.3543224,5115.1491535142,62.33596,0.3131716,0.293271662928,11800,2018-07-07 18:05:43,12,0,23.222,5115.1491535142,62.33596,0.4921268,1.72171593436,0,0,-0.671082,279.5, -1.6, -0.6,0,0,1024,1024,1024,1024,279.2,-90,95,3.859,3.854,3.903,3.883,3.891,3.872,18.922,73.4,14,Waypoint,
38.5271186,-120.3543221,5116.1334055142,63.320212,0.3131716,0.2262303222,11900,2018-07-07 18:05:43,12,0,23.222,5116.1334055142,63.320212,0.4921268,1.72171593436,0,0,-0.671082,279.5, -1.5, -0.5,0,0,1024,1024,1024,1024,279.2,-89.9,95,3.859,3.854,3.903,3.883,3.891,3.872,18.922,73.4,14,Waypoint,
38.5271188,-120.3543218,5117.1176575142,64.304464,0.3131716,0.204121397608,12000,2018-07-07 18:05:43,12,0,23.119,5117.1176575142,64.304464,0.4921268,1.72171593436,0,0,-0.671082,279.5, -1.4, -0.6,0,0,1024,1024,1024,1024,279.2,-90,95,3.826,3.82,3.885,3.866,3.864,3.855,19.828,73.4,14,Waypoint,
38.5271191,-120.3543214,5118.1019095142,65.288716,0.3131716,0.25946195056,12200,2018-07-07 18:05:43,12,0,23.119,5118.1019095142,65.288716,0.4921268,1.72171593436,0,0,-0.671082,279.5, -1.5, -0.9,0,0,1024,1024,1024,1024,279.2,-90,95,3.826,3.82,3.885,3.866,3.864,3.855,19.828,73.4,14,Waypoint,
38.5271196,-120.3543207,5120.3984975142,67.585304,0.3131716,0.47943571088,12300,2018-07-07 18:05:43,11,0,23.119,5120.3984975142,67.585304,0.4921268,1.72171593436,0,0,-0.671082,279.4, -2, -2.1,0,0,1024,1024,1024,1024,279.2,-90,95,3.826,3.82,3.885,3.866,3.864,3.855,19.828,73.4,14,Waypoint,
38.5271202,-120.3543202,5122.3670015142,69.553808,0.3131716,0.7017060592,12400,2018-07-07 18:05:44,12,0,23.119,5122.3670015142,69.553808,0.4921268,1.72171593436,0,0,-0.671082,279.2, -1.8, -3.1,0,0,1024,1024,1024,1024,279.2,-89.9,95,3.826,3.82,3.885,3.866,3.864,3.855,19.828,73.4,14,Waypoint,
38.5271205,-120.3543198,5123.3512535142,70.53806,0.3131716,0.85682089356,12500,2018-07-07 18:05:44,12,0,23.119,5123.3512535142,70.53806,0.4921268,1.72171593436,0,0,-0.671082,279.1, -1.6, -2.9,0,0,1024,1024,1024,1024,279.2,-89.9,95,3.826,3.82,3.885,3.866,3.864,3.855,19.828,73.4,14,Waypoint,
38.5271207,-120.3543196,5124.3355055142,71.522312,0.3131716,0.94520672316,12700,2018-07-07 18:05:44,13,0,23.119,5124.3355055142,71.522312,0.4921268,1.72171593436,0,0,-0.671082,279, -1.8, -2.9,0,0,1024,1024,1024,1024,279.2,-90,95,3.826,3.82,3.885,3.866,3.864,3.855,19.828,73.4,14,Waypoint,
38.5271207,-120.3543195,5125.3197575142,72.506564,0,0.9686187974,12800,2018-07-07 18:05:44,13,0,23.119,5125.3197575142,72.506564,0.4921268,1.72171593436,0,0,-0.671082,279, -1.9, -2.6,0,0,1024,1024,1024,1024,279.2,-90,95,3.826,3.82,3.885,3.866,3.864,3.855,19.828,73.4,14,Waypoint,
38.5271208,-120.3543193,5126.3040095142,73.490816,0,1.036335335,12900,2018-07-07 18:05:44,13,0,23.119,5126.3040095142,73.490816,0.4921268,1.72171593436,0,0,-0.671082,279, -1.9, -2.2,0,0,1024,1024,1024,1024,279.2,-90,95,3.826,3.82,3.885,3.866,3.864,3.855,19.828,73.4,14,Waypoint,
38.5271209,-120.3543191,5127.2882615142,74.475068,0,1.10405515344,13000,2018-07-07 18:05:44,13,0,23.119,5127.2882615142,74.475068,0.4921268,1.72171593436,0,0,-0.671082,279.1, -1.9, -1.8,0,0,1024,1024,1024,1024,279.2,-90,95,3.826,3.82,3.885,3.866,3.864,3.855,19.828,73.4,14,Waypoint,
38.527121,-120.3543189,5128.2725135142,75.45932,0,1.17177825272,13100,2018-07-07 18:05:44,13,0,23.119,5128.2725135142,75.45932,0.4921268,1.72171593436,0,0,-0.671082,279.2, -1.9, -1.7,0,0,1024,1024,1024,1024,279.2,-90,95,3.826,3.82,3.885,3.866,3.864,3.855,19.828,73.4,14,Waypoint,
38.527121,-120.3543188,5129.2567655142,76.443572,0,1.19552497264,13200,2018-07-07 18:05:44,13,0,23.119,5129.2567655142,76.443572,0.4921268,1.72171593436,0,0,-0.671082,279.3, -1.9, -1.6,0,0,1024,1024,1024,1024,279.2,-90,95,3.826,3.82,3.885,3.866,3.864,3.855,19.828,73.4,14,Waypoint,
38.527121,-120.3543188,5130.2410175142,77.427824,0,1.19552497264,13300,2018-07-07 18:05:44,13,0,23.119,5130.2410175142,77.427824,0.4921268,1.72171593436,0,0,-0.671082,279.4, -1.8, -1.6,0,0,1024,1024,1024,1024,279.2,-90,95,3.826,3.82,3.885,3.866,3.864,3.855,19.828,73.4,14,Waypoint,
38.5271211,-120.3543189,5131.2252695142,78.412076,0,1.19261158672,13400,2018-07-07 18:05:45,13,0,23.119,5131.2252695142,78.412076,0.4921268,1.72171593436,0,0,-0.671082,279.4, -1.5, -1.6,0,0,1024,1024,1024,1024,279.2,-89.9,95,3.826,3.82,3.885,3.866,3.864,3.855,19.828,73.4,14,Waypoint,
38.5271211,-120.3543189,5132.2095215142,79.396328,0,1.19261158672,13500,2018-07-07 18:05:45,13,0,23.119,5132.2095215142,79.396328,0.4921268,1.72171593436,0,0,-0.671082,279.4, -1.1, -1.4,0,0,1024,1024,1024,1024,279.2,-89.9,95,3.826,3.82,3.885,3.866,3.864,3.855,19.828,73.4,14,Waypoint,
38.5271211,-120.3543189,5133.1937735142,80.38058,0,1.19261158672,13600,2018-07-07 18:05:45,13,0,23.119,5133.1937735142,80.38058,0.4921268,1.72171593436,0,0,-0.671082,279.4, -1, -1.3,0,0,1024,1024,1024,1024,279.2,-90,95,3.826,3.82,3.885,3.866,3.864,3.855,19.828,73.4,14,Waypoint,
38.5271211,-120.3543189,5134.1780255142,81.364832,0,1.19261158672,13700,2018-07-07 18:05:45,13,0,23.119,5134.1780255142,81.364832,0.4921268,1.72171593436,0,0,-0.671082,279.3, -0.8, -1.2,0,0,1024,1024,1024,1024,279.2,-89.9,95,3.826,3.82,3.885,3.866,3.864,3.855,19.828,73.4,14,Waypoint,
38.5271211,-120.354319,5135.1622775142,82.349084,0,1.16950134976,13800,2018-07-07 18:05:45,13,0,23.119,5135.1622775142,82.349084,0.4921268,1.72171593436,0,0,-0.671082,279.3, -0.7, -1,0,0,1024,1024,1024,1024,279.2,-89.9,95,3.826,3.82,3.885,3.866,3.864,3.855,19.828,73.4,14,Waypoint,
38.5271211,-120.3543191,5136.1465295142,83.333336,0,1.14664045664,13900,2018-07-07 18:05:45,13,0,23.119,5136.1465295142,83.333336,0.4921268,1.72171593436,0,0,-0.671082,279.3, -0.6, -1,0,0,1024,1024,1024,1024,279.2,-89.9,95,3.826,3.82,3.885,3.866,3.864,3.855,19.828,73.4,14,Waypoint,
38.5271212,-120.3543192,5137.1307815142,84.317588,0,1.14689636216,14000,2018-07-07 18:05:45,13,0,23.084,5137.1307815142,84.317588,0.4921268,1.72171593436,0,0,-0.671082,279.3, -0.4, -0.9,0,0,1024,1024,1024,1024,279.2,-89.9,95,3.829,3.831,3.874,3.852,3.863,3.85,19.284,73.4,14,Waypoint,
38.5271212,-120.3543193,5138.1150335142,85.30184,0,1.12502300188,14100,2018-07-07 18:05:45,13,0,23.084,5138.1150335142,85.30184,0.4921268,1.72171593436,0,0,-0.671082,279.3, -0.4, -1,0,0,1024,1024,1024,1024,279.2,-89.9,95,3.829,3.831,3.874,3.852,3.863,3.85,19.284,73.4,14,Waypoint,
38.5271212,-120.3543194,5139.0992855142,86.286092,0,1.10345475972,14200,2018-07-07 18:05:45,13,0,23.084,5139.0992855142,86.286092,0.4921268,1.72171593436,0,0,-0.671082,279.4, -0.4, -1,0,0,1024,1024,1024,1024,279.2,-89.9,95,3.829,3.831,3.874,3.852,3.863,3.85,19.284,73.4,14,Waypoint,
38.5271211,-120.3543195,5140.0835375142,87.270344,0,1.05794950892,14300,2018-07-07 18:05:45,13,0,23.084,5140.0835375142,87.270344,0.4921268,1.72171593436,0,0,-0.671082,279.5, -0.4, -1,0,0,1024,1024,1024,1024,279.2,-89.9,95,3.829,3.831,3.874,3.852,3.863,3.85,19.284,73.4,14,Waypoint,
38.5271211,-120.3543197,5141.0677895142,88.254596,0,1.01551512436,14400,2018-07-07 18:05:46,13,0,23.084,5141.0677895142,88.254596,0.4921268,1.72171593436,0,0,-0.671082,279.5, -0.4, -0.9,0,0,1024,1024,1024,1024,279.2,-89.9,95,3.829,3.831,3.874,3.852,3.863,3.85,19.284,73.4,14,Waypoint,
38.5271211,-120.3543199,5142.0520415142,89.238848,0.223694,0.97457680284,14500,2018-07-07 18:05:46,13,0,23.084,5142.0520415142,89.238848,0.4921268,1.72171593436,0,0,-0.671082,279.5, -0.1, -0.7,0,0,1024,1024,1024,1024,279.2,-89.9,95,3.829,3.831,3.874,3.852,3.863,3.85,19.284,73.4,14,Waypoint,
38.5271211,-120.3543201,5143.0362935142,90.2231,0.223694,0.9353346756,14600,2018-07-07 18:05:46,13,0,23.084,5143.0362935142,90.2231,0.4921268,1.72171593436,0,0,-0.671082,279.5, 0.2, -0.6,0,0,1024,1024,1024,1024,279.2,-89.9,95,3.829,3.831,3.874,3.852,3.863,3.85,19.284,73.4,14,Waypoint,
38.5271211,-120.3543202,5144.0205455142,91.207352,0,0.91641735216,14700,2018-07-07 18:05:46,13,0,23.084,5144.0205455142,91.207352,0.4921268,1.72171593436,0,0,-0.671082,279.4, 0.6, -0.4,0,0,1024,1024,1024,1024,279.2,-90,95,3.829,3.831,3.874,3.852,3.863,3.85,19.284,73.4,14,Waypoint,
38.527121,-120.3543203,5145.0047975142,92.191604,0,0.87015422732,14800,2018-07-07 18:05:46,13,0,23.084,5145.0047975142,92.191604,0.4921268,1.72171593436,0,0,-0.671082,279.4, 0.6, -0.4,0,0,1024,1024,1024,1024,279.2,-90,95,3.829,3.831,3.874,3.852,3.863,3.85,19.284,73.4,14,Waypoint,
38.527121,-120.3543204,5145.9890495142,93.175856,0,0.85169950232,14900,2018-07-07 18:05:46,13,0,23.084,5145.9890495142,93.175856,0.4921268,1.72171593436,0,0,-0.671082,279.3, 0.3, -0.5,0,0,1024,1024,1024,1024,279.2,-90,95,3.829,3.831,3.874,3.852,3.863,3.85,19.284,73.4,14,Waypoint,
38.527121,-120.3543207,5147.9575535142,95.14436,0,0.79990816208,15000,2018-07-07 18:05:46,13,0,23.064,5147.9575535142,95.14436,0.4921268,1.72171593436,0,0,-0.671082,279.3, 0.2, -0.4,0,0,1024,1024,1024,1024,279.2,-90,95,3.822,3.815,3.868,3.848,3.851,3.844,19.406,73.4,14,Waypoint,
38.5271209,-120.3543209,5148.9418055142,96.128612,0,0.73782154592,15200,2018-07-07 18:05:46,13,0,23.064,5148.9418055142,96.128612,0.4921268,1.72171593436,0,0,-0.671082,279.3, 0.2, -0.5,0,0,1024,1024,1024,1024,279.2,-89.9,95,3.822,3.815,3.868,3.848,3.851,3.844,19.406,73.4,14,Waypoint,
38.5271209,-120.354321,5149.9260575142,97.112864,0,0.72276249032,15400,2018-07-07 18:05:47,13,0,23.064,5149.9260575142,97.112864,0.4921268,1.72171593436,0,0,-0.671082,279.3, 0.3, -0.4,0,0,1024,1024,1024,1024,279.2,-90,95,3.822,3.815,3.868,3.848,3.851,3.844,19.406,73.4,14,Waypoint,
38.5271209,-120.3543211,5150.9103095142,98.097116,0,0.7085302064,15500,2018-07-07 18:05:47,13,0,23.064,5150.9103095142,98.097116,0.4921268,1.72171593436,0,0,-0.671082,279.3, 0.4, -0.3,0,0,1024,1024,1024,1024,279.2,-90,95,3.822,3.815,3.868,3.848,3.851,3.844,19.406,73.4,14,Waypoint,
38.5271208,-120.3543214,5152.8788135142,100.06562,0,0.6377788918,15600,2018-07-07 18:05:47,12,0,23.064,5152.8788135142,100.06562,0.4921268,1.72171593436,0,0,-0.671082,279.3, 0.2, -0.2,0,0,1024,1024,1024,1024,279.2,-90,95,3.822,3.815,3.868,3.848,3.851,3.844,19.406,73.4,14,Waypoint,
38.5271207,-120.3543214,5153.8630655142,101.049872,0,0.60456366764,15700,2018-07-07 18:05:47,13,0,23.064,5153.8630655142,101.049872,0.4921268,1.72171593436,0,0,-0.671082,279.4, 0.2, 0,0,0,1024,1024,1024,1024,279.2,-89.9,95,3.822,3.815,3.868,3.848,3.851,3.844,19.406,73.4,14,Waypoint,
38.5271207,-120.3543215,5154.8473175142,102.034124,0,0.59299870664,15800,2018-07-07 18:05:47,13,0,23.064,5154.8473175142,102.034124,0.4921268,1.72171593436,0,0,-0.671082,279.4, 0.4, 0,0,0,1024,1024,1024,1024,279.2,-89.9,95,3.822,3.815,3.868,3.848,3.851,3.844,19.406,73.4,14,Waypoint,
38.5271206,-120.3543216,5155.8315695142,103.018376,0,0.548474427,15900,2018-07-07 18:05:47,13,0,23.064,5155.8315695142,103.018376,0.4921268,1.72171593436,0,0,-0.671082,279.3, 0.3, 0,0,0,1024,1024,1024,1024,279.2,-90,95,3.822,3.815,3.868,3.848,3.851,3.844,19.406,73.4,14,Waypoint,
38.5271206,-120.3543218,5156.8158215142,104.002628,0,0.53035106684,16000,2018-07-07 18:05:47,13,0,23.064,5156.8158215142,104.002628,0.4921268,1.72171593436,0,0,-0.671082,279.3, 0.2, -0.2,0,0,1024,1024,1024,1024,279.2,-90,95,3.822,3.815,3.868,3.848,3.851,3.844,19.406,73.4,14,Waypoint,
38.5271206,-120.3543219,5158.1281575142,105.314964,0,0.5233924052,16100,2018-07-07 18:05:47,13,0,23.064,5158.1281575142,105.314964,0.4921268,1.72171593436,0,0,-0.671082,279.2, 0.3, -0.2,0,0,1024,1024,1024,1024,279.2,-89.9,95,3.822,3.815,3.868,3.848,3.851,3.844,19.406,73.4,14,Waypoint,
38.5271205,-120.354322,5159.1124095142,106.299216,0,0.4819718002,16200,2018-07-07 18:05:47,13,0,23.064,5159.1124095142,106.299216,0.4921268,1.72171593436,0,0,-0.671082,279, 0.4, -0.4,0,0,1024,1024,1024,1024,279.2,-89.9,95,3.822,3.815,3.868,3.848,3.851,3.844,19.406,73.4,14,Waypoint,
38.5271205,-120.354322,5160.0966615142,107.283468,0,0.4819718002,16300,2018-07-07 18:05:47,13,0,23.064,5160.0966615142,107.283468,0.4921268,1.72171593436,0,0,-0.671082,278.9, 0.4, -0.5,0,0,1024,1024,1024,1024,279.2,-89.9,95,3.822,3.815,3.868,3.848,3.851,3.844,19.406,73.4,14,Waypoint,
38.5271205,-120.3543222,5161.0809135142,108.26772,0,0.47516077636,16400,2018-07-07 18:05:48,13,0,23.064,5161.0809135142,108.26772,0.4921268,1.72171593436,0,0,-0.671082,278.8, 0.3, -0.6,0,0,1024,1024,1024,1024,279.2,-90,95,3.822,3.815,3.868,3.848,3.851,3.844,19.406,73.4,14,Waypoint,
38.5271204,-120.3543222,5162.0651655142,109.251972,0,0.43875001404,16500,2018-07-07 18:05:48,13,0,23.064,5162.0651655142,109.251972,0.4921268,1.72171593436,0,0,-0.671082,278.9, 0.3, -0.6,0,0,1024,1024,1024,1024,279.2,-89.9,95,3.822,3.815,3.868,3.848,3.851,3.844,19.406,73.4,14,Waypoint,
38.5271204,-120.3543223,5163.0494175142,110.236224,0,0.43781825548,16600,2018-07-07 18:05:48,13,0,23.064,5163.0494175142,110.236224,0.4921268,1.72171593436,0,0,-0.671082,279, 0.2, -0.4,0,0,1024,1024,1024,1024,279.2,-90,95,3.822,3.815,3.868,3.848,3.851,3.844,19.406,73.4,14,Waypoint,
38.5271203,-120.3543224,5163.7055855142,110.892392,0,0.40234909424,16700,2018-07-07 18:05:48,13,0,23.064,5163.7055855142,110.892392,0.4921268,1.72171593436,0,0,-0.671082,279.3, 0.2, -0.3,0,0,1024,1024,1024,1024,279.2,-90,95,3.822,3.815,3.868,3.848,3.851,3.844,19.406,73.4,14,Waypoint,
38.5271202,-120.3543224,5164.6898375142,111.876644,0,0.36596457864,16800,2018-07-07 18:05:48,13,0,23.064,5164.6898375142,111.876644,0.4921268,1.72171593436,0,0,-0.671082,279.4, 0.2, -0.1,0,0,1024,1024,1024,1024,279.2,-90,95,3.822,3.815,3.868,3.848,3.851,3.844,19.406,73.4,14,Waypoint,
38.5271202,-120.3543225,5165.6740895142,112.860896,0,0.36928806956,16900,2018-07-07 18:05:48,13,0,23.064,5165.6740895142,112.860896,0.4921268,1.72171593436,0,0,-0.671082,279.5, 0.1, 0,0,0,1024,1024,1024,1024,279.2,-90,95,3.822,3.815,3.868,3.848,3.851,3.844,19.406,73.4,14,Waypoint,
38.5271201,-120.3543225,5166.6583415142,113.845148,0,0.33329069308,17000,2018-07-07 18:05:48,13,0,23.027,5166.6583415142,113.845148,0.4921268,1.72171593436,0,0,-0.671082,279.5, 0, 0.3,0,0,1024,1024,1024,1024,279.2,-90,95,3.815,3.813,3.868,3.84,3.853,3.834,18.969,73.4,14,Waypoint,
38.52712,-120.3543226,5167.6425935142,114.8294,0,0.304180455928,17100,2018-07-07 18:05:48,13,0,23.027,5167.6425935142,114.8294,0.4921268,1.72171593436,0,0,-0.671082,279.3, 0, 0.5,0,0,1024,1024,1024,1024,279.2,-89.9,95,3.815,3.813,3.868,3.84,3.853,3.834,18.969,73.4,14,Waypoint,
38.5271199,-120.3543226,5168.6268455142,115.813652,0,0.26936680652,17200,2018-07-07 18:05:48,13,0,23.027,5168.6268455142,115.813652,0.4921268,1.72171593436,0,0,-0.671082,279.1, 0.1, 0.4,0,0,1024,1024,1024,1024,279.2,-89.9,95,3.815,3.813,3.868,3.84,3.853,3.834,18.969,73.4,14,Waypoint,
38.5271199,-120.3543226,5169.6110975142,116.797904,0,0.26936680652,17300,2018-07-07 18:05:48,13,0,23.027,5169.6110975142,116.797904,0.4921268,1.72171593436,0,0,-0.671082,278.9, 0.3, 0.4,0,0,1024,1024,1024,1024,279.2,-89.9,95,3.815,3.813,3.868,3.84,3.853,3.834,18.969,73.4,14,Waypoint,
38.5271199,-120.3543226,5170.5953495142,117.782156,0,0.26936680652,17400,2018-07-07 18:05:49,13,0,23.027,5170.5953495142,117.782156,0.4921268,1.72171593436,0,0,-0.671082,278.8, 0.2, 0.1,0,0,1024,1024,1024,1024,279.2,-90,95,3.815,3.813,3.868,3.84,3.853,3.834,18.969,73.4,14,Waypoint,
38.5271199,-120.3543226,5171.5796015142,118.766408,0,0.26936680652,17500,2018-07-07 18:05:49,13,0,23.027,5171.5796015142,118.766408,0.4921268,1.72171593436,0,0,-0.671082,278.9, 0, -0.3,0,0,1024,1024,1024,1024,279.2,-90,95,3.815,3.813,3.868,3.84,3.853,3.834,18.969,73.4,14,Waypoint,
38.5271199,-120.3543226,5172.5638535142,119.75066,0,0.26936680652,17600,2018-07-07 18:05:49,13,0,23.027,5172.5638535142,119.75066,0.4921268,1.72171593436,0,0,-0.671082,279, -0.1, -0.6,0,0,1024,1024,1024,1024,279.2,-90,95,3.815,3.813,3.868,3.84,3.853,3.834,18.969,73.4,14,Waypoint,
38.5271199,-120.3543225,5173.5481055142,120.734912,0,0.261696530684,17700,2018-07-07 18:05:49,13,0,23.027,5173.5481055142,120.734912,0.4921268,1.72171593436,0,0,-0.671082,279.2, -0.1, -0.7,0,0,1024,1024,1024,1024,279.2,-89.9,95,3.815,3.813,3.868,3.84,3.853,3.834,18.969,73.4,14,Waypoint,
38.5271199,-120.3543225,5174.5323575142,121.719164,0,0.261696530684,17800,2018-07-07 18:05:49,13,0,23.027,5174.5323575142,121.719164,0.4921268,1.72171593436,0,0,-0.671082,279.4, 0, -0.7,0,0,1024,1024,1024,1024,279.2,-90,95,3.815,3.813,3.868,3.84,3.853,3.834,18.969,73.4,14,Waypoint,
38.5271199,-120.3543224,5175.5166095142,122.703416,0,0.256984588276,17900,2018-07-07 18:05:49,13,0,23.027,5175.5166095142,122.703416,0.4921268,1.72171593436,0,0,-0.671082,279.6, -0.1, -0.7,0,0,1024,1024,1024,1024,279.2,-90,95,3.815,3.813,3.868,3.84,3.853,3.834,18.969,73.4,14,Waypoint,
38.5271199,-120.3543223,5176.5008615142,123.687668,0,0.255394693212,18000,2018-07-07 18:05:49,13,0,23.057,5176.5008615142,123.687668,0.4921268,1.72171593436,0,0,-0.671082,279.7, -0.3, -0.5,0,0,1024,1024,1024,1024,279.2,-90,94,3.806,3.804,3.869,3.847,3.85,3.833,18.506,75.2,14,Waypoint,
38.5271199,-120.3543223,5177.4851135142,124.67192,0.223694,0.255394693212,18100,2018-07-07 18:05:49,13,0,23.057,5177.4851135142,124.67192,0.4921268,1.72171593436,0,0,-0.671082,279.7, -0.5, -0.5,0,0,1024,1024,1024,1024,279.2,-90,94,3.806,3.804,3.869,3.847,3.85,3.833,18.506,75.2,14,Waypoint,
38.5271199,-120.3543222,5178.4693655142,125.656172,0.223694,0.256984588276,18200,2018-07-07 18:05:49,13,0,23.057,5178.4693655142,125.656172,0.4921268,1.72171593436,0,0,-0.671082,279.6, -0.7, -0.4,0,0,1024,1024,1024,1024,279.2,-90,94,3.806,3.804,3.869,3.847,3.85,3.833,18.506,75.2,14,Waypoint,
38.5271198,-120.354322,5181.4221215142,128.608928,0,0.23506070306,18400,2018-07-07 18:05:50,13,0,23.057,5181.4221215142,128.608928,0.4921268,1.72171593436,0,0,-0.671082,279.5, -1.1, -0.3,0,0,1024,1024,1024,1024,279.2,-90,94,3.806,3.804,3.869,3.847,3.85,3.833,18.506,75.2,14,Waypoint,
38.5271197,-120.3543219,5182.4063735142,129.59318,0,0.215206043632,18500,2018-07-07 18:05:50,13,0,23.057,5182.4063735142,129.59318,0.4921268,1.72171593436,0,0,-0.671082,279.5, -1.1, -0.1,0,0,1024,1024,1024,1024,279.2,-90,94,3.806,3.804,3.869,3.847,3.85,3.833,18.506,75.2,14,Waypoint,
38.5271197,-120.3543219,5183.3906255142,130.577432,0,0.215206043632,18600,2018-07-07 18:05:50,13,0,23.057,5183.3906255142,130.577432,0.4921268,1.72171593436,0,0,-0.671082,279.5, -1.1, -0.1,0,0,1024,1024,1024,1024,279.2,-90,94,3.806,3.804,3.869,3.847,3.85,3.833,18.506,75.2,14,Waypoint,
38.5271197,-120.3543218,5184.3748775142,131.561684,0,0.23161582106,18700,2018-07-07 18:05:50,13,0,23.057,5184.3748775142,131.561684,0.4921268,1.72171593436,0,0,-0.671082,279.5, -1, 0,0,0,1024,1024,1024,1024,279.2,-90,94,3.806,3.804,3.869,3.847,3.85,3.833,18.506,75.2,14,Waypoint,
38.5271197,-120.3543218,5185.3591295142,132.545936,0,0.23161582106,18900,2018-07-07 18:05:50,13,0,23.057,5185.3591295142,132.545936,0.4921268,1.72171593436,0,0,-0.671082,279.5, -0.8, 0.1,0,0,1024,1024,1024,1024,279.2,-90,94,3.806,3.804,3.869,3.847,3.85,3.833,18.506,75.2,14,Waypoint,
38.5271196,-120.3543218,5186.3433815142,133.530188,0,0.204121397608,19000,2018-07-07 18:05:50,13,0,23.017,5186.3433815142,133.530188,0.4921268,1.72171593436,0,0,-0.671082,279.4, -0.7, 0.3,0,0,1024,1024,1024,1024,279.2,-89.9,94,3.819,3.816,3.87,3.839,3.845,3.837,18.905,75.2,14,Waypoint,
38.5271196,-120.3543217,5187.3276335142,134.51444,0,0.225004600376,19100,2018-07-07 18:05:50,13,0,23.017,5187.3276335142,134.51444,0.4921268,1.72171593436,0,0,-0.671082,279.4, -0.6, 0.2,0,0,1024,1024,1024,1024,279.2,-90,94,3.819,3.816,3.87,3.839,3.845,3.837,18.905,75.2,14,Waypoint,
38.5271197,-120.3543217,5189.2961375142,136.482944,0,0.250214574936,19300,2018-07-07 18:05:50,13,0,23.017,5189.2961375142,136.482944,0.4921268,1.72171593436,0,0,-0.671082,279.5, -0.5, -0.1,0,0,1024,1024,1024,1024,279.2,-90,94,3.819,3.816,3.87,3.839,3.845,3.837,18.905,75.2,14,Waypoint,
38.5271197,-120.3543217,5190.2803895142,137.467196,0,0.250214574936,19400,2018-07-07 18:05:51,13,0,23.017,5190.2803895142,137.467196,0.4921268,1.72171593436,0,0,-0.671082,279.6, -0.6, 0,0,0,1024,1024,1024,1024,279.2,-90,94,3.819,3.816,3.87,3.839,3.845,3.837,18.905,75.2,14,Waypoint,
38.5271197,-120.3543216,5191.2646415142,138.451448,0,0.270551845928,19500,2018-07-07 18:05:51,13,0,23.017,5191.2646415142,138.451448,0.4921268,1.72171593436,0,0,-0.671082,279.7, -0.7, 0.1,0,0,1024,1024,1024,1024,279.2,-90,94,3.819,3.816,3.87,3.839,3.845,3.837,18.905,75.2,14,Waypoint,
38.5271197,-120.3543216,5192.2488935142,139.4357,0,0.270551845928,19600,2018-07-07 18:05:51,13,0,23.017,5192.2488935142,139.4357,0.4921268,1.72171593436,0,0,-0.671082,279.8, -0.6, 0,0,0,1024,1024,1024,1024,279.2,-89.9,94,3.819,3.816,3.87,3.839,3.845,3.837,18.905,75.2,14,Waypoint,
38.5271198,-120.3543216,5193.2331455142,140.419952,0,0.29637960266,19700,2018-07-07 18:05:51,13,0,23.017,5193.2331455142,140.419952,0.4921268,1.72171593436,0,0,-0.671082,279.8, -0.7, -0.4,0,0,1024,1024,1024,1024,279.2,-90,94,3.819,3.816,3.87,3.839,3.845,3.837,18.905,75.2,14,Waypoint,
38.5271198,-120.3543215,5194.2173975142,141.404204,0,0.316324485188,19800,2018-07-07 18:05:51,13,0,23.017,5194.2173975142,141.404204,0.4921268,1.72171593436,0,0,-0.671082,279.8, -0.7, -0.6,0,0,1024,1024,1024,1024,279.2,-90,94,3.819,3.816,3.87,3.839,3.845,3.837,18.905,75.2,14,Waypoint,
38.5271198,-120.3543215,5195.2016495142,142.388456,0,0.316324485188,19900,2018-07-07 18:05:51,13,0,23.017,5195.2016495142,142.388456,0.4921268,1.72171593436,0,0,-0.671082,279.7, -0.7, -0.5,0,0,1024,1024,1024,1024,279.2,-89.9,94,3.819,3.816,3.87,3.839,3.845,3.837,18.905,75.2,14,Waypoint,
38.5271198,-120.3543215,5196.1859015142,143.372708,0,0.316324485188,20000,2018-07-07 18:05:51,13,0,23.019,5196.1859015142,143.372708,0.4921268,1.72171593436,0,0,-0.671082,279.6, -0.7, -0.3,0,0,1024,1024,1024,1024,279.2,-89.9,94,3.821,3.809,3.871,3.843,3.855,3.834,18.189,75.2,14,Waypoint,
38.5271199,-120.3543215,5197.1701535142,144.35696,0,0.34258859364,20100,2018-07-07 18:05:51,13,0,23.019,5197.1701535142,144.35696,0.4921268,1.72171593436,0,0,-0.671082,279.5, -0.6, -0.1,0,0,1024,1024,1024,1024,279.2,-89.9,94,3.821,3.809,3.871,3.843,3.855,3.834,18.189,75.2,14,Waypoint,
38.5271199,-120.3543215,5198.1544055142,145.341212,0,0.34258859364,20200,2018-07-07 18:05:51,13,0,23.019,5198.1544055142,145.341212,0.4921268,1.72171593436,0,0,-0.671082,279.3, -0.6, -0.2,0,0,1024,1024,1024,1024,279.2,-89.9,94,3.821,3.809,3.871,3.843,3.855,3.834,18.189,75.2,14,Waypoint,
38.5271199,-120.3543214,5199.1386575142,146.325464,0,0.3622375444,20300,2018-07-07 18:05:51,13,0,23.019,5199.1386575142,146.325464,0.4921268,1.72171593436,0,0,-0.671082,279, -0.6, -0.3,0,0,1024,1024,1024,1024,279.2,-90,94,3.821,3.809,3.871,3.843,3.855,3.834,18.189,75.2,14,Waypoint,
38.52712,-120.3543214,5200.1229095142,147.309716,0,0.38882219092,20400,2018-07-07 18:05:52,13,0,23.019,5200.1229095142,147.309716,0.4921268,1.72171593436,0,0,-0.671082,278.8, -0.7, -0.6,0,0,1024,1024,1024,1024,279.2,-90,94,3.821,3.809,3.871,3.843,3.855,3.834,18.189,75.2,14,Waypoint,
38.52712,-120.3543214,5201.1071615142,148.293968,0,0.38882219092,20500,2018-07-07 18:05:52,13,0,23.019,5201.1071615142,148.293968,0.4921268,1.72171593436,0,0,-0.671082,278.7, -0.7, -0.9,0,0,1024,1024,1024,1024,279.2,-90,94,3.821,3.809,3.871,3.843,3.855,3.834,18.189,75.2,14,Waypoint,
38.52712,-120.3543214,5202.0914135142,149.27822,0,0.38882219092,20600,2018-07-07 18:05:52,13,0,23.019,5202.0914135142,149.27822,0.4921268,1.72171593436,0,0,-0.671082,278.6, -0.9, -1.1,0,0,1024,1024,1024,1024,279.2,-90,94,3.821,3.809,3.871,3.843,3.855,3.834,18.189,75.2,14,Waypoint,
38.5271201,-120.3543213,5203.0756655142,150.262472,0,0.43507547324,20700,2018-07-07 18:05:52,13,0,23.019,5203.0756655142,150.262472,0.4921268,1.72171593436,0,0,-0.671082,278.5, -1.1, -1.2,0,0,1024,1024,1024,1024,279.2,-90,94,3.821,3.809,3.871,3.843,3.855,3.834,18.189,75.2,14,Waypoint,
38.5271201,-120.3543213,5204.0599175142,151.246724,0,0.43507547324,20800,2018-07-07 18:05:52,13,0,23.019,5204.0599175142,151.246724,0.4921268,1.72171593436,0,0,-0.671082,278.5, -1.2, -1.1,0,0,1024,1024,1024,1024,279.2,-90,94,3.821,3.809,3.871,3.843,3.855,3.834,18.189,75.2,14,Waypoint,
38.52712,-120.3543213,5205.0441695142,152.230976,0,0.40824148288,20900,2018-07-07 18:05:52,13,0,23.019,5205.0441695142,152.230976,0.4921268,1.72171593436,0,0,-0.671082,278.6, -1.1, -0.8,0,0,1024,1024,1024,1024,279.2,-89.9,94,3.821,3.809,3.871,3.843,3.855,3.834,18.189,75.2,14,Waypoint,
38.52712,-120.3543213,5206.0284215142,153.215228,0,0.40824148288,21000,2018-07-07 18:05:52,13,0,23.055,5206.0284215142,153.215228,0.4921268,1.72171593436,0,0,-0.671082,278.8, -0.8, 0,0,0,1024,1024,1024,1024,279.2,-89.9,94,3.824,3.822,3.875,3.842,3.856,3.835,18.087,75.2,14,Waypoint,
38.5271199,-120.3543213,5207.0126735142,154.19948,0,0.38300854244,21100,2018-07-07 18:05:52,13,0,23.055,5207.0126735142,154.19948,0.4921268,1.72171593436,0,0,-0.671082,279, -0.7, 0.4,0,0,1024,1024,1024,1024,279.2,-89.9,94,3.824,3.822,3.875,3.842,3.856,3.835,18.087,75.2,14,Waypoint,
38.5271199,-120.3543214,5207.9969255142,155.183732,0,0.3622375444,21200,2018-07-07 18:05:52,13,0,23.055,5207.9969255142,155.183732,0.4921268,1.72171593436,0,0,-0.671082,279.3, -0.6, 0.6,0,0,1024,1024,1024,1024,279.2,-90,94,3.824,3.822,3.875,3.842,3.856,3.835,18.087,75.2,14,Waypoint,
38.5271198,-120.3543213,5209.9654295142,157.152236,0,0.35970801676,21300,2018-07-07 18:05:52,13,0,23.055,5209.9654295142,157.152236,0.4921268,1.72171593436,0,0,-0.671082,279.4, -1, 0.1,0,0,1024,1024,1024,1024,279.2,-90,94,3.824,3.822,3.875,3.842,3.856,3.835,18.087,75.2,14,Waypoint,
38.5271198,-120.3543213,5210.9496815142,158.136488,0,0.35970801676,21400,2018-07-07 18:05:53,13,0,23.055,5210.9496815142,158.136488,0.4921268,1.72171593436,0,0,-0.671082,279.2, -1.2, -0.1,0,0,1024,1024,1024,1024,279.2,-90,94,3.824,3.822,3.875,3.842,3.856,3.835,18.087,75.2,14,Waypoint,
38.5271198,-120.3543212,5212.9181855142,160.104992,0,0.38274935608,21600,2018-07-07 18:05:53,13,0,23.055,5212.9181855142,160.104992,0.4921268,1.72171593436,0,0,-0.671082,278.9, -1.4, -0.5,0,0,1024,1024,1024,1024,279.2,-90,94,3.824,3.822,3.875,3.842,3.856,3.835,18.087,75.2,14,Waypoint,
38.5271198,-120.3543211,5214.8866895142,162.073496,0,0.40649279516,21800,2018-07-07 18:05:53,13,0,23.055,5214.8866895142,162.073496,0.4921268,1.72171593436,0,0,-0.671082,279, -1.6, -0.3,0,0,1024,1024,1024,1024,279.2,-90,94,3.824,3.822,3.875,3.842,3.856,3.835,18.087,75.2,14,Waypoint,
38.5271198,-120.3543211,5214.8866895142,162.073496,0,0.40649279516,21900,2018-07-07 18:05:53,13,0,23.055,5214.8866895142,162.073496,0.4921268,1.72171593436,0,0,-0.671082,279, -1.6, -0.3,0,0,1024,1024,1024,1024,279.2,-90,94,3.824,3.822,3.875,3.842,3.856,3.835,18.087,75.2,14,Waypoint,
38.5271198,-120.3543211,5215.8709415142,163.057748,0,0.40649279516,22000,2018-07-07 18:05:53,13,0,23.082,5215.8709415142,163.057748,0.4921268,1.72171593436,0,0,-0.671082,279.2, -1.6, -0.3,0,0,1024,1024,1024,1024,279.2,-90,94,3.824,3.822,3.875,3.842,3.856,3.835,17.537,75.2,14,Waypoint,
38.5271197,-120.3543211,5216.8551935142,164.042,0,0.38806431688,22100,2018-07-07 18:05:53,13,0,23.082,5216.8551935142,164.042,0.4921268,1.72171593436,0,0,-0.671082,279.4, -1.5, -0.2,0,0,1024,1024,1024,1024,279.2,-90,94,3.824,3.822,3.875,3.842,3.856,3.835,17.537,75.2,14,Waypoint,
38.5271197,-120.3543211,5217.8394455142,165.026252,0,0.38806431688,22200,2018-07-07 18:05:53,13,0,23.082,5217.8394455142,165.026252,0.4921268,1.72171593436,0,0,-0.671082,279.6, -1.4, 0,0,0,1024,1024,1024,1024,279.2,-89.9,94,3.824,3.822,3.875,3.842,3.856,3.835,17.537,75.2,14,Waypoint,
38.5271197,-120.3543211,5218.8236975142,166.010504,0,0.38806431688,22300,2018-07-07 18:05:53,13,0,23.082,5218.8236975142,166.010504,0.4921268,1.72171593436,0,0,-0.671082,279.6, -1.2, 0.2,0,0,1024,1024,1024,1024,279.2,-90,94,3.824,3.822,3.875,3.842,3.856,3.835,17.537,75.2,14,Waypoint,
38.5271196,-120.3543212,5219.8079495142,166.994756,0,0.34623032604,22400,2018-07-07 18:05:54,13,0,23.082,5219.8079495142,166.994756,0.4921268,1.72171593436,0,0,-0.671082,279.6, -1, 0.1,0,0,1024,1024,1024,1024,279.2,-89.9,94,3.824,3.822,3.875,3.842,3.856,3.835,17.537,75.2,14,Waypoint,
38.5271196,-120.3543212,5220.4641175142,167.650924,0,0.34623032604,22500,2018-07-07 18:05:54,13,0,23.082,5220.4641175142,167.650924,0.4921268,1.72171593436,0,0,-0.671082,279.6, -0.9, 0,0,0,1024,1024,1024,1024,279.2,-89.9,94,3.824,3.822,3.875,3.842,3.856,3.835,17.537,75.2,14,Waypoint,
38.5271196,-120.3543212,5221.4483695142,168.635176,0,0.34623032604,22600,2018-07-07 18:05:54,13,0,23.082,5221.4483695142,168.635176,0.4921268,1.72171593436,0,0,-0.671082,279.6, -0.8, -0.1,0,0,1024,1024,1024,1024,279.2,-89.9,94,3.824,3.822,3.875,3.842,3.856,3.835,17.537,75.2,14,Waypoint,
38.5271196,-120.3543212,5222.4326215142,169.619428,0,0.34623032604,22700,2018-07-07 18:05:54,13,0,23.082,5222.4326215142,169.619428,0.4921268,1.72171593436,0,0,-0.671082,279.5, -0.8, -0.1,0,0,1024,1024,1024,1024,279.2,-89.9,94,3.824,3.822,3.875,3.842,3.856,3.835,17.537,75.2,14,Waypoint,
38.5271196,-120.3543212,5223.4168735142,170.60368,0,0.34623032604,22800,2018-07-07 18:05:54,13,0,23.082,5223.4168735142,170.60368,0.4921268,1.72171593436,0,0,-0.671082,279.5, -0.8, 0,0,0,1024,1024,1024,1024,279.2,-90,94,3.824,3.822,3.875,3.842,3.856,3.835,17.537,75.2,14,Waypoint,
38.5271195,-120.3543212,5224.4011255142,171.587932,0,0.33250001064,22900,2018-07-07 18:05:54,13,0,23.082,5224.4011255142,171.587932,0.4921268,1.72171593436,0,0,-0.671082,279.4, -1, 0.2,0,0,1024,1024,1024,1024,279.2,-90,94,3.824,3.822,3.875,3.842,3.856,3.835,17.537,75.2,14,Waypoint,
38.5271195,-120.3543212,5225.3853775142,172.572184,0,0.33250001064,23000,2018-07-07 18:05:54,13,0,23.064,5225.3853775142,172.572184,0.4921268,1.72171593436,0,0,-0.671082,279.3, -1, 0.3,0,0,1024,1024,1024,1024,279.2,-90,94,3.827,3.811,3.878,3.855,3.859,3.832,17.618,75.2,14,Waypoint,
38.5271194,-120.3543212,5226.3696295142,173.556436,0,0.322337280656,23100,2018-07-07 18:05:54,13,0,23.064,5226.3696295142,173.556436,0.4921268,1.72171593436,0,0,-0.671082,279.3, -1.2, 0.4,0,0,1024,1024,1024,1024,279.2,-90,94,3.827,3.811,3.878,3.855,3.859,3.832,17.618,75.2,14,Waypoint,
38.5271194,-120.3543212,5227.3538815142,174.540688,0,0.322337280656,23200,2018-07-07 18:05:54,13,0,23.064,5227.3538815142,174.540688,0.4921268,1.72171593436,0,0,-0.671082,279.2, -1.3, 0.3,0,0,1024,1024,1024,1024,279.2,-89.9,94,3.827,3.811,3.878,3.855,3.859,3.832,17.618,75.2,14,Waypoint,
38.5271194,-120.3543212,5228.3381335142,175.52494,0,0.322337280656,23300,2018-07-07 18:05:54,13,0,23.064,5228.3381335142,175.52494,0.4921268,1.72171593436,0,0,-0.671082,279, -1.1, 0.2,0,0,1024,1024,1024,1024,279.2,-89.9,94,3.827,3.811,3.878,3.855,3.859,3.832,17.618,75.2,14,Waypoint,
38.5271194,-120.3543212,5229.3223855142,176.509192,0,0.322337280656,23400,2018-07-07 18:05:55,13,0,23.064,5229.3223855142,176.509192,0.4921268,1.72171593436,0,0,-0.671082,278.9, -0.9, 0.1,0,0,1024,1024,1024,1024,279.2,-89.9,94,3.827,3.811,3.878,3.855,3.859,3.832,17.618,75.2,14,Waypoint,
38.5271194,-120.3543212,5230.3066375142,177.493444,0,0.322337280656,23500,2018-07-07 18:05:55,13,0,23.064,5230.3066375142,177.493444,0.4921268,1.72171593436,0,0,-0.671082,278.8, -0.9, 0.3,0,0,1024,1024,1024,1024,279.2,-90,94,3.827,3.811,3.878,3.855,3.859,3.832,17.618,75.2,14,Waypoint,
38.5271194,-120.3543212,5231.2908895142,178.477696,0,0.322337280656,23600,2018-07-07 18:05:55,13,0,23.064,5231.2908895142,178.477696,0.4921268,1.72171593436,0,0,-0.671082,278.9, -1, 0.2,0,0,1024,1024,1024,1024,279.2,-90,94,3.827,3.811,3.878,3.855,3.859,3.832,17.618,75.2,14,Waypoint,
38.5271194,-120.3543212,5232.2751415142,179.461948,0,0.322337280656,23700,2018-07-07 18:05:55,13,0,23.064,5232.2751415142,179.461948,0.4921268,1.72171593436,0,0,-0.671082,279.1, -1.3, 0,0,0,1024,1024,1024,1024,279.2,-90,94,3.827,3.811,3.878,3.855,3.859,3.832,17.618,75.2,14,Waypoint,
38.5271194,-120.3543212,5233.2593935142,180.4462,0,0.322337280656,23800,2018-07-07 18:05:55,13,0,23.064,5233.2593935142,180.4462,0.4921268,1.72171593436,0,0,-0.671082,279.3, -1.5, 0,0,0,1024,1024,1024,1024,279.2,-90,94,3.827,3.811,3.878,3.855,3.859,3.832,17.618,75.2,14,Waypoint,
38.5271194,-120.3543212,5234.2436455142,181.430452,0,0.322337280656,23900,2018-07-07 18:05:55,13,0,23.064,5234.2436455142,181.430452,0.4921268,1.72171593436,0,0,-0.671082,279.6, -1.4, 0.1,0,0,1024,1024,1024,1024,279.2,-90,94,3.827,3.811,3.878,3.855,3.859,3.832,17.618,75.2,14,Waypoint,
38.5271194,-120.3543212,5235.2278975142,182.414704,0,0.322337280656,24000,2018-07-07 18:05:55,13,0,23.064,5235.2278975142,182.414704,0.4921268,1.72171593436,0,0,-0.671082,279.8, -1.2, 0.1,0,0,1024,1024,1024,1024,279.2,-90,94,3.827,3.811,3.878,3.855,3.859,3.832,17.618,75.2,14,Waypoint,
38.5271195,-120.3543212,5237.1964015142,184.383208,0,0.33250001064,24100,2018-07-07 18:05:55,13,0,23.064,5237.1964015142,184.383208,0.4921268,1.72171593436,0,0,-0.671082,279.7, -0.9, -0.1,0,0,1024,1024,1024,1024,279.2,-89.9,94,3.827,3.811,3.878,3.855,3.859,3.832,17.618,75.2,14,Waypoint,
38.5271195,-120.3543212,5238.1806535142,185.36746,0,0.33250001064,24200,2018-07-07 18:05:55,13,0,23.064,5238.1806535142,185.36746,0.4921268,1.72171593436,0,0,-0.671082,279.6, -1, -0.4,0,0,1024,1024,1024,1024,279.2,-90,94,3.827,3.811,3.878,3.855,3.859,3.832,17.618,75.2,14,Waypoint,
38.5271196,-120.3543212,5240.1491575142,187.335964,0,0.34623032604,24500,2018-07-07 18:05:56,13,0,23.064,5240.1491575142,187.335964,0.4921268,1.72171593436,0,0,-0.671082,279.3, -0.9, -0.9,0,0,1024,1024,1024,1024,279.2,-89.9,94,3.827,3.811,3.878,3.855,3.859,3.832,17.618,75.2,14,Waypoint,
38.5271197,-120.3543213,5241.1334095142,188.320216,0,0.33874344916,24600,2018-07-07 18:05:56,13,0,23.064,5241.1334095142,188.320216,0.4921268,1.72171593436,0,0,-0.671082,279.3, -0.9, -0.9,0,0,1024,1024,1024,1024,279.2,-89.9,94,3.827,3.811,3.878,3.855,3.859,3.832,17.618,75.2,14,Waypoint,
38.5271197,-120.3543213,5242.1176615142,189.304468,0,0.33874344916,24700,2018-07-07 18:05:56,13,0,23.064,5242.1176615142,189.304468,0.4921268,1.72171593436,0,0,-0.671082,279.6, -0.9, -0.6,0,0,1024,1024,1024,1024,279.2,-89.9,94,3.827,3.811,3.878,3.855,3.859,3.832,17.618,75.2,14,Waypoint,
38.5271197,-120.3543213,5243.1019135142,190.28872,0,0.33874344916,24800,2018-07-07 18:05:56,13,0,23.064,5243.1019135142,190.28872,0.4921268,1.72171593436,0,0,-0.671082,279.9, -0.8, -0.1,0,0,1024,1024,1024,1024,279.2,-89.9,94,3.827,3.811,3.878,3.855,3.859,3.832,17.618,75.2,14,Waypoint,
38.5271197,-120.3543214,5244.0861655142,191.272972,0,0.315068579636,24900,2018-07-07 18:05:56,13,0,23.064,5244.0861655142,191.272972,0.4921268,1.72171593436,0,0,-0.671082,280.2, -0.8, 0.2,0,0,1024,1024,1024,1024,279.2,-90,94,3.827,3.811,3.878,3.855,3.859,3.832,17.618,75.2,14,Waypoint,
38.5271197,-120.3543214,5245.0704175142,192.257224,0,0.315068579636,25000,2018-07-07 18:05:56,13,0,22.941,5245.0704175142,192.257224,0.4921268,1.72171593436,0,0,-0.671082,280.2, -0.7, 0.1,0,0,1024,1024,1024,1024,279.2,-90,94,3.797,3.793,3.861,3.826,3.84,3.815,18.609,75.2,14,Waypoint,
38.5271197,-120.3543214,5246.0546695142,193.241476,0,0.315068579636,25100,2018-07-07 18:05:56,13,0,22.941,5246.0546695142,193.241476,0.4921268,1.72171593436,0,0,-0.671082,280.1, -0.8, -0.1,0,0,1024,1024,1024,1024,279.2,-90,94,3.797,3.793,3.861,3.826,3.84,3.815,18.609,75.2,14,Waypoint,
38.5271198,-120.3543214,5247.0389215142,194.225728,0,0.33750657248,25200,2018-07-07 18:05:56,13,0,22.941,5247.0389215142,194.225728,0.4921268,1.72171593436,0,0,-0.671082,279.9, -0.9, -0.6,0,0,1024,1024,1024,1024,279.2,-90,94,3.797,3.793,3.861,3.826,3.84,3.815,18.609,75.2,14,Waypoint,
38.5271199,-120.3543214,5248.0231735142,195.20998,0,0.3622375444,25300,2018-07-07 18:05:56,13,0,22.941,5248.0231735142,195.20998,0.4921268,1.72171593436,0,0,-0.671082,279.6, -1, -1.1,0,0,1024,1024,1024,1024,279.2,-90,94,3.797,3.793,3.861,3.826,3.84,3.815,18.609,75.2,14,Waypoint,
38.52712,-120.3543213,5249.0074255142,196.194232,0,0.40824148288,25400,2018-07-07 18:05:57,13,0,22.941,5249.0074255142,196.194232,0.4921268,1.72171593436,0,0,-0.671082,279.3, -1.2, -1.6,0,0,1024,1024,1024,1024,279.2,-90,94,3.797,3.793,3.861,3.826,3.84,3.815,18.609,75.2,14,Waypoint,
38.52712,-120.3543213,5250.3197615142,197.506568,0,0.40824148288,25500,2018-07-07 18:05:57,13,0,22.941,5250.3197615142,197.506568,0.4921268,1.72171593436,0,0,-0.671082,279.1, -1.4, -1.7,0,0,1024,1024,1024,1024,279.2,-90,94,3.797,3.793,3.861,3.826,3.84,3.815,18.609,75.2,14,Waypoint,
38.5271201,-120.3543213,5251.3040135142,198.49082,0,0.43507547324,25600,2018-07-07 18:05:57,13,0,22.941,5251.3040135142,198.49082,0.4921268,1.72171593436,0,0,-0.671082,279, -1.6, -1.5,0,0,1024,1024,1024,1024,279.2,-90,94,3.797,3.793,3.861,3.826,3.84,3.815,18.609,75.2,14,Waypoint,
38.5271201,-120.3543213,5252.2882655142,199.475072,0,0.43507547324,25700,2018-07-07 18:05:57,13,0,22.941,5252.2882655142,199.475072,0.4921268,1.72171593436,0,0,-0.671082,279, -1.7, -1.4,0,0,1024,1024,1024,1024,279.2,-90,94,3.797,3.793,3.861,3.826,3.84,3.815,18.609,75.2,14,Waypoint,
38.5271202,-120.3543213,5253.2725175142,200.459324,0,0.46323164212,25800,2018-07-07 18:05:57,13,0,22.941,5253.2725175142,200.459324,0.4921268,1.72171593436,0,0,-0.671082,279, -1.7, -1.3,0,0,1024,1024,1024,1024,279.2,-90,94,3.797,3.793,3.861,3.826,3.84,3.815,18.609,75.2,14,Waypoint,
38.5271202,-120.3543213,5255.2410215142,202.427828,0,0.46323164212,26000,2018-07-07 18:05:57,13,0,22.878,5255.2410215142,202.427828,0.4921268,1.72171593436,0,0,-0.671082,279.2, -1.7, -1.3,0,0,1024,1024,1024,1024,279.2,-90,94,3.787,3.781,3.847,3.827,3.825,3.811,18.875,75.2,14,Waypoint,
