Latitude, Longitude, Altitude (m), Time, Sats, Speed (m/s), Range (m), Battery (%), Roll (deg), Pitch (deg), Yaw (deg), Images, HD Signal (%), RC Signal (%), Battery Temp (C), Battery Voltage (mV), Battery Current (mA), Battery Energy (mAh), Battery Capacity (mAh), Battery Discharges, flyState, timestamp (Unix), LastUpdate (ms), radioChannel, Rc_elevator, Rc_aileron, Rc_throttle, Rc_rudder, Rc_gyro, Dronetype, Battery_Cell1 (mV), Battery_Cell2 (mV), Battery_Cell3 (mV), Battery_Cell4 (mV), Battery_Cell5 (mV), Battery_Cell6 (mV), Video, isFlying, elapsedTime (ms), gimbalPitch (deg), gimbalRoll (deg), gimbalYaw (deg), VelocityX (m/s), VelocityY (m/s), VelocityZ (m/s), GroundSmear (cm), App Version, Aircraft Name, Aircraft Firmware, Aircraft Serial Number, Battery Serial Number, Battery Lifetime (%), App_Tip, App_Warning, CurrentFlightStartingIndex, CurrentFlightLastVisitedWaypoint, PreviousFlightEndingWaypointIndex
38.5270816, -120.3543426, -0.100, 11:42:55.750, 10, 0.00, 0.03, 92, 1.300, -0.500, -40.200, 788, 100, 100, 23, 25169, -3695, 4676, 5083, 19, 11, 1530988975.750, 39, 0, 1024, 1024, 1024, 1024, 0, 6, 4185, 4215, 4195, 4217, 4215, 4197, 0, 1, 3135, -89.900, 0.000, -41.600, 0.000, 0.000, -0.100, 0.0, MapPilot_2.8.1_04242018, Dendroctonus I, 1.3.1.00, 041DDC1887, 1058171200154, 96, DJI_0786.jpg, Starting Mission from Lat/Long: 38.52708/-120.35434 Camera: Zenmuse X3 - Overlap: 90/90 - Active Connection: No, 31, 31, 31
38.5270816, -120.3543426, -0.100, 11:42:55.814, 10, 0.00, 0.03, 92, 1.300, -0.500, -40.200, 788, 100, 100, 23, 25169, -3695, 4676, 5083, 19, 11, 1530988975.815, 104, 0, 1024, 1024, 1024, 1024, 0, 6, 4185, 4215, 4195, 4217, 4215, 4197, 0, 1, 3200, -89.900, 0.000, -41.600, 0.000, 0.000, -0.100, 0.0, , , , , , 96, , , 31, 31, 31
38.5270816, -120.3543426, -0.100, 11:42:55.915, 10, 0.00, 0.03, 92, 1.400, -0.100, -39.900, 788, 100, 100, 23, 25169, -3695, 4676, 5083, 19, 11, 1530988975.915, 68, 0, 1024, 1024, 1024, 1024, 0, 6, 4185, 4215, 4195, 4217, 4215, 4197, 0, 1, 3300, -89.900, 0.000, -41.600, 0.000, 0.000, -0.200, 0.0, , , , , , 96, , , 31, 31, 31
38.5270817, -120.3543425, 0.000, 11:42:56.014, 10, 0.00, 0.02, 92, 1.100, 0.100, -39.700, 788, 100, 100, 23, 25169, -3695, 4676, 5083, 19, 11, 1530988976.015, 69, 0, 1024, 1024, 1024, 1024, 0, 6, 4185, 4215, 4195, 4217, 4215, 4197, 0, 1, 3400, -89.900, 0.000, -41.600, 0.000, 0.000, -0.400, 0.0, , , , , , 96, , , 31, 31, 31
38.5270818, -120.3543425, 0.000, 11:42:56.114, 10, 0.00, 0.02, 92, 0.600, 0.400, -39.600, 788, 100, 100, 23, 25169, -3695, 4676, 5083, 19, 11, 1530988976.115, 62, 0, 1024, 1024, 1024, 1024, 0, 6, 4185, 4215, 4195, 4217, 4215, 4197, 0, 1, 3499, -89.900, 0.000, -41.600, 0.000, 0.000, -0.500, 0.0, , , , , , 96, , , 31, 31, 31
38.5270818, -120.3543424, 0.000, 11:42:56.214, 10, 0.00, 0.03, 92, 0.100, 0.800, -39.500, 788, 100, 100, 23, 25169, -3695, 4676, 5083, 19, 11, 1530988976.215, 75, 0, 1024, 1024, 1024, 1024, 0, 6, 4185, 4215, 4195, 4217, 4215, 4197, 0, 1, 3600, -89.900, 0.000, -41.500, 0.000, 0.000, -0.500, 0.0, , , , , , 96, , , 31, 31, 31
38.5270819, -120.3543423, 0.100, 11:42:56.314, 10, 0.10, 0.04, 92, 0.000, 0.900, -39.500, 788, 100, 100, 23, 25169, -3695, 4676, 5083, 19, 11, 1530988976.315, 65, 0, 1024, 1024, 1024, 1024, 0, 6, 4185, 4215, 4195, 4217, 4215, 4197, 0, 1, 3700, -89.900, 0.000, -41.500, 0.100, 0.000, -0.500, 0.0, , , , , , 96, , , 31, 31, 31
38.5270820, -120.3543421, 0.100, 11:42:56.415, 10, 0.00, 0.06, 92, -0.400, 1.000, -39.500, 788, 100, 100, 23, 25169, -3695, 4676, 5083, 19, 11, 1530988976.415, 57, 0, 1024, 1024, 1024, 1024, 0, 6, 4185, 4215, 4195, 4217, 4215, 4197, 0, 1, 3800, -89.900, 0.000, -41.500, 0.000, 0.000, -0.400, 0.0, , , , , , 96, , , 31, 31, 31
38.5270821, -120.3543421, 0.200, 11:42:56.514, 10, 0.00, 0.07, 92, -0.900, 0.800, -39.600, 788, 100, 100, 23, 24303, -9963, 4676, 5083, 19, 11, 1530988976.515, 62, 0, 1024, 1024, 1024, 1024, 0, 6, 4045, 4045, 4070, 4051, 3971, 4011, 0, 1, 3900, -89.900, 0.000, -41.500, 0.000, 0.000, -0.400, 0.0, , , , , , 96, , , 31, 31, 31
38.5270821, -120.3543420, 0.200, 11:42:56.614, 10, 0.00, 0.07, 92, -1.000, 0.600, -39.700, 788, 100, 100, 23, 24303, -9963, 4676, 5083, 19, 11, 1530988976.615, 50, 0, 1024, 1024, 1024, 1024, 0, 6, 4045, 4045, 4070, 4051, 3971, 4011, 0, 1, 3999, -89.900, 0.000, -41.500, 0.000, 0.000, -0.400, 0.0, , , , , , 96, , , 31, 31, 31
38.5270822, -120.3543420, 0.300, 11:42:56.714, 10, 0.00, 0.08, 92, -1.000, 0.400, -39.900, 788, 100, 100, 23, 24303, -9963, 4676, 5083, 19, 11, 1530988976.715, 15, 0, 1024, 1024, 1024, 1024, 0, 6, 4045, 4045, 4070, 4051, 3971, 4011, 0, 1, 4099, -89.900, 0.000, -41.500, 0.000, 0.000, -0.400, 0.0, , , , , , 96, , , 31, 31, 31
38.5270822, -120.3543420, 0.300, 11:42:56.814, 10, 0.00, 0.08, 92, -1.000, 0.300, -40.000, 788, 100, 100, 23, 24303, -9963, 4676, 5083, 19, 11, 1530988976.815, 31, 0, 1024, 1024, 1024, 1024, 0, 6, 4045, 4045, 4070, 4051, 3971, 4011, 0, 1, 4199, -90.000, 0.000, -41.400, 0.000, 0.000, -0.400, 0.0, , , , , , 96, , , 31, 31, 31
38.5270822, -120.3543419, 0.400, 11:42:56.914, 10, 0.00, 0.09, 92, -1.000, 0.200, -40.300, 788, 100, 100, 23, 24303, -9963, 4676, 5083, 19, 11, 1530988976.915, 37, 0, 1024, 1024, 1024, 1024, 0, 6, 4045, 4045, 4070, 4051, 3971, 4011, 0, 1, 4299, -90.000, 0.000, -41.400, 0.000, 0.000, -0.400, 0.0, , , , , , 96, , , 31, 31, 31
38.5270823, -120.3543419, 0.500, 11:42:57.014, 10, 0.00, 0.09, 92, -0.900, -0.100, -40.800, 788, 100, 100, 23, 24303, -9963, 4676, 5083, 19, 11, 1530988977.015, 22, 0, 1024, 1024, 1024, 1024, 0, 6, 4045, 4045, 4070, 4051, 3971, 4011, 0, 1, 4400, -90.000, 0.000, -41.400, 0.000, 0.000, -0.400, 0.0, , , , , , 96, , , 31, 31, 31
38.5270823, -120.3543420, 0.500, 11:42:57.114, 10, 0.00, 0.09, 92, -0.900, 0.000, -41.000, 788, 100, 100, 23, 24303, -9963, 4676, 5083, 19, 11, 1530988977.115, 27, 0, 1024, 1024, 1024, 1024, 0, 6, 4045, 4045, 4070, 4051, 3971, 4011, 0, 1, 4499, -90.000, 0.000, -41.400, 0.000, 0.000, -0.400, 0.0, , , , , , 96, , , 31, 31, 31
38.5270823, -120.3543420, 0.500, 11:42:57.214, 10, 0.00, 0.09, 92, -0.700, 0.000, -41.200, 788, 100, 100, 23, 24303, -9963, 4676, 5083, 19, 11, 1530988977.215, 14, 0, 1024, 1024, 1024, 1024, 0, 6, 4045, 4045, 4070, 4051, 3971, 4011, 0, 1, 4599, -90.000, 0.000, -41.400, 0.000, 0.000, -0.400, 0.0, , , , , , 96, , , 31, 31, 31
38.5270824, -120.3543421, 0.600, 11:42:57.314, 9, 0.00, 0.09, 92, -0.600, 0.400, -41.300, 788, 100, 100, 23, 24303, -9963, 4676, 5083, 19, 11, 1530988977.315, 17, 0, 1024, 1024, 1024, 1024, 0, 6, 4045, 4045, 4070, 4051, 3971, 4011, 0, 1, 4699, -89.900, 0.000, -41.400, 0.000, 0.000, -0.500, 0.0, , , , , , 96, , , 31, 31, 31
38.5270825, -120.3543422, 0.700, 11:42:57.414, 9, 0.00, 0.09, 92, -0.300, 0.800, -41.200, 788, 100, 100, 23, 23633, -16654, 4676, 5083, 19, 11, 1530988977.415, 10, 0, 1024, 1024, 1024, 1024, 0, 6, 4045, 4045, 4070, 4051, 3971, 4011, 0, 1, 4799, -89.900, 0.000, -41.300, 0.000, 0.000, -0.500, 0.0, , , , , , 96, , , 31, 31, 31
38.5270825, -120.3543422, 0.700, 11:42:57.514, 9, 0.00, 0.09, 92, -0.300, 0.800, -41.200, 788, 100, 100, 23, 23633, -16654, 4676, 5083, 19, 11, 1530988977.515, 110, 0, 1024, 1024, 1024, 1024, 0, 6, 4045, 4045, 4070, 4051, 3971, 4011, 0, 1, 4899, -89.900, 0.000, -41.300, 0.000, 0.000, -0.500, 0.0, , , , , , 96, , , 31, 31, 31
38.5270825, -120.3543423, 0.700, 11:42:57.614, 9, 0.00, 0.09, 92, -0.100, 1.100, -41.100, 788, 100, 100, 23, 23633, -16654, 4676, 5083, 19, 11, 1530988977.615, 87, 0, 1024, 1024, 1024, 1024, 0, 6, 4045, 4045, 4070, 4051, 3971, 4011, 0, 1, 5000, -89.900, 0.000, -41.300, 0.000, 0.000, -0.500, 0.0, , , , , , 96, , , 31, 31, 31
38.5270825, -120.3543423, 0.800, 11:42:57.714, 9, 0.00, 0.09, 92, 0.000, 1.100, -40.900, 788, 100, 100, 23, 23633, -16654, 4676, 5083, 19, 11, 1530988977.715, 86, 0, 1024, 1024, 1024, 1024, 0, 6, 4045, 4045, 4070, 4051, 3971, 4011, 0, 1, 5099, -89.900, 0.000, -41.300, 0.000, 0.000, -0.400, 0.0, , , , , , 96, , , 31, 31, 31
38.5270826, -120.3543423, 0.800, 11:42:57.814, 9, 0.00, 0.10, 92, -0.300, 1.100, -40.700, 788, 100, 100, 23, 23633, -16654, 4676, 5083, 19, 11, 1530988977.815, 85, 0, 1024, 1024, 1024, 1024, 0, 6, 4045, 4045, 4070, 4051, 3971, 4011, 0, 1, 5199, -89.900, 0.000, -41.300, 0.000, 0.000, -0.400, 0.0, , , , , , 96, , , 31, 31, 31
38.5270826, -120.3543423, 0.900, 11:42:57.914, 9, 0.00, 0.09, 92, -0.500, 1.000, -40.400, 788, 100, 100, 23, 23633, -16654, 4676, 5083, 19, 11, 1530988977.915, 85, 0, 1024, 1024, 1024, 1024, 0, 6, 4045, 4045, 4070, 4051, 3971, 4011, 0, 1, 5299, -89.900, 0.000, -41.300, 0.000, 0.000, -0.400, 0.0, , , , , , 96, , , 31, 31, 31
38.5270826, -120.3543424, 0.900, 11:42:58.014, 9, 0.00, 0.09, 92, -0.500, 1.100, -40.100, 788, 100, 100, 23, 23633, -16654, 4676, 5083, 19, 14, 1530988978.015, 87, 0, 1024, 1024, 1024, 1024, 0, 6, 3931, 3936, 3956, 3941, 3909, 3929, 0, 1, 5399, -89.900, 0.000, -41.300, 0.000, 0.000, -0.400, 0.0, , , , , , 96, , , 31, 31, 31
38.5270826, -120.3543424, 1.000, 11:42:58.114, 9, 0.00, 0.10, 92, -0.300, 1.000, -39.800, 788, 100, 100, 23, 23633, -16654, 4676, 5083, 19, 14, 1530988978.115, 78, 0, 1024, 1024, 1024, 1024, 0, 6, 3931, 3936, 3956, 3941, 3909, 3929, 0, 1, 5499, -89.900, 0.000, -41.200, 0.000, 0.000, -0.300, 0.0, , , , , , 96, , , 31, 31, 31
38.5270827, -120.3543423, 1.000, 11:42:58.214, 9, 0.00, 0.11, 92, 0.000, 1.100, -39.500, 788, 100, 100, 23, 23633, -16654, 4676, 5083, 19, 14, 1530988978.215, 81, 0, 1024, 1024, 1024, 1024, 0, 6, 3931, 3936, 3956, 3941, 3909, 3929, 0, 1, 5599, -89.900, 0.000, -41.200, 0.000, 0.000, -0.200, 0.0, , , , , , 96, , , 31, 31, 31
38.5270827, -120.3543424, 1.000, 11:42:58.314, 9, 0.00, 0.10, 92, 0.000, 1.100, -39.200, 788, 100, 100, 23, 23633, -16654, 4676, 5083, 19, 14, 1530988978.315, 59, 0, 1024, 1024, 1024, 1024, 0, 6, 3931, 3936, 3956, 3941, 3909, 3929, 0, 1, 5699, -89.900, 0.000, -41.200, 0.000, 0.000, -0.200, 0.0, , , , , , 96, , , 31, 31, 31
38.5270826, -120.3543425, 1.000, 11:42:58.414, 9, 0.00, 0.09, 92, 0.000, 0.900, -39.000, 788, 100, 100, 23, 23633, -16654, 4676, 5083, 19, 14, 1530988978.415, 62, 0, 1024, 1024, 1024, 1024, 0, 6, 3931, 3936, 3956, 3941, 3909, 3929, 0, 1, 5799, -89.900, 0.000, -41.100, 0.000, 0.000, -0.300, 0.0, , , , , , 96, , , 31, 31, 31
38.5270826, -120.3543425, 1.000, 11:42:58.514, 9, 0.00, 0.10, 92, 0.100, 0.800, -38.800, 788, 100, 100, 23, 23633, -16654, 4676, 5083, 19, 14, 1530988978.515, 61, 0, 1024, 1024, 1024, 1024, 0, 6, 3931, 3936, 3956, 3941, 3909, 3929, 0, 1, 5899, -89.900, 0.000, -41.100, 0.000, 0.000, -0.400, 0.0, , , , , , 96, , , 31, 31, 31
38.5270827, -120.3543426, 1.100, 11:42:58.614, 9, 0.00, 0.10, 92, 0.100, 0.700, -38.700, 788, 100, 100, 23, 23633, -16654, 4676, 5083, 19, 14, 1530988978.615, 52, 0, 1024, 1024, 1024, 1024, 0, 6, 3931, 3936, 3956, 3941, 3909, 3929, 0, 1, 5999, -89.900, 0.000, -41.000, 0.000, 0.000, -0.600, 0.0, , , , , , 96, , , 31, 31, 31
38.5270827, -120.3543426, 1.200, 11:42:58.714, 9, 0.00, 0.10, 92, 0.000, 0.700, -38.700, 788, 100, 100, 23, 23633, -16654, 4676, 5083, 19, 14, 1530988978.715, 53, 0, 1024, 1024, 1024, 1024, 0, 6, 3931, 3936, 3956, 3941, 3909, 3929, 0, 1, 6099, -89.900, 0.000, -41.000, 0.000, 0.000, -0.800, 0.0, , , , , , 96, , , 31, 31, 31
38.5270826, -120.3543426, 1.300, 11:42:58.814, 9, 0.00, 0.10, 92, -0.400, 0.600, -38.900, 788, 100, 100, 23, 23633, -16654, 4676, 5083, 19, 14, 1530988978.815, 32, 0, 1024, 1024, 1024, 1024, 0, 6, 3931, 3936, 3956, 3941, 3909, 3929, 0, 1, 6199, -90.000, 0.000, -40.900, 0.000, 0.000, -0.900, 0.0, , , , , , 96, , , 31, 31, 31
38.5270827, -120.3543425, 1.400, 11:42:58.914, 9, 0.00, 0.10, 92, -0.400, 0.500, -39.000, 788, 100, 100, 23, 23382, -17255, 4676, 5083, 19, 14, 1530988978.915, 33, 0, 1024, 1024, 1024, 1024, 0, 6, 3893, 3892, 3918, 3901, 3874, 3907, 0, 1, 6300, -90.000, 0.000, -40.900, 0.000, 0.000, -1.100, 0.0, , , , , , 96, , , 31, 31, 31
38.5270827, -120.3543424, 1.500, 11:42:59.014, 9, 0.00, 0.10, 92, -0.400, 0.400, -39.200, 788, 100, 100, 23, 23382, -17255, 4676, 5083, 19, 14, 1530988979.014, 35, 0, 1024, 1024, 1024, 1024, 0, 6, 3893, 3892, 3918, 3901, 3874, 3907, 0, 1, 6399, -90.000, 0.000, -40.800, 0.000, 0.000, -1.300, 0.0, , , , , , 96, , , 31, 31, 31
38.5270826, -120.3543424, 1.800, 11:42:59.114, 9, 0.00, 0.10, 92, -0.500, 0.400, -39.300, 788, 100, 100, 23, 23382, -17255, 4676, 5083, 19, 14, 1530988979.114, 26, 0, 1024, 1024, 1024, 1024, 0, 6, 3893, 3892, 3918, 3901, 3874, 3907, 0, 1, 6499, -89.900, 0.000, -40.800, 0.000, 0.000, -1.800, 0.0, , , , , , 96, , , 31, 31, 31
38.5270826, -120.3543424, 1.800, 11:42:59.214, 9, 0.00, 0.10, 92, -0.500, 0.400, -39.300, 788, 100, 100, 23, 23382, -17255, 4676, 5083, 19, 14, 1530988979.214, 126, 0, 1024, 1024, 1024, 1024, 0, 6, 3893, 3892, 3918, 3901, 3874, 3907, 0, 1, 6599, -89.900, 0.000, -40.700, 0.000, 0.000, -1.800, 0.0, , , , , , 96, , , 31, 31, 31
38.5270826, -120.3543423, 2.000, 11:42:59.314, 9, 0.00, 0.09, 92, -0.700, 0.500, -39.200, 788, 100, 100, 23, 23382, -17255, 4676, 5083, 19, 14, 1530988979.315, 10, 0, 1024, 1024, 1024, 1024, 0, 6, 3893, 3892, 3918, 3901, 3874, 3907, 0, 1, 6699, -90.000, 0.000, -40.700, 0.000, 0.000, -2.100, 0.0, , , , , , 96, , , 31, 31, 31
38.5270825, -120.3543423, 2.200, 11:42:59.414, 9, 0.00, 0.09, 92, -0.700, 0.400, -39.100, 788, 100, 100, 23, 23382, -17255, 4676, 5083, 19, 14, 1530988979.414, 12, 0, 1024, 1024, 1024, 1024, 0, 6, 3893, 3892, 3918, 3901, 3874, 3907, 0, 1, 6799, -90.000, 0.000, -40.700, 0.000, 0.000, -2.100, 0.0, , , , , , 96, , , 31, 31, 31
38.5270824, -120.3543421, 2.700, 11:42:59.514, 9, 0.00, 0.08, 92, 0.000, 0.000, -38.600, 788, 100, 100, 23, 23382, -17255, 4676, 5083, 19, 14, 1530988979.514, 8, 0, 1024, 1024, 1024, 1024, 0, 6, 3893, 3892, 3918, 3901, 3874, 3907, 0, 1, 6899, -90.000, 0.000, -40.600, 0.000, 0.000, -2.700, 0.0, , , , , , 96, , , 31, 31, 31
38.5270823, -120.3543420, 3.000, 11:42:59.614, 9, 0.00, 0.09, 92, 0.000, -0.300, -38.500, 788, 100, 100, 23, 23382, -17255, 4676, 5083, 19, 14, 1530988979.614, 17, 0, 1024, 1024, 1024, 1024, 0, 6, 3893, 3892, 3918, 3901, 3874, 3907, 0, 1, 6999, -90.000, 0.000, -40.600, 0.000, 0.000, -2.900, 0.0, , , , , , 96, , , 31, 31, 31
38.5270823, -120.3543419, 3.300, 11:42:59.720, 9, 0.00, 0.09, 92, -0.200, -0.500, -38.400, 788, 100, 100, 23, 23382, -17255, 4676, 5083, 19, 14, 1530988979.720, 3, 0, 1024, 1024, 1024, 1024, 0, 6, 3893, 3892, 3918, 3901, 3874, 3907, 0, 1, 7105, -90.000, 0.000, -40.600, 0.000, 0.000, -3.100, 0.0, , , , , , 96, , , 31, 31, 31
38.5270823, -120.3543418, 3.600, 11:42:59.814, 9, 0.00, 0.10, 92, -0.600, -0.600, -38.500, 788, 100, 100, 23, 23382, -17255, 4676, 5083, 19, 14, 1530988979.815, 11, 0, 1024, 1024, 1024, 1024, 0, 6, 3893, 3892, 3918, 3901, 3874, 3907, 0, 1, 7199, -90.000, 0.000, -40.500, 0.000, 0.000, -3.200, 0.0, , , , , , 96, , , 31, 31, 31
38.5270823, -120.3543416, 4.000, 11:42:59.914, 9, 0.00, 0.11, 92, -1.000, -0.500, -38.700, 788, 100, 100, 23, 23314, -18325, 4676, 5083, 19, 14, 1530988979.914, 9, 0, 1024, 1024, 1024, 1024, 0, 6, 3832, 3830, 3865, 3875, 3839, 3826, 0, 1, 7299, -90.000, 0.000, -40.500, 0.000, 0.000, -3.300, 0.0, , , , , , 96, , , 31, 31, 31
38.5270823, -120.3543416, 4.000, 11:43:00.014, 9, 0.00, 0.11, 92, -1.000, -0.500, -38.700, 788, 100, 100, 23, 23314, -18325, 4676, 5083, 19, 14, 1530988980.015, 109, 0, 1024, 1024, 1024, 1024, 0, 6, 3832, 3830, 3865, 3875, 3839, 3826, 0, 1, 7399, -90.000, 0.000, -40.500, 0.000, 0.000, -3.300, 0.0, , , , , , 96, , , 31, 31, 31
38.5270823, -120.3543414, 4.300, 11:43:00.114, 9, 0.00, 0.13, 92, -1.100, -0.300, -38.900, 788, 100, 100, 23, 23314, -18325, 4676, 5083, 19, 14, 1530988980.114, 92, 0, 1024, 1024, 1024, 1024, 0, 6, 3832, 3830, 3865, 3875, 3839, 3826, 0, 1, 7499, -90.000, 0.000, -40.500, 0.000, 0.000, -3.300, 0.0, , , , , , 96, , , 31, 31, 31
38.5270823, -120.3543412, 4.700, 11:43:00.214, 9, 0.00, 0.15, 92, -1.300, -0.100, -39.100, 788, 100, 100, 23, 23314, -18325, 4676, 5083, 19, 14, 1530988980.214, 83, 0, 1024, 1024, 1024, 1024, 0, 6, 3832, 3830, 3865, 3875, 3839, 3826, 0, 1, 7599, -89.900, 0.000, -40.400, 0.000, 0.000, -3.300, 0.0, , , , , , 96, , , 31, 31, 31
38.5270823, -120.3543410, 5.000, 11:43:00.314, 9, 0.00, 0.16, 92, -1.400, -0.200, -39.300, 788, 100, 100, 23, 23314, -18325, 4676, 5083, 19, 14, 1530988980.314, 81, 0, 1024, 1024, 1024, 1024, 0, 6, 3832, 3830, 3865, 3875, 3839, 3826, 0, 1, 7699, -90.000, 0.000, -40.400, 0.000, 0.000, -3.200, 0.0, , , , , , 96, , , 31, 31, 31
38.5270823, -120.3543409, 5.300, 11:43:00.414, 9, 0.00, 0.17, 92, -1.400, -0.300, -39.300, 788, 100, 100, 23, 23314, -18325, 4676, 5083, 19, 14, 1530988980.414, 85, 0, 1024, 1024, 1024, 1024, 0, 6, 3832, 3830, 3865, 3875, 3839, 3826, 0, 1, 7799, -90.000, 0.000, -40.400, 0.000, 0.000, -3.300, 0.0, , , , , , 96, , , 31, 31, 31
38.5270823, -120.3543408, 5.700, 11:43:00.514, 9, 0.00, 0.18, 92, -1.400, -0.500, -39.200, 788, 100, 100, 23, 23314, -18325, 4676, 5083, 19, 14, 1530988980.514, 87, 0, 1024, 1024, 1024, 1024, 0, 6, 3832, 3830, 3865, 3875, 3839, 3826, 0, 1, 7899, -90.000, 0.000, -40.300, 0.000, 0.000, -3.300, 0.0, , , , , , 96, , , 31, 31, 31
38.5270823, -120.3543408, 6.000, 11:43:00.614, 9, 0.00, 0.18, 92, -1.100, -0.700, -39.100, 788, 100, 100, 23, 23314, -18325, 4676, 5083, 19, 14, 1530988980.614, 75, 0, 1024, 1024, 1024, 1024, 0, 6, 3832, 3830, 3865, 3875, 3839, 3826, 0, 1, 7999, -90.000, 0.000, -40.300, 0.000, 0.000, -3.200, 0.0, , , , , , 96, , , 31, 31, 31
38.5270823, -120.3543409, 6.300, 11:43:00.714, 9, 0.00, 0.17, 92, -0.800, -0.600, -39.000, 788, 100, 100, 23, 23314, -18325, 4676, 5083, 19, 14, 1530988980.714, 77, 0, 1024, 1024, 1024, 1024, 0, 6, 3832, 3830, 3865, 3875, 3839, 3826, 0, 1, 8099, -90.000, 0.000, -40.300, 0.000, 0.000, -3.200, 0.0, , , , , , 96, , , 31, 31, 31
38.5270822, -120.3543410, 6.700, 11:43:00.814, 9, 0.00, 0.16, 92, -0.500, -0.300, -38.900, 788, 100, 100, 23, 23314, -18325, 4676, 5083, 19, 14, 1530988980.814, 73, 0, 1024, 1024, 1024, 1024, 0, 6, 3832, 3830, 3865, 3875, 3839, 3826, 0, 1, 8199, -89.900, 0.000, -40.300, 0.000, 0.000, -3.200, 0.0, , , , , , 96, , , 31, 31, 31
38.5270822, -120.3543411, 7.000, 11:43:00.914, 9, 0.00, 0.15, 92, -0.400, -0.200, -38.800, 788, 100, 100, 23, 23314, -18325, 4676, 5083, 19, 14, 1530988980.915, 61, 0, 1024, 1024, 1024, 1024, 0, 6, 3832, 3830, 3865, 3875, 3839, 3826, 0, 1, 8299, -89.900, 0.000, -40.200, 0.000, 0.000, -3.200, 0.0, , , , , , 96, , , 31, 31, 31
38.5270822, -120.3543413, 7.300, 11:43:01.014, 11, 0.00, 0.14, 92, -0.300, 0.000, -38.700, 788, 100, 100, 23, 22514, -25526, 4676, 5083, 19, 14, 1530988981.014, 39, 0, 1024, 1024, 1024, 1024, 0, 6, 3771, 3765, 3798, 3761, 3735, 3785, 0, 1, 8399, -89.900, 0.000, -40.200, 0.000, 0.000, -3.200, 0.0, , , , , , 96, , , 31, 31, 31
38.5270821, -120.3543415, 7.600, 11:43:01.114, 11, 0.00, 0.12, 92, 0.000, 0.200, -38.700, 788, 100, 100, 23, 22514, -25526, 4676, 5083, 19, 14, 1530988981.114, 44, 0, 1024, 1024, 1024, 1024, 0, 6, 3771, 3765, 3798, 3761, 3735, 3785, 0, 1, 8499, -89.900, 0.000, -40.200, 0.000, 0.000, -3.200, 0.0, , , , , , 96, , , 31, 31, 31
38.5270821, -120.3543417, 8.000, 11:43:01.214, 11, 0.00, 0.10, 92, 0.400, 0.200, -38.600, 788, 100, 100, 23, 22514, -25526, 4676, 5083, 19, 14, 1530988981.214, 48, 0, 1024, 1024, 1024, 1024, 0, 6, 3771, 3765, 3798, 3761, 3735, 3785, 0, 1, 8599, -89.900, 0.000, -40.200, 0.000, 0.000, -3.200, 0.0, , , , , , 96, , , 31, 31, 31
38.5270821, -120.3543419, 8.300, 11:43:01.314, 11, 0.00, 0.09, 92, 0.400, 0.300, -38.700, 788, 100, 100, 23, 22514, -25526, 4676, 5083, 19, 14, 1530988981.315, 51, 0, 1024, 1024, 1024, 1024, 0, 6, 3771, 3765, 3798, 3761, 3735, 3785, 0, 1, 8699, -89.900, 0.000, -40.200, 0.000, 0.000, -3.200, 0.0, , , , , , 96, , , 31, 31, 31
38.5270822, -120.3543420, 8.600, 11:43:01.414, 11, 0.00, 0.08, 92, 0.300, 0.500, -38.700, 788, 100, 100, 23, 22514, -25526, 4676, 5083, 19, 14, 1530988981.414, 45, 0, 1024, 1024, 1024, 1024, 0, 6, 3771, 3765, 3798, 3761, 3735, 3785, 0, 1, 8799, -89.900, 0.000, -40.200, 0.000, 0.000, -3.200, 0.0, , , , , , 96, , , 31, 31, 31
38.5270822, -120.3543422, 9.000, 11:43:01.514, 11, 0.00, 0.07, 92, 0.100, 0.600, -38.700, 788, 100, 100, 23, 22514, -25526, 4676, 5083, 19, 14, 1530988981.515, 45, 0, 1024, 1024, 1024, 1024, 0, 6, 3771, 3765, 3798, 3761, 3735, 3785, 0, 1, 8899, -89.900, 0.000, -40.100, 0.000, 0.000, -3.200, 0.0, , , , , , 96, , , 31, 31, 31
38.5270822, -120.3543423, 9.300, 11:43:01.614, 11, 0.00, 0.06, 92, 0.400, 0.900, -38.700, 788, 100, 100, 23, 22514, -25526, 4676, 5083, 19, 14, 1530988981.614, 37, 0, 1024, 1024, 1024, 1024, 0, 6, 3771, 3765, 3798, 3761, 3735, 3785, 0, 1, 8999, -89.900, 0.000, -40.100, 0.000, 0.000, -3.100, 0.0, , , , , , 96, , , 31, 31, 31
38.5270823, -120.3543427, 9.900, 11:43:01.714, 11, 0.00, 0.05, 92, 0.300, 1.100, -38.600, 788, 100, 100, 23, 22514, -25526, 4676, 5083, 19, 14, 1530988981.714, 26, 0, 1024, 1024, 1024, 1024, 0, 6, 3771, 3765, 3798, 3761, 3735, 3785, 0, 1, 9099, -89.900, 0.000, -40.100, 0.000, 0.000, -3.100, 0.0, , , , , , 96, , , 31, 31, 31
38.5270823, -120.3543429, 10.200, 11:43:01.814, 11, 0.00, 0.06, 92, 0.200, 1.100, -38.600, 788, 100, 100, 23, 22514, -25526, 4676, 5083, 19, 14, 1530988981.814, 19, 0, 1024, 1024, 1024, 1024, 0, 6, 3771, 3765, 3798, 3761, 3735, 3785, 0, 1, 9199, -89.900, 0.000, -40.100, 0.000, 0.000, -3.100, 0.0, , , , , , 96, , , 31, 31, 31
38.5270823, -120.3543431, 10.500, 11:43:01.914, 11, 0.00, 0.06, 92, 0.300, 1.100, -38.600, 788, 100, 100, 23, 22829, -20356, 4676, 5083, 19, 14, 1530988981.914, 7, 0, 1024, 1024, 1024, 1024, 0, 6, 3796, 3814, 3826, 3808, 3786, 3819, 0, 1, 9299, -89.900, 0.000, -40.100, 0.000, 0.000, -3.100, 0.0, , , , , , 96, , , 31, 31, 31
38.5270823, -120.3543434, 10.900, 11:43:02.014, 11, 0.00, 0.08, 92, 0.400, 1.100, -38.700, 788, 100, 100, 23, 22829, -20356, 4676, 5083, 19, 14, 1530988982.014, 12, 0, 1024, 1024, 1024, 1024, 0, 6, 3796, 3814, 3826, 3808, 3786, 3819, 0, 1, 9399, -89.900, 0.000, -40.000, 0.000, 0.000, -3.100, 0.0, , , , , , 96, , , 31, 31, 31
38.5270823, -120.3543434, 10.900, 11:43:02.114, 11, 0.00, 0.08, 92, 0.400, 1.100, -38.700, 788, 100, 100, 23, 22829, -20356, 4676, 5083, 19, 14, 1530988982.114, 112, 0, 1024, 1024, 1024, 1024, 0, 6, 3796, 3814, 3826, 3808, 3786, 3819, 0, 1, 9499, -89.900, 0.000, -40.000, 0.000, 0.000, -3.100, 0.0, , , , , , 96, , , 31, 31, 31
38.5270823, -120.3543439, 11.500, 11:43:02.214, 11, 0.00, 0.12, 92, 0.700, 1.100, -39.000, 788, 100, 100, 23, 22829, -20356, 4676, 5083, 19, 14, 1530988982.214, 16, 0, 1024, 1024, 1024, 1024, 0, 6, 3796, 3814, 3826, 3808, 3786, 3819, 0, 1, 9599, -89.900, 0.000, -40.000, 0.000, 0.000, -3.000, 0.0, , , , , , 96, , , 31, 31, 31
38.5270824, -120.3543440, 11.800, 11:43:02.314, 11, 0.00, 0.13, 92, 0.900, 1.100, -39.100, 788, 100, 100, 23, 22829, -20356, 4676, 5083, 19, 14, 1530988982.314, 8, 0, 1024, 1024, 1024, 1024, 0, 6, 3796, 3814, 3826, 3808, 3786, 3819, 0, 1, 9699, -89.900, 0.000, -40.000, 0.000, 0.000, -3.000, 0.0, , , , , , 96, , , 31, 31, 31
38.5270824, -120.3543440, 11.800, 11:43:02.414, 11, 0.00, 0.13, 92, 0.900, 1.100, -39.100, 788, 100, 100, 23, 22829, -20356, 4676, 5083, 19, 14, 1530988982.414, 108, 0, 1024, 1024, 1024, 1024, 0, 6, 3796, 3814, 3826, 3808, 3786, 3819, 0, 1, 9799, -89.900, 0.000, -40.000, 0.000, 0.000, -3.000, 0.0, , , , , , 96, , , 31, 31, 31
38.5270824, -120.3543443, 12.400, 11:43:02.514, 10, 0.00, 0.15, 92, 0.700, 1.400, -39.200, 788, 100, 100, 23, 22829, -20356, 4676, 5083, 19, 14, 1530988982.514, 2, 0, 1024, 1024, 1024, 1024, 0, 6, 3796, 3814, 3826, 3808, 3786, 3819, 0, 1, 9899, -89.900, 0.000, -40.000, 0.000, 0.000, -3.000, 0.0, , , , , , 96, , , 31, 31, 31
38.5270824, -120.3543443, 12.400, 11:43:02.614, 10, 0.00, 0.15, 92, 0.700, 1.400, -39.200, 788, 100, 100, 23, 22829, -20356, 4676, 5083, 19, 14, 1530988982.614, 102, 0, 1024, 1024, 1024, 1024, 0, 6, 3796, 3814, 3826, 3808, 3786, 3819, 0, 1, 9999, -89.900, 0.000, -40.000, 0.000, 0.000, -3.000, 0.0, , , , , , 96, , , 31, 31, 31
38.5270824, -120.3543444, 12.800, 11:43:02.714, 10, 0.00, 0.16, 92, 0.700, 1.500, -39.200, 788, 100, 100, 23, 22829, -20356, 4676, 5083, 19, 14, 1530988982.714, 94, 0, 1024, 1024, 1024, 1024, 0, 6, 3796, 3814, 3826, 3808, 3786, 3819, 0, 1, 10099, -89.900, 0.000, -40.000, 0.000, 0.000, -3.000, 0.0, , , , , , 96, , , 31, 31, 31
38.5270824, -120.3543444, 13.100, 11:43:02.814, 11, 0.00, 0.16, 92, 0.600, 1.400, -39.100, 788, 100, 100, 23, 22829, -20356, 4676, 5083, 19, 14, 1530988982.814, 80, 0, 1024, 1024, 1024, 1024, 0, 6, 3796, 3814, 3826, 3808, 3786, 3819, 0, 1, 10199, -89.900, 0.000, -39.900, 0.000, 0.000, -3.000, 0.0, , , , , , 96, , , 31, 31, 31
38.5270824, -120.3543445, 13.400, 11:43:02.914, 11, 0.00, 0.17, 92, 0.400, 1.300, -39.000, 788, 100, 100, 23, 22829, -20356, 4676, 5083, 19, 14, 1530988982.914, 80, 0, 1024, 1024, 1024, 1024, 0, 6, 3796, 3814, 3826, 3808, 3786, 3819, 0, 1, 10299, -89.900, 0.000, -39.900, 0.000, 0.000, -3.000, 0.0, , , , , , 96, , , 31, 31, 31
38.5270825, -120.3543445, 13.700, 11:43:03.014, 11, 0.00, 0.17, 92, 0.200, 1.300, -38.900, 788, 100, 100, 23, 22911, -19423, 4676, 5083, 19, 14, 1530988983.014, 74, 0, 1024, 1024, 1024, 1024, 0, 6, 3796, 3814, 3826, 3808, 3786, 3819, 0, 1, 10399, -89.900, 0.000, -39.900, 0.000, 0.000, -3.000, 0.0, , , , , , 96, , , 31, 31, 31
38.5270825, -120.3543445, 14.000, 11:43:03.114, 11, 0.00, 0.17, 92, -0.100, 1.300, -38.800, 788, 100, 99, 23, 22911, -19423, 4676, 5083, 19, 14, 1530988983.114, 67, 0, 1024, 1024, 1024, 1024, 0, 6, 3796, 3814, 3826, 3808, 3786, 3819, 0, 1, 10499, -89.900, 0.000, -39.900, 0.000, 0.000, -3.000, 0.0, , , , , , 96, , , 31, 31, 31
38.5270826, -120.3543444, 14.300, 11:43:03.214, 11, 0.00, 0.17, 92, -0.500, 1.300, -38.800, 788, 100, 99, 23, 22911, -19423, 4676, 5083, 19, 14, 1530988983.214, 55, 0, 1024, 1024, 1024, 1024, 0, 6, 3796, 3814, 3826, 3808, 3786, 3819, 0, 1, 10599, -89.900, 0.000, -39.900, 0.000, 0.000, -2.900, 0.0, , , , , , 96, , , 31, 31, 31
38.5270826, -120.3543444, 14.600, 11:43:03.314, 11, 0.00, 0.17, 92, -0.600, 1.200, -38.700, 788, 100, 99, 23, 22911, -19423, 4676, 5083, 19, 14, 1530988983.314, 72, 0, 1024, 1024, 1024, 1024, 0, 6, 3796, 3814, 3826, 3808, 3786, 3819, 0, 1, 10699, -89.900, 0.000, -39.900, 0.000, 0.000, -3.000, 0.0, , , , , , 96, , , 31, 31, 31
38.5270825, -120.3543443, 14.900, 11:43:03.414, 11, 0.00, 0.16, 92, -0.400, 1.000, -38.700, 788, 100, 99, 23, 22911, -19423, 4676, 5083, 19, 14, 1530988983.414, 56, 0, 1024, 1024, 1024, 1024, 0, 6, 3796, 3814, 3826, 3808, 3786, 3819, 0, 1, 10799, -89.900, 0.000, -39.900, 0.000, 0.000, -2.900, 0.0, , , , , , 96, , , 31, 31, 31
38.5270825, -120.3543443, 15.200, 11:43:03.514, 11, 0.10, 0.15, 92, -0.300, 0.900, -38.700, 788, 100, 99, 23, 22911, -19423, 4676, 5083, 19, 14, 1530988983.514, 68, 0, 1024, 1024, 1024, 1024, 0, 6, 3811, 3824, 3836, 3820, 3797, 3826, 0, 1, 10899, -89.900, 0.000, -39.900, 0.000, 0.100, -3.000, 0.0, , , , , , 96, , , 31, 31, 31
38.5270825, -120.3543442, 15.500, 11:43:03.614, 11, 0.10, 0.15, 92, -0.500, 0.700, -38.600, 788, 100, 99, 23, 22911, -19423, 4676, 5083, 19, 14, 1530988983.614, 36, 0, 1024, 1024, 1024, 1024, 0, 6, 3811, 3824, 3836, 3820, 3797, 3826, 0, 1, 10999, -89.900, 0.000, -39.900, 0.000, 0.100, -2.900, 0.0, , , , , , 96, , , 31, 31, 31
38.5270824, -120.3543440, 15.900, 11:43:03.714, 11, 0.10, 0.13, 92, -0.600, 0.600, -38.600, 788, 100, 99, 23, 22911, -19423, 4676, 5083, 19, 14, 1530988983.714, 42, 0, 1024, 1024, 1024, 1024, 0, 6, 3811, 3824, 3836, 3820, 3797, 3826, 0, 1, 11099, -89.900, 0.000, -39.900, 0.000, 0.100, -2.900, 0.0, , , , , , 96, , , 31, 31, 31
38.5270824, -120.3543439, 16.200, 11:43:03.814, 12, 0.10, 0.12, 92, -0.800, 0.400, -38.700, 788, 100, 99, 23, 22911, -19423, 4676, 5083, 19, 14, 1530988983.814, 36, 0, 1024, 1024, 1024, 1024, 0, 6, 3811, 3824, 3836, 3820, 3797, 3826, 0, 1, 11199, -90.000, 0.000, -39.900, 0.000, 0.100, -2.900, 0.0, , , , , , 96, , , 31, 31, 31
38.5270824, -120.3543438, 16.400, 11:43:03.914, 12, 0.10, 0.11, 92, -0.900, 0.100, -38.800, 788, 100, 99, 23, 22911, -19423, 4676, 5083, 19, 14, 1530988983.914, 38, 0, 1024, 1024, 1024, 1024, 0, 6, 3811, 3824, 3836, 3820, 3797, 3826, 0, 1, 11299, -90.000, 0.000, -39.900, 0.000, 0.100, -2.900, 0.0, , , , , , 96, , , 31, 31, 31
38.5270824, -120.3543436, 16.700, 11:43:04.014, 12, 0.10, 0.10, 92, -1.000, 0.100, -38.800, 788, 100, 99, 23, 22911, -19423, 4676, 5083, 19, 14, 1530988984.014, 41, 0, 1024, 1024, 1024, 1024, 0, 6, 3811, 3824, 3836, 3820, 3797, 3826, 0, 1, 11399, -89.900, 0.000, -39.900, 0.000, 0.100, -2.900, 0.0, , , , , , 96, , , 31, 31, 31
38.5270824, -120.3543435, 17.000, 11:43:04.114, 12, 0.10, 0.09, 92, -1.000, 0.200, -38.900, 788, 100, 99, 23, 22911, -19423, 4676, 5083, 19, 14, 1530988984.114, 31, 0, 1024, 1024, 1024, 1024, 0, 6, 3811, 3824, 3836, 3820, 3797, 3826, 0, 1, 11499, -90.000, 0.000, -39.900, 0.000, 0.100, -2.900, 0.0, , , , , , 96, , , 31, 31, 31
38.5270824, -120.3543435, 17.000, 11:43:04.214, 12, 0.10, 0.09, 92, -1.000, 0.200, -38.900, 788, 100, 99, 23, 22911, -19423, 4676, 5083, 19, 14, 1530988984.214, 131, 0, 1024, 1024, 1024, 1024, 0, 6, 3811, 3824, 3836, 3820, 3797, 3826, 0, 1, 11599, -90.000, 0.000, -39.900, 0.000, 0.100, -2.900, 0.0, , , , , , 96, , , 31, 31, 31
38.5270824, -120.3543433, 17.600, 11:43:04.314, 12, 0.00, 0.08, 92, -0.700, 0.100, -38.900, 788, 100, 99, 23, 22911, -19423, 4676, 5083, 19, 14, 1530988984.314, 17, 0, 1024, 1024, 1024, 1024, 0, 6, 3811, 3824, 3836, 3820, 3797, 3826, 0, 1, 11699, -89.900, 0.000, -39.900, 0.000, 0.000, -3.000, 0.0, , , , , , 96, , , 31, 31, 31
38.5270823, -120.3543430, 18.200, 11:43:04.414, 12, 0.00, 0.07, 92, -1.000, 0.100, -38.900, 788, 100, 99, 23, 22928, -19318, 4676, 5083, 19, 14, 1530988984.414, 7, 0, 1024, 1024, 1024, 1024, 0, 6, 3815, 3829, 3835, 3823, 3800, 3830, 0, 1, 11799, -89.900, 0.000, -39.900, 0.000, 0.000, -2.900, 0.0, , , , , , 96, , , 31, 31, 31
38.5270823, -120.3543429, 18.500, 11:43:04.514, 12, 0.00, 0.06, 92, -1.100, 0.100, -38.900, 788, 100, 97, 23, 22928, -19318, 4676, 5083, 19, 14, 1530988984.514, 7, 0, 1024, 1024, 1024, 1024, 0, 6, 3815, 3829, 3835, 3823, 3800, 3830, 0, 1, 11899, -89.900, 0.000, -39.900, 0.000, 0.000, -2.900, 0.0, , , , , , 96, , , 31, 31, 31
38.5270823, -120.3543429, 18.500, 11:43:04.614, 12, 0.00, 0.06, 92, -1.100, 0.100, -38.900, 788, 100, 97, 23, 22928, -19318, 4676, 5083, 19, 14, 1530988984.614, 107, 0, 1024, 1024, 1024, 1024, 0, 6, 3815, 3829, 3835, 3823, 3800, 3830, 0, 1, 11999, -89.900, 0.000, -39.900, 0.000, 0.000, -2.900, 0.0, , , , , , 96, , , 31, 31, 31
38.5270823, -120.3543427, 18.800, 11:43:04.714, 12, 0.00, 0.06, 92, -0.900, 0.100, -38.800, 788, 100, 97, 23, 22928, -19318, 4676, 5083, 19, 14, 1530988984.714, 95, 0, 1024, 1024, 1024, 1024, 0, 6, 3815, 3829, 3835, 3823, 3800, 3830, 0, 1, 12099, -89.900, 0.000, -39.900, 0.000, 0.000, -2.900, 0.0, , , , , , 96, , , 31, 31, 31
38.5270823, -120.3543426, 19.100, 11:43:04.814, 12, 0.00, 0.05, 92, -0.800, 0.000, -38.800, 788, 100, 97, 23, 22928, -19318, 4676, 5083, 19, 14, 1530988984.814, 71, 0, 1024, 1024, 1024, 1024, 0, 6, 3815, 3829, 3835, 3823, 3800, 3830, 0, 1, 12199, -89.900, 0.000, -39.900, 0.000, 0.000, -2.900, 0.0, , , , , , 96, , , 31, 31, 31
38.5270822, -120.3543425, 19.400, 11:43:04.914, 12, 0.00, 0.05, 92, -0.600, 0.000, -38.800, 788, 100, 97, 23, 22928, -19318, 4676, 5083, 19, 14, 1530988984.914, 96, 0, 1024, 1024, 1024, 1024, 0, 6, 3815, 3829, 3835, 3823, 3800, 3830, 0, 1, 12299, -90.000, 0.000, -39.900, 0.000, 0.000, -2.900, 0.0, , , , , , 96, , , 31, 31, 31
38.5270822, -120.3543425, 19.400, 11:43:05.014, 12, 0.00, 0.05, 92, -0.600, 0.000, -38.800, 788, 100, 97, 23, 22928, -19318, 4676, 5083, 19, 14, 1530988985.014, 196, 0, 1024, 1024, 1024, 1024, 0, 6, 3815, 3829, 3835, 3823, 3800, 3830, 0, 1, 12399, -90.000, 0.000, -39.900, 0.000, 0.000, -2.900, 0.0, , , , , , 96, , , 31, 31, 31
38.5270822, -120.3543423, 20.000, 11:43:05.114, 12, 0.00, 0.06, 92, -0.500, 0.000, -38.900, 788, 100, 97, 23, 22928, -19318, 4676, 5083, 19, 14, 1530988985.114, 66, 0, 1024, 1024, 1024, 1024, 0, 6, 3815, 3829, 3835, 3823, 3800, 3830, 0, 1, 12499, -89.900, 0.000, -39.900, 0.000, 0.000, -2.900, 0.0, , , , , , 96, , , 31, 31, 31
38.5270822, -120.3543422, 20.300, 11:43:05.214, 12, 0.00, 0.07, 92, -0.800, 0.000, -38.900, 788, 100, 97, 23, 22928, -19318, 4676, 5083, 19, 14, 1530988985.214, 68, 0, 1024, 1024, 1024, 1024, 0, 6, 3815, 3829, 3835, 3823, 3800, 3830, 0, 1, 12599, -89.900, 0.000, -39.900, 0.000, 0.000, -2.900, 0.0, , , , , , 96, , , 31, 31, 31
38.5270822, -120.3543420, 20.600, 11:43:05.314, 12, 0.00, 0.08, 92, -1.100, 0.000, -38.900, 788, 100, 97, 23, 22928, -19318, 4676, 5083, 19, 14, 1530988985.314, 64, 0, 1024, 1024, 1024, 1024, 0, 6, 3815, 3829, 3835, 3823, 3800, 3830, 0, 1, 12699, -89.900, 0.000, -39.900, 0.000, 0.000, -3.000, 0.0, , , , , , 96, , , 31, 31, 31
38.5270822, -120.3543419, 20.900, 11:43:05.414, 12, 0.00, 0.09, 92, -1.200, 0.000, -39.000, 788, 100, 97, 23, 22928, -19318, 4676, 5083, 19, 14, 1530988985.414, 64, 0, 1024, 1024, 1024, 1024, 0, 6, 3815, 3829, 3835, 3823, 3800, 3830, 0, 1, 12799, -89.900, 0.000, -39.900, 0.000, 0.000, -3.000, 0.0, , , , , , 96, , , 31, 31, 31
38.5270823, -120.3543418, 21.200, 11:43:05.514, 12, 0.00, 0.10, 91, -1.000, 0.100, -39.100, 788, 100, 97, 23, 22877, -19372, 4625, 5083, 19, 14, 1530988985.514, 64, 0, 1024, 1024, 1024, 1024, 0, 6, 3807, 3815, 3825, 3810, 3791, 3818, 0, 1, 12899, -89.900, 0.000, -39.900, 0.000, 0.000, -2.900, 0.0, , , , , , 96, , , 31, 31, 31
38.5270823, -120.3543417, 21.500, 11:43:05.614, 12, 0.00, 0.11, 91, -0.800, 0.100, -39.200, 788, 100, 97, 23, 22877, -19372, 4625, 5083, 19, 14, 1530988985.614, 44, 0, 1024, 1024, 1024, 1024, 0, 6, 3807, 3815, 3825, 3810, 3791, 3818, 0, 1, 12999, -89.900, 0.000, -39.900, 0.000, 0.000, -3.000, 0.0, , , , , , 96, , , 31, 31, 31
38.5270822, -120.3543416, 21.800, 11:43:05.714, 12, 0.00, 0.11, 91, -0.800, 0.000, -39.300, 788, 100, 97, 23, 22877, -19372, 4625, 5083, 19, 14, 1530988985.714, 58, 0, 1024, 1024, 1024, 1024, 0, 6, 3807, 3815, 3825, 3810, 3791, 3818, 0, 1, 13099, -90.000, 0.000, -39.900, 0.000, 0.000, -2.900, 0.0, , , , , , 96, , , 31, 31, 31
38.5270822, -120.3543416, 22.100, 11:43:05.814, 12, 0.00, 0.11, 91, -0.700, -0.200, -39.400, 788, 100, 97, 23, 22877, -19372, 4625, 5083, 19, 14, 1530988985.814, 48, 0, 1024, 1024, 1024, 1024, 0, 6, 3807, 3815, 3825, 3810, 3791, 3818, 0, 1, 13199, -90.000, 0.000, -39.900, 0.000, 0.000, -2.900, 0.0, , , , , , 96, , , 31, 31, 31
38.5270821, -120.3543415, 22.400, 11:43:05.914, 12, 0.00, 0.12, 91, -0.400, -0.300, -39.400, 788, 100, 97, 23, 22877, -19372, 4625, 5083, 19, 14, 1530988985.914, 40, 0, 1024, 1024, 1024, 1024, 0, 6, 3807, 3815, 3825, 3810, 3791, 3818, 0, 1, 13299, -90.000, 0.000, -39.900, 0.000, 0.000, -2.900, 0.0, , , , , , 96, , , 31, 31, 31
38.5270821, -120.3543414, 22.700, 11:43:06.014, 12, 0.00, 0.12, 91, -0.300, -0.400, -39.300, 788, 100, 97, 23, 22877, -19372, 4625, 5083, 19, 14, 1530988986.014, 32, 0, 1024, 1024, 1024, 1024, 0, 6, 3807, 3815, 3825, 3810, 3791, 3818, 0, 1, 13399, -90.000, 0.000, -39.900, 0.000, 0.000, -2.900, 0.0, , , , , , 96, , , 31, 31, 31
38.5270821, -120.3543413, 23.000, 11:43:06.114, 12, 0.00, 0.14, 91, -0.400, -0.400, -39.200, 788, 100, 98, 23, 22877, -19372, 4625, 5083, 19, 14, 1530988986.114, 39, 0, 1024, 1024, 1024, 1024, 0, 6, 3807, 3815, 3825, 3810, 3791, 3818, 0, 1, 13499, -89.900, 0.000, -39.900, 0.000, 0.000, -2.900, 0.0, , , , , , 96, , , 31, 31, 31
38.5270822, -120.3543411, 23.600, 11:43:06.214, 12, 0.00, 0.15, 91, -1.100, 0.100, -38.800, 788, 100, 98, 23, 22877, -19372, 4625, 5083, 19, 14, 1530988986.214, 21, 0, 1024, 1024, 1024, 1024, 0, 6, 3807, 3815, 3825, 3810, 3791, 3818, 0, 1, 13599, -89.900, 0.000, -39.900, 0.000, 0.000, -3.000, 0.0, , , , , , 96, , , 31, 31, 31
38.5270822, -120.3543411, 23.600, 11:43:06.314, 12, 0.00, 0.15, 91, -1.100, 0.100, -38.800, 788, 100, 98, 23, 22877, -19372, 4625, 5083, 19, 14, 1530988986.314, 121, 0, 1024, 1024, 1024, 1024, 0, 6, 3807, 3815, 3825, 3810, 3791, 3818, 0, 1, 13699, -89.900, 0.000, -39.900, 0.000, 0.000, -3.000, 0.0, , , , , , 96, , , 31, 31, 31
38.5270822, -120.3543411, 23.900, 11:43:06.414, 11, 0.00, 0.16, 91, -1.200, 0.300, -38.700, 788, 100, 98, 23, 22826, -19382, 4625, 5083, 19, 14, 1530988986.414, 14, 0, 1024, 1024, 1024, 1024, 0, 6, 3795, 3800, 3826, 3808, 3786, 3815, 0, 1, 13799, -89.900, 0.000, -39.900, 0.000, 0.000, -2.900, 0.0, , , , , , 96, , , 31, 31, 31
38.5270823, -120.3543410, 24.200, 11:43:06.514, 11, 0.00, 0.17, 91, -1.200, 0.400, -38.600, 788, 100, 98, 23, 22826, -19382, 4625, 5083, 19, 14, 1530988986.514, 18, 0, 1024, 1024, 1024, 1024, 0, 6, 3795, 3800, 3826, 3808, 3786, 3815, 0, 1, 13899, -89.900, 0.000, -39.900, 0.000, 0.000, -3.000, 0.0, , , , , , 96, , , 31, 31, 31
38.5270823, -120.3543408, 24.800, 11:43:06.614, 11, 0.00, 0.18, 91, -1.000, 0.400, -38.500, 788, 100, 98, 23, 22826, -19382, 4625, 5083, 19, 14, 1530988986.614, 31, 0, 1024, 1024, 1024, 1024, 0, 6, 3795, 3800, 3826, 3808, 3786, 3815, 0, 1, 13999, -89.900, 0.000, -39.900, 0.000, 0.000, -2.900, 0.0, , , , , , 96, , , 31, 31, 31
38.5270823, -120.3543408, 24.800, 11:43:06.714, 11, 0.00, 0.18, 91, -1.000, 0.400, -38.500, 788, 100, 98, 23, 22826, -19382, 4625, 5083, 19, 14, 1530988986.714, 131, 0, 1024, 1024, 1024, 1024, 0, 6, 3795, 3800, 3826, 3808, 3786, 3815, 0, 1, 14099, -89.900, 0.000, -39.900, 0.000, 0.000, -2.900, 0.0, , , , , , 96, , , 31, 31, 31
38.5270823, -120.3543407, 25.400, 11:43:06.815, 12, 0.00, 0.19, 91, -0.800, 0.300, -38.600, 788, 100, 98, 23, 22826, -19382, 4625, 5083, 19, 14, 1530988986.816, 3, 0, 1024, 1024, 1024, 1024, 0, 6, 3795, 3800, 3826, 3808, 3786, 3815, 0, 1, 14201, -89.900, 0.000, -39.900, 0.000, 0.000, -2.900, 0.0, , , , , , 96, , , 31, 31, 31
38.5270823, -120.3543406, 25.700, 11:43:06.915, 12, 0.00, 0.19, 91, -0.600, 0.000, -38.600, 788, 100, 98, 23, 22826, -19382, 4625, 5083, 19, 14, 1530988986.916, 2, 0, 1024, 1024, 1024, 1024, 0, 6, 3795, 3800, 3826, 3808, 3786, 3815, 0, 1, 14301, -90.000, 0.000, -39.900, 0.000, 0.000, -2.900, 0.0, , , , , , 96, , , 31, 31, 31
38.5270823, -120.3543406, 25.700, 11:43:07.014, 12, 0.00, 0.19, 91, -0.600, 0.000, -38.600, 788, 100, 98, 23, 22826, -19382, 4625, 5083, 19, 14, 1530988987.014, 101, 0, 1024, 1024, 1024, 1024, 0, 6, 3795, 3800, 3826, 3808, 3786, 3815, 0, 1, 14399, -90.000, 0.000, -39.900, 0.000, 0.000, -2.900, 0.0, , , , , , 96, , , 31, 31, 31
38.5270823, -120.3543406, 26.300, 11:43:07.114, 12, 0.00, 0.19, 91, -0.800, -0.100, -38.700, 788, 100, 98, 23, 22826, -19382, 4625, 5083, 19, 14, 1530988987.114, 15, 0, 1024, 1024, 1024, 1024, 0, 6, 3795, 3800, 3826, 3808, 3786, 3815, 0, 1, 14499, -90.000, 0.000, -39.900, 0.000, 0.000, -2.900, 0.0, , , , , , 96, , , 31, 31, 31
38.5270823, -120.3543406, 26.300, 11:43:07.214, 12, 0.00, 0.19, 91, -0.800, -0.100, -38.700, 788, 100, 98, 23, 22826, -19382, 4625, 5083, 19, 14, 1530988987.214, 115, 0, 1024, 1024, 1024, 1024, 0, 6, 3795, 3800, 3826, 3808, 3786, 3815, 0, 1, 14599, -90.000, 0.000, -39.900, 0.000, 0.000, -2.900, 0.0, , , , , , 96, , , 31, 31, 31
38.5270823, -120.3543406, 26.600, 11:43:07.314, 12, 0.00, 0.20, 91, -0.800, 0.000, -38.600, 788, 100, 98, 23, 22826, -19382, 4625, 5083, 19, 14, 1530988987.314, 81, 0, 1024, 1024, 1024, 1024, 0, 6, 3795, 3800, 3826, 3808, 3786, 3815, 0, 1, 14699, -89.900, 0.000, -39.900, 0.000, 0.000, -2.900, 0.0, , , , , , 96, , , 31, 31, 31
38.5270823, -120.3543405, 26.900, 11:43:07.414, 12, 0.00, 0.20, 91, -0.600, 0.200, -38.600, 788, 100, 98, 23, 22826, -19382, 4625, 5083, 19, 14, 1530988987.414, 95, 0, 1024, 1024, 1024, 1024, 0, 6, 3795, 3800, 3826, 3808, 3786, 3815, 0, 1, 14799, -89.900, 0.000, -39.900, 0.000, 0.000, -2.900, 0.0, , , , , , 96, , , 31, 31, 31
38.5270823, -120.3543406, 27.200, 11:43:07.514, 12, 0.00, 0.19, 91, -0.600, 0.200, -38.700, 788, 100, 98, 23, 22822, -19408, 4625, 5083, 19, 14, 1530988987.514, 87, 0, 1024, 1024, 1024, 1024, 0, 6, 3792, 3799, 3828, 3808, 3781, 3806, 0, 1, 14899, -90.000, 0.000, -39.900, 0.000, 0.000, -2.900, 0.0, , , , , , 96, , , 31, 31, 31
38.5270823, -120.3543407, 27.500, 11:43:07.614, 12, 0.00, 0.19, 91, -0.600, 0.200, -38.800, 788, 100, 99, 23, 22822, -19408, 4625, 5083, 19, 14, 1530988987.614, 90, 0, 1024, 1024, 1024, 1024, 0, 6, 3792, 3799, 3828, 3808, 3781, 3806, 0, 1, 14999, -90.000, 0.000, -39.900, 0.000, 0.000, -2.900, 0.0, , , , , , 96, , , 31, 31, 31
38.5270823, -120.3543407, 27.500, 11:43:07.714, 12, 0.00, 0.19, 91, -0.600, 0.200, -38.800, 788, 100, 99, 23, 22822, -19408, 4625, 5083, 19, 14, 1530988987.714, 190, 0, 1024, 1024, 1024, 1024, 0, 6, 3792, 3799, 3828, 3808, 3781, 3806, 0, 1, 15099, -89.900, 0.000, -39.900, 0.000, 0.000, -2.900, 0.0, , , , , , 96, , , 31, 31, 31
38.5270823, -120.3543406, 28.100, 11:43:07.814, 11, 0.00, 0.19, 91, -0.500, 0.300, -39.000, 788, 100, 99, 23, 22822, -19408, 4625, 5083, 19, 14, 1530988987.814, 81, 0, 1024, 1024, 1024, 1024, 0, 6, 3792, 3799, 3828, 3808, 3781, 3806, 0, 1, 15199, -89.900, 0.000, -39.900, 0.000, 0.000, -2.900, 0.0, , , , , , 96, , , 31, 31, 31
38.5270823, -120.3543406, 28.100, 11:43:07.914, 11, 0.00, 0.19, 91, -0.500, 0.300, -39.000, 788, 100, 99, 23, 22822, -19408, 4625, 5083, 19, 14, 1530988987.914, 181, 0, 1024, 1024, 1024, 1024, 0, 6, 3792, 3799, 3828, 3808, 3781, 3806, 0, 1, 15299, -89.900, 0.000, -39.900, 0.000, 0.000, -2.900, 0.0, , , , , , 96, , , 31, 31, 31
38.5270822, -120.3543407, 28.700, 11:43:08.014, 12, 0.00, 0.18, 91, -0.300, 0.400, -39.000, 788, 100, 99, 23, 22822, -19408, 4625, 5083, 19, 14, 1530988988.014, 63, 0, 1024, 1024, 1024, 1024, 0, 6, 3792, 3799, 3828, 3808, 3781, 3806, 0, 1, 15399, -89.900, 0.000, -39.900, 0.000, 0.000, -2.900, 0.0, , , , , , 96, , , 31, 31, 31
38.5270823, -120.3543408, 29.000, 11:43:08.114, 12, 0.00, 0.18, 91, -0.100, 0.500, -38.900, 788, 100, 93, 23, 22822, -19408, 4625, 5083, 19, 14, 1530988988.114, 54, 0, 1024, 1024, 1024, 1024, 0, 6, 3792, 3799, 3828, 3808, 3781, 3806, 0, 1, 15499, -89.900, 0.000, -39.900, 0.000, 0.000, -2.900, 0.0, , , , , , 96, , , 31, 31, 31
38.5270823, -120.3543409, 29.300, 11:43:08.214, 13, 0.00, 0.17, 91, -0.200, 0.500, -38.800, 788, 100, 93, 23, 22822, -19408, 4625, 5083, 19, 14, 1530988988.214, 40, 0, 1024, 1024, 1024, 1024, 0, 6, 3792, 3799, 3828, 3808, 3781, 3806, 0, 1, 15599, -89.900, 0.000, -39.900, 0.000, 0.000, -2.900, 0.0, , , , , , 96, , , 31, 31, 31
38.5270823, -120.3543410, 29.600, 11:43:08.314, 13, 0.00, 0.17, 91, -0.200, 0.400, -38.700, 788, 100, 93, 23, 22822, -19408, 4625, 5083, 19, 14, 1530988988.314, 46, 0, 1024, 1024, 1024, 1024, 0, 6, 3792, 3799, 3828, 3808, 3781, 3806, 0, 1, 15699, -89.900, 0.000, -39.900, 0.000, 0.000, -3.000, 0.0, , , , , , 96, , , 31, 31, 31
38.5270823, -120.3543410, 29.900, 11:43:08.414, 13, 0.00, 0.16, 91, -0.200, 0.400, -38.700, 788, 100, 93, 23, 22766, -19453, 4625, 5083, 19, 14, 1530988988.414, 43, 0, 1024, 1024, 1024, 1024, 0, 6, 3792, 3799, 3828, 3808, 3781, 3806, 0, 1, 15799, -89.900, 0.000, -39.900, 0.000, 0.000, -2.900, 0.0, , , , , , 96, , , 31, 31, 31
38.5270823, -120.3543410, 30.200, 11:43:08.514, 13, 0.00, 0.16, 91, -0.200, 0.500, -38.700, 788, 100, 93, 23, 22766, -19453, 4625, 5083, 19, 14, 1530988988.514, 45, 0, 1024, 1024, 1024, 1024, 0, 6, 3792, 3799, 3828, 3808, 3781, 3806, 0, 1, 15899, -89.900, 0.000, -39.900, 0.000, 0.000, -2.900, 0.0, , , , , , 96, , , 31, 31, 31
38.5270823, -120.3543410, 30.500, 11:43:08.614, 13, 0.00, 0.16, 91, -0.400, 0.500, -38.800, 788, 100, 93, 23, 22766, -19453, 4625, 5083, 19, 14, 1530988988.614, 28, 0, 1024, 1024, 1024, 1024, 0, 6, 3792, 3799, 3828, 3808, 3781, 3806, 0, 1, 15999, -90.000, 0.000, -39.900, 0.000, 0.000, -2.900, 0.0, , , , , , 96, , , 31, 31, 31
38.5270823, -120.3543410, 30.900, 11:43:08.714, 13, 0.00, 0.16, 91, -0.600, 0.300, -38.800, 788, 100, 93, 23, 22766, -19453, 4625, 5083, 19, 14, 1530988988.714, 43, 0, 1024, 1024, 1024, 1024, 0, 6, 3792, 3799, 3828, 3808, 3781, 3806, 0, 1, 16099, -90.000, 0.000, -39.900, 0.000, 0.000, -3.000, 0.0, , , , , , 96, , , 31, 31, 31
38.5270823, -120.3543409, 31.500, 11:43:08.814, 13, 0.00, 0.17, 91, -1.000, 0.300, -38.800, 788, 100, 93, 23, 22766, -19453, 4625, 5083, 19, 14, 1530988988.814, 19, 0, 1024, 1024, 1024, 1024, 0, 6, 3792, 3799, 3828, 3808, 3781, 3806, 0, 1, 16199, -89.900, 0.000, -39.900, 0.000, 0.000, -3.000, 0.0, , , , , , 96, , , 31, 31, 31
38.5270823, -120.3543408, 31.800, 11:43:08.914, 13, 0.00, 0.18, 91, -1.100, 0.100, -38.800, 788, 100, 93, 23, 22766, -19453, 4625, 5083, 19, 14, 1530988988.914, 26, 0, 1024, 1024, 1024, 1024, 0, 6, 3788, 3797, 3812, 3800, 3766, 3798, 0, 1, 16299, -90.000, 0.000, -39.900, 0.000, 0.000, -3.000, 0.0, , , , , , 96, , , 31, 31, 31
38.5270823, -120.3543409, 32.100, 11:43:09.014, 13, 0.00, 0.17, 91, -1.100, 0.300, -38.800, 788, 100, 92, 23, 22766, -19453, 4625, 5083, 19, 14, 1530988989.014, 20, 0, 1024, 1024, 1024, 1024, 0, 6, 3788, 3797, 3812, 3800, 3766, 3798, 0, 1, 16399, -89.900, 0.000, -39.900, 0.000, 0.000, -2.900, 0.0, , , , , , 96, , , 31, 31, 31
38.5270823, -120.3543409, 32.400, 11:43:09.114, 13, 0.00, 0.17, 91, -0.700, 0.100, -38.800, 788, 100, 92, 23, 22766, -19453, 4625, 5083, 19, 14, 1530988989.114, 24, 0, 1024, 1024, 1024, 1024, 0, 6, 3788, 3797, 3812, 3800, 3766, 3798, 0, 1, 16499, -89.900, 0.000, -39.900, 0.000, 0.000, -2.900, 0.0, , , , , , 96, , , 31, 31, 31
38.5270823, -120.3543409, 32.700, 11:43:09.214, 13, 0.00, 0.17, 91, -0.300, 0.100, -38.900, 788, 100, 92, 23, 22766, -19453, 4625, 5083, 19, 14, 1530988989.214, 3, 0, 1024, 1024, 1024, 1024, 0, 6, 3788, 3797, 3812, 3800, 3766, 3798, 0, 1, 16599, -89.900, 0.000, -39.900, 0.000, 0.000, -2.900, 0.0, , , , , , 96, , , 31, 31, 31
38.5270823, -120.3543409, 33.000, 11:43:09.314, 13, 0.00, 0.17, 91, -0.600, 0.200, -39.000, 788, 100, 92, 23, 22766, -19453, 4625, 5083, 19, 14, 1530988989.314, 5, 0, 1024, 1024, 1024, 1024, 0, 6, 3788, 3797, 3812, 3800, 3766, 3798, 0, 1, 16699, -89.900, 0.000, -39.900, 0.000, 0.000, -3.000, 0.0, , , , , , 96, , , 31, 31, 31
38.5270823, -120.3543409, 33.000, 11:43:09.414, 13, 0.00, 0.17, 91, -0.600, 0.200, -39.000, 788, 100, 92, 23, 22766, -19453, 4625, 5083, 19, 14, 1530988989.414, 105, 0, 1024, 1024, 1024, 1024, 0, 6, 3788, 3797, 3812, 3800, 3766, 3798, 0, 1, 16799, -89.900, 0.000, -39.900, 0.000, 0.000, -3.000, 0.0, , , , , , 96, , , 31, 31, 31
38.5270823, -120.3543409, 33.700, 11:43:09.514, 13, 0.00, 0.17, 91, -1.300, 0.200, -39.400, 788, 100, 97, 23, 22766, -19453, 4625, 5083, 19, 14, 1530988989.514, 7, 0, 1024, 1024, 1024, 1024, 0, 6, 3788, 3797, 3812, 3800, 3766, 3798, 0, 1, 16899, -89.900, 0.000, -39.900, 0.000, 0.000, -2.900, 0.0, , , , , , 96, , , 31, 31, 31
38.5270823, -120.3543409, 33.700, 11:43:09.614, 13, 0.00, 0.17, 91, -1.300, 0.200, -39.400, 788, 100, 97, 23, 22766, -19453, 4625, 5083, 19, 14, 1530988989.614, 107, 0, 1024, 1024, 1024, 1024, 0, 6, 3788, 3797, 3812, 3800, 3766, 3798, 0, 1, 16999, -89.900, 0.000, -39.900, 0.000, 0.000, -2.900, 0.0, , , , , , 96, , , 31, 31, 31
38.5270824, -120.3543408, 34.000, 11:43:09.714, 13, 0.00, 0.18, 91, -1.500, 0.400, -39.300, 788, 100, 97, 23, 22766, -19453, 4625, 5083, 19, 14, 1530988989.714, 94, 0, 1024, 1024, 1024, 1024, 0, 6, 3788, 3797, 3812, 3800, 3766, 3798, 0, 1, 17099, -89.900, 0.000, -39.900, 0.000, 0.000, -2.900, 0.0, , , , , , 96, , , 31, 31, 31
38.5270824, -120.3543406, 34.300, 11:43:09.814, 13, 0.00, 0.20, 91, -2.400, 0.300, -39.200, 788, 100, 97, 23, 22766, -19453, 4625, 5083, 19, 14, 1530988989.814, 97, 0, 1024, 1024, 1024, 1024, 0, 6, 3788, 3797, 3812, 3800, 3766, 3798, 0, 1, 17199, -89.900, 0.000, -39.900, 0.000, 0.000, -2.900, 0.0, , , , , , 96, , , 31, 31, 31
38.5270825, -120.3543405, 34.600, 11:43:09.914, 13, 0.00, 0.21, 91, -2.800, 0.000, -39.100, 788, 100, 97, 23, 22766, -19453, 4625, 5083, 19, 14, 1530988989.914, 98, 0, 1024, 1024, 1024, 1024, 0, 6, 3788, 3797, 3812, 3800, 3766, 3798, 0, 1, 17299, -90.000, 0.000, -39.900, 0.000, 0.000, -2.900, 0.0, , , , , , 96, , , 31, 31, 31
38.5270825, -120.3543404, 34.900, 11:43:10.014, 13, 0.00, 0.22, 91, -2.900, -0.300, -39.000, 788, 100, 97, 23, 22728, -19855, 4625, 5083, 19, 14, 1530988990.014, 88, 0, 1024, 1024, 1024, 1024, 0, 6, 3782, 3784, 3799, 3785, 3754, 3788, 0, 1, 17399, -90.000, 0.000, -39.900, 0.000, 0.000, -2.900, 0.0, , , , , , 96, , , 31, 31, 31
38.5270826, -120.3543402, 35.200, 11:43:10.114, 13, 0.00, 0.23, 91, -2.900, -0.400, -39.000, 788, 100, 96, 23, 22728, -19855, 4625, 5083, 19, 14, 1530988990.114, 89, 0, 1024, 1024, 1024, 1024, 0, 6, 3782, 3784, 3799, 3785, 3754, 3788, 0, 1, 17499, -90.000, 0.000, -39.900, 0.000, 0.000, -2.900, 0.0, , , , , , 96, , , 31, 31, 31
38.5270826, -120.3543401, 35.500, 11:43:10.214, 13, 0.00, 0.25, 91, -3.100, -0.400, -39.100, 788, 100, 96, 23, 22728, -19855, 4625, 5083, 19, 14, 1530988990.214, 77, 0, 1024, 1024, 1024, 1024, 0, 6, 3782, 3784, 3799, 3785, 3754, 3788, 0, 1, 17599, -89.900, 0.000, -39.900, 0.000, 0.000, -2.800, 0.0, , , , , , 96, , , 31, 31, 31
38.5270827, -120.3543400, 35.800, 11:43:10.314, 13, 0.00, 0.26, 91, -3.200, -0.200, -39.100, 788, 100, 96, 23, 22728, -19855, 4625, 5083, 19, 14, 1530988990.314, 73, 0, 1024, 1024, 1024, 1024, 0, 6, 3782, 3784, 3799, 3785, 3754, 3788, 0, 1, 17699, -89.900, 0.000, -39.900, 0.000, 0.000, -2.900, 0.0, , , , , , 96, , , 31, 31, 31
38.5270827, -120.3543399, 36.100, 11:43:10.414, 13, 0.00, 0.27, 91, -3.400, 0.000, -39.100, 788, 100, 96, 23, 22728, -19855, 4625, 5083, 19, 14, 1530988990.414, 61, 0, 1024, 1024, 1024, 1024, 0, 6, 3782, 3784, 3799, 3785, 3754, 3788, 0, 1, 17799, -89.900, 0.000, -39.900, 0.000, 0.000, -2.900, 0.0, , , , , , 96, , , 31, 31, 31
38.5270828, -120.3543398, 36.400, 11:43:10.514, 13, 0.10, 0.28, 91, -3.700, 0.100, -38.900, 788, 100, 96, 23, 22728, -19855, 4625, 5083, 19, 14, 1530988990.514, 64, 0, 1024, 1024, 1024, 1024, 0, 6, 3782, 3784, 3799, 3785, 3754, 3788, 0, 1, 17899, -89.900, 0.000, -39.900, 0.100, 0.000, -2.900, 0.0, , , , , , 96, , , 31, 31, 31
38.5270829, -120.3543397, 36.700, 11:43:10.614, 13, 0.10, 0.29, 91, -4.100, 0.200, -38.800, 788, 100, 97, 23, 22728, -19855, 4625, 5083, 19, 14, 1530988990.614, 39, 0, 1024, 1024, 1024, 1024, 0, 6, 3782, 3784, 3799, 3785, 3754, 3788, 0, 1, 17999, -89.900, 0.000, -39.800, 0.100, 0.000, -2.900, 0.0, , , , , , 96, , , 31, 31, 31
38.5270830, -120.3543396, 37.000, 11:43:10.714, 13, 0.00, 0.30, 91, -4.400, 0.400, -38.700, 788, 100, 97, 23, 22728, -19855, 4625, 5083, 19, 14, 1530988990.714, 44, 0, 1024, 1024, 1024, 1024, 0, 6, 3782, 3784, 3799, 3785, 3754, 3788, 0, 1, 18099, -89.900, 0.000, -39.800, 0.000, 0.000, -2.800, 0.0, , , , , , 96, , , 31, 31, 31
38.5270831, -120.3543395, 37.300, 11:43:10.814, 13, 0.00, 0.32, 91, -4.300, 0.300, -38.600, 788, 100, 97, 23, 22728, -19855, 4625, 5083, 19, 14, 1530988990.814, 25, 0, 1024, 1024, 1024, 1024, 0, 6, 3782, 3784, 3799, 3785, 3754, 3788, 0, 1, 18199, -89.900, 0.000, -39.800, 0.000, 0.000, -2.700, 0.0, , , , , , 96, , , 31, 31, 31
38.5270831, -120.3543395, 37.600, 11:43:10.914, 13, 0.00, 0.32, 91, -4.100, 0.200, -38.500, 788, 100, 97, 23, 22728, -19855, 4625, 5083, 19, 14, 1530988990.914, 37, 0, 1024, 1024, 1024, 1024, 0, 6, 3782, 3784, 3799, 3785, 3754, 3788, 0, 1, 18299, -89.900, 0.000, -39.800, 0.000, 0.000, -2.800, 0.0, , , , , , 96, , , 31, 31, 31
38.5270832, -120.3543394, 37.900, 11:43:11.014, 13, 0.00, 0.33, 91, -3.800, 0.400, -38.500, 788, 100, 97, 23, 22728, -19855, 4625, 5083, 19, 14, 1530988991.014, 37, 0, 1024, 1024, 1024, 1024, 0, 6, 3782, 3784, 3799, 3785, 3754, 3788, 0, 1, 18399, -89.900, 0.000, -39.800, 0.000, 0.000, -2.800, 0.0, , , , , , 96, , , 31, 31, 31
38.5270832, -120.3543394, 38.200, 11:43:11.114, 13, 0.00, 0.33, 91, -3.600, 0.500, -38.500, 788, 100, 97, 23, 22728, -19855, 4625, 5083, 19, 14, 1530988991.114, 18, 0, 1024, 1024, 1024, 1024, 0, 6, 3782, 3784, 3799, 3785, 3754, 3788, 0, 1, 18499, -89.900, 0.000, -39.800, 0.000, 0.000, -2.900, 0.0, , , , , , 96, , , 31, 31, 31
38.5270832, -120.3543394, 38.200, 11:43:11.214, 13, 0.00, 0.33, 91, -3.600, 0.500, -38.500, 788, 100, 97, 23, 22728, -19855, 4625, 5083, 19, 14, 1530988991.214, 118, 0, 1024, 1024, 1024, 1024, 0, 6, 3782, 3784, 3799, 3785, 3754, 3788, 0, 1, 18599, -89.900, 0.000, -39.800, 0.000, 0.000, -2.900, 0.0, , , , , , 96, , , 31, 31, 31
38.5270834, -120.3543393, 39.000, 11:43:11.314, 13, 0.00, 0.35, 91, -4.200, 0.800, -38.500, 788, 100, 97, 23, 22728, -19855, 4625, 5083, 19, 14, 1530988991.314, 18, 0, 1024, 1024, 1024, 1024, 0, 6, 3782, 3784, 3799, 3785, 3754, 3788, 0, 1, 18699, -89.900, 0.000, -39.800, 0.000, 0.000, -2.800, 0.0, , , , , , 96, , , 31, 31, 31
38.5270834, -120.3543393, 39.000, 11:43:11.414, 13, 0.00, 0.35, 91, -4.200, 0.800, -38.500, 788, 100, 97, 23, 22728, -19855, 4625, 5083, 19, 14, 1530988991.414, 117, 0, 1024, 1024, 1024, 1024, 0, 6, 3782, 3784, 3799, 3785, 3754, 3788, 0, 1, 18799, -89.900, 0.000, -39.800, 0.000, 0.000, -2.800, 0.0, , , , , , 96, , , 31, 31, 31
38.5270835, -120.3543393, 39.300, 11:43:11.514, 13, 0.00, 0.35, 91, -4.200, 0.600, -38.500, 788, 100, 97, 23, 22740, -19126, 4625, 5083, 19, 14, 1530988991.514, 98, 0, 1024, 1024, 1024, 1024, 0, 6, 3783, 3805, 3811, 3799, 3764, 3799, 0, 1, 18899, -89.900, 0.000, -39.800, 0.000, 0.000, -2.800, 0.0, , , , , , 96, , , 31, 31, 31
38.5270836, -120.3543394, 39.900, 11:43:11.614, 13, 0.00, 0.35, 91, -3.900, 0.900, -38.800, 788, 100, 97, 23, 22740, -19126, 4625, 5083, 19, 14, 1530988991.614, 5, 0, 1024, 1024, 1024, 1024, 0, 6, 3783, 3805, 3811, 3799, 3764, 3799, 0, 1, 18999, -89.900, 0.000, -39.800, 0.000, 0.000, -2.800, 0.0, , , , , , 96, , , 31, 31, 31
38.5270836, -120.3543394, 39.900, 11:43:11.714, 13, 0.00, 0.35, 91, -3.900, 0.900, -38.800, 788, 100, 97, 23, 22740, -19126, 4625, 5083, 19, 14, 1530988991.714, 105, 0, 1024, 1024, 1024, 1024, 0, 6, 3783, 3805, 3811, 3799, 3764, 3799, 0, 1, 19099, -89.900, 0.000, -39.800, 0.000, 0.000, -2.800, 0.0, , , , , , 96, , , 31, 31, 31
38.5270836, -120.3543395, 40.400, 11:43:11.814, 13, 0.00, 0.35, 91, -3.600, 0.900, -39.100, 788, 100, 97, 23, 22740, -19126, 4625, 5083, 19, 14, 1530988991.814, 11, 0, 1024, 1024, 1024, 1024, 0, 6, 3783, 3805, 3811, 3799, 3764, 3799, 0, 1, 19199, -89.900, 0.000, -39.800, 0.000, 0.000, -2.800, 0.0, , , , , , 96, , , 31, 31, 31
38.5270836, -120.3543395, 40.400, 11:43:11.914, 13, 0.00, 0.35, 91, -3.600, 0.900, -39.100, 788, 100, 97, 23, 22740, -19126, 4625, 5083, 19, 14, 1530988991.914, 111, 0, 1024, 1024, 1024, 1024, 0, 6, 3783, 3805, 3811, 3799, 3764, 3799, 0, 1, 19299, -89.900, 0.000, -39.800, 0.000, 0.000, -2.800, 0.0, , , , , , 96, , , 31, 31, 31
38.5270837, -120.3543395, 40.700, 11:43:12.014, 14, 0.00, 0.35, 91, -3.600, 0.900, -39.200, 788, 100, 97, 24, 22821, -18565, 4625, 5083, 19, 14, 1530988992.014, 97, 0, 1024, 1024, 1024, 1024, 0, 6, 3793, 3807, 3806, 3798, 3761, 3812, 0, 1, 19399, -89.900, 0.000, -39.800, 0.000, 0.000, -2.800, 0.0, , , , , , 96, , , 31, 31, 31
38.5270837, -120.3543395, 41.300, 11:43:12.114, 14, 0.00, 0.35, 91, -3.600, 0.900, -39.200, 788, 100, 97, 24, 22821, -18565, 4625, 5083, 19, 14, 1530988992.114, 2, 0, 1024, 1024, 1024, 1024, 0, 6, 3793, 3807, 3806, 3798, 3761, 3812, 0, 1, 19499, -89.900, 0.000, -39.800, 0.000, 0.000, -2.900, 0.0, , , , , , 96, , , 31, 31, 31
38.5270837, -120.3543395, 41.300, 11:43:12.214, 14, 0.00, 0.35, 91, -3.600, 0.900, -39.200, 788, 100, 97, 24, 22821, -18565, 4625, 5083, 19, 14, 1530988992.214, 102, 0, 1024, 1024, 1024, 1024, 0, 6, 3793, 3807, 3806, 3798, 3761, 3812, 0, 1, 19599, -89.900, 0.000, -39.800, 0.000, 0.000, -2.900, 0.0, , , , , , 96, , , 31, 31, 31
38.5270838, -120.3543396, 41.600, 11:43:12.314, 14, 0.00, 0.35, 91, -3.700, 0.900, -39.200, 788, 100, 97, 24, 22821, -18565, 4625, 5083, 19, 14, 1530988992.314, 92, 0, 1024, 1024, 1024, 1024, 0, 6, 3793, 3807, 3806, 3798, 3761, 3812, 0, 1, 19699, -89.900, 0.000, -39.800, 0.000, 0.000, -2.900, 0.0, , , , , , 96, , , 31, 31, 31
38.5270838, -120.3543396, 41.800, 11:43:12.414, 14, 0.00, 0.35, 91, -3.800, 0.900, -39.100, 788, 100, 97, 24, 22821, -18565, 4625, 5083, 19, 14, 1530988992.414, 83, 0, 1024, 1024, 1024, 1024, 0, 6, 3793, 3807, 3806, 3798, 3761, 3812, 0, 1, 19799, -89.900, 0.000, -39.800, 0.000, 0.000, -2.900, 0.0, , , , , , 96, , , 31, 31, 31
38.5270838, -120.3543396, 42.100, 11:43:12.514, 14, 0.00, 0.36, 91, -3.800, 0.800, -39.000, 788, 100, 97, 24, 22821, -18565, 4625, 5083, 19, 14, 1530988992.514, 70, 0, 1024, 1024, 1024, 1024, 0, 6, 3793, 3807, 3806, 3798, 3761, 3812, 0, 1, 19899, -89.900, 0.000, -39.800, 0.000, 0.000, -2.900, 0.0, , , , , , 96, , , 31, 31, 31
38.5270838, -120.3543396, 42.400, 11:43:12.614, 14, 0.00, 0.36, 91, -3.700, 0.800, -39.000, 788, 100, 96, 24, 22821, -18565, 4625, 5083, 19, 14, 1530988992.614, 69, 0, 1024, 1024, 1024, 1024, 0, 6, 3793, 3807, 3806, 3798, 3761, 3812, 0, 1, 19999, -89.900, 0.000, -39.800, 0.000, 0.000, -2.900, 0.0, , , , , , 96, , , 31, 31, 31
38.5270839, -120.3543396, 42.700, 11:43:12.713, 14, 0.00, 0.36, 91, -3.800, 0.700, -39.000, 788, 100, 96, 24, 22821, -18565, 4625, 5083, 19, 14, 1530988992.714, 71, 0, 1024, 1024, 1024, 1024, 0, 6, 3793, 3807, 3806, 3798, 3761, 3812, 0, 1, 20099, -89.900, 0.000, -39.800, 0.000, 0.000, -2.900, 0.0, , , , , , 96, , , 31, 31, 31
38.5270839, -120.3543397, 43.000, 11:43:12.813, 14, 0.00, 0.35, 91, -4.000, 0.700, -39.100, 788, 100, 96, 24, 22821, -18565, 4625, 5083, 19, 14, 1530988992.814, 75, 0, 1024, 1024, 1024, 1024, 0, 6, 3793, 3807, 3806, 3798, 3761, 3812, 0, 1, 20199, -89.900, 0.000, -39.800, 0.000, 0.000, -2.900, 0.0, , , , , , 96, , , 31, 31, 31
38.5270839, -120.3543397, 43.200, 11:43:12.914, 14, 0.00, 0.35, 91, -3.900, 1.000, -39.100, 788, 100, 96, 24, 22821, -18565, 4625, 5083, 19, 14, 1530988992.914, 68, 0, 1024, 1024, 1024, 1024, 0, 6, 3793, 3807, 3806, 3798, 3761, 3812, 0, 1, 20299, -89.900, 0.000, -39.800, 0.000, 0.000, -2.900, 0.0, , , , , , 96, , , 31, 31, 31
38.5270839, -120.3543398, 43.500, 11:43:13.014, 14, 0.00, 0.35, 91, -3.700, 1.000, -39.200, 788, 100, 96, 24, 22719, -19053, 4625, 5083, 19, 14, 1530988993.014, 68, 0, 1024, 1024, 1024, 1024, 0, 6, 3777, 3782, 3800, 3781, 3757, 3789, 0, 1, 20399, -89.900, 0.000, -39.800, 0.000, 0.000, -2.900, 0.0, , , , , , 96, , , 31, 31, 31
38.5270839, -120.3543399, 43.800, 11:43:13.113, 14, 0.00, 0.35, 91, -3.600, 1.100, -39.200, 788, 100, 97, 24, 22719, -19053, 4625, 5083, 19, 14, 1530988993.114, 43, 0, 1024, 1024, 1024, 1024, 0, 6, 3777, 3782, 3800, 3781, 3757, 3789, 0, 1, 20499, -89.900, 0.000, -39.800, 0.000, 0.000, -3.000, 0.0, , , , , , 96, , , 31, 31, 31
38.5270839, -120.3543399, 44.100, 11:43:13.213, 14, 0.00, 0.34, 91, -3.600, 1.300, -39.300, 788, 100, 97, 24, 22719, -19053, 4625, 5083, 19, 14, 1530988993.214, 37, 0, 1024, 1024, 1024, 1024, 0, 6, 3777, 3782, 3800, 3781, 3757, 3789, 0, 1, 20599, -89.900, 0.000, -39.800, 0.000, 0.000, -3.100, 0.0, , , , , , 96, , , 31, 31, 31
38.5270839, -120.3543400, 44.400, 11:43:13.314, 14, 0.00, 0.33, 91, -3.400, 1.400, -39.300, 788, 100, 97, 24, 22719, -19053, 4625, 5083, 19, 14, 1530988993.314, 52, 0, 1024, 1024, 1024, 1024, 0, 6, 3777, 3782, 3800, 3781, 3757, 3789, 0, 1, 20699, -89.900, 0.000, -39.800, 0.000, 0.000, -3.000, 0.0, , , , , , 96, , , 31, 31, 31
38.5270839, -120.3543401, 44.700, 11:43:13.413, 14, 0.00, 0.33, 91, -3.400, 1.200, -39.200, 788, 100, 97, 24, 22719, -19053, 4625, 5083, 19, 14, 1530988993.414, 44, 0, 1024, 1024, 1024, 1024, 0, 6, 3777, 3782, 3800, 3781, 3757, 3789, 0, 1, 20798, -89.900, 0.000, -39.800, 0.000, 0.000, -3.000, 0.0, , , , , , 96, , , 31, 31, 31
38.5270838, -120.3543400, 45.000, 11:43:13.513, 14, 0.00, 0.33, 91, -3.300, 0.900, -39.000, 788, 100, 99, 24, 22719, -19053, 4625, 5083, 19, 14, 1530988993.514, 36, 0, 1024, 1024, 1024, 1024, 0, 6, 3777, 3782, 3800, 3781, 3757, 3789, 0, 1, 20898, -89.900, 0.000, -39.800, 0.000, 0.000, -3.000, 0.0, , , , , , 96, , , 31, 31, 31
