latitude,longitude,altitude(feet),ascent(feet),speed(mph),distance(feet),time(millisecond),datetime(utc),satellites,gpslevel,voltage(v),max_altitude(feet),max_ascent(feet),max_speed(mph),max_distance(feet), xSpeed(mph), ySpeed(mph), zSpeed(mph), compass_heading(degrees), pitch(degrees), roll(degrees),isPhoto,isVideo,rc_elevator,rc_aileron,rc_throttle,rc_rudder,gimbal_heading(degrees),gimbal_pitch(degrees),battery_percent,voltageCell1,voltageCell2,voltageCell3,voltageCell4,voltageCell5,voltageCell6,current(A),battery_temperature(f),flycStateRaw,flycState,message
38.5270925,-120.3542955,5053.6546295647,0,0,0,3200,2018-07-07 19:01:33,8,0,0,5053.6546295647,0,0,0,0,0,0,317.4, 0.4, -0.3,1,0,1024,1024,1024,1024,315.6,-89.9,98,4.085,4.072,4.11,4.121,4.063,4.064,0,73.4,11,AutoTakeoff,DJI_0124.jpg Starting Mission from Lat/Long: 38.52710/-120.35429 Camera: Zenmuse X3 - Overlap: 90/90 - Active Connection: No
38.5270925,-120.3542955,5053.6546295647,0,0,0,3300,2018-07-07 19:01:33,8,0,0,5053.6546295647,0,0,0,0,0,0,317.7, 0.3, -0.1,0,0,1024,1024,1024,1024,315.7,-90,98,4.085,4.072,4.11,4.121,4.063,4.064,0,73.4,11,AutoTakeoff,
38.5270925,-120.3542954,5053.6546295647,0,0,0.0285426846404,3400,2018-07-07 19:01:33,8,0,0,5053.6546295647,0,0,0.0285426846404,0,0,0,317.8, 0, 0.3,0,0,1024,1024,1024,1024,315.7,-89.9,98,4.085,4.072,4.11,4.121,4.063,4.064,0,73.4,11,AutoTakeoff,
38.5270926,-120.3542954,5053.6546295647,0,0,0.046323164212,3500,2018-07-07 19:01:33,8,0,0,5053.6546295647,0,0,0.046323164212,0,0,0,317.8, 0.1, 0.4,0,0,1024,1024,1024,1024,315.7,-89.9,98,4.085,4.072,4.11,4.121,4.063,4.064,0,73.4,11,AutoTakeoff,
38.5270926,-120.3542953,5053.9827135647,0.328084,0,0.067748689832,3600,2018-07-07 19:01:33,8,0,0,5053.9827135647,0.328084,0,0.067748689832,0,0,0,317.6, 0, 0.3,0,0,1024,1024,1024,1024,315.8,-89.9,98,4.085,4.072,4.11,4.121,4.063,4.064,0,73.4,11,AutoTakeoff,
38.5270926,-120.3542953,5053.9827135647,0.328084,0,0.067748689832,3700,2018-07-07 19:01:33,8,0,0,5053.9827135647,0.328084,0,0.067748689832,0,0,0,317.5, 0.2, 0.2,0,0,1024,1024,1024,1024,315.8,-89.9,98,4.085,4.072,4.11,4.121,4.063,4.064,0,73.4,11,AutoTakeoff,
38.5270926,-120.3542953,5053.9827135647,0.328084,0,0.067748689832,3800,2018-07-07 19:01:33,8,0,0,5053.9827135647,0.328084,0,0.067748689832,0,0,0,317.3, 0, -0.3,0,0,1024,1024,1024,1024,315.8,-89.9,98,4.085,4.072,4.11,4.121,4.063,4.064,0,73.4,11,AutoTakeoff,
38.5270926,-120.3542953,5054.3107975647,0.656168,0,0.067748689832,3900,2018-07-07 19:01:33,8,0,0,5054.3107975647,0.656168,0,0.067748689832,0,0,0,317.2, 0, -0.5,0,0,1024,1024,1024,1024,315.9,-89.9,98,4.085,4.072,4.11,4.121,4.063,4.064,0,73.4,11,AutoTakeoff,
38.5270927,-120.3542953,5054.3107975647,0.656168,0,0.092646328424,4000,2018-07-07 19:01:33,8,0,24.619,5054.3107975647,0.656168,0,0.092646328424,0,0,0,317.1, 0.1, -0.5,0,0,1024,1024,1024,1024,315.9,-89.9,98,4.085,4.072,4.11,4.121,4.063,4.064,8.361,73.4,11,AutoTakeoff,
38.5270928,-120.3542953,5054.6388815647,0.984252,0,0.123446854344,4100,2018-07-07 19:01:33,8,0,24.619,5054.6388815647,0.984252,0,0.123446854344,0,0,0,316.9, 0.1, -0.6,0,0,1024,1024,1024,1024,315.9,-89.9,98,4.085,4.072,4.11,4.121,4.063,4.064,8.361,73.4,11,AutoTakeoff,
38.527093,-120.3542952,5054.9669655647,1.312336,0,0.201521659992,4300,2018-07-07 19:01:34,8,0,24.619,5054.9669655647,1.312336,0,0.201521659992,0,0,-0.223694,316.9, 0.4, -0.7,0,0,1024,1024,1024,1024,316,-89.9,98,4.085,4.072,4.11,4.121,4.063,4.064,8.361,73.4,11,AutoTakeoff,
38.527093,-120.3542951,5054.9669655647,1.312336,0,0.215206371716,4400,2018-07-07 19:01:34,7,0,24.619,5054.9669655647,1.312336,0,0.215206371716,0,0,0,316.9, 0.6, -0.8,0,0,1024,1024,1024,1024,316,-89.9,98,4.085,4.072,4.11,4.121,4.063,4.064,8.361,73.4,11,AutoTakeoff,
38.5270931,-120.354295,5055.2950495647,1.64042,0,0.261320874504,4600,2018-07-07 19:01:34,7,0,24.619,5055.2950495647,1.64042,0,0.261320874504,0,0,0,317, 0.7, -1.1,0,0,1024,1024,1024,1024,316,-89.9,98,4.085,4.072,4.11,4.121,4.063,4.064,8.361,73.4,11,AutoTakeoff,
38.5270932,-120.354295,5055.2950495647,1.64042,0,0.292563657656,4700,2018-07-07 19:01:34,7,0,24.619,5055.2950495647,1.64042,0,0.292563657656,0,0,-0.223694,317.1, 0.7, -1.1,0,0,1024,1024,1024,1024,316,-89.9,98,4.085,4.072,4.11,4.121,4.063,4.064,8.361,73.4,11,AutoTakeoff,
38.5270933,-120.354295,5055.6231335647,1.968504,0,0.324901257116,4800,2018-07-07 19:01:34,8,0,24.619,5055.6231335647,1.968504,0,0.324901257116,0,0,-0.223694,317.5, 0.5, -0.8,0,0,1024,1024,1024,1024,316.1,-89.9,98,4.085,4.072,4.11,4.121,4.063,4.064,8.361,73.4,11,AutoTakeoff,
38.5270934,-120.3542951,5055.9512175647,2.296588,0,0.34764764892,5000,2018-07-07 19:01:34,8,0,23.592,5055.9512175647,2.296588,0,0.34764764892,0,0,-0.223694,317.6, 0.5, -0.7,0,0,1024,1024,1024,1024,316.1,-89.9,98,3.923,3.916,3.931,3.931,3.939,3.916,17.232,73.4,11,AutoTakeoff,
38.5270934,-120.3542951,5056.2793015647,2.624672,0,0.34764764892,5100,2018-07-07 19:01:34,8,0,23.592,5056.2793015647,2.624672,0,0.34764764892,0,0,-0.223694,317.7, 0.5, -0.5,0,0,1024,1024,1024,1024,316.1,-89.9,98,3.923,3.916,3.931,3.931,3.939,3.916,17.232,73.4,11,AutoTakeoff,
38.5270935,-120.3542951,5056.2793015647,2.624672,0,0.38229660016,5200,2018-07-07 19:01:35,8,0,23.592,5056.2793015647,2.624672,0,0.38229660016,0,0,-0.223694,317.7, 0.6, -0.6,0,0,1024,1024,1024,1024,316.1,-89.9,98,3.923,3.916,3.931,3.931,3.939,3.916,17.232,73.4,11,AutoTakeoff,
38.5270936,-120.3542952,5056.6073855647,2.952756,0,0.4103674672,5300,2018-07-07 19:01:35,7,0,23.592,5056.6073855647,2.952756,0,0.4103674672,0,0,0,317.7, 0.7, -0.8,0,0,1024,1024,1024,1024,316.1,-89.9,98,3.923,3.916,3.931,3.931,3.939,3.916,17.232,73.4,11,AutoTakeoff,
38.5270936,-120.3542952,5056.6073855647,2.952756,0,0.4103674672,5400,2018-07-07 19:01:35,7,0,23.592,5056.6073855647,2.952756,0,0.4103674672,0,0,0,317.6, 0.8, -1,0,0,1024,1024,1024,1024,316.2,-89.9,98,3.923,3.916,3.931,3.931,3.939,3.916,17.232,73.4,14,Waypoint,
38.5270936,-120.3542953,5056.9354695647,3.28084,0,0.40537402872,5500,2018-07-07 19:01:35,8,0,23.592,5056.9354695647,3.28084,0,0.4103674672,0,0,0,317.5, 0.6, -1,0,0,1024,1024,1024,1024,316.2,-89.9,98,3.923,3.916,3.931,3.931,3.939,3.916,17.232,73.4,14,Waypoint,
38.5270936,-120.3542953,5056.9354695647,3.28084,0,0.40537402872,5600,2018-07-07 19:01:35,8,0,23.592,5056.9354695647,3.28084,0,0.4103674672,0,0,0,317.4, 0.4, -0.6,0,0,1024,1024,1024,1024,316.2,-89.9,98,3.923,3.916,3.931,3.931,3.939,3.916,17.232,73.4,14,Waypoint,
38.5270936,-120.3542953,5056.9354695647,3.28084,0,0.40537402872,5700,2018-07-07 19:01:35,9,0,23.592,5056.9354695647,3.28084,0,0.4103674672,0,0,0,317.4, 0.4, -0.4,0,0,1024,1024,1024,1024,316.2,-89.9,98,3.923,3.916,3.931,3.931,3.939,3.916,17.232,73.4,14,Waypoint,
38.5270936,-120.3542954,5057.2635535647,3.608924,0,0.40234909424,5800,2018-07-07 19:01:35,9,0,23.592,5057.2635535647,3.608924,0,0.4103674672,0,0,0,317.4, 0.4, -0.2,0,0,1024,1024,1024,1024,316.2,-89.9,98,3.923,3.916,3.931,3.931,3.939,3.916,17.232,73.4,14,Waypoint,
38.5270936,-120.3542955,5057.2635535647,3.608924,0,0.40133531468,5900,2018-07-07 19:01:35,9,0,23.592,5057.2635535647,3.608924,0,0.4103674672,0,0,0,317.4, 0.4, 0,0,0,1024,1024,1024,1024,316.3,-89.9,98,3.923,3.916,3.931,3.931,3.939,3.916,17.232,73.4,14,Waypoint,
38.5270936,-120.3542956,5057.2635535647,3.608924,0,0.40234909424,6000,2018-07-07 19:01:35,9,0,23.382,5057.2635535647,3.608924,0,0.4103674672,0,0,-0.223694,317.5, 0.5, 0.3,0,0,1024,1024,1024,1024,316.3,-89.9,97,3.923,3.916,3.931,3.931,3.939,3.916,17.504,73.4,14,Waypoint,
38.5270936,-120.3542957,5057.5916375647,3.937008,0,0.40537402872,6100,2018-07-07 19:01:35,9,0,23.382,5057.5916375647,3.937008,0,0.4103674672,0,0,-0.223694,317.6, 0.6, 0.5,0,0,1024,1024,1024,1024,316.3,-89.9,97,3.923,3.916,3.931,3.931,3.939,3.916,17.504,73.4,14,Waypoint,
38.5270937,-120.3542958,5057.9197215647,4.265092,0,0.44611549984,6200,2018-07-07 19:01:36,9,0,23.382,5057.9197215647,4.265092,0,0.44611549984,0,0,-0.223694,317.7, 0.7, 0.3,0,0,1024,1024,1024,1024,316.3,-89.9,97,3.923,3.916,3.931,3.931,3.939,3.916,17.504,73.4,14,Waypoint,
38.5270937,-120.354296,5058.5758895647,4.92126,0,0.46049214072,6300,2018-07-07 19:01:36,9,0,23.382,5058.5758895647,4.92126,0,0.46049214072,0,0,-0.223694,317.7, 1, 0,0,0,1024,1024,1024,1024,316.3,-89.9,97,3.923,3.916,3.931,3.931,3.939,3.916,17.504,73.4,14,Waypoint,
38.5270936,-120.3542961,5059.2320575647,5.577428,0,0.43634515832,6400,2018-07-07 19:01:36,9,0,23.382,5059.2320575647,5.577428,0,0.46049214072,0,0,-0.447388,317.6, 0.9, 0,0,0,1024,1024,1024,1024,316.4,-89.9,97,3.923,3.916,3.931,3.931,3.939,3.916,17.504,73.4,14,Waypoint,
38.5270936,-120.3542963,5059.5601415647,5.905512,0,0.4617454216,6500,2018-07-07 19:01:36,9,0,23.382,5059.5601415647,5.905512,0,0.4617454216,0,0,-0.447388,317.5, 1, -0.2,0,0,1024,1024,1024,1024,316.4,-89.9,97,3.923,3.916,3.931,3.931,3.939,3.916,17.504,73.4,14,Waypoint,
38.5270935,-120.3542965,5060.2163095647,6.56168,0,0.46323164212,6600,2018-07-07 19:01:36,9,0,23.382,5060.2163095647,6.56168,0,0.46323164212,0,0,-0.447388,317.5, 0.9, -0.1,0,0,1024,1024,1024,1024,316.4,-89.9,97,3.923,3.916,3.931,3.931,3.939,3.916,17.504,73.4,14,Waypoint,
38.5270934,-120.3542965,5060.8724775647,7.217848,0,0.43507547324,6700,2018-07-07 19:01:36,9,0,23.382,5060.8724775647,7.217848,0,0.46323164212,0,0,-0.447388,317.5, 0.8, 0.1,0,0,1024,1024,1024,1024,316.4,-89.9,97,3.923,3.916,3.931,3.931,3.939,3.916,17.504,73.4,14,Waypoint,
38.5270932,-120.3542966,5061.8567295647,8.2021,0,0.4047244224,6800,2018-07-07 19:01:36,9,0,23.382,5061.8567295647,8.2021,0,0.46323164212,0,0,-0.447388,317.5, 0.4, 0.6,0,0,1024,1024,1024,1024,316.4,-90,97,3.923,3.916,3.931,3.931,3.939,3.916,17.504,73.4,14,Waypoint,
38.5270932,-120.3542966,5062.5128975647,8.858268,0,0.4047244224,6900,2018-07-07 19:01:36,9,0,23.382,5062.5128975647,8.858268,0,0.46323164212,0,0,-0.671082,317.6, 0, 0.9,0,0,1024,1024,1024,1024,316.4,-90,97,3.923,3.916,3.931,3.931,3.939,3.916,17.504,73.4,14,Waypoint,
38.5270933,-120.3542965,5064.4814015647,10.826772,0,0.40824148288,7100,2018-07-07 19:01:36,9,0,23.382,5064.4814015647,10.826772,0,0.46323164212,0,0,-0.671082,317.9, 0, 0.5,0,0,1024,1024,1024,1024,316.5,-89.9,97,3.923,3.916,3.931,3.931,3.939,3.916,17.504,73.4,14,Waypoint,
38.5270933,-120.3542965,5065.7937375647,12.139108,0,0.40824148288,7300,2018-07-07 19:01:37,9,0,23.382,5065.7937375647,12.139108,0,0.46323164212,0,0,-0.671082,317.9, 0.2, 0.1,0,0,1024,1024,1024,1024,316.5,-89.9,97,3.923,3.916,3.931,3.931,3.939,3.916,17.504,73.4,14,Waypoint,
38.5270935,-120.3542964,5066.7779895647,13.12336,0,0.4462106442,7400,2018-07-07 19:01:37,9,0,23.382,5066.7779895647,13.12336,0,0.46323164212,0,0,-0.671082,317.9, 0.4, -0.2,0,0,1024,1024,1024,1024,316.5,-89.9,97,3.923,3.916,3.931,3.931,3.939,3.916,17.504,73.4,14,Waypoint,
38.5270936,-120.3542963,5067.7622415647,14.107612,0,0.4617454216,7500,2018-07-07 19:01:37,9,0,23.382,5067.7622415647,14.107612,0,0.46323164212,0,0,-0.671082,317.8, 0.5, -0.3,0,0,1024,1024,1024,1024,316.5,-89.9,97,3.923,3.916,3.931,3.931,3.939,3.916,17.504,73.4,14,Waypoint,
38.5270936,-120.3542962,5069.0745775647,15.419948,0,0.44831694348,7600,2018-07-07 19:01:37,9,0,23.382,5069.0745775647,15.419948,0,0.46323164212,0,0,-0.671082,317.7, 0.7, -0.4,0,0,1024,1024,1024,1024,316.5,-89.9,97,3.923,3.916,3.931,3.931,3.939,3.916,17.504,73.4,14,Waypoint,
38.5270937,-120.3542962,5070.3869135647,16.732284,0,0.48125329624,7700,2018-07-07 19:01:37,9,0,23.382,5070.3869135647,16.732284,0,0.48125329624,0,0,-0.671082,317.6, 0.8, -0.4,0,0,1024,1024,1024,1024,316.5,-89.9,97,3.923,3.916,3.931,3.931,3.939,3.916,17.504,73.4,14,Waypoint,
38.5270939,-120.3542962,5071.3711655647,17.716536,0,0.548474427,7800,2018-07-07 19:01:37,9,0,23.382,5071.3711655647,17.716536,0,0.548474427,0,0,-0.671082,317.6, 0.9, -0.6,0,0,1024,1024,1024,1024,316.5,-89.9,97,3.923,3.916,3.931,3.931,3.939,3.916,17.504,73.4,14,Waypoint,
38.5270941,-120.3542962,5072.6835015647,19.028872,0,0.61700461292,7900,2018-07-07 19:01:37,9,0,23.382,5072.6835015647,19.028872,0,0.61700461292,0,0,-0.671082,317.6, 1.1, -0.7,0,0,1024,1024,1024,1024,316.5,-89.9,97,3.923,3.916,3.931,3.931,3.939,3.916,17.504,73.4,14,Waypoint,
38.5270943,-120.3542961,5073.6677535647,20.013124,0,0.6786909666,8000,2018-07-07 19:01:37,9,0,23.184,5073.6677535647,20.013124,0,0.6786909666,0,0,-0.671082,317.6, 1.1, -0.9,0,0,1024,1024,1024,1024,316.5,-89.9,97,3.835,3.833,3.865,3.863,3.918,3.842,17.222,73.4,14,Waypoint,
38.5270944,-120.3542961,5074.6520055647,20.997376,0,0.71405514096,8100,2018-07-07 19:01:37,9,0,23.184,5074.6520055647,20.997376,0,0.71405514096,0,0,-0.671082,317.7, 1.2, -1,0,0,1024,1024,1024,1024,316.5,-89.9,97,3.835,3.833,3.865,3.863,3.918,3.842,17.222,73.4,14,Waypoint,
38.5270944,-120.3542961,5075.9643415647,22.309712,0,0.71405514096,8200,2018-07-07 19:01:38,9,0,23.184,5075.9643415647,22.309712,0,0.71405514096,0,0,-0.671082,317.7, 1.3, -0.8,0,0,1024,1024,1024,1024,316.5,-89.9,97,3.835,3.833,3.865,3.863,3.918,3.842,17.222,73.4,14,Waypoint,
38.5270944,-120.3542962,5076.9485935647,23.293964,0,0.72143375012,8300,2018-07-07 19:01:38,9,0,23.184,5076.9485935647,23.293964,0,0.72143375012,0,0,-0.671082,317.8, 1.2, -0.5,0,0,1024,1024,1024,1024,316.5,-89.9,97,3.835,3.833,3.865,3.863,3.918,3.842,17.222,73.4,14,Waypoint,
38.5270943,-120.3542962,5077.9328455647,24.278216,0,0.6864501532,8400,2018-07-07 19:01:38,9,0,23.184,5077.9328455647,24.278216,0,0.72143375012,0,0,-0.671082,317.8, 0.8, -0.3,0,0,1024,1024,1024,1024,316.5,-90,97,3.835,3.833,3.865,3.863,3.918,3.842,17.222,73.4,14,Waypoint,
38.5270942,-120.3542962,5079.2451815647,25.590552,0,0.65163059828,8500,2018-07-07 19:01:38,9,0,23.184,5079.2451815647,25.590552,0,0.72143375012,0,0,-0.671082,317.8, 0.1, 0,0,0,1024,1024,1024,1024,316.5,-90,97,3.835,3.833,3.865,3.863,3.918,3.842,17.222,73.4,14,Waypoint,
38.5270942,-120.3542962,5080.2294335647,26.574804,0,0.65163059828,8600,2018-07-07 19:01:38,9,0,23.184,5080.2294335647,26.574804,0,0.72143375012,0,0,-0.671082,317.7, -0.2, 0.2,0,0,1024,1024,1024,1024,316.5,-90,97,3.835,3.833,3.865,3.863,3.918,3.842,17.222,73.4,14,Waypoint,
38.5270941,-120.3542962,5081.2136855647,27.559056,0,0.61700461292,8700,2018-07-07 19:01:38,9,0,23.184,5081.2136855647,27.559056,0,0.72143375012,0,0,-0.671082,317.5, -0.2, 0.1,0,0,1024,1024,1024,1024,316.5,-89.9,97,3.835,3.833,3.865,3.863,3.918,3.842,17.222,73.4,14,Waypoint,
38.527094,-120.3542962,5082.1979375647,28.543308,0,0.58260500552,8800,2018-07-07 19:01:38,9,0,23.184,5082.1979375647,28.543308,0,0.72143375012,0,0,-0.671082,317.3, 0, 0,0,0,1024,1024,1024,1024,316.5,-89.9,97,3.835,3.833,3.865,3.863,3.918,3.842,17.222,73.4,14,Waypoint,
38.5270938,-120.3542963,5084.4945255647,30.839896,0,0.52640749716,8900,2018-07-07 19:01:38,9,0,23.184,5084.4945255647,30.839896,0,0.72143375012,0,0,-0.671082,317.1, 0.1, 0,0,0,1024,1024,1024,1024,316.5,-89.9,97,3.835,3.833,3.865,3.863,3.918,3.842,17.222,73.4,14,Waypoint,
38.5270937,-120.3542964,5085.4787775647,31.824148,0,0.50761812648,9000,2018-07-07 19:01:38,9,0,22.538,5085.4787775647,31.824148,0,0.72143375012,0,0,-0.671082,317, 0.1, 0.1,0,0,1024,1024,1024,1024,316.5,-89.9,97,3.738,3.749,3.767,3.779,3.806,3.759,25.613,73.4,14,Waypoint,
38.5270936,-120.3542967,5087.4472815647,33.792652,0,0.52762140796,9200,2018-07-07 19:01:39,9,0,22.538,5087.4472815647,33.792652,0,0.72143375012,0,0,-0.671082,317.1, 0.2, 0.7,0,0,1024,1024,1024,1024,316.5,-89.9,97,3.738,3.749,3.767,3.779,3.806,3.759,25.613,73.4,14,Waypoint,
38.5270936,-120.3542968,5088.4315335647,34.776904,0,0.54658138232,9400,2018-07-07 19:01:39,9,0,22.538,5088.4315335647,34.776904,0,0.72143375012,0,0,-0.671082,317.1, 0.4, 0.8,0,0,1024,1024,1024,1024,316.5,-89.9,97,3.738,3.749,3.767,3.779,3.806,3.759,25.613,73.4,14,Waypoint,
38.5270936,-120.3542969,5089.7438695647,36.08924,0,0.56634516248,9500,2018-07-07 19:01:39,9,0,22.538,5089.7438695647,36.08924,0,0.72143375012,0,0,-0.671082,317.2, 0.7, 0.5,0,0,1024,1024,1024,1024,316.5,-89.9,97,3.738,3.749,3.767,3.779,3.806,3.759,25.613,73.4,14,Waypoint,
38.5270935,-120.3542971,5090.7281215647,37.073492,0,0.58452757776,9600,2018-07-07 19:01:39,9,0,22.538,5090.7281215647,37.073492,0,0.72143375012,0,0,-0.671082,317.2, 0.9, 0.3,0,0,1024,1024,1024,1024,316.5,-89.9,97,3.738,3.749,3.767,3.779,3.806,3.759,25.613,73.4,14,Waypoint,
38.5270935,-120.3542972,5091.7123735647,38.057744,0,0.60708991444,9700,2018-07-07 19:01:39,9,0,22.538,5091.7123735647,38.057744,0,0.72143375012,0,0,-0.671082,317.3, 1, 0.3,0,0,1024,1024,1024,1024,316.5,-89.9,97,3.738,3.749,3.767,3.779,3.806,3.759,25.613,73.4,14,Waypoint,
38.5270934,-120.3542972,5092.6966255647,39.041996,0,0.58588912636,9800,2018-07-07 19:01:39,9,0,22.538,5092.6966255647,39.041996,0,0.72143375012,0,0,-0.671082,317.3, 0.9, 0.4,0,0,1024,1024,1024,1024,316.5,-89.9,97,3.738,3.749,3.767,3.779,3.806,3.759,25.613,73.4,14,Waypoint,
38.5270933,-120.3542972,5093.6808775647,40.026248,0,0.56625001812,9900,2018-07-07 19:01:39,9,0,22.538,5093.6808775647,40.026248,0,0.72143375012,0,0,-0.671082,317.5, 0.7, 0.5,0,0,1024,1024,1024,1024,316.5,-89.9,97,3.738,3.749,3.767,3.779,3.806,3.759,25.613,73.4,14,Waypoint,
38.5270933,-120.3542973,5094.6651295647,41.0105,0,0.59088912652,10000,2018-07-07 19:01:39,9,0,22.877,5094.6651295647,41.0105,0,0.72143375012,0,0,-0.671082,317.6, 0.5, 0.6,0,0,1024,1024,1024,1024,316.5,-89.9,97,3.799,3.807,3.822,3.825,3.841,3.813,20.259,73.4,14,Waypoint,
38.5270932,-120.3542973,5095.9774655647,42.322836,0,0.57374673752,10100,2018-07-07 19:01:39,9,0,22.877,5095.9774655647,42.322836,0,0.72143375012,0,0,-0.671082,317.7, 0.4, 0.7,0,0,1024,1024,1024,1024,316.5,-89.9,97,3.799,3.807,3.822,3.825,3.841,3.813,20.259,73.4,14,Waypoint,
38.5270932,-120.3542972,5096.9617175647,43.307088,0,0.54833335088,10200,2018-07-07 19:01:40,9,0,22.877,5096.9617175647,43.307088,0,0.72143375012,0,0,-0.671082,317.8, 0.5, 0.6,0,0,1024,1024,1024,1024,316.5,-89.9,97,3.799,3.807,3.822,3.825,3.841,3.813,20.259,73.4,14,Waypoint,
38.5270932,-120.3542972,5097.9459695647,44.29134,0,0.54833335088,10300,2018-07-07 19:01:40,9,0,22.877,5097.9459695647,44.29134,0,0.72143375012,0,0,-0.671082,317.8, 0.4, 0.4,0,0,1024,1024,1024,1024,316.5,-90,97,3.799,3.807,3.822,3.825,3.841,3.813,20.259,73.4,14,Waypoint,
38.5270931,-120.3542971,5098.9302215647,45.275592,0.223694,0.50644030492,10400,2018-07-07 19:01:40,9,0,22.877,5098.9302215647,45.275592,0.223694,0.72143375012,0,0,-0.671082,317.8, 0.4, 0,0,0,1024,1024,1024,1024,316.5,-90,97,3.799,3.807,3.822,3.825,3.841,3.813,20.259,73.4,14,Waypoint,
38.5270931,-120.3542971,5099.9144735647,46.259844,0.223694,0.50644030492,10500,2018-07-07 19:01:40,9,0,22.877,5099.9144735647,46.259844,0.223694,0.72143375012,0,0,-0.671082,317.7, 0.3, -0.1,0,0,1024,1024,1024,1024,316.5,-89.9,97,3.799,3.807,3.822,3.825,3.841,3.813,20.259,73.4,14,Waypoint,
38.527093,-120.3542971,5100.8987255647,47.244096,0,0.49177166928,10600,2018-07-07 19:01:40,9,0,22.877,5100.8987255647,47.244096,0.223694,0.72143375012,0,0,-0.671082,317.6, 0.2, -0.1,0,0,1024,1024,1024,1024,316.5,-89.9,97,3.799,3.807,3.822,3.825,3.841,3.813,20.259,73.4,14,Waypoint,
38.527093,-120.3542971,5101.8829775647,48.228348,0,0.49177166928,10700,2018-07-07 19:01:40,10,0,22.877,5101.8829775647,48.228348,0.223694,0.72143375012,0,0,-0.671082,317.6, 0.3, 0,0,0,1024,1024,1024,1024,316.5,-89.9,97,3.799,3.807,3.822,3.825,3.841,3.813,20.259,73.4,14,Waypoint,
38.5270929,-120.354297,5102.8672295647,49.2126,0.223694,0.4523294108,10800,2018-07-07 19:01:40,10,0,22.877,5102.8672295647,49.2126,0.223694,0.72143375012,0,0,-0.671082,317.6, 0.2, 0,0,0,1024,1024,1024,1024,316.5,-90,97,3.799,3.807,3.822,3.825,3.841,3.813,20.259,73.4,14,Waypoint,
38.5270929,-120.3542969,5103.8514815647,50.196852,0.223694,0.42541339944,10900,2018-07-07 19:01:40,10,0,22.877,5103.8514815647,50.196852,0.223694,0.72143375012,0,0,-0.671082,317.6, 0, 0,0,0,1024,1024,1024,1024,316.6,-90,97,3.799,3.807,3.822,3.825,3.841,3.813,20.259,73.4,14,Waypoint,
38.5270929,-120.3542968,5104.8357335647,51.181104,0.223694,0.39872376604,11000,2018-07-07 19:01:40,10,0,22.966,5104.8357335647,51.181104,0.223694,0.72143375012,0,0,-0.671082,317.6, 0, -0.2,0,0,1024,1024,1024,1024,316.5,-90,97,3.81,3.811,3.838,3.842,3.848,3.818,19.138,73.4,14,Waypoint,
38.5270929,-120.3542967,5105.4919015647,51.837272,0.223694,0.37230644236,11100,2018-07-07 19:01:40,10,0,22.966,5105.4919015647,51.837272,0.223694,0.72143375012,0,0,-0.671082,317.6, 0, -0.5,0,0,1024,1024,1024,1024,316.5,-90,97,3.81,3.811,3.838,3.842,3.848,3.818,19.138,73.4,14,Waypoint,
38.5270929,-120.3542966,5106.4761535647,52.821524,0.223694,0.34623032604,11200,2018-07-07 19:01:41,10,0,22.966,5106.4761535647,52.821524,0.223694,0.72143375012,0,0,-0.671082,317.7, 0.2, -0.5,0,0,1024,1024,1024,1024,316.5,-89.9,97,3.81,3.811,3.838,3.842,3.848,3.818,19.138,73.4,14,Waypoint,
38.5270929,-120.3542965,5108.4446575647,54.790028,0,0.32057251682,11300,2018-07-07 19:01:41,10,0,22.966,5108.4446575647,54.790028,0.223694,0.72143375012,0,0,-0.671082,317.9, 0.6, -0.6,0,0,1024,1024,1024,1024,316.5,-89.9,97,3.81,3.811,3.838,3.842,3.848,3.818,19.138,73.4,14,Waypoint,
38.5270929,-120.3542963,5110.4131615647,56.758532,0,0.270994759328,11500,2018-07-07 19:01:41,10,0,22.966,5110.4131615647,56.758532,0.223694,0.72143375012,0,0,-0.671082,318.1, 0.2, -0.3,0,0,1024,1024,1024,1024,316.5,-89.9,97,3.81,3.811,3.838,3.842,3.848,3.818,19.138,73.4,14,Waypoint,
38.5270929,-120.3542961,5112.3816655647,58.727036,0,0.225004600376,11700,2018-07-07 19:01:41,10,0,22.966,5112.3816655647,58.727036,0.223694,0.72143375012,0,0,-0.671082,318, 0, -0.3,0,0,1024,1024,1024,1024,316.5,-90,97,3.81,3.811,3.838,3.842,3.848,3.818,19.138,73.4,14,Waypoint,
38.5270929,-120.354296,5113.3659175647,59.711288,0,0.204121397608,11900,2018-07-07 19:01:41,12,0,22.966,5113.3659175647,59.711288,0.223694,0.72143375012,0,0,-0.671082,317.8, 0, -0.6,0,0,1024,1024,1024,1024,316.5,-90,97,3.81,3.811,3.838,3.842,3.848,3.818,19.138,73.4,14,Waypoint,
38.527093,-120.3542959,5115.3344215647,61.679792,0,0.215206371716,12010,2018-07-07 19:01:41,10,0,22.964,5115.3344215647,61.679792,0.223694,0.72143375012,0,0,-0.671082,317.4, 0, -0.9,0,0,1024,1024,1024,1024,316.5,-89.9,97,3.81,3.811,3.838,3.842,3.848,3.818,18.97,73.4,14,Waypoint,
38.527093,-120.3542959,5116.3186735647,62.664044,0,0.215206371716,12100,2018-07-07 19:01:41,10,0,22.964,5116.3186735647,62.664044,0.223694,0.72143375012,0,0,-0.671082,317.3, 0.4, -0.8,0,0,1024,1024,1024,1024,316.5,-89.9,97,3.81,3.811,3.838,3.842,3.848,3.818,18.97,73.4,14,Waypoint,
38.5270931,-120.3542959,5117.3029255647,63.648296,0,0.246893380604,12300,2018-07-07 19:01:42,11,0,22.964,5117.3029255647,63.648296,0.223694,0.72143375012,0,0,-0.671082,317.2, 0.4, -0.5,0,0,1024,1024,1024,1024,316.5,-89.9,97,3.81,3.811,3.838,3.842,3.848,3.818,18.97,73.4,14,Waypoint,
38.5270931,-120.3542959,5118.2871775647,64.632548,0,0.246893380604,12400,2018-07-07 19:01:42,11,0,22.964,5118.2871775647,64.632548,0.223694,0.72143375012,0,0,-0.671082,317.2, 0.5, -0.3,0,0,1024,1024,1024,1024,316.5,-89.9,97,3.81,3.811,3.838,3.842,3.848,3.818,18.97,73.4,14,Waypoint,
38.5270931,-120.3542958,5119.2714295647,65.6168,0,0.23506070306,12500,2018-07-07 19:01:42,11,0,22.964,5119.2714295647,65.6168,0.223694,0.72143375012,0,0,-0.671082,317.2, 0.4, -0.3,0,0,1024,1024,1024,1024,316.5,-89.9,97,3.81,3.811,3.838,3.842,3.848,3.818,18.97,73.4,14,Waypoint,
38.5270931,-120.3542958,5120.2556815647,66.601052,0,0.23506070306,12600,2018-07-07 19:01:42,11,0,22.964,5120.2556815647,66.601052,0.223694,0.72143375012,0,0,-0.671082,317.2, 0.4, -0.2,0,0,1024,1024,1024,1024,316.5,-89.9,97,3.81,3.811,3.838,3.842,3.848,3.818,18.97,73.4,14,Waypoint,
38.5270932,-120.3542958,5120.9118495647,67.25722,0,0.26936680652,12700,2018-07-07 19:01:42,11,0,22.964,5120.9118495647,67.25722,0.223694,0.72143375012,0,0,-0.671082,317.3, 0.5, 0,0,0,1024,1024,1024,1024,316.5,-89.9,97,3.81,3.811,3.838,3.842,3.848,3.818,18.97,73.4,14,Waypoint,
38.5270932,-120.3542958,5121.8961015647,68.241472,0,0.26936680652,12800,2018-07-07 19:01:42,11,0,22.964,5121.8961015647,68.241472,0.223694,0.72143375012,0,0,-0.671082,317.4, 0.7, 0,0,0,1024,1024,1024,1024,316.5,-89.9,97,3.81,3.811,3.838,3.842,3.848,3.818,18.97,73.4,14,Waypoint,
38.5270932,-120.3542959,5123.8646055647,70.209976,0,0.27975230554,13000,2018-07-07 19:01:42,10,0,22.828,5123.8646055647,70.209976,0.223694,0.72143375012,0,0,-0.671082,317.6, 0.8, 0,0,0,1024,1024,1024,1024,316.5,-89.9,97,3.785,3.791,3.805,3.823,3.834,3.8,19.772,73.4,14,Waypoint,
38.5270932,-120.3542959,5124.8488575647,71.194228,0,0.27975230554,13100,2018-07-07 19:01:42,11,0,22.828,5124.8488575647,71.194228,0.223694,0.72143375012,0,0,-0.671082,317.7, 0.7, 0,0,0,1024,1024,1024,1024,316.5,-89.9,97,3.785,3.791,3.805,3.823,3.834,3.8,19.772,73.4,14,Waypoint,
38.5270933,-120.354296,5126.1611935647,72.506564,0,0.324901257116,13200,2018-07-07 19:01:43,11,0,22.828,5126.1611935647,72.506564,0.223694,0.72143375012,0,0,-0.671082,317.7, 0.6, 0,0,0,1024,1024,1024,1024,316.5,-89.9,97,3.785,3.791,3.805,3.823,3.834,3.8,19.772,73.4,14,Waypoint,
38.5270933,-120.354296,5127.1454455647,73.490816,0,0.324901257116,13300,2018-07-07 19:01:43,11,0,22.828,5127.1454455647,73.490816,0.223694,0.72143375012,0,0,-0.671082,317.7, 0.6, 0,0,0,1024,1024,1024,1024,316.5,-89.9,97,3.785,3.791,3.805,3.823,3.834,3.8,19.772,73.4,14,Waypoint,
38.5270933,-120.354296,5128.1296975647,74.475068,0,0.324901257116,13400,2018-07-07 19:01:43,11,0,22.828,5128.1296975647,74.475068,0.223694,0.72143375012,0,0,-0.671082,317.6, 0.7, 0,0,0,1024,1024,1024,1024,316.5,-89.9,97,3.785,3.791,3.805,3.823,3.834,3.8,19.772,73.4,14,Waypoint,
38.5270933,-120.354296,5129.1139495647,75.45932,0,0.324901257116,13500,2018-07-07 19:01:43,11,0,22.828,5129.1139495647,75.45932,0.223694,0.72143375012,0,0,-0.671082,317.5, 0.7, 0,0,0,1024,1024,1024,1024,316.5,-89.9,97,3.785,3.791,3.805,3.823,3.834,3.8,19.772,73.4,14,Waypoint,
38.5270934,-120.354296,5130.0982015647,76.443572,0,0.3580380692,13600,2018-07-07 19:01:43,11,0,22.828,5130.0982015647,76.443572,0.223694,0.72143375012,0,0,-0.671082,317.4, 0.8, 0,0,0,1024,1024,1024,1024,316.5,-89.9,97,3.785,3.791,3.805,3.823,3.834,3.8,19.772,73.4,14,Waypoint,
38.5270934,-120.3542961,5132.0667055647,78.412076,0,0.3703412192,13700,2018-07-07 19:01:43,11,0,22.828,5132.0667055647,78.412076,0.223694,0.72143375012,0,0,-0.671082,317.4, 0.9, -0.1,0,0,1024,1024,1024,1024,316.5,-89.9,97,3.785,3.791,3.805,3.823,3.834,3.8,19.772,73.4,14,Waypoint,
38.5270933,-120.3542961,5133.0509575647,79.396328,0,0.33841208432,13800,2018-07-07 19:01:43,11,0,22.828,5133.0509575647,79.396328,0.223694,0.72143375012,0,0,-0.671082,317.4, 0.9, 0.1,0,0,1024,1024,1024,1024,316.5,-89.9,97,3.785,3.791,3.805,3.823,3.834,3.8,19.772,73.4,14,Waypoint,
38.5270933,-120.3542961,5134.0352095647,80.38058,0,0.33841208432,13900,2018-07-07 19:01:43,11,0,22.828,5134.0352095647,80.38058,0.223694,0.72143375012,0,0,-0.671082,317.4, 0.8, 0.3,0,0,1024,1024,1024,1024,316.5,-89.9,97,3.785,3.791,3.805,3.823,3.834,3.8,19.772,73.4,14,Waypoint,
38.5270933,-120.3542961,5135.0194615647,81.364832,0,0.33841208432,14000,2018-07-07 19:01:43,11,0,22.821,5135.0194615647,81.364832,0.223694,0.72143375012,0,0,-0.671082,317.5, 0.8, 0.4,0,0,1024,1024,1024,1024,316.5,-89.9,97,3.787,3.784,3.802,3.813,3.827,3.795,19.574,73.4,14,Waypoint,
38.5270933,-120.3542961,5136.0037135647,82.349084,0,0.33841208432,14110,2018-07-07 19:01:43,11,0,22.821,5136.0037135647,82.349084,0.223694,0.72143375012,0,0,-0.671082,317.6, 0.6, 0.4,0,0,1024,1024,1024,1024,316.5,-89.9,97,3.787,3.784,3.802,3.813,3.827,3.795,19.574,73.4,14,Waypoint,
38.5270933,-120.3542961,5136.9879655647,83.333336,0,0.33841208432,14200,2018-07-07 19:01:44,12,0,22.821,5136.9879655647,83.333336,0.223694,0.72143375012,0,0,-0.671082,317.8, 0.3, 0.3,0,0,1024,1024,1024,1024,316.5,-90,97,3.787,3.784,3.802,3.813,3.827,3.795,19.574,73.4,14,Waypoint,
38.5270933,-120.354296,5137.9722175647,84.317588,0,0.324901257116,14400,2018-07-07 19:01:44,12,0,22.821,5137.9722175647,84.317588,0.223694,0.72143375012,0,0,-0.671082,317.9, 0.2, 0.1,0,0,1024,1024,1024,1024,316.5,-90,97,3.787,3.784,3.802,3.813,3.827,3.795,19.574,73.4,14,Waypoint,
38.5270934,-120.354296,5140.2688055647,86.614176,0,0.3580380692,14600,2018-07-07 19:01:44,12,0,22.821,5140.2688055647,86.614176,0.223694,0.72143375012,0,0,-0.671082,317.6, -0.1, -1.1,0,0,1024,1024,1024,1024,316.5,-89.9,97,3.787,3.784,3.802,3.813,3.827,3.795,19.574,73.4,14,Waypoint,
38.5270935,-120.354296,5141.2530575647,87.598428,0,0.39176838524,14700,2018-07-07 19:01:44,11,0,22.821,5141.2530575647,87.598428,0.223694,0.72143375012,0,0,-0.671082,317.4, 0.1, -1.3,0,0,1024,1024,1024,1024,316.5,-89.9,97,3.787,3.784,3.802,3.813,3.827,3.795,19.574,73.4,14,Waypoint,
38.5270937,-120.3542959,5143.2215615647,89.566932,0,0.4524606444,14900,2018-07-07 19:01:44,11,0,22.821,5143.2215615647,89.566932,0.223694,0.72143375012,0,0,-0.671082,317.6, 1.3, -1.1,0,0,1024,1024,1024,1024,316.6,-89.9,97,3.787,3.784,3.802,3.813,3.827,3.795,19.574,73.4,14,Waypoint,
38.5270938,-120.3542959,5143.8777295647,90.2231,0,0.48785106548,15000,2018-07-07 19:01:44,11,0,22.786,5143.8777295647,90.2231,0.223694,0.72143375012,0,0,-0.671082,317.7, 1.3, -1.1,0,0,1024,1024,1024,1024,316.6,-89.9,97,3.78,3.786,3.803,3.809,3.809,3.793,19.528,73.4,14,Waypoint,
38.5270939,-120.3542958,5145.1900655647,91.535436,0.223694,0.51791668324,15100,2018-07-07 19:01:44,12,0,22.786,5145.1900655647,91.535436,0.223694,0.72143375012,0,0,-0.671082,317.7, 1.4, -1.4,0,0,1024,1024,1024,1024,316.6,-89.9,97,3.78,3.786,3.803,3.809,3.809,3.793,19.528,73.4,14,Waypoint,
38.5270939,-120.3542958,5146.1743175647,92.519688,0.223694,0.51791668324,15200,2018-07-07 19:01:45,12,0,22.786,5146.1743175647,92.519688,0.223694,0.72143375012,0,0,-0.671082,317.6, 1.2, -2,0,0,1024,1024,1024,1024,316.6,-89.9,97,3.78,3.786,3.803,3.809,3.809,3.793,19.528,73.4,14,Waypoint,
38.527094,-120.3542957,5147.1585695647,93.50394,0.223694,0.55024279976,15300,2018-07-07 19:01:45,12,0,22.786,5147.1585695647,93.50394,0.223694,0.72143375012,0,0,-0.671082,317.5, 1, -2.4,0,0,1024,1024,1024,1024,316.6,-89.9,97,3.78,3.786,3.803,3.809,3.809,3.793,19.528,73.4,14,Waypoint,
38.527094,-120.3542956,5148.1428215647,94.488192,0.223694,0.54801839024,15400,2018-07-07 19:01:45,12,0,22.786,5148.1428215647,94.488192,0.223694,0.72143375012,0,0,-0.671082,317.4, 0.8, -2.7,0,0,1024,1024,1024,1024,316.6,-89.9,97,3.78,3.786,3.803,3.809,3.809,3.793,19.528,73.4,14,Waypoint,
38.527094,-120.3542955,5149.1270735647,95.472444,0.223694,0.54727363956,15500,2018-07-07 19:01:45,12,0,22.786,5149.1270735647,95.472444,0.223694,0.72143375012,0,0,-0.671082,317.4, 0.6, -2.8,0,0,1024,1024,1024,1024,316.6,-89.9,97,3.78,3.786,3.803,3.809,3.809,3.793,19.528,73.4,14,Waypoint,
38.5270941,-120.3542955,5150.1113255647,96.456696,0,0.5837598612,15600,2018-07-07 19:01:45,12,0,22.786,5150.1113255647,96.456696,0.223694,0.72143375012,0,0,-0.671082,317.4, 0.4, -2.6,0,0,1024,1024,1024,1024,316.6,-90,97,3.78,3.786,3.803,3.809,3.809,3.793,19.528,73.4,14,Waypoint,
38.5270941,-120.3542955,5151.0955775647,97.440948,0,0.5837598612,15700,2018-07-07 19:01:45,12,0,22.786,5151.0955775647,97.440948,0.223694,0.72143375012,0,0,-0.671082,317.3, -0.2, -2,0,0,1024,1024,1024,1024,316.6,-90,97,3.78,3.786,3.803,3.809,3.809,3.793,19.528,73.4,14,Waypoint,
38.5270941,-120.3542955,5152.0798295647,98.4252,0,0.5837598612,15800,2018-07-07 19:01:45,12,0,22.786,5152.0798295647,98.4252,0.223694,0.72143375012,0,0,-0.671082,317.2, 0, -1.7,0,0,1024,1024,1024,1024,316.6,-89.9,97,3.78,3.786,3.803,3.809,3.809,3.793,19.528,73.4,14,Waypoint,
38.5270941,-120.3542955,5152.7359975647,99.081368,0,0.5837598612,15900,2018-07-07 19:01:45,12,0,22.786,5152.7359975647,99.081368,0.223694,0.72143375012,0,0,-0.671082,317.1, 0.2, -1.6,0,0,1024,1024,1024,1024,316.5,-89.9,97,3.78,3.786,3.803,3.809,3.809,3.793,19.528,73.4,14,Waypoint,
38.5270941,-120.3542955,5153.7202495647,100.06562,0,0.5837598612,16000,2018-07-07 19:01:45,12,0,22.819,5153.7202495647,100.06562,0.223694,0.72143375012,0,0,-0.671082,317, 0.5, -1.5,0,0,1024,1024,1024,1024,316.6,-89.9,96,3.793,3.789,3.8,3.817,3.808,3.785,19.543,73.4,14,Waypoint,
38.5270942,-120.3542955,5155.6887535647,102.034124,0,0.620242802,16100,2018-07-07 19:01:45,12,0,22.819,5155.6887535647,102.034124,0.223694,0.72143375012,0,0,-0.671082,316.8, 0.5, -1.8,0,0,1024,1024,1024,1024,316.6,-89.9,96,3.793,3.789,3.8,3.817,3.808,3.785,19.543,73.4,14,Waypoint,
38.5270942,-120.3542956,5157.6572575647,104.002628,0,0.62089897,16300,2018-07-07 19:01:46,12,0,22.819,5157.6572575647,104.002628,0.223694,0.72143375012,0,0,-0.671082,317, 0.6, -1.8,0,0,1024,1024,1024,1024,316.6,-89.9,96,3.793,3.789,3.8,3.817,3.808,3.785,19.543,73.4,14,Waypoint,
38.5270941,-120.3542956,5158.6415095647,104.98688,0,0.58445539928,16400,2018-07-07 19:01:46,12,0,22.819,5158.6415095647,104.98688,0.223694,0.72143375012,0,0,-0.671082,317.3, 0.7, -1.5,0,0,1024,1024,1024,1024,316.6,-89.9,96,3.793,3.789,3.8,3.817,3.808,3.785,19.543,73.4,14,Waypoint,
38.5270941,-120.3542956,5159.6257615647,105.971132,0,0.58445539928,16600,2018-07-07 19:01:46,12,0,22.819,5159.6257615647,105.971132,0.223694,0.72143375012,0,0,-0.671082,317.6, 0.8, -1.4,0,0,1024,1024,1024,1024,316.6,-89.9,96,3.793,3.789,3.8,3.817,3.808,3.785,19.543,73.4,14,Waypoint,
38.5270941,-120.3542957,5161.5942655647,107.939636,0,0.58654201352,16700,2018-07-07 19:01:46,12,0,22.819,5161.5942655647,107.939636,0.223694,0.72143375012,0,0,-0.671082,318, 0.4, -1.3,0,0,1024,1024,1024,1024,316.6,-89.9,96,3.793,3.789,3.8,3.817,3.808,3.785,19.543,73.4,14,Waypoint,
38.527094,-120.3542957,5162.5785175647,108.923888,0,0.55024279976,16800,2018-07-07 19:01:46,13,0,22.819,5162.5785175647,108.923888,0.223694,0.72143375012,0,0,-0.671082,318.1, 0.4, -1.3,0,0,1024,1024,1024,1024,316.6,-89.9,96,3.793,3.789,3.8,3.817,3.808,3.785,19.543,73.4,14,Waypoint,
38.527094,-120.3542957,5163.5627695647,109.90814,0,0.55024279976,16900,2018-07-07 19:01:46,13,0,22.819,5163.5627695647,109.90814,0.223694,0.72143375012,0,0,-0.671082,318.2, 0.3, -1.4,0,0,1024,1024,1024,1024,316.6,-89.9,96,3.793,3.789,3.8,3.817,3.808,3.785,19.543,73.4,14,Waypoint,
38.5270939,-120.3542957,5164.5470215647,110.892392,0,0.51396983272,17100,2018-07-07 19:01:46,13,0,22.819,5164.5470215647,110.892392,0.223694,0.72143375012,0,0,-0.671082,318.1, 0.3, -1.6,0,0,1024,1024,1024,1024,316.6,-89.9,96,3.793,3.789,3.8,3.817,3.808,3.785,19.543,73.4,14,Waypoint,
38.5270939,-120.3542957,5165.5312735647,111.876644,0,0.51396983272,17200,2018-07-07 19:01:47,13,0,22.819,5165.5312735647,111.876644,0.223694,0.72143375012,0,0,-0.671082,318, 0.2, -1.5,0,0,1024,1024,1024,1024,316.6,-89.9,96,3.793,3.789,3.8,3.817,3.808,3.785,19.543,73.4,14,Waypoint,
38.5270938,-120.3542957,5166.5155255647,112.860896,0,0.47772639324,17300,2018-07-07 19:01:47,13,0,22.819,5166.5155255647,112.860896,0.223694,0.72143375012,0,0,-0.671082,317.8, 0.1, -1.5,0,0,1024,1024,1024,1024,316.6,-89.9,96,3.793,3.789,3.8,3.817,3.808,3.785,19.543,73.4,14,Waypoint,
38.5270938,-120.3542957,5167.4997775647,113.845148,0,0.47772639324,17400,2018-07-07 19:01:47,13,0,22.819,5167.4997775647,113.845148,0.223694,0.72143375012,0,0,-0.671082,317.7, 0, -1.3,0,0,1024,1024,1024,1024,316.6,-90,96,3.793,3.789,3.8,3.817,3.808,3.785,19.543,73.4,14,Waypoint,
38.5270938,-120.3542957,5168.4840295647,114.8294,0,0.47772639324,17500,2018-07-07 19:01:47,13,0,22.819,5168.4840295647,114.8294,0.223694,0.72143375012,0,0,-0.671082,317.6, 0, -1.1,0,0,1024,1024,1024,1024,316.6,-89.9,96,3.793,3.789,3.8,3.817,3.808,3.785,19.543,73.4,14,Waypoint,
38.5270938,-120.3542957,5169.4682815647,115.813652,0,0.47772639324,17600,2018-07-07 19:01:47,13,0,22.819,5169.4682815647,115.813652,0.223694,0.72143375012,0,0,-0.671082,317.4, 0.1, -1.3,0,0,1024,1024,1024,1024,316.6,-89.9,96,3.793,3.789,3.8,3.817,3.808,3.785,19.543,73.4,14,Waypoint,
38.5270938,-120.3542958,5170.4525335647,116.797904,0,0.4819718002,17700,2018-07-07 19:01:47,14,0,22.819,5170.4525335647,116.797904,0.223694,0.72143375012,0,0,-0.671082,317.4, 0.3, -1.4,0,0,1024,1024,1024,1024,316.6,-89.9,96,3.793,3.789,3.8,3.817,3.808,3.785,19.543,73.4,14,Waypoint,
38.5270938,-120.3542958,5171.1087015647,117.454072,0,0.4819718002,17800,2018-07-07 19:01:47,14,0,22.819,5171.1087015647,117.454072,0.223694,0.72143375012,0,0,-0.671082,317.3, 0.4, -1.4,0,0,1024,1024,1024,1024,316.6,-89.9,96,3.793,3.789,3.8,3.817,3.808,3.785,19.543,73.4,14,Waypoint,
38.5270937,-120.3542958,5172.0929535647,118.438324,0,0.44611549984,17900,2018-07-07 19:01:47,14,0,22.819,5172.0929535647,118.438324,0.223694,0.72143375012,0,0,-0.671082,317.3, 0.5, -1.4,0,0,1024,1024,1024,1024,316.6,-89.9,96,3.793,3.789,3.8,3.817,3.808,3.785,19.543,73.4,14,Waypoint,
38.5270938,-120.3542958,5173.0772055647,119.422576,0,0.4819718002,18000,2018-07-07 19:01:47,14,0,22.686,5173.0772055647,119.422576,0.223694,0.72143375012,0,0,-0.671082,317.3, 0.6, -1.6,0,0,1024,1024,1024,1024,316.6,-89.9,96,3.774,3.765,3.777,3.798,3.806,3.767,20.469,75.2,14,Waypoint,
38.5270938,-120.3542958,5174.0614575647,120.406828,0,0.4819718002,18100,2018-07-07 19:01:47,13,0,22.686,5174.0614575647,120.406828,0.223694,0.72143375012,0,0,-0.671082,317.3, 0.6, -1.8,0,0,1024,1024,1024,1024,316.6,-89.9,96,3.774,3.765,3.777,3.798,3.806,3.767,20.469,75.2,14,Waypoint,
38.5270938,-120.3542958,5175.0457095647,121.39108,0,0.4819718002,18200,2018-07-07 19:01:48,13,0,22.686,5175.0457095647,121.39108,0.223694,0.72143375012,0,0,-0.671082,317.3, 0.4, -2.1,0,0,1024,1024,1024,1024,316.6,-89.9,96,3.774,3.765,3.777,3.798,3.806,3.767,20.469,75.2,14,Waypoint,
38.5270937,-120.3542958,5177.0142135647,123.359584,0,0.44611549984,18300,2018-07-07 19:01:48,13,0,22.686,5177.0142135647,123.359584,0.223694,0.72143375012,0,0,-0.671082,317.3, 0.3, -1.9,0,0,1024,1024,1024,1024,316.6,-89.9,96,3.774,3.765,3.777,3.798,3.806,3.767,20.469,75.2,14,Waypoint,
38.5270937,-120.3542958,5178.9827175647,125.328088,0,0.44611549984,18500,2018-07-07 19:01:48,14,0,22.686,5178.9827175647,125.328088,0.223694,0.72143375012,0,0,-0.671082,317.6, 0.2, -1.3,0,0,1024,1024,1024,1024,316.6,-89.9,96,3.774,3.765,3.777,3.798,3.806,3.767,20.469,75.2,14,Waypoint,
38.5270936,-120.3542958,5180.9512215647,127.296592,0,0.4103674672,18700,2018-07-07 19:01:48,14,0,22.686,5180.9512215647,127.296592,0.223694,0.72143375012,0,0,-0.671082,317.7, 0, -1.5,0,0,1024,1024,1024,1024,316.5,-90,96,3.774,3.765,3.777,3.798,3.806,3.767,20.469,75.2,14,Waypoint,
38.5270936,-120.3542958,5181.9354735647,128.280844,0,0.4103674672,18800,2018-07-07 19:01:48,14,0,22.686,5181.9354735647,128.280844,0.223694,0.72143375012,0,0,-0.671082,317.7, 0, -1.6,0,0,1024,1024,1024,1024,316.6,-89.9,96,3.774,3.765,3.777,3.798,3.806,3.767,20.469,75.2,14,Waypoint,
38.5270936,-120.3542957,5182.9197255647,129.265096,0,0.40537402872,18900,2018-07-07 19:01:48,14,0,22.686,5182.9197255647,129.265096,0.223694,0.72143375012,0,0,-0.671082,317.6, 0.2, -1.8,0,0,1024,1024,1024,1024,316.6,-89.9,96,3.774,3.765,3.777,3.798,3.806,3.767,20.469,75.2,14,Waypoint,
38.5270936,-120.3542957,5183.9039775647,130.249348,0,0.40537402872,19000,2018-07-07 19:01:48,14,0,22.637,5183.9039775647,130.249348,0.223694,0.72143375012,0,0,-0.671082,317.5, 0.2, -1.6,0,0,1024,1024,1024,1024,316.6,-89.9,96,3.756,3.756,3.774,3.781,3.794,3.776,20.396,75.2,14,Waypoint,
38.5270937,-120.3542957,5184.8882295647,131.2336,0,0.44152560468,19200,2018-07-07 19:01:49,14,0,22.637,5184.8882295647,131.2336,0.223694,0.72143375012,0,0,-0.671082,317.6, 0.3, -1.8,0,0,1024,1024,1024,1024,316.6,-89.9,96,3.756,3.756,3.774,3.781,3.794,3.776,20.396,75.2,14,Waypoint,
38.5270937,-120.3542956,5185.8724815647,132.217852,0,0.43875001404,19300,2018-07-07 19:01:49,14,0,22.637,5185.8724815647,132.217852,0.223694,0.72143375012,0,0,-0.671082,317.6, 0.3, -2.1,0,0,1024,1024,1024,1024,316.6,-89.9,96,3.756,3.756,3.774,3.781,3.794,3.776,20.396,75.2,14,Waypoint,
38.5270937,-120.3542955,5186.8567335647,133.202104,0,0.43781825548,19400,2018-07-07 19:01:49,14,0,22.637,5186.8567335647,133.202104,0.223694,0.72143375012,0,0,-0.671082,317.7, 0.2, -2.3,0,0,1024,1024,1024,1024,316.6,-89.9,96,3.756,3.756,3.774,3.781,3.794,3.776,20.396,75.2,14,Waypoint,
38.5270937,-120.3542954,5187.8409855647,134.186356,0.223694,0.43875001404,19500,2018-07-07 19:01:49,14,0,22.637,5187.8409855647,134.186356,0.223694,0.72143375012,0,0,-0.671082,317.8, 0, -2.4,0,0,1024,1024,1024,1024,316.6,-90,96,3.756,3.756,3.774,3.781,3.794,3.776,20.396,75.2,14,Waypoint,
38.5270938,-120.3542953,5188.8252375647,135.170608,0,0.47772639324,19600,2018-07-07 19:01:49,14,0,22.637,5188.8252375647,135.170608,0.223694,0.72143375012,0,0,-0.671082,317.9, 0, -2.6,0,0,1024,1024,1024,1024,316.6,-90,96,3.756,3.756,3.774,3.781,3.794,3.776,20.396,75.2,14,Waypoint,
38.5270938,-120.3542953,5189.8094895647,136.15486,0,0.47772639324,19700,2018-07-07 19:01:49,14,0,22.637,5189.8094895647,136.15486,0.223694,0.72143375012,0,0,-0.671082,317.9, -0.1, -2.7,0,0,1024,1024,1024,1024,316.6,-90,96,3.756,3.756,3.774,3.781,3.794,3.776,20.396,75.2,14,Waypoint,
38.5270938,-120.3542952,5190.7937415647,137.139112,0,0.4819718002,19800,2018-07-07 19:01:49,14,0,22.637,5190.7937415647,137.139112,0.223694,0.72143375012,0,0,-0.671082,317.8, -0.1, -2.6,0,0,1024,1024,1024,1024,316.6,-89.9,96,3.756,3.756,3.774,3.781,3.794,3.776,20.396,75.2,14,Waypoint,
38.5270938,-120.3542952,5191.7779935647,138.123364,0,0.4819718002,19900,2018-07-07 19:01:49,14,0,22.637,5191.7779935647,138.123364,0.223694,0.72143375012,0,0,-0.671082,317.7, 0, -2.5,0,0,1024,1024,1024,1024,316.6,-89.9,96,3.756,3.756,3.774,3.781,3.794,3.776,20.396,75.2,14,Waypoint,
38.5270939,-120.3542951,5192.7622455647,139.107616,0,0.5233924052,20000,2018-07-07 19:01:49,14,0,22.63,5192.7622455647,139.107616,0.223694,0.72143375012,0,0,-0.671082,317.7, 0, -2.3,0,0,1024,1024,1024,1024,316.6,-89.9,96,3.757,3.754,3.772,3.775,3.794,3.762,20.394,75.2,14,Waypoint,
38.5270939,-120.3542951,5193.7464975647,140.091868,0,0.5233924052,20100,2018-07-07 19:01:49,14,0,22.63,5193.7464975647,140.091868,0.223694,0.72143375012,0,0,-0.671082,317.6, 0.1, -2.1,0,0,1024,1024,1024,1024,316.6,-89.9,96,3.757,3.754,3.772,3.775,3.794,3.762,20.394,75.2,14,Waypoint,
38.5270939,-120.3542951,5194.7307495647,141.07612,0,0.5233924052,20200,2018-07-07 19:01:50,14,0,22.63,5194.7307495647,141.07612,0.223694,0.72143375012,0,0,-0.671082,317.6, 0.2, -1.9,0,0,1024,1024,1024,1024,316.6,-89.9,96,3.757,3.754,3.772,3.775,3.794,3.762,20.394,75.2,14,Waypoint,
38.5270938,-120.3542951,5195.7150015647,142.060372,0,0.48785106548,20300,2018-07-07 19:01:50,14,0,22.63,5195.7150015647,142.060372,0.223694,0.72143375012,0,0,-0.671082,317.7, 0.2, -1.7,0,0,1024,1024,1024,1024,316.6,-89.9,96,3.757,3.754,3.772,3.775,3.794,3.762,20.394,75.2,14,Waypoint,
38.5270938,-120.3542951,5196.6992535647,143.044624,0,0.48785106548,20400,2018-07-07 19:01:50,14,0,22.63,5196.6992535647,143.044624,0.223694,0.72143375012,0,0,-0.671082,317.7, 0.2, -1.6,0,0,1024,1024,1024,1024,316.6,-89.9,96,3.757,3.754,3.772,3.775,3.794,3.762,20.394,75.2,14,Waypoint,
38.5270938,-120.3542951,5197.6835055647,144.028876,0,0.48785106548,20500,2018-07-07 19:01:50,14,0,22.63,5197.6835055647,144.028876,0.223694,0.72143375012,0,0,-0.671082,317.7, 0.1, -1.7,0,0,1024,1024,1024,1024,316.6,-89.9,96,3.757,3.754,3.772,3.775,3.794,3.762,20.394,75.2,14,Waypoint,
38.5270938,-120.3542951,5198.6677575647,145.013128,0,0.48785106548,20600,2018-07-07 19:01:50,14,0,22.63,5198.6677575647,145.013128,0.223694,0.72143375012,0,0,-0.671082,317.7, 0, -1.9,0,0,1024,1024,1024,1024,316.6,-89.9,96,3.757,3.754,3.772,3.775,3.794,3.762,20.394,75.2,14,Waypoint,
38.5270938,-120.3542951,5199.6520095647,145.99738,0,0.48785106548,20700,2018-07-07 19:01:50,14,0,22.63,5199.6520095647,145.99738,0.223694,0.72143375012,0,0,-0.671082,317.7, -0.1, -2,0,0,1024,1024,1024,1024,316.6,-89.9,96,3.757,3.754,3.772,3.775,3.794,3.762,20.394,75.2,14,Waypoint,
38.5270938,-120.354295,5200.6362615647,146.981632,0,0.4953084148,20800,2018-07-07 19:01:50,14,0,22.63,5200.6362615647,146.981632,0.223694,0.72143375012,0,0,-0.671082,317.6, -0.1, -2.1,0,0,1024,1024,1024,1024,316.6,-89.9,96,3.757,3.754,3.772,3.775,3.794,3.762,20.394,75.2,14,Waypoint,
38.5270939,-120.3542949,5202.6047655647,148.950136,0,0.53873361304,20900,2018-07-07 19:01:50,14,0,22.63,5202.6047655647,148.950136,0.223694,0.72143375012,0,0,-0.671082,317.5, 0.1, -2.3,0,0,1024,1024,1024,1024,316.6,-89.9,96,3.757,3.754,3.772,3.775,3.794,3.762,20.394,75.2,14,Waypoint,
38.5270939,-120.3542949,5203.5890175647,149.934388,0,0.53873361304,21000,2018-07-07 19:01:50,14,0,22.616,5203.5890175647,149.934388,0.223694,0.72143375012,0,0,-0.671082,317.4, 0.1, -2.4,0,0,1024,1024,1024,1024,316.6,-89.9,96,3.759,3.751,3.772,3.787,3.791,3.761,20.083,75.2,14,Waypoint,
38.527094,-120.3542949,5204.5732695647,150.91864,0,0.57344490024,21100,2018-07-07 19:01:50,14,0,22.616,5204.5732695647,150.91864,0.223694,0.72143375012,0,0,-0.671082,317.3, 0.2, -2.3,0,0,1024,1024,1024,1024,316.6,-89.9,96,3.759,3.751,3.772,3.787,3.791,3.761,20.083,75.2,14,Waypoint,
38.527094,-120.3542949,5206.5417735647,152.887144,0,0.57344490024,21300,2018-07-07 19:01:51,14,0,22.616,5206.5417735647,152.887144,0.223694,0.72143375012,0,0,-0.671082,317.2, 0.5, -1.8,0,0,1024,1024,1024,1024,316.6,-89.9,96,3.759,3.751,3.772,3.787,3.791,3.761,20.083,75.2,14,Waypoint,
38.527094,-120.3542949,5207.5260255647,153.871396,0,0.57344490024,21400,2018-07-07 19:01:51,14,0,22.616,5207.5260255647,153.871396,0.223694,0.72143375012,0,0,-0.671082,317.2, 0.5, -1.7,0,0,1024,1024,1024,1024,316.6,-89.9,96,3.759,3.751,3.772,3.787,3.791,3.761,20.083,75.2,14,Waypoint,
38.527094,-120.3542949,5208.5102775647,154.855648,0,0.57344490024,21500,2018-07-07 19:01:51,14,0,22.616,5208.5102775647,154.855648,0.223694,0.72143375012,0,0,-0.671082,317.2, 0.7, -1.7,0,0,1024,1024,1024,1024,316.6,-89.9,96,3.759,3.751,3.772,3.787,3.791,3.761,20.083,75.2,14,Waypoint,
38.527094,-120.3542949,5209.4945295647,155.8399,0,0.57344490024,21600,2018-07-07 19:01:51,14,0,22.616,5209.4945295647,155.8399,0.223694,0.72143375012,0,0,-0.671082,317.2, 0.8, -1.9,0,0,1024,1024,1024,1024,316.6,-89.9,96,3.759,3.751,3.772,3.787,3.791,3.761,20.083,75.2,14,Waypoint,
38.527094,-120.3542949,5210.4787815647,156.824152,0,0.57344490024,21700,2018-07-07 19:01:51,14,0,22.616,5210.4787815647,156.824152,0.223694,0.72143375012,0,0,-0.671082,317.3, 0.7, -2.3,0,0,1024,1024,1024,1024,316.6,-89.9,96,3.759,3.751,3.772,3.787,3.791,3.761,20.083,75.2,14,Waypoint,
38.527094,-120.3542948,5211.4630335647,157.808404,0,0.58260500552,21900,2018-07-07 19:01:51,14,0,22.616,5211.4630335647,157.808404,0.223694,0.72143375012,0,0,-0.671082,317.5, 0.4, -2.3,0,0,1024,1024,1024,1024,316.6,-89.9,96,3.759,3.751,3.772,3.787,3.791,3.761,20.083,75.2,14,Waypoint,
38.5270941,-120.3542948,5212.4472855647,158.792656,0,0.61700461292,22000,2018-07-07 19:01:51,14,0,22.641,5212.4472855647,158.792656,0.223694,0.72143375012,0,0,-0.671082,317.5, 0.2, -2.4,0,0,1024,1024,1024,1024,316.6,-90,96,3.764,3.759,3.778,3.784,3.797,3.768,19.797,75.2,14,Waypoint,
38.5270941,-120.3542947,5213.4315375647,159.776908,0,0.62682744788,22100,2018-07-07 19:01:51,14,0,22.641,5213.4315375647,159.776908,0.223694,0.72143375012,0,0,-0.671082,317.6, 0.2, -2.5,0,0,1024,1024,1024,1024,316.6,-89.9,96,3.764,3.759,3.778,3.784,3.797,3.768,19.797,75.2,14,Waypoint,
38.527094,-120.3542947,5214.4157895647,160.76116,0,0.59299870664,22200,2018-07-07 19:01:52,14,0,22.641,5214.4157895647,160.76116,0.223694,0.72143375012,0,0,-0.671082,317.7, 0.1, -2.5,0,0,1024,1024,1024,1024,316.6,-89.9,96,3.764,3.759,3.778,3.784,3.797,3.768,19.797,75.2,14,Waypoint,
38.527094,-120.3542946,5215.4000415647,161.745412,0,0.60456366764,22300,2018-07-07 19:01:52,14,0,22.641,5215.4000415647,161.745412,0.223694,0.72143375012,0,0,-0.671082,317.7, 0.2, -2.5,0,0,1024,1024,1024,1024,316.6,-89.9,96,3.764,3.759,3.778,3.784,3.797,3.768,19.797,75.2,14,Waypoint,
38.527094,-120.3542946,5216.3842935647,162.729664,0,0.60456366764,22400,2018-07-07 19:01:52,14,0,22.641,5216.3842935647,162.729664,0.223694,0.72143375012,0,0,-0.671082,317.7, 0.2, -2.3,0,0,1024,1024,1024,1024,316.6,-89.9,96,3.764,3.759,3.778,3.784,3.797,3.768,19.797,75.2,14,Waypoint,
38.527094,-120.3542946,5217.6966295647,164.042,0,0.60456366764,22500,2018-07-07 19:01:52,14,0,22.641,5217.6966295647,164.042,0.223694,0.72143375012,0,0,-0.671082,317.7, 0.1, -2.3,0,0,1024,1024,1024,1024,316.6,-89.9,96,3.764,3.759,3.778,3.784,3.797,3.768,19.797,75.2,14,Waypoint,
38.527094,-120.3542945,5218.6808815647,165.026252,0,0.61723427172,22600,2018-07-07 19:01:52,14,0,22.641,5218.6808815647,165.026252,0.223694,0.72143375012,0,0,-0.671082,317.6, 0.1, -2.3,0,0,1024,1024,1024,1024,316.6,-89.9,96,3.764,3.759,3.778,3.784,3.797,3.768,19.797,75.2,14,Waypoint,
38.527094,-120.3542945,5219.6651335647,166.010504,0,0.61723427172,22700,2018-07-07 19:01:52,14,0,22.641,5219.6651335647,166.010504,0.223694,0.72143375012,0,0,-0.671082,317.5, 0.2, -2.4,0,0,1024,1024,1024,1024,316.6,-89.9,96,3.764,3.759,3.778,3.784,3.797,3.768,19.797,75.2,14,Waypoint,
38.527094,-120.3542945,5220.6493855647,166.994756,0,0.61723427172,22800,2018-07-07 19:01:52,14,0,22.641,5220.6493855647,166.994756,0.223694,0.72143375012,0,0,-0.671082,317.4, 0.2, -2.5,0,0,1024,1024,1024,1024,316.6,-89.9,96,3.764,3.759,3.778,3.784,3.797,3.768,19.797,75.2,14,Waypoint,
38.527094,-120.3542944,5221.6336375647,167.979008,0,0.63094162124,22900,2018-07-07 19:01:52,14,0,22.641,5221.6336375647,167.979008,0.223694,0.72143375012,0,0,-0.671082,317.3, 0.3, -2.5,0,0,1024,1024,1024,1024,316.6,-89.9,96,3.764,3.759,3.778,3.784,3.797,3.768,19.797,75.2,14,Waypoint,
38.527094,-120.3542944,5222.6178895647,168.96326,0,0.63094162124,23000,2018-07-07 19:01:52,14,0,22.631,5222.6178895647,168.96326,0.223694,0.72143375012,0,0,-0.671082,317.3, 0.4, -2.5,0,0,1024,1024,1024,1024,316.6,-89.9,96,3.755,3.764,3.781,3.788,3.799,3.77,19.598,75.2,14,Waypoint,
38.527094,-120.3542944,5223.2740575647,169.619428,0,0.63094162124,23100,2018-07-07 19:01:52,14,0,22.631,5223.2740575647,169.619428,0.223694,0.72143375012,0,0,-0.671082,317.3, 0.5, -2.4,0,0,1024,1024,1024,1024,316.6,-89.9,96,3.755,3.764,3.781,3.788,3.799,3.77,19.598,75.2,14,Waypoint,
38.5270939,-120.3542944,5224.2583095647,170.60368,0,0.59956694832,23200,2018-07-07 19:01:53,14,0,22.631,5224.2583095647,170.60368,0.223694,0.72143375012,0,0,-0.671082,317.4, 0.5, -2.3,0,0,1024,1024,1024,1024,316.6,-89.9,96,3.755,3.764,3.781,3.788,3.799,3.77,19.598,75.2,14,Waypoint,
38.5270939,-120.3542944,5225.2425615647,171.587932,0,0.59956694832,23300,2018-07-07 19:01:53,14,0,22.631,5225.2425615647,171.587932,0.223694,0.72143375012,0,0,-0.671082,317.5, 0.4, -2.2,0,0,1024,1024,1024,1024,316.6,-89.9,96,3.755,3.764,3.781,3.788,3.799,3.77,19.598,75.2,14,Waypoint,
38.5270939,-120.3542944,5226.2268135647,172.572184,0,0.59956694832,23400,2018-07-07 19:01:53,14,0,22.631,5226.2268135647,172.572184,0.223694,0.72143375012,0,0,-0.671082,317.5, 0.4, -2,0,0,1024,1024,1024,1024,316.6,-89.9,96,3.755,3.764,3.781,3.788,3.799,3.77,19.598,75.2,14,Waypoint,
38.5270938,-120.3542944,5228.1953175647,174.540688,0,0.56880579248,23600,2018-07-07 19:01:53,14,0,22.631,5228.1953175647,174.540688,0.223694,0.72143375012,0,0,-0.671082,317.6, 0.1, -2.1,0,0,1024,1024,1024,1024,316.6,-90,96,3.755,3.764,3.781,3.788,3.799,3.77,19.598,75.2,14,Waypoint,
38.5270937,-120.3542944,5229.1795695647,175.52494,0,0.53875985976,23700,2018-07-07 19:01:53,14,0,22.631,5229.1795695647,175.52494,0.223694,0.72143375012,0,0,-0.671082,317.7, 0, -2.1,0,0,1024,1024,1024,1024,316.6,-90,96,3.755,3.764,3.781,3.788,3.799,3.77,19.598,75.2,14,Waypoint,
38.5270936,-120.3542944,5230.1638215647,176.509192,0,0.50955382208,23800,2018-07-07 19:01:53,14,0,22.631,5230.1638215647,176.509192,0.223694,0.72143375012,0,0,-0.671082,317.7, -0.1, -1.8,0,0,1024,1024,1024,1024,316.6,-89.9,96,3.755,3.764,3.781,3.788,3.799,3.77,19.598,75.2,14,Waypoint,
38.5270935,-120.3542944,5232.1323255647,178.477696,0,0.48134515976,23900,2018-07-07 19:01:53,14,0,22.631,5232.1323255647,178.477696,0.223694,0.72143375012,0,0,-0.671082,317.6, -0.2, -1.8,0,0,1024,1024,1024,1024,316.6,-90,96,3.755,3.764,3.781,3.788,3.799,3.77,19.598,75.2,14,Waypoint,
38.5270934,-120.3542945,5234.1008295647,180.4462,0,0.43507547324,24100,2018-07-07 19:01:53,14,0,22.631,5234.1008295647,180.4462,0.223694,0.72143375012,0,0,-0.671082,317.6, -0.1, -2,0,0,1024,1024,1024,1024,316.6,-89.9,96,3.755,3.764,3.781,3.788,3.799,3.77,19.598,75.2,14,Waypoint,
38.5270934,-120.3542945,5235.0850815647,181.430452,0,0.43507547324,24200,2018-07-07 19:01:54,14,0,22.631,5235.0850815647,181.430452,0.223694,0.72143375012,0,0,-0.671082,317.6, 0, -2.1,0,0,1024,1024,1024,1024,316.6,-89.9,96,3.755,3.764,3.781,3.788,3.799,3.77,19.598,75.2,14,Waypoint,
38.5270934,-120.3542945,5236.0693335647,182.414704,0,0.43507547324,24300,2018-07-07 19:01:54,14,0,22.631,5236.0693335647,182.414704,0.223694,0.72143375012,0,0,-0.671082,317.7, -0.1, -2,0,0,1024,1024,1024,1024,316.6,-89.9,96,3.755,3.764,3.781,3.788,3.799,3.77,19.598,75.2,14,Waypoint,
38.5270933,-120.3542945,5237.0535855647,183.398956,0,0.40824148288,24410,2018-07-07 19:01:54,14,0,22.631,5237.0535855647,183.398956,0.223694,0.72143375012,0,0,-0.671082,317.8, -0.1, -2,0,0,1024,1024,1024,1024,316.6,-89.9,96,3.755,3.764,3.781,3.788,3.799,3.77,19.598,75.2,14,Waypoint,
38.5270933,-120.3542945,5237.0535855647,183.398956,0,0.40824148288,24500,2018-07-07 19:01:54,14,0,22.631,5237.0535855647,183.398956,0.223694,0.72143375012,0,0,-0.671082,317.8, -0.1, -2,0,0,1024,1024,1024,1024,316.6,-89.9,96,3.755,3.764,3.781,3.788,3.799,3.77,19.598,75.2,14,Waypoint,
38.5270933,-120.3542946,5239.0220895647,185.36746,0,0.38882219092,24600,2018-07-07 19:01:54,14,0,22.631,5239.0220895647,185.36746,0.223694,0.72143375012,0,0,-0.671082,317.9, -0.1, -2.1,0,0,1024,1024,1024,1024,316.6,-89.9,96,3.755,3.764,3.781,3.788,3.799,3.77,19.598,75.2,14,Waypoint,
38.5270932,-120.3542947,5240.9905935647,187.335964,0,0.34258859364,24800,2018-07-07 19:01:54,14,0,22.631,5240.9905935647,187.335964,0.223694,0.72143375012,0,0,-0.671082,317.8, 0, -1.9,0,0,1024,1024,1024,1024,316.6,-89.9,96,3.755,3.764,3.781,3.788,3.799,3.77,19.598,75.2,14,Waypoint,
38.5270932,-120.3542947,5241.9748455647,188.320216,0,0.34258859364,24900,2018-07-07 19:01:54,14,0,22.631,5241.9748455647,188.320216,0.223694,0.72143375012,0,0,-0.671082,317.8, 0, -1.9,0,0,1024,1024,1024,1024,316.6,-89.9,96,3.755,3.764,3.781,3.788,3.799,3.77,19.598,75.2,14,Waypoint,
38.5270932,-120.3542948,5242.9590975647,189.304468,0,0.324262149484,25100,2018-07-07 19:01:54,14,0,22.631,5242.9590975647,189.304468,0.223694,0.72143375012,0,0,-0.671082,317.7, 0, -1.9,0,0,1024,1024,1024,1024,316.6,-89.9,96,3.755,3.764,3.781,3.788,3.799,3.77,19.598,75.2,14,Waypoint,
38.5270931,-120.3542948,5243.9433495647,190.28872,0,0.29637960266,25200,2018-07-07 19:01:55,14,0,22.631,5243.9433495647,190.28872,0.223694,0.72143375012,0,0,-0.671082,317.6, 0, -1.8,0,0,1024,1024,1024,1024,316.6,-89.9,96,3.755,3.764,3.781,3.788,3.799,3.77,19.598,75.2,14,Waypoint,
38.5270931,-120.3542948,5244.9276015647,191.272972,0,0.29637960266,25300,2018-07-07 19:01:55,14,0,22.631,5244.9276015647,191.272972,0.223694,0.72143375012,0,0,-0.671082,317.6, 0, -1.8,0,0,1024,1024,1024,1024,316.6,-89.9,96,3.755,3.764,3.781,3.788,3.799,3.77,19.598,75.2,14,Waypoint,
38.5270931,-120.3542949,5245.9118535647,192.257224,0,0.277938985272,25400,2018-07-07 19:01:55,14,0,22.631,5245.9118535647,192.257224,0.223694,0.72143375012,0,0,-0.671082,317.5, 0, -1.9,0,0,1024,1024,1024,1024,316.6,-89.9,96,3.755,3.764,3.781,3.788,3.799,3.77,19.598,75.2,14,Waypoint,
38.5270931,-120.354295,5247.8803575647,194.225728,0,0.261320874504,25600,2018-07-07 19:01:55,14,0,22.631,5247.8803575647,194.225728,0.223694,0.72143375012,0,0,-0.671082,317.3, 0, -2,0,0,1024,1024,1024,1024,316.6,-89.9,96,3.755,3.764,3.781,3.788,3.799,3.77,19.598,75.2,14,Waypoint,
38.5270931,-120.354295,5249.1926935647,195.538064,0,0.261320874504,25700,2018-07-07 19:01:55,14,0,22.631,5249.1926935647,195.538064,0.223694,0.72143375012,0,0,-0.671082,317.4, 0, -2.1,0,0,1024,1024,1024,1024,316.6,-89.9,96,3.755,3.764,3.781,3.788,3.799,3.77,19.598,75.2,14,Waypoint,
38.527093,-120.354295,5250.1769455647,196.522316,0,0.23161582106,25800,2018-07-07 19:01:55,14,0,22.631,5250.1769455647,196.522316,0.223694,0.72143375012,0,0,-0.671082,317.5, 0, -2.1,0,0,1024,1024,1024,1024,316.6,-89.9,96,3.755,3.764,3.781,3.788,3.799,3.77,19.598,75.2,14,Waypoint,
38.527093,-120.3542951,5251.1611975647,197.506568,0,0.215206371716,25900,2018-07-07 19:01:55,14,0,22.631,5251.1611975647,197.506568,0.223694,0.72143375012,0,0,-0.671082,317.6, 0, -2.1,0,0,1024,1024,1024,1024,316.6,-89.9,96,3.755,3.764,3.781,3.788,3.799,3.77,19.598,75.2,14,Waypoint,
38.527093,-120.3542951,5252.1454495647,198.49082,0,0.215206371716,26000,2018-07-07 19:01:55,14,0,22.547,5252.1454495647,198.49082,0.223694,0.72143375012,0,0,-0.671082,317.8, -0.1, -2.2,0,0,1024,1024,1024,1024,316.5,-89.9,95,3.747,3.738,3.767,3.768,3.778,3.75,20.175,75.2,14,Waypoint,
38.527093,-120.3542951,5253.1297015647,199.475072,0,0.215206371716,26100,2018-07-07 19:01:55,14,0,22.547,5253.1297015647,199.475072,0.223694,0.72143375012,0,0,-0.671082,317.9, -0.1, -1.9,0,0,1024,1024,1024,1024,316.6,-89.9,95,3.747,3.738,3.767,3.768,3.778,3.75,20.175,75.2,14,Waypoint,
38.527093,-120.3542952,5254.1139535647,200.459324,0,0.201521659992,26200,2018-07-07 19:01:56,14,0,22.547,5254.1139535647,200.459324,0.223694,0.72143375012,0,0,-0.671082,317.8, 0, -1.8,0,0,1024,1024,1024,1024,316.6,-89.9,95,3.747,3.738,3.767,3.768,3.778,3.75,20.175,75.2,14,Waypoint,
38.527093,-120.3542952,5256.0824575647,202.427828,0,0.201521659992,26300,2018-07-07 19:01:56,14,0,22.547,5256.0824575647,202.427828,0.223694,0.72143375012,0,0,-0.671082,317.5, 0, -1.8,0,0,1024,1024,1024,1024,316.6,-89.9,95,3.747,3.738,3.767,3.768,3.778,3.75,20.175,75.2,14,Waypoint,
38.527093,-120.3542952,5257.0667095647,203.41208,0,0.201521659992,26400,2018-07-07 19:01:56,14,0,22.547,5257.0667095647,203.41208,0.223694,0.72143375012,0,0,-0.671082,317.4, 0.1, -1.9,0,0,1024,1024,1024,1024,316.6,-89.9,95,3.747,3.738,3.767,3.768,3.778,3.75,20.175,75.2,14,Waypoint,
38.5270931,-120.3542952,5258.0509615647,204.396332,0,0.23506070306,26500,2018-07-07 19:01:56,14,0,22.547,5258.0509615647,204.396332,0.223694,0.72143375012,0,0,-0.671082,317.4, 0.3, -2.1,0,0,1024,1024,1024,1024,316.6,-89.9,95,3.747,3.738,3.767,3.768,3.778,3.75,20.175,75.2,14,Waypoint,
38.5270931,-120.3542952,5259.0352135647,205.380584,0,0.23506070306,26600,2018-07-07 19:01:56,14,0,22.547,5259.0352135647,205.380584,0.223694,0.72143375012,0,0,-0.671082,317.4, 0.3, -2.1,0,0,1024,1024,1024,1024,316.6,-89.9,95,3.747,3.738,3.767,3.768,3.778,3.75,20.175,75.2,14,Waypoint,
38.5270931,-120.3542952,5260.0194655647,206.364836,0,0.23506070306,26700,2018-07-07 19:01:56,14,0,22.547,5260.0194655647,206.364836,0.223694,0.72143375012,0,0,-0.671082,317.3, 0.4, -2.3,0,0,1024,1024,1024,1024,316.6,-89.9,95,3.747,3.738,3.767,3.768,3.778,3.75,20.175,75.2,14,Waypoint,
38.5270932,-120.3542952,5261.0037175647,207.349088,0,0.26936680652,26800,2018-07-07 19:01:56,14,0,22.547,5261.0037175647,207.349088,0.223694,0.72143375012,0,0,-0.671082,317.2, 0.3, -2.5,0,0,1024,1024,1024,1024,316.6,-89.9,95,3.747,3.738,3.767,3.768,3.778,3.75,20.175,75.2,14,Waypoint,
38.5270932,-120.3542951,5261.9879695647,208.33334,0,0.27975230554,26900,2018-07-07 19:01:56,14,0,22.547,5261.9879695647,208.33334,0.223694,0.72143375012,0,0,-0.671082,317.1, 0.2, -2.7,0,0,1024,1024,1024,1024,316.6,-89.9,95,3.747,3.738,3.767,3.768,3.778,3.75,20.175,75.2,14,Waypoint,
38.5270932,-120.3542951,5262.9722215647,209.317592,0,0.27975230554,27000,2018-07-07 19:01:56,14,0,22.607,5262.9722215647,209.317592,0.223694,0.72143375012,0,0,-0.671082,317, 0.1, -2.7,0,0,1024,1024,1024,1024,316.6,-89.9,95,3.761,3.748,3.77,3.777,3.794,3.761,19.436,77,14,Waypoint,
38.5270933,-120.3542951,5263.9564735647,210.301844,0,0.313414380108,27200,2018-07-07 19:01:57,14,0,22.607,5263.9564735647,210.301844,0.223694,0.72143375012,0,0,-0.671082,317, 0, -2.5,0,0,1024,1024,1024,1024,316.6,-89.9,95,3.761,3.748,3.77,3.777,3.794,3.761,19.436,77,14,Waypoint,
38.5270933,-120.3542951,5264.9407255647,211.286096,0,0.313414380108,27300,2018-07-07 19:01:57,14,0,22.607,5264.9407255647,211.286096,0.223694,0.72143375012,0,0,-0.671082,317, 0, -2.4,0,0,1024,1024,1024,1024,316.6,-89.9,95,3.761,3.748,3.77,3.777,3.794,3.761,19.436,77,14,Waypoint,
