latitude,longitude,altitude(feet),ascent(feet),speed(mph),distance(feet),time(millisecond),datetime(utc),satellites,gpslevel,voltage(v),max_altitude(feet),max_ascent(feet),max_speed(mph),max_distance(feet), xSpeed(mph), ySpeed(mph), zSpeed(mph), compass_heading(degrees), pitch(degrees), roll(degrees),isPhoto,isVideo,rc_elevator,rc_aileron,rc_throttle,rc_rudder,gimbal_heading(degrees),gimbal_pitch(degrees),battery_percent,voltageCell1,voltageCell2,voltageCell3,voltageCell4,voltageCell5,voltageCell6,current(A),battery_temperature(f),flycStateRaw,flycState,message
36.0257453,-118.5730094,6540.4161358025,-0.328084,0.6263432,0,3100,2018-07-04 21:41:03,13,0,0,6540.4161358025,0,0.6263432,0,0,0,0,53.7, -1.6, -0.5,1,0,1024,1024,1024,1024,54.9,-89.9,97,4.151,4.136,4.097,4.153,4.121,4.078,0,82.4,11,AutoTakeoff,DJI_0365.jpg Starting Mission from Lat/Long: 36.02575/-118.57301 Camera: Zenmuse X3 - Overlap: 90/90 - Active Connection: No
36.0257455,-118.5730091,6540.4161358025,-0.328084,0.6263432,0.114720148028,3200,2018-07-04 21:41:03,13,0,0,6540.4161358025,0,0.6263432,0.114720148028,0,0,0,53.6, -0.8, -0.7,0,0,1024,1024,1024,1024,54.9,-89.9,97,4.151,4.136,4.097,4.153,4.121,4.078,0,82.4,11,AutoTakeoff,
36.0257457,-118.5730088,6540.4161358025,-0.328084,0.6263432,0.229440296056,3300,2018-07-04 21:41:03,13,0,0,6540.4161358025,0,0.6263432,0.229440296056,0,0,0,53.5, 0.3, -0.4,0,0,1024,1024,1024,1024,54.9,-89.9,97,4.151,4.136,4.097,4.153,4.121,4.078,0,82.4,11,AutoTakeoff,
36.025746,-118.5730085,6540.7442198025,0,0.6263432,0.36844489368,3400,2018-07-04 21:41:04,13,0,0,6540.7442198025,0,0.6263432,0.36844489368,0,0,0,53.5, 1.2, 0,0,0,1024,1024,1024,1024,54.9,-89.9,97,4.151,4.136,4.097,4.153,4.121,4.078,0,82.4,11,AutoTakeoff,
36.0257462,-118.5730083,6540.7442198025,0,0.4921268,0.46170933236,3500,2018-07-04 21:41:04,11,0,0,6540.7442198025,0,0.6263432,0.46170933236,0,0,0,53.5, 2, 0.4,0,0,1024,1024,1024,1024,54.8,-89.9,97,4.151,4.136,4.097,4.153,4.121,4.078,0,82.4,11,AutoTakeoff,
36.0257464,-118.573008,6540.7442198025,0,0.4921268,0.57595474284,3600,2018-07-04 21:41:04,11,0,0,6540.7442198025,0,0.6263432,0.57595474284,0,0,0,53.5, 2.6, 1,0,0,1024,1024,1024,1024,54.8,-89.9,97,4.151,4.136,4.097,4.153,4.121,4.078,0,82.4,11,AutoTakeoff,
36.0257466,-118.5730078,6540.7442198025,0,0.4921268,0.66922246236,3700,2018-07-04 21:41:04,12,0,0,6540.7442198025,0,0.6263432,0.66922246236,0,0,0,53.6, 3.1, 1.3,0,0,1024,1024,1024,1024,54.8,-89.9,97,4.151,4.136,4.097,4.153,4.121,4.078,0,82.4,11,AutoTakeoff,
36.0257468,-118.5730076,6541.0723038025,0.328084,0.3131716,0.76263453884,3800,2018-07-04 21:41:04,12,0,0,6541.0723038025,0.328084,0.6263432,0.76263453884,0,0,0,53.6, 3.1, 1.2,0,0,1024,1024,1024,1024,54.8,-89.9,97,4.151,4.136,4.097,4.153,4.121,4.078,0,82.4,11,AutoTakeoff,
36.0257468,-118.5730074,6541.0723038025,0.328084,0.3131716,0.80484910712,3900,2018-07-04 21:41:04,11,0,0,6541.0723038025,0.328084,0.6263432,0.80484910712,0,0,0,53.7, 2.7, 1.2,0,0,1024,1024,1024,1024,54.8,-89.9,97,4.151,4.136,4.097,4.153,4.121,4.078,0,82.4,11,AutoTakeoff,
36.0257469,-118.5730072,6541.4003878025,0.656168,0.223694,0.873031524,4000,2018-07-04 21:41:04,11,0,24.83,6541.4003878025,0.656168,0.6263432,0.873031524,0,0,0,53.8, 2.1, 1,0,0,1024,1024,1024,1024,54.8,-89.9,97,4.151,4.136,4.097,4.153,4.121,4.078,8.297,82.4,11,AutoTakeoff,
36.025747,-118.5730071,6541.4003878025,0.656168,0.223694,0.91939635488,4100,2018-07-04 21:41:04,11,0,24.83,6541.4003878025,0.656168,0.6263432,0.91939635488,0,0,0,53.8, 1.4, 0.7,0,0,1024,1024,1024,1024,54.8,-90,97,4.151,4.136,4.097,4.153,4.121,4.078,8.297,82.4,11,AutoTakeoff,
36.0257472,-118.573007,6541.4003878025,0.656168,0.223694,0.99098756452,4200,2018-07-04 21:41:04,11,0,24.83,6541.4003878025,0.656168,0.6263432,0.99098756452,0,0,0,53.9, 1, 0.5,0,0,1024,1024,1024,1024,54.8,-90,97,4.151,4.136,4.097,4.153,4.121,4.078,8.297,82.4,11,AutoTakeoff,
36.0257474,-118.5730069,6541.7284718025,0.984252,0.223694,1.06358599204,4300,2018-07-04 21:41:04,12,0,24.83,6541.7284718025,0.984252,0.6263432,1.06358599204,0,0,0,53.9, 1, 0.5,0,0,1024,1024,1024,1024,54.8,-89.9,97,4.151,4.136,4.097,4.153,4.121,4.078,8.297,82.4,11,AutoTakeoff,
36.0257474,-118.5730069,6542.0565558025,1.312336,0.223694,1.06358599204,4400,2018-07-04 21:41:05,12,0,24.83,6542.0565558025,1.312336,0.6263432,1.06358599204,0,0,0,53.9, 1.1, 0.5,0,0,1024,1024,1024,1024,54.8,-89.9,97,4.151,4.136,4.097,4.153,4.121,4.078,8.297,82.4,11,AutoTakeoff,
36.0257475,-118.5730068,6542.0565558025,1.312336,0.223694,1.11034124288,4500,2018-07-04 21:41:05,12,0,24.83,6542.0565558025,1.312336,0.6263432,1.11034124288,0,0,-0.223694,53.9, 1, 0.5,0,0,1024,1024,1024,1024,54.8,-89.9,97,4.151,4.136,4.097,4.153,4.121,4.078,8.297,82.4,11,AutoTakeoff,
36.0257477,-118.5730067,6542.7127238025,1.968504,0.223694,1.18383533972,4700,2018-07-04 21:41:05,12,0,24.83,6542.7127238025,1.968504,0.6263432,1.18383533972,0,0,-0.223694,54, 1.1, 1.1,0,0,1024,1024,1024,1024,54.7,-89.9,97,4.151,4.136,4.097,4.153,4.121,4.078,8.297,82.4,11,AutoTakeoff,
36.025748,-118.5730067,6543.0408078025,2.296588,0,1.26693901692,4800,2018-07-04 21:41:05,12,0,24.83,6543.0408078025,2.296588,0.6263432,1.26693901692,0,0,-0.223694,53.8, 1.4, 1.5,0,0,1024,1024,1024,1024,54.7,-89.9,97,4.151,4.136,4.097,4.153,4.121,4.078,8.297,82.4,11,AutoTakeoff,
36.0257482,-118.5730067,6543.3688918025,2.624672,0,1.32447182716,5000,2018-07-04 21:41:05,11,0,24.224,6543.3688918025,2.624672,0.6263432,1.32447182716,0,0,-0.223694,53.7, 1.7, 1.7,0,0,1024,1024,1024,1024,54.7,-89.9,97,4.04,4.023,4.014,4.041,4.053,4.039,17.485,82.4,11,AutoTakeoff,
36.0257482,-118.5730067,6543.6969758025,2.952756,0,1.32447182716,5200,2018-07-04 21:41:05,11,0,24.224,6543.6969758025,2.952756,0.6263432,1.32447182716,0,0,-0.223694,53.6, 1.6, 1.6,0,0,1024,1024,1024,1024,54.7,-89.9,97,4.04,4.023,4.014,4.041,4.053,4.039,17.485,82.4,6,P-GPS,
36.0257482,-118.5730067,6543.6969758025,2.952756,0,1.32447182716,5300,2018-07-04 21:41:05,11,0,24.224,6543.6969758025,2.952756,0.6263432,1.32447182716,0,0,0,53.6, 1.6, 1.5,0,0,1024,1024,1024,1024,54.7,-89.9,97,4.04,4.023,4.014,4.041,4.053,4.039,17.485,82.4,14,Waypoint,
36.0257482,-118.5730068,6544.0250598025,3.28084,0,1.30693573736,5400,2018-07-04 21:41:06,11,0,24.224,6544.0250598025,3.28084,0.6263432,1.32447182716,0,0,0,53.5, 0.8, 0.8,0,0,1024,1024,1024,1024,54.7,-90,97,4.04,4.023,4.014,4.041,4.053,4.039,17.485,82.4,14,Waypoint,
36.0257482,-118.5730069,6544.0250598025,3.28084,0,1.28983599928,5500,2018-07-04 21:41:06,11,0,24.224,6544.0250598025,3.28084,0.6263432,1.32447182716,0,0,0,53.4, 0.1, 0.5,0,0,1024,1024,1024,1024,54.7,-90,97,4.04,4.023,4.014,4.041,4.053,4.039,17.485,82.4,14,Waypoint,
36.0257482,-118.573007,6544.3531438025,3.608924,0,1.27318901712,5600,2018-07-04 21:41:06,11,0,24.224,6544.3531438025,3.608924,0.6263432,1.32447182716,0,0,0,53.4, -0.1, 0.5,0,0,1024,1024,1024,1024,54.7,-90,97,4.04,4.023,4.014,4.041,4.053,4.039,17.485,82.4,14,Waypoint,
36.0257483,-118.573007,6544.3531438025,3.608924,0,1.30366802072,5700,2018-07-04 21:41:06,12,0,24.224,6544.3531438025,3.608924,0.6263432,1.32447182716,0,0,0,53.4, 0, 0.9,0,0,1024,1024,1024,1024,54.7,-89.9,97,4.04,4.023,4.014,4.041,4.053,4.039,17.485,82.4,14,Waypoint,
36.0257484,-118.5730071,6544.6812278025,3.937008,0,1.31902563276,5800,2018-07-04 21:41:06,12,0,24.224,6544.6812278025,3.937008,0.6263432,1.32447182716,0,0,0,53.4, 0, 1.1,0,0,1024,1024,1024,1024,54.7,-90,97,4.04,4.023,4.014,4.041,4.053,4.039,17.485,82.4,14,Waypoint,
36.0257485,-118.5730071,6544.6812278025,3.937008,0,1.35043967576,5900,2018-07-04 21:41:06,12,0,24.224,6544.6812278025,3.937008,0.6263432,1.35043967576,0,0,-0.223694,53.5, 0.3, 1.2,0,0,1024,1024,1024,1024,54.6,-89.9,97,4.04,4.023,4.014,4.041,4.053,4.039,17.485,82.4,14,Waypoint,
36.0257486,-118.5730073,6545.0093118025,4.265092,0,1.3541010932,6000,2018-07-04 21:41:06,12,0,24.096,6545.0093118025,4.265092,0.6263432,1.3541010932,0,0,-0.223694,53.7, 0.6, 1.4,0,0,1024,1024,1024,1024,54.6,-89.9,97,4.019,4.009,3.988,4.011,4.039,4.021,17.523,82.4,14,Waypoint,
36.0257487,-118.5730074,6545.3373958025,4.593176,0,1.37371067388,6100,2018-07-04 21:41:06,12,0,24.096,6545.3373958025,4.593176,0.6263432,1.37371067388,0,0,-0.223694,53.8, 0.7, 1.7,0,0,1024,1024,1024,1024,54.6,-89.9,97,4.019,4.009,3.988,4.011,4.039,4.021,17.523,82.4,14,Waypoint,
36.0257487,-118.5730075,6545.9935638025,5.249344,0,1.36129597532,6200,2018-07-04 21:41:06,12,0,24.096,6545.9935638025,5.249344,0.6263432,1.37371067388,0,0,-0.223694,53.9, 0.6, 1.8,0,0,1024,1024,1024,1024,54.6,-90,97,4.019,4.009,3.988,4.011,4.039,4.021,17.523,82.4,14,Waypoint,
36.0257487,-118.5730077,6546.3216478025,5.577428,0,1.33807090896,6300,2018-07-04 21:41:06,12,0,24.096,6546.3216478025,5.577428,0.6263432,1.37371067388,0,0,-0.447388,54, 0.3, 1.6,0,0,1024,1024,1024,1024,54.6,-90,97,4.019,4.009,3.988,4.011,4.039,4.021,17.523,82.4,14,Waypoint,
36.0257488,-118.5730078,6546.9778158025,6.233596,0,1.36145345564,6400,2018-07-04 21:41:07,12,0,24.096,6546.9778158025,6.233596,0.6263432,1.37371067388,0,0,-0.447388,54, 0.2, 1.7,0,0,1024,1024,1024,1024,54.6,-90,97,4.019,4.009,3.988,4.011,4.039,4.021,17.523,82.4,14,Waypoint,
36.0257488,-118.5730079,6547.6339838025,6.889764,0,1.35150266792,6500,2018-07-04 21:41:07,13,0,24.096,6547.6339838025,6.889764,0.6263432,1.37371067388,0,0,-0.447388,54.1, 0, 1.9,0,0,1024,1024,1024,1024,54.6,-90,97,4.019,4.009,3.988,4.011,4.039,4.021,17.523,82.4,14,Waypoint,
36.0257487,-118.573008,6548.2901518025,7.545932,0,1.3074639526,6600,2018-07-04 21:41:07,13,0,24.096,6548.2901518025,7.545932,0.6263432,1.37371067388,0,0,-0.447388,54.1, -0.1, 2.1,0,0,1024,1024,1024,1024,54.5,-90,97,4.019,4.009,3.988,4.011,4.039,4.021,17.523,82.4,14,Waypoint,
36.0257487,-118.5730081,6548.9463198025,8.2021,0,1.29844492344,6700,2018-07-04 21:41:07,12,0,24.096,6548.9463198025,8.2021,0.6263432,1.37371067388,0,0,-0.447388,54.1, -0.3, 1.9,0,0,1024,1024,1024,1024,54.5,-90,97,4.019,4.009,3.988,4.011,4.039,4.021,17.523,82.4,14,Waypoint,
36.0257484,-118.5730082,6550.9148238025,10.170604,0,1.18516407992,6800,2018-07-04 21:41:07,13,0,24.096,6550.9148238025,10.170604,0.6263432,1.37371067388,0,0,-0.671082,53.8, -0.4, 1.1,0,0,1024,1024,1024,1024,54.5,-90,97,4.019,4.009,3.988,4.011,4.039,4.021,17.523,82.4,14,Waypoint,
36.0257482,-118.5730083,6552.8833278025,12.139108,0,1.10672903804,7000,2018-07-04 21:41:07,13,0,23.967,6552.8833278025,12.139108,0.6263432,1.37371067388,0,0,-0.671082,53.7, -0.8, 0.6,0,0,1024,1024,1024,1024,54.5,-90,97,3.977,3.948,3.925,3.98,4.003,3.976,18.638,82.4,14,Waypoint,
36.0257481,-118.5730083,6554.1956638025,13.451444,0,1.07190292144,7100,2018-07-04 21:41:07,13,0,23.967,6554.1956638025,13.451444,0.6263432,1.37371067388,0,0,-0.671082,53.8, -0.9, 0.5,0,0,1024,1024,1024,1024,54.5,-89.9,97,3.977,3.948,3.925,3.98,4.003,3.976,18.638,82.4,14,Waypoint,
36.0257478,-118.5730083,6556.1641678025,15.419948,0,0.96815291812,7300,2018-07-04 21:41:07,12,0,23.967,6556.1641678025,15.419948,0.6263432,1.37371067388,0,0,-0.671082,53.9, -0.5, 0.3,0,0,1024,1024,1024,1024,54.5,-89.9,97,3.977,3.948,3.925,3.98,4.003,3.976,18.638,82.4,14,Waypoint,
36.0257478,-118.5730083,6557.4765038025,16.732284,0,0.96815291812,7500,2018-07-04 21:41:08,12,0,23.967,6557.4765038025,16.732284,0.6263432,1.37371067388,0,0,-0.671082,53.8, -0.1, 0.5,0,0,1024,1024,1024,1024,54.6,-89.9,97,3.977,3.948,3.925,3.98,4.003,3.976,18.638,82.4,14,Waypoint,
36.0257478,-118.5730082,6558.4607558025,17.716536,0,0.97844163236,7600,2018-07-04 21:41:08,12,0,23.967,6558.4607558025,17.716536,0.6263432,1.37371067388,0,0,-0.671082,53.6, 0.1, 0.5,0,0,1024,1024,1024,1024,54.5,-89.9,97,3.977,3.948,3.925,3.98,4.003,3.976,18.638,82.4,14,Waypoint,
36.0257478,-118.5730081,6559.4450078025,18.700788,0,0.989501344,7700,2018-07-04 21:41:08,12,0,23.967,6559.4450078025,18.700788,0.6263432,1.37371067388,0,0,-0.671082,53.5, 0.3, 0.4,0,0,1024,1024,1024,1024,54.5,-89.9,97,3.977,3.948,3.925,3.98,4.003,3.976,18.638,82.4,14,Waypoint,
36.0257478,-118.573008,6560.7573438025,20.013124,0,1.00130908716,7800,2018-07-04 21:41:08,12,0,23.967,6560.7573438025,20.013124,0.6263432,1.37371067388,0,0,-0.671082,53.4, 0.5, 0.4,0,0,1024,1024,1024,1024,54.5,-89.9,97,3.977,3.948,3.925,3.98,4.003,3.976,18.638,82.4,14,Waypoint,
36.0257478,-118.573008,6561.7415958025,20.997376,0,1.00130908716,7900,2018-07-04 21:41:08,12,0,23.967,6561.7415958025,20.997376,0.6263432,1.37371067388,0,0,-0.671082,53.4, 0.5, 0.7,0,0,1024,1024,1024,1024,54.5,-89.9,97,3.977,3.948,3.925,3.98,4.003,3.976,18.638,82.4,14,Waypoint,
36.0257478,-118.573008,6563.0539318025,22.309712,0,1.00130908716,8000,2018-07-04 21:41:08,12,0,23.412,6563.0539318025,22.309712,0.6263432,1.37371067388,0,0,-0.671082,53.4, 0.5, 0.9,0,0,1024,1024,1024,1024,54.5,-89.9,97,3.904,3.909,3.888,3.875,3.92,3.935,24.426,82.4,14,Waypoint,
36.0257478,-118.573008,6564.0381838025,23.293964,0,1.00130908716,8100,2018-07-04 21:41:08,12,0,23.412,6564.0381838025,23.293964,0.6263432,1.37371067388,0,0,-0.671082,53.4, 0.6, 1.1,0,0,1024,1024,1024,1024,54.5,-89.9,97,3.904,3.909,3.888,3.875,3.92,3.935,24.426,82.4,14,Waypoint,
36.0257479,-118.5730081,6565.0224358025,24.278216,0,1.02323166004,8200,2018-07-04 21:41:08,12,0,23.412,6565.0224358025,24.278216,0.6263432,1.37371067388,0,0,-0.671082,53.3, 0.6, 1.2,0,0,1024,1024,1024,1024,54.5,-89.9,97,3.904,3.909,3.888,3.875,3.92,3.935,24.426,82.4,14,Waypoint,
36.0257479,-118.5730081,6566.3347718025,25.590552,0,1.02323166004,8300,2018-07-04 21:41:08,12,0,23.412,6566.3347718025,25.590552,0.6263432,1.37371067388,0,0,-0.671082,53.3, 0.6, 1.3,0,0,1024,1024,1024,1024,54.5,-89.9,97,3.904,3.909,3.888,3.875,3.92,3.935,24.426,82.4,14,Waypoint,
36.025748,-118.5730081,6567.3190238025,26.574804,0,1.05714570312,8400,2018-07-04 21:41:09,12,0,23.412,6567.3190238025,26.574804,0.6263432,1.37371067388,0,0,-0.671082,53.2, 0.4, 1.4,0,0,1024,1024,1024,1024,54.5,-89.9,97,3.904,3.909,3.888,3.875,3.92,3.935,24.426,82.4,14,Waypoint,
36.025748,-118.5730082,6568.3032758025,27.559056,0,1.04679793376,8500,2018-07-04 21:41:09,12,0,23.412,6568.3032758025,27.559056,0.6263432,1.37371067388,0,0,-0.671082,53.2, 0.4, 1.5,0,0,1024,1024,1024,1024,54.5,-89.9,97,3.904,3.909,3.888,3.875,3.92,3.935,24.426,82.4,14,Waypoint,
36.0257481,-118.5730081,6569.6156118025,28.871392,0,1.0912237882,8600,2018-07-04 21:41:09,12,0,23.412,6569.6156118025,28.871392,0.6263432,1.37371067388,0,0,-0.671082,53.2, 0.4, 1.6,0,0,1024,1024,1024,1024,54.5,-89.9,97,3.904,3.909,3.888,3.875,3.92,3.935,24.426,82.4,14,Waypoint,
36.0257482,-118.5730082,6570.5998638025,29.855644,0,1.11574150552,8700,2018-07-04 21:41:09,13,0,23.412,6570.5998638025,29.855644,0.6263432,1.37371067388,0,0,-0.671082,53.3, 0.4, 1.6,0,0,1024,1024,1024,1024,54.5,-89.9,97,3.904,3.909,3.888,3.875,3.92,3.935,24.426,82.4,14,Waypoint,
36.0257483,-118.5730082,6571.5841158025,30.839896,0,1.15039701844,8800,2018-07-04 21:41:09,13,0,23.412,6571.5841158025,30.839896,0.6263432,1.37371067388,0,0,-0.671082,53.4, 0.4, 1.7,0,0,1024,1024,1024,1024,54.5,-89.9,97,3.904,3.909,3.888,3.875,3.92,3.935,24.426,82.4,14,Waypoint,
36.0257484,-118.5730083,6572.5683678025,31.824148,0,1.17668638936,8900,2018-07-04 21:41:09,14,0,23.412,6572.5683678025,31.824148,0.6263432,1.37371067388,0,0,-0.671082,53.5, 0.4, 1.8,0,0,1024,1024,1024,1024,54.5,-89.9,97,3.904,3.909,3.888,3.875,3.92,3.935,24.426,82.4,14,Waypoint,
36.0257484,-118.5730082,6573.8807038025,33.136484,0,1.18516407992,9000,2018-07-04 21:41:09,14,0,23.694,6573.8807038025,33.136484,0.6263432,1.37371067388,0,0,-0.671082,53.7, 0.3, 1.8,0,0,1024,1024,1024,1024,54.5,-89.9,97,3.904,3.909,3.888,3.875,3.92,3.935,19.692,82.4,14,Waypoint,
36.0257484,-118.5730083,6574.8649558025,34.120736,0,1.17668638936,9100,2018-07-04 21:41:09,14,0,23.694,6574.8649558025,34.120736,0.6263432,1.37371067388,0,0,-0.671082,53.8, 0.3, 1.7,0,0,1024,1024,1024,1024,54.5,-89.9,97,3.904,3.909,3.888,3.875,3.92,3.935,19.692,82.4,14,Waypoint,
36.0257485,-118.5730083,6575.8492078025,35.104988,0,1.21179793904,9200,2018-07-04 21:41:09,14,0,23.694,6575.8492078025,35.104988,0.6263432,1.37371067388,0,0,-0.671082,53.9, 0.2, 1.7,0,0,1024,1024,1024,1024,54.5,-89.9,97,3.904,3.909,3.888,3.875,3.92,3.935,19.692,82.4,14,Waypoint,
36.0257486,-118.5730084,6576.8334598025,36.08924,0,1.2396325856,9300,2018-07-04 21:41:09,16,0,23.694,6576.8334598025,36.08924,0.6263432,1.37371067388,0,0,-0.671082,53.8, 0, 1.8,0,0,1024,1024,1024,1024,54.5,-89.9,97,3.904,3.909,3.888,3.875,3.92,3.935,19.692,82.4,14,Waypoint,
36.0257486,-118.5730084,6578.1457958025,37.401576,0,1.2396325856,9400,2018-07-04 21:41:10,16,0,23.694,6578.1457958025,37.401576,0.6263432,1.37371067388,0,0,-0.671082,53.8, -0.1, 1.8,0,0,1024,1024,1024,1024,54.5,-89.9,97,3.904,3.909,3.888,3.875,3.92,3.935,19.692,82.4,14,Waypoint,
36.0257488,-118.5730085,6581.0985518025,40.354332,0,1.30429466116,9610,2018-07-04 21:41:10,15,0,23.694,6581.0985518025,40.354332,0.6263432,1.37371067388,0,0,-0.671082,53.7, -0.2, 1.8,0,0,1024,1024,1024,1024,54.5,-89.9,97,3.904,3.909,3.888,3.875,3.92,3.935,19.692,82.4,14,Waypoint,
36.0257489,-118.5730085,6583.0670558025,42.322836,0,1.34003613212,9800,2018-07-04 21:41:10,15,0,23.694,6583.0670558025,42.322836,0.6263432,1.37371067388,0,0,-0.671082,53.6, -0.2, 1.9,0,0,1024,1024,1024,1024,54.5,-89.9,97,3.904,3.909,3.888,3.875,3.92,3.935,19.692,82.4,14,Waypoint,
36.0257489,-118.5730084,6584.0513078025,43.307088,0,1.3461942688,9900,2018-07-04 21:41:10,15,0,23.694,6584.0513078025,43.307088,0.6263432,1.37371067388,0,0,-0.671082,53.5, -0.4, 1.8,0,0,1024,1024,1024,1024,54.5,-89.9,97,3.904,3.909,3.888,3.875,3.92,3.935,19.692,82.4,14,Waypoint,
36.0257489,-118.5730084,6585.0355598025,44.29134,0,1.3461942688,10110,2018-07-04 21:41:10,16,0,23.694,6585.0355598025,44.29134,0.6263432,1.37371067388,0,0,-0.671082,53.4, -0.4, 1.6,0,0,1024,1024,1024,1024,54.5,-89.9,97,3.904,3.909,3.888,3.875,3.92,3.935,19.692,82.4,14,Waypoint,
36.0257489,-118.5730084,6586.0198118025,45.275592,0,1.3461942688,10210,2018-07-04 21:41:10,16,0,23.694,6586.0198118025,45.275592,0.6263432,1.37371067388,0,0,-0.671082,53.3, -0.2, 1.4,0,0,1024,1024,1024,1024,54.5,-89.9,97,3.904,3.909,3.888,3.875,3.92,3.935,19.692,82.4,14,Waypoint,
36.0257489,-118.5730083,6587.0040638025,46.259844,0,1.3529692034,10300,2018-07-04 21:41:10,16,0,23.694,6587.0040638025,46.259844,0.6263432,1.37371067388,0,0,-0.671082,53.3, 0.1, 1.5,0,0,1024,1024,1024,1024,54.5,-89.9,97,3.904,3.909,3.888,3.875,3.92,3.935,19.692,82.4,14,Waypoint,
36.0257489,-118.5730083,6587.9883158025,47.244096,0,1.3529692034,10400,2018-07-04 21:41:11,16,0,23.694,6587.9883158025,47.244096,0.6263432,1.37371067388,0,0,-0.671082,53.3, 0.5, 1.6,0,0,1024,1024,1024,1024,54.5,-89.9,97,3.904,3.909,3.888,3.875,3.92,3.935,19.692,82.4,14,Waypoint,
36.025749,-118.5730083,6588.9725678025,48.228348,0,1.38841539876,10510,2018-07-04 21:41:11,16,0,23.694,6588.9725678025,48.228348,0.6263432,1.38841539876,0,0,-0.671082,53.3, 0.5, 1.7,0,0,1024,1024,1024,1024,54.5,-89.9,97,3.904,3.909,3.888,3.875,3.92,3.935,19.692,82.4,14,Waypoint,
36.025749,-118.5730082,6589.9568198025,49.2126,0,1.39561028088,10610,2018-07-04 21:41:11,16,0,23.694,6589.9568198025,49.2126,0.6263432,1.39561028088,0,0,-0.671082,53.4, 0.4, 1.4,0,0,1024,1024,1024,1024,54.5,-89.9,97,3.904,3.909,3.888,3.875,3.92,3.935,19.692,82.4,14,Waypoint,
36.0257489,-118.5730082,6590.6129878025,49.868768,0,1.36034781256,10710,2018-07-04 21:41:11,16,0,23.694,6590.6129878025,49.868768,0.6263432,1.39561028088,0,0,-0.671082,53.5, 0.4, 1.2,0,0,1024,1024,1024,1024,54.5,-89.9,97,3.904,3.909,3.888,3.875,3.92,3.935,19.692,82.4,14,Waypoint,
36.0257489,-118.5730082,6591.5972398025,50.85302,0,1.36034781256,10800,2018-07-04 21:41:11,16,0,23.694,6591.5972398025,50.85302,0.6263432,1.39561028088,0,0,-0.671082,53.6, 0.3, 1.2,0,0,1024,1024,1024,1024,54.5,-89.9,97,3.904,3.909,3.888,3.875,3.92,3.935,19.692,82.4,14,Waypoint,
36.0257489,-118.5730081,6592.5814918025,51.837272,0,1.36832681544,10900,2018-07-04 21:41:11,16,0,23.694,6592.5814918025,51.837272,0.6263432,1.39561028088,0,0,-0.671082,53.6, 0.3, 1.4,0,0,1024,1024,1024,1024,54.5,-89.9,97,3.904,3.909,3.888,3.875,3.92,3.935,19.692,82.4,14,Waypoint,
36.0257489,-118.5730081,6593.5657438025,52.821524,0,1.36832681544,11010,2018-07-04 21:41:11,16,0,23.761,6593.5657438025,52.821524,0.6263432,1.39561028088,0,0,-0.671082,53.5, 0.3, 1.4,0,0,1024,1024,1024,1024,54.5,-89.9,96,3.968,3.96,3.928,3.955,3.988,3.981,18.722,82.4,14,Waypoint,
36.0257488,-118.573008,6594.5499958025,53.805776,0,1.34212930804,11110,2018-07-04 21:41:11,16,0,23.761,6594.5499958025,53.805776,0.6263432,1.39561028088,0,0,-0.671082,53.4, 0.3, 1.3,0,0,1024,1024,1024,1024,54.5,-89.9,96,3.968,3.96,3.928,3.955,3.988,3.981,18.722,82.4,14,Waypoint,
36.0257488,-118.573008,6595.5342478025,54.790028,0,1.34212930804,11210,2018-07-04 21:41:11,16,0,23.761,6595.5342478025,54.790028,0.6263432,1.39561028088,0,0,-0.671082,53.4, 0.4, 1.3,0,0,1024,1024,1024,1024,54.5,-89.9,96,3.968,3.96,3.928,3.955,3.988,3.981,18.722,82.4,14,Waypoint,
36.0257488,-118.5730079,6596.5184998025,55.77428,0,1.35150266792,11300,2018-07-04 21:41:11,16,0,23.761,6596.5184998025,55.77428,0.6263432,1.39561028088,0,0,-0.671082,53.4, 0.7, 1.4,0,0,1024,1024,1024,1024,54.5,-89.9,96,3.968,3.96,3.928,3.955,3.988,3.981,18.722,82.4,14,Waypoint,
36.0257488,-118.5730078,6597.5027518025,56.758532,0,1.36145345564,11400,2018-07-04 21:41:12,16,0,23.761,6597.5027518025,56.758532,0.6263432,1.39561028088,0,0,-0.671082,53.5, 0.9, 1.3,0,0,1024,1024,1024,1024,54.5,-89.9,96,3.968,3.96,3.928,3.955,3.988,3.981,18.722,82.4,14,Waypoint,
36.0257487,-118.5730077,6598.4870038025,57.742784,0,1.33807090896,11510,2018-07-04 21:41:12,16,0,23.761,6598.4870038025,57.742784,0.6263432,1.39561028088,0,0,-0.671082,53.7, 1.2, 1.1,0,0,1024,1024,1024,1024,54.5,-89.9,96,3.968,3.96,3.928,3.955,3.988,3.981,18.722,82.4,14,Waypoint,
36.0257487,-118.5730076,6599.4712558025,58.727036,0,1.34941277284,11610,2018-07-04 21:41:12,16,0,23.761,6599.4712558025,58.727036,0.6263432,1.39561028088,0,0,-0.671082,53.8, 1.3, 1.1,0,0,1024,1024,1024,1024,54.5,-89.9,96,3.968,3.96,3.928,3.955,3.988,3.981,18.722,82.4,14,Waypoint,
36.0257487,-118.5730075,6600.4555078025,59.711288,0,1.36129597532,11710,2018-07-04 21:41:12,16,0,23.761,6600.4555078025,59.711288,0.6263432,1.39561028088,0,0,-0.671082,53.8, 1.4, 1.2,0,0,1024,1024,1024,1024,54.5,-89.9,96,3.968,3.96,3.928,3.955,3.988,3.981,18.722,82.4,14,Waypoint,
36.0257487,-118.5730074,6601.4397598025,60.69554,0,1.37371067388,11800,2018-07-04 21:41:12,16,0,23.761,6601.4397598025,60.69554,0.6263432,1.39561028088,0,0,-0.671082,53.9, 1.3, 1.1,0,0,1024,1024,1024,1024,54.5,-89.9,96,3.968,3.96,3.928,3.955,3.988,3.981,18.722,82.4,14,Waypoint,
36.0257487,-118.5730073,6603.4082638025,62.664044,0,1.38664374516,12010,2018-07-04 21:41:12,16,0,23.763,6603.4082638025,62.664044,0.6263432,1.39561028088,0,0,-0.671082,53.9, 0.8, 1.2,0,0,1024,1024,1024,1024,54.5,-89.9,96,3.941,3.933,3.921,3.947,3.97,3.96,19.832,82.4,14,Waypoint,
36.0257487,-118.5730071,6605.3767678025,64.632548,0,1.41400266992,12110,2018-07-04 21:41:12,16,0,23.763,6605.3767678025,64.632548,0.6263432,1.41400266992,0,0,-0.671082,53.7, 1, 1.4,0,0,1024,1024,1024,1024,54.5,-89.9,96,3.941,3.933,3.921,3.947,3.97,3.96,19.832,82.4,14,Waypoint,
36.0257487,-118.573007,6606.3610198025,65.6168,0,1.42839899584,12300,2018-07-04 21:41:12,16,0,23.763,6606.3610198025,65.6168,0.6263432,1.42839899584,0,0,-0.671082,53.6, 1.2, 1.3,0,0,1024,1024,1024,1024,54.5,-89.9,96,3.941,3.933,3.921,3.947,3.97,3.96,19.832,82.4,14,Waypoint,
36.0257486,-118.5730069,6607.3452718025,66.601052,0,1.41202104256,12400,2018-07-04 21:41:13,16,0,23.763,6607.3452718025,66.601052,0.6263432,1.42839899584,0,0,-0.671082,53.6, 1.4, 0.9,0,0,1024,1024,1024,1024,54.5,-89.9,96,3.941,3.933,3.921,3.947,3.97,3.96,19.832,82.4,14,Waypoint,
36.0257486,-118.5730068,6608.0014398025,67.25722,0,1.427657526,12510,2018-07-04 21:41:13,16,0,23.763,6608.0014398025,67.25722,0.6263432,1.42839899584,0,0,-0.671082,53.6, 1.5, 0.6,0,0,1024,1024,1024,1024,54.5,-89.9,96,3.941,3.933,3.921,3.947,3.97,3.96,19.832,82.4,14,Waypoint,
36.0257486,-118.5730067,6608.9856918025,68.241472,0,1.44372708032,12610,2018-07-04 21:41:13,16,0,23.763,6608.9856918025,68.241472,0.6263432,1.44372708032,0,0,-0.671082,53.7, 1.4, 0.5,0,0,1024,1024,1024,1024,54.5,-89.9,96,3.941,3.933,3.921,3.947,3.97,3.96,19.832,82.4,14,Waypoint,
36.0257486,-118.5730067,6609.9699438025,69.225724,0,1.44372708032,12710,2018-07-04 21:41:13,16,0,23.763,6609.9699438025,69.225724,0.6263432,1.44372708032,0,0,-0.671082,53.7, 1.6, 0.6,0,0,1024,1024,1024,1024,54.5,-89.9,96,3.941,3.933,3.921,3.947,3.97,3.96,19.832,82.4,14,Waypoint,
36.0257486,-118.5730066,6610.9541958025,70.209976,0,1.46021658216,12800,2018-07-04 21:41:13,16,0,23.763,6610.9541958025,70.209976,0.6263432,1.46021658216,0,0,-0.671082,53.7, 1.7, 0.8,0,0,1024,1024,1024,1024,54.5,-89.9,96,3.941,3.933,3.921,3.947,3.97,3.96,19.832,82.4,14,Waypoint,
36.0257487,-118.5730066,6612.2665318025,71.522312,0,1.49044296108,12900,2018-07-04 21:41:13,16,0,23.763,6612.2665318025,71.522312,0.6263432,1.49044296108,0,0,-0.671082,53.8, 1.6, 1,0,0,1024,1024,1024,1024,54.5,-89.9,96,3.941,3.933,3.921,3.947,3.97,3.96,19.832,82.4,14,Waypoint,
36.0257487,-118.5730066,6612.9226998025,72.17848,0,1.49044296108,13010,2018-07-04 21:41:13,16,0,23.619,6612.9226998025,72.17848,0.6263432,1.49044296108,0,0,-0.671082,53.8, 1.4, 1.3,0,0,1024,1024,1024,1024,54.5,-89.9,96,3.935,3.925,3.908,3.931,3.958,3.951,19.622,82.4,14,Waypoint,
36.0257487,-118.5730066,6613.9069518025,73.162732,0,1.49044296108,13110,2018-07-04 21:41:13,16,0,23.619,6613.9069518025,73.162732,0.6263432,1.49044296108,0,0,-0.671082,53.7, 1.3, 1.2,0,0,1024,1024,1024,1024,54.5,-89.9,96,3.935,3.925,3.908,3.931,3.958,3.951,19.622,82.4,14,Waypoint,
36.0257487,-118.5730066,6614.8912038025,74.146984,0,1.49044296108,13210,2018-07-04 21:41:13,16,0,23.619,6614.8912038025,74.146984,0.6263432,1.49044296108,0,0,-0.671082,53.7, 1.2, 1.2,0,0,1024,1024,1024,1024,54.5,-89.9,96,3.935,3.925,3.908,3.931,3.958,3.951,19.622,82.4,14,Waypoint,
36.0257487,-118.5730065,6615.8754558025,75.131236,0,1.50700136056,13300,2018-07-04 21:41:13,16,0,23.619,6615.8754558025,75.131236,0.6263432,1.50700136056,0,0,-0.671082,53.6, 1.3, 1.3,0,0,1024,1024,1024,1024,54.5,-89.9,96,3.935,3.925,3.908,3.931,3.958,3.951,19.622,82.4,14,Waypoint,
36.0257487,-118.5730065,6616.8597078025,76.115488,0,1.50700136056,13400,2018-07-04 21:41:14,16,0,23.619,6616.8597078025,76.115488,0.6263432,1.50700136056,0,0,-0.671082,53.6, 1.2, 1.4,0,0,1024,1024,1024,1024,54.5,-89.9,96,3.935,3.925,3.908,3.931,3.958,3.951,19.622,82.4,14,Waypoint,
36.0257487,-118.5730065,6617.8439598025,77.09974,0,1.50700136056,13510,2018-07-04 21:41:14,16,0,23.619,6617.8439598025,77.09974,0.6263432,1.50700136056,0,0,-0.671082,53.5, 1.2, 1.3,0,0,1024,1024,1024,1024,54.5,-89.9,96,3.935,3.925,3.908,3.931,3.958,3.951,19.622,82.4,14,Waypoint,
36.0257488,-118.5730064,6618.8282118025,78.083992,0,1.55379270064,13610,2018-07-04 21:41:14,16,0,23.619,6618.8282118025,78.083992,0.6263432,1.55379270064,0,0,-0.671082,53.4, 1.4, 1.7,0,0,1024,1024,1024,1024,54.5,-89.9,96,3.935,3.925,3.908,3.931,3.958,3.951,19.622,82.4,14,Waypoint,
36.0257488,-118.5730064,6620.1405478025,79.396328,0,1.55379270064,13710,2018-07-04 21:41:14,16,0,23.619,6620.1405478025,79.396328,0.6263432,1.55379270064,0,0,-0.671082,53.4, 1.6, 1.9,0,0,1024,1024,1024,1024,54.5,-89.9,96,3.935,3.925,3.908,3.931,3.958,3.951,19.622,82.4,14,Waypoint,
36.0257489,-118.5730063,6621.7809678025,81.036748,0,1.60059388324,13910,2018-07-04 21:41:14,16,0,23.619,6621.7809678025,81.036748,0.6263432,1.60059388324,0,0,-0.671082,53.5, 1.6, 1.5,0,0,1024,1024,1024,1024,54.5,-89.9,96,3.935,3.925,3.908,3.931,3.958,3.951,19.622,82.4,14,Waypoint,
36.0257489,-118.5730063,6623.0933038025,82.349084,0,1.60059388324,14010,2018-07-04 21:41:14,16,0,23.522,6623.0933038025,82.349084,0.6263432,1.60059388324,0,0,-0.671082,53.5, 1.6, 1.5,0,0,1024,1024,1024,1024,54.5,-89.9,96,3.922,3.893,3.901,3.921,3.949,3.939,20.46,82.4,14,Waypoint,
36.0257489,-118.5730063,6624.0775558025,83.333336,0,1.60059388324,14110,2018-07-04 21:41:14,16,0,23.522,6624.0775558025,83.333336,0.6263432,1.60059388324,0,0,-0.671082,53.6, 1.6, 1.6,0,0,1024,1024,1024,1024,54.5,-89.9,96,3.922,3.893,3.901,3.921,3.949,3.939,20.46,82.4,14,Waypoint,
36.0257489,-118.5730063,6626.0460598025,85.30184,0,1.60059388324,14210,2018-07-04 21:41:14,16,0,23.522,6626.0460598025,85.30184,0.6263432,1.60059388324,0,0,-0.671082,53.7, 1.3, 1.4,0,0,1024,1024,1024,1024,54.5,-89.9,96,3.922,3.893,3.901,3.921,3.949,3.939,20.46,82.4,14,Waypoint,
36.0257489,-118.5730064,6627.0303118025,86.286092,0,1.58391409268,14300,2018-07-04 21:41:14,16,0,23.522,6627.0303118025,86.286092,0.6263432,1.60059388324,0,0,-0.671082,53.6, 1.1, 1.2,0,0,1024,1024,1024,1024,54.5,-89.9,96,3.922,3.893,3.901,3.921,3.949,3.939,20.46,82.4,14,Waypoint,
36.0257489,-118.5730064,6628.9988158025,88.254596,0,1.58391409268,14510,2018-07-04 21:41:15,16,0,23.522,6628.9988158025,88.254596,0.6263432,1.60059388324,0,0,-0.671082,53.4, 1.1, 1.7,0,0,1024,1024,1024,1024,54.5,-89.9,96,3.922,3.893,3.901,3.921,3.949,3.939,20.46,82.4,14,Waypoint,
36.0257489,-118.5730065,6629.9830678025,89.238848,0,1.56761487956,14610,2018-07-04 21:41:15,16,0,23.522,6629.9830678025,89.238848,0.6263432,1.60059388324,0,0,-0.671082,53.4, 1, 2,0,0,1024,1024,1024,1024,54.5,-89.9,96,3.922,3.893,3.901,3.921,3.949,3.939,20.46,82.4,14,Waypoint,
36.0257489,-118.5730065,6630.9673198025,90.2231,0,1.56761487956,14810,2018-07-04 21:41:15,16,0,23.522,6630.9673198025,90.2231,0.6263432,1.60059388324,0,0,-0.671082,53.3, 1.1, 1.9,0,0,1024,1024,1024,1024,54.5,-89.9,96,3.922,3.893,3.901,3.921,3.949,3.939,20.46,82.4,14,Waypoint,
36.025749,-118.5730063,6632.9358238025,92.191604,0,1.63066606268,15010,2018-07-04 21:41:15,16,0,23.517,6632.9358238025,92.191604,0.6263432,1.63066606268,0,0,-0.671082,53.7, 2.1, 2.1,0,0,1024,1024,1024,1024,54.5,-89.9,96,3.922,3.893,3.901,3.921,3.949,3.939,20.49,82.4,14,Waypoint,
36.025749,-118.5730063,6635.2324118025,94.488192,0,1.63066606268,15210,2018-07-04 21:41:15,16,0,23.517,6635.2324118025,94.488192,0.6263432,1.63066606268,0,0,-0.671082,54.5, 2.7, 1.5,0,0,1024,1024,1024,1024,54.5,-89.9,96,3.922,3.893,3.901,3.921,3.949,3.939,20.49,82.4,14,Waypoint,
36.025749,-118.5730063,6636.2166638025,95.472444,0,1.63066606268,15310,2018-07-04 21:41:15,16,0,23.517,6636.2166638025,95.472444,0.6263432,1.63066606268,0,0,-0.671082,54.6, 2.6, 1.6,0,0,1024,1024,1024,1024,54.5,-89.9,96,3.922,3.893,3.901,3.921,3.949,3.939,20.49,82.4,14,Waypoint,
36.025749,-118.5730063,6637.2009158025,96.456696,0,1.63066606268,15410,2018-07-04 21:41:16,16,0,23.517,6637.2009158025,96.456696,0.6263432,1.63066606268,0,0,-0.671082,54.4, 2.1, 1.5,0,0,1024,1024,1024,1024,54.5,-89.9,96,3.922,3.893,3.901,3.921,3.949,3.939,20.49,82.4,14,Waypoint,
36.025749,-118.5730064,6638.1851678025,97.440948,0,1.61429795192,15510,2018-07-04 21:41:16,16,0,23.517,6638.1851678025,97.440948,0.6263432,1.63066606268,0,0,-0.671082,54.1, 1.6, 1.7,0,0,1024,1024,1024,1024,54.5,-90,96,3.922,3.893,3.901,3.921,3.949,3.939,20.49,82.4,14,Waypoint,
36.0257489,-118.5730065,6639.4975038025,98.753284,0,1.56761487956,15610,2018-07-04 21:41:16,16,0,23.517,6639.4975038025,98.753284,0.6263432,1.63066606268,0,0,-0.671082,53.8, 1.1, 1.8,0,0,1024,1024,1024,1024,54.5,-90,96,3.922,3.893,3.901,3.921,3.949,3.939,20.49,82.4,14,Waypoint,
36.0257489,-118.5730066,6640.4817558025,99.737536,0,1.55170280556,15710,2018-07-04 21:41:16,16,0,23.517,6640.4817558025,99.737536,0.6263432,1.63066606268,0,0,-0.671082,53.5, 0.8, 2.2,0,0,1024,1024,1024,1024,54.5,-90,96,3.922,3.893,3.901,3.921,3.949,3.939,20.49,82.4,14,Waypoint,
36.0257489,-118.5730067,6641.4660078025,100.721788,0,1.53619427488,15810,2018-07-04 21:41:16,16,0,23.517,6641.4660078025,100.721788,0.6263432,1.63066606268,0,0,-0.671082,53.3, 0.3, 2.3,0,0,1024,1024,1024,1024,54.5,-90,96,3.922,3.893,3.901,3.921,3.949,3.939,20.49,82.4,14,Waypoint,
36.0257489,-118.5730068,6642.4502598025,101.70604,0,1.52110241088,15900,2018-07-04 21:41:16,16,0,23.517,6642.4502598025,101.70604,0.6263432,1.63066606268,0,0,-0.671082,53.4, 0.1, 2.6,0,0,1024,1024,1024,1024,54.5,-89.9,96,3.922,3.893,3.901,3.921,3.949,3.939,20.49,82.4,14,Waypoint,
36.025749,-118.5730069,6643.4345118025,102.690292,0,1.53834978676,16010,2018-07-04 21:41:16,16,0,23.541,6643.4345118025,102.690292,0.6263432,1.63066606268,0,0,-0.671082,53.4, 0.4, 3.2,0,0,1024,1024,1024,1024,54.5,-89.9,96,3.934,3.93,3.904,3.932,3.968,3.939,19.242,82.4,14,Waypoint,
36.025749,-118.573007,6644.4187638025,103.674544,0,1.52441934012,16110,2018-07-04 21:41:16,16,0,23.541,6644.4187638025,103.674544,0.6263432,1.63066606268,0,0,-0.671082,53.5, 0.6, 3.6,0,0,1024,1024,1024,1024,54.5,-89.9,96,3.934,3.93,3.904,3.932,3.968,3.939,19.242,82.4,14,Waypoint,
36.0257491,-118.5730071,6645.4030158025,104.658796,0,1.54362209664,16210,2018-07-04 21:41:16,16,0,23.541,6645.4030158025,104.658796,0.6263432,1.63066606268,0,0,-0.671082,53.5, 0.8, 4,0,0,1024,1024,1024,1024,54.5,-89.9,96,3.934,3.93,3.904,3.932,3.968,3.939,19.242,82.4,14,Waypoint,
36.0257492,-118.5730072,6646.3872678025,105.643048,0,1.56399939388,16310,2018-07-04 21:41:16,16,0,23.541,6646.3872678025,105.643048,0.6263432,1.63066606268,0,0,-0.671082,53.6, 0.9, 3.9,0,0,1024,1024,1024,1024,54.5,-89.9,96,3.934,3.93,3.904,3.932,3.968,3.939,19.242,82.4,14,Waypoint,
36.0257493,-118.5730074,6649.3400238025,108.595804,0,1.57420280628,16610,2018-07-04 21:41:17,16,0,23.541,6649.3400238025,108.595804,0.6263432,1.63066606268,0,0,-0.671082,53.5, 1.1, 4.1,0,0,1024,1024,1024,1024,54.5,-89.9,96,3.934,3.93,3.904,3.932,3.968,3.939,19.242,82.4,14,Waypoint,
36.0257495,-118.5730076,6652.2927798025,111.54856,0,1.62180451384,16810,2018-07-04 21:41:17,16,0,23.541,6652.2927798025,111.54856,0.6263432,1.63066606268,0,0,-0.671082,53.6, 1, 4,0,0,1024,1024,1024,1024,54.5,-89.9,96,3.934,3.93,3.904,3.932,3.968,3.939,19.242,82.4,14,Waypoint,
36.0257495,-118.5730076,6652.2927798025,111.54856,0,1.62180451384,16910,2018-07-04 21:41:17,16,0,23.541,6652.2927798025,111.54856,0.6263432,1.63066606268,0,0,-0.671082,53.6, 1, 4,0,0,1024,1024,1024,1024,54.5,-89.9,96,3.934,3.93,3.904,3.932,3.968,3.939,19.242,82.4,14,Waypoint,
36.0257496,-118.5730077,6653.2770318025,112.532812,0,1.6470965094,17010,2018-07-04 21:41:17,16,0,23.541,6653.2770318025,112.532812,0.6263432,1.6470965094,0,0,-0.671082,53.6, 1, 4.3,0,0,1024,1024,1024,1024,54.5,-89.9,96,3.934,3.93,3.904,3.932,3.968,3.939,19.242,82.4,14,Waypoint,
36.0257497,-118.5730078,6654.9174518025,114.173232,0,1.67332026352,17110,2018-07-04 21:41:17,16,0,23.541,6654.9174518025,114.173232,0.6263432,1.67332026352,0,0,-0.671082,53.7, 0.9, 4.3,0,0,1024,1024,1024,1024,54.5,-89.9,96,3.934,3.93,3.904,3.932,3.968,3.939,19.242,82.4,14,Waypoint,
36.0257497,-118.5730078,6655.9017038025,115.157484,0,1.67332026352,17310,2018-07-04 21:41:17,16,0,23.541,6655.9017038025,115.157484,0.6263432,1.67332026352,0,0,-0.671082,53.6, 1, 4.6,0,0,1024,1024,1024,1024,54.5,-89.9,96,3.934,3.93,3.904,3.932,3.968,3.939,19.242,82.4,14,Waypoint,
36.0257498,-118.5730079,6656.8859558025,116.141736,0.223694,1.70043640612,17410,2018-07-04 21:41:18,16,0,23.541,6656.8859558025,116.141736,0.6263432,1.70043640612,0,0,-0.671082,53.7, 1, 5.1,0,0,1024,1024,1024,1024,54.5,-89.9,96,3.934,3.93,3.904,3.932,3.968,3.939,19.242,82.4,14,Waypoint,
36.0257499,-118.5730079,6657.8702078025,117.125988,0.223694,1.73568903192,17510,2018-07-04 21:41:18,16,0,23.541,6657.8702078025,117.125988,0.6263432,1.73568903192,0,0,-0.671082,53.7, 1.6, 5.4,0,0,1024,1024,1024,1024,54.4,-89.9,96,3.934,3.93,3.904,3.932,3.968,3.939,19.242,82.4,14,Waypoint,
36.0257501,-118.5730078,6660.4948798025,119.75066,0,1.81379927064,17810,2018-07-04 21:41:18,16,0,23.541,6660.4948798025,119.75066,0.6263432,1.81379927064,0,0,-0.671082,53.6, 2.5, 4.9,0,0,1024,1024,1024,1024,54.4,-89.9,96,3.934,3.93,3.904,3.932,3.968,3.939,19.242,82.4,14,Waypoint,
36.0257502,-118.5730077,6662.1352998025,121.39108,0,1.85680452136,18010,2018-07-04 21:41:18,16,0,23.654,6662.1352998025,121.39108,0.6263432,1.85680452136,0,0,-0.671082,53.2, 3.2, 4.3,0,0,1024,1024,1024,1024,54.4,-89.9,96,3.946,3.939,3.92,3.944,3.974,3.957,17.651,82.4,14,Waypoint,
36.0257502,-118.5730076,6663.1195518025,122.375332,0,1.86499021716,18110,2018-07-04 21:41:18,16,0,23.654,6663.1195518025,122.375332,0.6263432,1.86499021716,0,0,-0.671082,53.2, 3.4, 4.5,0,0,1024,1024,1024,1024,54.4,-89.9,96,3.946,3.939,3.92,3.944,3.974,3.957,17.651,82.4,14,Waypoint,
36.0257502,-118.5730075,6663.7757198025,123.0315,0,1.87360898384,18210,2018-07-04 21:41:18,16,0,23.654,6663.7757198025,123.0315,0.6263432,1.87360898384,0,0,-0.671082,53.3, 3.2, 4.2,0,0,1024,1024,1024,1024,54.4,-89.9,96,3.946,3.939,3.92,3.944,3.974,3.957,17.651,82.4,14,Waypoint,
36.0257502,-118.5730074,6664.7599718025,124.015752,0,1.88264769804,18310,2018-07-04 21:41:18,16,0,23.654,6664.7599718025,124.015752,0.6263432,1.88264769804,0,0,-0.671082,53.4, 3.1, 3.7,0,0,1024,1024,1024,1024,54.4,-89.9,96,3.946,3.939,3.92,3.944,3.974,3.957,17.651,82.4,14,Waypoint,
36.0257502,-118.5730073,6665.7442238025,125.000004,0,1.89210635976,18410,2018-07-04 21:41:19,16,0,23.654,6665.7442238025,125.000004,0.6263432,1.89210635976,0,0,-0.671082,53.6, 2.8, 3.3,0,0,1024,1024,1024,1024,54.4,-89.9,96,3.946,3.939,3.92,3.944,3.974,3.957,17.651,82.4,14,Waypoint,
36.0257501,-118.5730073,6666.7284758025,125.984256,0,1.85767066312,18510,2018-07-04 21:41:19,16,0,23.654,6666.7284758025,125.984256,0.6263432,1.89210635976,0,0,-0.671082,53.7, 2.5, 3.3,0,0,1024,1024,1024,1024,54.4,-89.9,96,3.946,3.939,3.92,3.944,3.974,3.957,17.651,82.4,14,Waypoint,
36.0257501,-118.5730072,6667.7127278025,126.968508,0,1.86771987604,18610,2018-07-04 21:41:19,16,0,23.654,6667.7127278025,126.968508,0.6263432,1.89210635976,0,0,-0.671082,53.8, 2.1, 3.2,0,0,1024,1024,1024,1024,54.4,-89.9,96,3.946,3.939,3.92,3.944,3.974,3.957,17.651,82.4,14,Waypoint,
36.02575,-118.5730071,6668.3688958025,127.624676,0,1.8442093766,18710,2018-07-04 21:41:19,16,0,23.654,6668.3688958025,127.624676,0.6263432,1.89210635976,0,0,-0.671082,53.8, 2.1, 2.7,0,0,1024,1024,1024,1024,54.4,-89.9,96,3.946,3.939,3.92,3.944,3.974,3.957,17.651,82.4,14,Waypoint,
36.02575,-118.573007,6669.3531478025,128.608928,0,1.85526908824,18810,2018-07-04 21:41:19,16,0,23.654,6669.3531478025,128.608928,0.6263432,1.89210635976,0,0,-0.671082,53.9, 2.4, 2.5,0,0,1024,1024,1024,1024,54.4,-89.9,96,3.946,3.939,3.92,3.944,3.974,3.957,17.651,82.4,14,Waypoint,
36.02575,-118.5730069,6670.3373998025,129.59318,0,1.8667323432,18910,2018-07-04 21:41:19,16,0,23.654,6670.3373998025,129.59318,0.6263432,1.89210635976,0,0,-0.671082,53.9, 2.7, 2.7,0,0,1024,1024,1024,1024,54.4,-89.9,96,3.946,3.939,3.92,3.944,3.974,3.957,17.651,82.4,14,Waypoint,
36.02575,-118.5730068,6671.3216518025,130.577432,0,1.87858929896,19010,2018-07-04 21:41:19,16,0,23.626,6671.3216518025,130.577432,0.6263432,1.89210635976,0,0,-0.671082,54, 3, 2.9,0,0,1024,1024,1024,1024,54.4,-89.9,96,3.937,3.913,3.908,3.916,3.959,3.944,18.147,82.4,14,Waypoint,
36.02575,-118.5730067,6672.3059038025,131.561684,0,1.890830113,19110,2018-07-04 21:41:19,16,0,23.626,6672.3059038025,131.561684,0.6263432,1.89210635976,0,0,-0.671082,54, 3.5, 2.8,0,0,1024,1024,1024,1024,54.4,-89.9,96,3.937,3.913,3.908,3.916,3.959,3.944,18.147,82.4,14,Waypoint,
36.02575,-118.5730066,6673.2901558025,132.545936,0,1.90345150448,19210,2018-07-04 21:41:19,16,0,23.626,6673.2901558025,132.545936,0.6263432,1.90345150448,0,0,-0.671082,54, 3.7, 2.8,0,0,1024,1024,1024,1024,54.4,-89.9,96,3.937,3.913,3.908,3.916,3.959,3.944,18.147,82.4,14,Waypoint,
36.02575,-118.5730065,6675.2586598025,134.51444,0,1.91644363088,19310,2018-07-04 21:41:19,16,0,23.626,6675.2586598025,134.51444,0.6263432,1.91644363088,0,0,-0.671082,53.9, 3.9, 3.2,0,0,1024,1024,1024,1024,54.4,-89.9,96,3.937,3.913,3.908,3.916,3.959,3.944,18.147,82.4,14,Waypoint,
36.0257499,-118.5730064,6676.2429118025,135.498692,0,1.89745412896,19410,2018-07-04 21:41:20,16,0,23.626,6676.2429118025,135.498692,0.6263432,1.91644363088,0,0,-0.671082,53.7, 4, 3.2,0,0,1024,1024,1024,1024,54.4,-89.9,96,3.937,3.913,3.908,3.916,3.959,3.944,18.147,82.4,14,Waypoint,
36.0257499,-118.5730062,6678.2114158025,137.467196,0,1.92569231884,19610,2018-07-04 21:41:20,16,0,23.626,6678.2114158025,137.467196,0.6263432,1.92569231884,0,0,-0.671082,53.2, 3.9, 2.5,0,0,1024,1024,1024,1024,54.4,-89.9,96,3.937,3.913,3.908,3.916,3.959,3.944,18.147,82.4,14,Waypoint,
36.0257498,-118.5730059,6680.5080038025,139.763784,0.223694,1.93962932716,19910,2018-07-04 21:41:20,16,0,23.626,6680.5080038025,139.763784,0.6263432,1.93962932716,0,0,-0.671082,52.8, 4.3, 1.5,0,0,1024,1024,1024,1024,54.4,-89.9,96,3.937,3.913,3.908,3.916,3.959,3.944,18.147,82.4,14,Waypoint,
36.0257497,-118.5730057,6681.4922558025,140.748036,0.223694,1.94141082328,20010,2018-07-04 21:41:20,16,0,23.512,6681.4922558025,140.748036,0.6263432,1.94141082328,0,0,-0.671082,52.7, 4.3, 1.2,0,0,1024,1024,1024,1024,54.4,-89.9,96,3.92,3.902,3.892,3.915,3.959,3.912,19,82.4,14,Waypoint,
36.0257497,-118.5730056,6682.4765078025,141.732288,0,1.95815623064,20110,2018-07-04 21:41:20,16,0,23.512,6682.4765078025,141.732288,0.6263432,1.95815623064,0,0,-0.671082,52.8, 4.5, 1.2,0,0,1024,1024,1024,1024,54.4,-89.9,96,3.92,3.902,3.892,3.915,3.959,3.912,19,82.4,14,Waypoint,
36.0257496,-118.5730055,6683.7888438025,143.044624,0,1.94566279192,20210,2018-07-04 21:41:20,16,0,23.512,6683.7888438025,143.044624,0.6263432,1.95815623064,0,0,-0.671082,53.1, 4.4, 1,0,0,1024,1024,1024,1024,54.4,-89.9,96,3.92,3.902,3.892,3.915,3.959,3.912,19,82.4,14,Waypoint,
36.0257496,-118.5730054,6684.7730958025,144.028876,0,1.96325793684,20310,2018-07-04 21:41:20,16,0,23.512,6684.7730958025,144.028876,0.6263432,1.96325793684,0,0,-0.671082,53.4, 4.5, 1.2,0,0,1024,1024,1024,1024,54.4,-89.9,96,3.92,3.902,3.892,3.915,3.959,3.912,19,82.4,14,Waypoint,
36.0257496,-118.5730053,6685.7573478025,145.013128,0,1.98113851484,20410,2018-07-04 21:41:21,16,0,23.512,6685.7573478025,145.013128,0.6263432,1.98113851484,0,0,-0.671082,53.7, 4.4, 1.2,0,0,1024,1024,1024,1024,54.4,-89.9,96,3.92,3.902,3.892,3.915,3.959,3.912,19,82.4,14,Waypoint,
36.0257496,-118.5730053,6686.7415998025,145.99738,0,1.98113851484,20510,2018-07-04 21:41:21,16,0,23.512,6686.7415998025,145.99738,0.6263432,1.98113851484,0,0,-0.671082,54, 4.2, 1.3,0,0,1024,1024,1024,1024,54.4,-89.9,96,3.92,3.902,3.892,3.915,3.959,3.912,19,82.4,14,Waypoint,
36.0257495,-118.5730052,6687.7258518025,146.981632,0,1.97079402632,20610,2018-07-04 21:41:21,16,0,23.512,6687.7258518025,146.981632,0.6263432,1.98113851484,0,0,-0.671082,54.3, 3.9, 1.4,0,0,1024,1024,1024,1024,54.4,-89.9,96,3.92,3.902,3.892,3.915,3.959,3.912,19,82.4,14,Waypoint,
36.0257495,-118.5730052,6688.7101038025,147.965884,0,1.97079402632,20710,2018-07-04 21:41:21,16,0,23.512,6688.7101038025,147.965884,0.6263432,1.98113851484,0,0,-0.671082,54.4, 3.8, 1.9,0,0,1024,1024,1024,1024,54.4,-89.9,96,3.92,3.902,3.892,3.915,3.959,3.912,19,82.4,14,Waypoint,
36.0257495,-118.5730053,6689.6943558025,148.950136,0,1.95237539056,20800,2018-07-04 21:41:21,16,0,23.512,6689.6943558025,148.950136,0.6263432,1.98113851484,0,0,-0.671082,54.3, 3.6, 2.1,0,0,1024,1024,1024,1024,54.4,-89.9,96,3.92,3.902,3.892,3.915,3.959,3.912,19,82.4,14,Waypoint,
36.0257495,-118.5730053,6690.6786078025,149.934388,0,1.95237539056,20910,2018-07-04 21:41:21,16,0,23.512,6690.6786078025,149.934388,0.6263432,1.98113851484,0,0,-0.671082,54.2, 3.5, 2.1,0,0,1024,1024,1024,1024,54.4,-89.9,96,3.92,3.902,3.892,3.915,3.959,3.912,19,82.4,14,Waypoint,
36.0257494,-118.5730053,6691.6628598025,150.91864,0,1.92387145264,21010,2018-07-04 21:41:21,16,0,23.465,6691.6628598025,150.91864,0.6263432,1.98113851484,0,0,-0.671082,53.9, 3.6, 2.1,0,0,1024,1024,1024,1024,54.4,-89.9,96,3.937,3.926,3.887,3.91,3.944,3.912,17.922,82.4,14,Waypoint,
36.0257494,-118.5730053,6692.6471118025,151.902892,0,1.92387145264,21110,2018-07-04 21:41:21,16,0,23.465,6692.6471118025,151.902892,0.6263432,1.98113851484,0,0,-0.671082,53.5, 3.6, 1.7,0,0,1024,1024,1024,1024,54.4,-89.9,96,3.937,3.926,3.887,3.91,3.944,3.912,17.922,82.4,14,Waypoint,
36.0257494,-118.5730053,6693.6313638025,152.887144,0,1.92387145264,21210,2018-07-04 21:41:21,16,0,23.465,6693.6313638025,152.887144,0.6263432,1.98113851484,0,0,-0.671082,53.3, 3.5, 1.6,0,0,1024,1024,1024,1024,54.4,-89.9,96,3.937,3.926,3.887,3.91,3.944,3.912,17.922,82.4,14,Waypoint,
36.0257493,-118.5730053,6694.6156158025,153.871396,0,1.89563982444,21320,2018-07-04 21:41:21,16,0,23.465,6694.6156158025,153.871396,0.6263432,1.98113851484,0,0,-0.671082,53.2, 3.4, 1.6,0,0,1024,1024,1024,1024,54.4,-89.9,96,3.937,3.926,3.887,3.91,3.944,3.912,17.922,82.4,14,Waypoint,
36.0257493,-118.5730054,6695.9279518025,155.183732,0,1.87694559812,21410,2018-07-04 21:41:22,16,0,23.465,6695.9279518025,155.183732,0.6263432,1.98113851484,0,0,-0.671082,53.2, 3.3, 1.7,0,0,1024,1024,1024,1024,54.4,-89.9,96,3.937,3.926,3.887,3.91,3.944,3.912,17.922,82.4,14,Waypoint,
36.0257493,-118.5730054,6696.9122038025,156.167984,0,1.87694559812,21610,2018-07-04 21:41:22,16,0,23.465,6696.9122038025,156.167984,0.6263432,1.98113851484,0,0,-0.671082,53.4, 3.1, 1.9,0,0,1024,1024,1024,1024,54.4,-89.9,96,3.937,3.926,3.887,3.91,3.944,3.912,17.922,82.4,14,Waypoint,
36.0257493,-118.5730055,6697.8964558025,157.152236,0,1.85853352404,21710,2018-07-04 21:41:22,16,0,23.465,6697.8964558025,157.152236,0.6263432,1.98113851484,0,0,-0.671082,53.6, 3.2, 2.3,0,0,1024,1024,1024,1024,54.4,-89.9,96,3.937,3.926,3.887,3.91,3.944,3.912,17.922,82.4,14,Waypoint,
36.0257494,-118.5730057,6701.1772958025,160.433076,0,1.85192591228,21810,2018-07-04 21:41:22,16,0,23.465,6701.1772958025,160.433076,0.6263432,1.98113851484,0,0,-0.671082,53.8, 3.2, 2.9,0,0,1024,1024,1024,1024,54.4,-89.9,96,3.937,3.926,3.887,3.91,3.944,3.912,17.922,82.4,14,Waypoint,
36.0257494,-118.5730057,6702.1615478025,161.417328,0,1.85192591228,22010,2018-07-04 21:41:22,16,0,23.571,6702.1615478025,161.417328,0.6263432,1.98113851484,0,0,-0.671082,53.8, 3.3, 2.7,0,0,1024,1024,1024,1024,54.4,-89.9,95,3.936,3.913,3.91,3.922,3.968,3.947,18.436,82.4,14,Waypoint,
36.0257495,-118.5730057,6703.1457998025,162.40158,0,1.88151908908,22110,2018-07-04 21:41:22,16,0,23.571,6703.1457998025,162.40158,0.6263432,1.98113851484,0,0,-0.671082,53.6, 3.4, 2.5,0,0,1024,1024,1024,1024,54.4,-89.9,95,3.936,3.913,3.91,3.922,3.968,3.947,18.436,82.4,14,Waypoint,
36.0257495,-118.5730058,6703.8019678025,163.057748,0,1.8645505846,22210,2018-07-04 21:41:22,16,0,23.571,6703.8019678025,163.057748,0.6263432,1.98113851484,0,0,-0.671082,53.5, 3.4, 2.3,0,0,1024,1024,1024,1024,54.4,-89.9,95,3.936,3.913,3.91,3.922,3.968,3.947,18.436,82.4,14,Waypoint,
36.0257495,-118.5730058,6705.1143038025,164.370084,0,1.8645505846,22310,2018-07-04 21:41:22,16,0,23.571,6705.1143038025,164.370084,0.6263432,1.98113851484,0,0,-0.671082,53.3, 3.5, 2.1,0,0,1024,1024,1024,1024,54.4,-89.9,95,3.936,3.913,3.91,3.922,3.968,3.947,18.436,82.4,14,Waypoint,
36.0257495,-118.5730058,6706.0985558025,165.354336,0,1.8645505846,22410,2018-07-04 21:41:23,16,0,23.571,6706.0985558025,165.354336,0.6263432,1.98113851484,0,0,-0.671082,53.1, 3.6, 2.1,0,0,1024,1024,1024,1024,54.4,-89.9,95,3.936,3.913,3.91,3.922,3.968,3.947,18.436,82.4,14,Waypoint,
36.0257495,-118.5730059,6707.0828078025,166.338588,0,1.8479003216,22510,2018-07-04 21:41:23,16,0,23.571,6707.0828078025,166.338588,0.6263432,1.98113851484,0,0,-0.671082,52.9, 3.6, 2.3,0,0,1024,1024,1024,1024,54.4,-89.9,95,3.936,3.913,3.91,3.922,3.968,3.947,18.436,82.4,14,Waypoint,
36.0257494,-118.5730059,6708.0670598025,167.32284,0,1.81775924452,22610,2018-07-04 21:41:23,16,0,23.571,6708.0670598025,167.32284,0.6263432,1.98113851484,0,0,-0.671082,52.7, 3.5, 2.1,0,0,1024,1024,1024,1024,54.4,-89.9,95,3.936,3.913,3.91,3.922,3.968,3.947,18.436,82.4,14,Waypoint,
36.0257494,-118.5730059,6709.0513118025,168.307092,0,1.81775924452,22710,2018-07-04 21:41:23,16,0,23.571,6709.0513118025,168.307092,0.6263432,1.98113851484,0,0,-0.671082,52.7, 3.4, 1.8,0,0,1024,1024,1024,1024,54.4,-89.9,95,3.936,3.913,3.91,3.922,3.968,3.947,18.436,82.4,14,Waypoint,
36.0257493,-118.573006,6710.0355638025,169.291344,0,1.77097446612,22810,2018-07-04 21:41:23,16,0,23.571,6710.0355638025,169.291344,0.6263432,1.98113851484,0,0,-0.671082,52.8, 3, 1.4,0,0,1024,1024,1024,1024,54.4,-89.9,95,3.936,3.913,3.91,3.922,3.968,3.947,18.436,82.4,14,Waypoint,
36.0257492,-118.573006,6710.6917318025,169.947512,0,1.74103023944,22910,2018-07-04 21:41:23,16,0,23.571,6710.6917318025,169.947512,0.6263432,1.98113851484,0,0,-0.671082,53, 2.7, 1.3,0,0,1024,1024,1024,1024,54.4,-89.9,95,3.936,3.913,3.91,3.922,3.968,3.947,18.436,82.4,14,Waypoint,
36.0257491,-118.5730061,6711.6759838025,170.931764,0,1.69421265264,23010,2018-07-04 21:41:23,16,0,23.605,6711.6759838025,170.931764,0.6263432,1.98113851484,0,0,-0.671082,53.2, 2.5, 1.2,0,0,1024,1024,1024,1024,54.4,-89.9,95,3.941,3.929,3.903,3.924,3.962,3.941,17.508,82.4,14,Waypoint,
36.025749,-118.5730061,6712.6602358025,171.916016,0,1.66448824224,23110,2018-07-04 21:41:23,16,0,23.605,6712.6602358025,171.916016,0.6263432,1.98113851484,0,0,-0.671082,53.4, 2.2, 1.3,0,0,1024,1024,1024,1024,54.4,-89.9,95,3.941,3.929,3.903,3.924,3.962,3.941,17.508,82.4,14,Waypoint,
36.0257489,-118.5730062,6713.6444878025,172.900268,0,1.61763784704,23210,2018-07-04 21:41:23,16,0,23.605,6713.6444878025,172.900268,0.6263432,1.98113851484,0,0,-0.671082,53.6, 2.1, 1.1,0,0,1024,1024,1024,1024,54.4,-89.9,95,3.941,3.929,3.903,3.924,3.962,3.941,17.508,82.4,14,Waypoint,
36.0257488,-118.5730063,6714.6287398025,173.88452,0,1.57079073268,23310,2018-07-04 21:41:23,16,0,23.605,6714.6287398025,173.88452,0.6263432,1.98113851484,0,0,-0.671082,53.8, 2.1, 1,0,0,1024,1024,1024,1024,54.4,-89.9,95,3.941,3.929,3.903,3.924,3.962,3.941,17.508,82.4,14,Waypoint,
36.0257488,-118.5730063,6715.6129918025,174.868772,0,1.57079073268,23410,2018-07-04 21:41:24,16,0,23.605,6715.6129918025,174.868772,0.6263432,1.98113851484,0,0,-0.671082,53.9, 2.1, 1.1,0,0,1024,1024,1024,1024,54.4,-89.9,95,3.941,3.929,3.903,3.924,3.962,3.941,17.508,82.4,14,Waypoint,
36.0257486,-118.5730064,6717.2534118025,176.509192,0,1.49440293496,23610,2018-07-04 21:41:24,16,0,23.605,6717.2534118025,176.509192,0.6263432,1.98113851484,0,0,-0.671082,54, 2, 0.7,0,0,1024,1024,1024,1024,54.4,-89.9,95,3.941,3.929,3.903,3.924,3.962,3.941,17.508,82.4,14,Waypoint,
36.0257486,-118.5730065,6718.2376638025,177.493444,0,1.47711290816,23710,2018-07-04 21:41:24,16,0,23.605,6718.2376638025,177.493444,0.6263432,1.98113851484,0,0,-0.671082,53.9, 2, 0.9,0,0,1024,1024,1024,1024,54.4,-89.9,95,3.941,3.929,3.903,3.924,3.962,3.941,17.508,82.4,14,Waypoint,
36.0257486,-118.5730065,6719.2219158025,178.477696,0,1.47711290816,23810,2018-07-04 21:41:24,16,0,23.605,6719.2219158025,178.477696,0.6263432,1.98113851484,0,0,-0.671082,53.7, 2.1, 1.5,0,0,1024,1024,1024,1024,54.4,-89.9,95,3.941,3.929,3.903,3.924,3.962,3.941,17.508,82.4,14,Waypoint,
36.0257485,-118.5730066,6720.2061678025,179.461948,0,1.43028547884,23910,2018-07-04 21:41:24,16,0,23.605,6720.2061678025,179.461948,0.6263432,1.98113851484,0,0,-0.671082,53.5, 2.2, 1.8,0,0,1024,1024,1024,1024,54.4,-89.9,95,3.941,3.929,3.903,3.924,3.962,3.941,17.508,82.4,14,Waypoint,
36.0257485,-118.5730066,6721.1904198025,180.4462,0,1.43028547884,24010,2018-07-04 21:41:24,16,0,23.566,6721.1904198025,180.4462,0.6263432,1.98113851484,0,0,-0.671082,53.4, 2.1, 2,0,0,1024,1024,1024,1024,54.4,-90,95,3.931,3.926,3.896,3.915,3.946,3.936,17.791,84.2,14,Waypoint,
36.0257485,-118.5730067,6722.1746718025,181.430452,0,1.41344492712,24110,2018-07-04 21:41:24,16,0,23.566,6722.1746718025,181.430452,0.6263432,1.98113851484,0,0,-0.671082,53.3, 2, 2,0,0,1024,1024,1024,1024,54.4,-89.9,95,3.931,3.926,3.896,3.915,3.946,3.936,17.791,84.2,14,Waypoint,
36.0257484,-118.5730068,6723.1589238025,182.414704,0,1.36667983376,24210,2018-07-04 21:41:24,16,0,23.566,6723.1589238025,182.414704,0.6263432,1.98113851484,0,0,-0.671082,53.3, 1.9, 1.9,0,0,1024,1024,1024,1024,54.4,-89.9,95,3.931,3.926,3.896,3.915,3.946,3.936,17.791,84.2,14,Waypoint,
36.0257483,-118.5730068,6725.1274278025,184.383208,0,1.33664374356,24310,2018-07-04 21:41:24,16,0,23.566,6725.1274278025,184.383208,0.6263432,1.98113851484,0,0,-0.671082,53.5, 1.7, 1.6,0,0,1024,1024,1024,1024,54.4,-89.9,95,3.931,3.926,3.896,3.915,3.946,3.936,17.791,84.2,14,Waypoint,
36.0257483,-118.5730068,6726.1116798025,185.36746,0,1.33664374356,24410,2018-07-04 21:41:25,16,0,23.566,6726.1116798025,185.36746,0.6263432,1.98113851484,0,0,-0.671082,53.5, 1.7, 1.6,0,0,1024,1024,1024,1024,54.4,-89.9,95,3.931,3.926,3.896,3.915,3.946,3.936,17.791,84.2,14,Waypoint,
36.0257483,-118.5730068,6726.1116798025,185.36746,0,1.33664374356,24510,2018-07-04 21:41:25,16,0,23.566,6726.1116798025,185.36746,0.6263432,1.98113851484,0,0,-0.671082,53.5, 1.7, 1.6,0,0,1024,1024,1024,1024,54.4,-89.9,95,3.931,3.926,3.896,3.915,3.946,3.936,17.791,84.2,14,Waypoint,
36.0257482,-118.5730068,6727.4240158025,186.679796,0,1.30693573736,24610,2018-07-04 21:41:25,16,0,23.566,6727.4240158025,186.679796,0.6263432,1.98113851484,0,0,-0.671082,53.6, 2, 1.6,0,0,1024,1024,1024,1024,54.4,-89.9,95,3.931,3.926,3.896,3.915,3.946,3.936,17.791,84.2,14,Waypoint,
36.0257482,-118.5730068,6728.4082678025,187.664048,0,1.30693573736,24710,2018-07-04 21:41:25,16,0,23.566,6728.4082678025,187.664048,0.6263432,1.98113851484,0,0,-0.671082,53.7, 2.3, 1.5,0,0,1024,1024,1024,1024,54.4,-89.9,95,3.931,3.926,3.896,3.915,3.946,3.936,17.791,84.2,14,Waypoint,
36.0257481,-118.5730068,6729.3925198025,188.6483,0,1.2775755002,24810,2018-07-04 21:41:25,16,0,23.566,6729.3925198025,188.6483,0.6263432,1.98113851484,0,0,-0.671082,53.8, 2.5, 1.2,0,0,1024,1024,1024,1024,54.4,-89.9,95,3.931,3.926,3.896,3.915,3.946,3.936,17.791,84.2,14,Waypoint,
36.0257481,-118.5730067,6730.0486878025,189.304468,0,1.29551185248,24910,2018-07-04 21:41:25,16,0,23.566,6730.0486878025,189.304468,0.6263432,1.98113851484,0,0,-0.671082,53.9, 2.5, 1,0,0,1024,1024,1024,1024,54.4,-89.9,95,3.931,3.926,3.896,3.915,3.946,3.936,17.791,84.2,14,Waypoint,
36.0257481,-118.5730067,6731.0329398025,190.28872,0,1.29551185248,25010,2018-07-04 21:41:25,16,0,23.486,6731.0329398025,190.28872,0.6263432,1.98113851484,0,0,-0.671082,54, 2.8, 1.2,0,0,1024,1024,1024,1024,54.4,-89.9,95,3.911,3.904,3.896,3.909,3.936,3.926,18.824,84.2,14,Waypoint,
36.0257481,-118.5730067,6732.0171918025,191.272972,0,1.29551185248,25110,2018-07-04 21:41:25,16,0,23.486,6732.0171918025,191.272972,0.6263432,1.98113851484,0,0,-0.671082,54.2, 2.7, 1.4,0,0,1024,1024,1024,1024,54.4,-89.9,95,3.911,3.904,3.896,3.909,3.936,3.926,18.824,84.2,14,Waypoint,
36.0257482,-118.5730067,6733.9856958025,193.241476,0,1.32447182716,25310,2018-07-04 21:41:25,16,0,23.486,6733.9856958025,193.241476,0.6263432,1.98113851484,0,0,-0.671082,54.1, 2.5, 2.1,0,0,1024,1024,1024,1024,54.4,-89.9,95,3.911,3.904,3.896,3.909,3.936,3.926,18.824,84.2,14,Waypoint,
36.0257482,-118.5730067,6734.9699478025,194.225728,0,1.32447182716,25410,2018-07-04 21:41:26,16,0,23.486,6734.9699478025,194.225728,0.6263432,1.98113851484,0,0,-0.671082,53.9, 2.4, 2.8,0,0,1024,1024,1024,1024,54.4,-89.9,95,3.911,3.904,3.896,3.909,3.936,3.926,18.824,84.2,14,Waypoint,
36.0257482,-118.5730068,6735.9541998025,195.20998,0,1.30693573736,25510,2018-07-04 21:41:26,16,0,23.486,6735.9541998025,195.20998,0.6263432,1.98113851484,0,0,-0.671082,53.8, 2.4, 3.3,0,0,1024,1024,1024,1024,54.4,-89.9,95,3.911,3.904,3.896,3.909,3.936,3.926,18.824,84.2,14,Waypoint,
36.0257483,-118.5730068,6737.9227038025,197.178484,0,1.33664374356,25710,2018-07-04 21:41:26,16,0,23.486,6737.9227038025,197.178484,0.6263432,1.98113851484,0,0,-0.671082,53.6, 2.4, 2.5,0,0,1024,1024,1024,1024,54.4,-89.9,95,3.911,3.904,3.896,3.909,3.936,3.926,18.824,84.2,14,Waypoint,
36.0257483,-118.5730067,6738.9069558025,198.162736,0,1.35379597508,25810,2018-07-04 21:41:26,16,0,23.486,6738.9069558025,198.162736,0.6263432,1.98113851484,0,0,-0.671082,53.5, 2.4, 2.2,0,0,1024,1024,1024,1024,54.4,-89.9,95,3.911,3.904,3.896,3.909,3.936,3.926,18.824,84.2,14,Waypoint,
36.0257483,-118.5730067,6739.8912078025,199.146988,0,1.35379597508,25910,2018-07-04 21:41:26,16,0,23.486,6739.8912078025,199.146988,0.6263432,1.98113851484,0,0,-0.671082,53.4, 2.2, 1.9,0,0,1024,1024,1024,1024,54.4,-89.9,95,3.911,3.904,3.896,3.909,3.936,3.926,18.824,84.2,14,Waypoint,
36.0257482,-118.5730066,6740.8754598025,200.13124,0,1.34242786448,26010,2018-07-04 21:41:26,16,0,23.505,6740.8754598025,200.13124,0.6263432,1.98113851484,0,0,-0.671082,53.4, 2.3, 1.6,0,0,1024,1024,1024,1024,54.4,-89.9,95,3.92,3.91,3.889,3.898,3.941,3.922,18.502,84.2,14,Waypoint,
36.0257482,-118.5730066,6741.5316278025,200.787408,0,1.34242786448,26110,2018-07-04 21:41:26,16,0,23.505,6741.5316278025,200.787408,0.6263432,1.98113851484,0,0,-0.671082,53.4, 2.4, 1.2,0,0,1024,1024,1024,1024,54.4,-89.9,95,3.92,3.91,3.889,3.898,3.941,3.922,18.502,84.2,14,Waypoint,
36.0257482,-118.5730065,6742.5158798025,201.77166,0,1.36078744512,26210,2018-07-04 21:41:26,16,0,23.505,6742.5158798025,201.77166,0.6263432,1.98113851484,0,0,-0.671082,53.4, 2.4, 1,0,0,1024,1024,1024,1024,54.4,-89.9,95,3.92,3.91,3.889,3.898,3.941,3.922,18.502,84.2,14,Waypoint,
36.0257482,-118.5730065,6743.5001318025,202.755912,0,1.36078744512,26310,2018-07-04 21:41:26,16,0,23.505,6743.5001318025,202.755912,0.6263432,1.98113851484,0,0,-0.671082,53.4, 2.5, 1.2,0,0,1024,1024,1024,1024,54.4,-89.9,95,3.92,3.91,3.889,3.898,3.941,3.922,18.502,84.2,14,Waypoint,
36.0257482,-118.5730065,6744.4843838025,203.740164,0,1.36078744512,26410,2018-07-04 21:41:27,16,0,23.505,6744.4843838025,203.740164,0.6263432,1.98113851484,0,0,-0.671082,53.4, 2.3, 1.1,0,0,1024,1024,1024,1024,54.4,-89.9,95,3.92,3.91,3.889,3.898,3.941,3.922,18.502,84.2,14,Waypoint,
36.0257482,-118.5730065,6745.4686358025,204.724416,0,1.36078744512,26510,2018-07-04 21:41:27,16,0,23.505,6745.4686358025,204.724416,0.6263432,1.98113851484,0,0,-0.671082,53.4, 2.3, 1.1,0,0,1024,1024,1024,1024,54.4,-89.9,95,3.92,3.91,3.889,3.898,3.941,3.922,18.502,84.2,14,Waypoint,
36.0257482,-118.5730065,6746.4528878025,205.708668,0,1.36078744512,26610,2018-07-04 21:41:27,16,0,23.505,6746.4528878025,205.708668,0.6263432,1.98113851484,0,0,-0.671082,53.4, 2.2, 1.3,0,0,1024,1024,1024,1024,54.4,-89.9,95,3.92,3.91,3.889,3.898,3.941,3.922,18.502,84.2,14,Waypoint,
36.0257482,-118.5730065,6747.4371398025,206.69292,0,1.36078744512,26710,2018-07-04 21:41:27,16,0,23.505,6747.4371398025,206.69292,0.6263432,1.98113851484,0,0,-0.671082,53.4, 2.2, 1.3,0,0,1024,1024,1024,1024,54.4,-89.9,95,3.92,3.91,3.889,3.898,3.941,3.922,18.502,84.2,14,Waypoint,
36.0257482,-118.5730065,6748.4213918025,207.677172,0,1.36078744512,26810,2018-07-04 21:41:27,16,0,23.505,6748.4213918025,207.677172,0.6263432,1.98113851484,0,0,-0.671082,53.6, 2.2, 1.4,0,0,1024,1024,1024,1024,54.4,-89.9,95,3.92,3.91,3.889,3.898,3.941,3.922,18.502,84.2,14,Waypoint,
36.0257482,-118.5730066,6749.7337278025,208.989508,0,1.34242786448,26910,2018-07-04 21:41:27,16,0,23.505,6749.7337278025,208.989508,0.6263432,1.98113851484,0,0,-0.671082,53.7, 2.2, 1.6,0,0,1024,1024,1024,1024,54.4,-89.9,95,3.92,3.91,3.889,3.898,3.941,3.922,18.502,84.2,14,Waypoint,
36.0257482,-118.5730067,6751.7022318025,210.958012,0,1.32447182716,27010,2018-07-04 21:41:27,16,0,23.423,6751.7022318025,210.958012,0.6263432,1.98113851484,0,0,-0.671082,53.8, 2.1, 2,0,0,1024,1024,1024,1024,54.4,-89.9,95,3.92,3.91,3.889,3.898,3.941,3.922,19.096,84.2,14,Waypoint,
36.0257483,-118.5730067,6752.6864838025,211.942264,0,1.35379597508,27210,2018-07-04 21:41:27,16,0,23.423,6752.6864838025,211.942264,0.6263432,1.98113851484,0,0,-0.671082,53.9, 2, 2.1,0,0,1024,1024,1024,1024,54.4,-89.9,95,3.92,3.91,3.889,3.898,3.941,3.922,19.096,84.2,14,Waypoint,
36.0257483,-118.5730068,6753.6707358025,212.926516,0,1.33664374356,27310,2018-07-04 21:41:27,16,0,23.423,6753.6707358025,212.926516,0.6263432,1.98113851484,0,0,-0.671082,53.9, 2, 2.3,0,0,1024,1024,1024,1024,54.4,-89.9,95,3.92,3.91,3.889,3.898,3.941,3.922,19.096,84.2,14,Waypoint,
36.0257483,-118.5730069,6754.6549878025,213.910768,0,1.31992786376,27410,2018-07-04 21:41:28,16,0,23.423,6754.6549878025,213.910768,0.6263432,1.98113851484,0,0,-0.671082,53.8, 1.7, 2.5,0,0,1024,1024,1024,1024,54.4,-90,95,3.92,3.91,3.889,3.898,3.941,3.922,19.096,84.2,14,Waypoint,
