latitude,longitude,altitude(feet),ascent(feet),speed(mph),distance(feet),time(millisecond),datetime(utc),satellites,gpslevel,voltage(v),max_altitude(feet),max_ascent(feet),max_speed(mph),max_distance(feet), xSpeed(mph), ySpeed(mph), zSpeed(mph), compass_heading(degrees), pitch(degrees), roll(degrees),isPhoto,isVideo,rc_elevator,rc_aileron,rc_throttle,rc_rudder,gimbal_heading(degrees),gimbal_pitch(degrees),battery_percent,voltageCell1,voltageCell2,voltageCell3,voltageCell4,voltageCell5,voltageCell6,current(A),battery_temperature(f),flycStateRaw,flycState,message
36.0257433,-118.5730102,6540.6637207842,0,0.4921268,0,3100,2018-07-04 21:58:56,11,0,0,6540.6637207842,0,0.4921268,0,0,0,0,52.7, -1.7, 1.1,1,0,1024,1024,1024,1024,51.8,-89.9,97,4.253,4.242,4.256,4.253,4.256,4.272,0,82.4,11,AutoTakeoff,DJI_0745.jpg Starting Mission from Lat/Long: 36.02574/-118.57301 Camera: Zenmuse X3 - Overlap: 90/90 - Active Connection: No
36.0257434,-118.5730099,6540.6637207842,0,0.671082,0.095745737972,3200,2018-07-04 21:58:56,11,0,0,6540.6637207842,0,0.671082,0.095745737972,0,0,0,53, -0.1, 0.9,0,0,1024,1024,1024,1024,51.8,-89.9,97,4.253,4.242,4.256,4.253,4.256,4.272,0,82.4,11,AutoTakeoff,
36.0257435,-118.5730095,6540.6637207842,0,0.671082,0.2190616868,3300,2018-07-04 21:58:56,11,0,0,6540.6637207842,0,0.671082,0.2190616868,0,0,0,53.3, 1.2, 0.3,0,0,1024,1024,1024,1024,51.8,-89.9,97,4.253,4.242,4.256,4.253,4.256,4.272,0,82.4,11,AutoTakeoff,
36.0257435,-118.5730091,6540.6637207842,0,0.671082,0.33268045684,3400,2018-07-04 21:58:57,11,0,0,6540.6637207842,0,0.671082,0.33268045684,0,0,0,53.6, 2.1, 0,0,0,1024,1024,1024,1024,51.8,-89.9,97,4.253,4.242,4.256,4.253,4.256,4.272,0,82.4,11,AutoTakeoff,
36.0257436,-118.5730088,6540.9918047842,0.328084,0.447388,0.42735565672,3500,2018-07-04 21:58:57,11,0,0,6540.9918047842,0.328084,0.671082,0.42735565672,0,0,0,53.6, 2.5, -0.6,0,0,1024,1024,1024,1024,51.8,-89.9,97,4.253,4.242,4.256,4.253,4.256,4.272,0,82.4,11,AutoTakeoff,
36.0257436,-118.5730085,6540.9918047842,0.328084,0.447388,0.51342521328,3600,2018-07-04 21:58:57,11,0,0,6540.9918047842,0.328084,0.671082,0.51342521328,0,0,0,53.4, 2.7, -1.3,0,0,1024,1024,1024,1024,51.8,-89.9,97,4.253,4.242,4.256,4.253,4.256,4.272,0,82.4,11,AutoTakeoff,
36.0257435,-118.5730083,6541.3198887842,0.656168,0.223694,0.56536747216,3700,2018-07-04 21:58:57,11,0,0,6541.3198887842,0.656168,0.671082,0.56536747216,0,0,0,53.1, 2.1, -1.7,0,0,1024,1024,1024,1024,51.8,-90,97,4.253,4.242,4.256,4.253,4.256,4.272,0,82.4,11,AutoTakeoff,
36.0257434,-118.573008,6541.3198887842,0.656168,0.223694,0.65018374784,3800,2018-07-04 21:58:57,11,0,0,6541.3198887842,0.656168,0.671082,0.65018374784,0,0,0,52.9, 1.4, -1.8,0,0,1024,1024,1024,1024,51.8,-90,97,4.253,4.242,4.256,4.253,4.256,4.272,0,82.4,11,AutoTakeoff,
36.0257433,-118.5730077,6541.6479727842,0.984252,0,0.73768375064,3900,2018-07-04 21:58:57,11,0,0,6541.6479727842,0.984252,0.671082,0.73768375064,0,0,0,52.5, 0.2, -1.2,0,0,1024,1024,1024,1024,51.8,-90,97,4.253,4.242,4.256,4.253,4.256,4.272,0,82.4,11,AutoTakeoff,
36.0257433,-118.5730075,6541.6479727842,0.984252,0,0.79669621972,4000,2018-07-04 21:58:57,11,0,25.649,6541.6479727842,0.984252,0.671082,0.79669621972,0,0,0,52.5, 0, -1.2,0,0,1024,1024,1024,1024,51.8,-90,97,4.253,4.242,4.256,4.253,4.256,4.272,3,82.4,11,AutoTakeoff,
36.0257432,-118.5730074,6541.9760567842,1.312336,0,0.82701118132,4100,2018-07-04 21:58:57,11,0,25.649,6541.9760567842,1.312336,0.671082,0.82701118132,0,0,0,52.5, -0.1, -1.2,0,0,1024,1024,1024,1024,51.8,-89.9,97,4.253,4.242,4.256,4.253,4.256,4.272,3,82.4,11,AutoTakeoff,
36.0257431,-118.5730074,6541.9760567842,1.312336,0,0.82941931788,4200,2018-07-04 21:58:57,11,0,25.649,6541.9760567842,1.312336,0.671082,0.82941931788,0,0,0,52.3, 0, -1.3,0,0,1024,1024,1024,1024,51.8,-89.9,97,4.253,4.242,4.256,4.253,4.256,4.272,3,82.4,11,AutoTakeoff,
36.0257431,-118.5730072,6542.3041407842,1.64042,0,0.8882218132,4400,2018-07-04 21:58:58,11,0,25.649,6542.3041407842,1.64042,0.671082,0.8882218132,0,0,0,52.3, 0.2, -1.6,0,0,1024,1024,1024,1024,51.8,-89.9,97,4.253,4.242,4.256,4.253,4.256,4.272,3,82.4,11,AutoTakeoff,
36.0257431,-118.573007,6542.3041407842,1.64042,0,0.9470472744,4500,2018-07-04 21:58:58,11,0,25.649,6542.3041407842,1.64042,0.671082,0.9470472744,0,0,0,52.2, 0.3, -1.7,0,0,1024,1024,1024,1024,51.8,-89.9,97,4.253,4.242,4.256,4.253,4.256,4.272,3,82.4,11,AutoTakeoff,
36.0257431,-118.5730069,6542.6322247842,1.968504,0,0.97646984752,4600,2018-07-04 21:58:58,11,0,25.649,6542.6322247842,1.968504,0.671082,0.97646984752,0,0,0,52.3, 0.5, -1.7,0,0,1024,1024,1024,1024,51.8,-89.9,97,4.253,4.242,4.256,4.253,4.256,4.272,3,82.4,11,AutoTakeoff,
36.025743,-118.5730068,6542.6322247842,1.968504,0,1.0092027882,4700,2018-07-04 21:58:58,11,0,25.649,6542.6322247842,1.968504,0.671082,1.0092027882,0,0,0,52.3, 0.6, -1.6,0,0,1024,1024,1024,1024,51.8,-89.9,97,4.253,4.242,4.256,4.253,4.256,4.272,3,82.4,11,AutoTakeoff,
36.025743,-118.5730067,6542.9603087842,2.296588,0,1.03854005948,4800,2018-07-04 21:58:58,11,0,25.649,6542.9603087842,2.296588,0.671082,1.03854005948,0,0,0,52.4, 0.6, -1.7,0,0,1024,1024,1024,1024,51.8,-89.9,97,4.253,4.242,4.256,4.253,4.256,4.272,3,82.4,11,AutoTakeoff,
36.0257429,-118.5730067,6542.9603087842,2.296588,0,1.04301512524,4900,2018-07-04 21:58:58,11,0,25.649,6542.9603087842,2.296588,0.671082,1.04301512524,0,0,-0.223694,52.6, 0.5, -1.7,0,0,1024,1024,1024,1024,51.8,-89.9,97,4.253,4.242,4.256,4.253,4.256,4.272,3,82.4,11,AutoTakeoff,
36.0257429,-118.5730067,6543.2883927842,2.624672,0,1.04301512524,5000,2018-07-04 21:58:58,11,0,24.611,6543.2883927842,2.624672,0.671082,1.04301512524,0,0,-0.223694,52.7, 0.4, -1.5,0,0,1024,1024,1024,1024,51.8,-89.9,97,4.075,4.084,4.088,4.081,4.077,4.075,13.998,82.4,11,AutoTakeoff,
36.0257429,-118.5730067,6543.2883927842,2.624672,0,1.04301512524,5100,2018-07-04 21:58:58,11,0,24.611,6543.2883927842,2.624672,0.671082,1.04301512524,0,0,-0.223694,52.8, 0.5, -1.4,0,0,1024,1024,1024,1024,51.8,-89.9,97,4.075,4.084,4.088,4.081,4.077,4.075,13.998,82.4,11,AutoTakeoff,
36.025743,-118.5730068,6543.6164767842,2.952756,0,1.0092027882,5200,2018-07-04 21:58:58,11,0,24.611,6543.6164767842,2.952756,0.671082,1.04301512524,0,0,-0.223694,52.9, 0.5, -1.4,0,0,1024,1024,1024,1024,51.8,-89.9,97,4.075,4.084,4.088,4.081,4.077,4.075,13.998,82.4,14,Waypoint,
36.025743,-118.5730068,6543.9445607842,3.28084,0,1.0092027882,5300,2018-07-04 21:58:58,11,0,24.611,6543.9445607842,3.28084,0.671082,1.04301512524,0,0,0,52.9, 0.3, -1.2,0,0,1024,1024,1024,1024,51.8,-89.9,97,4.075,4.084,4.088,4.081,4.077,4.075,13.998,82.4,14,Waypoint,
36.025743,-118.5730069,6543.9445607842,3.28084,0,0.9798720786,5400,2018-07-04 21:58:59,11,0,24.611,6543.9445607842,3.28084,0.671082,1.04301512524,0,0,0,53, -0.2, -0.7,0,0,1024,1024,1024,1024,51.8,-90,97,4.075,4.084,4.088,4.081,4.077,4.075,13.998,82.4,14,Waypoint,
36.025743,-118.5730069,6544.2726447842,3.608924,0,0.9798720786,5500,2018-07-04 21:58:59,11,0,24.611,6544.2726447842,3.608924,0.671082,1.04301512524,0,0,0,53, -0.5, -0.4,0,0,1024,1024,1024,1024,51.8,-90,97,4.075,4.084,4.088,4.081,4.077,4.075,13.998,82.4,14,Waypoint,
36.0257429,-118.5730069,6544.2726447842,3.608924,0,0.98461617324,5600,2018-07-04 21:58:59,11,0,24.611,6544.2726447842,3.608924,0.671082,1.04301512524,0,0,0,52.9, -0.6, -0.4,0,0,1024,1024,1024,1024,51.8,-89.9,97,4.075,4.084,4.088,4.081,4.077,4.075,13.998,82.4,14,Waypoint,
36.0257429,-118.5730069,6544.6007287842,3.937008,0,0.98461617324,5700,2018-07-04 21:58:59,12,0,24.611,6544.6007287842,3.937008,0.671082,1.04301512524,0,0,0,52.8, -0.5, -0.6,0,0,1024,1024,1024,1024,51.9,-89.9,97,4.075,4.084,4.088,4.081,4.077,4.075,13.998,82.4,14,Waypoint,
36.0257429,-118.5730068,6544.6007287842,3.937008,0,1.01380580672,5800,2018-07-04 21:58:59,12,0,24.611,6544.6007287842,3.937008,0.671082,1.04301512524,0,0,-0.223694,52.7, -0.4, -0.7,0,0,1024,1024,1024,1024,51.9,-89.9,97,4.075,4.084,4.088,4.081,4.077,4.075,13.998,82.4,14,Waypoint,
36.0257429,-118.5730068,6544.9288127842,4.265092,0,1.01380580672,5900,2018-07-04 21:58:59,12,0,24.611,6544.9288127842,4.265092,0.671082,1.04301512524,0,0,-0.223694,52.6, -0.2, -0.8,0,0,1024,1024,1024,1024,51.9,-89.9,97,4.075,4.084,4.088,4.081,4.077,4.075,13.998,82.4,14,Waypoint,
36.0257429,-118.5730068,6545.2568967842,4.593176,0,1.01380580672,6000,2018-07-04 21:58:59,12,0,24.276,6545.2568967842,4.593176,0.671082,1.04301512524,0,0,-0.223694,52.5, 0, -0.8,0,0,1024,1024,1024,1024,51.9,-89.9,97,4.021,4.051,4.051,4.036,4.033,4.038,16.909,82.4,14,Waypoint,
36.0257429,-118.5730069,6545.5849807842,4.92126,0,0.98461617324,6100,2018-07-04 21:58:59,12,0,24.276,6545.5849807842,4.92126,0.671082,1.04301512524,0,0,-0.223694,52.5, 0.1, -0.8,0,0,1024,1024,1024,1024,51.9,-89.9,97,4.021,4.051,4.051,4.036,4.033,4.038,16.909,82.4,14,Waypoint,
36.0257429,-118.5730069,6546.2411487842,5.577428,0,0.98461617324,6200,2018-07-04 21:58:59,12,0,24.276,6546.2411487842,5.577428,0.671082,1.04301512524,0,0,-0.223694,52.6, 0, -0.7,0,0,1024,1024,1024,1024,51.9,-89.9,97,4.021,4.051,4.051,4.036,4.033,4.038,16.909,82.4,14,Waypoint,
36.025743,-118.5730069,6546.5692327842,5.905512,0,0.9798720786,6300,2018-07-04 21:58:59,11,0,24.276,6546.5692327842,5.905512,0.671082,1.04301512524,0,0,-0.223694,52.6, 0, -0.5,0,0,1024,1024,1024,1024,51.9,-89.9,97,4.021,4.051,4.051,4.036,4.033,4.038,16.909,82.4,14,Waypoint,
36.0257431,-118.5730071,6547.8815687842,7.217848,0,0.91763126296,6400,2018-07-04 21:59:00,12,0,24.276,6547.8815687842,7.217848,0.671082,1.04301512524,0,0,-0.447388,52.8, 0, -0.6,0,0,1024,1024,1024,1024,52,-89.9,97,4.021,4.051,4.051,4.036,4.033,4.038,16.909,82.4,14,Waypoint,
36.025743,-118.5730071,6548.5377367842,7.874016,0,0.92125002948,6500,2018-07-04 21:59:00,12,0,24.276,6548.5377367842,7.874016,0.671082,1.04301512524,0,0,-0.447388,53.1, 0, -0.4,0,0,1024,1024,1024,1024,52,-89.9,97,4.021,4.051,4.051,4.036,4.033,4.038,16.909,82.4,14,Waypoint,
36.0257429,-118.5730072,6549.1939047842,8.530184,0,0.89716866388,6600,2018-07-04 21:59:00,12,0,24.276,6549.1939047842,8.530184,0.671082,1.04301512524,0,0,-0.447388,53.3, 0, -0.4,0,0,1024,1024,1024,1024,52,-89.9,97,4.021,4.051,4.051,4.036,4.033,4.038,16.909,82.4,14,Waypoint,
36.0257429,-118.5730073,6549.8500727842,9.186352,0,0.86806761308,6700,2018-07-04 21:59:00,12,0,24.276,6549.8500727842,9.186352,0.671082,1.04301512524,0,0,-0.447388,53.3, -0.1, -0.3,0,0,1024,1024,1024,1024,52,-90,97,4.021,4.051,4.051,4.036,4.033,4.038,16.909,82.4,14,Waypoint,
36.0257429,-118.5730073,6550.8343247842,10.170604,0,0.86806761308,6800,2018-07-04 21:59:00,12,0,24.276,6550.8343247842,10.170604,0.671082,1.04301512524,0,0,-0.671082,53.3, -0.5, 0,0,0,1024,1024,1024,1024,52,-90,97,4.021,4.051,4.051,4.036,4.033,4.038,16.909,82.4,14,Waypoint,
36.0257429,-118.5730074,6551.8185767842,11.154856,0,0.83899608984,6900,2018-07-04 21:59:00,12,0,24.276,6551.8185767842,11.154856,0.671082,1.04301512524,0,0,-0.671082,53, -0.8, 0.1,0,0,1024,1024,1024,1024,52,-90,97,4.021,4.051,4.051,4.036,4.033,4.038,16.909,82.4,14,Waypoint,
36.0257428,-118.5730074,6552.8028287842,12.139108,0,0.84610567012,7100,2018-07-04 21:59:00,12,0,24.276,6552.8028287842,12.139108,0.671082,1.04301512524,0,0,-0.671082,52.8, -0.6, 0.3,0,0,1024,1024,1024,1024,52,-89.9,97,4.021,4.051,4.051,4.036,4.033,4.038,16.909,82.4,14,Waypoint,
36.0257428,-118.5730075,6553.7870807842,13.12336,0,0.81731629912,7200,2018-07-04 21:59:00,12,0,24.276,6553.7870807842,13.12336,0.671082,1.04301512524,0,0,-0.671082,52.7, -0.4, 0.4,0,0,1024,1024,1024,1024,52,-89.9,97,4.021,4.051,4.051,4.036,4.033,4.038,16.909,82.4,14,Waypoint,
36.0257427,-118.5730075,6554.7713327842,14.107612,0,0.82622377972,7300,2018-07-04 21:59:00,12,0,24.276,6554.7713327842,14.107612,0.671082,1.04301512524,0,0,-0.671082,52.7, -0.2, 0.2,0,0,1024,1024,1024,1024,52,-89.9,97,4.021,4.051,4.051,4.036,4.033,4.038,16.909,82.4,14,Waypoint,
36.0257427,-118.5730075,6555.7555847842,15.091864,0,0.82622377972,7400,2018-07-04 21:59:01,12,0,24.276,6555.7555847842,15.091864,0.671082,1.04301512524,0,0,-0.671082,52.7, 0, 0,0,0,1024,1024,1024,1024,51.9,-89.9,97,4.021,4.051,4.051,4.036,4.033,4.038,16.909,82.4,14,Waypoint,
36.0257426,-118.5730074,6557.0679207842,16.4042,0,0.86477693056,7500,2018-07-04 21:59:01,12,0,24.276,6557.0679207842,16.4042,0.671082,1.04301512524,0,0,-0.671082,52.8, 0.1, 0,0,0,1024,1024,1024,1024,52,-89.9,97,4.021,4.051,4.051,4.036,4.033,4.038,16.909,82.4,14,Waypoint,
36.0257425,-118.5730073,6558.0521727842,17.388452,0,0.90412076384,7600,2018-07-04 21:59:01,12,0,24.276,6558.0521727842,17.388452,0.671082,1.04301512524,0,0,-0.671082,52.8, 0.3, -0.3,0,0,1024,1024,1024,1024,52,-89.9,97,4.021,4.051,4.051,4.036,4.033,4.038,16.909,82.4,14,Waypoint,
36.0257424,-118.5730073,6559.3645087842,18.700788,0,0.9165518666,7700,2018-07-04 21:59:01,12,0,24.276,6559.3645087842,18.700788,0.671082,1.04301512524,0,0,-0.671082,52.9, 0.4, -0.6,0,0,1024,1024,1024,1024,51.9,-89.9,97,4.021,4.051,4.051,4.036,4.033,4.038,16.909,82.4,14,Waypoint,
36.0257424,-118.5730072,6560.3487607842,19.68504,0,0.9441601352,7800,2018-07-04 21:59:01,12,0,24.276,6560.3487607842,19.68504,0.671082,1.04301512524,0,0,-0.671082,52.9, 0.5, -0.9,0,0,1024,1024,1024,1024,52,-89.9,97,4.021,4.051,4.051,4.036,4.033,4.038,16.909,82.4,14,Waypoint,
36.0257423,-118.5730072,6561.6610967842,20.997376,0,0.95745737972,7900,2018-07-04 21:59:01,12,0,24.276,6561.6610967842,20.997376,0.671082,1.04301512524,0,0,-0.671082,52.9, 0.5, -1.1,0,0,1024,1024,1024,1024,52,-89.9,97,4.021,4.051,4.051,4.036,4.033,4.038,16.909,82.4,14,Waypoint,
36.0257424,-118.5730072,6562.6453487842,21.981628,0,0.9441601352,8000,2018-07-04 21:59:01,12,0,23.741,6562.6453487842,21.981628,0.671082,1.04301512524,0,0,-0.671082,52.9, 0.4, -1.1,0,0,1024,1024,1024,1024,52,-89.9,97,3.934,3.937,3.951,3.934,3.928,3.936,23.014,82.4,14,Waypoint,
36.0257424,-118.5730073,6563.9576847842,23.293964,0,0.9165518666,8100,2018-07-04 21:59:01,13,0,23.741,6563.9576847842,23.293964,0.671082,1.04301512524,0,0,-0.671082,53, 0.3, -0.7,0,0,1024,1024,1024,1024,52,-89.9,97,3.934,3.937,3.951,3.934,3.928,3.936,23.014,82.4,14,Waypoint,
36.0257424,-118.5730073,6564.9419367842,24.278216,0,0.9165518666,8200,2018-07-04 21:59:01,13,0,23.741,6564.9419367842,24.278216,0.671082,1.04301512524,0,0,-0.671082,53, 0.2, -0.2,0,0,1024,1024,1024,1024,52,-89.9,97,3.934,3.937,3.951,3.934,3.928,3.936,23.014,82.4,14,Waypoint,
36.0257425,-118.5730072,6565.9261887842,25.262468,0,0.93209648652,8300,2018-07-04 21:59:01,13,0,23.741,6565.9261887842,25.262468,0.671082,1.04301512524,0,0,-0.671082,53, 0.2, 0,0,0,1024,1024,1024,1024,52,-89.9,97,3.934,3.937,3.951,3.934,3.928,3.936,23.014,82.4,14,Waypoint,
36.0257426,-118.5730072,6567.2385247842,26.574804,0,0.9213254888,8400,2018-07-04 21:59:02,13,0,23.741,6567.2385247842,26.574804,0.671082,1.04301512524,0,0,-0.671082,53, 0.2, 0,0,0,1024,1024,1024,1024,51.9,-89.9,97,3.934,3.937,3.951,3.934,3.928,3.936,23.014,82.4,14,Waypoint,
36.0257427,-118.5730072,6568.2227767842,27.559056,0,0.91188651212,8500,2018-07-04 21:59:02,13,0,23.741,6568.2227767842,27.559056,0.671082,1.04301512524,0,0,-0.671082,53, 0.3, 0,0,0,1024,1024,1024,1024,52,-89.9,97,3.934,3.937,3.951,3.934,3.928,3.936,23.014,82.4,14,Waypoint,
36.0257428,-118.5730072,6569.2070287842,28.543308,0,0.90381892656,8600,2018-07-04 21:59:02,13,0,23.741,6569.2070287842,28.543308,0.671082,1.04301512524,0,0,-0.671082,53.2, 0.7, 0.2,0,0,1024,1024,1024,1024,52,-89.9,97,3.934,3.937,3.951,3.934,3.928,3.936,23.014,82.4,14,Waypoint,
36.0257431,-118.5730072,6571.5036167842,30.839896,0,0.8882218132,8700,2018-07-04 21:59:02,13,0,23.741,6571.5036167842,30.839896,0.671082,1.04301512524,0,0,-0.671082,53.3, 1.1, -0.1,0,0,1024,1024,1024,1024,52,-89.9,97,3.934,3.937,3.951,3.934,3.928,3.936,23.014,82.4,14,Waypoint,
36.0257432,-118.5730072,6572.8159527842,32.152232,0,0.88597115696,8800,2018-07-04 21:59:02,13,0,23.741,6572.8159527842,32.152232,0.671082,1.04301512524,0,0,-0.671082,53.3, 0.9, 0,0,0,1024,1024,1024,1024,52,-89.9,97,3.934,3.937,3.951,3.934,3.928,3.936,23.014,82.4,14,Waypoint,
36.0257434,-118.5730071,6573.8002047842,33.136484,0,0.9154527852,8900,2018-07-04 21:59:02,13,0,23.741,6573.8002047842,33.136484,0.671082,1.04301512524,0,0,-0.671082,53.4, 0.8, 0.1,0,0,1024,1024,1024,1024,52,-89.9,97,3.934,3.937,3.951,3.934,3.928,3.936,23.014,82.4,14,Waypoint,
36.0257435,-118.5730071,6574.7844567842,34.120736,0,0.91763126296,9000,2018-07-04 21:59:02,13,0,23.679,6574.7844567842,34.120736,0.671082,1.04301512524,0,0,-0.671082,53.5, 0.9, 0.1,0,0,1024,1024,1024,1024,52,-89.9,97,3.916,3.942,3.961,3.971,3.949,3.971,22.002,82.4,14,Waypoint,
36.0257435,-118.5730071,6575.7687087842,35.104988,0,0.91763126296,9100,2018-07-04 21:59:02,13,0,23.679,6575.7687087842,35.104988,0.671082,1.04301512524,0,0,-0.671082,53.5, 1.2, 0.2,0,0,1024,1024,1024,1024,52,-89.9,97,3.916,3.942,3.961,3.971,3.949,3.971,22.002,82.4,14,Waypoint,
36.0257436,-118.5730072,6577.0810447842,36.417324,0,0.89195868996,9300,2018-07-04 21:59:02,13,0,23.679,6577.0810447842,36.417324,0.671082,1.04301512524,0,0,-0.671082,53.4, 1.1, 0.1,0,0,1024,1024,1024,1024,52,-89.9,97,3.916,3.942,3.961,3.971,3.949,3.971,22.002,82.4,14,Waypoint,
36.0257437,-118.5730071,6578.0652967842,37.401576,0,0.9262959614,9400,2018-07-04 21:59:03,13,0,23.679,6578.0652967842,37.401576,0.671082,1.04301512524,0,0,-0.671082,53.3, 1.1, 0.1,0,0,1024,1024,1024,1024,52,-89.9,97,3.916,3.942,3.961,3.971,3.949,3.971,22.002,82.4,14,Waypoint,
36.0257438,-118.5730071,6579.0495487842,38.385828,0,0.93273953116,9500,2018-07-04 21:59:03,13,0,23.679,6579.0495487842,38.385828,0.671082,1.04301512524,0,0,-0.671082,53.2, 1.2, 0.2,0,0,1024,1024,1024,1024,52,-89.9,97,3.916,3.942,3.961,3.971,3.949,3.971,22.002,82.4,14,Waypoint,
36.0257439,-118.5730071,6580.0338007842,39.37008,0,0.94055449204,9600,2018-07-04 21:59:03,13,0,23.679,6580.0338007842,39.37008,0.671082,1.04301512524,0,0,-0.671082,53.1, 1.2, 0,0,0,1024,1024,1024,1024,52,-89.9,97,3.916,3.942,3.961,3.971,3.949,3.971,22.002,82.4,14,Waypoint,
36.025744,-118.5730071,6581.0180527842,40.354332,0,0.94971131648,9700,2018-07-04 21:59:03,13,0,23.679,6581.0180527842,40.354332,0.671082,1.04301512524,0,0,-0.671082,53, 1.2, 0,0,0,1024,1024,1024,1024,52,-89.9,97,3.916,3.942,3.961,3.971,3.949,3.971,22.002,82.4,14,Waypoint,
36.0257441,-118.5730071,6581.6742207842,41.0105,0,0.96016407272,9800,2018-07-04 21:59:03,13,0,23.679,6581.6742207842,41.0105,0.671082,1.04301512524,0,0,-0.671082,52.8, 1.2, 0,0,0,1024,1024,1024,1024,52,-89.9,97,3.916,3.942,3.961,3.971,3.949,3.971,22.002,82.4,14,Waypoint,
36.0257442,-118.5730071,6582.6584727842,41.994752,0,0.97187667152,9900,2018-07-04 21:59:03,12,0,23.679,6582.6584727842,41.994752,0.671082,1.04301512524,0,0,-0.671082,52.8, 1.4, 0.3,0,0,1024,1024,1024,1024,52,-89.9,97,3.916,3.942,3.961,3.971,3.949,3.971,22.002,82.4,14,Waypoint,
36.0257443,-118.5730071,6583.6427247842,42.979004,0,0.98480318112,10000,2018-07-04 21:59:03,12,0,23.817,6583.6427247842,42.979004,0.671082,1.04301512524,0,0,-0.671082,52.7, 1.8, 0.7,0,0,1024,1024,1024,1024,52,-89.9,97,3.952,3.977,3.979,3.977,3.951,3.97,19.13,82.4,14,Waypoint,
36.0257444,-118.5730071,6584.6269767842,43.963256,0,0.99889766976,10100,2018-07-04 21:59:03,13,0,23.817,6584.6269767842,43.963256,0.671082,1.04301512524,0,0,-0.671082,52.6, 1.9, 0.9,0,0,1024,1024,1024,1024,52,-89.9,97,3.952,3.977,3.979,3.977,3.951,3.97,19.13,82.4,14,Waypoint,
36.0257444,-118.5730071,6585.6112287842,44.947508,0,0.99889766976,10200,2018-07-04 21:59:03,13,0,23.817,6585.6112287842,44.947508,0.671082,1.04301512524,0,0,-0.671082,52.5, 1.8, 0.7,0,0,1024,1024,1024,1024,52,-89.9,97,3.952,3.977,3.979,3.977,3.951,3.97,19.13,82.4,14,Waypoint,
36.0257445,-118.5730071,6586.5954807842,45.93176,0,1.01410436316,10300,2018-07-04 21:59:03,14,0,23.817,6586.5954807842,45.93176,0.671082,1.04301512524,0,0,-0.671082,52.5, 1.6, 0.6,0,0,1024,1024,1024,1024,52,-89.9,97,3.952,3.977,3.979,3.977,3.951,3.97,19.13,82.4,14,Waypoint,
36.0257445,-118.5730071,6587.5797327842,46.916012,0,1.01410436316,10400,2018-07-04 21:59:04,14,0,23.817,6587.5797327842,46.916012,0.671082,1.04301512524,0,0,-0.671082,52.6, 1.4, 0.6,0,0,1024,1024,1024,1024,52,-89.9,97,3.952,3.977,3.979,3.977,3.951,3.97,19.13,82.4,14,Waypoint,
36.0257445,-118.5730071,6588.5639847842,47.900264,0,1.01410436316,10500,2018-07-04 21:59:04,14,0,23.817,6588.5639847842,47.900264,0.671082,1.04301512524,0,0,-0.671082,52.7, 1, 0.7,0,0,1024,1024,1024,1024,52,-90,97,3.952,3.977,3.979,3.977,3.951,3.97,19.13,82.4,14,Waypoint,
36.0257445,-118.5730071,6589.5482367842,48.884516,0,1.01410436316,10600,2018-07-04 21:59:04,14,0,23.817,6589.5482367842,48.884516,0.671082,1.04301512524,0,0,-0.671082,52.9, 0.7, 0.9,0,0,1024,1024,1024,1024,52,-90,97,3.952,3.977,3.979,3.977,3.951,3.97,19.13,82.4,14,Waypoint,
36.0257445,-118.5730071,6590.5324887842,49.868768,0,1.01410436316,10700,2018-07-04 21:59:04,14,0,23.817,6590.5324887842,49.868768,0.671082,1.04301512524,0,0,-0.671082,53, 0.8, 1.1,0,0,1024,1024,1024,1024,52,-89.9,97,3.952,3.977,3.979,3.977,3.951,3.97,19.13,82.4,14,Waypoint,
36.0257445,-118.5730072,6591.5167407842,50.85302,0,0.98757221008,10800,2018-07-04 21:59:04,14,0,23.817,6591.5167407842,50.85302,0.671082,1.04301512524,0,0,-0.671082,53.1, 1, 1.2,0,0,1024,1024,1024,1024,52,-89.9,97,3.952,3.977,3.979,3.977,3.951,3.97,19.13,82.4,14,Waypoint,
36.0257444,-118.5730071,6592.5009927842,51.837272,0,0.99889766976,10900,2018-07-04 21:59:04,13,0,23.817,6592.5009927842,51.837272,0.671082,1.04301512524,0,0,-0.671082,53, 1.1, 0.8,0,0,1024,1024,1024,1024,52,-89.9,97,3.952,3.977,3.979,3.977,3.951,3.97,19.13,82.4,14,Waypoint,
36.0257444,-118.5730071,6593.4852447842,52.821524,0,0.99889766976,11000,2018-07-04 21:59:04,13,0,23.795,6593.4852447842,52.821524,0.671082,1.04301512524,0,0,-0.671082,53.1, 1, 0.8,0,0,1024,1024,1024,1024,52,-89.9,97,3.958,3.968,3.976,3.972,3.947,3.968,19.068,82.4,14,Waypoint,
36.0257443,-118.5730071,6595.7818327842,55.118112,0.223694,0.98480318112,11100,2018-07-04 21:59:04,14,0,23.795,6595.7818327842,55.118112,0.671082,1.04301512524,0,0,-0.671082,53.6, 0.9, 0,0,0,1024,1024,1024,1024,52,-89.9,97,3.958,3.968,3.976,3.972,3.947,3.968,19.068,82.4,14,Waypoint,
36.025744,-118.5730069,6597.7503367842,57.086616,0.3131716,1.0066765414,11300,2018-07-04 21:59:04,14,0,23.795,6597.7503367842,57.086616,0.671082,1.04301512524,0,0,-0.671082,53.7, 1.1, -1,0,0,1024,1024,1024,1024,52,-89.9,97,3.958,3.968,3.976,3.972,3.947,3.968,19.068,82.4,14,Waypoint,
36.0257439,-118.5730069,6598.7345887842,58.070868,0.3131716,0.99804465136,11400,2018-07-04 21:59:05,13,0,23.795,6598.7345887842,58.070868,0.671082,1.04301512524,0,0,-0.671082,53.3, 1.9, -1,0,0,1024,1024,1024,1024,52,-89.9,97,3.958,3.968,3.976,3.972,3.947,3.968,19.068,82.4,14,Waypoint,
36.0257438,-118.5730067,6599.7188407842,59.05512,0.3131716,1.04874347188,11500,2018-07-04 21:59:05,13,0,23.795,6599.7188407842,59.05512,0.671082,1.04874347188,0,0,-0.671082,52.9, 2.2, -1,0,0,1024,1024,1024,1024,52,-89.9,97,3.958,3.968,3.976,3.972,3.947,3.968,19.068,82.4,14,Waypoint,
36.0257435,-118.5730065,6602.0154287842,61.351708,0.3131716,1.09420607176,11700,2018-07-04 21:59:05,14,0,23.795,6602.0154287842,61.351708,0.671082,1.09420607176,0,0,-0.671082,52.1, 1.7, -2.2,0,0,1024,1024,1024,1024,52,-89.9,97,3.958,3.968,3.976,3.972,3.947,3.968,19.068,82.4,14,Waypoint,
36.0257433,-118.5730064,6602.9996807842,62.33596,0.3131716,1.1212762826,11900,2018-07-04 21:59:05,14,0,23.795,6602.9996807842,62.33596,0.671082,1.1212762826,0,0,-0.671082,51.8, 1.5, -3.1,0,0,1024,1024,1024,1024,52,-89.9,97,3.958,3.968,3.976,3.972,3.947,3.968,19.068,82.4,14,Waypoint,
36.0257431,-118.5730063,6603.9839327842,63.320212,0.223694,1.15309714976,12000,2018-07-04 21:59:05,14,0,23.642,6603.9839327842,63.320212,0.671082,1.15309714976,0,0,-0.671082,51.7, 1.2, -3.8,0,0,1024,1024,1024,1024,52,-89.9,97,3.929,3.943,3.954,3.947,3.935,3.946,20.606,82.4,14,Waypoint,
36.025743,-118.5730062,6604.9681847842,64.304464,0.223694,1.18535764948,12100,2018-07-04 21:59:05,14,0,23.642,6604.9681847842,64.304464,0.671082,1.18535764948,0,0,-0.671082,51.7, 0.9, -4,0,0,1024,1024,1024,1024,52,-90,97,3.929,3.943,3.954,3.947,3.935,3.946,20.606,82.4,14,Waypoint,
36.0257428,-118.5730061,6605.9524367842,65.288716,0.223694,1.2234744486,12200,2018-07-04 21:59:05,14,0,23.642,6605.9524367842,65.288716,0.671082,1.2234744486,0,0,-0.671082,51.7, 0.4, -3.7,0,0,1024,1024,1024,1024,52,-90,97,3.929,3.943,3.954,3.947,3.935,3.946,20.606,82.4,14,Waypoint,
36.0257427,-118.5730061,6606.9366887842,66.272968,0.223694,1.2294455774,12300,2018-07-04 21:59:05,14,0,23.642,6606.9366887842,66.272968,0.671082,1.2294455774,0,0,-0.671082,51.8, 0.1, -3.2,0,0,1024,1024,1024,1024,52,-90,97,3.929,3.943,3.954,3.947,3.935,3.946,20.606,82.4,14,Waypoint,
36.0257425,-118.5730061,6607.9209407842,67.25722,0.223694,1.24451119468,12400,2018-07-04 21:59:06,14,0,23.642,6607.9209407842,67.25722,0.671082,1.24451119468,0,0,-0.671082,51.9, 0.4, -2.3,0,0,1024,1024,1024,1024,52,-89.9,97,3.929,3.943,3.954,3.947,3.935,3.946,20.606,82.4,14,Waypoint,
36.0257424,-118.573006,6609.2332767842,68.569556,0.223694,1.282070251,12500,2018-07-04 21:59:06,14,0,23.642,6609.2332767842,68.569556,0.671082,1.282070251,0,0,-0.671082,52.1, 0.6, -2.3,0,0,1024,1024,1024,1024,52,-89.9,97,3.929,3.943,3.954,3.947,3.935,3.946,20.606,82.4,14,Waypoint,
36.025742,-118.5730058,6610.8736967842,70.209976,0.223694,1.38224413872,12700,2018-07-04 21:59:06,14,0,23.642,6610.8736967842,70.209976,0.671082,1.38224413872,0,0,-0.671082,53, 0.7, -4.3,0,0,1024,1024,1024,1024,52,-89.9,97,3.929,3.943,3.954,3.947,3.935,3.946,20.606,82.4,14,Waypoint,
36.0257418,-118.5730057,6611.8579487842,71.194228,0.223694,1.43618771,12800,2018-07-04 21:59:06,14,0,23.642,6611.8579487842,71.194228,0.671082,1.43618771,0,0,-0.671082,53.4, 0.3, -4.5,0,0,1024,1024,1024,1024,52,-89.9,97,3.929,3.943,3.954,3.947,3.935,3.946,20.606,82.4,14,Waypoint,
36.0257416,-118.5730057,6613.8264527842,73.162732,0,1.46554794716,12900,2018-07-04 21:59:06,15,0,23.642,6613.8264527842,73.162732,0.671082,1.46554794716,0,0,-0.671082,53.5, 0.2, -3.7,0,0,1024,1024,1024,1024,52,-89.9,97,3.929,3.943,3.954,3.947,3.935,3.946,20.606,82.4,14,Waypoint,
36.0257415,-118.5730056,6614.4826207842,73.8189,0,1.50786422148,13100,2018-07-04 21:59:06,15,0,23.642,6614.4826207842,73.8189,0.671082,1.50786422148,0,0,-0.671082,53.5, 0.4, -3.6,0,0,1024,1024,1024,1024,52,-89.9,97,3.929,3.943,3.954,3.947,3.935,3.946,20.606,82.4,14,Waypoint,
36.0257415,-118.5730055,6615.4668727842,74.803152,0,1.53447839556,13200,2018-07-04 21:59:06,15,0,23.642,6615.4668727842,74.803152,0.671082,1.53447839556,0,0,-0.671082,53.3, 0.6, -3.4,0,0,1024,1024,1024,1024,52,-89.9,97,3.929,3.943,3.954,3.947,3.935,3.946,20.606,82.4,14,Waypoint,
36.0257415,-118.5730054,6617.4353767842,76.771656,0,1.56119755652,13300,2018-07-04 21:59:06,15,0,23.642,6617.4353767842,76.771656,0.671082,1.56119755652,0,0,-0.671082,53.1, 1.2, -2.9,0,0,1024,1024,1024,1024,52,-89.9,97,3.929,3.943,3.954,3.947,3.935,3.946,20.606,82.4,14,Waypoint,
36.0257415,-118.5730054,6618.0915447842,77.427824,0,1.56119755652,13400,2018-07-04 21:59:07,15,0,23.642,6618.0915447842,77.427824,0.671082,1.56119755652,0,0,-0.671082,53, 1.2, -2.8,0,0,1024,1024,1024,1024,52,-89.9,97,3.929,3.943,3.954,3.947,3.935,3.946,20.606,82.4,14,Waypoint,
36.0257415,-118.5730053,6619.0757967842,78.412076,0,1.58801842352,13500,2018-07-04 21:59:07,15,0,23.642,6619.0757967842,78.412076,0.671082,1.58801842352,0,0,-0.671082,52.9, 1.3, -2.8,0,0,1024,1024,1024,1024,52,-89.9,97,3.929,3.943,3.954,3.947,3.935,3.946,20.606,82.4,14,Waypoint,
36.0257415,-118.5730052,6620.0600487842,79.396328,0,1.6149278732,13600,2018-07-04 21:59:07,15,0,23.642,6620.0600487842,79.396328,0.671082,1.6149278732,0,0,-0.671082,52.8, 1.4, -3,0,0,1024,1024,1024,1024,52,-89.9,97,3.929,3.943,3.954,3.947,3.935,3.946,20.606,82.4,14,Waypoint,
36.0257415,-118.5730052,6621.0443007842,80.38058,0,1.6149278732,13700,2018-07-04 21:59:07,15,0,23.642,6621.0443007842,80.38058,0.671082,1.6149278732,0,0,-0.671082,52.8, 1.7, -3.3,0,0,1024,1024,1024,1024,52,-89.9,97,3.929,3.943,3.954,3.947,3.935,3.946,20.606,82.4,14,Waypoint,
36.0257415,-118.5730051,6622.0285527842,81.364832,0,1.6419291864,13800,2018-07-04 21:59:07,15,0,23.642,6622.0285527842,81.364832,0.671082,1.6419291864,0,0,-0.671082,52.8, 1.7, -3.3,0,0,1024,1024,1024,1024,52,-89.9,97,3.929,3.943,3.954,3.947,3.935,3.946,20.606,82.4,14,Waypoint,
36.0257415,-118.573005,6623.0128047842,82.349084,0,1.66901580144,14000,2018-07-04 21:59:07,15,0,23.683,6623.0128047842,82.349084,0.671082,1.66901580144,0,0,-0.671082,52.7, 1.5, -2.8,0,0,1024,1024,1024,1024,52,-89.9,96,3.925,3.946,3.956,3.946,3.938,3.944,19.539,82.4,14,Waypoint,
36.0257416,-118.573005,6623.6689727842,83.005252,0,1.65500005296,14100,2018-07-04 21:59:07,15,0,23.683,6623.6689727842,83.005252,0.671082,1.66901580144,0,0,-0.671082,52.6, 1.5, -2.7,0,0,1024,1024,1024,1024,52,-89.9,96,3.925,3.946,3.956,3.946,3.938,3.944,19.539,82.4,14,Waypoint,
36.0257416,-118.573005,6624.6532247842,83.989504,0,1.65500005296,14200,2018-07-04 21:59:07,15,0,23.683,6624.6532247842,83.989504,0.671082,1.66901580144,0,0,-0.671082,52.8, 1.4, -2.6,0,0,1024,1024,1024,1024,52,-89.9,96,3.925,3.946,3.956,3.946,3.938,3.944,19.539,82.4,14,Waypoint,
36.0257417,-118.573005,6625.6374767842,84.973756,0,1.64167328088,14300,2018-07-04 21:59:07,15,0,23.683,6625.6374767842,84.973756,0.671082,1.66901580144,0,0,-0.671082,53, 1.5, -2.3,0,0,1024,1024,1024,1024,52,-89.9,96,3.925,3.946,3.956,3.946,3.938,3.944,19.539,82.4,14,Waypoint,
36.0257418,-118.573005,6626.2936447842,85.629924,0,1.62905845108,14400,2018-07-04 21:59:08,15,0,23.683,6626.2936447842,85.629924,0.671082,1.66901580144,0,0,-0.671082,53, 1.9, -2,0,0,1024,1024,1024,1024,52,-89.9,96,3.925,3.946,3.956,3.946,3.938,3.944,19.539,82.4,14,Waypoint,
36.0257419,-118.573005,6627.2778967842,86.614176,0,1.61716540608,14500,2018-07-04 21:59:08,15,0,23.683,6627.2778967842,86.614176,0.671082,1.66901580144,0,0,-0.671082,53, 2.2, -1.9,0,0,1024,1024,1024,1024,52,-89.9,96,3.925,3.946,3.956,3.946,3.938,3.944,19.539,82.4,14,Waypoint,
36.025742,-118.573005,6628.2621487842,87.598428,0,1.60601383092,14600,2018-07-04 21:59:08,15,0,23.683,6628.2621487842,87.598428,0.671082,1.66901580144,0,0,-0.671082,53, 2.2, -1.7,0,0,1024,1024,1024,1024,52,-89.9,96,3.925,3.946,3.956,3.946,3.938,3.944,19.539,82.4,14,Waypoint,
36.025742,-118.5730049,6629.2464007842,88.58268,0,1.63422905492,14700,2018-07-04 21:59:08,15,0,23.683,6629.2464007842,88.58268,0.671082,1.66901580144,0,0,-0.671082,52.9, 2.2, -1.8,0,0,1024,1024,1024,1024,52,-89.9,96,3.925,3.946,3.956,3.946,3.938,3.944,19.539,82.4,14,Waypoint,
36.0257421,-118.5730049,6630.2306527842,89.566932,0,1.6240158,14800,2018-07-04 21:59:08,15,0,23.683,6630.2306527842,89.566932,0.671082,1.66901580144,0,0,-0.671082,53, 2.2, -2.2,0,0,1024,1024,1024,1024,52,-89.9,96,3.925,3.946,3.956,3.946,3.938,3.944,19.539,82.4,14,Waypoint,
36.0257422,-118.5730049,6631.2149047842,90.551184,0,1.61456369996,14900,2018-07-04 21:59:08,15,0,23.683,6631.2149047842,90.551184,0.671082,1.66901580144,0,0,-0.671082,53, 2.3, -2.3,0,0,1024,1024,1024,1024,52,-89.9,96,3.925,3.946,3.956,3.946,3.938,3.944,19.539,82.4,14,Waypoint,
36.0257423,-118.5730048,6632.1991567842,91.535436,0,1.63463259824,15000,2018-07-04 21:59:08,15,0,23.694,6632.1991567842,91.535436,0.671082,1.66901580144,0,0,-0.671082,53.1, 2.7, -2.3,0,0,1024,1024,1024,1024,52,-89.9,96,3.904,3.943,3.942,3.949,3.924,3.929,20.193,82.4,14,Waypoint,
36.0257424,-118.5730048,6633.1834087842,92.519688,0,1.62687669248,15100,2018-07-04 21:59:08,15,0,23.694,6633.1834087842,92.519688,0.671082,1.66901580144,0,0,-0.671082,53, 3, -2.2,0,0,1024,1024,1024,1024,52,-89.9,96,3.904,3.943,3.942,3.949,3.924,3.929,20.193,82.4,14,Waypoint,
36.0257425,-118.5730048,6634.1676607842,93.50394,0,1.61990818832,15200,2018-07-04 21:59:08,15,0,23.694,6634.1676607842,93.50394,0.671082,1.66901580144,0,0,-0.671082,52.9, 3, -2.1,0,0,1024,1024,1024,1024,52,-89.9,96,3.904,3.943,3.942,3.949,3.924,3.929,20.193,82.4,14,Waypoint,
36.0257425,-118.5730048,6635.1519127842,94.488192,0,1.61990818832,15300,2018-07-04 21:59:08,15,0,23.694,6635.1519127842,94.488192,0.671082,1.66901580144,0,0,-0.671082,52.8, 2.8, -2.1,0,0,1024,1024,1024,1024,52,-89.9,96,3.904,3.943,3.942,3.949,3.924,3.929,20.193,82.4,14,Waypoint,
36.0257426,-118.5730048,6636.1361647842,95.472444,0,1.61373364744,15400,2018-07-04 21:59:09,15,0,23.694,6636.1361647842,95.472444,0.671082,1.66901580144,0,0,-0.671082,52.8, 2.8, -2.2,0,0,1024,1024,1024,1024,52,-89.9,96,3.904,3.943,3.942,3.949,3.924,3.929,20.193,82.4,14,Waypoint,
36.0257427,-118.5730048,6637.1204167842,96.456696,0,1.60836291236,15500,2018-07-04 21:59:09,15,0,23.694,6637.1204167842,96.456696,0.671082,1.66901580144,0,0,-0.671082,52.7, 2.9, -2,0,0,1024,1024,1024,1024,52,-89.9,96,3.904,3.943,3.942,3.949,3.924,3.929,20.193,82.4,14,Waypoint,
36.0257427,-118.5730048,6638.1046687842,97.440948,0,1.60836291236,15600,2018-07-04 21:59:09,15,0,23.694,6638.1046687842,97.440948,0.671082,1.66901580144,0,0,-0.671082,52.5, 2.9, -2,0,0,1024,1024,1024,1024,52,-89.9,96,3.904,3.943,3.942,3.949,3.924,3.929,20.193,82.4,14,Waypoint,
36.0257427,-118.5730048,6640.4012567842,99.737536,0,1.60836291236,15700,2018-07-04 21:59:09,15,0,23.694,6640.4012567842,99.737536,0.671082,1.66901580144,0,0,-0.671082,52.5, 2.2, -3.3,0,0,1024,1024,1024,1024,52,-89.9,96,3.904,3.943,3.942,3.949,3.924,3.929,20.193,82.4,14,Waypoint,
36.0257428,-118.5730048,6641.3855087842,100.721788,0,1.60380254476,15800,2018-07-04 21:59:09,15,0,23.694,6641.3855087842,100.721788,0.671082,1.66901580144,0,0,-0.671082,52.6, 2, -3.5,0,0,1024,1024,1024,1024,52,-89.9,96,3.904,3.943,3.942,3.949,3.924,3.929,20.193,82.4,14,Waypoint,
36.0257428,-118.5730049,6642.6978447842,102.034124,0,1.5744915202,15910,2018-07-04 21:59:09,15,0,23.694,6642.6978447842,102.034124,0.671082,1.66901580144,0,0,-0.671082,52.8, 2, -3.3,0,0,1024,1024,1024,1024,52,-89.9,96,3.904,3.943,3.942,3.949,3.924,3.929,20.193,82.4,14,Waypoint,
36.0257428,-118.5730049,6642.6978447842,102.034124,0,1.5744915202,16000,2018-07-04 21:59:09,15,0,23.612,6642.6978447842,102.034124,0.671082,1.66901580144,0,0,-0.671082,52.8, 2, -3.3,0,0,1024,1024,1024,1024,52,-89.9,96,3.907,3.941,3.94,3.917,3.894,3.925,20.54,82.4,14,Waypoint,
36.0257428,-118.5730049,6643.6820967842,103.018376,0,1.5744915202,16100,2018-07-04 21:59:09,15,0,23.612,6643.6820967842,103.018376,0.671082,1.66901580144,0,0,-0.671082,52.9, 1.9, -3.1,0,0,1024,1024,1024,1024,52,-89.9,96,3.907,3.941,3.94,3.917,3.894,3.925,20.54,82.4,14,Waypoint,
36.0257428,-118.573005,6644.3382647842,103.674544,0,1.54518705732,16200,2018-07-04 21:59:09,15,0,23.612,6644.3382647842,103.674544,0.671082,1.66901580144,0,0,-0.671082,53.1, 1.6, -2.6,0,0,1024,1024,1024,1024,52,-90,96,3.907,3.941,3.94,3.917,3.894,3.925,20.54,82.4,14,Waypoint,
36.0257429,-118.5730051,6645.6506007842,104.98688,0,1.51193246308,16300,2018-07-04 21:59:09,15,0,23.612,6645.6506007842,104.98688,0.671082,1.66901580144,0,0,-0.671082,53.2, 1.5, -2.1,0,0,1024,1024,1024,1024,52,-90,96,3.907,3.941,3.94,3.917,3.894,3.925,20.54,82.4,14,Waypoint,
36.0257429,-118.5730052,6646.3067687842,105.643048,0,1.48256566424,16400,2018-07-04 21:59:10,15,0,23.612,6646.3067687842,105.643048,0.671082,1.66901580144,0,0,-0.671082,53.2, 1.6, -1.9,0,0,1024,1024,1024,1024,52,-89.9,96,3.907,3.941,3.94,3.917,3.894,3.925,20.54,82.4,14,Waypoint,
36.025743,-118.5730053,6647.2910207842,106.6273,0,1.44999348472,16500,2018-07-04 21:59:10,15,0,23.612,6647.2910207842,106.6273,0.671082,1.66901580144,0,0,-0.671082,53.2, 1.6, -1.7,0,0,1024,1024,1024,1024,52,-89.9,96,3.907,3.941,3.94,3.917,3.894,3.925,20.54,82.4,14,Waypoint,
36.0257431,-118.5730054,6648.6033567842,107.939636,0,1.41822839184,16600,2018-07-04 21:59:10,15,0,23.612,6648.6033567842,107.939636,0.671082,1.66901580144,0,0,-0.671082,53.2, 1.7, -1.5,0,0,1024,1024,1024,1024,52,-89.9,96,3.907,3.941,3.94,3.917,3.894,3.925,20.54,82.4,14,Waypoint,
36.0257431,-118.5730055,6649.2595247842,108.595804,0,1.38875988696,16700,2018-07-04 21:59:10,15,0,23.612,6649.2595247842,108.595804,0.671082,1.66901580144,0,0,-0.671082,53.2, 1.9, -1.4,0,0,1024,1024,1024,1024,52,-89.9,96,3.907,3.941,3.94,3.917,3.894,3.925,20.54,82.4,14,Waypoint,
36.0257432,-118.5730056,6650.2437767842,109.580056,0,1.3578248466,16800,2018-07-04 21:59:10,15,0,23.612,6650.2437767842,109.580056,0.671082,1.66901580144,0,0,-0.671082,53.1, 1.9, -1.4,0,0,1024,1024,1024,1024,52,-89.9,96,3.907,3.941,3.94,3.917,3.894,3.925,20.54,82.4,14,Waypoint,
36.0257433,-118.5730056,6651.2280287842,110.564308,0,1.35733600144,16900,2018-07-04 21:59:10,15,0,23.612,6651.2280287842,110.564308,0.671082,1.66901580144,0,0,-0.671082,53, 1.9, -1.5,0,0,1024,1024,1024,1024,52,-89.9,96,3.907,3.941,3.94,3.917,3.894,3.925,20.54,82.4,14,Waypoint,
36.0257433,-118.5730057,6652.2122807842,111.54856,0,1.32782812648,17000,2018-07-04 21:59:10,15,0,23.506,6652.2122807842,111.54856,0.671082,1.66901580144,0,0,-0.671082,53, 1.7, -1.6,0,0,1024,1024,1024,1024,52,-89.9,96,3.904,3.938,3.938,3.929,3.905,3.929,20.739,82.4,14,Waypoint,
36.0257433,-118.5730058,6653.1965327842,112.532812,0,1.29832025152,17100,2018-07-04 21:59:10,15,0,23.506,6653.1965327842,112.532812,0.671082,1.66901580144,0,0,-0.671082,52.9, 1.5, -1.8,0,0,1024,1024,1024,1024,52,-90,96,3.904,3.938,3.938,3.929,3.905,3.929,20.739,82.4,14,Waypoint,
36.0257433,-118.5730058,6654.5088687842,113.845148,0,1.29832025152,17200,2018-07-04 21:59:10,15,0,23.506,6654.5088687842,113.845148,0.671082,1.66901580144,0,0,-0.671082,52.8, 1.4, -2,0,0,1024,1024,1024,1024,52,-90,96,3.904,3.938,3.938,3.929,3.905,3.929,20.739,82.4,14,Waypoint,
36.0257433,-118.573006,6656.1492887842,115.485568,0,1.23930778244,17300,2018-07-04 21:59:10,15,0,23.506,6656.1492887842,115.485568,0.671082,1.66901580144,0,0,-0.671082,52.9, 1.4, -1.8,0,0,1024,1024,1024,1024,52,-89.9,96,3.904,3.938,3.938,3.929,3.905,3.929,20.739,82.4,14,Waypoint,
36.0257434,-118.5730061,6658.1177927842,117.454072,0,1.21034780776,17500,2018-07-04 21:59:11,15,0,23.506,6658.1177927842,117.454072,0.671082,1.66901580144,0,0,-0.671082,53, 1.2, -1.4,0,0,1024,1024,1024,1024,52,-90,96,3.904,3.938,3.938,3.929,3.905,3.929,20.739,82.4,14,Waypoint,
36.0257435,-118.5730062,6660.0862967842,119.422576,0,1.1825459696,17700,2018-07-04 21:59:11,15,0,23.506,6660.0862967842,119.422576,0.671082,1.66901580144,0,0,-0.671082,53.3, 1.3, -0.8,0,0,1024,1024,1024,1024,52,-89.9,96,3.904,3.938,3.938,3.929,3.905,3.929,20.739,82.4,14,Waypoint,
36.0257435,-118.5730063,6661.0705487842,120.406828,0,1.15309714976,17800,2018-07-04 21:59:11,15,0,23.506,6661.0705487842,120.406828,0.671082,1.66901580144,0,0,-0.671082,53.3, 1.3, -0.7,0,0,1024,1024,1024,1024,52,-89.9,96,3.904,3.938,3.938,3.929,3.905,3.929,20.739,82.4,14,Waypoint,
36.0257436,-118.5730063,6662.0548007842,121.39108,0,1.15597772728,17900,2018-07-04 21:59:11,15,0,23.506,6662.0548007842,121.39108,0.671082,1.66901580144,0,0,-0.671082,53.2, 1.3, -0.6,0,0,1024,1024,1024,1024,52,-89.9,96,3.904,3.938,3.938,3.929,3.905,3.929,20.739,82.4,14,Waypoint,
36.0257436,-118.5730063,6663.0390527842,122.375332,0,1.15597772728,18010,2018-07-04 21:59:11,15,0,23.501,6663.0390527842,122.375332,0.671082,1.66901580144,0,0,-0.671082,53.2, 1.5, -0.7,0,0,1024,1024,1024,1024,52,-89.9,96,3.908,3.92,3.911,3.915,3.899,3.911,20.739,82.4,14,Waypoint,
36.0257437,-118.5730063,6664.0233047842,123.359584,0,1.16000003712,18100,2018-07-04 21:59:11,15,0,23.501,6664.0233047842,123.359584,0.671082,1.66901580144,0,0,-0.671082,53.2, 1.7, -0.9,0,0,1024,1024,1024,1024,52,-89.9,96,3.908,3.92,3.911,3.915,3.899,3.911,20.739,82.4,14,Waypoint,
36.0257437,-118.5730063,6665.0075567842,124.343836,0,1.16000003712,18300,2018-07-04 21:59:11,15,0,23.501,6665.0075567842,124.343836,0.671082,1.66901580144,0,0,-0.671082,53.1, 1.9, -1,0,0,1024,1024,1024,1024,52,-89.9,96,3.908,3.92,3.911,3.915,3.899,3.911,20.739,82.4,14,Waypoint,
36.0257437,-118.5730062,6665.9918087842,125.328088,0,1.18928153412,18400,2018-07-04 21:59:12,15,0,23.501,6665.9918087842,125.328088,0.671082,1.66901580144,0,0,-0.671082,53, 2, -0.9,0,0,1024,1024,1024,1024,52,-89.9,96,3.908,3.92,3.911,3.915,3.899,3.911,20.739,82.4,14,Waypoint,
36.0257438,-118.5730062,6666.9760607842,126.31234,0,1.194307781,18500,2018-07-04 21:59:12,15,0,23.501,6666.9760607842,126.31234,0.671082,1.66901580144,0,0,-0.671082,53, 2.1, -0.9,0,0,1024,1024,1024,1024,52,-89.9,96,3.908,3.92,3.911,3.915,3.899,3.911,20.739,82.4,14,Waypoint,
36.0257438,-118.5730061,6667.9603127842,127.296592,0,1.2234744486,18600,2018-07-04 21:59:12,15,0,23.501,6667.9603127842,127.296592,0.671082,1.66901580144,0,0,-0.671082,53, 2.2, -1.1,0,0,1024,1024,1024,1024,52,-89.9,96,3.908,3.92,3.911,3.915,3.899,3.911,20.739,82.4,14,Waypoint,
36.0257438,-118.5730061,6668.9445647842,128.280844,0,1.2234744486,18700,2018-07-04 21:59:12,15,0,23.501,6668.9445647842,128.280844,0.671082,1.66901580144,0,0,-0.671082,53.1, 2.3, -1.6,0,0,1024,1024,1024,1024,52,-89.9,96,3.908,3.92,3.911,3.915,3.899,3.911,20.739,82.4,14,Waypoint,
36.0257438,-118.573006,6669.9288167842,129.265096,0,1.25266080124,18800,2018-07-04 21:59:12,15,0,23.501,6669.9288167842,129.265096,0.671082,1.66901580144,0,0,-0.671082,53.2, 2.6, -1.7,0,0,1024,1024,1024,1024,52,-89.9,96,3.908,3.92,3.911,3.915,3.899,3.911,20.739,82.4,14,Waypoint,
36.0257438,-118.5730059,6670.9130687842,130.249348,0,1.28186027724,18900,2018-07-04 21:59:12,15,0,23.501,6670.9130687842,130.249348,0.671082,1.66901580144,0,0,-0.671082,53.2, 2.7, -1.6,0,0,1024,1024,1024,1024,52,-89.9,96,3.908,3.92,3.911,3.915,3.899,3.911,20.739,82.4,14,Waypoint,
36.0257438,-118.5730058,6671.8973207842,131.2336,0,1.31107615744,19000,2018-07-04 21:59:12,15,0,23.363,6671.8973207842,131.2336,0.671082,1.66901580144,0,0,-0.671082,53.3, 2.6, -1.5,0,0,1024,1024,1024,1024,52,-89.9,96,3.879,3.9,3.9,3.891,3.876,3.904,21.657,82.4,14,Waypoint,
36.0257439,-118.5730058,6672.8815727842,132.217852,0,1.31664702376,19100,2018-07-04 21:59:12,15,0,23.363,6672.8815727842,132.217852,0.671082,1.66901580144,0,0,-0.671082,53.3, 2.5, -1.3,0,0,1024,1024,1024,1024,52,-89.9,96,3.879,3.9,3.9,3.891,3.876,3.904,21.657,82.4,14,Waypoint,
36.0257439,-118.5730057,6673.8658247842,133.202104,0,1.3457513554,19200,2018-07-04 21:59:12,15,0,23.363,6673.8658247842,133.202104,0.671082,1.66901580144,0,0,-0.671082,53.3, 2.7, -1.3,0,0,1024,1024,1024,1024,52,-89.9,96,3.879,3.9,3.9,3.891,3.876,3.904,21.657,82.4,14,Waypoint,
36.0257439,-118.5730057,6675.1781607842,134.51444,0,1.3457513554,19300,2018-07-04 21:59:12,15,0,23.363,6675.1781607842,134.51444,0.671082,1.66901580144,0,0,-0.671082,53.2, 2.9, -1.4,0,0,1024,1024,1024,1024,52,-89.9,96,3.879,3.9,3.9,3.891,3.876,3.904,21.657,82.4,14,Waypoint,
36.0257439,-118.5730057,6676.1624127842,135.498692,0,1.3457513554,19400,2018-07-04 21:59:13,15,0,23.363,6676.1624127842,135.498692,0.671082,1.66901580144,0,0,-0.671082,53.1, 2.8, -1.4,0,0,1024,1024,1024,1024,52,-89.9,96,3.879,3.9,3.9,3.891,3.876,3.904,21.657,82.4,14,Waypoint,
36.0257439,-118.5730057,6677.1466647842,136.482944,0,1.3457513554,19500,2018-07-04 21:59:13,15,0,23.363,6677.1466647842,136.482944,0.671082,1.66901580144,0,0,-0.671082,53, 2.7, -1.5,0,0,1024,1024,1024,1024,52,-89.9,96,3.879,3.9,3.9,3.891,3.876,3.904,21.657,82.4,14,Waypoint,
36.0257439,-118.5730056,6678.1309167842,137.467196,0,1.37487537208,19600,2018-07-04 21:59:13,15,0,23.363,6678.1309167842,137.467196,0.671082,1.66901580144,0,0,-0.671082,52.9, 2.8, -1.4,0,0,1024,1024,1024,1024,52,-89.9,96,3.879,3.9,3.9,3.891,3.876,3.904,21.657,82.4,14,Waypoint,
36.0257439,-118.5730056,6679.1151687842,138.451448,0,1.37487537208,19700,2018-07-04 21:59:13,15,0,23.363,6679.1151687842,138.451448,0.671082,1.66901580144,0,0,-0.671082,52.8, 2.7, -1.5,0,0,1024,1024,1024,1024,52,-89.9,96,3.879,3.9,3.9,3.891,3.876,3.904,21.657,82.4,14,Waypoint,
36.0257439,-118.5730056,6680.0994207842,139.4357,0,1.37487537208,19800,2018-07-04 21:59:13,15,0,23.363,6680.0994207842,139.4357,0.671082,1.66901580144,0,0,-0.671082,52.8, 2.5, -1.7,0,0,1024,1024,1024,1024,52,-89.9,96,3.879,3.9,3.9,3.891,3.876,3.904,21.657,82.4,14,Waypoint,
36.0257439,-118.5730056,6681.0836727842,140.419952,0,1.37487537208,19900,2018-07-04 21:59:13,15,0,23.363,6681.0836727842,140.419952,0.671082,1.66901580144,0,0,-0.671082,52.8, 2.4, -1.6,0,0,1024,1024,1024,1024,52,-89.9,96,3.879,3.9,3.9,3.891,3.876,3.904,21.657,82.4,14,Waypoint,
36.0257439,-118.5730057,6682.0679247842,141.404204,0,1.3457513554,20000,2018-07-04 21:59:13,15,0,23.29,6682.0679247842,141.404204,0.671082,1.66901580144,0,0,-0.671082,52.8, 2.3, -1.5,0,0,1024,1024,1024,1024,52,-89.9,96,3.868,3.893,3.897,3.884,3.868,3.888,22.322,82.4,14,Waypoint,
36.0257439,-118.5730057,6683.0521767842,142.388456,0,1.3457513554,20100,2018-07-04 21:59:13,15,0,23.29,6683.0521767842,142.388456,0.671082,1.66901580144,0,0,-0.671082,52.8, 2.2, -1.2,0,0,1024,1024,1024,1024,52,-89.9,96,3.868,3.893,3.897,3.884,3.868,3.888,22.322,82.4,14,Waypoint,
36.0257439,-118.5730057,6684.3645127842,143.700792,0,1.3457513554,20200,2018-07-04 21:59:13,15,0,23.29,6684.3645127842,143.700792,0.671082,1.66901580144,0,0,-0.671082,52.8, 2, -1.1,0,0,1024,1024,1024,1024,52,-89.9,96,3.868,3.893,3.897,3.884,3.868,3.888,22.322,82.4,14,Waypoint,
36.0257438,-118.5730058,6686.3330167842,145.669296,0,1.31107615744,20300,2018-07-04 21:59:13,15,0,23.29,6686.3330167842,145.669296,0.671082,1.66901580144,0,0,-0.671082,52.7, 2.2, -1.2,0,0,1024,1024,1024,1024,52,-89.9,96,3.868,3.893,3.897,3.884,3.868,3.888,22.322,82.4,14,Waypoint,
36.0257438,-118.5730058,6687.3172687842,146.653548,0,1.31107615744,20400,2018-07-04 21:59:14,15,0,23.29,6687.3172687842,146.653548,0.671082,1.66901580144,0,0,-0.671082,52.7, 2.2, -1.3,0,0,1024,1024,1024,1024,52,-89.9,96,3.868,3.893,3.897,3.884,3.868,3.888,22.322,82.4,14,Waypoint,
36.0257438,-118.5730058,6688.3015207842,147.6378,0,1.31107615744,20500,2018-07-04 21:59:14,15,0,23.29,6688.3015207842,147.6378,0.671082,1.66901580144,0,0,-0.671082,52.7, 2.3, -1.5,0,0,1024,1024,1024,1024,52,-89.9,96,3.868,3.893,3.897,3.884,3.868,3.888,22.322,82.4,14,Waypoint,
36.0257438,-118.5730058,6690.2700247842,149.606304,0,1.31107615744,20700,2018-07-04 21:59:14,15,0,23.29,6690.2700247842,149.606304,0.671082,1.66901580144,0,0,-0.671082,52.8, 2.5, -1.7,0,0,1024,1024,1024,1024,52,-89.9,96,3.868,3.893,3.897,3.884,3.868,3.888,22.322,82.4,14,Waypoint,
36.0257438,-118.5730057,6691.2542767842,150.590556,0,1.34030188016,20900,2018-07-04 21:59:14,15,0,23.29,6691.2542767842,150.590556,0.671082,1.66901580144,0,0,-0.671082,52.9, 2.7, -1.7,0,0,1024,1024,1024,1024,52,-89.9,96,3.868,3.893,3.897,3.884,3.868,3.888,22.322,82.4,14,Waypoint,
36.0257438,-118.5730057,6692.2385287842,151.574808,0,1.34030188016,21000,2018-07-04 21:59:14,15,0,23.327,6692.2385287842,151.574808,0.671082,1.66901580144,0,0,-0.671082,52.9, 2.7, -1.8,0,0,1024,1024,1024,1024,52,-89.9,96,3.874,3.904,3.895,3.886,3.88,3.882,21.858,84.2,14,Waypoint,
36.0257438,-118.5730057,6693.2227807842,152.55906,0,1.34030188016,21100,2018-07-04 21:59:14,15,0,23.327,6693.2227807842,152.55906,0.671082,1.66901580144,0,0,-0.671082,53, 2.8, -1.7,0,0,1024,1024,1024,1024,52,-89.9,96,3.874,3.904,3.895,3.886,3.88,3.882,21.858,84.2,14,Waypoint,
36.0257437,-118.5730057,6694.2070327842,153.543312,0,1.33582353356,21200,2018-07-04 21:59:14,15,0,23.327,6694.2070327842,153.543312,0.671082,1.66901580144,0,0,-0.671082,53, 2.9, -1.6,0,0,1024,1024,1024,1024,52,-89.9,96,3.874,3.904,3.895,3.886,3.88,3.882,21.858,84.2,14,Waypoint,
36.0257437,-118.5730057,6695.1912847842,154.527564,0,1.33582353356,21300,2018-07-04 21:59:14,15,0,23.327,6695.1912847842,154.527564,0.671082,1.66901580144,0,0,-0.671082,53, 2.9, -1.5,0,0,1024,1024,1024,1024,52,-89.9,96,3.874,3.904,3.895,3.886,3.88,3.882,21.858,84.2,14,Waypoint,
36.0257437,-118.5730057,6696.1755367842,155.511816,0,1.33582353356,21400,2018-07-04 21:59:15,15,0,23.327,6696.1755367842,155.511816,0.671082,1.66901580144,0,0,-0.671082,52.9, 2.5, -1.7,0,0,1024,1024,1024,1024,52,-89.9,96,3.874,3.904,3.895,3.886,3.88,3.882,21.858,84.2,14,Waypoint,
36.0257436,-118.5730058,6697.1597887842,156.496068,0,1.30292655088,21500,2018-07-04 21:59:15,15,0,23.327,6697.1597887842,156.496068,0.671082,1.66901580144,0,0,-0.671082,52.8, 2.1, -2,0,0,1024,1024,1024,1024,52,-89.9,96,3.874,3.904,3.895,3.886,3.88,3.882,21.858,84.2,14,Waypoint,
36.0257435,-118.5730058,6698.1440407842,157.48032,0,1.30037077652,21600,2018-07-04 21:59:15,15,0,23.327,6698.1440407842,157.48032,0.671082,1.66901580144,0,0,-0.671082,52.7, 1.9, -2.2,0,0,1024,1024,1024,1024,52,-89.9,96,3.874,3.904,3.895,3.886,3.88,3.882,21.858,84.2,14,Waypoint,
36.0257435,-118.5730059,6699.1282927842,158.464572,0,1.27090883332,21700,2018-07-04 21:59:15,15,0,23.327,6699.1282927842,158.464572,0.671082,1.66901580144,0,0,-0.671082,52.6, 1.8, -2.1,0,0,1024,1024,1024,1024,52,-89.9,96,3.874,3.904,3.895,3.886,3.88,3.882,21.858,84.2,14,Waypoint,
36.0257434,-118.5730059,6700.1125447842,159.448824,0,1.26933731096,21800,2018-07-04 21:59:15,15,0,23.327,6700.1125447842,159.448824,0.671082,1.66901580144,0,0,-0.671082,52.5, 1.9, -2.1,0,0,1024,1024,1024,1024,52,-89.9,96,3.874,3.904,3.895,3.886,3.88,3.882,21.858,84.2,14,Waypoint,
36.0257433,-118.5730059,6701.0967967842,160.433076,0,1.26881237656,21900,2018-07-04 21:59:15,15,0,23.327,6701.0967967842,160.433076,0.671082,1.66901580144,0,0,-0.671082,52.3, 1.7, -2.6,0,0,1024,1024,1024,1024,52,-90,96,3.874,3.904,3.895,3.886,3.88,3.882,21.858,84.2,14,Waypoint,
36.0257432,-118.573006,6701.7529647842,161.089244,0,1.23984255936,22000,2018-07-04 21:59:15,15,0,23.403,6701.7529647842,161.089244,0.671082,1.66901580144,0,0,-0.671082,52.2, 1.3, -2.9,0,0,1024,1024,1024,1024,52,-90,96,3.885,3.912,3.916,3.9,3.881,3.903,20.367,84.2,14,Waypoint,
36.0257431,-118.573006,6702.7372167842,162.073496,0,1.2414534518,22100,2018-07-04 21:59:15,15,0,23.403,6702.7372167842,162.073496,0.671082,1.66901580144,0,0,-0.671082,52.2, 1.3, -2.8,0,0,1024,1024,1024,1024,52,-90,96,3.885,3.912,3.916,3.9,3.881,3.903,20.367,84.2,14,Waypoint,
36.0257431,-118.573006,6703.7214687842,163.057748,0,1.2414534518,22200,2018-07-04 21:59:15,15,0,23.403,6703.7214687842,163.057748,0.671082,1.66901580144,0,0,-0.671082,52.3, 1.7, -2.6,0,0,1024,1024,1024,1024,52,-89.9,96,3.885,3.912,3.916,3.9,3.881,3.903,20.367,84.2,14,Waypoint,
36.025743,-118.573006,6704.7057207842,164.042,0,1.24413061724,22300,2018-07-04 21:59:15,15,0,23.403,6704.7057207842,164.042,0.671082,1.66901580144,0,0,-0.671082,52.4, 1.8, -2.8,0,0,1024,1024,1024,1024,52,-90,96,3.885,3.912,3.916,3.9,3.881,3.903,20.367,84.2,14,Waypoint,
36.0257429,-118.573006,6705.6899727842,165.026252,0,1.24787077484,22400,2018-07-04 21:59:16,15,0,23.403,6705.6899727842,165.026252,0.671082,1.66901580144,0,0,-0.671082,52.6, 1.7, -2.9,0,0,1024,1024,1024,1024,52,-90,96,3.885,3.912,3.916,3.9,3.881,3.903,20.367,84.2,14,Waypoint,
36.0257429,-118.5730061,6707.6584767842,166.994756,0,1.2185695928,22500,2018-07-04 21:59:16,15,0,23.403,6707.6584767842,166.994756,0.671082,1.66901580144,0,0,-0.671082,53, 1.4, -2.4,0,0,1024,1024,1024,1024,52,-89.9,96,3.885,3.912,3.916,3.9,3.881,3.903,20.367,84.2,14,Waypoint,
36.0257429,-118.5730061,6708.6427287842,167.979008,0,1.2185695928,22700,2018-07-04 21:59:16,15,0,23.403,6708.6427287842,167.979008,0.671082,1.66901580144,0,0,-0.671082,53.2, 1.7, -2.3,0,0,1024,1024,1024,1024,52,-89.9,96,3.885,3.912,3.916,3.9,3.881,3.903,20.367,84.2,14,Waypoint,
36.0257428,-118.5730061,6710.6112327842,169.947512,0,1.2234744486,22800,2018-07-04 21:59:16,15,0,23.403,6710.6112327842,169.947512,0.671082,1.66901580144,0,0,-0.671082,53.7, 1.7, -2.2,0,0,1024,1024,1024,1024,52,-89.9,96,3.885,3.912,3.916,3.9,3.881,3.903,20.367,84.2,14,Waypoint,
36.0257428,-118.5730061,6711.5954847842,170.931764,0,1.2234744486,22900,2018-07-04 21:59:16,15,0,23.403,6711.5954847842,170.931764,0.671082,1.66901580144,0,0,-0.671082,53.8, 1.6, -2.1,0,0,1024,1024,1024,1024,52,-89.9,96,3.885,3.912,3.916,3.9,3.881,3.903,20.367,84.2,14,Waypoint,
36.0257428,-118.5730061,6712.5797367842,171.916016,0,1.2234744486,23000,2018-07-04 21:59:16,15,0,23.376,6712.5797367842,171.916016,0.671082,1.66901580144,0,0,-0.671082,53.6, 2, -1.9,0,0,1024,1024,1024,1024,52,-89.9,95,3.882,3.9,3.917,3.892,3.87,3.908,20.602,84.2,14,Waypoint,
36.0257428,-118.5730061,6713.5639887842,172.900268,0,1.2234744486,23200,2018-07-04 21:59:16,15,0,23.376,6713.5639887842,172.900268,0.671082,1.66901580144,0,0,-0.671082,53.5, 2.5, -1.7,0,0,1024,1024,1024,1024,52,-89.9,95,3.882,3.9,3.917,3.892,3.87,3.908,20.602,84.2,14,Waypoint,
36.0257428,-118.573006,6714.5482407842,173.88452,0,1.25266080124,23300,2018-07-04 21:59:16,15,0,23.376,6714.5482407842,173.88452,0.671082,1.66901580144,0,0,-0.671082,53.4, 3, -2.2,0,0,1024,1024,1024,1024,52,-89.9,95,3.882,3.9,3.917,3.892,3.87,3.908,20.602,84.2,14,Waypoint,
36.0257428,-118.573006,6715.5324927842,174.868772,0,1.25266080124,23400,2018-07-04 21:59:17,15,0,23.376,6715.5324927842,174.868772,0.671082,1.66901580144,0,0,-0.671082,53.4, 2.9, -2.6,0,0,1024,1024,1024,1024,52,-89.9,95,3.882,3.9,3.917,3.892,3.87,3.908,20.602,84.2,14,Waypoint,
36.0257428,-118.573006,6716.5167447842,175.853024,0,1.25266080124,23500,2018-07-04 21:59:17,15,0,23.376,6716.5167447842,175.853024,0.671082,1.66901580144,0,0,-0.671082,53.3, 2.3, -2.5,0,0,1024,1024,1024,1024,52,-89.9,95,3.882,3.9,3.917,3.892,3.87,3.908,20.602,84.2,14,Waypoint,
36.0257428,-118.5730061,6717.5009967842,176.837276,0,1.2234744486,23600,2018-07-04 21:59:17,15,0,23.376,6717.5009967842,176.837276,0.671082,1.66901580144,0,0,-0.671082,53.2, 1.8, -2.3,0,0,1024,1024,1024,1024,52,-90,95,3.882,3.9,3.917,3.892,3.87,3.908,20.602,84.2,14,Waypoint,
36.0257429,-118.5730061,6718.4852487842,177.821528,0,1.2185695928,23700,2018-07-04 21:59:17,15,0,23.376,6718.4852487842,177.821528,0.671082,1.66901580144,0,0,-0.671082,53.2, 1.4, -1.7,0,0,1024,1024,1024,1024,52,-90,95,3.882,3.9,3.917,3.892,3.87,3.908,20.602,84.2,14,Waypoint,
36.0257429,-118.5730062,6719.4695007842,178.80578,0,1.18928153412,23800,2018-07-04 21:59:17,15,0,23.376,6719.4695007842,178.80578,0.671082,1.66901580144,0,0,-0.671082,53.1, 1.5, -1.1,0,0,1024,1024,1024,1024,52,-89.9,95,3.882,3.9,3.917,3.892,3.87,3.908,20.602,84.2,14,Waypoint,
36.0257429,-118.5730062,6720.4537527842,179.790032,0,1.18928153412,23900,2018-07-04 21:59:17,15,0,23.376,6720.4537527842,179.790032,0.671082,1.66901580144,0,0,-0.671082,53, 1.7, -0.9,0,0,1024,1024,1024,1024,52,-89.9,95,3.882,3.9,3.917,3.892,3.87,3.908,20.602,84.2,14,Waypoint,
36.025743,-118.5730062,6722.0941727842,181.430452,0,1.18535764948,24100,2018-07-04 21:59:17,15,0,23.376,6722.0941727842,181.430452,0.671082,1.66901580144,0,0,-0.671082,53, 2.2, -1,0,0,1024,1024,1024,1024,52,-89.9,95,3.882,3.9,3.917,3.892,3.87,3.908,20.602,84.2,14,Waypoint,
36.025743,-118.5730062,6723.0784247842,182.414704,0,1.18535764948,24200,2018-07-04 21:59:17,15,0,23.376,6723.0784247842,182.414704,0.671082,1.66901580144,0,0,-0.671082,53, 2, -1.5,0,0,1024,1024,1024,1024,52,-89.9,95,3.882,3.9,3.917,3.892,3.87,3.908,20.602,84.2,14,Waypoint,
36.025743,-118.5730062,6724.0626767842,183.398956,0,1.18535764948,24300,2018-07-04 21:59:17,15,0,23.376,6724.0626767842,183.398956,0.671082,1.66901580144,0,0,-0.671082,52.9, 1.9, -2.1,0,0,1024,1024,1024,1024,52,-89.9,95,3.882,3.9,3.917,3.892,3.87,3.908,20.602,84.2,14,Waypoint,
36.025743,-118.5730061,6725.0469287842,184.383208,0,1.21474085252,24400,2018-07-04 21:59:18,15,0,23.376,6725.0469287842,184.383208,0.671082,1.66901580144,0,0,-0.671082,52.9, 2.1, -2.2,0,0,1024,1024,1024,1024,52,-89.9,95,3.882,3.9,3.917,3.892,3.87,3.908,20.602,84.2,14,Waypoint,
36.025743,-118.5730061,6726.0311807842,185.36746,0,1.21474085252,24500,2018-07-04 21:59:18,15,0,23.376,6726.0311807842,185.36746,0.671082,1.66901580144,0,0,-0.671082,52.5, 2.3, -2.6,0,0,1024,1024,1024,1024,52,-89.9,95,3.882,3.9,3.917,3.892,3.87,3.908,20.602,84.2,14,Waypoint,
36.025743,-118.573006,6727.3435167842,186.679796,0,1.24413061724,24600,2018-07-04 21:59:18,15,0,23.376,6727.3435167842,186.679796,0.671082,1.66901580144,0,0,-0.671082,52.1, 2.5, -3,0,0,1024,1024,1024,1024,52,-89.9,95,3.882,3.9,3.917,3.892,3.87,3.908,20.602,84.2,14,Waypoint,
36.0257429,-118.573006,6729.6401047842,188.976384,0,1.24787077484,24700,2018-07-04 21:59:18,15,0,23.376,6729.6401047842,188.976384,0.671082,1.66901580144,0,0,-0.671082,51.7, 2.1, -3.1,0,0,1024,1024,1024,1024,52,-89.9,95,3.882,3.9,3.917,3.892,3.87,3.908,20.602,84.2,14,Waypoint,
36.0257429,-118.5730059,6730.6243567842,189.960636,0,1.27717851856,24800,2018-07-04 21:59:18,15,0,23.376,6730.6243567842,189.960636,0.671082,1.66901580144,0,0,-0.671082,51.6, 1.9, -3.5,0,0,1024,1024,1024,1024,52,-90,95,3.882,3.9,3.917,3.892,3.87,3.908,20.602,84.2,14,Waypoint,
36.0257428,-118.5730059,6731.6086087842,190.944888,0,1.28186027724,24900,2018-07-04 21:59:18,15,0,23.376,6731.6086087842,190.944888,0.671082,1.66901580144,0,0,-0.671082,51.7, 1.8, -3.6,0,0,1024,1024,1024,1024,52,-89.9,95,3.882,3.9,3.917,3.892,3.87,3.908,20.602,84.2,14,Waypoint,
36.0257428,-118.5730059,6732.5928607842,191.92914,0,1.28186027724,25000,2018-07-04 21:59:18,15,0,23.338,6732.5928607842,191.92914,0.671082,1.66901580144,0,0,-0.671082,52, 1.6, -3.9,0,0,1024,1024,1024,1024,52,-90,95,3.894,3.903,3.917,3.904,3.876,3.901,20.88,84.2,14,Waypoint,
36.0257427,-118.5730059,6733.5771127842,192.913392,0,1.28755909632,25110,2018-07-04 21:59:18,15,0,23.338,6733.5771127842,192.913392,0.671082,1.66901580144,0,0,-0.671082,52.3, 1.2, -4,0,0,1024,1024,1024,1024,52,-90,95,3.894,3.903,3.917,3.904,3.876,3.901,20.88,84.2,14,Waypoint,
36.0257427,-118.5730059,6733.5771127842,192.913392,0,1.28755909632,25200,2018-07-04 21:59:18,15,0,23.338,6733.5771127842,192.913392,0.671082,1.66901580144,0,0,-0.671082,52.3, 1.2, -4,0,0,1024,1024,1024,1024,52,-90,95,3.894,3.903,3.917,3.904,3.876,3.901,20.88,84.2,14,Waypoint,
36.0257426,-118.5730058,6734.5613647842,193.897644,0,1.32320214208,25300,2018-07-04 21:59:18,15,0,23.338,6734.5613647842,193.897644,0.671082,1.66901580144,0,0,-0.671082,52.5, 1.2, -3.8,0,0,1024,1024,1024,1024,52,-90,95,3.894,3.903,3.917,3.904,3.876,3.901,20.88,84.2,14,Waypoint,
36.0257426,-118.5730058,6735.5456167842,194.881896,0,1.32320214208,25400,2018-07-04 21:59:19,15,0,23.338,6735.5456167842,194.881896,0.671082,1.66901580144,0,0,-0.671082,52.7, 1.4, -3.6,0,0,1024,1024,1024,1024,52,-89.9,95,3.894,3.903,3.917,3.904,3.876,3.901,20.88,84.2,14,Waypoint,
36.0257425,-118.5730058,6736.2017847842,195.538064,0,1.3307251082,25500,2018-07-04 21:59:19,15,0,23.338,6736.2017847842,195.538064,0.671082,1.66901580144,0,0,-0.671082,52.9, 1.9, -3.7,0,0,1024,1024,1024,1024,52,-89.9,95,3.894,3.903,3.917,3.904,3.876,3.901,20.88,84.2,14,Waypoint,
36.0257425,-118.5730057,6737.1860367842,196.522316,0,1.3595308834,25600,2018-07-04 21:59:19,15,0,23.338,6737.1860367842,196.522316,0.671082,1.66901580144,0,0,-0.671082,53, 2.1, -4,0,0,1024,1024,1024,1024,52,-89.9,95,3.894,3.903,3.917,3.904,3.876,3.901,20.88,84.2,14,Waypoint,
36.0257425,-118.5730057,6738.1702887842,197.506568,0,1.3595308834,25700,2018-07-04 21:59:19,15,0,23.338,6738.1702887842,197.506568,0.671082,1.66901580144,0,0,-0.671082,53.1, 2.2, -4.3,0,0,1024,1024,1024,1024,52,-89.9,95,3.894,3.903,3.917,3.904,3.876,3.901,20.88,84.2,14,Waypoint,
36.0257426,-118.5730057,6739.1545407842,198.49082,0,1.3521653976,25800,2018-07-04 21:59:19,15,0,23.338,6739.1545407842,198.49082,0.671082,1.66901580144,0,0,-0.671082,53.2, 2.2, -3.9,0,0,1024,1024,1024,1024,52,-89.9,95,3.894,3.903,3.917,3.904,3.876,3.901,20.88,84.2,14,Waypoint,
36.0257426,-118.5730057,6739.8107087842,199.146988,0,1.3521653976,25900,2018-07-04 21:59:19,15,0,23.338,6739.8107087842,199.146988,0.671082,1.66901580144,0,0,-0.671082,53.3, 2.3, -3.2,0,0,1024,1024,1024,1024,52,-89.9,95,3.894,3.903,3.917,3.904,3.876,3.901,20.88,84.2,14,Waypoint,
36.0257427,-118.5730057,6740.7949607842,200.13124,0,1.3457513554,26000,2018-07-04 21:59:19,15,0,23.342,6740.7949607842,200.13124,0.671082,1.66901580144,0,0,-0.671082,53.4, 2.3, -2.6,0,0,1024,1024,1024,1024,52,-89.9,95,3.872,3.906,3.901,3.891,3.868,3.894,20.057,84.2,14,Waypoint,
36.0257427,-118.5730057,6741.7792127842,201.115492,0,1.3457513554,26100,2018-07-04 21:59:19,15,0,23.342,6741.7792127842,201.115492,0.671082,1.66901580144,0,0,-0.671082,53.6, 2.3, -2.3,0,0,1024,1024,1024,1024,52,-89.9,95,3.872,3.906,3.901,3.891,3.868,3.894,20.057,84.2,14,Waypoint,
