Latitude, Longitude, Altitude (m), Time, Sats, Speed (m/s), Range (m), Battery (%), Roll (deg), Pitch (deg), Yaw (deg), Images, HD Signal (%), RC Signal (%), Battery Temp (C), Battery Voltage (mV), Battery Current (mA), Battery Energy (mAh), Battery Capacity (mAh), Battery Discharges, flyState, timestamp (Unix), LastUpdate (ms), radioChannel, Rc_elevator, Rc_aileron, Rc_throttle, Rc_rudder, Rc_gyro, Dronetype, Battery_Cell1 (mV), Battery_Cell2 (mV), Battery_Cell3 (mV), Battery_Cell4 (mV), Battery_Cell5 (mV), Battery_Cell6 (mV), Video, isFlying, elapsedTime (ms), gimbalPitch (deg), gimbalRoll (deg), gimbalYaw (deg), VelocityX (m/s), VelocityY (m/s), VelocityZ (m/s), GroundSmear (cm), App Version, Aircraft Name, Aircraft Firmware, Aircraft Serial Number, Battery Serial Number, Battery Lifetime (%), App_Tip, App_Warning, CurrentFlightStartingIndex, CurrentFlightLastVisitedWaypoint, PreviousFlightEndingWaypointIndex
38.5387129, -120.5236093, 0.000, 10:51:02.476, 13, 0.00, 0.02, 100, 0.200, 0.900, 25.600, 788, 100, 100, 20, 25538, -3897, 5396, 5396, 16, 11, 1529517062.476, 36, 0, 1024, 1024, 1024, 1024, 0, 6, 4287, 4242, 4270, 4246, 4288, 4268, 0, 1, 3031, -89.900, 0.000, 25.600, 0.000, 0.000, -0.200, 0.0, MapPilot_2.8.1_04242018, Dendroctonus I, 1.3.1.00, 041DDC1887, 1058171200149, 96, DJI_0786.jpg, Starting Mission from Lat/Long: 38.53871/-120.52361 Camera: Zenmuse X3 - Overlap: 90/90 - Active Connection: No, 27, 27, 27
38.5387129, -120.5236093, 0.000, 10:51:02.545, 13, 0.00, 0.02, 100, 0.200, 0.900, 25.600, 788, 100, 100, 20, 25538, -3897, 5396, 5396, 16, 11, 1529517062.545, 104, 0, 1024, 1024, 1024, 1024, 0, 6, 4287, 4242, 4270, 4246, 4288, 4268, 0, 1, 3100, -89.900, 0.000, 25.600, 0.000, 0.000, -0.200, 0.0, , , , , , 96, , , 27, 27, 27
38.5387129, -120.5236093, 0.000, 10:51:02.645, 13, 0.00, 0.02, 100, 0.000, 0.600, 25.700, 788, 100, 100, 20, 25538, -3897, 5396, 5396, 16, 11, 1529517062.645, 91, 0, 1024, 1024, 1024, 1024, 0, 6, 4287, 4242, 4270, 4246, 4288, 4268, 0, 1, 3200, -89.900, 0.000, 25.600, 0.000, 0.000, -0.300, 0.0, , , , , , 96, , , 27, 27, 27
38.5387129, -120.5236094, 0.000, 10:51:02.747, 13, 0.00, 0.03, 100, -0.100, 0.000, 25.800, 788, 100, 100, 20, 25538, -3897, 5396, 5396, 16, 11, 1529517062.747, 1, 0, 1024, 1024, 1024, 1024, 0, 6, 4287, 4242, 4270, 4246, 4288, 4268, 0, 1, 3302, -89.900, 0.000, 25.600, 0.000, 0.000, -0.400, 0.0, , , , , , 96, , , 27, 27, 27
38.5387129, -120.5236094, 0.000, 10:51:02.845, 13, 0.00, 0.03, 100, -0.100, 0.000, 25.800, 788, 100, 100, 20, 25538, -3897, 5396, 5396, 16, 11, 1529517062.845, 100, 0, 1024, 1024, 1024, 1024, 0, 6, 4287, 4242, 4270, 4246, 4288, 4268, 0, 1, 3401, -89.900, 0.000, 25.600, 0.000, 0.000, -0.400, 0.0, , , , , , 96, , , 27, 27, 27
38.5387129, -120.5236094, 0.100, 10:51:02.945, 13, 0.00, 0.03, 100, 0.000, -0.100, 25.900, 788, 100, 100, 20, 25538, -3897, 5396, 5396, 16, 11, 1529517062.945, 71, 0, 1024, 1024, 1024, 1024, 0, 6, 4287, 4242, 4270, 4246, 4288, 4268, 0, 1, 3500, -89.900, 0.000, 25.600, 0.000, 0.000, -0.400, 0.0, , , , , , 96, , , 27, 27, 27
38.5387129, -120.5236095, 0.100, 10:51:03.045, 13, 0.00, 0.03, 100, 0.100, 0.000, 25.900, 788, 100, 100, 20, 25538, -3897, 5396, 5396, 16, 11, 1529517063.045, 74, 0, 1024, 1024, 1024, 1024, 0, 6, 4287, 4242, 4270, 4246, 4288, 4268, 0, 1, 3601, -89.900, 0.000, 25.600, 0.000, 0.000, -0.400, 0.0, , , , , , 96, , , 27, 27, 27
38.5387129, -120.5236095, 0.200, 10:51:03.145, 13, 0.00, 0.04, 100, 0.400, 0.100, 25.900, 788, 100, 100, 20, 25538, -3897, 5396, 5396, 16, 11, 1529517063.146, 73, 0, 1024, 1024, 1024, 1024, 0, 6, 4287, 4242, 4270, 4246, 4288, 4268, 0, 1, 3701, -89.900, 0.000, 25.600, 0.000, 0.000, -0.400, 0.0, , , , , , 96, , , 27, 27, 27
38.5387129, -120.5236096, 0.200, 10:51:03.244, 13, 0.00, 0.04, 100, 0.600, 0.200, 25.800, 788, 100, 100, 20, 25538, -3897, 5396, 5396, 16, 11, 1529517063.245, 65, 0, 1024, 1024, 1024, 1024, 0, 6, 4287, 4242, 4270, 4246, 4288, 4268, 0, 1, 3800, -89.900, 0.000, 25.600, 0.000, 0.000, -0.400, 0.0, , , , , , 96, , , 27, 27, 27
38.5387130, -120.5236096, 0.200, 10:51:03.345, 13, 0.00, 0.05, 100, 0.900, 0.100, 25.700, 788, 100, 100, 20, 25538, -3897, 5396, 5396, 16, 11, 1529517063.345, 68, 0, 1024, 1024, 1024, 1024, 0, 6, 4287, 4242, 4270, 4246, 4288, 4268, 0, 1, 3900, -89.900, 0.000, 25.600, 0.000, 0.000, -0.400, 0.0, , , , , , 96, , , 27, 27, 27
38.5387130, -120.5236096, 0.300, 10:51:03.445, 13, 0.00, 0.05, 100, 0.800, 0.200, 25.500, 788, 100, 100, 20, 25352, -6315, 5396, 5396, 16, 11, 1529517063.446, 71, 0, 1024, 1024, 1024, 1024, 0, 6, 4147, 4146, 4171, 4194, 4195, 4162, 0, 1, 4001, -89.900, 0.000, 25.600, 0.000, 0.000, -0.400, 0.0, , , , , , 96, , , 27, 27, 27
38.5387131, -120.5236096, 0.300, 10:51:03.545, 13, 0.00, 0.06, 100, 0.800, 0.400, 25.500, 788, 100, 100, 20, 25352, -6315, 5396, 5396, 16, 11, 1529517063.546, 71, 0, 1024, 1024, 1024, 1024, 0, 6, 4147, 4146, 4171, 4194, 4195, 4162, 0, 1, 4101, -89.900, 0.000, 25.600, 0.000, 0.000, -0.400, 0.0, , , , , , 96, , , 27, 27, 27
38.5387132, -120.5236097, 0.400, 10:51:03.645, 13, 0.00, 0.07, 100, 0.900, 0.600, 25.400, 788, 100, 100, 20, 25352, -6315, 5396, 5396, 16, 11, 1529517063.645, 46, 0, 1024, 1024, 1024, 1024, 0, 6, 4147, 4146, 4171, 4194, 4195, 4162, 0, 1, 4201, -89.900, 0.000, 25.600, 0.000, 0.000, -0.400, 0.0, , , , , , 96, , , 27, 27, 27
38.5387134, -120.5236098, 0.400, 10:51:03.745, 13, 0.00, 0.09, 100, 0.900, 0.600, 25.400, 788, 100, 100, 20, 25352, -6315, 5396, 5396, 16, 11, 1529517063.746, 49, 0, 1024, 1024, 1024, 1024, 0, 6, 4147, 4146, 4171, 4194, 4195, 4162, 0, 1, 4301, -89.900, 0.000, 25.600, 0.000, 0.000, -0.500, 0.0, , , , , , 96, , , 27, 27, 27
38.5387135, -120.5236098, 0.500, 10:51:03.845, 12, 0.10, 0.10, 100, 1.000, 0.700, 25.400, 788, 100, 100, 20, 25352, -6315, 5396, 5396, 16, 11, 1529517063.846, 52, 0, 1024, 1024, 1024, 1024, 0, 6, 4147, 4146, 4171, 4194, 4195, 4162, 0, 1, 4401, -89.900, 0.000, 25.600, 0.100, 0.000, -0.500, 0.0, , , , , , 96, , , 27, 27, 27
38.5387136, -120.5236098, 0.500, 10:51:03.945, 12, 0.10, 0.11, 100, 1.000, 0.700, 25.400, 788, 100, 100, 20, 25352, -6315, 5396, 5396, 16, 11, 1529517063.946, 29, 0, 1024, 1024, 1024, 1024, 0, 6, 4147, 4146, 4171, 4194, 4195, 4162, 0, 1, 4501, -89.900, 0.000, 25.600, 0.100, 0.000, -0.400, 0.0, , , , , , 96, , , 27, 27, 27
38.5387137, -120.5236098, 0.600, 10:51:04.045, 11, 0.10, 0.12, 100, 0.900, 0.900, 25.500, 788, 100, 100, 20, 25352, -6315, 5396, 5396, 16, 11, 1529517064.045, 31, 0, 1024, 1024, 1024, 1024, 0, 6, 4147, 4146, 4171, 4194, 4195, 4162, 0, 1, 4601, -89.900, 0.000, 25.600, 0.100, 0.000, -0.500, 0.0, , , , , , 96, , , 27, 27, 27
38.5387137, -120.5236098, 0.600, 10:51:04.145, 11, 0.00, 0.13, 100, 0.800, 1.100, 25.500, 788, 100, 100, 20, 25352, -6315, 5396, 5396, 16, 11, 1529517064.145, 35, 0, 1024, 1024, 1024, 1024, 0, 6, 4147, 4146, 4171, 4194, 4195, 4162, 0, 1, 4700, -89.900, 0.000, 25.600, 0.000, 0.000, -0.500, 0.0, , , , , , 96, , , 27, 27, 27
38.5387139, -120.5236098, 0.700, 10:51:04.245, 12, 0.00, 0.14, 100, 0.900, 1.300, 25.600, 788, 100, 100, 20, 25352, -6315, 5396, 5396, 16, 11, 1529517064.245, 36, 0, 1024, 1024, 1024, 1024, 0, 6, 4147, 4146, 4171, 4194, 4195, 4162, 0, 1, 4801, -89.900, 0.000, 25.600, 0.000, 0.000, -0.500, 0.0, , , , , , 96, , , 27, 27, 27
38.5387140, -120.5236098, 0.700, 10:51:04.345, 12, 0.10, 0.15, 100, 1.100, 1.500, 25.600, 788, 100, 100, 20, 25352, -6315, 5396, 5396, 16, 11, 1529517064.345, 41, 0, 1024, 1024, 1024, 1024, 0, 6, 4147, 4146, 4171, 4194, 4195, 4162, 0, 1, 4900, -89.900, 0.000, 25.600, 0.100, 0.000, -0.500, 0.0, , , , , , 96, , , 27, 27, 27
38.5387142, -120.5236098, 0.800, 10:51:04.445, 11, 0.10, 0.17, 100, 1.300, 1.900, 25.700, 788, 100, 100, 20, 24209, -16516, 5396, 5396, 16, 11, 1529517064.445, 28, 0, 1024, 1024, 1024, 1024, 0, 6, 4005, 3998, 4036, 4020, 4050, 4035, 0, 1, 5000, -89.900, 0.000, 25.600, 0.100, 0.000, -0.500, 0.0, , , , , , 96, , , 27, 27, 27
38.5387143, -120.5236098, 0.800, 10:51:04.544, 11, 0.00, 0.18, 100, 1.400, 2.200, 25.700, 788, 100, 100, 20, 24209, -16516, 5396, 5396, 16, 11, 1529517064.545, 32, 0, 1024, 1024, 1024, 1024, 0, 6, 4005, 3998, 4036, 4020, 4050, 4035, 0, 1, 5100, -89.900, 0.000, 25.600, 0.000, 0.000, -0.500, 0.0, , , , , , 96, , , 27, 27, 27
38.5387144, -120.5236098, 0.900, 10:51:04.647, 11, 0.00, 0.19, 100, 1.400, 2.200, 25.700, 788, 100, 100, 20, 24209, -16516, 5396, 5396, 16, 14, 1529517064.647, 1, 0, 1024, 1024, 1024, 1024, 0, 6, 4005, 3998, 4036, 4020, 4050, 4035, 0, 1, 5202, -89.900, 0.000, 25.600, 0.000, 0.000, -0.500, 0.0, , , , , , 96, , , 27, 27, 27
38.5387144, -120.5236098, 0.900, 10:51:04.746, 11, 0.00, 0.19, 100, 1.300, 2.000, 25.600, 788, 100, 100, 20, 24209, -16516, 5396, 5396, 16, 14, 1529517064.746, 98, 0, 1024, 1024, 1024, 1024, 0, 6, 4005, 3998, 4036, 4020, 4050, 4035, 0, 1, 5301, -89.900, 0.000, 25.600, 0.000, 0.000, -0.300, 0.0, , , , , , 96, , , 27, 27, 27
38.5387145, -120.5236098, 1.000, 10:51:04.845, 12, 0.00, 0.21, 100, 0.100, 1.000, 25.500, 788, 100, 100, 20, 24209, -16516, 5396, 5396, 16, 14, 1529517064.846, 11, 0, 1024, 1024, 1024, 1024, 0, 6, 4005, 3998, 4036, 4020, 4050, 4035, 0, 1, 5401, -89.900, 0.000, 25.600, 0.000, 0.000, -0.200, 0.0, , , , , , 96, , , 27, 27, 27
38.5387145, -120.5236098, 1.000, 10:51:04.945, 12, 0.00, 0.21, 100, 0.100, 1.000, 25.500, 788, 100, 100, 20, 24209, -16516, 5396, 5396, 16, 14, 1529517064.945, 110, 0, 1024, 1024, 1024, 1024, 0, 6, 4005, 3998, 4036, 4020, 4050, 4035, 0, 1, 5501, -89.900, 0.000, 25.600, 0.000, 0.000, -0.200, 0.0, , , , , , 96, , , 27, 27, 27
38.5387147, -120.5236098, 1.000, 10:51:05.044, 12, 0.00, 0.22, 100, 0.100, 0.900, 25.400, 788, 100, 100, 20, 24209, -16516, 5396, 5396, 16, 14, 1529517065.045, 93, 0, 1024, 1024, 1024, 1024, 0, 6, 4005, 3998, 4036, 4020, 4050, 4035, 0, 1, 5600, -90.000, 0.000, 25.600, 0.000, 0.000, -0.200, 0.0, , , , , , 96, , , 27, 27, 27
38.5387147, -120.5236098, 1.100, 10:51:05.145, 12, 0.00, 0.23, 100, 0.200, 1.100, 25.400, 788, 100, 100, 20, 24209, -16516, 5396, 5396, 16, 14, 1529517065.145, 98, 0, 1024, 1024, 1024, 1024, 0, 6, 4005, 3998, 4036, 4020, 4050, 4035, 0, 1, 5700, -89.900, 0.000, 25.600, 0.000, 0.000, -0.400, 0.0, , , , , , 96, , , 27, 27, 27
38.5387148, -120.5236099, 1.100, 10:51:05.245, 12, 0.00, 0.24, 100, 0.300, 1.200, 25.400, 788, 100, 100, 20, 24209, -16516, 5396, 5396, 16, 14, 1529517065.245, 70, 0, 1024, 1024, 1024, 1024, 0, 6, 4005, 3998, 4036, 4020, 4050, 4035, 0, 1, 5800, -89.900, 0.000, 25.600, 0.000, 0.000, -0.500, 0.0, , , , , , 96, , , 27, 27, 27
38.5387150, -120.5236099, 1.200, 10:51:05.345, 12, 0.00, 0.26, 100, 0.600, 1.200, 25.500, 788, 100, 100, 20, 24209, -16516, 5396, 5396, 16, 14, 1529517065.345, 92, 0, 1024, 1024, 1024, 1024, 0, 6, 4005, 3998, 4036, 4020, 4050, 4035, 0, 1, 5900, -89.900, 0.000, 25.600, 0.000, 0.000, -0.700, 0.0, , , , , , 96, , , 27, 27, 27
38.5387151, -120.5236100, 1.200, 10:51:05.445, 12, 0.00, 0.27, 100, 0.800, 1.300, 25.600, 788, 100, 100, 21, 24066, -16516, 5396, 5396, 16, 14, 1529517065.445, 86, 0, 1024, 1024, 1024, 1024, 0, 6, 3998, 3987, 4015, 4015, 4029, 4015, 0, 1, 6000, -89.900, 0.000, 25.600, 0.000, 0.000, -0.900, 0.0, , , , , , 96, , , 27, 27, 27
38.5387151, -120.5236100, 1.300, 10:51:05.545, 12, 0.00, 0.27, 100, 0.900, 1.400, 25.700, 788, 100, 100, 21, 24066, -16516, 5396, 5396, 16, 14, 1529517065.545, 91, 0, 1024, 1024, 1024, 1024, 0, 6, 3998, 3987, 4015, 4015, 4029, 4015, 0, 1, 6100, -89.900, 0.000, 25.600, 0.000, 0.000, -1.100, 0.0, , , , , , 96, , , 27, 27, 27
38.5387151, -120.5236101, 1.500, 10:51:05.645, 12, 0.00, 0.28, 100, 0.900, 1.400, 25.700, 788, 100, 100, 21, 24066, -16516, 5396, 5396, 16, 14, 1529517065.645, 75, 0, 1024, 1024, 1024, 1024, 0, 6, 3998, 3987, 4015, 4015, 4029, 4015, 0, 1, 6200, -89.900, 0.000, 25.600, 0.000, 0.000, -1.300, 0.0, , , , , , 96, , , 27, 27, 27
38.5387152, -120.5236101, 1.600, 10:51:05.745, 12, 0.00, 0.28, 100, 0.800, 1.300, 25.800, 788, 100, 100, 21, 24066, -16516, 5396, 5396, 16, 14, 1529517065.745, 82, 0, 1024, 1024, 1024, 1024, 0, 6, 3998, 3987, 4015, 4015, 4029, 4015, 0, 1, 6300, -89.900, 0.000, 25.600, 0.000, 0.000, -1.600, 0.0, , , , , , 96, , , 27, 27, 27
38.5387151, -120.5236101, 1.800, 10:51:05.845, 11, 0.00, 0.28, 100, 0.700, 1.200, 25.800, 788, 100, 100, 21, 24066, -16516, 5396, 5396, 16, 14, 1529517065.845, 81, 0, 1024, 1024, 1024, 1024, 0, 6, 3998, 3987, 4015, 4015, 4029, 4015, 0, 1, 6400, -89.900, 0.000, 25.600, 0.000, 0.000, -1.800, 0.0, , , , , , 96, , , 27, 27, 27
38.5387150, -120.5236101, 2.000, 10:51:05.945, 11, 0.00, 0.27, 100, 0.500, 1.100, 25.800, 788, 100, 100, 21, 24066, -16516, 5396, 5396, 16, 14, 1529517065.945, 59, 0, 1050, 1024, 1024, 1024, 0, 6, 3998, 3987, 4015, 4015, 4029, 4015, 0, 1, 6500, -89.900, 0.000, 25.600, 0.000, 0.000, -2.000, 0.0, , , , , , 96, , , 27, 27, 27
38.5387149, -120.5236101, 2.200, 10:51:06.045, 13, 0.00, 0.25, 100, 0.300, 0.900, 25.800, 788, 100, 100, 21, 24066, -16516, 5396, 5396, 16, 14, 1529517066.045, 49, 0, 1024, 1024, 1024, 1024, 0, 6, 3998, 3987, 4015, 4015, 4029, 4015, 0, 1, 6601, -89.900, 0.000, 25.600, 0.000, 0.000, -2.200, 0.0, , , , , , 96, , , 27, 27, 27
38.5387148, -120.5236102, 2.500, 10:51:06.145, 13, 0.00, 0.24, 100, 0.100, 0.600, 25.700, 788, 100, 100, 21, 24066, -16516, 5396, 5396, 16, 14, 1529517066.145, 31, 0, 1024, 1024, 1024, 1024, 0, 6, 3998, 3987, 4015, 4015, 4029, 4015, 0, 1, 6700, -90.000, 0.000, 25.600, 0.000, 0.000, -2.500, 0.0, , , , , , 96, , , 27, 27, 27
38.5387147, -120.5236102, 2.700, 10:51:06.245, 13, 0.00, 0.24, 100, 0.200, 0.200, 25.700, 788, 100, 100, 21, 24066, -16516, 5396, 5396, 16, 14, 1529517066.245, 51, 0, 1024, 1024, 1024, 1024, 0, 6, 3998, 3987, 4015, 4015, 4029, 4015, 0, 1, 6800, -90.000, 0.000, 25.600, 0.000, 0.000, -2.700, 0.0, , , , , , 96, , , 27, 27, 27
38.5387147, -120.5236101, 3.000, 10:51:06.345, 13, 0.00, 0.23, 100, 0.400, 0.100, 25.700, 788, 100, 100, 21, 24066, -16516, 5396, 5396, 16, 14, 1529517066.345, 53, 0, 1024, 1024, 1024, 1024, 0, 6, 3998, 3987, 4015, 4015, 4029, 4015, 0, 1, 6900, -90.000, 0.000, 25.600, 0.000, 0.000, -2.900, 0.0, , , , , , 96, , , 27, 27, 27
38.5387146, -120.5236101, 3.400, 10:51:06.445, 12, 0.00, 0.23, 100, 0.300, 0.200, 25.700, 788, 100, 100, 21, 23922, -23383, 5288, 5396, 16, 14, 1529517066.445, 42, 0, 1024, 1024, 1024, 1024, 0, 6, 3869, 3849, 3978, 3952, 3962, 3987, 0, 1, 7000, -89.900, 0.000, 25.600, 0.000, 0.000, -3.000, 0.0, , , , , , 96, , , 27, 27, 27
38.5387146, -120.5236101, 3.700, 10:51:06.545, 12, 0.00, 0.22, 100, 0.200, 0.400, 25.700, 788, 100, 100, 21, 23922, -23383, 5288, 5396, 16, 14, 1529517066.545, 44, 0, 1024, 1024, 1024, 1024, 0, 6, 3869, 3849, 3978, 3952, 3962, 3987, 0, 1, 7100, -89.900, 0.000, 25.600, 0.000, 0.000, -3.100, 0.0, , , , , , 96, , , 27, 27, 27
38.5387145, -120.5236101, 4.000, 10:51:06.645, 12, 0.00, 0.21, 100, 0.300, 0.400, 25.700, 788, 100, 100, 21, 23922, -23383, 5288, 5396, 16, 14, 1529517066.645, 32, 0, 1024, 1024, 1024, 1024, 0, 6, 3869, 3849, 3978, 3952, 3962, 3987, 0, 1, 7200, -89.900, 0.000, 25.600, 0.000, 0.000, -3.200, 0.0, , , , , , 96, , , 27, 27, 27
38.5387144, -120.5236100, 4.400, 10:51:06.745, 12, 0.00, 0.20, 100, 0.100, 0.200, 25.800, 788, 100, 100, 21, 23922, -23383, 5288, 5396, 16, 14, 1529517066.745, 25, 0, 1024, 1024, 1024, 1024, 0, 6, 3869, 3849, 3978, 3952, 3962, 3987, 0, 1, 7300, -89.900, 0.000, 25.600, 0.000, 0.000, -3.200, 0.0, , , , , , 96, , , 27, 27, 27
38.5387143, -120.5236100, 4.700, 10:51:06.845, 13, 0.00, 0.18, 100, -0.100, 0.000, 25.800, 788, 100, 100, 21, 23922, -23383, 5288, 5396, 16, 14, 1529517066.845, 29, 0, 1024, 1024, 1024, 1024, 0, 6, 3869, 3849, 3978, 3952, 3962, 3987, 0, 1, 7400, -89.900, 0.000, 25.600, 0.000, 0.000, -3.100, 0.0, , , , , , 96, , , 27, 27, 27
38.5387142, -120.5236100, 5.000, 10:51:06.945, 13, 0.00, 0.17, 100, -0.300, 0.000, 25.800, 788, 100, 100, 21, 23922, -23383, 5288, 5396, 16, 14, 1529517066.945, 24, 0, 1024, 1024, 1024, 1024, 0, 6, 3869, 3849, 3978, 3952, 3962, 3987, 0, 1, 7500, -89.900, 0.000, 25.600, 0.000, 0.000, -3.200, 0.0, , , , , , 96, , , 27, 27, 27
38.5387141, -120.5236100, 5.700, 10:51:07.044, 13, 0.00, 0.17, 100, 0.000, 0.000, 25.700, 788, 100, 100, 21, 23922, -23383, 5288, 5396, 16, 14, 1529517067.044, 23, 0, 1024, 1024, 1024, 1024, 0, 6, 3869, 3849, 3978, 3952, 3962, 3987, 0, 1, 7600, -89.900, 0.000, 25.600, 0.000, 0.000, -3.200, 0.0, , , , , , 96, , , 27, 27, 27
38.5387141, -120.5236100, 5.700, 10:51:07.145, 13, 0.00, 0.17, 100, 0.000, 0.000, 25.700, 788, 100, 100, 21, 23922, -23383, 5288, 5396, 16, 14, 1529517067.145, 124, 0, 1024, 1024, 1024, 1024, 0, 6, 3869, 3849, 3978, 3952, 3962, 3987, 0, 1, 7701, -89.900, 0.000, 25.600, 0.000, 0.000, -3.200, 0.0, , , , , , 96, , , 27, 27, 27
38.5387141, -120.5236100, 5.700, 10:51:07.245, 13, 0.00, 0.17, 100, 0.000, 0.000, 25.700, 788, 100, 100, 21, 23922, -23383, 5288, 5396, 16, 14, 1529517067.245, 224, 0, 1024, 1024, 1024, 1024, 0, 6, 3869, 3849, 3978, 3952, 3962, 3987, 0, 1, 7800, -89.900, 0.000, 25.600, 0.000, 0.000, -3.200, 0.0, , , , , , 96, , , 27, 27, 27
38.5387143, -120.5236105, 6.700, 10:51:07.345, 14, 0.00, 0.21, 100, 0.600, 0.200, 25.700, 788, 100, 100, 21, 23922, -23383, 5288, 5396, 16, 14, 1529517067.345, 3, 0, 1024, 1024, 1024, 1024, 0, 6, 3869, 3849, 3978, 3952, 3962, 3987, 0, 1, 7900, -89.900, 0.000, 25.600, 0.000, 0.000, -3.100, 0.0, , , , , , 96, , , 27, 27, 27
38.5387143, -120.5236105, 6.700, 10:51:07.445, 14, 0.00, 0.21, 100, 0.600, 0.200, 25.700, 788, 100, 100, 21, 23922, -23383, 5288, 5396, 16, 14, 1529517067.445, 104, 0, 1024, 1024, 1024, 1024, 0, 6, 3869, 3849, 3978, 3952, 3962, 3987, 0, 1, 8001, -89.900, 0.000, 25.600, 0.000, 0.000, -3.100, 0.0, , , , , , 96, , , 27, 27, 27
38.5387145, -120.5236106, 7.000, 10:51:07.544, 14, 0.00, 0.24, 100, 1.000, 0.500, 25.700, 788, 100, 100, 21, 23505, -21551, 5288, 5396, 16, 14, 1529517067.544, 92, 0, 1024, 1024, 1024, 1024, 0, 6, 3869, 3849, 3978, 3952, 3962, 3987, 0, 1, 8100, -89.900, 0.000, 25.600, 0.000, 0.000, -3.100, 0.0, , , , , , 96, , , 27, 27, 27
38.5387149, -120.5236109, 7.700, 10:51:07.645, 14, 0.00, 0.29, 100, 1.300, 1.000, 25.700, 788, 100, 100, 21, 23505, -21551, 5288, 5396, 16, 14, 1529517067.645, 1, 0, 1024, 1024, 1024, 1024, 0, 6, 3869, 3849, 3978, 3952, 3962, 3987, 0, 1, 8200, -89.900, 0.000, 25.600, 0.000, 0.000, -3.200, 0.0, , , , , , 96, , , 27, 27, 27
38.5387149, -120.5236109, 7.700, 10:51:07.745, 14, 0.00, 0.29, 100, 1.300, 1.000, 25.700, 788, 100, 100, 21, 23505, -21551, 5288, 5396, 16, 14, 1529517067.745, 101, 0, 1024, 1024, 1024, 1024, 0, 6, 3869, 3849, 3978, 3952, 3962, 3987, 0, 1, 8300, -89.900, 0.000, 25.600, 0.000, 0.000, -3.200, 0.0, , , , , , 96, , , 27, 27, 27
38.5387151, -120.5236109, 8.000, 10:51:07.845, 14, 0.00, 0.31, 100, 1.400, 1.300, 25.700, 788, 100, 100, 21, 23505, -21551, 5288, 5396, 16, 14, 1529517067.845, 90, 0, 1024, 1024, 1024, 1024, 0, 6, 3869, 3849, 3978, 3952, 3962, 3987, 0, 1, 8400, -89.900, 0.000, 25.600, 0.000, 0.000, -3.100, 0.0, , , , , , 96, , , 27, 27, 27
38.5387153, -120.5236110, 8.400, 10:51:07.945, 14, 0.00, 0.33, 98, 1.400, 1.500, 25.700, 788, 100, 100, 21, 23505, -21551, 5288, 5396, 16, 14, 1529517067.945, 68, 0, 1024, 1024, 1024, 1024, 0, 6, 3917, 3896, 3936, 3913, 3932, 3896, 0, 1, 8500, -89.900, 0.000, 25.600, 0.000, 0.000, -3.100, 0.0, , , , , , 96, , , 27, 27, 27
38.5387156, -120.5236110, 8.700, 10:51:08.045, 15, 0.00, 0.35, 98, 1.600, 1.500, 25.600, 788, 100, 100, 21, 23505, -21551, 5288, 5396, 16, 14, 1529517068.045, 71, 0, 1024, 1024, 1024, 1024, 0, 6, 3917, 3896, 3936, 3913, 3932, 3896, 0, 1, 8600, -89.900, 0.000, 25.600, 0.000, 0.000, -3.100, 0.0, , , , , , 96, , , 27, 27, 27
38.5387158, -120.5236110, 9.000, 10:51:08.145, 15, 0.00, 0.37, 98, 1.600, 1.600, 25.600, 788, 100, 100, 21, 23505, -21551, 5288, 5396, 16, 14, 1529517068.145, 62, 0, 1024, 1024, 1024, 1024, 0, 6, 3917, 3896, 3936, 3913, 3932, 3896, 0, 1, 8700, -89.900, 0.000, 25.600, 0.000, 0.000, -3.000, 0.0, , , , , , 96, , , 27, 27, 27
38.5387160, -120.5236111, 9.300, 10:51:08.245, 15, 0.00, 0.39, 98, 1.500, 1.900, 25.600, 788, 100, 100, 21, 23505, -21551, 5288, 5396, 16, 14, 1529517068.245, 45, 0, 1024, 1024, 1024, 1024, 0, 6, 3917, 3896, 3936, 3913, 3932, 3896, 0, 1, 8800, -89.900, 0.000, 25.600, 0.000, 0.000, -3.000, 0.0, , , , , , 96, , , 27, 27, 27
38.5387162, -120.5236111, 9.700, 10:51:08.345, 15, 0.00, 0.42, 98, 1.400, 2.100, 25.600, 788, 100, 100, 21, 23505, -21551, 5288, 5396, 16, 14, 1529517068.345, 62, 0, 1024, 1024, 1024, 1024, 0, 6, 3917, 3896, 3936, 3913, 3932, 3896, 0, 1, 8901, -89.900, 0.000, 25.600, 0.000, 0.000, -3.000, 0.0, , , , , , 96, , , 27, 27, 27
38.5387164, -120.5236111, 9.900, 10:51:08.444, 14, 0.00, 0.44, 98, 1.400, 2.300, 25.600, 788, 100, 100, 21, 23505, -21551, 5288, 5396, 16, 14, 1529517068.445, 66, 0, 1024, 1024, 1024, 1024, 0, 6, 3917, 3896, 3936, 3913, 3932, 3896, 0, 1, 9000, -89.900, 0.000, 25.600, 0.000, 0.000, -3.000, 0.0, , , , , , 96, , , 27, 27, 27
38.5387165, -120.5236111, 10.200, 10:51:08.545, 14, 0.00, 0.45, 98, 1.400, 2.300, 25.700, 788, 100, 100, 21, 23505, -21551, 5288, 5396, 16, 14, 1529517068.545, 54, 0, 1024, 1024, 1024, 1024, 0, 6, 3917, 3896, 3936, 3913, 3932, 3896, 0, 1, 9101, -89.900, 0.000, 25.600, 0.000, 0.000, -2.900, 0.0, , , , , , 96, , , 27, 27, 27
38.5387166, -120.5236111, 10.500, 10:51:08.645, 14, 0.00, 0.46, 98, 1.500, 1.900, 25.800, 788, 100, 100, 21, 23505, -21551, 5288, 5396, 16, 14, 1529517068.645, 22, 0, 1024, 1024, 1024, 1024, 0, 6, 3917, 3896, 3936, 3913, 3932, 3896, 0, 1, 9201, -89.900, 0.000, 25.600, 0.000, 0.000, -3.000, 0.0, , , , , , 96, , , 27, 27, 27
38.5387168, -120.5236111, 10.900, 10:51:08.745, 14, 0.00, 0.48, 98, 1.100, 2.000, 26.000, 788, 100, 100, 21, 23505, -21551, 5288, 5396, 16, 14, 1529517068.745, 62, 0, 1024, 1024, 1024, 1024, 0, 6, 3917, 3896, 3936, 3913, 3932, 3896, 0, 1, 9300, -89.900, 0.000, 25.600, 0.000, 0.000, -3.000, 0.0, , , , , , 96, , , 27, 27, 27
38.5387169, -120.5236111, 11.200, 10:51:08.845, 14, 0.00, 0.49, 98, 0.900, 2.100, 26.300, 788, 100, 100, 21, 23505, -21551, 5288, 5396, 16, 14, 1529517068.845, 32, 0, 1024, 1024, 1024, 1024, 0, 6, 3917, 3896, 3936, 3913, 3932, 3896, 0, 1, 9400, -89.900, 0.000, 25.600, 0.000, 0.000, -3.100, 0.0, , , , , , 96, , , 27, 27, 27
38.5387169, -120.5236111, 11.500, 10:51:08.945, 14, 0.00, 0.49, 98, 1.000, 2.100, 26.500, 788, 100, 100, 21, 23575, -19176, 5288, 5396, 16, 14, 1529517068.945, 33, 0, 1024, 1024, 1024, 1024, 0, 6, 3912, 3903, 3946, 3932, 3941, 3934, 0, 1, 9500, -89.900, 0.000, 25.600, 0.000, 0.000, -3.000, 0.0, , , , , , 96, , , 27, 27, 27
38.5387170, -120.5236111, 11.800, 10:51:09.045, 14, 0.00, 0.50, 98, 1.100, 2.000, 26.500, 788, 100, 100, 21, 23575, -19176, 5288, 5396, 16, 14, 1529517069.045, 28, 0, 1024, 1024, 1024, 1024, 0, 6, 3912, 3903, 3946, 3932, 3941, 3934, 0, 1, 9600, -89.900, 0.000, 25.600, 0.000, 0.000, -3.000, 0.0, , , , , , 96, , , 27, 27, 27
38.5387171, -120.5236111, 12.100, 10:51:09.145, 14, 0.00, 0.51, 98, 1.200, 2.000, 26.400, 788, 100, 100, 21, 23575, -19176, 5288, 5396, 16, 14, 1529517069.145, 33, 0, 1024, 1024, 1024, 1024, 0, 6, 3912, 3903, 3946, 3932, 3941, 3934, 0, 1, 9700, -89.900, 0.000, 25.600, 0.000, 0.000, -2.900, 0.0, , , , , , 96, , , 27, 27, 27
38.5387171, -120.5236111, 12.400, 10:51:09.245, 15, 0.00, 0.51, 98, 1.400, 1.800, 26.200, 788, 100, 100, 21, 23575, -19176, 5288, 5396, 16, 14, 1529517069.245, 1, 0, 1024, 1024, 1024, 1024, 0, 6, 3912, 3903, 3946, 3932, 3941, 3934, 0, 1, 9800, -89.900, 0.000, 25.600, 0.000, 0.000, -3.000, 0.0, , , , , , 96, , , 27, 27, 27
38.5387170, -120.5236110, 13.000, 10:51:09.345, 15, 0.10, 0.50, 98, 1.300, 1.500, 25.700, 788, 100, 100, 21, 23575, -19176, 5288, 5396, 16, 14, 1529517069.345, 13, 0, 1024, 1024, 1024, 1024, 0, 6, 3912, 3903, 3946, 3932, 3941, 3934, 0, 1, 9900, -89.900, 0.000, 25.600, -0.100, 0.000, -2.900, 0.0, , , , , , 96, , , 27, 27, 27
38.5387170, -120.5236110, 13.000, 10:51:09.445, 15, 0.10, 0.50, 98, 1.300, 1.500, 25.700, 788, 100, 100, 21, 23575, -19176, 5288, 5396, 16, 14, 1529517069.445, 113, 0, 1024, 1024, 1024, 1024, 0, 6, 3912, 3903, 3946, 3932, 3941, 3934, 0, 1, 10000, -89.900, 0.000, 25.600, -0.100, 0.000, -2.900, 0.0, , , , , , 96, , , 27, 27, 27
38.5387170, -120.5236111, 13.600, 10:51:09.545, 15, 0.10, 0.50, 98, 1.000, 1.400, 25.300, 788, 100, 100, 21, 23575, -19176, 5288, 5396, 16, 14, 1529517069.545, 11, 0, 1024, 1024, 1024, 1024, 0, 6, 3912, 3903, 3946, 3932, 3941, 3934, 0, 1, 10101, -89.900, 0.000, 25.600, -0.100, 0.000, -2.900, 0.0, , , , , , 96, , , 27, 27, 27
38.5387169, -120.5236110, 13.900, 10:51:09.645, 15, 0.10, 0.49, 98, 1.100, 1.500, 25.100, 788, 100, 100, 21, 23575, -19176, 5288, 5396, 16, 14, 1529517069.645, 19, 0, 1024, 1024, 1024, 1024, 0, 6, 3912, 3903, 3946, 3932, 3941, 3934, 0, 1, 10200, -89.900, 0.000, 25.600, -0.100, 0.000, -3.000, 0.0, , , , , , 96, , , 27, 27, 27
38.5387169, -120.5236110, 14.200, 10:51:09.745, 15, 0.10, 0.49, 98, 1.200, 1.500, 25.100, 788, 100, 100, 21, 23575, -19176, 5288, 5396, 16, 14, 1529517069.745, 11, 0, 1024, 1024, 1024, 1024, 0, 6, 3912, 3903, 3946, 3932, 3941, 3934, 0, 1, 10301, -89.900, 0.000, 25.600, -0.100, 0.000, -3.000, 0.0, , , , , , 96, , , 27, 27, 27
38.5387168, -120.5236110, 14.500, 10:51:09.846, 15, 0.10, 0.48, 98, 1.300, 1.500, 25.100, 788, 100, 100, 21, 23541, -19314, 5288, 5396, 16, 14, 1529517069.846, 1, 0, 1024, 1024, 1024, 1024, 0, 6, 3912, 3903, 3946, 3932, 3941, 3934, 0, 1, 10401, -89.900, 0.000, 25.600, -0.100, 0.000, -3.000, 0.0, , , , , , 96, , , 27, 27, 27
38.5387168, -120.5236110, 14.800, 10:51:09.948, 15, 0.10, 0.48, 98, 1.400, 1.600, 25.200, 788, 100, 99, 21, 23541, -19314, 5288, 5396, 16, 14, 1529517069.949, 5, 0, 1024, 1024, 1024, 1024, 0, 6, 3908, 3896, 3935, 3925, 3940, 3928, 0, 1, 10504, -89.900, 0.000, 25.600, -0.100, 0.000, -3.000, 0.0, , , , , , 96, , , 27, 27, 27
38.5387168, -120.5236110, 14.800, 10:51:10.044, 15, 0.10, 0.48, 98, 1.400, 1.600, 25.200, 788, 100, 99, 21, 23541, -19314, 5288, 5396, 16, 14, 1529517070.045, 101, 0, 1024, 1024, 1024, 1024, 0, 6, 3908, 3896, 3935, 3925, 3940, 3928, 0, 1, 10600, -89.900, 0.000, 25.600, -0.100, 0.000, -3.000, 0.0, , , , , , 96, , , 27, 27, 27
38.5387167, -120.5236110, 15.100, 10:51:10.145, 15, 0.10, 0.47, 98, 1.500, 1.700, 25.400, 788, 100, 99, 21, 23541, -19314, 5288, 5396, 16, 14, 1529517070.145, 96, 0, 1024, 1024, 1024, 1024, 0, 6, 3908, 3896, 3935, 3925, 3940, 3928, 0, 1, 10700, -89.900, 0.000, 25.600, -0.100, 0.000, -3.000, 0.0, , , , , , 96, , , 27, 27, 27
38.5387166, -120.5236110, 15.400, 10:51:10.245, 16, 0.10, 0.46, 98, 1.500, 1.300, 25.500, 788, 100, 99, 21, 23541, -19314, 5288, 5396, 16, 14, 1529517070.245, 83, 0, 1024, 1024, 1024, 1024, 0, 6, 3908, 3896, 3935, 3925, 3940, 3928, 0, 1, 10800, -89.900, 0.000, 25.600, -0.100, 0.000, -2.900, 0.0, , , , , , 96, , , 27, 27, 27
38.5387165, -120.5236110, 15.700, 10:51:10.344, 16, 0.10, 0.45, 98, 1.300, 1.000, 25.500, 788, 100, 99, 21, 23541, -19314, 5288, 5396, 16, 14, 1529517070.345, 73, 0, 1024, 1024, 1024, 1024, 0, 6, 3908, 3896, 3935, 3925, 3940, 3928, 0, 1, 10900, -89.900, 0.000, 25.600, -0.100, 0.000, -3.000, 0.0, , , , , , 96, , , 27, 27, 27
38.5387164, -120.5236109, 16.000, 10:51:10.445, 16, 0.10, 0.43, 98, 1.100, 1.000, 25.500, 788, 100, 99, 21, 23541, -19314, 5288, 5396, 16, 14, 1529517070.445, 87, 0, 1024, 1024, 1024, 1024, 0, 6, 3908, 3896, 3935, 3925, 3940, 3928, 0, 1, 11000, -89.900, 0.000, 25.600, -0.100, 0.000, -2.900, 0.0, , , , , , 96, , , 27, 27, 27
38.5387162, -120.5236109, 16.300, 10:51:10.545, 16, 0.10, 0.42, 98, 1.000, 0.700, 25.400, 788, 100, 97, 21, 23541, -19314, 5288, 5396, 16, 14, 1529517070.545, 92, 0, 1024, 1024, 1024, 1024, 0, 6, 3908, 3896, 3935, 3925, 3940, 3928, 0, 1, 11100, -89.900, 0.000, 25.600, -0.100, 0.000, -2.900, 0.0, , , , , , 96, , , 27, 27, 27
38.5387161, -120.5236108, 16.600, 10:51:10.645, 16, 0.10, 0.40, 98, 0.900, 0.500, 25.400, 788, 100, 97, 21, 23541, -19314, 5288, 5396, 16, 14, 1529517070.645, 71, 0, 1024, 1024, 1024, 1024, 0, 6, 3908, 3896, 3935, 3925, 3940, 3928, 0, 1, 11200, -89.900, 0.000, 25.600, -0.100, 0.000, -2.900, 0.0, , , , , , 96, , , 27, 27, 27
38.5387160, -120.5236108, 16.900, 10:51:10.745, 16, 0.10, 0.38, 98, 0.600, 0.500, 25.400, 788, 100, 97, 21, 23541, -19314, 5288, 5396, 16, 14, 1529517070.745, 61, 0, 1024, 1024, 1024, 1024, 0, 6, 3908, 3896, 3935, 3925, 3940, 3928, 0, 1, 11300, -89.900, 0.000, 25.600, -0.100, 0.000, -3.000, 0.0, , , , , , 96, , , 27, 27, 27
38.5387159, -120.5236107, 17.200, 10:51:10.845, 16, 0.10, 0.37, 98, 0.600, 0.400, 25.300, 788, 100, 97, 21, 23541, -19314, 5288, 5396, 16, 14, 1529517070.845, 60, 0, 1024, 1024, 1024, 1024, 0, 6, 3908, 3896, 3935, 3925, 3940, 3928, 0, 1, 11400, -89.900, 0.000, 25.600, -0.100, 0.000, -2.900, 0.0, , , , , , 96, , , 27, 27, 27
38.5387158, -120.5236107, 17.500, 10:51:10.945, 16, 0.10, 0.36, 98, 0.500, 0.600, 25.300, 788, 100, 97, 21, 23535, -18807, 5288, 5396, 16, 14, 1529517070.945, 51, 0, 1024, 1024, 1024, 1024, 0, 6, 3911, 3897, 3936, 3929, 3937, 3932, 0, 1, 11500, -89.900, 0.000, 25.600, -0.100, 0.000, -3.000, 0.0, , , , , , 96, , , 27, 27, 27
38.5387157, -120.5236106, 17.800, 10:51:11.044, 16, 0.00, 0.35, 98, 0.300, 0.900, 25.400, 788, 100, 97, 21, 23535, -18807, 5288, 5396, 16, 14, 1529517071.045, 54, 0, 1024, 1024, 1024, 1024, 0, 6, 3911, 3897, 3936, 3929, 3937, 3932, 0, 1, 11600, -89.900, 0.000, 25.600, 0.000, 0.000, -2.900, 0.0, , , , , , 96, , , 27, 27, 27
38.5387156, -120.5236105, 18.100, 10:51:11.145, 16, 0.00, 0.34, 98, 0.100, 1.000, 25.600, 788, 100, 97, 21, 23535, -18807, 5288, 5396, 16, 14, 1529517071.145, 60, 0, 1024, 1024, 1024, 1024, 0, 6, 3911, 3897, 3936, 3929, 3937, 3932, 0, 1, 11700, -89.900, 0.000, 25.600, 0.000, 0.000, -3.000, 0.0, , , , , , 96, , , 27, 27, 27
38.5387155, -120.5236104, 18.400, 10:51:11.245, 16, 0.00, 0.33, 98, 0.000, 1.000, 25.700, 788, 100, 97, 21, 23535, -18807, 5288, 5396, 16, 14, 1529517071.245, 38, 0, 1024, 1024, 1024, 1024, 0, 6, 3911, 3897, 3936, 3929, 3937, 3932, 0, 1, 11800, -89.900, 0.000, 25.600, 0.000, 0.000, -2.900, 0.0, , , , , , 96, , , 27, 27, 27
38.5387154, -120.5236103, 18.700, 10:51:11.345, 16, 0.00, 0.31, 98, 0.000, 1.200, 25.700, 788, 100, 97, 21, 23535, -18807, 5288, 5396, 16, 14, 1529517071.345, 39, 0, 1024, 1024, 1024, 1024, 0, 6, 3911, 3897, 3936, 3929, 3937, 3932, 0, 1, 11900, -89.900, 0.000, 25.600, 0.000, 0.000, -3.000, 0.0, , , , , , 96, , , 27, 27, 27
38.5387153, -120.5236102, 19.000, 10:51:11.445, 16, 0.00, 0.30, 98, -0.100, 1.100, 25.800, 788, 100, 97, 21, 23535, -18807, 5288, 5396, 16, 14, 1529517071.445, 54, 0, 1024, 1024, 1024, 1024, 0, 6, 3911, 3897, 3936, 3929, 3937, 3932, 0, 1, 12000, -89.900, 0.000, 25.600, 0.000, 0.000, -3.000, 0.0, , , , , , 96, , , 27, 27, 27
38.5387153, -120.5236102, 19.300, 10:51:11.545, 16, 0.00, 0.30, 98, -0.200, 1.000, 25.900, 788, 100, 96, 21, 23535, -18807, 5288, 5396, 16, 14, 1529517071.545, 33, 0, 1024, 1024, 1024, 1024, 0, 6, 3911, 3897, 3936, 3929, 3937, 3932, 0, 1, 12100, -89.900, 0.000, 25.600, 0.000, 0.000, -3.000, 0.0, , , , , , 96, , , 27, 27, 27
38.5387152, -120.5236101, 19.600, 10:51:11.645, 16, 0.00, 0.29, 98, 0.100, 1.200, 25.900, 788, 100, 96, 21, 23535, -18807, 5288, 5396, 16, 14, 1529517071.645, 48, 0, 1024, 1024, 1024, 1024, 0, 6, 3911, 3897, 3936, 3929, 3937, 3932, 0, 1, 12200, -89.900, 0.000, 25.600, 0.000, 0.000, -3.000, 0.0, , , , , , 96, , , 27, 27, 27
38.5387152, -120.5236101, 19.900, 10:51:11.745, 16, 0.00, 0.29, 98, 0.600, 1.400, 25.800, 788, 100, 96, 21, 23535, -18807, 5288, 5396, 16, 14, 1529517071.745, 27, 0, 1024, 1024, 1024, 1024, 0, 6, 3911, 3897, 3936, 3929, 3937, 3932, 0, 1, 12300, -89.900, 0.000, 25.600, 0.000, 0.000, -3.000, 0.0, , , , , , 96, , , 27, 27, 27
38.5387152, -120.5236101, 20.200, 10:51:11.845, 16, 0.00, 0.28, 98, 0.900, 1.800, 25.600, 788, 100, 96, 21, 23535, -18807, 5288, 5396, 16, 14, 1529517071.845, 32, 0, 1024, 1024, 1024, 1024, 0, 6, 3911, 3897, 3936, 3929, 3937, 3932, 0, 1, 12400, -89.900, 0.000, 25.600, 0.000, 0.000, -3.000, 0.0, , , , , , 96, , , 27, 27, 27
38.5387152, -120.5236101, 20.500, 10:51:11.945, 16, 0.00, 0.28, 98, 1.100, 1.800, 25.400, 788, 100, 97, 21, 23500, -19150, 5288, 5396, 16, 14, 1529517071.946, 7, 0, 1024, 1024, 1024, 1024, 0, 6, 3913, 3887, 3935, 3919, 3914, 3933, 0, 1, 12501, -89.900, 0.000, 25.600, 0.000, 0.000, -2.900, 0.0, , , , , , 96, , , 27, 27, 27
38.5387151, -120.5236100, 21.200, 10:51:12.045, 16, 0.00, 0.27, 98, 0.400, 1.700, 25.100, 788, 100, 97, 21, 23500, -19150, 5288, 5396, 16, 14, 1529517072.045, 7, 0, 1024, 1024, 1024, 1024, 0, 6, 3913, 3887, 3935, 3919, 3914, 3933, 0, 1, 12600, -89.900, 0.000, 25.600, 0.000, 0.000, -3.000, 0.0, , , , , , 96, , , 27, 27, 27
38.5387151, -120.5236099, 21.500, 10:51:12.146, 16, 0.00, 0.27, 98, 0.100, 1.700, 25.100, 788, 100, 97, 21, 23500, -19150, 5288, 5396, 16, 14, 1529517072.146, 2, 0, 1024, 1024, 1024, 1024, 0, 6, 3913, 3887, 3935, 3919, 3914, 3933, 0, 1, 12701, -89.900, 0.000, 25.600, 0.000, 0.000, -2.900, 0.0, , , , , , 96, , , 27, 27, 27
38.5387151, -120.5236099, 21.500, 10:51:12.244, 16, 0.00, 0.27, 98, 0.100, 1.700, 25.100, 788, 100, 97, 21, 23500, -19150, 5288, 5396, 16, 14, 1529517072.244, 100, 0, 1024, 1024, 1024, 1024, 0, 6, 3913, 3887, 3935, 3919, 3914, 3933, 0, 1, 12799, -89.900, 0.000, 25.600, 0.000, 0.000, -2.900, 0.0, , , , , , 96, , , 27, 27, 27
38.5387150, -120.5236097, 22.100, 10:51:12.345, 16, 0.00, 0.26, 98, -0.500, 2.000, 25.500, 788, 100, 97, 21, 23500, -19150, 5288, 5396, 16, 14, 1529517072.345, 5, 0, 1024, 1024, 1024, 1024, 0, 6, 3913, 3887, 3935, 3919, 3914, 3933, 0, 1, 12900, -89.900, 0.000, 25.600, 0.000, 0.000, -2.900, 0.0, , , , , , 96, , , 27, 27, 27
38.5387150, -120.5236097, 22.100, 10:51:12.445, 16, 0.00, 0.26, 98, -0.500, 2.000, 25.500, 788, 100, 97, 21, 23500, -19150, 5288, 5396, 16, 14, 1529517072.445, 105, 0, 1024, 1024, 1024, 1024, 0, 6, 3913, 3887, 3935, 3919, 3914, 3933, 0, 1, 13000, -89.900, 0.000, 25.600, 0.000, 0.000, -2.900, 0.0, , , , , , 96, , , 27, 27, 27
38.5387150, -120.5236097, 22.400, 10:51:12.544, 16, 0.00, 0.25, 98, -0.600, 2.100, 25.700, 788, 100, 95, 21, 23500, -19150, 5288, 5396, 16, 14, 1529517072.545, 95, 0, 1024, 1024, 1024, 1024, 0, 6, 3913, 3887, 3935, 3919, 3914, 3933, 0, 1, 13100, -89.900, 0.000, 25.600, 0.000, 0.000, -2.900, 0.0, , , , , , 96, , , 27, 27, 27
38.5387150, -120.5236096, 22.700, 10:51:12.644, 16, 0.00, 0.25, 98, -0.300, 2.300, 25.800, 788, 100, 95, 21, 23500, -19150, 5288, 5396, 16, 14, 1529517072.645, 86, 0, 1024, 1024, 1024, 1024, 0, 6, 3913, 3887, 3935, 3919, 3914, 3933, 0, 1, 13200, -89.900, 0.000, 25.600, 0.000, 0.000, -3.000, 0.0, , , , , , 96, , , 27, 27, 27
38.5387150, -120.5236095, 23.000, 10:51:12.745, 16, 0.00, 0.25, 98, -0.200, 2.300, 26.000, 788, 100, 95, 21, 23500, -19150, 5288, 5396, 16, 14, 1529517072.745, 86, 0, 1024, 1024, 1024, 1024, 0, 6, 3913, 3887, 3935, 3919, 3914, 3933, 0, 1, 13300, -89.900, 0.000, 25.600, 0.000, 0.000, -2.900, 0.0, , , , , , 96, , , 27, 27, 27
38.5387150, -120.5236095, 23.300, 10:51:12.845, 17, 0.00, 0.25, 98, 0.000, 2.400, 26.200, 788, 100, 95, 21, 23500, -19150, 5288, 5396, 16, 14, 1529517072.845, 78, 0, 1024, 1024, 1024, 1024, 0, 6, 3913, 3887, 3935, 3919, 3914, 3933, 0, 1, 13400, -89.900, 0.000, 25.600, 0.000, 0.000, -2.900, 0.0, , , , , , 96, , , 27, 27, 27
38.5387150, -120.5236095, 23.600, 10:51:12.945, 17, 0.00, 0.25, 98, 0.200, 2.100, 26.300, 788, 100, 95, 21, 23492, -18707, 5288, 5396, 16, 14, 1529517072.945, 71, 0, 1024, 1024, 1024, 1024, 0, 6, 3913, 3887, 3935, 3919, 3914, 3933, 0, 1, 13500, -89.900, 0.000, 25.600, 0.000, 0.000, -3.000, 0.0, , , , , , 96, , , 27, 27, 27
38.5387150, -120.5236095, 23.900, 10:51:13.045, 17, 0.00, 0.25, 98, 0.000, 1.800, 26.300, 788, 100, 94, 21, 23492, -18707, 5288, 5396, 16, 14, 1529517073.045, 48, 0, 1024, 1024, 1024, 1024, 0, 6, 3913, 3887, 3935, 3919, 3914, 3933, 0, 1, 13600, -89.900, 0.000, 25.600, 0.000, 0.000, -3.000, 0.0, , , , , , 96, , , 27, 27, 27
38.5387150, -120.5236096, 24.300, 10:51:13.144, 17, 0.00, 0.25, 98, 0.300, 1.600, 26.200, 788, 100, 94, 21, 23492, -18707, 5288, 5396, 16, 14, 1529517073.145, 62, 0, 1024, 1024, 1024, 1024, 0, 6, 3913, 3887, 3935, 3919, 3914, 3933, 0, 1, 13700, -89.900, 0.000, 25.600, 0.000, 0.000, -3.000, 0.0, , , , , , 96, , , 27, 27, 27
38.5387150, -120.5236097, 24.600, 10:51:13.245, 17, 0.00, 0.26, 98, 1.100, 1.500, 26.200, 788, 100, 94, 21, 23492, -18707, 5288, 5396, 16, 14, 1529517073.245, 48, 0, 1024, 1024, 1024, 1024, 0, 6, 3913, 3887, 3935, 3919, 3914, 3933, 0, 1, 13800, -90.000, 0.000, 25.600, 0.000, 0.000, -3.000, 0.0, , , , , , 96, , , 27, 27, 27
38.5387150, -120.5236097, 24.900, 10:51:13.345, 17, 0.00, 0.26, 98, 1.900, 1.200, 26.000, 788, 100, 94, 21, 23492, -18707, 5288, 5396, 16, 14, 1529517073.345, 54, 0, 1024, 1024, 1024, 1024, 0, 6, 3913, 3887, 3935, 3919, 3914, 3933, 0, 1, 13900, -89.900, 0.000, 25.600, 0.000, 0.000, -2.900, 0.0, , , , , , 96, , , 27, 27, 27
38.5387150, -120.5236098, 25.200, 10:51:13.445, 17, 0.00, 0.26, 98, 2.200, 1.200, 25.900, 788, 100, 94, 21, 23492, -18707, 5288, 5396, 16, 14, 1529517073.445, 66, 0, 1024, 1024, 1024, 1024, 0, 6, 3908, 3887, 3922, 3916, 3925, 3931, 0, 1, 14000, -89.900, 0.000, 25.600, 0.000, 0.000, -2.900, 0.0, , , , , , 96, , , 27, 27, 27
38.5387150, -120.5236099, 25.500, 10:51:13.545, 17, 0.00, 0.26, 98, 1.900, 1.200, 25.700, 788, 100, 94, 21, 23492, -18707, 5288, 5396, 16, 14, 1529517073.545, 32, 0, 1024, 1024, 1024, 1024, 0, 6, 3908, 3887, 3922, 3916, 3925, 3931, 0, 1, 14100, -89.900, 0.000, 25.600, 0.000, 0.000, -2.900, 0.0, , , , , , 96, , , 27, 27, 27
38.5387151, -120.5236100, 25.800, 10:51:13.644, 17, 0.00, 0.27, 98, 1.700, 1.200, 25.500, 788, 100, 94, 21, 23492, -18707, 5288, 5396, 16, 14, 1529517073.645, 40, 0, 1024, 1024, 1024, 1024, 0, 6, 3908, 3887, 3922, 3916, 3925, 3931, 0, 1, 14200, -89.900, 0.000, 25.600, 0.000, 0.000, -2.800, 0.0, , , , , , 96, , , 27, 27, 27
38.5387151, -120.5236101, 26.100, 10:51:13.744, 17, 0.00, 0.27, 98, 1.900, 1.300, 25.400, 788, 100, 94, 21, 23492, -18707, 5288, 5396, 16, 14, 1529517073.745, 54, 0, 1024, 1024, 1024, 1024, 0, 6, 3908, 3887, 3922, 3916, 3925, 3931, 0, 1, 14300, -89.900, 0.000, 25.600, 0.000, 0.000, -2.900, 0.0, , , , , , 96, , , 27, 27, 27
38.5387151, -120.5236101, 26.400, 10:51:13.844, 17, 0.00, 0.28, 98, 2.100, 1.600, 25.300, 788, 100, 94, 21, 23492, -18707, 5288, 5396, 16, 14, 1529517073.844, 44, 0, 1024, 1024, 1024, 1024, 0, 6, 3908, 3887, 3922, 3916, 3925, 3931, 0, 1, 14399, -89.900, 0.000, 25.600, 0.000, 0.000, -2.900, 0.0, , , , , , 96, , , 27, 27, 27
38.5387152, -120.5236103, 26.700, 10:51:13.944, 17, 0.00, 0.29, 98, 2.300, 1.800, 25.400, 788, 100, 94, 21, 23492, -18707, 5288, 5396, 16, 14, 1529517073.945, 24, 0, 1024, 1024, 1024, 1024, 0, 6, 3908, 3887, 3922, 3916, 3925, 3931, 0, 1, 14500, -89.900, 0.000, 25.600, 0.000, 0.000, -2.800, 0.0, , , , , , 96, , , 27, 27, 27
38.5387153, -120.5236104, 27.000, 10:51:14.044, 17, 0.10, 0.30, 98, 2.700, 1.700, 25.400, 788, 100, 98, 21, 23492, -18707, 5288, 5396, 16, 14, 1529517074.044, 39, 0, 1024, 1024, 1024, 1024, 0, 6, 3908, 3887, 3922, 3916, 3925, 3931, 0, 1, 14599, -89.900, 0.000, 25.600, 0.000, -0.100, -2.800, 0.0, , , , , , 96, , , 27, 27, 27
38.5387153, -120.5236106, 27.300, 10:51:14.144, 17, 0.10, 0.31, 98, 3.000, 1.600, 25.400, 788, 100, 98, 21, 23492, -18707, 5288, 5396, 16, 14, 1529517074.145, 31, 0, 1024, 1024, 1024, 1024, 0, 6, 3908, 3887, 3922, 3916, 3925, 3931, 0, 1, 14700, -89.900, 0.000, 25.600, 0.000, -0.100, -2.900, 0.0, , , , , , 96, , , 27, 27, 27
38.5387153, -120.5236107, 27.600, 10:51:14.244, 17, 0.10, 0.32, 98, 3.600, 1.600, 25.300, 788, 100, 98, 21, 23492, -18707, 5288, 5396, 16, 14, 1529517074.245, 33, 0, 1024, 1024, 1024, 1024, 0, 6, 3908, 3887, 3922, 3916, 3925, 3931, 0, 1, 14800, -89.900, 0.000, 25.600, 0.000, -0.100, -2.800, 0.0, , , , , , 96, , , 27, 27, 27
38.5387154, -120.5236109, 27.900, 10:51:14.344, 17, 0.00, 0.33, 98, 3.600, 1.200, 25.400, 788, 100, 98, 21, 23492, -18707, 5288, 5396, 16, 14, 1529517074.345, 15, 0, 1024, 1024, 1024, 1024, 0, 6, 3908, 3887, 3922, 3916, 3925, 3931, 0, 1, 14900, -89.900, 0.000, 25.600, 0.000, 0.000, -2.800, 0.0, , , , , , 96, , , 27, 27, 27
38.5387154, -120.5236110, 28.200, 10:51:14.445, 17, 0.00, 0.34, 98, 3.300, 1.100, 25.700, 788, 100, 98, 21, 23404, -18805, 5288, 5396, 16, 14, 1529517074.445, 12, 0, 1024, 1024, 1024, 1024, 0, 6, 3892, 3862, 3923, 3898, 3934, 3912, 0, 1, 15000, -89.900, 0.000, 25.600, 0.000, 0.000, -2.800, 0.0, , , , , , 96, , , 27, 27, 27
38.5387154, -120.5236111, 28.400, 10:51:14.544, 17, 0.00, 0.34, 98, 3.200, 1.300, 26.000, 788, 100, 100, 21, 23404, -18805, 5288, 5396, 16, 14, 1529517074.545, 13, 0, 1024, 1024, 1024, 1024, 0, 6, 3892, 3862, 3923, 3898, 3934, 3912, 0, 1, 15100, -89.900, 0.000, 25.600, 0.000, 0.000, -2.800, 0.0, , , , , , 96, , , 27, 27, 27
38.5387156, -120.5236113, 29.000, 10:51:14.644, 17, 0.00, 0.37, 98, 3.500, 1.900, 26.300, 788, 100, 100, 21, 23404, -18805, 5288, 5396, 16, 14, 1529517074.645, 26, 0, 1024, 1024, 1024, 1024, 0, 6, 3892, 3862, 3923, 3898, 3934, 3912, 0, 1, 15200, -89.900, 0.000, 25.600, 0.000, 0.000, -2.900, 0.0, , , , , , 96, , , 27, 27, 27
38.5387156, -120.5236113, 29.000, 10:51:14.744, 17, 0.00, 0.37, 98, 3.500, 1.900, 26.300, 788, 100, 100, 21, 23404, -18805, 5288, 5396, 16, 14, 1529517074.745, 126, 0, 1024, 1024, 1024, 1024, 0, 6, 3892, 3862, 3923, 3898, 3934, 3912, 0, 1, 15300, -89.900, 0.000, 25.600, 0.000, 0.000, -2.900, 0.0, , , , , , 96, , , 27, 27, 27
38.5387157, -120.5236115, 29.300, 10:51:14.844, 17, 0.00, 0.38, 98, 4.300, 1.900, 26.300, 788, 100, 100, 21, 23404, -18805, 5288, 5396, 16, 14, 1529517074.845, 82, 0, 1024, 1024, 1024, 1024, 0, 6, 3892, 3862, 3923, 3898, 3934, 3912, 0, 1, 15400, -89.900, 0.000, 25.600, 0.000, 0.000, -2.800, 0.0, , , , , , 96, , , 27, 27, 27
38.5387158, -120.5236116, 29.900, 10:51:14.944, 17, 0.00, 0.41, 98, 4.400, 1.600, 26.200, 788, 100, 100, 21, 23404, -18805, 5288, 5396, 16, 14, 1529517074.945, 12, 0, 1024, 1024, 1024, 1024, 0, 6, 3892, 3862, 3923, 3898, 3934, 3912, 0, 1, 15500, -89.900, 0.000, 25.600, 0.000, 0.000, -2.800, 0.0, , , , , , 96, , , 27, 27, 27
38.5387158, -120.5236116, 29.900, 10:51:15.044, 17, 0.00, 0.41, 98, 4.400, 1.600, 26.200, 788, 100, 100, 21, 23404, -18805, 5288, 5396, 16, 14, 1529517075.044, 111, 0, 1024, 1024, 1024, 1024, 0, 6, 3892, 3862, 3923, 3898, 3934, 3912, 0, 1, 15600, -89.900, 0.000, 25.600, 0.000, 0.000, -2.800, 0.0, , , , , , 96, , , 27, 27, 27
38.5387160, -120.5236118, 30.400, 10:51:15.144, 17, 0.10, 0.43, 98, 4.300, 3.000, 26.100, 788, 100, 100, 21, 23404, -18805, 5288, 5396, 16, 14, 1529517075.144, 5, 0, 1024, 1024, 1024, 1024, 0, 6, 3892, 3862, 3923, 3898, 3934, 3912, 0, 1, 15699, -89.900, 0.000, 25.600, 0.100, 0.000, -2.800, 0.0, , , , , , 96, , , 27, 27, 27
38.5387160, -120.5236118, 30.400, 10:51:15.244, 17, 0.10, 0.43, 98, 4.300, 3.000, 26.100, 788, 100, 100, 21, 23404, -18805, 5288, 5396, 16, 14, 1529517075.245, 106, 0, 1024, 1024, 1024, 1024, 0, 6, 3892, 3862, 3923, 3898, 3934, 3912, 0, 1, 15800, -89.900, 0.000, 25.600, 0.100, 0.000, -2.800, 0.0, , , , , , 96, , , 27, 27, 27
38.5387162, -120.5236118, 30.700, 10:51:15.344, 17, 0.10, 0.45, 98, 4.500, 3.900, 26.000, 788, 100, 100, 21, 23404, -18805, 5288, 5396, 16, 14, 1529517075.345, 78, 0, 1024, 1024, 1024, 1024, 0, 6, 3892, 3862, 3923, 3898, 3934, 3912, 0, 1, 15900, -89.900, 0.000, 25.600, 0.100, 0.000, -2.800, 0.0, , , , , , 96, , , 27, 27, 27
38.5387163, -120.5236118, 31.000, 10:51:15.444, 17, 0.00, 0.46, 98, 4.100, 4.300, 25.900, 788, 100, 100, 21, 23467, -18223, 5288, 5396, 16, 14, 1529517075.445, 81, 0, 1024, 1024, 1024, 1024, 0, 6, 3902, 3885, 3930, 3915, 3926, 3923, 0, 1, 16000, -89.900, 0.000, 25.600, 0.000, 0.000, -2.900, 0.0, , , , , , 96, , , 27, 27, 27
38.5387164, -120.5236118, 31.200, 10:51:15.544, 17, 0.00, 0.47, 98, 3.400, 4.100, 25.800, 788, 100, 100, 21, 23467, -18223, 5288, 5396, 16, 14, 1529517075.545, 83, 0, 1024, 1024, 1024, 1024, 0, 6, 3902, 3885, 3930, 3915, 3926, 3923, 0, 1, 16100, -89.900, 0.000, 25.600, 0.000, 0.000, -2.900, 0.0, , , , , , 96, , , 27, 27, 27
38.5387164, -120.5236118, 31.500, 10:51:15.644, 17, 0.00, 0.47, 98, 3.100, 4.100, 25.800, 788, 100, 100, 21, 23467, -18223, 5288, 5396, 16, 14, 1529517075.645, 91, 0, 1024, 1024, 1024, 1024, 0, 6, 3902, 3885, 3930, 3915, 3926, 3923, 0, 1, 16200, -89.900, 0.000, 25.600, 0.000, 0.000, -3.000, 0.0, , , , , , 96, , , 27, 27, 27
38.5387165, -120.5236119, 31.800, 10:51:15.744, 17, 0.00, 0.48, 98, 4.200, 3.800, 25.700, 788, 100, 100, 21, 23467, -18223, 5288, 5396, 16, 14, 1529517075.745, 62, 0, 1024, 1024, 1024, 1024, 0, 6, 3902, 3885, 3930, 3915, 3926, 3923, 0, 1, 16300, -89.900, 0.000, 25.600, 0.000, 0.000, -3.000, 0.0, , , , , , 96, , , 27, 27, 27
38.5387166, -120.5236120, 32.100, 10:51:15.844, 17, 0.00, 0.50, 98, 5.300, 3.900, 25.600, 788, 100, 100, 21, 23467, -18223, 5288, 5396, 16, 14, 1529517075.845, 52, 0, 1024, 1024, 1024, 1024, 0, 6, 3902, 3885, 3930, 3915, 3926, 3923, 0, 1, 16400, -89.900, 0.000, 25.600, 0.000, 0.000, -3.000, 0.0, , , , , , 96, , , 27, 27, 27
38.5387167, -120.5236121, 32.400, 10:51:15.944, 17, 0.00, 0.51, 98, 5.900, 3.500, 25.600, 788, 100, 100, 21, 23467, -18223, 5288, 5396, 16, 14, 1529517075.945, 54, 0, 1024, 1024, 1024, 1024, 0, 6, 3902, 3885, 3930, 3915, 3926, 3923, 0, 1, 16500, -89.900, 0.000, 25.600, 0.000, 0.000, -3.000, 0.0, , , , , , 96, , , 27, 27, 27
38.5387167, -120.5236122, 32.800, 10:51:16.045, 17, 0.00, 0.52, 98, 5.800, 3.100, 25.600, 788, 100, 100, 21, 23467, -18223, 5288, 5396, 16, 14, 1529517076.045, 56, 0, 1024, 1024, 1024, 1024, 0, 6, 3902, 3885, 3930, 3915, 3926, 3923, 0, 1, 16600, -89.900, 0.000, 25.600, 0.000, 0.000, -3.000, 0.0, , , , , , 96, , , 27, 27, 27
38.5387168, -120.5236123, 33.100, 10:51:16.144, 17, 0.00, 0.52, 98, 5.600, 2.900, 25.600, 788, 100, 100, 21, 23467, -18223, 5288, 5396, 16, 14, 1529517076.145, 43, 0, 1024, 1024, 1024, 1024, 0, 6, 3902, 3885, 3930, 3915, 3926, 3923, 0, 1, 16700, -89.900, 0.000, 25.600, 0.000, 0.000, -3.000, 0.0, , , , , , 96, , , 27, 27, 27
38.5387168, -120.5236124, 33.400, 10:51:16.244, 17, 0.00, 0.53, 98, 5.900, 3.200, 25.700, 788, 100, 100, 21, 23467, -18223, 5288, 5396, 16, 14, 1529517076.245, 33, 0, 1024, 1024, 1024, 1024, 0, 6, 3902, 3885, 3930, 3915, 3926, 3923, 0, 1, 16800, -89.900, 0.000, 25.600, 0.000, 0.000, -3.100, 0.0, , , , , , 96, , , 27, 27, 27
38.5387168, -120.5236125, 33.700, 10:51:16.344, 17, 0.00, 0.54, 98, 6.400, 3.300, 25.700, 788, 100, 100, 21, 23467, -18223, 5288, 5396, 16, 14, 1529517076.345, 34, 0, 1024, 1024, 1024, 1024, 0, 6, 3902, 3885, 3930, 3915, 3926, 3923, 0, 1, 16900, -89.900, 0.000, 25.600, 0.000, 0.000, -2.900, 0.0, , , , , , 96, , , 27, 27, 27
38.5387168, -120.5236125, 33.700, 10:51:16.444, 17, 0.00, 0.54, 98, 6.400, 3.300, 25.700, 788, 100, 100, 21, 23397, -18984, 5288, 5396, 16, 14, 1529517076.445, 134, 0, 1024, 1024, 1024, 1024, 0, 6, 3902, 3885, 3930, 3915, 3926, 3923, 0, 1, 17000, -89.900, 0.000, 25.600, 0.000, 0.000, -2.900, 0.0, , , , , , 96, , , 27, 27, 27
38.5387168, -120.5236127, 34.200, 10:51:16.544, 17, 0.00, 0.55, 98, 6.200, 2.700, 25.700, 788, 100, 100, 21, 23397, -18984, 5288, 5396, 16, 14, 1529517076.545, 22, 0, 1024, 1024, 1024, 1024, 0, 6, 3885, 3864, 3927, 3893, 3905, 3905, 0, 1, 17100, -89.900, 0.000, 25.600, 0.000, 0.000, -2.700, 0.0, , , , , , 96, , , 27, 27, 27
38.5387168, -120.5236126, 34.500, 10:51:16.644, 17, 0.00, 0.55, 98, 5.500, 2.800, 25.700, 788, 100, 100, 21, 23397, -18984, 5288, 5396, 16, 14, 1529517076.645, 41, 0, 1024, 1024, 1024, 1024, 0, 6, 3885, 3864, 3927, 3893, 3905, 3905, 0, 1, 17200, -89.900, 0.000, 25.600, 0.000, 0.000, -2.800, 0.0, , , , , , 96, , , 27, 27, 27
38.5387169, -120.5236126, 34.700, 10:51:16.744, 17, 0.00, 0.55, 98, 5.100, 3.200, 25.700, 788, 100, 100, 21, 23397, -18984, 5288, 5396, 16, 14, 1529517076.745, 30, 0, 1024, 1024, 1024, 1024, 0, 6, 3885, 3864, 3927, 3893, 3905, 3905, 0, 1, 17300, -89.900, 0.000, 25.600, 0.000, 0.000, -2.800, 0.0, , , , , , 96, , , 27, 27, 27
38.5387169, -120.5236125, 35.300, 10:51:16.844, 17, 0.00, 0.55, 98, 4.700, 3.900, 25.700, 788, 100, 100, 21, 23397, -18984, 5288, 5396, 16, 14, 1529517076.845, 20, 0, 1024, 1024, 1024, 1024, 0, 6, 3885, 3864, 3927, 3893, 3905, 3905, 0, 1, 17400, -89.900, 0.000, 25.600, 0.000, 0.000, -3.000, 0.0, , , , , , 96, , , 27, 27, 27
38.5387169, -120.5236125, 35.300, 10:51:16.944, 17, 0.00, 0.55, 98, 4.700, 3.900, 25.700, 788, 100, 99, 21, 23397, -18984, 5288, 5396, 16, 14, 1529517076.945, 120, 0, 1024, 1024, 1024, 1024, 0, 6, 3885, 3864, 3927, 3893, 3905, 3905, 0, 1, 17500, -89.900, 0.000, 25.600, 0.000, 0.000, -3.000, 0.0, , , , , , 96, , , 27, 27, 27
38.5387169, -120.5236123, 35.900, 10:51:17.048, 17, 0.00, 0.54, 98, 4.200, 4.600, 25.900, 788, 100, 99, 21, 23397, -18984, 5288, 5396, 16, 14, 1529517077.048, 2, 0, 1024, 1024, 1024, 1024, 0, 6, 3885, 3864, 3927, 3893, 3905, 3905, 0, 1, 17603, -89.900, 0.000, 25.600, 0.000, 0.000, -2.900, 0.0, , , , , , 96, , , 27, 27, 27
38.5387169, -120.5236123, 35.900, 10:51:17.144, 17, 0.00, 0.54, 98, 4.200, 4.600, 25.900, 788, 100, 99, 21, 23397, -18984, 5288, 5396, 16, 14, 1529517077.144, 98, 0, 1024, 1024, 1024, 1024, 0, 6, 3885, 3864, 3927, 3893, 3905, 3905, 0, 1, 17700, -89.900, 0.000, 25.600, 0.000, 0.000, -2.900, 0.0, , , , , , 96, , , 27, 27, 27
38.5387169, -120.5236123, 36.100, 10:51:17.244, 17, 0.00, 0.53, 98, 4.200, 4.300, 25.800, 788, 100, 99, 21, 23397, -18984, 5288, 5396, 16, 14, 1529517077.245, 93, 0, 1024, 1024, 1024, 1024, 0, 6, 3885, 3864, 3927, 3893, 3905, 3905, 0, 1, 17800, -89.900, 0.000, 25.600, 0.000, 0.000, -3.000, 0.0, , , , , , 96, , , 27, 27, 27
38.5387168, -120.5236122, 36.400, 10:51:17.344, 17, 0.10, 0.52, 98, 3.800, 4.000, 25.700, 788, 100, 99, 21, 23397, -18984, 5288, 5396, 16, 14, 1529517077.345, 83, 0, 1024, 1024, 1024, 1024, 0, 6, 3885, 3864, 3927, 3893, 3905, 3905, 0, 1, 17900, -89.900, 0.000, 25.600, 0.000, 0.100, -3.000, 0.0, , , , , , 96, , , 27, 27, 27
38.5387168, -120.5236120, 36.700, 10:51:17.444, 17, 0.10, 0.52, 98, 3.500, 3.900, 25.600, 788, 100, 99, 21, 23421, -18645, 5234, 5396, 16, 14, 1529517077.445, 88, 0, 1024, 1024, 1024, 1024, 0, 6, 3900, 3865, 3901, 3894, 3897, 3919, 0, 1, 18000, -89.900, 0.000, 25.600, 0.000, 0.100, -3.100, 0.0, , , , , , 96, , , 27, 27, 27
38.5387168, -120.5236119, 37.000, 10:51:17.544, 17, 0.10, 0.51, 98, 3.600, 4.500, 25.700, 788, 100, 99, 21, 23421, -18645, 5234, 5396, 16, 14, 1529517077.545, 87, 0, 1024, 1024, 1024, 1024, 0, 6, 3900, 3865, 3901, 3894, 3897, 3919, 0, 1, 18100, -89.900, 0.000, 25.600, 0.000, 0.100, -3.100, 0.0, , , , , , 96, , , 27, 27, 27
38.5387168, -120.5236119, 37.300, 10:51:17.644, 17, 0.00, 0.51, 98, 4.000, 5.000, 25.700, 788, 100, 99, 21, 23421, -18645, 5234, 5396, 16, 14, 1529517077.645, 80, 0, 1024, 1024, 1024, 1024, 0, 6, 3900, 3865, 3901, 3894, 3897, 3919, 0, 1, 18200, -89.900, 0.000, 25.600, 0.000, 0.000, -3.100, 0.0, , , , , , 96, , , 27, 27, 27
38.5387168, -120.5236118, 37.600, 10:51:17.744, 17, 0.00, 0.51, 98, 3.800, 5.400, 25.800, 788, 100, 99, 21, 23421, -18645, 5234, 5396, 16, 14, 1529517077.745, 93, 0, 1024, 1024, 1024, 1024, 0, 6, 3900, 3865, 3901, 3894, 3897, 3919, 0, 1, 18300, -89.900, 0.000, 25.600, 0.000, 0.000, -3.000, 0.0, , , , , , 96, , , 27, 27, 27
38.5387168, -120.5236117, 37.900, 10:51:17.844, 17, 0.00, 0.50, 98, 3.500, 5.400, 25.900, 788, 100, 99, 21, 23421, -18645, 5234, 5396, 16, 14, 1529517077.845, 82, 0, 1024, 1024, 1024, 1024, 0, 6, 3900, 3865, 3901, 3894, 3897, 3919, 0, 1, 18400, -89.900, 0.000, 25.600, 0.000, 0.000, -3.000, 0.0, , , , , , 96, , , 27, 27, 27
38.5387168, -120.5236116, 38.200, 10:51:17.944, 17, 0.00, 0.50, 98, 3.000, 5.300, 25.900, 788, 100, 99, 21, 23421, -18645, 5234, 5396, 16, 14, 1529517077.945, 82, 0, 1024, 1024, 1024, 1024, 0, 6, 3900, 3865, 3901, 3894, 3897, 3919, 0, 1, 18500, -89.900, 0.000, 25.600, 0.000, 0.000, -3.000, 0.0, , , , , , 96, , , 27, 27, 27
38.5387168, -120.5236116, 38.500, 10:51:18.043, 17, 0.00, 0.49, 98, 3.100, 4.800, 25.900, 788, 100, 99, 21, 23421, -18645, 5234, 5396, 16, 14, 1529517078.044, 84, 0, 1024, 1024, 1024, 1024, 0, 6, 3900, 3865, 3901, 3894, 3897, 3919, 0, 1, 18599, -89.900, 0.000, 25.600, 0.000, 0.000, -3.100, 0.0, , , , , , 96, , , 27, 27, 27
38.5387167, -120.5236115, 38.900, 10:51:18.144, 17, 0.00, 0.49, 98, 3.600, 4.500, 25.800, 788, 100, 99, 21, 23421, -18645, 5234, 5396, 16, 14, 1529517078.145, 72, 0, 1024, 1024, 1024, 1024, 0, 6, 3900, 3865, 3901, 3894, 3897, 3919, 0, 1, 18700, -89.900, 0.000, 25.600, 0.000, 0.000, -3.100, 0.0, , , , , , 96, , , 27, 27, 27
38.5387167, -120.5236115, 39.200, 10:51:18.244, 17, 0.00, 0.49, 98, 3.900, 4.300, 25.800, 788, 100, 99, 21, 23421, -18645, 5234, 5396, 16, 14, 1529517078.245, 79, 0, 1024, 1024, 1024, 1024, 0, 6, 3900, 3865, 3901, 3894, 3897, 3919, 0, 1, 18800, -89.900, 0.000, 25.600, 0.000, 0.000, -3.200, 0.0, , , , , , 96, , , 27, 27, 27
38.5387167, -120.5236115, 39.500, 10:51:18.344, 17, 0.00, 0.49, 98, 4.100, 4.300, 25.700, 788, 100, 99, 21, 23421, -18645, 5234, 5396, 16, 14, 1529517078.345, 59, 0, 1024, 1024, 1024, 1024, 0, 6, 3900, 3865, 3901, 3894, 3897, 3919, 0, 1, 18900, -89.900, 0.000, 25.600, 0.000, 0.000, -3.200, 0.0, , , , , , 96, , , 27, 27, 27
38.5387167, -120.5236116, 39.800, 10:51:18.444, 17, 0.00, 0.49, 98, 4.600, 4.300, 25.700, 788, 100, 99, 21, 23187, -20733, 5234, 5396, 16, 14, 1529517078.445, 41, 0, 1024, 1024, 1024, 1024, 0, 6, 3900, 3865, 3901, 3894, 3897, 3919, 0, 1, 19000, -89.900, 0.000, 25.600, 0.000, 0.000, -3.200, 0.0, , , , , , 96, , , 27, 27, 27
38.5387168, -120.5236116, 40.200, 10:51:18.544, 17, 0.00, 0.50, 98, 5.000, 4.500, 25.700, 788, 100, 98, 21, 23187, -20733, 5234, 5396, 16, 14, 1529517078.545, 56, 0, 1024, 1024, 1024, 1024, 0, 6, 3900, 3865, 3901, 3894, 3897, 3919, 0, 1, 19100, -89.900, 0.000, 25.600, 0.000, 0.000, -3.200, 0.0, , , , , , 96, , , 27, 27, 27
38.5387168, -120.5236116, 40.500, 10:51:18.644, 17, 0.00, 0.50, 98, 5.300, 4.700, 25.800, 788, 100, 98, 21, 23187, -20733, 5234, 5396, 16, 14, 1529517078.645, 60, 0, 1024, 1024, 1024, 1024, 0, 6, 3900, 3865, 3901, 3894, 3897, 3919, 0, 1, 19200, -89.900, 0.000, 25.600, 0.000, 0.000, -3.200, 0.0, , , , , , 96, , , 27, 27, 27
38.5387168, -120.5236117, 40.800, 10:51:18.743, 17, 0.00, 0.51, 98, 5.500, 4.600, 25.900, 788, 100, 98, 21, 23187, -20733, 5234, 5396, 16, 14, 1529517078.743, 25, 0, 1024, 1024, 1024, 1024, 0, 6, 3900, 3865, 3901, 3894, 3897, 3919, 0, 1, 19299, -89.900, 0.000, 25.600, 0.000, 0.000, -3.200, 0.0, , , , , , 96, , , 27, 27, 27
38.5387169, -120.5236117, 41.200, 10:51:18.844, 17, 0.00, 0.51, 98, 5.400, 4.700, 25.900, 788, 100, 98, 21, 23187, -20733, 5234, 5396, 16, 14, 1529517078.845, 26, 0, 1024, 1024, 1024, 1024, 0, 6, 3900, 3865, 3901, 3894, 3897, 3919, 0, 1, 19400, -89.900, 0.000, 25.600, 0.000, 0.000, -3.200, 0.0, , , , , , 96, , , 27, 27, 27
38.5387169, -120.5236117, 41.500, 10:51:18.944, 17, 0.00, 0.51, 97, 5.000, 4.600, 25.900, 788, 100, 97, 21, 23187, -20733, 5234, 5396, 16, 14, 1529517078.944, 11, 0, 1024, 1024, 1024, 1024, 0, 6, 3851, 3829, 3886, 3857, 3881, 3867, 0, 1, 19499, -89.900, 0.000, 25.600, 0.000, 0.000, -3.100, 0.0, , , , , , 96, , , 27, 27, 27
38.5387169, -120.5236116, 41.800, 10:51:19.044, 17, 0.00, 0.51, 97, 4.500, 4.800, 25.900, 788, 100, 97, 21, 23187, -20733, 5234, 5396, 16, 14, 1529517079.045, 24, 0, 1024, 1024, 1024, 1024, 0, 6, 3851, 3829, 3886, 3857, 3881, 3867, 0, 1, 19600, -89.900, 0.000, 25.600, 0.000, 0.000, -3.100, 0.0, , , , , , 96, , , 27, 27, 27
38.5387169, -120.5236116, 42.500, 10:51:19.144, 17, 0.00, 0.51, 97, 4.800, 4.900, 25.800, 788, 100, 97, 21, 23187, -20733, 5234, 5396, 16, 14, 1529517079.145, 29, 0, 1024, 1024, 1024, 1024, 0, 6, 3851, 3829, 3886, 3857, 3881, 3867, 0, 1, 19700, -89.900, 0.000, 25.600, 0.000, 0.000, -3.000, 0.0, , , , , , 96, , , 27, 27, 27
38.5387169, -120.5236116, 42.500, 10:51:19.244, 17, 0.00, 0.51, 97, 4.800, 4.900, 25.800, 788, 100, 97, 21, 23187, -20733, 5234, 5396, 16, 14, 1529517079.244, 128, 0, 1024, 1024, 1024, 1024, 0, 6, 3851, 3829, 3886, 3857, 3881, 3867, 0, 1, 19800, -89.900, 0.000, 25.600, 0.000, 0.000, -3.000, 0.0, , , , , , 96, , , 27, 27, 27
38.5387169, -120.5236116, 43.100, 10:51:19.356, 17, 0.00, 0.51, 97, 4.900, 4.800, 25.600, 788, 100, 97, 21, 23187, -20733, 5234, 5396, 16, 14, 1529517079.356, 1, 0, 1024, 1024, 1024, 1024, 0, 6, 3851, 3829, 3886, 3857, 3881, 3867, 0, 1, 19912, -89.900, 0.000, 25.600, 0.000, 0.000, -3.000, 0.0, , , , , , 96, , , 27, 27, 27
38.5387169, -120.5236116, 43.400, 10:51:19.445, 17, 0.00, 0.51, 97, 4.700, 4.900, 25.600, 788, 100, 97, 21, 23187, -20733, 5234, 5396, 16, 14, 1529517079.445, 4, 0, 1024, 1024, 1024, 1024, 0, 6, 3851, 3829, 3886, 3857, 3881, 3867, 0, 1, 20000, -89.900, 0.000, 25.600, 0.000, 0.000, -3.000, 0.0, , , , , , 96, , , 27, 27, 27
38.5387170, -120.5236116, 43.700, 10:51:19.544, 17, 0.00, 0.51, 97, 4.800, 5.000, 25.700, 788, 100, 97, 21, 23187, -20733, 5234, 5396, 16, 14, 1529517079.545, 6, 0, 1024, 1024, 1024, 1024, 0, 6, 3851, 3829, 3886, 3857, 3881, 3867, 0, 1, 20100, -89.900, 0.000, 25.600, 0.000, 0.000, -2.900, 0.0, , , , , , 96, , , 27, 27, 27
38.5387170, -120.5236116, 43.700, 10:51:19.644, 17, 0.00, 0.51, 97, 4.800, 5.000, 25.700, 788, 100, 97, 21, 23187, -20733, 5234, 5396, 16, 14, 1529517079.644, 106, 0, 1024, 1024, 1024, 1024, 0, 6, 3851, 3829, 3886, 3857, 3881, 3867, 0, 1, 20200, -89.900, 0.000, 25.600, 0.000, 0.000, -2.900, 0.0, , , , , , 96, , , 27, 27, 27
38.5387170, -120.5236116, 44.000, 10:51:19.744, 17, 0.00, 0.52, 97, 4.800, 5.100, 25.800, 788, 100, 97, 21, 23187, -20733, 5234, 5396, 16, 14, 1529517079.745, 98, 0, 1024, 1024, 1024, 1024, 0, 6, 3851, 3829, 3886, 3857, 3881, 3867, 0, 1, 20300, -89.900, 0.000, 25.600, 0.000, 0.000, -2.900, 0.0, , , , , , 96, , , 27, 27, 27
38.5387170, -120.5236116, 44.300, 10:51:19.844, 17, 0.00, 0.51, 97, 4.900, 5.000, 25.900, 788, 100, 97, 21, 23187, -20733, 5234, 5396, 16, 14, 1529517079.845, 66, 0, 1024, 1024, 1024, 1024, 0, 6, 3851, 3829, 3886, 3857, 3881, 3867, 0, 1, 20400, -89.900, 0.000, 25.600, 0.000, 0.000, -2.900, 0.0, , , , , , 96, , , 27, 27, 27
38.5387170, -120.5236115, 44.600, 10:51:19.944, 17, 0.00, 0.51, 97, 5.100, 4.900, 25.900, 788, 100, 97, 21, 23145, -17607, 5234, 5396, 16, 14, 1529517079.945, 68, 0, 1024, 1024, 1024, 1024, 0, 6, 3887, 3873, 3905, 3882, 3901, 3885, 0, 1, 20500, -89.900, 0.000, 25.600, 0.000, 0.000, -2.900, 0.0, , , , , , 96, , , 27, 27, 27
38.5387170, -120.5236115, 44.900, 10:51:20.044, 17, 0.00, 0.51, 97, 5.100, 4.800, 25.800, 788, 100, 99, 21, 23145, -17607, 5234, 5396, 16, 14, 1529517080.045, 71, 0, 1024, 1024, 1024, 1024, 0, 6, 3887, 3873, 3905, 3882, 3901, 3885, 0, 1, 20600, -89.900, 0.000, 25.600, 0.000, 0.000, -2.900, 0.0, , , , , , 96, , , 27, 27, 27
38.5387170, -120.5236115, 45.200, 10:51:20.144, 17, 0.00, 0.51, 97, 5.200, 4.900, 25.900, 788, 100, 99, 21, 23145, -17607, 5234, 5396, 16, 14, 1529517080.144, 72, 0, 1024, 1024, 1024, 1024, 0, 6, 3887, 3873, 3905, 3882, 3901, 3885, 0, 1, 20699, -89.900, 0.000, 25.600, 0.000, 0.000, -2.900, 0.0, , , , , , 96, , , 27, 27, 27
38.5387170, -120.5236115, 45.500, 10:51:20.244, 17, 0.00, 0.51, 97, 5.100, 5.100, 26.000, 788, 100, 99, 21, 23145, -17607, 5234, 5396, 16, 14, 1529517080.244, 61, 0, 1024, 1024, 1024, 1024, 0, 6, 3887, 3873, 3905, 3882, 3901, 3885, 0, 1, 20799, -89.900, 0.000, 25.600, 0.000, 0.000, -2.800, 0.0, , , , , , 96, , , 27, 27, 27
38.5387170, -120.5236114, 45.800, 10:51:20.343, 17, 0.00, 0.51, 97, 5.200, 5.400, 26.200, 788, 100, 99, 21, 23145, -17607, 5234, 5396, 16, 14, 1529517080.344, 48, 0, 1024, 1024, 1024, 1024, 0, 6, 3887, 3873, 3905, 3882, 3901, 3885, 0, 1, 20899, -89.900, 0.000, 25.600, 0.000, 0.000, -2.900, 0.0, , , , , , 96, , , 27, 27, 27
38.5387169, -120.5236114, 46.100, 10:51:20.444, 17, 0.00, 0.51, 97, 5.200, 5.500, 26.300, 788, 100, 99, 21, 23145, -17607, 5234, 5396, 16, 14, 1529517080.444, 53, 0, 1024, 1024, 1024, 1024, 0, 6, 3887, 3873, 3905, 3882, 3901, 3885, 0, 1, 20999, -89.900, 0.000, 25.600, 0.000, 0.000, -2.900, 0.0, , , , , , 96, , , 27, 27, 27
