latitude,longitude,altitude(feet),ascent(feet),speed(mph),distance(feet),time(millisecond),datetime(utc),satellites,gpslevel,voltage(v),max_altitude(feet),max_ascent(feet),max_speed(mph),max_distance(feet), xSpeed(mph), ySpeed(mph), zSpeed(mph), compass_heading(degrees), pitch(degrees), roll(degrees),isPhoto,isVideo,rc_elevator,rc_aileron,rc_throttle,rc_rudder,gimbal_heading(degrees),gimbal_pitch(degrees),battery_percent,voltageCell1,voltageCell2,voltageCell3,voltageCell4,voltageCell5,voltageCell6,current(A),battery_temperature(f),flycStateRaw,flycState,message
38.5387129,-120.5236093,3704.0539423486,0,0,0,3030,2018-06-20 17:51:02,13,0,25.538,3704.0539423486,0,0,0,0,0,0,25.6, 0.9, 0.2,1,0,1024,1024,1024,1024,25.6,-89.9,100,4.287,4.242,4.27,4.246,4.288,4.268,3.897,68,11,AutoTakeoff,DJI_0786.jpg Starting Mission from Lat/Long: 38.53871/-120.52361 Camera: Zenmuse X3 - Overlap: 90/90 - Active Connection: No
38.5387129,-120.5236093,3704.0539423486,0,0,0,3200,2018-06-20 17:51:03,13,0,25.538,3704.0539423486,0,0,0,0,0,0,25.7, 0.6, 0,0,0,1024,1024,1024,1024,25.6,-89.9,100,4.287,4.242,4.27,4.246,4.288,4.268,3.897,68,11,AutoTakeoff,
38.5387129,-120.5236094,3704.0539423486,0,0,0.028538058656,3300,2018-06-20 17:51:03,13,0,25.538,3704.0539423486,0,0,0.028538058656,0,0,0,25.8, 0, -0.1,0,0,1024,1024,1024,1024,25.6,-89.9,100,4.287,4.242,4.27,4.246,4.288,4.268,3.897,68,11,AutoTakeoff,
38.5387129,-120.5236094,3704.3820263486,0.328084,0,0.028538058656,3500,2018-06-20 17:51:03,13,0,25.538,3704.3820263486,0.328084,0,0.028538058656,0,0,0,25.9, -0.1, 0,0,0,1024,1024,1024,1024,25.6,-89.9,100,4.287,4.242,4.27,4.246,4.288,4.268,3.897,68,11,AutoTakeoff,
38.5387129,-120.5236095,3704.3820263486,0.328084,0,0.057076117312,3600,2018-06-20 17:51:03,13,0,25.538,3704.3820263486,0.328084,0,0.057076117312,0,0,0,25.9, 0, 0.1,0,0,1024,1024,1024,1024,25.6,-89.9,100,4.287,4.242,4.27,4.246,4.288,4.268,3.897,68,11,AutoTakeoff,
38.5387129,-120.5236095,3704.7101103486,0.656168,0,0.057076117312,3700,2018-06-20 17:51:03,13,0,25.538,3704.7101103486,0.656168,0,0.057076117312,0,0,0,25.9, 0.1, 0.4,0,0,1024,1024,1024,1024,25.6,-89.9,100,4.287,4.242,4.27,4.246,4.288,4.268,3.897,68,11,AutoTakeoff,
38.5387129,-120.5236096,3704.7101103486,0.656168,0,0.085614175968,3800,2018-06-20 17:51:03,13,0,25.538,3704.7101103486,0.656168,0,0.085614175968,0,0,0,25.8, 0.2, 0.6,0,0,1024,1024,1024,1024,25.6,-89.9,100,4.287,4.242,4.27,4.246,4.288,4.268,3.897,68,11,AutoTakeoff,
38.538713,-120.5236096,3704.7101103486,0.656168,0,0.09306430744,3900,2018-06-20 17:51:03,13,0,25.538,3704.7101103486,0.656168,0,0.09306430744,0,0,0,25.7, 0.1, 0.9,0,0,1024,1024,1024,1024,25.6,-89.9,100,4.287,4.242,4.27,4.246,4.288,4.268,3.897,68,11,AutoTakeoff,
38.538713,-120.5236096,3705.0381943486,0.984252,0,0.09306430744,4000,2018-06-20 17:51:03,13,0,25.352,3705.0381943486,0.984252,0,0.09306430744,0,0,0,25.5, 0.2, 0.8,0,0,1024,1024,1024,1024,25.6,-89.9,100,4.147,4.146,4.171,4.194,4.195,4.162,6.315,68,11,AutoTakeoff,
38.5387131,-120.5236096,3705.0381943486,0.984252,0,0.1124918015,4100,2018-06-20 17:51:04,13,0,25.352,3705.0381943486,0.984252,0,0.1124918015,0,0,0,25.5, 0.4, 0.8,0,0,1024,1024,1024,1024,25.6,-89.9,100,4.147,4.146,4.171,4.194,4.195,4.162,6.315,68,11,AutoTakeoff,
38.5387132,-120.5236097,3705.3662783486,1.312336,0,0.158148955192,4200,2018-06-20 17:51:04,13,0,25.352,3705.3662783486,1.312336,0,0.158148955192,0,0,0,25.4, 0.6, 0.9,0,0,1024,1024,1024,1024,25.6,-89.9,100,4.147,4.146,4.171,4.194,4.195,4.162,6.315,68,11,AutoTakeoff,
38.5387134,-120.5236098,3705.3662783486,1.312336,0,0.231601713448,4300,2018-06-20 17:51:04,13,0,25.352,3705.3662783486,1.312336,0,0.231601713448,0,0,-0.223694,25.4, 0.6, 0.9,0,0,1024,1024,1024,1024,25.6,-89.9,100,4.147,4.146,4.171,4.194,4.195,4.162,6.315,68,11,AutoTakeoff,
38.5387135,-120.5236098,3705.6943623486,1.64042,0.223694,0.261308079228,4400,2018-06-20 17:51:04,12,0,25.352,3705.6943623486,1.64042,0.223694,0.261308079228,0,0,-0.223694,25.4, 0.7, 1,0,0,1024,1024,1024,1024,25.6,-89.9,100,4.147,4.146,4.171,4.194,4.195,4.162,6.315,68,11,AutoTakeoff,
38.5387136,-120.5236098,3705.6943623486,1.64042,0.223694,0.2925525028,4500,2018-06-20 17:51:04,12,0,25.352,3705.6943623486,1.64042,0.223694,0.2925525028,0,0,0,25.4, 0.7, 1,0,0,1024,1024,1024,1024,25.6,-89.9,100,4.147,4.146,4.171,4.194,4.195,4.162,6.315,68,11,AutoTakeoff,
38.5387137,-120.5236098,3706.0224463486,1.968504,0.223694,0.324891086512,4600,2018-06-20 17:51:04,11,0,25.352,3706.0224463486,1.968504,0.223694,0.324891086512,0,0,-0.223694,25.5, 0.9, 0.9,0,0,1024,1024,1024,1024,25.6,-89.9,100,4.147,4.146,4.171,4.194,4.195,4.162,6.315,68,11,AutoTakeoff,
38.5387137,-120.5236098,3706.0224463486,1.968504,0,0.324891086512,4700,2018-06-20 17:51:04,11,0,25.352,3706.0224463486,1.968504,0.223694,0.324891086512,0,0,-0.223694,25.5, 1.1, 0.8,0,0,1024,1024,1024,1024,25.6,-89.9,100,4.147,4.146,4.171,4.194,4.195,4.162,6.315,68,11,AutoTakeoff,
38.5387139,-120.5236098,3706.3505303486,2.296588,0,0.39175854272,4800,2018-06-20 17:51:04,12,0,25.352,3706.3505303486,2.296588,0.223694,0.39175854272,0,0,-0.223694,25.6, 1.3, 0.9,0,0,1024,1024,1024,1024,25.6,-89.9,100,4.147,4.146,4.171,4.194,4.195,4.162,6.315,68,11,AutoTakeoff,
38.538714,-120.5236098,3706.3505303486,2.296588,0.223694,0.42594489552,4900,2018-06-20 17:51:04,12,0,25.352,3706.3505303486,2.296588,0.223694,0.42594489552,0,0,-0.223694,25.6, 1.5, 1.1,0,0,1024,1024,1024,1024,25.6,-89.9,100,4.147,4.146,4.171,4.194,4.195,4.162,6.315,68,11,AutoTakeoff,
38.5387142,-120.5236098,3706.6786143486,2.624672,0.223694,0.49530185312,5000,2018-06-20 17:51:04,11,0,24.209,3706.6786143486,2.624672,0.223694,0.49530185312,0,0,-0.223694,25.7, 1.9, 1.3,0,0,1024,1024,1024,1024,25.6,-89.9,100,4.005,3.998,4.036,4.02,4.05,4.035,16.516,68,11,AutoTakeoff,
38.5387143,-120.5236098,3706.6786143486,2.624672,0,0.53034450516,5100,2018-06-20 17:51:05,11,0,24.209,3706.6786143486,2.624672,0.223694,0.53034450516,0,0,-0.223694,25.7, 2.2, 1.4,0,0,1024,1024,1024,1024,25.6,-89.9,100,4.005,3.998,4.036,4.02,4.05,4.035,16.516,68,11,AutoTakeoff,
38.5387144,-120.5236098,3707.0066983486,2.952756,0,0.56557088424,5200,2018-06-20 17:51:05,11,0,24.209,3707.0066983486,2.952756,0.223694,0.56557088424,0,0,-0.223694,25.7, 2.2, 1.4,0,0,1024,1024,1024,1024,25.6,-89.9,100,4.005,3.998,4.036,4.02,4.05,4.035,16.516,68,14,Waypoint,
38.5387144,-120.5236098,3707.0066983486,2.952756,0,0.56557088424,5300,2018-06-20 17:51:05,11,0,24.209,3707.0066983486,2.952756,0.223694,0.56557088424,0,0,0,25.6, 2, 1.3,0,0,1024,1024,1024,1024,25.6,-89.9,100,4.005,3.998,4.036,4.02,4.05,4.035,16.516,68,14,Waypoint,
38.5387145,-120.5236098,3707.3347823486,3.28084,0,0.60094490112,5400,2018-06-20 17:51:05,12,0,24.209,3707.3347823486,3.28084,0.223694,0.60094490112,0,0,0,25.5, 1, 0.1,0,0,1024,1024,1024,1024,25.6,-89.9,100,4.005,3.998,4.036,4.02,4.05,4.035,16.516,68,14,Waypoint,
38.5387147,-120.5236098,3707.3347823486,3.28084,0,0.67205054644,5600,2018-06-20 17:51:05,12,0,24.209,3707.3347823486,3.28084,0.223694,0.67205054644,0,0,0,25.4, 0.9, 0.1,0,0,1024,1024,1024,1024,25.6,-90,100,4.005,3.998,4.036,4.02,4.05,4.035,16.516,68,14,Waypoint,
38.5387147,-120.5236098,3707.6628663486,3.608924,0,0.67205054644,5700,2018-06-20 17:51:05,12,0,24.209,3707.6628663486,3.608924,0.223694,0.67205054644,0,0,0,25.4, 1.1, 0.2,0,0,1024,1024,1024,1024,25.6,-89.9,100,4.005,3.998,4.036,4.02,4.05,4.035,16.516,68,14,Waypoint,
38.5387148,-120.5236099,3707.6628663486,3.608924,0,0.71404857928,5800,2018-06-20 17:51:05,12,0,24.209,3707.6628663486,3.608924,0.223694,0.71404857928,0,0,-0.223694,25.4, 1.2, 0.3,0,0,1024,1024,1024,1024,25.6,-89.9,100,4.005,3.998,4.036,4.02,4.05,4.035,16.516,68,14,Waypoint,
38.538715,-120.5236099,3707.9909503486,3.937008,0,0.78508532696,5900,2018-06-20 17:51:05,12,0,24.209,3707.9909503486,3.937008,0.223694,0.78508532696,0,0,-0.223694,25.5, 1.2, 0.6,0,0,1024,1024,1024,1024,25.6,-89.9,100,4.005,3.998,4.036,4.02,4.05,4.035,16.516,68,14,Waypoint,
38.5387151,-120.52361,3707.9909503486,3.937008,0,0.82715553828,6000,2018-06-20 17:51:05,12,0,24.066,3707.9909503486,3.937008,0.223694,0.82715553828,0,0,-0.223694,25.6, 1.3, 0.8,0,0,1024,1024,1024,1024,25.6,-89.9,100,3.998,3.987,4.015,4.015,4.029,4.015,16.516,69.8,14,Waypoint,
38.5387151,-120.52361,3708.3190343486,4.265092,0,0.82715553828,6100,2018-06-20 17:51:06,12,0,24.066,3708.3190343486,4.265092,0.223694,0.82715553828,0,0,-0.223694,25.7, 1.4, 0.9,0,0,1024,1024,1024,1024,25.6,-89.9,100,3.998,3.987,4.015,4.015,4.029,4.015,16.516,69.8,14,Waypoint,
38.5387151,-120.5236101,3708.9752023486,4.92126,0,0.83450461988,6200,2018-06-20 17:51:06,12,0,24.066,3708.9752023486,4.92126,0.223694,0.83450461988,0,0,-0.223694,25.7, 1.4, 0.9,0,0,1024,1024,1024,1024,25.6,-89.9,100,3.998,3.987,4.015,4.015,4.029,4.015,16.516,69.8,14,Waypoint,
38.5387152,-120.5236101,3709.3032863486,5.249344,0,0.86965553964,6300,2018-06-20 17:51:06,12,0,24.066,3709.3032863486,5.249344,0.223694,0.86965553964,0,0,-0.447388,25.8, 1.3, 0.8,0,0,1024,1024,1024,1024,25.6,-89.9,100,3.998,3.987,4.015,4.015,4.029,4.015,16.516,69.8,14,Waypoint,
38.5387151,-120.5236101,3709.9594543486,5.905512,0,0.83450461988,6400,2018-06-20 17:51:06,11,0,24.066,3709.9594543486,5.905512,0.223694,0.86965553964,0,0,-0.447388,25.8, 1.2, 0.7,0,0,1024,1024,1024,1024,25.6,-89.9,100,3.998,3.987,4.015,4.015,4.029,4.015,16.516,69.8,14,Waypoint,
38.538715,-120.5236101,3710.6156223486,6.56168,0,0.7994750912,6500,2018-06-20 17:51:06,11,0,24.066,3710.6156223486,6.56168,0.223694,0.86965553964,0,0,-0.447388,25.8, 1.1, 0.5,0,0,1050,1024,1024,1024,25.6,-89.9,100,3.998,3.987,4.015,4.015,4.029,4.015,16.516,69.8,14,Waypoint,
38.5387149,-120.5236101,3711.2717903486,7.217848,0,0.76458007696,6600,2018-06-20 17:51:06,13,0,24.066,3711.2717903486,7.217848,0.223694,0.86965553964,0,0,-0.447388,25.8, 0.9, 0.3,0,0,1024,1024,1024,1024,25.6,-89.9,100,3.998,3.987,4.015,4.015,4.029,4.015,16.516,69.8,14,Waypoint,
38.5387148,-120.5236102,3712.2560423486,8.2021,0,0.73926511552,6700,2018-06-20 17:51:06,13,0,24.066,3712.2560423486,8.2021,0.223694,0.86965553964,0,0,-0.671082,25.7, 0.6, 0.1,0,0,1024,1024,1024,1024,25.6,-90,100,3.998,3.987,4.015,4.015,4.029,4.015,16.516,69.8,14,Waypoint,
38.5387147,-120.5236102,3712.9122103486,8.858268,0,0.7051673454,6800,2018-06-20 17:51:06,13,0,24.066,3712.9122103486,8.858268,0.223694,0.86965553964,0,0,-0.671082,25.7, 0.2, 0.2,0,0,1024,1024,1024,1024,25.6,-90,100,3.998,3.987,4.015,4.015,4.029,4.015,16.516,69.8,14,Waypoint,
38.5387147,-120.5236101,3713.8964623486,9.84252,0,0.69528217448,6900,2018-06-20 17:51:06,13,0,24.066,3713.8964623486,9.84252,0.223694,0.86965553964,0,0,-0.671082,25.7, 0.1, 0.4,0,0,1024,1024,1024,1024,25.6,-90,100,3.998,3.987,4.015,4.015,4.029,4.015,16.516,69.8,14,Waypoint,
38.5387146,-120.5236101,3715.2087983486,11.154856,0,0.66092849884,7000,2018-06-20 17:51:06,12,0,23.922,3715.2087983486,11.154856,0.223694,0.86965553964,0,0,-0.671082,25.7, 0.2, 0.3,0,0,1024,1024,1024,1024,25.6,-89.9,100,3.869,3.849,3.978,3.952,3.962,3.987,23.383,69.8,14,Waypoint,
38.5387146,-120.5236101,3716.1930503486,12.139108,0,0.66092849884,7100,2018-06-20 17:51:07,12,0,23.922,3716.1930503486,12.139108,0.223694,0.86965553964,0,0,-0.671082,25.7, 0.4, 0.2,0,0,1024,1024,1024,1024,25.6,-89.9,100,3.869,3.849,3.978,3.952,3.962,3.987,23.383,69.8,14,Waypoint,
38.5387145,-120.5236101,3717.1773023486,13.12336,0,0.62681432452,7200,2018-06-20 17:51:07,12,0,23.922,3717.1773023486,13.12336,0.223694,0.86965553964,0,0,-0.671082,25.7, 0.4, 0.3,0,0,1024,1024,1024,1024,25.6,-89.9,100,3.869,3.849,3.978,3.952,3.962,3.987,23.383,69.8,14,Waypoint,
38.5387144,-120.52361,3718.4896383486,14.435696,0,0.582595163,7300,2018-06-20 17:51:07,12,0,23.922,3718.4896383486,14.435696,0.223694,0.86965553964,0,0,-0.671082,25.8, 0.2, 0.1,0,0,1024,1024,1024,1024,25.6,-89.9,100,3.869,3.849,3.978,3.952,3.962,3.987,23.383,69.8,14,Waypoint,
38.5387143,-120.52361,3719.4738903486,15.419948,0,0.54846458448,7400,2018-06-20 17:51:07,13,0,23.922,3719.4738903486,15.419948,0.223694,0.86965553964,0,0,-0.671082,25.8, 0, -0.1,0,0,1024,1024,1024,1024,25.6,-89.9,100,3.869,3.849,3.978,3.952,3.962,3.987,23.383,69.8,14,Waypoint,
38.5387142,-120.52361,3720.4581423486,16.4042,0,0.51465552828,7500,2018-06-20 17:51:07,13,0,23.922,3720.4581423486,16.4042,0.223694,0.86965553964,0,0,-0.671082,25.8, 0, -0.3,0,0,1024,1024,1024,1024,25.6,-89.9,100,3.869,3.849,3.978,3.952,3.962,3.987,23.383,69.8,14,Waypoint,
38.5387141,-120.52361,3722.7547303486,18.700788,0,0.48124017288,7600,2018-06-20 17:51:07,13,0,23.922,3722.7547303486,18.700788,0.223694,0.86965553964,0,0,-0.671082,25.7, 0, 0,0,0,1024,1024,1024,1024,25.6,-89.9,100,3.869,3.849,3.978,3.952,3.962,3.987,23.383,69.8,14,Waypoint,
38.5387143,-120.5236105,3726.0355703486,21.981628,0,0.61496393044,7900,2018-06-20 17:51:07,14,0,23.922,3726.0355703486,21.981628,0.223694,0.86965553964,0,0,-0.671082,25.7, 0.2, 0.6,0,0,1024,1024,1024,1024,25.6,-89.9,100,3.869,3.849,3.978,3.952,3.962,3.987,23.383,69.8,14,Waypoint,
38.5387145,-120.5236106,3727.0198223486,22.96588,0,0.69167325048,8100,2018-06-20 17:51:08,14,0,23.922,3727.0198223486,22.96588,0.223694,0.86965553964,0,0,-0.671082,25.7, 0.5, 1,0,0,1024,1024,1024,1024,25.6,-89.9,100,3.869,3.849,3.978,3.952,3.962,3.987,23.383,69.8,14,Waypoint,
38.5387149,-120.5236109,3729.3164103486,25.262468,0,0.86078414828,8200,2018-06-20 17:51:08,14,0,23.922,3729.3164103486,25.262468,0.223694,0.86965553964,0,0,-0.671082,25.7, 1, 1.3,0,0,1024,1024,1024,1024,25.6,-89.9,100,3.869,3.849,3.978,3.952,3.962,3.987,23.383,69.8,14,Waypoint,
38.5387151,-120.5236109,3730.3006623486,26.24672,0,0.92345475396,8400,2018-06-20 17:51:08,14,0,23.922,3730.3006623486,26.24672,0.223694,0.92345475396,0,0,-0.671082,25.7, 1.3, 1.4,0,0,1024,1024,1024,1024,25.6,-89.9,100,3.869,3.849,3.978,3.952,3.962,3.987,23.383,69.8,14,Waypoint,
38.5387153,-120.523611,3731.6129983486,27.559056,0,1.00105318164,8500,2018-06-20 17:51:08,14,0,23.922,3731.6129983486,27.559056,0.223694,1.00105318164,0,0,-0.671082,25.7, 1.5, 1.4,0,0,1024,1024,1024,1024,25.6,-89.9,100,3.869,3.849,3.978,3.952,3.962,3.987,23.383,69.8,14,Waypoint,
38.5387156,-120.523611,3732.5972503486,28.543308,0,1.09807746296,8600,2018-06-20 17:51:08,15,0,23.922,3732.5972503486,28.543308,0.223694,1.09807746296,0,0,-0.671082,25.6, 1.5, 1.6,0,0,1024,1024,1024,1024,25.6,-89.9,100,3.869,3.849,3.978,3.952,3.962,3.987,23.383,69.8,14,Waypoint,
38.5387158,-120.523611,3733.5815023486,29.52756,0,1.16398625772,8700,2018-06-20 17:51:08,15,0,23.922,3733.5815023486,29.52756,0.223694,1.16398625772,0,0,-0.671082,25.6, 1.6, 1.6,0,0,1024,1024,1024,1024,25.6,-89.9,100,3.869,3.849,3.978,3.952,3.962,3.987,23.383,69.8,14,Waypoint,
38.538716,-120.5236111,3734.5657543486,30.511812,0,1.24221788752,8800,2018-06-20 17:51:08,15,0,23.922,3734.5657543486,30.511812,0.223694,1.24221788752,0,0,-0.671082,25.6, 1.9, 1.5,0,0,1024,1024,1024,1024,25.6,-89.9,100,3.869,3.849,3.978,3.952,3.962,3.987,23.383,69.8,14,Waypoint,
38.5387162,-120.5236111,3735.8780903486,31.824148,0,1.3090059474,8900,2018-06-20 17:51:08,15,0,23.922,3735.8780903486,31.824148,0.223694,1.3090059474,0,0,-0.671082,25.6, 2.1, 1.4,0,0,1024,1024,1024,1024,25.6,-89.9,100,3.869,3.849,3.978,3.952,3.962,3.987,23.383,69.8,14,Waypoint,
38.5387164,-120.5236111,3736.5342583486,32.480316,0,1.37642064772,9000,2018-06-20 17:51:08,14,0,23.505,3736.5342583486,32.480316,0.223694,1.37642064772,0,0,-0.671082,25.6, 2.3, 1.4,0,0,1024,1024,1024,1024,25.6,-89.9,98,3.917,3.896,3.936,3.913,3.932,3.896,21.551,69.8,14,Waypoint,
38.5387165,-120.5236111,3737.5185103486,33.464568,0,1.4103346908,9100,2018-06-20 17:51:09,14,0,23.505,3737.5185103486,33.464568,0.223694,1.4103346908,0,0,-0.671082,25.7, 2.3, 1.4,0,0,1024,1024,1024,1024,25.6,-89.9,98,3.917,3.896,3.936,3.913,3.932,3.896,21.551,69.8,14,Waypoint,
38.5387166,-120.5236111,3738.5027623486,34.44882,0,1.4443734058,9200,2018-06-20 17:51:09,14,0,23.505,3738.5027623486,34.44882,0.223694,1.4443734058,0,0,-0.671082,25.8, 1.9, 1.5,0,0,1024,1024,1024,1024,25.6,-89.9,98,3.917,3.896,3.936,3.913,3.932,3.896,21.551,69.8,14,Waypoint,
38.5387168,-120.5236111,3739.8150983486,35.761156,0,1.512795324,9300,2018-06-20 17:51:09,14,0,23.505,3739.8150983486,35.761156,0.223694,1.512795324,0,0,-0.671082,26, 2, 1.1,0,0,1024,1024,1024,1024,25.6,-89.9,98,3.917,3.896,3.936,3.913,3.932,3.896,21.551,69.8,14,Waypoint,
38.5387169,-120.5236111,3740.7993503486,36.745408,0,1.547162123,9400,2018-06-20 17:51:09,14,0,23.505,3740.7993503486,36.745408,0.223694,1.547162123,0,0,-0.671082,26.3, 2.1, 0.9,0,0,1024,1024,1024,1024,25.6,-89.9,98,3.917,3.896,3.936,3.913,3.932,3.896,21.551,69.8,14,Waypoint,
38.5387169,-120.5236111,3741.7836023486,37.72966,0,1.547162123,9500,2018-06-20 17:51:09,14,0,23.505,3741.7836023486,37.72966,0.223694,1.547162123,0,0,-0.671082,26.5, 2.1, 1,0,0,1024,1024,1024,1024,25.6,-89.9,98,3.917,3.896,3.936,3.913,3.932,3.896,21.551,69.8,14,Waypoint,
38.538717,-120.5236111,3742.7678543486,38.713912,0,1.58162406636,9600,2018-06-20 17:51:09,14,0,23.505,3742.7678543486,38.713912,0.223694,1.58162406636,0,0,-0.671082,26.5, 2, 1.1,0,0,1024,1024,1024,1024,25.6,-89.9,98,3.917,3.896,3.936,3.913,3.932,3.896,21.551,69.8,14,Waypoint,
38.5387171,-120.5236111,3743.7521063486,39.698164,0,1.6161745924,9700,2018-06-20 17:51:09,14,0,23.505,3743.7521063486,39.698164,0.223694,1.6161745924,0,0,-0.671082,26.4, 2, 1.2,0,0,1024,1024,1024,1024,25.6,-89.9,98,3.917,3.896,3.936,3.913,3.932,3.896,21.551,69.8,14,Waypoint,
38.5387171,-120.5236111,3744.7363583486,40.682416,0,1.6161745924,9800,2018-06-20 17:51:09,15,0,23.505,3744.7363583486,40.682416,0.223694,1.6161745924,0,0,-0.671082,26.2, 1.8, 1.4,0,0,1024,1024,1024,1024,25.6,-89.9,98,3.917,3.896,3.936,3.913,3.932,3.896,21.551,69.8,14,Waypoint,
38.538717,-120.523611,3746.7048623486,42.65092,0.223694,1.572588633,9900,2018-06-20 17:51:09,15,0,23.505,3746.7048623486,42.65092,0.223694,1.6161745924,0,0,-0.671082,25.7, 1.5, 1.3,0,0,1024,1024,1024,1024,25.6,-89.9,98,3.917,3.896,3.936,3.913,3.932,3.896,21.551,69.8,14,Waypoint,
38.538717,-120.5236111,3748.6733663486,44.619424,0.223694,1.58162406636,10100,2018-06-20 17:51:10,15,0,23.505,3748.6733663486,44.619424,0.223694,1.6161745924,0,0,-0.671082,25.3, 1.4, 1,0,0,1024,1024,1024,1024,25.6,-89.9,98,3.917,3.896,3.936,3.913,3.932,3.896,21.551,69.8,14,Waypoint,
38.5387169,-120.523611,3749.6576183486,45.603676,0.223694,1.53792327756,10200,2018-06-20 17:51:10,15,0,23.505,3749.6576183486,45.603676,0.223694,1.6161745924,0,0,-0.671082,25.1, 1.5, 1.1,0,0,1024,1024,1024,1024,25.6,-89.9,98,3.917,3.896,3.936,3.913,3.932,3.896,21.551,69.8,14,Waypoint,
38.5387169,-120.523611,3750.6418703486,46.587928,0.223694,1.53792327756,10300,2018-06-20 17:51:10,15,0,23.505,3750.6418703486,46.587928,0.223694,1.6161745924,0,0,-0.671082,25.1, 1.5, 1.2,0,0,1024,1024,1024,1024,25.6,-89.9,98,3.917,3.896,3.936,3.913,3.932,3.896,21.551,69.8,14,Waypoint,
38.5387168,-120.523611,3751.6261223486,47.57218,0.223694,1.5033465048,10400,2018-06-20 17:51:10,15,0,23.505,3751.6261223486,47.57218,0.223694,1.6161745924,0,0,-0.671082,25.1, 1.5, 1.3,0,0,1024,1024,1024,1024,25.6,-89.9,98,3.917,3.896,3.936,3.913,3.932,3.896,21.551,69.8,14,Waypoint,
38.5387168,-120.523611,3752.6103743486,48.556432,0.223694,1.5033465048,10500,2018-06-20 17:51:10,15,0,23.505,3752.6103743486,48.556432,0.223694,1.6161745924,0,0,-0.671082,25.2, 1.6, 1.4,0,0,1024,1024,1024,1024,25.6,-89.9,98,3.917,3.896,3.936,3.913,3.932,3.896,21.551,69.8,14,Waypoint,
38.5387167,-120.523611,3753.5946263486,49.540684,0.223694,1.46885831472,10700,2018-06-20 17:51:10,15,0,23.505,3753.5946263486,49.540684,0.223694,1.6161745924,0,0,-0.671082,25.4, 1.7, 1.5,0,0,1024,1024,1024,1024,25.6,-89.9,98,3.917,3.896,3.936,3.913,3.932,3.896,21.551,69.8,14,Waypoint,
38.5387166,-120.523611,3754.5788783486,50.524936,0.223694,1.43447183068,10800,2018-06-20 17:51:10,16,0,23.505,3754.5788783486,50.524936,0.223694,1.6161745924,0,0,-0.671082,25.5, 1.3, 1.5,0,0,1024,1024,1024,1024,25.6,-89.9,98,3.917,3.896,3.936,3.913,3.932,3.896,21.551,69.8,14,Waypoint,
38.5387165,-120.523611,3755.5631303486,51.509188,0.223694,1.40019361436,10900,2018-06-20 17:51:10,16,0,23.505,3755.5631303486,51.509188,0.223694,1.6161745924,0,0,-0.671082,25.5, 1, 1.3,0,0,1024,1024,1024,1024,25.6,-89.9,98,3.917,3.896,3.936,3.913,3.932,3.896,21.551,69.8,14,Waypoint,
38.5387164,-120.5236109,3756.5473823486,52.49344,0.223694,1.3561516182,11000,2018-06-20 17:51:10,16,0,23.541,3756.5473823486,52.49344,0.223694,1.6161745924,0,0,-0.671082,25.5, 1, 1.1,0,0,1024,1024,1024,1024,25.6,-89.9,98,3.908,3.896,3.935,3.925,3.94,3.928,19.314,69.8,14,Waypoint,
38.5387162,-120.5236109,3757.5316343486,53.477692,0.223694,1.28767720656,11100,2018-06-20 17:51:11,16,0,23.541,3757.5316343486,53.477692,0.223694,1.6161745924,0,0,-0.671082,25.4, 0.7, 1,0,0,1024,1024,1024,1024,25.6,-89.9,98,3.908,3.896,3.935,3.925,3.94,3.928,19.314,69.8,14,Waypoint,
38.5387161,-120.5236108,3758.5158863486,54.461944,0.223694,1.243520381,11200,2018-06-20 17:51:11,16,0,23.541,3758.5158863486,54.461944,0.223694,1.6161745924,0,0,-0.671082,25.4, 0.5, 0.9,0,0,1024,1024,1024,1024,25.6,-89.9,98,3.908,3.896,3.935,3.925,3.94,3.928,19.314,69.8,14,Waypoint,
38.538716,-120.5236108,3759.5001383486,55.446196,0.223694,1.20933074736,11300,2018-06-20 17:51:11,16,0,23.541,3759.5001383486,55.446196,0.223694,1.6161745924,0,0,-0.671082,25.4, 0.5, 0.6,0,0,1024,1024,1024,1024,25.6,-89.9,98,3.908,3.896,3.935,3.925,3.94,3.928,19.314,69.8,14,Waypoint,
38.5387159,-120.5236107,3760.4843903486,56.430448,0.223694,1.16518704516,11400,2018-06-20 17:51:11,16,0,23.541,3760.4843903486,56.430448,0.223694,1.6161745924,0,0,-0.671082,25.3, 0.4, 0.6,0,0,1024,1024,1024,1024,25.6,-89.9,98,3.908,3.896,3.935,3.925,3.94,3.928,19.314,69.8,14,Waypoint,
38.5387158,-120.5236107,3761.4686423486,57.4147,0.223694,1.13098428816,11500,2018-06-20 17:51:11,16,0,23.541,3761.4686423486,57.4147,0.223694,1.6161745924,0,0,-0.671082,25.3, 0.6, 0.5,0,0,1024,1024,1024,1024,25.6,-89.9,98,3.908,3.896,3.935,3.925,3.94,3.928,19.314,69.8,14,Waypoint,
38.5387157,-120.5236106,3762.4528943486,58.398952,0,1.08685699016,11600,2018-06-20 17:51:11,16,0,23.541,3762.4528943486,58.398952,0.223694,1.6161745924,0,0,-0.671082,25.4, 0.9, 0.3,0,0,1024,1024,1024,1024,25.6,-89.9,98,3.908,3.896,3.935,3.925,3.94,3.928,19.314,69.8,14,Waypoint,
38.5387156,-120.5236105,3763.4371463486,59.383204,0,1.04292326172,11700,2018-06-20 17:51:11,16,0,23.541,3763.4371463486,59.383204,0.223694,1.6161745924,0,0,-0.671082,25.6, 1, 0.1,0,0,1024,1024,1024,1024,25.6,-89.9,98,3.908,3.896,3.935,3.925,3.94,3.928,19.314,69.8,14,Waypoint,
38.5387155,-120.5236104,3764.4213983486,60.367456,0,0.99919950704,11800,2018-06-20 17:51:11,16,0,23.541,3764.4213983486,60.367456,0.223694,1.6161745924,0,0,-0.671082,25.7, 1, 0,0,0,1024,1024,1024,1024,25.6,-89.9,98,3.908,3.896,3.935,3.925,3.94,3.928,19.314,69.8,14,Waypoint,
38.5387154,-120.5236103,3765.4056503486,61.351708,0,0.9557250962,11900,2018-06-20 17:51:11,16,0,23.541,3765.4056503486,61.351708,0.223694,1.6161745924,0,0,-0.671082,25.7, 1.2, 0,0,0,1024,1024,1024,1024,25.6,-89.9,98,3.908,3.896,3.935,3.925,3.94,3.928,19.314,69.8,14,Waypoint,
38.5387153,-120.5236102,3766.3899023486,62.33596,0,0.91252955676,12000,2018-06-20 17:51:11,16,0,23.535,3766.3899023486,62.33596,0.223694,1.6161745924,0,0,-0.671082,25.8, 1.1, -0.1,0,0,1024,1024,1024,1024,25.6,-89.9,98,3.911,3.897,3.936,3.929,3.937,3.932,18.807,69.8,14,Waypoint,
38.5387153,-120.5236102,3767.3741543486,63.320212,0,0.91252955676,12100,2018-06-20 17:51:12,16,0,23.535,3767.3741543486,63.320212,0.223694,1.6161745924,0,0,-0.671082,25.9, 1, -0.2,0,0,1024,1024,1024,1024,25.6,-89.9,98,3.911,3.897,3.936,3.929,3.937,3.932,18.807,69.8,14,Waypoint,
38.5387152,-120.5236101,3768.3584063486,64.304464,0,0.86965553964,12200,2018-06-20 17:51:12,16,0,23.535,3768.3584063486,64.304464,0.223694,1.6161745924,0,0,-0.671082,25.9, 1.2, 0.1,0,0,1024,1024,1024,1024,25.6,-89.9,98,3.911,3.897,3.936,3.929,3.937,3.932,18.807,69.8,14,Waypoint,
38.5387152,-120.5236101,3769.3426583486,65.288716,0,0.86965553964,12300,2018-06-20 17:51:12,16,0,23.535,3769.3426583486,65.288716,0.223694,1.6161745924,0,0,-0.671082,25.8, 1.4, 0.6,0,0,1024,1024,1024,1024,25.6,-89.9,98,3.911,3.897,3.936,3.929,3.937,3.932,18.807,69.8,14,Waypoint,
38.5387152,-120.5236101,3770.3269103486,66.272968,0,0.86965553964,12400,2018-06-20 17:51:12,16,0,23.535,3770.3269103486,66.272968,0.223694,1.6161745924,0,0,-0.671082,25.6, 1.8, 0.9,0,0,1024,1024,1024,1024,25.6,-89.9,98,3.911,3.897,3.936,3.929,3.937,3.932,18.807,69.8,14,Waypoint,
38.5387152,-120.5236101,3771.3111623486,67.25722,0,0.86965553964,12500,2018-06-20 17:51:12,16,0,23.535,3771.3111623486,67.25722,0.223694,1.6161745924,0,0,-0.671082,25.4, 1.8, 1.1,0,0,1024,1024,1024,1024,25.6,-89.9,98,3.911,3.897,3.936,3.929,3.937,3.932,18.807,69.8,14,Waypoint,
38.5387151,-120.52361,3773.6077503486,69.553808,0,0.82715553828,12600,2018-06-20 17:51:12,16,0,23.535,3773.6077503486,69.553808,0.223694,1.6161745924,0,0,-0.671082,25.1, 1.7, 0.4,0,0,1024,1024,1024,1024,25.6,-89.9,98,3.911,3.897,3.936,3.929,3.937,3.932,18.807,69.8,14,Waypoint,
38.5387151,-120.5236099,3774.5920023486,70.53806,0,0.82072837272,12700,2018-06-20 17:51:12,16,0,23.535,3774.5920023486,70.53806,0.223694,1.6161745924,0,0,-0.671082,25.1, 1.7, 0.1,0,0,1024,1024,1024,1024,25.6,-89.9,98,3.911,3.897,3.936,3.929,3.937,3.932,18.807,69.8,14,Waypoint,
38.538715,-120.5236097,3776.5605063486,72.506564,0,0.7746391324,12900,2018-06-20 17:51:12,16,0,23.535,3776.5605063486,72.506564,0.223694,1.6161745924,0,0,-0.671082,25.5, 2, -0.5,0,0,1024,1024,1024,1024,25.6,-89.9,98,3.911,3.897,3.936,3.929,3.937,3.932,18.807,69.8,14,Waypoint,
38.538715,-120.5236097,3777.5447583486,73.490816,0,0.7746391324,13100,2018-06-20 17:51:13,16,0,23.535,3777.5447583486,73.490816,0.223694,1.6161745924,0,0,-0.671082,25.7, 2.1, -0.6,0,0,1024,1024,1024,1024,25.6,-89.9,98,3.911,3.897,3.936,3.929,3.937,3.932,18.807,69.8,14,Waypoint,
38.538715,-120.5236096,3778.5290103486,74.475068,0,0.77095146824,13200,2018-06-20 17:51:13,16,0,23.535,3778.5290103486,74.475068,0.223694,1.6161745924,0,0,-0.671082,25.8, 2.3, -0.3,0,0,1024,1024,1024,1024,25.6,-89.9,98,3.911,3.897,3.936,3.929,3.937,3.932,18.807,69.8,14,Waypoint,
38.538715,-120.5236095,3779.5132623486,75.45932,0,0.7683071112,13300,2018-06-20 17:51:13,16,0,23.535,3779.5132623486,75.45932,0.223694,1.6161745924,0,0,-0.671082,26, 2.3, -0.2,0,0,1024,1024,1024,1024,25.6,-89.9,98,3.911,3.897,3.936,3.929,3.937,3.932,18.807,69.8,14,Waypoint,
38.538715,-120.5236095,3780.4975143486,76.443572,0,0.7683071112,13400,2018-06-20 17:51:13,17,0,23.535,3780.4975143486,76.443572,0.223694,1.6161745924,0,0,-0.671082,26.2, 2.4, 0,0,0,1024,1024,1024,1024,25.6,-89.9,98,3.911,3.897,3.936,3.929,3.937,3.932,18.807,69.8,14,Waypoint,
38.538715,-120.5236095,3781.4817663486,77.427824,0,0.7683071112,13500,2018-06-20 17:51:13,17,0,23.535,3781.4817663486,77.427824,0.223694,1.6161745924,0,0,-0.671082,26.3, 2.1, 0.2,0,0,1024,1024,1024,1024,25.6,-89.9,98,3.911,3.897,3.936,3.929,3.937,3.932,18.807,69.8,14,Waypoint,
38.538715,-120.5236095,3782.4660183486,78.412076,0,0.7683071112,13600,2018-06-20 17:51:13,17,0,23.535,3782.4660183486,78.412076,0.223694,1.6161745924,0,0,-0.671082,26.3, 1.8, 0,0,0,1024,1024,1024,1024,25.6,-89.9,98,3.911,3.897,3.936,3.929,3.937,3.932,18.807,69.8,14,Waypoint,
38.538715,-120.5236096,3783.7783543486,79.724412,0,0.77095146824,13700,2018-06-20 17:51:13,17,0,23.535,3783.7783543486,79.724412,0.223694,1.6161745924,0,0,-0.671082,26.2, 1.6, 0.3,0,0,1024,1024,1024,1024,25.6,-89.9,98,3.911,3.897,3.936,3.929,3.937,3.932,18.807,69.8,14,Waypoint,
38.538715,-120.5236097,3784.7626063486,80.708664,0,0.7746391324,13800,2018-06-20 17:51:13,17,0,23.535,3784.7626063486,80.708664,0.223694,1.6161745924,0,0,-0.671082,26.2, 1.5, 1.1,0,0,1024,1024,1024,1024,25.6,-90,98,3.911,3.897,3.936,3.929,3.937,3.932,18.807,69.8,14,Waypoint,
38.538715,-120.5236097,3785.7468583486,81.692916,0,0.7746391324,13900,2018-06-20 17:51:13,17,0,23.535,3785.7468583486,81.692916,0.223694,1.6161745924,0,0,-0.671082,26, 1.2, 1.9,0,0,1024,1024,1024,1024,25.6,-89.9,98,3.911,3.897,3.936,3.929,3.937,3.932,18.807,69.8,14,Waypoint,
38.538715,-120.5236098,3786.7311103486,82.677168,0,0.77935698032,14000,2018-06-20 17:51:13,17,0,23.492,3786.7311103486,82.677168,0.223694,1.6161745924,0,0,-0.671082,25.9, 1.2, 2.2,0,0,1024,1024,1024,1024,25.6,-89.9,98,3.908,3.887,3.922,3.916,3.925,3.931,18.707,69.8,14,Waypoint,
38.538715,-120.5236099,3787.7153623486,83.66142,0,0.78508532696,14100,2018-06-20 17:51:14,17,0,23.492,3787.7153623486,83.66142,0.223694,1.6161745924,0,0,-0.671082,25.7, 1.2, 1.9,0,0,1024,1024,1024,1024,25.6,-89.9,98,3.908,3.887,3.922,3.916,3.925,3.931,18.707,69.8,14,Waypoint,
38.5387151,-120.52361,3788.6996143486,84.645672,0,0.82715553828,14200,2018-06-20 17:51:14,17,0,23.492,3788.6996143486,84.645672,0.223694,1.6161745924,0,0,-0.671082,25.5, 1.2, 1.7,0,0,1024,1024,1024,1024,25.6,-89.9,98,3.908,3.887,3.922,3.916,3.925,3.931,18.707,69.8,14,Waypoint,
38.5387151,-120.5236101,3789.6838663486,85.629924,0,0.83450461988,14300,2018-06-20 17:51:14,17,0,23.492,3789.6838663486,85.629924,0.223694,1.6161745924,0,0,-0.671082,25.4, 1.3, 1.9,0,0,1024,1024,1024,1024,25.6,-89.9,98,3.908,3.887,3.922,3.916,3.925,3.931,18.707,69.8,14,Waypoint,
38.5387151,-120.5236101,3790.6681183486,86.614176,0,0.83450461988,14400,2018-06-20 17:51:14,17,0,23.492,3790.6681183486,86.614176,0.223694,1.6161745924,0,0,-0.671082,25.3, 1.6, 2.1,0,0,1024,1024,1024,1024,25.6,-89.9,98,3.908,3.887,3.922,3.916,3.925,3.931,18.707,69.8,14,Waypoint,
38.5387152,-120.5236103,3791.6523703486,87.598428,0,0.8863517344,14500,2018-06-20 17:51:14,17,0,23.492,3791.6523703486,87.598428,0.223694,1.6161745924,0,0,-0.671082,25.4, 1.8, 2.3,0,0,1024,1024,1024,1024,25.6,-89.9,98,3.908,3.887,3.922,3.916,3.925,3.931,18.707,69.8,14,Waypoint,
38.5387153,-120.5236104,3792.6366223486,88.58268,0.223694,0.93021000352,14600,2018-06-20 17:51:14,17,0,23.492,3792.6366223486,88.58268,0.223694,1.6161745924,0,0,-0.671082,25.4, 1.7, 2.7,0,0,1024,1024,1024,1024,25.6,-89.9,98,3.908,3.887,3.922,3.916,3.925,3.931,18.707,69.8,14,Waypoint,
38.5387153,-120.5236106,3793.6208743486,89.566932,0.223694,0.95098756324,14700,2018-06-20 17:51:14,17,0,23.492,3793.6208743486,89.566932,0.223694,1.6161745924,0,0,-0.671082,25.4, 1.6, 3,0,0,1024,1024,1024,1024,25.6,-89.9,98,3.908,3.887,3.922,3.916,3.925,3.931,18.707,69.8,14,Waypoint,
38.5387153,-120.5236107,3794.6051263486,90.551184,0.223694,0.96248034576,14800,2018-06-20 17:51:14,17,0,23.492,3794.6051263486,90.551184,0.223694,1.6161745924,0,0,-0.671082,25.3, 1.6, 3.6,0,0,1024,1024,1024,1024,25.6,-89.9,98,3.908,3.887,3.922,3.916,3.925,3.931,18.707,69.8,14,Waypoint,
38.5387154,-120.5236109,3795.5893783486,91.535436,0,1.0200295602,14900,2018-06-20 17:51:14,17,0,23.492,3795.5893783486,91.535436,0.223694,1.6161745924,0,0,-0.671082,25.4, 1.2, 3.6,0,0,1024,1024,1024,1024,25.6,-89.9,98,3.908,3.887,3.922,3.916,3.925,3.931,18.707,69.8,14,Waypoint,
38.5387154,-120.523611,3796.5736303486,92.519688,0,1.0331201118,15000,2018-06-20 17:51:14,17,0,23.404,3796.5736303486,92.519688,0.223694,1.6161745924,0,0,-0.671082,25.7, 1.1, 3.3,0,0,1024,1024,1024,1024,25.6,-89.9,98,3.892,3.862,3.923,3.898,3.934,3.912,18.805,69.8,14,Waypoint,
38.5387154,-120.5236111,3797.2297983486,93.175856,0,1.04682418048,15100,2018-06-20 17:51:15,17,0,23.404,3797.2297983486,93.175856,0.223694,1.6161745924,0,0,-0.671082,26, 1.3, 3.2,0,0,1024,1024,1024,1024,25.6,-89.9,98,3.892,3.862,3.923,3.898,3.934,3.912,18.805,69.8,14,Waypoint,
38.5387156,-120.5236113,3799.1983023486,95.14436,0,1.13849741176,15200,2018-06-20 17:51:15,17,0,23.404,3799.1983023486,95.14436,0.223694,1.6161745924,0,0,-0.671082,26.3, 1.9, 3.5,0,0,1024,1024,1024,1024,25.6,-89.9,98,3.892,3.862,3.923,3.898,3.934,3.912,18.805,69.8,14,Waypoint,
38.5387157,-120.5236115,3800.1825543486,96.128612,0,1.19908468404,15400,2018-06-20 17:51:15,17,0,23.404,3800.1825543486,96.128612,0.223694,1.6161745924,0,0,-0.671082,26.3, 1.9, 4.3,0,0,1024,1024,1024,1024,25.6,-89.9,98,3.892,3.862,3.923,3.898,3.934,3.912,18.805,69.8,14,Waypoint,
38.5387158,-120.5236116,3802.1510583486,98.097116,0,1.24512143092,15500,2018-06-20 17:51:15,17,0,23.404,3802.1510583486,98.097116,0.223694,1.6161745924,0,0,-0.671082,26.2, 1.6, 4.4,0,0,1024,1024,1024,1024,25.6,-89.9,98,3.892,3.862,3.923,3.898,3.934,3.912,18.805,69.8,14,Waypoint,
38.538716,-120.5236118,3803.7914783486,99.737536,0.223694,1.3372539798,15700,2018-06-20 17:51:15,17,0,23.404,3803.7914783486,99.737536,0.223694,1.6161745924,0,0,-0.671082,26.1, 3, 4.3,0,0,1024,1024,1024,1024,25.6,-89.9,98,3.892,3.862,3.923,3.898,3.934,3.912,18.805,69.8,14,Waypoint,
38.5387162,-120.5236118,3804.7757303486,100.721788,0.223694,1.39951448048,15900,2018-06-20 17:51:15,17,0,23.404,3804.7757303486,100.721788,0.223694,1.6161745924,0,0,-0.671082,26, 3.9, 4.5,0,0,1024,1024,1024,1024,25.6,-89.9,98,3.892,3.862,3.923,3.898,3.934,3.912,18.805,69.8,14,Waypoint,
38.5387163,-120.5236118,3805.7599823486,101.70604,0,1.431020387,16000,2018-06-20 17:51:15,17,0,23.467,3805.7599823486,101.70604,0.223694,1.6161745924,0,0,-0.671082,25.9, 4.3, 4.1,0,0,1024,1024,1024,1024,25.6,-89.9,98,3.902,3.885,3.93,3.915,3.926,3.923,18.223,69.8,14,Waypoint,
38.5387164,-120.5236118,3806.4161503486,102.362208,0,1.462762514,16100,2018-06-20 17:51:16,17,0,23.467,3806.4161503486,102.362208,0.223694,1.6161745924,0,0,-0.671082,25.8, 4.1, 3.4,0,0,1024,1024,1024,1024,25.6,-89.9,98,3.902,3.885,3.93,3.915,3.926,3.923,18.223,69.8,14,Waypoint,
38.5387164,-120.5236118,3807.4004023486,103.34646,0,1.462762514,16200,2018-06-20 17:51:16,17,0,23.467,3807.4004023486,103.34646,0.223694,1.6161745924,0,0,-0.671082,25.8, 4.1, 3.1,0,0,1024,1024,1024,1024,25.6,-89.9,98,3.902,3.885,3.93,3.915,3.926,3.923,18.223,69.8,14,Waypoint,
38.5387165,-120.5236119,3808.3846543486,104.330712,0,1.50854991704,16300,2018-06-20 17:51:16,17,0,23.467,3808.3846543486,104.330712,0.223694,1.6161745924,0,0,-0.671082,25.7, 3.8, 4.2,0,0,1024,1024,1024,1024,25.6,-89.9,98,3.902,3.885,3.93,3.915,3.926,3.923,18.223,69.8,14,Waypoint,
38.5387166,-120.523612,3809.3689063486,105.314964,0,1.55436684764,16400,2018-06-20 17:51:16,17,0,23.467,3809.3689063486,105.314964,0.223694,1.6161745924,0,0,-0.671082,25.6, 3.9, 5.3,0,0,1024,1024,1024,1024,25.6,-89.9,98,3.902,3.885,3.93,3.915,3.926,3.923,18.223,69.8,14,Waypoint,
38.5387167,-120.5236121,3810.3531583486,106.299216,0,1.6002133058,16500,2018-06-20 17:51:16,17,0,23.467,3810.3531583486,106.299216,0.223694,1.6161745924,0,0,-0.671082,25.6, 3.5, 5.9,0,0,1024,1024,1024,1024,25.6,-89.9,98,3.902,3.885,3.93,3.915,3.926,3.923,18.223,69.8,14,Waypoint,
38.5387167,-120.5236122,3811.6654943486,107.611552,0,1.61465556348,16600,2018-06-20 17:51:16,17,0,23.467,3811.6654943486,107.611552,0.223694,1.6161745924,0,0,-0.671082,25.6, 3.1, 5.8,0,0,1024,1024,1024,1024,25.6,-89.9,98,3.902,3.885,3.93,3.915,3.926,3.923,18.223,69.8,14,Waypoint,
38.5387168,-120.5236123,3812.6497463486,108.595804,0,1.66062013188,16700,2018-06-20 17:51:16,17,0,23.467,3812.6497463486,108.595804,0.223694,1.66062013188,0,0,-0.671082,25.6, 2.9, 5.6,0,0,1024,1024,1024,1024,25.6,-89.9,98,3.902,3.885,3.93,3.915,3.926,3.923,18.223,69.8,14,Waypoint,
38.5387168,-120.5236124,3813.6339983486,109.580056,0,1.67551186464,16800,2018-06-20 17:51:16,17,0,23.467,3813.6339983486,109.580056,0.223694,1.67551186464,0,0,-0.671082,25.7, 3.2, 5.9,0,0,1024,1024,1024,1024,25.6,-89.9,98,3.902,3.885,3.93,3.915,3.926,3.923,18.223,69.8,14,Waypoint,
38.5387168,-120.5236125,3814.6182503486,110.564308,0,1.69075464728,16900,2018-06-20 17:51:16,17,0,23.467,3814.6182503486,110.564308,0.223694,1.69075464728,0,0,-0.671082,25.7, 3.3, 6.4,0,0,1024,1024,1024,1024,25.6,-89.9,98,3.902,3.885,3.93,3.915,3.926,3.923,18.223,69.8,14,Waypoint,
38.5387168,-120.5236127,3816.2586703486,112.204728,0,1.72225071128,17100,2018-06-20 17:51:17,17,0,23.467,3816.2586703486,112.204728,0.223694,1.72225071128,0,0,-0.671082,25.7, 2.7, 6.2,0,0,1024,1024,1024,1024,25.6,-89.9,98,3.902,3.885,3.93,3.915,3.926,3.923,18.223,69.8,14,Waypoint,
38.5387168,-120.5236126,3817.2429223486,113.18898,0,1.70633535644,17200,2018-06-20 17:51:17,17,0,23.467,3817.2429223486,113.18898,0.223694,1.72225071128,0,0,-0.671082,25.7, 2.8, 5.5,0,0,1024,1024,1024,1024,25.6,-89.9,98,3.902,3.885,3.93,3.915,3.926,3.923,18.223,69.8,14,Waypoint,
38.5387169,-120.5236126,3817.8990903486,113.845148,0,1.736876696,17300,2018-06-20 17:51:17,17,0,23.467,3817.8990903486,113.845148,0.223694,1.736876696,0,0,-0.671082,25.7, 3.2, 5.1,0,0,1024,1024,1024,1024,25.6,-89.9,98,3.902,3.885,3.93,3.915,3.926,3.923,18.223,69.8,14,Waypoint,
38.5387169,-120.5236125,3819.8675943486,115.813652,0,1.7215715774,17400,2018-06-20 17:51:17,17,0,23.467,3819.8675943486,115.813652,0.223694,1.736876696,0,0,-0.671082,25.7, 3.9, 4.7,0,0,1024,1024,1024,1024,25.6,-89.9,98,3.902,3.885,3.93,3.915,3.926,3.923,18.223,69.8,14,Waypoint,
38.5387169,-120.5236123,3821.8360983486,117.782156,0,1.69198824312,17600,2018-06-20 17:51:17,17,0,23.467,3821.8360983486,117.782156,0.223694,1.736876696,0,0,-0.671082,25.9, 4.6, 4.2,0,0,1024,1024,1024,1024,25.6,-89.9,98,3.902,3.885,3.93,3.915,3.926,3.923,18.223,69.8,14,Waypoint,
38.5387169,-120.5236123,3821.8360983486,117.782156,0,1.69198824312,17700,2018-06-20 17:51:17,17,0,23.467,3821.8360983486,117.782156,0.223694,1.736876696,0,0,-0.671082,25.9, 4.6, 4.2,0,0,1024,1024,1024,1024,25.6,-89.9,98,3.902,3.885,3.93,3.915,3.926,3.923,18.223,69.8,14,Waypoint,
38.5387169,-120.5236123,3822.4922663486,118.438324,0,1.69198824312,17800,2018-06-20 17:51:17,17,0,23.467,3822.4922663486,118.438324,0.223694,1.736876696,0,0,-0.671082,25.8, 4.3, 4.2,0,0,1024,1024,1024,1024,25.6,-89.9,98,3.902,3.885,3.93,3.915,3.926,3.923,18.223,69.8,14,Waypoint,
38.5387168,-120.5236122,3823.4765183486,119.422576,0.223694,1.64608929152,17900,2018-06-20 17:51:17,17,0,23.467,3823.4765183486,119.422576,0.223694,1.736876696,0,0,-0.671082,25.7, 4, 3.8,0,0,1024,1024,1024,1024,25.6,-89.9,98,3.902,3.885,3.93,3.915,3.926,3.923,18.223,69.8,14,Waypoint,
38.5387168,-120.523612,3824.4607703486,120.406828,0.223694,1.61814637724,18000,2018-06-20 17:51:17,17,0,23.421,3824.4607703486,120.406828,0.223694,1.736876696,0,0,-0.671082,25.6, 3.9, 3.5,0,0,1024,1024,1024,1024,25.6,-89.9,98,3.9,3.865,3.901,3.894,3.897,3.919,18.645,69.8,14,Waypoint,
38.5387168,-120.5236119,3825.4450223486,121.39108,0.223694,1.60475070752,18100,2018-06-20 17:51:18,17,0,23.421,3825.4450223486,121.39108,0.223694,1.736876696,0,0,-0.671082,25.7, 4.5, 3.6,0,0,1024,1024,1024,1024,25.6,-89.9,98,3.9,3.865,3.901,3.894,3.897,3.919,18.645,69.8,14,Waypoint,
38.5387168,-120.5236119,3826.4292743486,122.375332,0,1.60475070752,18200,2018-06-20 17:51:18,17,0,23.421,3826.4292743486,122.375332,0.223694,1.736876696,0,0,-0.671082,25.7, 5, 4,0,0,1024,1024,1024,1024,25.6,-89.9,98,3.9,3.865,3.901,3.894,3.897,3.919,18.645,69.8,14,Waypoint,
38.5387168,-120.5236118,3827.4135263486,123.359584,0,1.59175858112,18300,2018-06-20 17:51:18,17,0,23.421,3827.4135263486,123.359584,0.223694,1.736876696,0,0,-0.671082,25.8, 5.4, 3.8,0,0,1024,1024,1024,1024,25.6,-89.9,98,3.9,3.865,3.901,3.894,3.897,3.919,18.645,69.8,14,Waypoint,
38.5387168,-120.5236117,3828.3977783486,124.343836,0,1.57917327888,18400,2018-06-20 17:51:18,17,0,23.421,3828.3977783486,124.343836,0.223694,1.736876696,0,0,-0.671082,25.9, 5.4, 3.5,0,0,1024,1024,1024,1024,25.6,-89.9,98,3.9,3.865,3.901,3.894,3.897,3.919,18.645,69.8,14,Waypoint,
38.5387168,-120.5236116,3829.3820303486,125.328088,0,1.56700792416,18500,2018-06-20 17:51:18,17,0,23.421,3829.3820303486,125.328088,0.223694,1.736876696,0,0,-0.671082,25.9, 5.3, 3,0,0,1024,1024,1024,1024,25.6,-89.9,98,3.9,3.865,3.901,3.894,3.897,3.919,18.645,69.8,14,Waypoint,
38.5387168,-120.5236116,3830.3662823486,126.31234,0,1.56700792416,18600,2018-06-20 17:51:18,17,0,23.421,3830.3662823486,126.31234,0.223694,1.736876696,0,0,-0.671082,25.9, 4.8, 3.1,0,0,1024,1024,1024,1024,25.6,-89.9,98,3.9,3.865,3.901,3.894,3.897,3.919,18.645,69.8,14,Waypoint,
38.5387167,-120.5236115,3831.6786183486,127.624676,0,1.52195871012,18700,2018-06-20 17:51:18,17,0,23.421,3831.6786183486,127.624676,0.223694,1.736876696,0,0,-0.671082,25.8, 4.5, 3.6,0,0,1024,1024,1024,1024,25.6,-89.9,98,3.9,3.865,3.901,3.894,3.897,3.919,18.645,69.8,14,Waypoint,
38.5387167,-120.5236115,3832.6628703486,128.608928,0,1.52195871012,18800,2018-06-20 17:51:18,17,0,23.421,3832.6628703486,128.608928,0.223694,1.736876696,0,0,-0.671082,25.8, 4.3, 3.9,0,0,1024,1024,1024,1024,25.6,-89.9,98,3.9,3.865,3.901,3.894,3.897,3.919,18.645,69.8,14,Waypoint,
38.5387167,-120.5236115,3833.6471223486,129.59318,0,1.52195871012,18900,2018-06-20 17:51:18,17,0,23.421,3833.6471223486,129.59318,0.223694,1.736876696,0,0,-0.671082,25.7, 4.3, 4.1,0,0,1024,1024,1024,1024,25.6,-89.9,98,3.9,3.865,3.901,3.894,3.897,3.919,18.645,69.8,14,Waypoint,
38.5387167,-120.5236116,3834.6313743486,130.577432,0,1.53395346116,19000,2018-06-20 17:51:18,17,0,23.187,3834.6313743486,130.577432,0.223694,1.736876696,0,0,-0.671082,25.7, 4.3, 4.6,0,0,1024,1024,1024,1024,25.6,-89.9,98,3.9,3.865,3.901,3.894,3.897,3.919,20.733,69.8,14,Waypoint,
38.5387168,-120.5236116,3835.9437103486,131.889768,0,1.56700792416,19100,2018-06-20 17:51:19,17,0,23.187,3835.9437103486,131.889768,0.223694,1.736876696,0,0,-0.671082,25.7, 4.5, 5,0,0,1024,1024,1024,1024,25.6,-89.9,98,3.9,3.865,3.901,3.894,3.897,3.919,20.733,69.8,14,Waypoint,
38.5387168,-120.5236116,3836.9279623486,132.87402,0,1.56700792416,19200,2018-06-20 17:51:19,17,0,23.187,3836.9279623486,132.87402,0.223694,1.736876696,0,0,-0.671082,25.8, 4.7, 5.3,0,0,1024,1024,1024,1024,25.6,-89.9,98,3.9,3.865,3.901,3.894,3.897,3.919,20.733,69.8,14,Waypoint,
38.5387168,-120.5236117,3837.9122143486,133.858272,0,1.57917327888,19300,2018-06-20 17:51:19,17,0,23.187,3837.9122143486,133.858272,0.223694,1.736876696,0,0,-0.671082,25.9, 4.6, 5.5,0,0,1024,1024,1024,1024,25.6,-89.9,98,3.9,3.865,3.901,3.894,3.897,3.919,20.733,69.8,14,Waypoint,
38.5387169,-120.5236117,3839.2245503486,135.170608,0,1.61212603584,19400,2018-06-20 17:51:19,17,0,23.187,3839.2245503486,135.170608,0.223694,1.736876696,0,0,-0.671082,25.9, 4.7, 5.4,0,0,1024,1024,1024,1024,25.6,-89.9,98,3.9,3.865,3.901,3.894,3.897,3.919,20.733,69.8,14,Waypoint,
38.5387169,-120.5236117,3840.2088023486,136.15486,0,1.61212603584,19500,2018-06-20 17:51:19,17,0,23.187,3840.2088023486,136.15486,0.223694,1.736876696,0,0,-0.671082,25.9, 4.6, 5,0,0,1024,1024,1024,1024,25.6,-89.9,98,3.9,3.865,3.901,3.894,3.897,3.919,20.733,69.8,14,Waypoint,
38.5387169,-120.5236116,3841.1930543486,137.139112,0,1.60021002496,19600,2018-06-20 17:51:19,17,0,23.187,3841.1930543486,137.139112,0.223694,1.736876696,0,0,-0.671082,25.9, 4.8, 4.5,0,0,1024,1024,1024,1024,25.6,-89.9,98,3.9,3.865,3.901,3.894,3.897,3.919,20.733,69.8,14,Waypoint,
38.5387169,-120.5236116,3843.4896423486,139.4357,0,1.60021002496,19700,2018-06-20 17:51:19,17,0,23.187,3843.4896423486,139.4357,0.223694,1.736876696,0,0,-0.671082,25.8, 4.9, 4.8,0,0,1024,1024,1024,1024,25.6,-89.9,98,3.9,3.865,3.901,3.894,3.897,3.919,20.733,69.8,14,Waypoint,
38.5387169,-120.5236116,3845.4581463486,141.404204,0,1.60021002496,19910,2018-06-20 17:51:19,17,0,23.187,3845.4581463486,141.404204,0.223694,1.736876696,0,0,-0.671082,25.6, 4.8, 4.9,0,0,1024,1024,1024,1024,25.6,-89.9,98,3.9,3.865,3.901,3.894,3.897,3.919,20.733,69.8,14,Waypoint,
38.5387169,-120.5236116,3846.4423983486,142.388456,0,1.60021002496,20000,2018-06-20 17:51:19,17,0,23.187,3846.4423983486,142.388456,0.223694,1.736876696,0,0,-0.671082,25.6, 4.9, 4.7,0,0,1024,1024,1024,1024,25.6,-89.9,97,3.851,3.829,3.886,3.857,3.881,3.867,20.733,69.8,14,Waypoint,
38.538717,-120.5236116,3847.4266503486,143.372708,0,1.63355320188,20100,2018-06-20 17:51:20,17,0,23.187,3847.4266503486,143.372708,0.223694,1.736876696,0,0,-0.671082,25.7, 5, 4.8,0,0,1024,1024,1024,1024,25.6,-89.9,97,3.851,3.829,3.886,3.857,3.881,3.867,20.733,69.8,14,Waypoint,
38.538717,-120.5236116,3848.4109023486,144.35696,0,1.63355320188,20300,2018-06-20 17:51:20,17,0,23.187,3848.4109023486,144.35696,0.223694,1.736876696,0,0,-0.671082,25.8, 5.1, 4.8,0,0,1024,1024,1024,1024,25.6,-89.9,97,3.851,3.829,3.886,3.857,3.881,3.867,20.733,69.8,14,Waypoint,
38.538717,-120.5236116,3849.3951543486,145.341212,0,1.63355320188,20400,2018-06-20 17:51:20,17,0,23.187,3849.3951543486,145.341212,0.223694,1.736876696,0,0,-0.671082,25.9, 5, 4.9,0,0,1024,1024,1024,1024,25.6,-89.9,97,3.851,3.829,3.886,3.857,3.881,3.867,20.733,69.8,14,Waypoint,
38.538717,-120.5236115,3850.3794063486,146.325464,0,1.62229663984,20500,2018-06-20 17:51:20,17,0,23.187,3850.3794063486,146.325464,0.223694,1.736876696,0,0,-0.671082,25.9, 4.9, 5.1,0,0,1024,1024,1024,1024,25.6,-89.9,97,3.851,3.829,3.886,3.857,3.881,3.867,20.733,69.8,14,Waypoint,
38.538717,-120.5236115,3851.3636583486,147.309716,0,1.62229663984,20600,2018-06-20 17:51:20,17,0,23.187,3851.3636583486,147.309716,0.223694,1.736876696,0,0,-0.671082,25.8, 4.8, 5.1,0,0,1024,1024,1024,1024,25.6,-89.9,97,3.851,3.829,3.886,3.857,3.881,3.867,20.733,69.8,14,Waypoint,
38.538717,-120.5236115,3852.3479103486,148.293968,0,1.62229663984,20700,2018-06-20 17:51:20,17,0,23.187,3852.3479103486,148.293968,0.223694,1.736876696,0,0,-0.671082,25.9, 4.9, 5.2,0,0,1024,1024,1024,1024,25.6,-89.9,97,3.851,3.829,3.886,3.857,3.881,3.867,20.733,69.8,14,Waypoint,
38.538717,-120.5236115,3853.3321623486,149.27822,0,1.62229663984,20800,2018-06-20 17:51:20,17,0,23.187,3853.3321623486,149.27822,0.223694,1.736876696,0,0,-0.671082,26, 5.1, 5.1,0,0,1024,1024,1024,1024,25.6,-89.9,97,3.851,3.829,3.886,3.857,3.881,3.867,20.733,69.8,14,Waypoint,
38.538717,-120.5236114,3854.3164143486,150.262472,0,1.611466587,20900,2018-06-20 17:51:20,17,0,23.187,3854.3164143486,150.262472,0.223694,1.736876696,0,0,-0.671082,26.2, 5.4, 5.2,0,0,1024,1024,1024,1024,25.6,-89.9,97,3.851,3.829,3.886,3.857,3.881,3.867,20.733,69.8,14,Waypoint,
38.5387169,-120.5236114,3855.3006663486,151.246724,0,1.5776575308,21000,2018-06-20 17:51:20,17,0,23.145,3855.3006663486,151.246724,0.223694,1.736876696,0,0,-0.671082,26.3, 5.5, 5.2,0,0,1024,1024,1024,1024,25.6,-89.9,97,3.887,3.873,3.905,3.882,3.901,3.885,17.607,69.8,14,Waypoint,
38.5387169,-120.5236114,3856.2849183486,152.230976,0,1.5776575308,21100,2018-06-20 17:51:21,17,0,23.145,3856.2849183486,152.230976,0.223694,1.736876696,0,0,-0.671082,26.2, 5.3, 5,0,0,1024,1024,1024,1024,25.6,-89.9,97,3.887,3.873,3.905,3.882,3.901,3.885,17.607,69.8,14,Waypoint,
38.5387168,-120.5236113,3857.2691703486,153.215228,0,1.53311684696,21200,2018-06-20 17:51:21,17,0,23.145,3857.2691703486,153.215228,0.223694,1.736876696,0,0,-0.671082,26, 5, 4.8,0,0,1024,1024,1024,1024,25.6,-89.9,97,3.887,3.873,3.905,3.882,3.901,3.885,17.607,69.8,14,Waypoint,
38.5387168,-120.5236113,3858.2534223486,154.19948,0,1.53311684696,21300,2018-06-20 17:51:21,17,0,23.145,3858.2534223486,154.19948,0.223694,1.736876696,0,0,-0.671082,25.9, 4.7, 4.7,0,0,1024,1024,1024,1024,25.6,-90,97,3.887,3.873,3.905,3.882,3.901,3.885,17.607,69.8,14,Waypoint,
38.5387167,-120.5236113,3859.2376743486,155.183732,0,1.49931763328,21400,2018-06-20 17:51:21,17,0,23.145,3859.2376743486,155.183732,0.223694,1.736876696,0,0,-0.671082,25.8, 4.2, 4.6,0,0,1024,1024,1024,1024,25.6,-90,97,3.887,3.873,3.905,3.882,3.901,3.885,17.607,69.8,14,Waypoint,
38.5387166,-120.5236112,3860.2219263486,156.167984,0,1.45476710692,21500,2018-06-20 17:51:21,17,0,23.145,3860.2219263486,156.167984,0.223694,1.736876696,0,0,-0.671082,25.8, 4, 4.3,0,0,1024,1024,1024,1024,25.6,-90,97,3.887,3.873,3.905,3.882,3.901,3.885,17.607,69.8,14,Waypoint,
38.5387165,-120.5236111,3861.2061783486,157.152236,0,1.4103346908,21600,2018-06-20 17:51:21,17,0,23.145,3861.2061783486,157.152236,0.223694,1.736876696,0,0,-0.671082,25.9, 3.6, 3.9,0,0,1024,1024,1024,1024,25.6,-89.9,97,3.887,3.873,3.905,3.882,3.901,3.885,17.607,69.8,14,Waypoint,
38.5387164,-120.5236111,3862.1904303486,158.136488,0,1.37642064772,21700,2018-06-20 17:51:21,17,0,23.145,3862.1904303486,158.136488,0.223694,1.736876696,0,0,-0.671082,26, 4, 3.7,0,0,1024,1024,1024,1024,25.6,-89.9,97,3.887,3.873,3.905,3.882,3.901,3.885,17.607,69.8,14,Waypoint,
38.5387164,-120.5236109,3864.1589343486,160.104992,0,1.3561516182,21800,2018-06-20 17:51:21,18,0,23.145,3864.1589343486,160.104992,0.223694,1.736876696,0,0,-0.671082,26.1, 4.5, 4.2,0,0,1024,1024,1024,1024,25.6,-89.9,97,3.887,3.873,3.905,3.882,3.901,3.885,17.607,69.8,14,Waypoint,
38.5387164,-120.5236108,3865.1431863486,161.089244,0,1.34681434756,22000,2018-06-20 17:51:21,18,0,23.351,3865.1431863486,161.089244,0.223694,1.736876696,0,0,-0.671082,26.2, 4.7, 3.9,0,0,1024,1024,1024,1024,25.6,-89.9,97,3.866,3.858,3.911,3.885,3.906,3.912,18.129,69.8,14,Waypoint,
38.5387163,-120.5236107,3866.7836063486,162.729664,0,1.30324151152,22100,2018-06-20 17:51:22,18,0,23.351,3866.7836063486,162.729664,0.223694,1.736876696,0,0,-0.671082,26.1, 4.8, 3.6,0,0,1024,1024,1024,1024,25.6,-89.9,97,3.866,3.858,3.911,3.885,3.906,3.912,18.129,69.8,14,Waypoint,
38.5387161,-120.5236105,3868.7521103486,164.698168,0,1.21670607568,22400,2018-06-20 17:51:22,18,0,23.351,3868.7521103486,164.698168,0.223694,1.736876696,0,0,-0.671082,25.8, 4.6, 3.3,0,0,1024,1024,1024,1024,25.6,-89.9,97,3.866,3.858,3.911,3.885,3.906,3.912,18.129,69.8,14,Waypoint,
38.5387159,-120.5236105,3870.7206143486,166.666672,0,1.14687011544,22500,2018-06-20 17:51:22,18,0,23.351,3870.7206143486,166.666672,0.223694,1.736876696,0,0,-0.671082,25.3, 4, 3.5,0,0,1024,1024,1024,1024,25.6,-89.9,97,3.866,3.858,3.911,3.885,3.906,3.912,18.129,69.8,14,Waypoint,
38.5387158,-120.5236104,3871.7048663486,167.650924,0,1.10364832928,22600,2018-06-20 17:51:22,18,0,23.351,3871.7048663486,167.650924,0.223694,1.736876696,0,0,-0.671082,25.1, 3.6, 3.8,0,0,1024,1024,1024,1024,25.6,-90,97,3.866,3.858,3.911,3.885,3.906,3.912,18.129,69.8,14,Waypoint,
38.5387157,-120.5236104,3872.6891183486,168.635176,0,1.06872378748,22800,2018-06-20 17:51:22,18,0,23.351,3872.6891183486,168.635176,0.223694,1.736876696,0,0,-0.671082,25.1, 3.6, 3.6,0,0,1024,1024,1024,1024,25.6,-89.9,97,3.866,3.858,3.911,3.885,3.906,3.912,18.129,69.8,14,Waypoint,
38.5387156,-120.5236104,3874.0014543486,169.947512,0,1.03390095172,22900,2018-06-20 17:51:22,18,0,23.351,3874.0014543486,169.947512,0.223694,1.736876696,0,0,-0.671082,25.1, 3.5, 3.2,0,0,1024,1024,1024,1024,25.6,-90,97,3.866,3.858,3.911,3.885,3.906,3.912,18.129,69.8,14,Waypoint,
38.5387156,-120.5236103,3874.9857063486,170.931764,0,1.02559714568,23000,2018-06-20 17:51:22,18,0,23.156,3874.9857063486,170.931764,0.223694,1.736876696,0,0,-0.671082,25.2, 3.7, 2.9,0,0,1024,1024,1024,1024,25.6,-89.9,97,3.828,3.826,3.87,3.854,3.87,3.867,20.145,71.6,14,Waypoint,
38.5387155,-120.5236102,3875.9699583486,171.916016,0,0.98276577948,23100,2018-06-20 17:51:23,18,0,23.156,3875.9699583486,171.916016,0.223694,1.736876696,0,0,-0.671082,25.4, 3.8, 2.7,0,0,1024,1024,1024,1024,25.6,-89.9,97,3.828,3.826,3.87,3.854,3.87,3.867,20.145,71.6,14,Waypoint,
38.5387154,-120.5236101,3876.9542103486,172.900268,0,0.94026249728,23200,2018-06-20 17:51:23,18,0,23.156,3876.9542103486,172.900268,0.223694,1.736876696,0,0,-0.671082,25.5, 4, 2.4,0,0,1024,1024,1024,1024,25.6,-89.9,97,3.828,3.826,3.87,3.854,3.87,3.867,20.145,71.6,14,Waypoint,
38.5387154,-120.5236101,3877.9384623486,173.88452,0,0.94026249728,23300,2018-06-20 17:51:23,18,0,23.156,3877.9384623486,173.88452,0.223694,1.736876696,0,0,-0.671082,25.7, 4.1, 2.2,0,0,1024,1024,1024,1024,25.6,-89.9,97,3.828,3.826,3.87,3.854,3.87,3.867,20.145,71.6,14,Waypoint,
38.5387154,-120.5236101,3878.9227143486,174.868772,0,0.94026249728,23400,2018-06-20 17:51:23,18,0,23.156,3878.9227143486,174.868772,0.223694,1.736876696,0,0,-0.671082,25.8, 4, 2.4,0,0,1024,1024,1024,1024,25.6,-89.9,97,3.828,3.826,3.87,3.854,3.87,3.867,20.145,71.6,14,Waypoint,
38.5387154,-120.5236101,3879.9069663486,175.853024,0,0.94026249728,23500,2018-06-20 17:51:23,18,0,23.156,3879.9069663486,175.853024,0.223694,1.736876696,0,0,-0.671082,25.8, 4, 2.9,0,0,1024,1024,1024,1024,25.6,-89.9,97,3.828,3.826,3.87,3.854,3.87,3.867,20.145,71.6,14,Waypoint,
38.5387154,-120.5236101,3881.2193023486,177.16536,0,0.94026249728,23600,2018-06-20 17:51:23,18,0,23.156,3881.2193023486,177.16536,0.223694,1.736876696,0,0,-0.671082,25.8, 4, 3.3,0,0,1024,1024,1024,1024,25.6,-89.9,97,3.828,3.826,3.87,3.854,3.87,3.867,20.145,71.6,14,Waypoint,
38.5387154,-120.5236102,3881.8754703486,177.821528,0,0.94759517468,23700,2018-06-20 17:51:23,18,0,23.156,3881.8754703486,177.821528,0.223694,1.736876696,0,0,-0.671082,25.8, 4, 3.8,0,0,1024,1024,1024,1024,25.6,-89.9,97,3.828,3.826,3.87,3.854,3.87,3.867,20.145,71.6,14,Waypoint,
38.5387154,-120.5236103,3883.1878063486,179.133864,0,0.9557250962,23800,2018-06-20 17:51:23,18,0,23.156,3883.1878063486,179.133864,0.223694,1.736876696,0,0,-0.671082,25.8, 3.9, 4.1,0,0,1024,1024,1024,1024,25.6,-89.9,97,3.828,3.826,3.87,3.854,3.87,3.867,20.145,71.6,14,Waypoint,
38.5387153,-120.5236104,3884.1720583486,180.118116,0,0.93021000352,23900,2018-06-20 17:51:23,18,0,23.156,3884.1720583486,180.118116,0.223694,1.736876696,0,0,-0.671082,25.8, 3.7, 4.1,0,0,1024,1024,1024,1024,25.6,-89.9,97,3.828,3.826,3.87,3.854,3.87,3.867,20.145,71.6,14,Waypoint,
38.5387153,-120.5236104,3885.1563103486,181.102368,0,0.93021000352,24000,2018-06-20 17:51:23,19,0,23.042,3885.1563103486,181.102368,0.223694,1.736876696,0,0,-0.671082,25.7, 3.9, 4.2,0,0,1024,1024,1024,1024,25.6,-89.9,97,3.837,3.804,3.865,3.838,3.852,3.857,21.308,71.6,14,Waypoint,
38.5387153,-120.5236105,3886.1405623486,182.08662,0,0.9402231272,24100,2018-06-20 17:51:24,19,0,23.042,3886.1405623486,182.08662,0.223694,1.736876696,0,0,-0.671082,25.8, 4.1, 4.4,0,0,1024,1024,1024,1024,25.6,-89.9,97,3.837,3.804,3.865,3.838,3.852,3.857,21.308,71.6,14,Waypoint,
38.5387153,-120.5236105,3887.1248143486,183.070872,0,0.9402231272,24200,2018-06-20 17:51:24,19,0,23.042,3887.1248143486,183.070872,0.223694,1.736876696,0,0,-0.671082,25.8, 4, 4.2,0,0,1024,1024,1024,1024,25.6,-89.9,97,3.837,3.804,3.865,3.838,3.852,3.857,21.308,71.6,14,Waypoint,
38.5387153,-120.5236107,3889.0933183486,185.039376,0,0.96248034576,24300,2018-06-20 17:51:24,19,0,23.042,3889.0933183486,185.039376,0.223694,1.736876696,0,0,-0.671082,25.8, 3.6, 4.3,0,0,1024,1024,1024,1024,25.6,-89.9,97,3.837,3.804,3.865,3.838,3.852,3.857,21.308,71.6,14,Waypoint,
38.5387153,-120.5236107,3890.0775703486,186.023628,0,0.96248034576,24400,2018-06-20 17:51:24,19,0,23.042,3890.0775703486,186.023628,0.223694,1.736876696,0,0,-0.671082,25.8, 3.7, 4.4,0,0,1024,1024,1024,1024,25.6,-89.9,97,3.837,3.804,3.865,3.838,3.852,3.857,21.308,71.6,14,Waypoint,
38.5387153,-120.5236108,3891.7179903486,187.664048,0,0.9746719472,24700,2018-06-20 17:51:24,19,0,23.042,3891.7179903486,187.664048,0.223694,1.736876696,0,0,-0.671082,25.8, 3.8, 3.9,0,0,1024,1024,1024,1024,25.6,-89.9,97,3.837,3.804,3.865,3.838,3.852,3.857,21.308,71.6,14,Waypoint,
38.5387153,-120.5236108,3893.6864943486,189.632552,0,0.9746719472,24800,2018-06-20 17:51:24,19,0,23.042,3893.6864943486,189.632552,0.223694,1.736876696,0,0,-0.671082,25.7, 3.9, 4,0,0,1024,1024,1024,1024,25.6,-89.9,97,3.837,3.804,3.865,3.838,3.852,3.857,21.308,71.6,14,Waypoint,
38.5387154,-120.5236109,3894.6707463486,190.616804,0,1.0200295602,24900,2018-06-20 17:51:24,19,0,23.042,3894.6707463486,190.616804,0.223694,1.736876696,0,0,-0.671082,25.7, 4.3, 4.3,0,0,1024,1024,1024,1024,25.6,-89.9,97,3.837,3.804,3.865,3.838,3.852,3.857,21.308,71.6,14,Waypoint,
38.5387154,-120.5236109,3895.6549983486,191.601056,0,1.0200295602,25100,2018-06-20 17:51:25,19,0,23.042,3895.6549983486,191.601056,0.223694,1.736876696,0,0,-0.671082,25.7, 4.6, 4.5,0,0,1024,1024,1024,1024,25.6,-89.9,97,3.837,3.804,3.865,3.838,3.852,3.857,21.308,71.6,14,Waypoint,
38.5387154,-120.5236109,3896.6392503486,192.585308,0,1.0200295602,25200,2018-06-20 17:51:25,20,0,23.042,3896.6392503486,192.585308,0.223694,1.736876696,0,0,-0.671082,25.8, 4.6, 4.1,0,0,1024,1024,1024,1024,25.6,-89.9,97,3.837,3.804,3.865,3.838,3.852,3.857,21.308,71.6,14,Waypoint,
38.5387154,-120.5236109,3897.6235023486,193.56956,0,1.0200295602,25300,2018-06-20 17:51:25,20,0,23.042,3897.6235023486,193.56956,0.223694,1.736876696,0,0,-0.671082,25.7, 4.5, 3.7,0,0,1024,1024,1024,1024,25.6,-89.9,97,3.837,3.804,3.865,3.838,3.852,3.857,21.308,71.6,14,Waypoint,
38.5387154,-120.523611,3898.6077543486,194.553812,0,1.0331201118,25400,2018-06-20 17:51:25,20,0,23.042,3898.6077543486,194.553812,0.223694,1.736876696,0,0,-0.671082,25.6, 4.3, 3.8,0,0,1024,1024,1024,1024,25.6,-89.9,97,3.837,3.804,3.865,3.838,3.852,3.857,21.308,71.6,14,Waypoint,
38.5387154,-120.523611,3899.2639223486,195.20998,0,1.0331201118,25500,2018-06-20 17:51:25,20,0,23.042,3899.2639223486,195.20998,0.223694,1.736876696,0,0,-0.671082,25.5, 4, 4,0,0,1024,1024,1024,1024,25.6,-89.9,97,3.837,3.804,3.865,3.838,3.852,3.857,21.308,71.6,14,Waypoint,
38.5387154,-120.5236111,3900.2481743486,196.194232,0,1.04682418048,25600,2018-06-20 17:51:25,20,0,23.042,3900.2481743486,196.194232,0.223694,1.736876696,0,0,-0.671082,25.6, 3.7, 4.3,0,0,1024,1024,1024,1024,25.6,-89.9,97,3.837,3.804,3.865,3.838,3.852,3.857,21.308,71.6,14,Waypoint,
38.5387154,-120.5236112,3901.2324263486,197.178484,0,1.06111880036,25700,2018-06-20 17:51:25,20,0,23.042,3901.2324263486,197.178484,0.223694,1.736876696,0,0,-0.671082,25.6, 4, 4.1,0,0,1024,1024,1024,1024,25.6,-89.9,97,3.837,3.804,3.865,3.838,3.852,3.857,21.308,71.6,14,Waypoint,
38.5387154,-120.5236112,3902.2166783486,198.162736,0,1.06111880036,25800,2018-06-20 17:51:25,20,0,23.042,3902.2166783486,198.162736,0.223694,1.736876696,0,0,-0.671082,25.8, 4.3, 3.8,0,0,1024,1024,1024,1024,25.6,-89.9,97,3.837,3.804,3.865,3.838,3.852,3.857,21.308,71.6,14,Waypoint,
38.5387154,-120.5236113,3903.2009303486,199.146988,0,1.07598100556,25900,2018-06-20 17:51:25,20,0,23.042,3903.2009303486,199.146988,0.223694,1.736876696,0,0,-0.671082,25.9, 4.4, 4,0,0,1024,1024,1024,1024,25.6,-89.9,97,3.837,3.804,3.865,3.838,3.852,3.857,21.308,71.6,14,Waypoint,
38.5387155,-120.5236113,3904.1851823486,200.13124,0,1.10708008792,26000,2018-06-20 17:51:25,20,0,23.059,3904.1851823486,200.13124,0.223694,1.736876696,0,0,-0.671082,26, 4.4, 4.5,0,0,1024,1024,1024,1024,25.6,-89.9,97,3.842,3.806,3.867,3.839,3.849,3.863,20.217,71.6,14,Waypoint,
38.5387155,-120.5236114,3905.1694343486,201.115492,0,1.12206040336,26100,2018-06-20 17:51:26,20,0,23.059,3905.1694343486,201.115492,0.223694,1.736876696,0,0,-0.671082,26, 4.4, 4.9,0,0,1024,1024,1024,1024,25.6,-89.9,97,3.842,3.806,3.867,3.839,3.849,3.863,20.217,71.6,14,Waypoint,
38.5387155,-120.5236114,3906.1536863486,202.099744,0,1.12206040336,26200,2018-06-20 17:51:26,20,0,23.059,3906.1536863486,202.099744,0.223694,1.736876696,0,0,-0.671082,26, 4.6, 5.1,0,0,1024,1024,1024,1024,25.6,-89.9,97,3.842,3.806,3.867,3.839,3.849,3.863,20.217,71.6,14,Waypoint,
38.5387155,-120.5236115,3907.1379383486,203.083996,0,1.13755909152,26300,2018-06-20 17:51:26,20,0,23.059,3907.1379383486,203.083996,0.223694,1.736876696,0,0,-0.671082,25.9, 4.7, 5.2,0,0,1024,1024,1024,1024,25.6,-89.9,97,3.842,3.806,3.867,3.839,3.849,3.863,20.217,71.6,14,Waypoint,
38.5387155,-120.5236115,3908.1221903486,204.068248,0,1.13755909152,26400,2018-06-20 17:51:26,20,0,23.059,3908.1221903486,204.068248,0.223694,1.736876696,0,0,-0.671082,25.8, 4.5, 4.9,0,0,1024,1024,1024,1024,25.6,-89.9,97,3.842,3.806,3.867,3.839,3.849,3.863,20.217,71.6,14,Waypoint,
38.5387155,-120.5236115,3909.1064423486,205.0525,0,1.13755909152,26500,2018-06-20 17:51:26,20,0,23.059,3909.1064423486,205.0525,0.223694,1.736876696,0,0,-0.671082,25.7, 4.3, 4.6,0,0,1024,1024,1024,1024,25.6,-89.9,97,3.842,3.806,3.867,3.839,3.849,3.863,20.217,71.6,14,Waypoint,
38.5387155,-120.5236114,3910.0906943486,206.036752,0,1.12206040336,26600,2018-06-20 17:51:26,20,0,23.059,3910.0906943486,206.036752,0.223694,1.736876696,0,0,-0.671082,25.6, 4.1, 4.3,0,0,1024,1024,1024,1024,25.6,-89.9,97,3.842,3.806,3.867,3.839,3.849,3.863,20.217,71.6,14,Waypoint,
38.5387154,-120.5236114,3912.0591983486,208.005256,0,1.0913878302,26700,2018-06-20 17:51:26,20,0,23.059,3912.0591983486,208.005256,0.223694,1.736876696,0,0,-0.671082,25.6, 3.3, 4.2,0,0,1024,1024,1024,1024,25.6,-89.9,97,3.842,3.806,3.867,3.839,3.849,3.863,20.217,71.6,14,Waypoint,
