latitude,longitude,altitude(feet),ascent(feet),speed(mph),distance(feet),time(millisecond),datetime(utc),satellites,gpslevel,voltage(v),max_altitude(feet),max_ascent(feet),max_speed(mph),max_distance(feet), xSpeed(mph), ySpeed(mph), zSpeed(mph), compass_heading(degrees), pitch(degrees), roll(degrees),isPhoto,isVideo,rc_elevator,rc_aileron,rc_throttle,rc_rudder,gimbal_heading(degrees),gimbal_pitch(degrees),battery_percent,voltageCell1,voltageCell2,voltageCell3,voltageCell4,voltageCell5,voltageCell6,current(A),battery_temperature(f),flycStateRaw,flycState,message
38.5387124,-120.5236083,3704.0174974656,0,0,0,3060,2018-06-20 17:12:34,15,0,0,3704.0174974656,0,0,0,0,0,0,33.4, 0.7, 1.3,1,0,1024,1024,1024,1024,32.6,-89.9,100,4.212,4.208,4.233,4.233,4.24,4.18,0,66.2,11,AutoTakeoff,DJI_0001.jpg Starting Mission from Lat/Long: 38.53870/-120.52358 Camera: Zenmuse X3 - Overlap: 90/90 - Active Connection: No
38.5387123,-120.5236085,3704.3455814656,0.328084,0,0.067740815816,3200,2018-06-20 17:12:34,15,0,0,3704.3455814656,0.328084,0,0.067740815816,0,0,0,33.4, 0.1, 0.6,0,0,1024,1024,1024,1024,32.6,-90,100,4.212,4.208,4.233,4.233,4.24,4.18,0,66.2,11,AutoTakeoff,
38.5387123,-120.5236086,3704.3455814656,0.328084,0,0.09306430744,3400,2018-06-20 17:12:35,15,0,0,3704.3455814656,0.328084,0,0.09306430744,0,0,0,33.3, 0, 0.4,0,0,1024,1024,1024,1024,32.6,-90,100,4.212,4.208,4.233,4.233,4.24,4.18,0,66.2,11,AutoTakeoff,
38.5387124,-120.5236087,3704.6736654656,0.656168,0,0.114152234624,3500,2018-06-20 17:12:35,15,0,0,3704.6736654656,0.656168,0,0.114152234624,0,0,0,33.3, 0, 0.2,0,0,1024,1024,1024,1024,32.6,-89.9,100,4.212,4.208,4.233,4.233,4.24,4.18,0,66.2,11,AutoTakeoff,
38.5387123,-120.5236087,3704.6736654656,0.656168,0,0.119841211184,3600,2018-06-20 17:12:35,15,0,0,3704.6736654656,0.656168,0,0.119841211184,0,0,0,33.3, 0, 0.2,0,0,1024,1024,1024,1024,32.6,-90,100,4.212,4.208,4.233,4.233,4.24,4.18,0,66.2,11,AutoTakeoff,
38.5387123,-120.5236088,3704.6736654656,0.656168,0,0.147280844608,3700,2018-06-20 17:12:35,15,0,0,3704.6736654656,0.656168,0,0.147280844608,0,0,0,33.3, 0, 0.3,0,0,1024,1024,1024,1024,32.6,-89.9,100,4.212,4.208,4.233,4.233,4.24,4.18,0,66.2,11,AutoTakeoff,
38.5387123,-120.5236088,3705.0017494656,0.984252,0,0.147280844608,3800,2018-06-20 17:12:35,15,0,0,3705.0017494656,0.984252,0,0.147280844608,0,0,0,33.3, 0, 0.3,0,0,1024,1024,1024,1024,32.6,-89.9,100,4.212,4.208,4.233,4.233,4.24,4.18,0,66.2,11,AutoTakeoff,
38.5387123,-120.5236088,3705.0017494656,0.984252,0,0.147280844608,3900,2018-06-20 17:12:35,15,0,0,3705.0017494656,0.984252,0,0.147280844608,0,0,0,33.3, 0, 0.3,0,0,1024,1024,1024,1024,32.6,-89.9,100,4.212,4.208,4.233,4.233,4.24,4.18,0,66.2,11,AutoTakeoff,
38.5387123,-120.5236088,3705.3298334656,1.312336,0,0.147280844608,4000,2018-06-20 17:12:35,15,0,25.348,3705.3298334656,1.312336,0,0.147280844608,0,0,-0.223694,33.4, 0, 0.3,0,0,1024,1024,1024,1024,32.6,-90,100,4.212,4.208,4.233,4.233,4.24,4.18,3.015,66.2,11,AutoTakeoff,
38.5387124,-120.5236088,3705.6579174656,1.64042,0,0.14269029328,4100,2018-06-20 17:12:35,15,0,25.348,3705.6579174656,1.64042,0,0.147280844608,0,0,-0.223694,33.5, 0.1, 0.3,0,0,1024,1024,1024,1024,32.6,-89.9,100,4.212,4.208,4.233,4.233,4.24,4.18,3.015,66.2,11,AutoTakeoff,
38.5387124,-120.5236089,3705.6579174656,1.64042,0,0.171228351936,4200,2018-06-20 17:12:35,15,0,25.348,3705.6579174656,1.64042,0,0.171228351936,0,0,-0.223694,33.5, 0.3, 0.3,0,0,1024,1024,1024,1024,32.6,-89.9,100,4.212,4.208,4.233,4.233,4.24,4.18,3.015,66.2,11,AutoTakeoff,
38.5387125,-120.5236089,3705.9860014656,1.968504,0,0.17507218408,4300,2018-06-20 17:12:35,15,0,25.348,3705.9860014656,1.968504,0,0.17507218408,0,0,-0.223694,33.6, 0.4, 0.3,0,0,1024,1024,1024,1024,32.6,-89.9,100,4.212,4.208,4.233,4.233,4.24,4.18,3.015,66.2,11,AutoTakeoff,
38.5387125,-120.5236088,3705.9860014656,1.968504,0,0.147280844608,4400,2018-06-20 17:12:36,15,0,25.348,3705.9860014656,1.968504,0,0.17507218408,0,0,-0.223694,33.6, 0.6, 0.4,0,0,1024,1024,1024,1024,32.6,-89.9,100,4.212,4.208,4.233,4.233,4.24,4.18,3.015,66.2,11,AutoTakeoff,
38.5387126,-120.5236088,3706.3140854656,2.296588,0,0.16026575316,4500,2018-06-20 17:12:36,15,0,25.348,3706.3140854656,2.296588,0,0.17507218408,0,0,0,33.6, 0.6, 0.4,0,0,1024,1024,1024,1024,32.6,-89.9,100,4.212,4.208,4.233,4.233,4.24,4.18,3.015,66.2,11,AutoTakeoff,
38.5387126,-120.5236088,3706.6421694656,2.624672,0,0.16026575316,4600,2018-06-20 17:12:36,15,0,25.348,3706.6421694656,2.624672,0,0.17507218408,0,0,0,33.5, 0.7, 0.2,0,0,1024,1024,1024,1024,32.6,-89.9,100,4.212,4.208,4.233,4.233,4.24,4.18,3.015,66.2,11,AutoTakeoff,
38.5387128,-120.5236087,3706.9702534656,2.952756,0,0.185281173908,4800,2018-06-20 17:12:36,15,0,25.348,3706.9702534656,2.952756,0,0.185281173908,0,0,-0.223694,33.5, 0.6, 0.2,0,0,1024,1024,1024,1024,32.6,-89.9,100,4.212,4.208,4.233,4.233,4.24,4.18,3.015,66.2,14,Waypoint,
38.5387129,-120.5236087,3706.9702534656,2.952756,0,0.215196529196,4900,2018-06-20 17:12:36,15,0,25.348,3706.9702534656,2.952756,0,0.215196529196,0,0,0,33.5, 0.7, 0,0,0,1024,1024,1024,1024,32.6,-89.9,100,4.212,4.208,4.233,4.233,4.24,4.18,3.015,66.2,14,Waypoint,
38.5387129,-120.5236086,3707.2983374656,3.28084,0,0.20151575448,5000,2018-06-20 17:12:36,15,0,24.107,3707.2983374656,3.28084,0,0.215196529196,0,0,0,33.5, 0.9, -0.3,0,0,1024,1024,1024,1024,32.6,-89.9,100,4.006,3.99,4.016,4.044,3.984,4.014,11.32,66.2,14,Waypoint,
38.5387129,-120.5236085,3707.2983374656,3.28084,0,0.19114501924,5100,2018-06-20 17:12:36,14,0,24.107,3707.2983374656,3.28084,0,0.215196529196,0,0,0,33.5, 1, -0.3,0,0,1024,1024,1024,1024,32.6,-89.9,100,4.006,3.99,4.016,4.044,3.984,4.014,11.32,66.2,14,Waypoint,
38.538713,-120.5236085,3707.2983374656,3.28084,0,0.226228025612,5200,2018-06-20 17:12:36,14,0,24.107,3707.2983374656,3.28084,0,0.226228025612,0,0,0,33.5, 1.1, -0.4,0,0,1024,1024,1024,1024,32.6,-89.9,100,4.006,3.99,4.016,4.044,3.984,4.014,11.32,66.2,14,Waypoint,
38.5387131,-120.5236084,3707.6264214656,3.608924,0,0.256983932108,5300,2018-06-20 17:12:36,15,0,24.107,3707.6264214656,3.608924,0,0.256983932108,0,0,0,33.5, 1.1, -0.4,0,0,1024,1024,1024,1024,32.6,-89.9,100,4.006,3.99,4.016,4.044,3.984,4.014,11.32,66.2,14,Waypoint,
38.5387131,-120.5236084,3707.6264214656,3.608924,0,0.256983932108,5400,2018-06-20 17:12:37,15,0,24.107,3707.6264214656,3.608924,0,0.256983932108,0,0,-0.223694,33.5, 1.3, -0.4,0,0,1024,1024,1024,1024,32.6,-89.9,100,4.006,3.99,4.016,4.044,3.984,4.014,11.32,66.2,14,Waypoint,
38.5387131,-120.5236083,3707.9545054656,3.937008,0,0.255394693212,5600,2018-06-20 17:12:37,15,0,24.107,3707.9545054656,3.937008,0,0.256983932108,0,0,-0.223694,33.4, 1.3, -0.4,0,0,1024,1024,1024,1024,32.6,-89.9,100,4.006,3.99,4.016,4.044,3.984,4.014,11.32,66.2,14,Waypoint,
38.5387132,-120.5236083,3707.9545054656,3.937008,0,0.291879602516,5700,2018-06-20 17:12:37,15,0,24.107,3707.9545054656,3.937008,0,0.291879602516,0,0,-0.223694,33.4, 1.2, -0.5,0,0,1024,1024,1024,1024,32.6,-89.9,100,4.006,3.99,4.016,4.044,3.984,4.014,11.32,66.2,14,Waypoint,
38.5387132,-120.5236083,3708.2825894656,4.265092,0,0.291879602516,5800,2018-06-20 17:12:37,14,0,24.107,3708.2825894656,4.265092,0,0.291879602516,0,0,-0.223694,33.4, 1.2, -0.5,0,0,1024,1024,1024,1024,32.6,-89.9,100,4.006,3.99,4.016,4.044,3.984,4.014,11.32,66.2,14,Waypoint,
38.5387133,-120.5236083,3708.6106734656,4.593176,0,0.3283628714,5900,2018-06-20 17:12:37,14,0,24.107,3708.6106734656,4.593176,0,0.3283628714,0,0,-0.223694,33.3, 1.1, -0.7,0,0,1024,1024,1024,1024,32.6,-89.9,100,4.006,3.99,4.016,4.044,3.984,4.014,11.32,66.2,14,Waypoint,
38.5387132,-120.5236084,3709.2668414656,5.249344,0,0.293271334844,6000,2018-06-20 17:12:37,14,0,23.782,3709.2668414656,5.249344,0,0.3283628714,0,0,-0.447388,33.2, 0.9, -0.5,0,0,1024,1024,1024,1024,32.6,-89.9,100,3.96,3.952,3.954,3.953,3.957,3.982,15.98,66.2,14,Waypoint,
38.5387131,-120.5236085,3709.9230094656,5.905512,0,0.26169456218,6100,2018-06-20 17:12:37,14,0,23.782,3709.9230094656,5.905512,0,0.3283628714,0,0,-0.447388,33.1, 0.7, -0.4,0,0,1024,1024,1024,1024,32.6,-90,100,3.96,3.952,3.954,3.953,3.957,3.982,15.98,66.2,14,Waypoint,
38.538713,-120.5236086,3710.2510934656,6.233596,0,0.2350557818,6200,2018-06-20 17:12:37,16,0,23.782,3710.2510934656,6.233596,0,0.3283628714,0,0,-0.447388,32.9, 0.2, -0.2,0,0,1024,1024,1024,1024,32.6,-90,100,3.96,3.952,3.954,3.953,3.957,3.982,15.98,66.2,14,Waypoint,
38.5387129,-120.5236087,3711.2353454656,7.217848,0,0.215196529196,6300,2018-06-20 17:12:37,16,0,23.782,3711.2353454656,7.217848,0,0.3283628714,0,0,-0.447388,32.9, -0.2, -0.1,0,0,1024,1024,1024,1024,32.6,-90,100,3.96,3.952,3.954,3.953,3.957,3.982,15.98,66.2,14,Waypoint,
38.5387128,-120.5236087,3711.8915134656,7.874016,0,0.185281173908,6400,2018-06-20 17:12:38,16,0,23.782,3711.8915134656,7.874016,0,0.3283628714,0,0,-0.447388,33.1, -0.6, -0.1,0,0,1024,1024,1024,1024,32.6,-90,100,3.96,3.952,3.954,3.953,3.957,3.982,15.98,66.2,14,Waypoint,
38.5387127,-120.5236088,3712.8757654656,8.858268,0,0.179835635676,6500,2018-06-20 17:12:38,16,0,23.782,3712.8757654656,8.858268,0,0.3283628714,0,0,-0.671082,33.4, -0.5, -0.3,0,0,1024,1024,1024,1024,32.6,-90,100,3.96,3.952,3.954,3.953,3.957,3.982,15.98,66.2,14,Waypoint,
38.5387127,-120.5236088,3713.5319334656,9.514436,0,0.179835635676,6600,2018-06-20 17:12:38,14,0,23.782,3713.5319334656,9.514436,0,0.3283628714,0,0,-0.671082,33.7, -0.3, -0.5,0,0,1024,1024,1024,1024,32.6,-89.9,100,3.96,3.952,3.954,3.953,3.957,3.982,15.98,66.2,14,Waypoint,
38.5387127,-120.5236088,3714.5161854656,10.498688,0,0.179835635676,6700,2018-06-20 17:12:38,14,0,23.782,3714.5161854656,10.498688,0,0.3283628714,0,0,-0.671082,33.9, 0, -0.3,0,0,1024,1024,1024,1024,32.6,-89.9,100,3.96,3.952,3.954,3.953,3.957,3.982,15.98,66.2,14,Waypoint,
38.5387126,-120.5236088,3716.8127734656,12.795276,0,0.16026575316,6800,2018-06-20 17:12:38,15,0,23.782,3716.8127734656,12.795276,0,0.3283628714,0,0,-0.671082,33.8, 0.6, -0.4,0,0,1024,1024,1024,1024,32.6,-89.9,100,3.96,3.952,3.954,3.953,3.957,3.982,15.98,66.2,14,Waypoint,
38.5387126,-120.5236087,3717.7970254656,13.779528,0,0.135481959716,7010,2018-06-20 17:12:38,16,0,23.912,3717.7970254656,13.779528,0,0.3283628714,0,0,-0.671082,33.7, 0.8, -0.6,0,0,1024,1024,1024,1024,32.6,-89.9,98,4.03,3.97,3.952,3.963,3.929,3.992,15.8,66.2,14,Waypoint,
38.5387127,-120.5236087,3720.0936134656,16.076116,0,0.158148955192,7100,2018-06-20 17:12:38,16,0,23.912,3720.0936134656,16.076116,0,0.3283628714,0,0,-0.671082,33.6, 1.1, -0.6,0,0,1024,1024,1024,1024,32.6,-89.9,98,4.03,3.97,3.952,3.963,3.929,3.992,15.8,66.2,14,Waypoint,
38.5387127,-120.5236087,3721.0778654656,17.060368,0,0.158148955192,7200,2018-06-20 17:12:38,16,0,23.912,3721.0778654656,17.060368,0,0.3283628714,0,0,-0.671082,33.6, 1, -0.4,0,0,1024,1024,1024,1024,32.6,-89.9,98,4.03,3.97,3.952,3.963,3.929,3.992,15.8,66.2,14,Waypoint,
38.5387128,-120.5236088,3722.0621174656,18.04462,0,0.204105321492,7300,2018-06-20 17:12:38,17,0,23.912,3722.0621174656,18.04462,0,0.3283628714,0,0,-0.671082,33.6, 1, 0,0,0,1024,1024,1024,1024,32.6,-89.9,98,4.03,3.97,3.952,3.963,3.929,3.992,15.8,66.2,14,Waypoint,
38.5387129,-120.5236088,3723.3744534656,19.356956,0,0.231601713448,7400,2018-06-20 17:12:39,17,0,23.912,3723.3744534656,19.356956,0,0.3283628714,0,0,-0.671082,33.6, 1, 0.3,0,0,1024,1024,1024,1024,32.6,-89.9,98,4.03,3.97,3.952,3.963,3.929,3.992,15.8,66.2,14,Waypoint,
38.5387129,-120.5236089,3724.3587054656,20.341208,0,0.250195874148,7500,2018-06-20 17:12:39,17,0,23.912,3724.3587054656,20.341208,0,0.3283628714,0,0,-0.671082,33.5, 0.9, 0.4,0,0,1024,1024,1024,1024,32.6,-89.9,98,4.03,3.97,3.952,3.963,3.929,3.992,15.8,66.2,14,Waypoint,
38.538713,-120.5236088,3725.3429574656,21.32546,0,0.261308079228,7600,2018-06-20 17:12:39,17,0,23.912,3725.3429574656,21.32546,0,0.3283628714,0,0,-0.671082,33.5, 0.9, 0.5,0,0,1024,1024,1024,1024,32.6,-89.9,98,4.03,3.97,3.952,3.963,3.929,3.992,15.8,66.2,14,Waypoint,
38.5387131,-120.5236088,3726.6552934656,22.637796,0,0.2925525028,7800,2018-06-20 17:12:39,17,0,23.912,3726.6552934656,22.637796,0,0.3283628714,0,0,-0.671082,33.6, 0.7, 0.7,0,0,1024,1024,1024,1024,32.6,-89.9,98,4.03,3.97,3.952,3.963,3.929,3.992,15.8,66.2,14,Waypoint,
38.5387132,-120.5236088,3727.6395454656,23.622048,0,0.324891086512,7900,2018-06-20 17:12:39,17,0,23.912,3727.6395454656,23.622048,0,0.3283628714,0,0,-0.671082,33.6, 0.9, 0.5,0,0,1024,1024,1024,1024,32.6,-89.9,98,4.03,3.97,3.952,3.963,3.929,3.992,15.8,66.2,14,Waypoint,
38.5387134,-120.5236087,3728.6237974656,24.6063,0,0.38229003848,8000,2018-06-20 17:12:39,17,0,23.058,3728.6237974656,24.6063,0,0.38229003848,0,0,-0.671082,33.5, 1.2, 0.3,0,0,1024,1024,1024,1024,32.6,-89.9,98,3.84,3.837,3.816,3.813,3.823,3.829,22.123,66.2,14,Waypoint,
38.5387135,-120.5236086,3729.9361334656,25.918636,0,0.41036418636,8100,2018-06-20 17:12:39,17,0,23.058,3729.9361334656,25.918636,0,0.41036418636,0,0,-0.671082,33.5, 1.7, 0.1,0,0,1024,1024,1024,1024,32.6,-89.9,98,3.84,3.837,3.816,3.813,3.823,3.829,22.123,66.2,14,Waypoint,
38.5387137,-120.5236085,3730.9203854656,26.902888,0,0.47772639324,8200,2018-06-20 17:12:39,17,0,23.058,3730.9203854656,26.902888,0,0.47772639324,0,0,-0.671082,33.3, 1.9, 0,0,0,1024,1024,1024,1024,32.6,-89.9,98,3.84,3.837,3.816,3.813,3.823,3.829,22.123,66.2,14,Waypoint,
38.5387139,-120.5236085,3731.9046374656,27.88714,0,0.55024279976,8300,2018-06-20 17:12:39,17,0,23.058,3731.9046374656,27.88714,0,0.55024279976,0,0,-0.671082,33.2, 2.2, 0,0,0,1024,1024,1024,1024,32.6,-89.9,98,3.84,3.837,3.816,3.813,3.823,3.829,22.123,66.2,14,Waypoint,
38.538714,-120.5236084,3733.2169734656,29.199476,0,0.58445539928,8400,2018-06-20 17:12:40,17,0,23.058,3733.2169734656,29.199476,0,0.58445539928,0,0,-0.671082,33.2, 2.4, 0.3,0,0,1024,1024,1024,1024,32.6,-89.9,98,3.84,3.837,3.816,3.813,3.823,3.829,22.123,66.2,14,Waypoint,
38.5387142,-120.5236084,3734.2012254656,30.183728,0,0.6573491024,8500,2018-06-20 17:12:40,17,0,23.058,3734.2012254656,30.183728,0,0.6573491024,0,0,-0.671082,33.2, 2.6, 0.5,0,0,1024,1024,1024,1024,32.6,-89.9,98,3.84,3.837,3.816,3.813,3.823,3.829,22.123,66.2,14,Waypoint,
38.5387143,-120.5236083,3735.1854774656,31.16798,0,0.69321524528,8600,2018-06-20 17:12:40,17,0,23.058,3735.1854774656,31.16798,0,0.69321524528,0,0,-0.671082,33.2, 2.7, 0.4,0,0,1024,1024,1024,1024,32.6,-89.9,98,3.84,3.837,3.816,3.813,3.823,3.829,22.123,66.2,14,Waypoint,
38.5387143,-120.5236082,3736.1697294656,32.152232,0,0.69380251564,8700,2018-06-20 17:12:40,17,0,23.058,3736.1697294656,32.152232,0,0.69380251564,0,0,-0.671082,33.3, 2.7, 0.2,0,0,1024,1024,1024,1024,32.6,-89.9,98,3.84,3.837,3.816,3.813,3.823,3.829,22.123,66.2,14,Waypoint,
38.5387145,-120.5236081,3738.4663174656,34.44882,0,0.7683071112,8800,2018-06-20 17:12:40,17,0,23.058,3738.4663174656,34.44882,0,0.7683071112,0,0,-0.671082,33.5, 2.4, 0,0,0,1024,1024,1024,1024,32.6,-89.9,98,3.84,3.837,3.816,3.813,3.823,3.829,22.123,66.2,14,Waypoint,
38.5387146,-120.5236081,3739.4505694656,35.433072,0,0.80469490764,8900,2018-06-20 17:12:40,17,0,23.058,3739.4505694656,35.433072,0,0.80469490764,0,0,-0.671082,33.6, 2.4, 0.2,0,0,1024,1024,1024,1024,32.6,-89.9,98,3.84,3.837,3.816,3.813,3.823,3.829,22.123,66.2,14,Waypoint,
38.5387145,-120.523608,3740.4348214656,36.417324,0,0.77095146824,9000,2018-06-20 17:12:40,17,0,23.156,3740.4348214656,36.417324,0,0.80469490764,0,0,-0.671082,33.6, 2.2, 0,0,0,1024,1024,1024,1024,32.6,-89.9,98,3.851,3.853,3.851,3.867,3.87,3.881,19.435,66.2,14,Waypoint,
38.5387145,-120.523608,3741.4190734656,37.401576,0,0.77095146824,9100,2018-06-20 17:12:40,17,0,23.156,3741.4190734656,37.401576,0,0.80469490764,0,0,-0.671082,33.6, 2.1, -0.1,0,0,1024,1024,1024,1024,32.6,-89.9,98,3.851,3.853,3.851,3.867,3.87,3.881,19.435,66.2,14,Waypoint,
38.5387146,-120.523608,3742.4033254656,38.385828,0,0.80722115444,9200,2018-06-20 17:12:40,17,0,23.156,3742.4033254656,38.385828,0,0.80722115444,0,0,-0.671082,33.5, 2.1, 0,0,0,1024,1024,1024,1024,32.6,-89.9,98,3.851,3.853,3.851,3.867,3.87,3.881,19.435,66.2,14,Waypoint,
38.5387147,-120.523608,3743.3875774656,39.37008,0,0.84351052568,9300,2018-06-20 17:12:40,16,0,23.156,3743.3875774656,39.37008,0,0.84351052568,0,0,-0.671082,33.4, 2.2, 0.1,0,0,1024,1024,1024,1024,32.6,-89.9,98,3.851,3.853,3.851,3.867,3.87,3.881,19.435,66.2,14,Waypoint,
38.5387147,-120.523608,3744.3718294656,40.354332,0,0.84351052568,9400,2018-06-20 17:12:41,16,0,23.156,3744.3718294656,40.354332,0,0.84351052568,0,0,-0.671082,33.3, 2.4, 0.3,0,0,1024,1024,1024,1024,32.6,-89.9,98,3.851,3.853,3.851,3.867,3.87,3.881,19.435,66.2,14,Waypoint,
38.5387147,-120.523608,3745.6841654656,41.666668,0,0.84351052568,9500,2018-06-20 17:12:41,17,0,23.156,3745.6841654656,41.666668,0,0.84351052568,0,0,-0.671082,33.4, 2.5, 0.3,0,0,1024,1024,1024,1024,32.6,-89.9,98,3.851,3.853,3.851,3.867,3.87,3.881,19.435,66.2,14,Waypoint,
38.5387148,-120.5236081,3746.6684174656,42.65092,0,0.87749674724,9600,2018-06-20 17:12:41,17,0,23.156,3746.6684174656,42.65092,0,0.87749674724,0,0,-0.671082,33.5, 2.5, 0.5,0,0,1024,1024,1024,1024,32.6,-89.9,98,3.851,3.853,3.851,3.867,3.87,3.881,19.435,66.2,14,Waypoint,
38.5387148,-120.5236081,3747.6526694656,43.635172,0,0.87749674724,9700,2018-06-20 17:12:41,17,0,23.156,3747.6526694656,43.635172,0,0.87749674724,0,0,-0.671082,33.5, 2.3, 0.8,0,0,1024,1024,1024,1024,32.6,-89.9,98,3.851,3.853,3.851,3.867,3.87,3.881,19.435,66.2,14,Waypoint,
38.5387147,-120.5236081,3748.6369214656,44.619424,0,0.8410925466,9800,2018-06-20 17:12:41,17,0,23.156,3748.6369214656,44.619424,0,0.87749674724,0,0,-0.671082,33.6, 2, 0.9,0,0,1024,1024,1024,1024,32.6,-89.9,98,3.851,3.853,3.851,3.867,3.87,3.881,19.435,66.2,14,Waypoint,
38.5387147,-120.5236083,3750.2773414656,46.259844,0,0.83915357016,10000,2018-06-20 17:12:41,17,0,23.24,3750.2773414656,46.259844,0,0.87749674724,0,0,-0.671082,33.4, 1.5, 0.8,0,0,1024,1024,1024,1024,32.6,-89.9,98,3.87,3.867,3.862,3.867,3.872,3.896,18.733,66.2,14,Waypoint,
38.5387147,-120.5236083,3751.2615934656,47.244096,0,0.83915357016,10200,2018-06-20 17:12:41,17,0,23.24,3751.2615934656,47.244096,0,0.87749674724,0,0,-0.671082,33.4, 1.5, 1,0,0,1024,1024,1024,1024,32.6,-89.9,98,3.87,3.867,3.862,3.867,3.872,3.896,18.733,66.2,14,Waypoint,
38.5387146,-120.5236084,3752.2458454656,48.228348,0,0.80317587872,10300,2018-06-20 17:12:41,17,0,23.24,3752.2458454656,48.228348,0,0.87749674724,0,0,-0.671082,33.5, 1.5, 1.1,0,0,1024,1024,1024,1024,32.6,-89.9,98,3.87,3.867,3.862,3.867,3.872,3.896,18.733,66.2,14,Waypoint,
38.5387146,-120.5236085,3753.2300974656,49.2126,0,0.80469490764,10400,2018-06-20 17:12:42,17,0,23.24,3753.2300974656,49.2126,0,0.87749674724,0,0,-0.671082,33.5, 1.5, 1,0,0,1024,1024,1024,1024,32.6,-89.9,98,3.87,3.867,3.862,3.867,3.872,3.896,18.733,66.2,14,Waypoint,
38.5387144,-120.5236086,3755.1986014656,51.181104,0,0.73470474792,10600,2018-06-20 17:12:42,17,0,23.24,3755.1986014656,51.181104,0,0.87749674724,0,0,-0.671082,33.5, 1.2, 0.8,0,0,1024,1024,1024,1024,32.6,-89.9,98,3.87,3.867,3.862,3.867,3.872,3.896,18.733,66.2,14,Waypoint,
38.5387144,-120.5236086,3756.1828534656,52.165356,0,0.73470474792,10700,2018-06-20 17:12:42,17,0,23.24,3756.1828534656,52.165356,0,0.87749674724,0,0,-0.671082,33.5, 1.1, 0.7,0,0,1024,1024,1024,1024,32.6,-89.9,98,3.87,3.867,3.862,3.867,3.872,3.896,18.733,66.2,14,Waypoint,
38.5387144,-120.5236086,3757.1671054656,53.149608,0,0.73470474792,10800,2018-06-20 17:12:42,17,0,23.24,3757.1671054656,53.149608,0,0.87749674724,0,0,-0.671082,33.4, 1.2, 0.4,0,0,1024,1024,1024,1024,32.6,-89.9,98,3.87,3.867,3.862,3.867,3.872,3.896,18.733,66.2,14,Waypoint,
38.5387144,-120.5236087,3758.1513574656,54.13386,0,0.73857285828,10900,2018-06-20 17:12:42,17,0,23.24,3758.1513574656,54.13386,0,0.87749674724,0,0,-0.671082,33.4, 1.3, 0.3,0,0,1024,1024,1024,1024,32.6,-89.9,98,3.87,3.867,3.862,3.867,3.872,3.896,18.733,66.2,14,Waypoint,
38.5387144,-120.5236087,3760.1198614656,56.102364,0,0.73857285828,11000,2018-06-20 17:12:42,17,0,23.183,3760.1198614656,56.102364,0,0.87749674724,0,0,-0.671082,33.5, 2, 0.7,0,0,1024,1024,1024,1024,32.6,-89.9,98,3.86,3.849,3.853,3.864,3.861,3.888,18.961,68,14,Waypoint,
38.5387144,-120.5236088,3762.0883654656,58.070868,0,0.743520365,11200,2018-06-20 17:12:42,17,0,23.183,3762.0883654656,58.070868,0,0.87749674724,0,0,-0.671082,33.8, 2.3, 1.4,0,0,1024,1024,1024,1024,32.6,-89.9,98,3.86,3.849,3.853,3.864,3.861,3.888,18.961,68,14,Waypoint,
38.5387144,-120.5236089,3763.0726174656,59.05512,0,0.74952102136,11300,2018-06-20 17:12:42,17,0,23.183,3763.0726174656,59.05512,0,0.87749674724,0,0,-0.671082,33.9, 2.3, 1.6,0,0,1024,1024,1024,1024,32.6,-89.9,98,3.86,3.849,3.853,3.864,3.861,3.888,18.961,68,14,Waypoint,
38.5387144,-120.523609,3764.0568694656,60.039372,0,0.75654858064,11400,2018-06-20 17:12:43,17,0,23.183,3764.0568694656,60.039372,0,0.87749674724,0,0,-0.671082,33.9, 2, 1.8,0,0,1024,1024,1024,1024,32.6,-89.9,98,3.86,3.849,3.853,3.864,3.861,3.888,18.961,68,14,Waypoint,
38.5387144,-120.5236091,3765.0411214656,61.023624,0,0.76458007696,11500,2018-06-20 17:12:43,17,0,23.183,3765.0411214656,61.023624,0,0.87749674724,0,0,-0.671082,33.8, 1.7, 1.9,0,0,1024,1024,1024,1024,32.6,-89.9,98,3.86,3.849,3.853,3.864,3.861,3.888,18.961,68,14,Waypoint,
38.5387144,-120.5236092,3766.0253734656,62.007876,0,0.77358270192,11600,2018-06-20 17:12:43,17,0,23.183,3766.0253734656,62.007876,0,0.87749674724,0,0,-0.671082,33.7, 1.6, 2.1,0,0,1024,1024,1024,1024,32.6,-89.9,98,3.86,3.849,3.853,3.864,3.861,3.888,18.961,68,14,Waypoint,
38.5387144,-120.5236092,3767.0096254656,62.992128,0,0.77358270192,11700,2018-06-20 17:12:43,17,0,23.183,3767.0096254656,62.992128,0,0.87749674724,0,0,-0.671082,33.6, 1.5, 2,0,0,1024,1024,1024,1024,32.6,-89.9,98,3.86,3.849,3.853,3.864,3.861,3.888,18.961,68,14,Waypoint,
38.5387144,-120.5236093,3767.9938774656,63.97638,0,0.78352036628,11800,2018-06-20 17:12:43,17,0,23.183,3767.9938774656,63.97638,0,0.87749674724,0,0,-0.671082,33.5, 1.5, 1.8,0,0,1024,1024,1024,1024,32.6,-89.9,98,3.86,3.849,3.853,3.864,3.861,3.888,18.961,68,14,Waypoint,
38.5387144,-120.5236093,3768.9781294656,64.960632,0,0.78352036628,11900,2018-06-20 17:12:43,17,0,23.183,3768.9781294656,64.960632,0,0.87749674724,0,0,-0.671082,33.5, 1.7, 1.9,0,0,1024,1024,1024,1024,32.6,-89.9,98,3.86,3.849,3.853,3.864,3.861,3.888,18.961,68,14,Waypoint,
38.5387144,-120.5236094,3769.9623814656,65.944884,0,0.7943569808,12010,2018-06-20 17:12:43,17,0,23.084,3769.9623814656,65.944884,0,0.87749674724,0,0,-0.671082,33.5, 1.8, 1.8,0,0,1024,1024,1024,1024,32.6,-89.9,98,3.845,3.832,3.827,3.837,3.841,3.865,19.853,68,14,Waypoint,
38.5387143,-120.5236094,3770.9466334656,66.929136,0,0.76098099548,12100,2018-06-20 17:12:43,17,0,23.084,3770.9466334656,66.929136,0,0.87749674724,0,0,-0.671082,33.5, 1.7, 1.7,0,0,1024,1024,1024,1024,32.6,-89.9,98,3.845,3.832,3.827,3.837,3.841,3.865,19.853,68,14,Waypoint,
38.5387143,-120.5236095,3771.9308854656,67.913388,0,0.77318900112,12200,2018-06-20 17:12:43,17,0,23.084,3771.9308854656,67.913388,0,0.87749674724,0,0,-0.671082,33.5, 1.6, 1.8,0,0,1024,1024,1024,1024,32.6,-89.9,98,3.845,3.832,3.827,3.837,3.841,3.865,19.853,68,14,Waypoint,
38.5387143,-120.5236095,3772.9151374656,68.89764,0,0.77318900112,12400,2018-06-20 17:12:44,17,0,23.084,3772.9151374656,68.89764,0,0.87749674724,0,0,-0.671082,33.5, 1.5, 1.8,0,0,1024,1024,1024,1024,32.6,-89.9,98,3.845,3.832,3.827,3.837,3.841,3.865,19.853,68,14,Waypoint,
38.5387142,-120.5236097,3774.8836414656,70.866144,0,0.76871393536,12500,2018-06-20 17:12:44,17,0,23.084,3774.8836414656,70.866144,0,0.87749674724,0,0,-0.671082,33.7, 1.2, 2,0,0,1024,1024,1024,1024,32.6,-90,98,3.845,3.832,3.827,3.837,3.841,3.865,19.853,68,14,Waypoint,
38.5387142,-120.5236097,3775.8678934656,71.850396,0,0.76871393536,12700,2018-06-20 17:12:44,17,0,23.084,3775.8678934656,71.850396,0,0.87749674724,0,0,-0.671082,33.8, 1.1, 2.1,0,0,1024,1024,1024,1024,32.6,-89.9,98,3.845,3.832,3.827,3.837,3.841,3.865,19.853,68,14,Waypoint,
38.5387142,-120.5236098,3776.8521454656,72.834648,0,0.7839239096,12800,2018-06-20 17:12:44,17,0,23.084,3776.8521454656,72.834648,0,0.87749674724,0,0,-0.671082,33.9, 1.1, 2.2,0,0,1024,1024,1024,1024,32.6,-89.9,98,3.845,3.832,3.827,3.837,3.841,3.865,19.853,68,14,Waypoint,
38.5387142,-120.5236098,3777.8363974656,73.8189,0,0.7839239096,12900,2018-06-20 17:12:44,17,0,23.084,3777.8363974656,73.8189,0,0.87749674724,0,0,-0.671082,33.9, 1.2, 2.1,0,0,1024,1024,1024,1024,32.6,-89.9,98,3.845,3.832,3.827,3.837,3.841,3.865,19.853,68,14,Waypoint,
38.5387141,-120.5236098,3778.8206494656,74.803152,0,0.75362207136,13000,2018-06-20 17:12:44,17,0,23.084,3778.8206494656,74.803152,0,0.87749674724,0,0,-0.671082,34, 1.4, 1.8,0,0,1024,1024,1024,1024,32.6,-89.9,98,3.845,3.832,3.827,3.837,3.841,3.865,19.853,68,14,Waypoint,
38.5387141,-120.5236098,3779.8049014656,75.787404,0,0.75362207136,13100,2018-06-20 17:12:44,17,0,23.084,3779.8049014656,75.787404,0,0.87749674724,0,0,-0.671082,33.9, 1.4, 1.8,0,0,1024,1024,1024,1024,32.6,-89.9,98,3.845,3.832,3.827,3.837,3.841,3.865,19.853,68,14,Waypoint,
38.538714,-120.5236099,3783.0857414656,79.068244,0,0.7411253518,13400,2018-06-20 17:12:45,17,0,23.084,3783.0857414656,79.068244,0,0.87749674724,0,0,-0.671082,33.4, 1.1, 2.3,0,0,1024,1024,1024,1024,32.6,-89.9,98,3.845,3.832,3.827,3.837,3.841,3.865,19.853,68,14,Waypoint,
38.538714,-120.5236099,3784.0699934656,80.052496,0,0.7411253518,13500,2018-06-20 17:12:45,17,0,23.084,3784.0699934656,80.052496,0,0.87749674724,0,0,-0.671082,33.2, 1.1, 2,0,0,1024,1024,1024,1024,32.6,-89.9,98,3.845,3.832,3.827,3.837,3.841,3.865,19.853,68,14,Waypoint,
38.5387139,-120.5236099,3786.0384974656,82.021,0,0.71274280496,13600,2018-06-20 17:12:45,17,0,23.084,3786.0384974656,82.021,0,0.87749674724,0,0,-0.671082,33.1, 1.1, 1.9,0,0,1024,1024,1024,1024,32.6,-89.9,98,3.845,3.832,3.827,3.837,3.841,3.865,19.853,68,14,Waypoint,
38.5387139,-120.5236099,3788.0070014656,83.989504,0,0.71274280496,13800,2018-06-20 17:12:45,17,0,23.084,3788.0070014656,83.989504,0,0.87749674724,0,0,-0.671082,33.2, 0.8, 1.9,0,0,1024,1024,1024,1024,32.6,-90,98,3.845,3.832,3.827,3.837,3.841,3.865,19.853,68,14,Waypoint,
38.5387138,-120.5236099,3788.9912534656,84.973756,0,0.68512469384,14000,2018-06-20 17:12:45,17,0,23.107,3788.9912534656,84.973756,0,0.87749674724,0,0,-0.671082,33.3, 0.7, 2,0,0,1024,1024,1024,1024,32.6,-90,98,3.832,3.833,3.834,3.842,3.838,3.878,18.862,68,14,Waypoint,
38.5387137,-120.5236099,3790.9597574656,86.94226,0,0.65837272448,14100,2018-06-20 17:12:45,17,0,23.107,3790.9597574656,86.94226,0,0.87749674724,0,0,-0.671082,33.4, 0.5, 2.4,0,0,1024,1024,1024,1024,32.6,-90,98,3.832,3.833,3.834,3.842,3.838,3.878,18.862,68,14,Waypoint,
38.5387137,-120.5236099,3791.9440094656,87.926512,0,0.65837272448,14200,2018-06-20 17:12:45,17,0,23.107,3791.9440094656,87.926512,0,0.87749674724,0,0,-0.671082,33.5, 0.1, 2.2,0,0,1024,1024,1024,1024,32.6,-90,98,3.832,3.833,3.834,3.842,3.838,3.878,18.862,68,14,Waypoint,
38.5387136,-120.5236099,3792.9282614656,88.910764,0,0.6325951646,14300,2018-06-20 17:12:45,17,0,23.107,3792.9282614656,88.910764,0,0.87749674724,0,0,-0.671082,33.5, 0, 1.9,0,0,1024,1024,1024,1024,32.6,-90,98,3.832,3.833,3.834,3.842,3.838,3.878,18.862,68,14,Waypoint,
38.5387136,-120.5236099,3793.9125134656,89.895016,0,0.6325951646,14400,2018-06-20 17:12:46,17,0,23.107,3793.9125134656,89.895016,0,0.87749674724,0,0,-0.671082,33.5, -0.1, 1.8,0,0,1024,1024,1024,1024,32.6,-90,98,3.832,3.833,3.834,3.842,3.838,3.878,18.862,68,14,Waypoint,
38.5387136,-120.5236099,3794.8967654656,90.879268,0,0.6325951646,14500,2018-06-20 17:12:46,17,0,23.107,3794.8967654656,90.879268,0,0.87749674724,0,0,-0.671082,33.6, -0.2, 1.7,0,0,1024,1024,1024,1024,32.6,-89.9,98,3.832,3.833,3.834,3.842,3.838,3.878,18.862,68,14,Waypoint,
38.5387136,-120.5236099,3796.2091014656,92.191604,0,0.6325951646,14600,2018-06-20 17:12:46,17,0,23.107,3796.2091014656,92.191604,0,0.87749674724,0,0,-0.671082,33.7, 0, 1.8,0,0,1024,1024,1024,1024,32.6,-89.9,98,3.832,3.833,3.834,3.842,3.838,3.878,18.862,68,14,Waypoint,
38.5387137,-120.5236099,3796.8652694656,92.847772,0,0.65837272448,14700,2018-06-20 17:12:46,17,0,23.107,3796.8652694656,92.847772,0,0.87749674724,0,0,-0.671082,33.8, 0.4, 2.3,0,0,1024,1024,1024,1024,32.6,-89.9,98,3.832,3.833,3.834,3.842,3.838,3.878,18.862,68,14,Waypoint,
38.5387139,-120.5236098,3797.8495214656,93.832024,0,0.69480317184,14800,2018-06-20 17:12:46,17,0,23.107,3797.8495214656,93.832024,0,0.87749674724,0,0,-0.671082,33.9, 1, 2.5,0,0,1024,1024,1024,1024,32.6,-89.9,98,3.832,3.833,3.834,3.842,3.838,3.878,18.862,68,14,Waypoint,
38.5387141,-120.5236096,3799.8180254656,95.800528,0.223694,0.72272968192,15000,2018-06-20 17:12:46,17,0,23.107,3799.8180254656,95.800528,0.223694,0.87749674724,0,0,-0.671082,33.9, 2.7, 2.5,0,0,1024,1024,1024,1024,32.6,-89.9,98,3.848,3.844,3.847,3.856,3.856,3.879,18.862,68,14,Waypoint,
38.5387143,-120.5236093,3801.4584454656,97.440948,0,0.74965881664,15300,2018-06-20 17:12:46,17,0,23.107,3801.4584454656,97.440948,0.223694,0.87749674724,0,0,-0.671082,33.6, 3.8, 1.9,0,0,1024,1024,1024,1024,32.6,-89.9,98,3.848,3.844,3.847,3.856,3.856,3.879,18.862,68,14,Waypoint,
38.5387144,-120.5236092,3802.1146134656,98.097116,0,0.77358270192,15400,2018-06-20 17:12:47,17,0,23.107,3802.1146134656,98.097116,0.223694,0.87749674724,0,0,-0.671082,33.4, 3.8, 1.7,0,0,1024,1024,1024,1024,32.6,-89.9,98,3.848,3.844,3.847,3.856,3.856,3.879,18.862,68,14,Waypoint,
38.5387144,-120.523609,3803.0988654656,99.081368,0,0.75654858064,15500,2018-06-20 17:12:47,17,0,23.107,3803.0988654656,99.081368,0.223694,0.87749674724,0,0,-0.671082,33.3, 3.6, 1.3,0,0,1024,1024,1024,1024,32.6,-89.9,98,3.848,3.844,3.847,3.856,3.856,3.879,18.862,68,14,Waypoint,
38.5387144,-120.5236089,3804.0831174656,100.06562,0,0.74952102136,15600,2018-06-20 17:12:47,17,0,23.107,3804.0831174656,100.06562,0.223694,0.87749674724,0,0,-0.671082,33.2, 3.5, 1,0,0,1024,1024,1024,1024,32.6,-89.9,98,3.848,3.844,3.847,3.856,3.856,3.879,18.862,68,14,Waypoint,
38.5387144,-120.5236088,3805.0673694656,101.049872,0,0.743520365,15700,2018-06-20 17:12:47,17,0,23.107,3805.0673694656,101.049872,0.223694,0.87749674724,0,0,-0.671082,33.2, 3.3, 1,0,0,1024,1024,1024,1024,32.6,-89.9,98,3.848,3.844,3.847,3.856,3.856,3.879,18.862,68,14,Waypoint,
38.5387143,-120.5236088,3805.7235374656,101.70604,0,0.70774608564,15800,2018-06-20 17:12:47,17,0,23.107,3805.7235374656,101.70604,0.223694,0.87749674724,0,0,-0.671082,33.3, 3.2, 0.9,0,0,1024,1024,1024,1024,32.6,-89.9,98,3.848,3.844,3.847,3.856,3.856,3.879,18.862,68,14,Waypoint,
38.5387143,-120.5236087,3807.6920414656,103.674544,0,0.70254923508,16000,2018-06-20 17:12:47,17,0,23.131,3807.6920414656,103.674544,0.223694,0.87749674724,0,0,-0.671082,33.3, 2.6, 0.9,0,0,1024,1024,1024,1024,32.6,-89.9,98,3.853,3.832,3.839,3.843,3.847,3.87,18.447,68,14,Waypoint,
38.5387143,-120.5236087,3808.6762934656,104.658796,0,0.70254923508,16110,2018-06-20 17:12:47,17,0,23.131,3808.6762934656,104.658796,0.223694,0.87749674724,0,0,-0.671082,33.3, 2.4, 0.9,0,0,1024,1024,1024,1024,32.6,-89.9,98,3.853,3.832,3.839,3.843,3.847,3.87,18.447,68,14,Waypoint,
38.5387143,-120.5236088,3810.9728814656,106.955384,0,0.70774608564,16200,2018-06-20 17:12:47,17,0,23.131,3810.9728814656,106.955384,0.223694,0.87749674724,0,0,-0.671082,33.4, 2.2, 1.8,0,0,1024,1024,1024,1024,32.6,-89.9,98,3.853,3.832,3.839,3.843,3.847,3.87,18.447,68,14,Waypoint,
38.5387143,-120.5236088,3811.9571334656,107.939636,0,0.70774608564,16300,2018-06-20 17:12:47,17,0,23.131,3811.9571334656,107.939636,0.223694,0.87749674724,0,0,-0.671082,33.5, 2.1, 1.9,0,0,1024,1024,1024,1024,32.6,-89.9,98,3.853,3.832,3.839,3.843,3.847,3.87,18.447,68,14,Waypoint,
38.5387142,-120.5236088,3812.9413854656,108.923888,0,0.67205054644,16400,2018-06-20 17:12:48,17,0,23.131,3812.9413854656,108.923888,0.223694,0.87749674724,0,0,-0.671082,33.6, 2, 1.5,0,0,1024,1024,1024,1024,32.6,-89.9,98,3.853,3.832,3.839,3.843,3.847,3.87,18.447,68,14,Waypoint,
38.5387142,-120.5236088,3814.9098894656,110.892392,0,0.67205054644,16600,2018-06-20 17:12:48,17,0,23.131,3814.9098894656,110.892392,0.223694,0.87749674724,0,0,-0.671082,33.7, 1.8, 1.5,0,0,1024,1024,1024,1024,32.6,-90,98,3.853,3.832,3.839,3.843,3.847,3.87,18.447,68,14,Waypoint,
38.5387142,-120.5236088,3815.8941414656,111.876644,0,0.67205054644,16700,2018-06-20 17:12:48,17,0,23.131,3815.8941414656,111.876644,0.223694,0.87749674724,0,0,-0.671082,33.7, 1.9, 1.7,0,0,1024,1024,1024,1024,32.6,-90,98,3.853,3.832,3.839,3.843,3.847,3.87,18.447,68,14,Waypoint,
38.5387142,-120.5236088,3816.8783934656,112.860896,0,0.67205054644,16800,2018-06-20 17:12:48,17,0,23.131,3816.8783934656,112.860896,0.223694,0.87749674724,0,0,-0.671082,33.7, 1.9, 1.9,0,0,1024,1024,1024,1024,32.6,-89.9,98,3.853,3.832,3.839,3.843,3.847,3.87,18.447,68,14,Waypoint,
38.5387142,-120.5236088,3817.8626454656,113.845148,0,0.67205054644,16900,2018-06-20 17:12:48,17,0,23.131,3817.8626454656,113.845148,0.223694,0.87749674724,0,0,-0.671082,33.6, 2.1, 1.9,0,0,1024,1024,1024,1024,32.6,-89.9,98,3.853,3.832,3.839,3.843,3.847,3.87,18.447,68,14,Waypoint,
38.5387143,-120.5236088,3818.8468974656,114.8294,0,0.70774608564,17000,2018-06-20 17:12:48,17,0,22.844,3818.8468974656,114.8294,0.223694,0.87749674724,0,0,-0.671082,33.5, 2.3, 1.7,0,0,1024,1024,1024,1024,32.6,-89.9,97,3.784,3.772,3.785,3.786,3.795,3.805,21.345,68,14,Waypoint,
38.5387143,-120.5236088,3819.8311494656,115.813652,0,0.70774608564,17100,2018-06-20 17:12:48,17,0,22.844,3819.8311494656,115.813652,0.223694,0.87749674724,0,0,-0.671082,33.5, 2.2, 1.7,0,0,1024,1024,1024,1024,32.6,-89.9,97,3.784,3.772,3.785,3.786,3.795,3.805,21.345,68,14,Waypoint,
38.5387143,-120.5236088,3820.8154014656,116.797904,0,0.70774608564,17200,2018-06-20 17:12:48,17,0,22.844,3820.8154014656,116.797904,0.223694,0.87749674724,0,0,-0.671082,33.5, 2.1, 1.5,0,0,1024,1024,1024,1024,32.6,-89.9,97,3.784,3.772,3.785,3.786,3.795,3.805,21.345,68,14,Waypoint,
38.5387143,-120.5236088,3822.1277374656,118.11024,0,0.70774608564,17400,2018-06-20 17:12:49,17,0,22.844,3822.1277374656,118.11024,0.223694,0.87749674724,0,0,-0.671082,33.5, 2, 1.4,0,0,1024,1024,1024,1024,32.6,-89.9,97,3.784,3.772,3.785,3.786,3.795,3.805,21.345,68,14,Waypoint,
38.5387143,-120.5236088,3824.0962414656,120.078744,0,0.70774608564,17600,2018-06-20 17:12:49,17,0,22.844,3824.0962414656,120.078744,0.223694,0.87749674724,0,0,-0.671082,33.6, 2.2, 1.6,0,0,1024,1024,1024,1024,32.6,-89.9,97,3.784,3.772,3.785,3.786,3.795,3.805,21.345,68,14,Waypoint,
38.5387143,-120.5236088,3825.0804934656,121.062996,0,0.70774608564,17700,2018-06-20 17:12:49,17,0,22.844,3825.0804934656,121.062996,0.223694,0.87749674724,0,0,-0.671082,33.7, 2.1, 1.5,0,0,1024,1024,1024,1024,32.6,-89.9,97,3.784,3.772,3.785,3.786,3.795,3.805,21.345,68,14,Waypoint,
38.5387143,-120.5236088,3826.0647454656,122.047248,0,0.70774608564,17800,2018-06-20 17:12:49,17,0,22.844,3826.0647454656,122.047248,0.223694,0.87749674724,0,0,-0.671082,33.8, 2.1, 1.4,0,0,1024,1024,1024,1024,32.6,-90,97,3.784,3.772,3.785,3.786,3.795,3.805,21.345,68,14,Waypoint,
38.5387143,-120.5236088,3827.0489974656,123.0315,0,0.70774608564,17900,2018-06-20 17:12:49,17,0,22.844,3827.0489974656,123.0315,0.223694,0.87749674724,0,0,-0.671082,33.8, 2, 1.6,0,0,1024,1024,1024,1024,32.6,-90,97,3.784,3.772,3.785,3.786,3.795,3.805,21.345,68,14,Waypoint,
38.5387143,-120.5236089,3829.0175014656,125.000004,0,0.71404857928,18100,2018-06-20 17:12:49,17,0,22.844,3829.0175014656,125.000004,0.223694,0.87749674724,0,0,-0.671082,33.7, 1.7, 2,0,0,1024,1024,1024,1024,32.6,-90,97,3.784,3.772,3.785,3.786,3.795,3.805,21.345,68,14,Waypoint,
38.5387143,-120.523609,3830.9860054656,126.968508,0,0.7214239076,18200,2018-06-20 17:12:49,17,0,22.844,3830.9860054656,126.968508,0.223694,0.87749674724,0,0,-0.671082,33.6, 1.4, 1.9,0,0,1024,1024,1024,1024,32.6,-90,97,3.784,3.772,3.785,3.786,3.795,3.805,21.345,68,14,Waypoint,
38.5387143,-120.523609,3831.9702574656,127.95276,0,0.7214239076,18300,2018-06-20 17:12:49,17,0,22.844,3831.9702574656,127.95276,0.223694,0.87749674724,0,0,-0.671082,33.5, 1.3, 1.6,0,0,1024,1024,1024,1024,32.6,-90,97,3.784,3.772,3.785,3.786,3.795,3.805,21.345,68,14,Waypoint,
38.5387143,-120.523609,3832.9545094656,128.937012,0,0.7214239076,18400,2018-06-20 17:12:50,17,0,22.844,3832.9545094656,128.937012,0.223694,0.87749674724,0,0,-0.671082,33.4, 1.5, 1.7,0,0,1024,1024,1024,1024,32.6,-90,97,3.784,3.772,3.785,3.786,3.795,3.805,21.345,68,14,Waypoint,
38.5387143,-120.523609,3834.2668454656,130.249348,0,0.7214239076,18500,2018-06-20 17:12:50,17,0,22.844,3834.2668454656,130.249348,0.223694,0.87749674724,0,0,-0.671082,33.3, 1.9, 2,0,0,1024,1024,1024,1024,32.6,-89.9,97,3.784,3.772,3.785,3.786,3.795,3.805,21.345,68,14,Waypoint,
38.5387143,-120.5236091,3835.2510974656,131.2336,0,0.72984254304,18600,2018-06-20 17:12:50,17,0,22.844,3835.2510974656,131.2336,0.223694,0.87749674724,0,0,-0.671082,33, 2, 2.2,0,0,1024,1024,1024,1024,32.6,-89.9,97,3.784,3.772,3.785,3.786,3.795,3.805,21.345,68,14,Waypoint,
38.5387143,-120.523609,3836.2353494656,132.217852,0,0.7214239076,18700,2018-06-20 17:12:50,17,0,22.844,3836.2353494656,132.217852,0.223694,0.87749674724,0,0,-0.671082,32.8, 1.9, 2.2,0,0,1024,1024,1024,1024,32.6,-90,97,3.784,3.772,3.785,3.786,3.795,3.805,21.345,68,14,Waypoint,
38.5387143,-120.523609,3837.2196014656,133.202104,0,0.7214239076,18800,2018-06-20 17:12:50,17,0,22.844,3837.2196014656,133.202104,0.223694,0.87749674724,0,0,-0.671082,32.7, 1.9, 1.9,0,0,1024,1024,1024,1024,32.6,-89.9,97,3.784,3.772,3.785,3.786,3.795,3.805,21.345,68,14,Waypoint,
38.5387142,-120.5236089,3839.1881054656,135.170608,0,0.67868440492,19000,2018-06-20 17:12:50,17,0,22.794,3839.1881054656,135.170608,0.223694,0.87749674724,0,0,-0.671082,33, 2, 1,0,0,1024,1024,1024,1024,32.6,-89.9,97,3.797,3.796,3.793,3.804,3.8,3.831,20.449,68,14,Waypoint,
38.5387142,-120.5236088,3840.1723574656,136.15486,0,0.67205054644,19100,2018-06-20 17:12:50,17,0,22.794,3840.1723574656,136.15486,0.223694,0.87749674724,0,0,-0.671082,33.2, 2.2, 0.6,0,0,1024,1024,1024,1024,32.6,-89.9,97,3.797,3.796,3.793,3.804,3.8,3.831,20.449,68,14,Waypoint,
38.5387141,-120.5236088,3841.1566094656,137.139112,0,0.63644687076,19300,2018-06-20 17:12:50,17,0,22.794,3841.1566094656,137.139112,0.223694,0.87749674724,0,0,-0.671082,33.5, 2.2, 0.4,0,0,1024,1024,1024,1024,32.6,-89.9,97,3.797,3.796,3.793,3.804,3.8,3.831,20.449,68,14,Waypoint,
38.5387141,-120.5236087,3842.1408614656,138.123364,0,0.630659469,19400,2018-06-20 17:12:51,17,0,22.794,3842.1408614656,138.123364,0.223694,0.87749674724,0,0,-0.671082,33.7, 2.1, 0.7,0,0,1024,1024,1024,1024,32.6,-89.9,97,3.797,3.796,3.793,3.804,3.8,3.831,20.449,68,14,Waypoint,
38.5387141,-120.5236088,3843.1251134656,139.107616,0,0.63644687076,19500,2018-06-20 17:12:51,17,0,22.794,3843.1251134656,139.107616,0.223694,0.87749674724,0,0,-0.671082,33.8, 2.1, 1,0,0,1024,1024,1024,1024,32.6,-90,97,3.797,3.796,3.793,3.804,3.8,3.831,20.449,68,14,Waypoint,
38.5387141,-120.5236088,3844.1093654656,140.091868,0,0.63644687076,19600,2018-06-20 17:12:51,17,0,22.794,3844.1093654656,140.091868,0.223694,0.87749674724,0,0,-0.671082,33.9, 1.9, 1.3,0,0,1024,1024,1024,1024,32.6,-89.9,97,3.797,3.796,3.793,3.804,3.8,3.831,20.449,68,14,Waypoint,
38.5387142,-120.5236089,3845.0936174656,141.07612,0,0.67868440492,19700,2018-06-20 17:12:51,17,0,22.794,3845.0936174656,141.07612,0.223694,0.87749674724,0,0,-0.671082,33.9, 2, 1.7,0,0,1024,1024,1024,1024,32.6,-89.9,97,3.797,3.796,3.793,3.804,3.8,3.831,20.449,68,14,Waypoint,
38.5387142,-120.523609,3846.0778694656,142.060372,0,0.68644031068,19800,2018-06-20 17:12:51,17,0,22.794,3846.0778694656,142.060372,0.223694,0.87749674724,0,0,-0.671082,33.8, 1.9, 2.3,0,0,1024,1024,1024,1024,32.6,-89.9,97,3.797,3.796,3.793,3.804,3.8,3.831,20.449,68,14,Waypoint,
38.5387142,-120.523609,3847.0621214656,143.044624,0,0.68644031068,19900,2018-06-20 17:12:51,17,0,22.794,3847.0621214656,143.044624,0.223694,0.87749674724,0,0,-0.671082,33.7, 1.9, 2.4,0,0,1024,1024,1024,1024,32.6,-89.9,97,3.797,3.796,3.793,3.804,3.8,3.831,20.449,68,14,Waypoint,
38.5387142,-120.5236091,3848.0463734656,144.028876,0,0.69528217448,20000,2018-06-20 17:12:51,17,0,22.77,3848.0463734656,144.028876,0.223694,0.87749674724,0,0,-0.671082,33.6, 1.9, 2.2,0,0,1024,1024,1024,1024,32.6,-90,97,3.792,3.785,3.783,3.794,3.797,3.825,20.832,68,14,Waypoint,
38.5387142,-120.5236091,3849.0306254656,145.013128,0,0.69528217448,20100,2018-06-20 17:12:51,17,0,22.77,3849.0306254656,145.013128,0.223694,0.87749674724,0,0,-0.671082,33.5, 1.8, 2.1,0,0,1024,1024,1024,1024,32.6,-89.9,97,3.792,3.785,3.783,3.794,3.797,3.825,20.832,68,14,Waypoint,
38.5387142,-120.5236091,3850.0148774656,145.99738,0,0.69528217448,20200,2018-06-20 17:12:51,17,0,22.77,3850.0148774656,145.99738,0.223694,0.87749674724,0,0,-0.671082,33.5, 1.8, 2.2,0,0,1024,1024,1024,1024,32.6,-89.9,97,3.792,3.785,3.783,3.794,3.797,3.825,20.832,68,14,Waypoint,
38.5387142,-120.523609,3852.9676334656,148.950136,0,0.68644031068,20400,2018-06-20 17:12:52,17,0,22.77,3852.9676334656,148.950136,0.223694,0.87749674724,0,0,-0.671082,33.5, 1.9, 1.6,0,0,1024,1024,1024,1024,32.6,-89.9,97,3.792,3.785,3.783,3.794,3.797,3.825,20.832,68,14,Waypoint,
38.5387142,-120.523609,3854.9361374656,150.91864,0,0.68644031068,20600,2018-06-20 17:12:52,17,0,22.77,3854.9361374656,150.91864,0.223694,0.87749674724,0,0,-0.671082,33.4, 2.3, 1.7,0,0,1024,1024,1024,1024,32.6,-89.9,97,3.792,3.785,3.783,3.794,3.797,3.825,20.832,68,14,Waypoint,
38.5387142,-120.523609,3856.2484734656,152.230976,0,0.68644031068,20700,2018-06-20 17:12:52,17,0,22.77,3856.2484734656,152.230976,0.223694,0.87749674724,0,0,-0.671082,33.4, 2.3, 1.8,0,0,1024,1024,1024,1024,32.6,-89.9,97,3.792,3.785,3.783,3.794,3.797,3.825,20.832,68,14,Waypoint,
38.5387141,-120.5236089,3856.9046414656,152.887144,0,0.64344490248,20800,2018-06-20 17:12:52,17,0,22.77,3856.9046414656,152.887144,0.223694,0.87749674724,0,0,-0.671082,33.4, 2.4, 1.7,0,0,1024,1024,1024,1024,32.6,-89.9,97,3.792,3.785,3.783,3.794,3.797,3.825,20.832,68,14,Waypoint,
38.5387141,-120.5236089,3857.8888934656,153.871396,0,0.64344490248,20900,2018-06-20 17:12:52,17,0,22.77,3857.8888934656,153.871396,0.223694,0.87749674724,0,0,-0.671082,33.4, 2.4, 1.5,0,0,1024,1024,1024,1024,32.6,-89.9,97,3.792,3.785,3.783,3.794,3.797,3.825,20.832,68,14,Waypoint,
38.5387141,-120.5236089,3858.8731454656,154.855648,0,0.64344490248,21000,2018-06-20 17:12:52,17,0,22.817,3858.8731454656,154.855648,0.223694,0.87749674724,0,0,-0.671082,33.4, 2.2, 1.7,0,0,1024,1024,1024,1024,32.6,-89.9,97,3.819,3.805,3.804,3.81,3.814,3.831,18.89,68,14,Waypoint,
38.5387141,-120.5236089,3859.8573974656,155.8399,0,0.64344490248,21100,2018-06-20 17:12:52,17,0,22.817,3859.8573974656,155.8399,0.223694,0.87749674724,0,0,-0.671082,33.5, 1.9, 2,0,0,1024,1024,1024,1024,32.6,-90,97,3.819,3.805,3.804,3.81,3.814,3.831,18.89,68,14,Waypoint,
38.538714,-120.523609,3860.8416494656,156.824152,0,0.6169947704,21200,2018-06-20 17:12:52,17,0,22.817,3860.8416494656,156.824152,0.223694,0.87749674724,0,0,-0.671082,33.5, 1.7, 2.2,0,0,1024,1024,1024,1024,32.6,-90,97,3.819,3.805,3.804,3.81,3.814,3.831,18.89,68,14,Waypoint,
38.538714,-120.523609,3862.8101534656,158.792656,0,0.6169947704,21500,2018-06-20 17:12:53,17,0,22.817,3862.8101534656,158.792656,0.223694,0.87749674724,0,0,-0.671082,33.7, 1.5, 2.3,0,0,1024,1024,1024,1024,32.6,-90,97,3.819,3.805,3.804,3.81,3.814,3.831,18.89,68,14,Waypoint,
38.5387139,-120.5236091,3864.7786574656,160.76116,0,0.59298558328,21600,2018-06-20 17:12:53,17,0,22.817,3864.7786574656,160.76116,0.223694,0.87749674724,0,0,-0.671082,33.9, 1.5, 2.2,0,0,1024,1024,1024,1024,32.6,-89.9,97,3.819,3.805,3.804,3.81,3.814,3.831,18.89,68,14,Waypoint,
38.5387139,-120.5236091,3865.7629094656,161.745412,0,0.59298558328,21700,2018-06-20 17:12:53,17,0,22.817,3865.7629094656,161.745412,0.223694,0.87749674724,0,0,-0.671082,33.9, 1.6, 2.2,0,0,1024,1024,1024,1024,32.6,-89.9,97,3.819,3.805,3.804,3.81,3.814,3.831,18.89,68,14,Waypoint,
38.5387139,-120.5236092,3866.7471614656,162.729664,0,0.60454726344,21900,2018-06-20 17:12:53,17,0,22.817,3866.7471614656,162.729664,0.223694,0.87749674724,0,0,-0.671082,33.9, 1.6, 2.2,0,0,1024,1024,1024,1024,32.6,-89.9,97,3.819,3.805,3.804,3.81,3.814,3.831,18.89,68,14,Waypoint,
38.5387139,-120.5236092,3867.7314134656,163.713916,0,0.60454726344,22000,2018-06-20 17:12:53,17,0,22.83,3867.7314134656,163.713916,0.223694,0.87749674724,0,0,-0.671082,33.9, 1.6, 2.4,0,0,1024,1024,1024,1024,32.6,-90,97,3.795,3.79,3.796,3.797,3.815,3.843,19.638,69.8,14,Waypoint,
38.5387138,-120.5236092,3868.7156654656,164.698168,0,0.57172902092,22100,2018-06-20 17:12:53,17,0,22.83,3868.7156654656,164.698168,0.223694,0.87749674724,0,0,-0.671082,33.8, 1.5, 2.4,0,0,1024,1024,1024,1024,32.6,-89.9,97,3.795,3.79,3.796,3.797,3.815,3.843,19.638,69.8,14,Waypoint,
38.5387138,-120.5236092,3869.6999174656,165.68242,0,0.57172902092,22200,2018-06-20 17:12:53,17,0,22.83,3869.6999174656,165.68242,0.223694,0.87749674724,0,0,-0.671082,33.8, 1.5, 2.3,0,0,1024,1024,1024,1024,32.6,-90,97,3.795,3.79,3.796,3.797,3.815,3.843,19.638,69.8,14,Waypoint,
38.5387138,-120.5236093,3870.6841694656,166.666672,0,0.5851050056,22300,2018-06-20 17:12:53,17,0,22.83,3870.6841694656,166.666672,0.223694,0.87749674724,0,0,-0.671082,33.7, 1.4, 2.3,0,0,1024,1024,1024,1024,32.6,-89.9,97,3.795,3.79,3.796,3.797,3.815,3.843,19.638,69.8,14,Waypoint,
38.5387138,-120.5236093,3871.6684214656,167.650924,0,0.5851050056,22400,2018-06-20 17:12:54,17,0,22.83,3871.6684214656,167.650924,0.223694,0.87749674724,0,0,-0.671082,33.6, 1.3, 2.3,0,0,1024,1024,1024,1024,32.6,-90,97,3.795,3.79,3.796,3.797,3.815,3.843,19.638,69.8,14,Waypoint,
38.5387137,-120.5236093,3872.6526734656,168.635176,0,0.55354004396,22500,2018-06-20 17:12:54,17,0,22.83,3872.6526734656,168.635176,0.223694,0.87749674724,0,0,-0.671082,33.5, 1.1, 2.2,0,0,1024,1024,1024,1024,32.6,-89.9,97,3.795,3.79,3.796,3.797,3.815,3.843,19.638,69.8,14,Waypoint,
38.5387137,-120.5236094,3874.6211774656,170.60368,0,0.56877954576,22700,2018-06-20 17:12:54,17,0,22.83,3874.6211774656,170.60368,0.223694,0.87749674724,0,0,-0.671082,33.5, 1.1, 2.5,0,0,1024,1024,1024,1024,32.6,-89.9,97,3.795,3.79,3.796,3.797,3.815,3.843,19.638,69.8,14,Waypoint,
38.5387137,-120.5236095,3875.6054294656,171.587932,0,0.58501314208,22800,2018-06-20 17:12:54,17,0,22.83,3875.6054294656,171.587932,0.223694,0.87749674724,0,0,-0.671082,33.5, 1.1, 2.6,0,0,1024,1024,1024,1024,32.6,-90,97,3.795,3.79,3.796,3.797,3.815,3.843,19.638,69.8,14,Waypoint,
38.5387136,-120.5236095,3877.5739334656,173.556436,0,0.55584319364,22900,2018-06-20 17:12:54,17,0,22.83,3877.5739334656,173.556436,0.223694,0.87749674724,0,0,-0.671082,33.6, 1.1, 2.7,0,0,1024,1024,1024,1024,32.6,-90,97,3.795,3.79,3.796,3.797,3.815,3.843,19.638,69.8,14,Waypoint,
38.5387136,-120.5236096,3878.5581854656,174.540688,0,0.5738681286,23000,2018-06-20 17:12:54,17,0,22.682,3878.5581854656,174.540688,0.223694,0.87749674724,0,0,-0.671082,33.6, 1.1, 2.6,0,0,1024,1024,1024,1024,32.6,-89.9,97,3.771,3.763,3.769,3.771,3.777,3.805,21.237,69.8,14,Waypoint,
38.5387136,-120.5236096,3879.5424374656,175.52494,0,0.5738681286,23100,2018-06-20 17:12:54,17,0,22.682,3879.5424374656,175.52494,0.223694,0.87749674724,0,0,-0.671082,33.6, 1.2, 2.6,0,0,1024,1024,1024,1024,32.6,-89.9,97,3.771,3.763,3.769,3.771,3.777,3.805,21.237,69.8,14,Waypoint,
38.5387136,-120.5236096,3880.5266894656,176.509192,0,0.5738681286,23200,2018-06-20 17:12:54,17,0,22.682,3880.5266894656,176.509192,0.223694,0.87749674724,0,0,-0.671082,33.6, 1.1, 2.6,0,0,1024,1024,1024,1024,32.6,-89.9,97,3.771,3.763,3.769,3.771,3.777,3.805,21.237,69.8,14,Waypoint,
38.5387136,-120.5236097,3881.5109414656,177.493444,0,0.5927165544,23300,2018-06-20 17:12:54,17,0,22.682,3881.5109414656,177.493444,0.223694,0.87749674724,0,0,-0.671082,33.6, 1.1, 2.6,0,0,1024,1024,1024,1024,32.6,-89.9,97,3.771,3.763,3.769,3.771,3.777,3.805,21.237,69.8,14,Waypoint,
38.5387136,-120.5236097,3882.4951934656,178.477696,0,0.5927165544,23400,2018-06-20 17:12:55,17,0,22.682,3882.4951934656,178.477696,0.223694,0.87749674724,0,0,-0.671082,33.5, 1.1, 2.6,0,0,1024,1024,1024,1024,32.6,-90,97,3.771,3.763,3.769,3.771,3.777,3.805,21.237,69.8,14,Waypoint,
38.5387136,-120.5236097,3884.4636974656,180.4462,0,0.5927165544,23600,2018-06-20 17:12:55,17,0,22.682,3884.4636974656,180.4462,0.223694,0.87749674724,0,0,-0.671082,33.5, 1.1, 2.5,0,0,1024,1024,1024,1024,32.6,-90,97,3.771,3.763,3.769,3.771,3.777,3.805,21.237,69.8,14,Waypoint,
38.5387136,-120.5236097,3885.4479494656,181.430452,0,0.5927165544,23700,2018-06-20 17:12:55,17,0,22.682,3885.4479494656,181.430452,0.223694,0.87749674724,0,0,-0.671082,33.4, 1, 2.5,0,0,1024,1024,1024,1024,32.6,-90,97,3.771,3.763,3.769,3.771,3.777,3.805,21.237,69.8,14,Waypoint,
38.5387136,-120.5236098,3886.4322014656,182.414704,0,0.61231629256,23800,2018-06-20 17:12:55,17,0,22.682,3886.4322014656,182.414704,0.223694,0.87749674724,0,0,-0.671082,33.5, 1.1, 2.7,0,0,1024,1024,1024,1024,32.6,-89.9,97,3.771,3.763,3.769,3.771,3.777,3.805,21.237,69.8,14,Waypoint,
38.5387136,-120.5236098,3887.4164534656,183.398956,0,0.61231629256,24000,2018-06-20 17:12:55,17,0,22.622,3887.4164534656,183.398956,0.223694,0.87749674724,0,0,-0.671082,33.5, 1.2, 2.8,0,0,1024,1024,1024,1024,32.6,-89.9,97,3.762,3.762,3.756,3.767,3.77,3.799,21.48,69.8,14,Waypoint,
38.5387136,-120.5236098,3888.4007054656,184.383208,0,0.61231629256,24100,2018-06-20 17:12:55,17,0,22.622,3888.4007054656,184.383208,0.223694,0.87749674724,0,0,-0.671082,33.5, 1.2, 2.9,0,0,1024,1024,1024,1024,32.6,-89.9,97,3.762,3.762,3.756,3.767,3.77,3.799,21.48,69.8,14,Waypoint,
38.5387136,-120.5236098,3889.3849574656,185.36746,0,0.61231629256,24200,2018-06-20 17:12:55,17,0,22.622,3889.3849574656,185.36746,0.223694,0.87749674724,0,0,-0.671082,33.5, 1.3, 2.8,0,0,1024,1024,1024,1024,32.6,-89.9,97,3.762,3.762,3.756,3.767,3.77,3.799,21.48,69.8,14,Waypoint,
38.5387136,-120.5236098,3891.3534614656,187.335964,0,0.61231629256,24400,2018-06-20 17:12:56,17,0,22.622,3891.3534614656,187.335964,0.223694,0.87749674724,0,0,-0.671082,33.5, 1.1, 2.7,0,0,1024,1024,1024,1024,32.6,-90,97,3.762,3.762,3.756,3.767,3.77,3.799,21.48,69.8,14,Waypoint,
38.5387136,-120.5236098,3892.3377134656,188.320216,0,0.61231629256,24500,2018-06-20 17:12:56,17,0,22.622,3892.3377134656,188.320216,0.223694,0.87749674724,0,0,-0.671082,33.5, 1.1, 2.6,0,0,1024,1024,1024,1024,32.6,-90,97,3.762,3.762,3.756,3.767,3.77,3.799,21.48,69.8,14,Waypoint,
38.5387136,-120.5236098,3893.3219654656,189.304468,0,0.61231629256,24600,2018-06-20 17:12:56,17,0,22.622,3893.3219654656,189.304468,0.223694,0.87749674724,0,0,-0.671082,33.5, 1.1, 2.7,0,0,1024,1024,1024,1024,32.6,-89.9,97,3.762,3.762,3.756,3.767,3.77,3.799,21.48,69.8,14,Waypoint,
38.5387136,-120.5236099,3894.3062174656,190.28872,0,0.6325951646,24700,2018-06-20 17:12:56,17,0,22.622,3894.3062174656,190.28872,0.223694,0.87749674724,0,0,-0.671082,33.5, 1.1, 2.8,0,0,1024,1024,1024,1024,32.6,-90,97,3.762,3.762,3.756,3.767,3.77,3.799,21.48,69.8,14,Waypoint,
38.5387136,-120.5236099,3895.2904694656,191.272972,0,0.6325951646,24800,2018-06-20 17:12:56,17,0,22.622,3895.2904694656,191.272972,0.223694,0.87749674724,0,0,-0.671082,33.5, 1, 2.7,0,0,1024,1024,1024,1024,32.6,-90,97,3.762,3.762,3.756,3.767,3.77,3.799,21.48,69.8,14,Waypoint,
38.5387136,-120.52361,3896.2747214656,192.257224,0,0.6534941154,24900,2018-06-20 17:12:56,17,0,22.622,3896.2747214656,192.257224,0.223694,0.87749674724,0,0,-0.671082,33.5, 0.7, 2.8,0,0,1024,1024,1024,1024,32.6,-90,97,3.762,3.762,3.756,3.767,3.77,3.799,21.48,69.8,14,Waypoint,
38.5387136,-120.52361,3897.2589734656,193.241476,0,0.6534941154,25000,2018-06-20 17:12:56,17,0,22.564,3897.2589734656,193.241476,0.223694,0.87749674724,0,0,-0.671082,33.5, 0.6, 2.9,0,0,1024,1024,1024,1024,32.6,-90,97,3.762,3.762,3.756,3.767,3.77,3.799,21.778,69.8,14,Waypoint,
38.5387136,-120.52361,3898.2432254656,194.225728,0,0.6534941154,25100,2018-06-20 17:12:56,17,0,22.564,3898.2432254656,194.225728,0.223694,0.87749674724,0,0,-0.671082,33.5, 0.5, 3,0,0,1024,1024,1024,1024,32.6,-90,97,3.762,3.762,3.756,3.767,3.77,3.799,21.778,69.8,14,Waypoint,
38.5387136,-120.52361,3900.2117294656,196.194232,0,0.6534941154,25200,2018-06-20 17:12:56,17,0,22.564,3900.2117294656,196.194232,0.223694,0.87749674724,0,0,-0.671082,33.5, 0.7, 2.9,0,0,1024,1024,1024,1024,32.6,-89.9,97,3.762,3.762,3.756,3.767,3.77,3.799,21.778,69.8,14,Waypoint,
38.5387136,-120.52361,3900.8678974656,196.8504,0,0.6534941154,25300,2018-06-20 17:12:56,17,0,22.564,3900.8678974656,196.8504,0.223694,0.87749674724,0,0,-0.671082,33.5, 0.9, 2.8,0,0,1024,1024,1024,1024,32.6,-89.9,97,3.762,3.762,3.756,3.767,3.77,3.799,21.778,69.8,14,Waypoint,
38.5387136,-120.5236099,3901.8521494656,197.834652,0,0.6325951646,25400,2018-06-20 17:12:57,17,0,22.564,3901.8521494656,197.834652,0.223694,0.87749674724,0,0,-0.671082,33.5, 1, 2.7,0,0,1024,1024,1024,1024,32.6,-89.9,97,3.762,3.762,3.756,3.767,3.77,3.799,21.778,69.8,14,Waypoint,
38.5387136,-120.5236099,3902.8364014656,198.818904,0,0.6325951646,25500,2018-06-20 17:12:57,17,0,22.564,3902.8364014656,198.818904,0.223694,0.87749674724,0,0,-0.671082,33.5, 1.2, 2.8,0,0,1024,1024,1024,1024,32.6,-89.9,97,3.762,3.762,3.756,3.767,3.77,3.799,21.778,69.8,14,Waypoint,
38.5387137,-120.5236099,3903.8206534656,199.803156,0,0.65837272448,25600,2018-06-20 17:12:57,17,0,22.564,3903.8206534656,199.803156,0.223694,0.87749674724,0,0,-0.671082,33.5, 1.2, 2.7,0,0,1024,1024,1024,1024,32.6,-89.9,97,3.762,3.762,3.756,3.767,3.77,3.799,21.778,69.8,14,Waypoint,
38.5387137,-120.5236099,3904.8049054656,200.787408,0,0.65837272448,25700,2018-06-20 17:12:57,17,0,22.564,3904.8049054656,200.787408,0.223694,0.87749674724,0,0,-0.671082,33.5, 1.1, 2.7,0,0,1024,1024,1024,1024,32.6,-89.9,97,3.762,3.762,3.756,3.767,3.77,3.799,21.778,69.8,14,Waypoint,
38.5387137,-120.5236098,3905.7891574656,201.77166,0,0.63891406244,25800,2018-06-20 17:12:57,17,0,22.564,3905.7891574656,201.77166,0.223694,0.87749674724,0,0,-0.671082,33.5, 1, 2.8,0,0,1024,1024,1024,1024,32.6,-89.9,97,3.762,3.762,3.756,3.767,3.77,3.799,21.778,69.8,14,Waypoint,
38.5387137,-120.5236098,3907.1014934656,203.083996,0,0.63891406244,25900,2018-06-20 17:12:57,17,0,22.564,3907.1014934656,203.083996,0.223694,0.87749674724,0,0,-0.671082,33.6, 1, 2.8,0,0,1024,1024,1024,1024,32.6,-89.9,97,3.762,3.762,3.756,3.767,3.77,3.799,21.778,69.8,14,Waypoint,
38.5387137,-120.5236098,3908.0857454656,204.068248,0,0.63891406244,26000,2018-06-20 17:12:57,17,0,22.564,3908.0857454656,204.068248,0.223694,0.87749674724,0,0,-0.671082,33.6, 1.1, 2.9,0,0,1024,1024,1024,1024,32.6,-89.9,96,3.757,3.748,3.746,3.758,3.762,3.784,21.778,69.8,14,Waypoint,
38.5387138,-120.5236099,3909.0699974656,205.0525,0,0.68512469384,26100,2018-06-20 17:12:57,17,0,22.564,3909.0699974656,205.0525,0.223694,0.87749674724,0,0,-0.671082,33.5, 1.2, 3,0,0,1024,1024,1024,1024,32.6,-89.9,96,3.757,3.748,3.746,3.758,3.762,3.784,21.778,69.8,14,Waypoint,
38.5387138,-120.5236098,3909.7261654656,205.708668,0,0.66644687172,26200,2018-06-20 17:12:57,17,0,22.564,3909.7261654656,205.708668,0.223694,0.87749674724,0,0,-0.671082,33.5, 1.2, 3,0,0,1024,1024,1024,1024,32.6,-89.9,96,3.757,3.748,3.746,3.758,3.762,3.784,21.778,69.8,14,Waypoint,
38.5387139,-120.5236098,3911.0385014656,207.021004,0,0.69480317184,26300,2018-06-20 17:12:57,17,0,22.564,3911.0385014656,207.021004,0.223694,0.87749674724,0,0,-0.671082,33.5, 1.2, 3.2,0,0,1024,1024,1024,1024,32.6,-89.9,96,3.757,3.748,3.746,3.758,3.762,3.784,21.778,69.8,14,Waypoint,
38.5387139,-120.5236098,3913.0070054656,208.989508,0,0.69480317184,26500,2018-06-20 17:12:58,17,0,22.564,3913.0070054656,208.989508,0.223694,0.87749674724,0,0,-0.671082,33.5, 1.2, 3.3,0,0,1024,1024,1024,1024,32.6,-89.9,96,3.757,3.748,3.746,3.758,3.762,3.784,21.778,69.8,14,Waypoint,
38.538714,-120.5236098,3914.6474254656,210.629928,0,0.72389109928,26700,2018-06-20 17:12:58,17,0,22.564,3914.6474254656,210.629928,0.223694,0.87749674724,0,0,-0.671082,33.6, 1.5, 3.4,0,0,1024,1024,1024,1024,32.6,-89.9,96,3.757,3.748,3.746,3.758,3.762,3.784,21.778,69.8,14,Waypoint,
38.538714,-120.5236097,3915.6316774656,211.61418,0,0.70739175492,26900,2018-06-20 17:12:58,17,0,22.564,3915.6316774656,211.61418,0.223694,0.87749674724,0,0,-0.671082,33.6, 1.6, 3.3,0,0,1024,1024,1024,1024,32.6,-89.9,96,3.757,3.748,3.746,3.758,3.762,3.784,21.778,69.8,14,Waypoint,
38.538714,-120.5236097,3916.6159294656,212.598432,0,0.70739175492,27000,2018-06-20 17:12:58,17,0,22.541,3916.6159294656,212.598432,0.223694,0.87749674724,0,0,-0.671082,33.6, 1.8, 3.1,0,0,1024,1024,1024,1024,32.6,-89.9,96,3.752,3.745,3.74,3.754,3.752,3.783,22.057,69.8,14,Waypoint,
38.538714,-120.5236096,3917.6001814656,213.582684,0,0.69167325048,27100,2018-06-20 17:12:58,17,0,22.541,3917.6001814656,213.582684,0.223694,0.87749674724,0,0,-0.671082,33.6, 1.8, 2.8,0,0,1024,1024,1024,1024,32.6,-89.9,96,3.752,3.745,3.74,3.754,3.752,3.783,22.057,69.8,14,Waypoint,
38.538714,-120.5236096,3918.5844334656,214.566936,0,0.69167325048,27200,2018-06-20 17:12:58,17,0,22.541,3918.5844334656,214.566936,0.223694,0.87749674724,0,0,-0.671082,33.6, 1.8, 2.7,0,0,1024,1024,1024,1024,32.6,-89.9,96,3.752,3.745,3.74,3.754,3.752,3.783,22.057,69.8,14,Waypoint,
38.538714,-120.5236096,3919.5686854656,215.551188,0,0.69167325048,27300,2018-06-20 17:12:58,17,0,22.541,3919.5686854656,215.551188,0.223694,0.87749674724,0,0,-0.671082,33.6, 1.7, 2.4,0,0,1024,1024,1024,1024,32.6,-89.9,96,3.752,3.745,3.74,3.754,3.752,3.783,22.057,69.8,14,Waypoint,
38.538714,-120.5236095,3920.5529374656,216.53544,0,0.67679464108,27400,2018-06-20 17:12:59,17,0,22.541,3920.5529374656,216.53544,0.223694,0.87749674724,0,0,-0.671082,33.6, 1.5, 2.6,0,0,1024,1024,1024,1024,32.6,-90,96,3.752,3.745,3.74,3.754,3.752,3.783,22.057,69.8,14,Waypoint,
38.538714,-120.5236096,3921.5371894656,217.519692,0,0.69167325048,27500,2018-06-20 17:12:59,17,0,22.541,3921.5371894656,217.519692,0.223694,0.87749674724,0,0,-0.671082,33.5, 1.2, 2.9,0,0,1024,1024,1024,1024,32.6,-90,96,3.752,3.745,3.74,3.754,3.752,3.783,22.057,69.8,14,Waypoint,
38.538714,-120.5236096,3922.5214414656,218.503944,0,0.69167325048,27600,2018-06-20 17:12:59,17,0,22.541,3922.5214414656,218.503944,0.223694,0.87749674724,0,0,-0.671082,33.5, 1, 3,0,0,1024,1024,1024,1024,32.6,-89.9,96,3.752,3.745,3.74,3.754,3.752,3.783,22.057,69.8,14,Waypoint,
38.538714,-120.5236096,3923.5056934656,219.488196,0,0.69167325048,27700,2018-06-20 17:12:59,17,0,22.541,3923.5056934656,219.488196,0.223694,0.87749674724,0,0,-0.671082,33.5, 1.2, 3.1,0,0,1024,1024,1024,1024,32.6,-89.9,96,3.752,3.745,3.74,3.754,3.752,3.783,22.057,69.8,14,Waypoint,
38.538714,-120.5236096,3924.4899454656,220.472448,0,0.69167325048,27800,2018-06-20 17:12:59,17,0,22.541,3924.4899454656,220.472448,0.223694,0.87749674724,0,0,-0.671082,33.5, 1.6, 3.3,0,0,1024,1024,1024,1024,32.6,-89.9,96,3.752,3.745,3.74,3.754,3.752,3.783,22.057,69.8,14,Waypoint,
38.538714,-120.5236096,3925.8022814656,221.784784,0,0.69167325048,27900,2018-06-20 17:12:59,17,0,22.541,3925.8022814656,221.784784,0.223694,0.87749674724,0,0,-0.671082,33.5, 1.6, 3.4,0,0,1024,1024,1024,1024,32.6,-89.9,96,3.752,3.745,3.74,3.754,3.752,3.783,22.057,69.8,14,Waypoint,
38.5387139,-120.5236096,3927.7707854656,223.753288,0,0.661171281,28000,2018-06-20 17:12:59,17,0,22.538,3927.7707854656,223.753288,0.223694,0.87749674724,0,0,-0.671082,33.5, 1.2, 3.5,0,0,1024,1024,1024,1024,32.6,-89.9,96,3.75,3.748,3.746,3.747,3.753,3.786,21.698,69.8,14,Waypoint,
38.5387139,-120.5236095,3928.7550374656,224.73754,0,0.64559057184,28200,2018-06-20 17:12:59,17,0,22.538,3928.7550374656,224.73754,0.223694,0.87749674724,0,0,-0.671082,33.5, 1.1, 3.2,0,0,1024,1024,1024,1024,32.6,-89.9,96,3.75,3.748,3.746,3.747,3.753,3.786,21.698,69.8,14,Waypoint,
38.5387138,-120.5236094,3930.7235414656,226.706044,0,0.5995407016,28300,2018-06-20 17:12:59,17,0,22.538,3930.7235414656,226.706044,0.223694,0.87749674724,0,0,-0.671082,33.5, 1.3, 2.7,0,0,1024,1024,1024,1024,32.6,-89.9,96,3.75,3.748,3.746,3.747,3.753,3.786,21.698,69.8,14,Waypoint,
38.5387138,-120.5236093,3933.6762974656,229.6588,0,0.5851050056,28600,2018-06-20 17:13:00,17,0,22.538,3933.6762974656,229.6588,0.223694,0.87749674724,0,0,-0.671082,33.7, 1.5, 2.5,0,0,1024,1024,1024,1024,32.6,-89.9,96,3.75,3.748,3.746,3.747,3.753,3.786,21.698,69.8,14,Waypoint,
