Latitude, Longitude, Altitude (m), Time, Sats, Speed (m/s), Range (m), Battery (%), Roll (deg), Pitch (deg), Yaw (deg), Images, HD Signal (%), RC Signal (%), Battery Temp (C), Battery Voltage (mV), Battery Current (mA), Battery Energy (mAh), Battery Capacity (mAh), Battery Discharges, flyState, timestamp (Unix), LastUpdate (ms), radioChannel, Rc_elevator, Rc_aileron, Rc_throttle, Rc_rudder, Rc_gyro, Dronetype, Battery_Cell1 (mV), Battery_Cell2 (mV), Battery_Cell3 (mV), Battery_Cell4 (mV), Battery_Cell5 (mV), Battery_Cell6 (mV), Video, isFlying, elapsedTime (ms), gimbalPitch (deg), gimbalRoll (deg), gimbalYaw (deg), VelocityX (m/s), VelocityY (m/s), VelocityZ (m/s), GroundSmear (cm), App Version, Aircraft Name, Aircraft Firmware, Aircraft Serial Number, Battery Serial Number, Battery Lifetime (%), App_Tip, App_Warning, CurrentFlightStartingIndex, CurrentFlightLastVisitedWaypoint, PreviousFlightEndingWaypointIndex
38.5386927, -120.5235910, 0.000, 11:08:51.326, 11, 0.00, 0.02, 100, -0.500, 1.200, 30.100, 1173, 100, 100, 20, 25365, -3816, 5339, 5339, 19, 11, 1529518131.327, 87, 0, 1024, 1024, 1024, 1024, 0, 6, 4268, 4264, 4271, 4274, 4280, 4267, 0, 1, 3200, -89.900, 0.000, 30.400, 0.000, 0.000, -0.100, 0.0, MapPilot_2.8.1_04242018, Dendroctonus I, 1.3.1.00, 041DDC1887, 1058163200627, 96, DJI_0171.jpg, Starting Mission from Lat/Long: 38.53869/-120.52359 Camera: Zenmuse X3 - Overlap: 90/90 - Active Connection: No, 41, 41, 41
38.5386927, -120.5235912, 0.000, 11:08:51.427, 11, 0.10, 0.04, 100, 0.000, 0.700, 30.100, 1173, 100, 100, 20, 25365, -3816, 5339, 5339, 19, 11, 1529518131.427, 87, 0, 1024, 1024, 1024, 1024, 0, 6, 4268, 4264, 4271, 4274, 4280, 4267, 0, 1, 3301, -89.900, 0.000, 30.400, 0.000, -0.100, -0.300, 0.0, , , , , , 96, , , 41, 41, 41
38.5386927, -120.5235912, 0.000, 11:08:51.527, 11, 0.10, 0.04, 100, 0.000, 0.700, 30.100, 1173, 100, 100, 20, 25365, -3816, 5339, 5339, 19, 11, 1529518131.527, 187, 0, 1024, 1024, 1024, 1024, 0, 6, 4268, 4264, 4271, 4274, 4280, 4267, 0, 1, 3401, -89.900, 0.000, 30.400, 0.000, -0.100, -0.300, 0.0, , , , , , 96, , , 41, 41, 41
38.5386928, -120.5235916, 0.100, 11:08:51.627, 11, 0.10, 0.07, 100, 0.800, 0.000, 30.000, 1173, 100, 100, 20, 25365, -3816, 5339, 5339, 19, 11, 1529518131.627, 84, 0, 1024, 1024, 1024, 1024, 0, 6, 4268, 4264, 4271, 4274, 4280, 4267, 0, 1, 3501, -90.000, 0.000, 30.400, 0.000, -0.100, -0.400, 0.0, , , , , , 96, , , 41, 41, 41
38.5386928, -120.5235918, 0.100, 11:08:51.727, 11, 0.10, 0.09, 100, 1.000, -0.100, 30.000, 1173, 100, 100, 20, 25365, -3816, 5339, 5339, 19, 11, 1529518131.727, 75, 0, 1024, 1024, 1024, 1024, 0, 6, 4268, 4264, 4271, 4274, 4280, 4267, 0, 1, 3601, -89.900, 0.000, 30.400, 0.000, -0.100, -0.400, 0.0, , , , , , 96, , , 41, 41, 41
38.5386929, -120.5235919, 0.100, 11:08:51.827, 11, 0.10, 0.11, 100, 1.200, -0.100, 30.000, 1173, 100, 100, 20, 25365, -3816, 5339, 5339, 19, 11, 1529518131.827, 66, 0, 1024, 1024, 1024, 1024, 0, 6, 4268, 4264, 4271, 4274, 4280, 4267, 0, 1, 3701, -90.000, 0.000, 30.400, 0.000, -0.100, -0.400, 0.0, , , , , , 96, , , 41, 41, 41
38.5386929, -120.5235920, 0.200, 11:08:51.927, 11, 0.10, 0.12, 100, 1.100, -0.100, 30.000, 1173, 100, 100, 20, 25365, -3816, 5339, 5339, 19, 11, 1529518131.927, 71, 0, 1024, 1024, 1024, 1024, 0, 6, 4268, 4264, 4271, 4274, 4280, 4267, 0, 1, 3801, -89.900, 0.000, 30.400, 0.000, -0.100, -0.400, 0.0, , , , , , 96, , , 41, 41, 41
38.5386930, -120.5235921, 0.200, 11:08:52.027, 12, 0.10, 0.13, 100, 1.000, 0.000, 30.000, 1173, 100, 100, 20, 25365, -3816, 5339, 5339, 19, 11, 1529518132.028, 63, 0, 1024, 1024, 1024, 1024, 0, 6, 4268, 4264, 4271, 4274, 4280, 4267, 0, 1, 3901, -89.900, 0.000, 30.400, 0.000, -0.100, -0.400, 0.0, , , , , , 96, , , 41, 41, 41
38.5386931, -120.5235922, 0.300, 11:08:52.127, 12, 0.10, 0.14, 100, 1.200, 0.100, 30.000, 1173, 100, 100, 20, 24563, -8747, 5339, 5339, 19, 11, 1529518132.127, 66, 0, 1024, 1024, 1024, 1024, 0, 6, 4019, 4007, 4045, 4023, 4057, 3967, 0, 1, 4001, -89.900, 0.000, 30.400, 0.100, 0.000, -0.300, 0.0, , , , , , 96, , , 41, 41, 41
38.5386932, -120.5235923, 0.300, 11:08:52.227, 12, 0.10, 0.15, 100, 1.600, 0.500, 30.000, 1173, 100, 100, 20, 24563, -8747, 5339, 5339, 19, 11, 1529518132.227, 70, 0, 1024, 1024, 1024, 1024, 0, 6, 4019, 4007, 4045, 4023, 4057, 3967, 0, 1, 4101, -89.900, 0.000, 30.400, 0.100, 0.000, -0.400, 0.0, , , , , , 96, , , 41, 41, 41
38.5386934, -120.5235925, 0.400, 11:08:52.327, 12, 0.10, 0.17, 100, 1.900, 0.700, 30.000, 1173, 100, 100, 20, 24563, -8747, 5339, 5339, 19, 11, 1529518132.328, 42, 0, 1024, 1024, 1024, 1024, 0, 6, 4019, 4007, 4045, 4023, 4057, 3967, 0, 1, 4201, -89.900, 0.000, 30.400, 0.100, 0.000, -0.400, 0.0, , , , , , 96, , , 41, 41, 41
38.5386935, -120.5235925, 0.400, 11:08:52.427, 11, 0.10, 0.18, 100, 2.000, 0.700, 30.000, 1173, 100, 100, 20, 24563, -8747, 5339, 5339, 19, 11, 1529518132.427, 48, 0, 1024, 1024, 1024, 1024, 0, 6, 4019, 4007, 4045, 4023, 4057, 3967, 0, 1, 4301, -89.900, 0.000, 30.400, 0.100, 0.000, -0.400, 0.0, , , , , , 96, , , 41, 41, 41
38.5386936, -120.5235925, 0.500, 11:08:52.527, 11, 0.10, 0.18, 100, 2.100, 0.800, 30.200, 1173, 100, 100, 20, 24563, -8747, 5339, 5339, 19, 11, 1529518132.527, 64, 0, 1024, 1024, 1024, 1024, 0, 6, 4019, 4007, 4045, 4023, 4057, 3967, 0, 1, 4401, -89.900, 0.000, 30.400, 0.100, 0.000, -0.400, 0.0, , , , , , 96, , , 41, 41, 41
38.5386936, -120.5235925, 0.500, 11:08:52.626, 11, 0.00, 0.19, 100, 2.100, 0.900, 30.300, 1173, 100, 100, 20, 24563, -8747, 5339, 5339, 19, 11, 1529518132.626, 55, 0, 1024, 1024, 1024, 1024, 0, 6, 4019, 4007, 4045, 4023, 4057, 3967, 0, 1, 4500, -89.900, 0.000, 30.400, 0.000, 0.000, -0.500, 0.0, , , , , , 96, , , 41, 41, 41
38.5386937, -120.5235925, 0.600, 11:08:52.727, 11, 0.00, 0.19, 100, 2.100, 0.800, 30.500, 1173, 100, 100, 20, 24563, -8747, 5339, 5339, 19, 11, 1529518132.727, 47, 0, 1024, 1024, 1024, 1024, 0, 6, 4019, 4007, 4045, 4023, 4057, 3967, 0, 1, 4601, -89.900, 0.000, 30.400, 0.000, 0.000, -0.500, 0.0, , , , , , 96, , , 41, 41, 41
38.5386937, -120.5235925, 0.600, 11:08:52.827, 11, 0.00, 0.19, 100, 2.100, 0.900, 30.600, 1173, 100, 100, 20, 24563, -8747, 5339, 5339, 19, 11, 1529518132.827, 47, 0, 1024, 1024, 1024, 1024, 0, 6, 4019, 4007, 4045, 4023, 4057, 3967, 0, 1, 4701, -89.900, 0.000, 30.400, 0.000, 0.000, -0.500, 0.0, , , , , , 96, , , 41, 41, 41
38.5386938, -120.5235925, 0.700, 11:08:52.927, 11, 0.00, 0.20, 100, 2.000, 1.000, 30.700, 1173, 100, 100, 20, 24563, -8747, 5339, 5339, 19, 11, 1529518132.927, 13, 0, 1024, 1024, 1024, 1024, 0, 6, 4019, 4007, 4045, 4023, 4057, 3967, 0, 1, 4801, -89.900, 0.000, 30.400, 0.000, 0.000, -0.500, 0.0, , , , , , 96, , , 41, 41, 41
38.5386938, -120.5235926, 0.800, 11:08:53.027, 10, 0.00, 0.20, 100, 1.900, 1.100, 30.700, 1173, 100, 100, 20, 24563, -8747, 5339, 5339, 19, 11, 1529518133.027, 17, 0, 1024, 1024, 1024, 1024, 0, 6, 4019, 4007, 4045, 4023, 4057, 3967, 0, 1, 4901, -89.900, 0.000, 30.400, 0.000, 0.000, -0.500, 0.0, , , , , , 96, , , 41, 41, 41
38.5386939, -120.5235926, 0.800, 11:08:53.126, 10, 0.00, 0.21, 100, 2.000, 1.200, 30.700, 1173, 100, 100, 20, 23559, -16766, 5339, 5339, 19, 11, 1529518133.126, 9, 0, 1024, 1024, 1024, 1024, 0, 6, 3914, 3912, 3932, 3930, 3947, 3905, 0, 1, 5000, -89.900, 0.000, 30.400, 0.000, 0.000, -0.500, 0.0, , , , , , 96, , , 41, 41, 41
38.5386939, -120.5235927, 0.900, 11:08:53.227, 10, 0.00, 0.22, 100, 2.000, 1.200, 30.600, 1173, 100, 100, 20, 23559, -16766, 5339, 5339, 19, 6, 1529518133.227, 10, 0, 1024, 1024, 1024, 1024, 0, 6, 3914, 3912, 3932, 3930, 3947, 3905, 0, 1, 5101, -89.900, 0.000, 30.400, 0.000, 0.000, -0.500, 0.0, , , , , , 96, , , 41, 41, 41
38.5386940, -120.5235927, 0.900, 11:08:53.327, 10, 0.00, 0.22, 100, 2.200, 1.300, 30.400, 1173, 100, 100, 20, 23559, -16766, 5339, 5339, 19, 14, 1529518133.327, 18, 0, 1024, 1024, 1024, 1024, 0, 6, 3914, 3912, 3932, 3930, 3947, 3905, 0, 1, 5201, -89.900, 0.000, 30.400, 0.000, 0.000, -0.400, 0.0, , , , , , 96, , , 41, 41, 41
38.5386940, -120.5235927, 1.000, 11:08:53.427, 11, 0.00, 0.22, 100, 1.200, 1.200, 30.300, 1173, 100, 100, 20, 23559, -16766, 5339, 5339, 19, 14, 1529518133.427, 9, 0, 1024, 1024, 1024, 1024, 0, 6, 3914, 3912, 3932, 3930, 3947, 3905, 0, 1, 5301, -89.900, 0.000, 30.400, 0.000, 0.000, -0.300, 0.0, , , , , , 96, , , 41, 41, 41
38.5386940, -120.5235927, 1.100, 11:08:53.527, 13, 0.00, 0.23, 100, 0.400, 0.800, 30.100, 1173, 100, 100, 20, 23559, -16766, 5339, 5339, 19, 14, 1529518133.527, 11, 0, 1024, 1024, 1024, 1024, 0, 6, 3914, 3912, 3932, 3930, 3947, 3905, 0, 1, 5401, -89.900, 0.000, 30.400, 0.000, 0.000, -0.200, 0.0, , , , , , 96, , , 41, 41, 41
38.5386940, -120.5235927, 1.100, 11:08:53.627, 13, 0.00, 0.23, 100, 0.400, 0.800, 30.100, 1173, 100, 100, 20, 23559, -16766, 5339, 5339, 19, 14, 1529518133.627, 111, 0, 1024, 1024, 1024, 1024, 0, 6, 3914, 3912, 3932, 3930, 3947, 3905, 0, 1, 5501, -89.900, 0.000, 30.400, 0.000, 0.000, -0.200, 0.0, , , , , , 96, , , 41, 41, 41
38.5386941, -120.5235928, 1.100, 11:08:53.727, 11, 0.00, 0.24, 100, 0.900, 0.700, 30.200, 1173, 100, 100, 20, 23559, -16766, 5339, 5339, 19, 14, 1529518133.727, 1, 0, 1024, 1024, 1024, 1024, 0, 6, 3914, 3912, 3932, 3930, 3947, 3905, 0, 1, 5601, -89.900, 0.000, 30.400, 0.000, 0.000, -0.400, 0.0, , , , , , 96, , , 41, 41, 41
38.5386941, -120.5235928, 1.100, 11:08:53.827, 11, 0.00, 0.24, 100, 0.900, 0.700, 30.200, 1173, 100, 100, 20, 23559, -16766, 5339, 5339, 19, 14, 1529518133.827, 102, 0, 1024, 1024, 1024, 1024, 0, 6, 3914, 3912, 3932, 3930, 3947, 3905, 0, 1, 5701, -89.900, 0.000, 30.400, 0.000, 0.000, -0.400, 0.0, , , , , , 96, , , 41, 41, 41
38.5386941, -120.5235929, 1.200, 11:08:53.927, 11, 0.00, 0.25, 100, 1.200, 0.600, 30.400, 1173, 100, 100, 20, 23559, -16766, 5339, 5339, 19, 14, 1529518133.927, 94, 0, 1024, 1024, 1024, 1024, 0, 6, 3914, 3912, 3932, 3930, 3947, 3905, 0, 1, 5801, -89.900, 0.000, 30.400, 0.000, 0.000, -0.600, 0.0, , , , , , 96, , , 41, 41, 41
38.5386942, -120.5235930, 1.300, 11:08:54.027, 11, 0.00, 0.27, 100, 1.500, 0.600, 30.500, 1173, 100, 100, 20, 23559, -16766, 5339, 5339, 19, 14, 1529518134.027, 82, 0, 1024, 1024, 1024, 1024, 0, 6, 3914, 3912, 3932, 3930, 3947, 3905, 0, 1, 5901, -89.900, 0.000, 30.400, 0.000, 0.000, -0.800, 0.0, , , , , , 96, , , 41, 41, 41
38.5386943, -120.5235931, 1.400, 11:08:54.127, 11, 0.00, 0.28, 100, 1.800, 0.600, 30.600, 1173, 100, 100, 20, 23440, -16989, 5232, 5339, 19, 14, 1529518134.127, 86, 0, 1024, 1024, 1024, 1024, 0, 6, 3892, 3891, 3913, 3912, 3927, 3902, 0, 1, 6001, -89.900, 0.000, 30.400, 0.000, 0.000, -1.100, 0.0, , , , , , 96, , , 41, 41, 41
38.5386944, -120.5235932, 1.500, 11:08:54.227, 12, 0.00, 0.29, 100, 1.900, 0.600, 30.600, 1173, 100, 100, 20, 23440, -16989, 5232, 5339, 19, 14, 1529518134.227, 66, 0, 1024, 1024, 1024, 1024, 0, 6, 3892, 3891, 3913, 3912, 3927, 3902, 0, 1, 6101, -89.900, 0.000, 30.400, 0.000, 0.000, -1.200, 0.0, , , , , , 96, , , 41, 41, 41
38.5386944, -120.5235932, 1.700, 11:08:54.327, 12, 0.00, 0.29, 100, 1.800, 0.700, 30.600, 1173, 100, 100, 20, 23440, -16989, 5232, 5339, 19, 14, 1529518134.327, 71, 0, 1024, 1024, 1024, 1024, 0, 6, 3892, 3891, 3913, 3912, 3927, 3902, 0, 1, 6201, -89.900, 0.000, 30.400, 0.000, 0.000, -1.500, 0.0, , , , , , 96, , , 41, 41, 41
38.5386945, -120.5235932, 1.800, 11:08:54.427, 12, 0.00, 0.30, 100, 1.600, 0.800, 30.500, 1173, 100, 100, 20, 23440, -16989, 5232, 5339, 19, 14, 1529518134.427, 71, 0, 1024, 1024, 1024, 1024, 0, 6, 3892, 3891, 3913, 3912, 3927, 3902, 0, 1, 6301, -89.900, 0.000, 30.400, 0.000, 0.000, -1.600, 0.0, , , , , , 96, , , 41, 41, 41
38.5386946, -120.5235933, 2.000, 11:08:54.527, 12, 0.00, 0.31, 100, 1.600, 0.900, 30.300, 1173, 100, 100, 20, 23440, -16989, 5232, 5339, 19, 14, 1529518134.527, 47, 0, 1024, 1024, 1024, 1024, 0, 6, 3892, 3891, 3913, 3912, 3927, 3902, 0, 1, 6401, -89.900, 0.000, 30.400, 0.000, 0.000, -1.800, 0.0, , , , , , 96, , , 41, 41, 41
38.5386946, -120.5235933, 2.200, 11:08:54.627, 12, 0.00, 0.31, 100, 1.700, 0.900, 30.200, 1173, 100, 100, 20, 23440, -16989, 5232, 5339, 19, 14, 1529518134.627, 42, 0, 1024, 1024, 1024, 1024, 0, 6, 3892, 3891, 3913, 3912, 3927, 3902, 0, 1, 6501, -89.900, 0.000, 30.400, 0.000, 0.000, -2.100, 0.0, , , , , , 96, , , 41, 41, 41
38.5386947, -120.5235933, 2.400, 11:08:54.727, 12, 0.00, 0.31, 100, 1.700, 1.000, 30.100, 1173, 100, 100, 20, 23440, -16989, 5232, 5339, 19, 14, 1529518134.727, 56, 0, 1024, 1024, 1024, 1024, 0, 6, 3892, 3891, 3913, 3912, 3927, 3902, 0, 1, 6601, -89.900, 0.000, 30.400, 0.000, 0.000, -2.300, 0.0, , , , , , 96, , , 41, 41, 41
38.5386947, -120.5235932, 2.700, 11:08:54.827, 11, 0.00, 0.31, 100, 1.600, 1.100, 30.000, 1173, 100, 100, 20, 23440, -16989, 5232, 5339, 19, 14, 1529518134.827, 49, 0, 1024, 1024, 1024, 1024, 0, 6, 3892, 3891, 3913, 3912, 3927, 3902, 0, 1, 6701, -89.900, 0.000, 30.400, 0.000, 0.000, -2.400, 0.0, , , , , , 96, , , 41, 41, 41
38.5386948, -120.5235931, 2.900, 11:08:54.927, 11, 0.00, 0.31, 100, 1.300, 1.100, 30.000, 1173, 100, 100, 20, 23440, -16989, 5232, 5339, 19, 14, 1529518134.927, 39, 0, 1024, 1024, 1024, 1024, 0, 6, 3892, 3891, 3913, 3912, 3927, 3902, 0, 1, 6801, -89.900, 0.000, 30.400, 0.000, 0.000, -2.700, 0.0, , , , , , 96, , , 41, 41, 41
38.5386948, -120.5235930, 3.200, 11:08:55.027, 13, 0.00, 0.31, 100, 1.100, 1.100, 30.000, 1173, 100, 100, 20, 23440, -16989, 5232, 5339, 19, 14, 1529518135.027, 42, 0, 1024, 1024, 1024, 1024, 0, 6, 3892, 3891, 3913, 3912, 3927, 3902, 0, 1, 6901, -89.900, 0.000, 30.400, 0.000, 0.000, -2.800, 0.0, , , , , , 96, , , 41, 41, 41
38.5386948, -120.5235930, 3.500, 11:08:55.127, 13, 0.00, 0.31, 98, 1.000, 1.200, 30.100, 1173, 100, 100, 20, 23035, -17901, 5232, 5339, 19, 14, 1529518135.127, 47, 0, 1024, 1024, 1024, 1024, 0, 6, 3812, 3816, 3848, 3848, 3832, 3830, 0, 1, 7001, -89.900, 0.000, 30.400, 0.000, 0.000, -3.000, 0.0, , , , , , 96, , , 41, 41, 41
38.5386947, -120.5235929, 3.900, 11:08:55.227, 11, 0.00, 0.30, 98, 0.900, 1.200, 30.100, 1173, 100, 100, 20, 23035, -17901, 5232, 5339, 19, 14, 1529518135.227, 28, 0, 1024, 1024, 1024, 1024, 0, 6, 3812, 3816, 3848, 3848, 3832, 3830, 0, 1, 7101, -89.900, 0.000, 30.400, 0.000, 0.000, -3.100, 0.0, , , , , , 96, , , 41, 41, 41
38.5386946, -120.5235928, 4.200, 11:08:55.327, 11, 0.00, 0.28, 98, 0.700, 1.100, 30.100, 1173, 100, 100, 20, 23035, -17901, 5232, 5339, 19, 14, 1529518135.327, 16, 0, 1024, 1024, 1024, 1024, 0, 6, 3812, 3816, 3848, 3848, 3832, 3830, 0, 1, 7201, -90.000, 0.000, 30.400, 0.000, 0.000, -3.200, 0.0, , , , , , 96, , , 41, 41, 41
38.5386945, -120.5235927, 4.500, 11:08:55.427, 10, 0.00, 0.26, 98, 0.600, 0.700, 30.100, 1173, 100, 100, 20, 23035, -17901, 5232, 5339, 19, 14, 1529518135.428, 9, 0, 1024, 1024, 1024, 1024, 0, 6, 3812, 3816, 3848, 3848, 3832, 3830, 0, 1, 7302, -90.000, 0.000, 30.400, 0.000, 0.000, -3.300, 0.0, , , , , , 96, , , 41, 41, 41
38.5386944, -120.5235925, 4.900, 11:08:55.527, 10, 0.00, 0.24, 98, 0.300, 0.500, 30.200, 1173, 100, 100, 20, 23035, -17901, 5232, 5339, 19, 14, 1529518135.527, 12, 0, 1024, 1024, 1024, 1024, 0, 6, 3812, 3816, 3848, 3848, 3832, 3830, 0, 1, 7401, -90.000, 0.000, 30.400, 0.000, 0.000, -3.300, 0.0, , , , , , 96, , , 41, 41, 41
38.5386944, -120.5235924, 5.200, 11:08:55.627, 12, 0.00, 0.24, 98, 0.000, 0.400, 30.200, 1173, 100, 100, 20, 23035, -17901, 5232, 5339, 19, 14, 1529518135.627, 16, 0, 1024, 1024, 1024, 1024, 0, 6, 3812, 3816, 3848, 3848, 3832, 3830, 0, 1, 7501, -89.900, 0.000, 30.400, 0.000, 0.000, -3.300, 0.0, , , , , , 96, , , 41, 41, 41
38.5386946, -120.5235925, 5.900, 11:08:55.731, 12, 0.00, 0.27, 98, 0.600, 0.600, 30.400, 1173, 100, 100, 20, 23035, -17901, 5232, 5339, 19, 14, 1529518135.731, 1, 0, 1024, 1024, 1024, 1024, 0, 6, 3812, 3816, 3848, 3848, 3832, 3830, 0, 1, 7605, -89.900, 0.000, 30.400, 0.000, 0.000, -3.200, 0.0, , , , , , 96, , , 41, 41, 41
38.5386946, -120.5235925, 5.900, 11:08:55.826, 12, 0.00, 0.27, 98, 0.600, 0.600, 30.400, 1173, 100, 100, 20, 23035, -17901, 5232, 5339, 19, 14, 1529518135.826, 96, 0, 1024, 1024, 1024, 1024, 0, 6, 3812, 3816, 3848, 3848, 3832, 3830, 0, 1, 7700, -89.900, 0.000, 30.400, 0.000, 0.000, -3.200, 0.0, , , , , , 96, , , 41, 41, 41
38.5386947, -120.5235926, 6.300, 11:08:55.927, 12, 0.00, 0.28, 98, 1.100, 0.900, 30.500, 1173, 100, 100, 20, 23035, -17901, 5232, 5339, 19, 14, 1529518135.927, 6, 0, 1024, 1024, 1024, 1024, 0, 6, 3812, 3816, 3848, 3848, 3832, 3830, 0, 1, 7801, -89.900, 0.000, 30.400, 0.000, 0.000, -3.200, 0.0, , , , , , 96, , , 41, 41, 41
38.5386947, -120.5235926, 6.300, 11:08:56.027, 12, 0.00, 0.28, 98, 1.100, 0.900, 30.500, 1173, 100, 100, 20, 23035, -17901, 5232, 5339, 19, 14, 1529518136.027, 106, 0, 1024, 1024, 1024, 1024, 0, 6, 3812, 3816, 3848, 3848, 3832, 3830, 0, 1, 7901, -89.900, 0.000, 30.400, 0.000, 0.000, -3.200, 0.0, , , , , , 96, , , 41, 41, 41
38.5386947, -120.5235926, 6.600, 11:08:56.127, 13, 0.00, 0.28, 98, 1.400, 1.000, 30.500, 1173, 100, 100, 20, 23035, -17901, 5232, 5339, 19, 14, 1529518136.127, 64, 0, 1024, 1024, 1024, 1024, 0, 6, 3812, 3816, 3848, 3848, 3832, 3830, 0, 1, 8001, -89.900, 0.000, 30.400, 0.000, 0.000, -3.200, 0.0, , , , , , 96, , , 41, 41, 41
38.5386949, -120.5235927, 7.300, 11:08:56.227, 16, 0.00, 0.30, 98, 1.400, 1.200, 30.300, 1173, 100, 100, 20, 22590, -24554, 5232, 5339, 19, 14, 1529518136.227, 68, 0, 1024, 1024, 1024, 1024, 0, 6, 3812, 3816, 3848, 3848, 3832, 3830, 0, 1, 8101, -89.900, 0.000, 30.400, 0.000, 0.000, -3.100, 0.0, , , , , , 96, , , 41, 41, 41
38.5386949, -120.5235928, 7.600, 11:08:56.327, 16, 0.00, 0.32, 98, 1.400, 1.100, 30.300, 1173, 100, 100, 20, 22590, -24554, 5232, 5339, 19, 14, 1529518136.327, 84, 0, 1024, 1024, 1024, 1024, 0, 6, 3812, 3816, 3848, 3848, 3832, 3830, 0, 1, 8201, -89.900, 0.000, 30.400, 0.000, 0.000, -3.100, 0.0, , , , , , 96, , , 41, 41, 41
38.5386950, -120.5235930, 8.000, 11:08:56.427, 14, 0.00, 0.33, 98, 1.600, 0.700, 30.200, 1173, 100, 100, 20, 22590, -24554, 5232, 5339, 19, 14, 1529518136.427, 77, 0, 1024, 1024, 1024, 1024, 0, 6, 3812, 3816, 3848, 3848, 3832, 3830, 0, 1, 8300, -90.000, 0.000, 30.400, 0.000, 0.000, -3.100, 0.0, , , , , , 96, , , 41, 41, 41
38.5386951, -120.5235931, 8.300, 11:08:56.527, 14, 0.00, 0.34, 98, 1.800, 0.400, 30.200, 1173, 100, 100, 20, 22590, -24554, 5232, 5339, 19, 14, 1529518136.527, 79, 0, 1024, 1024, 1024, 1024, 0, 6, 3812, 3816, 3848, 3848, 3832, 3830, 0, 1, 8400, -90.000, 0.000, 30.400, 0.000, 0.000, -3.000, 0.0, , , , , , 96, , , 41, 41, 41
38.5386952, -120.5235931, 8.600, 11:08:56.626, 15, 0.00, 0.35, 98, 1.900, 0.600, 30.200, 1173, 100, 100, 20, 22590, -24554, 5232, 5339, 19, 14, 1529518136.627, 73, 0, 1024, 1024, 1024, 1024, 0, 6, 3778, 3773, 3784, 3779, 3805, 3754, 0, 1, 8500, -89.900, 0.000, 30.400, 0.000, 0.000, -3.000, 0.0, , , , , , 96, , , 41, 41, 41
38.5386952, -120.5235931, 8.900, 11:08:56.727, 15, 0.00, 0.35, 98, 1.700, 0.900, 30.200, 1173, 100, 100, 20, 22590, -24554, 5232, 5339, 19, 14, 1529518136.727, 77, 0, 1024, 1024, 1024, 1024, 0, 6, 3778, 3773, 3784, 3779, 3805, 3754, 0, 1, 8601, -89.900, 0.000, 30.400, 0.000, 0.000, -3.000, 0.0, , , , , , 96, , , 41, 41, 41
38.5386952, -120.5235931, 9.200, 11:08:56.827, 15, 0.00, 0.35, 98, 1.400, 1.100, 30.100, 1173, 100, 100, 20, 22590, -24554, 5232, 5339, 19, 14, 1529518136.827, 71, 0, 1024, 1024, 1024, 1024, 0, 6, 3778, 3773, 3784, 3779, 3805, 3754, 0, 1, 8701, -89.900, 0.000, 30.400, 0.000, 0.000, -3.000, 0.0, , , , , , 96, , , 41, 41, 41
38.5386953, -120.5235931, 9.500, 11:08:56.926, 15, 0.00, 0.36, 98, 1.200, 1.100, 30.100, 1173, 100, 100, 20, 22590, -24554, 5232, 5339, 19, 14, 1529518136.927, 38, 0, 1024, 1024, 1024, 1024, 0, 6, 3778, 3773, 3784, 3779, 3805, 3754, 0, 1, 8800, -89.900, 0.000, 30.400, 0.000, 0.000, -3.000, 0.0, , , , , , 96, , , 41, 41, 41
38.5386953, -120.5235932, 9.800, 11:08:57.026, 14, 0.00, 0.36, 98, 1.200, 1.200, 30.100, 1173, 100, 100, 20, 22590, -24554, 5232, 5339, 19, 14, 1529518137.027, 39, 0, 1024, 1024, 1024, 1024, 0, 6, 3778, 3773, 3784, 3779, 3805, 3754, 0, 1, 8900, -89.900, 0.000, 30.400, 0.000, 0.000, -3.000, 0.0, , , , , , 96, , , 41, 41, 41
38.5386952, -120.5235932, 10.200, 11:08:57.126, 14, 0.00, 0.36, 98, 1.200, 1.000, 30.000, 1173, 100, 100, 20, 22590, -24554, 5232, 5339, 19, 14, 1529518137.127, 39, 0, 1024, 1024, 1024, 1024, 0, 6, 3778, 3773, 3784, 3779, 3805, 3754, 0, 1, 9000, -89.900, 0.000, 30.400, 0.000, 0.000, -3.000, 0.0, , , , , , 96, , , 41, 41, 41
38.5386952, -120.5235932, 10.500, 11:08:57.226, 15, 0.00, 0.36, 98, 1.200, 0.700, 30.100, 1173, 100, 100, 20, 22590, -24554, 5232, 5339, 19, 14, 1529518137.227, 38, 0, 1024, 1024, 1024, 1024, 0, 6, 3778, 3773, 3784, 3779, 3805, 3754, 0, 1, 9100, -90.000, 0.000, 30.400, 0.000, 0.000, -3.000, 0.0, , , , , , 96, , , 41, 41, 41
38.5386952, -120.5235933, 10.800, 11:08:57.327, 15, 0.00, 0.36, 98, 1.300, 0.500, 30.100, 1173, 100, 100, 20, 22590, -24554, 5232, 5339, 19, 14, 1529518137.327, 41, 0, 1024, 1024, 1024, 1024, 0, 6, 3778, 3773, 3784, 3779, 3805, 3754, 0, 1, 9201, -90.000, 0.000, 30.400, 0.000, 0.000, -3.000, 0.0, , , , , , 96, , , 41, 41, 41
38.5386952, -120.5235933, 11.100, 11:08:57.426, 16, 0.00, 0.36, 98, 1.400, 0.300, 30.100, 1173, 100, 100, 20, 22590, -24554, 5232, 5339, 19, 14, 1529518137.427, 12, 0, 1024, 1024, 1024, 1024, 0, 6, 3778, 3773, 3784, 3779, 3805, 3754, 0, 1, 9300, -90.000, 0.000, 30.400, 0.000, 0.000, -3.000, 0.0, , , , , , 96, , , 41, 41, 41
38.5386951, -120.5235934, 11.400, 11:08:57.527, 16, 0.00, 0.36, 98, 1.400, 0.200, 30.200, 1173, 100, 100, 20, 22590, -24554, 5232, 5339, 19, 14, 1529518137.528, 17, 0, 1024, 1024, 1024, 1024, 0, 6, 3778, 3773, 3784, 3779, 3805, 3754, 0, 1, 9401, -89.900, 0.000, 30.400, 0.000, 0.000, -3.000, 0.0, , , , , , 96, , , 41, 41, 41
38.5386951, -120.5235934, 11.700, 11:08:57.626, 15, 0.00, 0.36, 98, 1.300, 0.200, 30.300, 1173, 100, 100, 20, 22938, -19134, 5232, 5339, 19, 14, 1529518137.626, 6, 0, 1024, 1024, 1024, 1024, 0, 6, 3815, 3814, 3834, 3844, 3859, 3824, 0, 1, 9500, -89.900, 0.000, 30.400, 0.000, 0.000, -3.000, 0.0, , , , , , 96, , , 41, 41, 41
38.5386950, -120.5235934, 12.000, 11:08:57.726, 15, 0.00, 0.35, 98, 1.100, 0.300, 30.400, 1173, 100, 100, 20, 22938, -19134, 5232, 5339, 19, 14, 1529518137.727, 9, 0, 1024, 1024, 1024, 1024, 0, 6, 3815, 3814, 3834, 3844, 3859, 3824, 0, 1, 9600, -90.000, 0.000, 30.400, 0.000, 0.000, -3.000, 0.0, , , , , , 96, , , 41, 41, 41
38.5386950, -120.5235934, 12.300, 11:08:57.826, 15, 0.00, 0.35, 98, 0.800, 0.300, 30.500, 1173, 100, 100, 20, 22938, -19134, 5232, 5339, 19, 14, 1529518137.827, 22, 0, 1024, 1024, 1024, 1024, 0, 6, 3815, 3814, 3834, 3844, 3859, 3824, 0, 1, 9700, -90.000, 0.000, 30.400, 0.000, 0.000, -2.900, 0.0, , , , , , 96, , , 41, 41, 41
38.5386949, -120.5235933, 12.600, 11:08:57.926, 15, 0.00, 0.34, 98, 0.700, 0.300, 30.500, 1173, 100, 100, 20, 22938, -19134, 5232, 5339, 19, 14, 1529518137.926, 9, 0, 1024, 1024, 1024, 1024, 0, 6, 3815, 3814, 3834, 3844, 3859, 3824, 0, 1, 9800, -90.000, 0.000, 30.400, 0.000, 0.000, -2.900, 0.0, , , , , , 96, , , 41, 41, 41
38.5386949, -120.5235933, 12.900, 11:08:58.029, 16, 0.00, 0.34, 98, 0.700, 0.400, 30.400, 1173, 100, 100, 20, 22938, -19134, 5232, 5339, 19, 14, 1529518138.029, 3, 0, 1024, 1024, 1024, 1024, 0, 6, 3815, 3814, 3834, 3844, 3859, 3824, 0, 1, 9903, -89.900, 0.000, 30.400, 0.000, 0.000, -2.900, 0.0, , , , , , 96, , , 41, 41, 41
38.5386949, -120.5235933, 12.900, 11:08:58.126, 16, 0.00, 0.34, 98, 0.700, 0.400, 30.400, 1173, 100, 100, 20, 22938, -19134, 5232, 5339, 19, 14, 1529518138.127, 101, 0, 1024, 1024, 1024, 1024, 0, 6, 3815, 3814, 3834, 3844, 3859, 3824, 0, 1, 10001, -89.900, 0.000, 30.400, 0.000, 0.000, -2.900, 0.0, , , , , , 96, , , 41, 41, 41
38.5386949, -120.5235933, 13.200, 11:08:58.227, 16, 0.00, 0.34, 98, 0.700, 0.400, 30.400, 1173, 100, 100, 20, 22938, -19134, 5232, 5339, 19, 14, 1529518138.227, 90, 0, 1024, 1024, 1024, 1024, 0, 6, 3815, 3814, 3834, 3844, 3859, 3824, 0, 1, 10101, -89.900, 0.000, 30.400, 0.000, 0.000, -3.000, 0.0, , , , , , 96, , , 41, 41, 41
38.5386949, -120.5235934, 13.500, 11:08:58.326, 16, 0.00, 0.33, 98, 0.800, 0.400, 30.400, 1173, 100, 100, 20, 22938, -19134, 5232, 5339, 19, 14, 1529518138.327, 82, 0, 1024, 1024, 1024, 1024, 0, 6, 3815, 3814, 3834, 3844, 3859, 3824, 0, 1, 10201, -89.900, 0.000, 30.400, 0.000, 0.000, -3.000, 0.0, , , , , , 96, , , 41, 41, 41
38.5386948, -120.5235934, 14.100, 11:08:58.426, 16, 0.00, 0.33, 98, 0.900, 0.400, 30.300, 1173, 100, 100, 20, 22938, -19134, 5232, 5339, 19, 14, 1529518138.427, 89, 0, 1024, 1024, 1024, 1024, 0, 6, 3815, 3814, 3834, 3844, 3859, 3824, 0, 1, 10301, -89.900, 0.000, 30.400, 0.000, 0.000, -3.000, 0.0, , , , , , 96, , , 41, 41, 41
38.5386947, -120.5235934, 14.400, 11:08:58.527, 16, 0.00, 0.32, 98, 1.000, 0.300, 30.200, 1173, 100, 100, 20, 22938, -19134, 5232, 5339, 19, 14, 1529518138.527, 83, 0, 1024, 1024, 1024, 1024, 0, 6, 3815, 3814, 3834, 3844, 3859, 3824, 0, 1, 10401, -90.000, 0.000, 30.400, 0.000, 0.000, -3.000, 0.0, , , , , , 96, , , 41, 41, 41
38.5386947, -120.5235933, 14.700, 11:08:58.626, 16, 0.00, 0.32, 98, 0.900, 0.200, 30.300, 1173, 100, 100, 20, 22938, -19134, 5232, 5339, 19, 14, 1529518138.627, 59, 0, 1024, 1024, 1024, 1024, 0, 6, 3815, 3814, 3834, 3844, 3859, 3824, 0, 1, 10501, -90.000, 0.000, 30.400, 0.000, 0.000, -3.000, 0.0, , , , , , 96, , , 41, 41, 41
38.5386946, -120.5235933, 15.000, 11:08:58.727, 16, 0.00, 0.31, 98, 0.800, 0.200, 30.300, 1173, 100, 100, 20, 22968, -19280, 5232, 5339, 19, 14, 1529518138.727, 63, 0, 1024, 1024, 1024, 1024, 0, 6, 3811, 3804, 3830, 3836, 3850, 3814, 0, 1, 10601, -89.900, 0.000, 30.400, 0.000, 0.000, -3.000, 0.0, , , , , , 96, , , 41, 41, 41
38.5386945, -120.5235933, 15.300, 11:08:58.826, 16, 0.00, 0.31, 98, 0.800, 0.200, 30.400, 1173, 100, 100, 20, 22968, -19280, 5232, 5339, 19, 14, 1529518138.827, 67, 0, 1024, 1024, 1024, 1024, 0, 6, 3811, 3804, 3830, 3836, 3850, 3814, 0, 1, 10701, -89.900, 0.000, 30.400, 0.000, 0.000, -3.000, 0.0, , , , , , 96, , , 41, 41, 41
38.5386945, -120.5235933, 15.600, 11:08:58.926, 16, 0.00, 0.30, 98, 0.700, 0.200, 30.400, 1173, 100, 100, 20, 22968, -19280, 5232, 5339, 19, 14, 1529518138.927, 46, 0, 1024, 1024, 1024, 1024, 0, 6, 3811, 3804, 3830, 3836, 3850, 3814, 0, 1, 10801, -89.900, 0.000, 30.400, 0.000, 0.000, -2.900, 0.0, , , , , , 96, , , 41, 41, 41
38.5386945, -120.5235933, 15.900, 11:08:59.026, 16, 0.00, 0.30, 98, 0.600, 0.100, 30.400, 1173, 100, 100, 20, 22968, -19280, 5232, 5339, 19, 14, 1529518139.027, 48, 0, 1024, 1024, 1024, 1024, 0, 6, 3811, 3804, 3830, 3836, 3850, 3814, 0, 1, 10901, -90.000, 0.000, 30.400, 0.000, 0.000, -2.900, 0.0, , , , , , 96, , , 41, 41, 41
38.5386945, -120.5235933, 16.200, 11:08:59.126, 16, 0.00, 0.30, 98, 0.700, 0.100, 30.400, 1173, 100, 100, 20, 22968, -19280, 5232, 5339, 19, 14, 1529518139.127, 50, 0, 1024, 1024, 1024, 1024, 0, 6, 3811, 3804, 3830, 3836, 3850, 3814, 0, 1, 11000, -89.900, 0.000, 30.400, 0.000, 0.000, -2.900, 0.0, , , , , , 96, , , 41, 41, 41
38.5386944, -120.5235934, 16.500, 11:08:59.226, 16, 0.00, 0.30, 98, 0.700, 0.300, 30.400, 1173, 100, 100, 20, 22968, -19280, 5232, 5339, 19, 14, 1529518139.227, 42, 0, 1024, 1024, 1024, 1024, 0, 6, 3811, 3804, 3830, 3836, 3850, 3814, 0, 1, 11101, -89.900, 0.000, 30.400, 0.000, 0.000, -2.900, 0.0, , , , , , 96, , , 41, 41, 41
38.5386944, -120.5235934, 16.900, 11:08:59.327, 16, 0.00, 0.30, 98, 0.900, 0.300, 30.500, 1173, 100, 100, 20, 22968, -19280, 5232, 5339, 19, 14, 1529518139.327, 47, 0, 1024, 1024, 1024, 1024, 0, 6, 3811, 3804, 3830, 3836, 3850, 3814, 0, 1, 11201, -89.900, 0.000, 30.400, 0.000, 0.000, -3.000, 0.0, , , , , , 96, , , 41, 41, 41
38.5386943, -120.5235933, 17.200, 11:08:59.426, 16, 0.00, 0.29, 98, 1.000, 0.300, 30.500, 1173, 100, 100, 20, 22968, -19280, 5232, 5339, 19, 14, 1529518139.427, 52, 0, 1024, 1024, 1024, 1024, 0, 6, 3811, 3804, 3830, 3836, 3850, 3814, 0, 1, 11300, -89.900, 0.000, 30.400, 0.000, 0.000, -2.900, 0.0, , , , , , 96, , , 41, 41, 41
38.5386943, -120.5235933, 17.500, 11:08:59.526, 16, 0.00, 0.29, 98, 1.100, 0.100, 30.500, 1173, 100, 100, 20, 22968, -19280, 5232, 5339, 19, 14, 1529518139.527, 22, 0, 1024, 1024, 1024, 1024, 0, 6, 3811, 3804, 3830, 3836, 3850, 3814, 0, 1, 11400, -89.900, 0.000, 30.400, 0.000, 0.000, -3.000, 0.0, , , , , , 96, , , 41, 41, 41
38.5386943, -120.5235933, 17.800, 11:08:59.626, 16, 0.00, 0.29, 98, 0.900, 0.000, 30.500, 1173, 100, 100, 20, 22943, -19035, 5232, 5339, 19, 14, 1529518139.627, 26, 0, 1024, 1024, 1024, 1024, 0, 6, 3807, 3802, 3826, 3825, 3851, 3814, 0, 1, 11500, -89.900, 0.000, 30.400, 0.000, 0.000, -2.900, 0.0, , , , , , 96, , , 41, 41, 41
38.5386943, -120.5235933, 18.100, 11:08:59.726, 16, 0.00, 0.29, 98, 0.700, 0.000, 30.400, 1173, 100, 100, 20, 22943, -19035, 5232, 5339, 19, 14, 1529518139.727, 26, 0, 1024, 1024, 1024, 1024, 0, 6, 3807, 3802, 3826, 3825, 3851, 3814, 0, 1, 11600, -89.900, 0.000, 30.400, 0.000, 0.000, -2.900, 0.0, , , , , , 96, , , 41, 41, 41
38.5386942, -120.5235933, 18.400, 11:08:59.826, 16, 0.00, 0.28, 98, 0.600, 0.000, 30.400, 1173, 100, 100, 20, 22943, -19035, 5232, 5339, 19, 14, 1529518139.827, 17, 0, 1024, 1024, 1024, 1024, 0, 6, 3807, 3802, 3826, 3825, 3851, 3814, 0, 1, 11700, -89.900, 0.000, 30.400, 0.000, 0.000, -2.900, 0.0, , , , , , 96, , , 41, 41, 41
38.5386942, -120.5235932, 18.700, 11:08:59.926, 16, 0.00, 0.27, 98, 0.500, 0.200, 30.400, 1173, 100, 100, 20, 22943, -19035, 5232, 5339, 19, 14, 1529518139.927, 19, 0, 1024, 1024, 1024, 1024, 0, 6, 3807, 3802, 3826, 3825, 3851, 3814, 0, 1, 11800, -89.900, 0.000, 30.400, 0.000, 0.000, -2.900, 0.0, , , , , , 96, , , 41, 41, 41
38.5386942, -120.5235931, 19.000, 11:09:00.026, 16, 0.00, 0.27, 98, 0.600, 0.500, 30.400, 1173, 100, 100, 20, 22943, -19035, 5232, 5339, 19, 14, 1529518140.027, 13, 0, 1024, 1024, 1024, 1024, 0, 6, 3807, 3802, 3826, 3825, 3851, 3814, 0, 1, 11901, -89.900, 0.000, 30.400, 0.000, 0.000, -2.900, 0.0, , , , , , 96, , , 41, 41, 41
38.5386942, -120.5235931, 19.000, 11:09:00.126, 16, 0.00, 0.27, 98, 0.600, 0.500, 30.400, 1173, 100, 100, 20, 22943, -19035, 5232, 5339, 19, 14, 1529518140.127, 113, 0, 1024, 1024, 1024, 1024, 0, 6, 3807, 3802, 3826, 3825, 3851, 3814, 0, 1, 12001, -89.900, 0.000, 30.400, 0.000, 0.000, -2.900, 0.0, , , , , , 96, , , 41, 41, 41
38.5386943, -120.5235931, 19.300, 11:09:00.226, 16, 0.00, 0.27, 98, 1.000, 0.700, 30.300, 1173, 100, 100, 20, 22943, -19035, 5232, 5339, 19, 14, 1529518140.227, 96, 0, 1024, 1024, 1024, 1024, 0, 6, 3807, 3802, 3826, 3825, 3851, 3814, 0, 1, 12100, -89.900, 0.000, 30.400, 0.000, 0.000, -2.900, 0.0, , , , , , 96, , , 41, 41, 41
38.5386944, -120.5235931, 19.800, 11:09:00.326, 16, 0.00, 0.28, 98, 1.400, 1.400, 30.300, 1173, 100, 100, 20, 22943, -19035, 5232, 5339, 19, 14, 1529518140.327, 17, 0, 1024, 1024, 1024, 1024, 0, 6, 3807, 3802, 3826, 3825, 3851, 3814, 0, 1, 12200, -89.900, 0.000, 30.400, 0.000, 0.000, -2.900, 0.0, , , , , , 96, , , 41, 41, 41
38.5386944, -120.5235931, 19.800, 11:09:00.426, 16, 0.00, 0.28, 98, 1.400, 1.400, 30.300, 1173, 100, 100, 20, 22943, -19035, 5232, 5339, 19, 14, 1529518140.427, 117, 0, 1024, 1024, 1024, 1024, 0, 6, 3807, 3802, 3826, 3825, 3851, 3814, 0, 1, 12300, -89.900, 0.000, 30.400, 0.000, 0.000, -2.900, 0.0, , , , , , 96, , , 41, 41, 41
38.5386944, -120.5235931, 19.800, 11:09:00.527, 16, 0.00, 0.28, 98, 1.400, 1.400, 30.300, 1173, 100, 100, 20, 22943, -19035, 5232, 5339, 19, 14, 1529518140.527, 218, 0, 1024, 1024, 1024, 1024, 0, 6, 3807, 3802, 3826, 3825, 3851, 3814, 0, 1, 12401, -89.900, 0.000, 30.400, 0.000, 0.000, -2.900, 0.0, , , , , , 96, , , 41, 41, 41
38.5386944, -120.5235930, 20.800, 11:09:00.626, 16, 0.00, 0.28, 98, 1.100, 1.700, 30.300, 1173, 100, 100, 20, 22943, -19035, 5232, 5339, 19, 14, 1529518140.627, 98, 0, 1024, 1024, 1024, 1024, 0, 6, 3807, 3802, 3826, 3825, 3851, 3814, 0, 1, 12501, -89.900, 0.000, 30.400, 0.000, 0.000, -2.900, 0.0, , , , , , 96, , , 41, 41, 41
38.5386944, -120.5235930, 20.800, 11:09:00.726, 16, 0.00, 0.28, 98, 1.100, 1.700, 30.300, 1173, 100, 100, 20, 22905, -19144, 5232, 5339, 19, 14, 1529518140.727, 197, 0, 1024, 1024, 1024, 1024, 0, 6, 3807, 3802, 3826, 3825, 3851, 3814, 0, 1, 12600, -89.900, 0.000, 30.400, 0.000, 0.000, -2.900, 0.0, , , , , , 96, , , 41, 41, 41
38.5386944, -120.5235930, 21.400, 11:09:00.827, 16, 0.00, 0.27, 98, 0.900, 0.700, 30.400, 1173, 100, 99, 20, 22905, -19144, 5232, 5339, 19, 14, 1529518140.827, 69, 0, 1024, 1024, 1024, 1024, 0, 6, 3802, 3805, 3818, 3825, 3845, 3801, 0, 1, 12701, -89.900, 0.000, 30.400, 0.000, 0.000, -2.900, 0.0, , , , , , 96, , , 41, 41, 41
38.5386943, -120.5235930, 21.700, 11:09:00.926, 16, 0.00, 0.27, 98, 0.600, 0.400, 30.400, 1173, 100, 99, 20, 22905, -19144, 5232, 5339, 19, 14, 1529518140.927, 77, 0, 1024, 1024, 1024, 1024, 0, 6, 3802, 3805, 3818, 3825, 3845, 3801, 0, 1, 12800, -90.000, 0.000, 30.400, 0.000, 0.000, -2.900, 0.0, , , , , , 96, , , 41, 41, 41
38.5386943, -120.5235930, 22.000, 11:09:01.026, 16, 0.00, 0.27, 98, 0.600, 0.100, 30.400, 1173, 100, 99, 20, 22905, -19144, 5232, 5339, 19, 14, 1529518141.027, 84, 0, 1024, 1024, 1024, 1024, 0, 6, 3802, 3805, 3818, 3825, 3845, 3801, 0, 1, 12901, -90.000, 0.000, 30.400, 0.000, 0.000, -2.900, 0.0, , , , , , 96, , , 41, 41, 41
38.5386942, -120.5235931, 22.300, 11:09:01.126, 16, 0.00, 0.27, 98, 0.700, -0.100, 30.200, 1173, 100, 99, 20, 22905, -19144, 5232, 5339, 19, 14, 1529518141.127, 78, 0, 1024, 1024, 1024, 1024, 0, 6, 3802, 3805, 3818, 3825, 3845, 3801, 0, 1, 13001, -90.000, 0.000, 30.400, 0.000, 0.000, -2.900, 0.0, , , , , , 96, , , 41, 41, 41
38.5386942, -120.5235931, 22.600, 11:09:01.226, 16, 0.00, 0.27, 98, 0.800, -0.100, 30.100, 1173, 100, 98, 20, 22905, -19144, 5232, 5339, 19, 14, 1529518141.227, 58, 0, 1024, 1024, 1024, 1024, 0, 6, 3802, 3805, 3818, 3825, 3845, 3801, 0, 1, 13100, -89.900, 0.000, 30.400, 0.000, 0.000, -2.900, 0.0, , , , , , 96, , , 41, 41, 41
38.5386942, -120.5235931, 22.900, 11:09:01.326, 16, 0.00, 0.27, 98, 1.000, -0.100, 30.000, 1173, 100, 98, 20, 22905, -19144, 5232, 5339, 19, 14, 1529518141.327, 40, 0, 1024, 1024, 1024, 1024, 0, 6, 3802, 3805, 3818, 3825, 3845, 3801, 0, 1, 13201, -90.000, 0.000, 30.400, 0.000, 0.000, -2.900, 0.0, , , , , , 96, , , 41, 41, 41
38.5386942, -120.5235930, 23.200, 11:09:01.426, 16, 0.00, 0.26, 98, 1.000, -0.100, 30.100, 1173, 100, 98, 20, 22905, -19144, 5232, 5339, 19, 14, 1529518141.427, 66, 0, 1024, 1024, 1024, 1024, 0, 6, 3802, 3805, 3818, 3825, 3845, 3801, 0, 1, 13301, -89.900, 0.000, 30.400, 0.000, 0.000, -2.800, 0.0, , , , , , 96, , , 41, 41, 41
38.5386942, -120.5235930, 23.500, 11:09:01.526, 16, 0.00, 0.26, 98, 0.900, 0.000, 30.200, 1173, 100, 98, 20, 22905, -19144, 5232, 5339, 19, 14, 1529518141.527, 59, 0, 1024, 1024, 1024, 1024, 0, 6, 3802, 3805, 3818, 3825, 3845, 3801, 0, 1, 13400, -90.000, 0.000, 30.400, 0.000, 0.000, -2.800, 0.0, , , , , , 96, , , 41, 41, 41
38.5386942, -120.5235930, 23.800, 11:09:01.626, 16, 0.00, 0.26, 98, 0.800, 0.300, 30.500, 1173, 100, 98, 20, 22826, -19839, 5232, 5339, 19, 14, 1529518141.627, 59, 0, 1024, 1024, 1024, 1024, 0, 6, 3802, 3805, 3818, 3825, 3845, 3801, 0, 1, 13500, -89.900, 0.000, 30.400, 0.000, 0.000, -2.900, 0.0, , , , , , 96, , , 41, 41, 41
38.5386942, -120.5235931, 24.000, 11:09:01.726, 16, 0.00, 0.26, 98, 0.700, 0.400, 30.700, 1173, 100, 98, 20, 22826, -19839, 5232, 5339, 19, 14, 1529518141.727, 47, 0, 1024, 1024, 1024, 1024, 0, 6, 3802, 3805, 3818, 3825, 3845, 3801, 0, 1, 13601, -89.900, 0.000, 30.400, 0.000, 0.000, -2.900, 0.0, , , , , , 96, , , 41, 41, 41
38.5386942, -120.5235931, 24.300, 11:09:01.826, 16, 0.00, 0.27, 98, 0.700, 0.300, 31.000, 1173, 100, 98, 20, 22826, -19839, 5232, 5339, 19, 14, 1529518141.827, 43, 0, 1024, 1024, 1024, 1024, 0, 6, 3802, 3805, 3818, 3825, 3845, 3801, 0, 1, 13700, -89.900, 0.000, 30.400, 0.000, 0.000, -3.000, 0.0, , , , , , 96, , , 41, 41, 41
38.5386942, -120.5235930, 24.600, 11:09:01.926, 16, 0.00, 0.27, 98, 0.700, 0.300, 31.100, 1173, 100, 98, 20, 22826, -19839, 5232, 5339, 19, 14, 1529518141.926, 33, 0, 1024, 1024, 1024, 1024, 0, 6, 3802, 3805, 3818, 3825, 3845, 3801, 0, 1, 13800, -89.900, 0.000, 30.400, 0.000, 0.000, -3.000, 0.0, , , , , , 96, , , 41, 41, 41
38.5386942, -120.5235930, 24.900, 11:09:02.026, 16, 0.00, 0.26, 98, 0.600, 0.300, 31.100, 1173, 100, 98, 20, 22826, -19839, 5232, 5339, 19, 14, 1529518142.026, 33, 0, 1024, 1024, 1024, 1024, 0, 6, 3802, 3805, 3818, 3825, 3845, 3801, 0, 1, 13900, -89.900, 0.000, 30.400, 0.000, 0.000, -2.900, 0.0, , , , , , 96, , , 41, 41, 41
38.5386942, -120.5235930, 25.300, 11:09:02.126, 16, 0.00, 0.27, 98, 0.700, 0.400, 30.900, 1173, 100, 98, 20, 22826, -19839, 5232, 5339, 19, 14, 1529518142.126, 34, 0, 1024, 1024, 1024, 1024, 0, 6, 3785, 3791, 3799, 3809, 3827, 3790, 0, 1, 14000, -89.900, 0.000, 30.400, 0.000, 0.000, -3.000, 0.0, , , , , , 96, , , 41, 41, 41
38.5386942, -120.5235930, 25.300, 11:09:02.226, 16, 0.00, 0.27, 98, 0.700, 0.400, 30.900, 1173, 100, 98, 20, 22826, -19839, 5232, 5339, 19, 14, 1529518142.226, 134, 0, 1024, 1024, 1024, 1024, 0, 6, 3785, 3791, 3799, 3809, 3827, 3790, 0, 1, 14100, -89.900, 0.000, 30.400, 0.000, 0.000, -3.000, 0.0, , , , , , 96, , , 41, 41, 41
38.5386942, -120.5235931, 25.900, 11:09:02.334, 16, 0.00, 0.27, 98, 0.800, 0.400, 30.400, 1173, 100, 99, 20, 22826, -19839, 5232, 5339, 19, 14, 1529518142.334, 29, 0, 1024, 1024, 1024, 1024, 0, 6, 3785, 3791, 3799, 3809, 3827, 3790, 0, 1, 14208, -89.900, 0.000, 30.400, 0.000, 0.000, -2.900, 0.0, , , , , , 96, , , 41, 41, 41
38.5386942, -120.5235931, 26.200, 11:09:02.426, 16, 0.00, 0.27, 98, 0.900, 0.200, 30.200, 1173, 100, 99, 20, 22826, -19839, 5232, 5339, 19, 14, 1529518142.426, 8, 0, 1024, 1024, 1024, 1024, 0, 6, 3785, 3791, 3799, 3809, 3827, 3790, 0, 1, 14300, -89.900, 0.000, 30.400, 0.000, 0.000, -2.900, 0.0, , , , , , 96, , , 41, 41, 41
38.5386942, -120.5235931, 26.200, 11:09:02.526, 16, 0.00, 0.27, 98, 0.900, 0.200, 30.200, 1173, 100, 99, 20, 22826, -19839, 5232, 5339, 19, 14, 1529518142.526, 108, 0, 1024, 1024, 1024, 1024, 0, 6, 3785, 3791, 3799, 3809, 3827, 3790, 0, 1, 14400, -89.900, 0.000, 30.400, 0.000, 0.000, -2.900, 0.0, , , , , , 96, , , 41, 41, 41
38.5386943, -120.5235932, 26.700, 11:09:02.629, 16, 0.00, 0.28, 98, 1.300, 0.200, 30.100, 1173, 100, 99, 20, 22826, -19839, 5232, 5339, 19, 14, 1529518142.629, 2, 0, 1024, 1024, 1024, 1024, 0, 6, 3785, 3791, 3799, 3809, 3827, 3790, 0, 1, 14503, -89.900, 0.000, 30.400, 0.000, 0.000, -2.900, 0.0, , , , , , 96, , , 41, 41, 41
38.5386944, -120.5235933, 27.300, 11:09:02.726, 16, 0.00, 0.29, 98, 1.400, 0.400, 30.400, 1173, 100, 99, 20, 22826, -19839, 5232, 5339, 19, 14, 1529518142.726, 4, 0, 1024, 1024, 1024, 1024, 0, 6, 3785, 3791, 3799, 3809, 3827, 3790, 0, 1, 14600, -89.900, 0.000, 30.400, 0.000, 0.000, -3.000, 0.0, , , , , , 96, , , 41, 41, 41
38.5386944, -120.5235933, 27.300, 11:09:02.826, 16, 0.00, 0.29, 98, 1.400, 0.400, 30.400, 1173, 100, 99, 20, 22826, -19839, 5232, 5339, 19, 14, 1529518142.827, 105, 0, 1024, 1024, 1024, 1024, 0, 6, 3785, 3791, 3799, 3809, 3827, 3790, 0, 1, 14700, -89.900, 0.000, 30.400, 0.000, 0.000, -3.000, 0.0, , , , , , 96, , , 41, 41, 41
38.5386944, -120.5235933, 27.300, 11:09:02.926, 16, 0.00, 0.29, 98, 1.400, 0.400, 30.400, 1173, 100, 99, 20, 22826, -19839, 5232, 5339, 19, 14, 1529518142.926, 204, 0, 1024, 1024, 1024, 1024, 0, 6, 3785, 3791, 3799, 3809, 3827, 3790, 0, 1, 14800, -89.900, 0.000, 30.400, 0.000, 0.000, -3.000, 0.0, , , , , , 96, , , 41, 41, 41
38.5386946, -120.5235933, 28.300, 11:09:03.030, 16, 0.00, 0.31, 98, 1.900, 1.500, 30.400, 1173, 100, 99, 20, 22826, -19839, 5232, 5339, 19, 14, 1529518143.030, 1, 0, 1024, 1024, 1024, 1024, 0, 6, 3785, 3791, 3799, 3809, 3827, 3790, 0, 1, 14904, -89.900, 0.000, 30.400, 0.000, 0.000, -3.000, 0.0, , , , , , 96, , , 41, 41, 41
38.5386946, -120.5235933, 28.300, 11:09:03.126, 16, 0.00, 0.31, 98, 1.900, 1.500, 30.400, 1173, 100, 99, 20, 22826, -19839, 5232, 5339, 19, 14, 1529518143.126, 98, 0, 1024, 1024, 1024, 1024, 0, 6, 3785, 3791, 3799, 3809, 3827, 3790, 0, 1, 15000, -89.900, 0.000, 30.400, 0.000, 0.000, -3.000, 0.0, , , , , , 96, , , 41, 41, 41
38.5386946, -120.5235933, 28.600, 11:09:03.226, 16, 0.00, 0.31, 98, 2.000, 1.700, 30.300, 1173, 100, 99, 20, 22789, -18810, 5232, 5339, 19, 14, 1529518143.227, 75, 0, 1024, 1024, 1024, 1024, 0, 6, 3793, 3794, 3802, 3806, 3818, 3791, 0, 1, 15101, -89.900, 0.000, 30.400, 0.000, 0.000, -3.000, 0.0, , , , , , 96, , , 41, 41, 41
38.5386947, -120.5235933, 28.900, 11:09:03.326, 16, 0.00, 0.32, 98, 1.800, 1.600, 30.300, 1173, 100, 99, 20, 22789, -18810, 5232, 5339, 19, 14, 1529518143.327, 57, 0, 1024, 1024, 1024, 1024, 0, 6, 3793, 3794, 3802, 3806, 3818, 3791, 0, 1, 15201, -89.900, 0.000, 30.400, 0.000, 0.000, -3.000, 0.0, , , , , , 96, , , 41, 41, 41
38.5386947, -120.5235934, 29.200, 11:09:03.426, 16, 0.00, 0.32, 98, 1.800, 1.300, 30.200, 1173, 100, 99, 20, 22789, -18810, 5232, 5339, 19, 14, 1529518143.426, 71, 0, 1024, 1024, 1024, 1024, 0, 6, 3793, 3794, 3802, 3806, 3818, 3791, 0, 1, 15300, -89.900, 0.000, 30.400, 0.000, 0.000, -3.000, 0.0, , , , , , 96, , , 41, 41, 41
38.5386947, -120.5235934, 29.500, 11:09:03.526, 16, 0.00, 0.33, 98, 1.900, 1.000, 30.200, 1173, 100, 99, 20, 22789, -18810, 5232, 5339, 19, 14, 1529518143.526, 74, 0, 1024, 1024, 1024, 1024, 0, 6, 3793, 3794, 3802, 3806, 3818, 3791, 0, 1, 15400, -89.900, 0.000, 30.400, 0.000, 0.000, -3.000, 0.0, , , , , , 96, , , 41, 41, 41
38.5386947, -120.5235935, 29.800, 11:09:03.626, 16, 0.00, 0.33, 98, 2.100, 0.700, 30.100, 1173, 100, 99, 20, 22789, -18810, 5232, 5339, 19, 14, 1529518143.627, 64, 0, 1024, 1024, 1024, 1024, 0, 6, 3793, 3794, 3802, 3806, 3818, 3791, 0, 1, 15501, -89.900, 0.000, 30.400, 0.000, 0.000, -2.900, 0.0, , , , , , 96, , , 41, 41, 41
38.5386947, -120.5235935, 30.100, 11:09:03.726, 16, 0.00, 0.34, 98, 2.100, 0.600, 30.000, 1173, 100, 98, 20, 22789, -18810, 5232, 5339, 19, 14, 1529518143.726, 57, 0, 1024, 1024, 1024, 1024, 0, 6, 3793, 3794, 3802, 3806, 3818, 3791, 0, 1, 15600, -89.900, 0.000, 30.400, 0.000, 0.000, -3.000, 0.0, , , , , , 96, , , 41, 41, 41
38.5386948, -120.5235936, 30.400, 11:09:03.826, 16, 0.00, 0.34, 98, 2.200, 0.600, 30.000, 1173, 100, 98, 20, 22789, -18810, 5232, 5339, 19, 14, 1529518143.826, 36, 0, 1024, 1024, 1024, 1024, 0, 6, 3793, 3794, 3802, 3806, 3818, 3791, 0, 1, 15700, -89.900, 0.000, 30.400, 0.000, 0.000, -2.900, 0.0, , , , , , 96, , , 41, 41, 41
38.5386948, -120.5235936, 30.600, 11:09:03.926, 16, 0.00, 0.34, 98, 2.200, 0.800, 30.000, 1173, 100, 98, 20, 22789, -18810, 5232, 5339, 19, 14, 1529518143.926, 41, 0, 1024, 1024, 1024, 1024, 0, 6, 3793, 3794, 3802, 3806, 3818, 3791, 0, 1, 15800, -89.900, 0.000, 30.400, 0.000, 0.000, -2.900, 0.0, , , , , , 96, , , 41, 41, 41
38.5386948, -120.5235936, 30.900, 11:09:04.026, 16, 0.00, 0.35, 98, 2.200, 1.000, 29.900, 1173, 100, 98, 20, 22789, -18810, 5232, 5339, 19, 14, 1529518144.026, 47, 0, 1024, 1024, 1024, 1024, 0, 6, 3793, 3794, 3802, 3806, 3818, 3791, 0, 1, 15900, -89.900, 0.000, 30.400, 0.000, 0.000, -2.900, 0.0, , , , , , 96, , , 41, 41, 41
38.5386948, -120.5235937, 31.200, 11:09:04.126, 16, 0.00, 0.35, 98, 2.200, 1.100, 29.900, 1173, 100, 98, 20, 22912, -17919, 5178, 5339, 19, 14, 1529518144.126, 42, 0, 1024, 1024, 1024, 1024, 0, 6, 3804, 3808, 3828, 3828, 3826, 3804, 0, 1, 16000, -89.900, 0.000, 30.400, 0.000, 0.000, -2.900, 0.0, , , , , , 96, , , 41, 41, 41
38.5386949, -120.5235937, 31.500, 11:09:04.226, 16, 0.00, 0.36, 98, 2.400, 1.200, 29.900, 1173, 100, 99, 20, 22912, -17919, 5178, 5339, 19, 14, 1529518144.226, 34, 0, 1024, 1024, 1024, 1024, 0, 6, 3804, 3808, 3828, 3828, 3826, 3804, 0, 1, 16100, -89.900, 0.000, 30.400, 0.000, 0.000, -2.900, 0.0, , , , , , 96, , , 41, 41, 41
38.5386949, -120.5235938, 31.800, 11:09:04.326, 16, 0.00, 0.36, 98, 2.500, 1.100, 29.900, 1173, 100, 99, 20, 22912, -17919, 5178, 5339, 19, 14, 1529518144.326, 12, 0, 1024, 1024, 1024, 1024, 0, 6, 3804, 3808, 3828, 3828, 3826, 3804, 0, 1, 16200, -89.900, 0.000, 30.400, 0.000, 0.000, -2.900, 0.0, , , , , , 96, , , 41, 41, 41
38.5386949, -120.5235938, 32.100, 11:09:04.426, 16, 0.00, 0.36, 98, 2.400, 0.900, 29.900, 1173, 100, 99, 20, 22912, -17919, 5178, 5339, 19, 14, 1529518144.426, 35, 0, 1024, 1024, 1024, 1024, 0, 6, 3804, 3808, 3828, 3828, 3826, 3804, 0, 1, 16300, -89.900, 0.000, 30.400, 0.000, 0.000, -3.000, 0.0, , , , , , 96, , , 41, 41, 41
38.5386949, -120.5235938, 32.400, 11:09:04.526, 16, 0.00, 0.36, 98, 2.300, 0.600, 29.900, 1173, 100, 99, 20, 22912, -17919, 5178, 5339, 19, 14, 1529518144.527, 35, 0, 1024, 1024, 1024, 1024, 0, 6, 3804, 3808, 3828, 3828, 3826, 3804, 0, 1, 16400, -90.000, 0.000, 30.400, 0.000, 0.000, -3.000, 0.0, , , , , , 96, , , 41, 41, 41
38.5386949, -120.5235938, 32.400, 11:09:04.626, 16, 0.00, 0.36, 98, 2.300, 0.600, 29.900, 1173, 100, 99, 20, 22912, -17919, 5178, 5339, 19, 14, 1529518144.626, 135, 0, 1024, 1024, 1024, 1024, 0, 6, 3804, 3808, 3828, 3828, 3826, 3804, 0, 1, 16500, -90.000, 0.000, 30.400, 0.000, 0.000, -3.000, 0.0, , , , , , 96, , , 41, 41, 41
38.5386949, -120.5235938, 32.700, 11:09:04.726, 16, 0.00, 0.37, 98, 2.100, 0.500, 29.900, 1173, 100, 99, 20, 22912, -17919, 5178, 5339, 19, 14, 1529518144.726, 98, 0, 1024, 1024, 1024, 1024, 0, 6, 3804, 3808, 3828, 3828, 3826, 3804, 0, 1, 16600, -89.900, 0.000, 30.400, 0.000, 0.000, -2.900, 0.0, , , , , , 96, , , 41, 41, 41
38.5386949, -120.5235939, 33.300, 11:09:04.826, 17, 0.00, 0.37, 98, 2.400, 0.700, 30.100, 1173, 100, 98, 20, 22912, -17919, 5178, 5339, 19, 14, 1529518144.826, 5, 0, 1024, 1024, 1024, 1024, 0, 6, 3804, 3808, 3828, 3828, 3826, 3804, 0, 1, 16700, -89.900, 0.000, 30.400, 0.000, 0.000, -2.900, 0.0, , , , , , 96, , , 41, 41, 41
38.5386949, -120.5235939, 33.600, 11:09:04.926, 17, 0.00, 0.37, 98, 2.400, 0.900, 30.200, 1173, 100, 98, 20, 22912, -17919, 5178, 5339, 19, 14, 1529518144.926, 8, 0, 1024, 1024, 1024, 1024, 0, 6, 3804, 3808, 3828, 3828, 3826, 3804, 0, 1, 16800, -89.900, 0.000, 30.400, 0.000, 0.000, -2.900, 0.0, , , , , , 96, , , 41, 41, 41
38.5386949, -120.5235939, 33.900, 11:09:05.026, 17, 0.00, 0.37, 98, 2.500, 0.900, 30.400, 1173, 100, 98, 20, 22912, -17919, 5178, 5339, 19, 14, 1529518145.026, 4, 0, 1024, 1024, 1024, 1024, 0, 6, 3804, 3808, 3828, 3828, 3826, 3804, 0, 1, 16900, -89.900, 0.000, 30.400, 0.000, 0.000, -3.000, 0.0, , , , , , 96, , , 41, 41, 41
38.5386949, -120.5235939, 33.900, 11:09:05.126, 17, 0.00, 0.37, 98, 2.500, 0.900, 30.400, 1173, 100, 98, 20, 22912, -17919, 5178, 5339, 19, 14, 1529518145.126, 104, 0, 1024, 1024, 1024, 1024, 0, 6, 3804, 3808, 3828, 3828, 3826, 3804, 0, 1, 17000, -89.900, 0.000, 30.400, 0.000, 0.000, -3.000, 0.0, , , , , , 96, , , 41, 41, 41
38.5386949, -120.5235940, 34.500, 11:09:05.228, 17, 0.00, 0.37, 97, 2.200, 0.800, 30.500, 1173, 100, 97, 21, 22887, -17932, 5178, 5339, 19, 14, 1529518145.228, 3, 0, 1024, 1024, 1024, 1024, 0, 6, 3800, 3798, 3821, 3818, 3836, 3806, 0, 1, 17102, -89.900, 0.000, 30.400, 0.000, 0.000, -3.000, 0.0, , , , , , 96, , , 41, 41, 41
38.5386949, -120.5235940, 34.500, 11:09:05.326, 17, 0.00, 0.37, 97, 2.200, 0.800, 30.500, 1173, 100, 97, 21, 22887, -17932, 5178, 5339, 19, 14, 1529518145.327, 101, 0, 1024, 1024, 1024, 1024, 0, 6, 3800, 3798, 3821, 3818, 3836, 3806, 0, 1, 17200, -89.900, 0.000, 30.400, 0.000, 0.000, -3.000, 0.0, , , , , , 96, , , 41, 41, 41
38.5386949, -120.5235940, 35.100, 11:09:05.426, 17, 0.00, 0.38, 97, 2.100, 0.800, 30.500, 1173, 100, 97, 21, 22887, -17932, 5178, 5339, 19, 14, 1529518145.426, 83, 0, 1024, 1024, 1024, 1024, 0, 6, 3800, 3798, 3821, 3818, 3836, 3806, 0, 1, 17300, -89.900, 0.000, 30.400, 0.000, 0.000, -3.000, 0.0, , , , , , 96, , , 41, 41, 41
38.5386949, -120.5235940, 35.100, 11:09:05.525, 17, 0.00, 0.38, 97, 2.100, 0.800, 30.500, 1173, 100, 97, 21, 22887, -17932, 5178, 5339, 19, 14, 1529518145.525, 183, 0, 1024, 1024, 1024, 1024, 0, 6, 3800, 3798, 3821, 3818, 3836, 3806, 0, 1, 17399, -89.900, 0.000, 30.400, 0.000, 0.000, -3.000, 0.0, , , , , , 96, , , 41, 41, 41
38.5386949, -120.5235941, 35.400, 11:09:05.626, 17, 0.00, 0.38, 97, 2.400, 0.900, 30.400, 1173, 100, 97, 21, 22887, -17932, 5178, 5339, 19, 14, 1529518145.626, 84, 0, 1024, 1024, 1024, 1024, 0, 6, 3800, 3798, 3821, 3818, 3836, 3806, 0, 1, 17500, -89.900, 0.000, 30.400, 0.000, 0.000, -3.000, 0.0, , , , , , 96, , , 41, 41, 41
38.5386950, -120.5235941, 36.000, 11:09:05.726, 17, 0.00, 0.39, 97, 3.100, 0.900, 30.300, 1173, 100, 94, 21, 22887, -17932, 5178, 5339, 19, 14, 1529518145.726, 61, 0, 1024, 1024, 1024, 1024, 0, 6, 3800, 3798, 3821, 3818, 3836, 3806, 0, 1, 17600, -89.900, 0.000, 30.400, 0.000, 0.000, -2.900, 0.0, , , , , , 96, , , 41, 41, 41
38.5386950, -120.5235942, 36.300, 11:09:05.826, 17, 0.00, 0.40, 97, 3.500, 1.200, 30.300, 1173, 100, 94, 21, 22887, -17932, 5178, 5339, 19, 14, 1529518145.826, 65, 0, 1024, 1024, 1024, 1024, 0, 6, 3800, 3798, 3821, 3818, 3836, 3806, 0, 1, 17700, -89.900, 0.000, 30.400, 0.000, 0.000, -2.900, 0.0, , , , , , 96, , , 41, 41, 41
38.5386951, -120.5235943, 36.600, 11:09:05.926, 17, 0.00, 0.41, 97, 3.500, 1.200, 30.300, 1173, 100, 94, 21, 22887, -17932, 5178, 5339, 19, 14, 1529518145.926, 67, 0, 1024, 1024, 1024, 1024, 0, 6, 3800, 3798, 3821, 3818, 3836, 3806, 0, 1, 17800, -89.900, 0.000, 30.400, 0.000, 0.000, -2.900, 0.0, , , , , , 96, , , 41, 41, 41
38.5386951, -120.5235943, 36.900, 11:09:06.026, 17, 0.00, 0.41, 97, 3.300, 1.300, 30.400, 1173, 100, 94, 21, 22887, -17932, 5178, 5339, 19, 14, 1529518146.026, 59, 0, 1024, 1024, 1024, 1024, 0, 6, 3800, 3798, 3821, 3818, 3836, 3806, 0, 1, 17900, -89.900, 0.000, 30.400, 0.000, 0.000, -3.000, 0.0, , , , , , 96, , , 41, 41, 41
38.5386952, -120.5235943, 37.200, 11:09:06.126, 17, 0.00, 0.42, 97, 3.000, 1.500, 30.600, 1173, 100, 94, 21, 22860, -18138, 5178, 5339, 19, 14, 1529518146.126, 71, 0, 1024, 1024, 1024, 1024, 0, 6, 3806, 3808, 3818, 3829, 3832, 3813, 0, 1, 18000, -89.900, 0.000, 30.400, 0.000, 0.000, -3.000, 0.0, , , , , , 96, , , 41, 41, 41
38.5386952, -120.5235943, 37.500, 11:09:06.226, 17, 0.00, 0.42, 97, 2.900, 1.500, 30.600, 1173, 100, 95, 21, 22860, -18138, 5178, 5339, 19, 14, 1529518146.226, 64, 0, 1024, 1024, 1024, 1024, 0, 6, 3806, 3808, 3818, 3829, 3832, 3813, 0, 1, 18100, -89.900, 0.000, 30.400, 0.000, 0.000, -2.900, 0.0, , , , , , 96, , , 41, 41, 41
38.5386952, -120.5235943, 37.800, 11:09:06.326, 17, 0.00, 0.42, 97, 2.900, 1.500, 30.700, 1173, 100, 95, 21, 22860, -18138, 5178, 5339, 19, 14, 1529518146.326, 54, 0, 1024, 1024, 1024, 1024, 0, 6, 3806, 3808, 3818, 3829, 3832, 3813, 0, 1, 18200, -89.900, 0.000, 30.400, 0.000, 0.000, -2.900, 0.0, , , , , , 96, , , 41, 41, 41
38.5386952, -120.5235943, 38.100, 11:09:06.426, 17, 0.00, 0.43, 97, 3.200, 1.300, 30.600, 1173, 100, 95, 21, 22860, -18138, 5178, 5339, 19, 14, 1529518146.426, 34, 0, 1024, 1024, 1024, 1024, 0, 6, 3806, 3808, 3818, 3829, 3832, 3813, 0, 1, 18300, -89.900, 0.000, 30.400, 0.000, 0.000, -3.000, 0.0, , , , , , 96, , , 41, 41, 41
38.5386952, -120.5235944, 38.400, 11:09:06.526, 17, 0.00, 0.43, 97, 3.600, 1.200, 30.400, 1173, 100, 95, 21, 22860, -18138, 5178, 5339, 19, 14, 1529518146.526, 50, 0, 1024, 1024, 1024, 1024, 0, 6, 3806, 3808, 3818, 3829, 3832, 3813, 0, 1, 18400, -89.900, 0.000, 30.400, 0.000, 0.000, -2.900, 0.0, , , , , , 96, , , 41, 41, 41
38.5386952, -120.5235944, 38.700, 11:09:06.626, 17, 0.00, 0.43, 97, 3.400, 1.000, 30.300, 1173, 100, 95, 21, 22860, -18138, 5178, 5339, 19, 14, 1529518146.626, 44, 0, 1024, 1024, 1024, 1024, 0, 6, 3806, 3808, 3818, 3829, 3832, 3813, 0, 1, 18500, -89.900, 0.000, 30.400, 0.000, 0.000, -2.900, 0.0, , , , , , 96, , , 41, 41, 41
38.5386953, -120.5235945, 39.000, 11:09:06.726, 17, 0.00, 0.43, 97, 3.200, 1.000, 30.100, 1173, 100, 94, 21, 22860, -18138, 5178, 5339, 19, 14, 1529518146.726, 33, 0, 1024, 1024, 1024, 1024, 0, 6, 3806, 3808, 3818, 3829, 3832, 3813, 0, 1, 18600, -89.900, 0.000, 30.400, 0.000, 0.000, -2.800, 0.0, , , , , , 96, , , 41, 41, 41
38.5386953, -120.5235945, 39.300, 11:09:06.826, 17, 0.00, 0.44, 97, 3.100, 1.200, 30.100, 1173, 100, 94, 21, 22860, -18138, 5178, 5339, 19, 14, 1529518146.826, 36, 0, 1024, 1024, 1024, 1024, 0, 6, 3806, 3808, 3818, 3829, 3832, 3813, 0, 1, 18700, -89.900, 0.000, 30.400, 0.000, 0.000, -2.800, 0.0, , , , , , 96, , , 41, 41, 41
38.5386953, -120.5235945, 39.600, 11:09:06.926, 17, 0.00, 0.44, 97, 2.600, 1.500, 30.100, 1173, 100, 94, 21, 22860, -18138, 5178, 5339, 19, 14, 1529518146.927, 6, 0, 1024, 1024, 1024, 1024, 0, 6, 3806, 3808, 3818, 3829, 3832, 3813, 0, 1, 18800, -89.900, 0.000, 30.400, 0.000, 0.000, -2.900, 0.0, , , , , , 96, , , 41, 41, 41
38.5386953, -120.5235944, 39.900, 11:09:07.026, 17, 0.00, 0.44, 97, 2.300, 1.500, 30.200, 1173, 100, 94, 21, 22860, -18138, 5178, 5339, 19, 14, 1529518147.026, 9, 0, 1024, 1024, 1024, 1024, 0, 6, 3806, 3808, 3818, 3829, 3832, 3813, 0, 1, 18900, -89.900, 0.000, 30.400, 0.000, 0.000, -2.900, 0.0, , , , , , 96, , , 41, 41, 41
38.5386953, -120.5235944, 39.900, 11:09:07.126, 17, 0.00, 0.44, 97, 2.300, 1.500, 30.200, 1173, 100, 94, 21, 22860, -18138, 5178, 5339, 19, 14, 1529518147.126, 109, 0, 1024, 1024, 1024, 1024, 0, 6, 3806, 3808, 3818, 3829, 3832, 3813, 0, 1, 19000, -89.900, 0.000, 30.400, 0.000, 0.000, -2.900, 0.0, , , , , , 96, , , 41, 41, 41
38.5386954, -120.5235945, 40.400, 11:09:07.226, 17, 0.00, 0.45, 97, 2.900, 1.900, 30.300, 1173, 100, 96, 21, 22882, -17701, 5178, 5339, 19, 14, 1529518147.226, 14, 0, 1024, 1024, 1024, 1024, 0, 6, 3806, 3808, 3818, 3829, 3832, 3813, 0, 1, 19100, -89.900, 0.000, 30.400, 0.000, 0.000, -2.900, 0.0, , , , , , 96, , , 41, 41, 41
38.5386954, -120.5235945, 40.400, 11:09:07.326, 17, 0.00, 0.45, 97, 2.900, 1.900, 30.300, 1173, 100, 96, 21, 22882, -17701, 5178, 5339, 19, 14, 1529518147.326, 114, 0, 1024, 1024, 1024, 1024, 0, 6, 3806, 3808, 3818, 3829, 3832, 3813, 0, 1, 19200, -89.900, 0.000, 30.400, 0.000, 0.000, -2.900, 0.0, , , , , , 96, , , 41, 41, 41
38.5386955, -120.5235945, 41.000, 11:09:07.426, 17, 0.00, 0.46, 97, 3.200, 2.100, 30.500, 1173, 100, 96, 21, 22882, -17701, 5178, 5339, 19, 14, 1529518147.426, 3, 0, 1024, 1024, 1024, 1024, 0, 6, 3806, 3808, 3818, 3829, 3832, 3813, 0, 1, 19300, -89.900, 0.000, 30.400, 0.000, 0.000, -2.900, 0.0, , , , , , 96, , , 41, 41, 41
38.5386955, -120.5235945, 41.000, 11:09:07.526, 17, 0.00, 0.46, 97, 3.200, 2.100, 30.500, 1173, 100, 96, 21, 22882, -17701, 5178, 5339, 19, 14, 1529518147.526, 103, 0, 1024, 1024, 1024, 1024, 0, 6, 3806, 3808, 3818, 3829, 3832, 3813, 0, 1, 19400, -89.900, 0.000, 30.400, 0.000, 0.000, -2.900, 0.0, , , , , , 96, , , 41, 41, 41
38.5386955, -120.5235945, 41.000, 11:09:07.626, 17, 0.00, 0.46, 97, 3.200, 2.100, 30.500, 1173, 100, 96, 21, 22882, -17701, 5178, 5339, 19, 14, 1529518147.626, 203, 0, 1024, 1024, 1024, 1024, 0, 6, 3806, 3808, 3818, 3829, 3832, 3813, 0, 1, 19500, -89.900, 0.000, 30.400, 0.000, 0.000, -2.900, 0.0, , , , , , 96, , , 41, 41, 41
38.5386955, -120.5235947, 41.600, 11:09:07.726, 17, 0.00, 0.47, 97, 3.200, 1.700, 30.600, 1173, 100, 96, 21, 22882, -17701, 5178, 5339, 19, 14, 1529518147.726, 87, 0, 1024, 1024, 1024, 1024, 0, 6, 3804, 3807, 3808, 3828, 3832, 3808, 0, 1, 19600, -89.900, 0.000, 30.400, 0.000, 0.000, -2.900, 0.0, , , , , , 96, , , 41, 41, 41
38.5386955, -120.5235947, 42.200, 11:09:07.826, 17, 0.00, 0.47, 97, 3.100, 1.500, 30.600, 1173, 100, 95, 21, 22882, -17701, 5178, 5339, 19, 14, 1529518147.826, 89, 0, 1024, 1024, 1024, 1024, 0, 6, 3804, 3807, 3808, 3828, 3832, 3808, 0, 1, 19700, -89.900, 0.000, 30.400, 0.000, 0.000, -2.900, 0.0, , , , , , 96, , , 41, 41, 41
38.5386955, -120.5235948, 42.500, 11:09:07.926, 17, 0.00, 0.47, 97, 2.800, 1.400, 30.600, 1173, 100, 95, 21, 22882, -17701, 5178, 5339, 19, 14, 1529518147.926, 94, 0, 1024, 1024, 1024, 1024, 0, 6, 3804, 3807, 3808, 3828, 3832, 3808, 0, 1, 19800, -90.000, 0.000, 30.400, 0.000, 0.000, -3.000, 0.0, , , , , , 96, , , 41, 41, 41
38.5386955, -120.5235948, 42.800, 11:09:08.026, 17, 0.00, 0.47, 97, 3.100, 1.300, 30.500, 1173, 100, 95, 21, 22882, -17701, 5178, 5339, 19, 14, 1529518148.026, 63, 0, 1024, 1024, 1024, 1024, 0, 6, 3804, 3807, 3808, 3828, 3832, 3808, 0, 1, 19900, -90.000, 0.000, 30.400, 0.000, 0.000, -3.000, 0.0, , , , , , 96, , , 41, 41, 41
38.5386954, -120.5235948, 43.100, 11:09:08.126, 17, 0.00, 0.47, 97, 3.100, 1.100, 30.300, 1173, 100, 95, 21, 22882, -17701, 5178, 5339, 19, 14, 1529518148.126, 67, 0, 1024, 1024, 1024, 1024, 0, 6, 3804, 3807, 3808, 3828, 3832, 3808, 0, 1, 20000, -89.900, 0.000, 30.400, 0.000, 0.000, -3.000, 0.0, , , , , , 96, , , 41, 41, 41
38.5386954, -120.5235948, 43.400, 11:09:08.226, 17, 0.00, 0.47, 97, 2.900, 1.200, 30.300, 1173, 100, 95, 21, 22882, -17701, 5178, 5339, 19, 14, 1529518148.226, 70, 0, 1024, 1024, 1024, 1024, 0, 6, 3804, 3807, 3808, 3828, 3832, 3808, 0, 1, 20100, -89.900, 0.000, 30.400, 0.000, 0.000, -3.100, 0.0, , , , , , 96, , , 41, 41, 41
38.5386954, -120.5235948, 43.700, 11:09:08.326, 17, 0.00, 0.47, 97, 2.700, 1.300, 30.300, 1173, 100, 95, 21, 22882, -17701, 5178, 5339, 19, 14, 1529518148.326, 51, 0, 1024, 1024, 1024, 1024, 0, 6, 3804, 3807, 3808, 3828, 3832, 3808, 0, 1, 20200, -89.900, 0.000, 30.400, 0.000, 0.000, -3.000, 0.0, , , , , , 96, , , 41, 41, 41
38.5386954, -120.5235947, 44.000, 11:09:08.426, 17, 0.00, 0.46, 97, 2.400, 1.300, 30.300, 1173, 100, 95, 21, 22882, -17701, 5178, 5339, 19, 14, 1529518148.426, 58, 0, 1024, 1024, 1024, 1024, 0, 6, 3804, 3807, 3808, 3828, 3832, 3808, 0, 1, 20300, -89.900, 0.000, 30.400, 0.000, 0.000, -3.000, 0.0, , , , , , 96, , , 41, 41, 41
38.5386953, -120.5235947, 44.400, 11:09:08.526, 17, 0.00, 0.46, 97, 2.200, 1.200, 30.400, 1173, 100, 95, 21, 22882, -17701, 5178, 5339, 19, 14, 1529518148.526, 63, 0, 1024, 1024, 1024, 1024, 0, 6, 3804, 3807, 3808, 3828, 3832, 3808, 0, 1, 20400, -89.900, 0.000, 30.400, 0.000, 0.000, -3.000, 0.0, , , , , , 96, , , 41, 41, 41
38.5386953, -120.5235947, 44.700, 11:09:08.626, 17, 0.00, 0.45, 97, 2.400, 1.100, 30.400, 1173, 100, 95, 21, 22765, -18911, 5178, 5339, 19, 14, 1529518148.626, 17, 0, 1024, 1024, 1024, 1024, 0, 6, 3768, 3768, 3786, 3785, 3808, 3778, 0, 1, 20500, -89.900, 0.000, 30.400, 0.000, 0.000, -3.000, 0.0, , , , , , 96, , , 41, 41, 41
38.5386953, -120.5235947, 45.000, 11:09:08.726, 17, 0.00, 0.45, 97, 2.400, 1.000, 30.400, 1173, 100, 92, 21, 22765, -18911, 5178, 5339, 19, 14, 1529518148.726, 32, 0, 1024, 1024, 1024, 1024, 0, 6, 3768, 3768, 3786, 3785, 3808, 3778, 0, 1, 20600, -90.000, 0.000, 30.400, 0.000, 0.000, -2.900, 0.0, , , , , , 96, , , 41, 41, 41
38.5386953, -120.5235946, 45.300, 11:09:08.826, 17, 0.00, 0.45, 97, 2.300, 1.000, 30.500, 1173, 100, 92, 21, 22765, -18911, 5178, 5339, 19, 14, 1529518148.826, 38, 0, 1024, 1024, 1024, 1024, 0, 6, 3768, 3768, 3786, 3785, 3808, 3778, 0, 1, 20700, -89.900, 0.000, 30.400, 0.000, 0.000, -2.900, 0.0, , , , , , 96, , , 41, 41, 41
38.5386953, -120.5235946, 45.600, 11:09:08.926, 17, 0.00, 0.45, 97, 2.400, 1.000, 30.500, 1173, 100, 92, 21, 22765, -18911, 5178, 5339, 19, 14, 1529518148.926, 29, 0, 1024, 1024, 1024, 1024, 0, 6, 3768, 3768, 3786, 3785, 3808, 3778, 0, 1, 20800, -89.900, 0.000, 30.400, 0.000, 0.000, -2.900, 0.0, , , , , , 96, , , 41, 41, 41
38.5386952, -120.5235946, 45.900, 11:09:09.026, 17, 0.00, 0.44, 97, 2.700, 1.100, 30.400, 1173, 100, 92, 21, 22765, -18911, 5178, 5339, 19, 14, 1529518149.026, 23, 0, 1024, 1024, 1024, 1024, 0, 6, 3768, 3768, 3786, 3785, 3808, 3778, 0, 1, 20900, -89.900, 0.000, 30.400, 0.000, 0.000, -2.900, 0.0, , , , , , 96, , , 41, 41, 41
38.5386952, -120.5235946, 46.200, 11:09:09.126, 17, 0.00, 0.44, 97, 2.900, 1.200, 30.300, 1173, 100, 92, 21, 22765, -18911, 5178, 5339, 19, 14, 1529518149.126, 24, 0, 1024, 1024, 1024, 1024, 0, 6, 3768, 3768, 3786, 3785, 3808, 3778, 0, 1, 21000, -89.900, 0.000, 30.400, 0.000, 0.000, -3.000, 0.0, , , , , , 96, , , 41, 41, 41
38.5386952, -120.5235945, 46.500, 11:09:09.226, 17, 0.00, 0.44, 97, 2.900, 1.600, 30.200, 1173, 100, 95, 21, 22765, -18911, 5178, 5339, 19, 14, 1529518149.226, 19, 0, 1024, 1024, 1024, 1024, 0, 6, 3768, 3768, 3786, 3785, 3808, 3778, 0, 1, 21100, -89.900, 0.000, 30.400, 0.000, 0.000, -3.000, 0.0, , , , , , 96, , , 41, 41, 41
