Latitude, Longitude, Altitude (m), Time, Sats, Speed (m/s), Range (m), Battery (%), Roll (deg), Pitch (deg), Yaw (deg), Images, HD Signal (%), RC Signal (%), Battery Temp (C), Battery Voltage (mV), Battery Current (mA), Battery Energy (mAh), Battery Capacity (mAh), Battery Discharges, flyState, timestamp (Unix), LastUpdate (ms), radioChannel, Rc_elevator, Rc_aileron, Rc_throttle, Rc_rudder, Rc_gyro, Dronetype, Battery_Cell1 (mV), Battery_Cell2 (mV), Battery_Cell3 (mV), Battery_Cell4 (mV), Battery_Cell5 (mV), Battery_Cell6 (mV), Video, isFlying, elapsedTime (ms), gimbalPitch (deg), gimbalRoll (deg), gimbalYaw (deg), VelocityX (m/s), VelocityY (m/s), VelocityZ (m/s), GroundSmear (cm), App Version, Aircraft Name, Aircraft Firmware, Aircraft Serial Number, Battery Serial Number, Battery Lifetime (%), App_Tip, App_Warning, CurrentFlightStartingIndex, CurrentFlightLastVisitedWaypoint, PreviousFlightEndingWaypointIndex
36.0257519, -118.5730104, -0.100, 14:22:00.801, 14, 0.28, 0.07, 97, 0.300, -1.600, 58.000, 2, 100, 100, 29, 25599, -3242, 5215, 5377, 17, 11, 1530739320.801, 73, 0, 1024, 1024, 1024, 1024, 0, 6, 4271, 4259, 4266, 4252, 4249, 4243, 0, 1, 3201, -89.900, 0.000, 59.600, 0.200, 0.200, -0.200, 0.1, MapPilot_2.8.1_04242018, Dendroctonus I, 1.3.1.00, 041DDC1887, 1058171200149, 96, DJI_0001.jpg, Starting Mission from Lat/Long: 36.02575/-118.57304 Camera: Zenmuse X3 - Overlap: 90/90 - Active Connection: No, 0, 0, 0
36.0257523, -118.5730097, 0.000, 14:22:00.901, 14, 0.28, 0.14, 97, -0.400, 0.700, 57.500, 2, 100, 100, 29, 25599, -3242, 5215, 5377, 17, 11, 1530739320.901, 73, 0, 1024, 1024, 1024, 1024, 0, 6, 4271, 4259, 4266, 4252, 4249, 4243, 0, 1, 3301, -89.900, 0.000, 59.600, 0.200, 0.200, -0.500, 0.0, , , , , , 96, , , 0, 0, 0
36.0257525, -118.5730094, 0.000, 14:22:01.001, 14, 0.28, 0.18, 97, -0.400, 1.600, 57.500, 2, 100, 100, 29, 25599, -3242, 5215, 5377, 17, 11, 1530739321.001, 83, 0, 1024, 1024, 1024, 1024, 0, 6, 4271, 4259, 4266, 4252, 4249, 4243, 0, 1, 3401, -89.900, 0.000, 59.600, 0.200, 0.200, -0.500, 0.0, , , , , , 96, , , 0, 0, 0
36.0257527, -118.5730092, 0.100, 14:22:01.101, 14, 0.28, 0.21, 97, 0.000, 2.400, 57.600, 2, 100, 100, 29, 25599, -3242, 5215, 5377, 17, 11, 1530739321.101, 62, 0, 1024, 1024, 1024, 1024, 0, 6, 4271, 4259, 4266, 4252, 4249, 4243, 0, 1, 3501, -89.900, 0.000, 59.600, 0.200, 0.200, -0.500, 0.0, , , , , , 96, , , 0, 0, 0
36.0257529, -118.5730090, 0.100, 14:22:01.201, 13, 0.22, 0.24, 97, 0.600, 2.900, 57.900, 2, 100, 100, 29, 25599, -3242, 5215, 5377, 17, 11, 1530739321.201, 52, 0, 1024, 1024, 1024, 1024, 0, 6, 4271, 4259, 4266, 4252, 4249, 4243, 0, 1, 3601, -89.900, 0.000, 59.600, 0.200, 0.100, -0.500, 0.0, , , , , , 96, , , 0, 0, 0
36.0257531, -118.5730088, 0.200, 14:22:01.301, 13, 0.22, 0.27, 97, 1.100, 2.900, 58.100, 2, 100, 99, 29, 24855, -12057, 5215, 5377, 17, 11, 1530739321.301, 46, 0, 1024, 1024, 1024, 1024, 0, 6, 4130, 4124, 4164, 4100, 4103, 4105, 0, 1, 3701, -89.900, 0.000, 59.500, 0.200, 0.100, -0.400, 0.0, , , , , , 96, , , 0, 0, 0
36.0257532, -118.5730086, 0.200, 14:22:01.401, 13, 0.14, 0.29, 97, 1.300, 2.600, 58.200, 2, 100, 99, 29, 24855, -12057, 5215, 5377, 17, 11, 1530739321.401, 48, 0, 1024, 1024, 1024, 1024, 0, 6, 4130, 4124, 4164, 4100, 4103, 4105, 0, 1, 3801, -89.900, 0.000, 59.500, 0.100, 0.100, -0.400, 0.0, , , , , , 96, , , 0, 0, 0
36.0257533, -118.5730084, 0.300, 14:22:01.500, 13, 0.10, 0.31, 97, 1.400, 2.200, 58.200, 2, 100, 99, 29, 24855, -12057, 5215, 5377, 17, 11, 1530739321.501, 50, 0, 1024, 1024, 1024, 1024, 0, 6, 4130, 4124, 4164, 4100, 4103, 4105, 0, 1, 3900, -89.900, 0.000, 59.500, 0.100, 0.000, -0.400, 0.0, , , , , , 96, , , 0, 0, 0
36.0257535, -118.5730082, 0.300, 14:22:01.600, 14, 0.10, 0.33, 97, 1.400, 1.900, 58.200, 2, 100, 99, 29, 24855, -12057, 5215, 5377, 17, 11, 1530739321.601, 42, 0, 1024, 1024, 1024, 1024, 0, 6, 4130, 4124, 4164, 4100, 4103, 4105, 0, 1, 4001, -89.900, 0.000, 59.400, 0.100, 0.000, -0.300, 0.0, , , , , , 96, , , 0, 0, 0
36.0257537, -118.5730081, 0.400, 14:22:01.700, 14, 0.10, 0.36, 97, 1.100, 1.400, 58.100, 2, 100, 99, 29, 24855, -12057, 5215, 5377, 17, 11, 1530739321.701, 48, 0, 1024, 1024, 1024, 1024, 0, 6, 4130, 4124, 4164, 4100, 4103, 4105, 0, 1, 4100, -90.000, 0.000, 59.400, 0.100, 0.000, -0.400, 0.0, , , , , , 96, , , 0, 0, 0
36.0257539, -118.5730080, 0.400, 14:22:01.801, 14, 0.10, 0.38, 97, 0.900, 1.000, 58.100, 2, 100, 99, 29, 24855, -12057, 5215, 5377, 17, 11, 1530739321.801, 42, 0, 1024, 1024, 1024, 1024, 0, 6, 4130, 4124, 4164, 4100, 4103, 4105, 0, 1, 4201, -90.000, 0.000, 59.400, 0.100, 0.000, -0.400, 0.0, , , , , , 96, , , 0, 0, 0
36.0257540, -118.5730079, 0.500, 14:22:01.900, 14, 0.10, 0.39, 97, 0.800, 0.900, 58.100, 2, 100, 99, 29, 24855, -12057, 5215, 5377, 17, 11, 1530739321.901, 47, 0, 1024, 1024, 1024, 1024, 0, 6, 4130, 4124, 4164, 4100, 4103, 4105, 0, 1, 4300, -90.000, 0.000, 59.400, 0.100, 0.000, -0.500, 0.0, , , , , , 96, , , 0, 0, 0
36.0257541, -118.5730079, 0.500, 14:22:02.001, 13, 0.10, 0.40, 97, 0.900, 1.000, 58.100, 2, 100, 99, 29, 24855, -12057, 5215, 5377, 17, 11, 1530739322.001, 27, 0, 1024, 1024, 1024, 1024, 0, 6, 4130, 4124, 4164, 4100, 4103, 4105, 0, 1, 4401, -89.900, 0.000, 59.400, 0.100, 0.000, -0.500, 0.0, , , , , , 96, , , 0, 0, 0
36.0257542, -118.5730078, 0.600, 14:22:02.100, 13, 0.10, 0.42, 97, 1.000, 1.100, 58.100, 2, 100, 99, 29, 24855, -12057, 5215, 5377, 17, 11, 1530739322.101, 24, 0, 1024, 1024, 1024, 1024, 0, 6, 4130, 4124, 4164, 4100, 4103, 4105, 0, 1, 4500, -89.900, 0.000, 59.300, 0.100, 0.000, -0.400, 0.0, , , , , , 96, , , 0, 0, 0
36.0257542, -118.5730078, 0.600, 14:22:02.200, 13, 0.10, 0.42, 97, 1.000, 1.100, 58.100, 2, 100, 99, 29, 24456, -16928, 5215, 5377, 17, 11, 1530739322.201, 124, 0, 1024, 1024, 1024, 1024, 0, 6, 4130, 4124, 4164, 4100, 4103, 4105, 0, 1, 4600, -89.900, 0.000, 59.300, 0.100, 0.000, -0.400, 0.0, , , , , , 96, , , 0, 0, 0
36.0257545, -118.5730078, 0.700, 14:22:02.301, 13, 0.00, 0.44, 97, 1.400, 1.300, 58.200, 2, 100, 99, 29, 24456, -16928, 5215, 5377, 17, 11, 1530739322.301, 21, 0, 1024, 1024, 1024, 1024, 0, 6, 4130, 4124, 4164, 4100, 4103, 4105, 0, 1, 4701, -89.900, 0.000, 59.300, 0.000, 0.000, -0.400, 0.0, , , , , , 96, , , 0, 0, 0
36.0257545, -118.5730078, 0.700, 14:22:02.400, 13, 0.00, 0.44, 97, 1.400, 1.300, 58.200, 2, 100, 99, 29, 24456, -16928, 5215, 5377, 17, 11, 1530739322.401, 121, 0, 1024, 1024, 1024, 1024, 0, 6, 4130, 4124, 4164, 4100, 4103, 4105, 0, 1, 4800, -89.900, 0.000, 59.300, 0.000, 0.000, -0.400, 0.0, , , , , , 96, , , 0, 0, 0
36.0257547, -118.5730079, 0.800, 14:22:02.500, 13, 0.00, 0.45, 97, 1.400, 1.400, 58.300, 2, 100, 99, 29, 24456, -16928, 5215, 5377, 17, 11, 1530739322.501, 18, 0, 1024, 1024, 1024, 1024, 0, 6, 4130, 4124, 4164, 4100, 4103, 4105, 0, 1, 4900, -89.900, 0.000, 59.300, 0.000, 0.000, -0.500, 0.0, , , , , , 96, , , 0, 0, 0
36.0257547, -118.5730080, 0.800, 14:22:02.600, 13, 0.00, 0.46, 97, 1.500, 1.400, 58.300, 2, 100, 99, 29, 24456, -16928, 5215, 5377, 17, 11, 1530739322.601, 10, 0, 1024, 1024, 1024, 1024, 0, 6, 4130, 4124, 4164, 4100, 4103, 4105, 0, 1, 5000, -89.900, 0.000, 59.300, 0.000, 0.000, -0.500, 0.0, , , , , , 96, , , 0, 0, 0
36.0257548, -118.5730080, 0.900, 14:22:02.700, 13, 0.00, 0.46, 97, 1.600, 1.300, 58.400, 2, 100, 99, 29, 24456, -16928, 5215, 5377, 17, 6, 1530739322.701, 10, 0, 1024, 1024, 1024, 1024, 0, 6, 4056, 4066, 4095, 4062, 4078, 4062, 0, 1, 5100, -89.900, 0.000, 59.300, 0.000, 0.000, -0.400, 0.0, , , , , , 96, , , 0, 0, 0
36.0257548, -118.5730081, 0.900, 14:22:02.800, 13, 0.00, 0.46, 97, 1.700, 1.100, 58.400, 2, 100, 88, 29, 24456, -16928, 5215, 5377, 17, 14, 1530739322.801, 7, 0, 1024, 1024, 1024, 1024, 0, 6, 4056, 4066, 4095, 4062, 4078, 4062, 0, 1, 5200, -90.000, 0.000, 59.300, 0.000, 0.000, -0.400, 0.0, , , , , , 96, , , 0, 0, 0
36.0257548, -118.5730081, 0.900, 14:22:02.900, 13, 0.00, 0.46, 97, 1.700, 1.100, 58.400, 2, 100, 88, 29, 24456, -16928, 5215, 5377, 17, 14, 1530739322.901, 107, 0, 1024, 1024, 1024, 1024, 0, 6, 4056, 4066, 4095, 4062, 4078, 4062, 0, 1, 5300, -90.000, 0.000, 59.300, 0.000, 0.000, -0.400, 0.0, , , , , , 96, , , 0, 0, 0
36.0257548, -118.5730082, 1.000, 14:22:03.000, 13, 0.00, 0.45, 97, 1.600, 0.400, 58.300, 2, 100, 88, 29, 24456, -16928, 5215, 5377, 17, 14, 1530739323.001, 89, 0, 1024, 1024, 1024, 1024, 0, 6, 4056, 4066, 4095, 4062, 4078, 4062, 0, 1, 5400, -90.000, 0.000, 59.300, 0.000, 0.000, -0.300, 0.0, , , , , , 96, , , 0, 0, 0
36.0257548, -118.5730082, 1.000, 14:22:03.100, 13, 0.00, 0.45, 97, 1.600, 0.400, 58.300, 2, 100, 88, 29, 24456, -16928, 5215, 5377, 17, 14, 1530739323.101, 189, 0, 1024, 1024, 1024, 1024, 0, 6, 4056, 4066, 4095, 4062, 4078, 4062, 0, 1, 5500, -90.000, 0.000, 59.300, 0.000, 0.000, -0.300, 0.0, , , , , , 96, , , 0, 0, 0
36.0257548, -118.5730084, 1.000, 14:22:03.201, 14, 0.00, 0.44, 97, 0.900, -0.600, 58.200, 2, 100, 88, 29, 24456, -16928, 5215, 5377, 17, 14, 1530739323.201, 92, 0, 1024, 1024, 1024, 1024, 0, 6, 4056, 4066, 4095, 4062, 4078, 4062, 0, 1, 5601, -90.000, 0.000, 59.300, 0.000, 0.000, -0.200, 0.0, , , , , , 96, , , 0, 0, 0
36.0257548, -118.5730085, 1.100, 14:22:03.300, 13, 0.00, 0.43, 97, 1.000, -0.600, 58.100, 2, 100, 88, 29, 24456, -16928, 5215, 5377, 17, 14, 1530739323.300, 82, 0, 1024, 1024, 1024, 1024, 0, 6, 4056, 4066, 4095, 4062, 4078, 4062, 0, 1, 5700, -90.000, 0.000, 59.300, 0.000, 0.000, -0.400, 0.0, , , , , , 96, , , 0, 0, 0
36.0257548, -118.5730086, 1.100, 14:22:03.400, 13, 0.00, 0.43, 97, 1.300, -0.500, 58.000, 2, 100, 85, 29, 24456, -16928, 5215, 5377, 17, 14, 1530739323.401, 73, 0, 1024, 1024, 1024, 1024, 0, 6, 4056, 4066, 4095, 4062, 4078, 4062, 0, 1, 5800, -90.000, 0.000, 59.300, 0.000, 0.000, -0.400, 0.0, , , , , , 96, , , 0, 0, 0
36.0257549, -118.5730087, 1.100, 14:22:03.500, 12, 0.00, 0.43, 97, 1.400, -0.200, 58.000, 2, 100, 85, 29, 24456, -16928, 5215, 5377, 17, 14, 1530739323.501, 74, 0, 1024, 1024, 1024, 1024, 0, 6, 4056, 4066, 4095, 4062, 4078, 4062, 0, 1, 5900, -89.900, 0.000, 59.300, 0.000, 0.000, -0.600, 0.0, , , , , , 96, , , 0, 0, 0
36.0257549, -118.5730087, 1.200, 14:22:03.600, 12, 0.00, 0.44, 97, 1.500, 0.000, 58.000, 2, 100, 85, 29, 24456, -16928, 5215, 5377, 17, 14, 1530739323.601, 68, 0, 1024, 1024, 1024, 1024, 0, 6, 4056, 4066, 4095, 4062, 4078, 4062, 0, 1, 6001, -89.900, 0.000, 59.300, 0.000, 0.000, -0.800, 0.0, , , , , , 96, , , 0, 0, 0
36.0257550, -118.5730087, 1.300, 14:22:03.700, 13, 0.00, 0.44, 97, 1.600, 0.100, 58.100, 2, 100, 85, 29, 24456, -16928, 5215, 5377, 17, 14, 1530739323.701, 60, 0, 1024, 1024, 1024, 1024, 0, 6, 4056, 4066, 4095, 4062, 4078, 4062, 0, 1, 6100, -89.900, 0.000, 59.300, 0.000, 0.000, -0.900, 0.0, , , , , , 96, , , 0, 0, 0
36.0257550, -118.5730088, 1.500, 14:22:03.800, 12, 0.00, 0.44, 97, 1.600, 0.000, 58.500, 2, 100, 85, 29, 24334, -17036, 5215, 5377, 17, 14, 1530739323.801, 72, 0, 1024, 1024, 1024, 1024, 0, 6, 4038, 4042, 4074, 4053, 4068, 4058, 0, 1, 6201, -89.900, 0.000, 59.300, 0.000, 0.000, -1.400, 0.0, , , , , , 96, , , 0, 0, 0
36.0257550, -118.5730088, 1.700, 14:22:03.900, 12, 0.00, 0.44, 97, 1.100, 0.000, 58.700, 2, 100, 94, 29, 24334, -17036, 5215, 5377, 17, 14, 1530739323.901, 65, 0, 1024, 1024, 1024, 1024, 0, 6, 4038, 4042, 4074, 4053, 4068, 4058, 0, 1, 6300, -90.000, 0.000, 59.300, 0.000, 0.000, -1.600, 0.0, , , , , , 96, , , 0, 0, 0
36.0257550, -118.5730088, 1.800, 14:22:04.000, 13, 0.00, 0.44, 97, 0.800, 0.100, 58.900, 2, 100, 94, 29, 24334, -17036, 5215, 5377, 17, 14, 1530739324.001, 49, 0, 1024, 1024, 1024, 1024, 0, 6, 4038, 4042, 4074, 4053, 4068, 4058, 0, 1, 6400, -89.900, 0.000, 59.300, 0.000, 0.000, -1.900, 0.0, , , , , , 96, , , 0, 0, 0
36.0257549, -118.5730088, 2.000, 14:22:04.100, 13, 0.00, 0.43, 97, 0.800, 0.300, 59.100, 2, 100, 94, 29, 24334, -17036, 5215, 5377, 17, 14, 1530739324.101, 48, 0, 1024, 1024, 1024, 1024, 0, 6, 4038, 4042, 4074, 4053, 4068, 4058, 0, 1, 6500, -89.900, 0.000, 59.300, 0.000, 0.000, -2.100, 0.0, , , , , , 96, , , 0, 0, 0
36.0257548, -118.5730088, 2.300, 14:22:04.200, 13, 0.00, 0.42, 97, 0.900, 0.300, 59.200, 2, 100, 94, 29, 24334, -17036, 5215, 5377, 17, 14, 1530739324.200, 43, 0, 1024, 1024, 1024, 1024, 0, 6, 4038, 4042, 4074, 4053, 4068, 4058, 0, 1, 6600, -89.900, 0.000, 59.300, 0.000, 0.000, -2.400, 0.0, , , , , , 96, , , 0, 0, 0
36.0257547, -118.5730089, 2.600, 14:22:04.300, 13, 0.00, 0.41, 97, 0.700, 0.200, 59.200, 2, 100, 96, 29, 24334, -17036, 5215, 5377, 17, 14, 1530739324.301, 33, 0, 1024, 1024, 1024, 1024, 0, 6, 4038, 4042, 4074, 4053, 4068, 4058, 0, 1, 6700, -89.900, 0.000, 59.300, 0.000, 0.000, -2.700, 0.0, , , , , , 96, , , 0, 0, 0
36.0257546, -118.5730089, 2.900, 14:22:04.400, 11, 0.00, 0.40, 97, 0.300, 0.000, 59.100, 2, 100, 96, 29, 24334, -17036, 5215, 5377, 17, 14, 1530739324.401, 39, 0, 1024, 1024, 1024, 1024, 0, 6, 4038, 4042, 4074, 4053, 4068, 4058, 0, 1, 6800, -90.000, 0.000, 59.300, 0.000, 0.000, -2.800, 0.0, , , , , , 96, , , 0, 0, 0
36.0257546, -118.5730087, 3.200, 14:22:04.500, 11, 0.00, 0.41, 97, 0.100, 0.000, 59.000, 2, 100, 96, 29, 24334, -17036, 5215, 5377, 17, 14, 1530739324.501, 20, 0, 1024, 1024, 1024, 1024, 0, 6, 4038, 4042, 4074, 4053, 4068, 4058, 0, 1, 6900, -90.000, 0.000, 59.300, 0.000, 0.000, -3.100, 0.0, , , , , , 96, , , 0, 0, 0
36.0257547, -118.5730085, 3.500, 14:22:04.600, 11, 0.00, 0.42, 97, 0.100, 0.400, 58.900, 2, 100, 96, 29, 24334, -17036, 5215, 5377, 17, 14, 1530739324.601, 24, 0, 1024, 1024, 1024, 1024, 0, 6, 4038, 4042, 4074, 4053, 4068, 4058, 0, 1, 7000, -89.900, 0.000, 59.300, 0.000, 0.000, -3.100, 0.0, , , , , , 96, , , 0, 0, 0
36.0257547, -118.5730082, 3.900, 14:22:04.700, 11, 0.00, 0.44, 97, 0.200, 0.900, 58.700, 2, 100, 96, 29, 24056, -19389, 5215, 5377, 17, 14, 1530739324.701, 18, 0, 1024, 1024, 1024, 1024, 0, 6, 3985, 3973, 4018, 3981, 3979, 3999, 0, 1, 7100, -89.900, 0.000, 59.300, 0.000, 0.000, -3.200, 0.0, , , , , , 96, , , 0, 0, 0
36.0257547, -118.5730080, 4.200, 14:22:04.800, 13, 0.00, 0.45, 97, 0.300, 1.300, 58.600, 2, 100, 100, 29, 24056, -19389, 5215, 5377, 17, 14, 1530739324.801, 27, 0, 1024, 1024, 1024, 1024, 0, 6, 3985, 3973, 4018, 3981, 3979, 3999, 0, 1, 7200, -89.900, 0.000, 59.300, 0.000, 0.000, -3.100, 0.0, , , , , , 96, , , 0, 0, 0
36.0257547, -118.5730080, 4.500, 14:22:04.900, 13, 0.00, 0.46, 97, 0.300, 1.600, 58.500, 2, 100, 100, 29, 24056, -19389, 5215, 5377, 17, 14, 1530739324.901, 28, 0, 1024, 1024, 1024, 1024, 0, 6, 3985, 3973, 4018, 3981, 3979, 3999, 0, 1, 7301, -89.900, 0.000, 59.300, 0.000, 0.000, -3.200, 0.0, , , , , , 96, , , 0, 0, 0
36.0257547, -118.5730079, 4.800, 14:22:05.000, 14, 0.00, 0.46, 97, 0.400, 1.500, 58.500, 2, 100, 100, 29, 24056, -19389, 5215, 5377, 17, 14, 1530739325.001, 16, 0, 1024, 1024, 1024, 1024, 0, 6, 3985, 3973, 4018, 3981, 3979, 3999, 0, 1, 7401, -89.900, 0.000, 59.300, 0.000, 0.000, -3.200, 0.0, , , , , , 96, , , 0, 0, 0
36.0257547, -118.5730079, 4.800, 14:22:05.100, 14, 0.00, 0.46, 97, 0.400, 1.500, 58.500, 2, 100, 100, 29, 24056, -19389, 5215, 5377, 17, 14, 1530739325.100, 116, 0, 1024, 1024, 1024, 1024, 0, 6, 3985, 3973, 4018, 3981, 3979, 3999, 0, 1, 7500, -89.900, 0.000, 59.300, 0.000, 0.000, -3.200, 0.0, , , , , , 96, , , 0, 0, 0
36.0257546, -118.5730079, 5.500, 14:22:05.200, 13, 0.00, 0.45, 97, 0.500, 0.800, 58.500, 2, 100, 100, 29, 24056, -19389, 5215, 5377, 17, 14, 1530739325.200, 2, 0, 1024, 1024, 1024, 1024, 0, 6, 3985, 3973, 4018, 3981, 3979, 3999, 0, 1, 7600, -90.000, 0.000, 59.300, 0.000, 0.000, -3.200, 0.0, , , , , , 96, , , 0, 0, 0
36.0257544, -118.5730079, 5.800, 14:22:05.300, 13, 0.00, 0.43, 97, 0.400, 0.500, 58.400, 2, 100, 100, 29, 24056, -19389, 5215, 5377, 17, 14, 1530739325.300, 2, 0, 1024, 1024, 1024, 1024, 0, 6, 3985, 3973, 4018, 3981, 3979, 3999, 0, 1, 7700, -90.000, 0.000, 59.200, 0.000, 0.000, -3.200, 0.0, , , , , , 96, , , 0, 0, 0
36.0257544, -118.5730079, 5.800, 14:22:05.400, 13, 0.00, 0.43, 97, 0.400, 0.500, 58.400, 2, 100, 100, 29, 24056, -19389, 5215, 5377, 17, 14, 1530739325.400, 102, 0, 1024, 1024, 1024, 1024, 0, 6, 3985, 3973, 4018, 3981, 3979, 3999, 0, 1, 7800, -90.000, 0.000, 59.200, 0.000, 0.000, -3.200, 0.0, , , , , , 96, , , 0, 0, 0
36.0257543, -118.5730080, 6.200, 14:22:05.500, 13, 0.00, 0.42, 97, 0.200, 0.100, 58.200, 2, 100, 100, 29, 24056, -19389, 5215, 5377, 17, 14, 1530739325.500, 94, 0, 1024, 1024, 1024, 1024, 0, 6, 3985, 3973, 4018, 3981, 3979, 3999, 0, 1, 7900, -90.000, 0.000, 59.300, 0.000, 0.000, -3.200, 0.0, , , , , , 96, , , 0, 0, 0
36.0257543, -118.5730082, 6.500, 14:22:05.600, 13, 0.00, 0.40, 97, 0.100, -0.100, 58.100, 2, 100, 100, 29, 24056, -19389, 5215, 5377, 17, 14, 1530739325.600, 86, 0, 1024, 1024, 1024, 1024, 0, 6, 3985, 3973, 4018, 3981, 3979, 3999, 0, 1, 8000, -90.000, 0.000, 59.300, 0.000, 0.000, -3.200, 0.0, , , , , , 96, , , 0, 0, 0
36.0257542, -118.5730084, 6.800, 14:22:05.700, 13, 0.00, 0.39, 97, 0.200, -0.300, 58.100, 2, 100, 100, 29, 24056, -19389, 5215, 5377, 17, 14, 1530739325.700, 86, 0, 1024, 1024, 1024, 1024, 0, 6, 3985, 3973, 4018, 3981, 3979, 3999, 0, 1, 8100, -90.000, 0.000, 59.300, 0.000, 0.000, -3.200, 0.0, , , , , , 96, , , 0, 0, 0
36.0257541, -118.5730086, 7.200, 14:22:05.800, 13, 0.00, 0.37, 97, 0.400, -0.500, 58.100, 2, 100, 100, 29, 23717, -23927, 5161, 5377, 17, 14, 1530739325.800, 90, 0, 1024, 1024, 1024, 1024, 0, 6, 3927, 3941, 4001, 3973, 3989, 3978, 0, 1, 8200, -90.000, 0.000, 59.300, 0.000, 0.000, -3.200, 0.0, , , , , , 96, , , 0, 0, 0
36.0257541, -118.5730088, 7.500, 14:22:05.900, 13, 0.00, 0.35, 97, 0.600, -0.700, 58.100, 2, 100, 100, 29, 23717, -23927, 5161, 5377, 17, 14, 1530739325.900, 68, 0, 1024, 1024, 1024, 1024, 0, 6, 3927, 3941, 4001, 3973, 3989, 3978, 0, 1, 8300, -90.000, 0.000, 59.300, 0.000, 0.000, -3.100, 0.0, , , , , , 96, , , 0, 0, 0
36.0257541, -118.5730092, 8.200, 14:22:06.000, 13, 0.00, 0.34, 97, 0.700, -0.900, 58.400, 2, 100, 100, 29, 23717, -23927, 5161, 5377, 17, 14, 1530739326.000, 60, 0, 1024, 1024, 1024, 1024, 0, 6, 3927, 3941, 4001, 3973, 3989, 3978, 0, 1, 8400, -90.000, 0.000, 59.300, 0.000, 0.000, -3.200, 0.0, , , , , , 96, , , 0, 0, 0
36.0257542, -118.5730094, 8.500, 14:22:06.100, 13, 0.00, 0.34, 97, 1.000, -0.900, 58.600, 2, 100, 100, 29, 23717, -23927, 5161, 5377, 17, 14, 1530739326.101, 59, 0, 1024, 1024, 1024, 1024, 0, 6, 3927, 3941, 4001, 3973, 3989, 3978, 0, 1, 8500, -90.000, 0.000, 59.300, 0.000, 0.000, -3.200, 0.0, , , , , , 96, , , 0, 0, 0
36.0257542, -118.5730096, 8.800, 14:22:06.200, 13, 0.00, 0.34, 97, 1.300, -0.700, 58.800, 2, 100, 100, 29, 23717, -23927, 5161, 5377, 17, 14, 1530739326.200, 63, 0, 1024, 1024, 1024, 1024, 0, 6, 3927, 3941, 4001, 3973, 3989, 3978, 0, 1, 8600, -90.000, 0.000, 59.300, 0.000, 0.000, -3.100, 0.0, , , , , , 96, , , 0, 0, 0
36.0257543, -118.5730098, 9.100, 14:22:06.299, 13, 0.00, 0.33, 96, 1.500, -0.600, 58.900, 2, 100, 100, 29, 23717, -23927, 5161, 5377, 17, 14, 1530739326.300, 44, 0, 1024, 1024, 1024, 1024, 0, 6, 3927, 3941, 4001, 3973, 3989, 3978, 0, 1, 8700, -90.000, 0.000, 59.300, 0.000, 0.000, -3.000, 0.0, , , , , , 96, , , 0, 0, 0
36.0257543, -118.5730099, 9.400, 14:22:06.400, 13, 0.00, 0.33, 96, 1.500, -0.600, 58.900, 2, 100, 100, 29, 23717, -23927, 5161, 5377, 17, 14, 1530739326.400, 35, 0, 1024, 1024, 1024, 1024, 0, 6, 3927, 3941, 4001, 3973, 3989, 3978, 0, 1, 8800, -90.000, 0.000, 59.300, 0.000, 0.000, -3.000, 0.0, , , , , , 96, , , 0, 0, 0
36.0257544, -118.5730100, 9.800, 14:22:06.500, 13, 0.00, 0.34, 96, 1.400, -0.800, 58.900, 2, 100, 100, 29, 23717, -23927, 5161, 5377, 17, 14, 1530739326.500, 32, 0, 1024, 1024, 1024, 1024, 0, 6, 3927, 3941, 4001, 3973, 3989, 3978, 0, 1, 8900, -89.900, 0.000, 59.300, 0.000, 0.000, -3.000, 0.0, , , , , , 96, , , 0, 0, 0
36.0257544, -118.5730101, 10.100, 14:22:06.600, 13, 0.00, 0.34, 96, 1.500, -0.800, 58.900, 2, 100, 100, 29, 23717, -23927, 5161, 5377, 17, 14, 1530739326.601, 35, 0, 1024, 1024, 1024, 1024, 0, 6, 3927, 3941, 4001, 3973, 3989, 3978, 0, 1, 9000, -90.000, 0.000, 59.300, 0.000, 0.000, -3.100, 0.0, , , , , , 96, , , 0, 0, 0
36.0257544, -118.5730103, 10.400, 14:22:06.700, 13, 0.00, 0.34, 96, 1.700, -0.700, 58.800, 2, 100, 100, 29, 24027, -18952, 5161, 5377, 17, 14, 1530739326.701, 21, 0, 1024, 1024, 1024, 1024, 0, 6, 3988, 3991, 4028, 4009, 4022, 4003, 0, 1, 9101, -89.900, 0.000, 59.300, 0.000, 0.000, -3.100, 0.0, , , , , , 96, , , 0, 0, 0
36.0257545, -118.5730103, 10.700, 14:22:06.800, 13, 0.00, 0.34, 96, 1.700, -0.600, 58.600, 2, 100, 100, 29, 24027, -18952, 5161, 5377, 17, 14, 1530739326.801, 46, 0, 1024, 1024, 1024, 1024, 0, 6, 3988, 3991, 4028, 4009, 4022, 4003, 0, 1, 9200, -89.900, 0.000, 59.300, 0.000, 0.000, -3.000, 0.0, , , , , , 96, , , 0, 0, 0
36.0257546, -118.5730103, 11.000, 14:22:06.899, 13, 0.00, 0.36, 96, 1.600, -0.400, 58.500, 2, 100, 100, 29, 24027, -18952, 5161, 5377, 17, 14, 1530739326.900, 41, 0, 1024, 1024, 1024, 1024, 0, 6, 3988, 3991, 4028, 4009, 4022, 4003, 0, 1, 9300, -89.900, 0.000, 59.300, 0.000, 0.000, -3.000, 0.0, , , , , , 96, , , 0, 0, 0
36.0257547, -118.5730103, 11.300, 14:22:07.000, 13, 0.00, 0.37, 96, 1.500, -0.200, 58.500, 2, 100, 100, 29, 24027, -18952, 5161, 5377, 17, 14, 1530739327.001, 21, 0, 1024, 1024, 1024, 1024, 0, 6, 3988, 3991, 4028, 4009, 4022, 4003, 0, 1, 9400, -89.900, 0.000, 59.300, 0.000, 0.000, -3.000, 0.0, , , , , , 96, , , 0, 0, 0
36.0257547, -118.5730103, 11.600, 14:22:07.100, 13, 0.00, 0.37, 96, 1.400, 0.000, 58.500, 2, 100, 100, 29, 24027, -18952, 5161, 5377, 17, 14, 1530739327.100, 36, 0, 1024, 1024, 1024, 1024, 0, 6, 3988, 3991, 4028, 4009, 4022, 4003, 0, 1, 9500, -89.900, 0.000, 59.300, 0.000, 0.000, -3.000, 0.0, , , , , , 96, , , 0, 0, 0
36.0257548, -118.5730102, 11.900, 14:22:07.200, 13, 0.10, 0.38, 96, 1.200, 0.100, 58.500, 2, 100, 100, 29, 24027, -18952, 5161, 5377, 17, 14, 1530739327.201, 6, 0, 1024, 1024, 1024, 1024, 0, 6, 3988, 3991, 4028, 4009, 4022, 4003, 0, 1, 9601, -89.900, 0.000, 59.300, 0.000, 0.100, -2.900, 0.0, , , , , , 96, , , 0, 0, 0
36.0257549, -118.5730102, 12.200, 14:22:07.300, 13, 0.10, 0.39, 96, 1.100, 0.200, 58.500, 2, 100, 99, 29, 24027, -18952, 5161, 5377, 17, 14, 1530739327.301, 8, 0, 1024, 1024, 1024, 1024, 0, 6, 3988, 3991, 4028, 4009, 4022, 4003, 0, 1, 9701, -89.900, 0.000, 59.300, 0.000, 0.100, -2.900, 0.0, , , , , , 96, , , 0, 0, 0
36.0257549, -118.5730101, 12.500, 14:22:07.401, 13, 0.10, 0.40, 96, 1.100, 0.500, 58.400, 2, 100, 99, 29, 24027, -18952, 5161, 5377, 17, 14, 1530739327.401, 1, 0, 1024, 1024, 1024, 1024, 0, 6, 3988, 3991, 4028, 4009, 4022, 4003, 0, 1, 9801, -89.900, 0.000, 59.300, 0.000, 0.100, -2.900, 0.0, , , , , , 96, , , 0, 0, 0
36.0257550, -118.5730101, 12.800, 14:22:07.500, 13, 0.10, 0.40, 96, 1.100, 0.700, 58.300, 2, 100, 99, 29, 24027, -18952, 5161, 5377, 17, 14, 1530739327.501, 15, 0, 1024, 1024, 1024, 1024, 0, 6, 3988, 3991, 4028, 4009, 4022, 4003, 0, 1, 9900, -89.900, 0.000, 59.300, 0.000, 0.100, -2.900, 0.0, , , , , , 96, , , 0, 0, 0
36.0257550, -118.5730100, 13.100, 14:22:07.600, 13, 0.10, 0.41, 96, 1.200, 0.900, 58.200, 2, 100, 99, 29, 24027, -18952, 5161, 5377, 17, 14, 1530739327.601, 16, 0, 1024, 1024, 1024, 1024, 0, 6, 3988, 3991, 4028, 4009, 4022, 4003, 0, 1, 10000, -89.900, 0.000, 59.300, 0.000, 0.100, -2.900, 0.0, , , , , , 96, , , 0, 0, 0
36.0257550, -118.5730100, 13.100, 14:22:07.699, 13, 0.10, 0.41, 96, 1.200, 0.900, 58.200, 2, 100, 99, 29, 24027, -18952, 5161, 5377, 17, 14, 1530739327.700, 115, 0, 1024, 1024, 1024, 1024, 0, 6, 3988, 3991, 4028, 4009, 4022, 4003, 0, 1, 10100, -89.900, 0.000, 59.300, 0.000, 0.100, -2.900, 0.0, , , , , , 96, , , 0, 0, 0
36.0257551, -118.5730099, 13.500, 14:22:07.800, 13, 0.10, 0.42, 96, 1.100, 1.000, 58.100, 2, 100, 99, 29, 24042, -18172, 5161, 5377, 17, 14, 1530739327.801, 93, 0, 1024, 1024, 1024, 1024, 0, 6, 3988, 3991, 4028, 4009, 4022, 4003, 0, 1, 10200, -89.900, 0.000, 59.300, 0.000, 0.100, -2.900, 0.0, , , , , , 96, , , 0, 0, 0
36.0257551, -118.5730098, 13.800, 14:22:07.900, 13, 0.10, 0.42, 96, 0.900, 0.900, 58.000, 2, 100, 99, 29, 24042, -18172, 5161, 5377, 17, 14, 1530739327.900, 98, 0, 1024, 1024, 1024, 1024, 0, 6, 3988, 3991, 4028, 4009, 4022, 4003, 0, 1, 10300, -89.900, 0.000, 59.300, 0.000, 0.100, -2.900, 0.0, , , , , , 96, , , 0, 0, 0
36.0257551, -118.5730098, 14.100, 14:22:08.000, 13, 0.00, 0.43, 96, 0.800, 0.800, 58.000, 2, 100, 99, 29, 24042, -18172, 5161, 5377, 17, 14, 1530739328.001, 78, 0, 1024, 1024, 1024, 1024, 0, 6, 3988, 3991, 4028, 4009, 4022, 4003, 0, 1, 10400, -89.900, 0.000, 59.300, 0.000, 0.000, -3.000, 0.0, , , , , , 96, , , 0, 0, 0
36.0257552, -118.5730098, 14.400, 14:22:08.100, 13, 0.00, 0.43, 96, 0.900, 0.900, 58.000, 2, 100, 99, 29, 24042, -18172, 5161, 5377, 17, 14, 1530739328.100, 83, 0, 1024, 1024, 1024, 1024, 0, 6, 3988, 3991, 4028, 4009, 4022, 4003, 0, 1, 10500, -89.900, 0.000, 59.300, 0.000, 0.000, -2.900, 0.0, , , , , , 96, , , 0, 0, 0
36.0257552, -118.5730097, 14.700, 14:22:08.200, 13, 0.00, 0.44, 96, 1.100, 0.900, 57.900, 2, 100, 99, 29, 24042, -18172, 5161, 5377, 17, 14, 1530739328.200, 96, 0, 1024, 1024, 1024, 1024, 0, 6, 3988, 3991, 4028, 4009, 4022, 4003, 0, 1, 10600, -89.900, 0.000, 59.300, 0.000, 0.000, -2.900, 0.0, , , , , , 96, , , 0, 0, 0
36.0257552, -118.5730096, 15.000, 14:22:08.300, 13, 0.00, 0.44, 96, 1.000, 0.900, 57.900, 2, 100, 99, 29, 24042, -18172, 5161, 5377, 17, 14, 1530739328.300, 84, 0, 1024, 1024, 1024, 1024, 0, 6, 3991, 3996, 4024, 4010, 4029, 4003, 0, 1, 10700, -89.900, 0.000, 59.300, 0.000, 0.000, -2.900, 0.0, , , , , , 96, , , 0, 0, 0
36.0257553, -118.5730095, 15.300, 14:22:08.400, 13, 0.00, 0.45, 96, 1.000, 0.900, 58.000, 2, 100, 99, 29, 24042, -18172, 5161, 5377, 17, 14, 1530739328.400, 87, 0, 1024, 1024, 1024, 1024, 0, 6, 3991, 3996, 4024, 4010, 4029, 4003, 0, 1, 10800, -89.900, 0.000, 59.300, 0.000, 0.000, -2.900, 0.0, , , , , , 96, , , 0, 0, 0
36.0257553, -118.5730095, 15.600, 14:22:08.500, 14, 0.00, 0.45, 96, 0.900, 0.900, 58.100, 2, 100, 99, 29, 24042, -18172, 5161, 5377, 17, 14, 1530739328.500, 60, 0, 1024, 1024, 1024, 1024, 0, 6, 3991, 3996, 4024, 4010, 4029, 4003, 0, 1, 10900, -89.900, 0.000, 59.300, 0.000, 0.000, -2.900, 0.0, , , , , , 96, , , 0, 0, 0
36.0257553, -118.5730093, 16.200, 14:22:08.600, 14, 0.00, 0.46, 96, 0.800, 0.700, 58.300, 2, 100, 99, 29, 24042, -18172, 5161, 5377, 17, 14, 1530739328.600, 71, 0, 1024, 1024, 1024, 1024, 0, 6, 3991, 3996, 4024, 4010, 4029, 4003, 0, 1, 11000, -89.900, 0.000, 59.300, 0.000, 0.000, -2.900, 0.0, , , , , , 96, , , 0, 0, 0
36.0257553, -118.5730092, 16.500, 14:22:08.700, 14, 0.00, 0.46, 96, 0.800, 0.700, 58.300, 2, 100, 99, 29, 24042, -18172, 5161, 5377, 17, 14, 1530739328.700, 68, 0, 1024, 1024, 1024, 1024, 0, 6, 3991, 3996, 4024, 4010, 4029, 4003, 0, 1, 11100, -89.900, 0.000, 59.300, 0.000, 0.000, -2.900, 0.0, , , , , , 96, , , 0, 0, 0
36.0257553, -118.5730091, 16.800, 14:22:08.800, 14, 0.10, 0.47, 96, 0.800, 1.000, 58.200, 2, 100, 99, 29, 24042, -18172, 5161, 5377, 17, 14, 1530739328.800, 70, 0, 1024, 1024, 1024, 1024, 0, 6, 3991, 3996, 4024, 4010, 4029, 4003, 0, 1, 11200, -89.900, 0.000, 59.300, 0.000, 0.100, -2.900, 0.0, , , , , , 96, , , 0, 0, 0
36.0257553, -118.5730090, 17.100, 14:22:08.900, 14, 0.10, 0.47, 96, 0.700, 1.300, 58.200, 2, 100, 99, 29, 24042, -18172, 5161, 5377, 17, 14, 1530739328.900, 64, 0, 1024, 1024, 1024, 1024, 0, 6, 3991, 3996, 4024, 4010, 4029, 4003, 0, 1, 11300, -89.900, 0.000, 59.300, 0.000, 0.100, -2.900, 0.0, , , , , , 96, , , 0, 0, 0
36.0257553, -118.5730090, 17.100, 14:22:09.000, 14, 0.10, 0.47, 96, 0.700, 1.300, 58.200, 2, 100, 99, 29, 24042, -18172, 5161, 5377, 17, 14, 1530739329.000, 164, 0, 1024, 1024, 1024, 1024, 0, 6, 3991, 3996, 4024, 4010, 4029, 4003, 0, 1, 11400, -89.900, 0.000, 59.300, 0.000, 0.100, -2.900, 0.0, , , , , , 96, , , 0, 0, 0
36.0257553, -118.5730088, 17.700, 14:22:09.100, 14, 0.00, 0.48, 96, 0.600, 1.500, 58.300, 2, 100, 99, 29, 24042, -18172, 5161, 5377, 17, 14, 1530739329.100, 30, 0, 1024, 1024, 1024, 1024, 0, 6, 3991, 3996, 4024, 4010, 4029, 4003, 0, 1, 11500, -89.900, 0.000, 59.300, 0.000, 0.000, -2.900, 0.0, , , , , , 96, , , 0, 0, 0
36.0257553, -118.5730087, 17.900, 14:22:09.200, 14, 0.00, 0.48, 96, 0.600, 1.500, 58.400, 2, 100, 99, 29, 24009, -18206, 5161, 5377, 17, 14, 1530739329.200, 33, 0, 1024, 1024, 1024, 1024, 0, 6, 3978, 3985, 4027, 4000, 4010, 4001, 0, 1, 11600, -89.900, 0.000, 59.300, 0.000, 0.000, -2.900, 0.0, , , , , , 96, , , 0, 0, 0
36.0257553, -118.5730086, 18.300, 14:22:09.300, 14, 0.00, 0.48, 96, 0.700, 1.300, 58.600, 2, 100, 95, 29, 24009, -18206, 5161, 5377, 17, 14, 1530739329.300, 36, 0, 1024, 1024, 1024, 1024, 0, 6, 3978, 3985, 4027, 4000, 4010, 4001, 0, 1, 11700, -89.900, 0.000, 59.300, 0.000, 0.000, -3.000, 0.0, , , , , , 96, , , 0, 0, 0
36.0257552, -118.5730086, 18.600, 14:22:09.399, 14, 0.00, 0.48, 96, 0.700, 1.200, 58.700, 2, 100, 95, 29, 24009, -18206, 5161, 5377, 17, 14, 1530739329.400, 26, 0, 1024, 1024, 1024, 1024, 0, 6, 3978, 3985, 4027, 4000, 4010, 4001, 0, 1, 11799, -89.900, 0.000, 59.300, 0.000, 0.000, -3.000, 0.0, , , , , , 96, , , 0, 0, 0
36.0257552, -118.5730085, 18.900, 14:22:09.500, 14, 0.00, 0.48, 96, 0.500, 1.100, 58.800, 2, 100, 95, 29, 24009, -18206, 5161, 5377, 17, 14, 1530739329.500, 30, 0, 1024, 1024, 1024, 1024, 0, 6, 3978, 3985, 4027, 4000, 4010, 4001, 0, 1, 11900, -89.900, 0.000, 59.300, 0.000, 0.000, -3.000, 0.0, , , , , , 96, , , 0, 0, 0
36.0257552, -118.5730084, 19.200, 14:22:09.600, 14, 0.00, 0.48, 96, 0.300, 1.100, 58.900, 2, 100, 95, 29, 24009, -18206, 5161, 5377, 17, 14, 1530739329.600, 30, 0, 1024, 1024, 1024, 1024, 0, 6, 3978, 3985, 4027, 4000, 4010, 4001, 0, 1, 12000, -89.900, 0.000, 59.300, 0.000, 0.000, -3.000, 0.0, , , , , , 96, , , 0, 0, 0
36.0257551, -118.5730083, 19.500, 14:22:09.700, 14, 0.00, 0.48, 96, 0.000, 1.000, 58.900, 2, 100, 95, 29, 24009, -18206, 5161, 5377, 17, 14, 1530739329.700, 33, 0, 1024, 1024, 1024, 1024, 0, 6, 3978, 3985, 4027, 4000, 4010, 4001, 0, 1, 12100, -89.900, 0.000, 59.300, 0.000, 0.000, -2.900, 0.0, , , , , , 96, , , 0, 0, 0
36.0257551, -118.5730083, 19.800, 14:22:09.800, 14, 0.00, 0.47, 96, -0.100, 0.900, 58.900, 2, 100, 94, 29, 24009, -18206, 5161, 5377, 17, 14, 1530739329.800, 35, 0, 1024, 1024, 1024, 1024, 0, 6, 3978, 3985, 4027, 4000, 4010, 4001, 0, 1, 12200, -89.900, 0.000, 59.300, 0.000, 0.000, -2.900, 0.0, , , , , , 96, , , 0, 0, 0
36.0257551, -118.5730082, 20.100, 14:22:09.900, 14, 0.00, 0.47, 96, 0.000, 0.800, 58.800, 2, 100, 94, 29, 24009, -18206, 5161, 5377, 17, 14, 1530739329.900, 2, 0, 1024, 1024, 1024, 1024, 0, 6, 3978, 3985, 4027, 4000, 4010, 4001, 0, 1, 12300, -90.000, 0.000, 59.300, 0.000, 0.000, -2.900, 0.0, , , , , , 96, , , 0, 0, 0
36.0257550, -118.5730082, 20.400, 14:22:10.000, 14, 0.00, 0.47, 96, 0.500, 0.700, 58.700, 2, 100, 94, 29, 24009, -18206, 5161, 5377, 17, 14, 1530739330.000, 5, 0, 1024, 1024, 1024, 1024, 0, 6, 3978, 3985, 4027, 4000, 4010, 4001, 0, 1, 12400, -89.900, 0.000, 59.300, 0.000, 0.000, -3.000, 0.0, , , , , , 96, , , 0, 0, 0
36.0257550, -118.5730082, 20.700, 14:22:10.103, 14, 0.00, 0.47, 96, 1.100, 0.700, 58.500, 2, 100, 94, 29, 24009, -18206, 5161, 5377, 17, 14, 1530739330.103, 1, 0, 1024, 1024, 1024, 1024, 0, 6, 3978, 3985, 4027, 4000, 4010, 4001, 0, 1, 12503, -89.900, 0.000, 59.300, 0.000, 0.000, -3.000, 0.0, , , , , , 96, , , 0, 0, 0
36.0257551, -118.5730082, 21.000, 14:22:10.200, 14, 0.00, 0.47, 96, 1.500, 0.800, 58.500, 2, 100, 94, 29, 23947, -18492, 5161, 5377, 17, 14, 1530739330.200, 3, 0, 1024, 1024, 1024, 1024, 0, 6, 3966, 3972, 4019, 3989, 4001, 3997, 0, 1, 12600, -89.900, 0.000, 59.300, 0.000, 0.000, -2.900, 0.0, , , , , , 96, , , 0, 0, 0
36.0257551, -118.5730082, 21.300, 14:22:10.300, 14, 0.00, 0.48, 96, 1.500, 0.900, 58.400, 2, 100, 95, 29, 23947, -18492, 5161, 5377, 17, 14, 1530739330.300, 8, 0, 1024, 1024, 1024, 1024, 0, 6, 3966, 3972, 4019, 3989, 4001, 3997, 0, 1, 12700, -89.900, 0.000, 59.300, 0.000, 0.000, -2.900, 0.0, , , , , , 96, , , 0, 0, 0
36.0257551, -118.5730081, 21.600, 14:22:10.400, 14, 0.00, 0.48, 96, 1.400, 0.900, 58.400, 2, 100, 95, 29, 23947, -18492, 5161, 5377, 17, 14, 1530739330.400, 15, 0, 1024, 1024, 1024, 1024, 0, 6, 3966, 3972, 4019, 3989, 4001, 3997, 0, 1, 12800, -89.900, 0.000, 59.300, 0.000, 0.000, -2.900, 0.0, , , , , , 96, , , 0, 0, 0
36.0257551, -118.5730081, 21.600, 14:22:10.500, 14, 0.00, 0.48, 96, 1.400, 0.900, 58.400, 2, 100, 95, 29, 23947, -18492, 5161, 5377, 17, 14, 1530739330.500, 114, 0, 1024, 1024, 1024, 1024, 0, 6, 3966, 3972, 4019, 3989, 4001, 3997, 0, 1, 12900, -89.900, 0.000, 59.300, 0.000, 0.000, -2.900, 0.0, , , , , , 96, , , 0, 0, 0
36.0257550, -118.5730081, 21.900, 14:22:10.600, 14, 0.00, 0.48, 96, 1.100, 0.900, 58.500, 2, 100, 95, 29, 23947, -18492, 5161, 5377, 17, 14, 1530739330.600, 68, 0, 1024, 1024, 1024, 1024, 0, 6, 3966, 3972, 4019, 3989, 4001, 3997, 0, 1, 13000, -90.000, 0.000, 59.300, 0.000, 0.000, -3.000, 0.0, , , , , , 96, , , 0, 0, 0
36.0257550, -118.5730081, 22.200, 14:22:10.700, 14, 0.00, 0.48, 96, 0.800, 0.800, 58.600, 2, 100, 95, 29, 23947, -18492, 5161, 5377, 17, 14, 1530739330.700, 81, 0, 1024, 1024, 1024, 1024, 0, 6, 3966, 3972, 4019, 3989, 4001, 3997, 0, 1, 13100, -89.900, 0.000, 59.300, 0.000, 0.000, -2.900, 0.0, , , , , , 96, , , 0, 0, 0
36.0257550, -118.5730081, 22.500, 14:22:10.800, 14, 0.00, 0.48, 96, 0.800, 0.800, 58.600, 2, 100, 95, 29, 23947, -18492, 5161, 5377, 17, 14, 1530739330.800, 85, 0, 1024, 1024, 1024, 1024, 0, 6, 3966, 3972, 4019, 3989, 4001, 3997, 0, 1, 13200, -90.000, 0.000, 59.300, 0.000, 0.000, -2.900, 0.0, , , , , , 96, , , 0, 0, 0
36.0257550, -118.5730081, 22.800, 14:22:10.900, 14, 0.00, 0.48, 96, 0.900, 0.600, 58.600, 2, 100, 99, 29, 23947, -18492, 5161, 5377, 17, 14, 1530739330.900, 75, 0, 1024, 1024, 1024, 1024, 0, 6, 3966, 3972, 4019, 3989, 4001, 3997, 0, 1, 13300, -90.000, 0.000, 59.300, 0.000, 0.000, -2.900, 0.0, , , , , , 96, , , 0, 0, 0
36.0257551, -118.5730080, 23.100, 14:22:11.000, 14, 0.00, 0.48, 96, 1.100, 0.500, 58.500, 2, 100, 99, 29, 23947, -18492, 5161, 5377, 17, 14, 1530739331.000, 83, 0, 1024, 1024, 1024, 1024, 0, 6, 3966, 3972, 4019, 3989, 4001, 3997, 0, 1, 13400, -90.000, 0.000, 59.300, 0.000, 0.000, -3.000, 0.0, , , , , , 96, , , 0, 0, 0
36.0257551, -118.5730080, 23.700, 14:22:11.100, 14, 0.00, 0.49, 96, 1.300, 0.600, 58.500, 2, 100, 99, 29, 23947, -18492, 5161, 5377, 17, 14, 1530739331.101, 69, 0, 1024, 1024, 1024, 1024, 0, 6, 3966, 3972, 4019, 3989, 4001, 3997, 0, 1, 13500, -89.900, 0.000, 59.300, 0.000, 0.000, -2.800, 0.0, , , , , , 96, , , 0, 0, 0
36.0257551, -118.5730080, 24.000, 14:22:11.200, 14, 0.00, 0.49, 96, 1.500, 0.600, 58.500, 2, 100, 99, 29, 23947, -18492, 5161, 5377, 17, 14, 1530739331.200, 81, 0, 1024, 1024, 1024, 1024, 0, 6, 3966, 3972, 4019, 3989, 4001, 3997, 0, 1, 13600, -89.900, 0.000, 59.300, 0.000, 0.000, -2.900, 0.0, , , , , , 96, , , 0, 0, 0
36.0257551, -118.5730080, 24.300, 14:22:11.300, 14, 0.00, 0.49, 96, 1.500, 0.500, 58.500, 2, 100, 99, 29, 23993, -18123, 5161, 5377, 17, 14, 1530739331.300, 47, 0, 1024, 1024, 1024, 1024, 0, 6, 3968, 3971, 4021, 4001, 4008, 3984, 0, 1, 13700, -89.900, 0.000, 59.300, 0.000, 0.000, -2.800, 0.0, , , , , , 96, , , 0, 0, 0
36.0257551, -118.5730080, 24.600, 14:22:11.400, 14, 0.00, 0.49, 96, 1.400, 0.500, 58.400, 2, 100, 99, 29, 23993, -18123, 5161, 5377, 17, 14, 1530739331.400, 64, 0, 1024, 1024, 1024, 1024, 0, 6, 3968, 3971, 4021, 4001, 4008, 3984, 0, 1, 13800, -90.000, 0.000, 59.300, 0.000, 0.000, -2.800, 0.0, , , , , , 96, , , 0, 0, 0
36.0257551, -118.5730080, 24.800, 14:22:11.500, 14, 0.00, 0.49, 96, 1.300, 0.400, 58.500, 2, 100, 99, 29, 23993, -18123, 5161, 5377, 17, 14, 1530739331.500, 53, 0, 1024, 1024, 1024, 1024, 0, 6, 3968, 3971, 4021, 4001, 4008, 3984, 0, 1, 13900, -90.000, 0.000, 59.300, 0.000, 0.000, -2.800, 0.0, , , , , , 96, , , 0, 0, 0
36.0257551, -118.5730080, 25.100, 14:22:11.600, 14, 0.00, 0.49, 96, 1.400, 0.600, 58.500, 2, 100, 99, 29, 23993, -18123, 5161, 5377, 17, 14, 1530739331.600, 57, 0, 1024, 1024, 1024, 1024, 0, 6, 3968, 3971, 4021, 4001, 4008, 3984, 0, 1, 14000, -89.900, 0.000, 59.300, 0.000, 0.000, -2.900, 0.0, , , , , , 96, , , 0, 0, 0
36.0257551, -118.5730080, 25.400, 14:22:11.700, 14, 0.00, 0.49, 96, 1.500, 0.900, 58.500, 2, 100, 99, 29, 23993, -18123, 5161, 5377, 17, 14, 1530739331.701, 51, 0, 1024, 1024, 1024, 1024, 0, 6, 3968, 3971, 4021, 4001, 4008, 3984, 0, 1, 14100, -89.900, 0.000, 59.300, 0.000, 0.000, -2.900, 0.0, , , , , , 96, , , 0, 0, 0
36.0257552, -118.5730079, 25.700, 14:22:11.800, 14, 0.00, 0.49, 96, 1.500, 1.200, 58.400, 2, 100, 99, 29, 23993, -18123, 5161, 5377, 17, 14, 1530739331.800, 42, 0, 1024, 1024, 1024, 1024, 0, 6, 3968, 3971, 4021, 4001, 4008, 3984, 0, 1, 14200, -89.900, 0.000, 59.300, 0.000, 0.000, -3.000, 0.0, , , , , , 96, , , 0, 0, 0
36.0257551, -118.5730079, 26.000, 14:22:11.900, 14, 0.00, 0.49, 96, 1.500, 1.300, 58.300, 2, 100, 99, 29, 23993, -18123, 5161, 5377, 17, 14, 1530739331.900, 35, 0, 1024, 1024, 1024, 1024, 0, 6, 3968, 3971, 4021, 4001, 4008, 3984, 0, 1, 14300, -89.900, 0.000, 59.300, 0.000, 0.000, -3.000, 0.0, , , , , , 96, , , 0, 0, 0
36.0257551, -118.5730079, 26.300, 14:22:12.000, 14, 0.00, 0.49, 96, 1.200, 1.100, 58.300, 2, 100, 99, 29, 23993, -18123, 5161, 5377, 17, 14, 1530739332.001, 38, 0, 1024, 1024, 1024, 1024, 0, 6, 3968, 3971, 4021, 4001, 4008, 3984, 0, 1, 14400, -89.900, 0.000, 59.300, 0.000, 0.000, -2.900, 0.0, , , , , , 96, , , 0, 0, 0
36.0257551, -118.5730079, 26.600, 14:22:12.100, 14, 0.00, 0.49, 96, 0.800, 0.700, 58.300, 2, 100, 99, 29, 23993, -18123, 5161, 5377, 17, 14, 1530739332.100, 21, 0, 1024, 1024, 1024, 1024, 0, 6, 3968, 3971, 4021, 4001, 4008, 3984, 0, 1, 14500, -90.000, 0.000, 59.300, 0.000, 0.000, -2.900, 0.0, , , , , , 96, , , 0, 0, 0
36.0257551, -118.5730079, 26.900, 14:22:12.200, 14, 0.00, 0.49, 96, 0.700, 0.400, 58.400, 2, 100, 99, 29, 23863, -18621, 5161, 5377, 17, 14, 1530739332.200, 32, 0, 1024, 1024, 1024, 1024, 0, 6, 3959, 3966, 3997, 3977, 3995, 3989, 0, 1, 14600, -90.000, 0.000, 59.300, 0.000, 0.000, -2.900, 0.0, , , , , , 96, , , 0, 0, 0
36.0257551, -118.5730079, 27.200, 14:22:12.300, 14, 0.00, 0.49, 96, 0.900, 0.400, 58.400, 2, 100, 99, 29, 23863, -18621, 5161, 5377, 17, 14, 1530739332.300, 32, 0, 1024, 1024, 1024, 1024, 0, 6, 3959, 3966, 3997, 3977, 3995, 3989, 0, 1, 14700, -90.000, 0.000, 59.300, 0.000, 0.000, -3.000, 0.0, , , , , , 96, , , 0, 0, 0
36.0257551, -118.5730079, 27.500, 14:22:12.400, 14, 0.00, 0.49, 96, 1.100, 0.400, 58.400, 2, 100, 99, 29, 23863, -18621, 5161, 5377, 17, 14, 1530739332.400, 21, 0, 1024, 1024, 1024, 1024, 0, 6, 3959, 3966, 3997, 3977, 3995, 3989, 0, 1, 14800, -90.000, 0.000, 59.300, 0.000, 0.000, -3.000, 0.0, , , , , , 96, , , 0, 0, 0
36.0257552, -118.5730079, 27.800, 14:22:12.500, 14, 0.00, 0.50, 96, 0.900, 0.700, 58.400, 2, 100, 99, 29, 23863, -18621, 5161, 5377, 17, 14, 1530739332.500, 35, 0, 1024, 1024, 1024, 1024, 0, 6, 3959, 3966, 3997, 3977, 3995, 3989, 0, 1, 14900, -89.900, 0.000, 59.300, 0.000, 0.000, -3.000, 0.0, , , , , , 96, , , 0, 0, 0
36.0257552, -118.5730079, 27.800, 14:22:12.600, 14, 0.00, 0.50, 96, 0.900, 0.700, 58.400, 2, 100, 99, 29, 23863, -18621, 5161, 5377, 17, 14, 1530739332.600, 135, 0, 1024, 1024, 1024, 1024, 0, 6, 3959, 3966, 3997, 3977, 3995, 3989, 0, 1, 15000, -89.900, 0.000, 59.300, 0.000, 0.000, -3.000, 0.0, , , , , , 96, , , 0, 0, 0
36.0257553, -118.5730078, 28.400, 14:22:12.700, 15, 0.00, 0.52, 96, 1.400, 1.500, 58.600, 2, 100, 99, 29, 23863, -18621, 5161, 5377, 17, 14, 1530739332.700, 3, 0, 1024, 1024, 1024, 1024, 0, 6, 3959, 3966, 3997, 3977, 3995, 3989, 0, 1, 15100, -89.900, 0.000, 59.300, 0.000, 0.000, -3.000, 0.0, , , , , , 96, , , 0, 0, 0
36.0257554, -118.5730078, 28.700, 14:22:12.800, 15, 0.00, 0.53, 96, 1.900, 1.600, 58.700, 2, 100, 100, 29, 23863, -18621, 5161, 5377, 17, 14, 1530739332.800, 4, 0, 1024, 1024, 1024, 1024, 0, 6, 3959, 3966, 3997, 3977, 3995, 3989, 0, 1, 15200, -89.900, 0.000, 59.300, 0.000, 0.000, -3.000, 0.0, , , , , , 96, , , 0, 0, 0
36.0257554, -118.5730078, 28.700, 14:22:12.900, 15, 0.00, 0.53, 96, 1.900, 1.600, 58.700, 2, 100, 100, 29, 23863, -18621, 5161, 5377, 17, 14, 1530739332.900, 103, 0, 1024, 1024, 1024, 1024, 0, 6, 3959, 3966, 3997, 3977, 3995, 3989, 0, 1, 15300, -89.900, 0.000, 59.300, 0.000, 0.000, -3.000, 0.0, , , , , , 96, , , 0, 0, 0
36.0257555, -118.5730079, 29.000, 14:22:13.000, 15, 0.10, 0.53, 96, 2.400, 1.600, 58.800, 2, 100, 100, 29, 23863, -18621, 5161, 5377, 17, 14, 1530739333.000, 98, 0, 1024, 1024, 1024, 1024, 0, 6, 3959, 3966, 3997, 3977, 3995, 3989, 0, 1, 15400, -89.900, 0.000, 59.300, 0.100, 0.000, -3.000, 0.0, , , , , , 96, , , 0, 0, 0
36.0257556, -118.5730079, 29.300, 14:22:13.100, 15, 0.10, 0.54, 96, 2.800, 1.300, 59.000, 2, 100, 100, 29, 23863, -18621, 5161, 5377, 17, 14, 1530739333.100, 94, 0, 1024, 1024, 1024, 1024, 0, 6, 3959, 3966, 3997, 3977, 3995, 3989, 0, 1, 15500, -89.900, 0.000, 59.300, 0.100, 0.000, -3.000, 0.0, , , , , , 96, , , 0, 0, 0
36.0257557, -118.5730079, 29.700, 14:22:13.200, 15, 0.00, 0.55, 96, 3.200, 1.200, 59.000, 2, 100, 100, 29, 23863, -18621, 5161, 5377, 17, 14, 1530739333.200, 98, 0, 1024, 1024, 1024, 1024, 0, 6, 3959, 3966, 3997, 3977, 3995, 3989, 0, 1, 15600, -89.900, 0.000, 59.300, 0.000, 0.000, -3.100, 0.0, , , , , , 96, , , 0, 0, 0
36.0257559, -118.5730079, 30.300, 14:22:13.300, 15, 0.00, 0.56, 96, 3.100, 1.300, 58.800, 2, 100, 100, 29, 23889, -18472, 5161, 5377, 17, 14, 1530739333.300, 63, 0, 1024, 1024, 1024, 1024, 0, 6, 3959, 3966, 3997, 3977, 3995, 3989, 0, 1, 15700, -89.900, 0.000, 59.300, 0.000, 0.000, -2.900, 0.0, , , , , , 96, , , 0, 0, 0
36.0257559, -118.5730079, 30.300, 14:22:13.400, 15, 0.00, 0.56, 96, 3.100, 1.300, 58.800, 2, 100, 99, 29, 23889, -18472, 5161, 5377, 17, 14, 1530739333.400, 163, 0, 1024, 1024, 1024, 1024, 0, 6, 3959, 3966, 3997, 3977, 3995, 3989, 0, 1, 15800, -90.000, 0.000, 59.300, 0.000, 0.000, -2.900, 0.0, , , , , , 96, , , 0, 0, 0
36.0257559, -118.5730079, 30.600, 14:22:13.500, 15, 0.00, 0.57, 96, 2.900, 1.200, 58.600, 2, 100, 99, 29, 23889, -18472, 5161, 5377, 17, 14, 1530739333.500, 77, 0, 1024, 1024, 1024, 1024, 0, 6, 3959, 3966, 3997, 3977, 3995, 3989, 0, 1, 15900, -90.000, 0.000, 59.300, 0.000, 0.000, -2.900, 0.0, , , , , , 96, , , 0, 0, 0
36.0257560, -118.5730080, 30.900, 14:22:13.600, 15, 0.00, 0.57, 96, 2.900, 1.100, 58.400, 2, 100, 99, 29, 23889, -18472, 5161, 5377, 17, 14, 1530739333.600, 66, 0, 1024, 1024, 1024, 1024, 0, 6, 3959, 3966, 3997, 3977, 3995, 3989, 0, 1, 16000, -89.900, 0.000, 59.300, 0.000, 0.000, -3.000, 0.0, , , , , , 96, , , 0, 0, 0
36.0257560, -118.5730080, 31.500, 14:22:13.699, 15, 0.00, 0.58, 96, 2.900, 1.200, 58.100, 2, 100, 99, 29, 23889, -18472, 5161, 5377, 17, 14, 1530739333.700, 65, 0, 1024, 1024, 1024, 1024, 0, 6, 3959, 3966, 3997, 3977, 3995, 3989, 0, 1, 16099, -89.900, 0.000, 59.300, 0.000, 0.000, -2.900, 0.0, , , , , , 96, , , 0, 0, 0
36.0257560, -118.5730080, 31.800, 14:22:13.800, 15, 0.00, 0.58, 96, 2.900, 1.300, 58.100, 2, 100, 99, 29, 23889, -18472, 5161, 5377, 17, 14, 1530739333.800, 62, 0, 1024, 1024, 1024, 1024, 0, 6, 3972, 3968, 4004, 3984, 4006, 3985, 0, 1, 16200, -89.900, 0.000, 59.300, 0.000, 0.000, -2.900, 0.0, , , , , , 96, , , 0, 0, 0
36.0257561, -118.5730080, 32.100, 14:22:13.899, 15, 0.00, 0.58, 96, 2.700, 1.000, 58.200, 2, 100, 99, 29, 23889, -18472, 5161, 5377, 17, 14, 1530739333.899, 66, 0, 1024, 1024, 1024, 1024, 0, 6, 3972, 3968, 4004, 3984, 4006, 3985, 0, 1, 16299, -89.900, 0.000, 59.300, 0.000, 0.000, -2.900, 0.0, , , , , , 96, , , 0, 0, 0
36.0257561, -118.5730080, 32.400, 14:22:14.000, 14, 0.00, 0.58, 96, 2.800, 0.800, 58.300, 2, 100, 99, 29, 23889, -18472, 5161, 5377, 17, 14, 1530739334.000, 56, 0, 1024, 1024, 1024, 1024, 0, 6, 3972, 3968, 4004, 3984, 4006, 3985, 0, 1, 16400, -90.000, 0.000, 59.300, 0.000, 0.000, -2.900, 0.0, , , , , , 96, , , 0, 0, 0
36.0257561, -118.5730080, 32.400, 14:22:14.100, 14, 0.00, 0.58, 96, 2.800, 0.800, 58.300, 2, 100, 99, 29, 23889, -18472, 5161, 5377, 17, 14, 1530739334.100, 156, 0, 1024, 1024, 1024, 1024, 0, 6, 3972, 3968, 4004, 3984, 4006, 3985, 0, 1, 16500, -89.900, 0.000, 59.300, 0.000, 0.000, -2.900, 0.0, , , , , , 96, , , 0, 0, 0
36.0257561, -118.5730080, 32.900, 14:22:14.200, 14, 0.00, 0.59, 96, 2.700, 1.400, 58.500, 2, 100, 99, 29, 23889, -18472, 5161, 5377, 17, 14, 1530739334.200, 56, 0, 1024, 1024, 1024, 1024, 0, 6, 3972, 3968, 4004, 3984, 4006, 3985, 0, 1, 16600, -89.900, 0.000, 59.300, 0.000, 0.000, -2.900, 0.0, , , , , , 96, , , 0, 0, 0
36.0257561, -118.5730079, 33.200, 14:22:14.299, 14, 0.00, 0.59, 96, 2.600, 1.900, 58.500, 2, 100, 97, 29, 23889, -18472, 5161, 5377, 17, 14, 1530739334.299, 26, 0, 1024, 1024, 1024, 1024, 0, 6, 3972, 3968, 4004, 3984, 4006, 3985, 0, 1, 16699, -89.900, 0.000, 59.300, 0.000, 0.000, -2.900, 0.0, , , , , , 96, , , 0, 0, 0
36.0257562, -118.5730079, 33.500, 14:22:14.400, 14, 0.00, 0.59, 96, 2.400, 2.100, 58.400, 2, 100, 97, 29, 23889, -18472, 5161, 5377, 17, 14, 1530739334.400, 28, 0, 1024, 1024, 1024, 1024, 0, 6, 3972, 3968, 4004, 3984, 4006, 3985, 0, 1, 16800, -89.900, 0.000, 59.300, 0.000, 0.000, -2.900, 0.0, , , , , , 96, , , 0, 0, 0
36.0257562, -118.5730078, 33.800, 14:22:14.500, 14, 0.00, 0.60, 96, 2.100, 2.100, 58.400, 2, 100, 97, 29, 23889, -18472, 5161, 5377, 17, 14, 1530739334.500, 24, 0, 1024, 1024, 1024, 1024, 0, 6, 3972, 3968, 4004, 3984, 4006, 3985, 0, 1, 16900, -89.900, 0.000, 59.300, 0.000, 0.000, -2.900, 0.0, , , , , , 96, , , 0, 0, 0
36.0257562, -118.5730078, 34.100, 14:22:14.600, 14, 0.00, 0.60, 96, 2.000, 2.000, 58.400, 2, 100, 97, 29, 23889, -18472, 5161, 5377, 17, 14, 1530739334.600, 28, 0, 1024, 1024, 1024, 1024, 0, 6, 3972, 3968, 4004, 3984, 4006, 3985, 0, 1, 17000, -89.900, 0.000, 59.300, 0.000, 0.000, -3.000, 0.0, , , , , , 96, , , 0, 0, 0
36.0257561, -118.5730079, 34.400, 14:22:14.700, 14, 0.00, 0.59, 96, 1.900, 1.600, 58.400, 2, 100, 97, 29, 23896, -17162, 5161, 5377, 17, 14, 1530739334.701, 14, 0, 1024, 1024, 1024, 1024, 0, 6, 3960, 3970, 4005, 3980, 3992, 3986, 0, 1, 17100, -89.900, 0.000, 59.300, 0.000, 0.000, -2.900, 0.0, , , , , , 96, , , 0, 0, 0
36.0257561, -118.5730079, 34.700, 14:22:14.800, 14, 0.00, 0.59, 96, 2.000, 1.200, 58.400, 2, 100, 96, 29, 23896, -17162, 5161, 5377, 17, 14, 1530739334.800, 30, 0, 1024, 1024, 1024, 1024, 0, 6, 3960, 3970, 4005, 3980, 3992, 3986, 0, 1, 17200, -90.000, 0.000, 59.300, 0.000, 0.000, -2.900, 0.0, , , , , , 96, , , 0, 0, 0
36.0257561, -118.5730080, 35.000, 14:22:14.900, 14, 0.00, 0.58, 96, 2.000, 0.800, 58.400, 2, 100, 96, 29, 23896, -17162, 5161, 5377, 17, 14, 1530739334.900, 10, 0, 1024, 1024, 1024, 1024, 0, 6, 3960, 3970, 4005, 3980, 3992, 3986, 0, 1, 17300, -90.000, 0.000, 59.300, 0.000, 0.000, -2.800, 0.0, , , , , , 96, , , 0, 0, 0
36.0257560, -118.5730080, 35.300, 14:22:15.000, 14, 0.00, 0.57, 96, 2.000, 0.500, 58.400, 2, 100, 96, 29, 23896, -17162, 5161, 5377, 17, 14, 1530739335.000, 4, 0, 1024, 1024, 1024, 1024, 0, 6, 3960, 3970, 4005, 3980, 3992, 3986, 0, 1, 17400, -90.000, 0.000, 59.300, 0.000, 0.000, -2.800, 0.0, , , , , , 96, , , 0, 0, 0
36.0257560, -118.5730080, 35.300, 14:22:15.100, 14, 0.00, 0.57, 96, 2.000, 0.500, 58.400, 2, 100, 96, 29, 23896, -17162, 5161, 5377, 17, 14, 1530739335.100, 104, 0, 1024, 1024, 1024, 1024, 0, 6, 3960, 3970, 4005, 3980, 3992, 3986, 0, 1, 17500, -90.000, 0.000, 59.300, 0.000, 0.000, -2.800, 0.0, , , , , , 96, , , 0, 0, 0
36.0257559, -118.5730081, 35.800, 14:22:15.200, 14, 0.00, 0.56, 96, 2.000, 0.300, 58.300, 2, 100, 96, 29, 23896, -17162, 5161, 5377, 17, 14, 1530739335.201, 3, 0, 1024, 1024, 1024, 1024, 0, 6, 3960, 3970, 4005, 3980, 3992, 3986, 0, 1, 17600, -90.000, 0.000, 59.300, 0.000, 0.000, -3.000, 0.0, , , , , , 96, , , 0, 0, 0
36.0257559, -118.5730081, 36.100, 14:22:15.307, 14, 0.00, 0.56, 96, 2.000, 0.400, 58.300, 2, 100, 96, 29, 23896, -17162, 5161, 5377, 17, 14, 1530739335.307, 3, 0, 1024, 1024, 1024, 1024, 0, 6, 3960, 3970, 4005, 3980, 3992, 3986, 0, 1, 17707, -90.000, 0.000, 59.300, 0.000, 0.000, -2.900, 0.0, , , , , , 96, , , 0, 0, 0
36.0257558, -118.5730081, 36.400, 14:22:15.401, 14, 0.00, 0.55, 96, 1.900, 0.600, 58.400, 2, 100, 96, 29, 23896, -17162, 5161, 5377, 17, 14, 1530739335.401, 2, 0, 1024, 1024, 1024, 1024, 0, 6, 3960, 3970, 4005, 3980, 3992, 3986, 0, 1, 17801, -89.900, 0.000, 59.300, 0.000, 0.000, -2.900, 0.0, , , , , , 96, , , 0, 0, 0
36.0257558, -118.5730081, 36.400, 14:22:15.500, 14, 0.00, 0.55, 96, 1.900, 0.600, 58.400, 2, 100, 96, 29, 23896, -17162, 5161, 5377, 17, 14, 1530739335.500, 102, 0, 1024, 1024, 1024, 1024, 0, 6, 3960, 3970, 4005, 3980, 3992, 3986, 0, 1, 17900, -89.900, 0.000, 59.300, 0.000, 0.000, -2.900, 0.0, , , , , , 96, , , 0, 0, 0
36.0257558, -118.5730081, 36.700, 14:22:15.600, 14, 0.00, 0.55, 96, 1.800, 0.700, 58.500, 2, 100, 96, 29, 23896, -17162, 5161, 5377, 17, 14, 1530739335.601, 93, 0, 1024, 1024, 1024, 1024, 0, 6, 3960, 3970, 4005, 3980, 3992, 3986, 0, 1, 18000, -89.900, 0.000, 59.300, 0.000, 0.000, -3.000, 0.0, , , , , , 96, , , 0, 0, 0
36.0257557, -118.5730081, 37.000, 14:22:15.700, 14, 0.00, 0.54, 96, 1.600, 0.900, 58.500, 2, 100, 96, 29, 23896, -17162, 5161, 5377, 17, 14, 1530739335.700, 83, 0, 1024, 1024, 1024, 1024, 0, 6, 3960, 3970, 4005, 3980, 3992, 3986, 0, 1, 18100, -89.900, 0.000, 59.300, 0.000, 0.000, -3.000, 0.0, , , , , , 96, , , 0, 0, 0
36.0257556, -118.5730081, 37.600, 14:22:15.800, 14, 0.00, 0.53, 96, 1.100, 1.000, 58.700, 2, 100, 96, 29, 23810, -18547, 5108, 5377, 17, 14, 1530739335.800, 72, 0, 1024, 1024, 1024, 1024, 0, 6, 3952, 3950, 3988, 3969, 3986, 3958, 0, 1, 18200, -89.900, 0.000, 59.300, 0.000, 0.000, -3.000, 0.0, , , , , , 96, , , 0, 0, 0
36.0257555, -118.5730080, 37.900, 14:22:15.900, 14, 0.00, 0.52, 96, 0.800, 1.100, 58.700, 2, 100, 99, 29, 23810, -18547, 5108, 5377, 17, 14, 1530739335.900, 70, 0, 1024, 1024, 1024, 1024, 0, 6, 3952, 3950, 3988, 3969, 3986, 3958, 0, 1, 18300, -89.900, 0.000, 59.300, 0.000, 0.000, -3.100, 0.0, , , , , , 96, , , 0, 0, 0
36.0257554, -118.5730080, 38.200, 14:22:16.000, 15, 0.00, 0.52, 96, 0.800, 1.000, 58.700, 2, 100, 99, 29, 23810, -18547, 5108, 5377, 17, 14, 1530739336.000, 73, 0, 1024, 1024, 1024, 1024, 0, 6, 3952, 3950, 3988, 3969, 3986, 3958, 0, 1, 18400, -89.900, 0.000, 59.300, 0.000, 0.000, -3.100, 0.0, , , , , , 96, , , 0, 0, 0
36.0257554, -118.5730080, 38.200, 14:22:16.100, 15, 0.00, 0.52, 96, 0.800, 1.000, 58.700, 2, 100, 99, 29, 23810, -18547, 5108, 5377, 17, 14, 1530739336.100, 173, 0, 1024, 1024, 1024, 1024, 0, 6, 3952, 3950, 3988, 3969, 3986, 3958, 0, 1, 18500, -90.000, 0.000, 59.300, 0.000, 0.000, -3.100, 0.0, , , , , , 96, , , 0, 0, 0
36.0257553, -118.5730080, 38.900, 14:22:16.200, 14, 0.00, 0.50, 96, 1.100, 0.500, 58.500, 2, 100, 99, 29, 23810, -18547, 5108, 5377, 17, 14, 1530739336.200, 65, 0, 1024, 1024, 1024, 1024, 0, 6, 3952, 3950, 3988, 3969, 3986, 3958, 0, 1, 18600, -90.000, 0.000, 59.300, 0.000, 0.000, -3.000, 0.0, , , , , , 96, , , 0, 0, 0
36.0257552, -118.5730081, 39.200, 14:22:16.300, 14, 0.00, 0.50, 95, 1.400, 0.300, 58.400, 2, 100, 99, 29, 23810, -18547, 5108, 5377, 17, 14, 1530739336.300, 40, 0, 1024, 1024, 1024, 1024, 0, 6, 3952, 3950, 3988, 3969, 3986, 3958, 0, 1, 18700, -90.000, 0.000, 59.300, 0.000, 0.000, -3.000, 0.0, , , , , , 96, , , 0, 0, 0
36.0257552, -118.5730081, 39.500, 14:22:16.400, 14, 0.00, 0.49, 95, 1.700, 0.300, 58.400, 2, 100, 99, 29, 23810, -18547, 5108, 5377, 17, 14, 1530739336.400, 39, 0, 1024, 1024, 1024, 1024, 0, 6, 3952, 3950, 3988, 3969, 3986, 3958, 0, 1, 18800, -90.000, 0.000, 59.300, 0.000, 0.000, -3.000, 0.0, , , , , , 96, , , 0, 0, 0
36.0257552, -118.5730081, 39.800, 14:22:16.500, 14, 0.00, 0.49, 95, 1.900, 0.500, 58.300, 2, 100, 99, 29, 23810, -18547, 5108, 5377, 17, 14, 1530739336.500, 43, 0, 1024, 1024, 1024, 1024, 0, 6, 3952, 3950, 3988, 3969, 3986, 3958, 0, 1, 18900, -89.900, 0.000, 59.300, 0.000, 0.000, -2.900, 0.0, , , , , , 96, , , 0, 0, 0
36.0257552, -118.5730081, 40.100, 14:22:16.600, 14, 0.00, 0.49, 95, 1.700, 0.700, 58.400, 2, 100, 99, 29, 23810, -18547, 5108, 5377, 17, 14, 1530739336.600, 53, 0, 1024, 1024, 1024, 1024, 0, 6, 3952, 3950, 3988, 3969, 3986, 3958, 0, 1, 19000, -90.000, 0.000, 59.300, 0.000, 0.000, -3.000, 0.0, , , , , , 96, , , 0, 0, 0
36.0257551, -118.5730081, 40.400, 14:22:16.700, 14, 0.00, 0.49, 95, 1.700, 0.700, 58.400, 2, 100, 99, 30, 23676, -20028, 5108, 5377, 17, 14, 1530739336.700, 33, 0, 1024, 1024, 1024, 1024, 0, 6, 3920, 3930, 3971, 3946, 3966, 3950, 0, 1, 19100, -90.000, 0.000, 59.300, 0.000, 0.000, -3.000, 0.0, , , , , , 96, , , 0, 0, 0
36.0257551, -118.5730081, 40.700, 14:22:16.800, 14, 0.00, 0.48, 95, 1.800, 0.700, 58.400, 2, 100, 99, 30, 23676, -20028, 5108, 5377, 17, 14, 1530739336.800, 45, 0, 1024, 1024, 1024, 1024, 0, 6, 3920, 3930, 3971, 3946, 3966, 3950, 0, 1, 19200, -89.900, 0.000, 59.300, 0.000, 0.000, -3.000, 0.0, , , , , , 96, , , 0, 0, 0
36.0257551, -118.5730081, 40.700, 14:22:16.900, 14, 0.00, 0.48, 95, 1.800, 0.700, 58.400, 2, 100, 99, 30, 23676, -20028, 5108, 5377, 17, 14, 1530739336.900, 145, 0, 1024, 1024, 1024, 1024, 0, 6, 3920, 3930, 3971, 3946, 3966, 3950, 0, 1, 19300, -90.000, 0.000, 59.300, 0.000, 0.000, -3.000, 0.0, , , , , , 96, , , 0, 0, 0
36.0257551, -118.5730081, 41.300, 14:22:17.000, 14, 0.00, 0.48, 95, 1.900, 0.700, 58.300, 2, 100, 99, 30, 23676, -20028, 5108, 5377, 17, 14, 1530739337.000, 20, 0, 1024, 1024, 1024, 1024, 0, 6, 3920, 3930, 3971, 3946, 3966, 3950, 0, 1, 19400, -89.900, 0.000, 59.300, 0.000, 0.000, -3.000, 0.0, , , , , , 96, , , 0, 0, 0
36.0257550, -118.5730081, 41.600, 14:22:17.100, 14, 0.00, 0.48, 95, 1.600, 0.600, 58.300, 2, 100, 99, 30, 23676, -20028, 5108, 5377, 17, 14, 1530739337.100, 24, 0, 1024, 1024, 1024, 1024, 0, 6, 3920, 3930, 3971, 3946, 3966, 3950, 0, 1, 19500, -89.900, 0.000, 59.300, 0.000, 0.000, -3.000, 0.0, , , , , , 96, , , 0, 0, 0
36.0257550, -118.5730080, 41.900, 14:22:17.200, 14, 0.00, 0.48, 95, 1.400, 0.700, 58.400, 2, 100, 99, 30, 23676, -20028, 5108, 5377, 17, 14, 1530739337.200, 18, 0, 1024, 1024, 1024, 1024, 0, 6, 3920, 3930, 3971, 3946, 3966, 3950, 0, 1, 19600, -90.000, 0.000, 59.300, 0.000, 0.000, -2.900, 0.0, , , , , , 96, , , 0, 0, 0
36.0257550, -118.5730080, 41.900, 14:22:17.300, 14, 0.00, 0.48, 95, 1.400, 0.700, 58.400, 2, 100, 99, 30, 23676, -20028, 5108, 5377, 17, 14, 1530739337.300, 118, 0, 1024, 1024, 1024, 1024, 0, 6, 3920, 3930, 3971, 3946, 3966, 3950, 0, 1, 19700, -90.000, 0.000, 59.300, 0.000, 0.000, -2.900, 0.0, , , , , , 96, , , 0, 0, 0
36.0257550, -118.5730080, 42.500, 14:22:17.400, 14, 0.00, 0.48, 95, 1.900, 0.900, 58.500, 2, 100, 98, 30, 23676, -20028, 5108, 5377, 17, 14, 1530739337.400, 14, 0, 1024, 1024, 1024, 1024, 0, 6, 3920, 3930, 3971, 3946, 3966, 3950, 0, 1, 19800, -89.900, 0.000, 59.300, 0.000, 0.000, -2.900, 0.0, , , , , , 96, , , 0, 0, 0
36.0257550, -118.5730080, 42.500, 14:22:17.500, 14, 0.00, 0.48, 95, 1.900, 0.900, 58.500, 2, 100, 98, 30, 23676, -20028, 5108, 5377, 17, 14, 1530739337.500, 114, 0, 1024, 1024, 1024, 1024, 0, 6, 3920, 3930, 3971, 3946, 3966, 3950, 0, 1, 19900, -89.900, 0.000, 59.300, 0.000, 0.000, -2.900, 0.0, , , , , , 96, , , 0, 0, 0
36.0257550, -118.5730080, 42.800, 14:22:17.600, 14, 0.00, 0.48, 95, 2.000, 1.000, 58.500, 2, 100, 98, 30, 23676, -20028, 5108, 5377, 17, 14, 1530739337.600, 74, 0, 1024, 1024, 1024, 1024, 0, 6, 3920, 3930, 3971, 3946, 3966, 3950, 0, 1, 20000, -89.900, 0.000, 59.300, 0.000, 0.000, -2.900, 0.0, , , , , , 96, , , 0, 0, 0
36.0257550, -118.5730079, 43.100, 14:22:17.700, 14, 0.00, 0.48, 95, 1.800, 1.200, 58.500, 2, 100, 98, 30, 23676, -20028, 5108, 5377, 17, 14, 1530739337.700, 88, 0, 1024, 1024, 1024, 1024, 0, 6, 3920, 3930, 3971, 3946, 3966, 3950, 0, 1, 20100, -89.900, 0.000, 59.300, 0.000, 0.000, -2.900, 0.0, , , , , , 96, , , 0, 0, 0
36.0257550, -118.5730078, 43.400, 14:22:17.800, 14, 0.00, 0.48, 95, 1.800, 1.300, 58.500, 2, 100, 98, 30, 23728, -19141, 5108, 5377, 17, 14, 1530739337.800, 90, 0, 1024, 1024, 1024, 1024, 0, 6, 3942, 3938, 3976, 3955, 3972, 3951, 0, 1, 20200, -89.900, 0.000, 59.300, 0.000, 0.000, -2.900, 0.0, , , , , , 96, , , 0, 0, 0
36.0257550, -118.5730078, 43.400, 14:22:17.900, 14, 0.00, 0.48, 95, 1.800, 1.300, 58.500, 2, 100, 99, 30, 23728, -19141, 5108, 5377, 17, 14, 1530739337.900, 190, 0, 1024, 1024, 1024, 1024, 0, 6, 3942, 3938, 3976, 3955, 3972, 3951, 0, 1, 20300, -89.900, 0.000, 59.300, 0.000, 0.000, -2.900, 0.0, , , , , , 96, , , 0, 0, 0
36.0257550, -118.5730077, 44.300, 14:22:18.000, 14, 0.00, 0.49, 95, 1.600, 1.600, 58.600, 2, 100, 99, 30, 23728, -19141, 5108, 5377, 17, 14, 1530739338.000, 76, 0, 1024, 1024, 1024, 1024, 0, 6, 3942, 3938, 3976, 3955, 3972, 3951, 0, 1, 20400, -89.900, 0.000, 59.300, 0.000, 0.000, -2.900, 0.0, , , , , , 96, , , 0, 0, 0
36.0257550, -118.5730077, 44.300, 14:22:18.099, 14, 0.00, 0.49, 95, 1.600, 1.600, 58.600, 2, 100, 99, 30, 23728, -19141, 5108, 5377, 17, 14, 1530739338.100, 176, 0, 1024, 1024, 1024, 1024, 0, 6, 3942, 3938, 3976, 3955, 3972, 3951, 0, 1, 20499, -89.900, 0.000, 59.300, 0.000, 0.000, -2.900, 0.0, , , , , , 96, , , 0, 0, 0
36.0257550, -118.5730075, 44.900, 14:22:18.199, 14, 0.00, 0.50, 95, 1.600, 1.700, 58.600, 2, 100, 99, 30, 23728, -19141, 5108, 5377, 17, 14, 1530739338.200, 62, 0, 1024, 1024, 1024, 1024, 0, 6, 3942, 3938, 3976, 3955, 3972, 3951, 0, 1, 20599, -89.900, 0.000, 59.300, 0.000, 0.000, -2.900, 0.0, , , , , , 96, , , 0, 0, 0
36.0257549, -118.5730074, 45.200, 14:22:18.299, 14, 0.00, 0.50, 95, 1.300, 1.700, 58.500, 2, 100, 98, 30, 23728, -19141, 5108, 5377, 17, 14, 1530739338.300, 66, 0, 1024, 1024, 1024, 1024, 0, 6, 3942, 3938, 3976, 3955, 3972, 3951, 0, 1, 20700, -89.900, 0.000, 59.300, 0.000, 0.000, -2.900, 0.0, , , , , , 96, , , 0, 0, 0
36.0257549, -118.5730073, 45.400, 14:22:18.399, 14, 0.00, 0.51, 95, 1.000, 1.700, 58.400, 2, 100, 98, 30, 23728, -19141, 5108, 5377, 17, 14, 1530739338.399, 47, 0, 1024, 1024, 1024, 1024, 0, 6, 3942, 3938, 3976, 3955, 3972, 3951, 0, 1, 20799, -89.900, 0.000, 59.300, 0.000, 0.000, -2.900, 0.0, , , , , , 96, , , 0, 0, 0
36.0257549, -118.5730072, 45.700, 14:22:18.499, 14, 0.00, 0.51, 95, 1.000, 1.800, 58.300, 2, 100, 98, 30, 23728, -19141, 5108, 5377, 17, 14, 1530739338.500, 52, 0, 1024, 1024, 1024, 1024, 0, 6, 3942, 3938, 3976, 3955, 3972, 3951, 0, 1, 20900, -89.900, 0.000, 59.300, 0.000, 0.000, -3.000, 0.0, , , , , , 96, , , 0, 0, 0
36.0257549, -118.5730071, 46.000, 14:22:18.599, 14, 0.00, 0.51, 95, 0.900, 1.900, 58.300, 2, 100, 98, 30, 23728, -19141, 5108, 5377, 17, 14, 1530739338.600, 7, 0, 1024, 1024, 1024, 1024, 0, 6, 3942, 3938, 3976, 3955, 3972, 3951, 0, 1, 20999, -89.900, 0.000, 59.300, 0.000, 0.000, -2.900, 0.0, , , , , , 96, , , 0, 0, 0
36.0257549, -118.5730071, 46.300, 14:22:18.699, 14, 0.00, 0.52, 95, 0.700, 1.900, 58.500, 2, 100, 98, 30, 23672, -19474, 5108, 5377, 17, 14, 1530739338.699, 34, 0, 1024, 1024, 1024, 1024, 0, 6, 3942, 3938, 3976, 3955, 3972, 3951, 0, 1, 21099, -89.900, 0.000, 59.300, 0.000, 0.000, -3.000, 0.0, , , , , , 96, , , 0, 0, 0
36.0257549, -118.5730070, 46.600, 14:22:18.799, 14, 0.00, 0.52, 95, 1.100, 2.200, 58.700, 2, 100, 99, 30, 23672, -19474, 5108, 5377, 17, 14, 1530739338.800, 14, 0, 1024, 1024, 1024, 1024, 0, 6, 3942, 3938, 3976, 3955, 3972, 3951, 0, 1, 21200, -89.900, 0.000, 59.300, 0.000, 0.000, -3.000, 0.0, , , , , , 96, , , 0, 0, 0
36.0257550, -118.5730070, 46.900, 14:22:18.899, 14, 0.00, 0.53, 95, 1.900, 2.300, 58.700, 2, 100, 99, 30, 23672, -19474, 5108, 5377, 17, 14, 1530739338.900, 17, 0, 1024, 1024, 1024, 1024, 0, 6, 3942, 3938, 3976, 3955, 3972, 3951, 0, 1, 21300, -89.900, 0.000, 59.300, 0.000, 0.000, -3.100, 0.0, , , , , , 96, , , 0, 0, 0
36.0257550, -118.5730070, 47.300, 14:22:18.999, 15, 0.00, 0.53, 95, 2.300, 2.300, 58.700, 2, 100, 99, 30, 23672, -19474, 5108, 5377, 17, 14, 1530739339.000, 6, 0, 1024, 1024, 1024, 1024, 0, 6, 3942, 3938, 3976, 3955, 3972, 3951, 0, 1, 21399, -89.900, 0.000, 59.300, 0.000, 0.000, -3.100, 0.0, , , , , , 96, , , 0, 0, 0
36.0257550, -118.5730070, 47.600, 14:22:19.099, 15, 0.00, 0.54, 95, 2.600, 2.200, 58.600, 2, 100, 99, 30, 23672, -19474, 5108, 5377, 17, 14, 1530739339.100, 11, 0, 1024, 1024, 1024, 1024, 0, 6, 3942, 3938, 3976, 3955, 3972, 3951, 0, 1, 21500, -89.900, 0.000, 59.300, 0.000, 0.000, -3.100, 0.0, , , , , , 96, , , 0, 0, 0
