latitude,longitude,altitude(feet),ascent(feet),speed(mph),distance(feet),time(millisecond),datetime(utc),satellites,gpslevel,voltage(v),max_altitude(feet),max_ascent(feet),max_speed(mph),max_distance(feet), xSpeed(mph), ySpeed(mph), zSpeed(mph), compass_heading(degrees), pitch(degrees), roll(degrees),isPhoto,isVideo,rc_elevator,rc_aileron,rc_throttle,rc_rudder,gimbal_heading(degrees),gimbal_pitch(degrees),battery_percent,voltageCell1,voltageCell2,voltageCell3,voltageCell4,voltageCell5,voltageCell6,current(A),battery_temperature(f),flycStateRaw,flycState,message
36.0257519,-118.5730104,6540.646019012,-0.328084,0.6263432,0,3200,2018-07-04 21:22:01,14,0,0,6540.646019012,0,0.6263432,0,0,0,0,58, -1.6, 0.3,1,0,1024,1024,1024,1024,59.6,-89.9,97,4.13,4.124,4.164,4.1,4.103,4.105,0,84.2,11,AutoTakeoff,DJI_0001.jpg Starting Mission from Lat/Long: 36.02575/-118.57304 Camera: Zenmuse X3 - Overlap: 90/90 - Active Connection: No
36.0257523,-118.5730097,6540.974103012,0,0.6263432,0.252906504156,3300,2018-07-04 21:22:01,14,0,0,6540.974103012,0,0.6263432,0.252906504156,0,0,-0.223694,57.5, 0.7, -0.4,0,0,1024,1024,1024,1024,59.6,-89.9,97,4.13,4.124,4.164,4.1,4.103,4.105,0,84.2,11,AutoTakeoff,
36.0257525,-118.5730094,6540.974103012,0,0.6263432,0.36740814824,3400,2018-07-04 21:22:01,14,0,0,6540.974103012,0,0.6263432,0.36740814824,0,0,-0.223694,57.5, 1.6, -0.4,0,0,1024,1024,1024,1024,59.6,-89.9,97,4.13,4.124,4.164,4.1,4.103,4.105,0,84.2,11,AutoTakeoff,
36.0257527,-118.5730092,6541.302187012,0.328084,0.6263432,0.45888124828,3500,2018-07-04 21:22:01,14,0,0,6541.302187012,0.328084,0.6263432,0.45888124828,0,0,-0.223694,57.6, 2.4, 0,0,0,1024,1024,1024,1024,59.6,-89.9,97,4.13,4.124,4.164,4.1,4.103,4.105,0,84.2,11,AutoTakeoff,
36.0257529,-118.573009,6541.302187012,0.328084,0.4921268,0.55115159244,3600,2018-07-04 21:22:01,13,0,0,6541.302187012,0.328084,0.6263432,0.55115159244,0,0,-0.223694,57.9, 2.9, 0.6,0,0,1024,1024,1024,1024,59.6,-89.9,97,4.13,4.124,4.164,4.1,4.103,4.105,0,84.2,11,AutoTakeoff,
36.0257531,-118.5730088,6541.630271012,0.656168,0.4921268,0.64387797336,3700,2018-07-04 21:22:01,13,0,0,6541.630271012,0.656168,0.6263432,0.64387797336,0,0,0,58.1, 2.9, 1.1,0,0,1024,1024,1024,1024,59.5,-89.9,97,4.13,4.124,4.164,4.1,4.103,4.105,0,84.2,11,AutoTakeoff,
36.0257532,-118.5730086,6541.630271012,0.656168,0.3131716,0.71208335612,3800,2018-07-04 21:22:01,13,0,0,6541.630271012,0.656168,0.6263432,0.71208335612,0,0,0,58.2, 2.6, 1.3,0,0,1024,1024,1024,1024,59.5,-89.9,97,4.13,4.124,4.164,4.1,4.103,4.105,0,84.2,11,AutoTakeoff,
36.0257533,-118.5730084,6541.958355012,0.984252,0.223694,0.78049871264,3900,2018-07-04 21:22:02,13,0,0,6541.958355012,0.984252,0.6263432,0.78049871264,0,0,0,58.2, 2.2, 1.4,0,0,1024,1024,1024,1024,59.5,-89.9,97,4.13,4.124,4.164,4.1,4.103,4.105,0,84.2,11,AutoTakeoff,
36.0257535,-118.5730082,6541.958355012,0.984252,0.223694,0.873031524,4000,2018-07-04 21:22:02,14,0,24.855,6541.958355012,0.984252,0.6263432,0.873031524,0,0,0,58.2, 1.9, 1.4,0,0,1024,1024,1024,1024,59.4,-89.9,97,4.13,4.124,4.164,4.1,4.103,4.105,12.057,84.2,11,AutoTakeoff,
36.0257537,-118.5730081,6542.286439012,1.312336,0.223694,0.94439635568,4100,2018-07-04 21:22:02,14,0,24.855,6542.286439012,1.312336,0.6263432,0.94439635568,0,0,0,58.1, 1.4, 1.1,0,0,1024,1024,1024,1024,59.4,-90,97,4.13,4.124,4.164,4.1,4.103,4.105,12.057,84.2,11,AutoTakeoff,
36.0257539,-118.573008,6542.286439012,1.312336,0.223694,1.01684386456,4200,2018-07-04 21:22:02,14,0,24.855,6542.286439012,1.312336,0.6263432,1.01684386456,0,0,0,58.1, 1, 0.9,0,0,1024,1024,1024,1024,59.4,-90,97,4.13,4.124,4.164,4.1,4.103,4.105,12.057,84.2,11,AutoTakeoff,
36.025754,-118.5730079,6542.614523012,1.64042,0.223694,1.06358599204,4300,2018-07-04 21:22:02,14,0,24.855,6542.614523012,1.64042,0.6263432,1.06358599204,0,0,-0.223694,58.1, 0.9, 0.8,0,0,1024,1024,1024,1024,59.4,-90,97,4.13,4.124,4.164,4.1,4.103,4.105,12.057,84.2,11,AutoTakeoff,
36.0257541,-118.5730079,6542.614523012,1.64042,0.223694,1.09016079604,4400,2018-07-04 21:22:02,13,0,24.855,6542.614523012,1.64042,0.6263432,1.09016079604,0,0,-0.223694,58.1, 1, 0.9,0,0,1024,1024,1024,1024,59.4,-89.9,97,4.13,4.124,4.164,4.1,4.103,4.105,12.057,84.2,11,AutoTakeoff,
36.0257542,-118.5730078,6542.942607012,1.968504,0.223694,1.13699478704,4500,2018-07-04 21:22:02,13,0,24.855,6542.942607012,1.968504,0.6263432,1.13699478704,0,0,0,58.1, 1.1, 1,0,0,1024,1024,1024,1024,59.3,-89.9,97,4.13,4.124,4.164,4.1,4.103,4.105,12.057,84.2,11,AutoTakeoff,
36.0257545,-118.5730078,6543.270691012,2.296588,0,1.22001644324,4700,2018-07-04 21:22:02,13,0,24.855,6543.270691012,2.296588,0.6263432,1.22001644324,0,0,0,58.2, 1.3, 1.4,0,0,1024,1024,1024,1024,59.3,-89.9,97,4.13,4.124,4.164,4.1,4.103,4.105,12.057,84.2,11,AutoTakeoff,
36.0257547,-118.5730079,6543.598775012,2.624672,0,1.26007878048,4900,2018-07-04 21:22:03,13,0,24.855,6543.598775012,2.624672,0.6263432,1.26007878048,0,0,-0.223694,58.3, 1.4, 1.4,0,0,1024,1024,1024,1024,59.3,-89.9,97,4.13,4.124,4.164,4.1,4.103,4.105,12.057,84.2,11,AutoTakeoff,
36.0257547,-118.573008,6543.598775012,2.624672,0,1.24303481668,5000,2018-07-04 21:22:03,13,0,24.456,6543.598775012,2.624672,0.6263432,1.26007878048,0,0,-0.223694,58.3, 1.4, 1.5,0,0,1024,1024,1024,1024,59.3,-89.9,97,4.13,4.124,4.164,4.1,4.103,4.105,16.928,84.2,11,AutoTakeoff,
36.0257548,-118.573008,6543.926859012,2.952756,0,1.27318901712,5100,2018-07-04 21:22:03,13,0,24.456,6543.926859012,2.952756,0.6263432,1.27318901712,0,0,0,58.4, 1.3, 1.6,0,0,1024,1024,1024,1024,59.3,-89.9,97,4.13,4.124,4.164,4.1,4.103,4.105,16.928,84.2,6,P-GPS,
36.0257548,-118.5730081,6543.926859012,2.952756,0,1.25701447592,5200,2018-07-04 21:22:03,13,0,24.456,6543.926859012,2.952756,0.6263432,1.27318901712,0,0,0,58.4, 1.1, 1.7,0,0,1024,1024,1024,1024,59.3,-90,97,4.13,4.124,4.164,4.1,4.103,4.105,16.928,84.2,14,Waypoint,
36.0257548,-118.5730082,6544.254943012,3.28084,0,1.24133206072,5400,2018-07-04 21:22:03,13,0,24.456,6544.254943012,3.28084,0.6263432,1.27318901712,0,0,0,58.3, 0.4, 1.6,0,0,1024,1024,1024,1024,59.3,-90,97,4.13,4.124,4.164,4.1,4.103,4.105,16.928,84.2,14,Waypoint,
36.0257548,-118.5730084,6544.254943012,3.28084,0,1.2115157868,5600,2018-07-04 21:22:03,14,0,24.456,6544.254943012,3.28084,0.6263432,1.27318901712,0,0,0,58.2, -0.6, 0.9,0,0,1024,1024,1024,1024,59.3,-90,97,4.13,4.124,4.164,4.1,4.103,4.105,16.928,84.2,14,Waypoint,
36.0257548,-118.5730085,6544.583027012,3.608924,0,1.19741801732,5700,2018-07-04 21:22:03,13,0,24.456,6544.583027012,3.608924,0.6263432,1.27318901712,0,0,0,58.1, -0.6, 1,0,0,1024,1024,1024,1024,59.3,-90,97,4.13,4.124,4.164,4.1,4.103,4.105,16.928,84.2,14,Waypoint,
36.0257548,-118.5730086,6544.583027012,3.608924,0,1.183891114,5800,2018-07-04 21:22:03,13,0,24.456,6544.583027012,3.608924,0.6263432,1.27318901712,0,0,0,58, -0.5, 1.3,0,0,1024,1024,1024,1024,59.3,-90,97,4.13,4.124,4.164,4.1,4.103,4.105,16.928,84.2,14,Waypoint,
36.0257549,-118.5730087,6544.583027012,3.608924,0,1.2040190674,5900,2018-07-04 21:22:04,12,0,24.456,6544.583027012,3.608924,0.6263432,1.27318901712,0,0,-0.223694,58, -0.2, 1.4,0,0,1024,1024,1024,1024,59.3,-89.9,97,4.13,4.124,4.164,4.1,4.103,4.105,16.928,84.2,14,Waypoint,
36.0257549,-118.5730087,6544.911111012,3.937008,0,1.2040190674,6000,2018-07-04 21:22:04,12,0,24.456,6544.911111012,3.937008,0.6263432,1.27318901712,0,0,-0.223694,58, 0, 1.5,0,0,1024,1024,1024,1024,59.3,-89.9,97,4.056,4.066,4.095,4.062,4.078,4.062,16.928,84.2,14,Waypoint,
36.025755,-118.5730087,6545.239195012,4.265092,0,1.23728022332,6100,2018-07-04 21:22:04,13,0,24.456,6545.239195012,4.265092,0.6263432,1.27318901712,0,0,-0.223694,58.1, 0.1, 1.6,0,0,1024,1024,1024,1024,59.3,-89.9,97,4.056,4.066,4.095,4.062,4.078,4.062,16.928,84.2,14,Waypoint,
36.025755,-118.5730088,6545.895363012,4.92126,0,1.22561355628,6200,2018-07-04 21:22:04,12,0,24.456,6545.895363012,4.92126,0.6263432,1.27318901712,0,0,-0.223694,58.5, 0, 1.6,0,0,1024,1024,1024,1024,59.3,-89.9,97,4.056,4.066,4.095,4.062,4.078,4.062,16.928,84.2,14,Waypoint,
36.025755,-118.5730088,6546.551531012,5.577428,0,1.22561355628,6300,2018-07-04 21:22:04,12,0,24.456,6546.551531012,5.577428,0.6263432,1.27318901712,0,0,-0.447388,58.7, 0, 1.1,0,0,1024,1024,1024,1024,59.3,-90,97,4.056,4.066,4.095,4.062,4.078,4.062,16.928,84.2,14,Waypoint,
36.025755,-118.5730088,6546.879615012,5.905512,0,1.22561355628,6400,2018-07-04 21:22:04,13,0,24.456,6546.879615012,5.905512,0.6263432,1.27318901712,0,0,-0.447388,58.9, 0.1, 0.8,0,0,1024,1024,1024,1024,59.3,-89.9,97,4.056,4.066,4.095,4.062,4.078,4.062,16.928,84.2,14,Waypoint,
36.0257549,-118.5730088,6547.535783012,6.56168,0,1.1920275972,6500,2018-07-04 21:22:04,13,0,24.456,6547.535783012,6.56168,0.6263432,1.27318901712,0,0,-0.447388,59.1, 0.3, 0.8,0,0,1024,1024,1024,1024,59.3,-89.9,97,4.056,4.066,4.095,4.062,4.078,4.062,16.928,84.2,14,Waypoint,
36.0257548,-118.5730088,6548.520035012,7.545932,0,1.15861552264,6600,2018-07-04 21:22:04,13,0,24.456,6548.520035012,7.545932,0.6263432,1.27318901712,0,0,-0.447388,59.2, 0.3, 0.9,0,0,1024,1024,1024,1024,59.3,-89.9,97,4.056,4.066,4.095,4.062,4.078,4.062,16.928,84.2,14,Waypoint,
36.0257547,-118.5730089,6549.504287012,8.530184,0,1.11333993064,6700,2018-07-04 21:22:04,13,0,24.456,6549.504287012,8.530184,0.6263432,1.27318901712,0,0,-0.671082,59.2, 0.2, 0.7,0,0,1024,1024,1024,1024,59.3,-89.9,97,4.056,4.066,4.095,4.062,4.078,4.062,16.928,84.2,14,Waypoint,
36.0257546,-118.5730089,6550.488539012,9.514436,0,1.07996066448,6800,2018-07-04 21:22:04,11,0,24.456,6550.488539012,9.514436,0.6263432,1.27318901712,0,0,-0.671082,59.1, 0, 0.3,0,0,1024,1024,1024,1024,59.3,-90,97,4.056,4.066,4.095,4.062,4.078,4.062,16.928,84.2,14,Waypoint,
36.0257546,-118.5730087,6551.472791012,10.498688,0,1.10545607212,6900,2018-07-04 21:22:05,11,0,24.456,6551.472791012,10.498688,0.6263432,1.27318901712,0,0,-0.671082,59, 0, 0.1,0,0,1024,1024,1024,1024,59.3,-90,97,4.056,4.066,4.095,4.062,4.078,4.062,16.928,84.2,14,Waypoint,
36.0257547,-118.5730085,6552.457043012,11.48294,0,1.1653051554,7000,2018-07-04 21:22:05,11,0,24.334,6552.457043012,11.48294,0.6263432,1.27318901712,0,0,-0.671082,58.9, 0.4, 0.1,0,0,1024,1024,1024,1024,59.3,-89.9,97,4.038,4.042,4.074,4.053,4.068,4.058,17.036,84.2,14,Waypoint,
36.0257547,-118.5730082,6553.769379012,12.795276,0,1.210383897,7100,2018-07-04 21:22:05,11,0,24.334,6553.769379012,12.795276,0.6263432,1.27318901712,0,0,-0.671082,58.7, 0.9, 0.2,0,0,1024,1024,1024,1024,59.3,-89.9,97,4.038,4.042,4.074,4.053,4.068,4.058,17.036,84.2,14,Waypoint,
36.0257547,-118.573008,6554.753631012,13.779528,0,1.24303481668,7200,2018-07-04 21:22:05,13,0,24.334,6554.753631012,13.779528,0.6263432,1.27318901712,0,0,-0.671082,58.6, 1.3, 0.3,0,0,1024,1024,1024,1024,59.3,-89.9,97,4.038,4.042,4.074,4.053,4.068,4.058,17.036,84.2,14,Waypoint,
36.0257547,-118.573008,6555.737883012,14.76378,0,1.24303481668,7300,2018-07-04 21:22:05,13,0,24.334,6555.737883012,14.76378,0.6263432,1.27318901712,0,0,-0.671082,58.5, 1.6, 0.3,0,0,1024,1024,1024,1024,59.3,-89.9,97,4.038,4.042,4.074,4.053,4.068,4.058,17.036,84.2,14,Waypoint,
36.0257547,-118.5730079,6556.722135012,15.748032,0,1.26007878048,7400,2018-07-04 21:22:05,14,0,24.334,6556.722135012,15.748032,0.6263432,1.27318901712,0,0,-0.671082,58.5, 1.5, 0.4,0,0,1024,1024,1024,1024,59.3,-89.9,97,4.038,4.042,4.074,4.053,4.068,4.058,17.036,84.2,14,Waypoint,
36.0257546,-118.5730079,6559.018723012,18.04462,0,1.23068573492,7600,2018-07-04 21:22:05,13,0,24.334,6559.018723012,18.04462,0.6263432,1.27318901712,0,0,-0.671082,58.5, 0.8, 0.5,0,0,1024,1024,1024,1024,59.3,-90,97,4.038,4.042,4.074,4.053,4.068,4.058,17.036,84.2,14,Waypoint,
36.0257544,-118.5730079,6560.002975012,19.028872,0,1.17309058872,7700,2018-07-04 21:22:05,13,0,24.334,6560.002975012,19.028872,0.6263432,1.27318901712,0,0,-0.671082,58.4, 0.5, 0.4,0,0,1024,1024,1024,1024,59.2,-90,97,4.038,4.042,4.074,4.053,4.068,4.058,17.036,84.2,14,Waypoint,
36.0257543,-118.573008,6561.315311012,20.341208,0,1.12616801504,7900,2018-07-04 21:22:06,13,0,24.334,6561.315311012,20.341208,0.6263432,1.27318901712,0,0,-0.671082,58.2, 0.1, 0.2,0,0,1024,1024,1024,1024,59.3,-90,97,4.038,4.042,4.074,4.053,4.068,4.058,17.036,84.2,14,Waypoint,
36.0257543,-118.5730082,6562.299563012,21.32546,0,1.09002300076,8000,2018-07-04 21:22:06,13,0,24.056,6562.299563012,21.32546,0.6263432,1.27318901712,0,0,-0.671082,58.1, -0.1, 0.1,0,0,1024,1024,1024,1024,59.3,-90,97,3.985,3.973,4.018,3.981,3.979,3.999,19.389,84.2,14,Waypoint,
36.0257542,-118.5730084,6563.283815012,22.309712,0,1.02588914044,8100,2018-07-04 21:22:06,13,0,24.056,6563.283815012,22.309712,0.6263432,1.27318901712,0,0,-0.671082,58.1, -0.3, 0.2,0,0,1024,1024,1024,1024,59.3,-90,97,3.985,3.973,4.018,3.981,3.979,3.999,19.389,84.2,14,Waypoint,
36.0257541,-118.5730086,6564.596151012,23.622048,0,0.9624836266,8200,2018-07-04 21:22:06,13,0,24.056,6564.596151012,23.622048,0.6263432,1.27318901712,0,0,-0.671082,58.1, -0.5, 0.4,0,0,1024,1024,1024,1024,59.3,-90,97,3.985,3.973,4.018,3.981,3.979,3.999,19.389,84.2,14,Waypoint,
36.0257541,-118.5730088,6565.580403012,24.6063,0,0.93122050224,8300,2018-07-04 21:22:06,13,0,24.056,6565.580403012,24.6063,0.6263432,1.27318901712,0,0,-0.671082,58.1, -0.7, 0.6,0,0,1024,1024,1024,1024,59.3,-90,97,3.985,3.973,4.018,3.981,3.979,3.999,19.389,84.2,14,Waypoint,
36.0257541,-118.5730092,6567.876991012,26.902888,0,0.87729989684,8400,2018-07-04 21:22:06,13,0,24.056,6567.876991012,26.902888,0.6263432,1.27318901712,0,0,-0.671082,58.4, -0.9, 0.7,0,0,1024,1024,1024,1024,59.3,-90,97,3.985,3.973,4.018,3.981,3.979,3.999,19.389,84.2,14,Waypoint,
36.0257542,-118.5730094,6568.861243012,27.88714,0,0.88952102584,8500,2018-07-04 21:22:06,13,0,24.056,6568.861243012,27.88714,0.6263432,1.27318901712,0,0,-0.671082,58.6, -0.9, 1,0,0,1024,1024,1024,1024,59.3,-90,97,3.985,3.973,4.018,3.981,3.979,3.999,19.389,84.2,14,Waypoint,
36.0257542,-118.5730096,6569.845495012,28.871392,0,0.87172246884,8600,2018-07-04 21:22:06,13,0,24.056,6569.845495012,28.871392,0.6263432,1.27318901712,0,0,-0.671082,58.8, -0.7, 1.3,0,0,1024,1024,1024,1024,59.3,-90,97,3.985,3.973,4.018,3.981,3.979,3.999,19.389,84.2,14,Waypoint,
36.0257543,-118.5730098,6570.829747012,29.855644,0,0.8933563278,8700,2018-07-04 21:22:06,13,0,24.056,6570.829747012,29.855644,0.6263432,1.27318901712,0,0,-0.671082,58.9, -0.6, 1.5,0,0,1024,1024,1024,1024,59.3,-90,97,3.985,3.973,4.018,3.981,3.979,3.999,19.389,84.2,14,Waypoint,
36.0257543,-118.5730099,6571.813999012,30.839896,0,0.88798231188,8800,2018-07-04 21:22:06,13,0,24.056,6571.813999012,30.839896,0.6263432,1.27318901712,0,0,-0.671082,58.9, -0.6, 1.5,0,0,1024,1024,1024,1024,59.3,-90,97,3.985,3.973,4.018,3.981,3.979,3.999,19.389,84.2,14,Waypoint,
36.0257544,-118.57301,6573.126335012,32.152232,0,0.91972771972,8900,2018-07-04 21:22:07,13,0,24.056,6573.126335012,32.152232,0.6263432,1.27318901712,0,0,-0.671082,58.9, -0.8, 1.4,0,0,1024,1024,1024,1024,59.3,-89.9,97,3.985,3.973,4.018,3.981,3.979,3.999,19.389,84.2,14,Waypoint,
36.0257544,-118.5730101,6574.110587012,33.136484,0,0.91640750964,9000,2018-07-04 21:22:07,13,0,23.717,6574.110587012,33.136484,0.6263432,1.27318901712,0,0,-0.671082,58.9, -0.8, 1.5,0,0,1024,1024,1024,1024,59.3,-90,96,3.927,3.941,4.001,3.973,3.989,3.978,23.927,84.2,14,Waypoint,
36.0257544,-118.5730103,6575.094839012,34.120736,0,0.91260173524,9100,2018-07-04 21:22:07,13,0,23.717,6575.094839012,34.120736,0.6263432,1.27318901712,0,0,-0.671082,58.8, -0.7, 1.7,0,0,1024,1024,1024,1024,59.3,-89.9,96,3.927,3.941,4.001,3.973,3.989,3.978,23.927,84.2,14,Waypoint,
36.0257545,-118.5730103,6576.079091012,35.104988,0,0.94906827184,9200,2018-07-04 21:22:07,13,0,23.717,6576.079091012,35.104988,0.6263432,1.27318901712,0,0,-0.671082,58.6, -0.6, 1.7,0,0,1024,1024,1024,1024,59.3,-89.9,96,3.927,3.941,4.001,3.973,3.989,3.978,23.927,84.2,14,Waypoint,
36.0257546,-118.5730103,6577.063343012,36.08924,0,0.98553480844,9300,2018-07-04 21:22:07,13,0,23.717,6577.063343012,36.08924,0.6263432,1.27318901712,0,0,-0.671082,58.5, -0.4, 1.6,0,0,1024,1024,1024,1024,59.3,-89.9,96,3.927,3.941,4.001,3.973,3.989,3.978,23.927,84.2,14,Waypoint,
36.0257547,-118.5730103,6578.047595012,37.073492,0,1.02200462588,9400,2018-07-04 21:22:07,13,0,23.717,6578.047595012,37.073492,0.6263432,1.27318901712,0,0,-0.671082,58.5, -0.2, 1.5,0,0,1024,1024,1024,1024,59.3,-89.9,96,3.927,3.941,4.001,3.973,3.989,3.978,23.927,84.2,14,Waypoint,
36.0257547,-118.5730103,6579.031847012,38.057744,0,1.02200462588,9500,2018-07-04 21:22:07,13,0,23.717,6579.031847012,38.057744,0.6263432,1.27318901712,0,0,-0.671082,58.5, 0, 1.4,0,0,1024,1024,1024,1024,59.3,-89.9,96,3.927,3.941,4.001,3.973,3.989,3.978,23.927,84.2,14,Waypoint,
36.0257548,-118.5730102,6580.016099012,39.041996,0.223694,1.05970803916,9600,2018-07-04 21:22:07,13,0,23.717,6580.016099012,39.041996,0.6263432,1.27318901712,0,0,-0.671082,58.5, 0.1, 1.2,0,0,1024,1024,1024,1024,59.3,-89.9,96,3.927,3.941,4.001,3.973,3.989,3.978,23.927,84.2,14,Waypoint,
36.0257549,-118.5730102,6581.000351012,40.026248,0.223694,1.09613848652,9700,2018-07-04 21:22:07,13,0,23.717,6581.000351012,40.026248,0.6263432,1.27318901712,0,0,-0.671082,58.5, 0.2, 1.1,0,0,1024,1024,1024,1024,59.3,-89.9,96,3.927,3.941,4.001,3.973,3.989,3.978,23.927,84.2,14,Waypoint,
36.0257549,-118.5730101,6581.984603012,41.0105,0.223694,1.09812339472,9800,2018-07-04 21:22:07,13,0,23.717,6581.984603012,41.0105,0.6263432,1.27318901712,0,0,-0.671082,58.4, 0.5, 1.1,0,0,1024,1024,1024,1024,59.3,-89.9,96,3.927,3.941,4.001,3.973,3.989,3.978,23.927,84.2,14,Waypoint,
36.025755,-118.5730101,6582.968855012,41.994752,0.223694,1.13449150612,9900,2018-07-04 21:22:08,13,0,23.717,6582.968855012,41.994752,0.6263432,1.27318901712,0,0,-0.671082,58.3, 0.7, 1.1,0,0,1024,1024,1024,1024,59.3,-89.9,96,3.927,3.941,4.001,3.973,3.989,3.978,23.927,84.2,14,Waypoint,
36.025755,-118.57301,6583.953107012,42.979004,0.223694,1.13717523324,10000,2018-07-04 21:22:08,13,0,24.027,6583.953107012,42.979004,0.6263432,1.27318901712,0,0,-0.671082,58.2, 0.9, 1.2,0,0,1024,1024,1024,1024,59.3,-89.9,96,3.988,3.991,4.028,4.009,4.022,4.003,18.952,84.2,14,Waypoint,
36.0257551,-118.5730099,6585.265443012,44.29134,0.223694,1.1768044996,10200,2018-07-04 21:22:08,13,0,24.027,6585.265443012,44.29134,0.6263432,1.27318901712,0,0,-0.671082,58.1, 1, 1.1,0,0,1024,1024,1024,1024,59.3,-89.9,96,3.988,3.991,4.028,4.009,4.022,4.003,18.952,84.2,14,Waypoint,
36.0257551,-118.5730098,6586.249695012,45.275592,0.223694,1.18086617952,10300,2018-07-04 21:22:08,13,0,24.027,6586.249695012,45.275592,0.6263432,1.27318901712,0,0,-0.671082,58, 0.9, 0.9,0,0,1024,1024,1024,1024,59.3,-89.9,96,3.988,3.991,4.028,4.009,4.022,4.003,18.952,84.2,14,Waypoint,
36.0257551,-118.5730098,6587.233947012,46.259844,0,1.18086617952,10400,2018-07-04 21:22:08,13,0,24.027,6587.233947012,46.259844,0.6263432,1.27318901712,0,0,-0.671082,58, 0.8, 0.8,0,0,1024,1024,1024,1024,59.3,-89.9,96,3.988,3.991,4.028,4.009,4.022,4.003,18.952,84.2,14,Waypoint,
36.0257552,-118.5730098,6588.218199012,47.244096,0,1.21694885784,10500,2018-07-04 21:22:08,13,0,24.027,6588.218199012,47.244096,0.6263432,1.27318901712,0,0,-0.671082,58, 0.9, 0.9,0,0,1024,1024,1024,1024,59.3,-89.9,96,3.988,3.991,4.028,4.009,4.022,4.003,18.952,84.2,14,Waypoint,
36.0257552,-118.5730097,6589.202451012,48.228348,0,1.22159124644,10600,2018-07-04 21:22:08,13,0,24.027,6589.202451012,48.228348,0.6263432,1.27318901712,0,0,-0.671082,57.9, 0.9, 1.1,0,0,1024,1024,1024,1024,59.3,-89.9,96,3.988,3.991,4.028,4.009,4.022,4.003,18.952,84.2,14,Waypoint,
36.0257552,-118.5730096,6590.186703012,49.2126,0,1.22692589228,10700,2018-07-04 21:22:08,13,0,24.027,6590.186703012,49.2126,0.6263432,1.27318901712,0,0,-0.671082,57.9, 0.9, 1,0,0,1024,1024,1024,1024,59.3,-89.9,96,3.988,3.991,4.028,4.009,4.022,4.003,18.952,84.2,14,Waypoint,
36.0257553,-118.5730095,6591.170955012,50.196852,0,1.26859584112,10800,2018-07-04 21:22:08,13,0,24.027,6591.170955012,50.196852,0.6263432,1.27318901712,0,0,-0.671082,58, 0.9, 1,0,0,1024,1024,1024,1024,59.3,-89.9,96,3.988,3.991,4.028,4.009,4.022,4.003,18.952,84.2,14,Waypoint,
36.0257553,-118.5730095,6592.155207012,51.181104,0,1.26859584112,10900,2018-07-04 21:22:09,14,0,24.027,6592.155207012,51.181104,0.6263432,1.27318901712,0,0,-0.671082,58.1, 0.9, 0.9,0,0,1024,1024,1024,1024,59.3,-89.9,96,3.988,3.991,4.028,4.009,4.022,4.003,18.952,84.2,14,Waypoint,
36.0257553,-118.5730093,6594.123711012,53.149608,0,1.2822506972,11000,2018-07-04 21:22:09,14,0,24.042,6594.123711012,53.149608,0.6263432,1.2822506972,0,0,-0.671082,58.3, 0.7, 0.8,0,0,1024,1024,1024,1024,59.3,-89.9,96,3.991,3.996,4.024,4.01,4.029,4.003,18.172,84.2,14,Waypoint,
36.0257553,-118.5730092,6595.107963012,54.13386,0,1.29003284968,11100,2018-07-04 21:22:09,14,0,24.042,6595.107963012,54.13386,0.6263432,1.29003284968,0,0,-0.671082,58.3, 0.7, 0.8,0,0,1024,1024,1024,1024,59.3,-89.9,96,3.991,3.996,4.024,4.01,4.029,4.003,18.172,84.2,14,Waypoint,
36.0257553,-118.5730091,6596.092215012,55.118112,0.223694,1.29844492344,11200,2018-07-04 21:22:09,14,0,24.042,6596.092215012,55.118112,0.6263432,1.29844492344,0,0,-0.671082,58.2, 1, 0.8,0,0,1024,1024,1024,1024,59.3,-89.9,96,3.991,3.996,4.024,4.01,4.029,4.003,18.172,84.2,14,Waypoint,
36.0257553,-118.573009,6597.076467012,56.102364,0.223694,1.3074639526,11300,2018-07-04 21:22:09,14,0,24.042,6597.076467012,56.102364,0.6263432,1.3074639526,0,0,-0.671082,58.2, 1.3, 0.7,0,0,1024,1024,1024,1024,59.3,-89.9,96,3.991,3.996,4.024,4.01,4.029,4.003,18.172,84.2,14,Waypoint,
36.0257553,-118.5730088,6599.044971012,58.070868,0,1.32729334956,11500,2018-07-04 21:22:09,14,0,24.042,6599.044971012,58.070868,0.6263432,1.32729334956,0,0,-0.671082,58.3, 1.5, 0.6,0,0,1024,1024,1024,1024,59.3,-89.9,96,3.991,3.996,4.024,4.01,4.029,4.003,18.172,84.2,14,Waypoint,
36.0257553,-118.5730087,6599.701139012,58.727036,0,1.33807090896,11600,2018-07-04 21:22:09,14,0,24.042,6599.701139012,58.727036,0.6263432,1.33807090896,0,0,-0.671082,58.4, 1.5, 0.6,0,0,1024,1024,1024,1024,59.3,-89.9,96,3.991,3.996,4.024,4.01,4.029,4.003,18.172,84.2,14,Waypoint,
36.0257553,-118.5730086,6601.013475012,60.039372,0,1.34941277284,11700,2018-07-04 21:22:09,14,0,24.042,6601.013475012,60.039372,0.6263432,1.34941277284,0,0,-0.671082,58.6, 1.3, 0.7,0,0,1024,1024,1024,1024,59.3,-89.9,96,3.991,3.996,4.024,4.01,4.029,4.003,18.172,84.2,14,Waypoint,
36.0257552,-118.5730086,6601.997727012,61.023624,0,1.31594820484,11800,2018-07-04 21:22:09,14,0,24.042,6601.997727012,61.023624,0.6263432,1.34941277284,0,0,-0.671082,58.7, 1.2, 0.7,0,0,1024,1024,1024,1024,59.3,-89.9,96,3.991,3.996,4.024,4.01,4.029,4.003,18.172,84.2,14,Waypoint,
36.0257552,-118.5730085,6602.981979012,62.007876,0,1.3281332446,11900,2018-07-04 21:22:10,14,0,24.042,6602.981979012,62.007876,0.6263432,1.34941277284,0,0,-0.671082,58.8, 1.1, 0.5,0,0,1024,1024,1024,1024,59.3,-89.9,96,3.991,3.996,4.024,4.01,4.029,4.003,18.172,84.2,14,Waypoint,
36.0257552,-118.5730084,6603.966231012,62.992128,0,1.34085634212,12000,2018-07-04 21:22:10,14,0,24.009,6603.966231012,62.992128,0.6263432,1.34941277284,0,0,-0.671082,58.9, 1.1, 0.3,0,0,1024,1024,1024,1024,59.3,-89.9,96,3.978,3.985,4.027,4,4.01,4.001,18.206,84.2,14,Waypoint,
36.0257551,-118.5730083,6604.950483012,63.97638,0,1.321768415,12100,2018-07-04 21:22:10,14,0,24.009,6604.950483012,63.97638,0.6263432,1.34941277284,0,0,-0.671082,58.9, 1, 0,0,0,1024,1024,1024,1024,59.3,-89.9,96,3.978,3.985,4.027,4,4.01,4.001,18.206,84.2,14,Waypoint,
36.0257551,-118.5730083,6605.934735012,64.960632,0,1.321768415,12200,2018-07-04 21:22:10,14,0,24.009,6605.934735012,64.960632,0.6263432,1.34941277284,0,0,-0.671082,58.9, 0.9, -0.1,0,0,1024,1024,1024,1024,59.3,-89.9,96,3.978,3.985,4.027,4,4.01,4.001,18.206,84.2,14,Waypoint,
36.0257551,-118.5730082,6606.918987012,65.944884,0,1.33585634196,12300,2018-07-04 21:22:10,14,0,24.009,6606.918987012,65.944884,0.6263432,1.34941277284,0,0,-0.671082,58.8, 0.8, 0,0,0,1024,1024,1024,1024,59.3,-90,96,3.978,3.985,4.027,4,4.01,4.001,18.206,84.2,14,Waypoint,
36.025755,-118.5730082,6607.903239012,66.929136,0,1.30408796824,12400,2018-07-04 21:22:10,14,0,24.009,6607.903239012,66.929136,0.6263432,1.34941277284,0,0,-0.671082,58.7, 0.7, 0.5,0,0,1024,1024,1024,1024,59.3,-89.9,96,3.978,3.985,4.027,4,4.01,4.001,18.206,84.2,14,Waypoint,
36.025755,-118.5730082,6608.887491012,67.913388,0,1.30408796824,12500,2018-07-04 21:22:10,14,0,24.009,6608.887491012,67.913388,0.6263432,1.34941277284,0,0,-0.671082,58.5, 0.7, 1.1,0,0,1024,1024,1024,1024,59.3,-89.9,96,3.978,3.985,4.027,4,4.01,4.001,18.206,84.2,14,Waypoint,
36.0257551,-118.5730082,6609.871743012,68.89764,0,1.33585634196,12600,2018-07-04 21:22:10,14,0,24.009,6609.871743012,68.89764,0.6263432,1.34941277284,0,0,-0.671082,58.5, 0.8, 1.5,0,0,1024,1024,1024,1024,59.3,-89.9,96,3.978,3.985,4.027,4,4.01,4.001,18.206,84.2,14,Waypoint,
36.0257551,-118.5730082,6610.855995012,69.881892,0,1.33585634196,12700,2018-07-04 21:22:10,14,0,24.009,6610.855995012,69.881892,0.6263432,1.34941277284,0,0,-0.671082,58.4, 0.9, 1.5,0,0,1024,1024,1024,1024,59.3,-89.9,96,3.978,3.985,4.027,4,4.01,4.001,18.206,84.2,14,Waypoint,
36.0257551,-118.5730081,6611.840247012,70.866144,0,1.35043967576,12800,2018-07-04 21:22:10,14,0,24.009,6611.840247012,70.866144,0.6263432,1.35043967576,0,0,-0.671082,58.4, 0.9, 1.4,0,0,1024,1024,1024,1024,59.3,-89.9,96,3.978,3.985,4.027,4,4.01,4.001,18.206,84.2,14,Waypoint,
36.025755,-118.5730081,6612.824499012,71.850396,0,1.31902563276,13000,2018-07-04 21:22:11,14,0,23.947,6612.824499012,71.850396,0.6263432,1.35043967576,0,0,-0.671082,58.5, 0.9, 1.1,0,0,1024,1024,1024,1024,59.3,-90,96,3.966,3.972,4.019,3.989,4.001,3.997,18.492,84.2,14,Waypoint,
36.025755,-118.5730081,6613.808751012,72.834648,0,1.31902563276,13100,2018-07-04 21:22:11,14,0,23.947,6613.808751012,72.834648,0.6263432,1.35043967576,0,0,-0.671082,58.6, 0.8, 0.8,0,0,1024,1024,1024,1024,59.3,-89.9,96,3.966,3.972,4.019,3.989,4.001,3.997,18.492,84.2,14,Waypoint,
36.025755,-118.5730081,6614.793003012,73.8189,0,1.31902563276,13200,2018-07-04 21:22:11,14,0,23.947,6614.793003012,73.8189,0.6263432,1.35043967576,0,0,-0.671082,58.6, 0.8, 0.8,0,0,1024,1024,1024,1024,59.3,-90,96,3.966,3.972,4.019,3.989,4.001,3.997,18.492,84.2,14,Waypoint,
36.025755,-118.5730081,6615.777255012,74.803152,0,1.31902563276,13300,2018-07-04 21:22:11,14,0,23.947,6615.777255012,74.803152,0.6263432,1.35043967576,0,0,-0.671082,58.6, 0.6, 0.9,0,0,1024,1024,1024,1024,59.3,-90,96,3.966,3.972,4.019,3.989,4.001,3.997,18.492,84.2,14,Waypoint,
36.0257551,-118.573008,6616.761507012,75.787404,0,1.36550857388,13400,2018-07-04 21:22:11,14,0,23.947,6616.761507012,75.787404,0.6263432,1.36550857388,0,0,-0.671082,58.5, 0.5, 1.1,0,0,1024,1024,1024,1024,59.3,-90,96,3.966,3.972,4.019,3.989,4.001,3.997,18.492,84.2,14,Waypoint,
36.0257551,-118.573008,6618.730011012,77.755908,0,1.36550857388,13500,2018-07-04 21:22:11,14,0,23.947,6618.730011012,77.755908,0.6263432,1.36550857388,0,0,-0.671082,58.5, 0.6, 1.3,0,0,1024,1024,1024,1024,59.3,-89.9,96,3.966,3.972,4.019,3.989,4.001,3.997,18.492,84.2,14,Waypoint,
36.0257551,-118.573008,6619.714263012,78.74016,0,1.36550857388,13600,2018-07-04 21:22:11,14,0,23.947,6619.714263012,78.74016,0.6263432,1.36550857388,0,0,-0.671082,58.5, 0.6, 1.5,0,0,1024,1024,1024,1024,59.3,-89.9,96,3.966,3.972,4.019,3.989,4.001,3.997,18.492,84.2,14,Waypoint,
36.0257551,-118.573008,6620.698515012,79.724412,0,1.36550857388,13700,2018-07-04 21:22:11,14,0,23.947,6620.698515012,79.724412,0.6263432,1.36550857388,0,0,-0.671082,58.5, 0.5, 1.5,0,0,1024,1024,1024,1024,59.3,-89.9,96,3.966,3.972,4.019,3.989,4.001,3.997,18.492,84.2,14,Waypoint,
36.0257551,-118.573008,6621.682767012,80.708664,0,1.36550857388,13800,2018-07-04 21:22:11,14,0,23.947,6621.682767012,80.708664,0.6263432,1.36550857388,0,0,-0.671082,58.4, 0.5, 1.4,0,0,1024,1024,1024,1024,59.3,-90,96,3.966,3.972,4.019,3.989,4.001,3.997,18.492,84.2,14,Waypoint,
36.0257551,-118.573008,6622.338935012,81.364832,0,1.36550857388,13900,2018-07-04 21:22:12,14,0,23.947,6622.338935012,81.364832,0.6263432,1.36550857388,0,0,-0.671082,58.5, 0.4, 1.3,0,0,1024,1024,1024,1024,59.3,-90,96,3.966,3.972,4.019,3.989,4.001,3.997,18.492,84.2,14,Waypoint,
36.0257551,-118.573008,6623.323187012,82.349084,0,1.36550857388,14000,2018-07-04 21:22:12,14,0,23.993,6623.323187012,82.349084,0.6263432,1.36550857388,0,0,-0.671082,58.5, 0.6, 1.4,0,0,1024,1024,1024,1024,59.3,-89.9,96,3.968,3.971,4.021,4.001,4.008,3.984,18.123,84.2,14,Waypoint,
36.0257551,-118.573008,6624.307439012,83.333336,0,1.36550857388,14100,2018-07-04 21:22:12,14,0,23.993,6624.307439012,83.333336,0.6263432,1.36550857388,0,0,-0.671082,58.5, 0.9, 1.5,0,0,1024,1024,1024,1024,59.3,-89.9,96,3.968,3.971,4.021,4.001,4.008,3.984,18.123,84.2,14,Waypoint,
36.0257552,-118.5730079,6625.291691012,84.317588,0,1.41201776172,14200,2018-07-04 21:22:12,14,0,23.993,6625.291691012,84.317588,0.6263432,1.41201776172,0,0,-0.671082,58.4, 1.2, 1.5,0,0,1024,1024,1024,1024,59.3,-89.9,96,3.968,3.971,4.021,4.001,4.008,3.984,18.123,84.2,14,Waypoint,
36.0257551,-118.5730079,6626.275943012,85.30184,0,1.38104007044,14300,2018-07-04 21:22:12,14,0,23.993,6626.275943012,85.30184,0.6263432,1.41201776172,0,0,-0.671082,58.3, 1.3, 1.5,0,0,1024,1024,1024,1024,59.3,-89.9,96,3.968,3.971,4.021,4.001,4.008,3.984,18.123,84.2,14,Waypoint,
36.0257551,-118.5730079,6627.260195012,86.286092,0,1.38104007044,14400,2018-07-04 21:22:12,14,0,23.993,6627.260195012,86.286092,0.6263432,1.41201776172,0,0,-0.671082,58.3, 1.1, 1.2,0,0,1024,1024,1024,1024,59.3,-89.9,96,3.968,3.971,4.021,4.001,4.008,3.984,18.123,84.2,14,Waypoint,
36.0257551,-118.5730079,6628.244447012,87.270344,0,1.38104007044,14500,2018-07-04 21:22:12,14,0,23.993,6628.244447012,87.270344,0.6263432,1.41201776172,0,0,-0.671082,58.3, 0.7, 0.8,0,0,1024,1024,1024,1024,59.3,-90,96,3.968,3.971,4.021,4.001,4.008,3.984,18.123,84.2,14,Waypoint,
36.0257551,-118.5730079,6629.228699012,88.254596,0,1.38104007044,14600,2018-07-04 21:22:12,14,0,23.993,6629.228699012,88.254596,0.6263432,1.41201776172,0,0,-0.671082,58.4, 0.4, 0.7,0,0,1024,1024,1024,1024,59.3,-90,96,3.968,3.971,4.021,4.001,4.008,3.984,18.123,84.2,14,Waypoint,
36.0257551,-118.5730079,6630.212951012,89.238848,0,1.38104007044,14700,2018-07-04 21:22:12,14,0,23.993,6630.212951012,89.238848,0.6263432,1.41201776172,0,0,-0.671082,58.4, 0.4, 0.9,0,0,1024,1024,1024,1024,59.3,-90,96,3.968,3.971,4.021,4.001,4.008,3.984,18.123,84.2,14,Waypoint,
36.0257551,-118.5730079,6631.197203012,90.2231,0,1.38104007044,14800,2018-07-04 21:22:12,14,0,23.993,6631.197203012,90.2231,0.6263432,1.41201776172,0,0,-0.671082,58.4, 0.4, 1.1,0,0,1024,1024,1024,1024,59.3,-90,96,3.968,3.971,4.021,4.001,4.008,3.984,18.123,84.2,14,Waypoint,
36.0257552,-118.5730079,6632.181455012,91.207352,0,1.41201776172,14900,2018-07-04 21:22:13,14,0,23.993,6632.181455012,91.207352,0.6263432,1.41201776172,0,0,-0.671082,58.4, 0.7, 0.9,0,0,1024,1024,1024,1024,59.3,-89.9,96,3.968,3.971,4.021,4.001,4.008,3.984,18.123,84.2,14,Waypoint,
36.0257553,-118.5730078,6634.149959012,93.175856,0,1.45855647712,15100,2018-07-04 21:22:13,15,0,23.993,6634.149959012,93.175856,0.6263432,1.45855647712,0,0,-0.671082,58.6, 1.5, 1.4,0,0,1024,1024,1024,1024,59.3,-89.9,96,3.968,3.971,4.021,4.001,4.008,3.984,18.123,84.2,14,Waypoint,
36.0257554,-118.5730078,6635.134211012,94.160108,0,1.48971133376,15200,2018-07-04 21:22:13,15,0,23.993,6635.134211012,94.160108,0.6263432,1.48971133376,0,0,-0.671082,58.7, 1.6, 1.9,0,0,1024,1024,1024,1024,59.3,-89.9,96,3.968,3.971,4.021,4.001,4.008,3.984,18.123,84.2,14,Waypoint,
36.0257555,-118.5730079,6636.118463012,95.14436,0.223694,1.50643377524,15400,2018-07-04 21:22:13,15,0,23.993,6636.118463012,95.14436,0.6263432,1.50643377524,0,0,-0.671082,58.8, 1.6, 2.4,0,0,1024,1024,1024,1024,59.3,-89.9,96,3.968,3.971,4.021,4.001,4.008,3.984,18.123,84.2,14,Waypoint,
36.0257556,-118.5730079,6637.102715012,96.128612,0.223694,1.53834978676,15500,2018-07-04 21:22:13,15,0,23.993,6637.102715012,96.128612,0.6263432,1.53834978676,0,0,-0.671082,59, 1.3, 2.8,0,0,1024,1024,1024,1024,59.3,-89.9,96,3.968,3.971,4.021,4.001,4.008,3.984,18.123,84.2,14,Waypoint,
36.0257557,-118.5730079,6638.415051012,97.440948,0,1.57046264868,15600,2018-07-04 21:22:13,15,0,23.993,6638.415051012,97.440948,0.6263432,1.57046264868,0,0,-0.671082,59, 1.2, 3.2,0,0,1024,1024,1024,1024,59.3,-89.9,96,3.968,3.971,4.021,4.001,4.008,3.984,18.123,84.2,14,Waypoint,
36.0257559,-118.5730079,6640.383555012,99.409452,0,1.63524283448,15700,2018-07-04 21:22:13,15,0,23.993,6640.383555012,99.409452,0.6263432,1.63524283448,0,0,-0.671082,58.8, 1.3, 3.1,0,0,1024,1024,1024,1024,59.3,-89.9,96,3.968,3.971,4.021,4.001,4.008,3.984,18.123,84.2,14,Waypoint,
36.0257559,-118.5730079,6641.367807012,100.393704,0,1.63524283448,15900,2018-07-04 21:22:14,15,0,23.993,6641.367807012,100.393704,0.6263432,1.63524283448,0,0,-0.671082,58.6, 1.2, 2.9,0,0,1024,1024,1024,1024,59.3,-90,96,3.968,3.971,4.021,4.001,4.008,3.984,18.123,84.2,14,Waypoint,
36.025756,-118.573008,6642.352059012,101.377956,0,1.65504598472,16000,2018-07-04 21:22:14,15,0,23.889,6642.352059012,101.377956,0.6263432,1.65504598472,0,0,-0.671082,58.4, 1.1, 2.9,0,0,1024,1024,1024,1024,59.3,-89.9,96,3.959,3.966,3.997,3.977,3.995,3.989,18.472,84.2,14,Waypoint,
36.025756,-118.573008,6644.320563012,103.34646,0,1.65504598472,16100,2018-07-04 21:22:14,15,0,23.889,6644.320563012,103.34646,0.6263432,1.65504598472,0,0,-0.671082,58.1, 1.2, 2.9,0,0,1024,1024,1024,1024,59.3,-89.9,96,3.959,3.966,3.997,3.977,3.995,3.989,18.472,84.2,14,Waypoint,
36.025756,-118.573008,6645.304815012,104.330712,0,1.65504598472,16200,2018-07-04 21:22:14,15,0,23.889,6645.304815012,104.330712,0.6263432,1.65504598472,0,0,-0.671082,58.1, 1.3, 2.9,0,0,1024,1024,1024,1024,59.3,-89.9,96,3.959,3.966,3.997,3.977,3.995,3.989,18.472,84.2,14,Waypoint,
36.0257561,-118.573008,6646.289067012,105.314964,0,1.68809388604,16300,2018-07-04 21:22:14,15,0,23.889,6646.289067012,105.314964,0.6263432,1.68809388604,0,0,-0.671082,58.2, 1, 2.7,0,0,1024,1024,1024,1024,59.3,-89.9,96,3.959,3.966,3.997,3.977,3.995,3.989,18.472,84.2,14,Waypoint,
36.0257561,-118.573008,6647.273319012,106.299216,0,1.68809388604,16400,2018-07-04 21:22:14,14,0,23.889,6647.273319012,106.299216,0.6263432,1.68809388604,0,0,-0.671082,58.3, 0.8, 2.8,0,0,1024,1024,1024,1024,59.3,-90,96,3.959,3.966,3.997,3.977,3.995,3.989,18.472,84.2,14,Waypoint,
36.0257561,-118.573008,6648.913739012,107.939636,0,1.68809388604,16600,2018-07-04 21:22:14,14,0,23.889,6648.913739012,107.939636,0.6263432,1.68809388604,0,0,-0.671082,58.5, 1.4, 2.7,0,0,1024,1024,1024,1024,59.3,-89.9,96,3.959,3.966,3.997,3.977,3.995,3.989,18.472,84.2,14,Waypoint,
36.0257561,-118.5730079,6649.897991012,108.923888,0,1.70068246912,16700,2018-07-04 21:22:14,14,0,23.889,6649.897991012,108.923888,0.6263432,1.70068246912,0,0,-0.671082,58.5, 1.9, 2.6,0,0,1024,1024,1024,1024,59.3,-89.9,96,3.959,3.966,3.997,3.977,3.995,3.989,18.472,84.2,14,Waypoint,
36.0257562,-118.5730079,6650.882243012,109.90814,0,1.7336286644,16800,2018-07-04 21:22:14,14,0,23.889,6650.882243012,109.90814,0.6263432,1.7336286644,0,0,-0.671082,58.4, 2.1, 2.4,0,0,1024,1024,1024,1024,59.3,-89.9,96,3.959,3.966,3.997,3.977,3.995,3.989,18.472,84.2,14,Waypoint,
36.0257562,-118.5730078,6651.866495012,110.892392,0,1.746391132,16900,2018-07-04 21:22:15,14,0,23.889,6651.866495012,110.892392,0.6263432,1.746391132,0,0,-0.671082,58.4, 2.1, 2.1,0,0,1024,1024,1024,1024,59.3,-89.9,96,3.959,3.966,3.997,3.977,3.995,3.989,18.472,84.2,14,Waypoint,
36.0257562,-118.5730078,6652.850747012,111.876644,0,1.746391132,17000,2018-07-04 21:22:15,14,0,23.889,6652.850747012,111.876644,0.6263432,1.746391132,0,0,-0.671082,58.4, 2, 2,0,0,1024,1024,1024,1024,59.3,-89.9,96,3.972,3.968,4.004,3.984,4.006,3.985,18.472,84.2,14,Waypoint,
36.0257561,-118.5730079,6653.834999012,112.860896,0,1.70068246912,17100,2018-07-04 21:22:15,14,0,23.889,6653.834999012,112.860896,0.6263432,1.746391132,0,0,-0.671082,58.4, 1.6, 1.9,0,0,1024,1024,1024,1024,59.3,-89.9,96,3.972,3.968,4.004,3.984,4.006,3.985,18.472,84.2,14,Waypoint,
36.0257561,-118.5730079,6654.819251012,113.845148,0,1.70068246912,17200,2018-07-04 21:22:15,14,0,23.889,6654.819251012,113.845148,0.6263432,1.746391132,0,0,-0.671082,58.4, 1.2, 2,0,0,1024,1024,1024,1024,59.3,-90,96,3.972,3.968,4.004,3.984,4.006,3.985,18.472,84.2,14,Waypoint,
36.0257561,-118.573008,6655.803503012,114.8294,0,1.68809388604,17300,2018-07-04 21:22:15,14,0,23.889,6655.803503012,114.8294,0.6263432,1.746391132,0,0,-0.671082,58.4, 0.8, 2,0,0,1024,1024,1024,1024,59.3,-90,96,3.972,3.968,4.004,3.984,4.006,3.985,18.472,84.2,14,Waypoint,
36.025756,-118.573008,6656.787755012,115.813652,0,1.65504598472,17400,2018-07-04 21:22:15,14,0,23.889,6656.787755012,115.813652,0.6263432,1.746391132,0,0,-0.671082,58.4, 0.5, 2,0,0,1024,1024,1024,1024,59.3,-90,96,3.972,3.968,4.004,3.984,4.006,3.985,18.472,84.2,14,Waypoint,
36.0257559,-118.5730081,6658.428175012,117.454072,0,1.6094816788,17600,2018-07-04 21:22:15,14,0,23.889,6658.428175012,117.454072,0.6263432,1.746391132,0,0,-0.671082,58.3, 0.3, 2,0,0,1024,1024,1024,1024,59.3,-90,96,3.972,3.968,4.004,3.984,4.006,3.985,18.472,84.2,14,Waypoint,
36.0257559,-118.5730081,6659.412427012,118.438324,0,1.6094816788,17710,2018-07-04 21:22:15,14,0,23.889,6659.412427012,118.438324,0.6263432,1.746391132,0,0,-0.671082,58.3, 0.4, 2,0,0,1024,1024,1024,1024,59.3,-90,96,3.972,3.968,4.004,3.984,4.006,3.985,18.472,84.2,14,Waypoint,
36.0257558,-118.5730081,6660.396679012,119.422576,0,1.57647314756,17800,2018-07-04 21:22:15,14,0,23.889,6660.396679012,119.422576,0.6263432,1.746391132,0,0,-0.671082,58.4, 0.6, 1.9,0,0,1024,1024,1024,1024,59.3,-89.9,96,3.972,3.968,4.004,3.984,4.006,3.985,18.472,84.2,14,Waypoint,
36.0257558,-118.5730081,6661.380931012,120.406828,0,1.57647314756,18000,2018-07-04 21:22:16,14,0,23.896,6661.380931012,120.406828,0.6263432,1.746391132,0,0,-0.671082,58.5, 0.7, 1.8,0,0,1024,1024,1024,1024,59.3,-89.9,96,3.96,3.97,4.005,3.98,3.992,3.986,17.162,84.2,14,Waypoint,
36.0257557,-118.5730081,6662.365183012,121.39108,0,1.54362209664,18100,2018-07-04 21:22:16,14,0,23.896,6662.365183012,121.39108,0.6263432,1.746391132,0,0,-0.671082,58.5, 0.9, 1.6,0,0,1024,1024,1024,1024,59.3,-89.9,96,3.96,3.97,4.005,3.98,3.992,3.986,17.162,84.2,14,Waypoint,
36.0257556,-118.5730081,6664.333687012,123.359584,0,1.51093836856,18200,2018-07-04 21:22:16,14,0,23.896,6664.333687012,123.359584,0.6263432,1.746391132,0,0,-0.671082,58.7, 1, 1.1,0,0,1024,1024,1024,1024,59.3,-89.9,96,3.96,3.97,4.005,3.98,3.992,3.986,17.162,84.2,14,Waypoint,
36.0257555,-118.573008,6665.317939012,124.343836,0,1.492208053,18300,2018-07-04 21:22:16,14,0,23.896,6665.317939012,124.343836,0.6263432,1.746391132,0,0,-0.671082,58.7, 1.1, 0.8,0,0,1024,1024,1024,1024,59.3,-89.9,96,3.96,3.97,4.005,3.98,3.992,3.986,17.162,84.2,14,Waypoint,
36.0257554,-118.573008,6666.302191012,125.328088,0,1.46019689712,18400,2018-07-04 21:22:16,15,0,23.896,6666.302191012,125.328088,0.6263432,1.746391132,0,0,-0.671082,58.7, 1, 0.8,0,0,1024,1024,1024,1024,59.3,-89.9,96,3.96,3.97,4.005,3.98,3.992,3.986,17.162,84.2,14,Waypoint,
36.0257553,-118.573008,6668.598779012,127.624676,0,1.42839899584,18600,2018-07-04 21:22:16,14,0,23.896,6668.598779012,127.624676,0.6263432,1.746391132,0,0,-0.671082,58.5, 0.5, 1.1,0,0,1024,1024,1024,1024,59.3,-90,96,3.96,3.97,4.005,3.98,3.992,3.986,17.162,84.2,14,Waypoint,
36.0257552,-118.5730081,6669.583031012,128.608928,0,1.3821030626,18700,2018-07-04 21:22:16,14,0,23.896,6669.583031012,128.608928,0.6263432,1.746391132,0,0,-0.671082,58.4, 0.3, 1.4,0,0,1024,1024,1024,1024,59.3,-90,96,3.96,3.97,4.005,3.98,3.992,3.986,17.162,84.2,14,Waypoint,
36.0257552,-118.5730081,6670.567283012,129.59318,0,1.3821030626,18800,2018-07-04 21:22:16,14,0,23.896,6670.567283012,129.59318,0.6263432,1.746391132,0,0,-0.671082,58.4, 0.3, 1.7,0,0,1024,1024,1024,1024,59.3,-90,96,3.96,3.97,4.005,3.98,3.992,3.986,17.162,84.2,14,Waypoint,
36.0257552,-118.5730081,6671.551535012,130.577432,0,1.3821030626,18900,2018-07-04 21:22:17,14,0,23.896,6671.551535012,130.577432,0.6263432,1.746391132,0,0,-0.671082,58.3, 0.5, 1.9,0,0,1024,1024,1024,1024,59.3,-89.9,96,3.96,3.97,4.005,3.98,3.992,3.986,17.162,84.2,14,Waypoint,
36.0257552,-118.5730081,6672.535787012,131.561684,0,1.3821030626,19000,2018-07-04 21:22:17,14,0,23.81,6672.535787012,131.561684,0.6263432,1.746391132,0,0,-0.671082,58.4, 0.7, 1.7,0,0,1024,1024,1024,1024,59.3,-90,95,3.952,3.95,3.988,3.969,3.986,3.958,18.547,84.2,14,Waypoint,
36.0257551,-118.5730081,6673.520039012,132.545936,0,1.35043967576,19100,2018-07-04 21:22:17,14,0,23.81,6673.520039012,132.545936,0.6263432,1.746391132,0,0,-0.671082,58.4, 0.7, 1.7,0,0,1024,1024,1024,1024,59.3,-90,95,3.952,3.95,3.988,3.969,3.986,3.958,18.547,84.2,14,Waypoint,
36.0257551,-118.5730081,6674.504291012,133.530188,0,1.35043967576,19200,2018-07-04 21:22:17,14,0,23.81,6674.504291012,133.530188,0.6263432,1.746391132,0,0,-0.671082,58.4, 0.7, 1.8,0,0,1024,1024,1024,1024,59.3,-89.9,95,3.952,3.95,3.988,3.969,3.986,3.958,18.547,84.2,14,Waypoint,
36.0257551,-118.5730081,6676.472795012,135.498692,0,1.35043967576,19400,2018-07-04 21:22:17,14,0,23.81,6676.472795012,135.498692,0.6263432,1.746391132,0,0,-0.671082,58.3, 0.7, 1.9,0,0,1024,1024,1024,1024,59.3,-89.9,95,3.952,3.95,3.988,3.969,3.986,3.958,18.547,84.2,14,Waypoint,
36.025755,-118.5730081,6677.457047012,136.482944,0,1.31902563276,19500,2018-07-04 21:22:17,14,0,23.81,6677.457047012,136.482944,0.6263432,1.746391132,0,0,-0.671082,58.3, 0.6, 1.6,0,0,1024,1024,1024,1024,59.3,-89.9,95,3.952,3.95,3.988,3.969,3.986,3.958,18.547,84.2,14,Waypoint,
36.025755,-118.573008,6678.441299012,137.467196,0,1.33444558076,19600,2018-07-04 21:22:17,14,0,23.81,6678.441299012,137.467196,0.6263432,1.746391132,0,0,-0.671082,58.4, 0.7, 1.4,0,0,1024,1024,1024,1024,59.3,-90,95,3.952,3.95,3.988,3.969,3.986,3.958,18.547,84.2,14,Waypoint,
36.025755,-118.573008,6680.409803012,139.4357,0,1.33444558076,19800,2018-07-04 21:22:17,14,0,23.81,6680.409803012,139.4357,0.6263432,1.746391132,0,0,-0.671082,58.5, 0.9, 1.9,0,0,1024,1024,1024,1024,59.3,-89.9,95,3.952,3.95,3.988,3.969,3.986,3.958,18.547,84.2,14,Waypoint,
36.025755,-118.573008,6681.394055012,140.419952,0,1.33444558076,20000,2018-07-04 21:22:18,14,0,23.676,6681.394055012,140.419952,0.6263432,1.746391132,0,0,-0.671082,58.5, 1, 2,0,0,1024,1024,1024,1024,59.3,-89.9,95,3.92,3.93,3.971,3.946,3.966,3.95,20.028,86,14,Waypoint,
36.025755,-118.5730079,6682.378307012,141.404204,0,1.35033796972,20100,2018-07-04 21:22:18,14,0,23.676,6682.378307012,141.404204,0.6263432,1.746391132,0,0,-0.671082,58.5, 1.2, 1.8,0,0,1024,1024,1024,1024,59.3,-89.9,95,3.92,3.93,3.971,3.946,3.966,3.95,20.028,86,14,Waypoint,
36.025755,-118.5730078,6683.362559012,142.388456,0,1.36667983376,20200,2018-07-04 21:22:18,14,0,23.676,6683.362559012,142.388456,0.6263432,1.746391132,0,0,-0.671082,58.5, 1.3, 1.8,0,0,1024,1024,1024,1024,59.3,-89.9,95,3.92,3.93,3.971,3.946,3.966,3.95,20.028,86,14,Waypoint,
36.025755,-118.5730077,6686.315315012,145.341212,0,1.38346133036,20400,2018-07-04 21:22:18,14,0,23.676,6686.315315012,145.341212,0.6263432,1.746391132,0,0,-0.671082,58.6, 1.6, 1.6,0,0,1024,1024,1024,1024,59.3,-89.9,95,3.92,3.93,3.971,3.946,3.966,3.95,20.028,86,14,Waypoint,
36.025755,-118.5730075,6688.283819012,147.309716,0,1.41826448108,20600,2018-07-04 21:22:18,14,0,23.676,6688.283819012,147.309716,0.6263432,1.746391132,0,0,-0.671082,58.6, 1.7, 1.6,0,0,1024,1024,1024,1024,59.3,-89.9,95,3.92,3.93,3.971,3.946,3.966,3.95,20.028,86,14,Waypoint,
36.0257549,-118.5730074,6689.268071012,148.293968,0,1.4077100188,20700,2018-07-04 21:22:18,14,0,23.676,6689.268071012,148.293968,0.6263432,1.746391132,0,0,-0.671082,58.5, 1.7, 1.3,0,0,1024,1024,1024,1024,59.3,-89.9,95,3.92,3.93,3.971,3.946,3.966,3.95,20.028,86,14,Waypoint,
36.0257549,-118.5730073,6689.924239012,148.950136,0,1.42645017688,20800,2018-07-04 21:22:18,14,0,23.676,6689.924239012,148.950136,0.6263432,1.746391132,0,0,-0.671082,58.4, 1.7, 1,0,0,1024,1024,1024,1024,59.3,-89.9,95,3.92,3.93,3.971,3.946,3.966,3.95,20.028,86,14,Waypoint,
36.0257549,-118.5730072,6690.908491012,149.934388,0,1.44554794652,20900,2018-07-04 21:22:19,14,0,23.676,6690.908491012,149.934388,0.6263432,1.746391132,0,0,-0.671082,58.3, 1.8, 1,0,0,1024,1024,1024,1024,59.3,-89.9,95,3.92,3.93,3.971,3.946,3.966,3.95,20.028,86,14,Waypoint,
36.0257549,-118.5730071,6691.892743012,150.91864,0,1.4649934852,21000,2018-07-04 21:22:19,14,0,23.728,6691.892743012,150.91864,0.6263432,1.746391132,0,0,-0.671082,58.3, 1.9, 0.9,0,0,1024,1024,1024,1024,59.3,-89.9,95,3.942,3.938,3.976,3.955,3.972,3.951,19.141,86,14,Waypoint,
36.0257549,-118.5730071,6692.876995012,151.902892,0,1.4649934852,21100,2018-07-04 21:22:19,14,0,23.728,6692.876995012,151.902892,0.6263432,1.746391132,0,0,-0.671082,58.5, 1.9, 0.7,0,0,1024,1024,1024,1024,59.3,-89.9,95,3.942,3.938,3.976,3.955,3.972,3.951,19.141,86,14,Waypoint,
36.0257549,-118.573007,6693.861247012,152.887144,0,1.48477038872,21200,2018-07-04 21:22:19,14,0,23.728,6693.861247012,152.887144,0.6263432,1.746391132,0,0,-0.671082,58.7, 2.2, 1.1,0,0,1024,1024,1024,1024,59.3,-89.9,95,3.942,3.938,3.976,3.955,3.972,3.951,19.141,86,14,Waypoint,
36.025755,-118.573007,6694.845499012,153.871396,0,1.51186684628,21300,2018-07-04 21:22:19,14,0,23.728,6694.845499012,153.871396,0.6263432,1.746391132,0,0,-0.671082,58.7, 2.3, 1.9,0,0,1024,1024,1024,1024,59.3,-89.9,95,3.942,3.938,3.976,3.955,3.972,3.951,19.141,86,14,Waypoint,
36.025755,-118.573007,6696.157835012,155.183732,0,1.51186684628,21400,2018-07-04 21:22:19,15,0,23.728,6696.157835012,155.183732,0.6263432,1.746391132,0,0,-0.671082,58.7, 2.3, 2.3,0,0,1024,1024,1024,1024,59.3,-89.9,95,3.942,3.938,3.976,3.955,3.972,3.951,19.141,86,14,Waypoint,
36.025755,-118.573007,6697.142087012,156.167984,0,1.51186684628,21500,2018-07-04 21:22:19,15,0,23.728,6697.142087012,156.167984,0.6263432,1.746391132,0,0,-0.671082,58.6, 2.2, 2.6,0,0,1024,1024,1024,1024,59.3,-89.9,95,3.942,3.938,3.976,3.955,3.972,3.951,19.141,86,14,Waypoint,
36.0257551,-118.573007,6698.126339012,157.152236,0,1.5393537238,21600,2018-07-04 21:22:19,14,0,23.728,6698.126339012,157.152236,0.6263432,1.746391132,0,0,-0.671082,58.5, 2, 2.4,0,0,1024,1024,1024,1024,59.3,-89.9,95,3.942,3.938,3.976,3.955,3.972,3.951,19.141,86,14,Waypoint,
36.0257551,-118.573007,6699.110591012,158.136488,0,1.5393537238,21700,2018-07-04 21:22:19,14,0,23.728,6699.110591012,158.136488,0.6263432,1.746391132,0,0,-0.671082,58.4, 1.8, 2.1,0,0,1024,1024,1024,1024,59.3,-89.9,95,3.942,3.938,3.976,3.955,3.972,3.951,19.141,86,14,Waypoint,
36.025755,-118.573007,6700.094843012,159.12074,0,1.51186684628,21800,2018-07-04 21:22:19,14,0,23.728,6700.094843012,159.12074,0.6263432,1.746391132,0,0,-0.671082,58.4, 1.5, 1.8,0,0,1024,1024,1024,1024,59.3,-89.9,95,3.942,3.938,3.976,3.955,3.972,3.951,19.141,86,14,Waypoint,
36.025755,-118.573007,6701.079095012,160.104992,0,1.51186684628,22000,2018-07-04 21:22:20,14,0,23.672,6701.079095012,160.104992,0.6263432,1.746391132,0,0,-0.671082,58.4, 1.4, 1.6,0,0,1024,1024,1024,1024,59.3,-89.9,95,3.926,3.932,3.97,3.946,3.96,3.945,19.474,86,14,Waypoint,
36.025755,-118.573007,6702.063347012,161.089244,0,1.51186684628,22100,2018-07-04 21:22:20,14,0,23.672,6702.063347012,161.089244,0.6263432,1.746391132,0,0,-0.671082,58.4, 1.4, 1.5,0,0,1024,1024,1024,1024,59.3,-89.9,95,3.926,3.932,3.97,3.946,3.96,3.945,19.474,86,14,Waypoint,
36.025755,-118.573007,6705.344187012,164.370084,0,1.51186684628,22400,2018-07-04 21:22:20,14,0,23.672,6705.344187012,164.370084,0.6263432,1.746391132,0,0,-0.671082,58.6, 1.6, 1.6,0,0,1024,1024,1024,1024,59.3,-89.9,95,3.926,3.932,3.97,3.946,3.96,3.945,19.474,86,14,Waypoint,
36.0257551,-118.5730071,6706.328439012,165.354336,0,1.52028548172,22500,2018-07-04 21:22:20,14,0,23.672,6706.328439012,165.354336,0.6263432,1.746391132,0,0,-0.671082,58.6, 1.6, 1.9,0,0,1024,1024,1024,1024,59.3,-89.9,95,3.926,3.932,3.97,3.946,3.96,3.945,19.474,86,14,Waypoint,
36.0257551,-118.5730072,6708.296943012,167.32284,0,1.501558447,22600,2018-07-04 21:22:20,14,0,23.672,6708.296943012,167.32284,0.6263432,1.746391132,0,0,-0.671082,58.6, 1.7, 2.8,0,0,1024,1024,1024,1024,59.3,-89.9,95,3.926,3.932,3.97,3.946,3.96,3.945,19.474,86,14,Waypoint,
36.0257552,-118.5730072,6709.281195012,168.307092,0,1.53009847416,22700,2018-07-04 21:22:20,14,0,23.672,6709.281195012,168.307092,0.6263432,1.746391132,0,0,-0.671082,58.6, 1.9, 3.3,0,0,1024,1024,1024,1024,59.3,-89.9,95,3.926,3.932,3.97,3.946,3.96,3.945,19.474,86,14,Waypoint,
36.0257553,-118.5730072,6710.265447012,169.291344,0,1.55896986616,22900,2018-07-04 21:22:21,14,0,23.672,6710.265447012,169.291344,0.6263432,1.746391132,0,0,-0.671082,58.7, 2.1, 3.2,0,0,1024,1024,1024,1024,59.3,-89.9,95,3.926,3.932,3.97,3.946,3.96,3.945,19.474,86,14,Waypoint,
36.0257554,-118.5730073,6712.233951012,171.259848,0,1.57079073268,23000,2018-07-04 21:22:21,14,0,23.602,6712.233951012,171.259848,0.6263432,1.746391132,0,0,-0.671082,58.8, 2.4, 3.4,0,0,1024,1024,1024,1024,59.3,-89.9,95,3.912,3.928,3.969,3.94,3.954,3.939,20.215,86,14,Waypoint,
36.0257555,-118.5730074,6713.218203012,172.2441,0,1.58391409268,23100,2018-07-04 21:22:21,14,0,23.602,6713.218203012,172.2441,0.6263432,1.746391132,0,0,-0.671082,58.8, 2.2, 3.8,0,0,1024,1024,1024,1024,59.3,-89.9,95,3.912,3.928,3.969,3.94,3.954,3.939,20.215,86,14,Waypoint,
36.0257555,-118.5730074,6714.202455012,173.228352,0,1.58391409268,23200,2018-07-04 21:22:21,14,0,23.602,6714.202455012,173.228352,0.6263432,1.746391132,0,0,-0.671082,58.9, 1.8, 3.8,0,0,1024,1024,1024,1024,59.3,-89.9,95,3.912,3.928,3.969,3.94,3.954,3.939,20.215,86,14,Waypoint,
36.0257555,-118.5730074,6714.858623012,173.88452,0,1.58391409268,23300,2018-07-04 21:22:21,14,0,23.602,6714.858623012,173.88452,0.6263432,1.746391132,0,0,-0.671082,59, 1.5, 3.2,0,0,1024,1024,1024,1024,59.3,-90,95,3.912,3.928,3.969,3.94,3.954,3.939,20.215,86,14,Waypoint,
36.0257555,-118.5730075,6715.842875012,174.868772,0,1.56761487956,23400,2018-07-04 21:22:21,14,0,23.602,6715.842875012,174.868772,0.6263432,1.746391132,0,0,-0.671082,59.1, 1.6, 2.9,0,0,1024,1024,1024,1024,59.3,-89.9,95,3.912,3.928,3.969,3.94,3.954,3.939,20.215,86,14,Waypoint,
36.0257555,-118.5730075,6716.827127012,175.853024,0,1.56761487956,23500,2018-07-04 21:22:21,14,0,23.602,6716.827127012,175.853024,0.6263432,1.746391132,0,0,-0.671082,59, 1.5, 2.6,0,0,1024,1024,1024,1024,59.3,-89.9,95,3.912,3.928,3.969,3.94,3.954,3.939,20.215,86,14,Waypoint,
36.0257554,-118.5730075,6717.811379012,176.837276,0,1.5371719652,23600,2018-07-04 21:22:21,14,0,23.602,6717.811379012,176.837276,0.6263432,1.746391132,0,0,-0.671082,58.9, 1.4, 2.3,0,0,1024,1024,1024,1024,59.3,-89.9,95,3.912,3.928,3.969,3.94,3.954,3.939,20.215,86,14,Waypoint,
36.0257554,-118.5730075,6718.795631012,177.821528,0,1.5371719652,23700,2018-07-04 21:22:21,14,0,23.602,6718.795631012,177.821528,0.6263432,1.746391132,0,0,-0.671082,58.9, 1.3, 2.2,0,0,1024,1024,1024,1024,59.3,-90,95,3.912,3.928,3.969,3.94,3.954,3.939,20.215,86,14,Waypoint,
36.0257554,-118.5730076,6720.764135012,179.790032,0,1.52094493056,23900,2018-07-04 21:22:22,14,0,23.602,6720.764135012,179.790032,0.6263432,1.746391132,0,0,-0.671082,59, 1.2, 2.2,0,0,1024,1024,1024,1024,59.3,-90,95,3.912,3.928,3.969,3.94,3.954,3.939,20.215,86,14,Waypoint,
36.0257553,-118.5730077,6721.748387012,180.774284,0,1.47429138576,24100,2018-07-04 21:22:22,14,0,23.602,6721.748387012,180.774284,0.6263432,1.746391132,0,0,-0.671082,59.1, 1.1, 2.1,0,0,1024,1024,1024,1024,59.3,-89.9,95,3.912,3.928,3.969,3.94,3.954,3.939,20.215,86,14,Waypoint,
36.0257554,-118.5730077,6722.732639012,181.758536,0,1.50512143924,24200,2018-07-04 21:22:22,14,0,23.602,6722.732639012,181.758536,0.6263432,1.746391132,0,0,-0.671082,59.1, 1.4, 2.3,0,0,1024,1024,1024,1024,59.3,-89.9,95,3.912,3.928,3.969,3.94,3.954,3.939,20.215,86,14,Waypoint,
36.0257554,-118.5730077,6723.716891012,182.742788,0,1.50512143924,24300,2018-07-04 21:22:22,14,0,23.602,6723.716891012,182.742788,0.6263432,1.746391132,0,0,-0.671082,58.9, 1.7, 2.6,0,0,1024,1024,1024,1024,59.3,-89.9,95,3.912,3.928,3.969,3.94,3.954,3.939,20.215,86,14,Waypoint,
36.0257554,-118.5730078,6724.701143012,183.72704,0,1.48971133376,24400,2018-07-04 21:22:22,14,0,23.602,6724.701143012,183.72704,0.6263432,1.746391132,0,0,-0.671082,58.6, 1.7, 3,0,0,1024,1024,1024,1024,59.3,-89.9,95,3.912,3.928,3.969,3.94,3.954,3.939,20.215,86,14,Waypoint,
36.0257554,-118.5730079,6726.669647012,185.695544,0,1.47473101832,24500,2018-07-04 21:22:22,14,0,23.602,6726.669647012,185.695544,0.6263432,1.746391132,0,0,-0.671082,58, 1.1, 2.7,0,0,1024,1024,1024,1024,59.3,-90,95,3.912,3.928,3.969,3.94,3.954,3.939,20.215,86,14,Waypoint,
36.0257554,-118.5730079,6727.653899012,186.679796,0,1.47473101832,24600,2018-07-04 21:22:22,14,0,23.602,6727.653899012,186.679796,0.6263432,1.746391132,0,0,-0.671082,57.8, 1.2, 2.5,0,0,1024,1024,1024,1024,59.3,-89.9,95,3.912,3.928,3.969,3.94,3.954,3.939,20.215,86,14,Waypoint,
36.0257554,-118.5730079,6728.638151012,187.664048,0,1.47473101832,24700,2018-07-04 21:22:22,14,0,23.602,6728.638151012,187.664048,0.6263432,1.746391132,0,0,-0.671082,57.7, 1.5, 2.4,0,0,1024,1024,1024,1024,59.3,-89.9,95,3.912,3.928,3.969,3.94,3.954,3.939,20.215,86,14,Waypoint,
36.0257554,-118.5730079,6729.622403012,188.6483,0,1.47473101832,24800,2018-07-04 21:22:22,14,0,23.602,6729.622403012,188.6483,0.6263432,1.746391132,0,0,-0.671082,57.6, 1.6, 2.5,0,0,1024,1024,1024,1024,59.3,-89.9,95,3.912,3.928,3.969,3.94,3.954,3.939,20.215,86,14,Waypoint,
36.0257555,-118.5730079,6730.606655012,189.632552,0,1.50643377524,24900,2018-07-04 21:22:22,14,0,23.602,6730.606655012,189.632552,0.6263432,1.746391132,0,0,-0.671082,57.6, 1.5, 2.7,0,0,1024,1024,1024,1024,59.3,-89.9,95,3.912,3.928,3.969,3.94,3.954,3.939,20.215,86,14,Waypoint,
36.0257555,-118.573008,6731.590907012,190.616804,0,1.492208053,25000,2018-07-04 21:22:23,14,0,23.538,6731.590907012,190.616804,0.6263432,1.746391132,0,0,-0.671082,57.7, 1.5, 2.8,0,0,1024,1024,1024,1024,59.3,-89.9,95,3.901,3.915,3.943,3.926,3.932,3.921,20.171,86,14,Waypoint,
36.0257555,-118.573008,6732.575159012,191.601056,0,1.492208053,25100,2018-07-04 21:22:23,14,0,23.538,6732.575159012,191.601056,0.6263432,1.746391132,0,0,-0.671082,57.9, 1.5, 2.9,0,0,1024,1024,1024,1024,59.3,-89.9,95,3.901,3.915,3.943,3.926,3.932,3.921,20.171,86,14,Waypoint,
36.0257555,-118.573008,6733.559411012,192.585308,0,1.492208053,25200,2018-07-04 21:22:23,14,0,23.538,6733.559411012,192.585308,0.6263432,1.746391132,0,0,-0.671082,58, 1.5, 2.6,0,0,1024,1024,1024,1024,59.3,-89.9,95,3.901,3.915,3.943,3.926,3.932,3.921,20.171,86,14,Waypoint,
36.0257556,-118.573008,6734.543663012,193.56956,0,1.52441934012,25300,2018-07-04 21:22:23,14,0,23.538,6734.543663012,193.56956,0.6263432,1.746391132,0,0,-0.671082,58.2, 1.3, 2.6,0,0,1024,1024,1024,1024,59.3,-90,95,3.901,3.915,3.943,3.926,3.932,3.921,20.171,86,14,Waypoint,
36.0257556,-118.573008,6735.527915012,194.553812,0,1.52441934012,25400,2018-07-04 21:22:23,14,0,23.538,6735.527915012,194.553812,0.6263432,1.746391132,0,0,-0.671082,58.4, 1.5, 2.6,0,0,1024,1024,1024,1024,59.3,-89.9,95,3.901,3.915,3.943,3.926,3.932,3.921,20.171,86,14,Waypoint,
36.0257556,-118.573008,6736.512167012,195.538064,0,1.52441934012,25500,2018-07-04 21:22:23,14,0,23.538,6736.512167012,195.538064,0.6263432,1.746391132,0,0,-0.671082,58.6, 1.7, 2.9,0,0,1024,1024,1024,1024,59.3,-89.9,95,3.901,3.915,3.943,3.926,3.932,3.921,20.171,86,14,Waypoint,
36.0257557,-118.5730081,6737.496419012,196.522316,0,1.54362209664,25600,2018-07-04 21:22:23,14,0,23.538,6737.496419012,196.522316,0.6263432,1.746391132,0,0,-0.671082,58.6, 1.8, 3.3,0,0,1024,1024,1024,1024,59.3,-89.9,95,3.901,3.915,3.943,3.926,3.932,3.921,20.171,86,14,Waypoint,
36.0257557,-118.5730081,6738.480671012,197.506568,0,1.54362209664,25700,2018-07-04 21:22:23,14,0,23.538,6738.480671012,197.506568,0.6263432,1.746391132,0,0,-0.671082,58.7, 2.1, 3.7,0,0,1024,1024,1024,1024,59.3,-89.9,95,3.901,3.915,3.943,3.926,3.932,3.921,20.171,86,14,Waypoint,
36.0257558,-118.573008,6739.464923012,198.49082,0,1.58939965716,25800,2018-07-04 21:22:23,14,0,23.538,6739.464923012,198.49082,0.6263432,1.746391132,0,0,-0.671082,58.8, 2.1, 3.5,0,0,1024,1024,1024,1024,59.3,-89.9,95,3.901,3.915,3.943,3.926,3.932,3.921,20.171,86,14,Waypoint,
36.0257558,-118.573008,6740.777259012,199.803156,0,1.58939965716,25900,2018-07-04 21:22:23,14,0,23.538,6740.777259012,199.803156,0.6263432,1.746391132,0,0,-0.671082,58.9, 1.9, 3.4,0,0,1024,1024,1024,1024,59.3,-89.9,95,3.901,3.915,3.943,3.926,3.932,3.921,20.171,86,14,Waypoint,
36.0257559,-118.573008,6741.761511012,200.787408,0,1.6221457212,26000,2018-07-04 21:22:24,14,0,23.561,6741.761511012,200.787408,0.6263432,1.746391132,0,0,-0.671082,59.1, 1.9, 3.2,0,0,1024,1024,1024,1024,59.3,-89.9,95,3.903,3.909,3.96,3.936,3.938,3.933,20.162,86,14,Waypoint,
36.0257559,-118.573008,6742.745763012,201.77166,0,1.6221457212,26100,2018-07-04 21:22:24,14,0,23.561,6742.745763012,201.77166,0.6263432,1.746391132,0,0,-0.671082,59.1, 2.1, 3.3,0,0,1024,1024,1024,1024,59.3,-89.9,95,3.903,3.909,3.96,3.936,3.938,3.933,20.162,86,14,Waypoint,
36.0257559,-118.573008,6743.730015012,202.755912,0,1.6221457212,26300,2018-07-04 21:22:24,14,0,23.561,6743.730015012,202.755912,0.6263432,1.746391132,0,0,-0.671082,58.9, 2, 3.6,0,0,1024,1024,1024,1024,59.3,-89.9,95,3.903,3.909,3.96,3.936,3.938,3.933,20.162,86,14,Waypoint,
36.0257559,-118.573008,6744.714267012,203.740164,0,1.6221457212,26400,2018-07-04 21:22:24,14,0,23.561,6744.714267012,203.740164,0.6263432,1.746391132,0,0,-0.671082,58.6, 2.2, 3.8,0,0,1024,1024,1024,1024,59.3,-89.9,95,3.903,3.909,3.96,3.936,3.938,3.933,20.162,86,14,Waypoint,
36.0257559,-118.573008,6745.698519012,204.724416,0,1.6221457212,26500,2018-07-04 21:22:24,14,0,23.561,6745.698519012,204.724416,0.6263432,1.746391132,0,0,-0.671082,58.2, 2.3, 3.6,0,0,1024,1024,1024,1024,59.3,-89.9,95,3.903,3.909,3.96,3.936,3.938,3.933,20.162,86,14,Waypoint,
36.0257559,-118.573008,6746.354687012,205.380584,0,1.6221457212,26600,2018-07-04 21:22:24,14,0,23.561,6746.354687012,205.380584,0.6263432,1.746391132,0,0,-0.671082,58, 2.3, 3.2,0,0,1024,1024,1024,1024,59.3,-89.9,95,3.903,3.909,3.96,3.936,3.938,3.933,20.162,86,14,Waypoint,
36.0257559,-118.5730079,6747.338939012,206.364836,0,1.63524283448,26700,2018-07-04 21:22:24,14,0,23.561,6747.338939012,206.364836,0.6263432,1.746391132,0,0,-0.671082,57.9, 2.4, 3,0,0,1024,1024,1024,1024,59.3,-89.9,95,3.903,3.909,3.96,3.936,3.938,3.933,20.162,86,14,Waypoint,
36.0257559,-118.5730079,6748.323191012,207.349088,0,1.63524283448,26800,2018-07-04 21:22:24,14,0,23.561,6748.323191012,207.349088,0.6263432,1.746391132,0,0,-0.671082,57.8, 2.5, 3,0,0,1024,1024,1024,1024,59.3,-89.9,95,3.903,3.909,3.96,3.936,3.938,3.933,20.162,86,14,Waypoint,
36.0257559,-118.5730079,6749.963611012,208.989508,0,1.63524283448,26900,2018-07-04 21:22:24,14,0,23.561,6749.963611012,208.989508,0.6263432,1.746391132,0,0,-0.671082,57.7, 2.1, 3.3,0,0,1024,1024,1024,1024,59.2,-89.9,95,3.903,3.909,3.96,3.936,3.938,3.933,20.162,86,14,Waypoint,
36.0257558,-118.5730078,6750.947863012,209.97376,0,1.61655845068,27000,2018-07-04 21:22:25,14,0,23.549,6750.947863012,209.97376,0.6263432,1.746391132,0,0,-0.671082,57.7, 1.9, 3,0,0,1024,1024,1024,1024,59.2,-89.9,95,3.903,3.909,3.96,3.936,3.938,3.933,19.003,86,14,Waypoint,
36.0257558,-118.5730077,6752.916367012,211.942264,0,1.63076776872,27200,2018-07-04 21:22:25,14,0,23.549,6752.916367012,211.942264,0.6263432,1.746391132,0,0,-0.671082,58, 2, 2.2,0,0,1024,1024,1024,1024,59.3,-89.9,95,3.903,3.909,3.96,3.936,3.938,3.933,19.003,86,14,Waypoint,
36.0257556,-118.5730076,6755.212955012,214.238852,0,1.58270674356,27400,2018-07-04 21:22:25,14,0,23.549,6755.212955012,214.238852,0.6263432,1.746391132,0,0,-0.671082,58.1, 2.5, 1.6,0,0,1024,1024,1024,1024,59.3,-89.9,95,3.903,3.909,3.96,3.936,3.938,3.933,19.003,86,14,Waypoint,
36.0257555,-118.5730075,6756.197207012,215.223104,0,1.56761487956,27500,2018-07-04 21:22:25,14,0,23.549,6756.197207012,215.223104,0.6263432,1.746391132,0,0,-0.671082,58.1, 2.5, 1.6,0,0,1024,1024,1024,1024,59.3,-89.9,95,3.903,3.909,3.96,3.936,3.938,3.933,19.003,86,14,Waypoint,
36.0257555,-118.5730074,6757.181459012,216.207356,0,1.58391409268,27600,2018-07-04 21:22:25,14,0,23.549,6757.181459012,216.207356,0.6263432,1.746391132,0,0,-0.671082,58.1, 2.5, 1.9,0,0,1024,1024,1024,1024,59.3,-89.9,95,3.903,3.909,3.96,3.936,3.938,3.933,19.003,86,14,Waypoint,
