Latitude, Longitude, Altitude (m), Time, Sats, Speed (m/s), Range (m), Battery (%), Roll (deg), Pitch (deg), Yaw (deg), Images, HD Signal (%), RC Signal (%), Battery Temp (C), Battery Voltage (mV), Battery Current (mA), Battery Energy (mAh), Battery Capacity (mAh), Battery Discharges, flyState, timestamp (Unix), LastUpdate (ms), radioChannel, Rc_elevator, Rc_aileron, Rc_throttle, Rc_rudder, Rc_gyro, Dronetype, Battery_Cell1 (mV), Battery_Cell2 (mV), Battery_Cell3 (mV), Battery_Cell4 (mV), Battery_Cell5 (mV), Battery_Cell6 (mV), Video, isFlying, elapsedTime (ms), gimbalPitch (deg), gimbalRoll (deg), gimbalYaw (deg), VelocityX (m/s), VelocityY (m/s), VelocityZ (m/s), GroundSmear (cm), App Version, Aircraft Name, Aircraft Firmware, Aircraft Serial Number, Battery Serial Number, Battery Lifetime (%), App_Tip, App_Warning, CurrentFlightStartingIndex, CurrentFlightLastVisitedWaypoint, PreviousFlightEndingWaypointIndex
36.0257340, -118.5730128, 0.000, 15:17:15.097, 10, 0.14, 0.08, 97, -0.200, 0.900, 57.800, 1090, 100, 100, 27, 25482, -4461, 5160, 5320, 20, 11, 1530742635.097, 2, 0, 1024, 1024, 1024, 1024, 0, 6, 4253, 4238, 4238, 4248, 4254, 4273, 0, 1, 3023, -89.900, 0.000, 58.800, 0.100, 0.100, -0.200, 0.0, MapPilot_2.8.1_04242018, Dendroctonus I, 1.3.1.00, 041DDC1887, 1058163200627, 95, DJI_0089.jpg, Starting Mission from Lat/Long: 36.02573/-118.57301 Camera: Zenmuse X3 - Overlap: 90/90 - Active Connection: No, 35, 35, 35
36.0257340, -118.5730128, 0.000, 15:17:15.176, 10, 0.14, 0.08, 97, -0.200, 0.900, 57.800, 1090, 100, 100, 27, 25482, -4461, 5160, 5320, 20, 11, 1530742635.176, 81, 0, 1024, 1024, 1024, 1024, 0, 6, 4253, 4238, 4238, 4248, 4254, 4273, 0, 1, 3102, -89.900, 0.000, 58.800, 0.100, 0.100, -0.200, 0.0, , , , , , 95, , , 35, 35, 35
36.0257341, -118.5730127, 0.000, 15:17:15.275, 10, 0.14, 0.10, 97, -0.100, 1.500, 57.800, 1090, 100, 100, 27, 25482, -4461, 5160, 5320, 20, 11, 1530742635.276, 80, 0, 1024, 1024, 1024, 1024, 0, 6, 4253, 4238, 4238, 4248, 4254, 4273, 0, 1, 3201, -89.900, 0.000, 58.800, 0.100, 0.100, -0.300, 0.0, , , , , , 95, , , 35, 35, 35
36.0257342, -118.5730125, 0.000, 15:17:15.376, 10, 0.10, 0.11, 97, 0.100, 1.500, 57.900, 1090, 100, 100, 27, 25482, -4461, 5160, 5320, 20, 11, 1530742635.376, 82, 0, 1024, 1024, 1024, 1024, 0, 6, 4253, 4238, 4238, 4248, 4254, 4273, 0, 1, 3301, -89.900, 0.000, 58.800, 0.100, 0.000, -0.300, 0.0, , , , , , 95, , , 35, 35, 35
36.0257343, -118.5730125, 0.000, 15:17:15.476, 10, 0.10, 0.13, 97, 0.300, 1.200, 57.900, 1090, 100, 100, 27, 25370, -4253, 5160, 5320, 20, 11, 1530742635.476, 88, 0, 1024, 1024, 1024, 1024, 0, 6, 4253, 4238, 4238, 4248, 4254, 4273, 0, 1, 3401, -89.900, 0.000, 58.800, 0.100, 0.000, -0.300, 0.0, , , , , , 95, , , 35, 35, 35
36.0257344, -118.5730124, 0.000, 15:17:15.576, 10, 0.10, 0.14, 97, 0.400, 0.800, 57.900, 1090, 100, 100, 27, 25370, -4253, 5160, 5320, 20, 11, 1530742635.576, 81, 0, 1024, 1024, 1024, 1024, 0, 6, 4253, 4238, 4238, 4248, 4254, 4273, 0, 1, 3501, -90.000, 0.000, 58.800, 0.100, 0.000, -0.300, 0.0, , , , , , 95, , , 35, 35, 35
36.0257346, -118.5730123, 0.100, 15:17:15.676, 10, 0.10, 0.16, 97, 0.400, 0.400, 58.000, 1090, 100, 100, 27, 25370, -4253, 5160, 5320, 20, 11, 1530742635.676, 70, 0, 1024, 1024, 1024, 1024, 0, 6, 4253, 4238, 4238, 4248, 4254, 4273, 0, 1, 3601, -90.000, 0.000, 58.800, 0.100, 0.000, -0.400, 0.0, , , , , , 95, , , 35, 35, 35
36.0257347, -118.5730122, 0.100, 15:17:15.776, 10, 0.10, 0.17, 97, 0.600, 0.300, 58.000, 1090, 100, 100, 27, 25370, -4253, 5160, 5320, 20, 11, 1530742635.776, 75, 0, 1024, 1024, 1024, 1024, 0, 6, 4253, 4238, 4238, 4248, 4254, 4273, 0, 1, 3702, -89.900, 0.000, 58.800, 0.100, 0.000, -0.400, 0.0, , , , , , 95, , , 35, 35, 35
36.0257348, -118.5730121, 0.200, 15:17:15.876, 10, 0.10, 0.19, 97, 0.800, 0.400, 58.000, 1090, 100, 100, 27, 25370, -4253, 5160, 5320, 20, 11, 1530742635.877, 62, 0, 1024, 1024, 1024, 1024, 0, 6, 4187, 4180, 4157, 4202, 4213, 4168, 0, 1, 3802, -89.900, 0.000, 58.800, 0.100, 0.000, -0.400, 0.0, , , , , , 95, , , 35, 35, 35
36.0257349, -118.5730120, 0.200, 15:17:15.976, 10, 0.10, 0.20, 97, 0.900, 0.600, 58.000, 1090, 100, 100, 27, 25370, -4253, 5160, 5320, 20, 11, 1530742635.977, 66, 0, 1024, 1024, 1024, 1024, 0, 6, 4187, 4180, 4157, 4202, 4213, 4168, 0, 1, 3902, -89.900, 0.000, 58.800, 0.100, 0.000, -0.400, 0.0, , , , , , 95, , , 35, 35, 35
36.0257350, -118.5730120, 0.300, 15:17:16.076, 10, 0.10, 0.22, 97, 1.000, 0.700, 58.100, 1090, 100, 100, 27, 25370, -4253, 5160, 5320, 20, 11, 1530742636.076, 46, 0, 1024, 1024, 1024, 1024, 0, 6, 4187, 4180, 4157, 4202, 4213, 4168, 0, 1, 4001, -89.900, 0.000, 58.800, 0.100, 0.000, -0.400, 0.0, , , , , , 95, , , 35, 35, 35
36.0257352, -118.5730119, 0.400, 15:17:16.176, 10, 0.10, 0.23, 97, 1.100, 0.700, 58.200, 1090, 100, 100, 27, 25370, -4253, 5160, 5320, 20, 11, 1530742636.176, 40, 0, 1024, 1024, 1024, 1024, 0, 6, 4187, 4180, 4157, 4202, 4213, 4168, 0, 1, 4101, -89.900, 0.000, 58.800, 0.100, 0.000, -0.400, 0.0, , , , , , 95, , , 35, 35, 35
36.0257352, -118.5730119, 0.400, 15:17:16.276, 10, 0.00, 0.23, 97, 1.200, 0.800, 58.300, 1090, 100, 100, 27, 25370, -4253, 5160, 5320, 20, 11, 1530742636.276, 62, 0, 1024, 1024, 1024, 1024, 0, 6, 4187, 4180, 4157, 4202, 4213, 4168, 0, 1, 4202, -89.900, 0.000, 58.800, 0.000, 0.000, -0.500, 0.0, , , , , , 95, , , 35, 35, 35
36.0257352, -118.5730119, 0.500, 15:17:16.376, 10, 0.00, 0.23, 97, 1.300, 0.900, 58.300, 1090, 100, 100, 27, 25370, -4253, 5160, 5320, 20, 11, 1530742636.377, 52, 0, 1024, 1024, 1024, 1024, 0, 6, 4187, 4180, 4157, 4202, 4213, 4168, 0, 1, 4302, -89.900, 0.000, 58.800, 0.000, 0.000, -0.400, 0.0, , , , , , 95, , , 35, 35, 35
36.0257353, -118.5730119, 0.500, 15:17:16.476, 11, 0.00, 0.24, 97, 1.300, 0.800, 58.300, 1090, 100, 100, 27, 25370, -4253, 5160, 5320, 20, 11, 1530742636.476, 40, 0, 1024, 1024, 1024, 1024, 0, 6, 4187, 4180, 4157, 4202, 4213, 4168, 0, 1, 4402, -89.900, 0.000, 58.800, 0.000, 0.000, -0.400, 0.0, , , , , , 95, , , 35, 35, 35
36.0257353, -118.5730118, 0.600, 15:17:16.576, 11, 0.00, 0.25, 97, 1.300, 0.700, 58.300, 1090, 100, 100, 27, 25370, -4253, 5160, 5320, 20, 11, 1530742636.577, 32, 0, 1024, 1024, 1024, 1024, 0, 6, 4187, 4180, 4157, 4202, 4213, 4168, 0, 1, 4502, -89.900, 0.000, 58.800, 0.000, 0.000, -0.400, 0.0, , , , , , 95, , , 35, 35, 35
36.0257353, -118.5730118, 0.600, 15:17:16.676, 11, 0.00, 0.25, 97, 1.200, 0.800, 58.200, 1090, 100, 100, 27, 25370, -4253, 5160, 5320, 20, 11, 1530742636.676, 40, 0, 1024, 1024, 1024, 1024, 0, 6, 4187, 4180, 4157, 4202, 4213, 4168, 0, 1, 4602, -89.900, 0.000, 58.800, 0.000, 0.000, -0.400, 0.0, , , , , , 95, , , 35, 35, 35
36.0257354, -118.5730118, 0.700, 15:17:16.776, 11, 0.00, 0.26, 97, 1.200, 0.900, 58.100, 1090, 100, 100, 27, 25370, -4253, 5160, 5320, 20, 11, 1530742636.777, 31, 0, 1024, 1024, 1024, 1024, 0, 6, 4187, 4180, 4157, 4202, 4213, 4168, 0, 1, 4702, -89.900, 0.000, 58.800, 0.000, 0.000, -0.500, 0.0, , , , , , 95, , , 35, 35, 35
36.0257354, -118.5730118, 0.700, 15:17:16.876, 11, 0.00, 0.26, 97, 1.200, 1.000, 58.100, 1090, 100, 100, 27, 24334, -14794, 5160, 5320, 20, 11, 1530742636.877, 7, 0, 1024, 1024, 1024, 1024, 0, 6, 4020, 4021, 4061, 4062, 4076, 4023, 0, 1, 4802, -89.900, 0.000, 58.800, 0.000, 0.000, -0.500, 0.0, , , , , , 95, , , 35, 35, 35
36.0257354, -118.5730118, 0.800, 15:17:16.976, 11, 0.00, 0.26, 97, 1.100, 1.100, 58.100, 1090, 100, 100, 27, 24334, -14794, 5160, 5320, 20, 11, 1530742636.977, 21, 0, 1024, 1024, 1024, 1024, 0, 6, 4020, 4021, 4061, 4062, 4076, 4023, 0, 1, 4902, -89.900, 0.000, 58.800, 0.000, 0.000, -0.500, 0.0, , , , , , 95, , , 35, 35, 35
36.0257354, -118.5730118, 0.900, 15:17:17.076, 11, 0.00, 0.25, 97, 0.900, 1.100, 58.000, 1090, 100, 100, 27, 24334, -14794, 5160, 5320, 20, 6, 1530742637.077, 15, 0, 1024, 1024, 1024, 1024, 0, 6, 4020, 4021, 4061, 4062, 4076, 4023, 0, 1, 5002, -89.900, 0.000, 58.800, 0.000, 0.000, -0.500, 0.0, , , , , , 95, , , 35, 35, 35
36.0257353, -118.5730119, 0.900, 15:17:17.176, 11, 0.00, 0.24, 97, 0.900, 0.800, 58.000, 1090, 100, 100, 27, 24334, -14794, 5160, 5320, 20, 14, 1530742637.177, 16, 0, 1024, 1024, 1024, 1024, 0, 6, 4020, 4021, 4061, 4062, 4076, 4023, 0, 1, 5102, -90.000, 0.000, 58.800, 0.000, 0.000, -0.400, 0.0, , , , , , 95, , , 35, 35, 35
36.0257353, -118.5730120, 1.000, 15:17:17.276, 10, 0.00, 0.23, 97, 0.600, 0.000, 57.800, 1090, 100, 100, 27, 24334, -14794, 5160, 5320, 20, 14, 1530742637.277, 16, 0, 1024, 1024, 1024, 1024, 0, 6, 4020, 4021, 4061, 4062, 4076, 4023, 0, 1, 5202, -90.000, 0.000, 58.800, 0.000, 0.000, -0.300, 0.0, , , , , , 95, , , 35, 35, 35
36.0257352, -118.5730122, 1.100, 15:17:17.376, 10, 0.00, 0.22, 97, 0.400, -1.000, 57.600, 1090, 100, 100, 27, 24334, -14794, 5160, 5320, 20, 14, 1530742637.377, 6, 0, 1024, 1024, 1024, 1024, 0, 6, 4020, 4021, 4061, 4062, 4076, 4023, 0, 1, 5302, -90.000, 0.000, 58.800, 0.000, 0.000, -0.200, 0.0, , , , , , 95, , , 35, 35, 35
36.0257352, -118.5730122, 1.100, 15:17:17.476, 10, 0.00, 0.22, 97, 0.400, -1.000, 57.600, 1090, 100, 98, 27, 24334, -14794, 5160, 5320, 20, 14, 1530742637.477, 106, 0, 1024, 1024, 1024, 1024, 0, 6, 4020, 4021, 4061, 4062, 4076, 4023, 0, 1, 5402, -90.000, 0.000, 58.800, 0.000, 0.000, -0.200, 0.0, , , , , , 95, , , 35, 35, 35
36.0257352, -118.5730122, 1.100, 15:17:17.576, 10, 0.00, 0.22, 97, 0.400, -1.000, 57.600, 1090, 100, 98, 27, 24334, -14794, 5160, 5320, 20, 14, 1530742637.577, 206, 0, 1024, 1024, 1024, 1024, 0, 6, 4020, 4021, 4061, 4062, 4076, 4023, 0, 1, 5502, -90.000, 0.000, 58.800, 0.000, 0.000, -0.200, 0.0, , , , , , 95, , , 35, 35, 35
36.0257353, -118.5730124, 1.100, 15:17:17.676, 10, 0.00, 0.22, 97, 0.900, -0.700, 57.500, 1090, 100, 98, 27, 24334, -14794, 5160, 5320, 20, 14, 1530742637.677, 89, 0, 1024, 1024, 1024, 1024, 0, 6, 4020, 4021, 4061, 4062, 4076, 4023, 0, 1, 5602, -89.900, 0.000, 58.800, 0.000, 0.000, -0.500, 0.0, , , , , , 95, , , 35, 35, 35
36.0257353, -118.5730124, 1.200, 15:17:17.776, 10, 0.00, 0.22, 97, 1.000, -0.300, 57.500, 1090, 100, 98, 27, 24334, -14794, 5160, 5320, 20, 14, 1530742637.777, 70, 0, 1024, 1024, 1024, 1024, 0, 6, 4020, 4021, 4061, 4062, 4076, 4023, 0, 1, 5702, -89.900, 0.000, 58.800, 0.000, 0.000, -0.700, 0.0, , , , , , 95, , , 35, 35, 35
36.0257353, -118.5730125, 1.300, 15:17:17.876, 10, 0.00, 0.22, 97, 1.000, -0.100, 57.400, 1090, 100, 98, 27, 24334, -14794, 5160, 5320, 20, 14, 1530742637.877, 68, 0, 1024, 1024, 1024, 1024, 0, 6, 4020, 4021, 4061, 4062, 4076, 4023, 0, 1, 5802, -89.900, 0.000, 58.800, 0.000, 0.000, -0.700, 0.0, , , , , , 95, , , 35, 35, 35
36.0257354, -118.5730125, 1.400, 15:17:17.976, 10, 0.00, 0.22, 97, 1.000, 0.000, 57.300, 1090, 100, 98, 27, 24036, -17098, 5160, 5320, 20, 14, 1530742637.977, 87, 0, 1024, 1024, 1024, 1024, 0, 6, 3984, 3988, 4012, 4007, 4035, 3989, 0, 1, 5902, -89.900, 0.000, 58.800, 0.000, 0.000, -1.000, 0.0, , , , , , 95, , , 35, 35, 35
36.0257354, -118.5730125, 1.500, 15:17:18.076, 10, 0.00, 0.22, 97, 1.000, 0.000, 57.200, 1090, 100, 98, 27, 24036, -17098, 5160, 5320, 20, 14, 1530742638.076, 45, 0, 1024, 1024, 1024, 1024, 0, 6, 3984, 3988, 4012, 4007, 4035, 3989, 0, 1, 6002, -89.900, 0.000, 58.800, 0.000, 0.000, -1.200, 0.0, , , , , , 95, , , 35, 35, 35
36.0257354, -118.5730126, 1.700, 15:17:18.176, 10, 0.00, 0.23, 97, 1.000, 0.100, 57.100, 1090, 100, 98, 27, 24036, -17098, 5160, 5320, 20, 14, 1530742638.176, 59, 0, 1024, 1024, 1024, 1024, 0, 6, 3984, 3988, 4012, 4007, 4035, 3989, 0, 1, 6101, -89.900, 0.000, 58.800, 0.000, 0.000, -1.300, 0.0, , , , , , 95, , , 35, 35, 35
36.0257354, -118.5730126, 1.800, 15:17:18.276, 10, 0.00, 0.23, 97, 0.700, 0.200, 57.100, 1090, 100, 98, 27, 24036, -17098, 5160, 5320, 20, 14, 1530742638.276, 65, 0, 1024, 1024, 1024, 1024, 0, 6, 3984, 3988, 4012, 4007, 4035, 3989, 0, 1, 6202, -89.900, 0.000, 58.800, 0.000, 0.000, -1.500, 0.0, , , , , , 95, , , 35, 35, 35
36.0257355, -118.5730126, 2.000, 15:17:18.376, 10, 0.00, 0.23, 97, 0.400, 0.100, 57.200, 1090, 100, 98, 27, 24036, -17098, 5160, 5320, 20, 14, 1530742638.376, 56, 0, 1024, 1024, 1024, 1024, 0, 6, 3984, 3988, 4012, 4007, 4035, 3989, 0, 1, 6302, -89.900, 0.000, 58.800, 0.000, 0.000, -1.800, 0.0, , , , , , 95, , , 35, 35, 35
36.0257354, -118.5730126, 2.200, 15:17:18.476, 10, 0.00, 0.23, 97, 0.600, 0.000, 57.400, 1090, 100, 98, 27, 24036, -17098, 5160, 5320, 20, 14, 1530742638.476, 60, 0, 1024, 1024, 1024, 1024, 0, 6, 3984, 3988, 4012, 4007, 4035, 3989, 0, 1, 6402, -89.900, 0.000, 58.800, 0.000, 0.000, -2.100, 0.0, , , , , , 95, , , 35, 35, 35
36.0257354, -118.5730126, 2.400, 15:17:18.576, 10, 0.00, 0.23, 97, 0.800, -0.100, 57.500, 1090, 100, 98, 27, 24036, -17098, 5160, 5320, 20, 14, 1530742638.576, 22, 0, 1024, 1024, 1024, 1024, 0, 6, 3984, 3988, 4012, 4007, 4035, 3989, 0, 1, 6502, -90.000, 0.000, 58.800, 0.000, 0.000, -2.200, 0.0, , , , , , 95, , , 35, 35, 35
36.0257354, -118.5730126, 2.700, 15:17:18.676, 11, 0.00, 0.22, 97, 0.900, -0.100, 57.700, 1090, 100, 98, 27, 24036, -17098, 5160, 5320, 20, 14, 1530742638.677, 51, 0, 1024, 1024, 1024, 1024, 0, 6, 3984, 3988, 4012, 4007, 4035, 3989, 0, 1, 6602, -90.000, 0.000, 58.800, 0.000, 0.000, -2.400, 0.0, , , , , , 95, , , 35, 35, 35
36.0257353, -118.5730126, 3.000, 15:17:18.776, 11, 0.00, 0.22, 97, 0.500, -0.100, 57.900, 1090, 100, 98, 27, 24036, -17098, 5160, 5320, 20, 14, 1530742638.777, 22, 0, 1024, 1024, 1024, 1024, 0, 6, 3984, 3988, 4012, 4007, 4035, 3989, 0, 1, 6702, -89.900, 0.000, 58.800, 0.000, 0.000, -2.700, 0.0, , , , , , 95, , , 35, 35, 35
36.0257353, -118.5730126, 3.200, 15:17:18.876, 10, 0.00, 0.22, 97, 0.300, 0.000, 58.100, 1090, 100, 98, 27, 24029, -17075, 5160, 5320, 20, 14, 1530742638.877, 34, 0, 1024, 1024, 1024, 1024, 0, 6, 3945, 3967, 3964, 3986, 4013, 3955, 0, 1, 6802, -89.900, 0.000, 58.800, 0.000, 0.000, -2.800, 0.0, , , , , , 95, , , 35, 35, 35
36.0257354, -118.5730126, 3.500, 15:17:18.978, 10, 0.00, 0.22, 97, 0.300, 0.300, 58.300, 1090, 100, 98, 27, 24029, -17075, 5160, 5320, 20, 14, 1530742638.978, 4, 0, 1024, 1024, 1024, 1024, 0, 6, 3945, 3967, 3964, 3986, 4013, 3955, 0, 1, 6904, -89.900, 0.000, 58.800, 0.000, 0.000, -3.000, 0.0, , , , , , 95, , , 35, 35, 35
36.0257353, -118.5730125, 3.900, 15:17:19.076, 11, 0.00, 0.22, 97, 0.600, 0.400, 58.400, 1090, 100, 100, 27, 24029, -17075, 5160, 5320, 20, 14, 1530742639.077, 15, 0, 1024, 1024, 1024, 1024, 0, 6, 3945, 3967, 3964, 3986, 4013, 3955, 0, 1, 7002, -89.900, 0.000, 58.800, 0.000, 0.000, -3.100, 0.0, , , , , , 95, , , 35, 35, 35
36.0257353, -118.5730124, 4.200, 15:17:19.176, 11, 0.00, 0.22, 97, 0.500, 0.500, 58.400, 1090, 100, 100, 27, 24029, -17075, 5160, 5320, 20, 14, 1530742639.177, 16, 0, 1024, 1024, 1024, 1024, 0, 6, 3945, 3967, 3964, 3986, 4013, 3955, 0, 1, 7102, -89.900, 0.000, 58.800, 0.000, 0.000, -3.100, 0.0, , , , , , 95, , , 35, 35, 35
36.0257352, -118.5730124, 4.500, 15:17:19.276, 11, 0.00, 0.21, 97, 0.300, 0.600, 58.400, 1090, 100, 100, 27, 24029, -17075, 5160, 5320, 20, 14, 1530742639.277, 18, 0, 1024, 1024, 1024, 1024, 0, 6, 3945, 3967, 3964, 3986, 4013, 3955, 0, 1, 7202, -89.900, 0.000, 58.800, 0.000, 0.000, -3.100, 0.0, , , , , , 95, , , 35, 35, 35
36.0257352, -118.5730124, 4.800, 15:17:19.376, 11, 0.00, 0.21, 97, 0.100, 0.400, 58.400, 1090, 100, 100, 27, 24029, -17075, 5160, 5320, 20, 14, 1530742639.377, 22, 0, 1024, 1024, 1024, 1024, 0, 6, 3945, 3967, 3964, 3986, 4013, 3955, 0, 1, 7302, -89.900, 0.000, 58.800, 0.000, 0.000, -3.200, 0.0, , , , , , 95, , , 35, 35, 35
36.0257351, -118.5730123, 5.200, 15:17:19.476, 11, 0.00, 0.21, 97, 0.000, 0.300, 58.200, 1090, 100, 100, 27, 24029, -17075, 5160, 5320, 20, 14, 1530742639.477, 9, 0, 1024, 1024, 1024, 1024, 0, 6, 3945, 3967, 3964, 3986, 4013, 3955, 0, 1, 7402, -89.900, 0.000, 58.800, 0.000, 0.000, -3.200, 0.0, , , , , , 95, , , 35, 35, 35
36.0257351, -118.5730123, 5.200, 15:17:19.577, 11, 0.00, 0.21, 97, 0.000, 0.300, 58.200, 1090, 100, 100, 27, 24029, -17075, 5160, 5320, 20, 14, 1530742639.577, 110, 0, 1024, 1024, 1024, 1024, 0, 6, 3945, 3967, 3964, 3986, 4013, 3955, 0, 1, 7503, -89.900, 0.000, 58.800, 0.000, 0.000, -3.200, 0.0, , , , , , 95, , , 35, 35, 35
36.0257351, -118.5730123, 5.500, 15:17:19.677, 11, 0.00, 0.21, 97, 0.000, 0.200, 58.100, 1090, 100, 100, 27, 24029, -17075, 5160, 5320, 20, 14, 1530742639.677, 95, 0, 1024, 1024, 1024, 1024, 0, 6, 3945, 3967, 3964, 3986, 4013, 3955, 0, 1, 7602, -89.900, 0.000, 58.800, 0.000, 0.000, -3.300, 0.0, , , , , , 95, , , 35, 35, 35
36.0257351, -118.5730122, 5.900, 15:17:19.776, 12, 0.00, 0.20, 97, 0.000, 0.200, 57.900, 1090, 100, 100, 27, 24029, -17075, 5160, 5320, 20, 14, 1530742639.777, 98, 0, 1024, 1024, 1024, 1024, 0, 6, 3945, 3967, 3964, 3986, 4013, 3955, 0, 1, 7702, -89.900, 0.000, 58.800, 0.000, 0.000, -3.300, 0.0, , , , , , 95, , , 35, 35, 35
36.0257350, -118.5730122, 6.600, 15:17:19.877, 12, 0.00, 0.20, 97, 0.000, 0.300, 57.700, 1090, 100, 100, 27, 24029, -17075, 5160, 5320, 20, 14, 1530742639.877, 89, 0, 1024, 1024, 1024, 1024, 0, 6, 3945, 3967, 3964, 3986, 4013, 3955, 0, 1, 7802, -89.900, 0.000, 58.800, 0.000, 0.000, -3.200, 0.0, , , , , , 95, , , 35, 35, 35
36.0257349, -118.5730123, 6.900, 15:17:19.976, 12, 0.00, 0.19, 97, 0.000, 0.200, 57.700, 1090, 100, 100, 27, 23248, -24886, 5160, 5320, 20, 14, 1530742639.977, 65, 0, 1024, 1024, 1024, 1024, 0, 6, 3850, 3879, 3896, 3890, 3914, 3877, 0, 1, 7902, -89.900, 0.000, 58.800, 0.000, 0.000, -3.100, 0.0, , , , , , 95, , , 35, 35, 35
36.0257349, -118.5730124, 7.200, 15:17:20.076, 12, 0.00, 0.18, 97, 0.300, 0.200, 57.800, 1090, 100, 100, 27, 23248, -24886, 5160, 5320, 20, 14, 1530742640.077, 77, 0, 1024, 1024, 1024, 1024, 0, 6, 3850, 3879, 3896, 3890, 3914, 3877, 0, 1, 8002, -89.900, 0.000, 58.800, 0.000, 0.000, -3.200, 0.0, , , , , , 95, , , 35, 35, 35
36.0257349, -118.5730124, 7.600, 15:17:20.177, 12, 0.00, 0.18, 97, 0.500, 0.200, 57.900, 1090, 100, 100, 27, 23248, -24886, 5160, 5320, 20, 14, 1530742640.177, 90, 0, 1024, 1024, 1024, 1024, 0, 6, 3850, 3879, 3896, 3890, 3914, 3877, 0, 1, 8102, -89.900, 0.000, 58.800, 0.000, 0.000, -3.100, 0.0, , , , , , 95, , , 35, 35, 35
36.0257349, -118.5730123, 7.900, 15:17:20.277, 12, 0.00, 0.19, 97, 0.600, 0.400, 58.000, 1090, 100, 100, 27, 23248, -24886, 5160, 5320, 20, 14, 1530742640.277, 71, 0, 1024, 1024, 1024, 1024, 0, 6, 3850, 3879, 3896, 3890, 3914, 3877, 0, 1, 8203, -89.900, 0.000, 58.800, 0.000, 0.000, -3.100, 0.0, , , , , , 95, , , 35, 35, 35
36.0257350, -118.5730123, 8.200, 15:17:20.377, 12, 0.00, 0.20, 97, 0.600, 0.600, 58.200, 1090, 100, 100, 27, 23248, -24886, 5160, 5320, 20, 14, 1530742640.377, 65, 0, 1024, 1024, 1024, 1024, 0, 6, 3850, 3879, 3896, 3890, 3914, 3877, 0, 1, 8302, -89.900, 0.000, 58.800, 0.000, 0.000, -3.100, 0.0, , , , , , 95, , , 35, 35, 35
36.0257350, -118.5730123, 8.600, 15:17:20.477, 12, 0.00, 0.20, 97, 0.600, 0.900, 58.300, 1090, 100, 100, 27, 23248, -24886, 5160, 5320, 20, 14, 1530742640.477, 56, 0, 1024, 1024, 1024, 1024, 0, 6, 3850, 3879, 3896, 3890, 3914, 3877, 0, 1, 8402, -89.900, 0.000, 58.800, 0.000, 0.000, -3.100, 0.0, , , , , , 95, , , 35, 35, 35
36.0257350, -118.5730123, 8.900, 15:17:20.577, 12, 0.00, 0.20, 97, 0.400, 1.100, 58.300, 1090, 100, 100, 27, 23248, -24886, 5160, 5320, 20, 14, 1530742640.577, 59, 0, 1024, 1024, 1024, 1024, 0, 6, 3850, 3879, 3896, 3890, 3914, 3877, 0, 1, 8502, -89.900, 0.000, 58.800, 0.000, 0.000, -3.100, 0.0, , , , , , 95, , , 35, 35, 35
36.0257351, -118.5730124, 9.200, 15:17:20.677, 12, 0.00, 0.20, 97, 0.300, 0.900, 58.200, 1090, 100, 100, 27, 23248, -24886, 5160, 5320, 20, 14, 1530742640.677, 59, 0, 1024, 1024, 1024, 1024, 0, 6, 3850, 3879, 3896, 3890, 3914, 3877, 0, 1, 8602, -89.900, 0.000, 58.800, 0.000, 0.000, -3.100, 0.0, , , , , , 95, , , 35, 35, 35
36.0257352, -118.5730124, 9.600, 15:17:20.777, 12, 0.00, 0.21, 97, 0.700, 0.700, 58.200, 1090, 100, 100, 27, 23248, -24886, 5160, 5320, 20, 14, 1530742640.777, 43, 0, 1024, 1024, 1024, 1024, 0, 6, 3850, 3879, 3896, 3890, 3914, 3877, 0, 1, 8702, -90.000, 0.000, 58.800, 0.000, 0.000, -3.100, 0.0, , , , , , 95, , , 35, 35, 35
36.0257353, -118.5730124, 9.900, 15:17:20.877, 13, 0.00, 0.22, 97, 1.100, 0.600, 58.100, 1090, 100, 100, 27, 23608, -19753, 5160, 5320, 20, 14, 1530742640.877, 45, 0, 1024, 1024, 1024, 1024, 0, 6, 3850, 3879, 3896, 3890, 3914, 3877, 0, 1, 8802, -89.900, 0.000, 58.800, 0.000, 0.000, -3.100, 0.0, , , , , , 95, , , 35, 35, 35
36.0257353, -118.5730125, 10.200, 15:17:20.976, 13, 0.00, 0.22, 97, 1.200, 0.700, 58.100, 1090, 100, 100, 27, 23608, -19753, 5160, 5320, 20, 14, 1530742640.976, 33, 0, 1024, 1024, 1024, 1024, 0, 6, 3850, 3879, 3896, 3890, 3914, 3877, 0, 1, 8901, -89.900, 0.000, 58.800, 0.000, 0.000, -3.000, 0.0, , , , , , 95, , , 35, 35, 35
36.0257354, -118.5730125, 10.600, 15:17:21.077, 13, 0.00, 0.23, 97, 1.200, 0.600, 58.000, 1090, 100, 100, 27, 23608, -19753, 5160, 5320, 20, 14, 1530742641.077, 39, 0, 1024, 1024, 1024, 1024, 0, 6, 3850, 3879, 3896, 3890, 3914, 3877, 0, 1, 9002, -89.900, 0.000, 58.800, 0.000, 0.000, -3.000, 0.0, , , , , , 95, , , 35, 35, 35
36.0257355, -118.5730126, 10.900, 15:17:21.177, 13, 0.00, 0.24, 97, 1.100, 0.600, 57.900, 1090, 100, 100, 27, 23608, -19753, 5160, 5320, 20, 14, 1530742641.177, 15, 0, 1024, 1024, 1024, 1024, 0, 6, 3850, 3879, 3896, 3890, 3914, 3877, 0, 1, 9102, -90.000, 0.000, 58.800, 0.000, 0.000, -2.900, 0.0, , , , , , 95, , , 35, 35, 35
36.0257356, -118.5730126, 11.200, 15:17:21.277, 13, 0.00, 0.24, 97, 1.100, 0.500, 57.900, 1090, 100, 100, 27, 23608, -19753, 5160, 5320, 20, 14, 1530742641.277, 22, 0, 1024, 1024, 1024, 1024, 0, 6, 3850, 3879, 3896, 3890, 3914, 3877, 0, 1, 9202, -89.900, 0.000, 58.800, 0.000, 0.000, -2.900, 0.0, , , , , , 95, , , 35, 35, 35
36.0257356, -118.5730127, 11.500, 15:17:21.377, 13, 0.00, 0.25, 97, 1.200, 0.600, 57.900, 1090, 100, 100, 27, 23608, -19753, 5160, 5320, 20, 14, 1530742641.377, 22, 0, 1024, 1024, 1024, 1024, 0, 6, 3916, 3929, 3950, 3951, 3961, 3941, 0, 1, 9302, -89.900, 0.000, 58.800, 0.000, 0.000, -2.900, 0.0, , , , , , 95, , , 35, 35, 35
36.0257357, -118.5730127, 11.800, 15:17:21.477, 14, 0.00, 0.25, 97, 1.300, 0.600, 57.900, 1090, 100, 100, 27, 23608, -19753, 5160, 5320, 20, 14, 1530742641.477, 3, 0, 1024, 1024, 1024, 1024, 0, 6, 3916, 3929, 3950, 3951, 3961, 3941, 0, 1, 9402, -90.000, 0.000, 58.800, 0.000, 0.000, -2.900, 0.0, , , , , , 95, , , 35, 35, 35
36.0257358, -118.5730128, 12.100, 15:17:21.576, 14, 0.00, 0.26, 97, 1.600, 0.700, 57.900, 1090, 100, 100, 27, 23608, -19753, 5160, 5320, 20, 14, 1530742641.577, 7, 0, 1024, 1024, 1024, 1024, 0, 6, 3916, 3929, 3950, 3951, 3961, 3941, 0, 1, 9502, -89.900, 0.000, 58.800, 0.000, 0.000, -2.900, 0.0, , , , , , 95, , , 35, 35, 35
36.0257358, -118.5730128, 12.400, 15:17:21.677, 14, 0.00, 0.27, 97, 1.600, 0.900, 57.900, 1090, 100, 100, 27, 23608, -19753, 5160, 5320, 20, 14, 1530742641.677, 12, 0, 1024, 1024, 1024, 1024, 0, 6, 3916, 3929, 3950, 3951, 3961, 3941, 0, 1, 9602, -89.900, 0.000, 58.800, 0.000, 0.000, -2.900, 0.0, , , , , , 95, , , 35, 35, 35
36.0257359, -118.5730128, 12.700, 15:17:21.776, 14, 0.00, 0.27, 97, 1.400, 1.100, 57.900, 1090, 100, 100, 27, 23608, -19753, 5160, 5320, 20, 14, 1530742641.776, 2, 0, 1024, 1024, 1024, 1024, 0, 6, 3916, 3929, 3950, 3951, 3961, 3941, 0, 1, 9701, -89.900, 0.000, 58.800, 0.000, 0.000, -2.900, 0.0, , , , , , 95, , , 35, 35, 35
36.0257359, -118.5730128, 12.700, 15:17:21.876, 14, 0.00, 0.27, 97, 1.400, 1.100, 57.900, 1090, 100, 100, 27, 23608, -19753, 5160, 5320, 20, 14, 1530742641.876, 102, 0, 1024, 1024, 1024, 1024, 0, 6, 3916, 3929, 3950, 3951, 3961, 3941, 0, 1, 9802, -89.900, 0.000, 58.800, 0.000, 0.000, -2.900, 0.0, , , , , , 95, , , 35, 35, 35
36.0257359, -118.5730127, 13.300, 15:17:21.977, 14, 0.00, 0.27, 97, 0.800, 1.300, 57.700, 1090, 100, 100, 27, 23608, -19753, 5160, 5320, 20, 14, 1530742641.977, 94, 0, 1024, 1024, 1024, 1024, 0, 6, 3916, 3929, 3950, 3951, 3961, 3941, 0, 1, 9903, -89.900, 0.000, 58.800, 0.000, 0.000, -2.900, 0.0, , , , , , 95, , , 35, 35, 35
36.0257359, -118.5730127, 13.600, 15:17:22.076, 14, 0.00, 0.27, 97, 0.500, 1.000, 57.700, 1090, 100, 100, 27, 23608, -19753, 5160, 5320, 20, 14, 1530742642.077, 84, 0, 1024, 1024, 1024, 1024, 0, 6, 3916, 3929, 3950, 3951, 3961, 3941, 0, 1, 10002, -89.900, 0.000, 58.800, 0.000, 0.000, -2.900, 0.0, , , , , , 95, , , 35, 35, 35
36.0257358, -118.5730128, 13.900, 15:17:22.176, 14, 0.00, 0.27, 97, 0.100, 0.800, 57.700, 1090, 100, 100, 27, 23608, -19753, 5160, 5320, 20, 14, 1530742642.176, 93, 0, 1024, 1024, 1024, 1024, 0, 6, 3916, 3929, 3950, 3951, 3961, 3941, 0, 1, 10101, -90.000, 0.000, 58.800, 0.000, 0.000, -2.900, 0.0, , , , , , 95, , , 35, 35, 35
36.0257357, -118.5730128, 14.200, 15:17:22.277, 14, 0.00, 0.25, 97, -0.100, 0.500, 57.800, 1090, 100, 100, 27, 23608, -19753, 5160, 5320, 20, 14, 1530742642.277, 97, 0, 1024, 1024, 1024, 1024, 0, 6, 3916, 3929, 3950, 3951, 3961, 3941, 0, 1, 10202, -90.000, 0.000, 58.800, 0.000, 0.000, -2.800, 0.0, , , , , , 95, , , 35, 35, 35
36.0257356, -118.5730128, 14.500, 15:17:22.377, 14, 0.10, 0.24, 97, -0.200, 0.200, 57.800, 1090, 100, 100, 27, 23608, -19753, 5160, 5320, 20, 14, 1530742642.377, 87, 0, 1024, 1024, 1024, 1024, 0, 6, 3916, 3929, 3950, 3951, 3961, 3941, 0, 1, 10302, -90.000, 0.000, 58.800, -0.100, 0.000, -2.900, 0.0, , , , , , 95, , , 35, 35, 35
36.0257355, -118.5730127, 14.800, 15:17:22.477, 14, 0.10, 0.23, 97, -0.300, 0.000, 57.900, 1090, 100, 100, 27, 23713, -17961, 5160, 5320, 20, 14, 1530742642.477, 90, 0, 1024, 1024, 1024, 1024, 0, 6, 3937, 3947, 3954, 3956, 3970, 3948, 0, 1, 10402, -90.000, 0.000, 58.800, -0.100, 0.000, -2.900, 0.0, , , , , , 95, , , 35, 35, 35
36.0257355, -118.5730127, 15.100, 15:17:22.577, 14, 0.10, 0.23, 97, -0.300, -0.200, 57.900, 1090, 100, 100, 27, 23713, -17961, 5160, 5320, 20, 14, 1530742642.577, 82, 0, 1024, 1024, 1024, 1024, 0, 6, 3937, 3947, 3954, 3956, 3970, 3948, 0, 1, 10502, -90.000, 0.000, 58.800, -0.100, 0.000, -2.900, 0.0, , , , , , 95, , , 35, 35, 35
36.0257354, -118.5730127, 15.500, 15:17:22.677, 14, 0.10, 0.22, 97, -0.700, -0.200, 57.800, 1090, 100, 100, 27, 23713, -17961, 5160, 5320, 20, 14, 1530742642.677, 63, 0, 1024, 1024, 1024, 1024, 0, 6, 3937, 3947, 3954, 3956, 3970, 3948, 0, 1, 10602, -90.000, 0.000, 58.800, -0.100, 0.000, -2.900, 0.0, , , , , , 95, , , 35, 35, 35
36.0257353, -118.5730128, 15.800, 15:17:22.777, 14, 0.10, 0.21, 97, -1.100, -0.300, 57.800, 1090, 100, 100, 27, 23713, -17961, 5160, 5320, 20, 14, 1530742642.777, 47, 0, 1024, 1024, 1024, 1024, 0, 6, 3937, 3947, 3954, 3956, 3970, 3948, 0, 1, 10702, -90.000, 0.000, 58.800, -0.100, 0.000, -2.900, 0.0, , , , , , 95, , , 35, 35, 35
36.0257352, -118.5730128, 16.100, 15:17:22.877, 14, 0.00, 0.20, 97, -1.400, -0.600, 57.700, 1090, 100, 100, 27, 23713, -17961, 5160, 5320, 20, 14, 1530742642.877, 70, 0, 1024, 1024, 1024, 1024, 0, 6, 3937, 3947, 3954, 3956, 3970, 3948, 0, 1, 10802, -90.000, 0.000, 58.800, 0.000, 0.000, -2.900, 0.0, , , , , , 95, , , 35, 35, 35
36.0257351, -118.5730129, 16.400, 15:17:22.977, 14, 0.00, 0.19, 97, -1.400, -0.600, 57.700, 1090, 100, 98, 27, 23713, -17961, 5160, 5320, 20, 14, 1530742642.977, 60, 0, 1024, 1024, 1024, 1024, 0, 6, 3937, 3947, 3954, 3956, 3970, 3948, 0, 1, 10902, -89.900, 0.000, 58.800, 0.000, 0.000, -2.900, 0.0, , , , , , 95, , , 35, 35, 35
36.0257351, -118.5730128, 16.700, 15:17:23.077, 14, 0.00, 0.18, 97, -1.300, -0.600, 57.700, 1090, 100, 98, 27, 23713, -17961, 5160, 5320, 20, 14, 1530742643.077, 63, 0, 1024, 1024, 1024, 1024, 0, 6, 3937, 3947, 3954, 3956, 3970, 3948, 0, 1, 11003, -89.900, 0.000, 58.800, 0.000, 0.000, -2.800, 0.0, , , , , , 95, , , 35, 35, 35
36.0257350, -118.5730128, 17.000, 15:17:23.177, 14, 0.00, 0.17, 97, -1.500, -0.700, 57.700, 1090, 100, 98, 27, 23713, -17961, 5160, 5320, 20, 14, 1530742643.178, 65, 0, 1024, 1024, 1024, 1024, 0, 6, 3937, 3947, 3954, 3956, 3970, 3948, 0, 1, 11103, -89.900, 0.000, 58.800, 0.000, 0.000, -2.800, 0.0, , , , , , 95, , , 35, 35, 35
36.0257349, -118.5730128, 17.300, 15:17:23.276, 15, 0.00, 0.16, 97, -1.500, -0.700, 57.800, 1090, 100, 98, 27, 23713, -17961, 5160, 5320, 20, 14, 1530742643.276, 57, 0, 1024, 1024, 1024, 1024, 0, 6, 3937, 3947, 3954, 3956, 3970, 3948, 0, 1, 11202, -90.000, 0.000, 58.800, 0.000, 0.000, -2.900, 0.0, , , , , , 95, , , 35, 35, 35
36.0257348, -118.5730128, 17.600, 15:17:23.377, 15, 0.10, 0.15, 97, -1.700, -0.800, 57.900, 1090, 100, 98, 27, 23655, -18865, 5107, 5320, 20, 14, 1530742643.377, 30, 0, 1024, 1024, 1024, 1024, 0, 6, 3921, 3929, 3946, 3953, 3964, 3928, 0, 1, 11303, -90.000, 0.000, 58.800, -0.100, 0.000, -2.800, 0.0, , , , , , 95, , , 35, 35, 35
36.0257346, -118.5730127, 17.800, 15:17:23.477, 15, 0.10, 0.14, 97, -1.800, -1.000, 58.200, 1090, 100, 98, 27, 23655, -18865, 5107, 5320, 20, 14, 1530742643.478, 23, 0, 1024, 1024, 1024, 1024, 0, 6, 3921, 3929, 3946, 3953, 3964, 3928, 0, 1, 11403, -90.000, 0.000, 58.800, -0.100, 0.000, -2.800, 0.0, , , , , , 95, , , 35, 35, 35
36.0257345, -118.5730127, 18.100, 15:17:23.577, 15, 0.10, 0.13, 97, -1.800, -1.200, 58.400, 1090, 100, 98, 27, 23655, -18865, 5107, 5320, 20, 14, 1530742643.578, 25, 0, 1024, 1024, 1024, 1024, 0, 6, 3921, 3929, 3946, 3953, 3964, 3928, 0, 1, 11503, -90.000, 0.000, 58.800, -0.100, 0.000, -2.800, 0.0, , , , , , 95, , , 35, 35, 35
36.0257344, -118.5730127, 18.400, 15:17:23.677, 15, 0.10, 0.12, 97, -2.000, -1.400, 58.700, 1090, 100, 98, 27, 23655, -18865, 5107, 5320, 20, 14, 1530742643.678, 28, 0, 1024, 1024, 1024, 1024, 0, 6, 3921, 3929, 3946, 3953, 3964, 3928, 0, 1, 11603, -90.000, 0.000, 58.800, -0.100, 0.000, -2.900, 0.0, , , , , , 95, , , 35, 35, 35
36.0257343, -118.5730126, 18.800, 15:17:23.777, 15, 0.10, 0.11, 97, -2.300, -1.400, 58.900, 1090, 100, 98, 27, 23655, -18865, 5107, 5320, 20, 14, 1530742643.778, 23, 0, 1024, 1024, 1024, 1024, 0, 6, 3921, 3929, 3946, 3953, 3964, 3928, 0, 1, 11703, -89.900, 0.000, 58.800, -0.100, 0.000, -3.000, 0.0, , , , , , 95, , , 35, 35, 35
36.0257342, -118.5730126, 19.100, 15:17:23.877, 15, 0.00, 0.11, 96, -2.400, -1.400, 59.300, 1090, 100, 98, 27, 23655, -18865, 5107, 5320, 20, 14, 1530742643.878, 23, 0, 1024, 1024, 1024, 1024, 0, 6, 3921, 3929, 3946, 3953, 3964, 3928, 0, 1, 11803, -90.000, 0.000, 58.800, 0.000, 0.000, -2.900, 0.0, , , , , , 95, , , 35, 35, 35
36.0257341, -118.5730125, 19.400, 15:17:23.977, 15, 0.10, 0.11, 96, -2.900, -1.300, 59.600, 1090, 100, 98, 27, 23655, -18865, 5107, 5320, 20, 14, 1530742643.978, 18, 0, 1024, 1024, 1024, 1024, 0, 6, 3921, 3929, 3946, 3953, 3964, 3928, 0, 1, 11903, -89.900, 0.000, 58.800, 0.000, 0.100, -2.900, 0.0, , , , , , 95, , , 35, 35, 35
36.0257340, -118.5730124, 19.700, 15:17:24.077, 15, 0.10, 0.11, 96, -3.200, -0.800, 59.800, 1090, 100, 98, 27, 23655, -18865, 5107, 5320, 20, 14, 1530742644.078, 10, 0, 1024, 1024, 1024, 1024, 0, 6, 3921, 3929, 3946, 3953, 3964, 3928, 0, 1, 12003, -89.900, 0.000, 58.800, 0.000, 0.100, -2.700, 0.0, , , , , , 95, , , 35, 35, 35
36.0257340, -118.5730122, 19.900, 15:17:24.177, 15, 0.10, 0.12, 96, -3.000, -0.100, 59.700, 1090, 100, 98, 27, 23655, -18865, 5107, 5320, 20, 14, 1530742644.178, 13, 0, 1024, 1024, 1024, 1024, 0, 6, 3921, 3929, 3946, 3953, 3964, 3928, 0, 1, 12103, -89.900, 0.000, 58.800, 0.000, 0.100, -2.600, 0.0, , , , , , 95, , , 35, 35, 35
36.0257340, -118.5730119, 20.500, 15:17:24.282, 15, 0.10, 0.15, 96, -2.400, 0.800, 58.300, 1090, 100, 98, 27, 23655, -18865, 5107, 5320, 20, 14, 1530742644.282, 2, 0, 1024, 1024, 1024, 1024, 0, 6, 3921, 3929, 3946, 3953, 3964, 3928, 0, 1, 12207, -89.900, 0.000, 58.800, 0.000, 0.100, -2.700, 0.0, , , , , , 95, , , 35, 35, 35
36.0257340, -118.5730119, 20.500, 15:17:24.377, 15, 0.10, 0.15, 96, -2.400, 0.800, 58.300, 1090, 100, 98, 27, 23655, -18865, 5107, 5320, 20, 14, 1530742644.378, 97, 0, 1024, 1024, 1024, 1024, 0, 6, 3921, 3929, 3946, 3953, 3964, 3928, 0, 1, 12303, -89.900, 0.000, 58.800, 0.000, 0.100, -2.700, 0.0, , , , , , 95, , , 35, 35, 35
36.0257340, -118.5730117, 20.700, 15:17:24.477, 15, 0.10, 0.16, 96, -1.600, 1.500, 57.300, 1090, 100, 98, 27, 23640, -18384, 5107, 5320, 20, 14, 1530742644.477, 82, 0, 1024, 1024, 1024, 1024, 0, 6, 3924, 3934, 3942, 3944, 3959, 3939, 0, 1, 12403, -89.900, 0.000, 58.800, 0.000, 0.100, -2.800, 0.0, , , , , , 95, , , 35, 35, 35
36.0257340, -118.5730116, 21.000, 15:17:24.576, 15, 0.10, 0.17, 96, -1.600, 1.700, 56.400, 1090, 100, 99, 27, 23640, -18384, 5107, 5320, 20, 14, 1530742644.577, 82, 0, 1024, 1024, 1024, 1024, 0, 6, 3924, 3934, 3942, 3944, 3959, 3939, 0, 1, 12502, -89.900, 0.000, 58.800, 0.000, 0.100, -2.800, 0.0, , , , , , 95, , , 35, 35, 35
36.0257341, -118.5730114, 21.300, 15:17:24.677, 15, 0.10, 0.19, 96, -2.000, 1.800, 55.700, 1090, 100, 99, 27, 23640, -18384, 5107, 5320, 20, 14, 1530742644.678, 74, 0, 1024, 1024, 1024, 1024, 0, 6, 3924, 3934, 3942, 3944, 3959, 3939, 0, 1, 12603, -89.900, 0.000, 58.800, 0.000, 0.100, -2.800, 0.0, , , , , , 95, , , 35, 35, 35
36.0257341, -118.5730113, 21.600, 15:17:24.777, 15, 0.10, 0.20, 96, -2.100, 1.700, 55.200, 1090, 100, 99, 27, 23640, -18384, 5107, 5320, 20, 14, 1530742644.778, 41, 0, 1024, 1024, 1024, 1024, 0, 6, 3924, 3934, 3942, 3944, 3959, 3939, 0, 1, 12703, -89.900, 0.000, 58.800, 0.000, 0.100, -2.800, 0.0, , , , , , 95, , , 35, 35, 35
36.0257342, -118.5730111, 21.900, 15:17:24.877, 15, 0.00, 0.22, 96, -1.900, 1.900, 55.100, 1090, 100, 99, 27, 23640, -18384, 5107, 5320, 20, 14, 1530742644.878, 56, 0, 1024, 1024, 1024, 1024, 0, 6, 3924, 3934, 3942, 3944, 3959, 3939, 0, 1, 12803, -89.900, 0.000, 58.800, 0.000, 0.000, -2.900, 0.0, , , , , , 95, , , 35, 35, 35
36.0257342, -118.5730110, 22.200, 15:17:24.977, 15, 0.00, 0.23, 96, -2.000, 1.800, 55.500, 1090, 100, 99, 27, 23640, -18384, 5107, 5320, 20, 14, 1530742644.978, 62, 0, 1024, 1024, 1024, 1024, 0, 6, 3924, 3934, 3942, 3944, 3959, 3939, 0, 1, 12903, -89.900, 0.000, 58.800, 0.000, 0.000, -2.900, 0.0, , , , , , 95, , , 35, 35, 35
36.0257342, -118.5730109, 22.500, 15:17:25.077, 15, 0.00, 0.24, 96, -2.000, 1.500, 56.100, 1090, 100, 99, 27, 23640, -18384, 5107, 5320, 20, 14, 1530742645.078, 49, 0, 1024, 1024, 1024, 1024, 0, 6, 3924, 3934, 3942, 3944, 3959, 3939, 0, 1, 13003, -89.900, 0.000, 58.800, 0.000, 0.000, -2.900, 0.0, , , , , , 95, , , 35, 35, 35
36.0257342, -118.5730108, 22.800, 15:17:25.177, 15, 0.00, 0.25, 96, -2.200, 1.300, 56.700, 1090, 100, 99, 27, 23640, -18384, 5107, 5320, 20, 14, 1530742645.178, 56, 0, 1024, 1024, 1024, 1024, 0, 6, 3924, 3934, 3942, 3944, 3959, 3939, 0, 1, 13103, -89.900, 0.000, 58.800, 0.000, 0.000, -2.900, 0.0, , , , , , 95, , , 35, 35, 35
36.0257342, -118.5730107, 23.100, 15:17:25.277, 15, 0.00, 0.26, 96, -2.300, 1.200, 57.300, 1090, 100, 99, 27, 23640, -18384, 5107, 5320, 20, 14, 1530742645.278, 57, 0, 1024, 1024, 1024, 1024, 0, 6, 3924, 3934, 3942, 3944, 3959, 3939, 0, 1, 13203, -89.900, 0.000, 58.800, 0.000, 0.000, -2.900, 0.0, , , , , , 95, , , 35, 35, 35
36.0257342, -118.5730105, 23.400, 15:17:25.377, 15, 0.10, 0.27, 96, -2.700, 1.400, 57.700, 1090, 100, 99, 27, 23538, -19041, 5107, 5320, 20, 14, 1530742645.378, 35, 0, 1024, 1024, 1024, 1024, 0, 6, 3893, 3898, 3924, 3944, 3944, 3902, 0, 1, 13303, -89.900, 0.000, 58.800, 0.000, 0.100, -2.900, 0.0, , , , , , 95, , , 35, 35, 35
36.0257342, -118.5730104, 23.700, 15:17:25.477, 15, 0.10, 0.28, 96, -3.000, 1.800, 58.000, 1090, 100, 99, 27, 23538, -19041, 5107, 5320, 20, 14, 1530742645.478, 30, 0, 1024, 1024, 1024, 1024, 0, 6, 3893, 3898, 3924, 3944, 3944, 3902, 0, 1, 13403, -89.900, 0.000, 58.800, 0.000, 0.100, -2.900, 0.0, , , , , , 95, , , 35, 35, 35
36.0257342, -118.5730103, 24.000, 15:17:25.577, 15, 0.00, 0.29, 96, -3.400, 2.200, 58.200, 1090, 100, 99, 27, 23538, -19041, 5107, 5320, 20, 14, 1530742645.578, 44, 0, 1024, 1024, 1024, 1024, 0, 6, 3893, 3898, 3924, 3944, 3944, 3902, 0, 1, 13503, -89.900, 0.000, 58.800, 0.000, 0.000, -3.000, 0.0, , , , , , 95, , , 35, 35, 35
36.0257341, -118.5730102, 24.300, 15:17:25.677, 15, 0.00, 0.30, 96, -3.700, 2.000, 58.100, 1090, 100, 99, 27, 23538, -19041, 5107, 5320, 20, 14, 1530742645.678, 13, 0, 1024, 1024, 1024, 1024, 0, 6, 3893, 3898, 3924, 3944, 3944, 3902, 0, 1, 13603, -89.900, 0.000, 58.800, 0.000, 0.000, -2.900, 0.0, , , , , , 95, , , 35, 35, 35
36.0257341, -118.5730101, 24.600, 15:17:25.776, 15, 0.00, 0.31, 96, -3.700, 1.700, 58.000, 1090, 100, 99, 27, 23538, -19041, 5107, 5320, 20, 14, 1530742645.777, 15, 0, 1024, 1024, 1024, 1024, 0, 6, 3893, 3898, 3924, 3944, 3944, 3902, 0, 1, 13702, -89.900, 0.000, 58.800, 0.000, 0.000, -2.900, 0.0, , , , , , 95, , , 35, 35, 35
36.0257340, -118.5730100, 24.900, 15:17:25.877, 15, 0.00, 0.31, 96, -3.600, 1.200, 57.900, 1090, 100, 99, 27, 23538, -19041, 5107, 5320, 20, 14, 1530742645.877, 2, 0, 1024, 1024, 1024, 1024, 0, 6, 3893, 3898, 3924, 3944, 3944, 3902, 0, 1, 13802, -89.900, 0.000, 58.800, 0.000, 0.000, -2.900, 0.0, , , , , , 95, , , 35, 35, 35
36.0257339, -118.5730100, 25.200, 15:17:25.977, 15, 0.00, 0.31, 96, -3.600, 1.000, 57.900, 1090, 100, 97, 27, 23538, -19041, 5107, 5320, 20, 14, 1530742645.977, 30, 0, 1024, 1024, 1024, 1024, 0, 6, 3893, 3898, 3924, 3944, 3944, 3902, 0, 1, 13903, -90.000, 0.000, 58.800, 0.000, 0.000, -2.900, 0.0, , , , , , 95, , , 35, 35, 35
36.0257339, -118.5730100, 25.500, 15:17:26.077, 15, 0.00, 0.31, 96, -3.600, 0.800, 57.800, 1090, 100, 97, 27, 23538, -19041, 5107, 5320, 20, 14, 1530742646.078, 9, 0, 1024, 1024, 1024, 1024, 0, 6, 3893, 3898, 3924, 3944, 3944, 3902, 0, 1, 14003, -90.000, 0.000, 58.800, 0.000, 0.000, -2.900, 0.0, , , , , , 95, , , 35, 35, 35
36.0257339, -118.5730100, 25.500, 15:17:26.177, 15, 0.00, 0.31, 96, -3.600, 0.800, 57.800, 1090, 100, 97, 27, 23538, -19041, 5107, 5320, 20, 14, 1530742646.178, 109, 0, 1024, 1024, 1024, 1024, 0, 6, 3893, 3898, 3924, 3944, 3944, 3902, 0, 1, 14103, -90.000, 0.000, 58.800, 0.000, 0.000, -2.900, 0.0, , , , , , 95, , , 35, 35, 35
36.0257339, -118.5730100, 25.900, 15:17:26.277, 15, 0.00, 0.31, 96, -4.500, 0.800, 57.700, 1090, 100, 97, 27, 23538, -19041, 5107, 5320, 20, 14, 1530742646.278, 93, 0, 1024, 1024, 1024, 1024, 0, 6, 3893, 3898, 3924, 3944, 3944, 3902, 0, 1, 14203, -89.900, 0.000, 58.800, 0.000, 0.000, -3.000, 0.0, , , , , , 95, , , 35, 35, 35
36.0257337, -118.5730097, 26.700, 15:17:26.377, 15, 0.10, 0.34, 96, -4.600, 0.300, 57.600, 1090, 100, 97, 28, 23451, -19885, 5107, 5320, 20, 14, 1530742646.378, 7, 0, 1024, 1024, 1024, 1024, 0, 6, 3893, 3898, 3924, 3944, 3944, 3902, 0, 1, 14303, -90.000, 0.000, 58.800, 0.000, 0.100, -2.800, 0.0, , , , , , 95, , , 35, 35, 35
36.0257336, -118.5730095, 27.000, 15:17:26.477, 15, 0.10, 0.35, 96, -5.100, 0.800, 57.600, 1090, 100, 97, 28, 23451, -19885, 5107, 5320, 20, 14, 1530742646.478, 5, 0, 1024, 1024, 1024, 1024, 0, 6, 3893, 3898, 3924, 3944, 3944, 3902, 0, 1, 14403, -90.000, 0.000, 58.800, 0.000, 0.100, -2.900, 0.0, , , , , , 95, , , 35, 35, 35
36.0257336, -118.5730095, 27.000, 15:17:26.577, 15, 0.10, 0.35, 96, -5.100, 0.800, 57.600, 1090, 100, 97, 28, 23451, -19885, 5107, 5320, 20, 14, 1530742646.578, 105, 0, 1024, 1024, 1024, 1024, 0, 6, 3893, 3898, 3924, 3944, 3944, 3902, 0, 1, 14503, -90.000, 0.000, 58.800, 0.000, 0.100, -2.900, 0.0, , , , , , 95, , , 35, 35, 35
36.0257336, -118.5730093, 27.400, 15:17:26.677, 15, 0.10, 0.37, 96, -5.500, 1.800, 57.400, 1090, 100, 97, 28, 23451, -19885, 5107, 5320, 20, 14, 1530742646.678, 98, 0, 1024, 1024, 1024, 1024, 0, 6, 3893, 3898, 3924, 3944, 3944, 3902, 0, 1, 14603, -89.900, 0.000, 58.800, 0.000, 0.100, -3.000, 0.0, , , , , , 95, , , 35, 35, 35
36.0257336, -118.5730093, 27.400, 15:17:26.777, 15, 0.10, 0.37, 96, -5.500, 1.800, 57.400, 1090, 100, 97, 28, 23451, -19885, 5107, 5320, 20, 14, 1530742646.778, 198, 0, 1024, 1024, 1024, 1024, 0, 6, 3893, 3898, 3924, 3944, 3944, 3902, 0, 1, 14703, -89.900, 0.000, 58.800, 0.000, 0.100, -3.000, 0.0, , , , , , 95, , , 35, 35, 35
36.0257334, -118.5730090, 28.000, 15:17:26.877, 15, 0.10, 0.40, 96, -6.900, 3.500, 57.300, 1090, 100, 97, 28, 23451, -19885, 5107, 5320, 20, 14, 1530742646.878, 64, 0, 1024, 1024, 1024, 1024, 0, 6, 3893, 3898, 3924, 3944, 3944, 3902, 0, 1, 14803, -89.900, 0.000, 58.800, 0.000, 0.100, -3.000, 0.0, , , , , , 95, , , 35, 35, 35
36.0257333, -118.5730089, 28.300, 15:17:26.977, 15, 0.00, 0.41, 96, -7.400, 3.000, 57.400, 1090, 100, 97, 28, 23451, -19885, 5107, 5320, 20, 14, 1530742646.977, 80, 0, 1024, 1024, 1024, 1024, 0, 6, 3890, 3893, 3909, 3921, 3935, 3895, 0, 1, 14903, -89.900, 0.000, 58.800, 0.000, 0.000, -2.900, 0.0, , , , , , 95, , , 35, 35, 35
36.0257333, -118.5730088, 28.600, 15:17:27.077, 15, 0.00, 0.41, 96, -7.500, 1.900, 57.600, 1090, 100, 97, 28, 23451, -19885, 5107, 5320, 20, 14, 1530742647.078, 82, 0, 1024, 1024, 1024, 1024, 0, 6, 3890, 3893, 3909, 3921, 3935, 3895, 0, 1, 15003, -90.000, 0.000, 58.800, 0.000, 0.000, -2.700, 0.0, , , , , , 95, , , 35, 35, 35
36.0257333, -118.5730088, 28.800, 15:17:27.177, 15, 0.00, 0.41, 96, -7.000, 1.300, 57.700, 1090, 100, 97, 28, 23451, -19885, 5107, 5320, 20, 14, 1530742647.178, 74, 0, 1024, 1024, 1024, 1024, 0, 6, 3890, 3893, 3909, 3921, 3935, 3895, 0, 1, 15103, -90.000, 0.000, 58.800, 0.000, 0.000, -2.500, 0.0, , , , , , 95, , , 35, 35, 35
36.0257334, -118.5730088, 29.000, 15:17:27.277, 15, 0.00, 0.42, 96, -5.700, 1.600, 57.800, 1090, 100, 97, 28, 23451, -19885, 5107, 5320, 20, 14, 1530742647.278, 66, 0, 1024, 1024, 1024, 1024, 0, 6, 3890, 3893, 3909, 3921, 3935, 3895, 0, 1, 15203, -89.900, 0.000, 58.800, 0.000, 0.000, -2.500, 0.0, , , , , , 95, , , 35, 35, 35
36.0257335, -118.5730088, 29.200, 15:17:27.377, 15, 0.10, 0.41, 96, -4.500, 2.200, 57.900, 1090, 100, 97, 28, 23451, -19885, 5107, 5320, 20, 14, 1530742647.378, 59, 0, 1024, 1024, 1024, 1024, 0, 6, 3890, 3893, 3909, 3921, 3935, 3895, 0, 1, 15303, -89.900, 0.000, 58.800, 0.100, 0.000, -2.500, 0.0, , , , , , 95, , , 35, 35, 35
36.0257337, -118.5730089, 29.400, 15:17:27.477, 15, 0.10, 0.41, 96, -3.600, 2.800, 58.000, 1090, 100, 100, 28, 23451, -19885, 5107, 5320, 20, 14, 1530742647.478, 63, 0, 1024, 1024, 1024, 1024, 0, 6, 3890, 3893, 3909, 3921, 3935, 3895, 0, 1, 15403, -89.900, 0.000, 58.800, 0.100, 0.000, -2.500, 0.0, , , , , , 95, , , 35, 35, 35
36.0257339, -118.5730089, 29.600, 15:17:27.577, 15, 0.10, 0.41, 96, -2.800, 3.000, 58.100, 1090, 100, 100, 28, 23451, -19885, 5107, 5320, 20, 14, 1530742647.578, 40, 0, 1024, 1024, 1024, 1024, 0, 6, 3890, 3893, 3909, 3921, 3935, 3895, 0, 1, 15503, -89.900, 0.000, 58.800, 0.100, 0.000, -2.700, 0.0, , , , , , 95, , , 35, 35, 35
36.0257341, -118.5730091, 29.900, 15:17:27.678, 15, 0.10, 0.40, 96, -2.000, 3.100, 58.200, 1090, 100, 100, 28, 23451, -19885, 5107, 5320, 20, 14, 1530742647.678, 68, 0, 1024, 1024, 1024, 1024, 0, 6, 3890, 3893, 3909, 3921, 3935, 3895, 0, 1, 15603, -89.900, 0.000, 58.800, 0.100, 0.000, -2.900, 0.0, , , , , , 95, , , 35, 35, 35
36.0257343, -118.5730092, 30.200, 15:17:27.777, 15, 0.14, 0.39, 96, -1.400, 2.800, 58.300, 1090, 100, 100, 28, 23451, -19885, 5107, 5320, 20, 14, 1530742647.778, 47, 0, 1024, 1024, 1024, 1024, 0, 6, 3890, 3893, 3909, 3921, 3935, 3895, 0, 1, 15703, -89.900, 0.000, 58.800, 0.100, -0.100, -2.900, 0.0, , , , , , 95, , , 35, 35, 35
36.0257344, -118.5730094, 30.500, 15:17:27.877, 15, 0.10, 0.38, 96, -1.400, 2.500, 58.300, 1090, 100, 100, 28, 23459, -19774, 5107, 5320, 20, 14, 1530742647.878, 31, 0, 1024, 1024, 1024, 1024, 0, 6, 3886, 3901, 3904, 3918, 3929, 3893, 0, 1, 15803, -89.900, 0.000, 58.800, 0.100, 0.000, -3.000, 0.0, , , , , , 95, , , 35, 35, 35
36.0257346, -118.5730095, 30.800, 15:17:27.977, 15, 0.10, 0.37, 96, -1.300, 2.300, 58.300, 1090, 100, 98, 28, 23459, -19774, 5107, 5320, 20, 14, 1530742647.978, 35, 0, 1024, 1024, 1024, 1024, 0, 6, 3886, 3901, 3904, 3918, 3929, 3893, 0, 1, 15903, -89.900, 0.000, 58.800, 0.100, 0.000, -3.000, 0.0, , , , , , 95, , , 35, 35, 35
36.0257347, -118.5730096, 31.000, 15:17:28.077, 15, 0.00, 0.36, 96, -1.200, 2.100, 58.300, 1090, 100, 98, 28, 23459, -19774, 5107, 5320, 20, 14, 1530742648.078, 36, 0, 1024, 1024, 1024, 1024, 0, 6, 3886, 3901, 3904, 3918, 3929, 3893, 0, 1, 16003, -90.000, 0.000, 58.800, 0.000, 0.000, -3.100, 0.0, , , , , , 95, , , 35, 35, 35
36.0257348, -118.5730097, 31.300, 15:17:28.177, 15, 0.00, 0.36, 96, -1.300, 1.700, 58.200, 1090, 100, 98, 28, 23459, -19774, 5107, 5320, 20, 14, 1530742648.177, 25, 0, 1024, 1024, 1024, 1024, 0, 6, 3886, 3901, 3904, 3918, 3929, 3893, 0, 1, 16102, -90.000, 0.000, 58.800, 0.000, 0.000, -3.000, 0.0, , , , , , 95, , , 35, 35, 35
36.0257348, -118.5730098, 31.600, 15:17:28.277, 15, 0.00, 0.35, 96, -1.700, 1.600, 58.000, 1090, 100, 98, 28, 23459, -19774, 5107, 5320, 20, 14, 1530742648.278, 44, 0, 1024, 1024, 1024, 1024, 0, 6, 3886, 3901, 3904, 3918, 3929, 3893, 0, 1, 16203, -90.000, 0.000, 58.800, 0.000, 0.000, -3.000, 0.0, , , , , , 95, , , 35, 35, 35
36.0257348, -118.5730099, 31.900, 15:17:28.377, 15, 0.00, 0.35, 96, -2.200, 1.500, 57.800, 1090, 100, 98, 28, 23459, -19774, 5107, 5320, 20, 14, 1530742648.378, 21, 0, 1024, 1024, 1024, 1024, 0, 6, 3886, 3901, 3904, 3918, 3929, 3893, 0, 1, 16303, -90.000, 0.000, 58.800, 0.000, 0.000, -3.200, 0.0, , , , , , 95, , , 35, 35, 35
36.0257349, -118.5730100, 32.200, 15:17:28.477, 15, 0.00, 0.34, 96, -2.400, 1.500, 57.700, 1090, 100, 98, 28, 23459, -19774, 5107, 5320, 20, 14, 1530742648.478, 13, 0, 1024, 1024, 1024, 1024, 0, 6, 3886, 3901, 3904, 3918, 3929, 3893, 0, 1, 16403, -89.900, 0.000, 58.800, 0.000, 0.000, -3.200, 0.0, , , , , , 95, , , 35, 35, 35
36.0257349, -118.5730101, 32.500, 15:17:28.577, 15, 0.00, 0.34, 96, -2.300, 1.700, 57.600, 1090, 100, 98, 28, 23459, -19774, 5107, 5320, 20, 14, 1530742648.578, 5, 0, 1024, 1024, 1024, 1024, 0, 6, 3886, 3901, 3904, 3918, 3929, 3893, 0, 1, 16503, -89.900, 0.000, 58.800, 0.000, 0.000, -3.300, 0.0, , , , , , 95, , , 35, 35, 35
36.0257349, -118.5730102, 32.800, 15:17:28.677, 15, 0.00, 0.33, 96, -2.100, 1.900, 57.500, 1090, 100, 98, 28, 23459, -19774, 5107, 5320, 20, 14, 1530742648.678, 18, 0, 1024, 1024, 1024, 1024, 0, 6, 3886, 3901, 3904, 3918, 3929, 3893, 0, 1, 16603, -89.900, 0.000, 58.800, 0.000, 0.000, -3.100, 0.0, , , , , , 95, , , 35, 35, 35
36.0257349, -118.5730103, 33.100, 15:17:28.780, 15, 0.00, 0.33, 96, -2.100, 1.900, 57.600, 1090, 100, 98, 28, 23459, -19774, 5107, 5320, 20, 14, 1530742648.780, 1, 0, 1024, 1024, 1024, 1024, 0, 6, 3886, 3901, 3904, 3918, 3929, 3893, 0, 1, 16705, -89.900, 0.000, 58.800, 0.000, 0.000, -3.100, 0.0, , , , , , 95, , , 35, 35, 35
36.0257350, -118.5730104, 33.400, 15:17:28.879, 15, 0.00, 0.32, 96, -2.000, 2.000, 57.800, 1090, 100, 98, 28, 23188, -22441, 5107, 5320, 20, 14, 1530742648.879, 3, 0, 1024, 1024, 1024, 1024, 0, 6, 3886, 3901, 3904, 3918, 3929, 3893, 0, 1, 16805, -90.000, 0.000, 58.800, 0.000, 0.000, -3.200, 0.0, , , , , , 95, , , 35, 35, 35
36.0257350, -118.5730106, 34.100, 15:17:28.978, 15, 0.00, 0.31, 96, -1.700, 1.700, 58.200, 1090, 100, 98, 28, 23188, -22441, 5107, 5320, 20, 14, 1530742648.979, 5, 0, 1024, 1024, 1024, 1024, 0, 6, 3820, 3852, 3857, 3857, 3878, 3857, 0, 1, 16904, -90.000, 0.000, 58.800, 0.000, 0.000, -3.400, 0.0, , , , , , 95, , , 35, 35, 35
36.0257350, -118.5730106, 34.100, 15:17:29.076, 15, 0.00, 0.31, 96, -1.700, 1.700, 58.200, 1090, 100, 98, 28, 23188, -22441, 5107, 5320, 20, 14, 1530742649.077, 103, 0, 1024, 1024, 1024, 1024, 0, 6, 3820, 3852, 3857, 3857, 3878, 3857, 0, 1, 17002, -90.000, 0.000, 58.800, 0.000, 0.000, -3.400, 0.0, , , , , , 95, , , 35, 35, 35
36.0257350, -118.5730106, 34.100, 15:17:29.177, 15, 0.00, 0.31, 96, -1.700, 1.700, 58.200, 1090, 100, 98, 28, 23188, -22441, 5107, 5320, 20, 14, 1530742649.178, 204, 0, 1024, 1024, 1024, 1024, 0, 6, 3820, 3852, 3857, 3857, 3878, 3857, 0, 1, 17103, -90.000, 0.000, 58.800, 0.000, 0.000, -3.400, 0.0, , , , , , 95, , , 35, 35, 35
36.0257350, -118.5730108, 34.800, 15:17:29.277, 15, 0.00, 0.29, 96, -1.600, 1.200, 58.300, 1090, 100, 98, 28, 23188, -22441, 5107, 5320, 20, 14, 1530742649.278, 97, 0, 1024, 1024, 1024, 1024, 0, 6, 3820, 3852, 3857, 3857, 3878, 3857, 0, 1, 17203, -90.000, 0.000, 58.800, 0.000, 0.000, -3.300, 0.0, , , , , , 95, , , 35, 35, 35
36.0257350, -118.5730109, 35.100, 15:17:29.377, 15, 0.00, 0.28, 96, -1.600, 1.300, 58.100, 1090, 100, 98, 28, 23188, -22441, 5107, 5320, 20, 14, 1530742649.378, 98, 0, 1024, 1024, 1024, 1024, 0, 6, 3820, 3852, 3857, 3857, 3878, 3857, 0, 1, 17303, -89.900, 0.000, 58.800, 0.000, 0.000, -3.300, 0.0, , , , , , 95, , , 35, 35, 35
36.0257350, -118.5730109, 35.100, 15:17:29.477, 15, 0.00, 0.28, 96, -1.600, 1.300, 58.100, 1090, 100, 98, 28, 23188, -22441, 5107, 5320, 20, 14, 1530742649.478, 198, 0, 1024, 1024, 1024, 1024, 0, 6, 3820, 3852, 3857, 3857, 3878, 3857, 0, 1, 17403, -89.900, 0.000, 58.800, 0.000, 0.000, -3.300, 0.0, , , , , , 95, , , 35, 35, 35
36.0257350, -118.5730111, 35.800, 15:17:29.577, 15, 0.00, 0.27, 96, -1.500, 1.500, 57.700, 1090, 100, 98, 28, 23188, -22441, 5107, 5320, 20, 14, 1530742649.578, 65, 0, 1024, 1024, 1024, 1024, 0, 6, 3820, 3852, 3857, 3857, 3878, 3857, 0, 1, 17503, -89.900, 0.000, 58.800, 0.000, 0.000, -3.300, 0.0, , , , , , 95, , , 35, 35, 35
36.0257350, -118.5730112, 36.200, 15:17:29.677, 15, 0.00, 0.26, 96, -1.700, 1.400, 57.600, 1090, 100, 98, 28, 23188, -22441, 5107, 5320, 20, 14, 1530742649.678, 67, 0, 1024, 1024, 1024, 1024, 0, 6, 3820, 3852, 3857, 3857, 3878, 3857, 0, 1, 17603, -89.900, 0.000, 58.800, 0.000, 0.000, -3.400, 0.0, , , , , , 95, , , 35, 35, 35
36.0257349, -118.5730113, 36.500, 15:17:29.777, 15, 0.00, 0.25, 96, -1.900, 1.100, 57.600, 1090, 100, 98, 28, 23188, -22441, 5107, 5320, 20, 14, 1530742649.778, 73, 0, 1024, 1024, 1024, 1024, 0, 6, 3820, 3852, 3857, 3857, 3878, 3857, 0, 1, 17703, -90.000, 0.000, 58.800, 0.000, 0.000, -3.300, 0.0, , , , , , 95, , , 35, 35, 35
36.0257349, -118.5730114, 36.900, 15:17:29.877, 15, 0.00, 0.24, 96, -2.200, 0.900, 57.600, 1090, 100, 98, 28, 23133, -22190, 5107, 5320, 20, 14, 1530742649.878, 73, 0, 1024, 1024, 1024, 1024, 0, 6, 3839, 3863, 3859, 3865, 3891, 3852, 0, 1, 17803, -90.000, 0.000, 58.800, 0.000, 0.000, -3.200, 0.0, , , , , , 95, , , 35, 35, 35
36.0257348, -118.5730114, 37.300, 15:17:29.977, 15, 0.00, 0.23, 96, -2.500, 0.800, 57.600, 1090, 100, 98, 28, 23133, -22190, 5107, 5320, 20, 14, 1530742649.978, 32, 0, 1024, 1024, 1024, 1024, 0, 6, 3839, 3863, 3859, 3865, 3891, 3852, 0, 1, 17903, -89.900, 0.000, 58.800, 0.000, 0.000, -3.200, 0.0, , , , , , 95, , , 35, 35, 35
36.0257346, -118.5730115, 37.600, 15:17:30.077, 15, 0.00, 0.22, 96, -3.000, 0.600, 57.700, 1090, 100, 98, 28, 23133, -22190, 5107, 5320, 20, 14, 1530742650.078, 59, 0, 1024, 1024, 1024, 1024, 0, 6, 3839, 3863, 3859, 3865, 3891, 3852, 0, 1, 18003, -90.000, 0.000, 58.800, 0.000, 0.000, -3.200, 0.0, , , , , , 95, , , 35, 35, 35
36.0257345, -118.5730115, 38.000, 15:17:30.177, 15, 0.00, 0.20, 96, -3.000, 0.500, 57.700, 1090, 100, 98, 28, 23133, -22190, 5107, 5320, 20, 14, 1530742650.178, 47, 0, 1024, 1024, 1024, 1024, 0, 6, 3839, 3863, 3859, 3865, 3891, 3852, 0, 1, 18103, -90.000, 0.000, 58.800, 0.000, 0.000, -3.000, 0.0, , , , , , 95, , , 35, 35, 35
36.0257344, -118.5730116, 38.300, 15:17:30.277, 15, 0.00, 0.20, 96, -2.800, 0.400, 57.800, 1090, 100, 98, 28, 23133, -22190, 5107, 5320, 20, 14, 1530742650.278, 50, 0, 1024, 1024, 1024, 1024, 0, 6, 3839, 3863, 3859, 3865, 3891, 3852, 0, 1, 18203, -90.000, 0.000, 58.800, 0.000, 0.000, -3.000, 0.0, , , , , , 95, , , 35, 35, 35
36.0257343, -118.5730116, 38.600, 15:17:30.377, 15, 0.00, 0.19, 96, -2.900, 0.500, 57.900, 1090, 100, 98, 28, 23133, -22190, 5107, 5320, 20, 14, 1530742650.378, 55, 0, 1024, 1024, 1024, 1024, 0, 6, 3839, 3863, 3859, 3865, 3891, 3852, 0, 1, 18303, -90.000, 0.000, 58.800, 0.000, 0.000, -2.900, 0.0, , , , , , 95, , , 35, 35, 35
36.0257342, -118.5730116, 38.900, 15:17:30.477, 15, 0.00, 0.18, 96, -3.300, 0.200, 58.100, 1090, 100, 98, 28, 23133, -22190, 5107, 5320, 20, 14, 1530742650.478, 46, 0, 1024, 1024, 1024, 1024, 0, 6, 3839, 3863, 3859, 3865, 3891, 3852, 0, 1, 18403, -90.000, 0.000, 58.800, 0.000, 0.000, -2.900, 0.0, , , , , , 95, , , 35, 35, 35
36.0257340, -118.5730116, 39.200, 15:17:30.577, 15, 0.10, 0.17, 96, -3.800, -0.100, 58.200, 1090, 100, 98, 28, 23133, -22190, 5107, 5320, 20, 14, 1530742650.578, 38, 0, 1024, 1024, 1024, 1024, 0, 6, 3839, 3863, 3859, 3865, 3891, 3852, 0, 1, 18503, -90.000, 0.000, 58.800, -0.100, 0.000, -2.800, 0.0, , , , , , 95, , , 35, 35, 35
36.0257339, -118.5730116, 39.500, 15:17:30.677, 15, 0.00, 0.16, 96, -4.000, 0.000, 58.200, 1090, 100, 98, 28, 23133, -22190, 5107, 5320, 20, 14, 1530742650.678, 40, 0, 1024, 1024, 1024, 1024, 0, 6, 3839, 3863, 3859, 3865, 3891, 3852, 0, 1, 18603, -89.900, 0.000, 58.800, 0.000, 0.000, -2.800, 0.0, , , , , , 95, , , 35, 35, 35
36.0257338, -118.5730117, 39.800, 15:17:30.777, 15, 0.00, 0.16, 96, -4.000, 0.300, 58.200, 1090, 100, 98, 28, 23133, -22190, 5107, 5320, 20, 14, 1530742650.778, 5, 0, 1024, 1024, 1024, 1024, 0, 6, 3839, 3863, 3859, 3865, 3891, 3852, 0, 1, 18703, -90.000, 0.000, 58.800, 0.000, 0.000, -2.800, 0.0, , , , , , 95, , , 35, 35, 35
36.0257338, -118.5730117, 39.800, 15:17:30.877, 15, 0.00, 0.16, 96, -4.000, 0.300, 58.200, 1090, 100, 98, 28, 23133, -22190, 5107, 5320, 20, 14, 1530742650.878, 105, 0, 1024, 1024, 1024, 1024, 0, 6, 3839, 3863, 3859, 3865, 3891, 3852, 0, 1, 18803, -90.000, 0.000, 58.800, 0.000, 0.000, -2.800, 0.0, , , , , , 95, , , 35, 35, 35
36.0257335, -118.5730117, 40.400, 15:17:30.987, 15, 0.00, 0.15, 96, -3.800, -0.100, 58.000, 1090, 100, 99, 28, 23428, -22190, 5107, 5320, 20, 14, 1530742650.987, 5, 0, 1024, 1024, 1024, 1024, 0, 6, 3839, 3863, 3859, 3865, 3891, 3852, 0, 1, 18913, -90.000, 0.000, 58.800, 0.000, 0.000, -2.800, 0.0, , , , , , 95, , , 35, 35, 35
36.0257335, -118.5730118, 40.700, 15:17:31.077, 15, 0.00, 0.15, 96, -3.800, -0.100, 57.800, 1090, 100, 99, 28, 23428, -22190, 5107, 5320, 20, 14, 1530742651.078, 6, 0, 1024, 1024, 1024, 1024, 0, 6, 3839, 3863, 3859, 3865, 3891, 3852, 0, 1, 19003, -90.000, 0.000, 58.800, 0.000, 0.000, -2.700, 0.0, , , , , , 95, , , 35, 35, 35
36.0257335, -118.5730118, 40.700, 15:17:31.177, 15, 0.00, 0.15, 96, -3.800, -0.100, 57.800, 1090, 100, 99, 28, 23428, -22190, 5107, 5320, 20, 14, 1530742651.178, 106, 0, 1024, 1024, 1024, 1024, 0, 6, 3839, 3863, 3859, 3865, 3891, 3852, 0, 1, 19103, -90.000, 0.000, 58.800, 0.000, 0.000, -2.700, 0.0, , , , , , 95, , , 35, 35, 35
36.0257334, -118.5730118, 41.200, 15:17:31.277, 15, 0.00, 0.15, 96, -4.400, -0.300, 57.700, 1090, 100, 99, 28, 23428, -22190, 5107, 5320, 20, 14, 1530742651.278, 73, 0, 1024, 1024, 1024, 1024, 0, 6, 3839, 3863, 3859, 3865, 3891, 3852, 0, 1, 19203, -90.000, 0.000, 58.800, 0.000, 0.000, -2.600, 0.0, , , , , , 95, , , 35, 35, 35
36.0257334, -118.5730118, 41.500, 15:17:31.377, 15, 0.00, 0.15, 96, -4.000, -0.100, 57.800, 1090, 100, 99, 28, 23428, -22190, 5107, 5320, 20, 14, 1530742651.378, 89, 0, 1024, 1024, 1024, 1024, 0, 6, 3839, 3863, 3859, 3865, 3891, 3852, 0, 1, 19303, -89.900, 0.000, 58.800, 0.000, 0.000, -2.700, 0.0, , , , , , 95, , , 35, 35, 35
36.0257334, -118.5730117, 41.700, 15:17:31.477, 15, 0.00, 0.15, 96, -3.700, 0.300, 57.800, 1090, 100, 99, 28, 23428, -22190, 5107, 5320, 20, 14, 1530742651.478, 80, 0, 1024, 1024, 1024, 1024, 0, 6, 3839, 3863, 3859, 3865, 3891, 3852, 0, 1, 19403, -89.900, 0.000, 58.800, 0.000, 0.000, -2.700, 0.0, , , , , , 95, , , 35, 35, 35
36.0257334, -118.5730117, 42.000, 15:17:31.577, 15, 0.00, 0.15, 96, -3.600, 1.100, 57.800, 1090, 100, 99, 28, 23428, -22190, 5107, 5320, 20, 14, 1530742651.578, 59, 0, 1024, 1024, 1024, 1024, 0, 6, 3839, 3863, 3859, 3865, 3891, 3852, 0, 1, 19503, -89.900, 0.000, 58.800, 0.000, 0.000, -2.700, 0.0, , , , , , 95, , , 35, 35, 35
36.0257334, -118.5730116, 42.300, 15:17:31.677, 15, 0.00, 0.16, 96, -3.700, 1.500, 58.000, 1090, 100, 99, 28, 23428, -22190, 5107, 5320, 20, 14, 1530742651.678, 61, 0, 1024, 1024, 1024, 1024, 0, 6, 3839, 3863, 3859, 3865, 3891, 3852, 0, 1, 19603, -89.900, 0.000, 58.800, 0.000, 0.000, -2.800, 0.0, , , , , , 95, , , 35, 35, 35
36.0257334, -118.5730116, 42.600, 15:17:31.777, 15, 0.00, 0.17, 96, -3.800, 1.500, 58.200, 1090, 100, 99, 28, 23428, -22190, 5107, 5320, 20, 14, 1530742651.778, 64, 0, 1024, 1024, 1024, 1024, 0, 6, 3839, 3863, 3859, 3865, 3891, 3852, 0, 1, 19703, -89.900, 0.000, 58.800, 0.000, 0.000, -2.800, 0.0, , , , , , 95, , , 35, 35, 35
36.0257335, -118.5730115, 42.900, 15:17:31.877, 15, 0.00, 0.17, 96, -3.700, 1.500, 58.400, 1090, 100, 99, 28, 23428, -22190, 5107, 5320, 20, 14, 1530742651.877, 79, 0, 1024, 1024, 1024, 1024, 0, 6, 3839, 3863, 3859, 3865, 3891, 3852, 0, 1, 19803, -89.900, 0.000, 58.800, 0.000, 0.000, -2.800, 0.0, , , , , , 95, , , 35, 35, 35
36.0257335, -118.5730115, 43.200, 15:17:31.977, 15, 0.00, 0.17, 96, -3.400, 1.500, 58.500, 1090, 100, 98, 28, 23369, -18812, 5107, 5320, 20, 14, 1530742651.977, 58, 0, 1024, 1024, 1024, 1024, 0, 6, 3877, 3875, 3891, 3899, 3919, 3876, 0, 1, 19902, -89.900, 0.000, 58.800, 0.000, 0.000, -2.800, 0.0, , , , , , 95, , , 35, 35, 35
36.0257336, -118.5730115, 43.500, 15:17:32.077, 15, 0.00, 0.17, 96, -3.200, 1.400, 58.500, 1090, 100, 98, 28, 23369, -18812, 5107, 5320, 20, 14, 1530742652.078, 59, 0, 1024, 1024, 1024, 1024, 0, 6, 3877, 3875, 3891, 3899, 3919, 3876, 0, 1, 20004, -89.900, 0.000, 58.800, 0.000, 0.000, -2.800, 0.0, , , , , , 95, , , 35, 35, 35
36.0257336, -118.5730116, 43.700, 15:17:32.177, 15, 0.00, 0.17, 96, -3.000, 1.000, 58.500, 1090, 100, 98, 28, 23369, -18812, 5107, 5320, 20, 14, 1530742652.178, 47, 0, 1024, 1024, 1024, 1024, 0, 6, 3877, 3875, 3891, 3899, 3919, 3876, 0, 1, 20103, -90.000, 0.000, 58.800, 0.000, 0.000, -2.700, 0.0, , , , , , 95, , , 35, 35, 35
36.0257337, -118.5730116, 44.000, 15:17:32.277, 15, 0.00, 0.16, 96, -2.700, 0.700, 58.400, 1090, 100, 98, 28, 23369, -18812, 5107, 5320, 20, 14, 1530742652.278, 48, 0, 1024, 1024, 1024, 1024, 0, 6, 3877, 3875, 3891, 3899, 3919, 3876, 0, 1, 20203, -90.000, 0.000, 58.800, 0.000, 0.000, -2.600, 0.0, , , , , , 95, , , 35, 35, 35
36.0257338, -118.5730116, 44.200, 15:17:32.377, 15, 0.10, 0.16, 96, -2.500, 0.500, 58.200, 1090, 100, 98, 28, 23369, -18812, 5107, 5320, 20, 14, 1530742652.378, 49, 0, 1024, 1024, 1024, 1024, 0, 6, 3877, 3875, 3891, 3899, 3919, 3876, 0, 1, 20303, -90.000, 0.000, 58.800, 0.100, 0.000, -2.600, 0.0, , , , , , 95, , , 35, 35, 35
36.0257339, -118.5730116, 44.500, 15:17:32.477, 15, 0.10, 0.17, 96, -2.100, 0.600, 58.000, 1090, 100, 98, 28, 23369, -18812, 5107, 5320, 20, 14, 1530742652.478, 17, 0, 1024, 1024, 1024, 1024, 0, 6, 3877, 3875, 3891, 3899, 3919, 3876, 0, 1, 20403, -89.900, 0.000, 58.800, 0.100, 0.000, -2.700, 0.0, , , , , , 95, , , 35, 35, 35
36.0257341, -118.5730116, 44.700, 15:17:32.577, 15, 0.10, 0.17, 96, -2.000, 0.800, 57.800, 1090, 100, 98, 28, 23369, -18812, 5107, 5320, 20, 14, 1530742652.578, 34, 0, 1024, 1024, 1024, 1024, 0, 6, 3877, 3875, 3891, 3899, 3919, 3876, 0, 1, 20503, -89.900, 0.000, 58.800, 0.100, 0.000, -2.800, 0.0, , , , , , 95, , , 35, 35, 35
36.0257342, -118.5730116, 45.000, 15:17:32.677, 15, 0.10, 0.18, 96, -1.800, 1.200, 57.700, 1090, 100, 98, 28, 23369, -18812, 5107, 5320, 20, 14, 1530742652.678, 38, 0, 1024, 1024, 1024, 1024, 0, 6, 3877, 3875, 3891, 3899, 3919, 3876, 0, 1, 20603, -89.900, 0.000, 58.800, 0.100, 0.000, -3.000, 0.0, , , , , , 95, , , 35, 35, 35
36.0257343, -118.5730116, 45.400, 15:17:32.777, 15, 0.10, 0.18, 96, -1.800, 1.200, 57.700, 1090, 100, 98, 28, 23369, -18812, 5107, 5320, 20, 14, 1530742652.778, 31, 0, 1024, 1024, 1024, 1024, 0, 6, 3877, 3875, 3891, 3899, 3919, 3876, 0, 1, 20703, -89.900, 0.000, 58.800, 0.100, 0.000, -3.000, 0.0, , , , , , 95, , , 35, 35, 35
36.0257345, -118.5730116, 45.700, 15:17:32.877, 15, 0.10, 0.19, 96, -1.700, 1.300, 57.600, 1090, 100, 98, 28, 23140, -21927, 5107, 5320, 20, 14, 1530742652.878, 34, 0, 1024, 1024, 1024, 1024, 0, 6, 3877, 3875, 3891, 3899, 3919, 3876, 0, 1, 20803, -89.900, 0.000, 58.800, 0.100, 0.000, -3.100, 0.0, , , , , , 95, , , 35, 35, 35
36.0257346, -118.5730116, 46.000, 15:17:32.977, 15, 0.00, 0.20, 96, -1.600, 1.500, 57.600, 1090, 100, 98, 28, 23140, -21927, 5107, 5320, 20, 14, 1530742652.978, 29, 0, 1024, 1024, 1024, 1024, 0, 6, 3877, 3875, 3891, 3899, 3919, 3876, 0, 1, 20903, -89.900, 0.000, 58.800, 0.000, 0.000, -3.100, 0.0, , , , , , 95, , , 35, 35, 35
