latitude,longitude,altitude(feet),ascent(feet),speed(mph),distance(feet),time(millisecond),datetime(utc),satellites,gpslevel,voltage(v),max_altitude(feet),max_ascent(feet),max_speed(mph),max_distance(feet), xSpeed(mph), ySpeed(mph), zSpeed(mph), compass_heading(degrees), pitch(degrees), roll(degrees),isPhoto,isVideo,rc_elevator,rc_aileron,rc_throttle,rc_rudder,gimbal_heading(degrees),gimbal_pitch(degrees),battery_percent,voltageCell1,voltageCell2,voltageCell3,voltageCell4,voltageCell5,voltageCell6,current(A),battery_temperature(f),flycStateRaw,flycState,message
36.025734,-118.5730128,6540.29807051,0,0.3131716,0,3020,2018-07-04 22:17:15,10,0,25.482,6540.29807051,0,0.3131716,0,0,0,0,57.8, 0.9, -0.2,1,0,1024,1024,1024,1024,58.8,-89.9,97,4.253,4.238,4.238,4.248,4.254,4.273,4.461,80.6,11,AutoTakeoff,DJI_0089.jpg Starting Mission from Lat/Long: 36.02573/-118.57301 Camera: Zenmuse X3 - Overlap: 90/90 - Active Connection: No
36.025734,-118.5730128,6540.29807051,0,0.3131716,0,3100,2018-07-04 22:17:15,10,0,25.482,6540.29807051,0,0.3131716,0,0,0,0,57.8, 0.9, -0.2,0,0,1024,1024,1024,1024,58.8,-89.9,97,4.253,4.238,4.238,4.248,4.254,4.273,4.461,80.6,11,AutoTakeoff,
36.0257341,-118.5730127,6540.29807051,0,0.3131716,0.046923557932,3200,2018-07-04 22:17:15,10,0,25.482,6540.29807051,0,0.3131716,0.046923557932,0,0,0,57.8, 1.5, -0.1,0,0,1024,1024,1024,1024,58.8,-89.9,97,4.253,4.238,4.238,4.248,4.254,4.273,4.461,80.6,11,AutoTakeoff,
36.0257342,-118.5730125,6540.29807051,0,0.223694,0.114720148028,3300,2018-07-04 22:17:15,10,0,25.482,6540.29807051,0,0.3131716,0.114720148028,0,0,0,57.9, 1.5, 0.1,0,0,1024,1024,1024,1024,58.8,-89.9,97,4.253,4.238,4.238,4.248,4.254,4.273,4.461,80.6,11,AutoTakeoff,
36.0257343,-118.5730125,6540.29807051,0,0.223694,0.14077100188,3400,2018-07-04 22:17:15,10,0,25.482,6540.29807051,0,0.3131716,0.14077100188,0,0,0,57.9, 1.2, 0.3,0,0,1024,1024,1024,1024,58.8,-89.9,97,4.253,4.238,4.238,4.248,4.254,4.273,4.461,80.6,11,AutoTakeoff,
36.0257344,-118.5730124,6540.29807051,0,0.223694,0.187694887896,3500,2018-07-04 22:17:16,10,0,25.482,6540.29807051,0,0.3131716,0.187694887896,0,0,0,57.9, 0.8, 0.4,0,0,1024,1024,1024,1024,58.8,-90,97,4.253,4.238,4.238,4.248,4.254,4.273,4.461,80.6,11,AutoTakeoff,
36.0257346,-118.5730123,6540.62615451,0.328084,0.223694,0.263985572752,3600,2018-07-04 22:17:16,10,0,25.482,6540.62615451,0.328084,0.3131716,0.263985572752,0,0,0,58, 0.4, 0.4,0,0,1024,1024,1024,1024,58.8,-90,97,4.253,4.238,4.238,4.248,4.254,4.273,4.461,80.6,11,AutoTakeoff,
36.0257347,-118.5730122,6540.62615451,0.328084,0.223694,0.310758540128,3700,2018-07-04 22:17:16,10,0,25.482,6540.62615451,0.328084,0.3131716,0.310758540128,0,0,0,58, 0.3, 0.6,0,0,1024,1024,1024,1024,58.8,-89.9,97,4.253,4.238,4.238,4.248,4.254,4.273,4.461,80.6,11,AutoTakeoff,
36.0257348,-118.5730121,6540.95423851,0.656168,0.223694,0.35757218992,3800,2018-07-04 22:17:16,10,0,25.482,6540.95423851,0.656168,0.3131716,0.35757218992,0,0,0,58, 0.4, 0.8,0,0,1024,1024,1024,1024,58.8,-89.9,97,4.253,4.238,4.238,4.248,4.254,4.273,4.461,80.6,11,AutoTakeoff,
36.0257349,-118.573012,6540.95423851,0.656168,0.223694,0.40440946176,3900,2018-07-04 22:17:16,10,0,25.482,6540.95423851,0.656168,0.3131716,0.40440946176,0,0,0,58, 0.6, 0.9,0,0,1024,1024,1024,1024,58.8,-89.9,97,4.253,4.238,4.238,4.248,4.254,4.273,4.461,80.6,11,AutoTakeoff,
36.025735,-118.573012,6541.28232251,0.984252,0.223694,0.43455710052,4000,2018-07-04 22:17:16,10,0,25.37,6541.28232251,0.984252,0.3131716,0.43455710052,0,0,0,58.1, 0.7, 1,0,0,1024,1024,1024,1024,58.8,-89.9,97,4.187,4.18,4.157,4.202,4.213,4.168,4.253,80.6,11,AutoTakeoff,
36.0257352,-118.5730119,6541.61040651,1.312336,0.223694,0.51206694552,4100,2018-07-04 22:17:16,10,0,25.37,6541.61040651,1.312336,0.3131716,0.51206694552,0,0,0,58.2, 0.7, 1.1,0,0,1024,1024,1024,1024,58.8,-89.9,97,4.187,4.18,4.157,4.202,4.213,4.168,4.253,80.6,11,AutoTakeoff,
36.0257352,-118.5730119,6541.61040651,1.312336,0,0.51206694552,4200,2018-07-04 22:17:16,10,0,25.37,6541.61040651,1.312336,0.3131716,0.51206694552,0,0,-0.223694,58.3, 0.8, 1.2,0,0,1024,1024,1024,1024,58.8,-89.9,97,4.187,4.18,4.157,4.202,4.213,4.168,4.253,80.6,11,AutoTakeoff,
36.0257352,-118.5730119,6541.93849051,1.64042,0,0.51206694552,4300,2018-07-04 22:17:16,10,0,25.37,6541.93849051,1.64042,0.3131716,0.51206694552,0,0,0,58.3, 0.9, 1.3,0,0,1024,1024,1024,1024,58.8,-89.9,97,4.187,4.18,4.157,4.202,4.213,4.168,4.253,80.6,11,AutoTakeoff,
36.0257353,-118.5730119,6541.93849051,1.64042,0,0.54358925624,4400,2018-07-04 22:17:16,11,0,25.37,6541.93849051,1.64042,0.3131716,0.54358925624,0,0,0,58.3, 0.8, 1.3,0,0,1024,1024,1024,1024,58.8,-89.9,97,4.187,4.18,4.157,4.202,4.213,4.168,4.253,80.6,11,AutoTakeoff,
36.0257353,-118.5730118,6542.26657451,1.968504,0,0.55859909924,4500,2018-07-04 22:17:17,11,0,25.37,6542.26657451,1.968504,0.3131716,0.55859909924,0,0,0,58.3, 0.7, 1.3,0,0,1024,1024,1024,1024,58.8,-89.9,97,4.187,4.18,4.157,4.202,4.213,4.168,4.253,80.6,11,AutoTakeoff,
36.0257353,-118.5730118,6542.26657451,1.968504,0,0.55859909924,4600,2018-07-04 22:17:17,11,0,25.37,6542.26657451,1.968504,0.3131716,0.55859909924,0,0,0,58.2, 0.8, 1.2,0,0,1024,1024,1024,1024,58.8,-89.9,97,4.187,4.18,4.157,4.202,4.213,4.168,4.253,80.6,11,AutoTakeoff,
36.0257354,-118.5730118,6542.59465851,2.296588,0,0.58989175116,4700,2018-07-04 22:17:17,11,0,25.37,6542.59465851,2.296588,0.3131716,0.58989175116,0,0,-0.223694,58.1, 0.9, 1.2,0,0,1024,1024,1024,1024,58.8,-89.9,97,4.187,4.18,4.157,4.202,4.213,4.168,4.253,80.6,11,AutoTakeoff,
36.0257354,-118.5730118,6542.59465851,2.296588,0,0.58989175116,4800,2018-07-04 22:17:17,11,0,25.37,6542.59465851,2.296588,0.3131716,0.58989175116,0,0,-0.223694,58.1, 1, 1.2,0,0,1024,1024,1024,1024,58.8,-89.9,97,4.187,4.18,4.157,4.202,4.213,4.168,4.253,80.6,11,AutoTakeoff,
36.0257354,-118.5730118,6542.92274251,2.624672,0,0.58989175116,4900,2018-07-04 22:17:17,11,0,25.37,6542.92274251,2.624672,0.3131716,0.58989175116,0,0,-0.223694,58.1, 1.1, 1.1,0,0,1024,1024,1024,1024,58.8,-89.9,97,4.187,4.18,4.157,4.202,4.213,4.168,4.253,80.6,11,AutoTakeoff,
36.0257354,-118.5730118,6543.25082651,2.952756,0,0.58989175116,5000,2018-07-04 22:17:17,11,0,24.334,6543.25082651,2.952756,0.3131716,0.58989175116,0,0,-0.223694,58, 1.1, 0.9,0,0,1024,1024,1024,1024,58.8,-89.9,97,4.02,4.021,4.061,4.062,4.076,4.023,14.794,80.6,6,P-GPS,
36.0257353,-118.5730119,6543.25082651,2.952756,0,0.54358925624,5100,2018-07-04 22:17:17,11,0,24.334,6543.25082651,2.952756,0.3131716,0.58989175116,0,0,0,58, 0.8, 0.9,0,0,1024,1024,1024,1024,58.8,-90,97,4.02,4.021,4.061,4.062,4.076,4.023,14.794,80.6,14,Waypoint,
36.0257353,-118.573012,6543.57891051,3.28084,0,0.52979988572,5200,2018-07-04 22:17:17,10,0,24.334,6543.57891051,3.28084,0.3131716,0.58989175116,0,0,0,57.8, 0, 0.6,0,0,1024,1024,1024,1024,58.8,-90,97,4.02,4.021,4.061,4.062,4.076,4.023,14.794,80.6,14,Waypoint,
36.0257352,-118.5730122,6543.90699451,3.608924,0,0.4722605138,5300,2018-07-04 22:17:17,10,0,24.334,6543.90699451,3.608924,0.3131716,0.58989175116,0,0,0,57.6, -1, 0.4,0,0,1024,1024,1024,1024,58.8,-90,97,4.02,4.021,4.061,4.062,4.076,4.023,14.794,80.6,14,Waypoint,
36.0257353,-118.5730124,6543.90699451,3.608924,0,0.48876970068,5600,2018-07-04 22:17:18,10,0,24.334,6543.90699451,3.608924,0.3131716,0.58989175116,0,0,-0.223694,57.5, -0.7, 0.9,0,0,1024,1024,1024,1024,58.8,-89.9,97,4.02,4.021,4.061,4.062,4.076,4.023,14.794,80.6,14,Waypoint,
36.0257353,-118.5730124,6544.23507851,3.937008,0,0.48876970068,5700,2018-07-04 22:17:18,10,0,24.334,6544.23507851,3.937008,0.3131716,0.58989175116,0,0,-0.223694,57.5, -0.3, 1,0,0,1024,1024,1024,1024,58.8,-89.9,97,4.02,4.021,4.061,4.062,4.076,4.023,14.794,80.6,14,Waypoint,
36.0257353,-118.5730125,6544.56316251,4.265092,0,0.48249345376,5800,2018-07-04 22:17:18,10,0,24.334,6544.56316251,4.265092,0.3131716,0.58989175116,0,0,-0.223694,57.4, -0.1, 1,0,0,1024,1024,1024,1024,58.8,-89.9,97,4.02,4.021,4.061,4.062,4.076,4.023,14.794,80.6,14,Waypoint,
36.0257354,-118.5730125,6544.89124651,4.593176,0,0.51840224756,5900,2018-07-04 22:17:18,10,0,24.334,6544.89124651,4.593176,0.3131716,0.58989175116,0,0,-0.223694,57.3, 0, 1,0,0,1024,1024,1024,1024,58.8,-89.9,97,4.02,4.021,4.061,4.062,4.076,4.023,14.794,80.6,14,Waypoint,
36.0257354,-118.5730125,6545.21933051,4.92126,0,0.51840224756,6000,2018-07-04 22:17:18,10,0,24.036,6545.21933051,4.92126,0.3131716,0.58989175116,0,0,-0.223694,57.2, 0, 1,0,0,1024,1024,1024,1024,58.8,-89.9,97,3.984,3.988,4.012,4.007,4.035,3.989,17.098,80.6,14,Waypoint,
36.0257354,-118.5730126,6545.87549851,5.577428,0,0.51418636816,6100,2018-07-04 22:17:18,10,0,24.036,6545.87549851,5.577428,0.3131716,0.58989175116,0,0,-0.223694,57.1, 0.1, 1,0,0,1024,1024,1024,1024,58.8,-89.9,97,3.984,3.988,4.012,4.007,4.035,3.989,17.098,80.6,14,Waypoint,
36.0257354,-118.5730126,6546.20358251,5.905512,0,0.51418636816,6200,2018-07-04 22:17:18,10,0,24.036,6546.20358251,5.905512,0.3131716,0.58989175116,0,0,-0.447388,57.1, 0.2, 0.7,0,0,1024,1024,1024,1024,58.8,-89.9,97,3.984,3.988,4.012,4.007,4.035,3.989,17.098,80.6,14,Waypoint,
36.0257355,-118.5730126,6546.85975051,6.56168,0,0.55044621184,6300,2018-07-04 22:17:18,10,0,24.036,6546.85975051,6.56168,0.3131716,0.58989175116,0,0,-0.447388,57.2, 0.1, 0.4,0,0,1024,1024,1024,1024,58.8,-89.9,97,3.984,3.988,4.012,4.007,4.035,3.989,17.098,80.6,14,Waypoint,
36.0257354,-118.5730126,6547.51591851,7.217848,0,0.51418636816,6400,2018-07-04 22:17:18,10,0,24.036,6547.51591851,7.217848,0.3131716,0.58989175116,0,0,-0.447388,57.4, 0, 0.6,0,0,1024,1024,1024,1024,58.8,-89.9,97,3.984,3.988,4.012,4.007,4.035,3.989,17.098,80.6,14,Waypoint,
36.0257354,-118.5730126,6548.17208651,7.874016,0,0.51418636816,6500,2018-07-04 22:17:19,10,0,24.036,6548.17208651,7.874016,0.3131716,0.58989175116,0,0,-0.447388,57.5, -0.1, 0.8,0,0,1024,1024,1024,1024,58.8,-90,97,3.984,3.988,4.012,4.007,4.035,3.989,17.098,80.6,14,Waypoint,
36.0257354,-118.5730126,6549.15633851,8.858268,0,0.51418636816,6600,2018-07-04 22:17:19,11,0,24.036,6549.15633851,8.858268,0.3131716,0.58989175116,0,0,-0.447388,57.7, -0.1, 0.9,0,0,1024,1024,1024,1024,58.8,-90,97,3.984,3.988,4.012,4.007,4.035,3.989,17.098,80.6,14,Waypoint,
36.0257353,-118.5730126,6550.14059051,9.84252,0,0.47796261372,6700,2018-07-04 22:17:19,11,0,24.036,6550.14059051,9.84252,0.3131716,0.58989175116,0,0,-0.671082,57.9, -0.1, 0.5,0,0,1024,1024,1024,1024,58.8,-89.9,97,3.984,3.988,4.012,4.007,4.035,3.989,17.098,80.6,14,Waypoint,
36.0257353,-118.5730126,6550.79675851,10.498688,0,0.47796261372,6800,2018-07-04 22:17:19,10,0,24.036,6550.79675851,10.498688,0.3131716,0.58989175116,0,0,-0.671082,58.1, 0, 0.3,0,0,1024,1024,1024,1024,58.8,-89.9,97,3.984,3.988,4.012,4.007,4.035,3.989,17.098,80.6,14,Waypoint,
36.0257354,-118.5730126,6551.78101051,11.48294,0,0.51418636816,6900,2018-07-04 22:17:19,10,0,24.036,6551.78101051,11.48294,0.3131716,0.58989175116,0,0,-0.671082,58.3, 0.3, 0.3,0,0,1024,1024,1024,1024,58.8,-89.9,97,3.984,3.988,4.012,4.007,4.035,3.989,17.098,80.6,14,Waypoint,
36.0257353,-118.5730125,6553.09334651,12.795276,0,0.48249345376,7000,2018-07-04 22:17:19,11,0,24.029,6553.09334651,12.795276,0.3131716,0.58989175116,0,0,-0.671082,58.4, 0.4, 0.6,0,0,1024,1024,1024,1024,58.8,-89.9,97,3.945,3.967,3.964,3.986,4.013,3.955,17.075,80.6,14,Waypoint,
36.0257353,-118.5730124,6554.07759851,13.779528,0,0.48876970068,7100,2018-07-04 22:17:19,11,0,24.029,6554.07759851,13.779528,0.3131716,0.58989175116,0,0,-0.671082,58.4, 0.5, 0.5,0,0,1024,1024,1024,1024,58.8,-89.9,97,3.945,3.967,3.964,3.986,4.013,3.955,17.075,80.6,14,Waypoint,
36.0257352,-118.5730124,6555.06185051,14.76378,0,0.45344817724,7200,2018-07-04 22:17:19,11,0,24.029,6555.06185051,14.76378,0.3131716,0.58989175116,0,0,-0.671082,58.4, 0.6, 0.3,0,0,1024,1024,1024,1024,58.8,-89.9,97,3.945,3.967,3.964,3.986,4.013,3.955,17.075,80.6,14,Waypoint,
36.0257352,-118.5730124,6556.04610251,15.748032,0,0.45344817724,7300,2018-07-04 22:17:19,11,0,24.029,6556.04610251,15.748032,0.3131716,0.58989175116,0,0,-0.671082,58.4, 0.4, 0.1,0,0,1024,1024,1024,1024,58.8,-89.9,97,3.945,3.967,3.964,3.986,4.013,3.955,17.075,80.6,14,Waypoint,
36.0257351,-118.5730123,6557.35843851,17.060368,0,0.42759515804,7400,2018-07-04 22:17:19,11,0,24.029,6557.35843851,17.060368,0.3131716,0.58989175116,0,0,-0.671082,58.2, 0.3, 0,0,0,1024,1024,1024,1024,58.8,-89.9,97,3.945,3.967,3.964,3.986,4.013,3.955,17.075,80.6,14,Waypoint,
36.0257351,-118.5730123,6558.34269051,18.04462,0,0.42759515804,7600,2018-07-04 22:17:20,11,0,24.029,6558.34269051,18.04462,0.3131716,0.58989175116,0,0,-0.671082,58.1, 0.2, 0,0,0,1024,1024,1024,1024,58.8,-89.9,97,3.945,3.967,3.964,3.986,4.013,3.955,17.075,80.6,14,Waypoint,
36.0257351,-118.5730122,6559.65502651,19.356956,0,0.43865158884,7700,2018-07-04 22:17:20,12,0,24.029,6559.65502651,19.356956,0.3131716,0.58989175116,0,0,-0.671082,57.9, 0.2, 0,0,0,1024,1024,1024,1024,58.8,-89.9,97,3.945,3.967,3.964,3.986,4.013,3.955,17.075,80.6,14,Waypoint,
36.025735,-118.5730122,6561.95161451,21.653544,0,0.40553478988,7800,2018-07-04 22:17:20,12,0,24.029,6561.95161451,21.653544,0.3131716,0.58989175116,0,0,-0.671082,57.7, 0.3, 0,0,0,1024,1024,1024,1024,58.8,-89.9,97,3.945,3.967,3.964,3.986,4.013,3.955,17.075,80.6,14,Waypoint,
36.0257349,-118.5730123,6562.93586651,22.637796,0,0.35998688816,7900,2018-07-04 22:17:20,12,0,24.029,6562.93586651,22.637796,0.3131716,0.58989175116,0,0,-0.671082,57.7, 0.2, 0,0,0,1024,1024,1024,1024,58.8,-89.9,97,3.945,3.967,3.964,3.986,4.013,3.955,17.075,80.6,14,Waypoint,
36.0257349,-118.5730124,6563.92011851,23.622048,0,0.3489337382,8000,2018-07-04 22:17:20,12,0,23.248,6563.92011851,23.622048,0.3131716,0.58989175116,0,0,-0.671082,57.8, 0.2, 0.3,0,0,1024,1024,1024,1024,58.8,-89.9,97,3.85,3.879,3.896,3.89,3.914,3.877,24.886,80.6,14,Waypoint,
36.0257349,-118.5730124,6565.23245451,24.934384,0,0.3489337382,8100,2018-07-04 22:17:20,12,0,23.248,6565.23245451,24.934384,0.3131716,0.58989175116,0,0,-0.671082,57.9, 0.2, 0.5,0,0,1024,1024,1024,1024,58.8,-89.9,97,3.85,3.879,3.896,3.89,3.914,3.877,24.886,80.6,14,Waypoint,
36.0257349,-118.5730123,6566.21670651,25.918636,0,0.35998688816,8200,2018-07-04 22:17:20,12,0,23.248,6566.21670651,25.918636,0.3131716,0.58989175116,0,0,-0.671082,58, 0.4, 0.6,0,0,1024,1024,1024,1024,58.8,-89.9,97,3.85,3.879,3.896,3.89,3.914,3.877,24.886,80.6,14,Waypoint,
36.025735,-118.5730123,6567.20095851,26.902888,0,0.39354988136,8300,2018-07-04 22:17:20,12,0,23.248,6567.20095851,26.902888,0.3131716,0.58989175116,0,0,-0.671082,58.2, 0.6, 0.6,0,0,1024,1024,1024,1024,58.8,-89.9,97,3.85,3.879,3.896,3.89,3.914,3.877,24.886,80.6,14,Waypoint,
36.025735,-118.5730123,6568.51329451,28.215224,0,0.39354988136,8400,2018-07-04 22:17:20,12,0,23.248,6568.51329451,28.215224,0.3131716,0.58989175116,0,0,-0.671082,58.3, 0.9, 0.6,0,0,1024,1024,1024,1024,58.8,-89.9,97,3.85,3.879,3.896,3.89,3.914,3.877,24.886,80.6,14,Waypoint,
36.025735,-118.5730123,6569.49754651,29.199476,0,0.39354988136,8500,2018-07-04 22:17:21,12,0,23.248,6569.49754651,29.199476,0.3131716,0.58989175116,0,0,-0.671082,58.3, 1.1, 0.4,0,0,1024,1024,1024,1024,58.8,-89.9,97,3.85,3.879,3.896,3.89,3.914,3.877,24.886,80.6,14,Waypoint,
36.0257351,-118.5730124,6570.48179851,30.183728,0,0.41833006588,8600,2018-07-04 22:17:21,12,0,23.248,6570.48179851,30.183728,0.3131716,0.58989175116,0,0,-0.671082,58.2, 0.9, 0.3,0,0,1024,1024,1024,1024,58.8,-89.9,97,3.85,3.879,3.896,3.89,3.914,3.877,24.886,80.6,14,Waypoint,
36.0257352,-118.5730124,6571.79413451,31.496064,0,0.45344817724,8700,2018-07-04 22:17:21,12,0,23.248,6571.79413451,31.496064,0.3131716,0.58989175116,0,0,-0.671082,58.2, 0.7, 0.7,0,0,1024,1024,1024,1024,58.8,-90,97,3.85,3.879,3.896,3.89,3.914,3.877,24.886,80.6,14,Waypoint,
36.0257353,-118.5730124,6572.77838651,32.480316,0,0.48876970068,8800,2018-07-04 22:17:21,13,0,23.248,6572.77838651,32.480316,0.3131716,0.58989175116,0,0,-0.671082,58.1, 0.6, 1.1,0,0,1024,1024,1024,1024,58.8,-89.9,97,3.85,3.879,3.896,3.89,3.914,3.877,24.886,80.6,14,Waypoint,
36.0257353,-118.5730125,6573.76263851,33.464568,0,0.48249345376,8900,2018-07-04 22:17:21,13,0,23.248,6573.76263851,33.464568,0.3131716,0.58989175116,0,0,-0.671082,58.1, 0.7, 1.2,0,0,1024,1024,1024,1024,58.8,-89.9,97,3.85,3.879,3.896,3.89,3.914,3.877,24.886,80.6,14,Waypoint,
36.0257354,-118.5730125,6575.07497451,34.776904,0,0.51840224756,9000,2018-07-04 22:17:21,13,0,23.608,6575.07497451,34.776904,0.3131716,0.58989175116,0,0,-0.671082,58, 0.6, 1.2,0,0,1024,1024,1024,1024,58.8,-89.9,97,3.85,3.879,3.896,3.89,3.914,3.877,19.753,80.6,14,Waypoint,
36.0257355,-118.5730126,6576.05922651,35.761156,0,0.55044621184,9100,2018-07-04 22:17:21,13,0,23.608,6576.05922651,35.761156,0.3131716,0.58989175116,0,0,-0.671082,57.9, 0.6, 1.1,0,0,1024,1024,1024,1024,58.8,-90,97,3.85,3.879,3.896,3.89,3.914,3.877,19.753,80.6,14,Waypoint,
36.0257356,-118.5730126,6577.04347851,36.745408,0,0.58673558308,9200,2018-07-04 22:17:21,13,0,23.608,6577.04347851,36.745408,0.3131716,0.58989175116,0,0,-0.671082,57.9, 0.5, 1.1,0,0,1024,1024,1024,1024,58.8,-89.9,97,3.85,3.879,3.896,3.89,3.914,3.877,19.753,80.6,14,Waypoint,
36.0257356,-118.5730127,6578.02773051,37.72966,0,0.58450461188,9300,2018-07-04 22:17:21,13,0,23.608,6578.02773051,37.72966,0.3131716,0.58989175116,0,0,-0.671082,57.9, 0.6, 1.2,0,0,1024,1024,1024,1024,58.8,-89.9,97,3.85,3.879,3.896,3.89,3.914,3.877,19.753,80.6,14,Waypoint,
36.0257357,-118.5730127,6579.01198251,38.713912,0,0.62094490176,9400,2018-07-04 22:17:21,14,0,23.608,6579.01198251,38.713912,0.3131716,0.62094490176,0,0,-0.671082,57.9, 0.6, 1.3,0,0,1024,1024,1024,1024,58.8,-90,97,3.85,3.879,3.896,3.89,3.914,3.877,19.753,80.6,14,Waypoint,
36.0257358,-118.5730128,6579.99623451,39.698164,0,0.65672902364,9500,2018-07-04 22:17:22,14,0,23.608,6579.99623451,39.698164,0.3131716,0.65672902364,0,0,-0.671082,57.9, 0.7, 1.6,0,0,1024,1024,1024,1024,58.8,-89.9,97,3.85,3.879,3.896,3.89,3.914,3.877,19.753,80.6,14,Waypoint,
36.0257358,-118.5730128,6580.98048651,40.682416,0,0.65672902364,9600,2018-07-04 22:17:22,14,0,23.608,6580.98048651,40.682416,0.3131716,0.65672902364,0,0,-0.671082,57.9, 0.9, 1.6,0,0,1024,1024,1024,1024,58.8,-89.9,97,3.85,3.879,3.896,3.89,3.914,3.877,19.753,80.6,14,Waypoint,
36.0257359,-118.5730128,6581.96473851,41.666668,0,0.69321524528,9700,2018-07-04 22:17:22,14,0,23.608,6581.96473851,41.666668,0.3131716,0.69321524528,0,0,-0.671082,57.9, 1.1, 1.4,0,0,1024,1024,1024,1024,58.8,-89.9,97,3.85,3.879,3.896,3.89,3.914,3.877,19.753,80.6,14,Waypoint,
36.0257359,-118.5730127,6583.93324251,43.635172,0,0.69384188572,9900,2018-07-04 22:17:22,14,0,23.608,6583.93324251,43.635172,0.3131716,0.69384188572,0,0,-0.671082,57.7, 1.3, 0.8,0,0,1024,1024,1024,1024,58.8,-89.9,97,3.85,3.879,3.896,3.89,3.914,3.877,19.753,80.6,14,Waypoint,
36.0257359,-118.5730127,6584.91749451,44.619424,0,0.69384188572,10000,2018-07-04 22:17:22,14,0,23.608,6584.91749451,44.619424,0.3131716,0.69384188572,0,0,-0.671082,57.7, 1, 0.5,0,0,1024,1024,1024,1024,58.8,-89.9,97,3.916,3.929,3.95,3.951,3.961,3.941,19.753,80.6,14,Waypoint,
36.0257358,-118.5730128,6585.90174651,45.603676,0,0.65672902364,10100,2018-07-04 22:17:22,14,0,23.608,6585.90174651,45.603676,0.3131716,0.69384188572,0,0,-0.671082,57.7, 0.8, 0.1,0,0,1024,1024,1024,1024,58.8,-90,97,3.916,3.929,3.95,3.951,3.961,3.941,19.753,80.6,14,Waypoint,
36.0257357,-118.5730128,6586.88599851,46.587928,0,0.620242802,10200,2018-07-04 22:17:22,14,0,23.608,6586.88599851,46.587928,0.3131716,0.69384188572,0,0,-0.671082,57.8, 0.5, -0.1,0,0,1024,1024,1024,1024,58.8,-90,97,3.916,3.929,3.95,3.951,3.961,3.941,19.753,80.6,14,Waypoint,
36.0257356,-118.5730128,6587.87025051,47.57218,0.223694,0.5837598612,10300,2018-07-04 22:17:22,14,0,23.608,6587.87025051,47.57218,0.3131716,0.69384188572,0,0,-0.671082,57.8, 0.2, -0.2,0,0,1024,1024,1024,1024,58.8,-90,97,3.916,3.929,3.95,3.951,3.961,3.941,19.753,80.6,14,Waypoint,
36.0257355,-118.5730127,6588.85450251,48.556432,0.223694,0.54806760284,10400,2018-07-04 22:17:22,14,0,23.608,6588.85450251,48.556432,0.3131716,0.69384188572,0,0,-0.671082,57.9, 0, -0.3,0,0,1024,1024,1024,1024,58.8,-90,97,3.916,3.929,3.95,3.951,3.961,3.941,19.753,80.6,14,Waypoint,
36.0257355,-118.5730127,6589.83875451,49.540684,0.223694,0.54806760284,10500,2018-07-04 22:17:23,14,0,23.608,6589.83875451,49.540684,0.3131716,0.69384188572,0,0,-0.671082,57.9, -0.2, -0.3,0,0,1024,1024,1024,1024,58.8,-90,97,3.916,3.929,3.95,3.951,3.961,3.941,19.753,80.6,14,Waypoint,
36.0257354,-118.5730127,6591.15109051,50.85302,0.223694,0.51164043632,10600,2018-07-04 22:17:23,14,0,23.608,6591.15109051,50.85302,0.3131716,0.69384188572,0,0,-0.671082,57.8, -0.2, -0.7,0,0,1024,1024,1024,1024,58.8,-90,97,3.916,3.929,3.95,3.951,3.961,3.941,19.753,80.6,14,Waypoint,
36.0257353,-118.5730128,6592.13534251,51.837272,0.223694,0.47430447712,10700,2018-07-04 22:17:23,14,0,23.608,6592.13534251,51.837272,0.3131716,0.69384188572,0,0,-0.671082,57.8, -0.3, -1.1,0,0,1024,1024,1024,1024,58.8,-90,97,3.916,3.929,3.95,3.951,3.961,3.941,19.753,80.6,14,Waypoint,
36.0257352,-118.5730128,6593.11959451,52.821524,0,0.43781825548,10800,2018-07-04 22:17:23,14,0,23.608,6593.11959451,52.821524,0.3131716,0.69384188572,0,0,-0.671082,57.7, -0.6, -1.4,0,0,1024,1024,1024,1024,58.8,-90,97,3.916,3.929,3.95,3.951,3.961,3.941,19.753,80.6,14,Waypoint,
36.0257351,-118.5730129,6594.10384651,53.805776,0,0.40241799188,10900,2018-07-04 22:17:23,14,0,23.608,6594.10384651,53.805776,0.3131716,0.69384188572,0,0,-0.671082,57.7, -0.6, -1.4,0,0,1024,1024,1024,1024,58.8,-89.9,97,3.916,3.929,3.95,3.951,3.961,3.941,19.753,80.6,14,Waypoint,
36.0257351,-118.5730128,6595.08809851,54.790028,0,0.40133531468,11000,2018-07-04 22:17:23,14,0,23.713,6595.08809851,54.790028,0.3131716,0.69384188572,0,0,-0.671082,57.7, -0.6, -1.3,0,0,1024,1024,1024,1024,58.8,-89.9,97,3.937,3.947,3.954,3.956,3.97,3.948,17.961,80.6,14,Waypoint,
36.025735,-118.5730128,6596.07235051,55.77428,0,0.36484909304,11100,2018-07-04 22:17:23,14,0,23.713,6596.07235051,55.77428,0.3131716,0.69384188572,0,0,-0.671082,57.7, -0.7, -1.5,0,0,1024,1024,1024,1024,58.8,-89.9,97,3.937,3.947,3.954,3.956,3.97,3.948,17.961,80.6,14,Waypoint,
36.0257349,-118.5730128,6597.05660251,56.758532,0,0.3283628714,11200,2018-07-04 22:17:23,15,0,23.713,6597.05660251,56.758532,0.3131716,0.69384188572,0,0,-0.671082,57.8, -0.7, -1.5,0,0,1024,1024,1024,1024,58.8,-90,97,3.937,3.947,3.954,3.956,3.97,3.948,17.961,80.6,14,Waypoint,
36.0257348,-118.5730128,6598.04085451,57.742784,0.223694,0.291879602516,11300,2018-07-04 22:17:23,15,0,23.713,6598.04085451,57.742784,0.3131716,0.69384188572,0,0,-0.671082,57.9, -0.8, -1.7,0,0,1024,1024,1024,1024,58.8,-90,97,3.937,3.947,3.954,3.956,3.97,3.948,17.961,80.6,14,Waypoint,
36.0257346,-118.5730127,6598.69702251,58.398952,0.223694,0.220889442764,11400,2018-07-04 22:17:23,15,0,23.713,6598.69702251,58.398952,0.3131716,0.69384188572,0,0,-0.671082,58.2, -1, -1.8,0,0,1024,1024,1024,1024,58.8,-90,97,3.937,3.947,3.954,3.956,3.97,3.948,17.961,80.6,14,Waypoint,
36.0257345,-118.5730127,6599.68127451,59.383204,0.223694,0.184795609588,11500,2018-07-04 22:17:24,15,0,23.713,6599.68127451,59.383204,0.3131716,0.69384188572,0,0,-0.671082,58.4, -1.2, -1.8,0,0,1024,1024,1024,1024,58.8,-90,97,3.937,3.947,3.954,3.956,3.97,3.948,17.961,80.6,14,Waypoint,
36.0257344,-118.5730127,6600.66552651,60.367456,0.223694,0.148893049384,11600,2018-07-04 22:17:24,15,0,23.713,6600.66552651,60.367456,0.3131716,0.69384188572,0,0,-0.671082,58.7, -1.4, -2,0,0,1024,1024,1024,1024,58.8,-90,97,3.937,3.947,3.954,3.956,3.97,3.948,17.961,80.6,14,Waypoint,
36.0257343,-118.5730126,6601.97786251,61.679792,0.223694,0.124350725764,11700,2018-07-04 22:17:24,15,0,23.713,6601.97786251,61.679792,0.3131716,0.69384188572,0,0,-0.671082,58.9, -1.4, -2.3,0,0,1024,1024,1024,1024,58.8,-89.9,97,3.937,3.947,3.954,3.956,3.97,3.948,17.961,80.6,14,Waypoint,
36.0257342,-118.5730126,6602.96211451,62.664044,0,0.093847443948,11800,2018-07-04 22:17:24,15,0,23.713,6602.96211451,62.664044,0.3131716,0.69384188572,0,0,-0.671082,59.3, -1.4, -2.4,0,0,1024,1024,1024,1024,58.8,-90,97,3.937,3.947,3.954,3.956,3.97,3.948,17.961,80.6,14,Waypoint,
36.0257341,-118.5730125,6603.94636651,63.648296,0.223694,0.095746066056,11900,2018-07-04 22:17:24,15,0,23.713,6603.94636651,63.648296,0.3131716,0.69384188572,0,0,-0.671082,59.6, -1.3, -2.9,0,0,1024,1024,1024,1024,58.8,-89.9,97,3.937,3.947,3.954,3.956,3.97,3.948,17.961,80.6,14,Waypoint,
36.025734,-118.5730124,6604.93061851,64.632548,0.223694,0.118029203252,12000,2018-07-04 22:17:24,15,0,23.655,6604.93061851,64.632548,0.3131716,0.69384188572,0,0,-0.671082,59.8, -0.8, -3.2,0,0,1024,1024,1024,1024,58.8,-89.9,96,3.921,3.929,3.946,3.953,3.964,3.928,18.865,80.6,14,Waypoint,
36.025734,-118.5730122,6605.58678651,65.288716,0.223694,0.17704396892,12100,2018-07-04 22:17:24,15,0,23.655,6605.58678651,65.288716,0.3131716,0.69384188572,0,0,-0.671082,59.7, -0.1, -3,0,0,1024,1024,1024,1024,58.8,-89.9,96,3.921,3.929,3.946,3.953,3.964,3.928,18.865,80.6,14,Waypoint,
36.025734,-118.5730119,6607.55529051,67.25722,0.223694,0.265565625296,12210,2018-07-04 22:17:24,15,0,23.655,6607.55529051,67.25722,0.3131716,0.69384188572,0,0,-0.671082,58.3, 0.8, -2.4,0,0,1024,1024,1024,1024,58.8,-89.9,96,3.921,3.929,3.946,3.953,3.964,3.928,18.865,80.6,14,Waypoint,
36.025734,-118.5730119,6607.55529051,67.25722,0.223694,0.265565625296,12300,2018-07-04 22:17:24,15,0,23.655,6607.55529051,67.25722,0.3131716,0.69384188572,0,0,-0.671082,58.3, 0.8, -2.4,0,0,1024,1024,1024,1024,58.8,-89.9,96,3.921,3.929,3.946,3.953,3.964,3.928,18.865,80.6,14,Waypoint,
36.025734,-118.5730117,6608.21145851,67.913388,0.223694,0.324580390964,12400,2018-07-04 22:17:24,15,0,23.655,6608.21145851,67.913388,0.3131716,0.69384188572,0,0,-0.671082,57.3, 1.5, -1.6,0,0,1024,1024,1024,1024,58.8,-89.9,96,3.921,3.929,3.946,3.953,3.964,3.928,18.865,80.6,14,Waypoint,
36.025734,-118.5730116,6609.19571051,68.89764,0.223694,0.35408793784,12500,2018-07-04 22:17:25,15,0,23.655,6609.19571051,68.89764,0.3131716,0.69384188572,0,0,-0.671082,56.4, 1.7, -1.6,0,0,1024,1024,1024,1024,58.8,-89.9,96,3.921,3.929,3.946,3.953,3.964,3.928,18.865,80.6,14,Waypoint,
36.0257341,-118.5730114,6610.17996251,69.881892,0.223694,0.41471129936,12600,2018-07-04 22:17:25,15,0,23.655,6610.17996251,69.881892,0.3131716,0.69384188572,0,0,-0.671082,55.7, 1.8, -2,0,0,1024,1024,1024,1024,58.8,-89.9,96,3.921,3.929,3.946,3.953,3.964,3.928,18.865,80.6,14,Waypoint,
36.0257341,-118.5730113,6611.16421451,70.866144,0.223694,0.4441109066,12700,2018-07-04 22:17:25,15,0,23.655,6611.16421451,70.866144,0.3131716,0.69384188572,0,0,-0.671082,55.2, 1.7, -2.1,0,0,1024,1024,1024,1024,58.8,-89.9,96,3.921,3.929,3.946,3.953,3.964,3.928,18.865,80.6,14,Waypoint,
36.0257342,-118.5730111,6612.14846651,71.850396,0,0.50690290336,12800,2018-07-04 22:17:25,15,0,23.655,6612.14846651,71.850396,0.3131716,0.69384188572,0,0,-0.671082,55.1, 1.9, -1.9,0,0,1024,1024,1024,1024,58.8,-89.9,96,3.921,3.929,3.946,3.953,3.964,3.928,18.865,80.6,14,Waypoint,
36.0257342,-118.573011,6613.13271851,72.834648,0,0.5361220644,12900,2018-07-04 22:17:25,15,0,23.655,6613.13271851,72.834648,0.3131716,0.69384188572,0,0,-0.671082,55.5, 1.8, -2,0,0,1024,1024,1024,1024,58.8,-89.9,96,3.921,3.929,3.946,3.953,3.964,3.928,18.865,80.6,14,Waypoint,
36.0257342,-118.5730109,6614.11697051,73.8189,0,0.56536747216,13000,2018-07-04 22:17:25,15,0,23.64,6614.11697051,73.8189,0.3131716,0.69384188572,0,0,-0.671082,56.1, 1.5, -2,0,0,1024,1024,1024,1024,58.8,-89.9,96,3.924,3.934,3.942,3.944,3.959,3.939,18.384,80.6,14,Waypoint,
36.0257342,-118.5730108,6615.10122251,74.803152,0,0.59463912664,13100,2018-07-04 22:17:25,15,0,23.64,6615.10122251,74.803152,0.3131716,0.69384188572,0,0,-0.671082,56.7, 1.3, -2.2,0,0,1024,1024,1024,1024,58.8,-89.9,96,3.924,3.934,3.942,3.944,3.959,3.939,18.384,80.6,14,Waypoint,
36.0257342,-118.5730107,6616.08547451,75.787404,0,0.623933747,13200,2018-07-04 22:17:25,15,0,23.64,6616.08547451,75.787404,0.3131716,0.69384188572,0,0,-0.671082,57.3, 1.2, -2.3,0,0,1024,1024,1024,1024,58.8,-89.9,96,3.924,3.934,3.942,3.944,3.959,3.939,18.384,80.6,14,Waypoint,
36.0257342,-118.5730105,6617.06972651,76.771656,0.223694,0.682578762,13300,2018-07-04 22:17:25,15,0,23.64,6617.06972651,76.771656,0.3131716,0.69384188572,0,0,-0.671082,57.7, 1.4, -2.7,0,0,1024,1024,1024,1024,58.8,-89.9,96,3.924,3.934,3.942,3.944,3.959,3.939,18.384,80.6,14,Waypoint,
36.0257342,-118.5730104,6618.05397851,77.755908,0.223694,0.7119258758,13400,2018-07-04 22:17:25,15,0,23.64,6618.05397851,77.755908,0.3131716,0.7119258758,0,0,-0.671082,58, 1.8, -3,0,0,1024,1024,1024,1024,58.8,-89.9,96,3.924,3.934,3.942,3.944,3.959,3.939,18.384,80.6,14,Waypoint,
36.0257342,-118.5730103,6619.03823051,78.74016,0,0.74128283212,13500,2018-07-04 22:17:26,15,0,23.64,6619.03823051,78.74016,0.3131716,0.74128283212,0,0,-0.671082,58.2, 2.2, -3.4,0,0,1024,1024,1024,1024,58.8,-89.9,96,3.924,3.934,3.942,3.944,3.959,3.939,18.384,80.6,14,Waypoint,
36.0257341,-118.5730102,6620.02248251,79.724412,0,0.76805776736,13600,2018-07-04 22:17:26,15,0,23.64,6620.02248251,79.724412,0.3131716,0.76805776736,0,0,-0.671082,58.1, 2, -3.7,0,0,1024,1024,1024,1024,58.8,-89.9,96,3.924,3.934,3.942,3.944,3.959,3.939,18.384,80.6,14,Waypoint,
36.0257341,-118.5730101,6621.00673451,80.708664,0,0.79753283392,13700,2018-07-04 22:17:26,15,0,23.64,6621.00673451,80.708664,0.3131716,0.79753283392,0,0,-0.671082,58, 1.7, -3.7,0,0,1024,1024,1024,1024,58.8,-89.9,96,3.924,3.934,3.942,3.944,3.959,3.939,18.384,80.6,14,Waypoint,
36.025734,-118.57301,6621.99098651,81.692916,0,0.82620409468,13800,2018-07-04 22:17:26,15,0,23.64,6621.99098651,81.692916,0.3131716,0.82620409468,0,0,-0.671082,57.9, 1.2, -3.6,0,0,1024,1024,1024,1024,58.8,-89.9,96,3.924,3.934,3.942,3.944,3.959,3.939,18.384,80.6,14,Waypoint,
36.0257339,-118.57301,6622.97523851,82.677168,0,0.82701118132,13900,2018-07-04 22:17:26,15,0,23.64,6622.97523851,82.677168,0.3131716,0.82701118132,0,0,-0.671082,57.9, 1, -3.6,0,0,1024,1024,1024,1024,58.8,-90,96,3.924,3.934,3.942,3.944,3.959,3.939,18.384,80.6,14,Waypoint,
36.0257339,-118.57301,6623.95949051,83.66142,0,0.82701118132,14000,2018-07-04 22:17:26,15,0,23.538,6623.95949051,83.66142,0.3131716,0.82701118132,0,0,-0.671082,57.8, 0.8, -3.6,0,0,1024,1024,1024,1024,58.8,-90,96,3.893,3.898,3.924,3.944,3.944,3.902,19.041,80.6,14,Waypoint,
36.0257339,-118.57301,6625.27182651,84.973756,0,0.82701118132,14200,2018-07-04 22:17:26,15,0,23.538,6625.27182651,84.973756,0.3131716,0.82701118132,0,0,-0.671082,57.7, 0.8, -4.5,0,0,1024,1024,1024,1024,58.8,-89.9,96,3.893,3.898,3.924,3.944,3.944,3.902,19.041,80.6,14,Waypoint,
36.0257337,-118.5730097,6627.89649851,87.598428,0.223694,0.92125331032,14300,2018-07-04 22:17:26,15,0,23.538,6627.89649851,87.598428,0.3131716,0.92125331032,0,0,-0.671082,57.6, 0.3, -4.6,0,0,1024,1024,1024,1024,58.8,-90,96,3.893,3.898,3.924,3.944,3.944,3.902,19.041,80.6,14,Waypoint,
36.0257336,-118.5730095,6628.88075051,88.58268,0.223694,0.98461617324,14400,2018-07-04 22:17:26,15,0,23.538,6628.88075051,88.58268,0.3131716,0.98461617324,0,0,-0.671082,57.6, 0.8, -5.1,0,0,1024,1024,1024,1024,58.8,-90,96,3.893,3.898,3.924,3.944,3.944,3.902,19.041,80.6,14,Waypoint,
36.0257336,-118.5730093,6630.19308651,89.895016,0.223694,1.04301512524,14600,2018-07-04 22:17:27,15,0,23.538,6630.19308651,89.895016,0.3131716,1.04301512524,0,0,-0.671082,57.4, 1.8, -5.5,0,0,1024,1024,1024,1024,58.8,-89.9,96,3.893,3.898,3.924,3.944,3.944,3.902,19.041,80.6,14,Waypoint,
36.0257334,-118.573009,6632.16159051,91.86352,0.223694,1.14244754312,14800,2018-07-04 22:17:27,15,0,23.538,6632.16159051,91.86352,0.3131716,1.14244754312,0,0,-0.671082,57.3, 3.5, -6.9,0,0,1024,1024,1024,1024,58.8,-89.9,96,3.893,3.898,3.924,3.944,3.944,3.902,19.041,80.6,14,Waypoint,
36.0257333,-118.5730089,6633.14584251,92.847772,0,1.17878284612,14900,2018-07-04 22:17:27,15,0,23.538,6633.14584251,92.847772,0.3131716,1.17878284612,0,0,-0.671082,57.4, 3, -7.4,0,0,1024,1024,1024,1024,58.8,-89.9,96,3.893,3.898,3.924,3.944,3.944,3.902,19.041,80.6,14,Waypoint,
36.0257333,-118.5730088,6634.13009451,93.832024,0,1.20760830636,15000,2018-07-04 22:17:27,15,0,23.451,6634.13009451,93.832024,0.3131716,1.20760830636,0,0,-0.671082,57.6, 1.9, -7.5,0,0,1024,1024,1024,1024,58.8,-90,96,3.89,3.893,3.909,3.921,3.935,3.895,19.885,82.4,14,Waypoint,
36.0257333,-118.5730088,6634.78626251,94.488192,0,1.20760830636,15100,2018-07-04 22:17:27,15,0,23.451,6634.78626251,94.488192,0.3131716,1.20760830636,0,0,-0.671082,57.7, 1.3, -7,0,0,1024,1024,1024,1024,58.8,-90,96,3.89,3.893,3.909,3.921,3.935,3.895,19.885,82.4,14,Waypoint,
36.0257334,-118.5730088,6635.44243051,95.14436,0,1.20041998592,15200,2018-07-04 22:17:27,15,0,23.451,6635.44243051,95.14436,0.3131716,1.20760830636,0,0,-0.671082,57.8, 1.6, -5.7,0,0,1024,1024,1024,1024,58.8,-89.9,96,3.89,3.893,3.909,3.921,3.935,3.895,19.885,82.4,14,Waypoint,
36.0257335,-118.5730088,6636.09859851,95.800528,0.223694,1.194307781,15300,2018-07-04 22:17:27,15,0,23.451,6636.09859851,95.800528,0.3131716,1.20760830636,0,0,-0.671082,57.9, 2.2, -4.5,0,0,1024,1024,1024,1024,58.8,-89.9,96,3.89,3.893,3.909,3.921,3.935,3.895,19.885,82.4,14,Waypoint,
36.0257337,-118.5730089,6636.75476651,96.456696,0.223694,1.15597772728,15400,2018-07-04 22:17:27,15,0,23.451,6636.75476651,96.456696,0.3131716,1.20760830636,0,0,-0.671082,58, 2.8, -3.6,0,0,1024,1024,1024,1024,58.8,-89.9,96,3.89,3.893,3.909,3.921,3.935,3.895,19.885,82.4,14,Waypoint,
36.0257339,-118.5730089,6637.41093451,97.112864,0.223694,1.1513615854,15500,2018-07-04 22:17:28,15,0,23.451,6637.41093451,97.112864,0.3131716,1.20760830636,0,0,-0.671082,58.1, 3, -2.8,0,0,1024,1024,1024,1024,58.8,-89.9,96,3.89,3.893,3.909,3.921,3.935,3.895,19.885,82.4,14,Waypoint,
36.0257341,-118.5730091,6638.39518651,98.097116,0.223694,1.09237864388,15600,2018-07-04 22:17:28,15,0,23.451,6638.39518651,98.097116,0.3131716,1.20760830636,0,0,-0.671082,58.2, 3.1, -2,0,0,1024,1024,1024,1024,58.8,-89.9,96,3.89,3.893,3.909,3.921,3.935,3.895,19.885,82.4,14,Waypoint,
36.0257343,-118.5730092,6639.37943851,99.081368,0.3131716,1.06788717328,15700,2018-07-04 22:17:28,15,0,23.451,6639.37943851,99.081368,0.3131716,1.20760830636,0,0,-0.671082,58.3, 2.8, -1.4,0,0,1024,1024,1024,1024,58.8,-89.9,96,3.89,3.893,3.909,3.921,3.935,3.895,19.885,82.4,14,Waypoint,
36.0257344,-118.5730094,6640.36369051,100.06562,0.223694,1.01380908756,15800,2018-07-04 22:17:28,15,0,23.451,6640.36369051,100.06562,0.3131716,1.20760830636,0,0,-0.671082,58.3, 2.5, -1.4,0,0,1024,1024,1024,1024,58.8,-89.9,96,3.89,3.893,3.909,3.921,3.935,3.895,19.885,82.4,14,Waypoint,
36.0257346,-118.5730095,6641.34794251,101.049872,0.223694,0.99804465136,15900,2018-07-04 22:17:28,15,0,23.451,6641.34794251,101.049872,0.3131716,1.20760830636,0,0,-0.671082,58.3, 2.3, -1.3,0,0,1024,1024,1024,1024,58.8,-89.9,96,3.89,3.893,3.909,3.921,3.935,3.895,19.885,82.4,14,Waypoint,
36.0257347,-118.5730096,6642.00411051,101.70604,0,0.97816276096,16000,2018-07-04 22:17:28,15,0,23.459,6642.00411051,101.70604,0.3131716,1.20760830636,0,0,-0.671082,58.3, 2.1, -1.2,0,0,1024,1024,1024,1024,58.8,-90,96,3.886,3.901,3.904,3.918,3.929,3.893,19.774,82.4,14,Waypoint,
36.0257348,-118.5730097,6642.98836251,102.690292,0,0.96016407272,16100,2018-07-04 22:17:28,15,0,23.459,6642.98836251,102.690292,0.3131716,1.20760830636,0,0,-0.671082,58.2, 1.7, -1.3,0,0,1024,1024,1024,1024,58.8,-90,96,3.886,3.901,3.904,3.918,3.929,3.893,19.774,82.4,14,Waypoint,
36.0257348,-118.5730098,6643.97261451,103.674544,0,0.93209648652,16200,2018-07-04 22:17:28,15,0,23.459,6643.97261451,103.674544,0.3131716,1.20760830636,0,0,-0.671082,58, 1.6, -1.7,0,0,1024,1024,1024,1024,58.8,-90,96,3.886,3.901,3.904,3.918,3.929,3.893,19.774,82.4,14,Waypoint,
36.0257348,-118.5730099,6644.95686651,104.658796,0,0.90412076384,16300,2018-07-04 22:17:28,15,0,23.459,6644.95686651,104.658796,0.3131716,1.20760830636,0,0,-0.671082,57.8, 1.5, -2.2,0,0,1024,1024,1024,1024,58.8,-90,96,3.886,3.901,3.904,3.918,3.929,3.893,19.774,82.4,14,Waypoint,
36.0257349,-118.57301,6645.94111851,105.643048,0,0.88906498908,16400,2018-07-04 22:17:28,15,0,23.459,6645.94111851,105.643048,0.3131716,1.20760830636,0,0,-0.671082,57.7, 1.5, -2.4,0,0,1024,1024,1024,1024,58.8,-89.9,96,3.886,3.901,3.904,3.918,3.929,3.893,19.774,82.4,14,Waypoint,
36.0257349,-118.5730101,6646.92537051,106.6273,0,0.861712626,16500,2018-07-04 22:17:29,15,0,23.459,6646.92537051,106.6273,0.3131716,1.20760830636,0,0,-0.671082,57.6, 1.7, -2.3,0,0,1024,1024,1024,1024,58.8,-89.9,96,3.886,3.901,3.904,3.918,3.929,3.893,19.774,82.4,14,Waypoint,
36.0257349,-118.5730102,6647.90962251,107.611552,0,0.83450790072,16600,2018-07-04 22:17:29,15,0,23.459,6647.90962251,107.611552,0.3131716,1.20760830636,0,0,-0.671082,57.5, 1.9, -2.1,0,0,1024,1024,1024,1024,58.8,-89.9,96,3.886,3.901,3.904,3.918,3.929,3.893,19.774,82.4,14,Waypoint,
36.0257349,-118.5730103,6648.89387451,108.595804,0,0.8074639366,16700,2018-07-04 22:17:29,15,0,23.459,6648.89387451,108.595804,0.3131716,1.20760830636,0,0,-0.671082,57.6, 1.9, -2.1,0,0,1024,1024,1024,1024,58.8,-89.9,96,3.886,3.901,3.904,3.918,3.929,3.893,19.774,82.4,14,Waypoint,
36.025735,-118.5730104,6649.87812651,109.580056,0,0.79663388376,16800,2018-07-04 22:17:29,15,0,23.459,6649.87812651,109.580056,0.3131716,1.20760830636,0,0,-0.671082,57.8, 2, -2,0,0,1024,1024,1024,1024,58.8,-90,96,3.886,3.901,3.904,3.918,3.929,3.893,19.774,82.4,14,Waypoint,
36.025735,-118.5730106,6652.17471451,111.876644,0,0.74466537816,16900,2018-07-04 22:17:29,15,0,23.459,6652.17471451,111.876644,0.3131716,1.20760830636,0,0,-0.671082,58.2, 1.7, -1.7,0,0,1024,1024,1024,1024,58.8,-90,96,3.886,3.901,3.904,3.918,3.929,3.893,19.774,82.4,14,Waypoint,
36.025735,-118.5730108,6654.47130251,114.173232,0,0.69382220068,17200,2018-07-04 22:17:29,15,0,23.459,6654.47130251,114.173232,0.3131716,1.20760830636,0,0,-0.671082,58.3, 1.2, -1.6,0,0,1024,1024,1024,1024,58.8,-90,96,3.886,3.901,3.904,3.918,3.929,3.893,19.774,82.4,14,Waypoint,
36.025735,-118.5730109,6655.45555451,115.157484,0,0.66890422088,17300,2018-07-04 22:17:29,15,0,23.459,6655.45555451,115.157484,0.3131716,1.20760830636,0,0,-0.671082,58.1, 1.3, -1.6,0,0,1024,1024,1024,1024,58.8,-89.9,96,3.886,3.901,3.904,3.918,3.929,3.893,19.774,82.4,14,Waypoint,
36.025735,-118.5730111,6657.75214251,117.454072,0,0.6202756104,17500,2018-07-04 22:17:30,15,0,23.459,6657.75214251,117.454072,0.3131716,1.20760830636,0,0,-0.671082,57.7, 1.5, -1.5,0,0,1024,1024,1024,1024,58.8,-89.9,96,3.886,3.901,3.904,3.918,3.929,3.893,19.774,82.4,14,Waypoint,
36.025735,-118.5730112,6659.06447851,118.766408,0,0.59666668576,17600,2018-07-04 22:17:30,15,0,23.459,6659.06447851,118.766408,0.3131716,1.20760830636,0,0,-0.671082,57.6, 1.4, -1.7,0,0,1024,1024,1024,1024,58.8,-89.9,96,3.886,3.901,3.904,3.918,3.929,3.893,19.774,82.4,14,Waypoint,
36.0257349,-118.5730113,6660.04873051,119.75066,0,0.55111222236,17700,2018-07-04 22:17:30,15,0,23.459,6660.04873051,119.75066,0.3131716,1.20760830636,0,0,-0.671082,57.6, 1.1, -1.9,0,0,1024,1024,1024,1024,58.8,-90,96,3.886,3.901,3.904,3.918,3.929,3.893,19.774,82.4,14,Waypoint,
36.0257349,-118.5730114,6661.36106651,121.062996,0,0.52770999064,17800,2018-07-04 22:17:30,15,0,23.459,6661.36106651,121.062996,0.3131716,1.20760830636,0,0,-0.671082,57.6, 0.9, -2.2,0,0,1024,1024,1024,1024,58.8,-90,96,3.886,3.901,3.904,3.918,3.929,3.893,19.774,82.4,14,Waypoint,
36.0257348,-118.5730114,6662.67340251,122.375332,0,0.50581366448,17900,2018-07-04 22:17:30,15,0,23.459,6662.67340251,122.375332,0.3131716,1.20760830636,0,0,-0.671082,57.6, 0.8, -2.5,0,0,1024,1024,1024,1024,58.8,-89.9,96,3.886,3.901,3.904,3.918,3.929,3.893,19.774,82.4,14,Waypoint,
36.0257346,-118.5730115,6663.65765451,123.359584,0,0.44166339996,18000,2018-07-04 22:17:30,15,0,23.133,6663.65765451,123.359584,0.3131716,1.20760830636,0,0,-0.671082,57.7, 0.6, -3,0,0,1024,1024,1024,1024,58.8,-90,96,3.839,3.863,3.859,3.865,3.891,3.852,22.19,82.4,14,Waypoint,
36.0257345,-118.5730115,6664.96999051,124.67192,0,0.42476379312,18100,2018-07-04 22:17:30,15,0,23.133,6664.96999051,124.67192,0.3131716,1.20760830636,0,0,-0.671082,57.7, 0.5, -3,0,0,1024,1024,1024,1024,58.8,-90,96,3.839,3.863,3.859,3.865,3.891,3.852,22.19,82.4,14,Waypoint,
36.0257344,-118.5730116,6665.95424251,125.656172,0,0.38298229572,18200,2018-07-04 22:17:30,15,0,23.133,6665.95424251,125.656172,0.3131716,1.20760830636,0,0,-0.671082,57.8, 0.4, -2.8,0,0,1024,1024,1024,1024,58.8,-90,96,3.839,3.863,3.859,3.865,3.891,3.852,22.19,82.4,14,Waypoint,
36.0257343,-118.5730116,6666.93849451,126.640424,0,0.3706200906,18300,2018-07-04 22:17:30,15,0,23.133,6666.93849451,126.640424,0.3131716,1.20760830636,0,0,-0.671082,57.9, 0.5, -2.9,0,0,1024,1024,1024,1024,58.8,-90,96,3.839,3.863,3.859,3.865,3.891,3.852,22.19,82.4,14,Waypoint,
36.0257342,-118.5730116,6667.92274651,127.624676,0,0.36152888296,18400,2018-07-04 22:17:30,15,0,23.133,6667.92274651,127.624676,0.3131716,1.20760830636,0,0,-0.671082,58.1, 0.2, -3.3,0,0,1024,1024,1024,1024,58.8,-90,96,3.839,3.863,3.859,3.865,3.891,3.852,22.19,82.4,14,Waypoint,
36.025734,-118.5730116,6668.90699851,128.608928,0.223694,0.35408793784,18500,2018-07-04 22:17:31,15,0,23.133,6668.90699851,128.608928,0.3131716,1.20760830636,0,0,-0.671082,58.2, -0.1, -3.8,0,0,1024,1024,1024,1024,58.8,-90,96,3.839,3.863,3.859,3.865,3.891,3.852,22.19,82.4,14,Waypoint,
36.0257339,-118.5730116,6669.89125051,129.59318,0,0.35596129748,18600,2018-07-04 22:17:31,15,0,23.133,6669.89125051,129.59318,0.3131716,1.20760830636,0,0,-0.671082,58.2, 0, -4,0,0,1024,1024,1024,1024,58.8,-89.9,96,3.839,3.863,3.859,3.865,3.891,3.852,22.19,82.4,14,Waypoint,
36.0257338,-118.5730117,6670.87550251,130.577432,0,0.33268045684,18700,2018-07-04 22:17:31,15,0,23.133,6670.87550251,130.577432,0.3131716,1.20760830636,0,0,-0.671082,58.2, 0.3, -4,0,0,1024,1024,1024,1024,58.8,-90,96,3.839,3.863,3.859,3.865,3.891,3.852,22.19,82.4,14,Waypoint,
36.0257335,-118.5730117,6672.84400651,132.545936,0,0.37233268908,18910,2018-07-04 22:17:31,15,0,23.133,6672.84400651,132.545936,0.3131716,1.20760830636,0,0,-0.671082,58, -0.1, -3.8,0,0,1024,1024,1024,1024,58.8,-90,96,3.839,3.863,3.859,3.865,3.891,3.852,22.19,82.4,14,Waypoint,
36.0257335,-118.5730118,6673.82825851,133.530188,0,0.34690945992,19000,2018-07-04 22:17:31,15,0,23.428,6673.82825851,133.530188,0.3131716,1.20760830636,0,0,-0.671082,57.8, -0.1, -3.8,0,0,1024,1024,1024,1024,58.8,-90,96,3.839,3.863,3.859,3.865,3.891,3.852,22.19,82.4,14,Waypoint,
36.0257334,-118.5730118,6675.46867851,135.170608,0,0.36740814824,19200,2018-07-04 22:17:31,15,0,23.428,6675.46867851,135.170608,0.3131716,1.20760830636,0,0,-0.671082,57.7, -0.3, -4.4,0,0,1024,1024,1024,1024,58.8,-90,96,3.839,3.863,3.859,3.865,3.891,3.852,22.19,82.4,14,Waypoint,
36.0257334,-118.5730118,6676.45293051,136.15486,0,0.36740814824,19300,2018-07-04 22:17:31,15,0,23.428,6676.45293051,136.15486,0.3131716,1.20760830636,0,0,-0.671082,57.8, -0.1, -4,0,0,1024,1024,1024,1024,58.8,-89.9,96,3.839,3.863,3.859,3.865,3.891,3.852,22.19,82.4,14,Waypoint,
36.0257334,-118.5730117,6677.10909851,136.811028,0,0.3915026372,19400,2018-07-04 22:17:31,15,0,23.428,6677.10909851,136.811028,0.3131716,1.20760830636,0,0,-0.671082,57.8, 0.3, -3.7,0,0,1024,1024,1024,1024,58.8,-89.9,96,3.839,3.863,3.859,3.865,3.891,3.852,22.19,82.4,14,Waypoint,
36.0257334,-118.5730117,6678.09335051,137.79528,0,0.3915026372,19500,2018-07-04 22:17:32,15,0,23.428,6678.09335051,137.79528,0.3131716,1.20760830636,0,0,-0.671082,57.8, 1.1, -3.6,0,0,1024,1024,1024,1024,58.8,-89.9,96,3.839,3.863,3.859,3.865,3.891,3.852,22.19,82.4,14,Waypoint,
36.0257334,-118.5730116,6679.07760251,138.779532,0,0.41629266424,19600,2018-07-04 22:17:32,15,0,23.428,6679.07760251,138.779532,0.3131716,1.20760830636,0,0,-0.671082,58, 1.5, -3.7,0,0,1024,1024,1024,1024,58.8,-89.9,96,3.839,3.863,3.859,3.865,3.891,3.852,22.19,82.4,14,Waypoint,
36.0257334,-118.5730116,6680.06185451,139.763784,0,0.41629266424,19700,2018-07-04 22:17:32,15,0,23.428,6680.06185451,139.763784,0.3131716,1.20760830636,0,0,-0.671082,58.2, 1.5, -3.8,0,0,1024,1024,1024,1024,58.8,-89.9,96,3.839,3.863,3.859,3.865,3.891,3.852,22.19,82.4,14,Waypoint,
36.0257335,-118.5730115,6681.04610651,140.748036,0,0.42476379312,19800,2018-07-04 22:17:32,15,0,23.428,6681.04610651,140.748036,0.3131716,1.20760830636,0,0,-0.671082,58.4, 1.5, -3.7,0,0,1024,1024,1024,1024,58.8,-89.9,96,3.839,3.863,3.859,3.865,3.891,3.852,22.19,82.4,14,Waypoint,
36.0257335,-118.5730115,6682.03035851,141.732288,0,0.42476379312,19900,2018-07-04 22:17:32,15,0,23.428,6682.03035851,141.732288,0.3131716,1.20760830636,0,0,-0.671082,58.5, 1.5, -3.4,0,0,1024,1024,1024,1024,58.8,-89.9,96,3.839,3.863,3.859,3.865,3.891,3.852,22.19,82.4,14,Waypoint,
36.0257336,-118.5730115,6683.01461051,142.71654,0,0.41041996064,20000,2018-07-04 22:17:32,15,0,23.369,6683.01461051,142.71654,0.3131716,1.20760830636,0,0,-0.671082,58.5, 1.4, -3.2,0,0,1024,1024,1024,1024,58.8,-89.9,96,3.877,3.875,3.891,3.899,3.919,3.876,18.812,82.4,14,Waypoint,
36.0257336,-118.5730116,6683.67077851,143.372708,0,0.38298229572,20100,2018-07-04 22:17:32,15,0,23.369,6683.67077851,143.372708,0.3131716,1.20760830636,0,0,-0.671082,58.5, 1, -3,0,0,1024,1024,1024,1024,58.8,-90,96,3.877,3.875,3.891,3.899,3.919,3.876,18.812,82.4,14,Waypoint,
36.0257337,-118.5730116,6684.65503051,144.35696,0,0.3706200906,20200,2018-07-04 22:17:32,15,0,23.369,6684.65503051,144.35696,0.3131716,1.20760830636,0,0,-0.671082,58.4, 0.7, -2.7,0,0,1024,1024,1024,1024,58.8,-90,96,3.877,3.875,3.891,3.899,3.919,3.876,18.812,82.4,14,Waypoint,
36.0257338,-118.5730116,6685.31119851,145.013128,0.223694,0.36152888296,20300,2018-07-04 22:17:32,15,0,23.369,6685.31119851,145.013128,0.3131716,1.20760830636,0,0,-0.671082,58.2, 0.5, -2.5,0,0,1024,1024,1024,1024,58.8,-90,96,3.877,3.875,3.891,3.899,3.919,3.876,18.812,82.4,14,Waypoint,
36.0257339,-118.5730116,6686.29545051,145.99738,0.223694,0.35596129748,20400,2018-07-04 22:17:32,15,0,23.369,6686.29545051,145.99738,0.3131716,1.20760830636,0,0,-0.671082,58, 0.6, -2.1,0,0,1024,1024,1024,1024,58.8,-89.9,96,3.877,3.875,3.891,3.899,3.919,3.876,18.812,82.4,14,Waypoint,
36.0257341,-118.5730116,6686.95161851,146.653548,0.223694,0.35596129748,20500,2018-07-04 22:17:33,15,0,23.369,6686.95161851,146.653548,0.3131716,1.20760830636,0,0,-0.671082,57.8, 0.8, -2,0,0,1024,1024,1024,1024,58.8,-89.9,96,3.877,3.875,3.891,3.899,3.919,3.876,18.812,82.4,14,Waypoint,
36.0257342,-118.5730116,6687.93587051,147.6378,0.223694,0.36152888296,20600,2018-07-04 22:17:33,15,0,23.369,6687.93587051,147.6378,0.3131716,1.20760830636,0,0,-0.671082,57.7, 1.2, -1.8,0,0,1024,1024,1024,1024,58.8,-89.9,96,3.877,3.875,3.891,3.899,3.919,3.876,18.812,82.4,14,Waypoint,
36.0257343,-118.5730116,6689.24820651,148.950136,0.223694,0.3706200906,20700,2018-07-04 22:17:33,15,0,23.369,6689.24820651,148.950136,0.3131716,1.20760830636,0,0,-0.671082,57.7, 1.2, -1.8,0,0,1024,1024,1024,1024,58.8,-89.9,96,3.877,3.875,3.891,3.899,3.919,3.876,18.812,82.4,14,Waypoint,
36.0257345,-118.5730116,6690.23245851,149.934388,0.223694,0.39831694188,20800,2018-07-04 22:17:33,15,0,23.369,6690.23245851,149.934388,0.3131716,1.20760830636,0,0,-0.671082,57.6, 1.3, -1.7,0,0,1024,1024,1024,1024,58.8,-89.9,96,3.877,3.875,3.891,3.899,3.919,3.876,18.812,82.4,14,Waypoint,
36.0257346,-118.5730116,6691.21671051,150.91864,0,0.41629266424,20900,2018-07-04 22:17:33,15,0,23.369,6691.21671051,150.91864,0.3131716,1.20760830636,0,0,-0.671082,57.6, 1.5, -1.6,0,0,1024,1024,1024,1024,58.8,-89.9,96,3.877,3.875,3.891,3.899,3.919,3.876,18.812,82.4,14,Waypoint,
36.0257347,-118.5730116,6692.20096251,151.902892,0,0.4365813788,21000,2018-07-04 22:17:33,15,0,23.14,6692.20096251,151.902892,0.3131716,1.20760830636,0,0,-0.671082,57.6, 1.5, -1.6,0,0,1024,1024,1024,1024,58.8,-89.9,96,3.877,3.875,3.891,3.899,3.919,3.876,21.927,82.4,14,Waypoint,
36.0257349,-118.5730116,6693.51329851,153.215228,0,0.48291012044,21100,2018-07-04 22:17:33,15,0,23.14,6693.51329851,153.215228,0.3131716,1.20760830636,0,0,-0.671082,57.6, 1.4, -1.7,0,0,1024,1024,1024,1024,58.8,-89.9,96,3.877,3.875,3.891,3.899,3.919,3.876,21.927,82.4,14,Waypoint,
36.025735,-118.5730116,6694.49755051,154.19948,0,0.50842193228,21200,2018-07-04 22:17:33,15,0,23.14,6694.49755051,154.19948,0.3131716,1.20760830636,0,0,-0.671082,57.8, 1.1, -1.8,0,0,1024,1024,1024,1024,58.8,-89.9,96,3.877,3.875,3.891,3.899,3.919,3.876,21.927,82.4,14,Waypoint,
36.0257351,-118.5730116,6695.48180251,155.183732,0,0.53520671004,21300,2018-07-04 22:17:33,15,0,23.14,6695.48180251,155.183732,0.3131716,1.20760830636,0,0,-0.671082,57.9, 1, -1.6,0,0,1024,1024,1024,1024,58.8,-90,96,3.877,3.875,3.891,3.899,3.919,3.876,21.927,82.4,14,Waypoint,
36.0257352,-118.5730117,6696.46605451,156.167984,0,0.5450131408,21400,2018-07-04 22:17:33,15,0,23.14,6696.46605451,156.167984,0.3131716,1.20760830636,0,0,-0.671082,58, 0.9, -1.2,0,0,1024,1024,1024,1024,58.8,-89.9,96,3.877,3.875,3.891,3.899,3.919,3.876,21.927,82.4,14,Waypoint,
36.0257354,-118.5730117,6698.76264251,158.464572,0,0.60519358892,21600,2018-07-04 22:17:34,15,0,23.14,6698.76264251,158.464572,0.3131716,1.20760830636,0,0,-0.671082,57.9, 1, -1.2,0,0,1024,1024,1024,1024,58.8,-89.9,96,3.877,3.875,3.891,3.899,3.919,3.876,21.927,82.4,14,Waypoint,
36.0257355,-118.5730117,6699.74689451,159.448824,0,0.6362861096,21800,2018-07-04 22:17:34,15,0,23.14,6699.74689451,159.448824,0.3131716,1.20760830636,0,0,-0.671082,57.7, 1, -1.6,0,0,1024,1024,1024,1024,58.8,-89.9,96,3.877,3.875,3.891,3.899,3.919,3.876,21.927,82.4,14,Waypoint,
36.0257356,-118.5730116,6702.04348251,161.745412,0,0.68275264652,21900,2018-07-04 22:17:34,15,0,23.14,6702.04348251,161.745412,0.3131716,1.20760830636,0,0,-0.671082,57.4, 1.5, -2.5,0,0,1024,1024,1024,1024,58.8,-89.9,96,3.877,3.875,3.891,3.899,3.919,3.876,21.927,82.4,14,Waypoint,
36.0257356,-118.5730115,6703.02773451,162.729664,0,0.69851380188,22000,2018-07-04 22:17:34,15,0,23.14,6703.02773451,162.729664,0.3131716,1.20760830636,0,0,-0.671082,57.4, 1.7, -2.7,0,0,1024,1024,1024,1024,58.8,-89.9,95,3.833,3.839,3.855,3.857,3.882,3.838,21.927,82.4,14,Waypoint,
36.0257356,-118.5730115,6704.01198651,163.713916,0,0.69851380188,22100,2018-07-04 22:17:34,15,0,23.14,6704.01198651,163.713916,0.3131716,1.20760830636,0,0,-0.671082,57.4, 1.8, -2.8,0,0,1024,1024,1024,1024,58.8,-89.9,95,3.833,3.839,3.855,3.857,3.882,3.838,21.927,82.4,14,Waypoint,
36.0257357,-118.5730114,6704.99623851,164.698168,0,0.74522312096,22200,2018-07-04 22:17:34,15,0,23.14,6704.99623851,164.698168,0.3131716,1.20760830636,0,0,-0.671082,57.4, 1.8, -3,0,0,1024,1024,1024,1024,58.8,-89.9,95,3.833,3.839,3.855,3.857,3.882,3.838,21.927,82.4,14,Waypoint,
36.0257357,-118.5730113,6705.98049051,165.68242,0,0.76197509,22300,2018-07-04 22:17:34,15,0,23.14,6705.98049051,165.68242,0.3131716,1.20760830636,0,0,-0.671082,57.5, 2, -3.4,0,0,1024,1024,1024,1024,58.8,-89.9,95,3.833,3.839,3.855,3.857,3.882,3.838,21.927,82.4,14,Waypoint,
36.0257357,-118.5730113,6706.96474251,166.666672,0,0.76197509,22400,2018-07-04 22:17:34,15,0,23.14,6706.96474251,166.666672,0.3131716,1.20760830636,0,0,-0.671082,57.6, 2, -3.1,0,0,1024,1024,1024,1024,58.8,-89.9,95,3.833,3.839,3.855,3.857,3.882,3.838,21.927,82.4,14,Waypoint,
36.0257358,-118.5730112,6707.94899451,167.650924,0,0.80881892352,22500,2018-07-04 22:17:35,15,0,23.14,6707.94899451,167.650924,0.3131716,1.20760830636,0,0,-0.671082,57.5, 2, -2.8,0,0,1024,1024,1024,1024,58.8,-89.9,95,3.833,3.839,3.855,3.857,3.882,3.838,21.927,82.4,14,Waypoint,
36.0257358,-118.5730112,6708.93324651,168.635176,0,0.80881892352,22600,2018-07-04 22:17:35,15,0,23.14,6708.93324651,168.635176,0.3131716,1.20760830636,0,0,-0.671082,57.5, 2.1, -2.6,0,0,1024,1024,1024,1024,58.8,-89.9,95,3.833,3.839,3.855,3.857,3.882,3.838,21.927,82.4,14,Waypoint,
36.0257358,-118.5730112,6709.91749851,169.619428,0,0.80881892352,22700,2018-07-04 22:17:35,15,0,23.14,6709.91749851,169.619428,0.3131716,1.20760830636,0,0,-0.671082,57.5, 2.1, -2.7,0,0,1024,1024,1024,1024,58.8,-89.9,95,3.833,3.839,3.855,3.857,3.882,3.838,21.927,82.4,14,Waypoint,
36.0257358,-118.5730112,6710.90175051,170.60368,0,0.80881892352,22800,2018-07-04 22:17:35,15,0,23.14,6710.90175051,170.60368,0.3131716,1.20760830636,0,0,-0.671082,57.6, 1.8, -3.1,0,0,1024,1024,1024,1024,58.8,-89.9,95,3.833,3.839,3.855,3.857,3.882,3.838,21.927,82.4,14,Waypoint,
36.0257358,-118.5730111,6711.88600251,171.587932,0,0.82639110256,22900,2018-07-04 22:17:35,15,0,23.14,6711.88600251,171.587932,0.3131716,1.20760830636,0,0,-0.671082,57.6, 1.4, -3.4,0,0,1024,1024,1024,1024,58.8,-89.9,95,3.833,3.839,3.855,3.857,3.882,3.838,21.927,82.4,14,Waypoint,
36.0257358,-118.5730111,6712.87025451,172.572184,0,0.82639110256,23000,2018-07-04 22:17:35,15,0,22.961,6712.87025451,172.572184,0.3131716,1.20760830636,0,0,-0.671082,57.6, 1.4, -3.5,0,0,1024,1024,1024,1024,58.8,-89.9,95,3.807,3.819,3.835,3.85,3.859,3.822,24.141,82.4,14,Waypoint,
36.0257358,-118.5730111,6713.85450651,173.556436,0,0.82639110256,23100,2018-07-04 22:17:35,15,0,22.961,6713.85450651,173.556436,0.3131716,1.20760830636,0,0,-0.671082,57.5, 1.6, -3.5,0,0,1024,1024,1024,1024,58.8,-89.9,95,3.807,3.819,3.835,3.85,3.859,3.822,24.141,82.4,14,Waypoint,
36.0257358,-118.5730111,6714.83875851,174.540688,0,0.82639110256,23200,2018-07-04 22:17:35,15,0,22.961,6714.83875851,174.540688,0.3131716,1.20760830636,0,0,-0.671082,57.5, 1.7, -3.3,0,0,1024,1024,1024,1024,58.8,-89.9,95,3.807,3.819,3.835,3.85,3.859,3.822,24.141,82.4,14,Waypoint,
36.0257357,-118.573011,6715.82301051,175.52494,0,0.81658139096,23300,2018-07-04 22:17:35,15,0,22.961,6715.82301051,175.52494,0.3131716,1.20760830636,0,0,-0.671082,57.5, 1.7, -3.4,0,0,1024,1024,1024,1024,58.8,-89.9,95,3.807,3.819,3.835,3.85,3.859,3.822,24.141,82.4,14,Waypoint,
36.0257357,-118.573011,6716.80726251,176.509192,0,0.81658139096,23400,2018-07-04 22:17:35,15,0,22.961,6716.80726251,176.509192,0.3131716,1.20760830636,0,0,-0.671082,57.7, 1.6, -3.5,0,0,1024,1024,1024,1024,58.8,-89.9,95,3.807,3.819,3.835,3.85,3.859,3.822,24.141,82.4,14,Waypoint,
36.0257357,-118.5730109,6717.79151451,177.493444,0,0.8360728614,23500,2018-07-04 22:17:36,15,0,22.961,6717.79151451,177.493444,0.3131716,1.20760830636,0,0,-0.671082,57.8, 1.7, -3.7,0,0,1024,1024,1024,1024,58.8,-89.9,95,3.807,3.819,3.835,3.85,3.859,3.822,24.141,82.4,14,Waypoint,
36.0257357,-118.5730109,6718.44768251,178.149612,0,0.8360728614,23600,2018-07-04 22:17:36,15,0,22.961,6718.44768251,178.149612,0.3131716,1.20760830636,0,0,-0.671082,58, 2, -3.5,0,0,1024,1024,1024,1024,58.8,-89.9,95,3.807,3.819,3.835,3.85,3.859,3.822,24.141,82.4,14,Waypoint,
36.0257357,-118.5730109,6719.43193451,179.133864,0,0.8360728614,23700,2018-07-04 22:17:36,15,0,22.961,6719.43193451,179.133864,0.3131716,1.20760830636,0,0,-0.671082,58, 2.1, -3.3,0,0,1024,1024,1024,1024,58.8,-89.9,95,3.807,3.819,3.835,3.85,3.859,3.822,24.141,82.4,14,Waypoint,
36.0257357,-118.5730108,6720.41618651,180.118116,0,0.85613847884,23800,2018-07-04 22:17:36,15,0,22.961,6720.41618651,180.118116,0.3131716,1.20760830636,0,0,-0.671082,58.1, 2.1, -3.3,0,0,1024,1024,1024,1024,58.8,-89.9,95,3.807,3.819,3.835,3.85,3.859,3.822,24.141,82.4,14,Waypoint,
36.0257358,-118.5730109,6723.04085851,182.742788,0,0.86348756044,24000,2018-07-04 22:17:36,15,0,23.108,6723.04085851,182.742788,0.3131716,1.20760830636,0,0,-0.671082,58.1, 2.3, -3.1,0,0,1024,1024,1024,1024,58.8,-89.9,95,3.829,3.841,3.851,3.855,3.866,3.839,21.679,82.4,14,Waypoint,
36.0257358,-118.5730109,6724.02511051,183.72704,0,0.86348756044,24200,2018-07-04 22:17:36,15,0,23.108,6724.02511051,183.72704,0.3131716,1.20760830636,0,0,-0.671082,58.1, 2, -3,0,0,1024,1024,1024,1024,58.8,-89.9,95,3.829,3.841,3.851,3.855,3.866,3.839,21.679,82.4,14,Waypoint,
36.0257358,-118.5730109,6725.00936251,184.711292,0,0.86348756044,24300,2018-07-04 22:17:36,15,0,23.108,6725.00936251,184.711292,0.3131716,1.20760830636,0,0,-0.671082,57.9, 1.9, -2.6,0,0,1024,1024,1024,1024,58.8,-89.9,95,3.829,3.841,3.851,3.855,3.866,3.839,21.679,82.4,14,Waypoint,
36.0257358,-118.5730109,6725.99361451,185.695544,0,0.86348756044,24400,2018-07-04 22:17:36,15,0,23.108,6725.99361451,185.695544,0.3131716,1.20760830636,0,0,-0.671082,57.8, 1.9, -2.4,0,0,1024,1024,1024,1024,58.8,-89.9,95,3.829,3.841,3.851,3.855,3.866,3.839,21.679,82.4,14,Waypoint,
36.0257358,-118.573011,6726.97786651,186.679796,0,0.84462601128,24500,2018-07-04 22:17:37,15,0,23.108,6726.97786651,186.679796,0.3131716,1.20760830636,0,0,-0.671082,57.7, 1.8, -2.5,0,0,1024,1024,1024,1024,58.8,-89.9,95,3.829,3.841,3.851,3.855,3.866,3.839,21.679,82.4,14,Waypoint,
36.0257357,-118.5730111,6728.94637051,188.6483,0,0.7977034376,24800,2018-07-04 22:17:37,15,0,23.108,6728.94637051,188.6483,0.3131716,1.20760830636,0,0,-0.671082,57.6, 1.1, -2.6,0,0,1024,1024,1024,1024,58.8,-90,95,3.829,3.841,3.851,3.855,3.866,3.839,21.679,82.4,14,Waypoint,
36.0257356,-118.573011,6733.21146251,192.913392,0,0.78922574704,25100,2018-07-04 22:17:37,15,0,23.108,6733.21146251,192.913392,0.3131716,1.20760830636,0,0,-0.671082,57.6, 1.9, -3.4,0,0,1024,1024,1024,1024,58.8,-89.9,95,3.829,3.841,3.851,3.855,3.866,3.839,21.679,82.4,14,Waypoint,
36.0257356,-118.5730109,6733.86763051,193.56956,0,0.80937666632,25200,2018-07-04 22:17:37,15,0,23.108,6733.86763051,193.56956,0.3131716,1.20760830636,0,0,-0.671082,57.7, 2.1, -3.6,0,0,1024,1024,1024,1024,58.8,-89.9,95,3.829,3.841,3.851,3.855,3.866,3.839,21.679,82.4,14,Waypoint,
36.0257356,-118.5730109,6734.85188251,194.553812,0,0.80937666632,25300,2018-07-04 22:17:37,15,0,23.108,6734.85188251,194.553812,0.3131716,1.20760830636,0,0,-0.671082,57.8, 2.4, -3.7,0,0,1024,1024,1024,1024,58.8,-89.9,95,3.829,3.841,3.851,3.855,3.866,3.839,21.679,82.4,14,Waypoint,
36.0257355,-118.5730108,6735.83613451,195.538064,0,0.80484910712,25400,2018-07-04 22:17:37,15,0,23.108,6735.83613451,195.538064,0.3131716,1.20760830636,0,0,-0.671082,57.9, 2.6, -3.7,0,0,1024,1024,1024,1024,58.8,-89.9,95,3.829,3.841,3.851,3.855,3.866,3.839,21.679,82.4,14,Waypoint,
36.0257355,-118.5730107,6736.82038651,196.522316,0,0.82672902908,25500,2018-07-04 22:17:38,15,0,23.108,6736.82038651,196.522316,0.3131716,1.20760830636,0,0,-0.671082,58, 2.8, -3.8,0,0,1024,1024,1024,1024,58.8,-89.9,95,3.829,3.841,3.851,3.855,3.866,3.839,21.679,82.4,14,Waypoint,
36.0257355,-118.5730107,6737.80463851,197.506568,0,0.82672902908,25600,2018-07-04 22:17:38,15,0,23.108,6737.80463851,197.506568,0.3131716,1.20760830636,0,0,-0.671082,58, 2.9, -3.8,0,0,1024,1024,1024,1024,58.8,-89.9,95,3.829,3.841,3.851,3.855,3.866,3.839,21.679,82.4,14,Waypoint,
36.0257355,-118.5730107,6738.78889051,198.49082,0,0.82672902908,25700,2018-07-04 22:17:38,15,0,23.108,6738.78889051,198.49082,0.3131716,1.20760830636,0,0,-0.671082,58, 2.8, -3.7,0,0,1024,1024,1024,1024,58.8,-89.9,95,3.829,3.841,3.851,3.855,3.866,3.839,21.679,82.4,14,Waypoint,
36.0257355,-118.5730107,6739.77314251,199.475072,0,0.82672902908,25800,2018-07-04 22:17:38,15,0,23.108,6739.77314251,199.475072,0.3131716,1.20760830636,0,0,-0.671082,57.9, 2.8, -3.5,0,0,1024,1024,1024,1024,58.8,-89.9,95,3.829,3.841,3.851,3.855,3.866,3.839,21.679,82.4,14,Waypoint,
36.0257355,-118.5730107,6740.75739451,200.459324,0,0.82672902908,25900,2018-07-04 22:17:38,15,0,23.108,6740.75739451,200.459324,0.3131716,1.20760830636,0,0,-0.671082,57.9, 2.6, -3.2,0,0,1024,1024,1024,1024,58.8,-89.9,95,3.829,3.841,3.851,3.855,3.866,3.839,21.679,82.4,14,Waypoint,
36.0257355,-118.5730108,6741.74164651,201.443576,0,0.80484910712,26000,2018-07-04 22:17:38,15,0,22.975,6741.74164651,201.443576,0.3131716,1.20760830636,0,0,-0.671082,57.9, 2.3, -3,0,0,1024,1024,1024,1024,58.8,-89.9,95,3.812,3.823,3.833,3.839,3.861,3.82,22.548,84.2,14,Waypoint,
36.0257355,-118.5730108,6742.72589851,202.427828,0,0.80484910712,26100,2018-07-04 22:17:38,15,0,22.975,6742.72589851,202.427828,0.3131716,1.20760830636,0,0,-0.671082,57.9, 2.1, -2.9,0,0,1024,1024,1024,1024,58.8,-89.9,95,3.812,3.823,3.833,3.839,3.861,3.82,22.548,84.2,14,Waypoint,
36.0257355,-118.5730109,6743.71015051,203.41208,0,0.78347115368,26200,2018-07-04 22:17:38,15,0,22.975,6743.71015051,203.41208,0.3131716,1.20760830636,0,0,-0.671082,58, 1.8, -2.7,0,0,1024,1024,1024,1024,58.8,-89.9,95,3.812,3.823,3.833,3.839,3.861,3.82,22.548,84.2,14,Waypoint,
36.0257355,-118.5730109,6744.69440251,204.396332,0,0.78347115368,26310,2018-07-04 22:17:38,15,0,22.975,6744.69440251,204.396332,0.3131716,1.20760830636,0,0,-0.671082,58, 1.6, -2.5,0,0,1024,1024,1024,1024,58.8,-90,95,3.812,3.823,3.833,3.839,3.861,3.82,22.548,84.2,14,Waypoint,
