Latitude, Longitude, Altitude (m), Time, Sats, Speed (m/s), Range (m), Battery (%), Roll (deg), Pitch (deg), Yaw (deg), Images, HD Signal (%), RC Signal (%), Battery Temp (C), Battery Voltage (mV), Battery Current (mA), Battery Energy (mAh), Battery Capacity (mAh), Battery Discharges, flyState, timestamp (Unix), LastUpdate (ms), radioChannel, Rc_elevator, Rc_aileron, Rc_throttle, Rc_rudder, Rc_gyro, Dronetype, Battery_Cell1 (mV), Battery_Cell2 (mV), Battery_Cell3 (mV), Battery_Cell4 (mV), Battery_Cell5 (mV), Battery_Cell6 (mV), Video, isFlying, elapsedTime (ms), gimbalPitch (deg), gimbalRoll (deg), gimbalYaw (deg), VelocityX (m/s), VelocityY (m/s), VelocityZ (m/s), GroundSmear (cm), App Version, Aircraft Name, Aircraft Firmware, Aircraft Serial Number, Battery Serial Number, Battery Lifetime (%), App_Tip, App_Warning, CurrentFlightStartingIndex, CurrentFlightLastVisitedWaypoint, PreviousFlightEndingWaypointIndex
36.0257453, -118.5730094, -0.100, 14:41:03.238, 13, 0.28, 0.06, 97, -0.500, -1.600, 53.700, 367, 100, 100, 28, 25621, -3881, 5197, 5358, 18, 11, 1530740463.238, 82, 0, 1024, 1024, 1024, 1024, 0, 6, 4275, 4275, 4252, 4263, 4264, 4248, 0, 1, 3102, -89.900, 0.000, 54.900, 0.200, 0.200, 0.000, 0.1, MapPilot_2.8.1_04242018, Dendroctonus I, 1.3.1.00, 041DDC1887, 1058163200445, 96, DJI_0365.jpg, Starting Mission from Lat/Long: 36.02575/-118.57301 Camera: Zenmuse X3 - Overlap: 90/90 - Active Connection: No, 11, 11, 11
36.0257455, -118.5730091, -0.100, 14:41:03.338, 13, 0.28, 0.09, 97, -0.700, -0.800, 53.600, 367, 100, 100, 28, 25621, -3881, 5197, 5358, 18, 11, 1530740463.338, 81, 0, 1024, 1024, 1024, 1024, 0, 6, 4275, 4275, 4252, 4263, 4264, 4248, 0, 1, 3202, -89.900, 0.000, 54.900, 0.200, 0.200, -0.200, 0.0, , , , , , 96, , , 11, 11, 11
36.0257457, -118.5730088, -0.100, 14:41:03.438, 13, 0.28, 0.13, 97, -0.400, 0.300, 53.500, 367, 100, 100, 28, 25621, -3881, 5197, 5358, 18, 11, 1530740463.438, 74, 0, 1024, 1024, 1024, 1024, 0, 6, 4275, 4275, 4252, 4263, 4264, 4248, 0, 1, 3302, -89.900, 0.000, 54.900, 0.200, 0.200, -0.300, 0.0, , , , , , 96, , , 11, 11, 11
36.0257460, -118.5730085, 0.000, 14:41:03.538, 13, 0.28, 0.17, 97, 0.000, 1.200, 53.500, 367, 100, 100, 28, 25621, -3881, 5197, 5358, 18, 11, 1530740463.538, 67, 0, 1024, 1024, 1024, 1024, 0, 6, 4275, 4275, 4252, 4263, 4264, 4248, 0, 1, 3402, -89.900, 0.000, 54.900, 0.200, 0.200, -0.300, 0.0, , , , , , 96, , , 11, 11, 11
36.0257462, -118.5730083, 0.000, 14:41:03.638, 11, 0.22, 0.20, 97, 0.400, 2.000, 53.500, 367, 100, 100, 28, 24830, -8297, 5197, 5358, 18, 11, 1530740463.638, 70, 0, 1024, 1024, 1024, 1024, 0, 6, 4275, 4275, 4252, 4263, 4264, 4248, 0, 1, 3502, -89.900, 0.000, 54.800, 0.200, 0.100, -0.400, 0.0, , , , , , 96, , , 11, 11, 11
36.0257464, -118.5730080, 0.000, 14:41:03.738, 11, 0.22, 0.24, 97, 1.000, 2.600, 53.500, 367, 100, 100, 28, 24830, -8297, 5197, 5358, 18, 11, 1530740463.738, 48, 0, 1024, 1024, 1024, 1024, 0, 6, 4275, 4275, 4252, 4263, 4264, 4248, 0, 1, 3602, -89.900, 0.000, 54.800, 0.200, 0.100, -0.300, 0.0, , , , , , 96, , , 11, 11, 11
36.0257466, -118.5730078, 0.000, 14:41:03.838, 12, 0.22, 0.26, 97, 1.300, 3.100, 53.600, 367, 100, 100, 28, 24830, -8297, 5197, 5358, 18, 11, 1530740463.838, 54, 0, 1024, 1024, 1024, 1024, 0, 6, 4275, 4275, 4252, 4263, 4264, 4248, 0, 1, 3703, -89.900, 0.000, 54.800, 0.200, 0.100, -0.400, 0.0, , , , , , 96, , , 11, 11, 11
36.0257468, -118.5730076, 0.100, 14:41:03.938, 12, 0.14, 0.29, 97, 1.200, 3.100, 53.600, 367, 100, 100, 28, 24830, -8297, 5197, 5358, 18, 11, 1530740463.939, 59, 0, 1024, 1024, 1024, 1024, 0, 6, 4275, 4275, 4252, 4263, 4264, 4248, 0, 1, 3803, -89.900, 0.000, 54.800, 0.100, 0.100, -0.400, 0.0, , , , , , 96, , , 11, 11, 11
36.0257468, -118.5730074, 0.100, 14:41:04.038, 11, 0.14, 0.31, 97, 1.200, 2.700, 53.700, 367, 100, 100, 28, 24830, -8297, 5197, 5358, 18, 11, 1530740464.038, 49, 0, 1024, 1024, 1024, 1024, 0, 6, 4275, 4275, 4252, 4263, 4264, 4248, 0, 1, 3902, -89.900, 0.000, 54.800, 0.100, 0.100, -0.300, 0.0, , , , , , 96, , , 11, 11, 11
36.0257469, -118.5730072, 0.200, 14:41:04.138, 11, 0.10, 0.32, 97, 1.000, 2.100, 53.800, 367, 100, 100, 28, 24830, -8297, 5197, 5358, 18, 11, 1530740464.138, 54, 0, 1024, 1024, 1024, 1024, 0, 6, 4151, 4136, 4097, 4153, 4121, 4078, 0, 1, 4002, -89.900, 0.000, 54.800, 0.100, 0.000, -0.300, 0.0, , , , , , 96, , , 11, 11, 11
36.0257470, -118.5730071, 0.200, 14:41:04.238, 11, 0.10, 0.34, 97, 0.700, 1.400, 53.800, 367, 100, 100, 28, 24830, -8297, 5197, 5358, 18, 11, 1530740464.239, 45, 0, 1024, 1024, 1024, 1024, 0, 6, 4151, 4136, 4097, 4153, 4121, 4078, 0, 1, 4103, -90.000, 0.000, 54.800, 0.100, 0.000, -0.300, 0.0, , , , , , 96, , , 11, 11, 11
36.0257472, -118.5730070, 0.200, 14:41:04.338, 11, 0.10, 0.36, 97, 0.500, 1.000, 53.900, 367, 100, 100, 28, 24830, -8297, 5197, 5358, 18, 11, 1530740464.339, 36, 0, 1024, 1024, 1024, 1024, 0, 6, 4151, 4136, 4097, 4153, 4121, 4078, 0, 1, 4203, -90.000, 0.000, 54.800, 0.100, 0.000, -0.400, 0.0, , , , , , 96, , , 11, 11, 11
36.0257474, -118.5730069, 0.300, 14:41:04.438, 12, 0.10, 0.38, 97, 0.500, 1.000, 53.900, 367, 100, 100, 28, 24830, -8297, 5197, 5358, 18, 11, 1530740464.439, 39, 0, 1024, 1024, 1024, 1024, 0, 6, 4151, 4136, 4097, 4153, 4121, 4078, 0, 1, 4303, -89.900, 0.000, 54.800, 0.100, 0.000, -0.400, 0.0, , , , , , 96, , , 11, 11, 11
36.0257474, -118.5730069, 0.400, 14:41:04.539, 12, 0.10, 0.38, 97, 0.500, 1.100, 53.900, 367, 100, 100, 28, 24830, -8297, 5197, 5358, 18, 11, 1530740464.539, 14, 0, 1024, 1024, 1024, 1024, 0, 6, 4151, 4136, 4097, 4153, 4121, 4078, 0, 1, 4403, -89.900, 0.000, 54.800, 0.100, 0.000, -0.400, 0.0, , , , , , 96, , , 11, 11, 11
36.0257475, -118.5730068, 0.400, 14:41:04.638, 12, 0.10, 0.39, 97, 0.500, 1.000, 53.900, 367, 100, 100, 28, 24830, -8297, 5197, 5358, 18, 11, 1530740464.638, 25, 0, 1024, 1024, 1024, 1024, 0, 6, 4151, 4136, 4097, 4153, 4121, 4078, 0, 1, 4503, -89.900, 0.000, 54.800, 0.100, 0.000, -0.500, 0.0, , , , , , 96, , , 11, 11, 11
36.0257475, -118.5730068, 0.400, 14:41:04.739, 12, 0.10, 0.39, 97, 0.500, 1.000, 53.900, 367, 100, 97, 28, 24830, -8297, 5197, 5358, 18, 11, 1530740464.739, 126, 0, 1024, 1024, 1024, 1024, 0, 6, 4151, 4136, 4097, 4153, 4121, 4078, 0, 1, 4603, -89.900, 0.000, 54.700, 0.100, 0.000, -0.500, 0.0, , , , , , 96, , , 11, 11, 11
36.0257477, -118.5730067, 0.600, 14:41:04.838, 12, 0.10, 0.42, 97, 1.100, 1.100, 54.000, 367, 100, 97, 28, 24830, -8297, 5197, 5358, 18, 11, 1530740464.838, 8, 0, 1024, 1024, 1024, 1024, 0, 6, 4151, 4136, 4097, 4153, 4121, 4078, 0, 1, 4702, -89.900, 0.000, 54.700, 0.100, 0.000, -0.500, 0.0, , , , , , 96, , , 11, 11, 11
36.0257480, -118.5730067, 0.700, 14:41:04.939, 12, 0.00, 0.44, 97, 1.500, 1.400, 53.800, 367, 100, 97, 28, 24830, -8297, 5197, 5358, 18, 11, 1530740464.939, 13, 0, 1024, 1024, 1024, 1024, 0, 6, 4151, 4136, 4097, 4153, 4121, 4078, 0, 1, 4803, -89.900, 0.000, 54.700, 0.000, 0.000, -0.500, 0.0, , , , , , 96, , , 11, 11, 11
36.0257480, -118.5730067, 0.700, 14:41:05.039, 12, 0.00, 0.44, 97, 1.500, 1.400, 53.800, 367, 100, 97, 28, 24830, -8297, 5197, 5358, 18, 11, 1530740465.039, 114, 0, 1024, 1024, 1024, 1024, 0, 6, 4151, 4136, 4097, 4153, 4121, 4078, 0, 1, 4903, -89.900, 0.000, 54.700, 0.000, 0.000, -0.500, 0.0, , , , , , 96, , , 11, 11, 11
36.0257482, -118.5730067, 0.800, 14:41:05.138, 11, 0.00, 0.45, 97, 1.700, 1.700, 53.700, 367, 100, 97, 28, 24224, -17485, 5197, 5358, 18, 11, 1530740465.138, 8, 0, 1024, 1024, 1024, 1024, 0, 6, 4040, 4023, 4014, 4041, 4053, 4039, 0, 1, 5003, -89.900, 0.000, 54.700, 0.000, 0.000, -0.500, 0.0, , , , , , 96, , , 11, 11, 11
36.0257482, -118.5730067, 0.800, 14:41:05.239, 11, 0.00, 0.45, 97, 1.700, 1.700, 53.700, 367, 100, 97, 28, 24224, -17485, 5197, 5358, 18, 11, 1530740465.239, 108, 0, 1024, 1024, 1024, 1024, 0, 6, 4040, 4023, 4014, 4041, 4053, 4039, 0, 1, 5103, -89.900, 0.000, 54.700, 0.000, 0.000, -0.500, 0.0, , , , , , 96, , , 11, 11, 11
36.0257482, -118.5730067, 0.900, 14:41:05.339, 11, 0.00, 0.46, 97, 1.600, 1.600, 53.600, 367, 100, 94, 28, 24224, -17485, 5197, 5358, 18, 6, 1530740465.339, 88, 0, 1024, 1024, 1024, 1024, 0, 6, 4040, 4023, 4014, 4041, 4053, 4039, 0, 1, 5203, -89.900, 0.000, 54.700, 0.000, 0.000, -0.500, 0.0, , , , , , 96, , , 11, 11, 11
36.0257482, -118.5730067, 0.900, 14:41:05.439, 11, 0.00, 0.46, 97, 1.500, 1.600, 53.600, 367, 100, 94, 28, 24224, -17485, 5197, 5358, 18, 14, 1530740465.439, 92, 0, 1024, 1024, 1024, 1024, 0, 6, 4040, 4023, 4014, 4041, 4053, 4039, 0, 1, 5303, -89.900, 0.000, 54.700, 0.000, 0.000, -0.400, 0.0, , , , , , 96, , , 11, 11, 11
36.0257482, -118.5730068, 1.000, 14:41:05.539, 11, 0.00, 0.45, 97, 0.800, 0.800, 53.500, 367, 100, 94, 28, 24224, -17485, 5197, 5358, 18, 14, 1530740465.539, 95, 0, 1024, 1024, 1024, 1024, 0, 6, 4040, 4023, 4014, 4041, 4053, 4039, 0, 1, 5403, -90.000, 0.000, 54.700, 0.000, 0.000, -0.300, 0.0, , , , , , 96, , , 11, 11, 11
36.0257482, -118.5730069, 1.000, 14:41:05.638, 11, 0.00, 0.45, 97, 0.500, 0.100, 53.400, 367, 100, 94, 28, 24224, -17485, 5197, 5358, 18, 14, 1530740465.639, 88, 0, 1024, 1024, 1024, 1024, 0, 6, 4040, 4023, 4014, 4041, 4053, 4039, 0, 1, 5503, -90.000, 0.000, 54.700, 0.000, 0.000, -0.200, 0.0, , , , , , 96, , , 11, 11, 11
36.0257482, -118.5730070, 1.100, 14:41:05.738, 11, 0.00, 0.45, 97, 0.500, -0.100, 53.400, 367, 100, 94, 28, 24224, -17485, 5197, 5358, 18, 14, 1530740465.738, 72, 0, 1024, 1024, 1024, 1024, 0, 6, 4040, 4023, 4014, 4041, 4053, 4039, 0, 1, 5602, -90.000, 0.000, 54.700, 0.000, 0.000, -0.300, 0.0, , , , , , 96, , , 11, 11, 11
36.0257483, -118.5730070, 1.100, 14:41:05.839, 12, 0.00, 0.45, 97, 0.900, 0.000, 53.400, 367, 100, 94, 28, 24224, -17485, 5197, 5358, 18, 14, 1530740465.839, 68, 0, 1024, 1024, 1024, 1024, 0, 6, 4040, 4023, 4014, 4041, 4053, 4039, 0, 1, 5703, -89.900, 0.000, 54.700, 0.000, 0.000, -0.300, 0.0, , , , , , 96, , , 11, 11, 11
36.0257484, -118.5730071, 1.200, 14:41:05.939, 12, 0.00, 0.45, 97, 1.100, 0.000, 53.400, 367, 100, 94, 28, 24224, -17485, 5197, 5358, 18, 14, 1530740465.939, 71, 0, 1024, 1024, 1024, 1024, 0, 6, 4040, 4023, 4014, 4041, 4053, 4039, 0, 1, 5803, -90.000, 0.000, 54.700, 0.000, 0.000, -0.400, 0.0, , , , , , 96, , , 11, 11, 11
36.0257485, -118.5730071, 1.200, 14:41:06.039, 12, 0.00, 0.46, 97, 1.200, 0.300, 53.500, 367, 100, 94, 28, 24224, -17485, 5197, 5358, 18, 14, 1530740466.039, 63, 0, 1024, 1024, 1024, 1024, 0, 6, 4040, 4023, 4014, 4041, 4053, 4039, 0, 1, 5903, -89.900, 0.000, 54.600, 0.000, 0.000, -0.700, 0.0, , , , , , 96, , , 11, 11, 11
36.0257486, -118.5730073, 1.300, 14:41:06.139, 12, 0.00, 0.47, 97, 1.400, 0.600, 53.700, 367, 100, 94, 28, 24096, -17523, 5197, 5358, 18, 14, 1530740466.139, 57, 0, 1024, 1024, 1024, 1024, 0, 6, 4019, 4009, 3988, 4011, 4039, 4021, 0, 1, 6004, -89.900, 0.000, 54.600, 0.000, 0.000, -0.800, 0.0, , , , , , 96, , , 11, 11, 11
36.0257487, -118.5730074, 1.400, 14:41:06.239, 12, 0.00, 0.47, 97, 1.700, 0.700, 53.800, 367, 100, 100, 28, 24096, -17523, 5197, 5358, 18, 14, 1530740466.239, 59, 0, 1024, 1024, 1024, 1024, 0, 6, 4019, 4009, 3988, 4011, 4039, 4021, 0, 1, 6103, -89.900, 0.000, 54.600, 0.000, 0.000, -1.000, 0.0, , , , , , 96, , , 11, 11, 11
36.0257487, -118.5730075, 1.600, 14:41:06.338, 12, 0.00, 0.46, 97, 1.800, 0.600, 53.900, 367, 100, 100, 28, 24096, -17523, 5197, 5358, 18, 14, 1530740466.338, 38, 0, 1024, 1024, 1024, 1024, 0, 6, 4019, 4009, 3988, 4011, 4039, 4021, 0, 1, 6203, -90.000, 0.000, 54.600, 0.000, 0.000, -1.200, 0.0, , , , , , 96, , , 11, 11, 11
36.0257487, -118.5730077, 1.700, 14:41:06.439, 12, 0.00, 0.45, 97, 1.600, 0.300, 54.000, 367, 100, 100, 28, 24096, -17523, 5197, 5358, 18, 14, 1530740466.439, 31, 0, 1024, 1024, 1024, 1024, 0, 6, 4019, 4009, 3988, 4011, 4039, 4021, 0, 1, 6303, -90.000, 0.000, 54.600, 0.000, 0.000, -1.600, 0.0, , , , , , 96, , , 11, 11, 11
36.0257488, -118.5730078, 1.900, 14:41:06.539, 12, 0.00, 0.46, 97, 1.700, 0.200, 54.000, 367, 100, 100, 28, 24096, -17523, 5197, 5358, 18, 14, 1530740466.539, 37, 0, 1024, 1024, 1024, 1024, 0, 6, 4019, 4009, 3988, 4011, 4039, 4021, 0, 1, 6404, -90.000, 0.000, 54.600, 0.000, 0.000, -1.700, 0.0, , , , , , 96, , , 11, 11, 11
36.0257488, -118.5730079, 2.100, 14:41:06.639, 13, 0.00, 0.46, 97, 1.900, 0.000, 54.100, 367, 100, 100, 28, 24096, -17523, 5197, 5358, 18, 14, 1530740466.639, 29, 0, 1024, 1024, 1024, 1024, 0, 6, 4019, 4009, 3988, 4011, 4039, 4021, 0, 1, 6503, -90.000, 0.000, 54.600, 0.000, 0.000, -1.800, 0.0, , , , , , 96, , , 11, 11, 11
36.0257487, -118.5730080, 2.300, 14:41:06.739, 13, 0.00, 0.45, 97, 2.100, -0.100, 54.100, 367, 100, 100, 28, 24096, -17523, 5197, 5358, 18, 14, 1530740466.739, 20, 0, 1024, 1024, 1024, 1024, 0, 6, 4019, 4009, 3988, 4011, 4039, 4021, 0, 1, 6604, -90.000, 0.000, 54.500, 0.000, 0.000, -2.000, 0.0, , , , , , 96, , , 11, 11, 11
36.0257487, -118.5730081, 2.500, 14:41:06.839, 12, 0.00, 0.44, 97, 1.900, -0.300, 54.100, 367, 100, 100, 28, 24096, -17523, 5197, 5358, 18, 14, 1530740466.840, 25, 0, 1024, 1024, 1024, 1024, 0, 6, 4019, 4009, 3988, 4011, 4039, 4021, 0, 1, 6704, -90.000, 0.000, 54.500, 0.000, 0.000, -2.200, 0.0, , , , , , 96, , , 11, 11, 11
36.0257484, -118.5730082, 3.100, 14:41:06.939, 13, 0.00, 0.41, 97, 1.100, -0.400, 53.800, 367, 100, 100, 28, 24096, -17523, 5197, 5358, 18, 14, 1530740466.940, 11, 0, 1024, 1024, 1024, 1024, 0, 6, 4019, 4009, 3988, 4011, 4039, 4021, 0, 1, 6804, -90.000, 0.000, 54.500, 0.000, 0.000, -2.800, 0.0, , , , , , 96, , , 11, 11, 11
36.0257484, -118.5730082, 3.100, 14:41:07.039, 13, 0.00, 0.41, 97, 1.100, -0.400, 53.800, 367, 100, 100, 28, 24096, -17523, 5197, 5358, 18, 14, 1530740467.040, 111, 0, 1024, 1024, 1024, 1024, 0, 6, 4019, 4009, 3988, 4011, 4039, 4021, 0, 1, 6904, -90.000, 0.000, 54.500, 0.000, 0.000, -2.800, 0.0, , , , , , 96, , , 11, 11, 11
36.0257482, -118.5730083, 3.700, 14:41:07.139, 13, 0.00, 0.38, 97, 0.600, -0.800, 53.700, 367, 100, 100, 28, 23967, -18638, 5197, 5358, 18, 14, 1530740467.140, 7, 0, 1024, 1024, 1024, 1024, 0, 6, 3977, 3948, 3925, 3980, 4003, 3976, 0, 1, 7004, -90.000, 0.000, 54.500, 0.000, 0.000, -3.000, 0.0, , , , , , 96, , , 11, 11, 11
36.0257481, -118.5730083, 4.100, 14:41:07.239, 13, 0.00, 0.37, 97, 0.500, -0.900, 53.800, 367, 100, 100, 28, 23967, -18638, 5197, 5358, 18, 14, 1530740467.240, 10, 0, 1024, 1024, 1024, 1024, 0, 6, 3977, 3948, 3925, 3980, 4003, 3976, 0, 1, 7104, -89.900, 0.000, 54.500, 0.000, 0.000, -3.000, 0.0, , , , , , 96, , , 11, 11, 11
36.0257481, -118.5730083, 4.100, 14:41:07.339, 13, 0.00, 0.37, 97, 0.500, -0.900, 53.800, 367, 100, 100, 28, 23967, -18638, 5197, 5358, 18, 14, 1530740467.340, 110, 0, 1024, 1024, 1024, 1024, 0, 6, 3977, 3948, 3925, 3980, 4003, 3976, 0, 1, 7204, -89.900, 0.000, 54.500, 0.000, 0.000, -3.000, 0.0, , , , , , 96, , , 11, 11, 11
36.0257478, -118.5730083, 4.700, 14:41:07.440, 12, 0.00, 0.35, 97, 0.300, -0.500, 53.900, 367, 100, 100, 28, 23967, -18638, 5197, 5358, 18, 14, 1530740467.440, 3, 0, 1024, 1024, 1024, 1024, 0, 6, 3977, 3948, 3925, 3980, 4003, 3976, 0, 1, 7304, -89.900, 0.000, 54.500, 0.000, 0.000, -3.100, 0.0, , , , , , 96, , , 11, 11, 11
36.0257478, -118.5730083, 4.700, 14:41:07.540, 12, 0.00, 0.35, 97, 0.300, -0.500, 53.900, 367, 100, 100, 28, 23967, -18638, 5197, 5358, 18, 14, 1530740467.540, 104, 0, 1024, 1024, 1024, 1024, 0, 6, 3977, 3948, 3925, 3980, 4003, 3976, 0, 1, 7404, -89.900, 0.000, 54.500, 0.000, 0.000, -3.100, 0.0, , , , , , 96, , , 11, 11, 11
36.0257478, -118.5730083, 5.100, 14:41:07.639, 12, 0.00, 0.34, 97, 0.500, -0.100, 53.800, 367, 100, 100, 28, 23967, -18638, 5197, 5358, 18, 14, 1530740467.640, 83, 0, 1024, 1024, 1024, 1024, 0, 6, 3977, 3948, 3925, 3980, 4003, 3976, 0, 1, 7504, -89.900, 0.000, 54.600, 0.000, 0.000, -3.100, 0.0, , , , , , 96, , , 11, 11, 11
36.0257478, -118.5730082, 5.400, 14:41:07.739, 12, 0.00, 0.35, 97, 0.500, 0.100, 53.600, 367, 100, 100, 28, 23967, -18638, 5197, 5358, 18, 14, 1530740467.739, 79, 0, 1024, 1024, 1024, 1024, 0, 6, 3977, 3948, 3925, 3980, 4003, 3976, 0, 1, 7603, -89.900, 0.000, 54.500, 0.000, 0.000, -3.100, 0.0, , , , , , 96, , , 11, 11, 11
36.0257478, -118.5730081, 5.700, 14:41:07.839, 12, 0.00, 0.35, 97, 0.400, 0.300, 53.500, 367, 100, 100, 28, 23967, -18638, 5197, 5358, 18, 14, 1530740467.839, 44, 0, 1024, 1024, 1024, 1024, 0, 6, 3977, 3948, 3925, 3980, 4003, 3976, 0, 1, 7703, -89.900, 0.000, 54.500, 0.000, 0.000, -3.100, 0.0, , , , , , 96, , , 11, 11, 11
36.0257478, -118.5730080, 6.100, 14:41:07.939, 12, 0.00, 0.35, 97, 0.400, 0.500, 53.400, 367, 100, 100, 28, 23967, -18638, 5197, 5358, 18, 14, 1530740467.939, 61, 0, 1024, 1024, 1024, 1024, 0, 6, 3977, 3948, 3925, 3980, 4003, 3976, 0, 1, 7803, -89.900, 0.000, 54.500, 0.000, 0.000, -3.100, 0.0, , , , , , 96, , , 11, 11, 11
36.0257478, -118.5730080, 6.400, 14:41:08.040, 12, 0.00, 0.35, 97, 0.700, 0.500, 53.400, 367, 100, 100, 28, 23967, -18638, 5197, 5358, 18, 14, 1530740468.040, 63, 0, 1024, 1024, 1024, 1024, 0, 6, 3977, 3948, 3925, 3980, 4003, 3976, 0, 1, 7904, -89.900, 0.000, 54.500, 0.000, 0.000, -3.100, 0.0, , , , , , 96, , , 11, 11, 11
36.0257478, -118.5730080, 6.800, 14:41:08.140, 12, 0.00, 0.35, 97, 0.900, 0.500, 53.400, 367, 100, 100, 28, 23412, -24426, 5197, 5358, 18, 14, 1530740468.140, 67, 0, 1024, 1024, 1024, 1024, 0, 6, 3904, 3909, 3888, 3875, 3920, 3935, 0, 1, 8004, -89.900, 0.000, 54.500, 0.000, 0.000, -3.100, 0.0, , , , , , 96, , , 11, 11, 11
36.0257478, -118.5730080, 7.100, 14:41:08.239, 12, 0.00, 0.36, 97, 1.100, 0.600, 53.400, 367, 100, 100, 28, 23412, -24426, 5197, 5358, 18, 14, 1530740468.239, 36, 0, 1024, 1024, 1024, 1024, 0, 6, 3904, 3909, 3888, 3875, 3920, 3935, 0, 1, 8103, -89.900, 0.000, 54.500, 0.000, 0.000, -3.100, 0.0, , , , , , 96, , , 11, 11, 11
36.0257479, -118.5730081, 7.400, 14:41:08.340, 12, 0.00, 0.36, 97, 1.200, 0.600, 53.300, 367, 100, 100, 28, 23412, -24426, 5197, 5358, 18, 14, 1530740468.340, 64, 0, 1024, 1024, 1024, 1024, 0, 6, 3904, 3909, 3888, 3875, 3920, 3935, 0, 1, 8204, -89.900, 0.000, 54.500, 0.000, 0.000, -3.100, 0.0, , , , , , 96, , , 11, 11, 11
36.0257479, -118.5730081, 7.800, 14:41:08.439, 12, 0.00, 0.36, 97, 1.300, 0.600, 53.300, 367, 100, 100, 28, 23412, -24426, 5197, 5358, 18, 14, 1530740468.439, 52, 0, 1024, 1024, 1024, 1024, 0, 6, 3904, 3909, 3888, 3875, 3920, 3935, 0, 1, 8303, -89.900, 0.000, 54.500, 0.000, 0.000, -3.000, 0.0, , , , , , 96, , , 11, 11, 11
36.0257480, -118.5730081, 8.100, 14:41:08.540, 12, 0.00, 0.37, 97, 1.400, 0.400, 53.200, 367, 100, 100, 28, 23412, -24426, 5197, 5358, 18, 14, 1530740468.540, 55, 0, 1024, 1024, 1024, 1024, 0, 6, 3904, 3909, 3888, 3875, 3920, 3935, 0, 1, 8404, -89.900, 0.000, 54.500, 0.000, 0.000, -3.000, 0.0, , , , , , 96, , , 11, 11, 11
36.0257480, -118.5730082, 8.400, 14:41:08.640, 12, 0.00, 0.37, 97, 1.500, 0.400, 53.200, 367, 100, 100, 28, 23412, -24426, 5197, 5358, 18, 14, 1530740468.640, 50, 0, 1024, 1024, 1024, 1024, 0, 6, 3904, 3909, 3888, 3875, 3920, 3935, 0, 1, 8504, -89.900, 0.000, 54.500, 0.000, 0.000, -3.000, 0.0, , , , , , 96, , , 11, 11, 11
36.0257481, -118.5730081, 8.800, 14:41:08.740, 12, 0.00, 0.38, 97, 1.600, 0.400, 53.200, 367, 100, 100, 28, 23412, -24426, 5197, 5358, 18, 14, 1530740468.740, 51, 0, 1024, 1024, 1024, 1024, 0, 6, 3904, 3909, 3888, 3875, 3920, 3935, 0, 1, 8604, -89.900, 0.000, 54.500, 0.000, 0.000, -3.000, 0.0, , , , , , 96, , , 11, 11, 11
36.0257482, -118.5730082, 9.100, 14:41:08.840, 13, 0.00, 0.39, 97, 1.600, 0.400, 53.300, 367, 100, 100, 28, 23412, -24426, 5197, 5358, 18, 14, 1530740468.840, 55, 0, 1024, 1024, 1024, 1024, 0, 6, 3904, 3909, 3888, 3875, 3920, 3935, 0, 1, 8704, -89.900, 0.000, 54.500, 0.000, 0.000, -3.000, 0.0, , , , , , 96, , , 11, 11, 11
36.0257483, -118.5730082, 9.400, 14:41:08.940, 13, 0.00, 0.39, 97, 1.700, 0.400, 53.400, 367, 100, 100, 28, 23412, -24426, 5197, 5358, 18, 14, 1530740468.940, 27, 0, 1024, 1024, 1024, 1024, 0, 6, 3904, 3909, 3888, 3875, 3920, 3935, 0, 1, 8804, -89.900, 0.000, 54.500, 0.000, 0.000, -3.000, 0.0, , , , , , 96, , , 11, 11, 11
36.0257484, -118.5730083, 9.700, 14:41:09.040, 14, 0.00, 0.40, 97, 1.800, 0.400, 53.500, 367, 100, 100, 28, 23412, -24426, 5197, 5358, 18, 14, 1530740469.040, 23, 0, 1024, 1024, 1024, 1024, 0, 6, 3904, 3909, 3888, 3875, 3920, 3935, 0, 1, 8904, -89.900, 0.000, 54.500, 0.000, 0.000, -3.000, 0.0, , , , , , 96, , , 11, 11, 11
36.0257484, -118.5730082, 10.100, 14:41:09.140, 14, 0.00, 0.40, 97, 1.800, 0.300, 53.700, 367, 100, 100, 28, 23694, -19692, 5197, 5358, 18, 14, 1530740469.140, 28, 0, 1024, 1024, 1024, 1024, 0, 6, 3904, 3909, 3888, 3875, 3920, 3935, 0, 1, 9004, -89.900, 0.000, 54.500, 0.000, 0.000, -3.000, 0.0, , , , , , 96, , , 11, 11, 11
36.0257484, -118.5730083, 10.400, 14:41:09.240, 14, 0.00, 0.41, 97, 1.700, 0.300, 53.800, 367, 100, 100, 28, 23694, -19692, 5197, 5358, 18, 14, 1530740469.240, 19, 0, 1024, 1024, 1024, 1024, 0, 6, 3904, 3909, 3888, 3875, 3920, 3935, 0, 1, 9104, -89.900, 0.000, 54.500, 0.000, 0.000, -2.900, 0.0, , , , , , 96, , , 11, 11, 11
36.0257485, -118.5730083, 10.700, 14:41:09.340, 14, 0.00, 0.41, 97, 1.700, 0.200, 53.900, 367, 100, 100, 28, 23694, -19692, 5197, 5358, 18, 14, 1530740469.340, 23, 0, 1024, 1024, 1024, 1024, 0, 6, 3904, 3909, 3888, 3875, 3920, 3935, 0, 1, 9204, -89.900, 0.000, 54.500, 0.000, 0.000, -3.000, 0.0, , , , , , 96, , , 11, 11, 11
36.0257486, -118.5730084, 11.000, 14:41:09.440, 16, 0.00, 0.42, 97, 1.800, 0.000, 53.800, 367, 100, 100, 28, 23694, -19692, 5197, 5358, 18, 14, 1530740469.440, 15, 0, 1024, 1024, 1024, 1024, 0, 6, 3904, 3909, 3888, 3875, 3920, 3935, 0, 1, 9304, -89.900, 0.000, 54.500, 0.000, 0.000, -2.900, 0.0, , , , , , 96, , , 11, 11, 11
36.0257486, -118.5730084, 11.400, 14:41:09.540, 16, 0.00, 0.43, 97, 1.800, -0.100, 53.800, 367, 100, 100, 28, 23694, -19692, 5197, 5358, 18, 14, 1530740469.540, 4, 0, 1024, 1024, 1024, 1024, 0, 6, 3904, 3909, 3888, 3875, 3920, 3935, 0, 1, 9404, -89.900, 0.000, 54.500, 0.000, 0.000, -2.900, 0.0, , , , , , 96, , , 11, 11, 11
36.0257486, -118.5730084, 11.400, 14:41:09.640, 16, 0.00, 0.43, 97, 1.800, -0.100, 53.800, 367, 100, 100, 28, 23694, -19692, 5197, 5358, 18, 14, 1530740469.640, 104, 0, 1024, 1024, 1024, 1024, 0, 6, 3904, 3909, 3888, 3875, 3920, 3935, 0, 1, 9504, -89.900, 0.000, 54.500, 0.000, 0.000, -2.900, 0.0, , , , , , 96, , , 11, 11, 11
36.0257488, -118.5730085, 12.300, 14:41:09.740, 15, 0.00, 0.44, 97, 1.800, -0.200, 53.700, 367, 100, 100, 28, 23694, -19692, 5197, 5358, 18, 14, 1530740469.741, 7, 0, 1024, 1024, 1024, 1024, 0, 6, 3952, 3942, 3922, 3949, 3982, 3967, 0, 1, 9605, -89.900, 0.000, 54.500, 0.000, 0.000, -2.900, 0.0, , , , , , 96, , , 11, 11, 11
36.0257488, -118.5730085, 12.300, 14:41:09.840, 15, 0.00, 0.44, 97, 1.800, -0.200, 53.700, 367, 100, 100, 28, 23694, -19692, 5197, 5358, 18, 14, 1530740469.840, 106, 0, 1024, 1024, 1024, 1024, 0, 6, 3952, 3942, 3922, 3949, 3982, 3967, 0, 1, 9704, -89.900, 0.000, 54.500, 0.000, 0.000, -2.900, 0.0, , , , , , 96, , , 11, 11, 11
36.0257489, -118.5730085, 12.900, 14:41:09.941, 15, 0.00, 0.45, 97, 1.900, -0.200, 53.600, 367, 100, 100, 28, 23694, -19692, 5197, 5358, 18, 14, 1530740469.941, 1, 0, 1024, 1024, 1024, 1024, 0, 6, 3952, 3942, 3922, 3949, 3982, 3967, 0, 1, 9805, -89.900, 0.000, 54.500, 0.000, 0.000, -2.800, 0.0, , , , , , 96, , , 11, 11, 11
36.0257489, -118.5730084, 13.200, 14:41:10.040, 15, 0.00, 0.45, 97, 1.800, -0.400, 53.500, 367, 100, 100, 28, 23694, -19692, 5197, 5358, 18, 14, 1530740470.040, 4, 0, 1024, 1024, 1024, 1024, 0, 6, 3952, 3942, 3922, 3949, 3982, 3967, 0, 1, 9904, -89.900, 0.000, 54.500, 0.000, 0.000, -2.700, 0.0, , , , , , 96, , , 11, 11, 11
36.0257489, -118.5730084, 13.200, 14:41:10.140, 15, 0.00, 0.45, 97, 1.800, -0.400, 53.500, 367, 100, 100, 28, 23694, -19692, 5197, 5358, 18, 14, 1530740470.140, 104, 0, 1024, 1024, 1024, 1024, 0, 6, 3952, 3942, 3922, 3949, 3982, 3967, 0, 1, 10004, -89.900, 0.000, 54.500, 0.000, 0.000, -2.700, 0.0, , , , , , 96, , , 11, 11, 11
36.0257489, -118.5730084, 13.500, 14:41:10.240, 16, 0.00, 0.45, 97, 1.600, -0.400, 53.400, 367, 100, 100, 28, 23694, -19692, 5197, 5358, 18, 14, 1530740470.240, 69, 0, 1024, 1024, 1024, 1024, 0, 6, 3952, 3942, 3922, 3949, 3982, 3967, 0, 1, 10105, -89.900, 0.000, 54.500, 0.000, 0.000, -2.700, 0.0, , , , , , 96, , , 11, 11, 11
36.0257489, -118.5730084, 13.800, 14:41:10.340, 16, 0.00, 0.45, 97, 1.400, -0.200, 53.300, 367, 100, 100, 28, 23694, -19692, 5197, 5358, 18, 14, 1530740470.341, 74, 0, 1024, 1024, 1024, 1024, 0, 6, 3952, 3942, 3922, 3949, 3982, 3967, 0, 1, 10205, -89.900, 0.000, 54.500, 0.000, 0.000, -2.800, 0.0, , , , , , 96, , , 11, 11, 11
36.0257489, -118.5730083, 14.100, 14:41:10.440, 16, 0.00, 0.46, 97, 1.500, 0.100, 53.300, 367, 100, 100, 28, 23694, -19692, 5197, 5358, 18, 14, 1530740470.441, 66, 0, 1024, 1024, 1024, 1024, 0, 6, 3952, 3942, 3922, 3949, 3982, 3967, 0, 1, 10305, -89.900, 0.000, 54.500, 0.000, 0.000, -2.700, 0.0, , , , , , 96, , , 11, 11, 11
36.0257489, -118.5730083, 14.400, 14:41:10.540, 16, 0.00, 0.46, 97, 1.600, 0.500, 53.300, 367, 100, 100, 28, 23694, -19692, 5197, 5358, 18, 14, 1530740470.541, 68, 0, 1024, 1024, 1024, 1024, 0, 6, 3952, 3942, 3922, 3949, 3982, 3967, 0, 1, 10405, -89.900, 0.000, 54.500, 0.000, 0.000, -2.700, 0.0, , , , , , 96, , , 11, 11, 11
36.0257490, -118.5730083, 14.700, 14:41:10.640, 16, 0.00, 0.46, 97, 1.700, 0.500, 53.300, 367, 100, 100, 28, 23761, -18722, 5143, 5358, 18, 14, 1530740470.640, 65, 0, 1024, 1024, 1024, 1024, 0, 6, 3968, 3960, 3928, 3955, 3988, 3981, 0, 1, 10505, -89.900, 0.000, 54.500, 0.000, 0.000, -2.800, 0.0, , , , , , 96, , , 11, 11, 11
36.0257490, -118.5730082, 15.000, 14:41:10.740, 16, 0.00, 0.46, 97, 1.400, 0.400, 53.400, 367, 100, 99, 28, 23761, -18722, 5143, 5358, 18, 14, 1530740470.741, 65, 0, 1024, 1024, 1024, 1024, 0, 6, 3968, 3960, 3928, 3955, 3988, 3981, 0, 1, 10605, -89.900, 0.000, 54.500, 0.000, 0.000, -2.800, 0.0, , , , , , 96, , , 11, 11, 11
36.0257489, -118.5730082, 15.200, 14:41:10.840, 16, 0.00, 0.46, 97, 1.200, 0.400, 53.500, 367, 100, 99, 28, 23761, -18722, 5143, 5358, 18, 14, 1530740470.841, 45, 0, 1024, 1024, 1024, 1024, 0, 6, 3968, 3960, 3928, 3955, 3988, 3981, 0, 1, 10705, -89.900, 0.000, 54.500, 0.000, 0.000, -2.700, 0.0, , , , , , 96, , , 11, 11, 11
36.0257489, -118.5730082, 15.500, 14:41:10.941, 16, 0.00, 0.46, 97, 1.200, 0.300, 53.600, 367, 100, 99, 28, 23761, -18722, 5143, 5358, 18, 14, 1530740470.941, 48, 0, 1024, 1024, 1024, 1024, 0, 6, 3968, 3960, 3928, 3955, 3988, 3981, 0, 1, 10805, -89.900, 0.000, 54.500, 0.000, 0.000, -2.800, 0.0, , , , , , 96, , , 11, 11, 11
36.0257489, -118.5730081, 15.800, 14:41:11.041, 16, 0.00, 0.46, 97, 1.400, 0.300, 53.600, 367, 100, 99, 28, 23761, -18722, 5143, 5358, 18, 14, 1530740471.041, 51, 0, 1024, 1024, 1024, 1024, 0, 6, 3968, 3960, 3928, 3955, 3988, 3981, 0, 1, 10905, -89.900, 0.000, 54.500, 0.000, 0.000, -2.800, 0.0, , , , , , 96, , , 11, 11, 11
36.0257489, -118.5730081, 16.100, 14:41:11.140, 16, 0.00, 0.46, 96, 1.400, 0.300, 53.500, 367, 100, 99, 28, 23761, -18722, 5143, 5358, 18, 14, 1530740471.140, 18, 0, 1024, 1024, 1024, 1024, 0, 6, 3968, 3960, 3928, 3955, 3988, 3981, 0, 1, 11005, -89.900, 0.000, 54.500, 0.000, 0.000, -2.700, 0.0, , , , , , 96, , , 11, 11, 11
36.0257488, -118.5730080, 16.400, 14:41:11.241, 16, 0.00, 0.46, 96, 1.300, 0.300, 53.400, 367, 100, 99, 28, 23761, -18722, 5143, 5358, 18, 14, 1530740471.241, 26, 0, 1024, 1024, 1024, 1024, 0, 6, 3968, 3960, 3928, 3955, 3988, 3981, 0, 1, 11105, -89.900, 0.000, 54.500, 0.000, 0.000, -2.800, 0.0, , , , , , 96, , , 11, 11, 11
36.0257488, -118.5730080, 16.700, 14:41:11.341, 16, 0.00, 0.46, 96, 1.300, 0.400, 53.400, 367, 100, 99, 28, 23761, -18722, 5143, 5358, 18, 14, 1530740471.341, 24, 0, 1024, 1024, 1024, 1024, 0, 6, 3968, 3960, 3928, 3955, 3988, 3981, 0, 1, 11205, -89.900, 0.000, 54.500, 0.000, 0.000, -2.800, 0.0, , , , , , 96, , , 11, 11, 11
36.0257488, -118.5730079, 17.000, 14:41:11.440, 16, 0.00, 0.46, 96, 1.400, 0.700, 53.400, 367, 100, 99, 28, 23761, -18722, 5143, 5358, 18, 14, 1530740471.440, 25, 0, 1024, 1024, 1024, 1024, 0, 6, 3968, 3960, 3928, 3955, 3988, 3981, 0, 1, 11305, -89.900, 0.000, 54.500, 0.000, 0.000, -2.800, 0.0, , , , , , 96, , , 11, 11, 11
36.0257488, -118.5730078, 17.300, 14:41:11.541, 16, 0.00, 0.46, 96, 1.300, 0.900, 53.500, 367, 100, 99, 28, 23761, -18722, 5143, 5358, 18, 14, 1530740471.541, 16, 0, 1024, 1024, 1024, 1024, 0, 6, 3968, 3960, 3928, 3955, 3988, 3981, 0, 1, 11405, -89.900, 0.000, 54.500, 0.000, 0.000, -2.900, 0.0, , , , , , 96, , , 11, 11, 11
36.0257487, -118.5730077, 17.600, 14:41:11.640, 16, 0.00, 0.46, 96, 1.100, 1.200, 53.700, 367, 100, 99, 28, 23763, -19832, 5143, 5358, 18, 14, 1530740471.641, 24, 0, 1024, 1024, 1024, 1024, 0, 6, 3941, 3933, 3921, 3947, 3970, 3960, 0, 1, 11505, -89.900, 0.000, 54.500, 0.000, 0.000, -2.900, 0.0, , , , , , 96, , , 11, 11, 11
36.0257487, -118.5730076, 17.900, 14:41:11.741, 16, 0.00, 0.46, 96, 1.100, 1.300, 53.800, 367, 100, 98, 28, 23763, -19832, 5143, 5358, 18, 14, 1530740471.741, 33, 0, 1024, 1024, 1024, 1024, 0, 6, 3941, 3933, 3921, 3947, 3970, 3960, 0, 1, 11605, -89.900, 0.000, 54.500, 0.000, 0.000, -2.900, 0.0, , , , , , 96, , , 11, 11, 11
36.0257487, -118.5730075, 18.200, 14:41:11.841, 16, 0.00, 0.46, 96, 1.200, 1.400, 53.800, 367, 100, 98, 28, 23763, -19832, 5143, 5358, 18, 14, 1530740471.841, 25, 0, 1024, 1024, 1024, 1024, 0, 6, 3941, 3933, 3921, 3947, 3970, 3960, 0, 1, 11705, -89.900, 0.000, 54.500, 0.000, 0.000, -2.800, 0.0, , , , , , 96, , , 11, 11, 11
36.0257487, -118.5730074, 18.500, 14:41:11.941, 16, 0.00, 0.47, 96, 1.100, 1.300, 53.900, 367, 100, 98, 28, 23763, -19832, 5143, 5358, 18, 14, 1530740471.941, 15, 0, 1024, 1024, 1024, 1024, 0, 6, 3941, 3933, 3921, 3947, 3970, 3960, 0, 1, 11805, -89.900, 0.000, 54.500, 0.000, 0.000, -2.800, 0.0, , , , , , 96, , , 11, 11, 11
36.0257487, -118.5730074, 18.500, 14:41:12.041, 16, 0.00, 0.47, 96, 1.100, 1.300, 53.900, 367, 100, 98, 28, 23763, -19832, 5143, 5358, 18, 14, 1530740472.041, 115, 0, 1024, 1024, 1024, 1024, 0, 6, 3941, 3933, 3921, 3947, 3970, 3960, 0, 1, 11905, -89.900, 0.000, 54.500, 0.000, 0.000, -2.800, 0.0, , , , , , 96, , , 11, 11, 11
36.0257487, -118.5730073, 19.100, 14:41:12.141, 16, 0.00, 0.47, 96, 1.200, 0.800, 53.900, 367, 100, 98, 28, 23763, -19832, 5143, 5358, 18, 14, 1530740472.141, 96, 0, 1024, 1024, 1024, 1024, 0, 6, 3941, 3933, 3921, 3947, 3970, 3960, 0, 1, 12005, -89.900, 0.000, 54.500, 0.000, 0.000, -2.800, 0.0, , , , , , 96, , , 11, 11, 11
36.0257487, -118.5730071, 19.700, 14:41:12.241, 16, 0.00, 0.48, 96, 1.400, 1.000, 53.700, 367, 100, 98, 28, 23763, -19832, 5143, 5358, 18, 14, 1530740472.241, 13, 0, 1024, 1024, 1024, 1024, 0, 6, 3941, 3933, 3921, 3947, 3970, 3960, 0, 1, 12105, -89.900, 0.000, 54.500, 0.000, 0.000, -2.700, 0.0, , , , , , 96, , , 11, 11, 11
36.0257487, -118.5730071, 19.700, 14:41:12.341, 16, 0.00, 0.48, 96, 1.400, 1.000, 53.700, 367, 100, 98, 28, 23763, -19832, 5143, 5358, 18, 14, 1530740472.341, 113, 0, 1024, 1024, 1024, 1024, 0, 6, 3941, 3933, 3921, 3947, 3970, 3960, 0, 1, 12205, -89.900, 0.000, 54.500, 0.000, 0.000, -2.700, 0.0, , , , , , 96, , , 11, 11, 11
36.0257487, -118.5730070, 20.000, 14:41:12.441, 16, 0.00, 0.48, 96, 1.300, 1.200, 53.600, 367, 100, 98, 28, 23763, -19832, 5143, 5358, 18, 14, 1530740472.441, 82, 0, 1024, 1024, 1024, 1024, 0, 6, 3941, 3933, 3921, 3947, 3970, 3960, 0, 1, 12305, -89.900, 0.000, 54.500, 0.000, 0.000, -2.700, 0.0, , , , , , 96, , , 11, 11, 11
36.0257486, -118.5730069, 20.300, 14:41:12.541, 16, 0.00, 0.48, 96, 0.900, 1.400, 53.600, 367, 100, 98, 28, 23763, -19832, 5143, 5358, 18, 14, 1530740472.541, 84, 0, 1024, 1024, 1024, 1024, 0, 6, 3941, 3933, 3921, 3947, 3970, 3960, 0, 1, 12405, -89.900, 0.000, 54.500, 0.000, 0.000, -2.800, 0.0, , , , , , 96, , , 11, 11, 11
36.0257486, -118.5730068, 20.500, 14:41:12.641, 16, 0.00, 0.49, 96, 0.600, 1.500, 53.600, 367, 100, 98, 28, 23763, -19832, 5143, 5358, 18, 14, 1530740472.641, 79, 0, 1024, 1024, 1024, 1024, 0, 6, 3941, 3933, 3921, 3947, 3970, 3960, 0, 1, 12505, -89.900, 0.000, 54.500, 0.000, 0.000, -2.800, 0.0, , , , , , 96, , , 11, 11, 11
36.0257486, -118.5730067, 20.800, 14:41:12.741, 16, 0.00, 0.49, 96, 0.500, 1.400, 53.700, 367, 100, 98, 28, 23619, -19622, 5143, 5358, 18, 14, 1530740472.741, 95, 0, 1024, 1024, 1024, 1024, 0, 6, 3935, 3925, 3908, 3931, 3958, 3951, 0, 1, 12605, -89.900, 0.000, 54.500, 0.000, 0.000, -2.800, 0.0, , , , , , 96, , , 11, 11, 11
36.0257486, -118.5730067, 21.100, 14:41:12.841, 16, 0.00, 0.50, 96, 0.600, 1.600, 53.700, 367, 100, 98, 28, 23619, -19622, 5143, 5358, 18, 14, 1530740472.841, 76, 0, 1024, 1024, 1024, 1024, 0, 6, 3935, 3925, 3908, 3931, 3958, 3951, 0, 1, 12705, -89.900, 0.000, 54.500, 0.000, 0.000, -2.900, 0.0, , , , , , 96, , , 11, 11, 11
36.0257486, -118.5730066, 21.400, 14:41:12.941, 16, 0.00, 0.50, 96, 0.800, 1.700, 53.700, 367, 100, 98, 28, 23619, -19622, 5143, 5358, 18, 14, 1530740472.941, 79, 0, 1024, 1024, 1024, 1024, 0, 6, 3935, 3925, 3908, 3931, 3958, 3951, 0, 1, 12805, -89.900, 0.000, 54.500, 0.000, 0.000, -2.900, 0.0, , , , , , 96, , , 11, 11, 11
36.0257487, -118.5730066, 21.800, 14:41:13.041, 16, 0.00, 0.50, 96, 1.000, 1.600, 53.800, 367, 100, 98, 28, 23619, -19622, 5143, 5358, 18, 14, 1530740473.041, 80, 0, 1024, 1024, 1024, 1024, 0, 6, 3935, 3925, 3908, 3931, 3958, 3951, 0, 1, 12905, -89.900, 0.000, 54.500, 0.000, 0.000, -2.900, 0.0, , , , , , 96, , , 11, 11, 11
36.0257487, -118.5730066, 22.000, 14:41:13.141, 16, 0.00, 0.51, 96, 1.300, 1.400, 53.800, 367, 100, 98, 28, 23619, -19622, 5143, 5358, 18, 14, 1530740473.141, 49, 0, 1024, 1024, 1024, 1024, 0, 6, 3935, 3925, 3908, 3931, 3958, 3951, 0, 1, 13005, -89.900, 0.000, 54.500, 0.000, 0.000, -2.800, 0.0, , , , , , 96, , , 11, 11, 11
36.0257487, -118.5730066, 22.300, 14:41:13.241, 16, 0.00, 0.51, 96, 1.200, 1.300, 53.700, 367, 100, 98, 28, 23619, -19622, 5143, 5358, 18, 14, 1530740473.241, 53, 0, 1024, 1024, 1024, 1024, 0, 6, 3935, 3925, 3908, 3931, 3958, 3951, 0, 1, 13105, -89.900, 0.000, 54.500, 0.000, 0.000, -2.800, 0.0, , , , , , 96, , , 11, 11, 11
36.0257487, -118.5730066, 22.600, 14:41:13.341, 16, 0.00, 0.51, 96, 1.200, 1.200, 53.700, 367, 100, 98, 28, 23619, -19622, 5143, 5358, 18, 14, 1530740473.341, 57, 0, 1024, 1024, 1024, 1024, 0, 6, 3935, 3925, 3908, 3931, 3958, 3951, 0, 1, 13205, -89.900, 0.000, 54.500, 0.000, 0.000, -2.800, 0.0, , , , , , 96, , , 11, 11, 11
36.0257487, -118.5730065, 22.900, 14:41:13.441, 16, 0.00, 0.51, 96, 1.300, 1.300, 53.600, 367, 100, 98, 28, 23619, -19622, 5143, 5358, 18, 14, 1530740473.441, 59, 0, 1024, 1024, 1024, 1024, 0, 6, 3935, 3925, 3908, 3931, 3958, 3951, 0, 1, 13305, -89.900, 0.000, 54.500, 0.000, 0.000, -2.800, 0.0, , , , , , 96, , , 11, 11, 11
36.0257487, -118.5730065, 23.200, 14:41:13.541, 16, 0.00, 0.52, 96, 1.400, 1.200, 53.600, 367, 100, 98, 28, 23619, -19622, 5143, 5358, 18, 14, 1530740473.541, 54, 0, 1024, 1024, 1024, 1024, 0, 6, 3935, 3925, 3908, 3931, 3958, 3951, 0, 1, 13405, -89.900, 0.000, 54.500, 0.000, 0.000, -2.800, 0.0, , , , , , 96, , , 11, 11, 11
36.0257487, -118.5730065, 23.500, 14:41:13.641, 16, 0.00, 0.52, 96, 1.300, 1.200, 53.500, 367, 100, 98, 28, 23619, -19622, 5143, 5358, 18, 14, 1530740473.641, 44, 0, 1024, 1024, 1024, 1024, 0, 6, 3935, 3925, 3908, 3931, 3958, 3951, 0, 1, 13505, -89.900, 0.000, 54.500, 0.000, 0.000, -2.900, 0.0, , , , , , 96, , , 11, 11, 11
36.0257488, -118.5730064, 23.800, 14:41:13.741, 16, 0.00, 0.52, 96, 1.700, 1.400, 53.400, 367, 100, 97, 28, 23619, -19622, 5143, 5358, 18, 14, 1530740473.741, 42, 0, 1024, 1024, 1024, 1024, 0, 6, 3935, 3925, 3908, 3931, 3958, 3951, 0, 1, 13606, -89.900, 0.000, 54.500, 0.000, 0.000, -3.000, 0.0, , , , , , 96, , , 11, 11, 11
36.0257488, -118.5730064, 24.200, 14:41:13.841, 16, 0.00, 0.53, 96, 1.900, 1.600, 53.400, 367, 100, 97, 28, 23619, -19622, 5143, 5358, 18, 14, 1530740473.842, 6, 0, 1024, 1024, 1024, 1024, 0, 6, 3935, 3925, 3908, 3931, 3958, 3951, 0, 1, 13706, -89.900, 0.000, 54.500, 0.000, 0.000, -2.900, 0.0, , , , , , 96, , , 11, 11, 11
36.0257488, -118.5730064, 24.200, 14:41:13.941, 16, 0.00, 0.53, 96, 1.900, 1.600, 53.400, 367, 100, 97, 28, 23619, -19622, 5143, 5358, 18, 14, 1530740473.941, 106, 0, 1024, 1024, 1024, 1024, 0, 6, 3935, 3925, 3908, 3931, 3958, 3951, 0, 1, 13806, -89.900, 0.000, 54.500, 0.000, 0.000, -2.900, 0.0, , , , , , 96, , , 11, 11, 11
36.0257489, -118.5730063, 24.700, 14:41:14.041, 16, 0.00, 0.54, 96, 1.500, 1.600, 53.500, 367, 100, 97, 28, 23619, -19622, 5143, 5358, 18, 14, 1530740474.041, 21, 0, 1024, 1024, 1024, 1024, 0, 6, 3935, 3925, 3908, 3931, 3958, 3951, 0, 1, 13906, -89.900, 0.000, 54.500, 0.000, 0.000, -2.900, 0.0, , , , , , 96, , , 11, 11, 11
36.0257489, -118.5730063, 25.100, 14:41:14.141, 16, 0.00, 0.54, 96, 1.500, 1.600, 53.500, 367, 100, 97, 28, 23522, -20460, 5143, 5358, 18, 14, 1530740474.141, 19, 0, 1024, 1024, 1024, 1024, 0, 6, 3922, 3893, 3901, 3921, 3949, 3939, 0, 1, 14005, -89.900, 0.000, 54.500, 0.000, 0.000, -2.900, 0.0, , , , , , 96, , , 11, 11, 11
36.0257489, -118.5730063, 25.400, 14:41:14.241, 16, 0.00, 0.54, 96, 1.600, 1.600, 53.600, 367, 100, 96, 28, 23522, -20460, 5143, 5358, 18, 14, 1530740474.241, 14, 0, 1024, 1024, 1024, 1024, 0, 6, 3922, 3893, 3901, 3921, 3949, 3939, 0, 1, 14106, -89.900, 0.000, 54.500, 0.000, 0.000, -2.900, 0.0, , , , , , 96, , , 11, 11, 11
36.0257489, -118.5730063, 26.000, 14:41:14.341, 16, 0.00, 0.54, 96, 1.400, 1.300, 53.700, 367, 100, 96, 28, 23522, -20460, 5143, 5358, 18, 14, 1530740474.341, 13, 0, 1024, 1024, 1024, 1024, 0, 6, 3922, 3893, 3901, 3921, 3949, 3939, 0, 1, 14206, -89.900, 0.000, 54.500, 0.000, 0.000, -2.900, 0.0, , , , , , 96, , , 11, 11, 11
36.0257489, -118.5730064, 26.300, 14:41:14.440, 16, 0.00, 0.54, 96, 1.200, 1.100, 53.600, 367, 100, 96, 28, 23522, -20460, 5143, 5358, 18, 14, 1530740474.441, 15, 0, 1024, 1024, 1024, 1024, 0, 6, 3922, 3893, 3901, 3921, 3949, 3939, 0, 1, 14305, -89.900, 0.000, 54.500, 0.000, 0.000, -2.900, 0.0, , , , , , 96, , , 11, 11, 11
36.0257489, -118.5730064, 26.300, 14:41:14.541, 16, 0.00, 0.54, 96, 1.200, 1.100, 53.600, 367, 100, 96, 28, 23522, -20460, 5143, 5358, 18, 14, 1530740474.541, 116, 0, 1024, 1024, 1024, 1024, 0, 6, 3922, 3893, 3901, 3921, 3949, 3939, 0, 1, 14406, -89.900, 0.000, 54.500, 0.000, 0.000, -2.900, 0.0, , , , , , 96, , , 11, 11, 11
36.0257489, -118.5730064, 26.900, 14:41:14.644, 16, 0.00, 0.53, 96, 1.700, 1.100, 53.400, 367, 100, 96, 28, 23517, -20490, 5143, 5358, 18, 14, 1530740474.644, 4, 0, 1024, 1024, 1024, 1024, 0, 6, 3922, 3893, 3901, 3921, 3949, 3939, 0, 1, 14508, -89.900, 0.000, 54.500, 0.000, 0.000, -2.800, 0.0, , , , , , 96, , , 11, 11, 11
36.0257489, -118.5730065, 27.200, 14:41:14.741, 16, 0.00, 0.53, 96, 2.000, 1.000, 53.400, 367, 100, 97, 28, 23517, -20490, 5143, 5358, 18, 14, 1530740474.742, 10, 0, 1024, 1024, 1024, 1024, 0, 6, 3922, 3893, 3901, 3921, 3949, 3939, 0, 1, 14606, -89.900, 0.000, 54.500, 0.000, 0.000, -2.900, 0.0, , , , , , 96, , , 11, 11, 11
36.0257489, -118.5730065, 27.200, 14:41:14.841, 16, 0.00, 0.53, 96, 2.000, 1.000, 53.400, 367, 100, 97, 28, 23517, -20490, 5143, 5358, 18, 14, 1530740474.842, 110, 0, 1024, 1024, 1024, 1024, 0, 6, 3922, 3893, 3901, 3921, 3949, 3939, 0, 1, 14706, -89.900, 0.000, 54.500, 0.000, 0.000, -2.900, 0.0, , , , , , 96, , , 11, 11, 11
36.0257489, -118.5730065, 27.500, 14:41:14.941, 16, 0.00, 0.53, 96, 1.900, 1.100, 53.300, 367, 100, 97, 28, 23517, -20490, 5143, 5358, 18, 14, 1530740474.942, 94, 0, 1024, 1024, 1024, 1024, 0, 6, 3922, 3893, 3901, 3921, 3949, 3939, 0, 1, 14806, -89.900, 0.000, 54.500, 0.000, 0.000, -2.900, 0.0, , , , , , 96, , , 11, 11, 11
36.0257489, -118.5730065, 27.500, 14:41:15.041, 16, 0.00, 0.53, 96, 1.900, 1.100, 53.300, 367, 100, 97, 28, 23517, -20490, 5143, 5358, 18, 14, 1530740475.042, 194, 0, 1024, 1024, 1024, 1024, 0, 6, 3922, 3893, 3901, 3921, 3949, 3939, 0, 1, 14906, -89.900, 0.000, 54.500, 0.000, 0.000, -2.900, 0.0, , , , , , 96, , , 11, 11, 11
36.0257490, -118.5730063, 28.100, 14:41:15.141, 16, 0.00, 0.54, 96, 2.100, 2.100, 53.700, 367, 100, 97, 28, 23517, -20490, 5143, 5358, 18, 14, 1530740475.141, 85, 0, 1024, 1024, 1024, 1024, 0, 6, 3922, 3893, 3901, 3921, 3949, 3939, 0, 1, 15006, -89.900, 0.000, 54.500, 0.000, 0.000, -2.900, 0.0, , , , , , 96, , , 11, 11, 11
36.0257490, -118.5730063, 28.100, 14:41:15.241, 16, 0.00, 0.54, 96, 2.100, 2.100, 53.700, 367, 100, 97, 28, 23517, -20490, 5143, 5358, 18, 14, 1530740475.242, 186, 0, 1024, 1024, 1024, 1024, 0, 6, 3922, 3893, 3901, 3921, 3949, 3939, 0, 1, 15106, -89.900, 0.000, 54.500, 0.000, 0.000, -2.900, 0.0, , , , , , 96, , , 11, 11, 11
36.0257490, -118.5730063, 28.800, 14:41:15.341, 16, 0.00, 0.55, 96, 1.500, 2.700, 54.500, 367, 100, 94, 28, 23517, -20490, 5143, 5358, 18, 14, 1530740475.342, 76, 0, 1024, 1024, 1024, 1024, 0, 6, 3922, 3893, 3901, 3921, 3949, 3939, 0, 1, 15206, -89.900, 0.000, 54.500, 0.000, 0.000, -3.000, 0.0, , , , , , 96, , , 11, 11, 11
36.0257490, -118.5730063, 29.100, 14:41:15.441, 16, 0.00, 0.55, 96, 1.600, 2.600, 54.600, 367, 100, 94, 28, 23517, -20490, 5143, 5358, 18, 14, 1530740475.442, 84, 0, 1024, 1024, 1024, 1024, 0, 6, 3922, 3893, 3901, 3921, 3949, 3939, 0, 1, 15306, -89.900, 0.000, 54.500, 0.000, 0.000, -3.000, 0.0, , , , , , 96, , , 11, 11, 11
36.0257490, -118.5730063, 29.400, 14:41:15.541, 16, 0.00, 0.55, 96, 1.500, 2.100, 54.400, 367, 100, 94, 28, 23517, -20490, 5143, 5358, 18, 14, 1530740475.542, 49, 0, 1024, 1024, 1024, 1024, 0, 6, 3922, 3893, 3901, 3921, 3949, 3939, 0, 1, 15406, -89.900, 0.000, 54.500, 0.000, 0.000, -2.900, 0.0, , , , , , 96, , , 11, 11, 11
36.0257490, -118.5730064, 29.700, 14:41:15.641, 16, 0.00, 0.54, 96, 1.700, 1.600, 54.100, 367, 100, 94, 28, 23517, -20490, 5143, 5358, 18, 14, 1530740475.641, 53, 0, 1024, 1024, 1024, 1024, 0, 6, 3922, 3893, 3901, 3921, 3949, 3939, 0, 1, 15506, -90.000, 0.000, 54.500, 0.000, 0.000, -2.900, 0.0, , , , , , 96, , , 11, 11, 11
36.0257489, -118.5730065, 30.100, 14:41:15.741, 16, 0.00, 0.53, 96, 1.800, 1.100, 53.800, 367, 100, 94, 28, 23517, -20490, 5143, 5358, 18, 14, 1530740475.742, 48, 0, 1024, 1024, 1024, 1024, 0, 6, 3922, 3893, 3901, 3921, 3949, 3939, 0, 1, 15606, -90.000, 0.000, 54.500, 0.000, 0.000, -2.900, 0.0, , , , , , 96, , , 11, 11, 11
36.0257489, -118.5730066, 30.400, 14:41:15.841, 16, 0.00, 0.53, 96, 2.200, 0.800, 53.500, 367, 100, 94, 28, 23517, -20490, 5143, 5358, 18, 14, 1530740475.842, 49, 0, 1024, 1024, 1024, 1024, 0, 6, 3922, 3893, 3901, 3921, 3949, 3939, 0, 1, 15706, -90.000, 0.000, 54.500, 0.000, 0.000, -2.800, 0.0, , , , , , 96, , , 11, 11, 11
36.0257489, -118.5730067, 30.700, 14:41:15.942, 16, 0.00, 0.52, 96, 2.300, 0.300, 53.300, 367, 100, 94, 28, 23517, -20490, 5143, 5358, 18, 14, 1530740475.942, 53, 0, 1024, 1024, 1024, 1024, 0, 6, 3922, 3893, 3901, 3921, 3949, 3939, 0, 1, 15806, -90.000, 0.000, 54.500, 0.000, 0.000, -2.800, 0.0, , , , , , 96, , , 11, 11, 11
36.0257489, -118.5730068, 31.000, 14:41:16.041, 16, 0.00, 0.52, 96, 2.600, 0.100, 53.400, 367, 100, 94, 28, 23517, -20490, 5143, 5358, 18, 14, 1530740476.041, 33, 0, 1024, 1024, 1024, 1024, 0, 6, 3922, 3893, 3901, 3921, 3949, 3939, 0, 1, 15905, -89.900, 0.000, 54.500, 0.000, 0.000, -2.800, 0.0, , , , , , 96, , , 11, 11, 11
36.0257490, -118.5730069, 31.300, 14:41:16.141, 16, 0.00, 0.52, 96, 3.200, 0.400, 53.400, 367, 100, 94, 28, 23541, -19242, 5143, 5358, 18, 14, 1530740476.142, 14, 0, 1024, 1024, 1024, 1024, 0, 6, 3934, 3930, 3904, 3932, 3968, 3939, 0, 1, 16006, -89.900, 0.000, 54.500, 0.000, 0.000, -2.800, 0.0, , , , , , 96, , , 11, 11, 11
36.0257490, -118.5730070, 31.600, 14:41:16.242, 16, 0.00, 0.52, 96, 3.600, 0.600, 53.500, 367, 100, 91, 28, 23541, -19242, 5143, 5358, 18, 14, 1530740476.242, 28, 0, 1024, 1024, 1024, 1024, 0, 6, 3934, 3930, 3904, 3932, 3968, 3939, 0, 1, 16106, -89.900, 0.000, 54.500, 0.000, 0.000, -2.800, 0.0, , , , , , 96, , , 11, 11, 11
36.0257491, -118.5730071, 31.900, 14:41:16.342, 16, 0.00, 0.52, 96, 4.000, 0.800, 53.500, 367, 100, 91, 28, 23541, -19242, 5143, 5358, 18, 14, 1530740476.342, 20, 0, 1024, 1024, 1024, 1024, 0, 6, 3934, 3930, 3904, 3932, 3968, 3939, 0, 1, 16206, -89.900, 0.000, 54.500, 0.000, 0.000, -2.700, 0.0, , , , , , 96, , , 11, 11, 11
36.0257492, -118.5730072, 32.200, 14:41:16.442, 16, 0.00, 0.53, 96, 3.900, 0.900, 53.600, 367, 100, 91, 28, 23541, -19242, 5143, 5358, 18, 14, 1530740476.442, 40, 0, 1024, 1024, 1024, 1024, 0, 6, 3934, 3930, 3904, 3932, 3968, 3939, 0, 1, 16306, -89.900, 0.000, 54.500, 0.000, 0.000, -2.800, 0.0, , , , , , 96, , , 11, 11, 11
36.0257492, -118.5730072, 32.200, 14:41:16.541, 16, 0.00, 0.53, 96, 3.900, 0.900, 53.600, 367, 100, 91, 28, 23541, -19242, 5143, 5358, 18, 14, 1530740476.541, 139, 0, 1024, 1024, 1024, 1024, 0, 6, 3934, 3930, 3904, 3932, 3968, 3939, 0, 1, 16405, -89.900, 0.000, 54.500, 0.000, 0.000, -2.800, 0.0, , , , , , 96, , , 11, 11, 11
36.0257492, -118.5730072, 32.200, 14:41:16.641, 16, 0.00, 0.53, 96, 3.900, 0.900, 53.600, 367, 100, 91, 28, 23541, -19242, 5143, 5358, 18, 14, 1530740476.642, 240, 0, 1024, 1024, 1024, 1024, 0, 6, 3934, 3930, 3904, 3932, 3968, 3939, 0, 1, 16506, -89.900, 0.000, 54.500, 0.000, 0.000, -2.800, 0.0, , , , , , 96, , , 11, 11, 11
36.0257493, -118.5730074, 33.100, 14:41:16.742, 16, 0.00, 0.53, 96, 4.100, 1.100, 53.500, 367, 100, 93, 28, 23541, -19242, 5143, 5358, 18, 14, 1530740476.742, 16, 0, 1024, 1024, 1024, 1024, 0, 6, 3934, 3930, 3904, 3932, 3968, 3939, 0, 1, 16606, -89.900, 0.000, 54.500, 0.000, 0.000, -2.700, 0.0, , , , , , 96, , , 11, 11, 11
36.0257493, -118.5730074, 33.100, 14:41:16.842, 16, 0.00, 0.53, 96, 4.100, 1.100, 53.500, 367, 100, 93, 28, 23541, -19242, 5143, 5358, 18, 14, 1530740476.842, 116, 0, 1024, 1024, 1024, 1024, 0, 6, 3934, 3930, 3904, 3932, 3968, 3939, 0, 1, 16706, -89.900, 0.000, 54.500, 0.000, 0.000, -2.700, 0.0, , , , , , 96, , , 11, 11, 11
36.0257495, -118.5730076, 34.000, 14:41:16.946, 16, 0.00, 0.54, 96, 4.000, 1.000, 53.600, 367, 100, 93, 28, 23541, -19242, 5143, 5358, 18, 14, 1530740476.946, 2, 0, 1024, 1024, 1024, 1024, 0, 6, 3934, 3930, 3904, 3932, 3968, 3939, 0, 1, 16810, -89.900, 0.000, 54.500, 0.000, 0.000, -2.700, 0.0, , , , , , 96, , , 11, 11, 11
36.0257495, -118.5730076, 34.000, 14:41:17.041, 16, 0.00, 0.54, 96, 4.000, 1.000, 53.600, 367, 100, 93, 28, 23541, -19242, 5143, 5358, 18, 14, 1530740477.041, 97, 0, 1024, 1024, 1024, 1024, 0, 6, 3934, 3930, 3904, 3932, 3968, 3939, 0, 1, 16905, -89.900, 0.000, 54.500, 0.000, 0.000, -2.700, 0.0, , , , , , 96, , , 11, 11, 11
36.0257496, -118.5730077, 34.300, 14:41:17.141, 16, 0.00, 0.54, 96, 4.300, 1.000, 53.600, 367, 100, 93, 28, 23541, -19242, 5143, 5358, 18, 14, 1530740477.142, 77, 0, 1024, 1024, 1024, 1024, 0, 6, 3934, 3930, 3904, 3932, 3968, 3939, 0, 1, 17006, -89.900, 0.000, 54.500, 0.000, 0.000, -2.700, 0.0, , , , , , 96, , , 11, 11, 11
36.0257497, -118.5730078, 34.800, 14:41:17.242, 16, 0.00, 0.55, 96, 4.300, 0.900, 53.700, 367, 100, 89, 28, 23654, -17651, 5143, 5358, 18, 14, 1530740477.242, 3, 0, 1024, 1024, 1024, 1024, 0, 6, 3934, 3930, 3904, 3932, 3968, 3939, 0, 1, 17106, -89.900, 0.000, 54.500, 0.000, 0.000, -2.700, 0.0, , , , , , 96, , , 11, 11, 11
36.0257497, -118.5730078, 34.800, 14:41:17.342, 16, 0.00, 0.55, 96, 4.300, 0.900, 53.700, 367, 100, 89, 28, 23654, -17651, 5143, 5358, 18, 14, 1530740477.342, 103, 0, 1024, 1024, 1024, 1024, 0, 6, 3934, 3930, 3904, 3932, 3968, 3939, 0, 1, 17206, -89.900, 0.000, 54.500, 0.000, 0.000, -2.700, 0.0, , , , , , 96, , , 11, 11, 11
36.0257497, -118.5730078, 35.100, 14:41:17.442, 16, 0.00, 0.56, 96, 4.600, 1.000, 53.600, 367, 100, 89, 28, 23654, -17651, 5143, 5358, 18, 14, 1530740477.442, 97, 0, 1024, 1024, 1024, 1024, 0, 6, 3934, 3930, 3904, 3932, 3968, 3939, 0, 1, 17306, -89.900, 0.000, 54.500, 0.000, 0.000, -2.800, 0.0, , , , , , 96, , , 11, 11, 11
36.0257498, -118.5730079, 35.400, 14:41:17.542, 16, 0.10, 0.56, 96, 5.100, 1.000, 53.700, 367, 100, 89, 28, 23654, -17651, 5143, 5358, 18, 14, 1530740477.542, 79, 0, 1024, 1024, 1024, 1024, 0, 6, 3934, 3930, 3904, 3932, 3968, 3939, 0, 1, 17406, -89.900, 0.000, 54.500, 0.100, 0.000, -2.800, 0.0, , , , , , 96, , , 11, 11, 11
36.0257499, -118.5730079, 35.700, 14:41:17.641, 16, 0.10, 0.57, 96, 5.400, 1.600, 53.700, 367, 100, 89, 28, 23654, -17651, 5143, 5358, 18, 14, 1530740477.642, 82, 0, 1024, 1024, 1024, 1024, 0, 6, 3934, 3930, 3904, 3932, 3968, 3939, 0, 1, 17506, -89.900, 0.000, 54.400, 0.100, 0.000, -2.700, 0.0, , , , , , 96, , , 11, 11, 11
36.0257499, -118.5730079, 35.700, 14:41:17.742, 16, 0.10, 0.57, 96, 5.400, 1.600, 53.700, 367, 100, 85, 28, 23654, -17651, 5143, 5358, 18, 14, 1530740477.742, 183, 0, 1024, 1024, 1024, 1024, 0, 6, 3934, 3930, 3904, 3932, 3968, 3939, 0, 1, 17606, -89.900, 0.000, 54.400, 0.100, 0.000, -2.700, 0.0, , , , , , 96, , , 11, 11, 11
36.0257499, -118.5730079, 35.700, 14:41:17.842, 16, 0.10, 0.57, 96, 5.400, 1.600, 53.700, 367, 100, 85, 28, 23654, -17651, 5143, 5358, 18, 14, 1530740477.842, 283, 0, 1024, 1024, 1024, 1024, 0, 6, 3934, 3930, 3904, 3932, 3968, 3939, 0, 1, 17706, -89.900, 0.000, 54.400, 0.100, 0.000, -2.700, 0.0, , , , , , 96, , , 11, 11, 11
36.0257501, -118.5730078, 36.500, 14:41:17.942, 16, 0.00, 0.60, 96, 4.900, 2.500, 53.600, 367, 100, 85, 28, 23654, -17651, 5143, 5358, 18, 14, 1530740477.942, 68, 0, 1024, 1024, 1024, 1024, 0, 6, 3934, 3930, 3904, 3932, 3968, 3939, 0, 1, 17806, -89.900, 0.000, 54.400, 0.000, 0.000, -2.600, 0.0, , , , , , 96, , , 11, 11, 11
36.0257501, -118.5730078, 36.500, 14:41:18.042, 16, 0.00, 0.60, 96, 4.900, 2.500, 53.600, 367, 100, 85, 28, 23654, -17651, 5143, 5358, 18, 14, 1530740478.042, 168, 0, 1024, 1024, 1024, 1024, 0, 6, 3934, 3930, 3904, 3932, 3968, 3939, 0, 1, 17906, -89.900, 0.000, 54.400, 0.000, 0.000, -2.600, 0.0, , , , , , 96, , , 11, 11, 11
36.0257502, -118.5730077, 37.000, 14:41:18.142, 16, 0.00, 0.61, 96, 4.300, 3.200, 53.200, 367, 100, 85, 28, 23654, -17651, 5143, 5358, 18, 14, 1530740478.142, 24, 0, 1024, 1024, 1024, 1024, 0, 6, 3946, 3939, 3920, 3944, 3974, 3957, 0, 1, 18006, -89.900, 0.000, 54.400, 0.000, 0.000, -2.700, 0.0, , , , , , 96, , , 11, 11, 11
36.0257502, -118.5730076, 37.300, 14:41:18.242, 16, 0.00, 0.62, 96, 4.500, 3.400, 53.200, 367, 100, 89, 28, 23654, -17651, 5143, 5358, 18, 14, 1530740478.242, 61, 0, 1024, 1024, 1024, 1024, 0, 6, 3946, 3939, 3920, 3944, 3974, 3957, 0, 1, 18106, -89.900, 0.000, 54.400, 0.000, 0.000, -2.700, 0.0, , , , , , 96, , , 11, 11, 11
36.0257502, -118.5730075, 37.500, 14:41:18.342, 16, 0.00, 0.62, 96, 4.200, 3.200, 53.300, 367, 100, 89, 28, 23654, -17651, 5143, 5358, 18, 14, 1530740478.342, 43, 0, 1024, 1024, 1024, 1024, 0, 6, 3946, 3939, 3920, 3944, 3974, 3957, 0, 1, 18206, -89.900, 0.000, 54.400, 0.000, 0.000, -2.800, 0.0, , , , , , 96, , , 11, 11, 11
36.0257502, -118.5730074, 37.800, 14:41:18.442, 16, 0.00, 0.62, 96, 3.700, 3.100, 53.400, 367, 100, 89, 28, 23654, -17651, 5143, 5358, 18, 14, 1530740478.442, 54, 0, 1024, 1024, 1024, 1024, 0, 6, 3946, 3939, 3920, 3944, 3974, 3957, 0, 1, 18306, -89.900, 0.000, 54.400, 0.000, 0.000, -2.800, 0.0, , , , , , 96, , , 11, 11, 11
36.0257502, -118.5730073, 38.100, 14:41:18.542, 16, 0.00, 0.62, 96, 3.300, 2.800, 53.600, 367, 100, 89, 28, 23654, -17651, 5143, 5358, 18, 14, 1530740478.542, 43, 0, 1024, 1024, 1024, 1024, 0, 6, 3946, 3939, 3920, 3944, 3974, 3957, 0, 1, 18406, -89.900, 0.000, 54.400, 0.000, 0.000, -2.900, 0.0, , , , , , 96, , , 11, 11, 11
36.0257501, -118.5730073, 38.400, 14:41:18.642, 16, 0.00, 0.62, 96, 3.300, 2.500, 53.700, 367, 100, 89, 28, 23654, -17651, 5143, 5358, 18, 14, 1530740478.642, 42, 0, 1024, 1024, 1024, 1024, 0, 6, 3946, 3939, 3920, 3944, 3974, 3957, 0, 1, 18506, -89.900, 0.000, 54.400, 0.000, 0.000, -2.900, 0.0, , , , , , 96, , , 11, 11, 11
36.0257501, -118.5730072, 38.700, 14:41:18.742, 16, 0.00, 0.61, 96, 3.200, 2.100, 53.800, 367, 100, 90, 28, 23654, -17651, 5143, 5358, 18, 14, 1530740478.742, 36, 0, 1024, 1024, 1024, 1024, 0, 6, 3946, 3939, 3920, 3944, 3974, 3957, 0, 1, 18606, -89.900, 0.000, 54.400, 0.000, 0.000, -2.900, 0.0, , , , , , 96, , , 11, 11, 11
36.0257500, -118.5730071, 38.900, 14:41:18.842, 16, 0.00, 0.61, 96, 2.700, 2.100, 53.800, 367, 100, 90, 28, 23654, -17651, 5143, 5358, 18, 14, 1530740478.842, 41, 0, 1024, 1024, 1024, 1024, 0, 6, 3946, 3939, 3920, 3944, 3974, 3957, 0, 1, 18706, -89.900, 0.000, 54.400, 0.000, 0.000, -2.800, 0.0, , , , , , 96, , , 11, 11, 11
36.0257500, -118.5730070, 39.200, 14:41:18.942, 16, 0.00, 0.61, 96, 2.500, 2.400, 53.900, 367, 100, 90, 28, 23654, -17651, 5143, 5358, 18, 14, 1530740478.942, 8, 0, 1024, 1024, 1024, 1024, 0, 6, 3946, 3939, 3920, 3944, 3974, 3957, 0, 1, 18806, -89.900, 0.000, 54.400, 0.000, 0.000, -2.900, 0.0, , , , , , 96, , , 11, 11, 11
36.0257500, -118.5730069, 39.500, 14:41:19.042, 16, 0.00, 0.61, 96, 2.700, 2.700, 53.900, 367, 100, 90, 28, 23654, -17651, 5143, 5358, 18, 14, 1530740479.042, 20, 0, 1024, 1024, 1024, 1024, 0, 6, 3946, 3939, 3920, 3944, 3974, 3957, 0, 1, 18906, -89.900, 0.000, 54.400, 0.000, 0.000, -2.900, 0.0, , , , , , 96, , , 11, 11, 11
36.0257500, -118.5730068, 39.800, 14:41:19.142, 16, 0.00, 0.62, 96, 2.900, 3.000, 54.000, 367, 100, 90, 28, 23626, -18147, 5143, 5358, 18, 14, 1530740479.142, 16, 0, 1024, 1024, 1024, 1024, 0, 6, 3937, 3913, 3908, 3916, 3959, 3944, 0, 1, 19006, -89.900, 0.000, 54.400, 0.000, 0.000, -3.000, 0.0, , , , , , 96, , , 11, 11, 11
36.0257500, -118.5730067, 40.100, 14:41:19.242, 16, 0.00, 0.62, 96, 2.800, 3.500, 54.000, 367, 100, 97, 28, 23626, -18147, 5143, 5358, 18, 14, 1530740479.242, 24, 0, 1024, 1024, 1024, 1024, 0, 6, 3937, 3913, 3908, 3916, 3959, 3944, 0, 1, 19106, -89.900, 0.000, 54.400, 0.000, 0.000, -3.000, 0.0, , , , , , 96, , , 11, 11, 11
36.0257500, -118.5730066, 40.400, 14:41:19.349, 16, 0.00, 0.63, 96, 2.800, 3.700, 54.000, 367, 100, 97, 28, 23626, -18147, 5143, 5358, 18, 14, 1530740479.349, 1, 0, 1024, 1024, 1024, 1024, 0, 6, 3937, 3913, 3908, 3916, 3959, 3944, 0, 1, 19213, -89.900, 0.000, 54.400, 0.000, 0.000, -3.000, 0.0, , , , , , 96, , , 11, 11, 11
36.0257500, -118.5730065, 41.000, 14:41:19.441, 16, 0.00, 0.63, 96, 3.200, 3.900, 53.900, 367, 100, 97, 28, 23626, -18147, 5143, 5358, 18, 14, 1530740479.442, 6, 0, 1024, 1024, 1024, 1024, 0, 6, 3937, 3913, 3908, 3916, 3959, 3944, 0, 1, 19306, -89.900, 0.000, 54.400, 0.000, 0.000, -3.000, 0.0, , , , , , 96, , , 11, 11, 11
36.0257499, -118.5730064, 41.300, 14:41:19.542, 16, 0.00, 0.63, 96, 3.200, 4.000, 53.700, 367, 100, 97, 28, 23626, -18147, 5143, 5358, 18, 14, 1530740479.542, 11, 0, 1024, 1024, 1024, 1024, 0, 6, 3937, 3913, 3908, 3916, 3959, 3944, 0, 1, 19406, -89.900, 0.000, 54.400, 0.000, 0.000, -3.000, 0.0, , , , , , 96, , , 11, 11, 11
36.0257499, -118.5730064, 41.300, 14:41:19.642, 16, 0.00, 0.63, 96, 3.200, 4.000, 53.700, 367, 100, 97, 28, 23626, -18147, 5143, 5358, 18, 14, 1530740479.642, 111, 0, 1024, 1024, 1024, 1024, 0, 6, 3937, 3913, 3908, 3916, 3959, 3944, 0, 1, 19506, -89.900, 0.000, 54.400, 0.000, 0.000, -3.000, 0.0, , , , , , 96, , , 11, 11, 11
36.0257499, -118.5730062, 41.900, 14:41:19.742, 16, 0.00, 0.64, 96, 2.500, 3.900, 53.200, 367, 100, 98, 28, 23512, -19000, 5143, 5358, 18, 14, 1530740479.742, 3, 0, 1024, 1024, 1024, 1024, 0, 6, 3920, 3902, 3892, 3915, 3959, 3912, 0, 1, 19606, -89.900, 0.000, 54.400, 0.000, 0.000, -3.200, 0.0, , , , , , 96, , , 11, 11, 11
36.0257499, -118.5730062, 41.900, 14:41:19.842, 16, 0.00, 0.64, 96, 2.500, 3.900, 53.200, 367, 100, 98, 28, 23512, -19000, 5143, 5358, 18, 14, 1530740479.842, 103, 0, 1024, 1024, 1024, 1024, 0, 6, 3920, 3902, 3892, 3915, 3959, 3912, 0, 1, 19706, -89.900, 0.000, 54.400, 0.000, 0.000, -3.200, 0.0, , , , , , 96, , , 11, 11, 11
36.0257499, -118.5730062, 41.900, 14:41:19.942, 16, 0.00, 0.64, 96, 2.500, 3.900, 53.200, 367, 100, 98, 28, 23512, -19000, 5143, 5358, 18, 14, 1530740479.942, 203, 0, 1024, 1024, 1024, 1024, 0, 6, 3920, 3902, 3892, 3915, 3959, 3912, 0, 1, 19806, -89.900, 0.000, 54.400, 0.000, 0.000, -3.200, 0.0, , , , , , 96, , , 11, 11, 11
36.0257498, -118.5730059, 42.600, 14:41:20.042, 16, 0.10, 0.64, 96, 1.500, 4.300, 52.800, 367, 100, 98, 28, 23512, -19000, 5143, 5358, 18, 14, 1530740480.042, 65, 0, 1024, 1024, 1024, 1024, 0, 6, 3920, 3902, 3892, 3915, 3959, 3912, 0, 1, 19906, -89.900, 0.000, 54.400, 0.000, 0.100, -3.100, 0.0, , , , , , 96, , , 11, 11, 11
36.0257497, -118.5730057, 42.900, 14:41:20.142, 16, 0.10, 0.65, 96, 1.200, 4.300, 52.700, 367, 100, 98, 28, 23512, -19000, 5143, 5358, 18, 14, 1530740480.142, 83, 0, 1024, 1024, 1024, 1024, 0, 6, 3920, 3902, 3892, 3915, 3959, 3912, 0, 1, 20006, -89.900, 0.000, 54.400, 0.000, 0.100, -3.100, 0.0, , , , , , 96, , , 11, 11, 11
36.0257497, -118.5730056, 43.200, 14:41:20.242, 16, 0.00, 0.65, 96, 1.200, 4.500, 52.800, 367, 100, 98, 28, 23512, -19000, 5143, 5358, 18, 14, 1530740480.242, 75, 0, 1024, 1024, 1024, 1024, 0, 6, 3920, 3902, 3892, 3915, 3959, 3912, 0, 1, 20106, -89.900, 0.000, 54.400, 0.000, 0.000, -3.000, 0.0, , , , , , 96, , , 11, 11, 11
36.0257496, -118.5730055, 43.600, 14:41:20.342, 16, 0.00, 0.65, 96, 1.000, 4.400, 53.100, 367, 100, 98, 28, 23512, -19000, 5143, 5358, 18, 14, 1530740480.342, 54, 0, 1024, 1024, 1024, 1024, 0, 6, 3920, 3902, 3892, 3915, 3959, 3912, 0, 1, 20206, -89.900, 0.000, 54.400, 0.000, 0.000, -3.000, 0.0, , , , , , 96, , , 11, 11, 11
36.0257496, -118.5730054, 43.900, 14:41:20.442, 16, 0.00, 0.66, 96, 1.200, 4.500, 53.400, 367, 100, 98, 28, 23512, -19000, 5143, 5358, 18, 14, 1530740480.442, 56, 0, 1024, 1024, 1024, 1024, 0, 6, 3920, 3902, 3892, 3915, 3959, 3912, 0, 1, 20306, -89.900, 0.000, 54.400, 0.000, 0.000, -3.000, 0.0, , , , , , 96, , , 11, 11, 11
36.0257496, -118.5730053, 44.200, 14:41:20.542, 16, 0.00, 0.66, 96, 1.200, 4.400, 53.700, 367, 100, 98, 28, 23512, -19000, 5143, 5358, 18, 14, 1530740480.542, 64, 0, 1024, 1024, 1024, 1024, 0, 6, 3920, 3902, 3892, 3915, 3959, 3912, 0, 1, 20406, -89.900, 0.000, 54.400, 0.000, 0.000, -2.900, 0.0, , , , , , 96, , , 11, 11, 11
36.0257496, -118.5730053, 44.500, 14:41:20.642, 16, 0.00, 0.66, 96, 1.300, 4.200, 54.000, 367, 100, 98, 28, 23465, -17922, 5090, 5358, 18, 14, 1530740480.642, 58, 0, 1024, 1024, 1024, 1024, 0, 6, 3937, 3926, 3887, 3910, 3944, 3912, 0, 1, 20506, -89.900, 0.000, 54.400, 0.000, 0.000, -2.900, 0.0, , , , , , 96, , , 11, 11, 11
36.0257495, -118.5730052, 44.800, 14:41:20.742, 16, 0.00, 0.66, 96, 1.400, 3.900, 54.300, 367, 100, 98, 28, 23465, -17922, 5090, 5358, 18, 14, 1530740480.742, 49, 0, 1024, 1024, 1024, 1024, 0, 6, 3937, 3926, 3887, 3910, 3944, 3912, 0, 1, 20606, -89.900, 0.000, 54.400, 0.000, 0.000, -2.900, 0.0, , , , , , 96, , , 11, 11, 11
36.0257495, -118.5730052, 45.100, 14:41:20.842, 16, 0.00, 0.66, 96, 1.900, 3.800, 54.400, 367, 100, 98, 28, 23465, -17922, 5090, 5358, 18, 14, 1530740480.842, 54, 0, 1024, 1024, 1024, 1024, 0, 6, 3937, 3926, 3887, 3910, 3944, 3912, 0, 1, 20706, -89.900, 0.000, 54.400, 0.000, 0.000, -2.900, 0.0, , , , , , 96, , , 11, 11, 11
36.0257495, -118.5730053, 45.400, 14:41:20.941, 16, 0.00, 0.65, 96, 2.100, 3.600, 54.300, 367, 100, 98, 28, 23465, -17922, 5090, 5358, 18, 14, 1530740480.941, 33, 0, 1024, 1024, 1024, 1024, 0, 6, 3937, 3926, 3887, 3910, 3944, 3912, 0, 1, 20805, -89.900, 0.000, 54.400, 0.000, 0.000, -2.900, 0.0, , , , , , 96, , , 11, 11, 11
36.0257495, -118.5730053, 45.700, 14:41:21.042, 16, 0.00, 0.65, 96, 2.100, 3.500, 54.200, 367, 100, 98, 28, 23465, -17922, 5090, 5358, 18, 14, 1530740481.042, 38, 0, 1024, 1024, 1024, 1024, 0, 6, 3937, 3926, 3887, 3910, 3944, 3912, 0, 1, 20906, -89.900, 0.000, 54.400, 0.000, 0.000, -3.000, 0.0, , , , , , 96, , , 11, 11, 11
36.0257494, -118.5730053, 46.000, 14:41:21.142, 16, 0.00, 0.65, 96, 2.100, 3.600, 53.900, 367, 100, 98, 28, 23465, -17922, 5090, 5358, 18, 14, 1530740481.142, 28, 0, 1024, 1024, 1024, 1024, 0, 6, 3937, 3926, 3887, 3910, 3944, 3912, 0, 1, 21006, -89.900, 0.000, 54.400, 0.000, 0.000, -3.000, 0.0, , , , , , 96, , , 11, 11, 11
36.0257494, -118.5730053, 46.300, 14:41:21.242, 16, 0.00, 0.64, 95, 1.700, 3.600, 53.500, 367, 100, 98, 28, 23465, -17922, 5090, 5358, 18, 14, 1530740481.242, 33, 0, 1024, 1024, 1024, 1024, 0, 6, 3937, 3926, 3887, 3910, 3944, 3912, 0, 1, 21107, -89.900, 0.000, 54.400, 0.000, 0.000, -2.900, 0.0, , , , , , 96, , , 11, 11, 11
