latitude,longitude,altitude(feet),ascent(feet),speed(mph),distance(feet),time(millisecond),datetime(utc),satellites,gpslevel,voltage(v),max_altitude(feet),max_ascent(feet),max_speed(mph),max_distance(feet), xSpeed(mph), ySpeed(mph), zSpeed(mph), compass_heading(degrees), pitch(degrees), roll(degrees),isPhoto,isVideo,rc_elevator,rc_aileron,rc_throttle,rc_rudder,gimbal_heading(degrees),gimbal_pitch(degrees),battery_percent,voltageCell1,voltageCell2,voltageCell3,voltageCell4,voltageCell5,voltageCell6,current(A),battery_temperature(f),flycStateRaw,flycState,message
36.0257466,-118.5730253,6540.3019953789,-0.328084,0.6263432,0,3100,2018-07-04 22:35:18,10,0,0,6540.3019953789,0,0.6263432,0,0,0,0,56.8, -2.8, 0,1,0,1024,1024,1024,1024,57.1,-89.9,98,4.245,4.236,4.236,4.262,4.217,4.235,0,80.6,11,AutoTakeoff,DJI_0455.jpg Starting Mission from Lat/Long: 36.02575/-118.57303 Camera: Zenmuse X3 - Overlap: 90/90 - Active Connection: No
36.0257468,-118.5730249,6540.6300793789,0,0.8052984,0.138764112052,3200,2018-07-04 22:35:18,10,0,0,6540.6300793789,0,0.8052984,0.138764112052,0,0,0,56.8, -1.4, 0,0,0,1024,1024,1024,1024,57.1,-89.9,98,4.245,4.236,4.236,4.262,4.217,4.235,0,80.6,11,AutoTakeoff,
36.025747,-118.5730245,6540.6300793789,0,0.8052984,0.277528224104,3300,2018-07-04 22:35:18,10,0,0,6540.6300793789,0,0.8052984,0.277528224104,0,0,0,56.8, 0.7, 0,0,0,1024,1024,1024,1024,57.1,-89.9,98,4.245,4.236,4.236,4.262,4.217,4.235,0,80.6,11,AutoTakeoff,
36.0257472,-118.5730241,6540.6300793789,0,0.8052984,0.41629266424,3400,2018-07-04 22:35:18,10,0,0,6540.6300793789,0,0.8052984,0.41629266424,0,0,0,56.8, 1.6, -0.1,0,0,1024,1024,1024,1024,57.1,-89.9,98,4.245,4.236,4.236,4.262,4.217,4.235,0,80.6,11,AutoTakeoff,
36.0257474,-118.5730237,6540.6300793789,0,0.8052984,0.55505579204,3500,2018-07-04 22:35:18,10,0,0,6540.6300793789,0,0.8052984,0.55505579204,0,0,0,56.9, 2.7, -0.2,0,0,1024,1024,1024,1024,57.1,-89.9,98,4.245,4.236,4.236,4.262,4.217,4.235,0,80.6,11,AutoTakeoff,
36.0257476,-118.5730233,6540.6300793789,0,0.8052984,0.69382220068,3600,2018-07-04 22:35:18,10,0,0,6540.6300793789,0,0.8052984,0.69382220068,0,0,0,56.9, 3.5, -0.1,0,0,1024,1024,1024,1024,57.1,-89.9,98,4.245,4.236,4.236,4.262,4.217,4.235,0,80.6,11,AutoTakeoff,
36.0257478,-118.573023,6540.6300793789,0,0.4921268,0.80763454028,3700,2018-07-04 22:35:18,11,0,0,6540.6300793789,0,0.8052984,0.80763454028,0,0,0,56.9, 3.8, 0,0,0,1024,1024,1024,1024,57.1,-89.9,98,4.245,4.236,4.236,4.262,4.217,4.235,0,80.6,11,AutoTakeoff,
36.0257479,-118.5730227,6540.9581633789,0.328084,0.4921268,0.9019685328,3800,2018-07-04 22:35:18,11,0,0,6540.9581633789,0.328084,0.8052984,0.9019685328,0,0,0,56.9, 3.5, 0,0,0,1024,1024,1024,1024,57.1,-90,98,4.245,4.236,4.236,4.262,4.217,4.235,0,80.6,11,AutoTakeoff,
36.0257481,-118.5730224,6540.9581633789,0.328084,0.3131716,1.01575134484,3900,2018-07-04 22:35:18,10,0,0,6540.9581633789,0.328084,0.8052984,1.01575134484,0,0,0,56.9, 3.1, 0,0,0,1024,1024,1024,1024,57.1,-90,98,4.245,4.236,4.236,4.262,4.217,4.235,0,80.6,11,AutoTakeoff,
36.0257482,-118.5730222,6541.2862473789,0.656168,0.3131716,1.08512470664,4000,2018-07-04 22:35:19,10,0,25.48,6541.2862473789,0.656168,0.8052984,1.08512470664,0,0,0,56.9, 2.6, 0,0,0,1024,1024,1024,1024,57.1,-90,98,4.245,4.236,4.236,4.262,4.217,4.235,4.101,80.6,11,AutoTakeoff,
36.0257484,-118.573022,6541.2862473789,0.656168,0.3131716,1.17450463076,4100,2018-07-04 22:35:19,10,0,25.48,6541.2862473789,0.656168,0.8052984,1.17450463076,0,0,0,56.8, 2.2, 0,0,0,1024,1024,1024,1024,57.1,-90,98,4.245,4.236,4.236,4.262,4.217,4.235,4.101,80.6,11,AutoTakeoff,
36.0257485,-118.5730219,6541.6143313789,0.984252,0.3131716,1.21944885792,4200,2018-07-04 22:35:19,10,0,25.48,6541.6143313789,0.984252,0.8052984,1.21944885792,0,0,0,56.8, 1.9, 0.1,0,0,1024,1024,1024,1024,57.1,-90,98,4.245,4.236,4.236,4.262,4.217,4.235,4.101,80.6,11,AutoTakeoff,
36.0257486,-118.5730217,6541.6143313789,0.984252,0.223694,1.28874347956,4300,2018-07-04 22:35:19,10,0,25.48,6541.6143313789,0.984252,0.8052984,1.28874347956,0,0,0,56.8, 1.8, 0.2,0,0,1024,1024,1024,1024,57.1,-90,98,4.245,4.236,4.236,4.262,4.217,4.235,4.101,80.6,11,AutoTakeoff,
36.0257486,-118.5730216,6541.9424153789,1.312336,0,1.3131726142,4400,2018-07-04 22:35:19,10,0,25.48,6541.9424153789,1.312336,0.8052984,1.3131726142,0,0,0,56.7, 1.5, 0.1,0,0,1024,1024,1024,1024,57.1,-90,98,4.245,4.236,4.236,4.262,4.217,4.235,4.101,80.6,11,AutoTakeoff,
36.0257487,-118.5730215,6541.9424153789,1.312336,0,1.35805122456,4500,2018-07-04 22:35:19,9,0,25.48,6541.9424153789,1.312336,0.8052984,1.35805122456,0,0,-0.223694,56.8, 1.3, 0,0,0,1024,1024,1024,1024,57.1,-90,98,4.245,4.236,4.236,4.262,4.217,4.235,4.101,80.6,11,AutoTakeoff,
36.0257488,-118.5730214,6542.2704993789,1.64042,0,1.40306106852,4600,2018-07-04 22:35:19,9,0,25.48,6542.2704993789,1.64042,0.8052984,1.40306106852,0,0,-0.223694,56.8, 1.3, 0,0,0,1024,1024,1024,1024,57.1,-90,98,4.245,4.236,4.236,4.262,4.217,4.235,4.101,80.6,11,AutoTakeoff,
36.025749,-118.5730213,6542.2704993789,1.64042,0,1.4696358738,4700,2018-07-04 22:35:19,9,0,25.48,6542.2704993789,1.64042,0.8052984,1.4696358738,0,0,-0.223694,56.9, 1.4, 0.1,0,0,1024,1024,1024,1024,57.1,-90,98,4.245,4.236,4.236,4.262,4.217,4.235,4.101,80.6,11,AutoTakeoff,
36.025749,-118.5730213,6542.5985833789,1.968504,0,1.4696358738,4800,2018-07-04 22:35:19,9,0,25.48,6542.5985833789,1.968504,0.8052984,1.4696358738,0,0,-0.223694,57, 1.4, 0.3,0,0,1024,1024,1024,1024,57.1,-90,98,4.245,4.236,4.236,4.262,4.217,4.235,4.101,80.6,11,AutoTakeoff,
36.0257492,-118.5730212,6542.9266673789,2.296588,0,1.53735897308,5000,2018-07-04 22:35:19,9,0,24.588,6542.9266673789,2.296588,0.8052984,1.53735897308,0,0,0,56.9, 1.5, 0.5,0,0,1024,1024,1024,1024,57.1,-89.9,98,4.085,4.071,4.076,4.098,4.09,4.09,14.616,80.6,11,AutoTakeoff,
36.0257492,-118.5730211,6543.2547513789,2.624672,0,1.56068574548,5100,2018-07-04 22:35:20,9,0,24.588,6543.2547513789,2.624672,0.8052984,1.56068574548,0,0,0,56.8, 1.6, 0.4,0,0,1024,1024,1024,1024,57.1,-89.9,98,4.085,4.071,4.076,4.098,4.09,4.09,14.616,80.6,11,AutoTakeoff,
36.0257494,-118.5730211,6543.2547513789,2.624672,0,1.60608272856,5200,2018-07-04 22:35:20,9,0,24.588,6543.2547513789,2.624672,0.8052984,1.60608272856,0,0,0,56.8, 1.7, 0.5,0,0,1024,1024,1024,1024,57.1,-89.9,98,4.085,4.071,4.076,4.098,4.09,4.09,14.616,80.6,11,AutoTakeoff,
36.0257496,-118.5730211,6543.5828353789,2.952756,0,1.65345477732,5300,2018-07-04 22:35:20,9,0,24.588,6543.5828353789,2.952756,0.8052984,1.65345477732,0,0,-0.223694,56.7, 1.9, 0.7,0,0,1024,1024,1024,1024,57.1,-90,98,4.085,4.071,4.076,4.098,4.09,4.09,14.616,80.6,6,P-GPS,
36.0257496,-118.573021,6543.5828353789,2.952756,0,1.67568574916,5400,2018-07-04 22:35:20,9,0,24.588,6543.5828353789,2.952756,0.8052984,1.67568574916,0,0,0,56.7, 2.1, 1,0,0,1024,1024,1024,1024,57.1,-89.9,98,4.085,4.071,4.076,4.098,4.09,4.09,14.616,80.6,14,Waypoint,
36.0257496,-118.573021,6543.9109193789,3.28084,0,1.67568574916,5500,2018-07-04 22:35:20,10,0,24.588,6543.9109193789,3.28084,0.8052984,1.67568574916,0,0,0,56.7, 1.6, 0.9,0,0,1024,1024,1024,1024,57.1,-90,98,4.085,4.071,4.076,4.098,4.09,4.09,14.616,80.6,14,Waypoint,
36.0257496,-118.5730211,6543.9109193789,3.28084,0,1.65345477732,5600,2018-07-04 22:35:20,10,0,24.588,6543.9109193789,3.28084,0.8052984,1.67568574916,0,0,0,56.6, 1.1, 0.7,0,0,1024,1024,1024,1024,57.1,-90,98,4.085,4.071,4.076,4.098,4.09,4.09,14.616,80.6,14,Waypoint,
36.0257497,-118.5730212,6543.9109193789,3.28084,0,1.65615490864,5700,2018-07-04 22:35:20,10,0,24.588,6543.9109193789,3.28084,0.8052984,1.67568574916,0,0,0,56.7, 0.7, 0.6,0,0,1024,1024,1024,1024,57.1,-90,98,4.085,4.071,4.076,4.098,4.09,4.09,14.616,80.6,14,Waypoint,
36.0257497,-118.5730212,6544.2390033789,3.608924,0,1.65615490864,5800,2018-07-04 22:35:20,10,0,24.588,6544.2390033789,3.608924,0.8052984,1.67568574916,0,0,0,56.7, 0.5, 0.6,0,0,1024,1024,1024,1024,57.1,-90,98,4.085,4.071,4.076,4.098,4.09,4.09,14.616,80.6,14,Waypoint,
36.0257498,-118.5730212,6544.2390033789,3.608924,0,1.6812828622,5900,2018-07-04 22:35:20,10,0,24.588,6544.2390033789,3.608924,0.8052984,1.6812828622,0,0,-0.223694,56.8, 0.6, 0.6,0,0,1024,1024,1024,1024,57.1,-90,98,4.085,4.071,4.076,4.098,4.09,4.09,14.616,80.6,14,Waypoint,
36.0257499,-118.5730213,6544.5670873789,3.937008,0,1.68603351852,6000,2018-07-04 22:35:20,10,0,24.308,6544.5670873789,3.937008,0.8052984,1.68603351852,0,0,-0.223694,56.9, 0.7, 0.6,0,0,1024,1024,1024,1024,57.1,-90,97,4.045,4.045,4.038,4.057,4.051,4.047,16.904,80.6,14,Waypoint,
36.0257499,-118.5730214,6544.8951713789,4.265092,0,1.66551186432,6100,2018-07-04 22:35:21,10,0,24.308,6544.8951713789,4.265092,0.8052984,1.68603351852,0,0,-0.223694,56.9, 0.7, 0.6,0,0,1024,1024,1024,1024,57.1,-90,97,4.045,4.045,4.038,4.057,4.051,4.047,16.904,80.6,14,Waypoint,
36.0257501,-118.5730215,6545.8794233789,5.249344,0,1.69938981816,6300,2018-07-04 22:35:21,10,0,24.308,6545.8794233789,5.249344,0.8052984,1.69938981816,0,0,-0.223694,57.2, 0.7, 1.1,0,0,1024,1024,1024,1024,57.1,-90,97,4.045,4.045,4.038,4.057,4.051,4.047,16.904,80.6,14,Waypoint,
36.0257502,-118.5730216,6546.2075073789,5.577428,0,1.70796265308,6400,2018-07-04 22:35:21,10,0,24.308,6546.2075073789,5.577428,0.8052984,1.70796265308,0,0,-0.223694,57.5, 0.9, 1.2,0,0,1024,1024,1024,1024,57.1,-90,97,4.045,4.045,4.038,4.057,4.051,4.047,16.904,80.6,14,Waypoint,
36.0257504,-118.5730216,6546.8636753789,6.233596,0,1.76469493836,6500,2018-07-04 22:35:21,10,0,24.308,6546.8636753789,6.233596,0.8052984,1.76469493836,0,0,-0.447388,57.8, 1.1, 1.3,0,0,1024,1024,1024,1024,57.1,-90,97,4.045,4.045,4.038,4.057,4.051,4.047,16.904,80.6,14,Waypoint,
36.0257504,-118.5730217,6547.5198433789,6.889764,0,1.74659126324,6600,2018-07-04 22:35:21,10,0,24.308,6547.5198433789,6.889764,0.8052984,1.76469493836,0,0,-0.447388,58, 1.1, 1.4,0,0,1024,1024,1024,1024,57.1,-90,97,4.045,4.045,4.038,4.057,4.051,4.047,16.904,80.6,14,Waypoint,
36.0257505,-118.5730217,6548.1760113789,7.545932,0,1.77569231404,6700,2018-07-04 22:35:21,10,0,24.308,6548.1760113789,7.545932,0.8052984,1.77569231404,0,0,-0.447388,58, 1.1, 1.3,0,0,1024,1024,1024,1024,57.1,-90,97,4.045,4.045,4.038,4.057,4.051,4.047,16.904,80.6,14,Waypoint,
36.0257505,-118.5730218,6548.8321793789,8.2021,0,1.75819887516,6800,2018-07-04 22:35:21,10,0,24.308,6548.8321793789,8.2021,0.8052984,1.77569231404,0,0,-0.447388,57.9, 1, 1.2,0,0,1024,1024,1024,1024,57.1,-90,97,4.045,4.045,4.038,4.057,4.051,4.047,16.904,80.6,14,Waypoint,
36.0257505,-118.5730218,6549.8164313789,9.186352,0,1.75819887516,6900,2018-07-04 22:35:21,9,0,24.308,6549.8164313789,9.186352,0.8052984,1.77569231404,0,0,-0.671082,57.8, 0.7, 1,0,0,1024,1024,1024,1024,57.1,-90,97,4.045,4.045,4.038,4.057,4.051,4.047,16.904,80.6,14,Waypoint,
36.0257506,-118.573022,6550.4725993789,9.84252,0,1.75442590916,7100,2018-07-04 22:35:22,9,0,24.308,6550.4725993789,9.84252,0.8052984,1.77569231404,0,0,-0.671082,57.6, 0.5, 0.8,0,0,1024,1024,1024,1024,57.1,-90,97,4.045,4.045,4.038,4.057,4.051,4.047,16.904,80.6,14,Waypoint,
36.0257506,-118.5730222,6551.4568513789,10.826772,0,1.72237210236,7200,2018-07-04 22:35:22,10,0,24.308,6551.4568513789,10.826772,0.8052984,1.77569231404,0,0,-0.671082,57.5, 0.2, 1,0,0,1024,1024,1024,1024,57.1,-90,97,4.045,4.045,4.038,4.057,4.051,4.047,16.904,80.6,14,Waypoint,
36.0257506,-118.5730223,6553.7534393789,13.12336,0,1.70688325672,7300,2018-07-04 22:35:22,13,0,24.308,6553.7534393789,13.12336,0.8052984,1.77569231404,0,0,-0.671082,57.3, 0.1, 1.3,0,0,1024,1024,1024,1024,57.1,-90,97,4.045,4.045,4.038,4.057,4.051,4.047,16.904,80.6,14,Waypoint,
36.0257508,-118.5730222,6555.7219433789,15.091864,0,1.78462276052,7400,2018-07-04 22:35:22,12,0,24.308,6555.7219433789,15.091864,0.8052984,1.78462276052,0,0,-0.671082,57.2, 0.7, 1.3,0,0,1024,1024,1024,1024,57.1,-89.9,97,4.045,4.045,4.038,4.057,4.051,4.047,16.904,80.6,14,Waypoint,
36.0257508,-118.5730223,6557.0342793789,16.4042,0,1.76967853432,7600,2018-07-04 22:35:22,12,0,24.308,6557.0342793789,16.4042,0.8052984,1.78462276052,0,0,-0.671082,57.3, 0.9, 1.4,0,0,1024,1024,1024,1024,57.1,-90,97,4.045,4.045,4.038,4.057,4.051,4.047,16.904,80.6,14,Waypoint,
36.0257508,-118.5730224,6558.0185313789,17.388452,0,1.75510504304,7700,2018-07-04 22:35:22,12,0,24.308,6558.0185313789,17.388452,0.8052984,1.78462276052,0,0,-0.671082,57.3, 0.8, 1.5,0,0,1024,1024,1024,1024,57.1,-90,97,4.045,4.045,4.038,4.057,4.051,4.047,16.904,80.6,14,Waypoint,
36.0257508,-118.5730224,6559.3308673789,18.700788,0,1.75510504304,7800,2018-07-04 22:35:22,12,0,24.308,6559.3308673789,18.700788,0.8052984,1.78462276052,0,0,-0.671082,57.3, 0.5, 1.4,0,0,1024,1024,1024,1024,57.1,-90,97,4.045,4.045,4.038,4.057,4.051,4.047,16.904,80.6,14,Waypoint,
36.0257507,-118.5730224,6560.3151193789,19.68504,0,1.723343231,7900,2018-07-04 22:35:22,11,0,24.308,6560.3151193789,19.68504,0.8052984,1.78462276052,0,0,-0.671082,57.4, 0.3, 1.3,0,0,1024,1024,1024,1024,57.1,-90,97,4.045,4.045,4.038,4.057,4.051,4.047,16.904,80.6,14,Waypoint,
36.0257506,-118.5730224,6561.2993713789,20.669292,0,1.69176842684,8000,2018-07-04 22:35:22,11,0,23.926,6561.2993713789,20.669292,0.8052984,1.78462276052,0,0,-0.671082,57.5, 0.2, 1,0,0,1024,1024,1024,1024,57.1,-90,97,3.947,3.958,3.954,3.968,3.967,3.97,16.137,80.6,14,Waypoint,
36.0257506,-118.5730224,6562.6117073789,21.981628,0,1.69176842684,8100,2018-07-04 22:35:23,13,0,23.926,6562.6117073789,21.981628,0.8052984,1.78462276052,0,0,-0.671082,57.5, 0.2, 0.7,0,0,1024,1024,1024,1024,57.1,-90,97,3.947,3.958,3.954,3.968,3.967,3.97,16.137,80.6,14,Waypoint,
36.0257505,-118.5730224,6563.5959593789,22.96588,0,1.66039703476,8200,2018-07-04 22:35:23,13,0,23.926,6563.5959593789,22.96588,0.8052984,1.78462276052,0,0,-0.671082,57.5, 0.4, 0.5,0,0,1024,1024,1024,1024,57.1,-90,97,3.947,3.958,3.954,3.968,3.967,3.97,16.137,80.6,14,Waypoint,
36.0257505,-118.5730224,6564.5802113789,23.950132,0,1.66039703476,8300,2018-07-04 22:35:23,13,0,23.926,6564.5802113789,23.950132,0.8052984,1.78462276052,0,0,-0.671082,57.5, 0.6, 0.6,0,0,1024,1024,1024,1024,57.1,-90,97,3.947,3.958,3.954,3.968,3.967,3.97,16.137,80.6,14,Waypoint,
36.0257504,-118.5730223,6565.5644633789,24.934384,0,1.644931155,8400,2018-07-04 22:35:23,13,0,23.926,6565.5644633789,24.934384,0.8052984,1.78462276052,0,0,-0.671082,57.4, 0.7, 0.7,0,0,1024,1024,1024,1024,57.1,-90,97,3.947,3.958,3.954,3.968,3.967,3.97,16.137,80.6,14,Waypoint,
36.0257505,-118.5730223,6566.8767993789,26.24672,0,1.67579729772,8500,2018-07-04 22:35:23,13,0,23.926,6566.8767993789,26.24672,0.8052984,1.78462276052,0,0,-0.671082,57.5, 0.7, 0.9,0,0,1024,1024,1024,1024,57.1,-89.9,97,3.947,3.958,3.954,3.968,3.967,3.97,16.137,80.6,14,Waypoint,
36.0257504,-118.5730223,6567.8610513789,27.230972,0,1.644931155,8600,2018-07-04 22:35:23,13,0,23.926,6567.8610513789,27.230972,0.8052984,1.78462276052,0,0,-0.671082,57.5, 0.6, 1,0,0,1024,1024,1024,1024,57.1,-90,97,3.947,3.958,3.954,3.968,3.967,3.97,16.137,80.6,14,Waypoint,
36.0257503,-118.5730223,6568.8453033789,28.215224,0,1.61429795192,8700,2018-07-04 22:35:23,12,0,23.926,6568.8453033789,28.215224,0.8052984,1.78462276052,0,0,-0.671082,57.5, 0.4, 0.9,0,0,1024,1024,1024,1024,57.1,-90,97,3.947,3.958,3.954,3.968,3.967,3.97,16.137,80.6,14,Waypoint,
36.0257503,-118.5730223,6569.8295553789,29.199476,0,1.61429795192,8800,2018-07-04 22:35:23,12,0,23.926,6569.8295553789,29.199476,0.8052984,1.78462276052,0,0,-0.671082,57.5, 0.4, 0.9,0,0,1024,1024,1024,1024,57.1,-90,97,3.947,3.958,3.954,3.968,3.967,3.97,16.137,80.6,14,Waypoint,
36.0257503,-118.5730223,6570.8138073789,30.183728,0,1.61429795192,8900,2018-07-04 22:35:23,12,0,23.926,6570.8138073789,30.183728,0.8052984,1.78462276052,0,0,-0.671082,57.4, 0.3, 1.1,0,0,1024,1024,1024,1024,57.1,-89.9,97,3.947,3.958,3.954,3.968,3.967,3.97,16.137,80.6,14,Waypoint,
36.0257502,-118.5730223,6571.7980593789,31.16798,0,1.58391409268,9000,2018-07-04 22:35:23,12,0,23.557,6571.7980593789,31.16798,0.8052984,1.78462276052,0,0,-0.671082,57.3, 0.3, 1.1,0,0,1024,1024,1024,1024,57.1,-90,97,3.972,3.984,3.944,3.972,3.982,3.961,19.418,80.6,14,Waypoint,
36.0257501,-118.5730223,6573.1103953789,32.480316,0,1.55379270064,9100,2018-07-04 22:35:24,13,0,23.557,6573.1103953789,32.480316,0.8052984,1.78462276052,0,0,-0.671082,57.3, 0.4, 0.9,0,0,1024,1024,1024,1024,57.1,-90,97,3.972,3.984,3.944,3.972,3.982,3.961,19.418,80.6,14,Waypoint,
36.0257501,-118.5730223,6574.0946473789,33.464568,0,1.55379270064,9200,2018-07-04 22:35:24,13,0,23.557,6574.0946473789,33.464568,0.8052984,1.78462276052,0,0,-0.671082,57.3, 0.5, 0.7,0,0,1024,1024,1024,1024,57.1,-90,97,3.972,3.984,3.944,3.972,3.982,3.961,19.418,80.6,14,Waypoint,
36.02575,-118.5730223,6575.0788993789,34.44882,0,1.52395018,9300,2018-07-04 22:35:24,14,0,23.557,6575.0788993789,34.44882,0.8052984,1.78462276052,0,0,-0.671082,57.3, 0.4, 0.6,0,0,1024,1024,1024,1024,57.1,-90,97,3.972,3.984,3.944,3.972,3.982,3.961,19.418,80.6,14,Waypoint,
36.0257498,-118.5730222,6578.0316553789,37.401576,0,1.48317918132,9500,2018-07-04 22:35:24,14,0,23.557,6578.0316553789,37.401576,0.8052984,1.78462276052,0,0,-0.671082,57.3, 0.5, 0.5,0,0,1024,1024,1024,1024,57.1,-89.9,97,3.972,3.984,3.944,3.972,3.982,3.961,19.418,80.6,14,Waypoint,
36.0257497,-118.5730221,6580.3282433789,39.698164,0,1.47336946972,9800,2018-07-04 22:35:24,14,0,23.557,6580.3282433789,39.698164,0.8052984,1.78462276052,0,0,-0.671082,57.3, 0.4, 0.6,0,0,1024,1024,1024,1024,57.1,-90,97,3.972,3.984,3.944,3.972,3.982,3.961,19.418,80.6,14,Waypoint,
36.0257497,-118.5730221,6581.3124953789,40.682416,0,1.47336946972,9900,2018-07-04 22:35:24,14,0,23.557,6581.3124953789,40.682416,0.8052984,1.78462276052,0,0,-0.671082,57.3, 0.5, 0.6,0,0,1024,1024,1024,1024,57.1,-90,97,3.972,3.984,3.944,3.972,3.982,3.961,19.418,80.6,14,Waypoint,
36.0257497,-118.573022,6582.2967473789,41.666668,0,1.49245083516,10000,2018-07-04 22:35:24,14,0,23.886,6582.2967473789,41.666668,0.8052984,1.78462276052,0,0,-0.671082,57.3, 0.5, 0.5,0,0,1024,1024,1024,1024,57.1,-89.9,97,3.972,3.984,3.944,3.972,3.982,3.961,18.635,80.6,14,Waypoint,
36.0257496,-118.573022,6583.2809993789,42.65092,0,1.4649934852,10100,2018-07-04 22:35:25,14,0,23.886,6583.2809993789,42.65092,0.8052984,1.78462276052,0,0,-0.671082,57.4, 0.5, 0.4,0,0,1024,1024,1024,1024,57.1,-89.9,97,3.972,3.984,3.944,3.972,3.982,3.961,18.635,80.6,14,Waypoint,
36.0257496,-118.5730219,6584.2652513789,43.635172,0,1.48477038872,10200,2018-07-04 22:35:25,14,0,23.886,6584.2652513789,43.635172,0.8052984,1.78462276052,0,0,-0.671082,57.4, 0.6, 0.3,0,0,1024,1024,1024,1024,57.1,-89.9,97,3.972,3.984,3.944,3.972,3.982,3.961,18.635,80.6,14,Waypoint,
36.0257495,-118.5730218,6586.2337553789,45.603676,0,1.47854007356,10400,2018-07-04 22:35:25,14,0,23.886,6586.2337553789,45.603676,0.8052984,1.78462276052,0,0,-0.671082,57.6, 0.8, 0,0,0,1024,1024,1024,1024,57.1,-89.9,97,3.972,3.984,3.944,3.972,3.982,3.961,18.635,80.6,14,Waypoint,
36.0257495,-118.5730217,6587.2180073789,46.587928,0,1.49930122908,10500,2018-07-04 22:35:25,14,0,23.886,6587.2180073789,46.587928,0.8052984,1.78462276052,0,0,-0.671082,57.7, 0.9, 0,0,0,1024,1024,1024,1024,57.1,-89.9,97,3.972,3.984,3.944,3.972,3.982,3.961,18.635,80.6,14,Waypoint,
36.0257495,-118.5730215,6589.1865113789,48.556432,0,1.54167327768,10700,2018-07-04 22:35:25,14,0,23.886,6589.1865113789,48.556432,0.8052984,1.78462276052,0,0,-0.671082,57.7, 1.4, 0.1,0,0,1024,1024,1024,1024,57.1,-89.9,97,3.972,3.984,3.944,3.972,3.982,3.961,18.635,80.6,14,Waypoint,
36.0257495,-118.5730214,6591.4830993789,50.85302,0,1.56326776656,10900,2018-07-04 22:35:25,14,0,23.886,6591.4830993789,50.85302,0.8052984,1.78462276052,0,0,-0.671082,57.6, 1.3, 0.1,0,0,1024,1024,1024,1024,57.1,-89.9,97,3.972,3.984,3.944,3.972,3.982,3.961,18.635,80.6,14,Waypoint,
36.0257496,-118.5730213,6592.4673513789,51.837272,0,1.60969821424,11000,2018-07-04 22:35:25,14,0,23.874,6592.4673513789,51.837272,0.8052984,1.78462276052,0,0,-0.671082,57.7, 1.2, 0.2,0,0,1024,1024,1024,1024,57.1,-90,97,3.966,3.976,3.974,3.987,3.99,3.981,18.706,80.6,14,Waypoint,
36.0257496,-118.5730213,6593.4516033789,52.821524,0,1.60969821424,11100,2018-07-04 22:35:26,14,0,23.874,6593.4516033789,52.821524,0.8052984,1.78462276052,0,0,-0.671082,57.7, 1.2, 0.6,0,0,1024,1024,1024,1024,57.1,-90,97,3.966,3.976,3.974,3.987,3.99,3.981,18.706,80.6,14,Waypoint,
36.0257497,-118.5730212,6594.4358553789,53.805776,0,1.65615490864,11200,2018-07-04 22:35:26,14,0,23.874,6594.4358553789,53.805776,0.8052984,1.78462276052,0,0,-0.671082,57.6, 1.5, 1.3,0,0,1024,1024,1024,1024,57.1,-89.9,97,3.966,3.976,3.974,3.987,3.99,3.981,18.706,80.6,14,Waypoint,
36.0257497,-118.5730212,6595.4201073789,54.790028,0,1.65615490864,11300,2018-07-04 22:35:26,14,0,23.874,6595.4201073789,54.790028,0.8052984,1.78462276052,0,0,-0.671082,57.6, 1.7, 1.6,0,0,1024,1024,1024,1024,57.1,-89.9,97,3.966,3.976,3.974,3.987,3.99,3.981,18.706,80.6,14,Waypoint,
36.0257498,-118.5730211,6596.4043593789,55.77428,0,1.70263784976,11400,2018-07-04 22:35:26,14,0,23.874,6596.4043593789,55.77428,0.8052984,1.78462276052,0,0,-0.671082,57.6, 1.8, 1.4,0,0,1024,1024,1024,1024,57.1,-89.9,97,3.966,3.976,3.974,3.987,3.99,3.981,18.706,80.6,14,Waypoint,
36.0257498,-118.5730211,6597.3886113789,56.758532,0,1.70263784976,11500,2018-07-04 22:35:26,14,0,23.874,6597.3886113789,56.758532,0.8052984,1.78462276052,0,0,-0.671082,57.5, 1.8, 1.2,0,0,1024,1024,1024,1024,57.1,-90,97,3.966,3.976,3.974,3.987,3.99,3.981,18.706,80.6,14,Waypoint,
36.0257499,-118.5730211,6599.3571153789,58.727036,0,1.72786094768,11700,2018-07-04 22:35:26,14,0,23.874,6599.3571153789,58.727036,0.8052984,1.78462276052,0,0,-0.671082,57.4, 1.6, 1.2,0,0,1024,1024,1024,1024,57.1,-90,97,3.966,3.976,3.974,3.987,3.99,3.981,18.706,80.6,14,Waypoint,
36.02575,-118.573021,6600.0132833789,59.383204,0,1.7744587182,11800,2018-07-04 22:35:26,14,0,23.874,6600.0132833789,59.383204,0.8052984,1.78462276052,0,0,-0.671082,57.4, 1.6, 1.1,0,0,1024,1024,1024,1024,57.1,-89.9,97,3.966,3.976,3.974,3.987,3.99,3.981,18.706,80.6,14,Waypoint,
36.0257501,-118.573021,6600.9975353789,60.367456,0,1.80015097624,12000,2018-07-04 22:35:26,14,0,23.874,6600.9975353789,60.367456,0.8052984,1.80015097624,0,0,-0.671082,57.5, 1.7, 1.2,0,0,1024,1024,1024,1024,57.1,-89.9,97,3.966,3.976,3.974,3.987,3.99,3.981,18.706,80.6,14,Waypoint,
36.0257502,-118.573021,6602.9660393789,62.33596,0,1.8262139692,12100,2018-07-04 22:35:27,14,0,23.874,6602.9660393789,62.33596,0.8052984,1.8262139692,0,0,-0.671082,57.5, 1.9, 1.7,0,0,1024,1024,1024,1024,57.1,-89.9,97,3.966,3.976,3.974,3.987,3.99,3.981,18.706,80.6,14,Waypoint,
36.0257502,-118.573021,6603.9502913789,63.320212,0,1.8262139692,12200,2018-07-04 22:35:27,14,0,23.874,6603.9502913789,63.320212,0.8052984,1.8262139692,0,0,-0.671082,57.5, 1.9, 1.7,0,0,1024,1024,1024,1024,57.1,-89.9,97,3.966,3.976,3.974,3.987,3.99,3.981,18.706,80.6,14,Waypoint,
36.0257503,-118.573021,6604.9345433789,64.304464,0,1.85262801204,12300,2018-07-04 22:35:27,14,0,23.874,6604.9345433789,64.304464,0.8052984,1.85262801204,0,0,-0.671082,57.4, 1.7, 1.5,0,0,1024,1024,1024,1024,57.1,-89.9,97,3.966,3.976,3.974,3.987,3.99,3.981,18.706,80.6,14,Waypoint,
36.0257503,-118.573021,6606.2468793789,65.6168,0,1.85262801204,12400,2018-07-04 22:35:27,14,0,23.874,6606.2468793789,65.6168,0.8052984,1.85262801204,0,0,-0.671082,57.5, 1.7, 1.7,0,0,1024,1024,1024,1024,57.1,-90,97,3.966,3.976,3.974,3.987,3.99,3.981,18.706,80.6,14,Waypoint,
36.0257504,-118.573021,6607.2311313789,66.601052,0,1.8793799814,12500,2018-07-04 22:35:27,14,0,23.874,6607.2311313789,66.601052,0.8052984,1.8793799814,0,0,-0.671082,57.5, 1.7, 2,0,0,1024,1024,1024,1024,57.1,-89.9,97,3.966,3.976,3.974,3.987,3.99,3.981,18.706,80.6,14,Waypoint,
36.0257505,-118.573021,6608.2153833789,67.585304,0,1.90645347308,12600,2018-07-04 22:35:27,14,0,23.874,6608.2153833789,67.585304,0.8052984,1.90645347308,0,0,-0.671082,57.5, 1.7, 2.3,0,0,1024,1024,1024,1024,57.1,-89.9,97,3.966,3.976,3.974,3.987,3.99,3.981,18.706,80.6,14,Waypoint,
36.0257505,-118.573021,6609.1996353789,68.569556,0,1.90645347308,12700,2018-07-04 22:35:27,14,0,23.874,6609.1996353789,68.569556,0.8052984,1.90645347308,0,0,-0.671082,57.5, 1.5, 2.5,0,0,1024,1024,1024,1024,57.1,-90,97,3.966,3.976,3.974,3.987,3.99,3.981,18.706,80.6,14,Waypoint,
36.0257506,-118.573021,6610.1838873789,69.553808,0,1.93383864456,12800,2018-07-04 22:35:27,14,0,23.874,6610.1838873789,69.553808,0.8052984,1.93383864456,0,0,-0.671082,57.5, 1.3, 2.6,0,0,1024,1024,1024,1024,57.1,-90,97,3.966,3.976,3.974,3.987,3.99,3.981,18.706,80.6,14,Waypoint,
36.0257506,-118.5730211,6611.1681393789,70.53806,0,1.91460636048,12900,2018-07-04 22:35:27,14,0,23.874,6611.1681393789,70.53806,0.8052984,1.93383864456,0,0,-0.671082,57.5, 1.4, 2.4,0,0,1024,1024,1024,1024,57.1,-89.9,97,3.966,3.976,3.974,3.987,3.99,3.981,18.706,80.6,14,Waypoint,
36.0257507,-118.573021,6612.1523913789,71.522312,0,1.96151909164,13000,2018-07-04 22:35:27,14,0,23.729,6612.1523913789,71.522312,0.8052984,1.96151909164,0,0,-0.671082,57.5, 1.4, 2.1,0,0,1024,1024,1024,1024,57.1,-90,97,3.962,3.968,3.963,3.989,3.98,3.973,19.998,82.4,14,Waypoint,
36.0257507,-118.573021,6613.1366433789,72.506564,0,1.96151909164,13100,2018-07-04 22:35:28,14,0,23.729,6613.1366433789,72.506564,0.8052984,1.96151909164,0,0,-0.671082,57.4, 1.3, 2.1,0,0,1024,1024,1024,1024,57.1,-90,97,3.962,3.968,3.963,3.989,3.98,3.973,19.998,82.4,14,Waypoint,
36.0257507,-118.5730211,6614.1208953789,73.490816,0,1.94256239812,13200,2018-07-04 22:35:28,14,0,23.729,6614.1208953789,73.490816,0.8052984,1.96151909164,0,0,-0.671082,57.2, 1.6, 2.1,0,0,1024,1024,1024,1024,57.1,-89.9,97,3.962,3.968,3.963,3.989,3.98,3.973,19.998,82.4,14,Waypoint,
36.0257507,-118.5730211,6615.1051473789,74.475068,0,1.94256239812,13300,2018-07-04 22:35:28,14,0,23.729,6615.1051473789,74.475068,0.8052984,1.96151909164,0,0,-0.671082,57.1, 1.7, 2,0,0,1024,1024,1024,1024,57.1,-89.9,97,3.962,3.968,3.963,3.989,3.98,3.973,19.998,82.4,14,Waypoint,
36.0257507,-118.5730211,6616.0893993789,75.45932,0,1.94256239812,13400,2018-07-04 22:35:28,14,0,23.729,6616.0893993789,75.45932,0.8052984,1.96151909164,0,0,-0.671082,57, 1.7, 1.8,0,0,1024,1024,1024,1024,57.1,-89.9,97,3.962,3.968,3.963,3.989,3.98,3.973,19.998,82.4,14,Waypoint,
36.0257507,-118.5730212,6616.7455673789,76.115488,0,1.92387145264,13500,2018-07-04 22:35:28,14,0,23.729,6616.7455673789,76.115488,0.8052984,1.96151909164,0,0,-0.671082,56.8, 1.5, 2,0,0,1024,1024,1024,1024,57.1,-90,97,3.962,3.968,3.963,3.989,3.98,3.973,19.998,82.4,14,Waypoint,
36.0257507,-118.5730212,6617.7298193789,77.09974,0,1.92387145264,13600,2018-07-04 22:35:28,14,0,23.729,6617.7298193789,77.09974,0.8052984,1.96151909164,0,0,-0.671082,56.8, 1.2, 1.8,0,0,1024,1024,1024,1024,57.1,-90,97,3.962,3.968,3.963,3.989,3.98,3.973,19.998,82.4,14,Waypoint,
36.0257507,-118.5730211,6618.7140713789,78.083992,0,1.94256239812,13700,2018-07-04 22:35:28,14,0,23.729,6618.7140713789,78.083992,0.8052984,1.96151909164,0,0,-0.671082,56.9, 0.9, 1.5,0,0,1024,1024,1024,1024,57.1,-90,97,3.962,3.968,3.963,3.989,3.98,3.973,19.998,82.4,14,Waypoint,
36.0257507,-118.5730211,6619.6983233789,79.068244,0,1.94256239812,13800,2018-07-04 22:35:28,14,0,23.729,6619.6983233789,79.068244,0.8052984,1.96151909164,0,0,-0.671082,57.1, 0.8, 1.1,0,0,1024,1024,1024,1024,57.1,-90,97,3.962,3.968,3.963,3.989,3.98,3.973,19.998,82.4,14,Waypoint,
36.0257507,-118.5730211,6620.6825753789,80.052496,0,1.94256239812,13900,2018-07-04 22:35:28,14,0,23.729,6620.6825753789,80.052496,0.8052984,1.96151909164,0,0,-0.671082,57.3, 0.8, 1,0,0,1024,1024,1024,1024,57.1,-90,97,3.962,3.968,3.963,3.989,3.98,3.973,19.998,82.4,14,Waypoint,
36.0257507,-118.5730211,6621.6668273789,81.036748,0,1.94256239812,14000,2018-07-04 22:35:28,14,0,23.729,6621.6668273789,81.036748,0.8052984,1.96151909164,0,0,-0.671082,57.5, 0.8, 1.5,0,0,1024,1024,1024,1024,57.1,-89.9,97,3.949,3.964,3.94,3.954,3.96,3.956,19.998,82.4,14,Waypoint,
36.0257508,-118.5730211,6622.6510793789,82.021,0,1.97079402632,14100,2018-07-04 22:35:29,14,0,23.729,6622.6510793789,82.021,0.8052984,1.97079402632,0,0,-0.671082,57.7, 1.3, 1.7,0,0,1024,1024,1024,1024,57.1,-89.9,97,3.949,3.964,3.94,3.954,3.96,3.956,19.998,82.4,14,Waypoint,
36.0257509,-118.5730211,6624.6195833789,83.989504,0,1.9992946834,14300,2018-07-04 22:35:29,14,0,23.729,6624.6195833789,83.989504,0.8052984,1.9992946834,0,0,-0.671082,57.9, 1.8, 2,0,0,1024,1024,1024,1024,57.1,-89.9,97,3.949,3.964,3.94,3.954,3.96,3.956,19.998,82.4,14,Waypoint,
36.0257509,-118.5730211,6625.6038353789,84.973756,0,1.9992946834,14400,2018-07-04 22:35:29,14,0,23.729,6625.6038353789,84.973756,0.8052984,1.9992946834,0,0,-0.671082,58, 1.8, 2.2,0,0,1024,1024,1024,1024,57.1,-89.9,97,3.949,3.964,3.94,3.954,3.96,3.956,19.998,82.4,14,Waypoint,
36.0257509,-118.5730211,6626.9161713789,86.286092,0,1.9992946834,14500,2018-07-04 22:35:29,14,0,23.729,6626.9161713789,86.286092,0.8052984,1.9992946834,0,0,-0.671082,58.2, 1.7, 2.1,0,0,1024,1024,1024,1024,57.1,-89.9,97,3.949,3.964,3.94,3.954,3.96,3.956,19.998,82.4,14,Waypoint,
36.025751,-118.5730211,6627.9004233789,87.270344,0,2.028051246,14600,2018-07-04 22:35:29,14,0,23.729,6627.9004233789,87.270344,0.8052984,2.028051246,0,0,-0.671082,58.4, 2, 2.2,0,0,1024,1024,1024,1024,57.1,-89.9,97,3.949,3.964,3.94,3.954,3.96,3.956,19.998,82.4,14,Waypoint,
36.025751,-118.5730211,6628.8846753789,88.254596,0,2.028051246,14700,2018-07-04 22:35:29,14,0,23.729,6628.8846753789,88.254596,0.8052984,2.028051246,0,0,-0.671082,58.4, 1.9, 2.8,0,0,1024,1024,1024,1024,57.1,-89.9,97,3.949,3.964,3.94,3.954,3.96,3.956,19.998,82.4,14,Waypoint,
36.0257511,-118.5730211,6629.8689273789,89.238848,0,2.05705059076,14800,2018-07-04 22:35:29,14,0,23.729,6629.8689273789,89.238848,0.8052984,2.05705059076,0,0,-0.671082,58.2, 2.1, 3.3,0,0,1024,1024,1024,1024,57.1,-89.9,97,3.949,3.964,3.94,3.954,3.96,3.956,19.998,82.4,14,Waypoint,
36.0257513,-118.5730211,6630.8531793789,90.2231,0,2.1157480992,14900,2018-07-04 22:35:29,14,0,23.729,6630.8531793789,90.2231,0.8052984,2.1157480992,0,0,-0.671082,57.8, 2.3, 3.4,0,0,1024,1024,1024,1024,57.1,-89.9,97,3.949,3.964,3.94,3.954,3.96,3.956,19.998,82.4,14,Waypoint,
36.0257513,-118.5730211,6631.8374313789,91.207352,0,2.1157480992,15000,2018-07-04 22:35:29,14,0,23.708,6631.8374313789,91.207352,0.8052984,2.1157480992,0,0,-0.671082,57.5, 2.4, 3.5,0,0,1024,1024,1024,1024,57.1,-89.9,97,3.934,3.943,3.937,3.96,3.957,3.952,18.968,82.4,14,Waypoint,
36.0257513,-118.573021,6632.4935993789,91.86352,0,2.13316607876,15100,2018-07-04 22:35:30,14,0,23.708,6632.4935993789,91.86352,0.8052984,2.13316607876,0,0,-0.671082,57.3, 2.6, 3.1,0,0,1024,1024,1024,1024,57.1,-89.9,97,3.934,3.943,3.937,3.96,3.957,3.952,18.968,82.4,14,Waypoint,
36.0257513,-118.5730209,6633.4778513789,92.847772,0,2.15084980636,15200,2018-07-04 22:35:30,14,0,23.708,6633.4778513789,92.847772,0.8052984,2.15084980636,0,0,-0.671082,57.3, 2.9, 2.7,0,0,1024,1024,1024,1024,57.1,-89.9,97,3.934,3.943,3.937,3.96,3.957,3.952,18.968,82.4,14,Waypoint,
36.0257513,-118.5730208,6634.4621033789,93.832024,0,2.16878943948,15300,2018-07-04 22:35:30,14,0,23.708,6634.4621033789,93.832024,0.8052984,2.16878943948,0,0,-0.671082,57.4, 3.1, 2.2,0,0,1024,1024,1024,1024,57.1,-89.9,97,3.934,3.943,3.937,3.96,3.957,3.952,18.968,82.4,14,Waypoint,
36.0257513,-118.5730207,6635.4463553789,94.816276,0,2.18697841644,15400,2018-07-04 22:35:30,14,0,23.708,6635.4463553789,94.816276,0.8052984,2.18697841644,0,0,-0.671082,57.5, 3.1, 1.9,0,0,1024,1024,1024,1024,57.1,-89.9,97,3.934,3.943,3.937,3.96,3.957,3.952,18.968,82.4,14,Waypoint,
36.0257512,-118.5730206,6636.4306073789,95.800528,0,2.177165424,15500,2018-07-04 22:35:30,14,0,23.708,6636.4306073789,95.800528,0.8052984,2.18697841644,0,0,-0.671082,57.6, 3.3, 1.9,0,0,1024,1024,1024,1024,57.1,-89.9,97,3.934,3.943,3.937,3.96,3.957,3.952,18.968,82.4,14,Waypoint,
36.0257512,-118.5730205,6637.4148593789,96.78478,0,2.1960794666,15600,2018-07-04 22:35:30,14,0,23.708,6637.4148593789,96.78478,0.8052984,2.1960794666,0,0,-0.671082,57.7, 3.3, 1.8,0,0,1024,1024,1024,1024,57.1,-89.9,97,3.934,3.943,3.937,3.96,3.957,3.952,18.968,82.4,14,Waypoint,
36.0257512,-118.5730205,6638.3991113789,97.769032,0,2.1960794666,15700,2018-07-04 22:35:30,14,0,23.708,6638.3991113789,97.769032,0.8052984,2.1960794666,0,0,-0.671082,57.7, 3.3, 1.8,0,0,1024,1024,1024,1024,57.1,-89.9,97,3.934,3.943,3.937,3.96,3.957,3.952,18.968,82.4,14,Waypoint,
36.0257512,-118.5730204,6639.3833633789,98.753284,0,2.215223168,15800,2018-07-04 22:35:30,14,0,23.708,6639.3833633789,98.753284,0.8052984,2.215223168,0,0,-0.671082,57.7, 3.4, 1.9,0,0,1024,1024,1024,1024,57.1,-89.9,97,3.934,3.943,3.937,3.96,3.957,3.952,18.968,82.4,14,Waypoint,
36.0257512,-118.5730203,6640.3676153789,99.737536,0,2.2345965282,15900,2018-07-04 22:35:30,14,0,23.708,6640.3676153789,99.737536,0.8052984,2.2345965282,0,0,-0.671082,57.5, 3.4, 2.2,0,0,1024,1024,1024,1024,57.1,-89.9,97,3.934,3.943,3.937,3.96,3.957,3.952,18.968,82.4,14,Waypoint,
36.0257512,-118.5730203,6641.3518673789,100.721788,0,2.2345965282,16000,2018-07-04 22:35:30,14,0,23.673,6641.3518673789,100.721788,0.8052984,2.2345965282,0,0,-0.671082,57.5, 3.4, 2.2,0,0,1024,1024,1024,1024,57.1,-89.9,96,3.942,3.956,3.926,3.953,3.96,3.961,19.671,82.4,14,Waypoint,
36.0257512,-118.5730202,6642.3361193789,101.70604,0,2.25418642384,16100,2018-07-04 22:35:31,14,0,23.673,6642.3361193789,101.70604,0.8052984,2.25418642384,0,0,-0.671082,57.4, 3.3, 2,0,0,1024,1024,1024,1024,57.1,-89.9,96,3.942,3.956,3.926,3.953,3.96,3.961,19.671,82.4,14,Waypoint,
36.0257511,-118.5730202,6642.9922873789,102.362208,0,2.22715558308,16200,2018-07-04 22:35:31,14,0,23.673,6642.9922873789,102.362208,0.8052984,2.25418642384,0,0,-0.671082,57.4, 3.1, 1.9,0,0,1024,1024,1024,1024,57.1,-89.9,96,3.942,3.956,3.926,3.953,3.96,3.961,19.671,82.4,14,Waypoint,
36.0257511,-118.5730201,6644.3046233789,103.674544,0,2.24719823464,16300,2018-07-04 22:35:31,14,0,23.673,6644.3046233789,103.674544,0.8052984,2.25418642384,0,0,-0.671082,57.4, 3, 1.8,0,0,1024,1024,1024,1024,57.1,-89.9,96,3.942,3.956,3.926,3.953,3.96,3.961,19.671,82.4,14,Waypoint,
36.0257511,-118.5730201,6645.2888753789,104.658796,0,2.24719823464,16400,2018-07-04 22:35:31,14,0,23.673,6645.2888753789,104.658796,0.8052984,2.25418642384,0,0,-0.671082,57.5, 2.9, 1.9,0,0,1024,1024,1024,1024,57.1,-89.9,96,3.942,3.956,3.926,3.953,3.96,3.961,19.671,82.4,14,Waypoint,
36.025751,-118.5730201,6646.2731273789,105.643048,0,2.22068248576,16500,2018-07-04 22:35:31,14,0,23.673,6646.2731273789,105.643048,0.8052984,2.25418642384,0,0,-0.671082,57.6, 2.8, 2.2,0,0,1024,1024,1024,1024,57.1,-89.9,96,3.942,3.956,3.926,3.953,3.96,3.961,19.671,82.4,14,Waypoint,
36.025751,-118.5730201,6647.2573793789,106.6273,0,2.22068248576,16600,2018-07-04 22:35:31,14,0,23.673,6647.2573793789,106.6273,0.8052984,2.25418642384,0,0,-0.671082,57.7, 2.9, 2.6,0,0,1024,1024,1024,1024,57.1,-89.9,96,3.942,3.956,3.926,3.953,3.96,3.961,19.671,82.4,14,Waypoint,
36.0257511,-118.5730201,6649.2258833789,108.595804,0,2.24719823464,16700,2018-07-04 22:35:31,14,0,23.673,6649.2258833789,108.595804,0.8052984,2.25418642384,0,0,-0.671082,57.8, 2.9, 2.7,0,0,1024,1024,1024,1024,57.1,-90,96,3.942,3.956,3.926,3.953,3.96,3.961,19.671,82.4,14,Waypoint,
36.0257511,-118.5730202,6650.2101353789,109.580056,0,2.22715558308,16800,2018-07-04 22:35:31,14,0,23.673,6650.2101353789,109.580056,0.8052984,2.25418642384,0,0,-0.671082,57.7, 2.8, 2.8,0,0,1024,1024,1024,1024,57.1,-89.9,96,3.942,3.956,3.926,3.953,3.96,3.961,19.671,82.4,14,Waypoint,
36.025751,-118.5730202,6651.1943873789,110.564308,0,2.20039705204,17000,2018-07-04 22:35:31,14,0,23.688,6651.1943873789,110.564308,0.8052984,2.25418642384,0,0,-0.671082,57.5, 2.8, 2.9,0,0,1024,1024,1024,1024,57.1,-89.9,96,3.94,3.952,3.933,3.955,3.958,3.948,18.97,82.4,14,Waypoint,
36.025751,-118.5730202,6652.1786393789,111.54856,0,2.20039705204,17100,2018-07-04 22:35:32,14,0,23.688,6652.1786393789,111.54856,0.8052984,2.25418642384,0,0,-0.671082,57.4, 2.9, 2.5,0,0,1024,1024,1024,1024,57.1,-89.9,96,3.94,3.952,3.933,3.955,3.958,3.948,18.97,82.4,14,Waypoint,
36.0257509,-118.5730201,6653.1628913789,112.532812,0,2.19445216996,17200,2018-07-04 22:35:32,14,0,23.688,6653.1628913789,112.532812,0.8052984,2.25418642384,0,0,-0.671082,57.3, 2.9, 2.2,0,0,1024,1024,1024,1024,57.1,-89.9,96,3.94,3.952,3.933,3.955,3.958,3.948,18.97,82.4,14,Waypoint,
36.0257508,-118.5730201,6654.1471433789,113.517064,0,2.16851712976,17300,2018-07-04 22:35:32,14,0,23.688,6654.1471433789,113.517064,0.8052984,2.25418642384,0,0,-0.671082,57.2, 2.9, 1.7,0,0,1024,1024,1024,1024,57.1,-89.9,96,3.94,3.952,3.933,3.955,3.958,3.948,18.97,82.4,14,Waypoint,
36.0257508,-118.5730201,6655.1313953789,114.501316,0,2.16851712976,17400,2018-07-04 22:35:32,14,0,23.688,6655.1313953789,114.501316,0.8052984,2.25418642384,0,0,-0.671082,57.2, 2.8, 1.4,0,0,1024,1024,1024,1024,57.1,-89.9,96,3.94,3.952,3.933,3.955,3.958,3.948,18.97,82.4,14,Waypoint,
36.0257507,-118.5730201,6656.1156473789,115.485568,0,2.14289048852,17500,2018-07-04 22:35:32,14,0,23.688,6656.1156473789,115.485568,0.8052984,2.25418642384,0,0,-0.671082,57.3, 2.8, 1.3,0,0,1024,1024,1024,1024,57.1,-89.9,96,3.94,3.952,3.933,3.955,3.958,3.948,18.97,82.4,14,Waypoint,
36.0257507,-118.5730201,6657.0998993789,116.46982,0,2.14289048852,17600,2018-07-04 22:35:32,14,0,23.688,6657.0998993789,116.46982,0.8052984,2.25418642384,0,0,-0.671082,57.2, 2.8, 1.3,0,0,1024,1024,1024,1024,57.1,-89.9,96,3.94,3.952,3.933,3.955,3.958,3.948,18.97,82.4,14,Waypoint,
36.0257506,-118.5730201,6659.0684033789,118.438324,0,2.1175853696,17800,2018-07-04 22:35:32,14,0,23.688,6659.0684033789,118.438324,0.8052984,2.25418642384,0,0,-0.671082,57.2, 2.8, 1.4,0,0,1024,1024,1024,1024,57.1,-90,96,3.94,3.952,3.933,3.955,3.958,3.948,18.97,82.4,14,Waypoint,
36.0257506,-118.5730201,6660.0526553789,119.422576,0,2.1175853696,17900,2018-07-04 22:35:32,14,0,23.688,6660.0526553789,119.422576,0.8052984,2.25418642384,0,0,-0.671082,57.2, 2.8, 1.2,0,0,1024,1024,1024,1024,57.1,-90,96,3.94,3.952,3.933,3.955,3.958,3.948,18.97,82.4,14,Waypoint,
36.0257505,-118.5730201,6662.0211593789,121.39108,0,2.09260505384,18100,2018-07-04 22:35:33,14,0,23.688,6662.0211593789,121.39108,0.8052984,2.25418642384,0,0,-0.671082,57.1, 3, 1,0,0,1024,1024,1024,1024,57.1,-89.9,96,3.94,3.952,3.933,3.955,3.958,3.948,18.97,82.4,14,Waypoint,
36.0257504,-118.5730201,6663.0054113789,122.375332,0,2.06796922628,18200,2018-07-04 22:35:33,14,0,23.688,6663.0054113789,122.375332,0.8052984,2.25418642384,0,0,-0.671082,57.2, 2.8, 1.1,0,0,1024,1024,1024,1024,57.1,-89.9,96,3.94,3.952,3.933,3.955,3.958,3.948,18.97,82.4,14,Waypoint,
36.0257504,-118.5730202,6663.9896633789,123.359584,0,2.04617132532,18300,2018-07-04 22:35:33,14,0,23.688,6663.9896633789,123.359584,0.8052984,2.25418642384,0,0,-0.671082,57.2, 2.7, 1,0,0,1024,1024,1024,1024,57.1,-89.9,96,3.94,3.952,3.933,3.955,3.958,3.948,18.97,82.4,14,Waypoint,
36.0257503,-118.5730202,6664.9739153789,124.343836,0,2.02163064212,18400,2018-07-04 22:35:33,14,0,23.688,6664.9739153789,124.343836,0.8052984,2.25418642384,0,0,-0.671082,57.3, 2.6, 1.1,0,0,1024,1024,1024,1024,57.1,-90,96,3.94,3.952,3.933,3.955,3.958,3.948,18.97,82.4,14,Waypoint,
36.0257502,-118.5730202,6665.9581673789,125.328088,0,1.99745085132,18500,2018-07-04 22:35:33,14,0,23.688,6665.9581673789,125.328088,0.8052984,2.25418642384,0,0,-0.671082,57.4, 2.5, 1,0,0,1024,1024,1024,1024,57.1,-90,96,3.94,3.952,3.933,3.955,3.958,3.948,18.97,82.4,14,Waypoint,
36.0257502,-118.5730203,6666.9424193789,126.31234,0,1.97531502384,18600,2018-07-04 22:35:33,14,0,23.688,6666.9424193789,126.31234,0.8052984,2.25418642384,0,0,-0.671082,57.3, 2.2, 0.9,0,0,1024,1024,1024,1024,57.1,-90,96,3.94,3.952,3.933,3.955,3.958,3.948,18.97,82.4,14,Waypoint,
36.0257502,-118.5730203,6667.9266713789,127.296592,0,1.97531502384,18700,2018-07-04 22:35:33,14,0,23.688,6667.9266713789,127.296592,0.8052984,2.25418642384,0,0,-0.671082,57.3, 1.9, 0.8,0,0,1024,1024,1024,1024,57.1,-90,96,3.94,3.952,3.933,3.955,3.958,3.948,18.97,82.4,14,Waypoint,
36.02575,-118.5730204,6669.5670913789,128.937012,0,1.90507552028,18900,2018-07-04 22:35:33,14,0,23.688,6669.5670913789,128.937012,0.8052984,2.25418642384,0,0,-0.671082,57.2, 1.8, 0.5,0,0,1024,1024,1024,1024,57.1,-90,96,3.94,3.952,3.933,3.955,3.958,3.948,18.97,82.4,14,Waypoint,
36.0257499,-118.5730204,6670.5513433789,129.921264,0,1.88152236992,19000,2018-07-04 22:35:33,14,0,23.716,6670.5513433789,129.921264,0.8052984,2.25418642384,0,0,-0.671082,57.2, 1.9, 0.3,0,0,1024,1024,1024,1024,57.1,-90,96,3.948,3.938,3.939,3.959,3.95,3.953,18.48,82.4,14,Waypoint,
36.0257499,-118.5730205,6671.5355953789,130.905516,0,1.85894362904,19100,2018-07-04 22:35:34,14,0,23.716,6671.5355953789,130.905516,0.8052984,2.25418642384,0,0,-0.671082,57.3, 2, 0.2,0,0,1024,1024,1024,1024,57.1,-90,96,3.948,3.938,3.939,3.959,3.95,3.953,18.48,82.4,14,Waypoint,
36.0257497,-118.5730205,6673.5040993789,132.87402,0,1.81253614724,19300,2018-07-04 22:35:34,15,0,23.716,6673.5040993789,132.87402,0.8052984,2.25418642384,0,0,-0.671082,57.7, 1.6, 0.2,0,0,1024,1024,1024,1024,57.1,-90,96,3.948,3.938,3.939,3.959,3.95,3.953,18.48,82.4,14,Waypoint,
36.0257497,-118.5730205,6674.4883513789,133.858272,0,1.81253614724,19400,2018-07-04 22:35:34,15,0,23.716,6674.4883513789,133.858272,0.8052984,2.25418642384,0,0,-0.671082,57.9, 1.8, 0.2,0,0,1024,1024,1024,1024,57.1,-89.9,96,3.948,3.938,3.939,3.959,3.95,3.953,18.48,82.4,14,Waypoint,
36.0257496,-118.5730204,6675.4726033789,134.842524,0,1.81343181656,19500,2018-07-04 22:35:34,14,0,23.716,6675.4726033789,134.842524,0.8052984,2.25418642384,0,0,-0.671082,58, 2.1, 0,0,0,1024,1024,1024,1024,57.1,-89.9,96,3.948,3.938,3.939,3.959,3.95,3.953,18.48,82.4,14,Waypoint,
36.0257496,-118.5730204,6676.4568553789,135.826776,0,1.81343181656,19600,2018-07-04 22:35:34,14,0,23.716,6676.4568553789,135.826776,0.8052984,2.25418642384,0,0,-0.671082,58, 2.4, 0,0,0,1024,1024,1024,1024,57.1,-89.9,96,3.948,3.938,3.939,3.959,3.95,3.953,18.48,82.4,14,Waypoint,
36.0257496,-118.5730203,6677.4411073789,136.811028,0,1.83704730288,19700,2018-07-04 22:35:34,14,0,23.716,6677.4411073789,136.811028,0.8052984,2.25418642384,0,0,-0.671082,57.9, 2.6, 0.1,0,0,1024,1024,1024,1024,57.1,-89.9,96,3.948,3.938,3.939,3.959,3.95,3.953,18.48,82.4,14,Waypoint,
36.0257496,-118.5730203,6678.4253593789,137.79528,0,1.83704730288,19800,2018-07-04 22:35:34,14,0,23.716,6678.4253593789,137.79528,0.8052984,2.25418642384,0,0,-0.671082,57.8, 2.5, 0,0,0,1024,1024,1024,1024,57.1,-89.9,96,3.948,3.938,3.939,3.959,3.95,3.953,18.48,82.4,14,Waypoint,
36.0257496,-118.5730202,6679.7376953789,139.107616,0,1.8608268312,19900,2018-07-04 22:35:34,14,0,23.716,6679.7376953789,139.107616,0.8052984,2.25418642384,0,0,-0.671082,57.6, 2.6, -0.1,0,0,1024,1024,1024,1024,57.1,-89.9,96,3.948,3.938,3.939,3.959,3.95,3.953,18.48,82.4,14,Waypoint,
36.0257496,-118.5730202,6680.7219473789,140.091868,0,1.8608268312,20000,2018-07-04 22:35:34,14,0,23.628,6680.7219473789,140.091868,0.8052984,2.25418642384,0,0,-0.671082,57.3, 2.7, 0,0,0,1024,1024,1024,1024,57.1,-89.9,96,3.931,3.934,3.921,3.935,3.947,3.928,19.228,82.4,14,Waypoint,
36.0257496,-118.5730202,6681.7061993789,141.07612,0,1.8608268312,20100,2018-07-04 22:35:35,14,0,23.628,6681.7061993789,141.07612,0.8052984,2.25418642384,0,0,-0.671082,57, 2.6, 0.5,0,0,1024,1024,1024,1024,57.1,-89.9,96,3.931,3.934,3.921,3.935,3.947,3.928,19.228,82.4,14,Waypoint,
36.0257496,-118.5730202,6682.6904513789,142.060372,0,1.8608268312,20200,2018-07-04 22:35:35,14,0,23.628,6682.6904513789,142.060372,0.8052984,2.25418642384,0,0,-0.671082,56.8, 2.4, 0.6,0,0,1024,1024,1024,1024,57.1,-89.9,96,3.931,3.934,3.921,3.935,3.947,3.928,19.228,82.4,14,Waypoint,
36.0257496,-118.5730201,6683.6747033789,143.044624,0,1.88477040152,20300,2018-07-04 22:35:35,14,0,23.628,6683.6747033789,143.044624,0.8052984,2.25418642384,0,0,-0.671082,56.7, 2.3, 0.5,0,0,1024,1024,1024,1024,57.1,-90,96,3.931,3.934,3.921,3.935,3.947,3.928,19.228,82.4,14,Waypoint,
36.0257496,-118.5730201,6684.6589553789,144.028876,0,1.88477040152,20400,2018-07-04 22:35:35,14,0,23.628,6684.6589553789,144.028876,0.8052984,2.25418642384,0,0,-0.671082,56.6, 2.3, 0,0,0,1024,1024,1024,1024,57.1,-89.9,96,3.931,3.934,3.921,3.935,3.947,3.928,19.228,82.4,14,Waypoint,
36.0257496,-118.57302,6685.6432073789,145.013128,0,1.90886817132,20500,2018-07-04 22:35:35,14,0,23.628,6685.6432073789,145.013128,0.8052984,2.25418642384,0,0,-0.671082,56.6, 2.5, -0.2,0,0,1024,1024,1024,1024,57.1,-89.9,96,3.931,3.934,3.921,3.935,3.947,3.928,19.228,82.4,14,Waypoint,
36.0257495,-118.5730199,6686.9555433789,146.325464,0,1.91269363076,20600,2018-07-04 22:35:35,14,0,23.628,6686.9555433789,146.325464,0.8052984,2.25418642384,0,0,-0.671082,56.7, 2.5, -0.4,0,0,1024,1024,1024,1024,57.1,-90,96,3.931,3.934,3.921,3.935,3.947,3.928,19.228,82.4,14,Waypoint,
36.0257495,-118.5730199,6687.9397953789,147.309716,0,1.91269363076,20700,2018-07-04 22:35:35,14,0,23.628,6687.9397953789,147.309716,0.8052984,2.25418642384,0,0,-0.671082,56.8, 2.6, -0.6,0,0,1024,1024,1024,1024,57.1,-89.9,96,3.931,3.934,3.921,3.935,3.947,3.928,19.228,82.4,14,Waypoint,
36.0257495,-118.5730198,6688.9240473789,148.293968,0,1.93734586252,20800,2018-07-04 22:35:35,14,0,23.628,6688.9240473789,148.293968,0.8052984,2.25418642384,0,0,-0.671082,57.1, 2.6, -0.8,0,0,1024,1024,1024,1024,57.1,-89.9,96,3.931,3.934,3.921,3.935,3.947,3.928,19.228,82.4,14,Waypoint,
36.0257494,-118.5730197,6689.9082993789,149.27822,0,1.94269691256,20900,2018-07-04 22:35:35,14,0,23.628,6689.9082993789,149.27822,0.8052984,2.25418642384,0,0,-0.671082,57.4, 2.6, -1,0,0,1024,1024,1024,1024,57.1,-89.9,96,3.931,3.934,3.921,3.935,3.947,3.928,19.228,82.4,14,Waypoint,
36.0257495,-118.5730197,6690.8925513789,150.262472,0,1.96212932788,21000,2018-07-04 22:35:35,14,0,23.628,6690.8925513789,150.262472,0.8052984,2.25418642384,0,0,-0.671082,57.7, 2.7, -0.7,0,0,1024,1024,1024,1024,57.1,-89.9,96,3.931,3.934,3.921,3.935,3.947,3.928,19.228,82.4,14,Waypoint,
36.0257495,-118.5730196,6691.8768033789,151.246724,0,1.98704402684,21100,2018-07-04 22:35:36,14,0,23.628,6691.8768033789,151.246724,0.8052984,2.25418642384,0,0,-0.671082,57.9, 2.9, -0.4,0,0,1024,1024,1024,1024,57.1,-89.9,96,3.931,3.934,3.921,3.935,3.947,3.928,19.228,82.4,14,Waypoint,
36.0257496,-118.5730196,6692.5329713789,151.902892,0,2.0067093818,21200,2018-07-04 22:35:36,14,0,23.628,6692.5329713789,151.902892,0.8052984,2.25418642384,0,0,-0.671082,58, 2.9, -0.2,0,0,1024,1024,1024,1024,57.1,-89.9,96,3.931,3.934,3.921,3.935,3.947,3.928,19.228,82.4,14,Waypoint,
36.0257496,-118.5730196,6693.5172233789,152.887144,0,2.0067093818,21300,2018-07-04 22:35:36,14,0,23.628,6693.5172233789,152.887144,0.8052984,2.25418642384,0,0,-0.671082,57.9, 3.1, 0.2,0,0,1024,1024,1024,1024,57.1,-89.9,96,3.931,3.934,3.921,3.935,3.947,3.928,19.228,82.4,14,Waypoint,
36.0257497,-118.5730196,6694.5014753789,153.871396,0,2.02684061604,21400,2018-07-04 22:35:36,14,0,23.628,6694.5014753789,153.871396,0.8052984,2.25418642384,0,0,-0.671082,57.7, 3.4, 0.7,0,0,1024,1024,1024,1024,57.1,-89.9,96,3.931,3.934,3.921,3.935,3.947,3.928,19.228,82.4,14,Waypoint,
36.0257498,-118.5730195,6696.4699793789,155.8399,0,2.07172906892,21600,2018-07-04 22:35:36,14,0,23.628,6696.4699793789,155.8399,0.8052984,2.25418642384,0,0,-0.671082,57.5, 3.6, 0.7,0,0,1024,1024,1024,1024,57.1,-89.9,96,3.931,3.934,3.921,3.935,3.947,3.928,19.228,82.4,14,Waypoint,
36.02575,-118.5730194,6698.4384833789,157.808404,0,2.13767395292,21800,2018-07-04 22:35:36,14,0,23.628,6698.4384833789,157.808404,0.8052984,2.25418642384,0,0,-0.671082,57.3, 3.9, 0.8,0,0,1024,1024,1024,1024,57.1,-89.9,96,3.931,3.934,3.921,3.935,3.947,3.928,19.228,82.4,14,Waypoint,
36.02575,-118.5730194,6699.4227353789,158.792656,0,2.13767395292,21900,2018-07-04 22:35:36,14,0,23.628,6699.4227353789,158.792656,0.8052984,2.25418642384,0,0,-0.671082,57.3, 4.2, 0.7,0,0,1024,1024,1024,1024,57.1,-89.9,96,3.931,3.934,3.921,3.935,3.947,3.928,19.228,82.4,14,Waypoint,
36.0257501,-118.5730193,6700.4069873789,159.776908,0,2.18291345568,22000,2018-07-04 22:35:36,14,0,23.658,6700.4069873789,159.776908,0.8052984,2.25418642384,0,0,-0.671082,57.3, 4.2, 0.5,0,0,1024,1024,1024,1024,57.1,-89.9,96,3.93,3.933,3.94,3.959,3.953,3.958,17.942,82.4,14,Waypoint,
36.0257501,-118.5730193,6701.0631553789,160.433076,0,2.18291345568,22100,2018-07-04 22:35:37,14,0,23.658,6701.0631553789,160.433076,0.8052984,2.25418642384,0,0,-0.671082,57.3, 4.1, 0.4,0,0,1024,1024,1024,1024,57.1,-89.9,96,3.93,3.933,3.94,3.959,3.953,3.958,17.942,82.4,14,Waypoint,
36.0257502,-118.5730192,6703.0316593789,162.40158,0,2.22822185608,22300,2018-07-04 22:35:37,14,0,23.658,6703.0316593789,162.40158,0.8052984,2.25418642384,0,0,-0.671082,57.3, 4, 0.2,0,0,1024,1024,1024,1024,57.1,-89.9,96,3.93,3.933,3.94,3.959,3.953,3.958,17.942,82.4,14,Waypoint,
36.0257502,-118.5730192,6704.0159113789,163.385832,0,2.22822185608,22400,2018-07-04 22:35:37,14,0,23.658,6704.0159113789,163.385832,0.8052984,2.25418642384,0,0,-0.671082,57.3, 4.1, 0.2,0,0,1024,1024,1024,1024,57.1,-89.9,96,3.93,3.933,3.94,3.959,3.953,3.958,17.942,82.4,14,Waypoint,
36.0257502,-118.5730192,6705.0001633789,164.370084,0,2.22822185608,22500,2018-07-04 22:35:37,14,0,23.658,6705.0001633789,164.370084,0.8052984,2.25418642384,0,0,-0.671082,57.3, 4.2, 0.1,0,0,1024,1024,1024,1024,57.1,-89.9,96,3.93,3.933,3.94,3.959,3.953,3.958,17.942,82.4,14,Waypoint,
36.0257502,-118.5730192,6705.9844153789,165.354336,0,2.22822185608,22600,2018-07-04 22:35:37,14,0,23.658,6705.9844153789,165.354336,0.8052984,2.25418642384,0,0,-0.671082,57.4, 4.4, 0.3,0,0,1024,1024,1024,1024,57.1,-90,96,3.93,3.933,3.94,3.959,3.953,3.958,17.942,82.4,14,Waypoint,
36.0257502,-118.5730192,6706.9686673789,166.338588,0,2.22822185608,22700,2018-07-04 22:35:37,14,0,23.658,6706.9686673789,166.338588,0.8052984,2.25418642384,0,0,-0.671082,57.4, 4.5, 0.4,0,0,1024,1024,1024,1024,57.1,-89.9,96,3.93,3.933,3.94,3.959,3.953,3.958,17.942,82.4,14,Waypoint,
36.0257502,-118.5730192,6707.9529193789,167.32284,0,2.22822185608,22800,2018-07-04 22:35:37,14,0,23.658,6707.9529193789,167.32284,0.8052984,2.25418642384,0,0,-0.671082,57.5, 4.3, 0.4,0,0,1024,1024,1024,1024,57.1,-89.9,96,3.93,3.933,3.94,3.959,3.953,3.958,17.942,82.4,14,Waypoint,
36.0257502,-118.5730193,6708.9371713789,168.307092,0,2.20445545112,22900,2018-07-04 22:35:37,14,0,23.658,6708.9371713789,168.307092,0.8052984,2.25418642384,0,0,-0.671082,57.5, 4, 0.3,0,0,1024,1024,1024,1024,57.1,-90,96,3.93,3.933,3.94,3.959,3.953,3.958,17.942,82.4,14,Waypoint,
36.0257502,-118.5730193,6709.9214233789,169.291344,0,2.20445545112,23000,2018-07-04 22:35:37,14,0,23.559,6709.9214233789,169.291344,0.8052984,2.25418642384,0,0,-0.671082,57.4, 3.8, 0,0,0,1024,1024,1024,1024,57.1,-89.9,96,3.903,3.92,3.912,3.945,3.93,3.939,19.015,82.4,14,Waypoint,
36.0257501,-118.5730194,6710.9056753789,170.275596,0,2.15905190636,23100,2018-07-04 22:35:38,14,0,23.559,6710.9056753789,170.275596,0.8052984,2.25418642384,0,0,-0.671082,57.4, 3.5, -0.1,0,0,1024,1024,1024,1024,57.1,-89.9,96,3.903,3.92,3.912,3.945,3.93,3.939,19.015,82.4,14,Waypoint,
36.0257501,-118.5730194,6711.8899273789,171.259848,0,2.15905190636,23200,2018-07-04 22:35:38,14,0,23.559,6711.8899273789,171.259848,0.8052984,2.25418642384,0,0,-0.671082,57.3, 3.3, 0,0,0,1024,1024,1024,1024,57.1,-90,96,3.903,3.92,3.912,3.945,3.93,3.939,19.015,82.4,14,Waypoint,
36.0257501,-118.5730195,6712.8741793789,172.2441,0,2.13532815232,23300,2018-07-04 22:35:38,14,0,23.559,6712.8741793789,172.2441,0.8052984,2.25418642384,0,0,-0.671082,57.3, 3.3, 0,0,0,1024,1024,1024,1024,57.1,-90,96,3.903,3.92,3.912,3.945,3.93,3.939,19.015,82.4,14,Waypoint,
36.02575,-118.5730196,6713.8584313789,173.228352,0,2.08989179916,23400,2018-07-04 22:35:38,14,0,23.559,6713.8584313789,173.228352,0.8052984,2.25418642384,0,0,-0.671082,57.2, 3.1, 0.1,0,0,1024,1024,1024,1024,57.1,-90,96,3.903,3.92,3.912,3.945,3.93,3.939,19.015,82.4,14,Waypoint,
36.02575,-118.5730197,6714.5145993789,173.88452,0,2.06622053856,23500,2018-07-04 22:35:38,14,0,23.559,6714.5145993789,173.88452,0.8052984,2.25418642384,0,0,-0.671082,57.2, 2.9, 0,0,0,1024,1024,1024,1024,57.1,-90,96,3.903,3.92,3.912,3.945,3.93,3.939,19.015,82.4,14,Waypoint,
36.0257499,-118.5730197,6715.4988513789,174.868772,0,2.04452434364,23700,2018-07-04 22:35:38,14,0,23.559,6715.4988513789,174.868772,0.8052984,2.25418642384,0,0,-0.671082,57.2, 2.7, 0.1,0,0,1024,1024,1024,1024,57.1,-90,96,3.903,3.92,3.912,3.945,3.93,3.939,19.015,82.4,14,Waypoint,
36.0257499,-118.5730198,6716.4831033789,175.853024,0,2.020751377,23800,2018-07-04 22:35:38,14,0,23.559,6716.4831033789,175.853024,0.8052984,2.25418642384,0,0,-0.671082,57.2, 2.7, 0.1,0,0,1024,1024,1024,1024,57.1,-90,96,3.903,3.92,3.912,3.945,3.93,3.939,19.015,82.4,14,Waypoint,
36.0257498,-118.5730199,6718.4516073789,177.821528,0,1.97534783224,23900,2018-07-04 22:35:38,14,0,23.559,6718.4516073789,177.821528,0.8052984,2.25418642384,0,0,-0.671082,57.4, 2.6, 0,0,0,1024,1024,1024,1024,57.1,-90,96,3.903,3.92,3.912,3.945,3.93,3.939,19.015,82.4,14,Waypoint,
36.0257497,-118.57302,6719.4358593789,178.80578,0,1.9300197468,24000,2018-07-04 22:35:38,14,0,23.564,6719.4358593789,178.80578,0.8052984,2.25418642384,0,0,-0.671082,57.4, 2.7, -0.1,0,0,1024,1024,1024,1024,57.1,-90,96,3.903,3.92,3.912,3.945,3.93,3.939,18.993,82.4,14,Waypoint,
36.0257497,-118.5730201,6720.4201113789,179.790032,0,1.90618772504,24100,2018-07-04 22:35:39,14,0,23.564,6720.4201113789,179.790032,0.8052984,2.25418642384,0,0,-0.671082,57.4, 2.7, -0.2,0,0,1024,1024,1024,1024,57.1,-90,96,3.903,3.92,3.912,3.945,3.93,3.939,18.993,82.4,14,Waypoint,
36.0257496,-118.5730202,6721.4043633789,180.774284,0,1.8608268312,24200,2018-07-04 22:35:39,14,0,23.564,6721.4043633789,180.774284,0.8052984,2.25418642384,0,0,-0.671082,57.4, 2.5, -0.1,0,0,1024,1024,1024,1024,57.1,-90,96,3.903,3.92,3.912,3.945,3.93,3.939,18.993,82.4,14,Waypoint,
36.0257496,-118.5730203,6722.3886153789,181.758536,0,1.83704730288,24300,2018-07-04 22:35:39,14,0,23.564,6722.3886153789,181.758536,0.8052984,2.25418642384,0,0,-0.671082,57.5, 2.2, 0,0,0,1024,1024,1024,1024,57.1,-90,96,3.903,3.92,3.912,3.945,3.93,3.939,18.993,82.4,14,Waypoint,
36.0257495,-118.5730204,6723.3728673789,182.742788,0,1.79164703896,24400,2018-07-04 22:35:39,14,0,23.564,6723.3728673789,182.742788,0.8052984,2.25418642384,0,0,-0.671082,57.4, 1.9, 0.1,0,0,1024,1024,1024,1024,57.1,-90,96,3.903,3.92,3.912,3.945,3.93,3.939,18.993,82.4,14,Waypoint,
36.0257495,-118.5730204,6724.3571193789,183.72704,0,1.79164703896,24500,2018-07-04 22:35:39,14,0,23.564,6724.3571193789,183.72704,0.8052984,2.25418642384,0,0,-0.671082,57.4, 2, 0.1,0,0,1024,1024,1024,1024,57.1,-90,96,3.903,3.92,3.912,3.945,3.93,3.939,18.993,82.4,14,Waypoint,
36.0257495,-118.5730205,6725.3413713789,184.711292,0,1.76792000408,24600,2018-07-04 22:35:39,14,0,23.564,6725.3413713789,184.711292,0.8052984,2.25418642384,0,0,-0.671082,57.4, 2.1, 0,0,0,1024,1024,1024,1024,57.1,-90,96,3.903,3.92,3.912,3.945,3.93,3.939,18.993,82.4,14,Waypoint,
36.0257494,-118.5730205,6726.3256233789,185.695544,0,1.74633207688,24700,2018-07-04 22:35:39,14,0,23.564,6726.3256233789,185.695544,0.8052984,2.25418642384,0,0,-0.671082,57.3, 2.1, 0,0,0,1024,1024,1024,1024,57.1,-90,96,3.903,3.92,3.912,3.945,3.93,3.939,18.993,82.4,14,Waypoint,
36.0257494,-118.5730206,6727.3098753789,186.679796,0,1.72248693176,24800,2018-07-04 22:35:39,14,0,23.564,6727.3098753789,186.679796,0.8052984,2.25418642384,0,0,-0.671082,57.2, 2.1, 0.1,0,0,1024,1024,1024,1024,57.1,-90,96,3.903,3.92,3.912,3.945,3.93,3.939,18.993,82.4,14,Waypoint,
36.0257493,-118.5730206,6728.2941273789,187.664048,0,1.7010991358,24900,2018-07-04 22:35:39,14,0,23.564,6728.2941273789,187.664048,0.8052984,2.25418642384,0,0,-0.671082,57.1, 2.1, 0.2,0,0,1024,1024,1024,1024,57.1,-90,96,3.903,3.92,3.912,3.945,3.93,3.939,18.993,82.4,14,Waypoint,
36.0257493,-118.5730206,6729.2783793789,188.6483,0,1.7010991358,25000,2018-07-04 22:35:39,14,0,23.564,6729.2783793789,188.6483,0.8052984,2.25418642384,0,0,-0.671082,57, 2.2, 0,0,0,1024,1024,1024,1024,57.1,-90,95,3.907,3.914,3.903,3.951,3.928,3.924,18.993,84.2,14,Waypoint,
36.0257492,-118.5730206,6730.2626313789,189.632552,0,1.68023627424,25100,2018-07-04 22:35:40,14,0,23.564,6730.2626313789,189.632552,0.8052984,2.25418642384,0,0,-0.671082,57, 2.2, -0.1,0,0,1024,1024,1024,1024,57.1,-90,95,3.907,3.914,3.903,3.951,3.928,3.924,18.993,84.2,14,Waypoint,
36.0257492,-118.5730206,6731.2468833789,190.616804,0,1.68023627424,25200,2018-07-04 22:35:40,14,0,23.564,6731.2468833789,190.616804,0.8052984,2.25418642384,0,0,-0.671082,56.9, 2.2, -0.3,0,0,1024,1024,1024,1024,57.1,-90,95,3.907,3.914,3.903,3.951,3.928,3.924,18.993,84.2,14,Waypoint,
36.0257491,-118.5730206,6732.5592193789,191.92914,0,1.65991147044,25300,2018-07-04 22:35:40,14,0,23.564,6732.5592193789,191.92914,0.8052984,2.25418642384,0,0,-0.671082,56.8, 2, -0.3,0,0,1024,1024,1024,1024,57.1,-90,95,3.907,3.914,3.903,3.951,3.928,3.924,18.993,84.2,14,Waypoint,
36.025749,-118.5730206,6733.5434713789,192.913392,0,1.64014440944,25400,2018-07-04 22:35:40,14,0,23.564,6733.5434713789,192.913392,0.8052984,2.25418642384,0,0,-0.671082,56.8, 2.1, -0.5,0,0,1024,1024,1024,1024,57.1,-90,95,3.907,3.914,3.903,3.951,3.928,3.924,18.993,84.2,14,Waypoint,
36.025749,-118.5730206,6734.5277233789,193.897644,0,1.64014440944,25500,2018-07-04 22:35:40,14,0,23.564,6734.5277233789,193.897644,0.8052984,2.25418642384,0,0,-0.671082,56.9, 2.1, -0.8,0,0,1024,1024,1024,1024,57.1,-90,95,3.907,3.914,3.903,3.951,3.928,3.924,18.993,84.2,14,Waypoint,
36.0257489,-118.5730206,6735.5119753789,194.881896,0,1.62096133796,25600,2018-07-04 22:35:40,14,0,23.564,6735.5119753789,194.881896,0.8052984,2.25418642384,0,0,-0.671082,57, 2.2, -0.7,0,0,1024,1024,1024,1024,57.1,-90,95,3.907,3.914,3.903,3.951,3.928,3.924,18.993,84.2,14,Waypoint,
36.0257489,-118.5730206,6736.4962273789,195.866148,0,1.62096133796,25700,2018-07-04 22:35:40,14,0,23.564,6736.4962273789,195.866148,0.8052984,2.25418642384,0,0,-0.671082,57.2, 2.5, -0.5,0,0,1024,1024,1024,1024,57.1,-90,95,3.907,3.914,3.903,3.951,3.928,3.924,18.993,84.2,14,Waypoint,
36.0257489,-118.5730205,6737.4804793789,196.8504,0,1.6462762994,25800,2018-07-04 22:35:40,14,0,23.564,6737.4804793789,196.8504,0.8052984,2.25418642384,0,0,-0.671082,57.5, 2.6, -0.5,0,0,1024,1024,1024,1024,57.1,-90,95,3.907,3.914,3.903,3.951,3.928,3.924,18.993,84.2,14,Waypoint,
36.0257489,-118.5730205,6738.4647313789,197.834652,0,1.6462762994,25900,2018-07-04 22:35:40,14,0,23.564,6738.4647313789,197.834652,0.8052984,2.25418642384,0,0,-0.671082,57.8, 2.6, -0.6,0,0,1024,1024,1024,1024,57.1,-90,95,3.907,3.914,3.903,3.951,3.928,3.924,18.993,84.2,14,Waypoint,
36.0257488,-118.5730205,6739.4489833789,198.818904,0,1.62798233556,26000,2018-07-04 22:35:40,14,0,23.457,6739.4489833789,198.818904,0.8052984,2.25418642384,0,0,-0.671082,58, 2.5, -0.6,0,0,1024,1024,1024,1024,57.1,-90,95,3.903,3.909,3.888,3.918,3.915,3.916,20.164,84.2,14,Waypoint,
36.0257488,-118.5730204,6741.4174873789,200.787408,0,1.65371724452,26200,2018-07-04 22:35:41,14,0,23.457,6741.4174873789,200.787408,0.8052984,2.25418642384,0,0,-0.671082,58.2, 2.4, -0.3,0,0,1024,1024,1024,1024,57.1,-90,95,3.903,3.909,3.888,3.918,3.915,3.916,20.164,84.2,14,Waypoint,
36.0257488,-118.5730203,6744.3702433789,203.740164,0,1.6795768254,26410,2018-07-04 22:35:41,14,0,23.457,6744.3702433789,203.740164,0.8052984,2.25418642384,0,0,-0.671082,58.1, 2.8, -0.4,0,0,1024,1024,1024,1024,57.1,-89.9,95,3.903,3.909,3.888,3.918,3.915,3.916,20.164,84.2,14,Waypoint,
36.0257488,-118.5730203,6744.3702433789,203.740164,0,1.6795768254,26500,2018-07-04 22:35:41,14,0,23.457,6744.3702433789,203.740164,0.8052984,2.25418642384,0,0,-0.671082,58.1, 2.8, -0.4,0,0,1024,1024,1024,1024,57.1,-89.9,95,3.903,3.909,3.888,3.918,3.915,3.916,20.164,84.2,14,Waypoint,
36.0257488,-118.5730203,6745.3544953789,204.724416,0,1.6795768254,26600,2018-07-04 22:35:41,14,0,23.457,6745.3544953789,204.724416,0.8052984,2.25418642384,0,0,-0.671082,58, 2.8, -0.4,0,0,1024,1024,1024,1024,57.1,-89.9,95,3.903,3.909,3.888,3.918,3.915,3.916,20.164,84.2,14,Waypoint,
36.0257488,-118.5730203,6746.3387473789,205.708668,0,1.6795768254,26700,2018-07-04 22:35:41,14,0,23.457,6746.3387473789,205.708668,0.8052984,2.25418642384,0,0,-0.671082,58, 2.8, -0.4,0,0,1024,1024,1024,1024,57.1,-90,95,3.903,3.909,3.888,3.918,3.915,3.916,20.164,84.2,14,Waypoint,
