Latitude, Longitude, Altitude (m), Time, Sats, Speed (m/s), Range (m), Battery (%), Roll (deg), Pitch (deg), Yaw (deg), Images, HD Signal (%), RC Signal (%), Battery Temp (C), Battery Voltage (mV), Battery Current (mA), Battery Energy (mAh), Battery Capacity (mAh), Battery Discharges, flyState, timestamp (Unix), LastUpdate (ms), radioChannel, Rc_elevator, Rc_aileron, Rc_throttle, Rc_rudder, Rc_gyro, Dronetype, Battery_Cell1 (mV), Battery_Cell2 (mV), Battery_Cell3 (mV), Battery_Cell4 (mV), Battery_Cell5 (mV), Battery_Cell6 (mV), Video, isFlying, elapsedTime (ms), gimbalPitch (deg), gimbalRoll (deg), gimbalYaw (deg), VelocityX (m/s), VelocityY (m/s), VelocityZ (m/s), GroundSmear (cm), App Version, Aircraft Name, Aircraft Firmware, Aircraft Serial Number, Battery Serial Number, Battery Lifetime (%), App_Tip, App_Warning, CurrentFlightStartingIndex, CurrentFlightLastVisitedWaypoint, PreviousFlightEndingWaypointIndex
38.5568751, -120.5320771, 0.000, 13:56:35.660, 11, 0.10, 0.09, 98, -1.000, 1.800, 19.000, 389, 100, 99, 28, 25730, -2954, 5288, 5396, 16, 11, 1529528195.660, 51, 0, 1024, 1024, 1024, 1024, 0, 6, 4318, 4311, 4172, 4307, 4285, 4307, 0, 1, 2910, -89.900, 0.000, 18.900, 0.000, -0.100, -0.100, 0.1, MapPilot_2.8.1_04242018, Dendroctonus I, 1.3.1.00, 041DDC1887, 1058171200279, 96, DJI_0387.jpg, Starting Mission from Lat/Long: 38.55687/-120.53207 Camera: Zenmuse X3 - Overlap: 90/90 - Active Connection: No, 15, 15, 15
38.5568750, -120.5320774, 0.000, 13:56:35.750, 11, 0.20, 0.11, 98, -0.300, 1.300, 19.100, 389, 100, 99, 28, 25730, -2954, 5288, 5396, 16, 11, 1529528195.751, 48, 0, 1024, 1024, 1024, 1024, 0, 6, 4318, 4311, 4172, 4307, 4285, 4307, 0, 1, 3001, -89.900, 0.000, 18.900, 0.000, -0.200, -0.300, 0.1, , , , , , 96, , , 15, 15, 15
38.5568750, -120.5320777, 0.000, 13:56:35.851, 11, 0.20, 0.14, 98, 0.600, 0.400, 19.200, 389, 100, 99, 28, 25730, -2954, 5288, 5396, 16, 11, 1529528195.851, 40, 0, 1024, 1024, 1024, 1024, 0, 6, 4318, 4311, 4172, 4307, 4285, 4307, 0, 1, 3101, -90.000, 0.000, 18.900, 0.000, -0.200, -0.400, 0.1, , , , , , 96, , , 15, 15, 15
38.5568750, -120.5320780, 0.000, 13:56:35.951, 11, 0.20, 0.16, 98, 1.000, -0.300, 19.300, 389, 100, 99, 28, 25728, -3722, 5288, 5396, 16, 11, 1529528195.951, 40, 0, 1024, 1024, 1024, 1024, 0, 6, 4258, 4262, 4249, 4252, 4272, 4236, 0, 1, 3201, -90.000, 0.000, 18.900, 0.000, -0.200, -0.400, 0.0, , , , , , 96, , , 15, 15, 15
38.5568750, -120.5320783, 0.100, 13:56:36.051, 11, 0.20, 0.19, 98, 1.600, -1.000, 19.400, 389, 100, 99, 28, 25728, -3722, 5288, 5396, 16, 11, 1529528196.051, 17, 0, 1024, 1024, 1024, 1024, 0, 6, 4258, 4262, 4249, 4252, 4272, 4236, 0, 1, 3301, -90.000, 0.000, 18.900, 0.000, -0.200, -0.500, 0.0, , , , , , 96, , , 15, 15, 15
38.5568749, -120.5320786, 0.100, 13:56:36.151, 10, 0.20, 0.22, 98, 1.800, -1.400, 19.500, 389, 100, 99, 28, 25728, -3722, 5288, 5396, 16, 11, 1529528196.151, 36, 0, 1024, 1024, 1024, 1024, 0, 6, 4258, 4262, 4249, 4252, 4272, 4236, 0, 1, 3401, -90.000, 0.000, 18.800, 0.000, -0.200, -0.400, 0.0, , , , , , 96, , , 15, 15, 15
38.5568749, -120.5320788, 0.100, 13:56:36.251, 10, 0.10, 0.24, 98, 1.600, -1.400, 19.600, 389, 100, 99, 28, 25728, -3722, 5288, 5396, 16, 11, 1529528196.251, 22, 0, 1024, 1024, 1024, 1024, 0, 6, 4258, 4262, 4249, 4252, 4272, 4236, 0, 1, 3501, -90.000, 0.000, 18.900, 0.000, -0.100, -0.300, 0.0, , , , , , 96, , , 15, 15, 15
38.5568749, -120.5320790, 0.200, 13:56:36.351, 10, 0.10, 0.25, 98, 1.400, -1.200, 19.700, 389, 100, 99, 28, 25728, -3722, 5288, 5396, 16, 11, 1529528196.351, 24, 0, 1024, 1024, 1024, 1024, 0, 6, 4258, 4262, 4249, 4252, 4272, 4236, 0, 1, 3601, -90.000, 0.000, 18.900, 0.000, -0.100, -0.400, 0.0, , , , , , 96, , , 15, 15, 15
38.5568749, -120.5320791, 0.200, 13:56:36.451, 10, 0.10, 0.26, 98, 1.000, -0.700, 19.800, 389, 100, 99, 28, 25728, -3722, 5288, 5396, 16, 11, 1529528196.452, 26, 0, 1024, 1024, 1024, 1024, 0, 6, 4258, 4262, 4249, 4252, 4272, 4236, 0, 1, 3701, -90.000, 0.000, 18.900, 0.000, -0.100, -0.400, 0.0, , , , , , 96, , , 15, 15, 15
38.5568749, -120.5320792, 0.300, 13:56:36.551, 10, 0.00, 0.27, 98, 1.000, -0.600, 19.900, 389, 100, 99, 28, 25728, -3722, 5288, 5396, 16, 11, 1529528196.551, 29, 0, 1024, 1024, 1024, 1024, 0, 6, 4258, 4262, 4249, 4252, 4272, 4236, 0, 1, 3801, -90.000, 0.000, 18.900, 0.000, 0.000, -0.300, 0.0, , , , , , 96, , , 15, 15, 15
38.5568748, -120.5320794, 0.300, 13:56:36.651, 10, 0.00, 0.29, 98, 1.000, -0.800, 19.800, 389, 100, 99, 28, 25728, -3722, 5288, 5396, 16, 11, 1529528196.651, 11, 0, 1024, 1024, 1024, 1024, 0, 6, 4258, 4262, 4249, 4252, 4272, 4236, 0, 1, 3901, -90.000, 0.000, 18.900, 0.000, 0.000, -0.400, 0.0, , , , , , 96, , , 15, 15, 15
38.5568748, -120.5320796, 0.400, 13:56:36.751, 11, 0.00, 0.30, 98, 1.000, -0.900, 19.600, 389, 100, 99, 28, 25728, -3722, 5288, 5396, 16, 11, 1529528196.751, 5, 0, 1024, 1024, 1024, 1024, 0, 6, 4258, 4262, 4249, 4252, 4272, 4236, 0, 1, 4001, -90.000, 0.000, 18.900, 0.000, 0.000, -0.500, 0.0, , , , , , 96, , , 15, 15, 15
38.5568747, -120.5320797, 0.400, 13:56:36.851, 11, 0.00, 0.32, 98, 0.900, -1.100, 19.300, 389, 100, 99, 28, 25728, -3722, 5288, 5396, 16, 11, 1529528196.851, 18, 0, 1024, 1024, 1024, 1024, 0, 6, 4258, 4262, 4249, 4252, 4272, 4236, 0, 1, 4101, -90.000, 0.000, 18.900, 0.000, 0.000, -0.400, 0.0, , , , , , 96, , , 15, 15, 15
38.5568745, -120.5320799, 0.500, 13:56:36.951, 11, 0.00, 0.33, 98, 0.800, -1.100, 19.000, 389, 100, 99, 28, 24964, -13260, 5288, 5396, 16, 11, 1529528196.951, 11, 0, 1024, 1024, 1024, 1024, 0, 6, 4139, 4119, 4089, 4129, 4144, 4113, 0, 1, 4201, -90.000, 0.000, 18.900, 0.000, 0.000, -0.500, 0.0, , , , , , 96, , , 15, 15, 15
38.5568745, -120.5320800, 0.600, 13:56:37.054, 11, 0.00, 0.35, 98, 0.800, -1.200, 18.800, 389, 100, 100, 28, 24964, -13260, 5288, 5396, 16, 11, 1529528197.055, 4, 0, 1024, 1024, 1024, 1024, 0, 6, 4139, 4119, 4089, 4129, 4144, 4113, 0, 1, 4304, -90.000, 0.000, 18.900, 0.000, 0.000, -0.500, 0.0, , , , , , 96, , , 15, 15, 15
38.5568745, -120.5320802, 0.600, 13:56:37.151, 11, 0.00, 0.36, 98, 0.900, -1.200, 18.700, 389, 100, 100, 28, 24964, -13260, 5288, 5396, 16, 11, 1529528197.151, 6, 0, 1024, 1024, 1024, 1024, 0, 6, 4139, 4119, 4089, 4129, 4144, 4113, 0, 1, 4401, -90.000, 0.000, 18.900, 0.000, 0.000, -0.500, 0.0, , , , , , 96, , , 15, 15, 15
38.5568744, -120.5320803, 0.700, 13:56:37.251, 11, 0.00, 0.37, 98, 1.000, -1.100, 18.700, 389, 100, 100, 28, 24964, -13260, 5288, 5396, 16, 11, 1529528197.252, 7, 0, 1024, 1024, 1024, 1024, 0, 6, 4139, 4119, 4089, 4129, 4144, 4113, 0, 1, 4502, -90.000, 0.000, 18.900, 0.000, 0.000, -0.500, 0.0, , , , , , 96, , , 15, 15, 15
38.5568744, -120.5320804, 0.700, 13:56:37.351, 11, 0.00, 0.38, 98, 1.300, -1.100, 18.900, 389, 100, 100, 28, 24964, -13260, 5288, 5396, 16, 11, 1529528197.351, 2, 0, 1024, 1024, 1024, 1024, 0, 6, 4139, 4119, 4089, 4129, 4144, 4113, 0, 1, 4600, -90.000, 0.000, 18.900, 0.000, 0.000, -0.500, 0.0, , , , , , 96, , , 15, 15, 15
38.5568744, -120.5320804, 0.700, 13:56:37.451, 11, 0.00, 0.38, 98, 1.300, -1.100, 18.900, 389, 100, 100, 28, 24964, -13260, 5288, 5396, 16, 11, 1529528197.451, 103, 0, 1024, 1024, 1024, 1024, 0, 6, 4139, 4119, 4089, 4129, 4144, 4113, 0, 1, 4701, -90.000, 0.000, 18.900, 0.000, 0.000, -0.500, 0.0, , , , , , 96, , , 15, 15, 15
38.5568743, -120.5320805, 0.800, 13:56:37.551, 11, 0.00, 0.39, 98, 1.600, -1.400, 19.000, 389, 100, 100, 28, 24964, -13260, 5288, 5396, 16, 11, 1529528197.551, 81, 0, 1024, 1024, 1024, 1024, 0, 6, 4139, 4119, 4089, 4129, 4144, 4113, 0, 1, 4801, -90.000, 0.000, 18.900, 0.000, 0.000, -0.500, 0.0, , , , , , 96, , , 15, 15, 15
38.5568743, -120.5320806, 0.900, 13:56:37.650, 11, 0.00, 0.40, 98, 1.800, -1.600, 19.200, 389, 100, 100, 28, 24964, -13260, 5288, 5396, 16, 11, 1529528197.650, 95, 0, 1024, 1024, 1024, 1024, 0, 6, 4139, 4119, 4089, 4129, 4144, 4113, 0, 1, 4899, -90.000, 0.000, 18.900, 0.000, 0.000, -0.400, 0.0, , , , , , 96, , , 15, 15, 15
38.5568742, -120.5320807, 0.900, 13:56:37.751, 11, 0.00, 0.41, 98, 1.700, -1.700, 19.200, 389, 100, 100, 28, 24964, -13260, 5288, 5396, 16, 14, 1529528197.752, 62, 0, 1024, 1024, 1024, 1024, 0, 6, 4139, 4119, 4089, 4129, 4144, 4113, 0, 1, 5001, -90.000, 0.000, 18.900, 0.000, 0.000, -0.400, 0.0, , , , , , 96, , , 15, 15, 15
38.5568741, -120.5320807, 0.900, 13:56:37.851, 11, 0.00, 0.41, 98, 0.800, -1.700, 19.200, 389, 100, 100, 28, 24964, -13260, 5288, 5396, 16, 14, 1529528197.852, 78, 0, 1024, 1024, 1024, 1024, 0, 6, 4139, 4119, 4089, 4129, 4144, 4113, 0, 1, 5101, -90.000, 0.000, 18.900, 0.000, 0.000, -0.300, 0.0, , , , , , 96, , , 15, 15, 15
38.5568740, -120.5320807, 1.000, 13:56:37.951, 11, 0.00, 0.41, 98, 0.000, -1.200, 19.200, 389, 100, 100, 28, 24964, -13260, 5288, 5396, 16, 14, 1529528197.951, 75, 0, 1024, 1024, 1024, 1024, 0, 6, 4139, 4119, 4089, 4129, 4144, 4113, 0, 1, 5201, -90.000, 0.000, 18.800, 0.000, 0.000, -0.200, 0.0, , , , , , 96, , , 15, 15, 15
38.5568740, -120.5320806, 1.000, 13:56:38.051, 11, 0.00, 0.41, 98, -0.600, -0.800, 19.100, 389, 100, 100, 28, 24558, -15784, 5288, 5396, 16, 14, 1529528198.051, 74, 0, 1024, 1024, 1024, 1024, 0, 6, 4097, 4087, 4068, 4078, 4108, 4089, 0, 1, 5301, -89.900, 0.000, 18.900, 0.000, 0.000, -0.200, 0.0, , , , , , 96, , , 15, 15, 15
38.5568739, -120.5320807, 1.000, 13:56:38.151, 11, 0.00, 0.41, 98, -0.700, -0.700, 19.100, 389, 100, 100, 28, 24558, -15784, 5288, 5396, 16, 14, 1529528198.151, 73, 0, 1024, 1024, 1024, 1024, 0, 6, 4097, 4087, 4068, 4078, 4108, 4089, 0, 1, 5400, -89.900, 0.000, 18.900, 0.000, 0.000, -0.400, 0.0, , , , , , 96, , , 15, 15, 15
38.5568739, -120.5320808, 1.100, 13:56:38.251, 11, 0.00, 0.43, 98, 0.000, -0.600, 19.200, 389, 100, 100, 28, 24558, -15784, 5288, 5396, 16, 14, 1529528198.251, 63, 0, 1024, 1024, 1024, 1024, 0, 6, 4097, 4087, 4068, 4078, 4108, 4089, 0, 1, 5500, -89.900, 0.000, 18.900, 0.000, 0.000, -0.600, 0.0, , , , , , 96, , , 15, 15, 15
38.5568738, -120.5320809, 1.200, 13:56:38.351, 11, 0.00, 0.43, 98, 0.400, -0.700, 19.300, 389, 100, 100, 28, 24558, -15784, 5288, 5396, 16, 14, 1529528198.351, 42, 0, 1024, 1024, 1024, 1024, 0, 6, 4097, 4087, 4068, 4078, 4108, 4089, 0, 1, 5600, -90.000, 0.000, 18.900, 0.000, 0.000, -0.700, 0.0, , , , , , 96, , , 15, 15, 15
38.5568739, -120.5320810, 1.300, 13:56:38.450, 11, 0.00, 0.44, 98, 0.900, -1.000, 19.500, 389, 100, 100, 28, 24558, -15784, 5288, 5396, 16, 14, 1529528198.451, 47, 0, 1024, 1024, 1024, 1024, 0, 6, 4097, 4087, 4068, 4078, 4108, 4089, 0, 1, 5700, -90.000, 0.000, 18.900, 0.000, 0.000, -0.900, 0.0, , , , , , 96, , , 15, 15, 15
38.5568739, -120.5320811, 1.400, 13:56:38.551, 11, 0.00, 0.45, 98, 1.100, -1.200, 19.600, 389, 100, 100, 28, 24558, -15784, 5288, 5396, 16, 14, 1529528198.551, 39, 0, 1024, 1024, 1024, 1024, 0, 6, 4097, 4087, 4068, 4078, 4108, 4089, 0, 1, 5801, -90.000, 0.000, 18.900, 0.000, 0.000, -1.200, 0.0, , , , , , 96, , , 15, 15, 15
38.5568739, -120.5320812, 1.600, 13:56:38.650, 11, 0.00, 0.46, 98, 1.100, -1.200, 19.600, 389, 100, 100, 28, 24558, -15784, 5288, 5396, 16, 14, 1529528198.650, 23, 0, 1024, 1024, 1024, 1024, 0, 6, 4097, 4087, 4068, 4078, 4108, 4089, 0, 1, 5900, -90.000, 0.000, 18.900, 0.000, 0.000, -1.400, 0.0, , , , , , 96, , , 15, 15, 15
38.5568739, -120.5320814, 1.700, 13:56:38.751, 11, 0.00, 0.47, 98, 1.100, -1.200, 19.500, 389, 100, 100, 28, 24558, -15784, 5288, 5396, 16, 14, 1529528198.751, 41, 0, 1024, 1024, 1024, 1024, 0, 6, 4097, 4087, 4068, 4078, 4108, 4089, 0, 1, 6001, -90.000, 0.000, 18.900, 0.000, 0.000, -1.600, 0.0, , , , , , 96, , , 15, 15, 15
38.5568739, -120.5320814, 1.900, 13:56:38.850, 11, 0.00, 0.48, 98, 1.100, -0.900, 19.300, 389, 100, 100, 28, 24558, -15784, 5288, 5396, 16, 14, 1529528198.851, 20, 0, 1024, 1024, 1024, 1024, 0, 6, 4097, 4087, 4068, 4078, 4108, 4089, 0, 1, 6101, -90.000, 0.000, 18.900, 0.000, 0.000, -1.800, 0.0, , , , , , 96, , , 15, 15, 15
38.5568739, -120.5320815, 2.100, 13:56:38.951, 10, 0.00, 0.48, 98, 1.000, -0.700, 19.200, 389, 100, 100, 28, 24633, -15249, 5288, 5396, 16, 14, 1529528198.951, 17, 0, 1024, 1024, 1024, 1024, 0, 6, 4097, 4087, 4068, 4078, 4108, 4089, 0, 1, 6201, -89.900, 0.000, 18.900, 0.000, 0.000, -2.000, 0.0, , , , , , 96, , , 15, 15, 15
38.5568739, -120.5320815, 2.300, 13:56:39.051, 10, 0.00, 0.48, 98, 1.000, -0.600, 19.200, 389, 100, 100, 28, 24633, -15249, 5288, 5396, 16, 14, 1529528199.051, 21, 0, 1024, 1024, 1024, 1024, 0, 6, 4097, 4087, 4068, 4078, 4108, 4089, 0, 1, 6300, -89.900, 0.000, 18.900, 0.000, 0.000, -2.200, 0.0, , , , , , 96, , , 15, 15, 15
38.5568739, -120.5320815, 2.500, 13:56:39.150, 10, 0.00, 0.48, 98, 0.900, -0.700, 19.200, 389, 100, 100, 28, 24633, -15249, 5288, 5396, 16, 14, 1529528199.150, 27, 0, 1024, 1024, 1024, 1024, 0, 6, 4097, 4087, 4068, 4078, 4108, 4089, 0, 1, 6400, -90.000, 0.000, 18.900, 0.000, 0.000, -2.400, 0.0, , , , , , 96, , , 15, 15, 15
38.5568738, -120.5320814, 2.800, 13:56:39.251, 10, 0.00, 0.48, 98, 0.800, -0.900, 19.200, 389, 100, 100, 28, 24633, -15249, 5288, 5396, 16, 14, 1529528199.251, 18, 0, 1024, 1024, 1024, 1024, 0, 6, 4097, 4087, 4068, 4078, 4108, 4089, 0, 1, 6501, -90.000, 0.000, 18.900, 0.000, 0.000, -2.700, 0.0, , , , , , 96, , , 15, 15, 15
38.5568736, -120.5320814, 3.100, 13:56:39.350, 10, 0.00, 0.48, 98, 0.400, -1.300, 19.200, 389, 100, 100, 28, 24633, -15249, 5288, 5396, 16, 14, 1529528199.351, 11, 0, 1024, 1024, 1024, 1024, 0, 6, 4097, 4087, 4068, 4078, 4108, 4089, 0, 1, 6601, -90.000, 0.000, 18.900, 0.000, 0.000, -2.900, 0.0, , , , , , 96, , , 15, 15, 15
38.5568736, -120.5320814, 3.100, 13:56:39.451, 10, 0.00, 0.48, 98, 0.400, -1.300, 19.200, 389, 100, 100, 28, 24633, -15249, 5288, 5396, 16, 14, 1529528199.451, 111, 0, 1024, 1024, 1024, 1024, 0, 6, 4097, 4087, 4068, 4078, 4108, 4089, 0, 1, 6701, -90.000, 0.000, 18.900, 0.000, 0.000, -2.900, 0.0, , , , , , 96, , , 15, 15, 15
38.5568736, -120.5320814, 3.400, 13:56:39.550, 10, 0.00, 0.49, 98, 0.300, -1.700, 19.300, 389, 100, 100, 28, 24633, -15249, 5288, 5396, 16, 14, 1529528199.551, 90, 0, 1024, 1024, 1024, 1024, 0, 6, 4114, 4069, 4048, 4137, 4108, 4105, 0, 1, 6800, -90.000, 0.000, 18.900, 0.000, 0.000, -3.000, 0.0, , , , , , 96, , , 15, 15, 15
38.5568735, -120.5320815, 3.700, 13:56:39.650, 9, 0.00, 0.49, 98, 0.300, -1.800, 19.400, 389, 100, 100, 28, 24633, -15249, 5288, 5396, 16, 14, 1529528199.651, 96, 0, 1024, 1024, 1024, 1024, 0, 6, 4114, 4069, 4048, 4137, 4108, 4105, 0, 1, 6900, -90.000, 0.000, 18.900, 0.000, 0.000, -3.000, 0.0, , , , , , 96, , , 15, 15, 15
38.5568734, -120.5320814, 4.100, 13:56:39.750, 9, 0.00, 0.49, 98, 0.300, -2.000, 19.500, 389, 100, 100, 28, 24633, -15249, 5288, 5396, 16, 14, 1529528199.751, 88, 0, 1024, 1024, 1024, 1024, 0, 6, 4114, 4069, 4048, 4137, 4108, 4105, 0, 1, 7000, -90.000, 0.000, 18.900, 0.000, 0.000, -3.100, 0.0, , , , , , 96, , , 15, 15, 15
38.5568734, -120.5320814, 4.400, 13:56:39.850, 10, 0.00, 0.49, 98, 0.000, -2.100, 19.600, 389, 100, 100, 28, 24633, -15249, 5288, 5396, 16, 14, 1529528199.851, 89, 0, 1024, 1024, 1024, 1024, 0, 6, 4114, 4069, 4048, 4137, 4108, 4105, 0, 1, 7100, -90.000, 0.000, 18.900, 0.000, 0.000, -3.300, 0.0, , , , , , 96, , , 15, 15, 15
38.5568733, -120.5320813, 4.800, 13:56:39.951, 10, 0.00, 0.49, 98, -0.400, -2.100, 19.800, 389, 100, 100, 28, 24633, -15249, 5288, 5396, 16, 14, 1529528199.951, 72, 0, 1024, 1024, 1024, 1024, 0, 6, 4114, 4069, 4048, 4137, 4108, 4105, 0, 1, 7201, -90.000, 0.000, 18.900, 0.000, 0.000, -3.200, 0.0, , , , , , 96, , , 15, 15, 15
38.5568732, -120.5320812, 5.100, 13:56:40.050, 10, 0.00, 0.49, 98, -0.700, -2.200, 19.800, 389, 100, 100, 28, 24633, -15249, 5288, 5396, 16, 14, 1529528200.051, 71, 0, 1024, 1024, 1024, 1024, 0, 6, 4114, 4069, 4048, 4137, 4108, 4105, 0, 1, 7300, -90.000, 0.000, 18.800, 0.000, 0.000, -3.100, 0.0, , , , , , 96, , , 15, 15, 15
38.5568731, -120.5320810, 5.400, 13:56:40.150, 10, 0.00, 0.47, 98, -0.700, -1.900, 19.800, 389, 100, 100, 28, 24633, -15249, 5288, 5396, 16, 14, 1529528200.151, 90, 0, 1024, 1024, 1024, 1024, 0, 6, 4114, 4069, 4048, 4137, 4108, 4105, 0, 1, 7400, -90.000, 0.000, 18.900, 0.000, 0.000, -3.100, 0.0, , , , , , 96, , , 15, 15, 15
38.5568730, -120.5320808, 5.800, 13:56:40.250, 10, 0.00, 0.46, 98, -0.800, -1.700, 19.800, 389, 100, 100, 28, 24633, -15249, 5288, 5396, 16, 14, 1529528200.250, 56, 0, 1024, 1024, 1024, 1024, 0, 6, 4114, 4069, 4048, 4137, 4108, 4105, 0, 1, 7500, -90.000, 0.000, 18.900, 0.000, 0.000, -3.100, 0.0, , , , , , 96, , , 15, 15, 15
38.5568729, -120.5320808, 6.100, 13:56:40.350, 10, 0.00, 0.46, 98, -1.000, -1.700, 19.900, 389, 100, 100, 28, 24633, -15249, 5288, 5396, 16, 14, 1529528200.351, 59, 0, 1024, 1024, 1024, 1024, 0, 6, 4114, 4069, 4048, 4137, 4108, 4105, 0, 1, 7600, -90.000, 0.000, 18.900, 0.000, 0.000, -3.100, 0.0, , , , , , 96, , , 15, 15, 15
38.5568728, -120.5320807, 6.800, 13:56:40.450, 11, 0.00, 0.46, 98, -0.900, -1.900, 19.700, 389, 100, 100, 28, 24633, -15249, 5288, 5396, 16, 14, 1529528200.451, 59, 0, 1024, 1024, 1024, 1024, 0, 6, 4114, 4069, 4048, 4137, 4108, 4105, 0, 1, 7700, -90.000, 0.000, 18.800, 0.000, 0.000, -3.100, 0.0, , , , , , 96, , , 15, 15, 15
38.5568728, -120.5320807, 6.800, 13:56:40.550, 11, 0.00, 0.46, 98, -0.900, -1.900, 19.700, 389, 100, 100, 28, 23946, -22542, 5288, 5396, 16, 14, 1529528200.551, 159, 0, 1024, 1024, 1024, 1024, 0, 6, 4114, 4069, 4048, 4137, 4108, 4105, 0, 1, 7800, -90.000, 0.000, 18.900, 0.000, 0.000, -3.100, 0.0, , , , , , 96, , , 15, 15, 15
38.5568728, -120.5320807, 7.400, 13:56:40.650, 11, 0.00, 0.46, 98, -0.500, -1.500, 19.500, 389, 100, 100, 28, 23946, -22542, 5288, 5396, 16, 14, 1529528200.651, 52, 0, 1024, 1024, 1024, 1024, 0, 6, 4000, 3955, 3958, 3958, 4005, 3977, 0, 1, 7901, -90.000, 0.000, 18.900, 0.000, 0.000, -3.100, 0.0, , , , , , 96, , , 15, 15, 15
38.5568728, -120.5320806, 7.800, 13:56:40.750, 10, 0.00, 0.46, 98, -0.300, -1.400, 19.400, 389, 100, 100, 28, 23946, -22542, 5288, 5396, 16, 14, 1529528200.751, 42, 0, 1024, 1024, 1024, 1024, 0, 6, 4000, 3955, 3958, 3958, 4005, 3977, 0, 1, 8000, -90.000, 0.000, 18.900, 0.000, 0.000, -3.100, 0.0, , , , , , 96, , , 15, 15, 15
38.5568728, -120.5320807, 8.100, 13:56:40.850, 10, 0.00, 0.46, 98, -0.100, -1.200, 19.300, 389, 100, 100, 28, 23946, -22542, 5288, 5396, 16, 14, 1529528200.851, 34, 0, 1024, 1024, 1024, 1024, 0, 6, 4000, 3955, 3958, 3958, 4005, 3977, 0, 1, 8100, -89.900, 0.000, 18.900, 0.000, 0.000, -3.100, 0.0, , , , , , 96, , , 15, 15, 15
38.5568729, -120.5320807, 8.400, 13:56:40.954, 10, 0.00, 0.46, 98, 0.100, -1.200, 19.300, 389, 100, 100, 28, 23946, -22542, 5288, 5396, 16, 14, 1529528200.954, 6, 0, 1024, 1024, 1024, 1024, 0, 6, 4000, 3955, 3958, 3958, 4005, 3977, 0, 1, 8204, -90.000, 0.000, 18.900, 0.000, 0.000, -3.100, 0.0, , , , , , 96, , , 15, 15, 15
38.5568729, -120.5320808, 8.700, 13:56:41.051, 10, 0.00, 0.46, 98, 0.300, -1.400, 19.400, 389, 100, 100, 28, 23946, -22542, 5288, 5396, 16, 14, 1529528201.051, 34, 0, 1024, 1024, 1024, 1024, 0, 6, 4000, 3955, 3958, 3958, 4005, 3977, 0, 1, 8301, -90.000, 0.000, 18.900, 0.000, 0.000, -3.000, 0.0, , , , , , 96, , , 15, 15, 15
38.5568730, -120.5320808, 9.100, 13:56:41.150, 10, 0.00, 0.46, 98, 0.300, -1.400, 19.400, 389, 100, 100, 28, 23946, -22542, 5288, 5396, 16, 14, 1529528201.151, 38, 0, 1024, 1024, 1024, 1024, 0, 6, 4000, 3955, 3958, 3958, 4005, 3977, 0, 1, 8400, -90.000, 0.000, 18.900, 0.000, 0.000, -3.100, 0.0, , , , , , 96, , , 15, 15, 15
38.5568731, -120.5320809, 9.400, 13:56:41.250, 10, 0.10, 0.46, 98, 0.400, -0.800, 19.500, 389, 100, 100, 28, 23946, -22542, 5288, 5396, 16, 14, 1529528201.250, 6, 0, 1024, 1024, 1024, 1024, 0, 6, 4000, 3955, 3958, 3958, 4005, 3977, 0, 1, 8500, -89.900, 0.000, 18.900, 0.100, 0.000, -3.100, 0.0, , , , , , 96, , , 15, 15, 15
38.5568732, -120.5320810, 9.700, 13:56:41.350, 10, 0.10, 0.46, 98, 0.600, 0.200, 19.500, 389, 100, 100, 28, 23946, -22542, 5288, 5396, 16, 14, 1529528201.351, 3, 0, 1024, 1024, 1024, 1024, 0, 6, 4000, 3955, 3958, 3958, 4005, 3977, 0, 1, 8600, -89.900, 0.000, 18.900, 0.100, 0.000, -3.000, 0.0, , , , , , 96, , , 15, 15, 15
38.5568733, -120.5320810, 10.000, 13:56:41.450, 10, 0.00, 0.46, 98, 0.600, 0.400, 19.400, 389, 100, 100, 28, 23994, -21160, 5288, 5396, 16, 14, 1529528201.451, 6, 0, 1024, 1024, 1024, 1024, 0, 6, 4005, 3981, 3985, 3982, 4007, 4003, 0, 1, 8700, -89.900, 0.000, 18.900, 0.000, 0.000, -3.000, 0.0, , , , , , 96, , , 15, 15, 15
38.5568734, -120.5320810, 10.300, 13:56:41.556, 10, 0.00, 0.46, 98, 0.400, 0.000, 19.300, 389, 100, 100, 28, 23994, -21160, 5288, 5396, 16, 14, 1529528201.556, 5, 0, 1024, 1024, 1024, 1024, 0, 6, 4005, 3981, 3985, 3982, 4007, 4003, 0, 1, 8806, -89.900, 0.000, 18.900, 0.000, 0.000, -2.900, 0.0, , , , , , 96, , , 15, 15, 15
38.5568735, -120.5320810, 10.600, 13:56:41.650, 10, 0.00, 0.46, 98, 0.400, -0.400, 19.300, 389, 100, 100, 28, 23994, -21160, 5288, 5396, 16, 14, 1529528201.650, 6, 0, 1024, 1024, 1024, 1024, 0, 6, 4005, 3981, 3985, 3982, 4007, 4003, 0, 1, 8900, -90.000, 0.000, 18.900, 0.000, 0.000, -2.900, 0.0, , , , , , 96, , , 15, 15, 15
38.5568735, -120.5320810, 10.600, 13:56:41.750, 10, 0.00, 0.46, 98, 0.400, -0.400, 19.300, 389, 100, 100, 28, 23994, -21160, 5288, 5396, 16, 14, 1529528201.751, 106, 0, 1024, 1024, 1024, 1024, 0, 6, 4005, 3981, 3985, 3982, 4007, 4003, 0, 1, 9000, -90.000, 0.000, 18.900, 0.000, 0.000, -2.900, 0.0, , , , , , 96, , , 15, 15, 15
38.5568736, -120.5320811, 10.900, 13:56:41.850, 10, 0.00, 0.46, 98, 0.300, -0.500, 19.200, 389, 100, 100, 28, 23994, -21160, 5288, 5396, 16, 14, 1529528201.850, 85, 0, 1024, 1024, 1024, 1024, 0, 6, 4005, 3981, 3985, 3982, 4007, 4003, 0, 1, 9100, -89.900, 0.000, 18.900, 0.000, 0.000, -2.900, 0.0, , , , , , 96, , , 15, 15, 15
38.5568737, -120.5320811, 11.200, 13:56:41.950, 10, 0.00, 0.46, 98, 0.300, -0.400, 19.200, 389, 100, 100, 28, 23994, -21160, 5288, 5396, 16, 14, 1529528201.951, 81, 0, 1024, 1024, 1024, 1024, 0, 6, 4005, 3981, 3985, 3982, 4007, 4003, 0, 1, 9200, -89.900, 0.000, 18.900, 0.000, 0.000, -2.900, 0.0, , , , , , 96, , , 15, 15, 15
38.5568737, -120.5320811, 11.500, 13:56:42.050, 10, 0.00, 0.46, 98, 0.200, -0.200, 19.100, 389, 100, 100, 28, 23994, -21160, 5288, 5396, 16, 14, 1529528202.051, 81, 0, 1024, 1024, 1024, 1024, 0, 6, 4005, 3981, 3985, 3982, 4007, 4003, 0, 1, 9300, -89.900, 0.000, 18.800, 0.000, 0.000, -2.900, 0.0, , , , , , 96, , , 15, 15, 15
38.5568738, -120.5320812, 11.800, 13:56:42.150, 10, 0.00, 0.46, 98, 0.100, -0.200, 19.200, 389, 100, 100, 28, 23994, -21160, 5288, 5396, 16, 14, 1529528202.151, 85, 0, 1024, 1024, 1024, 1024, 0, 6, 4005, 3981, 3985, 3982, 4007, 4003, 0, 1, 9400, -89.900, 0.000, 18.800, 0.000, 0.000, -3.000, 0.0, , , , , , 96, , , 15, 15, 15
38.5568739, -120.5320812, 12.100, 13:56:42.250, 11, 0.00, 0.46, 98, 0.200, 0.000, 19.300, 389, 100, 100, 28, 23994, -21160, 5288, 5396, 16, 14, 1529528202.251, 87, 0, 1024, 1024, 1024, 1024, 0, 6, 4005, 3981, 3985, 3982, 4007, 4003, 0, 1, 9500, -89.900, 0.000, 18.800, 0.000, 0.000, -2.900, 0.0, , , , , , 96, , , 15, 15, 15
38.5568740, -120.5320812, 12.400, 13:56:42.350, 11, 0.00, 0.46, 98, 0.300, 0.000, 19.300, 389, 100, 100, 28, 23994, -21160, 5288, 5396, 16, 14, 1529528202.351, 87, 0, 1024, 1024, 1024, 1024, 0, 6, 4005, 3981, 3985, 3982, 4007, 4003, 0, 1, 9600, -89.900, 0.000, 18.900, 0.000, 0.000, -3.000, 0.0, , , , , , 96, , , 15, 15, 15
38.5568740, -120.5320812, 12.700, 13:56:42.450, 10, 0.00, 0.46, 98, 0.300, 0.100, 19.500, 389, 100, 100, 28, 23994, -21160, 5288, 5396, 16, 14, 1529528202.451, 80, 0, 1024, 1024, 1024, 1024, 0, 6, 4005, 3981, 3985, 3982, 4007, 4003, 0, 1, 9700, -89.900, 0.000, 18.900, 0.000, 0.000, -3.000, 0.0, , , , , , 96, , , 15, 15, 15
38.5568741, -120.5320812, 13.000, 13:56:42.550, 10, 0.00, 0.45, 98, 0.500, 0.300, 19.500, 389, 100, 100, 28, 24001, -19989, 5234, 5396, 16, 14, 1529528202.551, 59, 0, 1024, 1024, 1024, 1024, 0, 6, 4007, 3991, 3985, 3988, 4021, 3999, 0, 1, 9801, -89.900, 0.000, 18.900, 0.000, 0.000, -3.000, 0.0, , , , , , 96, , , 15, 15, 15
38.5568742, -120.5320812, 13.400, 13:56:42.650, 10, 0.00, 0.45, 98, 0.400, 0.000, 19.500, 389, 100, 100, 28, 24001, -19989, 5234, 5396, 16, 14, 1529528202.651, 62, 0, 1024, 1024, 1024, 1024, 0, 6, 4007, 3991, 3985, 3988, 4021, 3999, 0, 1, 9901, -89.900, 0.000, 18.900, 0.000, 0.000, -3.000, 0.0, , , , , , 96, , , 15, 15, 15
38.5568743, -120.5320811, 14.000, 13:56:42.750, 10, 0.00, 0.44, 98, 0.100, -0.200, 19.600, 389, 100, 100, 28, 24001, -19989, 5234, 5396, 16, 14, 1529528202.751, 51, 0, 1024, 1024, 1024, 1024, 0, 6, 4007, 3991, 3985, 3988, 4021, 3999, 0, 1, 10000, -90.000, 0.000, 18.900, 0.000, 0.000, -3.000, 0.0, , , , , , 96, , , 15, 15, 15
38.5568744, -120.5320810, 14.300, 13:56:42.850, 10, 0.00, 0.44, 98, -0.100, -0.100, 19.600, 389, 100, 100, 28, 24001, -19989, 5234, 5396, 16, 14, 1529528202.851, 35, 0, 1024, 1024, 1024, 1024, 0, 6, 4007, 3991, 3985, 3988, 4021, 3999, 0, 1, 10101, -89.900, 0.000, 18.900, 0.000, 0.000, -3.000, 0.0, , , , , , 96, , , 15, 15, 15
38.5568744, -120.5320810, 14.600, 13:56:42.950, 11, 0.00, 0.43, 98, -0.300, 0.100, 19.500, 389, 100, 100, 28, 24001, -19989, 5234, 5396, 16, 14, 1529528202.950, 63, 0, 1024, 1024, 1024, 1024, 0, 6, 4007, 3991, 3985, 3988, 4021, 3999, 0, 1, 10200, -89.900, 0.000, 18.900, 0.000, 0.000, -2.900, 0.0, , , , , , 96, , , 15, 15, 15
38.5568745, -120.5320809, 14.900, 13:56:43.050, 11, 0.00, 0.42, 97, -0.600, 0.300, 19.400, 389, 100, 100, 28, 24001, -19989, 5234, 5396, 16, 14, 1529528203.050, 54, 0, 1024, 1024, 1024, 1024, 0, 6, 4007, 3991, 3985, 3988, 4021, 3999, 0, 1, 10300, -89.900, 0.000, 18.900, 0.000, 0.000, -3.000, 0.0, , , , , , 96, , , 15, 15, 15
38.5568745, -120.5320809, 15.200, 13:56:43.150, 11, 0.00, 0.42, 97, -0.900, 0.400, 19.300, 389, 100, 100, 28, 24001, -19989, 5234, 5396, 16, 14, 1529528203.151, 23, 0, 1024, 1024, 1024, 1024, 0, 6, 4007, 3991, 3985, 3988, 4021, 3999, 0, 1, 10400, -89.900, 0.000, 18.900, 0.000, 0.000, -3.000, 0.0, , , , , , 96, , , 15, 15, 15
38.5568745, -120.5320808, 15.500, 13:56:43.250, 11, 0.00, 0.41, 97, -0.800, 0.600, 19.300, 389, 100, 100, 28, 24001, -19989, 5234, 5396, 16, 14, 1529528203.251, 48, 0, 1024, 1024, 1024, 1024, 0, 6, 4007, 3991, 3985, 3988, 4021, 3999, 0, 1, 10501, -89.900, 0.000, 18.900, 0.000, 0.000, -2.900, 0.0, , , , , , 96, , , 15, 15, 15
38.5568745, -120.5320807, 15.800, 13:56:43.350, 11, 0.00, 0.40, 97, -0.900, 0.600, 19.300, 389, 100, 100, 28, 24001, -19989, 5234, 5396, 16, 14, 1529528203.351, 38, 0, 1024, 1024, 1024, 1024, 0, 6, 4007, 3991, 3985, 3988, 4021, 3999, 0, 1, 10601, -89.900, 0.000, 18.900, 0.000, 0.000, -2.900, 0.0, , , , , , 96, , , 15, 15, 15
38.5568745, -120.5320807, 16.100, 13:56:43.450, 11, 0.00, 0.40, 97, -1.100, 0.500, 19.200, 389, 100, 100, 28, 23899, -20888, 5234, 5396, 16, 14, 1529528203.451, 43, 0, 1024, 1024, 1024, 1024, 0, 6, 3998, 3970, 3967, 3967, 4002, 3990, 0, 1, 10700, -89.900, 0.000, 18.900, 0.000, 0.000, -2.900, 0.0, , , , , , 96, , , 15, 15, 15
38.5568745, -120.5320806, 16.400, 13:56:43.550, 12, 0.00, 0.40, 97, -1.200, 0.400, 19.200, 389, 100, 100, 28, 23899, -20888, 5234, 5396, 16, 14, 1529528203.550, 25, 0, 1024, 1024, 1024, 1024, 0, 6, 3998, 3970, 3967, 3967, 4002, 3990, 0, 1, 10800, -89.900, 0.000, 18.900, 0.000, 0.000, -2.900, 0.0, , , , , , 96, , , 15, 15, 15
38.5568745, -120.5320805, 16.600, 13:56:43.650, 12, 0.00, 0.39, 97, -1.300, 0.100, 19.200, 389, 100, 100, 28, 23899, -20888, 5234, 5396, 16, 14, 1529528203.651, 29, 0, 1024, 1024, 1024, 1024, 0, 6, 3998, 3970, 3967, 3967, 4002, 3990, 0, 1, 10900, -90.000, 0.000, 18.900, 0.000, 0.000, -2.800, 0.0, , , , , , 96, , , 15, 15, 15
38.5568745, -120.5320804, 16.900, 13:56:43.750, 11, 0.00, 0.38, 97, -1.400, 0.000, 19.200, 389, 100, 100, 28, 23899, -20888, 5234, 5396, 16, 14, 1529528203.750, 8, 0, 1024, 1024, 1024, 1024, 0, 6, 3998, 3970, 3967, 3967, 4002, 3990, 0, 1, 11000, -90.000, 0.000, 18.900, 0.000, 0.000, -2.800, 0.0, , , , , , 96, , , 15, 15, 15
38.5568745, -120.5320803, 17.200, 13:56:43.850, 11, 0.00, 0.37, 97, -1.400, 0.000, 19.200, 389, 100, 100, 28, 23899, -20888, 5234, 5396, 16, 14, 1529528203.851, 4, 0, 1024, 1024, 1024, 1024, 0, 6, 3998, 3970, 3967, 3967, 4002, 3990, 0, 1, 11100, -89.900, 0.000, 18.900, 0.000, 0.000, -2.800, 0.0, , , , , , 96, , , 15, 15, 15
38.5568745, -120.5320803, 17.200, 13:56:43.950, 11, 0.00, 0.37, 97, -1.400, 0.000, 19.200, 389, 100, 100, 28, 23899, -20888, 5234, 5396, 16, 14, 1529528203.950, 104, 0, 1024, 1024, 1024, 1024, 0, 6, 3998, 3970, 3967, 3967, 4002, 3990, 0, 1, 11200, -89.900, 0.000, 18.900, 0.000, 0.000, -2.800, 0.0, , , , , , 96, , , 15, 15, 15
38.5568747, -120.5320803, 17.700, 13:56:44.050, 12, 0.00, 0.37, 97, -1.200, 0.800, 19.400, 389, 100, 100, 28, 23899, -20888, 5234, 5396, 16, 14, 1529528204.050, 10, 0, 1024, 1024, 1024, 1024, 0, 6, 3998, 3970, 3967, 3967, 4002, 3990, 0, 1, 11300, -89.900, 0.000, 18.900, 0.000, 0.000, -2.900, 0.0, , , , , , 96, , , 15, 15, 15
38.5568747, -120.5320803, 17.700, 13:56:44.150, 12, 0.00, 0.37, 97, -1.200, 0.800, 19.400, 389, 100, 100, 28, 23899, -20888, 5234, 5396, 16, 14, 1529528204.150, 111, 0, 1024, 1024, 1024, 1024, 0, 6, 3998, 3970, 3967, 3967, 4002, 3990, 0, 1, 11400, -89.900, 0.000, 18.900, 0.000, 0.000, -2.900, 0.0, , , , , , 96, , , 15, 15, 15
38.5568749, -120.5320803, 18.300, 13:56:44.250, 12, 0.10, 0.37, 97, 0.100, 1.400, 19.400, 389, 100, 100, 28, 23899, -20888, 5234, 5396, 16, 14, 1529528204.250, 5, 0, 1024, 1024, 1024, 1024, 0, 6, 3998, 3970, 3967, 3967, 4002, 3990, 0, 1, 11500, -89.900, 0.000, 18.900, 0.100, 0.000, -3.000, 0.0, , , , , , 96, , , 15, 15, 15
38.5568749, -120.5320803, 18.300, 13:56:44.350, 12, 0.10, 0.37, 97, 0.100, 1.400, 19.400, 389, 100, 100, 28, 23899, -20888, 5234, 5396, 16, 14, 1529528204.350, 106, 0, 1024, 1024, 1024, 1024, 0, 6, 3998, 3970, 3967, 3967, 4002, 3990, 0, 1, 11600, -89.900, 0.000, 18.900, 0.100, 0.000, -3.000, 0.0, , , , , , 96, , , 15, 15, 15
38.5568750, -120.5320803, 18.600, 13:56:44.450, 12, 0.10, 0.37, 97, 0.500, 1.800, 19.500, 389, 100, 100, 28, 23899, -20888, 5234, 5396, 16, 14, 1529528204.451, 81, 0, 1024, 1024, 1024, 1024, 0, 6, 3998, 3970, 3967, 3967, 4002, 3990, 0, 1, 11700, -89.900, 0.000, 18.900, 0.100, 0.000, -3.000, 0.0, , , , , , 96, , , 15, 15, 15
38.5568751, -120.5320802, 18.900, 13:56:44.550, 12, 0.00, 0.36, 97, 0.800, 2.200, 19.500, 389, 100, 100, 28, 23907, -20070, 5234, 5396, 16, 14, 1529528204.550, 81, 0, 1024, 1024, 1024, 1024, 0, 6, 3998, 3970, 3967, 3967, 4002, 3990, 0, 1, 11800, -89.900, 0.000, 18.900, 0.000, 0.000, -3.000, 0.0, , , , , , 96, , , 15, 15, 15
38.5568752, -120.5320801, 19.200, 13:56:44.649, 11, 0.00, 0.35, 97, 0.300, 2.300, 19.500, 389, 100, 100, 28, 23907, -20070, 5234, 5396, 16, 14, 1529528204.650, 86, 0, 1024, 1024, 1024, 1024, 0, 6, 3998, 3970, 3967, 3967, 4002, 3990, 0, 1, 11899, -89.900, 0.000, 18.900, 0.000, 0.000, -3.000, 0.0, , , , , , 96, , , 15, 15, 15
38.5568752, -120.5320801, 19.500, 13:56:44.750, 11, 0.00, 0.35, 97, -0.200, 2.200, 19.400, 389, 100, 100, 28, 23907, -20070, 5234, 5396, 16, 14, 1529528204.751, 89, 0, 1024, 1024, 1024, 1024, 0, 6, 3998, 3970, 3967, 3967, 4002, 3990, 0, 1, 12001, -89.900, 0.000, 18.900, 0.000, 0.000, -3.000, 0.0, , , , , , 96, , , 15, 15, 15
38.5568753, -120.5320801, 19.800, 13:56:44.850, 11, 0.00, 0.35, 97, -0.500, 2.100, 19.300, 389, 100, 100, 28, 23907, -20070, 5234, 5396, 16, 14, 1529528204.850, 68, 0, 1024, 1024, 1024, 1024, 0, 6, 3998, 3970, 3967, 3967, 4002, 3990, 0, 1, 12100, -89.900, 0.000, 18.900, 0.000, 0.000, -3.000, 0.0, , , , , , 96, , , 15, 15, 15
38.5568753, -120.5320800, 20.100, 13:56:44.950, 11, 0.00, 0.35, 97, -0.600, 2.100, 19.200, 389, 100, 100, 28, 23907, -20070, 5234, 5396, 16, 14, 1529528204.950, 59, 0, 1024, 1024, 1024, 1024, 0, 6, 3998, 3970, 3967, 3967, 4002, 3990, 0, 1, 12200, -90.000, 0.000, 18.900, 0.000, 0.000, -3.100, 0.0, , , , , , 96, , , 15, 15, 15
38.5568753, -120.5320800, 20.400, 13:56:45.049, 12, 0.00, 0.34, 97, -0.500, 1.900, 19.200, 389, 100, 100, 28, 23907, -20070, 5234, 5396, 16, 14, 1529528205.050, 37, 0, 1024, 1024, 1024, 1024, 0, 6, 3997, 3971, 3965, 3976, 3998, 3984, 0, 1, 12299, -90.000, 0.000, 18.900, 0.000, 0.000, -3.100, 0.0, , , , , , 96, , , 15, 15, 15
38.5568754, -120.5320800, 21.000, 13:56:45.150, 12, 0.00, 0.35, 97, -0.600, 1.900, 19.300, 389, 100, 100, 28, 23907, -20070, 5234, 5396, 16, 14, 1529528205.151, 48, 0, 1024, 1024, 1024, 1024, 0, 6, 3997, 3971, 3965, 3976, 3998, 3984, 0, 1, 12400, -89.900, 0.000, 18.900, 0.000, 0.000, -3.100, 0.0, , , , , , 96, , , 15, 15, 15
38.5568754, -120.5320800, 21.400, 13:56:45.250, 12, 0.00, 0.34, 97, -0.700, 1.800, 19.300, 389, 100, 100, 28, 23907, -20070, 5234, 5396, 16, 14, 1529528205.250, 53, 0, 1024, 1024, 1024, 1024, 0, 6, 3997, 3971, 3965, 3976, 3998, 3984, 0, 1, 12500, -89.900, 0.000, 18.900, 0.000, 0.000, -3.100, 0.0, , , , , , 96, , , 15, 15, 15
38.5568754, -120.5320799, 21.700, 13:56:45.350, 12, 0.00, 0.34, 97, -0.800, 1.500, 19.300, 389, 100, 100, 28, 23907, -20070, 5234, 5396, 16, 14, 1529528205.350, 53, 0, 1024, 1024, 1024, 1024, 0, 6, 3997, 3971, 3965, 3976, 3998, 3984, 0, 1, 12600, -90.000, 0.000, 18.800, 0.000, 0.000, -3.100, 0.0, , , , , , 96, , , 15, 15, 15
38.5568754, -120.5320799, 22.000, 13:56:45.450, 12, 0.00, 0.34, 97, -1.100, 1.200, 19.400, 389, 100, 100, 28, 23907, -20070, 5234, 5396, 16, 14, 1529528205.451, 47, 0, 1024, 1024, 1024, 1024, 0, 6, 3997, 3971, 3965, 3976, 3998, 3984, 0, 1, 12700, -90.000, 0.000, 18.900, 0.000, 0.000, -3.100, 0.0, , , , , , 96, , , 15, 15, 15
38.5568753, -120.5320799, 22.300, 13:56:45.550, 12, 0.00, 0.34, 97, -1.400, 1.000, 19.500, 389, 100, 100, 28, 23907, -20070, 5234, 5396, 16, 14, 1529528205.550, 47, 0, 1024, 1024, 1024, 1024, 0, 6, 3997, 3971, 3965, 3976, 3998, 3984, 0, 1, 12800, -90.000, 0.000, 18.900, 0.000, 0.000, -3.100, 0.0, , , , , , 96, , , 15, 15, 15
38.5568753, -120.5320798, 22.600, 13:56:45.650, 12, 0.00, 0.33, 97, -1.500, 0.900, 19.500, 389, 100, 100, 28, 23907, -20070, 5234, 5396, 16, 14, 1529528205.650, 39, 0, 1024, 1024, 1024, 1024, 0, 6, 3997, 3971, 3965, 3976, 3998, 3984, 0, 1, 12900, -90.000, 0.000, 18.900, 0.000, 0.000, -3.100, 0.0, , , , , , 96, , , 15, 15, 15
38.5568753, -120.5320798, 22.600, 13:56:45.750, 12, 0.00, 0.33, 97, -1.500, 0.900, 19.500, 389, 100, 100, 28, 23907, -20070, 5234, 5396, 16, 14, 1529528205.751, 139, 0, 1024, 1024, 1024, 1024, 0, 6, 3997, 3971, 3965, 3976, 3998, 3984, 0, 1, 13000, -90.000, 0.000, 18.900, 0.000, 0.000, -3.100, 0.0, , , , , , 96, , , 15, 15, 15
38.5568752, -120.5320797, 23.200, 13:56:45.850, 14, 0.00, 0.32, 97, -1.300, 1.200, 19.600, 389, 100, 100, 28, 23907, -20070, 5234, 5396, 16, 14, 1529528205.850, 26, 0, 1024, 1024, 1024, 1024, 0, 6, 3997, 3971, 3965, 3976, 3998, 3984, 0, 1, 13100, -89.900, 0.000, 18.900, 0.000, 0.000, -3.000, 0.0, , , , , , 96, , , 15, 15, 15
38.5568752, -120.5320797, 23.200, 13:56:45.950, 14, 0.00, 0.32, 97, -1.300, 1.200, 19.600, 389, 100, 100, 28, 23907, -20070, 5234, 5396, 16, 14, 1529528205.950, 126, 0, 1024, 1024, 1024, 1024, 0, 6, 3997, 3971, 3965, 3976, 3998, 3984, 0, 1, 13200, -90.000, 0.000, 18.800, 0.000, 0.000, -3.000, 0.0, , , , , , 96, , , 15, 15, 15
38.5568752, -120.5320797, 23.800, 13:56:46.050, 14, 0.00, 0.31, 97, -0.900, 1.300, 19.600, 389, 100, 100, 28, 23907, -20070, 5234, 5396, 16, 14, 1529528206.050, 15, 0, 1024, 1024, 1024, 1024, 0, 6, 3997, 3971, 3965, 3976, 3998, 3984, 0, 1, 13300, -89.900, 0.000, 18.900, 0.000, 0.000, -2.900, 0.0, , , , , , 96, , , 15, 15, 15
38.5568752, -120.5320797, 24.100, 13:56:46.150, 14, 0.00, 0.31, 97, -0.600, 1.400, 19.700, 389, 100, 100, 28, 23907, -20070, 5234, 5396, 16, 14, 1529528206.151, 5, 0, 1024, 1024, 1024, 1024, 0, 6, 3997, 3971, 3965, 3976, 3998, 3984, 0, 1, 13400, -89.900, 0.000, 18.900, 0.000, 0.000, -2.900, 0.0, , , , , , 96, , , 15, 15, 15
38.5568751, -120.5320797, 24.400, 13:56:46.250, 14, 0.00, 0.32, 97, -0.700, 1.400, 19.700, 389, 100, 100, 28, 23907, -20070, 5234, 5396, 16, 14, 1529528206.250, 7, 0, 1024, 1024, 1024, 1024, 0, 6, 3997, 3971, 3965, 3976, 3998, 3984, 0, 1, 13500, -89.900, 0.000, 18.900, 0.000, 0.000, -2.900, 0.0, , , , , , 96, , , 15, 15, 15
38.5568751, -120.5320797, 24.700, 13:56:46.353, 14, 0.00, 0.32, 97, -1.200, 1.100, 19.600, 389, 100, 100, 28, 23907, -20070, 5234, 5396, 16, 14, 1529528206.354, 1, 0, 1024, 1024, 1024, 1024, 0, 6, 3997, 3971, 3965, 3976, 3998, 3984, 0, 1, 13603, -90.000, 0.000, 18.900, 0.000, 0.000, -3.000, 0.0, , , , , , 96, , , 15, 15, 15
38.5568751, -120.5320797, 25.000, 13:56:46.451, 14, 0.00, 0.32, 97, -1.100, 0.700, 19.500, 389, 100, 100, 28, 23816, -21547, 5234, 5396, 16, 14, 1529528206.452, 2, 0, 1024, 1024, 1024, 1024, 0, 6, 3976, 3962, 3948, 3955, 3994, 3977, 0, 1, 13701, -90.000, 0.000, 18.900, 0.000, 0.000, -3.000, 0.0, , , , , , 96, , , 15, 15, 15
38.5568751, -120.5320797, 25.000, 13:56:46.550, 14, 0.00, 0.32, 97, -1.100, 0.700, 19.500, 389, 100, 100, 28, 23816, -21547, 5234, 5396, 16, 14, 1529528206.551, 101, 0, 1024, 1024, 1024, 1024, 0, 6, 3976, 3962, 3948, 3955, 3994, 3977, 0, 1, 13800, -90.000, 0.000, 18.900, 0.000, 0.000, -3.000, 0.0, , , , , , 96, , , 15, 15, 15
38.5568751, -120.5320797, 25.400, 13:56:46.650, 14, 0.00, 0.31, 97, -1.000, 0.900, 19.300, 389, 100, 100, 28, 23816, -21547, 5234, 5396, 16, 14, 1529528206.650, 90, 0, 1024, 1024, 1024, 1024, 0, 6, 3976, 3962, 3948, 3955, 3994, 3977, 0, 1, 13900, -89.900, 0.000, 18.900, 0.000, 0.000, -3.000, 0.0, , , , , , 96, , , 15, 15, 15
38.5568751, -120.5320797, 25.700, 13:56:46.750, 14, 0.00, 0.32, 97, -0.800, 1.200, 19.200, 389, 100, 100, 28, 23816, -21547, 5234, 5396, 16, 14, 1529528206.751, 72, 0, 1024, 1024, 1024, 1024, 0, 6, 3976, 3962, 3948, 3955, 3994, 3977, 0, 1, 14001, -89.900, 0.000, 18.900, 0.000, 0.000, -3.000, 0.0, , , , , , 96, , , 15, 15, 15
38.5568751, -120.5320797, 26.000, 13:56:46.850, 14, 0.00, 0.32, 97, -0.700, 1.400, 19.200, 389, 100, 100, 28, 23816, -21547, 5234, 5396, 16, 14, 1529528206.851, 78, 0, 1024, 1024, 1024, 1024, 0, 6, 3976, 3962, 3948, 3955, 3994, 3977, 0, 1, 14101, -89.900, 0.000, 18.800, 0.000, 0.000, -3.000, 0.0, , , , , , 96, , , 15, 15, 15
38.5568751, -120.5320797, 26.300, 13:56:46.950, 14, 0.00, 0.32, 97, -0.800, 1.800, 19.200, 389, 100, 100, 28, 23816, -21547, 5234, 5396, 16, 14, 1529528206.951, 83, 0, 1024, 1024, 1024, 1024, 0, 6, 3976, 3962, 3948, 3955, 3994, 3977, 0, 1, 14201, -89.900, 0.000, 18.900, 0.000, 0.000, -3.000, 0.0, , , , , , 96, , , 15, 15, 15
38.5568750, -120.5320797, 26.600, 13:56:47.050, 14, 0.00, 0.31, 97, -0.800, 1.700, 19.300, 389, 100, 98, 28, 23861, -19855, 5234, 5396, 16, 14, 1529528207.051, 77, 0, 1024, 1024, 1024, 1024, 0, 6, 3983, 3967, 3956, 3972, 3997, 3977, 0, 1, 14301, -89.900, 0.000, 18.900, 0.000, 0.000, -3.000, 0.0, , , , , , 96, , , 15, 15, 15
38.5568750, -120.5320797, 26.900, 13:56:47.150, 14, 0.00, 0.31, 97, -0.800, 1.800, 19.200, 389, 100, 98, 28, 23861, -19855, 5234, 5396, 16, 14, 1529528207.150, 49, 0, 1024, 1024, 1024, 1024, 0, 6, 3983, 3967, 3956, 3972, 3997, 3977, 0, 1, 14400, -89.900, 0.000, 18.900, 0.000, 0.000, -3.000, 0.0, , , , , , 96, , , 15, 15, 15
38.5568750, -120.5320796, 27.200, 13:56:47.250, 14, 0.00, 0.31, 97, -1.000, 1.900, 19.100, 389, 100, 98, 28, 23861, -19855, 5234, 5396, 16, 14, 1529528207.251, 62, 0, 1024, 1024, 1024, 1024, 0, 6, 3983, 3967, 3956, 3972, 3997, 3977, 0, 1, 14500, -89.900, 0.000, 18.900, 0.000, 0.000, -3.000, 0.0, , , , , , 96, , , 15, 15, 15
38.5568750, -120.5320794, 27.800, 13:56:47.350, 14, 0.00, 0.29, 97, -2.000, 1.800, 19.200, 389, 100, 98, 28, 23861, -19855, 5234, 5396, 16, 14, 1529528207.350, 57, 0, 1024, 1024, 1024, 1024, 0, 6, 3983, 3967, 3956, 3972, 3997, 3977, 0, 1, 14600, -90.000, 0.000, 18.900, 0.000, 0.000, -2.900, 0.0, , , , , , 96, , , 15, 15, 15
38.5568750, -120.5320794, 28.200, 13:56:47.450, 14, 0.00, 0.29, 97, -2.100, 1.800, 19.300, 389, 100, 98, 28, 23861, -19855, 5234, 5396, 16, 14, 1529528207.450, 64, 0, 1024, 1024, 1024, 1024, 0, 6, 3983, 3967, 3956, 3972, 3997, 3977, 0, 1, 14700, -89.900, 0.000, 18.900, 0.000, 0.000, -3.000, 0.0, , , , , , 96, , , 15, 15, 15
38.5568750, -120.5320794, 28.200, 13:56:47.550, 14, 0.00, 0.29, 97, -2.100, 1.800, 19.300, 389, 100, 98, 28, 23861, -19855, 5234, 5396, 16, 14, 1529528207.551, 164, 0, 1024, 1024, 1024, 1024, 0, 6, 3983, 3967, 3956, 3972, 3997, 3977, 0, 1, 14801, -89.900, 0.000, 18.900, 0.000, 0.000, -3.000, 0.0, , , , , , 96, , , 15, 15, 15
38.5568750, -120.5320792, 28.800, 13:56:47.650, 14, 0.00, 0.28, 97, -2.200, 1.900, 19.500, 389, 100, 98, 28, 23861, -19855, 5234, 5396, 16, 14, 1529528207.651, 64, 0, 1024, 1024, 1024, 1024, 0, 6, 3983, 3967, 3956, 3972, 3997, 3977, 0, 1, 14900, -89.900, 0.000, 18.900, 0.000, 0.000, -2.900, 0.0, , , , , , 96, , , 15, 15, 15
38.5568750, -120.5320792, 28.800, 13:56:47.749, 14, 0.00, 0.28, 97, -2.200, 1.900, 19.500, 389, 100, 98, 28, 23861, -19855, 5234, 5396, 16, 14, 1529528207.750, 163, 0, 1024, 1024, 1024, 1024, 0, 6, 3983, 3967, 3956, 3972, 3997, 3977, 0, 1, 14999, -89.900, 0.000, 18.900, 0.000, 0.000, -2.900, 0.0, , , , , , 96, , , 15, 15, 15
38.5568750, -120.5320790, 29.300, 13:56:47.850, 14, 0.00, 0.26, 97, -2.300, 2.300, 19.500, 389, 100, 98, 28, 23861, -19855, 5234, 5396, 16, 14, 1529528207.851, 23, 0, 1024, 1024, 1024, 1024, 0, 6, 3983, 3967, 3956, 3972, 3997, 3977, 0, 1, 15101, -89.900, 0.000, 18.900, 0.000, 0.000, -2.700, 0.0, , , , , , 96, , , 15, 15, 15
38.5568749, -120.5320789, 29.600, 13:56:47.950, 14, 0.10, 0.24, 97, -2.400, 2.300, 19.400, 389, 100, 98, 28, 23786, -20974, 5234, 5396, 16, 14, 1529528207.951, 39, 0, 1024, 1024, 1024, 1024, 0, 6, 3981, 3951, 3949, 3946, 3989, 3973, 0, 1, 15200, -89.900, 0.000, 18.900, 0.000, 0.100, -2.800, 0.0, , , , , , 96, , , 15, 15, 15
38.5568749, -120.5320788, 29.900, 13:56:48.050, 14, 0.10, 0.23, 97, -2.700, 2.400, 19.400, 389, 100, 97, 28, 23786, -20974, 5234, 5396, 16, 14, 1529528208.051, 21, 0, 1024, 1024, 1024, 1024, 0, 6, 3981, 3951, 3949, 3946, 3989, 3973, 0, 1, 15300, -89.900, 0.000, 18.900, 0.000, 0.100, -2.900, 0.0, , , , , , 96, , , 15, 15, 15
38.5568749, -120.5320787, 30.200, 13:56:48.152, 14, 0.10, 0.23, 97, -3.100, 2.700, 19.400, 389, 100, 97, 28, 23786, -20974, 5234, 5396, 16, 14, 1529528208.152, 1, 0, 1024, 1024, 1024, 1024, 0, 6, 3981, 3951, 3949, 3946, 3989, 3973, 0, 1, 15402, -89.900, 0.000, 18.900, 0.000, 0.100, -2.900, 0.0, , , , , , 96, , , 15, 15, 15
38.5568749, -120.5320786, 30.500, 13:56:48.250, 14, 0.10, 0.22, 97, -3.300, 3.000, 19.300, 389, 100, 97, 28, 23786, -20974, 5234, 5396, 16, 14, 1529528208.250, 21, 0, 1024, 1024, 1024, 1024, 0, 6, 3981, 3951, 3949, 3946, 3989, 3973, 0, 1, 15500, -89.900, 0.000, 18.900, 0.000, 0.100, -2.900, 0.0, , , , , , 96, , , 15, 15, 15
38.5568749, -120.5320785, 30.800, 13:56:48.350, 14, 0.10, 0.21, 97, -3.500, 3.200, 19.200, 389, 100, 97, 28, 23786, -20974, 5234, 5396, 16, 14, 1529528208.350, 14, 0, 1024, 1024, 1024, 1024, 0, 6, 3981, 3951, 3949, 3946, 3989, 3973, 0, 1, 15600, -89.900, 0.000, 18.900, 0.000, 0.100, -2.900, 0.0, , , , , , 96, , , 15, 15, 15
38.5568749, -120.5320784, 31.100, 13:56:48.450, 14, 0.00, 0.20, 97, -3.500, 3.000, 19.100, 389, 100, 97, 28, 23786, -20974, 5234, 5396, 16, 14, 1529528208.451, 18, 0, 1024, 1024, 1024, 1024, 0, 6, 3981, 3951, 3949, 3946, 3989, 3973, 0, 1, 15701, -89.900, 0.000, 18.900, 0.000, 0.000, -2.900, 0.0, , , , , , 96, , , 15, 15, 15
38.5568749, -120.5320783, 31.400, 13:56:48.550, 14, 0.00, 0.19, 97, -3.500, 3.000, 19.100, 389, 100, 96, 28, 23786, -20974, 5234, 5396, 16, 14, 1529528208.550, 12, 0, 1024, 1024, 1024, 1024, 0, 6, 3981, 3951, 3949, 3946, 3989, 3973, 0, 1, 15800, -89.900, 0.000, 18.800, 0.000, 0.000, -2.900, 0.0, , , , , , 96, , , 15, 15, 15
38.5568749, -120.5320782, 31.700, 13:56:48.650, 14, 0.00, 0.19, 97, -3.500, 3.100, 19.100, 389, 100, 96, 28, 23786, -20974, 5234, 5396, 16, 14, 1529528208.651, 3, 0, 1024, 1024, 1024, 1024, 0, 6, 3981, 3951, 3949, 3946, 3989, 3973, 0, 1, 15900, -89.900, 0.000, 18.900, 0.000, 0.000, -2.900, 0.0, , , , , , 96, , , 15, 15, 15
38.5568749, -120.5320782, 31.700, 13:56:48.750, 14, 0.00, 0.19, 97, -3.500, 3.100, 19.100, 389, 100, 96, 28, 23786, -20974, 5234, 5396, 16, 14, 1529528208.750, 103, 0, 1024, 1024, 1024, 1024, 0, 6, 3981, 3951, 3949, 3946, 3989, 3973, 0, 1, 16000, -89.900, 0.000, 18.900, 0.000, 0.000, -2.900, 0.0, , , , , , 96, , , 15, 15, 15
38.5568749, -120.5320780, 32.300, 13:56:48.850, 14, 0.00, 0.17, 97, -3.400, 3.000, 19.200, 389, 100, 96, 28, 23786, -20974, 5234, 5396, 16, 14, 1529528208.850, 5, 0, 1024, 1024, 1024, 1024, 0, 6, 3981, 3951, 3949, 3946, 3989, 3973, 0, 1, 16100, -90.000, 0.000, 18.900, 0.000, 0.000, -2.900, 0.0, , , , , , 96, , , 15, 15, 15
38.5568749, -120.5320780, 32.300, 13:56:48.949, 14, 0.00, 0.17, 97, -3.400, 3.000, 19.200, 389, 100, 96, 28, 23786, -20974, 5234, 5396, 16, 14, 1529528208.949, 104, 0, 1024, 1024, 1024, 1024, 0, 6, 3981, 3951, 3949, 3946, 3989, 3973, 0, 1, 16199, -90.000, 0.000, 18.900, 0.000, 0.000, -2.900, 0.0, , , , , , 96, , , 15, 15, 15
38.5568749, -120.5320780, 32.600, 13:56:49.050, 14, 0.00, 0.16, 97, -3.500, 3.100, 19.200, 389, 100, 96, 28, 23751, -20859, 5234, 5396, 16, 14, 1529528209.050, 87, 0, 1024, 1024, 1024, 1024, 0, 6, 3949, 3939, 3920, 3931, 3963, 3953, 0, 1, 16300, -89.900, 0.000, 18.900, 0.000, 0.000, -2.900, 0.0, , , , , , 96, , , 15, 15, 15
38.5568749, -120.5320779, 32.900, 13:56:49.150, 14, 0.00, 0.16, 97, -3.600, 3.200, 19.200, 389, 100, 96, 28, 23751, -20859, 5234, 5396, 16, 14, 1529528209.150, 83, 0, 1024, 1024, 1024, 1024, 0, 6, 3949, 3939, 3920, 3931, 3963, 3953, 0, 1, 16400, -89.900, 0.000, 18.800, 0.000, 0.000, -2.800, 0.0, , , , , , 96, , , 15, 15, 15
38.5568749, -120.5320779, 33.200, 13:56:49.250, 14, 0.00, 0.16, 97, -3.600, 3.100, 19.200, 389, 100, 96, 28, 23751, -20859, 5234, 5396, 16, 14, 1529528209.250, 73, 0, 1024, 1024, 1024, 1024, 0, 6, 3949, 3939, 3920, 3931, 3963, 3953, 0, 1, 16500, -89.900, 0.000, 18.900, 0.000, 0.000, -2.800, 0.0, , , , , , 96, , , 15, 15, 15
38.5568749, -120.5320779, 33.400, 13:56:49.350, 14, 0.00, 0.16, 97, -3.400, 3.000, 19.200, 389, 100, 96, 28, 23751, -20859, 5234, 5396, 16, 14, 1529528209.350, 74, 0, 1024, 1024, 1024, 1024, 0, 6, 3949, 3939, 3920, 3931, 3963, 3953, 0, 1, 16600, -89.900, 0.000, 18.900, 0.000, 0.000, -2.800, 0.0, , , , , , 96, , , 15, 15, 15
38.5568748, -120.5320779, 33.700, 13:56:49.450, 14, 0.00, 0.16, 97, -3.400, 2.900, 19.200, 389, 100, 96, 28, 23751, -20859, 5234, 5396, 16, 14, 1529528209.450, 67, 0, 1024, 1024, 1024, 1024, 0, 6, 3949, 3939, 3920, 3931, 3963, 3953, 0, 1, 16700, -89.900, 0.000, 18.900, 0.000, 0.000, -2.900, 0.0, , , , , , 96, , , 15, 15, 15
38.5568749, -120.5320779, 34.000, 13:56:49.550, 14, 0.00, 0.15, 97, -3.400, 3.000, 19.100, 389, 100, 97, 28, 23751, -20859, 5234, 5396, 16, 14, 1529528209.550, 85, 0, 1024, 1024, 1024, 1024, 0, 6, 3949, 3939, 3920, 3931, 3963, 3953, 0, 1, 16800, -89.900, 0.000, 18.900, 0.000, 0.000, -3.000, 0.0, , , , , , 96, , , 15, 15, 15
38.5568749, -120.5320778, 34.300, 13:56:49.649, 14, 0.00, 0.15, 97, -3.500, 3.000, 19.000, 389, 100, 97, 28, 23751, -20859, 5234, 5396, 16, 14, 1529528209.649, 64, 0, 1024, 1024, 1024, 1024, 0, 6, 3949, 3939, 3920, 3931, 3963, 3953, 0, 1, 16899, -89.900, 0.000, 18.900, 0.000, 0.000, -3.000, 0.0, , , , , , 96, , , 15, 15, 15
38.5568749, -120.5320778, 34.600, 13:56:49.750, 14, 0.00, 0.15, 97, -3.800, 3.100, 19.000, 389, 100, 97, 28, 23751, -20859, 5234, 5396, 16, 14, 1529528209.750, 63, 0, 1024, 1024, 1024, 1024, 0, 6, 3949, 3939, 3920, 3931, 3963, 3953, 0, 1, 17000, -90.000, 0.000, 18.900, 0.000, 0.000, -3.000, 0.0, , , , , , 96, , , 15, 15, 15
38.5568748, -120.5320777, 35.200, 13:56:49.850, 14, 0.00, 0.14, 97, -4.200, 3.000, 19.200, 389, 100, 97, 28, 23751, -20859, 5234, 5396, 16, 14, 1529528209.850, 64, 0, 1024, 1024, 1024, 1024, 0, 6, 3949, 3939, 3920, 3931, 3963, 3953, 0, 1, 17100, -89.900, 0.000, 18.900, 0.000, 0.000, -2.900, 0.0, , , , , , 96, , , 15, 15, 15
38.5568748, -120.5320777, 35.500, 13:56:49.949, 14, 0.00, 0.14, 97, -4.100, 2.900, 19.400, 389, 100, 97, 28, 23617, -21962, 5234, 5396, 16, 14, 1529528209.950, 58, 0, 1024, 1024, 1024, 1024, 0, 6, 3949, 3939, 3920, 3931, 3963, 3953, 0, 1, 17199, -90.000, 0.000, 18.900, 0.000, 0.000, -2.800, 0.0, , , , , , 96, , , 15, 15, 15
38.5568748, -120.5320777, 35.700, 13:56:50.050, 14, 0.00, 0.14, 97, -4.000, 2.800, 19.500, 389, 100, 100, 28, 23617, -21962, 5234, 5396, 16, 14, 1529528210.050, 52, 0, 1024, 1024, 1024, 1024, 0, 6, 3949, 3939, 3920, 3931, 3963, 3953, 0, 1, 17300, -89.900, 0.000, 18.900, 0.000, 0.000, -2.900, 0.0, , , , , , 96, , , 15, 15, 15
38.5568748, -120.5320777, 36.000, 13:56:50.150, 14, 0.00, 0.14, 97, -3.900, 2.700, 19.500, 389, 100, 100, 28, 23617, -21962, 5234, 5396, 16, 14, 1529528210.150, 47, 0, 1024, 1024, 1024, 1024, 0, 6, 3949, 3939, 3920, 3931, 3963, 3953, 0, 1, 17400, -90.000, 0.000, 18.800, 0.000, 0.000, -3.000, 0.0, , , , , , 96, , , 15, 15, 15
38.5568748, -120.5320777, 36.300, 13:56:50.250, 14, 0.00, 0.14, 97, -3.700, 2.700, 19.600, 389, 100, 100, 28, 23617, -21962, 5234, 5396, 16, 14, 1529528210.250, 25, 0, 1024, 1024, 1024, 1024, 0, 6, 3949, 3939, 3920, 3931, 3963, 3953, 0, 1, 17500, -90.000, 0.000, 18.900, 0.000, 0.000, -3.100, 0.0, , , , , , 96, , , 15, 15, 15
38.5568748, -120.5320777, 36.600, 13:56:50.350, 14, 0.00, 0.14, 97, -3.600, 2.800, 19.600, 389, 100, 100, 28, 23617, -21962, 5234, 5396, 16, 14, 1529528210.351, 31, 0, 1024, 1024, 1024, 1024, 0, 6, 3949, 3939, 3920, 3931, 3963, 3953, 0, 1, 17600, -90.000, 0.000, 18.900, 0.000, 0.000, -3.000, 0.0, , , , , , 96, , , 15, 15, 15
38.5568748, -120.5320778, 37.000, 13:56:50.450, 14, 0.00, 0.15, 97, -3.500, 2.800, 19.500, 389, 100, 100, 28, 23617, -21962, 5234, 5396, 16, 14, 1529528210.450, 32, 0, 1024, 1024, 1024, 1024, 0, 6, 3940, 3917, 3920, 3924, 3964, 3939, 0, 1, 17700, -90.000, 0.000, 18.800, 0.000, 0.000, -3.000, 0.0, , , , , , 96, , , 15, 15, 15
38.5568748, -120.5320779, 37.300, 13:56:50.550, 14, 0.00, 0.16, 97, -3.300, 2.800, 19.400, 389, 100, 100, 28, 23617, -21962, 5234, 5396, 16, 14, 1529528210.550, 32, 0, 1024, 1024, 1024, 1024, 0, 6, 3940, 3917, 3920, 3924, 3964, 3939, 0, 1, 17800, -89.900, 0.000, 18.900, 0.000, 0.000, -3.000, 0.0, , , , , , 96, , , 15, 15, 15
38.5568749, -120.5320780, 37.600, 13:56:50.650, 14, 0.00, 0.17, 97, -3.000, 2.700, 19.400, 389, 100, 100, 28, 23617, -21962, 5234, 5396, 16, 14, 1529528210.650, 36, 0, 1024, 1024, 1024, 1024, 0, 6, 3940, 3917, 3920, 3924, 3964, 3939, 0, 1, 17900, -89.900, 0.000, 18.900, 0.000, 0.000, -2.900, 0.0, , , , , , 96, , , 15, 15, 15
38.5568749, -120.5320781, 37.900, 13:56:50.750, 14, 0.00, 0.17, 97, -2.800, 2.800, 19.400, 389, 100, 100, 28, 23617, -21962, 5234, 5396, 16, 14, 1529528210.750, 28, 0, 1024, 1024, 1024, 1024, 0, 6, 3940, 3917, 3920, 3924, 3964, 3939, 0, 1, 18000, -89.900, 0.000, 18.900, 0.000, 0.000, -3.000, 0.0, , , , , , 96, , , 15, 15, 15
38.5568750, -120.5320781, 38.100, 13:56:50.850, 14, 0.00, 0.18, 97, -2.300, 3.100, 19.500, 389, 100, 100, 28, 23617, -21962, 5234, 5396, 16, 14, 1529528210.850, 5, 0, 1024, 1024, 1024, 1024, 0, 6, 3940, 3917, 3920, 3924, 3964, 3939, 0, 1, 18100, -89.900, 0.000, 18.900, 0.000, 0.000, -2.900, 0.0, , , , , , 96, , , 15, 15, 15
38.5568750, -120.5320782, 38.400, 13:56:50.950, 15, 0.00, 0.18, 97, -2.300, 3.300, 19.500, 389, 100, 100, 28, 23617, -21962, 5234, 5396, 16, 14, 1529528210.950, 7, 0, 1024, 1024, 1024, 1024, 0, 6, 3940, 3917, 3920, 3924, 3964, 3939, 0, 1, 18200, -89.900, 0.000, 18.900, 0.000, 0.000, -3.000, 0.0, , , , , , 96, , , 15, 15, 15
38.5568750, -120.5320782, 38.700, 13:56:51.050, 15, 0.00, 0.18, 97, -2.700, 3.300, 19.500, 389, 100, 100, 28, 23617, -21962, 5234, 5396, 16, 14, 1529528211.050, 8, 0, 1024, 1024, 1024, 1024, 0, 6, 3940, 3917, 3920, 3924, 3964, 3939, 0, 1, 18300, -89.900, 0.000, 18.900, 0.000, 0.000, -3.000, 0.0, , , , , , 96, , , 15, 15, 15
38.5568750, -120.5320782, 38.700, 13:56:51.150, 15, 0.00, 0.18, 97, -2.700, 3.300, 19.500, 389, 100, 100, 28, 23617, -21962, 5234, 5396, 16, 14, 1529528211.150, 108, 0, 1024, 1024, 1024, 1024, 0, 6, 3940, 3917, 3920, 3924, 3964, 3939, 0, 1, 18400, -89.900, 0.000, 18.900, 0.000, 0.000, -3.000, 0.0, , , , , , 96, , , 15, 15, 15
38.5568750, -120.5320782, 39.000, 13:56:51.251, 15, 0.00, 0.19, 97, -3.000, 3.100, 19.500, 389, 100, 100, 28, 23617, -21962, 5234, 5396, 16, 14, 1529528211.251, 74, 0, 1024, 1024, 1024, 1024, 0, 6, 3940, 3917, 3920, 3924, 3964, 3939, 0, 1, 18501, -90.000, 0.000, 18.900, 0.000, 0.000, -3.000, 0.0, , , , , , 96, , , 15, 15, 15
38.5568750, -120.5320782, 39.300, 13:56:51.350, 15, 0.00, 0.19, 97, -3.200, 2.900, 19.400, 389, 100, 100, 28, 23617, -21962, 5234, 5396, 16, 14, 1529528211.351, 98, 0, 1024, 1024, 1024, 1024, 0, 6, 3940, 3917, 3920, 3924, 3964, 3939, 0, 1, 18600, -90.000, 0.000, 18.900, 0.000, 0.000, -3.000, 0.0, , , , , , 96, , , 15, 15, 15
38.5568749, -120.5320783, 39.600, 13:56:51.449, 15, 0.00, 0.19, 97, -3.300, 2.800, 19.400, 389, 100, 100, 28, 23617, -21962, 5234, 5396, 16, 14, 1529528211.450, 89, 0, 1024, 1024, 1024, 1024, 0, 6, 3940, 3917, 3920, 3924, 3964, 3939, 0, 1, 18700, -90.000, 0.000, 18.900, 0.000, 0.000, -3.000, 0.0, , , , , , 96, , , 15, 15, 15
38.5568749, -120.5320783, 39.900, 13:56:51.549, 15, 0.00, 0.20, 97, -3.200, 2.600, 19.300, 389, 100, 100, 28, 23515, -22954, 5180, 5396, 16, 14, 1529528211.549, 82, 0, 1024, 1024, 1024, 1024, 0, 6, 3922, 3905, 3898, 3897, 3948, 3917, 0, 1, 18799, -89.900, 0.000, 18.900, 0.000, 0.000, -3.100, 0.0, , , , , , 96, , , 15, 15, 15
38.5568749, -120.5320784, 40.300, 13:56:51.650, 15, 0.00, 0.21, 97, -3.000, 2.700, 19.300, 389, 100, 100, 28, 23515, -22954, 5180, 5396, 16, 14, 1529528211.650, 75, 0, 1024, 1024, 1024, 1024, 0, 6, 3922, 3905, 3898, 3897, 3948, 3917, 0, 1, 18900, -89.900, 0.000, 18.900, 0.000, 0.000, -3.200, 0.0, , , , , , 96, , , 15, 15, 15
38.5568749, -120.5320786, 40.600, 13:56:51.750, 15, 0.00, 0.21, 97, -2.800, 2.700, 19.300, 389, 100, 100, 28, 23515, -22954, 5180, 5396, 16, 14, 1529528211.750, 90, 0, 1024, 1024, 1024, 1024, 0, 6, 3922, 3905, 3898, 3897, 3948, 3917, 0, 1, 19000, -89.900, 0.000, 18.900, 0.000, 0.000, -3.100, 0.0, , , , , , 96, , , 15, 15, 15
38.5568749, -120.5320787, 40.900, 13:56:51.850, 15, 0.00, 0.22, 97, -2.600, 2.800, 19.300, 389, 100, 100, 28, 23515, -22954, 5180, 5396, 16, 14, 1529528211.850, 73, 0, 1024, 1024, 1024, 1024, 0, 6, 3922, 3905, 3898, 3897, 3948, 3917, 0, 1, 19100, -90.000, 0.000, 18.900, 0.000, 0.000, -3.100, 0.0, , , , , , 96, , , 15, 15, 15
38.5568749, -120.5320787, 41.200, 13:56:51.950, 15, 0.00, 0.23, 97, -2.500, 2.600, 19.300, 389, 100, 100, 28, 23515, -22954, 5180, 5396, 16, 14, 1529528211.950, 73, 0, 1024, 1024, 1024, 1024, 0, 6, 3922, 3905, 3898, 3897, 3948, 3917, 0, 1, 19200, -90.000, 0.000, 18.800, 0.000, 0.000, -3.100, 0.0, , , , , , 96, , , 15, 15, 15
38.5568749, -120.5320788, 41.500, 13:56:52.050, 15, 0.00, 0.23, 96, -2.500, 2.700, 19.300, 389, 100, 100, 28, 23515, -22954, 5180, 5396, 16, 14, 1529528212.050, 72, 0, 1024, 1024, 1024, 1024, 0, 6, 3922, 3905, 3898, 3897, 3948, 3917, 0, 1, 19300, -90.000, 0.000, 18.900, 0.000, 0.000, -3.000, 0.0, , , , , , 96, , , 15, 15, 15
38.5568749, -120.5320788, 41.800, 13:56:52.149, 15, 0.00, 0.24, 96, -2.700, 2.600, 19.300, 389, 100, 100, 28, 23515, -22954, 5180, 5396, 16, 14, 1529528212.150, 54, 0, 1024, 1024, 1024, 1024, 0, 6, 3922, 3905, 3898, 3897, 3948, 3917, 0, 1, 19399, -89.900, 0.000, 18.900, 0.000, 0.000, -3.000, 0.0, , , , , , 96, , , 15, 15, 15
38.5568749, -120.5320788, 42.500, 13:56:52.250, 15, 0.00, 0.24, 96, -2.500, 2.800, 19.400, 389, 100, 100, 28, 23515, -22954, 5180, 5396, 16, 14, 1529528212.251, 21, 0, 1024, 1024, 1024, 1024, 0, 6, 3922, 3905, 3898, 3897, 3948, 3917, 0, 1, 19500, -89.900, 0.000, 18.900, 0.000, 0.000, -3.000, 0.0, , , , , , 96, , , 15, 15, 15
38.5568749, -120.5320788, 42.800, 13:56:52.350, 15, 0.00, 0.24, 96, -2.800, 2.900, 19.500, 389, 100, 100, 28, 23515, -22954, 5180, 5396, 16, 14, 1529528212.350, 49, 0, 1024, 1024, 1024, 1024, 0, 6, 3922, 3905, 3898, 3897, 3948, 3917, 0, 1, 19600, -89.900, 0.000, 18.900, 0.000, 0.000, -3.000, 0.0, , , , , , 96, , , 15, 15, 15
38.5568749, -120.5320789, 43.100, 13:56:52.450, 15, 0.00, 0.24, 96, -3.000, 2.900, 19.500, 389, 100, 100, 28, 23500, -22538, 5180, 5396, 16, 14, 1529528212.450, 61, 0, 1024, 1024, 1024, 1024, 0, 6, 3922, 3905, 3898, 3897, 3948, 3917, 0, 1, 19700, -90.000, 0.000, 18.900, 0.000, 0.000, -3.000, 0.0, , , , , , 96, , , 15, 15, 15
38.5568749, -120.5320789, 43.400, 13:56:52.550, 15, 0.00, 0.25, 96, -3.000, 2.900, 19.500, 389, 100, 100, 28, 23500, -22538, 5180, 5396, 16, 14, 1529528212.550, 50, 0, 1024, 1024, 1024, 1024, 0, 6, 3922, 3905, 3898, 3897, 3948, 3917, 0, 1, 19800, -89.900, 0.000, 18.900, 0.000, 0.000, -3.000, 0.0, , , , , , 96, , , 15, 15, 15
38.5568749, -120.5320789, 43.700, 13:56:52.650, 15, 0.00, 0.25, 96, -2.900, 2.800, 19.500, 389, 100, 100, 28, 23500, -22538, 5180, 5396, 16, 14, 1529528212.650, 46, 0, 1024, 1024, 1024, 1024, 0, 6, 3922, 3905, 3898, 3897, 3948, 3917, 0, 1, 19900, -89.900, 0.000, 18.800, 0.000, 0.000, -3.000, 0.0, , , , , , 96, , , 15, 15, 15
38.5568749, -120.5320789, 44.000, 13:56:52.750, 15, 0.00, 0.25, 96, -3.100, 2.800, 19.400, 389, 100, 100, 28, 23500, -22538, 5180, 5396, 16, 14, 1529528212.750, 21, 0, 1024, 1024, 1024, 1024, 0, 6, 3922, 3905, 3898, 3897, 3948, 3917, 0, 1, 20000, -90.000, 0.000, 18.900, 0.000, 0.000, -3.000, 0.0, , , , , , 96, , , 15, 15, 15
38.5568749, -120.5320790, 44.300, 13:56:52.850, 15, 0.00, 0.25, 96, -3.100, 2.700, 19.300, 389, 100, 100, 28, 23500, -22538, 5180, 5396, 16, 14, 1529528212.850, 38, 0, 1024, 1024, 1024, 1024, 0, 6, 3922, 3905, 3898, 3897, 3948, 3917, 0, 1, 20100, -90.000, 0.000, 18.900, 0.000, 0.000, -3.000, 0.0, , , , , , 96, , , 15, 15, 15
38.5568748, -120.5320790, 44.600, 13:56:52.950, 15, 0.00, 0.26, 96, -3.000, 2.500, 19.200, 389, 100, 100, 28, 23500, -22538, 5180, 5396, 16, 14, 1529528212.950, 39, 0, 1024, 1024, 1024, 1024, 0, 6, 3922, 3905, 3898, 3897, 3948, 3917, 0, 1, 20200, -90.000, 0.000, 18.900, 0.000, 0.000, -3.000, 0.0, , , , , , 96, , , 15, 15, 15
38.5568748, -120.5320791, 44.900, 13:56:53.050, 15, 0.00, 0.26, 96, -3.100, 2.400, 19.200, 389, 100, 99, 28, 23500, -22538, 5180, 5396, 16, 14, 1529528213.050, 28, 0, 1024, 1024, 1024, 1024, 0, 6, 3922, 3905, 3898, 3897, 3948, 3917, 0, 1, 20300, -90.000, 0.000, 18.900, 0.000, 0.000, -3.000, 0.0, , , , , , 96, , , 15, 15, 15
38.5568748, -120.5320791, 45.200, 13:56:53.149, 15, 0.00, 0.26, 96, -3.100, 2.500, 19.200, 389, 100, 99, 28, 23500, -22538, 5180, 5396, 16, 14, 1529528213.149, 5, 0, 1024, 1024, 1024, 1024, 0, 6, 3922, 3905, 3898, 3897, 3948, 3917, 0, 1, 20399, -89.900, 0.000, 18.800, 0.000, 0.000, -3.000, 0.0, , , , , , 96, , , 15, 15, 15
38.5568748, -120.5320791, 45.200, 13:56:53.250, 15, 0.00, 0.26, 96, -3.100, 2.500, 19.200, 389, 100, 99, 28, 23500, -22538, 5180, 5396, 16, 14, 1529528213.250, 105, 0, 1024, 1024, 1024, 1024, 0, 6, 3922, 3905, 3898, 3897, 3948, 3917, 0, 1, 20500, -89.900, 0.000, 18.800, 0.000, 0.000, -3.000, 0.0, , , , , , 96, , , 15, 15, 15
38.5568748, -120.5320791, 45.900, 13:56:53.350, 15, 0.00, 0.26, 96, -3.300, 2.600, 19.200, 389, 100, 99, 28, 23500, -22538, 5180, 5396, 16, 14, 1529528213.350, 5, 0, 1024, 1024, 1024, 1024, 0, 6, 3922, 3905, 3898, 3897, 3948, 3917, 0, 1, 20600, -89.900, 0.000, 18.900, 0.000, 0.000, -3.000, 0.0, , , , , , 96, , , 15, 15, 15
38.5568748, -120.5320791, 46.200, 13:56:53.450, 15, 0.00, 0.26, 96, -3.300, 2.900, 19.100, 389, 100, 99, 29, 23547, -21795, 5180, 5396, 16, 14, 1529528213.451, 1, 0, 1024, 1024, 1024, 1024, 0, 6, 3922, 3905, 3898, 3897, 3948, 3917, 0, 1, 20700, -89.900, 0.000, 18.900, 0.000, 0.000, -3.100, 0.0, , , , , , 96, , , 15, 15, 15
38.5568748, -120.5320791, 46.200, 13:56:53.550, 15, 0.00, 0.26, 96, -3.300, 2.900, 19.100, 389, 100, 99, 29, 23547, -21795, 5180, 5396, 16, 14, 1529528213.550, 101, 0, 1024, 1024, 1024, 1024, 0, 6, 3929, 3911, 3894, 3898, 3945, 3929, 0, 1, 20800, -89.900, 0.000, 18.900, 0.000, 0.000, -3.100, 0.0, , , , , , 96, , , 15, 15, 15
