latitude,longitude,altitude(feet),ascent(feet),speed(mph),distance(feet),time(millisecond),datetime(utc),satellites,gpslevel,voltage(v),max_altitude(feet),max_ascent(feet),max_speed(mph),max_distance(feet), xSpeed(mph), ySpeed(mph), zSpeed(mph), compass_heading(degrees), pitch(degrees), roll(degrees),isPhoto,isVideo,rc_elevator,rc_aileron,rc_throttle,rc_rudder,gimbal_heading(degrees),gimbal_pitch(degrees),battery_percent,voltageCell1,voltageCell2,voltageCell3,voltageCell4,voltageCell5,voltageCell6,current(A),battery_temperature(f),flycStateRaw,flycState,message
38.5568618,-120.5320512,3755.1336414897,0,0,0,3000,2018-06-20 20:38:19,13,0,25.471,3755.1336414897,0,0,0,0,0,0,22.1, 0.2, -0.1,1,0,1024,1024,1024,1024,21.5,-89.9,98,4.229,4.222,4.209,4.23,4.238,4.211,4.499,84.2,11,AutoTakeoff,DJI_0001.jpg Starting Mission from Lat/Long: 38.55688/-120.53205 Camera: Zenmuse X3 - Overlap: 90/90 - Active Connection: No
38.5568619,-120.5320513,3755.1336414897,0,0,0.046315946364,3100,2018-06-20 20:38:19,13,0,25.471,3755.1336414897,0,0,0.046315946364,0,0,0,22.2, 0.3, 0.4,0,0,1024,1024,1024,1024,21.5,-89.9,98,4.229,4.222,4.209,4.23,4.238,4.211,4.499,84.2,11,AutoTakeoff,
38.556862,-120.5320514,3755.1336414897,0,0,0.092631892728,3200,2018-06-20 20:38:19,13,0,25.471,3755.1336414897,0,0,0.092631892728,0,0,0,22.2, 0.2, 0.6,0,0,1024,1024,1024,1024,21.5,-89.9,98,4.229,4.222,4.209,4.23,4.238,4.211,4.499,84.2,11,AutoTakeoff,
38.5568621,-120.5320515,3755.4617254897,0.328084,0,0.138947511008,3300,2018-06-20 20:38:19,13,0,25.471,3755.4617254897,0.328084,0,0.138947511008,0,0,0,22.2, 0.1, 0.7,0,0,1024,1024,1024,1024,21.5,-89.9,98,4.229,4.222,4.209,4.23,4.238,4.211,4.499,84.2,11,AutoTakeoff,
38.5568622,-120.5320517,3755.4617254897,0.328084,0,0.204080059024,3400,2018-06-20 20:38:19,13,0,25.471,3755.4617254897,0.328084,0,0.204080059024,0,0,0,22.3, 0, 0.8,0,0,1024,1024,1024,1024,21.5,-89.9,98,4.229,4.222,4.209,4.23,4.238,4.211,4.499,84.2,11,AutoTakeoff,
38.5568623,-120.5320518,3755.7898094897,0.656168,0,0.250166346588,3500,2018-06-20 20:38:19,13,0,25.471,3755.7898094897,0.656168,0,0.250166346588,0,0,0,22.3, 0.2, 0.6,0,0,1024,1024,1024,1024,21.5,-89.9,98,4.229,4.222,4.209,4.23,4.238,4.211,4.499,84.2,11,AutoTakeoff,
38.5568624,-120.532052,3755.7898094897,0.656168,0,0.316256243716,3600,2018-06-20 20:38:19,13,0,25.471,3755.7898094897,0.656168,0,0.316256243716,0,0,0,22.2, 0.5, 0.7,0,0,1024,1024,1024,1024,21.5,-89.9,98,4.229,4.222,4.209,4.23,4.238,4.211,4.499,84.2,11,AutoTakeoff,
38.5568625,-120.532052,3756.1178934897,0.984252,0,0.34252297684,3700,2018-06-20 20:38:19,13,0,25.471,3756.1178934897,0.984252,0,0.34252297684,0,0,0,22.2, 0.4, 0.8,0,0,1024,1024,1024,1024,21.5,-89.9,98,4.229,4.222,4.209,4.23,4.238,4.211,4.499,84.2,11,AutoTakeoff,
38.5568626,-120.5320521,3756.1178934897,0.984252,0,0.38875329328,3800,2018-06-20 20:38:19,10,0,25.471,3756.1178934897,0.984252,0,0.38875329328,0,0,0,22.1, 0.2, 1,0,0,1024,1024,1024,1024,21.5,-89.9,98,4.229,4.222,4.209,4.23,4.238,4.211,4.499,84.2,11,AutoTakeoff,
38.5568626,-120.5320522,3756.4459774897,1.312336,0,0.40815946188,3900,2018-06-20 20:38:20,10,0,25.471,3756.4459774897,1.312336,0,0.40815946188,0,0,0,22, 0.1, 0.9,0,0,1024,1024,1024,1024,21.5,-89.9,98,4.229,4.222,4.209,4.23,4.238,4.211,4.499,84.2,11,AutoTakeoff,
38.5568626,-120.5320522,3756.4459774897,1.312336,0,0.40815946188,4000,2018-06-20 20:38:20,12,0,24.646,3756.4459774897,1.312336,0,0.40815946188,0,0,0,21.8, 0.1, 1,0,0,1024,1024,1024,1024,21.5,-89.9,98,4.229,4.222,4.209,4.23,4.238,4.211,14.965,84.2,11,AutoTakeoff,
38.5568627,-120.5320522,3756.7740614897,1.64042,0,0.43500001392,4100,2018-06-20 20:38:20,12,0,24.646,3756.7740614897,1.64042,0,0.43500001392,0,0,0,21.5, 0.1, 0.6,0,0,1024,1024,1024,1024,21.5,-89.9,98,4.229,4.222,4.209,4.23,4.238,4.211,14.965,84.2,11,AutoTakeoff,
38.5568627,-120.5320522,3756.7740614897,1.64042,0,0.43500001392,4200,2018-06-20 20:38:20,12,0,24.646,3756.7740614897,1.64042,0,0.43500001392,0,0,0,21.5, 0, 0.5,0,0,1024,1024,1024,1024,21.5,-89.9,98,4.229,4.222,4.209,4.23,4.238,4.211,14.965,84.2,11,AutoTakeoff,
38.5568628,-120.5320522,3757.1021454897,1.968504,0,0.46315946364,4300,2018-06-20 20:38:20,12,0,24.646,3757.1021454897,1.968504,0,0.46315946364,0,0,-0.223694,21.5, 0, 0.4,0,0,1024,1024,1024,1024,21.5,-89.9,98,4.229,4.222,4.209,4.23,4.238,4.211,14.965,84.2,11,AutoTakeoff,
38.5568629,-120.5320522,3757.1021454897,1.968504,0,0.49241143308,4400,2018-06-20 20:38:20,12,0,24.646,3757.1021454897,1.968504,0,0.49241143308,0,0,-0.223694,21.7, 0, 0.3,0,0,1024,1024,1024,1024,21.5,-89.9,98,4.229,4.222,4.209,4.23,4.238,4.211,14.965,84.2,11,AutoTakeoff,
38.556863,-120.5320522,3757.4302294897,2.296588,0,0.52257547604,4500,2018-06-20 20:38:20,11,0,24.646,3757.4302294897,2.296588,0,0.52257547604,0,0,-0.223694,21.9, 0.1, 0.3,0,0,1024,1024,1024,1024,21.5,-89.9,98,4.229,4.222,4.209,4.23,4.238,4.211,14.965,84.2,11,AutoTakeoff,
38.556863,-120.5320522,3757.4302294897,2.296588,0,0.52257547604,4600,2018-06-20 20:38:20,11,0,24.646,3757.4302294897,2.296588,0,0.52257547604,0,0,-0.223694,22, 0.3, 0.4,0,0,1024,1024,1024,1024,21.5,-89.9,98,4.229,4.222,4.209,4.23,4.238,4.211,14.965,84.2,11,AutoTakeoff,
38.5568631,-120.5320523,3757.7583134897,2.624672,0,0.568733614,4700,2018-06-20 20:38:20,11,0,24.646,3757.7583134897,2.624672,0,0.568733614,0,0,-0.223694,22, 0.5, 0.6,0,0,1024,1024,1024,1024,21.5,-89.9,98,4.229,4.222,4.209,4.23,4.238,4.211,14.965,84.2,11,AutoTakeoff,
38.5568631,-120.5320522,3757.7583134897,2.624672,0,0.55350395472,4800,2018-06-20 20:38:20,11,0,24.646,3757.7583134897,2.624672,0,0.568733614,0,0,-0.223694,22, 0.7, 0.7,0,0,1024,1024,1024,1024,21.5,-89.9,98,4.229,4.222,4.209,4.23,4.238,4.211,14.965,84.2,11,AutoTakeoff,
38.5568631,-120.5320522,3758.0863974897,2.952756,0,0.55350395472,4900,2018-06-20 20:38:21,12,0,24.646,3758.0863974897,2.952756,0,0.568733614,0,0,-0.223694,21.8, 0.6, 0.8,0,0,1024,1024,1024,1024,21.5,-89.9,98,4.229,4.222,4.209,4.23,4.238,4.211,14.965,84.2,14,Waypoint,
38.556863,-120.5320522,3758.0863974897,2.952756,0,0.52257547604,5000,2018-06-20 20:38:21,12,0,24.646,3758.0863974897,2.952756,0,0.568733614,0,0,0,21.7, 0.2, 0.7,0,0,1024,1024,1024,1024,21.5,-90,98,4.097,4.097,4.089,4.113,4.124,4.088,14.965,84.2,14,Waypoint,
38.5568629,-120.5320521,3758.4144814897,3.28084,0,0.47645014648,5200,2018-06-20 20:38:21,11,0,24.646,3758.4144814897,3.28084,0,0.568733614,0,0,0,21.5, -0.6, 0,0,0,1024,1024,1024,1024,21.5,-90,98,4.097,4.097,4.089,4.113,4.124,4.088,14.965,84.2,14,Waypoint,
38.5568629,-120.5320521,3758.4144814897,3.28084,0,0.47645014648,5300,2018-06-20 20:38:21,11,0,24.646,3758.4144814897,3.28084,0,0.568733614,0,0,0,21.4, -0.9, -0.5,0,0,1024,1024,1024,1024,21.5,-90,98,4.097,4.097,4.089,4.113,4.124,4.088,14.965,84.2,14,Waypoint,
38.556863,-120.532052,3758.7425654897,3.608924,0,0.49374345412,5400,2018-06-20 20:38:21,11,0,24.646,3758.7425654897,3.608924,0,0.568733614,0,0,0,21.4, -0.7, -0.5,0,0,1024,1024,1024,1024,21.5,-90,98,4.097,4.097,4.089,4.113,4.124,4.088,14.965,84.2,14,Waypoint,
38.556863,-120.532052,3758.7425654897,3.608924,0,0.49374345412,5600,2018-06-20 20:38:21,11,0,24.646,3758.7425654897,3.608924,0,0.568733614,0,0,-0.223694,21.5, -0.5, -0.4,0,0,1024,1024,1024,1024,21.5,-89.9,98,4.097,4.097,4.089,4.113,4.124,4.088,14.965,84.2,14,Waypoint,
38.556863,-120.5320519,3759.0706494897,3.937008,0,0.48122048784,5700,2018-06-20 20:38:21,11,0,24.646,3759.0706494897,3.937008,0,0.568733614,0,0,-0.223694,21.7, -0.3, -0.3,0,0,1024,1024,1024,1024,21.5,-89.9,98,4.097,4.097,4.089,4.113,4.124,4.088,14.965,84.2,14,Waypoint,
38.5568631,-120.5320518,3759.3987334897,4.265092,0,0.50425198464,5800,2018-06-20 20:38:21,12,0,24.646,3759.3987334897,4.265092,0,0.568733614,0,0,-0.223694,21.9, -0.2, -0.3,0,0,1024,1024,1024,1024,21.5,-89.9,98,4.097,4.097,4.089,4.113,4.124,4.088,14.965,84.2,14,Waypoint,
38.5568632,-120.5320518,3759.7268174897,4.593176,0,0.53871064716,5900,2018-06-20 20:38:22,12,0,24.646,3759.7268174897,4.593176,0,0.568733614,0,0,-0.223694,22, -0.1, -0.3,0,0,1024,1024,1024,1024,21.5,-89.9,98,4.097,4.097,4.089,4.113,4.124,4.088,14.965,84.2,14,Waypoint,
38.5568634,-120.5320518,3760.0549014897,4.92126,0,0.60833991448,6000,2018-06-20 20:38:22,11,0,24.435,3760.0549014897,4.92126,0,0.60833991448,0,0,-0.223694,22.1, 0.1, -0.1,0,0,1024,1024,1024,1024,21.5,-89.9,98,4.059,4.062,4.077,4.066,4.085,4.077,16.126,84.2,14,Waypoint,
38.5568636,-120.5320517,3760.7110694897,5.577428,0,0.67204398476,6100,2018-06-20 20:38:22,11,0,24.435,3760.7110694897,5.577428,0,0.67204398476,0,0,-0.447388,22.2, 0.3, -0.1,0,0,1024,1024,1024,1024,21.5,-89.9,98,4.059,4.062,4.077,4.066,4.085,4.077,16.126,84.2,14,Waypoint,
38.5568637,-120.5320517,3761.0391534897,5.905512,0,0.70773952396,6200,2018-06-20 20:38:22,12,0,24.435,3761.0391534897,5.905512,0,0.70773952396,0,0,-0.447388,22.2, 0.6, -0.1,0,0,1024,1024,1024,1024,21.5,-89.9,98,4.059,4.062,4.077,4.066,4.085,4.077,16.126,84.2,14,Waypoint,
38.5568638,-120.5320517,3761.6953214897,6.56168,0,0.74351380332,6300,2018-06-20 20:38:22,12,0,24.435,3761.6953214897,6.56168,0,0.74351380332,0,0,-0.447388,22.3, 0.8, -0.1,0,0,1024,1024,1024,1024,21.5,-89.9,98,4.059,4.062,4.077,4.066,4.085,4.077,16.126,84.2,14,Waypoint,
38.556864,-120.5320518,3763.3357414897,8.2021,0,0.8207185302,6400,2018-06-20 20:38:22,12,0,24.435,3763.3357414897,8.2021,0,0.8207185302,0,0,-0.671082,22.2, 0.7, 0,0,0,1024,1024,1024,1024,21.5,-89.9,98,4.059,4.062,4.077,4.066,4.085,4.077,16.126,84.2,14,Waypoint,
38.556864,-120.5320518,3763.9919094897,8.858268,0,0.8207185302,6500,2018-06-20 20:38:22,13,0,24.435,3763.9919094897,8.858268,0,0.8207185302,0,0,-0.671082,22, 0.5, 0.1,0,0,1024,1024,1024,1024,21.5,-89.9,98,4.059,4.062,4.077,4.066,4.085,4.077,16.126,84.2,14,Waypoint,
38.556864,-120.5320517,3764.9761614897,9.84252,0,0.81524608908,6600,2018-06-20 20:38:22,13,0,24.435,3764.9761614897,9.84252,0,0.8207185302,0,0,-0.671082,21.9, 0.3, 0.3,0,0,1024,1024,1024,1024,21.5,-89.9,98,4.059,4.062,4.077,4.066,4.085,4.077,16.126,84.2,14,Waypoint,
38.556864,-120.5320517,3765.9604134897,10.826772,0,0.81524608908,6700,2018-06-20 20:38:22,12,0,24.435,3765.9604134897,10.826772,0,0.8207185302,0,0,-0.671082,21.9, 0.3, 0.1,0,0,1024,1024,1024,1024,21.5,-89.9,98,4.059,4.062,4.077,4.066,4.085,4.077,16.126,84.2,14,Waypoint,
38.5568641,-120.5320517,3767.2727494897,12.139108,0,0.85119425296,6800,2018-06-20 20:38:22,12,0,24.435,3767.2727494897,12.139108,0,0.85119425296,0,0,-0.671082,21.9, 0.3, 0,0,0,1024,1024,1024,1024,21.5,-89.9,98,4.059,4.062,4.077,4.066,4.085,4.077,16.126,84.2,14,Waypoint,
38.5568642,-120.5320518,3768.2570014897,13.12336,0,0.89221459548,6900,2018-06-20 20:38:23,12,0,24.435,3768.2570014897,13.12336,0,0.89221459548,0,0,-0.671082,21.9, 0.3, 0,0,0,1024,1024,1024,1024,21.5,-89.9,98,4.059,4.062,4.077,4.066,4.085,4.077,16.126,84.2,14,Waypoint,
38.5568643,-120.5320519,3769.2412534897,14.107612,0,0.93373362568,7000,2018-06-20 20:38:23,12,0,24.58,3769.2412534897,14.107612,0,0.93373362568,0,0,-0.671082,22, 0.4, 0,0,0,1024,1024,1024,1024,21.5,-89.9,98,4.07,4.031,4.072,4.112,4.08,4.084,15.468,84.2,14,Waypoint,
38.5568645,-120.532052,3770.2255054897,15.091864,0,1.01119097724,7100,2018-06-20 20:38:23,11,0,24.58,3770.2255054897,15.091864,0,1.01119097724,0,0,-0.671082,22.1, 0.5, 0.3,0,0,1024,1024,1024,1024,21.5,-89.9,98,4.07,4.031,4.072,4.112,4.08,4.084,15.468,84.2,14,Waypoint,
38.5568645,-120.532052,3771.5378414897,16.4042,0,1.01119097724,7200,2018-06-20 20:38:23,11,0,24.58,3771.5378414897,16.4042,0,1.01119097724,0,0,-0.671082,22.1, 0.7, 0.6,0,0,1024,1024,1024,1024,21.5,-89.9,98,4.07,4.031,4.072,4.112,4.08,4.084,15.468,84.2,14,Waypoint,
38.5568644,-120.532052,3772.5220934897,17.388452,0,0.97568244592,7300,2018-06-20 20:38:23,12,0,24.58,3772.5220934897,17.388452,0,1.01119097724,0,0,-0.671082,22, 0.7, 0.7,0,0,1024,1024,1024,1024,21.5,-89.9,98,4.07,4.031,4.072,4.112,4.08,4.084,15.468,84.2,14,Waypoint,
38.5568644,-120.5320521,3773.5063454897,18.372704,0,0.98274609444,7410,2018-06-20 20:38:23,12,0,24.58,3773.5063454897,18.372704,0,1.01119097724,0,0,-0.671082,22, 0.6, 0.5,0,0,1024,1024,1024,1024,21.5,-89.9,98,4.07,4.031,4.072,4.112,4.08,4.084,15.468,84.2,14,Waypoint,
38.5568643,-120.5320522,3774.8186814897,19.68504,0,0.95570541116,7500,2018-06-20 20:38:23,12,0,24.58,3774.8186814897,19.68504,0,1.01119097724,0,0,-0.671082,21.9, 0.3, 0.4,0,0,1024,1024,1024,1024,21.5,-89.9,98,4.07,4.031,4.072,4.112,4.08,4.084,15.468,84.2,14,Waypoint,
38.5568642,-120.5320522,3775.8029334897,20.669292,0,0.9209481922,7700,2018-06-20 20:38:23,12,0,24.58,3775.8029334897,20.669292,0,1.01119097724,0,0,-0.671082,21.9, 0, 0.3,0,0,1024,1024,1024,1024,21.5,-89.9,98,4.07,4.031,4.072,4.112,4.08,4.084,15.468,84.2,14,Waypoint,
38.5568641,-120.5320522,3776.7871854897,21.653544,0.223694,0.88632876852,7800,2018-06-20 20:38:23,11,0,24.58,3776.7871854897,21.653544,0.223694,1.01119097724,0,0,-0.671082,21.8, -0.1, 0.1,0,0,1024,1024,1024,1024,21.5,-89.9,98,4.07,4.031,4.072,4.112,4.08,4.084,15.468,84.2,14,Waypoint,
38.5568641,-120.5320522,3778.0995214897,22.96588,0,0.88632876852,7900,2018-06-20 20:38:24,11,0,24.58,3778.0995214897,22.96588,0.223694,1.01119097724,0,0,-0.671082,21.7, -0.1, 0,0,0,1024,1024,1024,1024,21.5,-89.9,98,4.07,4.031,4.072,4.112,4.08,4.084,15.468,84.2,14,Waypoint,
38.5568641,-120.5320523,3779.0837734897,23.950132,0,0.89592194468,8000,2018-06-20 20:38:24,10,0,23.971,3779.0837734897,23.950132,0.223694,1.01119097724,0,0,-0.671082,21.5, 0, -0.1,0,0,1024,1024,1024,1024,21.5,-89.9,98,3.97,3.962,3.983,3.989,3.993,3.99,22.386,84.2,14,Waypoint,
38.5568642,-120.5320523,3780.3961094897,25.262468,0,0.93018047596,8100,2018-06-20 20:38:24,10,0,23.971,3780.3961094897,25.262468,0.223694,1.01119097724,0,0,-0.671082,21.4, 0.1, 0,0,0,1024,1024,1024,1024,21.5,-89.9,98,3.97,3.962,3.983,3.989,3.993,3.99,22.386,84.2,14,Waypoint,
38.5568642,-120.5320523,3781.3803614897,26.24672,0,0.93018047596,8200,2018-06-20 20:38:24,11,0,23.971,3781.3803614897,26.24672,0.223694,1.01119097724,0,0,-0.671082,21.4, 0.1, 0.1,0,0,1024,1024,1024,1024,21.5,-89.9,98,3.97,3.962,3.983,3.989,3.993,3.99,22.386,84.2,14,Waypoint,
38.5568642,-120.5320523,3782.3646134897,27.230972,0,0.93018047596,8300,2018-06-20 20:38:24,11,0,23.971,3782.3646134897,27.230972,0.223694,1.01119097724,0,0,-0.671082,21.4, 0.2, 0.2,0,0,1024,1024,1024,1024,21.5,-89.9,98,3.97,3.962,3.983,3.989,3.993,3.99,22.386,84.2,14,Waypoint,
38.5568643,-120.5320523,3783.6769494897,28.543308,0,0.96460633008,8400,2018-06-20 20:38:24,11,0,23.971,3783.6769494897,28.543308,0.223694,1.01119097724,0,0,-0.671082,21.4, 0.3, 0.1,0,0,1024,1024,1024,1024,21.5,-89.9,98,3.97,3.962,3.983,3.989,3.993,3.99,22.386,84.2,14,Waypoint,
38.5568643,-120.5320523,3784.6612014897,29.52756,0,0.96460633008,8500,2018-06-20 20:38:24,11,0,23.971,3784.6612014897,29.52756,0.223694,1.01119097724,0,0,-0.671082,21.6, 0.4, 0.1,0,0,1024,1024,1024,1024,21.5,-89.9,98,3.97,3.962,3.983,3.989,3.993,3.99,22.386,84.2,14,Waypoint,
38.5568643,-120.5320523,3785.6454534897,30.511812,0,0.96460633008,8600,2018-06-20 20:38:24,12,0,23.971,3785.6454534897,30.511812,0.223694,1.01119097724,0,0,-0.671082,21.7, 0.4, 0.3,0,0,1024,1024,1024,1024,21.5,-89.9,98,3.97,3.962,3.983,3.989,3.993,3.99,22.386,84.2,14,Waypoint,
38.5568642,-120.5320522,3786.6297054897,31.496064,0,0.9209481922,8700,2018-06-20 20:38:24,12,0,23.971,3786.6297054897,31.496064,0.223694,1.01119097724,0,0,-0.671082,22, 0.3, 0.1,0,0,1024,1024,1024,1024,21.5,-89.9,98,3.97,3.962,3.983,3.989,3.993,3.99,22.386,84.2,14,Waypoint,
38.5568642,-120.532052,3787.9420414897,32.8084,0,0.90489832292,8800,2018-06-20 20:38:24,12,0,23.971,3787.9420414897,32.8084,0.223694,1.01119097724,0,0,-0.671082,22.1, 0.2, -0.1,0,0,1024,1024,1024,1024,21.5,-89.9,98,3.97,3.962,3.983,3.989,3.993,3.99,22.386,84.2,14,Waypoint,
38.5568641,-120.5320519,3788.9262934897,33.792652,0.223694,0.86259189112,8900,2018-06-20 20:38:25,12,0,23.971,3788.9262934897,33.792652,0.223694,1.01119097724,0,0,-0.671082,22.2, 0, -0.4,0,0,1024,1024,1024,1024,21.5,-90,98,3.97,3.962,3.983,3.989,3.993,3.99,22.386,84.2,14,Waypoint,
38.556864,-120.5320518,3790.8947974897,35.761156,0,0.8207185302,9000,2018-06-20 20:38:25,12,0,23.958,3790.8947974897,35.761156,0.223694,1.01119097724,0,0,-0.671082,22.4, 0, -0.9,0,0,1024,1024,1024,1024,21.5,-89.9,97,3.985,3.985,4.002,3.991,4.017,4.003,21.55,84.2,14,Waypoint,
38.556864,-120.5320517,3791.8790494897,36.745408,0,0.81524608908,9100,2018-06-20 20:38:25,12,0,23.958,3791.8790494897,36.745408,0.223694,1.01119097724,0,0,-0.671082,22.5, 0.3, -0.9,0,0,1024,1024,1024,1024,21.5,-89.9,97,3.985,3.985,4.002,3.991,4.017,4.003,21.55,84.2,14,Waypoint,
38.5568641,-120.5320516,3792.8633014897,37.72966,0,0.84687994836,9200,2018-06-20 20:38:25,12,0,23.958,3792.8633014897,37.72966,0.223694,1.01119097724,0,0,-0.671082,22.5, 0.4, -1.2,0,0,1024,1024,1024,1024,21.5,-89.9,97,3.985,3.985,4.002,3.991,4.017,4.003,21.55,84.2,14,Waypoint,
38.5568642,-120.5320515,3793.8475534897,38.713912,0,0.87981302028,9300,2018-06-20 20:38:25,11,0,23.958,3793.8475534897,38.713912,0.223694,1.01119097724,0,0,-0.671082,22.4, 0.4, -1.3,0,0,1024,1024,1024,1024,21.5,-89.9,97,3.985,3.985,4.002,3.991,4.017,4.003,21.55,84.2,14,Waypoint,
38.5568641,-120.5320515,3794.8318054897,39.698164,0,0.84350724484,9400,2018-06-20 20:38:25,11,0,23.958,3794.8318054897,39.698164,0.223694,1.01119097724,0,0,-0.671082,22.2, 0.2, -1.1,0,0,1024,1024,1024,1024,21.5,-89.9,97,3.985,3.985,4.002,3.991,4.017,4.003,21.55,84.2,14,Waypoint,
38.5568641,-120.5320515,3795.8160574897,40.682416,0,0.84350724484,9500,2018-06-20 20:38:25,12,0,23.958,3795.8160574897,40.682416,0.223694,1.01119097724,0,0,-0.671082,22.2, 0, -1.1,0,0,1024,1024,1024,1024,21.5,-90,97,3.985,3.985,4.002,3.991,4.017,4.003,21.55,84.2,14,Waypoint,
38.5568642,-120.5320515,3796.8003094897,41.666668,0,0.87981302028,9600,2018-06-20 20:38:25,12,0,23.958,3796.8003094897,41.666668,0.223694,1.01119097724,0,0,-0.671082,22.1, -0.1, -1.1,0,0,1024,1024,1024,1024,21.5,-89.9,97,3.985,3.985,4.002,3.991,4.017,4.003,21.55,84.2,14,Waypoint,
38.5568642,-120.5320514,3799.0968974897,43.963256,0,0.87749674724,9800,2018-06-20 20:38:25,12,0,23.958,3799.0968974897,43.963256,0.223694,1.01119097724,0,0,-0.671082,21.8, 0.4, -1.2,0,0,1024,1024,1024,1024,21.5,-89.9,97,3.985,3.985,4.002,3.991,4.017,4.003,21.55,84.2,14,Waypoint,
38.5568642,-120.5320514,3800.0811494897,44.947508,0,0.87749674724,9900,2018-06-20 20:38:26,12,0,23.958,3800.0811494897,44.947508,0.223694,1.01119097724,0,0,-0.671082,21.6, 0.6, -1.3,0,0,1024,1024,1024,1024,21.5,-89.9,97,3.985,3.985,4.002,3.991,4.017,4.003,21.55,84.2,14,Waypoint,
38.5568642,-120.5320513,3801.0654014897,45.93176,0,0.87610239024,10010,2018-06-20 20:38:26,12,0,24.08,3801.0654014897,45.93176,0.223694,1.01119097724,0,0,-0.671082,21.6, 0.6, -1.4,0,0,1024,1024,1024,1024,21.5,-89.9,97,4.007,4.003,4.013,4.011,4.027,4.02,18.302,84.2,14,Waypoint,
38.5568641,-120.5320512,3802.0496534897,46.916012,0,0.83915357016,10100,2018-06-20 20:38:26,12,0,24.08,3802.0496534897,46.916012,0.223694,1.01119097724,0,0,-0.671082,21.7, 0.4, -1.5,0,0,1024,1024,1024,1024,21.5,-89.9,97,4.007,4.003,4.013,4.011,4.027,4.02,18.302,84.2,14,Waypoint,
38.5568641,-120.5320512,3803.0339054897,47.900264,0,0.83915357016,10200,2018-06-20 20:38:26,12,0,24.08,3803.0339054897,47.900264,0.223694,1.01119097724,0,0,-0.671082,21.8, 0.2, -1.5,0,0,1024,1024,1024,1024,21.5,-89.9,97,4.007,4.003,4.013,4.011,4.027,4.02,18.302,84.2,14,Waypoint,
38.556864,-120.5320511,3805.0024094897,49.868768,0,0.80317587872,10500,2018-06-20 20:38:26,12,0,24.08,3805.0024094897,49.868768,0.223694,1.01119097724,0,0,-0.671082,21.7, 0.2, -1.4,0,0,1024,1024,1024,1024,21.5,-89.9,97,4.007,4.003,4.013,4.011,4.027,4.02,18.302,84.2,14,Waypoint,
38.5568641,-120.5320511,3805.9866614897,50.85302,0,0.83963913448,10600,2018-06-20 20:38:26,12,0,24.08,3805.9866614897,50.85302,0.223694,1.01119097724,0,0,-0.671082,21.7, 0.3, -1.2,0,0,1024,1024,1024,1024,21.5,-89.9,97,4.007,4.003,4.013,4.011,4.027,4.02,18.302,84.2,14,Waypoint,
38.5568641,-120.5320512,3806.9709134897,51.837272,0,0.83915357016,10700,2018-06-20 20:38:26,12,0,24.08,3806.9709134897,51.837272,0.223694,1.01119097724,0,0,-0.671082,21.7, 0.7, -0.9,0,0,1024,1024,1024,1024,21.5,-89.9,97,4.007,4.003,4.013,4.011,4.027,4.02,18.302,84.2,14,Waypoint,
38.5568642,-120.5320512,3807.9551654897,52.821524,0,0.8756397918,10800,2018-06-20 20:38:26,13,0,24.08,3807.9551654897,52.821524,0.223694,1.01119097724,0,0,-0.671082,21.7, 1.1, -0.5,0,0,1024,1024,1024,1024,21.5,-89.9,97,4.007,4.003,4.013,4.011,4.027,4.02,18.302,84.2,14,Waypoint,
38.5568643,-120.5320513,3808.9394174897,53.805776,0,0.91256892684,10900,2018-06-20 20:38:27,13,0,24.08,3808.9394174897,53.805776,0.223694,1.01119097724,0,0,-0.671082,21.6, 1.1, -0.4,0,0,1024,1024,1024,1024,21.5,-89.9,97,4.007,4.003,4.013,4.011,4.027,4.02,18.302,84.2,14,Waypoint,
38.5568644,-120.5320513,3809.9236694897,54.790028,0,0.94903874428,11000,2018-06-20 20:38:27,12,0,24.02,3809.9236694897,54.790028,0.223694,1.01119097724,0,0,-0.671082,21.5, 1, -0.6,0,0,1024,1024,1024,1024,21.5,-89.9,97,3.999,3.993,4.005,4.004,4.014,4.012,18.787,84.2,14,Waypoint,
38.5568644,-120.5320514,3810.9079214897,55.77428,0,0.95032155272,11100,2018-06-20 20:38:27,12,0,24.02,3810.9079214897,55.77428,0.223694,1.01119097724,0,0,-0.671082,21.4, 1.2, -0.4,0,0,1024,1024,1024,1024,21.5,-89.9,97,3.999,3.993,4.005,4.004,4.014,4.012,18.787,84.2,14,Waypoint,
38.5568644,-120.5320514,3811.8921734897,56.758532,0,0.95032155272,11200,2018-06-20 20:38:27,12,0,24.02,3811.8921734897,56.758532,0.223694,1.01119097724,0,0,-0.671082,21.4, 1.2, -0.2,0,0,1024,1024,1024,1024,21.5,-89.9,97,3.999,3.993,4.005,4.004,4.014,4.012,18.787,84.2,14,Waypoint,
38.5568644,-120.5320514,3812.8764254897,57.742784,0,0.95032155272,11300,2018-06-20 20:38:27,12,0,24.02,3812.8764254897,57.742784,0.223694,1.01119097724,0,0,-0.671082,21.5, 1, -0.1,0,0,1024,1024,1024,1024,21.5,-89.9,97,3.999,3.993,4.005,4.004,4.014,4.012,18.787,84.2,14,Waypoint,
38.5568643,-120.5320515,3813.8606774897,58.727036,0,0.91613191908,11400,2018-06-20 20:38:27,12,0,24.02,3813.8606774897,58.727036,0.223694,1.01119097724,0,0,-0.671082,21.6, 0.6, -0.2,0,0,1024,1024,1024,1024,21.5,-90,97,3.999,3.993,4.005,4.004,4.014,4.012,18.787,84.2,14,Waypoint,
38.5568644,-120.5320516,3814.8449294897,59.711288,0,0.95544950564,11500,2018-06-20 20:38:27,12,0,24.02,3814.8449294897,59.711288,0.223694,1.01119097724,0,0,-0.671082,21.7, 0.2, -0.1,0,0,1024,1024,1024,1024,21.5,-90,97,3.999,3.993,4.005,4.004,4.014,4.012,18.787,84.2,14,Waypoint,
38.5568644,-120.5320516,3815.8291814897,60.69554,0,0.95544950564,11600,2018-06-20 20:38:27,12,0,24.02,3815.8291814897,60.69554,0.223694,1.01119097724,0,0,-0.671082,21.8, 0.2, -0.3,0,0,1024,1024,1024,1024,21.5,-89.9,97,3.999,3.993,4.005,4.004,4.014,4.012,18.787,84.2,14,Waypoint,
38.5568643,-120.5320517,3816.8134334897,61.679792,0,0.9232119718,11700,2018-06-20 20:38:27,12,0,24.02,3816.8134334897,61.679792,0.223694,1.01119097724,0,0,-0.671082,21.8, 0.3, -0.7,0,0,1024,1024,1024,1024,21.5,-89.9,97,3.999,3.993,4.005,4.004,4.014,4.012,18.787,84.2,14,Waypoint,
38.5568642,-120.5320517,3817.7976854897,62.664044,0,0.88718178692,11800,2018-06-20 20:38:27,13,0,24.02,3817.7976854897,62.664044,0.223694,1.01119097724,0,0,-0.671082,21.8, 0.2, -1,0,0,1024,1024,1024,1024,21.5,-89.9,97,3.999,3.993,4.005,4.004,4.014,4.012,18.787,84.2,14,Waypoint,
38.5568642,-120.5320516,3819.7661894897,64.632548,0,0.88304464768,11900,2018-06-20 20:38:28,12,0,24.02,3819.7661894897,64.632548,0.223694,1.01119097724,0,0,-0.671082,22, 0.4, -1.7,0,0,1024,1024,1024,1024,21.5,-89.9,97,3.999,3.993,4.005,4.004,4.014,4.012,18.787,84.2,14,Waypoint,
38.5568642,-120.5320515,3820.7504414897,65.6168,0,0.87981302028,12000,2018-06-20 20:38:28,12,0,23.996,3820.7504414897,65.6168,0.223694,1.01119097724,0,0,-0.671082,22.1, 0.5, -1.5,0,0,1024,1024,1024,1024,21.5,-89.9,97,3.996,3.986,3.999,3.988,4.011,4.005,18.8,84.2,14,Waypoint,
38.5568641,-120.5320516,3822.7189454897,67.585304,0,0.84687994836,12200,2018-06-20 20:38:28,13,0,23.996,3822.7189454897,67.585304,0.223694,1.01119097724,0,0,-0.671082,22.1, 0.4, -1.4,0,0,1024,1024,1024,1024,21.5,-89.9,97,3.996,3.986,3.999,3.988,4.011,4.005,18.8,84.2,14,Waypoint,
38.5568641,-120.5320517,3823.7031974897,68.569556,0,0.85119425296,12300,2018-06-20 20:38:28,12,0,23.996,3823.7031974897,68.569556,0.223694,1.01119097724,0,0,-0.671082,22.1, 0.4, -1,0,0,1024,1024,1024,1024,21.5,-89.9,97,3.996,3.986,3.999,3.988,4.011,4.005,18.8,84.2,14,Waypoint,
38.5568641,-120.5320517,3824.6874494897,69.553808,0,0.85119425296,12400,2018-06-20 20:38:28,12,0,23.996,3824.6874494897,69.553808,0.223694,1.01119097724,0,0,-0.671082,22, 0.3, -0.9,0,0,1024,1024,1024,1024,21.5,-90,97,3.996,3.986,3.999,3.988,4.011,4.005,18.8,84.2,14,Waypoint,
38.5568641,-120.5320517,3825.6717014897,70.53806,0,0.85119425296,12500,2018-06-20 20:38:28,13,0,23.996,3825.6717014897,70.53806,0.223694,1.01119097724,0,0,-0.671082,21.9, 0.3, -1.1,0,0,1024,1024,1024,1024,21.5,-89.9,97,3.996,3.986,3.999,3.988,4.011,4.005,18.8,84.2,14,Waypoint,
38.5568642,-120.5320518,3827.3121214897,72.17848,0,0.89221459548,12800,2018-06-20 20:38:28,13,0,23.996,3827.3121214897,72.17848,0.223694,1.01119097724,0,0,-0.671082,21.9, 0.6, -0.8,0,0,1024,1024,1024,1024,21.5,-89.9,97,3.996,3.986,3.999,3.988,4.011,4.005,18.8,84.2,14,Waypoint,
38.5568642,-120.5320519,3829.2806254897,74.146984,0,0.89812666916,12900,2018-06-20 20:38:29,13,0,23.996,3829.2806254897,74.146984,0.223694,1.01119097724,0,0,-0.671082,22, 0.8, -0.5,0,0,1024,1024,1024,1024,21.5,-89.9,97,3.996,3.986,3.999,3.988,4.011,4.005,18.8,84.2,14,Waypoint,
38.5568642,-120.5320519,3830.2648774897,75.131236,0,0.89812666916,13100,2018-06-20 20:38:29,13,0,23.996,3830.2648774897,75.131236,0.223694,1.01119097724,0,0,-0.671082,22.1, 0.8, -0.4,0,0,1024,1024,1024,1024,21.5,-89.9,97,3.996,3.986,3.999,3.988,4.011,4.005,18.8,84.2,14,Waypoint,
38.5568642,-120.532052,3831.2491294897,76.115488,0,0.90489832292,13200,2018-06-20 20:38:29,13,0,23.996,3831.2491294897,76.115488,0.223694,1.01119097724,0,0,-0.671082,22, 0.6, -0.1,0,0,1024,1024,1024,1024,21.5,-89.9,97,3.996,3.986,3.999,3.988,4.011,4.005,18.8,84.2,14,Waypoint,
38.5568642,-120.532052,3832.2333814897,77.09974,0,0.90489832292,13300,2018-06-20 20:38:29,13,0,23.996,3832.2333814897,77.09974,0.223694,1.01119097724,0,0,-0.671082,21.8, 0.7, 0,0,0,1024,1024,1024,1024,21.5,-89.9,97,3.996,3.986,3.999,3.988,4.011,4.005,18.8,84.2,14,Waypoint,
38.5568642,-120.5320521,3833.2176334897,78.083992,0,0.91251315256,13400,2018-06-20 20:38:29,13,0,23.996,3833.2176334897,78.083992,0.223694,1.01119097724,0,0,-0.671082,21.6, 0.8, -0.4,0,0,1024,1024,1024,1024,21.5,-89.9,97,3.996,3.986,3.999,3.988,4.011,4.005,18.8,84.2,14,Waypoint,
38.5568643,-120.5320521,3834.2018854897,79.068244,0,0.94757877048,13500,2018-06-20 20:38:29,13,0,23.996,3834.2018854897,79.068244,0.223694,1.01119097724,0,0,-0.671082,21.4, 0.6, -0.7,0,0,1024,1024,1024,1024,21.5,-90,97,3.996,3.986,3.999,3.988,4.011,4.005,18.8,84.2,14,Waypoint,
38.5568643,-120.5320521,3835.1861374897,80.052496,0,0.94757877048,13600,2018-06-20 20:38:29,13,0,23.996,3835.1861374897,80.052496,0.223694,1.01119097724,0,0,-0.671082,21.4, 0.5, -1,0,0,1024,1024,1024,1024,21.5,-90,97,3.996,3.986,3.999,3.988,4.011,4.005,18.8,84.2,14,Waypoint,
38.5568643,-120.532052,3836.1703894897,81.036748,0,0.94024937392,13700,2018-06-20 20:38:29,13,0,23.996,3836.1703894897,81.036748,0.223694,1.01119097724,0,0,-0.671082,21.5, 0.5, -1.3,0,0,1024,1024,1024,1024,21.5,-89.9,97,3.996,3.986,3.999,3.988,4.011,4.005,18.8,84.2,14,Waypoint,
38.5568642,-120.5320519,3837.1546414897,82.021,0,0.89812666916,13800,2018-06-20 20:38:29,13,0,23.996,3837.1546414897,82.021,0.223694,1.01119097724,0,0,-0.671082,21.6, 0.7, -1.6,0,0,1024,1024,1024,1024,21.5,-89.9,97,3.996,3.986,3.999,3.988,4.011,4.005,18.8,84.2,14,Waypoint,
38.5568643,-120.5320519,3838.1388934897,83.005252,0,0.93373362568,13900,2018-06-20 20:38:30,13,0,23.996,3838.1388934897,83.005252,0.223694,1.01119097724,0,0,-0.671082,21.7, 1, -1.8,0,0,1024,1024,1024,1024,21.5,-89.9,97,3.996,3.986,3.999,3.988,4.011,4.005,18.8,84.2,14,Waypoint,
38.5568642,-120.5320518,3840.1073974897,84.973756,0,0.89221459548,14000,2018-06-20 20:38:30,13,0,23.854,3840.1073974897,84.973756,0.223694,1.01119097724,0,0,-0.671082,21.8, 1.2, -1.7,0,0,1024,1024,1024,1024,21.5,-89.9,97,3.968,3.967,3.982,3.979,3.988,3.979,19.701,84.2,14,Waypoint,
38.5568642,-120.5320517,3842.4039854897,87.270344,0,0.88718178692,14200,2018-06-20 20:38:30,13,0,23.854,3842.4039854897,87.270344,0.223694,1.01119097724,0,0,-0.671082,21.9, 1.1, -1.6,0,0,1024,1024,1024,1024,21.5,-89.9,97,3.968,3.967,3.982,3.979,3.988,3.979,19.701,84.2,14,Waypoint,
38.5568642,-120.5320517,3844.3724894897,89.238848,0,0.88718178692,14400,2018-06-20 20:38:30,13,0,23.854,3844.3724894897,89.238848,0.223694,1.01119097724,0,0,-0.671082,21.9, 0.7, -1.8,0,0,1024,1024,1024,1024,21.5,-90,97,3.968,3.967,3.982,3.979,3.988,3.979,19.701,84.2,14,Waypoint,
38.5568642,-120.5320517,3845.3567414897,90.2231,0,0.88718178692,14500,2018-06-20 20:38:30,13,0,23.854,3845.3567414897,90.2231,0.223694,1.01119097724,0,0,-0.671082,21.9, 0.6, -1.7,0,0,1024,1024,1024,1024,21.5,-89.9,97,3.968,3.967,3.982,3.979,3.988,3.979,19.701,84.2,14,Waypoint,
38.5568641,-120.5320517,3846.0129094897,90.879268,0,0.85119425296,14600,2018-06-20 20:38:30,13,0,23.854,3846.0129094897,90.879268,0.223694,1.01119097724,0,0,-0.671082,22, 0.7, -1.8,0,0,1024,1024,1024,1024,21.5,-89.9,97,3.968,3.967,3.982,3.979,3.988,3.979,19.701,84.2,14,Waypoint,
38.5568641,-120.5320518,3846.9971614897,91.86352,0,0.85643703528,14700,2018-06-20 20:38:30,13,0,23.854,3846.9971614897,91.86352,0.223694,1.01119097724,0,0,-0.671082,22, 0.9, -1.7,0,0,1024,1024,1024,1024,21.5,-89.9,97,3.968,3.967,3.982,3.979,3.988,3.979,19.701,84.2,14,Waypoint,
38.5568642,-120.5320518,3847.9814134897,92.847772,0,0.89221459548,14800,2018-06-20 20:38:30,13,0,23.854,3847.9814134897,92.847772,0.223694,1.01119097724,0,0,-0.671082,22.1, 0.9, -1.4,0,0,1024,1024,1024,1024,21.5,-89.9,97,3.968,3.967,3.982,3.979,3.988,3.979,19.701,84.2,14,Waypoint,
38.5568642,-120.5320519,3848.9656654897,93.832024,0,0.89812666916,14900,2018-06-20 20:38:31,13,0,23.854,3848.9656654897,93.832024,0.223694,1.01119097724,0,0,-0.671082,22.1, 0.8, -1,0,0,1024,1024,1024,1024,21.5,-89.9,97,3.968,3.967,3.982,3.979,3.988,3.979,19.701,84.2,14,Waypoint,
38.5568642,-120.532052,3849.9499174897,94.816276,0,0.90489832292,15000,2018-06-20 20:38:31,13,0,23.833,3849.9499174897,94.816276,0.223694,1.01119097724,0,0,-0.671082,22, 0.7, -0.8,0,0,1024,1024,1024,1024,21.5,-89.9,97,3.968,3.967,3.982,3.979,3.988,3.979,19.613,84.2,14,Waypoint,
38.5568641,-120.5320521,3850.9341694897,95.800528,0.223694,0.87756236404,15200,2018-06-20 20:38:31,13,0,23.833,3850.9341694897,95.800528,0.223694,1.01119097724,0,0,-0.671082,22, 0.7, -0.6,0,0,1024,1024,1024,1024,21.5,-89.9,97,3.968,3.967,3.982,3.979,3.988,3.979,19.613,84.2,14,Waypoint,
38.5568641,-120.5320521,3851.9184214897,96.78478,0.223694,0.87756236404,15300,2018-06-20 20:38:31,13,0,23.833,3851.9184214897,96.78478,0.223694,1.01119097724,0,0,-0.671082,22.1, 0.4, -0.4,0,0,1024,1024,1024,1024,21.5,-90,97,3.968,3.967,3.982,3.979,3.988,3.979,19.613,84.2,14,Waypoint,
38.5568641,-120.5320522,3852.9026734897,97.769032,0.223694,0.88632876852,15400,2018-06-20 20:38:31,13,0,23.833,3852.9026734897,97.769032,0.223694,1.01119097724,0,0,-0.671082,22.1, 0, -0.4,0,0,1024,1024,1024,1024,21.5,-90,97,3.968,3.967,3.982,3.979,3.988,3.979,19.613,84.2,14,Waypoint,
38.556864,-120.5320522,3853.8869254897,98.753284,0.223694,0.85186682516,15500,2018-06-20 20:38:31,13,0,23.833,3853.8869254897,98.753284,0.223694,1.01119097724,0,0,-0.671082,22, -0.2, -0.2,0,0,1024,1024,1024,1024,21.5,-90,97,3.968,3.967,3.982,3.979,3.988,3.979,19.613,84.2,14,Waypoint,
38.5568639,-120.5320522,3854.8711774897,99.737536,0.223694,0.81758204716,15600,2018-06-20 20:38:31,13,0,23.833,3854.8711774897,99.737536,0.223694,1.01119097724,0,0,-0.671082,21.9, -0.3, -0.8,0,0,1024,1024,1024,1024,21.5,-89.9,97,3.968,3.967,3.982,3.979,3.988,3.979,19.613,84.2,14,Waypoint,
38.5568639,-120.5320523,3855.8554294897,100.721788,0.223694,0.8279691866,15700,2018-06-20 20:38:31,13,0,23.833,3855.8554294897,100.721788,0.223694,1.01119097724,0,0,-0.671082,21.8, -0.4, -1.3,0,0,1024,1024,1024,1024,21.5,-90,97,3.968,3.967,3.982,3.979,3.988,3.979,19.613,84.2,14,Waypoint,
38.5568638,-120.5320523,3856.8396814897,101.70604,0.223694,0.79432745324,15800,2018-06-20 20:38:31,13,0,23.833,3856.8396814897,101.70604,0.223694,1.01119097724,0,0,-0.671082,21.7, -0.7, -1.4,0,0,1024,1024,1024,1024,21.5,-90,97,3.968,3.967,3.982,3.979,3.988,3.979,19.613,84.2,14,Waypoint,
38.5568637,-120.5320523,3857.8239334897,102.690292,0.223694,0.76094818708,15900,2018-06-20 20:38:32,13,0,23.833,3857.8239334897,102.690292,0.223694,1.01119097724,0,0,-0.671082,21.7, -1.2, -1.3,0,0,1024,1024,1024,1024,21.5,-90,97,3.968,3.967,3.982,3.979,3.988,3.979,19.613,84.2,14,Waypoint,
38.5568636,-120.5320523,3858.8081854897,103.674544,0.223694,0.72786419652,16000,2018-06-20 20:38:32,13,0,23.833,3858.8081854897,103.674544,0.223694,1.01119097724,0,0,-0.671082,21.7, -1.3, -1.5,0,0,1024,1024,1024,1024,21.5,-89.9,97,3.96,3.959,3.977,3.968,3.979,3.971,19.613,84.2,14,Waypoint,
38.5568635,-120.5320523,3859.7924374897,104.658796,0.223694,0.69512469416,16100,2018-06-20 20:38:32,13,0,23.833,3859.7924374897,104.658796,0.223694,1.01119097724,0,0,-0.671082,21.8, -1.2, -1.9,0,0,1024,1024,1024,1024,21.5,-89.9,97,3.96,3.959,3.977,3.968,3.979,3.971,19.613,84.2,14,Waypoint,
38.5568634,-120.5320523,3860.7766894897,105.643048,0.223694,0.66277561176,16200,2018-06-20 20:38:32,13,0,23.833,3860.7766894897,105.643048,0.223694,1.01119097724,0,0,-0.671082,21.8, -1, -2.2,0,0,1024,1024,1024,1024,21.5,-89.9,97,3.96,3.959,3.977,3.968,3.979,3.971,19.613,84.2,14,Waypoint,
38.5568634,-120.5320524,3861.7609414897,106.6273,0.223694,0.67675199016,16300,2018-06-20 20:38:32,13,0,23.833,3861.7609414897,106.6273,0.223694,1.01119097724,0,0,-0.671082,21.8, -1.2, -1.9,0,0,1024,1024,1024,1024,21.5,-89.9,97,3.96,3.959,3.977,3.968,3.979,3.971,19.613,84.2,14,Waypoint,
38.5568633,-120.5320524,3863.7294454897,108.595804,0,0.64554464008,16400,2018-06-20 20:38:32,13,0,23.833,3863.7294454897,108.595804,0.223694,1.01119097724,0,0,-0.671082,21.8, -1, -1.3,0,0,1024,1024,1024,1024,21.5,-89.9,97,3.96,3.959,3.977,3.968,3.979,3.971,19.613,84.2,14,Waypoint,
38.5568633,-120.5320525,3864.7136974897,109.580056,0,0.66111878756,16500,2018-06-20 20:38:32,13,0,23.833,3864.7136974897,109.580056,0.223694,1.01119097724,0,0,-0.671082,21.7, -0.5, -1.2,0,0,1024,1024,1024,1024,21.5,-89.9,97,3.96,3.959,3.977,3.968,3.979,3.971,19.613,84.2,14,Waypoint,
38.5568633,-120.5320525,3865.6979494897,110.564308,0,0.66111878756,16600,2018-06-20 20:38:32,13,0,23.833,3865.6979494897,110.564308,0.223694,1.01119097724,0,0,-0.671082,21.7, 0, -1.2,0,0,1024,1024,1024,1024,21.5,-89.9,97,3.96,3.959,3.977,3.968,3.979,3.971,19.613,84.2,14,Waypoint,
38.5568633,-120.5320524,3866.6822014897,111.54856,0,0.64554464008,16700,2018-06-20 20:38:32,13,0,23.833,3866.6822014897,111.54856,0.223694,1.01119097724,0,0,-0.671082,21.7, 0.3, -1.4,0,0,1024,1024,1024,1024,21.5,-89.9,97,3.96,3.959,3.977,3.968,3.979,3.971,19.613,84.2,14,Waypoint,
38.5568633,-120.5320524,3867.6664534897,112.532812,0,0.64554464008,16800,2018-06-20 20:38:32,13,0,23.833,3867.6664534897,112.532812,0.223694,1.01119097724,0,0,-0.671082,21.7, 0.4, -1.7,0,0,1024,1024,1024,1024,21.5,-89.9,97,3.96,3.959,3.977,3.968,3.979,3.971,19.613,84.2,14,Waypoint,
38.5568633,-120.5320524,3868.6507054897,113.517064,0,0.64554464008,16900,2018-06-20 20:38:33,13,0,23.833,3868.6507054897,113.517064,0.223694,1.01119097724,0,0,-0.671082,21.8, 0.4, -1.9,0,0,1024,1024,1024,1024,21.5,-89.9,97,3.96,3.959,3.977,3.968,3.979,3.971,19.613,84.2,14,Waypoint,
38.5568633,-120.5320523,3869.6349574897,114.501316,0,0.63087600444,17000,2018-06-20 20:38:33,13,0,23.817,3869.6349574897,114.501316,0.223694,1.01119097724,0,0,-0.671082,21.9, 0.3, -1.8,0,0,1024,1024,1024,1024,21.5,-89.9,97,3.961,3.954,3.973,3.972,3.994,3.982,19.617,84.2,14,Waypoint,
38.5568633,-120.5320522,3870.6192094897,115.485568,0,0.61717849744,17200,2018-06-20 20:38:33,13,0,23.817,3870.6192094897,115.485568,0.223694,1.01119097724,0,0,-0.671082,21.9, 0.1, -1.8,0,0,1024,1024,1024,1024,21.5,-89.9,97,3.961,3.954,3.973,3.972,3.994,3.982,19.617,84.2,14,Waypoint,
38.5568633,-120.5320522,3872.5877134897,117.454072,0,0.61717849744,17300,2018-06-20 20:38:33,13,0,23.817,3872.5877134897,117.454072,0.223694,1.01119097724,0,0,-0.671082,21.8, 0.2, -1.8,0,0,1024,1024,1024,1024,21.5,-89.9,97,3.961,3.954,3.973,3.972,3.994,3.982,19.617,84.2,14,Waypoint,
38.5568633,-120.5320522,3872.5877134897,117.454072,0,0.61717849744,17400,2018-06-20 20:38:33,13,0,23.817,3872.5877134897,117.454072,0.223694,1.01119097724,0,0,-0.671082,21.8, 0.2, -1.8,0,0,1024,1024,1024,1024,21.5,-89.9,97,3.961,3.954,3.973,3.972,3.994,3.982,19.617,84.2,14,Waypoint,
38.5568634,-120.5320521,3873.2438814897,118.11024,0,0.63773624088,17500,2018-06-20 20:38:33,13,0,23.817,3873.2438814897,118.11024,0.223694,1.01119097724,0,0,-0.671082,21.7, 0.4, -1.7,0,0,1024,1024,1024,1024,21.5,-89.9,97,3.961,3.954,3.973,3.972,3.994,3.982,19.617,84.2,14,Waypoint,
38.5568634,-120.5320521,3874.2281334897,119.094492,0,0.63773624088,17600,2018-06-20 20:38:33,13,0,23.817,3874.2281334897,119.094492,0.223694,1.01119097724,0,0,-0.671082,21.6, 0.5, -1.9,0,0,1024,1024,1024,1024,21.5,-89.9,97,3.961,3.954,3.973,3.972,3.994,3.982,19.617,84.2,14,Waypoint,
38.5568635,-120.5320521,3875.2123854897,120.078744,0,0.67129595324,17700,2018-06-20 20:38:33,13,0,23.817,3875.2123854897,120.078744,0.223694,1.01119097724,0,0,-0.671082,21.6, 0.8, -1.9,0,0,1024,1024,1024,1024,21.5,-89.9,97,3.961,3.954,3.973,3.972,3.994,3.982,19.617,84.2,14,Waypoint,
38.5568636,-120.5320521,3876.1966374897,121.062996,0,0.70514437952,17800,2018-06-20 20:38:33,13,0,23.817,3876.1966374897,121.062996,0.223694,1.01119097724,0,0,-0.671082,21.6, 0.9, -1.6,0,0,1024,1024,1024,1024,21.5,-89.9,97,3.961,3.954,3.973,3.972,3.994,3.982,19.617,84.2,14,Waypoint,
38.5568636,-120.532052,3877.1808894897,122.047248,0,0.69526248944,17900,2018-06-20 20:38:34,13,0,23.817,3877.1808894897,122.047248,0.223694,1.01119097724,0,0,-0.671082,21.6, 0.9, -1.1,0,0,1024,1024,1024,1024,21.5,-89.9,97,3.961,3.954,3.973,3.972,3.994,3.982,19.617,84.2,14,Waypoint,
38.5568637,-120.532052,3878.1651414897,123.0315,0,0.729822858,18000,2018-06-20 20:38:34,13,0,23.886,3878.1651414897,123.0315,0.223694,1.01119097724,0,0,-0.671082,21.5, 1, -1,0,0,1024,1024,1024,1024,21.5,-89.9,96,3.976,3.968,3.985,3.987,3.994,3.988,18.203,86,14,Waypoint,
38.5568638,-120.532052,3879.1493934897,124.015752,0,0.76456367276,18100,2018-06-20 20:38:34,13,0,23.886,3879.1493934897,124.015752,0.223694,1.01119097724,0,0,-0.671082,21.4, 1.6, -1.1,0,0,1024,1024,1024,1024,21.5,-89.9,96,3.976,3.968,3.985,3.987,3.994,3.988,18.203,86,14,Waypoint,
38.556864,-120.5320518,3881.1178974897,125.984256,0,0.8207185302,18300,2018-06-20 20:38:34,13,0,23.886,3881.1178974897,125.984256,0.223694,1.01119097724,0,0,-0.671082,21.6, 2, -1.8,0,0,1024,1024,1024,1024,21.5,-89.9,96,3.976,3.968,3.985,3.987,3.994,3.988,18.203,86,14,Waypoint,
38.5568641,-120.5320516,3883.0864014897,127.95276,0,0.84687994836,18400,2018-06-20 20:38:34,13,0,23.886,3883.0864014897,127.95276,0.223694,1.01119097724,0,0,-0.671082,22, 1.3, -2.7,0,0,1024,1024,1024,1024,21.5,-89.9,96,3.976,3.968,3.985,3.987,3.994,3.988,18.203,86,14,Waypoint,
38.5568643,-120.5320516,3885.0549054897,129.921264,0,0.91923559372,18600,2018-06-20 20:38:34,13,0,23.886,3885.0549054897,129.921264,0.223694,1.01119097724,0,0,-0.671082,22.1, 1.6, -1.9,0,0,1024,1024,1024,1024,21.5,-89.9,96,3.976,3.968,3.985,3.987,3.994,3.988,18.203,86,14,Waypoint,
38.5568645,-120.5320516,3886.6953254897,131.561684,0,0.9916831026,18800,2018-06-20 20:38:34,13,0,23.886,3886.6953254897,131.561684,0.223694,1.01119097724,0,0,-0.671082,21.8, 2.1, -0.8,0,0,1024,1024,1024,1024,21.5,-89.9,96,3.976,3.968,3.985,3.987,3.994,3.988,18.203,86,14,Waypoint,
38.5568646,-120.5320516,3887.6795774897,132.545936,0,1.02793310376,18900,2018-06-20 20:38:35,13,0,23.886,3887.6795774897,132.545936,0.223694,1.02793310376,0,0,-0.671082,21.7, 2.4, -0.3,0,0,1024,1024,1024,1024,21.5,-89.9,96,3.976,3.968,3.985,3.987,3.994,3.988,18.203,86,14,Waypoint,
38.5568648,-120.5320517,3888.6638294897,133.530188,0,1.1038058096,19000,2018-06-20 20:38:35,13,0,23.923,3888.6638294897,133.530188,0.223694,1.1038058096,0,0,-0.671082,21.8, 2.9, -0.2,0,0,1024,1024,1024,1024,21.5,-89.9,96,3.98,3.97,3.99,3.983,3.997,3.984,17.671,86,14,Waypoint,
38.556865,-120.5320517,3889.6480814897,134.51444,0,1.17620082504,19100,2018-06-20 20:38:35,13,0,23.923,3889.6480814897,134.51444,0.223694,1.17620082504,0,0,-0.671082,21.9, 3.2, -0.2,0,0,1024,1024,1024,1024,21.5,-89.9,96,3.98,3.97,3.99,3.983,3.997,3.984,17.671,86,14,Waypoint,
38.5568651,-120.5320518,3890.6323334897,135.498692,0,1.21611224364,19200,2018-06-20 20:38:35,13,0,23.923,3890.6323334897,135.498692,0.223694,1.21611224364,0,0,-0.671082,22.1, 3.4, -0.3,0,0,1024,1024,1024,1024,21.5,-89.9,96,3.98,3.97,3.99,3.983,3.997,3.984,17.671,86,14,Waypoint,
38.5568652,-120.5320518,3891.6165854897,136.482944,0,1.25224413456,19300,2018-06-20 20:38:35,13,0,23.923,3891.6165854897,136.482944,0.223694,1.25224413456,0,0,-0.671082,22.2, 3.5, -0.2,0,0,1024,1024,1024,1024,21.5,-89.9,96,3.98,3.97,3.99,3.983,3.997,3.984,17.671,86,14,Waypoint,
38.5568653,-120.5320519,3892.6008374897,137.467196,0,1.29249676052,19400,2018-06-20 20:38:35,13,0,23.923,3892.6008374897,137.467196,0.223694,1.29249676052,0,0,-0.671082,22.2, 3.5, -0.1,0,0,1024,1024,1024,1024,21.5,-89.9,96,3.98,3.97,3.99,3.983,3.997,3.984,17.671,86,14,Waypoint,
38.5568654,-120.5320519,3893.9131734897,138.779532,0,1.32855647296,19500,2018-06-20 20:38:35,13,0,23.923,3893.9131734897,138.779532,0.223694,1.32855647296,0,0,-0.671082,22.2, 3.4, -0.1,0,0,1024,1024,1024,1024,21.5,-89.9,96,3.98,3.97,3.99,3.983,3.997,3.984,17.671,86,14,Waypoint,
38.5568655,-120.5320519,3894.8974254897,139.763784,0,1.36463587044,19700,2018-06-20 20:38:35,13,0,23.923,3894.8974254897,139.763784,0.223694,1.36463587044,0,0,-0.671082,22.1, 3.2, 0,0,0,1024,1024,1024,1024,21.5,-89.9,96,3.98,3.97,3.99,3.983,3.997,3.984,17.671,86,14,Waypoint,
38.5568656,-120.5320519,3895.8816774897,140.748036,0,1.4007382338,19800,2018-06-20 20:38:35,13,0,23.923,3895.8816774897,140.748036,0.223694,1.4007382338,0,0,-0.671082,22, 3.1, 0,0,0,1024,1024,1024,1024,21.5,-89.9,96,3.98,3.97,3.99,3.983,3.997,3.984,17.671,86,14,Waypoint,
38.5568657,-120.5320519,3896.8659294897,141.732288,0,1.4368602822,19900,2018-06-20 20:38:36,13,0,23.923,3896.8659294897,141.732288,0.223694,1.4368602822,0,0,-0.671082,22, 2.8, -0.2,0,0,1024,1024,1024,1024,21.5,-89.9,96,3.98,3.97,3.99,3.983,3.997,3.984,17.671,86,14,Waypoint,
38.5568658,-120.5320519,3897.8501814897,142.71654,0,1.4729987348,20000,2018-06-20 20:38:36,13,0,23.864,3897.8501814897,142.71654,0.223694,1.4729987348,0,0,-0.671082,21.9, 3.4, -0.4,0,0,1024,1024,1024,1024,21.5,-89.9,96,3.967,3.947,3.967,3.965,3.978,3.982,18.646,86,14,Waypoint,
38.5568659,-120.5320519,3898.8344334897,143.700792,0,1.50915687244,20100,2018-06-20 20:38:36,13,0,23.864,3898.8344334897,143.700792,0.223694,1.50915687244,0,0,-0.671082,21.8, 3.8, -0.5,0,0,1024,1024,1024,1024,21.5,-89.9,96,3.967,3.947,3.967,3.965,3.978,3.982,18.646,86,14,Waypoint,
38.556866,-120.5320519,3899.8186854897,144.685044,0,1.54532813344,20200,2018-06-20 20:38:36,13,0,23.864,3899.8186854897,144.685044,0.223694,1.54532813344,0,0,-0.671082,21.7, 4.1, -0.5,0,0,1024,1024,1024,1024,21.5,-89.9,96,3.967,3.947,3.967,3.965,3.978,3.982,18.646,86,14,Waypoint,
38.5568661,-120.5320519,3901.1310214897,145.99738,0,1.5815125178,20300,2018-06-20 20:38:36,13,0,23.864,3901.1310214897,145.99738,0.223694,1.5815125178,0,0,-0.671082,21.7, 4.4, -0.4,0,0,1024,1024,1024,1024,21.5,-89.9,96,3.967,3.947,3.967,3.965,3.978,3.982,18.646,86,14,Waypoint,
38.5568662,-120.5320519,3902.1152734897,146.981632,0,1.61771330636,20400,2018-06-20 20:38:36,13,0,23.864,3902.1152734897,146.981632,0.223694,1.61771330636,0,0,-0.671082,21.7, 4.7, -0.4,0,0,1024,1024,1024,1024,21.5,-89.9,96,3.967,3.947,3.967,3.965,3.978,3.982,18.646,86,14,Waypoint,
38.5568664,-120.5320519,3903.0995254897,147.965884,0,1.69014769188,20500,2018-06-20 20:38:36,13,0,23.864,3903.0995254897,147.965884,0.223694,1.69014769188,0,0,-0.671082,21.7, 4.8, -0.5,0,0,1024,1024,1024,1024,21.5,-89.9,96,3.967,3.947,3.967,3.965,3.978,3.982,18.646,86,14,Waypoint,
38.5568665,-120.5320519,3904.0837774897,148.950136,0,1.72638456968,20600,2018-06-20 20:38:36,13,0,23.864,3904.0837774897,148.950136,0.223694,1.72638456968,0,0,-0.671082,21.7, 5.1, -0.4,0,0,1024,1024,1024,1024,21.5,-89.9,96,3.967,3.947,3.967,3.965,3.978,3.982,18.646,86,14,Waypoint,
38.5568665,-120.5320518,3905.0680294897,149.934388,0,1.72331698428,20700,2018-06-20 20:38:36,13,0,23.864,3905.0680294897,149.934388,0.223694,1.72638456968,0,0,-0.671082,21.7, 5.2, -0.4,0,0,1024,1024,1024,1024,21.5,-89.9,96,3.967,3.947,3.967,3.965,3.978,3.982,18.646,86,14,Waypoint,
38.5568666,-120.5320518,3906.0522814897,150.91864,0,1.75962275972,20800,2018-06-20 20:38:36,13,0,23.864,3906.0522814897,150.91864,0.223694,1.75962275972,0,0,-0.671082,21.6, 5.1, -0.6,0,0,1024,1024,1024,1024,21.5,-89.9,96,3.967,3.947,3.967,3.965,3.978,3.982,18.646,86,14,Waypoint,
38.5568666,-120.5320518,3907.0365334897,151.902892,0,1.75962275972,20900,2018-06-20 20:38:37,13,0,23.864,3907.0365334897,151.902892,0.223694,1.75962275972,0,0,-0.671082,21.5, 4.9, -0.7,0,0,1024,1024,1024,1024,21.5,-89.9,96,3.967,3.947,3.967,3.965,3.978,3.982,18.646,86,14,Waypoint,
38.5568666,-120.5320518,3908.0207854897,152.887144,0.223694,1.75962275972,21000,2018-06-20 20:38:37,13,0,23.787,3908.0207854897,152.887144,0.223694,1.75962275972,0,0,-0.671082,21.5, 4.6, -0.7,0,0,1024,1024,1024,1024,21.5,-90,96,3.952,3.955,3.962,3.96,3.975,3.982,19.46,86,14,Waypoint,
38.5568666,-120.5320519,3909.9892894897,154.855648,0.223694,1.76262800916,21100,2018-06-20 20:38:37,13,0,23.787,3909.9892894897,154.855648,0.223694,1.76262800916,0,0,-0.671082,21.7, 4.1, -0.7,0,0,1024,1024,1024,1024,21.5,-89.9,96,3.952,3.955,3.962,3.96,3.975,3.982,19.46,86,14,Waypoint,
38.5568666,-120.532052,3911.3016254897,156.167984,0.223694,1.76608929536,21200,2018-06-20 20:38:37,13,0,23.787,3911.3016254897,156.167984,0.223694,1.76608929536,0,0,-0.671082,21.8, 4, -0.7,0,0,1024,1024,1024,1024,21.5,-90,96,3.952,3.955,3.962,3.96,3.975,3.982,19.46,86,14,Waypoint,
38.5568666,-120.532052,3912.2858774897,157.152236,0.223694,1.76608929536,21300,2018-06-20 20:38:37,13,0,23.787,3912.2858774897,157.152236,0.223694,1.76608929536,0,0,-0.671082,22, 3.7, -0.6,0,0,1024,1024,1024,1024,21.5,-90,96,3.952,3.955,3.962,3.96,3.975,3.982,19.46,86,14,Waypoint,
38.5568665,-120.5320521,3913.2701294897,158.136488,0.223694,1.73391081664,21400,2018-06-20 20:38:37,13,0,23.787,3913.2701294897,158.136488,0.223694,1.76608929536,0,0,-0.671082,22.1, 3.2, -0.4,0,0,1024,1024,1024,1024,21.5,-90,96,3.952,3.955,3.962,3.96,3.975,3.982,19.46,86,14,Waypoint,
38.5568664,-120.5320522,3914.2543814897,159.12074,0.223694,1.70238522508,21500,2018-06-20 20:38:37,13,0,23.787,3914.2543814897,159.12074,0.223694,1.76608929536,0,0,-0.671082,22.2, 3, -0.5,0,0,1024,1024,1024,1024,21.5,-90,96,3.952,3.955,3.962,3.96,3.975,3.982,19.46,86,14,Waypoint,
38.5568663,-120.5320523,3915.2386334897,160.104992,0.223694,1.67154860992,21600,2018-06-20 20:38:37,13,0,23.787,3915.2386334897,160.104992,0.223694,1.76608929536,0,0,-0.671082,22.2, 2.7, -0.3,0,0,1024,1024,1024,1024,21.5,-90,96,3.952,3.955,3.962,3.96,3.975,3.982,19.46,86,14,Waypoint,
38.5568662,-120.5320524,3916.2228854897,161.089244,0.223694,1.64144034124,21700,2018-06-20 20:38:37,13,0,23.787,3916.2228854897,161.089244,0.223694,1.76608929536,0,0,-0.671082,22.1, 2.5, -0.1,0,0,1024,1024,1024,1024,21.5,-90,96,3.952,3.955,3.962,3.96,3.975,3.982,19.46,86,14,Waypoint,
38.5568661,-120.5320525,3917.2071374897,162.073496,0.223694,1.61209978912,21800,2018-06-20 20:38:37,13,0,23.787,3917.2071374897,162.073496,0.223694,1.76608929536,0,0,-0.671082,22, 2.2, 0,0,0,1024,1024,1024,1024,21.5,-90,96,3.952,3.955,3.962,3.96,3.975,3.982,19.46,86,14,Waypoint,
38.556866,-120.5320525,3918.1913894897,163.057748,0.223694,1.57661750452,21900,2018-06-20 20:38:38,13,0,23.787,3918.1913894897,163.057748,0.223694,1.76608929536,0,0,-0.671082,21.9, 2.1, 0,0,0,1024,1024,1024,1024,21.5,-90,96,3.952,3.955,3.962,3.96,3.975,3.982,19.46,86,14,Waypoint,
38.556866,-120.5320526,3919.1756414897,164.042,0.223694,1.58356960448,22000,2018-06-20 20:38:38,13,0,23.686,3919.1756414897,164.042,0.223694,1.76608929536,0,0,-0.671082,21.8, 1.9, 0,0,0,1024,1024,1024,1024,21.5,-90,96,3.937,3.929,3.952,3.948,3.964,3.95,20.1,86,14,Waypoint,
38.5568659,-120.5320527,3920.1598934897,165.026252,0.223694,1.55589899992,22200,2018-06-20 20:38:38,13,0,23.686,3920.1598934897,165.026252,0.223694,1.76608929536,0,0,-0.671082,21.8, 2.1, -0.1,0,0,1024,1024,1024,1024,21.5,-89.9,96,3.937,3.929,3.952,3.948,3.964,3.95,20.1,86,14,Waypoint,
38.5568658,-120.5320527,3921.1441454897,166.010504,0.223694,1.52085306704,22300,2018-06-20 20:38:38,13,0,23.686,3921.1441454897,166.010504,0.223694,1.76608929536,0,0,-0.671082,21.8, 2.3, -0.3,0,0,1024,1024,1024,1024,21.5,-90,96,3.937,3.929,3.952,3.948,3.964,3.95,20.1,86,14,Waypoint,
38.5568657,-120.5320527,3922.1283974897,166.994756,0.223694,1.48587931264,22400,2018-06-20 20:38:38,13,0,23.686,3922.1283974897,166.994756,0.223694,1.76608929536,0,0,-0.671082,21.8, 2.2, -0.4,0,0,1024,1024,1024,1024,21.5,-89.9,96,3.937,3.929,3.952,3.948,3.964,3.95,20.1,86,14,Waypoint,
38.5568654,-120.5320529,3925.0811534897,169.947512,0.223694,1.40015096344,22600,2018-06-20 20:38:38,13,0,23.686,3925.0811534897,169.947512,0.223694,1.76608929536,0,0,-0.671082,21.9, 1.9, -0.1,0,0,1024,1024,1024,1024,21.5,-90,96,3.937,3.929,3.952,3.948,3.964,3.95,20.1,86,14,Waypoint,
38.5568651,-120.5320529,3927.0496574897,171.916016,0.223694,1.29802497592,22800,2018-06-20 20:38:38,13,0,23.686,3927.0496574897,171.916016,0.223694,1.76608929536,0,0,-0.671082,22, 1.2, 0,0,0,1024,1024,1024,1024,21.5,-89.9,96,3.937,3.929,3.952,3.948,3.964,3.95,20.1,86,14,Waypoint,
38.5568649,-120.5320529,3928.0339094897,172.900268,0.223694,1.230643084,22900,2018-06-20 20:38:39,13,0,23.686,3928.0339094897,172.900268,0.223694,1.76608929536,0,0,-0.671082,22, 1, -0.3,0,0,1024,1024,1024,1024,21.5,-89.9,96,3.937,3.929,3.952,3.948,3.964,3.95,20.1,86,14,Waypoint,
38.5568648,-120.5320528,3929.0181614897,173.88452,0.223694,1.1859252348,23000,2018-06-20 20:38:39,13,0,23.616,3929.0181614897,173.88452,0.223694,1.76608929536,0,0,-0.671082,21.9, 1.1, -0.6,0,0,1024,1024,1024,1024,21.5,-89.9,96,3.923,3.918,3.941,3.937,3.95,3.945,20.695,86,14,Waypoint,
38.5568646,-120.5320528,3930.0024134897,174.868772,0.223694,1.118930482,23100,2018-06-20 20:38:39,13,0,23.616,3930.0024134897,174.868772,0.223694,1.76608929536,0,0,-0.671082,21.7, 1.1, -1,0,0,1024,1024,1024,1024,21.5,-89.9,96,3.923,3.918,3.941,3.937,3.95,3.945,20.695,86,14,Waypoint,
38.5568645,-120.5320527,3930.9866654897,175.853024,0.3131716,1.07403874828,23200,2018-06-20 20:38:39,13,0,23.616,3930.9866654897,175.853024,0.3131716,1.76608929536,0,0,-0.671082,21.6, 1, -1.6,0,0,1024,1024,1024,1024,21.5,-89.9,96,3.923,3.918,3.941,3.937,3.95,3.945,20.695,86,14,Waypoint,
38.5568643,-120.5320526,3931.9709174897,176.837276,0.3131716,0.99574806336,23300,2018-06-20 20:38:39,13,0,23.616,3931.9709174897,176.837276,0.3131716,1.76608929536,0,0,-0.671082,21.5, 1.1, -2.3,0,0,1024,1024,1024,1024,21.5,-89.9,96,3.923,3.918,3.941,3.937,3.95,3.945,20.695,86,14,Waypoint,
38.5568642,-120.5320525,3933.2832534897,178.149612,0.3131716,0.950951474,23500,2018-06-20 20:38:39,13,0,23.616,3933.2832534897,178.149612,0.3131716,1.76608929536,0,0,-0.671082,21.6, 1.2, -2.9,0,0,1024,1024,1024,1024,21.5,-89.9,96,3.923,3.918,3.941,3.937,3.95,3.945,20.695,86,14,Waypoint,
38.5568641,-120.5320523,3934.2675054897,179.133864,0.3131716,0.89592194468,23600,2018-06-20 20:38:39,13,0,23.616,3934.2675054897,179.133864,0.3131716,1.76608929536,0,0,-0.671082,21.7, 1.4, -3.6,0,0,1024,1024,1024,1024,21.5,-89.9,96,3.923,3.918,3.941,3.937,3.95,3.945,20.695,86,14,Waypoint,
38.5568638,-120.532052,3935.9079254897,180.774284,0.3131716,0.76456367276,23700,2018-06-20 20:38:39,13,0,23.616,3935.9079254897,180.774284,0.3131716,1.76608929536,0,0,-0.671082,21.8, 1.2, -4,0,0,1024,1024,1024,1024,21.5,-89.9,96,3.923,3.918,3.941,3.937,3.95,3.945,20.695,86,14,Waypoint,
38.5568638,-120.532052,3935.9079254897,180.774284,0.3131716,0.76456367276,23800,2018-06-20 20:38:39,13,0,23.616,3935.9079254897,180.774284,0.3131716,1.76608929536,0,0,-0.671082,21.8, 1.2, -4,0,0,1024,1024,1024,1024,21.5,-89.9,96,3.923,3.918,3.941,3.937,3.95,3.945,20.695,86,14,Waypoint,
38.5568637,-120.5320518,3936.8921774897,181.758536,0.3131716,0.71403873676,23900,2018-06-20 20:38:40,13,0,23.616,3936.8921774897,181.758536,0.3131716,1.76608929536,0,0,-0.671082,21.8, 1.1, -3.9,0,0,1024,1024,1024,1024,21.5,-89.9,96,3.923,3.918,3.941,3.937,3.95,3.945,20.695,86,14,Waypoint,
38.5568636,-120.5320517,3937.8764294897,182.742788,0.3131716,0.67204398476,24000,2018-06-20 20:38:40,13,0,23.596,3937.8764294897,182.742788,0.3131716,1.76608929536,0,0,-0.671082,21.7, 0.9, -3.9,0,0,1024,1024,1024,1024,21.5,-90,96,3.924,3.915,3.93,3.924,3.95,3.936,21.117,86,14,Waypoint,
38.5568635,-120.5320516,3938.8606814897,183.72704,0.223694,0.63065618816,24100,2018-06-20 20:38:40,13,0,23.596,3938.8606814897,183.72704,0.3131716,1.76608929536,0,0,-0.671082,21.7, 0.7, -3.8,0,0,1024,1024,1024,1024,21.5,-89.9,96,3.924,3.915,3.93,3.924,3.95,3.936,21.117,86,14,Waypoint,
38.5568635,-120.5320516,3939.8449334897,184.711292,0,0.63065618816,24200,2018-06-20 20:38:40,13,0,23.596,3939.8449334897,184.711292,0.3131716,1.76608929536,0,0,-0.671082,21.8, 0.6, -3.4,0,0,1024,1024,1024,1024,21.5,-90,96,3.924,3.915,3.93,3.924,3.95,3.936,21.117,86,14,Waypoint,
38.5568634,-120.5320515,3940.8291854897,185.695544,0,0.59000001888,24300,2018-06-20 20:38:40,13,0,23.596,3940.8291854897,185.695544,0.3131716,1.76608929536,0,0,-0.671082,21.9, 0.7, -3.2,0,0,1024,1024,1024,1024,21.5,-89.9,96,3.924,3.915,3.93,3.924,3.95,3.936,21.117,86,14,Waypoint,
38.5568634,-120.5320515,3941.4853534897,186.351712,0,0.59000001888,24400,2018-06-20 20:38:40,13,0,23.596,3941.4853534897,186.351712,0.3131716,1.76608929536,0,0,-0.671082,21.9, 0.9, -2.8,0,0,1024,1024,1024,1024,21.5,-89.9,96,3.924,3.915,3.93,3.924,3.95,3.936,21.117,86,14,Waypoint,
38.5568634,-120.5320514,3942.4696054897,187.335964,0,0.58654201352,24500,2018-06-20 20:38:40,13,0,23.596,3942.4696054897,187.335964,0.3131716,1.76608929536,0,0,-0.671082,21.8, 1.1, -2.6,0,0,1024,1024,1024,1024,21.5,-89.9,96,3.924,3.915,3.93,3.924,3.95,3.936,21.117,86,14,Waypoint,
38.5568635,-120.5320514,3943.4538574897,188.320216,0,0.62286419316,24600,2018-06-20 20:38:40,13,0,23.596,3943.4538574897,188.320216,0.3131716,1.76608929536,0,0,-0.671082,21.7, 1.5, -2.4,0,0,1024,1024,1024,1024,21.5,-89.9,96,3.924,3.915,3.93,3.924,3.95,3.936,21.117,86,14,Waypoint,
38.5568635,-120.5320513,3944.4381094897,189.304468,0,0.62089897,24700,2018-06-20 20:38:40,13,0,23.596,3944.4381094897,189.304468,0.3131716,1.76608929536,0,0,-0.671082,21.7, 1.9, -2.5,0,0,1024,1024,1024,1024,21.5,-89.9,96,3.924,3.915,3.93,3.924,3.95,3.936,21.117,86,14,Waypoint,
38.5568636,-120.5320512,3946.0785294897,190.944888,0,0.65672902364,24800,2018-06-20 20:38:40,13,0,23.596,3946.0785294897,190.944888,0.3131716,1.76608929536,0,0,-0.671082,21.8, 2, -3,0,0,1024,1024,1024,1024,21.5,-89.9,96,3.924,3.915,3.93,3.924,3.95,3.936,21.117,86,14,Waypoint,
38.5568637,-120.5320511,3947.0627814897,191.92914,0,0.6937992348,24900,2018-06-20 20:38:41,13,0,23.596,3947.0627814897,191.92914,0.3131716,1.76608929536,0,0,-0.671082,21.9, 2.3, -2.6,0,0,1024,1024,1024,1024,21.5,-89.9,96,3.924,3.915,3.93,3.924,3.95,3.936,21.117,86,14,Waypoint,
38.5568637,-120.5320511,3948.0470334897,192.913392,0,0.6937992348,25000,2018-06-20 20:38:41,13,0,23.613,3948.0470334897,192.913392,0.3131716,1.76608929536,0,0,-0.671082,22, 2.5, -2,0,0,1024,1024,1024,1024,21.5,-89.9,96,3.926,3.918,3.94,3.936,3.938,3.938,20.579,86,14,Waypoint,
38.5568638,-120.5320511,3949.0312854897,193.897644,0,0.73025592888,25100,2018-06-20 20:38:41,13,0,23.613,3949.0312854897,193.897644,0.3131716,1.76608929536,0,0,-0.671082,21.9, 2.8, -1.8,0,0,1024,1024,1024,1024,21.5,-89.9,96,3.926,3.918,3.94,3.936,3.938,3.938,20.579,86,14,Waypoint,
38.5568639,-120.5320511,3950.0155374897,194.881896,0,0.7667159038,25200,2018-06-20 20:38:41,13,0,23.613,3950.0155374897,194.881896,0.3131716,1.76608929536,0,0,-0.671082,21.8, 3, -1.8,0,0,1024,1024,1024,1024,21.5,-89.9,96,3.926,3.918,3.94,3.936,3.938,3.938,20.579,86,14,Waypoint,
38.5568639,-120.5320511,3950.9997894897,195.866148,0,0.7667159038,25300,2018-06-20 20:38:41,13,0,23.613,3950.9997894897,195.866148,0.3131716,1.76608929536,0,0,-0.671082,21.7, 3, -1.7,0,0,1024,1024,1024,1024,21.5,-89.9,96,3.926,3.918,3.94,3.936,3.938,3.938,20.579,86,14,Waypoint,
38.556864,-120.5320511,3951.9840414897,196.8504,0,0.80317587872,25400,2018-06-20 20:38:41,13,0,23.613,3951.9840414897,196.8504,0.3131716,1.76608929536,0,0,-0.671082,21.5, 2.8, -1.7,0,0,1024,1024,1024,1024,21.5,-89.9,96,3.926,3.918,3.94,3.936,3.938,3.938,20.579,86,14,Waypoint,
38.556864,-120.5320511,3952.6402094897,197.506568,0,0.80317587872,25510,2018-06-20 20:38:41,13,0,23.613,3952.6402094897,197.506568,0.3131716,1.76608929536,0,0,-0.671082,21.4, 2.5, -1.6,0,0,1024,1024,1024,1024,21.5,-89.9,96,3.926,3.918,3.94,3.936,3.938,3.938,20.579,86,14,Waypoint,
38.556864,-120.5320511,3952.6402094897,197.506568,0,0.80317587872,25600,2018-06-20 20:38:41,13,0,23.613,3952.6402094897,197.506568,0.3131716,1.76608929536,0,0,-0.671082,21.4, 2.5, -1.6,0,0,1024,1024,1024,1024,21.5,-89.9,96,3.926,3.918,3.94,3.936,3.938,3.938,20.579,86,14,Waypoint,
38.5568641,-120.5320511,3953.6244614897,198.49082,0,0.83963913448,25700,2018-06-20 20:38:41,13,0,23.613,3953.6244614897,198.49082,0.3131716,1.76608929536,0,0,-0.671082,21.4, 2.4, -1.8,0,0,1024,1024,1024,1024,21.5,-89.9,96,3.926,3.918,3.94,3.936,3.938,3.938,20.579,86,14,Waypoint,
38.5568641,-120.5320511,3954.6087134897,199.475072,0,0.83963913448,25800,2018-06-20 20:38:41,13,0,23.613,3954.6087134897,199.475072,0.3131716,1.76608929536,0,0,-0.671082,21.4, 2.2, -1.8,0,0,1024,1024,1024,1024,21.5,-89.9,96,3.926,3.918,3.94,3.936,3.938,3.938,20.579,86,14,Waypoint,
38.5568641,-120.5320511,3955.5929654897,200.459324,0,0.83963913448,25900,2018-06-20 20:38:42,13,0,23.613,3955.5929654897,200.459324,0.3131716,1.76608929536,0,0,-0.671082,21.6, 2.2, -1.9,0,0,1024,1024,1024,1024,21.5,-89.9,96,3.926,3.918,3.94,3.936,3.938,3.938,20.579,86,14,Waypoint,
38.5568642,-120.5320512,3956.5772174897,201.443576,0,0.8756397918,26000,2018-06-20 20:38:42,13,0,23.445,3956.5772174897,201.443576,0.3131716,1.76608929536,0,0,-0.671082,21.7, 2.4, -2,0,0,1024,1024,1024,1024,21.5,-89.9,96,3.926,3.918,3.94,3.936,3.938,3.938,23.456,86,14,Waypoint,
38.5568642,-120.5320512,3957.8895534897,202.755912,0,0.8756397918,26100,2018-06-20 20:38:42,13,0,23.445,3957.8895534897,202.755912,0.3131716,1.76608929536,0,0,-0.671082,21.8, 2.7, -2,0,0,1024,1024,1024,1024,21.5,-89.9,96,3.926,3.918,3.94,3.936,3.938,3.938,23.456,86,14,Waypoint,
38.5568643,-120.5320512,3958.8738054897,203.740164,0,0.9121227326,26200,2018-06-20 20:38:42,13,0,23.445,3958.8738054897,203.740164,0.3131716,1.76608929536,0,0,-0.671082,21.9, 2.8, -2.1,0,0,1024,1024,1024,1024,21.5,-89.9,96,3.926,3.918,3.94,3.936,3.938,3.938,23.456,86,14,Waypoint,
38.5568643,-120.5320511,3959.8580574897,204.724416,0,0.91256892684,26300,2018-06-20 20:38:42,13,0,23.445,3959.8580574897,204.724416,0.3131716,1.76608929536,0,0,-0.671082,21.9, 2.7, -2.8,0,0,1024,1024,1024,1024,21.5,-89.9,96,3.926,3.918,3.94,3.936,3.938,3.938,23.456,86,14,Waypoint,
38.5568643,-120.5320511,3960.8423094897,205.708668,0,0.91256892684,26400,2018-06-20 20:38:42,13,0,23.445,3960.8423094897,205.708668,0.3131716,1.76608929536,0,0,-0.671082,21.8, 2.8, -3.3,0,0,1024,1024,1024,1024,21.5,-89.9,96,3.926,3.918,3.94,3.936,3.938,3.938,23.456,86,14,Waypoint,
