Latitude, Longitude, Altitude (m), Time, Sats, Speed (m/s), Range (m), Battery (%), Roll (deg), Pitch (deg), Yaw (deg), Images, HD Signal (%), RC Signal (%), Battery Temp (C), Battery Voltage (mV), Battery Current (mA), Battery Energy (mAh), Battery Capacity (mAh), Battery Discharges, flyState, timestamp (Unix), LastUpdate (ms), radioChannel, Rc_elevator, Rc_aileron, Rc_throttle, Rc_rudder, Rc_gyro, Dronetype, Battery_Cell1 (mV), Battery_Cell2 (mV), Battery_Cell3 (mV), Battery_Cell4 (mV), Battery_Cell5 (mV), Battery_Cell6 (mV), Video, isFlying, elapsedTime (ms), gimbalPitch (deg), gimbalRoll (deg), gimbalYaw (deg), VelocityX (m/s), VelocityY (m/s), VelocityZ (m/s), GroundSmear (cm), App Version, Aircraft Name, Aircraft Firmware, Aircraft Serial Number, Battery Serial Number, Battery Lifetime (%), App_Tip, App_Warning, CurrentFlightStartingIndex, CurrentFlightLastVisitedWaypoint, PreviousFlightEndingWaypointIndex
38.5568618, -120.5320512, 0.000, 13:38:18.652, 13, 0.00, 0.15, 98, -0.100, 0.200, 22.100, 2, 100, 100, 29, 25471, -4499, 5288, 5396, 16, 11, 1529527098.652, 91, 0, 1024, 1024, 1024, 1024, 0, 6, 4229, 4222, 4209, 4230, 4238, 4211, 0, 1, 3000, -89.900, 0.000, 21.500, 0.000, 0.000, -0.200, 0.0, MapPilot_2.8.1_04242018, Dendroctonus I, 1.3.1.00, 041DDC1887, 1058163200563, 96, DJI_0001.jpg, Starting Mission from Lat/Long: 38.55688/-120.53205 Camera: Zenmuse X3 - Overlap: 90/90 - Active Connection: No, 0, 0, 0
38.5568619, -120.5320513, 0.000, 13:38:18.752, 13, 0.00, 0.16, 98, 0.400, 0.300, 22.200, 2, 100, 100, 29, 25471, -4499, 5288, 5396, 16, 11, 1529527098.752, 98, 0, 1024, 1024, 1024, 1024, 0, 6, 4229, 4222, 4209, 4230, 4238, 4211, 0, 1, 3100, -89.900, 0.000, 21.500, 0.000, 0.000, -0.300, 0.0, , , , , , 96, , , 0, 0, 0
38.5568620, -120.5320514, 0.000, 13:38:18.852, 13, 0.00, 0.18, 98, 0.600, 0.200, 22.200, 2, 100, 100, 29, 25471, -4499, 5288, 5396, 16, 11, 1529527098.852, 79, 0, 1024, 1024, 1024, 1024, 0, 6, 4229, 4222, 4209, 4230, 4238, 4211, 0, 1, 3200, -89.900, 0.000, 21.500, 0.000, 0.000, -0.300, 0.0, , , , , , 96, , , 0, 0, 0
38.5568621, -120.5320515, 0.100, 13:38:18.952, 13, 0.00, 0.19, 98, 0.700, 0.100, 22.200, 2, 100, 100, 29, 25471, -4499, 5288, 5396, 16, 11, 1529527098.952, 81, 0, 1024, 1024, 1024, 1024, 0, 6, 4229, 4222, 4209, 4230, 4238, 4211, 0, 1, 3300, -89.900, 0.000, 21.500, 0.000, 0.000, -0.400, 0.0, , , , , , 96, , , 0, 0, 0
38.5568622, -120.5320517, 0.100, 13:38:19.052, 13, 0.00, 0.21, 98, 0.800, 0.000, 22.300, 2, 100, 100, 29, 25471, -4499, 5288, 5396, 16, 11, 1529527099.052, 69, 0, 1024, 1024, 1024, 1024, 0, 6, 4229, 4222, 4209, 4230, 4238, 4211, 0, 1, 3400, -89.900, 0.000, 21.500, 0.000, 0.000, -0.400, 0.0, , , , , , 96, , , 0, 0, 0
38.5568623, -120.5320518, 0.200, 13:38:19.152, 13, 0.00, 0.22, 98, 0.600, 0.200, 22.300, 2, 100, 100, 29, 25471, -4499, 5288, 5396, 16, 11, 1529527099.152, 64, 0, 1024, 1024, 1024, 1024, 0, 6, 4229, 4222, 4209, 4230, 4238, 4211, 0, 1, 3500, -89.900, 0.000, 21.500, 0.000, 0.000, -0.400, 0.0, , , , , , 96, , , 0, 0, 0
38.5568624, -120.5320520, 0.200, 13:38:19.252, 13, 0.00, 0.24, 98, 0.700, 0.500, 22.200, 2, 100, 100, 29, 25471, -4499, 5288, 5396, 16, 11, 1529527099.252, 70, 0, 1024, 1024, 1024, 1024, 0, 6, 4229, 4222, 4209, 4230, 4238, 4211, 0, 1, 3600, -89.900, 0.000, 21.500, 0.000, 0.000, -0.400, 0.0, , , , , , 96, , , 0, 0, 0
38.5568625, -120.5320520, 0.300, 13:38:19.352, 13, 0.00, 0.25, 98, 0.800, 0.400, 22.200, 2, 100, 100, 29, 25471, -4499, 5288, 5396, 16, 11, 1529527099.352, 34, 0, 1024, 1024, 1024, 1024, 0, 6, 4229, 4222, 4209, 4230, 4238, 4211, 0, 1, 3700, -89.900, 0.000, 21.500, 0.000, 0.000, -0.400, 0.0, , , , , , 96, , , 0, 0, 0
38.5568626, -120.5320521, 0.300, 13:38:19.452, 10, 0.00, 0.26, 98, 1.000, 0.200, 22.100, 2, 100, 100, 29, 25471, -4499, 5288, 5396, 16, 11, 1529527099.452, 64, 0, 1024, 1024, 1024, 1024, 0, 6, 4229, 4222, 4209, 4230, 4238, 4211, 0, 1, 3800, -89.900, 0.000, 21.500, 0.000, 0.000, -0.400, 0.0, , , , , , 96, , , 0, 0, 0
38.5568626, -120.5320522, 0.400, 13:38:19.552, 10, 0.00, 0.27, 98, 0.900, 0.100, 22.000, 2, 100, 100, 29, 24646, -14965, 5288, 5396, 16, 11, 1529527099.552, 41, 0, 1024, 1024, 1024, 1024, 0, 6, 4229, 4222, 4209, 4230, 4238, 4211, 0, 1, 3900, -89.900, 0.000, 21.500, 0.000, 0.000, -0.400, 0.0, , , , , , 96, , , 0, 0, 0
38.5568626, -120.5320522, 0.400, 13:38:19.652, 12, 0.00, 0.27, 98, 1.000, 0.100, 21.800, 2, 100, 100, 29, 24646, -14965, 5288, 5396, 16, 11, 1529527099.652, 55, 0, 1024, 1024, 1024, 1024, 0, 6, 4229, 4222, 4209, 4230, 4238, 4211, 0, 1, 4000, -89.900, 0.000, 21.500, 0.000, 0.000, -0.400, 0.0, , , , , , 96, , , 0, 0, 0
38.5568627, -120.5320522, 0.500, 13:38:19.752, 12, 0.00, 0.28, 98, 0.600, 0.100, 21.500, 2, 100, 100, 29, 24646, -14965, 5288, 5396, 16, 11, 1529527099.752, 27, 0, 1024, 1024, 1024, 1024, 0, 6, 4229, 4222, 4209, 4230, 4238, 4211, 0, 1, 4100, -89.900, 0.000, 21.500, 0.000, 0.000, -0.400, 0.0, , , , , , 96, , , 0, 0, 0
38.5568627, -120.5320522, 0.500, 13:38:19.852, 12, 0.00, 0.28, 98, 0.500, 0.000, 21.500, 2, 100, 100, 29, 24646, -14965, 5288, 5396, 16, 11, 1529527099.852, 36, 0, 1024, 1024, 1024, 1024, 0, 6, 4229, 4222, 4209, 4230, 4238, 4211, 0, 1, 4200, -89.900, 0.000, 21.500, 0.000, 0.000, -0.400, 0.0, , , , , , 96, , , 0, 0, 0
38.5568628, -120.5320522, 0.600, 13:38:19.952, 12, 0.00, 0.28, 98, 0.400, 0.000, 21.500, 2, 100, 100, 29, 24646, -14965, 5288, 5396, 16, 11, 1529527099.952, 29, 0, 1024, 1024, 1024, 1024, 0, 6, 4229, 4222, 4209, 4230, 4238, 4211, 0, 1, 4300, -89.900, 0.000, 21.500, 0.000, 0.000, -0.500, 0.0, , , , , , 96, , , 0, 0, 0
38.5568629, -120.5320522, 0.600, 13:38:20.052, 12, 0.00, 0.29, 98, 0.300, 0.000, 21.700, 2, 100, 100, 29, 24646, -14965, 5288, 5396, 16, 11, 1529527100.052, 44, 0, 1024, 1024, 1024, 1024, 0, 6, 4097, 4097, 4089, 4113, 4124, 4088, 0, 1, 4400, -89.900, 0.000, 21.500, 0.000, 0.000, -0.500, 0.0, , , , , , 96, , , 0, 0, 0
38.5568630, -120.5320522, 0.700, 13:38:20.152, 11, 0.00, 0.30, 98, 0.300, 0.100, 21.900, 2, 100, 100, 29, 24646, -14965, 5288, 5396, 16, 11, 1529527100.152, 36, 0, 1024, 1024, 1024, 1024, 0, 6, 4097, 4097, 4089, 4113, 4124, 4088, 0, 1, 4500, -89.900, 0.000, 21.500, 0.000, 0.000, -0.500, 0.0, , , , , , 96, , , 0, 0, 0
38.5568630, -120.5320522, 0.700, 13:38:20.252, 11, 0.00, 0.31, 98, 0.400, 0.300, 22.000, 2, 100, 100, 29, 24646, -14965, 5288, 5396, 16, 11, 1529527100.252, 24, 0, 1024, 1024, 1024, 1024, 0, 6, 4097, 4097, 4089, 4113, 4124, 4088, 0, 1, 4599, -89.900, 0.000, 21.500, 0.000, 0.000, -0.500, 0.0, , , , , , 96, , , 0, 0, 0
38.5568631, -120.5320523, 0.800, 13:38:20.352, 11, 0.00, 0.32, 98, 0.600, 0.500, 22.000, 2, 100, 100, 29, 24646, -14965, 5288, 5396, 16, 11, 1529527100.352, 25, 0, 1024, 1024, 1024, 1024, 0, 6, 4097, 4097, 4089, 4113, 4124, 4088, 0, 1, 4699, -89.900, 0.000, 21.500, 0.000, 0.000, -0.500, 0.0, , , , , , 96, , , 0, 0, 0
38.5568631, -120.5320522, 0.800, 13:38:20.452, 11, 0.00, 0.32, 98, 0.700, 0.700, 22.000, 2, 100, 100, 29, 24646, -14965, 5288, 5396, 16, 11, 1529527100.452, 27, 0, 1024, 1024, 1024, 1024, 0, 6, 4097, 4097, 4089, 4113, 4124, 4088, 0, 1, 4799, -89.900, 0.000, 21.500, 0.000, 0.000, -0.500, 0.0, , , , , , 96, , , 0, 0, 0
38.5568631, -120.5320522, 0.900, 13:38:20.552, 12, 0.00, 0.31, 98, 0.800, 0.600, 21.800, 2, 100, 100, 29, 24646, -14965, 5288, 5396, 16, 14, 1529527100.552, 6, 0, 1024, 1024, 1024, 1024, 0, 6, 4097, 4097, 4089, 4113, 4124, 4088, 0, 1, 4899, -89.900, 0.000, 21.500, 0.000, 0.000, -0.500, 0.0, , , , , , 96, , , 0, 0, 0
38.5568630, -120.5320522, 0.900, 13:38:20.652, 12, 0.00, 0.30, 98, 0.700, 0.200, 21.700, 2, 100, 100, 29, 24646, -14965, 5288, 5396, 16, 14, 1529527100.652, 8, 0, 1024, 1024, 1024, 1024, 0, 6, 4097, 4097, 4089, 4113, 4124, 4088, 0, 1, 5000, -90.000, 0.000, 21.500, 0.000, 0.000, -0.300, 0.0, , , , , , 96, , , 0, 0, 0
38.5568630, -120.5320522, 0.900, 13:38:20.752, 12, 0.00, 0.30, 98, 0.700, 0.200, 21.700, 2, 100, 100, 29, 24646, -14965, 5288, 5396, 16, 14, 1529527100.752, 109, 0, 1024, 1024, 1024, 1024, 0, 6, 4097, 4097, 4089, 4113, 4124, 4088, 0, 1, 5100, -90.000, 0.000, 21.500, 0.000, 0.000, -0.300, 0.0, , , , , , 96, , , 0, 0, 0
38.5568629, -120.5320521, 1.000, 13:38:20.852, 11, 0.00, 0.30, 98, 0.000, -0.600, 21.500, 2, 100, 100, 29, 24646, -14965, 5288, 5396, 16, 14, 1529527100.852, 97, 0, 1024, 1024, 1024, 1024, 0, 6, 4097, 4097, 4089, 4113, 4124, 4088, 0, 1, 5199, -90.000, 0.000, 21.500, 0.000, 0.000, -0.200, 0.0, , , , , , 96, , , 0, 0, 0
38.5568629, -120.5320521, 1.000, 13:38:20.952, 11, 0.00, 0.29, 98, -0.500, -0.900, 21.400, 2, 100, 100, 29, 24646, -14965, 5288, 5396, 16, 14, 1529527100.952, 92, 0, 1024, 1024, 1024, 1024, 0, 6, 4097, 4097, 4089, 4113, 4124, 4088, 0, 1, 5299, -90.000, 0.000, 21.500, 0.000, 0.000, -0.200, 0.0, , , , , , 96, , , 0, 0, 0
38.5568630, -120.5320520, 1.100, 13:38:21.055, 11, 0.00, 0.30, 98, -0.500, -0.700, 21.400, 2, 100, 100, 29, 24435, -16126, 5288, 5396, 16, 14, 1529527101.055, 5, 0, 1024, 1024, 1024, 1024, 0, 6, 4059, 4062, 4077, 4066, 4085, 4077, 0, 1, 5403, -90.000, 0.000, 21.500, 0.000, 0.000, -0.400, 0.0, , , , , , 96, , , 0, 0, 0
38.5568630, -120.5320520, 1.100, 13:38:21.152, 11, 0.00, 0.30, 98, -0.500, -0.700, 21.400, 2, 100, 100, 29, 24435, -16126, 5288, 5396, 16, 14, 1529527101.152, 101, 0, 1024, 1024, 1024, 1024, 0, 6, 4059, 4062, 4077, 4066, 4085, 4077, 0, 1, 5500, -89.900, 0.000, 21.500, 0.000, 0.000, -0.400, 0.0, , , , , , 96, , , 0, 0, 0
38.5568630, -120.5320520, 1.100, 13:38:21.252, 11, 0.00, 0.30, 98, -0.400, -0.500, 21.500, 2, 100, 100, 29, 24435, -16126, 5288, 5396, 16, 14, 1529527101.252, 92, 0, 1024, 1024, 1024, 1024, 0, 6, 4059, 4062, 4077, 4066, 4085, 4077, 0, 1, 5599, -89.900, 0.000, 21.500, 0.000, 0.000, -0.600, 0.0, , , , , , 96, , , 0, 0, 0
38.5568630, -120.5320519, 1.200, 13:38:21.352, 11, 0.00, 0.30, 98, -0.300, -0.300, 21.700, 2, 100, 100, 29, 24435, -16126, 5288, 5396, 16, 14, 1529527101.352, 84, 0, 1024, 1024, 1024, 1024, 0, 6, 4059, 4062, 4077, 4066, 4085, 4077, 0, 1, 5700, -89.900, 0.000, 21.500, 0.000, 0.000, -0.800, 0.0, , , , , , 96, , , 0, 0, 0
38.5568631, -120.5320518, 1.300, 13:38:21.452, 12, 0.00, 0.30, 98, -0.300, -0.200, 21.900, 2, 100, 100, 29, 24435, -16126, 5288, 5396, 16, 14, 1529527101.452, 47, 0, 1024, 1024, 1024, 1024, 0, 6, 4059, 4062, 4077, 4066, 4085, 4077, 0, 1, 5800, -89.900, 0.000, 21.500, 0.000, 0.000, -0.900, 0.0, , , , , , 96, , , 0, 0, 0
38.5568632, -120.5320518, 1.400, 13:38:21.551, 12, 0.00, 0.32, 98, -0.300, -0.100, 22.000, 2, 100, 100, 29, 24435, -16126, 5288, 5396, 16, 14, 1529527101.552, 72, 0, 1024, 1024, 1024, 1024, 0, 6, 4059, 4062, 4077, 4066, 4085, 4077, 0, 1, 5900, -89.900, 0.000, 21.500, 0.000, 0.000, -1.200, 0.0, , , , , , 96, , , 0, 0, 0
38.5568634, -120.5320518, 1.500, 13:38:21.652, 11, 0.00, 0.33, 98, -0.100, 0.100, 22.100, 2, 100, 100, 29, 24435, -16126, 5288, 5396, 16, 14, 1529527101.652, 63, 0, 1024, 1024, 1024, 1024, 0, 6, 4059, 4062, 4077, 4066, 4085, 4077, 0, 1, 6000, -89.900, 0.000, 21.500, 0.000, 0.000, -1.400, 0.0, , , , , , 96, , , 0, 0, 0
38.5568636, -120.5320517, 1.700, 13:38:21.751, 11, 0.00, 0.35, 98, -0.100, 0.300, 22.200, 2, 100, 100, 29, 24435, -16126, 5288, 5396, 16, 14, 1529527101.752, 55, 0, 1024, 1024, 1024, 1024, 0, 6, 4059, 4062, 4077, 4066, 4085, 4077, 0, 1, 6099, -89.900, 0.000, 21.500, 0.000, 0.000, -1.500, 0.0, , , , , , 96, , , 0, 0, 0
38.5568637, -120.5320517, 1.800, 13:38:21.851, 12, 0.00, 0.37, 98, -0.100, 0.600, 22.200, 2, 100, 100, 29, 24435, -16126, 5288, 5396, 16, 14, 1529527101.852, 54, 0, 1024, 1024, 1024, 1024, 0, 6, 4059, 4062, 4077, 4066, 4085, 4077, 0, 1, 6199, -89.900, 0.000, 21.500, 0.000, 0.000, -1.800, 0.0, , , , , , 96, , , 0, 0, 0
38.5568638, -120.5320517, 2.000, 13:38:21.951, 12, 0.00, 0.38, 98, -0.100, 0.800, 22.300, 2, 100, 100, 29, 24435, -16126, 5288, 5396, 16, 14, 1529527101.952, 32, 0, 1024, 1024, 1024, 1024, 0, 6, 4059, 4062, 4077, 4066, 4085, 4077, 0, 1, 6299, -89.900, 0.000, 21.500, 0.000, 0.000, -2.100, 0.0, , , , , , 96, , , 0, 0, 0
38.5568640, -120.5320518, 2.500, 13:38:22.052, 12, 0.00, 0.39, 98, 0.000, 0.700, 22.200, 2, 100, 100, 29, 24580, -15468, 5288, 5396, 16, 14, 1529527102.052, 20, 0, 1024, 1024, 1024, 1024, 0, 6, 4070, 4031, 4072, 4112, 4080, 4084, 0, 1, 6400, -89.900, 0.000, 21.500, 0.000, 0.000, -2.500, 0.0, , , , , , 96, , , 0, 0, 0
38.5568640, -120.5320518, 2.700, 13:38:22.151, 13, 0.00, 0.40, 98, 0.100, 0.500, 22.000, 2, 100, 100, 29, 24580, -15468, 5288, 5396, 16, 14, 1529527102.152, 35, 0, 1024, 1024, 1024, 1024, 0, 6, 4070, 4031, 4072, 4112, 4080, 4084, 0, 1, 6499, -89.900, 0.000, 21.500, 0.000, 0.000, -2.600, 0.0, , , , , , 96, , , 0, 0, 0
38.5568640, -120.5320517, 3.000, 13:38:22.252, 13, 0.00, 0.40, 98, 0.300, 0.300, 21.900, 2, 100, 100, 29, 24580, -15468, 5288, 5396, 16, 14, 1529527102.252, 36, 0, 1024, 1024, 1024, 1024, 0, 6, 4070, 4031, 4072, 4112, 4080, 4084, 0, 1, 6600, -89.900, 0.000, 21.500, 0.000, 0.000, -2.900, 0.0, , , , , , 96, , , 0, 0, 0
38.5568640, -120.5320517, 3.300, 13:38:22.352, 12, 0.00, 0.40, 98, 0.100, 0.300, 21.900, 2, 100, 100, 29, 24580, -15468, 5288, 5396, 16, 14, 1529527102.352, 38, 0, 1024, 1024, 1024, 1024, 0, 6, 4070, 4031, 4072, 4112, 4080, 4084, 0, 1, 6700, -89.900, 0.000, 21.500, 0.000, 0.000, -3.000, 0.0, , , , , , 96, , , 0, 0, 0
38.5568641, -120.5320517, 3.700, 13:38:22.452, 12, 0.00, 0.41, 98, 0.000, 0.300, 21.900, 2, 100, 100, 29, 24580, -15468, 5288, 5396, 16, 14, 1529527102.452, 16, 0, 1024, 1024, 1024, 1024, 0, 6, 4070, 4031, 4072, 4112, 4080, 4084, 0, 1, 6800, -89.900, 0.000, 21.500, 0.000, 0.000, -3.100, 0.0, , , , , , 96, , , 0, 0, 0
38.5568642, -120.5320518, 4.000, 13:38:22.551, 12, 0.00, 0.42, 98, 0.000, 0.300, 21.900, 2, 100, 100, 29, 24580, -15468, 5288, 5396, 16, 14, 1529527102.552, 19, 0, 1024, 1024, 1024, 1024, 0, 6, 4070, 4031, 4072, 4112, 4080, 4084, 0, 1, 6899, -89.900, 0.000, 21.500, 0.000, 0.000, -3.100, 0.0, , , , , , 96, , , 0, 0, 0
38.5568643, -120.5320519, 4.300, 13:38:22.651, 12, 0.00, 0.44, 98, 0.000, 0.400, 22.000, 2, 100, 100, 29, 24580, -15468, 5288, 5396, 16, 14, 1529527102.652, 6, 0, 1024, 1024, 1024, 1024, 0, 6, 4070, 4031, 4072, 4112, 4080, 4084, 0, 1, 6999, -89.900, 0.000, 21.500, 0.000, 0.000, -3.200, 0.0, , , , , , 96, , , 0, 0, 0
38.5568645, -120.5320520, 4.600, 13:38:22.751, 11, 0.00, 0.45, 98, 0.300, 0.500, 22.100, 2, 100, 100, 29, 24580, -15468, 5288, 5396, 16, 14, 1529527102.752, 8, 0, 1024, 1024, 1024, 1024, 0, 6, 4070, 4031, 4072, 4112, 4080, 4084, 0, 1, 7099, -89.900, 0.000, 21.500, 0.000, 0.000, -3.200, 0.0, , , , , , 96, , , 0, 0, 0
38.5568645, -120.5320520, 5.000, 13:38:22.851, 11, 0.00, 0.45, 98, 0.600, 0.700, 22.100, 2, 100, 100, 29, 24580, -15468, 5288, 5396, 16, 14, 1529527102.852, 13, 0, 1024, 1024, 1024, 1024, 0, 6, 4070, 4031, 4072, 4112, 4080, 4084, 0, 1, 7199, -89.900, 0.000, 21.500, 0.000, 0.000, -3.200, 0.0, , , , , , 96, , , 0, 0, 0
38.5568644, -120.5320520, 5.300, 13:38:22.951, 12, 0.00, 0.45, 98, 0.700, 0.700, 22.000, 2, 100, 100, 29, 23971, -22386, 5234, 5396, 16, 14, 1529527102.952, 7, 0, 1024, 1024, 1024, 1024, 0, 6, 3970, 3962, 3983, 3989, 3993, 3990, 0, 1, 7299, -89.900, 0.000, 21.500, 0.000, 0.000, -3.200, 0.0, , , , , , 96, , , 0, 0, 0
38.5568644, -120.5320521, 5.600, 13:38:23.060, 12, 0.00, 0.45, 98, 0.500, 0.600, 22.000, 2, 100, 100, 29, 23971, -22386, 5234, 5396, 16, 14, 1529527103.060, 7, 0, 1024, 1024, 1024, 1024, 0, 6, 3970, 3962, 3983, 3989, 3993, 3990, 0, 1, 7408, -89.900, 0.000, 21.500, 0.000, 0.000, -3.200, 0.0, , , , , , 96, , , 0, 0, 0
38.5568643, -120.5320522, 6.000, 13:38:23.152, 12, 0.00, 0.44, 98, 0.400, 0.300, 21.900, 2, 100, 100, 29, 23971, -22386, 5234, 5396, 16, 14, 1529527103.152, 3, 0, 1024, 1024, 1024, 1024, 0, 6, 3970, 3962, 3983, 3989, 3993, 3990, 0, 1, 7500, -89.900, 0.000, 21.500, 0.000, 0.000, -3.300, 0.0, , , , , , 96, , , 0, 0, 0
38.5568643, -120.5320522, 6.000, 13:38:23.251, 12, 0.00, 0.44, 98, 0.400, 0.300, 21.900, 2, 100, 100, 29, 23971, -22386, 5234, 5396, 16, 14, 1529527103.252, 102, 0, 1024, 1024, 1024, 1024, 0, 6, 3970, 3962, 3983, 3989, 3993, 3990, 0, 1, 7600, -89.900, 0.000, 21.500, 0.000, 0.000, -3.300, 0.0, , , , , , 96, , , 0, 0, 0
38.5568642, -120.5320522, 6.300, 13:38:23.351, 12, 0.00, 0.43, 98, 0.300, 0.000, 21.900, 2, 100, 100, 29, 23971, -22386, 5234, 5396, 16, 14, 1529527103.352, 67, 0, 1024, 1024, 1024, 1024, 0, 6, 3970, 3962, 3983, 3989, 3993, 3990, 0, 1, 7700, -89.900, 0.000, 21.500, 0.000, 0.000, -3.200, 0.0, , , , , , 96, , , 0, 0, 0
38.5568641, -120.5320522, 6.600, 13:38:23.451, 11, 0.10, 0.42, 98, 0.100, -0.100, 21.800, 2, 100, 100, 29, 23971, -22386, 5234, 5396, 16, 14, 1529527103.452, 81, 0, 1024, 1024, 1024, 1024, 0, 6, 3970, 3962, 3983, 3989, 3993, 3990, 0, 1, 7799, -89.900, 0.000, 21.500, -0.100, 0.000, -3.200, 0.0, , , , , , 96, , , 0, 0, 0
38.5568641, -120.5320522, 7.000, 13:38:23.551, 11, 0.00, 0.42, 98, 0.000, -0.100, 21.700, 2, 100, 100, 29, 23971, -22386, 5234, 5396, 16, 14, 1529527103.552, 61, 0, 1024, 1024, 1024, 1024, 0, 6, 3970, 3962, 3983, 3989, 3993, 3990, 0, 1, 7899, -89.900, 0.000, 21.500, 0.000, 0.000, -3.200, 0.0, , , , , , 96, , , 0, 0, 0
38.5568641, -120.5320523, 7.300, 13:38:23.651, 10, 0.00, 0.42, 98, -0.100, 0.000, 21.500, 2, 100, 100, 29, 23971, -22386, 5234, 5396, 16, 14, 1529527103.652, 73, 0, 1024, 1024, 1024, 1024, 0, 6, 3970, 3962, 3983, 3989, 3993, 3990, 0, 1, 7999, -89.900, 0.000, 21.500, 0.000, 0.000, -3.200, 0.0, , , , , , 96, , , 0, 0, 0
38.5568642, -120.5320523, 7.700, 13:38:23.751, 10, 0.00, 0.43, 98, 0.000, 0.100, 21.400, 2, 100, 100, 29, 23971, -22386, 5234, 5396, 16, 14, 1529527103.752, 57, 0, 1024, 1024, 1024, 1024, 0, 6, 3970, 3962, 3983, 3989, 3993, 3990, 0, 1, 8099, -89.900, 0.000, 21.500, 0.000, 0.000, -3.200, 0.0, , , , , , 96, , , 0, 0, 0
38.5568642, -120.5320523, 8.000, 13:38:23.851, 11, 0.00, 0.44, 98, 0.100, 0.100, 21.400, 2, 100, 100, 29, 23971, -22386, 5234, 5396, 16, 14, 1529527103.852, 57, 0, 1024, 1024, 1024, 1024, 0, 6, 3970, 3962, 3983, 3989, 3993, 3990, 0, 1, 8199, -89.900, 0.000, 21.500, 0.000, 0.000, -3.100, 0.0, , , , , , 96, , , 0, 0, 0
38.5568642, -120.5320523, 8.300, 13:38:23.951, 11, 0.00, 0.44, 98, 0.200, 0.200, 21.400, 2, 100, 100, 29, 23971, -22386, 5234, 5396, 16, 14, 1529527103.952, 64, 0, 1024, 1024, 1024, 1024, 0, 6, 3970, 3962, 3983, 3989, 3993, 3990, 0, 1, 8299, -89.900, 0.000, 21.500, 0.000, 0.000, -3.100, 0.0, , , , , , 96, , , 0, 0, 0
38.5568643, -120.5320523, 8.700, 13:38:24.051, 11, 0.00, 0.44, 97, 0.100, 0.300, 21.400, 2, 100, 100, 29, 23958, -21550, 5234, 5396, 16, 14, 1529527104.052, 55, 0, 1024, 1024, 1024, 1024, 0, 6, 3985, 3985, 4002, 3991, 4017, 4003, 0, 1, 8399, -89.900, 0.000, 21.500, 0.000, 0.000, -3.200, 0.0, , , , , , 96, , , 0, 0, 0
38.5568643, -120.5320523, 9.000, 13:38:24.151, 11, 0.00, 0.45, 97, 0.100, 0.400, 21.600, 2, 100, 100, 29, 23958, -21550, 5234, 5396, 16, 14, 1529527104.152, 55, 0, 1024, 1024, 1024, 1024, 0, 6, 3985, 3985, 4002, 3991, 4017, 4003, 0, 1, 8500, -89.900, 0.000, 21.500, 0.000, 0.000, -3.200, 0.0, , , , , , 96, , , 0, 0, 0
38.5568643, -120.5320523, 9.300, 13:38:24.251, 12, 0.00, 0.44, 97, 0.300, 0.400, 21.700, 2, 100, 100, 29, 23958, -21550, 5234, 5396, 16, 14, 1529527104.252, 42, 0, 1024, 1024, 1024, 1024, 0, 6, 3985, 3985, 4002, 3991, 4017, 4003, 0, 1, 8599, -89.900, 0.000, 21.500, 0.000, 0.000, -3.100, 0.0, , , , , , 96, , , 0, 0, 0
38.5568642, -120.5320522, 9.600, 13:38:24.351, 12, 0.00, 0.43, 97, 0.100, 0.300, 22.000, 2, 100, 100, 29, 23958, -21550, 5234, 5396, 16, 14, 1529527104.352, 46, 0, 1024, 1024, 1024, 1024, 0, 6, 3985, 3985, 4002, 3991, 4017, 4003, 0, 1, 8699, -89.900, 0.000, 21.500, 0.000, 0.000, -3.000, 0.0, , , , , , 96, , , 0, 0, 0
38.5568642, -120.5320520, 10.000, 13:38:24.451, 12, 0.00, 0.42, 97, -0.100, 0.200, 22.100, 2, 100, 100, 29, 23958, -21550, 5234, 5396, 16, 14, 1529527104.452, 31, 0, 1024, 1024, 1024, 1024, 0, 6, 3985, 3985, 4002, 3991, 4017, 4003, 0, 1, 8799, -89.900, 0.000, 21.500, 0.000, 0.000, -3.100, 0.0, , , , , , 96, , , 0, 0, 0
38.5568641, -120.5320519, 10.300, 13:38:24.551, 12, 0.10, 0.41, 97, -0.400, 0.000, 22.200, 2, 100, 100, 29, 23958, -21550, 5234, 5396, 16, 14, 1529527104.552, 47, 0, 1024, 1024, 1024, 1024, 0, 6, 3985, 3985, 4002, 3991, 4017, 4003, 0, 1, 8900, -90.000, 0.000, 21.500, -0.100, 0.000, -3.000, 0.0, , , , , , 96, , , 0, 0, 0
38.5568640, -120.5320518, 10.900, 13:38:24.651, 12, 0.00, 0.40, 97, -0.900, 0.000, 22.400, 2, 100, 100, 29, 23958, -21550, 5234, 5396, 16, 14, 1529527104.652, 12, 0, 1024, 1024, 1024, 1024, 0, 6, 3985, 3985, 4002, 3991, 4017, 4003, 0, 1, 8999, -89.900, 0.000, 21.500, 0.000, 0.000, -3.000, 0.0, , , , , , 96, , , 0, 0, 0
38.5568640, -120.5320517, 11.200, 13:38:24.751, 12, 0.00, 0.40, 97, -0.900, 0.300, 22.500, 2, 100, 100, 29, 23958, -21550, 5234, 5396, 16, 14, 1529527104.752, 16, 0, 1024, 1024, 1024, 1024, 0, 6, 3985, 3985, 4002, 3991, 4017, 4003, 0, 1, 9099, -89.900, 0.000, 21.500, 0.000, 0.000, -3.000, 0.0, , , , , , 96, , , 0, 0, 0
38.5568641, -120.5320516, 11.500, 13:38:24.851, 12, 0.00, 0.41, 97, -1.200, 0.400, 22.500, 2, 100, 100, 29, 23958, -21550, 5234, 5396, 16, 14, 1529527104.852, 44, 0, 1024, 1024, 1024, 1024, 0, 6, 3985, 3985, 4002, 3991, 4017, 4003, 0, 1, 9200, -89.900, 0.000, 21.500, 0.000, 0.000, -2.900, 0.0, , , , , , 96, , , 0, 0, 0
38.5568642, -120.5320515, 11.800, 13:38:24.951, 11, 0.00, 0.41, 97, -1.300, 0.400, 22.400, 2, 100, 100, 29, 23958, -21550, 5234, 5396, 16, 14, 1529527104.951, 31, 0, 1024, 1024, 1024, 1024, 0, 6, 3985, 3985, 4002, 3991, 4017, 4003, 0, 1, 9299, -89.900, 0.000, 21.500, 0.000, 0.000, -3.000, 0.0, , , , , , 96, , , 0, 0, 0
38.5568641, -120.5320515, 12.100, 13:38:25.051, 11, 0.00, 0.41, 97, -1.100, 0.200, 22.200, 2, 100, 100, 29, 24080, -18302, 5234, 5396, 16, 14, 1529527105.052, 10, 0, 1024, 1024, 1024, 1024, 0, 6, 3985, 3985, 4002, 3991, 4017, 4003, 0, 1, 9399, -89.900, 0.000, 21.500, 0.000, 0.000, -3.000, 0.0, , , , , , 96, , , 0, 0, 0
38.5568641, -120.5320515, 12.400, 13:38:25.151, 12, 0.00, 0.41, 97, -1.100, 0.000, 22.200, 2, 100, 100, 29, 24080, -18302, 5234, 5396, 16, 14, 1529527105.152, 13, 0, 1024, 1024, 1024, 1024, 0, 6, 3985, 3985, 4002, 3991, 4017, 4003, 0, 1, 9500, -90.000, 0.000, 21.500, 0.000, 0.000, -3.000, 0.0, , , , , , 96, , , 0, 0, 0
38.5568642, -120.5320515, 12.700, 13:38:25.251, 12, 0.00, 0.41, 97, -1.100, -0.100, 22.100, 2, 100, 100, 29, 24080, -18302, 5234, 5396, 16, 14, 1529527105.252, 29, 0, 1024, 1024, 1024, 1024, 0, 6, 3985, 3985, 4002, 3991, 4017, 4003, 0, 1, 9600, -89.900, 0.000, 21.500, 0.000, 0.000, -2.900, 0.0, , , , , , 96, , , 0, 0, 0
38.5568642, -120.5320515, 12.700, 13:38:25.351, 12, 0.00, 0.41, 97, -1.100, -0.100, 22.100, 2, 100, 100, 29, 24080, -18302, 5234, 5396, 16, 14, 1529527105.351, 128, 0, 1024, 1024, 1024, 1024, 0, 6, 3985, 3985, 4002, 3991, 4017, 4003, 0, 1, 9699, -89.900, 0.000, 21.500, 0.000, 0.000, -2.900, 0.0, , , , , , 96, , , 0, 0, 0
38.5568642, -120.5320514, 13.400, 13:38:25.451, 12, 0.00, 0.41, 97, -1.200, 0.400, 21.800, 2, 100, 100, 29, 24080, -18302, 5234, 5396, 16, 14, 1529527105.451, 21, 0, 1024, 1024, 1024, 1024, 0, 6, 4007, 4003, 4013, 4011, 4027, 4020, 0, 1, 9799, -89.900, 0.000, 21.500, 0.000, 0.000, -2.900, 0.0, , , , , , 96, , , 0, 0, 0
38.5568642, -120.5320514, 13.700, 13:38:25.551, 12, 0.00, 0.41, 97, -1.300, 0.600, 21.600, 2, 100, 100, 29, 24080, -18302, 5234, 5396, 16, 14, 1529527105.551, 9, 0, 1024, 1024, 1024, 1024, 0, 6, 4007, 4003, 4013, 4011, 4027, 4020, 0, 1, 9899, -89.900, 0.000, 21.500, 0.000, 0.000, -2.900, 0.0, , , , , , 96, , , 0, 0, 0
38.5568642, -120.5320513, 14.000, 13:38:25.661, 12, 0.00, 0.41, 97, -1.400, 0.600, 21.600, 2, 100, 100, 29, 24080, -18302, 5234, 5396, 16, 14, 1529527105.661, 1, 0, 1024, 1024, 1024, 1024, 0, 6, 4007, 4003, 4013, 4011, 4027, 4020, 0, 1, 10008, -89.900, 0.000, 21.500, 0.000, 0.000, -2.900, 0.0, , , , , , 96, , , 0, 0, 0
38.5568641, -120.5320512, 14.300, 13:38:25.754, 12, 0.00, 0.40, 97, -1.500, 0.400, 21.700, 2, 100, 100, 29, 24080, -18302, 5234, 5396, 16, 14, 1529527105.754, 3, 0, 1024, 1024, 1024, 1024, 0, 6, 4007, 4003, 4013, 4011, 4027, 4020, 0, 1, 10102, -89.900, 0.000, 21.500, 0.000, 0.000, -2.900, 0.0, , , , , , 96, , , 0, 0, 0
38.5568641, -120.5320512, 14.600, 13:38:25.851, 12, 0.00, 0.40, 97, -1.500, 0.200, 21.800, 2, 100, 100, 29, 24080, -18302, 5234, 5396, 16, 14, 1529527105.851, 1, 0, 1024, 1024, 1024, 1024, 0, 6, 4007, 4003, 4013, 4011, 4027, 4020, 0, 1, 10199, -89.900, 0.000, 21.500, 0.000, 0.000, -2.900, 0.0, , , , , , 96, , , 0, 0, 0
38.5568641, -120.5320512, 14.600, 13:38:25.951, 12, 0.00, 0.40, 97, -1.500, 0.200, 21.800, 2, 100, 100, 29, 24080, -18302, 5234, 5396, 16, 14, 1529527105.952, 101, 0, 1024, 1024, 1024, 1024, 0, 6, 4007, 4003, 4013, 4011, 4027, 4020, 0, 1, 10299, -89.900, 0.000, 21.500, 0.000, 0.000, -2.900, 0.0, , , , , , 96, , , 0, 0, 0
38.5568641, -120.5320512, 14.600, 13:38:26.051, 12, 0.00, 0.40, 97, -1.500, 0.200, 21.800, 2, 100, 100, 29, 24080, -18302, 5234, 5396, 16, 14, 1529527106.052, 201, 0, 1024, 1024, 1024, 1024, 0, 6, 4007, 4003, 4013, 4011, 4027, 4020, 0, 1, 10399, -89.900, 0.000, 21.500, 0.000, 0.000, -2.900, 0.0, , , , , , 96, , , 0, 0, 0
38.5568640, -120.5320511, 15.200, 13:38:26.152, 12, 0.00, 0.39, 97, -1.400, 0.200, 21.700, 2, 100, 97, 29, 24080, -18302, 5234, 5396, 16, 14, 1529527106.152, 84, 0, 1024, 1024, 1024, 1024, 0, 6, 4007, 4003, 4013, 4011, 4027, 4020, 0, 1, 10500, -89.900, 0.000, 21.500, 0.000, 0.000, -2.900, 0.0, , , , , , 96, , , 0, 0, 0
38.5568641, -120.5320511, 15.500, 13:38:26.251, 12, 0.00, 0.39, 97, -1.200, 0.300, 21.700, 2, 100, 97, 29, 24080, -18302, 5234, 5396, 16, 14, 1529527106.252, 86, 0, 1024, 1024, 1024, 1024, 0, 6, 4007, 4003, 4013, 4011, 4027, 4020, 0, 1, 10599, -89.900, 0.000, 21.500, 0.000, 0.000, -2.900, 0.0, , , , , , 96, , , 0, 0, 0
38.5568641, -120.5320512, 15.800, 13:38:26.351, 12, 0.00, 0.40, 97, -0.900, 0.700, 21.700, 2, 100, 97, 29, 24080, -18302, 5234, 5396, 16, 14, 1529527106.351, 75, 0, 1024, 1024, 1024, 1024, 0, 6, 4007, 4003, 4013, 4011, 4027, 4020, 0, 1, 10699, -89.900, 0.000, 21.500, 0.000, 0.000, -2.900, 0.0, , , , , , 96, , , 0, 0, 0
38.5568642, -120.5320512, 16.100, 13:38:26.451, 13, 0.00, 0.42, 97, -0.500, 1.100, 21.700, 2, 100, 97, 29, 24080, -18302, 5234, 5396, 16, 14, 1529527106.451, 71, 0, 1024, 1024, 1024, 1024, 0, 6, 4007, 4003, 4013, 4011, 4027, 4020, 0, 1, 10799, -89.900, 0.000, 21.500, 0.000, 0.000, -2.900, 0.0, , , , , , 96, , , 0, 0, 0
38.5568643, -120.5320513, 16.400, 13:38:26.551, 13, 0.00, 0.43, 97, -0.400, 1.100, 21.600, 2, 100, 97, 29, 24020, -18787, 5234, 5396, 16, 14, 1529527106.552, 71, 0, 1024, 1024, 1024, 1024, 0, 6, 3999, 3993, 4005, 4004, 4014, 4012, 0, 1, 10899, -89.900, 0.000, 21.500, 0.000, 0.000, -2.900, 0.0, , , , , , 96, , , 0, 0, 0
38.5568644, -120.5320513, 16.700, 13:38:26.651, 12, 0.00, 0.43, 97, -0.600, 1.000, 21.500, 2, 100, 93, 29, 24020, -18787, 5234, 5396, 16, 14, 1529527106.651, 73, 0, 1024, 1024, 1024, 1024, 0, 6, 3999, 3993, 4005, 4004, 4014, 4012, 0, 1, 10999, -89.900, 0.000, 21.500, 0.000, 0.000, -2.900, 0.0, , , , , , 96, , , 0, 0, 0
38.5568644, -120.5320514, 17.000, 13:38:26.751, 12, 0.00, 0.44, 97, -0.400, 1.200, 21.400, 2, 100, 93, 29, 24020, -18787, 5234, 5396, 16, 14, 1529527106.751, 75, 0, 1024, 1024, 1024, 1024, 0, 6, 3999, 3993, 4005, 4004, 4014, 4012, 0, 1, 11099, -89.900, 0.000, 21.500, 0.000, 0.000, -3.000, 0.0, , , , , , 96, , , 0, 0, 0
38.5568644, -120.5320514, 17.300, 13:38:26.851, 12, 0.00, 0.44, 97, -0.200, 1.200, 21.400, 2, 100, 93, 29, 24020, -18787, 5234, 5396, 16, 14, 1529527106.851, 35, 0, 1024, 1024, 1024, 1024, 0, 6, 3999, 3993, 4005, 4004, 4014, 4012, 0, 1, 11199, -89.900, 0.000, 21.500, 0.000, 0.000, -3.000, 0.0, , , , , , 96, , , 0, 0, 0
38.5568644, -120.5320514, 17.600, 13:38:26.951, 12, 0.00, 0.43, 97, -0.100, 1.000, 21.500, 2, 100, 93, 29, 24020, -18787, 5234, 5396, 16, 14, 1529527106.951, 52, 0, 1024, 1024, 1024, 1024, 0, 6, 3999, 3993, 4005, 4004, 4014, 4012, 0, 1, 11299, -89.900, 0.000, 21.500, 0.000, 0.000, -3.000, 0.0, , , , , , 96, , , 0, 0, 0
38.5568643, -120.5320515, 17.900, 13:38:27.051, 12, 0.00, 0.43, 97, -0.200, 0.600, 21.600, 2, 100, 93, 29, 24020, -18787, 5234, 5396, 16, 14, 1529527107.052, 60, 0, 1024, 1024, 1024, 1024, 0, 6, 3999, 3993, 4005, 4004, 4014, 4012, 0, 1, 11399, -90.000, 0.000, 21.500, 0.000, 0.000, -3.000, 0.0, , , , , , 96, , , 0, 0, 0
38.5568644, -120.5320516, 18.200, 13:38:27.151, 12, 0.00, 0.44, 97, -0.100, 0.200, 21.700, 2, 100, 93, 29, 24020, -18787, 5234, 5396, 16, 14, 1529527107.152, 52, 0, 1024, 1024, 1024, 1024, 0, 6, 3999, 3993, 4005, 4004, 4014, 4012, 0, 1, 11499, -90.000, 0.000, 21.500, 0.000, 0.000, -2.900, 0.0, , , , , , 96, , , 0, 0, 0
38.5568644, -120.5320516, 18.500, 13:38:27.251, 12, 0.00, 0.44, 97, -0.300, 0.200, 21.800, 2, 100, 93, 29, 24020, -18787, 5234, 5396, 16, 14, 1529527107.252, 62, 0, 1024, 1024, 1024, 1024, 0, 6, 3999, 3993, 4005, 4004, 4014, 4012, 0, 1, 11600, -89.900, 0.000, 21.500, 0.000, 0.000, -2.900, 0.0, , , , , , 96, , , 0, 0, 0
38.5568643, -120.5320517, 18.800, 13:38:27.351, 12, 0.00, 0.43, 97, -0.700, 0.300, 21.800, 2, 100, 93, 29, 24020, -18787, 5234, 5396, 16, 14, 1529527107.352, 52, 0, 1024, 1024, 1024, 1024, 0, 6, 3999, 3993, 4005, 4004, 4014, 4012, 0, 1, 11700, -89.900, 0.000, 21.500, 0.000, 0.000, -2.900, 0.0, , , , , , 96, , , 0, 0, 0
38.5568642, -120.5320517, 19.100, 13:38:27.451, 13, 0.00, 0.42, 97, -1.000, 0.200, 21.800, 2, 100, 93, 29, 24020, -18787, 5234, 5396, 16, 14, 1529527107.452, 47, 0, 1024, 1024, 1024, 1024, 0, 6, 3999, 3993, 4005, 4004, 4014, 4012, 0, 1, 11799, -89.900, 0.000, 21.500, 0.000, 0.000, -2.900, 0.0, , , , , , 96, , , 0, 0, 0
38.5568642, -120.5320516, 19.700, 13:38:27.551, 12, 0.00, 0.41, 97, -1.700, 0.400, 22.000, 2, 100, 96, 29, 23996, -18800, 5234, 5396, 16, 14, 1529527107.551, 33, 0, 1024, 1024, 1024, 1024, 0, 6, 3996, 3986, 3999, 3988, 4011, 4005, 0, 1, 11899, -89.900, 0.000, 21.500, 0.000, 0.000, -2.900, 0.0, , , , , , 96, , , 0, 0, 0
38.5568642, -120.5320515, 20.000, 13:38:27.651, 12, 0.00, 0.41, 97, -1.500, 0.500, 22.100, 2, 100, 96, 29, 23996, -18800, 5234, 5396, 16, 14, 1529527107.651, 16, 0, 1024, 1024, 1024, 1024, 0, 6, 3996, 3986, 3999, 3988, 4011, 4005, 0, 1, 11999, -89.900, 0.000, 21.500, 0.000, 0.000, -2.800, 0.0, , , , , , 96, , , 0, 0, 0
38.5568642, -120.5320515, 20.000, 13:38:27.751, 12, 0.00, 0.41, 97, -1.500, 0.500, 22.100, 2, 100, 96, 29, 23996, -18800, 5234, 5396, 16, 14, 1529527107.752, 116, 0, 1024, 1024, 1024, 1024, 0, 6, 3996, 3986, 3999, 3988, 4011, 4005, 0, 1, 12099, -89.900, 0.000, 21.500, 0.000, 0.000, -2.800, 0.0, , , , , , 96, , , 0, 0, 0
38.5568641, -120.5320516, 20.600, 13:38:27.851, 13, 0.00, 0.41, 97, -1.400, 0.400, 22.100, 2, 100, 96, 29, 23996, -18800, 5234, 5396, 16, 14, 1529527107.851, 22, 0, 1024, 1024, 1024, 1024, 0, 6, 3996, 3986, 3999, 3988, 4011, 4005, 0, 1, 12199, -89.900, 0.000, 21.500, 0.000, 0.000, -2.800, 0.0, , , , , , 96, , , 0, 0, 0
38.5568641, -120.5320517, 20.900, 13:38:27.951, 12, 0.00, 0.40, 97, -1.000, 0.400, 22.100, 2, 100, 96, 29, 23996, -18800, 5234, 5396, 16, 14, 1529527107.951, 3, 0, 1024, 1024, 1024, 1024, 0, 6, 3996, 3986, 3999, 3988, 4011, 4005, 0, 1, 12299, -89.900, 0.000, 21.500, 0.000, 0.000, -2.800, 0.0, , , , , , 96, , , 0, 0, 0
38.5568641, -120.5320517, 21.200, 13:38:28.051, 12, 0.00, 0.40, 97, -0.900, 0.300, 22.000, 2, 100, 99, 29, 23996, -18800, 5234, 5396, 16, 14, 1529527108.051, 21, 0, 1024, 1024, 1024, 1024, 0, 6, 3996, 3986, 3999, 3988, 4011, 4005, 0, 1, 12399, -90.000, 0.000, 21.500, 0.000, 0.000, -2.900, 0.0, , , , , , 96, , , 0, 0, 0
38.5568641, -120.5320517, 21.500, 13:38:28.151, 13, 0.00, 0.41, 97, -1.100, 0.300, 21.900, 2, 100, 99, 29, 23996, -18800, 5234, 5396, 16, 14, 1529527108.151, 22, 0, 1024, 1024, 1024, 1024, 0, 6, 3996, 3986, 3999, 3988, 4011, 4005, 0, 1, 12499, -89.900, 0.000, 21.500, 0.000, 0.000, -2.900, 0.0, , , , , , 96, , , 0, 0, 0
38.5568641, -120.5320517, 21.500, 13:38:28.251, 13, 0.00, 0.41, 97, -1.100, 0.300, 21.900, 2, 100, 99, 29, 23996, -18800, 5234, 5396, 16, 14, 1529527108.251, 122, 0, 1024, 1024, 1024, 1024, 0, 6, 3996, 3986, 3999, 3988, 4011, 4005, 0, 1, 12599, -89.900, 0.000, 21.500, 0.000, 0.000, -2.900, 0.0, , , , , , 96, , , 0, 0, 0
38.5568641, -120.5320517, 21.500, 13:38:28.351, 13, 0.00, 0.41, 97, -1.100, 0.300, 21.900, 2, 100, 99, 29, 23996, -18800, 5234, 5396, 16, 14, 1529527108.351, 222, 0, 1024, 1024, 1024, 1024, 0, 6, 3996, 3986, 3999, 3988, 4011, 4005, 0, 1, 12699, -89.900, 0.000, 21.500, 0.000, 0.000, -2.900, 0.0, , , , , , 96, , , 0, 0, 0
38.5568642, -120.5320518, 22.000, 13:38:28.451, 13, 0.00, 0.42, 97, -0.800, 0.600, 21.900, 2, 100, 99, 29, 23996, -18800, 5234, 5396, 16, 14, 1529527108.451, 97, 0, 1024, 1024, 1024, 1024, 0, 6, 3996, 3986, 3999, 3988, 4011, 4005, 0, 1, 12799, -89.900, 0.000, 21.500, 0.000, 0.000, -2.900, 0.0, , , , , , 96, , , 0, 0, 0
38.5568642, -120.5320519, 22.600, 13:38:28.555, 13, 0.00, 0.42, 97, -0.500, 0.800, 22.000, 2, 100, 98, 29, 24014, -19821, 5234, 5396, 16, 14, 1529527108.555, 4, 0, 1024, 1024, 1024, 1024, 0, 6, 3968, 3960, 4001, 3992, 4012, 3988, 0, 1, 12903, -89.900, 0.000, 21.500, 0.000, 0.000, -2.900, 0.0, , , , , , 96, , , 0, 0, 0
38.5568642, -120.5320519, 22.600, 13:38:28.651, 13, 0.00, 0.42, 97, -0.500, 0.800, 22.000, 2, 100, 98, 29, 24014, -19821, 5234, 5396, 16, 14, 1529527108.652, 101, 0, 1024, 1024, 1024, 1024, 0, 6, 3968, 3960, 4001, 3992, 4012, 3988, 0, 1, 12999, -89.900, 0.000, 21.500, 0.000, 0.000, -2.900, 0.0, , , , , , 96, , , 0, 0, 0
38.5568642, -120.5320519, 22.900, 13:38:28.751, 13, 0.00, 0.43, 97, -0.400, 0.800, 22.100, 2, 100, 98, 29, 24014, -19821, 5234, 5396, 16, 14, 1529527108.751, 89, 0, 1024, 1024, 1024, 1024, 0, 6, 3968, 3960, 4001, 3992, 4012, 3988, 0, 1, 13099, -89.900, 0.000, 21.500, 0.000, 0.000, -2.900, 0.0, , , , , , 96, , , 0, 0, 0
38.5568642, -120.5320520, 23.200, 13:38:28.851, 13, 0.00, 0.43, 97, -0.100, 0.600, 22.000, 2, 100, 98, 29, 24014, -19821, 5234, 5396, 16, 14, 1529527108.851, 79, 0, 1024, 1024, 1024, 1024, 0, 6, 3968, 3960, 4001, 3992, 4012, 3988, 0, 1, 13199, -89.900, 0.000, 21.500, 0.000, 0.000, -3.000, 0.0, , , , , , 96, , , 0, 0, 0
38.5568642, -120.5320520, 23.500, 13:38:28.951, 13, 0.00, 0.43, 97, 0.000, 0.700, 21.800, 2, 100, 98, 29, 24014, -19821, 5234, 5396, 16, 14, 1529527108.951, 71, 0, 1024, 1024, 1024, 1024, 0, 6, 3968, 3960, 4001, 3992, 4012, 3988, 0, 1, 13299, -89.900, 0.000, 21.500, 0.000, 0.000, -3.000, 0.0, , , , , , 96, , , 0, 0, 0
38.5568642, -120.5320521, 23.800, 13:38:29.051, 13, 0.00, 0.43, 97, -0.400, 0.800, 21.600, 2, 100, 98, 29, 24014, -19821, 5234, 5396, 16, 14, 1529527109.051, 71, 0, 1024, 1024, 1024, 1024, 0, 6, 3968, 3960, 4001, 3992, 4012, 3988, 0, 1, 13399, -89.900, 0.000, 21.500, 0.000, 0.000, -3.000, 0.0, , , , , , 96, , , 0, 0, 0
38.5568643, -120.5320521, 24.100, 13:38:29.151, 13, 0.00, 0.44, 97, -0.700, 0.600, 21.400, 2, 100, 99, 29, 24014, -19821, 5234, 5396, 16, 14, 1529527109.151, 71, 0, 1024, 1024, 1024, 1024, 0, 6, 3968, 3960, 4001, 3992, 4012, 3988, 0, 1, 13499, -90.000, 0.000, 21.500, 0.000, 0.000, -3.000, 0.0, , , , , , 96, , , 0, 0, 0
38.5568643, -120.5320521, 24.400, 13:38:29.253, 13, 0.00, 0.44, 97, -1.000, 0.500, 21.400, 2, 100, 99, 29, 24014, -19821, 5234, 5396, 16, 14, 1529527109.254, 80, 0, 1024, 1024, 1024, 1024, 0, 6, 3968, 3960, 4001, 3992, 4012, 3988, 0, 1, 13601, -90.000, 0.000, 21.500, 0.000, 0.000, -3.000, 0.0, , , , , , 96, , , 0, 0, 0
38.5568643, -120.5320520, 24.700, 13:38:29.351, 13, 0.00, 0.43, 97, -1.300, 0.500, 21.500, 2, 100, 99, 29, 24014, -19821, 5234, 5396, 16, 14, 1529527109.351, 54, 0, 1024, 1024, 1024, 1024, 0, 6, 3968, 3960, 4001, 3992, 4012, 3988, 0, 1, 13699, -89.900, 0.000, 21.500, 0.000, 0.000, -3.000, 0.0, , , , , , 96, , , 0, 0, 0
38.5568642, -120.5320519, 25.000, 13:38:29.451, 13, 0.00, 0.43, 97, -1.600, 0.700, 21.600, 2, 100, 99, 29, 24014, -19821, 5234, 5396, 16, 14, 1529527109.451, 51, 0, 1024, 1024, 1024, 1024, 0, 6, 3968, 3960, 4001, 3992, 4012, 3988, 0, 1, 13799, -89.900, 0.000, 21.500, 0.000, 0.000, -2.900, 0.0, , , , , , 96, , , 0, 0, 0
38.5568643, -120.5320519, 25.300, 13:38:29.551, 13, 0.00, 0.43, 97, -1.800, 1.000, 21.700, 2, 100, 99, 29, 23854, -19701, 5234, 5396, 16, 14, 1529527109.551, 30, 0, 1024, 1024, 1024, 1024, 0, 6, 3968, 3967, 3982, 3979, 3988, 3979, 0, 1, 13899, -89.900, 0.000, 21.500, 0.000, 0.000, -2.900, 0.0, , , , , , 96, , , 0, 0, 0
38.5568642, -120.5320518, 25.900, 13:38:29.651, 13, 0.00, 0.43, 97, -1.700, 1.200, 21.800, 2, 100, 98, 29, 23854, -19701, 5234, 5396, 16, 14, 1529527109.651, 55, 0, 1024, 1024, 1024, 1024, 0, 6, 3968, 3967, 3982, 3979, 3988, 3979, 0, 1, 13999, -89.900, 0.000, 21.500, 0.000, 0.000, -2.900, 0.0, , , , , , 96, , , 0, 0, 0
38.5568642, -120.5320518, 25.900, 13:38:29.751, 13, 0.00, 0.43, 97, -1.700, 1.200, 21.800, 2, 100, 98, 29, 23854, -19701, 5234, 5396, 16, 14, 1529527109.751, 155, 0, 1024, 1024, 1024, 1024, 0, 6, 3968, 3967, 3982, 3979, 3988, 3979, 0, 1, 14099, -89.900, 0.000, 21.500, 0.000, 0.000, -2.900, 0.0, , , , , , 96, , , 0, 0, 0
38.5568642, -120.5320517, 26.600, 13:38:29.851, 13, 0.00, 0.42, 97, -1.600, 1.100, 21.900, 2, 100, 98, 29, 23854, -19701, 5234, 5396, 16, 14, 1529527109.851, 19, 0, 1024, 1024, 1024, 1024, 0, 6, 3968, 3967, 3982, 3979, 3988, 3979, 0, 1, 14199, -89.900, 0.000, 21.500, 0.000, 0.000, -3.000, 0.0, , , , , , 96, , , 0, 0, 0
38.5568642, -120.5320517, 26.600, 13:38:29.951, 13, 0.00, 0.42, 97, -1.600, 1.100, 21.900, 2, 100, 98, 29, 23854, -19701, 5234, 5396, 16, 14, 1529527109.951, 119, 0, 1024, 1024, 1024, 1024, 0, 6, 3968, 3967, 3982, 3979, 3988, 3979, 0, 1, 14299, -89.900, 0.000, 21.500, 0.000, 0.000, -3.000, 0.0, , , , , , 96, , , 0, 0, 0
38.5568642, -120.5320517, 27.200, 13:38:30.051, 13, 0.00, 0.41, 97, -1.800, 0.700, 21.900, 2, 100, 99, 29, 23854, -19701, 5234, 5396, 16, 14, 1529527110.051, 18, 0, 1024, 1024, 1024, 1024, 0, 6, 3968, 3967, 3982, 3979, 3988, 3979, 0, 1, 14399, -90.000, 0.000, 21.500, 0.000, 0.000, -2.900, 0.0, , , , , , 96, , , 0, 0, 0
38.5568642, -120.5320517, 27.500, 13:38:30.151, 13, 0.00, 0.41, 97, -1.700, 0.600, 21.900, 2, 100, 99, 29, 23854, -19701, 5234, 5396, 16, 14, 1529527110.151, 26, 0, 1024, 1024, 1024, 1024, 0, 6, 3968, 3967, 3982, 3979, 3988, 3979, 0, 1, 14499, -89.900, 0.000, 21.500, 0.000, 0.000, -2.900, 0.0, , , , , , 96, , , 0, 0, 0
38.5568641, -120.5320517, 27.700, 13:38:30.251, 13, 0.00, 0.41, 97, -1.800, 0.700, 22.000, 2, 100, 99, 29, 23854, -19701, 5234, 5396, 16, 14, 1529527110.251, 18, 0, 1024, 1024, 1024, 1024, 0, 6, 3968, 3967, 3982, 3979, 3988, 3979, 0, 1, 14599, -89.900, 0.000, 21.500, 0.000, 0.000, -2.900, 0.0, , , , , , 96, , , 0, 0, 0
38.5568641, -120.5320518, 28.000, 13:38:30.351, 13, 0.00, 0.41, 97, -1.700, 0.900, 22.000, 2, 100, 99, 29, 23854, -19701, 5234, 5396, 16, 14, 1529527110.351, 20, 0, 1024, 1024, 1024, 1024, 0, 6, 3968, 3967, 3982, 3979, 3988, 3979, 0, 1, 14699, -89.900, 0.000, 21.500, 0.000, 0.000, -2.900, 0.0, , , , , , 96, , , 0, 0, 0
38.5568642, -120.5320518, 28.300, 13:38:30.451, 13, 0.00, 0.42, 97, -1.400, 0.900, 22.100, 2, 100, 99, 29, 23833, -19613, 5234, 5396, 16, 14, 1529527110.452, 26, 0, 1024, 1024, 1024, 1024, 0, 6, 3968, 3967, 3982, 3979, 3988, 3979, 0, 1, 14799, -89.900, 0.000, 21.500, 0.000, 0.000, -2.900, 0.0, , , , , , 96, , , 0, 0, 0
38.5568642, -120.5320519, 28.600, 13:38:30.551, 13, 0.00, 0.42, 97, -1.000, 0.800, 22.100, 2, 100, 98, 29, 23833, -19613, 5234, 5396, 16, 14, 1529527110.551, 21, 0, 1024, 1024, 1024, 1024, 0, 6, 3968, 3967, 3982, 3979, 3988, 3979, 0, 1, 14899, -89.900, 0.000, 21.500, 0.000, 0.000, -2.900, 0.0, , , , , , 96, , , 0, 0, 0
38.5568642, -120.5320520, 28.900, 13:38:30.651, 13, 0.00, 0.42, 97, -0.800, 0.700, 22.000, 2, 100, 98, 29, 23833, -19613, 5234, 5396, 16, 14, 1529527110.651, 21, 0, 1024, 1024, 1024, 1024, 0, 6, 3968, 3967, 3982, 3979, 3988, 3979, 0, 1, 14999, -89.900, 0.000, 21.500, 0.000, 0.000, -3.000, 0.0, , , , , , 96, , , 0, 0, 0
38.5568642, -120.5320520, 28.900, 13:38:30.751, 13, 0.00, 0.42, 97, -0.800, 0.700, 22.000, 2, 100, 98, 29, 23833, -19613, 5234, 5396, 16, 14, 1529527110.751, 121, 0, 1024, 1024, 1024, 1024, 0, 6, 3968, 3967, 3982, 3979, 3988, 3979, 0, 1, 15099, -89.900, 0.000, 21.500, 0.000, 0.000, -3.000, 0.0, , , , , , 96, , , 0, 0, 0
38.5568641, -120.5320521, 29.200, 13:38:30.851, 13, 0.10, 0.42, 97, -0.600, 0.700, 22.000, 2, 100, 98, 29, 23833, -19613, 5234, 5396, 16, 14, 1529527110.851, 81, 0, 1024, 1024, 1024, 1024, 0, 6, 3968, 3967, 3982, 3979, 3988, 3979, 0, 1, 15199, -89.900, 0.000, 21.500, -0.100, 0.000, -3.000, 0.0, , , , , , 96, , , 0, 0, 0
38.5568641, -120.5320521, 29.500, 13:38:30.951, 13, 0.10, 0.42, 97, -0.400, 0.400, 22.100, 2, 100, 98, 29, 23833, -19613, 5234, 5396, 16, 14, 1529527110.951, 74, 0, 1024, 1024, 1024, 1024, 0, 6, 3968, 3967, 3982, 3979, 3988, 3979, 0, 1, 15299, -90.000, 0.000, 21.500, -0.100, 0.000, -3.000, 0.0, , , , , , 96, , , 0, 0, 0
38.5568641, -120.5320522, 29.800, 13:38:31.051, 13, 0.10, 0.42, 97, -0.400, 0.000, 22.100, 2, 100, 98, 29, 23833, -19613, 5234, 5396, 16, 14, 1529527111.051, 87, 0, 1024, 1024, 1024, 1024, 0, 6, 3960, 3959, 3977, 3968, 3979, 3971, 0, 1, 15399, -90.000, 0.000, 21.500, -0.100, 0.000, -3.000, 0.0, , , , , , 96, , , 0, 0, 0
38.5568640, -120.5320522, 30.100, 13:38:31.151, 13, 0.10, 0.41, 97, -0.200, -0.200, 22.000, 2, 100, 97, 29, 23833, -19613, 5234, 5396, 16, 14, 1529527111.151, 78, 0, 1024, 1024, 1024, 1024, 0, 6, 3960, 3959, 3977, 3968, 3979, 3971, 0, 1, 15499, -90.000, 0.000, 21.500, -0.100, 0.000, -3.000, 0.0, , , , , , 96, , , 0, 0, 0
38.5568639, -120.5320522, 30.400, 13:38:31.251, 13, 0.10, 0.40, 97, -0.800, -0.300, 21.900, 2, 100, 97, 29, 23833, -19613, 5234, 5396, 16, 14, 1529527111.251, 63, 0, 1024, 1024, 1024, 1024, 0, 6, 3960, 3959, 3977, 3968, 3979, 3971, 0, 1, 15599, -89.900, 0.000, 21.500, -0.100, 0.000, -2.900, 0.0, , , , , , 96, , , 0, 0, 0
38.5568639, -120.5320523, 30.700, 13:38:31.351, 13, 0.10, 0.40, 97, -1.300, -0.400, 21.800, 2, 100, 97, 29, 23833, -19613, 5234, 5396, 16, 14, 1529527111.351, 81, 0, 1024, 1024, 1024, 1024, 0, 6, 3960, 3959, 3977, 3968, 3979, 3971, 0, 1, 15699, -90.000, 0.000, 21.500, -0.100, 0.000, -3.000, 0.0, , , , , , 96, , , 0, 0, 0
38.5568638, -120.5320523, 31.000, 13:38:31.451, 13, 0.10, 0.39, 97, -1.400, -0.700, 21.700, 2, 100, 97, 29, 23833, -19613, 5234, 5396, 16, 14, 1529527111.451, 71, 0, 1024, 1024, 1024, 1024, 0, 6, 3960, 3959, 3977, 3968, 3979, 3971, 0, 1, 15799, -90.000, 0.000, 21.500, -0.100, 0.000, -3.000, 0.0, , , , , , 96, , , 0, 0, 0
38.5568637, -120.5320523, 31.300, 13:38:31.551, 13, 0.10, 0.38, 97, -1.300, -1.200, 21.700, 2, 100, 97, 29, 23833, -19613, 5234, 5396, 16, 14, 1529527111.551, 63, 0, 1024, 1024, 1024, 1024, 0, 6, 3960, 3959, 3977, 3968, 3979, 3971, 0, 1, 15899, -90.000, 0.000, 21.500, -0.100, 0.000, -2.900, 0.0, , , , , , 96, , , 0, 0, 0
38.5568636, -120.5320523, 31.600, 13:38:31.651, 13, 0.10, 0.37, 97, -1.500, -1.300, 21.700, 2, 100, 94, 29, 23833, -19613, 5234, 5396, 16, 14, 1529527111.651, 53, 0, 1024, 1024, 1024, 1024, 0, 6, 3960, 3959, 3977, 3968, 3979, 3971, 0, 1, 15999, -89.900, 0.000, 21.500, -0.100, 0.000, -3.000, 0.0, , , , , , 96, , , 0, 0, 0
38.5568635, -120.5320523, 31.900, 13:38:31.751, 13, 0.10, 0.36, 97, -1.900, -1.200, 21.800, 2, 100, 94, 29, 23833, -19613, 5234, 5396, 16, 14, 1529527111.751, 61, 0, 1024, 1024, 1024, 1024, 0, 6, 3960, 3959, 3977, 3968, 3979, 3971, 0, 1, 16099, -89.900, 0.000, 21.500, -0.100, 0.000, -3.000, 0.0, , , , , , 96, , , 0, 0, 0
38.5568634, -120.5320523, 32.200, 13:38:31.851, 13, 0.10, 0.35, 97, -2.200, -1.000, 21.800, 2, 100, 94, 29, 23833, -19613, 5234, 5396, 16, 14, 1529527111.851, 50, 0, 1024, 1024, 1024, 1024, 0, 6, 3960, 3959, 3977, 3968, 3979, 3971, 0, 1, 16199, -89.900, 0.000, 21.500, -0.100, 0.000, -3.000, 0.0, , , , , , 96, , , 0, 0, 0
38.5568634, -120.5320524, 32.500, 13:38:31.951, 13, 0.10, 0.35, 97, -1.900, -1.200, 21.800, 2, 100, 94, 29, 23833, -19613, 5234, 5396, 16, 14, 1529527111.951, 35, 0, 1024, 1024, 1024, 1024, 0, 6, 3960, 3959, 3977, 3968, 3979, 3971, 0, 1, 16299, -89.900, 0.000, 21.500, -0.100, 0.000, -3.000, 0.0, , , , , , 96, , , 0, 0, 0
38.5568633, -120.5320524, 33.100, 13:38:32.051, 13, 0.00, 0.35, 97, -1.300, -1.000, 21.800, 2, 100, 94, 29, 23817, -19617, 5180, 5396, 16, 14, 1529527112.051, 44, 0, 1024, 1024, 1024, 1024, 0, 6, 3961, 3954, 3973, 3972, 3994, 3982, 0, 1, 16399, -89.900, 0.000, 21.500, 0.000, 0.000, -3.000, 0.0, , , , , , 96, , , 0, 0, 0
38.5568633, -120.5320525, 33.400, 13:38:32.151, 13, 0.00, 0.35, 97, -1.200, -0.500, 21.700, 2, 100, 96, 29, 23817, -19617, 5180, 5396, 16, 14, 1529527112.151, 29, 0, 1024, 1024, 1024, 1024, 0, 6, 3961, 3954, 3973, 3972, 3994, 3982, 0, 1, 16499, -89.900, 0.000, 21.500, 0.000, 0.000, -3.000, 0.0, , , , , , 96, , , 0, 0, 0
38.5568633, -120.5320525, 33.700, 13:38:32.251, 13, 0.00, 0.35, 97, -1.200, 0.000, 21.700, 2, 100, 96, 29, 23817, -19617, 5180, 5396, 16, 14, 1529527112.251, 31, 0, 1024, 1024, 1024, 1024, 0, 6, 3961, 3954, 3973, 3972, 3994, 3982, 0, 1, 16599, -89.900, 0.000, 21.500, 0.000, 0.000, -3.000, 0.0, , , , , , 96, , , 0, 0, 0
38.5568633, -120.5320524, 34.000, 13:38:32.351, 13, 0.00, 0.35, 97, -1.400, 0.300, 21.700, 2, 100, 96, 29, 23817, -19617, 5180, 5396, 16, 14, 1529527112.351, 33, 0, 1024, 1024, 1024, 1024, 0, 6, 3961, 3954, 3973, 3972, 3994, 3982, 0, 1, 16699, -89.900, 0.000, 21.500, 0.000, 0.000, -3.000, 0.0, , , , , , 96, , , 0, 0, 0
38.5568633, -120.5320524, 34.300, 13:38:32.451, 13, 0.00, 0.35, 97, -1.700, 0.400, 21.700, 2, 100, 96, 29, 23817, -19617, 5180, 5396, 16, 14, 1529527112.451, 13, 0, 1024, 1024, 1024, 1024, 0, 6, 3961, 3954, 3973, 3972, 3994, 3982, 0, 1, 16799, -89.900, 0.000, 21.500, 0.000, 0.000, -3.000, 0.0, , , , , , 96, , , 0, 0, 0
38.5568633, -120.5320524, 34.600, 13:38:32.551, 13, 0.00, 0.34, 97, -1.900, 0.400, 21.800, 2, 100, 98, 29, 23817, -19617, 5180, 5396, 16, 14, 1529527112.551, 29, 0, 1024, 1024, 1024, 1024, 0, 6, 3961, 3954, 3973, 3972, 3994, 3982, 0, 1, 16899, -89.900, 0.000, 21.500, 0.000, 0.000, -3.000, 0.0, , , , , , 96, , , 0, 0, 0
38.5568633, -120.5320523, 34.900, 13:38:32.651, 13, 0.00, 0.34, 97, -1.800, 0.300, 21.900, 2, 100, 98, 29, 23817, -19617, 5180, 5396, 16, 14, 1529527112.651, 7, 0, 1024, 1024, 1024, 1024, 0, 6, 3961, 3954, 3973, 3972, 3994, 3982, 0, 1, 16999, -89.900, 0.000, 21.500, 0.000, 0.000, -3.000, 0.0, , , , , , 96, , , 0, 0, 0
38.5568633, -120.5320523, 34.900, 13:38:32.751, 13, 0.00, 0.34, 97, -1.800, 0.300, 21.900, 2, 100, 98, 29, 23817, -19617, 5180, 5396, 16, 14, 1529527112.751, 107, 0, 1024, 1024, 1024, 1024, 0, 6, 3961, 3954, 3973, 3972, 3994, 3982, 0, 1, 17099, -89.900, 0.000, 21.500, 0.000, 0.000, -3.000, 0.0, , , , , , 96, , , 0, 0, 0
38.5568633, -120.5320522, 35.200, 13:38:32.851, 13, 0.00, 0.34, 97, -1.800, 0.100, 21.900, 2, 100, 98, 29, 23817, -19617, 5180, 5396, 16, 14, 1529527112.851, 95, 0, 1024, 1024, 1024, 1024, 0, 6, 3961, 3954, 3973, 3972, 3994, 3982, 0, 1, 17199, -89.900, 0.000, 21.500, 0.000, 0.000, -3.000, 0.0, , , , , , 96, , , 0, 0, 0
38.5568633, -120.5320522, 35.800, 13:38:32.955, 13, 0.00, 0.34, 96, -1.800, 0.200, 21.800, 2, 100, 98, 30, 23886, -18203, 5180, 5396, 16, 14, 1529527112.955, 2, 0, 1024, 1024, 1024, 1024, 0, 6, 3961, 3954, 3973, 3972, 3994, 3982, 0, 1, 17303, -89.900, 0.000, 21.500, 0.000, 0.000, -3.000, 0.0, , , , , , 96, , , 0, 0, 0
38.5568633, -120.5320522, 35.800, 13:38:33.051, 13, 0.00, 0.34, 96, -1.800, 0.200, 21.800, 2, 100, 98, 30, 23886, -18203, 5180, 5396, 16, 14, 1529527113.051, 98, 0, 1024, 1024, 1024, 1024, 0, 6, 3976, 3968, 3985, 3987, 3994, 3988, 0, 1, 17399, -89.900, 0.000, 21.500, 0.000, 0.000, -3.000, 0.0, , , , , , 96, , , 0, 0, 0
38.5568634, -120.5320521, 36.000, 13:38:33.151, 13, 0.00, 0.34, 96, -1.700, 0.400, 21.700, 2, 100, 97, 30, 23886, -18203, 5180, 5396, 16, 14, 1529527113.151, 79, 0, 1024, 1024, 1024, 1024, 0, 6, 3976, 3968, 3985, 3987, 3994, 3988, 0, 1, 17499, -89.900, 0.000, 21.500, 0.000, 0.000, -2.900, 0.0, , , , , , 96, , , 0, 0, 0
38.5568634, -120.5320521, 36.300, 13:38:33.251, 13, 0.00, 0.34, 96, -1.900, 0.500, 21.600, 2, 100, 97, 30, 23886, -18203, 5180, 5396, 16, 14, 1529527113.251, 89, 0, 1024, 1024, 1024, 1024, 0, 6, 3976, 3968, 3985, 3987, 3994, 3988, 0, 1, 17599, -89.900, 0.000, 21.500, 0.000, 0.000, -2.900, 0.0, , , , , , 96, , , 0, 0, 0
38.5568635, -120.5320521, 36.600, 13:38:33.351, 13, 0.00, 0.35, 96, -1.900, 0.800, 21.600, 2, 100, 97, 30, 23886, -18203, 5180, 5396, 16, 14, 1529527113.351, 96, 0, 1024, 1024, 1024, 1024, 0, 6, 3976, 3968, 3985, 3987, 3994, 3988, 0, 1, 17699, -89.900, 0.000, 21.500, 0.000, 0.000, -3.000, 0.0, , , , , , 96, , , 0, 0, 0
38.5568636, -120.5320521, 36.900, 13:38:33.451, 13, 0.00, 0.36, 96, -1.600, 0.900, 21.600, 2, 100, 97, 30, 23886, -18203, 5180, 5396, 16, 14, 1529527113.451, 87, 0, 1024, 1024, 1024, 1024, 0, 6, 3976, 3968, 3985, 3987, 3994, 3988, 0, 1, 17799, -89.900, 0.000, 21.500, 0.000, 0.000, -3.000, 0.0, , , , , , 96, , , 0, 0, 0
38.5568636, -120.5320520, 37.200, 13:38:33.551, 13, 0.00, 0.37, 96, -1.100, 0.900, 21.600, 2, 100, 97, 30, 23886, -18203, 5180, 5396, 16, 14, 1529527113.551, 78, 0, 1024, 1024, 1024, 1024, 0, 6, 3976, 3968, 3985, 3987, 3994, 3988, 0, 1, 17899, -89.900, 0.000, 21.500, 0.000, 0.000, -3.000, 0.0, , , , , , 96, , , 0, 0, 0
38.5568637, -120.5320520, 37.500, 13:38:33.651, 13, 0.00, 0.37, 96, -1.000, 1.000, 21.500, 2, 100, 97, 30, 23886, -18203, 5180, 5396, 16, 14, 1529527113.651, 64, 0, 1024, 1024, 1024, 1024, 0, 6, 3976, 3968, 3985, 3987, 3994, 3988, 0, 1, 17999, -89.900, 0.000, 21.500, 0.000, 0.000, -3.000, 0.0, , , , , , 96, , , 0, 0, 0
38.5568638, -120.5320520, 37.800, 13:38:33.751, 13, 0.00, 0.38, 96, -1.100, 1.600, 21.400, 2, 100, 97, 30, 23886, -18203, 5180, 5396, 16, 14, 1529527113.751, 79, 0, 1024, 1024, 1024, 1024, 0, 6, 3976, 3968, 3985, 3987, 3994, 3988, 0, 1, 18099, -89.900, 0.000, 21.500, 0.000, 0.000, -3.000, 0.0, , , , , , 96, , , 0, 0, 0
38.5568638, -120.5320520, 37.800, 13:38:33.851, 13, 0.00, 0.38, 96, -1.100, 1.600, 21.400, 2, 100, 97, 30, 23886, -18203, 5180, 5396, 16, 14, 1529527113.851, 179, 0, 1024, 1024, 1024, 1024, 0, 6, 3976, 3968, 3985, 3987, 3994, 3988, 0, 1, 18199, -89.900, 0.000, 21.500, 0.000, 0.000, -3.000, 0.0, , , , , , 96, , , 0, 0, 0
38.5568640, -120.5320518, 38.400, 13:38:33.951, 13, 0.00, 0.40, 96, -1.800, 2.000, 21.600, 2, 100, 97, 30, 23886, -18203, 5180, 5396, 16, 14, 1529527113.951, 61, 0, 1024, 1024, 1024, 1024, 0, 6, 3976, 3968, 3985, 3987, 3994, 3988, 0, 1, 18299, -89.900, 0.000, 21.500, 0.000, 0.000, -2.900, 0.0, , , , , , 96, , , 0, 0, 0
38.5568641, -120.5320516, 39.000, 13:38:34.051, 13, 0.00, 0.41, 96, -2.700, 1.300, 22.000, 2, 100, 97, 30, 23923, -17671, 5180, 5396, 16, 14, 1529527114.051, 34, 0, 1024, 1024, 1024, 1024, 0, 6, 3980, 3970, 3990, 3983, 3997, 3984, 0, 1, 18399, -89.900, 0.000, 21.500, 0.000, 0.000, -2.900, 0.0, , , , , , 96, , , 0, 0, 0
38.5568641, -120.5320516, 39.000, 13:38:34.151, 13, 0.00, 0.41, 96, -2.700, 1.300, 22.000, 2, 100, 96, 30, 23923, -17671, 5180, 5396, 16, 14, 1529527114.151, 134, 0, 1024, 1024, 1024, 1024, 0, 6, 3980, 3970, 3990, 3983, 3997, 3984, 0, 1, 18499, -89.900, 0.000, 21.500, 0.000, 0.000, -2.900, 0.0, , , , , , 96, , , 0, 0, 0
38.5568643, -120.5320516, 39.600, 13:38:34.251, 13, 0.00, 0.42, 96, -1.900, 1.600, 22.100, 2, 100, 96, 30, 23923, -17671, 5180, 5396, 16, 14, 1529527114.251, 46, 0, 1024, 1024, 1024, 1024, 0, 6, 3980, 3970, 3990, 3983, 3997, 3984, 0, 1, 18599, -89.900, 0.000, 21.500, 0.000, 0.000, -3.000, 0.0, , , , , , 96, , , 0, 0, 0
38.5568643, -120.5320516, 39.600, 13:38:34.351, 13, 0.00, 0.42, 96, -1.900, 1.600, 22.100, 2, 100, 96, 30, 23923, -17671, 5180, 5396, 16, 14, 1529527114.351, 146, 0, 1024, 1024, 1024, 1024, 0, 6, 3980, 3970, 3990, 3983, 3997, 3984, 0, 1, 18699, -89.900, 0.000, 21.500, 0.000, 0.000, -3.000, 0.0, , , , , , 96, , , 0, 0, 0
38.5568645, -120.5320516, 40.100, 13:38:34.451, 13, 0.00, 0.45, 96, -0.800, 2.100, 21.800, 2, 100, 96, 30, 23923, -17671, 5180, 5396, 16, 14, 1529527114.451, 17, 0, 1024, 1024, 1024, 1024, 0, 6, 3980, 3970, 3990, 3983, 3997, 3984, 0, 1, 18799, -89.900, 0.000, 21.500, 0.000, 0.000, -2.900, 0.0, , , , , , 96, , , 0, 0, 0
38.5568646, -120.5320516, 40.400, 13:38:34.551, 13, 0.00, 0.47, 96, -0.300, 2.400, 21.700, 2, 100, 96, 30, 23923, -17671, 5180, 5396, 16, 14, 1529527114.551, 36, 0, 1024, 1024, 1024, 1024, 0, 6, 3980, 3970, 3990, 3983, 3997, 3984, 0, 1, 18899, -89.900, 0.000, 21.500, 0.000, 0.000, -3.000, 0.0, , , , , , 96, , , 0, 0, 0
38.5568648, -120.5320517, 40.700, 13:38:34.651, 13, 0.00, 0.48, 96, -0.200, 2.900, 21.800, 2, 100, 96, 30, 23923, -17671, 5180, 5396, 16, 14, 1529527114.651, 18, 0, 1024, 1024, 1024, 1024, 0, 6, 3980, 3970, 3990, 3983, 3997, 3984, 0, 1, 18999, -89.900, 0.000, 21.500, 0.000, 0.000, -3.000, 0.0, , , , , , 96, , , 0, 0, 0
38.5568650, -120.5320517, 41.000, 13:38:34.751, 13, 0.00, 0.50, 96, -0.200, 3.200, 21.900, 2, 100, 96, 30, 23923, -17671, 5180, 5396, 16, 14, 1529527114.751, 20, 0, 1024, 1024, 1024, 1024, 0, 6, 3980, 3970, 3990, 3983, 3997, 3984, 0, 1, 19099, -89.900, 0.000, 21.500, 0.000, 0.000, -3.100, 0.0, , , , , , 96, , , 0, 0, 0
38.5568651, -120.5320518, 41.300, 13:38:34.851, 13, 0.00, 0.52, 96, -0.300, 3.400, 22.100, 2, 100, 96, 30, 23923, -17671, 5180, 5396, 16, 14, 1529527114.851, 22, 0, 1024, 1024, 1024, 1024, 0, 6, 3980, 3970, 3990, 3983, 3997, 3984, 0, 1, 19199, -89.900, 0.000, 21.500, 0.000, 0.000, -3.100, 0.0, , , , , , 96, , , 0, 0, 0
38.5568652, -120.5320518, 41.600, 13:38:34.951, 13, 0.00, 0.53, 96, -0.200, 3.500, 22.200, 2, 100, 96, 30, 23864, -18646, 5180, 5396, 16, 14, 1529527114.951, 9, 0, 1024, 1024, 1024, 1024, 0, 6, 3967, 3947, 3967, 3965, 3978, 3982, 0, 1, 19299, -89.900, 0.000, 21.500, 0.000, 0.000, -3.100, 0.0, , , , , , 96, , , 0, 0, 0
38.5568653, -120.5320519, 41.900, 13:38:35.054, 13, 0.00, 0.54, 96, -0.100, 3.500, 22.200, 2, 100, 95, 30, 23864, -18646, 5180, 5396, 16, 14, 1529527115.054, 6, 0, 1024, 1024, 1024, 1024, 0, 6, 3967, 3947, 3967, 3965, 3978, 3982, 0, 1, 19402, -89.900, 0.000, 21.500, 0.000, 0.000, -3.100, 0.0, , , , , , 96, , , 0, 0, 0
38.5568654, -120.5320519, 42.300, 13:38:35.151, 13, 0.00, 0.55, 96, -0.100, 3.400, 22.200, 2, 100, 95, 30, 23864, -18646, 5180, 5396, 16, 14, 1529527115.151, 3, 0, 1024, 1024, 1024, 1024, 0, 6, 3967, 3947, 3967, 3965, 3978, 3982, 0, 1, 19499, -89.900, 0.000, 21.500, 0.000, 0.000, -3.000, 0.0, , , , , , 96, , , 0, 0, 0
38.5568654, -120.5320519, 42.300, 13:38:35.251, 13, 0.00, 0.55, 96, -0.100, 3.400, 22.200, 2, 100, 95, 30, 23864, -18646, 5180, 5396, 16, 14, 1529527115.251, 103, 0, 1024, 1024, 1024, 1024, 0, 6, 3967, 3947, 3967, 3965, 3978, 3982, 0, 1, 19599, -89.900, 0.000, 21.500, 0.000, 0.000, -3.000, 0.0, , , , , , 96, , , 0, 0, 0
38.5568655, -120.5320519, 42.600, 13:38:35.351, 13, 0.00, 0.57, 96, 0.000, 3.200, 22.100, 2, 100, 95, 30, 23864, -18646, 5180, 5396, 16, 14, 1529527115.351, 91, 0, 1024, 1024, 1024, 1024, 0, 6, 3967, 3947, 3967, 3965, 3978, 3982, 0, 1, 19699, -89.900, 0.000, 21.500, 0.000, 0.000, -3.000, 0.0, , , , , , 96, , , 0, 0, 0
38.5568656, -120.5320519, 42.900, 13:38:35.451, 13, 0.00, 0.58, 96, 0.000, 3.100, 22.000, 2, 100, 95, 30, 23864, -18646, 5180, 5396, 16, 14, 1529527115.451, 73, 0, 1024, 1024, 1024, 1024, 0, 6, 3967, 3947, 3967, 3965, 3978, 3982, 0, 1, 19799, -89.900, 0.000, 21.500, 0.000, 0.000, -3.000, 0.0, , , , , , 96, , , 0, 0, 0
38.5568657, -120.5320519, 43.200, 13:38:35.551, 13, 0.00, 0.58, 96, -0.200, 2.800, 22.000, 2, 100, 95, 30, 23864, -18646, 5180, 5396, 16, 14, 1529527115.551, 75, 0, 1024, 1024, 1024, 1024, 0, 6, 3967, 3947, 3967, 3965, 3978, 3982, 0, 1, 19899, -89.900, 0.000, 21.500, 0.000, 0.000, -3.000, 0.0, , , , , , 96, , , 0, 0, 0
38.5568658, -120.5320519, 43.500, 13:38:35.651, 13, 0.00, 0.59, 96, -0.400, 3.400, 21.900, 2, 100, 97, 30, 23864, -18646, 5180, 5396, 16, 14, 1529527115.651, 76, 0, 1024, 1024, 1024, 1024, 0, 6, 3967, 3947, 3967, 3965, 3978, 3982, 0, 1, 19999, -89.900, 0.000, 21.500, 0.000, 0.000, -3.000, 0.0, , , , , , 96, , , 0, 0, 0
38.5568659, -120.5320519, 43.800, 13:38:35.751, 13, 0.00, 0.61, 96, -0.500, 3.800, 21.800, 2, 100, 97, 30, 23864, -18646, 5180, 5396, 16, 14, 1529527115.751, 68, 0, 1024, 1024, 1024, 1024, 0, 6, 3967, 3947, 3967, 3965, 3978, 3982, 0, 1, 20099, -89.900, 0.000, 21.500, 0.000, 0.000, -3.100, 0.0, , , , , , 96, , , 0, 0, 0
38.5568660, -120.5320519, 44.100, 13:38:35.851, 13, 0.00, 0.62, 96, -0.500, 4.100, 21.700, 2, 100, 97, 30, 23864, -18646, 5180, 5396, 16, 14, 1529527115.851, 56, 0, 1024, 1024, 1024, 1024, 0, 6, 3967, 3947, 3967, 3965, 3978, 3982, 0, 1, 20199, -89.900, 0.000, 21.500, 0.000, 0.000, -3.000, 0.0, , , , , , 96, , , 0, 0, 0
38.5568661, -120.5320519, 44.500, 13:38:35.951, 13, 0.00, 0.63, 96, -0.400, 4.400, 21.700, 2, 100, 97, 30, 23864, -18646, 5180, 5396, 16, 14, 1529527115.951, 73, 0, 1024, 1024, 1024, 1024, 0, 6, 3967, 3947, 3967, 3965, 3978, 3982, 0, 1, 20299, -89.900, 0.000, 21.500, 0.000, 0.000, -3.000, 0.0, , , , , , 96, , , 0, 0, 0
38.5568662, -120.5320519, 44.800, 13:38:36.051, 13, 0.00, 0.64, 96, -0.400, 4.700, 21.700, 2, 100, 97, 30, 23787, -19460, 5180, 5396, 16, 14, 1529527116.051, 74, 0, 1024, 1024, 1024, 1024, 0, 6, 3967, 3947, 3967, 3965, 3978, 3982, 0, 1, 20399, -89.900, 0.000, 21.500, 0.000, 0.000, -3.000, 0.0, , , , , , 96, , , 0, 0, 0
38.5568664, -120.5320519, 45.100, 13:38:36.151, 13, 0.00, 0.66, 96, -0.500, 4.800, 21.700, 2, 100, 97, 30, 23787, -19460, 5180, 5396, 16, 14, 1529527116.151, 56, 0, 1024, 1024, 1024, 1024, 0, 6, 3967, 3947, 3967, 3965, 3978, 3982, 0, 1, 20499, -89.900, 0.000, 21.500, 0.000, 0.000, -2.900, 0.0, , , , , , 96, , , 0, 0, 0
38.5568665, -120.5320519, 45.400, 13:38:36.251, 13, 0.00, 0.67, 96, -0.400, 5.100, 21.700, 2, 100, 97, 30, 23787, -19460, 5180, 5396, 16, 14, 1529527116.251, 65, 0, 1024, 1024, 1024, 1024, 0, 6, 3967, 3947, 3967, 3965, 3978, 3982, 0, 1, 20599, -89.900, 0.000, 21.500, 0.000, 0.000, -2.900, 0.0, , , , , , 96, , , 0, 0, 0
38.5568665, -120.5320518, 45.700, 13:38:36.351, 13, 0.00, 0.67, 96, -0.400, 5.200, 21.700, 2, 100, 97, 30, 23787, -19460, 5180, 5396, 16, 14, 1529527116.351, 68, 0, 1024, 1024, 1024, 1024, 0, 6, 3967, 3947, 3967, 3965, 3978, 3982, 0, 1, 20699, -89.900, 0.000, 21.500, 0.000, 0.000, -2.900, 0.0, , , , , , 96, , , 0, 0, 0
38.5568666, -120.5320518, 46.000, 13:38:36.451, 13, 0.00, 0.68, 96, -0.600, 5.100, 21.600, 2, 100, 97, 30, 23787, -19460, 5180, 5396, 16, 14, 1529527116.451, 50, 0, 1024, 1024, 1024, 1024, 0, 6, 3967, 3947, 3967, 3965, 3978, 3982, 0, 1, 20799, -89.900, 0.000, 21.500, 0.000, 0.000, -3.000, 0.0, , , , , , 96, , , 0, 0, 0
38.5568666, -120.5320518, 46.300, 13:38:36.551, 13, 0.00, 0.68, 96, -0.700, 4.900, 21.500, 2, 100, 97, 30, 23787, -19460, 5180, 5396, 16, 14, 1529527116.551, 56, 0, 1024, 1024, 1024, 1024, 0, 6, 3952, 3955, 3962, 3960, 3975, 3982, 0, 1, 20899, -89.900, 0.000, 21.500, 0.000, 0.000, -3.000, 0.0, , , , , , 96, , , 0, 0, 0
38.5568666, -120.5320518, 46.600, 13:38:36.651, 13, 0.10, 0.68, 96, -0.700, 4.600, 21.500, 2, 100, 98, 30, 23787, -19460, 5180, 5396, 16, 14, 1529527116.651, 56, 0, 1024, 1024, 1024, 1024, 0, 6, 3952, 3955, 3962, 3960, 3975, 3982, 0, 1, 20999, -90.000, 0.000, 21.500, -0.100, 0.000, -3.000, 0.0, , , , , , 96, , , 0, 0, 0
38.5568666, -120.5320519, 47.200, 13:38:36.751, 13, 0.10, 0.69, 96, -0.700, 4.100, 21.700, 2, 100, 98, 30, 23787, -19460, 5180, 5396, 16, 14, 1529527116.751, 35, 0, 1024, 1024, 1024, 1024, 0, 6, 3952, 3955, 3962, 3960, 3975, 3982, 0, 1, 21099, -89.900, 0.000, 21.500, -0.100, 0.000, -3.000, 0.0, , , , , , 96, , , 0, 0, 0
38.5568666, -120.5320520, 47.600, 13:38:36.851, 13, 0.10, 0.68, 96, -0.700, 4.000, 21.800, 2, 100, 98, 30, 23787, -19460, 5180, 5396, 16, 14, 1529527116.851, 30, 0, 1024, 1024, 1024, 1024, 0, 6, 3952, 3955, 3962, 3960, 3975, 3982, 0, 1, 21199, -90.000, 0.000, 21.500, -0.100, 0.000, -3.000, 0.0, , , , , , 96, , , 0, 0, 0
