Latitude, Longitude, Altitude (m), Time, Sats, Speed (m/s), Range (m), Battery (%), Roll (deg), Pitch (deg), Yaw (deg), Images, HD Signal (%), RC Signal (%), Battery Temp (C), Battery Voltage (mV), Battery Current (mA), Battery Energy (mAh), Battery Capacity (mAh), Battery Discharges, flyState, timestamp (Unix), LastUpdate (ms), radioChannel, Rc_elevator, Rc_aileron, Rc_throttle, Rc_rudder, Rc_gyro, Dronetype, Battery_Cell1 (mV), Battery_Cell2 (mV), Battery_Cell3 (mV), Battery_Cell4 (mV), Battery_Cell5 (mV), Battery_Cell6 (mV), Video, isFlying, elapsedTime (ms), gimbalPitch (deg), gimbalRoll (deg), gimbalYaw (deg), VelocityX (m/s), VelocityY (m/s), VelocityZ (m/s), GroundSmear (cm), App Version, Aircraft Name, Aircraft Firmware, Aircraft Serial Number, Battery Serial Number, Battery Lifetime (%), App_Tip, App_Warning, CurrentFlightStartingIndex, CurrentFlightLastVisitedWaypoint, PreviousFlightEndingWaypointIndex
37.3533331, -119.5420188, 0.000, 10:02:49.627, 17, 0.00, 0.06, 92, 0.600, 0.200, -88.800, 382, 100, 100, 22, 24776, -3139, 4781, 5197, 13, 11, 1528822969.627, 72, 0, 1024, 1024, 1024, 1024, 0, 6, 4110, 4122, 4088, 4115, 4113, 4108, 0, 1, 3301, -89.900, 0.000, -90.500, 0.000, 0.000, -0.200, 0.0, MapPilot_2.8.1_04242018, Dendroctonus I, 1.3.1.00, 041DDC1887, 1058171200154, 97, DJI_0382.jpg, Starting Mission from Lat/Long: 37.35334/-119.54202 Camera: Zenmuse X3 - Overlap: 90/90 - Active Connection: No, 13, 13, 13
37.3533332, -119.5420188, 0.000, 10:02:49.726, 17, 0.00, 0.05, 92, 0.400, 0.000, -88.700, 382, 100, 100, 22, 24776, -3139, 4781, 5197, 13, 11, 1528822969.727, 89, 0, 1024, 1024, 1024, 1024, 0, 6, 4110, 4122, 4088, 4115, 4113, 4108, 0, 1, 3400, -89.900, 0.000, -90.500, 0.000, 0.000, -0.300, 0.0, , , , , , 97, , , 13, 13, 13
37.3533332, -119.5420187, 0.000, 10:02:49.827, 17, 0.00, 0.04, 92, 0.000, -0.100, -88.700, 382, 100, 100, 22, 24776, -3139, 4781, 5197, 13, 11, 1528822969.827, 69, 0, 1024, 1024, 1024, 1024, 0, 6, 4110, 4122, 4088, 4115, 4113, 4108, 0, 1, 3501, -89.900, 0.000, -90.500, 0.000, 0.000, -0.400, 0.0, , , , , , 97, , , 13, 13, 13
37.3533333, -119.5420187, 0.100, 10:02:49.927, 17, 0.00, 0.04, 92, 0.000, 0.000, -88.700, 382, 100, 100, 22, 24776, -3139, 4781, 5197, 13, 11, 1528822969.927, 85, 0, 1024, 1024, 1024, 1024, 0, 6, 4110, 4122, 4088, 4115, 4113, 4108, 0, 1, 3601, -89.900, 0.000, -90.500, 0.000, 0.000, -0.400, 0.0, , , , , , 97, , , 13, 13, 13
37.3533333, -119.5420187, 0.100, 10:02:50.027, 16, 0.00, 0.04, 92, 0.000, 0.000, -88.800, 382, 100, 100, 22, 24776, -3139, 4781, 5197, 13, 11, 1528822970.027, 89, 0, 1024, 1024, 1024, 1024, 0, 6, 4110, 4122, 4088, 4115, 4113, 4108, 0, 1, 3701, -89.900, 0.000, -90.400, 0.000, 0.000, -0.400, 0.0, , , , , , 97, , , 13, 13, 13
37.3533334, -119.5420187, 0.200, 10:02:50.127, 16, 0.00, 0.04, 92, 0.200, -0.100, -88.800, 382, 100, 100, 22, 24776, -3139, 4781, 5197, 13, 11, 1528822970.127, 70, 0, 1024, 1024, 1024, 1024, 0, 6, 4110, 4122, 4088, 4115, 4113, 4108, 0, 1, 3801, -90.000, 0.000, -90.400, 0.000, 0.000, -0.400, 0.0, , , , , , 97, , , 13, 13, 13
37.3533335, -119.5420187, 0.200, 10:02:50.226, 17, 0.00, 0.04, 92, -0.100, 0.000, -88.900, 382, 100, 100, 22, 24776, -3139, 4781, 5197, 13, 11, 1528822970.227, 76, 0, 1024, 1024, 1024, 1024, 0, 6, 4110, 4122, 4088, 4115, 4113, 4108, 0, 1, 3900, -89.900, 0.000, -90.400, 0.000, 0.000, -0.400, 0.0, , , , , , 97, , , 13, 13, 13
37.3533335, -119.5420187, 0.300, 10:02:50.327, 17, 0.00, 0.04, 92, -0.700, 0.100, -89.000, 382, 100, 100, 22, 24776, -3139, 4781, 5197, 13, 11, 1528822970.327, 55, 0, 1024, 1024, 1024, 1024, 0, 6, 4110, 4122, 4088, 4115, 4113, 4108, 0, 1, 4001, -89.900, 0.000, -90.400, 0.000, 0.000, -0.400, 0.0, , , , , , 97, , , 13, 13, 13
37.3533336, -119.5420187, 0.300, 10:02:50.427, 17, 0.00, 0.05, 92, -0.900, 0.200, -89.100, 382, 100, 100, 22, 24776, -3139, 4781, 5197, 13, 11, 1528822970.427, 60, 0, 1024, 1024, 1024, 1024, 0, 6, 4110, 4122, 4088, 4115, 4113, 4108, 0, 1, 4101, -89.900, 0.000, -90.300, 0.000, 0.000, -0.400, 0.0, , , , , , 97, , , 13, 13, 13
37.3533336, -119.5420187, 0.400, 10:02:50.527, 17, 0.00, 0.05, 92, -1.000, 0.100, -89.100, 382, 100, 100, 22, 23619, -14645, 4781, 5197, 13, 11, 1528822970.527, 52, 0, 1024, 1024, 1024, 1024, 0, 6, 3948, 3892, 3893, 3879, 3860, 3902, 0, 1, 4201, -89.900, 0.000, -90.300, 0.000, 0.000, -0.400, 0.0, , , , , , 97, , , 13, 13, 13
37.3533337, -119.5420188, 0.400, 10:02:50.627, 17, 0.00, 0.06, 92, -0.900, 0.100, -89.100, 382, 100, 100, 22, 23619, -14645, 4781, 5197, 13, 11, 1528822970.627, 52, 0, 1024, 1024, 1024, 1024, 0, 6, 3948, 3892, 3893, 3879, 3860, 3902, 0, 1, 4301, -89.900, 0.000, -90.300, 0.000, 0.000, -0.400, 0.0, , , , , , 97, , , 13, 13, 13
37.3533337, -119.5420188, 0.500, 10:02:50.727, 17, 0.00, 0.06, 92, -0.700, 0.200, -89.200, 382, 100, 100, 22, 23619, -14645, 4781, 5197, 13, 11, 1528822970.727, 51, 0, 1024, 1024, 1024, 1024, 0, 6, 3948, 3892, 3893, 3879, 3860, 3902, 0, 1, 4400, -89.900, 0.000, -90.300, 0.000, 0.000, -0.400, 0.0, , , , , , 97, , , 13, 13, 13
37.3533337, -119.5420188, 0.500, 10:02:50.827, 17, 0.00, 0.06, 92, -0.800, 0.200, -89.200, 382, 100, 100, 22, 23619, -14645, 4781, 5197, 13, 11, 1528822970.827, 52, 0, 1024, 1024, 1024, 1024, 0, 6, 3948, 3892, 3893, 3879, 3860, 3902, 0, 1, 4500, -89.900, 0.000, -90.300, 0.000, 0.000, -0.400, 0.0, , , , , , 97, , , 13, 13, 13
37.3533337, -119.5420188, 0.600, 10:02:50.927, 17, 0.00, 0.06, 92, -0.800, 0.100, -89.300, 382, 100, 100, 22, 23619, -14645, 4781, 5197, 13, 11, 1528822970.928, 56, 0, 1024, 1024, 1024, 1024, 0, 6, 3948, 3892, 3893, 3879, 3860, 3902, 0, 1, 4601, -89.900, 0.000, -90.200, 0.000, 0.000, -0.400, 0.0, , , , , , 97, , , 13, 13, 13
37.3533337, -119.5420188, 0.600, 10:02:51.027, 17, 0.00, 0.07, 92, -0.800, 0.000, -89.300, 382, 100, 100, 22, 23619, -14645, 4781, 5197, 13, 11, 1528822971.028, 45, 0, 1024, 1024, 1024, 1024, 0, 6, 3948, 3892, 3893, 3879, 3860, 3902, 0, 1, 4701, -89.900, 0.000, -90.200, 0.000, 0.000, -0.400, 0.0, , , , , , 97, , , 13, 13, 13
37.3533337, -119.5420189, 0.700, 10:02:51.127, 16, 0.00, 0.07, 92, -0.200, 0.200, -89.300, 382, 100, 100, 22, 23619, -14645, 4781, 5197, 13, 11, 1528822971.127, 31, 0, 1024, 1024, 1024, 1024, 0, 6, 3948, 3892, 3893, 3879, 3860, 3902, 0, 1, 4801, -89.900, 0.000, -90.200, 0.000, 0.000, -0.400, 0.0, , , , , , 97, , , 13, 13, 13
37.3533336, -119.5420190, 0.700, 10:02:51.226, 16, 0.00, 0.07, 92, 0.000, 0.300, -89.300, 382, 100, 100, 22, 23619, -14645, 4781, 5197, 13, 11, 1528822971.227, 45, 0, 1024, 1024, 1024, 1024, 0, 6, 3948, 3892, 3893, 3879, 3860, 3902, 0, 1, 4900, -89.900, 0.000, -90.200, 0.000, 0.000, -0.500, 0.0, , , , , , 97, , , 13, 13, 13
37.3533336, -119.5420190, 0.700, 10:02:51.327, 16, 0.00, 0.07, 92, 0.000, 0.300, -89.300, 382, 100, 100, 22, 23619, -14645, 4781, 5197, 13, 11, 1528822971.327, 146, 0, 1024, 1024, 1024, 1024, 0, 6, 3948, 3892, 3893, 3879, 3860, 3902, 0, 1, 5001, -89.900, 0.000, -90.200, 0.000, 0.000, -0.500, 0.0, , , , , , 97, , , 13, 13, 13
37.3533336, -119.5420190, 0.900, 10:02:51.427, 17, 0.00, 0.07, 92, 0.100, 0.300, -89.200, 382, 100, 100, 22, 23619, -14645, 4781, 5197, 13, 11, 1528822971.427, 26, 0, 1024, 1024, 1024, 1024, 0, 6, 3948, 3892, 3893, 3879, 3860, 3902, 0, 1, 5101, -89.900, 0.000, -90.200, 0.000, 0.000, -0.500, 0.0, , , , , , 97, , , 13, 13, 13
37.3533336, -119.5420190, 0.900, 10:02:51.527, 17, 0.00, 0.07, 92, 0.100, 0.300, -89.200, 382, 100, 100, 22, 23119, -17320, 4781, 5197, 13, 11, 1528822971.527, 126, 0, 1024, 1024, 1024, 1024, 0, 6, 3948, 3892, 3893, 3879, 3860, 3902, 0, 1, 5201, -89.900, 0.000, -90.100, 0.000, 0.000, -0.500, 0.0, , , , , , 97, , , 13, 13, 13
37.3533335, -119.5420190, 1.000, 10:02:51.627, 17, 0.00, 0.07, 92, 0.200, 0.200, -89.100, 382, 100, 100, 22, 23119, -17320, 4781, 5197, 13, 14, 1528822971.627, 17, 0, 1024, 1024, 1024, 1024, 0, 6, 3948, 3892, 3893, 3879, 3860, 3902, 0, 1, 5301, -89.900, 0.000, -90.100, 0.000, 0.000, -0.400, 0.0, , , , , , 97, , , 13, 13, 13
37.3533335, -119.5420190, 1.000, 10:02:51.726, 17, 0.00, 0.07, 92, 0.500, 0.200, -89.100, 382, 100, 100, 22, 23119, -17320, 4781, 5197, 13, 14, 1528822971.727, 11, 0, 1024, 1024, 1024, 1024, 0, 6, 3948, 3892, 3893, 3879, 3860, 3902, 0, 1, 5400, -89.900, 0.000, -90.100, 0.000, 0.000, -0.300, 0.0, , , , , , 97, , , 13, 13, 13
37.3533334, -119.5420191, 1.000, 10:02:51.827, 17, 0.00, 0.07, 92, 0.600, 0.300, -89.200, 382, 100, 100, 22, 23119, -17320, 4781, 5197, 13, 14, 1528822971.827, 29, 0, 1024, 1024, 1024, 1024, 0, 6, 3948, 3892, 3893, 3879, 3860, 3902, 0, 1, 5501, -89.900, 0.000, -90.100, 0.000, 0.000, -0.300, 0.0, , , , , , 97, , , 13, 13, 13
37.3533334, -119.5420191, 1.100, 10:02:51.927, 17, 0.00, 0.07, 92, 0.400, 0.300, -89.200, 382, 100, 100, 22, 23119, -17320, 4781, 5197, 13, 14, 1528822971.927, 18, 0, 1024, 1024, 1024, 1024, 0, 6, 3948, 3892, 3893, 3879, 3860, 3902, 0, 1, 5601, -89.900, 0.000, -90.100, 0.000, 0.000, -0.300, 0.0, , , , , , 97, , , 13, 13, 13
37.3533334, -119.5420192, 1.100, 10:02:52.027, 17, 0.00, 0.08, 92, 0.000, 0.300, -89.100, 382, 100, 100, 22, 23119, -17320, 4781, 5197, 13, 14, 1528822972.028, 20, 0, 1024, 1024, 1024, 1024, 0, 6, 3847, 3843, 3854, 3839, 3835, 3855, 0, 1, 5701, -89.900, 0.000, -90.100, 0.000, 0.000, -0.400, 0.0, , , , , , 97, , , 13, 13, 13
37.3533334, -119.5420192, 1.100, 10:02:52.127, 17, 0.00, 0.08, 92, 0.000, 0.300, -89.100, 382, 100, 100, 22, 23119, -17320, 4781, 5197, 13, 14, 1528822972.127, 119, 0, 1024, 1024, 1024, 1024, 0, 6, 3847, 3843, 3854, 3839, 3835, 3855, 0, 1, 5801, -89.900, 0.000, -90.100, 0.000, 0.000, -0.400, 0.0, , , , , , 97, , , 13, 13, 13
37.3533333, -119.5420193, 1.200, 10:02:52.227, 17, 0.00, 0.09, 92, -0.100, 0.400, -89.000, 382, 100, 100, 22, 23119, -17320, 4781, 5197, 13, 14, 1528822972.227, 4, 0, 1024, 1024, 1024, 1024, 0, 6, 3847, 3843, 3854, 3839, 3835, 3855, 0, 1, 5900, -89.900, 0.000, -90.100, 0.000, 0.000, -0.700, 0.0, , , , , , 97, , , 13, 13, 13
37.3533332, -119.5420193, 1.300, 10:02:52.334, 17, 0.00, 0.09, 92, 0.000, 0.500, -88.900, 382, 100, 100, 22, 23119, -17320, 4781, 5197, 13, 14, 1528822972.334, 2, 0, 1024, 1024, 1024, 1024, 0, 6, 3847, 3843, 3854, 3839, 3835, 3855, 0, 1, 6007, -89.900, 0.000, -90.100, 0.000, 0.000, -0.900, 0.0, , , , , , 97, , , 13, 13, 13
37.3533332, -119.5420193, 1.300, 10:02:52.427, 17, 0.00, 0.09, 92, 0.000, 0.500, -88.900, 382, 100, 100, 22, 23119, -17320, 4781, 5197, 13, 14, 1528822972.427, 95, 0, 1024, 1024, 1024, 1024, 0, 6, 3847, 3843, 3854, 3839, 3835, 3855, 0, 1, 6100, -89.900, 0.000, -90.100, 0.000, 0.000, -0.900, 0.0, , , , , , 97, , , 13, 13, 13
37.3533331, -119.5420194, 1.400, 10:02:52.527, 17, 0.00, 0.10, 92, 0.300, 0.400, -88.900, 382, 100, 100, 23, 23119, -17320, 4781, 5197, 13, 14, 1528822972.527, 70, 0, 1024, 1024, 1024, 1024, 0, 6, 3847, 3843, 3854, 3839, 3835, 3855, 0, 1, 6200, -89.900, 0.000, -90.100, 0.000, 0.000, -1.100, 0.0, , , , , , 97, , , 13, 13, 13
37.3533330, -119.5420194, 1.600, 10:02:52.627, 17, 0.00, 0.11, 92, 0.600, 0.300, -88.900, 382, 100, 100, 23, 23119, -17320, 4781, 5197, 13, 14, 1528822972.627, 72, 0, 1024, 1024, 1024, 1024, 0, 6, 3847, 3843, 3854, 3839, 3835, 3855, 0, 1, 6300, -89.900, 0.000, -90.100, 0.000, 0.000, -1.300, 0.0, , , , , , 97, , , 13, 13, 13
37.3533330, -119.5420194, 1.700, 10:02:52.727, 17, 0.00, 0.11, 92, 0.900, 0.200, -88.900, 382, 100, 100, 23, 23119, -17320, 4781, 5197, 13, 14, 1528822972.727, 87, 0, 1024, 1024, 1024, 1024, 0, 6, 3847, 3843, 3854, 3839, 3835, 3855, 0, 1, 6400, -89.900, 0.000, -90.100, 0.000, 0.000, -1.500, 0.0, , , , , , 97, , , 13, 13, 13
37.3533329, -119.5420194, 1.800, 10:02:52.827, 17, 0.00, 0.11, 92, 1.200, 0.200, -89.000, 382, 100, 100, 23, 23119, -17320, 4781, 5197, 13, 14, 1528822972.827, 81, 0, 1024, 1024, 1024, 1024, 0, 6, 3847, 3843, 3854, 3839, 3835, 3855, 0, 1, 6501, -89.900, 0.000, -90.100, 0.000, 0.000, -1.600, 0.0, , , , , , 97, , , 13, 13, 13
37.3533329, -119.5420194, 2.000, 10:02:52.927, 17, 0.00, 0.12, 92, 1.200, 0.200, -89.100, 382, 100, 100, 23, 23119, -17320, 4781, 5197, 13, 14, 1528822972.927, 74, 0, 1024, 1024, 1024, 1024, 0, 6, 3847, 3843, 3854, 3839, 3835, 3855, 0, 1, 6600, -89.900, 0.000, -90.100, 0.000, 0.000, -1.900, 0.0, , , , , , 97, , , 13, 13, 13
37.3533328, -119.5420194, 2.300, 10:02:53.027, 17, 0.00, 0.12, 92, 1.300, 0.200, -89.200, 382, 100, 100, 23, 22977, -16530, 4781, 5197, 13, 14, 1528822973.027, 68, 0, 1024, 1024, 1024, 1024, 0, 6, 3819, 3827, 3841, 3811, 3852, 3837, 0, 1, 6701, -89.900, 0.000, -90.100, 0.000, 0.000, -2.200, 0.0, , , , , , 97, , , 13, 13, 13
37.3533328, -119.5420194, 2.500, 10:02:53.127, 17, 0.00, 0.11, 92, 1.300, 0.200, -89.300, 382, 100, 100, 23, 22977, -16530, 4781, 5197, 13, 14, 1528822973.128, 72, 0, 1024, 1024, 1024, 1024, 0, 6, 3819, 3827, 3841, 3811, 3852, 3837, 0, 1, 6801, -89.900, 0.000, -90.100, 0.000, 0.000, -2.500, 0.0, , , , , , 97, , , 13, 13, 13
37.3533328, -119.5420193, 2.800, 10:02:53.226, 17, 0.00, 0.11, 92, 1.100, 0.200, -89.300, 382, 100, 100, 23, 22977, -16530, 4781, 5197, 13, 14, 1528822973.227, 42, 0, 1024, 1024, 1024, 1024, 0, 6, 3819, 3827, 3841, 3811, 3852, 3837, 0, 1, 6900, -89.900, 0.000, -90.100, 0.000, 0.000, -2.800, 0.0, , , , , , 97, , , 13, 13, 13
37.3533328, -119.5420193, 3.100, 10:02:53.327, 17, 0.00, 0.11, 92, 0.900, 0.100, -89.300, 382, 100, 100, 23, 22977, -16530, 4781, 5197, 13, 14, 1528822973.327, 49, 0, 1024, 1024, 1024, 1024, 0, 6, 3819, 3827, 3841, 3811, 3852, 3837, 0, 1, 7001, -89.900, 0.000, -90.100, 0.000, 0.000, -3.000, 0.0, , , , , , 97, , , 13, 13, 13
37.3533329, -119.5420193, 3.500, 10:02:53.427, 17, 0.00, 0.11, 92, 0.500, 0.200, -89.300, 382, 100, 100, 23, 22977, -16530, 4781, 5197, 13, 14, 1528822973.427, 44, 0, 1024, 1024, 1024, 1024, 0, 6, 3819, 3827, 3841, 3811, 3852, 3837, 0, 1, 7101, -89.900, 0.000, -90.100, 0.000, 0.000, -3.100, 0.0, , , , , , 97, , , 13, 13, 13
37.3533328, -119.5420192, 3.800, 10:02:53.527, 17, 0.00, 0.10, 92, 0.300, 0.300, -89.200, 382, 100, 100, 23, 22977, -16530, 4781, 5197, 13, 14, 1528822973.527, 55, 0, 1024, 1024, 1024, 1024, 0, 6, 3819, 3827, 3841, 3811, 3852, 3837, 0, 1, 7201, -89.900, 0.000, -90.100, 0.000, 0.000, -3.100, 0.0, , , , , , 97, , , 13, 13, 13
37.3533328, -119.5420191, 4.100, 10:02:53.627, 18, 0.00, 0.09, 92, 0.500, 0.200, -89.200, 382, 100, 100, 23, 22977, -16530, 4781, 5197, 13, 14, 1528822973.627, 49, 0, 1024, 1024, 1024, 1024, 0, 6, 3819, 3827, 3841, 3811, 3852, 3837, 0, 1, 7301, -89.900, 0.000, -90.100, 0.000, 0.000, -3.100, 0.0, , , , , , 97, , , 13, 13, 13
37.3533328, -119.5420191, 4.500, 10:02:53.726, 18, 0.00, 0.10, 92, 0.600, 0.300, -89.100, 382, 100, 100, 23, 22977, -16530, 4781, 5197, 13, 14, 1528822973.727, 42, 0, 1024, 1024, 1024, 1024, 0, 6, 3819, 3827, 3841, 3811, 3852, 3837, 0, 1, 7400, -89.900, 0.000, -90.100, 0.000, 0.000, -3.200, 0.0, , , , , , 97, , , 13, 13, 13
37.3533328, -119.5420191, 5.200, 10:02:53.827, 18, 0.00, 0.09, 92, 0.500, 0.600, -88.900, 382, 100, 100, 23, 22977, -16530, 4781, 5197, 13, 14, 1528822973.827, 46, 0, 1024, 1024, 1024, 1024, 0, 6, 3819, 3827, 3841, 3811, 3852, 3837, 0, 1, 7501, -89.900, 0.000, -90.100, 0.000, 0.000, -3.200, 0.0, , , , , , 97, , , 13, 13, 13
37.3533328, -119.5420191, 5.200, 10:02:53.926, 18, 0.00, 0.09, 92, 0.500, 0.600, -88.900, 382, 100, 100, 23, 22977, -16530, 4781, 5197, 13, 14, 1528822973.926, 145, 0, 1024, 1024, 1024, 1024, 0, 6, 3819, 3827, 3841, 3811, 3852, 3837, 0, 1, 7599, -89.900, 0.000, -90.100, 0.000, 0.000, -3.200, 0.0, , , , , , 97, , , 13, 13, 13
37.3533328, -119.5420191, 5.800, 10:02:54.027, 18, 0.00, 0.10, 92, 0.700, 0.000, -88.600, 382, 100, 100, 23, 22460, -22892, 4781, 5197, 13, 14, 1528822974.028, 14, 0, 1024, 1024, 1024, 1024, 0, 6, 3732, 3735, 3739, 3699, 3708, 3731, 0, 1, 7701, -90.000, 0.000, -90.100, 0.000, 0.000, -3.200, 0.0, , , , , , 97, , , 13, 13, 13
37.3533328, -119.5420192, 6.200, 10:02:54.126, 18, 0.00, 0.10, 92, 0.600, 0.000, -88.500, 382, 100, 99, 23, 22460, -22892, 4781, 5197, 13, 14, 1528822974.126, 18, 0, 1024, 1024, 1024, 1024, 0, 6, 3732, 3735, 3739, 3699, 3708, 3731, 0, 1, 7800, -90.000, 0.000, -90.100, 0.000, 0.000, -3.100, 0.0, , , , , , 97, , , 13, 13, 13
37.3533327, -119.5420193, 6.500, 10:02:54.226, 18, 0.00, 0.11, 92, 0.700, 0.200, -88.500, 382, 100, 99, 23, 22460, -22892, 4781, 5197, 13, 14, 1528822974.227, 19, 0, 1024, 1024, 1024, 1024, 0, 6, 3732, 3735, 3739, 3699, 3708, 3731, 0, 1, 7900, -89.900, 0.000, -90.100, 0.000, 0.000, -3.100, 0.0, , , , , , 97, , , 13, 13, 13
37.3533327, -119.5420193, 6.500, 10:02:54.327, 18, 0.00, 0.11, 92, 0.700, 0.200, -88.500, 382, 100, 99, 23, 22460, -22892, 4781, 5197, 13, 14, 1528822974.327, 119, 0, 1024, 1024, 1024, 1024, 0, 6, 3732, 3735, 3739, 3699, 3708, 3731, 0, 1, 8001, -89.900, 0.000, -90.100, 0.000, 0.000, -3.100, 0.0, , , , , , 97, , , 13, 13, 13
37.3533326, -119.5420194, 7.200, 10:02:54.429, 18, 0.00, 0.13, 92, 0.700, 1.000, -88.600, 382, 100, 99, 23, 22460, -22892, 4781, 5197, 13, 14, 1528822974.429, 1, 0, 1024, 1024, 1024, 1024, 0, 6, 3732, 3735, 3739, 3699, 3708, 3731, 0, 1, 8102, -89.900, 0.000, -90.100, 0.000, 0.000, -3.100, 0.0, , , , , , 97, , , 13, 13, 13
37.3533326, -119.5420194, 7.200, 10:02:54.527, 18, 0.00, 0.13, 92, 0.700, 1.000, -88.600, 382, 100, 99, 23, 22460, -22892, 4781, 5197, 13, 14, 1528822974.528, 99, 0, 1024, 1024, 1024, 1024, 0, 6, 3732, 3735, 3739, 3699, 3708, 3731, 0, 1, 8201, -89.900, 0.000, -90.100, 0.000, 0.000, -3.100, 0.0, , , , , , 97, , , 13, 13, 13
37.3533326, -119.5420195, 7.500, 10:02:54.627, 18, 0.00, 0.13, 92, 0.800, 1.100, -88.800, 382, 100, 99, 23, 22460, -22892, 4781, 5197, 13, 14, 1528822974.627, 90, 0, 1024, 1024, 1024, 1024, 0, 6, 3732, 3735, 3739, 3699, 3708, 3731, 0, 1, 8301, -89.900, 0.000, -90.100, 0.000, 0.000, -3.100, 0.0, , , , , , 97, , , 13, 13, 13
37.3533326, -119.5420196, 7.800, 10:02:54.726, 18, 0.00, 0.14, 92, 0.700, 1.000, -89.000, 382, 100, 99, 23, 22460, -22892, 4781, 5197, 13, 14, 1528822974.727, 92, 0, 1024, 1024, 1024, 1024, 0, 6, 3732, 3735, 3739, 3699, 3708, 3731, 0, 1, 8400, -89.900, 0.000, -90.100, 0.000, 0.000, -3.100, 0.0, , , , , , 97, , , 13, 13, 13
37.3533326, -119.5420196, 8.100, 10:02:54.827, 18, 0.00, 0.15, 92, 0.500, 0.800, -89.100, 382, 100, 99, 23, 22460, -22892, 4781, 5197, 13, 14, 1528822974.828, 93, 0, 1024, 1024, 1024, 1024, 0, 6, 3732, 3735, 3739, 3699, 3708, 3731, 0, 1, 8501, -89.900, 0.000, -90.100, 0.000, 0.000, -3.100, 0.0, , , , , , 97, , , 13, 13, 13
37.3533325, -119.5420197, 8.500, 10:02:54.927, 18, 0.00, 0.15, 92, 0.600, 0.700, -89.200, 382, 100, 99, 23, 22460, -22892, 4781, 5197, 13, 14, 1528822974.927, 93, 0, 1024, 1024, 1024, 1024, 0, 6, 3732, 3735, 3739, 3699, 3708, 3731, 0, 1, 8600, -89.900, 0.000, -90.100, 0.000, 0.000, -3.100, 0.0, , , , , , 97, , , 13, 13, 13
37.3533325, -119.5420197, 8.800, 10:02:55.026, 18, 0.00, 0.16, 92, 0.700, 0.500, -89.200, 382, 100, 99, 23, 22432, -23688, 4781, 5197, 13, 14, 1528822975.026, 83, 0, 1024, 1024, 1024, 1024, 0, 6, 3732, 3745, 3752, 3739, 3721, 3767, 0, 1, 8699, -89.900, 0.000, -90.100, 0.000, 0.000, -3.000, 0.0, , , , , , 97, , , 13, 13, 13
37.3533325, -119.5420197, 9.100, 10:02:55.127, 18, 0.00, 0.16, 92, 0.600, 0.200, -89.100, 382, 100, 99, 23, 22432, -23688, 4781, 5197, 13, 14, 1528822975.127, 61, 0, 1024, 1024, 1024, 1024, 0, 6, 3732, 3745, 3752, 3739, 3721, 3767, 0, 1, 8800, -90.000, 0.000, -90.100, 0.000, 0.000, -3.000, 0.0, , , , , , 97, , , 13, 13, 13
37.3533325, -119.5420197, 9.400, 10:02:55.226, 18, 0.00, 0.16, 92, 0.700, 0.000, -89.000, 382, 100, 99, 23, 22432, -23688, 4781, 5197, 13, 14, 1528822975.226, 56, 0, 1024, 1024, 1024, 1024, 0, 6, 3732, 3745, 3752, 3739, 3721, 3767, 0, 1, 8900, -90.000, 0.000, -90.100, 0.000, 0.000, -3.100, 0.0, , , , , , 97, , , 13, 13, 13
37.3533325, -119.5420197, 9.800, 10:02:55.327, 18, 0.00, 0.16, 92, 0.800, -0.200, -88.900, 382, 100, 99, 23, 22432, -23688, 4781, 5197, 13, 14, 1528822975.327, 71, 0, 1024, 1024, 1024, 1024, 0, 6, 3732, 3745, 3752, 3739, 3721, 3767, 0, 1, 9000, -90.000, 0.000, -90.100, 0.000, 0.000, -3.000, 0.0, , , , , , 97, , , 13, 13, 13
37.3533325, -119.5420197, 10.100, 10:02:55.427, 18, 0.00, 0.16, 92, 0.900, 0.000, -88.700, 382, 100, 99, 23, 22432, -23688, 4781, 5197, 13, 14, 1528822975.427, 57, 0, 1024, 1024, 1024, 1024, 0, 6, 3732, 3745, 3752, 3739, 3721, 3767, 0, 1, 9100, -89.900, 0.000, -90.100, 0.000, 0.000, -3.000, 0.0, , , , , , 97, , , 13, 13, 13
37.3533325, -119.5420198, 10.400, 10:02:55.527, 18, 0.00, 0.17, 92, 0.700, 0.500, -88.700, 382, 100, 99, 23, 22432, -23688, 4781, 5197, 13, 14, 1528822975.527, 54, 0, 1024, 1024, 1024, 1024, 0, 6, 3732, 3745, 3752, 3739, 3721, 3767, 0, 1, 9200, -89.900, 0.000, -90.100, 0.000, 0.000, -2.900, 0.0, , , , , , 97, , , 13, 13, 13
37.3533325, -119.5420199, 10.700, 10:02:55.627, 18, 0.00, 0.17, 92, 0.400, 1.000, -88.800, 382, 100, 98, 23, 22432, -23688, 4781, 5197, 13, 14, 1528822975.627, 57, 0, 1024, 1024, 1024, 1024, 0, 6, 3732, 3745, 3752, 3739, 3721, 3767, 0, 1, 9300, -89.900, 0.000, -90.100, 0.000, 0.000, -2.900, 0.0, , , , , , 97, , , 13, 13, 13
37.3533325, -119.5420200, 11.000, 10:02:55.726, 18, 0.00, 0.18, 92, 0.100, 1.200, -88.900, 382, 100, 98, 23, 22432, -23688, 4781, 5197, 13, 14, 1528822975.727, 46, 0, 1024, 1024, 1024, 1024, 0, 6, 3732, 3745, 3752, 3739, 3721, 3767, 0, 1, 9400, -89.900, 0.000, -90.100, 0.000, 0.000, -2.900, 0.0, , , , , , 97, , , 13, 13, 13
37.3533325, -119.5420200, 11.300, 10:02:55.827, 18, 0.00, 0.18, 92, 0.100, 1.400, -89.000, 382, 100, 98, 23, 22432, -23688, 4781, 5197, 13, 14, 1528822975.827, 38, 0, 1024, 1024, 1024, 1024, 0, 6, 3732, 3745, 3752, 3739, 3721, 3767, 0, 1, 9500, -89.900, 0.000, -90.100, 0.000, 0.000, -3.000, 0.0, , , , , , 97, , , 13, 13, 13
37.3533325, -119.5420201, 11.600, 10:02:55.926, 18, 0.00, 0.19, 92, 0.200, 1.400, -89.100, 382, 100, 98, 23, 22432, -23688, 4781, 5197, 13, 14, 1528822975.927, 26, 0, 1024, 1024, 1024, 1024, 0, 6, 3732, 3745, 3752, 3739, 3721, 3767, 0, 1, 9600, -89.900, 0.000, -90.100, 0.000, 0.000, -3.000, 0.0, , , , , , 97, , , 13, 13, 13
37.3533325, -119.5420201, 11.900, 10:02:56.026, 18, 0.00, 0.19, 92, 0.400, 1.200, -89.100, 382, 100, 98, 23, 22547, -19960, 4781, 5197, 13, 14, 1528822976.027, 26, 0, 1024, 1024, 1024, 1024, 0, 6, 3751, 3754, 3776, 3754, 3734, 3773, 0, 1, 9700, -89.900, 0.000, -90.100, 0.000, 0.000, -3.000, 0.0, , , , , , 97, , , 13, 13, 13
37.3533325, -119.5420200, 12.500, 10:02:56.127, 18, 0.00, 0.18, 92, 0.600, 0.600, -89.200, 382, 100, 98, 23, 22547, -19960, 4781, 5197, 13, 14, 1528822976.127, 24, 0, 1024, 1024, 1024, 1024, 0, 6, 3751, 3754, 3776, 3754, 3734, 3773, 0, 1, 9800, -89.900, 0.000, -90.100, 0.000, 0.000, -3.000, 0.0, , , , , , 97, , , 13, 13, 13
37.3533325, -119.5420199, 12.800, 10:02:56.226, 18, 0.00, 0.17, 92, 0.600, 0.300, -89.200, 382, 100, 98, 23, 22547, -19960, 4781, 5197, 13, 14, 1528822976.226, 17, 0, 1024, 1024, 1024, 1024, 0, 6, 3751, 3754, 3776, 3754, 3734, 3773, 0, 1, 9900, -89.900, 0.000, -90.100, 0.000, 0.000, -3.000, 0.0, , , , , , 97, , , 13, 13, 13
37.3533325, -119.5420198, 13.100, 10:02:56.327, 18, 0.00, 0.17, 92, 0.700, 0.100, -89.200, 382, 100, 98, 23, 22547, -19960, 4781, 5197, 13, 14, 1528822976.327, 12, 0, 1024, 1024, 1024, 1024, 0, 6, 3751, 3754, 3776, 3754, 3734, 3773, 0, 1, 10001, -90.000, 0.000, -90.100, 0.000, 0.000, -2.900, 0.0, , , , , , 97, , , 13, 13, 13
37.3533325, -119.5420198, 13.400, 10:02:56.427, 18, 0.00, 0.17, 92, 0.700, 0.000, -89.200, 382, 100, 98, 23, 22547, -19960, 4781, 5197, 13, 14, 1528822976.427, 1, 0, 1024, 1024, 1024, 1024, 0, 6, 3751, 3754, 3776, 3754, 3734, 3773, 0, 1, 10100, -90.000, 0.000, -90.100, 0.000, 0.000, -2.900, 0.0, , , , , , 97, , , 13, 13, 13
37.3533325, -119.5420198, 13.700, 10:02:56.527, 18, 0.00, 0.16, 92, 0.800, 0.000, -89.100, 382, 100, 98, 23, 22547, -19960, 4781, 5197, 13, 14, 1528822976.527, 10, 0, 1024, 1024, 1024, 1024, 0, 6, 3751, 3754, 3776, 3754, 3734, 3773, 0, 1, 10201, -90.000, 0.000, -90.100, 0.000, 0.000, -2.900, 0.0, , , , , , 97, , , 13, 13, 13
37.3533325, -119.5420198, 13.700, 10:02:56.627, 18, 0.00, 0.16, 92, 0.800, 0.000, -89.100, 382, 100, 99, 23, 22547, -19960, 4781, 5197, 13, 14, 1528822976.627, 109, 0, 1024, 1024, 1024, 1024, 0, 6, 3751, 3754, 3776, 3754, 3734, 3773, 0, 1, 10301, -90.000, 0.000, -90.100, 0.000, 0.000, -2.900, 0.0, , , , , , 97, , , 13, 13, 13
37.3533326, -119.5420197, 14.400, 10:02:56.726, 18, 0.00, 0.15, 92, 0.500, 0.000, -89.000, 382, 100, 99, 23, 22547, -19960, 4781, 5197, 13, 14, 1528822976.726, 3, 0, 1024, 1024, 1024, 1024, 0, 6, 3751, 3754, 3776, 3754, 3734, 3773, 0, 1, 10400, -90.000, 0.000, -90.100, 0.000, 0.000, -3.000, 0.0, , , , , , 97, , , 13, 13, 13
37.3533326, -119.5420196, 14.700, 10:02:56.826, 18, 0.00, 0.14, 92, 0.300, 0.000, -89.000, 382, 100, 99, 23, 22547, -19960, 4781, 5197, 13, 14, 1528822976.826, 6, 0, 1024, 1024, 1024, 1024, 0, 6, 3751, 3754, 3776, 3754, 3734, 3773, 0, 1, 10500, -90.000, 0.000, -90.100, 0.000, 0.000, -2.900, 0.0, , , , , , 97, , , 13, 13, 13
37.3533326, -119.5420195, 15.000, 10:02:56.931, 18, 0.00, 0.14, 92, 0.200, 0.000, -89.000, 382, 100, 99, 23, 22494, -20208, 4781, 5197, 13, 14, 1528822976.931, 5, 0, 1024, 1024, 1024, 1024, 0, 6, 3751, 3754, 3776, 3754, 3734, 3773, 0, 1, 10605, -90.000, 0.000, -90.100, 0.000, 0.000, -2.900, 0.0, , , , , , 97, , , 13, 13, 13
37.3533326, -119.5420195, 15.000, 10:02:57.027, 18, 0.00, 0.14, 92, 0.200, 0.000, -89.000, 382, 100, 99, 23, 22494, -20208, 4781, 5197, 13, 14, 1528822977.027, 100, 0, 1024, 1024, 1024, 1024, 0, 6, 3751, 3754, 3776, 3754, 3734, 3773, 0, 1, 10700, -90.000, 0.000, -90.100, 0.000, 0.000, -2.900, 0.0, , , , , , 97, , , 13, 13, 13
37.3533327, -119.5420195, 15.300, 10:02:57.127, 18, 0.00, 0.13, 92, 0.300, 0.000, -89.100, 382, 100, 99, 23, 22494, -20208, 4781, 5197, 13, 14, 1528822977.127, 67, 0, 1024, 1024, 1024, 1024, 0, 6, 3751, 3754, 3776, 3754, 3734, 3773, 0, 1, 10800, -90.000, 0.000, -90.100, 0.000, 0.000, -2.900, 0.0, , , , , , 97, , , 13, 13, 13
37.3533327, -119.5420195, 15.300, 10:02:57.226, 18, 0.00, 0.13, 92, 0.300, 0.000, -89.100, 382, 100, 99, 23, 22494, -20208, 4781, 5197, 13, 14, 1528822977.226, 167, 0, 1024, 1024, 1024, 1024, 0, 6, 3751, 3754, 3776, 3754, 3734, 3773, 0, 1, 10900, -90.000, 0.000, -90.100, 0.000, 0.000, -2.900, 0.0, , , , , , 97, , , 13, 13, 13
37.3533328, -119.5420193, 15.900, 10:02:57.326, 18, 0.00, 0.11, 92, 0.200, -0.100, -89.200, 382, 100, 99, 23, 22494, -20208, 4781, 5197, 13, 14, 1528822977.326, 77, 0, 1024, 1024, 1024, 1024, 0, 6, 3751, 3754, 3776, 3754, 3734, 3773, 0, 1, 11000, -90.000, 0.000, -90.100, 0.000, 0.000, -2.900, 0.0, , , , , , 97, , , 13, 13, 13
37.3533328, -119.5420192, 16.200, 10:02:57.427, 18, 0.00, 0.11, 92, 0.200, -0.300, -89.300, 382, 100, 99, 23, 22494, -20208, 4781, 5197, 13, 14, 1528822977.427, 67, 0, 1024, 1024, 1024, 1024, 0, 6, 3751, 3754, 3776, 3754, 3734, 3773, 0, 1, 11100, -90.000, 0.000, -90.100, 0.000, 0.000, -3.000, 0.0, , , , , , 97, , , 13, 13, 13
37.3533328, -119.5420192, 16.500, 10:02:57.527, 18, 0.00, 0.10, 92, 0.200, -0.400, -89.300, 382, 100, 99, 23, 22494, -20208, 4781, 5197, 13, 14, 1528822977.527, 46, 0, 1024, 1024, 1024, 1024, 0, 6, 3735, 3755, 3763, 3748, 3741, 3763, 0, 1, 11200, -90.000, 0.000, -90.100, 0.000, 0.000, -2.900, 0.0, , , , , , 97, , , 13, 13, 13
37.3533329, -119.5420191, 16.800, 10:02:57.627, 18, 0.00, 0.09, 92, 0.100, -0.400, -89.300, 382, 100, 98, 23, 22494, -20208, 4781, 5197, 13, 14, 1528822977.627, 57, 0, 1024, 1024, 1024, 1024, 0, 6, 3735, 3755, 3763, 3748, 3741, 3763, 0, 1, 11300, -90.000, 0.000, -90.100, 0.000, 0.000, -2.900, 0.0, , , , , , 97, , , 13, 13, 13
37.3533329, -119.5420191, 16.800, 10:02:57.726, 18, 0.00, 0.09, 92, 0.100, -0.400, -89.300, 382, 100, 98, 23, 22494, -20208, 4781, 5197, 13, 14, 1528822977.726, 157, 0, 1024, 1024, 1024, 1024, 0, 6, 3735, 3755, 3763, 3748, 3741, 3763, 0, 1, 11400, -90.000, 0.000, -90.100, 0.000, 0.000, -2.900, 0.0, , , , , , 97, , , 13, 13, 13
37.3533329, -119.5420191, 17.400, 10:02:57.827, 18, 0.00, 0.08, 92, 0.100, -0.200, -89.300, 382, 100, 98, 23, 22494, -20208, 4781, 5197, 13, 14, 1528822977.827, 52, 0, 1024, 1024, 1024, 1024, 0, 6, 3735, 3755, 3763, 3748, 3741, 3763, 0, 1, 11500, -90.000, 0.000, -90.100, 0.000, 0.000, -2.900, 0.0, , , , , , 97, , , 13, 13, 13
37.3533330, -119.5420190, 17.700, 10:02:57.927, 18, 0.00, 0.08, 92, 0.200, -0.200, -89.200, 382, 100, 98, 23, 22494, -20208, 4781, 5197, 13, 14, 1528822977.927, 43, 0, 1024, 1024, 1024, 1024, 0, 6, 3735, 3755, 3763, 3748, 3741, 3763, 0, 1, 11600, -90.000, 0.000, -90.100, 0.000, 0.000, -2.900, 0.0, , , , , , 97, , , 13, 13, 13
37.3533330, -119.5420190, 18.000, 10:02:58.027, 18, 0.00, 0.08, 92, 0.300, -0.100, -89.200, 382, 100, 98, 23, 22494, -20208, 4781, 5197, 13, 14, 1528822978.027, 55, 0, 1024, 1024, 1024, 1024, 0, 6, 3735, 3755, 3763, 3748, 3741, 3763, 0, 1, 11700, -89.900, 0.000, -90.100, 0.000, 0.000, -2.900, 0.0, , , , , , 97, , , 13, 13, 13
37.3533330, -119.5420190, 18.600, 10:02:58.127, 18, 0.00, 0.07, 92, 0.200, 0.000, -89.200, 382, 100, 96, 23, 22494, -20208, 4781, 5197, 13, 14, 1528822978.127, 45, 0, 1024, 1024, 1024, 1024, 0, 6, 3735, 3755, 3763, 3748, 3741, 3763, 0, 1, 11800, -90.000, 0.000, -90.100, 0.000, 0.000, -2.900, 0.0, , , , , , 97, , , 13, 13, 13
37.3533330, -119.5420190, 18.600, 10:02:58.226, 18, 0.00, 0.07, 92, 0.200, 0.000, -89.200, 382, 100, 96, 23, 22494, -20208, 4781, 5197, 13, 14, 1528822978.226, 144, 0, 1024, 1024, 1024, 1024, 0, 6, 3735, 3755, 3763, 3748, 3741, 3763, 0, 1, 11900, -90.000, 0.000, -90.100, 0.000, 0.000, -2.900, 0.0, , , , , , 97, , , 13, 13, 13
37.3533330, -119.5420190, 18.900, 10:02:58.327, 18, 0.00, 0.07, 92, 0.100, 0.100, -89.200, 382, 100, 96, 23, 22494, -20208, 4781, 5197, 13, 14, 1528822978.327, 43, 0, 1024, 1024, 1024, 1024, 0, 6, 3735, 3755, 3763, 3748, 3741, 3763, 0, 1, 12000, -89.900, 0.000, -90.100, 0.000, 0.000, -2.900, 0.0, , , , , , 97, , , 13, 13, 13
37.3533331, -119.5420190, 19.200, 10:02:58.427, 18, 0.00, 0.07, 92, 0.100, 0.200, -89.100, 382, 100, 96, 23, 22494, -20208, 4781, 5197, 13, 14, 1528822978.427, 25, 0, 1024, 1024, 1024, 1024, 0, 6, 3735, 3755, 3763, 3748, 3741, 3763, 0, 1, 12100, -89.900, 0.000, -90.100, 0.000, 0.000, -2.800, 0.0, , , , , , 97, , , 13, 13, 13
37.3533331, -119.5420190, 19.500, 10:02:58.527, 18, 0.00, 0.07, 92, 0.100, 0.300, -89.100, 382, 100, 96, 23, 22516, -19519, 4729, 5197, 13, 14, 1528822978.527, 24, 0, 1024, 1024, 1024, 1024, 0, 6, 3745, 3760, 3760, 3755, 3738, 3758, 0, 1, 12200, -89.900, 0.000, -90.100, 0.000, 0.000, -2.900, 0.0, , , , , , 97, , , 13, 13, 13
37.3533331, -119.5420190, 19.800, 10:02:58.636, 18, 0.00, 0.07, 92, 0.100, 0.400, -89.100, 382, 100, 95, 23, 22516, -19519, 4729, 5197, 13, 14, 1528822978.636, 4, 0, 1024, 1024, 1024, 1024, 0, 6, 3745, 3760, 3760, 3755, 3738, 3758, 0, 1, 12309, -89.900, 0.000, -90.100, 0.000, 0.000, -2.900, 0.0, , , , , , 97, , , 13, 13, 13
37.3533331, -119.5420190, 20.400, 10:02:58.726, 18, 0.00, 0.07, 92, 0.200, 0.300, -89.100, 382, 100, 95, 23, 22516, -19519, 4729, 5197, 13, 14, 1528822978.726, 9, 0, 1024, 1024, 1024, 1024, 0, 6, 3745, 3760, 3760, 3755, 3738, 3758, 0, 1, 12400, -89.900, 0.000, -90.100, 0.000, 0.000, -2.900, 0.0, , , , , , 97, , , 13, 13, 13
37.3533331, -119.5420190, 20.700, 10:02:58.829, 18, 0.00, 0.07, 92, 0.300, 0.100, -89.100, 382, 100, 95, 23, 22516, -19519, 4729, 5197, 13, 14, 1528822978.829, 2, 0, 1024, 1024, 1024, 1024, 0, 6, 3745, 3760, 3760, 3755, 3738, 3758, 0, 1, 12503, -89.900, 0.000, -90.100, 0.000, 0.000, -2.900, 0.0, , , , , , 97, , , 13, 13, 13
37.3533331, -119.5420190, 20.700, 10:02:58.927, 18, 0.00, 0.07, 92, 0.300, 0.100, -89.100, 382, 100, 95, 23, 22516, -19519, 4729, 5197, 13, 14, 1528822978.927, 99, 0, 1024, 1024, 1024, 1024, 0, 6, 3745, 3760, 3760, 3755, 3738, 3758, 0, 1, 12600, -89.900, 0.000, -90.100, 0.000, 0.000, -2.900, 0.0, , , , , , 97, , , 13, 13, 13
37.3533331, -119.5420190, 21.000, 10:02:59.027, 18, 0.00, 0.07, 91, 0.300, 0.100, -89.100, 382, 100, 95, 23, 22516, -19519, 4729, 5197, 13, 14, 1528822979.028, 97, 0, 1024, 1024, 1024, 1024, 0, 6, 3745, 3760, 3760, 3755, 3738, 3758, 0, 1, 12701, -89.900, 0.000, -90.100, 0.000, 0.000, -2.900, 0.0, , , , , , 97, , , 13, 13, 13
37.3533331, -119.5420190, 21.300, 10:02:59.127, 18, 0.00, 0.07, 91, 0.400, 0.200, -89.100, 382, 100, 96, 23, 22516, -19519, 4729, 5197, 13, 14, 1528822979.127, 97, 0, 1024, 1024, 1024, 1024, 0, 6, 3745, 3760, 3760, 3755, 3738, 3758, 0, 1, 12800, -89.900, 0.000, -90.100, 0.000, 0.000, -2.900, 0.0, , , , , , 97, , , 13, 13, 13
37.3533331, -119.5420190, 21.600, 10:02:59.226, 18, 0.00, 0.07, 91, 0.500, 0.300, -89.100, 382, 100, 96, 23, 22516, -19519, 4729, 5197, 13, 14, 1528822979.226, 76, 0, 1024, 1024, 1024, 1024, 0, 6, 3745, 3760, 3760, 3755, 3738, 3758, 0, 1, 12900, -89.900, 0.000, -90.100, 0.000, 0.000, -2.900, 0.0, , , , , , 97, , , 13, 13, 13
37.3533331, -119.5420189, 21.900, 10:02:59.327, 18, 0.00, 0.07, 91, 0.600, 0.400, -89.000, 382, 100, 96, 23, 22516, -19519, 4729, 5197, 13, 14, 1528822979.327, 54, 0, 1024, 1024, 1024, 1024, 0, 6, 3745, 3760, 3760, 3755, 3738, 3758, 0, 1, 13000, -89.900, 0.000, -90.100, 0.000, 0.000, -2.900, 0.0, , , , , , 97, , , 13, 13, 13
37.3533331, -119.5420189, 22.200, 10:02:59.426, 18, 0.00, 0.07, 91, 0.600, 0.400, -89.000, 382, 100, 96, 23, 22516, -19519, 4729, 5197, 13, 14, 1528822979.426, 67, 0, 1024, 1024, 1024, 1024, 0, 6, 3745, 3760, 3760, 3755, 3738, 3758, 0, 1, 13099, -89.900, 0.000, -90.100, 0.000, 0.000, -2.800, 0.0, , , , , , 97, , , 13, 13, 13
37.3533331, -119.5420189, 22.500, 10:02:59.527, 18, 0.00, 0.06, 91, 0.600, 0.300, -89.000, 382, 100, 96, 23, 22461, -19521, 4729, 5197, 13, 14, 1528822979.527, 62, 0, 1024, 1024, 1024, 1024, 0, 6, 3730, 3742, 3752, 3740, 3720, 3752, 0, 1, 13200, -89.900, 0.000, -90.100, 0.000, 0.000, -2.800, 0.0, , , , , , 97, , , 13, 13, 13
37.3533331, -119.5420189, 22.700, 10:02:59.627, 18, 0.00, 0.06, 91, 0.400, 0.200, -89.000, 382, 100, 96, 23, 22461, -19521, 4729, 5197, 13, 14, 1528822979.627, 58, 0, 1024, 1024, 1024, 1024, 0, 6, 3730, 3742, 3752, 3740, 3720, 3752, 0, 1, 13300, -90.000, 0.000, -90.100, 0.000, 0.000, -2.800, 0.0, , , , , , 97, , , 13, 13, 13
37.3533331, -119.5420189, 23.000, 10:02:59.726, 18, 0.00, 0.06, 91, 0.100, 0.200, -89.100, 382, 100, 96, 23, 22461, -19521, 4729, 5197, 13, 14, 1528822979.726, 67, 0, 1024, 1024, 1024, 1024, 0, 6, 3730, 3742, 3752, 3740, 3720, 3752, 0, 1, 13399, -89.900, 0.000, -90.100, 0.000, 0.000, -2.900, 0.0, , , , , , 97, , , 13, 13, 13
37.3533332, -119.5420189, 23.300, 10:02:59.827, 18, 0.00, 0.06, 91, 0.000, 0.200, -89.100, 382, 100, 96, 23, 22461, -19521, 4729, 5197, 13, 14, 1528822979.827, 69, 0, 1024, 1024, 1024, 1024, 0, 6, 3730, 3742, 3752, 3740, 3720, 3752, 0, 1, 13500, -89.900, 0.000, -90.100, 0.000, 0.000, -2.900, 0.0, , , , , , 97, , , 13, 13, 13
37.3533332, -119.5420189, 23.600, 10:02:59.926, 18, 0.00, 0.06, 91, -0.100, 0.200, -89.100, 382, 100, 96, 23, 22461, -19521, 4729, 5197, 13, 14, 1528822979.926, 46, 0, 1024, 1024, 1024, 1024, 0, 6, 3730, 3742, 3752, 3740, 3720, 3752, 0, 1, 13599, -89.900, 0.000, -90.100, 0.000, 0.000, -2.900, 0.0, , , , , , 97, , , 13, 13, 13
37.3533332, -119.5420189, 23.900, 10:03:00.027, 18, 0.00, 0.05, 91, 0.000, 0.200, -89.100, 382, 100, 96, 23, 22461, -19521, 4729, 5197, 13, 14, 1528822980.027, 40, 0, 1024, 1024, 1024, 1024, 0, 6, 3730, 3742, 3752, 3740, 3720, 3752, 0, 1, 13700, -89.900, 0.000, -90.100, 0.000, 0.000, -2.900, 0.0, , , , , , 97, , , 13, 13, 13
37.3533332, -119.5420188, 24.200, 10:03:00.127, 18, 0.00, 0.05, 91, 0.000, 0.200, -89.200, 382, 100, 96, 23, 22461, -19521, 4729, 5197, 13, 14, 1528822980.127, 45, 0, 1024, 1024, 1024, 1024, 0, 6, 3730, 3742, 3752, 3740, 3720, 3752, 0, 1, 13800, -90.000, 0.000, -90.100, 0.000, 0.000, -2.900, 0.0, , , , , , 97, , , 13, 13, 13
37.3533332, -119.5420188, 24.500, 10:03:00.226, 18, 0.00, 0.05, 91, 0.100, 0.300, -89.300, 382, 100, 96, 23, 22461, -19521, 4729, 5197, 13, 14, 1528822980.226, 25, 0, 1024, 1024, 1024, 1024, 0, 6, 3730, 3742, 3752, 3740, 3720, 3752, 0, 1, 13900, -89.900, 0.000, -90.100, 0.000, 0.000, -2.900, 0.0, , , , , , 97, , , 13, 13, 13
37.3533333, -119.5420188, 25.100, 10:03:00.326, 18, 0.00, 0.05, 91, 0.000, 0.300, -89.200, 382, 100, 96, 23, 22461, -19521, 4729, 5197, 13, 14, 1528822980.327, 29, 0, 1024, 1024, 1024, 1024, 0, 6, 3730, 3742, 3752, 3740, 3720, 3752, 0, 1, 14000, -89.900, 0.000, -90.100, 0.000, 0.000, -2.900, 0.0, , , , , , 97, , , 13, 13, 13
37.3533333, -119.5420188, 25.100, 10:03:00.426, 18, 0.00, 0.05, 91, 0.000, 0.300, -89.200, 382, 100, 96, 23, 22461, -19521, 4729, 5197, 13, 14, 1528822980.427, 129, 0, 1024, 1024, 1024, 1024, 0, 6, 3730, 3742, 3752, 3740, 3720, 3752, 0, 1, 14100, -89.900, 0.000, -90.100, 0.000, 0.000, -2.900, 0.0, , , , , , 97, , , 13, 13, 13
37.3533333, -119.5420189, 25.700, 10:03:00.526, 18, 0.00, 0.05, 91, -0.300, 0.100, -88.900, 382, 100, 96, 23, 22426, -19581, 4729, 5197, 13, 14, 1528822980.526, 15, 0, 1024, 1024, 1024, 1024, 0, 6, 3732, 3745, 3750, 3742, 3723, 3748, 0, 1, 14199, -89.900, 0.000, -90.100, 0.000, 0.000, -3.000, 0.0, , , , , , 97, , , 13, 13, 13
37.3533333, -119.5420189, 26.000, 10:03:00.626, 18, 0.00, 0.06, 91, 0.000, 0.400, -88.900, 382, 100, 94, 23, 22426, -19581, 4729, 5197, 13, 14, 1528822980.627, 30, 0, 1024, 1024, 1024, 1024, 0, 6, 3732, 3745, 3750, 3742, 3723, 3748, 0, 1, 14300, -89.900, 0.000, -90.100, 0.000, 0.000, -2.900, 0.0, , , , , , 97, , , 13, 13, 13
37.3533333, -119.5420190, 26.300, 10:03:00.726, 18, 0.00, 0.07, 91, 0.100, 0.800, -89.000, 382, 100, 94, 23, 22426, -19581, 4729, 5197, 13, 14, 1528822980.727, 11, 0, 1024, 1024, 1024, 1024, 0, 6, 3732, 3745, 3750, 3742, 3723, 3748, 0, 1, 14400, -89.900, 0.000, -90.100, 0.000, 0.000, -2.900, 0.0, , , , , , 97, , , 13, 13, 13
37.3533333, -119.5420191, 26.600, 10:03:00.826, 18, 0.00, 0.07, 91, 0.200, 1.300, -89.100, 382, 100, 94, 23, 22426, -19581, 4729, 5197, 13, 14, 1528822980.826, 4, 0, 1024, 1024, 1024, 1024, 0, 6, 3732, 3745, 3750, 3742, 3723, 3748, 0, 1, 14499, -89.900, 0.000, -90.100, 0.000, 0.000, -3.000, 0.0, , , , , , 97, , , 13, 13, 13
37.3533333, -119.5420192, 26.900, 10:03:00.926, 18, 0.00, 0.08, 91, 0.200, 1.600, -89.300, 382, 100, 94, 23, 22426, -19581, 4729, 5197, 13, 14, 1528822980.927, 7, 0, 1024, 1024, 1024, 1024, 0, 6, 3732, 3745, 3750, 3742, 3723, 3748, 0, 1, 14600, -89.900, 0.000, -90.100, 0.000, 0.000, -3.000, 0.0, , , , , , 97, , , 13, 13, 13
37.3533333, -119.5420192, 26.900, 10:03:01.027, 18, 0.00, 0.08, 91, 0.200, 1.600, -89.300, 382, 100, 94, 23, 22426, -19581, 4729, 5197, 13, 14, 1528822981.027, 107, 0, 1024, 1024, 1024, 1024, 0, 6, 3732, 3745, 3750, 3742, 3723, 3748, 0, 1, 14700, -89.900, 0.000, -90.100, 0.000, 0.000, -3.000, 0.0, , , , , , 97, , , 13, 13, 13
37.3533333, -119.5420193, 27.200, 10:03:01.126, 18, 0.00, 0.09, 91, 0.200, 1.700, -89.300, 382, 100, 94, 23, 22426, -19581, 4729, 5197, 13, 14, 1528822981.126, 86, 0, 1024, 1024, 1024, 1024, 0, 6, 3732, 3745, 3750, 3742, 3723, 3748, 0, 1, 14799, -89.900, 0.000, -90.100, 0.000, 0.000, -3.000, 0.0, , , , , , 97, , , 13, 13, 13
37.3533333, -119.5420193, 27.200, 10:03:01.226, 18, 0.00, 0.09, 91, 0.200, 1.700, -89.300, 382, 100, 93, 23, 22426, -19581, 4729, 5197, 13, 14, 1528822981.226, 186, 0, 1024, 1024, 1024, 1024, 0, 6, 3732, 3745, 3750, 3742, 3723, 3748, 0, 1, 14899, -89.900, 0.000, -90.100, 0.000, 0.000, -3.000, 0.0, , , , , , 97, , , 13, 13, 13
37.3533334, -119.5420194, 27.800, 10:03:01.327, 18, 0.00, 0.10, 91, 0.100, 1.800, -89.400, 382, 100, 93, 23, 22426, -19581, 4729, 5197, 13, 14, 1528822981.327, 91, 0, 1024, 1024, 1024, 1024, 0, 6, 3732, 3745, 3750, 3742, 3723, 3748, 0, 1, 15000, -89.900, 0.000, -90.100, 0.000, 0.000, -3.000, 0.0, , , , , , 97, , , 13, 13, 13
37.3533333, -119.5420194, 28.100, 10:03:01.426, 18, 0.00, 0.10, 91, 0.100, 1.600, -89.400, 382, 100, 93, 23, 22426, -19581, 4729, 5197, 13, 14, 1528822981.426, 78, 0, 1024, 1024, 1024, 1024, 0, 6, 3732, 3745, 3750, 3742, 3723, 3748, 0, 1, 15099, -89.900, 0.000, -90.100, 0.000, 0.000, -2.900, 0.0, , , , , , 97, , , 13, 13, 13
37.3533333, -119.5420195, 28.400, 10:03:01.526, 18, 0.00, 0.10, 91, 0.000, 1.400, -89.400, 382, 100, 93, 23, 22426, -19581, 4729, 5197, 13, 14, 1528822981.526, 61, 0, 1024, 1024, 1024, 1024, 0, 6, 3732, 3745, 3750, 3742, 3723, 3748, 0, 1, 15200, -89.900, 0.000, -90.100, 0.000, 0.000, -3.000, 0.0, , , , , , 97, , , 13, 13, 13
37.3533333, -119.5420195, 28.700, 10:03:01.627, 18, 0.00, 0.11, 91, 0.000, 1.100, -89.400, 382, 100, 86, 23, 22426, -19581, 4729, 5197, 13, 14, 1528822981.627, 90, 0, 1024, 1024, 1024, 1024, 0, 6, 3732, 3745, 3750, 3742, 3723, 3748, 0, 1, 15300, -89.900, 0.000, -90.100, 0.000, 0.000, -3.000, 0.0, , , , , , 97, , , 13, 13, 13
37.3533333, -119.5420195, 29.000, 10:03:01.726, 18, 0.00, 0.11, 91, 0.000, 1.100, -89.500, 382, 100, 86, 23, 22426, -19581, 4729, 5197, 13, 14, 1528822981.727, 61, 0, 1024, 1024, 1024, 1024, 0, 6, 3732, 3745, 3750, 3742, 3723, 3748, 0, 1, 15400, -89.900, 0.000, -90.100, 0.000, 0.000, -3.000, 0.0, , , , , , 97, , , 13, 13, 13
37.3533333, -119.5420195, 29.400, 10:03:01.827, 18, 0.00, 0.11, 91, 0.000, 1.100, -89.400, 382, 100, 86, 23, 22426, -19581, 4729, 5197, 13, 14, 1528822981.827, 59, 0, 1024, 1024, 1024, 1024, 0, 6, 3732, 3745, 3750, 3742, 3723, 3748, 0, 1, 15500, -89.900, 0.000, -90.100, 0.000, 0.000, -3.100, 0.0, , , , , , 97, , , 13, 13, 13
37.3533333, -119.5420195, 29.700, 10:03:01.926, 18, 0.00, 0.11, 91, 0.000, 0.900, -89.400, 382, 100, 86, 23, 22426, -19581, 4729, 5197, 13, 14, 1528822981.927, 63, 0, 1024, 1024, 1024, 1024, 0, 6, 3732, 3745, 3750, 3742, 3723, 3748, 0, 1, 15600, -89.900, 0.000, -90.100, 0.000, 0.000, -2.900, 0.0, , , , , , 97, , , 13, 13, 13
37.3533333, -119.5420194, 30.000, 10:03:02.026, 18, 0.00, 0.10, 91, 0.200, 0.700, -89.300, 382, 100, 86, 23, 22397, -19472, 4729, 5197, 13, 14, 1528822982.027, 68, 0, 1024, 1024, 1024, 1024, 0, 6, 3721, 3734, 3749, 3735, 3716, 3752, 0, 1, 15700, -89.900, 0.000, -90.100, 0.000, 0.000, -2.800, 0.0, , , , , , 97, , , 13, 13, 13
37.3533333, -119.5420194, 30.300, 10:03:02.126, 18, 0.00, 0.10, 91, 0.200, 0.600, -89.100, 382, 100, 87, 23, 22397, -19472, 4729, 5197, 13, 14, 1528822982.127, 65, 0, 1024, 1024, 1024, 1024, 0, 6, 3721, 3734, 3749, 3735, 3716, 3752, 0, 1, 15800, -90.000, 0.000, -90.100, 0.000, 0.000, -2.900, 0.0, , , , , , 97, , , 13, 13, 13
37.3533334, -119.5420194, 30.600, 10:03:02.226, 18, 0.00, 0.10, 91, -0.100, 0.500, -89.000, 382, 100, 87, 23, 22397, -19472, 4729, 5197, 13, 14, 1528822982.226, 46, 0, 1024, 1024, 1024, 1024, 0, 6, 3721, 3734, 3749, 3735, 3716, 3752, 0, 1, 15899, -90.000, 0.000, -90.100, 0.000, 0.000, -2.900, 0.0, , , , , , 97, , , 13, 13, 13
37.3533334, -119.5420194, 30.900, 10:03:02.326, 18, 0.00, 0.10, 91, -0.400, 0.300, -89.100, 382, 100, 87, 23, 22397, -19472, 4729, 5197, 13, 14, 1528822982.327, 43, 0, 1024, 1024, 1024, 1024, 0, 6, 3721, 3734, 3749, 3735, 3716, 3752, 0, 1, 16000, -90.000, 0.000, -90.100, 0.000, 0.000, -2.900, 0.0, , , , , , 97, , , 13, 13, 13
37.3533334, -119.5420195, 31.200, 10:03:02.426, 18, 0.00, 0.11, 91, -0.500, 0.400, -89.100, 382, 100, 87, 23, 22397, -19472, 4729, 5197, 13, 14, 1528822982.427, 49, 0, 1024, 1024, 1024, 1024, 0, 6, 3721, 3734, 3749, 3735, 3716, 3752, 0, 1, 16100, -89.900, 0.000, -90.100, 0.000, 0.000, -2.900, 0.0, , , , , , 97, , , 13, 13, 13
37.3533335, -119.5420194, 31.500, 10:03:02.526, 18, 0.00, 0.11, 91, -0.700, 0.800, -89.000, 382, 100, 87, 23, 22446, -18929, 4729, 5197, 13, 14, 1528822982.527, 25, 0, 1024, 1024, 1024, 1024, 0, 6, 3721, 3734, 3749, 3735, 3716, 3752, 0, 1, 16200, -89.900, 0.000, -90.100, 0.000, 0.000, -2.900, 0.0, , , , , , 97, , , 13, 13, 13
37.3533335, -119.5420194, 31.800, 10:03:02.627, 18, 0.00, 0.10, 91, -1.000, 1.000, -88.900, 382, 100, 88, 23, 22446, -18929, 4729, 5197, 13, 14, 1528822982.628, 41, 0, 1024, 1024, 1024, 1024, 0, 6, 3721, 3734, 3749, 3735, 3716, 3752, 0, 1, 16301, -89.900, 0.000, -90.100, 0.000, 0.000, -2.800, 0.0, , , , , , 97, , , 13, 13, 13
37.3533335, -119.5420194, 32.100, 10:03:02.726, 18, 0.00, 0.10, 91, -0.900, 0.800, -88.900, 382, 100, 88, 23, 22446, -18929, 4729, 5197, 13, 14, 1528822982.726, 32, 0, 1024, 1024, 1024, 1024, 0, 6, 3721, 3734, 3749, 3735, 3716, 3752, 0, 1, 16399, -89.900, 0.000, -90.100, 0.000, 0.000, -2.800, 0.0, , , , , , 97, , , 13, 13, 13
37.3533335, -119.5420194, 32.400, 10:03:02.826, 18, 0.00, 0.10, 91, -0.700, 0.400, -88.900, 382, 100, 88, 23, 22446, -18929, 4729, 5197, 13, 14, 1528822982.828, 10, 0, 1024, 1024, 1024, 1024, 0, 6, 3721, 3734, 3749, 3735, 3716, 3752, 0, 1, 16501, -90.000, 0.000, -90.100, 0.000, 0.000, -2.800, 0.0, , , , , , 97, , , 13, 13, 13
37.3533335, -119.5420193, 32.700, 10:03:02.926, 18, 0.00, 0.10, 91, -0.600, 0.000, -88.900, 382, 100, 88, 23, 22446, -18929, 4729, 5197, 13, 14, 1528822982.927, 16, 0, 1024, 1024, 1024, 1024, 0, 6, 3721, 3734, 3749, 3735, 3716, 3752, 0, 1, 16601, -90.000, 0.000, -90.100, 0.000, 0.000, -2.800, 0.0, , , , , , 97, , , 13, 13, 13
37.3533335, -119.5420193, 33.200, 10:03:03.026, 18, 0.00, 0.09, 91, -0.500, 0.000, -89.000, 382, 100, 88, 23, 22446, -18929, 4729, 5197, 13, 14, 1528822983.027, 20, 0, 1024, 1024, 1024, 1024, 0, 6, 3728, 3744, 3751, 3738, 3714, 3750, 0, 1, 16701, -90.000, 0.000, -90.100, 0.000, 0.000, -2.800, 0.0, , , , , , 97, , , 13, 13, 13
37.3533335, -119.5420193, 33.500, 10:03:03.126, 18, 0.00, 0.10, 91, -0.300, 0.300, -89.100, 382, 100, 96, 23, 22446, -18929, 4729, 5197, 13, 14, 1528822983.127, 19, 0, 1024, 1024, 1024, 1024, 0, 6, 3728, 3744, 3751, 3738, 3714, 3750, 0, 1, 16801, -89.900, 0.000, -90.100, 0.000, 0.000, -2.800, 0.0, , , , , , 97, , , 13, 13, 13
37.3533335, -119.5420193, 33.800, 10:03:03.226, 18, 0.00, 0.10, 91, -0.400, 0.600, -89.100, 382, 100, 96, 23, 22446, -18929, 4729, 5197, 13, 14, 1528822983.226, 13, 0, 1024, 1024, 1024, 1024, 0, 6, 3728, 3744, 3751, 3738, 3714, 3750, 0, 1, 16899, -89.900, 0.000, -90.100, 0.000, 0.000, -2.800, 0.0, , , , , , 97, , , 13, 13, 13
37.3533336, -119.5420194, 34.100, 10:03:03.327, 18, 0.00, 0.10, 91, -0.500, 0.700, -89.100, 382, 100, 96, 23, 22446, -18929, 4729, 5197, 13, 14, 1528822983.327, 3, 0, 1024, 1024, 1024, 1024, 0, 6, 3728, 3744, 3751, 3738, 3714, 3750, 0, 1, 17001, -89.900, 0.000, -90.100, 0.000, 0.000, -2.800, 0.0, , , , , , 97, , , 13, 13, 13
37.3533336, -119.5420194, 34.100, 10:03:03.426, 18, 0.00, 0.10, 91, -0.500, 0.700, -89.100, 382, 100, 96, 23, 22446, -18929, 4729, 5197, 13, 14, 1528822983.427, 102, 0, 1024, 1024, 1024, 1024, 0, 6, 3728, 3744, 3751, 3738, 3714, 3750, 0, 1, 17100, -89.900, 0.000, -90.100, 0.000, 0.000, -2.800, 0.0, , , , , , 97, , , 13, 13, 13
37.3533336, -119.5420193, 34.400, 10:03:03.526, 18, 0.00, 0.10, 91, -0.700, 0.600, -89.100, 382, 100, 96, 23, 22446, -18929, 4729, 5197, 13, 14, 1528822983.527, 81, 0, 1024, 1024, 1024, 1024, 0, 6, 3728, 3744, 3751, 3738, 3714, 3750, 0, 1, 17200, -89.900, 0.000, -90.100, 0.000, 0.000, -2.900, 0.0, , , , , , 97, , , 13, 13, 13
37.3533336, -119.5420193, 34.700, 10:03:03.626, 18, 0.00, 0.10, 91, -0.800, 0.500, -89.000, 382, 100, 96, 23, 22446, -18929, 4729, 5197, 13, 14, 1528822983.627, 67, 0, 1024, 1024, 1024, 1024, 0, 6, 3728, 3744, 3751, 3738, 3714, 3750, 0, 1, 17300, -90.000, 0.000, -90.100, 0.000, 0.000, -2.900, 0.0, , , , , , 97, , , 13, 13, 13
37.3533336, -119.5420193, 35.000, 10:03:03.726, 18, 0.00, 0.10, 91, -0.800, 0.400, -89.000, 382, 100, 96, 23, 22446, -18929, 4729, 5197, 13, 14, 1528822983.726, 86, 0, 1024, 1024, 1024, 1024, 0, 6, 3728, 3744, 3751, 3738, 3714, 3750, 0, 1, 17399, -90.000, 0.000, -90.100, 0.000, 0.000, -2.900, 0.0, , , , , , 97, , , 13, 13, 13
37.3533336, -119.5420193, 35.300, 10:03:03.826, 18, 0.00, 0.10, 91, -0.800, 0.400, -89.000, 382, 100, 96, 23, 22446, -18929, 4729, 5197, 13, 14, 1528822983.826, 73, 0, 1024, 1024, 1024, 1024, 0, 6, 3728, 3744, 3751, 3738, 3714, 3750, 0, 1, 17499, -89.900, 0.000, -90.100, 0.000, 0.000, -2.900, 0.0, , , , , , 97, , , 13, 13, 13
37.3533336, -119.5420193, 35.600, 10:03:03.926, 18, 0.00, 0.10, 91, -0.700, 0.500, -89.100, 382, 100, 96, 23, 22446, -18929, 4729, 5197, 13, 14, 1528822983.927, 88, 0, 1024, 1024, 1024, 1024, 0, 6, 3728, 3744, 3751, 3738, 3714, 3750, 0, 1, 17600, -89.900, 0.000, -90.100, 0.000, 0.000, -2.900, 0.0, , , , , , 97, , , 13, 13, 13
37.3533337, -119.5420193, 35.900, 10:03:04.026, 18, 0.00, 0.10, 91, -0.500, 0.500, -89.100, 382, 100, 96, 23, 22383, -19389, 4729, 5197, 13, 14, 1528822984.027, 77, 0, 1024, 1024, 1024, 1024, 0, 6, 3723, 3728, 3745, 3721, 3708, 3733, 0, 1, 17700, -89.900, 0.000, -90.100, 0.000, 0.000, -2.900, 0.0, , , , , , 97, , , 13, 13, 13
37.3533337, -119.5420194, 36.200, 10:03:04.126, 18, 0.00, 0.10, 91, -0.500, 0.700, -89.100, 382, 100, 97, 23, 22383, -19389, 4729, 5197, 13, 14, 1528822984.127, 71, 0, 1024, 1024, 1024, 1024, 0, 6, 3723, 3728, 3745, 3721, 3708, 3733, 0, 1, 17800, -89.900, 0.000, -90.100, 0.000, 0.000, -2.900, 0.0, , , , , , 97, , , 13, 13, 13
37.3533337, -119.5420194, 36.400, 10:03:04.226, 18, 0.00, 0.10, 91, -0.700, 0.800, -89.200, 382, 100, 97, 23, 22383, -19389, 4729, 5197, 13, 14, 1528822984.226, 86, 0, 1024, 1024, 1024, 1024, 0, 6, 3723, 3728, 3745, 3721, 3708, 3733, 0, 1, 17899, -89.900, 0.000, -90.100, 0.000, 0.000, -2.900, 0.0, , , , , , 97, , , 13, 13, 13
37.3533337, -119.5420194, 36.700, 10:03:04.326, 18, 0.00, 0.11, 91, -0.800, 0.900, -89.300, 382, 100, 97, 23, 22383, -19389, 4729, 5197, 13, 14, 1528822984.327, 36, 0, 1024, 1024, 1024, 1024, 0, 6, 3723, 3728, 3745, 3721, 3708, 3733, 0, 1, 18000, -89.900, 0.000, -90.100, 0.000, 0.000, -2.900, 0.0, , , , , , 97, , , 13, 13, 13
37.3533337, -119.5420194, 37.000, 10:03:04.426, 18, 0.00, 0.11, 91, -0.800, 1.100, -89.300, 382, 100, 97, 23, 22383, -19389, 4729, 5197, 13, 14, 1528822984.427, 40, 0, 1024, 1024, 1024, 1024, 0, 6, 3723, 3728, 3745, 3721, 3708, 3733, 0, 1, 18100, -89.900, 0.000, -90.100, 0.000, 0.000, -2.900, 0.0, , , , , , 97, , , 13, 13, 13
37.3533337, -119.5420194, 37.300, 10:03:04.526, 18, 0.00, 0.11, 91, -0.900, 1.100, -89.300, 382, 100, 97, 23, 22383, -19389, 4729, 5197, 13, 14, 1528822984.527, 54, 0, 1024, 1024, 1024, 1024, 0, 6, 3723, 3728, 3745, 3721, 3708, 3733, 0, 1, 18200, -89.900, 0.000, -90.100, 0.000, 0.000, -3.000, 0.0, , , , , , 97, , , 13, 13, 13
37.3533338, -119.5420194, 37.600, 10:03:04.625, 18, 0.00, 0.11, 91, -1.100, 0.900, -89.400, 382, 100, 98, 23, 22383, -19389, 4729, 5197, 13, 14, 1528822984.625, 54, 0, 1024, 1024, 1024, 1024, 0, 6, 3723, 3728, 3745, 3721, 3708, 3733, 0, 1, 18299, -89.900, 0.000, -90.100, 0.000, 0.000, -2.900, 0.0, , , , , , 97, , , 13, 13, 13
37.3533338, -119.5420194, 37.900, 10:03:04.726, 18, 0.00, 0.11, 91, -0.900, 0.900, -89.400, 382, 100, 98, 23, 22383, -19389, 4729, 5197, 13, 14, 1528822984.726, 50, 0, 1024, 1024, 1024, 1024, 0, 6, 3723, 3728, 3745, 3721, 3708, 3733, 0, 1, 18399, -89.900, 0.000, -90.100, 0.000, 0.000, -3.000, 0.0, , , , , , 97, , , 13, 13, 13
37.3533338, -119.5420194, 38.300, 10:03:04.826, 18, 0.00, 0.11, 91, -0.600, 1.000, -89.400, 382, 100, 98, 23, 22383, -19389, 4729, 5197, 13, 14, 1528822984.827, 33, 0, 1024, 1024, 1024, 1024, 0, 6, 3723, 3728, 3745, 3721, 3708, 3733, 0, 1, 18500, -89.900, 0.000, -90.100, 0.000, 0.000, -3.000, 0.0, , , , , , 97, , , 13, 13, 13
37.3533338, -119.5420194, 38.600, 10:03:04.926, 18, 0.00, 0.11, 91, -0.500, 1.000, -89.400, 382, 100, 98, 23, 22383, -19389, 4729, 5197, 13, 14, 1528822984.927, 47, 0, 1024, 1024, 1024, 1024, 0, 6, 3723, 3728, 3745, 3721, 3708, 3733, 0, 1, 18600, -89.900, 0.000, -90.100, 0.000, 0.000, -3.000, 0.0, , , , , , 97, , , 13, 13, 13
37.3533338, -119.5420194, 38.900, 10:03:05.026, 18, 0.00, 0.12, 91, -0.700, 0.800, -89.400, 382, 100, 98, 23, 22212, -20993, 4729, 5197, 13, 14, 1528822985.027, 16, 0, 1024, 1024, 1024, 1024, 0, 6, 3694, 3706, 3714, 3695, 3690, 3711, 0, 1, 18701, -89.900, 0.000, -90.100, 0.000, 0.000, -3.000, 0.0, , , , , , 97, , , 13, 13, 13
37.3533339, -119.5420195, 39.500, 10:03:05.126, 18, 0.00, 0.12, 91, -1.300, 0.800, -89.300, 382, 100, 100, 23, 22212, -20993, 4729, 5197, 13, 14, 1528822985.127, 8, 0, 1024, 1024, 1024, 1024, 0, 6, 3694, 3706, 3714, 3695, 3690, 3711, 0, 1, 18800, -89.900, 0.000, -90.100, 0.000, 0.000, -3.000, 0.0, , , , , , 97, , , 13, 13, 13
37.3533339, -119.5420195, 39.800, 10:03:05.226, 18, 0.00, 0.13, 91, -1.500, 0.900, -89.200, 382, 100, 100, 23, 22212, -20993, 4729, 5197, 13, 14, 1528822985.226, 14, 0, 1024, 1024, 1024, 1024, 0, 6, 3694, 3706, 3714, 3695, 3690, 3711, 0, 1, 18899, -89.900, 0.000, -90.100, 0.000, 0.000, -3.000, 0.0, , , , , , 97, , , 13, 13, 13
37.3533339, -119.5420195, 39.800, 10:03:05.326, 18, 0.00, 0.13, 91, -1.500, 0.900, -89.200, 382, 100, 100, 23, 22212, -20993, 4729, 5197, 13, 14, 1528822985.327, 115, 0, 1024, 1024, 1024, 1024, 0, 6, 3694, 3706, 3714, 3695, 3690, 3711, 0, 1, 19000, -89.900, 0.000, -90.100, 0.000, 0.000, -3.000, 0.0, , , , , , 97, , , 13, 13, 13
37.3533339, -119.5420195, 39.800, 10:03:05.426, 18, 0.00, 0.13, 91, -1.500, 0.900, -89.200, 382, 100, 100, 23, 22212, -20993, 4729, 5197, 13, 14, 1528822985.427, 215, 0, 1024, 1024, 1024, 1024, 0, 6, 3694, 3706, 3714, 3695, 3690, 3711, 0, 1, 19100, -89.900, 0.000, -90.100, 0.000, 0.000, -3.000, 0.0, , , , , , 97, , , 13, 13, 13
37.3533340, -119.5420196, 40.700, 10:03:05.526, 18, 0.00, 0.14, 91, -1.100, 1.200, -89.000, 382, 100, 100, 23, 22212, -20993, 4729, 5197, 13, 14, 1528822985.527, 5, 0, 1024, 1024, 1024, 1024, 0, 6, 3694, 3706, 3714, 3695, 3690, 3711, 0, 1, 19201, -89.900, 0.000, -90.100, 0.000, 0.000, -2.900, 0.0, , , , , , 97, , , 13, 13, 13
37.3533340, -119.5420197, 41.100, 10:03:05.626, 18, 0.00, 0.14, 91, -1.100, 1.300, -89.000, 382, 100, 100, 23, 22212, -20993, 4729, 5197, 13, 14, 1528822985.627, 13, 0, 1024, 1024, 1024, 1024, 0, 6, 3694, 3706, 3714, 3695, 3690, 3711, 0, 1, 19301, -89.900, 0.000, -90.100, 0.000, 0.000, -2.900, 0.0, , , , , , 97, , , 13, 13, 13
37.3533340, -119.5420197, 41.100, 10:03:05.726, 18, 0.00, 0.14, 91, -1.100, 1.300, -89.000, 382, 100, 100, 23, 22212, -20993, 4729, 5197, 13, 14, 1528822985.726, 111, 0, 1024, 1024, 1024, 1024, 0, 6, 3694, 3706, 3714, 3695, 3690, 3711, 0, 1, 19399, -89.900, 0.000, -90.100, 0.000, 0.000, -2.900, 0.0, , , , , , 97, , , 13, 13, 13
37.3533340, -119.5420197, 41.400, 10:03:05.826, 18, 0.00, 0.15, 91, -1.100, 1.300, -89.100, 382, 100, 100, 23, 22212, -20993, 4729, 5197, 13, 14, 1528822985.827, 90, 0, 1024, 1024, 1024, 1024, 0, 6, 3694, 3706, 3714, 3695, 3690, 3711, 0, 1, 19501, -89.900, 0.000, -90.100, 0.000, 0.000, -3.000, 0.0, , , , , , 97, , , 13, 13, 13
37.3533340, -119.5420197, 41.700, 10:03:05.926, 18, 0.00, 0.15, 91, -1.300, 1.200, -89.200, 382, 100, 100, 23, 22212, -20993, 4729, 5197, 13, 14, 1528822985.927, 75, 0, 1024, 1024, 1024, 1024, 0, 6, 3694, 3706, 3714, 3695, 3690, 3711, 0, 1, 19600, -89.900, 0.000, -90.100, 0.000, 0.000, -2.900, 0.0, , , , , , 97, , , 13, 13, 13
37.3533340, -119.5420197, 42.000, 10:03:06.025, 18, 0.00, 0.15, 91, -1.200, 1.200, -89.200, 382, 100, 100, 23, 22172, -20970, 4729, 5197, 13, 14, 1528822986.026, 83, 0, 1024, 1024, 1024, 1024, 0, 6, 3697, 3700, 3709, 3692, 3683, 3701, 0, 1, 19699, -89.900, 0.000, -90.100, 0.000, 0.000, -2.900, 0.0, , , , , , 97, , , 13, 13, 13
37.3533340, -119.5420198, 42.300, 10:03:06.126, 18, 0.00, 0.16, 91, -1.200, 1.200, -89.200, 382, 100, 100, 23, 22172, -20970, 4729, 5197, 13, 14, 1528822986.127, 61, 0, 1024, 1024, 1024, 1024, 0, 6, 3697, 3700, 3709, 3692, 3683, 3701, 0, 1, 19800, -89.900, 0.000, -90.100, 0.000, 0.000, -2.900, 0.0, , , , , , 97, , , 13, 13, 13
37.3533340, -119.5420198, 42.600, 10:03:06.226, 18, 0.00, 0.16, 91, -1.200, 1.100, -89.100, 382, 100, 100, 23, 22172, -20970, 4729, 5197, 13, 14, 1528822986.226, 64, 0, 1024, 1024, 1024, 1024, 0, 6, 3697, 3700, 3709, 3692, 3683, 3701, 0, 1, 19899, -89.900, 0.000, -90.100, 0.000, 0.000, -2.900, 0.0, , , , , , 97, , , 13, 13, 13
37.3533340, -119.5420198, 42.900, 10:03:06.326, 18, 0.00, 0.16, 91, -1.100, 1.200, -89.100, 382, 100, 100, 23, 22172, -20970, 4729, 5197, 13, 14, 1528822986.327, 67, 0, 1024, 1024, 1024, 1024, 0, 6, 3697, 3700, 3709, 3692, 3683, 3701, 0, 1, 20000, -89.900, 0.000, -90.100, 0.000, 0.000, -2.900, 0.0, , , , , , 97, , , 13, 13, 13
37.3533341, -119.5420199, 43.100, 10:03:06.426, 18, 0.00, 0.16, 91, -1.100, 1.000, -89.100, 382, 100, 100, 23, 22172, -20970, 4729, 5197, 13, 14, 1528822986.426, 72, 0, 1024, 1024, 1024, 1024, 0, 6, 3697, 3700, 3709, 3692, 3683, 3701, 0, 1, 20100, -89.900, 0.000, -90.100, 0.000, 0.000, -2.800, 0.0, , , , , , 97, , , 13, 13, 13
37.3533341, -119.5420199, 43.400, 10:03:06.526, 18, 0.00, 0.16, 91, -1.100, 1.100, -89.100, 382, 100, 100, 23, 22172, -20970, 4729, 5197, 13, 14, 1528822986.526, 36, 0, 1024, 1024, 1024, 1024, 0, 6, 3697, 3700, 3709, 3692, 3683, 3701, 0, 1, 20200, -89.900, 0.000, -90.100, 0.000, 0.000, -2.800, 0.0, , , , , , 97, , , 13, 13, 13
37.3533341, -119.5420198, 43.700, 10:03:06.626, 18, 0.00, 0.16, 91, -1.000, 1.100, -89.100, 382, 100, 100, 23, 22172, -20970, 4729, 5197, 13, 14, 1528822986.627, 39, 0, 1024, 1024, 1024, 1024, 0, 6, 3697, 3700, 3709, 3692, 3683, 3701, 0, 1, 20300, -89.900, 0.000, -90.100, 0.000, 0.000, -2.900, 0.0, , , , , , 97, , , 13, 13, 13
37.3533341, -119.5420199, 44.000, 10:03:06.726, 18, 0.00, 0.16, 91, -0.900, 1.100, -89.000, 382, 100, 100, 23, 22172, -20970, 4729, 5197, 13, 14, 1528822986.726, 56, 0, 1024, 1024, 1024, 1024, 0, 6, 3697, 3700, 3709, 3692, 3683, 3701, 0, 1, 20400, -89.900, 0.000, -90.100, 0.000, 0.000, -2.900, 0.0, , , , , , 97, , , 13, 13, 13
37.3533341, -119.5420199, 44.300, 10:03:06.826, 18, 0.00, 0.16, 91, -0.900, 1.200, -89.000, 382, 100, 100, 23, 22172, -20970, 4729, 5197, 13, 14, 1528822986.826, 30, 0, 1024, 1024, 1024, 1024, 0, 6, 3697, 3700, 3709, 3692, 3683, 3701, 0, 1, 20500, -89.900, 0.000, -90.100, 0.000, 0.000, -2.900, 0.0, , , , , , 97, , , 13, 13, 13
37.3533341, -119.5420199, 44.600, 10:03:06.926, 18, 0.00, 0.16, 91, -0.700, 1.300, -89.100, 382, 100, 100, 23, 22172, -20970, 4729, 5197, 13, 14, 1528822986.927, 22, 0, 1024, 1024, 1024, 1024, 0, 6, 3697, 3700, 3709, 3692, 3683, 3701, 0, 1, 20600, -89.900, 0.000, -90.100, 0.000, 0.000, -2.900, 0.0, , , , , , 97, , , 13, 13, 13
37.3533341, -119.5420199, 45.200, 10:03:07.026, 18, 0.00, 0.16, 91, -0.500, 1.400, -89.300, 382, 100, 100, 23, 22205, -20300, 4729, 5197, 13, 14, 1528822987.026, 27, 0, 1024, 1024, 1024, 1024, 0, 6, 3693, 3703, 3718, 3696, 3676, 3720, 0, 1, 20700, -89.900, 0.000, -90.100, 0.000, 0.000, -3.000, 0.0, , , , , , 97, , , 13, 13, 13
37.3533341, -119.5420199, 45.500, 10:03:07.126, 18, 0.00, 0.16, 91, -0.900, 1.300, -89.400, 382, 100, 100, 23, 22205, -20300, 4729, 5197, 13, 14, 1528822987.126, 34, 0, 1024, 1024, 1024, 1024, 0, 6, 3693, 3703, 3718, 3696, 3676, 3720, 0, 1, 20799, -89.900, 0.000, -90.100, 0.000, 0.000, -3.000, 0.0, , , , , , 97, , , 13, 13, 13
37.3533341, -119.5420199, 45.800, 10:03:07.225, 18, 0.00, 0.16, 91, -1.300, 1.100, -89.400, 382, 100, 100, 23, 22205, -20300, 4729, 5197, 13, 14, 1528822987.226, 25, 0, 1024, 1024, 1024, 1024, 0, 6, 3693, 3703, 3718, 3696, 3676, 3720, 0, 1, 20899, -89.900, 0.000, -90.100, 0.000, 0.000, -3.000, 0.0, , , , , , 97, , , 13, 13, 13
37.3533341, -119.5420198, 46.100, 10:03:07.326, 18, 0.00, 0.17, 91, -1.600, 0.900, -89.400, 382, 100, 100, 23, 22205, -20300, 4729, 5197, 13, 14, 1528822987.326, 17, 0, 1024, 1024, 1024, 1024, 0, 6, 3693, 3703, 3718, 3696, 3676, 3720, 0, 1, 21000, -90.000, 0.000, -90.100, 0.000, 0.000, -3.100, 0.0, , , , , , 97, , , 13, 13, 13
37.3533342, -119.5420198, 46.500, 10:03:07.426, 18, 0.00, 0.16, 91, -1.800, 0.900, -89.300, 382, 100, 100, 23, 22205, -20300, 4729, 5197, 13, 14, 1528822987.426, 24, 0, 1024, 1024, 1024, 1024, 0, 6, 3693, 3703, 3718, 3696, 3676, 3720, 0, 1, 21100, -89.900, 0.000, -90.100, 0.000, 0.000, -3.100, 0.0, , , , , , 97, , , 13, 13, 13
37.3533342, -119.5420198, 46.800, 10:03:07.526, 18, 0.00, 0.16, 91, -1.900, 0.800, -89.300, 382, 100, 100, 23, 22205, -20300, 4729, 5197, 13, 14, 1528822987.526, 6, 0, 1024, 1024, 1024, 1024, 0, 6, 3693, 3703, 3718, 3696, 3676, 3720, 0, 1, 21200, -90.000, 0.000, -90.100, 0.000, 0.000, -3.000, 0.0, , , , , , 97, , , 13, 13, 13
