latitude,longitude,altitude(feet),ascent(feet),speed(mph),distance(feet),time(millisecond),datetime(utc),satellites,gpslevel,voltage(v),max_altitude(feet),max_ascent(feet),max_speed(mph),max_distance(feet), xSpeed(mph), ySpeed(mph), zSpeed(mph), compass_heading(degrees), pitch(degrees), roll(degrees),isPhoto,isVideo,rc_elevator,rc_aileron,rc_throttle,rc_rudder,gimbal_heading(degrees),gimbal_pitch(degrees),battery_percent,voltageCell1,voltageCell2,voltageCell3,voltageCell4,voltageCell5,voltageCell6,current(A),battery_temperature(f),flycStateRaw,flycState,message
37.3533194,-119.5420297,4565.6088541047,0,0,0,2920,2018-06-12 17:57:52,17,0,0,4565.6088541047,0,0,0,0,0,0,267.5, -0.4, -1.2,1,0,1024,1024,1024,1024,266.6,-89.9,98,4.203,4.256,4.274,4.272,4.178,4.265,0,73.4,11,AutoTakeoff,DJI_0477.jpg Starting Mission from Lat/Long: 37.35332/-119.54203 Camera: Zenmuse X3 - Overlap: 90/90 - Active Connection: No
37.3533194,-119.5420297,4565.6088541047,0,0,0,3000,2018-06-12 17:57:52,17,0,25.535,4565.6088541047,0,0,0,0,0,0,267.5, -0.3, -1.1,0,0,1024,1024,1024,1024,266.7,-89.9,98,4.203,4.256,4.274,4.272,4.178,4.265,3.786,73.4,11,AutoTakeoff,
37.3533193,-119.5420298,4565.6088541047,0,0.223694,0.04660761304,3100,2018-06-12 17:57:52,17,0,25.535,4565.6088541047,0,0.223694,0.04660761304,0,0,0,267.6, -0.2, -0.3,0,0,1024,1024,1024,1024,266.6,-89.9,98,4.203,4.256,4.274,4.272,4.178,4.265,3.786,73.4,11,AutoTakeoff,
37.3533191,-119.5420298,4565.9369381047,0.328084,0.223694,0.113231959004,3200,2018-06-12 17:57:52,17,0,25.535,4565.9369381047,0.328084,0.223694,0.113231959004,0,0,0,267.7, 0, 0.5,0,0,1024,1024,1024,1024,266.6,-89.9,98,4.203,4.256,4.274,4.272,4.178,4.265,3.786,73.4,11,AutoTakeoff,
37.353319,-119.5420299,4565.9369381047,0.328084,0.223694,0.157044296364,3300,2018-06-12 17:57:52,17,0,25.535,4565.9369381047,0.328084,0.223694,0.157044296364,0,0,0,267.8, 0.4, 0.8,0,0,1024,1024,1024,1024,266.7,-89.9,98,4.203,4.256,4.274,4.272,4.178,4.265,3.786,73.4,11,AutoTakeoff,
37.3533188,-119.54203,4565.9369381047,0.328084,0.223694,0.235566608588,3500,2018-06-12 17:57:53,17,0,25.535,4565.9369381047,0.328084,0.223694,0.235566608588,0,0,0,267.9, 0.6, 1.1,0,0,1024,1024,1024,1024,266.7,-89.9,98,4.203,4.256,4.274,4.272,4.178,4.265,3.786,73.4,11,AutoTakeoff,
37.3533186,-119.54203,4566.2650221047,0.656168,0.223694,0.304571532056,3600,2018-06-12 17:57:53,17,0,25.535,4566.2650221047,0.656168,0.223694,0.304571532056,0,0,0,268, 0.7, 1.3,0,0,1024,1024,1024,1024,266.6,-89.9,98,4.203,4.256,4.274,4.272,4.178,4.265,3.786,73.4,11,AutoTakeoff,
37.3533185,-119.5420301,4566.2650221047,0.656168,0.223694,0.34825460432,3700,2018-06-12 17:57:53,17,0,25.535,4566.2650221047,0.656168,0.223694,0.34825460432,0,0,0,268.1, 0.7, 1.4,0,0,1024,1024,1024,1024,266.6,-89.9,98,4.203,4.256,4.274,4.272,4.178,4.265,3.786,73.4,11,AutoTakeoff,
37.3533184,-119.5420302,4566.5931061047,0.984252,0.223694,0.39261156112,3800,2018-06-12 17:57:53,17,0,25.535,4566.5931061047,0.984252,0.223694,0.39261156112,0,0,0,268.1, 0.6, 1.4,0,0,1024,1024,1024,1024,266.6,-89.9,98,4.203,4.256,4.274,4.272,4.178,4.265,3.786,73.4,11,AutoTakeoff,
37.3533183,-119.5420303,4566.5931061047,0.984252,0,0.4374343972,3900,2018-06-12 17:57:53,17,0,25.535,4566.5931061047,0.984252,0.223694,0.4374343972,0,0,0,268.2, 0.8, 1.4,0,0,1024,1024,1024,1024,266.6,-89.9,98,4.203,4.256,4.274,4.272,4.178,4.265,3.786,73.4,11,AutoTakeoff,
37.3533183,-119.5420303,4566.9211901047,1.312336,0,0.4374343972,4000,2018-06-12 17:57:53,17,0,25.248,4566.9211901047,1.312336,0.223694,0.4374343972,0,0,0,268.2, 0.9, 1.2,0,0,1024,1024,1024,1024,266.6,-89.9,98,4.002,4.023,4.155,4.161,4.145,4.13,14.866,73.4,11,AutoTakeoff,
37.3533182,-119.5420303,4566.9211901047,1.312336,0,0.47113190484,4100,2018-06-12 17:57:53,16,0,25.248,4566.9211901047,1.312336,0.223694,0.47113190484,0,0,0,268.1, 0.8, 1.2,0,0,1024,1024,1024,1024,266.6,-89.9,98,4.002,4.023,4.155,4.161,4.145,4.13,14.866,73.4,11,AutoTakeoff,
37.3533181,-119.5420303,4567.2492741047,1.64042,0,0.5052165516,4200,2018-06-12 17:57:53,16,0,25.248,4567.2492741047,1.64042,0.223694,0.5052165516,0,0,0,267.9, 0.6, 1.3,0,0,1024,1024,1024,1024,266.6,-89.9,98,4.002,4.023,4.155,4.161,4.145,4.13,14.866,73.4,11,AutoTakeoff,
37.353318,-119.5420303,4567.2492741047,1.64042,0,0.539616159,4300,2018-06-12 17:57:53,16,0,25.248,4567.2492741047,1.64042,0.223694,0.539616159,0,0,-0.223694,267.8, 0.4, 1.4,0,0,1024,1024,1024,1024,266.6,-89.9,98,4.002,4.023,4.155,4.161,4.145,4.13,14.866,73.4,11,AutoTakeoff,
37.353318,-119.5420304,4567.5773581047,1.968504,0,0.5496555294,4400,2018-06-12 17:57:54,16,0,25.248,4567.5773581047,1.968504,0.223694,0.5496555294,0,0,0,267.5, 0.3, 1.3,0,0,1024,1024,1024,1024,266.6,-89.9,98,4.002,4.023,4.155,4.161,4.145,4.13,14.866,73.4,11,AutoTakeoff,
37.353318,-119.5420304,4567.5773581047,1.968504,0,0.5496555294,4500,2018-06-12 17:57:54,17,0,25.248,4567.5773581047,1.968504,0.223694,0.5496555294,0,0,0,267.3, 0.3, 1.1,0,0,1024,1024,1024,1024,266.6,-89.9,98,4.002,4.023,4.155,4.161,4.145,4.13,14.866,73.4,11,AutoTakeoff,
37.3533179,-119.5420304,4567.9054421047,2.296588,0,0.58371721028,4600,2018-06-12 17:57:54,17,0,25.248,4567.9054421047,2.296588,0.223694,0.58371721028,0,0,0,267.2, 0.5, 1,0,0,1024,1024,1024,1024,266.6,-89.9,98,4.002,4.023,4.155,4.161,4.145,4.13,14.866,73.4,11,AutoTakeoff,
37.3533179,-119.5420304,4567.9054421047,2.296588,0,0.58371721028,4700,2018-06-12 17:57:54,17,0,25.248,4567.9054421047,2.296588,0.223694,0.58371721028,0,0,-0.223694,267.2, 0.5, 1,0,0,1024,1024,1024,1024,266.6,-89.9,98,4.002,4.023,4.155,4.161,4.145,4.13,14.866,73.4,11,AutoTakeoff,
37.3533179,-119.5420304,4568.2335261047,2.624672,0,0.58371721028,4800,2018-06-12 17:57:54,17,0,25.248,4568.2335261047,2.624672,0.223694,0.58371721028,0,0,-0.223694,267.2, 0.5, 1,0,0,1024,1024,1024,1024,266.6,-89.9,98,4.002,4.023,4.155,4.161,4.145,4.13,14.866,73.4,11,AutoTakeoff,
37.3533179,-119.5420304,4568.5616101047,2.952756,0,0.58371721028,4900,2018-06-12 17:57:54,18,0,25.248,4568.5616101047,2.952756,0.223694,0.58371721028,0,0,0,267.2, 0.4, 1,0,0,1024,1024,1024,1024,266.6,-89.9,98,4.002,4.023,4.155,4.161,4.145,4.13,14.866,73.4,11,AutoTakeoff,
37.3533179,-119.5420303,4568.5616101047,2.952756,0,0.57427167192,5000,2018-06-12 17:57:54,18,0,23.892,4568.5616101047,2.952756,0.223694,0.58371721028,0,0,-0.223694,267.2, 0.3, 0.8,0,0,1024,1024,1024,1024,266.6,-90,98,4.002,4.023,4.155,4.161,4.145,4.13,16.41,73.4,14,Waypoint,
37.3533179,-119.5420303,4568.8896941047,3.28084,0,0.57427167192,5100,2018-06-12 17:57:54,18,0,23.892,4568.8896941047,3.28084,0.223694,0.58371721028,0,0,0,267.2, 0.1, 0.5,0,0,1024,1024,1024,1024,266.6,-90,98,4.002,4.023,4.155,4.161,4.145,4.13,16.41,73.4,14,Waypoint,
37.3533179,-119.5420303,4568.8896941047,3.28084,0,0.57427167192,5200,2018-06-12 17:57:54,18,0,23.892,4568.8896941047,3.28084,0.223694,0.58371721028,0,0,0,267.1, -0.1, 0,0,0,1024,1024,1024,1024,266.6,-90,98,4.002,4.023,4.155,4.161,4.145,4.13,16.41,73.4,14,Waypoint,
37.353318,-119.5420303,4569.2177781047,3.608924,0,0.539616159,5300,2018-06-12 17:57:54,16,0,23.892,4569.2177781047,3.608924,0.223694,0.58371721028,0,0,0,267, -0.2, 0,0,0,1024,1024,1024,1024,266.6,-90,98,4.002,4.023,4.155,4.161,4.145,4.13,16.41,73.4,14,Waypoint,
37.353318,-119.5420303,4569.2177781047,3.608924,0,0.539616159,5400,2018-06-12 17:57:55,16,0,23.892,4569.2177781047,3.608924,0.223694,0.58371721028,0,0,0,266.9, -0.2, 0,0,0,1024,1024,1024,1024,266.6,-90,98,4.002,4.023,4.155,4.161,4.145,4.13,16.41,73.4,14,Waypoint,
37.353318,-119.5420303,4569.5458621047,3.937008,0,0.539616159,5500,2018-06-12 17:57:55,16,0,23.892,4569.5458621047,3.937008,0.223694,0.58371721028,0,0,-0.223694,266.9, -0.1, 0,0,0,1024,1024,1024,1024,266.6,-90,98,4.002,4.023,4.155,4.161,4.145,4.13,16.41,73.4,14,Waypoint,
37.3533181,-119.5420303,4569.5458621047,3.937008,0,0.5052165516,5600,2018-06-12 17:57:55,16,0,23.892,4569.5458621047,3.937008,0.223694,0.58371721028,0,0,-0.223694,267, 0, 0,0,0,1024,1024,1024,1024,266.6,-90,98,4.002,4.023,4.155,4.161,4.145,4.13,16.41,73.4,14,Waypoint,
37.3533181,-119.5420303,4569.8739461047,4.265092,0,0.5052165516,5700,2018-06-12 17:57:55,16,0,23.892,4569.8739461047,4.265092,0.223694,0.58371721028,0,0,-0.223694,267, 0.1, 0.1,0,0,1024,1024,1024,1024,266.6,-89.9,98,4.002,4.023,4.155,4.161,4.145,4.13,16.41,73.4,14,Waypoint,
37.3533181,-119.5420303,4570.2020301047,4.593176,0,0.5052165516,5800,2018-06-12 17:57:55,18,0,23.892,4570.2020301047,4.593176,0.223694,0.58371721028,0,0,-0.223694,267, 0.1, 0.1,0,0,1024,1024,1024,1024,266.6,-90,98,4.002,4.023,4.155,4.161,4.145,4.13,16.41,73.4,14,Waypoint,
37.353318,-119.5420302,4570.8581981047,5.249344,0,0.53097442644,6000,2018-06-12 17:57:55,18,0,23.892,4570.8581981047,5.249344,0.223694,0.58371721028,0,0,-0.223694,267, 0.1, 0.1,0,0,1024,1024,1024,1024,266.6,-89.9,98,3.977,3.976,3.966,3.981,4.026,4.021,16.41,73.4,14,Waypoint,
37.353318,-119.5420302,4571.1862821047,5.577428,0,0.53097442644,6100,2018-06-12 17:57:55,18,0,23.892,4571.1862821047,5.577428,0.223694,0.58371721028,0,0,-0.447388,267, 0, 0.3,0,0,1024,1024,1024,1024,266.6,-90,98,3.977,3.976,3.966,3.981,4.026,4.021,16.41,73.4,14,Waypoint,
37.3533178,-119.5420303,4571.8424501047,6.233596,0,0.60914372028,6200,2018-06-12 17:57:55,18,0,23.892,4571.8424501047,6.233596,0.223694,0.60914372028,0,0,-0.447388,267, 0, 0.4,0,0,1024,1024,1024,1024,266.6,-90,98,3.977,3.976,3.966,3.981,4.026,4.021,16.41,73.4,14,Waypoint,
37.3533177,-119.5420303,4572.4986181047,6.889764,0,0.644192934,6300,2018-06-12 17:57:55,17,0,23.892,4572.4986181047,6.889764,0.223694,0.644192934,0,0,-0.447388,267.1, 0.1, 0.6,0,0,1024,1024,1024,1024,266.6,-89.9,98,3.977,3.976,3.966,3.981,4.026,4.021,16.41,73.4,14,Waypoint,
37.3533176,-119.5420303,4573.1547861047,7.545932,0,0.67939306636,6400,2018-06-12 17:57:56,17,0,23.892,4573.1547861047,7.545932,0.223694,0.67939306636,0,0,-0.447388,267.3, 0.2, 0.9,0,0,1024,1024,1024,1024,266.6,-89.9,98,3.977,3.976,3.966,3.981,4.026,4.021,16.41,73.4,14,Waypoint,
37.3533174,-119.5420303,4574.1390381047,8.530184,0,0.75016078516,6500,2018-06-12 17:57:56,17,0,23.892,4574.1390381047,8.530184,0.223694,0.75016078516,0,0,-0.671082,267.4, 0.3, 1.4,0,0,1024,1024,1024,1024,266.6,-89.9,98,3.977,3.976,3.966,3.981,4.026,4.021,16.41,73.4,14,Waypoint,
37.3533173,-119.5420304,4574.7952061047,9.186352,0,0.79262469728,6600,2018-06-12 17:57:56,17,0,23.892,4574.7952061047,9.186352,0.223694,0.79262469728,0,0,-0.671082,267.4, 0.3, 1.6,0,0,1024,1024,1024,1024,266.6,-89.9,98,3.977,3.976,3.966,3.981,4.026,4.021,16.41,73.4,14,Waypoint,
37.3533172,-119.5420304,4575.7794581047,10.170604,0,0.82794622072,6700,2018-06-12 17:57:56,18,0,23.892,4575.7794581047,10.170604,0.223694,0.82794622072,0,0,-0.671082,267.4, 0.4, 1.6,0,0,1024,1024,1024,1024,266.6,-89.9,98,3.977,3.976,3.966,3.981,4.026,4.021,16.41,73.4,14,Waypoint,
37.353317,-119.5420304,4576.7637101047,11.154856,0,0.89886485816,6800,2018-06-12 17:57:56,18,0,23.892,4576.7637101047,11.154856,0.223694,0.89886485816,0,0,-0.671082,267.3, 0.3, 1.6,0,0,1024,1024,1024,1024,266.6,-89.9,98,3.977,3.976,3.966,3.981,4.026,4.021,16.41,73.4,14,Waypoint,
37.3533169,-119.5420304,4577.7479621047,12.139108,0,0.93444228712,6900,2018-06-12 17:57:56,18,0,23.892,4577.7479621047,12.139108,0.223694,0.93444228712,0,0,-0.671082,267.2, 0.4, 1.7,0,0,1024,1024,1024,1024,266.6,-89.9,98,3.977,3.976,3.966,3.981,4.026,4.021,16.41,73.4,14,Waypoint,
37.3533169,-119.5420304,4579.0602981047,13.451444,0,0.93444228712,7000,2018-06-12 17:57:56,18,0,24.071,4579.0602981047,13.451444,0.223694,0.93444228712,0,0,-0.671082,267.2, 0.3, 1.6,0,0,1024,1024,1024,1024,266.6,-89.9,98,4.019,3.982,3.941,4.004,3.98,3.974,15.719,73.4,14,Waypoint,
37.3533169,-119.5420304,4580.0445501047,14.435696,0,0.93444228712,7100,2018-06-12 17:57:56,18,0,24.071,4580.0445501047,14.435696,0.223694,0.93444228712,0,0,-0.671082,267.1, 0.5, 1.4,0,0,1024,1024,1024,1024,266.6,-89.9,98,4.019,3.982,3.941,4.004,3.98,3.974,15.719,73.4,14,Waypoint,
37.3533168,-119.5420304,4581.0288021047,15.419948,0,0.97008861372,7200,2018-06-12 17:57:56,18,0,24.071,4581.0288021047,15.419948,0.223694,0.97008861372,0,0,-0.671082,267.1, 0.5, 1.3,0,0,1024,1024,1024,1024,266.6,-89.9,98,4.019,3.982,3.941,4.004,3.98,3.974,15.719,73.4,14,Waypoint,
37.3533168,-119.5420304,4582.3411381047,16.732284,0,0.97008861372,7300,2018-06-12 17:57:56,18,0,24.071,4582.3411381047,16.732284,0.223694,0.97008861372,0,0,-0.671082,267, 0.4, 1.2,0,0,1024,1024,1024,1024,266.6,-89.9,98,4.019,3.982,3.941,4.004,3.98,3.974,15.719,73.4,14,Waypoint,
37.3533168,-119.5420304,4583.3253901047,17.716536,0,0.97008861372,7400,2018-06-12 17:57:57,18,0,24.071,4583.3253901047,17.716536,0.223694,0.97008861372,0,0,-0.671082,266.9, 0.6, 1,0,0,1024,1024,1024,1024,266.6,-89.9,98,4.019,3.982,3.941,4.004,3.98,3.974,15.719,73.4,14,Waypoint,
37.3533168,-119.5420305,4584.6377261047,19.028872,0,0.97657155356,7500,2018-06-12 17:57:57,18,0,24.071,4584.6377261047,19.028872,0.223694,0.97657155356,0,0,-0.671082,266.9, 0.6, 0.8,0,0,1024,1024,1024,1024,266.6,-89.9,98,4.019,3.982,3.941,4.004,3.98,3.974,15.719,73.4,14,Waypoint,
37.3533168,-119.5420305,4585.6219781047,20.013124,0,0.97657155356,7600,2018-06-12 17:57:57,18,0,24.071,4585.6219781047,20.013124,0.223694,0.97657155356,0,0,-0.671082,267, 0.6, 0.8,0,0,1024,1024,1024,1024,266.6,-89.9,98,4.019,3.982,3.941,4.004,3.98,3.974,15.719,73.4,14,Waypoint,
37.3533169,-119.5420305,4586.6062301047,20.997376,0,0.94117128996,7700,2018-06-12 17:57:57,18,0,24.071,4586.6062301047,20.997376,0.223694,0.97657155356,0,0,-0.671082,267, 0.5, 0.8,0,0,1024,1024,1024,1024,266.6,-89.9,98,4.019,3.982,3.941,4.004,3.98,3.974,15.719,73.4,14,Waypoint,
37.353317,-119.5420304,4587.9185661047,22.309712,0,0.89886485816,7800,2018-06-12 17:57:57,18,0,24.071,4587.9185661047,22.309712,0.223694,0.97657155356,0,0,-0.671082,266.9, 0.5, 0.8,0,0,1024,1024,1024,1024,266.6,-90,98,4.019,3.982,3.941,4.004,3.98,3.974,15.719,73.4,14,Waypoint,
37.3533171,-119.5420304,4588.9028181047,23.293964,0,0.86336288852,7900,2018-06-12 17:57:57,18,0,24.071,4588.9028181047,23.293964,0.223694,0.97657155356,0,0,-0.671082,267, 0.4, 0.6,0,0,1024,1024,1024,1024,266.6,-90,98,4.019,3.982,3.941,4.004,3.98,3.974,15.719,73.4,14,Waypoint,
37.3533174,-119.5420303,4591.1994061047,25.590552,0,0.75016078516,8000,2018-06-12 17:57:57,18,0,23.272,4591.1994061047,25.590552,0.223694,0.97657155356,0,0,-0.671082,267.4, 0.1, 0.5,0,0,1024,1024,1024,1024,266.6,-90,98,3.871,3.847,3.848,3.862,3.855,3.884,22.49,73.4,14,Waypoint,
37.3533176,-119.5420303,4592.1836581047,26.574804,0,0.67939306636,8100,2018-06-12 17:57:57,18,0,23.272,4592.1836581047,26.574804,0.223694,0.97657155356,0,0,-0.671082,267.5, 0.1, 0.2,0,0,1024,1024,1024,1024,266.6,-90,98,3.871,3.847,3.848,3.862,3.855,3.884,22.49,73.4,14,Waypoint,
37.3533178,-119.5420302,4593.1679101047,27.559056,0,0.60149936308,8200,2018-06-12 17:57:57,18,0,23.272,4593.1679101047,27.559056,0.223694,0.97657155356,0,0,-0.671082,267.6, 0, 0,0,0,1024,1024,1024,1024,266.6,-90,98,3.871,3.847,3.848,3.862,3.855,3.884,22.49,73.4,14,Waypoint,
37.3533179,-119.5420302,4594.4802461047,28.871392,0,0.56616143544,8310,2018-06-12 17:57:57,18,0,23.272,4594.4802461047,28.871392,0.223694,0.97657155356,0,0,-0.671082,267.6, -0.1, -0.4,0,0,1024,1024,1024,1024,266.7,-90,98,3.871,3.847,3.848,3.862,3.855,3.884,22.49,73.4,14,Waypoint,
37.3533179,-119.5420302,4594.4802461047,28.871392,0,0.56616143544,8400,2018-06-12 17:57:58,18,0,23.272,4594.4802461047,28.871392,0.223694,0.97657155356,0,0,-0.671082,267.6, -0.1, -0.4,0,0,1024,1024,1024,1024,266.7,-90,98,3.871,3.847,3.848,3.862,3.855,3.884,22.49,73.4,14,Waypoint,
37.3533181,-119.5420302,4595.4644981047,29.855644,0,0.49597770616,8500,2018-06-12 17:57:58,18,0,23.272,4595.4644981047,29.855644,0.223694,0.97657155356,0,0,-0.671082,267.5, 0, -0.7,0,0,1024,1024,1024,1024,266.6,-90,98,3.871,3.847,3.848,3.862,3.855,3.884,22.49,73.4,14,Waypoint,
37.3533182,-119.5420301,4596.4487501047,30.839896,0,0.45292652368,8600,2018-06-12 17:57:58,18,0,23.272,4596.4487501047,30.839896,0.223694,0.97657155356,0,0,-0.671082,267.3, 0, -0.8,0,0,1024,1024,1024,1024,266.6,-90,98,3.871,3.847,3.848,3.862,3.855,3.884,22.49,73.4,14,Waypoint,
37.3533183,-119.54203,4597.4330021047,31.824148,0,0.41065618112,8700,2018-06-12 17:57:58,18,0,23.272,4597.4330021047,31.824148,0.223694,0.97657155356,0,0,-0.671082,267.2, -0.1, -0.7,0,0,1024,1024,1024,1024,266.6,-90,98,3.871,3.847,3.848,3.862,3.855,3.884,22.49,73.4,14,Waypoint,
37.3533184,-119.5420299,4598.4172541047,32.8084,0,0.36943242652,8800,2018-06-12 17:57:58,18,0,23.272,4598.4172541047,32.8084,0.223694,0.97657155356,0,0,-0.671082,267.2, -0.3, -0.5,0,0,1024,1024,1024,1024,266.7,-90,98,3.871,3.847,3.848,3.862,3.855,3.884,22.49,73.4,14,Waypoint,
37.3533184,-119.5420298,4599.7295901047,34.120736,0,0.36600066788,8900,2018-06-12 17:57:58,18,0,23.272,4599.7295901047,34.120736,0.223694,0.97657155356,0,0,-0.671082,267.1, -0.4, -0.4,0,0,1024,1024,1024,1024,266.6,-90,98,3.871,3.847,3.848,3.862,3.855,3.884,22.49,73.4,14,Waypoint,
37.3533184,-119.5420298,4600.7138421047,35.104988,0,0.36600066788,9000,2018-06-12 17:57:58,18,0,23.267,4600.7138421047,35.104988,0.223694,0.97657155356,0,0,-0.671082,267.1, -0.6, -0.5,0,0,1024,1024,1024,1024,266.6,-90,98,3.869,3.888,3.876,3.889,3.895,3.911,21.884,73.4,14,Waypoint,
37.3533185,-119.5420297,4601.6980941047,36.08924,0,0.3283628714,9100,2018-06-12 17:57:58,18,0,23.267,4601.6980941047,36.08924,0.223694,0.97657155356,0,0,-0.671082,267, -0.6, -0.3,0,0,1024,1024,1024,1024,266.6,-90,98,3.869,3.888,3.876,3.889,3.895,3.911,21.884,73.4,14,Waypoint,
37.3533186,-119.5420297,4602.6823461047,37.073492,0,0.291879602516,9200,2018-06-12 17:57:58,18,0,23.267,4602.6823461047,37.073492,0.223694,0.97657155356,0,0,-0.671082,267, -0.3, -0.2,0,0,1024,1024,1024,1024,266.6,-89.9,98,3.869,3.888,3.876,3.889,3.895,3.911,21.884,73.4,14,Waypoint,
37.3533187,-119.5420297,4603.6665981047,38.057744,0,0.255394693212,9300,2018-06-12 17:57:58,18,0,23.267,4603.6665981047,38.057744,0.223694,0.97657155356,0,0,-0.671082,267, -0.1, -0.2,0,0,1024,1024,1024,1024,266.6,-89.9,98,3.869,3.888,3.876,3.889,3.895,3.911,21.884,73.4,14,Waypoint,
37.3533188,-119.5420297,4604.6508501047,39.041996,0,0.218909783908,9400,2018-06-12 17:57:59,18,0,23.267,4604.6508501047,39.041996,0.223694,0.97657155356,0,0,-0.671082,267, -0.1, -0.3,0,0,1024,1024,1024,1024,266.6,-89.9,98,3.869,3.888,3.876,3.889,3.895,3.911,21.884,73.4,14,Waypoint,
37.3533189,-119.5420297,4605.6351021047,40.026248,0,0.18242454652,9500,2018-06-12 17:57:59,18,0,23.267,4605.6351021047,40.026248,0.223694,0.97657155356,0,0,-0.671082,267, 0, -0.4,0,0,1024,1024,1024,1024,266.6,-89.9,98,3.869,3.888,3.876,3.889,3.895,3.911,21.884,73.4,14,Waypoint,
37.353319,-119.5420297,4606.6193541047,41.0105,0,0.145939637216,9600,2018-06-12 17:57:59,18,0,23.267,4606.6193541047,41.0105,0.223694,0.97657155356,0,0,-0.671082,267, -0.1, -0.4,0,0,1024,1024,1024,1024,266.6,-90,98,3.869,3.888,3.876,3.889,3.895,3.911,21.884,73.4,14,Waypoint,
37.3533191,-119.5420297,4607.9316901047,42.322836,0,0.109454727912,9700,2018-06-12 17:57:59,18,0,23.267,4607.9316901047,42.322836,0.223694,0.97657155356,0,0,-0.671082,267, -0.2, -0.4,0,0,1024,1024,1024,1024,266.6,-90,98,3.869,3.888,3.876,3.889,3.895,3.911,21.884,73.4,14,Waypoint,
37.3533191,-119.5420297,4608.9159421047,43.307088,0,0.109454727912,9800,2018-06-12 17:57:59,18,0,23.267,4608.9159421047,43.307088,0.223694,0.97657155356,0,0,-0.671082,267, -0.2, -0.3,0,0,1024,1024,1024,1024,266.6,-90,98,3.869,3.888,3.876,3.889,3.895,3.911,21.884,73.4,14,Waypoint,
37.3533191,-119.5420297,4609.9001941047,44.29134,0,0.109454727912,9900,2018-06-12 17:57:59,18,0,23.267,4609.9001941047,44.29134,0.223694,0.97657155356,0,0,-0.671082,267.1, -0.2, -0.3,0,0,1024,1024,1024,1024,266.6,-90,98,3.869,3.888,3.876,3.889,3.895,3.911,21.884,73.4,14,Waypoint,
37.3533191,-119.5420297,4610.8844461047,45.275592,0,0.109454727912,10000,2018-06-12 17:57:59,18,0,23.482,4610.8844461047,45.275592,0.223694,0.97657155356,0,0,-0.671082,267.2, -0.1, -0.3,0,0,1024,1024,1024,1024,266.6,-89.9,97,3.917,3.909,3.903,3.922,3.922,3.945,18.196,73.4,14,Waypoint,
37.3533192,-119.5420297,4611.5406141047,45.93176,0,0.072969818608,10100,2018-06-12 17:57:59,18,0,23.482,4611.5406141047,45.93176,0.223694,0.97657155356,0,0,-0.671082,267.2, 0, -0.3,0,0,1024,1024,1024,1024,266.6,-89.9,97,3.917,3.909,3.903,3.922,3.922,3.945,18.196,73.4,14,Waypoint,
37.3533192,-119.5420297,4612.5248661047,46.916012,0,0.072969818608,10200,2018-06-12 17:57:59,18,0,23.482,4612.5248661047,46.916012,0.223694,0.97657155356,0,0,-0.671082,267.2, 0, -0.2,0,0,1024,1024,1024,1024,266.6,-89.9,97,3.917,3.909,3.903,3.922,3.922,3.945,18.196,73.4,14,Waypoint,
37.3533192,-119.5420298,4614.4933701047,48.884516,0,0.078522312224,10310,2018-06-12 17:57:59,18,0,23.482,4614.4933701047,48.884516,0.223694,0.97657155356,0,0,-0.671082,267.1, 0, -0.3,0,0,1024,1024,1024,1024,266.6,-89.9,97,3.917,3.909,3.903,3.922,3.922,3.945,18.196,73.4,14,Waypoint,
37.3533192,-119.5420298,4615.4776221047,49.868768,0,0.078522312224,10400,2018-06-12 17:58:00,18,0,23.482,4615.4776221047,49.868768,0.223694,0.97657155356,0,0,-0.671082,267.1, 0, -0.4,0,0,1024,1024,1024,1024,266.6,-89.9,97,3.917,3.909,3.903,3.922,3.922,3.945,18.196,73.4,14,Waypoint,
37.3533191,-119.5420299,4617.4461261047,51.837272,0,0.123874347796,10600,2018-06-12 17:58:00,19,0,23.482,4617.4461261047,51.837272,0.223694,0.97657155356,0,0,-0.671082,267.1, 0, -0.2,0,0,1024,1024,1024,1024,266.6,-89.9,97,3.917,3.909,3.903,3.922,3.922,3.945,18.196,73.4,14,Waypoint,
37.353319,-119.5420299,4618.4303781047,52.821524,0,0.157044296364,10800,2018-06-12 17:58:00,19,0,23.482,4618.4303781047,52.821524,0.223694,0.97657155356,0,0,-0.671082,267.2, 0, 0,0,0,1024,1024,1024,1024,266.6,-89.9,97,3.917,3.909,3.903,3.922,3.922,3.945,18.196,73.4,14,Waypoint,
37.3533188,-119.5420299,4620.3988821047,54.790028,0,0.226463918008,11000,2018-06-12 17:58:00,19,0,23.522,4620.3988821047,54.790028,0.223694,0.97657155356,0,0,-0.671082,267.4, 0.2, 0.7,0,0,1024,1024,1024,1024,266.6,-89.9,97,3.916,3.913,3.902,3.917,3.92,3.932,17.998,73.4,14,Waypoint,
37.3533187,-119.5420299,4621.3831341047,55.77428,0,0.261898630428,11100,2018-06-12 17:58:00,19,0,23.522,4621.3831341047,55.77428,0.223694,0.97657155356,0,0,-0.671082,267.4, 0.1, 0.9,0,0,1024,1024,1024,1024,266.6,-89.9,97,3.916,3.913,3.902,3.917,3.92,3.932,17.998,73.4,14,Waypoint,
37.3533186,-119.54203,4622.3673861047,56.758532,0,0.304571532056,11200,2018-06-12 17:58:00,19,0,23.522,4622.3673861047,56.758532,0.223694,0.97657155356,0,0,-0.671082,267.5, 0.1, 1,0,0,1024,1024,1024,1024,266.6,-89.9,97,3.916,3.913,3.902,3.917,3.92,3.932,17.998,73.4,14,Waypoint,
37.3533185,-119.54203,4623.3516381047,57.742784,0,0.33969489276,11300,2018-06-12 17:58:00,19,0,23.522,4623.3516381047,57.742784,0.223694,0.97657155356,0,0,-0.671082,267.4, 0.2, 0.9,0,0,1024,1024,1024,1024,266.6,-89.9,97,3.916,3.913,3.902,3.917,3.92,3.932,17.998,73.4,14,Waypoint,
37.3533184,-119.5420301,4624.3358901047,58.727036,0,0.38284778128,11400,2018-06-12 17:58:01,19,0,23.522,4624.3358901047,58.727036,0.223694,0.97657155356,0,0,-0.671082,267.4, 0.3, 0.8,0,0,1024,1024,1024,1024,266.6,-89.9,97,3.916,3.913,3.902,3.917,3.92,3.932,17.998,73.4,14,Waypoint,
37.3533183,-119.5420301,4625.3201421047,59.711288,0,0.4177657614,11500,2018-06-12 17:58:01,19,0,23.522,4625.3201421047,59.711288,0.223694,0.97657155356,0,0,-0.671082,267.3, 0.4, 0.7,0,0,1024,1024,1024,1024,266.6,-89.9,97,3.916,3.913,3.902,3.917,3.92,3.932,17.998,73.4,14,Waypoint,
37.3533182,-119.5420301,4626.3043941047,60.69554,0,0.45292652368,11600,2018-06-12 17:58:01,19,0,23.522,4626.3043941047,60.69554,0.223694,0.97657155356,0,0,-0.671082,267.2, 0.4, 0.7,0,0,1024,1024,1024,1024,266.6,-89.9,97,3.916,3.913,3.902,3.917,3.92,3.932,17.998,73.4,14,Waypoint,
37.3533181,-119.5420302,4627.2886461047,61.679792,0,0.49597770616,11700,2018-06-12 17:58:01,19,0,23.522,4627.2886461047,61.679792,0.223694,0.97657155356,0,0,-0.671082,267.1, 0.3, 0.9,0,0,1024,1024,1024,1024,266.6,-89.9,97,3.916,3.913,3.902,3.917,3.92,3.932,17.998,73.4,14,Waypoint,
37.3533179,-119.5420302,4629.2571501047,63.648296,0,0.56616143544,11900,2018-06-12 17:58:01,19,0,23.522,4629.2571501047,63.648296,0.223694,0.97657155356,0,0,-0.671082,267, 0, 1.7,0,0,1024,1024,1024,1024,266.6,-89.9,97,3.916,3.913,3.902,3.917,3.92,3.932,17.998,73.4,14,Waypoint,
37.3533177,-119.5420302,4630.2414021047,64.632548,0,0.63696852432,12000,2018-06-12 17:58:01,19,0,23.447,4630.2414021047,64.632548,0.223694,0.97657155356,0,0,-0.671082,267, 0, 2,0,0,1024,1024,1024,1024,266.6,-89.9,97,3.908,3.907,3.897,3.909,3.913,3.932,17.875,73.4,14,Waypoint,
37.3533176,-119.5420302,4631.2256541047,65.6168,0,0.67254923412,12100,2018-06-12 17:58:01,19,0,23.447,4631.2256541047,65.6168,0.223694,0.97657155356,0,0,-0.671082,267.1, 0.1, 2,0,0,1024,1024,1024,1024,266.6,-89.9,97,3.908,3.907,3.897,3.909,3.913,3.932,17.875,73.4,14,Waypoint,
37.3533176,-119.5420302,4632.2099061047,66.601052,0,0.67254923412,12200,2018-06-12 17:58:01,19,0,23.447,4632.2099061047,66.601052,0.223694,0.97657155356,0,0,-0.671082,267.3, 0.1, 1.8,0,0,1024,1024,1024,1024,266.6,-90,97,3.908,3.907,3.897,3.909,3.913,3.932,17.875,73.4,14,Waypoint,
37.3533175,-119.5420303,4633.1941581047,67.585304,0,0.71472115148,12300,2018-06-12 17:58:01,19,0,23.447,4633.1941581047,67.585304,0.223694,0.97657155356,0,0,-0.671082,267.4, 0, 1.4,0,0,1024,1024,1024,1024,266.6,-90,97,3.908,3.907,3.897,3.909,3.913,3.932,17.875,73.4,14,Waypoint,
37.3533174,-119.5420303,4635.1626621047,69.553808,0,0.75016078516,12400,2018-06-12 17:58:02,19,0,23.447,4635.1626621047,69.553808,0.223694,0.97657155356,0,0,-0.671082,267.7, 0, 0.8,0,0,1024,1024,1024,1024,266.6,-89.9,97,3.908,3.907,3.897,3.909,3.913,3.932,17.875,73.4,14,Waypoint,
37.3533174,-119.5420303,4636.1469141047,70.53806,0,0.75016078516,12500,2018-06-12 17:58:02,19,0,23.447,4636.1469141047,70.53806,0.223694,0.97657155356,0,0,-0.671082,267.8, 0.2, 0.5,0,0,1024,1024,1024,1024,266.7,-89.9,97,3.908,3.907,3.897,3.909,3.913,3.932,17.875,73.4,14,Waypoint,
37.3533174,-119.5420304,4637.1311661047,71.522312,0,0.7574147224,12600,2018-06-12 17:58:02,19,0,23.447,4637.1311661047,71.522312,0.223694,0.97657155356,0,0,-0.671082,267.7, 0.3, 0.4,0,0,1024,1024,1024,1024,266.6,-89.9,97,3.908,3.907,3.897,3.909,3.913,3.932,17.875,73.4,14,Waypoint,
37.3533174,-119.5420304,4638.1154181047,72.506564,0,0.7574147224,12700,2018-06-12 17:58:02,19,0,23.447,4638.1154181047,72.506564,0.223694,0.97657155356,0,0,-0.671082,267.5, 0.4, 0.5,0,0,1024,1024,1024,1024,266.7,-89.9,97,3.908,3.907,3.897,3.909,3.913,3.932,17.875,73.4,14,Waypoint,
37.3533174,-119.5420305,4639.0996701047,73.490816,0,0.7656988434,12800,2018-06-12 17:58:02,19,0,23.447,4639.0996701047,73.490816,0.223694,0.97657155356,0,0,-0.671082,267.3, 0.5, 0.7,0,0,1024,1024,1024,1024,266.6,-89.9,97,3.908,3.907,3.897,3.909,3.913,3.932,17.875,73.4,14,Waypoint,
37.3533173,-119.5420306,4640.0839221047,74.475068,0,0.80942587892,12900,2018-06-12 17:58:02,19,0,23.447,4640.0839221047,74.475068,0.223694,0.97657155356,0,0,-0.671082,267.2, 0.7, 0.7,0,0,1024,1024,1024,1024,266.6,-89.9,97,3.908,3.907,3.897,3.909,3.913,3.932,17.875,73.4,14,Waypoint,
37.3533173,-119.5420307,4641.0681741047,75.45932,0,0.81923887136,13100,2018-06-12 17:58:02,19,0,23.447,4641.0681741047,75.45932,0.223694,0.97657155356,0,0,-0.671082,267, 1, 0.6,0,0,1024,1024,1024,1024,266.6,-89.9,97,3.908,3.907,3.897,3.909,3.913,3.932,17.875,73.4,14,Waypoint,
37.3533173,-119.5420307,4642.0524261047,76.443572,0,0.81923887136,13200,2018-06-12 17:58:02,19,0,23.447,4642.0524261047,76.443572,0.223694,0.97657155356,0,0,-0.671082,267, 1.3, 0.4,0,0,1024,1024,1024,1024,266.6,-89.9,97,3.908,3.907,3.897,3.909,3.913,3.932,17.875,73.4,14,Waypoint,
37.3533172,-119.5420308,4643.0366781047,77.427824,0,0.86374346596,13300,2018-06-12 17:58:02,19,0,23.447,4643.0366781047,77.427824,0.223694,0.97657155356,0,0,-0.671082,267, 1.3, 0.5,0,0,1024,1024,1024,1024,266.6,-89.9,97,3.908,3.907,3.897,3.909,3.913,3.932,17.875,73.4,14,Waypoint,
37.3533172,-119.5420308,4645.0051821047,79.396328,0,0.86374346596,13500,2018-06-12 17:58:03,19,0,23.447,4645.0051821047,79.396328,0.223694,0.97657155356,0,0,-0.671082,267, 1, 0.8,0,0,1024,1024,1024,1024,266.6,-89.9,97,3.908,3.907,3.897,3.909,3.913,3.932,17.875,73.4,14,Waypoint,
37.3533172,-119.5420309,4645.9894341047,80.38058,0,0.87487207524,13600,2018-06-12 17:58:03,19,0,23.447,4645.9894341047,80.38058,0.223694,0.97657155356,0,0,-0.671082,267.1, 0.9, 0.7,0,0,1024,1024,1024,1024,266.6,-89.9,97,3.908,3.907,3.897,3.909,3.913,3.932,17.875,73.4,14,Waypoint,
37.3533172,-119.5420309,4646.9736861047,81.364832,0,0.87487207524,13700,2018-06-12 17:58:03,19,0,23.447,4646.9736861047,81.364832,0.223694,0.97657155356,0,0,-0.671082,267.1, 0.9, 0.6,0,0,1024,1024,1024,1024,266.6,-89.9,97,3.908,3.907,3.897,3.909,3.913,3.932,17.875,73.4,14,Waypoint,
37.3533172,-119.5420309,4647.9579381047,82.349084,0,0.87487207524,13800,2018-06-12 17:58:03,19,0,23.447,4647.9579381047,82.349084,0.223694,0.97657155356,0,0,-0.671082,267.2, 1, 0.5,0,0,1024,1024,1024,1024,266.6,-89.9,97,3.908,3.907,3.897,3.909,3.913,3.932,17.875,73.4,14,Waypoint,
37.3533172,-119.542031,4648.9421901047,83.333336,0,0.88680777116,13900,2018-06-12 17:58:03,19,0,23.447,4648.9421901047,83.333336,0.223694,0.97657155356,0,0,-0.671082,267.2, 1.1, 0.4,0,0,1024,1024,1024,1024,266.6,-89.9,97,3.908,3.907,3.897,3.909,3.913,3.932,17.875,73.4,14,Waypoint,
37.3533172,-119.542031,4649.9264421047,84.317588,0,0.88680777116,14000,2018-06-12 17:58:03,19,0,23.438,4649.9264421047,84.317588,0.223694,0.97657155356,0,0,-0.671082,267.3, 1.2, 0.3,0,0,1024,1024,1024,1024,266.6,-89.9,97,3.905,3.903,3.891,3.904,3.904,3.935,17.955,75.2,14,Waypoint,
37.3533172,-119.542031,4650.9106941047,85.30184,0,0.88680777116,14100,2018-06-12 17:58:03,19,0,23.438,4650.9106941047,85.30184,0.223694,0.97657155356,0,0,-0.671082,267.3, 1.1, 0.3,0,0,1024,1024,1024,1024,266.6,-89.9,97,3.905,3.903,3.891,3.904,3.904,3.935,17.955,75.2,14,Waypoint,
37.3533172,-119.542031,4651.8949461047,86.286092,0,0.88680777116,14200,2018-06-12 17:58:03,19,0,23.438,4651.8949461047,86.286092,0.223694,0.97657155356,0,0,-0.671082,267.3, 1, 0.2,0,0,1024,1024,1024,1024,266.6,-89.9,97,3.905,3.903,3.891,3.904,3.904,3.935,17.955,75.2,14,Waypoint,
37.3533173,-119.542031,4652.8791981047,87.270344,0,0.85392391184,14300,2018-06-12 17:58:03,19,0,23.438,4652.8791981047,87.270344,0.223694,0.97657155356,0,0,-0.671082,267.3, 1, 0.1,0,0,1024,1024,1024,1024,266.6,-89.9,97,3.905,3.903,3.891,3.904,3.904,3.935,17.955,75.2,14,Waypoint,
37.3533173,-119.542031,4653.8634501047,88.254596,0,0.85392391184,14400,2018-06-12 17:58:04,19,0,23.438,4653.8634501047,88.254596,0.223694,0.97657155356,0,0,-0.671082,267.3, 1, 0,0,0,1024,1024,1024,1024,266.6,-89.9,97,3.905,3.903,3.891,3.904,3.904,3.935,17.955,75.2,14,Waypoint,
37.3533173,-119.542031,4654.8477021047,89.238848,0,0.85392391184,14500,2018-06-12 17:58:04,19,0,23.438,4654.8477021047,89.238848,0.223694,0.97657155356,0,0,-0.671082,267.3, 1, -0.2,0,0,1024,1024,1024,1024,266.6,-89.9,97,3.905,3.903,3.891,3.904,3.904,3.935,17.955,75.2,14,Waypoint,
37.3533174,-119.5420309,4656.8162061047,91.207352,0,0.80844490776,14600,2018-06-12 17:58:04,19,0,23.438,4656.8162061047,91.207352,0.223694,0.97657155356,0,0,-0.671082,267.2, 0.8, 0,0,0,1024,1024,1024,1024,266.7,-89.9,97,3.905,3.903,3.891,3.904,3.904,3.935,17.955,75.2,14,Waypoint,
37.3533174,-119.5420309,4657.8004581047,92.191604,0,0.80844490776,14700,2018-06-12 17:58:04,19,0,23.438,4657.8004581047,92.191604,0.223694,0.97657155356,0,0,-0.671082,267.1, 0.8, 0.1,0,0,1024,1024,1024,1024,266.6,-89.9,97,3.905,3.903,3.891,3.904,3.904,3.935,17.955,75.2,14,Waypoint,
37.3533174,-119.5420309,4658.7847101047,93.175856,0,0.80844490776,14800,2018-06-12 17:58:04,19,0,23.438,4658.7847101047,93.175856,0.223694,0.97657155356,0,0,-0.671082,267, 0.7, 0.2,0,0,1024,1024,1024,1024,266.6,-89.9,97,3.905,3.903,3.891,3.904,3.904,3.935,17.955,75.2,14,Waypoint,
37.3533175,-119.5420309,4659.7689621047,94.160108,0,0.775672597,14900,2018-06-12 17:58:04,19,0,23.438,4659.7689621047,94.160108,0.223694,0.97657155356,0,0,-0.671082,267.1, 0.8, 0.1,0,0,1024,1024,1024,1024,266.6,-89.9,97,3.905,3.903,3.891,3.904,3.904,3.935,17.955,75.2,14,Waypoint,
37.3533175,-119.5420309,4660.7532141047,95.14436,0,0.775672597,15010,2018-06-12 17:58:04,19,0,23.414,4660.7532141047,95.14436,0.223694,0.97657155356,0,0,-0.671082,267.2, 0.8, 0,0,0,1024,1024,1024,1024,266.6,-89.9,97,3.891,3.893,3.887,3.908,3.901,3.927,17.845,75.2,14,Waypoint,
37.3533175,-119.5420309,4661.7374661047,96.128612,0,0.775672597,15110,2018-06-12 17:58:04,19,0,23.414,4661.7374661047,96.128612,0.223694,0.97657155356,0,0,-0.671082,267.3, 1, -0.2,0,0,1024,1024,1024,1024,266.6,-89.9,97,3.891,3.893,3.887,3.908,3.901,3.927,17.845,75.2,14,Waypoint,
37.3533176,-119.5420309,4662.7217181047,97.112864,0,0.74324805528,15210,2018-06-12 17:58:04,19,0,23.414,4662.7217181047,97.112864,0.223694,0.97657155356,0,0,-0.671082,267.4, 1, -0.2,0,0,1024,1024,1024,1024,266.6,-89.9,97,3.891,3.893,3.887,3.908,3.901,3.927,17.845,75.2,14,Waypoint,
37.3533176,-119.5420309,4663.7059701047,98.097116,0,0.74324805528,15300,2018-06-12 17:58:04,19,0,23.414,4663.7059701047,98.097116,0.223694,0.97657155356,0,0,-0.671082,267.4, 1, 0,0,0,1024,1024,1024,1024,266.6,-89.9,97,3.891,3.893,3.887,3.908,3.901,3.927,17.845,75.2,14,Waypoint,
37.3533176,-119.5420309,4664.6902221047,99.081368,0,0.74324805528,15400,2018-06-12 17:58:05,19,0,23.414,4664.6902221047,99.081368,0.223694,0.97657155356,0,0,-0.671082,267.4, 0.9, 0.1,0,0,1024,1024,1024,1024,266.6,-89.9,97,3.891,3.893,3.887,3.908,3.901,3.927,17.845,75.2,14,Waypoint,
37.3533176,-119.5420308,4665.6744741047,100.06562,0,0.73011485276,15600,2018-06-12 17:58:05,19,0,23.414,4665.6744741047,100.06562,0.223694,0.97657155356,0,0,-0.671082,267.4, 0.8, 0.2,0,0,1024,1024,1024,1024,266.6,-89.9,97,3.891,3.893,3.887,3.908,3.901,3.927,17.845,75.2,14,Waypoint,
37.3533176,-119.5420308,4666.6587261047,101.049872,0,0.73011485276,15700,2018-06-12 17:58:05,19,0,23.414,4666.6587261047,101.049872,0.223694,0.97657155356,0,0,-0.671082,267.2, 0.7, 0.3,0,0,1024,1024,1024,1024,266.6,-89.9,97,3.891,3.893,3.887,3.908,3.901,3.927,17.845,75.2,14,Waypoint,
37.3533176,-119.5420308,4667.6429781047,102.034124,0,0.73011485276,15800,2018-06-12 17:58:05,19,0,23.414,4667.6429781047,102.034124,0.223694,0.97657155356,0,0,-0.671082,267.1, 0.6, 0.5,0,0,1024,1024,1024,1024,266.6,-89.9,97,3.891,3.893,3.887,3.908,3.901,3.927,17.845,75.2,14,Waypoint,
37.3533176,-119.5420308,4668.6272301047,103.018376,0,0.73011485276,15900,2018-06-12 17:58:05,19,0,23.414,4668.6272301047,103.018376,0.223694,0.97657155356,0,0,-0.671082,267.1, 0.7, 0.7,0,0,1024,1024,1024,1024,266.6,-89.9,97,3.891,3.893,3.887,3.908,3.901,3.927,17.845,75.2,14,Waypoint,
37.3533176,-119.5420308,4669.6114821047,104.002628,0,0.73011485276,16000,2018-06-12 17:58:05,19,0,23.423,4669.6114821047,104.002628,0.223694,0.97657155356,0,0,-0.671082,267.2, 0.9, 0.7,0,0,1024,1024,1024,1024,266.6,-89.9,97,3.891,3.893,3.887,3.908,3.901,3.927,17.476,75.2,14,Waypoint,
37.3533176,-119.5420308,4670.5957341047,104.98688,0,0.73011485276,16100,2018-06-12 17:58:05,19,0,23.423,4670.5957341047,104.98688,0.223694,0.97657155356,0,0,-0.671082,267.3, 1.1, 0.6,0,0,1024,1024,1024,1024,266.6,-89.9,97,3.891,3.893,3.887,3.908,3.901,3.927,17.476,75.2,14,Waypoint,
37.3533177,-119.5420309,4672.5642381047,106.955384,0,0.71121393352,16300,2018-06-12 17:58:05,19,0,23.423,4672.5642381047,106.955384,0.223694,0.97657155356,0,0,-0.671082,267.5, 1.2, 0.1,0,0,1024,1024,1024,1024,266.6,-89.9,97,3.891,3.893,3.887,3.908,3.901,3.927,17.476,75.2,14,Waypoint,
37.3533177,-119.5420309,4673.5484901047,107.939636,0,0.71121393352,16400,2018-06-12 17:58:06,19,0,23.423,4673.5484901047,107.939636,0.223694,0.97657155356,0,0,-0.671082,267.5, 1.2, 0,0,0,1024,1024,1024,1024,266.6,-89.9,97,3.891,3.893,3.887,3.908,3.901,3.927,17.476,75.2,14,Waypoint,
37.3533178,-119.542031,4674.5327421047,108.923888,0,0.69492784376,16500,2018-06-12 17:58:06,19,0,23.423,4674.5327421047,108.923888,0.223694,0.97657155356,0,0,-0.671082,267.4, 1.2, -0.2,0,0,1024,1024,1024,1024,266.6,-89.9,97,3.891,3.893,3.887,3.908,3.901,3.927,17.476,75.2,14,Waypoint,
37.3533178,-119.542031,4675.5169941047,109.90814,0,0.69492784376,16600,2018-06-12 17:58:06,19,0,23.423,4675.5169941047,109.90814,0.223694,0.97657155356,0,0,-0.671082,267.3, 1.2, -0.2,0,0,1024,1024,1024,1024,266.6,-89.9,97,3.891,3.893,3.887,3.908,3.901,3.927,17.476,75.2,14,Waypoint,
37.3533178,-119.542031,4676.5012461047,110.892392,0,0.69492784376,16700,2018-06-12 17:58:06,19,0,23.423,4676.5012461047,110.892392,0.223694,0.97657155356,0,0,-0.671082,267.3, 1.1, -0.1,0,0,1024,1024,1024,1024,266.6,-89.9,97,3.891,3.893,3.887,3.908,3.901,3.927,17.476,75.2,14,Waypoint,
37.3533179,-119.542031,4677.4854981047,111.876644,0,0.66457351208,16800,2018-06-12 17:58:06,19,0,23.423,4677.4854981047,111.876644,0.223694,0.97657155356,0,0,-0.671082,267.3, 1.2, 0,0,0,1024,1024,1024,1024,266.6,-89.9,97,3.891,3.893,3.887,3.908,3.901,3.927,17.476,75.2,14,Waypoint,
37.3533179,-119.542031,4678.4697501047,112.860896,0,0.66457351208,16900,2018-06-12 17:58:06,19,0,23.423,4678.4697501047,112.860896,0.223694,0.97657155356,0,0,-0.671082,267.3, 1.3, 0,0,0,1024,1024,1024,1024,266.6,-89.9,97,3.891,3.893,3.887,3.908,3.901,3.927,17.476,75.2,14,Waypoint,
37.3533179,-119.542031,4679.4540021047,113.845148,0,0.66457351208,17000,2018-06-12 17:58:06,19,0,23.423,4679.4540021047,113.845148,0.223694,0.97657155356,0,0,-0.671082,267.3, 1.2, 0,0,0,1024,1024,1024,1024,266.6,-89.9,97,3.91,3.9,3.884,3.903,3.894,3.928,17.476,75.2,14,Waypoint,
37.353318,-119.542031,4681.4225061047,115.813652,0,0.63486550588,17100,2018-06-12 17:58:06,19,0,23.423,4681.4225061047,115.813652,0.223694,0.97657155356,0,0,-0.671082,267.3, 1.2, -0.2,0,0,1024,1024,1024,1024,266.6,-89.9,97,3.91,3.9,3.884,3.903,3.894,3.928,17.476,75.2,14,Waypoint,
37.353318,-119.542031,4682.4067581047,116.797904,0,0.63486550588,17300,2018-06-12 17:58:06,19,0,23.423,4682.4067581047,116.797904,0.223694,0.97657155356,0,0,-0.671082,267.3, 1.1, -0.3,0,0,1024,1024,1024,1024,266.7,-89.9,97,3.91,3.9,3.884,3.903,3.894,3.928,17.476,75.2,14,Waypoint,
37.3533181,-119.542031,4684.3752621047,118.766408,0,0.60589896952,17400,2018-06-12 17:58:07,19,0,23.423,4684.3752621047,118.766408,0.223694,0.97657155356,0,0,-0.671082,267.3, 1, -0.4,0,0,1024,1024,1024,1024,266.6,-89.9,97,3.91,3.9,3.884,3.903,3.894,3.928,17.476,75.2,14,Waypoint,
37.3533181,-119.542031,4685.3595141047,119.75066,0,0.60589896952,17510,2018-06-12 17:58:07,19,0,23.423,4685.3595141047,119.75066,0.223694,0.97657155356,0,0,-0.671082,267.4, 1, -0.4,0,0,1024,1024,1024,1024,266.6,-89.9,97,3.91,3.9,3.884,3.903,3.894,3.928,17.476,75.2,14,Waypoint,
37.3533182,-119.542031,4686.3437661047,120.734912,0,0.57778545156,17700,2018-06-12 17:58:07,19,0,23.423,4686.3437661047,120.734912,0.223694,0.97657155356,0,0,-0.671082,267.4, 0.9, -0.5,0,0,1024,1024,1024,1024,266.6,-89.9,97,3.91,3.9,3.884,3.903,3.894,3.928,17.476,75.2,14,Waypoint,
37.3533182,-119.5420309,4687.3280181047,121.719164,0,0.55929135648,17800,2018-06-12 17:58:07,19,0,23.423,4687.3280181047,121.719164,0.223694,0.97657155356,0,0,-0.671082,267.4, 0.9, -0.4,0,0,1024,1024,1024,1024,266.7,-89.9,97,3.91,3.9,3.884,3.903,3.894,3.928,17.476,75.2,14,Waypoint,
37.3533182,-119.5420309,4688.3122701047,122.703416,0,0.55929135648,17900,2018-06-12 17:58:07,19,0,23.423,4688.3122701047,122.703416,0.223694,0.97657155356,0,0,-0.671082,267.4, 1, -0.3,0,0,1024,1024,1024,1024,266.6,-89.9,97,3.91,3.9,3.884,3.903,3.894,3.928,17.476,75.2,14,Waypoint,
37.3533182,-119.5420309,4689.2965221047,123.687668,0,0.55929135648,18000,2018-06-12 17:58:07,19,0,23.397,4689.2965221047,123.687668,0.223694,0.97657155356,0,0,-0.671082,267.2, 1, -0.2,0,0,1024,1024,1024,1024,266.6,-89.9,97,3.88,3.882,3.887,3.894,3.902,3.91,18.135,75.2,14,Waypoint,
37.3533182,-119.5420309,4690.2807741047,124.67192,0,0.55929135648,18100,2018-06-12 17:58:07,19,0,23.397,4690.2807741047,124.67192,0.223694,0.97657155356,0,0,-0.671082,267, 0.9, -0.1,0,0,1024,1024,1024,1024,266.6,-89.9,97,3.88,3.882,3.887,3.894,3.902,3.91,18.135,75.2,14,Waypoint,
37.3533182,-119.5420309,4691.2650261047,125.656172,0,0.55929135648,18200,2018-06-12 17:58:07,19,0,23.397,4691.2650261047,125.656172,0.223694,0.97657155356,0,0,-0.671082,266.8, 0.9, -0.1,0,0,1024,1024,1024,1024,266.6,-89.9,97,3.88,3.882,3.887,3.894,3.902,3.91,18.135,75.2,14,Waypoint,
37.3533182,-119.5420308,4692.2492781047,126.640424,0,0.54172245828,18300,2018-06-12 17:58:07,19,0,23.397,4692.2492781047,126.640424,0.223694,0.97657155356,0,0,-0.671082,266.6, 0.9, -0.2,0,0,1024,1024,1024,1024,266.6,-89.9,97,3.88,3.882,3.887,3.894,3.902,3.91,18.135,75.2,14,Waypoint,
37.3533182,-119.5420308,4693.2335301047,127.624676,0,0.54172245828,18400,2018-06-12 17:58:08,19,0,23.397,4693.2335301047,127.624676,0.223694,0.97657155356,0,0,-0.671082,266.5, 0.9, -0.2,0,0,1024,1024,1024,1024,266.6,-89.9,97,3.88,3.882,3.887,3.894,3.902,3.91,18.135,75.2,14,Waypoint,
37.3533182,-119.5420308,4694.2177821047,128.608928,0,0.54172245828,18500,2018-06-12 17:58:08,19,0,23.397,4694.2177821047,128.608928,0.223694,0.97657155356,0,0,-0.671082,266.5, 0.9, -0.3,0,0,1024,1024,1024,1024,266.6,-89.9,97,3.88,3.882,3.887,3.894,3.902,3.91,18.135,75.2,14,Waypoint,
37.3533182,-119.5420307,4695.2020341047,129.59318,0,0.5251640588,18600,2018-06-12 17:58:08,19,0,23.397,4695.2020341047,129.59318,0.223694,0.97657155356,0,0,-0.671082,266.5, 0.7, -0.3,0,0,1024,1024,1024,1024,266.6,-89.9,97,3.88,3.882,3.887,3.894,3.902,3.91,18.135,75.2,14,Waypoint,
37.3533182,-119.5420307,4696.1862861047,130.577432,0,0.5251640588,18700,2018-06-12 17:58:08,19,0,23.397,4696.1862861047,130.577432,0.223694,0.97657155356,0,0,-0.671082,266.6, 0.8, -0.1,0,0,1024,1024,1024,1024,266.6,-89.9,97,3.88,3.882,3.887,3.894,3.902,3.91,18.135,75.2,14,Waypoint,
37.3533181,-119.5420307,4697.1705381047,131.561684,0,0.55594818052,18800,2018-06-12 17:58:08,19,0,23.397,4697.1705381047,131.561684,0.223694,0.97657155356,0,0,-0.671082,266.8, 0.8, 0,0,0,1024,1024,1024,1024,266.6,-89.9,97,3.88,3.882,3.887,3.894,3.902,3.91,18.135,75.2,14,Waypoint,
37.3533181,-119.5420307,4698.1547901047,132.545936,0,0.55594818052,18900,2018-06-12 17:58:08,19,0,23.397,4698.1547901047,132.545936,0.223694,0.97657155356,0,0,-0.671082,266.9, 0.9, 0.1,0,0,1024,1024,1024,1024,266.6,-89.9,97,3.88,3.882,3.887,3.894,3.902,3.91,18.135,75.2,14,Waypoint,
37.3533181,-119.5420307,4699.1390421047,133.530188,0,0.55594818052,19000,2018-06-12 17:58:08,19,0,23.278,4699.1390421047,133.530188,0.223694,0.97657155356,0,0,-0.671082,267, 0.9, 0.2,0,0,1024,1024,1024,1024,266.6,-89.9,97,3.873,3.873,3.87,3.895,3.89,3.911,18.401,75.2,14,Waypoint,
37.353318,-119.5420307,4700.1232941047,134.51444,0,0.58738190856,19100,2018-06-12 17:58:08,19,0,23.278,4700.1232941047,134.51444,0.223694,0.97657155356,0,0,-0.671082,267.1, 0.9, 0.4,0,0,1024,1024,1024,1024,266.6,-89.9,97,3.873,3.873,3.87,3.895,3.89,3.911,18.401,75.2,14,Waypoint,
37.353318,-119.5420306,4701.1075461047,135.498692,0,0.57361878476,19200,2018-06-12 17:58:08,19,0,23.278,4701.1075461047,135.498692,0.223694,0.97657155356,0,0,-0.671082,267.2, 0.9, 0.5,0,0,1024,1024,1024,1024,266.6,-89.9,97,3.873,3.873,3.87,3.895,3.89,3.911,18.401,75.2,14,Waypoint,
37.353318,-119.5420306,4702.0917981047,136.482944,0,0.57361878476,19300,2018-06-12 17:58:08,19,0,23.278,4702.0917981047,136.482944,0.223694,0.97657155356,0,0,-0.671082,267.2, 0.9, 0.4,0,0,1024,1024,1024,1024,266.6,-89.9,97,3.873,3.873,3.87,3.895,3.89,3.911,18.401,75.2,14,Waypoint,
37.353318,-119.5420305,4704.0603021047,138.451448,0,0.56101379748,19400,2018-06-12 17:58:09,19,0,23.278,4704.0603021047,138.451448,0.223694,0.97657155356,0,0,-0.671082,267.1, 0.7, 0.1,0,0,1024,1024,1024,1024,266.6,-90,97,3.873,3.873,3.87,3.895,3.89,3.911,18.401,75.2,14,Waypoint,
37.3533179,-119.5420304,4705.0445541047,139.4357,0,0.58371721028,19500,2018-06-12 17:58:09,19,0,23.278,4705.0445541047,139.4357,0.223694,0.97657155356,0,0,-0.671082,267.1, 0.6, 0.1,0,0,1024,1024,1024,1024,266.7,-89.9,97,3.873,3.873,3.87,3.895,3.89,3.911,18.401,75.2,14,Waypoint,
37.3533179,-119.5420304,4706.0288061047,140.419952,0,0.58371721028,19600,2018-06-12 17:58:09,19,0,23.278,4706.0288061047,140.419952,0.223694,0.97657155356,0,0,-0.671082,267.1, 0.6, 0.4,0,0,1024,1024,1024,1024,266.6,-89.9,97,3.873,3.873,3.87,3.895,3.89,3.911,18.401,75.2,14,Waypoint,
37.3533179,-119.5420303,4707.0130581047,141.404204,0,0.57427167192,19800,2018-06-12 17:58:09,19,0,23.278,4707.0130581047,141.404204,0.223694,0.97657155356,0,0,-0.671082,267, 0.5, 0.4,0,0,1024,1024,1024,1024,266.6,-90,97,3.873,3.873,3.87,3.895,3.89,3.911,18.401,75.2,14,Waypoint,
37.3533179,-119.5420303,4707.9973101047,142.388456,0,0.57427167192,19900,2018-06-12 17:58:09,19,0,23.278,4707.9973101047,142.388456,0.223694,0.97657155356,0,0,-0.671082,266.9, 0.4, 0.3,0,0,1024,1024,1024,1024,266.6,-90,97,3.873,3.873,3.87,3.895,3.89,3.911,18.401,75.2,14,Waypoint,
37.3533179,-119.5420302,4709.9658141047,144.35696,0,0.56616143544,20000,2018-06-12 17:58:09,19,0,23.288,4709.9658141047,144.35696,0.223694,0.97657155356,0,0,-0.671082,266.9, 0.3, 0.1,0,0,1024,1024,1024,1024,266.6,-90,96,3.883,3.872,3.862,3.879,3.877,3.903,18.224,75.2,14,Waypoint,
37.3533179,-119.5420302,4710.9500661047,145.341212,0,0.56616143544,20200,2018-06-12 17:58:09,19,0,23.288,4710.9500661047,145.341212,0.223694,0.97657155356,0,0,-0.671082,266.9, 0.4, 0,0,0,1024,1024,1024,1024,266.7,-89.9,96,3.883,3.872,3.862,3.879,3.877,3.903,18.224,75.2,14,Waypoint,
37.3533179,-119.5420302,4711.9343181047,146.325464,0,0.56616143544,20300,2018-06-12 17:58:09,19,0,23.288,4711.9343181047,146.325464,0.223694,0.97657155356,0,0,-0.671082,267.1, 0.6, 0.1,0,0,1024,1024,1024,1024,266.6,-89.9,96,3.883,3.872,3.862,3.879,3.877,3.903,18.224,75.2,14,Waypoint,
37.3533179,-119.5420302,4712.9185701047,147.309716,0,0.56616143544,20400,2018-06-12 17:58:10,19,0,23.288,4712.9185701047,147.309716,0.223694,0.97657155356,0,0,-0.671082,267.1, 0.8, 0,0,0,1024,1024,1024,1024,266.6,-89.9,96,3.883,3.872,3.862,3.879,3.877,3.903,18.224,75.2,14,Waypoint,
37.3533179,-119.5420302,4713.9028221047,148.293968,0,0.56616143544,20500,2018-06-12 17:58:10,19,0,23.288,4713.9028221047,148.293968,0.223694,0.97657155356,0,0,-0.671082,267.2, 1, -0.1,0,0,1024,1024,1024,1024,266.6,-89.9,96,3.883,3.872,3.862,3.879,3.877,3.903,18.224,75.2,14,Waypoint,
37.3533179,-119.5420302,4715.8713261047,150.262472,0,0.56616143544,20700,2018-06-12 17:58:10,19,0,23.288,4715.8713261047,150.262472,0.223694,0.97657155356,0,0,-0.671082,267.1, 1, -0.4,0,0,1024,1024,1024,1024,266.6,-89.9,96,3.883,3.872,3.862,3.879,3.877,3.903,18.224,75.2,14,Waypoint,
37.353318,-119.5420303,4717.8398301047,152.230976,0,0.539616159,20900,2018-06-12 17:58:10,19,0,23.288,4717.8398301047,152.230976,0.223694,0.97657155356,0,0,-0.671082,267.1, 0.9, -0.6,0,0,1024,1024,1024,1024,266.6,-89.9,96,3.883,3.872,3.862,3.879,3.877,3.903,18.224,75.2,14,Waypoint,
37.353318,-119.5420302,4718.8240821047,153.215228,0,0.53097442644,21000,2018-06-12 17:58:10,19,0,23.288,4718.8240821047,153.215228,0.223694,0.97657155356,0,0,-0.671082,267.1, 0.9, -0.5,0,0,1024,1024,1024,1024,266.6,-89.9,96,3.883,3.872,3.862,3.879,3.877,3.903,18.224,75.2,14,Waypoint,
37.353318,-119.5420302,4719.8083341047,154.19948,0,0.53097442644,21100,2018-06-12 17:58:10,19,0,23.288,4719.8083341047,154.19948,0.223694,0.97657155356,0,0,-0.671082,267.1, 0.9, -0.4,0,0,1024,1024,1024,1024,266.6,-89.9,96,3.883,3.872,3.862,3.879,3.877,3.903,18.224,75.2,14,Waypoint,
37.3533181,-119.5420302,4720.7925861047,155.183732,0,0.49597770616,21200,2018-06-12 17:58:10,19,0,23.288,4720.7925861047,155.183732,0.223694,0.97657155356,0,0,-0.671082,267.2, 0.9, -0.4,0,0,1024,1024,1024,1024,266.6,-89.9,96,3.883,3.872,3.862,3.879,3.877,3.903,18.224,75.2,14,Waypoint,
37.3533181,-119.5420301,4721.7768381047,156.167984,0,0.48828413636,21300,2018-06-12 17:58:10,19,0,23.288,4721.7768381047,156.167984,0.223694,0.97657155356,0,0,-0.671082,267.3, 0.5, -0.5,0,0,1024,1024,1024,1024,266.6,-90,96,3.883,3.872,3.862,3.879,3.877,3.903,18.224,75.2,14,Waypoint,
37.3533181,-119.54203,4722.7610901047,157.152236,0,0.4822178632,21400,2018-06-12 17:58:11,19,0,23.288,4722.7610901047,157.152236,0.223694,0.97657155356,0,0,-0.671082,267.3, 0, -0.4,0,0,1024,1024,1024,1024,266.6,-90,96,3.883,3.872,3.862,3.879,3.877,3.903,18.224,75.2,14,Waypoint,
37.3533181,-119.5420299,4723.7453421047,158.136488,0,0.4778379418,21500,2018-06-12 17:58:11,19,0,23.288,4723.7453421047,158.136488,0.223694,0.97657155356,0,0,-0.671082,267.3, -0.2, -0.4,0,0,1024,1024,1024,1024,266.6,-90,96,3.883,3.872,3.862,3.879,3.877,3.903,18.224,75.2,14,Waypoint,
37.3533181,-119.5420299,4724.7295941047,159.12074,0,0.4778379418,21600,2018-06-12 17:58:11,19,0,23.288,4724.7295941047,159.12074,0.223694,0.97657155356,0,0,-0.671082,267.2, -0.2, -0.4,0,0,1024,1024,1024,1024,266.6,-90,96,3.883,3.872,3.862,3.879,3.877,3.903,18.224,75.2,14,Waypoint,
37.3533181,-119.5420298,4726.6980981047,161.089244,0,0.47519030392,21700,2018-06-12 17:58:11,19,0,23.288,4726.6980981047,161.089244,0.223694,0.97657155356,0,0,-0.671082,267, -0.1, 0,0,0,1024,1024,1024,1024,266.6,-90,96,3.883,3.872,3.862,3.879,3.877,3.903,18.224,75.2,14,Waypoint,
37.3533181,-119.5420298,4727.6823501047,162.073496,0,0.47519030392,21900,2018-06-12 17:58:11,19,0,23.288,4727.6823501047,162.073496,0.223694,0.97657155356,0,0,-0.671082,266.9, 0, 0.1,0,0,1024,1024,1024,1024,266.6,-89.9,96,3.883,3.872,3.862,3.879,3.877,3.903,18.224,75.2,14,Waypoint,
37.3533181,-119.5420298,4729.6508541047,164.042,0,0.47519030392,22000,2018-06-12 17:58:11,19,0,23.224,4729.6508541047,164.042,0.223694,0.97657155356,0,0,-0.671082,266.9, 0.3, -0.2,0,0,1024,1024,1024,1024,266.6,-89.9,96,3.871,3.859,3.862,3.866,3.864,3.899,18.621,75.2,14,Waypoint,
37.3533181,-119.5420298,4730.6351061047,165.026252,0,0.47519030392,22100,2018-06-12 17:58:11,19,0,23.224,4730.6351061047,165.026252,0.223694,0.97657155356,0,0,-0.671082,267, 0.4, -0.5,0,0,1024,1024,1024,1024,266.6,-89.9,96,3.871,3.859,3.862,3.866,3.864,3.899,18.621,75.2,14,Waypoint,
37.3533181,-119.5420298,4731.6193581047,166.010504,0,0.47519030392,22200,2018-06-12 17:58:11,19,0,23.224,4731.6193581047,166.010504,0.223694,0.97657155356,0,0,-0.671082,267.1, 0.4, -0.7,0,0,1024,1024,1024,1024,266.7,-89.9,96,3.871,3.859,3.862,3.866,3.864,3.899,18.621,75.2,14,Waypoint,
37.3533181,-119.5420298,4732.6036101047,166.994756,0,0.47519030392,22400,2018-06-12 17:58:12,19,0,23.224,4732.6036101047,166.994756,0.223694,0.97657155356,0,0,-0.671082,267.2, 0.4, -0.7,0,0,1024,1024,1024,1024,266.6,-89.9,96,3.871,3.859,3.862,3.866,3.864,3.899,18.621,75.2,14,Waypoint,
37.3533181,-119.5420299,4733.5878621047,167.979008,0,0.4778379418,22500,2018-06-12 17:58:12,19,0,23.224,4733.5878621047,167.979008,0.223694,0.97657155356,0,0,-0.671082,267.3, 0.4, -0.7,0,0,1024,1024,1024,1024,266.6,-89.9,96,3.871,3.859,3.862,3.866,3.864,3.899,18.621,75.2,14,Waypoint,
37.3533181,-119.5420299,4734.5721141047,168.96326,0,0.4778379418,22600,2018-06-12 17:58:12,19,0,23.224,4734.5721141047,168.96326,0.223694,0.97657155356,0,0,-0.671082,267.3, 0.4, -0.7,0,0,1024,1024,1024,1024,266.7,-89.9,96,3.871,3.859,3.862,3.866,3.864,3.899,18.621,75.2,14,Waypoint,
37.3533181,-119.5420299,4735.5563661047,169.947512,0,0.4778379418,22700,2018-06-12 17:58:12,19,0,23.224,4735.5563661047,169.947512,0.223694,0.97657155356,0,0,-0.671082,267.3, 0.4, -0.6,0,0,1024,1024,1024,1024,266.6,-89.9,96,3.871,3.859,3.862,3.866,3.864,3.899,18.621,75.2,14,Waypoint,
37.3533181,-119.5420299,4736.5406181047,170.931764,0,0.4778379418,22800,2018-06-12 17:58:12,19,0,23.224,4736.5406181047,170.931764,0.223694,0.97657155356,0,0,-0.671082,267.2, 0.5, -0.6,0,0,1024,1024,1024,1024,266.6,-89.9,96,3.871,3.859,3.862,3.866,3.864,3.899,18.621,75.2,14,Waypoint,
37.3533181,-119.5420299,4737.5248701047,171.916016,0,0.4778379418,22900,2018-06-12 17:58:12,19,0,23.224,4737.5248701047,171.916016,0.223694,0.97657155356,0,0,-0.671082,267.2, 0.5, -0.5,0,0,1024,1024,1024,1024,266.6,-89.9,96,3.871,3.859,3.862,3.866,3.864,3.899,18.621,75.2,14,Waypoint,
37.3533181,-119.54203,4738.5091221047,172.900268,0,0.4822178632,23000,2018-06-12 17:58:12,19,0,23.155,4738.5091221047,172.900268,0.223694,0.97657155356,0,0,-0.671082,267.1, 0.6, -0.5,0,0,1024,1024,1024,1024,266.7,-89.9,96,3.857,3.848,3.845,3.862,3.858,3.885,19.054,77,14,Waypoint,
37.3533181,-119.54203,4739.4933741047,173.88452,0,0.4822178632,23100,2018-06-12 17:58:12,19,0,23.155,4739.4933741047,173.88452,0.223694,0.97657155356,0,0,-0.671082,267.1, 0.8, -0.6,0,0,1024,1024,1024,1024,266.6,-89.9,96,3.857,3.848,3.845,3.862,3.858,3.885,19.054,77,14,Waypoint,
37.3533181,-119.54203,4740.4776261047,174.868772,0,0.4822178632,23200,2018-06-12 17:58:12,19,0,23.155,4740.4776261047,174.868772,0.223694,0.97657155356,0,0,-0.671082,267, 0.7, -0.7,0,0,1024,1024,1024,1024,266.7,-89.9,96,3.857,3.848,3.845,3.862,3.858,3.885,19.054,77,14,Waypoint,
37.3533181,-119.5420301,4741.4618781047,175.853024,0,0.48828413636,23300,2018-06-12 17:58:12,19,0,23.155,4741.4618781047,175.853024,0.223694,0.97657155356,0,0,-0.671082,267.1, 0.7, -0.8,0,0,1024,1024,1024,1024,266.6,-89.9,96,3.857,3.848,3.845,3.862,3.858,3.885,19.054,77,14,Waypoint,
37.3533181,-119.5420301,4742.4461301047,176.837276,0,0.48828413636,23400,2018-06-12 17:58:13,19,0,23.155,4742.4461301047,176.837276,0.223694,0.97657155356,0,0,-0.671082,267.2, 0.7, -1,0,0,1024,1024,1024,1024,266.6,-89.9,96,3.857,3.848,3.845,3.862,3.858,3.885,19.054,77,14,Waypoint,
37.3533181,-119.5420301,4743.4303821047,177.821528,0,0.48828413636,23500,2018-06-12 17:58:13,19,0,23.155,4743.4303821047,177.821528,0.223694,0.97657155356,0,0,-0.671082,267.2, 0.7, -1.1,0,0,1024,1024,1024,1024,266.6,-89.9,96,3.857,3.848,3.845,3.862,3.858,3.885,19.054,77,14,Waypoint,
37.3533181,-119.5420301,4744.4146341047,178.80578,0,0.48828413636,23600,2018-06-12 17:58:13,19,0,23.155,4744.4146341047,178.80578,0.223694,0.97657155356,0,0,-0.671082,267.3, 0.7, -1.1,0,0,1024,1024,1024,1024,266.6,-89.9,96,3.857,3.848,3.845,3.862,3.858,3.885,19.054,77,14,Waypoint,
37.3533181,-119.5420301,4745.3988861047,179.790032,0,0.48828413636,23700,2018-06-12 17:58:13,19,0,23.155,4745.3988861047,179.790032,0.223694,0.97657155356,0,0,-0.671082,267.4, 0.6, -0.9,0,0,1024,1024,1024,1024,266.6,-89.9,96,3.857,3.848,3.845,3.862,3.858,3.885,19.054,77,14,Waypoint,
37.3533181,-119.5420301,4746.3831381047,180.774284,0,0.48828413636,23800,2018-06-12 17:58:13,19,0,23.155,4746.3831381047,180.774284,0.223694,0.97657155356,0,0,-0.671082,267.3, 0.5, -0.6,0,0,1024,1024,1024,1024,266.6,-89.9,96,3.857,3.848,3.845,3.862,3.858,3.885,19.054,77,14,Waypoint,
37.353318,-119.5420302,4748.3516421047,182.742788,0,0.53097442644,23900,2018-06-12 17:58:13,19,0,23.155,4748.3516421047,182.742788,0.223694,0.97657155356,0,0,-0.671082,267.1, 0.4, 0.1,0,0,1024,1024,1024,1024,266.7,-89.9,96,3.857,3.848,3.845,3.862,3.858,3.885,19.054,77,14,Waypoint,
37.353318,-119.5420302,4749.3358941047,183.72704,0,0.53097442644,24000,2018-06-12 17:58:13,19,0,23.122,4749.3358941047,183.72704,0.223694,0.97657155356,0,0,-0.671082,266.9, 0.8, 0.1,0,0,1024,1024,1024,1024,266.6,-89.9,96,3.853,3.845,3.836,3.856,3.855,3.873,19.555,77,14,Waypoint,
37.353318,-119.5420302,4750.3201461047,184.711292,0,0.53097442644,24100,2018-06-12 17:58:13,19,0,23.122,4750.3201461047,184.711292,0.223694,0.97657155356,0,0,-0.671082,266.9, 1, 0,0,0,1024,1024,1024,1024,266.6,-89.9,96,3.853,3.845,3.836,3.856,3.855,3.873,19.555,77,14,Waypoint,
37.353318,-119.5420303,4752.2886501047,186.679796,0,0.539616159,24300,2018-06-12 17:58:13,19,0,23.122,4752.2886501047,186.679796,0.223694,0.97657155356,0,0,-0.671082,267, 0.8, -0.5,0,0,1024,1024,1024,1024,266.6,-89.9,96,3.853,3.845,3.836,3.856,3.855,3.873,19.555,77,14,Waypoint,
37.353318,-119.5420303,4753.2729021047,187.664048,0,0.539616159,24400,2018-06-12 17:58:14,19,0,23.122,4753.2729021047,187.664048,0.223694,0.97657155356,0,0,-0.671082,267, 0.5, -0.7,0,0,1024,1024,1024,1024,266.6,-90,96,3.853,3.845,3.836,3.856,3.855,3.873,19.555,77,14,Waypoint,
37.3533179,-119.5420303,4754.9133221047,189.304468,0,0.57427167192,24700,2018-06-12 17:58:14,19,0,23.122,4754.9133221047,189.304468,0.223694,0.97657155356,0,0,-0.671082,267.1, 0.6, -0.7,0,0,1024,1024,1024,1024,266.6,-89.9,96,3.853,3.845,3.836,3.856,3.855,3.873,19.555,77,14,Waypoint,
37.3533179,-119.5420303,4755.8975741047,190.28872,0,0.57427167192,24800,2018-06-12 17:58:14,19,0,23.122,4755.8975741047,190.28872,0.223694,0.97657155356,0,0,-0.671082,267.1, 0.9, -0.4,0,0,1024,1024,1024,1024,266.6,-89.9,96,3.853,3.845,3.836,3.856,3.855,3.873,19.555,77,14,Waypoint,
37.3533179,-119.5420304,4756.8818261047,191.272972,0,0.58371721028,24900,2018-06-12 17:58:14,19,0,23.122,4756.8818261047,191.272972,0.223694,0.97657155356,0,0,-0.671082,267.2, 0.9, -0.1,0,0,1024,1024,1024,1024,266.6,-89.9,96,3.853,3.845,3.836,3.856,3.855,3.873,19.555,77,14,Waypoint,
37.3533179,-119.5420304,4757.8660781047,192.257224,0,0.58371721028,25000,2018-06-12 17:58:14,19,0,23.122,4757.8660781047,192.257224,0.223694,0.97657155356,0,0,-0.671082,267, 0.9, 0,0,0,1024,1024,1024,1024,266.6,-89.9,96,3.853,3.845,3.836,3.856,3.855,3.873,19.555,77,14,Waypoint,
37.3533178,-119.5420305,4758.8503301047,193.241476,0,0.62817587312,25100,2018-06-12 17:58:14,19,0,23.122,4758.8503301047,193.241476,0.223694,0.97657155356,0,0,-0.671082,266.8, 1, 0.1,0,0,1024,1024,1024,1024,266.6,-89.9,96,3.853,3.845,3.836,3.856,3.855,3.873,19.555,77,14,Waypoint,
37.3533178,-119.5420305,4759.8345821047,194.225728,0,0.62817587312,25200,2018-06-12 17:58:14,19,0,23.122,4759.8345821047,194.225728,0.223694,0.97657155356,0,0,-0.671082,266.5, 1, 0.2,0,0,1024,1024,1024,1024,266.6,-89.9,96,3.853,3.845,3.836,3.856,3.855,3.873,19.555,77,14,Waypoint,
37.3533178,-119.5420305,4760.8188341047,195.20998,0,0.62817587312,25300,2018-06-12 17:58:14,19,0,23.122,4760.8188341047,195.20998,0.223694,0.97657155356,0,0,-0.671082,266.4, 0.8, 0.2,0,0,1024,1024,1024,1024,266.6,-89.9,96,3.853,3.845,3.836,3.856,3.855,3.873,19.555,77,14,Waypoint,
37.3533178,-119.5420305,4762.1311701047,196.522316,0,0.62817587312,25400,2018-06-12 17:58:15,19,0,23.122,4762.1311701047,196.522316,0.223694,0.97657155356,0,0,-0.671082,266.5, 0.8, -0.1,0,0,1024,1024,1024,1024,266.6,-89.9,96,3.853,3.845,3.836,3.856,3.855,3.873,19.555,77,14,Waypoint,
37.3533178,-119.5420305,4763.1154221047,197.506568,0,0.62817587312,25500,2018-06-12 17:58:15,19,0,23.122,4763.1154221047,197.506568,0.223694,0.97657155356,0,0,-0.671082,266.8, 1, -0.4,0,0,1024,1024,1024,1024,266.6,-89.9,96,3.853,3.845,3.836,3.856,3.855,3.873,19.555,77,14,Waypoint,
37.3533178,-119.5420305,4764.0996741047,198.49082,0,0.62817587312,25600,2018-06-12 17:58:15,19,0,23.122,4764.0996741047,198.49082,0.223694,0.97657155356,0,0,-0.671082,267.1, 0.9, -0.4,0,0,1024,1024,1024,1024,266.7,-89.9,96,3.853,3.845,3.836,3.856,3.855,3.873,19.555,77,14,Waypoint,
37.3533178,-119.5420305,4765.0839261047,199.475072,0,0.62817587312,25700,2018-06-12 17:58:15,19,0,23.122,4765.0839261047,199.475072,0.223694,0.97657155356,0,0,-0.671082,267.4, 0.8, -0.3,0,0,1024,1024,1024,1024,266.7,-89.9,96,3.853,3.845,3.836,3.856,3.855,3.873,19.555,77,14,Waypoint,
37.3533178,-119.5420304,4766.0681781047,200.459324,0,0.61805448172,25800,2018-06-12 17:58:15,19,0,23.122,4766.0681781047,200.459324,0.223694,0.97657155356,0,0,-0.671082,267.6, 0.7, -0.4,0,0,1024,1024,1024,1024,266.6,-89.9,96,3.853,3.845,3.836,3.856,3.855,3.873,19.555,77,14,Waypoint,
37.3533178,-119.5420304,4767.0524301047,201.443576,0,0.61805448172,25900,2018-06-12 17:58:15,19,0,23.122,4767.0524301047,201.443576,0.223694,0.97657155356,0,0,-0.671082,267.7, 0.4, -0.5,0,0,1024,1024,1024,1024,266.7,-90,96,3.853,3.845,3.836,3.856,3.855,3.873,19.555,77,14,Waypoint,
37.3533179,-119.5420304,4768.0366821047,202.427828,0,0.58371721028,26000,2018-06-12 17:58:15,19,0,23.027,4768.0366821047,202.427828,0.223694,0.97657155356,0,0,-0.671082,267.7, 0.1, -0.7,0,0,1024,1024,1024,1024,266.7,-90,96,3.833,3.822,3.816,3.829,3.835,3.852,20.113,77,14,Waypoint,
37.3533179,-119.5420303,4769.0209341047,203.41208,0,0.57427167192,26100,2018-06-12 17:58:15,19,0,23.027,4769.0209341047,203.41208,0.223694,0.97657155356,0,0,-0.671082,267.6, 0, -0.6,0,0,1024,1024,1024,1024,266.6,-89.9,96,3.833,3.822,3.816,3.829,3.835,3.852,20.113,77,14,Waypoint,
