latitude,longitude,altitude(feet),ascent(feet),speed(mph),distance(feet),time(millisecond),datetime(utc),satellites,gpslevel,voltage(v),max_altitude(feet),max_ascent(feet),max_speed(mph),max_distance(feet), xSpeed(mph), ySpeed(mph), zSpeed(mph), compass_heading(degrees), pitch(degrees), roll(degrees),isPhoto,isVideo,rc_elevator,rc_aileron,rc_throttle,rc_rudder,gimbal_heading(degrees),gimbal_pitch(degrees),battery_percent,voltageCell1,voltageCell2,voltageCell3,voltageCell4,voltageCell5,voltageCell6,current(A),battery_temperature(f),flycStateRaw,flycState,message
37.3533331,-119.5420188,4565.6549108647,0,0,0,3300,2018-06-12 17:02:50,17,0,0,4565.6549108647,0,0,0,0,0,0,271.2, 0.2, 0.6,1,0,1024,1024,1024,1024,269.5,-89.9,92,4.11,4.122,4.088,4.115,4.113,4.108,0,71.6,11,AutoTakeoff,DJI_0382.jpg Starting Mission from Lat/Long: 37.35334/-119.54202 Camera: Zenmuse X3 - Overlap: 90/90 - Active Connection: No
37.3533332,-119.5420188,4565.6549108647,0,0,0.036484909304,3400,2018-06-12 17:02:50,17,0,0,4565.6549108647,0,0,0.036484909304,0,0,0,271.3, 0, 0.4,0,0,1024,1024,1024,1024,269.5,-89.9,92,4.11,4.122,4.088,4.115,4.113,4.108,0,71.6,11,AutoTakeoff,
37.3533332,-119.5420187,4565.6549108647,0,0,0.04660761304,3500,2018-06-12 17:02:50,17,0,0,4565.6549108647,0,0,0.04660761304,0,0,0,271.3, -0.1, 0,0,0,1024,1024,1024,1024,269.5,-89.9,92,4.11,4.122,4.088,4.115,4.113,4.108,0,71.6,11,AutoTakeoff,
37.3533333,-119.5420187,4565.9829948647,0.328084,0,0.078522312224,3600,2018-06-12 17:02:50,17,0,0,4565.9829948647,0.328084,0,0.078522312224,0,0,0,271.3, 0, 0,0,0,1024,1024,1024,1024,269.5,-89.9,92,4.11,4.122,4.088,4.115,4.113,4.108,0,71.6,11,AutoTakeoff,
37.3533333,-119.5420187,4565.9829948647,0.328084,0,0.078522312224,3700,2018-06-12 17:02:50,16,0,0,4565.9829948647,0.328084,0,0.078522312224,0,0,0,271.2, 0, 0,0,0,1024,1024,1024,1024,269.6,-89.9,92,4.11,4.122,4.088,4.115,4.113,4.108,0,71.6,11,AutoTakeoff,
37.3533334,-119.5420187,4566.3110788647,0.656168,0,0.113231959004,3800,2018-06-12 17:02:50,16,0,0,4566.3110788647,0.656168,0,0.113231959004,0,0,0,271.2, -0.1, 0.2,0,0,1024,1024,1024,1024,269.6,-90,92,4.11,4.122,4.088,4.115,4.113,4.108,0,71.6,11,AutoTakeoff,
37.3533335,-119.5420187,4566.3110788647,0.656168,0,0.148793639932,3900,2018-06-12 17:02:50,17,0,0,4566.3110788647,0.656168,0,0.148793639932,0,0,0,271.1, 0, -0.1,0,0,1024,1024,1024,1024,269.6,-89.9,92,4.11,4.122,4.088,4.115,4.113,4.108,0,71.6,11,AutoTakeoff,
37.3533335,-119.5420187,4566.6391628647,0.984252,0,0.148793639932,4000,2018-06-12 17:02:50,17,0,24.776,4566.6391628647,0.984252,0,0.148793639932,0,0,0,271, 0.1, -0.7,0,0,1024,1024,1024,1024,269.6,-89.9,92,4.11,4.122,4.088,4.115,4.113,4.108,3.139,71.6,11,AutoTakeoff,
37.3533336,-119.5420187,4566.6391628647,0.984252,0,0.184715885176,4100,2018-06-12 17:02:50,17,0,24.776,4566.6391628647,0.984252,0,0.184715885176,0,0,0,270.9, 0.2, -0.9,0,0,1024,1024,1024,1024,269.7,-89.9,92,4.11,4.122,4.088,4.115,4.113,4.108,3.139,71.6,11,AutoTakeoff,
37.3533336,-119.5420187,4566.9672468647,1.312336,0,0.184715885176,4200,2018-06-12 17:02:51,17,0,24.776,4566.9672468647,1.312336,0,0.184715885176,0,0,0,270.9, 0.1, -1,0,0,1024,1024,1024,1024,269.7,-89.9,92,4.11,4.122,4.088,4.115,4.113,4.108,3.139,71.6,11,AutoTakeoff,
37.3533337,-119.5420188,4566.9672468647,1.312336,0,0.218909783908,4300,2018-06-12 17:02:51,17,0,24.776,4566.9672468647,1.312336,0,0.218909783908,0,0,0,270.9, 0.1, -0.9,0,0,1024,1024,1024,1024,269.7,-89.9,92,4.11,4.122,4.088,4.115,4.113,4.108,3.139,71.6,11,AutoTakeoff,
37.3533337,-119.5420188,4567.2953308647,1.64042,0,0.218909783908,4400,2018-06-12 17:02:51,17,0,24.776,4567.2953308647,1.64042,0,0.218909783908,0,0,0,270.8, 0.2, -0.7,0,0,1024,1024,1024,1024,269.7,-89.9,92,4.11,4.122,4.088,4.115,4.113,4.108,3.139,71.6,11,AutoTakeoff,
37.3533337,-119.5420188,4567.2953308647,1.64042,0,0.218909783908,4500,2018-06-12 17:02:51,17,0,24.776,4567.2953308647,1.64042,0,0.218909783908,0,0,0,270.8, 0.2, -0.8,0,0,1024,1024,1024,1024,269.7,-89.9,92,4.11,4.122,4.088,4.115,4.113,4.108,3.139,71.6,11,AutoTakeoff,
37.3533337,-119.5420188,4567.6234148647,1.968504,0,0.218909783908,4600,2018-06-12 17:02:51,17,0,24.776,4567.6234148647,1.968504,0,0.218909783908,0,0,0,270.7, 0.1, -0.8,0,0,1024,1024,1024,1024,269.8,-89.9,92,4.11,4.122,4.088,4.115,4.113,4.108,3.139,71.6,11,AutoTakeoff,
37.3533337,-119.5420188,4567.6234148647,1.968504,0,0.218909783908,4700,2018-06-12 17:02:51,17,0,24.776,4567.6234148647,1.968504,0,0.218909783908,0,0,0,270.7, 0, -0.8,0,0,1024,1024,1024,1024,269.8,-89.9,92,4.11,4.122,4.088,4.115,4.113,4.108,3.139,71.6,11,AutoTakeoff,
37.3533337,-119.5420189,4567.9514988647,2.296588,0,0.220822513628,4800,2018-06-12 17:02:51,16,0,24.776,4567.9514988647,2.296588,0,0.220822513628,0,0,0,270.7, 0.2, -0.2,0,0,1024,1024,1024,1024,269.8,-89.9,92,4.11,4.122,4.088,4.115,4.113,4.108,3.139,71.6,11,AutoTakeoff,
37.3533336,-119.542019,4567.9514988647,2.296588,0,0.191424218724,4900,2018-06-12 17:02:51,16,0,24.776,4567.9514988647,2.296588,0,0.220822513628,0,0,-0.223694,270.7, 0.3, 0,0,0,1024,1024,1024,1024,269.8,-89.9,92,4.11,4.122,4.088,4.115,4.113,4.108,3.139,71.6,11,AutoTakeoff,
37.3533336,-119.542019,4568.6076668647,2.952756,0,0.191424218724,5100,2018-06-12 17:02:51,17,0,24.776,4568.6076668647,2.952756,0,0.220822513628,0,0,-0.223694,270.8, 0.3, 0.1,0,0,1024,1024,1024,1024,269.8,-89.9,92,4.11,4.122,4.088,4.115,4.113,4.108,3.139,71.6,11,AutoTakeoff,
37.3533335,-119.542019,4568.9357508647,3.28084,0,0.157044296364,5300,2018-06-12 17:02:52,17,0,24.776,4568.9357508647,3.28084,0,0.220822513628,0,0,0,270.9, 0.2, 0.2,0,0,1024,1024,1024,1024,269.9,-89.9,92,4.11,4.122,4.088,4.115,4.113,4.108,3.139,71.6,14,Waypoint,
37.3533335,-119.542019,4568.9357508647,3.28084,0,0.157044296364,5400,2018-06-12 17:02:52,17,0,24.776,4568.9357508647,3.28084,0,0.220822513628,0,0,0,270.9, 0.2, 0.5,0,0,1024,1024,1024,1024,269.9,-89.9,92,4.11,4.122,4.088,4.115,4.113,4.108,3.139,71.6,14,Waypoint,
37.3533334,-119.5420191,4568.9357508647,3.28084,0,0.139823167204,5500,2018-06-12 17:02:52,17,0,24.776,4568.9357508647,3.28084,0,0.220822513628,0,0,0,270.8, 0.3, 0.6,0,0,1024,1024,1024,1024,269.9,-89.9,92,4.11,4.122,4.088,4.115,4.113,4.108,3.139,71.6,14,Waypoint,
37.3533334,-119.5420191,4569.2638348647,3.608924,0,0.139823167204,5600,2018-06-12 17:02:52,17,0,24.776,4569.2638348647,3.608924,0,0.220822513628,0,0,0,270.8, 0.3, 0.4,0,0,1024,1024,1024,1024,269.9,-89.9,92,4.11,4.122,4.088,4.115,4.113,4.108,3.139,71.6,14,Waypoint,
37.3533334,-119.5420192,4569.2638348647,3.608924,0,0.159494099592,5700,2018-06-12 17:02:52,17,0,24.776,4569.2638348647,3.608924,0,0.220822513628,0,0,0,270.9, 0.3, 0,0,0,1024,1024,1024,1024,269.9,-89.9,92,4.11,4.122,4.088,4.115,4.113,4.108,3.139,71.6,14,Waypoint,
37.3533333,-119.5420193,4569.5919188647,3.937008,0,0.162335635116,5900,2018-06-12 17:02:52,17,0,24.776,4569.5919188647,3.937008,0,0.220822513628,0,0,-0.223694,271, 0.4, -0.1,0,0,1024,1024,1024,1024,269.9,-89.9,92,4.11,4.122,4.088,4.115,4.113,4.108,3.139,71.6,14,Waypoint,
37.3533332,-119.5420193,4569.9200028647,4.265092,0,0.149530516596,6010,2018-06-12 17:02:52,17,0,23.119,4569.9200028647,4.265092,0,0.220822513628,0,0,-0.223694,271.1, 0.5, 0,0,0,1024,1024,1024,1024,269.9,-89.9,92,3.847,3.843,3.854,3.839,3.835,3.855,17.32,71.6,14,Waypoint,
37.3533332,-119.5420193,4569.9200028647,4.265092,0,0.149530516596,6100,2018-06-12 17:02:52,17,0,23.119,4569.9200028647,4.265092,0,0.220822513628,0,0,-0.223694,271.1, 0.5, 0,0,0,1024,1024,1024,1024,269.9,-89.9,92,3.847,3.843,3.854,3.839,3.835,3.855,17.32,71.6,14,Waypoint,
37.3533331,-119.5420194,4570.2480868647,4.593176,0,0.174013128928,6200,2018-06-12 17:02:53,17,0,23.119,4570.2480868647,4.593176,0,0.220822513628,0,0,-0.223694,271.1, 0.4, 0.3,0,0,1024,1024,1024,1024,269.9,-89.9,92,3.847,3.843,3.854,3.839,3.835,3.855,17.32,71.6,14,Waypoint,
37.353333,-119.5420194,4570.9042548647,5.249344,0,0.1777969217,6300,2018-06-12 17:02:53,17,0,23.119,4570.9042548647,5.249344,0,0.220822513628,0,0,-0.223694,271.1, 0.3, 0.6,0,0,1024,1024,1024,1024,269.9,-89.9,92,3.847,3.843,3.854,3.839,3.835,3.855,17.32,71.6,14,Waypoint,
37.353333,-119.5420194,4571.2323388647,5.577428,0,0.1777969217,6400,2018-06-12 17:02:53,17,0,23.119,4571.2323388647,5.577428,0,0.220822513628,0,0,-0.447388,271.1, 0.2, 0.9,0,0,1024,1024,1024,1024,269.9,-89.9,92,3.847,3.843,3.854,3.839,3.835,3.855,17.32,71.6,14,Waypoint,
37.3533329,-119.5420194,4571.5604228647,5.905512,0,0.188693575592,6500,2018-06-12 17:02:53,17,0,23.119,4571.5604228647,5.905512,0,0.220822513628,0,0,-0.447388,271, 0.2, 1.2,0,0,1024,1024,1024,1024,269.9,-89.9,92,3.847,3.843,3.854,3.839,3.835,3.855,17.32,71.6,14,Waypoint,
37.3533329,-119.5420194,4572.2165908647,6.56168,0,0.188693575592,6600,2018-06-12 17:02:53,17,0,23.119,4572.2165908647,6.56168,0,0.220822513628,0,0,-0.447388,270.9, 0.2, 1.2,0,0,1024,1024,1024,1024,269.9,-89.9,92,3.847,3.843,3.854,3.839,3.835,3.855,17.32,71.6,14,Waypoint,
37.3533328,-119.5420194,4573.2008428647,7.545932,0,0.205574809728,6700,2018-06-12 17:02:53,17,0,23.119,4573.2008428647,7.545932,0,0.220822513628,0,0,-0.447388,270.8, 0.2, 1.3,0,0,1024,1024,1024,1024,269.9,-89.9,92,3.847,3.843,3.854,3.839,3.835,3.855,17.32,71.6,14,Waypoint,
37.3533328,-119.5420194,4573.8570108647,8.2021,0,0.205574809728,6800,2018-06-12 17:02:53,17,0,23.119,4573.8570108647,8.2021,0,0.220822513628,0,0,-0.671082,270.7, 0.2, 1.3,0,0,1024,1024,1024,1024,269.9,-89.9,92,3.847,3.843,3.854,3.839,3.835,3.855,17.32,71.6,14,Waypoint,
37.3533328,-119.5420193,4574.8412628647,9.186352,0,0.181682748596,6900,2018-06-12 17:02:53,17,0,23.119,4574.8412628647,9.186352,0,0.220822513628,0,0,-0.671082,270.7, 0.2, 1.1,0,0,1024,1024,1024,1024,269.9,-89.9,92,3.847,3.843,3.854,3.839,3.835,3.855,17.32,71.6,14,Waypoint,
37.3533328,-119.5420193,4575.8255148647,10.170604,0,0.181682748596,7000,2018-06-12 17:02:53,17,0,22.977,4575.8255148647,10.170604,0,0.220822513628,0,0,-0.671082,270.7, 0.1, 0.9,0,0,1024,1024,1024,1024,269.9,-89.9,92,3.819,3.827,3.841,3.811,3.852,3.837,16.53,73.4,14,Waypoint,
37.3533329,-119.5420193,4577.1378508647,11.48294,0,0.162335635116,7100,2018-06-12 17:02:53,17,0,22.977,4577.1378508647,11.48294,0,0.220822513628,0,0,-0.671082,270.7, 0.2, 0.5,0,0,1024,1024,1024,1024,269.9,-89.9,92,3.819,3.827,3.841,3.811,3.852,3.837,16.53,73.4,14,Waypoint,
37.3533328,-119.5420192,4578.1221028647,12.467192,0,0.159494099592,7200,2018-06-12 17:02:54,17,0,22.977,4578.1221028647,12.467192,0,0.220822513628,0,0,-0.671082,270.8, 0.3, 0.3,0,0,1024,1024,1024,1024,269.9,-89.9,92,3.819,3.827,3.841,3.811,3.852,3.837,16.53,73.4,14,Waypoint,
37.3533328,-119.5420191,4579.1063548647,13.451444,0,0.139823167204,7300,2018-06-12 17:02:54,18,0,22.977,4579.1063548647,13.451444,0,0.220822513628,0,0,-0.671082,270.8, 0.2, 0.5,0,0,1024,1024,1024,1024,269.9,-89.9,92,3.819,3.827,3.841,3.811,3.852,3.837,16.53,73.4,14,Waypoint,
37.3533328,-119.5420191,4580.4186908647,14.76378,0,0.139823167204,7400,2018-06-12 17:02:54,18,0,22.977,4580.4186908647,14.76378,0,0.220822513628,0,0,-0.671082,270.9, 0.3, 0.6,0,0,1024,1024,1024,1024,269.9,-89.9,92,3.819,3.827,3.841,3.811,3.852,3.837,16.53,73.4,14,Waypoint,
37.3533328,-119.5420191,4582.7152788647,17.060368,0,0.139823167204,7500,2018-06-12 17:02:54,18,0,22.977,4582.7152788647,17.060368,0,0.220822513628,0,0,-0.671082,271.1, 0.6, 0.5,0,0,1024,1024,1024,1024,269.9,-89.9,92,3.819,3.827,3.841,3.811,3.852,3.837,16.53,73.4,14,Waypoint,
37.3533328,-119.5420191,4584.6837828647,19.028872,0,0.139823167204,7700,2018-06-12 17:02:54,18,0,22.977,4584.6837828647,19.028872,0,0.220822513628,0,0,-0.671082,271.4, 0, 0.7,0,0,1024,1024,1024,1024,269.9,-90,92,3.819,3.827,3.841,3.811,3.852,3.837,16.53,73.4,14,Waypoint,
37.3533328,-119.5420192,4585.9961188647,20.341208,0,0.159494099592,7800,2018-06-12 17:02:54,18,0,22.977,4585.9961188647,20.341208,0,0.220822513628,0,0,-0.671082,271.5, 0, 0.6,0,0,1024,1024,1024,1024,269.9,-90,92,3.819,3.827,3.841,3.811,3.852,3.837,16.53,73.4,14,Waypoint,
37.3533327,-119.5420193,4586.9803708647,21.32546,0,0.205734258552,7900,2018-06-12 17:02:54,18,0,22.977,4586.9803708647,21.32546,0,0.220822513628,0,0,-0.671082,271.5, 0.2, 0.7,0,0,1024,1024,1024,1024,269.9,-89.9,92,3.819,3.827,3.841,3.811,3.852,3.837,16.53,73.4,14,Waypoint,
37.3533326,-119.5420194,4589.2769588647,23.622048,0,0.252109916204,8100,2018-06-12 17:02:54,18,0,22.977,4589.2769588647,23.622048,0,0.252109916204,0,0,-0.671082,271.4, 1, 0.7,0,0,1024,1024,1024,1024,269.9,-89.9,92,3.819,3.827,3.841,3.811,3.852,3.837,16.53,73.4,14,Waypoint,
37.3533326,-119.5420194,4589.2769588647,23.622048,0,0.252109916204,8200,2018-06-12 17:02:55,18,0,22.977,4589.2769588647,23.622048,0,0.252109916204,0,0,-0.671082,271.4, 1, 0.7,0,0,1024,1024,1024,1024,269.9,-89.9,92,3.819,3.827,3.841,3.811,3.852,3.837,16.53,73.4,14,Waypoint,
37.3533326,-119.5420195,4590.2612108647,24.6063,0,0.272936032356,8300,2018-06-12 17:02:55,18,0,22.977,4590.2612108647,24.6063,0,0.272936032356,0,0,-0.671082,271.2, 1.1, 0.8,0,0,1024,1024,1024,1024,269.9,-89.9,92,3.819,3.827,3.841,3.811,3.852,3.837,16.53,73.4,14,Waypoint,
37.3533326,-119.5420196,4591.2454628647,25.590552,0,0.295145678736,8400,2018-06-12 17:02:55,18,0,22.977,4591.2454628647,25.590552,0,0.295145678736,0,0,-0.671082,271, 1, 0.7,0,0,1024,1024,1024,1024,269.9,-89.9,92,3.819,3.827,3.841,3.811,3.852,3.837,16.53,73.4,14,Waypoint,
37.3533326,-119.5420196,4592.2297148647,26.574804,0,0.295145678736,8500,2018-06-12 17:02:55,18,0,22.977,4592.2297148647,26.574804,0,0.295145678736,0,0,-0.671082,270.9, 0.8, 0.5,0,0,1024,1024,1024,1024,269.9,-89.9,92,3.819,3.827,3.841,3.811,3.852,3.837,16.53,73.4,14,Waypoint,
37.3533325,-119.5420197,4593.5420508647,27.88714,0,0.3406660214,8600,2018-06-12 17:02:55,18,0,22.977,4593.5420508647,27.88714,0,0.3406660214,0,0,-0.671082,270.8, 0.7, 0.6,0,0,1024,1024,1024,1024,269.9,-89.9,92,3.819,3.827,3.841,3.811,3.852,3.837,16.53,73.4,14,Waypoint,
37.3533325,-119.5420197,4594.5263028647,28.871392,0,0.3406660214,8700,2018-06-12 17:02:55,18,0,22.977,4594.5263028647,28.871392,0,0.3406660214,0,0,-0.671082,270.8, 0.5, 0.7,0,0,1024,1024,1024,1024,269.9,-89.9,92,3.819,3.827,3.841,3.811,3.852,3.837,16.53,73.4,14,Waypoint,
37.3533325,-119.5420197,4595.5105548647,29.855644,0,0.3406660214,8800,2018-06-12 17:02:55,18,0,22.977,4595.5105548647,29.855644,0,0.3406660214,0,0,-0.671082,270.9, 0.2, 0.6,0,0,1024,1024,1024,1024,269.9,-90,92,3.819,3.827,3.841,3.811,3.852,3.837,16.53,73.4,14,Waypoint,
37.3533325,-119.5420197,4596.4948068647,30.839896,0,0.3406660214,8900,2018-06-12 17:02:55,18,0,22.977,4596.4948068647,30.839896,0,0.3406660214,0,0,-0.671082,271, 0, 0.7,0,0,1024,1024,1024,1024,269.9,-90,92,3.819,3.827,3.841,3.811,3.852,3.837,16.53,73.4,14,Waypoint,
37.3533325,-119.5420197,4597.8071428647,32.152232,0,0.3406660214,9000,2018-06-12 17:02:55,18,0,22.432,4597.8071428647,32.152232,0,0.3406660214,0,0,-0.671082,271.1, -0.2, 0.8,0,0,1024,1024,1024,1024,269.9,-90,92,3.732,3.745,3.752,3.739,3.721,3.767,23.688,73.4,14,Waypoint,
37.3533325,-119.5420197,4598.7913948647,33.136484,0,0.3406660214,9100,2018-06-12 17:02:55,18,0,22.432,4598.7913948647,33.136484,0,0.3406660214,0,0,-0.671082,271.3, 0, 0.9,0,0,1024,1024,1024,1024,269.9,-89.9,92,3.732,3.745,3.752,3.739,3.721,3.767,23.688,73.4,14,Waypoint,
37.3533325,-119.5420198,4599.7756468647,34.120736,0,0.36336615336,9200,2018-06-12 17:02:56,18,0,22.432,4599.7756468647,34.120736,0,0.36336615336,0,0,-0.671082,271.3, 0.5, 0.7,0,0,1024,1024,1024,1024,269.9,-89.9,92,3.732,3.745,3.752,3.739,3.721,3.767,23.688,73.4,14,Waypoint,
37.3533325,-119.5420199,4600.7598988647,35.104988,0,0.3869094612,9300,2018-06-12 17:02:56,18,0,22.432,4600.7598988647,35.104988,0,0.3869094612,0,0,-0.671082,271.2, 1, 0.4,0,0,1024,1024,1024,1024,269.9,-89.9,92,3.732,3.745,3.752,3.739,3.721,3.767,23.688,73.4,14,Waypoint,
37.3533325,-119.54202,4601.7441508647,36.08924,0,0.41114830712,9400,2018-06-12 17:02:56,18,0,22.432,4601.7441508647,36.08924,0,0.41114830712,0,0,-0.671082,271.1, 1.2, 0.1,0,0,1024,1024,1024,1024,269.9,-89.9,92,3.732,3.745,3.752,3.739,3.721,3.767,23.688,73.4,14,Waypoint,
37.3533325,-119.54202,4602.7284028647,37.073492,0,0.41114830712,9500,2018-06-12 17:02:56,18,0,22.432,4602.7284028647,37.073492,0,0.41114830712,0,0,-0.671082,271, 1.4, 0.1,0,0,1024,1024,1024,1024,269.9,-89.9,92,3.732,3.745,3.752,3.739,3.721,3.767,23.688,73.4,14,Waypoint,
37.3533325,-119.5420201,4603.7126548647,38.057744,0,0.43597114256,9600,2018-06-12 17:02:56,18,0,22.432,4603.7126548647,38.057744,0,0.43597114256,0,0,-0.671082,270.9, 1.4, 0.2,0,0,1024,1024,1024,1024,269.9,-89.9,92,3.732,3.745,3.752,3.739,3.721,3.767,23.688,73.4,14,Waypoint,
37.3533325,-119.5420201,4604.6969068647,39.041996,0,0.43597114256,9700,2018-06-12 17:02:56,18,0,22.432,4604.6969068647,39.041996,0,0.43597114256,0,0,-0.671082,270.9, 1.2, 0.4,0,0,1024,1024,1024,1024,269.9,-89.9,92,3.732,3.745,3.752,3.739,3.721,3.767,23.688,73.4,14,Waypoint,
37.3533325,-119.54202,4606.6654108647,41.0105,0,0.41114830712,9800,2018-06-12 17:02:56,18,0,22.432,4606.6654108647,41.0105,0,0.43597114256,0,0,-0.671082,270.8, 0.6, 0.6,0,0,1024,1024,1024,1024,269.9,-89.9,92,3.732,3.745,3.752,3.739,3.721,3.767,23.688,73.4,14,Waypoint,
37.3533325,-119.5420199,4607.6496628647,41.994752,0,0.3869094612,9900,2018-06-12 17:02:56,18,0,22.432,4607.6496628647,41.994752,0,0.43597114256,0,0,-0.671082,270.8, 0.3, 0.6,0,0,1024,1024,1024,1024,269.9,-89.9,92,3.732,3.745,3.752,3.739,3.721,3.767,23.688,73.4,14,Waypoint,
37.3533325,-119.5420198,4608.6339148647,42.979004,0,0.36336615336,10000,2018-06-12 17:02:56,18,0,22.547,4608.6339148647,42.979004,0,0.43597114256,0,0,-0.671082,270.8, 0.1, 0.7,0,0,1024,1024,1024,1024,269.9,-90,92,3.751,3.754,3.776,3.754,3.734,3.773,19.96,73.4,14,Waypoint,
37.3533325,-119.5420198,4609.6181668647,43.963256,0,0.36336615336,10100,2018-06-12 17:02:56,18,0,22.547,4609.6181668647,43.963256,0,0.43597114256,0,0,-0.671082,270.8, 0, 0.7,0,0,1024,1024,1024,1024,269.9,-90,92,3.751,3.754,3.776,3.754,3.734,3.773,19.96,73.4,14,Waypoint,
37.3533325,-119.5420198,4610.6024188647,44.947508,0,0.36336615336,10200,2018-06-12 17:02:57,18,0,22.547,4610.6024188647,44.947508,0,0.43597114256,0,0,-0.671082,270.9, 0, 0.8,0,0,1024,1024,1024,1024,269.9,-90,92,3.751,3.754,3.776,3.754,3.734,3.773,19.96,73.4,14,Waypoint,
37.3533326,-119.5420197,4612.8990068647,47.244096,0,0.318449485256,10400,2018-06-12 17:02:57,18,0,22.547,4612.8990068647,47.244096,0,0.43597114256,0,0,-0.671082,271, 0, 0.5,0,0,1024,1024,1024,1024,269.9,-90,92,3.751,3.754,3.776,3.754,3.734,3.773,19.96,73.4,14,Waypoint,
37.3533326,-119.5420196,4613.8832588647,48.228348,0,0.295145678736,10500,2018-06-12 17:02:57,18,0,22.547,4613.8832588647,48.228348,0,0.43597114256,0,0,-0.671082,271, 0, 0.3,0,0,1024,1024,1024,1024,269.9,-90,92,3.751,3.754,3.776,3.754,3.734,3.773,19.96,73.4,14,Waypoint,
37.3533326,-119.5420195,4614.8675108647,49.2126,0,0.272936032356,10610,2018-06-12 17:02:57,18,0,22.547,4614.8675108647,49.2126,0,0.43597114256,0,0,-0.671082,271, 0, 0.2,0,0,1024,1024,1024,1024,269.9,-90,92,3.751,3.754,3.776,3.754,3.734,3.773,19.96,73.4,14,Waypoint,
37.3533327,-119.5420195,4615.8517628647,50.196852,0,0.250027238972,10800,2018-06-12 17:02:57,18,0,22.547,4615.8517628647,50.196852,0,0.43597114256,0,0,-0.671082,270.9, 0, 0.3,0,0,1024,1024,1024,1024,269.9,-90,92,3.751,3.754,3.776,3.754,3.734,3.773,19.96,73.4,14,Waypoint,
37.3533328,-119.5420193,4617.8202668647,52.165356,0,0.181682748596,11000,2018-06-12 17:02:57,18,0,22.494,4617.8202668647,52.165356,0,0.43597114256,0,0,-0.671082,270.8, -0.1, 0.2,0,0,1024,1024,1024,1024,269.9,-90,92,3.751,3.754,3.776,3.754,3.734,3.773,20.208,73.4,14,Waypoint,
37.3533328,-119.5420192,4618.8045188647,53.149608,0,0.159494099592,11100,2018-06-12 17:02:57,18,0,22.494,4618.8045188647,53.149608,0,0.43597114256,0,0,-0.671082,270.7, -0.3, 0.2,0,0,1024,1024,1024,1024,269.9,-90,92,3.751,3.754,3.776,3.754,3.734,3.773,20.208,73.4,14,Waypoint,
37.3533328,-119.5420192,4619.7887708647,54.13386,0,0.159494099592,11200,2018-06-12 17:02:58,18,0,22.494,4619.7887708647,54.13386,0,0.43597114256,0,0,-0.671082,270.7, -0.4, 0.2,0,0,1024,1024,1024,1024,269.9,-90,92,3.751,3.754,3.776,3.754,3.734,3.773,20.208,73.4,14,Waypoint,
37.3533329,-119.5420191,4620.7730228647,55.118112,0,0.113555121744,11300,2018-06-12 17:02:58,18,0,22.494,4620.7730228647,55.118112,0,0.43597114256,0,0,-0.671082,270.7, -0.4, 0.1,0,0,1024,1024,1024,1024,269.9,-90,92,3.751,3.754,3.776,3.754,3.734,3.773,20.208,73.4,14,Waypoint,
37.3533329,-119.5420191,4622.7415268647,57.086616,0,0.113555121744,11500,2018-06-12 17:02:58,18,0,22.494,4622.7415268647,57.086616,0,0.43597114256,0,0,-0.671082,270.7, -0.2, 0.1,0,0,1024,1024,1024,1024,269.9,-90,92,3.751,3.754,3.776,3.754,3.734,3.773,20.208,73.4,14,Waypoint,
37.353333,-119.542019,4623.7257788647,58.070868,0,0.068524936576,11600,2018-06-12 17:02:58,18,0,22.494,4623.7257788647,58.070868,0,0.43597114256,0,0,-0.671082,270.8, -0.2, 0.2,0,0,1024,1024,1024,1024,269.9,-90,92,3.751,3.754,3.776,3.754,3.734,3.773,20.208,73.4,14,Waypoint,
37.353333,-119.542019,4624.7100308647,59.05512,0,0.068524936576,11700,2018-06-12 17:02:58,18,0,22.494,4624.7100308647,59.05512,0,0.43597114256,0,0,-0.671082,270.8, -0.1, 0.3,0,0,1024,1024,1024,1024,269.9,-89.9,92,3.751,3.754,3.776,3.754,3.734,3.773,20.208,73.4,14,Waypoint,
37.353333,-119.542019,4626.6785348647,61.023624,0,0.068524936576,11800,2018-06-12 17:02:58,18,0,22.494,4626.6785348647,61.023624,0,0.43597114256,0,0,-0.671082,270.8, 0, 0.2,0,0,1024,1024,1024,1024,269.9,-90,92,3.751,3.754,3.776,3.754,3.734,3.773,20.208,73.4,14,Waypoint,
37.353333,-119.542019,4627.6627868647,62.007876,0,0.068524936576,12000,2018-06-12 17:02:58,18,0,22.494,4627.6627868647,62.007876,0,0.43597114256,0,0,-0.671082,270.8, 0.1, 0.1,0,0,1024,1024,1024,1024,269.9,-89.9,92,3.735,3.755,3.763,3.748,3.741,3.763,20.208,73.4,14,Waypoint,
37.3533331,-119.542019,4628.6470388647,62.992128,0,0.058004266948,12100,2018-06-12 17:02:58,18,0,22.494,4628.6470388647,62.992128,0,0.43597114256,0,0,-0.671082,270.9, 0.2, 0.1,0,0,1024,1024,1024,1024,269.9,-89.9,92,3.735,3.755,3.763,3.748,3.741,3.763,20.208,73.4,14,Waypoint,
37.3533331,-119.542019,4629.6312908647,63.97638,0,0.058004266948,12200,2018-06-12 17:02:59,18,0,22.494,4629.6312908647,63.97638,0,0.43597114256,0,0,-0.671082,270.9, 0.3, 0.1,0,0,1024,1024,1024,1024,269.9,-89.9,92,3.735,3.755,3.763,3.748,3.741,3.763,20.208,73.4,14,Waypoint,
37.3533331,-119.542019,4630.6155428647,64.960632,0,0.058004266948,12310,2018-06-12 17:02:59,18,0,22.494,4630.6155428647,64.960632,0,0.43597114256,0,0,-0.671082,270.9, 0.4, 0.1,0,0,1024,1024,1024,1024,269.9,-89.9,92,3.735,3.755,3.763,3.748,3.741,3.763,20.208,73.4,14,Waypoint,
37.3533331,-119.542019,4632.5840468647,66.929136,0,0.058004266948,12400,2018-06-12 17:02:59,18,0,22.494,4632.5840468647,66.929136,0,0.43597114256,0,0,-0.671082,270.9, 0.3, 0.2,0,0,1024,1024,1024,1024,269.9,-89.9,92,3.735,3.755,3.763,3.748,3.741,3.763,20.208,73.4,14,Waypoint,
37.3533331,-119.542019,4633.5682988647,67.913388,0,0.058004266948,12500,2018-06-12 17:02:59,18,0,22.494,4633.5682988647,67.913388,0,0.43597114256,0,0,-0.671082,270.9, 0.1, 0.3,0,0,1024,1024,1024,1024,269.9,-89.9,92,3.735,3.755,3.763,3.748,3.741,3.763,20.208,73.4,14,Waypoint,
37.3533331,-119.542019,4633.5682988647,67.913388,0,0.058004266948,12600,2018-06-12 17:02:59,18,0,22.494,4633.5682988647,67.913388,0,0.43597114256,0,0,-0.671082,270.9, 0.1, 0.3,0,0,1024,1024,1024,1024,269.9,-89.9,92,3.735,3.755,3.763,3.748,3.741,3.763,20.208,73.4,14,Waypoint,
37.3533331,-119.542019,4634.5525508647,68.89764,0,0.058004266948,12700,2018-06-12 17:02:59,18,0,22.494,4634.5525508647,68.89764,0,0.43597114256,0,0,-0.671082,270.9, 0.1, 0.3,0,0,1024,1024,1024,1024,269.9,-89.9,92,3.735,3.755,3.763,3.748,3.741,3.763,20.208,73.4,14,Waypoint,
37.3533331,-119.542019,4635.5368028647,69.881892,0,0.058004266948,12800,2018-06-12 17:02:59,18,0,22.494,4635.5368028647,69.881892,0,0.43597114256,0,0,-0.671082,270.9, 0.2, 0.4,0,0,1024,1024,1024,1024,269.9,-89.9,92,3.735,3.755,3.763,3.748,3.741,3.763,20.208,73.4,14,Waypoint,
37.3533331,-119.542019,4636.5210548647,70.866144,0,0.058004266948,12900,2018-06-12 17:02:59,18,0,22.494,4636.5210548647,70.866144,0,0.43597114256,0,0,-0.671082,270.9, 0.3, 0.5,0,0,1024,1024,1024,1024,269.9,-89.9,92,3.735,3.755,3.763,3.748,3.741,3.763,20.208,73.4,14,Waypoint,
37.3533331,-119.5420189,4637.5053068647,71.850396,0,0.0290022318992,13000,2018-06-12 17:02:59,18,0,22.516,4637.5053068647,71.850396,0,0.43597114256,0,0,-0.671082,271, 0.4, 0.6,0,0,1024,1024,1024,1024,269.9,-89.9,91,3.745,3.76,3.76,3.755,3.738,3.758,19.519,73.4,14,Waypoint,
37.3533331,-119.5420189,4638.4895588647,72.834648,0,0.0290022318992,13100,2018-06-12 17:02:59,18,0,22.516,4638.4895588647,72.834648,0,0.43597114256,0,0,-0.671082,271, 0.4, 0.6,0,0,1024,1024,1024,1024,269.9,-89.9,91,3.745,3.76,3.76,3.755,3.738,3.758,19.519,73.4,14,Waypoint,
37.3533331,-119.5420189,4639.4738108647,73.8189,0,0.0290022318992,13200,2018-06-12 17:03:00,18,0,22.516,4639.4738108647,73.8189,0,0.43597114256,0,0,-0.671082,271, 0.3, 0.6,0,0,1024,1024,1024,1024,269.9,-89.9,91,3.745,3.76,3.76,3.755,3.738,3.758,19.519,73.4,14,Waypoint,
37.3533331,-119.5420189,4640.1299788647,74.475068,0,0.0290022318992,13300,2018-06-12 17:03:00,18,0,22.516,4640.1299788647,74.475068,0,0.43597114256,0,0,-0.671082,271, 0.2, 0.4,0,0,1024,1024,1024,1024,269.9,-90,91,3.745,3.76,3.76,3.755,3.738,3.758,19.519,73.4,14,Waypoint,
37.3533331,-119.5420189,4641.1142308647,75.45932,0,0.0290022318992,13400,2018-06-12 17:03:00,18,0,22.516,4641.1142308647,75.45932,0,0.43597114256,0,0,-0.671082,270.9, 0.2, 0.1,0,0,1024,1024,1024,1024,269.9,-89.9,91,3.745,3.76,3.76,3.755,3.738,3.758,19.519,73.4,14,Waypoint,
37.3533332,-119.5420189,4642.0984828647,76.443572,0,0.04660761304,13500,2018-06-12 17:03:00,18,0,22.516,4642.0984828647,76.443572,0,0.43597114256,0,0,-0.671082,270.9, 0.2, 0,0,0,1024,1024,1024,1024,269.9,-89.9,91,3.745,3.76,3.76,3.755,3.738,3.758,19.519,73.4,14,Waypoint,
37.3533332,-119.5420189,4643.0827348647,77.427824,0,0.04660761304,13600,2018-06-12 17:03:00,18,0,22.516,4643.0827348647,77.427824,0,0.43597114256,0,0,-0.671082,270.9, 0.2, -0.1,0,0,1024,1024,1024,1024,269.9,-89.9,91,3.745,3.76,3.76,3.755,3.738,3.758,19.519,73.4,14,Waypoint,
37.3533332,-119.5420189,4644.0669868647,78.412076,0,0.04660761304,13700,2018-06-12 17:03:00,18,0,22.516,4644.0669868647,78.412076,0,0.43597114256,0,0,-0.671082,270.9, 0.2, 0,0,0,1024,1024,1024,1024,269.9,-89.9,91,3.745,3.76,3.76,3.755,3.738,3.758,19.519,73.4,14,Waypoint,
37.3533332,-119.5420188,4645.0512388647,79.396328,0,0.036484909304,13800,2018-06-12 17:03:00,18,0,22.516,4645.0512388647,79.396328,0,0.43597114256,0,0,-0.671082,270.8, 0.2, 0,0,0,1024,1024,1024,1024,269.9,-90,91,3.745,3.76,3.76,3.755,3.738,3.758,19.519,73.4,14,Waypoint,
37.3533332,-119.5420188,4646.0354908647,80.38058,0,0.036484909304,13900,2018-06-12 17:03:00,18,0,22.516,4646.0354908647,80.38058,0,0.43597114256,0,0,-0.671082,270.7, 0.3, 0.1,0,0,1024,1024,1024,1024,269.9,-89.9,91,3.745,3.76,3.76,3.755,3.738,3.758,19.519,73.4,14,Waypoint,
37.3533333,-119.5420188,4648.0039948647,82.349084,0,0.072969818608,14000,2018-06-12 17:03:00,18,0,22.461,4648.0039948647,82.349084,0,0.43597114256,0,0,-0.671082,270.8, 0.3, 0,0,0,1024,1024,1024,1024,269.9,-89.9,91,3.73,3.742,3.752,3.74,3.72,3.752,19.521,73.4,14,Waypoint,
37.3533333,-119.5420189,4649.9724988647,84.317588,0,0.078522312224,14200,2018-06-12 17:03:01,18,0,22.461,4649.9724988647,84.317588,0,0.43597114256,0,0,-0.671082,271.1, 0.1, -0.3,0,0,1024,1024,1024,1024,269.9,-89.9,91,3.73,3.742,3.752,3.74,3.72,3.752,19.521,73.4,14,Waypoint,
37.3533333,-119.5420189,4650.9567508647,85.30184,0,0.078522312224,14300,2018-06-12 17:03:01,18,0,22.461,4650.9567508647,85.30184,0,0.43597114256,0,0,-0.671082,271.1, 0.4, 0,0,0,1024,1024,1024,1024,269.9,-89.9,91,3.73,3.742,3.752,3.74,3.72,3.752,19.521,73.4,14,Waypoint,
37.3533333,-119.542019,4651.9410028647,86.286092,0,0.093215554164,14400,2018-06-12 17:03:01,18,0,22.461,4651.9410028647,86.286092,0,0.43597114256,0,0,-0.671082,271, 0.8, 0.1,0,0,1024,1024,1024,1024,269.9,-89.9,91,3.73,3.742,3.752,3.74,3.72,3.752,19.521,73.4,14,Waypoint,
37.3533333,-119.5420191,4652.9252548647,87.270344,0,0.113555121744,14500,2018-06-12 17:03:01,18,0,22.461,4652.9252548647,87.270344,0,0.43597114256,0,0,-0.671082,270.9, 1.3, 0.2,0,0,1024,1024,1024,1024,269.9,-89.9,91,3.73,3.742,3.752,3.74,3.72,3.752,19.521,73.4,14,Waypoint,
37.3533333,-119.5420192,4653.9095068647,88.254596,0,0.137049873152,14600,2018-06-12 17:03:01,18,0,22.461,4653.9095068647,88.254596,0,0.43597114256,0,0,-0.671082,270.7, 1.6, 0.2,0,0,1024,1024,1024,1024,269.9,-89.9,91,3.73,3.742,3.752,3.74,3.72,3.752,19.521,73.4,14,Waypoint,
37.3533333,-119.5420193,4654.8937588647,89.238848,0,0.162335635116,14800,2018-06-12 17:03:01,18,0,22.461,4654.8937588647,89.238848,0,0.43597114256,0,0,-0.671082,270.7, 1.7, 0.2,0,0,1024,1024,1024,1024,269.9,-89.9,91,3.73,3.742,3.752,3.74,3.72,3.752,19.521,73.4,14,Waypoint,
37.3533334,-119.5420194,4656.8622628647,91.207352,0,0.205574809728,15000,2018-06-12 17:03:01,18,0,22.426,4656.8622628647,91.207352,0,0.43597114256,0,0,-0.671082,270.6, 1.8, 0.1,0,0,1024,1024,1024,1024,269.9,-89.9,91,3.732,3.745,3.75,3.742,3.723,3.748,19.581,73.4,14,Waypoint,
37.3533333,-119.5420194,4657.8465148647,92.191604,0,0.188693575592,15100,2018-06-12 17:03:01,18,0,22.426,4657.8465148647,92.191604,0,0.43597114256,0,0,-0.671082,270.6, 1.6, 0.1,0,0,1024,1024,1024,1024,269.9,-89.9,91,3.732,3.745,3.75,3.742,3.723,3.748,19.581,73.4,14,Waypoint,
37.3533333,-119.5420195,4658.8307668647,93.175856,0,0.215730978032,15200,2018-06-12 17:03:02,18,0,22.426,4658.8307668647,93.175856,0,0.43597114256,0,0,-0.671082,270.6, 1.4, 0,0,0,1024,1024,1024,1024,269.9,-89.9,91,3.732,3.745,3.75,3.742,3.723,3.748,19.581,73.4,14,Waypoint,
37.3533333,-119.5420195,4659.8150188647,94.160108,0,0.215730978032,15300,2018-06-12 17:03:02,18,0,22.426,4659.8150188647,94.160108,0,0.43597114256,0,0,-0.671082,270.6, 1.1, 0,0,0,1024,1024,1024,1024,269.9,-89.9,91,3.732,3.745,3.75,3.742,3.723,3.748,19.581,73.4,14,Waypoint,
37.3533333,-119.5420195,4660.7992708647,95.14436,0,0.215730978032,15400,2018-06-12 17:03:02,18,0,22.426,4660.7992708647,95.14436,0,0.43597114256,0,0,-0.671082,270.5, 1.1, 0,0,0,1024,1024,1024,1024,269.9,-89.9,91,3.732,3.745,3.75,3.742,3.723,3.748,19.581,73.4,14,Waypoint,
37.3533333,-119.5420195,4662.1116068647,96.456696,0,0.215730978032,15500,2018-06-12 17:03:02,18,0,22.426,4662.1116068647,96.456696,0,0.43597114256,0,0,-0.671082,270.6, 1.1, 0,0,0,1024,1024,1024,1024,269.9,-89.9,91,3.732,3.745,3.75,3.742,3.723,3.748,19.581,73.4,14,Waypoint,
37.3533333,-119.5420195,4663.0958588647,97.440948,0,0.215730978032,15600,2018-06-12 17:03:02,18,0,22.426,4663.0958588647,97.440948,0,0.43597114256,0,0,-0.671082,270.6, 0.9, 0,0,0,1024,1024,1024,1024,269.9,-89.9,91,3.732,3.745,3.75,3.742,3.723,3.748,19.581,73.4,14,Waypoint,
37.3533333,-119.5420194,4664.0801108647,98.4252,0,0.188693575592,15700,2018-06-12 17:03:02,18,0,22.426,4664.0801108647,98.4252,0,0.43597114256,0,0,-0.671082,270.7, 0.7, 0.2,0,0,1024,1024,1024,1024,269.9,-89.9,91,3.732,3.745,3.75,3.742,3.723,3.748,19.581,73.4,14,Waypoint,
37.3533333,-119.5420194,4665.0643628647,99.409452,0,0.188693575592,15800,2018-06-12 17:03:02,18,0,22.426,4665.0643628647,99.409452,0,0.43597114256,0,0,-0.671082,270.9, 0.6, 0.2,0,0,1024,1024,1024,1024,269.9,-90,91,3.732,3.745,3.75,3.742,3.723,3.748,19.581,73.4,14,Waypoint,
37.3533334,-119.5420194,4666.0486148647,100.393704,0,0.205574809728,15900,2018-06-12 17:03:02,18,0,22.426,4666.0486148647,100.393704,0,0.43597114256,0,0,-0.671082,271, 0.5, -0.1,0,0,1024,1024,1024,1024,269.9,-90,91,3.732,3.745,3.75,3.742,3.723,3.748,19.581,73.4,14,Waypoint,
37.3533334,-119.5420194,4667.0328668647,101.377956,0,0.205574809728,16000,2018-06-12 17:03:02,18,0,22.397,4667.0328668647,101.377956,0,0.43597114256,0,0,-0.671082,270.9, 0.3, -0.4,0,0,1024,1024,1024,1024,269.9,-90,91,3.721,3.734,3.749,3.735,3.716,3.752,19.472,73.4,14,Waypoint,
37.3533334,-119.5420195,4668.0171188647,102.362208,0,0.230641739664,16100,2018-06-12 17:03:02,18,0,22.397,4668.0171188647,102.362208,0,0.43597114256,0,0,-0.671082,270.9, 0.4, -0.5,0,0,1024,1024,1024,1024,269.9,-89.9,91,3.721,3.734,3.749,3.735,3.716,3.752,19.472,73.4,14,Waypoint,
37.3533335,-119.5420194,4669.0013708647,103.34646,0,0.227110243488,16200,2018-06-12 17:03:03,18,0,22.397,4669.0013708647,103.34646,0,0.43597114256,0,0,-0.671082,271, 0.8, -0.7,0,0,1024,1024,1024,1024,269.9,-89.9,91,3.721,3.734,3.749,3.735,3.716,3.752,19.472,73.4,14,Waypoint,
37.3533335,-119.5420194,4669.9856228647,104.330712,0,0.227110243488,16300,2018-06-12 17:03:03,18,0,22.397,4669.9856228647,104.330712,0,0.43597114256,0,0,-0.671082,271.1, 1, -1,0,0,1024,1024,1024,1024,269.9,-89.9,91,3.721,3.734,3.749,3.735,3.716,3.752,19.472,73.4,14,Waypoint,
37.3533335,-119.5420194,4670.9698748647,105.314964,0,0.227110243488,16400,2018-06-12 17:03:03,18,0,22.397,4670.9698748647,105.314964,0,0.43597114256,0,0,-0.671082,271.1, 0.8, -0.9,0,0,1024,1024,1024,1024,269.9,-89.9,91,3.721,3.734,3.749,3.735,3.716,3.752,19.472,73.4,14,Waypoint,
37.3533335,-119.5420194,4671.9541268647,106.299216,0,0.227110243488,16500,2018-06-12 17:03:03,18,0,22.397,4671.9541268647,106.299216,0,0.43597114256,0,0,-0.671082,271.1, 0.4, -0.7,0,0,1024,1024,1024,1024,269.9,-90,91,3.721,3.734,3.749,3.735,3.716,3.752,19.472,73.4,14,Waypoint,
37.3533335,-119.5420193,4672.9383788647,107.283468,0,0.205734258552,16600,2018-06-12 17:03:03,18,0,22.397,4672.9383788647,107.283468,0,0.43597114256,0,0,-0.671082,271.1, 0, -0.6,0,0,1024,1024,1024,1024,269.9,-90,91,3.721,3.734,3.749,3.735,3.716,3.752,19.472,73.4,14,Waypoint,
37.3533335,-119.5420193,4674.5787988647,108.923888,0,0.205734258552,16700,2018-06-12 17:03:03,18,0,22.397,4674.5787988647,108.923888,0,0.43597114256,0,0,-0.671082,271, 0, -0.5,0,0,1024,1024,1024,1024,269.9,-90,91,3.721,3.734,3.749,3.735,3.716,3.752,19.472,73.4,14,Waypoint,
37.3533335,-119.5420193,4675.5630508647,109.90814,0,0.205734258552,16800,2018-06-12 17:03:03,18,0,22.397,4675.5630508647,109.90814,0,0.43597114256,0,0,-0.671082,270.9, 0.3, -0.3,0,0,1024,1024,1024,1024,269.9,-89.9,91,3.721,3.734,3.749,3.735,3.716,3.752,19.472,73.4,14,Waypoint,
37.3533335,-119.5420193,4676.5473028647,110.892392,0,0.205734258552,16900,2018-06-12 17:03:03,18,0,22.397,4676.5473028647,110.892392,0,0.43597114256,0,0,-0.671082,270.9, 0.6, -0.4,0,0,1024,1024,1024,1024,269.9,-89.9,91,3.721,3.734,3.749,3.735,3.716,3.752,19.472,73.4,14,Waypoint,
37.3533336,-119.5420194,4677.5315548647,111.876644,0,0.252109916204,17000,2018-06-12 17:03:03,18,0,22.446,4677.5315548647,111.876644,0,0.43597114256,0,0,-0.671082,270.9, 0.7, -0.5,0,0,1024,1024,1024,1024,269.9,-89.9,91,3.728,3.744,3.751,3.738,3.714,3.75,18.929,73.4,14,Waypoint,
37.3533336,-119.5420193,4678.5158068647,112.860896,0,0.233038721368,17200,2018-06-12 17:03:04,18,0,22.446,4678.5158068647,112.860896,0,0.43597114256,0,0,-0.671082,270.9, 0.6, -0.7,0,0,1024,1024,1024,1024,269.9,-89.9,91,3.728,3.744,3.751,3.738,3.714,3.75,18.929,73.4,14,Waypoint,
37.3533336,-119.5420193,4679.5000588647,113.845148,0,0.233038721368,17300,2018-06-12 17:03:04,18,0,22.446,4679.5000588647,113.845148,0,0.43597114256,0,0,-0.671082,271, 0.5, -0.8,0,0,1024,1024,1024,1024,269.9,-90,91,3.728,3.744,3.751,3.738,3.714,3.75,18.929,73.4,14,Waypoint,
37.3533336,-119.5420193,4680.4843108647,114.8294,0,0.233038721368,17400,2018-06-12 17:03:04,18,0,22.446,4680.4843108647,114.8294,0,0.43597114256,0,0,-0.671082,271, 0.4, -0.8,0,0,1024,1024,1024,1024,269.9,-90,91,3.728,3.744,3.751,3.738,3.714,3.75,18.929,73.4,14,Waypoint,
37.3533336,-119.5420193,4681.4685628647,115.813652,0,0.233038721368,17500,2018-06-12 17:03:04,18,0,22.446,4681.4685628647,115.813652,0,0.43597114256,0,0,-0.671082,271, 0.4, -0.8,0,0,1024,1024,1024,1024,269.9,-89.9,91,3.728,3.744,3.751,3.738,3.714,3.75,18.929,73.4,14,Waypoint,
37.3533336,-119.5420193,4682.4528148647,116.797904,0,0.233038721368,17600,2018-06-12 17:03:04,18,0,22.446,4682.4528148647,116.797904,0,0.43597114256,0,0,-0.671082,270.9, 0.5, -0.7,0,0,1024,1024,1024,1024,269.9,-89.9,91,3.728,3.744,3.751,3.738,3.714,3.75,18.929,73.4,14,Waypoint,
37.3533337,-119.5420193,4683.4370668647,117.782156,0,0.262582685568,17700,2018-06-12 17:03:04,18,0,22.446,4683.4370668647,117.782156,0,0.43597114256,0,0,-0.671082,270.9, 0.5, -0.5,0,0,1024,1024,1024,1024,269.9,-89.9,91,3.728,3.744,3.751,3.738,3.714,3.75,18.929,73.4,14,Waypoint,
37.3533337,-119.5420194,4684.4213188647,118.766408,0,0.279646334408,17800,2018-06-12 17:03:04,18,0,22.446,4684.4213188647,118.766408,0,0.43597114256,0,0,-0.671082,270.9, 0.7, -0.5,0,0,1024,1024,1024,1024,269.9,-89.9,91,3.728,3.744,3.751,3.738,3.714,3.75,18.929,73.4,14,Waypoint,
37.3533337,-119.5420194,4685.0774868647,119.422576,0,0.279646334408,17900,2018-06-12 17:03:04,18,0,22.446,4685.0774868647,119.422576,0,0.43597114256,0,0,-0.671082,270.8, 0.8, -0.7,0,0,1024,1024,1024,1024,269.9,-89.9,91,3.728,3.744,3.751,3.738,3.714,3.75,18.929,73.4,14,Waypoint,
37.3533337,-119.5420194,4686.0617388647,120.406828,0,0.279646334408,18000,2018-06-12 17:03:04,18,0,22.383,4686.0617388647,120.406828,0,0.43597114256,0,0,-0.671082,270.7, 0.9, -0.8,0,0,1024,1024,1024,1024,269.9,-89.9,91,3.723,3.728,3.745,3.721,3.708,3.733,19.389,73.4,14,Waypoint,
37.3533337,-119.5420194,4687.0459908647,121.39108,0,0.279646334408,18100,2018-06-12 17:03:04,18,0,22.383,4687.0459908647,121.39108,0,0.43597114256,0,0,-0.671082,270.7, 1.1, -0.8,0,0,1024,1024,1024,1024,269.9,-89.9,91,3.723,3.728,3.745,3.721,3.708,3.733,19.389,73.4,14,Waypoint,
37.3533337,-119.5420194,4688.0302428647,122.375332,0,0.279646334408,18200,2018-06-12 17:03:05,18,0,22.383,4688.0302428647,122.375332,0,0.43597114256,0,0,-0.671082,270.7, 1.1, -0.9,0,0,1024,1024,1024,1024,269.9,-89.9,91,3.723,3.728,3.745,3.721,3.708,3.733,19.389,73.4,14,Waypoint,
37.3533338,-119.5420194,4689.0144948647,123.359584,0,0.30904200464,18300,2018-06-12 17:03:05,18,0,22.383,4689.0144948647,123.359584,0,0.43597114256,0,0,-0.671082,270.6, 0.9, -1.1,0,0,1024,1024,1024,1024,269.9,-89.9,91,3.723,3.728,3.745,3.721,3.708,3.733,19.389,73.4,14,Waypoint,
37.3533338,-119.5420194,4689.9987468647,124.343836,0,0.30904200464,18400,2018-06-12 17:03:05,18,0,22.383,4689.9987468647,124.343836,0,0.43597114256,0,0,-0.671082,270.6, 0.9, -0.9,0,0,1024,1024,1024,1024,269.9,-89.9,91,3.723,3.728,3.745,3.721,3.708,3.733,19.389,73.4,14,Waypoint,
37.3533338,-119.5420194,4691.3110828647,125.656172,0,0.30904200464,18500,2018-06-12 17:03:05,18,0,22.383,4691.3110828647,125.656172,0,0.43597114256,0,0,-0.671082,270.6, 1, -0.6,0,0,1024,1024,1024,1024,269.9,-89.9,91,3.723,3.728,3.745,3.721,3.708,3.733,19.389,73.4,14,Waypoint,
37.3533338,-119.5420194,4692.2953348647,126.640424,0,0.30904200464,18600,2018-06-12 17:03:05,18,0,22.383,4692.2953348647,126.640424,0,0.43597114256,0,0,-0.671082,270.6, 1, -0.5,0,0,1024,1024,1024,1024,269.9,-89.9,91,3.723,3.728,3.745,3.721,3.708,3.733,19.389,73.4,14,Waypoint,
37.3533338,-119.5420194,4693.2795868647,127.624676,0,0.30904200464,18700,2018-06-12 17:03:05,18,0,22.383,4693.2795868647,127.624676,0,0.43597114256,0,0,-0.671082,270.6, 0.8, -0.7,0,0,1024,1024,1024,1024,269.9,-89.9,91,3.723,3.728,3.745,3.721,3.708,3.733,19.389,73.4,14,Waypoint,
37.3533339,-119.5420195,4695.2480908647,129.59318,0,0.35554134996,18800,2018-06-12 17:03:05,18,0,22.383,4695.2480908647,129.59318,0,0.43597114256,0,0,-0.671082,270.7, 0.8, -1.3,0,0,1024,1024,1024,1024,269.9,-89.9,91,3.723,3.728,3.745,3.721,3.708,3.733,19.389,73.4,14,Waypoint,
37.3533339,-119.5420195,4696.2323428647,130.577432,0,0.35554134996,18900,2018-06-12 17:03:05,18,0,22.383,4696.2323428647,130.577432,0,0.43597114256,0,0,-0.671082,270.8, 0.9, -1.5,0,0,1024,1024,1024,1024,269.9,-89.9,91,3.723,3.728,3.745,3.721,3.708,3.733,19.389,73.4,14,Waypoint,
37.353334,-119.5420196,4699.1850988647,133.530188,0,0.40206366116,19200,2018-06-12 17:03:06,18,0,22.383,4699.1850988647,133.530188,0,0.43597114256,0,0,-0.671082,271, 1.2, -1.1,0,0,1024,1024,1024,1024,269.9,-89.9,91,3.723,3.728,3.745,3.721,3.708,3.733,19.389,73.4,14,Waypoint,
37.353334,-119.5420197,4700.4974348647,134.842524,0,0.41946851736,19300,2018-06-12 17:03:06,18,0,22.383,4700.4974348647,134.842524,0,0.43597114256,0,0,-0.671082,271, 1.3, -1.1,0,0,1024,1024,1024,1024,269.9,-89.9,91,3.723,3.728,3.745,3.721,3.708,3.733,19.389,73.4,14,Waypoint,
37.353334,-119.5420197,4701.4816868647,135.826776,0,0.41946851736,19500,2018-06-12 17:03:06,18,0,22.383,4701.4816868647,135.826776,0,0.43597114256,0,0,-0.671082,270.9, 1.3, -1.1,0,0,1024,1024,1024,1024,269.9,-89.9,91,3.723,3.728,3.745,3.721,3.708,3.733,19.389,73.4,14,Waypoint,
37.353334,-119.5420197,4702.4659388647,136.811028,0,0.41946851736,19600,2018-06-12 17:03:06,18,0,22.383,4702.4659388647,136.811028,0,0.43597114256,0,0,-0.671082,270.8, 1.2, -1.3,0,0,1024,1024,1024,1024,269.9,-89.9,91,3.723,3.728,3.745,3.721,3.708,3.733,19.389,73.4,14,Waypoint,
37.353334,-119.5420197,4703.4501908647,137.79528,0,0.41946851736,19700,2018-06-12 17:03:06,18,0,22.383,4703.4501908647,137.79528,0,0.43597114256,0,0,-0.671082,270.8, 1.2, -1.2,0,0,1024,1024,1024,1024,269.9,-89.9,91,3.723,3.728,3.745,3.721,3.708,3.733,19.389,73.4,14,Waypoint,
37.353334,-119.5420198,4704.4344428647,138.779532,0,0.43810368856,19800,2018-06-12 17:03:06,18,0,22.383,4704.4344428647,138.779532,0,0.43810368856,0,0,-0.671082,270.8, 1.2, -1.2,0,0,1024,1024,1024,1024,269.9,-89.9,91,3.723,3.728,3.745,3.721,3.708,3.733,19.389,73.4,14,Waypoint,
37.353334,-119.5420198,4705.4186948647,139.763784,0,0.43810368856,19900,2018-06-12 17:03:06,18,0,22.383,4705.4186948647,139.763784,0,0.43810368856,0,0,-0.671082,270.9, 1.1, -1.2,0,0,1024,1024,1024,1024,269.9,-89.9,91,3.723,3.728,3.745,3.721,3.708,3.733,19.389,73.4,14,Waypoint,
37.353334,-119.5420198,4706.4029468647,140.748036,0,0.43810368856,20000,2018-06-12 17:03:06,18,0,22.172,4706.4029468647,140.748036,0,0.43810368856,0,0,-0.671082,270.9, 1.2, -1.1,0,0,1024,1024,1024,1024,269.9,-89.9,91,3.697,3.7,3.709,3.692,3.683,3.701,20.97,73.4,14,Waypoint,
37.3533341,-119.5420199,4707.0591148647,141.404204,0,0.48465552732,20100,2018-06-12 17:03:06,18,0,22.172,4707.0591148647,141.404204,0,0.48465552732,0,0,-0.671082,270.9, 1, -1.1,0,0,1024,1024,1024,1024,269.9,-89.9,91,3.697,3.7,3.709,3.692,3.683,3.701,20.97,73.4,14,Waypoint,
37.3533341,-119.5420199,4708.0433668647,142.388456,0,0.48465552732,20200,2018-06-12 17:03:07,18,0,22.172,4708.0433668647,142.388456,0,0.48465552732,0,0,-0.671082,270.9, 1.1, -1.1,0,0,1024,1024,1024,1024,269.9,-89.9,91,3.697,3.7,3.709,3.692,3.683,3.701,20.97,73.4,14,Waypoint,
37.3533341,-119.5420198,4709.0276188647,143.372708,0,0.4660761304,20300,2018-06-12 17:03:07,18,0,22.172,4709.0276188647,143.372708,0,0.48465552732,0,0,-0.671082,270.9, 1.1, -1,0,0,1024,1024,1024,1024,269.9,-89.9,91,3.697,3.7,3.709,3.692,3.683,3.701,20.97,73.4,14,Waypoint,
37.3533341,-119.5420199,4710.0118708647,144.35696,0,0.48465552732,20400,2018-06-12 17:03:07,18,0,22.172,4710.0118708647,144.35696,0,0.48465552732,0,0,-0.671082,271, 1.1, -0.9,0,0,1024,1024,1024,1024,269.9,-89.9,91,3.697,3.7,3.709,3.692,3.683,3.701,20.97,73.4,14,Waypoint,
37.3533341,-119.5420199,4710.9961228647,145.341212,0,0.48465552732,20500,2018-06-12 17:03:07,18,0,22.172,4710.9961228647,145.341212,0,0.48465552732,0,0,-0.671082,271, 1.2, -0.9,0,0,1024,1024,1024,1024,269.9,-89.9,91,3.697,3.7,3.709,3.692,3.683,3.701,20.97,73.4,14,Waypoint,
37.3533341,-119.5420199,4711.9803748647,146.325464,0,0.48465552732,20600,2018-06-12 17:03:07,18,0,22.172,4711.9803748647,146.325464,0,0.48465552732,0,0,-0.671082,270.9, 1.3, -0.7,0,0,1024,1024,1024,1024,269.9,-89.9,91,3.697,3.7,3.709,3.692,3.683,3.701,20.97,73.4,14,Waypoint,
37.3533341,-119.5420199,4713.9488788647,148.293968,0,0.48465552732,20700,2018-06-12 17:03:07,18,0,22.172,4713.9488788647,148.293968,0,0.48465552732,0,0,-0.671082,270.7, 1.4, -0.5,0,0,1024,1024,1024,1024,269.9,-89.9,91,3.697,3.7,3.709,3.692,3.683,3.701,20.97,73.4,14,Waypoint,
37.3533341,-119.5420199,4714.9331308647,149.27822,0,0.48465552732,20800,2018-06-12 17:03:07,18,0,22.172,4714.9331308647,149.27822,0,0.48465552732,0,0,-0.671082,270.6, 1.3, -0.9,0,0,1024,1024,1024,1024,269.9,-89.9,91,3.697,3.7,3.709,3.692,3.683,3.701,20.97,73.4,14,Waypoint,
37.3533341,-119.5420199,4715.9173828647,150.262472,0,0.48465552732,20900,2018-06-12 17:03:07,18,0,22.172,4715.9173828647,150.262472,0,0.48465552732,0,0,-0.671082,270.6, 1.1, -1.3,0,0,1024,1024,1024,1024,269.9,-89.9,91,3.697,3.7,3.709,3.692,3.683,3.701,20.97,73.4,14,Waypoint,
37.3533341,-119.5420198,4716.9016348647,151.246724,0,0.4660761304,21000,2018-06-12 17:03:07,18,0,22.205,4716.9016348647,151.246724,0,0.48465552732,0,0,-0.671082,270.6, 0.9, -1.6,0,0,1024,1024,1024,1024,269.9,-90,91,3.693,3.703,3.718,3.696,3.676,3.72,20.3,73.4,14,Waypoint,
37.3533342,-119.5420198,4718.2139708647,152.55906,0,0.49515749616,21100,2018-06-12 17:03:07,18,0,22.205,4718.2139708647,152.55906,0,0.49515749616,0,0,-0.671082,270.7, 0.9, -1.8,0,0,1024,1024,1024,1024,269.9,-89.9,91,3.693,3.703,3.718,3.696,3.676,3.72,20.3,73.4,14,Waypoint,
37.3533342,-119.5420198,4719.1982228647,153.543312,0,0.49515749616,21200,2018-06-12 17:03:08,18,0,22.205,4719.1982228647,153.543312,0,0.49515749616,0,0,-0.671082,270.7, 0.8, -1.9,0,0,1024,1024,1024,1024,269.9,-90,91,3.693,3.703,3.718,3.696,3.676,3.72,20.3,73.4,14,Waypoint,
37.3533342,-119.5420197,4720.1824748647,154.527564,0,0.47875001532,21400,2018-06-12 17:03:08,18,0,22.205,4720.1824748647,154.527564,0,0.49515749616,0,0,-0.671082,270.8, 0.7, -1.8,0,0,1024,1024,1024,1024,269.9,-90,91,3.693,3.703,3.718,3.696,3.676,3.72,20.3,73.4,14,Waypoint,
37.3533342,-119.5420197,4721.1667268647,155.511816,0,0.47875001532,21500,2018-06-12 17:03:08,18,0,22.205,4721.1667268647,155.511816,0,0.49515749616,0,0,-0.671082,270.9, 0.6, -1.7,0,0,1024,1024,1024,1024,269.9,-90,91,3.693,3.703,3.718,3.696,3.676,3.72,20.3,73.4,14,Waypoint,
37.3533342,-119.5420197,4722.1509788647,156.496068,0,0.47875001532,21600,2018-06-12 17:03:08,18,0,22.205,4722.1509788647,156.496068,0,0.49515749616,0,0,-0.671082,270.9, 0.7, -1.8,0,0,1024,1024,1024,1024,269.9,-90,91,3.693,3.703,3.718,3.696,3.676,3.72,20.3,73.4,14,Waypoint,
37.3533343,-119.5420196,4724.1194828647,158.464572,0,0.49549870352,21800,2018-06-12 17:03:08,18,0,22.205,4724.1194828647,158.464572,0,0.49549870352,0,0,-0.671082,270.8, 0.3, -1.2,0,0,1024,1024,1024,1024,269.9,-90,91,3.693,3.703,3.718,3.696,3.676,3.72,20.3,73.4,14,Waypoint,
37.3533343,-119.5420196,4725.1037348647,159.448824,0,0.49549870352,21900,2018-06-12 17:03:08,18,0,22.205,4725.1037348647,159.448824,0,0.49549870352,0,0,-0.671082,270.9, 0.4, -1.2,0,0,1024,1024,1024,1024,269.9,-89.9,91,3.693,3.703,3.718,3.696,3.676,3.72,20.3,73.4,14,Waypoint,
37.3533343,-119.5420195,4726.0879868647,160.433076,0,0.48259844064,22000,2018-06-12 17:03:08,18,0,22.154,4726.0879868647,160.433076,0,0.49549870352,0,0,-0.671082,270.8, 0.8, -1.6,0,0,1024,1024,1024,1024,269.9,-89.9,91,3.693,3.703,3.718,3.696,3.676,3.72,20.534,73.4,14,Waypoint,
37.3533343,-119.5420195,4726.7441548647,161.089244,0,0.48259844064,22100,2018-06-12 17:03:08,18,0,22.154,4726.7441548647,161.089244,0,0.49549870352,0,0,-0.671082,270.7, 1, -1.7,0,0,1024,1024,1024,1024,269.9,-89.9,91,3.693,3.703,3.718,3.696,3.676,3.72,20.534,73.4,14,Waypoint,
37.3533343,-119.5420195,4727.7284068647,162.073496,0,0.48259844064,22200,2018-06-12 17:03:09,18,0,22.154,4727.7284068647,162.073496,0,0.49549870352,0,0,-0.671082,270.6, 0.9, -1.6,0,0,1024,1024,1024,1024,269.9,-89.9,91,3.693,3.703,3.718,3.696,3.676,3.72,20.534,73.4,14,Waypoint,
37.3533343,-119.5420195,4728.7126588647,163.057748,0,0.48259844064,22300,2018-06-12 17:03:09,18,0,22.154,4728.7126588647,163.057748,0,0.49549870352,0,0,-0.671082,270.4, 0.8, -1.4,0,0,1024,1024,1024,1024,269.9,-90,91,3.693,3.703,3.718,3.696,3.676,3.72,20.534,73.4,14,Waypoint,
37.3533343,-119.5420194,4729.6969108647,164.042,0,0.47113190484,22400,2018-06-12 17:03:09,18,0,22.154,4729.6969108647,164.042,0,0.49549870352,0,0,-0.671082,270.3, 0.6, -1.4,0,0,1024,1024,1024,1024,269.9,-89.9,91,3.693,3.703,3.718,3.696,3.676,3.72,20.534,73.4,14,Waypoint,
37.3533343,-119.5420194,4730.6811628647,165.026252,0,0.47113190484,22500,2018-06-12 17:03:09,18,0,22.154,4730.6811628647,165.026252,0,0.49549870352,0,0,-0.671082,270.4, 0.6, -1.2,0,0,1024,1024,1024,1024,269.9,-89.9,91,3.693,3.703,3.718,3.696,3.676,3.72,20.534,73.4,14,Waypoint,
37.3533343,-119.5420194,4731.6654148647,166.010504,0,0.47113190484,22600,2018-06-12 17:03:09,18,0,22.154,4731.6654148647,166.010504,0,0.49549870352,0,0,-0.671082,270.6, 0.5, -1.2,0,0,1024,1024,1024,1024,269.9,-89.9,91,3.693,3.703,3.718,3.696,3.676,3.72,20.534,73.4,14,Waypoint,
37.3533342,-119.5420193,4732.6496668647,166.994756,0,0.42672901628,22700,2018-06-12 17:03:09,18,0,22.154,4732.6496668647,166.994756,0,0.49549870352,0,0,-0.671082,270.9, 0.6, -1.2,0,0,1024,1024,1024,1024,269.9,-89.9,91,3.693,3.703,3.718,3.696,3.676,3.72,20.534,73.4,14,Waypoint,
37.3533342,-119.5420194,4734.6181708647,168.96326,0,0.4374343972,22800,2018-06-12 17:03:09,18,0,22.154,4734.6181708647,168.96326,0,0.49549870352,0,0,-0.671082,271.5, 0.9, -1,0,0,1024,1024,1024,1024,269.9,-89.9,91,3.693,3.703,3.718,3.696,3.676,3.72,20.534,73.4,14,Waypoint,
37.3533342,-119.5420194,4735.2743388647,169.619428,0,0.4374343972,22900,2018-06-12 17:03:09,18,0,22.154,4735.2743388647,169.619428,0,0.49549870352,0,0,-0.671082,271.6, 1, -0.8,0,0,1024,1024,1024,1024,269.9,-89.9,91,3.693,3.703,3.718,3.696,3.676,3.72,20.534,73.4,14,Waypoint,
37.3533341,-119.5420194,4738.2270948647,172.572184,0,0.40422245388,23200,2018-06-12 17:03:10,18,0,22.154,4738.2270948647,172.572184,0,0.49549870352,0,0,-0.671082,271.3, 1.1, -0.6,0,0,1024,1024,1024,1024,269.9,-89.9,91,3.693,3.703,3.718,3.696,3.676,3.72,20.534,73.4,14,Waypoint,
37.353334,-119.5420193,4739.2113468647,173.556436,0,0.35895998524,23300,2018-06-12 17:03:10,18,0,22.154,4739.2113468647,173.556436,0,0.49549870352,0,0,-0.671082,271.2, 1.2, -0.8,0,0,1024,1024,1024,1024,269.9,-89.9,91,3.693,3.703,3.718,3.696,3.676,3.72,20.534,73.4,14,Waypoint,
37.353334,-119.5420193,4741.5079348647,175.853024,0,0.35895998524,23500,2018-06-12 17:03:10,18,0,22.154,4741.5079348647,175.853024,0,0.49549870352,0,0,-0.671082,271.2, 1.4, -0.6,0,0,1024,1024,1024,1024,269.9,-89.9,91,3.693,3.703,3.718,3.696,3.676,3.72,20.534,73.4,14,Waypoint,
37.3533339,-119.5420193,4742.4921868647,176.837276,0,0.32591700518,23700,2018-06-12 17:03:10,18,0,22.154,4742.4921868647,176.837276,0,0.49549870352,0,0,-0.671082,271.3, 1.3, -0.6,0,0,1024,1024,1024,1024,269.9,-89.9,91,3.693,3.703,3.718,3.696,3.676,3.72,20.534,73.4,14,Waypoint,
37.3533339,-119.5420193,4743.4764388647,177.821528,0,0.32591700518,23800,2018-06-12 17:03:10,18,0,22.154,4743.4764388647,177.821528,0,0.49549870352,0,0,-0.671082,271.3, 1, -0.6,0,0,1024,1024,1024,1024,269.9,-89.9,91,3.693,3.703,3.718,3.696,3.676,3.72,20.534,73.4,14,Waypoint,
37.3533339,-119.5420193,4744.4606908647,178.80578,0,0.32591700518,23900,2018-06-12 17:03:10,18,0,22.154,4744.4606908647,178.80578,0,0.49549870352,0,0,-0.671082,271.2, 0.9, -0.7,0,0,1024,1024,1024,1024,269.9,-89.9,91,3.693,3.703,3.718,3.696,3.676,3.72,20.534,73.4,14,Waypoint,
37.3533339,-119.5420192,4745.4449428647,179.790032,0,0.314088592728,24000,2018-06-12 17:03:10,18,0,22.26,4745.4449428647,179.790032,0,0.49549870352,0,0,-0.671082,271.1, 0.8, -0.9,0,0,1024,1024,1024,1024,269.9,-90,90,3.703,3.713,3.725,3.707,3.686,3.717,19.104,75.2,14,Waypoint,
37.3533339,-119.5420192,4746.4291948647,180.774284,0,0.314088592728,24100,2018-06-12 17:03:10,18,0,22.26,4746.4291948647,180.774284,0,0.49549870352,0,0,-0.671082,270.9, 0.8, -1.1,0,0,1024,1024,1024,1024,269.9,-90,90,3.703,3.713,3.725,3.707,3.686,3.717,19.104,75.2,14,Waypoint,
37.3533338,-119.5420192,4747.4134468647,181.758536,0,0.280507554908,24210,2018-06-12 17:03:11,18,0,22.26,4747.4134468647,181.758536,0,0.49549870352,0,0,-0.671082,270.8, 0.6, -1.2,0,0,1024,1024,1024,1024,269.9,-90,90,3.703,3.713,3.725,3.707,3.686,3.717,19.104,75.2,14,Waypoint,
37.3533338,-119.5420192,4748.3976988647,182.742788,0,0.280507554908,24300,2018-06-12 17:03:11,18,0,22.26,4748.3976988647,182.742788,0,0.49549870352,0,0,-0.671082,270.7, 0.5, -0.9,0,0,1024,1024,1024,1024,269.9,-90,90,3.703,3.713,3.725,3.707,3.686,3.717,19.104,75.2,14,Waypoint,
37.3533338,-119.5420192,4749.3819508647,183.72704,0,0.280507554908,24400,2018-06-12 17:03:11,18,0,22.26,4749.3819508647,183.72704,0,0.49549870352,0,0,-0.671082,270.6, 0.5, -0.8,0,0,1024,1024,1024,1024,269.9,-90,90,3.703,3.713,3.725,3.707,3.686,3.717,19.104,75.2,14,Waypoint,
37.3533337,-119.5420192,4750.3662028647,184.711292,0,0.247748695592,24500,2018-06-12 17:03:11,18,0,22.26,4750.3662028647,184.711292,0,0.49549870352,0,0,-0.671082,270.5, 0.8, -0.7,0,0,1024,1024,1024,1024,269.9,-89.9,90,3.703,3.713,3.725,3.707,3.686,3.717,19.104,75.2,14,Waypoint,
37.3533337,-119.5420193,4751.3504548647,185.695544,0,0.262582685568,24600,2018-06-12 17:03:11,18,0,22.26,4751.3504548647,185.695544,0,0.49549870352,0,0,-0.671082,270.5, 1.2, -0.6,0,0,1024,1024,1024,1024,269.9,-89.9,90,3.703,3.713,3.725,3.707,3.686,3.717,19.104,75.2,14,Waypoint,
37.3533337,-119.5420193,4752.3347068647,186.679796,0,0.262582685568,24700,2018-06-12 17:03:11,18,0,22.26,4752.3347068647,186.679796,0,0.49549870352,0,0,-0.671082,270.6, 1.4, -0.6,0,0,1024,1024,1024,1024,269.9,-89.9,90,3.703,3.713,3.725,3.707,3.686,3.717,19.104,75.2,14,Waypoint,
37.3533336,-119.5420194,4753.3189588647,187.664048,0,0.252109916204,24800,2018-06-12 17:03:11,18,0,22.26,4753.3189588647,187.664048,0,0.49549870352,0,0,-0.671082,270.7, 1.5, -0.6,0,0,1024,1024,1024,1024,269.9,-89.9,90,3.703,3.713,3.725,3.707,3.686,3.717,19.104,75.2,14,Waypoint,
37.3533336,-119.5420194,4754.3032108647,188.6483,0,0.252109916204,24900,2018-06-12 17:03:11,18,0,22.26,4754.3032108647,188.6483,0,0.49549870352,0,0,-0.671082,270.7, 1.4, -0.7,0,0,1024,1024,1024,1024,269.9,-89.9,90,3.703,3.713,3.725,3.707,3.686,3.717,19.104,75.2,14,Waypoint,
37.3533336,-119.5420195,4755.2874628647,189.632552,0,0.272936032356,25000,2018-06-12 17:03:11,18,0,22.215,4755.2874628647,189.632552,0,0.49549870352,0,0,-0.671082,270.7, 1.3, -0.6,0,0,1024,1024,1024,1024,269.9,-89.9,90,3.694,3.705,3.711,3.699,3.682,3.709,19.731,75.2,14,Waypoint,
37.3533336,-119.5420195,4756.2717148647,190.616804,0,0.272936032356,25100,2018-06-12 17:03:11,18,0,22.215,4756.2717148647,190.616804,0,0.49549870352,0,0,-0.671082,270.7, 1.2, -0.7,0,0,1024,1024,1024,1024,269.9,-89.9,90,3.694,3.705,3.711,3.699,3.682,3.709,19.731,75.2,14,Waypoint,
37.3533336,-119.5420196,4758.2402188647,192.585308,0,0.295145678736,25200,2018-06-12 17:03:12,18,0,22.215,4758.2402188647,192.585308,0,0.49549870352,0,0,-0.671082,270.8, 1.3, -0.9,0,0,1024,1024,1024,1024,269.9,-89.9,90,3.694,3.705,3.711,3.699,3.682,3.709,19.731,75.2,14,Waypoint,
37.3533336,-119.5420196,4759.2244708647,193.56956,0,0.295145678736,25300,2018-06-12 17:03:12,18,0,22.215,4759.2244708647,193.56956,0,0.49549870352,0,0,-0.671082,270.8, 1.4, -1,0,0,1024,1024,1024,1024,269.9,-89.9,90,3.694,3.705,3.711,3.699,3.682,3.709,19.731,75.2,14,Waypoint,
37.3533336,-119.5420196,4760.2087228647,194.553812,0,0.295145678736,25400,2018-06-12 17:03:12,18,0,22.215,4760.2087228647,194.553812,0,0.49549870352,0,0,-0.671082,270.8, 1.5, -1.2,0,0,1024,1024,1024,1024,269.9,-89.9,90,3.694,3.705,3.711,3.699,3.682,3.709,19.731,75.2,14,Waypoint,
37.3533335,-119.5420196,4761.1929748647,195.538064,0,0.274099746304,25500,2018-06-12 17:03:12,18,0,22.215,4761.1929748647,195.538064,0,0.49549870352,0,0,-0.671082,270.8, 1.4, -1.3,0,0,1024,1024,1024,1024,269.9,-89.9,90,3.694,3.705,3.711,3.699,3.682,3.709,19.731,75.2,14,Waypoint,
37.3533335,-119.5420196,4762.1772268647,196.522316,0,0.274099746304,25600,2018-06-12 17:03:12,18,0,22.215,4762.1772268647,196.522316,0,0.49549870352,0,0,-0.671082,270.9, 1.3, -1.2,0,0,1024,1024,1024,1024,269.9,-89.9,90,3.694,3.705,3.711,3.699,3.682,3.709,19.731,75.2,14,Waypoint,
37.3533335,-119.5420196,4764.1457308647,198.49082,0,0.274099746304,25800,2018-06-12 17:03:12,18,0,22.215,4764.1457308647,198.49082,0,0.49549870352,0,0,-0.671082,271, 1.3, -1,0,0,1024,1024,1024,1024,269.9,-89.9,90,3.694,3.705,3.711,3.699,3.682,3.709,19.731,75.2,14,Waypoint,
37.3533335,-119.5420196,4765.1299828647,199.475072,0,0.274099746304,25900,2018-06-12 17:03:12,18,0,22.215,4765.1299828647,199.475072,0,0.49549870352,0,0,-0.671082,270.9, 1.3, -1.4,0,0,1024,1024,1024,1024,269.9,-89.9,90,3.694,3.705,3.711,3.699,3.682,3.709,19.731,75.2,14,Waypoint,
37.3533335,-119.5420196,4766.1142348647,200.459324,0,0.274099746304,26100,2018-06-12 17:03:12,18,0,22.215,4766.1142348647,200.459324,0,0.49549870352,0,0,-0.671082,270.8, 1.4, -1.5,0,0,1024,1024,1024,1024,269.9,-89.9,90,3.694,3.705,3.711,3.699,3.682,3.709,19.731,75.2,14,Waypoint,
37.3533335,-119.5420196,4767.0984868647,201.443576,0,0.274099746304,26200,2018-06-12 17:03:13,18,0,22.215,4767.0984868647,201.443576,0,0.49549870352,0,0,-0.671082,270.7, 1.4, -1.4,0,0,1024,1024,1024,1024,269.9,-89.9,90,3.694,3.705,3.711,3.699,3.682,3.709,19.731,75.2,14,Waypoint,
37.3533335,-119.5420197,4768.0827388647,202.427828,0,0.299048237916,26300,2018-06-12 17:03:13,18,0,22.215,4768.0827388647,202.427828,0,0.49549870352,0,0,-0.671082,270.6, 1.7, -1.2,0,0,1024,1024,1024,1024,269.9,-89.9,90,3.694,3.705,3.711,3.699,3.682,3.709,19.731,75.2,14,Waypoint,
37.3533335,-119.5420197,4769.0669908647,203.41208,0,0.299048237916,26400,2018-06-12 17:03:13,18,0,22.215,4769.0669908647,203.41208,0,0.49549870352,0,0,-0.671082,270.5, 1.7, -1.1,0,0,1024,1024,1024,1024,269.9,-89.9,90,3.694,3.705,3.711,3.699,3.682,3.709,19.731,75.2,14,Waypoint,
37.3533335,-119.5420197,4770.0512428647,204.396332,0,0.299048237916,26500,2018-06-12 17:03:13,18,0,22.215,4770.0512428647,204.396332,0,0.49549870352,0,0,-0.671082,270.5, 1.6, -1,0,0,1024,1024,1024,1024,269.9,-89.9,90,3.694,3.705,3.711,3.699,3.682,3.709,19.731,75.2,14,Waypoint,
37.3533336,-119.5420196,4771.0354948647,205.380584,0,0.295145678736,26600,2018-06-12 17:03:13,18,0,22.215,4771.0354948647,205.380584,0,0.49549870352,0,0,-0.671082,270.3, 1.6, -1.2,0,0,1024,1024,1024,1024,269.9,-89.9,90,3.694,3.705,3.711,3.699,3.682,3.709,19.731,75.2,14,Waypoint,
37.3533336,-119.5420196,4772.0197468647,206.364836,0,0.295145678736,26700,2018-06-12 17:03:13,18,0,22.215,4772.0197468647,206.364836,0,0.49549870352,0,0,-0.671082,270.2, 1.6, -1.5,0,0,1024,1024,1024,1024,269.9,-89.9,90,3.694,3.705,3.711,3.699,3.682,3.709,19.731,75.2,14,Waypoint,
37.3533336,-119.5420195,4773.3320828647,207.677172,0,0.272936032356,26800,2018-06-12 17:03:13,18,0,22.215,4773.3320828647,207.677172,0,0.49549870352,0,0,-0.671082,270.2, 1.3, -1.7,0,0,1024,1024,1024,1024,269.9,-89.9,90,3.694,3.705,3.711,3.699,3.682,3.709,19.731,75.2,14,Waypoint,
37.3533336,-119.5420195,4774.3163348647,208.661424,0,0.272936032356,26900,2018-06-12 17:03:13,18,0,22.215,4774.3163348647,208.661424,0,0.49549870352,0,0,-0.671082,270.3, 1.1, -1.8,0,0,1024,1024,1024,1024,269.9,-89.9,90,3.694,3.705,3.711,3.699,3.682,3.709,19.731,75.2,14,Waypoint,
37.3533336,-119.5420194,4775.3005868647,209.645676,0,0.252109916204,27000,2018-06-12 17:03:13,18,0,22.214,4775.3005868647,209.645676,0,0.49549870352,0,0,-0.671082,270.5, 1, -1.8,0,0,1024,1024,1024,1024,269.9,-89.9,90,3.694,3.712,3.72,3.707,3.679,3.714,19.151,75.2,14,Waypoint,
37.3533337,-119.5420193,4776.2848388647,210.629928,0,0.262582685568,27100,2018-06-12 17:03:13,18,0,22.214,4776.2848388647,210.629928,0,0.49549870352,0,0,-0.671082,270.8, 0.7, -1.9,0,0,1024,1024,1024,1024,269.9,-90,90,3.694,3.712,3.72,3.707,3.679,3.714,19.151,75.2,14,Waypoint,
37.3533337,-119.5420192,4777.2690908647,211.61418,0,0.247748695592,27200,2018-06-12 17:03:14,18,0,22.214,4777.2690908647,211.61418,0,0.49549870352,0,0,-0.671082,271.1, 0.3, -2.1,0,0,1024,1024,1024,1024,269.9,-90,90,3.694,3.712,3.72,3.707,3.679,3.714,19.151,75.2,14,Waypoint,
37.3533337,-119.5420191,4778.2533428647,212.598432,0,0.235566608588,27300,2018-06-12 17:03:14,18,0,22.214,4778.2533428647,212.598432,0,0.49549870352,0,0,-0.671082,271.4, 0, -2,0,0,1024,1024,1024,1024,269.9,-90,90,3.694,3.712,3.72,3.707,3.679,3.714,19.151,75.2,14,Waypoint,
