latitude,longitude,altitude(feet),ascent(feet),speed(mph),distance(feet),time(millisecond),datetime(utc),satellites,gpslevel,voltage(v),max_altitude(feet),max_ascent(feet),max_speed(mph),max_distance(feet), xSpeed(mph), ySpeed(mph), zSpeed(mph), compass_heading(degrees), pitch(degrees), roll(degrees),isPhoto,isVideo,rc_elevator,rc_aileron,rc_throttle,rc_rudder,gimbal_heading(degrees),gimbal_pitch(degrees),battery_percent,voltageCell1,voltageCell2,voltageCell3,voltageCell4,voltageCell5,voltageCell6,current(A),battery_temperature(f),flycStateRaw,flycState,message
37.3533405,-119.54202,4565.6589157861,0,0,0,3100,2018-06-12 16:44:46,18,0,0,4565.6589157861,0,0,0,0,0,0,271.3, -0.4, -1,1,0,1024,1024,1024,1024,271.5,-90,97,4.204,4.191,4.174,4.214,4.212,4.143,0,73.4,11,AutoTakeoff,DJI_0001.jpg Starting Mission from Lat/Long: 37.35334/-119.54203 Camera: Zenmuse X3 - Overlap: 90/90 - Active Connection: No
37.3533404,-119.5420199,4565.6589157861,0,0,0.04660761304,3200,2018-06-12 16:44:46,18,0,0,4565.6589157861,0,0,0.04660761304,0,0,0,271.2, -0.6, -0.7,0,0,1024,1024,1024,1024,271.5,-89.9,97,4.204,4.191,4.174,4.214,4.212,4.143,0,73.4,11,AutoTakeoff,
37.3533404,-119.5420199,4565.6589157861,0,0,0.04660761304,3300,2018-06-12 16:44:46,18,0,0,4565.6589157861,0,0,0.04660761304,0,0,0,271.2, -0.6, -0.2,0,0,1024,1024,1024,1024,271.5,-90,97,4.204,4.191,4.174,4.214,4.212,4.143,0,73.4,11,AutoTakeoff,
37.3533403,-119.5420199,4565.6589157861,0,0,0.078522312224,3400,2018-06-12 16:44:46,18,0,0,4565.6589157861,0,0,0.078522312224,0,0,0,271.2, -0.4, 0,0,0,1024,1024,1024,1024,271.5,-89.9,97,4.204,4.191,4.174,4.214,4.212,4.143,0,73.4,11,AutoTakeoff,
37.3533402,-119.5420199,4565.9869997861,0.328084,0,0.113231959004,3500,2018-06-12 16:44:47,18,0,0,4565.9869997861,0.328084,0,0.113231959004,0,0,0,271.3, -0.2, 0.2,0,0,1024,1024,1024,1024,271.5,-89.9,97,4.204,4.191,4.174,4.214,4.212,4.143,0,73.4,11,AutoTakeoff,
37.3533401,-119.5420198,4565.9869997861,0.328084,0,0.157044296364,3600,2018-06-12 16:44:47,19,0,0,4565.9869997861,0.328084,0,0.157044296364,0,0,0,271.3, -0.2, 0.6,0,0,1024,1024,1024,1024,271.5,-89.9,97,4.204,4.191,4.174,4.214,4.212,4.143,0,73.4,11,AutoTakeoff,
37.3533401,-119.5420198,4566.3150837861,0.656168,0,0.157044296364,3700,2018-06-12 16:44:47,19,0,0,4566.3150837861,0.656168,0,0.157044296364,0,0,0,271.3, -0.1, 0.7,0,0,1024,1024,1024,1024,271.5,-89.9,97,4.204,4.191,4.174,4.214,4.212,4.143,0,73.4,11,AutoTakeoff,
37.35334,-119.5420198,4566.3150837861,0.656168,0,0.191424218724,3800,2018-06-12 16:44:47,18,0,0,4566.3150837861,0.656168,0,0.191424218724,0,0,0,271.3, 0, 0.7,0,0,1024,1024,1024,1024,271.5,-89.9,97,4.204,4.191,4.174,4.214,4.212,4.143,0,73.4,11,AutoTakeoff,
37.35334,-119.5420198,4566.6431677861,0.984252,0,0.191424218724,3900,2018-06-12 16:44:47,18,0,0,4566.6431677861,0.984252,0,0.191424218724,0,0,0,271.4, 0, 0.7,0,0,1024,1024,1024,1024,271.5,-89.9,97,4.204,4.191,4.174,4.214,4.212,4.143,0,73.4,11,AutoTakeoff,
37.3533399,-119.5420199,4566.6431677861,0.984252,0,0.220822513628,4000,2018-06-12 16:44:47,18,0,25.178,4566.6431677861,0.984252,0,0.220822513628,0,0,0,271.4, 0.1, 0.8,0,0,1024,1024,1024,1024,271.5,-89.9,97,4.204,4.191,4.174,4.214,4.212,4.143,3.213,73.4,11,AutoTakeoff,
37.3533399,-119.5420199,4566.9712517861,1.312336,0,0.220822513628,4100,2018-06-12 16:44:47,18,0,25.178,4566.9712517861,1.312336,0,0.220822513628,0,0,0,271.3, 0.4, 0.8,0,0,1024,1024,1024,1024,271.5,-89.9,97,4.204,4.191,4.174,4.214,4.212,4.143,3.213,73.4,11,AutoTakeoff,
37.3533398,-119.5420199,4566.9712517861,1.312336,0,0.257036097464,4200,2018-06-12 16:44:47,18,0,25.178,4566.9712517861,1.312336,0,0.257036097464,0,0,-0.223694,271.3, 0.5, 0.8,0,0,1024,1024,1024,1024,271.5,-89.9,97,4.204,4.191,4.174,4.214,4.212,4.143,3.213,73.4,11,AutoTakeoff,
37.3533397,-119.54202,4567.2993357861,1.64042,0,0.291879602516,4300,2018-06-12 16:44:47,18,0,25.178,4567.2993357861,1.64042,0,0.291879602516,0,0,-0.223694,271.3, 0.6, 0.8,0,0,1024,1024,1024,1024,271.5,-89.9,97,4.204,4.191,4.174,4.214,4.212,4.143,3.213,73.4,11,AutoTakeoff,
37.3533397,-119.54202,4567.2993357861,1.64042,0,0.291879602516,4400,2018-06-12 16:44:47,18,0,25.178,4567.2993357861,1.64042,0,0.291879602516,0,0,-0.223694,271.2, 0.7, 0.9,0,0,1024,1024,1024,1024,271.5,-89.9,97,4.204,4.191,4.174,4.214,4.212,4.143,3.213,73.4,11,AutoTakeoff,
37.3533396,-119.5420201,4567.6274197861,1.968504,0,0.329642399,4500,2018-06-12 16:44:48,18,0,25.178,4567.6274197861,1.968504,0,0.329642399,0,0,0,271.2, 0.8, 0.9,0,0,1024,1024,1024,1024,271.5,-89.9,97,4.204,4.191,4.174,4.214,4.212,4.143,3.213,73.4,11,AutoTakeoff,
37.3533396,-119.5420201,4567.9555037861,2.296588,0,0.329642399,4600,2018-06-12 16:44:48,18,0,25.178,4567.9555037861,2.296588,0,0.329642399,0,0,0,271.1, 0.9, 0.9,0,0,1024,1024,1024,1024,271.5,-89.9,97,4.204,4.191,4.174,4.214,4.212,4.143,3.213,73.4,11,AutoTakeoff,
37.3533395,-119.5420201,4567.9555037861,2.296588,0,0.36600066788,4700,2018-06-12 16:44:48,18,0,25.178,4567.9555037861,2.296588,0,0.36600066788,0,0,0,271.1, 0.9, 0.9,0,0,1024,1024,1024,1024,271.5,-89.9,97,4.204,4.191,4.174,4.214,4.212,4.143,3.213,73.4,11,AutoTakeoff,
37.3533394,-119.54202,4568.2835877861,2.624672,0,0.40133531468,4800,2018-06-12 16:44:48,16,0,25.178,4568.2835877861,2.624672,0,0.40133531468,0,0,-0.223694,271.1, 0.7, 0.9,0,0,1024,1024,1024,1024,271.5,-89.9,97,4.204,4.191,4.174,4.214,4.212,4.143,3.213,73.4,11,AutoTakeoff,
37.3533393,-119.54202,4568.2835877861,2.624672,0,0.43781825548,4900,2018-06-12 16:44:48,16,0,25.178,4568.2835877861,2.624672,0,0.43781825548,0,0,0,271.2, 0.5, 1,0,0,1024,1024,1024,1024,271.5,-89.9,97,4.204,4.191,4.174,4.214,4.212,4.143,3.213,73.4,11,AutoTakeoff,
37.3533393,-119.54202,4568.6116717861,2.952756,0,0.43781825548,5000,2018-06-12 16:44:48,19,0,23.984,4568.6116717861,2.952756,0,0.43781825548,0,0,-0.223694,271.3, 0.3, 1,0,0,1024,1024,1024,1024,271.5,-89.9,97,3.948,3.936,3.961,3.967,3.985,3.924,14.71,73.4,11,AutoTakeoff,
37.3533393,-119.54202,4568.6116717861,2.952756,0,0.43781825548,5100,2018-06-12 16:44:48,19,0,23.984,4568.6116717861,2.952756,0,0.43781825548,0,0,-0.223694,271.4, 0.2, 1,0,0,1024,1024,1024,1024,271.5,-89.9,97,3.948,3.936,3.961,3.967,3.985,3.924,14.71,73.4,14,Waypoint,
37.3533392,-119.54202,4568.9397557861,3.28084,0,0.47430447712,5200,2018-06-12 16:44:48,19,0,23.984,4568.9397557861,3.28084,0,0.47430447712,0,0,0,271.4, 0.3, 0.9,0,0,1024,1024,1024,1024,271.5,-89.9,97,3.948,3.936,3.961,3.967,3.985,3.924,14.71,73.4,14,Waypoint,
37.3533392,-119.54202,4568.9397557861,3.28084,0,0.47430447712,5300,2018-06-12 16:44:48,19,0,23.984,4568.9397557861,3.28084,0,0.47430447712,0,0,0,271.5, 0.2, 0.6,0,0,1024,1024,1024,1024,271.5,-89.9,97,3.948,3.936,3.961,3.967,3.985,3.924,14.71,73.4,14,Waypoint,
37.3533392,-119.54202,4568.9397557861,3.28084,0,0.47430447712,5400,2018-06-12 16:44:48,18,0,23.984,4568.9397557861,3.28084,0,0.47430447712,0,0,0,271.6, 0.3, 0.5,0,0,1024,1024,1024,1024,271.5,-89.9,97,3.948,3.936,3.961,3.967,3.985,3.924,14.71,73.4,14,Waypoint,
37.3533391,-119.5420199,4569.2678397861,3.608924,0,0.51161090876,5500,2018-06-12 16:44:49,19,0,23.984,4569.2678397861,3.608924,0,0.51161090876,0,0,0,271.6, 0.2, 0.7,0,0,1024,1024,1024,1024,271.5,-90,97,3.948,3.936,3.961,3.967,3.985,3.924,14.71,73.4,14,Waypoint,
37.3533391,-119.54202,4569.5959237861,3.937008,0,0.51079069876,5700,2018-06-12 16:44:49,19,0,23.984,4569.5959237861,3.937008,0,0.51161090876,0,0,-0.223694,271.6, 0.2, 0.7,0,0,1024,1024,1024,1024,271.5,-89.9,97,3.948,3.936,3.961,3.967,3.985,3.924,14.71,73.4,14,Waypoint,
37.353339,-119.54202,4569.5959237861,3.937008,0,0.54727363956,5800,2018-06-12 16:44:49,19,0,23.984,4569.5959237861,3.937008,0,0.54727363956,0,0,-0.223694,271.6, 0.3, 0.7,0,0,1024,1024,1024,1024,271.5,-89.9,97,3.948,3.936,3.961,3.967,3.985,3.924,14.71,73.4,14,Waypoint,
37.353339,-119.54202,4569.9240077861,4.265092,0,0.54727363956,5900,2018-06-12 16:44:49,19,0,23.984,4569.9240077861,4.265092,0,0.54727363956,0,0,-0.223694,271.6, 0.3, 0.8,0,0,1024,1024,1024,1024,271.5,-89.9,97,3.948,3.936,3.961,3.967,3.985,3.924,14.71,73.4,14,Waypoint,
37.353339,-119.54202,4570.2520917861,4.593176,0,0.54727363956,6000,2018-06-12 16:44:49,19,0,23.506,4570.2520917861,4.593176,0,0.54727363956,0,0,-0.223694,271.6, 0.3, 0.9,0,0,1024,1024,1024,1024,271.5,-89.9,97,3.894,3.889,3.919,3.916,3.937,3.901,16.903,73.4,14,Waypoint,
37.3533389,-119.54202,4570.9082597861,5.249344,0,0.5837598612,6100,2018-06-12 16:44:49,19,0,23.506,4570.9082597861,5.249344,0,0.5837598612,0,0,-0.223694,271.6, 0.4, 0.9,0,0,1024,1024,1024,1024,271.5,-89.9,97,3.894,3.889,3.919,3.916,3.937,3.901,16.903,73.4,14,Waypoint,
37.3533389,-119.5420199,4571.2363437861,5.577428,0,0.58447836516,6200,2018-06-12 16:44:49,19,0,23.506,4571.2363437861,5.577428,0,0.58447836516,0,0,-0.447388,271.5, 0.4, 0.7,0,0,1024,1024,1024,1024,271.5,-89.9,97,3.894,3.889,3.919,3.916,3.937,3.901,16.903,73.4,14,Waypoint,
37.353339,-119.5420199,4571.8925117861,6.233596,0,0.54804135612,6300,2018-06-12 16:44:49,19,0,23.506,4571.8925117861,6.233596,0,0.58447836516,0,0,-0.447388,271.4, 0.5, 0.5,0,0,1024,1024,1024,1024,271.5,-89.9,97,3.894,3.889,3.919,3.916,3.937,3.901,16.903,73.4,14,Waypoint,
37.353339,-119.5420198,4572.2205957861,6.56168,0,0.55033794412,6400,2018-06-12 16:44:49,19,0,23.506,4572.2205957861,6.56168,0,0.58447836516,0,0,-0.447388,271.3, 0.5, 0.3,0,0,1024,1024,1024,1024,271.5,-89.9,97,3.894,3.889,3.919,3.916,3.937,3.901,16.903,73.4,14,Waypoint,
37.353339,-119.5420197,4573.2048477861,7.545932,0,0.55414699936,6500,2018-06-12 16:44:50,19,0,23.506,4573.2048477861,7.545932,0,0.58447836516,0,0,-0.447388,271.3, 0.5, 0.3,0,0,1024,1024,1024,1024,271.5,-89.9,97,3.894,3.889,3.919,3.916,3.937,3.901,16.903,73.4,14,Waypoint,
37.353339,-119.5420196,4573.8610157861,8.2021,0,0.55943571344,6600,2018-06-12 16:44:50,19,0,23.506,4573.8610157861,8.2021,0,0.58447836516,0,0,-0.447388,271.2, 0.3, 0.4,0,0,1024,1024,1024,1024,271.5,-90,97,3.894,3.889,3.919,3.916,3.937,3.901,16.903,73.4,14,Waypoint,
37.353339,-119.5420196,4574.8452677861,9.186352,0,0.55943571344,6700,2018-06-12 16:44:50,19,0,23.506,4574.8452677861,9.186352,0,0.58447836516,0,0,-0.671082,271.2, 0, 0.3,0,0,1024,1024,1024,1024,271.5,-90,97,3.894,3.889,3.919,3.916,3.937,3.901,16.903,73.4,14,Waypoint,
37.3533391,-119.5420195,4575.8295197861,10.170604,0,0.53097442644,6800,2018-06-12 16:44:50,18,0,23.506,4575.8295197861,10.170604,0,0.58447836516,0,0,-0.671082,271.2, 0.1, 0.2,0,0,1024,1024,1024,1024,271.5,-90,97,3.894,3.889,3.919,3.916,3.937,3.901,16.903,73.4,14,Waypoint,
37.3533392,-119.5420195,4576.8137717861,11.154856,0,0.49597770616,6900,2018-06-12 16:44:50,18,0,23.506,4576.8137717861,11.154856,0,0.58447836516,0,0,-0.671082,271.3, 0.2, 0.1,0,0,1024,1024,1024,1024,271.5,-89.9,97,3.894,3.889,3.919,3.916,3.937,3.901,16.903,73.4,14,Waypoint,
37.3533393,-119.5420195,4578.1261077861,12.467192,0,0.46121064468,7000,2018-06-12 16:44:50,19,0,23.546,4578.1261077861,12.467192,0,0.58447836516,0,0,-0.671082,271.4, 0.2, 0,0,0,1024,1024,1024,1024,271.5,-89.9,96,3.913,3.901,3.88,3.923,3.912,3.903,16.256,73.4,14,Waypoint,
37.3533394,-119.5420195,4580.0946117861,14.435696,0,0.42672901628,7100,2018-06-12 16:44:50,19,0,23.546,4580.0946117861,14.435696,0,0.58447836516,0,0,-0.671082,271.7, 0.6, -0.4,0,0,1024,1024,1024,1024,271.5,-89.9,96,3.913,3.901,3.88,3.923,3.912,3.903,16.256,73.4,14,Waypoint,
37.3533395,-119.5420195,4581.4069477861,15.748032,0,0.39261156112,7400,2018-06-12 16:44:50,19,0,23.546,4581.4069477861,15.748032,0,0.58447836516,0,0,-0.671082,271.7, 0.8, -0.4,0,0,1024,1024,1024,1024,271.5,-89.9,96,3.913,3.901,3.88,3.923,3.912,3.903,16.256,73.4,14,Waypoint,
37.3533395,-119.5420195,4582.3911997861,16.732284,0,0.39261156112,7500,2018-06-12 16:44:51,19,0,23.546,4582.3911997861,16.732284,0,0.58447836516,0,0,-0.671082,271.7, 0.8, -0.4,0,0,1024,1024,1024,1024,271.5,-89.9,96,3.913,3.901,3.88,3.923,3.912,3.903,16.256,73.4,14,Waypoint,
37.3533394,-119.5420196,4584.6877877861,19.028872,0,0.4177657614,7600,2018-06-12 16:44:51,19,0,23.546,4584.6877877861,19.028872,0,0.58447836516,0,0,-0.671082,271.7, 0.7, 0,0,0,1024,1024,1024,1024,271.5,-89.9,96,3.913,3.901,3.88,3.923,3.912,3.903,16.256,73.4,14,Waypoint,
37.3533393,-119.5420196,4586.0001237861,20.341208,0,0.45292652368,7700,2018-06-12 16:44:51,19,0,23.546,4586.0001237861,20.341208,0,0.58447836516,0,0,-0.671082,271.6, 0.5, 0.1,0,0,1024,1024,1024,1024,271.5,-89.9,96,3.913,3.901,3.88,3.923,3.912,3.903,16.256,73.4,14,Waypoint,
37.3533393,-119.5420196,4586.9843757861,21.32546,0,0.45292652368,7800,2018-06-12 16:44:51,19,0,23.546,4586.9843757861,21.32546,0,0.58447836516,0,0,-0.671082,271.6, 0.5, 0.1,0,0,1024,1024,1024,1024,271.5,-89.9,96,3.913,3.901,3.88,3.923,3.912,3.903,16.256,73.4,14,Waypoint,
37.3533392,-119.5420197,4587.9686277861,22.309712,0,0.4822178632,7900,2018-06-12 16:44:51,19,0,23.546,4587.9686277861,22.309712,0,0.58447836516,0,0,-0.671082,271.5, 0.5, 0.2,0,0,1024,1024,1024,1024,271.5,-89.9,96,3.913,3.901,3.88,3.923,3.912,3.903,16.256,73.4,14,Waypoint,
37.3533391,-119.5420198,4589.2809637861,23.622048,0,0.51407153876,8000,2018-06-12 16:44:51,19,0,22.818,4589.2809637861,23.622048,0,0.58447836516,0,0,-0.671082,271.4, 0.7, 0.3,0,0,1024,1024,1024,1024,271.5,-89.9,96,3.748,3.756,3.778,3.785,3.808,3.763,23.252,73.4,14,Waypoint,
37.3533391,-119.5420199,4590.2652157861,24.6063,0,0.51161090876,8100,2018-06-12 16:44:51,19,0,22.818,4590.2652157861,24.6063,0,0.58447836516,0,0,-0.671082,271.4, 1, 0.4,0,0,1024,1024,1024,1024,271.5,-89.9,96,3.748,3.756,3.778,3.785,3.808,3.763,23.252,73.4,14,Waypoint,
37.353339,-119.5420199,4591.2494677861,25.590552,0,0.54804135612,8200,2018-06-12 16:44:51,19,0,22.818,4591.2494677861,25.590552,0,0.58447836516,0,0,-0.671082,271.4, 1.1, 0.4,0,0,1024,1024,1024,1024,271.5,-89.9,96,3.748,3.756,3.778,3.785,3.808,3.763,23.252,73.4,14,Waypoint,
37.3533389,-119.54202,4592.5618037861,26.902888,0,0.5837598612,8300,2018-06-12 16:44:51,19,0,22.818,4592.5618037861,26.902888,0,0.58447836516,0,0,-0.671082,271.4, 1.2, 0.5,0,0,1024,1024,1024,1024,271.5,-89.9,96,3.748,3.756,3.778,3.785,3.808,3.763,23.252,73.4,14,Waypoint,
37.3533388,-119.5420201,4593.5460557861,27.88714,0,0.62092193588,8400,2018-06-12 16:44:51,19,0,22.818,4593.5460557861,27.88714,0,0.62092193588,0,0,-0.671082,271.4, 1.1, 0.7,0,0,1024,1024,1024,1024,271.5,-89.9,96,3.748,3.756,3.778,3.785,3.808,3.763,23.252,73.4,14,Waypoint,
37.3533387,-119.5420201,4594.5303077861,28.871392,0,0.65736878744,8500,2018-06-12 16:44:52,19,0,22.818,4594.5303077861,28.871392,0,0.65736878744,0,0,-0.671082,271.4, 0.9, 0.8,0,0,1024,1024,1024,1024,271.5,-89.9,96,3.748,3.756,3.778,3.785,3.808,3.763,23.252,73.4,14,Waypoint,
37.3533386,-119.5420202,4595.5145597861,29.855644,0,0.6956365052,8600,2018-06-12 16:44:52,19,0,22.818,4595.5145597861,29.855644,0,0.6956365052,0,0,-0.671082,271.4, 0.9, 0.8,0,0,1024,1024,1024,1024,271.5,-89.9,96,3.748,3.756,3.778,3.785,3.808,3.763,23.252,73.4,14,Waypoint,
37.3533386,-119.5420203,4596.4988117861,30.839896,0,0.69865159716,8700,2018-06-12 16:44:52,19,0,22.818,4596.4988117861,30.839896,0,0.69865159716,0,0,-0.671082,271.4, 0.9, 0.7,0,0,1024,1024,1024,1024,271.5,-89.9,96,3.748,3.756,3.778,3.785,3.808,3.763,23.252,73.4,14,Waypoint,
37.3533385,-119.5420203,4597.4830637861,31.824148,0,0.73486878992,8800,2018-06-12 16:44:52,19,0,22.818,4597.4830637861,31.824148,0,0.73486878992,0,0,-0.671082,271.4, 1, 0.7,0,0,1024,1024,1024,1024,271.5,-89.9,96,3.748,3.756,3.778,3.785,3.808,3.763,23.252,73.4,14,Waypoint,
37.3533385,-119.5420204,4598.4673157861,32.8084,0,0.7388615722,8900,2018-06-12 16:44:52,19,0,22.818,4598.4673157861,32.8084,0,0.7388615722,0,0,-0.671082,271.5, 1, 0.6,0,0,1024,1024,1024,1024,271.5,-89.9,96,3.748,3.756,3.778,3.785,3.808,3.763,23.252,73.4,14,Waypoint,
37.3533384,-119.5420205,4599.4515677861,33.792652,0,0.77978677036,9000,2018-06-12 16:44:52,19,0,22.847,4599.4515677861,33.792652,0,0.77978677036,0,0,-0.671082,271.6, 0.9, 0.5,0,0,1024,1024,1024,1024,271.5,-89.9,96,3.792,3.797,3.818,3.836,3.841,3.819,21.074,73.4,14,Waypoint,
37.3533384,-119.5420205,4600.4358197861,34.776904,0,0.77978677036,9100,2018-06-12 16:44:52,19,0,22.847,4600.4358197861,34.776904,0,0.77978677036,0,0,-0.671082,271.6, 1.1, 0.5,0,0,1024,1024,1024,1024,271.5,-89.9,96,3.792,3.797,3.818,3.836,3.841,3.819,21.074,73.4,14,Waypoint,
37.3533383,-119.5420206,4601.7481557861,36.08924,0,0.82131564308,9200,2018-06-12 16:44:52,19,0,22.847,4601.7481557861,36.08924,0,0.82131564308,0,0,-0.671082,271.5, 1.2, 0.8,0,0,1024,1024,1024,1024,271.5,-89.9,96,3.792,3.797,3.818,3.836,3.841,3.819,21.074,73.4,14,Waypoint,
37.3533382,-119.5420207,4603.7166597861,38.057744,0,0.86336288852,9400,2018-06-12 16:44:52,19,0,22.847,4603.7166597861,38.057744,0,0.86336288852,0,0,-0.671082,271.5, 1.5, 1.1,0,0,1024,1024,1024,1024,271.5,-89.9,96,3.792,3.797,3.818,3.836,3.841,3.819,21.074,73.4,14,Waypoint,
37.3533381,-119.5420208,4604.7009117861,39.041996,0,0.9058563282,9500,2018-06-12 16:44:53,19,0,22.847,4604.7009117861,39.041996,0,0.9058563282,0,0,-0.671082,271.4, 1.8, 1.1,0,0,1024,1024,1024,1024,271.5,-89.9,96,3.792,3.797,3.818,3.836,3.841,3.819,21.074,73.4,14,Waypoint,
37.3533381,-119.5420209,4605.6851637861,40.026248,0,0.91371394,9600,2018-06-12 16:44:53,19,0,22.847,4605.6851637861,40.026248,0,0.91371394,0,0,-0.671082,271.3, 1.9, 1,0,0,1024,1024,1024,1024,271.5,-89.9,96,3.792,3.797,3.818,3.836,3.841,3.819,21.074,73.4,14,Waypoint,
37.3533381,-119.542021,4606.6694157861,41.0105,0,0.92241800852,9700,2018-06-12 16:44:53,19,0,22.847,4606.6694157861,41.0105,0,0.92241800852,0,0,-0.671082,271.3, 2, 1,0,0,1024,1024,1024,1024,271.5,-89.9,96,3.792,3.797,3.818,3.836,3.841,3.819,21.074,73.4,14,Waypoint,
37.3533381,-119.542021,4607.6536677861,41.994752,0,0.92241800852,9900,2018-06-12 16:44:53,19,0,22.847,4607.6536677861,41.994752,0,0.92241800852,0,0,-0.671082,271.3, 2, 1.1,0,0,1024,1024,1024,1024,271.5,-89.9,96,3.792,3.797,3.818,3.836,3.841,3.819,21.074,73.4,14,Waypoint,
37.3533381,-119.542021,4608.6379197861,42.979004,0,0.92241800852,10000,2018-06-12 16:44:53,19,0,22.943,4608.6379197861,42.979004,0,0.92241800852,0,0,-0.671082,271.4, 2, 1,0,0,1024,1024,1024,1024,271.5,-89.9,96,3.792,3.797,3.818,3.836,3.841,3.819,19.232,73.4,14,Waypoint,
37.3533381,-119.542021,4610.6064237861,44.947508,0,0.92241800852,10100,2018-06-12 16:44:53,19,0,22.943,4610.6064237861,44.947508,0,0.92241800852,0,0,-0.671082,271.6, 1.4, 0.7,0,0,1024,1024,1024,1024,271.5,-89.9,96,3.792,3.797,3.818,3.836,3.841,3.819,19.232,73.4,14,Waypoint,
37.3533382,-119.542021,4611.5906757861,45.93176,0,0.88785763996,10200,2018-06-12 16:44:53,19,0,22.943,4611.5906757861,45.93176,0,0.92241800852,0,0,-0.671082,271.7, 1.3, 0.5,0,0,1024,1024,1024,1024,271.5,-89.9,96,3.792,3.797,3.818,3.836,3.841,3.819,19.232,73.4,14,Waypoint,
37.3533382,-119.542021,4612.5749277861,46.916012,0,0.88785763996,10300,2018-06-12 16:44:53,19,0,22.943,4612.5749277861,46.916012,0,0.92241800852,0,0,-0.671082,271.8, 1.3, 0.3,0,0,1024,1024,1024,1024,271.5,-89.9,96,3.792,3.797,3.818,3.836,3.841,3.819,19.232,73.4,14,Waypoint,
37.3533382,-119.5420209,4613.5591797861,47.900264,0,0.87881236408,10400,2018-06-12 16:44:53,19,0,22.943,4613.5591797861,47.900264,0,0.92241800852,0,0,-0.671082,271.9, 1.2, 0.1,0,0,1024,1024,1024,1024,271.5,-90,96,3.792,3.797,3.818,3.836,3.841,3.819,19.232,73.4,14,Waypoint,
37.3533383,-119.5420209,4615.8557677861,50.196852,0,0.84404202176,10600,2018-06-12 16:44:54,19,0,22.943,4615.8557677861,50.196852,0,0.92241800852,0,0,-0.671082,271.7, 0.8, 0,0,0,1024,1024,1024,1024,271.5,-90,96,3.792,3.797,3.818,3.836,3.841,3.819,19.232,73.4,14,Waypoint,
37.3533383,-119.5420209,4616.8400197861,51.181104,0,0.84404202176,10700,2018-06-12 16:44:54,19,0,22.943,4616.8400197861,51.181104,0,0.92241800852,0,0,-0.671082,271.5, 0.9, 0.2,0,0,1024,1024,1024,1024,271.5,-90,96,3.792,3.797,3.818,3.836,3.841,3.819,19.232,73.4,14,Waypoint,
37.3533383,-119.5420208,4617.8242717861,52.165356,0,0.83552824196,10800,2018-06-12 16:44:54,19,0,22.943,4617.8242717861,52.165356,0,0.92241800852,0,0,-0.671082,271.3, 0.9, 0.4,0,0,1024,1024,1024,1024,271.5,-89.9,96,3.792,3.797,3.818,3.836,3.841,3.819,19.232,73.4,14,Waypoint,
37.3533383,-119.5420209,4618.8085237861,53.149608,0,0.84404202176,10900,2018-06-12 16:44:54,19,0,22.943,4618.8085237861,53.149608,0,0.92241800852,0,0,-0.671082,271.1, 1.1, 0.5,0,0,1024,1024,1024,1024,271.5,-89.9,96,3.792,3.797,3.818,3.836,3.841,3.819,19.232,73.4,14,Waypoint,
37.3533384,-119.5420209,4619.7927757861,54.13386,0,0.80942587892,11000,2018-06-12 16:44:54,19,0,22.943,4619.7927757861,54.13386,0,0.92241800852,0,0,-0.671082,271, 1.1, 0.4,0,0,1024,1024,1024,1024,271.5,-89.9,96,3.813,3.805,3.832,3.834,3.846,3.824,19.232,73.4,14,Waypoint,
37.3533384,-119.5420209,4620.7770277861,55.118112,0,0.80942587892,11100,2018-06-12 16:44:54,19,0,22.943,4620.7770277861,55.118112,0,0.92241800852,0,0,-0.671082,270.9, 1.2, 0.2,0,0,1024,1024,1024,1024,271.5,-89.9,96,3.813,3.805,3.832,3.834,3.846,3.824,19.232,73.4,14,Waypoint,
37.3533384,-119.5420209,4621.7612797861,56.102364,0,0.80942587892,11200,2018-06-12 16:44:54,19,0,22.943,4621.7612797861,56.102364,0,0.92241800852,0,0,-0.671082,270.9, 1.2, 0,0,0,1024,1024,1024,1024,271.5,-89.9,96,3.813,3.805,3.832,3.834,3.846,3.824,19.232,73.4,14,Waypoint,
37.3533385,-119.5420209,4622.7455317861,57.086616,0,0.77497705892,11300,2018-06-12 16:44:54,19,0,22.943,4622.7455317861,57.086616,0,0.92241800852,0,0,-0.671082,270.9, 1.4, 0,0,0,1024,1024,1024,1024,271.5,-89.9,96,3.813,3.805,3.832,3.834,3.846,3.824,19.232,73.4,14,Waypoint,
37.3533385,-119.5420209,4623.7297837861,58.070868,0,0.77497705892,11400,2018-06-12 16:44:54,19,0,22.943,4623.7297837861,58.070868,0,0.92241800852,0,0,-0.671082,270.9, 1.7, 0,0,0,1024,1024,1024,1024,271.5,-89.9,96,3.813,3.805,3.832,3.834,3.846,3.824,19.232,73.4,14,Waypoint,
37.3533386,-119.5420209,4624.7140357861,59.05512,0,0.74072837016,11500,2018-06-12 16:44:55,19,0,22.943,4624.7140357861,59.05512,0,0.92241800852,0,0,-0.671082,270.9, 1.8, -0.1,0,0,1024,1024,1024,1024,271.5,-89.9,96,3.813,3.805,3.832,3.834,3.846,3.824,19.232,73.4,14,Waypoint,
37.3533386,-119.5420209,4625.6982877861,60.039372,0,0.74072837016,11600,2018-06-12 16:44:55,19,0,22.943,4625.6982877861,60.039372,0,0.92241800852,0,0,-0.671082,271, 1.8, -0.2,0,0,1024,1024,1024,1024,271.5,-89.9,96,3.813,3.805,3.832,3.834,3.846,3.824,19.232,73.4,14,Waypoint,
37.3533387,-119.5420209,4626.6825397861,61.023624,0,0.70669949768,11700,2018-06-12 16:44:55,19,0,22.943,4626.6825397861,61.023624,0,0.92241800852,0,0,-0.671082,271, 1.6, -0.2,0,0,1024,1024,1024,1024,271.5,-89.9,96,3.813,3.805,3.832,3.834,3.846,3.824,19.232,73.4,14,Waypoint,
37.3533387,-119.5420209,4627.6667917861,62.007876,0,0.70669949768,11800,2018-06-12 16:44:55,19,0,22.943,4627.6667917861,62.007876,0,0.92241800852,0,0,-0.671082,271.1, 1.4, -0.1,0,0,1024,1024,1024,1024,271.5,-89.9,96,3.813,3.805,3.832,3.834,3.846,3.824,19.232,73.4,14,Waypoint,
37.3533388,-119.5420208,4629.6352957861,63.97638,0,0.6622211498,12000,2018-06-12 16:44:55,19,0,22.966,4629.6352957861,63.97638,0,0.92241800852,0,0,-0.671082,271.1, 1.4, -0.3,0,0,1024,1024,1024,1024,271.5,-89.9,96,3.811,3.813,3.832,3.837,3.852,3.821,19.058,73.4,14,Waypoint,
37.3533388,-119.5420208,4631.6037997861,65.944884,0,0.6622211498,12100,2018-06-12 16:44:55,19,0,22.966,4631.6037997861,65.944884,0,0.92241800852,0,0,-0.671082,271.1, 1.7, 0,0,0,1024,1024,1024,1024,271.5,-89.9,96,3.811,3.813,3.832,3.837,3.852,3.821,19.058,73.4,14,Waypoint,
37.3533389,-119.5420208,4632.5880517861,66.929136,0,0.62817587312,12300,2018-06-12 16:44:55,19,0,22.966,4632.5880517861,66.929136,0,0.92241800852,0,0,-0.671082,271.2, 1.6, 0.1,0,0,1024,1024,1024,1024,271.5,-89.9,96,3.811,3.813,3.832,3.837,3.852,3.821,19.058,73.4,14,Waypoint,
37.3533389,-119.5420207,4633.5723037861,67.913388,0,0.61805448172,12400,2018-06-12 16:44:55,19,0,22.966,4633.5723037861,67.913388,0,0.92241800852,0,0,-0.671082,271.3, 1.5, 0.3,0,0,1024,1024,1024,1024,271.5,-89.9,96,3.811,3.813,3.832,3.837,3.852,3.821,19.058,73.4,14,Waypoint,
37.3533389,-119.5420207,4634.5565557861,68.89764,0,0.61805448172,12500,2018-06-12 16:44:56,19,0,22.966,4634.5565557861,68.89764,0,0.92241800852,0,0,-0.671082,271.5, 1.4, 0.3,0,0,1024,1024,1024,1024,271.5,-89.9,96,3.811,3.813,3.832,3.837,3.852,3.821,19.058,73.4,14,Waypoint,
37.3533389,-119.5420206,4635.2127237861,69.553808,0,0.60914372028,12600,2018-06-12 16:44:56,19,0,22.966,4635.2127237861,69.553808,0,0.92241800852,0,0,-0.671082,271.6, 1.3, 0.3,0,0,1024,1024,1024,1024,271.5,-90,96,3.811,3.813,3.832,3.837,3.852,3.821,19.058,73.4,14,Waypoint,
37.3533389,-119.5420206,4636.5250597861,70.866144,0,0.60914372028,12700,2018-06-12 16:44:56,19,0,22.966,4636.5250597861,70.866144,0,0.92241800852,0,0,-0.671082,271.7, 1.1, 0.2,0,0,1024,1024,1024,1024,271.5,-89.9,96,3.811,3.813,3.832,3.837,3.852,3.821,19.058,73.4,14,Waypoint,
37.353339,-119.5420205,4637.5093117861,71.850396,0,0.56616143544,12800,2018-06-12 16:44:56,19,0,22.966,4637.5093117861,71.850396,0,0.92241800852,0,0,-0.671082,271.8, 1, 0.4,0,0,1024,1024,1024,1024,271.5,-90,96,3.811,3.813,3.832,3.837,3.852,3.821,19.058,73.4,14,Waypoint,
37.353339,-119.5420205,4638.4935637861,72.834648,0,0.56616143544,12900,2018-06-12 16:44:56,19,0,22.966,4638.4935637861,72.834648,0,0.92241800852,0,0,-0.671082,272, 1, 0.4,0,0,1024,1024,1024,1024,271.5,-90,96,3.811,3.813,3.832,3.837,3.852,3.821,19.058,73.4,14,Waypoint,
37.353339,-119.5420204,4639.4778157861,73.8189,0,0.55943571344,13000,2018-06-12 16:44:56,19,0,22.985,4639.4778157861,73.8189,0,0.92241800852,0,0,-0.671082,272, 1.2, 0,0,0,1024,1024,1024,1024,271.5,-89.9,96,3.816,3.817,3.835,3.837,3.855,3.827,18.407,73.4,14,Waypoint,
37.353339,-119.5420204,4640.4620677861,74.803152,0,0.55943571344,13100,2018-06-12 16:44:56,19,0,22.985,4640.4620677861,74.803152,0,0.92241800852,0,0,-0.671082,271.9, 1.4, -0.2,0,0,1024,1024,1024,1024,271.5,-89.9,96,3.816,3.817,3.835,3.837,3.855,3.827,18.407,73.4,14,Waypoint,
37.353339,-119.5420203,4641.4463197861,75.787404,0,0.55414699936,13200,2018-06-12 16:44:56,19,0,22.985,4641.4463197861,75.787404,0,0.92241800852,0,0,-0.671082,271.8, 1.4, 0,0,0,1024,1024,1024,1024,271.5,-89.9,96,3.816,3.817,3.835,3.837,3.855,3.827,18.407,73.4,14,Waypoint,
37.3533391,-119.5420203,4642.4305717861,76.771656,0,0.51814634204,13300,2018-06-12 16:44:56,19,0,22.985,4642.4305717861,76.771656,0,0.92241800852,0,0,-0.671082,271.7, 1.1, 0,0,0,1024,1024,1024,1024,271.5,-90,96,3.816,3.817,3.835,3.837,3.855,3.827,18.407,73.4,14,Waypoint,
37.3533391,-119.5420202,4643.4148237861,77.755908,0,0.51407153876,13400,2018-06-12 16:44:56,19,0,22.985,4643.4148237861,77.755908,0,0.92241800852,0,0,-0.671082,271.6, 0.7, 0,0,0,1024,1024,1024,1024,271.5,-90,96,3.816,3.817,3.835,3.837,3.855,3.827,18.407,73.4,14,Waypoint,
37.3533391,-119.5420201,4644.3990757861,78.74016,0,0.51161090876,13500,2018-06-12 16:44:57,19,0,22.985,4644.3990757861,78.74016,0,0.92241800852,0,0,-0.671082,271.6, 0.3, 0,0,0,1024,1024,1024,1024,271.5,-90,96,3.816,3.817,3.835,3.837,3.855,3.827,18.407,73.4,14,Waypoint,
37.3533391,-119.54202,4645.3833277861,79.724412,0,0.51079069876,13600,2018-06-12 16:44:57,19,0,22.985,4645.3833277861,79.724412,0,0.92241800852,0,0,-0.671082,271.6, 0.1, -0.1,0,0,1024,1024,1024,1024,271.5,-90,96,3.816,3.817,3.835,3.837,3.855,3.827,18.407,73.4,14,Waypoint,
37.3533392,-119.5420199,4646.3675797861,80.708664,0,0.47519030392,13700,2018-06-12 16:44:57,19,0,22.985,4646.3675797861,80.708664,0,0.92241800852,0,0,-0.671082,271.6, 0, 0.1,0,0,1024,1024,1024,1024,271.5,-90,96,3.816,3.817,3.835,3.837,3.855,3.827,18.407,73.4,14,Waypoint,
37.3533392,-119.5420199,4647.0237477861,81.364832,0,0.47519030392,13800,2018-06-12 16:44:57,19,0,22.985,4647.0237477861,81.364832,0,0.92241800852,0,0,-0.671082,271.5, 0.1, 0,0,0,1024,1024,1024,1024,271.5,-90,96,3.816,3.817,3.835,3.837,3.855,3.827,18.407,73.4,14,Waypoint,
37.3533393,-119.5420198,4648.3360837861,82.677168,0,0.44164371492,13900,2018-06-12 16:44:57,19,0,22.985,4648.3360837861,82.677168,0,0.92241800852,0,0,-0.671082,271.3, 0.3, -0.5,0,0,1024,1024,1024,1024,271.5,-90,96,3.816,3.817,3.835,3.837,3.855,3.827,18.407,73.4,14,Waypoint,
37.3533393,-119.5420198,4649.3203357861,83.66142,0.223694,0.44164371492,14000,2018-06-12 16:44:57,19,0,22.964,4649.3203357861,83.66142,0.223694,0.92241800852,0,0,-0.671082,271.1, 0.7, -0.9,0,0,1024,1024,1024,1024,271.5,-89.9,96,3.817,3.815,3.826,3.827,3.852,3.823,18.522,73.4,14,Waypoint,
37.3533396,-119.5420198,4652.2730917861,86.614176,0,0.3334481734,14200,2018-06-12 16:44:57,19,0,22.964,4652.2730917861,86.614176,0.223694,0.92241800852,0,0,-0.671082,271.2, 1.3, -1.5,0,0,1024,1024,1024,1024,271.5,-89.9,96,3.817,3.815,3.826,3.827,3.852,3.823,18.522,73.4,14,Waypoint,
37.3533396,-119.5420198,4653.2573437861,87.598428,0,0.3334481734,14400,2018-06-12 16:44:57,19,0,22.964,4653.2573437861,87.598428,0.223694,0.92241800852,0,0,-0.671082,271.4, 1.1, -1.4,0,0,1024,1024,1024,1024,271.5,-90,96,3.817,3.815,3.826,3.827,3.852,3.823,18.522,73.4,14,Waypoint,
37.3533396,-119.5420198,4654.2415957861,88.58268,0,0.3334481734,14500,2018-06-12 16:44:58,19,0,22.964,4654.2415957861,88.58268,0.223694,0.92241800852,0,0,-0.671082,271.5, 0.8, -1.2,0,0,1024,1024,1024,1024,271.5,-90,96,3.817,3.815,3.826,3.827,3.852,3.823,18.522,73.4,14,Waypoint,
37.3533397,-119.5420197,4655.8820157861,90.2231,0,0.304571532056,14700,2018-06-12 16:44:58,19,0,22.964,4655.8820157861,90.2231,0.223694,0.92241800852,0,0,-0.671082,271.8, 0.5, -1.3,0,0,1024,1024,1024,1024,271.5,-89.9,96,3.817,3.815,3.826,3.827,3.852,3.823,18.522,73.4,14,Waypoint,
37.3533397,-119.5420197,4656.8662677861,91.207352,0,0.304571532056,14800,2018-06-12 16:44:58,19,0,22.964,4656.8662677861,91.207352,0.223694,0.92241800852,0,0,-0.671082,271.7, 0.8, -1.2,0,0,1024,1024,1024,1024,271.5,-89.9,96,3.817,3.815,3.826,3.827,3.852,3.823,18.522,73.4,14,Waypoint,
37.3533397,-119.5420197,4657.8505197861,92.191604,0,0.304571532056,14900,2018-06-12 16:44:58,19,0,22.964,4657.8505197861,92.191604,0.223694,0.92241800852,0,0,-0.671082,271.5, 1.1, -1.1,0,0,1024,1024,1024,1024,271.5,-89.9,96,3.817,3.815,3.826,3.827,3.852,3.823,18.522,73.4,14,Waypoint,
37.3533397,-119.5420198,4658.8347717861,93.175856,0,0.297587279864,15000,2018-06-12 16:44:58,19,0,22.933,4658.8347717861,93.175856,0.223694,0.92241800852,0,0,-0.671082,271.3, 1.4, -1,0,0,1024,1024,1024,1024,271.5,-89.9,96,3.812,3.798,3.828,3.826,3.853,3.804,18.369,73.4,14,Waypoint,
37.3533397,-119.5420198,4659.8190237861,94.160108,0,0.297587279864,15100,2018-06-12 16:44:58,19,0,22.933,4659.8190237861,94.160108,0.223694,0.92241800852,0,0,-0.671082,271.2, 1.5, -0.9,0,0,1024,1024,1024,1024,271.5,-89.9,96,3.812,3.798,3.828,3.826,3.853,3.804,18.369,73.4,14,Waypoint,
37.3533397,-119.5420198,4660.8032757861,95.14436,0,0.297587279864,15200,2018-06-12 16:44:58,19,0,22.933,4660.8032757861,95.14436,0.223694,0.92241800852,0,0,-0.671082,271.1, 1.3, -0.8,0,0,1024,1024,1024,1024,271.5,-89.9,96,3.812,3.798,3.828,3.826,3.853,3.804,18.369,73.4,14,Waypoint,
37.3533397,-119.5420197,4662.7717797861,97.112864,0,0.304571532056,15400,2018-06-12 16:44:58,19,0,22.933,4662.7717797861,97.112864,0.223694,0.92241800852,0,0,-0.671082,271.1, 0.8, -0.9,0,0,1024,1024,1024,1024,271.5,-90,96,3.812,3.798,3.828,3.826,3.853,3.804,18.369,73.4,14,Waypoint,
37.3533398,-119.5420197,4663.7560317861,98.097116,0,0.269808407584,15500,2018-06-12 16:44:59,19,0,22.933,4663.7560317861,98.097116,0.223694,0.92241800852,0,0,-0.671082,271.1, 0.7, -1.1,0,0,1024,1024,1024,1024,271.5,-89.9,96,3.812,3.798,3.828,3.826,3.853,3.804,18.369,73.4,14,Waypoint,
37.3533398,-119.5420197,4664.7402837861,99.081368,0,0.269808407584,15600,2018-06-12 16:44:59,19,0,22.933,4664.7402837861,99.081368,0.223694,0.92241800852,0,0,-0.671082,271.2, 0.8, -1.2,0,0,1024,1024,1024,1024,271.5,-89.9,96,3.812,3.798,3.828,3.826,3.853,3.804,18.369,73.4,14,Waypoint,
37.3533398,-119.5420198,4665.7245357861,100.06562,0,0.261898630428,15700,2018-06-12 16:44:59,19,0,22.933,4665.7245357861,100.06562,0.223694,0.92241800852,0,0,-0.671082,271.3, 0.8, -1,0,0,1024,1024,1024,1024,271.5,-89.9,96,3.812,3.798,3.828,3.826,3.853,3.804,18.369,73.4,14,Waypoint,
37.3533398,-119.5420198,4666.7087877861,101.049872,0,0.261898630428,15800,2018-06-12 16:44:59,19,0,22.933,4666.7087877861,101.049872,0.223694,0.92241800852,0,0,-0.671082,271.4, 0.9, -0.8,0,0,1024,1024,1024,1024,271.5,-89.9,96,3.812,3.798,3.828,3.826,3.853,3.804,18.369,73.4,14,Waypoint,
37.3533398,-119.5420199,4667.6930397861,102.034124,0,0.257036097464,15900,2018-06-12 16:44:59,19,0,22.933,4667.6930397861,102.034124,0.223694,0.92241800852,0,0,-0.671082,271.6, 1.2, -0.9,0,0,1024,1024,1024,1024,271.5,-89.9,96,3.812,3.798,3.828,3.826,3.853,3.804,18.369,73.4,14,Waypoint,
37.3533399,-119.5420199,4668.6772917861,103.018376,0,0.220822513628,16000,2018-06-12 16:44:59,19,0,22.891,4668.6772917861,103.018376,0.223694,0.92241800852,0,0,-0.671082,271.8, 1.5, -1.3,0,0,1024,1024,1024,1024,271.5,-89.9,96,3.791,3.804,3.81,3.817,3.833,3.813,19.215,73.4,14,Waypoint,
37.3533399,-119.54202,4669.6615437861,104.002628,0,0.218909783908,16100,2018-06-12 16:44:59,19,0,22.891,4669.6615437861,104.002628,0.223694,0.92241800852,0,0,-0.671082,271.8, 1.6, -1.7,0,0,1024,1024,1024,1024,271.5,-89.9,96,3.791,3.804,3.81,3.817,3.833,3.813,19.215,73.4,14,Waypoint,
37.35334,-119.54202,4670.6457957861,104.98688,0,0.18242454652,16200,2018-06-12 16:44:59,19,0,22.891,4670.6457957861,104.98688,0.223694,0.92241800852,0,0,-0.671082,271.6, 1.7, -1.8,0,0,1024,1024,1024,1024,271.5,-89.9,96,3.791,3.804,3.81,3.817,3.833,3.813,19.215,73.4,14,Waypoint,
37.35334,-119.5420201,4672.6142997861,106.955384,0,0.184715885176,16300,2018-06-12 16:44:59,19,0,22.891,4672.6142997861,106.955384,0.223694,0.92241800852,0,0,-0.671082,271.4, 1.9, -1.6,0,0,1024,1024,1024,1024,271.5,-89.9,96,3.791,3.804,3.81,3.817,3.833,3.813,19.215,73.4,14,Waypoint,
37.3533401,-119.5420202,4674.5828037861,108.923888,0,0.157044296364,16500,2018-06-12 16:45:00,19,0,22.891,4674.5828037861,108.923888,0.223694,0.92241800852,0,0,-0.671082,271.4, 2.1, -1.8,0,0,1024,1024,1024,1024,271.5,-89.9,96,3.791,3.804,3.81,3.817,3.833,3.813,19.215,73.4,14,Waypoint,
37.3533401,-119.5420202,4675.5670557861,109.90814,0,0.157044296364,16600,2018-06-12 16:45:00,19,0,22.891,4675.5670557861,109.90814,0.223694,0.92241800852,0,0,-0.671082,271.4, 2.1, -2,0,0,1024,1024,1024,1024,271.5,-89.9,96,3.791,3.804,3.81,3.817,3.833,3.813,19.215,73.4,14,Waypoint,
37.3533401,-119.5420203,4676.5513077861,110.892392,0,0.169907485752,16800,2018-06-12 16:45:00,19,0,22.891,4676.5513077861,110.892392,0.223694,0.92241800852,0,0,-0.671082,271.4, 2.1, -2,0,0,1024,1024,1024,1024,271.5,-89.9,96,3.791,3.804,3.81,3.817,3.833,3.813,19.215,73.4,14,Waypoint,
37.3533402,-119.5420203,4677.5355597861,111.876644,0,0.139823167204,16900,2018-06-12 16:45:00,19,0,22.891,4677.5355597861,111.876644,0.223694,0.92241800852,0,0,-0.671082,271.4, 1.9, -2,0,0,1024,1024,1024,1024,271.5,-89.9,96,3.791,3.804,3.81,3.817,3.833,3.813,19.215,73.4,14,Waypoint,
37.3533402,-119.5420203,4678.5198117861,112.860896,0,0.139823167204,17000,2018-06-12 16:45:00,19,0,22.891,4678.5198117861,112.860896,0.223694,0.92241800852,0,0,-0.671082,271.4, 1.6, -2,0,0,1024,1024,1024,1024,271.5,-89.9,96,3.791,3.804,3.81,3.817,3.833,3.813,19.215,73.4,14,Waypoint,
37.3533402,-119.5420203,4679.5040637861,113.845148,0,0.139823167204,17100,2018-06-12 16:45:00,19,0,22.891,4679.5040637861,113.845148,0.223694,0.92241800852,0,0,-0.671082,271.5, 1.3, -1.8,0,0,1024,1024,1024,1024,271.5,-90,96,3.791,3.804,3.81,3.817,3.833,3.813,19.215,73.4,14,Waypoint,
37.3533401,-119.5420203,4680.4883157861,114.8294,0,0.169907485752,17200,2018-06-12 16:45:00,19,0,22.891,4680.4883157861,114.8294,0.223694,0.92241800852,0,0,-0.671082,271.6, 1.1, -1.5,0,0,1024,1024,1024,1024,271.5,-90,96,3.791,3.804,3.81,3.817,3.833,3.813,19.215,73.4,14,Waypoint,
37.3533401,-119.5420203,4681.4725677861,115.813652,0,0.169907485752,17300,2018-06-12 16:45:00,19,0,22.891,4681.4725677861,115.813652,0.223694,0.92241800852,0,0,-0.671082,271.7, 1, -1.1,0,0,1024,1024,1024,1024,271.5,-89.9,96,3.791,3.804,3.81,3.817,3.833,3.813,19.215,73.4,14,Waypoint,
37.3533401,-119.5420203,4682.1287357861,116.46982,0,0.169907485752,17400,2018-06-12 16:45:00,19,0,22.891,4682.1287357861,116.46982,0.223694,0.92241800852,0,0,-0.671082,271.6, 1.4, -0.9,0,0,1024,1024,1024,1024,271.5,-89.9,96,3.791,3.804,3.81,3.817,3.833,3.813,19.215,73.4,14,Waypoint,
37.35334,-119.5420204,4683.1129877861,117.454072,0,0.216187014792,17500,2018-06-12 16:45:01,19,0,22.891,4683.1129877861,117.454072,0.223694,0.92241800852,0,0,-0.671082,271.5, 1.6, -1,0,0,1024,1024,1024,1024,271.5,-89.9,96,3.791,3.804,3.81,3.817,3.833,3.813,19.215,73.4,14,Waypoint,
37.35334,-119.5420204,4684.0972397861,118.438324,0,0.216187014792,17600,2018-06-12 16:45:01,19,0,22.891,4684.0972397861,118.438324,0.223694,0.92241800852,0,0,-0.671082,271.4, 1.8, -0.9,0,0,1024,1024,1024,1024,271.5,-89.9,96,3.791,3.804,3.81,3.817,3.833,3.813,19.215,73.4,14,Waypoint,
37.35334,-119.5420204,4685.0814917861,119.422576,0,0.216187014792,17700,2018-06-12 16:45:01,19,0,22.891,4685.0814917861,119.422576,0.223694,0.92241800852,0,0,-0.671082,271.4, 1.8, -1.1,0,0,1024,1024,1024,1024,271.5,-89.9,96,3.791,3.804,3.81,3.817,3.833,3.813,19.215,73.4,14,Waypoint,
37.35334,-119.5420204,4686.0657437861,120.406828,0,0.216187014792,17800,2018-06-12 16:45:01,19,0,22.891,4686.0657437861,120.406828,0.223694,0.92241800852,0,0,-0.671082,271.4, 1.6, -1.3,0,0,1024,1024,1024,1024,271.5,-89.9,96,3.791,3.804,3.81,3.817,3.833,3.813,19.215,73.4,14,Waypoint,
37.3533399,-119.5420204,4687.0499957861,121.39108,0,0.247748695592,17900,2018-06-12 16:45:01,19,0,22.891,4687.0499957861,121.39108,0.223694,0.92241800852,0,0,-0.671082,271.4, 1.4, -1.4,0,0,1024,1024,1024,1024,271.5,-89.9,96,3.791,3.804,3.81,3.817,3.833,3.813,19.215,73.4,14,Waypoint,
37.3533399,-119.5420204,4688.0342477861,122.375332,0,0.247748695592,18000,2018-06-12 16:45:01,19,0,22.795,4688.0342477861,122.375332,0.223694,0.92241800852,0,0,-0.671082,271.5, 1.4, -1.4,0,0,1024,1024,1024,1024,271.5,-89.9,95,3.781,3.785,3.795,3.806,3.823,3.789,19.058,73.4,14,Waypoint,
37.3533399,-119.5420204,4689.0184997861,123.359584,0,0.247748695592,18100,2018-06-12 16:45:01,19,0,22.795,4689.0184997861,123.359584,0.223694,0.92241800852,0,0,-0.671082,271.5, 1.3, -1.3,0,0,1024,1024,1024,1024,271.5,-90,95,3.781,3.785,3.795,3.806,3.823,3.789,19.058,73.4,14,Waypoint,
37.3533399,-119.5420204,4690.0027517861,124.343836,0,0.247748695592,18200,2018-06-12 16:45:01,19,0,22.795,4690.0027517861,124.343836,0.223694,0.92241800852,0,0,-0.671082,271.5, 1, -1.5,0,0,1024,1024,1024,1024,271.5,-90,95,3.781,3.785,3.795,3.806,3.823,3.789,19.058,73.4,14,Waypoint,
37.3533398,-119.5420203,4692.2993397861,126.640424,0,0.269808407584,18300,2018-06-12 16:45:01,19,0,22.795,4692.2993397861,126.640424,0.223694,0.92241800852,0,0,-0.671082,271.5, 0.5, -1.8,0,0,1024,1024,1024,1024,271.5,-90,95,3.781,3.785,3.795,3.806,3.823,3.789,19.058,73.4,14,Waypoint,
37.3533398,-119.5420202,4694.2678437861,128.608928,0,0.261898630428,18500,2018-06-12 16:45:02,19,0,22.795,4694.2678437861,128.608928,0.223694,0.92241800852,0,0,-0.671082,271.2, 0.6, -1.4,0,0,1024,1024,1024,1024,271.5,-90,95,3.781,3.785,3.795,3.806,3.823,3.789,19.058,73.4,14,Waypoint,
37.3533397,-119.5420202,4695.2520957861,129.59318,0,0.297587279864,18610,2018-06-12 16:45:02,19,0,22.795,4695.2520957861,129.59318,0.223694,0.92241800852,0,0,-0.671082,271.1, 0.7, -1.3,0,0,1024,1024,1024,1024,271.5,-90,95,3.781,3.785,3.795,3.806,3.823,3.789,19.058,73.4,14,Waypoint,
37.3533397,-119.5420202,4695.2520957861,129.59318,0,0.297587279864,18700,2018-06-12 16:45:02,19,0,22.795,4695.2520957861,129.59318,0.223694,0.92241800852,0,0,-0.671082,271.1, 0.7, -1.3,0,0,1024,1024,1024,1024,271.5,-90,95,3.781,3.785,3.795,3.806,3.823,3.789,19.058,73.4,14,Waypoint,
37.3533397,-119.5420202,4696.2363477861,130.577432,0,0.297587279864,18800,2018-06-12 16:45:02,19,0,22.795,4696.2363477861,130.577432,0.223694,0.92241800852,0,0,-0.671082,271.1, 0.7, -1,0,0,1024,1024,1024,1024,271.5,-90,95,3.781,3.785,3.795,3.806,3.823,3.789,19.058,73.4,14,Waypoint,
37.3533396,-119.5420201,4696.8925157861,131.2336,0,0.329642399,18900,2018-06-12 16:45:02,19,0,22.795,4696.8925157861,131.2336,0.223694,0.92241800852,0,0,-0.671082,271.2, 0.7, -1,0,0,1024,1024,1024,1024,271.5,-89.9,95,3.781,3.785,3.795,3.806,3.823,3.789,19.058,73.4,14,Waypoint,
37.3533396,-119.5420201,4697.8767677861,132.217852,0,0.329642399,19000,2018-06-12 16:45:02,19,0,22.616,4697.8767677861,132.217852,0.223694,0.92241800852,0,0,-0.671082,271.2, 0.5, -0.9,0,0,1024,1024,1024,1024,271.5,-90,95,3.753,3.759,3.769,3.776,3.789,3.759,20.967,73.4,14,Waypoint,
37.3533395,-119.5420201,4698.8610197861,133.202104,0,0.36600066788,19100,2018-06-12 16:45:02,19,0,22.616,4698.8610197861,133.202104,0.223694,0.92241800852,0,0,-0.671082,271.4, 0.5, -0.9,0,0,1024,1024,1024,1024,271.5,-90,95,3.753,3.759,3.769,3.776,3.789,3.759,20.967,73.4,14,Waypoint,
37.3533395,-119.54202,4699.8452717861,134.186356,0,0.36484909304,19200,2018-06-12 16:45:02,19,0,22.616,4699.8452717861,134.186356,0.223694,0.92241800852,0,0,-0.671082,271.5, 0.4, -0.8,0,0,1024,1024,1024,1024,271.5,-90,95,3.753,3.759,3.769,3.776,3.789,3.759,20.967,73.4,14,Waypoint,
37.3533394,-119.54202,4700.8295237861,135.170608,0,0.40133531468,19300,2018-06-12 16:45:02,19,0,22.616,4700.8295237861,135.170608,0.223694,0.92241800852,0,0,-0.671082,271.6, 0.5, -0.6,0,0,1024,1024,1024,1024,271.5,-89.9,95,3.753,3.759,3.769,3.776,3.789,3.759,20.967,73.4,14,Waypoint,
37.3533394,-119.54202,4701.8137757861,136.15486,0,0.40133531468,19400,2018-06-12 16:45:02,19,0,22.616,4701.8137757861,136.15486,0.223694,0.92241800852,0,0,-0.671082,271.7, 0.5, -0.8,0,0,1024,1024,1024,1024,271.5,-89.9,95,3.753,3.759,3.769,3.776,3.789,3.759,20.967,73.4,14,Waypoint,
37.3533394,-119.5420199,4702.7980277861,137.139112,0,0.40238190264,19500,2018-06-12 16:45:03,19,0,22.616,4702.7980277861,137.139112,0.223694,0.92241800852,0,0,-0.671082,271.7, 0.4, -0.9,0,0,1024,1024,1024,1024,271.5,-90,95,3.753,3.759,3.769,3.776,3.789,3.759,20.967,73.4,14,Waypoint,
37.3533393,-119.5420199,4703.7822797861,138.123364,0,0.4387795416,19600,2018-06-12 16:45:03,19,0,22.616,4703.7822797861,138.123364,0.223694,0.92241800852,0,0,-0.671082,271.6, 0.4, -1,0,0,1024,1024,1024,1024,271.5,-89.9,95,3.753,3.759,3.769,3.776,3.789,3.759,20.967,73.4,14,Waypoint,
37.3533393,-119.5420198,4704.7665317861,139.107616,0,0.44164371492,19700,2018-06-12 16:45:03,19,0,22.616,4704.7665317861,139.107616,0.223694,0.92241800852,0,0,-0.671082,271.6, 0.4, -1.1,0,0,1024,1024,1024,1024,271.5,-90,95,3.753,3.759,3.769,3.776,3.789,3.759,20.967,73.4,14,Waypoint,
37.3533393,-119.5420198,4706.0788677861,140.419952,0,0.44164371492,19800,2018-06-12 16:45:03,19,0,22.616,4706.0788677861,140.419952,0.223694,0.92241800852,0,0,-0.671082,271.6, 0.4, -1.2,0,0,1024,1024,1024,1024,271.5,-90,95,3.753,3.759,3.769,3.776,3.789,3.759,20.967,73.4,14,Waypoint,
37.3533393,-119.5420197,4707.0631197861,141.404204,0,0.44638124788,19900,2018-06-12 16:45:03,19,0,22.616,4707.0631197861,141.404204,0.223694,0.92241800852,0,0,-0.671082,271.5, 0.3, -1.3,0,0,1024,1024,1024,1024,271.5,-90,95,3.753,3.759,3.769,3.776,3.789,3.759,20.967,73.4,14,Waypoint,
37.3533393,-119.5420197,4708.0473717861,142.388456,0,0.44638124788,20000,2018-06-12 16:45:03,19,0,22.605,4708.0473717861,142.388456,0.223694,0.92241800852,0,0,-0.671082,271.4, 0.3, -1.3,0,0,1024,1024,1024,1024,271.5,-90,95,3.752,3.753,3.77,3.775,3.79,3.761,20.452,73.4,14,Waypoint,
37.3533393,-119.5420197,4709.0316237861,143.372708,0,0.44638124788,20100,2018-06-12 16:45:03,19,0,22.605,4709.0316237861,143.372708,0.223694,0.92241800852,0,0,-0.671082,271.3, 0.3, -1.3,0,0,1024,1024,1024,1024,271.5,-90,95,3.752,3.753,3.77,3.775,3.79,3.761,20.452,73.4,14,Waypoint,
37.3533392,-119.5420197,4710.0158757861,144.35696,0,0.4822178632,20200,2018-06-12 16:45:03,19,0,22.605,4710.0158757861,144.35696,0.223694,0.92241800852,0,0,-0.671082,271.3, 0.4, -1.3,0,0,1024,1024,1024,1024,271.5,-90,95,3.752,3.753,3.77,3.775,3.79,3.761,20.452,73.4,14,Waypoint,
37.3533392,-119.5420196,4711.0001277861,145.341212,0,0.48828413636,20300,2018-06-12 16:45:03,19,0,22.605,4711.0001277861,145.341212,0.223694,0.92241800852,0,0,-0.671082,271.4, 0.5, -1.1,0,0,1024,1024,1024,1024,271.5,-89.9,95,3.752,3.753,3.77,3.775,3.79,3.761,20.452,73.4,14,Waypoint,
37.3533392,-119.5420196,4711.9843797861,146.325464,0,0.48828413636,20400,2018-06-12 16:45:03,19,0,22.605,4711.9843797861,146.325464,0.223694,0.92241800852,0,0,-0.671082,271.4, 0.5, -1.2,0,0,1024,1024,1024,1024,271.5,-90,95,3.752,3.753,3.77,3.775,3.79,3.761,20.452,73.4,14,Waypoint,
37.3533391,-119.5420195,4713.9528837861,148.293968,0,0.53097442644,20500,2018-06-12 16:45:04,19,0,22.605,4713.9528837861,148.293968,0.223694,0.92241800852,0,0,-0.671082,271.5, 0.2, -1.1,0,0,1024,1024,1024,1024,271.5,-90,95,3.752,3.753,3.77,3.775,3.79,3.761,20.452,73.4,14,Waypoint,
37.3533391,-119.5420196,4714.9371357861,149.27822,0,0.52379594852,20700,2018-06-12 16:45:04,19,0,22.605,4714.9371357861,149.27822,0.223694,0.92241800852,0,0,-0.671082,271.5, 0.1, -1.2,0,0,1024,1024,1024,1024,271.5,-90,95,3.752,3.753,3.77,3.775,3.79,3.761,20.452,73.4,14,Waypoint,
37.353339,-119.5420195,4717.8898917861,152.230976,0,0.56616143544,20900,2018-06-12 16:45:04,19,0,22.605,4717.8898917861,152.230976,0.223694,0.92241800852,0,0,-0.671082,271.2, 0.1, -1.2,0,0,1024,1024,1024,1024,271.5,-90,95,3.752,3.753,3.77,3.775,3.79,3.761,20.452,73.4,14,Waypoint,
37.353339,-119.5420195,4718.8741437861,153.215228,0,0.56616143544,21100,2018-06-12 16:45:04,19,0,22.605,4718.8741437861,153.215228,0.223694,0.92241800852,0,0,-0.671082,271, 0.2, -1,0,0,1024,1024,1024,1024,271.5,-90,95,3.752,3.753,3.77,3.775,3.79,3.761,20.452,73.4,14,Waypoint,
37.353339,-119.5420196,4719.8583957861,154.19948,0,0.55943571344,21200,2018-06-12 16:45:04,19,0,22.605,4719.8583957861,154.19948,0.223694,0.92241800852,0,0,-0.671082,270.9, 0.5, -0.9,0,0,1024,1024,1024,1024,271.5,-89.9,95,3.752,3.753,3.77,3.775,3.79,3.761,20.452,73.4,14,Waypoint,
37.3533389,-119.5420196,4721.4988157861,155.8399,0,0.59517390356,21400,2018-06-12 16:45:04,19,0,22.605,4721.4988157861,155.8399,0.223694,0.92241800852,0,0,-0.671082,270.8, 1.1, -0.5,0,0,1024,1024,1024,1024,271.5,-89.9,95,3.752,3.753,3.77,3.775,3.79,3.761,20.452,73.4,14,Waypoint,
37.3533389,-119.5420197,4723.4673197861,157.808404,0,0.5902067118,21600,2018-06-12 16:45:05,19,0,22.605,4723.4673197861,157.808404,0.223694,0.92241800852,0,0,-0.671082,271.1, 1.1, -0.6,0,0,1024,1024,1024,1024,271.5,-89.9,95,3.752,3.753,3.77,3.775,3.79,3.761,20.452,73.4,14,Waypoint,
37.3533389,-119.5420197,4724.4515717861,158.792656,0,0.5902067118,21700,2018-06-12 16:45:05,19,0,22.605,4724.4515717861,158.792656,0.223694,0.92241800852,0,0,-0.671082,271.4, 1, -0.7,0,0,1024,1024,1024,1024,271.5,-89.9,95,3.752,3.753,3.77,3.775,3.79,3.761,20.452,73.4,14,Waypoint,
37.3533388,-119.5420197,4725.4358237861,159.776908,0,0.62631563684,21800,2018-06-12 16:45:05,19,0,22.605,4725.4358237861,159.776908,0.223694,0.92241800852,0,0,-0.671082,271.5, 0.9, -0.8,0,0,1024,1024,1024,1024,271.5,-89.9,95,3.752,3.753,3.77,3.775,3.79,3.761,20.452,73.4,14,Waypoint,
37.3533388,-119.5420198,4726.4200757861,160.76116,0,0.622949495,21900,2018-06-12 16:45:05,19,0,22.605,4726.4200757861,160.76116,0.223694,0.92241800852,0,0,-0.671082,271.6, 1, -0.6,0,0,1024,1024,1024,1024,271.5,-89.9,95,3.752,3.753,3.77,3.775,3.79,3.761,20.452,73.4,14,Waypoint,
37.3533388,-119.5420198,4727.4043277861,161.745412,0,0.622949495,22000,2018-06-12 16:45:05,19,0,22.606,4727.4043277861,161.745412,0.223694,0.92241800852,0,0,-0.671082,271.7, 1.1, -0.4,0,0,1024,1024,1024,1024,271.5,-89.9,95,3.753,3.759,3.777,3.784,3.796,3.761,20.343,75.2,14,Waypoint,
37.3533388,-119.5420198,4729.7009157861,164.042,0,0.622949495,22200,2018-06-12 16:45:05,19,0,22.606,4729.7009157861,164.042,0.223694,0.92241800852,0,0,-0.671082,271.8, 1, -0.3,0,0,1024,1024,1024,1024,271.5,-89.9,95,3.753,3.759,3.777,3.784,3.796,3.761,20.343,75.2,14,Waypoint,
37.3533388,-119.5420199,4731.6694197861,166.010504,0,0.62092193588,22400,2018-06-12 16:45:05,19,0,22.606,4731.6694197861,166.010504,0.223694,0.92241800852,0,0,-0.671082,271.8, 1.5, -0.6,0,0,1024,1024,1024,1024,271.5,-89.9,95,3.753,3.759,3.777,3.784,3.796,3.761,20.343,75.2,14,Waypoint,
37.3533389,-119.54202,4733.6379237861,167.979008,0,0.5837598612,22600,2018-06-12 16:45:06,19,0,22.606,4733.6379237861,167.979008,0.223694,0.92241800852,0,0,-0.671082,271.6, 1.4, -1.1,0,0,1024,1024,1024,1024,271.5,-89.9,95,3.753,3.759,3.777,3.784,3.796,3.761,20.343,75.2,14,Waypoint,
37.3533389,-119.5420201,4735.6064277861,169.947512,0,0.58447836516,22700,2018-06-12 16:45:06,19,0,22.606,4735.6064277861,169.947512,0.223694,0.92241800852,0,0,-0.671082,271.5, 1.3, -1.2,0,0,1024,1024,1024,1024,271.5,-89.9,95,3.753,3.759,3.777,3.784,3.796,3.761,20.343,75.2,14,Waypoint,
37.3533389,-119.5420202,4737.5749317861,171.916016,0,0.58663387704,22900,2018-06-12 16:45:06,19,0,22.606,4737.5749317861,171.916016,0.223694,0.92241800852,0,0,-0.671082,271.4, 1.3, -1.1,0,0,1024,1024,1024,1024,271.5,-89.9,95,3.753,3.759,3.777,3.784,3.796,3.761,20.343,75.2,14,Waypoint,
37.3533389,-119.5420202,4737.5749317861,171.916016,0,0.58663387704,23000,2018-06-12 16:45:06,19,0,22.647,4737.5749317861,171.916016,0.223694,0.92241800852,0,0,-0.671082,271.4, 1.3, -1.1,0,0,1024,1024,1024,1024,271.5,-89.9,95,3.746,3.747,3.776,3.784,3.8,3.755,19.57,75.2,14,Waypoint,
37.3533389,-119.5420203,4739.5434357861,173.88452,0,0.5902067118,23200,2018-06-12 16:45:06,19,0,22.647,4739.5434357861,173.88452,0.223694,0.92241800852,0,0,-0.671082,271.4, 1.4, -0.9,0,0,1024,1024,1024,1024,271.5,-89.9,95,3.746,3.747,3.776,3.784,3.8,3.755,19.57,75.2,14,Waypoint,
37.3533389,-119.5420203,4740.5276877861,174.868772,0,0.5902067118,23300,2018-06-12 16:45:06,19,0,22.647,4740.5276877861,174.868772,0.223694,0.92241800852,0,0,-0.671082,271.4, 1.4, -0.9,0,0,1024,1024,1024,1024,271.5,-89.9,95,3.746,3.747,3.776,3.784,3.8,3.755,19.57,75.2,14,Waypoint,
37.353339,-119.5420203,4741.5119397861,175.853024,0,0.55414699936,23400,2018-06-12 16:45:06,19,0,22.647,4741.5119397861,175.853024,0.223694,0.92241800852,0,0,-0.671082,271.5, 1.5, -1,0,0,1024,1024,1024,1024,271.5,-89.9,95,3.746,3.747,3.776,3.784,3.8,3.755,19.57,75.2,14,Waypoint,
37.353339,-119.5420204,4742.4961917861,176.837276,0,0.55943571344,23500,2018-06-12 16:45:07,19,0,22.647,4742.4961917861,176.837276,0.223694,0.92241800852,0,0,-0.671082,271.5, 1.5, -1.2,0,0,1024,1024,1024,1024,271.5,-89.9,95,3.746,3.747,3.776,3.784,3.8,3.755,19.57,75.2,14,Waypoint,
37.353339,-119.5420204,4743.4804437861,177.821528,0,0.55943571344,23600,2018-06-12 16:45:07,19,0,22.647,4743.4804437861,177.821528,0.223694,0.92241800852,0,0,-0.671082,271.5, 1.6, -1.1,0,0,1024,1024,1024,1024,271.5,-89.9,95,3.746,3.747,3.776,3.784,3.8,3.755,19.57,75.2,14,Waypoint,
37.353339,-119.5420204,4744.4646957861,178.80578,0,0.55943571344,23700,2018-06-12 16:45:07,19,0,22.647,4744.4646957861,178.80578,0.223694,0.92241800852,0,0,-0.671082,271.5, 1.6, -1,0,0,1024,1024,1024,1024,271.5,-89.9,95,3.746,3.747,3.776,3.784,3.8,3.755,19.57,75.2,14,Waypoint,
37.353339,-119.5420204,4745.4489477861,179.790032,0,0.55943571344,23800,2018-06-12 16:45:07,19,0,22.647,4745.4489477861,179.790032,0.223694,0.92241800852,0,0,-0.671082,271.4, 1.5, -1.1,0,0,1024,1024,1024,1024,271.5,-89.9,95,3.746,3.747,3.776,3.784,3.8,3.755,19.57,75.2,14,Waypoint,
37.353339,-119.5420204,4746.4331997861,180.774284,0,0.55943571344,23900,2018-06-12 16:45:07,19,0,22.647,4746.4331997861,180.774284,0.223694,0.92241800852,0,0,-0.671082,271.4, 1.4, -1.2,0,0,1024,1024,1024,1024,271.5,-89.9,95,3.746,3.747,3.776,3.784,3.8,3.755,19.57,75.2,14,Waypoint,
37.353339,-119.5420204,4747.4174517861,181.758536,0,0.55943571344,24000,2018-06-12 16:45:07,19,0,22.588,4747.4174517861,181.758536,0.223694,0.92241800852,0,0,-0.671082,271.4, 1.3, -1.2,0,0,1024,1024,1024,1024,271.5,-89.9,95,3.751,3.764,3.772,3.78,3.789,3.767,20.098,75.2,14,Waypoint,
37.353339,-119.5420204,4748.4017037861,182.742788,0,0.55943571344,24100,2018-06-12 16:45:07,19,0,22.588,4748.4017037861,182.742788,0.223694,0.92241800852,0,0,-0.671082,271.4, 1.3, -1.2,0,0,1024,1024,1024,1024,271.5,-89.9,95,3.751,3.764,3.772,3.78,3.789,3.767,20.098,75.2,14,Waypoint,
37.353339,-119.5420204,4750.3702077861,184.711292,0,0.55943571344,24300,2018-06-12 16:45:07,19,0,22.588,4750.3702077861,184.711292,0.223694,0.92241800852,0,0,-0.671082,271.4, 1.1, -0.9,0,0,1024,1024,1024,1024,271.5,-89.9,95,3.751,3.764,3.772,3.78,3.789,3.767,20.098,75.2,14,Waypoint,
37.353339,-119.5420204,4751.3544597861,185.695544,0,0.55943571344,24400,2018-06-12 16:45:07,19,0,22.588,4751.3544597861,185.695544,0.223694,0.92241800852,0,0,-0.671082,271.4, 1.1, -0.7,0,0,1024,1024,1024,1024,271.5,-89.9,95,3.751,3.764,3.772,3.78,3.789,3.767,20.098,75.2,14,Waypoint,
37.353339,-119.5420203,4752.0106277861,186.351712,0,0.55414699936,24500,2018-06-12 16:45:08,19,0,22.588,4752.0106277861,186.351712,0.223694,0.92241800852,0,0,-0.671082,271.4, 1.1, -0.6,0,0,1024,1024,1024,1024,271.5,-89.9,95,3.751,3.764,3.772,3.78,3.789,3.767,20.098,75.2,14,Waypoint,
37.353339,-119.5420203,4752.9948797861,187.335964,0,0.55414699936,24600,2018-06-12 16:45:08,19,0,22.588,4752.9948797861,187.335964,0.223694,0.92241800852,0,0,-0.671082,271.5, 1.1, -0.4,0,0,1024,1024,1024,1024,271.5,-89.9,95,3.751,3.764,3.772,3.78,3.789,3.767,20.098,75.2,14,Waypoint,
37.353339,-119.5420202,4754.3072157861,188.6483,0,0.55033794412,24700,2018-06-12 16:45:08,19,0,22.588,4754.3072157861,188.6483,0.223694,0.92241800852,0,0,-0.671082,271.5, 1, -0.4,0,0,1024,1024,1024,1024,271.5,-89.9,95,3.751,3.764,3.772,3.78,3.789,3.767,20.098,75.2,14,Waypoint,
37.353339,-119.5420202,4755.2914677861,189.632552,0,0.55033794412,24800,2018-06-12 16:45:08,19,0,22.588,4755.2914677861,189.632552,0.223694,0.92241800852,0,0,-0.671082,271.5, 1, -0.6,0,0,1024,1024,1024,1024,271.5,-89.9,95,3.751,3.764,3.772,3.78,3.789,3.767,20.098,75.2,14,Waypoint,
37.353339,-119.5420202,4756.2757197861,190.616804,0,0.55033794412,24900,2018-06-12 16:45:08,19,0,22.588,4756.2757197861,190.616804,0.223694,0.92241800852,0,0,-0.671082,271.5, 1, -0.9,0,0,1024,1024,1024,1024,271.5,-89.9,95,3.751,3.764,3.772,3.78,3.789,3.767,20.098,75.2,14,Waypoint,
37.353339,-119.5420202,4757.2599717861,191.601056,0,0.55033794412,25000,2018-06-12 16:45:08,19,0,22.652,4757.2599717861,191.601056,0.223694,0.92241800852,0,0,-0.671082,271.5, 1.1, -0.8,0,0,1024,1024,1024,1024,271.5,-89.9,95,3.748,3.757,3.766,3.778,3.8,3.757,19.337,75.2,14,Waypoint,
37.353339,-119.5420201,4758.2442237861,192.585308,0,0.54804135612,25100,2018-06-12 16:45:08,19,0,22.652,4758.2442237861,192.585308,0.223694,0.92241800852,0,0,-0.671082,271.4, 1.1, -0.7,0,0,1024,1024,1024,1024,271.5,-89.9,95,3.748,3.757,3.766,3.778,3.8,3.757,19.337,75.2,14,Waypoint,
37.353339,-119.5420201,4759.2284757861,193.56956,0,0.54804135612,25200,2018-06-12 16:45:08,19,0,22.652,4759.2284757861,193.56956,0.223694,0.92241800852,0,0,-0.671082,271.4, 1.1, -0.7,0,0,1024,1024,1024,1024,271.5,-89.9,95,3.748,3.757,3.766,3.778,3.8,3.757,19.337,75.2,14,Waypoint,
37.353339,-119.5420201,4760.2127277861,194.553812,0,0.54804135612,25300,2018-06-12 16:45:08,19,0,22.652,4760.2127277861,194.553812,0.223694,0.92241800852,0,0,-0.671082,271.4, 1, -1,0,0,1024,1024,1024,1024,271.5,-89.9,95,3.748,3.757,3.766,3.778,3.8,3.757,19.337,75.2,14,Waypoint,
37.3533389,-119.5420201,4761.1969797861,195.538064,0,0.58447836516,25400,2018-06-12 16:45:08,19,0,22.652,4761.1969797861,195.538064,0.223694,0.92241800852,0,0,-0.671082,271.4, 1, -0.9,0,0,1024,1024,1024,1024,271.5,-89.9,95,3.748,3.757,3.766,3.778,3.8,3.757,19.337,75.2,14,Waypoint,
37.353339,-119.5420201,4762.1812317861,196.522316,0,0.54804135612,25500,2018-06-12 16:45:09,19,0,22.652,4762.1812317861,196.522316,0.223694,0.92241800852,0,0,-0.671082,271.4, 1.2, -0.8,0,0,1024,1024,1024,1024,271.5,-89.9,95,3.748,3.757,3.766,3.778,3.8,3.757,19.337,75.2,14,Waypoint,
37.353339,-119.54202,4763.1654837861,197.506568,0,0.54727363956,25600,2018-06-12 16:45:09,19,0,22.652,4763.1654837861,197.506568,0.223694,0.92241800852,0,0,-0.671082,271.4, 1.3, -0.9,0,0,1024,1024,1024,1024,271.5,-89.9,95,3.748,3.757,3.766,3.778,3.8,3.757,19.337,75.2,14,Waypoint,
37.353339,-119.54202,4764.4778197861,198.818904,0,0.54727363956,25700,2018-06-12 16:45:09,19,0,22.652,4764.4778197861,198.818904,0.223694,0.92241800852,0,0,-0.671082,271.3, 1.3, -0.9,0,0,1024,1024,1024,1024,271.5,-89.9,95,3.748,3.757,3.766,3.778,3.8,3.757,19.337,75.2,14,Waypoint,
37.353339,-119.5420199,4765.4620717861,199.803156,0,0.54804135612,25800,2018-06-12 16:45:09,19,0,22.652,4765.4620717861,199.803156,0.223694,0.92241800852,0,0,-0.671082,271.2, 1.1, -0.7,0,0,1024,1024,1024,1024,271.5,-89.9,95,3.748,3.757,3.766,3.778,3.8,3.757,19.337,75.2,14,Waypoint,
37.353339,-119.5420198,4767.4305757861,201.77166,0,0.55033794412,25900,2018-06-12 16:45:09,19,0,22.652,4767.4305757861,201.77166,0.223694,0.92241800852,0,0,-0.671082,271.2, 0.7, -0.9,0,0,1024,1024,1024,1024,271.5,-89.9,95,3.748,3.757,3.766,3.778,3.8,3.757,19.337,75.2,14,Waypoint,
37.353339,-119.5420196,4769.3990797861,203.740164,0,0.55943571344,26110,2018-06-12 16:45:09,19,0,22.652,4769.3990797861,203.740164,0.223694,0.92241800852,0,0,-0.671082,271.4, 0.2, -1,0,0,1024,1024,1024,1024,271.5,-90,95,3.748,3.757,3.766,3.778,3.8,3.757,19.337,75.2,14,Waypoint,
37.353339,-119.5420196,4769.3990797861,203.740164,0,0.55943571344,26200,2018-06-12 16:45:09,19,0,22.652,4769.3990797861,203.740164,0.223694,0.92241800852,0,0,-0.671082,271.4, 0.2, -1,0,0,1024,1024,1024,1024,271.5,-90,95,3.748,3.757,3.766,3.778,3.8,3.757,19.337,75.2,14,Waypoint,
37.3533389,-119.5420195,4771.3675837861,205.708668,0,0.60149936308,26300,2018-06-12 16:45:09,19,0,22.652,4771.3675837861,205.708668,0.223694,0.92241800852,0,0,-0.671082,271.5, 0.4, -0.8,0,0,1024,1024,1024,1024,271.5,-90,95,3.748,3.757,3.766,3.778,3.8,3.757,19.337,75.2,14,Waypoint,
37.353339,-119.5420194,4772.3518357861,206.69292,0,0.57427167192,26400,2018-06-12 16:45:09,19,0,22.652,4772.3518357861,206.69292,0.223694,0.92241800852,0,0,-0.671082,271.6, 0.3, -0.7,0,0,1024,1024,1024,1024,271.5,-90,95,3.748,3.757,3.766,3.778,3.8,3.757,19.337,75.2,14,Waypoint,
37.353339,-119.5420194,4773.3360877861,207.677172,0,0.57427167192,26500,2018-06-12 16:45:10,19,0,22.652,4773.3360877861,207.677172,0.223694,0.92241800852,0,0,-0.671082,271.6, 0.1, -1,0,0,1024,1024,1024,1024,271.5,-90,95,3.748,3.757,3.766,3.778,3.8,3.757,19.337,75.2,14,Waypoint,
37.353339,-119.5420193,4775.3045917861,209.645676,0,0.58371721028,26700,2018-06-12 16:45:10,19,0,22.652,4775.3045917861,209.645676,0.223694,0.92241800852,0,0,-0.671082,271.6, 0.1, -1.5,0,0,1024,1024,1024,1024,271.5,-90,95,3.748,3.757,3.766,3.778,3.8,3.757,19.337,75.2,14,Waypoint,
37.353339,-119.5420192,4776.2888437861,210.629928,0,0.59442587204,26900,2018-06-12 16:45:10,19,0,22.652,4776.2888437861,210.629928,0.223694,0.92241800852,0,0,-0.671082,271.6, 0.1, -1.4,0,0,1024,1024,1024,1024,271.5,-90,95,3.748,3.757,3.766,3.778,3.8,3.757,19.337,75.2,14,Waypoint,
37.353339,-119.5420192,4777.2730957861,211.61418,0,0.59442587204,27000,2018-06-12 16:45:10,19,0,22.52,4777.2730957861,211.61418,0.223694,0.92241800852,0,0,-0.671082,271.7, 0, -1.2,0,0,1024,1024,1024,1024,271.5,-90,94,3.738,3.742,3.758,3.763,3.779,3.745,20.583,75.2,14,Waypoint,
37.353339,-119.5420191,4778.2573477861,212.598432,0,0.6063320404,27110,2018-06-12 16:45:10,19,0,22.52,4778.2573477861,212.598432,0.223694,0.92241800852,0,0,-0.671082,271.8, 0, -1.2,0,0,1024,1024,1024,1024,271.5,-90,94,3.738,3.742,3.758,3.763,3.779,3.745,20.583,75.2,14,Waypoint,
37.353339,-119.5420191,4779.2415997861,213.582684,0,0.6063320404,27200,2018-06-12 16:45:10,19,0,22.52,4779.2415997861,213.582684,0.223694,0.92241800852,0,0,-0.671082,271.9, -0.1, -1.1,0,0,1024,1024,1024,1024,271.5,-90,94,3.738,3.742,3.758,3.763,3.779,3.745,20.583,75.2,14,Waypoint,
37.3533389,-119.542019,4780.2258517861,214.566936,0,0.65183401036,27300,2018-06-12 16:45:10,19,0,22.52,4780.2258517861,214.566936,0.223694,0.92241800852,0,0,-0.671082,271.9, -0.1, -0.9,0,0,1024,1024,1024,1024,271.5,-90,94,3.738,3.742,3.758,3.763,3.779,3.745,20.583,75.2,14,Waypoint,
