latitude,longitude,altitude(feet),ascent(feet),speed(mph),distance(feet),time(millisecond),datetime(utc),satellites,gpslevel,voltage(v),max_altitude(feet),max_ascent(feet),max_speed(mph),max_distance(feet), xSpeed(mph), ySpeed(mph), zSpeed(mph), compass_heading(degrees), pitch(degrees), roll(degrees),isPhoto,isVideo,rc_elevator,rc_aileron,rc_throttle,rc_rudder,gimbal_heading(degrees),gimbal_pitch(degrees),battery_percent,voltageCell1,voltageCell2,voltageCell3,voltageCell4,voltageCell5,voltageCell6,current(A),battery_temperature(f),flycStateRaw,flycState,message
37.3533272,-119.5420296,4565.6200676878,0,0,0,3100,2018-06-12 17:18:39,17,0,0,4565.6200676878,0,0,0,0,0,0,267.5, 1.3, -0.3,1,0,1024,1024,1024,1024,265.9,-89.9,98,4.221,4.24,4.216,4.221,4.226,4.176,0,71.6,11,AutoTakeoff,DJI_0708.jpg Starting Mission from Lat/Long: 37.35333/-119.54203 Camera: Zenmuse X3 - Overlap: 90/90 - Active Connection: No
37.3533273,-119.5420295,4565.6200676878,0,0,0.04660761304,3200,2018-06-12 17:18:39,17,0,0,4565.6200676878,0,0,0.04660761304,0,0,0,267.7, 1, -0.9,0,0,1024,1024,1024,1024,265.9,-89.9,98,4.221,4.24,4.216,4.221,4.226,4.176,0,71.6,11,AutoTakeoff,
37.3533272,-119.5420294,4565.6200676878,0,0,0.058004266948,3300,2018-06-12 17:18:39,17,0,0,4565.6200676878,0,0,0.058004266948,0,0,0,267.8, 0.4, -0.5,0,0,1024,1024,1024,1024,266,-89.9,98,4.221,4.24,4.216,4.221,4.226,4.176,0,71.6,11,AutoTakeoff,
37.3533272,-119.5420293,4565.6200676878,0,0,0.087006564464,3400,2018-06-12 17:18:39,17,0,0,4565.6200676878,0,0,0.087006564464,0,0,0,267.8, -0.1, -0.2,0,0,1024,1024,1024,1024,266,-90,98,4.221,4.24,4.216,4.221,4.226,4.176,0,71.6,11,AutoTakeoff,
37.3533271,-119.5420292,4565.9481516878,0.328084,0,0.12161089628,3500,2018-06-12 17:18:40,17,0,0,4565.9481516878,0.328084,0,0.12161089628,0,0,0,267.8, -0.5, 0.3,0,0,1024,1024,1024,1024,266,-90,98,4.221,4.24,4.216,4.221,4.226,4.176,0,71.6,11,AutoTakeoff,
37.3533271,-119.5420291,4565.9481516878,0.328084,0,0.149530516596,3600,2018-06-12 17:18:40,17,0,0,4565.9481516878,0.328084,0,0.149530516596,0,0,0,267.9, -0.5, 0.6,0,0,1024,1024,1024,1024,266,-90,98,4.221,4.24,4.216,4.221,4.226,4.176,0,71.6,11,AutoTakeoff,
37.353327,-119.542029,4566.2762356878,0.656168,0,0.188693575592,3700,2018-06-12 17:18:40,17,0,0,4566.2762356878,0.656168,0,0.188693575592,0,0,0,267.9, -0.7, 0.7,0,0,1024,1024,1024,1024,266.1,-89.9,98,4.221,4.24,4.216,4.221,4.226,4.176,0,71.6,11,AutoTakeoff,
37.353327,-119.5420289,4566.2762356878,0.656168,0,0.215730978032,3800,2018-06-12 17:18:40,17,0,0,4566.2762356878,0.656168,0,0.215730978032,0,0,0,268, -0.5, 0.8,0,0,1024,1024,1024,1024,266.1,-89.9,98,4.221,4.24,4.216,4.221,4.226,4.176,0,71.6,11,AutoTakeoff,
37.3533269,-119.5420289,4566.6043196878,0.984252,0,0.230641739664,3900,2018-06-12 17:18:40,17,0,0,4566.6043196878,0.984252,0,0.230641739664,0,0,0,267.9, -0.4, 0.6,0,0,1024,1024,1024,1024,266.1,-89.9,98,4.221,4.24,4.216,4.221,4.226,4.176,0,71.6,11,AutoTakeoff,
37.3533269,-119.5420288,4566.6043196878,0.984252,0,0.256539706372,4000,2018-06-12 17:18:40,18,0,25.02,4566.6043196878,0.984252,0,0.256539706372,0,0,0,267.8, -0.1, 0.6,0,0,1024,1024,1024,1024,266.1,-89.9,98,4.221,4.24,4.216,4.221,4.226,4.176,6.138,71.6,11,AutoTakeoff,
37.3533269,-119.5420287,4566.6043196878,0.984252,0,0.283040363388,4100,2018-06-12 17:18:40,18,0,25.02,4566.6043196878,0.984252,0,0.283040363388,0,0,0,267.6, 0, 0.7,0,0,1024,1024,1024,1024,266.2,-89.9,98,4.221,4.24,4.216,4.221,4.226,4.176,6.138,71.6,11,AutoTakeoff,
37.3533269,-119.5420286,4566.9324036878,1.312336,0,0.309988855064,4200,2018-06-12 17:18:40,18,0,25.02,4566.9324036878,1.312336,0,0.309988855064,0,0,0,267.5, -0.2, 0.6,0,0,1024,1024,1024,1024,266.2,-90,98,4.221,4.24,4.216,4.221,4.226,4.176,6.138,71.6,11,AutoTakeoff,
37.3533269,-119.5420285,4566.9324036878,1.312336,0,0.33728019452,4300,2018-06-12 17:18:40,18,0,25.02,4566.9324036878,1.312336,0,0.33728019452,0,0,0,267.5, -0.6, 0.3,0,0,1024,1024,1024,1024,266.2,-90,98,4.221,4.24,4.216,4.221,4.226,4.176,6.138,71.6,11,AutoTakeoff,
37.3533269,-119.5420285,4567.2604876878,1.64042,0,0.33728019452,4400,2018-06-12 17:18:40,18,0,25.02,4567.2604876878,1.64042,0,0.33728019452,0,0,-0.223694,267.5, -0.8, 0.1,0,0,1024,1024,1024,1024,266.2,-90,98,4.221,4.24,4.216,4.221,4.226,4.176,6.138,71.6,11,AutoTakeoff,
37.3533269,-119.5420285,4567.5885716878,1.968504,0,0.33728019452,4500,2018-06-12 17:18:41,18,0,25.02,4567.5885716878,1.968504,0,0.33728019452,0,0,-0.223694,267.6, -0.9, 0,0,0,1024,1024,1024,1024,266.2,-89.9,98,4.221,4.24,4.216,4.221,4.226,4.176,6.138,71.6,11,AutoTakeoff,
37.3533269,-119.5420284,4567.5885716878,1.968504,0,0.36483268884,4600,2018-06-12 17:18:41,18,0,25.02,4567.5885716878,1.968504,0,0.36483268884,0,0,0,267.6, -0.9, 0,0,0,1024,1024,1024,1024,266.2,-90,98,4.221,4.24,4.216,4.221,4.226,4.176,6.138,71.6,11,AutoTakeoff,
37.3533268,-119.5420282,4567.9166556878,2.296588,0,0.4314632684,4800,2018-06-12 17:18:41,18,0,25.02,4567.9166556878,2.296588,0,0.4314632684,0,0,0,267.9, -1, 0.2,0,0,1024,1024,1024,1024,266.3,-90,98,4.221,4.24,4.216,4.221,4.226,4.176,6.138,71.6,11,AutoTakeoff,
37.3533268,-119.5420282,4568.2447396878,2.624672,0,0.4314632684,4900,2018-06-12 17:18:41,18,0,25.02,4568.2447396878,2.624672,0,0.4314632684,0,0,0,268, -1.1, 0.3,0,0,1024,1024,1024,1024,266.3,-90,98,4.221,4.24,4.216,4.221,4.226,4.176,6.138,71.6,11,AutoTakeoff,
37.3533268,-119.5420282,4568.5728236878,2.952756,0,0.4314632684,5100,2018-06-12 17:18:41,17,0,25.02,4568.5728236878,2.952756,0,0.4314632684,0,0,0,267.7, -1, 0.4,0,0,1024,1024,1024,1024,266.3,-90,98,4.221,4.24,4.216,4.221,4.226,4.176,6.138,71.6,6,P-GPS,
37.3533267,-119.5420282,4568.9009076878,3.28084,0,0.445127967,5300,2018-06-12 17:18:41,17,0,25.02,4568.9009076878,3.28084,0,0.445127967,0,0,0,267.2, -0.2, 0.5,0,0,1024,1024,1024,1024,266.3,-89.9,98,4.221,4.24,4.216,4.221,4.226,4.176,6.138,71.6,14,Waypoint,
37.3533267,-119.5420282,4568.9009076878,3.28084,0,0.445127967,5400,2018-06-12 17:18:41,17,0,25.02,4568.9009076878,3.28084,0,0.445127967,0,0,0,267.1, 0, 0.3,0,0,1024,1024,1024,1024,266.3,-89.9,98,4.221,4.24,4.216,4.221,4.226,4.176,6.138,71.6,14,Waypoint,
37.3533267,-119.5420282,4568.9009076878,3.28084,0,0.445127967,5500,2018-06-12 17:18:42,17,0,25.02,4568.9009076878,3.28084,0,0.445127967,0,0,0,267, -0.1, 0.2,0,0,1024,1024,1024,1024,266.3,-89.9,98,4.221,4.24,4.216,4.221,4.226,4.176,6.138,71.6,14,Waypoint,
37.3533267,-119.5420282,4569.2289916878,3.608924,0,0.445127967,5600,2018-06-12 17:18:42,17,0,25.02,4569.2289916878,3.608924,0,0.445127967,0,0,0,267, -0.2, 0.2,0,0,1024,1024,1024,1024,266.3,-89.9,98,4.221,4.24,4.216,4.221,4.226,4.176,6.138,71.6,14,Waypoint,
37.3533267,-119.5420281,4569.2289916878,3.608924,0,0.47173229856,5700,2018-06-12 17:18:42,17,0,25.02,4569.2289916878,3.608924,0,0.47173229856,0,0,-0.223694,267.2, -0.4, 0.2,0,0,1024,1024,1024,1024,266.3,-89.9,98,4.221,4.24,4.216,4.221,4.226,4.176,6.138,71.6,14,Waypoint,
37.3533266,-119.5420281,4569.5570756878,3.937008,0,0.4870078896,5800,2018-06-12 17:18:42,17,0,25.02,4569.5570756878,3.937008,0,0.4870078896,0,0,-0.223694,267.4, -0.6, 0,0,0,1024,1024,1024,1024,266.3,-90,98,4.221,4.24,4.216,4.221,4.226,4.176,6.138,71.6,14,Waypoint,
37.3533265,-119.542028,4569.8851596878,4.265092,0,0.5296752138,5900,2018-06-12 17:18:42,17,0,25.02,4569.8851596878,4.265092,0,0.5296752138,0,0,-0.223694,267.7, -0.6, 0.2,0,0,1024,1024,1024,1024,266.3,-89.9,98,4.221,4.24,4.216,4.221,4.226,4.176,6.138,71.6,14,Waypoint,
37.3533264,-119.5420279,4570.2132436878,4.593176,0,0.57295605508,6000,2018-06-12 17:18:42,17,0,24.106,4570.2132436878,4.593176,0,0.57295605508,0,0,-0.223694,267.8, -0.9, 0.8,0,0,1024,1024,1024,1024,266.4,-90,98,4.035,3.983,3.99,4.003,4.015,4.016,16.627,71.6,14,Waypoint,
37.3533263,-119.5420278,4570.5413276878,4.92126,0,0.61672574152,6100,2018-06-12 17:18:42,17,0,24.106,4570.5413276878,4.92126,0,0.61672574152,0,0,-0.223694,267.9, -1, 1.1,0,0,1024,1024,1024,1024,266.4,-90,98,4.035,3.983,3.99,4.003,4.015,4.016,16.627,71.6,14,Waypoint,
37.3533263,-119.5420278,4571.1974956878,5.577428,0,0.61672574152,6200,2018-06-12 17:18:42,17,0,24.106,4571.1974956878,5.577428,0,0.61672574152,0,0,-0.223694,267.8, -1.1, 1,0,0,1024,1024,1024,1024,266.4,-90,98,4.035,3.983,3.99,4.003,4.015,4.016,16.627,71.6,14,Waypoint,
37.3533262,-119.5420277,4571.5255796878,5.905512,0,0.66087928624,6300,2018-06-12 17:18:42,17,0,24.106,4571.5255796878,5.905512,0,0.66087928624,0,0,-0.447388,267.6, -1.1, 1.3,0,0,1024,1024,1024,1024,266.4,-90,98,4.035,3.983,3.99,4.003,4.015,4.016,16.627,71.6,14,Waypoint,
37.3533261,-119.5420276,4572.1817476878,6.56168,0,0.70535107244,6400,2018-06-12 17:18:42,17,0,24.106,4572.1817476878,6.56168,0,0.70535107244,0,0,-0.447388,267.2, -1.2, 1.8,0,0,1024,1024,1024,1024,266.4,-90,98,4.035,3.983,3.99,4.003,4.015,4.016,16.627,71.6,14,Waypoint,
37.353326,-119.5420275,4573.1659996878,7.545932,0,0.750082045,6500,2018-06-12 17:18:43,17,0,24.106,4573.1659996878,7.545932,0,0.750082045,0,0,-0.447388,266.8, -1.2, 2.1,0,0,1024,1024,1024,1024,266.5,-90,98,4.035,3.983,3.99,4.003,4.015,4.016,16.627,71.6,14,Waypoint,
37.3533259,-119.5420275,4573.8221676878,8.2021,0,0.77194556276,6600,2018-06-12 17:18:43,17,0,24.106,4573.8221676878,8.2021,0,0.77194556276,0,0,-0.447388,266.5, -1.2, 2.1,0,0,1024,1024,1024,1024,266.5,-90,98,4.035,3.983,3.99,4.003,4.015,4.016,16.627,71.6,14,Waypoint,
37.3533258,-119.5420274,4574.8064196878,9.186352,0,0.81731957996,6700,2018-06-12 17:18:43,17,0,24.106,4574.8064196878,9.186352,0,0.81731957996,0,0,-0.671082,266.4, -1.2, 1.9,0,0,1024,1024,1024,1024,266.5,-89.9,98,4.035,3.983,3.99,4.003,4.015,4.016,16.627,71.6,14,Waypoint,
37.3533258,-119.5420274,4575.7906716878,10.170604,0,0.81731957996,6800,2018-06-12 17:18:43,17,0,24.106,4575.7906716878,10.170604,0,0.81731957996,0,0,-0.671082,266.3, -1, 1.5,0,0,1024,1024,1024,1024,266.5,-89.9,98,4.035,3.983,3.99,4.003,4.015,4.016,16.627,71.6,14,Waypoint,
37.3533257,-119.5420274,4576.7749236878,11.154856,0,0.84060370144,6900,2018-06-12 17:18:43,17,0,24.106,4576.7749236878,11.154856,0,0.84060370144,0,0,-0.671082,266.5, -0.8, 1.4,0,0,1024,1024,1024,1024,266.5,-89.9,98,4.035,3.983,3.99,4.003,4.015,4.016,16.627,71.6,14,Waypoint,
37.3533257,-119.5420273,4577.7591756878,12.139108,0,0.86282483076,7010,2018-06-12 17:18:43,17,0,23.865,4577.7591756878,12.139108,0,0.86282483076,0,0,-0.671082,266.7, -0.7, 1.4,0,0,1024,1024,1024,1024,266.5,-89.9,98,3.997,3.96,3.962,3.969,3.989,3.98,16.968,71.6,14,Waypoint,
37.3533257,-119.5420273,4578.7434276878,13.12336,0,0.86282483076,7100,2018-06-12 17:18:43,17,0,23.865,4578.7434276878,13.12336,0,0.86282483076,0,0,-0.671082,267, -0.6, 1.3,0,0,1024,1024,1024,1024,266.6,-89.9,98,3.997,3.96,3.962,3.969,3.989,3.98,16.968,71.6,14,Waypoint,
37.3533257,-119.5420272,4579.7276796878,14.107612,0,0.88543638004,7200,2018-06-12 17:18:43,17,0,23.865,4579.7276796878,14.107612,0,0.88543638004,0,0,-0.671082,267.4, -0.7, 0.9,0,0,1024,1024,1024,1024,266.6,-89.9,98,3.997,3.96,3.962,3.969,3.989,3.98,16.968,71.6,14,Waypoint,
37.3533258,-119.5420272,4580.7119316878,15.091864,0,0.86336288852,7300,2018-06-12 17:18:43,17,0,23.865,4580.7119316878,15.091864,0,0.88543638004,0,0,-0.671082,267.8, -0.7, 0.3,0,0,1024,1024,1024,1024,266.6,-89.9,98,3.997,3.96,3.962,3.969,3.989,3.98,16.968,71.6,14,Waypoint,
37.3533258,-119.5420273,4582.0242676878,16.4042,0,0.8401575072,7500,2018-06-12 17:18:44,17,0,23.865,4582.0242676878,16.4042,0,0.88543638004,0,0,-0.671082,268.1, -0.7, 0,0,0,1024,1024,1024,1024,266.6,-89.9,98,3.997,3.96,3.962,3.969,3.989,3.98,16.968,71.6,14,Waypoint,
37.3533259,-119.5420274,4584.9770236878,19.356956,0,0.795029553,7600,2018-06-12 17:18:44,17,0,23.865,4584.9770236878,19.356956,0,0.88543638004,0,0,-0.671082,268.3, -0.6, 0,0,0,1024,1024,1024,1024,266.6,-89.9,98,3.997,3.96,3.962,3.969,3.989,3.98,16.968,71.6,14,Waypoint,
37.3533259,-119.5420275,4587.2736116878,21.653544,0,0.77194556276,7900,2018-06-12 17:18:44,17,0,23.865,4587.2736116878,21.653544,0,0.88543638004,0,0,-0.671082,268.1, -0.2, 0,0,0,1024,1024,1024,1024,266.6,-89.9,98,3.997,3.96,3.962,3.969,3.989,3.98,16.968,71.6,14,Waypoint,
37.3533259,-119.5420276,4588.2578636878,22.637796,0,0.7492782392,8000,2018-06-12 17:18:44,18,0,23.546,4588.2578636878,22.637796,0,0.88543638004,0,0,-0.671082,267.9, -0.1, 0,0,0,1024,1024,1024,1024,266.6,-89.9,98,3.936,3.9,3.916,3.904,3.907,3.925,19.273,71.6,14,Waypoint,
37.3533259,-119.5420277,4589.5701996878,23.950132,0,0.72705710988,8100,2018-06-12 17:18:44,18,0,23.546,4589.5701996878,23.950132,0,0.88543638004,0,0,-0.671082,267.7, 0, 0.1,0,0,1024,1024,1024,1024,266.6,-89.9,98,3.936,3.9,3.916,3.904,3.907,3.925,19.273,71.6,14,Waypoint,
37.353326,-119.5420278,4590.5544516878,24.934384,0,0.6813320428,8200,2018-06-12 17:18:44,18,0,23.546,4590.5544516878,24.934384,0,0.88543638004,0,0,-0.671082,267.4, 0, 0.2,0,0,1024,1024,1024,1024,266.6,-89.9,98,3.936,3.9,3.916,3.904,3.907,3.925,19.273,71.6,14,Waypoint,
37.353326,-119.5420278,4591.5387036878,25.918636,0,0.6813320428,8300,2018-06-12 17:18:44,18,0,23.546,4591.5387036878,25.918636,0,0.88543638004,0,0,-0.671082,267.3, 0.1, 0.1,0,0,1024,1024,1024,1024,266.6,-89.9,98,3.936,3.9,3.916,3.904,3.907,3.925,19.273,71.6,14,Waypoint,
37.353326,-119.5420279,4592.5229556878,26.902888,0,0.65937338068,8400,2018-06-12 17:18:44,18,0,23.546,4592.5229556878,26.902888,0,0.88543638004,0,0,-0.671082,267.2, 0, 0,0,0,1024,1024,1024,1024,266.6,-89.9,98,3.936,3.9,3.916,3.904,3.907,3.925,19.273,71.6,14,Waypoint,
37.353326,-119.542028,4593.8352916878,28.215224,0,0.6379757422,8500,2018-06-12 17:18:45,18,0,23.546,4593.8352916878,28.215224,0,0.88543638004,0,0,-0.671082,267.2, 0, 0,0,0,1024,1024,1024,1024,266.6,-89.9,98,3.936,3.9,3.916,3.904,3.907,3.925,19.273,71.6,14,Waypoint,
37.353326,-119.542028,4594.8195436878,29.199476,0,0.6379757422,8600,2018-06-12 17:18:45,18,0,23.546,4594.8195436878,29.199476,0,0.88543638004,0,0,-0.671082,267.3, 0, 0,0,0,1024,1024,1024,1024,266.6,-89.9,98,3.936,3.9,3.916,3.904,3.907,3.925,19.273,71.6,14,Waypoint,
37.3533261,-119.542028,4595.8037956878,30.183728,0,0.61351379916,8700,2018-06-12 17:18:45,18,0,23.546,4595.8037956878,30.183728,0,0.88543638004,0,0,-0.671082,267.5, 0, 0.1,0,0,1024,1024,1024,1024,266.6,-89.9,98,3.936,3.9,3.916,3.904,3.907,3.925,19.273,71.6,14,Waypoint,
37.3533261,-119.5420281,4596.7880476878,31.16798,0,0.5918799402,8800,2018-06-12 17:18:45,18,0,23.546,4596.7880476878,31.16798,0,0.88543638004,0,0,-0.671082,267.7, 0, 0,0,0,1024,1024,1024,1024,266.6,-89.9,98,3.936,3.9,3.916,3.904,3.907,3.925,19.273,71.6,14,Waypoint,
37.3533262,-119.5420281,4597.7722996878,32.152232,0,0.56777560872,8900,2018-06-12 17:18:45,18,0,23.546,4597.7722996878,32.152232,0,0.88543638004,0,0,-0.671082,267.8, 0, -0.2,0,0,1024,1024,1024,1024,266.6,-89.9,98,3.936,3.9,3.916,3.904,3.907,3.925,19.273,71.6,14,Waypoint,
37.3533262,-119.5420281,4598.7565516878,33.136484,0,0.56777560872,9000,2018-06-12 17:18:45,18,0,23.07,4598.7565516878,33.136484,0,0.88543638004,0,0,-0.671082,268, -0.2, -0.3,0,0,1024,1024,1024,1024,266.6,-89.9,98,3.864,3.827,3.84,3.819,3.858,3.873,24.49,71.6,14,Waypoint,
37.3533263,-119.5420282,4600.0688876878,34.44882,0,0.52219161776,9100,2018-06-12 17:18:45,18,0,23.07,4600.0688876878,34.44882,0,0.88543638004,0,0,-0.671082,268.2, -0.3, -0.6,0,0,1024,1024,1024,1024,266.6,-89.9,98,3.864,3.827,3.84,3.819,3.858,3.873,24.49,71.6,14,Waypoint,
37.3533264,-119.5420282,4601.0531396878,35.433072,0,0.50005579028,9200,2018-06-12 17:18:45,18,0,23.07,4601.0531396878,35.433072,0,0.88543638004,0,0,-0.671082,268.3, -0.3, -0.7,0,0,1024,1024,1024,1024,266.6,-89.9,98,3.864,3.827,3.84,3.819,3.858,3.873,24.49,71.6,14,Waypoint,
37.3533264,-119.5420282,4602.0373916878,36.417324,0,0.50005579028,9300,2018-06-12 17:18:45,18,0,23.07,4602.0373916878,36.417324,0,0.88543638004,0,0,-0.671082,268.3, -0.2, -0.7,0,0,1024,1024,1024,1024,266.6,-89.9,98,3.864,3.827,3.84,3.819,3.858,3.873,24.49,71.6,14,Waypoint,
37.3533265,-119.5420282,4603.0216436878,37.401576,0,0.4796752122,9400,2018-06-12 17:18:45,18,0,23.07,4603.0216436878,37.401576,0,0.88543638004,0,0,-0.671082,268.2, -0.2, -0.7,0,0,1024,1024,1024,1024,266.6,-89.9,98,3.864,3.827,3.84,3.819,3.858,3.873,24.49,71.6,14,Waypoint,
37.3533265,-119.5420282,4604.0058956878,38.385828,0,0.4796752122,9500,2018-06-12 17:18:46,18,0,23.07,4604.0058956878,38.385828,0,0.88543638004,0,0,-0.671082,268, -0.3, -0.6,0,0,1024,1024,1024,1024,266.6,-89.9,98,3.864,3.827,3.84,3.819,3.858,3.873,24.49,71.6,14,Waypoint,
37.3533265,-119.5420282,4604.9901476878,39.37008,0,0.4796752122,9600,2018-06-12 17:18:46,18,0,23.07,4604.9901476878,39.37008,0,0.88543638004,0,0,-0.671082,267.7, -0.3, -0.5,0,0,1024,1024,1024,1024,266.6,-89.9,98,3.864,3.827,3.84,3.819,3.858,3.873,24.49,71.6,14,Waypoint,
37.3533266,-119.5420283,4605.9743996878,40.354332,0,0.43597114256,9700,2018-06-12 17:18:46,18,0,23.07,4605.9743996878,40.354332,0,0.88543638004,0,0,-0.671082,267.6, -0.2, -0.3,0,0,1024,1024,1024,1024,266.6,-89.9,98,3.864,3.827,3.84,3.819,3.858,3.873,24.49,71.6,14,Waypoint,
37.3533266,-119.5420283,4606.9586516878,41.338584,0,0.43597114256,9800,2018-06-12 17:18:46,18,0,23.07,4606.9586516878,41.338584,0,0.88543638004,0,0,-0.671082,267.4, -0.1, -0.4,0,0,1024,1024,1024,1024,266.6,-89.9,98,3.864,3.827,3.84,3.819,3.858,3.873,24.49,71.6,14,Waypoint,
37.3533266,-119.5420283,4608.9271556878,43.307088,0,0.43597114256,9910,2018-06-12 17:18:46,18,0,23.07,4608.9271556878,43.307088,0,0.88543638004,0,0,-0.671082,267.4, 0, -0.3,0,0,1024,1024,1024,1024,266.6,-89.9,98,3.864,3.827,3.84,3.819,3.858,3.873,24.49,71.6,14,Waypoint,
37.3533266,-119.5420283,4609.9114076878,44.29134,0,0.43597114256,10000,2018-06-12 17:18:46,18,0,23.303,4609.9114076878,44.29134,0,0.88543638004,0,0,-0.671082,267.5, 0, -0.2,0,0,1024,1024,1024,1024,266.6,-89.9,97,3.903,3.867,3.869,3.867,3.905,3.902,20.843,71.6,14,Waypoint,
37.3533266,-119.5420282,4610.8956596878,45.275592,0,0.46128282316,10200,2018-06-12 17:18:46,18,0,23.303,4610.8956596878,45.275592,0,0.88543638004,0,0,-0.671082,267.5, 0, -0.1,0,0,1024,1024,1024,1024,266.6,-89.9,97,3.903,3.867,3.869,3.867,3.905,3.902,20.843,71.6,14,Waypoint,
37.3533266,-119.5420282,4612.2079956878,46.587928,0,0.46128282316,10300,2018-06-12 17:18:46,18,0,23.303,4612.2079956878,46.587928,0,0.88543638004,0,0,-0.671082,267.5, 0, -0.1,0,0,1024,1024,1024,1024,266.6,-89.9,97,3.903,3.867,3.869,3.867,3.905,3.902,20.843,71.6,14,Waypoint,
37.3533267,-119.5420282,4613.1922476878,47.57218,0,0.445127967,10400,2018-06-12 17:18:46,18,0,23.303,4613.1922476878,47.57218,0,0.88543638004,0,0,-0.671082,267.5, 0, 0,0,0,1024,1024,1024,1024,266.6,-89.9,97,3.903,3.867,3.869,3.867,3.905,3.902,20.843,71.6,14,Waypoint,
37.3533267,-119.5420282,4614.1764996878,48.556432,0,0.445127967,10500,2018-06-12 17:18:47,18,0,23.303,4614.1764996878,48.556432,0,0.88543638004,0,0,-0.671082,267.6, -0.1, -0.1,0,0,1024,1024,1024,1024,266.6,-89.9,97,3.903,3.867,3.869,3.867,3.905,3.902,20.843,71.6,14,Waypoint,
37.3533267,-119.5420281,4615.1607516878,49.540684,0,0.47173229856,10600,2018-06-12 17:18:47,18,0,23.303,4615.1607516878,49.540684,0,0.88543638004,0,0,-0.671082,267.6, -0.2, -0.2,0,0,1024,1024,1024,1024,266.6,-89.9,97,3.903,3.867,3.869,3.867,3.905,3.902,20.843,71.6,14,Waypoint,
37.3533267,-119.5420281,4616.1450036878,50.524936,0,0.47173229856,10700,2018-06-12 17:18:47,18,0,23.303,4616.1450036878,50.524936,0,0.88543638004,0,0,-0.671082,267.7, -0.4, -0.6,0,0,1024,1024,1024,1024,266.6,-90,97,3.903,3.867,3.869,3.867,3.905,3.902,20.843,71.6,14,Waypoint,
37.3533268,-119.542028,4617.1292556878,51.509188,0,0.48644358512,10800,2018-06-12 17:18:47,18,0,23.303,4617.1292556878,51.509188,0,0.88543638004,0,0,-0.671082,267.7, -0.7, -1,0,0,1024,1024,1024,1024,266.6,-90,97,3.903,3.867,3.869,3.867,3.905,3.902,20.843,71.6,14,Waypoint,
37.3533269,-119.5420279,4618.1135076878,52.49344,0,0.50504266708,10900,2018-06-12 17:18:47,18,0,23.303,4618.1135076878,52.49344,0,0.88543638004,0,0,-0.671082,267.7, -0.7, -1.1,0,0,1024,1024,1024,1024,266.6,-89.9,97,3.903,3.867,3.869,3.867,3.905,3.902,20.843,71.6,14,Waypoint,
37.3533269,-119.5420279,4619.0977596878,53.477692,0,0.50504266708,11000,2018-06-12 17:18:47,18,0,23.312,4619.0977596878,53.477692,0,0.88543638004,0,0,-0.671082,267.7, -0.6, -1.1,0,0,1024,1024,1024,1024,266.6,-89.9,97,3.907,3.871,3.879,3.874,3.906,3.902,19.912,71.6,14,Waypoint,
37.353327,-119.5420278,4620.0820116878,54.461944,0,0.5271161586,11100,2018-06-12 17:18:47,18,0,23.312,4620.0820116878,54.461944,0,0.88543638004,0,0,-0.671082,267.6, -0.5, -1.2,0,0,1024,1024,1024,1024,266.6,-89.9,97,3.907,3.871,3.879,3.874,3.906,3.902,19.912,71.6,14,Waypoint,
37.353327,-119.5420278,4621.0662636878,55.446196,0,0.5271161586,11200,2018-06-12 17:18:47,18,0,23.312,4621.0662636878,55.446196,0,0.88543638004,0,0,-0.671082,267.6, -0.5, -1.2,0,0,1024,1024,1024,1024,266.6,-89.9,97,3.907,3.871,3.879,3.874,3.906,3.902,19.912,71.6,14,Waypoint,
37.3533271,-119.5420278,4622.0505156878,56.430448,0,0.52331366504,11300,2018-06-12 17:18:47,18,0,23.312,4622.0505156878,56.430448,0,0.88543638004,0,0,-0.671082,267.5, -0.5, -1.1,0,0,1024,1024,1024,1024,266.6,-89.9,97,3.907,3.871,3.879,3.874,3.906,3.902,19.912,71.6,14,Waypoint,
37.3533271,-119.5420277,4623.0347676878,57.4147,0,0.552247393,11400,2018-06-12 17:18:47,18,0,23.312,4623.0347676878,57.4147,0,0.88543638004,0,0,-0.671082,267.5, -0.6, -1,0,0,1024,1024,1024,1024,266.6,-89.9,97,3.907,3.871,3.879,3.874,3.906,3.902,19.912,71.6,14,Waypoint,
37.3533271,-119.5420277,4624.0190196878,58.398952,0,0.552247393,11500,2018-06-12 17:18:48,18,0,23.312,4624.0190196878,58.398952,0,0.88543638004,0,0,-0.671082,267.5, -0.6, -0.9,0,0,1024,1024,1024,1024,266.6,-89.9,97,3.907,3.871,3.879,3.874,3.906,3.902,19.912,71.6,14,Waypoint,
37.3533271,-119.5420276,4625.0032716878,59.383204,0,0.58119096348,11600,2018-06-12 17:18:48,18,0,23.312,4625.0032716878,59.383204,0,0.88543638004,0,0,-0.671082,267.5, -0.6, -0.9,0,0,1024,1024,1024,1024,266.6,-89.9,97,3.907,3.871,3.879,3.874,3.906,3.902,19.912,71.6,14,Waypoint,
37.3533271,-119.5420276,4626.9717756878,61.351708,0,0.58119096348,11700,2018-06-12 17:18:48,18,0,23.312,4626.9717756878,61.351708,0,0.88543638004,0,0,-0.671082,267.5, -0.4, -0.9,0,0,1024,1024,1024,1024,266.6,-89.9,97,3.907,3.871,3.879,3.874,3.906,3.902,19.912,71.6,14,Waypoint,
37.3533271,-119.5420275,4627.6279436878,62.007876,0,0.6101378148,11900,2018-06-12 17:18:48,18,0,23.312,4627.6279436878,62.007876,0,0.88543638004,0,0,-0.671082,267.5, -0.6, -0.8,0,0,1024,1024,1024,1024,266.6,-89.9,97,3.907,3.871,3.879,3.874,3.906,3.902,19.912,71.6,14,Waypoint,
37.3533271,-119.5420275,4628.6121956878,62.992128,0,0.6101378148,12000,2018-06-12 17:18:48,18,0,23.331,4628.6121956878,62.992128,0,0.88543638004,0,0,-0.671082,267.6, -0.6, -0.6,0,0,1024,1024,1024,1024,266.6,-90,97,3.909,3.883,3.867,3.885,3.906,3.904,19.548,71.6,14,Waypoint,
37.3533271,-119.5420274,4629.5964476878,63.97638,0,0.6390912278,12100,2018-06-12 17:18:48,18,0,23.331,4629.5964476878,63.97638,0,0.88543638004,0,0,-0.671082,267.6, -0.7, -0.3,0,0,1024,1024,1024,1024,266.6,-90,97,3.909,3.883,3.867,3.885,3.906,3.904,19.548,71.6,14,Waypoint,
37.353327,-119.5420274,4630.5806996878,64.960632,0,0.6422080258,12200,2018-06-12 17:18:48,18,0,23.331,4630.5806996878,64.960632,0,0.88543638004,0,0,-0.671082,267.5, -0.8, -0.1,0,0,1024,1024,1024,1024,266.6,-90,97,3.909,3.883,3.867,3.885,3.906,3.904,19.548,71.6,14,Waypoint,
37.353327,-119.5420273,4631.5649516878,65.944884,0,0.6710302052,12300,2018-06-12 17:18:48,18,0,23.331,4631.5649516878,65.944884,0,0.88543638004,0,0,-0.671082,267.4, -0.8, -0.1,0,0,1024,1024,1024,1024,266.6,-90,97,3.909,3.883,3.867,3.885,3.906,3.904,19.548,71.6,14,Waypoint,
37.353327,-119.5420273,4632.5492036878,66.929136,0,0.6710302052,12400,2018-06-12 17:18:48,18,0,23.331,4632.5492036878,66.929136,0,0.88543638004,0,0,-0.671082,267.3, -0.8, 0,0,0,1024,1024,1024,1024,266.6,-89.9,97,3.909,3.883,3.867,3.885,3.906,3.904,19.548,71.6,14,Waypoint,
37.3533269,-119.5420273,4634.5177076878,68.89764,0,0.67597115024,12600,2018-06-12 17:18:49,18,0,23.331,4634.5177076878,68.89764,0,0.88543638004,0,0,-0.671082,267.3, -0.7, -0.3,0,0,1024,1024,1024,1024,266.6,-89.9,97,3.909,3.883,3.867,3.885,3.906,3.904,19.548,71.6,14,Waypoint,
37.3533269,-119.5420272,4635.5019596878,69.881892,0,0.70460632176,12700,2018-06-12 17:18:49,18,0,23.331,4635.5019596878,69.881892,0,0.88543638004,0,0,-0.671082,267.5, -0.6, -0.5,0,0,1024,1024,1024,1024,266.6,-89.9,97,3.909,3.883,3.867,3.885,3.906,3.904,19.548,71.6,14,Waypoint,
37.3533269,-119.5420272,4636.4862116878,70.866144,0,0.70460632176,12800,2018-06-12 17:18:49,18,0,23.331,4636.4862116878,70.866144,0,0.88543638004,0,0,-0.671082,267.6, -0.6, -0.7,0,0,1024,1024,1024,1024,266.6,-89.9,97,3.909,3.883,3.867,3.885,3.906,3.904,19.548,71.6,14,Waypoint,
37.3533269,-119.5420272,4637.4704636878,71.850396,0,0.70460632176,12900,2018-06-12 17:18:49,18,0,23.331,4637.4704636878,71.850396,0,0.88543638004,0,0,-0.671082,267.7, -0.6, -0.8,0,0,1024,1024,1024,1024,266.6,-89.9,97,3.909,3.883,3.867,3.885,3.906,3.904,19.548,71.6,14,Waypoint,
37.3533269,-119.5420272,4638.4547156878,72.834648,0,0.70460632176,13000,2018-06-12 17:18:49,18,0,23.319,4638.4547156878,72.834648,0,0.88543638004,0,0,-0.671082,267.7, -0.5, -0.9,0,0,1024,1024,1024,1024,266.6,-89.9,97,3.901,3.854,3.866,3.868,3.903,3.889,19.404,71.6,14,Waypoint,
37.3533269,-119.5420272,4639.4389676878,73.8189,0,0.70460632176,13100,2018-06-12 17:18:49,18,0,23.319,4639.4389676878,73.8189,0,0.88543638004,0,0,-0.671082,267.7, -0.6, -0.8,0,0,1024,1024,1024,1024,266.6,-89.9,97,3.901,3.854,3.866,3.868,3.903,3.889,19.404,71.6,14,Waypoint,
37.3533269,-119.5420272,4640.4232196878,74.803152,0,0.70460632176,13200,2018-06-12 17:18:49,18,0,23.319,4640.4232196878,74.803152,0,0.88543638004,0,0,-0.671082,267.8, -0.7, -0.7,0,0,1024,1024,1024,1024,266.6,-89.9,97,3.901,3.854,3.866,3.868,3.903,3.889,19.404,71.6,14,Waypoint,
37.3533269,-119.5420272,4641.4074716878,75.787404,0,0.70460632176,13300,2018-06-12 17:18:49,18,0,23.319,4641.4074716878,75.787404,0,0.88543638004,0,0,-0.671082,268, -0.7, -0.6,0,0,1024,1024,1024,1024,266.6,-89.9,97,3.901,3.854,3.866,3.868,3.903,3.889,19.404,71.6,14,Waypoint,
37.3533269,-119.5420273,4642.3917236878,76.771656,0,0.67597115024,13400,2018-06-12 17:18:49,18,0,23.319,4642.3917236878,76.771656,0,0.88543638004,0,0,-0.671082,268.2, -0.7, -0.6,0,0,1024,1024,1024,1024,266.6,-89.9,97,3.901,3.854,3.866,3.868,3.903,3.889,19.404,71.6,14,Waypoint,
37.3533269,-119.5420273,4644.3602276878,78.74016,0,0.67597115024,13600,2018-06-12 17:18:50,18,0,23.319,4644.3602276878,78.74016,0,0.88543638004,0,0,-0.671082,268.1, -0.4, -0.9,0,0,1024,1024,1024,1024,266.6,-89.9,97,3.901,3.854,3.866,3.868,3.903,3.889,19.404,71.6,14,Waypoint,
37.3533269,-119.5420274,4646.3287316878,80.708664,0,0.64736878712,13700,2018-06-12 17:18:50,18,0,23.319,4646.3287316878,80.708664,0,0.88543638004,0,0,-0.671082,267.8, -0.2, -1.2,0,0,1024,1024,1024,1024,266.6,-89.9,97,3.901,3.854,3.866,3.868,3.903,3.889,19.404,71.6,14,Waypoint,
37.3533268,-119.5420275,4648.2972356878,82.677168,0,0.62628610928,13900,2018-06-12 17:18:50,18,0,23.319,4648.2972356878,82.677168,0,0.88543638004,0,0,-0.671082,267.5, 0.1, -0.7,0,0,1024,1024,1024,1024,266.6,-89.9,97,3.901,3.854,3.866,3.868,3.903,3.889,19.404,71.6,14,Waypoint,
37.3533268,-119.5420275,4649.2814876878,83.66142,0,0.62628610928,14100,2018-06-12 17:18:50,18,0,23.319,4649.2814876878,83.66142,0,0.88543638004,0,0,-0.671082,267.5, 0.2, -0.3,0,0,1024,1024,1024,1024,266.6,-89.9,97,3.901,3.854,3.866,3.868,3.903,3.889,19.404,71.6,14,Waypoint,
37.3533267,-119.5420276,4650.2657396878,84.645672,0,0.6080544814,14200,2018-06-12 17:18:50,18,0,23.319,4650.2657396878,84.645672,0,0.88543638004,0,0,-0.671082,267.5, 0, -0.1,0,0,1024,1024,1024,1024,266.6,-89.9,97,3.901,3.854,3.866,3.868,3.903,3.889,19.404,71.6,14,Waypoint,
37.3533267,-119.5420276,4651.2499916878,85.629924,0,0.6080544814,14300,2018-06-12 17:18:50,18,0,23.319,4651.2499916878,85.629924,0,0.88543638004,0,0,-0.671082,267.5, -0.2, 0,0,0,1024,1024,1024,1024,266.6,-89.9,97,3.901,3.854,3.866,3.868,3.903,3.889,19.404,71.6,14,Waypoint,
37.3533267,-119.5420276,4652.2342436878,86.614176,0,0.6080544814,14400,2018-06-12 17:18:50,18,0,23.319,4652.2342436878,86.614176,0,0.88543638004,0,0,-0.671082,267.7, -0.3, -0.2,0,0,1024,1024,1024,1024,266.6,-89.9,97,3.901,3.854,3.866,3.868,3.903,3.889,19.404,71.6,14,Waypoint,
37.3533267,-119.5420277,4653.2184956878,87.598428,0,0.58045277448,14500,2018-06-12 17:18:51,18,0,23.319,4653.2184956878,87.598428,0,0.88543638004,0,0,-0.671082,267.9, -0.1, -0.4,0,0,1024,1024,1024,1024,266.6,-89.9,97,3.901,3.854,3.866,3.868,3.903,3.889,19.404,71.6,14,Waypoint,
37.3533267,-119.5420277,4654.2027476878,88.58268,0,0.58045277448,14600,2018-06-12 17:18:51,18,0,23.319,4654.2027476878,88.58268,0,0.88543638004,0,0,-0.671082,268.1, 0.2, -0.4,0,0,1024,1024,1024,1024,266.6,-89.9,97,3.901,3.854,3.866,3.868,3.903,3.889,19.404,71.6,14,Waypoint,
37.3533267,-119.5420278,4655.1869996878,89.566932,0,0.55299542452,14700,2018-06-12 17:18:51,18,0,23.319,4655.1869996878,89.566932,0,0.88543638004,0,0,-0.671082,268.2, 0.2, -0.3,0,0,1024,1024,1024,1024,266.6,-89.9,97,3.901,3.854,3.866,3.868,3.903,3.889,19.404,71.6,14,Waypoint,
37.3533266,-119.5420279,4657.1555036878,91.535436,0,0.539452117,14900,2018-06-12 17:18:51,18,0,23.319,4657.1555036878,91.535436,0,0.88543638004,0,0,-0.671082,268.2, 0.1, -0.3,0,0,1024,1024,1024,1024,266.6,-89.9,97,3.901,3.854,3.866,3.868,3.903,3.889,19.404,71.6,14,Waypoint,
37.3533266,-119.5420279,4658.1397556878,92.519688,0,0.539452117,15000,2018-06-12 17:18:51,18,0,23.253,4658.1397556878,92.519688,0,0.88543638004,0,0,-0.671082,268.1, 0.1, -0.4,0,0,1024,1024,1024,1024,266.6,-89.9,97,3.899,3.856,3.864,3.868,3.902,3.892,19.098,71.6,14,Waypoint,
37.3533266,-119.542028,4659.1240076878,93.50394,0,0.51308072508,15100,2018-06-12 17:18:51,18,0,23.253,4659.1240076878,93.50394,0,0.88543638004,0,0,-0.671082,267.9, 0.1, -0.4,0,0,1024,1024,1024,1024,266.6,-89.9,97,3.899,3.856,3.864,3.868,3.902,3.892,19.098,71.6,14,Waypoint,
37.3533266,-119.542028,4660.1082596878,94.488192,0,0.51308072508,15200,2018-06-12 17:18:51,18,0,23.253,4660.1082596878,94.488192,0,0.88543638004,0,0,-0.671082,267.8, 0.2, -0.4,0,0,1024,1024,1024,1024,266.6,-89.9,97,3.899,3.856,3.864,3.868,3.902,3.892,19.098,71.6,14,Waypoint,
37.3533266,-119.5420281,4662.4048476878,96.78478,0,0.4870078896,15400,2018-06-12 17:18:51,18,0,23.253,4662.4048476878,96.78478,0,0.88543638004,0,0,-0.671082,267.6, 0.1, -0.8,0,0,1024,1024,1024,1024,266.6,-89.9,97,3.899,3.856,3.864,3.868,3.902,3.892,19.098,71.6,14,Waypoint,
37.3533266,-119.5420281,4664.3733516878,98.753284,0,0.4870078896,15600,2018-06-12 17:18:52,18,0,23.253,4664.3733516878,98.753284,0,0.88543638004,0,0,-0.671082,267.5, 0, -0.5,0,0,1024,1024,1024,1024,266.6,-89.9,97,3.899,3.856,3.864,3.868,3.902,3.892,19.098,71.6,14,Waypoint,
37.3533266,-119.5420282,4665.3576036878,99.737536,0,0.46128282316,15700,2018-06-12 17:18:52,18,0,23.253,4665.3576036878,99.737536,0,0.88543638004,0,0,-0.671082,267.4, 0.3, -0.4,0,0,1024,1024,1024,1024,266.6,-89.9,97,3.899,3.856,3.864,3.868,3.902,3.892,19.098,71.6,14,Waypoint,
37.3533266,-119.5420282,4666.3418556878,100.721788,0,0.46128282316,15800,2018-06-12 17:18:52,18,0,23.253,4666.3418556878,100.721788,0,0.88543638004,0,0,-0.671082,267.4, 0.4, -0.6,0,0,1024,1024,1024,1024,266.6,-89.9,97,3.899,3.856,3.864,3.868,3.902,3.892,19.098,71.6,14,Waypoint,
37.3533265,-119.5420282,4667.3261076878,101.70604,0,0.4796752122,15900,2018-06-12 17:18:52,18,0,23.253,4667.3261076878,101.70604,0,0.88543638004,0,0,-0.671082,267.4, 0.5, -0.6,0,0,1024,1024,1024,1024,266.6,-89.9,97,3.899,3.856,3.864,3.868,3.902,3.892,19.098,71.6,14,Waypoint,
37.3533265,-119.5420283,4668.3103596878,102.690292,0,0.45538715368,16000,2018-06-12 17:18:52,18,0,23.294,4668.3103596878,102.690292,0,0.88543638004,0,0,-0.671082,267.5, 0.5, -0.6,0,0,1024,1024,1024,1024,266.6,-89.9,97,3.899,3.874,3.86,3.87,3.904,3.903,18.665,71.6,14,Waypoint,
37.3533265,-119.5420283,4669.2946116878,103.674544,0,0.45538715368,16100,2018-06-12 17:18:52,18,0,23.294,4669.2946116878,103.674544,0,0.88543638004,0,0,-0.671082,267.5, 0.5, -0.5,0,0,1024,1024,1024,1024,266.6,-89.9,97,3.899,3.874,3.86,3.87,3.904,3.903,18.665,71.6,14,Waypoint,
37.3533265,-119.5420283,4671.2631156878,105.643048,0,0.45538715368,16300,2018-06-12 17:18:52,18,0,23.294,4671.2631156878,105.643048,0,0.88543638004,0,0,-0.671082,267.6, 0.2, -0.7,0,0,1024,1024,1024,1024,266.6,-89.9,97,3.899,3.874,3.86,3.87,3.904,3.903,18.665,71.6,14,Waypoint,
37.3533265,-119.5420284,4672.9035356878,107.283468,0,0.43168308468,16410,2018-06-12 17:18:52,18,0,23.294,4672.9035356878,107.283468,0,0.88543638004,0,0,-0.671082,267.4, 0, -0.3,0,0,1024,1024,1024,1024,266.6,-89.9,97,3.899,3.874,3.86,3.87,3.904,3.903,18.665,71.6,14,Waypoint,
37.3533265,-119.5420284,4673.8877876878,108.26772,0,0.43168308468,16500,2018-06-12 17:18:53,18,0,23.294,4673.8877876878,108.26772,0,0.88543638004,0,0,-0.671082,267.4, 0.3, -0.2,0,0,1024,1024,1024,1024,266.6,-89.9,97,3.899,3.874,3.86,3.87,3.904,3.903,18.665,71.6,14,Waypoint,
37.3533264,-119.5420285,4674.8720396878,109.251972,0,0.43240158864,16600,2018-06-12 17:18:53,18,0,23.294,4674.8720396878,109.251972,0,0.88543638004,0,0,-0.671082,267.4, 0.6, -0.2,0,0,1024,1024,1024,1024,266.6,-89.9,97,3.899,3.874,3.86,3.87,3.904,3.903,18.665,71.6,14,Waypoint,
37.3533264,-119.5420285,4675.8562916878,110.236224,0,0.43240158864,16800,2018-06-12 17:18:53,18,0,23.294,4675.8562916878,110.236224,0,0.88543638004,0,0,-0.671082,267.4, 1, -0.2,0,0,1024,1024,1024,1024,266.6,-89.9,97,3.899,3.874,3.86,3.87,3.904,3.903,18.665,71.6,14,Waypoint,
37.3533264,-119.5420286,4676.8405436878,111.220476,0,0.41146982944,16900,2018-06-12 17:18:53,18,0,23.294,4676.8405436878,111.220476,0,0.88543638004,0,0,-0.671082,267.4, 1.3, 0,0,0,1024,1024,1024,1024,266.6,-89.9,97,3.899,3.874,3.86,3.87,3.904,3.903,18.665,71.6,14,Waypoint,
37.3533263,-119.5420286,4677.4967116878,111.876644,0,0.43810368856,17000,2018-06-12 17:18:53,18,0,23.294,4677.4967116878,111.876644,0,0.88543638004,0,0,-0.671082,267.3, 1.5, 0,0,0,1024,1024,1024,1024,266.6,-89.9,97,3.899,3.874,3.86,3.87,3.904,3.903,18.665,71.6,14,Waypoint,
37.3533263,-119.5420286,4678.4809636878,112.860896,0,0.43810368856,17100,2018-06-12 17:18:53,18,0,23.294,4678.4809636878,112.860896,0,0.88543638004,0,0,-0.671082,267.3, 1.4, 0,0,0,1024,1024,1024,1024,266.6,-89.9,97,3.899,3.874,3.86,3.87,3.904,3.903,18.665,71.6,14,Waypoint,
37.3533263,-119.5420286,4679.4652156878,113.845148,0,0.43810368856,17200,2018-06-12 17:18:53,18,0,23.294,4679.4652156878,113.845148,0,0.88543638004,0,0,-0.671082,267.2, 1.1, 0,0,0,1024,1024,1024,1024,266.6,-89.9,97,3.899,3.874,3.86,3.87,3.904,3.903,18.665,71.6,14,Waypoint,
37.3533263,-119.5420286,4680.7775516878,115.157484,0,0.43810368856,17300,2018-06-12 17:18:53,18,0,23.294,4680.7775516878,115.157484,0,0.88543638004,0,0,-0.671082,267.2, 0.7, 0,0,0,1024,1024,1024,1024,266.6,-89.9,97,3.899,3.874,3.86,3.87,3.904,3.903,18.665,71.6,14,Waypoint,
37.3533263,-119.5420286,4681.7618036878,116.141736,0,0.43810368856,17400,2018-06-12 17:18:53,18,0,23.294,4681.7618036878,116.141736,0,0.88543638004,0,0,-0.671082,267.2, 0.5, 0,0,0,1024,1024,1024,1024,266.6,-89.9,97,3.899,3.874,3.86,3.87,3.904,3.903,18.665,71.6,14,Waypoint,
37.3533263,-119.5420286,4682.7460556878,117.125988,0,0.43810368856,17500,2018-06-12 17:18:54,18,0,23.294,4682.7460556878,117.125988,0,0.88543638004,0,0,-0.671082,267.2, 0.5, -0.1,0,0,1024,1024,1024,1024,266.6,-89.9,97,3.899,3.874,3.86,3.87,3.904,3.903,18.665,71.6,14,Waypoint,
37.3533262,-119.5420286,4683.7303076878,118.11024,0,0.4660761304,17600,2018-06-12 17:18:54,18,0,23.294,4683.7303076878,118.11024,0,0.88543638004,0,0,-0.671082,267.2, 0.5, -0.1,0,0,1024,1024,1024,1024,266.6,-89.9,97,3.899,3.874,3.86,3.87,3.904,3.903,18.665,71.6,14,Waypoint,
37.3533262,-119.5420285,4684.7145596878,119.094492,0,0.48465552732,17700,2018-06-12 17:18:54,18,0,23.294,4684.7145596878,119.094492,0,0.88543638004,0,0,-0.671082,267.3, 0.6, 0,0,0,1024,1024,1024,1024,266.6,-89.9,97,3.899,3.874,3.86,3.87,3.904,3.903,18.665,71.6,14,Waypoint,
37.3533262,-119.5420285,4685.6988116878,120.078744,0,0.48465552732,17800,2018-06-12 17:18:54,18,0,23.294,4685.6988116878,120.078744,0,0.88543638004,0,0,-0.671082,267.3, 0.4, 0,0,0,1024,1024,1024,1024,266.6,-89.9,97,3.899,3.874,3.86,3.87,3.904,3.903,18.665,71.6,14,Waypoint,
37.3533262,-119.5420284,4686.6830636878,121.062996,0,0.50421917624,17900,2018-06-12 17:18:54,18,0,23.294,4686.6830636878,121.062996,0,0.88543638004,0,0,-0.671082,267.4, 0.1, 0.2,0,0,1024,1024,1024,1024,266.6,-89.9,97,3.899,3.874,3.86,3.87,3.904,3.903,18.665,71.6,14,Waypoint,
37.3533262,-119.5420284,4687.6673156878,122.047248,0,0.50421917624,18000,2018-06-12 17:18:54,18,0,23.199,4687.6673156878,122.047248,0,0.88543638004,0,0,-0.671082,267.6, 0.2, 0.1,0,0,1024,1024,1024,1024,266.6,-89.9,96,3.905,3.877,3.863,3.876,3.905,3.908,19.279,71.6,14,Waypoint,
37.3533262,-119.5420284,4688.6515676878,123.0315,0,0.50421917624,18100,2018-06-12 17:18:54,18,0,23.199,4688.6515676878,123.0315,0,0.88543638004,0,0,-0.671082,267.7, 0.2, 0,0,0,1024,1024,1024,1024,266.6,-89.9,96,3.905,3.877,3.863,3.876,3.905,3.908,19.279,71.6,14,Waypoint,
37.3533262,-119.5420283,4689.6358196878,124.015752,0,0.52465880944,18200,2018-06-12 17:18:54,18,0,23.199,4689.6358196878,124.015752,0,0.88543638004,0,0,-0.671082,267.8, 0.2, 0,0,0,1024,1024,1024,1024,266.6,-89.9,96,3.905,3.877,3.863,3.876,3.905,3.908,19.279,71.6,14,Waypoint,
37.3533262,-119.5420283,4690.6200716878,125.000004,0,0.52465880944,18300,2018-06-12 17:18:54,18,0,23.199,4690.6200716878,125.000004,0,0.88543638004,0,0,-0.671082,267.8, 0.1, -0.2,0,0,1024,1024,1024,1024,266.6,-89.9,96,3.905,3.877,3.863,3.876,3.905,3.908,19.279,71.6,14,Waypoint,
37.3533263,-119.5420283,4691.6043236878,125.984256,0,0.49997376928,18400,2018-06-12 17:18:54,18,0,23.199,4691.6043236878,125.984256,0,0.88543638004,0,0,-0.671082,267.8, 0.2, -0.4,0,0,1024,1024,1024,1024,266.6,-89.9,96,3.905,3.877,3.863,3.876,3.905,3.908,19.279,71.6,14,Waypoint,
37.3533263,-119.5420283,4692.5885756878,126.968508,0,0.49997376928,18600,2018-06-12 17:18:55,18,0,23.199,4692.5885756878,126.968508,0,0.88543638004,0,0,-0.671082,267.9, 0.3, -0.4,0,0,1024,1024,1024,1024,266.6,-89.9,96,3.905,3.877,3.863,3.876,3.905,3.908,19.279,71.6,14,Waypoint,
37.3533264,-119.5420283,4695.8694156878,130.249348,0,0.47680775804,18700,2018-06-12 17:18:55,18,0,23.199,4695.8694156878,130.249348,0,0.88543638004,0,0,-0.671082,268.2, 0.8, -0.7,0,0,1024,1024,1024,1024,266.6,-89.9,96,3.905,3.877,3.863,3.876,3.905,3.908,19.279,71.6,14,Waypoint,
37.3533264,-119.5420283,4696.8536676878,131.2336,0,0.47680775804,18800,2018-06-12 17:18:55,18,0,23.199,4696.8536676878,131.2336,0,0.88543638004,0,0,-0.671082,268, 1, -0.8,0,0,1024,1024,1024,1024,266.6,-89.9,96,3.905,3.877,3.863,3.876,3.905,3.908,19.279,71.6,14,Waypoint,
37.3533265,-119.5420283,4697.8379196878,132.217852,0,0.45538715368,19000,2018-06-12 17:18:55,18,0,23.199,4697.8379196878,132.217852,0,0.88543638004,0,0,-0.671082,267.8, 1, -0.8,0,0,1024,1024,1024,1024,266.6,-89.9,96,3.876,3.854,3.836,3.845,3.881,3.88,19.279,71.6,14,Waypoint,
37.3533265,-119.5420283,4698.8221716878,133.202104,0,0.45538715368,19100,2018-06-12 17:18:55,18,0,23.199,4698.8221716878,133.202104,0,0.88543638004,0,0,-0.671082,267.7, 0.7, -0.7,0,0,1024,1024,1024,1024,266.6,-89.9,96,3.876,3.854,3.836,3.845,3.881,3.88,19.279,71.6,14,Waypoint,
37.3533265,-119.5420282,4699.8064236878,134.186356,0,0.4796752122,19200,2018-06-12 17:18:55,18,0,23.199,4699.8064236878,134.186356,0,0.88543638004,0,0,-0.671082,267.6, 0.4, -0.6,0,0,1024,1024,1024,1024,266.6,-89.9,96,3.876,3.854,3.836,3.845,3.881,3.88,19.279,71.6,14,Waypoint,
37.3533265,-119.5420282,4700.7906756878,135.170608,0,0.4796752122,19300,2018-06-12 17:18:55,18,0,23.199,4700.7906756878,135.170608,0,0.88543638004,0,0,-0.671082,267.6, 0.3, -0.4,0,0,1024,1024,1024,1024,266.6,-90,96,3.876,3.854,3.836,3.845,3.881,3.88,19.279,71.6,14,Waypoint,
37.3533264,-119.5420282,4701.7749276878,136.15486,0,0.50005579028,19400,2018-06-12 17:18:55,18,0,23.199,4701.7749276878,136.15486,0,0.88543638004,0,0,-0.671082,267.6, 0.2, -0.1,0,0,1024,1024,1024,1024,266.6,-90,96,3.876,3.854,3.836,3.845,3.881,3.88,19.279,71.6,14,Waypoint,
37.3533264,-119.5420282,4702.7591796878,137.139112,0,0.50005579028,19500,2018-06-12 17:18:56,18,0,23.199,4702.7591796878,137.139112,0,0.88543638004,0,0,-0.671082,267.4, 0.3, 0.3,0,0,1024,1024,1024,1024,266.6,-90,96,3.876,3.854,3.836,3.845,3.881,3.88,19.279,71.6,14,Waypoint,
37.3533264,-119.5420282,4703.7434316878,138.123364,0,0.50005579028,19600,2018-06-12 17:18:56,18,0,23.199,4703.7434316878,138.123364,0,0.88543638004,0,0,-0.671082,267.2, 0.4, 0.5,0,0,1024,1024,1024,1024,266.6,-89.9,96,3.876,3.854,3.836,3.845,3.881,3.88,19.279,71.6,14,Waypoint,
37.3533264,-119.5420282,4704.7276836878,139.107616,0,0.50005579028,19700,2018-06-12 17:18:56,18,0,23.199,4704.7276836878,139.107616,0,0.88543638004,0,0,-0.671082,267.1, 0.5, 0.4,0,0,1024,1024,1024,1024,266.6,-89.9,96,3.876,3.854,3.836,3.845,3.881,3.88,19.279,71.6,14,Waypoint,
37.3533264,-119.5420282,4705.3838516878,139.763784,0,0.50005579028,19800,2018-06-12 17:18:56,18,0,23.199,4705.3838516878,139.763784,0,0.88543638004,0,0,-0.671082,267, 0.4, 0.1,0,0,1024,1024,1024,1024,266.6,-89.9,96,3.876,3.854,3.836,3.845,3.881,3.88,19.279,71.6,14,Waypoint,
37.3533265,-119.5420282,4707.3523556878,141.732288,0,0.4796752122,20000,2018-06-12 17:18:56,18,0,23.168,4707.3523556878,141.732288,0,0.88543638004,0,0,-0.671082,267.1, 0.6, -0.3,0,0,1024,1024,1024,1024,266.6,-89.9,96,3.885,3.84,3.841,3.852,3.888,3.863,19.252,73.4,14,Waypoint,
37.3533265,-119.5420283,4708.3366076878,142.71654,0,0.45538715368,20100,2018-06-12 17:18:56,18,0,23.168,4708.3366076878,142.71654,0,0.88543638004,0,0,-0.671082,267.3, 0.9, -0.6,0,0,1024,1024,1024,1024,266.6,-89.9,96,3.885,3.84,3.841,3.852,3.888,3.863,19.252,73.4,14,Waypoint,
37.3533266,-119.5420283,4709.3208596878,143.700792,0,0.43597114256,20200,2018-06-12 17:18:56,18,0,23.168,4709.3208596878,143.700792,0,0.88543638004,0,0,-0.671082,267.5, 1.1, -0.8,0,0,1024,1024,1024,1024,266.6,-89.9,96,3.885,3.84,3.841,3.852,3.888,3.863,19.252,73.4,14,Waypoint,
37.3533266,-119.5420283,4710.3051116878,144.685044,0,0.43597114256,20300,2018-06-12 17:18:56,18,0,23.168,4710.3051116878,144.685044,0,0.88543638004,0,0,-0.671082,267.7, 1.2, -0.9,0,0,1024,1024,1024,1024,266.6,-89.9,96,3.885,3.84,3.841,3.852,3.888,3.863,19.252,73.4,14,Waypoint,
37.3533266,-119.5420284,4711.2893636878,145.669296,0,0.41114830712,20400,2018-06-12 17:18:56,18,0,23.168,4711.2893636878,145.669296,0,0.88543638004,0,0,-0.671082,267.8, 1.1, -0.8,0,0,1024,1024,1024,1024,266.6,-89.9,96,3.885,3.84,3.841,3.852,3.888,3.863,19.252,73.4,14,Waypoint,
37.3533266,-119.5420284,4712.2736156878,146.653548,0,0.41114830712,20500,2018-06-12 17:18:57,18,0,23.168,4712.2736156878,146.653548,0,0.88543638004,0,0,-0.671082,267.8, 1.2, -0.8,0,0,1024,1024,1024,1024,266.6,-89.9,96,3.885,3.84,3.841,3.852,3.888,3.863,19.252,73.4,14,Waypoint,
37.3533266,-119.5420284,4713.2578676878,147.6378,0,0.41114830712,20600,2018-06-12 17:18:57,18,0,23.168,4713.2578676878,147.6378,0,0.88543638004,0,0,-0.671082,267.7, 1.1, -1,0,0,1024,1024,1024,1024,266.6,-89.9,96,3.885,3.84,3.841,3.852,3.888,3.863,19.252,73.4,14,Waypoint,
37.3533266,-119.5420285,4716.2106236878,150.590556,0,0.3869094612,20800,2018-06-12 17:18:57,18,0,23.168,4716.2106236878,150.590556,0,0.88543638004,0,0,-0.671082,267.6, 1.2, -0.6,0,0,1024,1024,1024,1024,266.6,-89.9,96,3.885,3.84,3.841,3.852,3.888,3.863,19.252,73.4,14,Waypoint,
37.3533266,-119.5420285,4718.1791276878,152.55906,0,0.3869094612,21000,2018-06-12 17:18:57,18,0,23.206,4718.1791276878,152.55906,0,0.88543638004,0,0,-0.671082,267.6, 1.2, -0.2,0,0,1024,1024,1024,1024,266.6,-89.9,96,3.876,3.845,3.847,3.86,3.892,3.887,18.337,73.4,14,Waypoint,
37.3533266,-119.5420285,4719.1633796878,153.543312,0,0.3869094612,21200,2018-06-12 17:18:57,18,0,23.206,4719.1633796878,153.543312,0,0.88543638004,0,0,-0.671082,267.6, 1, -0.5,0,0,1024,1024,1024,1024,266.6,-89.9,96,3.876,3.845,3.847,3.86,3.892,3.887,18.337,73.4,14,Waypoint,
37.3533266,-119.5420285,4720.1476316878,154.527564,0,0.3869094612,21300,2018-06-12 17:18:57,18,0,23.206,4720.1476316878,154.527564,0,0.88543638004,0,0,-0.671082,267.6, 1.1, -0.7,0,0,1024,1024,1024,1024,266.6,-89.9,96,3.876,3.845,3.847,3.86,3.892,3.887,18.337,73.4,14,Waypoint,
37.3533267,-119.5420285,4721.1318836878,155.511816,0,0.36750001176,21400,2018-06-12 17:18:57,18,0,23.206,4721.1318836878,155.511816,0,0.88543638004,0,0,-0.671082,267.6, 1.2, -0.7,0,0,1024,1024,1024,1024,266.6,-89.9,96,3.876,3.845,3.847,3.86,3.892,3.887,18.337,73.4,14,Waypoint,
37.3533267,-119.5420285,4722.1161356878,156.496068,0,0.36750001176,21500,2018-06-12 17:18:58,18,0,23.206,4722.1161356878,156.496068,0,0.88543638004,0,0,-0.671082,267.6, 1.1, -0.7,0,0,1024,1024,1024,1024,266.6,-89.9,96,3.876,3.845,3.847,3.86,3.892,3.887,18.337,73.4,14,Waypoint,
37.3533267,-119.5420285,4723.4284716878,157.808404,0,0.36750001176,21600,2018-06-12 17:18:58,18,0,23.206,4723.4284716878,157.808404,0,0.88543638004,0,0,-0.671082,267.5, 0.9, -0.9,0,0,1024,1024,1024,1024,266.6,-89.9,96,3.876,3.845,3.847,3.86,3.892,3.887,18.337,73.4,14,Waypoint,
37.3533268,-119.5420284,4724.4127236878,158.792656,0,0.37738846352,21700,2018-06-12 17:18:58,18,0,23.206,4724.4127236878,158.792656,0,0.88543638004,0,0,-0.671082,267.4, 0.8, -0.9,0,0,1024,1024,1024,1024,266.6,-89.9,96,3.876,3.845,3.847,3.86,3.892,3.887,18.337,73.4,14,Waypoint,
37.3533268,-119.5420284,4725.3969756878,159.776908,0,0.37738846352,21800,2018-06-12 17:18:58,18,0,23.206,4725.3969756878,159.776908,0,0.88543638004,0,0,-0.671082,267.4, 0.7, -1,0,0,1024,1024,1024,1024,266.6,-89.9,96,3.876,3.845,3.847,3.86,3.892,3.887,18.337,73.4,14,Waypoint,
37.3533269,-119.5420284,4726.3812276878,160.76116,0,0.36483268884,21900,2018-06-12 17:18:58,18,0,23.206,4726.3812276878,160.76116,0,0.88543638004,0,0,-0.671082,267.4, 0.4, -1.2,0,0,1024,1024,1024,1024,266.6,-90,96,3.876,3.845,3.847,3.86,3.892,3.887,18.337,73.4,14,Waypoint,
37.3533269,-119.5420284,4727.3654796878,161.745412,0,0.36483268884,22000,2018-06-12 17:18:58,18,0,23.095,4727.3654796878,161.745412,0,0.88543638004,0,0,-0.671082,267.4, 0.2, -1.4,0,0,1024,1024,1024,1024,266.6,-90,96,3.87,3.826,3.828,3.835,3.878,3.862,19.406,73.4,14,Waypoint,
37.353327,-119.5420284,4728.3497316878,162.729664,0,0.3555938434,22100,2018-06-12 17:18:58,18,0,23.095,4728.3497316878,162.729664,0,0.88543638004,0,0,-0.671082,267.4, 0.3, -1.8,0,0,1024,1024,1024,1024,266.6,-89.9,96,3.87,3.826,3.828,3.835,3.878,3.862,19.406,73.4,14,Waypoint,
37.353327,-119.5420283,4729.3339836878,163.713916,0,0.38402560284,22200,2018-06-12 17:18:58,18,0,23.095,4729.3339836878,163.713916,0,0.88543638004,0,0,-0.671082,267.5, 0.5, -1.8,0,0,1024,1024,1024,1024,266.6,-89.9,96,3.87,3.826,3.828,3.835,3.878,3.862,19.406,73.4,14,Waypoint,
37.353327,-119.5420283,4730.3182356878,164.698168,0,0.38402560284,22300,2018-06-12 17:18:58,18,0,23.095,4730.3182356878,164.698168,0,0.88543638004,0,0,-0.671082,267.7, 0.6, -1.5,0,0,1024,1024,1024,1024,266.6,-89.9,96,3.87,3.826,3.828,3.835,3.878,3.862,19.406,73.4,14,Waypoint,
37.353327,-119.5420282,4732.2867396878,166.666672,0,0.41253610244,22500,2018-06-12 17:18:59,18,0,23.095,4732.2867396878,166.666672,0,0.88543638004,0,0,-0.671082,267.9, 0.8, -0.8,0,0,1024,1024,1024,1024,266.6,-89.9,96,3.87,3.826,3.828,3.835,3.878,3.862,19.406,73.4,14,Waypoint,
37.353327,-119.5420282,4733.2709916878,167.650924,0,0.41253610244,22600,2018-06-12 17:18:59,18,0,23.095,4733.2709916878,167.650924,0,0.88543638004,0,0,-0.671082,268, 0.7, -0.8,0,0,1024,1024,1024,1024,266.6,-89.9,96,3.87,3.826,3.828,3.835,3.878,3.862,19.406,73.4,14,Waypoint,
37.353327,-119.5420282,4733.9271596878,168.307092,0,0.41253610244,22700,2018-06-12 17:18:59,18,0,23.095,4733.9271596878,168.307092,0,0.88543638004,0,0,-0.671082,268, 0.6, -1,0,0,1024,1024,1024,1024,266.6,-89.9,96,3.87,3.826,3.828,3.835,3.878,3.862,19.406,73.4,14,Waypoint,
37.3533271,-119.5420281,4734.9114116878,169.291344,0,0.43656169376,22800,2018-06-12 17:18:59,18,0,23.095,4734.9114116878,169.291344,0,0.88543638004,0,0,-0.671082,267.9, 0.4, -1.1,0,0,1024,1024,1024,1024,266.6,-90,96,3.87,3.826,3.828,3.835,3.878,3.862,19.406,73.4,14,Waypoint,
37.3533271,-119.5420281,4735.8956636878,170.275596,0,0.43656169376,22900,2018-06-12 17:18:59,18,0,23.095,4735.8956636878,170.275596,0,0.88543638004,0,0,-0.671082,267.8, 0.3, -1.1,0,0,1024,1024,1024,1024,266.6,-90,96,3.87,3.826,3.828,3.835,3.878,3.862,19.406,73.4,14,Waypoint,
37.3533272,-119.542028,4737.8641676878,172.2441,0,0.46403544792,23000,2018-06-12 17:18:59,18,0,23.074,4737.8641676878,172.2441,0,0.88543638004,0,0,-0.671082,267.6, 0.1, -1.3,0,0,1024,1024,1024,1024,266.6,-90,96,3.881,3.835,3.828,3.834,3.872,3.87,18.331,73.4,14,Waypoint,
37.3533273,-119.542028,4740.8169236878,175.196856,0,0.46546589416,23300,2018-06-12 17:18:59,18,0,23.074,4740.8169236878,175.196856,0,0.88543638004,0,0,-0.671082,267.5, 0.4, -1.7,0,0,1024,1024,1024,1024,266.6,-89.9,96,3.881,3.835,3.828,3.834,3.872,3.87,18.331,73.4,14,Waypoint,
37.3533273,-119.542028,4741.8011756878,176.181108,0,0.46546589416,23500,2018-06-12 17:19:00,18,0,23.074,4741.8011756878,176.181108,0,0.88543638004,0,0,-0.671082,267.5, 0.4, -1.6,0,0,1024,1024,1024,1024,266.6,-89.9,96,3.881,3.835,3.828,3.834,3.872,3.87,18.331,73.4,14,Waypoint,
37.3533273,-119.542028,4742.7854276878,177.16536,0,0.46546589416,23600,2018-06-12 17:19:00,18,0,23.074,4742.7854276878,177.16536,0,0.88543638004,0,0,-0.671082,267.6, 0.4, -1.6,0,0,1024,1024,1024,1024,266.6,-89.9,96,3.881,3.835,3.828,3.834,3.872,3.87,18.331,73.4,14,Waypoint,
37.3533273,-119.542028,4743.7696796878,178.149612,0,0.46546589416,23700,2018-06-12 17:19:00,18,0,23.074,4743.7696796878,178.149612,0,0.88543638004,0,0,-0.671082,267.7, 0.5, -1.6,0,0,1024,1024,1024,1024,266.6,-89.9,96,3.881,3.835,3.828,3.834,3.872,3.87,18.331,73.4,14,Waypoint,
37.3533273,-119.542028,4744.7539316878,179.133864,0,0.46546589416,23800,2018-06-12 17:19:00,18,0,23.074,4744.7539316878,179.133864,0,0.88543638004,0,0,-0.671082,267.7, 0.5, -1.4,0,0,1024,1024,1024,1024,266.6,-89.9,96,3.881,3.835,3.828,3.834,3.872,3.87,18.331,73.4,14,Waypoint,
37.3533273,-119.542028,4745.7381836878,180.118116,0,0.46546589416,23900,2018-06-12 17:19:00,18,0,23.074,4745.7381836878,180.118116,0,0.88543638004,0,0,-0.671082,267.8, 0.6, -1.2,0,0,1024,1024,1024,1024,266.6,-89.9,96,3.881,3.835,3.828,3.834,3.872,3.87,18.331,73.4,14,Waypoint,
37.3533272,-119.542028,4746.7224356878,181.102368,0,0.46403544792,24000,2018-06-12 17:19:00,18,0,23.148,4746.7224356878,181.102368,0,0.88543638004,0,0,-0.671082,267.8, 0.7, -1,0,0,1024,1024,1024,1024,266.6,-89.9,96,3.881,3.839,3.842,3.848,3.895,3.878,18.419,73.4,14,Waypoint,
37.3533271,-119.542028,4747.7066876878,182.08662,0,0.46546589416,24100,2018-06-12 17:19:00,18,0,23.148,4747.7066876878,182.08662,0,0.88543638004,0,0,-0.671082,267.9, 0.9, -0.7,0,0,1024,1024,1024,1024,266.6,-89.9,96,3.881,3.839,3.842,3.848,3.895,3.878,18.419,73.4,14,Waypoint,
37.3533271,-119.5420281,4748.6909396878,183.070872,0,0.43656169376,24200,2018-06-12 17:19:00,18,0,23.148,4748.6909396878,183.070872,0,0.88543638004,0,0,-0.671082,267.9, 1, -0.4,0,0,1024,1024,1024,1024,266.6,-89.9,96,3.881,3.839,3.842,3.848,3.895,3.878,18.419,73.4,14,Waypoint,
37.353327,-119.5420281,4749.6751916878,184.055124,0,0.441108938,24300,2018-06-12 17:19:00,18,0,23.148,4749.6751916878,184.055124,0,0.88543638004,0,0,-0.671082,267.8, 1, -0.3,0,0,1024,1024,1024,1024,266.6,-89.9,96,3.881,3.839,3.842,3.848,3.895,3.878,18.419,73.4,14,Waypoint,
37.353327,-119.5420281,4750.6594436878,185.039376,0,0.441108938,24400,2018-06-12 17:19:00,18,0,23.148,4750.6594436878,185.039376,0,0.88543638004,0,0,-0.671082,267.8, 0.9, -0.6,0,0,1024,1024,1024,1024,266.6,-89.9,96,3.881,3.839,3.842,3.848,3.895,3.878,18.419,73.4,14,Waypoint,
37.353327,-119.5420281,4751.6436956878,186.023628,0,0.441108938,24500,2018-06-12 17:19:01,18,0,23.148,4751.6436956878,186.023628,0,0.88543638004,0,0,-0.671082,267.7, 0.8, -1,0,0,1024,1024,1024,1024,266.6,-89.9,96,3.881,3.839,3.842,3.848,3.895,3.878,18.419,73.4,14,Waypoint,
37.353327,-119.5420281,4752.6279476878,187.00788,0,0.441108938,24600,2018-06-12 17:19:01,18,0,23.148,4752.6279476878,187.00788,0,0.88543638004,0,0,-0.671082,267.7, 0.8, -1.6,0,0,1024,1024,1024,1024,266.6,-89.9,96,3.881,3.839,3.842,3.848,3.895,3.878,18.419,73.4,14,Waypoint,
37.3533271,-119.5420281,4753.6121996878,187.992132,0,0.43656169376,24700,2018-06-12 17:19:01,18,0,23.148,4753.6121996878,187.992132,0,0.88543638004,0,0,-0.671082,267.7, 0.8, -1.9,0,0,1024,1024,1024,1024,266.6,-89.9,96,3.881,3.839,3.842,3.848,3.895,3.878,18.419,73.4,14,Waypoint,
37.3533271,-119.5420281,4754.5964516878,188.976384,0,0.43656169376,24800,2018-06-12 17:19:01,18,0,23.148,4754.5964516878,188.976384,0,0.88543638004,0,0,-0.671082,267.7, 0.7, -1.9,0,0,1024,1024,1024,1024,266.6,-90,96,3.881,3.839,3.842,3.848,3.895,3.878,18.419,73.4,14,Waypoint,
37.3533271,-119.5420281,4755.5807036878,189.960636,0,0.43656169376,24900,2018-06-12 17:19:01,18,0,23.148,4755.5807036878,189.960636,0,0.88543638004,0,0,-0.671082,267.7, 0.5, -1.7,0,0,1024,1024,1024,1024,266.6,-90,96,3.881,3.839,3.842,3.848,3.895,3.878,18.419,73.4,14,Waypoint,
37.3533271,-119.542028,4756.5649556878,190.944888,0,0.46546589416,25000,2018-06-12 17:19:01,18,0,23.14,4756.5649556878,190.944888,0,0.88543638004,0,0,-0.671082,267.7, 0.3, -1.6,0,0,1024,1024,1024,1024,266.6,-89.9,96,3.876,3.841,3.837,3.845,3.886,3.866,18.411,73.4,14,Waypoint,
37.353327,-119.542028,4757.5492076878,191.92914,0,0.46973754784,25100,2018-06-12 17:19:01,18,0,23.14,4757.5492076878,191.92914,0,0.88543638004,0,0,-0.671082,267.7, 0.2, -1.4,0,0,1024,1024,1024,1024,266.6,-89.9,96,3.876,3.841,3.837,3.845,3.886,3.866,18.411,73.4,14,Waypoint,
37.3533269,-119.542028,4760.1738796878,194.553812,0,0.47676838796,25300,2018-06-12 17:19:01,18,0,23.14,4760.1738796878,194.553812,0,0.88543638004,0,0,-0.671082,267.5, 0.5, -0.7,0,0,1024,1024,1024,1024,266.6,-89.9,96,3.876,3.841,3.837,3.845,3.886,3.866,18.411,73.4,14,Waypoint,
37.3533269,-119.542028,4761.1581316878,195.538064,0,0.47676838796,25500,2018-06-12 17:19:02,18,0,23.14,4761.1581316878,195.538064,0,0.88543638004,0,0,-0.671082,267.5, 0.5, -0.6,0,0,1024,1024,1024,1024,266.6,-89.9,96,3.876,3.841,3.837,3.845,3.886,3.866,18.411,73.4,14,Waypoint,
37.3533268,-119.5420279,4762.1423836878,196.522316,0,0.51418308732,25600,2018-06-12 17:19:02,18,0,23.14,4762.1423836878,196.522316,0,0.88543638004,0,0,-0.671082,267.5, 0.3, -0.9,0,0,1024,1024,1024,1024,266.6,-89.9,96,3.876,3.841,3.837,3.845,3.886,3.866,18.411,73.4,14,Waypoint,
37.3533268,-119.5420279,4763.4547196878,197.834652,0,0.51418308732,25700,2018-06-12 17:19:02,18,0,23.14,4763.4547196878,197.834652,0,0.88543638004,0,0,-0.671082,267.5, 0.3, -1.1,0,0,1024,1024,1024,1024,266.6,-89.9,96,3.876,3.841,3.837,3.845,3.886,3.866,18.411,73.4,14,Waypoint,
37.3533268,-119.5420279,4764.4389716878,198.818904,0,0.51418308732,25800,2018-06-12 17:19:02,18,0,23.14,4764.4389716878,198.818904,0,0.88543638004,0,0,-0.671082,267.6, 0.4, -1.3,0,0,1024,1024,1024,1024,266.6,-89.9,96,3.876,3.841,3.837,3.845,3.886,3.866,18.411,73.4,14,Waypoint,
37.3533268,-119.5420279,4765.4232236878,199.803156,0,0.51418308732,25900,2018-06-12 17:19:02,18,0,23.14,4765.4232236878,199.803156,0,0.88543638004,0,0,-0.671082,267.6, 0.4, -1.6,0,0,1024,1024,1024,1024,266.6,-89.9,96,3.876,3.841,3.837,3.845,3.886,3.866,18.411,73.4,14,Waypoint,
37.3533268,-119.542028,4766.4074756878,200.787408,0,0.48644358512,26000,2018-06-12 17:19:02,18,0,23.14,4766.4074756878,200.787408,0,0.88543638004,0,0,-0.671082,267.6, 0.6, -1.7,0,0,1024,1024,1024,1024,266.6,-89.9,96,3.876,3.841,3.837,3.845,3.886,3.866,18.411,73.4,14,Waypoint,
37.3533267,-119.542028,4767.3917276878,201.77166,0,0.498605659,26100,2018-06-12 17:19:02,18,0,23.14,4767.3917276878,201.77166,0,0.88543638004,0,0,-0.671082,267.5, 0.7, -1.5,0,0,1024,1024,1024,1024,266.6,-89.9,96,3.876,3.841,3.837,3.845,3.886,3.866,18.411,73.4,14,Waypoint,
37.3533267,-119.542028,4768.3759796878,202.755912,0,0.498605659,26200,2018-06-12 17:19:02,18,0,23.14,4768.3759796878,202.755912,0,0.88543638004,0,0,-0.671082,267.4, 0.7, -1.1,0,0,1024,1024,1024,1024,266.6,-89.9,96,3.876,3.841,3.837,3.845,3.886,3.866,18.411,73.4,14,Waypoint,
37.3533266,-119.542028,4769.3602316878,203.740164,0,0.51308072508,26300,2018-06-12 17:19:02,18,0,23.14,4769.3602316878,203.740164,0,0.88543638004,0,0,-0.671082,267.4, 0.8, -0.9,0,0,1024,1024,1024,1024,266.6,-89.9,96,3.876,3.841,3.837,3.845,3.886,3.866,18.411,73.4,14,Waypoint,
37.3533266,-119.542028,4770.3444836878,204.724416,0,0.51308072508,26400,2018-06-12 17:19:02,18,0,23.14,4770.3444836878,204.724416,0,0.88543638004,0,0,-0.671082,267.4, 0.9, -0.8,0,0,1024,1024,1024,1024,266.6,-89.9,96,3.876,3.841,3.837,3.845,3.886,3.866,18.411,73.4,14,Waypoint,
37.3533265,-119.5420281,4771.3287356878,205.708668,0,0.5044619584,26500,2018-06-12 17:19:03,18,0,23.14,4771.3287356878,205.708668,0,0.88543638004,0,0,-0.671082,267.4, 1, -0.7,0,0,1024,1024,1024,1024,266.6,-89.9,96,3.876,3.841,3.837,3.845,3.886,3.866,18.411,73.4,14,Waypoint,
37.3533265,-119.5420281,4772.3129876878,206.69292,0,0.5044619584,26600,2018-06-12 17:19:03,18,0,23.14,4772.3129876878,206.69292,0,0.88543638004,0,0,-0.671082,267.4, 1.3, -0.7,0,0,1024,1024,1024,1024,266.6,-89.9,96,3.876,3.841,3.837,3.845,3.886,3.866,18.411,73.4,14,Waypoint,
37.3533264,-119.5420281,4773.2972396878,207.677172,0,0.52387796952,26700,2018-06-12 17:19:03,18,0,23.14,4773.2972396878,207.677172,0,0.88543638004,0,0,-0.671082,267.6, 1.4, -0.6,0,0,1024,1024,1024,1024,266.6,-89.9,96,3.876,3.841,3.837,3.845,3.886,3.866,18.411,73.4,14,Waypoint,
37.3533264,-119.5420282,4774.2814916878,208.661424,0,0.50005579028,26800,2018-06-12 17:19:03,18,0,23.14,4774.2814916878,208.661424,0,0.88543638004,0,0,-0.671082,267.7, 1.4, -0.6,0,0,1024,1024,1024,1024,266.6,-89.9,96,3.876,3.841,3.837,3.845,3.886,3.866,18.411,73.4,14,Waypoint,
37.3533263,-119.5420282,4775.2657436878,209.645676,0,0.52219161776,26900,2018-06-12 17:19:03,18,0,23.14,4775.2657436878,209.645676,0,0.88543638004,0,0,-0.671082,267.7, 1.2, -0.4,0,0,1024,1024,1024,1024,266.6,-89.9,96,3.876,3.841,3.837,3.845,3.886,3.866,18.411,73.4,14,Waypoint,
37.3533263,-119.5420282,4776.2499956878,210.629928,0,0.52219161776,27000,2018-06-12 17:19:03,18,0,23.15,4776.2499956878,210.629928,0,0.88543638004,0,0,-0.671082,267.7, 1.1, -0.4,0,0,1024,1024,1024,1024,266.6,-89.9,96,3.879,3.83,3.831,3.834,3.875,3.862,18.517,73.4,14,Waypoint,
37.3533263,-119.5420282,4777.2342476878,211.61418,0,0.52219161776,27100,2018-06-12 17:19:03,18,0,23.15,4777.2342476878,211.61418,0,0.88543638004,0,0,-0.671082,267.7, 0.9, -0.4,0,0,1024,1024,1024,1024,266.6,-89.9,96,3.879,3.83,3.831,3.834,3.875,3.862,18.517,73.4,14,Waypoint,
37.3533262,-119.5420282,4779.2027516878,213.582684,0,0.54587272088,27300,2018-06-12 17:19:03,18,0,23.15,4779.2027516878,213.582684,0,0.88543638004,0,0,-0.671082,267.7, 0.7, -0.5,0,0,1024,1024,1024,1024,266.6,-89.9,96,3.879,3.83,3.831,3.834,3.875,3.862,18.517,73.4,14,Waypoint,
37.3533262,-119.5420281,4781.4993396878,215.879272,0,0.56777560872,27400,2018-06-12 17:19:03,18,0,23.15,4781.4993396878,215.879272,0,0.88543638004,0,0,-0.671082,267.6, 0.6, -0.3,0,0,1024,1024,1024,1024,266.6,-89.9,96,3.879,3.83,3.831,3.834,3.875,3.862,18.517,73.4,14,Waypoint,
37.3533262,-119.542028,4783.4678436878,217.847776,0,0.59029201364,27600,2018-06-12 17:19:04,18,0,23.15,4783.4678436878,217.847776,0,0.88543638004,0,0,-0.671082,267.5, 0.5, -0.4,0,0,1024,1024,1024,1024,266.6,-90,96,3.879,3.83,3.831,3.834,3.875,3.862,18.517,73.4,14,Waypoint,
37.3533263,-119.542028,4784.4520956878,218.832028,0,0.56846458512,27800,2018-06-12 17:19:04,18,0,23.15,4784.4520956878,218.832028,0,0.88543638004,0,0,-0.671082,267.5, 0.5, -1,0,0,1024,1024,1024,1024,266.6,-90,96,3.879,3.83,3.831,3.834,3.875,3.862,18.517,73.4,14,Waypoint,
37.3533263,-119.542028,4785.4363476878,219.81628,0,0.56846458512,27900,2018-06-12 17:19:04,18,0,23.15,4785.4363476878,219.81628,0,0.88543638004,0,0,-0.671082,267.5, 0.5, -1.4,0,0,1024,1024,1024,1024,266.6,-90,96,3.879,3.83,3.831,3.834,3.875,3.862,18.517,73.4,14,Waypoint,
