Latitude, Longitude, Altitude (m), Time, Sats, Speed (m/s), Range (m), Battery (%), Roll (deg), Pitch (deg), Yaw (deg), Images, HD Signal (%), RC Signal (%), Battery Temp (C), Battery Voltage (mV), Battery Current (mA), Battery Energy (mAh), Battery Capacity (mAh), Battery Discharges, flyState, timestamp (Unix), LastUpdate (ms), radioChannel, Rc_elevator, Rc_aileron, Rc_throttle, Rc_rudder, Rc_gyro, Dronetype, Battery_Cell1 (mV), Battery_Cell2 (mV), Battery_Cell3 (mV), Battery_Cell4 (mV), Battery_Cell5 (mV), Battery_Cell6 (mV), Video, isFlying, elapsedTime (ms), gimbalPitch (deg), gimbalRoll (deg), gimbalYaw (deg), VelocityX (m/s), VelocityY (m/s), VelocityZ (m/s), GroundSmear (cm), App Version, Aircraft Name, Aircraft Firmware, Aircraft Serial Number, Battery Serial Number, Battery Lifetime (%), App_Tip, App_Warning, CurrentFlightStartingIndex, CurrentFlightLastVisitedWaypoint, PreviousFlightEndingWaypointIndex
37.3533405, -119.5420200, 0.000, 09:44:46.153, 18, 0.00, 0.08, 97, -1.000, -0.400, -88.700, 2, 100, 100, 23, 25178, -3213, 5252, 5415, 15, 11, 1528821886.153, 83, 0, 1024, 1024, 1024, 1024, 0, 6, 4204, 4191, 4174, 4214, 4212, 4143, 0, 1, 3101, -90.000, 0.000, -88.500, 0.000, 0.000, -0.100, 0.0, MapPilot_2.8.1_04242018, Dendroctonus I, 1.3.1.00, 041DDC1887, 1058163200627, 97, DJI_0001.jpg, Starting Mission from Lat/Long: 37.35334/-119.54203 Camera: Zenmuse X3 - Overlap: 90/90 - Active Connection: No, 0, 0, 0
37.3533404, -119.5420199, 0.000, 09:44:46.253, 18, 0.00, 0.09, 97, -0.700, -0.600, -88.800, 2, 100, 100, 23, 25178, -3213, 5252, 5415, 15, 11, 1528821886.253, 87, 0, 1024, 1024, 1024, 1024, 0, 6, 4204, 4191, 4174, 4214, 4212, 4143, 0, 1, 3201, -89.900, 0.000, -88.500, 0.000, 0.000, -0.200, 0.0, , , , , , 97, , , 0, 0, 0
37.3533404, -119.5420199, 0.000, 09:44:46.353, 18, 0.00, 0.09, 97, -0.200, -0.600, -88.800, 2, 100, 100, 23, 25178, -3213, 5252, 5415, 15, 11, 1528821886.354, 87, 0, 1024, 1024, 1024, 1024, 0, 6, 4204, 4191, 4174, 4214, 4212, 4143, 0, 1, 3301, -90.000, 0.000, -88.500, 0.000, 0.000, -0.300, 0.0, , , , , , 97, , , 0, 0, 0
37.3533403, -119.5420199, 0.000, 09:44:46.453, 18, 0.00, 0.10, 97, 0.000, -0.400, -88.800, 2, 100, 100, 23, 25178, -3213, 5252, 5415, 15, 11, 1528821886.453, 77, 0, 1024, 1024, 1024, 1024, 0, 6, 4204, 4191, 4174, 4214, 4212, 4143, 0, 1, 3401, -89.900, 0.000, -88.500, 0.000, 0.000, -0.400, 0.0, , , , , , 97, , , 0, 0, 0
37.3533402, -119.5420199, 0.100, 09:44:46.553, 18, 0.00, 0.10, 97, 0.200, -0.200, -88.700, 2, 100, 100, 23, 25178, -3213, 5252, 5415, 15, 11, 1528821886.553, 81, 0, 1024, 1024, 1024, 1024, 0, 6, 4204, 4191, 4174, 4214, 4212, 4143, 0, 1, 3501, -89.900, 0.000, -88.500, 0.000, 0.000, -0.400, 0.0, , , , , , 97, , , 0, 0, 0
37.3533401, -119.5420198, 0.100, 09:44:46.653, 19, 0.00, 0.11, 97, 0.600, -0.200, -88.700, 2, 100, 100, 23, 25178, -3213, 5252, 5415, 15, 11, 1528821886.654, 78, 0, 1024, 1024, 1024, 1024, 0, 6, 4204, 4191, 4174, 4214, 4212, 4143, 0, 1, 3601, -89.900, 0.000, -88.500, 0.000, 0.000, -0.400, 0.0, , , , , , 97, , , 0, 0, 0
37.3533401, -119.5420198, 0.200, 09:44:46.753, 19, 0.00, 0.11, 97, 0.700, -0.100, -88.700, 2, 100, 100, 23, 25178, -3213, 5252, 5415, 15, 11, 1528821886.753, 80, 0, 1024, 1024, 1024, 1024, 0, 6, 4204, 4191, 4174, 4214, 4212, 4143, 0, 1, 3701, -89.900, 0.000, -88.500, 0.000, 0.000, -0.400, 0.0, , , , , , 97, , , 0, 0, 0
37.3533400, -119.5420198, 0.200, 09:44:46.853, 18, 0.00, 0.12, 97, 0.700, 0.000, -88.700, 2, 100, 100, 23, 25178, -3213, 5252, 5415, 15, 11, 1528821886.853, 73, 0, 1024, 1024, 1024, 1024, 0, 6, 4204, 4191, 4174, 4214, 4212, 4143, 0, 1, 3801, -89.900, 0.000, -88.500, 0.000, 0.000, -0.400, 0.0, , , , , , 97, , , 0, 0, 0
37.3533400, -119.5420198, 0.300, 09:44:46.953, 18, 0.00, 0.12, 97, 0.700, 0.000, -88.600, 2, 100, 100, 23, 25178, -3213, 5252, 5415, 15, 11, 1528821886.953, 77, 0, 1024, 1024, 1024, 1024, 0, 6, 4204, 4191, 4174, 4214, 4212, 4143, 0, 1, 3901, -89.900, 0.000, -88.500, 0.000, 0.000, -0.400, 0.0, , , , , , 97, , , 0, 0, 0
37.3533399, -119.5420199, 0.300, 09:44:47.053, 18, 0.00, 0.12, 97, 0.800, 0.100, -88.600, 2, 100, 100, 23, 25178, -3213, 5252, 5415, 15, 11, 1528821887.053, 77, 0, 1024, 1024, 1024, 1024, 0, 6, 4204, 4191, 4174, 4214, 4212, 4143, 0, 1, 4001, -89.900, 0.000, -88.500, 0.000, 0.000, -0.400, 0.0, , , , , , 97, , , 0, 0, 0
37.3533399, -119.5420199, 0.400, 09:44:47.153, 18, 0.00, 0.13, 97, 0.800, 0.400, -88.700, 2, 100, 100, 23, 23984, -14710, 5252, 5415, 15, 11, 1528821887.154, 66, 0, 1024, 1024, 1024, 1024, 0, 6, 4204, 4191, 4174, 4214, 4212, 4143, 0, 1, 4101, -89.900, 0.000, -88.500, 0.000, 0.000, -0.400, 0.0, , , , , , 97, , , 0, 0, 0
37.3533398, -119.5420199, 0.400, 09:44:47.253, 18, 0.00, 0.13, 97, 0.800, 0.500, -88.700, 2, 100, 100, 23, 23984, -14710, 5252, 5415, 15, 11, 1528821887.254, 56, 0, 1024, 1024, 1024, 1024, 0, 6, 4204, 4191, 4174, 4214, 4212, 4143, 0, 1, 4201, -89.900, 0.000, -88.500, 0.000, 0.000, -0.500, 0.0, , , , , , 97, , , 0, 0, 0
37.3533397, -119.5420200, 0.500, 09:44:47.353, 18, 0.00, 0.13, 97, 0.800, 0.600, -88.700, 2, 100, 100, 23, 23984, -14710, 5252, 5415, 15, 11, 1528821887.353, 45, 0, 1024, 1024, 1024, 1024, 0, 6, 4204, 4191, 4174, 4214, 4212, 4143, 0, 1, 4300, -89.900, 0.000, -88.500, 0.000, 0.000, -0.500, 0.0, , , , , , 97, , , 0, 0, 0
37.3533397, -119.5420200, 0.500, 09:44:47.452, 18, 0.00, 0.14, 97, 0.900, 0.700, -88.800, 2, 100, 100, 23, 23984, -14710, 5252, 5415, 15, 11, 1528821887.453, 60, 0, 1024, 1024, 1024, 1024, 0, 6, 4204, 4191, 4174, 4214, 4212, 4143, 0, 1, 4400, -89.900, 0.000, -88.500, 0.000, 0.000, -0.500, 0.0, , , , , , 97, , , 0, 0, 0
37.3533396, -119.5420201, 0.600, 09:44:47.553, 18, 0.00, 0.14, 97, 0.900, 0.800, -88.800, 2, 100, 100, 23, 23984, -14710, 5252, 5415, 15, 11, 1528821887.553, 39, 0, 1024, 1024, 1024, 1024, 0, 6, 4204, 4191, 4174, 4214, 4212, 4143, 0, 1, 4500, -89.900, 0.000, -88.500, 0.000, 0.000, -0.400, 0.0, , , , , , 97, , , 0, 0, 0
37.3533396, -119.5420201, 0.700, 09:44:47.653, 18, 0.00, 0.15, 97, 0.900, 0.900, -88.900, 2, 100, 100, 23, 23984, -14710, 5252, 5415, 15, 11, 1528821887.654, 41, 0, 1024, 1024, 1024, 1024, 0, 6, 3948, 3936, 3961, 3967, 3985, 3924, 0, 1, 4601, -89.900, 0.000, -88.500, 0.000, 0.000, -0.400, 0.0, , , , , , 97, , , 0, 0, 0
37.3533395, -119.5420201, 0.700, 09:44:47.753, 18, 0.00, 0.16, 97, 0.900, 0.900, -88.900, 2, 100, 100, 23, 23984, -14710, 5252, 5415, 15, 11, 1528821887.754, 44, 0, 1024, 1024, 1024, 1024, 0, 6, 3948, 3936, 3961, 3967, 3985, 3924, 0, 1, 4701, -89.900, 0.000, -88.500, 0.000, 0.000, -0.400, 0.0, , , , , , 97, , , 0, 0, 0
37.3533394, -119.5420200, 0.800, 09:44:47.853, 16, 0.00, 0.16, 97, 0.900, 0.700, -88.900, 2, 100, 100, 23, 23984, -14710, 5252, 5415, 15, 11, 1528821887.853, 17, 0, 1024, 1024, 1024, 1024, 0, 6, 3948, 3936, 3961, 3967, 3985, 3924, 0, 1, 4800, -89.900, 0.000, -88.500, 0.000, 0.000, -0.500, 0.0, , , , , , 97, , , 0, 0, 0
37.3533393, -119.5420200, 0.800, 09:44:47.953, 16, 0.00, 0.17, 97, 1.000, 0.500, -88.800, 2, 100, 100, 23, 23984, -14710, 5252, 5415, 15, 11, 1528821887.953, 36, 0, 1024, 1024, 1024, 1024, 0, 6, 3948, 3936, 3961, 3967, 3985, 3924, 0, 1, 4901, -89.900, 0.000, -88.500, 0.000, 0.000, -0.400, 0.0, , , , , , 97, , , 0, 0, 0
37.3533393, -119.5420200, 0.900, 09:44:48.052, 19, 0.00, 0.18, 97, 1.000, 0.300, -88.700, 2, 100, 100, 23, 23984, -14710, 5252, 5415, 15, 11, 1528821888.053, 37, 0, 1024, 1024, 1024, 1024, 0, 6, 3948, 3936, 3961, 3967, 3985, 3924, 0, 1, 5000, -89.900, 0.000, -88.500, 0.000, 0.000, -0.500, 0.0, , , , , , 97, , , 0, 0, 0
37.3533393, -119.5420200, 0.900, 09:44:48.153, 19, 0.00, 0.18, 97, 1.000, 0.200, -88.600, 2, 100, 100, 23, 23984, -14710, 5252, 5415, 15, 14, 1528821888.153, 15, 0, 1024, 1024, 1024, 1024, 0, 6, 3948, 3936, 3961, 3967, 3985, 3924, 0, 1, 5100, -89.900, 0.000, -88.500, 0.000, 0.000, -0.500, 0.0, , , , , , 97, , , 0, 0, 0
37.3533392, -119.5420200, 1.000, 09:44:48.253, 19, 0.00, 0.18, 97, 0.900, 0.300, -88.600, 2, 100, 100, 23, 23984, -14710, 5252, 5415, 15, 14, 1528821888.253, 9, 0, 1024, 1024, 1024, 1024, 0, 6, 3948, 3936, 3961, 3967, 3985, 3924, 0, 1, 5201, -89.900, 0.000, -88.500, 0.000, 0.000, -0.400, 0.0, , , , , , 97, , , 0, 0, 0
37.3533392, -119.5420200, 1.000, 09:44:48.353, 19, 0.00, 0.19, 97, 0.600, 0.200, -88.500, 2, 100, 100, 23, 23984, -14710, 5252, 5415, 15, 14, 1528821888.354, 23, 0, 1024, 1024, 1024, 1024, 0, 6, 3948, 3936, 3961, 3967, 3985, 3924, 0, 1, 5301, -89.900, 0.000, -88.500, 0.000, 0.000, -0.300, 0.0, , , , , , 97, , , 0, 0, 0
37.3533392, -119.5420200, 1.000, 09:44:48.453, 18, 0.00, 0.19, 97, 0.500, 0.300, -88.400, 2, 100, 100, 23, 23984, -14710, 5252, 5415, 15, 14, 1528821888.454, 16, 0, 1024, 1024, 1024, 1024, 0, 6, 3948, 3936, 3961, 3967, 3985, 3924, 0, 1, 5401, -89.900, 0.000, -88.500, 0.000, 0.000, -0.200, 0.0, , , , , , 97, , , 0, 0, 0
37.3533391, -119.5420199, 1.100, 09:44:48.553, 19, 0.00, 0.20, 97, 0.700, 0.200, -88.400, 2, 100, 100, 23, 23984, -14710, 5252, 5415, 15, 14, 1528821888.554, 7, 0, 1024, 1024, 1024, 1024, 0, 6, 3948, 3936, 3961, 3967, 3985, 3924, 0, 1, 5501, -90.000, 0.000, -88.500, 0.000, 0.000, -0.400, 0.0, , , , , , 97, , , 0, 0, 0
37.3533391, -119.5420199, 1.100, 09:44:48.653, 19, 0.00, 0.20, 97, 0.700, 0.200, -88.400, 2, 100, 100, 23, 23984, -14710, 5252, 5415, 15, 14, 1528821888.653, 106, 0, 1024, 1024, 1024, 1024, 0, 6, 3948, 3936, 3961, 3967, 3985, 3924, 0, 1, 5601, -90.000, 0.000, -88.500, 0.000, 0.000, -0.400, 0.0, , , , , , 97, , , 0, 0, 0
37.3533391, -119.5420200, 1.200, 09:44:48.756, 19, 0.00, 0.20, 97, 0.700, 0.200, -88.400, 2, 100, 100, 23, 23506, -16903, 5198, 5415, 15, 14, 1528821888.757, 4, 0, 1024, 1024, 1024, 1024, 0, 6, 3948, 3936, 3961, 3967, 3985, 3924, 0, 1, 5704, -89.900, 0.000, -88.500, 0.000, 0.000, -0.500, 0.0, , , , , , 97, , , 0, 0, 0
37.3533390, -119.5420200, 1.200, 09:44:48.853, 19, 0.00, 0.20, 97, 0.700, 0.300, -88.400, 2, 100, 100, 23, 23506, -16903, 5198, 5415, 15, 14, 1528821888.854, 96, 0, 1024, 1024, 1024, 1024, 0, 6, 3894, 3889, 3919, 3916, 3937, 3901, 0, 1, 5801, -89.900, 0.000, -88.500, 0.000, 0.000, -0.700, 0.0, , , , , , 97, , , 0, 0, 0
37.3533390, -119.5420200, 1.300, 09:44:48.953, 19, 0.00, 0.21, 97, 0.800, 0.300, -88.400, 2, 100, 100, 23, 23506, -16903, 5198, 5415, 15, 14, 1528821888.953, 79, 0, 1024, 1024, 1024, 1024, 0, 6, 3894, 3889, 3919, 3916, 3937, 3901, 0, 1, 5901, -89.900, 0.000, -88.500, 0.000, 0.000, -0.900, 0.0, , , , , , 97, , , 0, 0, 0
37.3533390, -119.5420200, 1.400, 09:44:49.053, 19, 0.00, 0.21, 97, 0.900, 0.300, -88.400, 2, 100, 100, 23, 23506, -16903, 5198, 5415, 15, 14, 1528821889.054, 81, 0, 1024, 1024, 1024, 1024, 0, 6, 3894, 3889, 3919, 3916, 3937, 3901, 0, 1, 6001, -89.900, 0.000, -88.500, 0.000, 0.000, -1.100, 0.0, , , , , , 97, , , 0, 0, 0
37.3533389, -119.5420200, 1.600, 09:44:49.153, 19, 0.00, 0.21, 97, 0.900, 0.400, -88.400, 2, 100, 100, 23, 23506, -16903, 5198, 5415, 15, 14, 1528821889.153, 83, 0, 1024, 1024, 1024, 1024, 0, 6, 3894, 3889, 3919, 3916, 3937, 3901, 0, 1, 6100, -89.900, 0.000, -88.500, 0.000, 0.000, -1.400, 0.0, , , , , , 97, , , 0, 0, 0
37.3533389, -119.5420199, 1.700, 09:44:49.253, 19, 0.00, 0.21, 97, 0.700, 0.400, -88.500, 2, 100, 100, 23, 23506, -16903, 5198, 5415, 15, 14, 1528821889.254, 65, 0, 1024, 1024, 1024, 1024, 0, 6, 3894, 3889, 3919, 3916, 3937, 3901, 0, 1, 6201, -89.900, 0.000, -88.500, 0.000, 0.000, -1.500, 0.0, , , , , , 97, , , 0, 0, 0
37.3533390, -119.5420199, 1.900, 09:44:49.353, 19, 0.00, 0.21, 97, 0.500, 0.500, -88.600, 2, 100, 100, 23, 23506, -16903, 5198, 5415, 15, 14, 1528821889.353, 73, 0, 1024, 1024, 1024, 1024, 0, 6, 3894, 3889, 3919, 3916, 3937, 3901, 0, 1, 6300, -89.900, 0.000, -88.500, 0.000, 0.000, -1.700, 0.0, , , , , , 97, , , 0, 0, 0
37.3533390, -119.5420198, 2.000, 09:44:49.453, 19, 0.00, 0.21, 97, 0.300, 0.500, -88.700, 2, 100, 100, 23, 23506, -16903, 5198, 5415, 15, 14, 1528821889.454, 66, 0, 1024, 1024, 1024, 1024, 0, 6, 3894, 3889, 3919, 3916, 3937, 3901, 0, 1, 6401, -89.900, 0.000, -88.500, 0.000, 0.000, -1.900, 0.0, , , , , , 97, , , 0, 0, 0
37.3533390, -119.5420197, 2.300, 09:44:49.553, 19, 0.00, 0.22, 97, 0.300, 0.500, -88.700, 2, 100, 100, 23, 23506, -16903, 5198, 5415, 15, 14, 1528821889.553, 63, 0, 1024, 1024, 1024, 1024, 0, 6, 3894, 3889, 3919, 3916, 3937, 3901, 0, 1, 6500, -89.900, 0.000, -88.500, 0.000, 0.000, -2.200, 0.0, , , , , , 97, , , 0, 0, 0
37.3533390, -119.5420196, 2.500, 09:44:49.653, 19, 0.00, 0.22, 96, 0.400, 0.300, -88.800, 2, 100, 100, 23, 23546, -16256, 5198, 5415, 15, 14, 1528821889.654, 34, 0, 1024, 1024, 1024, 1024, 0, 6, 3913, 3901, 3880, 3923, 3912, 3903, 0, 1, 6601, -90.000, 0.000, -88.500, 0.000, 0.000, -2.400, 0.0, , , , , , 97, , , 0, 0, 0
37.3533390, -119.5420196, 2.800, 09:44:49.753, 19, 0.00, 0.22, 96, 0.300, 0.000, -88.800, 2, 100, 100, 23, 23546, -16256, 5198, 5415, 15, 14, 1528821889.753, 25, 0, 1024, 1024, 1024, 1024, 0, 6, 3913, 3901, 3880, 3923, 3912, 3903, 0, 1, 6700, -90.000, 0.000, -88.500, 0.000, 0.000, -2.900, 0.0, , , , , , 97, , , 0, 0, 0
37.3533391, -119.5420195, 3.100, 09:44:49.853, 18, 0.00, 0.21, 96, 0.200, 0.100, -88.800, 2, 100, 100, 23, 23546, -16256, 5198, 5415, 15, 14, 1528821889.853, 38, 0, 1024, 1024, 1024, 1024, 0, 6, 3913, 3901, 3880, 3923, 3912, 3903, 0, 1, 6800, -90.000, 0.000, -88.500, 0.000, 0.000, -3.000, 0.0, , , , , , 97, , , 0, 0, 0
37.3533392, -119.5420195, 3.400, 09:44:49.953, 18, 0.00, 0.21, 96, 0.100, 0.200, -88.700, 2, 100, 100, 23, 23546, -16256, 5198, 5415, 15, 14, 1528821889.953, 16, 0, 1024, 1024, 1024, 1024, 0, 6, 3913, 3901, 3880, 3923, 3912, 3903, 0, 1, 6900, -89.900, 0.000, -88.500, 0.000, 0.000, -3.100, 0.0, , , , , , 97, , , 0, 0, 0
37.3533393, -119.5420195, 3.800, 09:44:50.053, 19, 0.00, 0.20, 96, 0.000, 0.200, -88.600, 2, 100, 100, 23, 23546, -16256, 5198, 5415, 15, 14, 1528821890.053, 32, 0, 1024, 1024, 1024, 1024, 0, 6, 3913, 3901, 3880, 3923, 3912, 3903, 0, 1, 7000, -89.900, 0.000, -88.500, 0.000, 0.000, -3.100, 0.0, , , , , , 97, , , 0, 0, 0
37.3533394, -119.5420195, 4.400, 09:44:50.153, 19, 0.00, 0.19, 96, -0.400, 0.600, -88.300, 2, 100, 100, 23, 23546, -16256, 5198, 5415, 15, 14, 1528821890.153, 6, 0, 1024, 1024, 1024, 1024, 0, 6, 3913, 3901, 3880, 3923, 3912, 3903, 0, 1, 7100, -89.900, 0.000, -88.500, 0.000, 0.000, -3.200, 0.0, , , , , , 97, , , 0, 0, 0
37.3533394, -119.5420195, 4.400, 09:44:50.253, 19, 0.00, 0.19, 96, -0.400, 0.600, -88.300, 2, 100, 100, 23, 23546, -16256, 5198, 5415, 15, 14, 1528821890.253, 106, 0, 1024, 1024, 1024, 1024, 0, 6, 3913, 3901, 3880, 3923, 3912, 3903, 0, 1, 7200, -89.900, 0.000, -88.500, 0.000, 0.000, -3.200, 0.0, , , , , , 97, , , 0, 0, 0
37.3533394, -119.5420195, 4.400, 09:44:50.353, 19, 0.00, 0.19, 96, -0.400, 0.600, -88.300, 2, 100, 100, 23, 23546, -16256, 5198, 5415, 15, 14, 1528821890.354, 206, 0, 1024, 1024, 1024, 1024, 0, 6, 3913, 3901, 3880, 3923, 3912, 3903, 0, 1, 7301, -89.900, 0.000, -88.500, 0.000, 0.000, -3.200, 0.0, , , , , , 97, , , 0, 0, 0
37.3533395, -119.5420195, 4.800, 09:44:50.453, 19, 0.00, 0.18, 96, -0.400, 0.800, -88.300, 2, 100, 100, 23, 23546, -16256, 5198, 5415, 15, 14, 1528821890.454, 91, 0, 1024, 1024, 1024, 1024, 0, 6, 3913, 3901, 3880, 3923, 3912, 3903, 0, 1, 7401, -89.900, 0.000, -88.500, 0.000, 0.000, -3.200, 0.0, , , , , , 97, , , 0, 0, 0
37.3533395, -119.5420195, 5.100, 09:44:50.553, 19, 0.00, 0.18, 96, -0.400, 0.800, -88.300, 2, 100, 100, 23, 23546, -16256, 5198, 5415, 15, 14, 1528821890.554, 96, 0, 1024, 1024, 1024, 1024, 0, 6, 3913, 3901, 3880, 3923, 3912, 3903, 0, 1, 7501, -89.900, 0.000, -88.500, 0.000, 0.000, -3.200, 0.0, , , , , , 97, , , 0, 0, 0
37.3533394, -119.5420196, 5.800, 09:44:50.653, 19, 0.00, 0.19, 96, 0.000, 0.700, -88.300, 2, 100, 100, 23, 22818, -23252, 5198, 5415, 15, 14, 1528821890.653, 96, 0, 1024, 1024, 1024, 1024, 0, 6, 3748, 3756, 3778, 3785, 3808, 3763, 0, 1, 7600, -89.900, 0.000, -88.500, 0.000, 0.000, -3.300, 0.0, , , , , , 97, , , 0, 0, 0
37.3533393, -119.5420196, 6.200, 09:44:50.753, 19, 0.00, 0.19, 96, 0.100, 0.500, -88.400, 2, 100, 100, 23, 22818, -23252, 5198, 5415, 15, 14, 1528821890.753, 91, 0, 1024, 1024, 1024, 1024, 0, 6, 3748, 3756, 3778, 3785, 3808, 3763, 0, 1, 7700, -89.900, 0.000, -88.500, 0.000, 0.000, -3.300, 0.0, , , , , , 97, , , 0, 0, 0
37.3533393, -119.5420196, 6.500, 09:44:50.852, 19, 0.00, 0.19, 96, 0.100, 0.500, -88.400, 2, 100, 100, 23, 22818, -23252, 5198, 5415, 15, 14, 1528821890.853, 87, 0, 1024, 1024, 1024, 1024, 0, 6, 3748, 3756, 3778, 3785, 3808, 3763, 0, 1, 7800, -89.900, 0.000, -88.500, 0.000, 0.000, -3.200, 0.0, , , , , , 97, , , 0, 0, 0
37.3533392, -119.5420197, 6.800, 09:44:50.952, 19, 0.00, 0.20, 96, 0.200, 0.500, -88.500, 2, 100, 100, 23, 22818, -23252, 5198, 5415, 15, 14, 1528821890.953, 63, 0, 1024, 1024, 1024, 1024, 0, 6, 3748, 3756, 3778, 3785, 3808, 3763, 0, 1, 7900, -89.900, 0.000, -88.500, 0.000, 0.000, -3.100, 0.0, , , , , , 97, , , 0, 0, 0
37.3533391, -119.5420198, 7.200, 09:44:51.052, 19, 0.00, 0.20, 96, 0.300, 0.700, -88.600, 2, 100, 100, 23, 22818, -23252, 5198, 5415, 15, 14, 1528821891.053, 66, 0, 1024, 1024, 1024, 1024, 0, 6, 3748, 3756, 3778, 3785, 3808, 3763, 0, 1, 8000, -89.900, 0.000, -88.500, 0.000, 0.000, -3.200, 0.0, , , , , , 97, , , 0, 0, 0
37.3533391, -119.5420199, 7.500, 09:44:51.153, 19, 0.00, 0.20, 96, 0.400, 1.000, -88.600, 2, 100, 100, 23, 22818, -23252, 5198, 5415, 15, 14, 1528821891.153, 68, 0, 1024, 1024, 1024, 1024, 0, 6, 3748, 3756, 3778, 3785, 3808, 3763, 0, 1, 8101, -89.900, 0.000, -88.500, 0.000, 0.000, -3.100, 0.0, , , , , , 97, , , 0, 0, 0
37.3533390, -119.5420199, 7.800, 09:44:51.253, 19, 0.00, 0.21, 96, 0.400, 1.100, -88.600, 2, 100, 100, 23, 22818, -23252, 5198, 5415, 15, 14, 1528821891.253, 50, 0, 1024, 1024, 1024, 1024, 0, 6, 3748, 3756, 3778, 3785, 3808, 3763, 0, 1, 8200, -89.900, 0.000, -88.500, 0.000, 0.000, -3.100, 0.0, , , , , , 97, , , 0, 0, 0
37.3533389, -119.5420200, 8.200, 09:44:51.353, 19, 0.00, 0.22, 96, 0.500, 1.200, -88.600, 2, 100, 100, 23, 22818, -23252, 5198, 5415, 15, 14, 1528821891.353, 58, 0, 1024, 1024, 1024, 1024, 0, 6, 3748, 3756, 3778, 3785, 3808, 3763, 0, 1, 8301, -89.900, 0.000, -88.500, 0.000, 0.000, -3.100, 0.0, , , , , , 97, , , 0, 0, 0
37.3533388, -119.5420201, 8.500, 09:44:51.453, 19, 0.00, 0.22, 96, 0.700, 1.100, -88.600, 2, 100, 100, 23, 22818, -23252, 5198, 5415, 15, 14, 1528821891.454, 52, 0, 1024, 1024, 1024, 1024, 0, 6, 3748, 3756, 3778, 3785, 3808, 3763, 0, 1, 8401, -89.900, 0.000, -88.500, 0.000, 0.000, -3.000, 0.0, , , , , , 97, , , 0, 0, 0
37.3533387, -119.5420201, 8.800, 09:44:51.553, 19, 0.00, 0.23, 96, 0.800, 0.900, -88.600, 2, 100, 100, 23, 22818, -23252, 5198, 5415, 15, 14, 1528821891.553, 43, 0, 1024, 1024, 1024, 1024, 0, 6, 3748, 3756, 3778, 3785, 3808, 3763, 0, 1, 8501, -89.900, 0.000, -88.500, 0.000, 0.000, -3.000, 0.0, , , , , , 97, , , 0, 0, 0
37.3533386, -119.5420202, 9.100, 09:44:51.652, 19, 0.00, 0.24, 96, 0.800, 0.900, -88.600, 2, 100, 100, 23, 22847, -21074, 5198, 5415, 15, 14, 1528821891.653, 48, 0, 1024, 1024, 1024, 1024, 0, 6, 3792, 3797, 3818, 3836, 3841, 3819, 0, 1, 8600, -89.900, 0.000, -88.500, 0.000, 0.000, -3.000, 0.0, , , , , , 97, , , 0, 0, 0
37.3533386, -119.5420203, 9.400, 09:44:51.753, 19, 0.00, 0.25, 96, 0.700, 0.900, -88.600, 2, 100, 98, 23, 22847, -21074, 5198, 5415, 15, 14, 1528821891.754, 52, 0, 1024, 1024, 1024, 1024, 0, 6, 3792, 3797, 3818, 3836, 3841, 3819, 0, 1, 8701, -89.900, 0.000, -88.500, 0.000, 0.000, -3.100, 0.0, , , , , , 97, , , 0, 0, 0
37.3533385, -119.5420203, 9.700, 09:44:51.853, 19, 0.00, 0.25, 96, 0.700, 1.000, -88.600, 2, 100, 98, 23, 22847, -21074, 5198, 5415, 15, 14, 1528821891.853, 42, 0, 1024, 1024, 1024, 1024, 0, 6, 3792, 3797, 3818, 3836, 3841, 3819, 0, 1, 8801, -89.900, 0.000, -88.500, 0.000, 0.000, -3.000, 0.0, , , , , , 97, , , 0, 0, 0
37.3533385, -119.5420204, 10.000, 09:44:51.953, 19, 0.00, 0.25, 96, 0.600, 1.000, -88.500, 2, 100, 98, 23, 22847, -21074, 5198, 5415, 15, 14, 1528821891.953, 48, 0, 1024, 1024, 1024, 1024, 0, 6, 3792, 3797, 3818, 3836, 3841, 3819, 0, 1, 8900, -89.900, 0.000, -88.500, 0.000, 0.000, -2.900, 0.0, , , , , , 97, , , 0, 0, 0
37.3533384, -119.5420205, 10.300, 09:44:52.053, 19, 0.00, 0.26, 96, 0.500, 0.900, -88.400, 2, 100, 98, 23, 22847, -21074, 5198, 5415, 15, 14, 1528821892.053, 43, 0, 1024, 1024, 1024, 1024, 0, 6, 3792, 3797, 3818, 3836, 3841, 3819, 0, 1, 9000, -89.900, 0.000, -88.500, 0.000, 0.000, -3.000, 0.0, , , , , , 97, , , 0, 0, 0
37.3533384, -119.5420205, 10.600, 09:44:52.153, 19, 0.00, 0.26, 96, 0.500, 1.100, -88.400, 2, 100, 98, 23, 22847, -21074, 5198, 5415, 15, 14, 1528821892.153, 36, 0, 1024, 1024, 1024, 1024, 0, 6, 3792, 3797, 3818, 3836, 3841, 3819, 0, 1, 9100, -89.900, 0.000, -88.500, 0.000, 0.000, -3.000, 0.0, , , , , , 97, , , 0, 0, 0
37.3533383, -119.5420206, 11.000, 09:44:52.253, 19, 0.00, 0.27, 96, 0.800, 1.200, -88.500, 2, 100, 98, 23, 22847, -21074, 5198, 5415, 15, 14, 1528821892.253, 29, 0, 1024, 1024, 1024, 1024, 0, 6, 3792, 3797, 3818, 3836, 3841, 3819, 0, 1, 9200, -89.900, 0.000, -88.500, 0.000, 0.000, -3.000, 0.0, , , , , , 97, , , 0, 0, 0
37.3533383, -119.5420206, 11.000, 09:44:52.353, 19, 0.00, 0.27, 96, 0.800, 1.200, -88.500, 2, 100, 98, 23, 22847, -21074, 5198, 5415, 15, 14, 1528821892.353, 129, 0, 1024, 1024, 1024, 1024, 0, 6, 3792, 3797, 3818, 3836, 3841, 3819, 0, 1, 9300, -89.900, 0.000, -88.500, 0.000, 0.000, -3.000, 0.0, , , , , , 97, , , 0, 0, 0
37.3533382, -119.5420207, 11.600, 09:44:52.453, 19, 0.00, 0.28, 96, 1.100, 1.500, -88.500, 2, 100, 98, 23, 22847, -21074, 5198, 5415, 15, 14, 1528821892.453, 11, 0, 1024, 1024, 1024, 1024, 0, 6, 3792, 3797, 3818, 3836, 3841, 3819, 0, 1, 9400, -89.900, 0.000, -88.500, 0.000, 0.000, -3.000, 0.0, , , , , , 97, , , 0, 0, 0
37.3533381, -119.5420208, 11.900, 09:44:52.552, 19, 0.00, 0.29, 96, 1.100, 1.800, -88.600, 2, 100, 98, 23, 22847, -21074, 5198, 5415, 15, 14, 1528821892.553, 16, 0, 1024, 1024, 1024, 1024, 0, 6, 3792, 3797, 3818, 3836, 3841, 3819, 0, 1, 9500, -89.900, 0.000, -88.500, 0.000, 0.000, -3.000, 0.0, , , , , , 97, , , 0, 0, 0
37.3533381, -119.5420209, 12.200, 09:44:52.653, 19, 0.00, 0.29, 96, 1.000, 1.900, -88.700, 2, 100, 98, 23, 22943, -19232, 5198, 5415, 15, 14, 1528821892.653, 17, 0, 1024, 1024, 1024, 1024, 0, 6, 3792, 3797, 3818, 3836, 3841, 3819, 0, 1, 9600, -89.900, 0.000, -88.500, 0.000, 0.000, -3.000, 0.0, , , , , , 97, , , 0, 0, 0
37.3533381, -119.5420210, 12.500, 09:44:52.753, 19, 0.00, 0.29, 96, 1.000, 2.000, -88.700, 2, 100, 98, 23, 22943, -19232, 5198, 5415, 15, 14, 1528821892.753, 10, 0, 1024, 1024, 1024, 1024, 0, 6, 3792, 3797, 3818, 3836, 3841, 3819, 0, 1, 9700, -89.900, 0.000, -88.500, 0.000, 0.000, -3.000, 0.0, , , , , , 97, , , 0, 0, 0
37.3533381, -119.5420210, 12.500, 09:44:52.852, 19, 0.00, 0.29, 96, 1.000, 2.000, -88.700, 2, 100, 98, 23, 22943, -19232, 5198, 5415, 15, 14, 1528821892.852, 109, 0, 1024, 1024, 1024, 1024, 0, 6, 3792, 3797, 3818, 3836, 3841, 3819, 0, 1, 9799, -89.900, 0.000, -88.500, 0.000, 0.000, -3.000, 0.0, , , , , , 97, , , 0, 0, 0
37.3533381, -119.5420210, 12.800, 09:44:52.953, 19, 0.00, 0.30, 96, 1.100, 2.000, -88.700, 2, 100, 98, 23, 22943, -19232, 5198, 5415, 15, 14, 1528821892.953, 89, 0, 1024, 1024, 1024, 1024, 0, 6, 3792, 3797, 3818, 3836, 3841, 3819, 0, 1, 9900, -89.900, 0.000, -88.500, 0.000, 0.000, -3.000, 0.0, , , , , , 97, , , 0, 0, 0
37.3533381, -119.5420210, 13.100, 09:44:53.053, 19, 0.00, 0.29, 96, 1.000, 2.000, -88.600, 2, 100, 98, 23, 22943, -19232, 5198, 5415, 15, 14, 1528821893.053, 91, 0, 1024, 1024, 1024, 1024, 0, 6, 3792, 3797, 3818, 3836, 3841, 3819, 0, 1, 10000, -89.900, 0.000, -88.500, 0.000, 0.000, -2.900, 0.0, , , , , , 97, , , 0, 0, 0
37.3533381, -119.5420210, 13.700, 09:44:53.153, 19, 0.00, 0.29, 96, 0.700, 1.400, -88.400, 2, 100, 98, 23, 22943, -19232, 5198, 5415, 15, 14, 1528821893.153, 98, 0, 1024, 1024, 1024, 1024, 0, 6, 3813, 3805, 3832, 3834, 3846, 3824, 0, 1, 10100, -89.900, 0.000, -88.500, 0.000, 0.000, -3.000, 0.0, , , , , , 97, , , 0, 0, 0
37.3533382, -119.5420210, 14.000, 09:44:53.253, 19, 0.00, 0.28, 96, 0.500, 1.300, -88.300, 2, 100, 97, 23, 22943, -19232, 5198, 5415, 15, 14, 1528821893.253, 94, 0, 1024, 1024, 1024, 1024, 0, 6, 3813, 3805, 3832, 3834, 3846, 3824, 0, 1, 10200, -89.900, 0.000, -88.500, 0.000, 0.000, -3.000, 0.0, , , , , , 97, , , 0, 0, 0
37.3533382, -119.5420210, 14.300, 09:44:53.352, 19, 0.00, 0.28, 96, 0.300, 1.300, -88.200, 2, 100, 97, 23, 22943, -19232, 5198, 5415, 15, 14, 1528821893.352, 85, 0, 1024, 1024, 1024, 1024, 0, 6, 3813, 3805, 3832, 3834, 3846, 3824, 0, 1, 10299, -89.900, 0.000, -88.500, 0.000, 0.000, -3.000, 0.0, , , , , , 97, , , 0, 0, 0
37.3533382, -119.5420209, 14.600, 09:44:53.453, 19, 0.00, 0.28, 96, 0.100, 1.200, -88.100, 2, 100, 97, 23, 22943, -19232, 5198, 5415, 15, 14, 1528821893.453, 46, 0, 1024, 1024, 1024, 1024, 0, 6, 3813, 3805, 3832, 3834, 3846, 3824, 0, 1, 10400, -90.000, 0.000, -88.500, 0.000, 0.000, -3.000, 0.0, , , , , , 97, , , 0, 0, 0
37.3533382, -119.5420209, 14.600, 09:44:53.553, 19, 0.00, 0.28, 96, 0.100, 1.200, -88.100, 2, 100, 97, 23, 22943, -19232, 5198, 5415, 15, 14, 1528821893.553, 146, 0, 1024, 1024, 1024, 1024, 0, 6, 3813, 3805, 3832, 3834, 3846, 3824, 0, 1, 10500, -90.000, 0.000, -88.500, 0.000, 0.000, -3.000, 0.0, , , , , , 97, , , 0, 0, 0
37.3533383, -119.5420209, 15.300, 09:44:53.653, 19, 0.00, 0.27, 96, 0.000, 0.800, -88.300, 2, 100, 97, 23, 22943, -19232, 5198, 5415, 15, 14, 1528821893.653, 64, 0, 1024, 1024, 1024, 1024, 0, 6, 3813, 3805, 3832, 3834, 3846, 3824, 0, 1, 10600, -90.000, 0.000, -88.500, 0.000, 0.000, -3.000, 0.0, , , , , , 97, , , 0, 0, 0
37.3533383, -119.5420209, 15.600, 09:44:53.753, 19, 0.00, 0.27, 96, 0.200, 0.900, -88.500, 2, 100, 95, 23, 22943, -19232, 5198, 5415, 15, 14, 1528821893.753, 77, 0, 1024, 1024, 1024, 1024, 0, 6, 3813, 3805, 3832, 3834, 3846, 3824, 0, 1, 10700, -90.000, 0.000, -88.500, 0.000, 0.000, -3.000, 0.0, , , , , , 97, , , 0, 0, 0
37.3533383, -119.5420208, 15.900, 09:44:53.853, 19, 0.00, 0.27, 96, 0.400, 0.900, -88.700, 2, 100, 95, 23, 22943, -19232, 5198, 5415, 15, 14, 1528821893.853, 63, 0, 1024, 1024, 1024, 1024, 0, 6, 3813, 3805, 3832, 3834, 3846, 3824, 0, 1, 10800, -89.900, 0.000, -88.500, 0.000, 0.000, -3.000, 0.0, , , , , , 97, , , 0, 0, 0
37.3533383, -119.5420209, 16.200, 09:44:53.953, 19, 0.00, 0.26, 96, 0.500, 1.100, -88.900, 2, 100, 95, 23, 22943, -19232, 5198, 5415, 15, 14, 1528821893.954, 66, 0, 1024, 1024, 1024, 1024, 0, 6, 3813, 3805, 3832, 3834, 3846, 3824, 0, 1, 10901, -89.900, 0.000, -88.500, 0.000, 0.000, -2.900, 0.0, , , , , , 97, , , 0, 0, 0
37.3533384, -119.5420209, 16.500, 09:44:54.053, 19, 0.00, 0.26, 96, 0.400, 1.100, -89.000, 2, 100, 95, 23, 22943, -19232, 5198, 5415, 15, 14, 1528821894.053, 52, 0, 1024, 1024, 1024, 1024, 0, 6, 3813, 3805, 3832, 3834, 3846, 3824, 0, 1, 11000, -89.900, 0.000, -88.500, 0.000, 0.000, -2.900, 0.0, , , , , , 97, , , 0, 0, 0
37.3533384, -119.5420209, 16.800, 09:44:54.152, 19, 0.00, 0.26, 96, 0.200, 1.200, -89.100, 2, 100, 95, 23, 22966, -19058, 5198, 5415, 15, 14, 1528821894.153, 55, 0, 1024, 1024, 1024, 1024, 0, 6, 3811, 3813, 3832, 3837, 3852, 3821, 0, 1, 11100, -89.900, 0.000, -88.500, 0.000, 0.000, -2.900, 0.0, , , , , , 97, , , 0, 0, 0
37.3533384, -119.5420209, 17.100, 09:44:54.253, 19, 0.00, 0.25, 96, 0.000, 1.200, -89.100, 2, 100, 97, 23, 22966, -19058, 5198, 5415, 15, 14, 1528821894.253, 46, 0, 1024, 1024, 1024, 1024, 0, 6, 3811, 3813, 3832, 3837, 3852, 3821, 0, 1, 11200, -89.900, 0.000, -88.500, 0.000, 0.000, -2.900, 0.0, , , , , , 97, , , 0, 0, 0
37.3533385, -119.5420209, 17.400, 09:44:54.353, 19, 0.00, 0.25, 96, 0.000, 1.400, -89.100, 2, 100, 97, 23, 22966, -19058, 5198, 5415, 15, 14, 1528821894.353, 53, 0, 1024, 1024, 1024, 1024, 0, 6, 3811, 3813, 3832, 3837, 3852, 3821, 0, 1, 11300, -89.900, 0.000, -88.500, 0.000, 0.000, -2.900, 0.0, , , , , , 97, , , 0, 0, 0
37.3533385, -119.5420209, 17.700, 09:44:54.453, 19, 0.00, 0.24, 96, 0.000, 1.700, -89.100, 2, 100, 97, 23, 22966, -19058, 5198, 5415, 15, 14, 1528821894.453, 45, 0, 1024, 1024, 1024, 1024, 0, 6, 3811, 3813, 3832, 3837, 3852, 3821, 0, 1, 11400, -89.900, 0.000, -88.500, 0.000, 0.000, -2.900, 0.0, , , , , , 97, , , 0, 0, 0
37.3533386, -119.5420209, 18.000, 09:44:54.552, 19, 0.00, 0.24, 96, -0.100, 1.800, -89.100, 2, 100, 97, 23, 22966, -19058, 5198, 5415, 15, 14, 1528821894.553, 9, 0, 1024, 1024, 1024, 1024, 0, 6, 3811, 3813, 3832, 3837, 3852, 3821, 0, 1, 11500, -89.900, 0.000, -88.500, 0.000, 0.000, -2.900, 0.0, , , , , , 97, , , 0, 0, 0
37.3533386, -119.5420209, 18.300, 09:44:54.652, 19, 0.00, 0.23, 96, -0.200, 1.800, -89.000, 2, 100, 97, 23, 22966, -19058, 5198, 5415, 15, 14, 1528821894.652, 20, 0, 1024, 1024, 1024, 1024, 0, 6, 3811, 3813, 3832, 3837, 3852, 3821, 0, 1, 11600, -89.900, 0.000, -88.500, 0.000, 0.000, -2.900, 0.0, , , , , , 97, , , 0, 0, 0
37.3533387, -119.5420209, 18.600, 09:44:54.753, 19, 0.00, 0.23, 96, -0.200, 1.600, -89.000, 2, 100, 96, 23, 22966, -19058, 5198, 5415, 15, 14, 1528821894.753, 23, 0, 1024, 1024, 1024, 1024, 0, 6, 3811, 3813, 3832, 3837, 3852, 3821, 0, 1, 11700, -89.900, 0.000, -88.500, 0.000, 0.000, -2.900, 0.0, , , , , , 97, , , 0, 0, 0
37.3533387, -119.5420209, 18.900, 09:44:54.853, 19, 0.00, 0.22, 96, -0.100, 1.400, -88.900, 2, 100, 96, 23, 22966, -19058, 5198, 5415, 15, 14, 1528821894.853, 26, 0, 1024, 1024, 1024, 1024, 0, 6, 3811, 3813, 3832, 3837, 3852, 3821, 0, 1, 11800, -89.900, 0.000, -88.500, 0.000, 0.000, -2.900, 0.0, , , , , , 97, , , 0, 0, 0
37.3533387, -119.5420209, 18.900, 09:44:54.953, 19, 0.00, 0.22, 96, -0.100, 1.400, -88.900, 2, 100, 96, 23, 22966, -19058, 5198, 5415, 15, 14, 1528821894.953, 126, 0, 1024, 1024, 1024, 1024, 0, 6, 3811, 3813, 3832, 3837, 3852, 3821, 0, 1, 11900, -89.900, 0.000, -88.500, 0.000, 0.000, -2.900, 0.0, , , , , , 97, , , 0, 0, 0
37.3533388, -119.5420208, 19.500, 09:44:55.053, 19, 0.00, 0.21, 96, -0.300, 1.400, -88.900, 2, 100, 96, 23, 22966, -19058, 5198, 5415, 15, 14, 1528821895.053, 89, 0, 1024, 1024, 1024, 1024, 0, 6, 3811, 3813, 3832, 3837, 3852, 3821, 0, 1, 12000, -89.900, 0.000, -88.500, 0.000, 0.000, -2.900, 0.0, , , , , , 97, , , 0, 0, 0
37.3533388, -119.5420208, 20.100, 09:44:55.153, 19, 0.00, 0.21, 96, 0.000, 1.700, -88.900, 2, 100, 96, 23, 22985, -18407, 5198, 5415, 15, 14, 1528821895.153, 7, 0, 1024, 1024, 1024, 1024, 0, 6, 3816, 3817, 3835, 3837, 3855, 3827, 0, 1, 12101, -89.900, 0.000, -88.500, 0.000, 0.000, -2.900, 0.0, , , , , , 97, , , 0, 0, 0
37.3533388, -119.5420208, 20.100, 09:44:55.253, 19, 0.00, 0.21, 96, 0.000, 1.700, -88.900, 2, 100, 96, 23, 22985, -18407, 5198, 5415, 15, 14, 1528821895.253, 106, 0, 1024, 1024, 1024, 1024, 0, 6, 3816, 3817, 3835, 3837, 3855, 3827, 0, 1, 12200, -89.900, 0.000, -88.500, 0.000, 0.000, -2.900, 0.0, , , , , , 97, , , 0, 0, 0
37.3533389, -119.5420208, 20.400, 09:44:55.353, 19, 0.00, 0.21, 96, 0.100, 1.600, -88.800, 2, 100, 96, 23, 22985, -18407, 5198, 5415, 15, 14, 1528821895.353, 98, 0, 1024, 1024, 1024, 1024, 0, 6, 3816, 3817, 3835, 3837, 3855, 3827, 0, 1, 12300, -89.900, 0.000, -88.500, 0.000, 0.000, -2.900, 0.0, , , , , , 97, , , 0, 0, 0
37.3533389, -119.5420207, 20.700, 09:44:55.453, 19, 0.00, 0.21, 96, 0.300, 1.500, -88.700, 2, 100, 96, 23, 22985, -18407, 5198, 5415, 15, 14, 1528821895.453, 90, 0, 1024, 1024, 1024, 1024, 0, 6, 3816, 3817, 3835, 3837, 3855, 3827, 0, 1, 12400, -89.900, 0.000, -88.500, 0.000, 0.000, -2.900, 0.0, , , , , , 97, , , 0, 0, 0
37.3533389, -119.5420207, 21.000, 09:44:55.553, 19, 0.00, 0.21, 96, 0.300, 1.400, -88.500, 2, 100, 96, 23, 22985, -18407, 5198, 5415, 15, 14, 1528821895.553, 73, 0, 1024, 1024, 1024, 1024, 0, 6, 3816, 3817, 3835, 3837, 3855, 3827, 0, 1, 12500, -89.900, 0.000, -88.500, 0.000, 0.000, -2.900, 0.0, , , , , , 97, , , 0, 0, 0
37.3533389, -119.5420206, 21.200, 09:44:55.653, 19, 0.00, 0.20, 96, 0.300, 1.300, -88.400, 2, 100, 96, 23, 22985, -18407, 5198, 5415, 15, 14, 1528821895.653, 88, 0, 1024, 1024, 1024, 1024, 0, 6, 3816, 3817, 3835, 3837, 3855, 3827, 0, 1, 12600, -90.000, 0.000, -88.500, 0.000, 0.000, -2.900, 0.0, , , , , , 97, , , 0, 0, 0
37.3533389, -119.5420206, 21.600, 09:44:55.752, 19, 0.00, 0.20, 96, 0.200, 1.100, -88.300, 2, 100, 96, 23, 22985, -18407, 5198, 5415, 15, 14, 1528821895.752, 67, 0, 1024, 1024, 1024, 1024, 0, 6, 3816, 3817, 3835, 3837, 3855, 3827, 0, 1, 12699, -89.900, 0.000, -88.500, 0.000, 0.000, -2.900, 0.0, , , , , , 97, , , 0, 0, 0
37.3533390, -119.5420205, 21.900, 09:44:55.852, 19, 0.00, 0.20, 96, 0.400, 1.000, -88.200, 2, 100, 96, 23, 22985, -18407, 5198, 5415, 15, 14, 1528821895.852, 71, 0, 1024, 1024, 1024, 1024, 0, 6, 3816, 3817, 3835, 3837, 3855, 3827, 0, 1, 12799, -90.000, 0.000, -88.500, 0.000, 0.000, -2.900, 0.0, , , , , , 97, , , 0, 0, 0
37.3533390, -119.5420205, 22.200, 09:44:55.953, 19, 0.00, 0.20, 96, 0.400, 1.000, -88.000, 2, 100, 96, 23, 22985, -18407, 5198, 5415, 15, 14, 1528821895.953, 52, 0, 1024, 1024, 1024, 1024, 0, 6, 3816, 3817, 3835, 3837, 3855, 3827, 0, 1, 12900, -90.000, 0.000, -88.500, 0.000, 0.000, -2.900, 0.0, , , , , , 97, , , 0, 0, 0
37.3533390, -119.5420204, 22.500, 09:44:56.053, 19, 0.00, 0.19, 96, 0.000, 1.200, -88.000, 2, 100, 96, 23, 22985, -18407, 5198, 5415, 15, 14, 1528821896.053, 52, 0, 1024, 1024, 1024, 1024, 0, 6, 3816, 3817, 3835, 3837, 3855, 3827, 0, 1, 13000, -89.900, 0.000, -88.500, 0.000, 0.000, -2.900, 0.0, , , , , , 97, , , 0, 0, 0
37.3533390, -119.5420204, 22.800, 09:44:56.153, 19, 0.00, 0.19, 96, -0.200, 1.400, -88.100, 2, 100, 96, 23, 22964, -18522, 5198, 5415, 15, 14, 1528821896.153, 45, 0, 1024, 1024, 1024, 1024, 0, 6, 3817, 3815, 3826, 3827, 3852, 3823, 0, 1, 13100, -89.900, 0.000, -88.500, 0.000, 0.000, -2.900, 0.0, , , , , , 97, , , 0, 0, 0
37.3533390, -119.5420203, 23.100, 09:44:56.252, 19, 0.00, 0.19, 96, 0.000, 1.400, -88.200, 2, 100, 96, 23, 22964, -18522, 5198, 5415, 15, 14, 1528821896.252, 60, 0, 1024, 1024, 1024, 1024, 0, 6, 3817, 3815, 3826, 3827, 3852, 3823, 0, 1, 13199, -89.900, 0.000, -88.500, 0.000, 0.000, -2.900, 0.0, , , , , , 97, , , 0, 0, 0
37.3533391, -119.5420203, 23.400, 09:44:56.353, 19, 0.00, 0.19, 96, 0.000, 1.100, -88.300, 2, 100, 96, 23, 22964, -18522, 5198, 5415, 15, 14, 1528821896.353, 53, 0, 1024, 1024, 1024, 1024, 0, 6, 3817, 3815, 3826, 3827, 3852, 3823, 0, 1, 13300, -90.000, 0.000, -88.500, 0.000, 0.000, -2.900, 0.0, , , , , , 97, , , 0, 0, 0
37.3533391, -119.5420202, 23.700, 09:44:56.453, 19, 0.00, 0.19, 96, 0.000, 0.700, -88.400, 2, 100, 96, 23, 22964, -18522, 5198, 5415, 15, 14, 1528821896.453, 48, 0, 1024, 1024, 1024, 1024, 0, 6, 3817, 3815, 3826, 3827, 3852, 3823, 0, 1, 13400, -90.000, 0.000, -88.500, 0.000, 0.000, -2.900, 0.0, , , , , , 97, , , 0, 0, 0
37.3533391, -119.5420201, 24.000, 09:44:56.553, 19, 0.00, 0.19, 96, 0.000, 0.300, -88.400, 2, 100, 96, 23, 22964, -18522, 5198, 5415, 15, 14, 1528821896.553, 14, 0, 1024, 1024, 1024, 1024, 0, 6, 3817, 3815, 3826, 3827, 3852, 3823, 0, 1, 13500, -90.000, 0.000, -88.500, 0.000, 0.000, -2.900, 0.0, , , , , , 97, , , 0, 0, 0
37.3533391, -119.5420200, 24.300, 09:44:56.653, 19, 0.00, 0.19, 96, -0.100, 0.100, -88.400, 2, 100, 96, 23, 22964, -18522, 5198, 5415, 15, 14, 1528821896.653, 28, 0, 1024, 1024, 1024, 1024, 0, 6, 3817, 3815, 3826, 3827, 3852, 3823, 0, 1, 13600, -90.000, 0.000, -88.500, 0.000, 0.000, -2.900, 0.0, , , , , , 97, , , 0, 0, 0
37.3533392, -119.5420199, 24.600, 09:44:56.753, 19, 0.00, 0.19, 96, 0.100, 0.000, -88.400, 2, 100, 93, 23, 22964, -18522, 5198, 5415, 15, 14, 1528821896.753, 23, 0, 1024, 1024, 1024, 1024, 0, 6, 3817, 3815, 3826, 3827, 3852, 3823, 0, 1, 13700, -90.000, 0.000, -88.500, 0.000, 0.000, -2.900, 0.0, , , , , , 97, , , 0, 0, 0
37.3533392, -119.5420199, 24.800, 09:44:56.853, 19, 0.00, 0.19, 96, 0.000, 0.100, -88.500, 2, 100, 93, 23, 22964, -18522, 5198, 5415, 15, 14, 1528821896.853, 27, 0, 1024, 1024, 1024, 1024, 0, 6, 3817, 3815, 3826, 3827, 3852, 3823, 0, 1, 13800, -90.000, 0.000, -88.500, 0.000, 0.000, -2.900, 0.0, , , , , , 97, , , 0, 0, 0
37.3533393, -119.5420198, 25.200, 09:44:56.953, 19, 0.00, 0.19, 96, -0.500, 0.300, -88.700, 2, 100, 93, 23, 22964, -18522, 5198, 5415, 15, 14, 1528821896.953, 14, 0, 1024, 1024, 1024, 1024, 0, 6, 3817, 3815, 3826, 3827, 3852, 3823, 0, 1, 13900, -90.000, 0.000, -88.500, 0.000, 0.000, -2.900, 0.0, , , , , , 97, , , 0, 0, 0
37.3533393, -119.5420198, 25.500, 09:44:57.053, 19, 0.10, 0.18, 96, -0.900, 0.700, -88.900, 2, 100, 93, 23, 22964, -18522, 5198, 5415, 15, 14, 1528821897.053, 16, 0, 1024, 1024, 1024, 1024, 0, 6, 3817, 3815, 3826, 3827, 3852, 3823, 0, 1, 14000, -89.900, 0.000, -88.500, 0.100, 0.000, -2.900, 0.0, , , , , , 97, , , 0, 0, 0
37.3533393, -119.5420198, 25.500, 09:44:57.153, 19, 0.10, 0.18, 96, -0.900, 0.700, -88.900, 2, 100, 93, 23, 22964, -18522, 5198, 5415, 15, 14, 1528821897.153, 115, 0, 1024, 1024, 1024, 1024, 0, 6, 3817, 3815, 3826, 3827, 3852, 3823, 0, 1, 14100, -89.900, 0.000, -88.500, 0.100, 0.000, -2.900, 0.0, , , , , , 97, , , 0, 0, 0
37.3533396, -119.5420198, 26.400, 09:44:57.253, 19, 0.00, 0.16, 96, -1.500, 1.300, -88.800, 2, 100, 94, 23, 22933, -18369, 5198, 5415, 15, 14, 1528821897.253, 2, 0, 1024, 1024, 1024, 1024, 0, 6, 3812, 3798, 3828, 3826, 3853, 3804, 0, 1, 14200, -89.900, 0.000, -88.500, 0.000, 0.000, -2.900, 0.0, , , , , , 97, , , 0, 0, 0
37.3533396, -119.5420198, 26.400, 09:44:57.353, 19, 0.00, 0.16, 96, -1.500, 1.300, -88.800, 2, 100, 94, 23, 22933, -18369, 5198, 5415, 15, 14, 1528821897.353, 102, 0, 1024, 1024, 1024, 1024, 0, 6, 3812, 3798, 3828, 3826, 3853, 3804, 0, 1, 14300, -89.900, 0.000, -88.500, 0.000, 0.000, -2.900, 0.0, , , , , , 97, , , 0, 0, 0
37.3533396, -119.5420198, 26.700, 09:44:57.453, 19, 0.00, 0.16, 96, -1.400, 1.100, -88.600, 2, 100, 94, 23, 22933, -18369, 5198, 5415, 15, 14, 1528821897.453, 89, 0, 1024, 1024, 1024, 1024, 0, 6, 3812, 3798, 3828, 3826, 3853, 3804, 0, 1, 14400, -90.000, 0.000, -88.500, 0.000, 0.000, -2.900, 0.0, , , , , , 97, , , 0, 0, 0
37.3533396, -119.5420198, 27.000, 09:44:57.553, 19, 0.00, 0.15, 96, -1.200, 0.800, -88.500, 2, 100, 94, 23, 22933, -18369, 5198, 5415, 15, 14, 1528821897.553, 65, 0, 1024, 1024, 1024, 1024, 0, 6, 3812, 3798, 3828, 3826, 3853, 3804, 0, 1, 14500, -90.000, 0.000, -88.500, 0.000, 0.000, -2.900, 0.0, , , , , , 97, , , 0, 0, 0
37.3533396, -119.5420198, 27.000, 09:44:57.653, 19, 0.00, 0.15, 96, -1.200, 0.800, -88.500, 2, 100, 94, 23, 22933, -18369, 5198, 5415, 15, 14, 1528821897.653, 165, 0, 1024, 1024, 1024, 1024, 0, 6, 3812, 3798, 3828, 3826, 3853, 3804, 0, 1, 14600, -90.000, 0.000, -88.500, 0.000, 0.000, -2.900, 0.0, , , , , , 97, , , 0, 0, 0
37.3533397, -119.5420197, 27.500, 09:44:57.753, 19, 0.00, 0.15, 96, -1.300, 0.500, -88.200, 2, 100, 96, 23, 22933, -18369, 5198, 5415, 15, 14, 1528821897.753, 77, 0, 1024, 1024, 1024, 1024, 0, 6, 3812, 3798, 3828, 3826, 3853, 3804, 0, 1, 14700, -89.900, 0.000, -88.500, 0.000, 0.000, -2.900, 0.0, , , , , , 97, , , 0, 0, 0
37.3533397, -119.5420197, 27.800, 09:44:57.853, 19, 0.00, 0.15, 96, -1.200, 0.800, -88.300, 2, 100, 96, 23, 22933, -18369, 5198, 5415, 15, 14, 1528821897.853, 80, 0, 1024, 1024, 1024, 1024, 0, 6, 3812, 3798, 3828, 3826, 3853, 3804, 0, 1, 14800, -89.900, 0.000, -88.500, 0.000, 0.000, -2.900, 0.0, , , , , , 97, , , 0, 0, 0
37.3533397, -119.5420197, 28.100, 09:44:57.952, 19, 0.00, 0.15, 96, -1.100, 1.100, -88.500, 2, 100, 96, 23, 22933, -18369, 5198, 5415, 15, 14, 1528821897.952, 84, 0, 1024, 1024, 1024, 1024, 0, 6, 3812, 3798, 3828, 3826, 3853, 3804, 0, 1, 14899, -89.900, 0.000, -88.500, 0.000, 0.000, -2.900, 0.0, , , , , , 97, , , 0, 0, 0
37.3533397, -119.5420198, 28.400, 09:44:58.053, 19, 0.00, 0.15, 96, -1.000, 1.400, -88.700, 2, 100, 96, 23, 22933, -18369, 5198, 5415, 15, 14, 1528821898.053, 77, 0, 1024, 1024, 1024, 1024, 0, 6, 3812, 3798, 3828, 3826, 3853, 3804, 0, 1, 15000, -89.900, 0.000, -88.500, 0.000, 0.000, -2.900, 0.0, , , , , , 97, , , 0, 0, 0
37.3533397, -119.5420198, 28.700, 09:44:58.152, 19, 0.00, 0.15, 96, -0.900, 1.500, -88.800, 2, 100, 96, 23, 22891, -19215, 5198, 5415, 15, 14, 1528821898.153, 54, 0, 1024, 1024, 1024, 1024, 0, 6, 3812, 3798, 3828, 3826, 3853, 3804, 0, 1, 15100, -89.900, 0.000, -88.500, 0.000, 0.000, -2.900, 0.0, , , , , , 97, , , 0, 0, 0
37.3533397, -119.5420198, 29.000, 09:44:58.253, 19, 0.00, 0.15, 96, -0.800, 1.300, -88.900, 2, 100, 96, 23, 22891, -19215, 5198, 5415, 15, 14, 1528821898.253, 60, 0, 1024, 1024, 1024, 1024, 0, 6, 3812, 3798, 3828, 3826, 3853, 3804, 0, 1, 15200, -89.900, 0.000, -88.500, 0.000, 0.000, -2.900, 0.0, , , , , , 97, , , 0, 0, 0
37.3533397, -119.5420198, 29.000, 09:44:58.353, 19, 0.00, 0.15, 96, -0.800, 1.300, -88.900, 2, 100, 96, 23, 22891, -19215, 5198, 5415, 15, 14, 1528821898.353, 160, 0, 1024, 1024, 1024, 1024, 0, 6, 3812, 3798, 3828, 3826, 3853, 3804, 0, 1, 15300, -89.900, 0.000, -88.500, 0.000, 0.000, -2.900, 0.0, , , , , , 97, , , 0, 0, 0
37.3533397, -119.5420197, 29.600, 09:44:58.452, 19, 0.00, 0.14, 96, -0.900, 0.800, -88.900, 2, 100, 96, 23, 22891, -19215, 5198, 5415, 15, 14, 1528821898.453, 45, 0, 1024, 1024, 1024, 1024, 0, 6, 3812, 3798, 3828, 3826, 3853, 3804, 0, 1, 15400, -90.000, 0.000, -88.500, 0.000, 0.000, -2.900, 0.0, , , , , , 97, , , 0, 0, 0
37.3533398, -119.5420197, 29.900, 09:44:58.553, 19, 0.00, 0.14, 96, -1.100, 0.700, -88.900, 2, 100, 96, 23, 22891, -19215, 5198, 5415, 15, 14, 1528821898.553, 48, 0, 1024, 1024, 1024, 1024, 0, 6, 3812, 3798, 3828, 3826, 3853, 3804, 0, 1, 15500, -89.900, 0.000, -88.500, 0.000, 0.000, -2.900, 0.0, , , , , , 97, , , 0, 0, 0
37.3533398, -119.5420197, 30.200, 09:44:58.652, 19, 0.00, 0.14, 96, -1.200, 0.800, -88.800, 2, 100, 96, 23, 22891, -19215, 5144, 5415, 15, 14, 1528821898.653, 38, 0, 1024, 1024, 1024, 1024, 0, 6, 3791, 3804, 3810, 3817, 3833, 3813, 0, 1, 15600, -89.900, 0.000, -88.500, 0.000, 0.000, -2.800, 0.0, , , , , , 97, , , 0, 0, 0
37.3533398, -119.5420198, 30.500, 09:44:58.752, 19, 0.00, 0.14, 96, -1.000, 0.800, -88.700, 2, 100, 93, 23, 22891, -19215, 5144, 5415, 15, 14, 1528821898.752, 22, 0, 1024, 1024, 1024, 1024, 0, 6, 3791, 3804, 3810, 3817, 3833, 3813, 0, 1, 15699, -89.900, 0.000, -88.500, 0.000, 0.000, -2.800, 0.0, , , , , , 97, , , 0, 0, 0
37.3533398, -119.5420198, 30.800, 09:44:58.853, 19, 0.00, 0.13, 96, -0.800, 0.900, -88.600, 2, 100, 93, 23, 22891, -19215, 5144, 5415, 15, 14, 1528821898.853, 36, 0, 1024, 1024, 1024, 1024, 0, 6, 3791, 3804, 3810, 3817, 3833, 3813, 0, 1, 15800, -89.900, 0.000, -88.500, 0.000, 0.000, -2.800, 0.0, , , , , , 97, , , 0, 0, 0
37.3533398, -119.5420199, 31.100, 09:44:58.952, 19, 0.00, 0.13, 96, -0.900, 1.200, -88.400, 2, 100, 93, 23, 22891, -19215, 5144, 5415, 15, 14, 1528821898.953, 27, 0, 1024, 1024, 1024, 1024, 0, 6, 3791, 3804, 3810, 3817, 3833, 3813, 0, 1, 15900, -89.900, 0.000, -88.500, 0.000, 0.000, -2.800, 0.0, , , , , , 97, , , 0, 0, 0
37.3533399, -119.5420199, 31.400, 09:44:59.052, 19, 0.00, 0.12, 96, -1.300, 1.500, -88.200, 2, 100, 93, 23, 22891, -19215, 5144, 5415, 15, 14, 1528821899.052, 29, 0, 1024, 1024, 1024, 1024, 0, 6, 3791, 3804, 3810, 3817, 3833, 3813, 0, 1, 15999, -89.900, 0.000, -88.500, 0.000, 0.000, -2.900, 0.0, , , , , , 97, , , 0, 0, 0
37.3533399, -119.5420200, 31.700, 09:44:59.152, 19, 0.00, 0.12, 96, -1.700, 1.600, -88.200, 2, 100, 93, 23, 22891, -19215, 5144, 5415, 15, 14, 1528821899.153, 12, 0, 1024, 1024, 1024, 1024, 0, 6, 3791, 3804, 3810, 3817, 3833, 3813, 0, 1, 16100, -89.900, 0.000, -88.500, 0.000, 0.000, -2.900, 0.0, , , , , , 97, , , 0, 0, 0
37.3533400, -119.5420200, 32.000, 09:44:59.253, 19, 0.00, 0.11, 96, -1.800, 1.700, -88.400, 2, 100, 95, 23, 22891, -19215, 5144, 5415, 15, 14, 1528821899.253, 2, 0, 1024, 1024, 1024, 1024, 0, 6, 3791, 3804, 3810, 3817, 3833, 3813, 0, 1, 16200, -89.900, 0.000, -88.500, 0.000, 0.000, -2.900, 0.0, , , , , , 97, , , 0, 0, 0
37.3533400, -119.5420201, 32.600, 09:44:59.352, 19, 0.00, 0.10, 96, -1.600, 1.900, -88.600, 2, 100, 95, 23, 22891, -19215, 5144, 5415, 15, 14, 1528821899.353, 4, 0, 1024, 1024, 1024, 1024, 0, 6, 3791, 3804, 3810, 3817, 3833, 3813, 0, 1, 16300, -89.900, 0.000, -88.500, 0.000, 0.000, -3.000, 0.0, , , , , , 97, , , 0, 0, 0
37.3533400, -119.5420201, 32.600, 09:44:59.452, 19, 0.00, 0.10, 96, -1.600, 1.900, -88.600, 2, 100, 95, 23, 22891, -19215, 5144, 5415, 15, 14, 1528821899.453, 104, 0, 1024, 1024, 1024, 1024, 0, 6, 3791, 3804, 3810, 3817, 3833, 3813, 0, 1, 16400, -89.900, 0.000, -88.500, 0.000, 0.000, -3.000, 0.0, , , , , , 97, , , 0, 0, 0
37.3533401, -119.5420202, 33.200, 09:44:59.552, 19, 0.00, 0.09, 96, -1.800, 2.100, -88.600, 2, 100, 95, 23, 22891, -19215, 5144, 5415, 15, 14, 1528821899.553, 15, 0, 1024, 1024, 1024, 1024, 0, 6, 3791, 3804, 3810, 3817, 3833, 3813, 0, 1, 16500, -89.900, 0.000, -88.500, 0.000, 0.000, -3.000, 0.0, , , , , , 97, , , 0, 0, 0
37.3533401, -119.5420202, 33.500, 09:44:59.653, 19, 0.00, 0.09, 96, -2.000, 2.100, -88.600, 2, 100, 93, 23, 22891, -19215, 5144, 5415, 15, 14, 1528821899.654, 1, 0, 1024, 1024, 1024, 1024, 0, 6, 3791, 3804, 3810, 3817, 3833, 3813, 0, 1, 16601, -89.900, 0.000, -88.500, 0.000, 0.000, -3.000, 0.0, , , , , , 97, , , 0, 0, 0
37.3533401, -119.5420202, 33.500, 09:44:59.752, 19, 0.00, 0.09, 96, -2.000, 2.100, -88.600, 2, 100, 93, 23, 22891, -19215, 5144, 5415, 15, 14, 1528821899.753, 100, 0, 1024, 1024, 1024, 1024, 0, 6, 3791, 3804, 3810, 3817, 3833, 3813, 0, 1, 16700, -89.900, 0.000, -88.500, 0.000, 0.000, -3.000, 0.0, , , , , , 97, , , 0, 0, 0
37.3533401, -119.5420203, 33.800, 09:44:59.852, 19, 0.00, 0.08, 96, -2.000, 2.100, -88.600, 2, 100, 93, 23, 22891, -19215, 5144, 5415, 15, 14, 1528821899.853, 88, 0, 1024, 1024, 1024, 1024, 0, 6, 3791, 3804, 3810, 3817, 3833, 3813, 0, 1, 16800, -89.900, 0.000, -88.500, 0.000, 0.000, -2.900, 0.0, , , , , , 97, , , 0, 0, 0
37.3533402, -119.5420203, 34.100, 09:44:59.952, 19, 0.00, 0.08, 96, -2.000, 1.900, -88.600, 2, 100, 93, 23, 22891, -19215, 5144, 5415, 15, 14, 1528821899.953, 80, 0, 1024, 1024, 1024, 1024, 0, 6, 3791, 3804, 3810, 3817, 3833, 3813, 0, 1, 16900, -89.900, 0.000, -88.500, 0.000, 0.000, -2.900, 0.0, , , , , , 97, , , 0, 0, 0
37.3533402, -119.5420203, 34.400, 09:45:00.052, 19, 0.00, 0.08, 96, -2.000, 1.600, -88.600, 2, 100, 93, 23, 22891, -19215, 5144, 5415, 15, 14, 1528821900.053, 60, 0, 1024, 1024, 1024, 1024, 0, 6, 3791, 3804, 3810, 3817, 3833, 3813, 0, 1, 17000, -89.900, 0.000, -88.500, 0.000, 0.000, -2.900, 0.0, , , , , , 97, , , 0, 0, 0
37.3533402, -119.5420203, 34.700, 09:45:00.152, 19, 0.00, 0.08, 95, -1.800, 1.300, -88.500, 2, 100, 93, 23, 22721, -20146, 5144, 5415, 15, 14, 1528821900.152, 49, 0, 1024, 1024, 1024, 1024, 0, 6, 3765, 3777, 3787, 3789, 3826, 3794, 0, 1, 17100, -90.000, 0.000, -88.500, 0.000, 0.000, -2.900, 0.0, , , , , , 97, , , 0, 0, 0
37.3533401, -119.5420203, 35.000, 09:45:00.252, 19, 0.00, 0.08, 95, -1.500, 1.100, -88.400, 2, 100, 95, 23, 22721, -20146, 5144, 5415, 15, 14, 1528821900.253, 53, 0, 1024, 1024, 1024, 1024, 0, 6, 3765, 3777, 3787, 3789, 3826, 3794, 0, 1, 17200, -90.000, 0.000, -88.500, 0.000, 0.000, -2.800, 0.0, , , , , , 97, , , 0, 0, 0
37.3533401, -119.5420203, 35.300, 09:45:00.352, 19, 0.00, 0.08, 95, -1.100, 1.000, -88.300, 2, 100, 95, 23, 22721, -20146, 5144, 5415, 15, 14, 1528821900.352, 52, 0, 1024, 1024, 1024, 1024, 0, 6, 3765, 3777, 3787, 3789, 3826, 3794, 0, 1, 17300, -89.900, 0.000, -88.500, 0.000, 0.000, -2.800, 0.0, , , , , , 97, , , 0, 0, 0
37.3533401, -119.5420203, 35.500, 09:45:00.452, 19, 0.00, 0.09, 95, -0.900, 1.400, -88.400, 2, 100, 95, 23, 22721, -20146, 5144, 5415, 15, 14, 1528821900.453, 58, 0, 1024, 1024, 1024, 1024, 0, 6, 3765, 3777, 3787, 3789, 3826, 3794, 0, 1, 17400, -89.900, 0.000, -88.500, 0.000, 0.000, -2.800, 0.0, , , , , , 97, , , 0, 0, 0
37.3533400, -119.5420204, 35.800, 09:45:00.552, 19, 0.00, 0.09, 95, -1.000, 1.600, -88.500, 2, 100, 95, 23, 22721, -20146, 5144, 5415, 15, 14, 1528821900.553, 42, 0, 1024, 1024, 1024, 1024, 0, 6, 3765, 3777, 3787, 3789, 3826, 3794, 0, 1, 17500, -89.900, 0.000, -88.500, 0.000, 0.000, -2.900, 0.0, , , , , , 97, , , 0, 0, 0
37.3533400, -119.5420204, 36.100, 09:45:00.652, 19, 0.00, 0.09, 95, -0.900, 1.800, -88.600, 2, 100, 95, 23, 22795, -19058, 5144, 5415, 15, 14, 1528821900.652, 35, 0, 1024, 1024, 1024, 1024, 0, 6, 3781, 3785, 3795, 3806, 3823, 3789, 0, 1, 17599, -89.900, 0.000, -88.500, 0.000, 0.000, -2.900, 0.0, , , , , , 97, , , 0, 0, 0
37.3533400, -119.5420204, 36.400, 09:45:00.752, 19, 0.00, 0.09, 95, -1.100, 1.800, -88.600, 2, 100, 93, 23, 22795, -19058, 5144, 5415, 15, 14, 1528821900.753, 39, 0, 1024, 1024, 1024, 1024, 0, 6, 3781, 3785, 3795, 3806, 3823, 3789, 0, 1, 17700, -89.900, 0.000, -88.500, 0.000, 0.000, -2.900, 0.0, , , , , , 97, , , 0, 0, 0
37.3533400, -119.5420204, 36.700, 09:45:00.852, 19, 0.00, 0.09, 95, -1.300, 1.600, -88.600, 2, 100, 93, 23, 22795, -19058, 5144, 5415, 15, 14, 1528821900.853, 25, 0, 1024, 1024, 1024, 1024, 0, 6, 3781, 3785, 3795, 3806, 3823, 3789, 0, 1, 17800, -89.900, 0.000, -88.500, 0.000, 0.000, -2.900, 0.0, , , , , , 97, , , 0, 0, 0
37.3533399, -119.5420204, 37.000, 09:45:00.952, 19, 0.00, 0.09, 95, -1.400, 1.400, -88.600, 2, 100, 93, 23, 22795, -19058, 5144, 5415, 15, 14, 1528821900.953, 22, 0, 1024, 1024, 1024, 1024, 0, 6, 3781, 3785, 3795, 3806, 3823, 3789, 0, 1, 17900, -89.900, 0.000, -88.500, 0.000, 0.000, -2.900, 0.0, , , , , , 97, , , 0, 0, 0
37.3533399, -119.5420204, 37.300, 09:45:01.052, 19, 0.00, 0.10, 95, -1.400, 1.400, -88.500, 2, 100, 93, 23, 22795, -19058, 5144, 5415, 15, 14, 1528821901.053, 10, 0, 1024, 1024, 1024, 1024, 0, 6, 3781, 3785, 3795, 3806, 3823, 3789, 0, 1, 18000, -89.900, 0.000, -88.500, 0.000, 0.000, -2.900, 0.0, , , , , , 97, , , 0, 0, 0
37.3533399, -119.5420204, 37.600, 09:45:01.152, 19, 0.00, 0.10, 95, -1.300, 1.300, -88.500, 2, 100, 93, 23, 22795, -19058, 5144, 5415, 15, 14, 1528821901.153, 35, 0, 1024, 1024, 1024, 1024, 0, 6, 3781, 3785, 3795, 3806, 3823, 3789, 0, 1, 18100, -90.000, 0.000, -88.500, 0.000, 0.000, -2.900, 0.0, , , , , , 97, , , 0, 0, 0
37.3533399, -119.5420204, 37.900, 09:45:01.252, 19, 0.00, 0.10, 95, -1.500, 1.000, -88.500, 2, 100, 93, 23, 22795, -19058, 5144, 5415, 15, 14, 1528821901.253, 3, 0, 1024, 1024, 1024, 1024, 0, 6, 3781, 3785, 3795, 3806, 3823, 3789, 0, 1, 18200, -90.000, 0.000, -88.500, 0.000, 0.000, -3.000, 0.0, , , , , , 97, , , 0, 0, 0
37.3533398, -119.5420203, 38.600, 09:45:01.352, 19, 0.00, 0.11, 95, -1.800, 0.500, -88.500, 2, 100, 93, 23, 22795, -19058, 5144, 5415, 15, 14, 1528821901.353, 16, 0, 1024, 1024, 1024, 1024, 0, 6, 3781, 3785, 3795, 3806, 3823, 3789, 0, 1, 18300, -90.000, 0.000, -88.500, 0.000, 0.000, -3.000, 0.0, , , , , , 97, , , 0, 0, 0
37.3533398, -119.5420203, 38.600, 09:45:01.452, 19, 0.00, 0.11, 95, -1.800, 0.500, -88.500, 2, 100, 93, 23, 22795, -19058, 5144, 5415, 15, 14, 1528821901.453, 116, 0, 1024, 1024, 1024, 1024, 0, 6, 3781, 3785, 3795, 3806, 3823, 3789, 0, 1, 18400, -90.000, 0.000, -88.500, 0.000, 0.000, -3.000, 0.0, , , , , , 97, , , 0, 0, 0
37.3533398, -119.5420202, 39.200, 09:45:01.552, 19, 0.00, 0.12, 95, -1.400, 0.600, -88.800, 2, 100, 93, 23, 22795, -19058, 5144, 5415, 15, 14, 1528821901.553, 12, 0, 1024, 1024, 1024, 1024, 0, 6, 3781, 3785, 3795, 3806, 3823, 3789, 0, 1, 18500, -90.000, 0.000, -88.500, 0.000, 0.000, -2.900, 0.0, , , , , , 97, , , 0, 0, 0
37.3533397, -119.5420202, 39.500, 09:45:01.659, 19, 0.00, 0.12, 95, -1.300, 0.700, -88.900, 2, 100, 93, 23, 22616, -20967, 5144, 5415, 15, 14, 1528821901.659, 4, 0, 1024, 1024, 1024, 1024, 0, 6, 3753, 3759, 3769, 3776, 3789, 3759, 0, 1, 18606, -90.000, 0.000, -88.500, 0.000, 0.000, -2.900, 0.0, , , , , , 97, , , 0, 0, 0
37.3533397, -119.5420202, 39.500, 09:45:01.752, 19, 0.00, 0.12, 95, -1.300, 0.700, -88.900, 2, 100, 93, 23, 22616, -20967, 5144, 5415, 15, 14, 1528821901.753, 98, 0, 1024, 1024, 1024, 1024, 0, 6, 3753, 3759, 3769, 3776, 3789, 3759, 0, 1, 18700, -90.000, 0.000, -88.500, 0.000, 0.000, -2.900, 0.0, , , , , , 97, , , 0, 0, 0
37.3533397, -119.5420202, 39.800, 09:45:01.852, 19, 0.00, 0.13, 95, -1.000, 0.700, -88.900, 2, 100, 94, 23, 22616, -20967, 5144, 5415, 15, 14, 1528821901.853, 82, 0, 1024, 1024, 1024, 1024, 0, 6, 3753, 3759, 3769, 3776, 3789, 3759, 0, 1, 18800, -90.000, 0.000, -88.500, 0.000, 0.000, -2.900, 0.0, , , , , , 97, , , 0, 0, 0
37.3533396, -119.5420201, 40.000, 09:45:01.952, 19, 0.00, 0.14, 95, -1.000, 0.700, -88.800, 2, 100, 94, 23, 22616, -20967, 5144, 5415, 15, 14, 1528821901.952, 84, 0, 1024, 1024, 1024, 1024, 0, 6, 3753, 3759, 3769, 3776, 3789, 3759, 0, 1, 18900, -89.900, 0.000, -88.500, 0.000, 0.000, -2.900, 0.0, , , , , , 97, , , 0, 0, 0
37.3533396, -119.5420201, 40.300, 09:45:02.052, 19, 0.00, 0.14, 95, -0.900, 0.500, -88.800, 2, 100, 94, 23, 22616, -20967, 5144, 5415, 15, 14, 1528821902.053, 63, 0, 1024, 1024, 1024, 1024, 0, 6, 3753, 3759, 3769, 3776, 3789, 3759, 0, 1, 19000, -90.000, 0.000, -88.500, 0.000, 0.000, -2.900, 0.0, , , , , , 97, , , 0, 0, 0
37.3533395, -119.5420201, 40.600, 09:45:02.152, 19, 0.00, 0.15, 95, -0.900, 0.500, -88.600, 2, 100, 94, 23, 22616, -20967, 5144, 5415, 15, 14, 1528821902.153, 78, 0, 1024, 1024, 1024, 1024, 0, 6, 3753, 3759, 3769, 3776, 3789, 3759, 0, 1, 19100, -90.000, 0.000, -88.500, 0.000, 0.000, -2.900, 0.0, , , , , , 97, , , 0, 0, 0
37.3533395, -119.5420200, 40.900, 09:45:02.252, 19, 0.00, 0.16, 95, -0.800, 0.400, -88.500, 2, 100, 97, 23, 22616, -20967, 5144, 5415, 15, 14, 1528821902.253, 57, 0, 1024, 1024, 1024, 1024, 0, 6, 3753, 3759, 3769, 3776, 3789, 3759, 0, 1, 19200, -90.000, 0.000, -88.500, 0.000, 0.000, -3.000, 0.0, , , , , , 97, , , 0, 0, 0
37.3533394, -119.5420200, 41.200, 09:45:02.352, 19, 0.00, 0.16, 95, -0.600, 0.500, -88.400, 2, 100, 97, 23, 22616, -20967, 5144, 5415, 15, 14, 1528821902.353, 60, 0, 1024, 1024, 1024, 1024, 0, 6, 3753, 3759, 3769, 3776, 3789, 3759, 0, 1, 19300, -89.900, 0.000, -88.500, 0.000, 0.000, -2.900, 0.0, , , , , , 97, , , 0, 0, 0
37.3533394, -119.5420200, 41.500, 09:45:02.452, 19, 0.00, 0.17, 95, -0.800, 0.500, -88.300, 2, 100, 97, 23, 22616, -20967, 5144, 5415, 15, 14, 1528821902.453, 53, 0, 1024, 1024, 1024, 1024, 0, 6, 3753, 3759, 3769, 3776, 3789, 3759, 0, 1, 19400, -89.900, 0.000, -88.500, 0.000, 0.000, -3.000, 0.0, , , , , , 97, , , 0, 0, 0
37.3533394, -119.5420199, 41.800, 09:45:02.551, 19, 0.00, 0.17, 95, -0.900, 0.400, -88.300, 2, 100, 97, 23, 22616, -20967, 5144, 5415, 15, 14, 1528821902.552, 45, 0, 1024, 1024, 1024, 1024, 0, 6, 3753, 3759, 3769, 3776, 3789, 3759, 0, 1, 19500, -90.000, 0.000, -88.500, 0.000, 0.000, -3.000, 0.0, , , , , , 97, , , 0, 0, 0
37.3533393, -119.5420199, 42.100, 09:45:02.652, 19, 0.00, 0.18, 95, -1.000, 0.400, -88.400, 2, 100, 97, 23, 22605, -20452, 5144, 5415, 15, 14, 1528821902.653, 38, 0, 1024, 1024, 1024, 1024, 0, 6, 3752, 3753, 3770, 3775, 3790, 3761, 0, 1, 19600, -89.900, 0.000, -88.500, 0.000, 0.000, -3.000, 0.0, , , , , , 97, , , 0, 0, 0
37.3533393, -119.5420198, 42.400, 09:45:02.752, 19, 0.00, 0.18, 95, -1.100, 0.400, -88.400, 2, 100, 97, 23, 22605, -20452, 5144, 5415, 15, 14, 1528821902.753, 30, 0, 1024, 1024, 1024, 1024, 0, 6, 3752, 3753, 3770, 3775, 3790, 3761, 0, 1, 19700, -90.000, 0.000, -88.500, 0.000, 0.000, -3.000, 0.0, , , , , , 97, , , 0, 0, 0
37.3533393, -119.5420198, 42.800, 09:45:02.852, 19, 0.00, 0.18, 95, -1.200, 0.400, -88.400, 2, 100, 97, 23, 22605, -20452, 5144, 5415, 15, 14, 1528821902.853, 31, 0, 1024, 1024, 1024, 1024, 0, 6, 3752, 3753, 3770, 3775, 3790, 3761, 0, 1, 19800, -90.000, 0.000, -88.500, 0.000, 0.000, -3.000, 0.0, , , , , , 97, , , 0, 0, 0
37.3533393, -119.5420197, 43.100, 09:45:02.952, 19, 0.00, 0.19, 95, -1.300, 0.300, -88.500, 2, 100, 97, 23, 22605, -20452, 5144, 5415, 15, 14, 1528821902.952, 35, 0, 1024, 1024, 1024, 1024, 0, 6, 3752, 3753, 3770, 3775, 3790, 3761, 0, 1, 19900, -90.000, 0.000, -88.500, 0.000, 0.000, -3.000, 0.0, , , , , , 97, , , 0, 0, 0
37.3533393, -119.5420197, 43.400, 09:45:03.052, 19, 0.00, 0.19, 95, -1.300, 0.300, -88.600, 2, 100, 97, 23, 22605, -20452, 5144, 5415, 15, 14, 1528821903.052, 28, 0, 1024, 1024, 1024, 1024, 0, 6, 3752, 3753, 3770, 3775, 3790, 3761, 0, 1, 20000, -90.000, 0.000, -88.500, 0.000, 0.000, -3.000, 0.0, , , , , , 97, , , 0, 0, 0
37.3533393, -119.5420197, 43.700, 09:45:03.152, 19, 0.00, 0.19, 95, -1.300, 0.300, -88.700, 2, 100, 97, 23, 22605, -20452, 5144, 5415, 15, 14, 1528821903.152, 31, 0, 1024, 1024, 1024, 1024, 0, 6, 3752, 3753, 3770, 3775, 3790, 3761, 0, 1, 20100, -90.000, 0.000, -88.500, 0.000, 0.000, -3.000, 0.0, , , , , , 97, , , 0, 0, 0
37.3533392, -119.5420197, 44.000, 09:45:03.252, 19, 0.00, 0.20, 95, -1.300, 0.400, -88.700, 2, 100, 98, 23, 22605, -20452, 5144, 5415, 15, 14, 1528821903.252, 32, 0, 1024, 1024, 1024, 1024, 0, 6, 3752, 3753, 3770, 3775, 3790, 3761, 0, 1, 20200, -90.000, 0.000, -88.500, 0.000, 0.000, -3.100, 0.0, , , , , , 97, , , 0, 0, 0
37.3533392, -119.5420196, 44.300, 09:45:03.352, 19, 0.00, 0.20, 95, -1.100, 0.500, -88.600, 2, 100, 98, 23, 22605, -20452, 5144, 5415, 15, 14, 1528821903.352, 25, 0, 1024, 1024, 1024, 1024, 0, 6, 3752, 3753, 3770, 3775, 3790, 3761, 0, 1, 20299, -89.900, 0.000, -88.500, 0.000, 0.000, -3.000, 0.0, , , , , , 97, , , 0, 0, 0
37.3533392, -119.5420196, 44.600, 09:45:03.452, 19, 0.00, 0.20, 95, -1.200, 0.500, -88.600, 2, 100, 98, 23, 22605, -20452, 5144, 5415, 15, 14, 1528821903.453, 28, 0, 1024, 1024, 1024, 1024, 0, 6, 3752, 3753, 3770, 3775, 3790, 3761, 0, 1, 20400, -90.000, 0.000, -88.500, 0.000, 0.000, -3.000, 0.0, , , , , , 97, , , 0, 0, 0
37.3533391, -119.5420195, 45.200, 09:45:03.552, 19, 0.00, 0.21, 95, -1.100, 0.200, -88.500, 2, 100, 98, 23, 22605, -20452, 5144, 5415, 15, 14, 1528821903.552, 17, 0, 1024, 1024, 1024, 1024, 0, 6, 3752, 3753, 3770, 3775, 3790, 3761, 0, 1, 20500, -90.000, 0.000, -88.500, 0.000, 0.000, -2.900, 0.0, , , , , , 97, , , 0, 0, 0
37.3533391, -119.5420195, 45.200, 09:45:03.652, 19, 0.00, 0.21, 95, -1.100, 0.200, -88.500, 2, 100, 98, 24, 22606, -20343, 5144, 5415, 15, 14, 1528821903.653, 117, 0, 1024, 1024, 1024, 1024, 0, 6, 3752, 3753, 3770, 3775, 3790, 3761, 0, 1, 20600, -90.000, 0.000, -88.500, 0.000, 0.000, -2.900, 0.0, , , , , , 97, , , 0, 0, 0
37.3533391, -119.5420196, 45.500, 09:45:03.757, 19, 0.00, 0.21, 95, -1.200, 0.100, -88.500, 2, 100, 98, 24, 22606, -20343, 5144, 5415, 15, 14, 1528821903.757, 5, 0, 1024, 1024, 1024, 1024, 0, 6, 3752, 3753, 3770, 3775, 3790, 3761, 0, 1, 20704, -90.000, 0.000, -88.500, 0.000, 0.000, -2.900, 0.0, , , , , , 97, , , 0, 0, 0
37.3533391, -119.5420196, 45.500, 09:45:03.853, 19, 0.00, 0.21, 95, -1.200, 0.100, -88.500, 2, 100, 98, 24, 22606, -20343, 5144, 5415, 15, 14, 1528821903.853, 101, 0, 1024, 1024, 1024, 1024, 0, 6, 3752, 3753, 3770, 3775, 3790, 3761, 0, 1, 20800, -90.000, 0.000, -88.500, 0.000, 0.000, -2.900, 0.0, , , , , , 97, , , 0, 0, 0
37.3533390, -119.5420195, 46.400, 09:45:03.952, 19, 0.00, 0.22, 95, -1.200, 0.100, -88.800, 2, 100, 98, 24, 22606, -20343, 5144, 5415, 15, 14, 1528821903.953, 10, 0, 1024, 1024, 1024, 1024, 0, 6, 3752, 3753, 3770, 3775, 3790, 3761, 0, 1, 20900, -90.000, 0.000, -88.500, 0.000, 0.000, -2.900, 0.0, , , , , , 97, , , 0, 0, 0
37.3533390, -119.5420195, 46.400, 09:45:04.052, 19, 0.00, 0.22, 95, -1.200, 0.100, -88.800, 2, 100, 98, 24, 22606, -20343, 5144, 5415, 15, 14, 1528821904.052, 110, 0, 1024, 1024, 1024, 1024, 0, 6, 3752, 3753, 3770, 3775, 3790, 3761, 0, 1, 21000, -90.000, 0.000, -88.500, 0.000, 0.000, -2.900, 0.0, , , , , , 97, , , 0, 0, 0
37.3533390, -119.5420195, 46.700, 09:45:04.152, 19, 0.00, 0.22, 95, -1.000, 0.200, -89.000, 2, 100, 98, 24, 22606, -20343, 5144, 5415, 15, 14, 1528821904.153, 78, 0, 1024, 1024, 1024, 1024, 0, 6, 3752, 3753, 3770, 3775, 3790, 3761, 0, 1, 21100, -90.000, 0.000, -88.500, 0.000, 0.000, -3.000, 0.0, , , , , , 97, , , 0, 0, 0
37.3533390, -119.5420196, 47.000, 09:45:04.252, 19, 0.00, 0.23, 95, -0.900, 0.500, -89.100, 2, 100, 99, 24, 22606, -20343, 5144, 5415, 15, 14, 1528821904.252, 77, 0, 1024, 1024, 1024, 1024, 0, 6, 3753, 3759, 3777, 3784, 3796, 3761, 0, 1, 21199, -89.900, 0.000, -88.500, 0.000, 0.000, -3.000, 0.0, , , , , , 97, , , 0, 0, 0
