latitude,longitude,altitude(feet),ascent(feet),speed(mph),distance(feet),time(millisecond),datetime(utc),satellites,gpslevel,voltage(v),max_altitude(feet),max_ascent(feet),max_speed(mph),max_distance(feet), xSpeed(mph), ySpeed(mph), zSpeed(mph), compass_heading(degrees), pitch(degrees), roll(degrees),isPhoto,isVideo,rc_elevator,rc_aileron,rc_throttle,rc_rudder,gimbal_heading(degrees),gimbal_pitch(degrees),battery_percent,voltageCell1,voltageCell2,voltageCell3,voltageCell4,voltageCell5,voltageCell6,current(A),battery_temperature(f),flycStateRaw,flycState,message
37.3533192,-119.5420419,4565.5812199175,0,0,0,3100,2018-06-12 17:39:03,16,0,0,4565.5812199175,0,0,0,0,0,0,275.2, 0, 0.1,1,0,1024,1024,1024,1024,273.6,-89.9,97,4.236,4.241,4.274,4.253,4.256,4.235,0,77,11,AutoTakeoff,DJI_0097.jpg Starting Mission from Lat/Long: 37.35332/-119.54203 Camera: Zenmuse X3 - Overlap: 90/90 - Active Connection: No
37.3533193,-119.5420419,4565.5812199175,0,0,0.036484909304,3200,2018-06-12 17:39:03,16,0,0,4565.5812199175,0,0,0.036484909304,0,0,0,275.2, -0.1, -0.1,0,0,1024,1024,1024,1024,273.7,-90,97,4.236,4.241,4.274,4.253,4.256,4.235,0,77,11,AutoTakeoff,
37.3533193,-119.5420419,4565.9093039175,0.328084,0,0.036484909304,3300,2018-06-12 17:39:03,16,0,0,4565.9093039175,0.328084,0,0.036484909304,0,0,0,275.2, -0.2, -0.1,0,0,1024,1024,1024,1024,273.7,-89.9,97,4.236,4.241,4.274,4.253,4.256,4.235,0,77,11,AutoTakeoff,
37.3533193,-119.5420419,4565.9093039175,0.328084,0,0.036484909304,3400,2018-06-12 17:39:03,16,0,0,4565.9093039175,0.328084,0,0.036484909304,0,0,0,275.1, -0.1, -0.1,0,0,1024,1024,1024,1024,273.7,-89.9,97,4.236,4.241,4.274,4.253,4.256,4.235,0,77,11,AutoTakeoff,
37.3533193,-119.542042,4566.2373879175,0.656168,0,0.04660761304,3500,2018-06-12 17:39:04,15,0,0,4566.2373879175,0.656168,0,0.04660761304,0,0,0,275, 0, 0,0,0,1024,1024,1024,1024,273.7,-89.9,97,4.236,4.241,4.274,4.253,4.256,4.235,0,77,11,AutoTakeoff,
37.3533193,-119.542042,4566.2373879175,0.656168,0,0.04660761304,3600,2018-06-12 17:39:04,15,0,0,4566.2373879175,0.656168,0,0.04660761304,0,0,0,275, 0, 0,0,0,1024,1024,1024,1024,273.7,-89.9,97,4.236,4.241,4.274,4.253,4.256,4.235,0,77,11,AutoTakeoff,
37.3533193,-119.5420421,4566.5654719175,0.984252,0,0.068524936576,3700,2018-06-12 17:39:04,14,0,0,4566.5654719175,0.984252,0,0.068524936576,0,0,0,274.9, 0.2, 0.2,0,0,1024,1024,1024,1024,273.8,-89.9,97,4.236,4.241,4.274,4.253,4.256,4.235,0,77,11,AutoTakeoff,
37.3533193,-119.5420421,4566.5654719175,0.984252,0,0.068524936576,3800,2018-06-12 17:39:04,14,0,0,4566.5654719175,0.984252,0,0.068524936576,0,0,0,274.9, 0.4, 0.2,0,0,1024,1024,1024,1024,273.8,-89.9,97,4.236,4.241,4.274,4.253,4.256,4.235,0,77,11,AutoTakeoff,
37.3533192,-119.5420421,4566.5654719175,0.984252,0,0.058004266948,3900,2018-06-12 17:39:04,14,0,0,4566.5654719175,0.984252,0,0.068524936576,0,0,0,274.8, 0.5, 0.1,0,0,1024,1024,1024,1024,273.8,-89.9,97,4.236,4.241,4.274,4.253,4.256,4.235,0,77,11,AutoTakeoff,
37.3533192,-119.5420422,4566.8935559175,1.312336,0,0.087006564464,4000,2018-06-12 17:39:04,14,0,25.667,4566.8935559175,1.312336,0,0.087006564464,0,0,0,274.8, 0.5, 0.1,0,0,1024,1024,1024,1024,273.8,-89.9,97,4.236,4.241,4.274,4.253,4.256,4.235,3.01,77,11,AutoTakeoff,
37.3533192,-119.5420422,4566.8935559175,1.312336,0,0.087006564464,4100,2018-06-12 17:39:04,14,0,25.667,4566.8935559175,1.312336,0,0.087006564464,0,0,0,274.8, 0.5, 0.2,0,0,1024,1024,1024,1024,273.8,-89.9,97,4.236,4.241,4.274,4.253,4.256,4.235,3.01,77,11,AutoTakeoff,
37.3533192,-119.5420422,4567.2216399175,1.64042,0,0.087006564464,4200,2018-06-12 17:39:04,14,0,25.667,4567.2216399175,1.64042,0,0.087006564464,0,0,0,274.7, 0.4, 0.1,0,0,1024,1024,1024,1024,273.8,-89.9,97,4.236,4.241,4.274,4.253,4.256,4.235,3.01,77,11,AutoTakeoff,
37.3533192,-119.5420421,4567.2216399175,1.64042,0,0.058004266948,4300,2018-06-12 17:39:04,14,0,25.667,4567.2216399175,1.64042,0,0.087006564464,0,0,-0.223694,274.7, 0.3, 0,0,0,1024,1024,1024,1024,273.8,-89.9,97,4.236,4.241,4.274,4.253,4.256,4.235,3.01,77,11,AutoTakeoff,
37.3533192,-119.5420421,4567.5497239175,1.968504,0,0.058004266948,4400,2018-06-12 17:39:04,14,0,25.667,4567.5497239175,1.968504,0,0.087006564464,0,0,-0.223694,274.7, 0.1, 0,0,0,1024,1024,1024,1024,273.9,-89.9,97,4.236,4.241,4.274,4.253,4.256,4.235,3.01,77,11,AutoTakeoff,
37.3533192,-119.5420421,4567.8778079175,2.296588,0,0.058004266948,4500,2018-06-12 17:39:05,15,0,25.667,4567.8778079175,2.296588,0,0.087006564464,0,0,-0.223694,274.8, 0.1, 0.1,0,0,1024,1024,1024,1024,273.9,-90,97,4.236,4.241,4.274,4.253,4.256,4.235,3.01,77,11,AutoTakeoff,
37.3533191,-119.5420421,4567.8778079175,2.296588,0,0.068524936576,4600,2018-06-12 17:39:05,15,0,25.667,4567.8778079175,2.296588,0,0.087006564464,0,0,-0.223694,274.8, 0.1, 0.2,0,0,1024,1024,1024,1024,273.9,-89.9,97,4.236,4.241,4.274,4.253,4.256,4.235,3.01,77,11,AutoTakeoff,
37.353319,-119.5420421,4568.2058919175,2.624672,0,0.093215554164,4800,2018-06-12 17:39:05,15,0,25.667,4568.2058919175,2.624672,0,0.093215554164,0,0,-0.223694,274.9, 0, 0.3,0,0,1024,1024,1024,1024,273.9,-90,97,4.236,4.241,4.274,4.253,4.256,4.235,3.01,77,11,AutoTakeoff,
37.353319,-119.542042,4568.2058919175,2.624672,0,0.078522312224,4900,2018-06-12 17:39:05,15,0,25.667,4568.2058919175,2.624672,0,0.093215554164,0,0,-0.223694,275, 0, 0.5,0,0,1024,1024,1024,1024,273.9,-90,97,4.236,4.241,4.274,4.253,4.256,4.235,3.01,77,11,AutoTakeoff,
37.353319,-119.542042,4568.5339759175,2.952756,0,0.078522312224,5000,2018-06-12 17:39:05,16,0,24.805,4568.5339759175,2.952756,0,0.093215554164,0,0,-0.223694,275.2, 0, 0.4,0,0,1024,1024,1024,1024,273.9,-89.9,97,4.066,4.054,4.108,4.087,4.09,4.089,11.471,77,14,Waypoint,
37.3533189,-119.542042,4568.5339759175,2.952756,0,0.113231959004,5100,2018-06-12 17:39:05,16,0,24.805,4568.5339759175,2.952756,0,0.113231959004,0,0,0,275.3, 0, 0.3,0,0,1024,1024,1024,1024,273.9,-89.9,97,4.066,4.054,4.108,4.087,4.09,4.089,11.471,77,14,Waypoint,
37.3533189,-119.5420419,4568.8620599175,3.28084,0,0.109454727912,5200,2018-06-12 17:39:05,15,0,24.805,4568.8620599175,3.28084,0,0.113231959004,0,0,0,275.5, 0, 0,0,0,1024,1024,1024,1024,274,-90,97,4.066,4.054,4.108,4.087,4.09,4.089,11.471,77,14,Waypoint,
37.353319,-119.5420418,4568.8620599175,3.28084,0,0.078522312224,5300,2018-06-12 17:39:05,15,0,24.805,4568.8620599175,3.28084,0,0.113231959004,0,0,0,275.6, -0.1, 0,0,0,1024,1024,1024,1024,274,-90,97,4.066,4.054,4.108,4.087,4.09,4.089,11.471,77,14,Waypoint,
37.3533191,-119.5420417,4569.1901439175,3.608924,0,0.068524936576,5400,2018-06-12 17:39:05,15,0,24.805,4569.1901439175,3.608924,0,0.113231959004,0,0,0,275.8, -0.3, -0.1,0,0,1024,1024,1024,1024,274,-90,97,4.066,4.054,4.108,4.087,4.09,4.089,11.471,77,14,Waypoint,
37.3533191,-119.5420417,4569.1901439175,3.608924,0,0.068524936576,5500,2018-06-12 17:39:06,15,0,24.805,4569.1901439175,3.608924,0,0.113231959004,0,0,-0.223694,275.8, -0.5, -0.4,0,0,1024,1024,1024,1024,274,-90,97,4.066,4.054,4.108,4.087,4.09,4.089,11.471,77,14,Waypoint,
37.3533191,-119.5420417,4569.5182279175,3.937008,0,0.068524936576,5600,2018-06-12 17:39:06,15,0,24.805,4569.5182279175,3.937008,0,0.113231959004,0,0,-0.223694,275.8, -0.5, -0.6,0,0,1024,1024,1024,1024,274,-90,97,4.066,4.054,4.108,4.087,4.09,4.089,11.471,77,14,Waypoint,
37.3533192,-119.5420417,4569.8463119175,4.265092,0,0.058004266948,5700,2018-06-12 17:39:06,16,0,24.805,4569.8463119175,4.265092,0,0.113231959004,0,0,-0.223694,275.8, -0.2, -0.8,0,0,1024,1024,1024,1024,274.1,-90,97,4.066,4.054,4.108,4.087,4.09,4.089,11.471,77,14,Waypoint,
37.3533192,-119.5420417,4570.1743959175,4.593176,0,0.058004266948,5800,2018-06-12 17:39:06,16,0,24.805,4570.1743959175,4.593176,0,0.113231959004,0,0,-0.223694,275.9, 0, -0.7,0,0,1024,1024,1024,1024,274.1,-89.9,97,4.066,4.054,4.108,4.087,4.09,4.089,11.471,77,14,Waypoint,
37.3533191,-119.5420418,4570.5024799175,4.92126,0,0.04660761304,5900,2018-06-12 17:39:06,16,0,24.805,4570.5024799175,4.92126,0,0.113231959004,0,0,-0.223694,275.8, 0.4, -0.8,0,0,1024,1024,1024,1024,274.1,-89.9,97,4.066,4.054,4.108,4.087,4.09,4.089,11.471,77,14,Waypoint,
37.3533191,-119.5420418,4571.1586479175,5.577428,0,0.04660761304,6000,2018-06-12 17:39:06,16,0,24.276,4571.1586479175,5.577428,0,0.113231959004,0,0,-0.447388,275.7, 0.6, -0.9,0,0,1024,1024,1024,1024,274.1,-89.9,97,4.031,4.021,4.056,4.041,4.057,4.042,16.216,77,14,Waypoint,
37.353319,-119.5420419,4571.8148159175,6.233596,0,0.072969818608,6100,2018-06-12 17:39:06,15,0,24.276,4571.8148159175,6.233596,0,0.113231959004,0,0,-0.447388,275.5, 0.6, -1.1,0,0,1024,1024,1024,1024,274.2,-89.9,97,4.031,4.021,4.056,4.041,4.057,4.042,16.216,77,14,Waypoint,
37.3533189,-119.542042,4572.1428999175,6.56168,0,0.113231959004,6200,2018-06-12 17:39:06,15,0,24.276,4572.1428999175,6.56168,0,0.113231959004,0,0,-0.447388,275.3, 0.6, -0.6,0,0,1024,1024,1024,1024,274.2,-89.9,97,4.031,4.021,4.056,4.041,4.057,4.042,16.216,77,14,Waypoint,
37.3533188,-119.5420421,4572.7990679175,7.217848,0,0.157044296364,6300,2018-06-12 17:39:06,15,0,24.276,4572.7990679175,7.217848,0,0.157044296364,0,0,-0.447388,275.1, 0.8, 0,0,0,1024,1024,1024,1024,274.2,-89.9,97,4.031,4.021,4.056,4.041,4.057,4.042,16.216,77,14,Waypoint,
37.3533186,-119.5420421,4573.7833199175,8.2021,0,0.226463918008,6400,2018-06-12 17:39:06,15,0,24.276,4573.7833199175,8.2021,0,0.226463918008,0,0,-0.447388,275, 0.8, 0.2,0,0,1024,1024,1024,1024,274.2,-89.9,97,4.031,4.021,4.056,4.041,4.057,4.042,16.216,77,14,Waypoint,
37.3533185,-119.542042,4574.4394879175,8.858268,0,0.257036097464,6500,2018-06-12 17:39:07,16,0,24.276,4574.4394879175,8.858268,0,0.257036097464,0,0,-0.671082,275, 0.5, 0.5,0,0,1024,1024,1024,1024,274.2,-89.9,97,4.031,4.021,4.056,4.041,4.057,4.042,16.216,77,14,Waypoint,
37.3533184,-119.542042,4575.4237399175,9.84252,0,0.29331693852,6600,2018-06-12 17:39:07,16,0,24.276,4575.4237399175,9.84252,0,0.29331693852,0,0,-0.671082,274.9, 0.2, 0.6,0,0,1024,1024,1024,1024,274.2,-90,97,4.031,4.021,4.056,4.041,4.057,4.042,16.216,77,14,Waypoint,
37.3533183,-119.542042,4576.4079919175,10.826772,0,0.329642399,6800,2018-06-12 17:39:07,16,0,24.276,4576.4079919175,10.826772,0,0.329642399,0,0,-0.671082,274.9, -0.1, 0.6,0,0,1024,1024,1024,1024,274.2,-90,97,4.031,4.021,4.056,4.041,4.057,4.042,16.216,77,14,Waypoint,
37.3533181,-119.542042,4577.3922439175,11.811024,0,0.40238190264,6900,2018-06-12 17:39:07,16,0,24.276,4577.3922439175,11.811024,0,0.40238190264,0,0,-0.671082,275, -0.1, 0.3,0,0,1024,1024,1024,1024,274.3,-89.9,97,4.031,4.021,4.056,4.041,4.057,4.042,16.216,77,14,Waypoint,
37.3533179,-119.5420421,4578.3764959175,12.795276,0,0.4778379418,7000,2018-06-12 17:39:07,16,0,24.289,4578.3764959175,12.795276,0,0.4778379418,0,0,-0.671082,275.2, 0, 0.4,0,0,1024,1024,1024,1024,274.3,-89.9,97,4.024,4.072,4.035,4.019,4.035,4.025,15.33,77,14,Waypoint,
37.3533176,-119.5420421,4580.6730839175,15.091864,0,0.58663387704,7100,2018-06-12 17:39:07,16,0,24.289,4580.6730839175,15.091864,0,0.58663387704,0,0,-0.671082,275.5, 0.4, 0.7,0,0,1024,1024,1024,1024,274.3,-89.9,97,4.024,4.072,4.035,4.019,4.035,4.025,15.33,77,14,Waypoint,
37.3533174,-119.5420421,4582.9696719175,17.388452,0,0.659284798,7300,2018-06-12 17:39:07,17,0,24.289,4582.9696719175,17.388452,0,0.659284798,0,0,-0.671082,275.6, 0.6, 0.9,0,0,1024,1024,1024,1024,274.3,-89.9,97,4.024,4.072,4.035,4.019,4.035,4.025,15.33,77,14,Waypoint,
37.3533173,-119.5420421,4583.9539239175,18.372704,0,0.6956365052,7400,2018-06-12 17:39:07,17,0,24.289,4583.9539239175,18.372704,0,0.6956365052,0,0,-0.671082,275.5, 0.4, 1.3,0,0,1024,1024,1024,1024,274.3,-89.9,97,4.024,4.072,4.035,4.019,4.035,4.025,15.33,77,14,Waypoint,
37.3533173,-119.5420422,4584.9381759175,19.356956,0,0.69865159716,7500,2018-06-12 17:39:08,17,0,24.289,4584.9381759175,19.356956,0,0.69865159716,0,0,-0.671082,275.5, 0.3, 1.6,0,0,1024,1024,1024,1024,274.3,-89.9,97,4.024,4.072,4.035,4.019,4.035,4.025,15.33,77,14,Waypoint,
37.3533173,-119.5420422,4586.2505119175,20.669292,0,0.69865159716,7600,2018-06-12 17:39:08,17,0,24.289,4586.2505119175,20.669292,0,0.69865159716,0,0,-0.671082,275.3, 0.3, 1.5,0,0,1024,1024,1024,1024,274.3,-89.9,97,4.024,4.072,4.035,4.019,4.035,4.025,15.33,77,14,Waypoint,
37.3533174,-119.5420422,4587.2347639175,21.653544,0,0.6624672128,7700,2018-06-12 17:39:08,16,0,24.289,4587.2347639175,21.653544,0,0.69865159716,0,0,-0.671082,275.2, 0.5, 0.9,0,0,1024,1024,1024,1024,274.4,-89.9,97,4.024,4.072,4.035,4.019,4.035,4.025,15.33,77,14,Waypoint,
37.3533174,-119.5420422,4588.5470999175,22.96588,0.223694,0.6624672128,7800,2018-06-12 17:39:08,16,0,24.289,4588.5470999175,22.96588,0.223694,0.69865159716,0,0,-0.671082,275.2, 0.7, 0.4,0,0,1024,1024,1024,1024,274.4,-89.9,97,4.024,4.072,4.035,4.019,4.035,4.025,15.33,77,14,Waypoint,
37.3533176,-119.5420422,4589.5313519175,23.950132,0.223694,0.5902067118,7900,2018-06-12 17:39:08,16,0,24.289,4589.5313519175,23.950132,0.223694,0.69865159716,0,0,-0.671082,275.2, 0.7, 0,0,0,1024,1024,1024,1024,274.4,-89.9,97,4.024,4.072,4.035,4.019,4.035,4.025,15.33,77,14,Waypoint,
37.3533177,-119.5420421,4590.5156039175,24.934384,0.223694,0.55033794412,8000,2018-06-12 17:39:08,16,0,23.6,4590.5156039175,24.934384,0.223694,0.69865159716,0,0,-0.671082,275.2, 0.7, -0.5,0,0,1024,1024,1024,1024,274.4,-89.9,97,3.917,3.91,3.948,3.931,3.937,3.915,23.194,77,14,Waypoint,
37.3533179,-119.5420421,4591.8279399175,26.24672,0.223694,0.4778379418,8100,2018-06-12 17:39:08,16,0,23.6,4591.8279399175,26.24672,0.223694,0.69865159716,0,0,-0.671082,275.2, 0.4, -1,0,0,1024,1024,1024,1024,274.4,-90,97,3.917,3.91,3.948,3.931,3.937,3.915,23.194,77,14,Waypoint,
37.3533181,-119.542042,4592.8121919175,27.230972,0.223694,0.40238190264,8200,2018-06-12 17:39:08,16,0,23.6,4592.8121919175,27.230972,0.223694,0.69865159716,0,0,-0.671082,275.2, 0.2, -1.1,0,0,1024,1024,1024,1024,274.4,-90,97,3.917,3.91,3.948,3.931,3.937,3.915,23.194,77,14,Waypoint,
37.3533182,-119.542042,4593.7964439175,28.215224,0.223694,0.36600066788,8300,2018-06-12 17:39:08,16,0,23.6,4593.7964439175,28.215224,0.223694,0.69865159716,0,0,-0.671082,275.2, 0.1, -0.9,0,0,1024,1024,1024,1024,274.4,-90,97,3.917,3.91,3.948,3.931,3.937,3.915,23.194,77,14,Waypoint,
37.3533184,-119.542042,4595.1087799175,29.52756,0.223694,0.29331693852,8400,2018-06-12 17:39:08,16,0,23.6,4595.1087799175,29.52756,0.223694,0.69865159716,0,0,-0.671082,275.3, 0, -1,0,0,1024,1024,1024,1024,274.4,-90,97,3.917,3.91,3.948,3.931,3.937,3.915,23.194,77,14,Waypoint,
37.3533185,-119.5420419,4596.0930319175,30.511812,0.223694,0.255394693212,8500,2018-06-12 17:39:09,17,0,23.6,4596.0930319175,30.511812,0.223694,0.69865159716,0,0,-0.671082,275.4, 0, -1,0,0,1024,1024,1024,1024,274.4,-90,97,3.917,3.91,3.948,3.931,3.937,3.915,23.194,77,14,Waypoint,
37.3533187,-119.5420419,4597.0772839175,31.496064,0.223694,0.18242454652,8600,2018-06-12 17:39:09,17,0,23.6,4597.0772839175,31.496064,0.223694,0.69865159716,0,0,-0.671082,275.4, -0.2, -1.1,0,0,1024,1024,1024,1024,274.4,-90,97,3.917,3.91,3.948,3.931,3.937,3.915,23.194,77,14,Waypoint,
37.353319,-119.5420418,4599.0457879175,33.464568,0,0.078522312224,8800,2018-06-12 17:39:09,15,0,23.6,4599.0457879175,33.464568,0.223694,0.69865159716,0,0,-0.671082,275.5, 0.1, -1.4,0,0,1024,1024,1024,1024,274.4,-89.9,97,3.917,3.91,3.948,3.931,3.937,3.915,23.194,77,14,Waypoint,
37.3533191,-119.5420418,4600.3581239175,34.776904,0,0.04660761304,9000,2018-06-12 17:39:09,16,0,23.654,4600.3581239175,34.776904,0.223694,0.69865159716,0,0,-0.671082,275.6, 0.4, -1.4,0,0,1024,1024,1024,1024,274.4,-89.9,97,3.928,3.937,3.979,3.965,3.98,3.958,22.284,77,14,Waypoint,
37.3533192,-119.5420418,4601.3423759175,35.761156,0,0.0290021990908,9100,2018-06-12 17:39:09,16,0,23.654,4601.3423759175,35.761156,0.223694,0.69865159716,0,0,-0.671082,275.5, 0.6, -1.2,0,0,1024,1024,1024,1024,274.4,-89.9,97,3.928,3.937,3.979,3.965,3.98,3.958,22.284,77,14,Waypoint,
37.3533192,-119.5420418,4602.3266279175,36.745408,0,0.0290021990908,9200,2018-06-12 17:39:09,16,0,23.654,4602.3266279175,36.745408,0.223694,0.69865159716,0,0,-0.671082,275.5, 0.6, -1.1,0,0,1024,1024,1024,1024,274.4,-89.9,97,3.928,3.937,3.979,3.965,3.98,3.958,22.284,77,14,Waypoint,
37.3533193,-119.5420418,4603.3108799175,37.72966,0,0.04660761304,9300,2018-06-12 17:39:09,16,0,23.654,4603.3108799175,37.72966,0.223694,0.69865159716,0,0,-0.671082,275.5, 0.5, -0.9,0,0,1024,1024,1024,1024,274.4,-89.9,97,3.928,3.937,3.979,3.965,3.98,3.958,22.284,77,14,Waypoint,
37.3533194,-119.5420417,4604.2951319175,38.713912,0,0.093215554164,9400,2018-06-12 17:39:09,16,0,23.654,4604.2951319175,38.713912,0.223694,0.69865159716,0,0,-0.671082,275.5, 0.4, -0.8,0,0,1024,1024,1024,1024,274.4,-90,97,3.928,3.937,3.979,3.965,3.98,3.958,22.284,77,14,Waypoint,
37.3533194,-119.5420417,4605.2793839175,39.698164,0,0.093215554164,9500,2018-06-12 17:39:10,16,0,23.654,4605.2793839175,39.698164,0.223694,0.69865159716,0,0,-0.671082,275.4, 0.2, -0.6,0,0,1024,1024,1024,1024,274.4,-90,97,3.928,3.937,3.979,3.965,3.98,3.958,22.284,77,14,Waypoint,
37.3533194,-119.5420416,4606.2636359175,40.682416,0,0.113555121744,9600,2018-06-12 17:39:10,16,0,23.654,4606.2636359175,40.682416,0.223694,0.69865159716,0,0,-0.671082,275.4, 0.1, -0.4,0,0,1024,1024,1024,1024,274.4,-90,97,3.928,3.937,3.979,3.965,3.98,3.958,22.284,77,14,Waypoint,
37.3533194,-119.5420415,4608.2321399175,42.65092,0,0.137049873152,9700,2018-06-12 17:39:10,16,0,23.654,4608.2321399175,42.65092,0.223694,0.69865159716,0,0,-0.671082,275.3, 0, -0.3,0,0,1024,1024,1024,1024,274.4,-90,97,3.928,3.937,3.979,3.965,3.98,3.958,22.284,77,14,Waypoint,
37.3533194,-119.5420415,4609.2163919175,43.635172,0,0.137049873152,9800,2018-06-12 17:39:10,16,0,23.654,4609.2163919175,43.635172,0.223694,0.69865159716,0,0,-0.671082,275.3, 0, -0.2,0,0,1024,1024,1024,1024,274.4,-90,97,3.928,3.937,3.979,3.965,3.98,3.958,22.284,77,14,Waypoint,
37.3533194,-119.5420415,4610.2006439175,44.619424,0,0.137049873152,9900,2018-06-12 17:39:10,17,0,23.654,4610.2006439175,44.619424,0.223694,0.69865159716,0,0,-0.671082,275.3, 0, -0.2,0,0,1024,1024,1024,1024,274.4,-90,97,3.928,3.937,3.979,3.965,3.98,3.958,22.284,77,14,Waypoint,
37.3533194,-119.5420414,4611.1848959175,45.603676,0,0.162335635116,10000,2018-06-12 17:39:10,17,0,23.901,4611.1848959175,45.603676,0.223694,0.69865159716,0,0,-0.671082,275.3, 0, -0.4,0,0,1024,1024,1024,1024,274.4,-90,97,3.958,3.944,4.004,3.985,3.992,3.983,18.447,77,14,Waypoint,
37.3533194,-119.5420414,4612.1691479175,46.587928,0,0.162335635116,10100,2018-06-12 17:39:10,17,0,23.901,4612.1691479175,46.587928,0.223694,0.69865159716,0,0,-0.671082,275.3, 0, -0.5,0,0,1024,1024,1024,1024,274.4,-90,97,3.958,3.944,4.004,3.985,3.992,3.983,18.447,77,14,Waypoint,
37.3533194,-119.5420414,4613.1533999175,47.57218,0,0.162335635116,10200,2018-06-12 17:39:10,17,0,23.901,4613.1533999175,47.57218,0.223694,0.69865159716,0,0,-0.671082,275.3, 0, -0.3,0,0,1024,1024,1024,1024,274.4,-90,97,3.958,3.944,4.004,3.985,3.992,3.983,18.447,77,14,Waypoint,
37.3533193,-119.5420414,4614.1376519175,48.556432,0,0.149530516596,10300,2018-06-12 17:39:10,17,0,23.901,4614.1376519175,48.556432,0.223694,0.69865159716,0,0,-0.671082,275.4, -0.1, -0.2,0,0,1024,1024,1024,1024,274.4,-90,97,3.958,3.944,4.004,3.985,3.992,3.983,18.447,77,14,Waypoint,
37.3533193,-119.5420413,4615.1219039175,49.540684,0,0.1777969217,10400,2018-06-12 17:39:10,17,0,23.901,4615.1219039175,49.540684,0.223694,0.69865159716,0,0,-0.671082,275.4, -0.1, -0.1,0,0,1024,1024,1024,1024,274.4,-90,97,3.958,3.944,4.004,3.985,3.992,3.983,18.447,77,14,Waypoint,
37.3533192,-119.5420413,4616.1061559175,50.524936,0,0.174013457012,10500,2018-06-12 17:39:11,17,0,23.901,4616.1061559175,50.524936,0.223694,0.69865159716,0,0,-0.671082,275.5, -0.3, 0,0,0,1024,1024,1024,1024,274.4,-90,97,3.958,3.944,4.004,3.985,3.992,3.983,18.447,77,14,Waypoint,
37.3533192,-119.5420413,4617.0904079175,51.509188,0,0.174013457012,10600,2018-06-12 17:39:11,17,0,23.901,4617.0904079175,51.509188,0.223694,0.69865159716,0,0,-0.671082,275.5, -0.3, 0.1,0,0,1024,1024,1024,1024,274.4,-90,97,3.958,3.944,4.004,3.985,3.992,3.983,18.447,77,14,Waypoint,
37.3533191,-119.5420412,4618.0746599175,52.49344,0,0.20626805122,10700,2018-06-12 17:39:11,17,0,23.901,4618.0746599175,52.49344,0.223694,0.69865159716,0,0,-0.671082,275.5, -0.3, 0.3,0,0,1024,1024,1024,1024,274.4,-90,97,3.958,3.944,4.004,3.985,3.992,3.983,18.447,77,14,Waypoint,
37.353319,-119.5420412,4619.0589119175,53.477692,0,0.215730978032,10800,2018-06-12 17:39:11,17,0,23.901,4619.0589119175,53.477692,0.223694,0.69865159716,0,0,-0.671082,275.5, -0.3, 0.3,0,0,1024,1024,1024,1024,274.4,-90,97,3.958,3.944,4.004,3.985,3.992,3.983,18.447,77,14,Waypoint,
37.353319,-119.5420412,4620.0431639175,54.461944,0,0.215730978032,10900,2018-06-12 17:39:11,17,0,23.901,4620.0431639175,54.461944,0.223694,0.69865159716,0,0,-0.671082,275.5, -0.4, 0.1,0,0,1024,1024,1024,1024,274.4,-90,97,3.958,3.944,4.004,3.985,3.992,3.983,18.447,77,14,Waypoint,
37.353319,-119.5420411,4621.0274159175,55.446196,0,0.24322179256,11000,2018-06-12 17:39:11,17,0,23.783,4621.0274159175,55.446196,0.223694,0.69865159716,0,0,-0.671082,275.7, -0.3, 0,0,0,1024,1024,1024,1024,274.4,-89.9,97,3.947,3.945,3.986,3.966,3.982,3.968,18.541,77,14,Waypoint,
37.353319,-119.5420411,4622.0116679175,56.430448,0,0.24322179256,11100,2018-06-12 17:39:11,17,0,23.783,4622.0116679175,56.430448,0.223694,0.69865159716,0,0,-0.671082,275.7, -0.2, -0.4,0,0,1024,1024,1024,1024,274.4,-90,97,3.947,3.945,3.986,3.966,3.982,3.968,18.541,77,14,Waypoint,
37.353319,-119.542041,4622.9959199175,57.4147,0,0.271027567728,11200,2018-06-12 17:39:11,17,0,23.783,4622.9959199175,57.4147,0.223694,0.69865159716,0,0,-0.671082,275.6, -0.3, -0.8,0,0,1024,1024,1024,1024,274.4,-90,97,3.947,3.945,3.986,3.966,3.982,3.968,18.541,77,14,Waypoint,
37.353319,-119.542041,4623.9801719175,58.398952,0,0.271027567728,11300,2018-06-12 17:39:11,17,0,23.783,4623.9801719175,58.398952,0.223694,0.69865159716,0,0,-0.671082,275.3, -0.5, -1.2,0,0,1024,1024,1024,1024,274.4,-90,97,3.947,3.945,3.986,3.966,3.982,3.968,18.541,77,14,Waypoint,
37.353319,-119.542041,4626.2767599175,60.69554,0,0.271027567728,11500,2018-06-12 17:39:12,17,0,23.783,4626.2767599175,60.69554,0.223694,0.69865159716,0,0,-0.671082,274.9, -0.3, -0.8,0,0,1024,1024,1024,1024,274.4,-90,97,3.947,3.945,3.986,3.966,3.982,3.968,18.541,77,14,Waypoint,
37.353319,-119.542041,4627.2610119175,61.679792,0,0.271027567728,11600,2018-06-12 17:39:12,17,0,23.783,4627.2610119175,61.679792,0.223694,0.69865159716,0,0,-0.671082,274.9, -0.2, -0.5,0,0,1024,1024,1024,1024,274.4,-90,97,3.947,3.945,3.986,3.966,3.982,3.968,18.541,77,14,Waypoint,
37.353319,-119.5420409,4628.2452639175,62.664044,0,0.299061033192,11800,2018-06-12 17:39:12,17,0,23.783,4628.2452639175,62.664044,0.223694,0.69865159716,0,0,-0.671082,274.8, -0.5, -0.6,0,0,1024,1024,1024,1024,274.4,-90,97,3.947,3.945,3.986,3.966,3.982,3.968,18.541,77,14,Waypoint,
37.3533189,-119.5420409,4629.2295159175,63.648296,0,0.309989183148,11900,2018-06-12 17:39:12,17,0,23.783,4629.2295159175,63.648296,0.223694,0.69865159716,0,0,-0.671082,274.9, -0.8, -0.3,0,0,1024,1024,1024,1024,274.4,-90,97,3.947,3.945,3.986,3.966,3.982,3.968,18.541,77,14,Waypoint,
37.3533189,-119.5420408,4630.2137679175,64.632548,0,0.33728019452,12000,2018-06-12 17:39:12,17,0,23.771,4630.2137679175,64.632548,0.223694,0.69865159716,0,0,-0.671082,275.3, -1.1, -0.3,0,0,1024,1024,1024,1024,274.4,-90,96,3.953,3.939,3.98,3.963,3.983,3.96,18.27,77,14,Waypoint,
37.3533189,-119.5420408,4632.1822719175,66.601052,0,0.33728019452,12100,2018-06-12 17:39:12,17,0,23.771,4632.1822719175,66.601052,0.223694,0.69865159716,0,0,-0.671082,275.9, -1.1, 0,0,0,1024,1024,1024,1024,274.4,-90,96,3.953,3.939,3.98,3.963,3.983,3.96,18.27,77,14,Waypoint,
37.3533189,-119.5420408,4634.1507759175,68.569556,0,0.33728019452,12300,2018-06-12 17:39:12,17,0,23.771,4634.1507759175,68.569556,0.223694,0.69865159716,0,0,-0.671082,275.9, -0.7, 0.2,0,0,1024,1024,1024,1024,274.4,-89.9,96,3.953,3.939,3.98,3.963,3.983,3.96,18.27,77,14,Waypoint,
37.3533189,-119.5420409,4635.1350279175,69.553808,0,0.309989183148,12400,2018-06-12 17:39:12,17,0,23.771,4635.1350279175,69.553808,0.223694,0.69865159716,0,0,-0.671082,275.8, -0.3, -0.1,0,0,1024,1024,1024,1024,274.4,-89.9,96,3.953,3.939,3.98,3.963,3.983,3.96,18.27,77,14,Waypoint,
37.353319,-119.5420409,4635.7911959175,70.209976,0,0.299061033192,12500,2018-06-12 17:39:13,17,0,23.771,4635.7911959175,70.209976,0.223694,0.69865159716,0,0,-0.671082,275.7, 0, -0.7,0,0,1024,1024,1024,1024,274.4,-89.9,96,3.953,3.939,3.98,3.963,3.983,3.96,18.27,77,14,Waypoint,
37.353319,-119.542041,4636.7754479175,71.194228,0,0.271027567728,12600,2018-06-12 17:39:13,17,0,23.771,4636.7754479175,71.194228,0.223694,0.69865159716,0,0,-0.671082,275.6, 0, -1.3,0,0,1024,1024,1024,1024,274.4,-89.9,96,3.953,3.939,3.98,3.963,3.983,3.96,18.27,77,14,Waypoint,
37.3533191,-119.542041,4637.7596999175,72.17848,0,0.263557423132,12700,2018-06-12 17:39:13,17,0,23.771,4637.7596999175,72.17848,0.223694,0.69865159716,0,0,-0.671082,275.4, 0, -1.8,0,0,1024,1024,1024,1024,274.4,-89.9,96,3.953,3.939,3.98,3.963,3.983,3.96,18.27,77,14,Waypoint,
37.3533192,-119.542041,4638.7439519175,73.162732,0,0.261020021476,12800,2018-06-12 17:39:13,17,0,23.771,4638.7439519175,73.162732,0.223694,0.69865159716,0,0,-0.671082,275.3, 0, -1.8,0,0,1024,1024,1024,1024,274.4,-89.9,96,3.953,3.939,3.98,3.963,3.983,3.96,18.27,77,14,Waypoint,
37.3533192,-119.5420411,4639.7282039175,74.146984,0,0.23201772396,12900,2018-06-12 17:39:13,17,0,23.771,4639.7282039175,74.146984,0.223694,0.69865159716,0,0,-0.671082,275.4, 0, -1.5,0,0,1024,1024,1024,1024,274.4,-89.9,96,3.953,3.939,3.98,3.963,3.983,3.96,18.27,77,14,Waypoint,
37.3533193,-119.5420411,4640.7124559175,75.131236,0,0.23486877392,13000,2018-06-12 17:39:13,17,0,23.718,4640.7124559175,75.131236,0.223694,0.69865159716,0,0,-0.671082,275.4, 0, -1.5,0,0,1024,1024,1024,1024,274.4,-89.9,96,3.953,3.939,3.98,3.963,3.983,3.96,18.685,77,14,Waypoint,
37.3533193,-119.5420411,4641.6967079175,76.115488,0,0.23486877392,13100,2018-06-12 17:39:13,17,0,23.718,4641.6967079175,76.115488,0.223694,0.69865159716,0,0,-0.671082,275.3, -0.1, -1.9,0,0,1024,1024,1024,1024,274.4,-90,96,3.953,3.939,3.98,3.963,3.983,3.96,18.685,77,14,Waypoint,
37.3533194,-119.5420411,4642.6809599175,77.09974,0,0.24322179256,13200,2018-06-12 17:39:13,17,0,23.718,4642.6809599175,77.09974,0.223694,0.69865159716,0,0,-0.671082,275.1, -0.1, -2.1,0,0,1024,1024,1024,1024,274.4,-90,96,3.953,3.939,3.98,3.963,3.983,3.96,18.685,77,14,Waypoint,
37.3533194,-119.5420411,4643.6652119175,78.083992,0,0.24322179256,13300,2018-06-12 17:39:13,17,0,23.718,4643.6652119175,78.083992,0.223694,0.69865159716,0,0,-0.671082,274.9, -0.2, -2.1,0,0,1024,1024,1024,1024,274.4,-90,96,3.953,3.939,3.98,3.963,3.983,3.96,18.685,77,14,Waypoint,
37.3533194,-119.5420411,4644.6494639175,79.068244,0,0.24322179256,13400,2018-06-12 17:39:13,17,0,23.718,4644.6494639175,79.068244,0.223694,0.69865159716,0,0,-0.671082,274.8, -0.3, -1.9,0,0,1024,1024,1024,1024,274.4,-89.9,96,3.953,3.939,3.98,3.963,3.983,3.96,18.685,77,14,Waypoint,
37.3533194,-119.5420411,4645.6337159175,80.052496,0,0.24322179256,13500,2018-06-12 17:39:14,17,0,23.718,4645.6337159175,80.052496,0.223694,0.69865159716,0,0,-0.671082,274.9, -0.2, -1.8,0,0,1024,1024,1024,1024,274.4,-89.9,96,3.953,3.939,3.98,3.963,3.983,3.96,18.685,77,14,Waypoint,
37.3533193,-119.5420412,4646.6179679175,81.036748,0,0.20626805122,13600,2018-06-12 17:39:14,17,0,23.718,4646.6179679175,81.036748,0.223694,0.69865159716,0,0,-0.671082,275.1, -0.4, -1.3,0,0,1024,1024,1024,1024,274.4,-90,96,3.953,3.939,3.98,3.963,3.983,3.96,18.685,77,14,Waypoint,
37.3533193,-119.5420412,4647.6022199175,82.021,0,0.20626805122,13700,2018-06-12 17:39:14,17,0,23.718,4647.6022199175,82.021,0.223694,0.69865159716,0,0,-0.671082,275.3, -0.5, -0.7,0,0,1024,1024,1024,1024,274.4,-89.9,96,3.953,3.939,3.98,3.963,3.983,3.96,18.685,77,14,Waypoint,
37.3533192,-119.5420412,4648.5864719175,83.005252,0,0.203015426444,13800,2018-06-12 17:39:14,17,0,23.718,4648.5864719175,83.005252,0.223694,0.69865159716,0,0,-0.671082,275.4, -0.5, -0.6,0,0,1024,1024,1024,1024,274.4,-90,96,3.953,3.939,3.98,3.963,3.983,3.96,18.685,77,14,Waypoint,
37.3533192,-119.5420412,4649.2426399175,83.66142,0,0.203015426444,14000,2018-06-12 17:39:14,17,0,23.718,4649.2426399175,83.66142,0.223694,0.69865159716,0,0,-0.671082,275.5, -0.5, -0.6,0,0,1024,1024,1024,1024,274.4,-90,96,3.928,3.912,3.958,3.94,3.961,3.946,18.685,77,14,Waypoint,
37.3533191,-119.5420413,4651.2111439175,85.629924,0,0.1777969217,14110,2018-06-12 17:39:14,17,0,23.718,4651.2111439175,85.629924,0.223694,0.69865159716,0,0,-0.671082,275.7, -0.1, -1,0,0,1024,1024,1024,1024,274.4,-89.9,96,3.928,3.912,3.958,3.94,3.961,3.946,18.685,77,14,Waypoint,
37.3533191,-119.5420413,4651.2111439175,85.629924,0,0.1777969217,14200,2018-06-12 17:39:14,17,0,23.718,4651.2111439175,85.629924,0.223694,0.69865159716,0,0,-0.671082,275.7, -0.1, -1,0,0,1024,1024,1024,1024,274.4,-89.9,96,3.928,3.912,3.958,3.94,3.961,3.946,18.685,77,14,Waypoint,
37.353319,-119.5420413,4652.1953959175,86.614176,0,0.188693575592,14300,2018-06-12 17:39:14,17,0,23.718,4652.1953959175,86.614176,0.223694,0.69865159716,0,0,-0.671082,275.7, -0.1, -1.1,0,0,1024,1024,1024,1024,274.4,-89.9,96,3.928,3.912,3.958,3.94,3.961,3.946,18.685,77,14,Waypoint,
37.3533189,-119.5420413,4653.1796479175,87.598428,0,0.205574809728,14400,2018-06-12 17:39:14,17,0,23.718,4653.1796479175,87.598428,0.223694,0.69865159716,0,0,-0.671082,275.7, -0.1, -1,0,0,1024,1024,1024,1024,274.4,-90,96,3.928,3.912,3.958,3.94,3.961,3.946,18.685,77,14,Waypoint,
37.3533189,-119.5420413,4654.1638999175,88.58268,0,0.205574809728,14500,2018-06-12 17:39:15,17,0,23.718,4654.1638999175,88.58268,0.223694,0.69865159716,0,0,-0.671082,275.7, -0.3, -0.5,0,0,1024,1024,1024,1024,274.4,-90,96,3.928,3.912,3.958,3.94,3.961,3.946,18.685,77,14,Waypoint,
37.3533188,-119.5420413,4655.1481519175,89.566932,0,0.227110243488,14600,2018-06-12 17:39:15,17,0,23.718,4655.1481519175,89.566932,0.223694,0.69865159716,0,0,-0.671082,275.6, -0.5, -0.1,0,0,1024,1024,1024,1024,274.4,-89.9,96,3.928,3.912,3.958,3.94,3.961,3.946,18.685,77,14,Waypoint,
37.3533187,-119.5420413,4657.1166559175,91.535436,0,0.252109916204,14700,2018-06-12 17:39:15,17,0,23.718,4657.1166559175,91.535436,0.223694,0.69865159716,0,0,-0.671082,275.6, -0.5, -0.2,0,0,1024,1024,1024,1024,274.4,-90,96,3.928,3.912,3.958,3.94,3.961,3.946,18.685,77,14,Waypoint,
37.3533187,-119.5420413,4658.1009079175,92.519688,0,0.252109916204,14800,2018-06-12 17:39:15,17,0,23.718,4658.1009079175,92.519688,0.223694,0.69865159716,0,0,-0.671082,275.7, -0.4, -0.6,0,0,1024,1024,1024,1024,274.4,-90,96,3.928,3.912,3.958,3.94,3.961,3.946,18.685,77,14,Waypoint,
37.3533187,-119.5420414,4659.0851599175,93.50394,0,0.233038721368,14900,2018-06-12 17:39:15,17,0,23.718,4659.0851599175,93.50394,0.223694,0.69865159716,0,0,-0.671082,275.7, -0.2, -0.8,0,0,1024,1024,1024,1024,274.4,-89.9,96,3.928,3.912,3.958,3.94,3.961,3.946,18.685,77,14,Waypoint,
37.3533186,-119.5420415,4661.0536639175,95.472444,0,0.247748695592,15100,2018-06-12 17:39:15,17,0,23.718,4661.0536639175,95.472444,0.223694,0.69865159716,0,0,-0.671082,275.7, 0.2, -1.1,0,0,1024,1024,1024,1024,274.4,-89.9,96,3.928,3.912,3.958,3.94,3.961,3.946,18.685,77,14,Waypoint,
37.3533186,-119.5420415,4662.0379159175,96.456696,0,0.247748695592,15200,2018-06-12 17:39:15,17,0,23.718,4662.0379159175,96.456696,0.223694,0.69865159716,0,0,-0.671082,275.6, 0.3, -1.1,0,0,1024,1024,1024,1024,274.4,-89.9,96,3.928,3.912,3.958,3.94,3.961,3.946,18.685,77,14,Waypoint,
37.3533186,-119.5420416,4663.0221679175,97.440948,0,0.235566608588,15300,2018-06-12 17:39:15,17,0,23.718,4663.0221679175,97.440948,0.223694,0.69865159716,0,0,-0.671082,275.5, 0.4, -1.1,0,0,1024,1024,1024,1024,274.4,-89.9,96,3.928,3.912,3.958,3.94,3.961,3.946,18.685,77,14,Waypoint,
37.3533186,-119.5420416,4664.9906719175,99.409452,0,0.235566608588,15500,2018-06-12 17:39:16,17,0,23.718,4664.9906719175,99.409452,0.223694,0.69865159716,0,0,-0.671082,275.1, 0.4, -1.2,0,0,1024,1024,1024,1024,274.4,-89.9,96,3.928,3.912,3.958,3.94,3.961,3.946,18.685,77,14,Waypoint,
37.3533186,-119.5420416,4665.9749239175,100.393704,0,0.235566608588,15600,2018-06-12 17:39:16,17,0,23.718,4665.9749239175,100.393704,0.223694,0.69865159716,0,0,-0.671082,275, 0.2, -1.4,0,0,1024,1024,1024,1024,274.4,-89.9,96,3.928,3.912,3.958,3.94,3.961,3.946,18.685,77,14,Waypoint,
37.3533186,-119.5420416,4666.9591759175,101.377956,0,0.235566608588,15700,2018-06-12 17:39:16,17,0,23.718,4666.9591759175,101.377956,0.223694,0.69865159716,0,0,-0.671082,274.9, 0.2, -1.4,0,0,1024,1024,1024,1024,274.4,-90,96,3.928,3.912,3.958,3.94,3.961,3.946,18.685,77,14,Waypoint,
37.3533186,-119.5420417,4667.9434279175,102.362208,0,0.226463918008,15800,2018-06-12 17:39:16,17,0,23.718,4667.9434279175,102.362208,0.223694,0.69865159716,0,0,-0.671082,274.7, 0, -1.2,0,0,1024,1024,1024,1024,274.4,-89.9,96,3.928,3.912,3.958,3.94,3.961,3.946,18.685,77,14,Waypoint,
37.3533187,-119.5420418,4669.9119319175,104.330712,0,0.184715885176,16000,2018-06-12 17:39:16,17,0,23.532,4669.9119319175,104.330712,0.223694,0.69865159716,0,0,-0.671082,274.4, 0.1, -1.6,0,0,1024,1024,1024,1024,274.4,-89.9,96,3.906,3.901,3.946,3.925,3.94,3.925,20.036,77,14,Waypoint,
37.3533187,-119.5420418,4670.8961839175,105.314964,0,0.184715885176,16200,2018-06-12 17:39:16,17,0,23.532,4670.8961839175,105.314964,0.223694,0.69865159716,0,0,-0.671082,274.4, 0.4, -1.5,0,0,1024,1024,1024,1024,274.4,-89.9,96,3.906,3.901,3.946,3.925,3.94,3.925,20.036,77,14,Waypoint,
37.3533187,-119.5420419,4671.8804359175,106.299216,0,0.18242454652,16300,2018-06-12 17:39:16,17,0,23.532,4671.8804359175,106.299216,0.223694,0.69865159716,0,0,-0.671082,274.5, 0.7, -1.3,0,0,1024,1024,1024,1024,274.4,-89.9,96,3.906,3.901,3.946,3.925,3.94,3.925,20.036,77,14,Waypoint,
37.3533187,-119.542042,4672.8646879175,107.283468,0,0.184715885176,16400,2018-06-12 17:39:16,17,0,23.532,4672.8646879175,107.283468,0.223694,0.69865159716,0,0,-0.671082,274.7, 0.8, -1.2,0,0,1024,1024,1024,1024,274.4,-89.9,96,3.906,3.901,3.946,3.925,3.94,3.925,20.036,77,14,Waypoint,
37.3533187,-119.5420421,4673.8489399175,108.26772,0,0.191424218724,16500,2018-06-12 17:39:17,17,0,23.532,4673.8489399175,108.26772,0.223694,0.69865159716,0,0,-0.671082,275, 1, -1.4,0,0,1024,1024,1024,1024,274.4,-89.9,96,3.906,3.901,3.946,3.925,3.94,3.925,20.036,77,14,Waypoint,
37.3533187,-119.5420421,4674.8331919175,109.251972,0,0.191424218724,16600,2018-06-12 17:39:17,17,0,23.532,4674.8331919175,109.251972,0.223694,0.69865159716,0,0,-0.671082,275.2, 1.1, -1.4,0,0,1024,1024,1024,1024,274.4,-89.9,96,3.906,3.901,3.946,3.925,3.94,3.925,20.036,77,14,Waypoint,
37.3533187,-119.5420422,4675.8174439175,110.236224,0,0.20211122694,16700,2018-06-12 17:39:17,17,0,23.532,4675.8174439175,110.236224,0.223694,0.69865159716,0,0,-0.671082,275.3, 1.5, -1.4,0,0,1024,1024,1024,1024,274.4,-89.9,96,3.906,3.901,3.946,3.925,3.94,3.925,20.036,77,14,Waypoint,
37.3533188,-119.5420423,4676.8016959175,111.220476,0,0.186430780244,16800,2018-06-12 17:39:17,17,0,23.532,4676.8016959175,111.220476,0.223694,0.69865159716,0,0,-0.671082,275.4, 1.6, -1.5,0,0,1024,1024,1024,1024,274.4,-89.9,96,3.906,3.901,3.946,3.925,3.94,3.925,20.036,77,14,Waypoint,
37.3533188,-119.5420424,4678.4421159175,112.860896,0,0.205734258552,16900,2018-06-12 17:39:17,17,0,23.532,4678.4421159175,112.860896,0.223694,0.69865159716,0,0,-0.671082,275.5, 1.4, -1.1,0,0,1024,1024,1024,1024,274.4,-89.9,96,3.906,3.901,3.946,3.925,3.94,3.925,20.036,77,14,Waypoint,
37.3533188,-119.5420425,4680.4106199175,114.8294,0,0.227110243488,17100,2018-06-12 17:39:17,17,0,23.532,4680.4106199175,114.8294,0.223694,0.69865159716,0,0,-0.671082,275.5, 1.4, -1.2,0,0,1024,1024,1024,1024,274.4,-89.9,96,3.906,3.901,3.946,3.925,3.94,3.925,20.036,77,14,Waypoint,
37.3533188,-119.5420425,4681.3948719175,115.813652,0,0.227110243488,17200,2018-06-12 17:39:17,17,0,23.532,4681.3948719175,115.813652,0.223694,0.69865159716,0,0,-0.671082,275.5, 1.4, -1.3,0,0,1024,1024,1024,1024,274.4,-89.9,96,3.906,3.901,3.946,3.925,3.94,3.925,20.036,77,14,Waypoint,
37.3533188,-119.5420426,4682.3791239175,116.797904,0,0.250027567056,17300,2018-06-12 17:39:17,17,0,23.532,4682.3791239175,116.797904,0.223694,0.69865159716,0,0,-0.671082,275.4, 1.2, -1.5,0,0,1024,1024,1024,1024,274.4,-89.9,96,3.906,3.901,3.946,3.925,3.94,3.925,20.036,77,14,Waypoint,
37.3533188,-119.5420427,4683.3633759175,117.782156,0,0.274099746304,17400,2018-06-12 17:39:17,17,0,23.532,4683.3633759175,117.782156,0.223694,0.69865159716,0,0,-0.671082,275.3, 1.5, -1.5,0,0,1024,1024,1024,1024,274.4,-89.9,96,3.906,3.901,3.946,3.925,3.94,3.925,20.036,77,14,Waypoint,
37.3533188,-119.5420428,4684.3476279175,118.766408,0,0.299048237916,17500,2018-06-12 17:39:18,17,0,23.532,4684.3476279175,118.766408,0.223694,0.69865159716,0,0,-0.671082,275.2, 1.8, -1.3,0,0,1024,1024,1024,1024,274.4,-89.9,96,3.906,3.901,3.946,3.925,3.94,3.925,20.036,77,14,Waypoint,
37.3533188,-119.5420429,4685.3318799175,119.75066,0,0.324670942148,17600,2018-06-12 17:39:18,17,0,23.532,4685.3318799175,119.75066,0.223694,0.69865159716,0,0,-0.671082,275.1, 2, -1.3,0,0,1024,1024,1024,1024,274.4,-89.9,96,3.906,3.901,3.946,3.925,3.94,3.925,20.036,77,14,Waypoint,
37.3533188,-119.5420429,4686.3161319175,120.734912,0,0.324670942148,17700,2018-06-12 17:39:18,17,0,23.532,4686.3161319175,120.734912,0.223694,0.69865159716,0,0,-0.671082,275.2, 2.3, -1.6,0,0,1024,1024,1024,1024,274.4,-89.9,96,3.906,3.901,3.946,3.925,3.94,3.925,20.036,77,14,Waypoint,
37.3533189,-119.542043,4687.3003839175,121.719164,0,0.33728019452,17800,2018-06-12 17:39:18,17,0,23.532,4687.3003839175,121.719164,0.223694,0.69865159716,0,0,-0.671082,275.2, 2.3, -2,0,0,1024,1024,1024,1024,274.4,-89.9,96,3.906,3.901,3.946,3.925,3.94,3.925,20.036,77,14,Waypoint,
37.3533189,-119.5420431,4688.2846359175,122.703416,0,0.36483268884,17900,2018-06-12 17:39:18,17,0,23.532,4688.2846359175,122.703416,0.223694,0.69865159716,0,0,-0.671082,275.1, 2.3, -2.2,0,0,1024,1024,1024,1024,274.4,-89.9,96,3.906,3.901,3.946,3.925,3.94,3.925,20.036,77,14,Waypoint,
37.353319,-119.5420431,4689.2688879175,123.687668,0,0.3555938434,18000,2018-06-12 17:39:18,17,0,23.478,4689.2688879175,123.687668,0.223694,0.69865159716,0,0,-0.671082,275.1, 2.3, -2.1,0,0,1024,1024,1024,1024,274.4,-89.9,96,3.883,3.876,3.936,3.914,3.928,3.913,20.499,78.8,14,Waypoint,
37.353319,-119.5420432,4691.2373919175,125.656172,0,0.38402560284,18200,2018-06-12 17:39:18,17,0,23.478,4691.2373919175,125.656172,0.223694,0.69865159716,0,0,-0.671082,275.2, 2.1, -1.8,0,0,1024,1024,1024,1024,274.4,-89.9,96,3.883,3.876,3.936,3.914,3.928,3.913,20.499,78.8,14,Waypoint,
37.3533191,-119.5420433,4692.2216439175,126.640424,0,0.40766733588,18300,2018-06-12 17:39:18,17,0,23.478,4692.2216439175,126.640424,0.223694,0.69865159716,0,0,-0.671082,275.2, 2.1, -1.7,0,0,1024,1024,1024,1024,274.4,-89.9,96,3.883,3.876,3.936,3.914,3.928,3.913,20.499,78.8,14,Waypoint,
37.3533191,-119.5420433,4693.2058959175,127.624676,0,0.40766733588,18400,2018-06-12 17:39:18,17,0,23.478,4693.2058959175,127.624676,0.223694,0.69865159716,0,0,-0.671082,275.1, 2.2, -1.7,0,0,1024,1024,1024,1024,274.4,-89.9,96,3.883,3.876,3.936,3.914,3.928,3.913,20.499,78.8,14,Waypoint,
37.3533193,-119.5420434,4695.1743999175,129.59318,0,0.43656169376,18700,2018-06-12 17:39:19,17,0,23.478,4695.1743999175,129.59318,0.223694,0.69865159716,0,0,-0.671082,275.1, 2.2, -2.3,0,0,1024,1024,1024,1024,274.4,-89.9,96,3.883,3.876,3.936,3.914,3.928,3.913,20.499,78.8,14,Waypoint,
37.3533195,-119.5420434,4699.4394919175,133.858272,0,0.44859253404,19000,2018-06-12 17:39:19,17,0,23.443,4699.4394919175,133.858272,0.223694,0.69865159716,0,0,-0.671082,275.4, 1.7, -2.3,0,0,1024,1024,1024,1024,274.4,-89.9,96,3.878,3.879,3.921,3.9,3.912,3.911,19.93,78.8,14,Waypoint,
37.3533195,-119.5420434,4700.4237439175,134.842524,0,0.44859253404,19200,2018-06-12 17:39:19,17,0,23.443,4700.4237439175,134.842524,0.223694,0.69865159716,0,0,-0.671082,275.5, 1.8, -2.1,0,0,1024,1024,1024,1024,274.4,-89.9,96,3.878,3.879,3.921,3.9,3.912,3.911,19.93,78.8,14,Waypoint,
37.3533195,-119.5420433,4702.3922479175,136.811028,0,0.42052494784,19300,2018-06-12 17:39:19,17,0,23.443,4702.3922479175,136.811028,0.223694,0.69865159716,0,0,-0.671082,275.5, 2.1, -1.7,0,0,1024,1024,1024,1024,274.4,-89.9,96,3.878,3.879,3.921,3.9,3.912,3.911,19.93,78.8,14,Waypoint,
37.3533196,-119.5420433,4703.3764999175,137.79528,0,0.4314632684,19400,2018-06-12 17:39:19,17,0,23.443,4703.3764999175,137.79528,0.223694,0.69865159716,0,0,-0.671082,275.4, 1.9, -1.7,0,0,1024,1024,1024,1024,274.4,-89.9,96,3.878,3.879,3.921,3.9,3.912,3.911,19.93,78.8,14,Waypoint,
37.3533196,-119.5420433,4704.3607519175,138.779532,0,0.4314632684,19500,2018-06-12 17:39:20,17,0,23.443,4704.3607519175,138.779532,0.223694,0.69865159716,0,0,-0.671082,275.3, 1.7, -1.9,0,0,1024,1024,1024,1024,274.4,-89.9,96,3.878,3.879,3.921,3.9,3.912,3.911,19.93,78.8,14,Waypoint,
37.3533196,-119.5420432,4705.3450039175,139.763784,0,0.40428807068,19600,2018-06-12 17:39:20,17,0,23.443,4705.3450039175,139.763784,0.223694,0.69865159716,0,0,-0.671082,275.2, 1.4, -2,0,0,1024,1024,1024,1024,274.4,-89.9,96,3.878,3.879,3.921,3.9,3.912,3.911,19.93,78.8,14,Waypoint,
37.3533196,-119.5420432,4706.3292559175,140.748036,0,0.40428807068,19700,2018-06-12 17:39:20,17,0,23.443,4706.3292559175,140.748036,0.223694,0.69865159716,0,0,-0.671082,275.1, 1.3, -2.2,0,0,1024,1024,1024,1024,274.4,-89.9,96,3.878,3.879,3.921,3.9,3.912,3.911,19.93,78.8,14,Waypoint,
37.3533197,-119.5420432,4707.3135079175,141.732288,0,0.41884187692,19800,2018-06-12 17:39:20,17,0,23.443,4707.3135079175,141.732288,0.223694,0.69865159716,0,0,-0.671082,275, 1.6, -2.1,0,0,1024,1024,1024,1024,274.4,-89.9,96,3.878,3.879,3.921,3.9,3.912,3.911,19.93,78.8,14,Waypoint,
37.3533197,-119.5420432,4707.9696759175,142.388456,0,0.41884187692,19900,2018-06-12 17:39:20,17,0,23.443,4707.9696759175,142.388456,0.223694,0.69865159716,0,0,-0.671082,275.1, 1.6, -1.8,0,0,1024,1024,1024,1024,274.4,-89.9,96,3.878,3.879,3.921,3.9,3.912,3.911,19.93,78.8,14,Waypoint,
37.3533197,-119.5420431,4708.9539279175,143.372708,0,0.39293964512,20000,2018-06-12 17:39:20,17,0,23.348,4708.9539279175,143.372708,0.223694,0.69865159716,0,0,-0.671082,275.2, 1.7, -1.7,0,0,1024,1024,1024,1024,274.4,-89.9,96,3.878,3.879,3.921,3.9,3.912,3.911,20.609,78.8,14,Waypoint,
37.3533197,-119.5420431,4709.9381799175,144.35696,0,0.39293964512,20100,2018-06-12 17:39:20,17,0,23.348,4709.9381799175,144.35696,0.223694,0.69865159716,0,0,-0.671082,275.4, 2, -1.7,0,0,1024,1024,1024,1024,274.4,-89.9,96,3.878,3.879,3.921,3.9,3.912,3.911,20.609,78.8,14,Waypoint,
37.3533197,-119.5420431,4710.9224319175,145.341212,0,0.39293964512,20200,2018-06-12 17:39:20,17,0,23.348,4710.9224319175,145.341212,0.223694,0.69865159716,0,0,-0.671082,275.5, 2, -1.8,0,0,1024,1024,1024,1024,274.4,-89.9,96,3.878,3.879,3.921,3.9,3.912,3.911,20.609,78.8,14,Waypoint,
37.3533197,-119.542043,4711.9066839175,146.325464,0,0.36750001176,20300,2018-06-12 17:39:20,17,0,23.348,4711.9066839175,146.325464,0.223694,0.69865159716,0,0,-0.671082,275.6, 2, -1.8,0,0,1024,1024,1024,1024,274.4,-89.9,96,3.878,3.879,3.921,3.9,3.912,3.911,20.609,78.8,14,Waypoint,
37.3533197,-119.542043,4713.2190199175,147.6378,0,0.36750001176,20400,2018-06-12 17:39:20,17,0,23.348,4713.2190199175,147.6378,0.223694,0.69865159716,0,0,-0.671082,275.6, 2, -1.6,0,0,1024,1024,1024,1024,274.4,-90,96,3.878,3.879,3.921,3.9,3.912,3.911,20.609,78.8,14,Waypoint,
37.3533196,-119.542043,4714.2032719175,148.622052,0,0.3508202212,20500,2018-06-12 17:39:21,17,0,23.348,4714.2032719175,148.622052,0.223694,0.69865159716,0,0,-0.671082,275.7, 1.9, -1.4,0,0,1024,1024,1024,1024,274.4,-89.9,96,3.878,3.879,3.921,3.9,3.912,3.911,20.609,78.8,14,Waypoint,
37.3533196,-119.5420429,4715.1875239175,149.606304,0,0.324670942148,20610,2018-06-12 17:39:21,17,0,23.348,4715.1875239175,149.606304,0.223694,0.69865159716,0,0,-0.671082,275.8, 1.6, -1.4,0,0,1024,1024,1024,1024,274.4,-89.9,96,3.878,3.879,3.921,3.9,3.912,3.911,20.609,78.8,14,Waypoint,
37.3533196,-119.5420429,4715.1875239175,149.606304,0,0.324670942148,20700,2018-06-12 17:39:21,17,0,23.348,4715.1875239175,149.606304,0.223694,0.69865159716,0,0,-0.671082,275.8, 1.6, -1.4,0,0,1024,1024,1024,1024,274.4,-89.9,96,3.878,3.879,3.921,3.9,3.912,3.911,20.609,78.8,14,Waypoint,
37.3533196,-119.5420427,4717.1560279175,151.574808,0,0.274099746304,20800,2018-06-12 17:39:21,17,0,23.348,4717.1560279175,151.574808,0.223694,0.69865159716,0,0,-0.671082,275.7, 1.4, -1.3,0,0,1024,1024,1024,1024,274.4,-90,96,3.878,3.879,3.921,3.9,3.912,3.911,20.609,78.8,14,Waypoint,
37.3533195,-119.5420427,4718.1402799175,152.55906,0,0.256539706372,21000,2018-06-12 17:39:21,17,0,23.348,4718.1402799175,152.55906,0.223694,0.69865159716,0,0,-0.671082,275.6, 1.2, -1.2,0,0,1024,1024,1024,1024,274.4,-89.9,96,3.867,3.87,3.914,3.892,3.9,3.887,20.609,78.8,14,Waypoint,
37.3533195,-119.5420426,4719.4526159175,153.871396,0,0.230641739664,21100,2018-06-12 17:39:21,17,0,23.348,4719.4526159175,153.871396,0.223694,0.69865159716,0,0,-0.671082,275.5, 1.2, -1.3,0,0,1024,1024,1024,1024,274.4,-90,96,3.867,3.87,3.914,3.892,3.9,3.887,20.609,78.8,14,Waypoint,
37.3533195,-119.5420425,4720.4368679175,154.855648,0,0.205574809728,21200,2018-06-12 17:39:21,17,0,23.348,4720.4368679175,154.855648,0.223694,0.69865159716,0,0,-0.671082,275.5, 1.2, -1.5,0,0,1024,1024,1024,1024,274.4,-89.9,96,3.867,3.87,3.914,3.892,3.9,3.887,20.609,78.8,14,Waypoint,
37.3533195,-119.5420424,4722.4053719175,156.824152,0,0.181682748596,21300,2018-06-12 17:39:21,18,0,23.348,4722.4053719175,156.824152,0.223694,0.69865159716,0,0,-0.671082,275.4, 1.3, -1.5,0,0,1024,1024,1024,1024,274.4,-89.9,96,3.867,3.87,3.914,3.892,3.9,3.887,20.609,78.8,14,Waypoint,
37.3533195,-119.5420424,4723.3896239175,157.808404,0,0.181682748596,21400,2018-06-12 17:39:21,18,0,23.348,4723.3896239175,157.808404,0.223694,0.69865159716,0,0,-0.671082,275.4, 1.4, -1.3,0,0,1024,1024,1024,1024,274.4,-89.9,96,3.867,3.87,3.914,3.892,3.9,3.887,20.609,78.8,14,Waypoint,
37.3533194,-119.5420423,4724.7019599175,159.12074,0,0.137049873152,21500,2018-06-12 17:39:22,18,0,23.348,4724.7019599175,159.12074,0.223694,0.69865159716,0,0,-0.671082,275.3, 1.5, -1.4,0,0,1024,1024,1024,1024,274.4,-89.9,96,3.867,3.87,3.914,3.892,3.9,3.887,20.609,78.8,14,Waypoint,
37.3533195,-119.5420422,4725.6862119175,160.104992,0,0.139823167204,21600,2018-06-12 17:39:22,18,0,23.348,4725.6862119175,160.104992,0.223694,0.69865159716,0,0,-0.671082,275.3, 1.3, -1.6,0,0,1024,1024,1024,1024,274.4,-89.9,96,3.867,3.87,3.914,3.892,3.9,3.887,20.609,78.8,14,Waypoint,
37.3533195,-119.5420422,4726.6704639175,161.089244,0,0.139823167204,21700,2018-06-12 17:39:22,18,0,23.348,4726.6704639175,161.089244,0.223694,0.69865159716,0,0,-0.671082,275.3, 1.1, -1.6,0,0,1024,1024,1024,1024,274.4,-90,96,3.867,3.87,3.914,3.892,3.9,3.887,20.609,78.8,14,Waypoint,
37.3533195,-119.5420421,4727.6547159175,162.073496,0,0.123874347796,21800,2018-06-12 17:39:22,18,0,23.348,4727.6547159175,162.073496,0.223694,0.69865159716,0,0,-0.671082,275.2, 1.1, -1.8,0,0,1024,1024,1024,1024,274.4,-90,96,3.867,3.87,3.914,3.892,3.9,3.887,20.609,78.8,14,Waypoint,
37.3533196,-119.5420421,4728.6389679175,163.057748,0,0.157044296364,21900,2018-06-12 17:39:22,18,0,23.348,4728.6389679175,163.057748,0.223694,0.69865159716,0,0,-0.671082,275.2, 1.1, -2.1,0,0,1024,1024,1024,1024,274.4,-89.9,96,3.867,3.87,3.914,3.892,3.9,3.887,20.609,78.8,14,Waypoint,
37.3533196,-119.542042,4729.6232199175,164.042,0,0.148793639932,22000,2018-06-12 17:39:22,18,0,23.273,4729.6232199175,164.042,0.223694,0.69865159716,0,0,-0.671082,275.2, 1, -2,0,0,1024,1024,1024,1024,274.4,-90,96,3.862,3.862,3.908,3.882,3.898,3.898,20.895,78.8,14,Waypoint,
37.3533196,-119.542042,4730.6074719175,165.026252,0,0.148793639932,22100,2018-06-12 17:39:22,18,0,23.273,4730.6074719175,165.026252,0.223694,0.69865159716,0,0,-0.671082,275.2, 1.2, -2.1,0,0,1024,1024,1024,1024,274.4,-89.9,96,3.862,3.862,3.908,3.882,3.898,3.898,20.895,78.8,14,Waypoint,
37.3533197,-119.542042,4731.5917239175,166.010504,0,0.184715885176,22200,2018-06-12 17:39:22,18,0,23.273,4731.5917239175,166.010504,0.223694,0.69865159716,0,0,-0.671082,275.2, 1.5, -2.1,0,0,1024,1024,1024,1024,274.4,-89.9,96,3.862,3.862,3.908,3.882,3.898,3.898,20.895,78.8,14,Waypoint,
37.3533197,-119.542042,4732.5759759175,166.994756,0,0.184715885176,22300,2018-06-12 17:39:22,18,0,23.273,4732.5759759175,166.994756,0.223694,0.69865159716,0,0,-0.671082,275.2, 1.7, -2.1,0,0,1024,1024,1024,1024,274.4,-89.9,96,3.862,3.862,3.908,3.882,3.898,3.898,20.895,78.8,14,Waypoint,
37.3533197,-119.542042,4733.5602279175,167.979008,0,0.184715885176,22400,2018-06-12 17:39:22,18,0,23.273,4733.5602279175,167.979008,0.223694,0.69865159716,0,0,-0.671082,275.4, 1.8, -2.1,0,0,1024,1024,1024,1024,274.4,-89.9,96,3.862,3.862,3.908,3.882,3.898,3.898,20.895,78.8,14,Waypoint,
37.3533197,-119.5420419,4734.5444799175,168.96326,0,0.18242454652,22500,2018-06-12 17:39:23,18,0,23.273,4734.5444799175,168.96326,0.223694,0.69865159716,0,0,-0.671082,275.4, 1.7, -1.9,0,0,1024,1024,1024,1024,274.4,-89.9,96,3.862,3.862,3.908,3.882,3.898,3.898,20.895,78.8,14,Waypoint,
37.3533197,-119.5420419,4735.5287319175,169.947512,0,0.18242454652,22600,2018-06-12 17:39:23,18,0,23.273,4735.5287319175,169.947512,0.223694,0.69865159716,0,0,-0.671082,275.3, 1.5, -1.8,0,0,1024,1024,1024,1024,274.4,-89.9,96,3.862,3.862,3.908,3.882,3.898,3.898,20.895,78.8,14,Waypoint,
37.3533197,-119.5420418,4736.5129839175,170.931764,0,0.184715885176,22700,2018-06-12 17:39:23,18,0,23.273,4736.5129839175,170.931764,0.223694,0.69865159716,0,0,-0.671082,275.2, 1.3, -1.9,0,0,1024,1024,1024,1024,274.4,-89.9,96,3.862,3.862,3.908,3.882,3.898,3.898,20.895,78.8,14,Waypoint,
37.3533198,-119.5420416,4738.4814879175,172.900268,0,0.235566608588,22900,2018-06-12 17:39:23,18,0,23.273,4738.4814879175,172.900268,0.223694,0.69865159716,0,0,-0.671082,275, 0.8, -2,0,0,1024,1024,1024,1024,274.4,-90,96,3.862,3.862,3.908,3.882,3.898,3.898,20.895,78.8,14,Waypoint,
37.3533198,-119.5420415,4739.4657399175,173.88452,0,0.247748695592,23100,2018-06-12 17:39:23,18,0,23.273,4739.4657399175,173.88452,0.223694,0.69865159716,0,0,-0.671082,275, 0.7, -2.2,0,0,1024,1024,1024,1024,274.4,-90,96,3.862,3.862,3.908,3.882,3.898,3.898,20.895,78.8,14,Waypoint,
37.3533198,-119.5420414,4740.4499919175,174.868772,0,0.262582685568,23200,2018-06-12 17:39:23,18,0,23.273,4740.4499919175,174.868772,0.223694,0.69865159716,0,0,-0.671082,275, 0.7, -2.4,0,0,1024,1024,1024,1024,274.4,-90,96,3.862,3.862,3.908,3.882,3.898,3.898,20.895,78.8,14,Waypoint,
37.3533198,-119.5420413,4741.4342439175,175.853024,0,0.279646334408,23300,2018-06-12 17:39:23,18,0,23.273,4741.4342439175,175.853024,0.223694,0.69865159716,0,0,-0.671082,275.2, 0.5, -2.5,0,0,1024,1024,1024,1024,274.4,-90,96,3.862,3.862,3.908,3.882,3.898,3.898,20.895,78.8,14,Waypoint,
37.3533198,-119.5420412,4742.4184959175,176.837276,0,0.298557752336,23400,2018-06-12 17:39:23,18,0,23.273,4742.4184959175,176.837276,0.223694,0.69865159716,0,0,-0.671082,275.4, 0.2, -2.3,0,0,1024,1024,1024,1024,274.4,-90,96,3.862,3.862,3.908,3.882,3.898,3.898,20.895,78.8,14,Waypoint,
37.3533198,-119.5420411,4743.4027479175,177.821528,0,0.318988527268,23500,2018-06-12 17:39:24,18,0,23.273,4743.4027479175,177.821528,0.223694,0.69865159716,0,0,-0.671082,275.5, 0, -2.3,0,0,1024,1024,1024,1024,274.4,-90,96,3.862,3.862,3.908,3.882,3.898,3.898,20.895,78.8,14,Waypoint,
37.3533198,-119.542041,4744.3869999175,178.80578,0,0.3406660214,23600,2018-06-12 17:39:24,18,0,23.273,4744.3869999175,178.80578,0.223694,0.69865159716,0,0,-0.671082,275.6, -0.2, -2,0,0,1024,1024,1024,1024,274.4,-90,96,3.862,3.862,3.908,3.882,3.898,3.898,20.895,78.8,14,Waypoint,
37.3533198,-119.5420409,4745.3712519175,179.790032,0,0.36336615336,23700,2018-06-12 17:39:24,18,0,23.273,4745.3712519175,179.790032,0.223694,0.69865159716,0,0,-0.671082,275.7, -0.1, -1.7,0,0,1024,1024,1024,1024,274.4,-90,96,3.862,3.862,3.908,3.882,3.898,3.898,20.895,78.8,14,Waypoint,
37.3533197,-119.5420407,4747.3397559175,181.758536,0,0.39293964512,23800,2018-06-12 17:39:24,18,0,23.273,4747.3397559175,181.758536,0.223694,0.69865159716,0,0,-0.671082,275.9, -0.2, -1.8,0,0,1024,1024,1024,1024,274.4,-90,96,3.862,3.862,3.908,3.882,3.898,3.898,20.895,78.8,14,Waypoint,
37.3533197,-119.5420406,4748.3240079175,182.742788,0,0.41884187692,23900,2018-06-12 17:39:24,18,0,23.273,4748.3240079175,182.742788,0.223694,0.69865159716,0,0,-0.671082,275.8, -0.1, -1.9,0,0,1024,1024,1024,1024,274.4,-90,96,3.862,3.862,3.908,3.882,3.898,3.898,20.895,78.8,14,Waypoint,
37.3533197,-119.5420405,4750.2925119175,184.711292,0,0.445127967,24100,2018-06-12 17:39:24,18,0,23.273,4750.2925119175,184.711292,0.223694,0.69865159716,0,0,-0.671082,275.5, -0.1, -2,0,0,1024,1024,1024,1024,274.4,-90,96,3.862,3.862,3.908,3.882,3.898,3.898,20.895,78.8,14,Waypoint,
37.3533197,-119.5420404,4751.2767639175,185.695544,0,0.47173229856,24200,2018-06-12 17:39:24,18,0,23.273,4751.2767639175,185.695544,0.223694,0.69865159716,0,0,-0.671082,275.3, -0.4, -2.2,0,0,1024,1024,1024,1024,274.4,-90,96,3.862,3.862,3.908,3.882,3.898,3.898,20.895,78.8,14,Waypoint,
37.3533197,-119.5420404,4752.2610159175,186.679796,0,0.47173229856,24300,2018-06-12 17:39:24,18,0,23.273,4752.2610159175,186.679796,0.223694,0.69865159716,0,0,-0.671082,275.2, -0.3, -2.5,0,0,1024,1024,1024,1024,274.4,-89.9,96,3.862,3.862,3.908,3.882,3.898,3.898,20.895,78.8,14,Waypoint,
37.3533198,-119.5420403,4753.2452679175,187.664048,0,0.51308072508,24400,2018-06-12 17:39:24,18,0,23.273,4753.2452679175,187.664048,0.223694,0.69865159716,0,0,-0.671082,275.1, -0.3, -2.9,0,0,1024,1024,1024,1024,274.4,-90,96,3.862,3.862,3.908,3.882,3.898,3.898,20.895,78.8,14,Waypoint,
37.3533198,-119.5420403,4754.2295199175,188.6483,0,0.51308072508,24500,2018-06-12 17:39:25,18,0,23.273,4754.2295199175,188.6483,0.223694,0.69865159716,0,0,-0.671082,275.1, 0, -2.9,0,0,1024,1024,1024,1024,274.4,-90,96,3.862,3.862,3.908,3.882,3.898,3.898,20.895,78.8,14,Waypoint,
37.3533198,-119.5420403,4755.2137719175,189.632552,0,0.51308072508,24600,2018-06-12 17:39:25,18,0,23.273,4755.2137719175,189.632552,0.223694,0.69865159716,0,0,-0.671082,275.1, 0, -3,0,0,1024,1024,1024,1024,274.4,-89.9,96,3.862,3.862,3.908,3.882,3.898,3.898,20.895,78.8,14,Waypoint,
37.3533198,-119.5420403,4756.8541919175,191.272972,0,0.51308072508,24800,2018-06-12 17:39:25,18,0,23.273,4756.8541919175,191.272972,0.223694,0.69865159716,0,0,-0.671082,275.6, 0.1, -3.1,0,0,1024,1024,1024,1024,274.4,-89.9,96,3.862,3.862,3.908,3.882,3.898,3.898,20.895,78.8,14,Waypoint,
37.3533198,-119.5420403,4757.8384439175,192.257224,0,0.51308072508,24900,2018-06-12 17:39:25,18,0,23.273,4757.8384439175,192.257224,0.223694,0.69865159716,0,0,-0.671082,275.7, 0.2, -2.8,0,0,1024,1024,1024,1024,274.4,-90,96,3.862,3.862,3.908,3.882,3.898,3.898,20.895,78.8,14,Waypoint,
37.3533197,-119.5420404,4758.8226959175,193.241476,0,0.47173229856,25000,2018-06-12 17:39:25,18,0,23.466,4758.8226959175,193.241476,0.223694,0.69865159716,0,0,-0.671082,275.8, 0.3, -2.5,0,0,1024,1024,1024,1024,274.4,-89.9,95,3.898,3.894,3.938,3.907,3.928,3.902,18.743,78.8,14,Waypoint,
37.3533197,-119.5420404,4759.8069479175,194.225728,0,0.47173229856,25100,2018-06-12 17:39:25,18,0,23.466,4759.8069479175,194.225728,0.223694,0.69865159716,0,0,-0.671082,275.7, 0.4, -2,0,0,1024,1024,1024,1024,274.4,-89.9,95,3.898,3.894,3.938,3.907,3.928,3.902,18.743,78.8,14,Waypoint,
37.3533196,-119.5420404,4760.7911999175,195.20998,0,0.4588582824,25300,2018-06-12 17:39:25,18,0,23.466,4760.7911999175,195.20998,0.223694,0.69865159716,0,0,-0.671082,275.7, 0.5, -1.6,0,0,1024,1024,1024,1024,274.4,-90,95,3.898,3.894,3.938,3.907,3.928,3.902,18.743,78.8,14,Waypoint,
37.3533196,-119.5420404,4761.7754519175,196.194232,0,0.4588582824,25400,2018-06-12 17:39:25,18,0,23.466,4761.7754519175,196.194232,0.223694,0.69865159716,0,0,-0.671082,275.5, 0.3, -1.6,0,0,1024,1024,1024,1024,274.4,-90,95,3.898,3.894,3.938,3.907,3.928,3.902,18.743,78.8,14,Waypoint,
37.3533195,-119.5420404,4762.7597039175,197.178484,0,0.44859253404,25500,2018-06-12 17:39:26,18,0,23.466,4762.7597039175,197.178484,0.223694,0.69865159716,0,0,-0.671082,275.4, 0.1, -1.5,0,0,1024,1024,1024,1024,274.4,-90,95,3.898,3.894,3.938,3.907,3.928,3.902,18.743,78.8,14,Waypoint,
37.3533195,-119.5420405,4763.4158719175,197.834652,0,0.42052494784,25600,2018-06-12 17:39:26,18,0,23.466,4763.4158719175,197.834652,0.223694,0.69865159716,0,0,-0.671082,275.3, 0.1, -1.6,0,0,1024,1024,1024,1024,274.4,-89.9,95,3.898,3.894,3.938,3.907,3.928,3.902,18.743,78.8,14,Waypoint,
37.3533195,-119.5420405,4764.4001239175,198.818904,0,0.42052494784,25700,2018-06-12 17:39:26,18,0,23.466,4764.4001239175,198.818904,0.223694,0.69865159716,0,0,-0.671082,275.1, 0.2, -1.9,0,0,1024,1024,1024,1024,274.4,-89.9,95,3.898,3.894,3.938,3.907,3.928,3.902,18.743,78.8,14,Waypoint,
37.3533195,-119.5420405,4765.3843759175,199.803156,0,0.42052494784,25800,2018-06-12 17:39:26,18,0,23.466,4765.3843759175,199.803156,0.223694,0.69865159716,0,0,-0.671082,275, 0.4, -2.1,0,0,1024,1024,1024,1024,274.4,-89.9,95,3.898,3.894,3.938,3.907,3.928,3.902,18.743,78.8,14,Waypoint,
37.3533195,-119.5420405,4766.3686279175,200.787408,0,0.42052494784,25900,2018-06-12 17:39:26,18,0,23.466,4766.3686279175,200.787408,0.223694,0.69865159716,0,0,-0.671082,274.9, 0.5, -2.1,0,0,1024,1024,1024,1024,274.4,-89.9,95,3.898,3.894,3.938,3.907,3.928,3.902,18.743,78.8,14,Waypoint,
37.3533194,-119.5420405,4767.3528799175,201.77166,0,0.41253610244,26000,2018-06-12 17:39:26,18,0,23.451,4767.3528799175,201.77166,0.223694,0.69865159716,0,0,-0.671082,275, 0.4, -1.8,0,0,1024,1024,1024,1024,274.4,-90,95,3.895,3.887,3.93,3.907,3.921,3.913,18.662,78.8,14,Waypoint,
37.3533194,-119.5420406,4768.3371319175,202.755912,0,0.38402560284,26100,2018-06-12 17:39:26,18,0,23.451,4768.3371319175,202.755912,0.223694,0.69865159716,0,0,-0.671082,275.2, 0.3, -1.7,0,0,1024,1024,1024,1024,274.4,-90,95,3.895,3.887,3.93,3.907,3.921,3.913,18.662,78.8,14,Waypoint,
37.3533193,-119.5420406,4769.3213839175,203.740164,0,0.3787893822,26200,2018-06-12 17:39:26,18,0,23.451,4769.3213839175,203.740164,0.223694,0.69865159716,0,0,-0.671082,275.4, 0.1, -1.5,0,0,1024,1024,1024,1024,274.4,-89.9,95,3.895,3.887,3.93,3.907,3.921,3.913,18.662,78.8,14,Waypoint,
37.3533193,-119.5420406,4770.3056359175,204.724416,0,0.3787893822,26300,2018-06-12 17:39:26,18,0,23.451,4770.3056359175,204.724416,0.223694,0.69865159716,0,0,-0.671082,275.4, 0.1, -1.3,0,0,1024,1024,1024,1024,274.4,-89.9,95,3.895,3.887,3.93,3.907,3.921,3.913,18.662,78.8,14,Waypoint,
37.3533192,-119.5420407,4772.2741399175,206.69292,0,0.34802494552,26400,2018-06-12 17:39:26,18,0,23.451,4772.2741399175,206.69292,0.223694,0.69865159716,0,0,-0.671082,275.4, 0.5, -1.2,0,0,1024,1024,1024,1024,274.4,-89.9,95,3.895,3.887,3.93,3.907,3.921,3.913,18.662,78.8,14,Waypoint,
37.3533192,-119.5420408,4773.2583919175,207.677172,0,0.319024288424,26500,2018-06-12 17:39:27,18,0,23.451,4773.2583919175,207.677172,0.223694,0.69865159716,0,0,-0.671082,275.4, 0.7, -1.3,0,0,1024,1024,1024,1024,274.4,-89.9,95,3.895,3.887,3.93,3.907,3.921,3.913,18.662,78.8,14,Waypoint,
37.3533192,-119.5420408,4774.2426439175,208.661424,0,0.319024288424,26600,2018-06-12 17:39:27,18,0,23.451,4774.2426439175,208.661424,0.223694,0.69865159716,0,0,-0.671082,275.4, 0.5, -1.6,0,0,1024,1024,1024,1024,274.4,-89.9,95,3.895,3.887,3.93,3.907,3.921,3.913,18.662,78.8,14,Waypoint,
37.3533192,-119.5420409,4776.2111479175,210.629928,0,0.290021990908,26800,2018-06-12 17:39:27,18,0,23.451,4776.2111479175,210.629928,0.223694,0.69865159716,0,0,-0.671082,275.2, 0.6, -1.4,0,0,1024,1024,1024,1024,274.4,-89.9,95,3.895,3.887,3.93,3.907,3.921,3.913,18.662,78.8,14,Waypoint,
37.3533192,-119.542041,4777.1953999175,211.61418,0,0.261020021476,26900,2018-06-12 17:39:27,18,0,23.451,4777.1953999175,211.61418,0.223694,0.69865159716,0,0,-0.671082,275, 0.8, -1.6,0,0,1024,1024,1024,1024,274.4,-89.9,95,3.895,3.887,3.93,3.907,3.921,3.913,18.662,78.8,14,Waypoint,
37.3533192,-119.5420412,4779.1639039175,213.582684,0,0.203015426444,27100,2018-06-12 17:39:27,18,0,23.451,4779.1639039175,213.582684,0.223694,0.69865159716,0,0,-0.671082,274.9, 1.1, -2,0,0,1024,1024,1024,1024,274.4,-89.9,95,3.895,3.887,3.93,3.907,3.921,3.913,18.662,78.8,14,Waypoint,
