Latitude, Longitude, Altitude (m), Time, Sats, Speed (m/s), Range (m), Battery (%), Roll (deg), Pitch (deg), Yaw (deg), Images, HD Signal (%), RC Signal (%), Battery Temp (C), Battery Voltage (mV), Battery Current (mA), Battery Energy (mAh), Battery Capacity (mAh), Battery Discharges, flyState, timestamp (Unix), LastUpdate (ms), radioChannel, Rc_elevator, Rc_aileron, Rc_throttle, Rc_rudder, Rc_gyro, Dronetype, Battery_Cell1 (mV), Battery_Cell2 (mV), Battery_Cell3 (mV), Battery_Cell4 (mV), Battery_Cell5 (mV), Battery_Cell6 (mV), Video, isFlying, elapsedTime (ms), gimbalPitch (deg), gimbalRoll (deg), gimbalYaw (deg), VelocityX (m/s), VelocityY (m/s), VelocityZ (m/s), GroundSmear (cm), App Version, Aircraft Name, Aircraft Firmware, Aircraft Serial Number, Battery Serial Number, Battery Lifetime (%), App_Tip, App_Warning, CurrentFlightStartingIndex, CurrentFlightLastVisitedWaypoint, PreviousFlightEndingWaypointIndex
37.3533272, -119.5420296, 0.000, 10:18:39.165, 17, 0.00, 0.01, 98, -0.300, 1.300, -92.500, 707, 100, 100, 22, 25474, -3804, 5343, 5453, 13, 11, 1528823919.165, 89, 0, 1024, 1024, 1024, 1024, 0, 6, 4221, 4240, 4216, 4221, 4226, 4176, 0, 1, 3101, -89.900, 0.000, -94.100, 0.000, 0.000, -0.100, 0.0, MapPilot_2.8.1_04242018, Dendroctonus I, 1.3.1.00, 041DDC1887, 1058171200279, 97, DJI_0708.jpg, Starting Mission from Lat/Long: 37.35333/-119.54203 Camera: Zenmuse X3 - Overlap: 90/90 - Active Connection: No, 25, 25, 25
37.3533273, -119.5420295, 0.000, 10:18:39.265, 17, 0.00, 0.01, 98, -0.900, 1.000, -92.300, 707, 100, 100, 22, 25474, -3804, 5343, 5453, 13, 11, 1528823919.265, 85, 0, 1024, 1024, 1024, 1024, 0, 6, 4221, 4240, 4216, 4221, 4226, 4176, 0, 1, 3202, -89.900, 0.000, -94.100, 0.000, 0.000, -0.200, 0.0, , , , , , 97, , , 25, 25, 25
37.3533272, -119.5420294, 0.000, 10:18:39.365, 17, 0.00, 0.02, 98, -0.500, 0.400, -92.200, 707, 100, 100, 22, 25474, -3804, 5343, 5453, 13, 11, 1528823919.365, 87, 0, 1024, 1024, 1024, 1024, 0, 6, 4221, 4240, 4216, 4221, 4226, 4176, 0, 1, 3302, -89.900, 0.000, -94.000, 0.000, 0.000, -0.300, 0.0, , , , , , 97, , , 25, 25, 25
37.3533272, -119.5420293, 0.000, 10:18:39.465, 17, 0.00, 0.03, 98, -0.200, -0.100, -92.200, 707, 100, 100, 22, 25474, -3804, 5343, 5453, 13, 11, 1528823919.465, 75, 0, 1024, 1024, 1024, 1024, 0, 6, 4221, 4240, 4216, 4221, 4226, 4176, 0, 1, 3401, -90.000, 0.000, -94.000, 0.000, 0.000, -0.400, 0.0, , , , , , 97, , , 25, 25, 25
37.3533271, -119.5420292, 0.100, 10:18:39.565, 17, 0.00, 0.04, 98, 0.300, -0.500, -92.200, 707, 100, 100, 22, 25474, -3804, 5343, 5453, 13, 11, 1528823919.565, 79, 0, 1024, 1024, 1024, 1024, 0, 6, 4221, 4240, 4216, 4221, 4226, 4176, 0, 1, 3501, -90.000, 0.000, -94.000, 0.000, 0.000, -0.400, 0.0, , , , , , 97, , , 25, 25, 25
37.3533271, -119.5420291, 0.100, 10:18:39.664, 17, 0.00, 0.06, 98, 0.600, -0.500, -92.100, 707, 100, 100, 22, 25020, -6138, 5343, 5453, 13, 11, 1528823919.664, 46, 0, 1024, 1024, 1024, 1024, 0, 6, 4221, 4240, 4216, 4221, 4226, 4176, 0, 1, 3601, -90.000, 0.000, -94.000, 0.000, 0.000, -0.400, 0.0, , , , , , 97, , , 25, 25, 25
37.3533270, -119.5420290, 0.200, 10:18:39.764, 17, 0.00, 0.07, 98, 0.700, -0.700, -92.100, 707, 100, 100, 22, 25020, -6138, 5343, 5453, 13, 11, 1528823919.764, 45, 0, 1024, 1024, 1024, 1024, 0, 6, 4221, 4240, 4216, 4221, 4226, 4176, 0, 1, 3701, -89.900, 0.000, -93.900, 0.000, 0.000, -0.400, 0.0, , , , , , 97, , , 25, 25, 25
37.3533270, -119.5420289, 0.200, 10:18:39.864, 17, 0.00, 0.07, 98, 0.800, -0.500, -92.000, 707, 100, 100, 22, 25020, -6138, 5343, 5453, 13, 11, 1528823919.865, 46, 0, 1024, 1024, 1024, 1024, 0, 6, 4221, 4240, 4216, 4221, 4226, 4176, 0, 1, 3801, -89.900, 0.000, -93.900, 0.000, 0.000, -0.400, 0.0, , , , , , 97, , , 25, 25, 25
37.3533269, -119.5420289, 0.300, 10:18:39.964, 17, 0.00, 0.08, 98, 0.600, -0.400, -92.100, 707, 100, 100, 22, 25020, -6138, 5343, 5453, 13, 11, 1528823919.964, 40, 0, 1024, 1024, 1024, 1024, 0, 6, 4221, 4240, 4216, 4221, 4226, 4176, 0, 1, 3900, -89.900, 0.000, -93.900, 0.000, 0.000, -0.400, 0.0, , , , , , 97, , , 25, 25, 25
37.3533269, -119.5420288, 0.300, 10:18:40.064, 18, 0.00, 0.08, 98, 0.600, -0.100, -92.200, 707, 100, 100, 22, 25020, -6138, 5343, 5453, 13, 11, 1528823920.064, 55, 0, 1024, 1024, 1024, 1024, 0, 6, 4221, 4240, 4216, 4221, 4226, 4176, 0, 1, 4000, -89.900, 0.000, -93.900, 0.000, 0.000, -0.400, 0.0, , , , , , 97, , , 25, 25, 25
37.3533269, -119.5420287, 0.300, 10:18:40.164, 18, 0.00, 0.09, 98, 0.700, 0.000, -92.400, 707, 100, 100, 22, 25020, -6138, 5343, 5453, 13, 11, 1528823920.164, 45, 0, 1024, 1024, 1024, 1024, 0, 6, 4186, 4159, 4086, 4132, 4138, 4114, 0, 1, 4100, -89.900, 0.000, -93.800, 0.000, 0.000, -0.400, 0.0, , , , , , 97, , , 25, 25, 25
37.3533269, -119.5420286, 0.400, 10:18:40.264, 18, 0.00, 0.10, 98, 0.600, -0.200, -92.500, 707, 100, 100, 22, 25020, -6138, 5343, 5453, 13, 11, 1528823920.264, 49, 0, 1024, 1024, 1024, 1024, 0, 6, 4186, 4159, 4086, 4132, 4138, 4114, 0, 1, 4201, -90.000, 0.000, -93.800, 0.000, 0.000, -0.400, 0.0, , , , , , 97, , , 25, 25, 25
37.3533269, -119.5420285, 0.400, 10:18:40.364, 18, 0.00, 0.11, 98, 0.300, -0.600, -92.500, 707, 100, 100, 22, 25020, -6138, 5343, 5453, 13, 11, 1528823920.364, 36, 0, 1024, 1024, 1024, 1024, 0, 6, 4186, 4159, 4086, 4132, 4138, 4114, 0, 1, 4300, -90.000, 0.000, -93.800, 0.000, 0.000, -0.400, 0.0, , , , , , 97, , , 25, 25, 25
37.3533269, -119.5420285, 0.500, 10:18:40.464, 18, 0.00, 0.11, 98, 0.100, -0.800, -92.500, 707, 100, 100, 22, 25020, -6138, 5343, 5453, 13, 11, 1528823920.465, 29, 0, 1024, 1024, 1024, 1024, 0, 6, 4186, 4159, 4086, 4132, 4138, 4114, 0, 1, 4401, -90.000, 0.000, -93.800, 0.000, 0.000, -0.500, 0.0, , , , , , 97, , , 25, 25, 25
37.3533269, -119.5420285, 0.600, 10:18:40.564, 18, 0.00, 0.11, 98, 0.000, -0.900, -92.400, 707, 100, 100, 22, 25020, -6138, 5343, 5453, 13, 11, 1528823920.564, 9, 0, 1024, 1024, 1024, 1024, 0, 6, 4186, 4159, 4086, 4132, 4138, 4114, 0, 1, 4501, -89.900, 0.000, -93.800, 0.000, 0.000, -0.500, 0.0, , , , , , 97, , , 25, 25, 25
37.3533269, -119.5420284, 0.600, 10:18:40.664, 18, 0.00, 0.12, 98, 0.000, -0.900, -92.400, 707, 100, 100, 22, 25020, -6138, 5343, 5453, 13, 11, 1528823920.664, 28, 0, 1024, 1024, 1024, 1024, 0, 6, 4186, 4159, 4086, 4132, 4138, 4114, 0, 1, 4600, -90.000, 0.000, -93.800, 0.000, 0.000, -0.400, 0.0, , , , , , 97, , , 25, 25, 25
37.3533269, -119.5420284, 0.600, 10:18:40.764, 18, 0.00, 0.12, 98, 0.000, -0.900, -92.400, 707, 100, 100, 22, 25020, -6138, 5343, 5453, 13, 11, 1528823920.764, 128, 0, 1024, 1024, 1024, 1024, 0, 6, 4186, 4159, 4086, 4132, 4138, 4114, 0, 1, 4700, -90.000, 0.000, -93.800, 0.000, 0.000, -0.400, 0.0, , , , , , 97, , , 25, 25, 25
37.3533268, -119.5420282, 0.700, 10:18:40.864, 18, 0.00, 0.13, 98, 0.200, -1.000, -92.100, 707, 100, 100, 22, 25020, -6138, 5343, 5453, 13, 11, 1528823920.864, 15, 0, 1024, 1024, 1024, 1024, 0, 6, 4186, 4159, 4086, 4132, 4138, 4114, 0, 1, 4800, -90.000, 0.000, -93.700, 0.000, 0.000, -0.400, 0.0, , , , , , 97, , , 25, 25, 25
37.3533268, -119.5420282, 0.800, 10:18:40.964, 18, 0.00, 0.14, 98, 0.300, -1.100, -92.000, 707, 100, 100, 22, 25020, -6138, 5343, 5453, 13, 11, 1528823920.964, 19, 0, 1024, 1024, 1024, 1024, 0, 6, 4186, 4159, 4086, 4132, 4138, 4114, 0, 1, 4900, -90.000, 0.000, -93.700, 0.000, 0.000, -0.400, 0.0, , , , , , 97, , , 25, 25, 25
37.3533268, -119.5420282, 0.800, 10:18:41.064, 18, 0.00, 0.14, 98, 0.300, -1.100, -92.000, 707, 100, 100, 22, 25020, -6138, 5343, 5453, 13, 11, 1528823921.064, 119, 0, 1024, 1024, 1024, 1024, 0, 6, 4186, 4159, 4086, 4132, 4138, 4114, 0, 1, 5000, -90.000, 0.000, -93.700, 0.000, 0.000, -0.400, 0.0, , , , , , 97, , , 25, 25, 25
37.3533268, -119.5420282, 0.900, 10:18:41.164, 17, 0.00, 0.14, 98, 0.400, -1.000, -92.300, 707, 100, 100, 22, 24106, -16627, 5343, 5453, 13, 6, 1528823921.164, 88, 0, 1024, 1024, 1024, 1024, 0, 6, 4035, 3983, 3990, 4003, 4015, 4016, 0, 1, 5100, -90.000, 0.000, -93.700, 0.000, 0.000, -0.400, 0.0, , , , , , 97, , , 25, 25, 25
37.3533268, -119.5420282, 0.900, 10:18:41.264, 17, 0.00, 0.14, 98, 0.400, -1.000, -92.300, 707, 100, 100, 22, 24106, -16627, 5343, 5453, 13, 6, 1528823921.264, 188, 0, 1024, 1024, 1024, 1024, 0, 6, 4035, 3983, 3990, 4003, 4015, 4016, 0, 1, 5200, -89.900, 0.000, -93.700, 0.000, 0.000, -0.400, 0.0, , , , , , 97, , , 25, 25, 25
37.3533267, -119.5420282, 1.000, 10:18:41.364, 17, 0.00, 0.14, 98, 0.500, -0.200, -92.800, 707, 100, 100, 22, 24106, -16627, 5343, 5453, 13, 14, 1528823921.364, 90, 0, 1024, 1024, 1024, 1024, 0, 6, 4035, 3983, 3990, 4003, 4015, 4016, 0, 1, 5300, -89.900, 0.000, -93.700, 0.000, 0.000, -0.200, 0.0, , , , , , 97, , , 25, 25, 25
37.3533267, -119.5420282, 1.000, 10:18:41.464, 17, 0.00, 0.14, 98, 0.300, 0.000, -92.900, 707, 100, 100, 22, 24106, -16627, 5343, 5453, 13, 14, 1528823921.464, 95, 0, 1024, 1024, 1024, 1024, 0, 6, 4035, 3983, 3990, 4003, 4015, 4016, 0, 1, 5400, -89.900, 0.000, -93.700, 0.000, 0.000, -0.200, 0.0, , , , , , 97, , , 25, 25, 25
37.3533267, -119.5420282, 1.000, 10:18:41.564, 17, 0.00, 0.14, 98, 0.200, -0.100, -93.000, 707, 100, 100, 22, 24106, -16627, 5343, 5453, 13, 14, 1528823921.564, 97, 0, 1024, 1024, 1024, 1024, 0, 6, 4035, 3983, 3990, 4003, 4015, 4016, 0, 1, 5500, -89.900, 0.000, -93.700, 0.000, 0.000, -0.300, 0.0, , , , , , 97, , , 25, 25, 25
37.3533267, -119.5420282, 1.100, 10:18:41.664, 17, 0.00, 0.15, 98, 0.200, -0.200, -93.000, 707, 100, 100, 22, 24106, -16627, 5343, 5453, 13, 14, 1528823921.664, 96, 0, 1024, 1024, 1024, 1024, 0, 6, 4035, 3983, 3990, 4003, 4015, 4016, 0, 1, 5600, -89.900, 0.000, -93.700, 0.000, 0.000, -0.400, 0.0, , , , , , 97, , , 25, 25, 25
37.3533267, -119.5420281, 1.100, 10:18:41.764, 17, 0.00, 0.15, 98, 0.200, -0.400, -92.800, 707, 100, 100, 22, 24106, -16627, 5343, 5453, 13, 14, 1528823921.765, 64, 0, 1024, 1024, 1024, 1024, 0, 6, 4035, 3983, 3990, 4003, 4015, 4016, 0, 1, 5701, -89.900, 0.000, -93.700, 0.000, 0.000, -0.500, 0.0, , , , , , 97, , , 25, 25, 25
37.3533266, -119.5420281, 1.200, 10:18:41.864, 17, 0.00, 0.16, 98, 0.000, -0.600, -92.600, 707, 100, 100, 22, 24106, -16627, 5343, 5453, 13, 14, 1528823921.864, 67, 0, 1024, 1024, 1024, 1024, 0, 6, 4035, 3983, 3990, 4003, 4015, 4016, 0, 1, 5801, -90.000, 0.000, -93.700, 0.000, 0.000, -0.700, 0.0, , , , , , 97, , , 25, 25, 25
37.3533265, -119.5420280, 1.300, 10:18:41.964, 17, 0.00, 0.17, 98, 0.200, -0.600, -92.300, 707, 100, 100, 22, 24106, -16627, 5343, 5453, 13, 14, 1528823921.964, 69, 0, 1024, 1024, 1024, 1024, 0, 6, 4035, 3983, 3990, 4003, 4015, 4016, 0, 1, 5901, -89.900, 0.000, -93.700, 0.000, 0.000, -0.800, 0.0, , , , , , 97, , , 25, 25, 25
37.3533264, -119.5420279, 1.400, 10:18:42.064, 17, 0.00, 0.18, 98, 0.800, -0.900, -92.200, 707, 100, 100, 22, 24106, -16627, 5343, 5453, 13, 14, 1528823922.065, 63, 0, 1024, 1024, 1024, 1024, 0, 6, 4035, 3983, 3990, 4003, 4015, 4016, 0, 1, 6001, -90.000, 0.000, -93.600, 0.000, 0.000, -1.000, 0.0, , , , , , 97, , , 25, 25, 25
37.3533263, -119.5420278, 1.500, 10:18:42.164, 17, 0.00, 0.19, 98, 1.100, -1.000, -92.100, 707, 100, 100, 22, 23865, -16968, 5343, 5453, 13, 14, 1528823922.164, 77, 0, 1024, 1024, 1024, 1024, 0, 6, 3997, 3960, 3962, 3969, 3989, 3980, 0, 1, 6100, -90.000, 0.000, -93.600, 0.000, 0.000, -1.200, 0.0, , , , , , 97, , , 25, 25, 25
37.3533263, -119.5420278, 1.700, 10:18:42.264, 17, 0.00, 0.20, 98, 1.000, -1.100, -92.200, 707, 100, 100, 22, 23865, -16968, 5343, 5453, 13, 14, 1528823922.264, 43, 0, 1024, 1024, 1024, 1024, 0, 6, 3997, 3960, 3962, 3969, 3989, 3980, 0, 1, 6200, -90.000, 0.000, -93.600, 0.000, 0.000, -1.300, 0.0, , , , , , 97, , , 25, 25, 25
37.3533262, -119.5420277, 1.800, 10:18:42.364, 17, 0.00, 0.21, 98, 1.300, -1.100, -92.400, 707, 100, 100, 22, 23865, -16968, 5343, 5453, 13, 14, 1528823922.364, 47, 0, 1024, 1024, 1024, 1024, 0, 6, 3997, 3960, 3962, 3969, 3989, 3980, 0, 1, 6300, -90.000, 0.000, -93.600, 0.000, 0.000, -1.600, 0.0, , , , , , 97, , , 25, 25, 25
37.3533261, -119.5420276, 2.000, 10:18:42.464, 17, 0.00, 0.22, 98, 1.800, -1.200, -92.800, 707, 100, 100, 22, 23865, -16968, 5343, 5453, 13, 14, 1528823922.464, 52, 0, 1024, 1024, 1024, 1024, 0, 6, 3997, 3960, 3962, 3969, 3989, 3980, 0, 1, 6401, -90.000, 0.000, -93.600, 0.000, 0.000, -1.900, 0.0, , , , , , 97, , , 25, 25, 25
37.3533260, -119.5420275, 2.300, 10:18:42.563, 17, 0.00, 0.23, 98, 2.100, -1.200, -93.200, 707, 100, 100, 22, 23865, -16968, 5343, 5453, 13, 14, 1528823922.564, 46, 0, 1024, 1024, 1024, 1024, 0, 6, 3997, 3960, 3962, 3969, 3989, 3980, 0, 1, 6500, -90.000, 0.000, -93.500, 0.000, 0.000, -2.100, 0.0, , , , , , 97, , , 25, 25, 25
37.3533259, -119.5420275, 2.500, 10:18:42.664, 17, 0.00, 0.24, 98, 2.100, -1.200, -93.500, 707, 100, 100, 22, 23865, -16968, 5343, 5453, 13, 14, 1528823922.664, 28, 0, 1024, 1024, 1024, 1024, 0, 6, 3997, 3960, 3962, 3969, 3989, 3980, 0, 1, 6600, -90.000, 0.000, -93.500, 0.000, 0.000, -2.400, 0.0, , , , , , 97, , , 25, 25, 25
37.3533258, -119.5420274, 2.800, 10:18:42.764, 17, 0.00, 0.25, 98, 1.900, -1.200, -93.600, 707, 100, 100, 22, 23865, -16968, 5343, 5453, 13, 14, 1528823922.764, 28, 0, 1024, 1024, 1024, 1024, 0, 6, 3997, 3960, 3962, 3969, 3989, 3980, 0, 1, 6700, -89.900, 0.000, -93.500, 0.000, 0.000, -2.500, 0.0, , , , , , 97, , , 25, 25, 25
37.3533258, -119.5420274, 3.100, 10:18:42.864, 17, 0.00, 0.26, 98, 1.500, -1.000, -93.700, 707, 100, 100, 22, 23865, -16968, 5343, 5453, 13, 14, 1528823922.864, 18, 0, 1024, 1024, 1024, 1024, 0, 6, 3997, 3960, 3962, 3969, 3989, 3980, 0, 1, 6800, -89.900, 0.000, -93.500, 0.000, 0.000, -2.700, 0.0, , , , , , 97, , , 25, 25, 25
37.3533257, -119.5420274, 3.400, 10:18:42.964, 17, 0.00, 0.27, 98, 1.400, -0.800, -93.500, 707, 100, 100, 22, 23865, -16968, 5343, 5453, 13, 14, 1528823922.964, 33, 0, 1024, 1024, 1024, 1024, 0, 6, 3997, 3960, 3962, 3969, 3989, 3980, 0, 1, 6900, -89.900, 0.000, -93.500, 0.000, 0.000, -2.900, 0.0, , , , , , 97, , , 25, 25, 25
37.3533257, -119.5420273, 3.700, 10:18:43.075, 17, 0.00, 0.27, 98, 1.400, -0.700, -93.300, 707, 100, 100, 22, 23865, -16968, 5343, 5453, 13, 14, 1528823923.076, 1, 0, 1024, 1024, 1024, 1024, 0, 6, 3997, 3960, 3962, 3969, 3989, 3980, 0, 1, 7012, -89.900, 0.000, -93.500, 0.000, 0.000, -2.900, 0.0, , , , , , 97, , , 25, 25, 25
37.3533257, -119.5420273, 4.000, 10:18:43.164, 17, 0.00, 0.27, 98, 1.300, -0.600, -93.000, 707, 100, 100, 22, 23546, -19273, 5343, 5453, 13, 14, 1528823923.164, 27, 0, 1024, 1024, 1024, 1024, 0, 6, 3936, 3900, 3916, 3904, 3907, 3925, 0, 1, 7100, -89.900, 0.000, -93.400, 0.000, 0.000, -3.000, 0.0, , , , , , 97, , , 25, 25, 25
37.3533257, -119.5420272, 4.300, 10:18:43.263, 17, 0.00, 0.27, 98, 0.900, -0.700, -92.600, 707, 100, 100, 22, 23546, -19273, 5343, 5453, 13, 14, 1528823923.263, 27, 0, 1024, 1024, 1024, 1024, 0, 6, 3936, 3900, 3916, 3904, 3907, 3925, 0, 1, 7200, -89.900, 0.000, -93.400, 0.000, 0.000, -3.000, 0.0, , , , , , 97, , , 25, 25, 25
37.3533258, -119.5420272, 4.600, 10:18:43.364, 17, 0.00, 0.27, 98, 0.300, -0.700, -92.200, 707, 100, 100, 22, 23546, -19273, 5343, 5453, 13, 14, 1528823923.364, 21, 0, 1024, 1024, 1024, 1024, 0, 6, 3936, 3900, 3916, 3904, 3907, 3925, 0, 1, 7300, -89.900, 0.000, -93.400, 0.000, 0.000, -3.100, 0.0, , , , , , 97, , , 25, 25, 25
37.3533258, -119.5420272, 4.600, 10:18:43.464, 17, 0.00, 0.27, 98, 0.300, -0.700, -92.200, 707, 100, 100, 22, 23546, -19273, 5343, 5453, 13, 14, 1528823923.464, 121, 0, 1024, 1024, 1024, 1024, 0, 6, 3936, 3900, 3916, 3904, 3907, 3925, 0, 1, 7400, -89.900, 0.000, -93.400, 0.000, 0.000, -3.100, 0.0, , , , , , 97, , , 25, 25, 25
37.3533258, -119.5420273, 5.000, 10:18:43.564, 17, 0.00, 0.27, 98, 0.000, -0.700, -91.900, 707, 100, 100, 22, 23546, -19273, 5343, 5453, 13, 14, 1528823923.564, 95, 0, 1024, 1024, 1024, 1024, 0, 6, 3936, 3900, 3916, 3904, 3907, 3925, 0, 1, 7500, -89.900, 0.000, -93.400, 0.000, 0.000, -3.100, 0.0, , , , , , 97, , , 25, 25, 25
37.3533259, -119.5420274, 5.900, 10:18:43.664, 17, 0.00, 0.25, 98, 0.000, -0.600, -91.700, 707, 100, 100, 22, 23546, -19273, 5343, 5453, 13, 14, 1528823923.664, 10, 0, 1024, 1024, 1024, 1024, 0, 6, 3936, 3900, 3916, 3904, 3907, 3925, 0, 1, 7600, -89.900, 0.000, -93.400, 0.000, 0.000, -3.100, 0.0, , , , , , 97, , , 25, 25, 25
37.3533259, -119.5420274, 5.900, 10:18:43.764, 17, 0.00, 0.25, 98, 0.000, -0.600, -91.700, 707, 100, 100, 22, 23546, -19273, 5343, 5453, 13, 14, 1528823923.764, 110, 0, 1024, 1024, 1024, 1024, 0, 6, 3936, 3900, 3916, 3904, 3907, 3925, 0, 1, 7700, -89.900, 0.000, -93.400, 0.000, 0.000, -3.100, 0.0, , , , , , 97, , , 25, 25, 25
37.3533259, -119.5420274, 5.900, 10:18:43.864, 17, 0.00, 0.25, 98, 0.000, -0.600, -91.700, 707, 100, 100, 22, 23546, -19273, 5343, 5453, 13, 14, 1528823923.864, 210, 0, 1024, 1024, 1024, 1024, 0, 6, 3936, 3900, 3916, 3904, 3907, 3925, 0, 1, 7800, -89.900, 0.000, -93.400, 0.000, 0.000, -3.100, 0.0, , , , , , 97, , , 25, 25, 25
37.3533259, -119.5420275, 6.600, 10:18:43.964, 17, 0.00, 0.24, 98, 0.000, -0.200, -91.900, 707, 100, 100, 22, 23546, -19273, 5343, 5453, 13, 14, 1528823923.964, 87, 0, 1024, 1024, 1024, 1024, 0, 6, 3936, 3900, 3916, 3904, 3907, 3925, 0, 1, 7900, -89.900, 0.000, -93.400, 0.000, 0.000, -3.100, 0.0, , , , , , 97, , , 25, 25, 25
37.3533259, -119.5420276, 6.900, 10:18:44.064, 18, 0.00, 0.23, 98, 0.000, -0.100, -92.100, 707, 100, 100, 22, 23546, -19273, 5343, 5453, 13, 14, 1528823924.064, 88, 0, 1024, 1024, 1024, 1024, 0, 6, 3936, 3900, 3916, 3904, 3907, 3925, 0, 1, 8000, -89.900, 0.000, -93.400, 0.000, 0.000, -3.100, 0.0, , , , , , 97, , , 25, 25, 25
37.3533259, -119.5420277, 7.300, 10:18:44.164, 18, 0.00, 0.23, 98, 0.100, 0.000, -92.300, 707, 100, 100, 22, 23070, -24490, 5289, 5453, 13, 14, 1528823924.164, 87, 0, 1024, 1024, 1024, 1024, 0, 6, 3864, 3827, 3840, 3819, 3858, 3873, 0, 1, 8100, -89.900, 0.000, -93.400, 0.000, 0.000, -3.200, 0.0, , , , , , 97, , , 25, 25, 25
37.3533260, -119.5420278, 7.600, 10:18:44.264, 18, 0.00, 0.22, 98, 0.200, 0.000, -92.600, 707, 100, 100, 22, 23070, -24490, 5289, 5453, 13, 14, 1528823924.264, 78, 0, 1024, 1024, 1024, 1024, 0, 6, 3864, 3827, 3840, 3819, 3858, 3873, 0, 1, 8200, -89.900, 0.000, -93.400, 0.000, 0.000, -3.100, 0.0, , , , , , 97, , , 25, 25, 25
37.3533260, -119.5420278, 7.900, 10:18:44.364, 18, 0.00, 0.22, 98, 0.100, 0.100, -92.700, 707, 100, 100, 22, 23070, -24490, 5289, 5453, 13, 14, 1528823924.364, 78, 0, 1024, 1024, 1024, 1024, 0, 6, 3864, 3827, 3840, 3819, 3858, 3873, 0, 1, 8300, -89.900, 0.000, -93.400, 0.000, 0.000, -3.100, 0.0, , , , , , 97, , , 25, 25, 25
37.3533260, -119.5420279, 8.200, 10:18:44.464, 18, 0.00, 0.21, 98, 0.000, 0.000, -92.800, 707, 100, 100, 22, 23070, -24490, 5289, 5453, 13, 14, 1528823924.464, 81, 0, 1024, 1024, 1024, 1024, 0, 6, 3864, 3827, 3840, 3819, 3858, 3873, 0, 1, 8400, -89.900, 0.000, -93.400, 0.000, 0.000, -3.100, 0.0, , , , , , 97, , , 25, 25, 25
37.3533260, -119.5420280, 8.600, 10:18:44.564, 18, 0.00, 0.21, 98, 0.000, 0.000, -92.800, 707, 100, 100, 22, 23070, -24490, 5289, 5453, 13, 14, 1528823924.564, 58, 0, 1024, 1024, 1024, 1024, 0, 6, 3864, 3827, 3840, 3819, 3858, 3873, 0, 1, 8500, -89.900, 0.000, -93.400, 0.000, 0.000, -3.100, 0.0, , , , , , 97, , , 25, 25, 25
37.3533260, -119.5420280, 8.900, 10:18:44.664, 18, 0.00, 0.20, 98, 0.000, 0.000, -92.700, 707, 100, 100, 22, 23070, -24490, 5289, 5453, 13, 14, 1528823924.664, 61, 0, 1024, 1024, 1024, 1024, 0, 6, 3864, 3827, 3840, 3819, 3858, 3873, 0, 1, 8600, -89.900, 0.000, -93.400, 0.000, 0.000, -3.000, 0.0, , , , , , 97, , , 25, 25, 25
37.3533261, -119.5420280, 9.200, 10:18:44.764, 18, 0.00, 0.20, 98, 0.100, 0.000, -92.500, 707, 100, 100, 22, 23070, -24490, 5289, 5453, 13, 14, 1528823924.764, 43, 0, 1024, 1024, 1024, 1024, 0, 6, 3864, 3827, 3840, 3819, 3858, 3873, 0, 1, 8700, -89.900, 0.000, -93.400, 0.000, 0.000, -3.000, 0.0, , , , , , 97, , , 25, 25, 25
37.3533261, -119.5420281, 9.500, 10:18:44.863, 18, 0.00, 0.19, 98, 0.000, 0.000, -92.300, 707, 100, 100, 22, 23070, -24490, 5289, 5453, 13, 14, 1528823924.864, 69, 0, 1024, 1024, 1024, 1024, 0, 6, 3864, 3827, 3840, 3819, 3858, 3873, 0, 1, 8800, -89.900, 0.000, -93.400, 0.000, 0.000, -3.100, 0.0, , , , , , 97, , , 25, 25, 25
37.3533262, -119.5420281, 9.800, 10:18:44.964, 18, 0.00, 0.19, 98, -0.200, 0.000, -92.200, 707, 100, 100, 22, 23070, -24490, 5289, 5453, 13, 14, 1528823924.964, 54, 0, 1024, 1024, 1024, 1024, 0, 6, 3864, 3827, 3840, 3819, 3858, 3873, 0, 1, 8900, -89.900, 0.000, -93.400, 0.000, 0.000, -3.000, 0.0, , , , , , 97, , , 25, 25, 25
37.3533262, -119.5420281, 10.100, 10:18:45.064, 18, 0.00, 0.18, 98, -0.300, -0.200, -92.000, 707, 100, 100, 22, 23070, -24490, 5289, 5453, 13, 14, 1528823925.064, 35, 0, 1024, 1024, 1024, 1024, 0, 6, 3864, 3827, 3840, 3819, 3858, 3873, 0, 1, 9000, -89.900, 0.000, -93.400, 0.000, 0.000, -3.000, 0.0, , , , , , 97, , , 25, 25, 25
37.3533263, -119.5420282, 10.500, 10:18:45.164, 18, 0.00, 0.17, 97, -0.600, -0.300, -91.800, 707, 100, 100, 22, 23303, -20843, 5289, 5453, 13, 14, 1528823925.164, 47, 0, 1024, 1024, 1024, 1024, 0, 6, 3864, 3827, 3840, 3819, 3858, 3873, 0, 1, 9100, -89.900, 0.000, -93.400, 0.000, 0.000, -3.100, 0.0, , , , , , 97, , , 25, 25, 25
37.3533264, -119.5420282, 10.800, 10:18:45.264, 18, 0.00, 0.16, 97, -0.700, -0.300, -91.700, 707, 100, 100, 22, 23303, -20843, 5289, 5453, 13, 14, 1528823925.264, 45, 0, 1024, 1024, 1024, 1024, 0, 6, 3864, 3827, 3840, 3819, 3858, 3873, 0, 1, 9200, -89.900, 0.000, -93.400, 0.000, 0.000, -3.000, 0.0, , , , , , 97, , , 25, 25, 25
37.3533264, -119.5420282, 11.100, 10:18:45.364, 18, 0.00, 0.16, 97, -0.700, -0.200, -91.700, 707, 100, 100, 22, 23303, -20843, 5289, 5453, 13, 14, 1528823925.364, 38, 0, 1024, 1024, 1024, 1024, 0, 6, 3864, 3827, 3840, 3819, 3858, 3873, 0, 1, 9300, -89.900, 0.000, -93.400, 0.000, 0.000, -3.000, 0.0, , , , , , 97, , , 25, 25, 25
37.3533265, -119.5420282, 11.400, 10:18:45.464, 18, 0.00, 0.16, 97, -0.700, -0.200, -91.800, 707, 100, 100, 22, 23303, -20843, 5289, 5453, 13, 14, 1528823925.464, 38, 0, 1024, 1024, 1024, 1024, 0, 6, 3864, 3827, 3840, 3819, 3858, 3873, 0, 1, 9400, -89.900, 0.000, -93.400, 0.000, 0.000, -3.000, 0.0, , , , , , 97, , , 25, 25, 25
37.3533265, -119.5420282, 11.700, 10:18:45.564, 18, 0.00, 0.15, 97, -0.600, -0.300, -92.000, 707, 100, 100, 22, 23303, -20843, 5289, 5453, 13, 14, 1528823925.564, 8, 0, 1024, 1024, 1024, 1024, 0, 6, 3903, 3867, 3869, 3867, 3905, 3902, 0, 1, 9500, -89.900, 0.000, -93.400, 0.000, 0.000, -3.000, 0.0, , , , , , 97, , , 25, 25, 25
37.3533265, -119.5420282, 12.000, 10:18:45.664, 18, 0.00, 0.15, 97, -0.500, -0.300, -92.300, 707, 100, 100, 22, 23303, -20843, 5289, 5453, 13, 14, 1528823925.664, 14, 0, 1024, 1024, 1024, 1024, 0, 6, 3903, 3867, 3869, 3867, 3905, 3902, 0, 1, 9600, -89.900, 0.000, -93.400, 0.000, 0.000, -3.000, 0.0, , , , , , 97, , , 25, 25, 25
37.3533266, -119.5420283, 12.300, 10:18:45.763, 18, 0.00, 0.14, 97, -0.300, -0.200, -92.400, 707, 100, 100, 22, 23303, -20843, 5289, 5453, 13, 14, 1528823925.763, 17, 0, 1024, 1024, 1024, 1024, 0, 6, 3903, 3867, 3869, 3867, 3905, 3902, 0, 1, 9699, -89.900, 0.000, -93.400, 0.000, 0.000, -2.900, 0.0, , , , , , 97, , , 25, 25, 25
37.3533266, -119.5420283, 12.600, 10:18:45.864, 18, 0.00, 0.14, 97, -0.400, -0.100, -92.600, 707, 100, 100, 22, 23303, -20843, 5289, 5453, 13, 14, 1528823925.864, 1, 0, 1024, 1024, 1024, 1024, 0, 6, 3903, 3867, 3869, 3867, 3905, 3902, 0, 1, 9800, -89.900, 0.000, -93.400, 0.000, 0.000, -2.900, 0.0, , , , , , 97, , , 25, 25, 25
37.3533266, -119.5420283, 13.200, 10:18:45.972, 18, 0.00, 0.14, 97, -0.300, 0.000, -92.600, 707, 100, 100, 22, 23303, -20843, 5289, 5453, 13, 14, 1528823925.973, 2, 0, 1024, 1024, 1024, 1024, 0, 6, 3903, 3867, 3869, 3867, 3905, 3902, 0, 1, 9909, -89.900, 0.000, -93.400, 0.000, 0.000, -2.900, 0.0, , , , , , 97, , , 25, 25, 25
37.3533266, -119.5420283, 13.500, 10:18:46.064, 18, 0.00, 0.14, 97, -0.200, 0.000, -92.500, 707, 100, 100, 22, 23303, -20843, 5289, 5453, 13, 14, 1528823926.064, 9, 0, 1024, 1024, 1024, 1024, 0, 6, 3903, 3867, 3869, 3867, 3905, 3902, 0, 1, 10000, -89.900, 0.000, -93.400, 0.000, 0.000, -3.000, 0.0, , , , , , 97, , , 25, 25, 25
37.3533266, -119.5420283, 13.500, 10:18:46.164, 18, 0.00, 0.14, 97, -0.200, 0.000, -92.500, 707, 100, 100, 22, 23303, -20843, 5289, 5453, 13, 14, 1528823926.164, 109, 0, 1024, 1024, 1024, 1024, 0, 6, 3903, 3867, 3869, 3867, 3905, 3902, 0, 1, 10100, -89.900, 0.000, -93.400, 0.000, 0.000, -3.000, 0.0, , , , , , 97, , , 25, 25, 25
37.3533266, -119.5420282, 13.800, 10:18:46.264, 18, 0.00, 0.14, 97, -0.100, 0.000, -92.500, 707, 100, 100, 22, 23303, -20843, 5289, 5453, 13, 14, 1528823926.264, 88, 0, 1024, 1024, 1024, 1024, 0, 6, 3903, 3867, 3869, 3867, 3905, 3902, 0, 1, 10200, -89.900, 0.000, -93.400, 0.000, 0.000, -3.000, 0.0, , , , , , 97, , , 25, 25, 25
37.3533266, -119.5420282, 14.200, 10:18:46.364, 18, 0.00, 0.14, 97, -0.100, 0.000, -92.500, 707, 100, 100, 22, 23303, -20843, 5289, 5453, 13, 14, 1528823926.364, 65, 0, 1024, 1024, 1024, 1024, 0, 6, 3903, 3867, 3869, 3867, 3905, 3902, 0, 1, 10300, -89.900, 0.000, -93.400, 0.000, 0.000, -3.000, 0.0, , , , , , 97, , , 25, 25, 25
37.3533267, -119.5420282, 14.500, 10:18:46.464, 18, 0.00, 0.14, 97, 0.000, 0.000, -92.500, 707, 100, 100, 22, 23303, -20843, 5289, 5453, 13, 14, 1528823926.464, 77, 0, 1024, 1024, 1024, 1024, 0, 6, 3903, 3867, 3869, 3867, 3905, 3902, 0, 1, 10400, -89.900, 0.000, -93.400, 0.000, 0.000, -3.000, 0.0, , , , , , 97, , , 25, 25, 25
37.3533267, -119.5420282, 14.800, 10:18:46.563, 18, 0.00, 0.14, 97, -0.100, -0.100, -92.400, 707, 100, 100, 22, 23303, -20843, 5289, 5453, 13, 14, 1528823926.563, 77, 0, 1024, 1024, 1024, 1024, 0, 6, 3903, 3867, 3869, 3867, 3905, 3902, 0, 1, 10499, -89.900, 0.000, -93.400, 0.000, 0.000, -3.000, 0.0, , , , , , 97, , , 25, 25, 25
37.3533267, -119.5420281, 15.100, 10:18:46.664, 18, 0.00, 0.15, 97, -0.200, -0.200, -92.400, 707, 100, 100, 22, 23312, -19912, 5289, 5453, 13, 14, 1528823926.664, 77, 0, 1024, 1024, 1024, 1024, 0, 6, 3907, 3871, 3879, 3874, 3906, 3902, 0, 1, 10600, -89.900, 0.000, -93.400, 0.000, 0.000, -2.900, 0.0, , , , , , 97, , , 25, 25, 25
37.3533267, -119.5420281, 15.400, 10:18:46.764, 18, 0.00, 0.15, 97, -0.600, -0.400, -92.300, 707, 100, 99, 22, 23312, -19912, 5289, 5453, 13, 14, 1528823926.764, 57, 0, 1024, 1024, 1024, 1024, 0, 6, 3907, 3871, 3879, 3874, 3906, 3902, 0, 1, 10700, -90.000, 0.000, -93.400, 0.000, 0.000, -2.900, 0.0, , , , , , 97, , , 25, 25, 25
37.3533268, -119.5420280, 15.700, 10:18:46.864, 18, 0.00, 0.15, 97, -1.000, -0.700, -92.300, 707, 100, 99, 22, 23312, -19912, 5289, 5453, 13, 14, 1528823926.864, 57, 0, 1024, 1024, 1024, 1024, 0, 6, 3907, 3871, 3879, 3874, 3906, 3902, 0, 1, 10800, -90.000, 0.000, -93.400, 0.000, 0.000, -2.900, 0.0, , , , , , 97, , , 25, 25, 25
37.3533269, -119.5420279, 16.000, 10:18:46.964, 18, 0.00, 0.15, 97, -1.100, -0.700, -92.300, 707, 100, 99, 22, 23312, -19912, 5289, 5453, 13, 14, 1528823926.964, 21, 0, 1024, 1024, 1024, 1024, 0, 6, 3907, 3871, 3879, 3874, 3906, 3902, 0, 1, 10900, -89.900, 0.000, -93.400, 0.000, 0.000, -2.900, 0.0, , , , , , 97, , , 25, 25, 25
37.3533269, -119.5420279, 16.300, 10:18:47.064, 18, 0.00, 0.16, 97, -1.100, -0.600, -92.300, 707, 100, 99, 22, 23312, -19912, 5289, 5453, 13, 14, 1528823927.064, 18, 0, 1024, 1024, 1024, 1024, 0, 6, 3907, 3871, 3879, 3874, 3906, 3902, 0, 1, 11000, -89.900, 0.000, -93.400, 0.000, 0.000, -2.900, 0.0, , , , , , 97, , , 25, 25, 25
37.3533270, -119.5420278, 16.600, 10:18:47.164, 18, 0.00, 0.16, 97, -1.200, -0.500, -92.400, 707, 100, 99, 22, 23312, -19912, 5289, 5453, 13, 14, 1528823927.164, 33, 0, 1024, 1024, 1024, 1024, 0, 6, 3907, 3871, 3879, 3874, 3906, 3902, 0, 1, 11100, -89.900, 0.000, -93.400, 0.000, 0.000, -2.900, 0.0, , , , , , 97, , , 25, 25, 25
37.3533270, -119.5420278, 16.900, 10:18:47.264, 18, 0.00, 0.16, 97, -1.200, -0.500, -92.400, 707, 100, 98, 22, 23312, -19912, 5289, 5453, 13, 14, 1528823927.264, 37, 0, 1024, 1024, 1024, 1024, 0, 6, 3907, 3871, 3879, 3874, 3906, 3902, 0, 1, 11200, -89.900, 0.000, -93.400, 0.000, 0.000, -2.900, 0.0, , , , , , 97, , , 25, 25, 25
37.3533271, -119.5420278, 17.200, 10:18:47.364, 18, 0.00, 0.16, 97, -1.100, -0.500, -92.500, 707, 100, 98, 22, 23312, -19912, 5289, 5453, 13, 14, 1528823927.364, 27, 0, 1024, 1024, 1024, 1024, 0, 6, 3907, 3871, 3879, 3874, 3906, 3902, 0, 1, 11300, -89.900, 0.000, -93.400, 0.000, 0.000, -2.900, 0.0, , , , , , 97, , , 25, 25, 25
37.3533271, -119.5420277, 17.500, 10:18:47.464, 18, 0.00, 0.17, 97, -1.000, -0.600, -92.500, 707, 100, 98, 22, 23312, -19912, 5289, 5453, 13, 14, 1528823927.464, 28, 0, 1024, 1024, 1024, 1024, 0, 6, 3907, 3871, 3879, 3874, 3906, 3902, 0, 1, 11400, -89.900, 0.000, -93.400, 0.000, 0.000, -2.800, 0.0, , , , , , 97, , , 25, 25, 25
37.3533271, -119.5420277, 17.800, 10:18:47.564, 18, 0.00, 0.17, 97, -0.900, -0.600, -92.500, 707, 100, 98, 22, 23331, -19548, 5289, 5453, 13, 14, 1528823927.564, 29, 0, 1024, 1024, 1024, 1024, 0, 6, 3909, 3883, 3867, 3885, 3906, 3904, 0, 1, 11500, -89.900, 0.000, -93.400, 0.000, 0.000, -2.800, 0.0, , , , , , 97, , , 25, 25, 25
37.3533271, -119.5420276, 18.100, 10:18:47.667, 18, 0.00, 0.17, 97, -0.900, -0.600, -92.500, 707, 100, 98, 22, 23331, -19548, 5289, 5453, 13, 14, 1528823927.667, 3, 0, 1024, 1024, 1024, 1024, 0, 6, 3909, 3883, 3867, 3885, 3906, 3904, 0, 1, 11603, -89.900, 0.000, -93.400, 0.000, 0.000, -2.900, 0.0, , , , , , 97, , , 25, 25, 25
37.3533271, -119.5420276, 18.700, 10:18:47.764, 18, 0.00, 0.18, 97, -0.900, -0.400, -92.500, 707, 100, 98, 22, 23331, -19548, 5289, 5453, 13, 14, 1528823927.764, 6, 0, 1024, 1024, 1024, 1024, 0, 6, 3909, 3883, 3867, 3885, 3906, 3904, 0, 1, 11700, -89.900, 0.000, -93.400, 0.000, 0.000, -2.900, 0.0, , , , , , 97, , , 25, 25, 25
37.3533271, -119.5420276, 18.700, 10:18:47.864, 18, 0.00, 0.18, 97, -0.900, -0.400, -92.500, 707, 100, 98, 22, 23331, -19548, 5289, 5453, 13, 14, 1528823927.864, 106, 0, 1024, 1024, 1024, 1024, 0, 6, 3909, 3883, 3867, 3885, 3906, 3904, 0, 1, 11800, -89.900, 0.000, -93.400, 0.000, 0.000, -2.900, 0.0, , , , , , 97, , , 25, 25, 25
37.3533271, -119.5420275, 18.900, 10:18:47.964, 18, 0.00, 0.18, 97, -0.800, -0.600, -92.500, 707, 100, 98, 22, 23331, -19548, 5289, 5453, 13, 14, 1528823927.964, 98, 0, 1024, 1024, 1024, 1024, 0, 6, 3909, 3883, 3867, 3885, 3906, 3904, 0, 1, 11900, -89.900, 0.000, -93.400, 0.000, 0.000, -2.900, 0.0, , , , , , 97, , , 25, 25, 25
37.3533271, -119.5420275, 19.200, 10:18:48.064, 18, 0.00, 0.19, 97, -0.600, -0.600, -92.400, 707, 100, 98, 22, 23331, -19548, 5289, 5453, 13, 14, 1528823928.064, 70, 0, 1024, 1024, 1024, 1024, 0, 6, 3909, 3883, 3867, 3885, 3906, 3904, 0, 1, 12000, -90.000, 0.000, -93.400, 0.000, 0.000, -2.900, 0.0, , , , , , 97, , , 25, 25, 25
37.3533271, -119.5420274, 19.500, 10:18:48.164, 18, 0.00, 0.19, 97, -0.300, -0.700, -92.400, 707, 100, 98, 22, 23331, -19548, 5289, 5453, 13, 14, 1528823928.164, 84, 0, 1024, 1024, 1024, 1024, 0, 6, 3909, 3883, 3867, 3885, 3906, 3904, 0, 1, 12100, -90.000, 0.000, -93.400, 0.000, 0.000, -2.900, 0.0, , , , , , 97, , , 25, 25, 25
37.3533270, -119.5420274, 19.800, 10:18:48.264, 18, 0.00, 0.19, 97, -0.100, -0.800, -92.500, 707, 100, 98, 22, 23331, -19548, 5289, 5453, 13, 14, 1528823928.264, 71, 0, 1024, 1024, 1024, 1024, 0, 6, 3909, 3883, 3867, 3885, 3906, 3904, 0, 1, 12200, -90.000, 0.000, -93.400, 0.000, 0.000, -3.000, 0.0, , , , , , 97, , , 25, 25, 25
37.3533270, -119.5420273, 20.100, 10:18:48.364, 18, 0.00, 0.20, 97, -0.100, -0.800, -92.600, 707, 100, 98, 22, 23331, -19548, 5289, 5453, 13, 14, 1528823928.364, 68, 0, 1024, 1024, 1024, 1024, 0, 6, 3909, 3883, 3867, 3885, 3906, 3904, 0, 1, 12300, -90.000, 0.000, -93.400, 0.000, 0.000, -2.900, 0.0, , , , , , 97, , , 25, 25, 25
37.3533270, -119.5420273, 20.400, 10:18:48.464, 18, 0.00, 0.20, 97, 0.000, -0.800, -92.700, 707, 100, 98, 22, 23331, -19548, 5289, 5453, 13, 14, 1528823928.464, 73, 0, 1024, 1024, 1024, 1024, 0, 6, 3909, 3883, 3867, 3885, 3906, 3904, 0, 1, 12400, -89.900, 0.000, -93.400, 0.000, 0.000, -2.900, 0.0, , , , , , 97, , , 25, 25, 25
37.3533270, -119.5420273, 20.400, 10:18:48.564, 18, 0.00, 0.20, 97, 0.000, -0.800, -92.700, 707, 100, 98, 22, 23331, -19548, 5289, 5453, 13, 14, 1528823928.564, 173, 0, 1024, 1024, 1024, 1024, 0, 6, 3909, 3883, 3867, 3885, 3906, 3904, 0, 1, 12500, -89.900, 0.000, -93.400, 0.000, 0.000, -2.900, 0.0, , , , , , 97, , , 25, 25, 25
37.3533269, -119.5420273, 21.000, 10:18:48.663, 18, 0.00, 0.21, 97, -0.300, -0.700, -92.700, 707, 100, 98, 22, 23319, -19404, 5289, 5453, 13, 14, 1528823928.663, 52, 0, 1024, 1024, 1024, 1024, 0, 6, 3901, 3854, 3866, 3868, 3903, 3889, 0, 1, 12599, -89.900, 0.000, -93.400, 0.000, 0.000, -2.900, 0.0, , , , , , 97, , , 25, 25, 25
37.3533269, -119.5420272, 21.300, 10:18:48.764, 18, 0.00, 0.21, 97, -0.500, -0.600, -92.500, 707, 100, 97, 22, 23319, -19404, 5289, 5453, 13, 14, 1528823928.764, 28, 0, 1024, 1024, 1024, 1024, 0, 6, 3901, 3854, 3866, 3868, 3903, 3889, 0, 1, 12700, -89.900, 0.000, -93.400, 0.000, 0.000, -2.900, 0.0, , , , , , 97, , , 25, 25, 25
37.3533269, -119.5420272, 21.600, 10:18:48.864, 18, 0.00, 0.21, 97, -0.700, -0.600, -92.400, 707, 100, 97, 22, 23319, -19404, 5289, 5453, 13, 14, 1528823928.864, 44, 0, 1024, 1024, 1024, 1024, 0, 6, 3901, 3854, 3866, 3868, 3903, 3889, 0, 1, 12800, -89.900, 0.000, -93.400, 0.000, 0.000, -3.000, 0.0, , , , , , 97, , , 25, 25, 25
37.3533269, -119.5420272, 21.900, 10:18:48.964, 18, 0.00, 0.21, 97, -0.800, -0.600, -92.300, 707, 100, 97, 22, 23319, -19404, 5289, 5453, 13, 14, 1528823928.964, 46, 0, 1024, 1024, 1024, 1024, 0, 6, 3901, 3854, 3866, 3868, 3903, 3889, 0, 1, 12900, -89.900, 0.000, -93.400, 0.000, 0.000, -2.900, 0.0, , , , , , 97, , , 25, 25, 25
37.3533269, -119.5420272, 22.200, 10:18:49.064, 18, 0.00, 0.21, 97, -0.900, -0.500, -92.300, 707, 100, 97, 22, 23319, -19404, 5289, 5453, 13, 14, 1528823929.064, 26, 0, 1024, 1024, 1024, 1024, 0, 6, 3901, 3854, 3866, 3868, 3903, 3889, 0, 1, 13000, -89.900, 0.000, -93.400, 0.000, 0.000, -2.900, 0.0, , , , , , 97, , , 25, 25, 25
37.3533269, -119.5420272, 22.500, 10:18:49.164, 18, 0.00, 0.21, 97, -0.800, -0.600, -92.300, 707, 100, 97, 22, 23319, -19404, 5289, 5453, 13, 14, 1528823929.164, 22, 0, 1024, 1024, 1024, 1024, 0, 6, 3901, 3854, 3866, 3868, 3903, 3889, 0, 1, 13100, -89.900, 0.000, -93.400, 0.000, 0.000, -2.900, 0.0, , , , , , 97, , , 25, 25, 25
37.3533269, -119.5420272, 22.800, 10:18:49.264, 18, 0.00, 0.21, 97, -0.700, -0.700, -92.200, 707, 100, 97, 22, 23319, -19404, 5289, 5453, 13, 14, 1528823929.264, 10, 0, 1024, 1024, 1024, 1024, 0, 6, 3901, 3854, 3866, 3868, 3903, 3889, 0, 1, 13200, -89.900, 0.000, -93.400, 0.000, 0.000, -2.900, 0.0, , , , , , 97, , , 25, 25, 25
37.3533269, -119.5420272, 23.100, 10:18:49.363, 18, 0.00, 0.21, 97, -0.600, -0.700, -92.000, 707, 100, 97, 22, 23319, -19404, 5289, 5453, 13, 14, 1528823929.364, 6, 0, 1024, 1024, 1024, 1024, 0, 6, 3901, 3854, 3866, 3868, 3903, 3889, 0, 1, 13300, -89.900, 0.000, -93.400, 0.000, 0.000, -2.900, 0.0, , , , , , 97, , , 25, 25, 25
37.3533269, -119.5420273, 23.400, 10:18:49.464, 18, 0.00, 0.21, 97, -0.600, -0.700, -91.800, 707, 100, 97, 22, 23319, -19404, 5289, 5453, 13, 14, 1528823929.464, 11, 0, 1024, 1024, 1024, 1024, 0, 6, 3901, 3854, 3866, 3868, 3903, 3889, 0, 1, 13400, -89.900, 0.000, -93.400, 0.000, 0.000, -2.900, 0.0, , , , , , 97, , , 25, 25, 25
37.3533269, -119.5420273, 23.400, 10:18:49.563, 18, 0.00, 0.21, 97, -0.600, -0.700, -91.800, 707, 100, 97, 22, 23319, -19404, 5289, 5453, 13, 14, 1528823929.563, 111, 0, 1024, 1024, 1024, 1024, 0, 6, 3901, 3854, 3866, 3868, 3903, 3889, 0, 1, 13500, -89.900, 0.000, -93.400, 0.000, 0.000, -2.900, 0.0, , , , , , 97, , , 25, 25, 25
37.3533269, -119.5420273, 24.000, 10:18:49.664, 18, 0.00, 0.20, 97, -0.900, -0.400, -91.900, 707, 100, 97, 22, 23264, -19544, 5289, 5453, 13, 14, 1528823929.664, 3, 0, 1024, 1024, 1024, 1024, 0, 6, 3899, 3856, 3864, 3868, 3902, 3892, 0, 1, 13600, -89.900, 0.000, -93.400, 0.000, 0.000, -3.000, 0.0, , , , , , 97, , , 25, 25, 25
37.3533269, -119.5420274, 24.600, 10:18:49.763, 18, 0.00, 0.20, 97, -1.200, -0.200, -92.200, 707, 100, 98, 22, 23264, -19544, 5289, 5453, 13, 14, 1528823929.763, 7, 0, 1024, 1024, 1024, 1024, 0, 6, 3899, 3856, 3864, 3868, 3902, 3892, 0, 1, 13699, -89.900, 0.000, -93.400, 0.000, 0.000, -2.900, 0.0, , , , , , 97, , , 25, 25, 25
37.3533269, -119.5420274, 24.600, 10:18:49.864, 18, 0.00, 0.20, 97, -1.200, -0.200, -92.200, 707, 100, 98, 22, 23264, -19544, 5289, 5453, 13, 14, 1528823929.864, 108, 0, 1024, 1024, 1024, 1024, 0, 6, 3899, 3856, 3864, 3868, 3902, 3892, 0, 1, 13800, -89.900, 0.000, -93.400, 0.000, 0.000, -2.900, 0.0, , , , , , 97, , , 25, 25, 25
37.3533268, -119.5420275, 25.200, 10:18:49.964, 18, 0.00, 0.19, 97, -0.700, 0.100, -92.500, 707, 100, 98, 22, 23264, -19544, 5289, 5453, 13, 14, 1528823929.964, 2, 0, 1024, 1024, 1024, 1024, 0, 6, 3899, 3856, 3864, 3868, 3902, 3892, 0, 1, 13900, -89.900, 0.000, -93.400, 0.000, 0.000, -2.900, 0.0, , , , , , 97, , , 25, 25, 25
37.3533268, -119.5420275, 25.200, 10:18:50.064, 18, 0.00, 0.19, 97, -0.700, 0.100, -92.500, 707, 100, 98, 22, 23264, -19544, 5289, 5453, 13, 14, 1528823930.064, 102, 0, 1024, 1024, 1024, 1024, 0, 6, 3899, 3856, 3864, 3868, 3902, 3892, 0, 1, 14000, -89.900, 0.000, -93.400, 0.000, 0.000, -2.900, 0.0, , , , , , 97, , , 25, 25, 25
37.3533268, -119.5420275, 25.500, 10:18:50.163, 18, 0.00, 0.19, 97, -0.300, 0.200, -92.500, 707, 100, 98, 22, 23264, -19544, 5289, 5453, 13, 14, 1528823930.163, 71, 0, 1024, 1024, 1024, 1024, 0, 6, 3899, 3856, 3864, 3868, 3902, 3892, 0, 1, 14099, -89.900, 0.000, -93.400, 0.000, 0.000, -2.900, 0.0, , , , , , 97, , , 25, 25, 25
37.3533267, -119.5420276, 25.800, 10:18:50.264, 18, 0.00, 0.19, 97, -0.100, 0.000, -92.500, 707, 100, 100, 22, 23264, -19544, 5289, 5453, 13, 14, 1528823930.264, 77, 0, 1024, 1024, 1024, 1024, 0, 6, 3899, 3856, 3864, 3868, 3902, 3892, 0, 1, 14200, -89.900, 0.000, -93.400, 0.000, 0.000, -3.000, 0.0, , , , , , 97, , , 25, 25, 25
37.3533267, -119.5420276, 26.100, 10:18:50.364, 18, 0.00, 0.19, 97, 0.000, -0.200, -92.500, 707, 100, 100, 22, 23264, -19544, 5289, 5453, 13, 14, 1528823930.364, 96, 0, 1024, 1024, 1024, 1024, 0, 6, 3899, 3856, 3864, 3868, 3902, 3892, 0, 1, 14300, -89.900, 0.000, -93.400, 0.000, 0.000, -3.100, 0.0, , , , , , 97, , , 25, 25, 25
37.3533267, -119.5420276, 26.400, 10:18:50.464, 18, 0.00, 0.19, 97, -0.200, -0.300, -92.300, 707, 100, 100, 22, 23264, -19544, 5289, 5453, 13, 14, 1528823930.464, 73, 0, 1024, 1024, 1024, 1024, 0, 6, 3899, 3856, 3864, 3868, 3902, 3892, 0, 1, 14400, -89.900, 0.000, -93.400, 0.000, 0.000, -3.000, 0.0, , , , , , 97, , , 25, 25, 25
37.3533267, -119.5420277, 26.700, 10:18:50.563, 18, 0.00, 0.18, 97, -0.400, -0.100, -92.100, 707, 100, 100, 22, 23264, -19544, 5289, 5453, 13, 14, 1528823930.563, 61, 0, 1024, 1024, 1024, 1024, 0, 6, 3899, 3856, 3864, 3868, 3902, 3892, 0, 1, 14499, -89.900, 0.000, -93.400, 0.000, 0.000, -3.000, 0.0, , , , , , 97, , , 25, 25, 25
37.3533267, -119.5420277, 27.000, 10:18:50.664, 18, 0.00, 0.18, 97, -0.400, 0.200, -91.900, 707, 100, 100, 22, 23253, -19098, 5289, 5453, 13, 14, 1528823930.664, 75, 0, 1024, 1024, 1024, 1024, 0, 6, 3899, 3856, 3864, 3868, 3902, 3892, 0, 1, 14600, -89.900, 0.000, -93.400, 0.000, 0.000, -3.000, 0.0, , , , , , 97, , , 25, 25, 25
37.3533267, -119.5420278, 27.300, 10:18:50.764, 18, 0.00, 0.18, 97, -0.300, 0.200, -91.800, 707, 100, 100, 22, 23253, -19098, 5289, 5453, 13, 14, 1528823930.764, 78, 0, 1024, 1024, 1024, 1024, 0, 6, 3899, 3856, 3864, 3868, 3902, 3892, 0, 1, 14700, -89.900, 0.000, -93.400, 0.000, 0.000, -3.000, 0.0, , , , , , 97, , , 25, 25, 25
37.3533267, -119.5420278, 27.300, 10:18:50.864, 18, 0.00, 0.18, 97, -0.300, 0.200, -91.800, 707, 100, 100, 22, 23253, -19098, 5289, 5453, 13, 14, 1528823930.864, 178, 0, 1024, 1024, 1024, 1024, 0, 6, 3899, 3856, 3864, 3868, 3902, 3892, 0, 1, 14800, -89.900, 0.000, -93.400, 0.000, 0.000, -3.000, 0.0, , , , , , 97, , , 25, 25, 25
37.3533266, -119.5420279, 27.900, 10:18:50.964, 18, 0.00, 0.17, 97, -0.300, 0.100, -91.800, 707, 100, 100, 22, 23253, -19098, 5289, 5453, 13, 14, 1528823930.964, 39, 0, 1024, 1024, 1024, 1024, 0, 6, 3899, 3856, 3864, 3868, 3902, 3892, 0, 1, 14900, -89.900, 0.000, -93.400, 0.000, 0.000, -3.000, 0.0, , , , , , 97, , , 25, 25, 25
37.3533266, -119.5420279, 28.200, 10:18:51.064, 18, 0.00, 0.17, 97, -0.400, 0.100, -91.900, 707, 100, 100, 22, 23253, -19098, 5289, 5453, 13, 14, 1528823931.064, 67, 0, 1024, 1024, 1024, 1024, 0, 6, 3899, 3856, 3864, 3868, 3902, 3892, 0, 1, 15000, -89.900, 0.000, -93.400, 0.000, 0.000, -3.000, 0.0, , , , , , 97, , , 25, 25, 25
37.3533266, -119.5420280, 28.500, 10:18:51.164, 18, 0.00, 0.17, 97, -0.400, 0.100, -92.100, 707, 100, 100, 22, 23253, -19098, 5289, 5453, 13, 14, 1528823931.164, 58, 0, 1024, 1024, 1024, 1024, 0, 6, 3899, 3858, 3861, 3866, 3901, 3889, 0, 1, 15100, -89.900, 0.000, -93.400, 0.000, 0.000, -2.900, 0.0, , , , , , 97, , , 25, 25, 25
37.3533266, -119.5420280, 28.800, 10:18:51.264, 18, 0.00, 0.16, 97, -0.400, 0.200, -92.200, 707, 100, 98, 22, 23253, -19098, 5289, 5453, 13, 14, 1528823931.264, 38, 0, 1024, 1024, 1024, 1024, 0, 6, 3899, 3858, 3861, 3866, 3901, 3889, 0, 1, 15200, -89.900, 0.000, -93.400, 0.000, 0.000, -3.000, 0.0, , , , , , 97, , , 25, 25, 25
37.3533266, -119.5420280, 28.800, 10:18:51.363, 18, 0.00, 0.16, 97, -0.400, 0.200, -92.200, 707, 100, 98, 22, 23253, -19098, 5289, 5453, 13, 14, 1528823931.363, 137, 0, 1024, 1024, 1024, 1024, 0, 6, 3899, 3858, 3861, 3866, 3901, 3889, 0, 1, 15299, -89.900, 0.000, -93.400, 0.000, 0.000, -3.000, 0.0, , , , , , 97, , , 25, 25, 25
37.3533266, -119.5420281, 29.500, 10:18:51.464, 18, 0.00, 0.16, 97, -0.800, 0.100, -92.400, 707, 100, 98, 22, 23253, -19098, 5289, 5453, 13, 14, 1528823931.464, 55, 0, 1024, 1024, 1024, 1024, 0, 6, 3899, 3858, 3861, 3866, 3901, 3889, 0, 1, 15400, -89.900, 0.000, -93.400, 0.000, 0.000, -3.000, 0.0, , , , , , 97, , , 25, 25, 25
37.3533266, -119.5420281, 29.500, 10:18:51.564, 18, 0.00, 0.16, 97, -0.800, 0.100, -92.400, 707, 100, 98, 22, 23253, -19098, 5289, 5453, 13, 14, 1528823931.564, 155, 0, 1024, 1024, 1024, 1024, 0, 6, 3899, 3858, 3861, 3866, 3901, 3889, 0, 1, 15500, -89.900, 0.000, -93.400, 0.000, 0.000, -3.000, 0.0, , , , , , 97, , , 25, 25, 25
37.3533266, -119.5420281, 30.100, 10:18:51.663, 18, 0.00, 0.15, 97, -0.500, 0.000, -92.500, 707, 100, 95, 22, 23253, -19098, 5289, 5453, 13, 14, 1528823931.663, 37, 0, 1024, 1024, 1024, 1024, 0, 6, 3899, 3858, 3861, 3866, 3901, 3889, 0, 1, 15599, -89.900, 0.000, -93.400, 0.000, 0.000, -2.900, 0.0, , , , , , 97, , , 25, 25, 25
37.3533266, -119.5420282, 30.400, 10:18:51.764, 18, 0.00, 0.15, 97, -0.400, 0.300, -92.600, 707, 100, 95, 22, 23253, -19098, 5289, 5453, 13, 14, 1528823931.764, 26, 0, 1024, 1024, 1024, 1024, 0, 6, 3899, 3858, 3861, 3866, 3901, 3889, 0, 1, 15700, -89.900, 0.000, -93.400, 0.000, 0.000, -2.900, 0.0, , , , , , 97, , , 25, 25, 25
37.3533266, -119.5420282, 30.700, 10:18:51.864, 18, 0.00, 0.15, 97, -0.600, 0.400, -92.600, 707, 100, 95, 22, 23253, -19098, 5289, 5453, 13, 14, 1528823931.864, 29, 0, 1024, 1024, 1024, 1024, 0, 6, 3899, 3858, 3861, 3866, 3901, 3889, 0, 1, 15800, -89.900, 0.000, -93.400, 0.000, 0.000, -3.000, 0.0, , , , , , 97, , , 25, 25, 25
37.3533265, -119.5420282, 31.000, 10:18:51.964, 18, 0.00, 0.15, 97, -0.600, 0.500, -92.600, 707, 100, 95, 22, 23253, -19098, 5289, 5453, 13, 14, 1528823931.964, 20, 0, 1024, 1024, 1024, 1024, 0, 6, 3899, 3858, 3861, 3866, 3901, 3889, 0, 1, 15900, -89.900, 0.000, -93.400, 0.000, 0.000, -3.000, 0.0, , , , , , 97, , , 25, 25, 25
37.3533265, -119.5420283, 31.300, 10:18:52.063, 18, 0.00, 0.15, 97, -0.600, 0.500, -92.500, 707, 100, 95, 22, 23294, -18665, 5289, 5453, 13, 14, 1528823932.063, 2, 0, 1024, 1024, 1024, 1024, 0, 6, 3899, 3874, 3860, 3870, 3904, 3903, 0, 1, 15999, -89.900, 0.000, -93.400, 0.000, 0.000, -3.000, 0.0, , , , , , 97, , , 25, 25, 25
37.3533265, -119.5420283, 31.600, 10:18:52.166, 18, 0.00, 0.15, 97, -0.500, 0.500, -92.500, 707, 100, 95, 22, 23294, -18665, 5289, 5453, 13, 14, 1528823932.166, 4, 0, 1024, 1024, 1024, 1024, 0, 6, 3899, 3874, 3860, 3870, 3904, 3903, 0, 1, 16102, -89.900, 0.000, -93.400, 0.000, 0.000, -2.900, 0.0, , , , , , 97, , , 25, 25, 25
37.3533265, -119.5420283, 31.600, 10:18:52.264, 18, 0.00, 0.15, 97, -0.500, 0.500, -92.500, 707, 100, 91, 22, 23294, -18665, 5289, 5453, 13, 14, 1528823932.264, 102, 0, 1024, 1024, 1024, 1024, 0, 6, 3899, 3874, 3860, 3870, 3904, 3903, 0, 1, 16200, -89.900, 0.000, -93.400, 0.000, 0.000, -2.900, 0.0, , , , , , 97, , , 25, 25, 25
37.3533265, -119.5420283, 32.200, 10:18:52.364, 18, 0.00, 0.14, 97, -0.700, 0.200, -92.400, 707, 100, 91, 22, 23294, -18665, 5289, 5453, 13, 14, 1528823932.364, 7, 0, 1024, 1024, 1024, 1024, 0, 6, 3899, 3874, 3860, 3870, 3904, 3903, 0, 1, 16300, -89.900, 0.000, -93.400, 0.000, 0.000, -2.900, 0.0, , , , , , 97, , , 25, 25, 25
37.3533265, -119.5420284, 32.700, 10:18:52.470, 18, 0.00, 0.14, 97, -0.300, 0.000, -92.600, 707, 100, 91, 22, 23294, -18665, 5289, 5453, 13, 14, 1528823932.470, 2, 0, 1024, 1024, 1024, 1024, 0, 6, 3899, 3874, 3860, 3870, 3904, 3903, 0, 1, 16406, -89.900, 0.000, -93.400, 0.000, 0.000, -2.800, 0.0, , , , , , 97, , , 25, 25, 25
37.3533265, -119.5420284, 33.000, 10:18:52.564, 18, 0.00, 0.14, 97, -0.200, 0.300, -92.600, 707, 100, 91, 22, 23294, -18665, 5289, 5453, 13, 14, 1528823932.564, 1, 0, 1024, 1024, 1024, 1024, 0, 6, 3899, 3874, 3860, 3870, 3904, 3903, 0, 1, 16500, -89.900, 0.000, -93.400, 0.000, 0.000, -2.800, 0.0, , , , , , 97, , , 25, 25, 25
37.3533264, -119.5420285, 33.300, 10:18:52.663, 18, 0.00, 0.14, 97, -0.200, 0.600, -92.600, 707, 100, 90, 22, 23294, -18665, 5289, 5453, 13, 14, 1528823932.664, 6, 0, 1024, 1024, 1024, 1024, 0, 6, 3899, 3874, 3860, 3870, 3904, 3903, 0, 1, 16600, -89.900, 0.000, -93.400, 0.000, 0.000, -2.800, 0.0, , , , , , 97, , , 25, 25, 25
37.3533264, -119.5420285, 33.300, 10:18:52.764, 18, 0.00, 0.14, 97, -0.200, 0.600, -92.600, 707, 100, 90, 22, 23294, -18665, 5289, 5453, 13, 14, 1528823932.764, 106, 0, 1024, 1024, 1024, 1024, 0, 6, 3899, 3874, 3860, 3870, 3904, 3903, 0, 1, 16700, -89.900, 0.000, -93.400, 0.000, 0.000, -2.800, 0.0, , , , , , 97, , , 25, 25, 25
37.3533264, -119.5420285, 33.600, 10:18:52.864, 18, 0.00, 0.14, 97, -0.200, 1.000, -92.600, 707, 100, 90, 22, 23294, -18665, 5289, 5453, 13, 14, 1528823932.864, 78, 0, 1024, 1024, 1024, 1024, 0, 6, 3899, 3874, 3860, 3870, 3904, 3903, 0, 1, 16800, -89.900, 0.000, -93.400, 0.000, 0.000, -2.900, 0.0, , , , , , 97, , , 25, 25, 25
37.3533264, -119.5420286, 33.900, 10:18:52.963, 18, 0.00, 0.14, 97, 0.000, 1.300, -92.600, 707, 100, 90, 22, 23294, -18665, 5289, 5453, 13, 14, 1528823932.963, 72, 0, 1024, 1024, 1024, 1024, 0, 6, 3899, 3874, 3860, 3870, 3904, 3903, 0, 1, 16899, -89.900, 0.000, -93.400, 0.000, 0.000, -2.800, 0.0, , , , , , 97, , , 25, 25, 25
37.3533263, -119.5420286, 34.100, 10:18:53.063, 18, 0.00, 0.14, 97, 0.000, 1.500, -92.700, 707, 100, 90, 22, 23294, -18665, 5289, 5453, 13, 14, 1528823933.064, 62, 0, 1024, 1024, 1024, 1024, 0, 6, 3899, 3874, 3860, 3870, 3904, 3903, 0, 1, 17000, -89.900, 0.000, -93.400, 0.000, 0.000, -2.800, 0.0, , , , , , 97, , , 25, 25, 25
37.3533263, -119.5420286, 34.400, 10:18:53.163, 18, 0.00, 0.14, 97, 0.000, 1.400, -92.700, 707, 100, 90, 22, 23316, -17840, 5289, 5453, 13, 14, 1528823933.164, 40, 0, 1024, 1024, 1024, 1024, 0, 6, 3905, 3877, 3863, 3876, 3905, 3908, 0, 1, 17100, -89.900, 0.000, -93.400, 0.000, 0.000, -2.900, 0.0, , , , , , 97, , , 25, 25, 25
37.3533263, -119.5420286, 34.700, 10:18:53.263, 18, 0.00, 0.14, 97, 0.000, 1.100, -92.800, 707, 100, 95, 22, 23316, -17840, 5289, 5453, 13, 14, 1528823933.264, 67, 0, 1024, 1024, 1024, 1024, 0, 6, 3905, 3877, 3863, 3876, 3905, 3908, 0, 1, 17200, -89.900, 0.000, -93.400, 0.000, 0.000, -3.000, 0.0, , , , , , 97, , , 25, 25, 25
37.3533263, -119.5420286, 35.100, 10:18:53.363, 18, 0.00, 0.15, 97, 0.000, 0.700, -92.800, 707, 100, 95, 22, 23316, -17840, 5289, 5453, 13, 14, 1528823933.364, 57, 0, 1024, 1024, 1024, 1024, 0, 6, 3905, 3877, 3863, 3876, 3905, 3908, 0, 1, 17300, -89.900, 0.000, -93.400, 0.000, 0.000, -3.000, 0.0, , , , , , 97, , , 25, 25, 25
37.3533263, -119.5420286, 35.400, 10:18:53.463, 18, 0.00, 0.15, 97, 0.000, 0.500, -92.800, 707, 100, 95, 22, 23316, -17840, 5289, 5453, 13, 14, 1528823933.463, 60, 0, 1024, 1024, 1024, 1024, 0, 6, 3905, 3877, 3863, 3876, 3905, 3908, 0, 1, 17399, -89.900, 0.000, -93.400, 0.000, 0.000, -3.000, 0.0, , , , , , 97, , , 25, 25, 25
37.3533263, -119.5420286, 35.700, 10:18:53.563, 18, 0.00, 0.15, 97, -0.100, 0.500, -92.800, 707, 100, 95, 22, 23316, -17840, 5289, 5453, 13, 14, 1528823933.563, 28, 0, 1024, 1024, 1024, 1024, 0, 6, 3905, 3877, 3863, 3876, 3905, 3908, 0, 1, 17499, -89.900, 0.000, -93.400, 0.000, 0.000, -3.000, 0.0, , , , , , 97, , , 25, 25, 25
37.3533262, -119.5420286, 36.000, 10:18:53.663, 18, 0.00, 0.15, 97, -0.100, 0.500, -92.800, 707, 100, 95, 22, 23316, -17840, 5289, 5453, 13, 14, 1528823933.663, 54, 0, 1024, 1024, 1024, 1024, 0, 6, 3905, 3877, 3863, 3876, 3905, 3908, 0, 1, 17599, -89.900, 0.000, -93.400, 0.000, 0.000, -3.000, 0.0, , , , , , 97, , , 25, 25, 25
37.3533262, -119.5420285, 36.300, 10:18:53.763, 18, 0.00, 0.16, 97, 0.000, 0.600, -92.700, 707, 100, 95, 22, 23316, -17840, 5289, 5453, 13, 14, 1528823933.764, 44, 0, 1024, 1024, 1024, 1024, 0, 6, 3905, 3877, 3863, 3876, 3905, 3908, 0, 1, 17700, -89.900, 0.000, -93.400, 0.000, 0.000, -2.900, 0.0, , , , , , 97, , , 25, 25, 25
37.3533262, -119.5420285, 36.600, 10:18:53.863, 18, 0.00, 0.16, 97, 0.000, 0.400, -92.700, 707, 100, 95, 22, 23316, -17840, 5289, 5453, 13, 14, 1528823933.864, 32, 0, 1024, 1024, 1024, 1024, 0, 6, 3905, 3877, 3863, 3876, 3905, 3908, 0, 1, 17800, -89.900, 0.000, -93.400, 0.000, 0.000, -2.900, 0.0, , , , , , 97, , , 25, 25, 25
37.3533262, -119.5420284, 36.900, 10:18:53.963, 18, 0.00, 0.16, 97, 0.200, 0.100, -92.600, 707, 100, 95, 22, 23316, -17840, 5289, 5453, 13, 14, 1528823933.964, 21, 0, 1024, 1024, 1024, 1024, 0, 6, 3905, 3877, 3863, 3876, 3905, 3908, 0, 1, 17900, -89.900, 0.000, -93.400, 0.000, 0.000, -3.000, 0.0, , , , , , 97, , , 25, 25, 25
37.3533262, -119.5420284, 37.200, 10:18:54.063, 18, 0.00, 0.17, 96, 0.100, 0.200, -92.400, 707, 100, 95, 22, 23199, -19279, 5234, 5453, 13, 14, 1528823934.064, 27, 0, 1024, 1024, 1024, 1024, 0, 6, 3905, 3877, 3863, 3876, 3905, 3908, 0, 1, 18000, -89.900, 0.000, -93.400, 0.000, 0.000, -2.900, 0.0, , , , , , 97, , , 25, 25, 25
37.3533262, -119.5420284, 37.500, 10:18:54.163, 18, 0.00, 0.17, 96, 0.000, 0.200, -92.300, 707, 100, 95, 22, 23199, -19279, 5234, 5453, 13, 14, 1528823934.164, 18, 0, 1024, 1024, 1024, 1024, 0, 6, 3876, 3854, 3836, 3845, 3881, 3880, 0, 1, 18100, -89.900, 0.000, -93.400, 0.000, 0.000, -2.900, 0.0, , , , , , 97, , , 25, 25, 25
37.3533262, -119.5420283, 37.800, 10:18:54.263, 18, 0.00, 0.17, 96, 0.000, 0.200, -92.200, 707, 100, 95, 22, 23199, -19279, 5234, 5453, 13, 14, 1528823934.264, 8, 0, 1024, 1024, 1024, 1024, 0, 6, 3876, 3854, 3836, 3845, 3881, 3880, 0, 1, 18200, -89.900, 0.000, -93.400, 0.000, 0.000, -3.000, 0.0, , , , , , 97, , , 25, 25, 25
37.3533262, -119.5420283, 38.100, 10:18:54.363, 18, 0.00, 0.17, 96, -0.200, 0.100, -92.200, 707, 100, 95, 22, 23199, -19279, 5234, 5453, 13, 14, 1528823934.364, 8, 0, 1024, 1024, 1024, 1024, 0, 6, 3876, 3854, 3836, 3845, 3881, 3880, 0, 1, 18300, -89.900, 0.000, -93.400, 0.000, 0.000, -3.000, 0.0, , , , , , 97, , , 25, 25, 25
37.3533263, -119.5420283, 38.400, 10:18:54.463, 18, 0.00, 0.17, 96, -0.400, 0.200, -92.200, 707, 100, 95, 22, 23199, -19279, 5234, 5453, 13, 14, 1528823934.463, 1, 0, 1024, 1024, 1024, 1024, 0, 6, 3876, 3854, 3836, 3845, 3881, 3880, 0, 1, 18399, -89.900, 0.000, -93.400, 0.000, 0.000, -3.000, 0.0, , , , , , 97, , , 25, 25, 25
37.3533263, -119.5420283, 38.400, 10:18:54.563, 18, 0.00, 0.17, 96, -0.400, 0.200, -92.200, 707, 100, 95, 22, 23199, -19279, 5234, 5453, 13, 14, 1528823934.563, 101, 0, 1024, 1024, 1024, 1024, 0, 6, 3876, 3854, 3836, 3845, 3881, 3880, 0, 1, 18499, -89.900, 0.000, -93.400, 0.000, 0.000, -3.000, 0.0, , , , , , 97, , , 25, 25, 25
37.3533263, -119.5420283, 38.700, 10:18:54.662, 18, 0.00, 0.16, 96, -0.400, 0.300, -92.100, 707, 100, 95, 22, 23199, -19279, 5234, 5453, 13, 14, 1528823934.663, 87, 0, 1024, 1024, 1024, 1024, 0, 6, 3876, 3854, 3836, 3845, 3881, 3880, 0, 1, 18599, -89.900, 0.000, -93.400, 0.000, 0.000, -3.000, 0.0, , , , , , 97, , , 25, 25, 25
37.3533264, -119.5420283, 39.700, 10:18:54.763, 18, 0.00, 0.15, 96, -0.700, 0.800, -91.800, 707, 100, 94, 22, 23199, -19279, 5234, 5453, 13, 14, 1528823934.764, 3, 0, 1024, 1024, 1024, 1024, 0, 6, 3876, 3854, 3836, 3845, 3881, 3880, 0, 1, 18700, -89.900, 0.000, -93.400, 0.000, 0.000, -3.000, 0.0, , , , , , 97, , , 25, 25, 25
37.3533264, -119.5420283, 40.000, 10:18:54.863, 18, 0.00, 0.15, 96, -0.800, 1.000, -92.000, 707, 100, 94, 22, 23199, -19279, 5234, 5453, 13, 14, 1528823934.864, 6, 0, 1024, 1024, 1024, 1024, 0, 6, 3876, 3854, 3836, 3845, 3881, 3880, 0, 1, 18800, -89.900, 0.000, -93.400, 0.000, 0.000, -2.900, 0.0, , , , , , 97, , , 25, 25, 25
37.3533264, -119.5420283, 40.000, 10:18:54.963, 18, 0.00, 0.15, 96, -0.800, 1.000, -92.000, 707, 100, 94, 22, 23199, -19279, 5234, 5453, 13, 14, 1528823934.964, 106, 0, 1024, 1024, 1024, 1024, 0, 6, 3876, 3854, 3836, 3845, 3881, 3880, 0, 1, 18900, -89.900, 0.000, -93.400, 0.000, 0.000, -2.900, 0.0, , , , , , 97, , , 25, 25, 25
37.3533265, -119.5420283, 40.300, 10:18:55.063, 18, 0.00, 0.15, 96, -0.800, 1.000, -92.200, 707, 100, 94, 22, 23199, -19279, 5234, 5453, 13, 14, 1528823935.064, 95, 0, 1024, 1024, 1024, 1024, 0, 6, 3876, 3854, 3836, 3845, 3881, 3880, 0, 1, 19000, -89.900, 0.000, -93.400, 0.000, 0.000, -2.900, 0.0, , , , , , 97, , , 25, 25, 25
37.3533265, -119.5420283, 40.600, 10:18:55.163, 18, 0.00, 0.15, 96, -0.700, 0.700, -92.300, 707, 100, 94, 23, 23168, -19252, 5234, 5453, 13, 14, 1528823935.164, 75, 0, 1024, 1024, 1024, 1024, 0, 6, 3885, 3840, 3841, 3852, 3888, 3863, 0, 1, 19100, -89.900, 0.000, -93.400, 0.000, 0.000, -2.900, 0.0, , , , , , 97, , , 25, 25, 25
37.3533265, -119.5420282, 40.900, 10:18:55.263, 18, 0.00, 0.15, 96, -0.600, 0.400, -92.400, 707, 100, 96, 23, 23168, -19252, 5234, 5453, 13, 14, 1528823935.264, 68, 0, 1024, 1024, 1024, 1024, 0, 6, 3885, 3840, 3841, 3852, 3888, 3863, 0, 1, 19200, -89.900, 0.000, -93.400, 0.000, 0.000, -3.000, 0.0, , , , , , 97, , , 25, 25, 25
37.3533265, -119.5420282, 41.200, 10:18:55.363, 18, 0.00, 0.16, 96, -0.400, 0.300, -92.400, 707, 100, 96, 23, 23168, -19252, 5234, 5453, 13, 14, 1528823935.364, 72, 0, 1024, 1024, 1024, 1024, 0, 6, 3885, 3840, 3841, 3852, 3888, 3863, 0, 1, 19300, -90.000, 0.000, -93.400, 0.000, 0.000, -2.900, 0.0, , , , , , 97, , , 25, 25, 25
37.3533264, -119.5420282, 41.500, 10:18:55.463, 18, 0.00, 0.16, 96, -0.100, 0.200, -92.400, 707, 100, 96, 23, 23168, -19252, 5234, 5453, 13, 14, 1528823935.463, 61, 0, 1024, 1024, 1024, 1024, 0, 6, 3885, 3840, 3841, 3852, 3888, 3863, 0, 1, 19399, -90.000, 0.000, -93.400, 0.000, 0.000, -2.900, 0.0, , , , , , 97, , , 25, 25, 25
37.3533264, -119.5420282, 41.800, 10:18:55.563, 18, 0.00, 0.16, 96, 0.300, 0.300, -92.600, 707, 100, 96, 23, 23168, -19252, 5234, 5453, 13, 14, 1528823935.564, 68, 0, 1024, 1024, 1024, 1024, 0, 6, 3885, 3840, 3841, 3852, 3888, 3863, 0, 1, 19500, -90.000, 0.000, -93.400, 0.000, 0.000, -2.900, 0.0, , , , , , 97, , , 25, 25, 25
37.3533264, -119.5420282, 42.100, 10:18:55.663, 18, 0.00, 0.16, 96, 0.500, 0.400, -92.800, 707, 100, 96, 23, 23168, -19252, 5234, 5453, 13, 14, 1528823935.664, 69, 0, 1024, 1024, 1024, 1024, 0, 6, 3885, 3840, 3841, 3852, 3888, 3863, 0, 1, 19600, -89.900, 0.000, -93.400, 0.000, 0.000, -2.900, 0.0, , , , , , 97, , , 25, 25, 25
37.3533264, -119.5420282, 42.400, 10:18:55.763, 18, 0.00, 0.16, 96, 0.400, 0.500, -92.900, 707, 100, 98, 23, 23168, -19252, 5234, 5453, 13, 14, 1528823935.764, 48, 0, 1024, 1024, 1024, 1024, 0, 6, 3885, 3840, 3841, 3852, 3888, 3863, 0, 1, 19700, -89.900, 0.000, -93.400, 0.000, 0.000, -2.800, 0.0, , , , , , 97, , , 25, 25, 25
37.3533264, -119.5420282, 42.600, 10:18:55.863, 18, 0.00, 0.16, 96, 0.100, 0.400, -93.000, 707, 100, 98, 23, 23168, -19252, 5234, 5453, 13, 14, 1528823935.863, 39, 0, 1024, 1024, 1024, 1024, 0, 6, 3885, 3840, 3841, 3852, 3888, 3863, 0, 1, 19799, -89.900, 0.000, -93.400, 0.000, 0.000, -2.800, 0.0, , , , , , 97, , , 25, 25, 25
37.3533264, -119.5420282, 42.600, 10:18:55.963, 18, 0.00, 0.16, 96, 0.100, 0.400, -93.000, 707, 100, 98, 23, 23168, -19252, 5234, 5453, 13, 14, 1528823935.964, 139, 0, 1024, 1024, 1024, 1024, 0, 6, 3885, 3840, 3841, 3852, 3888, 3863, 0, 1, 19900, -89.900, 0.000, -93.400, 0.000, 0.000, -2.800, 0.0, , , , , , 97, , , 25, 25, 25
37.3533265, -119.5420282, 43.200, 10:18:56.063, 18, 0.00, 0.16, 96, -0.300, 0.600, -92.900, 707, 100, 98, 23, 23168, -19252, 5234, 5453, 13, 14, 1528823936.063, 23, 0, 1024, 1024, 1024, 1024, 0, 6, 3885, 3840, 3841, 3852, 3888, 3863, 0, 1, 20000, -89.900, 0.000, -93.400, 0.000, 0.000, -2.900, 0.0, , , , , , 97, , , 25, 25, 25
37.3533265, -119.5420283, 43.500, 10:18:56.163, 18, 0.00, 0.15, 96, -0.600, 0.900, -92.700, 707, 100, 98, 23, 23206, -18337, 5234, 5453, 13, 14, 1528823936.163, 40, 0, 1024, 1024, 1024, 1024, 0, 6, 3885, 3840, 3841, 3852, 3888, 3863, 0, 1, 20100, -89.900, 0.000, -93.400, 0.000, 0.000, -2.900, 0.0, , , , , , 97, , , 25, 25, 25
37.3533266, -119.5420283, 43.800, 10:18:56.263, 18, 0.00, 0.14, 96, -0.800, 1.100, -92.500, 707, 100, 98, 23, 23206, -18337, 5234, 5453, 13, 14, 1528823936.263, 17, 0, 1024, 1024, 1024, 1024, 0, 6, 3885, 3840, 3841, 3852, 3888, 3863, 0, 1, 20199, -89.900, 0.000, -93.400, 0.000, 0.000, -2.900, 0.0, , , , , , 97, , , 25, 25, 25
37.3533266, -119.5420283, 44.100, 10:18:56.363, 18, 0.00, 0.14, 96, -0.900, 1.200, -92.300, 707, 100, 98, 23, 23206, -18337, 5234, 5453, 13, 14, 1528823936.363, 38, 0, 1024, 1024, 1024, 1024, 0, 6, 3885, 3840, 3841, 3852, 3888, 3863, 0, 1, 20299, -89.900, 0.000, -93.400, 0.000, 0.000, -2.900, 0.0, , , , , , 97, , , 25, 25, 25
37.3533266, -119.5420284, 44.400, 10:18:56.463, 18, 0.00, 0.14, 96, -0.800, 1.100, -92.200, 707, 100, 98, 23, 23206, -18337, 5234, 5453, 13, 14, 1528823936.464, 17, 0, 1024, 1024, 1024, 1024, 0, 6, 3885, 3840, 3841, 3852, 3888, 3863, 0, 1, 20400, -89.900, 0.000, -93.400, 0.000, 0.000, -2.900, 0.0, , , , , , 97, , , 25, 25, 25
37.3533266, -119.5420284, 44.700, 10:18:56.563, 18, 0.00, 0.13, 96, -0.800, 1.200, -92.200, 707, 100, 98, 23, 23206, -18337, 5234, 5453, 13, 14, 1528823936.564, 19, 0, 1024, 1024, 1024, 1024, 0, 6, 3876, 3845, 3847, 3860, 3892, 3887, 0, 1, 20500, -89.900, 0.000, -93.400, 0.000, 0.000, -2.900, 0.0, , , , , , 97, , , 25, 25, 25
37.3533266, -119.5420284, 45.000, 10:18:56.663, 18, 0.00, 0.13, 96, -1.000, 1.100, -92.300, 707, 100, 97, 23, 23206, -18337, 5234, 5453, 13, 14, 1528823936.663, 10, 0, 1024, 1024, 1024, 1024, 0, 6, 3876, 3845, 3847, 3860, 3892, 3887, 0, 1, 20600, -89.900, 0.000, -93.400, 0.000, 0.000, -3.000, 0.0, , , , , , 97, , , 25, 25, 25
37.3533266, -119.5420284, 45.000, 10:18:56.763, 18, 0.00, 0.13, 96, -1.000, 1.100, -92.300, 707, 100, 97, 23, 23206, -18337, 5234, 5453, 13, 14, 1528823936.763, 109, 0, 1024, 1024, 1024, 1024, 0, 6, 3876, 3845, 3847, 3860, 3892, 3887, 0, 1, 20700, -89.900, 0.000, -93.400, 0.000, 0.000, -3.000, 0.0, , , , , , 97, , , 25, 25, 25
37.3533266, -119.5420285, 45.900, 10:18:56.863, 18, 0.00, 0.13, 96, -0.600, 1.200, -92.400, 707, 100, 97, 23, 23206, -18337, 5234, 5453, 13, 14, 1528823936.863, 15, 0, 1024, 1024, 1024, 1024, 0, 6, 3876, 3845, 3847, 3860, 3892, 3887, 0, 1, 20800, -89.900, 0.000, -93.400, 0.000, 0.000, -2.900, 0.0, , , , , , 97, , , 25, 25, 25
37.3533266, -119.5420285, 45.900, 10:18:56.963, 18, 0.00, 0.13, 96, -0.600, 1.200, -92.400, 707, 100, 97, 23, 23206, -18337, 5234, 5453, 13, 14, 1528823936.963, 115, 0, 1024, 1024, 1024, 1024, 0, 6, 3876, 3845, 3847, 3860, 3892, 3887, 0, 1, 20899, -89.900, 0.000, -93.400, 0.000, 0.000, -2.900, 0.0, , , , , , 97, , , 25, 25, 25
