Latitude, Longitude, Altitude (m), Time, Sats, Speed (m/s), Range (m), Battery (%), Roll (deg), Pitch (deg), Yaw (deg), Images, HD Signal (%), RC Signal (%), Battery Temp (C), Battery Voltage (mV), Battery Current (mA), Battery Energy (mAh), Battery Capacity (mAh), Battery Discharges, flyState, timestamp (Unix), LastUpdate (ms), radioChannel, Rc_elevator, Rc_aileron, Rc_throttle, Rc_rudder, Rc_gyro, Dronetype, Battery_Cell1 (mV), Battery_Cell2 (mV), Battery_Cell3 (mV), Battery_Cell4 (mV), Battery_Cell5 (mV), Battery_Cell6 (mV), Video, isFlying, elapsedTime (ms), gimbalPitch (deg), gimbalRoll (deg), gimbalYaw (deg), VelocityX (m/s), VelocityY (m/s), VelocityZ (m/s), GroundSmear (cm), App Version, Aircraft Name, Aircraft Firmware, Aircraft Serial Number, Battery Serial Number, Battery Lifetime (%), App_Tip, App_Warning, CurrentFlightStartingIndex, CurrentFlightLastVisitedWaypoint, PreviousFlightEndingWaypointIndex
37.3533192, -119.5420419, 0.000, 10:39:03.187, 16, 0.00, 0.03, 97, 0.100, 0.000, -84.800, 390, 100, 100, 25, 25827, -2842, 5307, 5472, 12, 11, 1528825143.187, 33, 0, 1024, 1024, 1024, 1024, 0, 6, 4290, 4297, 4281, 4293, 4305, 4268, 0, 1, 3101, -89.900, 0.000, -86.400, 0.000, 0.000, -0.300, 0.0, MapPilot_2.8.1_04242018, Dendroctonus I, , 041DDC1887, 1058171200149, 97, DJI_0097.jpg, Starting Mission from Lat/Long: 37.35332/-119.54203 Camera: Zenmuse X3 - Overlap: 90/90 - Active Connection: No, 39, 39, 39
37.3533193, -119.5420419, 0.000, 10:39:03.287, 16, 0.00, 0.03, 97, -0.100, -0.100, -84.800, 390, 100, 100, 25, 25827, -2842, 5307, 5472, 12, 11, 1528825143.287, 59, 0, 1024, 1024, 1024, 1024, 0, 6, 4290, 4297, 4281, 4293, 4305, 4268, 0, 1, 3201, -90.000, 0.000, -86.300, 0.000, 0.000, -0.300, 0.0, , , , , , 97, , , 39, 39, 39
37.3533193, -119.5420419, 0.100, 10:39:03.387, 16, 0.00, 0.03, 97, -0.100, -0.200, -84.800, 390, 100, 100, 25, 25667, -3010, 5307, 5472, 12, 11, 1528825143.387, 61, 0, 1024, 1024, 1024, 1024, 0, 6, 4236, 4241, 4274, 4253, 4256, 4235, 0, 1, 3300, -89.900, 0.000, -86.300, 0.000, 0.000, -0.400, 0.0, , , , , , 97, , , 39, 39, 39
37.3533193, -119.5420419, 0.100, 10:39:03.487, 16, 0.00, 0.03, 97, -0.100, -0.100, -84.900, 390, 100, 100, 25, 25667, -3010, 5307, 5472, 12, 11, 1528825143.487, 66, 0, 1024, 1024, 1024, 1024, 0, 6, 4236, 4241, 4274, 4253, 4256, 4235, 0, 1, 3401, -89.900, 0.000, -86.300, 0.000, 0.000, -0.400, 0.0, , , , , , 97, , , 39, 39, 39
37.3533193, -119.5420420, 0.200, 10:39:03.587, 15, 0.00, 0.04, 97, 0.000, 0.000, -85.000, 390, 100, 100, 25, 25667, -3010, 5307, 5472, 12, 11, 1528825143.587, 48, 0, 1024, 1024, 1024, 1024, 0, 6, 4236, 4241, 4274, 4253, 4256, 4235, 0, 1, 3501, -89.900, 0.000, -86.300, 0.000, 0.000, -0.400, 0.0, , , , , , 97, , , 39, 39, 39
37.3533193, -119.5420420, 0.200, 10:39:03.687, 15, 0.00, 0.04, 97, 0.000, 0.000, -85.000, 390, 100, 100, 25, 25667, -3010, 5307, 5472, 12, 11, 1528825143.687, 38, 0, 1024, 1024, 1024, 1024, 0, 6, 4236, 4241, 4274, 4253, 4256, 4235, 0, 1, 3601, -89.900, 0.000, -86.300, 0.000, 0.000, -0.400, 0.0, , , , , , 97, , , 39, 39, 39
37.3533193, -119.5420421, 0.300, 10:39:03.787, 14, 0.00, 0.05, 97, 0.200, 0.200, -85.100, 390, 100, 100, 25, 25667, -3010, 5307, 5472, 12, 11, 1528825143.788, 45, 0, 1024, 1024, 1024, 1024, 0, 6, 4236, 4241, 4274, 4253, 4256, 4235, 0, 1, 3701, -89.900, 0.000, -86.200, 0.000, 0.000, -0.400, 0.0, , , , , , 97, , , 39, 39, 39
37.3533193, -119.5420421, 0.300, 10:39:03.887, 14, 0.00, 0.05, 97, 0.200, 0.400, -85.100, 390, 100, 100, 25, 25667, -3010, 5307, 5472, 12, 11, 1528825143.887, 27, 0, 1024, 1024, 1024, 1024, 0, 6, 4236, 4241, 4274, 4253, 4256, 4235, 0, 1, 3801, -89.900, 0.000, -86.200, 0.000, 0.000, -0.400, 0.0, , , , , , 97, , , 39, 39, 39
37.3533192, -119.5420421, 0.300, 10:39:03.987, 14, 0.00, 0.05, 97, 0.100, 0.500, -85.200, 390, 100, 100, 25, 25667, -3010, 5307, 5472, 12, 11, 1528825143.987, 22, 0, 1024, 1024, 1024, 1024, 0, 6, 4236, 4241, 4274, 4253, 4256, 4235, 0, 1, 3901, -89.900, 0.000, -86.200, 0.000, 0.000, -0.400, 0.0, , , , , , 97, , , 39, 39, 39
37.3533192, -119.5420422, 0.400, 10:39:04.090, 14, 0.00, 0.05, 97, 0.100, 0.500, -85.200, 390, 100, 100, 25, 25667, -3010, 5307, 5472, 12, 11, 1528825144.091, 29, 0, 1024, 1024, 1024, 1024, 0, 6, 4236, 4241, 4274, 4253, 4256, 4235, 0, 1, 4004, -89.900, 0.000, -86.200, 0.000, 0.000, -0.400, 0.0, , , , , , 97, , , 39, 39, 39
37.3533192, -119.5420422, 0.400, 10:39:04.187, 14, 0.00, 0.05, 97, 0.200, 0.500, -85.200, 390, 100, 100, 25, 25667, -3010, 5307, 5472, 12, 11, 1528825144.187, 32, 0, 1024, 1024, 1024, 1024, 0, 6, 4236, 4241, 4274, 4253, 4256, 4235, 0, 1, 4101, -89.900, 0.000, -86.200, 0.000, 0.000, -0.400, 0.0, , , , , , 97, , , 39, 39, 39
37.3533192, -119.5420422, 0.500, 10:39:04.287, 14, 0.00, 0.05, 97, 0.100, 0.400, -85.300, 390, 100, 100, 25, 24805, -11471, 5307, 5472, 12, 11, 1528825144.287, 25, 0, 1024, 1024, 1024, 1024, 0, 6, 4066, 4054, 4108, 4087, 4090, 4089, 0, 1, 4201, -89.900, 0.000, -86.200, 0.000, 0.000, -0.400, 0.0, , , , , , 97, , , 39, 39, 39
37.3533192, -119.5420421, 0.500, 10:39:04.387, 14, 0.00, 0.05, 97, 0.000, 0.300, -85.300, 390, 100, 100, 25, 24805, -11471, 5307, 5472, 12, 11, 1528825144.387, 17, 0, 1024, 1024, 1024, 1024, 0, 6, 4066, 4054, 4108, 4087, 4090, 4089, 0, 1, 4300, -89.900, 0.000, -86.200, 0.000, 0.000, -0.500, 0.0, , , , , , 97, , , 39, 39, 39
37.3533192, -119.5420421, 0.600, 10:39:04.487, 14, 0.00, 0.04, 97, 0.000, 0.100, -85.300, 390, 100, 100, 25, 24805, -11471, 5307, 5472, 12, 11, 1528825144.487, 21, 0, 1024, 1024, 1024, 1024, 0, 6, 4066, 4054, 4108, 4087, 4090, 4089, 0, 1, 4400, -89.900, 0.000, -86.100, 0.000, 0.000, -0.500, 0.0, , , , , , 97, , , 39, 39, 39
37.3533192, -119.5420421, 0.700, 10:39:04.587, 15, 0.00, 0.04, 97, 0.100, 0.100, -85.200, 390, 100, 100, 25, 24805, -11471, 5307, 5472, 12, 11, 1528825144.587, 14, 0, 1024, 1024, 1024, 1024, 0, 6, 4066, 4054, 4108, 4087, 4090, 4089, 0, 1, 4501, -90.000, 0.000, -86.100, 0.000, 0.000, -0.500, 0.0, , , , , , 97, , , 39, 39, 39
37.3533191, -119.5420421, 0.700, 10:39:04.689, 15, 0.00, 0.04, 97, 0.200, 0.100, -85.200, 390, 100, 100, 25, 24805, -11471, 5307, 5472, 12, 11, 1528825144.689, 4, 0, 1024, 1024, 1024, 1024, 0, 6, 4066, 4054, 4108, 4087, 4090, 4089, 0, 1, 4603, -89.900, 0.000, -86.100, 0.000, 0.000, -0.500, 0.0, , , , , , 97, , , 39, 39, 39
37.3533191, -119.5420421, 0.700, 10:39:04.787, 15, 0.00, 0.04, 97, 0.200, 0.100, -85.200, 390, 100, 100, 25, 24805, -11471, 5307, 5472, 12, 11, 1528825144.787, 102, 0, 1024, 1024, 1024, 1024, 0, 6, 4066, 4054, 4108, 4087, 4090, 4089, 0, 1, 4700, -89.900, 0.000, -86.100, 0.000, 0.000, -0.500, 0.0, , , , , , 97, , , 39, 39, 39
37.3533190, -119.5420421, 0.800, 10:39:04.887, 15, 0.00, 0.04, 97, 0.300, 0.000, -85.100, 390, 100, 100, 25, 24805, -11471, 5307, 5472, 12, 11, 1528825144.887, 88, 0, 1024, 1024, 1024, 1024, 0, 6, 4066, 4054, 4108, 4087, 4090, 4089, 0, 1, 4801, -90.000, 0.000, -86.100, 0.000, 0.000, -0.500, 0.0, , , , , , 97, , , 39, 39, 39
37.3533190, -119.5420420, 0.800, 10:39:04.987, 15, 0.00, 0.04, 97, 0.500, 0.000, -85.000, 390, 100, 100, 25, 24805, -11471, 5307, 5472, 12, 11, 1528825144.987, 92, 0, 1024, 1024, 1024, 1024, 0, 6, 4066, 4054, 4108, 4087, 4090, 4089, 0, 1, 4901, -90.000, 0.000, -86.100, 0.000, 0.000, -0.500, 0.0, , , , , , 97, , , 39, 39, 39
37.3533190, -119.5420420, 0.900, 10:39:05.087, 16, 0.00, 0.04, 97, 0.400, 0.000, -84.800, 390, 100, 100, 25, 24805, -11471, 5307, 5472, 12, 14, 1528825145.087, 87, 0, 1024, 1024, 1024, 1024, 0, 6, 4066, 4054, 4108, 4087, 4090, 4089, 0, 1, 5001, -89.900, 0.000, -86.100, 0.000, 0.000, -0.500, 0.0, , , , , , 97, , , 39, 39, 39
37.3533189, -119.5420420, 0.900, 10:39:05.186, 16, 0.00, 0.04, 97, 0.300, 0.000, -84.700, 390, 100, 100, 25, 24805, -11471, 5307, 5472, 12, 14, 1528825145.187, 82, 0, 1024, 1024, 1024, 1024, 0, 6, 4066, 4054, 4108, 4087, 4090, 4089, 0, 1, 5100, -89.900, 0.000, -86.100, 0.000, 0.000, -0.300, 0.0, , , , , , 97, , , 39, 39, 39
37.3533189, -119.5420419, 1.000, 10:39:05.287, 15, 0.00, 0.04, 97, 0.000, 0.000, -84.500, 390, 100, 100, 25, 24805, -11471, 5307, 5472, 12, 14, 1528825145.287, 93, 0, 1024, 1024, 1024, 1024, 0, 6, 4066, 4054, 4108, 4087, 4090, 4089, 0, 1, 5201, -90.000, 0.000, -86.000, 0.000, 0.000, -0.300, 0.0, , , , , , 97, , , 39, 39, 39
37.3533190, -119.5420418, 1.000, 10:39:05.387, 15, 0.00, 0.03, 97, 0.000, -0.100, -84.400, 390, 100, 100, 25, 24276, -16216, 5307, 5472, 12, 14, 1528825145.387, 79, 0, 1024, 1024, 1024, 1024, 0, 6, 4031, 4021, 4056, 4041, 4057, 4042, 0, 1, 5300, -90.000, 0.000, -86.000, 0.000, 0.000, -0.200, 0.0, , , , , , 97, , , 39, 39, 39
37.3533191, -119.5420417, 1.100, 10:39:05.486, 15, 0.00, 0.01, 97, -0.100, -0.300, -84.200, 390, 100, 100, 25, 24276, -16216, 5307, 5472, 12, 14, 1528825145.487, 81, 0, 1024, 1024, 1024, 1024, 0, 6, 4031, 4021, 4056, 4041, 4057, 4042, 0, 1, 5400, -90.000, 0.000, -86.000, 0.000, 0.000, -0.400, 0.0, , , , , , 97, , , 39, 39, 39
37.3533191, -119.5420417, 1.100, 10:39:05.587, 15, 0.00, 0.01, 97, -0.400, -0.500, -84.200, 390, 100, 100, 25, 24276, -16216, 5307, 5472, 12, 14, 1528825145.587, 54, 0, 1024, 1024, 1024, 1024, 0, 6, 4031, 4021, 4056, 4041, 4057, 4042, 0, 1, 5500, -90.000, 0.000, -86.000, 0.000, 0.000, -0.500, 0.0, , , , , , 97, , , 39, 39, 39
37.3533191, -119.5420417, 1.200, 10:39:05.687, 15, 0.00, 0.01, 97, -0.600, -0.500, -84.200, 390, 100, 100, 25, 24276, -16216, 5307, 5472, 12, 14, 1528825145.687, 56, 0, 1024, 1024, 1024, 1024, 0, 6, 4031, 4021, 4056, 4041, 4057, 4042, 0, 1, 5601, -90.000, 0.000, -86.000, 0.000, 0.000, -0.700, 0.0, , , , , , 97, , , 39, 39, 39
37.3533192, -119.5420417, 1.300, 10:39:05.787, 16, 0.00, 0.01, 97, -0.800, -0.200, -84.200, 390, 100, 100, 25, 24276, -16216, 5307, 5472, 12, 14, 1528825145.787, 42, 0, 1024, 1024, 1024, 1024, 0, 6, 4031, 4021, 4056, 4041, 4057, 4042, 0, 1, 5700, -90.000, 0.000, -85.900, 0.000, 0.000, -0.900, 0.0, , , , , , 97, , , 39, 39, 39
37.3533192, -119.5420417, 1.400, 10:39:05.887, 16, 0.00, 0.01, 97, -0.700, 0.000, -84.100, 390, 100, 99, 25, 24276, -16216, 5307, 5472, 12, 14, 1528825145.887, 59, 0, 1024, 1024, 1024, 1024, 0, 6, 4031, 4021, 4056, 4041, 4057, 4042, 0, 1, 5800, -89.900, 0.000, -85.900, 0.000, 0.000, -1.100, 0.0, , , , , , 97, , , 39, 39, 39
37.3533191, -119.5420418, 1.500, 10:39:05.987, 16, 0.00, 0.02, 97, -0.800, 0.400, -84.200, 390, 100, 99, 25, 24276, -16216, 5307, 5472, 12, 14, 1528825145.987, 52, 0, 1024, 1024, 1024, 1024, 0, 6, 4031, 4021, 4056, 4041, 4057, 4042, 0, 1, 5900, -89.900, 0.000, -85.900, 0.000, 0.000, -1.300, 0.0, , , , , , 97, , , 39, 39, 39
37.3533191, -119.5420418, 1.700, 10:39:06.087, 16, 0.00, 0.02, 97, -0.900, 0.600, -84.300, 390, 100, 99, 25, 24276, -16216, 5307, 5472, 12, 14, 1528825146.087, 31, 0, 1024, 1024, 1024, 1024, 0, 6, 4031, 4021, 4056, 4041, 4057, 4042, 0, 1, 6001, -89.900, 0.000, -85.900, 0.000, 0.000, -1.500, 0.0, , , , , , 97, , , 39, 39, 39
37.3533190, -119.5420419, 1.900, 10:39:06.187, 15, 0.00, 0.03, 97, -1.100, 0.600, -84.500, 390, 100, 99, 25, 24276, -16216, 5307, 5472, 12, 14, 1528825146.187, 32, 0, 1024, 1024, 1024, 1024, 0, 6, 4031, 4021, 4056, 4041, 4057, 4042, 0, 1, 6100, -89.900, 0.000, -85.800, 0.000, 0.000, -1.800, 0.0, , , , , , 97, , , 39, 39, 39
37.3533189, -119.5420420, 2.000, 10:39:06.287, 15, 0.00, 0.05, 97, -0.600, 0.600, -84.700, 390, 100, 99, 25, 24289, -15330, 5307, 5472, 12, 14, 1528825146.287, 32, 0, 1024, 1024, 1024, 1024, 0, 6, 4024, 4072, 4035, 4019, 4035, 4025, 0, 1, 6200, -89.900, 0.000, -85.800, 0.000, 0.000, -1.900, 0.0, , , , , , 97, , , 39, 39, 39
37.3533188, -119.5420421, 2.200, 10:39:06.387, 15, 0.00, 0.06, 97, 0.000, 0.800, -84.900, 390, 100, 99, 25, 24289, -15330, 5307, 5472, 12, 14, 1528825146.387, 11, 0, 1024, 1024, 1024, 1024, 0, 6, 4024, 4072, 4035, 4019, 4035, 4025, 0, 1, 6300, -89.900, 0.000, -85.800, 0.000, 0.000, -2.100, 0.0, , , , , , 97, , , 39, 39, 39
37.3533186, -119.5420421, 2.500, 10:39:06.487, 15, 0.00, 0.07, 97, 0.200, 0.800, -85.000, 390, 100, 99, 25, 24289, -15330, 5307, 5472, 12, 14, 1528825146.487, 6, 0, 1024, 1024, 1024, 1024, 0, 6, 4024, 4072, 4035, 4019, 4035, 4025, 0, 1, 6400, -89.900, 0.000, -85.800, 0.000, 0.000, -2.300, 0.0, , , , , , 97, , , 39, 39, 39
37.3533185, -119.5420420, 2.700, 10:39:06.587, 16, 0.00, 0.09, 97, 0.500, 0.500, -85.000, 390, 100, 99, 25, 24289, -15330, 5307, 5472, 12, 14, 1528825146.587, 22, 0, 1024, 1024, 1024, 1024, 0, 6, 4024, 4072, 4035, 4019, 4035, 4025, 0, 1, 6500, -89.900, 0.000, -85.800, 0.000, 0.000, -2.500, 0.0, , , , , , 97, , , 39, 39, 39
37.3533184, -119.5420420, 3.000, 10:39:06.687, 16, 0.00, 0.10, 97, 0.600, 0.200, -85.100, 390, 100, 99, 25, 24289, -15330, 5307, 5472, 12, 14, 1528825146.687, 16, 0, 1024, 1024, 1024, 1024, 0, 6, 4024, 4072, 4035, 4019, 4035, 4025, 0, 1, 6600, -90.000, 0.000, -85.800, 0.000, 0.000, -2.700, 0.0, , , , , , 97, , , 39, 39, 39
37.3533184, -119.5420420, 3.000, 10:39:06.786, 16, 0.00, 0.10, 97, 0.600, 0.200, -85.100, 390, 100, 99, 25, 24289, -15330, 5307, 5472, 12, 14, 1528825146.787, 115, 0, 1024, 1024, 1024, 1024, 0, 6, 4024, 4072, 4035, 4019, 4035, 4025, 0, 1, 6700, -90.000, 0.000, -85.800, 0.000, 0.000, -2.700, 0.0, , , , , , 97, , , 39, 39, 39
37.3533183, -119.5420420, 3.300, 10:39:06.887, 16, 0.00, 0.11, 97, 0.600, -0.100, -85.100, 390, 100, 99, 25, 24289, -15330, 5307, 5472, 12, 14, 1528825146.887, 96, 0, 1024, 1024, 1024, 1024, 0, 6, 4024, 4072, 4035, 4019, 4035, 4025, 0, 1, 6800, -90.000, 0.000, -85.800, 0.000, 0.000, -3.000, 0.0, , , , , , 97, , , 39, 39, 39
37.3533181, -119.5420420, 3.600, 10:39:06.987, 16, 0.00, 0.12, 97, 0.300, -0.100, -85.000, 390, 100, 99, 25, 24289, -15330, 5307, 5472, 12, 14, 1528825146.987, 98, 0, 1024, 1024, 1024, 1024, 0, 6, 4024, 4072, 4035, 4019, 4035, 4025, 0, 1, 6900, -89.900, 0.000, -85.700, 0.000, 0.000, -3.200, 0.0, , , , , , 97, , , 39, 39, 39
37.3533179, -119.5420421, 3.900, 10:39:07.087, 16, 0.00, 0.14, 97, 0.400, 0.000, -84.800, 390, 100, 99, 25, 24289, -15330, 5307, 5472, 12, 14, 1528825147.087, 92, 0, 1024, 1024, 1024, 1024, 0, 6, 4024, 4072, 4035, 4019, 4035, 4025, 0, 1, 7000, -89.900, 0.000, -85.700, 0.000, 0.000, -3.200, 0.0, , , , , , 97, , , 39, 39, 39
37.3533176, -119.5420421, 4.600, 10:39:07.187, 16, 0.00, 0.18, 97, 0.700, 0.400, -84.500, 390, 100, 99, 25, 24289, -15330, 5307, 5472, 12, 14, 1528825147.187, 57, 0, 1024, 1024, 1024, 1024, 0, 6, 4024, 4072, 4035, 4019, 4035, 4025, 0, 1, 7100, -89.900, 0.000, -85.700, 0.000, 0.000, -3.300, 0.0, , , , , , 97, , , 39, 39, 39
37.3533176, -119.5420421, 4.600, 10:39:07.287, 16, 0.00, 0.18, 97, 0.700, 0.400, -84.500, 390, 100, 99, 25, 24289, -15330, 5307, 5472, 12, 14, 1528825147.287, 157, 0, 1024, 1024, 1024, 1024, 0, 6, 4024, 4072, 4035, 4019, 4035, 4025, 0, 1, 7200, -89.900, 0.000, -85.700, 0.000, 0.000, -3.300, 0.0, , , , , , 97, , , 39, 39, 39
37.3533174, -119.5420421, 5.300, 10:39:07.387, 17, 0.00, 0.20, 97, 0.900, 0.600, -84.400, 390, 100, 99, 25, 23600, -23194, 5307, 5472, 12, 14, 1528825147.387, 62, 0, 1024, 1024, 1024, 1024, 0, 6, 4024, 4072, 4035, 4019, 4035, 4025, 0, 1, 7300, -89.900, 0.000, -85.700, 0.000, 0.000, -3.300, 0.0, , , , , , 97, , , 39, 39, 39
37.3533173, -119.5420421, 5.600, 10:39:07.487, 17, 0.00, 0.21, 97, 1.300, 0.400, -84.500, 390, 100, 100, 25, 23600, -23194, 5307, 5472, 12, 14, 1528825147.487, 63, 0, 1024, 1024, 1024, 1024, 0, 6, 4024, 4072, 4035, 4019, 4035, 4025, 0, 1, 7400, -89.900, 0.000, -85.700, 0.000, 0.000, -3.200, 0.0, , , , , , 97, , , 39, 39, 39
37.3533173, -119.5420422, 5.900, 10:39:07.587, 17, 0.00, 0.21, 97, 1.600, 0.300, -84.500, 390, 100, 100, 25, 23600, -23194, 5307, 5472, 12, 14, 1528825147.587, 68, 0, 1024, 1024, 1024, 1024, 0, 6, 4024, 4072, 4035, 4019, 4035, 4025, 0, 1, 7500, -89.900, 0.000, -85.700, 0.000, 0.000, -3.200, 0.0, , , , , , 97, , , 39, 39, 39
37.3533173, -119.5420422, 6.300, 10:39:07.687, 17, 0.00, 0.21, 97, 1.500, 0.300, -84.700, 390, 100, 100, 25, 23600, -23194, 5307, 5472, 12, 14, 1528825147.687, 62, 0, 1024, 1024, 1024, 1024, 0, 6, 4024, 4072, 4035, 4019, 4035, 4025, 0, 1, 7600, -89.900, 0.000, -85.700, 0.000, 0.000, -3.200, 0.0, , , , , , 97, , , 39, 39, 39
37.3533174, -119.5420422, 6.600, 10:39:07.787, 16, 0.00, 0.20, 97, 0.900, 0.500, -84.800, 390, 100, 100, 25, 23600, -23194, 5307, 5472, 12, 14, 1528825147.787, 65, 0, 1024, 1024, 1024, 1024, 0, 6, 3917, 3910, 3948, 3931, 3937, 3915, 0, 1, 7700, -89.900, 0.000, -85.600, 0.000, 0.000, -3.200, 0.0, , , , , , 97, , , 39, 39, 39
37.3533174, -119.5420422, 7.000, 10:39:07.887, 16, 0.10, 0.20, 97, 0.400, 0.700, -84.800, 390, 100, 100, 25, 23600, -23194, 5307, 5472, 12, 14, 1528825147.887, 42, 0, 1024, 1024, 1024, 1024, 0, 6, 3917, 3910, 3948, 3931, 3937, 3915, 0, 1, 7800, -89.900, 0.000, -85.600, 0.100, 0.000, -3.200, 0.0, , , , , , 97, , , 39, 39, 39
37.3533176, -119.5420422, 7.300, 10:39:07.986, 16, 0.10, 0.18, 97, 0.000, 0.700, -84.800, 390, 100, 100, 25, 23600, -23194, 5307, 5472, 12, 14, 1528825147.986, 30, 0, 1024, 1024, 1024, 1024, 0, 6, 3917, 3910, 3948, 3931, 3937, 3915, 0, 1, 7899, -89.900, 0.000, -85.600, 0.100, 0.000, -3.200, 0.0, , , , , , 97, , , 39, 39, 39
37.3533177, -119.5420421, 7.600, 10:39:08.087, 16, 0.10, 0.16, 97, -0.500, 0.700, -84.800, 390, 100, 100, 25, 23600, -23194, 5307, 5472, 12, 14, 1528825148.087, 21, 0, 1024, 1024, 1024, 1024, 0, 6, 3917, 3910, 3948, 3931, 3937, 3915, 0, 1, 8000, -89.900, 0.000, -85.600, 0.100, 0.000, -3.200, 0.0, , , , , , 97, , , 39, 39, 39
37.3533179, -119.5420421, 8.000, 10:39:08.187, 16, 0.10, 0.14, 97, -1.000, 0.400, -84.800, 390, 100, 100, 25, 23600, -23194, 5307, 5472, 12, 14, 1528825148.187, 39, 0, 1024, 1024, 1024, 1024, 0, 6, 3917, 3910, 3948, 3931, 3937, 3915, 0, 1, 8100, -90.000, 0.000, -85.600, 0.100, 0.000, -3.200, 0.0, , , , , , 97, , , 39, 39, 39
37.3533181, -119.5420420, 8.300, 10:39:08.287, 16, 0.10, 0.13, 97, -1.100, 0.200, -84.800, 390, 100, 100, 25, 23600, -23194, 5307, 5472, 12, 14, 1528825148.287, 39, 0, 1024, 1024, 1024, 1024, 0, 6, 3917, 3910, 3948, 3931, 3937, 3915, 0, 1, 8200, -90.000, 0.000, -85.600, 0.100, 0.000, -3.100, 0.0, , , , , , 97, , , 39, 39, 39
37.3533182, -119.5420420, 8.600, 10:39:08.387, 16, 0.10, 0.11, 97, -0.900, 0.100, -84.800, 390, 100, 100, 25, 23600, -23194, 5307, 5472, 12, 14, 1528825148.387, 28, 0, 1024, 1024, 1024, 1024, 0, 6, 3917, 3910, 3948, 3931, 3937, 3915, 0, 1, 8300, -90.000, 0.000, -85.600, 0.100, 0.000, -3.100, 0.0, , , , , , 97, , , 39, 39, 39
37.3533184, -119.5420420, 9.000, 10:39:08.487, 16, 0.10, 0.09, 97, -1.000, 0.000, -84.700, 390, 100, 100, 25, 23600, -23194, 5307, 5472, 12, 14, 1528825148.487, 29, 0, 1024, 1024, 1024, 1024, 0, 6, 3917, 3910, 3948, 3931, 3937, 3915, 0, 1, 8400, -90.000, 0.000, -85.600, 0.100, 0.000, -3.100, 0.0, , , , , , 97, , , 39, 39, 39
37.3533185, -119.5420419, 9.300, 10:39:08.587, 17, 0.10, 0.07, 97, -1.000, 0.000, -84.600, 390, 100, 100, 25, 23600, -23194, 5307, 5472, 12, 14, 1528825148.587, 29, 0, 1024, 1024, 1024, 1024, 0, 6, 3917, 3910, 3948, 3931, 3937, 3915, 0, 1, 8500, -90.000, 0.000, -85.600, 0.100, 0.000, -3.100, 0.0, , , , , , 97, , , 39, 39, 39
37.3533187, -119.5420419, 9.600, 10:39:08.687, 17, 0.10, 0.06, 97, -1.100, -0.200, -84.600, 390, 100, 100, 25, 23600, -23194, 5307, 5472, 12, 14, 1528825148.687, 10, 0, 1024, 1024, 1024, 1024, 0, 6, 3917, 3910, 3948, 3931, 3937, 3915, 0, 1, 8600, -90.000, 0.000, -85.600, 0.100, 0.000, -3.000, 0.0, , , , , , 97, , , 39, 39, 39
37.3533187, -119.5420419, 9.600, 10:39:08.787, 17, 0.10, 0.06, 97, -1.100, -0.200, -84.600, 390, 100, 100, 25, 23600, -23194, 5307, 5472, 12, 14, 1528825148.787, 110, 0, 1024, 1024, 1024, 1024, 0, 6, 3917, 3910, 3948, 3931, 3937, 3915, 0, 1, 8700, -90.000, 0.000, -85.600, 0.100, 0.000, -3.000, 0.0, , , , , , 97, , , 39, 39, 39
37.3533190, -119.5420418, 10.200, 10:39:08.887, 15, 0.00, 0.03, 97, -1.400, 0.100, -84.500, 390, 100, 100, 25, 23654, -22284, 5307, 5472, 12, 14, 1528825148.887, 14, 0, 1024, 1024, 1024, 1024, 0, 6, 3928, 3937, 3979, 3965, 3980, 3958, 0, 1, 8800, -89.900, 0.000, -85.600, 0.000, 0.000, -3.000, 0.0, , , , , , 97, , , 39, 39, 39
37.3533190, -119.5420418, 10.200, 10:39:08.987, 15, 0.00, 0.03, 97, -1.400, 0.100, -84.500, 390, 100, 100, 25, 23654, -22284, 5307, 5472, 12, 14, 1528825148.987, 114, 0, 1024, 1024, 1024, 1024, 0, 6, 3928, 3937, 3979, 3965, 3980, 3958, 0, 1, 8900, -89.900, 0.000, -85.600, 0.000, 0.000, -3.000, 0.0, , , , , , 97, , , 39, 39, 39
37.3533191, -119.5420418, 10.600, 10:39:09.087, 16, 0.00, 0.02, 97, -1.400, 0.400, -84.400, 390, 100, 100, 25, 23654, -22284, 5307, 5472, 12, 14, 1528825149.087, 89, 0, 1024, 1024, 1024, 1024, 0, 6, 3928, 3937, 3979, 3965, 3980, 3958, 0, 1, 9000, -89.900, 0.000, -85.600, 0.000, 0.000, -3.000, 0.0, , , , , , 97, , , 39, 39, 39
37.3533192, -119.5420418, 10.900, 10:39:09.187, 16, 0.00, 0.02, 97, -1.200, 0.600, -84.500, 390, 100, 100, 25, 23654, -22284, 5307, 5472, 12, 14, 1528825149.187, 70, 0, 1024, 1024, 1024, 1024, 0, 6, 3928, 3937, 3979, 3965, 3980, 3958, 0, 1, 9100, -89.900, 0.000, -85.600, 0.000, 0.000, -2.900, 0.0, , , , , , 97, , , 39, 39, 39
37.3533192, -119.5420418, 11.200, 10:39:09.287, 16, 0.00, 0.02, 97, -1.100, 0.600, -84.500, 390, 100, 100, 25, 23654, -22284, 5307, 5472, 12, 14, 1528825149.287, 93, 0, 1024, 1024, 1024, 1024, 0, 6, 3928, 3937, 3979, 3965, 3980, 3958, 0, 1, 9200, -89.900, 0.000, -85.600, 0.000, 0.000, -2.900, 0.0, , , , , , 97, , , 39, 39, 39
37.3533193, -119.5420418, 11.500, 10:39:09.386, 16, 0.00, 0.02, 97, -0.900, 0.500, -84.500, 390, 100, 100, 25, 23654, -22284, 5307, 5472, 12, 14, 1528825149.387, 86, 0, 1024, 1024, 1024, 1024, 0, 6, 3928, 3937, 3979, 3965, 3980, 3958, 0, 1, 9300, -89.900, 0.000, -85.600, 0.000, 0.000, -2.900, 0.0, , , , , , 97, , , 39, 39, 39
37.3533194, -119.5420417, 11.800, 10:39:09.487, 16, 0.00, 0.03, 97, -0.800, 0.400, -84.500, 390, 100, 100, 25, 23654, -22284, 5307, 5472, 12, 14, 1528825149.487, 87, 0, 1024, 1024, 1024, 1024, 0, 6, 3928, 3937, 3979, 3965, 3980, 3958, 0, 1, 9400, -90.000, 0.000, -85.600, 0.000, 0.000, -2.900, 0.0, , , , , , 97, , , 39, 39, 39
37.3533194, -119.5420417, 12.100, 10:39:09.587, 16, 0.00, 0.03, 97, -0.600, 0.200, -84.600, 390, 100, 100, 25, 23654, -22284, 5307, 5472, 12, 14, 1528825149.587, 75, 0, 1024, 1024, 1024, 1024, 0, 6, 3928, 3937, 3979, 3965, 3980, 3958, 0, 1, 9500, -90.000, 0.000, -85.600, 0.000, 0.000, -3.000, 0.0, , , , , , 97, , , 39, 39, 39
37.3533194, -119.5420416, 12.400, 10:39:09.687, 16, 0.00, 0.03, 97, -0.400, 0.100, -84.600, 390, 100, 100, 25, 23654, -22284, 5307, 5472, 12, 14, 1528825149.687, 82, 0, 1024, 1024, 1024, 1024, 0, 6, 3928, 3937, 3979, 3965, 3980, 3958, 0, 1, 9600, -90.000, 0.000, -85.600, 0.000, 0.000, -2.900, 0.0, , , , , , 97, , , 39, 39, 39
37.3533194, -119.5420415, 13.000, 10:39:09.787, 16, 0.00, 0.03, 97, -0.300, 0.000, -84.700, 390, 100, 100, 25, 23654, -22284, 5307, 5472, 12, 14, 1528825149.787, 86, 0, 1024, 1024, 1024, 1024, 0, 6, 3928, 3937, 3979, 3965, 3980, 3958, 0, 1, 9700, -90.000, 0.000, -85.600, 0.000, 0.000, -2.900, 0.0, , , , , , 97, , , 39, 39, 39
37.3533194, -119.5420415, 13.300, 10:39:09.887, 16, 0.00, 0.03, 97, -0.200, 0.000, -84.700, 390, 100, 100, 25, 23901, -18447, 5307, 5472, 12, 14, 1528825149.887, 74, 0, 1024, 1024, 1024, 1024, 0, 6, 3958, 3944, 4004, 3985, 3992, 3983, 0, 1, 9800, -90.000, 0.000, -85.600, 0.000, 0.000, -3.000, 0.0, , , , , , 97, , , 39, 39, 39
37.3533194, -119.5420415, 13.600, 10:39:09.987, 17, 0.00, 0.03, 97, -0.200, 0.000, -84.700, 390, 100, 100, 25, 23901, -18447, 5307, 5472, 12, 14, 1528825149.987, 56, 0, 1024, 1024, 1024, 1024, 0, 6, 3958, 3944, 4004, 3985, 3992, 3983, 0, 1, 9900, -90.000, 0.000, -85.600, 0.000, 0.000, -3.000, 0.0, , , , , , 97, , , 39, 39, 39
37.3533194, -119.5420414, 13.900, 10:39:10.087, 17, 0.00, 0.03, 97, -0.400, 0.000, -84.700, 390, 100, 100, 25, 23901, -18447, 5307, 5472, 12, 14, 1528825150.087, 31, 0, 1024, 1024, 1024, 1024, 0, 6, 3958, 3944, 4004, 3985, 3992, 3983, 0, 1, 10000, -90.000, 0.000, -85.600, 0.000, 0.000, -3.000, 0.0, , , , , , 97, , , 39, 39, 39
37.3533194, -119.5420414, 14.200, 10:39:10.187, 17, 0.00, 0.03, 97, -0.500, 0.000, -84.700, 390, 100, 100, 25, 23901, -18447, 5307, 5472, 12, 14, 1528825150.187, 44, 0, 1024, 1024, 1024, 1024, 0, 6, 3958, 3944, 4004, 3985, 3992, 3983, 0, 1, 10100, -90.000, 0.000, -85.600, 0.000, 0.000, -3.000, 0.0, , , , , , 97, , , 39, 39, 39
37.3533194, -119.5420414, 14.500, 10:39:10.287, 17, 0.00, 0.03, 97, -0.300, 0.000, -84.700, 390, 100, 100, 25, 23901, -18447, 5307, 5472, 12, 14, 1528825150.287, 52, 0, 1024, 1024, 1024, 1024, 0, 6, 3958, 3944, 4004, 3985, 3992, 3983, 0, 1, 10200, -90.000, 0.000, -85.600, 0.000, 0.000, -3.000, 0.0, , , , , , 97, , , 39, 39, 39
37.3533193, -119.5420414, 14.800, 10:39:10.387, 17, 0.00, 0.03, 97, -0.200, -0.100, -84.600, 390, 100, 100, 25, 23901, -18447, 5307, 5472, 12, 14, 1528825150.387, 57, 0, 1024, 1024, 1024, 1024, 0, 6, 3958, 3944, 4004, 3985, 3992, 3983, 0, 1, 10300, -90.000, 0.000, -85.600, 0.000, 0.000, -3.000, 0.0, , , , , , 97, , , 39, 39, 39
37.3533193, -119.5420413, 15.100, 10:39:10.487, 17, 0.00, 0.03, 97, -0.100, -0.100, -84.600, 390, 100, 100, 25, 23901, -18447, 5307, 5472, 12, 14, 1528825150.487, 57, 0, 1024, 1024, 1024, 1024, 0, 6, 3958, 3944, 4004, 3985, 3992, 3983, 0, 1, 10400, -90.000, 0.000, -85.600, 0.000, 0.000, -3.000, 0.0, , , , , , 97, , , 39, 39, 39
37.3533192, -119.5420413, 15.400, 10:39:10.586, 17, 0.00, 0.03, 97, 0.000, -0.300, -84.500, 390, 100, 100, 25, 23901, -18447, 5307, 5472, 12, 14, 1528825150.587, 54, 0, 1024, 1024, 1024, 1024, 0, 6, 3958, 3944, 4004, 3985, 3992, 3983, 0, 1, 10500, -90.000, 0.000, -85.600, 0.000, 0.000, -2.900, 0.0, , , , , , 97, , , 39, 39, 39
37.3533192, -119.5420413, 15.700, 10:39:10.686, 17, 0.00, 0.03, 97, 0.100, -0.300, -84.500, 390, 100, 100, 25, 23901, -18447, 5307, 5472, 12, 14, 1528825150.687, 31, 0, 1024, 1024, 1024, 1024, 0, 6, 3958, 3944, 4004, 3985, 3992, 3983, 0, 1, 10600, -90.000, 0.000, -85.600, 0.000, 0.000, -2.900, 0.0, , , , , , 97, , , 39, 39, 39
37.3533191, -119.5420412, 16.000, 10:39:10.787, 17, 0.00, 0.03, 97, 0.300, -0.300, -84.500, 390, 100, 100, 25, 23783, -18541, 5253, 5472, 12, 14, 1528825150.787, 10, 0, 1024, 1024, 1024, 1024, 0, 6, 3947, 3945, 3986, 3966, 3982, 3968, 0, 1, 10700, -90.000, 0.000, -85.600, 0.000, 0.000, -2.900, 0.0, , , , , , 97, , , 39, 39, 39
37.3533190, -119.5420412, 16.300, 10:39:10.887, 17, 0.00, 0.04, 97, 0.300, -0.300, -84.500, 390, 100, 100, 25, 23783, -18541, 5253, 5472, 12, 14, 1528825150.887, 27, 0, 1024, 1024, 1024, 1024, 0, 6, 3947, 3945, 3986, 3966, 3982, 3968, 0, 1, 10800, -90.000, 0.000, -85.600, 0.000, 0.000, -2.900, 0.0, , , , , , 97, , , 39, 39, 39
37.3533190, -119.5420412, 16.600, 10:39:10.987, 17, 0.00, 0.04, 97, 0.100, -0.400, -84.500, 390, 100, 100, 25, 23783, -18541, 5253, 5472, 12, 14, 1528825150.987, 32, 0, 1024, 1024, 1024, 1024, 0, 6, 3947, 3945, 3986, 3966, 3982, 3968, 0, 1, 10900, -90.000, 0.000, -85.600, 0.000, 0.000, -2.900, 0.0, , , , , , 97, , , 39, 39, 39
37.3533190, -119.5420411, 16.900, 10:39:11.087, 17, 0.00, 0.05, 97, 0.000, -0.300, -84.300, 390, 100, 100, 25, 23783, -18541, 5253, 5472, 12, 14, 1528825151.087, 24, 0, 1024, 1024, 1024, 1024, 0, 6, 3947, 3945, 3986, 3966, 3982, 3968, 0, 1, 11000, -89.900, 0.000, -85.600, 0.000, 0.000, -2.900, 0.0, , , , , , 97, , , 39, 39, 39
37.3533190, -119.5420411, 17.200, 10:39:11.187, 17, 0.00, 0.05, 97, -0.400, -0.200, -84.300, 390, 100, 100, 25, 23783, -18541, 5253, 5472, 12, 14, 1528825151.187, 26, 0, 1024, 1024, 1024, 1024, 0, 6, 3947, 3945, 3986, 3966, 3982, 3968, 0, 1, 11100, -90.000, 0.000, -85.600, 0.000, 0.000, -3.000, 0.0, , , , , , 97, , , 39, 39, 39
37.3533190, -119.5420410, 17.500, 10:39:11.287, 17, 0.00, 0.05, 96, -0.800, -0.300, -84.400, 390, 100, 100, 25, 23783, -18541, 5253, 5472, 12, 14, 1528825151.287, 18, 0, 1024, 1024, 1024, 1024, 0, 6, 3947, 3945, 3986, 3966, 3982, 3968, 0, 1, 11200, -90.000, 0.000, -85.600, 0.000, 0.000, -2.900, 0.0, , , , , , 97, , , 39, 39, 39
37.3533190, -119.5420410, 17.800, 10:39:11.387, 17, 0.00, 0.06, 96, -1.200, -0.500, -84.700, 390, 100, 96, 25, 23783, -18541, 5253, 5472, 12, 14, 1528825151.387, 7, 0, 1024, 1024, 1024, 1024, 0, 6, 3947, 3945, 3986, 3966, 3982, 3968, 0, 1, 11300, -90.000, 0.000, -85.600, 0.000, 0.000, -3.000, 0.0, , , , , , 97, , , 39, 39, 39
37.3533190, -119.5420410, 17.800, 10:39:11.487, 17, 0.00, 0.06, 96, -1.200, -0.500, -84.700, 390, 100, 96, 25, 23783, -18541, 5253, 5472, 12, 14, 1528825151.487, 107, 0, 1024, 1024, 1024, 1024, 0, 6, 3947, 3945, 3986, 3966, 3982, 3968, 0, 1, 11400, -90.000, 0.000, -85.600, 0.000, 0.000, -3.000, 0.0, , , , , , 97, , , 39, 39, 39
37.3533190, -119.5420410, 18.500, 10:39:11.586, 17, 0.00, 0.06, 96, -0.800, -0.300, -85.100, 390, 100, 96, 25, 23783, -18541, 5253, 5472, 12, 14, 1528825151.586, 16, 0, 1024, 1024, 1024, 1024, 0, 6, 3947, 3945, 3986, 3966, 3982, 3968, 0, 1, 11499, -90.000, 0.000, -85.600, 0.000, 0.000, -2.900, 0.0, , , , , , 97, , , 39, 39, 39
37.3533190, -119.5420410, 18.800, 10:39:11.686, 17, 0.00, 0.06, 96, -0.500, -0.200, -85.100, 390, 100, 96, 25, 23783, -18541, 5253, 5472, 12, 14, 1528825151.686, 16, 0, 1024, 1024, 1024, 1024, 0, 6, 3947, 3945, 3986, 3966, 3982, 3968, 0, 1, 11599, -90.000, 0.000, -85.600, 0.000, 0.000, -2.900, 0.0, , , , , , 97, , , 39, 39, 39
37.3533190, -119.5420410, 18.800, 10:39:11.787, 17, 0.00, 0.06, 96, -0.500, -0.200, -85.100, 390, 100, 96, 25, 23783, -18541, 5253, 5472, 12, 14, 1528825151.787, 117, 0, 1024, 1024, 1024, 1024, 0, 6, 3947, 3945, 3986, 3966, 3982, 3968, 0, 1, 11700, -90.000, 0.000, -85.600, 0.000, 0.000, -2.900, 0.0, , , , , , 97, , , 39, 39, 39
37.3533190, -119.5420409, 19.100, 10:39:11.887, 17, 0.00, 0.06, 96, -0.600, -0.500, -85.200, 390, 100, 96, 25, 23771, -18270, 5253, 5472, 12, 14, 1528825151.887, 95, 0, 1024, 1024, 1024, 1024, 0, 6, 3953, 3939, 3980, 3963, 3983, 3960, 0, 1, 11800, -90.000, 0.000, -85.600, 0.000, 0.000, -2.900, 0.0, , , , , , 97, , , 39, 39, 39
37.3533189, -119.5420409, 19.400, 10:39:11.987, 17, 0.00, 0.07, 96, -0.300, -0.800, -85.100, 390, 100, 96, 25, 23771, -18270, 5253, 5472, 12, 14, 1528825151.987, 87, 0, 1024, 1024, 1024, 1024, 0, 6, 3953, 3939, 3980, 3963, 3983, 3960, 0, 1, 11900, -90.000, 0.000, -85.600, 0.000, 0.000, -2.900, 0.0, , , , , , 97, , , 39, 39, 39
37.3533189, -119.5420408, 19.700, 10:39:12.087, 17, 0.00, 0.07, 96, -0.300, -1.100, -84.700, 390, 100, 96, 25, 23771, -18270, 5253, 5472, 12, 14, 1528825152.087, 81, 0, 1024, 1024, 1024, 1024, 0, 6, 3953, 3939, 3980, 3963, 3983, 3960, 0, 1, 12000, -90.000, 0.000, -85.600, 0.000, 0.000, -2.900, 0.0, , , , , , 97, , , 39, 39, 39
37.3533189, -119.5420408, 20.300, 10:39:12.187, 17, 0.00, 0.08, 96, 0.000, -1.100, -84.100, 390, 100, 96, 25, 23771, -18270, 5253, 5472, 12, 14, 1528825152.187, 62, 0, 1024, 1024, 1024, 1024, 0, 6, 3953, 3939, 3980, 3963, 3983, 3960, 0, 1, 12100, -90.000, 0.000, -85.600, 0.000, 0.000, -2.800, 0.0, , , , , , 97, , , 39, 39, 39
37.3533189, -119.5420408, 20.300, 10:39:12.287, 17, 0.00, 0.08, 96, 0.000, -1.100, -84.100, 390, 100, 96, 25, 23771, -18270, 5253, 5472, 12, 14, 1528825152.287, 161, 0, 1024, 1024, 1024, 1024, 0, 6, 3953, 3939, 3980, 3963, 3983, 3960, 0, 1, 12200, -90.000, 0.000, -85.600, 0.000, 0.000, -2.800, 0.0, , , , , , 97, , , 39, 39, 39
37.3533189, -119.5420408, 20.900, 10:39:12.387, 17, 0.00, 0.08, 96, 0.200, -0.700, -84.100, 390, 100, 96, 25, 23771, -18270, 5253, 5472, 12, 14, 1528825152.387, 82, 0, 1024, 1024, 1024, 1024, 0, 6, 3953, 3939, 3980, 3963, 3983, 3960, 0, 1, 12300, -89.900, 0.000, -85.600, 0.000, 0.000, -2.800, 0.0, , , , , , 97, , , 39, 39, 39
37.3533189, -119.5420409, 21.200, 10:39:12.487, 17, 0.00, 0.07, 96, -0.100, -0.300, -84.200, 390, 100, 98, 25, 23771, -18270, 5253, 5472, 12, 14, 1528825152.487, 59, 0, 1024, 1024, 1024, 1024, 0, 6, 3953, 3939, 3980, 3963, 3983, 3960, 0, 1, 12400, -89.900, 0.000, -85.600, 0.000, 0.000, -2.800, 0.0, , , , , , 97, , , 39, 39, 39
37.3533190, -119.5420409, 21.400, 10:39:12.587, 17, 0.00, 0.07, 96, -0.700, 0.000, -84.300, 390, 100, 98, 25, 23771, -18270, 5253, 5472, 12, 14, 1528825152.587, 75, 0, 1024, 1024, 1024, 1024, 0, 6, 3953, 3939, 3980, 3963, 3983, 3960, 0, 1, 12500, -89.900, 0.000, -85.600, 0.000, 0.000, -2.800, 0.0, , , , , , 97, , , 39, 39, 39
37.3533190, -119.5420410, 21.700, 10:39:12.687, 17, 0.00, 0.06, 96, -1.300, 0.000, -84.400, 390, 100, 98, 25, 23771, -18270, 5253, 5472, 12, 14, 1528825152.687, 68, 0, 1024, 1024, 1024, 1024, 0, 6, 3953, 3939, 3980, 3963, 3983, 3960, 0, 1, 12600, -89.900, 0.000, -85.600, 0.000, 0.000, -2.800, 0.0, , , , , , 97, , , 39, 39, 39
37.3533191, -119.5420410, 22.000, 10:39:12.787, 17, 0.00, 0.06, 96, -1.800, 0.000, -84.600, 390, 100, 98, 25, 23718, -18685, 5253, 5472, 12, 14, 1528825152.787, 62, 0, 1024, 1024, 1024, 1024, 0, 6, 3953, 3939, 3980, 3963, 3983, 3960, 0, 1, 12700, -89.900, 0.000, -85.600, 0.000, 0.000, -2.900, 0.0, , , , , , 97, , , 39, 39, 39
37.3533192, -119.5420410, 22.300, 10:39:12.887, 17, 0.00, 0.05, 96, -1.800, 0.000, -84.700, 390, 100, 97, 25, 23718, -18685, 5253, 5472, 12, 14, 1528825152.887, 42, 0, 1024, 1024, 1024, 1024, 0, 6, 3953, 3939, 3980, 3963, 3983, 3960, 0, 1, 12800, -89.900, 0.000, -85.600, 0.000, 0.000, -2.900, 0.0, , , , , , 97, , , 39, 39, 39
37.3533192, -119.5420411, 22.600, 10:39:12.986, 17, 0.00, 0.05, 96, -1.500, 0.000, -84.600, 390, 100, 97, 25, 23718, -18685, 5253, 5472, 12, 14, 1528825152.986, 48, 0, 1024, 1024, 1024, 1024, 0, 6, 3953, 3939, 3980, 3963, 3983, 3960, 0, 1, 12900, -89.900, 0.000, -85.600, 0.000, 0.000, -2.800, 0.0, , , , , , 97, , , 39, 39, 39
37.3533193, -119.5420411, 22.900, 10:39:13.087, 17, 0.00, 0.05, 96, -1.500, 0.000, -84.600, 390, 100, 97, 25, 23718, -18685, 5253, 5472, 12, 14, 1528825153.087, 36, 0, 1024, 1024, 1024, 1024, 0, 6, 3953, 3939, 3980, 3963, 3983, 3960, 0, 1, 13000, -89.900, 0.000, -85.600, 0.000, 0.000, -2.900, 0.0, , , , , , 97, , , 39, 39, 39
37.3533193, -119.5420411, 23.200, 10:39:13.187, 17, 0.00, 0.05, 96, -1.900, -0.100, -84.700, 390, 100, 97, 25, 23718, -18685, 5253, 5472, 12, 14, 1528825153.187, 18, 0, 1024, 1024, 1024, 1024, 0, 6, 3953, 3939, 3980, 3963, 3983, 3960, 0, 1, 13100, -90.000, 0.000, -85.600, 0.000, 0.000, -2.900, 0.0, , , , , , 97, , , 39, 39, 39
37.3533194, -119.5420411, 23.500, 10:39:13.287, 17, 0.00, 0.05, 96, -2.100, -0.100, -84.900, 390, 100, 97, 25, 23718, -18685, 5253, 5472, 12, 14, 1528825153.287, 29, 0, 1024, 1024, 1024, 1024, 0, 6, 3928, 3912, 3958, 3940, 3961, 3946, 0, 1, 13200, -90.000, 0.000, -85.600, 0.000, 0.000, -2.900, 0.0, , , , , , 97, , , 39, 39, 39
37.3533194, -119.5420411, 23.800, 10:39:13.387, 17, 0.00, 0.05, 96, -2.100, -0.200, -85.100, 390, 100, 97, 25, 23718, -18685, 5253, 5472, 12, 14, 1528825153.387, 30, 0, 1024, 1024, 1024, 1024, 0, 6, 3928, 3912, 3958, 3940, 3961, 3946, 0, 1, 13300, -90.000, 0.000, -85.600, 0.000, 0.000, -2.800, 0.0, , , , , , 97, , , 39, 39, 39
37.3533194, -119.5420411, 24.100, 10:39:13.487, 17, 0.00, 0.05, 96, -1.900, -0.300, -85.200, 390, 100, 97, 25, 23718, -18685, 5253, 5472, 12, 14, 1528825153.487, 24, 0, 1024, 1024, 1024, 1024, 0, 6, 3928, 3912, 3958, 3940, 3961, 3946, 0, 1, 13400, -89.900, 0.000, -85.600, 0.000, 0.000, -2.900, 0.0, , , , , , 97, , , 39, 39, 39
37.3533194, -119.5420411, 24.400, 10:39:13.587, 17, 0.00, 0.05, 96, -1.800, -0.200, -85.100, 390, 100, 97, 25, 23718, -18685, 5253, 5472, 12, 14, 1528825153.587, 14, 0, 1024, 1024, 1024, 1024, 0, 6, 3928, 3912, 3958, 3940, 3961, 3946, 0, 1, 13500, -89.900, 0.000, -85.600, 0.000, 0.000, -2.900, 0.0, , , , , , 97, , , 39, 39, 39
37.3533193, -119.5420412, 24.700, 10:39:13.686, 17, 0.00, 0.04, 96, -1.300, -0.400, -84.900, 390, 100, 97, 25, 23718, -18685, 5253, 5472, 12, 14, 1528825153.686, 18, 0, 1024, 1024, 1024, 1024, 0, 6, 3928, 3912, 3958, 3940, 3961, 3946, 0, 1, 13599, -90.000, 0.000, -85.600, 0.000, 0.000, -2.800, 0.0, , , , , , 97, , , 39, 39, 39
37.3533193, -119.5420412, 25.000, 10:39:13.786, 17, 0.00, 0.04, 96, -0.700, -0.500, -84.700, 390, 100, 97, 25, 23718, -18685, 5253, 5472, 12, 14, 1528825153.787, 10, 0, 1024, 1024, 1024, 1024, 0, 6, 3928, 3912, 3958, 3940, 3961, 3946, 0, 1, 13700, -89.900, 0.000, -85.600, 0.000, 0.000, -2.900, 0.0, , , , , , 97, , , 39, 39, 39
37.3533192, -119.5420412, 25.300, 10:39:13.887, 17, 0.00, 0.04, 96, -0.600, -0.500, -84.600, 390, 100, 98, 25, 23718, -18685, 5253, 5472, 12, 14, 1528825153.887, 17, 0, 1024, 1024, 1024, 1024, 0, 6, 3928, 3912, 3958, 3940, 3961, 3946, 0, 1, 13800, -90.000, 0.000, -85.600, 0.000, 0.000, -2.900, 0.0, , , , , , 97, , , 39, 39, 39
37.3533192, -119.5420412, 25.300, 10:39:13.987, 17, 0.00, 0.04, 96, -0.600, -0.500, -84.600, 390, 100, 98, 25, 23718, -18685, 5253, 5472, 12, 14, 1528825153.987, 117, 0, 1024, 1024, 1024, 1024, 0, 6, 3928, 3912, 3958, 3940, 3961, 3946, 0, 1, 13900, -90.000, 0.000, -85.600, 0.000, 0.000, -2.900, 0.0, , , , , , 97, , , 39, 39, 39
37.3533192, -119.5420412, 25.500, 10:39:14.087, 17, 0.00, 0.03, 96, -0.600, -0.500, -84.500, 390, 100, 98, 25, 23718, -18685, 5253, 5472, 12, 14, 1528825154.087, 87, 0, 1024, 1024, 1024, 1024, 0, 6, 3928, 3912, 3958, 3940, 3961, 3946, 0, 1, 14000, -90.000, 0.000, -85.600, 0.000, 0.000, -2.900, 0.0, , , , , , 97, , , 39, 39, 39
37.3533191, -119.5420413, 26.100, 10:39:14.195, 17, 0.00, 0.03, 96, -1.000, -0.100, -84.300, 390, 100, 98, 25, 23718, -18685, 5253, 5472, 12, 14, 1528825154.196, 1, 0, 1024, 1024, 1024, 1024, 0, 6, 3928, 3912, 3958, 3940, 3961, 3946, 0, 1, 14109, -89.900, 0.000, -85.600, 0.000, 0.000, -2.900, 0.0, , , , , , 97, , , 39, 39, 39
37.3533191, -119.5420413, 26.100, 10:39:14.286, 17, 0.00, 0.03, 96, -1.000, -0.100, -84.300, 390, 100, 98, 25, 23718, -18685, 5253, 5472, 12, 14, 1528825154.286, 91, 0, 1024, 1024, 1024, 1024, 0, 6, 3928, 3912, 3958, 3940, 3961, 3946, 0, 1, 14199, -89.900, 0.000, -85.600, 0.000, 0.000, -2.900, 0.0, , , , , , 97, , , 39, 39, 39
37.3533190, -119.5420413, 26.400, 10:39:14.386, 17, 0.00, 0.03, 96, -1.100, -0.100, -84.300, 390, 100, 98, 25, 23546, -20447, 5253, 5472, 12, 14, 1528825154.386, 71, 0, 1024, 1024, 1024, 1024, 0, 6, 3909, 3905, 3952, 3932, 3944, 3930, 0, 1, 14300, -89.900, 0.000, -85.600, 0.000, 0.000, -3.000, 0.0, , , , , , 97, , , 39, 39, 39
37.3533189, -119.5420413, 26.700, 10:39:14.487, 17, 0.00, 0.04, 96, -1.000, -0.100, -84.300, 390, 100, 100, 25, 23546, -20447, 5253, 5472, 12, 14, 1528825154.487, 74, 0, 1024, 1024, 1024, 1024, 0, 6, 3909, 3905, 3952, 3932, 3944, 3930, 0, 1, 14400, -90.000, 0.000, -85.600, 0.000, 0.000, -2.900, 0.0, , , , , , 97, , , 39, 39, 39
37.3533189, -119.5420413, 27.000, 10:39:14.586, 17, 0.00, 0.04, 96, -0.500, -0.300, -84.300, 390, 100, 100, 25, 23546, -20447, 5253, 5472, 12, 14, 1528825154.586, 75, 0, 1024, 1024, 1024, 1024, 0, 6, 3909, 3905, 3952, 3932, 3944, 3930, 0, 1, 14499, -90.000, 0.000, -85.600, 0.000, 0.000, -2.900, 0.0, , , , , , 97, , , 39, 39, 39
37.3533188, -119.5420413, 27.300, 10:39:14.686, 17, 0.00, 0.05, 96, -0.100, -0.500, -84.400, 390, 100, 100, 25, 23546, -20447, 5253, 5472, 12, 14, 1528825154.687, 78, 0, 1024, 1024, 1024, 1024, 0, 6, 3909, 3905, 3952, 3932, 3944, 3930, 0, 1, 14600, -89.900, 0.000, -85.600, 0.000, 0.000, -2.900, 0.0, , , , , , 97, , , 39, 39, 39
37.3533187, -119.5420413, 27.900, 10:39:14.787, 17, 0.00, 0.06, 96, -0.200, -0.500, -84.400, 390, 100, 100, 25, 23546, -20447, 5253, 5472, 12, 14, 1528825154.787, 63, 0, 1024, 1024, 1024, 1024, 0, 6, 3909, 3905, 3952, 3932, 3944, 3930, 0, 1, 14700, -90.000, 0.000, -85.600, 0.000, 0.000, -3.000, 0.0, , , , , , 97, , , 39, 39, 39
37.3533187, -119.5420413, 28.200, 10:39:14.886, 17, 0.00, 0.06, 96, -0.600, -0.400, -84.300, 390, 100, 100, 25, 23546, -20447, 5253, 5472, 12, 14, 1528825154.886, 61, 0, 1024, 1024, 1024, 1024, 0, 6, 3909, 3905, 3952, 3932, 3944, 3930, 0, 1, 14799, -90.000, 0.000, -85.600, 0.000, 0.000, -3.000, 0.0, , , , , , 97, , , 39, 39, 39
37.3533187, -119.5420414, 28.500, 10:39:14.986, 17, 0.00, 0.06, 96, -0.800, -0.200, -84.300, 390, 100, 98, 25, 23546, -20447, 5253, 5472, 12, 14, 1528825154.987, 73, 0, 1024, 1024, 1024, 1024, 0, 6, 3909, 3905, 3952, 3932, 3944, 3930, 0, 1, 14900, -89.900, 0.000, -85.600, 0.000, 0.000, -3.000, 0.0, , , , , , 97, , , 39, 39, 39
37.3533187, -119.5420414, 28.500, 10:39:15.086, 17, 0.00, 0.06, 96, -0.800, -0.200, -84.300, 390, 100, 98, 25, 23546, -20447, 5253, 5472, 12, 14, 1528825155.086, 172, 0, 1024, 1024, 1024, 1024, 0, 6, 3909, 3905, 3952, 3932, 3944, 3930, 0, 1, 14999, -89.900, 0.000, -85.600, 0.000, 0.000, -3.000, 0.0, , , , , , 97, , , 39, 39, 39
37.3533186, -119.5420415, 29.100, 10:39:15.186, 17, 0.00, 0.06, 96, -1.100, 0.200, -84.300, 390, 100, 98, 25, 23546, -20447, 5253, 5472, 12, 14, 1528825155.186, 17, 0, 1024, 1024, 1024, 1024, 0, 6, 3909, 3905, 3952, 3932, 3944, 3930, 0, 1, 15099, -89.900, 0.000, -85.600, 0.000, 0.000, -3.000, 0.0, , , , , , 97, , , 39, 39, 39
37.3533186, -119.5420415, 29.400, 10:39:15.286, 17, 0.00, 0.06, 96, -1.100, 0.300, -84.400, 390, 100, 98, 25, 23546, -20447, 5253, 5472, 12, 14, 1528825155.286, 47, 0, 1024, 1024, 1024, 1024, 0, 6, 3909, 3905, 3952, 3932, 3944, 3930, 0, 1, 15199, -89.900, 0.000, -85.600, 0.000, 0.000, -3.000, 0.0, , , , , , 97, , , 39, 39, 39
37.3533186, -119.5420416, 29.700, 10:39:15.386, 17, 0.00, 0.06, 96, -1.100, 0.400, -84.500, 390, 100, 95, 25, 23546, -20447, 5253, 5472, 12, 14, 1528825155.387, 39, 0, 1024, 1024, 1024, 1024, 0, 6, 3909, 3905, 3952, 3932, 3944, 3930, 0, 1, 15300, -89.900, 0.000, -85.600, 0.000, 0.000, -2.900, 0.0, , , , , , 97, , , 39, 39, 39
37.3533186, -119.5420416, 29.700, 10:39:15.486, 17, 0.00, 0.06, 96, -1.100, 0.400, -84.500, 390, 100, 95, 25, 23546, -20447, 5253, 5472, 12, 14, 1528825155.487, 139, 0, 1024, 1024, 1024, 1024, 0, 6, 3909, 3905, 3952, 3932, 3944, 3930, 0, 1, 15400, -89.900, 0.000, -85.600, 0.000, 0.000, -2.900, 0.0, , , , , , 97, , , 39, 39, 39
37.3533186, -119.5420416, 30.300, 10:39:15.586, 17, 0.00, 0.06, 96, -1.200, 0.400, -84.900, 390, 100, 95, 25, 23546, -20447, 5253, 5472, 12, 14, 1528825155.587, 28, 0, 1024, 1024, 1024, 1024, 0, 6, 3909, 3905, 3952, 3932, 3944, 3930, 0, 1, 15500, -89.900, 0.000, -85.600, 0.000, 0.000, -3.000, 0.0, , , , , , 97, , , 39, 39, 39
37.3533186, -119.5420416, 30.600, 10:39:15.686, 17, 0.00, 0.06, 96, -1.400, 0.200, -85.000, 390, 100, 95, 25, 23546, -20447, 5253, 5472, 12, 14, 1528825155.687, 20, 0, 1024, 1024, 1024, 1024, 0, 6, 3909, 3905, 3952, 3932, 3944, 3930, 0, 1, 15600, -89.900, 0.000, -85.600, 0.000, 0.000, -3.000, 0.0, , , , , , 97, , , 39, 39, 39
37.3533186, -119.5420416, 30.900, 10:39:15.786, 17, 0.00, 0.06, 96, -1.400, 0.200, -85.100, 390, 100, 95, 25, 23532, -20036, 5253, 5472, 12, 14, 1528825155.787, 22, 0, 1024, 1024, 1024, 1024, 0, 6, 3906, 3901, 3946, 3925, 3940, 3925, 0, 1, 15700, -90.000, 0.000, -85.600, 0.000, 0.000, -3.000, 0.0, , , , , , 97, , , 39, 39, 39
37.3533186, -119.5420417, 31.200, 10:39:15.886, 17, 0.00, 0.06, 96, -1.200, 0.000, -85.300, 390, 100, 88, 25, 23532, -20036, 5253, 5472, 12, 14, 1528825155.887, 26, 0, 1024, 1024, 1024, 1024, 0, 6, 3906, 3901, 3946, 3925, 3940, 3925, 0, 1, 15800, -89.900, 0.000, -85.600, 0.000, 0.000, -3.000, 0.0, , , , , , 97, , , 39, 39, 39
37.3533186, -119.5420417, 31.200, 10:39:15.986, 17, 0.00, 0.06, 96, -1.200, 0.000, -85.300, 390, 100, 88, 25, 23532, -20036, 5253, 5472, 12, 14, 1528825155.987, 126, 0, 1024, 1024, 1024, 1024, 0, 6, 3906, 3901, 3946, 3925, 3940, 3925, 0, 1, 15900, -89.900, 0.000, -85.600, 0.000, 0.000, -3.000, 0.0, , , , , , 97, , , 39, 39, 39
37.3533187, -119.5420418, 31.800, 10:39:16.086, 17, 0.00, 0.05, 96, -1.600, 0.100, -85.600, 390, 100, 88, 25, 23532, -20036, 5253, 5472, 12, 14, 1528825156.087, 9, 0, 1024, 1024, 1024, 1024, 0, 6, 3906, 3901, 3946, 3925, 3940, 3925, 0, 1, 16000, -89.900, 0.000, -85.600, 0.000, 0.000, -3.000, 0.0, , , , , , 97, , , 39, 39, 39
37.3533187, -119.5420418, 31.800, 10:39:16.186, 17, 0.00, 0.05, 96, -1.600, 0.100, -85.600, 390, 100, 88, 25, 23532, -20036, 5253, 5472, 12, 14, 1528825156.186, 108, 0, 1024, 1024, 1024, 1024, 0, 6, 3906, 3901, 3946, 3925, 3940, 3925, 0, 1, 16099, -89.900, 0.000, -85.600, 0.000, 0.000, -3.000, 0.0, , , , , , 97, , , 39, 39, 39
37.3533187, -119.5420418, 32.100, 10:39:16.286, 17, 0.00, 0.05, 96, -1.500, 0.400, -85.600, 390, 100, 88, 25, 23532, -20036, 5253, 5472, 12, 14, 1528825156.287, 75, 0, 1024, 1024, 1024, 1024, 0, 6, 3906, 3901, 3946, 3925, 3940, 3925, 0, 1, 16200, -89.900, 0.000, -85.600, 0.000, 0.000, -3.000, 0.0, , , , , , 97, , , 39, 39, 39
37.3533187, -119.5420419, 32.400, 10:39:16.386, 17, 0.00, 0.05, 96, -1.300, 0.700, -85.500, 390, 100, 88, 25, 23532, -20036, 5253, 5472, 12, 14, 1528825156.387, 83, 0, 1024, 1024, 1024, 1024, 0, 6, 3906, 3901, 3946, 3925, 3940, 3925, 0, 1, 16300, -89.900, 0.000, -85.600, 0.000, 0.000, -3.000, 0.0, , , , , , 97, , , 39, 39, 39
37.3533187, -119.5420420, 32.700, 10:39:16.486, 17, 0.00, 0.06, 96, -1.200, 0.800, -85.300, 390, 100, 88, 25, 23532, -20036, 5253, 5472, 12, 14, 1528825156.486, 95, 0, 1024, 1024, 1024, 1024, 0, 6, 3906, 3901, 3946, 3925, 3940, 3925, 0, 1, 16400, -89.900, 0.000, -85.600, 0.000, 0.000, -2.900, 0.0, , , , , , 97, , , 39, 39, 39
37.3533187, -119.5420421, 33.000, 10:39:16.586, 17, 0.00, 0.06, 96, -1.400, 1.000, -85.000, 390, 100, 88, 25, 23532, -20036, 5253, 5472, 12, 14, 1528825156.587, 84, 0, 1024, 1024, 1024, 1024, 0, 6, 3906, 3901, 3946, 3925, 3940, 3925, 0, 1, 16500, -89.900, 0.000, -85.600, 0.000, 0.000, -2.900, 0.0, , , , , , 97, , , 39, 39, 39
37.3533187, -119.5420421, 33.300, 10:39:16.686, 17, 0.00, 0.06, 96, -1.400, 1.100, -84.800, 390, 100, 88, 25, 23532, -20036, 5253, 5472, 12, 14, 1528825156.687, 74, 0, 1024, 1024, 1024, 1024, 0, 6, 3906, 3901, 3946, 3925, 3940, 3925, 0, 1, 16600, -89.900, 0.000, -85.600, 0.000, 0.000, -2.900, 0.0, , , , , , 97, , , 39, 39, 39
37.3533187, -119.5420422, 33.600, 10:39:16.786, 17, 0.00, 0.07, 96, -1.400, 1.500, -84.700, 390, 100, 88, 25, 23532, -20036, 5253, 5472, 12, 14, 1528825156.787, 89, 0, 1024, 1024, 1024, 1024, 0, 6, 3906, 3901, 3946, 3925, 3940, 3925, 0, 1, 16700, -89.900, 0.000, -85.600, 0.000, 0.000, -2.900, 0.0, , , , , , 97, , , 39, 39, 39
37.3533188, -119.5420423, 33.900, 10:39:16.886, 17, 0.00, 0.07, 96, -1.500, 1.600, -84.600, 390, 100, 88, 25, 23532, -20036, 5253, 5472, 12, 14, 1528825156.887, 72, 0, 1024, 1024, 1024, 1024, 0, 6, 3906, 3901, 3946, 3925, 3940, 3925, 0, 1, 16800, -89.900, 0.000, -85.600, 0.000, 0.000, -2.900, 0.0, , , , , , 97, , , 39, 39, 39
37.3533188, -119.5420424, 34.400, 10:39:16.986, 17, 0.00, 0.08, 96, -1.100, 1.400, -84.500, 390, 100, 89, 25, 23532, -20036, 5253, 5472, 12, 14, 1528825156.987, 83, 0, 1024, 1024, 1024, 1024, 0, 6, 3906, 3901, 3946, 3925, 3940, 3925, 0, 1, 16900, -89.900, 0.000, -85.600, 0.000, 0.000, -2.900, 0.0, , , , , , 97, , , 39, 39, 39
37.3533188, -119.5420424, 34.400, 10:39:17.086, 17, 0.00, 0.08, 96, -1.100, 1.400, -84.500, 390, 100, 89, 25, 23532, -20036, 5253, 5472, 12, 14, 1528825157.087, 183, 0, 1024, 1024, 1024, 1024, 0, 6, 3906, 3901, 3946, 3925, 3940, 3925, 0, 1, 17000, -89.900, 0.000, -85.600, 0.000, 0.000, -2.900, 0.0, , , , , , 97, , , 39, 39, 39
37.3533188, -119.5420425, 35.000, 10:39:17.186, 17, 0.00, 0.09, 96, -1.200, 1.400, -84.500, 390, 100, 89, 25, 23532, -20036, 5253, 5472, 12, 14, 1528825157.187, 54, 0, 1024, 1024, 1024, 1024, 0, 6, 3906, 3901, 3946, 3925, 3940, 3925, 0, 1, 17100, -89.900, 0.000, -85.600, 0.000, 0.000, -3.000, 0.0, , , , , , 97, , , 39, 39, 39
37.3533188, -119.5420425, 35.300, 10:39:17.286, 17, 0.00, 0.09, 96, -1.300, 1.400, -84.500, 390, 100, 89, 26, 23542, -19478, 5253, 5472, 12, 14, 1528825157.286, 59, 0, 1024, 1024, 1024, 1024, 0, 6, 3907, 3907, 3935, 3913, 3939, 3918, 0, 1, 17199, -89.900, 0.000, -85.600, 0.000, 0.000, -3.000, 0.0, , , , , , 97, , , 39, 39, 39
37.3533188, -119.5420426, 35.600, 10:39:17.386, 17, 0.00, 0.10, 96, -1.500, 1.200, -84.600, 390, 100, 91, 26, 23542, -19478, 5253, 5472, 12, 14, 1528825157.386, 58, 0, 1024, 1024, 1024, 1024, 0, 6, 3907, 3907, 3935, 3913, 3939, 3918, 0, 1, 17300, -89.900, 0.000, -85.600, 0.000, 0.000, -3.000, 0.0, , , , , , 97, , , 39, 39, 39
37.3533188, -119.5420427, 35.900, 10:39:17.486, 17, 0.00, 0.10, 96, -1.500, 1.500, -84.700, 390, 100, 91, 26, 23542, -19478, 5253, 5472, 12, 14, 1528825157.486, 56, 0, 1024, 1024, 1024, 1024, 0, 6, 3907, 3907, 3935, 3913, 3939, 3918, 0, 1, 17400, -89.900, 0.000, -85.600, 0.000, 0.000, -3.000, 0.0, , , , , , 97, , , 39, 39, 39
37.3533188, -119.5420428, 36.200, 10:39:17.586, 17, 0.00, 0.11, 96, -1.300, 1.800, -84.800, 390, 100, 91, 26, 23542, -19478, 5253, 5472, 12, 14, 1528825157.587, 28, 0, 1024, 1024, 1024, 1024, 0, 6, 3907, 3907, 3935, 3913, 3939, 3918, 0, 1, 17500, -89.900, 0.000, -85.600, 0.000, 0.000, -3.000, 0.0, , , , , , 97, , , 39, 39, 39
37.3533188, -119.5420429, 36.500, 10:39:17.686, 17, 0.00, 0.12, 96, -1.300, 2.000, -84.900, 390, 100, 91, 26, 23542, -19478, 5253, 5472, 12, 14, 1528825157.687, 20, 0, 1024, 1024, 1024, 1024, 0, 6, 3907, 3907, 3935, 3913, 3939, 3918, 0, 1, 17600, -89.900, 0.000, -85.600, 0.000, 0.000, -3.000, 0.0, , , , , , 97, , , 39, 39, 39
37.3533188, -119.5420429, 36.800, 10:39:17.786, 17, 0.00, 0.12, 96, -1.600, 2.300, -84.800, 390, 100, 91, 26, 23478, -20499, 5253, 5472, 12, 14, 1528825157.786, 37, 0, 1024, 1024, 1024, 1024, 0, 6, 3883, 3876, 3936, 3914, 3928, 3913, 0, 1, 17700, -89.900, 0.000, -85.600, 0.000, 0.000, -3.100, 0.0, , , , , , 97, , , 39, 39, 39
37.3533189, -119.5420430, 37.100, 10:39:17.886, 17, 0.00, 0.13, 96, -2.000, 2.300, -84.800, 390, 100, 92, 26, 23478, -20499, 5253, 5472, 12, 14, 1528825157.887, 29, 0, 1024, 1024, 1024, 1024, 0, 6, 3883, 3876, 3936, 3914, 3928, 3913, 0, 1, 17800, -89.900, 0.000, -85.600, 0.000, 0.000, -3.100, 0.0, , , , , , 97, , , 39, 39, 39
37.3533189, -119.5420431, 37.400, 10:39:17.985, 17, 0.00, 0.13, 96, -2.200, 2.300, -84.900, 390, 100, 92, 26, 23478, -20499, 5253, 5472, 12, 14, 1528825157.986, 18, 0, 1024, 1024, 1024, 1024, 0, 6, 3883, 3876, 3936, 3914, 3928, 3913, 0, 1, 17899, -89.900, 0.000, -85.600, 0.000, 0.000, -3.000, 0.0, , , , , , 97, , , 39, 39, 39
37.3533190, -119.5420431, 37.700, 10:39:18.086, 17, 0.00, 0.14, 96, -2.100, 2.300, -84.900, 390, 100, 92, 26, 23478, -20499, 5253, 5472, 12, 14, 1528825158.087, 16, 0, 1024, 1024, 1024, 1024, 0, 6, 3883, 3876, 3936, 3914, 3928, 3913, 0, 1, 18000, -89.900, 0.000, -85.600, 0.000, 0.000, -3.000, 0.0, , , , , , 97, , , 39, 39, 39
37.3533190, -119.5420431, 37.700, 10:39:18.186, 17, 0.00, 0.14, 96, -2.100, 2.300, -84.900, 390, 100, 92, 26, 23478, -20499, 5253, 5472, 12, 14, 1528825158.187, 116, 0, 1024, 1024, 1024, 1024, 0, 6, 3883, 3876, 3936, 3914, 3928, 3913, 0, 1, 18100, -89.900, 0.000, -85.600, 0.000, 0.000, -3.000, 0.0, , , , , , 97, , , 39, 39, 39
37.3533190, -119.5420432, 38.300, 10:39:18.286, 17, 0.00, 0.14, 96, -1.800, 2.100, -84.800, 390, 100, 92, 26, 23478, -20499, 5253, 5472, 12, 14, 1528825158.287, 13, 0, 1024, 1024, 1024, 1024, 0, 6, 3883, 3876, 3936, 3914, 3928, 3913, 0, 1, 18200, -89.900, 0.000, -85.600, 0.000, 0.000, -3.000, 0.0, , , , , , 97, , , 39, 39, 39
37.3533191, -119.5420433, 38.600, 10:39:18.391, 17, 0.00, 0.15, 96, -1.700, 2.100, -84.800, 390, 100, 92, 26, 23478, -20499, 5253, 5472, 12, 14, 1528825158.391, 1, 0, 1024, 1024, 1024, 1024, 0, 6, 3883, 3876, 3936, 3914, 3928, 3913, 0, 1, 18305, -89.900, 0.000, -85.600, 0.000, 0.000, -3.100, 0.0, , , , , , 97, , , 39, 39, 39
37.3533191, -119.5420433, 38.900, 10:39:18.486, 17, 0.00, 0.15, 96, -1.700, 2.200, -84.900, 390, 100, 92, 26, 23478, -20499, 5253, 5472, 12, 14, 1528825158.486, 9, 0, 1024, 1024, 1024, 1024, 0, 6, 3883, 3876, 3936, 3914, 3928, 3913, 0, 1, 18400, -89.900, 0.000, -85.600, 0.000, 0.000, -3.000, 0.0, , , , , , 97, , , 39, 39, 39
37.3533191, -119.5420433, 38.900, 10:39:18.586, 17, 0.00, 0.15, 96, -1.700, 2.200, -84.900, 390, 100, 92, 26, 23478, -20499, 5253, 5472, 12, 14, 1528825158.586, 109, 0, 1024, 1024, 1024, 1024, 0, 6, 3883, 3876, 3936, 3914, 3928, 3913, 0, 1, 18500, -89.900, 0.000, -85.600, 0.000, 0.000, -3.000, 0.0, , , , , , 97, , , 39, 39, 39
37.3533191, -119.5420433, 38.900, 10:39:18.686, 17, 0.00, 0.15, 96, -1.700, 2.200, -84.900, 390, 100, 92, 26, 23478, -20499, 5253, 5472, 12, 14, 1528825158.686, 209, 0, 1024, 1024, 1024, 1024, 0, 6, 3883, 3876, 3936, 3914, 3928, 3913, 0, 1, 18600, -89.900, 0.000, -85.600, 0.000, 0.000, -3.000, 0.0, , , , , , 97, , , 39, 39, 39
37.3533193, -119.5420434, 39.500, 10:39:18.786, 17, 0.00, 0.16, 96, -2.300, 2.200, -84.900, 390, 100, 92, 26, 23443, -19930, 5253, 5472, 12, 14, 1528825158.787, 91, 0, 1024, 1024, 1024, 1024, 0, 6, 3883, 3876, 3936, 3914, 3928, 3913, 0, 1, 18700, -89.900, 0.000, -85.600, 0.000, 0.000, -3.000, 0.0, , , , , , 97, , , 39, 39, 39
37.3533193, -119.5420434, 39.500, 10:39:18.886, 17, 0.00, 0.16, 96, -2.300, 2.200, -84.900, 390, 100, 92, 26, 23443, -19930, 5253, 5472, 12, 14, 1528825158.887, 191, 0, 1024, 1024, 1024, 1024, 0, 6, 3883, 3876, 3936, 3914, 3928, 3913, 0, 1, 18800, -89.900, 0.000, -85.600, 0.000, 0.000, -3.000, 0.0, , , , , , 97, , , 39, 39, 39
37.3533193, -119.5420434, 39.500, 10:39:18.986, 17, 0.00, 0.16, 96, -2.300, 2.200, -84.900, 390, 100, 91, 26, 23443, -19930, 5253, 5472, 12, 14, 1528825158.987, 292, 0, 1024, 1024, 1024, 1024, 0, 6, 3883, 3876, 3936, 3914, 3928, 3913, 0, 1, 18900, -89.900, 0.000, -85.600, 0.000, 0.000, -3.000, 0.0, , , , , , 97, , , 39, 39, 39
37.3533195, -119.5420434, 40.800, 10:39:19.086, 17, 0.00, 0.16, 96, -2.300, 1.700, -84.600, 390, 100, 91, 26, 23443, -19930, 5253, 5472, 12, 14, 1528825159.086, 82, 0, 1024, 1024, 1024, 1024, 0, 6, 3878, 3879, 3921, 3900, 3912, 3911, 0, 1, 19000, -89.900, 0.000, -85.600, 0.000, 0.000, -3.000, 0.0, , , , , , 97, , , 39, 39, 39
37.3533195, -119.5420434, 40.800, 10:39:19.186, 17, 0.00, 0.16, 96, -2.300, 1.700, -84.600, 390, 100, 91, 26, 23443, -19930, 5253, 5472, 12, 14, 1528825159.186, 182, 0, 1024, 1024, 1024, 1024, 0, 6, 3878, 3879, 3921, 3900, 3912, 3911, 0, 1, 19100, -89.900, 0.000, -85.600, 0.000, 0.000, -3.000, 0.0, , , , , , 97, , , 39, 39, 39
37.3533195, -119.5420434, 41.100, 10:39:19.286, 17, 0.00, 0.16, 96, -2.100, 1.800, -84.500, 390, 100, 91, 26, 23443, -19930, 5253, 5472, 12, 14, 1528825159.286, 63, 0, 1024, 1024, 1024, 1024, 0, 6, 3878, 3879, 3921, 3900, 3912, 3911, 0, 1, 19200, -89.900, 0.000, -85.600, 0.000, 0.000, -3.000, 0.0, , , , , , 97, , , 39, 39, 39
37.3533195, -119.5420433, 41.700, 10:39:19.386, 17, 0.00, 0.16, 96, -1.700, 2.100, -84.500, 390, 100, 92, 26, 23443, -19930, 5253, 5472, 12, 14, 1528825159.386, 69, 0, 1024, 1024, 1024, 1024, 0, 6, 3878, 3879, 3921, 3900, 3912, 3911, 0, 1, 19300, -89.900, 0.000, -85.600, 0.000, 0.000, -3.000, 0.0, , , , , , 97, , , 39, 39, 39
37.3533196, -119.5420433, 42.000, 10:39:19.486, 17, 0.00, 0.16, 96, -1.700, 1.900, -84.600, 390, 100, 92, 26, 23443, -19930, 5253, 5472, 12, 14, 1528825159.486, 62, 0, 1024, 1024, 1024, 1024, 0, 6, 3878, 3879, 3921, 3900, 3912, 3911, 0, 1, 19400, -89.900, 0.000, -85.600, 0.000, 0.000, -3.000, 0.0, , , , , , 97, , , 39, 39, 39
37.3533196, -119.5420433, 42.300, 10:39:19.586, 17, 0.00, 0.16, 96, -1.900, 1.700, -84.700, 390, 100, 92, 26, 23443, -19930, 5253, 5472, 12, 14, 1528825159.586, 77, 0, 1024, 1024, 1024, 1024, 0, 6, 3878, 3879, 3921, 3900, 3912, 3911, 0, 1, 19500, -89.900, 0.000, -85.600, 0.000, 0.000, -3.000, 0.0, , , , , , 97, , , 39, 39, 39
37.3533196, -119.5420432, 42.600, 10:39:19.686, 17, 0.00, 0.15, 96, -2.000, 1.400, -84.800, 390, 100, 92, 26, 23443, -19930, 5253, 5472, 12, 14, 1528825159.686, 35, 0, 1024, 1024, 1024, 1024, 0, 6, 3878, 3879, 3921, 3900, 3912, 3911, 0, 1, 19599, -89.900, 0.000, -85.600, 0.000, 0.000, -3.000, 0.0, , , , , , 97, , , 39, 39, 39
37.3533196, -119.5420432, 42.900, 10:39:19.785, 17, 0.00, 0.15, 96, -2.200, 1.300, -84.900, 390, 100, 92, 26, 23348, -20609, 5253, 5472, 12, 14, 1528825159.786, 60, 0, 1024, 1024, 1024, 1024, 0, 6, 3878, 3879, 3921, 3900, 3912, 3911, 0, 1, 19699, -89.900, 0.000, -85.600, 0.000, 0.000, -2.900, 0.0, , , , , , 97, , , 39, 39, 39
37.3533197, -119.5420432, 43.200, 10:39:19.886, 17, 0.00, 0.15, 96, -2.100, 1.600, -85.000, 390, 100, 96, 26, 23348, -20609, 5253, 5472, 12, 14, 1528825159.886, 50, 0, 1024, 1024, 1024, 1024, 0, 6, 3878, 3879, 3921, 3900, 3912, 3911, 0, 1, 19800, -89.900, 0.000, -85.600, 0.000, 0.000, -2.900, 0.0, , , , , , 97, , , 39, 39, 39
37.3533197, -119.5420432, 43.400, 10:39:19.986, 17, 0.00, 0.15, 96, -1.800, 1.600, -84.900, 390, 100, 96, 26, 23348, -20609, 5253, 5472, 12, 14, 1528825159.986, 53, 0, 1024, 1024, 1024, 1024, 0, 6, 3878, 3879, 3921, 3900, 3912, 3911, 0, 1, 19900, -89.900, 0.000, -85.600, 0.000, 0.000, -2.900, 0.0, , , , , , 97, , , 39, 39, 39
37.3533197, -119.5420431, 43.700, 10:39:20.086, 17, 0.00, 0.15, 96, -1.700, 1.700, -84.800, 390, 100, 96, 26, 23348, -20609, 5253, 5472, 12, 14, 1528825160.086, 55, 0, 1024, 1024, 1024, 1024, 0, 6, 3878, 3879, 3921, 3900, 3912, 3911, 0, 1, 20000, -89.900, 0.000, -85.600, 0.000, 0.000, -3.100, 0.0, , , , , , 97, , , 39, 39, 39
37.3533197, -119.5420431, 44.000, 10:39:20.186, 17, 0.00, 0.15, 96, -1.700, 2.000, -84.600, 390, 100, 96, 26, 23348, -20609, 5253, 5472, 12, 14, 1528825160.186, 45, 0, 1024, 1024, 1024, 1024, 0, 6, 3878, 3879, 3921, 3900, 3912, 3911, 0, 1, 20099, -89.900, 0.000, -85.600, 0.000, 0.000, -3.000, 0.0, , , , , , 97, , , 39, 39, 39
37.3533197, -119.5420431, 44.300, 10:39:20.286, 17, 0.00, 0.14, 96, -1.800, 2.000, -84.500, 390, 100, 96, 26, 23348, -20609, 5253, 5472, 12, 14, 1528825160.286, 29, 0, 1024, 1024, 1024, 1024, 0, 6, 3867, 3870, 3914, 3892, 3900, 3887, 0, 1, 20200, -89.900, 0.000, -85.600, 0.000, 0.000, -3.000, 0.0, , , , , , 97, , , 39, 39, 39
37.3533197, -119.5420430, 44.600, 10:39:20.386, 17, 0.00, 0.14, 96, -1.800, 2.000, -84.400, 390, 100, 98, 26, 23348, -20609, 5253, 5472, 12, 14, 1528825160.386, 10, 0, 1024, 1024, 1024, 1024, 0, 6, 3867, 3870, 3914, 3892, 3900, 3887, 0, 1, 20300, -89.900, 0.000, -85.600, 0.000, 0.000, -3.000, 0.0, , , , , , 97, , , 39, 39, 39
37.3533197, -119.5420430, 45.000, 10:39:20.486, 17, 0.00, 0.14, 96, -1.600, 2.000, -84.400, 390, 100, 98, 26, 23348, -20609, 5253, 5472, 12, 14, 1528825160.486, 29, 0, 1024, 1024, 1024, 1024, 0, 6, 3867, 3870, 3914, 3892, 3900, 3887, 0, 1, 20399, -90.000, 0.000, -85.600, 0.000, 0.000, -3.100, 0.0, , , , , , 97, , , 39, 39, 39
37.3533196, -119.5420430, 45.300, 10:39:20.586, 17, 0.00, 0.13, 96, -1.400, 1.900, -84.300, 390, 100, 98, 26, 23348, -20609, 5253, 5472, 12, 14, 1528825160.586, 31, 0, 1024, 1024, 1024, 1024, 0, 6, 3867, 3870, 3914, 3892, 3900, 3887, 0, 1, 20500, -89.900, 0.000, -85.600, 0.000, 0.000, -3.100, 0.0, , , , , , 97, , , 39, 39, 39
37.3533196, -119.5420429, 45.600, 10:39:20.699, 17, 0.00, 0.12, 96, -1.400, 1.600, -84.200, 390, 100, 98, 26, 23348, -20609, 5253, 5472, 12, 14, 1528825160.699, 1, 0, 1024, 1024, 1024, 1024, 0, 6, 3867, 3870, 3914, 3892, 3900, 3887, 0, 1, 20612, -89.900, 0.000, -85.600, 0.000, 0.000, -3.100, 0.0, , , , , , 97, , , 39, 39, 39
37.3533196, -119.5420429, 45.600, 10:39:20.786, 17, 0.00, 0.12, 96, -1.400, 1.600, -84.200, 390, 100, 98, 26, 23348, -20609, 5253, 5472, 12, 14, 1528825160.786, 89, 0, 1024, 1024, 1024, 1024, 0, 6, 3867, 3870, 3914, 3892, 3900, 3887, 0, 1, 20699, -89.900, 0.000, -85.600, 0.000, 0.000, -3.100, 0.0, , , , , , 97, , , 39, 39, 39
37.3533196, -119.5420427, 46.200, 10:39:20.886, 17, 0.00, 0.11, 96, -1.300, 1.400, -84.300, 390, 100, 98, 26, 23348, -20609, 5253, 5472, 12, 14, 1528825160.886, 2, 0, 1024, 1024, 1024, 1024, 0, 6, 3867, 3870, 3914, 3892, 3900, 3887, 0, 1, 20799, -90.000, 0.000, -85.600, 0.000, 0.000, -3.100, 0.0, , , , , , 97, , , 39, 39, 39
37.3533196, -119.5420427, 46.200, 10:39:20.986, 17, 0.00, 0.11, 96, -1.300, 1.400, -84.300, 390, 100, 98, 26, 23348, -20609, 5253, 5472, 12, 14, 1528825160.986, 102, 0, 1024, 1024, 1024, 1024, 0, 6, 3867, 3870, 3914, 3892, 3900, 3887, 0, 1, 20900, -90.000, 0.000, -85.600, 0.000, 0.000, -3.100, 0.0, , , , , , 97, , , 39, 39, 39
