Latitude, Longitude, Altitude (m), Time, Sats, Speed (m/s), Range (m), Battery (%), Roll (deg), Pitch (deg), Yaw (deg), Images, HD Signal (%), RC Signal (%), Battery Temp (C), Battery Voltage (mV), Battery Current (mA), Battery Energy (mAh), Battery Capacity (mAh), Battery Discharges, flyState, timestamp (Unix), LastUpdate (ms), radioChannel, Rc_elevator, Rc_aileron, Rc_throttle, Rc_rudder, Rc_gyro, Dronetype, Battery_Cell1 (mV), Battery_Cell2 (mV), Battery_Cell3 (mV), Battery_Cell4 (mV), Battery_Cell5 (mV), Battery_Cell6 (mV), Video, isFlying, elapsedTime (ms), gimbalPitch (deg), gimbalRoll (deg), gimbalYaw (deg), VelocityX (m/s), VelocityY (m/s), VelocityZ (m/s), GroundSmear (cm), App Version, Aircraft Name, Aircraft Firmware, Aircraft Serial Number, Battery Serial Number, Battery Lifetime (%), App_Tip, App_Warning, CurrentFlightStartingIndex, CurrentFlightLastVisitedWaypoint, PreviousFlightEndingWaypointIndex
37.3533194, -119.5420297, 0.000, 10:57:52.071, 17, 0.00, 0.04, 98, -1.200, -0.400, -92.500, 770, 100, 100, 23, 25535, -3786, 5399, 5510, 10, 11, 1528826272.071, 26, 0, 1024, 1024, 1024, 1024, 0, 6, 4203, 4256, 4274, 4272, 4178, 4265, 0, 1, 2916, -89.900, 0.000, -93.400, 0.000, 0.000, -0.200, 0.0, MapPilot_2.8.1_04242018, Dendroctonus I, , 041DDC1887, 1058163200468, 98, DJI_0477.jpg, Starting Mission from Lat/Long: 37.35332/-119.54203 Camera: Zenmuse X3 - Overlap: 90/90 - Active Connection: No, 53, 53, 53
37.3533194, -119.5420297, 0.000, 10:57:52.156, 17, 0.00, 0.04, 98, -1.100, -0.300, -92.500, 770, 100, 100, 23, 25535, -3786, 5399, 5510, 10, 11, 1528826272.156, 5, 0, 1024, 1024, 1024, 1024, 0, 6, 4203, 4256, 4274, 4272, 4178, 4265, 0, 1, 3001, -89.900, 0.000, -93.300, 0.000, 0.000, -0.300, 0.0, , , , , , 98, , , 53, 53, 53
37.3533193, -119.5420298, 0.000, 10:57:52.256, 17, 0.10, 0.06, 98, -0.300, -0.200, -92.400, 770, 100, 100, 23, 25535, -3786, 5399, 5510, 10, 11, 1528826272.256, 9, 0, 1024, 1024, 1024, 1024, 0, 6, 4203, 4256, 4274, 4272, 4178, 4265, 0, 1, 3100, -89.900, 0.000, -93.400, -0.100, 0.000, -0.300, 0.0, , , , , , 98, , , 53, 53, 53
37.3533191, -119.5420298, 0.100, 10:57:52.357, 17, 0.10, 0.07, 98, 0.500, 0.000, -92.300, 770, 100, 100, 23, 25535, -3786, 5399, 5510, 10, 11, 1528826272.358, 11, 0, 1024, 1024, 1024, 1024, 0, 6, 4203, 4256, 4274, 4272, 4178, 4265, 0, 1, 3202, -89.900, 0.000, -93.400, -0.100, 0.000, -0.300, 0.0, , , , , , 98, , , 53, 53, 53
37.3533190, -119.5420299, 0.100, 10:57:52.457, 17, 0.10, 0.09, 98, 0.800, 0.400, -92.200, 770, 100, 100, 23, 25535, -3786, 5399, 5510, 10, 11, 1528826272.457, 3, 0, 1024, 1024, 1024, 1024, 0, 6, 4203, 4256, 4274, 4272, 4178, 4265, 0, 1, 3301, -89.900, 0.000, -93.300, -0.100, 0.000, -0.400, 0.0, , , , , , 98, , , 53, 53, 53
37.3533190, -119.5420299, 0.100, 10:57:52.557, 17, 0.10, 0.09, 98, 0.800, 0.400, -92.200, 770, 100, 100, 23, 25535, -3786, 5399, 5510, 10, 11, 1528826272.557, 102, 0, 1024, 1024, 1024, 1024, 0, 6, 4203, 4256, 4274, 4272, 4178, 4265, 0, 1, 3401, -89.900, 0.000, -93.300, -0.100, 0.000, -0.400, 0.0, , , , , , 98, , , 53, 53, 53
37.3533188, -119.5420300, 0.100, 10:57:52.657, 17, 0.10, 0.11, 98, 1.100, 0.600, -92.100, 770, 100, 100, 23, 25535, -3786, 5399, 5510, 10, 11, 1528826272.657, 84, 0, 1024, 1024, 1024, 1024, 0, 6, 4203, 4256, 4274, 4272, 4178, 4265, 0, 1, 3501, -89.900, 0.000, -93.300, -0.100, 0.000, -0.400, 0.0, , , , , , 98, , , 53, 53, 53
37.3533186, -119.5420300, 0.200, 10:57:52.757, 17, 0.10, 0.13, 98, 1.300, 0.700, -92.000, 770, 100, 100, 23, 25248, -14866, 5399, 5510, 10, 11, 1528826272.757, 88, 0, 1024, 1024, 1024, 1024, 0, 6, 4002, 4023, 4155, 4161, 4145, 4130, 0, 1, 3601, -89.900, 0.000, -93.400, -0.100, 0.000, -0.400, 0.0, , , , , , 98, , , 53, 53, 53
37.3533185, -119.5420301, 0.200, 10:57:52.857, 17, 0.10, 0.15, 98, 1.400, 0.700, -91.900, 770, 100, 100, 23, 25248, -14866, 5399, 5510, 10, 11, 1528826272.857, 68, 0, 1024, 1024, 1024, 1024, 0, 6, 4002, 4023, 4155, 4161, 4145, 4130, 0, 1, 3701, -89.900, 0.000, -93.400, -0.100, 0.000, -0.400, 0.0, , , , , , 98, , , 53, 53, 53
37.3533184, -119.5420302, 0.300, 10:57:52.956, 17, 0.10, 0.16, 98, 1.400, 0.600, -91.900, 770, 100, 100, 23, 25248, -14866, 5399, 5510, 10, 11, 1528826272.957, 81, 0, 1024, 1024, 1024, 1024, 0, 6, 4002, 4023, 4155, 4161, 4145, 4130, 0, 1, 3801, -89.900, 0.000, -93.400, -0.100, 0.000, -0.400, 0.0, , , , , , 98, , , 53, 53, 53
37.3533183, -119.5420303, 0.300, 10:57:53.057, 17, 0.00, 0.17, 98, 1.400, 0.800, -91.800, 770, 100, 100, 23, 25248, -14866, 5399, 5510, 10, 11, 1528826273.057, 67, 0, 1024, 1024, 1024, 1024, 0, 6, 4002, 4023, 4155, 4161, 4145, 4130, 0, 1, 3901, -89.900, 0.000, -93.400, 0.000, 0.000, -0.400, 0.0, , , , , , 98, , , 53, 53, 53
37.3533183, -119.5420303, 0.400, 10:57:53.157, 17, 0.00, 0.18, 98, 1.200, 0.900, -91.800, 770, 100, 100, 23, 25248, -14866, 5399, 5510, 10, 11, 1528826273.158, 60, 0, 1024, 1024, 1024, 1024, 0, 6, 4002, 4023, 4155, 4161, 4145, 4130, 0, 1, 4002, -89.900, 0.000, -93.400, 0.000, 0.000, -0.400, 0.0, , , , , , 98, , , 53, 53, 53
37.3533182, -119.5420303, 0.400, 10:57:53.257, 16, 0.00, 0.18, 98, 1.200, 0.800, -91.900, 770, 100, 100, 23, 25248, -14866, 5399, 5510, 10, 11, 1528826273.257, 65, 0, 1024, 1024, 1024, 1024, 0, 6, 4002, 4023, 4155, 4161, 4145, 4130, 0, 1, 4101, -89.900, 0.000, -93.400, 0.000, 0.000, -0.400, 0.0, , , , , , 98, , , 53, 53, 53
37.3533181, -119.5420303, 0.500, 10:57:53.357, 16, 0.00, 0.19, 98, 1.300, 0.600, -92.100, 770, 100, 100, 23, 25248, -14866, 5399, 5510, 10, 11, 1528826273.357, 65, 0, 1024, 1024, 1024, 1024, 0, 6, 4002, 4023, 4155, 4161, 4145, 4130, 0, 1, 4201, -89.900, 0.000, -93.400, 0.000, 0.000, -0.400, 0.0, , , , , , 98, , , 53, 53, 53
37.3533180, -119.5420303, 0.500, 10:57:53.456, 16, 0.00, 0.20, 98, 1.400, 0.400, -92.200, 770, 100, 100, 23, 25248, -14866, 5399, 5510, 10, 11, 1528826273.457, 59, 0, 1024, 1024, 1024, 1024, 0, 6, 4002, 4023, 4155, 4161, 4145, 4130, 0, 1, 4301, -89.900, 0.000, -93.400, 0.000, 0.000, -0.500, 0.0, , , , , , 98, , , 53, 53, 53
37.3533180, -119.5420304, 0.600, 10:57:53.557, 16, 0.00, 0.21, 98, 1.300, 0.300, -92.500, 770, 100, 100, 23, 25248, -14866, 5399, 5510, 10, 11, 1528826273.558, 64, 0, 1024, 1024, 1024, 1024, 0, 6, 4002, 4023, 4155, 4161, 4145, 4130, 0, 1, 4402, -89.900, 0.000, -93.400, 0.000, 0.000, -0.400, 0.0, , , , , , 98, , , 53, 53, 53
37.3533180, -119.5420304, 0.600, 10:57:53.657, 17, 0.00, 0.21, 98, 1.100, 0.300, -92.700, 770, 100, 100, 23, 25248, -14866, 5399, 5510, 10, 11, 1528826273.658, 66, 0, 1024, 1024, 1024, 1024, 0, 6, 4002, 4023, 4155, 4161, 4145, 4130, 0, 1, 4502, -89.900, 0.000, -93.400, 0.000, 0.000, -0.400, 0.0, , , , , , 98, , , 53, 53, 53
37.3533179, -119.5420304, 0.700, 10:57:53.756, 17, 0.00, 0.22, 98, 1.000, 0.500, -92.800, 770, 100, 100, 23, 23892, -16410, 5399, 5510, 10, 11, 1528826273.757, 54, 0, 1024, 1024, 1024, 1024, 0, 6, 4002, 4023, 4155, 4161, 4145, 4130, 0, 1, 4601, -89.900, 0.000, -93.400, 0.000, 0.000, -0.400, 0.0, , , , , , 98, , , 53, 53, 53
37.3533179, -119.5420304, 0.700, 10:57:53.857, 17, 0.00, 0.22, 98, 1.000, 0.500, -92.800, 770, 100, 100, 23, 23892, -16410, 5399, 5510, 10, 11, 1528826273.858, 34, 0, 1024, 1024, 1024, 1024, 0, 6, 4002, 4023, 4155, 4161, 4145, 4130, 0, 1, 4702, -89.900, 0.000, -93.400, 0.000, 0.000, -0.500, 0.0, , , , , , 98, , , 53, 53, 53
37.3533179, -119.5420304, 0.800, 10:57:53.957, 17, 0.00, 0.21, 98, 1.000, 0.500, -92.800, 770, 100, 100, 23, 23892, -16410, 5399, 5510, 10, 11, 1528826273.957, 47, 0, 1024, 1024, 1024, 1024, 0, 6, 4002, 4023, 4155, 4161, 4145, 4130, 0, 1, 4801, -89.900, 0.000, -93.400, 0.000, 0.000, -0.500, 0.0, , , , , , 98, , , 53, 53, 53
37.3533179, -119.5420304, 0.900, 10:57:54.057, 18, 0.00, 0.21, 98, 1.000, 0.400, -92.800, 770, 100, 100, 23, 23892, -16410, 5399, 5510, 10, 11, 1528826274.058, 48, 0, 1024, 1024, 1024, 1024, 0, 6, 4002, 4023, 4155, 4161, 4145, 4130, 0, 1, 4902, -89.900, 0.000, -93.400, 0.000, 0.000, -0.400, 0.0, , , , , , 98, , , 53, 53, 53
37.3533179, -119.5420303, 0.900, 10:57:54.157, 18, 0.00, 0.21, 98, 0.800, 0.300, -92.800, 770, 100, 100, 23, 23892, -16410, 5399, 5510, 10, 14, 1528826274.158, 31, 0, 1024, 1024, 1024, 1024, 0, 6, 4002, 4023, 4155, 4161, 4145, 4130, 0, 1, 5002, -90.000, 0.000, -93.400, 0.000, 0.000, -0.500, 0.0, , , , , , 98, , , 53, 53, 53
37.3533179, -119.5420303, 1.000, 10:57:54.258, 18, 0.00, 0.21, 98, 0.500, 0.100, -92.800, 770, 100, 100, 23, 23892, -16410, 5399, 5510, 10, 14, 1528826274.258, 31, 0, 1024, 1024, 1024, 1024, 0, 6, 3977, 3976, 3966, 3981, 4026, 4021, 0, 1, 5102, -90.000, 0.000, -93.400, 0.000, 0.000, -0.300, 0.0, , , , , , 98, , , 53, 53, 53
37.3533179, -119.5420303, 1.000, 10:57:54.357, 18, 0.00, 0.21, 98, 0.000, -0.100, -92.900, 770, 100, 100, 23, 23892, -16410, 5399, 5510, 10, 14, 1528826274.358, 13, 0, 1024, 1024, 1024, 1024, 0, 6, 3977, 3976, 3966, 3981, 4026, 4021, 0, 1, 5202, -90.000, 0.000, -93.400, 0.000, 0.000, -0.300, 0.0, , , , , , 98, , , 53, 53, 53
37.3533180, -119.5420303, 1.100, 10:57:54.456, 16, 0.00, 0.21, 98, 0.000, -0.200, -93.000, 770, 100, 100, 23, 23892, -16410, 5399, 5510, 10, 14, 1528826274.457, 3, 0, 1024, 1024, 1024, 1024, 0, 6, 3977, 3976, 3966, 3981, 4026, 4021, 0, 1, 5301, -90.000, 0.000, -93.400, 0.000, 0.000, -0.300, 0.0, , , , , , 98, , , 53, 53, 53
37.3533180, -119.5420303, 1.100, 10:57:54.558, 16, 0.00, 0.20, 98, 0.000, -0.200, -93.100, 770, 100, 100, 23, 23892, -16410, 5399, 5510, 10, 14, 1528826274.558, 21, 0, 1024, 1024, 1024, 1024, 0, 6, 3977, 3976, 3966, 3981, 4026, 4021, 0, 1, 5402, -90.000, 0.000, -93.400, 0.000, 0.000, -0.400, 0.0, , , , , , 98, , , 53, 53, 53
37.3533180, -119.5420303, 1.200, 10:57:54.657, 16, 0.00, 0.20, 98, 0.000, -0.100, -93.100, 770, 100, 100, 23, 23892, -16410, 5399, 5510, 10, 14, 1528826274.658, 16, 0, 1024, 1024, 1024, 1024, 0, 6, 3977, 3976, 3966, 3981, 4026, 4021, 0, 1, 5502, -90.000, 0.000, -93.400, 0.000, 0.000, -0.600, 0.0, , , , , , 98, , , 53, 53, 53
37.3533181, -119.5420303, 1.200, 10:57:54.757, 16, 0.00, 0.19, 98, 0.000, 0.000, -93.000, 770, 100, 100, 23, 23892, -16410, 5399, 5510, 10, 14, 1528826274.758, 3, 0, 1024, 1024, 1024, 1024, 0, 6, 3977, 3976, 3966, 3981, 4026, 4021, 0, 1, 5602, -90.000, 0.000, -93.400, 0.000, 0.000, -0.700, 0.0, , , , , , 98, , , 53, 53, 53
37.3533181, -119.5420303, 1.300, 10:57:54.857, 16, 0.00, 0.19, 98, 0.100, 0.100, -93.000, 770, 100, 100, 23, 23892, -16410, 5399, 5510, 10, 14, 1528826274.858, 15, 0, 1024, 1024, 1024, 1024, 0, 6, 3977, 3976, 3966, 3981, 4026, 4021, 0, 1, 5702, -89.900, 0.000, -93.400, 0.000, 0.000, -0.900, 0.0, , , , , , 98, , , 53, 53, 53
37.3533181, -119.5420303, 1.400, 10:57:54.957, 18, 0.00, 0.19, 98, 0.100, 0.100, -93.000, 770, 100, 100, 23, 23892, -16410, 5399, 5510, 10, 14, 1528826274.957, 5, 0, 1024, 1024, 1024, 1024, 0, 6, 3977, 3976, 3966, 3981, 4026, 4021, 0, 1, 5801, -90.000, 0.000, -93.400, 0.000, 0.000, -1.100, 0.0, , , , , , 98, , , 53, 53, 53
37.3533181, -119.5420303, 1.400, 10:57:55.057, 18, 0.00, 0.19, 98, 0.100, 0.100, -93.000, 770, 100, 100, 23, 23892, -16410, 5399, 5510, 10, 14, 1528826275.058, 106, 0, 1024, 1024, 1024, 1024, 0, 6, 3977, 3976, 3966, 3981, 4026, 4021, 0, 1, 5902, -90.000, 0.000, -93.400, 0.000, 0.000, -1.100, 0.0, , , , , , 98, , , 53, 53, 53
37.3533180, -119.5420302, 1.600, 10:57:55.157, 18, 0.00, 0.20, 98, 0.100, 0.100, -93.000, 770, 100, 100, 23, 23892, -16410, 5399, 5510, 10, 14, 1528826275.158, 97, 0, 1024, 1024, 1024, 1024, 0, 6, 3977, 3976, 3966, 3981, 4026, 4021, 0, 1, 6002, -89.900, 0.000, -93.400, 0.000, 0.000, -1.300, 0.0, , , , , , 98, , , 53, 53, 53
37.3533180, -119.5420302, 1.700, 10:57:55.258, 18, 0.00, 0.21, 98, 0.300, 0.000, -93.000, 770, 100, 100, 23, 24071, -15719, 5399, 5510, 10, 14, 1528826275.258, 98, 0, 1024, 1024, 1024, 1024, 0, 6, 4019, 3982, 3941, 4004, 3980, 3974, 0, 1, 6102, -90.000, 0.000, -93.400, 0.000, 0.000, -1.500, 0.0, , , , , , 98, , , 53, 53, 53
37.3533178, -119.5420303, 1.900, 10:57:55.357, 18, 0.00, 0.22, 98, 0.400, 0.000, -93.000, 770, 100, 100, 23, 24071, -15719, 5399, 5510, 10, 14, 1528826275.358, 93, 0, 1024, 1024, 1024, 1024, 0, 6, 4019, 3982, 3941, 4004, 3980, 3974, 0, 1, 6202, -90.000, 0.000, -93.400, 0.000, 0.000, -1.800, 0.0, , , , , , 98, , , 53, 53, 53
37.3533177, -119.5420303, 2.100, 10:57:55.457, 17, 0.00, 0.23, 98, 0.600, 0.100, -92.900, 770, 100, 100, 23, 24071, -15719, 5399, 5510, 10, 14, 1528826275.457, 83, 0, 1024, 1024, 1024, 1024, 0, 6, 4019, 3982, 3941, 4004, 3980, 3974, 0, 1, 6301, -89.900, 0.000, -93.400, 0.000, 0.000, -2.100, 0.0, , , , , , 98, , , 53, 53, 53
37.3533176, -119.5420303, 2.300, 10:57:55.558, 17, 0.00, 0.25, 98, 0.900, 0.200, -92.700, 770, 100, 100, 23, 24071, -15719, 5399, 5510, 10, 14, 1528826275.558, 86, 0, 1024, 1024, 1024, 1024, 0, 6, 4019, 3982, 3941, 4004, 3980, 3974, 0, 1, 6402, -89.900, 0.000, -93.400, 0.000, 0.000, -2.200, 0.0, , , , , , 98, , , 53, 53, 53
37.3533174, -119.5420303, 2.600, 10:57:55.658, 17, 0.00, 0.27, 98, 1.400, 0.300, -92.600, 770, 100, 100, 23, 24071, -15719, 5399, 5510, 10, 14, 1528826275.658, 71, 0, 1024, 1024, 1024, 1024, 0, 6, 4019, 3982, 3941, 4004, 3980, 3974, 0, 1, 6502, -89.900, 0.000, -93.400, 0.000, 0.000, -2.500, 0.0, , , , , , 98, , , 53, 53, 53
37.3533173, -119.5420304, 2.800, 10:57:55.758, 17, 0.00, 0.28, 98, 1.600, 0.300, -92.600, 770, 100, 100, 23, 24071, -15719, 5399, 5510, 10, 14, 1528826275.758, 74, 0, 1024, 1024, 1024, 1024, 0, 6, 4019, 3982, 3941, 4004, 3980, 3974, 0, 1, 6602, -89.900, 0.000, -93.400, 0.000, 0.000, -2.700, 0.0, , , , , , 98, , , 53, 53, 53
37.3533172, -119.5420304, 3.100, 10:57:55.857, 18, 0.00, 0.29, 98, 1.600, 0.400, -92.600, 770, 100, 100, 23, 24071, -15719, 5399, 5510, 10, 14, 1528826275.858, 86, 0, 1024, 1024, 1024, 1024, 0, 6, 4019, 3982, 3941, 4004, 3980, 3974, 0, 1, 6702, -89.900, 0.000, -93.400, 0.000, 0.000, -2.900, 0.0, , , , , , 98, , , 53, 53, 53
37.3533170, -119.5420304, 3.400, 10:57:55.957, 18, 0.00, 0.31, 98, 1.600, 0.300, -92.700, 770, 100, 100, 23, 24071, -15719, 5399, 5510, 10, 14, 1528826275.957, 51, 0, 1024, 1024, 1024, 1024, 0, 6, 4019, 3982, 3941, 4004, 3980, 3974, 0, 1, 6801, -89.900, 0.000, -93.400, 0.000, 0.000, -3.000, 0.0, , , , , , 98, , , 53, 53, 53
37.3533169, -119.5420304, 3.700, 10:57:56.058, 18, 0.00, 0.32, 98, 1.700, 0.400, -92.800, 770, 100, 100, 23, 24071, -15719, 5399, 5510, 10, 14, 1528826276.058, 58, 0, 1024, 1024, 1024, 1024, 0, 6, 4019, 3982, 3941, 4004, 3980, 3974, 0, 1, 6902, -89.900, 0.000, -93.400, 0.000, 0.000, -3.100, 0.0, , , , , , 98, , , 53, 53, 53
37.3533169, -119.5420304, 4.100, 10:57:56.158, 18, 0.00, 0.32, 98, 1.600, 0.300, -92.800, 770, 100, 100, 23, 24071, -15719, 5399, 5510, 10, 14, 1528826276.158, 64, 0, 1024, 1024, 1024, 1024, 0, 6, 4019, 3982, 3941, 4004, 3980, 3974, 0, 1, 7002, -89.900, 0.000, -93.400, 0.000, 0.000, -3.200, 0.0, , , , , , 98, , , 53, 53, 53
37.3533169, -119.5420304, 4.400, 10:57:56.258, 18, 0.00, 0.32, 98, 1.400, 0.500, -92.900, 770, 100, 100, 23, 23272, -22490, 5399, 5510, 10, 14, 1528826276.258, 68, 0, 1024, 1024, 1024, 1024, 0, 6, 3871, 3847, 3848, 3862, 3855, 3884, 0, 1, 7102, -89.900, 0.000, -93.400, 0.000, 0.000, -3.200, 0.0, , , , , , 98, , , 53, 53, 53
37.3533168, -119.5420304, 4.700, 10:57:56.357, 18, 0.00, 0.33, 98, 1.300, 0.500, -92.900, 770, 100, 100, 23, 23272, -22490, 5399, 5510, 10, 14, 1528826276.357, 58, 0, 1024, 1024, 1024, 1024, 0, 6, 3871, 3847, 3848, 3862, 3855, 3884, 0, 1, 7201, -89.900, 0.000, -93.400, 0.000, 0.000, -3.200, 0.0, , , , , , 98, , , 53, 53, 53
37.3533168, -119.5420304, 5.100, 10:57:56.457, 18, 0.00, 0.34, 98, 1.200, 0.400, -93.000, 770, 100, 100, 23, 23272, -22490, 5399, 5510, 10, 14, 1528826276.457, 50, 0, 1024, 1024, 1024, 1024, 0, 6, 3871, 3847, 3848, 3862, 3855, 3884, 0, 1, 7301, -89.900, 0.000, -93.400, 0.000, 0.000, -3.200, 0.0, , , , , , 98, , , 53, 53, 53
37.3533168, -119.5420304, 5.400, 10:57:56.558, 18, 0.00, 0.33, 98, 1.000, 0.600, -93.100, 770, 100, 100, 23, 23272, -22490, 5399, 5510, 10, 14, 1528826276.558, 43, 0, 1024, 1024, 1024, 1024, 0, 6, 3871, 3847, 3848, 3862, 3855, 3884, 0, 1, 7402, -89.900, 0.000, -93.400, 0.000, 0.000, -3.200, 0.0, , , , , , 98, , , 53, 53, 53
37.3533168, -119.5420305, 5.800, 10:57:56.658, 18, 0.00, 0.33, 98, 0.800, 0.600, -93.100, 770, 100, 100, 23, 23272, -22490, 5399, 5510, 10, 14, 1528826276.658, 31, 0, 1024, 1024, 1024, 1024, 0, 6, 3871, 3847, 3848, 3862, 3855, 3884, 0, 1, 7502, -89.900, 0.000, -93.400, 0.000, 0.000, -3.200, 0.0, , , , , , 98, , , 53, 53, 53
37.3533168, -119.5420305, 6.100, 10:57:56.758, 18, 0.00, 0.33, 98, 0.800, 0.600, -93.000, 770, 100, 100, 23, 23272, -22490, 5399, 5510, 10, 14, 1528826276.758, 35, 0, 1024, 1024, 1024, 1024, 0, 6, 3871, 3847, 3848, 3862, 3855, 3884, 0, 1, 7602, -89.900, 0.000, -93.400, 0.000, 0.000, -3.200, 0.0, , , , , , 98, , , 53, 53, 53
37.3533169, -119.5420305, 6.400, 10:57:56.858, 18, 0.00, 0.32, 98, 0.800, 0.500, -93.000, 770, 100, 100, 23, 23272, -22490, 5399, 5510, 10, 14, 1528826276.858, 39, 0, 1024, 1024, 1024, 1024, 0, 6, 3871, 3847, 3848, 3862, 3855, 3884, 0, 1, 7702, -89.900, 0.000, -93.400, 0.000, 0.000, -3.200, 0.0, , , , , , 98, , , 53, 53, 53
37.3533170, -119.5420304, 6.800, 10:57:56.957, 18, 0.00, 0.31, 98, 0.800, 0.500, -93.100, 770, 100, 100, 23, 23272, -22490, 5399, 5510, 10, 14, 1528826276.957, 30, 0, 1024, 1024, 1024, 1024, 0, 6, 3871, 3847, 3848, 3862, 3855, 3884, 0, 1, 7801, -90.000, 0.000, -93.400, 0.000, 0.000, -3.200, 0.0, , , , , , 98, , , 53, 53, 53
37.3533171, -119.5420304, 7.100, 10:57:57.058, 18, 0.00, 0.30, 98, 0.600, 0.400, -93.000, 770, 100, 100, 23, 23272, -22490, 5399, 5510, 10, 14, 1528826277.058, 10, 0, 1024, 1024, 1024, 1024, 0, 6, 3871, 3847, 3848, 3862, 3855, 3884, 0, 1, 7902, -90.000, 0.000, -93.400, 0.000, 0.000, -3.200, 0.0, , , , , , 98, , , 53, 53, 53
37.3533174, -119.5420303, 7.800, 10:57:57.157, 18, 0.00, 0.27, 98, 0.500, 0.100, -92.600, 770, 100, 100, 23, 23272, -22490, 5399, 5510, 10, 14, 1528826277.158, 8, 0, 1024, 1024, 1024, 1024, 0, 6, 3871, 3847, 3848, 3862, 3855, 3884, 0, 1, 8002, -90.000, 0.000, -93.400, 0.000, 0.000, -3.200, 0.0, , , , , , 98, , , 53, 53, 53
37.3533176, -119.5420303, 8.100, 10:57:57.258, 18, 0.00, 0.25, 98, 0.200, 0.100, -92.500, 770, 100, 100, 23, 23267, -21884, 5344, 5510, 10, 14, 1528826277.258, 14, 0, 1024, 1024, 1024, 1024, 0, 6, 3869, 3888, 3876, 3889, 3895, 3911, 0, 1, 8103, -90.000, 0.000, -93.400, 0.000, 0.000, -3.200, 0.0, , , , , , 98, , , 53, 53, 53
37.3533178, -119.5420302, 8.400, 10:57:57.358, 18, 0.00, 0.23, 98, 0.000, 0.000, -92.400, 770, 100, 100, 23, 23267, -21884, 5344, 5510, 10, 14, 1528826277.359, 18, 0, 1024, 1024, 1024, 1024, 0, 6, 3869, 3888, 3876, 3889, 3895, 3911, 0, 1, 8203, -90.000, 0.000, -93.400, 0.000, 0.000, -3.100, 0.0, , , , , , 98, , , 53, 53, 53
37.3533179, -119.5420302, 8.800, 10:57:57.462, 18, 0.00, 0.21, 98, -0.400, -0.100, -92.400, 770, 100, 100, 23, 23267, -21884, 5344, 5510, 10, 14, 1528826277.462, 2, 0, 1024, 1024, 1024, 1024, 0, 6, 3869, 3888, 3876, 3889, 3895, 3911, 0, 1, 8306, -90.000, 0.000, -93.300, 0.000, 0.000, -3.100, 0.0, , , , , , 98, , , 53, 53, 53
37.3533179, -119.5420302, 8.800, 10:57:57.558, 18, 0.00, 0.21, 98, -0.400, -0.100, -92.400, 770, 100, 100, 23, 23267, -21884, 5344, 5510, 10, 14, 1528826277.559, 98, 0, 1024, 1024, 1024, 1024, 0, 6, 3869, 3888, 3876, 3889, 3895, 3911, 0, 1, 8403, -90.000, 0.000, -93.300, 0.000, 0.000, -3.100, 0.0, , , , , , 98, , , 53, 53, 53
37.3533181, -119.5420302, 9.100, 10:57:57.658, 18, 0.00, 0.19, 98, -0.700, 0.000, -92.500, 770, 100, 100, 23, 23267, -21884, 5344, 5510, 10, 14, 1528826277.658, 98, 0, 1024, 1024, 1024, 1024, 0, 6, 3869, 3888, 3876, 3889, 3895, 3911, 0, 1, 8502, -90.000, 0.000, -93.400, 0.000, 0.000, -3.100, 0.0, , , , , , 98, , , 53, 53, 53
37.3533182, -119.5420301, 9.400, 10:57:57.758, 18, 0.00, 0.17, 98, -0.800, 0.000, -92.700, 770, 100, 100, 23, 23267, -21884, 5344, 5510, 10, 14, 1528826277.759, 75, 0, 1024, 1024, 1024, 1024, 0, 6, 3869, 3888, 3876, 3889, 3895, 3911, 0, 1, 8603, -90.000, 0.000, -93.400, 0.000, 0.000, -3.100, 0.0, , , , , , 98, , , 53, 53, 53
37.3533183, -119.5420300, 9.700, 10:57:57.858, 18, 0.00, 0.16, 98, -0.700, -0.100, -92.800, 770, 100, 100, 23, 23267, -21884, 5344, 5510, 10, 14, 1528826277.859, 79, 0, 1024, 1024, 1024, 1024, 0, 6, 3869, 3888, 3876, 3889, 3895, 3911, 0, 1, 8703, -90.000, 0.000, -93.400, 0.000, 0.000, -3.100, 0.0, , , , , , 98, , , 53, 53, 53
37.3533184, -119.5420299, 10.000, 10:57:57.957, 18, 0.00, 0.15, 98, -0.500, -0.300, -92.800, 770, 100, 100, 23, 23267, -21884, 5344, 5510, 10, 14, 1528826277.957, 77, 0, 1024, 1024, 1024, 1024, 0, 6, 3869, 3888, 3876, 3889, 3895, 3911, 0, 1, 8801, -90.000, 0.000, -93.300, 0.000, 0.000, -3.000, 0.0, , , , , , 98, , , 53, 53, 53
37.3533184, -119.5420298, 10.400, 10:57:58.057, 18, 0.00, 0.15, 98, -0.400, -0.400, -92.900, 770, 100, 100, 23, 23267, -21884, 5344, 5510, 10, 14, 1528826278.058, 80, 0, 1024, 1024, 1024, 1024, 0, 6, 3869, 3888, 3876, 3889, 3895, 3911, 0, 1, 8902, -90.000, 0.000, -93.400, 0.000, 0.000, -3.000, 0.0, , , , , , 98, , , 53, 53, 53
37.3533184, -119.5420298, 10.700, 10:57:58.158, 18, 0.00, 0.14, 98, -0.500, -0.600, -92.900, 770, 100, 100, 23, 23267, -21884, 5344, 5510, 10, 14, 1528826278.159, 74, 0, 1024, 1024, 1024, 1024, 0, 6, 3869, 3888, 3876, 3889, 3895, 3911, 0, 1, 9003, -90.000, 0.000, -93.400, 0.000, 0.000, -3.000, 0.0, , , , , , 98, , , 53, 53, 53
37.3533185, -119.5420297, 11.000, 10:57:58.258, 18, 0.00, 0.13, 97, -0.300, -0.600, -93.000, 770, 100, 100, 23, 23482, -18196, 5344, 5510, 10, 14, 1528826278.259, 78, 0, 1024, 1024, 1024, 1024, 0, 6, 3917, 3909, 3903, 3922, 3922, 3945, 0, 1, 9103, -90.000, 0.000, -93.400, 0.000, 0.000, -3.000, 0.0, , , , , , 98, , , 53, 53, 53
37.3533186, -119.5420297, 11.300, 10:57:58.358, 18, 0.00, 0.12, 97, -0.200, -0.300, -93.000, 770, 100, 100, 23, 23482, -18196, 5344, 5510, 10, 14, 1528826278.358, 74, 0, 1024, 1024, 1024, 1024, 0, 6, 3917, 3909, 3903, 3922, 3922, 3945, 0, 1, 9203, -89.900, 0.000, -93.400, 0.000, 0.000, -3.000, 0.0, , , , , , 98, , , 53, 53, 53
37.3533187, -119.5420297, 11.600, 10:57:58.457, 18, 0.00, 0.11, 97, -0.200, -0.100, -93.000, 770, 100, 100, 23, 23482, -18196, 5344, 5510, 10, 14, 1528826278.457, 42, 0, 1024, 1024, 1024, 1024, 0, 6, 3917, 3909, 3903, 3922, 3922, 3945, 0, 1, 9302, -89.900, 0.000, -93.400, 0.000, 0.000, -3.000, 0.0, , , , , , 98, , , 53, 53, 53
37.3533188, -119.5420297, 11.900, 10:57:58.558, 18, 0.00, 0.10, 97, -0.300, -0.100, -93.000, 770, 100, 100, 23, 23482, -18196, 5344, 5510, 10, 14, 1528826278.558, 50, 0, 1024, 1024, 1024, 1024, 0, 6, 3917, 3909, 3903, 3922, 3922, 3945, 0, 1, 9402, -89.900, 0.000, -93.400, 0.000, 0.000, -2.900, 0.0, , , , , , 98, , , 53, 53, 53
37.3533189, -119.5420297, 12.200, 10:57:58.658, 18, 0.00, 0.09, 97, -0.400, 0.000, -93.000, 770, 100, 100, 23, 23482, -18196, 5344, 5510, 10, 14, 1528826278.658, 47, 0, 1024, 1024, 1024, 1024, 0, 6, 3917, 3909, 3903, 3922, 3922, 3945, 0, 1, 9503, -89.900, 0.000, -93.400, 0.000, 0.000, -2.900, 0.0, , , , , , 98, , , 53, 53, 53
37.3533190, -119.5420297, 12.500, 10:57:58.758, 18, 0.00, 0.08, 97, -0.400, -0.100, -93.000, 770, 100, 100, 23, 23482, -18196, 5344, 5510, 10, 14, 1528826278.758, 39, 0, 1024, 1024, 1024, 1024, 0, 6, 3917, 3909, 3903, 3922, 3922, 3945, 0, 1, 9603, -90.000, 0.000, -93.400, 0.000, 0.000, -3.000, 0.0, , , , , , 98, , , 53, 53, 53
37.3533191, -119.5420297, 12.900, 10:57:58.858, 18, 0.00, 0.07, 97, -0.400, -0.200, -93.000, 770, 100, 100, 23, 23482, -18196, 5344, 5510, 10, 14, 1528826278.858, 40, 0, 1024, 1024, 1024, 1024, 0, 6, 3917, 3909, 3903, 3922, 3922, 3945, 0, 1, 9702, -90.000, 0.000, -93.400, 0.000, 0.000, -3.000, 0.0, , , , , , 98, , , 53, 53, 53
37.3533191, -119.5420297, 13.200, 10:57:58.957, 18, 0.00, 0.07, 97, -0.300, -0.200, -93.000, 770, 100, 100, 23, 23482, -18196, 5344, 5510, 10, 14, 1528826278.957, 42, 0, 1024, 1024, 1024, 1024, 0, 6, 3917, 3909, 3903, 3922, 3922, 3945, 0, 1, 9801, -90.000, 0.000, -93.400, 0.000, 0.000, -3.000, 0.0, , , , , , 98, , , 53, 53, 53
37.3533191, -119.5420297, 13.500, 10:57:59.058, 18, 0.00, 0.07, 97, -0.300, -0.200, -92.900, 770, 100, 100, 23, 23482, -18196, 5344, 5510, 10, 14, 1528826279.059, 23, 0, 1024, 1024, 1024, 1024, 0, 6, 3917, 3909, 3903, 3922, 3922, 3945, 0, 1, 9903, -90.000, 0.000, -93.400, 0.000, 0.000, -2.900, 0.0, , , , , , 98, , , 53, 53, 53
37.3533191, -119.5420297, 13.800, 10:57:59.158, 18, 0.00, 0.07, 97, -0.300, -0.100, -92.800, 770, 100, 100, 23, 23482, -18196, 5344, 5510, 10, 14, 1528826279.159, 28, 0, 1024, 1024, 1024, 1024, 0, 6, 3917, 3909, 3903, 3922, 3922, 3945, 0, 1, 10003, -89.900, 0.000, -93.400, 0.000, 0.000, -2.900, 0.0, , , , , , 98, , , 53, 53, 53
37.3533192, -119.5420297, 14.000, 10:57:59.258, 18, 0.00, 0.06, 97, -0.300, 0.000, -92.800, 770, 100, 100, 23, 23522, -17998, 5344, 5510, 10, 14, 1528826279.259, 10, 0, 1024, 1024, 1024, 1024, 0, 6, 3917, 3909, 3903, 3922, 3922, 3945, 0, 1, 10103, -89.900, 0.000, -93.400, 0.000, 0.000, -2.900, 0.0, , , , , , 98, , , 53, 53, 53
37.3533192, -119.5420297, 14.300, 10:57:59.358, 18, 0.00, 0.06, 97, -0.200, 0.000, -92.800, 770, 100, 98, 23, 23522, -17998, 5344, 5510, 10, 14, 1528826279.358, 24, 0, 1024, 1024, 1024, 1024, 0, 6, 3917, 3909, 3903, 3922, 3922, 3945, 0, 1, 10203, -89.900, 0.000, -93.400, 0.000, 0.000, -2.900, 0.0, , , , , , 98, , , 53, 53, 53
37.3533192, -119.5420298, 14.900, 10:57:59.470, 18, 0.00, 0.06, 97, -0.300, 0.000, -92.900, 770, 100, 98, 23, 23522, -17998, 5344, 5510, 10, 14, 1528826279.471, 2, 0, 1024, 1024, 1024, 1024, 0, 6, 3917, 3909, 3903, 3922, 3922, 3945, 0, 1, 10315, -89.900, 0.000, -93.400, 0.000, 0.000, -2.900, 0.0, , , , , , 98, , , 53, 53, 53
37.3533192, -119.5420298, 15.200, 10:57:59.558, 18, 0.00, 0.07, 97, -0.400, 0.000, -92.900, 770, 100, 98, 23, 23522, -17998, 5344, 5510, 10, 14, 1528826279.559, 18, 0, 1024, 1024, 1024, 1024, 0, 6, 3917, 3909, 3903, 3922, 3922, 3945, 0, 1, 10403, -89.900, 0.000, -93.400, 0.000, 0.000, -2.900, 0.0, , , , , , 98, , , 53, 53, 53
37.3533192, -119.5420298, 15.200, 10:57:59.658, 18, 0.00, 0.07, 97, -0.400, 0.000, -92.900, 770, 100, 98, 23, 23522, -17998, 5344, 5510, 10, 14, 1528826279.659, 118, 0, 1024, 1024, 1024, 1024, 0, 6, 3917, 3909, 3903, 3922, 3922, 3945, 0, 1, 10503, -89.900, 0.000, -93.400, 0.000, 0.000, -2.900, 0.0, , , , , , 98, , , 53, 53, 53
37.3533191, -119.5420299, 15.800, 10:57:59.758, 19, 0.00, 0.08, 97, -0.200, 0.000, -92.900, 770, 100, 98, 23, 23522, -17998, 5344, 5510, 10, 14, 1528826279.758, 3, 0, 1024, 1024, 1024, 1024, 0, 6, 3916, 3913, 3902, 3917, 3920, 3932, 0, 1, 10602, -89.900, 0.000, -93.400, 0.000, 0.000, -2.900, 0.0, , , , , , 98, , , 53, 53, 53
37.3533191, -119.5420299, 15.800, 10:57:59.858, 19, 0.00, 0.08, 97, -0.200, 0.000, -92.900, 770, 100, 98, 23, 23522, -17998, 5344, 5510, 10, 14, 1528826279.859, 103, 0, 1024, 1024, 1024, 1024, 0, 6, 3916, 3913, 3902, 3917, 3920, 3932, 0, 1, 10703, -89.900, 0.000, -93.400, 0.000, 0.000, -2.900, 0.0, , , , , , 98, , , 53, 53, 53
37.3533190, -119.5420299, 16.100, 10:57:59.957, 19, 0.00, 0.09, 97, 0.000, 0.000, -92.800, 770, 100, 98, 23, 23522, -17998, 5344, 5510, 10, 14, 1528826279.957, 92, 0, 1024, 1024, 1024, 1024, 0, 6, 3916, 3913, 3902, 3917, 3920, 3932, 0, 1, 10801, -89.900, 0.000, -93.400, 0.000, 0.000, -2.900, 0.0, , , , , , 98, , , 53, 53, 53
37.3533190, -119.5420299, 16.100, 10:58:00.057, 19, 0.00, 0.09, 97, 0.000, 0.000, -92.800, 770, 100, 98, 23, 23522, -17998, 5344, 5510, 10, 14, 1528826280.057, 192, 0, 1024, 1024, 1024, 1024, 0, 6, 3916, 3913, 3902, 3917, 3920, 3932, 0, 1, 10901, -89.900, 0.000, -93.400, 0.000, 0.000, -2.900, 0.0, , , , , , 98, , , 53, 53, 53
37.3533188, -119.5420299, 16.700, 10:58:00.158, 19, 0.00, 0.11, 97, 0.700, 0.200, -92.600, 770, 100, 98, 23, 23522, -17998, 5344, 5510, 10, 14, 1528826280.159, 79, 0, 1024, 1024, 1024, 1024, 0, 6, 3916, 3913, 3902, 3917, 3920, 3932, 0, 1, 11003, -89.900, 0.000, -93.400, 0.000, 0.000, -2.900, 0.0, , , , , , 98, , , 53, 53, 53
37.3533187, -119.5420299, 17.000, 10:58:00.257, 19, 0.00, 0.12, 97, 0.900, 0.100, -92.600, 770, 100, 98, 23, 23522, -17998, 5344, 5510, 10, 14, 1528826280.257, 71, 0, 1024, 1024, 1024, 1024, 0, 6, 3916, 3913, 3902, 3917, 3920, 3932, 0, 1, 11101, -89.900, 0.000, -93.400, 0.000, 0.000, -2.900, 0.0, , , , , , 98, , , 53, 53, 53
37.3533186, -119.5420300, 17.300, 10:58:00.358, 19, 0.00, 0.13, 97, 1.000, 0.100, -92.500, 770, 100, 96, 23, 23522, -17998, 5344, 5510, 10, 14, 1528826280.358, 79, 0, 1024, 1024, 1024, 1024, 0, 6, 3916, 3913, 3902, 3917, 3920, 3932, 0, 1, 11202, -89.900, 0.000, -93.400, 0.000, 0.000, -2.900, 0.0, , , , , , 98, , , 53, 53, 53
37.3533185, -119.5420300, 17.600, 10:58:00.457, 19, 0.00, 0.14, 97, 0.900, 0.200, -92.600, 770, 100, 96, 23, 23522, -17998, 5344, 5510, 10, 14, 1528826280.457, 70, 0, 1024, 1024, 1024, 1024, 0, 6, 3916, 3913, 3902, 3917, 3920, 3932, 0, 1, 11301, -89.900, 0.000, -93.400, 0.000, 0.000, -2.900, 0.0, , , , , , 98, , , 53, 53, 53
37.3533184, -119.5420301, 17.900, 10:58:00.558, 19, 0.00, 0.15, 97, 0.800, 0.300, -92.600, 770, 100, 96, 23, 23522, -17998, 5344, 5510, 10, 14, 1528826280.558, 72, 0, 1024, 1024, 1024, 1024, 0, 6, 3916, 3913, 3902, 3917, 3920, 3932, 0, 1, 11402, -89.900, 0.000, -93.400, 0.000, 0.000, -2.900, 0.0, , , , , , 98, , , 53, 53, 53
37.3533183, -119.5420301, 18.200, 10:58:00.658, 19, 0.00, 0.16, 97, 0.700, 0.400, -92.700, 770, 100, 96, 23, 23522, -17998, 5344, 5510, 10, 14, 1528826280.658, 65, 0, 1024, 1024, 1024, 1024, 0, 6, 3916, 3913, 3902, 3917, 3920, 3932, 0, 1, 11502, -89.900, 0.000, -93.400, 0.000, 0.000, -2.900, 0.0, , , , , , 98, , , 53, 53, 53
37.3533182, -119.5420301, 18.500, 10:58:00.758, 19, 0.00, 0.18, 97, 0.700, 0.400, -92.800, 770, 100, 96, 23, 23447, -17875, 5344, 5510, 10, 14, 1528826280.758, 52, 0, 1024, 1024, 1024, 1024, 0, 6, 3908, 3907, 3897, 3909, 3913, 3932, 0, 1, 11602, -89.900, 0.000, -93.400, 0.000, 0.000, -2.900, 0.0, , , , , , 98, , , 53, 53, 53
37.3533181, -119.5420302, 18.800, 10:58:00.858, 19, 0.00, 0.19, 97, 0.900, 0.300, -92.900, 770, 100, 98, 23, 23447, -17875, 5344, 5510, 10, 14, 1528826280.858, 58, 0, 1024, 1024, 1024, 1024, 0, 6, 3908, 3907, 3897, 3909, 3913, 3932, 0, 1, 11702, -89.900, 0.000, -93.400, 0.000, 0.000, -2.900, 0.0, , , , , , 98, , , 53, 53, 53
37.3533181, -119.5420302, 18.800, 10:58:00.957, 19, 0.00, 0.19, 97, 0.900, 0.300, -92.900, 770, 100, 98, 23, 23447, -17875, 5344, 5510, 10, 14, 1528826280.957, 157, 0, 1024, 1024, 1024, 1024, 0, 6, 3908, 3907, 3897, 3909, 3913, 3932, 0, 1, 11801, -90.000, 0.000, -93.400, 0.000, 0.000, -2.900, 0.0, , , , , , 98, , , 53, 53, 53
37.3533179, -119.5420302, 19.400, 10:58:01.058, 19, 0.00, 0.21, 97, 1.700, 0.000, -93.000, 770, 100, 98, 23, 23447, -17875, 5344, 5510, 10, 14, 1528826281.058, 42, 0, 1024, 1024, 1024, 1024, 0, 6, 3908, 3907, 3897, 3909, 3913, 3932, 0, 1, 11902, -89.900, 0.000, -93.400, 0.000, 0.000, -2.900, 0.0, , , , , , 98, , , 53, 53, 53
37.3533177, -119.5420302, 19.700, 10:58:01.160, 19, 0.00, 0.23, 97, 2.000, 0.000, -93.000, 770, 100, 98, 23, 23447, -17875, 5344, 5510, 10, 14, 1528826281.160, 2, 0, 1024, 1024, 1024, 1024, 0, 6, 3908, 3907, 3897, 3909, 3913, 3932, 0, 1, 12004, -89.900, 0.000, -93.400, 0.000, 0.000, -2.900, 0.0, , , , , , 98, , , 53, 53, 53
37.3533176, -119.5420302, 20.000, 10:58:01.258, 19, 0.00, 0.24, 97, 2.000, 0.100, -92.900, 770, 100, 98, 23, 23447, -17875, 5344, 5510, 10, 14, 1528826281.258, 28, 0, 1024, 1024, 1024, 1024, 0, 6, 3908, 3907, 3897, 3909, 3913, 3932, 0, 1, 12102, -89.900, 0.000, -93.400, 0.000, 0.000, -2.900, 0.0, , , , , , 98, , , 53, 53, 53
37.3533176, -119.5420302, 20.300, 10:58:01.358, 19, 0.00, 0.25, 97, 1.800, 0.100, -92.700, 770, 100, 96, 23, 23447, -17875, 5344, 5510, 10, 14, 1528826281.359, 32, 0, 1024, 1024, 1024, 1024, 0, 6, 3908, 3907, 3897, 3909, 3913, 3932, 0, 1, 12203, -90.000, 0.000, -93.400, 0.000, 0.000, -2.900, 0.0, , , , , , 98, , , 53, 53, 53
37.3533175, -119.5420303, 20.600, 10:58:01.457, 19, 0.00, 0.25, 97, 1.400, 0.000, -92.600, 770, 100, 96, 23, 23447, -17875, 5344, 5510, 10, 14, 1528826281.457, 22, 0, 1024, 1024, 1024, 1024, 0, 6, 3908, 3907, 3897, 3909, 3913, 3932, 0, 1, 12301, -90.000, 0.000, -93.400, 0.000, 0.000, -3.000, 0.0, , , , , , 98, , , 53, 53, 53
37.3533174, -119.5420303, 21.200, 10:58:01.558, 19, 0.00, 0.26, 97, 0.800, 0.000, -92.300, 770, 100, 96, 23, 23447, -17875, 5344, 5510, 10, 14, 1528826281.559, 16, 0, 1024, 1024, 1024, 1024, 0, 6, 3908, 3907, 3897, 3909, 3913, 3932, 0, 1, 12403, -89.900, 0.000, -93.400, 0.000, 0.000, -2.900, 0.0, , , , , , 98, , , 53, 53, 53
37.3533174, -119.5420303, 21.500, 10:58:01.659, 19, 0.00, 0.26, 97, 0.500, 0.200, -92.200, 770, 100, 96, 23, 23447, -17875, 5344, 5510, 10, 14, 1528826281.660, 3, 0, 1024, 1024, 1024, 1024, 0, 6, 3908, 3907, 3897, 3909, 3913, 3932, 0, 1, 12504, -89.900, 0.000, -93.300, 0.000, 0.000, -2.900, 0.0, , , , , , 98, , , 53, 53, 53
37.3533174, -119.5420304, 21.800, 10:58:01.758, 19, 0.00, 0.27, 97, 0.400, 0.300, -92.300, 770, 100, 98, 24, 23449, -17843, 5344, 5510, 10, 14, 1528826281.759, 12, 0, 1024, 1024, 1024, 1024, 0, 6, 3905, 3895, 3896, 3907, 3913, 3925, 0, 1, 12603, -89.900, 0.000, -93.400, 0.000, 0.000, -2.900, 0.0, , , , , , 98, , , 53, 53, 53
37.3533174, -119.5420304, 22.100, 10:58:01.857, 19, 0.00, 0.27, 97, 0.500, 0.400, -92.500, 770, 100, 98, 24, 23449, -17843, 5344, 5510, 10, 14, 1528826281.858, 25, 0, 1024, 1024, 1024, 1024, 0, 6, 3905, 3895, 3896, 3907, 3913, 3925, 0, 1, 12702, -89.900, 0.000, -93.300, 0.000, 0.000, -2.900, 0.0, , , , , , 98, , , 53, 53, 53
37.3533174, -119.5420305, 22.400, 10:58:01.958, 19, 0.00, 0.28, 97, 0.700, 0.500, -92.700, 770, 100, 98, 24, 23449, -17843, 5344, 5510, 10, 14, 1528826281.958, 2, 0, 1024, 1024, 1024, 1024, 0, 6, 3905, 3895, 3896, 3907, 3913, 3925, 0, 1, 12802, -89.900, 0.000, -93.400, 0.000, 0.000, -2.900, 0.0, , , , , , 98, , , 53, 53, 53
37.3533173, -119.5420306, 22.700, 10:58:02.058, 19, 0.00, 0.28, 97, 0.700, 0.700, -92.800, 770, 100, 98, 24, 23449, -17843, 5344, 5510, 10, 14, 1528826282.059, 19, 0, 1024, 1024, 1024, 1024, 0, 6, 3905, 3895, 3896, 3907, 3913, 3925, 0, 1, 12903, -89.900, 0.000, -93.400, 0.000, 0.000, -3.000, 0.0, , , , , , 98, , , 53, 53, 53
37.3533173, -119.5420306, 22.700, 10:58:02.157, 19, 0.00, 0.28, 97, 0.700, 0.700, -92.800, 770, 100, 98, 24, 23449, -17843, 5344, 5510, 10, 14, 1528826282.157, 118, 0, 1024, 1024, 1024, 1024, 0, 6, 3905, 3895, 3896, 3907, 3913, 3925, 0, 1, 13002, -89.900, 0.000, -93.400, 0.000, 0.000, -3.000, 0.0, , , , , , 98, , , 53, 53, 53
37.3533173, -119.5420307, 23.000, 10:58:02.257, 19, 0.00, 0.29, 97, 0.600, 1.000, -93.000, 770, 100, 98, 24, 23449, -17843, 5344, 5510, 10, 14, 1528826282.257, 80, 0, 1024, 1024, 1024, 1024, 0, 6, 3905, 3895, 3896, 3907, 3913, 3925, 0, 1, 13101, -89.900, 0.000, -93.400, 0.000, 0.000, -3.000, 0.0, , , , , , 98, , , 53, 53, 53
37.3533173, -119.5420307, 23.300, 10:58:02.359, 19, 0.00, 0.29, 97, 0.400, 1.300, -93.000, 770, 100, 97, 24, 23449, -17843, 5344, 5510, 10, 14, 1528826282.359, 88, 0, 1024, 1024, 1024, 1024, 0, 6, 3905, 3895, 3896, 3907, 3913, 3925, 0, 1, 13203, -89.900, 0.000, -93.400, 0.000, 0.000, -2.900, 0.0, , , , , , 98, , , 53, 53, 53
37.3533172, -119.5420308, 23.600, 10:58:02.457, 19, 0.00, 0.30, 97, 0.500, 1.300, -93.000, 770, 100, 97, 24, 23449, -17843, 5344, 5510, 10, 14, 1528826282.457, 75, 0, 1024, 1024, 1024, 1024, 0, 6, 3905, 3895, 3896, 3907, 3913, 3925, 0, 1, 13301, -89.900, 0.000, -93.400, 0.000, 0.000, -2.900, 0.0, , , , , , 98, , , 53, 53, 53
37.3533172, -119.5420308, 23.600, 10:58:02.558, 19, 0.00, 0.30, 97, 0.500, 1.300, -93.000, 770, 100, 97, 24, 23449, -17843, 5344, 5510, 10, 14, 1528826282.559, 176, 0, 1024, 1024, 1024, 1024, 0, 6, 3905, 3895, 3896, 3907, 3913, 3925, 0, 1, 13403, -89.900, 0.000, -93.400, 0.000, 0.000, -2.900, 0.0, , , , , , 98, , , 53, 53, 53
37.3533172, -119.5420308, 24.200, 10:58:02.657, 19, 0.00, 0.30, 97, 0.800, 1.000, -93.000, 770, 100, 97, 24, 23449, -17843, 5344, 5510, 10, 14, 1528826282.658, 80, 0, 1024, 1024, 1024, 1024, 0, 6, 3905, 3895, 3896, 3907, 3913, 3925, 0, 1, 13502, -89.900, 0.000, -93.400, 0.000, 0.000, -2.900, 0.0, , , , , , 98, , , 53, 53, 53
37.3533172, -119.5420309, 24.500, 10:58:02.758, 19, 0.00, 0.30, 97, 0.700, 0.900, -92.900, 770, 100, 97, 24, 23438, -17955, 5344, 5510, 10, 14, 1528826282.759, 50, 0, 1024, 1024, 1024, 1024, 0, 6, 3905, 3903, 3891, 3904, 3904, 3935, 0, 1, 13603, -89.900, 0.000, -93.400, 0.000, 0.000, -2.900, 0.0, , , , , , 98, , , 53, 53, 53
37.3533172, -119.5420309, 24.800, 10:58:02.858, 19, 0.00, 0.31, 97, 0.600, 0.900, -92.900, 770, 100, 98, 24, 23438, -17955, 5344, 5510, 10, 14, 1528826282.859, 49, 0, 1024, 1024, 1024, 1024, 0, 6, 3905, 3903, 3891, 3904, 3904, 3935, 0, 1, 13703, -89.900, 0.000, -93.400, 0.000, 0.000, -3.000, 0.0, , , , , , 98, , , 53, 53, 53
37.3533172, -119.5420309, 25.100, 10:58:02.957, 19, 0.00, 0.31, 97, 0.500, 1.000, -92.800, 770, 100, 98, 24, 23438, -17955, 5344, 5510, 10, 14, 1528826282.957, 70, 0, 1024, 1024, 1024, 1024, 0, 6, 3905, 3903, 3891, 3904, 3904, 3935, 0, 1, 13801, -89.900, 0.000, -93.400, 0.000, 0.000, -3.000, 0.0, , , , , , 98, , , 53, 53, 53
37.3533172, -119.5420310, 25.400, 10:58:03.058, 19, 0.00, 0.31, 97, 0.400, 1.100, -92.800, 770, 100, 98, 24, 23438, -17955, 5344, 5510, 10, 14, 1528826283.058, 63, 0, 1024, 1024, 1024, 1024, 0, 6, 3905, 3903, 3891, 3904, 3904, 3935, 0, 1, 13902, -89.900, 0.000, -93.400, 0.000, 0.000, -2.900, 0.0, , , , , , 98, , , 53, 53, 53
37.3533172, -119.5420310, 25.700, 10:58:03.157, 19, 0.00, 0.31, 97, 0.300, 1.200, -92.700, 770, 100, 98, 24, 23438, -17955, 5344, 5510, 10, 14, 1528826283.158, 45, 0, 1024, 1024, 1024, 1024, 0, 6, 3905, 3903, 3891, 3904, 3904, 3935, 0, 1, 14002, -89.900, 0.000, -93.400, 0.000, 0.000, -2.900, 0.0, , , , , , 98, , , 53, 53, 53
37.3533172, -119.5420310, 26.000, 10:58:03.258, 19, 0.00, 0.31, 97, 0.300, 1.100, -92.700, 770, 100, 98, 24, 23438, -17955, 5344, 5510, 10, 14, 1528826283.258, 38, 0, 1024, 1024, 1024, 1024, 0, 6, 3905, 3903, 3891, 3904, 3904, 3935, 0, 1, 14102, -89.900, 0.000, -93.400, 0.000, 0.000, -2.900, 0.0, , , , , , 98, , , 53, 53, 53
37.3533172, -119.5420310, 26.300, 10:58:03.358, 19, 0.00, 0.31, 97, 0.200, 1.000, -92.700, 770, 100, 98, 24, 23438, -17955, 5344, 5510, 10, 14, 1528826283.358, 30, 0, 1024, 1024, 1024, 1024, 0, 6, 3905, 3903, 3891, 3904, 3904, 3935, 0, 1, 14202, -89.900, 0.000, -93.400, 0.000, 0.000, -3.000, 0.0, , , , , , 98, , , 53, 53, 53
37.3533173, -119.5420310, 26.600, 10:58:03.457, 19, 0.00, 0.30, 97, 0.100, 1.000, -92.700, 770, 100, 98, 24, 23438, -17955, 5344, 5510, 10, 14, 1528826283.457, 30, 0, 1024, 1024, 1024, 1024, 0, 6, 3905, 3903, 3891, 3904, 3904, 3935, 0, 1, 14301, -89.900, 0.000, -93.400, 0.000, 0.000, -2.900, 0.0, , , , , , 98, , , 53, 53, 53
37.3533173, -119.5420310, 26.900, 10:58:03.558, 19, 0.00, 0.30, 97, 0.000, 1.000, -92.700, 770, 100, 98, 24, 23438, -17955, 5344, 5510, 10, 14, 1528826283.558, 25, 0, 1024, 1024, 1024, 1024, 0, 6, 3905, 3903, 3891, 3904, 3904, 3935, 0, 1, 14402, -89.900, 0.000, -93.400, 0.000, 0.000, -2.900, 0.0, , , , , , 98, , , 53, 53, 53
37.3533173, -119.5420310, 27.200, 10:58:03.658, 19, 0.00, 0.29, 97, -0.200, 1.000, -92.700, 770, 100, 98, 24, 23438, -17955, 5344, 5510, 10, 14, 1528826283.658, 27, 0, 1024, 1024, 1024, 1024, 0, 6, 3905, 3903, 3891, 3904, 3904, 3935, 0, 1, 14502, -89.900, 0.000, -93.400, 0.000, 0.000, -2.900, 0.0, , , , , , 98, , , 53, 53, 53
37.3533174, -119.5420309, 27.800, 10:58:03.758, 19, 0.00, 0.29, 97, 0.000, 0.800, -92.800, 770, 100, 98, 24, 23414, -17845, 5344, 5510, 10, 14, 1528826283.758, 21, 0, 1024, 1024, 1024, 1024, 0, 6, 3891, 3893, 3887, 3908, 3901, 3927, 0, 1, 14603, -89.900, 0.000, -93.300, 0.000, 0.000, -2.900, 0.0, , , , , , 98, , , 53, 53, 53
37.3533174, -119.5420309, 28.100, 10:58:03.858, 19, 0.00, 0.28, 97, 0.100, 0.800, -92.900, 770, 100, 97, 24, 23414, -17845, 5344, 5510, 10, 14, 1528826283.858, 5, 0, 1024, 1024, 1024, 1024, 0, 6, 3891, 3893, 3887, 3908, 3901, 3927, 0, 1, 14703, -89.900, 0.000, -93.400, 0.000, 0.000, -2.900, 0.0, , , , , , 98, , , 53, 53, 53
37.3533174, -119.5420309, 28.400, 10:58:03.957, 19, 0.00, 0.28, 97, 0.200, 0.700, -93.000, 770, 100, 97, 24, 23414, -17845, 5344, 5510, 10, 14, 1528826283.958, 5, 0, 1024, 1024, 1024, 1024, 0, 6, 3891, 3893, 3887, 3908, 3901, 3927, 0, 1, 14802, -89.900, 0.000, -93.400, 0.000, 0.000, -2.900, 0.0, , , , , , 98, , , 53, 53, 53
37.3533175, -119.5420309, 28.700, 10:58:04.058, 19, 0.00, 0.28, 97, 0.100, 0.800, -92.900, 770, 100, 97, 24, 23414, -17845, 5344, 5510, 10, 14, 1528826284.058, 13, 0, 1024, 1024, 1024, 1024, 0, 6, 3891, 3893, 3887, 3908, 3901, 3927, 0, 1, 14903, -89.900, 0.000, -93.400, 0.000, 0.000, -2.900, 0.0, , , , , , 98, , , 53, 53, 53
37.3533175, -119.5420309, 29.000, 10:58:04.165, 19, 0.00, 0.28, 97, 0.000, 0.800, -92.800, 770, 100, 97, 24, 23414, -17845, 5344, 5510, 10, 14, 1528826284.166, 9, 0, 1024, 1024, 1024, 1024, 0, 6, 3891, 3893, 3887, 3908, 3901, 3927, 0, 1, 15010, -89.900, 0.000, -93.400, 0.000, 0.000, -2.900, 0.0, , , , , , 98, , , 53, 53, 53
37.3533175, -119.5420309, 29.300, 10:58:04.266, 19, 0.00, 0.27, 97, -0.200, 1.000, -92.700, 770, 100, 98, 24, 23414, -17845, 5344, 5510, 10, 14, 1528826284.266, 9, 0, 1024, 1024, 1024, 1024, 0, 6, 3891, 3893, 3887, 3908, 3901, 3927, 0, 1, 15110, -89.900, 0.000, -93.400, 0.000, 0.000, -2.900, 0.0, , , , , , 98, , , 53, 53, 53
37.3533176, -119.5420309, 29.600, 10:58:04.366, 19, 0.00, 0.27, 97, -0.200, 1.000, -92.600, 770, 100, 98, 24, 23414, -17845, 5344, 5510, 10, 14, 1528826284.366, 10, 0, 1024, 1024, 1024, 1024, 0, 6, 3891, 3893, 3887, 3908, 3901, 3927, 0, 1, 15210, -89.900, 0.000, -93.400, 0.000, 0.000, -2.900, 0.0, , , , , , 98, , , 53, 53, 53
37.3533176, -119.5420309, 29.900, 10:58:04.457, 19, 0.00, 0.27, 97, 0.000, 1.000, -92.600, 770, 100, 98, 24, 23414, -17845, 5344, 5510, 10, 14, 1528826284.458, 5, 0, 1024, 1024, 1024, 1024, 0, 6, 3891, 3893, 3887, 3908, 3901, 3927, 0, 1, 15302, -89.900, 0.000, -93.400, 0.000, 0.000, -2.900, 0.0, , , , , , 98, , , 53, 53, 53
37.3533176, -119.5420309, 30.200, 10:58:04.558, 19, 0.00, 0.27, 97, 0.100, 0.900, -92.600, 770, 100, 98, 24, 23414, -17845, 5344, 5510, 10, 14, 1528826284.558, 7, 0, 1024, 1024, 1024, 1024, 0, 6, 3891, 3893, 3887, 3908, 3901, 3927, 0, 1, 15402, -89.900, 0.000, -93.400, 0.000, 0.000, -2.900, 0.0, , , , , , 98, , , 53, 53, 53
37.3533176, -119.5420309, 30.200, 10:58:04.658, 19, 0.00, 0.27, 97, 0.100, 0.900, -92.600, 770, 100, 98, 24, 23414, -17845, 5344, 5510, 10, 14, 1528826284.658, 107, 0, 1024, 1024, 1024, 1024, 0, 6, 3891, 3893, 3887, 3908, 3901, 3927, 0, 1, 15502, -89.900, 0.000, -93.400, 0.000, 0.000, -2.900, 0.0, , , , , , 98, , , 53, 53, 53
37.3533176, -119.5420308, 30.500, 10:58:04.758, 19, 0.00, 0.27, 97, 0.200, 0.800, -92.600, 770, 100, 98, 24, 23423, -17476, 5344, 5510, 10, 14, 1528826284.759, 79, 0, 1024, 1024, 1024, 1024, 0, 6, 3891, 3893, 3887, 3908, 3901, 3927, 0, 1, 15603, -89.900, 0.000, -93.400, 0.000, 0.000, -2.900, 0.0, , , , , , 98, , , 53, 53, 53
37.3533176, -119.5420308, 30.800, 10:58:04.858, 19, 0.00, 0.26, 97, 0.300, 0.700, -92.800, 770, 100, 99, 24, 23423, -17476, 5344, 5510, 10, 14, 1528826284.859, 84, 0, 1024, 1024, 1024, 1024, 0, 6, 3891, 3893, 3887, 3908, 3901, 3927, 0, 1, 15703, -89.900, 0.000, -93.400, 0.000, 0.000, -2.900, 0.0, , , , , , 98, , , 53, 53, 53
37.3533176, -119.5420308, 31.100, 10:58:04.957, 19, 0.00, 0.26, 97, 0.500, 0.600, -92.900, 770, 100, 99, 24, 23423, -17476, 5344, 5510, 10, 14, 1528826284.957, 97, 0, 1024, 1024, 1024, 1024, 0, 6, 3891, 3893, 3887, 3908, 3901, 3927, 0, 1, 15802, -89.900, 0.000, -93.400, 0.000, 0.000, -2.900, 0.0, , , , , , 98, , , 53, 53, 53
37.3533176, -119.5420308, 31.400, 10:58:05.058, 19, 0.00, 0.26, 97, 0.700, 0.700, -92.900, 770, 100, 99, 24, 23423, -17476, 5344, 5510, 10, 14, 1528826285.059, 65, 0, 1024, 1024, 1024, 1024, 0, 6, 3891, 3893, 3887, 3908, 3901, 3927, 0, 1, 15903, -89.900, 0.000, -93.400, 0.000, 0.000, -2.900, 0.0, , , , , , 98, , , 53, 53, 53
37.3533176, -119.5420308, 31.700, 10:58:05.158, 19, 0.00, 0.26, 97, 0.700, 0.900, -92.800, 770, 100, 99, 24, 23423, -17476, 5344, 5510, 10, 14, 1528826285.158, 66, 0, 1024, 1024, 1024, 1024, 0, 6, 3891, 3893, 3887, 3908, 3901, 3927, 0, 1, 16002, -89.900, 0.000, -93.400, 0.000, 0.000, -2.900, 0.0, , , , , , 98, , , 53, 53, 53
37.3533176, -119.5420308, 32.000, 10:58:05.258, 19, 0.00, 0.26, 97, 0.600, 1.100, -92.700, 770, 100, 99, 24, 23423, -17476, 5344, 5510, 10, 14, 1528826285.259, 49, 0, 1024, 1024, 1024, 1024, 0, 6, 3910, 3900, 3884, 3903, 3894, 3928, 0, 1, 16103, -89.900, 0.000, -93.400, 0.000, 0.000, -3.000, 0.0, , , , , , 98, , , 53, 53, 53
37.3533176, -119.5420308, 32.000, 10:58:05.358, 19, 0.00, 0.26, 97, 0.600, 1.100, -92.700, 770, 100, 96, 24, 23423, -17476, 5344, 5510, 10, 14, 1528826285.359, 149, 0, 1024, 1024, 1024, 1024, 0, 6, 3910, 3900, 3884, 3903, 3894, 3928, 0, 1, 16203, -89.900, 0.000, -93.400, 0.000, 0.000, -3.000, 0.0, , , , , , 98, , , 53, 53, 53
37.3533177, -119.5420309, 32.600, 10:58:05.457, 19, 0.00, 0.26, 97, 0.100, 1.200, -92.500, 770, 100, 96, 24, 23423, -17476, 5344, 5510, 10, 14, 1528826285.458, 45, 0, 1024, 1024, 1024, 1024, 0, 6, 3910, 3900, 3884, 3903, 3894, 3928, 0, 1, 16302, -89.900, 0.000, -93.400, 0.000, 0.000, -3.000, 0.0, , , , , , 98, , , 53, 53, 53
37.3533177, -119.5420309, 32.900, 10:58:05.559, 19, 0.00, 0.26, 97, 0.000, 1.200, -92.500, 770, 100, 96, 24, 23423, -17476, 5344, 5510, 10, 14, 1528826285.560, 49, 0, 1024, 1024, 1024, 1024, 0, 6, 3910, 3900, 3884, 3903, 3894, 3928, 0, 1, 16404, -89.900, 0.000, -93.400, 0.000, 0.000, -2.900, 0.0, , , , , , 98, , , 53, 53, 53
37.3533178, -119.5420310, 33.200, 10:58:05.658, 19, 0.00, 0.25, 97, -0.200, 1.200, -92.600, 770, 100, 96, 24, 23423, -17476, 5344, 5510, 10, 14, 1528826285.658, 55, 0, 1024, 1024, 1024, 1024, 0, 6, 3910, 3900, 3884, 3903, 3894, 3928, 0, 1, 16502, -89.900, 0.000, -93.400, 0.000, 0.000, -2.900, 0.0, , , , , , 98, , , 53, 53, 53
37.3533178, -119.5420310, 33.500, 10:58:05.757, 19, 0.00, 0.25, 97, -0.200, 1.200, -92.700, 770, 100, 96, 24, 23423, -17476, 5344, 5510, 10, 14, 1528826285.758, 35, 0, 1024, 1024, 1024, 1024, 0, 6, 3910, 3900, 3884, 3903, 3894, 3928, 0, 1, 16602, -89.900, 0.000, -93.400, 0.000, 0.000, -2.900, 0.0, , , , , , 98, , , 53, 53, 53
37.3533178, -119.5420310, 33.800, 10:58:05.858, 19, 0.00, 0.25, 97, -0.100, 1.100, -92.700, 770, 100, 96, 24, 23423, -17476, 5344, 5510, 10, 14, 1528826285.859, 37, 0, 1024, 1024, 1024, 1024, 0, 6, 3910, 3900, 3884, 3903, 3894, 3928, 0, 1, 16704, -89.900, 0.000, -93.400, 0.000, 0.000, -2.900, 0.0, , , , , , 98, , , 53, 53, 53
37.3533179, -119.5420310, 34.100, 10:58:05.957, 19, 0.00, 0.25, 97, 0.000, 1.200, -92.700, 770, 100, 96, 24, 23423, -17476, 5344, 5510, 10, 14, 1528826285.958, 30, 0, 1024, 1024, 1024, 1024, 0, 6, 3910, 3900, 3884, 3903, 3894, 3928, 0, 1, 16802, -89.900, 0.000, -93.400, 0.000, 0.000, -2.900, 0.0, , , , , , 98, , , 53, 53, 53
37.3533179, -119.5420310, 34.400, 10:58:06.058, 19, 0.00, 0.24, 97, 0.000, 1.300, -92.700, 770, 100, 96, 24, 23423, -17476, 5344, 5510, 10, 14, 1528826286.059, 21, 0, 1024, 1024, 1024, 1024, 0, 6, 3910, 3900, 3884, 3903, 3894, 3928, 0, 1, 16903, -89.900, 0.000, -93.400, 0.000, 0.000, -2.900, 0.0, , , , , , 98, , , 53, 53, 53
37.3533179, -119.5420310, 34.700, 10:58:06.159, 19, 0.00, 0.24, 97, 0.000, 1.200, -92.700, 770, 100, 96, 24, 23423, -17476, 5344, 5510, 10, 14, 1528826286.159, 2, 0, 1024, 1024, 1024, 1024, 0, 6, 3910, 3900, 3884, 3903, 3894, 3928, 0, 1, 17003, -89.900, 0.000, -93.400, 0.000, 0.000, -3.000, 0.0, , , , , , 98, , , 53, 53, 53
37.3533180, -119.5420310, 35.300, 10:58:06.258, 19, 0.00, 0.24, 97, -0.200, 1.200, -92.700, 770, 100, 96, 24, 23397, -18135, 5344, 5510, 10, 14, 1528826286.259, 14, 0, 1024, 1024, 1024, 1024, 0, 6, 3880, 3882, 3887, 3894, 3902, 3910, 0, 1, 17103, -89.900, 0.000, -93.400, 0.000, 0.000, -2.900, 0.0, , , , , , 98, , , 53, 53, 53
37.3533180, -119.5420310, 35.300, 10:58:06.358, 19, 0.00, 0.24, 97, -0.200, 1.200, -92.700, 770, 100, 96, 24, 23397, -18135, 5344, 5510, 10, 14, 1528826286.359, 114, 0, 1024, 1024, 1024, 1024, 0, 6, 3880, 3882, 3887, 3894, 3902, 3910, 0, 1, 17203, -89.900, 0.000, -93.400, 0.000, 0.000, -2.900, 0.0, , , , , , 98, , , 53, 53, 53
37.3533180, -119.5420310, 35.600, 10:58:06.457, 19, 0.00, 0.23, 97, -0.300, 1.100, -92.700, 770, 100, 96, 24, 23397, -18135, 5344, 5510, 10, 14, 1528826286.457, 95, 0, 1024, 1024, 1024, 1024, 0, 6, 3880, 3882, 3887, 3894, 3902, 3910, 0, 1, 17302, -89.900, 0.000, -93.300, 0.000, 0.000, -2.900, 0.0, , , , , , 98, , , 53, 53, 53
37.3533181, -119.5420310, 36.200, 10:58:06.558, 19, 0.00, 0.22, 97, -0.400, 1.000, -92.700, 770, 100, 96, 24, 23397, -18135, 5344, 5510, 10, 14, 1528826286.559, 6, 0, 1024, 1024, 1024, 1024, 0, 6, 3880, 3882, 3887, 3894, 3902, 3910, 0, 1, 17403, -89.900, 0.000, -93.400, 0.000, 0.000, -3.000, 0.0, , , , , , 98, , , 53, 53, 53
37.3533181, -119.5420310, 36.500, 10:58:06.661, 19, 0.00, 0.22, 97, -0.400, 1.000, -92.600, 770, 100, 96, 24, 23397, -18135, 5344, 5510, 10, 14, 1528826286.661, 3, 0, 1024, 1024, 1024, 1024, 0, 6, 3880, 3882, 3887, 3894, 3902, 3910, 0, 1, 17506, -89.900, 0.000, -93.400, 0.000, 0.000, -3.000, 0.0, , , , , , 98, , , 53, 53, 53
37.3533181, -119.5420310, 36.500, 10:58:06.758, 19, 0.00, 0.22, 97, -0.400, 1.000, -92.600, 770, 100, 96, 24, 23397, -18135, 5344, 5510, 10, 14, 1528826286.759, 101, 0, 1024, 1024, 1024, 1024, 0, 6, 3880, 3882, 3887, 3894, 3902, 3910, 0, 1, 17603, -89.900, 0.000, -93.400, 0.000, 0.000, -3.000, 0.0, , , , , , 98, , , 53, 53, 53
37.3533182, -119.5420310, 36.800, 10:58:06.858, 19, 0.00, 0.22, 97, -0.500, 0.900, -92.600, 770, 100, 96, 24, 23397, -18135, 5344, 5510, 10, 14, 1528826286.859, 94, 0, 1024, 1024, 1024, 1024, 0, 6, 3880, 3882, 3887, 3894, 3902, 3910, 0, 1, 17703, -89.900, 0.000, -93.400, 0.000, 0.000, -3.000, 0.0, , , , , , 98, , , 53, 53, 53
37.3533182, -119.5420309, 37.100, 10:58:06.957, 19, 0.00, 0.22, 97, -0.400, 0.900, -92.600, 770, 100, 96, 24, 23397, -18135, 5344, 5510, 10, 14, 1528826286.958, 87, 0, 1024, 1024, 1024, 1024, 0, 6, 3880, 3882, 3887, 3894, 3902, 3910, 0, 1, 17802, -89.900, 0.000, -93.300, 0.000, 0.000, -3.000, 0.0, , , , , , 98, , , 53, 53, 53
37.3533182, -119.5420309, 37.400, 10:58:07.058, 19, 0.00, 0.21, 97, -0.300, 1.000, -92.600, 770, 100, 96, 24, 23397, -18135, 5344, 5510, 10, 14, 1528826287.059, 88, 0, 1024, 1024, 1024, 1024, 0, 6, 3880, 3882, 3887, 3894, 3902, 3910, 0, 1, 17903, -89.900, 0.000, -93.400, 0.000, 0.000, -2.900, 0.0, , , , , , 98, , , 53, 53, 53
37.3533182, -119.5420309, 37.700, 10:58:07.158, 19, 0.00, 0.21, 97, -0.200, 1.000, -92.800, 770, 100, 96, 24, 23397, -18135, 5344, 5510, 10, 14, 1528826287.158, 75, 0, 1024, 1024, 1024, 1024, 0, 6, 3880, 3882, 3887, 3894, 3902, 3910, 0, 1, 18003, -89.900, 0.000, -93.400, 0.000, 0.000, -2.900, 0.0, , , , , , 98, , , 53, 53, 53
37.3533182, -119.5420309, 38.000, 10:58:07.258, 19, 0.00, 0.21, 97, -0.100, 0.900, -93.000, 770, 100, 96, 24, 23278, -18401, 5344, 5510, 10, 14, 1528826287.259, 82, 0, 1024, 1024, 1024, 1024, 0, 6, 3873, 3873, 3870, 3895, 3890, 3911, 0, 1, 18104, -89.900, 0.000, -93.400, 0.000, 0.000, -2.900, 0.0, , , , , , 98, , , 53, 53, 53
37.3533182, -119.5420309, 38.300, 10:58:07.358, 19, 0.00, 0.21, 97, -0.100, 0.900, -93.200, 770, 100, 97, 24, 23278, -18401, 5344, 5510, 10, 14, 1528826287.359, 73, 0, 1024, 1024, 1024, 1024, 0, 6, 3873, 3873, 3870, 3895, 3890, 3911, 0, 1, 18204, -89.900, 0.000, -93.400, 0.000, 0.000, -3.000, 0.0, , , , , , 98, , , 53, 53, 53
37.3533182, -119.5420308, 38.600, 10:58:07.457, 19, 0.00, 0.21, 97, -0.200, 0.900, -93.400, 770, 100, 97, 24, 23278, -18401, 5344, 5510, 10, 14, 1528826287.458, 64, 0, 1024, 1024, 1024, 1024, 0, 6, 3873, 3873, 3870, 3895, 3890, 3911, 0, 1, 18302, -89.900, 0.000, -93.400, 0.000, 0.000, -3.000, 0.0, , , , , , 98, , , 53, 53, 53
37.3533182, -119.5420308, 38.900, 10:58:07.558, 19, 0.00, 0.21, 97, -0.200, 0.900, -93.500, 770, 100, 97, 24, 23278, -18401, 5344, 5510, 10, 14, 1528826287.559, 62, 0, 1024, 1024, 1024, 1024, 0, 6, 3873, 3873, 3870, 3895, 3890, 3911, 0, 1, 18403, -89.900, 0.000, -93.400, 0.000, 0.000, -2.900, 0.0, , , , , , 98, , , 53, 53, 53
37.3533182, -119.5420308, 39.200, 10:58:07.658, 19, 0.00, 0.20, 97, -0.300, 0.900, -93.500, 770, 100, 97, 24, 23278, -18401, 5344, 5510, 10, 14, 1528826287.658, 64, 0, 1024, 1024, 1024, 1024, 0, 6, 3873, 3873, 3870, 3895, 3890, 3911, 0, 1, 18502, -89.900, 0.000, -93.400, 0.000, 0.000, -2.900, 0.0, , , , , , 98, , , 53, 53, 53
37.3533182, -119.5420307, 39.500, 10:58:07.758, 19, 0.00, 0.20, 97, -0.300, 0.700, -93.500, 770, 100, 97, 24, 23278, -18401, 5344, 5510, 10, 14, 1528826287.759, 48, 0, 1024, 1024, 1024, 1024, 0, 6, 3873, 3873, 3870, 3895, 3890, 3911, 0, 1, 18603, -89.900, 0.000, -93.400, 0.000, 0.000, -2.900, 0.0, , , , , , 98, , , 53, 53, 53
37.3533182, -119.5420307, 39.800, 10:58:07.858, 19, 0.00, 0.20, 97, -0.100, 0.800, -93.400, 770, 100, 97, 24, 23278, -18401, 5344, 5510, 10, 14, 1528826287.859, 64, 0, 1024, 1024, 1024, 1024, 0, 6, 3873, 3873, 3870, 3895, 3890, 3911, 0, 1, 18703, -89.900, 0.000, -93.400, 0.000, 0.000, -2.900, 0.0, , , , , , 98, , , 53, 53, 53
37.3533181, -119.5420307, 40.100, 10:58:07.957, 19, 0.00, 0.21, 97, 0.000, 0.800, -93.200, 770, 100, 97, 24, 23278, -18401, 5344, 5510, 10, 14, 1528826287.958, 29, 0, 1024, 1024, 1024, 1024, 0, 6, 3873, 3873, 3870, 3895, 3890, 3911, 0, 1, 18802, -89.900, 0.000, -93.400, 0.000, 0.000, -2.900, 0.0, , , , , , 98, , , 53, 53, 53
37.3533181, -119.5420307, 40.400, 10:58:08.058, 19, 0.00, 0.21, 97, 0.100, 0.900, -93.100, 770, 100, 97, 24, 23278, -18401, 5344, 5510, 10, 14, 1528826288.058, 30, 0, 1024, 1024, 1024, 1024, 0, 6, 3873, 3873, 3870, 3895, 3890, 3911, 0, 1, 18902, -89.900, 0.000, -93.400, 0.000, 0.000, -2.900, 0.0, , , , , , 98, , , 53, 53, 53
37.3533181, -119.5420307, 40.700, 10:58:08.158, 19, 0.00, 0.21, 97, 0.200, 0.900, -93.000, 770, 100, 97, 24, 23278, -18401, 5344, 5510, 10, 14, 1528826288.158, 35, 0, 1024, 1024, 1024, 1024, 0, 6, 3873, 3873, 3870, 3895, 3890, 3911, 0, 1, 19002, -89.900, 0.000, -93.400, 0.000, 0.000, -2.900, 0.0, , , , , , 98, , , 53, 53, 53
37.3533180, -119.5420307, 41.000, 10:58:08.258, 19, 0.00, 0.21, 97, 0.400, 0.900, -92.900, 770, 100, 97, 24, 23322, -17727, 5289, 5510, 10, 14, 1528826288.258, 32, 0, 1024, 1024, 1024, 1024, 0, 6, 3882, 3883, 3865, 3892, 3887, 3907, 0, 1, 19103, -89.900, 0.000, -93.400, 0.000, 0.000, -2.900, 0.0, , , , , , 98, , , 53, 53, 53
37.3533180, -119.5420306, 41.300, 10:58:08.358, 19, 0.00, 0.21, 97, 0.500, 0.900, -92.800, 770, 100, 98, 24, 23322, -17727, 5289, 5510, 10, 14, 1528826288.358, 36, 0, 1024, 1024, 1024, 1024, 0, 6, 3882, 3883, 3865, 3892, 3887, 3907, 0, 1, 19203, -89.900, 0.000, -93.400, 0.000, 0.000, -3.000, 0.0, , , , , , 98, , , 53, 53, 53
37.3533180, -119.5420306, 41.600, 10:58:08.457, 19, 0.00, 0.21, 97, 0.400, 0.900, -92.800, 770, 100, 98, 24, 23322, -17727, 5289, 5510, 10, 14, 1528826288.458, 26, 0, 1024, 1024, 1024, 1024, 0, 6, 3882, 3883, 3865, 3892, 3887, 3907, 0, 1, 19302, -89.900, 0.000, -93.400, 0.000, 0.000, -3.000, 0.0, , , , , , 98, , , 53, 53, 53
37.3533180, -119.5420305, 42.200, 10:58:08.558, 19, 0.00, 0.21, 97, 0.100, 0.700, -92.900, 770, 100, 98, 24, 23322, -17727, 5289, 5510, 10, 14, 1528826288.558, 29, 0, 1024, 1024, 1024, 1024, 0, 6, 3882, 3883, 3865, 3892, 3887, 3907, 0, 1, 19402, -90.000, 0.000, -93.400, 0.000, 0.000, -2.900, 0.0, , , , , , 98, , , 53, 53, 53
37.3533179, -119.5420304, 42.500, 10:58:08.658, 19, 0.00, 0.21, 97, 0.100, 0.600, -92.900, 770, 100, 98, 24, 23322, -17727, 5289, 5510, 10, 14, 1528826288.658, 7, 0, 1024, 1024, 1024, 1024, 0, 6, 3882, 3883, 3865, 3892, 3887, 3907, 0, 1, 19503, -89.900, 0.000, -93.300, 0.000, 0.000, -2.900, 0.0, , , , , , 98, , , 53, 53, 53
37.3533179, -119.5420304, 42.800, 10:58:08.758, 19, 0.00, 0.21, 97, 0.400, 0.600, -92.900, 770, 100, 98, 24, 23322, -17727, 5289, 5510, 10, 14, 1528826288.759, 20, 0, 1024, 1024, 1024, 1024, 0, 6, 3882, 3883, 3865, 3892, 3887, 3907, 0, 1, 19603, -89.900, 0.000, -93.400, 0.000, 0.000, -2.900, 0.0, , , , , , 98, , , 53, 53, 53
37.3533179, -119.5420304, 42.800, 10:58:08.858, 19, 0.00, 0.21, 97, 0.400, 0.600, -92.900, 770, 100, 98, 24, 23322, -17727, 5289, 5510, 10, 14, 1528826288.858, 119, 0, 1024, 1024, 1024, 1024, 0, 6, 3882, 3883, 3865, 3892, 3887, 3907, 0, 1, 19702, -89.900, 0.000, -93.400, 0.000, 0.000, -2.900, 0.0, , , , , , 98, , , 53, 53, 53
37.3533179, -119.5420303, 43.100, 10:58:08.957, 19, 0.00, 0.21, 97, 0.400, 0.500, -93.000, 770, 100, 98, 24, 23322, -17727, 5289, 5510, 10, 14, 1528826288.958, 89, 0, 1024, 1024, 1024, 1024, 0, 6, 3882, 3883, 3865, 3892, 3887, 3907, 0, 1, 19802, -90.000, 0.000, -93.400, 0.000, 0.000, -2.900, 0.0, , , , , , 98, , , 53, 53, 53
37.3533179, -119.5420303, 43.400, 10:58:09.059, 19, 0.00, 0.21, 97, 0.300, 0.400, -93.100, 770, 100, 98, 24, 23322, -17727, 5289, 5510, 10, 14, 1528826289.060, 93, 0, 1024, 1024, 1024, 1024, 0, 6, 3882, 3883, 3865, 3892, 3887, 3907, 0, 1, 19904, -90.000, 0.000, -93.400, 0.000, 0.000, -2.900, 0.0, , , , , , 98, , , 53, 53, 53
37.3533179, -119.5420302, 44.000, 10:58:09.158, 19, 0.00, 0.21, 96, 0.100, 0.300, -93.100, 770, 100, 98, 24, 23288, -18224, 5289, 5510, 10, 14, 1528826289.158, 5, 0, 1024, 1024, 1024, 1024, 0, 6, 3883, 3872, 3862, 3879, 3877, 3903, 0, 1, 20002, -90.000, 0.000, -93.400, 0.000, 0.000, -3.000, 0.0, , , , , , 98, , , 53, 53, 53
37.3533179, -119.5420302, 44.000, 10:58:09.258, 19, 0.00, 0.21, 96, 0.100, 0.300, -93.100, 770, 100, 98, 24, 23288, -18224, 5289, 5510, 10, 14, 1528826289.259, 106, 0, 1024, 1024, 1024, 1024, 0, 6, 3883, 3872, 3862, 3879, 3877, 3903, 0, 1, 20103, -90.000, 0.000, -93.400, 0.000, 0.000, -3.000, 0.0, , , , , , 98, , , 53, 53, 53
37.3533179, -119.5420302, 44.300, 10:58:09.358, 19, 0.00, 0.21, 96, 0.000, 0.400, -93.100, 770, 100, 97, 24, 23288, -18224, 5289, 5510, 10, 14, 1528826289.358, 94, 0, 1024, 1024, 1024, 1024, 0, 6, 3883, 3872, 3862, 3879, 3877, 3903, 0, 1, 20202, -89.900, 0.000, -93.300, 0.000, 0.000, -3.000, 0.0, , , , , , 98, , , 53, 53, 53
37.3533179, -119.5420302, 44.600, 10:58:09.457, 19, 0.00, 0.21, 96, 0.100, 0.600, -92.900, 770, 100, 97, 24, 23288, -18224, 5289, 5510, 10, 14, 1528826289.458, 88, 0, 1024, 1024, 1024, 1024, 0, 6, 3883, 3872, 3862, 3879, 3877, 3903, 0, 1, 20302, -89.900, 0.000, -93.400, 0.000, 0.000, -3.000, 0.0, , , , , , 98, , , 53, 53, 53
37.3533179, -119.5420302, 44.900, 10:58:09.558, 19, 0.00, 0.22, 96, 0.000, 0.800, -92.900, 770, 100, 97, 24, 23288, -18224, 5289, 5510, 10, 14, 1528826289.559, 56, 0, 1024, 1024, 1024, 1024, 0, 6, 3883, 3872, 3862, 3879, 3877, 3903, 0, 1, 20403, -89.900, 0.000, -93.400, 0.000, 0.000, -3.000, 0.0, , , , , , 98, , , 53, 53, 53
37.3533179, -119.5420302, 45.200, 10:58:09.658, 19, 0.00, 0.22, 96, -0.100, 1.000, -92.800, 770, 100, 97, 24, 23288, -18224, 5289, 5510, 10, 14, 1528826289.658, 84, 0, 1024, 1024, 1024, 1024, 0, 6, 3883, 3872, 3862, 3879, 3877, 3903, 0, 1, 20502, -89.900, 0.000, -93.400, 0.000, 0.000, -3.000, 0.0, , , , , , 98, , , 53, 53, 53
37.3533179, -119.5420302, 45.200, 10:58:09.758, 19, 0.00, 0.22, 96, -0.100, 1.000, -92.800, 770, 100, 97, 24, 23288, -18224, 5289, 5510, 10, 14, 1528826289.759, 184, 0, 1024, 1024, 1024, 1024, 0, 6, 3883, 3872, 3862, 3879, 3877, 3903, 0, 1, 20603, -89.900, 0.000, -93.400, 0.000, 0.000, -3.000, 0.0, , , , , , 98, , , 53, 53, 53
37.3533179, -119.5420302, 45.800, 10:58:09.858, 19, 0.00, 0.21, 96, -0.400, 1.000, -92.900, 770, 100, 96, 24, 23288, -18224, 5289, 5510, 10, 14, 1528826289.859, 64, 0, 1024, 1024, 1024, 1024, 0, 6, 3883, 3872, 3862, 3879, 3877, 3903, 0, 1, 20703, -89.900, 0.000, -93.400, 0.000, 0.000, -2.900, 0.0, , , , , , 98, , , 53, 53, 53
37.3533179, -119.5420302, 45.800, 10:58:09.957, 19, 0.00, 0.21, 96, -0.400, 1.000, -92.900, 770, 100, 96, 24, 23288, -18224, 5289, 5510, 10, 14, 1528826289.958, 163, 0, 1024, 1024, 1024, 1024, 0, 6, 3883, 3872, 3862, 3879, 3877, 3903, 0, 1, 20802, -89.900, 0.000, -93.400, 0.000, 0.000, -2.900, 0.0, , , , , , 98, , , 53, 53, 53
