Latitude, Longitude, Altitude (m), Time, Sats, Speed (m/s), Range (m), Battery (%), Roll (deg), Pitch (deg), Yaw (deg), Images, HD Signal (%), RC Signal (%), Battery Temp (C), Battery Voltage (mV), Battery Current (mA), Battery Energy (mAh), Battery Capacity (mAh), Battery Discharges, flyState, timestamp (Unix), LastUpdate (ms), radioChannel, Rc_elevator, Rc_aileron, Rc_throttle, Rc_rudder, Rc_gyro, Dronetype, Battery_Cell1 (mV), Battery_Cell2 (mV), Battery_Cell3 (mV), Battery_Cell4 (mV), Battery_Cell5 (mV), Battery_Cell6 (mV), Video, isFlying, elapsedTime (ms), gimbalPitch (deg), gimbalRoll (deg), gimbalYaw (deg), VelocityX (m/s), VelocityY (m/s), VelocityZ (m/s), GroundSmear (cm), App Version, Aircraft Name, Aircraft Firmware, Aircraft Serial Number, Battery Serial Number, Battery Lifetime (%), App_Tip, App_Warning, CurrentFlightStartingIndex, CurrentFlightLastVisitedWaypoint, PreviousFlightEndingWaypointIndex
38.5271192, -120.3543223, 0.000, 11:05:34.267, 12, 0.00, 0.05, 96, 0.400, 0.500, -79.800, 2, 100, 99, 23, 24880, -6890, 5143, 5358, 18, 11, 1530986734.267, 59, 0, 1024, 1024, 1024, 1024, 0, 6, 4131, 4122, 4161, 4154, 4106, 4226, 0, 1, 3108, -90.000, 0.000, -81.000, 0.000, 0.000, -0.200, 0.0, MapPilot_2.8.1_04242018, Dendroctonus I, 1.3.1.00, 041DDC1887, 1058171200149, 96, DJI_0001.jpg, Starting Mission from Lat/Long: 38.52711/-120.35431 Camera: Zenmuse X3 - Overlap: 90/90 - Active Connection: No, 0, 0, 0
38.5271193, -120.3543222, 0.000, 11:05:34.359, 12, 0.00, 0.05, 96, 0.200, 0.200, -79.800, 2, 100, 100, 23, 24880, -6890, 5143, 5358, 18, 11, 1530986734.359, 59, 0, 1024, 1024, 1024, 1024, 0, 6, 4131, 4122, 4161, 4154, 4106, 4226, 0, 1, 3201, -90.000, 0.000, -80.900, 0.000, 0.000, -0.300, 0.0, , , , , , 96, , , 0, 0, 0
38.5271193, -120.3543221, 0.000, 11:05:34.459, 12, 0.00, 0.06, 96, 0.100, 0.000, -80.000, 2, 100, 100, 23, 24880, -6890, 5143, 5358, 18, 11, 1530986734.459, 52, 0, 1024, 1024, 1024, 1024, 0, 6, 4131, 4122, 4161, 4154, 4106, 4226, 0, 1, 3301, -90.000, 0.000, -80.900, 0.000, 0.000, -0.400, 0.0, , , , , , 96, , , 0, 0, 0
38.5271193, -120.3543220, 0.100, 11:05:34.559, 12, 0.00, 0.06, 96, 0.000, -0.200, -80.200, 2, 100, 100, 23, 24880, -6890, 5143, 5358, 18, 11, 1530986734.559, 54, 0, 1024, 1024, 1024, 1024, 0, 6, 4131, 4122, 4161, 4154, 4106, 4226, 0, 1, 3401, -90.000, 0.000, -80.900, 0.000, 0.000, -0.400, 0.0, , , , , , 96, , , 0, 0, 0
38.5271194, -120.3543219, 0.100, 11:05:34.659, 12, 0.00, 0.07, 96, 0.000, -0.400, -80.500, 2, 100, 100, 23, 24880, -6890, 5143, 5358, 18, 11, 1530986734.660, 47, 0, 1024, 1024, 1024, 1024, 0, 6, 4131, 4122, 4161, 4154, 4106, 4226, 0, 1, 3501, -90.000, 0.000, -80.900, 0.000, 0.000, -0.400, 0.0, , , , , , 96, , , 0, 0, 0
38.5271194, -120.3543218, 0.100, 11:05:34.759, 12, 0.00, 0.08, 96, 0.000, -0.500, -80.700, 2, 100, 100, 23, 24880, -6890, 5143, 5358, 18, 11, 1530986734.759, 40, 0, 1024, 1024, 1024, 1024, 0, 6, 4131, 4122, 4161, 4154, 4106, 4226, 0, 1, 3601, -90.000, 0.000, -80.900, 0.000, 0.000, -0.400, 0.0, , , , , , 96, , , 0, 0, 0
38.5271195, -120.3543217, 0.200, 11:05:34.859, 11, 0.00, 0.09, 96, 0.000, -0.400, -80.900, 2, 100, 100, 23, 24880, -6890, 5143, 5358, 18, 11, 1530986734.860, 32, 0, 1024, 1024, 1024, 1024, 0, 6, 4131, 4122, 4161, 4154, 4106, 4226, 0, 1, 3701, -90.000, 0.000, -80.800, 0.000, 0.000, -0.500, 0.0, , , , , , 96, , , 0, 0, 0
38.5271195, -120.3543217, 0.300, 11:05:34.959, 11, 0.00, 0.09, 96, -0.100, -0.400, -81.000, 2, 100, 100, 23, 24880, -6890, 5143, 5358, 18, 11, 1530986734.960, 36, 0, 1024, 1024, 1024, 1024, 0, 6, 4131, 4122, 4161, 4154, 4106, 4226, 0, 1, 3801, -89.900, 0.000, -80.800, 0.000, 0.000, -0.500, 0.0, , , , , , 96, , , 0, 0, 0
38.5271196, -120.3543217, 0.300, 11:05:35.059, 11, 0.00, 0.10, 96, -0.200, 0.000, -81.000, 2, 100, 100, 23, 24880, -6890, 5143, 5358, 18, 11, 1530986735.060, 30, 0, 1024, 1024, 1024, 1024, 0, 6, 4131, 4122, 4161, 4154, 4106, 4226, 0, 1, 3901, -89.900, 0.000, -80.800, 0.000, 0.000, -0.400, 0.0, , , , , , 96, , , 0, 0, 0
38.5271196, -120.3543215, 0.400, 11:05:35.158, 11, 0.00, 0.11, 96, -0.400, 0.100, -80.900, 2, 100, 100, 23, 23907, -16314, 5143, 5358, 18, 11, 1530986735.159, 17, 0, 1024, 1024, 1024, 1024, 0, 6, 3960, 3957, 4008, 3978, 3982, 3979, 0, 1, 4000, -90.000, 0.000, -80.800, 0.000, 0.000, -0.400, 0.0, , , , , , 96, , , 0, 0, 0
38.5271197, -120.3543214, 0.400, 11:05:35.259, 11, 0.00, 0.12, 96, -0.500, 0.000, -80.600, 2, 100, 100, 23, 23907, -16314, 5143, 5358, 18, 11, 1530986735.259, 22, 0, 1024, 1024, 1024, 1024, 0, 6, 3960, 3957, 4008, 3978, 3982, 3979, 0, 1, 4101, -90.000, 0.000, -80.800, 0.000, 0.000, -0.400, 0.0, , , , , , 96, , , 0, 0, 0
38.5271197, -120.3543213, 0.500, 11:05:35.359, 11, 0.00, 0.13, 96, -0.600, -0.200, -80.200, 2, 100, 100, 23, 23907, -16314, 5143, 5358, 18, 11, 1530986735.359, 22, 0, 1024, 1024, 1024, 1024, 0, 6, 3960, 3957, 4008, 3978, 3982, 3979, 0, 1, 4200, -90.000, 0.000, -80.800, 0.000, 0.000, -0.500, 0.0, , , , , , 96, , , 0, 0, 0
38.5271197, -120.3543212, 0.500, 11:05:35.459, 11, 0.00, 0.13, 96, -0.400, -0.300, -79.700, 2, 100, 100, 23, 23907, -16314, 5143, 5358, 18, 11, 1530986735.459, 26, 0, 1024, 1024, 1024, 1024, 0, 6, 3960, 3957, 4008, 3978, 3982, 3979, 0, 1, 4301, -90.000, 0.000, -80.800, 0.000, 0.000, -0.500, 0.0, , , , , , 96, , , 0, 0, 0
38.5271197, -120.3543212, 0.600, 11:05:35.559, 11, 0.00, 0.13, 96, -0.100, -0.300, -79.300, 2, 100, 100, 23, 23907, -16314, 5143, 5358, 18, 11, 1530986735.559, 22, 0, 1024, 1024, 1024, 1024, 0, 6, 3960, 3957, 4008, 3978, 3982, 3979, 0, 1, 4400, -90.000, 0.000, -80.800, 0.000, 0.000, -0.400, 0.0, , , , , , 96, , , 0, 0, 0
38.5271197, -120.3543212, 0.600, 11:05:35.659, 11, 0.00, 0.13, 96, -0.100, -0.300, -79.300, 2, 100, 100, 23, 23907, -16314, 5143, 5358, 18, 11, 1530986735.659, 122, 0, 1024, 1024, 1024, 1024, 0, 6, 3960, 3957, 4008, 3978, 3982, 3979, 0, 1, 4500, -90.000, 0.000, -80.800, 0.000, 0.000, -0.400, 0.0, , , , , , 96, , , 0, 0, 0
38.5271198, -120.3543210, 0.800, 11:05:35.759, 11, 0.00, 0.15, 96, 0.100, -0.700, -78.600, 2, 100, 100, 23, 23907, -16314, 5143, 5358, 18, 11, 1530986735.759, 5, 0, 1024, 1024, 1024, 1024, 0, 6, 3960, 3957, 4008, 3978, 3982, 3979, 0, 1, 4600, -90.000, 0.000, -80.800, 0.000, 0.000, -0.400, 0.0, , , , , , 96, , , 0, 0, 0
38.5271199, -120.3543211, 0.800, 11:05:35.860, 11, 0.00, 0.15, 96, 0.000, -0.700, -78.700, 2, 100, 100, 23, 23907, -16314, 5143, 5358, 18, 11, 1530986735.860, 1, 0, 1024, 1024, 1024, 1024, 0, 6, 3960, 3957, 4008, 3978, 3982, 3979, 0, 1, 4701, -90.000, 0.000, -80.800, 0.000, 0.000, -0.400, 0.0, , , , , , 96, , , 0, 0, 0
38.5271199, -120.3543211, 0.800, 11:05:35.959, 11, 0.00, 0.15, 96, 0.000, -0.700, -78.700, 2, 100, 100, 23, 23907, -16314, 5143, 5358, 18, 11, 1530986735.959, 100, 0, 1024, 1024, 1024, 1024, 0, 6, 3960, 3957, 4008, 3978, 3982, 3979, 0, 1, 4800, -89.900, 0.000, -80.800, 0.000, 0.000, -0.400, 0.0, , , , , , 96, , , 0, 0, 0
38.5271199, -120.3543212, 0.900, 11:05:36.059, 10, 0.00, 0.15, 96, 0.000, -0.200, -79.200, 2, 100, 100, 23, 23907, -16314, 5143, 5358, 18, 14, 1530986736.060, 4, 0, 1024, 1024, 1024, 1024, 0, 6, 3960, 3957, 4008, 3978, 3982, 3979, 0, 1, 4901, -89.900, 0.000, -80.800, 0.000, 0.000, -0.400, 0.0, , , , , , 96, , , 0, 0, 0
38.5271199, -120.3543212, 0.900, 11:05:36.159, 10, 0.00, 0.15, 96, 0.000, -0.200, -79.200, 2, 100, 100, 23, 23907, -16314, 5143, 5358, 18, 14, 1530986736.160, 103, 0, 1024, 1024, 1024, 1024, 0, 6, 3960, 3957, 4008, 3978, 3982, 3979, 0, 1, 5001, -89.900, 0.000, -80.800, 0.000, 0.000, -0.400, 0.0, , , , , , 96, , , 0, 0, 0
38.5271199, -120.3543212, 0.900, 11:05:36.259, 9, 0.00, 0.15, 96, 0.100, 0.000, -79.400, 2, 100, 100, 23, 23692, -16836, 5143, 5358, 18, 14, 1530986736.260, 89, 0, 1024, 1024, 1024, 1024, 0, 6, 3960, 3957, 4008, 3978, 3982, 3979, 0, 1, 5101, -89.900, 0.000, -80.800, 0.000, 0.000, -0.300, 0.0, , , , , , 96, , , 0, 0, 0
38.5271199, -120.3543212, 1.000, 11:05:36.359, 9, 0.00, 0.15, 96, 0.500, 0.200, -79.700, 2, 100, 100, 23, 23692, -16836, 5143, 5358, 18, 14, 1530986736.360, 90, 0, 1024, 1024, 1024, 1024, 0, 6, 3960, 3957, 4008, 3978, 3982, 3979, 0, 1, 5201, -89.900, 0.000, -80.800, 0.000, 0.000, -0.200, 0.0, , , , , , 96, , , 0, 0, 0
38.5271199, -120.3543213, 1.000, 11:05:36.459, 10, 0.00, 0.15, 96, 0.500, 0.400, -79.900, 2, 100, 100, 23, 23692, -16836, 5143, 5358, 18, 14, 1530986736.459, 95, 0, 1024, 1024, 1024, 1024, 0, 6, 3960, 3957, 4008, 3978, 3982, 3979, 0, 1, 5300, -89.900, 0.000, -80.800, 0.000, 0.000, -0.200, 0.0, , , , , , 96, , , 0, 0, 0
38.5271200, -120.3543214, 1.000, 11:05:36.559, 10, 0.00, 0.15, 96, 0.300, 0.400, -80.200, 2, 100, 100, 23, 23692, -16836, 5143, 5358, 18, 14, 1530986736.560, 66, 0, 1024, 1024, 1024, 1024, 0, 6, 3960, 3957, 4008, 3978, 3982, 3979, 0, 1, 5401, -89.900, 0.000, -80.800, 0.000, 0.000, -0.300, 0.0, , , , , , 96, , , 0, 0, 0
38.5271200, -120.3543215, 1.100, 11:05:36.659, 12, 0.00, 0.15, 96, 0.000, 0.500, -80.500, 2, 100, 100, 23, 23692, -16836, 5143, 5358, 18, 14, 1530986736.660, 71, 0, 1024, 1024, 1024, 1024, 0, 6, 3960, 3957, 4008, 3978, 3982, 3979, 0, 1, 5501, -89.900, 0.000, -80.800, 0.000, 0.000, -0.400, 0.0, , , , , , 96, , , 0, 0, 0
38.5271199, -120.3543215, 1.100, 11:05:36.759, 12, 0.00, 0.14, 96, -0.100, 0.500, -80.700, 2, 100, 100, 23, 23692, -16836, 5143, 5358, 18, 14, 1530986736.760, 62, 0, 1024, 1024, 1024, 1024, 0, 6, 3929, 3926, 3969, 3955, 3962, 3944, 0, 1, 5601, -89.900, 0.000, -80.800, 0.000, 0.000, -0.500, 0.0, , , , , , 96, , , 0, 0, 0
38.5271199, -120.3543216, 1.200, 11:05:36.859, 11, 0.00, 0.14, 96, 0.000, 0.400, -80.900, 2, 100, 100, 23, 23692, -16836, 5143, 5358, 18, 14, 1530986736.860, 64, 0, 1024, 1024, 1024, 1024, 0, 6, 3929, 3926, 3969, 3955, 3962, 3944, 0, 1, 5701, -90.000, 0.000, -80.800, 0.000, 0.000, -0.700, 0.0, , , , , , 96, , , 0, 0, 0
38.5271200, -120.3543216, 1.300, 11:05:36.959, 11, 0.00, 0.14, 96, 0.100, 0.300, -80.900, 2, 100, 100, 23, 23692, -16836, 5143, 5358, 18, 14, 1530986736.959, 64, 0, 1024, 1024, 1024, 1024, 0, 6, 3929, 3926, 3969, 3955, 3962, 3944, 0, 1, 5801, -90.000, 0.000, -80.800, 0.000, 0.000, -0.900, 0.0, , , , , , 96, , , 0, 0, 0
38.5271200, -120.3543216, 1.400, 11:05:37.059, 11, 0.00, 0.14, 96, 0.100, 0.100, -80.900, 2, 100, 100, 23, 23692, -16836, 5143, 5358, 18, 14, 1530986737.059, 66, 0, 1024, 1024, 1024, 1024, 0, 6, 3929, 3926, 3969, 3955, 3962, 3944, 0, 1, 5901, -90.000, 0.000, -80.800, 0.000, 0.000, -1.100, 0.0, , , , , , 96, , , 0, 0, 0
38.5271200, -120.3543216, 1.500, 11:05:37.159, 11, 0.00, 0.15, 96, 0.100, 0.100, -80.900, 2, 100, 100, 23, 23692, -16836, 5143, 5358, 18, 14, 1530986737.160, 49, 0, 1024, 1024, 1024, 1024, 0, 6, 3929, 3926, 3969, 3955, 3962, 3944, 0, 1, 6001, -90.000, 0.000, -80.800, 0.000, 0.000, -1.400, 0.0, , , , , , 96, , , 0, 0, 0
38.5271201, -120.3543214, 1.700, 11:05:37.259, 11, 0.00, 0.16, 96, 0.200, 0.000, -80.800, 2, 100, 100, 23, 23692, -16836, 5143, 5358, 18, 14, 1530986737.260, 31, 0, 1024, 1024, 1024, 1024, 0, 6, 3929, 3926, 3969, 3955, 3962, 3944, 0, 1, 6101, -90.000, 0.000, -80.800, 0.000, 0.000, -1.600, 0.0, , , , , , 96, , , 0, 0, 0
38.5271202, -120.3543212, 1.900, 11:05:37.359, 11, 0.00, 0.18, 96, 0.000, -0.200, -80.800, 2, 100, 100, 23, 23692, -16836, 5143, 5358, 18, 14, 1530986737.360, 12, 0, 1024, 1024, 1024, 1024, 0, 6, 3929, 3926, 3969, 3955, 3962, 3944, 0, 1, 6201, -90.000, 0.000, -80.800, 0.000, 0.000, -1.800, 0.0, , , , , , 96, , , 0, 0, 0
38.5271203, -120.3543209, 2.100, 11:05:37.459, 11, 0.00, 0.20, 96, -0.300, -0.700, -80.700, 2, 100, 100, 23, 23692, -16836, 5143, 5358, 18, 14, 1530986737.460, 41, 0, 1024, 1024, 1024, 1024, 0, 6, 3929, 3926, 3969, 3955, 3962, 3944, 0, 1, 6301, -90.000, 0.000, -80.800, 0.000, 0.000, -2.000, 0.0, , , , , , 96, , , 0, 0, 0
38.5271204, -120.3543205, 2.300, 11:05:37.559, 11, 0.00, 0.23, 96, -0.700, -1.000, -80.500, 2, 100, 100, 23, 23692, -16836, 5143, 5358, 18, 14, 1530986737.560, 22, 0, 1024, 1024, 1024, 1024, 0, 6, 3929, 3926, 3969, 3955, 3962, 3944, 0, 1, 6401, -90.000, 0.000, -80.800, 0.000, 0.000, -2.300, 0.0, , , , , , 96, , , 0, 0, 0
38.5271205, -120.3543201, 2.600, 11:05:37.659, 10, 0.00, 0.27, 96, -1.000, -1.300, -80.300, 2, 100, 100, 23, 23539, -18221, 5143, 5358, 18, 14, 1530986737.660, 22, 0, 1024, 1024, 1024, 1024, 0, 6, 3885, 3880, 3958, 3903, 3895, 3901, 0, 1, 6501, -90.000, 0.000, -80.800, 0.000, 0.000, -2.400, 0.0, , , , , , 96, , , 0, 0, 0
38.5271206, -120.3543195, 2.800, 11:05:37.759, 10, 0.10, 0.31, 96, -1.300, -1.600, -80.000, 2, 100, 100, 23, 23539, -18221, 5143, 5358, 18, 14, 1530986737.760, 10, 0, 1024, 1024, 1024, 1024, 0, 6, 3885, 3880, 3958, 3903, 3895, 3901, 0, 1, 6601, -90.000, 0.000, -80.800, 0.000, 0.100, -2.600, 0.0, , , , , , 96, , , 0, 0, 0
38.5271207, -120.3543191, 3.100, 11:05:37.859, 10, 0.10, 0.35, 96, -1.500, -2.100, -79.800, 2, 100, 100, 23, 23539, -18221, 5143, 5358, 18, 14, 1530986737.859, 10, 0, 1024, 1024, 1024, 1024, 0, 6, 3885, 3880, 3958, 3903, 3895, 3901, 0, 1, 6700, -90.000, 0.000, -80.800, 0.000, 0.100, -2.800, 0.0, , , , , , 96, , , 0, 0, 0
38.5271209, -120.3543187, 3.400, 11:05:37.959, 10, 0.00, 0.38, 96, -1.700, -2.600, -79.700, 2, 100, 100, 23, 23539, -18221, 5143, 5358, 18, 14, 1530986737.960, 13, 0, 1024, 1024, 1024, 1024, 0, 6, 3885, 3880, 3958, 3903, 3895, 3901, 0, 1, 6801, -90.000, 0.000, -80.800, 0.000, 0.000, -3.000, 0.0, , , , , , 96, , , 0, 0, 0
38.5271211, -120.3543184, 3.700, 11:05:38.059, 13, 0.00, 0.42, 96, -1.800, -2.700, -79.700, 2, 100, 100, 23, 23539, -18221, 5143, 5358, 18, 14, 1530986738.060, 17, 0, 1024, 1024, 1024, 1024, 0, 6, 3885, 3880, 3958, 3903, 3895, 3901, 0, 1, 6901, -90.000, 0.000, -80.800, 0.000, 0.000, -3.100, 0.0, , , , , , 96, , , 0, 0, 0
38.5271213, -120.3543181, 4.000, 11:05:38.159, 13, 0.00, 0.45, 96, -2.000, -2.600, -79.700, 2, 100, 100, 23, 23539, -18221, 5143, 5358, 18, 14, 1530986738.160, 6, 0, 1024, 1024, 1024, 1024, 0, 6, 3885, 3880, 3958, 3903, 3895, 3901, 0, 1, 7001, -90.000, 0.000, -80.800, 0.000, 0.000, -3.100, 0.0, , , , , , 96, , , 0, 0, 0
38.5271217, -120.3543180, 4.700, 11:05:38.264, 11, 0.00, 0.49, 96, -2.700, -2.200, -80.000, 2, 100, 100, 23, 23539, -18221, 5143, 5358, 18, 14, 1530986738.264, 1, 0, 1024, 1024, 1024, 1024, 0, 6, 3885, 3880, 3958, 3903, 3895, 3901, 0, 1, 7105, -90.000, 0.000, -80.800, 0.000, 0.000, -3.200, 0.0, , , , , , 96, , , 0, 0, 0
38.5271217, -120.3543180, 4.700, 11:05:38.358, 11, 0.00, 0.49, 96, -2.700, -2.200, -80.000, 2, 100, 100, 23, 23539, -18221, 5143, 5358, 18, 14, 1530986738.358, 96, 0, 1024, 1024, 1024, 1024, 0, 6, 3885, 3880, 3958, 3903, 3895, 3901, 0, 1, 7200, -90.000, 0.000, -80.800, 0.000, 0.000, -3.200, 0.0, , , , , , 96, , , 0, 0, 0
38.5271220, -120.3543180, 5.000, 11:05:38.459, 11, 0.00, 0.51, 96, -2.800, -1.700, -80.200, 2, 100, 100, 23, 23539, -18221, 5143, 5358, 18, 14, 1530986738.460, 88, 0, 1024, 1024, 1024, 1024, 0, 6, 3885, 3880, 3958, 3903, 3895, 3901, 0, 1, 7301, -90.000, 0.000, -80.800, 0.000, 0.000, -3.200, 0.0, , , , , , 96, , , 0, 0, 0
38.5271223, -120.3543181, 5.400, 11:05:38.558, 11, 0.10, 0.53, 96, -2.900, -1.100, -80.400, 2, 100, 100, 23, 23539, -18221, 5143, 5358, 18, 14, 1530986738.558, 92, 0, 1024, 1024, 1024, 1024, 0, 6, 3885, 3880, 3958, 3903, 3895, 3901, 0, 1, 7400, -89.900, 0.000, -80.800, 0.000, -0.100, -3.300, 0.0, , , , , , 96, , , 0, 0, 0
38.5271226, -120.3543183, 5.700, 11:05:38.658, 11, 0.10, 0.54, 96, -3.200, -0.600, -80.600, 2, 100, 100, 23, 23539, -18221, 5143, 5358, 18, 14, 1530986738.658, 83, 0, 1024, 1024, 1024, 1024, 0, 6, 3885, 3880, 3958, 3903, 3895, 3901, 0, 1, 7500, -89.900, 0.000, -80.800, 0.000, -0.100, -3.300, 0.0, , , , , , 96, , , 0, 0, 0
38.5271228, -120.3543184, 6.100, 11:05:38.759, 11, 0.10, 0.56, 96, -3.200, -0.200, -80.700, 2, 100, 100, 23, 22911, -24809, 5090, 5358, 18, 14, 1530986738.760, 86, 0, 1024, 1024, 1024, 1024, 0, 6, 3792, 3785, 3847, 3808, 3825, 3800, 0, 1, 7601, -89.900, 0.000, -80.800, 0.000, -0.100, -3.300, 0.0, , , , , , 96, , , 0, 0, 0
38.5271229, -120.3543187, 6.400, 11:05:38.859, 11, 0.10, 0.55, 96, -3.100, 0.000, -80.700, 2, 100, 100, 23, 22911, -24809, 5090, 5358, 18, 14, 1530986738.860, 56, 0, 1024, 1024, 1024, 1024, 0, 6, 3792, 3785, 3847, 3808, 3825, 3800, 0, 1, 7701, -89.900, 0.000, -80.800, 0.000, -0.100, -3.300, 0.0, , , , , , 96, , , 0, 0, 0
38.5271227, -120.3543190, 6.800, 11:05:38.959, 11, 0.14, 0.51, 96, -2.800, 0.100, -80.600, 2, 100, 100, 23, 22911, -24809, 5090, 5358, 18, 14, 1530986738.960, 83, 0, 1024, 1024, 1024, 1024, 0, 6, 3792, 3785, 3847, 3808, 3825, 3800, 0, 1, 7801, -89.900, 0.000, -80.800, -0.100, -0.100, -3.200, 0.0, , , , , , 96, , , 0, 0, 0
38.5271225, -120.3543194, 7.100, 11:05:39.059, 12, 0.14, 0.48, 96, -2.000, 0.200, -80.600, 2, 100, 100, 23, 22911, -24809, 5090, 5358, 18, 14, 1530986739.060, 55, 0, 1024, 1024, 1024, 1024, 0, 6, 3792, 3785, 3847, 3808, 3825, 3800, 0, 1, 7901, -89.900, 0.000, -80.800, -0.100, -0.100, -3.200, 0.0, , , , , , 96, , , 0, 0, 0
38.5271223, -120.3543199, 7.400, 11:05:39.159, 12, 0.14, 0.44, 96, -1.300, 0.400, -80.500, 2, 100, 100, 23, 22911, -24809, 5090, 5358, 18, 14, 1530986739.160, 54, 0, 1024, 1024, 1024, 1024, 0, 6, 3792, 3785, 3847, 3808, 3825, 3800, 0, 1, 8001, -89.900, 0.000, -80.800, -0.100, -0.100, -3.200, 0.0, , , , , , 96, , , 0, 0, 0
38.5271221, -120.3543203, 7.800, 11:05:39.262, 12, 0.14, 0.41, 95, -0.800, 0.800, -80.500, 2, 100, 100, 23, 22911, -24809, 5090, 5358, 18, 14, 1530986739.262, 52, 0, 1024, 1024, 1024, 1024, 0, 6, 3792, 3785, 3847, 3808, 3825, 3800, 0, 1, 8104, -89.900, 0.000, -80.800, -0.100, -0.100, -3.200, 0.0, , , , , , 96, , , 0, 0, 0
38.5271219, -120.3543207, 8.100, 11:05:39.359, 12, 0.14, 0.37, 95, -0.300, 1.200, -80.600, 2, 100, 100, 23, 22911, -24809, 5090, 5358, 18, 14, 1530986739.359, 61, 0, 1024, 1024, 1024, 1024, 0, 6, 3792, 3785, 3847, 3808, 3825, 3800, 0, 1, 8200, -89.900, 0.000, -80.800, -0.100, -0.100, -3.100, 0.0, , , , , , 96, , , 0, 0, 0
38.5271219, -120.3543207, 8.100, 11:05:39.459, 12, 0.14, 0.37, 95, -0.300, 1.200, -80.600, 2, 100, 100, 23, 22911, -24809, 5090, 5358, 18, 14, 1530986739.459, 162, 0, 1024, 1024, 1024, 1024, 0, 6, 3792, 3785, 3847, 3808, 3825, 3800, 0, 1, 8301, -89.900, 0.000, -80.800, -0.100, -0.100, -3.100, 0.0, , , , , , 96, , , 0, 0, 0
38.5271215, -120.3543217, 8.700, 11:05:39.559, 13, 0.14, 0.31, 95, 0.200, 1.500, -80.600, 2, 100, 100, 23, 22911, -24809, 5090, 5358, 18, 14, 1530986739.559, 48, 0, 1024, 1024, 1024, 1024, 0, 6, 3792, 3785, 3847, 3808, 3825, 3800, 0, 1, 8401, -89.900, 0.000, -80.800, -0.100, -0.100, -3.100, 0.0, , , , , , 96, , , 0, 0, 0
38.5271213, -120.3543224, 9.100, 11:05:39.659, 12, 0.14, 0.28, 95, 0.400, 2.000, -80.600, 2, 100, 100, 23, 23094, -20844, 5090, 5358, 18, 14, 1530986739.660, 33, 0, 1024, 1024, 1024, 1024, 0, 6, 3829, 3835, 3888, 3868, 3879, 3852, 0, 1, 8501, -89.900, 0.000, -80.800, -0.100, -0.100, -3.100, 0.0, , , , , , 96, , , 0, 0, 0
38.5271210, -120.3543231, 9.400, 11:05:39.759, 12, 0.14, 0.26, 95, 0.800, 2.500, -80.600, 2, 100, 100, 23, 23094, -20844, 5090, 5358, 18, 14, 1530986739.760, 43, 0, 1024, 1024, 1024, 1024, 0, 6, 3829, 3835, 3888, 3868, 3879, 3852, 0, 1, 8601, -89.900, 0.000, -80.800, -0.100, -0.100, -3.100, 0.0, , , , , , 96, , , 0, 0, 0
38.5271208, -120.3543237, 9.700, 11:05:39.859, 12, 0.14, 0.26, 95, 1.200, 2.900, -80.700, 2, 100, 100, 23, 23094, -20844, 5090, 5358, 18, 14, 1530986739.859, 49, 0, 1024, 1024, 1024, 1024, 0, 6, 3829, 3835, 3888, 3868, 3879, 3852, 0, 1, 8701, -89.900, 0.000, -80.800, -0.100, -0.100, -3.100, 0.0, , , , , , 96, , , 0, 0, 0
38.5271208, -120.3543237, 9.700, 11:05:39.958, 12, 0.14, 0.26, 95, 1.200, 2.900, -80.700, 2, 100, 100, 23, 23094, -20844, 5090, 5358, 18, 14, 1530986739.958, 148, 0, 1024, 1024, 1024, 1024, 0, 6, 3829, 3835, 3888, 3868, 3879, 3852, 0, 1, 8800, -90.000, 0.000, -80.800, -0.100, -0.100, -3.100, 0.0, , , , , , 96, , , 0, 0, 0
38.5271202, -120.3543247, 10.400, 11:05:40.059, 12, 0.10, 0.27, 95, 1.600, 2.900, -80.800, 2, 100, 100, 23, 23094, -20844, 5090, 5358, 18, 14, 1530986740.060, 30, 0, 1024, 1024, 1024, 1024, 0, 6, 3829, 3835, 3888, 3868, 3879, 3852, 0, 1, 8901, -90.000, 0.000, -80.800, -0.100, 0.000, -3.000, 0.0, , , , , , 96, , , 0, 0, 0
38.5271199, -120.3543252, 10.700, 11:05:40.159, 12, 0.10, 0.29, 95, 1.600, 2.700, -80.800, 2, 100, 100, 23, 23094, -20844, 5090, 5358, 18, 14, 1530986740.160, 30, 0, 1024, 1024, 1024, 1024, 0, 6, 3829, 3835, 3888, 3868, 3879, 3852, 0, 1, 9001, -89.900, 0.000, -80.800, -0.100, 0.000, -3.000, 0.0, , , , , , 96, , , 0, 0, 0
38.5271196, -120.3543256, 11.000, 11:05:40.259, 12, 0.10, 0.31, 95, 1.700, 2.500, -80.800, 2, 100, 100, 23, 23094, -20844, 5090, 5358, 18, 14, 1530986740.259, 35, 0, 1024, 1024, 1024, 1024, 0, 6, 3829, 3835, 3888, 3868, 3879, 3852, 0, 1, 9100, -90.000, 0.000, -80.800, -0.100, 0.000, -3.000, 0.0, , , , , , 96, , , 0, 0, 0
38.5271193, -120.3543259, 11.300, 11:05:40.359, 12, 0.10, 0.33, 95, 2.000, 2.300, -80.700, 2, 100, 100, 23, 23094, -20844, 5090, 5358, 18, 14, 1530986740.360, 32, 0, 1024, 1024, 1024, 1024, 0, 6, 3829, 3835, 3888, 3868, 3879, 3852, 0, 1, 9201, -90.000, 0.000, -80.800, -0.100, 0.000, -2.900, 0.0, , , , , , 96, , , 0, 0, 0
38.5271189, -120.3543262, 11.600, 11:05:40.459, 12, 0.10, 0.35, 95, 2.200, 1.900, -80.700, 2, 100, 100, 23, 23094, -20844, 5090, 5358, 18, 14, 1530986740.459, 15, 0, 1024, 1024, 1024, 1024, 0, 6, 3829, 3835, 3888, 3868, 3879, 3852, 0, 1, 9300, -90.000, 0.000, -80.800, -0.100, 0.000, -2.900, 0.0, , , , , , 96, , , 0, 0, 0
38.5271189, -120.3543262, 11.600, 11:05:40.559, 12, 0.10, 0.35, 95, 2.200, 1.900, -80.700, 2, 100, 100, 23, 23094, -20844, 5090, 5358, 18, 14, 1530986740.559, 115, 0, 1024, 1024, 1024, 1024, 0, 6, 3829, 3835, 3888, 3868, 3879, 3852, 0, 1, 9400, -90.000, 0.000, -80.800, -0.100, 0.000, -2.900, 0.0, , , , , , 96, , , 0, 0, 0
38.5271183, -120.3543266, 12.200, 11:05:40.659, 12, 0.00, 0.39, 95, 3.000, 2.000, -80.600, 2, 100, 100, 23, 23275, -18745, 5090, 5358, 18, 14, 1530986740.659, 94, 0, 1024, 1024, 1024, 1024, 0, 6, 3829, 3835, 3888, 3868, 3879, 3852, 0, 1, 9500, -89.900, 0.000, -80.800, 0.000, 0.000, -2.900, 0.0, , , , , , 96, , , 0, 0, 0
38.5271181, -120.3543268, 12.500, 11:05:40.758, 12, 0.10, 0.41, 95, 3.000, 2.000, -80.600, 2, 100, 100, 23, 23275, -18745, 5090, 5358, 18, 14, 1530986740.759, 6, 0, 1024, 1024, 1024, 1024, 0, 6, 3859, 3854, 3903, 3883, 3891, 3872, 0, 1, 9600, -89.900, 0.000, -80.800, 0.000, 0.100, -2.900, 0.0, , , , , , 96, , , 0, 0, 0
38.5271181, -120.3543268, 12.500, 11:05:40.859, 12, 0.10, 0.41, 95, 3.000, 2.000, -80.600, 2, 100, 100, 23, 23275, -18745, 5090, 5358, 18, 14, 1530986740.859, 106, 0, 1024, 1024, 1024, 1024, 0, 6, 3859, 3854, 3903, 3883, 3891, 3872, 0, 1, 9700, -89.900, 0.000, -80.800, 0.000, 0.100, -2.900, 0.0, , , , , , 96, , , 0, 0, 0
38.5271178, -120.3543270, 13.100, 11:05:40.959, 12, 0.10, 0.44, 95, 2.200, 1.900, -80.500, 2, 100, 100, 23, 23275, -18745, 5090, 5358, 18, 14, 1530986740.959, 97, 0, 1024, 1024, 1024, 1024, 0, 6, 3859, 3854, 3903, 3883, 3891, 3872, 0, 1, 9800, -89.900, 0.000, -80.800, 0.000, 0.100, -2.900, 0.0, , , , , , 96, , , 0, 0, 0
38.5271177, -120.3543271, 13.400, 11:05:41.059, 12, 0.10, 0.45, 95, 2.000, 1.900, -80.600, 2, 100, 100, 23, 23275, -18745, 5090, 5358, 18, 14, 1530986741.059, 90, 0, 1024, 1024, 1024, 1024, 0, 6, 3859, 3854, 3903, 3883, 3891, 3872, 0, 1, 9900, -89.900, 0.000, -80.800, 0.000, 0.100, -2.800, 0.0, , , , , , 96, , , 0, 0, 0
38.5271176, -120.3543271, 13.700, 11:05:41.158, 12, 0.10, 0.45, 95, 1.800, 1.800, -80.600, 2, 100, 100, 23, 23275, -18745, 5090, 5358, 18, 14, 1530986741.159, 91, 0, 1024, 1024, 1024, 1024, 0, 6, 3859, 3854, 3903, 3883, 3891, 3872, 0, 1, 10000, -89.900, 0.000, -80.800, 0.000, 0.100, -2.900, 0.0, , , , , , 96, , , 0, 0, 0
38.5271175, -120.3543270, 14.000, 11:05:41.259, 12, 0.20, 0.44, 95, 1.600, 1.500, -80.600, 2, 100, 100, 23, 23275, -18745, 5090, 5358, 18, 14, 1530986741.259, 75, 0, 1024, 1024, 1024, 1024, 0, 6, 3859, 3854, 3903, 3883, 3891, 3872, 0, 1, 10100, -89.900, 0.000, -80.800, 0.000, 0.200, -2.900, 0.0, , , , , , 96, , , 0, 0, 0
38.5271174, -120.3543267, 14.300, 11:05:41.359, 12, 0.20, 0.43, 95, 1.400, 1.100, -80.700, 2, 100, 99, 23, 23275, -18745, 5090, 5358, 18, 14, 1530986741.359, 75, 0, 1024, 1024, 1024, 1024, 0, 6, 3859, 3854, 3903, 3883, 3891, 3872, 0, 1, 10200, -90.000, 0.000, -80.800, 0.000, 0.200, -3.000, 0.0, , , , , , 96, , , 0, 0, 0
38.5271174, -120.3543266, 14.600, 11:05:41.459, 12, 0.20, 0.42, 95, 1.500, 0.600, -80.700, 2, 100, 99, 23, 23275, -18745, 5090, 5358, 18, 14, 1530986741.459, 49, 0, 1024, 1024, 1024, 1024, 0, 6, 3859, 3854, 3903, 3883, 3891, 3872, 0, 1, 10300, -90.000, 0.000, -80.800, 0.000, 0.200, -3.000, 0.0, , , , , , 96, , , 0, 0, 0
38.5271173, -120.3543265, 14.900, 11:05:41.559, 12, 0.20, 0.41, 95, 1.700, 0.400, -80.700, 2, 100, 99, 23, 23275, -18745, 5090, 5358, 18, 14, 1530986741.559, 73, 0, 1024, 1024, 1024, 1024, 0, 6, 3859, 3854, 3903, 3883, 3891, 3872, 0, 1, 10400, -90.000, 0.000, -80.800, 0.000, 0.200, -2.900, 0.0, , , , , , 96, , , 0, 0, 0
38.5271173, -120.3543263, 15.200, 11:05:41.659, 11, 0.22, 0.40, 95, 1.600, 0.400, -80.800, 2, 100, 99, 23, 23275, -18745, 5090, 5358, 18, 14, 1530986741.659, 64, 0, 1024, 1024, 1024, 1024, 0, 6, 3859, 3854, 3903, 3883, 3891, 3872, 0, 1, 10500, -90.000, 0.000, -80.800, 0.100, 0.200, -2.900, 0.0, , , , , , 96, , , 0, 0, 0
38.5271172, -120.3543261, 15.500, 11:05:41.759, 11, 0.22, 0.38, 95, 1.400, 0.300, -80.800, 2, 100, 99, 23, 23222, -18922, 5090, 5358, 18, 14, 1530986741.759, 65, 0, 1024, 1024, 1024, 1024, 0, 6, 3859, 3854, 3903, 3883, 3891, 3872, 0, 1, 10600, -90.000, 0.000, -80.800, 0.100, 0.200, -2.900, 0.0, , , , , , 96, , , 0, 0, 0
38.5271172, -120.3543258, 15.800, 11:05:41.859, 12, 0.22, 0.36, 95, 1.200, 0.100, -80.800, 2, 100, 99, 23, 23222, -18922, 5090, 5358, 18, 14, 1530986741.859, 68, 0, 1024, 1024, 1024, 1024, 0, 6, 3859, 3854, 3903, 3883, 3891, 3872, 0, 1, 10700, -90.000, 0.000, -80.800, 0.100, 0.200, -3.000, 0.0, , , , , , 96, , , 0, 0, 0
38.5271172, -120.3543256, 16.100, 11:05:41.959, 12, 0.22, 0.35, 95, 1.100, 0.000, -80.800, 2, 100, 99, 23, 23222, -18922, 5090, 5358, 18, 14, 1530986741.959, 61, 0, 1024, 1024, 1024, 1024, 0, 6, 3859, 3854, 3903, 3883, 3891, 3872, 0, 1, 10800, -90.000, 0.000, -80.800, 0.100, 0.200, -2.900, 0.0, , , , , , 96, , , 0, 0, 0
38.5271173, -120.3543254, 16.400, 11:05:42.059, 12, 0.22, 0.32, 95, 1.100, -0.100, -80.900, 2, 100, 99, 23, 23222, -18922, 5090, 5358, 18, 14, 1530986742.059, 54, 0, 1024, 1024, 1024, 1024, 0, 6, 3859, 3854, 3903, 3883, 3891, 3872, 0, 1, 10900, -90.000, 0.000, -80.800, 0.100, 0.200, -2.900, 0.0, , , , , , 96, , , 0, 0, 0
38.5271174, -120.3543251, 16.700, 11:05:42.159, 12, 0.22, 0.30, 95, 0.900, -0.200, -80.800, 2, 100, 99, 23, 23222, -18922, 5090, 5358, 18, 14, 1530986742.159, 57, 0, 1024, 1024, 1024, 1024, 0, 6, 3859, 3854, 3903, 3883, 3891, 3872, 0, 1, 11001, -90.000, 0.000, -80.800, 0.100, 0.200, -2.900, 0.0, , , , , , 96, , , 0, 0, 0
38.5271175, -120.3543247, 17.000, 11:05:42.259, 12, 0.22, 0.26, 95, 0.300, -0.300, -80.800, 2, 100, 99, 23, 23222, -18922, 5090, 5358, 18, 14, 1530986742.259, 37, 0, 1024, 1024, 1024, 1024, 0, 6, 3839, 3840, 3891, 3872, 3869, 3861, 0, 1, 11100, -90.000, 0.000, -80.800, 0.100, 0.200, -2.900, 0.0, , , , , , 96, , , 0, 0, 0
38.5271176, -120.3543244, 17.300, 11:05:42.359, 12, 0.22, 0.23, 95, -0.100, -0.600, -80.700, 2, 100, 98, 23, 23222, -18922, 5090, 5358, 18, 14, 1530986742.359, 31, 0, 1024, 1024, 1024, 1024, 0, 6, 3839, 3840, 3891, 3872, 3869, 3861, 0, 1, 11200, -90.000, 0.000, -80.800, 0.100, 0.200, -2.900, 0.0, , , , , , 96, , , 0, 0, 0
38.5271178, -120.3543240, 17.600, 11:05:42.459, 12, 0.22, 0.20, 95, -0.300, -0.900, -80.600, 2, 100, 98, 23, 23222, -18922, 5090, 5358, 18, 14, 1530986742.459, 15, 0, 1024, 1024, 1024, 1024, 0, 6, 3839, 3840, 3891, 3872, 3869, 3861, 0, 1, 11300, -90.000, 0.000, -80.800, 0.100, 0.200, -3.000, 0.0, , , , , , 96, , , 0, 0, 0
38.5271179, -120.3543237, 17.900, 11:05:42.559, 12, 0.22, 0.16, 95, -0.500, -1.100, -80.600, 2, 100, 98, 23, 23222, -18922, 5090, 5358, 18, 14, 1530986742.559, 16, 0, 1024, 1024, 1024, 1024, 0, 6, 3839, 3840, 3891, 3872, 3869, 3861, 0, 1, 11400, -90.000, 0.000, -80.800, 0.100, 0.200, -2.900, 0.0, , , , , , 96, , , 0, 0, 0
38.5271179, -120.3543237, 17.900, 11:05:42.659, 12, 0.22, 0.16, 95, -0.500, -1.100, -80.600, 2, 100, 98, 23, 23222, -18922, 5090, 5358, 18, 14, 1530986742.659, 116, 0, 1024, 1024, 1024, 1024, 0, 6, 3839, 3840, 3891, 3872, 3869, 3861, 0, 1, 11500, -90.000, 0.000, -80.800, 0.100, 0.200, -2.900, 0.0, , , , , , 96, , , 0, 0, 0
38.5271181, -120.3543230, 18.400, 11:05:42.759, 12, 0.22, 0.10, 95, -0.600, -1.400, -80.500, 2, 100, 97, 23, 23222, -18922, 5090, 5358, 18, 14, 1530986742.759, 25, 0, 1024, 1024, 1024, 1024, 0, 6, 3839, 3840, 3891, 3872, 3869, 3861, 0, 1, 11600, -90.000, 0.000, -80.800, 0.100, 0.200, -2.900, 0.0, , , , , , 96, , , 0, 0, 0
38.5271183, -120.3543227, 18.700, 11:05:42.859, 12, 0.22, 0.07, 95, -0.500, -1.500, -80.500, 2, 100, 97, 23, 23222, -18922, 5090, 5358, 18, 14, 1530986742.859, 29, 0, 1024, 1024, 1024, 1024, 0, 6, 3839, 3840, 3891, 3872, 3869, 3861, 0, 1, 11700, -90.000, 0.000, -80.800, 0.100, 0.200, -2.900, 0.0, , , , , , 96, , , 0, 0, 0
38.5271184, -120.3543224, 19.000, 11:05:42.959, 12, 0.14, 0.05, 95, -0.600, -1.600, -80.500, 2, 100, 97, 23, 23222, -18922, 5090, 5358, 18, 14, 1530986742.959, 19, 0, 1024, 1024, 1024, 1024, 0, 6, 3839, 3840, 3891, 3872, 3869, 3861, 0, 1, 11800, -90.000, 0.000, -80.800, 0.100, 0.100, -3.000, 0.0, , , , , , 96, , , 0, 0, 0
38.5271186, -120.3543221, 19.300, 11:05:43.059, 12, 0.14, 0.02, 95, -0.500, -1.500, -80.500, 2, 100, 97, 23, 23222, -18922, 5090, 5358, 18, 14, 1530986743.059, 15, 0, 1024, 1024, 1024, 1024, 0, 6, 3839, 3840, 3891, 3872, 3869, 3861, 0, 1, 11900, -89.900, 0.000, -80.800, 0.100, 0.100, -3.000, 0.0, , , , , , 96, , , 0, 0, 0
38.5271188, -120.3543218, 19.600, 11:05:43.159, 12, 0.14, 0.03, 95, -0.600, -1.400, -80.500, 2, 100, 97, 23, 23119, -19828, 5090, 5358, 18, 14, 1530986743.159, 19, 0, 1024, 1024, 1024, 1024, 0, 6, 3826, 3820, 3885, 3866, 3864, 3855, 0, 1, 12000, -90.000, 0.000, -80.800, 0.100, 0.100, -2.900, 0.0, , , , , , 96, , , 0, 0, 0
38.5271188, -120.3543218, 19.600, 11:05:43.259, 12, 0.14, 0.03, 95, -0.600, -1.400, -80.500, 2, 100, 97, 23, 23119, -19828, 5090, 5358, 18, 14, 1530986743.259, 119, 0, 1024, 1024, 1024, 1024, 0, 6, 3826, 3820, 3885, 3866, 3864, 3855, 0, 1, 12100, -90.000, 0.000, -80.800, 0.100, 0.100, -2.900, 0.0, , , , , , 96, , , 0, 0, 0
38.5271191, -120.3543214, 19.900, 11:05:43.359, 12, 0.14, 0.07, 95, -0.900, -1.500, -80.500, 2, 100, 97, 23, 23119, -19828, 5090, 5358, 18, 14, 1530986743.359, 88, 0, 1024, 1024, 1024, 1024, 0, 6, 3826, 3820, 3885, 3866, 3864, 3855, 0, 1, 12200, -90.000, 0.000, -80.800, 0.100, 0.100, -3.000, 0.0, , , , , , 96, , , 0, 0, 0
38.5271196, -120.3543207, 20.600, 11:05:43.459, 11, 0.14, 0.16, 95, -2.100, -2.000, -80.600, 2, 100, 97, 23, 23119, -19828, 5090, 5358, 18, 14, 1530986743.459, 76, 0, 1024, 1024, 1024, 1024, 0, 6, 3826, 3820, 3885, 3866, 3864, 3855, 0, 1, 12300, -90.000, 0.000, -80.800, 0.100, 0.100, -3.000, 0.0, , , , , , 96, , , 0, 0, 0
38.5271202, -120.3543202, 21.200, 11:05:43.561, 12, 0.14, 0.23, 95, -3.100, -1.800, -80.800, 2, 100, 97, 23, 23119, -19828, 5090, 5358, 18, 14, 1530986743.561, 2, 0, 1024, 1024, 1024, 1024, 0, 6, 3826, 3820, 3885, 3866, 3864, 3855, 0, 1, 12402, -89.900, 0.000, -80.800, 0.100, 0.100, -3.000, 0.0, , , , , , 96, , , 0, 0, 0
38.5271205, -120.3543198, 21.500, 11:05:43.659, 12, 0.14, 0.28, 95, -2.900, -1.600, -80.900, 2, 100, 97, 23, 23119, -19828, 5090, 5358, 18, 14, 1530986743.659, 4, 0, 1024, 1024, 1024, 1024, 0, 6, 3826, 3820, 3885, 3866, 3864, 3855, 0, 1, 12500, -89.900, 0.000, -80.800, 0.100, 0.100, -3.000, 0.0, , , , , , 96, , , 0, 0, 0
38.5271205, -120.3543198, 21.500, 11:05:43.759, 12, 0.14, 0.28, 95, -2.900, -1.600, -80.900, 2, 100, 97, 23, 23119, -19828, 5090, 5358, 18, 14, 1530986743.759, 104, 0, 1024, 1024, 1024, 1024, 0, 6, 3826, 3820, 3885, 3866, 3864, 3855, 0, 1, 12600, -89.900, 0.000, -80.800, 0.100, 0.100, -3.000, 0.0, , , , , , 96, , , 0, 0, 0
38.5271207, -120.3543196, 21.800, 11:05:43.859, 13, 0.14, 0.31, 95, -2.900, -1.800, -81.000, 2, 100, 99, 23, 23119, -19828, 5090, 5358, 18, 14, 1530986743.859, 96, 0, 1024, 1024, 1024, 1024, 0, 6, 3826, 3820, 3885, 3866, 3864, 3855, 0, 1, 12700, -90.000, 0.000, -80.800, 0.100, 0.100, -3.000, 0.0, , , , , , 96, , , 0, 0, 0
38.5271207, -120.3543195, 22.100, 11:05:43.959, 13, 0.00, 0.32, 95, -2.600, -1.900, -81.000, 2, 100, 99, 23, 23119, -19828, 5090, 5358, 18, 14, 1530986743.959, 84, 0, 1024, 1024, 1024, 1024, 0, 6, 3826, 3820, 3885, 3866, 3864, 3855, 0, 1, 12800, -90.000, 0.000, -80.800, 0.000, 0.000, -2.900, 0.0, , , , , , 96, , , 0, 0, 0
38.5271208, -120.3543193, 22.400, 11:05:44.059, 13, 0.00, 0.34, 95, -2.200, -1.900, -81.000, 2, 100, 99, 23, 23119, -19828, 5090, 5358, 18, 14, 1530986744.059, 74, 0, 1024, 1024, 1024, 1024, 0, 6, 3826, 3820, 3885, 3866, 3864, 3855, 0, 1, 12900, -90.000, 0.000, -80.800, 0.000, 0.000, -2.900, 0.0, , , , , , 96, , , 0, 0, 0
38.5271209, -120.3543191, 22.700, 11:05:44.159, 13, 0.00, 0.36, 95, -1.800, -1.900, -80.900, 2, 100, 99, 23, 23119, -19828, 5090, 5358, 18, 14, 1530986744.159, 71, 0, 1024, 1024, 1024, 1024, 0, 6, 3826, 3820, 3885, 3866, 3864, 3855, 0, 1, 13000, -90.000, 0.000, -80.800, 0.000, 0.000, -2.900, 0.0, , , , , , 96, , , 0, 0, 0
38.5271210, -120.3543189, 23.000, 11:05:44.259, 13, 0.00, 0.37, 95, -1.700, -1.900, -80.800, 2, 100, 99, 23, 23072, -19785, 5090, 5358, 18, 14, 1530986744.259, 71, 0, 1024, 1024, 1024, 1024, 0, 6, 3823, 3814, 3877, 3849, 3867, 3846, 0, 1, 13100, -90.000, 0.000, -80.800, 0.000, 0.000, -2.900, 0.0, , , , , , 96, , , 0, 0, 0
38.5271210, -120.3543188, 23.300, 11:05:44.359, 13, 0.00, 0.38, 95, -1.600, -1.900, -80.700, 2, 100, 100, 23, 23072, -19785, 5090, 5358, 18, 14, 1530986744.359, 72, 0, 1024, 1024, 1024, 1024, 0, 6, 3823, 3814, 3877, 3849, 3867, 3846, 0, 1, 13200, -90.000, 0.000, -80.800, 0.000, 0.000, -3.000, 0.0, , , , , , 96, , , 0, 0, 0
38.5271210, -120.3543188, 23.600, 11:05:44.459, 13, 0.00, 0.38, 95, -1.600, -1.800, -80.600, 2, 100, 100, 23, 23072, -19785, 5090, 5358, 18, 14, 1530986744.459, 49, 0, 1024, 1024, 1024, 1024, 0, 6, 3823, 3814, 3877, 3849, 3867, 3846, 0, 1, 13300, -90.000, 0.000, -80.800, 0.000, 0.000, -3.000, 0.0, , , , , , 96, , , 0, 0, 0
38.5271211, -120.3543189, 23.900, 11:05:44.559, 13, 0.00, 0.38, 95, -1.600, -1.500, -80.600, 2, 100, 100, 23, 23072, -19785, 5090, 5358, 18, 14, 1530986744.559, 64, 0, 1024, 1024, 1024, 1024, 0, 6, 3823, 3814, 3877, 3849, 3867, 3846, 0, 1, 13400, -89.900, 0.000, -80.800, 0.000, 0.000, -3.000, 0.0, , , , , , 96, , , 0, 0, 0
38.5271211, -120.3543189, 24.200, 11:05:44.659, 13, 0.00, 0.38, 95, -1.400, -1.100, -80.600, 2, 100, 100, 23, 23072, -19785, 5090, 5358, 18, 14, 1530986744.659, 69, 0, 1024, 1024, 1024, 1024, 0, 6, 3823, 3814, 3877, 3849, 3867, 3846, 0, 1, 13500, -89.900, 0.000, -80.800, 0.000, 0.000, -2.900, 0.0, , , , , , 96, , , 0, 0, 0
38.5271211, -120.3543189, 24.500, 11:05:44.759, 13, 0.00, 0.39, 95, -1.300, -1.000, -80.600, 2, 100, 100, 23, 23072, -19785, 5090, 5358, 18, 14, 1530986744.759, 44, 0, 1024, 1024, 1024, 1024, 0, 6, 3823, 3814, 3877, 3849, 3867, 3846, 0, 1, 13600, -90.000, 0.000, -80.800, 0.000, 0.000, -2.900, 0.0, , , , , , 96, , , 0, 0, 0
38.5271211, -120.3543189, 24.800, 11:05:44.859, 13, 0.00, 0.38, 95, -1.200, -0.800, -80.700, 2, 100, 100, 23, 23072, -19785, 5090, 5358, 18, 14, 1530986744.859, 52, 0, 1024, 1024, 1024, 1024, 0, 6, 3823, 3814, 3877, 3849, 3867, 3846, 0, 1, 13700, -89.900, 0.000, -80.800, 0.000, 0.000, -2.900, 0.0, , , , , , 96, , , 0, 0, 0
38.5271211, -120.3543190, 25.100, 11:05:44.959, 13, 0.00, 0.38, 95, -1.000, -0.700, -80.700, 2, 100, 100, 23, 23072, -19785, 5090, 5358, 18, 14, 1530986744.959, 55, 0, 1024, 1024, 1024, 1024, 0, 6, 3823, 3814, 3877, 3849, 3867, 3846, 0, 1, 13800, -89.900, 0.000, -80.800, 0.000, 0.000, -2.900, 0.0, , , , , , 96, , , 0, 0, 0
38.5271211, -120.3543191, 25.400, 11:05:45.059, 13, 0.00, 0.37, 95, -1.000, -0.600, -80.700, 2, 100, 100, 23, 23072, -19785, 5090, 5358, 18, 14, 1530986745.059, 36, 0, 1024, 1024, 1024, 1024, 0, 6, 3823, 3814, 3877, 3849, 3867, 3846, 0, 1, 13900, -89.900, 0.000, -80.800, 0.000, 0.000, -2.900, 0.0, , , , , , 96, , , 0, 0, 0
38.5271212, -120.3543192, 25.700, 11:05:45.159, 13, 0.00, 0.37, 95, -0.900, -0.400, -80.700, 2, 100, 100, 23, 23084, -19284, 5090, 5358, 18, 14, 1530986745.159, 41, 0, 1024, 1024, 1024, 1024, 0, 6, 3829, 3831, 3874, 3852, 3863, 3850, 0, 1, 14000, -89.900, 0.000, -80.800, 0.000, 0.000, -2.900, 0.0, , , , , , 96, , , 0, 0, 0
38.5271212, -120.3543193, 26.000, 11:05:45.259, 13, 0.00, 0.37, 95, -1.000, -0.400, -80.700, 2, 100, 100, 23, 23084, -19284, 5090, 5358, 18, 14, 1530986745.259, 45, 0, 1024, 1024, 1024, 1024, 0, 6, 3829, 3831, 3874, 3852, 3863, 3850, 0, 1, 14100, -89.900, 0.000, -80.800, 0.000, 0.000, -2.900, 0.0, , , , , , 96, , , 0, 0, 0
38.5271212, -120.3543194, 26.300, 11:05:45.359, 13, 0.00, 0.36, 95, -1.000, -0.400, -80.600, 2, 100, 100, 23, 23084, -19284, 5090, 5358, 18, 14, 1530986745.359, 32, 0, 1024, 1024, 1024, 1024, 0, 6, 3829, 3831, 3874, 3852, 3863, 3850, 0, 1, 14200, -89.900, 0.000, -80.800, 0.000, 0.000, -2.900, 0.0, , , , , , 96, , , 0, 0, 0
38.5271211, -120.3543195, 26.600, 11:05:45.459, 13, 0.00, 0.35, 95, -1.000, -0.400, -80.500, 2, 100, 100, 23, 23084, -19284, 5090, 5358, 18, 14, 1530986745.459, 12, 0, 1024, 1024, 1024, 1024, 0, 6, 3829, 3831, 3874, 3852, 3863, 3850, 0, 1, 14300, -89.900, 0.000, -80.800, 0.000, 0.000, -2.900, 0.0, , , , , , 96, , , 0, 0, 0
38.5271211, -120.3543197, 26.900, 11:05:45.559, 13, 0.00, 0.34, 95, -0.900, -0.400, -80.500, 2, 100, 100, 23, 23084, -19284, 5090, 5358, 18, 14, 1530986745.559, 42, 0, 1024, 1024, 1024, 1024, 0, 6, 3829, 3831, 3874, 3852, 3863, 3850, 0, 1, 14400, -89.900, 0.000, -80.800, 0.000, 0.000, -2.900, 0.0, , , , , , 96, , , 0, 0, 0
38.5271211, -120.3543199, 27.200, 11:05:45.659, 13, 0.10, 0.32, 95, -0.700, -0.100, -80.500, 2, 100, 100, 23, 23084, -19284, 5090, 5358, 18, 14, 1530986745.659, 22, 0, 1024, 1024, 1024, 1024, 0, 6, 3829, 3831, 3874, 3852, 3863, 3850, 0, 1, 14500, -89.900, 0.000, -80.800, 0.000, -0.100, -2.900, 0.0, , , , , , 96, , , 0, 0, 0
38.5271211, -120.3543201, 27.500, 11:05:45.759, 13, 0.10, 0.31, 95, -0.600, 0.200, -80.500, 2, 100, 98, 23, 23084, -19284, 5090, 5358, 18, 14, 1530986745.759, 24, 0, 1024, 1024, 1024, 1024, 0, 6, 3829, 3831, 3874, 3852, 3863, 3850, 0, 1, 14600, -89.900, 0.000, -80.800, 0.000, -0.100, -3.000, 0.0, , , , , , 96, , , 0, 0, 0
38.5271211, -120.3543202, 27.800, 11:05:45.858, 13, 0.00, 0.31, 95, -0.400, 0.600, -80.600, 2, 100, 98, 23, 23084, -19284, 5090, 5358, 18, 14, 1530986745.859, 28, 0, 1024, 1024, 1024, 1024, 0, 6, 3829, 3831, 3874, 3852, 3863, 3850, 0, 1, 14700, -90.000, 0.000, -80.800, 0.000, 0.000, -2.900, 0.0, , , , , , 96, , , 0, 0, 0
38.5271210, -120.3543203, 28.100, 11:05:45.959, 13, 0.00, 0.30, 95, -0.400, 0.600, -80.600, 2, 100, 98, 23, 23084, -19284, 5090, 5358, 18, 14, 1530986745.959, 30, 0, 1024, 1024, 1024, 1024, 0, 6, 3829, 3831, 3874, 3852, 3863, 3850, 0, 1, 14800, -90.000, 0.000, -80.800, 0.000, 0.000, -2.900, 0.0, , , , , , 96, , , 0, 0, 0
38.5271210, -120.3543204, 28.400, 11:05:46.059, 13, 0.00, 0.29, 95, -0.500, 0.300, -80.700, 2, 100, 98, 23, 23084, -19284, 5090, 5358, 18, 14, 1530986746.059, 20, 0, 1024, 1024, 1024, 1024, 0, 6, 3829, 3831, 3874, 3852, 3863, 3850, 0, 1, 14900, -90.000, 0.000, -80.800, 0.000, 0.000, -3.000, 0.0, , , , , , 96, , , 0, 0, 0
38.5271210, -120.3543207, 29.000, 11:05:46.159, 13, 0.00, 0.28, 95, -0.400, 0.200, -80.700, 2, 100, 98, 23, 23064, -19406, 5090, 5358, 18, 14, 1530986746.159, 22, 0, 1024, 1024, 1024, 1024, 0, 6, 3822, 3815, 3868, 3848, 3851, 3844, 0, 1, 15000, -90.000, 0.000, -80.800, 0.000, 0.000, -2.900, 0.0, , , , , , 96, , , 0, 0, 0
38.5271210, -120.3543207, 29.000, 11:05:46.259, 13, 0.00, 0.28, 95, -0.400, 0.200, -80.700, 2, 100, 98, 23, 23064, -19406, 5090, 5358, 18, 14, 1530986746.259, 122, 0, 1024, 1024, 1024, 1024, 0, 6, 3822, 3815, 3868, 3848, 3851, 3844, 0, 1, 15100, -89.900, 0.000, -80.800, 0.000, 0.000, -2.900, 0.0, , , , , , 96, , , 0, 0, 0
38.5271209, -120.3543209, 29.300, 11:05:46.359, 13, 0.00, 0.26, 95, -0.500, 0.200, -80.700, 2, 100, 98, 23, 23064, -19406, 5090, 5358, 18, 14, 1530986746.359, 4, 0, 1024, 1024, 1024, 1024, 0, 6, 3822, 3815, 3868, 3848, 3851, 3844, 0, 1, 15200, -89.900, 0.000, -80.800, 0.000, 0.000, -2.900, 0.0, , , , , , 96, , , 0, 0, 0
38.5271209, -120.3543209, 29.300, 11:05:46.459, 13, 0.00, 0.26, 95, -0.500, 0.200, -80.700, 2, 100, 98, 23, 23064, -19406, 5090, 5358, 18, 14, 1530986746.459, 104, 0, 1024, 1024, 1024, 1024, 0, 6, 3822, 3815, 3868, 3848, 3851, 3844, 0, 1, 15300, -89.900, 0.000, -80.800, 0.000, 0.000, -2.900, 0.0, , , , , , 96, , , 0, 0, 0
38.5271209, -120.3543210, 29.600, 11:05:46.558, 13, 0.00, 0.25, 95, -0.400, 0.300, -80.700, 2, 100, 98, 23, 23064, -19406, 5090, 5358, 18, 14, 1530986746.559, 83, 0, 1024, 1024, 1024, 1024, 0, 6, 3822, 3815, 3868, 3848, 3851, 3844, 0, 1, 15400, -90.000, 0.000, -80.800, 0.000, 0.000, -3.000, 0.0, , , , , , 96, , , 0, 0, 0
38.5271209, -120.3543211, 29.900, 11:05:46.658, 13, 0.00, 0.25, 95, -0.300, 0.400, -80.700, 2, 100, 98, 23, 23064, -19406, 5090, 5358, 18, 14, 1530986746.659, 96, 0, 1024, 1024, 1024, 1024, 0, 6, 3822, 3815, 3868, 3848, 3851, 3844, 0, 1, 15500, -90.000, 0.000, -80.800, 0.000, 0.000, -2.900, 0.0, , , , , , 96, , , 0, 0, 0
38.5271208, -120.3543214, 30.500, 11:05:46.758, 12, 0.00, 0.23, 95, -0.200, 0.200, -80.700, 2, 100, 98, 23, 23064, -19406, 5090, 5358, 18, 14, 1530986746.759, 79, 0, 1024, 1024, 1024, 1024, 0, 6, 3822, 3815, 3868, 3848, 3851, 3844, 0, 1, 15600, -90.000, 0.000, -80.800, 0.000, 0.000, -3.000, 0.0, , , , , , 96, , , 0, 0, 0
38.5271207, -120.3543214, 30.800, 11:05:46.859, 13, 0.00, 0.22, 95, 0.000, 0.200, -80.600, 2, 100, 96, 23, 23064, -19406, 5090, 5358, 18, 14, 1530986746.859, 85, 0, 1024, 1024, 1024, 1024, 0, 6, 3822, 3815, 3868, 3848, 3851, 3844, 0, 1, 15700, -89.900, 0.000, -80.800, 0.000, 0.000, -2.900, 0.0, , , , , , 96, , , 0, 0, 0
38.5271207, -120.3543215, 31.100, 11:05:46.959, 13, 0.00, 0.22, 95, 0.000, 0.400, -80.600, 2, 100, 96, 23, 23064, -19406, 5090, 5358, 18, 14, 1530986746.959, 91, 0, 1024, 1024, 1024, 1024, 0, 6, 3822, 3815, 3868, 3848, 3851, 3844, 0, 1, 15800, -89.900, 0.000, -80.800, 0.000, 0.000, -3.000, 0.0, , , , , , 96, , , 0, 0, 0
38.5271206, -120.3543216, 31.400, 11:05:47.058, 13, 0.00, 0.21, 95, 0.000, 0.300, -80.700, 2, 100, 96, 23, 23064, -19406, 5090, 5358, 18, 14, 1530986747.058, 83, 0, 1024, 1024, 1024, 1024, 0, 6, 3822, 3815, 3868, 3848, 3851, 3844, 0, 1, 15900, -90.000, 0.000, -80.800, 0.000, 0.000, -3.000, 0.0, , , , , , 96, , , 0, 0, 0
38.5271206, -120.3543218, 31.700, 11:05:47.158, 13, 0.00, 0.20, 95, -0.200, 0.200, -80.700, 2, 100, 96, 23, 23064, -19406, 5090, 5358, 18, 14, 1530986747.158, 91, 0, 1024, 1024, 1024, 1024, 0, 6, 3822, 3815, 3868, 3848, 3851, 3844, 0, 1, 16000, -90.000, 0.000, -80.800, 0.000, 0.000, -3.000, 0.0, , , , , , 96, , , 0, 0, 0
38.5271206, -120.3543219, 32.100, 11:05:47.258, 13, 0.00, 0.20, 95, -0.200, 0.300, -80.800, 2, 100, 96, 23, 23027, -18969, 5090, 5358, 18, 14, 1530986747.259, 90, 0, 1024, 1024, 1024, 1024, 0, 6, 3822, 3815, 3868, 3848, 3851, 3844, 0, 1, 16100, -89.900, 0.000, -80.800, 0.000, 0.000, -3.000, 0.0, , , , , , 96, , , 0, 0, 0
38.5271205, -120.3543220, 32.400, 11:05:47.358, 13, 0.00, 0.19, 95, -0.400, 0.400, -81.000, 2, 100, 96, 23, 23027, -18969, 5090, 5358, 18, 14, 1530986747.359, 76, 0, 1024, 1024, 1024, 1024, 0, 6, 3822, 3815, 3868, 3848, 3851, 3844, 0, 1, 16200, -89.900, 0.000, -80.800, 0.000, 0.000, -3.000, 0.0, , , , , , 96, , , 0, 0, 0
38.5271205, -120.3543220, 32.700, 11:05:47.458, 13, 0.00, 0.19, 95, -0.500, 0.400, -81.100, 2, 100, 96, 23, 23027, -18969, 5090, 5358, 18, 14, 1530986747.459, 52, 0, 1024, 1024, 1024, 1024, 0, 6, 3822, 3815, 3868, 3848, 3851, 3844, 0, 1, 16300, -89.900, 0.000, -80.800, 0.000, 0.000, -2.900, 0.0, , , , , , 96, , , 0, 0, 0
38.5271205, -120.3543222, 33.000, 11:05:47.558, 13, 0.00, 0.19, 95, -0.600, 0.300, -81.200, 2, 100, 96, 23, 23027, -18969, 5090, 5358, 18, 14, 1530986747.559, 51, 0, 1024, 1024, 1024, 1024, 0, 6, 3822, 3815, 3868, 3848, 3851, 3844, 0, 1, 16400, -90.000, 0.000, -80.800, 0.000, 0.000, -2.900, 0.0, , , , , , 96, , , 0, 0, 0
38.5271204, -120.3543222, 33.300, 11:05:47.658, 13, 0.00, 0.18, 95, -0.600, 0.300, -81.100, 2, 100, 96, 23, 23027, -18969, 5090, 5358, 18, 14, 1530986747.659, 64, 0, 1024, 1024, 1024, 1024, 0, 6, 3822, 3815, 3868, 3848, 3851, 3844, 0, 1, 16500, -89.900, 0.000, -80.800, 0.000, 0.000, -2.900, 0.0, , , , , , 96, , , 0, 0, 0
38.5271204, -120.3543223, 33.600, 11:05:47.758, 13, 0.00, 0.18, 95, -0.400, 0.200, -81.000, 2, 100, 96, 23, 23027, -18969, 5090, 5358, 18, 14, 1530986747.759, 65, 0, 1024, 1024, 1024, 1024, 0, 6, 3815, 3813, 3868, 3840, 3853, 3834, 0, 1, 16600, -90.000, 0.000, -80.800, 0.000, 0.000, -2.800, 0.0, , , , , , 96, , , 0, 0, 0
38.5271203, -120.3543224, 33.800, 11:05:47.858, 13, 0.00, 0.17, 95, -0.300, 0.200, -80.700, 2, 100, 94, 23, 23027, -18969, 5090, 5358, 18, 14, 1530986747.859, 56, 0, 1024, 1024, 1024, 1024, 0, 6, 3815, 3813, 3868, 3840, 3853, 3834, 0, 1, 16700, -90.000, 0.000, -80.800, 0.000, 0.000, -2.800, 0.0, , , , , , 96, , , 0, 0, 0
38.5271202, -120.3543224, 34.100, 11:05:47.958, 13, 0.00, 0.16, 95, -0.100, 0.200, -80.600, 2, 100, 94, 23, 23027, -18969, 5090, 5358, 18, 14, 1530986747.959, 48, 0, 1024, 1024, 1024, 1024, 0, 6, 3815, 3813, 3868, 3840, 3853, 3834, 0, 1, 16800, -90.000, 0.000, -80.800, 0.000, 0.000, -2.900, 0.0, , , , , , 96, , , 0, 0, 0
38.5271202, -120.3543225, 34.400, 11:05:48.058, 13, 0.00, 0.16, 95, 0.000, 0.100, -80.500, 2, 100, 94, 23, 23027, -18969, 5090, 5358, 18, 14, 1530986748.059, 52, 0, 1024, 1024, 1024, 1024, 0, 6, 3815, 3813, 3868, 3840, 3853, 3834, 0, 1, 16900, -90.000, 0.000, -80.800, 0.000, 0.000, -2.900, 0.0, , , , , , 96, , , 0, 0, 0
38.5271201, -120.3543225, 34.700, 11:05:48.158, 13, 0.00, 0.15, 95, 0.300, 0.000, -80.500, 2, 100, 94, 23, 23027, -18969, 5090, 5358, 18, 14, 1530986748.159, 60, 0, 1024, 1024, 1024, 1024, 0, 6, 3815, 3813, 3868, 3840, 3853, 3834, 0, 1, 17000, -90.000, 0.000, -80.800, 0.000, 0.000, -2.900, 0.0, , , , , , 96, , , 0, 0, 0
38.5271200, -120.3543226, 35.000, 11:05:48.258, 13, 0.00, 0.14, 95, 0.500, 0.000, -80.700, 2, 100, 96, 24, 23027, -18969, 5090, 5358, 18, 14, 1530986748.259, 52, 0, 1024, 1024, 1024, 1024, 0, 6, 3815, 3813, 3868, 3840, 3853, 3834, 0, 1, 17100, -89.900, 0.000, -80.800, 0.000, 0.000, -2.900, 0.0, , , , , , 96, , , 0, 0, 0
38.5271199, -120.3543226, 35.300, 11:05:48.358, 13, 0.00, 0.13, 95, 0.400, 0.100, -80.900, 2, 100, 96, 24, 23027, -18969, 5090, 5358, 18, 14, 1530986748.359, 47, 0, 1024, 1024, 1024, 1024, 0, 6, 3815, 3813, 3868, 3840, 3853, 3834, 0, 1, 17200, -89.900, 0.000, -80.800, 0.000, 0.000, -2.900, 0.0, , , , , , 96, , , 0, 0, 0
38.5271199, -120.3543226, 35.600, 11:05:48.458, 13, 0.00, 0.13, 95, 0.400, 0.300, -81.100, 2, 100, 96, 24, 23027, -18969, 5090, 5358, 18, 14, 1530986748.459, 40, 0, 1024, 1024, 1024, 1024, 0, 6, 3815, 3813, 3868, 3840, 3853, 3834, 0, 1, 17300, -89.900, 0.000, -80.800, 0.000, 0.000, -2.900, 0.0, , , , , , 96, , , 0, 0, 0
38.5271199, -120.3543226, 35.900, 11:05:48.558, 13, 0.00, 0.13, 95, 0.100, 0.200, -81.200, 2, 100, 96, 24, 23027, -18969, 5090, 5358, 18, 14, 1530986748.559, 32, 0, 1024, 1024, 1024, 1024, 0, 6, 3815, 3813, 3868, 3840, 3853, 3834, 0, 1, 17400, -90.000, 0.000, -80.800, 0.000, 0.000, -3.000, 0.0, , , , , , 96, , , 0, 0, 0
38.5271199, -120.3543226, 36.200, 11:05:48.658, 13, 0.00, 0.13, 95, -0.300, 0.000, -81.100, 2, 100, 96, 24, 23057, -18506, 5036, 5358, 18, 14, 1530986748.659, 38, 0, 1024, 1024, 1024, 1024, 0, 6, 3806, 3804, 3869, 3847, 3850, 3833, 0, 1, 17500, -90.000, 0.000, -80.800, 0.000, 0.000, -2.900, 0.0, , , , , , 96, , , 0, 0, 0
38.5271199, -120.3543226, 36.500, 11:05:48.758, 13, 0.00, 0.13, 95, -0.600, -0.100, -81.000, 2, 100, 99, 24, 23057, -18506, 5036, 5358, 18, 14, 1530986748.759, 12, 0, 1024, 1024, 1024, 1024, 0, 6, 3806, 3804, 3869, 3847, 3850, 3833, 0, 1, 17600, -90.000, 0.000, -80.800, 0.000, 0.000, -2.900, 0.0, , , , , , 96, , , 0, 0, 0
38.5271199, -120.3543225, 36.800, 11:05:48.858, 13, 0.00, 0.13, 95, -0.700, -0.100, -80.800, 2, 100, 99, 24, 23057, -18506, 5036, 5358, 18, 14, 1530986748.859, 24, 0, 1024, 1024, 1024, 1024, 0, 6, 3806, 3804, 3869, 3847, 3850, 3833, 0, 1, 17700, -89.900, 0.000, -80.800, 0.000, 0.000, -3.000, 0.0, , , , , , 96, , , 0, 0, 0
38.5271199, -120.3543225, 37.100, 11:05:48.958, 13, 0.00, 0.13, 95, -0.700, 0.000, -80.600, 2, 100, 99, 24, 23057, -18506, 5036, 5358, 18, 14, 1530986748.959, 14, 0, 1024, 1024, 1024, 1024, 0, 6, 3806, 3804, 3869, 3847, 3850, 3833, 0, 1, 17800, -90.000, 0.000, -80.800, 0.000, 0.000, -2.900, 0.0, , , , , , 96, , , 0, 0, 0
38.5271199, -120.3543224, 37.400, 11:05:49.058, 13, 0.00, 0.13, 95, -0.700, -0.100, -80.400, 2, 100, 99, 24, 23057, -18506, 5036, 5358, 18, 14, 1530986749.059, 18, 0, 1024, 1024, 1024, 1024, 0, 6, 3806, 3804, 3869, 3847, 3850, 3833, 0, 1, 17900, -90.000, 0.000, -80.800, 0.000, 0.000, -3.000, 0.0, , , , , , 96, , , 0, 0, 0
38.5271199, -120.3543223, 37.700, 11:05:49.157, 13, 0.00, 0.12, 94, -0.500, -0.300, -80.300, 2, 100, 99, 24, 23057, -18506, 5036, 5358, 18, 14, 1530986749.158, 19, 0, 1024, 1024, 1024, 1024, 0, 6, 3806, 3804, 3869, 3847, 3850, 3833, 0, 1, 17999, -90.000, 0.000, -80.800, 0.000, 0.000, -3.000, 0.0, , , , , , 96, , , 0, 0, 0
38.5271199, -120.3543223, 38.000, 11:05:49.258, 13, 0.10, 0.12, 94, -0.500, -0.500, -80.300, 2, 100, 99, 24, 23057, -18506, 5036, 5358, 18, 14, 1530986749.258, 22, 0, 1024, 1024, 1024, 1024, 0, 6, 3806, 3804, 3869, 3847, 3850, 3833, 0, 1, 18100, -90.000, 0.000, -80.800, 0.000, 0.100, -2.900, 0.0, , , , , , 96, , , 0, 0, 0
38.5271199, -120.3543222, 38.300, 11:05:49.358, 13, 0.10, 0.12, 94, -0.400, -0.700, -80.400, 2, 100, 99, 24, 23057, -18506, 5036, 5358, 18, 14, 1530986749.358, 13, 0, 1024, 1024, 1024, 1024, 0, 6, 3806, 3804, 3869, 3847, 3850, 3833, 0, 1, 18200, -90.000, 0.000, -80.800, 0.000, 0.100, -2.900, 0.0, , , , , , 96, , , 0, 0, 0
38.5271199, -120.3543222, 38.300, 11:05:49.458, 13, 0.10, 0.12, 94, -0.400, -0.700, -80.400, 2, 100, 99, 24, 23057, -18506, 5036, 5358, 18, 14, 1530986749.459, 113, 0, 1024, 1024, 1024, 1024, 0, 6, 3806, 3804, 3869, 3847, 3850, 3833, 0, 1, 18300, -90.000, 0.000, -80.800, 0.000, 0.100, -2.900, 0.0, , , , , , 96, , , 0, 0, 0
38.5271198, -120.3543220, 39.200, 11:05:49.557, 13, 0.00, 0.11, 94, -0.300, -1.100, -80.500, 2, 100, 99, 24, 23057, -18506, 5036, 5358, 18, 14, 1530986749.557, 1, 0, 1024, 1024, 1024, 1024, 0, 6, 3806, 3804, 3869, 3847, 3850, 3833, 0, 1, 18399, -90.000, 0.000, -80.800, 0.000, 0.000, -2.900, 0.0, , , , , , 96, , , 0, 0, 0
38.5271197, -120.3543219, 39.500, 11:05:49.661, 13, 0.00, 0.11, 94, -0.100, -1.100, -80.500, 2, 100, 99, 24, 23017, -18905, 5036, 5358, 18, 14, 1530986749.661, 3, 0, 1024, 1024, 1024, 1024, 0, 6, 3806, 3804, 3869, 3847, 3850, 3833, 0, 1, 18503, -90.000, 0.000, -80.800, 0.000, 0.000, -3.000, 0.0, , , , , , 96, , , 0, 0, 0
38.5271197, -120.3543219, 39.800, 11:05:49.759, 13, 0.00, 0.11, 94, -0.100, -1.100, -80.500, 2, 100, 96, 24, 23017, -18905, 5036, 5358, 18, 14, 1530986749.760, 1, 0, 1024, 1024, 1024, 1024, 0, 6, 3819, 3816, 3870, 3839, 3845, 3837, 0, 1, 18601, -90.000, 0.000, -80.800, 0.000, 0.000, -2.900, 0.0, , , , , , 96, , , 0, 0, 0
38.5271197, -120.3543218, 40.100, 11:05:49.857, 13, 0.00, 0.10, 94, 0.000, -1.000, -80.500, 2, 100, 96, 24, 23017, -18905, 5036, 5358, 18, 14, 1530986749.857, 1, 0, 1024, 1024, 1024, 1024, 0, 6, 3819, 3816, 3870, 3839, 3845, 3837, 0, 1, 18699, -90.000, 0.000, -80.800, 0.000, 0.000, -2.900, 0.0, , , , , , 96, , , 0, 0, 0
38.5271197, -120.3543218, 40.100, 11:05:49.958, 13, 0.00, 0.10, 94, 0.000, -1.000, -80.500, 2, 100, 96, 24, 23017, -18905, 5036, 5358, 18, 14, 1530986749.958, 102, 0, 1024, 1024, 1024, 1024, 0, 6, 3819, 3816, 3870, 3839, 3845, 3837, 0, 1, 18800, -90.000, 0.000, -80.800, 0.000, 0.000, -2.900, 0.0, , , , , , 96, , , 0, 0, 0
38.5271197, -120.3543218, 40.400, 11:05:50.058, 13, 0.00, 0.10, 94, 0.100, -0.800, -80.500, 2, 100, 96, 24, 23017, -18905, 5036, 5358, 18, 14, 1530986750.059, 85, 0, 1024, 1024, 1024, 1024, 0, 6, 3819, 3816, 3870, 3839, 3845, 3837, 0, 1, 18900, -90.000, 0.000, -80.800, 0.000, 0.000, -2.900, 0.0, , , , , , 96, , , 0, 0, 0
38.5271196, -120.3543218, 40.700, 11:05:50.158, 13, 0.00, 0.10, 94, 0.300, -0.700, -80.600, 2, 100, 96, 24, 23017, -18905, 5036, 5358, 18, 14, 1530986750.158, 88, 0, 1024, 1024, 1024, 1024, 0, 6, 3819, 3816, 3870, 3839, 3845, 3837, 0, 1, 19000, -89.900, 0.000, -80.800, 0.000, 0.000, -2.900, 0.0, , , , , , 96, , , 0, 0, 0
38.5271196, -120.3543217, 41.000, 11:05:50.258, 13, 0.00, 0.10, 94, 0.200, -0.600, -80.600, 2, 100, 96, 24, 23017, -18905, 5036, 5358, 18, 14, 1530986750.258, 79, 0, 1024, 1024, 1024, 1024, 0, 6, 3819, 3816, 3870, 3839, 3845, 3837, 0, 1, 19100, -90.000, 0.000, -80.800, 0.000, 0.000, -2.900, 0.0, , , , , , 96, , , 0, 0, 0
38.5271196, -120.3543217, 41.000, 11:05:50.358, 13, 0.00, 0.10, 94, 0.200, -0.600, -80.600, 2, 100, 96, 24, 23017, -18905, 5036, 5358, 18, 14, 1530986750.359, 179, 0, 1024, 1024, 1024, 1024, 0, 6, 3819, 3816, 3870, 3839, 3845, 3837, 0, 1, 19200, -89.900, 0.000, -80.800, 0.000, 0.000, -2.900, 0.0, , , , , , 96, , , 0, 0, 0
38.5271197, -120.3543217, 41.600, 11:05:50.458, 13, 0.00, 0.11, 94, -0.100, -0.500, -80.500, 2, 100, 96, 24, 23017, -18905, 5036, 5358, 18, 14, 1530986750.458, 71, 0, 1024, 1024, 1024, 1024, 0, 6, 3819, 3816, 3870, 3839, 3845, 3837, 0, 1, 19300, -90.000, 0.000, -80.800, 0.000, 0.000, -2.900, 0.0, , , , , , 96, , , 0, 0, 0
38.5271197, -120.3543217, 41.900, 11:05:50.558, 13, 0.00, 0.11, 94, 0.000, -0.600, -80.400, 2, 100, 96, 24, 23017, -18905, 5036, 5358, 18, 14, 1530986750.558, 59, 0, 1024, 1024, 1024, 1024, 0, 6, 3819, 3816, 3870, 3839, 3845, 3837, 0, 1, 19400, -90.000, 0.000, -80.800, 0.000, 0.000, -3.000, 0.0, , , , , , 96, , , 0, 0, 0
38.5271197, -120.3543216, 42.200, 11:05:50.658, 13, 0.00, 0.11, 94, 0.100, -0.700, -80.300, 2, 100, 96, 24, 23017, -18905, 5036, 5358, 18, 14, 1530986750.658, 72, 0, 1024, 1024, 1024, 1024, 0, 6, 3819, 3816, 3870, 3839, 3845, 3837, 0, 1, 19500, -90.000, 0.000, -80.800, 0.000, 0.000, -2.900, 0.0, , , , , , 96, , , 0, 0, 0
38.5271197, -120.3543216, 42.500, 11:05:50.758, 13, 0.00, 0.12, 94, 0.000, -0.600, -80.200, 2, 100, 96, 24, 23019, -18189, 5036, 5358, 18, 14, 1530986750.758, 62, 0, 1024, 1024, 1024, 1024, 0, 6, 3821, 3809, 3871, 3843, 3855, 3834, 0, 1, 19600, -89.900, 0.000, -80.800, 0.000, 0.000, -3.000, 0.0, , , , , , 96, , , 0, 0, 0
38.5271198, -120.3543216, 42.800, 11:05:50.858, 13, 0.00, 0.12, 94, -0.400, -0.700, -80.200, 2, 100, 99, 24, 23019, -18189, 5036, 5358, 18, 14, 1530986750.858, 62, 0, 1024, 1024, 1024, 1024, 0, 6, 3821, 3809, 3871, 3843, 3855, 3834, 0, 1, 19700, -90.000, 0.000, -80.800, 0.000, 0.000, -2.900, 0.0, , , , , , 96, , , 0, 0, 0
38.5271198, -120.3543215, 43.100, 11:05:50.958, 13, 0.00, 0.12, 94, -0.600, -0.700, -80.200, 2, 100, 99, 24, 23019, -18189, 5036, 5358, 18, 14, 1530986750.958, 57, 0, 1024, 1024, 1024, 1024, 0, 6, 3821, 3809, 3871, 3843, 3855, 3834, 0, 1, 19800, -90.000, 0.000, -80.800, 0.000, 0.000, -2.900, 0.0, , , , , , 96, , , 0, 0, 0
38.5271198, -120.3543215, 43.400, 11:05:51.058, 13, 0.00, 0.13, 94, -0.500, -0.700, -80.300, 2, 100, 99, 24, 23019, -18189, 5036, 5358, 18, 14, 1530986751.058, 63, 0, 1024, 1024, 1024, 1024, 0, 6, 3821, 3809, 3871, 3843, 3855, 3834, 0, 1, 19900, -89.900, 0.000, -80.800, 0.000, 0.000, -2.900, 0.0, , , , , , 96, , , 0, 0, 0
38.5271198, -120.3543215, 43.700, 11:05:51.158, 13, 0.00, 0.13, 94, -0.300, -0.700, -80.400, 2, 100, 99, 24, 23019, -18189, 5036, 5358, 18, 14, 1530986751.158, 62, 0, 1024, 1024, 1024, 1024, 0, 6, 3821, 3809, 3871, 3843, 3855, 3834, 0, 1, 20000, -89.900, 0.000, -80.800, 0.000, 0.000, -2.900, 0.0, , , , , , 96, , , 0, 0, 0
38.5271199, -120.3543215, 44.000, 11:05:51.258, 13, 0.00, 0.13, 94, -0.100, -0.600, -80.500, 2, 100, 98, 24, 23019, -18189, 5036, 5358, 18, 14, 1530986751.258, 56, 0, 1024, 1024, 1024, 1024, 0, 6, 3821, 3809, 3871, 3843, 3855, 3834, 0, 1, 20100, -89.900, 0.000, -80.800, 0.000, 0.000, -3.000, 0.0, , , , , , 96, , , 0, 0, 0
38.5271199, -120.3543215, 44.300, 11:05:51.358, 13, 0.00, 0.14, 94, -0.200, -0.600, -80.700, 2, 100, 98, 24, 23019, -18189, 5036, 5358, 18, 14, 1530986751.358, 47, 0, 1024, 1024, 1024, 1024, 0, 6, 3821, 3809, 3871, 3843, 3855, 3834, 0, 1, 20200, -89.900, 0.000, -80.800, 0.000, 0.000, -3.000, 0.0, , , , , , 96, , , 0, 0, 0
38.5271199, -120.3543214, 44.600, 11:05:51.458, 13, 0.00, 0.14, 94, -0.300, -0.600, -81.000, 2, 100, 98, 24, 23019, -18189, 5036, 5358, 18, 14, 1530986751.458, 48, 0, 1024, 1024, 1024, 1024, 0, 6, 3821, 3809, 3871, 3843, 3855, 3834, 0, 1, 20300, -90.000, 0.000, -80.800, 0.000, 0.000, -3.000, 0.0, , , , , , 96, , , 0, 0, 0
38.5271200, -120.3543214, 44.900, 11:05:51.558, 13, 0.00, 0.15, 94, -0.600, -0.700, -81.200, 2, 100, 98, 24, 23019, -18189, 5036, 5358, 18, 14, 1530986751.558, 31, 0, 1024, 1024, 1024, 1024, 0, 6, 3821, 3809, 3871, 3843, 3855, 3834, 0, 1, 20400, -90.000, 0.000, -80.800, 0.000, 0.000, -3.000, 0.0, , , , , , 96, , , 0, 0, 0
38.5271200, -120.3543214, 45.200, 11:05:51.658, 13, 0.00, 0.15, 94, -0.900, -0.700, -81.300, 2, 100, 98, 24, 23055, -18087, 5036, 5358, 18, 14, 1530986751.658, 33, 0, 1024, 1024, 1024, 1024, 0, 6, 3824, 3822, 3875, 3842, 3856, 3835, 0, 1, 20500, -90.000, 0.000, -80.800, 0.000, 0.000, -3.000, 0.0, , , , , , 96, , , 0, 0, 0
38.5271200, -120.3543214, 45.500, 11:05:51.758, 13, 0.00, 0.16, 94, -1.100, -0.900, -81.400, 2, 100, 98, 24, 23055, -18087, 5036, 5358, 18, 14, 1530986751.758, 33, 0, 1024, 1024, 1024, 1024, 0, 6, 3824, 3822, 3875, 3842, 3856, 3835, 0, 1, 20600, -90.000, 0.000, -80.800, 0.000, 0.000, -2.900, 0.0, , , , , , 96, , , 0, 0, 0
38.5271201, -120.3543213, 45.800, 11:05:51.858, 13, 0.00, 0.16, 94, -1.200, -1.100, -81.500, 2, 100, 98, 24, 23055, -18087, 5036, 5358, 18, 14, 1530986751.858, 35, 0, 1024, 1024, 1024, 1024, 0, 6, 3824, 3822, 3875, 3842, 3856, 3835, 0, 1, 20699, -90.000, 0.000, -80.800, 0.000, 0.000, -3.000, 0.0, , , , , , 96, , , 0, 0, 0
38.5271201, -120.3543213, 46.100, 11:05:51.958, 13, 0.00, 0.16, 94, -1.100, -1.200, -81.500, 2, 100, 98, 24, 23055, -18087, 5036, 5358, 18, 14, 1530986751.958, 27, 0, 1024, 1024, 1024, 1024, 0, 6, 3824, 3822, 3875, 3842, 3856, 3835, 0, 1, 20799, -90.000, 0.000, -80.800, 0.000, 0.000, -3.000, 0.0, , , , , , 96, , , 0, 0, 0
38.5271200, -120.3543213, 46.400, 11:05:52.058, 13, 0.00, 0.16, 94, -0.800, -1.100, -81.400, 2, 100, 98, 24, 23055, -18087, 5036, 5358, 18, 14, 1530986752.058, 29, 0, 1024, 1024, 1024, 1024, 0, 6, 3824, 3822, 3875, 3842, 3856, 3835, 0, 1, 20900, -89.900, 0.000, -80.800, 0.000, 0.000, -2.900, 0.0, , , , , , 96, , , 0, 0, 0
38.5271200, -120.3543213, 46.700, 11:05:52.158, 13, 0.00, 0.15, 94, 0.000, -0.800, -81.200, 2, 100, 98, 24, 23055, -18087, 5036, 5358, 18, 14, 1530986752.158, 16, 0, 1024, 1024, 1024, 1024, 0, 6, 3824, 3822, 3875, 3842, 3856, 3835, 0, 1, 21000, -89.900, 0.000, -80.800, 0.000, 0.000, -2.900, 0.0, , , , , , 96, , , 0, 0, 0
38.5271199, -120.3543213, 47.000, 11:05:52.258, 13, 0.00, 0.15, 94, 0.400, -0.700, -81.000, 2, 100, 98, 24, 23055, -18087, 5036, 5358, 18, 14, 1530986752.258, 16, 0, 1024, 1024, 1024, 1024, 0, 6, 3824, 3822, 3875, 3842, 3856, 3835, 0, 1, 21100, -89.900, 0.000, -80.800, 0.000, 0.000, -2.900, 0.0, , , , , , 96, , , 0, 0, 0
38.5271199, -120.3543214, 47.300, 11:05:52.358, 13, 0.00, 0.14, 94, 0.600, -0.600, -80.700, 2, 100, 98, 24, 23055, -18087, 5036, 5358, 18, 14, 1530986752.358, 20, 0, 1024, 1024, 1024, 1024, 0, 6, 3824, 3822, 3875, 3842, 3856, 3835, 0, 1, 21199, -90.000, 0.000, -80.800, 0.000, 0.000, -2.900, 0.0, , , , , , 96, , , 0, 0, 0
