Latitude, Longitude, Altitude (m), Time, Sats, Speed (m/s), Range (m), Battery (%), Roll (deg), Pitch (deg), Yaw (deg), Images, HD Signal (%), RC Signal (%), Battery Temp (C), Battery Voltage (mV), Battery Current (mA), Battery Energy (mAh), Battery Capacity (mAh), Battery Discharges, flyState, timestamp (Unix), LastUpdate (ms), radioChannel, Rc_elevator, Rc_aileron, Rc_throttle, Rc_rudder, Rc_gyro, Dronetype, Battery_Cell1 (mV), Battery_Cell2 (mV), Battery_Cell3 (mV), Battery_Cell4 (mV), Battery_Cell5 (mV), Battery_Cell6 (mV), Video, isFlying, elapsedTime (ms), gimbalPitch (deg), gimbalRoll (deg), gimbalYaw (deg), VelocityX (m/s), VelocityY (m/s), VelocityZ (m/s), GroundSmear (cm), App Version, Aircraft Name, Aircraft Firmware, Aircraft Serial Number, Battery Serial Number, Battery Lifetime (%), App_Tip, App_Warning, CurrentFlightStartingIndex, CurrentFlightLastVisitedWaypoint, PreviousFlightEndingWaypointIndex
38.5270979, -120.3542666, 0.000, 12:19:39.521, 11, 0.00, 0.10, 100, 0.000, 0.800, -42.600, 1528, 100, 100, 24, 25793, -2828, 5301, 5301, 21, 11, 1530991179.521, 15, 0, 1024, 1024, 1024, 1024, 0, 6, 4298, 4298, 4295, 4196, 4263, 4295, 0, 1, 3100, -89.900, 0.000, -44.000, 0.000, 0.000, -0.200, 0.0, MapPilot_2.8.1_04242018, Dendroctonus I, 1.3.1.00, 041DDC1887, 1058171200161, 95, DJI_0525.jpg, Starting Mission from Lat/Long: 38.52710/-120.35427 Camera: Zenmuse X3 - Overlap: 90/90 - Active Connection: No, 59, 59, 59
38.5270979, -120.3542666, 0.000, 12:19:39.621, 11, 0.00, 0.10, 100, 0.000, 0.800, -42.600, 1528, 100, 100, 24, 25793, -2828, 5301, 5301, 21, 11, 1530991179.621, 115, 0, 1024, 1024, 1024, 1024, 0, 6, 4298, 4298, 4295, 4196, 4263, 4295, 0, 1, 3200, -89.900, 0.000, -44.000, 0.000, 0.000, -0.200, 0.0, , , , , , 95, , , 59, 59, 59
38.5270978, -120.3542665, 0.000, 12:19:39.722, 11, 0.00, 0.11, 100, 0.200, 0.300, -42.500, 1528, 100, 100, 24, 25661, -2965, 5301, 5301, 21, 11, 1530991179.722, 1, 0, 1024, 1024, 1024, 1024, 0, 6, 4253, 4264, 4289, 4261, 4262, 4263, 0, 1, 3301, -89.900, 0.000, -44.000, 0.000, 0.000, -0.400, 0.0, , , , , , 95, , , 59, 59, 59
38.5270978, -120.3542665, 0.000, 12:19:39.821, 11, 0.00, 0.11, 100, 0.200, 0.300, -42.500, 1528, 100, 100, 24, 25661, -2965, 5301, 5301, 21, 11, 1530991179.821, 100, 0, 1024, 1024, 1024, 1024, 0, 6, 4253, 4264, 4289, 4261, 4262, 4263, 0, 1, 3400, -89.900, 0.000, -44.000, 0.000, 0.000, -0.400, 0.0, , , , , , 95, , , 59, 59, 59
38.5270978, -120.3542665, 0.100, 12:19:39.921, 11, 0.00, 0.12, 100, 0.500, 0.400, -42.500, 1528, 100, 100, 24, 25661, -2965, 5301, 5301, 21, 11, 1530991179.921, 68, 0, 1024, 1024, 1024, 1024, 0, 6, 4253, 4264, 4289, 4261, 4262, 4263, 0, 1, 3500, -89.900, 0.000, -44.000, 0.000, 0.000, -0.300, 0.0, , , , , , 95, , , 59, 59, 59
38.5270977, -120.3542665, 0.100, 12:19:40.021, 10, 0.00, 0.12, 100, 0.600, 0.400, -42.500, 1528, 100, 100, 24, 25661, -2965, 5301, 5301, 21, 11, 1530991180.021, 91, 0, 1024, 1024, 1024, 1024, 0, 6, 4253, 4264, 4289, 4261, 4262, 4263, 0, 1, 3600, -89.900, 0.000, -43.900, 0.000, 0.000, -0.300, 0.0, , , , , , 95, , , 59, 59, 59
38.5270977, -120.3542664, 0.100, 12:19:40.121, 10, 0.00, 0.13, 100, 0.500, 0.400, -42.600, 1528, 100, 100, 24, 25661, -2965, 5301, 5301, 21, 11, 1530991180.121, 95, 0, 1024, 1024, 1024, 1024, 0, 6, 4253, 4264, 4289, 4261, 4262, 4263, 0, 1, 3700, -89.900, 0.000, -43.900, 0.000, 0.000, -0.300, 0.0, , , , , , 95, , , 59, 59, 59
38.5270977, -120.3542664, 0.200, 12:19:40.221, 10, 0.00, 0.13, 100, 0.300, 0.200, -42.600, 1528, 100, 100, 24, 25661, -2965, 5301, 5301, 21, 11, 1530991180.221, 83, 0, 1024, 1024, 1024, 1024, 0, 6, 4253, 4264, 4289, 4261, 4262, 4263, 0, 1, 3800, -90.000, 0.000, -43.900, 0.000, 0.000, -0.300, 0.0, , , , , , 95, , , 59, 59, 59
38.5270977, -120.3542663, 0.200, 12:19:40.321, 10, 0.00, 0.13, 100, 0.200, 0.000, -42.600, 1528, 100, 100, 24, 25661, -2965, 5301, 5301, 21, 11, 1530991180.321, 84, 0, 1024, 1024, 1024, 1024, 0, 6, 4253, 4264, 4289, 4261, 4262, 4263, 0, 1, 3900, -90.000, 0.000, -43.900, 0.000, 0.000, -0.300, 0.0, , , , , , 95, , , 59, 59, 59
38.5270977, -120.3542663, 0.200, 12:19:40.421, 9, 0.00, 0.14, 100, 0.300, -0.300, -42.400, 1528, 100, 100, 24, 25661, -2965, 5301, 5301, 21, 11, 1530991180.421, 63, 0, 1024, 1024, 1024, 1024, 0, 6, 4253, 4264, 4289, 4261, 4262, 4263, 0, 1, 4000, -90.000, 0.000, -43.900, 0.000, 0.000, -0.400, 0.0, , , , , , 95, , , 59, 59, 59
38.5270977, -120.3542663, 0.300, 12:19:40.521, 9, 0.00, 0.14, 100, 0.300, -0.300, -42.200, 1528, 100, 100, 24, 25661, -2965, 5301, 5301, 21, 11, 1530991180.521, 66, 0, 1024, 1024, 1024, 1024, 0, 6, 4253, 4264, 4289, 4261, 4262, 4263, 0, 1, 4100, -89.900, 0.000, -43.900, 0.000, 0.000, -0.400, 0.0, , , , , , 95, , , 59, 59, 59
38.5270978, -120.3542662, 0.300, 12:19:40.621, 8, 0.00, 0.13, 100, 0.100, 0.000, -42.100, 1528, 100, 100, 24, 24449, -11169, 5194, 5301, 21, 11, 1530991180.621, 65, 0, 1024, 1024, 1024, 1024, 0, 6, 4063, 4052, 4068, 4092, 4078, 4042, 0, 1, 4200, -89.900, 0.000, -43.900, 0.000, 0.000, -0.500, 0.0, , , , , , 95, , , 59, 59, 59
38.5270978, -120.3542663, 0.400, 12:19:40.721, 8, 0.00, 0.13, 100, -0.200, 0.100, -42.100, 1528, 100, 100, 24, 24449, -11169, 5194, 5301, 21, 11, 1530991180.721, 65, 0, 1024, 1024, 1024, 1024, 0, 6, 4063, 4052, 4068, 4092, 4078, 4042, 0, 1, 4300, -89.900, 0.000, -43.900, 0.000, 0.000, -0.400, 0.0, , , , , , 95, , , 59, 59, 59
38.5270978, -120.3542664, 0.500, 12:19:40.821, 9, 0.00, 0.12, 100, -0.200, 0.000, -42.200, 1528, 100, 100, 24, 24449, -11169, 5194, 5301, 21, 11, 1530991180.821, 53, 0, 1024, 1024, 1024, 1024, 0, 6, 4063, 4052, 4068, 4092, 4078, 4042, 0, 1, 4400, -89.900, 0.000, -43.800, 0.000, 0.000, -0.400, 0.0, , , , , , 95, , , 59, 59, 59
38.5270979, -120.3542664, 0.500, 12:19:40.921, 9, 0.00, 0.12, 100, -0.100, 0.200, -42.500, 1528, 100, 100, 24, 24449, -11169, 5194, 5301, 21, 11, 1530991180.921, 47, 0, 1024, 1024, 1024, 1024, 0, 6, 4063, 4052, 4068, 4092, 4078, 4042, 0, 1, 4500, -89.900, 0.000, -43.800, 0.000, 0.000, -0.400, 0.0, , , , , , 95, , , 59, 59, 59
38.5270980, -120.3542664, 0.600, 12:19:41.021, 8, 0.00, 0.11, 100, -0.200, 0.500, -42.800, 1528, 100, 100, 24, 24449, -11169, 5194, 5301, 21, 11, 1530991181.022, 27, 0, 1024, 1024, 1024, 1024, 0, 6, 4063, 4052, 4068, 4092, 4078, 4042, 0, 1, 4601, -89.900, 0.000, -43.800, 0.000, 0.000, -0.500, 0.0, , , , , , 95, , , 59, 59, 59
38.5270981, -120.3542664, 0.600, 12:19:41.121, 8, 0.00, 0.11, 100, -0.300, 0.800, -43.200, 1528, 100, 100, 24, 24449, -11169, 5194, 5301, 21, 11, 1530991181.121, 56, 0, 1024, 1024, 1024, 1024, 0, 6, 4063, 4052, 4068, 4092, 4078, 4042, 0, 1, 4700, -89.900, 0.000, -43.800, 0.000, 0.000, -0.500, 0.0, , , , , , 95, , , 59, 59, 59
38.5270981, -120.3542665, 0.700, 12:19:41.221, 9, 0.00, 0.10, 100, -0.300, 0.700, -43.500, 1528, 100, 100, 24, 24449, -11169, 5194, 5301, 21, 11, 1530991181.221, 26, 0, 1024, 1024, 1024, 1024, 0, 6, 4063, 4052, 4068, 4092, 4078, 4042, 0, 1, 4801, -89.900, 0.000, -43.800, 0.000, 0.000, -0.400, 0.0, , , , , , 95, , , 59, 59, 59
38.5270982, -120.3542665, 0.700, 12:19:41.321, 9, 0.00, 0.10, 100, -0.300, 0.700, -43.800, 1528, 100, 100, 24, 24449, -11169, 5194, 5301, 21, 11, 1530991181.321, 31, 0, 1024, 1024, 1024, 1024, 0, 6, 4063, 4052, 4068, 4092, 4078, 4042, 0, 1, 4901, -89.900, 0.000, -43.800, 0.000, 0.000, -0.400, 0.0, , , , , , 95, , , 59, 59, 59
38.5270982, -120.3542665, 0.800, 12:19:41.421, 10, 0.00, 0.10, 100, -0.600, 0.600, -43.800, 1528, 100, 100, 24, 24449, -11169, 5194, 5301, 21, 11, 1530991181.421, 31, 0, 1024, 1024, 1024, 1024, 0, 6, 4063, 4052, 4068, 4092, 4078, 4042, 0, 1, 5000, -89.900, 0.000, -43.800, 0.000, 0.000, -0.400, 0.0, , , , , , 95, , , 59, 59, 59
38.5270983, -120.3542663, 0.900, 12:19:41.520, 10, 0.00, 0.11, 100, -0.700, 0.800, -43.600, 1528, 100, 100, 24, 24449, -11169, 5194, 5301, 21, 14, 1530991181.521, 32, 0, 1024, 1024, 1024, 1024, 0, 6, 4063, 4052, 4068, 4092, 4078, 4042, 0, 1, 5100, -89.900, 0.000, -43.800, 0.000, 0.000, -0.500, 0.0, , , , , , 95, , , 59, 59, 59
38.5270984, -120.3542663, 0.900, 12:19:41.620, 10, 0.00, 0.11, 98, -0.900, 0.900, -43.400, 1528, 100, 100, 24, 24175, -11169, 5194, 5301, 21, 14, 1530991181.621, 24, 0, 1024, 1024, 1024, 1024, 0, 6, 4063, 4052, 4068, 4092, 4078, 4042, 0, 1, 5200, -89.900, 0.000, -43.800, 0.000, 0.000, -0.400, 0.0, , , , , , 95, , , 59, 59, 59
38.5270984, -120.3542663, 1.000, 12:19:41.721, 9, 0.00, 0.12, 98, -1.000, 1.000, -43.300, 1528, 100, 100, 24, 24175, -11169, 5194, 5301, 21, 14, 1530991181.721, 32, 0, 1024, 1024, 1024, 1024, 0, 6, 4063, 4052, 4068, 4092, 4078, 4042, 0, 1, 5300, -89.900, 0.000, -43.800, 0.000, 0.000, -0.200, 0.0, , , , , , 95, , , 59, 59, 59
38.5270984, -120.3542662, 1.000, 12:19:41.821, 9, 0.00, 0.12, 98, -0.800, 1.000, -43.100, 1528, 100, 100, 24, 24175, -11169, 5194, 5301, 21, 14, 1530991181.821, 21, 0, 1024, 1024, 1024, 1024, 0, 6, 4063, 4052, 4068, 4092, 4078, 4042, 0, 1, 5401, -89.900, 0.000, -43.800, 0.000, 0.000, -0.200, 0.0, , , , , , 95, , , 59, 59, 59
38.5270984, -120.3542662, 1.000, 12:19:41.921, 9, 0.00, 0.12, 98, -0.800, 1.000, -43.100, 1528, 100, 100, 24, 24175, -11169, 5194, 5301, 21, 14, 1530991181.921, 121, 0, 1024, 1024, 1024, 1024, 0, 6, 4063, 4052, 4068, 4092, 4078, 4042, 0, 1, 5500, -89.900, 0.000, -43.800, 0.000, 0.000, -0.200, 0.0, , , , , , 95, , , 59, 59, 59
38.5270984, -120.3542662, 1.100, 12:19:42.023, 10, 0.00, 0.12, 98, -0.700, 0.600, -43.100, 1528, 100, 100, 24, 24175, -11169, 5194, 5301, 21, 14, 1530991182.023, 1, 0, 1024, 1024, 1024, 1024, 0, 6, 4063, 4052, 4068, 4092, 4078, 4042, 0, 1, 5602, -90.000, 0.000, -43.800, 0.000, 0.000, -0.400, 0.0, , , , , , 95, , , 59, 59, 59
38.5270985, -120.3542662, 1.200, 12:19:42.121, 10, 0.00, 0.12, 98, -0.700, 0.400, -43.300, 1528, 100, 100, 24, 24175, -11169, 5194, 5301, 21, 14, 1530991182.121, 7, 0, 1024, 1024, 1024, 1024, 0, 6, 4025, 4025, 4022, 4033, 4020, 4023, 0, 1, 5700, -90.000, 0.000, -43.800, 0.000, 0.000, -0.500, 0.0, , , , , , 95, , , 59, 59, 59
38.5270985, -120.3542662, 1.200, 12:19:42.220, 10, 0.00, 0.12, 98, -0.700, 0.400, -43.300, 1528, 100, 100, 24, 24175, -11169, 5194, 5301, 21, 14, 1530991182.221, 107, 0, 1024, 1024, 1024, 1024, 0, 6, 4025, 4025, 4022, 4033, 4020, 4023, 0, 1, 5800, -90.000, 0.000, -43.800, 0.000, 0.000, -0.500, 0.0, , , , , , 95, , , 59, 59, 59
38.5270984, -120.3542661, 1.200, 12:19:42.321, 10, 0.00, 0.13, 98, -0.700, 0.300, -43.400, 1528, 100, 100, 24, 24175, -11169, 5194, 5301, 21, 14, 1530991182.321, 89, 0, 1024, 1024, 1024, 1024, 0, 6, 4025, 4025, 4022, 4033, 4020, 4023, 0, 1, 5901, -90.000, 0.000, -43.800, 0.000, 0.000, -0.700, 0.0, , , , , , 95, , , 59, 59, 59
38.5270984, -120.3542659, 1.300, 12:19:42.420, 8, 0.00, 0.14, 98, -0.700, 0.200, -43.400, 1528, 100, 100, 24, 24175, -11169, 5194, 5301, 21, 14, 1530991182.421, 89, 0, 1024, 1024, 1024, 1024, 0, 6, 4025, 4025, 4022, 4033, 4020, 4023, 0, 1, 6000, -90.000, 0.000, -43.800, 0.000, 0.000, -0.900, 0.0, , , , , , 95, , , 59, 59, 59
38.5270984, -120.3542659, 1.400, 12:19:42.521, 8, 0.00, 0.15, 98, -0.700, 0.100, -43.300, 1528, 100, 100, 24, 24175, -11169, 5194, 5301, 21, 14, 1530991182.521, 91, 0, 1024, 1024, 1024, 1024, 0, 6, 4025, 4025, 4022, 4033, 4020, 4023, 0, 1, 6100, -90.000, 0.000, -43.800, 0.000, 0.000, -1.000, 0.0, , , , , , 95, , , 59, 59, 59
38.5270984, -120.3542659, 1.500, 12:19:42.620, 8, 0.00, 0.15, 98, -0.600, 0.000, -43.200, 1528, 100, 100, 24, 24175, -11169, 5194, 5301, 21, 14, 1530991182.621, 92, 0, 1024, 1024, 1024, 1024, 0, 6, 4025, 4025, 4022, 4033, 4020, 4023, 0, 1, 6200, -90.000, 0.000, -43.800, 0.000, 0.000, -1.300, 0.0, , , , , , 95, , , 59, 59, 59
38.5270983, -120.3542658, 1.700, 12:19:42.721, 8, 0.00, 0.16, 98, -0.700, 0.000, -43.200, 1528, 100, 100, 24, 24175, -11169, 5194, 5301, 21, 14, 1530991182.721, 86, 0, 1024, 1024, 1024, 1024, 0, 6, 4025, 4025, 4022, 4033, 4020, 4023, 0, 1, 6300, -90.000, 0.000, -43.800, 0.000, 0.000, -1.400, 0.0, , , , , , 95, , , 59, 59, 59
38.5270983, -120.3542657, 1.800, 12:19:42.820, 8, 0.00, 0.17, 98, -0.800, -0.100, -43.300, 1528, 100, 100, 24, 24175, -11169, 5194, 5301, 21, 14, 1530991182.821, 91, 0, 1024, 1024, 1024, 1024, 0, 6, 4025, 4025, 4022, 4033, 4020, 4023, 0, 1, 6400, -90.000, 0.000, -43.800, 0.000, 0.000, -1.600, 0.0, , , , , , 95, , , 59, 59, 59
38.5270983, -120.3542657, 2.000, 12:19:42.921, 8, 0.00, 0.17, 98, -0.900, -0.200, -43.300, 1528, 100, 100, 24, 24175, -11169, 5194, 5301, 21, 14, 1530991182.921, 51, 0, 1024, 1024, 1024, 1024, 0, 6, 4025, 4025, 4022, 4033, 4020, 4023, 0, 1, 6500, -90.000, 0.000, -43.800, 0.000, 0.000, -1.800, 0.0, , , , , , 95, , , 59, 59, 59
38.5270982, -120.3542657, 2.200, 12:19:43.020, 9, 0.00, 0.17, 98, -0.500, -0.200, -43.400, 1528, 100, 100, 24, 24175, -11169, 5194, 5301, 21, 14, 1530991183.021, 78, 0, 1024, 1024, 1024, 1024, 0, 6, 4025, 4025, 4022, 4033, 4020, 4023, 0, 1, 6600, -90.000, 0.000, -43.800, 0.000, 0.000, -2.000, 0.0, , , , , , 95, , , 59, 59, 59
38.5270982, -120.3542658, 2.400, 12:19:43.121, 9, 0.00, 0.15, 98, -0.200, -0.200, -43.400, 1528, 100, 100, 24, 24057, -18691, 5194, 5301, 21, 14, 1530991183.121, 59, 0, 1024, 1024, 1024, 1024, 0, 6, 3968, 3946, 3997, 4021, 4054, 3982, 0, 1, 6700, -90.000, 0.000, -43.800, 0.000, 0.000, -2.300, 0.0, , , , , , 95, , , 59, 59, 59
38.5270982, -120.3542660, 2.700, 12:19:43.221, 8, 0.00, 0.14, 98, 0.000, 0.100, -43.500, 1528, 100, 100, 24, 24057, -18691, 5194, 5301, 21, 14, 1530991183.222, 63, 0, 1024, 1024, 1024, 1024, 0, 6, 3968, 3946, 3997, 4021, 4054, 3982, 0, 1, 6801, -90.000, 0.000, -43.800, 0.000, 0.000, -2.500, 0.0, , , , , , 95, , , 59, 59, 59
38.5270982, -120.3542662, 3.000, 12:19:43.321, 8, 0.00, 0.12, 98, 0.000, 0.800, -43.600, 1528, 100, 100, 24, 24057, -18691, 5194, 5301, 21, 14, 1530991183.321, 66, 0, 1024, 1024, 1024, 1024, 0, 6, 3968, 3946, 3997, 4021, 4054, 3982, 0, 1, 6900, -89.900, 0.000, -43.800, 0.000, 0.000, -2.800, 0.0, , , , , , 95, , , 59, 59, 59
38.5270982, -120.3542665, 3.200, 12:19:43.421, 9, 0.00, 0.10, 98, 0.300, 1.400, -43.500, 1528, 100, 100, 24, 24057, -18691, 5194, 5301, 21, 14, 1530991183.422, 67, 0, 1024, 1024, 1024, 1024, 0, 6, 3968, 3946, 3997, 4021, 4054, 3982, 0, 1, 7001, -89.900, 0.000, -43.800, 0.000, 0.000, -2.900, 0.0, , , , , , 95, , , 59, 59, 59
38.5270982, -120.3542666, 3.600, 12:19:43.520, 9, 0.00, 0.09, 98, 0.500, 1.700, -43.400, 1528, 100, 100, 24, 24057, -18691, 5194, 5301, 21, 14, 1530991183.520, 32, 0, 1024, 1024, 1024, 1024, 0, 6, 3968, 3946, 3997, 4021, 4054, 3982, 0, 1, 7100, -89.900, 0.000, -43.800, 0.000, 0.000, -3.100, 0.0, , , , , , 95, , , 59, 59, 59
38.5270982, -120.3542667, 3.900, 12:19:43.620, 9, 0.00, 0.08, 98, 0.200, 1.600, -43.300, 1528, 100, 100, 24, 24057, -18691, 5194, 5301, 21, 14, 1530991183.621, 47, 0, 1024, 1024, 1024, 1024, 0, 6, 3968, 3946, 3997, 4021, 4054, 3982, 0, 1, 7200, -89.900, 0.000, -43.800, 0.000, 0.000, -3.200, 0.0, , , , , , 95, , , 59, 59, 59
38.5270982, -120.3542667, 4.200, 12:19:43.721, 9, 0.00, 0.08, 98, 0.100, 1.500, -43.200, 1528, 100, 100, 24, 24057, -18691, 5194, 5301, 21, 14, 1530991183.721, 50, 0, 1024, 1024, 1024, 1024, 0, 6, 3968, 3946, 3997, 4021, 4054, 3982, 0, 1, 7300, -89.900, 0.000, -43.800, 0.000, 0.000, -3.300, 0.0, , , , , , 95, , , 59, 59, 59
38.5270983, -120.3542668, 4.600, 12:19:43.821, 9, 0.00, 0.07, 98, -0.100, 1.300, -43.100, 1528, 100, 100, 24, 24057, -18691, 5194, 5301, 21, 14, 1530991183.821, 39, 0, 1024, 1024, 1024, 1024, 0, 6, 3968, 3946, 3997, 4021, 4054, 3982, 0, 1, 7400, -89.900, 0.000, -43.800, 0.000, 0.000, -3.300, 0.0, , , , , , 95, , , 59, 59, 59
38.5270983, -120.3542667, 4.900, 12:19:43.921, 9, 0.00, 0.08, 98, -0.500, 1.200, -43.100, 1528, 100, 100, 24, 24057, -18691, 5194, 5301, 21, 14, 1530991183.921, 32, 0, 1024, 1024, 1024, 1024, 0, 6, 3968, 3946, 3997, 4021, 4054, 3982, 0, 1, 7500, -89.900, 0.000, -43.800, 0.000, 0.000, -3.300, 0.0, , , , , , 95, , , 59, 59, 59
38.5270983, -120.3542666, 5.300, 12:19:44.021, 9, 0.00, 0.08, 98, -0.800, 1.000, -43.000, 1528, 100, 100, 24, 24057, -18691, 5194, 5301, 21, 14, 1530991184.021, 33, 0, 1024, 1024, 1024, 1024, 0, 6, 3968, 3946, 3997, 4021, 4054, 3982, 0, 1, 7600, -89.900, 0.000, -43.800, 0.000, 0.000, -3.300, 0.0, , , , , , 95, , , 59, 59, 59
38.5270984, -120.3542666, 5.600, 12:19:44.121, 9, 0.00, 0.09, 98, -0.800, 0.900, -42.900, 1528, 100, 100, 24, 23209, -25247, 5194, 5301, 21, 14, 1530991184.121, 35, 0, 1024, 1024, 1024, 1024, 0, 6, 3862, 3859, 3890, 3905, 3885, 3930, 0, 1, 7700, -89.900, 0.000, -43.800, 0.000, 0.000, -3.200, 0.0, , , , , , 95, , , 59, 59, 59
38.5270985, -120.3542666, 5.900, 12:19:44.220, 9, 0.00, 0.09, 98, -0.800, 0.800, -42.700, 1528, 100, 100, 24, 23209, -25247, 5194, 5301, 21, 14, 1530991184.221, 24, 0, 1024, 1024, 1024, 1024, 0, 6, 3862, 3859, 3890, 3905, 3885, 3930, 0, 1, 7800, -89.900, 0.000, -43.800, 0.000, 0.000, -3.200, 0.0, , , , , , 95, , , 59, 59, 59
38.5270983, -120.3542666, 6.600, 12:19:44.321, 10, 0.00, 0.09, 98, -0.500, 0.700, -42.700, 1528, 100, 100, 24, 23209, -25247, 5194, 5301, 21, 14, 1530991184.322, 7, 0, 1024, 1024, 1024, 1024, 0, 6, 3862, 3859, 3890, 3905, 3885, 3930, 0, 1, 7901, -89.900, 0.000, -43.800, 0.000, 0.000, -3.200, 0.0, , , , , , 95, , , 59, 59, 59
38.5270983, -120.3542665, 6.900, 12:19:44.421, 10, 0.00, 0.10, 98, -0.300, 0.400, -42.800, 1528, 100, 100, 24, 23209, -25247, 5194, 5301, 21, 14, 1530991184.422, 10, 0, 1024, 1024, 1024, 1024, 0, 6, 3862, 3859, 3890, 3905, 3885, 3930, 0, 1, 8001, -90.000, 0.000, -43.800, 0.000, 0.000, -3.200, 0.0, , , , , , 95, , , 59, 59, 59
38.5270983, -120.3542663, 7.300, 12:19:44.521, 10, 0.00, 0.11, 98, -0.400, 0.000, -43.000, 1528, 100, 100, 24, 23209, -25247, 5194, 5301, 21, 14, 1530991184.521, 9, 0, 1024, 1024, 1024, 1024, 0, 6, 3862, 3859, 3890, 3905, 3885, 3930, 0, 1, 8100, -90.000, 0.000, -43.800, 0.000, 0.000, -3.200, 0.0, , , , , , 95, , , 59, 59, 59
38.5270982, -120.3542663, 7.600, 12:19:44.621, 10, 0.00, 0.12, 98, -0.500, -0.300, -43.300, 1528, 100, 100, 24, 23209, -25247, 5194, 5301, 21, 14, 1530991184.621, 14, 0, 1024, 1024, 1024, 1024, 0, 6, 3862, 3859, 3890, 3905, 3885, 3930, 0, 1, 8200, -90.000, 0.000, -43.800, 0.000, 0.000, -3.200, 0.0, , , , , , 95, , , 59, 59, 59
38.5270981, -120.3542662, 7.900, 12:19:44.720, 10, 0.00, 0.12, 98, -0.800, -0.500, -43.400, 1528, 100, 100, 24, 23209, -25247, 5194, 5301, 21, 14, 1530991184.721, 14, 0, 1024, 1024, 1024, 1024, 0, 6, 3862, 3859, 3890, 3905, 3885, 3930, 0, 1, 8300, -90.000, 0.000, -43.800, 0.000, 0.000, -3.100, 0.0, , , , , , 95, , , 59, 59, 59
38.5270980, -120.3542661, 8.300, 12:19:44.831, 10, 0.00, 0.14, 98, -0.600, -0.500, -43.500, 1528, 100, 100, 24, 23209, -25247, 5194, 5301, 21, 14, 1530991184.831, 4, 0, 1024, 1024, 1024, 1024, 0, 6, 3862, 3859, 3890, 3905, 3885, 3930, 0, 1, 8410, -90.000, 0.000, -43.800, 0.000, 0.000, -3.100, 0.0, , , , , , 95, , , 59, 59, 59
38.5270980, -120.3542661, 8.300, 12:19:44.920, 10, 0.00, 0.14, 98, -0.600, -0.500, -43.500, 1528, 100, 100, 24, 23209, -25247, 5194, 5301, 21, 14, 1530991184.921, 93, 0, 1024, 1024, 1024, 1024, 0, 6, 3862, 3859, 3890, 3905, 3885, 3930, 0, 1, 8500, -90.000, 0.000, -43.800, 0.000, 0.000, -3.100, 0.0, , , , , , 95, , , 59, 59, 59
38.5270980, -120.3542660, 8.600, 12:19:45.021, 11, 0.00, 0.15, 98, -0.400, -0.400, -43.600, 1528, 100, 100, 24, 23209, -25247, 5194, 5301, 21, 14, 1530991185.021, 91, 0, 1024, 1024, 1024, 1024, 0, 6, 3862, 3859, 3890, 3905, 3885, 3930, 0, 1, 8600, -90.000, 0.000, -43.800, 0.000, 0.000, -3.200, 0.0, , , , , , 95, , , 59, 59, 59
38.5270980, -120.3542659, 8.900, 12:19:45.120, 11, 0.00, 0.15, 98, -0.200, -0.300, -43.600, 1528, 100, 100, 24, 23580, -19294, 5194, 5301, 21, 14, 1530991185.121, 79, 0, 1024, 1024, 1024, 1024, 0, 6, 3922, 3929, 3940, 3949, 3936, 3940, 0, 1, 8700, -89.900, 0.000, -43.800, 0.000, 0.000, -3.100, 0.0, , , , , , 95, , , 59, 59, 59
38.5270980, -120.3542658, 9.300, 12:19:45.221, 11, 0.00, 0.16, 98, -0.300, -0.100, -43.700, 1528, 100, 100, 24, 23580, -19294, 5194, 5301, 21, 14, 1530991185.221, 74, 0, 1024, 1024, 1024, 1024, 0, 6, 3922, 3929, 3940, 3949, 3936, 3940, 0, 1, 8800, -89.900, 0.000, -43.800, 0.000, 0.000, -3.200, 0.0, , , , , , 95, , , 59, 59, 59
38.5270980, -120.3542656, 9.600, 12:19:45.321, 11, 0.00, 0.18, 98, -0.700, 0.000, -43.600, 1528, 100, 100, 24, 23580, -19294, 5194, 5301, 21, 14, 1530991185.321, 78, 0, 1024, 1024, 1024, 1024, 0, 6, 3922, 3929, 3940, 3949, 3936, 3940, 0, 1, 8900, -89.900, 0.000, -43.800, 0.000, 0.000, -3.100, 0.0, , , , , , 95, , , 59, 59, 59
38.5270980, -120.3542653, 9.900, 12:19:45.420, 11, 0.00, 0.20, 98, -0.900, 0.300, -43.600, 1528, 100, 100, 24, 23580, -19294, 5194, 5301, 21, 14, 1530991185.421, 81, 0, 1024, 1024, 1024, 1024, 0, 6, 3922, 3929, 3940, 3949, 3936, 3940, 0, 1, 9000, -89.900, 0.000, -43.800, 0.000, 0.000, -3.100, 0.0, , , , , , 95, , , 59, 59, 59
38.5270980, -120.3542651, 10.200, 12:19:45.521, 11, 0.00, 0.22, 98, -1.000, 0.400, -43.300, 1528, 100, 100, 24, 23580, -19294, 5194, 5301, 21, 14, 1530991185.521, 76, 0, 1024, 1024, 1024, 1024, 0, 6, 3922, 3929, 3940, 3949, 3936, 3940, 0, 1, 9100, -89.900, 0.000, -43.800, 0.000, 0.000, -3.000, 0.0, , , , , , 95, , , 59, 59, 59
38.5270979, -120.3542649, 10.500, 12:19:45.620, 11, 0.00, 0.24, 98, -1.100, -0.100, -43.100, 1528, 100, 100, 24, 23580, -19294, 5194, 5301, 21, 14, 1530991185.620, 50, 0, 1024, 1024, 1024, 1024, 0, 6, 3922, 3929, 3940, 3949, 3936, 3940, 0, 1, 9200, -90.000, 0.000, -43.800, 0.000, 0.000, -3.000, 0.0, , , , , , 95, , , 59, 59, 59
38.5270979, -120.3542647, 10.900, 12:19:45.720, 11, 0.00, 0.26, 98, -1.500, -0.800, -42.900, 1528, 100, 100, 24, 23580, -19294, 5194, 5301, 21, 14, 1530991185.721, 78, 0, 1024, 1024, 1024, 1024, 0, 6, 3922, 3929, 3940, 3949, 3936, 3940, 0, 1, 9300, -90.000, 0.000, -43.800, 0.000, 0.000, -3.000, 0.0, , , , , , 95, , , 59, 59, 59
38.5270978, -120.3542645, 11.200, 12:19:45.820, 12, 0.00, 0.27, 98, -1.500, -1.200, -42.900, 1528, 100, 100, 24, 23580, -19294, 5194, 5301, 21, 14, 1530991185.821, 49, 0, 1024, 1024, 1024, 1024, 0, 6, 3922, 3929, 3940, 3949, 3936, 3940, 0, 1, 9400, -90.000, 0.000, -43.800, 0.000, 0.000, -3.000, 0.0, , , , , , 95, , , 59, 59, 59
38.5270978, -120.3542643, 11.500, 12:19:45.921, 12, 0.00, 0.29, 98, -1.700, -1.300, -42.900, 1528, 100, 100, 24, 23580, -19294, 5194, 5301, 21, 14, 1530991185.921, 44, 0, 1024, 1024, 1024, 1024, 0, 6, 3922, 3929, 3940, 3949, 3936, 3940, 0, 1, 9500, -90.000, 0.000, -43.800, 0.000, 0.000, -3.000, 0.0, , , , , , 95, , , 59, 59, 59
38.5270979, -120.3542642, 11.800, 12:19:46.021, 12, 0.00, 0.30, 98, -2.100, -1.200, -43.000, 1528, 100, 100, 24, 23580, -19294, 5194, 5301, 21, 14, 1530991186.021, 34, 0, 1024, 1024, 1024, 1024, 0, 6, 3922, 3929, 3940, 3949, 3936, 3940, 0, 1, 9600, -89.900, 0.000, -43.800, 0.000, 0.000, -3.000, 0.0, , , , , , 95, , , 59, 59, 59
38.5270978, -120.3542642, 12.100, 12:19:46.120, 12, 0.00, 0.30, 98, -2.000, -0.900, -43.000, 1528, 100, 100, 24, 23664, -18241, 5194, 5301, 21, 14, 1530991186.120, 39, 0, 1024, 1024, 1024, 1024, 0, 6, 3946, 3933, 3925, 3956, 3952, 3942, 0, 1, 9700, -90.000, 0.000, -43.800, 0.000, 0.000, -2.900, 0.0, , , , , , 95, , , 59, 59, 59
38.5270978, -120.3542643, 12.400, 12:19:46.221, 11, 0.00, 0.29, 98, -1.500, -0.900, -43.000, 1528, 100, 100, 24, 23664, -18241, 5194, 5301, 21, 14, 1530991186.221, 42, 0, 1024, 1024, 1024, 1024, 0, 6, 3946, 3933, 3925, 3956, 3952, 3942, 0, 1, 9800, -90.000, 0.000, -43.800, 0.000, 0.000, -2.900, 0.0, , , , , , 95, , , 59, 59, 59
38.5270978, -120.3542643, 12.700, 12:19:46.321, 11, 0.00, 0.29, 98, -1.300, -0.800, -43.000, 1528, 100, 100, 24, 23664, -18241, 5194, 5301, 21, 14, 1530991186.321, 49, 0, 1024, 1024, 1024, 1024, 0, 6, 3946, 3933, 3925, 3956, 3952, 3942, 0, 1, 9900, -89.900, 0.000, -43.800, 0.000, 0.000, -2.900, 0.0, , , , , , 95, , , 59, 59, 59
38.5270978, -120.3542644, 13.000, 12:19:46.420, 11, 0.00, 0.28, 98, -1.000, -0.400, -43.100, 1528, 100, 100, 24, 23664, -18241, 5194, 5301, 21, 14, 1530991186.420, 39, 0, 1024, 1024, 1024, 1024, 0, 6, 3946, 3933, 3925, 3956, 3952, 3942, 0, 1, 10000, -89.900, 0.000, -43.800, 0.000, 0.000, -2.900, 0.0, , , , , , 95, , , 59, 59, 59
38.5270978, -120.3542645, 13.300, 12:19:46.521, 11, 0.00, 0.28, 98, -0.800, 0.000, -43.200, 1528, 100, 100, 24, 23664, -18241, 5194, 5301, 21, 14, 1530991186.521, 44, 0, 1024, 1024, 1024, 1024, 0, 6, 3946, 3933, 3925, 3956, 3952, 3942, 0, 1, 10100, -89.900, 0.000, -43.800, 0.000, 0.000, -2.900, 0.0, , , , , , 95, , , 59, 59, 59
38.5270979, -120.3542645, 13.700, 12:19:46.621, 10, 0.00, 0.28, 98, -0.900, 0.100, -43.400, 1528, 100, 100, 24, 23664, -18241, 5194, 5301, 21, 14, 1530991186.621, 37, 0, 1024, 1024, 1024, 1024, 0, 6, 3946, 3933, 3925, 3956, 3952, 3942, 0, 1, 10200, -89.900, 0.000, -43.800, 0.000, 0.000, -3.000, 0.0, , , , , , 95, , , 59, 59, 59
38.5270979, -120.3542648, 14.300, 12:19:46.721, 10, 0.00, 0.25, 98, -1.000, 0.300, -43.600, 1528, 100, 100, 24, 23664, -18241, 5194, 5301, 21, 14, 1530991186.721, 14, 0, 1024, 1024, 1024, 1024, 0, 6, 3946, 3933, 3925, 3956, 3952, 3942, 0, 1, 10300, -89.900, 0.000, -43.800, 0.000, 0.000, -2.900, 0.0, , , , , , 95, , , 59, 59, 59
38.5270979, -120.3542649, 14.600, 12:19:46.825, 10, 0.00, 0.24, 98, -0.800, 0.500, -43.600, 1528, 100, 100, 24, 23664, -18241, 5194, 5301, 21, 14, 1530991186.825, 3, 0, 1024, 1024, 1024, 1024, 0, 6, 3946, 3933, 3925, 3956, 3952, 3942, 0, 1, 10404, -89.900, 0.000, -43.800, 0.000, 0.000, -2.900, 0.0, , , , , , 95, , , 59, 59, 59
38.5270979, -120.3542649, 14.900, 12:19:46.924, 10, 0.00, 0.24, 98, -0.700, 0.700, -43.500, 1528, 100, 100, 24, 23664, -18241, 5194, 5301, 21, 14, 1530991186.924, 2, 0, 1024, 1024, 1024, 1024, 0, 6, 3946, 3933, 3925, 3956, 3952, 3942, 0, 1, 10503, -89.900, 0.000, -43.800, 0.000, 0.000, -2.900, 0.0, , , , , , 95, , , 59, 59, 59
38.5270979, -120.3542649, 15.200, 12:19:47.021, 10, 0.00, 0.24, 98, -0.800, 0.500, -43.500, 1528, 100, 100, 24, 23664, -18241, 5194, 5301, 21, 14, 1530991187.021, 15, 0, 1024, 1024, 1024, 1024, 0, 6, 3946, 3933, 3925, 3956, 3952, 3942, 0, 1, 10600, -89.900, 0.000, -43.800, 0.000, 0.000, -2.900, 0.0, , , , , , 95, , , 59, 59, 59
38.5270979, -120.3542649, 15.500, 12:19:47.120, 12, 0.00, 0.24, 98, -1.000, 0.200, -43.500, 1528, 100, 100, 25, 23627, -18362, 5194, 5301, 21, 14, 1530991187.120, 8, 0, 1024, 1024, 1024, 1024, 0, 6, 3946, 3933, 3925, 3956, 3952, 3942, 0, 1, 10699, -90.000, 0.000, -43.800, 0.000, 0.000, -2.900, 0.0, , , , , , 95, , , 59, 59, 59
38.5270979, -120.3542649, 15.800, 12:19:47.220, 12, 0.00, 0.24, 98, -1.200, 0.100, -43.400, 1528, 100, 100, 25, 23627, -18362, 5194, 5301, 21, 14, 1530991187.220, 12, 0, 1024, 1024, 1024, 1024, 0, 6, 3946, 3933, 3925, 3956, 3952, 3942, 0, 1, 10800, -89.900, 0.000, -43.800, 0.000, 0.000, -2.800, 0.0, , , , , , 95, , , 59, 59, 59
38.5270979, -120.3542649, 15.800, 12:19:47.320, 12, 0.00, 0.24, 98, -1.200, 0.100, -43.400, 1528, 100, 100, 25, 23627, -18362, 5194, 5301, 21, 14, 1530991187.321, 112, 0, 1024, 1024, 1024, 1024, 0, 6, 3946, 3933, 3925, 3956, 3952, 3942, 0, 1, 10900, -89.900, 0.000, -43.800, 0.000, 0.000, -2.800, 0.0, , , , , , 95, , , 59, 59, 59
38.5270980, -120.3542649, 16.400, 12:19:47.420, 12, 0.00, 0.24, 98, -1.100, 0.000, -43.500, 1528, 100, 100, 25, 23627, -18362, 5194, 5301, 21, 14, 1530991187.420, 9, 0, 1024, 1024, 1024, 1024, 0, 6, 3946, 3933, 3925, 3956, 3952, 3942, 0, 1, 11000, -90.000, 0.000, -43.800, 0.000, 0.000, -2.900, 0.0, , , , , , 95, , , 59, 59, 59
38.5270980, -120.3542649, 16.600, 12:19:47.521, 11, 0.00, 0.24, 98, -1.000, 0.000, -43.600, 1528, 100, 100, 25, 23627, -18362, 5194, 5301, 21, 14, 1530991187.521, 9, 0, 1024, 1024, 1024, 1024, 0, 6, 3940, 3926, 3928, 3955, 3947, 3935, 0, 1, 11100, -90.000, 0.000, -43.800, 0.000, 0.000, -2.900, 0.0, , , , , , 95, , , 59, 59, 59
38.5270980, -120.3542649, 16.600, 12:19:47.620, 11, 0.00, 0.24, 98, -1.000, 0.000, -43.600, 1528, 100, 100, 25, 23627, -18362, 5194, 5301, 21, 14, 1530991187.620, 108, 0, 1024, 1024, 1024, 1024, 0, 6, 3940, 3926, 3928, 3955, 3947, 3935, 0, 1, 11199, -90.000, 0.000, -43.800, 0.000, 0.000, -2.900, 0.0, , , , , , 95, , , 59, 59, 59
38.5270980, -120.3542649, 16.900, 12:19:47.720, 11, 0.00, 0.23, 98, -1.000, 0.000, -43.600, 1528, 100, 100, 25, 23627, -18362, 5194, 5301, 21, 14, 1530991187.720, 93, 0, 1024, 1024, 1024, 1024, 0, 6, 3940, 3926, 3928, 3955, 3947, 3935, 0, 1, 11299, -89.900, 0.000, -43.800, 0.000, 0.000, -2.900, 0.0, , , , , , 95, , , 59, 59, 59
38.5270980, -120.3542650, 17.300, 12:19:47.820, 11, 0.00, 0.23, 98, -1.200, 0.000, -43.600, 1528, 100, 100, 25, 23627, -18362, 5194, 5301, 21, 14, 1530991187.820, 62, 0, 1024, 1024, 1024, 1024, 0, 6, 3940, 3926, 3928, 3955, 3947, 3935, 0, 1, 11399, -90.000, 0.000, -43.800, 0.000, 0.000, -2.900, 0.0, , , , , , 95, , , 59, 59, 59
38.5270980, -120.3542650, 17.600, 12:19:47.921, 11, 0.00, 0.23, 98, -1.200, 0.000, -43.600, 1528, 100, 100, 25, 23627, -18362, 5194, 5301, 21, 14, 1530991187.921, 68, 0, 1024, 1024, 1024, 1024, 0, 6, 3940, 3926, 3928, 3955, 3947, 3935, 0, 1, 11500, -89.900, 0.000, -43.800, 0.000, 0.000, -2.900, 0.0, , , , , , 95, , , 59, 59, 59
38.5270981, -120.3542650, 17.900, 12:19:48.021, 12, 0.00, 0.23, 98, -1.200, 0.200, -43.600, 1528, 100, 100, 25, 23627, -18362, 5194, 5301, 21, 14, 1530991188.021, 79, 0, 1024, 1024, 1024, 1024, 0, 6, 3940, 3926, 3928, 3955, 3947, 3935, 0, 1, 11600, -89.900, 0.000, -43.800, 0.000, 0.000, -2.900, 0.0, , , , , , 95, , , 59, 59, 59
38.5270981, -120.3542651, 18.100, 12:19:48.121, 12, 0.00, 0.22, 98, -1.400, 0.400, -43.500, 1528, 100, 100, 25, 23627, -18362, 5194, 5301, 21, 14, 1530991188.121, 70, 0, 1024, 1024, 1024, 1024, 0, 6, 3940, 3926, 3928, 3955, 3947, 3935, 0, 1, 11700, -89.900, 0.000, -43.800, 0.000, 0.000, -2.900, 0.0, , , , , , 95, , , 59, 59, 59
38.5270982, -120.3542651, 18.400, 12:19:48.220, 12, 0.00, 0.22, 98, -1.400, 0.500, -43.500, 1528, 100, 98, 25, 23627, -18362, 5194, 5301, 21, 14, 1530991188.220, 73, 0, 1024, 1024, 1024, 1024, 0, 6, 3940, 3926, 3928, 3955, 3947, 3935, 0, 1, 11799, -89.900, 0.000, -43.800, 0.000, 0.000, -2.900, 0.0, , , , , , 95, , , 59, 59, 59
38.5270982, -120.3542651, 18.700, 12:19:48.321, 12, 0.00, 0.21, 98, -1.200, 0.500, -43.400, 1528, 100, 98, 25, 23627, -18362, 5194, 5301, 21, 14, 1530991188.321, 70, 0, 1024, 1024, 1024, 1024, 0, 6, 3940, 3926, 3928, 3955, 3947, 3935, 0, 1, 11900, -89.900, 0.000, -43.800, 0.000, 0.000, -2.900, 0.0, , , , , , 95, , , 59, 59, 59
38.5270982, -120.3542651, 19.000, 12:19:48.420, 10, 0.00, 0.21, 98, -1.100, 0.300, -43.300, 1528, 100, 98, 25, 23627, -18362, 5194, 5301, 21, 14, 1530991188.420, 61, 0, 1024, 1024, 1024, 1024, 0, 6, 3940, 3926, 3928, 3955, 3947, 3935, 0, 1, 11999, -89.900, 0.000, -43.800, 0.000, 0.000, -2.900, 0.0, , , , , , 95, , , 59, 59, 59
38.5270981, -120.3542652, 19.300, 12:19:48.520, 10, 0.00, 0.21, 98, -1.000, 0.200, -43.300, 1528, 100, 98, 25, 23627, -18362, 5194, 5301, 21, 14, 1530991188.520, 52, 0, 1024, 1024, 1024, 1024, 0, 6, 3940, 3926, 3928, 3955, 3947, 3935, 0, 1, 12099, -90.000, 0.000, -43.800, 0.000, 0.000, -2.900, 0.0, , , , , , 95, , , 59, 59, 59
38.5270981, -120.3542652, 19.600, 12:19:48.620, 10, 0.00, 0.21, 98, -0.800, 0.100, -43.200, 1528, 100, 98, 25, 23573, -18478, 5194, 5301, 21, 14, 1530991188.620, 58, 0, 1024, 1024, 1024, 1024, 0, 6, 3934, 3920, 3916, 3938, 3937, 3930, 0, 1, 12200, -89.900, 0.000, -43.800, 0.000, 0.000, -2.800, 0.0, , , , , , 95, , , 59, 59, 59
38.5270981, -120.3542653, 19.900, 12:19:48.720, 10, 0.00, 0.20, 98, -0.600, 0.100, -43.100, 1528, 100, 98, 25, 23573, -18478, 5194, 5301, 21, 14, 1530991188.721, 48, 0, 1024, 1024, 1024, 1024, 0, 6, 3934, 3920, 3916, 3938, 3937, 3930, 0, 1, 12300, -89.900, 0.000, -43.800, 0.000, 0.000, -2.900, 0.0, , , , , , 95, , , 59, 59, 59
38.5270981, -120.3542654, 20.200, 12:19:48.820, 11, 0.00, 0.19, 98, -0.600, 0.200, -43.100, 1528, 100, 98, 25, 23573, -18478, 5194, 5301, 21, 14, 1530991188.820, 47, 0, 1024, 1024, 1024, 1024, 0, 6, 3934, 3920, 3916, 3938, 3937, 3930, 0, 1, 12399, -89.900, 0.000, -43.800, 0.000, 0.000, -2.900, 0.0, , , , , , 95, , , 59, 59, 59
38.5270981, -120.3542655, 20.500, 12:19:48.920, 11, 0.00, 0.18, 98, -0.700, 0.200, -43.200, 1528, 100, 98, 25, 23573, -18478, 5194, 5301, 21, 14, 1530991188.920, 17, 0, 1024, 1024, 1024, 1024, 0, 6, 3934, 3920, 3916, 3938, 3937, 3930, 0, 1, 12499, -89.900, 0.000, -43.800, 0.000, 0.000, -2.900, 0.0, , , , , , 95, , , 59, 59, 59
38.5270980, -120.3542657, 20.800, 12:19:49.021, 12, 0.00, 0.17, 98, -0.600, 0.300, -43.300, 1528, 100, 98, 25, 23573, -18478, 5194, 5301, 21, 14, 1530991189.021, 41, 0, 1024, 1024, 1024, 1024, 0, 6, 3934, 3920, 3916, 3938, 3937, 3930, 0, 1, 12600, -89.900, 0.000, -43.800, 0.000, 0.000, -2.800, 0.0, , , , , , 95, , , 59, 59, 59
38.5270980, -120.3542660, 21.400, 12:19:49.120, 12, 0.00, 0.15, 98, 0.000, 0.400, -43.600, 1528, 100, 98, 25, 23573, -18478, 5194, 5301, 21, 14, 1530991189.120, 29, 0, 1024, 1024, 1024, 1024, 0, 6, 3934, 3920, 3916, 3938, 3937, 3930, 0, 1, 12699, -89.900, 0.000, -43.800, 0.000, 0.000, -2.900, 0.0, , , , , , 95, , , 59, 59, 59
38.5270980, -120.3542660, 21.400, 12:19:49.220, 12, 0.00, 0.15, 98, 0.000, 0.400, -43.600, 1528, 100, 99, 25, 23573, -18478, 5194, 5301, 21, 14, 1530991189.220, 129, 0, 1024, 1024, 1024, 1024, 0, 6, 3934, 3920, 3916, 3938, 3937, 3930, 0, 1, 12799, -89.900, 0.000, -43.800, 0.000, 0.000, -2.900, 0.0, , , , , , 95, , , 59, 59, 59
38.5270979, -120.3542660, 21.700, 12:19:49.321, 12, 0.00, 0.14, 98, 0.000, 0.600, -43.600, 1528, 100, 99, 25, 23573, -18478, 5194, 5301, 21, 14, 1530991189.321, 11, 0, 1024, 1024, 1024, 1024, 0, 6, 3934, 3920, 3916, 3938, 3937, 3930, 0, 1, 12900, -89.900, 0.000, -43.800, 0.000, 0.000, -2.900, 0.0, , , , , , 95, , , 59, 59, 59
38.5270978, -120.3542663, 22.200, 12:19:49.420, 11, 0.00, 0.13, 98, 0.000, 0.700, -43.500, 1528, 100, 99, 25, 23573, -18478, 5194, 5301, 21, 14, 1530991189.421, 8, 0, 1024, 1024, 1024, 1024, 0, 6, 3934, 3920, 3916, 3938, 3937, 3930, 0, 1, 13000, -89.900, 0.000, -43.800, 0.000, 0.000, -3.000, 0.0, , , , , , 95, , , 59, 59, 59
38.5270978, -120.3542664, 22.500, 12:19:49.520, 11, 0.00, 0.12, 98, 0.000, 0.600, -43.500, 1528, 100, 99, 25, 23573, -18478, 5194, 5301, 21, 14, 1530991189.520, 25, 0, 1024, 1024, 1024, 1024, 0, 6, 3934, 3920, 3916, 3938, 3937, 3930, 0, 1, 13099, -89.900, 0.000, -43.800, 0.000, 0.000, -3.000, 0.0, , , , , , 95, , , 59, 59, 59
38.5270978, -120.3542664, 22.800, 12:19:49.620, 11, 0.00, 0.12, 98, 0.200, 0.600, -43.400, 1528, 100, 99, 25, 23517, -19030, 5194, 5301, 21, 14, 1530991189.620, 15, 0, 1024, 1024, 1024, 1024, 0, 6, 3913, 3910, 3906, 3930, 3924, 3921, 0, 1, 13200, -89.900, 0.000, -43.800, 0.000, 0.000, -2.900, 0.0, , , , , , 95, , , 59, 59, 59
38.5270977, -120.3542664, 23.100, 12:19:49.720, 11, 0.00, 0.12, 98, 0.100, 0.500, -43.400, 1528, 100, 98, 25, 23517, -19030, 5194, 5301, 21, 14, 1530991189.720, 17, 0, 1024, 1024, 1024, 1024, 0, 6, 3913, 3910, 3906, 3930, 3924, 3921, 0, 1, 13299, -90.000, 0.000, -43.800, 0.000, 0.000, -2.900, 0.0, , , , , , 95, , , 59, 59, 59
38.5270977, -120.3542664, 23.100, 12:19:49.821, 11, 0.00, 0.12, 98, 0.100, 0.500, -43.400, 1528, 100, 98, 25, 23517, -19030, 5194, 5301, 21, 14, 1530991189.821, 118, 0, 1024, 1024, 1024, 1024, 0, 6, 3913, 3910, 3906, 3930, 3924, 3921, 0, 1, 13400, -90.000, 0.000, -43.800, 0.000, 0.000, -2.900, 0.0, , , , , , 95, , , 59, 59, 59
38.5270977, -120.3542664, 23.100, 12:19:49.920, 11, 0.00, 0.12, 98, 0.100, 0.500, -43.400, 1528, 100, 98, 25, 23517, -19030, 5194, 5301, 21, 14, 1530991189.920, 217, 0, 1024, 1024, 1024, 1024, 0, 6, 3913, 3910, 3906, 3930, 3924, 3921, 0, 1, 13499, -90.000, 0.000, -43.800, 0.000, 0.000, -2.900, 0.0, , , , , , 95, , , 59, 59, 59
38.5270976, -120.3542667, 23.800, 12:19:50.020, 11, 0.00, 0.11, 98, 0.000, 0.300, -43.200, 1528, 100, 98, 25, 23517, -19030, 5194, 5301, 21, 14, 1530991190.020, 78, 0, 1024, 1024, 1024, 1024, 0, 6, 3913, 3910, 3906, 3930, 3924, 3921, 0, 1, 13599, -89.900, 0.000, -43.800, 0.000, 0.000, -3.000, 0.0, , , , , , 95, , , 59, 59, 59
38.5270975, -120.3542668, 24.100, 12:19:50.120, 11, 0.00, 0.12, 98, 0.100, 0.200, -43.200, 1528, 100, 98, 25, 23517, -19030, 5194, 5301, 21, 14, 1530991190.120, 81, 0, 1024, 1024, 1024, 1024, 0, 6, 3913, 3910, 3906, 3930, 3924, 3921, 0, 1, 13699, -90.000, 0.000, -43.800, 0.000, 0.000, -3.000, 0.0, , , , , , 95, , , 59, 59, 59
38.5270974, -120.3542669, 24.400, 12:19:50.220, 11, 0.00, 0.13, 98, 0.400, 0.300, -43.200, 1528, 100, 98, 25, 23517, -19030, 5194, 5301, 21, 14, 1530991190.220, 72, 0, 1024, 1024, 1024, 1024, 0, 6, 3913, 3910, 3906, 3930, 3924, 3921, 0, 1, 13800, -89.900, 0.000, -43.800, 0.000, 0.000, -3.000, 0.0, , , , , , 95, , , 59, 59, 59
38.5270973, -120.3542670, 24.700, 12:19:50.320, 11, 0.00, 0.13, 98, 0.800, 0.300, -43.200, 1528, 100, 98, 25, 23517, -19030, 5194, 5301, 21, 14, 1530991190.320, 49, 0, 1024, 1024, 1024, 1024, 0, 6, 3913, 3910, 3906, 3930, 3924, 3921, 0, 1, 13899, -90.000, 0.000, -43.800, 0.000, 0.000, -2.900, 0.0, , , , , , 95, , , 59, 59, 59
38.5270972, -120.3542671, 25.000, 12:19:50.420, 12, 0.00, 0.14, 98, 0.800, 0.100, -43.300, 1528, 100, 98, 25, 23517, -19030, 5194, 5301, 21, 14, 1530991190.420, 55, 0, 1024, 1024, 1024, 1024, 0, 6, 3913, 3910, 3906, 3930, 3924, 3921, 0, 1, 13999, -90.000, 0.000, -43.800, 0.000, 0.000, -3.000, 0.0, , , , , , 95, , , 59, 59, 59
38.5270971, -120.3542672, 25.300, 12:19:50.520, 12, 0.00, 0.14, 98, 0.700, 0.000, -43.300, 1528, 100, 98, 25, 23517, -19030, 5194, 5301, 21, 14, 1530991190.520, 60, 0, 1024, 1024, 1024, 1024, 0, 6, 3913, 3910, 3906, 3930, 3924, 3921, 0, 1, 14099, -90.000, 0.000, -43.800, 0.000, 0.000, -3.000, 0.0, , , , , , 95, , , 59, 59, 59
38.5270971, -120.3542672, 25.600, 12:19:50.620, 11, 0.00, 0.15, 98, 0.600, -0.100, -43.300, 1528, 100, 98, 25, 23454, -19356, 5194, 5301, 21, 14, 1530991190.620, 63, 0, 1024, 1024, 1024, 1024, 0, 6, 3905, 3899, 3897, 3926, 3914, 3910, 0, 1, 14199, -90.000, 0.000, -43.800, 0.000, 0.000, -2.900, 0.0, , , , , , 95, , , 59, 59, 59
38.5270970, -120.3542672, 25.900, 12:19:50.720, 11, 0.00, 0.15, 98, 0.500, -0.100, -43.200, 1528, 100, 97, 25, 23454, -19356, 5194, 5301, 21, 14, 1530991190.720, 50, 0, 1024, 1024, 1024, 1024, 0, 6, 3905, 3899, 3897, 3926, 3914, 3910, 0, 1, 14299, -90.000, 0.000, -43.800, 0.000, 0.000, -2.900, 0.0, , , , , , 95, , , 59, 59, 59
38.5270970, -120.3542671, 26.200, 12:19:50.820, 12, 0.00, 0.16, 98, 0.400, 0.000, -43.200, 1528, 100, 97, 25, 23454, -19356, 5194, 5301, 21, 14, 1530991190.820, 41, 0, 1024, 1024, 1024, 1024, 0, 6, 3905, 3899, 3897, 3926, 3914, 3910, 0, 1, 14399, -90.000, 0.000, -43.800, 0.000, 0.000, -2.900, 0.0, , , , , , 95, , , 59, 59, 59
38.5270970, -120.3542672, 26.500, 12:19:50.920, 12, 0.00, 0.16, 98, 0.200, -0.100, -43.200, 1528, 100, 97, 25, 23454, -19356, 5194, 5301, 21, 14, 1530991190.920, 53, 0, 1024, 1024, 1024, 1024, 0, 6, 3905, 3899, 3897, 3926, 3914, 3910, 0, 1, 14499, -90.000, 0.000, -43.800, 0.000, 0.000, -3.000, 0.0, , , , , , 95, , , 59, 59, 59
38.5270970, -120.3542672, 26.800, 12:19:51.020, 12, 0.00, 0.16, 98, 0.100, 0.000, -43.200, 1528, 100, 97, 25, 23454, -19356, 5194, 5301, 21, 14, 1530991191.020, 34, 0, 1024, 1024, 1024, 1024, 0, 6, 3905, 3899, 3897, 3926, 3914, 3910, 0, 1, 14599, -90.000, 0.000, -43.800, 0.000, 0.000, -3.000, 0.0, , , , , , 95, , , 59, 59, 59
38.5270969, -120.3542672, 27.400, 12:19:51.120, 12, 0.00, 0.17, 98, 0.400, 0.000, -43.200, 1528, 100, 97, 25, 23454, -19356, 5194, 5301, 21, 14, 1530991191.120, 27, 0, 1024, 1024, 1024, 1024, 0, 6, 3905, 3899, 3897, 3926, 3914, 3910, 0, 1, 14699, -89.900, 0.000, -43.800, 0.000, 0.000, -2.900, 0.0, , , , , , 95, , , 59, 59, 59
38.5270969, -120.3542672, 27.400, 12:19:51.221, 12, 0.00, 0.17, 98, 0.400, 0.000, -43.200, 1528, 100, 98, 25, 23454, -19356, 5194, 5301, 21, 14, 1530991191.221, 129, 0, 1024, 1024, 1024, 1024, 0, 6, 3905, 3899, 3897, 3926, 3914, 3910, 0, 1, 14801, -89.900, 0.000, -43.800, 0.000, 0.000, -2.900, 0.0, , , , , , 95, , , 59, 59, 59
38.5270969, -120.3542672, 28.000, 12:19:51.320, 12, 0.00, 0.16, 98, 0.300, 0.100, -43.400, 1528, 100, 98, 25, 23454, -19356, 5194, 5301, 21, 14, 1530991191.320, 12, 0, 1024, 1024, 1024, 1024, 0, 6, 3905, 3899, 3897, 3926, 3914, 3910, 0, 1, 14899, -89.900, 0.000, -43.800, 0.000, 0.000, -2.900, 0.0, , , , , , 95, , , 59, 59, 59
38.5270970, -120.3542672, 28.300, 12:19:51.421, 12, 0.00, 0.16, 98, 0.300, 0.400, -43.500, 1528, 100, 98, 25, 23454, -19356, 5194, 5301, 21, 14, 1530991191.421, 6, 0, 1024, 1024, 1024, 1024, 0, 6, 3905, 3899, 3897, 3926, 3914, 3910, 0, 1, 15000, -89.900, 0.000, -43.800, 0.000, 0.000, -2.900, 0.0, , , , , , 95, , , 59, 59, 59
38.5270970, -120.3542671, 28.600, 12:19:51.520, 12, 0.00, 0.16, 98, 0.300, 0.400, -43.600, 1528, 100, 98, 25, 23454, -19356, 5194, 5301, 21, 14, 1530991191.520, 9, 0, 1024, 1024, 1024, 1024, 0, 6, 3905, 3899, 3897, 3926, 3914, 3910, 0, 1, 15099, -89.900, 0.000, -43.800, 0.000, 0.000, -2.900, 0.0, , , , , , 95, , , 59, 59, 59
38.5270970, -120.3542671, 28.600, 12:19:51.620, 12, 0.00, 0.16, 98, 0.300, 0.400, -43.600, 1528, 100, 98, 25, 23454, -19356, 5194, 5301, 21, 14, 1530991191.620, 109, 0, 1024, 1024, 1024, 1024, 0, 6, 3905, 3899, 3897, 3926, 3914, 3910, 0, 1, 15199, -89.900, 0.000, -43.800, 0.000, 0.000, -2.900, 0.0, , , , , , 95, , , 59, 59, 59
38.5270970, -120.3542671, 29.200, 12:19:51.722, 11, 0.10, 0.16, 98, -0.100, 0.000, -43.500, 1528, 100, 99, 25, 23455, -18925, 5141, 5301, 21, 14, 1530991191.722, 2, 0, 1024, 1024, 1024, 1024, 0, 6, 3903, 3898, 3899, 3930, 3909, 3912, 0, 1, 15301, -90.000, 0.000, -43.800, 0.100, 0.000, -3.000, 0.0, , , , , , 95, , , 59, 59, 59
38.5270970, -120.3542671, 29.200, 12:19:51.820, 11, 0.10, 0.16, 98, -0.100, 0.000, -43.500, 1528, 100, 99, 25, 23455, -18925, 5141, 5301, 21, 14, 1530991191.820, 101, 0, 1024, 1024, 1024, 1024, 0, 6, 3903, 3898, 3899, 3930, 3909, 3912, 0, 1, 15399, -90.000, 0.000, -43.800, 0.100, 0.000, -3.000, 0.0, , , , , , 95, , , 59, 59, 59
38.5270970, -120.3542670, 29.500, 12:19:51.920, 11, 0.10, 0.16, 98, -0.700, 0.000, -43.400, 1528, 100, 99, 25, 23455, -18925, 5141, 5301, 21, 14, 1530991191.920, 84, 0, 1024, 1024, 1024, 1024, 0, 6, 3903, 3898, 3899, 3930, 3909, 3912, 0, 1, 15499, -90.000, 0.000, -43.800, 0.100, 0.000, -3.000, 0.0, , , , , , 95, , , 59, 59, 59
38.5270971, -120.3542670, 29.800, 12:19:52.020, 12, 0.10, 0.16, 98, -1.100, 0.200, -43.400, 1528, 100, 99, 25, 23455, -18925, 5141, 5301, 21, 14, 1530991192.020, 89, 0, 1024, 1024, 1024, 1024, 0, 6, 3903, 3898, 3899, 3930, 3909, 3912, 0, 1, 15599, -89.900, 0.000, -43.800, 0.100, 0.000, -2.900, 0.0, , , , , , 95, , , 59, 59, 59
38.5270971, -120.3542669, 30.100, 12:19:52.120, 12, 0.10, 0.15, 98, -1.200, 0.300, -43.400, 1528, 100, 99, 25, 23455, -18925, 5141, 5301, 21, 14, 1530991192.120, 74, 0, 1024, 1024, 1024, 1024, 0, 6, 3903, 3898, 3899, 3930, 3909, 3912, 0, 1, 15699, -89.900, 0.000, -43.800, 0.100, 0.000, -2.800, 0.0, , , , , , 95, , , 59, 59, 59
38.5270971, -120.3542669, 30.400, 12:19:52.220, 12, 0.00, 0.15, 98, -0.700, 0.300, -43.400, 1528, 100, 99, 25, 23455, -18925, 5141, 5301, 21, 14, 1530991192.220, 73, 0, 1024, 1024, 1024, 1024, 0, 6, 3903, 3898, 3899, 3930, 3909, 3912, 0, 1, 15799, -89.900, 0.000, -43.800, 0.000, 0.000, -2.900, 0.0, , , , , , 95, , , 59, 59, 59
38.5270972, -120.3542668, 30.700, 12:19:52.320, 12, 0.00, 0.15, 98, -0.500, 0.200, -43.400, 1528, 100, 99, 25, 23455, -18925, 5141, 5301, 21, 14, 1530991192.320, 75, 0, 1024, 1024, 1024, 1024, 0, 6, 3903, 3898, 3899, 3930, 3909, 3912, 0, 1, 15899, -89.900, 0.000, -43.800, 0.000, 0.000, -2.900, 0.0, , , , , , 95, , , 59, 59, 59
38.5270973, -120.3542667, 31.000, 12:19:52.420, 12, 0.10, 0.14, 98, -0.700, 0.100, -43.500, 1528, 100, 99, 25, 23455, -18925, 5141, 5301, 21, 14, 1530991192.420, 65, 0, 1024, 1024, 1024, 1024, 0, 6, 3903, 3898, 3899, 3930, 3909, 3912, 0, 1, 15999, -90.000, 0.000, -43.800, 0.100, 0.000, -2.900, 0.0, , , , , , 95, , , 59, 59, 59
38.5270973, -120.3542667, 31.300, 12:19:52.520, 12, 0.10, 0.14, 98, -1.100, -0.100, -43.600, 1528, 100, 99, 25, 23455, -18925, 5141, 5301, 21, 14, 1530991192.520, 58, 0, 1024, 1024, 1024, 1024, 0, 6, 3903, 3898, 3899, 3930, 3909, 3912, 0, 1, 16099, -90.000, 0.000, -43.800, 0.100, 0.000, -3.000, 0.0, , , , , , 95, , , 59, 59, 59
38.5270973, -120.3542666, 31.600, 12:19:52.620, 11, 0.10, 0.15, 97, -1.000, -0.100, -43.700, 1528, 100, 99, 25, 23426, -18848, 5141, 5301, 21, 14, 1530991192.620, 58, 0, 1024, 1024, 1024, 1024, 0, 6, 3903, 3898, 3899, 3930, 3909, 3912, 0, 1, 16199, -89.900, 0.000, -43.800, 0.100, 0.000, -2.900, 0.0, , , , , , 95, , , 59, 59, 59
38.5270973, -120.3542665, 31.900, 12:19:52.720, 11, 0.10, 0.15, 97, -1.100, 0.000, -43.700, 1528, 100, 100, 25, 23426, -18848, 5141, 5301, 21, 14, 1530991192.720, 44, 0, 1024, 1024, 1024, 1024, 0, 6, 3903, 3898, 3899, 3930, 3909, 3912, 0, 1, 16299, -89.900, 0.000, -43.800, 0.100, 0.000, -2.900, 0.0, , , , , , 95, , , 59, 59, 59
38.5270974, -120.3542664, 32.200, 12:19:52.821, 12, 0.00, 0.15, 97, -1.400, 0.000, -43.600, 1528, 100, 100, 25, 23426, -18848, 5141, 5301, 21, 14, 1530991192.821, 49, 0, 1024, 1024, 1024, 1024, 0, 6, 3903, 3898, 3899, 3930, 3909, 3912, 0, 1, 16400, -90.000, 0.000, -43.800, 0.000, 0.000, -2.800, 0.0, , , , , , 95, , , 59, 59, 59
38.5270974, -120.3542663, 32.500, 12:19:52.920, 12, 0.10, 0.15, 97, -1.300, 0.000, -43.500, 1528, 100, 100, 25, 23426, -18848, 5141, 5301, 21, 14, 1530991192.920, 49, 0, 1024, 1024, 1024, 1024, 0, 6, 3903, 3898, 3899, 3930, 3909, 3912, 0, 1, 16499, -89.900, 0.000, -43.800, 0.100, 0.000, -2.800, 0.0, , , , , , 95, , , 59, 59, 59
38.5270975, -120.3542663, 32.800, 12:19:53.020, 12, 0.10, 0.16, 97, -1.500, 0.100, -43.400, 1528, 100, 100, 25, 23426, -18848, 5141, 5301, 21, 14, 1530991193.020, 29, 0, 1024, 1024, 1024, 1024, 0, 6, 3903, 3898, 3899, 3930, 3909, 3912, 0, 1, 16599, -89.900, 0.000, -43.800, 0.100, 0.000, -2.900, 0.0, , , , , , 95, , , 59, 59, 59
38.5270975, -120.3542662, 33.100, 12:19:53.120, 12, 0.10, 0.15, 97, -1.500, 0.000, -43.400, 1528, 100, 100, 25, 23426, -18848, 5141, 5301, 21, 14, 1530991193.120, 22, 0, 1024, 1024, 1024, 1024, 0, 6, 3904, 3898, 3882, 3922, 3902, 3907, 0, 1, 16700, -89.900, 0.000, -43.800, 0.100, 0.000, -2.900, 0.0, , , , , , 95, , , 59, 59, 59
38.5270977, -120.3542660, 33.700, 12:19:53.220, 12, 0.10, 0.15, 97, -2.100, 0.300, -43.500, 1528, 100, 99, 25, 23426, -18848, 5141, 5301, 21, 14, 1530991193.221, 14, 0, 1024, 1024, 1024, 1024, 0, 6, 3904, 3898, 3882, 3922, 3902, 3907, 0, 1, 16800, -89.900, 0.000, -43.800, 0.100, 0.000, -3.000, 0.0, , , , , , 95, , , 59, 59, 59
38.5270979, -120.3542659, 34.000, 12:19:53.320, 13, 0.10, 0.15, 97, -2.500, 0.400, -43.600, 1528, 100, 99, 25, 23426, -18848, 5141, 5301, 21, 14, 1530991193.321, 32, 0, 1024, 1024, 1024, 1024, 0, 6, 3904, 3898, 3882, 3922, 3902, 3907, 0, 1, 16900, -89.900, 0.000, -43.800, 0.100, 0.000, -2.900, 0.0, , , , , , 95, , , 59, 59, 59
38.5270979, -120.3542659, 34.000, 12:19:53.420, 13, 0.10, 0.15, 97, -2.500, 0.400, -43.600, 1528, 100, 99, 25, 23426, -18848, 5141, 5301, 21, 14, 1530991193.420, 131, 0, 1024, 1024, 1024, 1024, 0, 6, 3904, 3898, 3882, 3922, 3902, 3907, 0, 1, 16999, -89.900, 0.000, -43.800, 0.100, 0.000, -2.900, 0.0, , , , , , 95, , , 59, 59, 59
38.5270980, -120.3542658, 34.600, 12:19:53.521, 13, 0.10, 0.16, 97, -3.100, 0.400, -43.700, 1528, 100, 99, 25, 23426, -18848, 5141, 5301, 21, 14, 1530991193.522, 8, 0, 1024, 1024, 1024, 1024, 0, 6, 3904, 3898, 3882, 3922, 3902, 3907, 0, 1, 17101, -89.900, 0.000, -43.800, 0.100, 0.000, -3.000, 0.0, , , , , , 95, , , 59, 59, 59
38.5270980, -120.3542658, 34.600, 12:19:53.620, 13, 0.10, 0.16, 97, -3.100, 0.400, -43.700, 1528, 100, 99, 25, 23426, -18848, 5141, 5301, 21, 14, 1530991193.620, 106, 0, 1024, 1024, 1024, 1024, 0, 6, 3904, 3898, 3882, 3922, 3902, 3907, 0, 1, 17199, -89.900, 0.000, -43.800, 0.100, 0.000, -3.000, 0.0, , , , , , 95, , , 59, 59, 59
38.5270981, -120.3542657, 35.300, 12:19:53.724, 13, 0.00, 0.16, 97, -3.000, 0.400, -43.500, 1528, 100, 99, 25, 23426, -18848, 5141, 5301, 21, 14, 1530991193.725, 3, 0, 1024, 1024, 1024, 1024, 0, 6, 3904, 3898, 3882, 3922, 3902, 3907, 0, 1, 17304, -89.900, 0.000, -43.800, 0.000, 0.000, -2.900, 0.0, , , , , , 95, , , 59, 59, 59
38.5270982, -120.3542657, 35.500, 12:19:53.822, 13, 0.00, 0.16, 97, -2.500, 0.400, -43.400, 1528, 100, 99, 25, 23426, -18848, 5141, 5301, 21, 14, 1530991193.822, 2, 0, 1024, 1024, 1024, 1024, 0, 6, 3904, 3898, 3882, 3922, 3902, 3907, 0, 1, 17401, -89.900, 0.000, -43.800, 0.000, 0.000, -2.800, 0.0, , , , , , 95, , , 59, 59, 59
38.5270982, -120.3542657, 35.800, 12:19:53.921, 13, 0.00, 0.16, 97, -2.000, 0.600, -43.300, 1528, 100, 99, 25, 23426, -18848, 5141, 5301, 21, 14, 1530991193.921, 5, 0, 1024, 1024, 1024, 1024, 0, 6, 3904, 3898, 3882, 3922, 3902, 3907, 0, 1, 17500, -89.900, 0.000, -43.800, 0.000, 0.000, -2.800, 0.0, , , , , , 95, , , 59, 59, 59
38.5270982, -120.3542657, 35.800, 12:19:54.020, 13, 0.00, 0.16, 97, -2.000, 0.600, -43.300, 1528, 100, 99, 25, 23426, -18848, 5141, 5301, 21, 14, 1530991194.021, 104, 0, 1024, 1024, 1024, 1024, 0, 6, 3904, 3898, 3882, 3922, 3902, 3907, 0, 1, 17600, -89.900, 0.000, -43.800, 0.000, 0.000, -2.800, 0.0, , , , , , 95, , , 59, 59, 59
38.5270983, -120.3542657, 36.400, 12:19:54.130, 13, 0.00, 0.16, 97, -1.700, 0.700, -43.000, 1528, 100, 99, 25, 23372, -19138, 5141, 5301, 21, 14, 1530991194.130, 6, 0, 1024, 1024, 1024, 1024, 0, 6, 3895, 3884, 3878, 3917, 3898, 3896, 0, 1, 17709, -89.900, 0.000, -43.800, 0.000, 0.000, -2.900, 0.0, , , , , , 95, , , 59, 59, 59
38.5270983, -120.3542657, 36.400, 12:19:54.220, 13, 0.00, 0.16, 97, -1.700, 0.700, -43.000, 1528, 100, 99, 25, 23372, -19138, 5141, 5301, 21, 14, 1530991194.220, 97, 0, 1024, 1024, 1024, 1024, 0, 6, 3895, 3884, 3878, 3917, 3898, 3896, 0, 1, 17799, -89.900, 0.000, -43.800, 0.000, 0.000, -2.900, 0.0, , , , , , 95, , , 59, 59, 59
38.5270983, -120.3542657, 36.700, 12:19:54.320, 13, 0.00, 0.16, 97, -1.900, 0.600, -42.900, 1528, 100, 99, 25, 23372, -19138, 5141, 5301, 21, 14, 1530991194.320, 93, 0, 1024, 1024, 1024, 1024, 0, 6, 3895, 3884, 3878, 3917, 3898, 3896, 0, 1, 17899, -90.000, 0.000, -43.800, 0.000, 0.000, -2.900, 0.0, , , , , , 95, , , 59, 59, 59
38.5270984, -120.3542657, 37.000, 12:19:54.420, 13, 0.00, 0.16, 97, -2.100, 0.500, -43.000, 1528, 100, 99, 25, 23372, -19138, 5141, 5301, 21, 14, 1530991194.421, 91, 0, 1024, 1024, 1024, 1024, 0, 6, 3895, 3884, 3878, 3917, 3898, 3896, 0, 1, 18000, -90.000, 0.000, -43.800, 0.000, 0.000, -2.900, 0.0, , , , , , 95, , , 59, 59, 59
38.5270984, -120.3542657, 37.300, 12:19:54.520, 13, 0.00, 0.17, 97, -2.400, 0.400, -43.100, 1528, 100, 99, 25, 23372, -19138, 5141, 5301, 21, 14, 1530991194.521, 80, 0, 1024, 1024, 1024, 1024, 0, 6, 3895, 3884, 3878, 3917, 3898, 3896, 0, 1, 18100, -90.000, 0.000, -43.800, 0.000, 0.000, -2.900, 0.0, , , , , , 95, , , 59, 59, 59
38.5270984, -120.3542657, 37.600, 12:19:54.620, 13, 0.00, 0.17, 97, -2.700, 0.100, -43.200, 1528, 100, 99, 25, 23372, -19138, 5141, 5301, 21, 14, 1530991194.620, 84, 0, 1024, 1024, 1024, 1024, 0, 6, 3895, 3884, 3878, 3917, 3898, 3896, 0, 1, 18199, -90.000, 0.000, -43.800, 0.000, 0.000, -3.000, 0.0, , , , , , 95, , , 59, 59, 59
38.5270984, -120.3542656, 38.000, 12:19:54.720, 13, 0.00, 0.17, 97, -3.100, 0.000, -43.300, 1528, 100, 99, 25, 23372, -19138, 5141, 5301, 21, 14, 1530991194.720, 74, 0, 1024, 1024, 1024, 1024, 0, 6, 3895, 3884, 3878, 3917, 3898, 3896, 0, 1, 18299, -90.000, 0.000, -43.800, 0.000, 0.000, -3.000, 0.0, , , , , , 95, , , 59, 59, 59
38.5270984, -120.3542656, 38.300, 12:19:54.820, 13, 0.00, 0.17, 97, -3.300, 0.100, -43.300, 1528, 100, 99, 25, 23372, -19138, 5141, 5301, 21, 14, 1530991194.820, 64, 0, 1024, 1024, 1024, 1024, 0, 6, 3895, 3884, 3878, 3917, 3898, 3896, 0, 1, 18399, -90.000, 0.000, -43.800, 0.000, 0.000, -3.000, 0.0, , , , , , 95, , , 59, 59, 59
38.5270985, -120.3542656, 38.600, 12:19:54.920, 13, 0.00, 0.18, 97, -3.400, 0.100, -43.300, 1528, 100, 99, 25, 23372, -19138, 5141, 5301, 21, 14, 1530991194.921, 51, 0, 1024, 1024, 1024, 1024, 0, 6, 3895, 3884, 3878, 3917, 3898, 3896, 0, 1, 18500, -90.000, 0.000, -43.800, 0.000, 0.000, -3.000, 0.0, , , , , , 95, , , 59, 59, 59
38.5270985, -120.3542655, 38.900, 12:19:55.020, 13, 0.00, 0.18, 97, -3.300, 0.100, -43.200, 1528, 100, 99, 25, 23372, -19138, 5141, 5301, 21, 14, 1530991195.020, 56, 0, 1024, 1024, 1024, 1024, 0, 6, 3895, 3884, 3878, 3917, 3898, 3896, 0, 1, 18599, -90.000, 0.000, -43.800, 0.000, 0.000, -3.000, 0.0, , , , , , 95, , , 59, 59, 59
38.5270985, -120.3542655, 39.200, 12:19:55.120, 13, 0.00, 0.18, 97, -3.300, 0.200, -43.200, 1528, 100, 99, 25, 23372, -19138, 5141, 5301, 21, 14, 1530991195.121, 69, 0, 1024, 1024, 1024, 1024, 0, 6, 3895, 3884, 3878, 3917, 3898, 3896, 0, 1, 18700, -89.900, 0.000, -43.800, 0.000, 0.000, -3.000, 0.0, , , , , , 95, , , 59, 59, 59
38.5270985, -120.3542655, 39.500, 12:19:55.220, 13, 0.00, 0.18, 97, -3.200, 0.100, -43.100, 1528, 100, 99, 25, 23372, -19138, 5141, 5301, 21, 14, 1530991195.221, 28, 0, 1024, 1024, 1024, 1024, 0, 6, 3895, 3884, 3878, 3917, 3898, 3896, 0, 1, 18800, -90.000, 0.000, -43.800, 0.000, 0.000, -2.900, 0.0, , , , , , 95, , , 59, 59, 59
38.5270985, -120.3542655, 39.800, 12:19:55.320, 13, 0.00, 0.19, 97, -3.300, 0.100, -43.100, 1528, 100, 99, 25, 23372, -19138, 5141, 5301, 21, 14, 1530991195.320, 50, 0, 1024, 1024, 1024, 1024, 0, 6, 3895, 3884, 3878, 3917, 3898, 3896, 0, 1, 18899, -90.000, 0.000, -43.800, 0.000, 0.000, -2.900, 0.0, , , , , , 95, , , 59, 59, 59
38.5270986, -120.3542654, 40.500, 12:19:55.420, 13, 0.00, 0.20, 97, -3.600, 0.000, -43.300, 1528, 100, 99, 25, 23372, -19138, 5141, 5301, 21, 14, 1530991195.421, 11, 0, 1024, 1024, 1024, 1024, 0, 6, 3895, 3884, 3878, 3917, 3898, 3896, 0, 1, 19000, -90.000, 0.000, -43.800, 0.000, 0.000, -2.900, 0.0, , , , , , 95, , , 59, 59, 59
38.5270986, -120.3542653, 40.700, 12:19:55.520, 13, 0.00, 0.20, 97, -3.700, 0.000, -43.400, 1528, 100, 99, 25, 23372, -19138, 5141, 5301, 21, 14, 1530991195.520, 29, 0, 1024, 1024, 1024, 1024, 0, 6, 3895, 3884, 3878, 3917, 3898, 3896, 0, 1, 19099, -89.900, 0.000, -43.800, 0.000, 0.000, -2.800, 0.0, , , , , , 95, , , 59, 59, 59
38.5270986, -120.3542653, 41.000, 12:19:55.620, 13, 0.00, 0.20, 97, -3.600, 0.000, -43.400, 1528, 100, 99, 25, 23350, -19179, 5141, 5301, 21, 14, 1530991195.620, 29, 0, 1024, 1024, 1024, 1024, 0, 6, 3889, 3883, 3879, 3911, 3898, 3894, 0, 1, 19199, -89.900, 0.000, -43.800, 0.000, 0.000, -2.800, 0.0, , , , , , 95, , , 59, 59, 59
38.5270986, -120.3542653, 41.300, 12:19:55.720, 13, 0.00, 0.20, 97, -3.600, 0.000, -43.300, 1528, 100, 99, 25, 23350, -19179, 5141, 5301, 21, 14, 1530991195.720, 22, 0, 1024, 1024, 1024, 1024, 0, 6, 3889, 3883, 3879, 3911, 3898, 3894, 0, 1, 19299, -89.900, 0.000, -43.800, 0.000, 0.000, -2.800, 0.0, , , , , , 95, , , 59, 59, 59
38.5270986, -120.3542652, 41.600, 12:19:55.820, 13, 0.00, 0.21, 97, -3.500, 0.000, -43.100, 1528, 100, 99, 25, 23350, -19179, 5141, 5301, 21, 14, 1530991195.820, 26, 0, 1024, 1024, 1024, 1024, 0, 6, 3889, 3883, 3879, 3911, 3898, 3894, 0, 1, 19399, -90.000, 0.000, -43.800, 0.000, 0.000, -2.700, 0.0, , , , , , 95, , , 59, 59, 59
38.5270986, -120.3542651, 41.900, 12:19:55.920, 13, 0.00, 0.22, 97, -3.200, 0.000, -43.100, 1528, 100, 99, 25, 23350, -19179, 5141, 5301, 21, 14, 1530991195.920, 27, 0, 1024, 1024, 1024, 1024, 0, 6, 3889, 3883, 3879, 3911, 3898, 3894, 0, 1, 19499, -90.000, 0.000, -43.800, 0.000, 0.000, -2.800, 0.0, , , , , , 95, , , 59, 59, 59
38.5270986, -120.3542651, 42.100, 12:19:56.020, 13, 0.00, 0.22, 97, -3.200, 0.000, -43.000, 1528, 100, 99, 25, 23350, -19179, 5141, 5301, 21, 14, 1530991196.021, 6, 0, 1024, 1024, 1024, 1024, 0, 6, 3889, 3883, 3879, 3911, 3898, 3894, 0, 1, 19600, -89.900, 0.000, -43.800, 0.000, 0.000, -2.800, 0.0, , , , , , 95, , , 59, 59, 59
38.5270986, -120.3542651, 42.100, 12:19:56.120, 13, 0.00, 0.22, 97, -3.200, 0.000, -43.000, 1528, 100, 99, 25, 23350, -19179, 5141, 5301, 21, 14, 1530991196.120, 106, 0, 1024, 1024, 1024, 1024, 0, 6, 3889, 3883, 3879, 3911, 3898, 3894, 0, 1, 19699, -89.900, 0.000, -43.800, 0.000, 0.000, -2.800, 0.0, , , , , , 95, , , 59, 59, 59
38.5270985, -120.3542651, 42.700, 12:19:56.220, 13, 0.00, 0.21, 97, -3.100, -0.100, -42.800, 1528, 100, 99, 25, 23307, -18426, 5141, 5301, 21, 14, 1530991196.220, 10, 0, 1024, 1024, 1024, 1024, 0, 6, 3897, 3894, 3884, 3916, 3899, 3894, 0, 1, 19799, -90.000, 0.000, -43.800, 0.000, 0.000, -2.900, 0.0, , , , , , 95, , , 59, 59, 59
38.5270985, -120.3542651, 42.700, 12:19:56.320, 13, 0.00, 0.21, 97, -3.100, -0.100, -42.800, 1528, 100, 99, 25, 23307, -18426, 5141, 5301, 21, 14, 1530991196.321, 111, 0, 1024, 1024, 1024, 1024, 0, 6, 3897, 3894, 3884, 3916, 3899, 3894, 0, 1, 19900, -90.000, 0.000, -43.800, 0.000, 0.000, -2.900, 0.0, , , , , , 95, , , 59, 59, 59
38.5270985, -120.3542652, 43.000, 12:19:56.420, 13, 0.00, 0.21, 97, -3.100, -0.200, -42.800, 1528, 100, 99, 25, 23307, -18426, 5141, 5301, 21, 14, 1530991196.420, 91, 0, 1024, 1024, 1024, 1024, 0, 6, 3897, 3894, 3884, 3916, 3899, 3894, 0, 1, 19999, -90.000, 0.000, -43.800, 0.000, 0.000, -2.900, 0.0, , , , , , 95, , , 59, 59, 59
38.5270985, -120.3542651, 43.300, 12:19:56.520, 13, 0.00, 0.22, 97, -3.300, -0.300, -42.900, 1528, 100, 99, 25, 23307, -18426, 5141, 5301, 21, 14, 1530991196.520, 98, 0, 1024, 1024, 1024, 1024, 0, 6, 3897, 3894, 3884, 3916, 3899, 3894, 0, 1, 20099, -90.000, 0.000, -43.800, 0.000, 0.000, -2.900, 0.0, , , , , , 95, , , 59, 59, 59
38.5270986, -120.3542651, 43.700, 12:19:56.620, 13, 0.00, 0.22, 97, -3.700, -0.400, -43.100, 1528, 100, 99, 25, 23307, -18426, 5141, 5301, 21, 14, 1530991196.620, 93, 0, 1024, 1024, 1024, 1024, 0, 6, 3897, 3894, 3884, 3916, 3899, 3894, 0, 1, 20199, -90.000, 0.000, -43.800, 0.000, 0.000, -3.000, 0.0, , , , , , 95, , , 59, 59, 59
38.5270986, -120.3542651, 44.000, 12:19:56.720, 13, 0.00, 0.22, 97, -4.000, -0.300, -43.300, 1528, 100, 98, 25, 23307, -18426, 5141, 5301, 21, 14, 1530991196.720, 97, 0, 1024, 1024, 1024, 1024, 0, 6, 3897, 3894, 3884, 3916, 3899, 3894, 0, 1, 20299, -89.900, 0.000, -43.800, 0.000, 0.000, -3.000, 0.0, , , , , , 95, , , 59, 59, 59
38.5270986, -120.3542651, 44.300, 12:19:56.820, 13, 0.00, 0.22, 97, -4.200, -0.100, -43.500, 1528, 100, 98, 25, 23307, -18426, 5141, 5301, 21, 14, 1530991196.820, 90, 0, 1024, 1024, 1024, 1024, 0, 6, 3897, 3894, 3884, 3916, 3899, 3894, 0, 1, 20399, -89.900, 0.000, -43.800, 0.000, 0.000, -2.900, 0.0, , , , , , 95, , , 59, 59, 59
38.5270986, -120.3542651, 44.600, 12:19:56.920, 13, 0.00, 0.22, 97, -4.200, 0.000, -43.600, 1528, 100, 98, 25, 23307, -18426, 5141, 5301, 21, 14, 1530991196.920, 90, 0, 1024, 1024, 1024, 1024, 0, 6, 3897, 3894, 3884, 3916, 3899, 3894, 0, 1, 20499, -89.900, 0.000, -43.800, 0.000, 0.000, -2.900, 0.0, , , , , , 95, , , 59, 59, 59
38.5270986, -120.3542651, 44.900, 12:19:57.020, 13, 0.00, 0.22, 97, -4.100, 0.300, -43.600, 1528, 100, 98, 25, 23307, -18426, 5141, 5301, 21, 14, 1530991197.020, 55, 0, 1024, 1024, 1024, 1024, 0, 6, 3897, 3894, 3884, 3916, 3899, 3894, 0, 1, 20599, -89.900, 0.000, -43.800, 0.000, 0.000, -2.900, 0.0, , , , , , 95, , , 59, 59, 59
38.5270987, -120.3542651, 45.100, 12:19:57.120, 13, 0.00, 0.22, 97, -4.000, 0.300, -43.600, 1528, 100, 98, 25, 23345, -18684, 5141, 5301, 21, 14, 1530991197.120, 70, 0, 1024, 1024, 1024, 1024, 0, 6, 3891, 3884, 3877, 3911, 3898, 3896, 0, 1, 20699, -89.900, 0.000, -43.800, 0.000, 0.000, -2.800, 0.0, , , , , , 95, , , 59, 59, 59
38.5270987, -120.3542651, 45.400, 12:19:57.220, 13, 0.00, 0.22, 97, -3.800, 0.400, -43.600, 1528, 100, 98, 25, 23345, -18684, 5141, 5301, 21, 14, 1530991197.220, 55, 0, 1024, 1024, 1024, 1024, 0, 6, 3891, 3884, 3877, 3911, 3898, 3896, 0, 1, 20799, -89.900, 0.000, -43.800, 0.000, 0.000, -2.900, 0.0, , , , , , 95, , , 59, 59, 59
38.5270987, -120.3542651, 45.700, 12:19:57.320, 13, 0.00, 0.22, 97, -3.500, 0.400, -43.600, 1528, 100, 98, 25, 23345, -18684, 5141, 5301, 21, 14, 1530991197.320, 60, 0, 1024, 1024, 1024, 1024, 0, 6, 3891, 3884, 3877, 3911, 3898, 3896, 0, 1, 20899, -89.900, 0.000, -43.800, 0.000, 0.000, -2.900, 0.0, , , , , , 95, , , 59, 59, 59
