latitude,longitude,altitude(feet),ascent(feet),speed(mph),distance(feet),time(millisecond),datetime(utc),satellites,gpslevel,voltage(v),max_altitude(feet),max_ascent(feet),max_speed(mph),max_distance(feet), xSpeed(mph), ySpeed(mph), zSpeed(mph), compass_heading(degrees), pitch(degrees), roll(degrees),isPhoto,isVideo,rc_elevator,rc_aileron,rc_throttle,rc_rudder,gimbal_heading(degrees),gimbal_pitch(degrees),battery_percent,voltageCell1,voltageCell2,voltageCell3,voltageCell4,voltageCell5,voltageCell6,current(A),battery_temperature(f),flycStateRaw,flycState,message
38.5270816,-120.3543426,5046.5293757278,-0.328084,0,0,3130,2018-07-07 18:42:56,10,0,0,5046.5293757278,0,0,0,0,0,0,319.8, -0.5, 1.3,1,0,1024,1024,1024,1024,318.4,-89.9,92,4.045,4.045,4.07,4.051,3.971,4.011,0,73.4,11,AutoTakeoff,DJI_0786.jpg Starting Mission from Lat/Long: 38.52708/-120.35434 Camera: Zenmuse X3 - Overlap: 90/90 - Active Connection: No
38.5270816,-120.3543426,5046.5293757278,-0.328084,0,0,3300,2018-07-07 18:42:56,10,0,0,5046.5293757278,0,0,0,0,0,0,320.1, -0.1, 1.4,0,0,1024,1024,1024,1024,318.4,-89.9,92,4.045,4.045,4.07,4.051,3.971,4.011,0,73.4,11,AutoTakeoff,
38.5270817,-120.3543425,5046.8574597278,0,0,0.046323164212,3400,2018-07-07 18:42:56,10,0,0,5046.8574597278,0,0,0.046323164212,0,0,0,320.3, 0.1, 1.1,0,0,1024,1024,1024,1024,318.4,-89.9,92,4.045,4.045,4.07,4.051,3.971,4.011,0,73.4,11,AutoTakeoff,
38.5270818,-120.3543425,5046.8574597278,0,0,0.078353677048,3500,2018-07-07 18:42:56,10,0,0,5046.8574597278,0,0,0.078353677048,0,0,-0.223694,320.4, 0.4, 0.6,0,0,1024,1024,1024,1024,318.4,-89.9,92,4.045,4.045,4.07,4.051,3.971,4.011,0,73.4,11,AutoTakeoff,
38.5270818,-120.3543424,5046.8574597278,0,0,0.092646328424,3600,2018-07-07 18:42:56,10,0,0,5046.8574597278,0,0,0.092646328424,0,0,-0.223694,320.5, 0.8, 0.1,0,0,1024,1024,1024,1024,318.5,-89.9,92,4.045,4.045,4.07,4.051,3.971,4.011,0,73.4,11,AutoTakeoff,
38.5270819,-120.3543423,5047.1855437278,0.328084,0.223694,0.138969492636,3700,2018-07-07 18:42:56,10,0,0,5047.1855437278,0.328084,0.223694,0.138969492636,0,0,-0.223694,320.5, 0.9, 0,0,0,1024,1024,1024,1024,318.5,-89.9,92,4.045,4.045,4.07,4.051,3.971,4.011,0,73.4,11,AutoTakeoff,
38.527082,-120.3543421,5047.1855437278,0.328084,0,0.204121397608,3800,2018-07-07 18:42:56,10,0,0,5047.1855437278,0.328084,0.223694,0.204121397608,0,0,0,320.5, 1, -0.4,0,0,1024,1024,1024,1024,318.5,-89.9,92,4.045,4.045,4.07,4.051,3.971,4.011,0,73.4,11,AutoTakeoff,
38.5270821,-120.3543421,5047.5136277278,0.656168,0,0.23161582106,3900,2018-07-07 18:42:57,10,0,0,5047.5136277278,0.656168,0.223694,0.23161582106,0,0,0,320.4, 0.8, -0.9,0,0,1024,1024,1024,1024,318.5,-89.9,92,4.045,4.045,4.07,4.051,3.971,4.011,0,73.4,11,AutoTakeoff,
38.5270821,-120.354342,5047.5136277278,0.656168,0,0.250214574936,4000,2018-07-07 18:42:57,10,0,24.303,5047.5136277278,0.656168,0.223694,0.250214574936,0,0,0,320.3, 0.6, -1,0,0,1024,1024,1024,1024,318.5,-89.9,92,4.045,4.045,4.07,4.051,3.971,4.011,9.963,73.4,11,AutoTakeoff,
38.5270822,-120.354342,5047.8417117278,0.984252,0,0.277938985272,4100,2018-07-07 18:42:57,10,0,24.303,5047.8417117278,0.984252,0.223694,0.277938985272,0,0,0,320.1, 0.4, -1,0,0,1024,1024,1024,1024,318.5,-89.9,92,4.045,4.045,4.07,4.051,3.971,4.011,9.963,73.4,11,AutoTakeoff,
38.5270822,-120.354342,5047.8417117278,0.984252,0,0.277938985272,4200,2018-07-07 18:42:57,10,0,24.303,5047.8417117278,0.984252,0.223694,0.277938985272,0,0,0,320, 0.3, -1,0,0,1024,1024,1024,1024,318.6,-90,92,4.045,4.045,4.07,4.051,3.971,4.011,9.963,73.4,11,AutoTakeoff,
38.5270822,-120.3543419,5048.1697957278,1.312336,0,0.29637960266,4300,2018-07-07 18:42:57,10,0,24.303,5048.1697957278,1.312336,0.223694,0.29637960266,0,0,0,319.7, 0.2, -1,0,0,1024,1024,1024,1024,318.6,-90,92,4.045,4.045,4.07,4.051,3.971,4.011,9.963,73.4,11,AutoTakeoff,
38.5270823,-120.3543419,5048.4978797278,1.64042,0,0.324262149484,4400,2018-07-07 18:42:57,10,0,24.303,5048.4978797278,1.64042,0.223694,0.324262149484,0,0,0,319.2, -0.1, -0.9,0,0,1024,1024,1024,1024,318.6,-90,92,4.045,4.045,4.07,4.051,3.971,4.011,9.963,73.4,11,AutoTakeoff,
38.5270823,-120.354342,5048.4978797278,1.64042,0,0.307498041336,4500,2018-07-07 18:42:57,10,0,24.303,5048.4978797278,1.64042,0.223694,0.324262149484,0,0,0,319, 0, -0.9,0,0,1024,1024,1024,1024,318.6,-90,92,4.045,4.045,4.07,4.051,3.971,4.011,9.963,73.4,11,AutoTakeoff,
38.5270823,-120.354342,5048.4978797278,1.64042,0,0.307498041336,4600,2018-07-07 18:42:57,10,0,24.303,5048.4978797278,1.64042,0.223694,0.324262149484,0,0,0,318.8, 0, -0.7,0,0,1024,1024,1024,1024,318.6,-90,92,4.045,4.045,4.07,4.051,3.971,4.011,9.963,73.4,11,AutoTakeoff,
38.5270824,-120.3543421,5048.8259637278,1.968504,0,0.324901257116,4700,2018-07-07 18:42:57,9,0,24.303,5048.8259637278,1.968504,0.223694,0.324901257116,0,0,-0.223694,318.7, 0.4, -0.6,0,0,1024,1024,1024,1024,318.6,-89.9,92,4.045,4.045,4.07,4.051,3.971,4.011,9.963,73.4,11,AutoTakeoff,
38.5270825,-120.3543422,5049.1540477278,2.296588,0,0.34764764892,4800,2018-07-07 18:42:57,9,0,24.303,5049.1540477278,2.296588,0.223694,0.34764764892,0,0,-0.223694,318.8, 0.8, -0.3,0,0,1024,1024,1024,1024,318.7,-89.9,92,4.045,4.045,4.07,4.051,3.971,4.011,9.963,73.4,11,AutoTakeoff,
38.5270825,-120.3543423,5049.1540477278,2.296588,0,0.33934712372,5000,2018-07-07 18:42:58,9,0,23.633,5049.1540477278,2.296588,0.223694,0.34764764892,0,0,-0.223694,318.9, 1.1, -0.1,0,0,1024,1024,1024,1024,318.7,-89.9,92,4.045,4.045,4.07,4.051,3.971,4.011,16.654,73.4,11,AutoTakeoff,
38.5270825,-120.3543423,5049.4821317278,2.624672,0,0.33934712372,5100,2018-07-07 18:42:58,9,0,23.633,5049.4821317278,2.624672,0.223694,0.34764764892,0,0,0,319.1, 1.1, 0,0,0,1024,1024,1024,1024,318.7,-89.9,92,4.045,4.045,4.07,4.051,3.971,4.011,16.654,73.4,11,AutoTakeoff,
38.5270826,-120.3543423,5049.4821317278,2.624672,0,0.37476379152,5200,2018-07-07 18:42:58,9,0,23.633,5049.4821317278,2.624672,0.223694,0.37476379152,0,0,0,319.3, 1.1, -0.3,0,0,1024,1024,1024,1024,318.7,-89.9,92,4.045,4.045,4.07,4.051,3.971,4.011,16.654,73.4,11,AutoTakeoff,
38.5270826,-120.3543423,5049.8102157278,2.952756,0,0.37476379152,5300,2018-07-07 18:42:58,9,0,23.633,5049.8102157278,2.952756,0.223694,0.37476379152,0,0,0,319.6, 1, -0.5,0,0,1024,1024,1024,1024,318.7,-89.9,92,4.045,4.045,4.07,4.051,3.971,4.011,16.654,73.4,11,AutoTakeoff,
38.5270826,-120.3543424,5049.8102157278,2.952756,0,0.36928806956,5400,2018-07-07 18:42:58,9,0,23.633,5049.8102157278,2.952756,0.223694,0.37476379152,0,0,0,319.9, 1.1, -0.5,0,0,1024,1024,1024,1024,318.7,-89.9,92,4.045,4.045,4.07,4.051,3.971,4.011,16.654,73.4,14,Waypoint,
38.5270826,-120.3543424,5050.1382997278,3.28084,0,0.36928806956,5500,2018-07-07 18:42:58,9,0,23.633,5050.1382997278,3.28084,0.223694,0.37476379152,0,0,0,320.2, 1, -0.3,0,0,1024,1024,1024,1024,318.8,-89.9,92,4.045,4.045,4.07,4.051,3.971,4.011,16.654,73.4,14,Waypoint,
38.5270827,-120.3543423,5050.1382997278,3.28084,0,0.4103674672,5600,2018-07-07 18:42:58,9,0,23.633,5050.1382997278,3.28084,0.223694,0.4103674672,0,0,0,320.5, 1.1, 0,0,0,1024,1024,1024,1024,318.8,-89.9,92,4.045,4.045,4.07,4.051,3.971,4.011,16.654,73.4,14,Waypoint,
38.5270827,-120.3543424,5050.1382997278,3.28084,0,0.40537402872,5700,2018-07-07 18:42:58,9,0,23.633,5050.1382997278,3.28084,0.223694,0.4103674672,0,0,0,320.8, 1.1, 0,0,0,1024,1024,1024,1024,318.8,-89.9,92,4.045,4.045,4.07,4.051,3.971,4.011,16.654,73.4,14,Waypoint,
38.5270826,-120.3543425,5050.1382997278,3.28084,0,0.36596457864,5800,2018-07-07 18:42:58,9,0,23.633,5050.1382997278,3.28084,0.223694,0.4103674672,0,0,0,321, 0.9, 0,0,0,1024,1024,1024,1024,318.9,-89.9,92,4.045,4.045,4.07,4.051,3.971,4.011,16.654,73.4,14,Waypoint,
38.5270826,-120.3543425,5050.1382997278,3.28084,0,0.36596457864,5900,2018-07-07 18:42:59,9,0,23.633,5050.1382997278,3.28084,0.223694,0.4103674672,0,0,0,321.2, 0.8, 0.1,0,0,1024,1024,1024,1024,318.9,-89.9,92,4.045,4.045,4.07,4.051,3.971,4.011,16.654,73.4,14,Waypoint,
38.5270827,-120.3543426,5050.4663837278,3.608924,0,0.40133531468,6000,2018-07-07 18:42:59,9,0,23.633,5050.4663837278,3.608924,0.223694,0.4103674672,0,0,-0.223694,321.3, 0.7, 0.1,0,0,1024,1024,1024,1024,319,-89.9,92,3.931,3.936,3.956,3.941,3.909,3.929,16.654,73.4,14,Waypoint,
38.5270827,-120.3543426,5050.7944677278,3.937008,0,0.40133531468,6100,2018-07-07 18:42:59,9,0,23.633,5050.7944677278,3.937008,0.223694,0.4103674672,0,0,-0.223694,321.3, 0.7, 0,0,0,1024,1024,1024,1024,319,-89.9,92,3.931,3.936,3.956,3.941,3.909,3.929,16.654,73.4,14,Waypoint,
38.5270826,-120.3543426,5051.1225517278,4.265092,0,0.36484909304,6200,2018-07-07 18:42:59,9,0,23.633,5051.1225517278,4.265092,0.223694,0.4103674672,0,0,-0.223694,321.1, 0.6, -0.4,0,0,1024,1024,1024,1024,319.1,-90,92,3.931,3.936,3.956,3.941,3.909,3.929,16.654,73.4,14,Waypoint,
38.5270827,-120.3543425,5051.4506357278,4.593176,0,0.40234909424,6300,2018-07-07 18:42:59,9,0,23.633,5051.4506357278,4.593176,0.223694,0.4103674672,0,0,-0.223694,321, 0.5, -0.4,0,0,1024,1024,1024,1024,319.1,-90,92,3.931,3.936,3.956,3.941,3.909,3.929,16.654,73.4,14,Waypoint,
38.5270827,-120.3543424,5051.7787197278,4.92126,0,0.40537402872,6400,2018-07-07 18:42:59,9,0,23.633,5051.7787197278,4.92126,0.223694,0.4103674672,0,0,-0.223694,320.8, 0.4, -0.4,0,0,1024,1024,1024,1024,319.2,-90,92,3.931,3.936,3.956,3.941,3.909,3.929,16.654,73.4,14,Waypoint,
38.5270826,-120.3543424,5052.7629717278,5.905512,0,0.36928806956,6500,2018-07-07 18:42:59,9,0,23.633,5052.7629717278,5.905512,0.223694,0.4103674672,0,0,-0.447388,320.7, 0.4, -0.5,0,0,1024,1024,1024,1024,319.2,-89.9,92,3.931,3.936,3.956,3.941,3.909,3.929,16.654,73.4,14,Waypoint,
38.5270826,-120.3543423,5053.4191397278,6.56168,0,0.37476379152,6700,2018-07-07 18:42:59,9,0,23.633,5053.4191397278,6.56168,0.223694,0.4103674672,0,0,-0.447388,320.8, 0.5, -0.7,0,0,1024,1024,1024,1024,319.3,-90,92,3.931,3.936,3.956,3.941,3.909,3.929,16.654,73.4,14,Waypoint,
38.5270825,-120.3543423,5054.0753077278,7.217848,0,0.33934712372,6800,2018-07-07 18:42:59,9,0,23.633,5054.0753077278,7.217848,0.223694,0.4103674672,0,0,-0.447388,320.9, 0.4, -0.7,0,0,1024,1024,1024,1024,319.3,-90,92,3.931,3.936,3.956,3.941,3.909,3.929,16.654,73.4,14,Waypoint,
38.5270824,-120.3543421,5055.7157277278,8.858268,0,0.324901257116,6900,2018-07-07 18:43:00,9,0,23.633,5055.7157277278,8.858268,0.223694,0.4103674672,0,0,-0.671082,321.4, 0, 0,0,0,1024,1024,1024,1024,319.4,-90,92,3.931,3.936,3.956,3.941,3.909,3.929,16.654,73.4,14,Waypoint,
38.5270823,-120.354342,5056.6999797278,9.84252,0,0.307498041336,7000,2018-07-07 18:43:00,9,0,23.382,5056.6999797278,9.84252,0.223694,0.4103674672,0,0,-0.671082,321.5, -0.3, 0,0,0,1024,1024,1024,1024,319.4,-90,92,3.893,3.892,3.918,3.901,3.874,3.907,17.255,73.4,14,Waypoint,
38.5270823,-120.3543419,5057.6842317278,10.826772,0,0.324262149484,7110,2018-07-07 18:43:00,9,0,23.382,5057.6842317278,10.826772,0.223694,0.4103674672,0,0,-0.671082,321.6, -0.5, -0.2,0,0,1024,1024,1024,1024,319.4,-90,92,3.893,3.892,3.918,3.901,3.874,3.907,17.255,73.4,14,Waypoint,
38.5270823,-120.3543418,5058.6684837278,11.811024,0,0.34258859364,7200,2018-07-07 18:43:00,9,0,23.382,5058.6684837278,11.811024,0.223694,0.4103674672,0,0,-0.671082,321.5, -0.6, -0.6,0,0,1024,1024,1024,1024,319.5,-90,92,3.893,3.892,3.918,3.901,3.874,3.907,17.255,73.4,14,Waypoint,
38.5270823,-120.3543416,5059.9808197278,13.12336,0,0.38300854244,7300,2018-07-07 18:43:00,9,0,23.382,5059.9808197278,13.12336,0.223694,0.4103674672,0,0,-0.671082,321.3, -0.5, -1,0,0,1024,1024,1024,1024,319.5,-90,92,3.893,3.892,3.918,3.901,3.874,3.907,17.255,73.4,14,Waypoint,
38.5270823,-120.3543414,5060.9650717278,14.107612,0,0.427247389,7500,2018-07-07 18:43:00,9,0,23.382,5060.9650717278,14.107612,0.223694,0.427247389,0,0,-0.671082,321.1, -0.3, -1.1,0,0,1024,1024,1024,1024,319.5,-90,92,3.893,3.892,3.918,3.901,3.874,3.907,17.255,73.4,14,Waypoint,
38.5270823,-120.3543412,5062.2774077278,15.419948,0,0.47424214116,7600,2018-07-07 18:43:00,9,0,23.382,5062.2774077278,15.419948,0.223694,0.47424214116,0,0,-0.671082,320.9, -0.1, -1.3,0,0,1024,1024,1024,1024,319.6,-89.9,92,3.893,3.892,3.918,3.901,3.874,3.907,17.255,73.4,14,Waypoint,
38.5270823,-120.354341,5063.2616597278,16.4042,0,0.5232447674,7700,2018-07-07 18:43:00,9,0,23.382,5063.2616597278,16.4042,0.223694,0.5232447674,0,0,-0.671082,320.7, -0.2, -1.4,0,0,1024,1024,1024,1024,319.6,-90,92,3.893,3.892,3.918,3.901,3.874,3.907,17.255,73.4,14,Waypoint,
38.5270823,-120.3543409,5064.2459117278,17.388452,0,0.54833335088,7800,2018-07-07 18:43:00,9,0,23.382,5064.2459117278,17.388452,0.223694,0.54833335088,0,0,-0.671082,320.7, -0.3, -1.4,0,0,1024,1024,1024,1024,319.6,-90,92,3.893,3.892,3.918,3.901,3.874,3.907,17.255,73.4,14,Waypoint,
38.5270823,-120.3543408,5065.5582477278,18.700788,0,0.57374673752,7900,2018-07-07 18:43:01,9,0,23.382,5065.5582477278,18.700788,0.223694,0.57374673752,0,0,-0.671082,320.8, -0.5, -1.4,0,0,1024,1024,1024,1024,319.7,-90,92,3.893,3.892,3.918,3.901,3.874,3.907,17.255,73.4,14,Waypoint,
38.5270823,-120.3543408,5066.5424997278,19.68504,0,0.57374673752,8000,2018-07-07 18:43:01,9,0,23.314,5066.5424997278,19.68504,0.223694,0.57374673752,0,0,-0.671082,320.9, -0.7, -1.1,0,0,1024,1024,1024,1024,319.7,-90,92,3.832,3.83,3.865,3.875,3.839,3.826,18.325,73.4,14,Waypoint,
38.5270823,-120.3543409,5067.5267517278,20.669292,0,0.54833335088,8100,2018-07-07 18:43:01,9,0,23.314,5067.5267517278,20.669292,0.223694,0.57374673752,0,0,-0.671082,321, -0.6, -0.8,0,0,1024,1024,1024,1024,319.7,-90,92,3.832,3.83,3.865,3.875,3.839,3.826,18.325,73.4,14,Waypoint,
38.5270822,-120.354341,5068.8390877278,21.981628,0,0.50644030492,8200,2018-07-07 18:43:01,9,0,23.314,5068.8390877278,21.981628,0.223694,0.57374673752,0,0,-0.671082,321.1, -0.3, -0.5,0,0,1024,1024,1024,1024,319.7,-89.9,92,3.832,3.83,3.865,3.875,3.839,3.826,18.325,73.4,14,Waypoint,
38.5270822,-120.3543411,5069.8233397278,22.96588,0,0.48085959544,8300,2018-07-07 18:43:01,9,0,23.314,5069.8233397278,22.96588,0.223694,0.57374673752,0,0,-0.671082,321.2, -0.2, -0.4,0,0,1024,1024,1024,1024,319.8,-89.9,92,3.832,3.83,3.865,3.875,3.839,3.826,18.325,73.4,14,Waypoint,
38.5270822,-120.3543413,5070.8075917278,23.950132,0,0.43081694292,8400,2018-07-07 18:43:01,11,0,23.314,5070.8075917278,23.950132,0.223694,0.57374673752,0,0,-0.671082,321.3, 0, -0.3,0,0,1024,1024,1024,1024,319.8,-89.9,92,3.832,3.83,3.865,3.875,3.839,3.826,18.325,73.4,14,Waypoint,
38.5270821,-120.3543415,5071.7918437278,24.934384,0,0.36312009036,8500,2018-07-07 18:43:01,11,0,23.314,5071.7918437278,24.934384,0.223694,0.57374673752,0,0,-0.671082,321.3, 0.2, 0,0,0,1024,1024,1024,1024,319.8,-89.9,92,3.832,3.83,3.865,3.875,3.839,3.826,18.325,73.4,14,Waypoint,
38.5270821,-120.3543417,5073.1041797278,26.24672,0,0.315068579636,8600,2018-07-07 18:43:01,11,0,23.314,5073.1041797278,26.24672,0.223694,0.57374673752,0,0,-0.671082,321.4, 0.2, 0.4,0,0,1024,1024,1024,1024,319.8,-89.9,92,3.832,3.83,3.865,3.875,3.839,3.826,18.325,73.4,14,Waypoint,
38.5270821,-120.3543419,5074.0884317278,27.230972,0,0.270551845928,8700,2018-07-07 18:43:01,11,0,23.314,5074.0884317278,27.230972,0.223694,0.57374673752,0,0,-0.671082,321.3, 0.3, 0.4,0,0,1024,1024,1024,1024,319.8,-89.9,92,3.832,3.83,3.865,3.875,3.839,3.826,18.325,73.4,14,Waypoint,
38.5270822,-120.354342,5075.0726837278,28.215224,0,0.277938985272,8800,2018-07-07 18:43:01,11,0,23.314,5075.0726837278,28.215224,0.223694,0.57374673752,0,0,-0.671082,321.3, 0.5, 0.3,0,0,1024,1024,1024,1024,319.8,-89.9,92,3.832,3.83,3.865,3.875,3.839,3.826,18.325,73.4,14,Waypoint,
38.5270822,-120.3543422,5076.3850197278,29.52756,0,0.246893380604,8900,2018-07-07 18:43:02,11,0,23.314,5076.3850197278,29.52756,0.223694,0.57374673752,0,0,-0.671082,321.3, 0.6, 0.1,0,0,1024,1024,1024,1024,319.9,-89.9,92,3.832,3.83,3.865,3.875,3.839,3.826,18.325,73.4,14,Waypoint,
38.5270822,-120.3543423,5077.3692717278,30.511812,0,0.23506070306,9000,2018-07-07 18:43:02,11,0,22.514,5077.3692717278,30.511812,0.223694,0.57374673752,0,0,-0.671082,321.3, 0.9, 0.4,0,0,1024,1024,1024,1024,319.9,-89.9,92,3.771,3.765,3.798,3.761,3.735,3.785,25.526,73.4,14,Waypoint,
38.5270823,-120.3543427,5079.3377757278,32.480316,0,0.256984588276,9100,2018-07-07 18:43:02,11,0,22.514,5079.3377757278,32.480316,0.223694,0.57374673752,0,0,-0.671082,321.4, 1.1, 0.3,0,0,1024,1024,1024,1024,319.9,-89.9,92,3.771,3.765,3.798,3.761,3.735,3.785,25.526,73.4,14,Waypoint,
38.5270823,-120.3543429,5080.3220277278,33.464568,0,0.26936680652,9200,2018-07-07 18:43:02,11,0,22.514,5080.3220277278,33.464568,0.223694,0.57374673752,0,0,-0.671082,321.4, 1.1, 0.2,0,0,1024,1024,1024,1024,319.9,-89.9,92,3.771,3.765,3.798,3.761,3.735,3.785,25.526,73.4,14,Waypoint,
38.5270823,-120.3543431,5081.3062797278,34.44882,0,0.292563657656,9300,2018-07-07 18:43:02,11,0,22.514,5081.3062797278,34.44882,0.223694,0.57374673752,0,0,-0.671082,321.4, 1.1, 0.3,0,0,1024,1024,1024,1024,319.9,-89.9,92,3.771,3.765,3.798,3.761,3.735,3.785,25.526,73.4,14,Waypoint,
38.5270823,-120.3543434,5082.6186157278,35.761156,0,0.34258859364,9400,2018-07-07 18:43:02,11,0,22.514,5082.6186157278,35.761156,0.223694,0.57374673752,0,0,-0.671082,321.3, 1.1, 0.4,0,0,1024,1024,1024,1024,320,-89.9,92,3.771,3.765,3.798,3.761,3.735,3.785,25.526,73.4,14,Waypoint,
38.5270823,-120.3543439,5084.5871197278,37.72966,0,0.45045277032,9600,2018-07-07 18:43:02,11,0,22.514,5084.5871197278,37.72966,0.223694,0.57374673752,0,0,-0.671082,321, 1.1, 0.7,0,0,1024,1024,1024,1024,320,-89.9,92,3.771,3.765,3.798,3.761,3.735,3.785,25.526,73.4,14,Waypoint,
38.5270824,-120.354344,5085.5713717278,38.713912,0,0.49484581636,9700,2018-07-07 18:43:02,11,0,22.514,5085.5713717278,38.713912,0.223694,0.57374673752,0,0,-0.671082,320.9, 1.1, 0.9,0,0,1024,1024,1024,1024,320,-89.9,92,3.771,3.765,3.798,3.761,3.735,3.785,25.526,73.4,14,Waypoint,
38.5270824,-120.3543443,5087.5398757278,40.682416,0,0.56625001812,9900,2018-07-07 18:43:03,10,0,22.514,5087.5398757278,40.682416,0.223694,0.57374673752,0,0,-0.671082,320.8, 1.4, 0.7,0,0,1024,1024,1024,1024,320,-89.9,92,3.771,3.765,3.798,3.761,3.735,3.785,25.526,73.4,14,Waypoint,
38.5270824,-120.3543444,5088.8522117278,41.994752,0,0.59088912652,10100,2018-07-07 18:43:03,10,0,22.514,5088.8522117278,41.994752,0.223694,0.59088912652,0,0,-0.671082,320.8, 1.5, 0.7,0,0,1024,1024,1024,1024,320,-89.9,92,3.771,3.765,3.798,3.761,3.735,3.785,25.526,73.4,14,Waypoint,
38.5270824,-120.3543444,5089.8364637278,42.979004,0,0.59088912652,10200,2018-07-07 18:43:03,11,0,22.514,5089.8364637278,42.979004,0.223694,0.59088912652,0,0,-0.671082,320.9, 1.4, 0.6,0,0,1024,1024,1024,1024,320.1,-89.9,92,3.771,3.765,3.798,3.761,3.735,3.785,25.526,73.4,14,Waypoint,
38.5270824,-120.3543445,5090.8207157278,43.963256,0,0.61586944228,10300,2018-07-07 18:43:03,11,0,22.514,5090.8207157278,43.963256,0.223694,0.61586944228,0,0,-0.671082,321, 1.3, 0.4,0,0,1024,1024,1024,1024,320.1,-89.9,92,3.771,3.765,3.798,3.761,3.735,3.785,25.526,73.4,14,Waypoint,
38.5270825,-120.3543445,5091.8049677278,44.947508,0,0.63397639824,10400,2018-07-07 18:43:03,11,0,22.514,5091.8049677278,44.947508,0.223694,0.63397639824,0,0,-0.671082,321.1, 1.3, 0.2,0,0,1024,1024,1024,1024,320.1,-89.9,92,3.771,3.765,3.798,3.761,3.735,3.785,25.526,73.4,14,Waypoint,
38.5270825,-120.3543445,5092.7892197278,45.93176,0,0.63397639824,10500,2018-07-07 18:43:03,11,0,22.514,5092.7892197278,45.93176,0.223694,0.63397639824,0,0,-0.671082,321.2, 1.3, -0.1,0,0,1024,1024,1024,1024,320.1,-89.9,92,3.771,3.765,3.798,3.761,3.735,3.785,25.526,73.4,14,Waypoint,
38.5270826,-120.3543444,5093.7734717278,46.916012,0,0.63013781544,10600,2018-07-07 18:43:03,11,0,22.514,5093.7734717278,46.916012,0.223694,0.63397639824,0,0,-0.671082,321.2, 1.3, -0.5,0,0,1024,1024,1024,1024,320.1,-89.9,92,3.771,3.765,3.798,3.761,3.735,3.785,25.526,73.4,14,Waypoint,
38.5270826,-120.3543444,5094.7577237278,47.900264,0,0.63013781544,10700,2018-07-07 18:43:03,11,0,22.514,5094.7577237278,47.900264,0.223694,0.63397639824,0,0,-0.671082,321.3, 1.2, -0.6,0,0,1024,1024,1024,1024,320.1,-89.9,92,3.771,3.765,3.798,3.761,3.735,3.785,25.526,73.4,14,Waypoint,
38.5270825,-120.3543443,5095.7419757278,48.884516,0,0.58588912636,10800,2018-07-07 18:43:03,11,0,22.514,5095.7419757278,48.884516,0.223694,0.63397639824,0,0,-0.671082,321.3, 1, -0.4,0,0,1024,1024,1024,1024,320.1,-89.9,92,3.771,3.765,3.798,3.761,3.735,3.785,25.526,73.4,14,Waypoint,
38.5270825,-120.3543443,5096.7262277278,49.868768,0.223694,0.58588912636,10900,2018-07-07 18:43:04,11,0,22.514,5096.7262277278,49.868768,0.223694,0.63397639824,0,0,-0.671082,321.3, 0.9, -0.3,0,0,1024,1024,1024,1024,320.1,-89.9,92,3.771,3.765,3.798,3.761,3.735,3.785,25.526,73.4,14,Waypoint,
38.5270825,-120.3543442,5097.7104797278,50.85302,0.223694,0.56248033296,11000,2018-07-07 18:43:04,11,0,22.911,5097.7104797278,50.85302,0.223694,0.63397639824,0,0,-0.671082,321.4, 0.7, -0.5,0,0,1024,1024,1024,1024,320.1,-89.9,92,3.811,3.824,3.836,3.82,3.797,3.826,19.423,73.4,14,Waypoint,
38.5270824,-120.354344,5099.0228157278,52.165356,0.223694,0.49484581636,11100,2018-07-07 18:43:04,11,0,22.911,5099.0228157278,52.165356,0.223694,0.63397639824,0,0,-0.671082,321.4, 0.6, -0.6,0,0,1024,1024,1024,1024,320.1,-89.9,92,3.811,3.824,3.836,3.82,3.797,3.826,19.423,73.4,14,Waypoint,
38.5270824,-120.3543439,5100.0070677278,53.149608,0.223694,0.4720964718,11200,2018-07-07 18:43:04,12,0,22.911,5100.0070677278,53.149608,0.223694,0.63397639824,0,0,-0.671082,321.3, 0.4, -0.8,0,0,1024,1024,1024,1024,320.1,-90,92,3.811,3.824,3.836,3.82,3.797,3.826,19.423,73.4,14,Waypoint,
38.5270824,-120.3543438,5100.6632357278,53.805776,0.223694,0.45000985692,11300,2018-07-07 18:43:04,12,0,22.911,5100.6632357278,53.805776,0.223694,0.63397639824,0,0,-0.671082,321.2, 0.1, -0.9,0,0,1024,1024,1024,1024,320.1,-90,92,3.811,3.824,3.836,3.82,3.797,3.826,19.423,73.4,14,Waypoint,
38.5270824,-120.3543436,5101.6474877278,54.790028,0.223694,0.40824148288,11400,2018-07-07 18:43:04,12,0,22.911,5101.6474877278,54.790028,0.223694,0.63397639824,0,0,-0.671082,321.2, 0.1, -1,0,0,1024,1024,1024,1024,320.1,-89.9,92,3.811,3.824,3.836,3.82,3.797,3.826,19.423,73.4,14,Waypoint,
38.5270824,-120.3543435,5102.6317397278,55.77428,0.223694,0.38882219092,11500,2018-07-07 18:43:04,12,0,22.911,5102.6317397278,55.77428,0.223694,0.63397639824,0,0,-0.671082,321.1, 0.2, -1,0,0,1024,1024,1024,1024,320.1,-90,92,3.811,3.824,3.836,3.82,3.797,3.826,19.423,73.4,14,Waypoint,
38.5270824,-120.3543433,5104.6002437278,57.742784,0,0.35371392208,11700,2018-07-07 18:43:04,12,0,22.911,5104.6002437278,57.742784,0.223694,0.63397639824,0,0,-0.671082,321.1, 0.1, -0.7,0,0,1024,1024,1024,1024,320.1,-89.9,92,3.811,3.824,3.836,3.82,3.797,3.826,19.423,73.4,14,Waypoint,
38.5270823,-120.354343,5106.5687477278,59.711288,0,0.27975230554,11800,2018-07-07 18:43:04,12,0,22.911,5106.5687477278,59.711288,0.223694,0.63397639824,0,0,-0.671082,321.1, 0.1, -1,0,0,1024,1024,1024,1024,320.1,-89.9,92,3.811,3.824,3.836,3.82,3.797,3.826,19.423,73.4,14,Waypoint,
38.5270823,-120.3543429,5107.5529997278,60.69554,0,0.26936680652,11900,2018-07-07 18:43:05,12,0,22.911,5107.5529997278,60.69554,0.223694,0.63397639824,0,0,-0.671082,321.1, 0.1, -1.1,0,0,1024,1024,1024,1024,320.1,-89.9,92,3.811,3.824,3.836,3.82,3.797,3.826,19.423,73.4,14,Waypoint,
38.5270823,-120.3543427,5108.5372517278,61.679792,0,0.256984588276,12100,2018-07-07 18:43:05,12,0,22.911,5108.5372517278,61.679792,0.223694,0.63397639824,0,0,-0.671082,321.2, 0.1, -0.9,0,0,1024,1024,1024,1024,320.1,-89.9,92,3.811,3.824,3.836,3.82,3.797,3.826,19.423,73.4,14,Waypoint,
38.5270823,-120.3543426,5109.5215037278,62.664044,0,0.255394693212,12200,2018-07-07 18:43:05,12,0,22.911,5109.5215037278,62.664044,0.223694,0.63397639824,0,0,-0.671082,321.2, 0, -0.8,0,0,1024,1024,1024,1024,320.1,-89.9,92,3.811,3.824,3.836,3.82,3.797,3.826,19.423,73.4,14,Waypoint,
38.5270822,-120.3543425,5110.5057557278,63.648296,0,0.220762474256,12300,2018-07-07 18:43:05,12,0,22.911,5110.5057557278,63.648296,0.223694,0.63397639824,0,0,-0.671082,321.2, 0, -0.6,0,0,1024,1024,1024,1024,320.1,-90,92,3.811,3.824,3.836,3.82,3.797,3.826,19.423,73.4,14,Waypoint,
38.5270822,-120.3543423,5112.4742597278,65.6168,0,0.23506070306,12500,2018-07-07 18:43:05,12,0,22.911,5112.4742597278,65.6168,0.223694,0.63397639824,0,0,-0.671082,321.1, 0, -0.5,0,0,1024,1024,1024,1024,320.1,-89.9,92,3.811,3.824,3.836,3.82,3.797,3.826,19.423,73.4,14,Waypoint,
38.5270822,-120.3543422,5113.4585117278,66.601052,0,0.246893380604,12600,2018-07-07 18:43:05,12,0,22.911,5113.4585117278,66.601052,0.223694,0.63397639824,0,0,-0.671082,321.1, 0, -0.8,0,0,1024,1024,1024,1024,320.1,-89.9,92,3.811,3.824,3.836,3.82,3.797,3.826,19.423,73.4,14,Waypoint,
38.5270822,-120.354342,5114.4427637278,67.585304,0,0.277938985272,12700,2018-07-07 18:43:05,12,0,22.911,5114.4427637278,67.585304,0.223694,0.63397639824,0,0,-0.671082,321.1, 0, -1.1,0,0,1024,1024,1024,1024,320.1,-89.9,92,3.811,3.824,3.836,3.82,3.797,3.826,19.423,73.4,14,Waypoint,
38.5270822,-120.3543419,5115.4270157278,68.569556,0,0.29637960266,12800,2018-07-07 18:43:05,12,0,22.911,5115.4270157278,68.569556,0.223694,0.63397639824,0,0,-0.671082,321, 0, -1.2,0,0,1024,1024,1024,1024,320.1,-89.9,92,3.811,3.824,3.836,3.82,3.797,3.826,19.423,73.4,14,Waypoint,
38.5270823,-120.3543418,5116.4112677278,69.553808,0,0.34258859364,12900,2018-07-07 18:43:06,12,0,22.911,5116.4112677278,69.553808,0.223694,0.63397639824,0,0,-0.671082,320.9, 0.1, -1,0,0,1024,1024,1024,1024,320.1,-89.9,92,3.811,3.824,3.836,3.82,3.797,3.826,19.423,73.4,14,Waypoint,
38.5270823,-120.3543417,5117.3955197278,70.53806,0,0.3622375444,13000,2018-07-07 18:43:06,12,0,22.877,5117.3955197278,70.53806,0.223694,0.63397639824,0,0,-0.671082,320.8, 0.1, -0.8,0,0,1024,1024,1024,1024,320.1,-89.9,91,3.807,3.815,3.825,3.81,3.791,3.818,19.372,73.4,14,Waypoint,
38.5270822,-120.3543416,5118.3797717278,71.522312,0,0.35970801676,13100,2018-07-07 18:43:06,12,0,22.877,5118.3797717278,71.522312,0.223694,0.63397639824,0,0,-0.671082,320.7, 0, -0.8,0,0,1024,1024,1024,1024,320.1,-90,91,3.807,3.815,3.825,3.81,3.791,3.818,19.372,73.4,14,Waypoint,
38.5270822,-120.3543416,5119.3640237278,72.506564,0,0.35970801676,13200,2018-07-07 18:43:06,12,0,22.877,5119.3640237278,72.506564,0.223694,0.63397639824,0,0,-0.671082,320.6, -0.2, -0.7,0,0,1024,1024,1024,1024,320.1,-90,91,3.807,3.815,3.825,3.81,3.791,3.818,19.372,73.4,14,Waypoint,
38.5270821,-120.3543415,5120.3482757278,73.490816,0,0.36312009036,13300,2018-07-07 18:43:06,12,0,22.877,5120.3482757278,73.490816,0.223694,0.63397639824,0,0,-0.671082,320.6, -0.3, -0.4,0,0,1024,1024,1024,1024,320.1,-90,91,3.807,3.815,3.825,3.81,3.791,3.818,19.372,73.4,14,Waypoint,
38.5270821,-120.3543414,5121.3325277278,74.475068,0,0.38806431688,13400,2018-07-07 18:43:06,12,0,22.877,5121.3325277278,74.475068,0.223694,0.63397639824,0,0,-0.671082,320.7, -0.4, -0.3,0,0,1024,1024,1024,1024,320.1,-90,91,3.807,3.815,3.825,3.81,3.791,3.818,19.372,73.4,14,Waypoint,
38.5270821,-120.3543413,5122.3167797278,75.45932,0,0.41347442268,13500,2018-07-07 18:43:06,12,0,22.877,5122.3167797278,75.45932,0.223694,0.63397639824,0,0,-0.671082,320.8, -0.4, -0.4,0,0,1024,1024,1024,1024,320.1,-89.9,91,3.807,3.815,3.825,3.81,3.791,3.818,19.372,73.4,14,Waypoint,
38.5270822,-120.3543411,5124.2852837278,77.427824,0,0.48085959544,13600,2018-07-07 18:43:06,12,0,22.877,5124.2852837278,77.427824,0.223694,0.63397639824,0,0,-0.671082,321.2, 0.1, -1.1,0,0,1024,1024,1024,1024,320.1,-89.9,91,3.807,3.815,3.825,3.81,3.791,3.818,19.372,73.4,14,Waypoint,
38.5270822,-120.3543411,5125.2695357278,78.412076,0,0.48085959544,13800,2018-07-07 18:43:06,11,0,22.877,5125.2695357278,78.412076,0.223694,0.63397639824,0,0,-0.671082,321.3, 0.3, -1.2,0,0,1024,1024,1024,1024,320.1,-89.9,91,3.807,3.815,3.825,3.81,3.791,3.818,19.372,73.4,14,Waypoint,
38.5270823,-120.354341,5126.2537877278,79.396328,0,0.5232447674,13900,2018-07-07 18:43:07,11,0,22.877,5126.2537877278,79.396328,0.223694,0.63397639824,0,0,-0.671082,321.4, 0.4, -1.2,0,0,1024,1024,1024,1024,320.1,-89.9,91,3.807,3.815,3.825,3.81,3.791,3.818,19.372,73.4,14,Waypoint,
38.5270823,-120.3543408,5128.2222917278,81.364832,0,0.57374673752,14000,2018-07-07 18:43:07,11,0,22.826,5128.2222917278,81.364832,0.223694,0.63397639824,0,0,-0.671082,321.5, 0.4, -1,0,0,1024,1024,1024,1024,320.1,-89.9,91,3.795,3.8,3.826,3.808,3.786,3.815,19.382,73.4,14,Waypoint,
38.5270823,-120.3543407,5130.1907957278,83.333336,0,0.59943899556,14200,2018-07-07 18:43:07,12,0,22.826,5130.1907957278,83.333336,0.223694,0.63397639824,0,0,-0.671082,321.4, 0.3, -0.8,0,0,1024,1024,1024,1024,320.1,-89.9,91,3.795,3.8,3.826,3.808,3.786,3.815,19.382,73.4,14,Waypoint,
38.5270823,-120.3543406,5131.1750477278,84.317588,0,0.62538059744,14300,2018-07-07 18:43:07,12,0,22.826,5131.1750477278,84.317588,0.223694,0.63397639824,0,0,-0.671082,321.4, 0, -0.6,0,0,1024,1024,1024,1024,320.1,-90,91,3.795,3.8,3.826,3.808,3.786,3.815,19.382,73.4,14,Waypoint,
38.5270823,-120.3543406,5133.1435517278,86.286092,0,0.62538059744,14500,2018-07-07 18:43:07,12,0,22.826,5133.1435517278,86.286092,0.223694,0.63397639824,0,0,-0.671082,321.3, -0.1, -0.8,0,0,1024,1024,1024,1024,320.1,-90,91,3.795,3.8,3.826,3.808,3.786,3.815,19.382,73.4,14,Waypoint,
38.5270823,-120.3543406,5134.1278037278,87.270344,0,0.62538059744,14700,2018-07-07 18:43:07,12,0,22.826,5134.1278037278,87.270344,0.223694,0.63397639824,0,0,-0.671082,321.4, 0, -0.8,0,0,1024,1024,1024,1024,320.1,-89.9,91,3.795,3.8,3.826,3.808,3.786,3.815,19.382,73.4,14,Waypoint,
38.5270823,-120.3543405,5135.1120557278,88.254596,0,0.65153873476,14800,2018-07-07 18:43:07,12,0,22.826,5135.1120557278,88.254596,0.223694,0.65153873476,0,0,-0.671082,321.4, 0.2, -0.6,0,0,1024,1024,1024,1024,320.1,-89.9,91,3.795,3.8,3.826,3.808,3.786,3.815,19.382,73.4,14,Waypoint,
38.5270823,-120.3543406,5136.0963077278,89.238848,0,0.62538059744,14900,2018-07-07 18:43:08,12,0,22.826,5136.0963077278,89.238848,0.223694,0.65153873476,0,0,-0.671082,321.3, 0.2, -0.6,0,0,1024,1024,1024,1024,320.1,-90,91,3.795,3.8,3.826,3.808,3.786,3.815,19.382,73.4,14,Waypoint,
38.5270823,-120.3543407,5137.0805597278,90.2231,0,0.59943899556,15000,2018-07-07 18:43:08,12,0,22.822,5137.0805597278,90.2231,0.223694,0.65153873476,0,0,-0.671082,321.2, 0.2, -0.6,0,0,1024,1024,1024,1024,320.1,-90,91,3.792,3.799,3.828,3.808,3.781,3.806,19.408,73.4,14,Waypoint,
38.5270823,-120.3543406,5139.0490637278,92.191604,0,0.62538059744,15200,2018-07-07 18:43:08,11,0,22.822,5139.0490637278,92.191604,0.223694,0.65153873476,0,0,-0.671082,321, 0.3, -0.5,0,0,1024,1024,1024,1024,320.1,-89.9,91,3.792,3.799,3.828,3.808,3.781,3.806,19.408,73.4,14,Waypoint,
38.5270822,-120.3543407,5141.0175677278,94.160108,0,0.5848261342,15400,2018-07-07 18:43:08,12,0,22.822,5141.0175677278,94.160108,0.223694,0.65153873476,0,0,-0.671082,321, 0.4, -0.3,0,0,1024,1024,1024,1024,320.1,-89.9,91,3.792,3.799,3.828,3.808,3.781,3.806,19.408,73.4,14,Waypoint,
38.5270823,-120.3543408,5142.0018197278,95.14436,0,0.57374673752,15500,2018-07-07 18:43:08,12,0,22.822,5142.0018197278,95.14436,0.223694,0.65153873476,0,0,-0.671082,321.1, 0.5, -0.1,0,0,1024,1024,1024,1024,320.1,-89.9,91,3.792,3.799,3.828,3.808,3.781,3.806,19.408,73.4,14,Waypoint,
38.5270823,-120.3543409,5142.9860717278,96.128612,0,0.54833335088,15600,2018-07-07 18:43:08,13,0,22.822,5142.9860717278,96.128612,0.223694,0.65153873476,0,0,-0.671082,321.2, 0.5, -0.2,0,0,1024,1024,1024,1024,320.1,-89.9,91,3.792,3.799,3.828,3.808,3.781,3.806,19.408,73.4,14,Waypoint,
38.5270823,-120.354341,5143.9703237278,97.112864,0,0.5232447674,15700,2018-07-07 18:43:08,13,0,22.822,5143.9703237278,97.112864,0.223694,0.65153873476,0,0,-0.671082,321.3, 0.4, -0.2,0,0,1024,1024,1024,1024,320.1,-89.9,91,3.792,3.799,3.828,3.808,3.781,3.806,19.408,73.4,14,Waypoint,
38.5270823,-120.354341,5144.9545757278,98.097116,0,0.5232447674,15800,2018-07-07 18:43:08,13,0,22.822,5144.9545757278,98.097116,0.223694,0.65153873476,0,0,-0.671082,321.3, 0.4, -0.2,0,0,1024,1024,1024,1024,320.1,-89.9,91,3.792,3.799,3.828,3.808,3.781,3.806,19.408,73.4,14,Waypoint,
38.5270823,-120.354341,5145.9388277278,99.081368,0,0.5232447674,15900,2018-07-07 18:43:09,13,0,22.822,5145.9388277278,99.081368,0.223694,0.65153873476,0,0,-0.671082,321.3, 0.5, -0.2,0,0,1024,1024,1024,1024,320.1,-89.9,91,3.792,3.799,3.828,3.808,3.781,3.806,19.408,73.4,14,Waypoint,
38.5270823,-120.354341,5146.9230797278,100.06562,0,0.5232447674,16000,2018-07-07 18:43:09,13,0,22.766,5146.9230797278,100.06562,0.223694,0.65153873476,0,0,-0.671082,321.2, 0.5, -0.4,0,0,1024,1024,1024,1024,320.1,-90,91,3.792,3.799,3.828,3.808,3.781,3.806,19.453,73.4,14,Waypoint,
38.5270823,-120.354341,5148.2354157278,101.377956,0,0.5232447674,16100,2018-07-07 18:43:09,13,0,22.766,5148.2354157278,101.377956,0.223694,0.65153873476,0,0,-0.671082,321.2, 0.3, -0.6,0,0,1024,1024,1024,1024,320.1,-90,91,3.792,3.799,3.828,3.808,3.781,3.806,19.453,73.4,14,Waypoint,
38.5270823,-120.3543409,5150.2039197278,103.34646,0,0.54833335088,16200,2018-07-07 18:43:09,13,0,22.766,5150.2039197278,103.34646,0.223694,0.65153873476,0,0,-0.671082,321.2, 0.3, -1,0,0,1024,1024,1024,1024,320.1,-89.9,91,3.792,3.799,3.828,3.808,3.781,3.806,19.453,73.4,14,Waypoint,
38.5270823,-120.3543408,5151.1881717278,104.330712,0,0.57374673752,16300,2018-07-07 18:43:09,13,0,22.766,5151.1881717278,104.330712,0.223694,0.65153873476,0,0,-0.671082,321.2, 0.1, -1.1,0,0,1024,1024,1024,1024,320.1,-90,91,3.792,3.799,3.828,3.808,3.781,3.806,19.453,73.4,14,Waypoint,
38.5270823,-120.3543409,5152.1724237278,105.314964,0,0.54833335088,16400,2018-07-07 18:43:09,13,0,22.766,5152.1724237278,105.314964,0.223694,0.65153873476,0,0,-0.671082,321.2, 0.3, -1.1,0,0,1024,1024,1024,1024,320.1,-89.9,91,3.792,3.799,3.828,3.808,3.781,3.806,19.453,73.4,14,Waypoint,
38.5270823,-120.3543409,5153.1566757278,106.299216,0,0.54833335088,16500,2018-07-07 18:43:09,13,0,22.766,5153.1566757278,106.299216,0.223694,0.65153873476,0,0,-0.671082,321.2, 0.1, -0.7,0,0,1024,1024,1024,1024,320.1,-89.9,91,3.792,3.799,3.828,3.808,3.781,3.806,19.453,73.4,14,Waypoint,
38.5270823,-120.3543409,5154.1409277278,107.283468,0,0.54833335088,16600,2018-07-07 18:43:09,13,0,22.766,5154.1409277278,107.283468,0.223694,0.65153873476,0,0,-0.671082,321.1, 0.1, -0.3,0,0,1024,1024,1024,1024,320.1,-89.9,91,3.792,3.799,3.828,3.808,3.781,3.806,19.453,73.4,14,Waypoint,
38.5270823,-120.3543409,5155.1251797278,108.26772,0,0.54833335088,16700,2018-07-07 18:43:09,13,0,22.766,5155.1251797278,108.26772,0.223694,0.65153873476,0,0,-0.671082,321, 0.2, -0.6,0,0,1024,1024,1024,1024,320.1,-89.9,91,3.792,3.799,3.828,3.808,3.781,3.806,19.453,73.4,14,Waypoint,
38.5270823,-120.3543409,5157.4217677278,110.564308,0,0.54833335088,16900,2018-07-07 18:43:10,13,0,22.766,5157.4217677278,110.564308,0.223694,0.65153873476,0,0,-0.671082,320.6, 0.2, -1.3,0,0,1024,1024,1024,1024,320.1,-89.9,91,3.792,3.799,3.828,3.808,3.781,3.806,19.453,73.4,14,Waypoint,
38.5270824,-120.3543408,5158.4060197278,111.54856,0,0.59088912652,17100,2018-07-07 18:43:10,13,0,22.766,5158.4060197278,111.54856,0.223694,0.65153873476,0,0,-0.671082,320.7, 0.4, -1.5,0,0,1024,1024,1024,1024,320.1,-89.9,91,3.792,3.799,3.828,3.808,3.781,3.806,19.453,73.4,14,Waypoint,
38.5270824,-120.3543406,5159.3902717278,112.532812,0,0.64114503364,17200,2018-07-07 18:43:10,13,0,22.766,5159.3902717278,112.532812,0.223694,0.65153873476,0,0,-0.671082,320.8, 0.3, -2.4,0,0,1024,1024,1024,1024,320.1,-89.9,91,3.792,3.799,3.828,3.808,3.781,3.806,19.453,73.4,14,Waypoint,
38.5270825,-120.3543405,5160.3745237278,113.517064,0,0.68344490376,17300,2018-07-07 18:43:10,13,0,22.766,5160.3745237278,113.517064,0.223694,0.68344490376,0,0,-0.671082,320.9, 0, -2.8,0,0,1024,1024,1024,1024,320.1,-90,91,3.792,3.799,3.828,3.808,3.781,3.806,19.453,73.4,14,Waypoint,
38.5270825,-120.3543404,5161.3587757278,114.501316,0,0.7086122274,17400,2018-07-07 18:43:10,13,0,22.766,5161.3587757278,114.501316,0.223694,0.7086122274,0,0,-0.671082,321, -0.3, -2.9,0,0,1024,1024,1024,1024,320.1,-90,91,3.792,3.799,3.828,3.808,3.781,3.806,19.453,73.4,14,Waypoint,
38.5270826,-120.3543402,5162.3430277278,115.485568,0,0.77612863376,17500,2018-07-07 18:43:10,13,0,22.766,5162.3430277278,115.485568,0.223694,0.77612863376,0,0,-0.671082,321, -0.4, -2.9,0,0,1024,1024,1024,1024,320.1,-90,91,3.792,3.799,3.828,3.808,3.781,3.806,19.453,73.4,14,Waypoint,
38.5270826,-120.3543401,5163.3272797278,116.46982,0,0.80143047184,17600,2018-07-07 18:43:10,13,0,22.766,5163.3272797278,116.46982,0.223694,0.80143047184,0,0,-0.671082,320.9, -0.4, -3.1,0,0,1024,1024,1024,1024,320.1,-89.9,91,3.792,3.799,3.828,3.808,3.781,3.806,19.453,73.4,14,Waypoint,
38.5270827,-120.35434,5164.3115317278,117.454072,0,0.84368112936,17700,2018-07-07 18:43:10,13,0,22.766,5164.3115317278,117.454072,0.223694,0.84368112936,0,0,-0.671082,320.9, -0.2, -3.2,0,0,1024,1024,1024,1024,320.1,-89.9,91,3.792,3.799,3.828,3.808,3.781,3.806,19.453,73.4,14,Waypoint,
38.5270827,-120.3543399,5165.2957837278,118.438324,0,0.86889110392,17800,2018-07-07 18:43:10,13,0,22.766,5165.2957837278,118.438324,0.223694,0.86889110392,0,0,-0.671082,320.9, 0, -3.4,0,0,1024,1024,1024,1024,320.1,-89.9,91,3.792,3.799,3.828,3.808,3.781,3.806,19.453,73.4,14,Waypoint,
38.5270828,-120.3543398,5166.2800357278,119.422576,0.223694,0.91126315252,17900,2018-07-07 18:43:11,13,0,22.766,5166.2800357278,119.422576,0.223694,0.91126315252,0,0,-0.671082,321.1, 0.1, -3.7,0,0,1024,1024,1024,1024,320.1,-89.9,91,3.792,3.799,3.828,3.808,3.781,3.806,19.453,73.4,14,Waypoint,
38.5270829,-120.3543397,5167.2642877278,120.406828,0.223694,0.95399937436,18000,2018-07-07 18:43:11,13,0,22.728,5167.2642877278,120.406828,0.223694,0.95399937436,0,0,-0.671082,321.2, 0.2, -4.1,0,0,1024,1024,1024,1024,320.2,-89.9,91,3.782,3.784,3.799,3.785,3.754,3.788,19.855,73.4,14,Waypoint,
38.527083,-120.3543396,5168.2485397278,121.39108,0,0.99705711852,18100,2018-07-07 18:43:11,13,0,22.728,5168.2485397278,121.39108,0.223694,0.99705711852,0,0,-0.671082,321.3, 0.4, -4.4,0,0,1024,1024,1024,1024,320.2,-89.9,91,3.782,3.784,3.799,3.785,3.754,3.788,19.855,73.4,14,Waypoint,
38.5270831,-120.3543395,5169.2327917278,122.375332,0,1.04039373408,18200,2018-07-07 18:43:11,13,0,22.728,5169.2327917278,122.375332,0.223694,1.04039373408,0,0,-0.671082,321.4, 0.3, -4.3,0,0,1024,1024,1024,1024,320.2,-89.9,91,3.782,3.784,3.799,3.785,3.754,3.788,19.855,73.4,14,Waypoint,
38.5270831,-120.3543395,5170.2170437278,123.359584,0,1.04039373408,18300,2018-07-07 18:43:11,13,0,22.728,5170.2170437278,123.359584,0.223694,1.04039373408,0,0,-0.671082,321.5, 0.2, -4.1,0,0,1024,1024,1024,1024,320.2,-89.9,91,3.782,3.784,3.799,3.785,3.754,3.788,19.855,73.4,14,Waypoint,
38.5270832,-120.3543394,5171.2012957278,124.343836,0,1.08397969348,18400,2018-07-07 18:43:11,13,0,22.728,5171.2012957278,124.343836,0.223694,1.08397969348,0,0,-0.671082,321.5, 0.4, -3.8,0,0,1024,1024,1024,1024,320.2,-89.9,91,3.782,3.784,3.799,3.785,3.754,3.788,19.855,73.4,14,Waypoint,
38.5270832,-120.3543394,5172.1855477278,125.328088,0,1.08397969348,18500,2018-07-07 18:43:11,13,0,22.728,5172.1855477278,125.328088,0.223694,1.08397969348,0,0,-0.671082,321.5, 0.5, -3.6,0,0,1024,1024,1024,1024,320.2,-89.9,91,3.782,3.784,3.799,3.785,3.754,3.788,19.855,73.4,14,Waypoint,
38.5270834,-120.3543393,5174.8102197278,127.95276,0,1.14825134908,18700,2018-07-07 18:43:11,13,0,22.728,5174.8102197278,127.95276,0.223694,1.14825134908,0,0,-0.671082,321.5, 0.8, -4.2,0,0,1024,1024,1024,1024,320.2,-89.9,91,3.782,3.784,3.799,3.785,3.754,3.788,19.855,73.4,14,Waypoint,
38.5270835,-120.3543393,5175.7944717278,128.937012,0,1.16950134976,18900,2018-07-07 18:43:12,13,0,22.728,5175.7944717278,128.937012,0.223694,1.16950134976,0,0,-0.671082,321.5, 0.6, -4.2,0,0,1024,1024,1024,1024,320.2,-89.9,91,3.782,3.784,3.799,3.785,3.754,3.788,19.855,73.4,14,Waypoint,
38.5270836,-120.3543394,5177.7629757278,130.905516,0,1.16905843636,19000,2018-07-07 18:43:12,13,0,22.74,5177.7629757278,130.905516,0.223694,1.16950134976,0,0,-0.671082,321.2, 0.9, -3.9,0,0,1024,1024,1024,1024,320.2,-89.9,91,3.783,3.805,3.811,3.799,3.764,3.799,19.126,73.4,14,Waypoint,
38.5270836,-120.3543395,5179.4033957278,132.545936,0,1.14689636216,19200,2018-07-07 18:43:12,13,0,22.74,5179.4033957278,132.545936,0.223694,1.16950134976,0,0,-0.671082,320.9, 0.9, -3.6,0,0,1024,1024,1024,1024,320.2,-89.9,91,3.783,3.805,3.811,3.799,3.764,3.799,19.126,73.4,14,Waypoint,
38.5270837,-120.3543395,5180.3876477278,133.530188,0,1.17044951252,19400,2018-07-07 18:43:12,14,0,22.74,5180.3876477278,133.530188,0.223694,1.17044951252,0,0,-0.671082,320.8, 0.9, -3.6,0,0,1024,1024,1024,1024,320.2,-89.9,91,3.783,3.805,3.811,3.799,3.764,3.799,19.126,73.4,14,Waypoint,
38.5270837,-120.3543395,5182.3561517278,135.498692,0,1.17044951252,19500,2018-07-07 18:43:12,14,0,22.74,5182.3561517278,135.498692,0.223694,1.17044951252,0,0,-0.671082,320.8, 0.9, -3.6,0,0,1024,1024,1024,1024,320.2,-89.9,91,3.783,3.805,3.811,3.799,3.764,3.799,19.126,73.4,14,Waypoint,
38.5270838,-120.3543396,5183.3404037278,136.482944,0,1.17366801656,19700,2018-07-07 18:43:12,14,0,22.74,5183.3404037278,136.482944,0.223694,1.17366801656,0,0,-0.671082,320.8, 0.9, -3.7,0,0,1024,1024,1024,1024,320.2,-89.9,91,3.783,3.805,3.811,3.799,3.764,3.799,19.126,73.4,14,Waypoint,
38.5270838,-120.3543396,5183.9965717278,137.139112,0,1.17366801656,19800,2018-07-07 18:43:12,14,0,22.74,5183.9965717278,137.139112,0.223694,1.17366801656,0,0,-0.671082,320.9, 0.9, -3.8,0,0,1024,1024,1024,1024,320.2,-89.9,91,3.783,3.805,3.811,3.799,3.764,3.799,19.126,73.4,14,Waypoint,
38.5270838,-120.3543396,5184.9808237278,138.123364,0,1.17366801656,19900,2018-07-07 18:43:13,14,0,22.74,5184.9808237278,138.123364,0.223694,1.17366801656,0,0,-0.671082,321, 0.8, -3.8,0,0,1024,1024,1024,1024,320.2,-89.9,91,3.783,3.805,3.811,3.799,3.764,3.799,19.126,73.4,14,Waypoint,
38.5270838,-120.3543396,5185.9650757278,139.107616,0,1.17366801656,20000,2018-07-07 18:43:13,14,0,22.821,5185.9650757278,139.107616,0.223694,1.17366801656,0,0,-0.671082,321, 0.8, -3.7,0,0,1024,1024,1024,1024,320.2,-89.9,91,3.793,3.807,3.806,3.798,3.761,3.812,18.565,75.2,14,Waypoint,
38.5270839,-120.3543396,5186.9493277278,140.091868,0,1.19891408036,20100,2018-07-07 18:43:13,14,0,22.821,5186.9493277278,140.091868,0.223694,1.19891408036,0,0,-0.671082,321, 0.7, -3.8,0,0,1024,1024,1024,1024,320.2,-89.9,91,3.793,3.807,3.806,3.798,3.761,3.812,18.565,75.2,14,Waypoint,
38.5270839,-120.3543397,5187.9335797278,141.07612,0,1.17869754428,20200,2018-07-07 18:43:13,14,0,22.821,5187.9335797278,141.07612,0.223694,1.19891408036,0,0,-0.671082,320.9, 0.7, -4,0,0,1024,1024,1024,1024,320.2,-89.9,91,3.793,3.807,3.806,3.798,3.761,3.812,18.565,75.2,14,Waypoint,
38.5270839,-120.3543397,5188.5897477278,141.732288,0,1.17869754428,20300,2018-07-07 18:43:13,14,0,22.821,5188.5897477278,141.732288,0.223694,1.19891408036,0,0,-0.671082,320.9, 1, -3.9,0,0,1024,1024,1024,1024,320.2,-89.9,91,3.793,3.807,3.806,3.798,3.761,3.812,18.565,75.2,14,Waypoint,
38.5270839,-120.3543398,5189.5739997278,142.71654,0,1.15883205808,20400,2018-07-07 18:43:13,14,0,22.821,5189.5739997278,142.71654,0.223694,1.19891408036,0,0,-0.671082,320.8, 1, -3.7,0,0,1024,1024,1024,1024,320.2,-89.9,91,3.793,3.807,3.806,3.798,3.761,3.812,18.565,75.2,14,Waypoint,
38.5270839,-120.3543399,5190.5582517278,143.700792,0,1.13933402596,20500,2018-07-07 18:43:13,14,0,22.821,5190.5582517278,143.700792,0.223694,1.19891408036,0,0,-0.671082,320.8, 1.1, -3.6,0,0,1024,1024,1024,1024,320.2,-89.9,91,3.793,3.807,3.806,3.798,3.761,3.812,18.565,75.2,14,Waypoint,
38.5270839,-120.3543399,5191.5425037278,144.685044,0,1.13933402596,20600,2018-07-07 18:43:13,14,0,22.821,5191.5425037278,144.685044,0.223694,1.19891408036,0,0,-0.671082,320.7, 1.3, -3.6,0,0,1024,1024,1024,1024,320.2,-89.9,91,3.793,3.807,3.806,3.798,3.761,3.812,18.565,75.2,14,Waypoint,
38.5270839,-120.35434,5192.5267557278,145.669296,0,1.1202264138,20700,2018-07-07 18:43:13,14,0,22.821,5192.5267557278,145.669296,0.223694,1.19891408036,0,0,-0.671082,320.7, 1.4, -3.4,0,0,1024,1024,1024,1024,320.2,-89.9,91,3.793,3.807,3.806,3.798,3.761,3.812,18.565,75.2,14,Waypoint,
38.5270839,-120.3543401,5193.5110077278,146.653548,0,1.1015256258,20800,2018-07-07 18:43:13,14,0,22.821,5193.5110077278,146.653548,0.223694,1.19891408036,0,0,-0.671082,320.8, 1.2, -3.4,0,0,1024,1024,1024,1024,320.2,-89.9,91,3.793,3.807,3.806,3.798,3.761,3.812,18.565,75.2,14,Waypoint,
38.5270838,-120.35434,5194.4952597278,147.6378,0,1.09316276464,20900,2018-07-07 18:43:14,14,0,22.821,5194.4952597278,147.6378,0.223694,1.19891408036,0,0,-0.671082,321, 0.9, -3.3,0,0,1024,1024,1024,1024,320.2,-89.9,91,3.793,3.807,3.806,3.798,3.761,3.812,18.565,75.2,14,Waypoint,
38.5270838,-120.35434,5195.4795117278,148.622052,0,1.09316276464,21000,2018-07-07 18:43:14,14,0,22.719,5195.4795117278,148.622052,0.223694,1.19891408036,0,0,-0.671082,321.2, 0.7, -3.2,0,0,1024,1024,1024,1024,320.2,-90,91,3.777,3.782,3.8,3.781,3.757,3.789,19.053,75.2,14,Waypoint,
38.5270838,-120.35434,5196.4637637278,149.606304,0,1.09316276464,21100,2018-07-07 18:43:14,14,0,22.719,5196.4637637278,149.606304,0.223694,1.19891408036,0,0,-0.671082,321.3, 0.6, -3.3,0,0,1024,1024,1024,1024,320.2,-90,91,3.777,3.782,3.8,3.781,3.757,3.789,19.053,75.2,14,Waypoint,
38.5270837,-120.35434,5198.7603517278,151.902892,0,1.06666013912,21200,2018-07-07 18:43:14,14,0,22.719,5198.7603517278,151.902892,0.223694,1.19891408036,0,0,-0.671082,321.6, 0.4, -3.8,0,0,1024,1024,1024,1024,320.2,-90,91,3.777,3.782,3.8,3.781,3.757,3.789,19.053,75.2,14,Waypoint,
38.5270837,-120.35434,5199.7446037278,152.887144,0,1.06666013912,21300,2018-07-07 18:43:14,14,0,22.719,5199.7446037278,152.887144,0.223694,1.19891408036,0,0,-0.671082,321.6, 0.2, -4,0,0,1024,1024,1024,1024,320.2,-90,91,3.777,3.782,3.8,3.781,3.757,3.789,19.053,75.2,14,Waypoint,
38.5270837,-120.3543399,5200.7288557278,153.871396,0,1.0867126332,21500,2018-07-07 18:43:14,14,0,22.719,5200.7288557278,153.871396,0.223694,1.19891408036,0,0,-0.671082,321.6, 0.1, -4,0,0,1024,1024,1024,1024,320.2,-90,91,3.777,3.782,3.8,3.781,3.757,3.789,19.053,75.2,14,Waypoint,
38.5270836,-120.3543399,5202.6973597278,155.8399,0,1.0613025274,21600,2018-07-07 18:43:14,14,0,22.719,5202.6973597278,155.8399,0.223694,1.19891408036,0,0,-0.671082,321.5, 0.2, -4,0,0,1024,1024,1024,1024,320.2,-89.9,91,3.777,3.782,3.8,3.781,3.757,3.789,19.053,75.2,14,Waypoint,
38.5270836,-120.3543399,5203.6816117278,156.824152,0,1.0613025274,21700,2018-07-07 18:43:14,14,0,22.719,5203.6816117278,156.824152,0.223694,1.19891408036,0,0,-0.671082,321.4, 0.2, -4.1,0,0,1024,1024,1024,1024,320.2,-90,91,3.777,3.782,3.8,3.781,3.757,3.789,19.053,75.2,14,Waypoint,
38.5270835,-120.3543398,5205.6501157278,158.792656,0,1.05794950892,21900,2018-07-07 18:43:15,14,0,22.719,5205.6501157278,158.792656,0.223694,1.19891408036,0,0,-0.671082,321.3, 0.4, -4.2,0,0,1024,1024,1024,1024,320.2,-90,91,3.777,3.782,3.8,3.781,3.757,3.789,19.053,75.2,14,Waypoint,
38.5270835,-120.3543398,5206.6343677278,159.776908,0,1.05794950892,22100,2018-07-07 18:43:15,14,0,22.719,5206.6343677278,159.776908,0.223694,1.19891408036,0,0,-0.671082,321.3, 0.3, -4.2,0,0,1024,1024,1024,1024,320.2,-90,91,3.777,3.782,3.8,3.781,3.757,3.789,19.053,75.2,14,Waypoint,
38.5270834,-120.3543398,5207.6186197278,160.76116,0,1.03440948192,22200,2018-07-07 18:43:15,14,0,22.719,5207.6186197278,160.76116,0.223694,1.19891408036,0,0,-0.671082,321.3, 0.1, -4.2,0,0,1024,1024,1024,1024,320.2,-90,91,3.777,3.782,3.8,3.781,3.757,3.789,19.053,75.2,14,Waypoint,
38.5270834,-120.3543397,5208.6028717278,161.745412,0,1.05661748788,22300,2018-07-07 18:43:15,14,0,22.719,5208.6028717278,161.745412,0.223694,1.19891408036,0,0,-0.671082,321.3, 0, -4.2,0,0,1024,1024,1024,1024,320.2,-89.9,91,3.777,3.782,3.8,3.781,3.757,3.789,19.053,75.2,14,Waypoint,
38.5270833,-120.3543397,5209.5871237278,162.729664,0,1.03433730344,22400,2018-07-07 18:43:15,14,0,22.719,5209.5871237278,162.729664,0.223694,1.19891408036,0,0,-0.671082,321.3, 0, -4,0,0,1024,1024,1024,1024,320.2,-90,91,3.777,3.782,3.8,3.781,3.757,3.789,19.053,75.2,14,Waypoint,
38.5270832,-120.3543396,5210.5713757278,163.713916,0,1.036335335,22500,2018-07-07 18:43:15,14,0,22.719,5210.5713757278,163.713916,0.223694,1.19891408036,0,0,-0.671082,321.4, -0.3, -3.9,0,0,1024,1024,1024,1024,320.2,-90,91,3.777,3.782,3.8,3.781,3.757,3.789,19.053,75.2,14,Waypoint,
38.5270832,-120.3543396,5211.5556277278,164.698168,0,1.036335335,22600,2018-07-07 18:43:15,14,0,22.719,5211.5556277278,164.698168,0.223694,1.19891408036,0,0,-0.671082,321.3, -0.5, -3.7,0,0,1024,1024,1024,1024,320.2,-90,91,3.777,3.782,3.8,3.781,3.757,3.789,19.053,75.2,14,Waypoint,
38.5270831,-120.3543396,5212.5398797278,165.68242,0,1.01623034748,22700,2018-07-07 18:43:15,14,0,22.719,5212.5398797278,165.68242,0.223694,1.19891408036,0,0,-0.671082,321.3, -0.6, -3.7,0,0,1024,1024,1024,1024,320.2,-89.9,91,3.777,3.782,3.8,3.781,3.757,3.789,19.053,75.2,14,Waypoint,
38.527083,-120.3543396,5213.5241317278,166.666672,0,0.99705711852,22800,2018-07-07 18:43:15,14,0,22.719,5213.5241317278,166.666672,0.223694,1.19891408036,0,0,-0.671082,321.2, -0.6, -3.7,0,0,1024,1024,1024,1024,320.2,-89.9,91,3.777,3.782,3.8,3.781,3.757,3.789,19.053,75.2,14,Waypoint,
38.527083,-120.3543396,5214.5083837278,167.650924,0,0.99705711852,22900,2018-07-07 18:43:16,14,0,22.719,5214.5083837278,167.650924,0.223694,1.19891408036,0,0,-0.671082,321.2, -0.5, -3.7,0,0,1024,1024,1024,1024,320.2,-89.9,91,3.777,3.782,3.8,3.781,3.757,3.789,19.053,75.2,14,Waypoint,
38.527083,-120.3543396,5215.4926357278,168.635176,0,0.99705711852,23000,2018-07-07 18:43:16,14,0,22.686,5215.4926357278,168.635176,0.223694,1.19891408036,0,0,-0.671082,321.2, -0.4, -3.7,0,0,1024,1024,1024,1024,320.2,-89.9,90,3.783,3.786,3.798,3.786,3.761,3.791,18.774,75.2,14,Waypoint,
38.527083,-120.3543396,5216.4768877278,169.619428,0,0.99705711852,23100,2018-07-07 18:43:16,14,0,22.686,5216.4768877278,169.619428,0.223694,1.19891408036,0,0,-0.671082,321.3, -0.2, -3.8,0,0,1024,1024,1024,1024,320.2,-89.9,90,3.783,3.786,3.798,3.786,3.761,3.791,18.774,75.2,14,Waypoint,
38.5270829,-120.3543396,5217.4611397278,170.60368,0,0.97886814156,23200,2018-07-07 18:43:16,14,0,22.686,5217.4611397278,170.60368,0.223694,1.19891408036,0,0,-0.671082,321.3, -0.1, -3.9,0,0,1024,1024,1024,1024,320.2,-90,90,3.783,3.786,3.798,3.786,3.761,3.791,18.774,75.2,14,Waypoint,
38.527083,-120.3543396,5218.4453917278,171.587932,0,0.99705711852,23300,2018-07-07 18:43:16,14,0,22.686,5218.4453917278,171.587932,0.223694,1.19891408036,0,0,-0.671082,321.3, -0.1, -4,0,0,1024,1024,1024,1024,320.2,-89.9,90,3.783,3.786,3.798,3.786,3.761,3.791,18.774,75.2,14,Waypoint,
38.527083,-120.3543396,5219.4296437278,172.572184,0,0.99705711852,23400,2018-07-07 18:43:16,14,0,22.686,5219.4296437278,172.572184,0.223694,1.19891408036,0,0,-0.671082,321.3, 0, -4.1,0,0,1024,1024,1024,1024,320.2,-89.9,90,3.783,3.786,3.798,3.786,3.761,3.791,18.774,75.2,14,Waypoint,
38.527083,-120.3543396,5220.4138957278,173.556436,0,0.99705711852,23500,2018-07-07 18:43:16,14,0,22.686,5220.4138957278,173.556436,0.223694,1.19891408036,0,0,-0.671082,321.3, 0, -4.1,0,0,1024,1024,1024,1024,320.2,-89.9,90,3.783,3.786,3.798,3.786,3.761,3.791,18.774,75.2,14,Waypoint,
38.527083,-120.3543396,5221.3981477278,174.540688,0,0.99705711852,23600,2018-07-07 18:43:16,14,0,22.686,5221.3981477278,174.540688,0.223694,1.19891408036,0,0,-0.671082,321.2, 0, -4.1,0,0,1024,1024,1024,1024,320.2,-89.9,90,3.783,3.786,3.798,3.786,3.761,3.791,18.774,75.2,14,Waypoint,
38.527083,-120.3543396,5222.3823997278,175.52494,0,0.99705711852,23700,2018-07-07 18:43:16,14,0,22.686,5222.3823997278,175.52494,0.223694,1.19891408036,0,0,-0.671082,321.2, 0, -4,0,0,1024,1024,1024,1024,320.2,-90,90,3.783,3.786,3.798,3.786,3.761,3.791,18.774,75.2,14,Waypoint,
38.527083,-120.3543396,5223.3666517278,176.509192,0,0.99705711852,23800,2018-07-07 18:43:16,14,0,22.686,5223.3666517278,176.509192,0.223694,1.19891408036,0,0,-0.671082,321.2, -0.1, -4.1,0,0,1024,1024,1024,1024,320.2,-89.9,90,3.783,3.786,3.798,3.786,3.761,3.791,18.774,75.2,14,Waypoint,
38.527083,-120.3543395,5225.3351557278,178.477696,0,1.02167326104,23900,2018-07-07 18:43:17,14,0,22.686,5225.3351557278,178.477696,0.223694,1.19891408036,0,0,-0.671082,321.1, -0.3, -4,0,0,1024,1024,1024,1024,320.2,-89.9,90,3.783,3.786,3.798,3.786,3.761,3.791,18.774,75.2,14,Waypoint,
38.5270829,-120.3543395,5226.3194077278,179.461948,0,1.00393047832,24000,2018-07-07 18:43:17,14,0,22.648,5226.3194077278,179.461948,0.223694,1.19891408036,0,0,-0.671082,321.1, -0.3, -3.8,0,0,1024,1024,1024,1024,320.2,-89.9,90,3.767,3.78,3.796,3.78,3.75,3.778,18.888,75.2,14,Waypoint,
38.5270829,-120.3543395,5227.3036597278,180.4462,0,1.00393047832,24100,2018-07-07 18:43:17,14,0,22.648,5227.3036597278,180.4462,0.223694,1.19891408036,0,0,-0.671082,321.1, -0.3, -3.7,0,0,1024,1024,1024,1024,320.2,-89.9,90,3.767,3.78,3.796,3.78,3.75,3.778,18.888,75.2,14,Waypoint,
38.5270829,-120.3543396,5228.2879117278,181.430452,0,0.97886814156,24200,2018-07-07 18:43:17,14,0,22.648,5228.2879117278,181.430452,0.223694,1.19891408036,0,0,-0.671082,321.1, -0.2, -3.7,0,0,1024,1024,1024,1024,320.2,-89.9,90,3.767,3.78,3.796,3.78,3.75,3.778,18.888,75.2,14,Waypoint,
38.5270829,-120.3543396,5229.2721637278,182.414704,0,0.97886814156,24400,2018-07-07 18:43:17,14,0,22.648,5229.2721637278,182.414704,0.223694,1.19891408036,0,0,-0.671082,321.1, -0.1, -3.7,0,0,1024,1024,1024,1024,320.2,-89.9,90,3.767,3.78,3.796,3.78,3.75,3.778,18.888,75.2,14,Waypoint,
38.527083,-120.3543396,5230.2564157278,183.398956,0,0.99705711852,24500,2018-07-07 18:43:17,14,0,22.648,5230.2564157278,183.398956,0.223694,1.19891408036,0,0,-0.671082,321.1, 0, -3.6,0,0,1024,1024,1024,1024,320.2,-89.9,90,3.767,3.78,3.796,3.78,3.75,3.778,18.888,75.2,14,Waypoint,
38.527083,-120.3543396,5231.2406677278,184.383208,0,0.99705711852,24600,2018-07-07 18:43:17,14,0,22.648,5231.2406677278,184.383208,0.223694,1.19891408036,0,0,-0.671082,321.2, 0, -3.6,0,0,1024,1024,1024,1024,320.2,-89.9,90,3.767,3.78,3.796,3.78,3.75,3.778,18.888,75.2,14,Waypoint,
38.527083,-120.3543397,5232.2249197278,185.36746,0,0.9726542306,24700,2018-07-07 18:43:17,14,0,22.648,5232.2249197278,185.36746,0.223694,1.19891408036,0,0,-0.671082,321.2, 0.2, -3.6,0,0,1024,1024,1024,1024,320.2,-89.9,90,3.767,3.78,3.796,3.78,3.75,3.778,18.888,75.2,14,Waypoint,
38.527083,-120.3543397,5233.2091717278,186.351712,0,0.9726542306,24800,2018-07-07 18:43:17,14,0,22.648,5233.2091717278,186.351712,0.223694,1.19891408036,0,0,-0.671082,321.2, 0.3, -3.6,0,0,1024,1024,1024,1024,320.2,-89.9,90,3.767,3.78,3.796,3.78,3.75,3.778,18.888,75.2,14,Waypoint,
38.527083,-120.3543397,5234.1934237278,187.335964,0,0.9726542306,24900,2018-07-07 18:43:18,14,0,22.648,5234.1934237278,187.335964,0.223694,1.19891408036,0,0,-0.671082,321.2, 0.3, -3.7,0,0,1024,1024,1024,1024,320.2,-89.9,90,3.767,3.78,3.796,3.78,3.75,3.778,18.888,75.2,14,Waypoint,
38.527083,-120.3543398,5235.5057597278,188.6483,0,0.94848100148,25000,2018-07-07 18:43:18,14,0,22.655,5235.5057597278,188.6483,0.223694,1.19891408036,0,0,-0.671082,321.2, 0.2, -3.7,0,0,1024,1024,1024,1024,320.2,-89.9,90,3.768,3.78,3.796,3.775,3.75,3.785,18.892,75.2,14,Waypoint,
38.527083,-120.3543398,5236.4900117278,189.632552,0,0.94848100148,25100,2018-07-07 18:43:18,14,0,22.655,5236.4900117278,189.632552,0.223694,1.19891408036,0,0,-0.671082,321.2, 0, -3.6,0,0,1024,1024,1024,1024,320.2,-89.9,90,3.768,3.78,3.796,3.775,3.75,3.785,18.892,75.2,14,Waypoint,
38.527083,-120.3543398,5237.4742637278,190.616804,0,0.94848100148,25200,2018-07-07 18:43:18,14,0,22.655,5237.4742637278,190.616804,0.223694,1.19891408036,0,0,-0.671082,321.2, 0, -3.6,0,0,1024,1024,1024,1024,320.2,-89.9,90,3.768,3.78,3.796,3.775,3.75,3.785,18.892,75.2,14,Waypoint,
38.527083,-120.3543398,5239.4427677278,192.585308,0,0.94848100148,25400,2018-07-07 18:43:18,14,0,22.655,5239.4427677278,192.585308,0.223694,1.19891408036,0,0,-0.671082,321.1, -0.2, -3.5,0,0,1024,1024,1024,1024,320.2,-90,90,3.768,3.78,3.796,3.775,3.75,3.785,18.892,75.2,14,Waypoint,
38.527083,-120.3543398,5240.4270197278,193.56956,0,0.94848100148,25500,2018-07-07 18:43:18,14,0,22.655,5240.4270197278,193.56956,0.223694,1.19891408036,0,0,-0.671082,321.1, -0.3, -3.4,0,0,1024,1024,1024,1024,320.2,-89.9,90,3.768,3.78,3.796,3.775,3.75,3.785,18.892,75.2,14,Waypoint,
38.527083,-120.3543398,5241.7393557278,194.881896,0,0.94848100148,25600,2018-07-07 18:43:18,14,0,22.655,5241.7393557278,194.881896,0.223694,1.19891408036,0,0,-0.671082,321.1, -0.4, -3.2,0,0,1024,1024,1024,1024,320.2,-89.9,90,3.768,3.78,3.796,3.775,3.75,3.785,18.892,75.2,14,Waypoint,
38.527083,-120.3543398,5242.7236077278,195.866148,0,0.94848100148,25700,2018-07-07 18:43:18,14,0,22.655,5242.7236077278,195.866148,0.223694,1.19891408036,0,0,-0.671082,321, -0.4, -3.1,0,0,1024,1024,1024,1024,320.2,-89.9,90,3.768,3.78,3.796,3.775,3.75,3.785,18.892,75.2,14,Waypoint,
38.527083,-120.3543398,5243.7078597278,196.8504,0,0.94848100148,25800,2018-07-07 18:43:18,14,0,22.655,5243.7078597278,196.8504,0.223694,1.19891408036,0,0,-0.671082,321, -0.4, -3.1,0,0,1024,1024,1024,1024,320.2,-89.9,90,3.768,3.78,3.796,3.775,3.75,3.785,18.892,75.2,14,Waypoint,
38.527083,-120.3543399,5244.6921117278,197.834652,0,0.92456039704,25900,2018-07-07 18:43:19,14,0,22.655,5244.6921117278,197.834652,0.223694,1.19891408036,0,0,-0.671082,321.1, -0.4, -3.1,0,0,1024,1024,1024,1024,320.2,-90,90,3.768,3.78,3.796,3.775,3.75,3.785,18.892,75.2,14,Waypoint,
38.527083,-120.3543399,5245.6763637278,198.818904,0,0.92456039704,26000,2018-07-07 18:43:19,14,0,22.605,5245.6763637278,198.818904,0.223694,1.19891408036,0,0,-0.671082,321.1, -0.4, -3.1,0,0,1024,1024,1024,1024,320.2,-90,90,3.761,3.772,3.788,3.768,3.747,3.778,19.111,75.2,14,Waypoint,
38.527083,-120.3543398,5247.6448677278,200.787408,0,0.94848100148,26100,2018-07-07 18:43:19,14,0,22.605,5247.6448677278,200.787408,0.223694,1.19891408036,0,0,-0.671082,321, -0.5, -3.3,0,0,1024,1024,1024,1024,320.2,-90,90,3.761,3.772,3.788,3.768,3.747,3.778,19.111,75.2,14,Waypoint,
38.5270831,-120.3543398,5248.6291197278,201.77166,0,0.9686187974,26200,2018-07-07 18:43:19,14,0,22.605,5248.6291197278,201.77166,0.223694,1.19891408036,0,0,-0.671082,320.9, -0.5, -3.5,0,0,1024,1024,1024,1024,320.2,-89.9,90,3.761,3.772,3.788,3.768,3.747,3.778,19.111,75.2,14,Waypoint,
38.5270832,-120.3543397,5249.6133717278,202.755912,0,1.01288060984,26300,2018-07-07 18:43:19,14,0,22.605,5249.6133717278,202.755912,0.223694,1.19891408036,0,0,-0.671082,320.8, -0.3, -3.8,0,0,1024,1024,1024,1024,320.2,-89.9,90,3.761,3.772,3.788,3.768,3.747,3.778,19.111,75.2,14,Waypoint,
38.5270832,-120.3543397,5250.5976237278,203.740164,0,1.01288060984,26400,2018-07-07 18:43:19,14,0,22.605,5250.5976237278,203.740164,0.223694,1.19891408036,0,0,-0.671082,320.8, -0.1, -4,0,0,1024,1024,1024,1024,320.2,-89.9,90,3.761,3.772,3.788,3.768,3.747,3.778,19.111,75.2,14,Waypoint,
38.5270833,-120.3543397,5251.5818757278,204.724416,0,1.03433730344,26500,2018-07-07 18:43:19,14,0,22.605,5251.5818757278,204.724416,0.223694,1.19891408036,0,0,-0.671082,320.8, 0, -4.1,0,0,1024,1024,1024,1024,320.2,-89.9,90,3.761,3.772,3.788,3.768,3.747,3.778,19.111,75.2,14,Waypoint,
38.5270834,-120.3543397,5252.5661277278,205.708668,0,1.05661748788,26700,2018-07-07 18:43:19,14,0,22.605,5252.5661277278,205.708668,0.223694,1.19891408036,0,0,-0.671082,320.9, 0.2, -4.2,0,0,1024,1024,1024,1024,320.2,-89.9,90,3.761,3.772,3.788,3.768,3.747,3.778,19.111,75.2,14,Waypoint,
38.5270835,-120.3543397,5253.5503797278,206.69292,0,1.07967195056,26800,2018-07-07 18:43:19,14,0,22.605,5253.5503797278,206.69292,0.223694,1.19891408036,0,0,-0.671082,321, 0.4, -4.4,0,0,1024,1024,1024,1024,320.2,-89.9,90,3.761,3.772,3.788,3.768,3.747,3.778,19.111,75.2,14,Waypoint,
38.5270836,-120.3543397,5254.5346317278,207.677172,0,1.10345475972,26900,2018-07-07 18:43:20,14,0,22.605,5254.5346317278,207.677172,0.223694,1.19891408036,0,0,-0.671082,321.2, 0.5, -4.3,0,0,1024,1024,1024,1024,320.2,-89.9,90,3.761,3.772,3.788,3.768,3.747,3.778,19.111,75.2,14,Waypoint,
38.5270836,-120.3543397,5255.5188837278,208.661424,0,1.10345475972,27000,2018-07-07 18:43:20,14,0,22.705,5255.5188837278,208.661424,0.223694,1.19891408036,0,0,-0.671082,321.3, 0.4, -4.2,0,0,1024,1024,1024,1024,320.2,-89.9,90,3.761,3.772,3.788,3.768,3.747,3.778,17.889,75.2,14,Waypoint,
