latitude,longitude,altitude(feet),ascent(feet),speed(mph),distance(feet),time(millisecond),datetime(utc),satellites,gpslevel,voltage(v),max_altitude(feet),max_ascent(feet),max_speed(mph),max_distance(feet), xSpeed(mph), ySpeed(mph), zSpeed(mph), compass_heading(degrees), pitch(degrees), roll(degrees),isPhoto,isVideo,rc_elevator,rc_aileron,rc_throttle,rc_rudder,gimbal_heading(degrees),gimbal_pitch(degrees),battery_percent,voltageCell1,voltageCell2,voltageCell3,voltageCell4,voltageCell5,voltageCell6,current(A),battery_temperature(f),flycStateRaw,flycState,message
38.5270979,-120.3542666,5056.99434227,0,0,0,3100,2018-07-07 19:19:40,11,0,0,5056.99434227,0,0,0,0,0,0,317.4, 0.8, 0,1,0,1024,1024,1024,1024,316,-89.9,100,4.253,4.264,4.289,4.261,4.262,4.263,0,75.2,11,AutoTakeoff,DJI_0525.jpg Starting Mission from Lat/Long: 38.52710/-120.35427 Camera: Zenmuse X3 - Overlap: 90/90 - Active Connection: No
38.5270978,-120.3542665,5056.99434227,0,0,0.046323164212,3300,2018-07-07 19:19:40,11,0,0,5056.99434227,0,0,0.046323164212,0,0,0,317.5, 0.3, 0.2,0,0,1024,1024,1024,1024,316,-89.9,100,4.253,4.264,4.289,4.261,4.262,4.263,0,75.2,11,AutoTakeoff,
38.5270978,-120.3542665,5057.32242627,0.328084,0,0.046323164212,3500,2018-07-07 19:19:40,11,0,0,5057.32242627,0.328084,0,0.046323164212,0,0,0,317.5, 0.4, 0.5,0,0,1024,1024,1024,1024,316,-89.9,100,4.253,4.264,4.289,4.261,4.262,4.263,0,75.2,11,AutoTakeoff,
38.5270977,-120.3542665,5057.32242627,0.328084,0,0.078353677048,3600,2018-07-07 19:19:40,10,0,0,5057.32242627,0.328084,0,0.078353677048,0,0,0,317.5, 0.4, 0.6,0,0,1024,1024,1024,1024,316.1,-89.9,100,4.253,4.264,4.289,4.261,4.262,4.263,0,75.2,11,AutoTakeoff,
38.5270977,-120.3542664,5057.32242627,0.328084,0,0.092646328424,3700,2018-07-07 19:19:40,10,0,0,5057.32242627,0.328084,0,0.092646328424,0,0,0,317.4, 0.4, 0.5,0,0,1024,1024,1024,1024,316.1,-89.9,100,4.253,4.264,4.289,4.261,4.262,4.263,0,75.2,11,AutoTakeoff,
38.5270977,-120.3542664,5057.65051027,0.656168,0,0.092646328424,3800,2018-07-07 19:19:40,10,0,0,5057.65051027,0.656168,0,0.092646328424,0,0,0,317.4, 0.2, 0.3,0,0,1024,1024,1024,1024,316.1,-90,100,4.253,4.264,4.289,4.261,4.262,4.263,0,75.2,11,AutoTakeoff,
38.5270977,-120.3542663,5057.65051027,0.656168,0,0.112502300188,3900,2018-07-07 19:19:40,10,0,0,5057.65051027,0.656168,0,0.112502300188,0,0,0,317.4, 0, 0.2,0,0,1024,1024,1024,1024,316.1,-90,100,4.253,4.264,4.289,4.261,4.262,4.263,0,75.2,11,AutoTakeoff,
38.5270977,-120.3542663,5057.65051027,0.656168,0,0.112502300188,4000,2018-07-07 19:19:40,9,0,25.661,5057.65051027,0.656168,0,0.112502300188,0,0,0,317.6, -0.3, 0.3,0,0,1024,1024,1024,1024,316.1,-90,100,4.253,4.264,4.289,4.261,4.262,4.263,2.965,75.2,11,AutoTakeoff,
38.5270977,-120.3542663,5057.97859427,0.984252,0,0.112502300188,4100,2018-07-07 19:19:41,9,0,25.661,5057.97859427,0.984252,0,0.112502300188,0,0,0,317.8, -0.3, 0.3,0,0,1024,1024,1024,1024,316.1,-89.9,100,4.253,4.264,4.289,4.261,4.262,4.263,2.965,75.2,11,AutoTakeoff,
38.5270978,-120.3542662,5057.97859427,0.984252,0,0.119858599636,4200,2018-07-07 19:19:41,8,0,25.661,5057.97859427,0.984252,0,0.119858599636,0,0,-0.223694,317.9, 0, 0.1,0,0,1024,1024,1024,1024,316.1,-89.9,100,4.253,4.264,4.289,4.261,4.262,4.263,2.965,75.2,11,AutoTakeoff,
38.5270978,-120.3542663,5058.30667827,1.312336,0,0.093076774632,4300,2018-07-07 19:19:41,8,0,25.661,5058.30667827,1.312336,0,0.119858599636,0,0,0,317.9, 0.1, -0.2,0,0,1024,1024,1024,1024,316.1,-89.9,100,4.253,4.264,4.289,4.261,4.262,4.263,2.965,75.2,11,AutoTakeoff,
38.5270978,-120.3542664,5058.63476227,1.64042,0,0.067748689832,4400,2018-07-07 19:19:41,9,0,25.661,5058.63476227,1.64042,0,0.119858599636,0,0,0,317.8, 0, -0.2,0,0,1024,1024,1024,1024,316.2,-89.9,100,4.253,4.264,4.289,4.261,4.262,4.263,2.965,75.2,11,AutoTakeoff,
38.5270979,-120.3542664,5058.63476227,1.64042,0,0.057085303664,4500,2018-07-07 19:19:41,9,0,25.661,5058.63476227,1.64042,0,0.119858599636,0,0,0,317.5, 0.2, -0.1,0,0,1024,1024,1024,1024,316.2,-89.9,100,4.253,4.264,4.289,4.261,4.262,4.263,2.965,75.2,11,AutoTakeoff,
38.527098,-120.3542664,5058.96284627,1.968504,0,0.067748689832,4600,2018-07-07 19:19:41,8,0,25.661,5058.96284627,1.968504,0,0.119858599636,0,0,-0.223694,317.2, 0.5, -0.2,0,0,1024,1024,1024,1024,316.2,-89.9,100,4.253,4.264,4.289,4.261,4.262,4.263,2.965,75.2,11,AutoTakeoff,
38.5270981,-120.3542664,5058.96284627,1.968504,0,0.092646328424,4700,2018-07-07 19:19:41,8,0,25.661,5058.96284627,1.968504,0,0.119858599636,0,0,-0.223694,316.8, 0.8, -0.3,0,0,1024,1024,1024,1024,316.2,-89.9,100,4.253,4.264,4.289,4.261,4.262,4.263,2.965,75.2,11,AutoTakeoff,
38.5270981,-120.3542665,5059.29093027,2.296588,0,0.078353677048,4800,2018-07-07 19:19:41,9,0,25.661,5059.29093027,2.296588,0,0.119858599636,0,0,0,316.5, 0.7, -0.3,0,0,1024,1024,1024,1024,316.2,-89.9,100,4.253,4.264,4.289,4.261,4.262,4.263,2.965,75.2,11,AutoTakeoff,
38.5270982,-120.3542665,5059.29093027,2.296588,0,0.1131151611,4900,2018-07-07 19:19:41,9,0,25.661,5059.29093027,2.296588,0,0.119858599636,0,0,0,316.2, 0.7, -0.3,0,0,1024,1024,1024,1024,316.2,-89.9,100,4.253,4.264,4.289,4.261,4.262,4.263,2.965,75.2,11,AutoTakeoff,
38.5270982,-120.3542665,5059.61901427,2.624672,0,0.1131151611,5000,2018-07-07 19:19:41,10,0,24.449,5059.61901427,2.624672,0,0.119858599636,0,0,0,316.2, 0.6, -0.6,0,0,1024,1024,1024,1024,316.2,-89.9,100,4.063,4.052,4.068,4.092,4.078,4.042,11.169,75.2,11,AutoTakeoff,
38.5270983,-120.3542663,5059.94709827,2.952756,0,0.169205714076,5100,2018-07-07 19:19:42,10,0,24.449,5059.94709827,2.952756,0,0.169205714076,0,0,-0.223694,316.4, 0.8, -0.7,0,0,1024,1024,1024,1024,316.2,-89.9,100,4.063,4.052,4.068,4.092,4.078,4.042,11.169,75.2,14,Waypoint,
38.5270984,-120.3542663,5059.94709827,2.952756,0,0.201521659992,5200,2018-07-07 19:19:42,10,0,24.449,5059.94709827,2.952756,0,0.201521659992,0,0,0,316.6, 0.9, -0.9,0,0,1024,1024,1024,1024,316.2,-89.9,100,4.063,4.052,4.068,4.092,4.078,4.042,11.169,75.2,14,Waypoint,
38.5270984,-120.3542663,5060.27518227,3.28084,0,0.201521659992,5300,2018-07-07 19:19:42,9,0,24.449,5060.27518227,3.28084,0,0.201521659992,0,0,0,316.7, 1, -1,0,0,1024,1024,1024,1024,316.2,-89.9,100,4.063,4.052,4.068,4.092,4.078,4.042,11.169,75.2,14,Waypoint,
38.5270984,-120.3542662,5060.27518227,3.28084,0,0.215206371716,5400,2018-07-07 19:19:42,9,0,24.449,5060.27518227,3.28084,0,0.215206371716,0,0,0,316.9, 1, -0.8,0,0,1024,1024,1024,1024,316.2,-89.9,100,4.063,4.052,4.068,4.092,4.078,4.042,11.169,75.2,14,Waypoint,
38.5270984,-120.3542662,5060.60326627,3.608924,0,0.215206371716,5600,2018-07-07 19:19:42,10,0,24.449,5060.60326627,3.608924,0,0.215206371716,0,0,0,316.9, 0.6, -0.7,0,0,1024,1024,1024,1024,316.2,-90,100,4.063,4.052,4.068,4.092,4.078,4.042,11.169,75.2,14,Waypoint,
38.5270985,-120.3542662,5060.93135027,3.937008,0,0.246893380604,5700,2018-07-07 19:19:42,10,0,24.449,5060.93135027,3.937008,0,0.246893380604,0,0,-0.223694,316.7, 0.4, -0.7,0,0,1024,1024,1024,1024,316.2,-90,100,4.063,4.052,4.068,4.092,4.078,4.042,11.169,75.2,14,Waypoint,
38.5270984,-120.3542661,5060.93135027,3.937008,0,0.23161582106,5900,2018-07-07 19:19:42,10,0,24.449,5060.93135027,3.937008,0,0.246893380604,0,0,-0.223694,316.6, 0.3, -0.7,0,0,1024,1024,1024,1024,316.2,-90,100,4.063,4.052,4.068,4.092,4.078,4.042,11.169,75.2,14,Waypoint,
38.5270984,-120.3542659,5061.25943427,4.265092,0,0.270551845928,6000,2018-07-07 19:19:42,8,0,24.175,5061.25943427,4.265092,0,0.270551845928,0,0,-0.223694,316.6, 0.2, -0.7,0,0,1024,1024,1024,1024,316.2,-90,98,4.025,4.025,4.022,4.033,4.02,4.023,11.169,75.2,14,Waypoint,
38.5270984,-120.3542659,5061.58751827,4.593176,0,0.270551845928,6100,2018-07-07 19:19:43,8,0,24.175,5061.58751827,4.593176,0,0.270551845928,0,0,-0.223694,316.7, 0.1, -0.7,0,0,1024,1024,1024,1024,316.2,-90,98,4.025,4.025,4.022,4.033,4.02,4.023,11.169,75.2,14,Waypoint,
38.5270984,-120.3542659,5061.91560227,4.92126,0,0.270551845928,6200,2018-07-07 19:19:43,8,0,24.175,5061.91560227,4.92126,0,0.270551845928,0,0,-0.223694,316.8, 0, -0.6,0,0,1024,1024,1024,1024,316.2,-90,98,4.025,4.025,4.022,4.033,4.02,4.023,11.169,75.2,14,Waypoint,
38.5270983,-120.3542658,5062.57177027,5.577428,0,0.270994759328,6300,2018-07-07 19:19:43,8,0,24.175,5062.57177027,5.577428,0,0.270994759328,0,0,-0.223694,316.8, 0, -0.7,0,0,1024,1024,1024,1024,316.2,-90,98,4.025,4.025,4.022,4.033,4.02,4.023,11.169,75.2,14,Waypoint,
38.5270983,-120.3542657,5062.89985427,5.905512,0,0.295445219428,6400,2018-07-07 19:19:43,8,0,24.175,5062.89985427,5.905512,0,0.295445219428,0,0,-0.447388,316.7, -0.1, -0.8,0,0,1024,1024,1024,1024,316.2,-90,98,4.025,4.025,4.022,4.033,4.02,4.023,11.169,75.2,14,Waypoint,
38.5270983,-120.3542657,5063.55602227,6.56168,0,0.295445219428,6500,2018-07-07 19:19:43,8,0,24.175,5063.55602227,6.56168,0,0.295445219428,0,0,-0.447388,316.7, -0.2, -0.9,0,0,1024,1024,1024,1024,316.2,-90,98,4.025,4.025,4.022,4.033,4.02,4.023,11.169,75.2,14,Waypoint,
38.5270982,-120.3542657,5064.21219027,7.217848,0,0.27923065198,6600,2018-07-07 19:19:43,9,0,24.175,5064.21219027,7.217848,0,0.295445219428,0,0,-0.447388,316.6, -0.2, -0.5,0,0,1024,1024,1024,1024,316.2,-90,98,4.025,4.025,4.022,4.033,4.02,4.023,11.169,75.2,14,Waypoint,
38.5270982,-120.3542658,5064.86835827,7.874016,0,0.253219496292,6700,2018-07-07 19:19:43,9,0,24.175,5064.86835827,7.874016,0,0.295445219428,0,0,-0.447388,316.6, -0.2, -0.2,0,0,1024,1024,1024,1024,316.2,-90,98,4.025,4.025,4.022,4.033,4.02,4.023,11.169,75.2,14,Waypoint,
38.5270982,-120.354266,5065.85261027,8.858268,0,0.203246069496,6800,2018-07-07 19:19:43,8,0,24.175,5065.85261027,8.858268,0,0.295445219428,0,0,-0.671082,316.5, 0.1, 0,0,0,1024,1024,1024,1024,316.2,-90,98,4.025,4.025,4.022,4.033,4.02,4.023,11.169,75.2,14,Waypoint,
38.5270982,-120.3542662,5066.83686227,9.84252,0,0.158162406636,6900,2018-07-07 19:19:43,8,0,24.175,5066.83686227,9.84252,0,0.295445219428,0,0,-0.671082,316.4, 0.8, 0,0,0,1024,1024,1024,1024,316.2,-89.9,98,4.025,4.025,4.022,4.033,4.02,4.023,11.169,75.2,14,Waypoint,
38.5270982,-120.3542665,5067.49303027,10.498688,0,0.1131151611,7000,2018-07-07 19:19:43,9,0,24.057,5067.49303027,10.498688,0,0.295445219428,0,0,-0.671082,316.5, 1.4, 0.3,0,0,1024,1024,1024,1024,316.2,-89.9,98,3.968,3.946,3.997,4.021,4.054,3.982,18.691,75.2,14,Waypoint,
38.5270982,-120.3542666,5068.80536627,11.811024,0,0.109454727912,7100,2018-07-07 19:19:44,9,0,24.057,5068.80536627,11.811024,0,0.295445219428,0,0,-0.671082,316.6, 1.7, 0.5,0,0,1024,1024,1024,1024,316.2,-89.9,98,3.968,3.946,3.997,4.021,4.054,3.982,18.691,75.2,14,Waypoint,
38.5270982,-120.3542667,5069.78961827,12.795276,0,0.1131151611,7200,2018-07-07 19:19:44,9,0,24.057,5069.78961827,12.795276,0,0.295445219428,0,0,-0.671082,316.7, 1.6, 0.2,0,0,1024,1024,1024,1024,316.2,-89.9,98,3.968,3.946,3.997,4.021,4.054,3.982,18.691,75.2,14,Waypoint,
38.5270982,-120.3542667,5070.77387027,13.779528,0,0.1131151611,7300,2018-07-07 19:19:44,9,0,24.057,5070.77387027,13.779528,0,0.295445219428,0,0,-0.671082,316.8, 1.5, 0.1,0,0,1024,1024,1024,1024,316.2,-89.9,98,3.968,3.946,3.997,4.021,4.054,3.982,18.691,75.2,14,Waypoint,
38.5270983,-120.3542668,5072.08620627,15.091864,0,0.156707354096,7400,2018-07-07 19:19:44,9,0,24.057,5072.08620627,15.091864,0,0.295445219428,0,0,-0.671082,316.9, 1.3, -0.1,0,0,1024,1024,1024,1024,316.2,-89.9,98,3.968,3.946,3.997,4.021,4.054,3.982,18.691,75.2,14,Waypoint,
38.5270983,-120.3542667,5073.07045827,16.076116,0,0.148704729168,7500,2018-07-07 19:19:44,9,0,24.057,5073.07045827,16.076116,0,0.295445219428,0,0,-0.671082,316.9, 1.2, -0.5,0,0,1024,1024,1024,1024,316.2,-89.9,98,3.968,3.946,3.997,4.021,4.054,3.982,18.691,75.2,14,Waypoint,
38.5270983,-120.3542666,5074.38279427,17.388452,0,0.145939637216,7600,2018-07-07 19:19:44,9,0,24.057,5074.38279427,17.388452,0,0.295445219428,0,0,-0.671082,317, 1, -0.8,0,0,1024,1024,1024,1024,316.2,-89.9,98,3.968,3.946,3.997,4.021,4.054,3.982,18.691,75.2,14,Waypoint,
38.5270984,-120.3542666,5075.36704627,18.372704,0,0.18242454652,7700,2018-07-07 19:19:44,9,0,24.057,5075.36704627,18.372704,0,0.295445219428,0,0,-0.671082,317.1, 0.9, -0.8,0,0,1024,1024,1024,1024,316.2,-89.9,98,3.968,3.946,3.997,4.021,4.054,3.982,18.691,75.2,14,Waypoint,
38.5270985,-120.3542666,5076.35129827,19.356956,0,0.218909783908,7800,2018-07-07 19:19:44,9,0,24.057,5076.35129827,19.356956,0,0.295445219428,0,0,-0.671082,317.3, 0.8, -0.8,0,0,1024,1024,1024,1024,316.2,-89.9,98,3.968,3.946,3.997,4.021,4.054,3.982,18.691,75.2,14,Waypoint,
38.5270983,-120.3542666,5078.64788627,21.653544,0,0.145939637216,7900,2018-07-07 19:19:44,10,0,24.057,5078.64788627,21.653544,0,0.295445219428,0,0,-0.671082,317.3, 0.7, -0.5,0,0,1024,1024,1024,1024,316.2,-89.9,98,3.968,3.946,3.997,4.021,4.054,3.982,18.691,75.2,14,Waypoint,
38.5270983,-120.3542665,5079.63213827,22.637796,0,0.148704729168,8000,2018-07-07 19:19:44,10,0,23.209,5079.63213827,22.637796,0,0.295445219428,0,0,-0.671082,317.2, 0.4, -0.3,0,0,1024,1024,1024,1024,316.2,-90,98,3.862,3.859,3.89,3.905,3.885,3.93,25.247,75.2,14,Waypoint,
38.5270983,-120.3542663,5080.94447427,23.950132,0,0.169205714076,8100,2018-07-07 19:19:45,10,0,23.209,5080.94447427,23.950132,0,0.295445219428,0,0,-0.671082,317, 0, -0.4,0,0,1024,1024,1024,1024,316.2,-90,98,3.862,3.859,3.89,3.905,3.885,3.93,25.247,75.2,14,Waypoint,
38.5270982,-120.3542663,5081.92872627,24.934384,0,0.138969492636,8200,2018-07-07 19:19:45,10,0,23.209,5081.92872627,24.934384,0,0.295445219428,0,0,-0.671082,316.7, -0.3, -0.5,0,0,1024,1024,1024,1024,316.2,-90,98,3.862,3.859,3.89,3.905,3.885,3.93,25.247,75.2,14,Waypoint,
38.5270981,-120.3542662,5082.91297827,25.918636,0,0.135497379664,8300,2018-07-07 19:19:45,10,0,23.209,5082.91297827,25.918636,0,0.295445219428,0,0,-0.671082,316.6, -0.5, -0.8,0,0,1024,1024,1024,1024,316.2,-90,98,3.862,3.859,3.89,3.905,3.885,3.93,25.247,75.2,14,Waypoint,
38.527098,-120.3542661,5084.22531427,27.230972,0,0.14730315432,8410,2018-07-07 19:19:45,10,0,23.209,5084.22531427,27.230972,0,0.295445219428,0,0,-0.671082,316.5, -0.5, -0.6,0,0,1024,1024,1024,1024,316.2,-90,98,3.862,3.859,3.89,3.905,3.885,3.93,25.247,75.2,14,Waypoint,
38.527098,-120.3542661,5084.22531427,27.230972,0,0.14730315432,8500,2018-07-07 19:19:45,10,0,23.209,5084.22531427,27.230972,0,0.295445219428,0,0,-0.671082,316.5, -0.5, -0.6,0,0,1024,1024,1024,1024,316.2,-90,98,3.862,3.859,3.89,3.905,3.885,3.93,25.247,75.2,14,Waypoint,
38.527098,-120.354266,5085.20956627,28.215224,0,0.175099415052,8600,2018-07-07 19:19:45,11,0,23.209,5085.20956627,28.215224,0,0.295445219428,0,0,-0.671082,316.4, -0.4, -0.4,0,0,1024,1024,1024,1024,316.2,-90,98,3.862,3.859,3.89,3.905,3.885,3.93,25.247,75.2,14,Waypoint,
38.527098,-120.3542659,5086.19381827,29.199476,0,0.203102696788,8700,2018-07-07 19:19:45,11,0,23.209,5086.19381827,29.199476,0,0.295445219428,0,0,-0.671082,316.4, -0.3, -0.2,0,0,1024,1024,1024,1024,316.2,-89.9,98,3.862,3.859,3.89,3.905,3.885,3.93,25.247,75.2,14,Waypoint,
38.527098,-120.3542658,5087.50615427,30.511812,0,0.231237868292,8800,2018-07-07 19:19:45,11,0,23.209,5087.50615427,30.511812,0,0.295445219428,0,0,-0.671082,316.3, -0.1, -0.3,0,0,1024,1024,1024,1024,316.2,-89.9,98,3.862,3.859,3.89,3.905,3.885,3.93,25.247,75.2,14,Waypoint,
38.527098,-120.3542656,5088.49040627,31.496064,0,0.287749024956,8900,2018-07-07 19:19:45,11,0,23.209,5088.49040627,31.496064,0,0.295445219428,0,0,-0.671082,316.4, 0, -0.7,0,0,1024,1024,1024,1024,316.2,-89.9,98,3.862,3.859,3.89,3.905,3.885,3.93,25.247,75.2,14,Waypoint,
38.527098,-120.3542653,5089.47465827,32.480316,0,0.37284450012,9000,2018-07-07 19:19:45,11,0,23.58,5089.47465827,32.480316,0,0.37284450012,0,0,-0.671082,316.4, 0.3, -0.9,0,0,1024,1024,1024,1024,316.2,-89.9,98,3.922,3.929,3.94,3.949,3.936,3.94,19.294,75.2,14,Waypoint,
38.527098,-120.3542651,5090.45891027,33.464568,0,0.4296916148,9100,2018-07-07 19:19:46,11,0,23.58,5090.45891027,33.464568,0,0.4296916148,0,0,-0.671082,316.7, 0.4, -1,0,0,1024,1024,1024,1024,316.2,-89.9,98,3.922,3.929,3.94,3.949,3.936,3.94,19.294,75.2,14,Waypoint,
38.5270979,-120.3542649,5091.44316227,34.44882,0,0.48522639348,9200,2018-07-07 19:19:46,11,0,23.58,5091.44316227,34.44882,0,0.48522639348,0,0,-0.671082,316.9, -0.1, -1.1,0,0,1024,1024,1024,1024,316.2,-90,98,3.922,3.929,3.94,3.949,3.936,3.94,19.294,75.2,14,Waypoint,
38.5270979,-120.3542647,5092.75549827,35.761156,0,0.54230972864,9300,2018-07-07 19:19:46,11,0,23.58,5092.75549827,35.761156,0,0.54230972864,0,0,-0.671082,317.1, -0.8, -1.5,0,0,1024,1024,1024,1024,316.2,-90,98,3.922,3.929,3.94,3.949,3.936,3.94,19.294,75.2,14,Waypoint,
38.5270978,-120.3542645,5093.73975027,36.745408,0,0.60050526856,9400,2018-07-07 19:19:46,12,0,23.58,5093.73975027,36.745408,0,0.60050526856,0,0,-0.671082,317.1, -1.2, -1.5,0,0,1024,1024,1024,1024,316.2,-90,98,3.922,3.929,3.94,3.949,3.936,3.94,19.294,75.2,14,Waypoint,
38.5270978,-120.3542643,5094.72400227,37.72966,0,0.65749345936,9500,2018-07-07 19:19:46,12,0,23.58,5094.72400227,37.72966,0,0.65749345936,0,0,-0.671082,317.1, -1.3, -1.7,0,0,1024,1024,1024,1024,316.2,-90,98,3.922,3.929,3.94,3.949,3.936,3.94,19.294,75.2,14,Waypoint,
38.5270979,-120.3542642,5095.70825427,38.713912,0,0.6850229878,9600,2018-07-07 19:19:46,12,0,23.58,5095.70825427,38.713912,0,0.6850229878,0,0,-0.671082,317, -1.2, -2.1,0,0,1024,1024,1024,1024,316.2,-89.9,98,3.922,3.929,3.94,3.949,3.936,3.94,19.294,75.2,14,Waypoint,
38.5270978,-120.3542642,5096.69250627,39.698164,0,0.68599411644,9700,2018-07-07 19:19:46,12,0,23.58,5096.69250627,39.698164,0,0.68599411644,0,0,-0.671082,317, -0.9, -2,0,0,1024,1024,1024,1024,316.2,-90,98,3.922,3.929,3.94,3.949,3.936,3.94,19.294,75.2,14,Waypoint,
38.5270978,-120.3542643,5097.67675827,40.682416,0,0.65749345936,9800,2018-07-07 19:19:46,11,0,23.58,5097.67675827,40.682416,0,0.68599411644,0,0,-0.671082,317, -0.9, -1.5,0,0,1024,1024,1024,1024,316.2,-90,98,3.922,3.929,3.94,3.949,3.936,3.94,19.294,75.2,14,Waypoint,
38.5270978,-120.3542643,5098.66101027,41.666668,0,0.65749345936,9900,2018-07-07 19:19:46,11,0,23.58,5098.66101027,41.666668,0,0.68599411644,0,0,-0.671082,317, -0.8, -1.3,0,0,1024,1024,1024,1024,316.2,-89.9,98,3.922,3.929,3.94,3.949,3.936,3.94,19.294,75.2,14,Waypoint,
38.5270978,-120.3542644,5099.64526227,42.65092,0,0.62899936396,10000,2018-07-07 19:19:46,11,0,23.664,5099.64526227,42.65092,0,0.68599411644,0,0,-0.671082,316.9, -0.4, -1,0,0,1024,1024,1024,1024,316.2,-89.9,98,3.946,3.933,3.925,3.956,3.952,3.942,18.241,75.2,14,Waypoint,
38.5270978,-120.3542645,5100.62951427,43.635172,0,0.60050526856,10100,2018-07-07 19:19:47,11,0,23.664,5100.62951427,43.635172,0,0.68599411644,0,0,-0.671082,316.8, 0, -0.8,0,0,1024,1024,1024,1024,316.2,-89.9,98,3.946,3.933,3.925,3.956,3.952,3.942,18.241,75.2,14,Waypoint,
38.5270979,-120.3542645,5101.94185027,44.947508,0,0.59939634464,10200,2018-07-07 19:19:47,10,0,23.664,5101.94185027,44.947508,0,0.68599411644,0,0,-0.671082,316.6, 0.1, -0.9,0,0,1024,1024,1024,1024,316.2,-89.9,98,3.946,3.933,3.925,3.956,3.952,3.942,18.241,75.2,14,Waypoint,
38.5270979,-120.3542648,5103.91035427,46.916012,0,0.51376642064,10300,2018-07-07 19:19:47,10,0,23.664,5103.91035427,46.916012,0,0.68599411644,0,0,-0.671082,316.4, 0.3, -1,0,0,1024,1024,1024,1024,316.2,-89.9,98,3.946,3.933,3.925,3.956,3.952,3.942,18.241,75.2,14,Waypoint,
38.5270979,-120.3542649,5104.89460627,47.900264,0,0.48522639348,10400,2018-07-07 19:19:47,10,0,23.664,5104.89460627,47.900264,0,0.68599411644,0,0,-0.671082,316.4, 0.5, -0.8,0,0,1024,1024,1024,1024,316.2,-89.9,98,3.946,3.933,3.925,3.956,3.952,3.942,18.241,75.2,14,Waypoint,
38.5270979,-120.3542649,5105.87885827,48.884516,0,0.48522639348,10500,2018-07-07 19:19:47,10,0,23.664,5105.87885827,48.884516,0,0.68599411644,0,0,-0.671082,316.5, 0.7, -0.7,0,0,1024,1024,1024,1024,316.2,-89.9,98,3.946,3.933,3.925,3.956,3.952,3.942,18.241,75.2,14,Waypoint,
38.5270979,-120.3542649,5106.86311027,49.868768,0,0.48522639348,10600,2018-07-07 19:19:47,10,0,23.664,5106.86311027,49.868768,0,0.68599411644,0,0,-0.671082,316.5, 0.5, -0.8,0,0,1024,1024,1024,1024,316.2,-89.9,98,3.946,3.933,3.925,3.956,3.952,3.942,18.241,75.2,14,Waypoint,
38.5270979,-120.3542649,5107.84736227,50.85302,0,0.48522639348,10700,2018-07-07 19:19:47,12,0,23.664,5107.84736227,50.85302,0,0.68599411644,0,0,-0.671082,316.5, 0.2, -1,0,0,1024,1024,1024,1024,316.2,-90,98,3.946,3.933,3.925,3.956,3.952,3.942,18.241,75.2,14,Waypoint,
38.5270979,-120.3542649,5108.83161427,51.837272,0,0.48522639348,10800,2018-07-07 19:19:47,12,0,23.664,5108.83161427,51.837272,0,0.68599411644,0,0,-0.671082,316.6, 0.1, -1.2,0,0,1024,1024,1024,1024,316.2,-89.9,98,3.946,3.933,3.925,3.956,3.952,3.942,18.241,75.2,14,Waypoint,
38.527098,-120.3542649,5110.80011827,53.805776,0,0.48659450376,11000,2018-07-07 19:19:47,12,0,23.627,5110.80011827,53.805776,0,0.68599411644,0,0,-0.671082,316.5, 0, -1.1,0,0,1024,1024,1024,1024,316.2,-90,98,3.946,3.933,3.925,3.956,3.952,3.942,18.362,77,14,Waypoint,
38.527098,-120.3542649,5111.45628627,54.461944,0,0.48659450376,11100,2018-07-07 19:19:48,11,0,23.627,5111.45628627,54.461944,0,0.68599411644,0,0,-0.671082,316.4, 0, -1,0,0,1024,1024,1024,1024,316.2,-90,98,3.946,3.933,3.925,3.956,3.952,3.942,18.362,77,14,Waypoint,
38.527098,-120.3542649,5112.44053827,55.446196,0,0.48659450376,11300,2018-07-07 19:19:48,11,0,23.627,5112.44053827,55.446196,0,0.68599411644,0,0,-0.671082,316.4, 0, -1,0,0,1024,1024,1024,1024,316.2,-89.9,98,3.946,3.933,3.925,3.956,3.952,3.942,18.362,77,14,Waypoint,
38.527098,-120.354265,5113.75287427,56.758532,0,0.4581364976,11400,2018-07-07 19:19:48,11,0,23.627,5113.75287427,56.758532,0,0.68599411644,0,0,-0.671082,316.4, 0, -1.2,0,0,1024,1024,1024,1024,316.2,-90,98,3.946,3.933,3.925,3.956,3.952,3.942,18.362,77,14,Waypoint,
38.527098,-120.354265,5114.73712627,57.742784,0,0.4581364976,11500,2018-07-07 19:19:48,11,0,23.627,5114.73712627,57.742784,0,0.68599411644,0,0,-0.671082,316.4, 0, -1.2,0,0,1024,1024,1024,1024,316.2,-89.9,98,3.946,3.933,3.925,3.956,3.952,3.942,18.362,77,14,Waypoint,
38.5270981,-120.354265,5115.72137827,58.727036,0,0.46247704892,11600,2018-07-07 19:19:48,12,0,23.627,5115.72137827,58.727036,0,0.68599411644,0,0,-0.671082,316.4, 0.2, -1.2,0,0,1024,1024,1024,1024,316.2,-89.9,98,3.946,3.933,3.925,3.956,3.952,3.942,18.362,77,14,Waypoint,
38.5270981,-120.3542651,5116.37754627,59.383204,0,0.43431431836,11700,2018-07-07 19:19:48,12,0,23.627,5116.37754627,59.383204,0,0.68599411644,0,0,-0.671082,316.5, 0.4, -1.4,0,0,1024,1024,1024,1024,316.2,-89.9,98,3.946,3.933,3.925,3.956,3.952,3.942,18.362,77,14,Waypoint,
38.5270982,-120.3542651,5117.36179827,60.367456,0,0.44190946296,11800,2018-07-07 19:19:48,12,0,23.627,5117.36179827,60.367456,0,0.68599411644,0,0,-0.671082,316.5, 0.5, -1.4,0,0,1024,1024,1024,1024,316.2,-89.9,98,3.946,3.933,3.925,3.956,3.952,3.942,18.362,77,14,Waypoint,
38.5270982,-120.3542651,5118.34605027,61.351708,0,0.44190946296,11900,2018-07-07 19:19:48,12,0,23.627,5118.34605027,61.351708,0,0.68599411644,0,0,-0.671082,316.6, 0.5, -1.2,0,0,1024,1024,1024,1024,316.2,-89.9,98,3.946,3.933,3.925,3.956,3.952,3.942,18.362,77,14,Waypoint,
38.5270982,-120.3542651,5119.33030227,62.33596,0,0.44190946296,12000,2018-07-07 19:19:48,10,0,23.627,5119.33030227,62.33596,0,0.68599411644,0,0,-0.671082,316.7, 0.3, -1.1,0,0,1024,1024,1024,1024,316.2,-89.9,98,3.94,3.926,3.928,3.955,3.947,3.935,18.362,77,14,Waypoint,
38.5270981,-120.3542652,5120.31455427,63.320212,0,0.40620408124,12100,2018-07-07 19:19:49,10,0,23.627,5120.31455427,63.320212,0,0.68599411644,0,0,-0.671082,316.7, 0.2, -1,0,0,1024,1024,1024,1024,316.2,-90,98,3.94,3.926,3.928,3.955,3.947,3.935,18.362,77,14,Waypoint,
38.5270981,-120.3542652,5121.29880627,64.304464,0,0.40620408124,12200,2018-07-07 19:19:49,10,0,23.627,5121.29880627,64.304464,0,0.68599411644,0,0,-0.671082,316.8, 0.1, -0.8,0,0,1024,1024,1024,1024,316.2,-89.9,98,3.94,3.926,3.928,3.955,3.947,3.935,18.362,77,14,Waypoint,
38.5270981,-120.3542653,5122.28305827,65.288716,0,0.37816274176,12300,2018-07-07 19:19:49,10,0,23.627,5122.28305827,65.288716,0,0.68599411644,0,0,-0.671082,316.9, 0.1, -0.6,0,0,1024,1024,1024,1024,316.2,-89.9,98,3.94,3.926,3.928,3.955,3.947,3.935,18.362,77,14,Waypoint,
38.5270981,-120.3542654,5123.26731027,66.272968,0,0.35020014244,12400,2018-07-07 19:19:49,11,0,23.627,5123.26731027,66.272968,0,0.68599411644,0,0,-0.671082,316.9, 0.2, -0.6,0,0,1024,1024,1024,1024,316.2,-89.9,98,3.94,3.926,3.928,3.955,3.947,3.935,18.362,77,14,Waypoint,
38.5270981,-120.3542655,5124.25156227,67.25722,0,0.322337280656,12500,2018-07-07 19:19:49,11,0,23.627,5124.25156227,67.25722,0,0.68599411644,0,0,-0.671082,316.8, 0.2, -0.7,0,0,1024,1024,1024,1024,316.2,-89.9,98,3.94,3.926,3.928,3.955,3.947,3.935,18.362,77,14,Waypoint,
38.527098,-120.3542657,5125.23581427,68.241472,0,0.25946195056,12600,2018-07-07 19:19:49,12,0,23.627,5125.23581427,68.241472,0,0.68599411644,0,0,-0.671082,316.7, 0.3, -0.6,0,0,1024,1024,1024,1024,316.2,-89.9,98,3.94,3.926,3.928,3.955,3.947,3.935,18.362,77,14,Waypoint,
38.527098,-120.354266,5127.20431827,70.209976,0,0.175099415052,12700,2018-07-07 19:19:49,12,0,23.627,5127.20431827,70.209976,0,0.68599411644,0,0,-0.671082,316.4, 0.4, 0,0,0,1024,1024,1024,1024,316.2,-89.9,98,3.94,3.926,3.928,3.955,3.947,3.935,18.362,77,14,Waypoint,
38.5270979,-120.354266,5128.18857027,71.194228,0,0.171255910992,12900,2018-07-07 19:19:49,12,0,23.627,5128.18857027,71.194228,0,0.68599411644,0,0,-0.671082,316.4, 0.6, 0,0,0,1024,1024,1024,1024,316.2,-89.9,98,3.94,3.926,3.928,3.955,3.947,3.935,18.362,77,14,Waypoint,
38.5270978,-120.3542663,5129.82899027,72.834648,0,0.093076774632,13000,2018-07-07 19:19:49,11,0,23.573,5129.82899027,72.834648,0,0.68599411644,0,0,-0.671082,316.5, 0.7, 0,0,0,1024,1024,1024,1024,316.2,-89.9,98,3.934,3.92,3.916,3.938,3.937,3.93,18.478,77,14,Waypoint,
38.5270978,-120.3542664,5130.81324227,73.8189,0,0.067748689832,13100,2018-07-07 19:19:50,11,0,23.573,5130.81324227,73.8189,0,0.68599411644,0,0,-0.671082,316.5, 0.6, 0,0,0,1024,1024,1024,1024,316.2,-89.9,98,3.934,3.92,3.916,3.938,3.937,3.93,18.478,77,14,Waypoint,
38.5270978,-120.3542664,5131.79749427,74.803152,0,0.067748689832,13200,2018-07-07 19:19:50,11,0,23.573,5131.79749427,74.803152,0,0.68599411644,0,0,-0.671082,316.6, 0.6, 0.2,0,0,1024,1024,1024,1024,316.2,-89.9,98,3.934,3.92,3.916,3.938,3.937,3.93,18.478,77,14,Waypoint,
38.5270977,-120.3542664,5132.78174627,75.787404,0,0.092646328424,13300,2018-07-07 19:19:50,11,0,23.573,5132.78174627,75.787404,0,0.68599411644,0,0,-0.671082,316.6, 0.5, 0.1,0,0,1024,1024,1024,1024,316.2,-90,98,3.934,3.92,3.916,3.938,3.937,3.93,18.478,77,14,Waypoint,
38.5270976,-120.3542667,5135.07833427,78.083992,0,0.1131151611,13600,2018-07-07 19:19:50,11,0,23.573,5135.07833427,78.083992,0,0.68599411644,0,0,-0.671082,316.8, 0.3, 0,0,0,1024,1024,1024,1024,316.2,-89.9,98,3.934,3.92,3.916,3.938,3.937,3.93,18.478,77,14,Waypoint,
38.5270975,-120.3542668,5136.06258627,79.068244,0,0.156707354096,13700,2018-07-07 19:19:50,11,0,23.573,5136.06258627,79.068244,0,0.68599411644,0,0,-0.671082,316.8, 0.2, 0.1,0,0,1024,1024,1024,1024,316.2,-90,98,3.934,3.92,3.916,3.938,3.937,3.93,18.478,77,14,Waypoint,
38.5270974,-120.3542669,5137.04683827,80.052496,0,0.201521659992,13800,2018-07-07 19:19:50,11,0,23.573,5137.04683827,80.052496,0,0.68599411644,0,0,-0.671082,316.8, 0.3, 0.4,0,0,1024,1024,1024,1024,316.2,-89.9,98,3.934,3.92,3.916,3.938,3.937,3.93,18.478,77,14,Waypoint,
38.5270973,-120.354267,5138.03109027,81.036748,0,0.246893380604,13900,2018-07-07 19:19:50,11,0,23.573,5138.03109027,81.036748,0,0.68599411644,0,0,-0.671082,316.8, 0.3, 0.8,0,0,1024,1024,1024,1024,316.2,-90,98,3.934,3.92,3.916,3.938,3.937,3.93,18.478,77,14,Waypoint,
38.5270972,-120.3542671,5139.01534227,82.021,0,0.292563657656,14000,2018-07-07 19:19:50,12,0,23.517,5139.01534227,82.021,0,0.68599411644,0,0,-0.671082,316.7, 0.1, 0.8,0,0,1024,1024,1024,1024,316.2,-90,98,3.913,3.91,3.906,3.93,3.924,3.921,19.03,77,14,Waypoint,
38.5270971,-120.3542672,5139.99959427,83.005252,0,0.33841208432,14100,2018-07-07 19:19:51,12,0,23.517,5139.99959427,83.005252,0,0.68599411644,0,0,-0.671082,316.7, 0, 0.7,0,0,1024,1024,1024,1024,316.2,-90,98,3.913,3.91,3.906,3.93,3.924,3.921,19.03,77,14,Waypoint,
38.5270971,-120.3542672,5140.98384627,83.989504,0,0.33841208432,14200,2018-07-07 19:19:51,11,0,23.517,5140.98384627,83.989504,0,0.68599411644,0,0,-0.671082,316.7, -0.1, 0.6,0,0,1024,1024,1024,1024,316.2,-90,98,3.913,3.91,3.906,3.93,3.924,3.921,19.03,77,14,Waypoint,
38.527097,-120.3542672,5141.96809827,84.973756,0,0.3703412192,14300,2018-07-07 19:19:51,11,0,23.517,5141.96809827,84.973756,0,0.68599411644,0,0,-0.671082,316.8, -0.1, 0.5,0,0,1024,1024,1024,1024,316.2,-90,98,3.913,3.91,3.906,3.93,3.924,3.921,19.03,77,14,Waypoint,
38.527097,-120.3542671,5142.95235027,85.958008,0,0.3580380692,14400,2018-07-07 19:19:51,12,0,23.517,5142.95235027,85.958008,0,0.68599411644,0,0,-0.671082,316.8, 0, 0.4,0,0,1024,1024,1024,1024,316.2,-90,98,3.913,3.91,3.906,3.93,3.924,3.921,19.03,77,14,Waypoint,
38.527097,-120.3542672,5143.93660227,86.94226,0,0.3703412192,14500,2018-07-07 19:19:51,12,0,23.517,5143.93660227,86.94226,0,0.68599411644,0,0,-0.671082,316.8, -0.1, 0.2,0,0,1024,1024,1024,1024,316.2,-90,98,3.913,3.91,3.906,3.93,3.924,3.921,19.03,77,14,Waypoint,
38.527097,-120.3542672,5144.92085427,87.926512,0,0.3703412192,14600,2018-07-07 19:19:51,12,0,23.517,5144.92085427,87.926512,0,0.68599411644,0,0,-0.671082,316.8, 0, 0.1,0,0,1024,1024,1024,1024,316.2,-90,98,3.913,3.91,3.906,3.93,3.924,3.921,19.03,77,14,Waypoint,
38.5270969,-120.3542672,5146.88935827,89.895016,0,0.40304463232,14700,2018-07-07 19:19:51,12,0,23.517,5146.88935827,89.895016,0,0.68599411644,0,0,-0.671082,316.8, 0, 0.4,0,0,1024,1024,1024,1024,316.2,-89.9,98,3.913,3.91,3.906,3.93,3.924,3.921,19.03,77,14,Waypoint,
38.5270969,-120.3542672,5148.85786227,91.86352,0,0.40304463232,14900,2018-07-07 19:19:51,12,0,23.517,5148.85786227,91.86352,0,0.68599411644,0,0,-0.671082,316.6, 0.1, 0.3,0,0,1024,1024,1024,1024,316.2,-89.9,98,3.913,3.91,3.906,3.93,3.924,3.921,19.03,77,14,Waypoint,
38.527097,-120.3542672,5149.84211427,92.847772,0,0.3703412192,15000,2018-07-07 19:19:51,12,0,23.454,5149.84211427,92.847772,0,0.68599411644,0,0,-0.671082,316.5, 0.4, 0.3,0,0,1024,1024,1024,1024,316.2,-89.9,98,3.905,3.899,3.897,3.926,3.914,3.91,19.356,77,14,Waypoint,
38.527097,-120.3542671,5150.82636627,93.832024,0,0.3580380692,15100,2018-07-07 19:19:52,12,0,23.454,5150.82636627,93.832024,0,0.68599411644,0,0,-0.671082,316.4, 0.4, 0.3,0,0,1024,1024,1024,1024,316.2,-89.9,98,3.905,3.899,3.897,3.926,3.914,3.91,19.356,77,14,Waypoint,
38.527097,-120.3542671,5152.79487027,95.800528,0.223694,0.3580380692,15300,2018-07-07 19:19:52,11,0,23.454,5152.79487027,95.800528,0.223694,0.68599411644,0,0,-0.671082,316.5, 0, -0.1,0,0,1024,1024,1024,1024,316.2,-90,98,3.905,3.899,3.897,3.926,3.914,3.91,19.356,77,14,Waypoint,
38.527097,-120.354267,5153.77912227,96.78478,0.223694,0.34764764892,15500,2018-07-07 19:19:52,11,0,23.454,5153.77912227,96.78478,0.223694,0.68599411644,0,0,-0.671082,316.6, 0, -0.7,0,0,1024,1024,1024,1024,316.2,-90,98,3.905,3.899,3.897,3.926,3.914,3.91,19.356,77,14,Waypoint,
38.5270971,-120.354267,5154.76337427,97.769032,0.223694,0.313414380108,15600,2018-07-07 19:19:52,12,0,23.454,5154.76337427,97.769032,0.223694,0.68599411644,0,0,-0.671082,316.6, 0.2, -1.1,0,0,1024,1024,1024,1024,316.2,-89.9,98,3.905,3.899,3.897,3.926,3.914,3.91,19.356,77,14,Waypoint,
38.5270971,-120.3542669,5155.74762627,98.753284,0.223694,0.304180455928,15700,2018-07-07 19:19:52,12,0,23.454,5155.74762627,98.753284,0.223694,0.68599411644,0,0,-0.671082,316.6, 0.3, -1.2,0,0,1024,1024,1024,1024,316.2,-89.9,98,3.905,3.899,3.897,3.926,3.914,3.91,19.356,77,14,Waypoint,
38.5270971,-120.3542669,5156.73187827,99.737536,0,0.304180455928,15800,2018-07-07 19:19:52,12,0,23.454,5156.73187827,99.737536,0.223694,0.68599411644,0,0,-0.671082,316.6, 0.3, -0.7,0,0,1024,1024,1024,1024,316.2,-89.9,98,3.905,3.899,3.897,3.926,3.914,3.91,19.356,77,14,Waypoint,
38.5270972,-120.3542668,5157.71613027,100.721788,0,0.261696530684,15900,2018-07-07 19:19:52,12,0,23.454,5157.71613027,100.721788,0.223694,0.68599411644,0,0,-0.671082,316.6, 0.2, -0.5,0,0,1024,1024,1024,1024,316.2,-89.9,98,3.905,3.899,3.897,3.926,3.914,3.91,19.356,77,14,Waypoint,
38.5270973,-120.3542667,5158.70038227,101.70604,0.223694,0.220762474256,16000,2018-07-07 19:19:52,12,0,23.455,5158.70038227,101.70604,0.223694,0.68599411644,0,0,-0.671082,316.5, 0.1, -0.7,0,0,1024,1024,1024,1024,316.2,-90,98,3.903,3.898,3.899,3.93,3.909,3.912,18.925,77,14,Waypoint,
38.5270973,-120.3542667,5159.68463427,102.690292,0.223694,0.220762474256,16100,2018-07-07 19:19:53,12,0,23.455,5159.68463427,102.690292,0.223694,0.68599411644,0,0,-0.671082,316.4, -0.1, -1.1,0,0,1024,1024,1024,1024,316.2,-90,98,3.903,3.898,3.899,3.93,3.909,3.912,18.925,77,14,Waypoint,
38.5270973,-120.3542666,5160.66888627,103.674544,0.223694,0.218909783908,16200,2018-07-07 19:19:53,11,0,23.455,5160.66888627,103.674544,0.223694,0.68599411644,0,0,-0.671082,316.3, -0.1, -1,0,0,1024,1024,1024,1024,316.2,-89.9,98,3.903,3.898,3.899,3.93,3.909,3.912,18.925,77,14,Waypoint,
38.5270973,-120.3542665,5161.65313827,104.658796,0.223694,0.220762474256,16300,2018-07-07 19:19:53,11,0,23.455,5161.65313827,104.658796,0.223694,0.68599411644,0,0,-0.671082,316.3, 0, -1.1,0,0,1024,1024,1024,1024,316.2,-89.9,98,3.903,3.898,3.899,3.93,3.909,3.912,18.925,77,14,Waypoint,
38.5270974,-120.3542664,5162.63739027,105.643048,0,0.191147971996,16400,2018-07-07 19:19:53,12,0,23.455,5162.63739027,105.643048,0.223694,0.68599411644,0,0,-0.671082,316.4, 0, -1.4,0,0,1024,1024,1024,1024,316.2,-90,98,3.903,3.898,3.899,3.93,3.909,3.912,18.925,77,14,Waypoint,
38.5270974,-120.3542663,5163.62164227,106.6273,0.223694,0.201521659992,16500,2018-07-07 19:19:53,12,0,23.455,5163.62164227,106.6273,0.223694,0.68599411644,0,0,-0.671082,316.5, 0, -1.3,0,0,1024,1024,1024,1024,316.2,-89.9,98,3.903,3.898,3.899,3.93,3.909,3.912,18.925,77,14,Waypoint,
38.5270975,-120.3542663,5164.60589427,107.611552,0.223694,0.169205714076,16600,2018-07-07 19:19:53,12,0,23.455,5164.60589427,107.611552,0.223694,0.68599411644,0,0,-0.671082,316.6, 0.1, -1.5,0,0,1024,1024,1024,1024,316.2,-89.9,98,3.903,3.898,3.899,3.93,3.909,3.912,18.925,77,14,Waypoint,
38.5270975,-120.3542662,5165.59014627,108.595804,0.223694,0.185292656848,16700,2018-07-07 19:19:53,12,0,23.455,5165.59014627,108.595804,0.223694,0.68599411644,0,0,-0.671082,316.6, 0, -1.5,0,0,1024,1024,1024,1024,316.2,-89.9,98,3.903,3.898,3.899,3.93,3.909,3.912,18.925,77,14,Waypoint,
38.5270977,-120.354266,5167.55865027,110.564308,0.223694,0.186153877348,16800,2018-07-07 19:19:53,12,0,23.455,5167.55865027,110.564308,0.223694,0.68599411644,0,0,-0.671082,316.5, 0.3, -2.1,0,0,1024,1024,1024,1024,316.2,-89.9,98,3.903,3.898,3.899,3.93,3.909,3.912,18.925,77,14,Waypoint,
38.5270979,-120.3542659,5168.54290227,111.54856,0.223694,0.199798562824,16900,2018-07-07 19:19:53,13,0,23.455,5168.54290227,111.54856,0.223694,0.68599411644,0,0,-0.671082,316.4, 0.4, -2.5,0,0,1024,1024,1024,1024,316.2,-89.9,98,3.903,3.898,3.899,3.93,3.909,3.912,18.925,77,14,Waypoint,
38.527098,-120.3542658,5170.51140627,113.517064,0.223694,0.231237868292,17100,2018-07-07 19:19:54,13,0,23.455,5170.51140627,113.517064,0.223694,0.68599411644,0,0,-0.671082,316.3, 0.4, -3.1,0,0,1024,1024,1024,1024,316.2,-89.9,98,3.903,3.898,3.899,3.93,3.909,3.912,18.925,77,14,Waypoint,
38.5270981,-120.3542657,5172.80799427,115.813652,0,0.267046924556,17300,2018-07-07 19:19:54,13,0,23.455,5172.80799427,115.813652,0.223694,0.68599411644,0,0,-0.671082,316.5, 0.4, -3,0,0,1024,1024,1024,1024,316.2,-89.9,98,3.903,3.898,3.899,3.93,3.909,3.912,18.925,77,14,Waypoint,
38.5270982,-120.3542657,5173.46416227,116.46982,0,0.27923065198,17400,2018-07-07 19:19:54,13,0,23.455,5173.46416227,116.46982,0.223694,0.68599411644,0,0,-0.671082,316.6, 0.4, -2.5,0,0,1024,1024,1024,1024,316.2,-89.9,98,3.903,3.898,3.899,3.93,3.909,3.912,18.925,77,14,Waypoint,
38.5270982,-120.3542657,5174.44841427,117.454072,0,0.27923065198,17500,2018-07-07 19:19:54,13,0,23.455,5174.44841427,117.454072,0.223694,0.68599411644,0,0,-0.671082,316.7, 0.6, -2,0,0,1024,1024,1024,1024,316.2,-89.9,98,3.903,3.898,3.899,3.93,3.909,3.912,18.925,77,14,Waypoint,
38.5270983,-120.3542657,5176.41691827,119.422576,0,0.295445219428,17710,2018-07-07 19:19:54,13,0,23.455,5176.41691827,119.422576,0.223694,0.68599411644,0,0,-0.671082,317, 0.7, -1.7,0,0,1024,1024,1024,1024,316.2,-89.9,98,3.903,3.898,3.899,3.93,3.909,3.912,18.925,77,14,Waypoint,
38.5270983,-120.3542657,5176.41691827,119.422576,0,0.295445219428,17800,2018-07-07 19:19:54,13,0,23.455,5176.41691827,119.422576,0.223694,0.68599411644,0,0,-0.671082,317, 0.7, -1.7,0,0,1024,1024,1024,1024,316.2,-89.9,98,3.903,3.898,3.899,3.93,3.909,3.912,18.925,77,14,Waypoint,
38.5270983,-120.3542657,5177.40117027,120.406828,0,0.295445219428,17900,2018-07-07 19:19:54,13,0,23.455,5177.40117027,120.406828,0.223694,0.68599411644,0,0,-0.671082,317.1, 0.6, -1.9,0,0,1024,1024,1024,1024,316.2,-90,98,3.903,3.898,3.899,3.93,3.909,3.912,18.925,77,14,Waypoint,
38.5270984,-120.3542657,5178.38542227,121.39108,0,0.315068579636,18000,2018-07-07 19:19:54,13,0,23.372,5178.38542227,121.39108,0.223694,0.68599411644,0,0,-0.671082,317, 0.5, -2.1,0,0,1024,1024,1024,1024,316.2,-90,97,3.895,3.884,3.878,3.917,3.898,3.896,19.138,77,14,Waypoint,
38.5270984,-120.3542657,5179.36967427,122.375332,0,0.315068579636,18100,2018-07-07 19:19:55,13,0,23.372,5179.36967427,122.375332,0.223694,0.68599411644,0,0,-0.671082,316.9, 0.4, -2.4,0,0,1024,1024,1024,1024,316.2,-90,97,3.895,3.884,3.878,3.917,3.898,3.896,19.138,77,14,Waypoint,
38.5270984,-120.3542657,5180.35392627,123.359584,0,0.315068579636,18200,2018-07-07 19:19:55,13,0,23.372,5180.35392627,123.359584,0.223694,0.68599411644,0,0,-0.671082,316.8, 0.1, -2.7,0,0,1024,1024,1024,1024,316.2,-90,97,3.895,3.884,3.878,3.917,3.898,3.896,19.138,77,14,Waypoint,
38.5270984,-120.3542656,5181.66626227,124.67192,0,0.33874344916,18300,2018-07-07 19:19:55,13,0,23.372,5181.66626227,124.67192,0.223694,0.68599411644,0,0,-0.671082,316.7, 0, -3.1,0,0,1024,1024,1024,1024,316.2,-90,97,3.895,3.884,3.878,3.917,3.898,3.896,19.138,77,14,Waypoint,
38.5270984,-120.3542656,5182.65051427,125.656172,0,0.33874344916,18400,2018-07-07 19:19:55,13,0,23.372,5182.65051427,125.656172,0.223694,0.68599411644,0,0,-0.671082,316.7, 0.1, -3.3,0,0,1024,1024,1024,1024,316.2,-90,97,3.895,3.884,3.878,3.917,3.898,3.896,19.138,77,14,Waypoint,
38.5270985,-120.3542656,5183.63476627,126.640424,0,0.35970801676,18500,2018-07-07 19:19:55,13,0,23.372,5183.63476627,126.640424,0.223694,0.68599411644,0,0,-0.671082,316.7, 0.1, -3.4,0,0,1024,1024,1024,1024,316.2,-90,97,3.895,3.884,3.878,3.917,3.898,3.896,19.138,77,14,Waypoint,
38.5270985,-120.3542655,5184.61901827,127.624676,0,0.38274935608,18600,2018-07-07 19:19:55,13,0,23.372,5184.61901827,127.624676,0.223694,0.68599411644,0,0,-0.671082,316.8, 0.1, -3.3,0,0,1024,1024,1024,1024,316.2,-90,97,3.895,3.884,3.878,3.917,3.898,3.896,19.138,77,14,Waypoint,
38.5270985,-120.3542655,5185.60327027,128.608928,0,0.38274935608,18700,2018-07-07 19:19:55,13,0,23.372,5185.60327027,128.608928,0.223694,0.68599411644,0,0,-0.671082,316.8, 0.2, -3.3,0,0,1024,1024,1024,1024,316.2,-89.9,97,3.895,3.884,3.878,3.917,3.898,3.896,19.138,77,14,Waypoint,
38.5270985,-120.3542655,5186.58752227,129.59318,0,0.38274935608,18800,2018-07-07 19:19:55,13,0,23.372,5186.58752227,129.59318,0.223694,0.68599411644,0,0,-0.671082,316.9, 0.1, -3.2,0,0,1024,1024,1024,1024,316.2,-90,97,3.895,3.884,3.878,3.917,3.898,3.896,19.138,77,14,Waypoint,
38.5270985,-120.3542655,5187.57177427,130.577432,0,0.38274935608,18900,2018-07-07 19:19:55,13,0,23.372,5187.57177427,130.577432,0.223694,0.68599411644,0,0,-0.671082,316.9, 0.1, -3.3,0,0,1024,1024,1024,1024,316.2,-90,97,3.895,3.884,3.878,3.917,3.898,3.896,19.138,77,14,Waypoint,
38.5270986,-120.3542654,5189.86836227,132.87402,0,0.427247389,19000,2018-07-07 19:19:55,13,0,23.372,5189.86836227,132.87402,0.223694,0.68599411644,0,0,-0.671082,316.7, 0, -3.6,0,0,1024,1024,1024,1024,316.2,-90,97,3.895,3.884,3.878,3.917,3.898,3.896,19.138,77,14,Waypoint,
38.5270986,-120.3542653,5190.52453027,133.530188,0,0.45045277032,19100,2018-07-07 19:19:56,13,0,23.372,5190.52453027,133.530188,0.223694,0.68599411644,0,0,-0.671082,316.6, 0, -3.7,0,0,1024,1024,1024,1024,316.2,-89.9,97,3.895,3.884,3.878,3.917,3.898,3.896,19.138,77,14,Waypoint,
38.5270986,-120.3542653,5191.50878227,134.51444,0,0.45045277032,19200,2018-07-07 19:19:56,13,0,23.372,5191.50878227,134.51444,0.223694,0.68599411644,0,0,-0.671082,316.6, 0, -3.6,0,0,1024,1024,1024,1024,316.2,-89.9,97,3.895,3.884,3.878,3.917,3.898,3.896,19.138,77,14,Waypoint,
38.5270986,-120.3542653,5192.49303427,135.498692,0,0.45045277032,19300,2018-07-07 19:19:56,13,0,23.372,5192.49303427,135.498692,0.223694,0.68599411644,0,0,-0.671082,316.7, 0, -3.6,0,0,1024,1024,1024,1024,316.2,-89.9,97,3.895,3.884,3.878,3.917,3.898,3.896,19.138,77,14,Waypoint,
38.5270986,-120.3542652,5193.47728627,136.482944,0,0.47424214116,19400,2018-07-07 19:19:56,13,0,23.372,5193.47728627,136.482944,0.223694,0.68599411644,0,0,-0.671082,316.9, 0, -3.5,0,0,1024,1024,1024,1024,316.2,-90,97,3.895,3.884,3.878,3.917,3.898,3.896,19.138,77,14,Waypoint,
38.5270986,-120.3542651,5194.46153827,137.467196,0,0.49852691884,19500,2018-07-07 19:19:56,13,0,23.372,5194.46153827,137.467196,0.223694,0.68599411644,0,0,-0.671082,316.9, 0, -3.2,0,0,1024,1024,1024,1024,316.2,-90,97,3.895,3.884,3.878,3.917,3.898,3.896,19.138,77,14,Waypoint,
38.5270986,-120.3542651,5195.11770627,138.123364,0,0.49852691884,19600,2018-07-07 19:19:56,13,0,23.372,5195.11770627,138.123364,0.223694,0.68599411644,0,0,-0.671082,317, 0, -3.2,0,0,1024,1024,1024,1024,316.2,-89.9,97,3.895,3.884,3.878,3.917,3.898,3.896,19.138,77,14,Waypoint,
38.5270985,-120.3542651,5197.08621027,140.091868,0,0.48085959544,19800,2018-07-07 19:19:56,13,0,23.372,5197.08621027,140.091868,0.223694,0.68599411644,0,0,-0.671082,317.2, -0.1, -3.1,0,0,1024,1024,1024,1024,316.2,-90,97,3.895,3.884,3.878,3.917,3.898,3.896,19.138,77,14,Waypoint,
38.5270985,-120.3542652,5198.07046227,141.07612,0,0.45562993584,20000,2018-07-07 19:19:56,13,0,23.307,5198.07046227,141.07612,0.223694,0.68599411644,0,0,-0.671082,317.2, -0.2, -3.1,0,0,1024,1024,1024,1024,316.2,-90,97,3.897,3.894,3.884,3.916,3.899,3.894,18.426,77,14,Waypoint,
38.5270985,-120.3542651,5199.05471427,142.060372,0,0.48085959544,20100,2018-07-07 19:19:57,13,0,23.307,5199.05471427,142.060372,0.223694,0.68599411644,0,0,-0.671082,317.1, -0.3, -3.3,0,0,1024,1024,1024,1024,316.2,-90,97,3.897,3.894,3.884,3.916,3.899,3.894,18.426,77,14,Waypoint,
38.5270986,-120.3542651,5200.36705027,143.372708,0,0.49852691884,20200,2018-07-07 19:19:57,13,0,23.307,5200.36705027,143.372708,0.223694,0.68599411644,0,0,-0.671082,316.9, -0.4, -3.7,0,0,1024,1024,1024,1024,316.2,-90,97,3.897,3.894,3.884,3.916,3.899,3.894,18.426,77,14,Waypoint,
38.5270986,-120.3542651,5201.35130227,144.35696,0,0.49852691884,20300,2018-07-07 19:19:57,13,0,23.307,5201.35130227,144.35696,0.223694,0.68599411644,0,0,-0.671082,316.7, -0.3, -4,0,0,1024,1024,1024,1024,316.2,-89.9,97,3.897,3.894,3.884,3.916,3.899,3.894,18.426,77,14,Waypoint,
38.5270986,-120.3542651,5202.33555427,145.341212,0,0.49852691884,20400,2018-07-07 19:19:57,13,0,23.307,5202.33555427,145.341212,0.223694,0.68599411644,0,0,-0.671082,316.5, -0.1, -4.2,0,0,1024,1024,1024,1024,316.2,-89.9,97,3.897,3.894,3.884,3.916,3.899,3.894,18.426,77,14,Waypoint,
38.5270986,-120.3542651,5203.31980627,146.325464,0,0.49852691884,20500,2018-07-07 19:19:57,13,0,23.307,5203.31980627,146.325464,0.223694,0.68599411644,0,0,-0.671082,316.4, 0, -4.2,0,0,1024,1024,1024,1024,316.2,-89.9,97,3.897,3.894,3.884,3.916,3.899,3.894,18.426,77,14,Waypoint,
38.5270986,-120.3542651,5204.30405827,147.309716,0,0.49852691884,20600,2018-07-07 19:19:57,13,0,23.307,5204.30405827,147.309716,0.223694,0.68599411644,0,0,-0.671082,316.4, 0.3, -4.1,0,0,1024,1024,1024,1024,316.2,-89.9,97,3.897,3.894,3.884,3.916,3.899,3.894,18.426,77,14,Waypoint,
38.5270987,-120.3542651,5204.96022627,147.965884,0,0.51816602708,20700,2018-07-07 19:19:57,13,0,23.307,5204.96022627,147.965884,0.223694,0.68599411644,0,0,-0.671082,316.4, 0.3, -4,0,0,1024,1024,1024,1024,316.2,-89.9,97,3.897,3.894,3.884,3.916,3.899,3.894,18.426,77,14,Waypoint,
38.5270987,-120.3542651,5205.94447827,148.950136,0,0.51816602708,20800,2018-07-07 19:19:57,13,0,23.307,5205.94447827,148.950136,0.223694,0.68599411644,0,0,-0.671082,316.4, 0.4, -3.8,0,0,1024,1024,1024,1024,316.2,-89.9,97,3.897,3.894,3.884,3.916,3.899,3.894,18.426,77,14,Waypoint,
38.5270987,-120.3542651,5206.92873027,149.934388,0,0.51816602708,20900,2018-07-07 19:19:57,13,0,23.307,5206.92873027,149.934388,0.223694,0.68599411644,0,0,-0.671082,316.4, 0.4, -3.5,0,0,1024,1024,1024,1024,316.2,-89.9,97,3.897,3.894,3.884,3.916,3.899,3.894,18.426,77,14,Waypoint,
38.5270987,-120.3542651,5207.91298227,150.91864,0,0.51816602708,21000,2018-07-07 19:19:57,13,0,23.345,5207.91298227,150.91864,0.223694,0.68599411644,0,0,-0.671082,316.5, 0.4, -3.7,0,0,1024,1024,1024,1024,316.2,-89.9,97,3.891,3.884,3.877,3.911,3.898,3.896,18.684,77,14,Waypoint,
38.5270987,-120.3542651,5208.89723427,151.902892,0,0.51816602708,21100,2018-07-07 19:19:58,13,0,23.345,5208.89723427,151.902892,0.223694,0.68599411644,0,0,-0.671082,316.6, 0.2, -3.9,0,0,1024,1024,1024,1024,316.2,-90,97,3.891,3.884,3.877,3.911,3.898,3.896,18.684,77,14,Waypoint,
38.5270988,-120.3542651,5209.88148627,152.887144,0,0.53956038472,21200,2018-07-07 19:19:58,13,0,23.345,5209.88148627,152.887144,0.223694,0.68599411644,0,0,-0.671082,316.7, 0, -4,0,0,1024,1024,1024,1024,316.2,-90,97,3.891,3.884,3.877,3.911,3.898,3.896,18.684,77,14,Waypoint,
38.5270987,-120.3542651,5210.53765427,153.543312,0,0.51816602708,21300,2018-07-07 19:19:58,13,0,23.345,5210.53765427,153.543312,0.223694,0.68599411644,0,0,-0.671082,316.7, -0.1, -3.9,0,0,1024,1024,1024,1024,316.2,-90,97,3.891,3.884,3.877,3.911,3.898,3.896,18.684,77,14,Waypoint,
38.5270987,-120.3542652,5211.52190627,154.527564,0,0.49484581636,21400,2018-07-07 19:19:58,13,0,23.345,5211.52190627,154.527564,0.223694,0.68599411644,0,0,-0.671082,316.7, -0.2, -3.7,0,0,1024,1024,1024,1024,316.2,-90,97,3.891,3.884,3.877,3.911,3.898,3.896,18.684,77,14,Waypoint,
38.5270986,-120.3542652,5212.50615827,155.511816,0,0.47424214116,21500,2018-07-07 19:19:58,13,0,23.345,5212.50615827,155.511816,0.223694,0.68599411644,0,0,-0.671082,316.7, -0.2, -3.5,0,0,1024,1024,1024,1024,316.2,-89.9,97,3.891,3.884,3.877,3.911,3.898,3.896,18.684,77,14,Waypoint,
38.5270986,-120.3542652,5213.49041027,156.496068,0,0.47424214116,21600,2018-07-07 19:19:58,13,0,23.345,5213.49041027,156.496068,0.223694,0.68599411644,0,0,-0.671082,316.6, -0.3, -3.4,0,0,1024,1024,1024,1024,316.2,-89.9,97,3.891,3.884,3.877,3.911,3.898,3.896,18.684,77,14,Waypoint,
38.5270985,-120.3542653,5215.45891427,158.464572,0,0.43081694292,21700,2018-07-07 19:19:58,13,0,23.345,5215.45891427,158.464572,0.223694,0.68599411644,0,0,-0.671082,316.7, -0.2, -3.6,0,0,1024,1024,1024,1024,316.2,-90,97,3.891,3.884,3.877,3.911,3.898,3.896,18.684,77,14,Waypoint,
38.5270985,-120.3542654,5216.44316627,159.448824,0,0.40649279516,21800,2018-07-07 19:19:58,13,0,23.345,5216.44316627,159.448824,0.223694,0.68599411644,0,0,-0.671082,316.6, -0.1, -3.5,0,0,1024,1024,1024,1024,316.2,-89.9,97,3.891,3.884,3.877,3.911,3.898,3.896,18.684,77,14,Waypoint,
38.5270985,-120.3542654,5218.41167027,161.417328,0,0.40649279516,22000,2018-07-07 19:19:58,13,0,23.284,5218.41167027,161.417328,0.223694,0.68599411644,0,0,-0.671082,316.8, 0, -3.5,0,0,1024,1024,1024,1024,316.2,-89.9,97,3.891,3.884,3.877,3.911,3.898,3.896,19.255,77,14,Waypoint,
38.5270985,-120.3542654,5219.39592227,162.40158,0,0.40649279516,22100,2018-07-07 19:19:59,13,0,23.284,5219.39592227,162.40158,0.223694,0.68599411644,0,0,-0.671082,316.8, 0, -3.9,0,0,1024,1024,1024,1024,316.2,-89.9,97,3.891,3.884,3.877,3.911,3.898,3.896,19.255,77,14,Waypoint,
38.5270985,-120.3542654,5220.38017427,163.385832,0,0.40649279516,22200,2018-07-07 19:19:59,13,0,23.284,5220.38017427,163.385832,0.223694,0.68599411644,0,0,-0.671082,316.8, 0, -4.1,0,0,1024,1024,1024,1024,316.2,-90,97,3.891,3.884,3.877,3.911,3.898,3.896,19.255,77,14,Waypoint,
38.5270985,-120.3542655,5222.34867827,165.354336,0,0.38274935608,22400,2018-07-07 19:19:59,13,0,23.284,5222.34867827,165.354336,0.223694,0.68599411644,0,0,-0.671082,316.8, 0, -4.3,0,0,1024,1024,1024,1024,316.2,-89.9,97,3.891,3.884,3.877,3.911,3.898,3.896,19.255,77,14,Waypoint,
38.5270985,-120.3542655,5223.33293027,166.338588,0,0.38274935608,22600,2018-07-07 19:19:59,13,0,23.284,5223.33293027,166.338588,0.223694,0.68599411644,0,0,-0.671082,316.8, 0, -4.2,0,0,1024,1024,1024,1024,316.2,-89.9,97,3.891,3.884,3.877,3.911,3.898,3.896,19.255,77,14,Waypoint,
38.5270985,-120.3542655,5224.31718227,167.32284,0,0.38274935608,22700,2018-07-07 19:19:59,13,0,23.284,5224.31718227,167.32284,0.223694,0.68599411644,0,0,-0.671082,316.8, 0, -4,0,0,1024,1024,1024,1024,316.2,-90,97,3.891,3.884,3.877,3.911,3.898,3.896,19.255,77,14,Waypoint,
38.5270985,-120.3542656,5225.30143427,168.307092,0,0.35970801676,22800,2018-07-07 19:19:59,13,0,23.284,5225.30143427,168.307092,0.223694,0.68599411644,0,0,-0.671082,316.8, 0, -4,0,0,1024,1024,1024,1024,316.2,-89.9,97,3.891,3.884,3.877,3.911,3.898,3.896,19.255,77,14,Waypoint,
38.5270985,-120.3542655,5226.28568627,169.291344,0,0.38274935608,22900,2018-07-07 19:19:59,13,0,23.284,5226.28568627,169.291344,0.223694,0.68599411644,0,0,-0.671082,316.7, 0, -3.8,0,0,1024,1024,1024,1024,316.2,-89.9,97,3.891,3.884,3.877,3.911,3.898,3.896,19.255,77,14,Waypoint,
38.5270984,-120.3542655,5227.26993827,170.275596,0,0.36312009036,23000,2018-07-07 19:19:59,13,0,23.284,5227.26993827,170.275596,0.223694,0.68599411644,0,0,-0.671082,316.7, -0.1, -3.7,0,0,1024,1024,1024,1024,316.2,-90,97,3.871,3.874,3.868,3.889,3.886,3.876,19.255,78.8,14,Waypoint,
38.5270984,-120.3542655,5228.25419027,171.259848,0,0.36312009036,23100,2018-07-07 19:20:00,13,0,23.284,5228.25419027,171.259848,0.223694,0.68599411644,0,0,-0.671082,316.7, -0.2, -3.8,0,0,1024,1024,1024,1024,316.2,-89.9,97,3.871,3.874,3.868,3.889,3.886,3.876,19.255,78.8,14,Waypoint,
38.5270984,-120.3542655,5229.23844227,172.2441,0,0.36312009036,23200,2018-07-07 19:20:00,13,0,23.284,5229.23844227,172.2441,0.223694,0.68599411644,0,0,-0.671082,316.6, -0.1, -4,0,0,1024,1024,1024,1024,316.2,-89.9,97,3.871,3.874,3.868,3.889,3.886,3.876,19.255,78.8,14,Waypoint,
38.5270984,-120.3542655,5230.22269427,173.228352,0,0.36312009036,23300,2018-07-07 19:20:00,13,0,23.284,5230.22269427,173.228352,0.223694,0.68599411644,0,0,-0.671082,316.6, -0.1, -4,0,0,1024,1024,1024,1024,316.2,-90,97,3.871,3.874,3.868,3.889,3.886,3.876,19.255,78.8,14,Waypoint,
38.5270983,-120.3542655,5231.20694627,174.212604,0,0.34623032604,23400,2018-07-07 19:20:00,13,0,23.284,5231.20694627,174.212604,0.223694,0.68599411644,0,0,-0.671082,316.6, -0.2, -4,0,0,1024,1024,1024,1024,316.2,-89.9,97,3.871,3.874,3.868,3.889,3.886,3.876,19.255,78.8,14,Waypoint,
38.5270983,-120.3542655,5232.19119827,175.196856,0,0.34623032604,23500,2018-07-07 19:20:00,13,0,23.284,5232.19119827,175.196856,0.223694,0.68599411644,0,0,-0.671082,316.6, -0.2, -4,0,0,1024,1024,1024,1024,316.2,-90,97,3.871,3.874,3.868,3.889,3.886,3.876,19.255,78.8,14,Waypoint,
38.5270983,-120.3542655,5233.17545027,176.181108,0,0.34623032604,23600,2018-07-07 19:20:00,13,0,23.284,5233.17545027,176.181108,0.223694,0.68599411644,0,0,-0.671082,316.6, -0.2, -4,0,0,1024,1024,1024,1024,316.2,-90,97,3.871,3.874,3.868,3.889,3.886,3.876,19.255,78.8,14,Waypoint,
38.5270983,-120.3542655,5234.15970227,177.16536,0,0.34623032604,23700,2018-07-07 19:20:00,13,0,23.284,5234.15970227,177.16536,0.223694,0.68599411644,0,0,-0.671082,316.7, -0.2, -4,0,0,1024,1024,1024,1024,316.2,-89.9,97,3.871,3.874,3.868,3.889,3.886,3.876,19.255,78.8,14,Waypoint,
38.5270983,-120.3542655,5235.14395427,178.149612,0,0.34623032604,23800,2018-07-07 19:20:00,13,0,23.284,5235.14395427,178.149612,0.223694,0.68599411644,0,0,-0.671082,316.7, -0.3, -4.1,0,0,1024,1024,1024,1024,316.2,-90,97,3.871,3.874,3.868,3.889,3.886,3.876,19.255,78.8,14,Waypoint,
38.5270982,-120.3542655,5237.11245827,180.118116,0,0.33250001064,23900,2018-07-07 19:20:00,13,0,23.284,5237.11245827,180.118116,0.223694,0.68599411644,0,0,-0.671082,316.8, -0.4, -4.3,0,0,1024,1024,1024,1024,316.2,-90,97,3.871,3.874,3.868,3.889,3.886,3.876,19.255,78.8,14,Waypoint,
38.5270982,-120.3542656,5239.08096227,182.08662,0,0.30569390742,24100,2018-07-07 19:20:01,13,0,23.284,5239.08096227,182.08662,0.223694,0.68599411644,0,0,-0.671082,316.8, -0.4, -4,0,0,1024,1024,1024,1024,316.2,-90,97,3.871,3.874,3.868,3.889,3.886,3.876,19.255,78.8,14,Waypoint,
38.5270981,-120.3542656,5240.06521427,183.070872,0,0.294606636724,24200,2018-07-07 19:20:01,13,0,23.284,5240.06521427,183.070872,0.223694,0.68599411644,0,0,-0.671082,316.7, -0.5, -4,0,0,1024,1024,1024,1024,316.2,-90,97,3.871,3.874,3.868,3.889,3.886,3.876,19.255,78.8,14,Waypoint,
38.5270981,-120.3542656,5241.37755027,184.383208,0,0.294606636724,24300,2018-07-07 19:20:01,13,0,23.284,5241.37755027,184.383208,0.223694,0.68599411644,0,0,-0.671082,316.7, -0.4, -4,0,0,1024,1024,1024,1024,316.2,-89.9,97,3.871,3.874,3.868,3.889,3.886,3.876,19.255,78.8,14,Waypoint,
38.5270981,-120.3542656,5242.03371827,185.039376,0,0.294606636724,24400,2018-07-07 19:20:01,13,0,23.284,5242.03371827,185.039376,0.223694,0.68599411644,0,0,-0.671082,316.6, -0.4, -4.1,0,0,1024,1024,1024,1024,316.2,-89.9,97,3.871,3.874,3.868,3.889,3.886,3.876,19.255,78.8,14,Waypoint,
38.5270981,-120.3542656,5243.01797027,186.023628,0,0.294606636724,24600,2018-07-07 19:20:01,13,0,23.284,5243.01797027,186.023628,0.223694,0.68599411644,0,0,-0.671082,316.6, -0.3, -3.9,0,0,1024,1024,1024,1024,316.2,-89.9,97,3.871,3.874,3.868,3.889,3.886,3.876,19.255,78.8,14,Waypoint,
38.527098,-120.3542656,5244.00222227,187.00788,0,0.287749024956,24700,2018-07-07 19:20:01,13,0,23.284,5244.00222227,187.00788,0.223694,0.68599411644,0,0,-0.671082,316.7, -0.5, -3.9,0,0,1024,1024,1024,1024,316.2,-89.9,97,3.871,3.874,3.868,3.889,3.886,3.876,19.255,78.8,14,Waypoint,
38.527098,-120.3542657,5244.98647427,187.992132,0,0.25946195056,24800,2018-07-07 19:20:01,13,0,23.284,5244.98647427,187.992132,0.223694,0.68599411644,0,0,-0.671082,316.8, -0.7, -3.7,0,0,1024,1024,1024,1024,316.2,-90,97,3.871,3.874,3.868,3.889,3.886,3.876,19.255,78.8,14,Waypoint,
38.527098,-120.3542657,5245.97072627,188.976384,0,0.25946195056,24900,2018-07-07 19:20:01,13,0,23.284,5245.97072627,188.976384,0.223694,0.68599411644,0,0,-0.671082,316.8, -0.7, -3.7,0,0,1024,1024,1024,1024,316.2,-90,97,3.871,3.874,3.868,3.889,3.886,3.876,19.255,78.8,14,Waypoint,
38.5270979,-120.3542658,5246.95497827,189.960636,0,0.228341214656,25000,2018-07-07 19:20:01,13,0,23.23,5246.95497827,189.960636,0.223694,0.68599411644,0,0,-0.671082,316.8, -0.6, -3.6,0,0,1024,1024,1024,1024,316.2,-89.9,97,3.866,3.868,3.862,3.894,3.878,3.869,19.093,78.8,14,Waypoint,
38.5270979,-120.3542658,5247.93923027,190.944888,0,0.228341214656,25100,2018-07-07 19:20:02,13,0,23.23,5247.93923027,190.944888,0.223694,0.68599411644,0,0,-0.671082,316.7, -0.6, -3.6,0,0,1024,1024,1024,1024,316.2,-90,97,3.866,3.868,3.862,3.894,3.878,3.869,19.093,78.8,14,Waypoint,
38.5270979,-120.3542659,5248.92348227,191.92914,0,0.199798562824,25200,2018-07-07 19:20:02,13,0,23.23,5248.92348227,191.92914,0.223694,0.68599411644,0,0,-0.671082,316.7, -0.5, -3.5,0,0,1024,1024,1024,1024,316.2,-90,97,3.866,3.868,3.862,3.894,3.878,3.869,19.093,78.8,14,Waypoint,
38.5270979,-120.3542659,5249.90773427,192.913392,0,0.199798562824,25300,2018-07-07 19:20:02,13,0,23.23,5249.90773427,192.913392,0.223694,0.68599411644,0,0,-0.671082,316.7, -0.4, -3.3,0,0,1024,1024,1024,1024,316.2,-89.9,97,3.866,3.868,3.862,3.894,3.878,3.869,19.093,78.8,14,Waypoint,
38.5270979,-120.354266,5250.89198627,193.897644,0,0.171255910992,25400,2018-07-07 19:20:02,13,0,23.23,5250.89198627,193.897644,0.223694,0.68599411644,0,0,-0.671082,316.7, -0.3, -3.2,0,0,1024,1024,1024,1024,316.2,-89.9,97,3.866,3.868,3.862,3.894,3.878,3.869,19.093,78.8,14,Waypoint,
38.5270979,-120.3542661,5251.87623827,194.881896,0,0.14271325916,25500,2018-07-07 19:20:02,13,0,23.23,5251.87623827,194.881896,0.223694,0.68599411644,0,0,-0.671082,316.7, -0.2, -3.1,0,0,1024,1024,1024,1024,316.2,-89.9,97,3.866,3.868,3.862,3.894,3.878,3.869,19.093,78.8,14,Waypoint,
38.5270978,-120.3542662,5253.18857427,196.194232,0,0.119858599636,25600,2018-07-07 19:20:02,13,0,23.23,5253.18857427,196.194232,0.223694,0.68599411644,0,0,-0.671082,316.8, -0.1, -3.1,0,0,1024,1024,1024,1024,316.2,-89.9,97,3.866,3.868,3.862,3.894,3.878,3.869,19.093,78.8,14,Waypoint,
38.5270978,-120.3542662,5254.17282627,197.178484,0,0.119858599636,25700,2018-07-07 19:20:02,13,0,23.23,5254.17282627,197.178484,0.223694,0.68599411644,0,0,-0.671082,316.9, 0, -3.2,0,0,1024,1024,1024,1024,316.2,-89.9,97,3.866,3.868,3.862,3.894,3.878,3.869,19.093,78.8,14,Waypoint,
38.5270978,-120.3542663,5255.15707827,198.162736,0,0.093076774632,25800,2018-07-07 19:20:02,13,0,23.23,5255.15707827,198.162736,0.223694,0.68599411644,0,0,-0.671082,316.9, 0, -3.3,0,0,1024,1024,1024,1024,316.2,-89.9,97,3.866,3.868,3.862,3.894,3.878,3.869,19.093,78.8,14,Waypoint,
38.5270978,-120.3542663,5256.14133027,199.146988,0,0.093076774632,25900,2018-07-07 19:20:02,13,0,23.23,5256.14133027,199.146988,0.223694,0.68599411644,0,0,-0.671082,316.9, -0.1, -3.5,0,0,1024,1024,1024,1024,316.2,-89.9,97,3.866,3.868,3.862,3.894,3.878,3.869,19.093,78.8,14,Waypoint,
38.5270978,-120.3542663,5257.12558227,200.13124,0,0.093076774632,26000,2018-07-07 19:20:02,13,0,23.244,5257.12558227,200.13124,0.223694,0.68599411644,0,0,-0.671082,316.8, -0.3, -3.5,0,0,1024,1024,1024,1024,316.2,-90,97,3.864,3.873,3.851,3.884,3.877,3.874,19.047,78.8,14,Waypoint,
38.5270978,-120.3542663,5258.10983427,201.115492,0,0.093076774632,26100,2018-07-07 19:20:03,13,0,23.244,5258.10983427,201.115492,0.223694,0.68599411644,0,0,-0.671082,316.8, -0.5, -3.6,0,0,1024,1024,1024,1024,316.2,-89.9,97,3.864,3.873,3.851,3.884,3.877,3.874,19.047,78.8,14,Waypoint,
38.5270978,-120.3542663,5259.09408627,202.099744,0,0.093076774632,26200,2018-07-07 19:20:03,13,0,23.244,5259.09408627,202.099744,0.223694,0.68599411644,0,0,-0.671082,316.7, -0.7, -3.8,0,0,1024,1024,1024,1024,316.2,-90,97,3.864,3.873,3.851,3.884,3.877,3.874,19.047,78.8,14,Waypoint,
38.5270978,-120.3542663,5260.40642227,203.41208,0,0.093076774632,26300,2018-07-07 19:20:03,13,0,23.244,5260.40642227,203.41208,0.223694,0.68599411644,0,0,-0.671082,316.6, -0.8, -4,0,0,1024,1024,1024,1024,316.2,-90,97,3.864,3.873,3.851,3.884,3.877,3.874,19.047,78.8,14,Waypoint,
38.5270978,-120.3542662,5261.39067427,204.396332,0,0.119858599636,26400,2018-07-07 19:20:03,13,0,23.244,5261.39067427,204.396332,0.223694,0.68599411644,0,0,-0.671082,316.5, -0.9, -4.1,0,0,1024,1024,1024,1024,316.2,-90,97,3.864,3.873,3.851,3.884,3.877,3.874,19.047,78.8,14,Waypoint,
38.5270978,-120.3542662,5263.35917827,206.364836,0,0.119858599636,26500,2018-07-07 19:20:03,13,0,23.244,5263.35917827,206.364836,0.223694,0.68599411644,0,0,-0.671082,316.4, -0.8, -4.4,0,0,1024,1024,1024,1024,316.2,-90,97,3.864,3.873,3.851,3.884,3.877,3.874,19.047,78.8,14,Waypoint,
38.5270979,-120.3542662,5264.34343027,207.349088,0,0.114170607328,26600,2018-07-07 19:20:03,13,0,23.244,5264.34343027,207.349088,0.223694,0.68599411644,0,0,-0.671082,316.4, -0.6, -4.3,0,0,1024,1024,1024,1024,316.2,-89.9,97,3.864,3.873,3.851,3.884,3.877,3.874,19.047,78.8,14,Waypoint,
38.5270979,-120.3542662,5265.32768227,208.33334,0,0.114170607328,26700,2018-07-07 19:20:03,13,0,23.244,5265.32768227,208.33334,0.223694,0.68599411644,0,0,-0.671082,316.5, -0.5, -4.2,0,0,1024,1024,1024,1024,316.2,-89.9,97,3.864,3.873,3.851,3.884,3.877,3.874,19.047,78.8,14,Waypoint,
38.5270979,-120.3542662,5267.29618627,210.301844,0,0.114170607328,26910,2018-07-07 19:20:03,13,0,23.244,5267.29618627,210.301844,0.223694,0.68599411644,0,0,-0.671082,316.7, -0.4, -4,0,0,1024,1024,1024,1024,316.2,-89.9,97,3.864,3.873,3.851,3.884,3.877,3.874,19.047,78.8,14,Waypoint,
38.5270979,-120.3542662,5267.29618627,210.301844,0,0.114170607328,27000,2018-07-07 19:20:03,13,0,23.186,5267.29618627,210.301844,0.223694,0.68599411644,0,0,-0.671082,316.7, -0.4, -4,0,0,1024,1024,1024,1024,316.2,-89.9,96,3.855,3.845,3.859,3.891,3.865,3.874,19.407,78.8,14,Waypoint,
