latitude,longitude,altitude(feet),ascent(feet),speed(mph),distance(feet),time(millisecond),datetime(utc),satellites,gpslevel,voltage(v),max_altitude(feet),max_ascent(feet),max_speed(mph),max_distance(feet), xSpeed(mph), ySpeed(mph), zSpeed(mph), compass_heading(degrees), pitch(degrees), roll(degrees),isPhoto,isVideo,rc_elevator,rc_aileron,rc_throttle,rc_rudder,gimbal_heading(degrees),gimbal_pitch(degrees),battery_percent,voltageCell1,voltageCell2,voltageCell3,voltageCell4,voltageCell5,voltageCell6,current(A),battery_temperature(f),flycStateRaw,flycState,message
38.5270837,-120.3543252,5049.2552124292,0,0,0,3200,2018-07-07 18:23:31,12,0,0,5049.2552124292,0,0,0,0,0,0,313.6, 0, 1.2,1,0,1024,1024,1024,1024,312.2,-89.9,98,4.17,4.156,4.131,4.115,4.136,4.113,0,68,11,AutoTakeoff,DJI_0371.jpg Starting Mission from Lat/Long: 38.52709/-120.35432 Camera: Zenmuse X3 - Overlap: 90/90 - Active Connection: No
38.5270838,-120.3543251,5049.2552124292,0,0,0.046323164212,3300,2018-07-07 18:23:32,12,0,0,5049.2552124292,0,0,0.046323164212,0,0,0,313.7, 0, 0.5,0,0,1024,1024,1024,1024,312.2,-89.9,98,4.17,4.156,4.131,4.115,4.136,4.113,0,68,11,AutoTakeoff,
38.5270839,-120.3543251,5049.2552124292,0,0,0.078353677048,3400,2018-07-07 18:23:32,12,0,0,5049.2552124292,0,0,0.078353677048,0,0,0,313.7, 0.2, 0.1,0,0,1024,1024,1024,1024,312.2,-89.9,98,4.17,4.156,4.131,4.115,4.136,4.113,0,68,11,AutoTakeoff,
38.5270839,-120.354325,5049.2552124292,0,0,0.092646328424,3500,2018-07-07 18:23:32,12,0,0,5049.2552124292,0,0,0.092646328424,0,0,0,313.6, 0.3, -0.1,0,0,1024,1024,1024,1024,312.2,-89.9,98,4.17,4.156,4.131,4.115,4.136,4.113,0,68,11,AutoTakeoff,
38.527084,-120.3543249,5049.5832964292,0.328084,0,0.138969492636,3600,2018-07-07 18:23:32,12,0,0,5049.5832964292,0.328084,0,0.138969492636,0,0,0,313.5, 0.4, 0,0,0,1024,1024,1024,1024,312.3,-89.9,98,4.17,4.156,4.131,4.115,4.136,4.113,0,68,11,AutoTakeoff,
38.5270841,-120.3543248,5049.5832964292,0.328084,0.223694,0.185292656848,3700,2018-07-07 18:23:32,12,0,0,5049.5832964292,0.328084,0.223694,0.185292656848,0,0,0,313.5, 0.3, 0,0,0,1024,1024,1024,1024,312.3,-89.9,98,4.17,4.156,4.131,4.115,4.136,4.113,0,68,11,AutoTakeoff,
38.5270842,-120.3543247,5049.9113804292,0.656168,0.223694,0.23161582106,3800,2018-07-07 18:23:32,12,0,0,5049.9113804292,0.656168,0.223694,0.23161582106,0,0,0,313.5, 0.1, -0.3,0,0,1024,1024,1024,1024,312.3,-89.9,98,4.17,4.156,4.131,4.115,4.136,4.113,0,68,11,AutoTakeoff,
38.5270843,-120.3543247,5049.9113804292,0.656168,0.223694,0.261320874504,3900,2018-07-07 18:23:32,12,0,0,5049.9113804292,0.656168,0.223694,0.261320874504,0,0,0,313.5, 0.1, -0.6,0,0,1024,1024,1024,1024,312.3,-89.9,98,4.17,4.156,4.131,4.115,4.136,4.113,0,68,11,AutoTakeoff,
38.5270844,-120.3543246,5049.9113804292,0.656168,0.223694,0.307498041336,4000,2018-07-07 18:23:32,11,0,24.964,5049.9113804292,0.656168,0.223694,0.307498041336,0,0,0,313.4, 0.3, -0.9,0,0,1024,1024,1024,1024,312.3,-89.9,98,4.17,4.156,4.131,4.115,4.136,4.113,4.18,68,11,AutoTakeoff,
38.5270845,-120.3543245,5050.2394644292,0.984252,0.223694,0.35371392208,4100,2018-07-07 18:23:32,11,0,24.964,5050.2394644292,0.984252,0.223694,0.35371392208,0,0,0,313.4, 0.7, -1.1,0,0,1024,1024,1024,1024,312.4,-89.9,98,4.17,4.156,4.131,4.115,4.136,4.113,4.18,68,11,AutoTakeoff,
38.5270846,-120.3543244,5050.2394644292,0.984252,0.223694,0.39995408104,4200,2018-07-07 18:23:32,10,0,24.964,5050.2394644292,0.984252,0.223694,0.39995408104,0,0,0,313.4, 0.8, -1.3,0,0,1024,1024,1024,1024,312.4,-89.9,98,4.17,4.156,4.131,4.115,4.136,4.113,4.18,68,11,AutoTakeoff,
38.5270847,-120.3543244,5050.5675484292,1.312336,0,0.4304133996,4300,2018-07-07 18:23:33,10,0,24.964,5050.5675484292,1.312336,0.223694,0.4304133996,0,0,0,313.5, 0.7, -1.6,0,0,1024,1024,1024,1024,312.4,-89.9,98,4.17,4.156,4.131,4.115,4.136,4.113,4.18,68,11,AutoTakeoff,
38.5270847,-120.3543245,5050.5675484292,1.312336,0,0.41597442276,4400,2018-07-07 18:23:33,10,0,24.964,5050.5675484292,1.312336,0.223694,0.4304133996,0,0,0,313.5, 0.7, -1.7,0,0,1024,1024,1024,1024,312.4,-89.9,98,4.17,4.156,4.131,4.115,4.136,4.113,4.18,68,11,AutoTakeoff,
38.5270848,-120.3543245,5050.8956324292,1.64042,0,0.44831694348,4500,2018-07-07 18:23:33,10,0,24.964,5050.8956324292,1.64042,0.223694,0.44831694348,0,0,0,313.5, 0.7, -1.6,0,0,1024,1024,1024,1024,312.4,-89.9,98,4.17,4.156,4.131,4.115,4.136,4.113,4.18,68,11,AutoTakeoff,
38.5270848,-120.3543245,5050.8956324292,1.64042,0,0.44831694348,4600,2018-07-07 18:23:33,9,0,24.964,5050.8956324292,1.64042,0.223694,0.44831694348,0,0,-0.223694,313.5, 0.7, -1.4,0,0,1024,1024,1024,1024,312.4,-89.9,98,4.17,4.156,4.131,4.115,4.136,4.113,4.18,68,11,AutoTakeoff,
38.5270848,-120.3543245,5051.2237164292,1.968504,0,0.44831694348,4700,2018-07-07 18:23:33,9,0,24.964,5051.2237164292,1.968504,0.223694,0.44831694348,0,0,-0.223694,313.5, 0.6, -1.2,0,0,1024,1024,1024,1024,312.4,-89.9,98,4.17,4.156,4.131,4.115,4.136,4.113,4.18,68,11,AutoTakeoff,
38.5270848,-120.3543245,5051.2237164292,1.968504,0,0.44831694348,4800,2018-07-07 18:23:33,10,0,24.964,5051.2237164292,1.968504,0.223694,0.44831694348,0,0,-0.223694,313.5, 0.6, -1.2,0,0,1024,1024,1024,1024,312.5,-89.9,98,4.17,4.156,4.131,4.115,4.136,4.113,4.18,68,11,AutoTakeoff,
38.5270848,-120.3543246,5051.5518004292,2.296588,0,0.43634515832,4900,2018-07-07 18:23:33,10,0,24.964,5051.5518004292,2.296588,0.223694,0.44831694348,0,0,-0.223694,313.6, 0.7, -1.1,0,0,1024,1024,1024,1024,312.5,-89.9,98,4.17,4.156,4.131,4.115,4.136,4.113,4.18,68,11,AutoTakeoff,
38.5270848,-120.3543246,5051.5518004292,2.296588,0,0.43634515832,5000,2018-07-07 18:23:33,10,0,23.982,5051.5518004292,2.296588,0.223694,0.44831694348,0,0,-0.223694,313.6, 0.8, -1,0,0,1024,1024,1024,1024,312.5,-89.9,98,3.958,3.929,3.887,3.957,3.975,3.929,13.646,68,11,AutoTakeoff,
38.5270848,-120.3543247,5051.8798844292,2.624672,0,0.42595473804,5100,2018-07-07 18:23:33,10,0,23.982,5051.8798844292,2.624672,0.223694,0.44831694348,0,0,-0.223694,313.7, 0.7, -0.8,0,0,1024,1024,1024,1024,312.5,-89.9,98,3.958,3.929,3.887,3.957,3.975,3.929,13.646,68,11,AutoTakeoff,
38.5270847,-120.3543248,5051.8798844292,2.624672,0,0.38229660016,5200,2018-07-07 18:23:33,10,0,23.982,5051.8798844292,2.624672,0.223694,0.44831694348,0,0,0,313.8, 0.7, -0.5,0,0,1024,1024,1024,1024,312.5,-89.9,98,3.958,3.929,3.887,3.957,3.975,3.929,13.646,68,11,AutoTakeoff,
38.5270846,-120.3543249,5052.2079684292,2.952756,0,0.33934712372,5300,2018-07-07 18:23:34,10,0,23.982,5052.2079684292,2.952756,0.223694,0.44831694348,0,0,0,313.8, 0.6, -0.4,0,0,1024,1024,1024,1024,312.5,-89.9,98,3.958,3.929,3.887,3.957,3.975,3.929,13.646,68,6,P-GPS,
38.5270845,-120.354325,5052.2079684292,2.952756,0,0.297409458336,5500,2018-07-07 18:23:34,10,0,23.982,5052.2079684292,2.952756,0.223694,0.44831694348,0,0,0,313.8, 0.3, 0,0,0,1024,1024,1024,1024,312.5,-89.9,98,3.958,3.929,3.887,3.957,3.975,3.929,13.646,68,14,Waypoint,
38.5270845,-120.354325,5052.5360524292,3.28084,0,0.297409458336,5600,2018-07-07 18:23:34,10,0,23.982,5052.5360524292,3.28084,0.223694,0.44831694348,0,0,0,313.8, 0.3, 0.3,0,0,1024,1024,1024,1024,312.6,-89.9,98,3.958,3.929,3.887,3.957,3.975,3.929,13.646,68,14,Waypoint,
38.5270844,-120.354325,5052.5360524292,3.28084,0,0.261696530684,5700,2018-07-07 18:23:34,10,0,23.982,5052.5360524292,3.28084,0.223694,0.44831694348,0,0,0,313.9, 0.2, 0.3,0,0,1024,1024,1024,1024,312.6,-89.9,98,3.958,3.929,3.887,3.957,3.975,3.929,13.646,68,14,Waypoint,
38.5270844,-120.354325,5052.5360524292,3.28084,0,0.261696530684,5800,2018-07-07 18:23:34,11,0,23.982,5052.5360524292,3.28084,0.223694,0.44831694348,0,0,0,313.9, 0, 0.1,0,0,1024,1024,1024,1024,312.6,-90,98,3.958,3.929,3.887,3.957,3.975,3.929,13.646,68,14,Waypoint,
38.5270844,-120.3543251,5052.8641364292,3.608924,0,0.256984588276,5900,2018-07-07 18:23:34,11,0,23.982,5052.8641364292,3.608924,0.223694,0.44831694348,0,0,0,314, 0, 0,0,0,1024,1024,1024,1024,312.6,-89.9,98,3.958,3.929,3.887,3.957,3.975,3.929,13.646,68,14,Waypoint,
38.5270843,-120.3543251,5052.8641364292,3.608924,0,0.220762474256,6000,2018-07-07 18:23:34,11,0,23.439,5052.8641364292,3.608924,0.223694,0.44831694348,0,0,-0.223694,314.1, 0.2, -0.1,0,0,1024,1024,1024,1024,312.6,-89.9,98,3.885,3.864,3.85,3.886,3.916,3.885,17.311,68,14,Waypoint,
38.5270843,-120.3543252,5053.1922204292,3.937008,0,0.218909783908,6100,2018-07-07 18:23:34,11,0,23.439,5053.1922204292,3.937008,0.223694,0.44831694348,0,0,-0.223694,314.1, 0.4, -0.1,0,0,1024,1024,1024,1024,312.6,-89.9,98,3.885,3.864,3.85,3.886,3.916,3.885,17.311,68,14,Waypoint,
38.5270842,-120.3543252,5053.5203044292,4.265092,0,0.18242454652,6200,2018-07-07 18:23:34,12,0,23.439,5053.5203044292,4.265092,0.223694,0.44831694348,0,0,-0.223694,314.1, 0.4, -0.1,0,0,1024,1024,1024,1024,312.7,-89.9,98,3.885,3.864,3.85,3.886,3.916,3.885,17.311,68,14,Waypoint,
38.5270842,-120.3543252,5053.8483884292,4.593176,0,0.18242454652,6300,2018-07-07 18:23:35,12,0,23.439,5053.8483884292,4.593176,0.223694,0.44831694348,0,0,-0.223694,314.1, 0.2, -0.1,0,0,1024,1024,1024,1024,312.7,-90,98,3.885,3.864,3.85,3.886,3.916,3.885,17.311,68,14,Waypoint,
38.5270842,-120.3543251,5054.1764724292,4.92126,0,0.18464403478,6400,2018-07-07 18:23:35,12,0,23.439,5054.1764724292,4.92126,0.223694,0.44831694348,0,0,-0.223694,314.1, 0.1, 0,0,0,1024,1024,1024,1024,312.7,-89.9,98,3.885,3.864,3.85,3.886,3.916,3.885,17.311,68,14,Waypoint,
38.5270841,-120.3543251,5054.8326404292,5.577428,0,0.148704729168,6500,2018-07-07 18:23:35,12,0,23.439,5054.8326404292,5.577428,0.223694,0.44831694348,0,0,-0.447388,314, 0, 0.1,0,0,1024,1024,1024,1024,312.7,-90,98,3.885,3.864,3.85,3.886,3.916,3.885,17.311,68,14,Waypoint,
38.527084,-120.354325,5055.4888084292,6.233596,0,0.123446854344,6600,2018-07-07 18:23:35,12,0,23.439,5055.4888084292,6.233596,0.223694,0.44831694348,0,0,-0.447388,314, 0, 0,0,0,1024,1024,1024,1024,312.7,-89.9,98,3.885,3.864,3.85,3.886,3.916,3.885,17.311,68,14,Waypoint,
38.5270841,-120.3543248,5056.1449764292,6.889764,0,0.185292656848,6700,2018-07-07 18:23:35,12,0,23.439,5056.1449764292,6.889764,0.223694,0.44831694348,0,0,-0.447388,313.9, 0, 0,0,0,1024,1024,1024,1024,312.7,-90,98,3.885,3.864,3.85,3.886,3.916,3.885,17.311,68,14,Waypoint,
38.5270842,-120.3543247,5056.8011444292,7.545932,0,0.23161582106,6800,2018-07-07 18:23:35,11,0,23.439,5056.8011444292,7.545932,0.223694,0.44831694348,0,0,-0.447388,313.8, 0, -0.4,0,0,1024,1024,1024,1024,312.7,-89.9,98,3.885,3.864,3.85,3.886,3.916,3.885,17.311,68,14,Waypoint,
38.5270843,-120.3543245,5057.4573124292,8.2021,0,0.29637960266,6900,2018-07-07 18:23:35,11,0,23.439,5057.4573124292,8.2021,0.223694,0.44831694348,0,0,-0.671082,313.7, 0.1, -1,0,0,1024,1024,1024,1024,312.8,-89.9,98,3.885,3.864,3.85,3.886,3.916,3.885,17.311,68,14,Waypoint,
38.5270844,-120.3543243,5058.4415644292,9.186352,0,0.3622375444,7000,2018-07-07 18:23:35,11,0,23.139,5058.4415644292,9.186352,0.223694,0.44831694348,0,0,-0.671082,313.7, 0.1, -1.3,0,0,1024,1024,1024,1024,312.8,-89.9,98,3.816,3.784,3.786,3.83,3.908,3.889,19.234,68,14,Waypoint,
38.5270846,-120.3543241,5059.4258164292,10.170604,0,0.454314319,7100,2018-07-07 18:23:35,11,0,23.139,5059.4258164292,10.170604,0.223694,0.454314319,0,0,-0.671082,313.7, 0.2, -1.5,0,0,1024,1024,1024,1024,312.8,-89.9,98,3.816,3.784,3.786,3.83,3.908,3.889,19.234,68,14,Waypoint,
38.5270848,-120.354324,5060.4100684292,11.154856,0,0.52762140796,7200,2018-07-07 18:23:35,10,0,23.139,5060.4100684292,11.154856,0.223694,0.52762140796,0,0,-0.671082,313.7, 0.3, -1.9,0,0,1024,1024,1024,1024,312.8,-89.9,98,3.816,3.784,3.786,3.83,3.908,3.889,19.234,68,14,Waypoint,
38.5270848,-120.354324,5061.7224044292,12.467192,0,0.52762140796,7400,2018-07-07 18:23:36,10,0,23.139,5061.7224044292,12.467192,0.223694,0.52762140796,0,0,-0.671082,313.7, 0.4, -1.9,0,0,1024,1024,1024,1024,312.8,-89.9,98,3.816,3.784,3.786,3.83,3.908,3.889,19.234,68,14,Waypoint,
38.5270852,-120.3543238,5063.6909084292,14.435696,0,0.67763453612,7500,2018-07-07 18:23:36,10,0,23.139,5063.6909084292,14.435696,0.223694,0.67763453612,0,0,-0.671082,313.6, 0.6, -1.9,0,0,1024,1024,1024,1024,312.8,-89.9,98,3.816,3.784,3.786,3.83,3.908,3.889,19.234,68,14,Waypoint,
38.5270852,-120.3543236,5065.0032444292,15.748032,0,0.71278873672,7600,2018-07-07 18:23:36,13,0,23.139,5065.0032444292,15.748032,0.223694,0.71278873672,0,0,-0.671082,313.6, 0.9, -1.8,0,0,1024,1024,1024,1024,312.8,-89.9,98,3.816,3.784,3.786,3.83,3.908,3.889,19.234,68,14,Waypoint,
38.5270851,-120.3543235,5065.9874964292,16.732284,0,0.70452101992,7700,2018-07-07 18:23:36,13,0,23.139,5065.9874964292,16.732284,0.223694,0.71278873672,0,0,-0.671082,313.7, 0.8, -1.5,0,0,1024,1024,1024,1024,312.8,-89.9,98,3.816,3.784,3.786,3.83,3.908,3.889,19.234,68,14,Waypoint,
38.527085,-120.3543234,5067.2998324292,18.04462,0,0.699229025,7800,2018-07-07 18:23:36,12,0,23.139,5067.2998324292,18.04462,0.223694,0.71278873672,0,0,-0.671082,313.8, 0.2, -1.3,0,0,1024,1024,1024,1024,312.8,-90,98,3.816,3.784,3.786,3.83,3.908,3.889,19.234,68,14,Waypoint,
38.527085,-120.3543235,5068.2840844292,19.028872,0,0.67853348628,7900,2018-07-07 18:23:36,12,0,23.139,5068.2840844292,19.028872,0.223694,0.71278873672,0,0,-0.671082,313.9, -0.1, -1.3,0,0,1024,1024,1024,1024,312.8,-90,98,3.816,3.784,3.786,3.83,3.908,3.889,19.234,68,14,Waypoint,
38.527085,-120.3543236,5069.2683364292,20.013124,0,0.65842521792,8000,2018-07-07 18:23:36,11,0,22.456,5069.2683364292,20.013124,0.223694,0.71278873672,0,0,-0.671082,313.9, -0.4, -1.2,0,0,1024,1024,1024,1024,312.8,-90,98,3.816,3.784,3.786,3.83,3.908,3.889,25.345,68,14,Waypoint,
38.527085,-120.3543237,5070.5806724292,21.32546,0,0.6389599942,8100,2018-07-07 18:23:36,11,0,22.456,5070.5806724292,21.32546,0.223694,0.71278873672,0,0,-0.671082,313.9, -0.3, -1,0,0,1024,1024,1024,1024,312.8,-90,98,3.816,3.784,3.786,3.83,3.908,3.889,25.345,68,14,Waypoint,
38.527085,-120.3543238,5071.5649244292,22.309712,0,0.62019687024,8200,2018-07-07 18:23:36,11,0,22.456,5071.5649244292,22.309712,0.223694,0.71278873672,0,0,-0.671082,313.9, 0, -0.8,0,0,1024,1024,1024,1024,312.8,-89.9,98,3.816,3.784,3.786,3.83,3.908,3.889,25.345,68,14,Waypoint,
38.5270849,-120.354324,5072.8772604292,23.622048,0,0.55587928288,8300,2018-07-07 18:23:37,11,0,22.456,5072.8772604292,23.622048,0.223694,0.71278873672,0,0,-0.671082,314, 0.3, -0.5,0,0,1024,1024,1024,1024,312.8,-89.9,98,3.816,3.784,3.786,3.83,3.908,3.889,25.345,68,14,Waypoint,
38.5270849,-120.3543243,5073.8615124292,24.6063,0,0.50761812648,8400,2018-07-07 18:23:37,12,0,22.456,5073.8615124292,24.6063,0.223694,0.71278873672,0,0,-0.671082,314, 0.7, -0.3,0,0,1024,1024,1024,1024,312.8,-89.9,98,3.816,3.784,3.786,3.83,3.908,3.889,25.345,68,14,Waypoint,
38.5270848,-120.3543247,5074.8457644292,25.590552,0.223694,0.42595473804,8500,2018-07-07 18:23:37,12,0,22.456,5074.8457644292,25.590552,0.223694,0.71278873672,0,0,-0.671082,314, 1, 0,0,0,1024,1024,1024,1024,312.8,-89.9,98,3.816,3.784,3.786,3.83,3.908,3.889,25.345,68,14,Waypoint,
38.5270847,-120.3543252,5075.8300164292,26.574804,0.223694,0.36484909304,8600,2018-07-07 18:23:37,12,0,22.456,5075.8300164292,26.574804,0.223694,0.71278873672,0,0,-0.671082,314, 1.4, 0.5,0,0,1024,1024,1024,1024,312.8,-89.9,98,3.816,3.784,3.786,3.83,3.908,3.889,25.345,68,14,Waypoint,
38.5270846,-120.3543256,5077.1423524292,27.88714,0.223694,0.34764764892,8700,2018-07-07 18:23:37,12,0,22.456,5077.1423524292,27.88714,0.223694,0.71278873672,0,0,-0.671082,314, 1.3, 0.8,0,0,1024,1024,1024,1024,312.8,-89.9,98,3.816,3.784,3.786,3.83,3.908,3.889,25.345,68,14,Waypoint,
38.5270845,-120.3543259,5078.1266044292,28.871392,0,0.35371392208,8800,2018-07-07 18:23:37,13,0,22.456,5078.1266044292,28.871392,0.223694,0.71278873672,0,0,-0.671082,314, 1.3, 0.8,0,0,1024,1024,1024,1024,312.8,-89.9,98,3.816,3.784,3.786,3.83,3.908,3.889,25.345,68,14,Waypoint,
38.5270843,-120.3543262,5079.1108564292,29.855644,0,0.35970801676,8900,2018-07-07 18:23:37,13,0,22.456,5079.1108564292,29.855644,0.223694,0.71278873672,0,0,-0.671082,313.9, 1.1, 0.7,0,0,1024,1024,1024,1024,312.8,-89.9,98,3.816,3.784,3.786,3.83,3.908,3.889,25.345,68,14,Waypoint,
38.5270842,-120.3543264,5080.0951084292,30.839896,0,0.38806431688,9000,2018-07-07 18:23:37,11,0,22.778,5080.0951084292,30.839896,0.223694,0.71278873672,0,0,-0.671082,314, 0.9, 0.8,0,0,1024,1024,1024,1024,312.8,-89.9,98,3.808,3.785,3.781,3.798,3.826,3.816,20.376,68,14,Waypoint,
38.5270841,-120.3543267,5081.4074444292,32.152232,0,0.4523294108,9100,2018-07-07 18:23:37,11,0,22.778,5081.4074444292,32.152232,0.223694,0.71278873672,0,0,-0.671082,314, 0.9, 0.9,0,0,1024,1024,1024,1024,312.8,-89.9,98,3.808,3.785,3.781,3.798,3.826,3.816,20.376,68,14,Waypoint,
38.5270839,-120.354327,5082.3916964292,33.136484,0,0.51892390112,9200,2018-07-07 18:23:37,12,0,22.778,5082.3916964292,33.136484,0.223694,0.71278873672,0,0,-0.671082,314, 0.9, 1.2,0,0,1024,1024,1024,1024,312.8,-89.9,98,3.808,3.785,3.781,3.798,3.826,3.816,20.376,68,14,Waypoint,
38.5270838,-120.3543273,5083.3759484292,34.120736,0,0.60050526856,9300,2018-07-07 18:23:38,12,0,22.778,5083.3759484292,34.120736,0.223694,0.71278873672,0,0,-0.671082,314, 0.9, 1.4,0,0,1024,1024,1024,1024,312.8,-89.9,98,3.808,3.785,3.781,3.798,3.826,3.816,20.376,68,14,Waypoint,
38.5270836,-120.3543275,5084.3602004292,35.104988,0,0.65749345936,9400,2018-07-07 18:23:38,12,0,22.778,5084.3602004292,35.104988,0.223694,0.71278873672,0,0,-0.671082,314, 0.8, 1.5,0,0,1024,1024,1024,1024,312.8,-89.9,98,3.808,3.785,3.781,3.798,3.826,3.816,20.376,68,14,Waypoint,
38.5270834,-120.3543278,5087.3129564292,38.057744,0,0.75013781928,9600,2018-07-07 18:23:38,11,0,22.778,5087.3129564292,38.057744,0.223694,0.75013781928,0,0,-0.671082,313.7, 0.7, 1,0,0,1024,1024,1024,1024,312.8,-89.9,98,3.808,3.785,3.781,3.798,3.826,3.816,20.376,68,14,Waypoint,
38.5270832,-120.3543278,5088.2972084292,39.041996,0,0.76420278036,9900,2018-07-07 18:23:38,11,0,22.778,5088.2972084292,39.041996,0.223694,0.76420278036,0,0,-0.671082,313.6, 0.7, 1.1,0,0,1024,1024,1024,1024,312.8,-89.9,98,3.808,3.785,3.781,3.798,3.826,3.816,20.376,68,14,Waypoint,
38.527083,-120.3543278,5090.2657124292,41.0105,0,0.7848261406,10000,2018-07-07 18:23:38,11,0,22.881,5090.2657124292,41.0105,0.223694,0.7848261406,0,0,-0.671082,313.6, 0.3, 1,0,0,1024,1024,1024,1024,312.8,-89.9,97,3.808,3.785,3.781,3.798,3.826,3.816,19.27,68,14,Waypoint,
38.5270829,-120.3543278,5091.2499644292,41.994752,0.223694,0.79744753208,10100,2018-07-07 18:23:38,11,0,22.881,5091.2499644292,41.994752,0.223694,0.79744753208,0,0,-0.671082,313.6, 0.1, 0.9,0,0,1024,1024,1024,1024,312.8,-90,97,3.808,3.785,3.781,3.798,3.826,3.816,19.27,68,14,Waypoint,
38.5270828,-120.3543278,5092.2342164292,42.979004,0.223694,0.81150921232,10200,2018-07-07 18:23:38,12,0,22.881,5092.2342164292,42.979004,0.223694,0.81150921232,0,0,-0.671082,313.7, 0, 0.8,0,0,1024,1024,1024,1024,312.8,-90,97,3.808,3.785,3.781,3.798,3.826,3.816,19.27,68,14,Waypoint,
38.5270828,-120.3543278,5093.2184684292,43.963256,0.223694,0.81150921232,10300,2018-07-07 18:23:39,12,0,22.881,5093.2184684292,43.963256,0.223694,0.81150921232,0,0,-0.671082,313.8, -0.1, 0.7,0,0,1024,1024,1024,1024,312.8,-90,97,3.808,3.785,3.781,3.798,3.826,3.816,19.27,68,14,Waypoint,
38.5270827,-120.3543277,5094.2027204292,44.947508,0.223694,0.80143047184,10400,2018-07-07 18:23:39,11,0,22.881,5094.2027204292,44.947508,0.223694,0.81150921232,0,0,-0.671082,313.8, -0.1, 0.5,0,0,1024,1024,1024,1024,312.8,-90,97,3.808,3.785,3.781,3.798,3.826,3.816,19.27,68,14,Waypoint,
38.5270827,-120.3543275,5095.1869724292,45.93176,0.223694,0.75105317364,10500,2018-07-07 18:23:39,11,0,22.881,5095.1869724292,45.93176,0.223694,0.81150921232,0,0,-0.671082,313.8, -0.1, 0.3,0,0,1024,1024,1024,1024,312.8,-90,97,3.808,3.785,3.781,3.798,3.826,3.816,19.27,68,14,Waypoint,
38.5270827,-120.3543274,5096.1712244292,46.916012,0.223694,0.72623689988,10600,2018-07-07 18:23:39,11,0,22.881,5096.1712244292,46.916012,0.223694,0.81150921232,0,0,-0.671082,313.8, -0.1, 0.3,0,0,1024,1024,1024,1024,312.8,-90,97,3.808,3.785,3.781,3.798,3.826,3.816,19.27,68,14,Waypoint,
38.5270827,-120.3543273,5097.1554764292,47.900264,0.223694,0.7017060592,10700,2018-07-07 18:23:39,11,0,22.881,5097.1554764292,47.900264,0.223694,0.81150921232,0,0,-0.671082,313.8, -0.1, 0.4,0,0,1024,1024,1024,1024,312.8,-89.9,97,3.808,3.785,3.781,3.798,3.826,3.816,19.27,68,14,Waypoint,
38.5270826,-120.3543272,5098.1397284292,48.884516,0.223694,0.69781170212,10800,2018-07-07 18:23:39,11,0,22.881,5098.1397284292,48.884516,0.223694,0.81150921232,0,0,-0.671082,313.7, 0, 0.3,0,0,1024,1024,1024,1024,312.8,-89.9,97,3.808,3.785,3.781,3.798,3.826,3.816,19.27,68,14,Waypoint,
38.5270825,-120.3543269,5099.1239804292,49.868768,0.223694,0.65354988968,10900,2018-07-07 18:23:39,11,0,22.881,5099.1239804292,49.868768,0.223694,0.81150921232,0,0,-0.671082,313.7, 0, 0.2,0,0,1024,1024,1024,1024,312.8,-90,97,3.808,3.785,3.781,3.798,3.826,3.816,19.27,68,14,Waypoint,
38.5270825,-120.3543267,5100.1082324292,50.85302,0.223694,0.61236550516,11000,2018-07-07 18:23:39,12,0,22.841,5100.1082324292,50.85302,0.223694,0.81150921232,0,0,-0.671082,313.6, -0.4, 0.1,0,0,1024,1024,1024,1024,312.8,-90,97,3.808,3.785,3.781,3.798,3.826,3.816,19.433,68,14,Waypoint,
38.5270824,-120.3543265,5101.0924844292,51.837272,0.223694,0.60220146284,11100,2018-07-07 18:23:39,12,0,22.841,5101.0924844292,51.837272,0.223694,0.81150921232,0,0,-0.671082,313.6, -0.7, 0.1,0,0,1024,1024,1024,1024,312.8,-90,97,3.808,3.785,3.781,3.798,3.826,3.816,19.433,68,14,Waypoint,
38.5270824,-120.3543264,5102.0767364292,52.821524,0.3131716,0.58504595048,11200,2018-07-07 18:23:39,12,0,22.841,5102.0767364292,52.821524,0.3131716,0.81150921232,0,0,-0.671082,313.6, -0.9, 0,0,0,1024,1024,1024,1024,312.8,-90,97,3.808,3.785,3.781,3.798,3.826,3.816,19.433,68,14,Waypoint,
38.5270824,-120.3543263,5103.0609884292,53.805776,0.3131716,0.56880579248,11300,2018-07-07 18:23:40,12,0,22.841,5103.0609884292,53.805776,0.3131716,0.81150921232,0,0,-0.671082,313.7, -0.9, -0.2,0,0,1024,1024,1024,1024,312.8,-90,97,3.808,3.785,3.781,3.798,3.826,3.816,19.433,68,14,Waypoint,
38.5270825,-120.3543261,5104.0452404292,54.790028,0.3131716,0.50761812648,11400,2018-07-07 18:23:40,13,0,22.841,5104.0452404292,54.790028,0.3131716,0.81150921232,0,0,-0.671082,313.7, -0.7, -0.3,0,0,1024,1024,1024,1024,312.8,-90,97,3.808,3.785,3.781,3.798,3.826,3.816,19.433,68,14,Waypoint,
38.5270826,-120.3543259,5105.0294924292,55.77428,0.3131716,0.44831694348,11500,2018-07-07 18:23:40,13,0,22.841,5105.0294924292,55.77428,0.3131716,0.81150921232,0,0,-0.671082,313.7, -0.5, -0.4,0,0,1024,1024,1024,1024,312.8,-89.9,97,3.808,3.785,3.781,3.798,3.826,3.816,19.433,68,14,Waypoint,
38.5270827,-120.3543257,5106.0137444292,56.758532,0.223694,0.39176838524,11600,2018-07-07 18:23:40,13,0,22.841,5106.0137444292,56.758532,0.3131716,0.81150921232,0,0,-0.671082,313.7, -0.3, -0.5,0,0,1024,1024,1024,1024,312.8,-89.9,97,3.808,3.785,3.781,3.798,3.826,3.816,19.433,68,14,Waypoint,
38.5270828,-120.3543256,5106.9979964292,57.742784,0.223694,0.34764764892,11700,2018-07-07 18:23:40,13,0,22.841,5106.9979964292,57.742784,0.3131716,0.81150921232,0,0,-0.671082,313.8, -0.1, -0.6,0,0,1024,1024,1024,1024,312.8,-89.9,97,3.808,3.785,3.781,3.798,3.826,3.816,19.433,68,14,Waypoint,
38.5270829,-120.3543255,5107.9822484292,58.727036,0.223694,0.304180455928,11800,2018-07-07 18:23:40,13,0,22.841,5107.9822484292,58.727036,0.3131716,0.81150921232,0,0,-0.671082,313.8, 0, -0.8,0,0,1024,1024,1024,1024,312.8,-89.9,97,3.808,3.785,3.781,3.798,3.826,3.816,19.433,68,14,Waypoint,
38.527083,-120.3543253,5108.9665004292,59.711288,0.223694,0.256984588276,11900,2018-07-07 18:23:40,13,0,22.841,5108.9665004292,59.711288,0.3131716,0.81150921232,0,0,-0.671082,313.9, 0.2, -0.9,0,0,1024,1024,1024,1024,312.8,-89.9,97,3.808,3.785,3.781,3.798,3.826,3.816,19.433,68,14,Waypoint,
38.5270831,-120.3543252,5110.2788364292,61.023624,0.223694,0.218909783908,12010,2018-07-07 18:23:40,13,0,22.841,5110.2788364292,61.023624,0.3131716,0.81150921232,0,0,-0.671082,313.9, 0.2, -1.2,0,0,1024,1024,1024,1024,312.8,-89.9,97,3.815,3.791,3.779,3.805,3.834,3.821,19.433,68,14,Waypoint,
38.5270831,-120.3543252,5110.2788364292,61.023624,0.223694,0.218909783908,12100,2018-07-07 18:23:40,13,0,22.841,5110.2788364292,61.023624,0.3131716,0.81150921232,0,0,-0.671082,313.9, 0.2, -1.2,0,0,1024,1024,1024,1024,312.8,-89.9,97,3.815,3.791,3.779,3.805,3.834,3.821,19.433,68,14,Waypoint,
38.5270832,-120.354325,5111.2630884292,62.007876,0.223694,0.191147971996,12200,2018-07-07 18:23:40,13,0,22.841,5111.2630884292,62.007876,0.3131716,0.81150921232,0,0,-0.671082,313.9, 0.3, -1.5,0,0,1024,1024,1024,1024,312.8,-90,97,3.815,3.791,3.779,3.805,3.834,3.821,19.433,68,14,Waypoint,
38.5270833,-120.3543248,5113.2315924292,63.97638,0.223694,0.185292656848,12300,2018-07-07 18:23:41,13,0,22.841,5113.2315924292,63.97638,0.3131716,0.81150921232,0,0,-0.671082,313.9, 0, -1.5,0,0,1024,1024,1024,1024,312.8,-90,97,3.815,3.791,3.779,3.805,3.834,3.821,19.433,68,14,Waypoint,
38.5270834,-120.3543245,5115.2000964292,65.944884,0,0.227815624088,12500,2018-07-07 18:23:41,13,0,22.841,5115.2000964292,65.944884,0.3131716,0.81150921232,0,0,-0.671082,313.9, -0.1, -1.2,0,0,1024,1024,1024,1024,312.8,-89.9,97,3.815,3.791,3.779,3.805,3.834,3.821,19.433,68,14,Waypoint,
38.5270834,-120.3543244,5116.1843484292,66.929136,0,0.253219496292,12600,2018-07-07 18:23:41,14,0,22.841,5116.1843484292,66.929136,0.3131716,0.81150921232,0,0,-0.671082,313.9, -0.1, -1,0,0,1024,1024,1024,1024,312.8,-90,97,3.815,3.791,3.779,3.805,3.834,3.821,19.433,68,14,Waypoint,
38.5270835,-120.3543243,5116.8405164292,67.585304,0,0.267046924556,12700,2018-07-07 18:23:41,14,0,22.841,5116.8405164292,67.585304,0.3131716,0.81150921232,0,0,-0.671082,313.9, -0.2, -1,0,0,1024,1024,1024,1024,312.8,-90,97,3.815,3.791,3.779,3.805,3.834,3.821,19.433,68,14,Waypoint,
38.5270836,-120.3543243,5117.8247684292,68.569556,0,0.25946195056,12800,2018-07-07 18:23:41,14,0,22.841,5117.8247684292,68.569556,0.3131716,0.81150921232,0,0,-0.671082,313.9, -0.1, -0.9,0,0,1024,1024,1024,1024,312.8,-89.9,97,3.815,3.791,3.779,3.805,3.834,3.821,19.433,68,14,Waypoint,
38.5270837,-120.3543242,5118.8090204292,69.553808,0,0.285426846404,12900,2018-07-07 18:23:41,14,0,22.841,5118.8090204292,69.553808,0.3131716,0.81150921232,0,0,-0.671082,313.9, 0, -0.7,0,0,1024,1024,1024,1024,312.8,-89.9,97,3.815,3.791,3.779,3.805,3.834,3.821,19.433,68,14,Waypoint,
38.5270838,-120.3543242,5119.7932724292,70.53806,0,0.287749024956,13000,2018-07-07 18:23:41,14,0,22.777,5119.7932724292,70.53806,0.3131716,0.81150921232,0,0,-0.671082,314.1, 0.3, -0.7,0,0,1024,1024,1024,1024,312.8,-89.9,97,3.804,3.778,3.775,3.798,3.831,3.808,19.597,68,14,Waypoint,
38.5270839,-120.3543241,5120.7775244292,71.522312,0,0.322337280656,13100,2018-07-07 18:23:41,14,0,22.777,5120.7775244292,71.522312,0.3131716,0.81150921232,0,0,-0.671082,314.3, 0.3, -1,0,0,1024,1024,1024,1024,312.8,-89.9,97,3.804,3.778,3.775,3.798,3.831,3.808,19.597,68,14,Waypoint,
38.527084,-120.354324,5121.7617764292,72.506564,0,0.35957678316,13200,2018-07-07 18:23:41,14,0,22.777,5121.7617764292,72.506564,0.3131716,0.81150921232,0,0,-0.671082,314.5, 0.4, -1.3,0,0,1024,1024,1024,1024,312.8,-89.9,97,3.804,3.778,3.775,3.798,3.831,3.808,19.597,68,14,Waypoint,
38.5270841,-120.3543238,5122.7460284292,73.490816,0,0.42541339944,13300,2018-07-07 18:23:42,14,0,22.777,5122.7460284292,73.490816,0.3131716,0.81150921232,0,0,-0.671082,314.6, 0.3, -1.6,0,0,1024,1024,1024,1024,312.8,-89.9,97,3.804,3.778,3.775,3.798,3.831,3.808,19.597,68,14,Waypoint,
38.5270842,-120.3543237,5123.7302804292,74.475068,0,0.46538387316,13400,2018-07-07 18:23:42,13,0,22.777,5123.7302804292,74.475068,0.3131716,0.81150921232,0,0,-0.671082,314.7, 0.2, -1.7,0,0,1024,1024,1024,1024,312.8,-90,97,3.804,3.778,3.775,3.798,3.831,3.808,19.597,68,14,Waypoint,
38.5270843,-120.3543238,5124.7145324292,75.45932,0,0.45562993584,13500,2018-07-07 18:23:42,13,0,22.777,5124.7145324292,75.45932,0.3131716,0.81150921232,0,0,-0.671082,314.6, 0.1, -1.7,0,0,1024,1024,1024,1024,312.8,-90,97,3.804,3.778,3.775,3.798,3.831,3.808,19.597,68,14,Waypoint,
38.5270844,-120.3543237,5125.6987844292,76.443572,0,0.49852691884,13600,2018-07-07 18:23:42,14,0,22.777,5125.6987844292,76.443572,0.3131716,0.81150921232,0,0,-0.671082,314.3, -0.1, -1.5,0,0,1024,1024,1024,1024,312.8,-90,97,3.804,3.778,3.775,3.798,3.831,3.808,19.597,68,14,Waypoint,
38.5270844,-120.3543236,5126.6830364292,77.427824,0,0.5232447674,13700,2018-07-07 18:23:42,14,0,22.777,5126.6830364292,77.427824,0.3131716,0.81150921232,0,0,-0.671082,314, -0.3, -1.6,0,0,1024,1024,1024,1024,312.8,-90,97,3.804,3.778,3.775,3.798,3.831,3.808,19.597,68,14,Waypoint,
38.5270845,-120.3543235,5127.9953724292,78.74016,0,0.56625001812,13800,2018-07-07 18:23:42,14,0,22.777,5127.9953724292,78.74016,0.3131716,0.81150921232,0,0,-0.671082,313.8, -0.5, -1.6,0,0,1024,1024,1024,1024,312.8,-90,97,3.804,3.778,3.775,3.798,3.831,3.808,19.597,68,14,Waypoint,
38.5270845,-120.3543235,5128.9796244292,79.724412,0,0.56625001812,13900,2018-07-07 18:23:42,14,0,22.777,5128.9796244292,79.724412,0.3131716,0.81150921232,0,0,-0.671082,313.7, -0.5, -1.7,0,0,1024,1024,1024,1024,312.8,-90,97,3.804,3.778,3.775,3.798,3.831,3.808,19.597,68,14,Waypoint,
38.5270846,-120.3543234,5129.9638764292,80.708664,0,0.60973755232,14000,2018-07-07 18:23:42,14,0,22.804,5129.9638764292,80.708664,0.3131716,0.81150921232,0,0,-0.671082,313.8, -0.5, -1.8,0,0,1024,1024,1024,1024,312.8,-90,97,3.801,3.779,3.767,3.79,3.824,3.808,19.238,69.8,14,Waypoint,
38.5270847,-120.3543234,5130.9481284292,81.692916,0,0.63013781544,14100,2018-07-07 18:23:42,14,0,22.804,5130.9481284292,81.692916,0.3131716,0.81150921232,0,0,-0.671082,314.1, -0.2, -1.7,0,0,1026,1024,1024,1024,312.8,-89.9,97,3.801,3.779,3.767,3.79,3.824,3.808,19.238,69.8,14,Waypoint,
38.5270848,-120.3543234,5131.9323804292,82.677168,0,0.65194227808,14200,2018-07-07 18:23:42,14,0,22.804,5131.9323804292,82.677168,0.3131716,0.81150921232,0,0,-0.671082,314.3, 0, -1.6,0,0,1024,1024,1024,1024,312.8,-89.9,97,3.801,3.779,3.767,3.79,3.824,3.808,19.238,69.8,14,Waypoint,
38.5270848,-120.3543234,5133.9008844292,84.645672,0,0.65194227808,14400,2018-07-07 18:23:43,14,0,22.804,5133.9008844292,84.645672,0.3131716,0.81150921232,0,0,-0.671082,314.6, 0.2, -1.5,0,0,1024,1024,1024,1024,312.8,-89.9,97,3.801,3.779,3.767,3.79,3.824,3.808,19.238,69.8,14,Waypoint,
38.5270849,-120.3543234,5134.8851364292,85.629924,0,0.67501314496,14500,2018-07-07 18:23:43,14,0,22.804,5134.8851364292,85.629924,0.3131716,0.81150921232,0,0,-0.671082,314.5, 0.3, -1.6,0,0,1024,1024,1024,1024,312.8,-89.9,97,3.801,3.779,3.767,3.79,3.824,3.808,19.238,69.8,14,Waypoint,
38.527085,-120.3543236,5136.8536404292,87.598428,0,0.65842521792,14700,2018-07-07 18:23:43,14,0,22.804,5136.8536404292,87.598428,0.3131716,0.81150921232,0,0,-0.671082,313.8, 0.6, -1.2,0,0,1024,1024,1024,1024,312.8,-89.9,97,3.801,3.779,3.767,3.79,3.824,3.808,19.238,69.8,14,Waypoint,
38.527085,-120.3543238,5138.8221444292,89.566932,0,0.62019687024,14900,2018-07-07 18:23:43,14,0,22.804,5138.8221444292,89.566932,0.3131716,0.81150921232,0,0,-0.671082,313.1, 0.8, -1,0,0,1024,1024,1024,1024,312.8,-89.9,97,3.801,3.779,3.767,3.79,3.824,3.808,19.238,69.8,14,Waypoint,
38.527085,-120.3543239,5139.8063964292,90.551184,0,0.60220146284,15000,2018-07-07 18:23:43,14,0,22.675,5139.8063964292,90.551184,0.3131716,0.81150921232,0,0,-0.671082,312.9, 0.8, -1,0,0,1024,1024,1024,1024,312.8,-89.9,97,3.787,3.764,3.752,3.771,3.806,3.795,20.208,69.8,14,Waypoint,
38.527085,-120.3543239,5140.7906484292,91.535436,0,0.60220146284,15100,2018-07-07 18:23:43,14,0,22.675,5140.7906484292,91.535436,0.3131716,0.81150921232,0,0,-0.671082,312.9, 0.7, -0.9,0,0,1024,1024,1024,1024,312.8,-89.9,97,3.787,3.764,3.752,3.771,3.806,3.795,20.208,69.8,14,Waypoint,
38.527085,-120.3543241,5143.7434044292,94.488192,0,0.56880579248,15400,2018-07-07 18:23:44,13,0,22.675,5143.7434044292,94.488192,0.3131716,0.81150921232,0,0,-0.671082,313.3, 0.5, -0.6,0,0,1024,1024,1024,1024,312.8,-89.9,97,3.787,3.764,3.752,3.771,3.806,3.795,20.208,69.8,14,Waypoint,
38.527085,-120.3543242,5144.7276564292,95.472444,0,0.55356300984,15500,2018-07-07 18:23:44,13,0,22.675,5144.7276564292,95.472444,0.3131716,0.81150921232,0,0,-0.671082,313.7, 0.5, -0.4,0,0,1024,1024,1024,1024,312.8,-89.9,97,3.787,3.764,3.752,3.771,3.806,3.795,20.208,69.8,14,Waypoint,
38.527085,-120.3543242,5145.7119084292,96.456696,0,0.55356300984,15600,2018-07-07 18:23:44,13,0,22.675,5145.7119084292,96.456696,0.3131716,0.81150921232,0,0,-0.671082,314, 0.5, -0.5,0,0,1024,1024,1024,1024,312.8,-89.9,97,3.787,3.764,3.752,3.771,3.806,3.795,20.208,69.8,14,Waypoint,
38.527085,-120.3543243,5146.6961604292,97.440948,0,0.5394029044,15700,2018-07-07 18:23:44,13,0,22.675,5146.6961604292,97.440948,0.3131716,0.81150921232,0,0,-0.671082,314.1, 0.3, -0.6,0,0,1024,1024,1024,1024,312.8,-89.9,97,3.787,3.764,3.752,3.771,3.806,3.795,20.208,69.8,14,Waypoint,
38.5270849,-120.3543243,5147.6804124292,98.4252,0,0.50761812648,15800,2018-07-07 18:23:44,14,0,22.675,5147.6804124292,98.4252,0.3131716,0.81150921232,0,0,-0.671082,314.2, 0.3, -0.7,0,0,1024,1024,1024,1024,312.8,-89.9,97,3.787,3.764,3.752,3.771,3.806,3.795,20.208,69.8,14,Waypoint,
38.5270849,-120.3543243,5148.6646644292,99.409452,0,0.50761812648,15900,2018-07-07 18:23:44,14,0,22.675,5148.6646644292,99.409452,0.3131716,0.81150921232,0,0,-0.671082,314.1, 0.4, -0.7,0,0,1024,1024,1024,1024,312.8,-89.9,97,3.787,3.764,3.752,3.771,3.806,3.795,20.208,69.8,14,Waypoint,
38.5270849,-120.3543244,5149.6489164292,100.393704,0,0.49378610504,16000,2018-07-07 18:23:44,14,0,22.769,5149.6489164292,100.393704,0.3131716,0.81150921232,0,0,-0.671082,313.9, 0.4, -0.7,0,0,1024,1024,1024,1024,312.8,-89.9,97,3.803,3.783,3.767,3.789,3.823,3.803,19.1,69.8,14,Waypoint,
38.5270849,-120.3543244,5150.6331684292,101.377956,0,0.49378610504,16110,2018-07-07 18:23:44,14,0,22.769,5150.6331684292,101.377956,0.3131716,0.81150921232,0,0,-0.671082,313.7, 0.3, -0.7,0,0,1024,1024,1024,1024,312.8,-89.9,97,3.803,3.783,3.767,3.789,3.823,3.803,19.1,69.8,14,Waypoint,
38.5270849,-120.3543244,5151.6174204292,102.362208,0,0.49378610504,16200,2018-07-07 18:23:44,14,0,22.769,5151.6174204292,102.362208,0.3131716,0.81150921232,0,0,-0.671082,313.6, 0.1, -0.6,0,0,1024,1024,1024,1024,312.8,-90,97,3.803,3.783,3.767,3.789,3.823,3.803,19.1,69.8,14,Waypoint,
38.5270848,-120.3543244,5152.6016724292,103.34646,0,0.4617454216,16400,2018-07-07 18:23:45,14,0,22.769,5152.6016724292,103.34646,0.3131716,0.81150921232,0,0,-0.671082,313.5, -0.1, -0.7,0,0,1024,1024,1024,1024,312.8,-90,97,3.803,3.783,3.767,3.789,3.823,3.803,19.1,69.8,14,Waypoint,
38.5270848,-120.3543245,5154.5701764292,105.314964,0,0.44831694348,16500,2018-07-07 18:23:45,14,0,22.769,5154.5701764292,105.314964,0.3131716,0.81150921232,0,0,-0.671082,313.4, 0.1, -0.4,0,0,1024,1024,1024,1024,312.8,-89.9,97,3.803,3.783,3.767,3.789,3.823,3.803,19.1,69.8,14,Waypoint,
38.5270847,-120.3543247,5156.2105964292,106.955384,0,0.39176838524,16600,2018-07-07 18:23:45,14,0,22.769,5156.2105964292,106.955384,0.3131716,0.81150921232,0,0,-0.671082,313.4, 0.4, -0.1,0,0,1024,1024,1024,1024,312.8,-89.9,97,3.803,3.783,3.767,3.789,3.823,3.803,19.1,69.8,14,Waypoint,
38.5270847,-120.3543249,5157.1948484292,107.939636,0,0.37476379152,16800,2018-07-07 18:23:45,14,0,22.769,5157.1948484292,107.939636,0.3131716,0.81150921232,0,0,-0.671082,313.5, 0.6, 0,0,0,1024,1024,1024,1024,312.8,-89.9,97,3.803,3.783,3.767,3.789,3.823,3.803,19.1,69.8,14,Waypoint,
38.5270847,-120.354325,5159.1633524292,109.90814,0,0.36928806956,17000,2018-07-07 18:23:45,14,0,22.735,5159.1633524292,109.90814,0.3131716,0.81150921232,0,0,-0.671082,313.5, 1, 0.3,0,0,1024,1024,1024,1024,312.8,-89.9,97,3.784,3.76,3.76,3.78,3.817,3.795,19.3,69.8,14,Waypoint,
38.5270846,-120.354325,5160.1476044292,110.892392,0,0.33329069308,17100,2018-07-07 18:23:45,14,0,22.735,5160.1476044292,110.892392,0.3131716,0.81150921232,0,0,-0.671082,313.6, 1, 0.4,0,0,1024,1024,1024,1024,312.8,-89.9,97,3.784,3.76,3.76,3.78,3.817,3.795,19.3,69.8,14,Waypoint,
38.5270846,-120.354325,5161.1318564292,111.876644,0,0.33329069308,17200,2018-07-07 18:23:45,14,0,22.735,5161.1318564292,111.876644,0.3131716,0.81150921232,0,0,-0.671082,313.7, 0.9, 0.3,0,0,1024,1024,1024,1024,312.8,-89.9,97,3.784,3.76,3.76,3.78,3.817,3.795,19.3,69.8,14,Waypoint,
38.5270846,-120.3543251,5162.1161084292,112.860896,0,0.32960302892,17300,2018-07-07 18:23:46,14,0,22.735,5162.1161084292,112.860896,0.3131716,0.81150921232,0,0,-0.671082,313.9, 0.7, 0,0,0,1024,1024,1024,1024,312.8,-89.9,97,3.784,3.76,3.76,3.78,3.817,3.795,19.3,69.8,14,Waypoint,
38.5270845,-120.354325,5163.1003604292,113.845148,0,0.297409458336,17400,2018-07-07 18:23:46,14,0,22.735,5163.1003604292,113.845148,0.3131716,0.81150921232,0,0,-0.671082,314.2, 0.5, -0.2,0,0,1024,1024,1024,1024,312.8,-89.9,97,3.784,3.76,3.76,3.78,3.817,3.795,19.3,69.8,14,Waypoint,
38.5270845,-120.354325,5164.0846124292,114.8294,0,0.297409458336,17500,2018-07-07 18:23:46,14,0,22.735,5164.0846124292,114.8294,0.3131716,0.81150921232,0,0,-0.671082,314.4, 0.3, -0.3,0,0,1024,1024,1024,1024,312.8,-89.9,97,3.784,3.76,3.76,3.78,3.817,3.795,19.3,69.8,14,Waypoint,
38.5270845,-120.354325,5165.0688644292,115.813652,0,0.297409458336,17600,2018-07-07 18:23:46,14,0,22.735,5165.0688644292,115.813652,0.3131716,0.81150921232,0,0,-0.671082,314.5, 0.3, -0.3,0,0,1024,1024,1024,1024,312.8,-90,97,3.784,3.76,3.76,3.78,3.817,3.795,19.3,69.8,14,Waypoint,
38.5270845,-120.354325,5166.0531164292,116.797904,0,0.297409458336,17700,2018-07-07 18:23:46,14,0,22.735,5166.0531164292,116.797904,0.3131716,0.81150921232,0,0,-0.671082,314.6, 0.2, -0.3,0,0,1024,1024,1024,1024,312.8,-90,97,3.784,3.76,3.76,3.78,3.817,3.795,19.3,69.8,14,Waypoint,
38.5270844,-120.354325,5167.0373684292,117.782156,0,0.261696530684,17800,2018-07-07 18:23:46,14,0,22.735,5167.0373684292,117.782156,0.3131716,0.81150921232,0,0,-0.671082,314.5, 0.1, -0.4,0,0,1024,1024,1024,1024,312.8,-90,97,3.784,3.76,3.76,3.78,3.817,3.795,19.3,69.8,14,Waypoint,
38.5270844,-120.354325,5168.3497044292,119.094492,0,0.261696530684,17900,2018-07-07 18:23:46,14,0,22.735,5168.3497044292,119.094492,0.3131716,0.81150921232,0,0,-0.671082,314.4, 0, -0.5,0,0,1024,1024,1024,1024,312.8,-90,97,3.784,3.76,3.76,3.78,3.817,3.795,19.3,69.8,14,Waypoint,
38.5270844,-120.354325,5169.0058724292,119.75066,0,0.261696530684,18000,2018-07-07 18:23:46,14,0,22.622,5169.0058724292,119.75066,0.3131716,0.81150921232,0,0,-0.671082,314.2, 0, -0.5,0,0,1024,1024,1024,1024,312.8,-90,97,3.777,3.752,3.741,3.767,3.801,3.793,19.762,69.8,14,Waypoint,
38.5270843,-120.354325,5169.9901244292,120.734912,0,0.2262303222,18100,2018-07-07 18:23:46,14,0,22.622,5169.9901244292,120.734912,0.3131716,0.81150921232,0,0,-0.671082,314, -0.1, -0.5,0,0,1024,1024,1024,1024,312.8,-90,97,3.777,3.752,3.741,3.767,3.801,3.793,19.762,69.8,14,Waypoint,
38.5270843,-120.354325,5170.9743764292,121.719164,0,0.2262303222,18200,2018-07-07 18:23:46,14,0,22.622,5170.9743764292,121.719164,0.3131716,0.81150921232,0,0,-0.671082,313.7, -0.1, -0.3,0,0,1024,1024,1024,1024,312.8,-90,97,3.777,3.752,3.741,3.767,3.801,3.793,19.762,69.8,14,Waypoint,
38.5270842,-120.354325,5171.9586284292,122.703416,0,0.191147971996,18300,2018-07-07 18:23:47,14,0,22.622,5171.9586284292,122.703416,0.3131716,0.81150921232,0,0,-0.671082,313.5, -0.1, 0,0,0,1024,1024,1024,1024,312.8,-90,97,3.777,3.752,3.741,3.767,3.801,3.793,19.762,69.8,14,Waypoint,
38.5270842,-120.354325,5172.9428804292,123.687668,0,0.191147971996,18400,2018-07-07 18:23:47,14,0,22.622,5172.9428804292,123.687668,0.3131716,0.81150921232,0,0,-0.671082,313.4, -0.1, 0.1,0,0,1024,1024,1024,1024,312.8,-89.9,97,3.777,3.752,3.741,3.767,3.801,3.793,19.762,69.8,14,Waypoint,
38.5270842,-120.354325,5173.9271324292,124.67192,0,0.191147971996,18500,2018-07-07 18:23:47,14,0,22.622,5173.9271324292,124.67192,0.3131716,0.81150921232,0,0,-0.671082,313.3, 0, 0.1,0,0,1024,1024,1024,1024,312.8,-89.9,97,3.777,3.752,3.741,3.767,3.801,3.793,19.762,69.8,14,Waypoint,
38.5270842,-120.354325,5174.9113844292,125.656172,0,0.191147971996,18600,2018-07-07 18:23:47,14,0,22.622,5174.9113844292,125.656172,0.3131716,0.81150921232,0,0,-0.671082,313.2, 0.1, 0.1,0,0,1024,1024,1024,1024,312.8,-89.9,97,3.777,3.752,3.741,3.767,3.801,3.793,19.762,69.8,14,Waypoint,
38.5270842,-120.3543251,5175.8956364292,126.640424,0,0.18464403478,18700,2018-07-07 18:23:47,14,0,22.622,5175.8956364292,126.640424,0.3131716,0.81150921232,0,0,-0.671082,313.2, 0.1, -0.1,0,0,1024,1024,1024,1024,312.8,-89.9,97,3.777,3.752,3.741,3.767,3.801,3.793,19.762,69.8,14,Waypoint,
38.5270842,-120.3543251,5177.2079724292,127.95276,0,0.18464403478,18800,2018-07-07 18:23:47,14,0,22.622,5177.2079724292,127.95276,0.3131716,0.81150921232,0,0,-0.671082,313.2, 0.1, -0.3,0,0,1024,1024,1024,1024,312.8,-89.9,97,3.777,3.752,3.741,3.767,3.801,3.793,19.762,69.8,14,Waypoint,
38.5270842,-120.3543251,5178.1922244292,128.937012,0,0.18464403478,18900,2018-07-07 18:23:47,14,0,22.622,5178.1922244292,128.937012,0.3131716,0.81150921232,0,0,-0.671082,313.4, 0.2, -0.5,0,0,1024,1024,1024,1024,312.8,-89.9,97,3.777,3.752,3.741,3.767,3.801,3.793,19.762,69.8,14,Waypoint,
38.5270842,-120.354325,5180.1607284292,130.905516,0,0.191147971996,19100,2018-07-07 18:23:47,14,0,22.622,5180.1607284292,130.905516,0.3131716,0.81150921232,0,0,-0.671082,313.9, 0, -0.5,0,0,1024,1024,1024,1024,312.8,-89.9,97,3.777,3.752,3.741,3.767,3.801,3.793,19.762,69.8,14,Waypoint,
38.5270842,-120.354325,5182.1292324292,132.87402,0,0.191147971996,19200,2018-07-07 18:23:47,14,0,22.622,5182.1292324292,132.87402,0.3131716,0.81150921232,0,0,-0.671082,314.2, 0.3, -0.2,0,0,1024,1024,1024,1024,312.8,-89.9,97,3.777,3.752,3.741,3.767,3.801,3.793,19.762,69.8,14,Waypoint,
38.5270842,-120.354325,5183.1134844292,133.858272,0,0.191147971996,19400,2018-07-07 18:23:48,14,0,22.622,5183.1134844292,133.858272,0.3131716,0.81150921232,0,0,-0.671082,314.3, 0.3, -0.1,0,0,1024,1024,1024,1024,312.8,-89.9,97,3.777,3.752,3.741,3.767,3.801,3.793,19.762,69.8,14,Waypoint,
38.5270842,-120.354325,5184.0977364292,134.842524,0,0.191147971996,19500,2018-07-07 18:23:48,14,0,22.622,5184.0977364292,134.842524,0.3131716,0.81150921232,0,0,-0.671082,314.2, 0.3, 0,0,0,1024,1024,1024,1024,312.8,-89.9,97,3.777,3.752,3.741,3.767,3.801,3.793,19.762,69.8,14,Waypoint,
38.5270842,-120.354325,5185.0819884292,135.826776,0,0.191147971996,19600,2018-07-07 18:23:48,14,0,22.622,5185.0819884292,135.826776,0.3131716,0.81150921232,0,0,-0.671082,314.1, 0.4, -0.1,0,0,1024,1024,1024,1024,312.8,-89.9,97,3.777,3.752,3.741,3.767,3.801,3.793,19.762,69.8,14,Waypoint,
38.5270842,-120.3543249,5186.0662404292,136.811028,0,0.201521659992,19700,2018-07-07 18:23:48,14,0,22.622,5186.0662404292,136.811028,0.3131716,0.81150921232,0,0,-0.671082,313.9, 0.4, -0.3,0,0,1024,1024,1024,1024,312.8,-89.9,97,3.777,3.752,3.741,3.767,3.801,3.793,19.762,69.8,14,Waypoint,
38.5270842,-120.3543249,5186.7224084292,137.467196,0,0.201521659992,19800,2018-07-07 18:23:48,14,0,22.622,5186.7224084292,137.467196,0.3131716,0.81150921232,0,0,-0.671082,313.8, 0.4, -0.5,0,0,1024,1024,1024,1024,312.8,-89.9,97,3.777,3.752,3.741,3.767,3.801,3.793,19.762,69.8,14,Waypoint,
38.5270842,-120.3543249,5187.7066604292,138.451448,0,0.201521659992,19900,2018-07-07 18:23:48,14,0,22.622,5187.7066604292,138.451448,0.3131716,0.81150921232,0,0,-0.671082,313.8, 0.4, -0.6,0,0,1024,1024,1024,1024,312.8,-89.9,97,3.777,3.752,3.741,3.767,3.801,3.793,19.762,69.8,14,Waypoint,
38.5270842,-120.3543248,5188.6909124292,139.4357,0,0.215206371716,20000,2018-07-07 18:23:48,14,0,22.664,5188.6909124292,139.4357,0.3131716,0.81150921232,0,0,-0.671082,313.9, 0.4, -0.7,0,0,1024,1024,1024,1024,312.8,-89.9,96,3.783,3.756,3.751,3.771,3.802,3.785,19.026,69.8,14,Waypoint,
38.5270843,-120.3543248,5189.6751644292,140.419952,0,0.246893380604,20100,2018-07-07 18:23:48,14,0,22.664,5189.6751644292,140.419952,0.3131716,0.81150921232,0,0,-0.671082,313.9, 0.3, -0.8,0,0,1024,1024,1024,1024,312.8,-89.9,96,3.783,3.756,3.751,3.771,3.802,3.785,19.026,69.8,14,Waypoint,
38.5270843,-120.3543247,5190.6594164292,141.404204,0,0.261320874504,20200,2018-07-07 18:23:48,14,0,22.664,5190.6594164292,141.404204,0.3131716,0.81150921232,0,0,-0.671082,314, 0.3, -0.9,0,0,1024,1024,1024,1024,312.8,-89.9,96,3.783,3.756,3.751,3.771,3.802,3.785,19.026,69.8,14,Waypoint,
38.5270843,-120.3543247,5191.6436684292,142.388456,0,0.261320874504,20300,2018-07-07 18:23:49,14,0,22.664,5191.6436684292,142.388456,0.3131716,0.81150921232,0,0,-0.671082,314, 0.4, -0.7,0,0,1024,1024,1024,1024,312.8,-89.9,96,3.783,3.756,3.751,3.771,3.802,3.785,19.026,69.8,14,Waypoint,
38.5270843,-120.3543247,5192.6279204292,143.372708,0,0.261320874504,20400,2018-07-07 18:23:49,14,0,22.664,5192.6279204292,143.372708,0.3131716,0.81150921232,0,0,-0.671082,313.9, 0.4, -0.6,0,0,1024,1024,1024,1024,312.8,-89.9,96,3.783,3.756,3.751,3.771,3.802,3.785,19.026,69.8,14,Waypoint,
38.5270843,-120.3543246,5193.6121724292,144.35696,0,0.277938985272,20500,2018-07-07 18:23:49,14,0,22.664,5193.6121724292,144.35696,0.3131716,0.81150921232,0,0,-0.671082,313.8, 0.3, -0.7,0,0,1024,1024,1024,1024,312.8,-89.9,96,3.783,3.756,3.751,3.771,3.802,3.785,19.026,69.8,14,Waypoint,
38.5270844,-120.3543245,5194.5964244292,145.341212,0,0.324262149484,20600,2018-07-07 18:23:49,14,0,22.664,5194.5964244292,145.341212,0.3131716,0.81150921232,0,0,-0.671082,313.6, 0.3, -1,0,0,1024,1024,1024,1024,312.8,-89.9,96,3.783,3.756,3.751,3.771,3.802,3.785,19.026,69.8,14,Waypoint,
38.5270844,-120.3543245,5195.5806764292,146.325464,0,0.324262149484,20700,2018-07-07 18:23:49,14,0,22.664,5195.5806764292,146.325464,0.3131716,0.81150921232,0,0,-0.671082,313.5, 0.3, -1.3,0,0,1024,1024,1024,1024,312.8,-90,96,3.783,3.756,3.751,3.771,3.802,3.785,19.026,69.8,14,Waypoint,
38.5270844,-120.3543244,5196.5649284292,147.309716,0,0.34258859364,20800,2018-07-07 18:23:49,14,0,22.664,5196.5649284292,147.309716,0.3131716,0.81150921232,0,0,-0.671082,313.4, 0.3, -1.4,0,0,1024,1024,1024,1024,312.8,-89.9,96,3.783,3.756,3.751,3.771,3.802,3.785,19.026,69.8,14,Waypoint,
38.5270845,-120.3543244,5197.5491804292,148.293968,0,0.37058400136,20900,2018-07-07 18:23:49,14,0,22.664,5197.5491804292,148.293968,0.3131716,0.81150921232,0,0,-0.671082,313.3, 0.4, -1.3,0,0,1024,1024,1024,1024,312.8,-89.9,96,3.783,3.756,3.751,3.771,3.802,3.785,19.026,69.8,14,Waypoint,
38.5270845,-120.3543243,5198.5334324292,149.27822,0,0.38882219092,21000,2018-07-07 18:23:49,14,0,22.602,5198.5334324292,149.27822,0.3131716,0.81150921232,0,0,-0.671082,313.3, 0.5, -1.3,0,0,1024,1024,1024,1024,312.8,-89.9,96,3.779,3.75,3.736,3.768,3.804,3.786,19.391,69.8,14,Waypoint,
38.5270845,-120.3543243,5199.5176844292,150.262472,0,0.38882219092,21100,2018-07-07 18:23:49,14,0,22.602,5199.5176844292,150.262472,0.3131716,0.81150921232,0,0,-0.671082,313.4, 0.4, -1.1,0,0,1024,1024,1024,1024,312.8,-89.9,96,3.779,3.75,3.736,3.768,3.804,3.786,19.391,69.8,14,Waypoint,
38.5270845,-120.3543242,5200.5019364292,151.246724,0,0.40824148288,21200,2018-07-07 18:23:49,14,0,22.602,5200.5019364292,151.246724,0.3131716,0.81150921232,0,0,-0.671082,313.5, 0.3, -1.1,0,0,1024,1024,1024,1024,312.8,-90,96,3.779,3.75,3.736,3.768,3.804,3.786,19.391,69.8,14,Waypoint,
38.5270845,-120.3543242,5201.4861884292,152.230976,0,0.40824148288,21300,2018-07-07 18:23:50,14,0,22.602,5201.4861884292,152.230976,0.3131716,0.81150921232,0,0,-0.671082,313.6, 0, -1.1,0,0,1024,1024,1024,1024,312.8,-90,96,3.779,3.75,3.736,3.768,3.804,3.786,19.391,69.8,14,Waypoint,
38.5270845,-120.3543242,5202.4704404292,153.215228,0,0.40824148288,21410,2018-07-07 18:23:50,14,0,22.602,5202.4704404292,153.215228,0.3131716,0.81150921232,0,0,-0.671082,313.7, 0, -1,0,0,1024,1024,1024,1024,312.8,-89.9,96,3.779,3.75,3.736,3.768,3.804,3.786,19.391,69.8,14,Waypoint,
38.5270846,-120.3543241,5203.7827764292,154.527564,0,0.454314319,21500,2018-07-07 18:23:50,14,0,22.602,5203.7827764292,154.527564,0.3131716,0.81150921232,0,0,-0.671082,313.8, 0, -1.1,0,0,1024,1024,1024,1024,312.8,-89.9,96,3.779,3.75,3.736,3.768,3.804,3.786,19.391,69.8,14,Waypoint,
38.5270846,-120.3543241,5205.7512804292,156.496068,0,0.454314319,21700,2018-07-07 18:23:50,14,0,22.602,5205.7512804292,156.496068,0.3131716,0.81150921232,0,0,-0.671082,314, 0.3, -1.2,0,0,1024,1024,1024,1024,312.8,-89.9,96,3.779,3.75,3.736,3.768,3.804,3.786,19.391,69.8,14,Waypoint,
38.5270847,-120.354324,5206.7355324292,157.48032,0,0.50042980604,21800,2018-07-07 18:23:50,14,0,22.602,5206.7355324292,157.48032,0.3131716,0.81150921232,0,0,-0.671082,314.1, 0.5, -1.4,0,0,1024,1024,1024,1024,312.8,-89.9,96,3.779,3.75,3.736,3.768,3.804,3.786,19.391,69.8,14,Waypoint,
38.5270847,-120.354324,5207.7197844292,158.464572,0,0.50042980604,21900,2018-07-07 18:23:50,14,0,22.602,5207.7197844292,158.464572,0.3131716,0.81150921232,0,0,-0.671082,314.2, 0.6, -1.5,0,0,1024,1024,1024,1024,312.8,-89.9,96,3.779,3.75,3.736,3.768,3.804,3.786,19.391,69.8,14,Waypoint,
38.5270848,-120.354324,5208.7040364292,159.448824,0,0.52762140796,22000,2018-07-07 18:23:50,14,0,22.602,5208.7040364292,159.448824,0.3131716,0.81150921232,0,0,-0.671082,314.2, 0.7, -1.6,0,0,1024,1024,1024,1024,312.8,-89.9,96,3.779,3.75,3.736,3.768,3.804,3.786,19.391,69.8,14,Waypoint,
38.5270848,-120.354324,5209.6882884292,160.433076,0,0.52762140796,22100,2018-07-07 18:23:50,14,0,22.602,5209.6882884292,160.433076,0.3131716,0.81150921232,0,0,-0.671082,314.1, 0.8, -1.7,0,0,1024,1024,1024,1024,312.8,-89.9,96,3.779,3.75,3.736,3.768,3.804,3.786,19.391,69.8,14,Waypoint,
38.5270849,-120.3543239,5210.6725404292,161.417328,0,0.57390421784,22200,2018-07-07 18:23:50,14,0,22.602,5210.6725404292,161.417328,0.3131716,0.81150921232,0,0,-0.671082,314, 0.9, -2,0,0,1024,1024,1024,1024,312.8,-89.9,96,3.779,3.75,3.736,3.768,3.804,3.786,19.391,69.8,14,Waypoint,
38.5270849,-120.3543239,5211.6567924292,162.40158,0,0.57390421784,22300,2018-07-07 18:23:51,14,0,22.602,5211.6567924292,162.40158,0.3131716,0.81150921232,0,0,-0.671082,313.9, 0.6, -2,0,0,1024,1024,1024,1024,312.8,-89.9,96,3.779,3.75,3.736,3.768,3.804,3.786,19.391,69.8,14,Waypoint,
38.5270849,-120.3543239,5212.6410444292,163.385832,0,0.57390421784,22400,2018-07-07 18:23:51,14,0,22.602,5212.6410444292,163.385832,0.3131716,0.81150921232,0,0,-0.671082,313.8, 0.1, -1.8,0,0,1024,1024,1024,1024,312.8,-90,96,3.779,3.75,3.736,3.768,3.804,3.786,19.391,69.8,14,Waypoint,
38.5270849,-120.354324,5213.6252964292,164.370084,0,0.55587928288,22500,2018-07-07 18:23:51,14,0,22.602,5213.6252964292,164.370084,0.3131716,0.81150921232,0,0,-0.671082,313.6, 0, -1.8,0,0,1024,1024,1024,1024,312.8,-90,96,3.779,3.75,3.736,3.768,3.804,3.786,19.391,69.8,14,Waypoint,
38.5270849,-120.354324,5214.6095484292,165.354336,0,0.55587928288,22600,2018-07-07 18:23:51,14,0,22.602,5214.6095484292,165.354336,0.3131716,0.81150921232,0,0,-0.671082,313.4, 0.1, -1.7,0,0,1024,1024,1024,1024,312.8,-89.9,96,3.779,3.75,3.736,3.768,3.804,3.786,19.391,69.8,14,Waypoint,
38.5270849,-120.354324,5215.5938004292,166.338588,0,0.55587928288,22700,2018-07-07 18:23:51,14,0,22.602,5215.5938004292,166.338588,0.3131716,0.81150921232,0,0,-0.671082,313.3, 0.7, -1.4,0,0,1024,1024,1024,1024,312.8,-89.9,96,3.779,3.75,3.736,3.768,3.804,3.786,19.391,69.8,14,Waypoint,
38.5270849,-120.3543241,5216.5780524292,167.32284,0,0.53875985976,22800,2018-07-07 18:23:51,14,0,22.602,5216.5780524292,167.32284,0.3131716,0.81150921232,0,0,-0.671082,313.3, 1, -1.4,0,0,1024,1024,1024,1024,312.8,-89.9,96,3.779,3.75,3.736,3.768,3.804,3.786,19.391,69.8,14,Waypoint,
38.5270849,-120.3543241,5217.5623044292,168.307092,0,0.53875985976,22900,2018-07-07 18:23:51,14,0,22.602,5217.5623044292,168.307092,0.3131716,0.81150921232,0,0,-0.671082,313.3, 0.9, -1.2,0,0,1024,1024,1024,1024,312.8,-89.9,96,3.779,3.75,3.736,3.768,3.804,3.786,19.391,69.8,14,Waypoint,
38.5270849,-120.3543241,5218.5465564292,169.291344,0,0.53875985976,23000,2018-07-07 18:23:51,14,0,22.628,5218.5465564292,169.291344,0.3131716,0.81150921232,0,0,-0.671082,313.3, 0.7, -1,0,0,1024,1024,1024,1024,312.8,-89.9,96,3.781,3.753,3.742,3.768,3.807,3.784,18.96,69.8,14,Waypoint,
38.5270849,-120.3543241,5219.5308084292,170.275596,0,0.53875985976,23100,2018-07-07 18:23:51,14,0,22.628,5219.5308084292,170.275596,0.3131716,0.81150921232,0,0,-0.671082,313.3, 0.8, -0.8,0,0,1024,1024,1024,1024,312.8,-89.9,96,3.781,3.753,3.742,3.768,3.807,3.784,18.96,69.8,14,Waypoint,
38.5270849,-120.3543242,5220.5150604292,171.259848,0,0.52264109284,23200,2018-07-07 18:23:51,14,0,22.628,5220.5150604292,171.259848,0.3131716,0.81150921232,0,0,-0.671082,313.4, 0.6, -0.9,0,0,1024,1024,1024,1024,312.8,-89.9,96,3.781,3.753,3.742,3.768,3.807,3.784,18.96,69.8,14,Waypoint,
38.5270849,-120.3543242,5221.4993124292,172.2441,0,0.52264109284,23300,2018-07-07 18:23:52,14,0,22.628,5221.4993124292,172.2441,0.3131716,0.81150921232,0,0,-0.671082,313.5, 0.3, -1,0,0,1024,1024,1024,1024,312.8,-90,96,3.781,3.753,3.742,3.768,3.807,3.784,18.96,69.8,14,Waypoint,
38.5270849,-120.3543241,5222.4835644292,173.228352,0,0.53875985976,23400,2018-07-07 18:23:52,14,0,22.628,5222.4835644292,173.228352,0.3131716,0.81150921232,0,0,-0.671082,313.6, 0.2, -1.1,0,0,1024,1024,1024,1024,312.8,-90,96,3.781,3.753,3.742,3.768,3.807,3.784,18.96,69.8,14,Waypoint,
38.5270849,-120.3543241,5223.4678164292,174.212604,0,0.53875985976,23500,2018-07-07 18:23:52,14,0,22.628,5223.4678164292,174.212604,0.3131716,0.81150921232,0,0,-0.671082,313.9, 0.1, -1.2,0,0,1024,1024,1024,1024,312.8,-89.9,96,3.781,3.753,3.742,3.768,3.807,3.784,18.96,69.8,14,Waypoint,
38.5270849,-120.354324,5224.7801524292,175.52494,0,0.55587928288,23600,2018-07-07 18:23:52,14,0,22.628,5224.7801524292,175.52494,0.3131716,0.81150921232,0,0,-0.671082,314.1, 0.3, -1.8,0,0,1024,1024,1024,1024,312.8,-89.9,96,3.781,3.753,3.742,3.768,3.807,3.784,18.96,69.8,14,Waypoint,
38.5270849,-120.3543239,5225.7644044292,176.509192,0,0.57390421784,23700,2018-07-07 18:23:52,14,0,22.628,5225.7644044292,176.509192,0.3131716,0.81150921232,0,0,-0.671082,314.3, 0.3, -2.3,0,0,1024,1024,1024,1024,312.8,-89.9,96,3.781,3.753,3.742,3.768,3.807,3.784,18.96,69.8,14,Waypoint,
38.527085,-120.3543238,5227.0767404292,177.821528,0,0.62019687024,23800,2018-07-07 18:23:52,14,0,22.628,5227.0767404292,177.821528,0.3131716,0.81150921232,0,0,-0.671082,314.4, 0.2, -2.7,0,0,1024,1024,1024,1024,312.8,-89.9,96,3.781,3.753,3.742,3.768,3.807,3.784,18.96,69.8,14,Waypoint,
38.527085,-120.3543237,5228.3890764292,179.133864,0,0.6389599942,23900,2018-07-07 18:23:52,14,0,22.628,5228.3890764292,179.133864,0.3131716,0.81150921232,0,0,-0.671082,314.4, 0.2, -3.3,0,0,1024,1024,1024,1024,312.8,-89.9,96,3.781,3.753,3.742,3.768,3.807,3.784,18.96,69.8,14,Waypoint,
38.5270851,-120.3543235,5229.3733284292,180.118116,0,0.70452101992,24000,2018-07-07 18:23:52,14,0,22.633,5229.3733284292,180.118116,0.3131716,0.81150921232,0,0,-0.671082,314.4, 0.1, -3.7,0,0,1024,1024,1024,1024,312.8,-90,96,3.77,3.758,3.744,3.772,3.807,3.795,18.85,69.8,14,Waypoint,
38.5270851,-120.3543234,5230.6856644292,181.430452,0.223694,0.7244750888,24200,2018-07-07 18:23:52,14,0,22.633,5230.6856644292,181.430452,0.3131716,0.81150921232,0,0,-0.671082,314.4, 0, -4,0,0,1024,1024,1024,1024,312.8,-90,96,3.77,3.758,3.744,3.772,3.807,3.795,18.85,69.8,14,Waypoint,
38.5270851,-120.354323,5232.9822524292,183.72704,0.223694,0.80945212564,24300,2018-07-07 18:23:53,14,0,22.633,5232.9822524292,183.72704,0.3131716,0.81150921232,0,0,-0.671082,314.4, -0.5, -4.2,0,0,1024,1024,1024,1024,312.8,-90,96,3.77,3.758,3.744,3.772,3.807,3.795,18.85,69.8,14,Waypoint,
38.5270851,-120.3543229,5233.9665044292,184.711292,0.223694,0.83178808436,24400,2018-07-07 18:23:53,14,0,22.633,5233.9665044292,184.711292,0.3131716,0.83178808436,0,0,-0.671082,314.4, -1.1, -4.1,0,0,1024,1024,1024,1024,312.8,-90,96,3.77,3.758,3.744,3.772,3.807,3.795,18.85,69.8,14,Waypoint,
38.527085,-120.3543227,5234.9507564292,185.695544,0,0.85682089356,24500,2018-07-07 18:23:53,14,0,22.633,5234.9507564292,185.695544,0.3131716,0.85682089356,0,0,-0.671082,314.3, -1.4, -4,0,0,1024,1024,1024,1024,312.8,-89.9,96,3.77,3.758,3.744,3.772,3.807,3.795,18.85,69.8,14,Waypoint,
38.5270849,-120.3543226,5236.9192604292,187.664048,0,0.86163388584,24700,2018-07-07 18:23:53,14,0,22.633,5236.9192604292,187.664048,0.3131716,0.86163388584,0,0,-0.671082,314.1, -1.3, -3.8,0,0,1024,1024,1024,1024,312.8,-90,96,3.77,3.758,3.744,3.772,3.807,3.795,18.85,69.8,14,Waypoint,
38.5270849,-120.3543225,5237.5754284292,188.320216,0,0.8863353302,24800,2018-07-07 18:23:53,14,0,22.633,5237.5754284292,188.320216,0.3131716,0.8863353302,0,0,-0.671082,314.1, -1.1, -3.7,0,0,1024,1024,1024,1024,312.8,-89.9,96,3.77,3.758,3.744,3.772,3.807,3.795,18.85,69.8,14,Waypoint,
38.5270849,-120.3543224,5238.5596804292,189.304468,0,0.91126315252,24900,2018-07-07 18:23:53,14,0,22.633,5238.5596804292,189.304468,0.3131716,0.91126315252,0,0,-0.671082,314.1, -1.1, -3.9,0,0,1024,1024,1024,1024,312.8,-90,96,3.77,3.758,3.744,3.772,3.807,3.795,18.85,69.8,14,Waypoint,
38.5270849,-120.3543222,5239.5439324292,190.28872,0,0.96171919088,25000,2018-07-07 18:23:53,14,0,22.719,5239.5439324292,190.28872,0.3131716,0.96171919088,0,0,-0.671082,314.2, -1, -4.3,0,0,1024,1024,1024,1024,312.8,-89.9,96,3.795,3.768,3.759,3.786,3.814,3.796,18.007,71.6,14,Waypoint,
38.5270849,-120.3543221,5240.2001004292,190.944888,0,0.98721787936,25100,2018-07-07 18:23:53,14,0,22.719,5240.2001004292,190.944888,0.3131716,0.98721787936,0,0,-0.671082,314.2, -1, -4.6,0,0,1024,1024,1024,1024,312.8,-89.9,96,3.795,3.768,3.759,3.786,3.814,3.796,18.007,71.6,14,Waypoint,
38.527085,-120.354322,5241.1843524292,191.92914,0,1.02917654212,25200,2018-07-07 18:23:53,14,0,22.719,5241.1843524292,191.92914,0.3131716,1.02917654212,0,0,-0.671082,314.2, -1, -5,0,0,1024,1024,1024,1024,312.8,-90,96,3.795,3.768,3.759,3.786,3.814,3.796,18.007,71.6,14,Waypoint,
38.5270851,-120.3543218,5242.8247724292,193.56956,0,1.09666670176,25400,2018-07-07 18:23:54,14,0,22.719,5242.8247724292,193.56956,0.3131716,1.09666670176,0,0,-0.447388,313.8, -1.2, -4.9,0,0,1024,1024,1024,1024,312.8,-90,96,3.795,3.768,3.759,3.786,3.814,3.796,18.007,71.6,14,Waypoint,
38.5270851,-120.3543218,5243.4809404292,194.225728,0,1.09666670176,25500,2018-07-07 18:23:54,14,0,22.719,5243.4809404292,194.225728,0.3131716,1.09666670176,0,0,-0.447388,313.6, -1, -4.8,0,0,1024,1024,1024,1024,312.8,-89.9,96,3.795,3.768,3.759,3.786,3.814,3.796,18.007,71.6,14,Waypoint,
38.5270852,-120.3543217,5244.1371084292,194.881896,0.223694,1.13907812044,25600,2018-07-07 18:23:54,14,0,22.719,5244.1371084292,194.881896,0.3131716,1.13907812044,0,0,-0.671082,313.4, -0.6, -4.8,0,0,1024,1024,1024,1024,312.8,-89.9,96,3.795,3.768,3.759,3.786,3.814,3.796,18.007,71.6,14,Waypoint,
38.5270853,-120.3543217,5245.1213604292,195.866148,0.223694,1.15705056196,25700,2018-07-07 18:23:54,14,0,22.719,5245.1213604292,195.866148,0.3131716,1.15705056196,0,0,-0.671082,313.3, -0.4, -5,0,0,1024,1024,1024,1024,312.8,-90,96,3.795,3.768,3.759,3.786,3.814,3.796,18.007,71.6,14,Waypoint,
38.5270855,-120.3543216,5245.7775284292,196.522316,0.223694,1.21947838548,25800,2018-07-07 18:23:54,14,0,22.719,5245.7775284292,196.522316,0.3131716,1.21947838548,0,0,-0.671082,313.2, -0.2, -5.3,0,0,1024,1024,1024,1024,312.8,-89.9,96,3.795,3.768,3.759,3.786,3.814,3.796,18.007,71.6,14,Waypoint,
38.5270856,-120.3543216,5246.4336964292,197.178484,0,1.23950791368,25900,2018-07-07 18:23:54,14,0,22.719,5246.4336964292,197.178484,0.3131716,1.23950791368,0,0,-0.671082,313.2, 0, -5.5,0,0,1024,1024,1024,1024,312.8,-89.9,96,3.795,3.768,3.759,3.786,3.814,3.796,18.007,71.6,14,Waypoint,
38.5270857,-120.3543215,5247.0898644292,197.834652,0,1.28365161588,26000,2018-07-07 18:23:54,14,0,23.064,5247.0898644292,197.834652,0.3131716,1.28365161588,0,0,-0.671082,313.4, 0, -5.6,0,0,1024,1024,1024,1024,312.8,-89.9,96,3.856,3.825,3.813,3.841,3.868,3.847,14.461,71.6,14,Waypoint,
38.5270858,-120.3543214,5248.0741164292,198.818904,0,1.32794623672,26100,2018-07-07 18:23:54,14,0,23.064,5248.0741164292,198.818904,0.3131716,1.32794623672,0,0,-0.671082,313.6, -0.2, -5.8,0,0,1024,1024,1024,1024,312.8,-89.9,96,3.856,3.825,3.813,3.841,3.868,3.847,14.461,71.6,14,Waypoint,
38.5270859,-120.3543214,5249.0583684292,199.803156,0,1.349327471,26200,2018-07-07 18:23:54,14,0,23.064,5249.0583684292,199.803156,0.3131716,1.349327471,0,0,-0.671082,313.8, -0.4, -6.1,0,0,1024,1024,1024,1024,312.8,-89.9,96,3.856,3.825,3.813,3.841,3.868,3.847,14.461,71.6,14,Waypoint,
