Latitude, Longitude, Altitude (m), Time, Sats, Speed (m/s), Range (m), Battery (%), Roll (deg), Pitch (deg), Yaw (deg), Images, HD Signal (%), RC Signal (%), Battery Temp (C), Battery Voltage (mV), Battery Current (mA), Battery Energy (mAh), Battery Capacity (mAh), Battery Discharges, flyState, timestamp (Unix), LastUpdate (ms), radioChannel, Rc_elevator, Rc_aileron, Rc_throttle, Rc_rudder, Rc_gyro, Dronetype, Battery_Cell1 (mV), Battery_Cell2 (mV), Battery_Cell3 (mV), Battery_Cell4 (mV), Battery_Cell5 (mV), Battery_Cell6 (mV), Video, isFlying, elapsedTime (ms), gimbalPitch (deg), gimbalRoll (deg), gimbalYaw (deg), VelocityX (m/s), VelocityY (m/s), VelocityZ (m/s), GroundSmear (cm), App Version, Aircraft Name, Aircraft Firmware, Aircraft Serial Number, Battery Serial Number, Battery Lifetime (%), App_Tip, App_Warning, CurrentFlightStartingIndex, CurrentFlightLastVisitedWaypoint, PreviousFlightEndingWaypointIndex
36.7672912, -118.8834241, 0.000, 13:02:56.946, 13, 0.20, 0.14, 100, 1.600, 2.400, 58.300, 430, 100, 100, 16, 25332, -4051, 5510, 5510, 10, 11, 1523736176.947, 110, 0, 1024, 1024, 1024, 1024, 0, 6, 4171, 4174, 4257, 4265, 4251, 4247, 0, 1, 3270, -90.000, 0.000, 58.900, 0.000, -0.200, -0.100, 0.0, MapPilot_2.7.4_02272018, Dendroctonus I, 1.3.1.00, 041DDC1887, 1058171200162, 98, DJI_0427.jpg, Starting Mission from Lat/Long: 36.76729/-118.88340 Camera: Zenmuse X3 - Overlap: 90/90 - Active Connection: Yes, 25, 25, 25
36.7672911, -118.8834244, 0.000, 13:02:56.978, 13, 0.22, 0.17, 100, 1.200, 1.000, 58.100, 430, 100, 100, 16, 25332, -4051, 5510, 5510, 10, 11, 1523736176.979, 28, 0, 1024, 1024, 1024, 1024, 0, 6, 4171, 4174, 4257, 4265, 4251, 4247, 0, 1, 3302, -89.900, 0.000, 58.900, -0.100, -0.200, -0.200, 0.0, , , , , , 98, , , 25, 25, 25
36.7672909, -118.8834249, 0.000, 13:02:57.078, 12, 0.14, 0.22, 100, 0.600, -0.800, 58.300, 430, 100, 100, 16, 25332, -4051, 5510, 5510, 10, 11, 1523736177.078, 31, 0, 1024, 1024, 1024, 1024, 0, 6, 4171, 4174, 4257, 4265, 4251, 4247, 0, 1, 3401, -89.900, 0.000, 58.800, -0.100, -0.100, -0.400, 0.0, , , , , , 98, , , 25, 25, 25
36.7672909, -118.8834252, 0.100, 13:02:57.178, 13, 0.14, 0.25, 100, 0.400, -1.300, 58.500, 430, 100, 100, 16, 25332, -4051, 5510, 5510, 10, 11, 1523736177.179, 32, 0, 1024, 1024, 1024, 1024, 0, 6, 4171, 4174, 4257, 4265, 4251, 4247, 0, 1, 3502, -89.900, 0.000, 58.900, -0.100, -0.100, -0.400, 0.0, , , , , , 98, , , 25, 25, 25
36.7672908, -118.8834254, 0.100, 13:02:57.278, 13, 0.10, 0.26, 100, 0.100, -1.700, 58.600, 430, 100, 100, 16, 25332, -4051, 5510, 5510, 10, 11, 1523736177.278, 13, 0, 1024, 1024, 1024, 1024, 0, 6, 4171, 4174, 4257, 4265, 4251, 4247, 0, 1, 3601, -89.900, 0.000, 58.900, 0.000, -0.100, -0.400, 0.0, , , , , , 98, , , 25, 25, 25
36.7672908, -118.8834255, 0.200, 13:02:57.378, 12, 0.00, 0.28, 100, -0.100, -1.800, 58.700, 430, 100, 100, 16, 25332, -4051, 5510, 5510, 10, 11, 1523736177.378, 25, 0, 1024, 1024, 1024, 1024, 0, 6, 4171, 4174, 4257, 4265, 4251, 4247, 0, 1, 3701, -89.900, 0.000, 58.900, 0.000, 0.000, -0.400, 0.0, , , , , , 98, , , 25, 25, 25
36.7672907, -118.8834257, 0.200, 13:02:57.478, 12, 0.00, 0.30, 100, -0.200, -1.300, 58.700, 430, 100, 100, 16, 25332, -4051, 5510, 5510, 10, 11, 1523736177.478, 28, 0, 1024, 1024, 1024, 1024, 0, 6, 4171, 4174, 4257, 4265, 4251, 4247, 0, 1, 3801, -89.900, 0.000, 58.900, 0.000, 0.000, -0.400, 0.0, , , , , , 98, , , 25, 25, 25
36.7672907, -118.8834259, 0.300, 13:02:57.578, 12, 0.00, 0.31, 100, -0.100, -0.800, 58.600, 430, 100, 100, 16, 25332, -4051, 5510, 5510, 10, 11, 1523736177.578, 32, 0, 1024, 1024, 1024, 1024, 0, 6, 4171, 4174, 4257, 4265, 4251, 4247, 0, 1, 3901, -89.900, 0.000, 58.900, 0.000, 0.000, -0.400, 0.0, , , , , , 98, , , 25, 25, 25
36.7672907, -118.8834259, 0.300, 13:02:57.678, 12, 0.00, 0.32, 100, 0.000, -0.500, 58.600, 430, 100, 100, 16, 23749, -15435, 5510, 5510, 10, 11, 1523736177.679, 11, 0, 1024, 1024, 1024, 1024, 0, 6, 4171, 4174, 4257, 4265, 4251, 4247, 0, 1, 4002, -89.900, 0.000, 58.900, 0.000, 0.000, -0.400, 0.0, , , , , , 98, , , 25, 25, 25
36.7672907, -118.8834259, 0.400, 13:02:57.781, 13, 0.00, 0.32, 100, 0.000, -0.300, 58.500, 430, 100, 100, 16, 23749, -15435, 5510, 5510, 10, 11, 1523736177.781, 11, 0, 1024, 1024, 1024, 1024, 0, 6, 3921, 3986, 3945, 3973, 3943, 4159, 0, 1, 4104, -89.900, 0.000, 58.900, 0.000, 0.000, -0.400, 0.0, , , , , , 98, , , 25, 25, 25
36.7672907, -118.8834259, 0.400, 13:02:57.878, 13, 0.00, 0.32, 100, 0.000, -0.300, 58.500, 430, 100, 100, 16, 23749, -15435, 5510, 5510, 10, 11, 1523736177.879, 109, 0, 1024, 1024, 1024, 1024, 0, 6, 3921, 3986, 3945, 3973, 3943, 4159, 0, 1, 4202, -89.900, 0.000, 58.900, 0.000, 0.000, -0.400, 0.0, , , , , , 98, , , 25, 25, 25
36.7672907, -118.8834259, 0.400, 13:02:57.977, 13, 0.00, 0.32, 100, 0.000, 0.000, 58.400, 430, 100, 100, 16, 23749, -15435, 5510, 5510, 10, 11, 1523736177.978, 96, 0, 1024, 1024, 1024, 1024, 0, 6, 3921, 3986, 3945, 3973, 3943, 4159, 0, 1, 4301, -89.900, 0.000, 58.900, 0.000, 0.000, -0.400, 0.0, , , , , , 98, , , 25, 25, 25
36.7672908, -118.8834259, 0.400, 13:02:58.077, 14, 0.00, 0.31, 100, 0.000, 0.200, 58.300, 430, 100, 100, 16, 23749, -15435, 5510, 5510, 10, 11, 1523736178.078, 95, 0, 1024, 1024, 1024, 1024, 0, 6, 3921, 3986, 3945, 3973, 3943, 4159, 0, 1, 4401, -89.900, 0.000, 58.900, 0.000, 0.000, -0.400, 0.0, , , , , , 98, , , 25, 25, 25
36.7672909, -118.8834259, 0.500, 13:02:58.179, 12, 0.00, 0.31, 100, 0.000, 0.500, 58.100, 430, 100, 100, 16, 23749, -15435, 5510, 5510, 10, 11, 1523736178.180, 10, 0, 1024, 1024, 1024, 1024, 0, 6, 3921, 3986, 3945, 3973, 3943, 4159, 0, 1, 4503, -89.900, 0.000, 58.900, 0.000, 0.000, -0.400, 0.0, , , , , , 98, , , 25, 25, 25
36.7672909, -118.8834259, 0.500, 13:02:58.278, 12, 0.00, 0.31, 100, 0.000, 0.500, 58.100, 430, 100, 100, 16, 23749, -15435, 5510, 5510, 10, 11, 1523736178.278, 108, 0, 1024, 1024, 1024, 1024, 0, 6, 3921, 3986, 3945, 3973, 3943, 4159, 0, 1, 4601, -89.900, 0.000, 58.900, 0.000, 0.000, -0.400, 0.0, , , , , , 98, , , 25, 25, 25
36.7672909, -118.8834259, 0.600, 13:02:58.378, 12, 0.00, 0.31, 100, 0.000, 0.400, 58.000, 430, 100, 100, 16, 23749, -15435, 5510, 5510, 10, 11, 1523736178.378, 89, 0, 1024, 1024, 1024, 1024, 0, 6, 3921, 3986, 3945, 3973, 3943, 4159, 0, 1, 4701, -89.900, 0.000, 58.900, 0.000, 0.000, -0.400, 0.0, , , , , , 98, , , 25, 25, 25
36.7672909, -118.8834259, 0.600, 13:02:58.478, 12, 0.00, 0.31, 100, 0.000, 0.300, 58.000, 430, 100, 100, 16, 23749, -15435, 5510, 5510, 10, 11, 1523736178.478, 79, 0, 1024, 1024, 1024, 1024, 0, 6, 3921, 3986, 3945, 3973, 3943, 4159, 0, 1, 4801, -89.900, 0.000, 58.900, 0.000, 0.000, -0.500, 0.0, , , , , , 98, , , 25, 25, 25
36.7672909, -118.8834259, 0.700, 13:02:58.578, 12, 0.00, 0.31, 100, 0.000, 0.100, 57.900, 430, 100, 100, 16, 23749, -15435, 5510, 5510, 10, 11, 1523736178.578, 95, 0, 1024, 1024, 1024, 1024, 0, 6, 3921, 3986, 3945, 3973, 3943, 4159, 0, 1, 4901, -89.900, 0.000, 58.900, 0.000, 0.000, -0.500, 0.0, , , , , , 98, , , 25, 25, 25
36.7672909, -118.8834258, 0.800, 13:02:58.678, 13, 0.00, 0.30, 100, 0.000, 0.100, 57.900, 430, 100, 100, 16, 23749, -15435, 5510, 5510, 10, 11, 1523736178.678, 72, 0, 1024, 1024, 1024, 1024, 0, 6, 3921, 3986, 3945, 3973, 3943, 4159, 0, 1, 5001, -89.900, 0.000, 58.900, 0.000, 0.000, -0.500, 0.0, , , , , , 98, , , 25, 25, 25
36.7672909, -118.8834259, 0.800, 13:02:58.777, 13, 0.00, 0.31, 100, 0.100, 0.200, 58.000, 430, 100, 100, 16, 23524, -16863, 5510, 5510, 10, 11, 1523736178.778, 75, 0, 1024, 1024, 1024, 1024, 0, 6, 3893, 3928, 3928, 3936, 3907, 3910, 0, 1, 5101, -89.900, 0.000, 58.900, 0.000, 0.000, -0.500, 0.0, , , , , , 98, , , 25, 25, 25
36.7672909, -118.8834259, 0.900, 13:02:58.878, 12, 0.00, 0.31, 100, 0.000, 0.300, 58.000, 430, 100, 100, 16, 23524, -16863, 5510, 5510, 10, 6, 1523736178.878, 85, 0, 1024, 1024, 1024, 1024, 0, 6, 3893, 3928, 3928, 3936, 3907, 3910, 0, 1, 5201, -89.900, 0.000, 58.900, 0.000, 0.000, -0.500, 0.0, , , , , , 98, , , 25, 25, 25
36.7672909, -118.8834259, 0.900, 13:02:58.978, 12, 0.00, 0.31, 100, 0.000, 0.400, 58.100, 430, 100, 100, 16, 23524, -16863, 5510, 5510, 10, 14, 1523736178.978, 78, 0, 1024, 1024, 1024, 1024, 0, 6, 3893, 3928, 3928, 3936, 3907, 3910, 0, 1, 5301, -89.900, 0.000, 58.900, 0.000, 0.000, -0.300, 0.0, , , , , , 98, , , 25, 25, 25
36.7672908, -118.8834258, 1.000, 13:02:59.078, 11, 0.00, 0.31, 100, -0.300, 1.000, 58.200, 430, 100, 100, 16, 23524, -16863, 5510, 5510, 10, 14, 1523736179.078, 81, 0, 1024, 1024, 1024, 1024, 0, 6, 3893, 3928, 3928, 3936, 3907, 3910, 0, 1, 5401, -89.900, 0.000, 58.900, 0.000, 0.000, -0.300, 0.0, , , , , , 98, , , 25, 25, 25
36.7672908, -118.8834258, 1.000, 13:02:59.178, 11, 0.00, 0.30, 100, -0.700, 1.300, 58.300, 430, 100, 100, 16, 23524, -16863, 5510, 5510, 10, 14, 1523736179.178, 65, 0, 1024, 1024, 1024, 1024, 0, 6, 3893, 3928, 3928, 3936, 3907, 3910, 0, 1, 5501, -89.900, 0.000, 58.900, 0.000, 0.000, -0.200, 0.0, , , , , , 98, , , 25, 25, 25
36.7672907, -118.8834258, 1.000, 13:02:59.278, 11, 0.00, 0.30, 100, -0.800, 1.300, 58.400, 430, 100, 100, 16, 23524, -16863, 5510, 5510, 10, 14, 1523736179.279, 56, 0, 1024, 1024, 1024, 1024, 0, 6, 3893, 3928, 3928, 3936, 3907, 3910, 0, 1, 5602, -89.900, 0.000, 58.900, 0.000, 0.000, -0.300, 0.0, , , , , , 98, , , 25, 25, 25
36.7672907, -118.8834257, 1.000, 13:02:59.378, 11, 0.00, 0.30, 100, -0.900, 1.100, 58.500, 430, 100, 100, 16, 23524, -16863, 5510, 5510, 10, 14, 1523736179.378, 59, 0, 1024, 1024, 1024, 1024, 0, 6, 3893, 3928, 3928, 3936, 3907, 3910, 0, 1, 5701, -89.900, 0.000, 58.900, 0.000, 0.000, -0.400, 0.0, , , , , , 98, , , 25, 25, 25
36.7672907, -118.8834257, 1.100, 13:02:59.478, 10, 0.00, 0.30, 100, -0.800, 1.000, 58.600, 430, 100, 100, 16, 23524, -16863, 5510, 5510, 10, 14, 1523736179.480, 65, 0, 1024, 1024, 1024, 1024, 0, 6, 3893, 3928, 3928, 3936, 3907, 3910, 0, 1, 5803, -89.900, 0.000, 58.900, 0.000, 0.000, -0.500, 0.0, , , , , , 98, , , 25, 25, 25
36.7672906, -118.8834256, 1.300, 13:02:59.578, 12, 0.00, 0.29, 100, -0.700, 0.700, 58.500, 430, 100, 100, 16, 23524, -16863, 5510, 5510, 10, 14, 1523736179.578, 63, 0, 1024, 1024, 1024, 1024, 0, 6, 3893, 3928, 3928, 3936, 3907, 3910, 0, 1, 5901, -89.900, 0.000, 58.900, 0.000, 0.000, -0.800, 0.0, , , , , , 98, , , 25, 25, 25
36.7672906, -118.8834256, 1.300, 13:02:59.678, 12, 0.00, 0.29, 100, -0.700, 0.700, 58.500, 430, 100, 100, 16, 23524, -16863, 5510, 5510, 10, 14, 1523736179.678, 163, 0, 1024, 1024, 1024, 1024, 0, 6, 3893, 3928, 3928, 3936, 3907, 3910, 0, 1, 6001, -89.900, 0.000, 58.900, 0.000, 0.000, -0.800, 0.0, , , , , , 98, , , 25, 25, 25
36.7672905, -118.8834255, 1.400, 13:02:59.778, 12, 0.00, 0.29, 100, -0.600, 0.500, 58.400, 430, 100, 100, 16, 23604, -16204, 5399, 5510, 10, 14, 1523736179.779, 22, 0, 1024, 1024, 1024, 1024, 0, 6, 3893, 3928, 3928, 3936, 3907, 3910, 0, 1, 6102, -89.900, 0.000, 58.900, 0.000, 0.000, -1.100, 0.0, , , , , , 98, , , 25, 25, 25
36.7672906, -118.8834255, 1.600, 13:02:59.877, 10, 0.00, 0.28, 100, -0.400, 0.400, 58.200, 430, 100, 100, 16, 23604, -16204, 5399, 5510, 10, 14, 1523736179.878, 39, 0, 1024, 1024, 1024, 1024, 0, 6, 3941, 3982, 3921, 3906, 3893, 3898, 0, 1, 6201, -89.900, 0.000, 58.900, 0.000, 0.000, -1.400, 0.0, , , , , , 98, , , 25, 25, 25
36.7672907, -118.8834255, 1.800, 13:02:59.978, 14, 0.00, 0.28, 100, -0.500, 0.500, 58.100, 430, 100, 100, 16, 23604, -16204, 5399, 5510, 10, 14, 1523736179.978, 26, 0, 1024, 1024, 1024, 1024, 0, 6, 3941, 3982, 3921, 3906, 3893, 3898, 0, 1, 6301, -89.900, 0.000, 58.900, 0.000, 0.000, -1.600, 0.0, , , , , , 98, , , 25, 25, 25
36.7672908, -118.8834255, 2.000, 13:03:00.078, 14, 0.00, 0.27, 100, -0.600, 0.600, 58.100, 430, 100, 100, 16, 23604, -16204, 5399, 5510, 10, 14, 1523736180.078, 38, 0, 1024, 1024, 1024, 1024, 0, 6, 3941, 3982, 3921, 3906, 3893, 3898, 0, 1, 6401, -89.900, 0.000, 58.900, 0.000, 0.000, -1.800, 0.0, , , , , , 98, , , 25, 25, 25
36.7672909, -118.8834255, 2.200, 13:03:00.185, 13, 0.00, 0.27, 100, -0.500, 0.800, 58.100, 430, 100, 100, 16, 23604, -16204, 5399, 5510, 10, 14, 1523736180.186, 7, 0, 1024, 1024, 1024, 1024, 0, 6, 3941, 3982, 3921, 3906, 3893, 3898, 0, 1, 6509, -89.900, 0.000, 58.900, 0.000, 0.000, -2.100, 0.0, , , , , , 98, , , 25, 25, 25
36.7672909, -118.8834255, 2.400, 13:03:00.281, 13, 0.00, 0.28, 98, -0.200, 0.700, 58.100, 430, 100, 100, 16, 23604, -16204, 5399, 5510, 10, 14, 1523736180.281, 17, 0, 1024, 1024, 1024, 1024, 0, 6, 3941, 3982, 3921, 3906, 3893, 3898, 0, 1, 6604, -89.900, 0.000, 58.900, 0.000, 0.000, -2.400, 0.0, , , , , , 98, , , 25, 25, 25
36.7672909, -118.8834255, 2.700, 13:03:00.378, 12, 0.00, 0.28, 98, 0.000, 0.800, 58.100, 430, 100, 100, 16, 23604, -16204, 5399, 5510, 10, 14, 1523736180.379, 17, 0, 1024, 1024, 1024, 1024, 0, 6, 3941, 3982, 3921, 3906, 3893, 3898, 0, 1, 6702, -89.900, 0.000, 58.900, 0.000, 0.000, -2.500, 0.0, , , , , , 98, , , 25, 25, 25
36.7672909, -118.8834255, 2.900, 13:03:00.478, 12, 0.00, 0.27, 98, 0.100, 0.800, 58.100, 430, 100, 100, 16, 23604, -16204, 5399, 5510, 10, 14, 1523736180.478, 16, 0, 1024, 1024, 1024, 1024, 0, 6, 3941, 3982, 3921, 3906, 3893, 3898, 0, 1, 6801, -89.900, 0.000, 58.900, 0.000, 0.000, -2.600, 0.0, , , , , , 98, , , 25, 25, 25
36.7672910, -118.8834254, 3.200, 13:03:00.579, 10, 0.00, 0.27, 98, 0.100, 0.800, 58.100, 430, 100, 100, 16, 23604, -16204, 5399, 5510, 10, 14, 1523736180.580, 24, 0, 1024, 1024, 1024, 1024, 0, 6, 3941, 3982, 3921, 3906, 3893, 3898, 0, 1, 6903, -89.900, 0.000, 58.900, 0.000, 0.000, -2.900, 0.0, , , , , , 98, , , 25, 25, 25
36.7672910, -118.8834254, 3.500, 13:03:00.679, 10, 0.00, 0.27, 98, 0.000, 0.900, 58.100, 430, 100, 100, 16, 22825, -22736, 5399, 5510, 10, 14, 1523736180.681, 24, 0, 1024, 1024, 1024, 1024, 0, 6, 3941, 3982, 3921, 3906, 3893, 3898, 0, 1, 7004, -89.900, 0.000, 58.900, 0.000, 0.000, -3.000, 0.0, , , , , , 98, , , 25, 25, 25
36.7672911, -118.8834255, 3.900, 13:03:00.790, 10, 0.00, 0.27, 98, -0.100, 0.900, 58.100, 430, 100, 100, 16, 22825, -22736, 5399, 5510, 10, 14, 1523736180.790, 10, 0, 1024, 1024, 1024, 1024, 0, 6, 3941, 3982, 3921, 3906, 3893, 3898, 0, 1, 7113, -89.900, 0.000, 58.900, 0.000, 0.000, -3.100, 0.0, , , , , , 98, , , 25, 25, 25
36.7672912, -118.8834256, 4.200, 13:03:00.878, 10, 0.00, 0.28, 98, 0.000, 0.800, 58.100, 430, 100, 100, 16, 22825, -22736, 5399, 5510, 10, 14, 1523736180.880, 14, 0, 1024, 1024, 1024, 1024, 0, 6, 3941, 3982, 3921, 3906, 3893, 3898, 0, 1, 7202, -89.900, 0.000, 58.900, 0.000, 0.000, -3.200, 0.0, , , , , , 98, , , 25, 25, 25
36.7672912, -118.8834256, 4.200, 13:03:00.979, 10, 0.00, 0.28, 98, 0.000, 0.800, 58.100, 430, 100, 100, 16, 22825, -22736, 5399, 5510, 10, 14, 1523736180.980, 114, 0, 1024, 1024, 1024, 1024, 0, 6, 3941, 3982, 3921, 3906, 3893, 3898, 0, 1, 7303, -89.900, 0.000, 58.900, 0.000, 0.000, -3.200, 0.0, , , , , , 98, , , 25, 25, 25
36.7672913, -118.8834257, 4.500, 13:03:01.079, 11, 0.00, 0.28, 98, 0.200, 0.700, 58.100, 430, 100, 100, 16, 22825, -22736, 5399, 5510, 10, 14, 1523736181.080, 84, 0, 1024, 1024, 1024, 1024, 0, 6, 3941, 3982, 3921, 3906, 3893, 3898, 0, 1, 7403, -89.900, 0.000, 58.900, 0.000, 0.000, -3.200, 0.0, , , , , , 98, , , 25, 25, 25
36.7672911, -118.8834256, 5.200, 13:03:01.200, 11, 0.00, 0.28, 98, 0.200, 0.700, 58.100, 430, 100, 100, 16, 22825, -22736, 5399, 5510, 10, 14, 1523736181.200, 3, 0, 1024, 1024, 1024, 1024, 0, 6, 3941, 3982, 3921, 3906, 3893, 3898, 0, 1, 7523, -89.900, 0.000, 58.900, 0.000, 0.000, -3.300, 0.0, , , , , , 98, , , 25, 25, 25
36.7672911, -118.8834256, 5.200, 13:03:01.279, 11, 0.00, 0.28, 98, 0.200, 0.700, 58.100, 430, 100, 100, 16, 22825, -22736, 5399, 5510, 10, 14, 1523736181.280, 83, 0, 1024, 1024, 1024, 1024, 0, 6, 3768, 3822, 3811, 3794, 3768, 3790, 0, 1, 7603, -89.900, 0.000, 58.900, 0.000, 0.000, -3.300, 0.0, , , , , , 98, , , 25, 25, 25
36.7672911, -118.8834257, 5.500, 13:03:01.379, 11, 0.00, 0.29, 98, 0.000, 0.600, 58.200, 430, 100, 100, 16, 22825, -22736, 5399, 5510, 10, 14, 1523736181.380, 84, 0, 1024, 1024, 1024, 1024, 0, 6, 3768, 3822, 3811, 3794, 3768, 3790, 0, 1, 7703, -89.900, 0.000, 58.900, 0.000, 0.000, -3.200, 0.0, , , , , , 98, , , 25, 25, 25
36.7672912, -118.8834259, 5.900, 13:03:01.480, 13, 0.00, 0.31, 98, 0.000, 0.500, 58.200, 430, 100, 100, 16, 22825, -22736, 5399, 5510, 10, 14, 1523736181.480, 75, 0, 1024, 1024, 1024, 1024, 0, 6, 3768, 3822, 3811, 3794, 3768, 3790, 0, 1, 7803, -89.900, 0.000, 58.900, 0.000, 0.000, -3.300, 0.0, , , , , , 98, , , 25, 25, 25
36.7672916, -118.8834264, 6.200, 13:03:01.580, 13, 0.00, 0.35, 98, 0.200, 0.200, 58.200, 430, 100, 100, 16, 22825, -22736, 5399, 5510, 10, 14, 1523736181.580, 83, 0, 1024, 1024, 1024, 1024, 0, 6, 3768, 3822, 3811, 3794, 3768, 3790, 0, 1, 7903, -89.900, 0.000, 58.900, 0.000, 0.000, -3.300, 0.0, , , , , , 98, , , 25, 25, 25
36.7672919, -118.8834269, 6.600, 13:03:01.680, 12, 0.00, 0.39, 98, 0.900, 0.000, 58.200, 430, 100, 100, 16, 22825, -22736, 5399, 5510, 10, 14, 1523736181.681, 62, 0, 1024, 1024, 1024, 1024, 0, 6, 3768, 3822, 3811, 3794, 3768, 3790, 0, 1, 8004, -90.000, 0.000, 58.900, 0.000, 0.000, -3.200, 0.0, , , , , , 98, , , 25, 25, 25
36.7672920, -118.8834271, 6.900, 13:03:01.779, 12, 0.00, 0.41, 98, 1.800, -0.200, 58.100, 430, 100, 100, 16, 22825, -22736, 5399, 5510, 10, 14, 1523736181.779, 80, 0, 1024, 1024, 1024, 1024, 0, 6, 3768, 3822, 3811, 3794, 3768, 3790, 0, 1, 8102, -90.000, 0.000, 58.900, 0.000, 0.000, -3.200, 0.0, , , , , , 98, , , 25, 25, 25
36.7672922, -118.8834272, 7.300, 13:03:01.881, 13, 0.00, 0.42, 98, 2.300, -0.100, 58.100, 430, 100, 100, 16, 22825, -22736, 5399, 5510, 10, 14, 1523736181.882, 63, 0, 1024, 1024, 1024, 1024, 0, 6, 3768, 3822, 3811, 3794, 3768, 3790, 0, 1, 8205, -89.900, 0.000, 58.900, 0.000, 0.000, -3.200, 0.0, , , , , , 98, , , 25, 25, 25
36.7672922, -118.8834271, 7.600, 13:03:01.980, 13, 0.00, 0.42, 98, 2.400, 0.000, 58.100, 430, 100, 100, 16, 22825, -22736, 5399, 5510, 10, 14, 1523736181.981, 31, 0, 1024, 1024, 1024, 1024, 0, 6, 3768, 3822, 3811, 3794, 3768, 3790, 0, 1, 8304, -89.900, 0.000, 58.900, 0.000, 0.000, -3.100, 0.0, , , , , , 98, , , 25, 25, 25
36.7672922, -118.8834271, 7.900, 13:03:02.078, 13, 0.00, 0.41, 98, 1.900, 0.200, 58.100, 430, 100, 100, 16, 22825, -22736, 5399, 5510, 10, 14, 1523736182.079, 47, 0, 1024, 1024, 1024, 1024, 0, 6, 3768, 3822, 3811, 3794, 3768, 3790, 0, 1, 8401, -89.900, 0.000, 58.900, 0.000, 0.000, -3.100, 0.0, , , , , , 98, , , 25, 25, 25
36.7672921, -118.8834269, 8.300, 13:03:02.179, 13, 0.00, 0.40, 98, 1.200, 0.400, 58.000, 430, 100, 100, 16, 22825, -22736, 5399, 5510, 10, 14, 1523736182.181, 17, 0, 1024, 1024, 1024, 1024, 0, 6, 3768, 3822, 3811, 3794, 3768, 3790, 0, 1, 8504, -89.900, 0.000, 58.900, 0.000, 0.000, -3.100, 0.0, , , , , , 98, , , 25, 25, 25
36.7672918, -118.8834266, 8.900, 13:03:02.278, 14, 0.10, 0.36, 98, -0.200, 0.800, 58.000, 430, 100, 100, 16, 22730, -22919, 5399, 5510, 10, 14, 1523736182.278, 27, 0, 1024, 1024, 1024, 1024, 0, 6, 3762, 3818, 3792, 3819, 3809, 3800, 0, 1, 8601, -89.900, 0.000, 58.900, 0.000, 0.100, -3.000, 0.0, , , , , , 98, , , 25, 25, 25
36.7672917, -118.8834264, 9.200, 13:03:02.378, 15, 0.10, 0.35, 98, -0.800, 1.000, 57.900, 430, 100, 96, 16, 22730, -22919, 5399, 5510, 10, 14, 1523736182.378, 48, 0, 1024, 1024, 1024, 1024, 0, 6, 3762, 3818, 3792, 3819, 3809, 3800, 0, 1, 8701, -89.900, 0.000, 58.900, 0.000, 0.100, -3.000, 0.0, , , , , , 98, , , 25, 25, 25
36.7672917, -118.8834264, 9.200, 13:03:02.478, 15, 0.10, 0.35, 98, -0.800, 1.000, 57.900, 430, 100, 96, 16, 22730, -22919, 5399, 5510, 10, 14, 1523736182.478, 148, 0, 1024, 1024, 1024, 1024, 0, 6, 3762, 3818, 3792, 3819, 3809, 3800, 0, 1, 8801, -89.900, 0.000, 58.900, 0.000, 0.100, -3.000, 0.0, , , , , , 98, , , 25, 25, 25
36.7672918, -118.8834262, 9.900, 13:03:02.578, 15, 0.00, 0.33, 98, -0.800, 1.100, 58.000, 430, 100, 96, 16, 22730, -22919, 5399, 5510, 10, 14, 1523736182.579, 43, 0, 1024, 1024, 1024, 1024, 0, 6, 3762, 3818, 3792, 3819, 3809, 3800, 0, 1, 8902, -89.900, 0.000, 58.900, 0.000, 0.000, -3.000, 0.0, , , , , , 98, , , 25, 25, 25
36.7672919, -118.8834260, 10.200, 13:03:02.677, 15, 0.00, 0.31, 98, -0.600, 1.200, 58.100, 430, 100, 96, 16, 22730, -22919, 5399, 5510, 10, 14, 1523736182.678, 9, 0, 1024, 1024, 1024, 1024, 0, 6, 3762, 3818, 3792, 3819, 3809, 3800, 0, 1, 9001, -89.900, 0.000, 58.900, 0.000, 0.000, -3.000, 0.0, , , , , , 98, , , 25, 25, 25
36.7672920, -118.8834257, 10.500, 13:03:02.778, 16, 0.00, 0.29, 98, -0.100, 1.300, 58.200, 430, 100, 96, 16, 22730, -22919, 5399, 5510, 10, 14, 1523736182.778, 11, 0, 1024, 1024, 1024, 1024, 0, 6, 3762, 3818, 3792, 3819, 3809, 3800, 0, 1, 9101, -89.900, 0.000, 58.900, 0.000, 0.000, -3.000, 0.0, , , , , , 98, , , 25, 25, 25
36.7672921, -118.8834255, 10.800, 13:03:02.877, 16, 0.00, 0.28, 98, 0.000, 1.600, 58.200, 430, 100, 96, 16, 22730, -22919, 5399, 5510, 10, 14, 1523736182.877, 9, 0, 1024, 1024, 1024, 1024, 0, 6, 3762, 3818, 3792, 3819, 3809, 3800, 0, 1, 9200, -89.900, 0.000, 58.900, 0.000, 0.000, -3.000, 0.0, , , , , , 98, , , 25, 25, 25
36.7672922, -118.8834253, 11.100, 13:03:02.980, 16, 0.00, 0.26, 98, -0.100, 1.900, 58.200, 430, 100, 96, 16, 22730, -22919, 5399, 5510, 10, 14, 1523736182.980, 12, 0, 1024, 1024, 1024, 1024, 0, 6, 3762, 3818, 3792, 3819, 3809, 3800, 0, 1, 9303, -89.900, 0.000, 58.900, 0.000, 0.000, -2.900, 0.0, , , , , , 98, , , 25, 25, 25
36.7672921, -118.8834251, 11.400, 13:03:03.078, 16, 0.00, 0.24, 98, -0.100, 2.100, 58.200, 430, 100, 96, 16, 22730, -22919, 5399, 5510, 10, 14, 1523736183.078, 10, 0, 1024, 1024, 1024, 1024, 0, 6, 3762, 3818, 3792, 3819, 3809, 3800, 0, 1, 9401, -89.900, 0.000, 58.900, 0.000, 0.000, -3.000, 0.0, , , , , , 98, , , 25, 25, 25
36.7672920, -118.8834249, 11.700, 13:03:03.186, 16, 0.00, 0.22, 98, -0.300, 2.300, 58.200, 430, 100, 96, 16, 22964, -19151, 5399, 5510, 10, 14, 1523736183.186, 4, 0, 1024, 1024, 1024, 1024, 0, 6, 3762, 3818, 3792, 3819, 3809, 3800, 0, 1, 9509, -89.900, 0.000, 58.900, 0.000, 0.000, -3.000, 0.0, , , , , , 98, , , 25, 25, 25
36.7672919, -118.8834247, 12.000, 13:03:03.279, 16, 0.00, 0.20, 98, -0.600, 2.200, 58.300, 430, 100, 95, 16, 22964, -19151, 5399, 5510, 10, 14, 1523736183.280, 13, 0, 1024, 1024, 1024, 1024, 0, 6, 3798, 3849, 3834, 3828, 3816, 3835, 0, 1, 9603, -89.900, 0.000, 58.900, 0.000, 0.000, -2.900, 0.0, , , , , , 98, , , 25, 25, 25
36.7672917, -118.8834245, 12.300, 13:03:03.379, 16, 0.00, 0.18, 98, -0.900, 2.200, 58.300, 430, 100, 95, 16, 22964, -19151, 5399, 5510, 10, 14, 1523736183.382, 8, 0, 1024, 1024, 1024, 1024, 0, 6, 3798, 3849, 3834, 3828, 3816, 3835, 0, 1, 9705, -89.900, 0.000, 58.900, 0.000, 0.000, -3.000, 0.0, , , , , , 98, , , 25, 25, 25
36.7672915, -118.8834243, 12.700, 13:03:03.478, 16, 0.00, 0.16, 98, -1.000, 2.000, 58.400, 430, 100, 95, 16, 22964, -19151, 5399, 5510, 10, 14, 1523736183.478, 8, 0, 1024, 1024, 1024, 1024, 0, 6, 3798, 3849, 3834, 3828, 3816, 3835, 0, 1, 9801, -89.900, 0.000, 58.900, 0.000, 0.000, -3.000, 0.0, , , , , , 98, , , 25, 25, 25
36.7672915, -118.8834243, 12.700, 13:03:03.577, 16, 0.00, 0.16, 98, -1.000, 2.000, 58.400, 430, 100, 95, 16, 22964, -19151, 5399, 5510, 10, 14, 1523736183.578, 107, 0, 1024, 1024, 1024, 1024, 0, 6, 3798, 3849, 3834, 3828, 3816, 3835, 0, 1, 9901, -89.900, 0.000, 58.900, 0.000, 0.000, -3.000, 0.0, , , , , , 98, , , 25, 25, 25
36.7672913, -118.8834241, 13.000, 13:03:03.678, 13, 0.00, 0.14, 98, -1.300, 1.800, 58.300, 430, 100, 95, 16, 22964, -19151, 5399, 5510, 10, 14, 1523736183.678, 85, 0, 1024, 1024, 1024, 1024, 0, 6, 3798, 3849, 3834, 3828, 3816, 3835, 0, 1, 10001, -89.900, 0.000, 58.900, 0.000, 0.000, -3.000, 0.0, , , , , , 98, , , 25, 25, 25
36.7672910, -118.8834239, 13.300, 13:03:03.778, 13, 0.00, 0.14, 98, -1.700, 1.700, 58.300, 430, 100, 95, 16, 22964, -19151, 5399, 5510, 10, 14, 1523736183.778, 80, 0, 1024, 1024, 1024, 1024, 0, 6, 3798, 3849, 3834, 3828, 3816, 3835, 0, 1, 10101, -89.900, 0.000, 58.900, 0.000, 0.000, -2.900, 0.0, , , , , , 98, , , 25, 25, 25
36.7672908, -118.8834238, 13.600, 13:03:03.878, 14, 0.00, 0.14, 98, -2.000, 1.600, 58.300, 430, 100, 97, 16, 22964, -19151, 5399, 5510, 10, 14, 1523736183.878, 95, 0, 1024, 1024, 1024, 1024, 0, 6, 3798, 3849, 3834, 3828, 3816, 3835, 0, 1, 10201, -89.900, 0.000, 58.900, 0.000, 0.000, -2.900, 0.0, , , , , , 98, , , 25, 25, 25
36.7672905, -118.8834236, 13.900, 13:03:03.978, 14, 0.00, 0.15, 98, -2.200, 1.400, 58.300, 430, 100, 97, 16, 22964, -19151, 5399, 5510, 10, 14, 1523736183.978, 86, 0, 1024, 1024, 1024, 1024, 0, 6, 3798, 3849, 3834, 3828, 3816, 3835, 0, 1, 10301, -89.900, 0.000, 58.900, 0.000, 0.000, -2.800, 0.0, , , , , , 98, , , 25, 25, 25
36.7672903, -118.8834235, 14.200, 13:03:04.078, 14, 0.00, 0.16, 98, -2.300, 1.100, 58.400, 430, 100, 97, 16, 22964, -19151, 5399, 5510, 10, 14, 1523736184.078, 37, 0, 1024, 1024, 1024, 1024, 0, 6, 3798, 3849, 3834, 3828, 3816, 3835, 0, 1, 10401, -89.900, 0.000, 58.900, 0.000, 0.000, -2.800, 0.0, , , , , , 98, , , 25, 25, 25
36.7672901, -118.8834235, 14.400, 13:03:04.177, 14, 0.00, 0.18, 98, -2.500, 0.800, 58.400, 430, 100, 97, 16, 22964, -19151, 5399, 5510, 10, 14, 1523736184.178, 60, 0, 1024, 1024, 1024, 1024, 0, 6, 3798, 3849, 3834, 3828, 3816, 3835, 0, 1, 10501, -90.000, 0.000, 58.900, 0.000, 0.000, -2.900, 0.0, , , , , , 98, , , 25, 25, 25
36.7672899, -118.8834235, 14.800, 13:03:04.277, 15, 0.00, 0.20, 98, -2.400, 0.600, 58.300, 430, 100, 97, 16, 22962, -19445, 5399, 5510, 10, 14, 1523736184.278, 43, 0, 1024, 1024, 1024, 1024, 0, 6, 3803, 3839, 3832, 3832, 3823, 3823, 0, 1, 10601, -89.900, 0.000, 58.900, 0.000, 0.000, -3.000, 0.0, , , , , , 98, , , 25, 25, 25
36.7672898, -118.8834236, 15.100, 13:03:04.378, 15, 0.00, 0.22, 98, -2.000, 0.500, 58.200, 430, 100, 96, 16, 22962, -19445, 5399, 5510, 10, 14, 1523736184.378, 60, 0, 1024, 1024, 1024, 1024, 0, 6, 3803, 3839, 3832, 3832, 3823, 3823, 0, 1, 10701, -90.000, 0.000, 58.900, 0.000, 0.000, -3.000, 0.0, , , , , , 98, , , 25, 25, 25
36.7672895, -118.8834236, 15.700, 13:03:04.477, 13, 0.00, 0.25, 98, -1.600, 0.400, 57.900, 430, 100, 96, 16, 22962, -19445, 5399, 5510, 10, 14, 1523736184.478, 40, 0, 1024, 1024, 1024, 1024, 0, 6, 3803, 3839, 3832, 3832, 3823, 3823, 0, 1, 10801, -90.000, 0.000, 58.900, 0.000, 0.000, -2.900, 0.0, , , , , , 98, , , 25, 25, 25
36.7672895, -118.8834236, 15.700, 13:03:04.578, 13, 0.00, 0.25, 98, -1.600, 0.400, 57.900, 430, 100, 96, 16, 22962, -19445, 5399, 5510, 10, 14, 1523736184.578, 141, 0, 1024, 1024, 1024, 1024, 0, 6, 3803, 3839, 3832, 3832, 3823, 3823, 0, 1, 10901, -90.000, 0.000, 58.900, 0.000, 0.000, -2.900, 0.0, , , , , , 98, , , 25, 25, 25
36.7672893, -118.8834237, 16.300, 13:03:04.678, 15, 0.00, 0.27, 98, -1.600, 0.500, 57.800, 430, 100, 96, 16, 22962, -19445, 5399, 5510, 10, 14, 1523736184.679, 22, 0, 1024, 1024, 1024, 1024, 0, 6, 3803, 3839, 3832, 3832, 3823, 3823, 0, 1, 11002, -89.900, 0.000, 58.900, 0.000, 0.000, -2.900, 0.0, , , , , , 98, , , 25, 25, 25
36.7672893, -118.8834237, 16.300, 13:03:04.777, 15, 0.00, 0.27, 98, -1.600, 0.500, 57.800, 430, 100, 96, 16, 22962, -19445, 5399, 5510, 10, 14, 1523736184.778, 121, 0, 1024, 1024, 1024, 1024, 0, 6, 3803, 3839, 3832, 3832, 3823, 3823, 0, 1, 11101, -89.900, 0.000, 58.900, 0.000, 0.000, -2.900, 0.0, , , , , , 98, , , 25, 25, 25
36.7672891, -118.8834239, 16.800, 13:03:04.878, 15, 0.00, 0.29, 98, -1.300, 0.600, 58.000, 430, 100, 94, 16, 22962, -19445, 5399, 5510, 10, 14, 1523736184.878, 35, 0, 1024, 1024, 1024, 1024, 0, 6, 3803, 3839, 3832, 3832, 3823, 3823, 0, 1, 11201, -89.900, 0.000, 58.900, 0.000, 0.000, -2.900, 0.0, , , , , , 98, , , 25, 25, 25
36.7672891, -118.8834239, 17.100, 13:03:04.978, 15, 0.00, 0.30, 98, -1.300, 0.400, 58.100, 430, 100, 94, 16, 22962, -19445, 5399, 5510, 10, 14, 1523736184.978, 40, 0, 1024, 1024, 1024, 1024, 0, 6, 3803, 3839, 3832, 3832, 3823, 3823, 0, 1, 11301, -89.900, 0.000, 58.900, 0.000, 0.000, -2.900, 0.0, , , , , , 98, , , 25, 25, 25
36.7672891, -118.8834241, 17.400, 13:03:05.077, 15, 0.00, 0.30, 98, -1.300, 0.200, 58.100, 430, 100, 94, 16, 22962, -19445, 5399, 5510, 10, 14, 1523736185.078, 30, 0, 1024, 1024, 1024, 1024, 0, 6, 3803, 3839, 3832, 3832, 3823, 3823, 0, 1, 11401, -90.000, 0.000, 58.900, 0.000, 0.000, -2.900, 0.0, , , , , , 98, , , 25, 25, 25
36.7672891, -118.8834242, 17.700, 13:03:05.178, 13, 0.00, 0.31, 98, -1.200, 0.200, 58.200, 430, 100, 94, 16, 22962, -19445, 5399, 5510, 10, 14, 1523736185.178, 18, 0, 1024, 1024, 1024, 1024, 0, 6, 3803, 3839, 3832, 3832, 3823, 3823, 0, 1, 11501, -90.000, 0.000, 58.900, 0.000, 0.000, -2.900, 0.0, , , , , , 98, , , 25, 25, 25
36.7672891, -118.8834242, 17.700, 13:03:05.278, 13, 0.00, 0.31, 98, -1.200, 0.200, 58.200, 430, 100, 94, 16, 22962, -19445, 5399, 5510, 10, 14, 1523736185.279, 118, 0, 1024, 1024, 1024, 1024, 0, 6, 3803, 3839, 3832, 3832, 3823, 3823, 0, 1, 11601, -89.900, 0.000, 58.900, 0.000, 0.000, -2.900, 0.0, , , , , , 98, , , 25, 25, 25
36.7672891, -118.8834245, 18.300, 13:03:05.379, 15, 0.10, 0.33, 98, -0.900, 0.000, 58.200, 430, 100, 95, 16, 22910, -19349, 5399, 5510, 10, 14, 1523736185.380, 5, 0, 1024, 1024, 1024, 1024, 0, 6, 3793, 3848, 3826, 3823, 3826, 3815, 0, 1, 11703, -90.000, 0.000, 58.900, 0.000, -0.100, -2.900, 0.0, , , , , , 98, , , 25, 25, 25
36.7672891, -118.8834245, 18.300, 13:03:05.478, 15, 0.10, 0.33, 98, -0.900, 0.000, 58.200, 430, 100, 95, 16, 22910, -19349, 5399, 5510, 10, 14, 1523736185.478, 103, 0, 1024, 1024, 1024, 1024, 0, 6, 3793, 3848, 3826, 3823, 3826, 3815, 0, 1, 11801, -90.000, 0.000, 58.900, 0.000, -0.100, -2.900, 0.0, , , , , , 98, , , 25, 25, 25
36.7672891, -118.8834247, 18.600, 13:03:05.578, 15, 0.10, 0.33, 98, -0.700, -0.100, 58.200, 430, 100, 95, 16, 22910, -19349, 5399, 5510, 10, 14, 1523736185.579, 94, 0, 1024, 1024, 1024, 1024, 0, 6, 3793, 3848, 3826, 3823, 3826, 3815, 0, 1, 11901, -90.000, 0.000, 58.900, 0.000, -0.100, -2.900, 0.0, , , , , , 98, , , 25, 25, 25
36.7672892, -118.8834248, 18.900, 13:03:05.678, 15, 0.14, 0.33, 98, -0.600, -0.200, 58.200, 430, 100, 95, 16, 22910, -19349, 5399, 5510, 10, 14, 1523736185.678, 93, 0, 1024, 1024, 1024, 1024, 0, 6, 3793, 3848, 3826, 3823, 3826, 3815, 0, 1, 12001, -90.000, 0.000, 58.900, 0.100, -0.100, -2.900, 0.0, , , , , , 98, , , 25, 25, 25
36.7672892, -118.8834250, 19.200, 13:03:05.778, 15, 0.10, 0.34, 98, -0.400, -0.200, 58.200, 430, 100, 95, 16, 22910, -19349, 5399, 5510, 10, 14, 1523736185.778, 97, 0, 1024, 1024, 1024, 1024, 0, 6, 3793, 3848, 3826, 3823, 3826, 3815, 0, 1, 12101, -89.900, 0.000, 58.900, 0.100, 0.000, -2.900, 0.0, , , , , , 98, , , 25, 25, 25
36.7672893, -118.8834251, 19.500, 13:03:05.878, 15, 0.10, 0.34, 98, -0.300, -0.100, 58.300, 430, 100, 92, 16, 22910, -19349, 5399, 5510, 10, 14, 1523736185.878, 94, 0, 1024, 1024, 1024, 1024, 0, 6, 3793, 3848, 3826, 3823, 3826, 3815, 0, 1, 12201, -90.000, 0.000, 58.900, 0.100, 0.000, -3.000, 0.0, , , , , , 98, , , 25, 25, 25
36.7672893, -118.8834252, 19.800, 13:03:05.978, 15, 0.10, 0.34, 98, -0.200, -0.100, 58.300, 430, 100, 92, 16, 22910, -19349, 5399, 5510, 10, 14, 1523736185.978, 67, 0, 1024, 1024, 1024, 1024, 0, 6, 3793, 3848, 3826, 3823, 3826, 3815, 0, 1, 12301, -89.900, 0.000, 58.900, 0.100, 0.000, -2.900, 0.0, , , , , , 98, , , 25, 25, 25
36.7672894, -118.8834253, 20.100, 13:03:06.077, 15, 0.10, 0.34, 98, -0.100, 0.000, 58.200, 430, 100, 92, 16, 22910, -19349, 5399, 5510, 10, 14, 1523736186.078, 53, 0, 1024, 1024, 1024, 1024, 0, 6, 3793, 3848, 3826, 3823, 3826, 3815, 0, 1, 12401, -89.900, 0.000, 58.900, 0.100, 0.000, -3.000, 0.0, , , , , , 98, , , 25, 25, 25
36.7672895, -118.8834254, 20.400, 13:03:06.178, 15, 0.10, 0.34, 98, -0.200, 0.000, 58.100, 430, 100, 92, 16, 22910, -19349, 5399, 5510, 10, 14, 1523736186.179, 35, 0, 1024, 1024, 1024, 1024, 0, 6, 3793, 3848, 3826, 3823, 3826, 3815, 0, 1, 12502, -89.900, 0.000, 58.900, 0.100, 0.000, -2.900, 0.0, , , , , , 98, , , 25, 25, 25
36.7672896, -118.8834256, 20.700, 13:03:06.278, 14, 0.10, 0.34, 98, 0.100, 0.100, 58.100, 430, 100, 92, 16, 22873, -19451, 5399, 5510, 10, 14, 1523736186.279, 36, 0, 1024, 1024, 1024, 1024, 0, 6, 3793, 3848, 3826, 3823, 3826, 3815, 0, 1, 12602, -89.900, 0.000, 58.900, 0.100, 0.000, -2.900, 0.0, , , , , , 98, , , 25, 25, 25
36.7672897, -118.8834257, 21.000, 13:03:06.378, 14, 0.10, 0.35, 98, 0.300, 0.400, 58.000, 430, 100, 96, 16, 22873, -19451, 5399, 5510, 10, 14, 1523736186.379, 48, 0, 1024, 1024, 1024, 1024, 0, 6, 3793, 3848, 3826, 3823, 3826, 3815, 0, 1, 12702, -89.900, 0.000, 58.900, 0.100, 0.000, -3.000, 0.0, , , , , , 98, , , 25, 25, 25
36.7672899, -118.8834259, 21.600, 13:03:06.477, 16, 0.00, 0.35, 98, 0.200, 0.500, 57.900, 430, 100, 96, 16, 22873, -19451, 5399, 5510, 10, 14, 1523736186.478, 43, 0, 1024, 1024, 1024, 1024, 0, 6, 3793, 3848, 3826, 3823, 3826, 3815, 0, 1, 12801, -89.900, 0.000, 58.800, 0.000, 0.000, -2.900, 0.0, , , , , , 98, , , 25, 25, 25
36.7672899, -118.8834261, 21.900, 13:03:06.578, 15, 0.00, 0.36, 98, 0.000, 0.300, 57.800, 430, 100, 96, 16, 22873, -19451, 5399, 5510, 10, 14, 1523736186.578, 49, 0, 1024, 1024, 1024, 1024, 0, 6, 3793, 3848, 3826, 3823, 3826, 3815, 0, 1, 12901, -89.900, 0.000, 58.900, 0.000, 0.000, -2.900, 0.0, , , , , , 98, , , 25, 25, 25
36.7672900, -118.8834262, 22.200, 13:03:06.678, 15, 0.00, 0.36, 98, -0.100, 0.100, 57.800, 430, 100, 96, 16, 22873, -19451, 5399, 5510, 10, 14, 1523736186.678, 15, 0, 1024, 1024, 1024, 1024, 0, 6, 3794, 3825, 3813, 3827, 3804, 3803, 0, 1, 13001, -89.900, 0.000, 58.900, 0.000, 0.000, -2.900, 0.0, , , , , , 98, , , 25, 25, 25
36.7672901, -118.8834262, 22.500, 13:03:06.778, 15, 0.00, 0.37, 98, -0.100, 0.000, 57.800, 430, 100, 97, 16, 22873, -19451, 5399, 5510, 10, 14, 1523736186.778, 25, 0, 1024, 1024, 1024, 1024, 0, 6, 3794, 3825, 3813, 3827, 3804, 3803, 0, 1, 13101, -89.900, 0.000, 58.900, 0.000, 0.000, -2.900, 0.0, , , , , , 98, , , 25, 25, 25
36.7672902, -118.8834263, 22.800, 13:03:06.878, 15, 0.00, 0.37, 98, 0.000, -0.200, 57.900, 430, 100, 97, 16, 22873, -19451, 5399, 5510, 10, 14, 1523736186.878, 15, 0, 1024, 1024, 1024, 1024, 0, 6, 3794, 3825, 3813, 3827, 3804, 3803, 0, 1, 13201, -90.000, 0.000, 58.900, 0.000, 0.000, -2.900, 0.0, , , , , , 98, , , 25, 25, 25
36.7672903, -118.8834264, 23.100, 13:03:06.985, 14, 0.00, 0.37, 98, 0.100, -0.200, 58.000, 430, 100, 97, 16, 22873, -19451, 5399, 5510, 10, 14, 1523736186.985, 13, 0, 1024, 1024, 1024, 1024, 0, 6, 3794, 3825, 3813, 3827, 3804, 3803, 0, 1, 13308, -90.000, 0.000, 58.900, 0.000, 0.000, -2.900, 0.0, , , , , , 98, , , 25, 25, 25
36.7672904, -118.8834265, 23.400, 13:03:07.078, 14, 0.00, 0.38, 98, 0.200, -0.200, 58.100, 430, 100, 97, 16, 22873, -19451, 5399, 5510, 10, 14, 1523736187.079, 11, 0, 1024, 1024, 1024, 1024, 0, 6, 3794, 3825, 3813, 3827, 3804, 3803, 0, 1, 13401, -89.900, 0.000, 58.900, 0.000, 0.000, -2.900, 0.0, , , , , , 98, , , 25, 25, 25
36.7672905, -118.8834266, 23.700, 13:03:07.192, 15, 0.00, 0.38, 98, 0.400, 0.000, 58.200, 430, 100, 97, 16, 22873, -19451, 5399, 5510, 10, 14, 1523736187.192, 7, 0, 1024, 1024, 1024, 1024, 0, 6, 3794, 3825, 3813, 3827, 3804, 3803, 0, 1, 13515, -89.900, 0.000, 58.900, 0.000, 0.000, -2.900, 0.0, , , , , , 98, , , 25, 25, 25
36.7672905, -118.8834266, 23.700, 13:03:07.278, 15, 0.00, 0.38, 98, 0.400, 0.000, 58.200, 430, 100, 97, 16, 22873, -19451, 5399, 5510, 10, 14, 1523736187.279, 93, 0, 1024, 1024, 1024, 1024, 0, 6, 3794, 3825, 3813, 3827, 3804, 3803, 0, 1, 13602, -89.900, 0.000, 58.900, 0.000, 0.000, -2.900, 0.0, , , , , , 98, , , 25, 25, 25
36.7672908, -118.8834268, 24.300, 13:03:07.382, 17, 0.00, 0.39, 98, 0.600, 0.200, 58.200, 430, 100, 98, 16, 22873, -19451, 5399, 5510, 10, 14, 1523736187.382, 4, 0, 1024, 1024, 1024, 1024, 0, 6, 3794, 3825, 3813, 3827, 3804, 3803, 0, 1, 13705, -89.900, 0.000, 58.900, 0.000, 0.000, -2.900, 0.0, , , , , , 98, , , 25, 25, 25
36.7672908, -118.8834268, 24.300, 13:03:07.478, 17, 0.00, 0.39, 98, 0.600, 0.200, 58.200, 430, 100, 98, 16, 22873, -19451, 5399, 5510, 10, 14, 1523736187.478, 101, 0, 1024, 1024, 1024, 1024, 0, 6, 3794, 3825, 3813, 3827, 3804, 3803, 0, 1, 13801, -89.900, 0.000, 58.900, 0.000, 0.000, -2.900, 0.0, , , , , , 98, , , 25, 25, 25
36.7672908, -118.8834268, 24.600, 13:03:07.578, 17, 0.00, 0.39, 98, 0.600, 0.100, 58.200, 430, 100, 98, 16, 22873, -19451, 5399, 5510, 10, 14, 1523736187.578, 91, 0, 1024, 1024, 1024, 1024, 0, 6, 3794, 3825, 3813, 3827, 3804, 3803, 0, 1, 13901, -89.900, 0.000, 58.900, 0.000, 0.000, -3.000, 0.0, , , , , , 98, , , 25, 25, 25
36.7672909, -118.8834269, 24.900, 13:03:07.678, 17, 0.00, 0.39, 98, 0.600, 0.000, 58.200, 430, 100, 98, 16, 22873, -19451, 5399, 5510, 10, 14, 1523736187.678, 95, 0, 1024, 1024, 1024, 1024, 0, 6, 3794, 3825, 3813, 3827, 3804, 3803, 0, 1, 14001, -89.900, 0.000, 58.900, 0.000, 0.000, -3.000, 0.0, , , , , , 98, , , 25, 25, 25
36.7672910, -118.8834269, 25.200, 13:03:07.777, 17, 0.00, 0.39, 98, 0.500, 0.100, 58.200, 430, 100, 98, 16, 22828, -19424, 5399, 5510, 10, 14, 1523736187.778, 72, 0, 1024, 1024, 1024, 1024, 0, 6, 3775, 3830, 3816, 3811, 3807, 3806, 0, 1, 14100, -89.900, 0.000, 58.900, 0.000, 0.000, -3.000, 0.0, , , , , , 98, , , 25, 25, 25
36.7672911, -118.8834269, 25.500, 13:03:07.878, 16, 0.00, 0.40, 98, 0.400, 0.200, 58.200, 430, 100, 97, 16, 22828, -19424, 5399, 5510, 10, 14, 1523736187.878, 87, 0, 1024, 1024, 1024, 1024, 0, 6, 3775, 3830, 3816, 3811, 3807, 3806, 0, 1, 14201, -89.900, 0.000, 58.900, 0.000, 0.000, -3.000, 0.0, , , , , , 98, , , 25, 25, 25
36.7672911, -118.8834270, 25.800, 13:03:07.978, 16, 0.00, 0.40, 98, 0.400, 0.200, 58.200, 430, 100, 97, 16, 22828, -19424, 5399, 5510, 10, 14, 1523736187.978, 75, 0, 1024, 1024, 1024, 1024, 0, 6, 3775, 3830, 3816, 3811, 3807, 3806, 0, 1, 14301, -89.900, 0.000, 58.900, 0.000, 0.000, -3.000, 0.0, , , , , , 98, , , 25, 25, 25
36.7672912, -118.8834270, 26.100, 13:03:08.078, 17, 0.00, 0.40, 98, 0.400, 0.400, 58.300, 430, 100, 97, 16, 22828, -19424, 5399, 5510, 10, 14, 1523736188.078, 71, 0, 1024, 1024, 1024, 1024, 0, 6, 3775, 3830, 3816, 3811, 3807, 3806, 0, 1, 14401, -89.900, 0.000, 58.900, 0.000, 0.000, -3.000, 0.0, , , , , , 98, , , 25, 25, 25
36.7672912, -118.8834270, 26.100, 13:03:08.178, 17, 0.00, 0.40, 98, 0.400, 0.400, 58.300, 430, 100, 97, 16, 22828, -19424, 5399, 5510, 10, 14, 1523736188.179, 172, 0, 1024, 1024, 1024, 1024, 0, 6, 3775, 3830, 3816, 3811, 3807, 3806, 0, 1, 14501, -89.900, 0.000, 58.900, 0.000, 0.000, -3.000, 0.0, , , , , , 98, , , 25, 25, 25
36.7672913, -118.8834271, 26.700, 13:03:08.278, 17, 0.00, 0.41, 98, 0.400, 0.300, 58.300, 430, 100, 97, 16, 22828, -19424, 5399, 5510, 10, 14, 1523736188.278, 50, 0, 1024, 1024, 1024, 1024, 0, 6, 3775, 3830, 3816, 3811, 3807, 3806, 0, 1, 14601, -89.900, 0.000, 58.900, 0.000, 0.000, -3.000, 0.0, , , , , , 98, , , 25, 25, 25
36.7672913, -118.8834271, 27.000, 13:03:08.378, 17, 0.00, 0.41, 98, 0.300, 0.300, 58.300, 430, 100, 97, 16, 22828, -19424, 5399, 5510, 10, 14, 1523736188.378, 12, 0, 1024, 1024, 1024, 1024, 0, 6, 3775, 3830, 3816, 3811, 3807, 3806, 0, 1, 14701, -90.000, 0.000, 58.900, 0.000, 0.000, -3.000, 0.0, , , , , , 98, , , 25, 25, 25
36.7672913, -118.8834271, 27.600, 13:03:08.478, 17, 0.00, 0.41, 98, 0.100, 0.000, 58.200, 430, 100, 97, 16, 22828, -19424, 5399, 5510, 10, 14, 1523736188.478, 35, 0, 1024, 1024, 1024, 1024, 0, 6, 3775, 3830, 3816, 3811, 3807, 3806, 0, 1, 14801, -89.900, 0.000, 58.900, 0.000, 0.000, -2.900, 0.0, , , , , , 98, , , 25, 25, 25
36.7672913, -118.8834271, 27.600, 13:03:08.578, 17, 0.00, 0.41, 98, 0.100, 0.000, 58.200, 430, 100, 97, 16, 22828, -19424, 5399, 5510, 10, 14, 1523736188.578, 135, 0, 1024, 1024, 1024, 1024, 0, 6, 3775, 3830, 3816, 3811, 3807, 3806, 0, 1, 14901, -89.900, 0.000, 58.900, 0.000, 0.000, -2.900, 0.0, , , , , , 98, , , 25, 25, 25
36.7672913, -118.8834271, 28.200, 13:03:08.678, 17, 0.00, 0.41, 98, 0.000, -0.100, 58.000, 430, 100, 97, 16, 22828, -19424, 5399, 5510, 10, 14, 1523736188.678, 23, 0, 1024, 1024, 1024, 1024, 0, 6, 3775, 3830, 3816, 3811, 3807, 3806, 0, 1, 15001, -89.900, 0.000, 58.900, 0.000, 0.000, -2.800, 0.0, , , , , , 98, , , 25, 25, 25
36.7672913, -118.8834270, 28.500, 13:03:08.777, 17, 0.00, 0.40, 98, -0.200, 0.000, 57.900, 430, 100, 97, 16, 22840, -19232, 5399, 5510, 10, 14, 1523736188.778, 26, 0, 1024, 1024, 1024, 1024, 0, 6, 3774, 3815, 3811, 3814, 3796, 3807, 0, 1, 15101, -89.900, 0.000, 58.900, 0.000, 0.000, -2.900, 0.0, , , , , , 98, , , 25, 25, 25
36.7672913, -118.8834270, 28.800, 13:03:08.878, 17, 0.00, 0.40, 98, -0.300, 0.000, 58.000, 430, 100, 97, 16, 22840, -19232, 5399, 5510, 10, 14, 1523736188.878, 23, 0, 1024, 1024, 1024, 1024, 0, 6, 3774, 3815, 3811, 3814, 3796, 3807, 0, 1, 15201, -89.900, 0.000, 58.900, 0.000, 0.000, -3.000, 0.0, , , , , , 98, , , 25, 25, 25
36.7672913, -118.8834270, 29.100, 13:03:08.978, 17, 0.00, 0.40, 98, -0.300, 0.000, 58.000, 430, 100, 97, 16, 22840, -19232, 5399, 5510, 10, 14, 1523736188.979, 40, 0, 1024, 1024, 1024, 1024, 0, 6, 3774, 3815, 3811, 3814, 3796, 3807, 0, 1, 15302, -89.900, 0.000, 58.900, 0.000, 0.000, -3.000, 0.0, , , , , , 98, , , 25, 25, 25
36.7672913, -118.8834270, 29.100, 13:03:09.078, 17, 0.00, 0.40, 98, -0.300, 0.000, 58.000, 430, 100, 97, 16, 22840, -19232, 5399, 5510, 10, 14, 1523736189.078, 138, 0, 1024, 1024, 1024, 1024, 0, 6, 3774, 3815, 3811, 3814, 3796, 3807, 0, 1, 15401, -89.900, 0.000, 58.900, 0.000, 0.000, -3.000, 0.0, , , , , , 98, , , 25, 25, 25
36.7672913, -118.8834270, 29.100, 13:03:09.178, 17, 0.00, 0.40, 98, -0.300, 0.000, 58.000, 430, 100, 97, 16, 22840, -19232, 5399, 5510, 10, 14, 1523736189.178, 239, 0, 1024, 1024, 1024, 1024, 0, 6, 3774, 3815, 3811, 3814, 3796, 3807, 0, 1, 15501, -89.900, 0.000, 58.900, 0.000, 0.000, -3.000, 0.0, , , , , , 98, , , 25, 25, 25
36.7672913, -118.8834268, 30.000, 13:03:09.293, 17, 0.00, 0.38, 98, -0.300, 0.500, 58.000, 430, 100, 97, 16, 22840, -19232, 5399, 5510, 10, 14, 1523736189.294, 9, 0, 1024, 1024, 1024, 1024, 0, 6, 3774, 3815, 3811, 3814, 3796, 3807, 0, 1, 15617, -89.900, 0.000, 58.900, 0.000, 0.000, -2.900, 0.0, , , , , , 98, , , 25, 25, 25
36.7672913, -118.8834267, 30.300, 13:03:09.383, 17, 0.00, 0.37, 98, -0.300, 0.600, 57.900, 430, 100, 97, 16, 22840, -19232, 5399, 5510, 10, 14, 1523736189.384, 5, 0, 1024, 1024, 1024, 1024, 0, 6, 3774, 3815, 3811, 3814, 3796, 3807, 0, 1, 15707, -89.900, 0.000, 58.900, 0.000, 0.000, -3.000, 0.0, , , , , , 98, , , 25, 25, 25
36.7672913, -118.8834267, 30.300, 13:03:09.477, 17, 0.00, 0.37, 98, -0.300, 0.600, 57.900, 430, 100, 97, 16, 22840, -19232, 5399, 5510, 10, 14, 1523736189.478, 99, 0, 1024, 1024, 1024, 1024, 0, 6, 3774, 3815, 3811, 3814, 3796, 3807, 0, 1, 15801, -89.900, 0.000, 58.900, 0.000, 0.000, -3.000, 0.0, , , , , , 98, , , 25, 25, 25
36.7672912, -118.8834266, 30.600, 13:03:09.577, 17, 0.00, 0.36, 98, -0.400, 0.700, 57.800, 430, 100, 97, 16, 22840, -19232, 5399, 5510, 10, 14, 1523736189.578, 64, 0, 1024, 1024, 1024, 1024, 0, 6, 3774, 3815, 3811, 3814, 3796, 3807, 0, 1, 15901, -89.900, 0.000, 58.900, 0.000, 0.000, -2.900, 0.0, , , , , , 98, , , 25, 25, 25
36.7672912, -118.8834266, 30.600, 13:03:09.678, 17, 0.00, 0.36, 98, -0.400, 0.700, 57.800, 430, 100, 97, 16, 22840, -19232, 5399, 5510, 10, 14, 1523736189.678, 165, 0, 1024, 1024, 1024, 1024, 0, 6, 3774, 3815, 3811, 3814, 3796, 3807, 0, 1, 16001, -89.900, 0.000, 58.900, 0.000, 0.000, -2.900, 0.0, , , , , , 98, , , 25, 25, 25
36.7672912, -118.8834265, 31.200, 13:03:09.778, 17, 0.00, 0.35, 98, -0.600, 0.500, 57.700, 430, 100, 97, 16, 22828, -19187, 5344, 5510, 10, 14, 1523736189.779, 86, 0, 1024, 1024, 1024, 1024, 0, 6, 3774, 3824, 3809, 3810, 3804, 3797, 0, 1, 16101, -89.900, 0.000, 58.900, 0.000, 0.000, -2.900, 0.0, , , , , , 98, , , 25, 25, 25
36.7672912, -118.8834264, 31.500, 13:03:09.878, 17, 0.00, 0.35, 98, -0.600, 0.400, 57.700, 430, 100, 96, 16, 22828, -19187, 5344, 5510, 10, 14, 1523736189.878, 89, 0, 1024, 1024, 1024, 1024, 0, 6, 3774, 3824, 3809, 3810, 3804, 3797, 0, 1, 16201, -89.900, 0.000, 58.900, 0.000, 0.000, -2.900, 0.0, , , , , , 98, , , 25, 25, 25
36.7672911, -118.8834264, 31.800, 13:03:09.978, 17, 0.00, 0.35, 98, -0.400, 0.300, 57.800, 430, 100, 96, 16, 22828, -19187, 5344, 5510, 10, 14, 1523736189.978, 91, 0, 1024, 1024, 1024, 1024, 0, 6, 3774, 3824, 3809, 3810, 3804, 3797, 0, 1, 16301, -89.900, 0.000, 58.900, 0.000, 0.000, -2.900, 0.0, , , , , , 98, , , 25, 25, 25
36.7672911, -118.8834264, 32.100, 13:03:10.078, 17, 0.00, 0.35, 98, -0.300, 0.200, 58.000, 430, 100, 96, 16, 22828, -19187, 5344, 5510, 10, 14, 1523736190.078, 62, 0, 1024, 1024, 1024, 1024, 0, 6, 3774, 3824, 3809, 3810, 3804, 3797, 0, 1, 16401, -90.000, 0.000, 58.900, 0.000, 0.000, -2.900, 0.0, , , , , , 98, , , 25, 25, 25
36.7672910, -118.8834264, 32.400, 13:03:10.177, 17, 0.00, 0.35, 98, -0.400, 0.000, 58.100, 430, 100, 96, 16, 22828, -19187, 5344, 5510, 10, 14, 1523736190.178, 68, 0, 1024, 1024, 1024, 1024, 0, 6, 3774, 3824, 3809, 3810, 3804, 3797, 0, 1, 16501, -90.000, 0.000, 58.900, 0.000, 0.000, -2.900, 0.0, , , , , , 98, , , 25, 25, 25
36.7672910, -118.8834263, 32.700, 13:03:10.278, 17, 0.00, 0.34, 97, -0.600, 0.000, 58.300, 430, 100, 96, 16, 22828, -19187, 5344, 5510, 10, 14, 1523736190.279, 31, 0, 1024, 1024, 1024, 1024, 0, 6, 3774, 3824, 3809, 3810, 3804, 3797, 0, 1, 16602, -89.900, 0.000, 58.900, 0.000, 0.000, -2.900, 0.0, , , , , , 98, , , 25, 25, 25
36.7672910, -118.8834263, 33.000, 13:03:10.378, 17, 0.00, 0.34, 97, -0.800, 0.000, 58.400, 430, 100, 95, 16, 22828, -19187, 5344, 5510, 10, 14, 1523736190.379, 69, 0, 1024, 1024, 1024, 1024, 0, 6, 3774, 3824, 3809, 3810, 3804, 3797, 0, 1, 16702, -89.900, 0.000, 58.900, 0.000, 0.000, -2.900, 0.0, , , , , , 98, , , 25, 25, 25
36.7672909, -118.8834263, 33.300, 13:03:10.478, 17, 0.00, 0.34, 97, -1.000, 0.100, 58.400, 430, 100, 95, 16, 22828, -19187, 5344, 5510, 10, 14, 1523736190.479, 60, 0, 1024, 1024, 1024, 1024, 0, 6, 3774, 3824, 3809, 3810, 3804, 3797, 0, 1, 16802, -89.900, 0.000, 58.900, 0.000, 0.000, -3.000, 0.0, , , , , , 98, , , 25, 25, 25
36.7672908, -118.8834262, 33.600, 13:03:10.578, 17, 0.00, 0.34, 97, -1.100, 0.100, 58.400, 430, 100, 95, 16, 22828, -19187, 5344, 5510, 10, 14, 1523736190.579, 46, 0, 1024, 1024, 1024, 1024, 0, 6, 3774, 3824, 3809, 3810, 3804, 3797, 0, 1, 16902, -89.900, 0.000, 58.900, 0.000, 0.000, -2.900, 0.0, , , , , , 98, , , 25, 25, 25
36.7672908, -118.8834261, 33.900, 13:03:10.678, 17, 0.00, 0.33, 97, -1.200, 0.200, 58.400, 430, 100, 95, 16, 22828, -19187, 5344, 5510, 10, 14, 1523736190.678, 35, 0, 1024, 1024, 1024, 1024, 0, 6, 3774, 3824, 3809, 3810, 3804, 3797, 0, 1, 17001, -89.900, 0.000, 58.900, 0.000, 0.000, -3.000, 0.0, , , , , , 98, , , 25, 25, 25
36.7672907, -118.8834260, 34.500, 13:03:10.778, 17, 0.00, 0.33, 97, -1.100, 0.300, 58.400, 430, 100, 95, 17, 22775, -19067, 5344, 5510, 10, 14, 1523736190.779, 36, 0, 1024, 1024, 1024, 1024, 0, 6, 3763, 3816, 3802, 3803, 3785, 3799, 0, 1, 17102, -89.900, 0.000, 58.900, 0.000, 0.000, -3.000, 0.0, , , , , , 98, , , 25, 25, 25
36.7672908, -118.8834260, 34.800, 13:03:10.878, 17, 0.00, 0.32, 97, -1.100, 0.300, 58.400, 430, 100, 91, 17, 22775, -19067, 5344, 5510, 10, 14, 1523736190.879, 33, 0, 1024, 1024, 1024, 1024, 0, 6, 3763, 3816, 3802, 3803, 3785, 3799, 0, 1, 17202, -89.900, 0.000, 58.900, 0.000, 0.000, -3.000, 0.0, , , , , , 98, , , 25, 25, 25
36.7672908, -118.8834260, 35.100, 13:03:10.978, 17, 0.00, 0.32, 97, -0.900, 0.300, 58.400, 430, 100, 91, 17, 22775, -19067, 5344, 5510, 10, 14, 1523736190.979, 40, 0, 1024, 1024, 1024, 1024, 0, 6, 3763, 3816, 3802, 3803, 3785, 3799, 0, 1, 17302, -89.900, 0.000, 58.900, 0.000, 0.000, -3.000, 0.0, , , , , , 98, , , 25, 25, 25
36.7672908, -118.8834260, 35.100, 13:03:11.078, 17, 0.00, 0.32, 97, -0.900, 0.300, 58.400, 430, 100, 91, 17, 22775, -19067, 5344, 5510, 10, 14, 1523736191.079, 140, 0, 1024, 1024, 1024, 1024, 0, 6, 3763, 3816, 3802, 3803, 3785, 3799, 0, 1, 17402, -89.900, 0.000, 58.900, 0.000, 0.000, -3.000, 0.0, , , , , , 98, , , 25, 25, 25
36.7672907, -118.8834259, 35.700, 13:03:11.178, 17, 0.00, 0.32, 97, -0.800, 0.400, 58.400, 430, 100, 91, 17, 22775, -19067, 5344, 5510, 10, 14, 1523736191.178, 19, 0, 1024, 1024, 1024, 1024, 0, 6, 3763, 3816, 3802, 3803, 3785, 3799, 0, 1, 17501, -89.900, 0.000, 58.900, 0.000, 0.000, -3.000, 0.0, , , , , , 98, , , 25, 25, 25
36.7672907, -118.8834259, 36.000, 13:03:11.278, 17, 0.00, 0.31, 97, -0.700, 0.500, 58.500, 430, 100, 93, 17, 22775, -19067, 5344, 5510, 10, 14, 1523736191.278, 45, 0, 1024, 1024, 1024, 1024, 0, 6, 3763, 3816, 3802, 3803, 3785, 3799, 0, 1, 17601, -89.900, 0.000, 58.900, 0.000, 0.000, -2.900, 0.0, , , , , , 98, , , 25, 25, 25
36.7672907, -118.8834259, 36.200, 13:03:11.378, 17, 0.00, 0.31, 97, -0.500, 0.700, 58.500, 430, 100, 93, 17, 22775, -19067, 5344, 5510, 10, 14, 1523736191.378, 11, 0, 1024, 1024, 1024, 1024, 0, 6, 3763, 3816, 3802, 3803, 3785, 3799, 0, 1, 17701, -89.900, 0.000, 58.900, 0.000, 0.000, -2.900, 0.0, , , , , , 98, , , 25, 25, 25
36.7672907, -118.8834258, 36.500, 13:03:11.478, 17, 0.00, 0.31, 97, -0.400, 0.800, 58.400, 430, 100, 93, 17, 22775, -19067, 5344, 5510, 10, 14, 1523736191.479, 13, 0, 1024, 1024, 1024, 1024, 0, 6, 3763, 3816, 3802, 3803, 3785, 3799, 0, 1, 17802, -89.900, 0.000, 58.900, 0.000, 0.000, -3.000, 0.0, , , , , , 98, , , 25, 25, 25
36.7672907, -118.8834258, 36.800, 13:03:11.578, 17, 0.00, 0.31, 97, -0.500, 0.700, 58.300, 430, 100, 93, 17, 22775, -19067, 5344, 5510, 10, 14, 1523736191.578, 14, 0, 1024, 1024, 1024, 1024, 0, 6, 3763, 3816, 3802, 3803, 3785, 3799, 0, 1, 17901, -89.900, 0.000, 58.900, 0.000, 0.000, -3.000, 0.0, , , , , , 98, , , 25, 25, 25
36.7672906, -118.8834258, 37.100, 13:03:11.678, 17, 0.00, 0.31, 97, -0.800, 0.500, 58.200, 430, 100, 93, 17, 22753, -18890, 5344, 5510, 10, 14, 1523736191.679, 18, 0, 1024, 1024, 1024, 1024, 0, 6, 3763, 3816, 3802, 3803, 3785, 3799, 0, 1, 18002, -89.900, 0.000, 58.900, 0.000, 0.000, -3.000, 0.0, , , , , , 98, , , 25, 25, 25
36.7672906, -118.8834257, 37.400, 13:03:11.778, 17, 0.00, 0.31, 97, -0.900, 0.400, 58.100, 430, 100, 91, 17, 22753, -18890, 5344, 5510, 10, 14, 1523736191.778, 19, 0, 1024, 1024, 1024, 1024, 0, 6, 3763, 3816, 3802, 3803, 3785, 3799, 0, 1, 18101, -89.900, 0.000, 58.900, 0.000, 0.000, -3.000, 0.0, , , , , , 98, , , 25, 25, 25
36.7672905, -118.8834257, 37.700, 13:03:11.878, 17, 0.00, 0.30, 97, -1.000, 0.400, 58.000, 430, 100, 91, 17, 22753, -18890, 5344, 5510, 10, 14, 1523736191.878, 21, 0, 1024, 1024, 1024, 1024, 0, 6, 3763, 3816, 3802, 3803, 3785, 3799, 0, 1, 18201, -89.900, 0.000, 58.900, 0.000, 0.000, -3.000, 0.0, , , , , , 98, , , 25, 25, 25
36.7672905, -118.8834257, 38.000, 13:03:11.989, 17, 0.00, 0.30, 97, -1.100, 0.400, 58.000, 430, 100, 91, 17, 22753, -18890, 5344, 5510, 10, 14, 1523736191.989, 9, 0, 1024, 1024, 1024, 1024, 0, 6, 3763, 3816, 3802, 3803, 3785, 3799, 0, 1, 18312, -89.900, 0.000, 58.900, 0.000, 0.000, -3.000, 0.0, , , , , , 98, , , 25, 25, 25
36.7672905, -118.8834257, 38.000, 13:03:12.078, 17, 0.00, 0.30, 97, -1.100, 0.400, 58.000, 430, 100, 91, 17, 22753, -18890, 5344, 5510, 10, 14, 1523736192.078, 98, 0, 1024, 1024, 1024, 1024, 0, 6, 3763, 3816, 3802, 3803, 3785, 3799, 0, 1, 18401, -89.900, 0.000, 58.900, 0.000, 0.000, -3.000, 0.0, , , , , , 98, , , 25, 25, 25
36.7672905, -118.8834257, 38.300, 13:03:12.178, 17, 0.00, 0.30, 97, -0.900, 0.400, 58.100, 430, 100, 91, 17, 22753, -18890, 5344, 5510, 10, 14, 1523736192.179, 83, 0, 1024, 1024, 1024, 1024, 0, 6, 3763, 3816, 3802, 3803, 3785, 3799, 0, 1, 18502, -89.900, 0.000, 58.900, 0.000, 0.000, -2.900, 0.0, , , , , , 98, , , 25, 25, 25
36.7672905, -118.8834257, 38.600, 13:03:12.278, 17, 0.00, 0.31, 97, -0.600, 0.500, 58.100, 430, 100, 91, 17, 22753, -18890, 5344, 5510, 10, 14, 1523736192.278, 88, 0, 1024, 1024, 1024, 1024, 0, 6, 3770, 3810, 3808, 3799, 3784, 3795, 0, 1, 18601, -89.900, 0.000, 58.900, 0.000, 0.000, -2.900, 0.0, , , , , , 98, , , 25, 25, 25
36.7672904, -118.8834257, 38.900, 13:03:12.378, 17, 0.00, 0.31, 97, -0.400, 0.600, 58.100, 430, 100, 95, 17, 22753, -18890, 5344, 5510, 10, 14, 1523736192.378, 73, 0, 1024, 1024, 1024, 1024, 0, 6, 3770, 3810, 3808, 3799, 3784, 3795, 0, 1, 18701, -89.900, 0.000, 58.900, 0.000, 0.000, -3.000, 0.0, , , , , , 98, , , 25, 25, 25
36.7672904, -118.8834257, 39.200, 13:03:12.478, 17, 0.00, 0.31, 97, -0.500, 0.500, 58.100, 430, 100, 95, 17, 22753, -18890, 5344, 5510, 10, 14, 1523736192.478, 71, 0, 1024, 1024, 1024, 1024, 0, 6, 3770, 3810, 3808, 3799, 3784, 3795, 0, 1, 18801, -90.000, 0.000, 58.900, 0.000, 0.000, -3.000, 0.0, , , , , , 98, , , 25, 25, 25
36.7672903, -118.8834257, 39.500, 13:03:12.577, 17, 0.00, 0.31, 97, -0.800, 0.400, 57.900, 430, 100, 95, 17, 22753, -18890, 5344, 5510, 10, 14, 1523736192.578, 93, 0, 1024, 1024, 1024, 1024, 0, 6, 3770, 3810, 3808, 3799, 3784, 3795, 0, 1, 18901, -89.900, 0.000, 58.900, 0.000, 0.000, -3.000, 0.0, , , , , , 98, , , 25, 25, 25
36.7672903, -118.8834256, 39.800, 13:03:12.678, 17, 0.00, 0.31, 97, -0.900, 0.300, 57.800, 430, 100, 95, 17, 22753, -18890, 5344, 5510, 10, 14, 1523736192.678, 53, 0, 1024, 1024, 1024, 1024, 0, 6, 3770, 3810, 3808, 3799, 3784, 3795, 0, 1, 19001, -89.900, 0.000, 58.900, 0.000, 0.000, -3.000, 0.0, , , , , , 98, , , 25, 25, 25
36.7672903, -118.8834256, 40.100, 13:03:12.778, 17, 0.00, 0.31, 97, -1.100, 0.300, 57.800, 430, 100, 95, 17, 22753, -18890, 5344, 5510, 10, 14, 1523736192.779, 48, 0, 1024, 1024, 1024, 1024, 0, 6, 3770, 3810, 3808, 3799, 3784, 3795, 0, 1, 19102, -89.900, 0.000, 58.800, 0.000, 0.000, -2.900, 0.0, , , , , , 98, , , 25, 25, 25
36.7672902, -118.8834256, 40.400, 13:03:12.878, 17, 0.00, 0.31, 97, -1.300, 0.200, 57.800, 430, 100, 95, 17, 22753, -18890, 5344, 5510, 10, 14, 1523736192.879, 50, 0, 1024, 1024, 1024, 1024, 0, 6, 3770, 3810, 3808, 3799, 3784, 3795, 0, 1, 19202, -90.000, 0.000, 58.900, 0.000, 0.000, -3.000, 0.0, , , , , , 98, , , 25, 25, 25
36.7672901, -118.8834256, 40.700, 13:03:12.978, 17, 0.00, 0.31, 97, -1.400, 0.100, 57.800, 430, 100, 95, 17, 22753, -18890, 5344, 5510, 10, 14, 1523736192.979, 49, 0, 1024, 1024, 1024, 1024, 0, 6, 3770, 3810, 3808, 3799, 3784, 3795, 0, 1, 19302, -90.000, 0.000, 58.900, 0.000, 0.000, -3.100, 0.0, , , , , , 98, , , 25, 25, 25
36.7672901, -118.8834255, 41.000, 13:03:13.078, 17, 0.00, 0.31, 97, -1.300, 0.100, 57.800, 430, 100, 95, 17, 22753, -18890, 5344, 5510, 10, 14, 1523736193.078, 57, 0, 1024, 1024, 1024, 1024, 0, 6, 3770, 3810, 3808, 3799, 3784, 3795, 0, 1, 19401, -89.900, 0.000, 58.900, 0.000, 0.000, -3.000, 0.0, , , , , , 98, , , 25, 25, 25
36.7672901, -118.8834255, 41.400, 13:03:13.178, 17, 0.00, 0.31, 97, -1.300, 0.200, 57.800, 430, 100, 95, 17, 22753, -18890, 5344, 5510, 10, 14, 1523736193.178, 34, 0, 1024, 1024, 1024, 1024, 0, 6, 3770, 3810, 3808, 3799, 3784, 3795, 0, 1, 19501, -89.900, 0.000, 58.900, 0.000, 0.000, -3.000, 0.0, , , , , , 98, , , 25, 25, 25
36.7672900, -118.8834255, 42.000, 13:03:13.278, 17, 0.00, 0.31, 97, -1.300, 0.000, 57.800, 430, 100, 96, 17, 22697, -19428, 5344, 5510, 10, 14, 1523736193.279, 44, 0, 1024, 1024, 1024, 1024, 0, 6, 3759, 3810, 3785, 3793, 3767, 3777, 0, 1, 19602, -90.000, 0.000, 58.900, 0.000, 0.000, -3.000, 0.0, , , , , , 98, , , 25, 25, 25
36.7672900, -118.8834255, 42.000, 13:03:13.378, 17, 0.00, 0.31, 97, -1.300, 0.000, 57.800, 430, 100, 96, 17, 22697, -19428, 5344, 5510, 10, 14, 1523736193.378, 143, 0, 1024, 1024, 1024, 1024, 0, 6, 3759, 3810, 3785, 3793, 3767, 3777, 0, 1, 19701, -89.900, 0.000, 58.800, 0.000, 0.000, -3.000, 0.0, , , , , , 98, , , 25, 25, 25
36.7672900, -118.8834255, 42.600, 13:03:13.478, 17, 0.00, 0.31, 97, -1.200, 0.200, 57.800, 430, 100, 96, 17, 22697, -19428, 5344, 5510, 10, 14, 1523736193.479, 25, 0, 1024, 1024, 1024, 1024, 0, 6, 3759, 3810, 3785, 3793, 3767, 3777, 0, 1, 19802, -89.900, 0.000, 58.900, 0.000, 0.000, -3.000, 0.0, , , , , , 98, , , 25, 25, 25
36.7672900, -118.8834255, 42.900, 13:03:13.577, 17, 0.00, 0.32, 97, -1.100, 0.200, 57.800, 430, 100, 96, 17, 22697, -19428, 5344, 5510, 10, 14, 1523736193.578, 7, 0, 1024, 1024, 1024, 1024, 0, 6, 3759, 3810, 3785, 3793, 3767, 3777, 0, 1, 19901, -89.900, 0.000, 58.900, 0.000, 0.000, -3.000, 0.0, , , , , , 98, , , 25, 25, 25
36.7672900, -118.8834255, 42.900, 13:03:13.678, 17, 0.00, 0.32, 97, -1.100, 0.200, 57.800, 430, 100, 96, 17, 22697, -19428, 5344, 5510, 10, 14, 1523736193.678, 107, 0, 1024, 1024, 1024, 1024, 0, 6, 3759, 3810, 3785, 3793, 3767, 3777, 0, 1, 20001, -89.900, 0.000, 58.900, 0.000, 0.000, -3.000, 0.0, , , , , , 98, , , 25, 25, 25
36.7672899, -118.8834254, 43.500, 13:03:13.778, 17, 0.00, 0.31, 97, -1.200, 0.100, 58.000, 430, 100, 96, 17, 22697, -19428, 5344, 5510, 10, 14, 1523736193.778, 18, 0, 1024, 1024, 1024, 1024, 0, 6, 3759, 3810, 3785, 3793, 3767, 3777, 0, 1, 20101, -89.900, 0.000, 58.900, 0.000, 0.000, -3.000, 0.0, , , , , , 98, , , 25, 25, 25
36.7672899, -118.8834254, 43.800, 13:03:13.878, 17, 0.00, 0.31, 97, -1.200, 0.000, 58.000, 430, 100, 96, 17, 22697, -19428, 5344, 5510, 10, 14, 1523736193.878, 27, 0, 1024, 1024, 1024, 1024, 0, 6, 3759, 3810, 3785, 3793, 3767, 3777, 0, 1, 20201, -90.000, 0.000, 58.900, 0.000, 0.000, -2.900, 0.0, , , , , , 98, , , 25, 25, 25
36.7672899, -118.8834254, 43.800, 13:03:13.978, 17, 0.00, 0.31, 97, -1.200, 0.000, 58.000, 430, 100, 96, 17, 22697, -19428, 5344, 5510, 10, 14, 1523736193.979, 127, 0, 1024, 1024, 1024, 1024, 0, 6, 3759, 3810, 3785, 3793, 3767, 3777, 0, 1, 20302, -90.000, 0.000, 58.900, 0.000, 0.000, -2.900, 0.0, , , , , , 98, , , 25, 25, 25
36.7672900, -118.8834254, 44.400, 13:03:14.078, 17, 0.00, 0.31, 97, -1.000, 0.000, 58.100, 430, 100, 96, 17, 22697, -19428, 5344, 5510, 10, 14, 1523736194.078, 23, 0, 1024, 1024, 1024, 1024, 0, 6, 3759, 3810, 3785, 3793, 3767, 3777, 0, 1, 20401, -89.900, 0.000, 58.900, 0.000, 0.000, -3.000, 0.0, , , , , , 98, , , 25, 25, 25
36.7672900, -118.8834255, 44.700, 13:03:14.177, 17, 0.00, 0.31, 97, -0.900, 0.100, 58.200, 430, 100, 96, 17, 22697, -19428, 5344, 5510, 10, 14, 1523736194.179, 10, 0, 1024, 1024, 1024, 1024, 0, 6, 3759, 3810, 3785, 3793, 3767, 3777, 0, 1, 20501, -89.900, 0.000, 58.900, 0.000, 0.000, -3.000, 0.0, , , , , , 98, , , 25, 25, 25
36.7672900, -118.8834255, 45.000, 13:03:14.278, 17, 0.00, 0.31, 97, -0.700, 0.100, 58.200, 430, 100, 96, 17, 22697, -19428, 5344, 5510, 10, 14, 1523736194.278, 13, 0, 1024, 1024, 1024, 1024, 0, 6, 3759, 3810, 3785, 3793, 3767, 3777, 0, 1, 20601, -89.900, 0.000, 58.900, 0.000, 0.000, -3.000, 0.0, , , , , , 98, , , 25, 25, 25
36.7672900, -118.8834255, 45.000, 13:03:14.378, 17, 0.00, 0.31, 97, -0.700, 0.100, 58.200, 430, 100, 96, 17, 22697, -19428, 5344, 5510, 10, 14, 1523736194.379, 113, 0, 1024, 1024, 1024, 1024, 0, 6, 3759, 3810, 3785, 3793, 3767, 3777, 0, 1, 20702, -89.900, 0.000, 58.900, 0.000, 0.000, -3.000, 0.0, , , , , , 98, , , 25, 25, 25
36.7672900, -118.8834255, 45.300, 13:03:14.478, 17, 0.00, 0.31, 97, -0.700, 0.000, 58.200, 430, 100, 96, 17, 22697, -19428, 5344, 5510, 10, 14, 1523736194.478, 45, 0, 1024, 1024, 1024, 1024, 0, 6, 3759, 3810, 3785, 3793, 3767, 3777, 0, 1, 20801, -89.900, 0.000, 58.900, 0.000, 0.000, -3.000, 0.0, , , , , , 98, , , 25, 25, 25
36.7672901, -118.8834255, 45.600, 13:03:14.578, 17, 0.00, 0.31, 97, -0.700, 0.000, 58.200, 430, 100, 96, 17, 22697, -19428, 5344, 5510, 10, 14, 1523736194.578, 78, 0, 1024, 1024, 1024, 1024, 0, 6, 3759, 3810, 3785, 3793, 3767, 3777, 0, 1, 20901, -89.900, 0.000, 58.900, 0.000, 0.000, -3.000, 0.0, , , , , , 98, , , 25, 25, 25
36.7672901, -118.8834255, 45.900, 13:03:14.678, 17, 0.00, 0.31, 97, -0.700, 0.100, 58.200, 430, 100, 96, 17, 22697, -19428, 5344, 5510, 10, 14, 1523736194.678, 75, 0, 1024, 1024, 1024, 1024, 0, 6, 3759, 3810, 3785, 3793, 3767, 3777, 0, 1, 21001, -89.900, 0.000, 58.900, 0.000, 0.000, -3.000, 0.0, , , , , , 98, , , 25, 25, 25
36.7672901, -118.8834255, 46.200, 13:03:14.777, 17, 0.00, 0.31, 97, -0.700, 0.300, 58.200, 430, 100, 96, 17, 22724, -18727, 5344, 5510, 10, 14, 1523736194.778, 70, 0, 1024, 1024, 1024, 1024, 0, 6, 3754, 3804, 3812, 3791, 3785, 3786, 0, 1, 21101, -89.900, 0.000, 58.900, 0.000, 0.000, -2.900, 0.0, , , , , , 98, , , 25, 25, 25
