Latitude, Longitude, Altitude (m), Time, Sats, Speed (m/s), Range (m), Battery (%), Roll (deg), Pitch (deg), Yaw (deg), Images, HD Signal (%), RC Signal (%), Battery Temp (C), Battery Voltage (mV), Battery Current (mA), Battery Energy (mAh), Battery Capacity (mAh), Battery Discharges, flyState, timestamp (Unix), LastUpdate (ms), radioChannel, Rc_elevator, Rc_aileron, Rc_throttle, Rc_rudder, Rc_gyro, Dronetype, Battery_Cell1 (mV), Battery_Cell2 (mV), Battery_Cell3 (mV), Battery_Cell4 (mV), Battery_Cell5 (mV), Battery_Cell6 (mV), Video, isFlying, elapsedTime (ms), gimbalPitch (deg), gimbalRoll (deg), gimbalYaw (deg), VelocityX (m/s), VelocityY (m/s), VelocityZ (m/s), GroundSmear (cm), App Version, Aircraft Name, Aircraft Firmware, Aircraft Serial Number, Battery Serial Number, Battery Lifetime (%), App_Tip, App_Warning, CurrentFlightStartingIndex, CurrentFlightLastVisitedWaypoint, PreviousFlightEndingWaypointIndex
36.7673011, -118.8833861, 0.000, 13:21:56.460, 11, 0.10, 0.14, 100, 0.400, 0.700, 65.900, 640, 100, 100, 16, 25088, -3791, 5548, 5548, 8, 11, 1523737316.460, 84, 0, 1024, 1024, 1024, 1024, 0, 6, 4211, 4198, 4205, 4180, 4217, 4205, 0, 1, 3029, -89.900, 0.000, 64.000, 0.000, -0.100, -0.100, 0.0, MapPilot_2.7.4_02272018, Dendroctonus I, 1.3.1.00, 041DDC1887, 1058163200627, 98, DJI_0636.jpg, Starting Mission from Lat/Long: 36.76728/-118.88339 Camera: Zenmuse X3 - Overlap: 90/90 - Active Connection: Yes, 37, 37, 37
36.7673012, -118.8833863, 0.000, 13:21:56.531, 11, 0.10, 0.16, 100, 0.400, 0.000, 66.100, 640, 100, 100, 16, 25088, -3791, 5548, 5548, 8, 11, 1523737316.532, 34, 0, 1024, 1024, 1024, 1024, 0, 6, 4211, 4198, 4205, 4180, 4217, 4205, 0, 1, 3100, -89.900, 0.000, 64.000, 0.000, -0.100, -0.200, 0.0, , , , , , 98, , , 37, 37, 37
36.7673013, -118.8833864, 0.000, 13:21:56.632, 11, 0.10, 0.17, 100, 0.000, -0.300, 66.100, 640, 100, 100, 16, 25088, -3791, 5548, 5548, 8, 11, 1523737316.633, 39, 0, 1024, 1024, 1024, 1024, 0, 6, 4211, 4198, 4205, 4180, 4217, 4205, 0, 1, 3201, -90.000, 0.000, 64.100, 0.000, -0.100, -0.300, 0.0, , , , , , 98, , , 37, 37, 37
36.7673014, -118.8833866, 0.000, 13:21:56.731, 11, 0.00, 0.19, 100, 0.000, -0.400, 66.000, 640, 100, 100, 16, 25088, -3791, 5548, 5548, 8, 11, 1523737316.732, 42, 0, 1024, 1024, 1024, 1024, 0, 6, 4211, 4198, 4205, 4180, 4217, 4205, 0, 1, 3301, -89.900, 0.000, 64.100, 0.000, 0.000, -0.300, 0.0, , , , , , 98, , , 37, 37, 37
36.7673015, -118.8833867, 0.100, 13:21:56.832, 11, 0.00, 0.21, 100, 0.400, -0.400, 65.800, 640, 100, 100, 16, 24804, -5315, 5548, 5548, 8, 11, 1523737316.833, 35, 0, 1024, 1024, 1024, 1024, 0, 6, 4211, 4198, 4205, 4180, 4217, 4205, 0, 1, 3401, -89.900, 0.000, 64.100, 0.000, 0.000, -0.300, 0.0, , , , , , 98, , , 37, 37, 37
36.7673017, -118.8833867, 0.100, 13:21:56.932, 11, 0.00, 0.23, 100, 0.600, -0.300, 65.700, 640, 100, 100, 16, 24804, -5315, 5548, 5548, 8, 11, 1523737316.932, 9, 0, 1024, 1024, 1024, 1024, 0, 6, 4069, 4056, 4072, 4078, 4127, 4069, 0, 1, 3501, -89.900, 0.000, 64.100, 0.000, 0.000, -0.400, 0.0, , , , , , 98, , , 37, 37, 37
36.7673019, -118.8833867, 0.200, 13:21:57.031, 11, 0.10, 0.25, 100, 1.100, 0.000, 65.600, 640, 100, 100, 16, 24804, -5315, 5548, 5548, 8, 11, 1523737317.032, 9, 0, 1024, 1024, 1024, 1024, 0, 6, 4069, 4056, 4072, 4078, 4127, 4069, 0, 1, 3600, -89.900, 0.000, 64.100, 0.100, 0.000, -0.400, 0.0, , , , , , 98, , , 37, 37, 37
36.7673022, -118.8833868, 0.300, 13:21:57.131, 11, 0.10, 0.27, 100, 1.200, 0.200, 65.500, 640, 100, 100, 16, 24804, -5315, 5548, 5548, 8, 11, 1523737317.132, 5, 0, 1024, 1024, 1024, 1024, 0, 6, 4069, 4056, 4072, 4078, 4127, 4069, 0, 1, 3701, -89.900, 0.000, 64.200, 0.100, 0.000, -0.400, 0.0, , , , , , 98, , , 37, 37, 37
36.7673024, -118.8833867, 0.300, 13:21:57.232, 11, 0.10, 0.29, 100, 1.400, 0.700, 65.400, 640, 100, 100, 16, 24804, -5315, 5548, 5548, 8, 11, 1523737317.232, 21, 0, 1024, 1024, 1024, 1024, 0, 6, 4069, 4056, 4072, 4078, 4127, 4069, 0, 1, 3801, -89.900, 0.000, 64.200, 0.100, 0.000, -0.400, 0.0, , , , , , 98, , , 37, 37, 37
36.7673025, -118.8833867, 0.400, 13:21:57.335, 11, 0.10, 0.30, 100, 1.700, 1.300, 65.400, 640, 100, 100, 16, 24804, -5315, 5548, 5548, 8, 11, 1523737317.335, 3, 0, 1024, 1024, 1024, 1024, 0, 6, 4069, 4056, 4072, 4078, 4127, 4069, 0, 1, 3904, -89.900, 0.000, 64.200, 0.100, 0.000, -0.400, 0.0, , , , , , 98, , , 37, 37, 37
36.7673025, -118.8833867, 0.400, 13:21:57.432, 11, 0.10, 0.30, 100, 1.700, 1.300, 65.400, 640, 100, 100, 16, 24804, -5315, 5548, 5548, 8, 11, 1523737317.433, 101, 0, 1024, 1024, 1024, 1024, 0, 6, 4069, 4056, 4072, 4078, 4127, 4069, 0, 1, 4001, -89.900, 0.000, 64.200, 0.100, 0.000, -0.400, 0.0, , , , , , 98, , , 37, 37, 37
36.7673027, -118.8833866, 0.400, 13:21:57.531, 9, 0.00, 0.32, 100, 1.900, 1.700, 65.400, 640, 100, 100, 16, 24804, -5315, 5548, 5548, 8, 11, 1523737317.532, 88, 0, 1024, 1024, 1024, 1024, 0, 6, 4069, 4056, 4072, 4078, 4127, 4069, 0, 1, 4100, -89.900, 0.000, 64.200, 0.000, 0.000, -0.400, 0.0, , , , , , 98, , , 37, 37, 37
36.7673028, -118.8833866, 0.500, 13:21:57.632, 9, 0.00, 0.33, 100, 2.000, 1.800, 65.500, 640, 100, 100, 16, 24804, -5315, 5548, 5548, 8, 11, 1523737317.633, 91, 0, 1024, 1024, 1024, 1024, 0, 6, 4069, 4056, 4072, 4078, 4127, 4069, 0, 1, 4201, -89.900, 0.000, 64.200, 0.000, 0.000, -0.400, 0.0, , , , , , 98, , , 37, 37, 37
36.7673028, -118.8833865, 0.500, 13:21:57.732, 10, 0.00, 0.33, 100, 1.800, 2.000, 65.700, 640, 100, 100, 16, 24804, -5315, 5548, 5548, 8, 11, 1523737317.732, 94, 0, 1024, 1024, 1024, 1024, 0, 6, 4069, 4056, 4072, 4078, 4127, 4069, 0, 1, 4301, -89.900, 0.000, 64.300, 0.000, 0.000, -0.400, 0.0, , , , , , 98, , , 37, 37, 37
36.7673029, -118.8833865, 0.600, 13:21:57.832, 10, 0.00, 0.33, 100, 1.400, 1.800, 65.900, 640, 100, 100, 16, 24804, -5315, 5548, 5548, 8, 11, 1523737317.833, 65, 0, 1024, 1024, 1024, 1024, 0, 6, 4069, 4056, 4072, 4078, 4127, 4069, 0, 1, 4401, -89.900, 0.000, 64.300, 0.000, 0.000, -0.400, 0.0, , , , , , 98, , , 37, 37, 37
36.7673029, -118.8833864, 0.600, 13:21:57.932, 11, 0.00, 0.33, 100, 1.000, 1.700, 66.100, 640, 100, 100, 16, 23498, -15664, 5548, 5548, 8, 11, 1523737317.932, 67, 0, 1024, 1024, 1024, 1024, 0, 6, 4069, 4056, 4072, 4078, 4127, 4069, 0, 1, 4501, -89.900, 0.000, 64.300, 0.000, 0.000, -0.400, 0.0, , , , , , 98, , , 37, 37, 37
36.7673029, -118.8833864, 0.700, 13:21:58.031, 11, 0.00, 0.33, 100, 0.800, 1.500, 66.100, 640, 100, 100, 16, 23498, -15664, 5548, 5548, 8, 11, 1523737318.032, 96, 0, 1024, 1024, 1024, 1024, 0, 6, 3893, 3886, 3893, 3907, 3932, 3899, 0, 1, 4600, -89.900, 0.000, 64.300, 0.000, 0.000, -0.400, 0.0, , , , , , 98, , , 37, 37, 37
36.7673030, -118.8833863, 0.800, 13:21:58.132, 11, 0.10, 0.34, 100, 1.200, 1.500, 65.700, 640, 100, 100, 16, 23498, -15664, 5548, 5548, 8, 11, 1523737318.133, 82, 0, 1024, 1024, 1024, 1024, 0, 6, 3893, 3886, 3893, 3907, 3932, 3899, 0, 1, 4701, -89.900, 0.000, 64.300, 0.000, 0.100, -0.400, 0.1, , , , , , 98, , , 37, 37, 37
36.7673030, -118.8833863, 0.800, 13:21:58.232, 11, 0.10, 0.34, 100, 1.200, 1.500, 65.700, 640, 100, 100, 16, 23498, -15664, 5548, 5548, 8, 11, 1523737318.232, 182, 0, 1024, 1024, 1024, 1024, 0, 6, 3893, 3886, 3893, 3907, 3932, 3899, 0, 1, 4801, -89.900, 0.000, 64.300, 0.000, 0.100, -0.400, 0.1, , , , , , 98, , , 37, 37, 37
36.7673030, -118.8833862, 0.800, 13:21:58.332, 11, 0.10, 0.34, 100, 1.600, 1.600, 65.300, 640, 100, 100, 16, 23498, -15664, 5548, 5548, 8, 11, 1523737318.332, 66, 0, 1024, 1024, 1024, 1024, 0, 6, 3893, 3886, 3893, 3907, 3932, 3899, 0, 1, 4901, -89.900, 0.000, 64.300, 0.000, 0.100, -0.400, 0.1, , , , , , 98, , , 37, 37, 37
36.7673030, -118.8833862, 0.800, 13:21:58.432, 11, 0.10, 0.34, 100, 1.600, 1.600, 65.300, 640, 100, 100, 16, 23498, -15664, 5548, 5548, 8, 11, 1523737318.433, 166, 0, 1024, 1024, 1024, 1024, 0, 6, 3893, 3886, 3893, 3907, 3932, 3899, 0, 1, 5001, -89.900, 0.000, 64.300, 0.000, 0.100, -0.400, 0.1, , , , , , 98, , , 37, 37, 37
36.7673029, -118.8833858, 0.900, 13:21:58.531, 10, 0.14, 0.32, 100, 1.200, 2.100, 65.000, 640, 100, 100, 16, 23498, -15664, 5548, 5548, 8, 14, 1523737318.532, 38, 0, 1024, 1024, 1024, 1024, 0, 6, 3893, 3886, 3893, 3907, 3932, 3899, 0, 1, 5100, -89.900, 0.000, 64.400, -0.100, 0.100, -0.400, 0.1, , , , , , 98, , , 37, 37, 37
36.7673029, -118.8833857, 1.000, 13:21:58.632, 10, 0.14, 0.32, 100, -0.400, 2.100, 64.800, 640, 100, 100, 16, 23498, -15664, 5548, 5548, 8, 14, 1523737318.632, 85, 0, 1024, 1024, 1024, 1024, 0, 6, 3893, 3886, 3893, 3907, 3932, 3899, 0, 1, 5201, -89.900, 0.000, 64.400, -0.100, 0.100, -0.300, 0.1, , , , , , 98, , , 37, 37, 37
36.7673028, -118.8833855, 1.000, 13:21:58.732, 11, 0.14, 0.31, 100, -2.000, 1.800, 64.700, 640, 100, 100, 16, 23498, -15664, 5548, 5548, 8, 14, 1523737318.733, 68, 0, 1024, 1024, 1024, 1024, 0, 6, 3893, 3886, 3893, 3907, 3932, 3899, 0, 1, 5301, -89.900, 0.000, 64.400, -0.100, 0.100, -0.200, 0.1, , , , , , 98, , , 37, 37, 37
36.7673026, -118.8833852, 1.100, 13:21:58.832, 10, 0.10, 0.29, 100, -2.200, 2.000, 64.600, 640, 100, 100, 16, 23231, -16661, 5548, 5548, 8, 14, 1523737318.833, 66, 0, 1024, 1024, 1024, 1024, 0, 6, 3850, 3852, 3866, 3872, 3893, 3860, 0, 1, 5402, -89.900, 0.000, 64.400, 0.000, 0.100, -0.400, 0.1, , , , , , 98, , , 37, 37, 37
36.7673026, -118.8833850, 1.100, 13:21:58.932, 10, 0.10, 0.30, 100, -1.800, 2.300, 64.700, 640, 100, 99, 16, 23231, -16661, 5548, 5548, 8, 14, 1523737318.933, 54, 0, 1024, 1024, 1024, 1024, 0, 6, 3850, 3852, 3866, 3872, 3893, 3860, 0, 1, 5501, -89.900, 0.000, 64.400, 0.000, 0.100, -0.400, 0.1, , , , , , 98, , , 37, 37, 37
36.7673027, -118.8833848, 1.200, 13:21:59.032, 9, 0.10, 0.30, 100, -1.300, 2.600, 64.800, 640, 100, 99, 16, 23231, -16661, 5548, 5548, 8, 14, 1523737319.033, 44, 0, 1024, 1024, 1024, 1024, 0, 6, 3850, 3852, 3866, 3872, 3893, 3860, 0, 1, 5601, -89.900, 0.000, 64.400, 0.000, 0.100, -0.500, 0.1, , , , , , 98, , , 37, 37, 37
36.7673026, -118.8833847, 1.200, 13:21:59.132, 9, 0.10, 0.30, 100, -1.200, 2.700, 64.800, 640, 100, 99, 16, 23231, -16661, 5548, 5548, 8, 14, 1523737319.133, 44, 0, 1024, 1024, 1024, 1024, 0, 6, 3850, 3852, 3866, 3872, 3893, 3860, 0, 1, 5701, -89.900, 0.000, 64.400, 0.000, 0.100, -0.800, 0.1, , , , , , 98, , , 37, 37, 37
36.7673026, -118.8833846, 1.300, 13:21:59.232, 9, 0.10, 0.30, 100, -1.400, 2.600, 64.900, 640, 100, 99, 16, 23231, -16661, 5548, 5548, 8, 14, 1523737319.233, 28, 0, 1024, 1024, 1024, 1024, 0, 6, 3850, 3852, 3866, 3872, 3893, 3860, 0, 1, 5801, -89.900, 0.000, 64.400, 0.000, 0.100, -0.900, 0.1, , , , , , 98, , , 37, 37, 37
36.7673027, -118.8833844, 1.400, 13:21:59.332, 9, 0.00, 0.31, 100, -1.800, 2.500, 64.900, 640, 100, 99, 16, 23231, -16661, 5548, 5548, 8, 14, 1523737319.333, 38, 0, 1024, 1024, 1024, 1024, 0, 6, 3850, 3852, 3866, 3872, 3893, 3860, 0, 1, 5901, -89.900, 0.000, 64.400, 0.000, 0.000, -1.100, 0.0, , , , , , 98, , , 37, 37, 37
36.7673028, -118.8833842, 1.600, 13:21:59.433, 10, 0.00, 0.33, 100, -1.700, 2.500, 65.000, 640, 100, 99, 16, 23231, -16661, 5548, 5548, 8, 14, 1523737319.434, 14, 0, 1024, 1024, 1024, 1024, 0, 6, 3850, 3852, 3866, 3872, 3893, 3860, 0, 1, 6003, -90.000, 0.000, 64.400, 0.000, 0.000, -1.400, 0.0, , , , , , 98, , , 37, 37, 37
36.7673030, -118.8833841, 1.700, 13:21:59.550, 10, 0.00, 0.35, 100, -1.300, 2.700, 65.000, 640, 100, 99, 16, 23231, -16661, 5548, 5548, 8, 14, 1523737319.551, 4, 0, 1024, 1024, 1024, 1024, 0, 6, 3850, 3852, 3866, 3872, 3893, 3860, 0, 1, 6120, -90.000, 0.000, 64.400, 0.000, 0.000, -1.600, 0.0, , , , , , 98, , , 37, 37, 37
36.7673031, -118.8833839, 1.900, 13:21:59.647, 9, 0.00, 0.36, 100, -0.800, 3.000, 64.900, 640, 100, 99, 16, 23231, -16661, 5548, 5548, 8, 14, 1523737319.648, 21, 0, 1024, 1024, 1024, 1024, 0, 6, 3850, 3852, 3866, 3872, 3893, 3860, 0, 1, 6216, -89.900, 0.000, 64.400, 0.000, 0.000, -1.800, 0.0, , , , , , 98, , , 37, 37, 37
36.7673031, -118.8833839, 1.900, 13:21:59.732, 9, 0.00, 0.36, 100, -0.800, 3.000, 64.900, 640, 100, 99, 16, 23231, -16661, 5548, 5548, 8, 14, 1523737319.733, 106, 0, 1024, 1024, 1024, 1024, 0, 6, 3850, 3852, 3866, 3872, 3893, 3860, 0, 1, 6301, -89.900, 0.000, 64.400, 0.000, 0.000, -1.800, 0.0, , , , , , 98, , , 37, 37, 37
36.7673032, -118.8833837, 2.300, 13:21:59.833, 11, 0.00, 0.38, 100, -0.500, 3.300, 64.700, 640, 100, 99, 16, 23373, -16720, 5437, 5548, 8, 14, 1523737319.834, 8, 0, 1024, 1024, 1024, 1024, 0, 6, 3850, 3852, 3866, 3872, 3893, 3860, 0, 1, 6402, -89.900, 0.000, 64.400, 0.000, 0.000, -2.200, 0.0, , , , , , 98, , , 37, 37, 37
36.7673033, -118.8833836, 2.500, 13:21:59.932, 11, 0.00, 0.40, 100, 0.100, 3.600, 64.600, 640, 100, 99, 16, 23373, -16720, 5437, 5548, 8, 14, 1523737319.933, 20, 0, 1024, 1024, 1024, 1024, 0, 6, 3850, 3852, 3866, 3872, 3893, 3860, 0, 1, 6501, -89.900, 0.000, 64.400, 0.000, 0.000, -2.400, 0.0, , , , , , 98, , , 37, 37, 37
36.7673033, -118.8833836, 2.500, 13:22:00.041, 11, 0.00, 0.40, 100, 0.100, 3.600, 64.600, 640, 100, 99, 16, 23373, -16720, 5437, 5548, 8, 14, 1523737320.042, 129, 0, 1024, 1024, 1024, 1024, 0, 6, 3850, 3852, 3866, 3872, 3893, 3860, 0, 1, 6610, -89.900, 0.000, 64.400, 0.000, 0.000, -2.400, 0.0, , , , , , 98, , , 37, 37, 37
36.7673034, -118.8833835, 2.800, 13:22:00.133, 12, 0.00, 0.41, 100, 0.400, 3.700, 64.700, 640, 100, 99, 16, 23373, -16720, 5437, 5548, 8, 14, 1523737320.133, 71, 0, 1024, 1024, 1024, 1024, 0, 6, 3825, 3805, 3878, 3863, 3854, 3873, 0, 1, 6702, -89.900, 0.000, 64.400, 0.000, 0.000, -2.700, 0.0, , , , , , 98, , , 37, 37, 37
36.7673035, -118.8833834, 3.100, 13:22:00.232, 12, 0.00, 0.42, 100, 0.000, 3.600, 64.800, 640, 100, 99, 16, 23373, -16720, 5437, 5548, 8, 14, 1523737320.233, 49, 0, 1024, 1024, 1024, 1024, 0, 6, 3825, 3805, 3878, 3863, 3854, 3873, 0, 1, 6801, -89.900, 0.000, 64.400, 0.000, 0.000, -2.800, 0.0, , , , , , 98, , , 37, 37, 37
36.7673034, -118.8833834, 3.400, 13:22:00.332, 12, 0.00, 0.42, 100, -0.500, 3.300, 65.000, 640, 100, 99, 16, 23373, -16720, 5437, 5548, 8, 14, 1523737320.333, 72, 0, 1024, 1024, 1024, 1024, 0, 6, 3825, 3805, 3878, 3863, 3854, 3873, 0, 1, 6902, -90.000, 0.000, 64.400, 0.000, 0.000, -3.000, 0.0, , , , , , 98, , , 37, 37, 37
36.7673034, -118.8833834, 3.400, 13:22:00.431, 12, 0.00, 0.42, 100, -0.500, 3.300, 65.000, 640, 100, 99, 16, 23373, -16720, 5437, 5548, 8, 14, 1523737320.432, 170, 0, 1024, 1024, 1024, 1024, 0, 6, 3825, 3805, 3878, 3863, 3854, 3873, 0, 1, 7000, -90.000, 0.000, 64.400, 0.000, 0.000, -3.000, 0.0, , , , , , 98, , , 37, 37, 37
36.7673034, -118.8833834, 3.400, 13:22:00.532, 12, 0.00, 0.42, 100, -0.500, 3.300, 65.000, 640, 100, 99, 16, 23373, -16720, 5437, 5548, 8, 14, 1523737320.533, 271, 0, 1024, 1024, 1024, 1024, 0, 6, 3825, 3805, 3878, 3863, 3854, 3873, 0, 1, 7101, -90.000, 0.000, 64.400, 0.000, 0.000, -3.000, 0.0, , , , , , 98, , , 37, 37, 37
36.7673032, -118.8833836, 4.100, 13:22:00.631, 11, 0.00, 0.39, 100, -1.200, 2.300, 65.100, 640, 100, 100, 16, 23373, -16720, 5437, 5548, 8, 14, 1523737320.632, 86, 0, 1024, 1024, 1024, 1024, 0, 6, 3825, 3805, 3878, 3863, 3854, 3873, 0, 1, 7201, -90.000, 0.000, 64.400, 0.000, 0.000, -3.300, 0.0, , , , , , 98, , , 37, 37, 37
36.7673030, -118.8833837, 4.400, 13:22:00.732, 11, 0.00, 0.37, 100, -1.600, 1.900, 64.900, 640, 100, 100, 16, 23373, -16720, 5437, 5548, 8, 14, 1523737320.732, 65, 0, 1024, 1024, 1024, 1024, 0, 6, 3825, 3805, 3878, 3863, 3854, 3873, 0, 1, 7301, -90.000, 0.000, 64.400, 0.000, 0.000, -3.400, 0.0, , , , , , 98, , , 37, 37, 37
36.7673028, -118.8833840, 5.100, 13:22:00.867, 11, 0.00, 0.34, 100, -1.900, 1.100, 64.600, 640, 100, 100, 16, 23373, -16720, 5437, 5548, 8, 14, 1523737320.868, 10, 0, 1024, 1024, 1024, 1024, 0, 6, 3825, 3805, 3878, 3863, 3854, 3873, 0, 1, 7437, -90.000, 0.000, 64.400, 0.000, 0.000, -3.400, 0.0, , , , , , 98, , , 37, 37, 37
36.7673028, -118.8833840, 5.100, 13:22:00.931, 11, 0.00, 0.34, 100, -1.900, 1.100, 64.600, 640, 100, 100, 16, 23373, -16720, 5437, 5548, 8, 14, 1523737320.933, 74, 0, 1024, 1024, 1024, 1024, 0, 6, 3825, 3805, 3878, 3863, 3854, 3873, 0, 1, 7501, -90.000, 0.000, 64.400, 0.000, 0.000, -3.400, 0.0, , , , , , 98, , , 37, 37, 37
36.7673028, -118.8833840, 5.100, 13:22:01.031, 11, 0.00, 0.34, 100, -1.900, 1.100, 64.600, 640, 100, 100, 16, 23373, -16720, 5437, 5548, 8, 14, 1523737321.032, 173, 0, 1024, 1024, 1024, 1024, 0, 6, 3825, 3805, 3878, 3863, 3854, 3873, 0, 1, 7600, -90.000, 0.000, 64.400, 0.000, 0.000, -3.400, 0.0, , , , , , 98, , , 37, 37, 37
36.7673035, -118.8833843, 5.800, 13:22:01.132, 12, 0.00, 0.40, 98, -0.900, 1.300, 64.500, 640, 100, 100, 16, 22355, -24919, 5437, 5548, 8, 14, 1523737321.133, 81, 0, 1024, 1024, 1024, 1024, 0, 6, 3825, 3805, 3878, 3863, 3854, 3873, 0, 1, 7702, -89.900, 0.000, 64.400, 0.000, 0.000, -3.300, 0.0, , , , , , 98, , , 37, 37, 37
36.7673036, -118.8833843, 6.200, 13:22:01.240, 13, 0.00, 0.41, 98, 0.300, 1.600, 64.400, 640, 100, 100, 16, 22355, -24919, 5437, 5548, 8, 14, 1523737321.240, 7, 0, 1024, 1024, 1024, 1024, 0, 6, 3825, 3805, 3878, 3863, 3854, 3873, 0, 1, 7809, -89.900, 0.000, 64.400, 0.000, 0.000, -3.200, 0.0, , , , , , 98, , , 37, 37, 37
36.7673036, -118.8833843, 6.200, 13:22:01.332, 13, 0.00, 0.41, 98, 0.300, 1.600, 64.400, 640, 100, 100, 16, 22355, -24919, 5437, 5548, 8, 14, 1523737321.332, 99, 0, 1024, 1024, 1024, 1024, 0, 6, 3825, 3805, 3878, 3863, 3854, 3873, 0, 1, 7901, -89.900, 0.000, 64.400, 0.000, 0.000, -3.200, 0.0, , , , , , 98, , , 37, 37, 37
36.7673035, -118.8833842, 6.500, 13:22:01.432, 13, 0.00, 0.40, 98, 0.800, 2.000, 64.400, 640, 100, 100, 16, 22355, -24919, 5437, 5548, 8, 14, 1523737321.432, 69, 0, 1024, 1024, 1024, 1024, 0, 6, 3825, 3805, 3878, 3863, 3854, 3873, 0, 1, 8001, -89.900, 0.000, 64.400, 0.000, 0.000, -3.200, 0.0, , , , , , 98, , , 37, 37, 37
36.7673036, -118.8833839, 7.200, 13:22:01.537, 12, 0.00, 0.42, 98, -0.600, 2.400, 64.300, 640, 100, 100, 16, 22355, -24919, 5437, 5548, 8, 14, 1523737321.538, 7, 0, 1024, 1024, 1024, 1024, 0, 6, 3825, 3805, 3878, 3863, 3854, 3873, 0, 1, 8107, -89.900, 0.000, 64.400, 0.000, 0.000, -3.300, 0.0, , , , , , 98, , , 37, 37, 37
36.7673037, -118.8833838, 7.600, 13:22:01.632, 13, 0.00, 0.44, 98, -1.000, 2.800, 64.300, 640, 100, 100, 16, 22355, -24919, 5437, 5548, 8, 14, 1523737321.632, 14, 0, 1024, 1024, 1024, 1024, 0, 6, 3707, 3698, 3736, 3740, 3731, 3689, 0, 1, 8201, -89.900, 0.000, 64.400, 0.000, 0.000, -3.300, 0.0, , , , , , 98, , , 37, 37, 37
36.7673037, -118.8833838, 7.600, 13:22:01.732, 13, 0.00, 0.44, 98, -1.000, 2.800, 64.300, 640, 100, 100, 16, 22355, -24919, 5437, 5548, 8, 14, 1523737321.733, 115, 0, 1024, 1024, 1024, 1024, 0, 6, 3707, 3698, 3736, 3740, 3731, 3689, 0, 1, 8301, -89.900, 0.000, 64.400, 0.000, 0.000, -3.300, 0.0, , , , , , 98, , , 37, 37, 37
36.7673039, -118.8833837, 7.900, 13:22:01.832, 13, 0.00, 0.46, 98, -1.000, 3.200, 64.300, 640, 100, 100, 16, 22355, -24919, 5437, 5548, 8, 14, 1523737321.833, 58, 0, 1024, 1024, 1024, 1024, 0, 6, 3707, 3698, 3736, 3740, 3731, 3689, 0, 1, 8401, -89.900, 0.000, 64.400, 0.000, 0.000, -3.200, 0.0, , , , , , 98, , , 37, 37, 37
36.7673040, -118.8833837, 8.200, 13:22:01.932, 13, 0.00, 0.47, 98, -0.700, 3.400, 64.400, 640, 100, 100, 16, 22355, -24919, 5437, 5548, 8, 14, 1523737321.932, 78, 0, 1024, 1024, 1024, 1024, 0, 6, 3707, 3698, 3736, 3740, 3731, 3689, 0, 1, 8501, -89.900, 0.000, 64.400, 0.000, 0.000, -3.100, 0.0, , , , , , 98, , , 37, 37, 37
36.7673040, -118.8833836, 8.600, 13:22:02.036, 13, 0.00, 0.47, 98, -0.500, 3.300, 64.600, 640, 100, 100, 16, 22355, -24919, 5437, 5548, 8, 14, 1523737322.036, 76, 0, 1024, 1024, 1024, 1024, 0, 6, 3707, 3698, 3736, 3740, 3731, 3689, 0, 1, 8605, -89.900, 0.000, 64.400, 0.000, 0.000, -3.100, 0.0, , , , , , 98, , , 37, 37, 37
36.7673040, -118.8833835, 8.900, 13:22:02.131, 13, 0.00, 0.48, 98, -0.700, 3.300, 64.700, 640, 100, 100, 16, 22355, -24919, 5437, 5548, 8, 14, 1523737322.132, 32, 0, 1024, 1024, 1024, 1024, 0, 6, 3707, 3698, 3736, 3740, 3731, 3689, 0, 1, 8700, -89.900, 0.000, 64.400, 0.000, 0.000, -3.100, 0.0, , , , , , 98, , , 37, 37, 37
36.7673042, -118.8833836, 9.200, 13:22:02.232, 13, 0.00, 0.50, 98, -0.600, 3.300, 64.900, 640, 100, 100, 16, 22355, -24919, 5437, 5548, 8, 14, 1523737322.232, 20, 0, 1024, 1024, 1024, 1024, 0, 6, 3707, 3698, 3736, 3740, 3731, 3689, 0, 1, 8801, -89.900, 0.000, 64.400, 0.000, 0.000, -3.000, 0.0, , , , , , 98, , , 37, 37, 37
36.7673044, -118.8833837, 9.500, 13:22:02.332, 12, 0.00, 0.51, 98, -0.100, 2.900, 65.000, 640, 100, 100, 16, 22355, -24919, 5437, 5548, 8, 14, 1523737322.333, 24, 0, 1024, 1024, 1024, 1024, 0, 6, 3707, 3698, 3736, 3740, 3731, 3689, 0, 1, 8901, -89.900, 0.000, 64.400, 0.000, 0.000, -3.000, 0.0, , , , , , 98, , , 37, 37, 37
36.7673045, -118.8833838, 9.800, 13:22:02.432, 12, 0.00, 0.52, 98, 0.200, 2.400, 65.100, 640, 100, 100, 16, 22355, -24919, 5437, 5548, 8, 14, 1523737322.432, 44, 0, 1024, 1024, 1024, 1024, 0, 6, 3707, 3698, 3736, 3740, 3731, 3689, 0, 1, 9001, -90.000, 0.000, 64.400, 0.000, 0.000, -3.000, 0.0, , , , , , 98, , , 37, 37, 37
36.7673042, -118.8833840, 10.400, 13:22:02.541, 13, 0.10, 0.48, 98, 0.000, 1.900, 65.200, 640, 100, 100, 16, 22630, -20137, 5437, 5548, 8, 14, 1523737322.541, 10, 0, 1024, 1024, 1024, 1024, 0, 6, 3707, 3698, 3736, 3740, 3731, 3689, 0, 1, 9110, -90.000, 0.000, 64.400, -0.100, 0.000, -3.000, 0.0, , , , , , 98, , , 37, 37, 37
36.7673042, -118.8833840, 10.400, 13:22:02.632, 13, 0.10, 0.48, 98, 0.000, 1.900, 65.200, 640, 100, 100, 16, 22630, -20137, 5437, 5548, 8, 14, 1523737322.632, 101, 0, 1024, 1024, 1024, 1024, 0, 6, 3759, 3765, 3768, 3796, 3811, 3783, 0, 1, 9201, -90.000, 0.000, 64.400, -0.100, 0.000, -3.000, 0.0, , , , , , 98, , , 37, 37, 37
36.7673040, -118.8833840, 10.700, 13:22:02.732, 14, 0.10, 0.46, 98, -1.000, 1.600, 65.200, 640, 100, 99, 16, 22630, -20137, 5437, 5548, 8, 14, 1523737322.733, 44, 0, 1024, 1024, 1024, 1024, 0, 6, 3759, 3765, 3768, 3796, 3811, 3783, 0, 1, 9301, -90.000, 0.000, 64.400, -0.100, 0.000, -2.900, 0.0, , , , , , 98, , , 37, 37, 37
36.7673038, -118.8833841, 11.300, 13:22:02.836, 13, 0.10, 0.44, 98, -1.700, 1.300, 65.200, 640, 100, 99, 16, 22630, -20137, 5437, 5548, 8, 14, 1523737322.839, 16, 0, 1024, 1024, 1024, 1024, 0, 6, 3759, 3765, 3768, 3796, 3811, 3783, 0, 1, 9408, -90.000, 0.000, 64.400, -0.100, 0.000, -2.900, 0.0, , , , , , 98, , , 37, 37, 37
36.7673038, -118.8833841, 11.300, 13:22:02.932, 13, 0.10, 0.44, 98, -1.700, 1.300, 65.200, 640, 100, 99, 16, 22630, -20137, 5437, 5548, 8, 14, 1523737322.933, 109, 0, 1024, 1024, 1024, 1024, 0, 6, 3759, 3765, 3768, 3796, 3811, 3783, 0, 1, 9501, -90.000, 0.000, 64.400, -0.100, 0.000, -2.900, 0.0, , , , , , 98, , , 37, 37, 37
36.7673040, -118.8833842, 11.600, 13:22:03.032, 13, 0.00, 0.45, 98, -1.400, 1.100, 65.100, 640, 100, 99, 16, 22630, -20137, 5437, 5548, 8, 14, 1523737323.033, 56, 0, 1024, 1024, 1024, 1024, 0, 6, 3759, 3765, 3768, 3796, 3811, 3783, 0, 1, 9601, -89.900, 0.000, 64.400, 0.000, 0.000, -2.900, 0.0, , , , , , 98, , , 37, 37, 37
36.7673038, -118.8833843, 12.200, 13:22:03.132, 13, 0.00, 0.43, 98, -0.600, 1.400, 64.900, 640, 100, 99, 16, 22630, -20137, 5437, 5548, 8, 14, 1523737323.133, 52, 0, 1024, 1024, 1024, 1024, 0, 6, 3759, 3765, 3768, 3796, 3811, 3783, 0, 1, 9701, -89.900, 0.000, 64.400, 0.000, 0.000, -3.000, 0.0, , , , , , 98, , , 37, 37, 37
36.7673038, -118.8833843, 12.200, 13:22:03.232, 13, 0.00, 0.43, 98, -0.600, 1.400, 64.900, 640, 100, 99, 16, 22630, -20137, 5437, 5548, 8, 14, 1523737323.233, 152, 0, 1024, 1024, 1024, 1024, 0, 6, 3759, 3765, 3768, 3796, 3811, 3783, 0, 1, 9801, -90.000, 0.000, 64.400, 0.000, 0.000, -3.000, 0.0, , , , , , 98, , , 37, 37, 37
36.7673034, -118.8833845, 13.200, 13:22:03.332, 12, 0.10, 0.38, 98, -2.000, 0.900, 64.800, 640, 100, 99, 16, 22630, -20137, 5437, 5548, 8, 14, 1523737323.332, 35, 0, 1024, 1024, 1024, 1024, 0, 6, 3759, 3765, 3768, 3796, 3811, 3783, 0, 1, 9901, -89.900, 0.000, 64.400, -0.100, 0.000, -2.900, 0.0, , , , , , 98, , , 37, 37, 37
36.7673033, -118.8833846, 13.500, 13:22:03.431, 12, 0.10, 0.37, 98, -1.900, 0.700, 64.800, 640, 100, 99, 16, 22800, -18243, 5437, 5548, 8, 14, 1523737323.432, 48, 0, 1024, 1024, 1024, 1024, 0, 6, 3772, 3776, 3788, 3808, 3822, 3786, 0, 1, 10000, -89.900, 0.000, 64.400, -0.100, 0.000, -3.000, 0.0, , , , , , 98, , , 37, 37, 37
36.7673032, -118.8833847, 13.800, 13:22:03.532, 13, 0.10, 0.36, 98, -1.700, 0.600, 64.900, 640, 100, 99, 16, 22800, -18243, 5437, 5548, 8, 14, 1523737323.532, 97, 0, 1024, 1024, 1024, 1024, 0, 6, 3772, 3776, 3788, 3808, 3822, 3786, 0, 1, 10101, -89.900, 0.000, 64.400, -0.100, 0.000, -2.900, 0.0, , , , , , 98, , , 37, 37, 37
36.7673030, -118.8833847, 14.400, 13:22:03.631, 13, 0.00, 0.34, 98, -1.800, 0.500, 65.000, 640, 100, 99, 16, 22800, -18243, 5437, 5548, 8, 14, 1523737323.632, 28, 0, 1024, 1024, 1024, 1024, 0, 6, 3772, 3776, 3788, 3808, 3822, 3786, 0, 1, 10200, -90.000, 0.000, 64.400, 0.000, 0.000, -3.000, 0.0, , , , , , 98, , , 37, 37, 37
36.7673031, -118.8833848, 14.700, 13:22:03.732, 13, 0.00, 0.34, 98, -1.800, 0.600, 65.200, 640, 100, 99, 16, 22800, -18243, 5437, 5548, 8, 14, 1523737323.733, 47, 0, 1024, 1024, 1024, 1024, 0, 6, 3772, 3776, 3788, 3808, 3822, 3786, 0, 1, 10301, -89.900, 0.000, 64.400, 0.000, 0.000, -2.900, 0.0, , , , , , 98, , , 37, 37, 37
36.7673033, -118.8833848, 15.000, 13:22:03.832, 14, 0.00, 0.37, 98, -2.000, 1.200, 65.200, 640, 100, 99, 16, 22800, -18243, 5437, 5548, 8, 14, 1523737323.832, 22, 0, 1024, 1024, 1024, 1024, 0, 6, 3772, 3776, 3788, 3808, 3822, 3786, 0, 1, 10401, -89.900, 0.000, 64.400, 0.000, 0.000, -3.000, 0.0, , , , , , 98, , , 37, 37, 37
36.7673036, -118.8833848, 15.300, 13:22:03.932, 14, 0.00, 0.40, 98, -1.700, 1.800, 65.300, 640, 100, 98, 16, 22800, -18243, 5437, 5548, 8, 14, 1523737323.933, 39, 0, 1024, 1024, 1024, 1024, 0, 6, 3772, 3776, 3788, 3808, 3822, 3786, 0, 1, 10501, -89.900, 0.000, 64.400, 0.000, 0.000, -3.000, 0.0, , , , , , 98, , , 37, 37, 37
36.7673037, -118.8833847, 15.600, 13:22:04.032, 15, 0.00, 0.42, 98, -0.800, 2.500, 65.400, 640, 100, 98, 16, 22800, -18243, 5437, 5548, 8, 14, 1523737324.033, 31, 0, 1024, 1024, 1024, 1024, 0, 6, 3772, 3776, 3788, 3808, 3822, 3786, 0, 1, 10601, -89.900, 0.000, 64.400, 0.000, 0.000, -3.000, 0.0, , , , , , 98, , , 37, 37, 37
36.7673037, -118.8833847, 15.600, 13:22:04.132, 15, 0.00, 0.42, 98, -0.800, 2.500, 65.400, 640, 100, 98, 16, 22800, -18243, 5437, 5548, 8, 14, 1523737324.133, 131, 0, 1024, 1024, 1024, 1024, 0, 6, 3772, 3776, 3788, 3808, 3822, 3786, 0, 1, 10701, -89.900, 0.000, 64.400, 0.000, 0.000, -3.000, 0.0, , , , , , 98, , , 37, 37, 37
36.7673036, -118.8833845, 16.200, 13:22:04.234, 15, 0.00, 0.41, 98, 0.200, 3.200, 64.900, 640, 100, 98, 16, 22800, -18243, 5437, 5548, 8, 14, 1523737324.234, 10, 0, 1024, 1024, 1024, 1024, 0, 6, 3772, 3776, 3788, 3808, 3822, 3786, 0, 1, 10803, -89.900, 0.000, 64.400, 0.000, 0.000, -2.900, 0.0, , , , , , 98, , , 37, 37, 37
36.7673036, -118.8833845, 16.200, 13:22:04.332, 15, 0.00, 0.41, 98, 0.200, 3.200, 64.900, 640, 100, 98, 16, 22800, -18243, 5437, 5548, 8, 14, 1523737324.333, 108, 0, 1024, 1024, 1024, 1024, 0, 6, 3772, 3776, 3788, 3808, 3822, 3786, 0, 1, 10901, -89.900, 0.000, 64.400, 0.000, 0.000, -2.900, 0.0, , , , , , 98, , , 37, 37, 37
36.7673035, -118.8833843, 16.800, 13:22:04.442, 15, 0.10, 0.40, 98, -1.200, 3.800, 63.800, 640, 100, 98, 16, 22621, -19669, 5437, 5548, 8, 14, 1523737324.443, 13, 0, 1024, 1024, 1024, 1024, 0, 6, 3753, 3756, 3774, 3777, 3800, 3763, 0, 1, 11011, -89.900, 0.000, 64.400, 0.000, 0.100, -2.900, 0.0, , , , , , 98, , , 37, 37, 37
36.7673035, -118.8833843, 16.800, 13:22:04.532, 15, 0.10, 0.40, 98, -1.200, 3.800, 63.800, 640, 100, 98, 16, 22621, -19669, 5437, 5548, 8, 14, 1523737324.533, 103, 0, 1024, 1024, 1024, 1024, 0, 6, 3753, 3756, 3774, 3777, 3800, 3763, 0, 1, 11101, -89.900, 0.000, 64.400, 0.000, 0.100, -2.900, 0.0, , , , , , 98, , , 37, 37, 37
36.7673035, -118.8833842, 17.100, 13:22:04.632, 15, 0.10, 0.40, 98, -2.200, 3.800, 63.400, 640, 100, 98, 16, 22621, -19669, 5437, 5548, 8, 14, 1523737324.633, 81, 0, 1024, 1024, 1024, 1024, 0, 6, 3753, 3756, 3774, 3777, 3800, 3763, 0, 1, 11201, -89.900, 0.000, 64.300, 0.000, 0.100, -2.900, 0.0, , , , , , 98, , , 37, 37, 37
36.7673034, -118.8833840, 17.400, 13:22:04.732, 16, 0.14, 0.39, 98, -2.900, 3.600, 63.200, 640, 100, 98, 16, 22621, -19669, 5437, 5548, 8, 14, 1523737324.732, 71, 0, 1024, 1024, 1024, 1024, 0, 6, 3753, 3756, 3774, 3777, 3800, 3763, 0, 1, 11301, -90.000, 0.000, 64.400, -0.100, 0.100, -2.900, 0.0, , , , , , 98, , , 37, 37, 37
36.7673032, -118.8833839, 17.700, 13:22:04.832, 16, 0.10, 0.38, 98, -3.400, 3.300, 63.300, 640, 100, 98, 16, 22621, -19669, 5437, 5548, 8, 14, 1523737324.832, 74, 0, 1024, 1024, 1024, 1024, 0, 6, 3753, 3756, 3774, 3777, 3800, 3763, 0, 1, 11401, -89.900, 0.000, 64.400, -0.100, 0.000, -3.000, 0.0, , , , , , 98, , , 37, 37, 37
36.7673033, -118.8833838, 18.000, 13:22:04.932, 14, 0.00, 0.39, 98, -3.500, 3.200, 63.500, 640, 100, 97, 16, 22621, -19669, 5437, 5548, 8, 14, 1523737324.933, 76, 0, 1024, 1024, 1024, 1024, 0, 6, 3753, 3756, 3774, 3777, 3800, 3763, 0, 1, 11501, -89.900, 0.000, 64.400, 0.000, 0.000, -3.000, 0.0, , , , , , 98, , , 37, 37, 37
36.7673036, -118.8833837, 18.300, 13:22:05.032, 14, 0.00, 0.42, 98, -2.800, 3.300, 63.800, 640, 100, 97, 16, 22621, -19669, 5437, 5548, 8, 14, 1523737325.033, 81, 0, 1024, 1024, 1024, 1024, 0, 6, 3753, 3756, 3774, 3777, 3800, 3763, 0, 1, 11601, -89.900, 0.000, 64.400, 0.000, 0.000, -3.000, 0.0, , , , , , 98, , , 37, 37, 37
36.7673035, -118.8833836, 18.900, 13:22:05.132, 16, 0.00, 0.42, 98, -1.400, 4.000, 64.600, 640, 100, 97, 16, 22621, -19669, 5437, 5548, 8, 14, 1523737325.133, 65, 0, 1024, 1024, 1024, 1024, 0, 6, 3753, 3756, 3774, 3777, 3800, 3763, 0, 1, 11701, -89.900, 0.000, 64.400, 0.000, 0.000, -2.900, 0.0, , , , , , 98, , , 37, 37, 37
36.7673035, -118.8833836, 18.900, 13:22:05.231, 16, 0.00, 0.42, 98, -1.400, 4.000, 64.600, 640, 100, 97, 16, 22621, -19669, 5437, 5548, 8, 14, 1523737325.232, 164, 0, 1024, 1024, 1024, 1024, 0, 6, 3753, 3756, 3774, 3777, 3800, 3763, 0, 1, 11801, -89.900, 0.000, 64.400, 0.000, 0.000, -2.900, 0.0, , , , , , 98, , , 37, 37, 37
36.7673035, -118.8833836, 18.900, 13:22:05.332, 16, 0.00, 0.42, 98, -1.400, 4.000, 64.600, 640, 100, 97, 16, 22621, -19669, 5437, 5548, 8, 14, 1523737325.332, 264, 0, 1024, 1024, 1024, 1024, 0, 6, 3753, 3756, 3774, 3777, 3800, 3763, 0, 1, 11901, -90.000, 0.000, 64.400, 0.000, 0.000, -2.900, 0.0, , , , , , 98, , , 37, 37, 37
36.7673031, -118.8833836, 19.800, 13:22:05.432, 15, 0.10, 0.38, 98, -2.900, 2.500, 65.500, 640, 100, 96, 16, 22643, -19602, 5437, 5548, 8, 14, 1523737325.433, 20, 0, 1024, 1024, 1024, 1024, 0, 6, 3753, 3756, 3774, 3777, 3800, 3763, 0, 1, 12001, -90.000, 0.000, 64.400, -0.100, 0.000, -2.900, 0.0, , , , , , 98, , , 37, 37, 37
36.7673029, -118.8833835, 20.100, 13:22:05.532, 15, 0.10, 0.36, 98, -3.300, 2.600, 65.400, 640, 100, 96, 16, 22643, -19602, 5437, 5548, 8, 14, 1523737325.533, 30, 0, 1024, 1024, 1024, 1024, 0, 6, 3743, 3741, 3779, 3790, 3808, 3757, 0, 1, 12101, -90.000, 0.000, 64.400, -0.100, 0.000, -2.900, 0.0, , , , , , 98, , , 37, 37, 37
36.7673029, -118.8833835, 20.100, 13:22:05.633, 15, 0.10, 0.36, 98, -3.300, 2.600, 65.400, 640, 100, 96, 16, 22643, -19602, 5437, 5548, 8, 14, 1523737325.633, 131, 0, 1024, 1024, 1024, 1024, 0, 6, 3743, 3741, 3779, 3790, 3808, 3757, 0, 1, 12202, -90.000, 0.000, 64.400, -0.100, 0.000, -2.900, 0.0, , , , , , 98, , , 37, 37, 37
36.7673028, -118.8833835, 20.400, 13:22:05.732, 14, 0.00, 0.35, 98, -3.300, 3.200, 65.200, 640, 100, 96, 16, 22643, -19602, 5437, 5548, 8, 14, 1523737325.733, 97, 0, 1024, 1024, 1024, 1024, 0, 6, 3743, 3741, 3779, 3790, 3808, 3757, 0, 1, 12301, -89.900, 0.000, 64.400, 0.000, 0.000, -2.900, 0.0, , , , , , 98, , , 37, 37, 37
36.7673028, -118.8833834, 20.700, 13:22:05.832, 14, 0.00, 0.35, 98, -2.800, 4.000, 64.800, 640, 100, 96, 16, 22643, -19602, 5437, 5548, 8, 14, 1523737325.833, 52, 0, 1024, 1024, 1024, 1024, 0, 6, 3743, 3741, 3779, 3790, 3808, 3757, 0, 1, 12401, -89.900, 0.000, 64.400, 0.000, 0.000, -2.900, 0.0, , , , , , 98, , , 37, 37, 37
36.7673027, -118.8833834, 21.000, 13:22:05.935, 15, 0.00, 0.34, 98, -2.700, 4.300, 64.400, 640, 100, 96, 16, 22643, -19602, 5437, 5548, 8, 14, 1523737325.935, 6, 0, 1024, 1024, 1024, 1024, 0, 6, 3743, 3741, 3779, 3790, 3808, 3757, 0, 1, 12504, -89.900, 0.000, 64.400, 0.000, 0.000, -2.900, 0.0, , , , , , 98, , , 37, 37, 37
36.7673027, -118.8833834, 21.000, 13:22:06.032, 15, 0.00, 0.34, 98, -2.700, 4.300, 64.400, 640, 100, 96, 16, 22643, -19602, 5437, 5548, 8, 14, 1523737326.033, 104, 0, 1024, 1024, 1024, 1024, 0, 6, 3743, 3741, 3779, 3790, 3808, 3757, 0, 1, 12601, -89.900, 0.000, 64.400, 0.000, 0.000, -2.900, 0.0, , , , , , 98, , , 37, 37, 37
36.7673027, -118.8833834, 21.000, 13:22:06.132, 15, 0.00, 0.34, 98, -2.700, 4.300, 64.400, 640, 100, 96, 16, 22643, -19602, 5437, 5548, 8, 14, 1523737326.133, 204, 0, 1024, 1024, 1024, 1024, 0, 6, 3743, 3741, 3779, 3790, 3808, 3757, 0, 1, 12701, -89.900, 0.000, 64.400, 0.000, 0.000, -2.900, 0.0, , , , , , 98, , , 37, 37, 37
36.7673027, -118.8833834, 21.000, 13:22:06.232, 15, 0.00, 0.34, 98, -2.700, 4.300, 64.400, 640, 100, 96, 16, 22643, -19602, 5437, 5548, 8, 14, 1523737326.233, 304, 0, 1024, 1024, 1024, 1024, 0, 6, 3743, 3741, 3779, 3790, 3808, 3757, 0, 1, 12801, -89.900, 0.000, 64.400, 0.000, 0.000, -2.900, 0.0, , , , , , 98, , , 37, 37, 37
36.7673023, -118.8833835, 21.900, 13:22:06.332, 15, 0.00, 0.30, 98, -3.300, 2.900, 64.300, 640, 100, 96, 16, 22643, -19602, 5437, 5548, 8, 14, 1523737326.333, 53, 0, 1024, 1024, 1024, 1024, 0, 6, 3743, 3741, 3779, 3790, 3808, 3757, 0, 1, 12901, -90.000, 0.000, 64.400, 0.000, 0.000, -2.900, 0.0, , , , , , 98, , , 37, 37, 37
36.7673022, -118.8833836, 22.200, 13:22:06.432, 15, 0.00, 0.29, 98, -3.400, 2.500, 64.600, 640, 100, 96, 16, 22643, -19602, 5437, 5548, 8, 14, 1523737326.434, 22, 0, 1024, 1024, 1024, 1024, 0, 6, 3743, 3741, 3779, 3790, 3808, 3757, 0, 1, 13002, -90.000, 0.000, 64.400, 0.000, 0.000, -2.900, 0.0, , , , , , 98, , , 37, 37, 37
36.7673021, -118.8833837, 22.500, 13:22:06.532, 15, 0.00, 0.27, 98, -3.500, 2.000, 64.900, 640, 100, 96, 16, 22500, -19619, 5437, 5548, 8, 14, 1523737326.533, 26, 0, 1024, 1024, 1024, 1024, 0, 6, 3743, 3741, 3779, 3790, 3808, 3757, 0, 1, 13101, -90.000, 0.000, 64.400, 0.000, 0.000, -2.900, 0.0, , , , , , 98, , , 37, 37, 37
36.7673021, -118.8833837, 22.500, 13:22:06.632, 15, 0.00, 0.27, 98, -3.500, 2.000, 64.900, 640, 100, 96, 16, 22500, -19619, 5437, 5548, 8, 14, 1523737326.633, 126, 0, 1024, 1024, 1024, 1024, 0, 6, 3743, 3741, 3779, 3790, 3808, 3757, 0, 1, 13202, -90.000, 0.000, 64.400, 0.000, 0.000, -2.900, 0.0, , , , , , 98, , , 37, 37, 37
36.7673021, -118.8833837, 22.500, 13:22:06.732, 15, 0.00, 0.27, 98, -3.500, 2.000, 64.900, 640, 100, 94, 16, 22500, -19619, 5437, 5548, 8, 14, 1523737326.733, 225, 0, 1024, 1024, 1024, 1024, 0, 6, 3743, 3741, 3779, 3790, 3808, 3757, 0, 1, 13301, -90.000, 0.000, 64.400, 0.000, 0.000, -2.900, 0.0, , , , , , 98, , , 37, 37, 37
36.7673020, -118.8833839, 23.100, 13:22:06.832, 16, 0.10, 0.26, 98, -2.800, 1.500, 65.300, 640, 100, 94, 16, 22500, -19619, 5437, 5548, 8, 14, 1523737326.833, 70, 0, 1024, 1024, 1024, 1024, 0, 6, 3743, 3741, 3779, 3790, 3808, 3757, 0, 1, 13401, -90.000, 0.000, 64.400, 0.000, -0.100, -2.800, 0.0, , , , , , 98, , , 37, 37, 37
36.7673020, -118.8833840, 23.400, 13:22:06.932, 16, 0.10, 0.25, 98, -2.200, 1.500, 65.300, 640, 100, 94, 16, 22500, -19619, 5437, 5548, 8, 14, 1523737326.933, 22, 0, 1024, 1024, 1024, 1024, 0, 6, 3743, 3741, 3779, 3790, 3808, 3757, 0, 1, 13501, -89.900, 0.000, 64.400, 0.000, -0.100, -2.800, 0.0, , , , , , 98, , , 37, 37, 37
36.7673020, -118.8833842, 23.700, 13:22:07.032, 16, 0.10, 0.25, 98, -1.800, 1.500, 65.300, 640, 100, 94, 16, 22500, -19619, 5437, 5548, 8, 14, 1523737327.033, 38, 0, 1024, 1024, 1024, 1024, 0, 6, 3743, 3741, 3779, 3790, 3808, 3757, 0, 1, 13602, -90.000, 0.000, 64.400, 0.000, -0.100, -2.800, 0.0, , , , , , 98, , , 37, 37, 37
36.7673020, -118.8833844, 23.900, 13:22:07.131, 15, 0.10, 0.24, 98, -1.600, 1.300, 65.300, 640, 100, 95, 16, 22500, -19619, 5437, 5548, 8, 14, 1523737327.132, 35, 0, 1024, 1024, 1024, 1024, 0, 6, 3743, 3741, 3779, 3790, 3808, 3757, 0, 1, 13700, -89.900, 0.000, 64.400, 0.000, -0.100, -2.800, 0.0, , , , , , 98, , , 37, 37, 37
36.7673020, -118.8833845, 24.200, 13:22:07.242, 15, 0.10, 0.24, 98, -1.400, 1.400, 65.100, 640, 100, 95, 16, 22500, -19619, 5437, 5548, 8, 14, 1523737327.243, 9, 0, 1024, 1024, 1024, 1024, 0, 6, 3743, 3741, 3779, 3790, 3808, 3757, 0, 1, 13811, -89.900, 0.000, 64.400, 0.000, -0.100, -2.900, 0.0, , , , , , 98, , , 37, 37, 37
36.7673020, -118.8833848, 24.800, 13:22:07.332, 16, 0.00, 0.23, 98, -1.300, 1.400, 65.000, 640, 100, 95, 16, 22500, -19619, 5437, 5548, 8, 14, 1523737327.333, 18, 0, 1024, 1024, 1024, 1024, 0, 6, 3730, 3735, 3754, 3757, 3796, 3751, 0, 1, 13901, -90.000, 0.000, 64.400, 0.000, 0.000, -3.000, 0.0, , , , , , 98, , , 37, 37, 37
36.7673020, -118.8833848, 24.800, 13:22:07.432, 16, 0.00, 0.23, 98, -1.300, 1.400, 65.000, 640, 100, 95, 16, 22500, -19619, 5437, 5548, 8, 14, 1523737327.433, 118, 0, 1024, 1024, 1024, 1024, 0, 6, 3730, 3735, 3754, 3757, 3796, 3751, 0, 1, 14001, -90.000, 0.000, 64.400, 0.000, 0.000, -3.000, 0.0, , , , , , 98, , , 37, 37, 37
36.7673020, -118.8833848, 24.800, 13:22:07.532, 16, 0.00, 0.23, 98, -1.300, 1.400, 65.000, 640, 100, 96, 16, 22500, -19619, 5437, 5548, 8, 14, 1523737327.533, 218, 0, 1024, 1024, 1024, 1024, 0, 6, 3730, 3735, 3754, 3757, 3796, 3751, 0, 1, 14101, -90.000, 0.000, 64.400, 0.000, 0.000, -3.000, 0.0, , , , , , 98, , , 37, 37, 37
36.7673024, -118.8833856, 26.300, 13:22:07.638, 16, 0.00, 0.27, 98, -0.800, 0.600, 65.000, 640, 100, 96, 16, 22500, -19619, 5437, 5548, 8, 14, 1523737327.639, 9, 0, 1024, 1024, 1024, 1024, 0, 6, 3730, 3735, 3754, 3757, 3796, 3751, 0, 1, 14207, -89.900, 0.000, 64.400, 0.000, 0.000, -3.000, 0.0, , , , , , 98, , , 37, 37, 37
36.7673025, -118.8833858, 26.600, 13:22:07.731, 16, 0.00, 0.28, 98, -0.700, 0.400, 65.000, 640, 100, 96, 16, 22500, -19619, 5437, 5548, 8, 14, 1523737327.732, 5, 0, 1024, 1024, 1024, 1024, 0, 6, 3730, 3735, 3754, 3757, 3796, 3751, 0, 1, 14300, -89.900, 0.000, 64.400, 0.000, 0.000, -2.900, 0.0, , , , , , 98, , , 37, 37, 37
36.7673026, -118.8833859, 26.900, 13:22:07.832, 17, 0.00, 0.29, 98, -0.600, 0.300, 65.100, 640, 100, 96, 16, 22435, -20116, 5437, 5548, 8, 14, 1523737327.833, 35, 0, 1024, 1024, 1024, 1024, 0, 6, 3730, 3735, 3754, 3757, 3796, 3751, 0, 1, 14401, -89.900, 0.000, 64.400, 0.000, 0.000, -3.000, 0.0, , , , , , 98, , , 37, 37, 37
36.7673027, -118.8833860, 27.200, 13:22:07.932, 17, 0.00, 0.31, 98, -0.400, 0.400, 65.100, 640, 100, 96, 16, 22435, -20116, 5437, 5548, 8, 14, 1523737327.933, 38, 0, 1024, 1024, 1024, 1024, 0, 6, 3715, 3726, 3736, 3742, 3768, 3733, 0, 1, 14502, -89.900, 0.000, 64.400, 0.000, 0.000, -3.000, 0.0, , , , , , 98, , , 37, 37, 37
36.7673028, -118.8833861, 27.500, 13:22:08.032, 17, 0.00, 0.32, 98, -0.100, 0.500, 65.100, 640, 100, 96, 16, 22435, -20116, 5437, 5548, 8, 14, 1523737328.033, 38, 0, 1024, 1024, 1024, 1024, 0, 6, 3715, 3726, 3736, 3742, 3768, 3733, 0, 1, 14601, -89.900, 0.000, 64.400, 0.000, 0.000, -3.000, 0.0, , , , , , 98, , , 37, 37, 37
36.7673028, -118.8833861, 27.500, 13:22:08.132, 17, 0.00, 0.32, 98, -0.100, 0.500, 65.100, 640, 100, 96, 16, 22435, -20116, 5437, 5548, 8, 14, 1523737328.133, 138, 0, 1024, 1024, 1024, 1024, 0, 6, 3715, 3726, 3736, 3742, 3768, 3733, 0, 1, 14702, -89.900, 0.000, 64.400, 0.000, 0.000, -3.000, 0.0, , , , , , 98, , , 37, 37, 37
36.7673030, -118.8833864, 28.100, 13:22:08.232, 17, 0.00, 0.35, 98, 0.400, 1.100, 64.900, 640, 100, 96, 16, 22435, -20116, 5437, 5548, 8, 14, 1523737328.233, 32, 0, 1024, 1024, 1024, 1024, 0, 6, 3715, 3726, 3736, 3742, 3768, 3733, 0, 1, 14801, -89.900, 0.000, 64.400, 0.000, 0.000, -3.000, 0.0, , , , , , 98, , , 37, 37, 37
36.7673031, -118.8833865, 28.500, 13:22:08.332, 17, 0.00, 0.36, 98, 0.200, 1.300, 64.800, 640, 100, 96, 16, 22435, -20116, 5437, 5548, 8, 14, 1523737328.332, 25, 0, 1024, 1024, 1024, 1024, 0, 6, 3715, 3726, 3736, 3742, 3768, 3733, 0, 1, 14901, -89.900, 0.000, 64.400, 0.000, 0.000, -3.000, 0.0, , , , , , 98, , , 37, 37, 37
36.7673032, -118.8833866, 28.800, 13:22:08.432, 17, 0.00, 0.37, 98, 0.000, 1.200, 64.800, 640, 100, 94, 16, 22435, -20116, 5437, 5548, 8, 14, 1523737328.432, 34, 0, 1024, 1024, 1024, 1024, 0, 6, 3715, 3726, 3736, 3742, 3768, 3733, 0, 1, 15001, -89.900, 0.000, 64.400, 0.000, 0.000, -3.000, 0.0, , , , , , 98, , , 37, 37, 37
36.7673032, -118.8833867, 29.100, 13:22:08.533, 17, 0.00, 0.38, 98, 0.000, 1.000, 64.800, 640, 100, 94, 16, 22435, -20116, 5437, 5548, 8, 14, 1523737328.534, 7, 0, 1024, 1024, 1024, 1024, 0, 6, 3715, 3726, 3736, 3742, 3768, 3733, 0, 1, 15102, -89.900, 0.000, 64.400, 0.000, 0.000, -2.900, 0.0, , , , , , 98, , , 37, 37, 37
36.7673032, -118.8833868, 29.400, 13:22:08.632, 17, 0.00, 0.38, 98, -0.100, 1.000, 64.800, 640, 100, 94, 16, 22435, -20116, 5437, 5548, 8, 14, 1523737328.633, 10, 0, 1024, 1024, 1024, 1024, 0, 6, 3715, 3726, 3736, 3742, 3768, 3733, 0, 1, 15201, -89.900, 0.000, 64.400, 0.000, 0.000, -2.900, 0.0, , , , , , 98, , , 37, 37, 37
36.7673032, -118.8833868, 29.700, 13:22:08.732, 17, 0.00, 0.38, 98, -0.400, 0.900, 64.800, 640, 100, 94, 16, 22435, -20116, 5437, 5548, 8, 14, 1523737328.732, 13, 0, 1024, 1024, 1024, 1024, 0, 6, 3715, 3726, 3736, 3742, 3768, 3733, 0, 1, 15301, -89.900, 0.000, 64.400, 0.000, 0.000, -3.000, 0.0, , , , , , 98, , , 37, 37, 37
36.7673032, -118.8833868, 29.700, 13:22:08.832, 17, 0.00, 0.38, 98, -0.400, 0.900, 64.800, 640, 100, 94, 16, 22435, -20116, 5437, 5548, 8, 14, 1523737328.833, 115, 0, 1024, 1024, 1024, 1024, 0, 6, 3715, 3726, 3736, 3742, 3768, 3733, 0, 1, 15402, -89.900, 0.000, 64.400, 0.000, 0.000, -3.000, 0.0, , , , , , 98, , , 37, 37, 37
36.7673033, -118.8833869, 30.000, 13:22:08.931, 17, 0.00, 0.39, 98, -0.300, 0.600, 64.800, 640, 100, 94, 16, 22451, -19648, 5381, 5548, 8, 14, 1523737328.932, 79, 0, 1024, 1024, 1024, 1024, 0, 6, 3721, 3733, 3746, 3750, 3773, 3728, 0, 1, 15501, -89.900, 0.000, 64.400, 0.000, 0.000, -3.000, 0.0, , , , , , 98, , , 37, 37, 37
36.7673033, -118.8833870, 30.300, 13:22:09.032, 17, 0.00, 0.40, 98, -0.300, 0.500, 64.800, 640, 100, 93, 16, 22451, -19648, 5381, 5548, 8, 14, 1523737329.033, 80, 0, 1024, 1024, 1024, 1024, 0, 6, 3721, 3733, 3746, 3750, 3773, 3728, 0, 1, 15601, -89.900, 0.000, 64.400, 0.000, 0.000, -3.000, 0.0, , , , , , 98, , , 37, 37, 37
36.7673034, -118.8833870, 30.600, 13:22:09.132, 17, 0.00, 0.40, 98, -0.300, 0.500, 64.900, 640, 100, 93, 16, 22451, -19648, 5381, 5548, 8, 14, 1523737329.133, 95, 0, 1024, 1024, 1024, 1024, 0, 6, 3721, 3733, 3746, 3750, 3773, 3728, 0, 1, 15702, -89.900, 0.000, 64.400, 0.000, 0.000, -2.900, 0.0, , , , , , 98, , , 37, 37, 37
36.7673034, -118.8833872, 30.900, 13:22:09.232, 17, 0.00, 0.41, 98, -0.300, 0.500, 65.000, 640, 100, 93, 16, 22451, -19648, 5381, 5548, 8, 14, 1523737329.233, 56, 0, 1024, 1024, 1024, 1024, 0, 6, 3721, 3733, 3746, 3750, 3773, 3728, 0, 1, 15801, -89.900, 0.000, 64.400, 0.000, 0.000, -2.900, 0.0, , , , , , 98, , , 37, 37, 37
36.7673036, -118.8833872, 31.500, 13:22:09.336, 17, 0.00, 0.43, 98, 0.000, 0.700, 65.100, 640, 100, 93, 16, 22451, -19648, 5381, 5548, 8, 14, 1523737329.336, 3, 0, 1024, 1024, 1024, 1024, 0, 6, 3721, 3733, 3746, 3750, 3773, 3728, 0, 1, 15905, -89.900, 0.000, 64.400, 0.000, 0.000, -2.900, 0.0, , , , , , 98, , , 37, 37, 37
36.7673037, -118.8833873, 31.800, 13:22:09.432, 19, 0.00, 0.44, 98, 0.100, 1.100, 65.100, 640, 100, 94, 16, 22451, -19648, 5381, 5548, 8, 14, 1523737329.433, 64, 0, 1024, 1024, 1024, 1024, 0, 6, 3721, 3733, 3746, 3750, 3773, 3728, 0, 1, 16001, -89.900, 0.000, 64.400, 0.000, 0.000, -3.000, 0.0, , , , , , 98, , , 37, 37, 37
36.7673037, -118.8833873, 32.100, 13:22:09.532, 19, 0.00, 0.45, 98, 0.200, 1.500, 65.000, 640, 100, 94, 16, 22451, -19648, 5381, 5548, 8, 14, 1523737329.533, 13, 0, 1024, 1024, 1024, 1024, 0, 6, 3721, 3733, 3746, 3750, 3773, 3728, 0, 1, 16102, -89.900, 0.000, 64.400, 0.000, 0.000, -3.000, 0.0, , , , , , 98, , , 37, 37, 37
36.7673037, -118.8833873, 32.100, 13:22:09.632, 19, 0.00, 0.45, 98, 0.200, 1.500, 65.000, 640, 100, 94, 16, 22451, -19648, 5381, 5548, 8, 14, 1523737329.633, 113, 0, 1024, 1024, 1024, 1024, 0, 6, 3721, 3733, 3746, 3750, 3773, 3728, 0, 1, 16201, -89.900, 0.000, 64.400, 0.000, 0.000, -3.000, 0.0, , , , , , 98, , , 37, 37, 37
36.7673038, -118.8833874, 32.400, 13:22:09.732, 19, 0.00, 0.45, 98, 0.200, 1.400, 64.900, 640, 100, 94, 16, 22451, -19648, 5381, 5548, 8, 14, 1523737329.733, 47, 0, 1024, 1024, 1024, 1024, 0, 6, 3721, 3733, 3746, 3750, 3773, 3728, 0, 1, 16301, -89.900, 0.000, 64.400, 0.000, 0.000, -3.000, 0.0, , , , , , 98, , , 37, 37, 37
36.7673038, -118.8833874, 32.700, 13:22:09.832, 19, 0.00, 0.46, 98, 0.300, 1.200, 64.800, 640, 100, 94, 16, 22451, -19648, 5381, 5548, 8, 14, 1523737329.833, 43, 0, 1024, 1024, 1024, 1024, 0, 6, 3721, 3733, 3746, 3750, 3773, 3728, 0, 1, 16401, -90.000, 0.000, 64.400, 0.000, 0.000, -3.000, 0.0, , , , , , 98, , , 37, 37, 37
36.7673039, -118.8833875, 33.000, 13:22:09.933, 20, 0.00, 0.47, 97, 0.300, 0.900, 64.700, 640, 100, 94, 16, 22447, -19635, 5381, 5548, 8, 14, 1523737329.935, 15, 0, 1024, 1024, 1024, 1024, 0, 6, 3721, 3733, 3746, 3750, 3773, 3728, 0, 1, 16503, -90.000, 0.000, 64.400, 0.000, 0.000, -2.900, 0.0, , , , , , 98, , , 37, 37, 37
36.7673039, -118.8833875, 33.300, 13:22:10.039, 20, 0.00, 0.47, 97, 0.300, 0.700, 64.700, 640, 100, 97, 16, 22447, -19635, 5381, 5548, 8, 14, 1523737330.040, 23, 0, 1024, 1024, 1024, 1024, 0, 6, 3721, 3728, 3740, 3751, 3772, 3736, 0, 1, 16609, -90.000, 0.000, 64.400, 0.000, 0.000, -2.900, 0.0, , , , , , 98, , , 37, 37, 37
36.7673039, -118.8833875, 33.300, 13:22:10.131, 20, 0.00, 0.47, 97, 0.300, 0.700, 64.700, 640, 100, 97, 16, 22447, -19635, 5381, 5548, 8, 14, 1523737330.132, 115, 0, 1024, 1024, 1024, 1024, 0, 6, 3721, 3728, 3740, 3751, 3772, 3736, 0, 1, 16700, -90.000, 0.000, 64.400, 0.000, 0.000, -2.900, 0.0, , , , , , 98, , , 37, 37, 37
36.7673039, -118.8833875, 33.600, 13:22:10.232, 20, 0.00, 0.48, 97, 0.200, 0.600, 64.700, 640, 100, 97, 16, 22447, -19635, 5381, 5548, 8, 14, 1523737330.233, 14, 0, 1024, 1024, 1024, 1024, 0, 6, 3721, 3728, 3740, 3751, 3772, 3736, 0, 1, 16802, -89.900, 0.000, 64.400, 0.000, 0.000, -2.900, 0.0, , , , , , 98, , , 37, 37, 37
36.7673039, -118.8833876, 33.900, 13:22:10.336, 20, 0.00, 0.48, 97, 0.300, 0.500, 64.800, 640, 100, 97, 16, 22447, -19635, 5381, 5548, 8, 14, 1523737330.337, 5, 0, 1024, 1024, 1024, 1024, 0, 6, 3721, 3728, 3740, 3751, 3772, 3736, 0, 1, 16905, -89.900, 0.000, 64.400, 0.000, 0.000, -3.000, 0.0, , , , , , 98, , , 37, 37, 37
36.7673039, -118.8833876, 33.900, 13:22:10.432, 20, 0.00, 0.48, 97, 0.300, 0.500, 64.800, 640, 100, 97, 16, 22447, -19635, 5381, 5548, 8, 14, 1523737330.432, 101, 0, 1024, 1024, 1024, 1024, 0, 6, 3721, 3728, 3740, 3751, 3772, 3736, 0, 1, 17001, -89.900, 0.000, 64.400, 0.000, 0.000, -3.000, 0.0, , , , , , 98, , , 37, 37, 37
36.7673039, -118.8833876, 34.200, 13:22:10.532, 20, 0.00, 0.48, 97, 0.400, 0.600, 65.000, 640, 100, 97, 16, 22447, -19635, 5381, 5548, 8, 14, 1523737330.533, 84, 0, 1024, 1024, 1024, 1024, 0, 6, 3721, 3728, 3740, 3751, 3772, 3736, 0, 1, 17102, -89.900, 0.000, 64.400, 0.000, 0.000, -2.900, 0.0, , , , , , 98, , , 37, 37, 37
36.7673039, -118.8833877, 34.800, 13:22:10.633, 20, 0.00, 0.48, 97, 0.400, 0.300, 65.300, 640, 100, 96, 16, 22447, -19635, 5381, 5548, 8, 14, 1523737330.635, 16, 0, 1024, 1024, 1024, 1024, 0, 6, 3721, 3728, 3740, 3751, 3772, 3736, 0, 1, 17203, -89.900, 0.000, 64.400, 0.000, 0.000, -2.900, 0.0, , , , , , 98, , , 37, 37, 37
36.7673039, -118.8833877, 34.800, 13:22:10.732, 20, 0.00, 0.48, 97, 0.400, 0.300, 65.300, 640, 100, 96, 16, 22447, -19635, 5381, 5548, 8, 14, 1523737330.733, 114, 0, 1024, 1024, 1024, 1024, 0, 6, 3721, 3728, 3740, 3751, 3772, 3736, 0, 1, 17301, -89.900, 0.000, 64.400, 0.000, 0.000, -2.900, 0.0, , , , , , 98, , , 37, 37, 37
36.7673038, -118.8833877, 35.100, 13:22:10.832, 20, 0.00, 0.47, 97, 0.100, 0.100, 65.300, 640, 100, 96, 16, 22447, -19635, 5381, 5548, 8, 14, 1523737330.833, 39, 0, 1024, 1024, 1024, 1024, 0, 6, 3721, 3728, 3740, 3751, 3772, 3736, 0, 1, 17402, -90.000, 0.000, 64.400, 0.000, 0.000, -2.900, 0.0, , , , , , 98, , , 37, 37, 37
36.7673038, -118.8833878, 35.400, 13:22:10.932, 20, 0.00, 0.47, 97, -0.400, 0.000, 65.400, 640, 100, 96, 16, 22447, -19635, 5381, 5548, 8, 14, 1523737330.933, 60, 0, 1024, 1024, 1024, 1024, 0, 6, 3721, 3728, 3740, 3751, 3772, 3736, 0, 1, 17501, -90.000, 0.000, 64.400, 0.000, 0.000, -2.900, 0.0, , , , , , 98, , , 37, 37, 37
36.7673037, -118.8833877, 35.700, 13:22:11.038, 20, 0.00, 0.47, 97, -0.600, 0.200, 65.500, 640, 100, 96, 16, 22447, -19635, 5381, 5548, 8, 14, 1523737331.039, 6, 0, 1024, 1024, 1024, 1024, 0, 6, 3721, 3728, 3740, 3751, 3772, 3736, 0, 1, 17607, -89.900, 0.000, 64.400, 0.000, 0.000, -2.900, 0.0, , , , , , 98, , , 37, 37, 37
36.7673037, -118.8833877, 35.700, 13:22:11.132, 20, 0.00, 0.47, 97, -0.600, 0.200, 65.500, 640, 100, 96, 16, 22447, -19635, 5381, 5548, 8, 14, 1523737331.133, 100, 0, 1024, 1024, 1024, 1024, 0, 6, 3721, 3728, 3740, 3751, 3772, 3736, 0, 1, 17701, -89.900, 0.000, 64.400, 0.000, 0.000, -2.900, 0.0, , , , , , 98, , , 37, 37, 37
36.7673037, -118.8833877, 36.300, 13:22:11.232, 20, 0.00, 0.46, 97, -0.600, 0.400, 65.300, 640, 100, 96, 16, 22447, -19635, 5381, 5548, 8, 14, 1523737331.233, 49, 0, 1024, 1024, 1024, 1024, 0, 6, 3721, 3728, 3740, 3751, 3772, 3736, 0, 1, 17802, -89.900, 0.000, 64.400, 0.000, 0.000, -2.800, 0.0, , , , , , 98, , , 37, 37, 37
36.7673036, -118.8833876, 36.600, 13:22:11.332, 19, 0.00, 0.45, 97, -0.500, 0.700, 65.100, 640, 100, 96, 16, 22447, -19635, 5381, 5548, 8, 14, 1523737331.333, 41, 0, 1024, 1024, 1024, 1024, 0, 6, 3721, 3728, 3740, 3751, 3772, 3736, 0, 1, 17901, -89.900, 0.000, 64.400, 0.000, 0.000, -2.800, 0.0, , , , , , 98, , , 37, 37, 37
36.7673035, -118.8833875, 37.500, 13:22:11.432, 19, 0.00, 0.43, 97, -0.800, 1.000, 64.400, 640, 100, 96, 16, 22447, -19635, 5381, 5548, 8, 14, 1523737331.434, 53, 0, 1024, 1024, 1024, 1024, 0, 6, 3721, 3728, 3740, 3751, 3772, 3736, 0, 1, 18003, -89.900, 0.000, 64.400, 0.000, 0.000, -2.900, 0.0, , , , , , 98, , , 37, 37, 37
36.7673035, -118.8833875, 37.500, 13:22:11.532, 19, 0.00, 0.43, 97, -0.800, 1.000, 64.400, 640, 100, 97, 16, 22458, -19224, 5381, 5548, 8, 14, 1523737331.533, 152, 0, 1024, 1024, 1024, 1024, 0, 6, 3721, 3728, 3740, 3751, 3772, 3736, 0, 1, 18101, -89.900, 0.000, 64.400, 0.000, 0.000, -2.900, 0.0, , , , , , 98, , , 37, 37, 37
36.7673033, -118.8833874, 38.300, 13:22:11.632, 20, 0.00, 0.41, 97, -1.500, 0.700, 64.600, 640, 100, 97, 16, 22458, -19224, 5381, 5548, 8, 14, 1523737331.633, 24, 0, 1024, 1024, 1024, 1024, 0, 6, 3721, 3728, 3740, 3751, 3772, 3736, 0, 1, 18202, -89.900, 0.000, 64.400, 0.000, 0.000, -2.900, 0.0, , , , , , 98, , , 37, 37, 37
36.7673033, -118.8833874, 38.300, 13:22:11.732, 20, 0.00, 0.41, 97, -1.500, 0.700, 64.600, 640, 100, 97, 16, 22458, -19224, 5381, 5548, 8, 14, 1523737331.733, 123, 0, 1024, 1024, 1024, 1024, 0, 6, 3727, 3727, 3743, 3760, 3771, 3730, 0, 1, 18301, -89.900, 0.000, 64.400, 0.000, 0.000, -2.900, 0.0, , , , , , 98, , , 37, 37, 37
36.7673031, -118.8833874, 38.900, 13:22:11.832, 20, 0.00, 0.39, 97, -1.200, 0.300, 64.700, 640, 100, 97, 16, 22458, -19224, 5381, 5548, 8, 14, 1523737331.833, 49, 0, 1024, 1024, 1024, 1024, 0, 6, 3727, 3727, 3743, 3760, 3771, 3730, 0, 1, 18401, -89.900, 0.000, 64.400, 0.000, 0.000, -2.900, 0.0, , , , , , 98, , , 37, 37, 37
36.7673030, -118.8833873, 39.200, 13:22:11.932, 20, 0.14, 0.38, 97, -1.900, 0.100, 64.700, 640, 100, 98, 16, 22510, -18761, 5381, 5548, 8, 14, 1523737331.933, 39, 0, 1024, 1024, 1024, 1024, 0, 6, 3727, 3727, 3743, 3760, 3771, 3730, 0, 1, 18501, -89.900, 0.000, 64.400, -0.100, 0.100, -3.000, 0.0, , , , , , 98, , , 37, 37, 37
36.7673030, -118.8833873, 39.200, 13:22:12.032, 20, 0.14, 0.38, 97, -1.900, 0.100, 64.700, 640, 100, 98, 16, 22510, -18761, 5381, 5548, 8, 14, 1523737332.033, 139, 0, 1024, 1024, 1024, 1024, 0, 6, 3727, 3727, 3743, 3760, 3771, 3730, 0, 1, 18602, -89.900, 0.000, 64.400, -0.100, 0.100, -3.000, 0.0, , , , , , 98, , , 37, 37, 37
36.7673030, -118.8833873, 39.200, 13:22:12.132, 20, 0.14, 0.38, 97, -1.900, 0.100, 64.700, 640, 100, 98, 16, 22510, -18761, 5381, 5548, 8, 14, 1523737332.133, 239, 0, 1024, 1024, 1024, 1024, 0, 6, 3727, 3727, 3743, 3760, 3771, 3730, 0, 1, 18701, -89.900, 0.000, 64.400, -0.100, 0.100, -3.000, 0.0, , , , , , 98, , , 37, 37, 37
36.7673026, -118.8833870, 40.200, 13:22:12.232, 20, 0.14, 0.33, 97, -3.300, 1.100, 64.600, 640, 100, 98, 16, 22510, -18761, 5381, 5548, 8, 14, 1523737332.233, 43, 0, 1024, 1024, 1024, 1024, 0, 6, 3727, 3727, 3743, 3760, 3771, 3730, 0, 1, 18801, -89.900, 0.000, 64.400, -0.100, 0.100, -3.100, 0.0, , , , , , 98, , , 37, 37, 37
36.7673026, -118.8833870, 40.200, 13:22:12.332, 20, 0.14, 0.33, 97, -3.300, 1.100, 64.600, 640, 100, 98, 16, 22510, -18761, 5381, 5548, 8, 14, 1523737332.332, 143, 0, 1024, 1024, 1024, 1024, 0, 6, 3727, 3727, 3743, 3760, 3771, 3730, 0, 1, 18901, -89.900, 0.000, 64.400, -0.100, 0.100, -3.100, 0.0, , , , , , 98, , , 37, 37, 37
36.7673026, -118.8833870, 40.200, 13:22:12.432, 20, 0.14, 0.33, 97, -3.300, 1.100, 64.600, 640, 100, 97, 16, 22510, -18761, 5381, 5548, 8, 14, 1523737332.433, 243, 0, 1024, 1024, 1024, 1024, 0, 6, 3727, 3727, 3743, 3760, 3771, 3730, 0, 1, 19001, -89.900, 0.000, 64.400, -0.100, 0.100, -3.100, 0.0, , , , , , 98, , , 37, 37, 37
36.7673020, -118.8833866, 41.200, 13:22:12.532, 20, 0.14, 0.25, 97, -5.400, 1.600, 64.800, 640, 100, 97, 16, 22510, -18761, 5381, 5548, 8, 14, 1523737332.533, 37, 0, 1024, 1024, 1024, 1024, 0, 6, 3730, 3730, 3743, 3756, 3776, 3733, 0, 1, 19101, -89.900, 0.000, 64.400, -0.100, 0.100, -3.000, 0.0, , , , , , 98, , , 37, 37, 37
36.7673020, -118.8833866, 41.200, 13:22:12.632, 20, 0.14, 0.25, 97, -5.400, 1.600, 64.800, 640, 100, 97, 16, 22510, -18761, 5381, 5548, 8, 14, 1523737332.633, 137, 0, 1024, 1024, 1024, 1024, 0, 6, 3730, 3730, 3743, 3756, 3776, 3733, 0, 1, 19201, -89.900, 0.000, 64.400, -0.100, 0.100, -3.000, 0.0, , , , , , 98, , , 37, 37, 37
36.7673020, -118.8833866, 41.200, 13:22:12.732, 20, 0.14, 0.25, 97, -5.400, 1.600, 64.800, 640, 100, 97, 16, 22510, -18761, 5381, 5548, 8, 14, 1523737332.733, 237, 0, 1024, 1024, 1024, 1024, 0, 6, 3730, 3730, 3743, 3756, 3776, 3733, 0, 1, 19301, -89.900, 0.000, 64.400, -0.100, 0.100, -3.000, 0.0, , , , , , 98, , , 37, 37, 37
36.7673013, -118.8833864, 42.100, 13:22:12.836, 20, 0.20, 0.17, 97, -6.300, 0.600, 65.200, 640, 100, 97, 16, 22510, -18761, 5381, 5548, 8, 14, 1523737332.836, 4, 0, 1024, 1024, 1024, 1024, 0, 6, 3730, 3730, 3743, 3756, 3776, 3733, 0, 1, 19405, -89.900, 0.000, 64.400, -0.200, 0.000, -2.900, 0.0, , , , , , 98, , , 37, 37, 37
36.7673010, -118.8833863, 42.400, 13:22:12.933, 20, 0.20, 0.14, 97, -6.600, 0.500, 65.200, 640, 100, 93, 17, 22510, -18761, 5381, 5548, 8, 14, 1523737332.934, 11, 0, 1024, 1024, 1024, 1024, 0, 6, 3730, 3730, 3743, 3756, 3776, 3733, 0, 1, 19503, -90.000, 0.000, 64.400, -0.200, 0.000, -2.800, 0.0, , , , , , 98, , , 37, 37, 37
36.7673010, -118.8833863, 42.400, 13:22:13.032, 20, 0.20, 0.14, 97, -6.600, 0.500, 65.200, 640, 100, 93, 17, 22510, -18761, 5381, 5548, 8, 14, 1523737333.033, 109, 0, 1024, 1024, 1024, 1024, 0, 6, 3730, 3730, 3743, 3756, 3776, 3733, 0, 1, 19601, -90.000, 0.000, 64.400, -0.200, 0.000, -2.800, 0.0, , , , , , 98, , , 37, 37, 37
36.7673008, -118.8833862, 42.700, 13:22:13.132, 20, 0.10, 0.12, 97, -6.500, 0.600, 65.200, 640, 100, 93, 17, 22510, -18761, 5381, 5548, 8, 14, 1523737333.133, 83, 0, 1024, 1024, 1024, 1024, 0, 6, 3730, 3730, 3743, 3756, 3776, 3733, 0, 1, 19702, -90.000, 0.000, 64.400, -0.100, 0.000, -2.800, 0.0, , , , , , 98, , , 37, 37, 37
36.7673004, -118.8833861, 43.300, 13:22:13.236, 20, 0.10, 0.08, 97, -6.000, 0.100, 65.100, 640, 100, 93, 17, 22510, -18761, 5381, 5548, 8, 14, 1523737333.236, 5, 0, 1024, 1024, 1024, 1024, 0, 6, 3730, 3730, 3743, 3756, 3776, 3733, 0, 1, 19805, -90.000, 0.000, 64.400, -0.100, 0.000, -2.900, 0.0, , , , , , 98, , , 37, 37, 37
36.7673004, -118.8833861, 43.300, 13:22:13.332, 20, 0.10, 0.08, 97, -6.000, 0.100, 65.100, 640, 100, 93, 17, 22510, -18761, 5381, 5548, 8, 14, 1523737333.333, 101, 0, 1024, 1024, 1024, 1024, 0, 6, 3730, 3730, 3743, 3756, 3776, 3733, 0, 1, 19901, -90.000, 0.000, 64.400, -0.100, 0.000, -2.900, 0.0, , , , , , 98, , , 37, 37, 37
36.7673004, -118.8833861, 43.300, 13:22:13.432, 20, 0.10, 0.08, 97, -6.000, 0.100, 65.100, 640, 100, 93, 17, 22446, -19085, 5381, 5548, 8, 14, 1523737333.433, 201, 0, 1024, 1024, 1024, 1024, 0, 6, 3730, 3730, 3743, 3756, 3776, 3733, 0, 1, 20001, -89.900, 0.000, 64.400, -0.100, 0.000, -2.900, 0.0, , , , , , 98, , , 37, 37, 37
36.7673000, -118.8833860, 43.900, 13:22:13.532, 20, 0.10, 0.06, 97, -6.800, -0.200, 64.800, 640, 100, 93, 17, 22446, -19085, 5381, 5548, 8, 14, 1523737333.533, 66, 0, 1024, 1024, 1024, 1024, 0, 6, 3726, 3728, 3750, 3743, 3769, 3738, 0, 1, 20101, -89.900, 0.000, 64.400, -0.100, 0.000, -2.800, 0.0, , , , , , 98, , , 37, 37, 37
36.7673000, -118.8833860, 43.900, 13:22:13.632, 20, 0.10, 0.06, 97, -6.800, -0.200, 64.800, 640, 100, 93, 17, 22446, -19085, 5381, 5548, 8, 14, 1523737333.632, 165, 0, 1024, 1024, 1024, 1024, 0, 6, 3726, 3728, 3750, 3743, 3769, 3738, 0, 1, 20201, -89.900, 0.000, 64.400, -0.100, 0.000, -2.800, 0.0, , , , , , 98, , , 37, 37, 37
36.7672997, -118.8833859, 44.700, 13:22:13.732, 20, 0.00, 0.06, 97, -6.500, 0.400, 64.800, 640, 100, 93, 17, 22446, -19085, 5381, 5548, 8, 14, 1523737333.733, 62, 0, 1024, 1024, 1024, 1024, 0, 6, 3726, 3728, 3750, 3743, 3769, 3738, 0, 1, 20301, -89.900, 0.000, 64.400, 0.000, 0.000, -2.800, 0.0, , , , , , 98, , , 37, 37, 37
36.7672997, -118.8833859, 44.700, 13:22:13.831, 20, 0.00, 0.06, 97, -6.500, 0.400, 64.800, 640, 100, 93, 17, 22446, -19085, 5381, 5548, 8, 14, 1523737333.832, 161, 0, 1024, 1024, 1024, 1024, 0, 6, 3726, 3728, 3750, 3743, 3769, 3738, 0, 1, 20400, -89.900, 0.000, 64.400, 0.000, 0.000, -2.800, 0.0, , , , , , 98, , , 37, 37, 37
36.7672997, -118.8833858, 45.200, 13:22:13.932, 20, 0.00, 0.05, 97, -5.400, 0.500, 65.000, 640, 100, 91, 17, 22446, -19085, 5381, 5548, 8, 14, 1523737333.933, 82, 0, 1024, 1024, 1024, 1024, 0, 6, 3726, 3728, 3750, 3743, 3769, 3738, 0, 1, 20501, -89.900, 0.000, 64.400, 0.000, 0.000, -2.600, 0.0, , , , , , 98, , , 37, 37, 37
36.7672997, -118.8833858, 45.400, 13:22:14.032, 20, 0.00, 0.05, 97, -4.800, 0.600, 65.100, 640, 100, 91, 17, 22446, -19085, 5381, 5548, 8, 14, 1523737334.033, 51, 0, 1024, 1024, 1024, 1024, 0, 6, 3726, 3728, 3750, 3743, 3769, 3738, 0, 1, 20602, -89.900, 0.000, 64.400, 0.000, 0.000, -2.500, 0.0, , , , , , 98, , , 37, 37, 37
36.7672997, -118.8833858, 45.700, 13:22:14.132, 20, 0.00, 0.05, 97, -4.600, 0.700, 65.200, 640, 100, 91, 17, 22446, -19085, 5381, 5548, 8, 14, 1523737334.133, 42, 0, 1024, 1024, 1024, 1024, 0, 6, 3726, 3728, 3750, 3743, 3769, 3738, 0, 1, 20701, -89.900, 0.000, 64.400, 0.000, 0.000, -2.700, 0.0, , , , , , 98, , , 37, 37, 37
36.7672997, -118.8833858, 45.900, 13:22:14.232, 20, 0.00, 0.05, 97, -4.500, 0.400, 65.300, 640, 100, 91, 17, 22446, -19085, 5381, 5548, 8, 14, 1523737334.233, 34, 0, 1024, 1024, 1024, 1024, 0, 6, 3726, 3728, 3750, 3743, 3769, 3738, 0, 1, 20802, -90.000, 0.000, 64.400, 0.000, 0.000, -2.700, 0.0, , , , , , 98, , , 37, 37, 37
36.7672997, -118.8833858, 46.200, 13:22:14.332, 20, 0.00, 0.05, 97, -4.600, 0.200, 65.300, 640, 100, 91, 17, 22446, -19085, 5381, 5548, 8, 14, 1523737334.333, 48, 0, 1024, 1024, 1024, 1024, 0, 6, 3726, 3728, 3750, 3743, 3769, 3738, 0, 1, 20901, -90.000, 0.000, 64.400, 0.000, 0.000, -2.800, 0.0, , , , , , 98, , , 37, 37, 37
36.7672997, -118.8833857, 46.400, 13:22:14.432, 20, 0.00, 0.04, 97, -4.500, 0.200, 65.200, 640, 100, 91, 17, 22446, -19085, 5381, 5548, 8, 14, 1523737334.433, 36, 0, 1024, 1024, 1024, 1024, 0, 6, 3726, 3728, 3750, 3743, 3769, 3738, 0, 1, 21001, -89.900, 0.000, 64.400, 0.000, 0.000, -2.900, 0.0, , , , , , 98, , , 37, 37, 37
