latitude,longitude,altitude(feet),ascent(feet),speed(mph),distance(feet),time(millisecond),datetime(utc),satellites,gpslevel,voltage(v),max_altitude(feet),max_ascent(feet),max_speed(mph),max_distance(feet), xSpeed(mph), ySpeed(mph), zSpeed(mph), compass_heading(degrees), pitch(degrees), roll(degrees),isPhoto,isVideo,rc_elevator,rc_aileron,rc_throttle,rc_rudder,gimbal_heading(degrees),gimbal_pitch(degrees),battery_percent,voltageCell1,voltageCell2,voltageCell3,voltageCell4,voltageCell5,voltageCell6,current(A),battery_temperature(f),flycStateRaw,flycState,message
36.7673011,-118.8833861,5725.6857632744,0,0.223694,0,3030,2018-04-14 20:21:56,11,0,25.088,5725.6857632744,0,0.223694,0,0,0,0,65.9, 0.7, 0.4,1,0,1024,1024,1024,1024,64,-89.9,100,4.211,4.198,4.205,4.18,0,0,3.791,60.8,11,AutoTakeoff,DJI_0636.jpg Starting Mission from Lat/Long: 36.76728/-118.88339 Camera: Zenmuse X3 - Overlap: 90/90 - Active Connection: Yes
36.7673012,-118.8833863,5725.6857632744,0,0.223694,0.068906170184,3100,2018-04-14 20:21:57,11,0,25.088,5725.6857632744,0,0.223694,0.068906170184,0,0,0,66.1, 0, 0.4,0,0,1024,1024,1024,1024,64,-89.9,100,4.211,4.198,4.205,4.18,0,0,3.791,60.8,11,AutoTakeoff,
36.7673013,-118.8833864,5725.6857632744,0,0.223694,0.114072838296,3200,2018-04-14 20:21:57,11,0,25.088,5725.6857632744,0,0.223694,0.114072838296,0,0,0,66.1, -0.3, 0,0,0,1024,1024,1024,1024,64.1,-90,100,4.211,4.198,4.205,4.18,0,0,3.791,60.8,11,AutoTakeoff,
36.7673014,-118.8833866,5725.6857632744,0,0,0.182581370672,3300,2018-04-14 20:21:57,11,0,25.088,5725.6857632744,0,0.223694,0.182581370672,0,0,0,66, -0.4, 0,0,0,1024,1024,1024,1024,64.1,-89.9,100,4.211,4.198,4.205,4.18,0,0,3.791,60.8,11,AutoTakeoff,
36.7673015,-118.8833867,5726.0138472744,0.328084,0,0.228145676592,3400,2018-04-14 20:21:57,11,0,25.088,5726.0138472744,0.328084,0.223694,0.228145676592,0,0,0,65.8, -0.4, 0.4,0,0,1024,1024,1024,1024,64.1,-89.9,100,4.211,4.198,4.205,4.18,0,0,3.791,60.8,11,AutoTakeoff,
36.7673017,-118.8833867,5726.0138472744,0.328084,0,0.280487869868,3500,2018-04-14 20:21:57,11,0,25.088,5726.0138472744,0.328084,0.223694,0.280487869868,0,0,0,65.7, -0.3, 0.6,0,0,1024,1024,1024,1024,64.1,-89.9,100,4.211,4.198,4.205,4.18,0,0,3.791,60.8,11,AutoTakeoff,
36.7673019,-118.8833867,5726.3419312744,0.656168,0.223694,0.34050854108,3600,2018-04-14 20:21:57,11,0,25.088,5726.3419312744,0.656168,0.223694,0.34050854108,0,0,0,65.6, 0, 1.1,0,0,1024,1024,1024,1024,64.1,-89.9,100,4.211,4.198,4.205,4.18,0,0,3.791,60.8,11,AutoTakeoff,
36.7673022,-118.8833868,5726.6700152744,0.984252,0.223694,0.45047245536,3700,2018-04-14 20:21:57,11,0,25.088,5726.6700152744,0.984252,0.223694,0.45047245536,0,0,0,65.5, 0.2, 1.2,0,0,1024,1024,1024,1024,64.2,-89.9,100,4.211,4.198,4.205,4.18,0,0,3.791,60.8,11,AutoTakeoff,
36.7673024,-118.8833867,5726.6700152744,0.984252,0.223694,0.50568571172,3800,2018-04-14 20:21:57,11,0,25.088,5726.6700152744,0.984252,0.223694,0.50568571172,0,0,0,65.4, 0.7, 1.4,0,0,1024,1024,1024,1024,64.2,-89.9,100,4.211,4.198,4.205,4.18,0,0,3.791,60.8,11,AutoTakeoff,
36.7673025,-118.8833867,5726.9980992744,1.312336,0.223694,0.54005251072,3900,2018-04-14 20:21:57,11,0,25.088,5726.9980992744,1.312336,0.223694,0.54005251072,0,0,0,65.4, 1.3, 1.7,0,0,1024,1024,1024,1024,64.2,-89.9,100,4.211,4.198,4.205,4.18,0,0,3.791,60.8,11,AutoTakeoff,
36.7673027,-118.8833866,5726.9980992744,1.312336,0,0.6017716728,4100,2018-04-14 20:21:58,9,0,25.088,5726.9980992744,1.312336,0.223694,0.6017716728,0,0,0,65.4, 1.7, 1.9,0,0,1024,1024,1024,1024,64.2,-89.9,100,4.211,4.198,4.205,4.18,0,0,3.791,60.8,11,AutoTakeoff,
36.7673028,-118.8833866,5727.3261832744,1.64042,0,0.63722771068,4200,2018-04-14 20:21:58,9,0,25.088,5727.3261832744,1.64042,0.223694,0.63722771068,0,0,0,65.5, 1.8, 2,0,0,1024,1024,1024,1024,64.2,-89.9,100,4.211,4.198,4.205,4.18,0,0,3.791,60.8,11,AutoTakeoff,
36.7673028,-118.8833865,5727.3261832744,1.64042,0,0.63116471836,4300,2018-04-14 20:21:58,10,0,25.088,5727.3261832744,1.64042,0.223694,0.63722771068,0,0,0,65.7, 2, 1.8,0,0,1024,1024,1024,1024,64.3,-89.9,100,4.211,4.198,4.205,4.18,0,0,3.791,60.8,11,AutoTakeoff,
36.7673029,-118.8833865,5727.6542672744,1.968504,0,0.66705382712,4400,2018-04-14 20:21:58,10,0,25.088,5727.6542672744,1.968504,0.223694,0.66705382712,0,0,0,65.9, 1.8, 1.4,0,0,1024,1024,1024,1024,64.3,-89.9,100,4.211,4.198,4.205,4.18,0,0,3.791,60.8,11,AutoTakeoff,
36.7673029,-118.8833864,5727.6542672744,1.968504,0,0.66255579548,4500,2018-04-14 20:21:58,11,0,25.088,5727.6542672744,1.968504,0.223694,0.66705382712,0,0,0,66.1, 1.7, 1,0,0,1024,1024,1024,1024,64.3,-89.9,100,4.211,4.198,4.205,4.18,0,0,3.791,60.8,11,AutoTakeoff,
36.7673029,-118.8833864,5727.9823512744,2.296588,0,0.66255579548,4600,2018-04-14 20:21:58,11,0,25.088,5727.9823512744,2.296588,0.223694,0.66705382712,0,0,0,66.1, 1.5, 0.8,0,0,1024,1024,1024,1024,64.3,-89.9,100,4.211,4.198,4.205,4.18,0,0,3.791,60.8,11,AutoTakeoff,
36.767303,-118.8833863,5728.3104352744,2.624672,0.223694,0.69567259444,4700,2018-04-14 20:21:58,11,0,25.088,5728.3104352744,2.624672,0.223694,0.69567259444,0,0,0,65.7, 1.5, 1.2,0,0,1024,1024,1024,1024,64.3,-89.9,100,4.211,4.198,4.205,4.18,0,0,3.791,60.8,11,AutoTakeoff,
36.767303,-118.8833862,5728.3104352744,2.624672,0.223694,0.69382876236,4900,2018-04-14 20:21:58,11,0,25.088,5728.3104352744,2.624672,0.223694,0.69567259444,0,0,0,65.3, 1.6, 1.6,0,0,1024,1024,1024,1024,64.3,-89.9,100,4.211,4.198,4.205,4.18,0,0,3.791,60.8,11,AutoTakeoff,
36.7673029,-118.8833858,5728.6385192744,2.952756,0.3131716,0.66255579548,5100,2018-04-14 20:21:59,10,0,25.088,5728.6385192744,2.952756,0.3131716,0.69567259444,0,0,0,65, 2.1, 1.2,0,0,1024,1024,1024,1024,64.4,-89.9,100,4.211,4.198,4.205,4.18,0,0,3.791,60.8,14,Waypoint,
36.7673029,-118.8833857,5728.9666032744,3.28084,0.3131716,0.66705382712,5200,2018-04-14 20:21:59,10,0,25.088,5728.9666032744,3.28084,0.3131716,0.69567259444,0,0,0,64.8, 2.1, -0.4,0,0,1024,1024,1024,1024,64.4,-89.9,100,4.211,4.198,4.205,4.18,0,0,3.791,60.8,14,Waypoint,
36.7673028,-118.8833855,5728.9666032744,3.28084,0.3131716,0.64455710724,5300,2018-04-14 20:21:59,11,0,25.088,5728.9666032744,3.28084,0.3131716,0.69567259444,0,0,0,64.7, 1.8, -2,0,0,1024,1024,1024,1024,64.4,-89.9,100,4.211,4.198,4.205,4.18,0,0,3.791,60.8,14,Waypoint,
36.7673026,-118.8833852,5729.2946872744,3.608924,0.223694,0.60720802468,5400,2018-04-14 20:21:59,10,0,25.088,5729.2946872744,3.608924,0.3131716,0.69567259444,0,0,0,64.6, 2, -2.2,0,0,1024,1024,1024,1024,64.4,-89.9,100,4.211,4.198,4.205,4.18,0,0,3.791,60.8,14,Waypoint,
36.7673026,-118.883385,5729.2946872744,3.608924,0.223694,0.63472114892,5500,2018-04-14 20:21:59,10,0,25.088,5729.2946872744,3.608924,0.3131716,0.69567259444,0,0,0,64.7, 2.3, -1.8,0,0,1024,1024,1024,1024,64.4,-89.9,100,4.211,4.198,4.205,4.18,0,0,3.791,60.8,14,Waypoint,
36.7673027,-118.8833848,5729.6227712744,3.937008,0.223694,0.69651905116,5600,2018-04-14 20:21:59,9,0,25.088,5729.6227712744,3.937008,0.3131716,0.69651905116,0,0,-0.223694,64.8, 2.6, -1.3,0,0,1024,1024,1024,1024,64.4,-89.9,100,4.211,4.198,4.205,4.18,0,0,3.791,60.8,14,Waypoint,
36.7673026,-118.8833847,5729.6227712744,3.937008,0.223694,0.68332679352,5700,2018-04-14 20:21:59,9,0,25.088,5729.6227712744,3.937008,0.3131716,0.69651905116,0,0,-0.223694,64.8, 2.7, -1.2,0,0,1024,1024,1024,1024,64.4,-89.9,100,4.211,4.198,4.205,4.18,0,0,3.791,60.8,14,Waypoint,
36.7673026,-118.8833846,5729.9508552744,4.265092,0.223694,0.70122049488,5800,2018-04-14 20:21:59,9,0,25.088,5729.9508552744,4.265092,0.3131716,0.70122049488,0,0,-0.223694,64.9, 2.6, -1.4,0,0,1024,1024,1024,1024,64.4,-89.9,100,4.211,4.198,4.205,4.18,0,0,3.791,60.8,14,Waypoint,
36.7673027,-118.8833844,5730.2789392744,4.593176,0,0.76658138936,5900,2018-04-14 20:21:59,9,0,25.088,5730.2789392744,4.593176,0.3131716,0.76658138936,0,0,-0.223694,64.9, 2.5, -1.8,0,0,1024,1024,1024,1024,64.4,-89.9,100,4.211,4.198,4.205,4.18,0,0,3.791,60.8,14,Waypoint,
36.7673028,-118.8833842,5730.9351072744,5.249344,0,0.83251315,6000,2018-04-14 20:21:59,10,0,23.231,5730.9351072744,5.249344,0.3131716,0.83251315,0,0,-0.223694,65, 2.5, -1.7,0,0,1024,1024,1024,1024,64.4,-90,100,3.85,3.852,3.866,3.872,0,0,16.661,60.8,14,Waypoint,
36.767303,-118.8833841,5731.2631912744,5.577428,0,0.90677168256,6120,2018-04-14 20:22:00,10,0,23.231,5731.2631912744,5.577428,0.3131716,0.90677168256,0,0,-0.447388,65, 2.7, -1.3,0,0,1024,1024,1024,1024,64.4,-90,100,3.85,3.852,3.866,3.872,0,0,16.661,60.8,14,Waypoint,
36.7673031,-118.8833839,5731.9193592744,6.233596,0,0.97257549044,6220,2018-04-14 20:22:00,9,0,23.231,5731.9193592744,6.233596,0.3131716,0.97257549044,0,0,-0.447388,64.9, 3, -0.8,0,0,1024,1024,1024,1024,64.4,-89.9,100,3.85,3.852,3.866,3.872,0,0,16.661,60.8,14,Waypoint,
36.7673032,-118.8833837,5733.2316952744,7.545932,0,1.03878284164,6400,2018-04-14 20:22:00,11,0,23.231,5733.2316952744,7.545932,0.3131716,1.03878284164,0,0,-0.447388,64.7, 3.3, -0.5,0,0,1024,1024,1024,1024,64.4,-89.9,100,3.85,3.852,3.866,3.872,0,0,16.661,60.8,14,Waypoint,
36.7673033,-118.8833836,5733.8878632744,8.2021,0,1.0854331056,6500,2018-04-14 20:22:00,11,0,23.231,5733.8878632744,8.2021,0.3131716,1.0854331056,0,0,-0.447388,64.6, 3.6, 0.1,0,0,1024,1024,1024,1024,64.4,-89.9,100,3.85,3.852,3.866,3.872,0,0,16.661,60.8,14,Waypoint,
36.7673034,-118.8833835,5734.8721152744,9.186352,0,1.13209321208,6700,2018-04-14 20:22:00,12,0,23.231,5734.8721152744,9.186352,0.3131716,1.13209321208,0,0,-0.671082,64.7, 3.7, 0.4,0,0,1024,1024,1024,1024,64.4,-89.9,100,3.85,3.852,3.866,3.872,0,0,16.661,60.8,14,Waypoint,
36.7673035,-118.8833834,5735.8563672744,10.170604,0,1.17875988024,6800,2018-04-14 20:22:00,12,0,23.231,5735.8563672744,10.170604,0.3131716,1.17875988024,0,0,-0.671082,64.8, 3.6, 0,0,0,1024,1024,1024,1024,64.4,-89.9,100,3.85,3.852,3.866,3.872,0,0,16.661,60.8,14,Waypoint,
36.7673034,-118.8833834,5736.8406192744,11.154856,0,1.15191604736,6900,2018-04-14 20:22:00,12,0,23.231,5736.8406192744,11.154856,0.3131716,1.17875988024,0,0,-0.671082,65, 3.3, -0.5,0,0,1024,1024,1024,1024,64.4,-90,100,3.85,3.852,3.866,3.872,0,0,16.661,60.8,14,Waypoint,
36.7673032,-118.8833836,5739.1372072744,13.451444,0,1.05874019136,7200,2018-04-14 20:22:01,11,0,23.231,5739.1372072744,13.451444,0.3131716,1.17875988024,0,0,-0.671082,65.1, 2.3, -1.2,0,0,1024,1024,1024,1024,64.4,-90,100,3.85,3.852,3.866,3.872,0,0,16.661,60.8,14,Waypoint,
36.767303,-118.8833837,5740.1214592744,14.435696,0,0.98619425728,7300,2018-04-14 20:22:01,11,0,23.231,5740.1214592744,14.435696,0.3131716,1.17875988024,0,0,-0.671082,64.9, 1.9, -1.6,0,0,1024,1024,1024,1024,64.4,-90,100,3.85,3.852,3.866,3.872,0,0,16.661,60.8,14,Waypoint,
36.7673028,-118.883384,5742.4180472744,16.732284,0,0.87259189144,7440,2018-04-14 20:22:01,11,0,23.231,5742.4180472744,16.732284,0.3131716,1.17875988024,0,0,-0.671082,64.6, 1.1, -1.9,0,0,1024,1024,1024,1024,64.4,-90,100,3.85,3.852,3.866,3.872,0,0,16.661,60.8,14,Waypoint,
36.7673028,-118.883384,5742.4180472744,16.732284,0,0.87259189144,7500,2018-04-14 20:22:01,11,0,23.231,5742.4180472744,16.732284,0.3131716,1.17875988024,0,0,-0.671082,64.6, 1.1, -1.9,0,0,1024,1024,1024,1024,64.4,-90,100,3.85,3.852,3.866,3.872,0,0,16.661,60.8,14,Waypoint,
36.7673035,-118.8833843,5744.7146352744,19.028872,0,1.02152562324,7700,2018-04-14 20:22:01,12,0,23.231,5744.7146352744,19.028872,0.3131716,1.17875988024,0,0,-0.671082,64.5, 1.3, -0.9,0,0,1024,1024,1024,1024,64.4,-89.9,100,3.85,3.852,3.866,3.872,0,0,16.661,60.8,14,Waypoint,
36.7673036,-118.8833843,5746.0269712744,20.341208,0,1.05296591296,7810,2018-04-14 20:22:01,13,0,23.231,5746.0269712744,20.341208,0.3131716,1.17875988024,0,0,-0.671082,64.4, 1.6, 0.3,0,0,1024,1024,1024,1024,64.4,-89.9,100,3.85,3.852,3.866,3.872,0,0,16.661,60.8,14,Waypoint,
36.7673036,-118.8833843,5746.0269712744,20.341208,0,1.05296591296,7900,2018-04-14 20:22:01,13,0,23.231,5746.0269712744,20.341208,0.3131716,1.17875988024,0,0,-0.671082,64.4, 1.6, 0.3,0,0,1024,1024,1024,1024,64.4,-89.9,100,3.85,3.852,3.866,3.872,0,0,16.661,60.8,14,Waypoint,
36.7673035,-118.8833842,5747.0112232744,21.32546,0,1.03687995444,8000,2018-04-14 20:22:01,13,0,22.355,5747.0112232744,21.32546,0.3131716,1.17875988024,0,0,-0.671082,64.4, 2, 0.8,0,0,1024,1024,1024,1024,64.4,-89.9,98,3.825,3.805,3.878,3.863,0,0,24.919,60.8,14,Waypoint,
36.7673036,-118.8833839,5749.3078112744,23.622048,0,1.11598100684,8110,2018-04-14 20:22:02,12,0,22.355,5749.3078112744,23.622048,0.3131716,1.17875988024,0,0,-0.671082,64.3, 2.4, -0.6,0,0,1024,1024,1024,1024,64.4,-89.9,98,3.825,3.805,3.878,3.863,0,0,24.919,60.8,14,Waypoint,
36.7673037,-118.8833838,5750.6201472744,24.934384,0,1.16264439416,8200,2018-04-14 20:22:02,13,0,22.355,5750.6201472744,24.934384,0.3131716,1.17875988024,0,0,-0.671082,64.3, 2.8, -1,0,0,1024,1024,1024,1024,64.4,-89.9,98,3.825,3.805,3.878,3.863,0,0,24.919,60.8,14,Waypoint,
36.7673039,-118.8833837,5751.6043992744,25.918636,0,1.23921591892,8400,2018-04-14 20:22:02,13,0,22.355,5751.6043992744,25.918636,0.3131716,1.23921591892,0,0,-0.671082,64.3, 3.2, -1,0,0,1024,1024,1024,1024,64.4,-89.9,98,3.825,3.805,3.878,3.863,0,0,24.919,60.8,14,Waypoint,
36.767304,-118.8833837,5752.5886512744,26.902888,0,1.26946198288,8500,2018-04-14 20:22:02,13,0,22.355,5752.5886512744,26.902888,0.3131716,1.26946198288,0,0,-0.671082,64.4, 3.4, -0.7,0,0,1024,1024,1024,1024,64.4,-89.9,98,3.825,3.805,3.878,3.863,0,0,24.919,60.8,14,Waypoint,
36.767304,-118.8833836,5753.9009872744,28.215224,0,1.28583993616,8610,2018-04-14 20:22:02,13,0,22.355,5753.9009872744,28.215224,0.3131716,1.28583993616,0,0,-0.671082,64.6, 3.3, -0.5,0,0,1024,1024,1024,1024,64.4,-89.9,98,3.825,3.805,3.878,3.863,0,0,24.919,60.8,14,Waypoint,
36.767304,-118.8833835,5754.8852392744,29.199476,0,1.30267064536,8700,2018-04-14 20:22:02,13,0,22.355,5754.8852392744,29.199476,0.3131716,1.30267064536,0,0,-0.671082,64.7, 3.3, -0.7,0,0,1024,1024,1024,1024,64.4,-89.9,98,3.825,3.805,3.878,3.863,0,0,24.919,60.8,14,Waypoint,
36.7673042,-118.8833836,5755.8694912744,30.183728,0,1.3465223528,8800,2018-04-14 20:22:02,13,0,22.355,5755.8694912744,30.183728,0.3131716,1.3465223528,0,0,-0.671082,64.9, 3.3, -0.6,0,0,1024,1024,1024,1024,64.4,-89.9,98,3.825,3.805,3.878,3.863,0,0,24.919,60.8,14,Waypoint,
36.7673044,-118.8833837,5756.8537432744,31.16798,0,1.39343180312,8900,2018-04-14 20:22:02,12,0,22.355,5756.8537432744,31.16798,0.3131716,1.39343180312,0,0,-0.671082,65, 2.9, -0.1,0,0,1024,1024,1024,1024,64.4,-89.9,98,3.825,3.805,3.878,3.863,0,0,24.919,60.8,14,Waypoint,
36.7673045,-118.8833838,5757.8379952744,32.152232,0,1.41091868032,9000,2018-04-14 20:22:02,12,0,22.355,5757.8379952744,32.152232,0.3131716,1.41091868032,0,0,-0.671082,65.1, 2.4, 0.2,0,0,1024,1024,1024,1024,64.4,-90,98,3.707,3.698,3.736,3.74,0,0,24.919,60.8,14,Waypoint,
36.7673042,-118.883384,5759.8064992744,34.120736,0.223694,1.28683731152,9110,2018-04-14 20:22:03,13,0,22.355,5759.8064992744,34.120736,0.3131716,1.41091868032,0,0,-0.671082,65.2, 1.9, 0,0,0,1024,1024,1024,1024,64.4,-90,98,3.707,3.698,3.736,3.74,0,0,24.919,60.8,14,Waypoint,
36.767304,-118.883384,5760.7907512744,35.104988,0.223694,1.2231955772,9300,2018-04-14 20:22:03,14,0,22.355,5760.7907512744,35.104988,0.3131716,1.41091868032,0,0,-0.671082,65.2, 1.6, -1,0,0,1024,1024,1024,1024,64.4,-90,98,3.707,3.698,3.736,3.74,0,0,24.919,60.8,14,Waypoint,
36.7673038,-118.8833841,5762.7592552744,37.073492,0.223694,1.14546919676,9410,2018-04-14 20:22:03,13,0,22.355,5762.7592552744,37.073492,0.3131716,1.41091868032,0,0,-0.671082,65.2, 1.3, -1.7,0,0,1024,1024,1024,1024,64.4,-90,98,3.707,3.698,3.736,3.74,0,0,24.919,60.8,14,Waypoint,
36.767304,-118.8833842,5763.7435072744,38.057744,0,1.19493770228,9600,2018-04-14 20:22:03,13,0,22.355,5763.7435072744,38.057744,0.3131716,1.41091868032,0,0,-0.671082,65.1, 1.1, -1.4,0,0,1024,1024,1024,1024,64.4,-89.9,98,3.707,3.698,3.736,3.74,0,0,24.919,60.8,14,Waypoint,
36.7673038,-118.8833843,5765.7120112744,40.026248,0,1.11677168928,9700,2018-04-14 20:22:03,13,0,22.355,5765.7120112744,40.026248,0.3131716,1.41091868032,0,0,-0.671082,64.9, 1.4, -0.6,0,0,1024,1024,1024,1024,64.4,-89.9,98,3.707,3.698,3.736,3.74,0,0,24.919,60.8,14,Waypoint,
36.7673034,-118.8833845,5768.9928512744,43.307088,0.223694,0.96065619872,9900,2018-04-14 20:22:03,12,0,22.355,5768.9928512744,43.307088,0.3131716,1.41091868032,0,0,-0.671082,64.8, 0.9, -2,0,0,1024,1024,1024,1024,64.4,-89.9,98,3.707,3.698,3.736,3.74,0,0,24.919,60.8,14,Waypoint,
36.7673033,-118.8833846,5769.9771032744,44.29134,0.223694,0.91458992428,10000,2018-04-14 20:22:03,12,0,22.8,5769.9771032744,44.29134,0.3131716,1.41091868032,0,0,-0.671082,64.8, 0.7, -1.9,0,0,1024,1024,1024,1024,64.4,-89.9,98,3.772,3.776,3.788,3.808,0,0,18.243,60.8,14,Waypoint,
36.7673032,-118.8833847,5770.9613552744,45.275592,0.223694,0.86859910916,10100,2018-04-14 20:22:04,13,0,22.8,5770.9613552744,45.275592,0.3131716,1.41091868032,0,0,-0.671082,64.9, 0.6, -1.7,0,0,1024,1024,1024,1024,64.4,-89.9,98,3.772,3.776,3.788,3.808,0,0,18.243,60.8,14,Waypoint,
36.767303,-118.8833847,5772.9298592744,47.244096,0,0.80496721736,10200,2018-04-14 20:22:04,13,0,22.8,5772.9298592744,47.244096,0.3131716,1.41091868032,0,0,-0.671082,65, 0.5, -1.8,0,0,1024,1024,1024,1024,64.4,-90,98,3.772,3.776,3.788,3.808,0,0,18.243,60.8,14,Waypoint,
36.7673031,-118.8833848,5773.9141112744,48.228348,0,0.82269359588,10300,2018-04-14 20:22:04,13,0,22.8,5773.9141112744,48.228348,0.3131716,1.41091868032,0,0,-0.671082,65.2, 0.6, -1.8,0,0,1024,1024,1024,1024,64.4,-89.9,98,3.772,3.776,3.788,3.808,0,0,18.243,60.8,14,Waypoint,
36.7673033,-118.8833848,5774.8983632744,49.2126,0,0.88805449036,10400,2018-04-14 20:22:04,14,0,22.8,5774.8983632744,49.2126,0.3131716,1.41091868032,0,0,-0.671082,65.2, 1.2, -2,0,0,1024,1024,1024,1024,64.4,-89.9,98,3.772,3.776,3.788,3.808,0,0,18.243,60.8,14,Waypoint,
36.7673036,-118.8833848,5775.8826152744,50.196852,0,0.98809714448,10500,2018-04-14 20:22:04,14,0,22.8,5775.8826152744,50.196852,0.3131716,1.41091868032,0,0,-0.671082,65.3, 1.8, -1.7,0,0,1024,1024,1024,1024,64.4,-89.9,98,3.772,3.776,3.788,3.808,0,0,18.243,60.8,14,Waypoint,
36.7673037,-118.8833847,5776.8668672744,51.181104,0,1.03309386508,10600,2018-04-14 20:22:04,15,0,22.8,5776.8668672744,51.181104,0.3131716,1.41091868032,0,0,-0.671082,65.4, 2.5, -0.8,0,0,1024,1024,1024,1024,64.4,-89.9,98,3.772,3.776,3.788,3.808,0,0,18.243,60.8,14,Waypoint,
36.7673036,-118.8833845,5778.8353712744,53.149608,0,1.02501315616,10800,2018-04-14 20:22:04,15,0,22.8,5778.8353712744,53.149608,0.3131716,1.41091868032,0,0,-0.671082,64.9, 3.2, 0.2,0,0,1024,1024,1024,1024,64.4,-89.9,98,3.772,3.776,3.788,3.808,0,0,18.243,60.8,14,Waypoint,
36.7673035,-118.8833843,5780.8038752744,55.118112,0.223694,1.02152562324,11010,2018-04-14 20:22:04,15,0,22.621,5780.8038752744,55.118112,0.3131716,1.41091868032,0,0,-0.671082,63.8, 3.8, -1.2,0,0,1024,1024,1024,1024,64.4,-89.9,98,3.753,3.756,3.774,3.777,0,0,19.669,60.8,14,Waypoint,
36.7673035,-118.8833842,5781.7881272744,56.102364,0.223694,1.03687995444,11200,2018-04-14 20:22:05,15,0,22.621,5781.7881272744,56.102364,0.3131716,1.41091868032,0,0,-0.671082,63.4, 3.8, -2.2,0,0,1024,1024,1024,1024,64.3,-89.9,98,3.753,3.756,3.774,3.777,0,0,19.669,60.8,14,Waypoint,
36.7673034,-118.883384,5782.7723792744,57.086616,0.3131716,1.03965882592,11300,2018-04-14 20:22:05,16,0,22.621,5782.7723792744,57.086616,0.3131716,1.41091868032,0,0,-0.671082,63.2, 3.6, -2.9,0,0,1024,1024,1024,1024,64.4,-90,98,3.753,3.756,3.774,3.777,0,0,19.669,60.8,14,Waypoint,
36.7673032,-118.8833839,5783.7566312744,58.070868,0.223694,1.00023953332,11400,2018-04-14 20:22:05,16,0,22.621,5783.7566312744,58.070868,0.3131716,1.41091868032,0,0,-0.671082,63.3, 3.3, -3.4,0,0,1024,1024,1024,1024,64.4,-89.9,98,3.753,3.756,3.774,3.777,0,0,19.669,60.8,14,Waypoint,
36.7673033,-118.8833838,5784.7408832744,59.05512,0,1.04697837996,11500,2018-04-14 20:22:05,14,0,22.621,5784.7408832744,59.05512,0.3131716,1.41091868032,0,0,-0.671082,63.5, 3.2, -3.5,0,0,1024,1024,1024,1024,64.4,-89.9,98,3.753,3.756,3.774,3.777,0,0,19.669,60.8,14,Waypoint,
36.7673036,-118.8833837,5785.7251352744,60.039372,0,1.15065292396,11600,2018-04-14 20:22:05,14,0,22.621,5785.7251352744,60.039372,0.3131716,1.41091868032,0,0,-0.671082,63.8, 3.3, -2.8,0,0,1024,1024,1024,1024,64.4,-89.9,98,3.753,3.756,3.774,3.777,0,0,19.669,60.8,14,Waypoint,
36.7673035,-118.8833836,5787.6936392744,62.007876,0,1.1404527924,11700,2018-04-14 20:22:05,16,0,22.621,5787.6936392744,62.007876,0.3131716,1.41091868032,0,0,-0.671082,64.6, 4, -1.4,0,0,1024,1024,1024,1024,64.4,-89.9,98,3.753,3.756,3.774,3.777,0,0,19.669,60.8,14,Waypoint,
36.7673031,-118.8833836,5790.6463952744,64.960632,0.223694,1.03264110916,12000,2018-04-14 20:22:05,15,0,22.643,5790.6463952744,64.960632,0.3131716,1.41091868032,0,0,-0.671082,65.5, 2.5, -2.9,0,0,1024,1024,1024,1024,64.4,-90,98,3.753,3.756,3.774,3.777,0,0,19.602,60.8,14,Waypoint,
36.7673029,-118.8833835,5791.6306472744,65.944884,0.223694,1.0043635492,12100,2018-04-14 20:22:06,15,0,22.643,5791.6306472744,65.944884,0.3131716,1.41091868032,0,0,-0.671082,65.4, 2.6, -3.3,0,0,1024,1024,1024,1024,64.4,-90,98,3.753,3.756,3.774,3.777,0,0,19.602,60.8,14,Waypoint,
36.7673028,-118.8833835,5792.6148992744,66.929136,0,0.98089570068,12300,2018-04-14 20:22:06,14,0,22.643,5792.6148992744,66.929136,0.3131716,1.41091868032,0,0,-0.671082,65.2, 3.2, -3.3,0,0,1024,1024,1024,1024,64.4,-89.9,98,3.753,3.756,3.774,3.777,0,0,19.602,60.8,14,Waypoint,
36.7673028,-118.8833834,5793.5991512744,67.913388,0,1.0037073812,12400,2018-04-14 20:22:06,14,0,22.643,5793.5991512744,67.913388,0.3131716,1.41091868032,0,0,-0.671082,64.8, 4, -2.8,0,0,1024,1024,1024,1024,64.4,-89.9,98,3.753,3.756,3.774,3.777,0,0,19.602,60.8,14,Waypoint,
36.7673027,-118.8833834,5794.5834032744,68.89764,0,0.98158139624,12500,2018-04-14 20:22:06,15,0,22.643,5794.5834032744,68.89764,0.3131716,1.41091868032,0,0,-0.671082,64.4, 4.3, -2.7,0,0,1024,1024,1024,1024,64.4,-89.9,98,3.753,3.756,3.774,3.777,0,0,19.602,60.8,14,Waypoint,
36.7673023,-118.8833835,5797.5361592744,71.850396,0,0.87700790208,12900,2018-04-14 20:22:06,15,0,22.643,5797.5361592744,71.850396,0.3131716,1.41091868032,0,0,-0.671082,64.3, 2.9, -3.3,0,0,1024,1024,1024,1024,64.4,-90,98,3.753,3.756,3.774,3.777,0,0,19.602,60.8,14,Waypoint,
36.7673022,-118.8833836,5798.5204112744,72.834648,0,0.83364175896,13000,2018-04-14 20:22:06,15,0,22.643,5798.5204112744,72.834648,0.3131716,1.41091868032,0,0,-0.671082,64.6, 2.5, -3.4,0,0,1024,1024,1024,1024,64.4,-90,98,3.743,3.741,3.779,3.79,0,0,19.602,60.8,14,Waypoint,
36.7673021,-118.8833837,5799.5046632744,73.8189,0,0.79066275496,13100,2018-04-14 20:22:07,15,0,22.643,5799.5046632744,73.8189,0.3131716,1.41091868032,0,0,-0.671082,64.9, 2, -3.5,0,0,1024,1024,1024,1024,64.4,-90,98,3.743,3.741,3.779,3.79,0,0,19.602,60.8,14,Waypoint,
36.767302,-118.8833839,5801.4731672744,75.787404,0.223694,0.72198821208,13400,2018-04-14 20:22:07,16,0,22.643,5801.4731672744,75.787404,0.3131716,1.41091868032,0,0,-0.671082,65.3, 1.5, -2.8,0,0,1024,1024,1024,1024,64.4,-90,98,3.743,3.741,3.779,3.79,0,0,19.602,60.8,14,Waypoint,
36.767302,-118.883384,5802.4574192744,76.771656,0.223694,0.69608598028,13500,2018-04-14 20:22:07,16,0,22.643,5802.4574192744,76.771656,0.3131716,1.41091868032,0,0,-0.671082,65.3, 1.5, -2.2,0,0,1024,1024,1024,1024,64.4,-89.9,98,3.743,3.741,3.779,3.79,0,0,19.602,60.8,14,Waypoint,
36.767302,-118.8833842,5803.4416712744,77.755908,0.223694,0.64513453508,13600,2018-04-14 20:22:07,16,0,22.643,5803.4416712744,77.755908,0.3131716,1.41091868032,0,0,-0.671082,65.3, 1.5, -1.8,0,0,1024,1024,1024,1024,64.4,-90,98,3.743,3.741,3.779,3.79,0,0,19.602,60.8,14,Waypoint,
36.767302,-118.8833844,5804.0978392744,78.412076,0.223694,0.59556104268,13700,2018-04-14 20:22:07,15,0,22.643,5804.0978392744,78.412076,0.3131716,1.41091868032,0,0,-0.671082,65.3, 1.3, -1.6,0,0,1024,1024,1024,1024,64.4,-89.9,98,3.743,3.741,3.779,3.79,0,0,19.602,60.8,14,Waypoint,
36.767302,-118.8833845,5805.0820912744,79.396328,0.223694,0.57140421776,13810,2018-04-14 20:22:07,15,0,22.643,5805.0820912744,79.396328,0.3131716,1.41091868032,0,0,-0.671082,65.1, 1.4, -1.4,0,0,1024,1024,1024,1024,64.4,-89.9,98,3.743,3.741,3.779,3.79,0,0,19.602,60.8,14,Waypoint,
36.767302,-118.8833848,5807.0505952744,81.364832,0,0.5021817746,13900,2018-04-14 20:22:07,16,0,22.643,5807.0505952744,81.364832,0.3131716,1.41091868032,0,0,-0.671082,65, 1.4, -1.3,0,0,1024,1024,1024,1024,64.4,-90,98,3.743,3.741,3.779,3.79,0,0,19.602,60.8,14,Waypoint,
36.7673024,-118.8833856,5811.9718552744,86.286092,0,0.49630579016,14210,2018-04-14 20:22:08,16,0,22.643,5811.9718552744,86.286092,0.3131716,1.41091868032,0,0,-0.671082,65, 0.6, -0.8,0,0,1024,1024,1024,1024,64.4,-89.9,98,3.743,3.741,3.779,3.79,0,0,19.602,60.8,14,Waypoint,
36.7673025,-118.8833858,5812.9561072744,87.270344,0,0.51826117144,14300,2018-04-14 20:22:08,16,0,22.643,5812.9561072744,87.270344,0.3131716,1.41091868032,0,0,-0.671082,65, 0.4, -0.7,0,0,1024,1024,1024,1024,64.4,-89.9,98,3.743,3.741,3.779,3.79,0,0,19.602,60.8,14,Waypoint,
36.7673026,-118.8833859,5813.9403592744,88.254596,0,0.55038715672,14400,2018-04-14 20:22:08,17,0,22.643,5813.9403592744,88.254596,0.3131716,1.41091868032,0,0,-0.671082,65.1, 0.3, -0.6,0,0,1024,1024,1024,1024,64.4,-89.9,98,3.743,3.741,3.779,3.79,0,0,19.602,60.8,14,Waypoint,
36.7673027,-118.883386,5814.9246112744,89.238848,0,0.58449148852,14500,2018-04-14 20:22:08,17,0,22.643,5814.9246112744,89.238848,0.3131716,1.41091868032,0,0,-0.671082,65.1, 0.4, -0.4,0,0,1024,1024,1024,1024,64.4,-89.9,98,3.743,3.741,3.779,3.79,0,0,19.602,60.8,14,Waypoint,
36.7673028,-118.8833861,5815.9088632744,90.2231,0,0.620242802,14600,2018-04-14 20:22:08,17,0,22.643,5815.9088632744,90.2231,0.3131716,1.41091868032,0,0,-0.671082,65.1, 0.5, -0.1,0,0,1024,1024,1024,1024,64.4,-89.9,98,3.743,3.741,3.779,3.79,0,0,19.602,60.8,14,Waypoint,
36.767303,-118.8833864,5817.8773672744,92.191604,0,0.698736899,14800,2018-04-14 20:22:08,17,0,22.643,5817.8773672744,92.191604,0.3131716,1.41091868032,0,0,-0.671082,64.9, 1.1, 0.4,0,0,1024,1024,1024,1024,64.4,-89.9,98,3.743,3.741,3.779,3.79,0,0,19.602,60.8,14,Waypoint,
36.7673031,-118.8833865,5819.1897032744,93.50394,0,0.73900592916,14900,2018-04-14 20:22:08,17,0,22.643,5819.1897032744,93.50394,0.3131716,1.41091868032,0,0,-0.671082,64.8, 1.3, 0.2,0,0,1024,1024,1024,1024,64.4,-89.9,98,3.743,3.741,3.779,3.79,0,0,19.602,60.8,14,Waypoint,
36.7673032,-118.8833866,5820.1739552744,94.488192,0,0.77999674412,15000,2018-04-14 20:22:08,17,0,22.435,5820.1739552744,94.488192,0.3131716,1.41091868032,0,0,-0.671082,64.8, 1.2, 0,0,0,1024,1024,1024,1024,64.4,-89.9,98,3.715,3.726,3.736,3.742,0,0,20.116,60.8,14,Waypoint,
36.7673032,-118.8833867,5821.1582072744,95.472444,0,0.78599740048,15100,2018-04-14 20:22:09,17,0,22.435,5821.1582072744,95.472444,0.3131716,1.41091868032,0,0,-0.671082,64.8, 1, 0,0,0,1024,1024,1024,1024,64.4,-89.9,98,3.715,3.726,3.736,3.742,0,0,20.116,60.8,14,Waypoint,
36.7673032,-118.8833868,5822.1424592744,96.456696,0,0.7930282406,15200,2018-04-14 20:22:09,17,0,22.435,5822.1424592744,96.456696,0.3131716,1.41091868032,0,0,-0.671082,64.8, 1, -0.1,0,0,1024,1024,1024,1024,64.4,-89.9,98,3.715,3.726,3.736,3.742,0,0,20.116,60.8,14,Waypoint,
36.7673032,-118.8833868,5823.1267112744,97.440948,0,0.7930282406,15300,2018-04-14 20:22:09,17,0,22.435,5823.1267112744,97.440948,0.3131716,1.41091868032,0,0,-0.671082,64.8, 0.9, -0.4,0,0,1024,1024,1024,1024,64.4,-89.9,98,3.715,3.726,3.736,3.742,0,0,20.116,60.8,14,Waypoint,
36.7673033,-118.8833869,5824.1109632744,98.4252,0,0.83603021048,15500,2018-04-14 20:22:09,17,0,22.435,5824.1109632744,98.4252,0.3131716,1.41091868032,0,0,-0.671082,64.8, 0.6, -0.3,0,0,1024,1024,1024,1024,64.4,-89.9,98,3.715,3.726,3.736,3.742,0,0,20.116,60.8,14,Waypoint,
36.7673033,-118.883387,5825.0952152744,99.409452,0,0.84467194304,15600,2018-04-14 20:22:09,17,0,22.435,5825.0952152744,99.409452,0.3131716,1.41091868032,0,0,-0.671082,64.8, 0.5, -0.3,0,0,1024,1024,1024,1024,64.4,-89.9,98,3.715,3.726,3.736,3.742,0,0,20.116,60.8,14,Waypoint,
36.7673034,-118.883387,5826.0794672744,100.393704,0,0.87941603864,15700,2018-04-14 20:22:09,17,0,22.435,5826.0794672744,100.393704,0.3131716,1.41091868032,0,0,-0.671082,64.9, 0.5, -0.3,0,0,1024,1024,1024,1024,64.4,-89.9,98,3.715,3.726,3.736,3.742,0,0,20.116,60.8,14,Waypoint,
36.7673034,-118.8833872,5827.0637192744,101.377956,0,0.89863191852,15800,2018-04-14 20:22:09,17,0,22.435,5827.0637192744,101.377956,0.3131716,1.41091868032,0,0,-0.671082,65, 0.5, -0.3,0,0,1024,1024,1024,1024,64.4,-89.9,98,3.715,3.726,3.736,3.742,0,0,20.116,60.8,14,Waypoint,
36.7673036,-118.8833872,5829.0322232744,103.34646,0,0.9671260152,15900,2018-04-14 20:22:09,17,0,22.435,5829.0322232744,103.34646,0.3131716,1.41091868032,0,0,-0.671082,65.1, 0.7, 0,0,0,1024,1024,1024,1024,64.4,-89.9,98,3.715,3.726,3.736,3.742,0,0,20.116,60.8,14,Waypoint,
36.7673037,-118.8833873,5830.0164752744,104.330712,0,1.0113681426,16000,2018-04-14 20:22:09,19,0,22.451,5830.0164752744,104.330712,0.3131716,1.41091868032,0,0,-0.671082,65.1, 1.1, 0.1,0,0,1024,1024,1024,1024,64.4,-89.9,98,3.721,3.733,3.746,3.75,0,0,19.648,60.8,14,Waypoint,
36.7673037,-118.8833873,5831.0007272744,105.314964,0,1.0113681426,16100,2018-04-14 20:22:10,19,0,22.451,5831.0007272744,105.314964,0.3131716,1.41091868032,0,0,-0.671082,65, 1.5, 0.2,0,0,1024,1024,1024,1024,64.4,-89.9,98,3.721,3.733,3.746,3.75,0,0,19.648,60.8,14,Waypoint,
36.7673038,-118.8833874,5831.9849792744,106.299216,0,1.05582680544,16300,2018-04-14 20:22:10,19,0,22.451,5831.9849792744,106.299216,0.3131716,1.41091868032,0,0,-0.671082,64.9, 1.4, 0.2,0,0,1024,1024,1024,1024,64.4,-89.9,98,3.721,3.733,3.746,3.75,0,0,19.648,60.8,14,Waypoint,
36.7673038,-118.8833874,5832.9692312744,107.283468,0,1.05582680544,16400,2018-04-14 20:22:10,19,0,22.451,5832.9692312744,107.283468,0.3131716,1.41091868032,0,0,-0.671082,64.8, 1.2, 0.3,0,0,1024,1024,1024,1024,64.4,-90,98,3.721,3.733,3.746,3.75,0,0,19.648,60.8,14,Waypoint,
36.7673039,-118.8833875,5833.9534832744,108.26772,0,1.100475757,16500,2018-04-14 20:22:10,20,0,22.451,5833.9534832744,108.26772,0.3131716,1.41091868032,0,0,-0.671082,64.7, 0.9, 0.3,0,0,1024,1024,1024,1024,64.4,-90,98,3.721,3.733,3.746,3.75,0,0,19.648,60.8,14,Waypoint,
36.7673039,-118.8833875,5834.9377352744,109.251972,0,1.100475757,16610,2018-04-14 20:22:10,20,0,22.451,5834.9377352744,109.251972,0.3131716,1.41091868032,0,0,-0.671082,64.7, 0.7, 0.3,0,0,1024,1024,1024,1024,64.4,-90,98,3.721,3.733,3.746,3.75,0,0,19.648,60.8,14,Waypoint,
36.7673039,-118.8833875,5835.9219872744,110.236224,0,1.100475757,16800,2018-04-14 20:22:10,20,0,22.451,5835.9219872744,110.236224,0.3131716,1.41091868032,0,0,-0.671082,64.7, 0.6, 0.2,0,0,1024,1024,1024,1024,64.4,-89.9,98,3.721,3.733,3.746,3.75,0,0,19.648,60.8,14,Waypoint,
36.7673039,-118.8833876,5836.9062392744,111.220476,0,1.11167654476,16910,2018-04-14 20:22:10,20,0,22.451,5836.9062392744,111.220476,0.3131716,1.41091868032,0,0,-0.671082,64.8, 0.5, 0.3,0,0,1024,1024,1024,1024,64.4,-89.9,98,3.721,3.733,3.746,3.75,0,0,19.648,60.8,14,Waypoint,
36.7673039,-118.8833876,5837.8904912744,112.204728,0,1.11167654476,17100,2018-04-14 20:22:11,20,0,22.451,5837.8904912744,112.204728,0.3131716,1.41091868032,0,0,-0.671082,65, 0.6, 0.4,0,0,1024,1024,1024,1024,64.4,-89.9,98,3.721,3.733,3.746,3.75,0,0,19.648,60.8,14,Waypoint,
36.7673039,-118.8833877,5839.8589952744,114.173232,0,1.123523658,17200,2018-04-14 20:22:11,20,0,22.451,5839.8589952744,114.173232,0.3131716,1.41091868032,0,0,-0.671082,65.3, 0.3, 0.4,0,0,1024,1024,1024,1024,64.4,-89.9,98,3.721,3.733,3.746,3.75,0,0,19.648,60.8,14,Waypoint,
36.7673038,-118.8833877,5840.8432472744,115.157484,0,1.0904527908,17400,2018-04-14 20:22:11,20,0,22.451,5840.8432472744,115.157484,0.3131716,1.41091868032,0,0,-0.671082,65.3, 0.1, 0.1,0,0,1024,1024,1024,1024,64.4,-90,98,3.721,3.733,3.746,3.75,0,0,19.648,60.8,14,Waypoint,
36.7673038,-118.8833878,5841.8274992744,116.141736,0,1.10330384108,17500,2018-04-14 20:22:11,20,0,22.451,5841.8274992744,116.141736,0.3131716,1.41091868032,0,0,-0.671082,65.4, 0, -0.4,0,0,1024,1024,1024,1024,64.4,-90,98,3.721,3.733,3.746,3.75,0,0,19.648,60.8,14,Waypoint,
36.7673037,-118.8833877,5842.8117512744,117.125988,0,1.0576115824,17610,2018-04-14 20:22:11,20,0,22.451,5842.8117512744,117.125988,0.3131716,1.41091868032,0,0,-0.671082,65.5, 0.2, -0.6,0,0,1024,1024,1024,1024,64.4,-89.9,98,3.721,3.733,3.746,3.75,0,0,19.648,60.8,14,Waypoint,
36.7673037,-118.8833877,5844.7802552744,119.094492,0,1.0576115824,17800,2018-04-14 20:22:11,20,0,22.451,5844.7802552744,119.094492,0.3131716,1.41091868032,0,0,-0.671082,65.3, 0.4, -0.6,0,0,1024,1024,1024,1024,64.4,-89.9,98,3.721,3.733,3.746,3.75,0,0,19.648,60.8,14,Waypoint,
36.7673036,-118.8833876,5845.7645072744,120.078744,0,1.01201118724,17900,2018-04-14 20:22:11,19,0,22.451,5845.7645072744,120.078744,0.3131716,1.41091868032,0,0,-0.671082,65.1, 0.7, -0.5,0,0,1024,1024,1024,1024,64.4,-89.9,98,3.721,3.733,3.746,3.75,0,0,19.648,60.8,14,Waypoint,
36.7673035,-118.8833875,5848.7172632744,123.0315,0,0.96652562148,18000,2018-04-14 20:22:11,19,0,22.447,5848.7172632744,123.0315,0.3131716,1.41091868032,0,0,-0.671082,64.4, 1, -0.8,0,0,1024,1024,1024,1024,64.4,-89.9,97,3.721,3.728,3.74,3.751,0,0,19.635,60.8,14,Waypoint,
36.7673033,-118.8833874,5851.3419352744,125.656172,0,0.88805449036,18200,2018-04-14 20:22:12,20,0,22.447,5851.3419352744,125.656172,0.3131716,1.41091868032,0,0,-0.671082,64.6, 0.7, -1.5,0,0,1024,1024,1024,1024,64.4,-89.9,97,3.721,3.728,3.74,3.751,0,0,19.635,60.8,14,Waypoint,
36.7673031,-118.8833874,5853.3104392744,127.624676,0,0.82269359588,18400,2018-04-14 20:22:12,20,0,22.447,5853.3104392744,127.624676,0.3131716,1.41091868032,0,0,-0.671082,64.7, 0.3, -1.2,0,0,1024,1024,1024,1024,64.4,-89.9,97,3.721,3.728,3.74,3.751,0,0,19.635,60.8,14,Waypoint,
36.767303,-118.8833873,5854.2946912744,128.608928,0.3131716,0.7768865078,18500,2018-04-14 20:22:12,20,0,22.447,5854.2946912744,128.608928,0.3131716,1.41091868032,0,0,-0.671082,64.7, 0.1, -1.9,0,0,1024,1024,1024,1024,64.4,-89.9,97,3.721,3.728,3.74,3.751,0,0,19.635,60.8,14,Waypoint,
36.7673026,-118.883387,5857.5755312744,131.889768,0.3131716,0.60720802468,18800,2018-04-14 20:22:12,20,0,22.447,5857.5755312744,131.889768,0.3131716,1.41091868032,0,0,-0.671082,64.6, 1.1, -3.3,0,0,1024,1024,1024,1024,64.4,-89.9,97,3.721,3.728,3.74,3.751,0,0,19.635,60.8,14,Waypoint,
36.767302,-118.8833866,5860.8563712744,135.170608,0.3131716,0.359416022,19100,2018-04-14 20:22:13,20,0,22.447,5860.8563712744,135.170608,0.3131716,1.41091868032,0,0,-0.671082,64.8, 1.6, -5.4,0,0,1024,1024,1024,1024,64.4,-89.9,97,3.721,3.728,3.74,3.751,0,0,19.635,60.8,14,Waypoint,
36.7673013,-118.8833864,5863.8091272744,138.123364,0.447388,0.114072838296,19410,2018-04-14 20:22:13,20,0,22.447,5863.8091272744,138.123364,0.447388,1.41091868032,0,0,-0.671082,65.2, 0.6, -6.3,0,0,1024,1024,1024,1024,64.4,-89.9,97,3.721,3.728,3.74,3.751,0,0,19.635,60.8,14,Waypoint,
36.767301,-118.8833863,5864.7933792744,139.107616,0.447388,0.068906170184,19500,2018-04-14 20:22:13,20,0,22.447,5864.7933792744,139.107616,0.447388,1.41091868032,0,0,-0.671082,65.2, 0.5, -6.6,0,0,1024,1024,1024,1024,64.4,-90,97,3.721,3.728,3.74,3.751,0,0,19.635,60.8,14,Waypoint,
36.7673008,-118.8833862,5865.7776312744,140.091868,0.223694,0.113289701788,19700,2018-04-14 20:22:13,20,0,22.447,5865.7776312744,140.091868,0.447388,1.41091868032,0,0,-0.671082,65.2, 0.6, -6.5,0,0,1024,1024,1024,1024,64.4,-90,97,3.721,3.728,3.74,3.751,0,0,19.635,60.8,14,Waypoint,
36.7673004,-118.8833861,5867.7461352744,142.060372,0.223694,0.255394693212,19800,2018-04-14 20:22:13,20,0,22.447,5867.7461352744,142.060372,0.447388,1.41091868032,0,0,-0.671082,65.1, 0.1, -6,0,0,1024,1024,1024,1024,64.4,-90,97,3.721,3.728,3.74,3.751,0,0,19.635,60.8,14,Waypoint,
36.7673,-118.883386,5869.7146392744,144.028876,0.223694,0.40239830684,20100,2018-04-14 20:22:14,20,0,22.447,5869.7146392744,144.028876,0.447388,1.41091868032,0,0,-0.671082,64.8, -0.2, -6.8,0,0,1024,1024,1024,1024,64.4,-89.9,97,3.721,3.728,3.74,3.751,0,0,19.635,60.8,14,Waypoint,
36.7672997,-118.8833859,5872.3393112744,146.653548,0,0.5141240322,20300,2018-04-14 20:22:14,20,0,22.447,5872.3393112744,146.653548,0.447388,1.41091868032,0,0,-0.671082,64.8, 0.4, -6.5,0,0,1024,1024,1024,1024,64.4,-89.9,97,3.721,3.728,3.74,3.751,0,0,19.635,60.8,14,Waypoint,
36.7672997,-118.8833858,5873.9797312744,148.293968,0,0.51826117144,20500,2018-04-14 20:22:14,20,0,22.447,5873.9797312744,148.293968,0.447388,1.41091868032,0,0,-0.671082,65, 0.5, -5.4,0,0,1024,1024,1024,1024,64.4,-89.9,97,3.721,3.728,3.74,3.751,0,0,19.635,60.8,14,Waypoint,
36.7672997,-118.8833858,5874.6358992744,148.950136,0,0.51826117144,20600,2018-04-14 20:22:14,20,0,22.447,5874.6358992744,148.950136,0.447388,1.41091868032,0,0,-0.671082,65.1, 0.6, -4.8,0,0,1024,1024,1024,1024,64.4,-89.9,97,3.721,3.728,3.74,3.751,0,0,19.635,60.8,14,Waypoint,
36.7672997,-118.8833858,5875.6201512744,149.934388,0,0.51826117144,20700,2018-04-14 20:22:14,20,0,22.447,5875.6201512744,149.934388,0.447388,1.41091868032,0,0,-0.671082,65.2, 0.7, -4.6,0,0,1024,1024,1024,1024,64.4,-89.9,97,3.721,3.728,3.74,3.751,0,0,19.635,60.8,14,Waypoint,
36.7672997,-118.8833858,5876.2763192744,150.590556,0,0.51826117144,20800,2018-04-14 20:22:14,20,0,22.447,5876.2763192744,150.590556,0.447388,1.41091868032,0,0,-0.671082,65.3, 0.4, -4.5,0,0,1024,1024,1024,1024,64.4,-90,97,3.721,3.728,3.74,3.751,0,0,19.635,60.8,14,Waypoint,
36.7672997,-118.8833858,5877.2605712744,151.574808,0,0.51826117144,20900,2018-04-14 20:22:14,20,0,22.447,5877.2605712744,151.574808,0.447388,1.41091868032,0,0,-0.671082,65.3, 0.2, -4.6,0,0,1024,1024,1024,1024,64.4,-90,97,3.721,3.728,3.74,3.751,0,0,19.635,60.8,14,Waypoint,
36.7672997,-118.8833857,5877.9167392744,152.230976,0,0.52399607976,21000,2018-04-14 20:22:14,20,0,22.446,5877.9167392744,152.230976,0.447388,1.41091868032,0,0,-0.671082,65.2, 0.2, -4.5,0,0,1024,1024,1024,1024,64.4,-89.9,97,3.726,3.728,3.75,3.743,0,0,19.085,62.6,14,Waypoint,
36.7672997,-118.8833857,5878.9009912744,153.215228,0,0.52399607976,21100,2018-04-14 20:22:15,20,0,22.446,5878.9009912744,153.215228,0.447388,1.41091868032,0,0,-0.671082,65.1, 0.1, -4.5,0,0,1024,1024,1024,1024,64.4,-90,97,3.726,3.728,3.75,3.743,0,0,19.085,62.6,14,Waypoint,
36.7672998,-118.8833856,5879.8852432744,154.19948,0,0.49630579016,21200,2018-04-14 20:22:15,20,0,22.446,5879.8852432744,154.19948,0.447388,1.41091868032,0,0,-0.671082,65, 0.1, -4.8,0,0,1024,1024,1024,1024,64.4,-89.9,97,3.726,3.728,3.75,3.743,0,0,19.085,62.6,14,Waypoint,
36.7672998,-118.8833856,5880.5414112744,154.855648,0,0.49630579016,21300,2018-04-14 20:22:15,20,0,22.446,5880.5414112744,154.855648,0.447388,1.41091868032,0,0,-0.671082,64.7, 0.5, -5.4,0,0,1024,1024,1024,1024,64.4,-89.9,97,3.726,3.728,3.75,3.743,0,0,19.085,62.6,14,Waypoint,
36.7672998,-118.8833855,5881.5256632744,155.8399,0,0.50568571172,21410,2018-04-14 20:22:15,19,0,22.446,5881.5256632744,155.8399,0.447388,1.41091868032,0,0,-0.671082,64.6, 0.9, -5.8,0,0,1024,1024,1024,1024,64.4,-89.9,97,3.726,3.728,3.75,3.743,0,0,19.085,62.6,14,Waypoint,
36.7672998,-118.8833854,5882.5099152744,156.824152,0,0.51654857296,21500,2018-04-14 20:22:15,19,0,22.446,5882.5099152744,156.824152,0.447388,1.41091868032,0,0,-0.671082,64.5, 1, -6,0,0,1024,1024,1024,1024,64.4,-89.9,97,3.726,3.728,3.75,3.743,0,0,19.085,62.6,14,Waypoint,
36.7672999,-118.8833853,5883.4941672744,157.808404,0,0.4963418794,21600,2018-04-14 20:22:15,20,0,22.446,5883.4941672744,157.808404,0.447388,1.41091868032,0,0,-0.671082,64.5, 0.9, -5.8,0,0,1024,1024,1024,1024,64.4,-89.9,97,3.726,3.728,3.75,3.743,0,0,19.085,62.6,14,Waypoint,
36.7673,-118.8833853,5884.4784192744,158.792656,0,0.46447836132,21800,2018-04-14 20:22:15,20,0,22.446,5884.4784192744,158.792656,0.447388,1.41091868032,0,0,-0.671082,64.5, 0.9, -5.3,0,0,1024,1024,1024,1024,64.4,-89.9,97,3.726,3.728,3.75,3.743,0,0,19.085,62.6,14,Waypoint,
36.7673002,-118.8833853,5886.4469232744,160.76116,0,0.40310368744,21900,2018-04-14 20:22:15,20,0,22.446,5886.4469232744,160.76116,0.447388,1.41091868032,0,0,-0.671082,64.5, 1, -4.7,0,0,1024,1024,1024,1024,64.4,-89.9,97,3.726,3.728,3.75,3.743,0,0,19.085,62.6,14,Waypoint,
36.7673002,-118.8833853,5887.4311752744,161.745412,0,0.40310368744,22000,2018-04-14 20:22:15,20,0,22.474,5887.4311752744,161.745412,0.447388,1.41091868032,0,0,-0.671082,64.5, 1.2, -4.7,0,0,1024,1024,1024,1024,64.4,-89.9,97,3.71,3.716,3.734,3.738,0,0,18.48,62.6,14,Waypoint,
36.7673003,-118.8833853,5888.4154272744,162.729664,0,0.3739829516,22200,2018-04-14 20:22:16,20,0,22.474,5888.4154272744,162.729664,0.447388,1.41091868032,0,0,-0.671082,64.5, 1.3, -4.8,0,0,1024,1024,1024,1024,64.4,-89.9,97,3.71,3.716,3.734,3.738,0,0,18.48,62.6,14,Waypoint,
36.7673004,-118.8833852,5890.7120152744,165.026252,0,0.36663058916,22300,2018-04-14 20:22:16,20,0,22.474,5890.7120152744,165.026252,0.447388,1.41091868032,0,0,-0.671082,64.6, 1.5, -5,0,0,1024,1024,1024,1024,64.4,-89.9,97,3.71,3.716,3.734,3.738,0,0,18.48,62.6,14,Waypoint,
36.7673004,-118.8833852,5891.6962672744,166.010504,0,0.36663058916,22500,2018-04-14 20:22:16,20,0,22.474,5891.6962672744,166.010504,0.447388,1.41091868032,0,0,-0.671082,64.6, 1.4, -5.2,0,0,1024,1024,1024,1024,64.4,-89.9,97,3.71,3.716,3.734,3.738,0,0,18.48,62.6,14,Waypoint,
36.7673005,-118.8833852,5892.6805192744,166.994756,0,0.34221785872,22600,2018-04-14 20:22:16,20,0,22.474,5892.6805192744,166.994756,0.447388,1.41091868032,0,0,-0.671082,64.7, 1.2, -5.4,0,0,1024,1024,1024,1024,64.4,-89.9,97,3.71,3.716,3.734,3.738,0,0,18.48,62.6,14,Waypoint,
36.7673005,-118.8833853,5894.6490232744,168.96326,0,0.320299550932,22700,2018-04-14 20:22:16,20,0,22.474,5894.6490232744,168.96326,0.447388,1.41091868032,0,0,-0.671082,64.8, 1.2, -5.8,0,0,1024,1024,1024,1024,64.4,-89.9,97,3.71,3.716,3.734,3.738,0,0,18.48,62.6,14,Waypoint,
36.7673005,-118.8833854,5896.9456112744,171.259848,0,0.299630258932,22900,2018-04-14 20:22:16,20,0,22.474,5896.9456112744,171.259848,0.447388,1.41091868032,0,0,-0.671082,64.7, 1, -5.8,0,0,1024,1024,1024,1024,64.4,-89.9,97,3.71,3.716,3.734,3.738,0,0,18.48,62.6,14,Waypoint,
36.7673006,-118.8833854,5898.2579472744,172.572184,0,0.274108932656,23000,2018-04-14 20:22:16,20,0,22.108,5898.2579472744,172.572184,0.447388,1.41091868032,0,0,-0.671082,64.6, 1, -5.6,0,0,1024,1024,1024,1024,64.4,-89.9,97,3.656,3.67,3.687,3.685,0,0,21.622,62.6,14,Waypoint,
36.7673006,-118.8833855,5899.2421992744,173.556436,0,0.2530429871,23100,2018-04-14 20:22:17,20,0,22.108,5899.2421992744,173.556436,0.447388,1.41091868032,0,0,-0.671082,64.6, 1, -5.4,0,0,1024,1024,1024,1024,64.4,-89.9,97,3.656,3.67,3.687,3.685,0,0,21.622,62.6,14,Waypoint,
36.7673007,-118.8833855,5900.2264512744,174.540688,0,0.228145676592,23200,2018-04-14 20:22:17,20,0,22.108,5900.2264512744,174.540688,0.447388,1.41091868032,0,0,-0.671082,64.5, 0.9, -5.3,0,0,1024,1024,1024,1024,64.4,-89.9,97,3.656,3.67,3.687,3.685,0,0,21.622,62.6,14,Waypoint,
36.7673007,-118.8833856,5901.2107032744,175.52494,0,0.206528549916,23300,2018-04-14 20:22:17,20,0,22.108,5901.2107032744,175.52494,0.447388,1.41091868032,0,0,-0.671082,64.5, 0.9, -5.4,0,0,1024,1024,1024,1024,64.4,-89.9,97,3.656,3.67,3.687,3.685,0,0,21.622,62.6,14,Waypoint,
36.7673007,-118.8833857,5902.5230392744,176.837276,0,0.186991803884,23400,2018-04-14 20:22:17,20,0,22.108,5902.5230392744,176.837276,0.447388,1.41091868032,0,0,-0.671082,64.5, 0.7, -5.4,0,0,1024,1024,1024,1024,64.4,-90,97,3.656,3.67,3.687,3.685,0,0,21.622,62.6,14,Waypoint,
36.7673007,-118.8833857,5903.5072912744,177.821528,0,0.186991803884,23500,2018-04-14 20:22:17,20,0,22.108,5903.5072912744,177.821528,0.447388,1.41091868032,0,0,-0.671082,64.6, 0.4, -5.5,0,0,1024,1024,1024,1024,64.4,-90,97,3.656,3.67,3.687,3.685,0,0,21.622,62.6,14,Waypoint,
36.7673006,-118.8833858,5904.4915432744,178.80578,0,0.202402565532,23600,2018-04-14 20:22:17,20,0,22.108,5904.4915432744,178.80578,0.447388,1.41091868032,0,0,-0.671082,64.6, 0.3, -5.8,0,0,1024,1024,1024,1024,64.4,-90,97,3.656,3.67,3.687,3.685,0,0,21.622,62.6,14,Waypoint,
36.7673005,-118.8833858,5905.4757952744,179.790032,0,0.235816608596,23700,2018-04-14 20:22:17,20,0,22.108,5905.4757952744,179.790032,0.447388,1.41091868032,0,0,-0.671082,64.6, 0.3, -5.9,0,0,1024,1024,1024,1024,64.4,-89.9,97,3.656,3.67,3.687,3.685,0,0,21.622,62.6,14,Waypoint,
36.7673005,-118.8833859,5906.4600472744,180.774284,0,0.22657973166,23800,2018-04-14 20:22:17,20,0,22.108,5906.4600472744,180.774284,0.447388,1.41091868032,0,0,-0.671082,64.7, 0.6, -6.1,0,0,1024,1024,1024,1024,64.4,-89.9,97,3.656,3.67,3.687,3.685,0,0,21.622,62.6,14,Waypoint,
36.7673005,-118.8833859,5907.4442992744,181.758536,0,0.22657973166,23900,2018-04-14 20:22:17,20,0,22.108,5907.4442992744,181.758536,0.447388,1.41091868032,0,0,-0.671082,64.6, 0.9, -6,0,0,1024,1024,1024,1024,64.4,-89.9,97,3.656,3.67,3.687,3.685,0,0,21.622,62.6,14,Waypoint,
36.7673005,-118.8833859,5908.4285512744,182.742788,0,0.22657973166,24000,2018-04-14 20:22:17,20,0,22.145,5908.4285512744,182.742788,0.447388,1.41091868032,0,0,-0.671082,64.7, 1.1, -5.9,0,0,1024,1024,1024,1024,64.4,-89.9,97,3.656,3.67,3.687,3.685,0,0,21.223,62.6,14,Waypoint,
36.7673005,-118.8833859,5909.4128032744,183.72704,0,0.22657973166,24120,2018-04-14 20:22:18,20,0,22.145,5909.4128032744,183.72704,0.447388,1.41091868032,0,0,-0.671082,64.9, 1.2, -5.8,0,0,1024,1024,1024,1024,64.4,-89.9,97,3.656,3.67,3.687,3.685,0,0,21.223,62.6,14,Waypoint,
36.7673005,-118.8833859,5909.4128032744,183.72704,0,0.22657973166,24200,2018-04-14 20:22:18,20,0,22.145,5909.4128032744,183.72704,0.447388,1.41091868032,0,0,-0.671082,64.9, 1.2, -5.8,0,0,1024,1024,1024,1024,64.4,-89.9,97,3.656,3.67,3.687,3.685,0,0,21.223,62.6,14,Waypoint,
36.7673005,-118.8833859,5910.3970552744,184.711292,0,0.22657973166,24300,2018-04-14 20:22:18,20,0,22.145,5910.3970552744,184.711292,0.447388,1.41091868032,0,0,-0.671082,65.1, 1.1, -5.6,0,0,1024,1024,1024,1024,64.4,-89.9,97,3.656,3.67,3.687,3.685,0,0,21.223,62.6,14,Waypoint,
36.7673005,-118.883386,5911.3813072744,185.695544,0,0.220852041188,24400,2018-04-14 20:22:18,20,0,22.145,5911.3813072744,185.695544,0.447388,1.41091868032,0,0,-0.671082,65.2, 1, -5.5,0,0,1024,1024,1024,1024,64.4,-90,97,3.656,3.67,3.687,3.685,0,0,21.223,62.6,14,Waypoint,
36.7673005,-118.883386,5912.3655592744,186.679796,0,0.220852041188,24500,2018-04-14 20:22:18,20,0,22.145,5912.3655592744,186.679796,0.447388,1.41091868032,0,0,-0.671082,65.3, 0.8, -5.4,0,0,1024,1024,1024,1024,64.4,-89.9,97,3.656,3.67,3.687,3.685,0,0,21.223,62.6,14,Waypoint,
36.7673006,-118.883386,5913.3498112744,187.664048,0,0.184751318248,24600,2018-04-14 20:22:18,20,0,22.145,5913.3498112744,187.664048,0.447388,1.41091868032,0,0,-0.671082,65.3, 0.8, -5.5,0,0,1024,1024,1024,1024,64.4,-89.9,97,3.656,3.67,3.687,3.685,0,0,21.223,62.6,14,Waypoint,
36.7673006,-118.8833861,5914.3340632744,188.6483,0,0.18242454652,24700,2018-04-14 20:22:18,20,0,22.145,5914.3340632744,188.6483,0.447388,1.41091868032,0,0,-0.671082,65.4, 0.8, -5.7,0,0,1024,1024,1024,1024,64.4,-89.9,97,3.656,3.67,3.687,3.685,0,0,21.223,62.6,14,Waypoint,
36.7673006,-118.8833861,5915.3183152744,189.632552,0,0.18242454652,24800,2018-04-14 20:22:18,20,0,22.145,5915.3183152744,189.632552,0.447388,1.41091868032,0,0,-0.671082,65.5, 0.8, -5.8,0,0,1024,1024,1024,1024,64.4,-89.9,97,3.656,3.67,3.687,3.685,0,0,21.223,62.6,14,Waypoint,
36.7673005,-118.8833861,5917.2868192744,191.601056,0,0.218909783908,24900,2018-04-14 20:22:18,20,0,22.145,5917.2868192744,191.601056,0.447388,1.41091868032,0,0,-0.671082,65.4, 0.6, -5.9,0,0,1024,1024,1024,1024,64.4,-90,97,3.656,3.67,3.687,3.685,0,0,21.223,62.6,14,Waypoint,
36.7673004,-118.8833862,5919.2553232744,193.56956,0,0.257061359932,25100,2018-04-14 20:22:19,20,0,22.145,5919.2553232744,193.56956,0.447388,1.41091868032,0,0,-0.671082,65.1, 0.6, -6,0,0,1024,1024,1024,1024,64.4,-89.9,97,3.656,3.67,3.687,3.685,0,0,21.223,62.6,14,Waypoint,
36.7673004,-118.8833862,5920.2395752744,194.553812,0,0.257061359932,25200,2018-04-14 20:22:19,20,0,22.145,5920.2395752744,194.553812,0.447388,1.41091868032,0,0,-0.671082,65, 0.6, -6.1,0,0,1024,1024,1024,1024,64.4,-90,97,3.656,3.67,3.687,3.685,0,0,21.223,62.6,14,Waypoint,
36.7673004,-118.8833862,5921.2238272744,195.538064,0,0.257061359932,25300,2018-04-14 20:22:19,20,0,22.145,5921.2238272744,195.538064,0.447388,1.41091868032,0,0,-0.671082,64.9, 0.4, -6.1,0,0,1024,1024,1024,1024,64.4,-90,97,3.656,3.67,3.687,3.685,0,0,21.223,62.6,14,Waypoint,
36.7673003,-118.8833862,5922.5361632744,196.8504,0,0.293339248232,25400,2018-04-14 20:22:19,20,0,22.145,5922.5361632744,196.8504,0.447388,1.41091868032,0,0,-0.671082,64.7, 0.3, -6.1,0,0,1024,1024,1024,1024,64.4,-89.9,97,3.656,3.67,3.687,3.685,0,0,21.223,62.6,14,Waypoint,
36.7673003,-118.8833862,5923.5204152744,197.834652,0,0.293339248232,25500,2018-04-14 20:22:19,20,0,22.145,5923.5204152744,197.834652,0.447388,1.41091868032,0,0,-0.671082,64.6, 0.6, -6.2,0,0,1024,1024,1024,1024,64.4,-89.9,97,3.656,3.67,3.687,3.685,0,0,21.223,62.6,14,Waypoint,
36.7673003,-118.8833862,5924.5046672744,198.818904,0,0.293339248232,25600,2018-04-14 20:22:19,20,0,22.145,5924.5046672744,198.818904,0.447388,1.41091868032,0,0,-0.671082,64.6, 0.5, -6.2,0,0,1024,1024,1024,1024,64.4,-89.9,97,3.656,3.67,3.687,3.685,0,0,21.223,62.6,14,Waypoint,
36.7673002,-118.8833862,5925.4889192744,199.803156,0,0.32966208404,25700,2018-04-14 20:22:19,20,0,22.145,5925.4889192744,199.803156,0.447388,1.41091868032,0,0,-0.671082,64.6, 0.3, -6,0,0,1024,1024,1024,1024,64.4,-90,97,3.656,3.67,3.687,3.685,0,0,21.223,62.6,14,Waypoint,
36.7673003,-118.8833863,5926.4731712744,200.787408,0,0.297675206376,25800,2018-04-14 20:22:19,20,0,22.145,5926.4731712744,200.787408,0.447388,1.41091868032,0,0,-0.671082,64.7, 0.2, -5.8,0,0,1024,1024,1024,1024,64.4,-90,97,3.656,3.67,3.687,3.685,0,0,21.223,62.6,14,Waypoint,
36.7673003,-118.8833863,5927.4574232744,201.77166,0,0.297675206376,25900,2018-04-14 20:22:19,20,0,22.145,5927.4574232744,201.77166,0.447388,1.41091868032,0,0,-0.671082,64.8, 0.1, -5.8,0,0,1024,1024,1024,1024,64.4,-90,97,3.656,3.67,3.687,3.685,0,0,21.223,62.6,14,Waypoint,
36.7673003,-118.8833864,5928.4416752744,202.755912,0,0.304765101616,26000,2018-04-14 20:22:19,20,0,22.181,5928.4416752744,202.755912,0.447388,1.41091868032,0,0,-0.671082,64.8, 0.1, -5.6,0,0,1024,1024,1024,1024,64.4,-89.9,97,3.673,3.685,3.686,3.698,0,0,20.679,62.6,14,Waypoint,
36.7673003,-118.8833864,5929.4259272744,203.740164,0,0.304765101616,26100,2018-04-14 20:22:20,20,0,22.181,5929.4259272744,203.740164,0.447388,1.41091868032,0,0,-0.671082,64.8, 0.2, -5.2,0,0,1024,1024,1024,1024,64.4,-89.9,97,3.673,3.685,3.686,3.698,0,0,20.679,62.6,14,Waypoint,
36.7673004,-118.8833865,5930.0820952744,204.396332,0,0.280880586416,26200,2018-04-14 20:22:20,20,0,22.181,5930.0820952744,204.396332,0.447388,1.41091868032,0,0,-0.671082,64.9, 0.1, -4.9,0,0,1024,1024,1024,1024,64.4,-89.9,97,3.673,3.685,3.686,3.698,0,0,20.679,62.6,14,Waypoint,
36.7673004,-118.8833865,5931.0663472744,205.380584,0,0.280880586416,26300,2018-04-14 20:22:20,20,0,22.181,5931.0663472744,205.380584,0.447388,1.41091868032,0,0,-0.671082,65, 0.1, -4.6,0,0,1024,1024,1024,1024,64.4,-89.9,97,3.673,3.685,3.686,3.698,0,0,20.679,62.6,14,Waypoint,
36.7673004,-118.8833865,5932.0505992744,206.364836,0,0.280880586416,26400,2018-04-14 20:22:20,20,0,22.181,5932.0505992744,206.364836,0.447388,1.41091868032,0,0,-0.671082,65, 0.1, -4.7,0,0,1024,1024,1024,1024,64.4,-89.9,97,3.673,3.685,3.686,3.698,0,0,20.679,62.6,14,Waypoint,
36.7673005,-118.8833866,5933.0348512744,207.349088,0,0.263205389,26500,2018-04-14 20:22:20,20,0,22.181,5933.0348512744,207.349088,0.447388,1.41091868032,0,0,-0.671082,64.9, 0.1, -4.6,0,0,1024,1024,1024,1024,64.4,-89.9,97,3.673,3.685,3.686,3.698,0,0,20.679,62.6,14,Waypoint,
36.7673005,-118.8833866,5934.0191032744,208.33334,0,0.263205389,26610,2018-04-14 20:22:20,20,0,22.181,5934.0191032744,208.33334,0.447388,1.41091868032,0,0,-0.671082,64.8, 0.2, -4.8,0,0,1024,1024,1024,1024,64.4,-89.9,97,3.673,3.685,3.686,3.698,0,0,20.679,62.6,14,Waypoint,
36.7673005,-118.8833866,5935.0033552744,209.317592,0,0.263205389,26800,2018-04-14 20:22:20,20,0,22.181,5935.0033552744,209.317592,0.447388,1.41091868032,0,0,-0.671082,64.8, 0.2, -5,0,0,1024,1024,1024,1024,64.4,-89.9,97,3.673,3.685,3.686,3.698,0,0,20.679,62.6,14,Waypoint,
36.7673005,-118.8833866,5936.9718592744,211.286096,0,0.263205389,26910,2018-04-14 20:22:20,20,0,22.181,5936.9718592744,211.286096,0.447388,1.41091868032,0,0,-0.671082,64.8, 0.1, -5,0,0,1024,1024,1024,1024,64.4,-89.9,97,3.673,3.685,3.686,3.698,0,0,20.679,62.6,14,Waypoint,
36.7673005,-118.8833867,5937.9561112744,212.270348,0,0.280487869868,27100,2018-04-14 20:22:21,20,0,22.181,5937.9561112744,212.270348,0.447388,1.41091868032,0,0,-0.671082,64.9, 0.2, -5,0,0,1024,1024,1024,1024,64.4,-89.9,97,3.673,3.685,3.686,3.698,0,0,20.679,62.6,14,Waypoint,
36.7673006,-118.8833867,5938.9403632744,213.2546,0,0.2530429871,27200,2018-04-14 20:22:21,20,0,22.181,5938.9403632744,213.2546,0.447388,1.41091868032,0,0,-0.671082,64.9, 0.3, -4.9,0,0,1024,1024,1024,1024,64.4,-89.9,97,3.673,3.685,3.686,3.698,0,0,20.679,62.6,14,Waypoint,
36.7673006,-118.8833867,5939.9246152744,214.238852,0,0.2530429871,27300,2018-04-14 20:22:21,20,0,22.181,5939.9246152744,214.238852,0.447388,1.41091868032,0,0,-0.671082,65, 0.2, -4.8,0,0,1024,1024,1024,1024,64.4,-89.9,97,3.673,3.685,3.686,3.698,0,0,20.679,62.6,14,Waypoint,
36.7673006,-118.8833868,5940.9088672744,215.223104,0,0.274108932656,27400,2018-04-14 20:22:21,20,0,22.181,5940.9088672744,215.223104,0.447388,1.41091868032,0,0,-0.671082,65, 0.3, -4.8,0,0,1024,1024,1024,1024,64.4,-89.9,97,3.673,3.685,3.686,3.698,0,0,20.679,62.6,14,Waypoint,
36.7673007,-118.8833868,5942.8773712744,217.191608,0,0.25130742274,27500,2018-04-14 20:22:21,20,0,22.181,5942.8773712744,217.191608,0.447388,1.41091868032,0,0,-0.671082,64.9, 0.3, -4.7,0,0,1024,1024,1024,1024,64.4,-89.9,97,3.673,3.685,3.686,3.698,0,0,20.679,62.6,14,Waypoint,
36.7673007,-118.8833868,5943.8616232744,218.17586,0,0.25130742274,27600,2018-04-14 20:22:21,20,0,22.181,5943.8616232744,218.17586,0.447388,1.41091868032,0,0,-0.671082,65, 0.3, -4.6,0,0,1024,1024,1024,1024,64.4,-89.9,97,3.673,3.685,3.686,3.698,0,0,20.679,62.6,14,Waypoint,
36.7673007,-118.8833869,5945.1739592744,219.488196,0,0.275624352652,27700,2018-04-14 20:22:21,20,0,22.181,5945.1739592744,219.488196,0.447388,1.41091868032,0,0,-0.671082,65, 0.2, -4.5,0,0,1024,1024,1024,1024,64.4,-89.9,97,3.673,3.685,3.686,3.698,0,0,20.679,62.6,14,Waypoint,
36.7673007,-118.8833869,5946.1582112744,220.472448,0,0.275624352652,27800,2018-04-14 20:22:21,20,0,22.181,5946.1582112744,220.472448,0.447388,1.41091868032,0,0,-0.671082,65, 0, -4.5,0,0,1024,1024,1024,1024,64.4,-89.9,97,3.673,3.685,3.686,3.698,0,0,20.679,62.6,14,Waypoint,
36.7673008,-118.883387,5947.1424632744,221.4567,0.223694,0.284907817516,27900,2018-04-14 20:22:21,20,0,22.181,5947.1424632744,221.4567,0.447388,1.41091868032,0,0,-0.671082,64.9, -0.1, -4.3,0,0,1024,1024,1024,1024,64.4,-90,97,3.673,3.685,3.686,3.698,0,0,20.679,62.6,14,Waypoint,
36.7673008,-118.883387,5948.1267152744,222.440952,0.223694,0.284907817516,28000,2018-04-14 20:22:21,20,0,22.26,5948.1267152744,222.440952,0.447388,1.41091868032,0,0,-0.671082,64.8, -0.1, -4.2,0,0,1024,1024,1024,1024,64.4,-90,96,3.691,3.695,3.721,3.719,0,0,19.549,62.6,14,Waypoint,
36.7673009,-118.8833871,5949.1109672744,223.425204,0.223694,0.301242463708,28100,2018-04-14 20:22:22,20,0,22.26,5949.1109672744,223.425204,0.447388,1.41091868032,0,0,-0.671082,64.7, 0, -4.2,0,0,1024,1024,1024,1024,64.4,-89.9,96,3.691,3.695,3.721,3.719,0,0,19.549,62.6,14,Waypoint,
36.7673009,-118.8833871,5950.0952192744,224.409456,0.223694,0.301242463708,28200,2018-04-14 20:22:22,20,0,22.26,5950.0952192744,224.409456,0.447388,1.41091868032,0,0,-0.671082,64.7, 0, -4.2,0,0,1024,1024,1024,1024,64.4,-90,96,3.691,3.695,3.721,3.719,0,0,19.549,62.6,14,Waypoint,
36.7673009,-118.8833871,5951.0794712744,225.393708,0.223694,0.301242463708,28300,2018-04-14 20:22:22,20,0,22.26,5951.0794712744,225.393708,0.447388,1.41091868032,0,0,-0.671082,64.6, 0, -4.2,0,0,1024,1024,1024,1024,64.4,-89.9,96,3.691,3.695,3.721,3.719,0,0,19.549,62.6,14,Waypoint,
36.767301,-118.8833872,5952.0637232744,226.37796,0.223694,0.323561690144,28400,2018-04-14 20:22:22,20,0,22.26,5952.0637232744,226.37796,0.447388,1.41091868032,0,0,-0.671082,64.6, 0.1, -4.3,0,0,1024,1024,1024,1024,64.4,-90,96,3.691,3.695,3.721,3.719,0,0,19.549,62.6,14,Waypoint,
36.767301,-118.8833872,5953.0479752744,227.362212,0.223694,0.323561690144,28510,2018-04-14 20:22:22,20,0,22.26,5953.0479752744,227.362212,0.447388,1.41091868032,0,0,-0.671082,64.7, 0, -4.4,0,0,1024,1024,1024,1024,64.4,-90,96,3.691,3.695,3.721,3.719,0,0,19.549,62.6,14,Waypoint,
36.7673011,-118.8833872,5954.0322272744,228.346464,0.223694,0.321498041784,28600,2018-04-14 20:22:22,20,0,22.26,5954.0322272744,228.346464,0.447388,1.41091868032,0,0,-0.671082,64.7, -0.1, -4,0,0,1024,1024,1024,1024,64.4,-89.9,96,3.691,3.695,3.721,3.719,0,0,19.549,62.6,14,Waypoint,
36.7673013,-118.8833872,5956.0007312744,230.314968,0.223694,0.3296752074,28800,2018-04-14 20:22:22,20,0,22.26,5956.0007312744,230.314968,0.447388,1.41091868032,0,0,-0.671082,64.7, 0.6, -3.4,0,0,1024,1024,1024,1024,64.4,-89.9,96,3.691,3.695,3.721,3.719,0,0,19.549,62.6,14,Waypoint,
36.7673013,-118.8833872,5956.9849832744,231.29922,0.223694,0.3296752074,28900,2018-04-14 20:22:22,20,0,22.26,5956.9849832744,231.29922,0.447388,1.41091868032,0,0,-0.671082,64.8, 0.8, -3,0,0,1024,1024,1024,1024,64.4,-89.9,96,3.691,3.695,3.721,3.719,0,0,19.549,62.6,14,Waypoint,
36.7673014,-118.8833873,5957.9692352744,232.283472,0.223694,0.36740814824,29000,2018-04-14 20:22:22,20,0,22.324,5957.9692352744,232.283472,0.447388,1.41091868032,0,0,-0.671082,64.8, 0.7, -2.8,0,0,1024,1024,1024,1024,64.4,-89.9,96,3.702,3.705,3.728,3.734,0,0,18.617,64.4,14,Waypoint,
36.7673015,-118.8833873,5958.6254032744,232.93964,0.223694,0.37987862108,29200,2018-04-14 20:22:23,20,0,22.324,5958.6254032744,232.93964,0.447388,1.41091868032,0,0,-0.671082,64.8, 0.2, -2.8,0,0,1024,1024,1024,1024,64.4,-90,96,3.702,3.705,3.728,3.734,0,0,18.617,64.4,14,Waypoint,
36.7673015,-118.8833873,5960.5939072744,234.908144,0,0.37987862108,29300,2018-04-14 20:22:23,20,0,22.324,5960.5939072744,234.908144,0.447388,1.41091868032,0,0,-0.671082,64.7, 0, -3,0,0,1024,1024,1024,1024,64.4,-89.9,96,3.702,3.705,3.728,3.734,0,0,18.617,64.4,14,Waypoint,
36.7673015,-118.8833874,5961.5781592744,235.892396,0.223694,0.40701772956,29410,2018-04-14 20:22:23,20,0,22.324,5961.5781592744,235.892396,0.447388,1.41091868032,0,0,-0.671082,64.6, 0.1, -3,0,0,1024,1024,1024,1024,64.4,-90,96,3.702,3.705,3.728,3.734,0,0,18.617,64.4,14,Waypoint,
36.7673016,-118.8833874,5962.5624112744,236.876648,0.223694,0.42147639144,29600,2018-04-14 20:22:23,20,0,22.324,5962.5624112744,236.876648,0.447388,1.41091868032,0,0,-0.671082,64.6, 0.3, -3.1,0,0,1024,1024,1024,1024,64.4,-89.9,96,3.702,3.705,3.728,3.734,0,0,18.617,64.4,14,Waypoint,
36.7673017,-118.8833874,5963.2185792744,237.532816,0.223694,0.43850395104,29700,2018-04-14 20:22:23,20,0,22.324,5963.2185792744,237.532816,0.447388,1.41091868032,0,0,-0.671082,64.6, 0.3, -3,0,0,1024,1024,1024,1024,64.4,-89.9,96,3.702,3.705,3.728,3.734,0,0,18.617,64.4,14,Waypoint,
36.7673018,-118.8833874,5964.2028312744,238.517068,0.223694,0.45781169444,29800,2018-04-14 20:22:23,20,0,22.324,5964.2028312744,238.517068,0.447388,1.41091868032,0,0,-0.671082,64.6, 0.3, -2.8,0,0,1024,1024,1024,1024,64.4,-89.9,96,3.702,3.705,3.728,3.734,0,0,18.617,64.4,14,Waypoint,
36.7673019,-118.8833874,5966.1713352744,240.485572,0.223694,0.47912075024,29900,2018-04-14 20:22:23,20,0,22.324,5966.1713352744,240.485572,0.447388,1.41091868032,0,0,-0.671082,64.9, 0.3, -2.5,0,0,1024,1024,1024,1024,64.4,-89.9,96,3.702,3.705,3.728,3.734,0,0,18.617,64.4,14,Waypoint,
36.7673021,-118.8833875,5968.4679232744,242.78216,0,0.54821852148,30100,2018-04-14 20:22:24,20,0,22.324,5968.4679232744,242.78216,0.447388,1.41091868032,0,0,-0.671082,65.1, 0, -2.6,0,0,1024,1024,1024,1024,64.4,-90,96,3.702,3.705,3.728,3.734,0,0,18.617,64.4,14,Waypoint,
36.7673021,-118.8833875,5969.4521752744,243.766412,0,0.54821852148,30200,2018-04-14 20:22:24,20,0,22.324,5969.4521752744,243.766412,0.447388,1.41091868032,0,0,-0.671082,65.1, 0, -2.7,0,0,1024,1024,1024,1024,64.4,-90,96,3.702,3.705,3.728,3.734,0,0,18.617,64.4,14,Waypoint,
