latitude,longitude,altitude(feet),ascent(feet),speed(mph),distance(feet),time(millisecond),datetime(utc),satellites,gpslevel,voltage(v),max_altitude(feet),max_ascent(feet),max_speed(mph),max_distance(feet), xSpeed(mph), ySpeed(mph), zSpeed(mph), compass_heading(degrees), pitch(degrees), roll(degrees),isPhoto,isVideo,rc_elevator,rc_aileron,rc_throttle,rc_rudder,gimbal_heading(degrees),gimbal_pitch(degrees),battery_percent,voltageCell1,voltageCell2,voltageCell3,voltageCell4,voltageCell5,voltageCell6,current(A),battery_temperature(f),flycStateRaw,flycState,message
36.7673126,-118.883426,5724.506311137,0,0.3131716,0,3000,2018-04-14 19:28:58,14,0,25.338,5724.506311137,0,0.3131716,0,0,0,0,65.8, -0.3, 0,1,0,1024,1024,1024,1024,65.5,-90,90,4.239,4.219,4.243,4.223,0,0,3.917,77,11,AutoTakeoff,
36.7673128,-118.8834261,5724.506311137,0,0.3131716,0.07860564556,3100,2018-04-14 19:28:58,14,0,25.338,5724.506311137,0,0.3131716,0.07860564556,0,0,0,65.8, -0.4, 0.4,0,0,1024,1024,1024,1024,65.5,-89.9,90,4.239,4.219,4.243,4.223,0,0,3.917,77,11,AutoTakeoff,
36.7673129,-118.8834263,5724.506311137,0,0.3131716,0.140244098976,3200,2018-04-14 19:28:58,14,0,25.338,5724.506311137,0,0.3131716,0.140244098976,0,0,0,65.8, -0.5, 0.4,0,0,1024,1024,1024,1024,65.5,-89.9,90,4.239,4.219,4.243,4.223,0,0,3.917,77,11,AutoTakeoff,
36.7673131,-118.8834264,5724.506311137,0,0.223694,0.216670938692,3300,2018-04-14 19:28:58,14,0,25.338,5724.506311137,0,0.3131716,0.216670938692,0,0,0,65.7, -0.3, 0.8,0,0,1024,1024,1024,1024,65.5,-89.9,90,4.239,4.219,4.243,4.223,0,0,3.917,77,11,AutoTakeoff,
36.7673132,-118.8834265,5724.834395137,0.328084,0.223694,0.263205389,3400,2018-04-14 19:28:58,14,0,25.338,5724.834395137,0.328084,0.3131716,0.263205389,0,0,0,65.7, -0.2, 1.2,0,0,1024,1024,1024,1024,65.5,-89.9,90,4.239,4.219,4.243,4.223,0,0,3.917,77,11,AutoTakeoff,
36.7673134,-118.8834265,5724.834395137,0.328084,0.223694,0.3264189737,3500,2018-04-14 19:28:58,13,0,25.338,5724.834395137,0.328084,0.3131716,0.3264189737,0,0,0,65.6, -0.1, 1.1,0,0,1024,1024,1024,1024,65.5,-89.9,90,4.239,4.219,4.243,4.223,0,0,3.917,77,11,AutoTakeoff,
36.7673137,-118.8834265,5725.162479137,0.656168,0.223694,0.42711287456,3600,2018-04-14 19:28:58,14,0,25.338,5725.162479137,0.656168,0.3131716,0.42711287456,0,0,0,65.5, 0.4, 1.2,0,0,1024,1024,1024,1024,65.5,-89.9,90,4.239,4.219,4.243,4.223,0,0,3.917,77,11,AutoTakeoff,
36.7673138,-118.8834265,5725.162479137,0.656168,0.223694,0.4615649754,3800,2018-04-14 19:28:59,14,0,25.338,5725.162479137,0.656168,0.3131716,0.4615649754,0,0,0,65.6, 0.6, 1.1,0,0,1024,1024,1024,1024,65.5,-89.9,90,4.239,4.219,4.243,4.223,0,0,3.917,77,11,AutoTakeoff,
36.7673139,-118.8834265,5725.490563137,0.984252,0.223694,0.49630579016,3900,2018-04-14 19:28:59,14,0,25.338,5725.490563137,0.984252,0.3131716,0.49630579016,0,0,0,65.7, 0.6, 1.2,0,0,1024,1024,1024,1024,65.5,-89.9,90,4.239,4.219,4.243,4.223,0,0,3.917,77,11,AutoTakeoff,
36.7673139,-118.8834265,5725.490563137,0.984252,0,0.49630579016,4000,2018-04-14 19:28:59,14,0,24.962,5725.490563137,0.984252,0.3131716,0.49630579016,0,0,0,65.8, 0.8, 1.2,0,0,1024,1024,1024,1024,65.5,-89.9,90,4.139,4.145,4.125,4.143,0,0,8.083,77,11,AutoTakeoff,
36.767314,-118.8834264,5725.818647137,1.312336,0,0.52399607976,4100,2018-04-14 19:28:59,13,0,24.962,5725.818647137,1.312336,0.3131716,0.52399607976,0,0,-0.223694,66, 1, 1.2,0,0,1024,1024,1024,1024,65.5,-89.9,90,4.139,4.145,4.125,4.143,0,0,8.083,77,11,AutoTakeoff,
36.767314,-118.8834263,5726.146731137,1.64042,0,0.51826117144,4200,2018-04-14 19:28:59,13,0,24.962,5726.146731137,1.64042,0.3131716,0.52399607976,0,0,-0.223694,66, 1.2, 1.2,0,0,1024,1024,1024,1024,65.5,-89.9,90,4.139,4.145,4.125,4.143,0,0,8.083,77,11,AutoTakeoff,
36.7673141,-118.8834262,5726.146731137,1.64042,0,0.55038715672,4300,2018-04-14 19:28:59,13,0,24.962,5726.146731137,1.64042,0.3131716,0.55038715672,0,0,0,66.1, 1.4, 1,0,0,1024,1024,1024,1024,65.5,-89.9,90,4.139,4.145,4.125,4.143,0,0,8.083,77,11,AutoTakeoff,
36.7673142,-118.8834261,5726.474815137,1.968504,0,0.58449148852,4500,2018-04-14 19:28:59,12,0,24.962,5726.474815137,1.968504,0.3131716,0.58449148852,0,0,0,66, 1.5, 1,0,0,1024,1024,1024,1024,65.5,-89.9,90,4.139,4.145,4.125,4.143,0,0,8.083,77,11,AutoTakeoff,
36.7673142,-118.8834261,5726.474815137,1.968504,0,0.58449148852,4600,2018-04-14 19:28:59,12,0,24.962,5726.474815137,1.968504,0.3131716,0.58449148852,0,0,0,66, 1.5, 1.1,0,0,1024,1024,1024,1024,65.5,-89.9,90,4.139,4.145,4.125,4.143,0,0,8.083,77,11,AutoTakeoff,
36.7673142,-118.8834261,5726.802899137,2.296588,0,0.58449148852,4700,2018-04-14 19:29:00,13,0,24.962,5726.802899137,2.296588,0.3131716,0.58449148852,0,0,0,65.9, 1.5, 1.1,0,0,1024,1024,1024,1024,65.5,-89.9,90,4.139,4.145,4.125,4.143,0,0,8.083,77,11,AutoTakeoff,
36.7673141,-118.883426,5726.802899137,2.296588,0,0.54727363956,4800,2018-04-14 19:29:00,13,0,24.962,5726.802899137,2.296588,0.3131716,0.58449148852,0,0,0,65.9, 1.5, 1,0,0,1024,1024,1024,1024,65.5,-89.9,90,4.139,4.145,4.125,4.143,0,0,8.083,77,11,AutoTakeoff,
36.7673141,-118.8834259,5727.130983137,2.624672,0,0.54805447948,4900,2018-04-14 19:29:00,13,0,24.962,5727.130983137,2.624672,0.3131716,0.58449148852,0,0,-0.223694,65.9, 1.4, 0.7,0,0,1024,1024,1024,1024,65.5,-89.9,90,4.139,4.145,4.125,4.143,0,0,8.083,77,11,AutoTakeoff,
36.7673141,-118.8834258,5727.459067137,2.952756,0,0.55038715672,5000,2018-04-14 19:29:00,13,0,24.366,5727.459067137,2.952756,0.3131716,0.58449148852,0,0,0,65.9, 1.4, 0.5,0,0,1024,1024,1024,1024,65.5,-89.9,89,4.026,4.042,4.058,4.072,0,0,15.392,77,11,AutoTakeoff,
36.7673141,-118.8834258,5727.459067137,2.952756,0,0.55038715672,5100,2018-04-14 19:29:00,12,0,24.366,5727.459067137,2.952756,0.3131716,0.58449148852,0,0,0,65.8, 1.5, 0.4,0,0,1024,1024,1024,1024,65.5,-89.9,89,4.026,4.042,4.058,4.072,0,0,15.392,77,14,Waypoint,
36.767314,-118.8834257,5727.459067137,2.952756,0,0.51826117144,5200,2018-04-14 19:29:00,12,0,24.366,5727.459067137,2.952756,0.3131716,0.58449148852,0,0,0,65.8, 1.3, 0,0,0,1024,1024,1024,1024,65.5,-89.9,89,4.026,4.042,4.058,4.072,0,0,15.392,77,14,Waypoint,
36.7673139,-118.8834257,5727.787151137,3.28084,0,0.48233925428,5300,2018-04-14 19:29:00,13,0,24.366,5727.787151137,3.28084,0.3131716,0.58449148852,0,0,0,65.8, 0.8, -0.6,0,0,1024,1024,1024,1024,65.5,-90,89,4.026,4.042,4.058,4.072,0,0,15.392,77,14,Waypoint,
36.7673137,-118.8834257,5727.787151137,3.28084,0,0.41080053808,5400,2018-04-14 19:29:00,13,0,24.366,5727.787151137,3.28084,0.3131716,0.58449148852,0,0,0,65.7, 0.5, -0.9,0,0,1024,1024,1024,1024,65.5,-90,89,4.026,4.042,4.058,4.072,0,0,15.392,77,14,Waypoint,
36.7673137,-118.8834256,5727.787151137,3.28084,0,0.41801510524,5500,2018-04-14 19:29:00,11,0,24.366,5727.787151137,3.28084,0.3131716,0.58449148852,0,0,0,65.6, 0.4, -0.9,0,0,1024,1024,1024,1024,65.5,-90,89,4.026,4.042,4.058,4.072,0,0,15.392,77,14,Waypoint,
36.7673136,-118.8834254,5728.115235137,3.608924,0,0.4048064434,5700,2018-04-14 19:29:01,11,0,24.366,5728.115235137,3.608924,0.3131716,0.58449148852,0,0,-0.223694,65.4, 0.4, -1,0,0,1024,1024,1024,1024,65.5,-89.9,89,4.026,4.042,4.058,4.072,0,0,15.392,77,14,Waypoint,
36.7673135,-118.8834254,5728.115235137,3.608924,0,0.37225722976,5800,2018-04-14 19:29:01,12,0,24.366,5728.115235137,3.608924,0.3131716,0.58449148852,0,0,-0.223694,65, 0.7, -1.1,0,0,1024,1024,1024,1024,65.5,-89.9,89,4.026,4.042,4.058,4.072,0,0,15.392,77,14,Waypoint,
36.7673135,-118.8834253,5728.771403137,4.265092,0,0.38688649532,5900,2018-04-14 19:29:01,12,0,24.366,5728.771403137,4.265092,0.3131716,0.58449148852,0,0,-0.223694,63.9, 0.9, -1,0,0,1024,1024,1024,1024,65.5,-89.9,89,4.026,4.042,4.058,4.072,0,0,15.392,77,14,Waypoint,
36.7673136,-118.8834253,5729.427571137,4.92126,0,0.41829725748,6000,2018-04-14 19:29:01,12,0,24.161,5729.427571137,4.92126,0.3131716,0.58449148852,0,0,-0.223694,63, 1, -0.3,0,0,1024,1024,1024,1024,65.4,-89.9,89,3.982,4.03,4.031,4.038,0,0,16.16,77,14,Waypoint,
36.7673138,-118.8834253,5731.067991137,6.56168,0,0.48326117032,6400,2018-04-14 19:29:01,13,0,24.161,5731.067991137,6.56168,0.3131716,0.58449148852,0,0,-0.447388,62.3, 0.9, -0.1,0,0,1024,1024,1024,1024,65.3,-89.9,89,3.982,4.03,4.031,4.038,0,0,16.16,77,14,Waypoint,
36.7673139,-118.8834253,5731.724159137,7.217848,0,0.51654857296,6500,2018-04-14 19:29:01,10,0,24.161,5731.724159137,7.217848,0.3131716,0.58449148852,0,0,-0.447388,62.3, 0.6, 0,0,0,1024,1024,1024,1024,65.2,-90,89,3.982,4.03,4.031,4.038,0,0,16.16,77,14,Waypoint,
36.767314,-118.8834253,5732.708411137,8.2021,0,0.55023951892,6600,2018-04-14 19:29:01,10,0,24.161,5732.708411137,8.2021,0.3131716,0.58449148852,0,0,-0.671082,62.4, 0.6, 0,0,0,1024,1024,1024,1024,65.1,-89.9,89,3.982,4.03,4.031,4.038,0,0,16.16,77,14,Waypoint,
36.7673141,-118.8834253,5733.692663137,9.186352,0,0.58426511056,6700,2018-04-14 19:29:02,11,0,24.161,5733.692663137,9.186352,0.3131716,0.58449148852,0,0,-0.671082,62.7, 0.7, 0.1,0,0,1024,1024,1024,1024,65.1,-89.9,89,3.982,4.03,4.031,4.038,0,0,16.16,77,14,Waypoint,
36.7673141,-118.8834253,5734.676915137,10.170604,0,0.58426511056,6800,2018-04-14 19:29:02,11,0,24.161,5734.676915137,10.170604,0.3131716,0.58449148852,0,0,-0.671082,63.1, 0.7, 0.1,0,0,1024,1024,1024,1024,65,-89.9,89,3.982,4.03,4.031,4.038,0,0,16.16,77,14,Waypoint,
36.7673141,-118.8834253,5735.661167137,11.154856,0,0.58426511056,6900,2018-04-14 19:29:02,11,0,24.161,5735.661167137,11.154856,0.3131716,0.58449148852,0,0,-0.671082,63.5, 0.5, -0.1,0,0,1024,1024,1024,1024,65,-90,89,3.982,4.03,4.031,4.038,0,0,16.16,77,14,Waypoint,
36.7673142,-118.8834254,5736.973503137,12.467192,0,0.6095308594,7000,2018-04-14 19:29:02,11,0,23.658,5736.973503137,12.467192,0.3131716,0.6095308594,0,0,-0.671082,63.8, 0.4, 0,0,0,1024,1024,1024,1024,64.9,-90,89,3.884,3.91,3.932,3.94,0,0,22.443,77,14,Waypoint,
36.7673142,-118.8834254,5737.957755137,13.451444,0,0.6095308594,7100,2018-04-14 19:29:02,11,0,23.658,5737.957755137,13.451444,0.3131716,0.6095308594,0,0,-0.671082,64, 0.1, 0,0,0,1024,1024,1024,1024,64.9,-89.9,89,3.884,3.91,3.932,3.94,0,0,22.443,77,14,Waypoint,
36.7673144,-118.8834254,5740.254343137,15.748032,0,0.67973755456,7300,2018-04-14 19:29:02,12,0,23.658,5740.254343137,15.748032,0.3131716,0.67973755456,0,0,-0.671082,63.9, 0.2, 0.1,0,0,1024,1024,1024,1024,64.8,-89.9,89,3.884,3.91,3.932,3.94,0,0,22.443,77,14,Waypoint,
36.7673144,-118.8834255,5741.238595137,16.732284,0,0.67279201628,7400,2018-04-14 19:29:02,12,0,23.658,5741.238595137,16.732284,0.3131716,0.67973755456,0,0,-0.671082,63.7, 0.3, 0.3,0,0,1024,1024,1024,1024,64.8,-89.9,89,3.884,3.91,3.932,3.94,0,0,22.443,77,14,Waypoint,
36.7673144,-118.8834255,5742.550931137,18.04462,0,0.67279201628,7500,2018-04-14 19:29:02,12,0,23.658,5742.550931137,18.04462,0.3131716,0.67973755456,0,0,-0.671082,63.6, 0.4, 0.4,0,0,1024,1024,1024,1024,64.7,-89.9,89,3.884,3.91,3.932,3.94,0,0,22.443,77,14,Waypoint,
36.7673143,-118.8834255,5743.535183137,19.028872,0,0.63722771068,7600,2018-04-14 19:29:02,12,0,23.658,5743.535183137,19.028872,0.3131716,0.67973755456,0,0,-0.671082,63.4, 0.4, 0.2,0,0,1024,1024,1024,1024,64.7,-89.9,89,3.884,3.91,3.932,3.94,0,0,22.443,77,14,Waypoint,
36.7673142,-118.8834255,5744.519435137,20.013124,0,0.6017716728,7700,2018-04-14 19:29:03,13,0,23.658,5744.519435137,20.013124,0.3131716,0.67973755456,0,0,-0.671082,63.3, 0.4, -0.3,0,0,1024,1024,1024,1024,64.7,-89.9,89,3.884,3.91,3.932,3.94,0,0,22.443,77,14,Waypoint,
36.7673141,-118.8834256,5745.831771137,21.32546,0,0.55962272132,7800,2018-04-14 19:29:03,13,0,23.658,5745.831771137,21.32546,0.3131716,0.67973755456,0,0,-0.671082,63.2, 0.3, -0.6,0,0,1024,1024,1024,1024,64.6,-89.9,89,3.884,3.91,3.932,3.94,0,0,22.443,77,14,Waypoint,
36.7673141,-118.8834258,5747.800275137,23.293964,0,0.55038715672,7900,2018-04-14 19:29:03,13,0,23.658,5747.800275137,23.293964,0.3131716,0.67973755456,0,0,-0.671082,63.1, -0.1, -0.7,0,0,1024,1024,1024,1024,64.6,-90,89,3.884,3.91,3.932,3.94,0,0,22.443,77,14,Waypoint,
36.767314,-118.8834258,5749.112611137,24.6063,0,0.5141240322,8010,2018-04-14 19:29:03,15,0,23.67,5749.112611137,24.6063,0.3131716,0.67973755456,0,0,-0.671082,63, -0.3, -0.4,0,0,1024,1024,1024,1024,64.6,-90,89,3.884,3.91,3.932,3.94,0,0,21.292,77,14,Waypoint,
36.7673139,-118.8834259,5752.393451137,27.88714,0,0.47520342728,8400,2018-04-14 19:29:03,15,0,23.67,5752.393451137,27.88714,0.3131716,0.67973755456,0,0,-0.671082,63, -0.2, 0,0,0,1024,1024,1024,1024,64.5,-89.9,89,3.884,3.91,3.932,3.94,0,0,21.292,77,14,Waypoint,
36.7673138,-118.8834258,5753.377703137,28.871392,0,0.44170277004,8500,2018-04-14 19:29:03,14,0,23.67,5753.377703137,28.871392,0.3131716,0.67973755456,0,0,-0.671082,62.9, 0, -0.3,0,0,1024,1024,1024,1024,64.5,-89.9,89,3.884,3.91,3.932,3.94,0,0,21.292,77,14,Waypoint,
36.7673136,-118.8834257,5754.361955137,29.855644,0,0.37523623248,8600,2018-04-14 19:29:03,14,0,23.67,5754.361955137,29.855644,0.3131716,0.67973755456,0,0,-0.671082,62.8, 0.3, -0.5,0,0,1024,1024,1024,1024,64.5,-89.9,89,3.884,3.91,3.932,3.94,0,0,21.292,77,14,Waypoint,
36.7673135,-118.8834256,5755.674291137,31.16798,0,0.3485564416,8700,2018-04-14 19:29:04,13,0,23.67,5755.674291137,31.16798,0.3131716,0.67973755456,0,0,-0.671082,62.7, 0.4, -0.6,0,0,1024,1024,1024,1024,64.4,-89.9,89,3.884,3.91,3.932,3.94,0,0,21.292,77,14,Waypoint,
36.7673134,-118.8834255,5756.658543137,32.152232,0,0.3264189737,8800,2018-04-14 19:29:04,13,0,23.67,5756.658543137,32.152232,0.3131716,0.67973755456,0,0,-0.671082,62.7, 0.4, -0.7,0,0,1024,1024,1024,1024,64.4,-89.9,89,3.884,3.91,3.932,3.94,0,0,21.292,77,14,Waypoint,
36.7673133,-118.8834254,5757.642795137,33.136484,0,0.309803815688,8900,2018-04-14 19:29:04,12,0,23.67,5757.642795137,33.136484,0.3131716,0.67973755456,0,0,-0.671082,62.6, 0.5, -0.9,0,0,1024,1024,1024,1024,64.4,-89.9,89,3.884,3.91,3.932,3.94,0,0,21.292,77,14,Waypoint,
36.7673132,-118.8834253,5758.627047137,34.120736,0,0.299630258932,9000,2018-04-14 19:29:04,12,0,23.795,5758.627047137,34.120736,0.3131716,0.67973755456,0,0,-0.671082,62.6, 0.6, -1.1,0,0,1024,1024,1024,1024,64.4,-89.9,89,3.938,3.977,3.968,3.991,0,0,18.319,77,14,Waypoint,
36.7673132,-118.8834252,5759.611299137,35.104988,0,0.320299550932,9100,2018-04-14 19:29:04,12,0,23.795,5759.611299137,35.104988,0.3131716,0.67973755456,0,0,-0.671082,62.6, 0.8, -1.3,0,0,1024,1024,1024,1024,64.4,-89.9,89,3.938,3.977,3.968,3.991,0,0,18.319,77,14,Waypoint,
36.7673131,-118.8834253,5760.595551137,36.08924,0,0.274108932656,9200,2018-04-14 19:29:04,12,0,23.795,5760.595551137,36.08924,0.3131716,0.67973755456,0,0,-0.671082,62.7, 0.9, -1.3,0,0,1024,1024,1024,1024,64.3,-89.9,89,3.938,3.977,3.968,3.991,0,0,18.319,77,14,Waypoint,
36.767313,-118.8834252,5761.579803137,37.073492,0,0.275624352652,9300,2018-04-14 19:29:04,13,0,23.795,5761.579803137,37.073492,0.3131716,0.67973755456,0,0,-0.671082,62.8, 0.7, -1.1,0,0,1024,1024,1024,1024,64.3,-89.9,89,3.938,3.977,3.968,3.991,0,0,18.319,77,14,Waypoint,
36.767313,-118.8834251,5763.876391137,39.37008,0,0.300816282592,9500,2018-04-14 19:29:04,14,0,23.795,5763.876391137,39.37008,0.3131716,0.67973755456,0,0,-0.671082,63.1, 0.5, -0.8,0,0,1024,1024,1024,1024,64.3,-89.9,89,3.938,3.977,3.968,3.991,0,0,18.319,77,14,Waypoint,
36.767313,-118.883425,5764.860643137,40.354332,0,0.3266814409,9600,2018-04-14 19:29:04,14,0,23.795,5764.860643137,40.354332,0.3131716,0.67973755456,0,0,-0.671082,63.2, 0.6, -0.8,0,0,1024,1024,1024,1024,64.2,-89.9,89,3.938,3.977,3.968,3.991,0,0,18.319,77,14,Waypoint,
36.7673131,-118.883425,5765.844895137,41.338584,0,0.34453085092,9700,2018-04-14 19:29:05,13,0,23.795,5765.844895137,41.338584,0.3131716,0.67973755456,0,0,-0.671082,63.3, 0.7, -0.7,0,0,1024,1024,1024,1024,64.2,-89.9,89,3.938,3.977,3.968,3.991,0,0,18.319,77,14,Waypoint,
36.7673131,-118.8834249,5766.829147137,42.322836,0,0.36964896196,9800,2018-04-14 19:29:05,13,0,23.795,5766.829147137,42.322836,0.3131716,0.67973755456,0,0,-0.671082,63.3, 0.9, -0.5,0,0,1024,1024,1024,1024,64.2,-89.9,89,3.938,3.977,3.968,3.991,0,0,18.319,77,14,Waypoint,
36.7673131,-118.8834249,5767.813399137,43.307088,0,0.36964896196,9900,2018-04-14 19:29:05,15,0,23.795,5767.813399137,43.307088,0.3131716,0.67973755456,0,0,-0.671082,63.3, 0.9, -0.2,0,0,1024,1024,1024,1024,64.2,-89.9,89,3.938,3.977,3.968,3.991,0,0,18.319,77,14,Waypoint,
36.7673131,-118.8834249,5768.797651137,44.29134,0,0.36964896196,10000,2018-04-14 19:29:05,15,0,23.801,5768.797651137,44.29134,0.3131716,0.67973755456,0,0,-0.671082,63.2, 1, -0.1,0,0,1024,1024,1024,1024,64.2,-89.9,89,3.938,3.977,3.968,3.991,0,0,17.806,77,14,Waypoint,
36.7673131,-118.8834249,5769.781903137,45.275592,0,0.36964896196,10100,2018-04-14 19:29:05,15,0,23.801,5769.781903137,45.275592,0.3131716,0.67973755456,0,0,-0.671082,63.2, 0.8, -0.3,0,0,1024,1024,1024,1024,64.2,-89.9,89,3.938,3.977,3.968,3.991,0,0,17.806,77,14,Waypoint,
36.7673131,-118.8834249,5770.766155137,46.259844,0,0.36964896196,10200,2018-04-14 19:29:05,15,0,23.801,5770.766155137,46.259844,0.3131716,0.67973755456,0,0,-0.671082,63.1, 0.6, -0.4,0,0,1024,1024,1024,1024,64.1,-89.9,89,3.938,3.977,3.968,3.991,0,0,17.806,77,14,Waypoint,
36.7673131,-118.8834249,5771.750407137,47.244096,0,0.36964896196,10300,2018-04-14 19:29:05,13,0,23.801,5771.750407137,47.244096,0.3131716,0.67973755456,0,0,-0.671082,63.1, 0.4, -0.5,0,0,1024,1024,1024,1024,64.1,-89.9,89,3.938,3.977,3.968,3.991,0,0,17.806,77,14,Waypoint,
36.7673132,-118.8834249,5772.734659137,48.228348,0,0.38895014368,10400,2018-04-14 19:29:05,13,0,23.801,5772.734659137,48.228348,0.3131716,0.67973755456,0,0,-0.671082,63, 0.3, -0.4,0,0,1024,1024,1024,1024,64.1,-89.9,89,3.938,3.977,3.968,3.991,0,0,17.806,77,14,Waypoint,
36.7673133,-118.8834249,5773.718911137,49.2126,0,0.41059384516,10500,2018-04-14 19:29:05,14,0,23.801,5773.718911137,49.2126,0.3131716,0.67973755456,0,0,-0.671082,63, 0.5, -0.1,0,0,1024,1024,1024,1024,64.1,-89.9,89,3.938,3.977,3.968,3.991,0,0,17.806,77,14,Waypoint,
36.7673133,-118.883425,5774.703163137,50.196852,0,0.38813649536,10600,2018-04-14 19:29:05,14,0,23.801,5774.703163137,50.196852,0.3131716,0.67973755456,0,0,-0.671082,63, 0.6, -0.2,0,0,1024,1024,1024,1024,64.1,-89.9,89,3.938,3.977,3.968,3.991,0,0,17.806,77,14,Waypoint,
36.7673133,-118.883425,5775.687415137,51.181104,0,0.38813649536,10700,2018-04-14 19:29:06,12,0,23.801,5775.687415137,51.181104,0.3131716,0.67973755456,0,0,-0.671082,63.1, 0.5, -0.4,0,0,1024,1024,1024,1024,64.1,-89.9,89,3.938,3.977,3.968,3.991,0,0,17.806,77,14,Waypoint,
36.7673133,-118.883425,5776.671667137,52.165356,0,0.38813649536,10800,2018-04-14 19:29:06,12,0,23.801,5776.671667137,52.165356,0.3131716,0.67973755456,0,0,-0.671082,63, 0.4, -0.5,0,0,1024,1024,1024,1024,64.1,-89.9,89,3.938,3.977,3.968,3.991,0,0,17.806,77,14,Waypoint,
36.7673135,-118.8834251,5779.624423137,55.118112,0,0.42073164076,11010,2018-04-14 19:29:06,12,0,23.801,5779.624423137,55.118112,0.3131716,0.67973755456,0,0,-0.671082,62.9, 0.3, 0,0,0,1024,1024,1024,1024,64,-89.9,89,3.945,3.969,3.976,3.986,0,0,17.806,77,14,Waypoint,
36.7673135,-118.883425,5781.592927137,57.086616,0,0.43959647076,11210,2018-04-14 19:29:06,13,0,23.801,5781.592927137,57.086616,0.3131716,0.67973755456,0,0,-0.671082,62.9, 0.5, 0,0,0,1024,1024,1024,1024,64,-89.9,89,3.945,3.969,3.976,3.986,0,0,17.806,77,14,Waypoint,
36.7673136,-118.8834251,5782.577179137,58.070868,0,0.4497867598,11400,2018-04-14 19:29:06,13,0,23.801,5782.577179137,58.070868,0.3131716,0.67973755456,0,0,-0.671082,62.9, 0.5, -0.1,0,0,1024,1024,1024,1024,64,-89.9,89,3.945,3.969,3.976,3.986,0,0,17.806,77,14,Waypoint,
36.7673136,-118.8834251,5783.561431137,59.05512,0,0.4497867598,11500,2018-04-14 19:29:06,13,0,23.801,5783.561431137,59.05512,0.3131716,0.67973755456,0,0,-0.671082,62.9, 0.3, -0.1,0,0,1024,1024,1024,1024,64,-89.9,89,3.945,3.969,3.976,3.986,0,0,17.806,77,14,Waypoint,
36.7673137,-118.8834252,5784.545683137,60.039372,0,0.46447836132,11600,2018-04-14 19:29:06,13,0,23.801,5784.545683137,60.039372,0.3131716,0.67973755456,0,0,-0.671082,62.9, 0.3, 0,0,0,1024,1024,1024,1024,64,-89.9,89,3.945,3.969,3.976,3.986,0,0,17.806,77,14,Waypoint,
36.7673137,-118.8834251,5785.529935137,61.023624,0,0.4798556584,11700,2018-04-14 19:29:07,14,0,23.801,5785.529935137,61.023624,0.3131716,0.67973755456,0,0,-0.671082,62.9, 0.4, 0.1,0,0,1024,1024,1024,1024,64,-89.9,89,3.945,3.969,3.976,3.986,0,0,17.806,77,14,Waypoint,
36.7673137,-118.8834251,5786.514187137,62.007876,0,0.4798556584,11800,2018-04-14 19:29:07,14,0,23.801,5786.514187137,62.007876,0.3131716,0.67973755456,0,0,-0.671082,63, 0.5, 0.1,0,0,1024,1024,1024,1024,64,-89.9,89,3.945,3.969,3.976,3.986,0,0,17.806,77,14,Waypoint,
36.7673136,-118.883425,5787.498439137,62.992128,0,0.46748032992,11900,2018-04-14 19:29:07,13,0,23.801,5787.498439137,62.992128,0.3131716,0.67973755456,0,0,-0.671082,63, 0.6, -0.3,0,0,1024,1024,1024,1024,64,-89.9,89,3.945,3.969,3.976,3.986,0,0,17.806,77,14,Waypoint,
36.7673136,-118.883425,5788.482691137,63.97638,0,0.46748032992,12000,2018-04-14 19:29:07,13,0,23.785,5788.482691137,63.97638,0.3131716,0.67973755456,0,0,-0.671082,63, 0.6, -0.7,0,0,1024,1024,1024,1024,64,-89.9,89,3.934,3.965,3.962,3.977,0,0,17.867,77,14,Waypoint,
36.7673136,-118.883425,5789.466943137,64.960632,0,0.46748032992,12100,2018-04-14 19:29:07,14,0,23.785,5789.466943137,64.960632,0.3131716,0.67973755456,0,0,-0.671082,63, 0.5, -0.9,0,0,1024,1024,1024,1024,64,-89.9,89,3.934,3.965,3.962,3.977,0,0,17.867,77,14,Waypoint,
36.7673135,-118.8834249,5790.123111137,65.6168,0,0.4595472588,12200,2018-04-14 19:29:07,14,0,23.785,5790.123111137,65.6168,0.3131716,0.67973755456,0,0,-0.671082,63, 0.4, -1,0,0,1024,1024,1024,1024,64,-89.9,89,3.934,3.965,3.962,3.977,0,0,17.867,77,14,Waypoint,
36.7673135,-118.8834249,5791.107363137,66.601052,0,0.4595472588,12300,2018-04-14 19:29:07,14,0,23.785,5791.107363137,66.601052,0.3131716,0.67973755456,0,0,-0.671082,63, 0.5, -0.9,0,0,1024,1024,1024,1024,64,-89.9,89,3.934,3.965,3.962,3.977,0,0,17.867,77,14,Waypoint,
36.7673135,-118.8834248,5792.091615137,67.585304,0,0.48044949044,12400,2018-04-14 19:29:07,14,0,23.785,5792.091615137,67.585304,0.3131716,0.67973755456,0,0,-0.671082,63, 0.7, -0.9,0,0,1024,1024,1024,1024,64,-89.9,89,3.934,3.965,3.962,3.977,0,0,17.867,77,14,Waypoint,
36.7673136,-118.8834247,5793.075867137,68.569556,0,0.52676182788,12500,2018-04-14 19:29:07,15,0,23.785,5793.075867137,68.569556,0.3131716,0.67973755456,0,0,-0.671082,63.1, 1, -0.8,0,0,1024,1024,1024,1024,64,-89.9,89,3.934,3.965,3.962,3.977,0,0,17.867,77,14,Waypoint,
36.7673136,-118.8834247,5794.060119137,69.553808,0,0.52676182788,12600,2018-04-14 19:29:07,15,0,23.785,5794.060119137,69.553808,0.3131716,0.67973755456,0,0,-0.671082,63.2, 1.1, -0.8,0,0,1024,1024,1024,1024,64,-89.9,89,3.934,3.965,3.962,3.977,0,0,17.867,77,14,Waypoint,
36.7673136,-118.8834247,5795.044371137,70.53806,0,0.52676182788,12700,2018-04-14 19:29:08,15,0,23.785,5795.044371137,70.53806,0.3131716,0.67973755456,0,0,-0.671082,63.2, 1.1, -0.7,0,0,1024,1024,1024,1024,64,-89.9,89,3.934,3.965,3.962,3.977,0,0,17.867,77,14,Waypoint,
36.7673136,-118.8834247,5796.356707137,71.850396,0,0.52676182788,12800,2018-04-14 19:29:08,15,0,23.785,5796.356707137,71.850396,0.3131716,0.67973755456,0,0,-0.671082,63.2, 0.9, -0.6,0,0,1024,1024,1024,1024,64,-89.9,89,3.934,3.965,3.962,3.977,0,0,17.867,77,14,Waypoint,
36.7673136,-118.8834247,5797.340959137,72.834648,0,0.52676182788,12900,2018-04-14 19:29:08,15,0,23.785,5797.340959137,72.834648,0.3131716,0.67973755456,0,0,-0.671082,63.2, 0.7, -0.5,0,0,1024,1024,1024,1024,64,-90,89,3.934,3.965,3.962,3.977,0,0,17.867,77,14,Waypoint,
36.7673136,-118.8834248,5798.325211137,73.8189,0,0.5060859742,13000,2018-04-14 19:29:08,15,0,23.766,5798.325211137,73.8189,0.3131716,0.67973755456,0,0,-0.671082,63.2, 0.4, -0.4,0,0,1024,1024,1024,1024,64,-90,89,3.923,3.954,3.962,3.98,0,0,17.842,78.8,14,Waypoint,
36.7673137,-118.8834248,5799.309463137,74.803152,0,0.5329888622,13100,2018-04-14 19:29:08,14,0,23.766,5799.309463137,74.803152,0.3131716,0.67973755456,0,0,-0.671082,63.1, 0.3, -0.4,0,0,1024,1024,1024,1024,64,-89.9,89,3.923,3.954,3.962,3.98,0,0,17.842,78.8,14,Waypoint,
36.7673138,-118.8834248,5799.965631137,75.45932,0,0.5609744274,13200,2018-04-14 19:29:08,14,0,23.766,5799.965631137,75.45932,0.3131716,0.67973755456,0,0,-0.671082,63, 0.4, -0.3,0,0,1024,1024,1024,1024,64,-89.9,89,3.923,3.954,3.962,3.98,0,0,17.842,78.8,14,Waypoint,
36.7673138,-118.8834249,5800.949883137,76.443572,0,0.54318243208,13300,2018-04-14 19:29:08,15,0,23.766,5800.949883137,76.443572,0.3131716,0.67973755456,0,0,-0.671082,62.9, 0.6, -0.1,0,0,1024,1024,1024,1024,64,-89.9,89,3.923,3.954,3.962,3.98,0,0,17.842,78.8,14,Waypoint,
36.7673139,-118.883425,5801.934135137,77.427824,0,0.55712272124,13400,2018-04-14 19:29:08,15,0,23.766,5801.934135137,77.427824,0.3131716,0.67973755456,0,0,-0.671082,62.9, 0.6, 0,0,0,1024,1024,1024,1024,64,-89.9,89,3.923,3.954,3.962,3.98,0,0,17.842,78.8,14,Waypoint,
36.767314,-118.8834251,5802.918387137,78.412076,0,0.5745407008,13500,2018-04-14 19:29:08,15,0,23.766,5802.918387137,78.412076,0.3131716,0.67973755456,0,0,-0.671082,62.9, 0.5, 0.1,0,0,1024,1024,1024,1024,64,-89.9,89,3.923,3.954,3.962,3.98,0,0,17.842,78.8,14,Waypoint,
36.7673142,-118.8834251,5804.886891137,80.38058,0,0.64028545356,13610,2018-04-14 19:29:08,13,0,23.766,5804.886891137,80.38058,0.3131716,0.67973755456,0,0,-0.671082,62.9, 0.5, 0.5,0,0,1024,1024,1024,1024,64,-89.9,89,3.923,3.954,3.962,3.98,0,0,17.842,78.8,14,Waypoint,
36.7673141,-118.8834252,5805.871143137,81.364832,0,0.59513125264,13700,2018-04-14 19:29:09,13,0,23.766,5805.871143137,81.364832,0.3131716,0.67973755456,0,0,-0.671082,62.9, 0.5, 0.4,0,0,1024,1024,1024,1024,64,-90,89,3.923,3.954,3.962,3.98,0,0,17.842,78.8,14,Waypoint,
36.7673141,-118.8834252,5806.855395137,82.349084,0,0.59513125264,13800,2018-04-14 19:29:09,14,0,23.766,5806.855395137,82.349084,0.3131716,0.67973755456,0,0,-0.671082,62.9, 0.5, 0.2,0,0,1024,1024,1024,1024,64,-89.9,89,3.923,3.954,3.962,3.98,0,0,17.842,78.8,14,Waypoint,
36.7673139,-118.8834252,5808.823899137,84.317588,0,0.5288057912,14100,2018-04-14 19:29:09,14,0,23.766,5808.823899137,84.317588,0.3131716,0.67973755456,0,0,-0.671082,62.9, 0.2, -0.5,0,0,1024,1024,1024,1024,64,-89.9,89,3.923,3.954,3.962,3.98,0,0,17.842,78.8,14,Waypoint,
36.7673137,-118.8834252,5809.808151137,85.30184,0,0.46447836132,14200,2018-04-14 19:29:09,14,0,23.766,5809.808151137,85.30184,0.3131716,0.67973755456,0,0,-0.671082,62.9, 0.1, -0.8,0,0,1024,1024,1024,1024,64,-90,89,3.923,3.954,3.962,3.98,0,0,17.842,78.8,14,Waypoint,
36.7673137,-118.8834252,5810.792403137,86.286092,0,0.46447836132,14300,2018-04-14 19:29:09,14,0,23.766,5810.792403137,86.286092,0.3131716,0.67973755456,0,0,-0.671082,62.9, 0, -0.9,0,0,1024,1024,1024,1024,64,-90,89,3.923,3.954,3.962,3.98,0,0,17.842,78.8,14,Waypoint,
36.7673137,-118.8834252,5811.776655137,87.270344,0,0.46447836132,14400,2018-04-14 19:29:09,14,0,23.766,5811.776655137,87.270344,0.3131716,0.67973755456,0,0,-0.671082,62.9, 0.1, -0.8,0,0,1024,1024,1024,1024,64,-90,89,3.923,3.954,3.962,3.98,0,0,17.842,78.8,14,Waypoint,
36.7673136,-118.8834251,5812.760907137,88.254596,0,0.4497867598,14500,2018-04-14 19:29:09,14,0,23.766,5812.760907137,88.254596,0.3131716,0.67973755456,0,0,-0.671082,62.9, 0.2, -0.7,0,0,1024,1024,1024,1024,64,-89.9,89,3.923,3.954,3.962,3.98,0,0,17.842,78.8,14,Waypoint,
36.7673136,-118.8834251,5813.745159137,89.238848,0,0.4497867598,14600,2018-04-14 19:29:09,14,0,23.766,5813.745159137,89.238848,0.3131716,0.67973755456,0,0,-0.671082,62.9, 0.3, -0.5,0,0,1024,1024,1024,1024,64,-89.9,89,3.923,3.954,3.962,3.98,0,0,17.842,78.8,14,Waypoint,
36.7673136,-118.8834251,5814.729411137,90.2231,0,0.4497867598,14800,2018-04-14 19:29:10,15,0,23.766,5814.729411137,90.2231,0.3131716,0.67973755456,0,0,-0.671082,62.9, 0.4, -0.5,0,0,1024,1024,1024,1024,64,-89.9,89,3.923,3.954,3.962,3.98,0,0,17.842,78.8,14,Waypoint,
36.7673135,-118.8834251,5816.697915137,92.191604,0,0.42073164076,14900,2018-04-14 19:29:10,14,0,23.766,5816.697915137,92.191604,0.3131716,0.67973755456,0,0,-0.671082,63, 0.6, -0.6,0,0,1024,1024,1024,1024,64,-89.9,89,3.923,3.954,3.962,3.98,0,0,17.842,78.8,14,Waypoint,
36.7673135,-118.883425,5817.682167137,93.175856,0,0.43959647076,15000,2018-04-14 19:29:10,14,0,23.665,5817.682167137,93.175856,0.3131716,0.67973755456,0,0,-0.671082,63.1, 0.5, -0.7,0,0,1024,1024,1024,1024,64,-89.9,89,3.917,3.939,3.955,3.967,0,0,18.104,78.8,14,Waypoint,
36.7673134,-118.883425,5818.666419137,94.160108,0,0.413057756,15100,2018-04-14 19:29:10,15,0,23.665,5818.666419137,94.160108,0.3131716,0.67973755456,0,0,-0.671082,63.1, 0.4, -0.8,0,0,1024,1024,1024,1024,64,-89.9,89,3.917,3.939,3.955,3.967,0,0,18.104,78.8,14,Waypoint,
36.7673134,-118.883425,5819.650671137,95.14436,0,0.413057756,15200,2018-04-14 19:29:10,15,0,23.665,5819.650671137,95.14436,0.3131716,0.67973755456,0,0,-0.671082,63.2, 0.3, -0.7,0,0,1024,1024,1024,1024,64,-89.9,89,3.917,3.939,3.955,3.967,0,0,18.104,78.8,14,Waypoint,
36.7673134,-118.883425,5820.634923137,96.128612,0,0.413057756,15300,2018-04-14 19:29:10,15,0,23.665,5820.634923137,96.128612,0.3131716,0.67973755456,0,0,-0.671082,63.2, 0.3, -0.7,0,0,1024,1024,1024,1024,64,-89.9,89,3.917,3.939,3.955,3.967,0,0,18.104,78.8,14,Waypoint,
36.7673134,-118.8834251,5821.619175137,97.112864,0,0.39291996008,15400,2018-04-14 19:29:10,15,0,23.665,5821.619175137,97.112864,0.3131716,0.67973755456,0,0,-0.671082,63.1, 0.3, -0.6,0,0,1024,1024,1024,1024,64,-89.9,89,3.917,3.939,3.955,3.967,0,0,18.104,78.8,14,Waypoint,
36.7673134,-118.8834251,5822.603427137,98.097116,0,0.39291996008,15500,2018-04-14 19:29:10,14,0,23.665,5822.603427137,98.097116,0.3131716,0.67973755456,0,0,-0.671082,63, 0.4, -0.5,0,0,1024,1024,1024,1024,64,-89.9,89,3.917,3.939,3.955,3.967,0,0,18.104,78.8,14,Waypoint,
36.7673133,-118.8834251,5823.587679137,99.081368,0,0.36663058916,15600,2018-04-14 19:29:10,14,0,23.665,5823.587679137,99.081368,0.3131716,0.67973755456,0,0,-0.671082,63, 0.5, -0.5,0,0,1024,1024,1024,1024,64,-89.9,89,3.917,3.939,3.955,3.967,0,0,18.104,78.8,14,Waypoint,
36.7673133,-118.8834251,5824.571931137,100.06562,0,0.36663058916,15700,2018-04-14 19:29:11,15,0,23.665,5824.571931137,100.06562,0.3131716,0.67973755456,0,0,-0.671082,62.9, 0.4, -0.5,0,0,1024,1024,1024,1024,64,-89.9,89,3.917,3.939,3.955,3.967,0,0,18.104,78.8,14,Waypoint,
36.7673134,-118.8834251,5825.556183137,101.049872,0,0.39291996008,15800,2018-04-14 19:29:11,15,0,23.665,5825.556183137,101.049872,0.3131716,0.67973755456,0,0,-0.671082,63, 0.3, -0.5,0,0,1024,1024,1024,1024,64,-89.9,89,3.917,3.939,3.955,3.967,0,0,18.104,78.8,14,Waypoint,
36.7673134,-118.8834252,5826.540435137,102.034124,0,0.3739829516,15900,2018-04-14 19:29:11,15,0,23.665,5826.540435137,102.034124,0.3131716,0.67973755456,0,0,-0.671082,63, 0.1, -0.4,0,0,1024,1024,1024,1024,64,-89.9,89,3.917,3.939,3.955,3.967,0,0,18.104,78.8,14,Waypoint,
36.7673134,-118.8834252,5828.508939137,104.002628,0,0.3739829516,16100,2018-04-14 19:29:11,14,0,23.665,5828.508939137,104.002628,0.3131716,0.67973755456,0,0,-0.671082,63.1, 0.2, -0.2,0,0,1024,1024,1024,1024,64,-89.9,89,3.917,3.939,3.955,3.967,0,0,18.104,78.8,14,Waypoint,
36.7673134,-118.8834252,5829.493191137,104.98688,0,0.3739829516,16200,2018-04-14 19:29:11,14,0,23.665,5829.493191137,104.98688,0.3131716,0.67973755456,0,0,-0.671082,63.1, 0.3, -0.2,0,0,1024,1024,1024,1024,64,-89.9,89,3.917,3.939,3.955,3.967,0,0,18.104,78.8,14,Waypoint,
36.7673134,-118.8834251,5830.477443137,105.971132,0,0.39291996008,16300,2018-04-14 19:29:11,15,0,23.665,5830.477443137,105.971132,0.3131716,0.67973755456,0,0,-0.671082,63.1, 0.4, -0.4,0,0,1024,1024,1024,1024,64,-89.9,89,3.917,3.939,3.955,3.967,0,0,18.104,78.8,14,Waypoint,
36.7673133,-118.8834251,5831.461695137,106.955384,0,0.36663058916,16400,2018-04-14 19:29:11,15,0,23.665,5831.461695137,106.955384,0.3131716,0.67973755456,0,0,-0.671082,63.1, 0.4, -0.6,0,0,1024,1024,1024,1024,64,-89.9,89,3.917,3.939,3.955,3.967,0,0,18.104,78.8,14,Waypoint,
36.7673133,-118.8834251,5832.117863137,107.611552,0,0.36663058916,16500,2018-04-14 19:29:11,14,0,23.665,5832.117863137,107.611552,0.3131716,0.67973755456,0,0,-0.671082,63, 0.5, -0.8,0,0,1024,1024,1024,1024,64,-89.9,89,3.917,3.939,3.955,3.967,0,0,18.104,78.8,14,Waypoint,
36.7673134,-118.8834251,5833.102115137,108.595804,0,0.39291996008,16600,2018-04-14 19:29:11,14,0,23.665,5833.102115137,108.595804,0.3131716,0.67973755456,0,0,-0.671082,63, 0.7, -0.6,0,0,1024,1024,1024,1024,64,-89.9,89,3.917,3.939,3.955,3.967,0,0,18.104,78.8,14,Waypoint,
36.7673134,-118.8834251,5834.086367137,109.580056,0,0.39291996008,16700,2018-04-14 19:29:12,15,0,23.665,5834.086367137,109.580056,0.3131716,0.67973755456,0,0,-0.671082,63, 0.8, -0.3,0,0,1024,1024,1024,1024,64,-89.9,89,3.917,3.939,3.955,3.967,0,0,18.104,78.8,14,Waypoint,
36.7673134,-118.8834251,5835.070619137,110.564308,0,0.39291996008,16800,2018-04-14 19:29:12,15,0,23.665,5835.070619137,110.564308,0.3131716,0.67973755456,0,0,-0.671082,63.1, 0.8, -0.1,0,0,1024,1024,1024,1024,64,-89.9,89,3.917,3.939,3.955,3.967,0,0,18.104,78.8,14,Waypoint,
36.7673135,-118.8834251,5836.054871137,111.54856,0,0.42073164076,16900,2018-04-14 19:29:12,15,0,23.665,5836.054871137,111.54856,0.3131716,0.67973755456,0,0,-0.671082,63.2, 0.7, -0.1,0,0,1024,1024,1024,1024,64,-89.9,89,3.917,3.939,3.955,3.967,0,0,18.104,78.8,14,Waypoint,
36.7673135,-118.8834252,5838.023375137,113.517064,0,0.40310368744,17000,2018-04-14 19:29:12,15,0,23.638,5838.023375137,113.517064,0.3131716,0.67973755456,0,0,-0.671082,63.2, 0.2, -0.3,0,0,1024,1024,1024,1024,64,-90,88,3.908,3.936,3.947,3.954,0,0,18.134,78.8,14,Waypoint,
36.7673134,-118.8834252,5839.007627137,114.501316,0,0.3739829516,17100,2018-04-14 19:29:12,15,0,23.638,5839.007627137,114.501316,0.3131716,0.67973755456,0,0,-0.671082,63.1, 0.1, -0.4,0,0,1024,1024,1024,1024,64,-90,88,3.908,3.936,3.947,3.954,0,0,18.134,78.8,14,Waypoint,
36.7673134,-118.8834252,5839.991879137,115.485568,0,0.3739829516,17200,2018-04-14 19:29:12,15,0,23.638,5839.991879137,115.485568,0.3131716,0.67973755456,0,0,-0.671082,63.1, 0.2, -0.5,0,0,1024,1024,1024,1024,64,-90,88,3.908,3.936,3.947,3.954,0,0,18.134,78.8,14,Waypoint,
36.7673135,-118.8834253,5840.976131137,116.46982,0,0.38688649532,17400,2018-04-14 19:29:12,15,0,23.638,5840.976131137,116.46982,0.3131716,0.67973755456,0,0,-0.671082,63.1, 0.2, -0.5,0,0,1024,1024,1024,1024,64,-90,88,3.908,3.936,3.947,3.954,0,0,18.134,78.8,14,Waypoint,
36.7673135,-118.8834253,5841.960383137,117.454072,0,0.38688649532,17500,2018-04-14 19:29:12,15,0,23.638,5841.960383137,117.454072,0.3131716,0.67973755456,0,0,-0.671082,63, 0.1, -0.5,0,0,1024,1024,1024,1024,64,-90,88,3.908,3.936,3.947,3.954,0,0,18.134,78.8,14,Waypoint,
36.7673135,-118.8834253,5844.913139137,120.406828,0,0.38688649532,17710,2018-04-14 19:29:13,15,0,23.638,5844.913139137,120.406828,0.3131716,0.67973755456,0,0,-0.671082,62.8, 0.4, -0.1,0,0,1024,1024,1024,1024,64,-89.9,88,3.908,3.936,3.947,3.954,0,0,18.134,78.8,14,Waypoint,
36.7673135,-118.8834253,5845.897391137,121.39108,0,0.38688649532,17900,2018-04-14 19:29:13,15,0,23.638,5845.897391137,121.39108,0.3131716,0.67973755456,0,0,-0.671082,62.7, 0.2, -0.4,0,0,1024,1024,1024,1024,64,-90,88,3.908,3.936,3.947,3.954,0,0,18.134,78.8,14,Waypoint,
36.7673135,-118.8834253,5847.209727137,122.703416,0,0.38688649532,18000,2018-04-14 19:29:13,15,0,23.595,5847.209727137,122.703416,0.3131716,0.67973755456,0,0,-0.671082,62.6, 0.2, -0.8,0,0,1024,1024,1024,1024,64,-89.9,88,3.906,3.931,3.932,3.943,0,0,18.697,78.8,14,Waypoint,
36.7673135,-118.8834253,5848.193979137,123.687668,0,0.38688649532,18100,2018-04-14 19:29:13,15,0,23.595,5848.193979137,123.687668,0.3131716,0.67973755456,0,0,-0.671082,62.5, 0.3, -0.9,0,0,1024,1024,1024,1024,64,-90,88,3.906,3.931,3.932,3.943,0,0,18.697,78.8,14,Waypoint,
36.7673135,-118.8834253,5849.178231137,124.67192,0,0.38688649532,18200,2018-04-14 19:29:13,15,0,23.595,5849.178231137,124.67192,0.3131716,0.67973755456,0,0,-0.671082,62.6, 0.3, -0.8,0,0,1024,1024,1024,1024,64,-89.9,88,3.906,3.931,3.932,3.943,0,0,18.697,78.8,14,Waypoint,
36.7673135,-118.8834253,5850.162483137,125.656172,0,0.38688649532,18300,2018-04-14 19:29:13,15,0,23.595,5850.162483137,125.656172,0.3131716,0.67973755456,0,0,-0.671082,62.8, 0.2, -0.8,0,0,1024,1024,1024,1024,64,-89.9,88,3.906,3.931,3.932,3.943,0,0,18.697,78.8,14,Waypoint,
36.7673135,-118.8834253,5851.146735137,126.640424,0,0.38688649532,18400,2018-04-14 19:29:13,15,0,23.595,5851.146735137,126.640424,0.3131716,0.67973755456,0,0,-0.671082,63, 0.2, -0.7,0,0,1024,1024,1024,1024,64,-89.9,88,3.906,3.931,3.932,3.943,0,0,18.697,78.8,14,Waypoint,
36.7673135,-118.8834253,5852.130987137,127.624676,0,0.38688649532,18500,2018-04-14 19:29:13,15,0,23.595,5852.130987137,127.624676,0.3131716,0.67973755456,0,0,-0.671082,63.1, 0.2, -0.6,0,0,1024,1024,1024,1024,64,-89.9,88,3.906,3.931,3.932,3.943,0,0,18.697,78.8,14,Waypoint,
36.7673135,-118.8834253,5853.115239137,128.608928,0,0.38688649532,18600,2018-04-14 19:29:13,15,0,23.595,5853.115239137,128.608928,0.3131716,0.67973755456,0,0,-0.671082,63.1, 0.2, -0.4,0,0,1024,1024,1024,1024,64,-89.9,88,3.906,3.931,3.932,3.943,0,0,18.697,78.8,14,Waypoint,
36.7673135,-118.8834253,5854.099491137,129.59318,0,0.38688649532,18700,2018-04-14 19:29:14,15,0,23.595,5854.099491137,129.59318,0.3131716,0.67973755456,0,0,-0.671082,63.1, 0.4, -0.4,0,0,1024,1024,1024,1024,64,-89.9,88,3.906,3.931,3.932,3.943,0,0,18.697,78.8,14,Waypoint,
36.7673135,-118.8834253,5855.083743137,130.577432,0,0.38688649532,18800,2018-04-14 19:29:14,15,0,23.595,5855.083743137,130.577432,0.3131716,0.67973755456,0,0,-0.671082,63.1, 0.4, -0.4,0,0,1024,1024,1024,1024,64,-89.9,88,3.906,3.931,3.932,3.943,0,0,18.697,78.8,14,Waypoint,
36.7673135,-118.8834252,5856.067995137,131.561684,0,0.40310368744,18900,2018-04-14 19:29:14,15,0,23.595,5856.067995137,131.561684,0.3131716,0.67973755456,0,0,-0.671082,63.1, 0.4, -0.4,0,0,1024,1024,1024,1024,64,-89.9,88,3.906,3.931,3.932,3.943,0,0,18.697,78.8,14,Waypoint,
36.7673135,-118.8834251,5857.052247137,132.545936,0,0.42073164076,19000,2018-04-14 19:29:14,15,0,23.546,5857.052247137,132.545936,0.3131716,0.67973755456,0,0,-0.671082,63.1, 0.6, -0.4,0,0,1024,1024,1024,1024,64,-89.9,88,3.898,3.933,3.934,3.952,0,0,17.718,78.8,14,Waypoint,
36.7673135,-118.8834251,5858.036499137,133.530188,0,0.42073164076,19100,2018-04-14 19:29:14,15,0,23.546,5858.036499137,133.530188,0.3131716,0.67973755456,0,0,-0.671082,63.1, 1, -0.7,0,0,1024,1024,1024,1024,64,-89.9,88,3.898,3.933,3.934,3.952,0,0,17.718,78.8,14,Waypoint,
36.7673135,-118.883425,5858.692667137,134.186356,0,0.43959647076,19200,2018-04-14 19:29:14,15,0,23.546,5858.692667137,134.186356,0.3131716,0.67973755456,0,0,-0.671082,63.1, 1.2, -0.7,0,0,1024,1024,1024,1024,64,-89.9,88,3.898,3.933,3.934,3.952,0,0,17.718,78.8,14,Waypoint,
36.7673135,-118.8834249,5859.676919137,135.170608,0,0.4595472588,19300,2018-04-14 19:29:14,15,0,23.546,5859.676919137,135.170608,0.3131716,0.67973755456,0,0,-0.671082,63, 1.3, -0.6,0,0,1024,1024,1024,1024,64,-89.9,88,3.898,3.933,3.934,3.952,0,0,17.718,78.8,14,Waypoint,
36.7673134,-118.8834249,5860.661171137,136.15486,0,0.43422901652,19400,2018-04-14 19:29:14,15,0,23.546,5860.661171137,136.15486,0.3131716,0.67973755456,0,0,-0.671082,62.9, 1.3, -0.5,0,0,1024,1024,1024,1024,64,-89.9,88,3.898,3.933,3.934,3.952,0,0,17.718,78.8,14,Waypoint,
36.7673134,-118.8834248,5861.645423137,137.139112,0,0.45629266552,19500,2018-04-14 19:29:14,15,0,23.546,5861.645423137,137.139112,0.3131716,0.67973755456,0,0,-0.671082,62.8, 1.3, -0.9,0,0,1024,1024,1024,1024,64,-89.9,88,3.898,3.933,3.934,3.952,0,0,17.718,78.8,14,Waypoint,
36.7673133,-118.8834248,5862.957759137,138.451448,0,0.43386156244,19600,2018-04-14 19:29:14,15,0,23.546,5862.957759137,138.451448,0.3131716,0.67973755456,0,0,-0.671082,62.8, 1, -1.3,0,0,1024,1024,1024,1024,64,-89.9,88,3.898,3.933,3.934,3.952,0,0,17.718,78.8,14,Waypoint,
36.7673133,-118.8834247,5863.942011137,139.4357,0,0.45781169444,19700,2018-04-14 19:29:15,15,0,23.546,5863.942011137,139.4357,0.3131716,0.67973755456,0,0,-0.671082,62.9, 1, -1.5,0,0,1024,1024,1024,1024,64,-89.9,88,3.898,3.933,3.934,3.952,0,0,17.718,78.8,14,Waypoint,
36.7673132,-118.8834246,5864.926263137,140.419952,0,0.4640584138,19800,2018-04-14 19:29:15,15,0,23.546,5864.926263137,140.419952,0.3131716,0.67973755456,0,0,-0.671082,62.9, 1, -1.7,0,0,1024,1024,1024,1024,64,-89.9,88,3.898,3.933,3.934,3.952,0,0,17.718,78.8,14,Waypoint,
36.7673132,-118.8834245,5865.910515137,141.404204,0,0.49002298156,19900,2018-04-14 19:29:15,15,0,23.546,5865.910515137,141.404204,0.3131716,0.67973755456,0,0,-0.671082,63, 1.2, -1.7,0,0,1024,1024,1024,1024,64,-89.9,88,3.898,3.933,3.934,3.952,0,0,17.718,78.8,14,Waypoint,
36.7673131,-118.8834245,5866.894767137,142.388456,0,0.47484581572,20000,2018-04-14 19:29:15,15,0,23.539,5866.894767137,142.388456,0.3131716,0.67973755456,0,0,-0.671082,63, 1.4, -1.7,0,0,1024,1024,1024,1024,64,-89.9,88,3.903,3.924,3.928,3.944,0,0,18.644,78.8,14,Waypoint,
36.7673131,-118.8834244,5867.550935137,143.044624,0,0.50195539664,20100,2018-04-14 19:29:15,15,0,23.539,5867.550935137,143.044624,0.3131716,0.67973755456,0,0,-0.671082,63, 1.5, -1.9,0,0,1024,1024,1024,1024,64,-89.9,88,3.903,3.924,3.928,3.944,0,0,18.644,78.8,14,Waypoint,
36.767313,-118.8834243,5868.863271137,144.35696,0,0.51785106644,20200,2018-04-14 19:29:15,15,0,23.539,5868.863271137,144.35696,0.3131716,0.67973755456,0,0,-0.671082,62.9, 1.4, -2.1,0,0,1024,1024,1024,1024,64,-89.9,88,3.903,3.924,3.928,3.944,0,0,18.644,78.8,14,Waypoint,
36.7673129,-118.8834242,5869.847523137,145.341212,0,0.5373523794,20300,2018-04-14 19:29:15,15,0,23.539,5869.847523137,145.341212,0.3131716,0.67973755456,0,0,-0.671082,62.8, 1.6, -2.5,0,0,1024,1024,1024,1024,64,-89.9,88,3.903,3.924,3.928,3.944,0,0,18.644,78.8,14,Waypoint,
36.7673128,-118.883424,5871.816027137,147.309716,0,0.58907810284,20400,2018-04-14 19:29:15,15,0,23.539,5871.816027137,147.309716,0.3131716,0.67973755456,0,0,-0.671082,62.7, 1.7, -3.1,0,0,1024,1024,1024,1024,64,-89.9,88,3.903,3.924,3.928,3.944,0,0,18.644,78.8,14,Waypoint,
36.7673127,-118.8834239,5872.800279137,148.293968,0,0.61485238188,20600,2018-04-14 19:29:15,15,0,23.539,5872.800279137,148.293968,0.3131716,0.67973755456,0,0,-0.671082,62.6, 1.9, -3.2,0,0,1024,1024,1024,1024,64,-89.9,88,3.903,3.924,3.928,3.944,0,0,18.644,78.8,14,Waypoint,
36.7673127,-118.8834238,5873.784531137,149.27822,0,0.644028892,20700,2018-04-14 19:29:16,15,0,23.539,5873.784531137,149.27822,0.3131716,0.67973755456,0,0,-0.671082,62.6, 2.4, -3.2,0,0,1024,1024,1024,1024,64,-89.9,88,3.903,3.924,3.928,3.944,0,0,18.644,78.8,14,Waypoint,
36.7673127,-118.8834236,5874.768783137,150.262472,0,0.70239831644,20800,2018-04-14 19:29:16,15,0,23.539,5874.768783137,150.262472,0.3131716,0.70239831644,0,0,-0.671082,62.6, 2.7, -3.1,0,0,1024,1024,1024,1024,64,-89.9,88,3.903,3.924,3.928,3.944,0,0,18.644,78.8,14,Waypoint,
36.7673126,-118.8834235,5875.753035137,151.246724,0,0.73067915724,20900,2018-04-14 19:29:16,15,0,23.539,5875.753035137,151.246724,0.3131716,0.73067915724,0,0,-0.671082,62.6, 2.7, -3.2,0,0,1024,1024,1024,1024,64,-89.9,88,3.903,3.924,3.928,3.944,0,0,18.644,78.8,14,Waypoint,
36.7673125,-118.8834234,5876.737287137,152.230976,0,0.76078086424,21000,2018-04-14 19:29:16,15,0,23.577,5876.737287137,152.230976,0.3131716,0.76078086424,0,0,-0.671082,62.6, 2.5, -3.6,0,0,1024,1024,1024,1024,64,-89.9,88,3.903,3.924,3.928,3.944,0,0,17.814,78.8,14,Waypoint,
36.7673124,-118.8834233,5878.049623137,153.543312,0,0.79249674452,21100,2018-04-14 19:29:16,15,0,23.577,5878.049623137,153.543312,0.3131716,0.79249674452,0,0,-0.671082,62.6, 2.4, -4.1,0,0,1024,1024,1024,1024,64,-89.9,88,3.903,3.924,3.928,3.944,0,0,17.814,78.8,14,Waypoint,
36.7673123,-118.8834232,5879.033875137,154.527564,0,0.82564635188,21200,2018-04-14 19:29:16,15,0,23.577,5879.033875137,154.527564,0.3131716,0.82564635188,0,0,-0.671082,62.7, 2.2, -4.4,0,0,1024,1024,1024,1024,64,-89.9,88,3.903,3.924,3.928,3.944,0,0,17.814,78.8,14,Waypoint,
36.7673123,-118.8834232,5880.018127137,155.511816,0,0.82564635188,21300,2018-04-14 19:29:16,15,0,23.577,5880.018127137,155.511816,0.3131716,0.82564635188,0,0,-0.671082,62.7, 2.1, -4.2,0,0,1024,1024,1024,1024,64,-89.9,88,3.903,3.924,3.928,3.944,0,0,17.814,78.8,14,Waypoint,
36.7673123,-118.8834231,5881.002379137,156.496068,0,0.85462273076,21400,2018-04-14 19:29:16,15,0,23.577,5881.002379137,156.496068,0.3131716,0.85462273076,0,0,-0.671082,62.8, 2.2, -3.8,0,0,1024,1024,1024,1024,64,-89.9,88,3.903,3.924,3.928,3.944,0,0,17.814,78.8,14,Waypoint,
36.7673122,-118.8834231,5881.986631137,157.48032,0,0.86005908264,21500,2018-04-14 19:29:16,15,0,23.577,5881.986631137,157.48032,0.3131716,0.86005908264,0,0,-0.671082,62.9, 2.2, -3.5,0,0,1024,1024,1024,1024,64,-89.9,88,3.903,3.924,3.928,3.944,0,0,17.814,78.8,14,Waypoint,
36.7673122,-118.8834231,5882.642799137,158.136488,0,0.86005908264,21600,2018-04-14 19:29:16,15,0,23.577,5882.642799137,158.136488,0.3131716,0.86005908264,0,0,-0.671082,62.9, 2, -3.5,0,0,1024,1024,1024,1024,64,-89.9,88,3.903,3.924,3.928,3.944,0,0,17.814,78.8,14,Waypoint,
36.7673121,-118.8834232,5884.611303137,160.104992,0,0.83844490872,21800,2018-04-14 19:29:17,15,0,23.577,5884.611303137,160.104992,0.3131716,0.86005908264,0,0,-0.671082,63.1, 1.5, -3.6,0,0,1024,1024,1024,1024,64,-90,88,3.903,3.924,3.928,3.944,0,0,17.814,78.8,14,Waypoint,
36.7673121,-118.8834232,5885.595555137,161.089244,0,0.83844490872,21900,2018-04-14 19:29:17,15,0,23.577,5885.595555137,161.089244,0.3131716,0.86005908264,0,0,-0.671082,63.2, 1.4, -3.6,0,0,1024,1024,1024,1024,64,-90,88,3.903,3.924,3.928,3.944,0,0,17.814,78.8,14,Waypoint,
36.767312,-118.8834232,5887.235975137,162.729664,0,0.84713257304,22100,2018-04-14 19:29:17,15,0,23.577,5887.235975137,162.729664,0.3131716,0.86005908264,0,0,-0.671082,63.2, 1.3, -3.6,0,0,1024,1024,1024,1024,64,-90,88,3.903,3.924,3.928,3.944,0,0,17.814,78.8,14,Waypoint,
36.767312,-118.8834233,5888.220227137,163.713916,0,0.81893375324,22200,2018-04-14 19:29:17,15,0,23.577,5888.220227137,163.713916,0.3131716,0.86005908264,0,0,-0.671082,63.1, 1.4, -3.4,0,0,1024,1024,1024,1024,64,-89.9,88,3.903,3.924,3.928,3.944,0,0,17.814,78.8,14,Waypoint,
36.767312,-118.8834233,5889.204479137,164.698168,0,0.81893375324,22300,2018-04-14 19:29:17,15,0,23.577,5889.204479137,164.698168,0.3131716,0.86005908264,0,0,-0.671082,62.9, 1.6, -3.5,0,0,1024,1024,1024,1024,64,-89.9,88,3.903,3.924,3.928,3.944,0,0,17.814,78.8,14,Waypoint,
36.767312,-118.8834233,5892.157235137,167.650924,0,0.81893375324,22600,2018-04-14 19:29:17,15,0,23.577,5892.157235137,167.650924,0.3131716,0.86005908264,0,0,-0.671082,62.6, 1.6, -3.7,0,0,1024,1024,1024,1024,64,-89.9,88,3.903,3.924,3.928,3.944,0,0,17.814,78.8,14,Waypoint,
36.767312,-118.8834234,5893.141487137,168.635176,0,0.79080711192,22700,2018-04-14 19:29:18,15,0,23.577,5893.141487137,168.635176,0.3131716,0.86005908264,0,0,-0.671082,62.8, 1.4, -3.8,0,0,1024,1024,1024,1024,64,-90,88,3.903,3.924,3.928,3.944,0,0,17.814,78.8,14,Waypoint,
36.767312,-118.8834234,5894.125739137,169.619428,0,0.79080711192,22800,2018-04-14 19:29:18,15,0,23.577,5894.125739137,169.619428,0.3131716,0.86005908264,0,0,-0.671082,62.9, 1.1, -3.8,0,0,1024,1024,1024,1024,64,-89.9,88,3.903,3.924,3.928,3.944,0,0,17.814,78.8,14,Waypoint,
36.7673119,-118.8834234,5895.109991137,170.60368,0,0.801673254,22900,2018-04-14 19:29:18,15,0,23.577,5895.109991137,170.60368,0.3131716,0.86005908264,0,0,-0.671082,63, 1.1, -3.9,0,0,1024,1024,1024,1024,64,-90,88,3.903,3.924,3.928,3.944,0,0,17.814,78.8,14,Waypoint,
36.7673119,-118.8834235,5897.078495137,172.572184,0,0.77402561532,23100,2018-04-14 19:29:18,15,0,23.577,5897.078495137,172.572184,0.3131716,0.86005908264,0,0,-0.671082,63.2, 0.6, -3.7,0,0,1024,1024,1024,1024,64,-90,88,3.903,3.924,3.928,3.944,0,0,17.814,78.8,14,Waypoint,
36.7673119,-118.8834236,5898.062747137,173.556436,0,0.74649936772,23200,2018-04-14 19:29:18,15,0,23.577,5898.062747137,173.556436,0.3131716,0.86005908264,0,0,-0.671082,63.2, 0.5, -3.4,0,0,1024,1024,1024,1024,64,-90,88,3.903,3.924,3.928,3.944,0,0,17.814,78.8,14,Waypoint,
36.767312,-118.8834236,5899.046999137,174.540688,0,0.73481629648,23300,2018-04-14 19:29:18,15,0,23.577,5899.046999137,174.540688,0.3131716,0.86005908264,0,0,-0.671082,63.2, 0.7, -3.2,0,0,1024,1024,1024,1024,64,-90,88,3.903,3.924,3.928,3.944,0,0,17.814,78.8,14,Waypoint,
36.7673121,-118.8834237,5900.687419137,176.181108,0,0.69653545536,23510,2018-04-14 19:29:18,15,0,23.577,5900.687419137,176.181108,0.3131716,0.86005908264,0,0,-0.671082,63.1, 0.5, -2.8,0,0,1024,1024,1024,1024,64,-89.9,88,3.903,3.924,3.928,3.944,0,0,17.814,78.8,14,Waypoint,
36.7673122,-118.8834238,5902.655923137,178.149612,0,0.6593504148,23800,2018-04-14 19:29:19,15,0,23.577,5902.655923137,178.149612,0.3131716,0.86005908264,0,0,-0.671082,62.6, 1.2, -2.6,0,0,1024,1024,1024,1024,64,-89.9,88,3.903,3.924,3.928,3.944,0,0,17.814,78.8,14,Waypoint,
36.7673122,-118.8834239,5903.640175137,179.133864,0,0.63088256612,23900,2018-04-14 19:29:19,15,0,23.577,5903.640175137,179.133864,0.3131716,0.86005908264,0,0,-0.671082,62.5, 1.5, -2.7,0,0,1024,1024,1024,1024,64,-89.9,88,3.903,3.924,3.928,3.944,0,0,17.814,78.8,14,Waypoint,
36.7673123,-118.8834239,5904.624427137,180.118116,0,0.62345146352,24000,2018-04-14 19:29:19,15,0,23.439,5904.624427137,180.118116,0.3131716,0.86005908264,0,0,-0.671082,62.6, 1.2, -2.8,0,0,1024,1024,1024,1024,64,-89.9,88,3.891,3.923,3.927,3.941,0,0,19.179,78.8,14,Waypoint,
36.7673123,-118.883424,5906.592931137,182.08662,0,0.5947014626,24100,2018-04-14 19:29:19,15,0,23.439,5906.592931137,182.08662,0.3131716,0.86005908264,0,0,-0.671082,63.1, 0.4, -2.8,0,0,1024,1024,1024,1024,64,-90,88,3.891,3.923,3.927,3.941,0,0,19.179,78.8,14,Waypoint,
36.7673122,-118.8834241,5907.577183137,183.070872,0,0.57417324672,24200,2018-04-14 19:29:19,15,0,23.439,5907.577183137,183.070872,0.3131716,0.86005908264,0,0,-0.671082,63.2, 0.2, -2.8,0,0,1024,1024,1024,1024,64,-90,88,3.891,3.923,3.927,3.941,0,0,19.179,78.8,14,Waypoint,
36.7673122,-118.8834241,5908.561435137,184.055124,0,0.57417324672,24300,2018-04-14 19:29:19,15,0,23.439,5908.561435137,184.055124,0.3131716,0.86005908264,0,0,-0.671082,63.3, 0, -3,0,0,1024,1024,1024,1024,64,-90,88,3.891,3.923,3.927,3.941,0,0,19.179,78.8,14,Waypoint,
36.7673122,-118.8834242,5909.545687137,185.039376,0,0.54595474188,24400,2018-04-14 19:29:19,15,0,23.439,5909.545687137,185.039376,0.3131716,0.86005908264,0,0,-0.671082,63.2, 0, -2.9,0,0,1024,1024,1024,1024,64,-90,88,3.891,3.923,3.927,3.941,0,0,19.179,78.8,14,Waypoint,
36.7673122,-118.8834242,5910.529939137,186.023628,0,0.54595474188,24500,2018-04-14 19:29:19,15,0,23.439,5910.529939137,186.023628,0.3131716,0.86005908264,0,0,-0.671082,63.1, 0.1, -2.9,0,0,1024,1024,1024,1024,64,-90,88,3.891,3.923,3.927,3.941,0,0,19.179,78.8,14,Waypoint,
36.7673122,-118.8834243,5911.514191137,187.00788,0,0.51785106644,24600,2018-04-14 19:29:19,15,0,23.439,5911.514191137,187.00788,0.3131716,0.86005908264,0,0,-0.671082,62.8, 0.5, -2.8,0,0,1024,1024,1024,1024,64,-89.9,88,3.891,3.923,3.927,3.941,0,0,19.179,78.8,14,Waypoint,
36.7673122,-118.8834243,5912.498443137,187.992132,0,0.51785106644,24700,2018-04-14 19:29:20,15,0,23.439,5912.498443137,187.992132,0.3131716,0.86005908264,0,0,-0.671082,62.7, 0.5, -2.5,0,0,1024,1024,1024,1024,64,-89.9,88,3.891,3.923,3.927,3.941,0,0,19.179,78.8,14,Waypoint,
36.7673122,-118.8834243,5913.482695137,188.976384,0,0.51785106644,24800,2018-04-14 19:29:20,15,0,23.439,5913.482695137,188.976384,0.3131716,0.86005908264,0,0,-0.671082,62.7, 0.5, -2.5,0,0,1024,1024,1024,1024,64,-89.9,88,3.891,3.923,3.927,3.941,0,0,19.179,78.8,14,Waypoint,
36.7673123,-118.8834244,5914.466947137,189.960636,0,0.48027232508,24900,2018-04-14 19:29:20,15,0,23.439,5914.466947137,189.960636,0.3131716,0.86005908264,0,0,-0.671082,62.8, 0.4, -2.5,0,0,1024,1024,1024,1024,64,-89.9,88,3.891,3.923,3.927,3.941,0,0,19.179,78.8,14,Waypoint,
36.7673123,-118.8834244,5915.451199137,190.944888,0,0.48027232508,25000,2018-04-14 19:29:20,15,0,23.402,5915.451199137,190.944888,0.3131716,0.86005908264,0,0,-0.671082,63.1, 0.5, -2.5,0,0,1024,1024,1024,1024,64,-89.9,88,3.862,3.906,3.906,3.923,0,0,19.042,78.8,14,Waypoint,
36.7673123,-118.8834244,5916.763535137,192.257224,0,0.48027232508,25100,2018-04-14 19:29:20,15,0,23.402,5916.763535137,192.257224,0.3131716,0.86005908264,0,0,-0.671082,63.2, 0.7, -2.5,0,0,1024,1024,1024,1024,64,-89.9,88,3.862,3.906,3.906,3.923,0,0,19.042,78.8,14,Waypoint,
36.7673123,-118.8834245,5917.747787137,193.241476,0,0.45186353152,25200,2018-04-14 19:29:20,15,0,23.402,5917.747787137,193.241476,0.3131716,0.86005908264,0,0,-0.671082,63.1, 0.7, -2.5,0,0,1024,1024,1024,1024,64,-89.9,88,3.862,3.906,3.906,3.923,0,0,19.042,78.8,14,Waypoint,
36.7673123,-118.8834245,5918.732039137,194.225728,0,0.45186353152,25300,2018-04-14 19:29:20,15,0,23.402,5918.732039137,194.225728,0.3131716,0.86005908264,0,0,-0.671082,62.9, 0.5, -2.5,0,0,1024,1024,1024,1024,64,-89.9,88,3.862,3.906,3.906,3.923,0,0,19.042,78.8,14,Waypoint,
36.7673123,-118.8834245,5919.716291137,195.20998,0,0.45186353152,25400,2018-04-14 19:29:20,15,0,23.402,5919.716291137,195.20998,0.3131716,0.86005908264,0,0,-0.671082,62.8, 0.4, -2.7,0,0,1024,1024,1024,1024,64,-89.9,88,3.862,3.906,3.906,3.923,0,0,19.042,78.8,14,Waypoint,
36.7673123,-118.8834245,5921.684795137,197.178484,0,0.45186353152,25600,2018-04-14 19:29:20,15,0,23.402,5921.684795137,197.178484,0.3131716,0.86005908264,0,0,-0.671082,63, 0.1, -2.8,0,0,1024,1024,1024,1024,64,-89.9,88,3.862,3.906,3.906,3.923,0,0,19.042,78.8,14,Waypoint,
36.7673123,-118.8834245,5922.669047137,198.162736,0,0.45186353152,25700,2018-04-14 19:29:21,15,0,23.402,5922.669047137,198.162736,0.3131716,0.86005908264,0,0,-0.671082,63.2, 0.1, -2.9,0,0,1024,1024,1024,1024,64,-89.9,88,3.862,3.906,3.906,3.923,0,0,19.042,78.8,14,Waypoint,
36.7673123,-118.8834245,5923.653299137,199.146988,0,0.45186353152,25800,2018-04-14 19:29:21,15,0,23.402,5923.653299137,199.146988,0.3131716,0.86005908264,0,0,-0.671082,63.3, 0.4, -2.9,0,0,1024,1024,1024,1024,64,-89.9,88,3.862,3.906,3.906,3.923,0,0,19.042,78.8,14,Waypoint,
36.7673123,-118.8834245,5925.621803137,201.115492,0,0.45186353152,26000,2018-04-14 19:29:21,15,0,23.387,5925.621803137,201.115492,0.3131716,0.86005908264,0,0,-0.671082,63.4, 0.8, -3.1,0,0,1024,1024,1024,1024,64,-89.9,88,3.866,3.899,3.91,3.93,0,0,19.304,78.8,14,Waypoint,
36.7673123,-118.8834245,5926.606055137,202.099744,0,0.45186353152,26100,2018-04-14 19:29:21,15,0,23.387,5926.606055137,202.099744,0.3131716,0.86005908264,0,0,-0.671082,63.4, 0.7, -3.2,0,0,1024,1024,1024,1024,64,-89.9,88,3.866,3.899,3.91,3.93,0,0,19.304,78.8,14,Waypoint,
36.7673123,-118.8834245,5927.590307137,203.083996,0,0.45186353152,26200,2018-04-14 19:29:21,15,0,23.387,5927.590307137,203.083996,0.3131716,0.86005908264,0,0,-0.671082,63.3, 0.7, -3.1,0,0,1024,1024,1024,1024,64,-89.9,88,3.866,3.899,3.91,3.93,0,0,19.304,78.8,14,Waypoint,
36.7673123,-118.8834245,5928.574559137,204.068248,0,0.45186353152,26300,2018-04-14 19:29:21,15,0,23.387,5928.574559137,204.068248,0.3131716,0.86005908264,0,0,-0.671082,63.1, 0.8, -2.8,0,0,1024,1024,1024,1024,64,-89.9,88,3.866,3.899,3.91,3.93,0,0,19.304,78.8,14,Waypoint,
36.7673124,-118.8834244,5930.543063137,206.036752,0,0.4732939784,26410,2018-04-14 19:29:21,15,0,23.387,5930.543063137,206.036752,0.3131716,0.86005908264,0,0,-0.671082,62.8, 1.2, -2.6,0,0,1024,1024,1024,1024,64,-89.9,88,3.866,3.899,3.91,3.93,0,0,19.304,78.8,14,Waypoint,
36.7673124,-118.8834244,5931.527315137,207.021004,0,0.4732939784,26700,2018-04-14 19:29:22,15,0,23.387,5931.527315137,207.021004,0.3131716,0.86005908264,0,0,-0.671082,62.8, 1.3, -2.6,0,0,1024,1024,1024,1024,64,-89.9,88,3.866,3.899,3.91,3.93,0,0,19.304,78.8,14,Waypoint,
36.7673124,-118.8834243,5933.823903137,209.317592,0,0.50219161712,27000,2018-04-14 19:29:22,15,0,23.425,5933.823903137,209.317592,0.3131716,0.86005908264,0,0,-0.671082,62.9, 1.4, -2.7,0,0,1024,1024,1024,1024,64,-89.9,88,3.866,3.899,3.91,3.93,0,0,17.993,78.8,14,Waypoint,
36.7673123,-118.8834242,5935.792407137,211.286096,0,0.5373523794,27200,2018-04-14 19:29:22,15,0,23.425,5935.792407137,211.286096,0.3131716,0.86005908264,0,0,-0.671082,63.1, 1.2, -3.3,0,0,1024,1024,1024,1024,64,-89.9,88,3.866,3.899,3.91,3.93,0,0,17.993,78.8,14,Waypoint,
36.7673123,-118.8834241,5938.088995137,213.582684,0,0.56600067428,27330,2018-04-14 19:29:22,15,0,23.425,5938.088995137,213.582684,0.3131716,0.86005908264,0,0,-0.671082,63.1, 1.1, -3.8,0,0,1024,1024,1024,1024,64,-89.9,88,3.866,3.899,3.91,3.93,0,0,17.993,78.8,14,Waypoint,
36.7673123,-118.8834241,5938.088995137,213.582684,0,0.56600067428,27400,2018-04-14 19:29:22,15,0,23.425,5938.088995137,213.582684,0.3131716,0.86005908264,0,0,-0.671082,63.1, 1.1, -3.8,0,0,1024,1024,1024,1024,64,-89.9,88,3.866,3.899,3.91,3.93,0,0,17.993,78.8,14,Waypoint,
36.7673122,-118.8834241,5940.057499137,215.551188,0,0.57417324672,27500,2018-04-14 19:29:22,15,0,23.425,5940.057499137,215.551188,0.3131716,0.86005908264,0,0,-0.671082,63.1, 1.1, -3.9,0,0,1024,1024,1024,1024,64,-89.9,88,3.866,3.899,3.91,3.93,0,0,17.993,78.8,14,Waypoint,
36.7673121,-118.8834241,5942.026003137,217.519692,0,0.58451117356,27700,2018-04-14 19:29:23,15,0,23.425,5942.026003137,217.519692,0.3131716,0.86005908264,0,0,-0.671082,63, 1, -4.1,0,0,1024,1024,1024,1024,64,-89.9,88,3.866,3.899,3.91,3.93,0,0,17.993,78.8,14,Waypoint,
36.767312,-118.8834241,5943.994507137,219.488196,0,0.59690618708,27800,2018-04-14 19:29:23,15,0,23.425,5943.994507137,219.488196,0.3131716,0.86005908264,0,0,-0.671082,63, 0.6, -4,0,0,1024,1024,1024,1024,64,-89.9,88,3.866,3.899,3.91,3.93,0,0,17.993,78.8,14,Waypoint,
36.767312,-118.8834242,5944.978759137,220.472448,0,0.5698162912,27900,2018-04-14 19:29:23,15,0,23.425,5944.978759137,220.472448,0.3131716,0.86005908264,0,0,-0.671082,63.1, 0.3, -3.6,0,0,1024,1024,1024,1024,64,-90,88,3.866,3.899,3.91,3.93,0,0,17.993,78.8,14,Waypoint,
36.767312,-118.8834242,5945.963011137,221.4567,0,0.5698162912,28000,2018-04-14 19:29:23,15,0,23.468,5945.963011137,221.4567,0.3131716,0.86005908264,0,0,-0.671082,63.1, 0.3, -3.6,0,0,1024,1024,1024,1024,64,-90,87,3.876,3.922,3.915,3.94,0,0,17.539,78.8,14,Waypoint,
36.767312,-118.8834243,5946.947263137,222.440952,0,0.5429462116,28100,2018-04-14 19:29:23,15,0,23.468,5946.947263137,222.440952,0.3131716,0.86005908264,0,0,-0.671082,63.1, 0.3, -3.7,0,0,1024,1024,1024,1024,64,-90,87,3.876,3.922,3.915,3.94,0,0,17.539,78.8,14,Waypoint,
36.7673121,-118.8834244,5948.915767137,224.409456,0,0.50195539664,28300,2018-04-14 19:29:23,15,0,23.468,5948.915767137,224.409456,0.3131716,0.86005908264,0,0,-0.671082,63.2, 0.5, -3.4,0,0,1024,1024,1024,1024,64,-89.9,87,3.876,3.922,3.915,3.94,0,0,17.539,78.8,14,Waypoint,
36.7673121,-118.8834244,5949.571935137,225.065624,0,0.50195539664,28400,2018-04-14 19:29:23,15,0,23.468,5949.571935137,225.065624,0.3131716,0.86005908264,0,0,-0.671082,63.2, 0.6, -3.3,0,0,1024,1024,1024,1024,64,-89.9,87,3.876,3.922,3.915,3.94,0,0,17.539,78.8,14,Waypoint,
36.7673121,-118.8834244,5950.556187137,226.049876,0,0.50195539664,28500,2018-04-14 19:29:23,15,0,23.468,5950.556187137,226.049876,0.3131716,0.86005908264,0,0,-0.671082,63.1, 0.6, -3.1,0,0,1024,1024,1024,1024,64,-89.9,87,3.876,3.922,3.915,3.94,0,0,17.539,78.8,14,Waypoint,
36.7673122,-118.8834245,5951.540439137,227.034128,0,0.46206038224,28600,2018-04-14 19:29:23,15,0,23.468,5951.540439137,227.034128,0.3131716,0.86005908264,0,0,-0.671082,63, 0.5, -2.9,0,0,1024,1024,1024,1024,64,-89.9,87,3.876,3.922,3.915,3.94,0,0,17.539,78.8,14,Waypoint,
36.7673122,-118.8834245,5952.524691137,228.01838,0,0.46206038224,28700,2018-04-14 19:29:24,15,0,23.468,5952.524691137,228.01838,0.3131716,0.86005908264,0,0,-0.671082,62.9, 0.4, -2.8,0,0,1024,1024,1024,1024,64,-89.9,87,3.876,3.922,3.915,3.94,0,0,17.539,78.8,14,Waypoint,
36.7673122,-118.8834246,5953.508943137,229.002632,0,0.43442586692,28800,2018-04-14 19:29:24,15,0,23.468,5953.508943137,229.002632,0.3131716,0.86005908264,0,0,-0.671082,62.8, 0.4, -3,0,0,1024,1024,1024,1024,64,-89.9,87,3.876,3.922,3.915,3.94,0,0,17.539,78.8,14,Waypoint,
36.7673122,-118.8834246,5954.493195137,229.986884,0,0.43442586692,28900,2018-04-14 19:29:24,15,0,23.468,5954.493195137,229.986884,0.3131716,0.86005908264,0,0,-0.671082,62.8, 0.5, -3.2,0,0,1024,1024,1024,1024,64,-89.9,87,3.876,3.922,3.915,3.94,0,0,17.539,78.8,14,Waypoint,
