Latitude, Longitude, Altitude (m), Time, Sats, Speed (m/s), Range (m), Battery (%), Roll (deg), Pitch (deg), Yaw (deg), Images, HD Signal (%), RC Signal (%), Battery Temp (C), Battery Voltage (mV), Battery Current (mA), Battery Energy (mAh), Battery Capacity (mAh), Battery Discharges, flyState, timestamp (Unix), LastUpdate (ms), radioChannel, Rc_elevator, Rc_aileron, Rc_throttle, Rc_rudder, Rc_gyro, Dronetype, Battery_Cell1 (mV), Battery_Cell2 (mV), Battery_Cell3 (mV), Battery_Cell4 (mV), Battery_Cell5 (mV), Battery_Cell6 (mV), Video, isFlying, elapsedTime (ms), gimbalPitch (deg), gimbalRoll (deg), gimbalYaw (deg), VelocityX (m/s), VelocityY (m/s), VelocityZ (m/s), GroundSmear (cm), App Version, Aircraft Name, Aircraft Firmware, Aircraft Serial Number, Battery Serial Number, Battery Lifetime (%), App_Tip, App_Warning, CurrentFlightStartingIndex, CurrentFlightLastVisitedWaypoint, PreviousFlightEndingWaypointIndex
36.7673042, -118.8834154, 0.000, 13:43:32.262, 10, 0.20, 0.12, 98, -0.100, 2.300, 65.200, 841, 100, 100, 16, 25252, -3724, 5474, 5586, 6, 11, 1523738612.263, 67, 0, 1024, 1024, 1024, 1024, 0, 6, 4180, 4211, 4236, 4223, 4236, 4214, 0, 1, 3007, -90.000, 0.000, 66.100, 0.000, -0.200, 0.000, 0.1, MapPilot_2.7.4_02272018, Dendroctonus I, 1.3.1.00, 041DDC1887, 1058171200149, 99, DJI_0840.jpg, Starting Mission from Lat/Long: 36.76729/-118.88344 Camera: Zenmuse X3 - Overlap: 90/90 - Active Connection: Yes, 49, 49, 49
36.7673043, -118.8834156, 0.000, 13:43:32.357, 10, 0.20, 0.13, 98, 0.000, 1.000, 65.200, 841, 100, 100, 16, 25252, -3724, 5474, 5586, 6, 11, 1523738612.358, 65, 0, 1024, 1024, 1024, 1024, 0, 6, 4180, 4211, 4236, 4223, 4236, 4214, 0, 1, 3101, -90.000, 0.000, 66.100, 0.000, -0.200, -0.100, 0.1, , , , , , 99, , , 49, 49, 49
36.7673043, -118.8834159, 0.000, 13:43:32.456, 10, 0.20, 0.14, 98, 0.100, -0.300, 65.200, 841, 100, 100, 16, 25252, -3724, 5474, 5586, 6, 11, 1523738612.456, 63, 0, 1024, 1024, 1024, 1024, 0, 6, 4180, 4211, 4236, 4223, 4236, 4214, 0, 1, 3200, -90.000, 0.000, 66.100, 0.000, -0.200, -0.200, 0.1, , , , , , 99, , , 49, 49, 49
36.7673043, -118.8834161, 0.000, 13:43:32.557, 10, 0.20, 0.16, 98, 0.100, -0.800, 65.100, 841, 100, 100, 16, 25252, -3724, 5474, 5586, 6, 11, 1523738612.558, 58, 0, 1024, 1024, 1024, 1024, 0, 6, 4180, 4211, 4236, 4223, 4236, 4214, 0, 1, 3301, -89.900, 0.000, 66.100, 0.000, -0.200, -0.200, 0.1, , , , , , 99, , , 49, 49, 49
36.7673043, -118.8834163, 0.000, 13:43:32.657, 10, 0.20, 0.17, 98, 0.200, -1.200, 65.000, 841, 100, 100, 16, 25252, -3724, 5474, 5586, 6, 11, 1523738612.658, 55, 0, 1024, 1024, 1024, 1024, 0, 6, 4180, 4211, 4236, 4223, 4236, 4214, 0, 1, 3401, -90.000, 0.000, 66.100, 0.000, -0.200, -0.300, 0.1, , , , , , 99, , , 49, 49, 49
36.7673044, -118.8834165, 0.100, 13:43:32.757, 10, 0.10, 0.19, 98, 0.600, -1.400, 65.100, 841, 100, 100, 16, 24742, -6357, 5474, 5586, 6, 11, 1523738612.758, 31, 0, 1024, 1024, 1024, 1024, 0, 6, 4123, 4114, 4107, 4150, 4100, 4042, 0, 1, 3501, -89.900, 0.000, 66.100, 0.000, -0.100, -0.400, 0.0, , , , , , 99, , , 49, 49, 49
36.7673045, -118.8834166, 0.100, 13:43:32.857, 11, 0.10, 0.21, 98, 1.000, -1.400, 65.200, 841, 100, 100, 16, 24742, -6357, 5474, 5586, 6, 11, 1523738612.858, 35, 0, 1024, 1024, 1024, 1024, 0, 6, 4123, 4114, 4107, 4150, 4100, 4042, 0, 1, 3602, -89.900, 0.000, 66.100, 0.000, -0.100, -0.400, 0.0, , , , , , 99, , , 49, 49, 49
36.7673046, -118.8834166, 0.200, 13:43:32.956, 11, 0.00, 0.22, 98, 0.800, -1.000, 65.400, 841, 100, 100, 16, 24742, -6357, 5474, 5586, 6, 11, 1523738612.957, 40, 0, 1024, 1024, 1024, 1024, 0, 6, 4123, 4114, 4107, 4150, 4100, 4042, 0, 1, 3701, -89.900, 0.000, 66.100, 0.000, 0.000, -0.400, 0.0, , , , , , 99, , , 49, 49, 49
36.7673047, -118.8834168, 0.200, 13:43:33.057, 10, 0.00, 0.23, 98, 0.700, -0.700, 65.500, 841, 100, 100, 16, 24742, -6357, 5474, 5586, 6, 11, 1523738613.058, 44, 0, 1024, 1024, 1024, 1024, 0, 6, 4123, 4114, 4107, 4150, 4100, 4042, 0, 1, 3801, -89.900, 0.000, 66.100, 0.000, 0.000, -0.400, 0.0, , , , , , 99, , , 49, 49, 49
36.7673048, -118.8834169, 0.300, 13:43:33.156, 10, 0.00, 0.25, 98, 0.800, -0.500, 65.400, 841, 100, 100, 16, 24742, -6357, 5474, 5586, 6, 11, 1523738613.156, 7, 0, 1024, 1024, 1024, 1024, 0, 6, 4123, 4114, 4107, 4150, 4100, 4042, 0, 1, 3900, -89.900, 0.000, 66.100, 0.000, 0.000, -0.400, 0.0, , , , , , 99, , , 49, 49, 49
36.7673050, -118.8834170, 0.400, 13:43:33.255, 11, 0.00, 0.27, 98, 1.000, -0.300, 65.400, 841, 100, 100, 16, 24742, -6357, 5474, 5586, 6, 11, 1523738613.256, 9, 0, 1024, 1024, 1024, 1024, 0, 6, 4123, 4114, 4107, 4150, 4100, 4042, 0, 1, 3999, -89.900, 0.000, 66.100, 0.000, 0.000, -0.400, 0.0, , , , , , 99, , , 49, 49, 49
36.7673051, -118.8834171, 0.400, 13:43:33.356, 11, 0.00, 0.28, 98, 1.100, 0.000, 65.400, 841, 100, 100, 16, 24742, -6357, 5474, 5586, 6, 11, 1523738613.357, 15, 0, 1024, 1024, 1024, 1024, 0, 6, 4123, 4114, 4107, 4150, 4100, 4042, 0, 1, 4100, -89.900, 0.000, 66.100, 0.000, 0.000, -0.400, 0.0, , , , , , 99, , , 49, 49, 49
36.7673051, -118.8834170, 0.500, 13:43:33.456, 11, 0.00, 0.28, 98, 1.200, 0.200, 65.500, 841, 100, 100, 16, 24742, -6357, 5474, 5586, 6, 11, 1523738613.456, 14, 0, 1024, 1024, 1024, 1024, 0, 6, 4123, 4114, 4107, 4150, 4100, 4042, 0, 1, 4200, -89.900, 0.000, 66.100, 0.000, 0.000, -0.400, 0.0, , , , , , 99, , , 49, 49, 49
36.7673051, -118.8834170, 0.500, 13:43:33.559, 11, 0.00, 0.27, 98, 1.200, 0.400, 65.500, 841, 100, 100, 16, 24742, -6357, 5474, 5586, 6, 11, 1523738613.559, 10, 0, 1024, 1024, 1024, 1024, 0, 6, 4123, 4114, 4107, 4150, 4100, 4042, 0, 1, 4303, -89.900, 0.000, 66.100, 0.000, 0.000, -0.400, 0.0, , , , , , 99, , , 49, 49, 49
36.7673051, -118.8834169, 0.600, 13:43:33.658, 11, 0.00, 0.27, 98, 0.700, 0.500, 65.500, 841, 100, 100, 16, 24742, -6357, 5474, 5586, 6, 11, 1523738613.659, 10, 0, 1024, 1024, 1024, 1024, 0, 6, 4123, 4114, 4107, 4150, 4100, 4042, 0, 1, 4403, -89.900, 0.000, 66.100, 0.000, 0.000, -0.400, 0.0, , , , , , 99, , , 49, 49, 49
36.7673052, -118.8834169, 0.600, 13:43:33.756, 11, 0.00, 0.27, 98, 0.500, 0.500, 65.500, 841, 100, 100, 16, 23679, -16386, 5474, 5586, 6, 11, 1523738613.756, 13, 0, 1024, 1024, 1024, 1024, 0, 6, 4123, 4114, 4107, 4150, 4100, 4042, 0, 1, 4500, -89.900, 0.000, 66.100, 0.000, 0.000, -0.400, 0.0, , , , , , 99, , , 49, 49, 49
36.7673052, -118.8834169, 0.600, 13:43:33.856, 11, 0.00, 0.27, 98, 0.500, 0.500, 65.500, 841, 100, 100, 16, 23679, -16386, 5474, 5586, 6, 11, 1523738613.857, 113, 0, 1024, 1024, 1024, 1024, 0, 6, 4123, 4114, 4107, 4150, 4100, 4042, 0, 1, 4600, -89.900, 0.000, 66.100, 0.000, 0.000, -0.400, 0.0, , , , , , 99, , , 49, 49, 49
36.7673051, -118.8834168, 0.700, 13:43:33.956, 12, 0.00, 0.27, 98, 0.300, 0.700, 65.300, 841, 100, 100, 16, 23679, -16386, 5474, 5586, 6, 11, 1523738613.957, 81, 0, 1024, 1024, 1024, 1024, 0, 6, 3926, 3920, 3962, 3957, 3966, 3936, 0, 1, 4700, -89.900, 0.000, 66.100, 0.000, 0.000, -0.400, 0.0, , , , , , 99, , , 49, 49, 49
36.7673051, -118.8834166, 0.700, 13:43:34.056, 12, 0.00, 0.25, 98, 0.200, 0.700, 65.100, 841, 100, 100, 16, 23679, -16386, 5474, 5586, 6, 11, 1523738614.056, 94, 0, 1024, 1024, 1024, 1024, 0, 6, 3926, 3920, 3962, 3957, 3966, 3936, 0, 1, 4800, -89.900, 0.000, 66.100, 0.000, 0.000, -0.400, 0.0, , , , , , 99, , , 49, 49, 49
36.7673051, -118.8834166, 0.800, 13:43:34.156, 12, 0.00, 0.26, 98, 0.200, 0.600, 65.000, 841, 100, 100, 16, 23679, -16386, 5474, 5586, 6, 11, 1523738614.156, 81, 0, 1024, 1024, 1024, 1024, 0, 6, 3926, 3920, 3962, 3957, 3966, 3936, 0, 1, 4900, -89.900, 0.000, 66.100, 0.000, 0.000, -0.400, 0.0, , , , , , 99, , , 49, 49, 49
36.7673052, -118.8834166, 0.800, 13:43:34.256, 12, 0.00, 0.27, 98, 0.300, 0.600, 64.900, 841, 100, 100, 16, 23679, -16386, 5474, 5586, 6, 11, 1523738614.256, 94, 0, 1024, 1024, 1024, 1024, 0, 6, 3926, 3920, 3962, 3957, 3966, 3936, 0, 1, 5000, -89.900, 0.000, 66.100, 0.000, 0.000, -0.400, 0.0, , , , , , 99, , , 49, 49, 49
36.7673053, -118.8834165, 0.900, 13:43:34.356, 12, 0.00, 0.27, 98, 0.200, 0.400, 64.900, 841, 100, 100, 16, 23679, -16386, 5474, 5586, 6, 11, 1523738614.356, 93, 0, 1024, 1024, 1024, 1024, 0, 6, 3926, 3920, 3962, 3957, 3966, 3936, 0, 1, 5100, -89.900, 0.000, 66.100, 0.000, 0.000, -0.500, 0.0, , , , , , 99, , , 49, 49, 49
36.7673053, -118.8834164, 0.900, 13:43:34.454, 12, 0.00, 0.26, 98, 0.000, 0.500, 64.900, 841, 100, 100, 16, 23679, -16386, 5474, 5586, 6, 14, 1523738614.455, 96, 0, 1024, 1024, 1024, 1024, 0, 6, 3926, 3920, 3962, 3957, 3966, 3936, 0, 1, 5198, -89.900, 0.000, 66.100, 0.000, 0.000, -0.400, 0.0, , , , , , 99, , , 49, 49, 49
36.7673053, -118.8834163, 0.900, 13:43:34.555, 12, 0.10, 0.26, 98, -0.400, 0.700, 64.900, 841, 100, 100, 16, 23679, -16386, 5474, 5586, 6, 14, 1523738614.556, 60, 0, 1024, 1024, 1024, 1024, 0, 6, 3926, 3920, 3962, 3957, 3966, 3936, 0, 1, 5300, -89.900, 0.000, 66.100, 0.000, 0.100, -0.300, 0.1, , , , , , 99, , , 49, 49, 49
36.7673053, -118.8834162, 1.000, 13:43:34.655, 12, 0.00, 0.25, 98, -0.900, 1.000, 64.800, 841, 100, 100, 16, 23679, -16386, 5474, 5586, 6, 14, 1523738614.656, 65, 0, 1024, 1024, 1024, 1024, 0, 6, 3926, 3920, 3962, 3957, 3966, 3936, 0, 1, 5399, -89.900, 0.000, 66.100, 0.000, 0.000, -0.300, 0.0, , , , , , 99, , , 49, 49, 49
36.7673052, -118.8834159, 1.100, 13:43:34.755, 13, 0.00, 0.23, 98, -0.700, 1.500, 65.000, 841, 100, 100, 16, 23679, -16386, 5474, 5586, 6, 14, 1523738614.756, 45, 0, 1024, 1024, 1024, 1024, 0, 6, 3926, 3920, 3962, 3957, 3966, 3936, 0, 1, 5500, -89.900, 0.000, 66.000, 0.000, 0.000, -0.300, 0.0, , , , , , 99, , , 49, 49, 49
36.7673051, -118.8834159, 1.100, 13:43:34.855, 13, 0.00, 0.23, 98, -0.500, 1.600, 65.100, 841, 100, 100, 16, 23473, -16761, 5474, 5586, 6, 14, 1523738614.856, 60, 0, 1024, 1024, 1024, 1024, 0, 6, 3926, 3920, 3962, 3957, 3966, 3936, 0, 1, 5599, -89.900, 0.000, 66.000, 0.000, 0.000, -0.500, 0.0, , , , , , 99, , , 49, 49, 49
36.7673051, -118.8834158, 1.200, 13:43:34.955, 13, 0.00, 0.22, 98, -0.600, 1.400, 65.100, 841, 100, 100, 16, 23473, -16761, 5474, 5586, 6, 14, 1523738614.956, 62, 0, 1024, 1024, 1024, 1024, 0, 6, 3926, 3920, 3962, 3957, 3966, 3936, 0, 1, 5699, -89.900, 0.000, 66.000, 0.000, 0.000, -0.600, 0.0, , , , , , 99, , , 49, 49, 49
36.7673050, -118.8834157, 1.300, 13:43:35.054, 14, 0.00, 0.21, 98, -0.700, 1.000, 65.000, 841, 100, 100, 16, 23473, -16761, 5474, 5586, 6, 14, 1523738615.055, 53, 0, 1024, 1024, 1024, 1024, 0, 6, 3926, 3920, 3962, 3957, 3966, 3936, 0, 1, 5798, -89.900, 0.000, 66.000, 0.000, 0.000, -0.700, 0.0, , , , , , 99, , , 49, 49, 49
36.7673049, -118.8834156, 1.300, 13:43:35.154, 14, 0.00, 0.20, 98, -0.900, 0.800, 64.900, 841, 100, 100, 16, 23473, -16761, 5474, 5586, 6, 14, 1523738615.155, 30, 0, 1024, 1024, 1024, 1024, 0, 6, 3926, 3920, 3962, 3957, 3966, 3936, 0, 1, 5899, -89.900, 0.000, 66.000, 0.000, 0.000, -0.900, 0.0, , , , , , 99, , , 49, 49, 49
36.7673049, -118.8834156, 1.500, 13:43:35.255, 14, 0.00, 0.19, 98, -1.200, 0.800, 64.800, 841, 100, 100, 16, 23473, -16761, 5474, 5586, 6, 14, 1523738615.256, 33, 0, 1024, 1024, 1024, 1024, 0, 6, 3926, 3920, 3962, 3957, 3966, 3936, 0, 1, 5999, -89.900, 0.000, 66.000, 0.000, 0.000, -1.100, 0.0, , , , , , 99, , , 49, 49, 49
36.7673049, -118.8834155, 1.600, 13:43:35.355, 14, 0.00, 0.19, 98, -1.200, 0.900, 64.800, 841, 100, 100, 16, 23473, -16761, 5474, 5586, 6, 14, 1523738615.355, 30, 0, 1024, 1024, 1024, 1024, 0, 6, 3875, 3876, 3916, 3901, 3930, 3901, 0, 1, 6099, -89.900, 0.000, 66.000, 0.000, 0.000, -1.300, 0.0, , , , , , 99, , , 49, 49, 49
36.7673049, -118.8834153, 1.700, 13:43:35.454, 12, 0.00, 0.19, 98, -1.100, 1.100, 64.800, 841, 100, 100, 16, 23473, -16761, 5474, 5586, 6, 14, 1523738615.455, 14, 0, 1024, 1024, 1024, 1024, 0, 6, 3875, 3876, 3916, 3901, 3930, 3901, 0, 1, 6198, -89.900, 0.000, 65.900, 0.000, 0.000, -1.500, 0.0, , , , , , 99, , , 49, 49, 49
36.7673049, -118.8834152, 1.900, 13:43:35.554, 12, 0.00, 0.19, 98, -1.000, 1.400, 64.800, 841, 100, 100, 16, 23473, -16761, 5474, 5586, 6, 14, 1523738615.554, 15, 0, 1024, 1024, 1024, 1024, 0, 6, 3875, 3876, 3916, 3901, 3930, 3901, 0, 1, 6298, -89.900, 0.000, 65.900, 0.000, 0.000, -1.800, 0.0, , , , , , 99, , , 49, 49, 49
36.7673050, -118.8834150, 2.100, 13:43:35.655, 11, 0.00, 0.20, 98, -0.900, 1.500, 64.800, 841, 100, 100, 16, 23473, -16761, 5474, 5586, 6, 14, 1523738615.655, 24, 0, 1024, 1024, 1024, 1024, 0, 6, 3875, 3876, 3916, 3901, 3930, 3901, 0, 1, 6399, -89.900, 0.000, 65.900, 0.000, 0.000, -1.900, 0.0, , , , , , 99, , , 49, 49, 49
36.7673051, -118.8834148, 2.300, 13:43:35.754, 11, 0.00, 0.21, 98, -0.800, 1.600, 64.900, 841, 100, 100, 16, 23473, -16761, 5474, 5586, 6, 14, 1523738615.755, 12, 0, 1024, 1024, 1024, 1024, 0, 6, 3875, 3876, 3916, 3901, 3930, 3901, 0, 1, 6499, -89.900, 0.000, 65.900, 0.000, 0.000, -2.200, 0.0, , , , , , 99, , , 49, 49, 49
36.7673051, -118.8834147, 2.600, 13:43:35.854, 11, 0.00, 0.21, 98, -0.700, 1.700, 65.000, 841, 100, 100, 16, 23473, -16761, 5474, 5586, 6, 14, 1523738615.855, 15, 0, 1024, 1024, 1024, 1024, 0, 6, 3875, 3876, 3916, 3901, 3930, 3901, 0, 1, 6599, -89.900, 0.000, 65.900, 0.000, 0.000, -2.500, 0.0, , , , , , 99, , , 49, 49, 49
36.7673052, -118.8834147, 2.800, 13:43:35.954, 11, 0.00, 0.22, 98, -0.700, 1.500, 65.000, 841, 100, 100, 16, 23473, -16761, 5474, 5586, 6, 14, 1523738615.955, 13, 0, 1024, 1024, 1024, 1024, 0, 6, 3875, 3876, 3916, 3901, 3930, 3901, 0, 1, 6699, -89.900, 0.000, 65.900, 0.000, 0.000, -2.700, 0.0, , , , , , 99, , , 49, 49, 49
36.7673052, -118.8834147, 2.800, 13:43:36.054, 11, 0.00, 0.22, 98, -0.700, 1.500, 65.000, 841, 100, 100, 16, 23473, -16761, 5474, 5586, 6, 14, 1523738616.055, 113, 0, 1024, 1024, 1024, 1024, 0, 6, 3875, 3876, 3916, 3901, 3930, 3901, 0, 1, 6799, -89.900, 0.000, 65.900, 0.000, 0.000, -2.700, 0.0, , , , , , 99, , , 49, 49, 49
36.7673052, -118.8834146, 3.100, 13:43:36.154, 11, 0.00, 0.23, 98, -0.700, 1.300, 64.900, 841, 100, 100, 16, 23473, -16761, 5474, 5586, 6, 14, 1523738616.155, 83, 0, 1024, 1024, 1024, 1024, 0, 6, 3875, 3876, 3916, 3901, 3930, 3901, 0, 1, 6899, -89.900, 0.000, 65.900, 0.000, 0.000, -2.800, 0.0, , , , , , 99, , , 49, 49, 49
36.7673054, -118.8834144, 3.400, 13:43:36.254, 11, 0.00, 0.24, 98, -0.600, 1.400, 64.800, 841, 100, 100, 16, 23473, -16761, 5474, 5586, 6, 14, 1523738616.255, 85, 0, 1024, 1024, 1024, 1024, 0, 6, 3875, 3876, 3916, 3901, 3930, 3901, 0, 1, 6998, -89.900, 0.000, 65.900, 0.000, 0.000, -2.900, 0.0, , , , , , 99, , , 49, 49, 49
36.7673055, -118.8834144, 3.700, 13:43:36.354, 12, 0.00, 0.26, 98, -0.600, 1.700, 64.800, 841, 100, 100, 16, 23609, -16629, 5474, 5586, 6, 14, 1523738616.354, 86, 0, 1024, 1024, 1024, 1024, 0, 6, 3949, 3900, 3922, 3937, 3920, 3852, 0, 1, 7098, -89.900, 0.000, 65.900, 0.000, 0.000, -3.100, 0.0, , , , , , 99, , , 49, 49, 49
36.7673056, -118.8834144, 4.100, 13:43:36.454, 12, 0.00, 0.27, 98, -0.500, 1.800, 64.700, 841, 100, 100, 16, 23609, -16629, 5474, 5586, 6, 14, 1523738616.454, 86, 0, 1024, 1024, 1024, 1024, 0, 6, 3949, 3900, 3922, 3937, 3920, 3852, 0, 1, 7198, -89.900, 0.000, 65.900, 0.000, 0.000, -3.200, 0.0, , , , , , 99, , , 49, 49, 49
36.7673057, -118.8834143, 4.400, 13:43:36.554, 11, 0.00, 0.28, 98, -0.300, 1.800, 64.800, 841, 100, 100, 16, 23609, -16629, 5474, 5586, 6, 14, 1523738616.554, 76, 0, 1024, 1024, 1024, 1024, 0, 6, 3949, 3900, 3922, 3937, 3920, 3852, 0, 1, 7298, -89.900, 0.000, 65.900, 0.000, 0.000, -3.200, 0.0, , , , , , 99, , , 49, 49, 49
36.7673057, -118.8834143, 4.700, 13:43:36.653, 11, 0.00, 0.28, 98, -0.100, 1.900, 64.900, 841, 100, 100, 16, 23609, -16629, 5474, 5586, 6, 14, 1523738616.654, 75, 0, 1024, 1024, 1024, 1024, 0, 6, 3949, 3900, 3922, 3937, 3920, 3852, 0, 1, 7397, -89.900, 0.000, 65.900, 0.000, 0.000, -3.300, 0.0, , , , , , 99, , , 49, 49, 49
36.7673057, -118.8834142, 5.100, 13:43:36.754, 11, 0.00, 0.29, 98, 0.000, 2.000, 64.900, 841, 100, 100, 16, 23609, -16629, 5474, 5586, 6, 14, 1523738616.754, 96, 0, 1024, 1024, 1024, 1024, 0, 6, 3949, 3900, 3922, 3937, 3920, 3852, 0, 1, 7498, -89.900, 0.000, 65.900, 0.000, 0.000, -3.300, 0.0, , , , , , 99, , , 49, 49, 49
36.7673057, -118.8834142, 5.400, 13:43:36.854, 11, 0.00, 0.29, 98, -0.200, 2.000, 65.000, 841, 100, 100, 16, 23609, -16629, 5474, 5586, 6, 14, 1523738616.854, 56, 0, 1024, 1024, 1024, 1024, 0, 6, 3949, 3900, 3922, 3937, 3920, 3852, 0, 1, 7598, -89.900, 0.000, 65.900, 0.000, 0.000, -3.300, 0.0, , , , , , 99, , , 49, 49, 49
36.7673057, -118.8834141, 5.800, 13:43:36.954, 12, 0.00, 0.29, 98, -0.300, 2.000, 65.000, 841, 100, 100, 16, 23609, -16629, 5474, 5586, 6, 14, 1523738616.954, 64, 0, 1024, 1024, 1024, 1024, 0, 6, 3949, 3900, 3922, 3937, 3920, 3852, 0, 1, 7698, -89.900, 0.000, 65.900, 0.000, 0.000, -3.200, 0.0, , , , , , 99, , , 49, 49, 49
36.7673056, -118.8834141, 6.100, 13:43:37.053, 12, 0.00, 0.28, 98, -0.400, 2.000, 65.000, 841, 100, 100, 16, 23609, -16629, 5474, 5586, 6, 14, 1523738617.054, 54, 0, 1024, 1024, 1024, 1024, 0, 6, 3949, 3900, 3922, 3937, 3920, 3852, 0, 1, 7798, -89.900, 0.000, 65.900, 0.000, 0.000, -3.200, 0.0, , , , , , 99, , , 49, 49, 49
36.7673054, -118.8834142, 6.800, 13:43:37.154, 12, 0.00, 0.26, 98, -0.800, 1.600, 65.000, 841, 100, 100, 16, 23609, -16629, 5474, 5586, 6, 14, 1523738617.154, 37, 0, 1024, 1024, 1024, 1024, 0, 6, 3949, 3900, 3922, 3937, 3920, 3852, 0, 1, 7898, -89.900, 0.000, 65.900, 0.000, 0.000, -3.200, 0.0, , , , , , 99, , , 49, 49, 49
36.7673054, -118.8834143, 7.100, 13:43:37.253, 11, 0.00, 0.25, 98, -1.000, 1.100, 65.000, 841, 100, 100, 16, 23609, -16629, 5474, 5586, 6, 14, 1523738617.254, 55, 0, 1024, 1024, 1024, 1024, 0, 6, 3949, 3900, 3922, 3937, 3920, 3852, 0, 1, 7998, -89.900, 0.000, 65.900, 0.000, 0.000, -3.200, 0.0, , , , , , 99, , , 49, 49, 49
36.7673054, -118.8834143, 7.500, 13:43:37.353, 11, 0.00, 0.25, 98, -1.200, 0.800, 64.900, 841, 100, 100, 16, 22743, -23055, 5474, 5586, 6, 14, 1523738617.354, 59, 0, 1024, 1024, 1024, 1024, 0, 6, 3949, 3900, 3922, 3937, 3920, 3852, 0, 1, 8098, -90.000, 0.000, 65.900, 0.000, 0.000, -3.200, 0.0, , , , , , 99, , , 49, 49, 49
36.7673054, -118.8834143, 7.500, 13:43:37.453, 11, 0.00, 0.25, 98, -1.200, 0.800, 64.900, 841, 100, 100, 16, 22743, -23055, 5474, 5586, 6, 14, 1523738617.453, 158, 0, 1024, 1024, 1024, 1024, 0, 6, 3768, 3763, 3785, 3786, 3790, 3764, 0, 1, 8197, -89.900, 0.000, 65.900, 0.000, 0.000, -3.200, 0.0, , , , , , 99, , , 49, 49, 49
36.7673052, -118.8834144, 8.100, 13:43:37.553, 12, 0.00, 0.23, 98, -1.300, 0.700, 64.700, 841, 100, 100, 16, 22743, -23055, 5474, 5586, 6, 14, 1523738617.554, 31, 0, 1024, 1024, 1024, 1024, 0, 6, 3768, 3763, 3785, 3786, 3790, 3764, 0, 1, 8297, -90.000, 0.000, 65.900, 0.000, 0.000, -3.100, 0.0, , , , , , 99, , , 49, 49, 49
36.7673051, -118.8834144, 8.500, 13:43:37.653, 13, 0.00, 0.21, 98, -1.400, 0.600, 64.700, 841, 100, 100, 16, 22743, -23055, 5474, 5586, 6, 14, 1523738617.657, 63, 0, 1024, 1024, 1024, 1024, 0, 6, 3768, 3763, 3785, 3786, 3790, 3764, 0, 1, 8401, -89.900, 0.000, 65.900, 0.000, 0.000, -3.100, 0.0, , , , , , 99, , , 49, 49, 49
36.7673050, -118.8834145, 8.800, 13:43:37.776, 13, 0.00, 0.20, 98, -1.600, 0.400, 64.600, 841, 100, 100, 16, 22743, -23055, 5474, 5586, 6, 14, 1523738617.776, 17, 0, 1024, 1024, 1024, 1024, 0, 6, 3768, 3763, 3785, 3786, 3790, 3764, 0, 1, 8520, -89.900, 0.000, 65.900, 0.000, 0.000, -3.100, 0.0, , , , , , 99, , , 49, 49, 49
36.7673049, -118.8834144, 9.200, 13:43:37.853, 14, 0.00, 0.19, 98, -2.000, 0.300, 64.600, 841, 100, 100, 16, 22743, -23055, 5474, 5586, 6, 14, 1523738617.854, 41, 0, 1024, 1024, 1024, 1024, 0, 6, 3768, 3763, 3785, 3786, 3790, 3764, 0, 1, 8598, -89.900, 0.000, 65.900, 0.000, 0.000, -3.100, 0.0, , , , , , 99, , , 49, 49, 49
36.7673048, -118.8834143, 9.500, 13:43:37.953, 14, 0.00, 0.18, 98, -2.200, 0.400, 64.700, 841, 100, 100, 16, 22743, -23055, 5474, 5586, 6, 14, 1523738617.956, 24, 0, 1024, 1024, 1024, 1024, 0, 6, 3768, 3763, 3785, 3786, 3790, 3764, 0, 1, 8700, -89.900, 0.000, 65.900, 0.000, 0.000, -3.000, 0.0, , , , , , 99, , , 49, 49, 49
36.7673046, -118.8834144, 9.800, 13:43:38.058, 15, 0.00, 0.17, 98, -2.100, 0.700, 64.700, 841, 100, 100, 16, 22743, -23055, 5474, 5586, 6, 14, 1523738618.060, 32, 0, 1024, 1024, 1024, 1024, 0, 6, 3768, 3763, 3785, 3786, 3790, 3764, 0, 1, 8804, -89.900, 0.000, 65.900, 0.000, 0.000, -3.000, 0.0, , , , , , 99, , , 49, 49, 49
36.7673045, -118.8834145, 10.100, 13:43:38.169, 15, 0.00, 0.15, 98, -2.000, 0.600, 64.700, 841, 100, 100, 16, 22743, -23055, 5474, 5586, 6, 14, 1523738618.172, 14, 0, 1024, 1024, 1024, 1024, 0, 6, 3768, 3763, 3785, 3786, 3790, 3764, 0, 1, 8915, -89.900, 0.000, 65.900, 0.000, 0.000, -3.000, 0.0, , , , , , 99, , , 49, 49, 49
36.7673043, -118.8834146, 10.500, 13:43:38.255, 14, 0.00, 0.13, 98, -2.100, 0.300, 64.700, 841, 100, 100, 16, 22958, -19412, 5418, 5586, 6, 14, 1523738618.256, 13, 0, 1024, 1024, 1024, 1024, 0, 6, 3768, 3763, 3785, 3786, 3790, 3764, 0, 1, 9000, -89.900, 0.000, 65.900, 0.000, 0.000, -3.100, 0.0, , , , , , 99, , , 49, 49, 49
36.7673043, -118.8834146, 10.500, 13:43:38.354, 14, 0.00, 0.13, 98, -2.100, 0.300, 64.700, 841, 100, 100, 16, 22958, -19412, 5418, 5586, 6, 14, 1523738618.354, 111, 0, 1024, 1024, 1024, 1024, 0, 6, 3768, 3763, 3785, 3786, 3790, 3764, 0, 1, 9098, -89.900, 0.000, 65.900, 0.000, 0.000, -3.100, 0.0, , , , , , 99, , , 49, 49, 49
36.7673041, -118.8834147, 10.800, 13:43:38.455, 14, 0.00, 0.11, 98, -2.400, 0.000, 64.700, 841, 100, 100, 16, 22958, -19412, 5418, 5586, 6, 14, 1523738618.456, 27, 0, 1024, 1024, 1024, 1024, 0, 6, 3803, 3802, 3856, 3838, 3868, 3809, 0, 1, 9200, -89.900, 0.000, 65.900, 0.000, 0.000, -3.000, 0.0, , , , , , 99, , , 49, 49, 49
36.7673041, -118.8834148, 11.100, 13:43:38.554, 13, 0.00, 0.10, 98, -2.500, 0.000, 64.600, 841, 100, 100, 16, 22958, -19412, 5418, 5586, 6, 14, 1523738618.555, 11, 0, 1024, 1024, 1024, 1024, 0, 6, 3803, 3802, 3856, 3838, 3868, 3809, 0, 1, 9299, -89.900, 0.000, 65.900, 0.000, 0.000, -2.800, 0.0, , , , , , 99, , , 49, 49, 49
36.7673041, -118.8834149, 11.400, 13:43:38.665, 13, 0.00, 0.09, 98, -2.500, 0.100, 64.500, 841, 100, 100, 16, 22958, -19412, 5418, 5586, 6, 14, 1523738618.666, 5, 0, 1024, 1024, 1024, 1024, 0, 6, 3803, 3802, 3856, 3838, 3868, 3809, 0, 1, 9410, -89.900, 0.000, 65.900, 0.000, 0.000, -2.900, 0.0, , , , , , 99, , , 49, 49, 49
36.7673040, -118.8834149, 11.700, 13:43:38.753, 14, 0.00, 0.09, 98, -2.400, 0.300, 64.500, 841, 100, 100, 16, 22958, -19412, 5418, 5586, 6, 14, 1523738618.753, 28, 0, 1024, 1024, 1024, 1024, 0, 6, 3803, 3802, 3856, 3838, 3868, 3809, 0, 1, 9497, -89.900, 0.000, 65.900, 0.000, 0.000, -2.900, 0.0, , , , , , 99, , , 49, 49, 49
36.7673040, -118.8834149, 11.700, 13:43:38.853, 14, 0.00, 0.09, 98, -2.400, 0.300, 64.500, 841, 100, 100, 16, 22958, -19412, 5418, 5586, 6, 14, 1523738618.853, 128, 0, 1024, 1024, 1024, 1024, 0, 6, 3803, 3802, 3856, 3838, 3868, 3809, 0, 1, 9597, -89.900, 0.000, 65.900, 0.000, 0.000, -2.900, 0.0, , , , , , 99, , , 49, 49, 49
36.7673040, -118.8834149, 12.000, 13:43:38.953, 14, 0.00, 0.09, 97, -2.200, 0.400, 64.600, 841, 100, 100, 16, 22958, -19412, 5418, 5586, 6, 14, 1523738618.953, 45, 0, 1024, 1024, 1024, 1024, 0, 6, 3803, 3802, 3856, 3838, 3868, 3809, 0, 1, 9697, -89.900, 0.000, 65.900, 0.000, 0.000, -2.900, 0.0, , , , , , 99, , , 49, 49, 49
36.7673040, -118.8834149, 12.000, 13:43:39.055, 14, 0.00, 0.09, 97, -2.200, 0.400, 64.600, 841, 100, 100, 16, 22958, -19412, 5418, 5586, 6, 14, 1523738619.057, 149, 0, 1024, 1024, 1024, 1024, 0, 6, 3803, 3802, 3856, 3838, 3868, 3809, 0, 1, 9801, -89.900, 0.000, 65.900, 0.000, 0.000, -2.900, 0.0, , , , , , 99, , , 49, 49, 49
36.7673040, -118.8834149, 12.300, 13:43:39.155, 14, 0.00, 0.09, 97, -1.800, 0.900, 64.800, 841, 100, 100, 16, 22958, -19412, 5418, 5586, 6, 14, 1523738619.156, 38, 0, 1024, 1024, 1024, 1024, 0, 6, 3803, 3802, 3856, 3838, 3868, 3809, 0, 1, 9900, -89.900, 0.000, 65.900, 0.000, 0.000, -2.900, 0.0, , , , , , 99, , , 49, 49, 49
36.7673040, -118.8834149, 12.600, 13:43:39.252, 14, 0.00, 0.09, 97, -1.500, 1.200, 64.900, 841, 100, 100, 16, 22958, -19412, 5418, 5586, 6, 14, 1523738619.253, 63, 0, 1024, 1024, 1024, 1024, 0, 6, 3803, 3802, 3856, 3838, 3868, 3809, 0, 1, 9997, -89.900, 0.000, 65.900, 0.000, 0.000, -2.900, 0.0, , , , , , 99, , , 49, 49, 49
36.7673040, -118.8834150, 12.900, 13:43:39.352, 15, 0.00, 0.09, 97, -1.500, 1.200, 65.100, 841, 100, 100, 16, 22958, -19412, 5418, 5586, 6, 14, 1523738619.354, 65, 0, 1024, 1024, 1024, 1024, 0, 6, 3803, 3802, 3856, 3838, 3868, 3809, 0, 1, 10098, -89.900, 0.000, 65.900, 0.000, 0.000, -2.900, 0.0, , , , , , 99, , , 49, 49, 49
36.7673041, -118.8834151, 13.200, 13:43:39.452, 15, 0.00, 0.10, 97, -1.500, 0.900, 65.100, 841, 100, 97, 16, 22958, -19412, 5418, 5586, 6, 14, 1523738619.453, 90, 0, 1024, 1024, 1024, 1024, 0, 6, 3803, 3802, 3856, 3838, 3868, 3809, 0, 1, 10196, -89.900, 0.000, 65.900, 0.000, 0.000, -3.000, 0.0, , , , , , 99, , , 49, 49, 49
36.7673041, -118.8834151, 13.800, 13:43:39.552, 15, 0.00, 0.10, 97, -1.400, 0.900, 64.900, 841, 100, 97, 16, 22958, -19412, 5418, 5586, 6, 14, 1523738619.553, 89, 0, 1024, 1024, 1024, 1024, 0, 6, 3803, 3802, 3856, 3838, 3868, 3809, 0, 1, 10297, -89.900, 0.000, 65.900, 0.000, 0.000, -2.800, 0.0, , , , , , 99, , , 49, 49, 49
36.7673041, -118.8834152, 14.700, 13:43:39.652, 16, 0.00, 0.10, 97, -1.600, 1.200, 65.100, 841, 100, 97, 16, 22958, -19412, 5418, 5586, 6, 14, 1523738619.653, 15, 0, 1024, 1024, 1024, 1024, 0, 6, 3803, 3802, 3856, 3838, 3868, 3809, 0, 1, 10396, -89.900, 0.000, 65.900, 0.000, 0.000, -2.800, 0.0, , , , , , 99, , , 49, 49, 49
36.7673042, -118.8834153, 15.000, 13:43:39.752, 16, 0.00, 0.11, 97, -1.600, 0.800, 65.200, 841, 100, 97, 16, 23019, -18773, 5418, 5586, 6, 14, 1523738619.753, 33, 0, 1024, 1024, 1024, 1024, 0, 6, 3815, 3801, 3858, 3841, 3864, 3838, 0, 1, 10496, -89.900, 0.000, 65.900, 0.000, 0.000, -2.800, 0.0, , , , , , 99, , , 49, 49, 49
36.7673042, -118.8834153, 15.200, 13:43:39.852, 16, 0.00, 0.12, 97, -1.300, 0.700, 65.200, 841, 100, 97, 16, 23019, -18773, 5418, 5586, 6, 14, 1523738619.853, 34, 0, 1024, 1024, 1024, 1024, 0, 6, 3815, 3801, 3858, 3841, 3864, 3838, 0, 1, 10596, -89.900, 0.000, 65.900, 0.000, 0.000, -2.800, 0.0, , , , , , 99, , , 49, 49, 49
36.7673043, -118.8834153, 15.500, 13:43:39.952, 16, 0.00, 0.12, 97, -1.000, 0.700, 65.100, 841, 100, 97, 16, 23019, -18773, 5418, 5586, 6, 14, 1523738619.953, 45, 0, 1024, 1024, 1024, 1024, 0, 6, 3815, 3801, 3858, 3841, 3864, 3838, 0, 1, 10697, -89.900, 0.000, 65.900, 0.000, 0.000, -2.800, 0.0, , , , , , 99, , , 49, 49, 49
36.7673043, -118.8834153, 15.800, 13:43:40.052, 16, 0.00, 0.12, 97, -0.800, 0.800, 65.000, 841, 100, 97, 16, 23019, -18773, 5418, 5586, 6, 14, 1523738620.053, 46, 0, 1024, 1024, 1024, 1024, 0, 6, 3815, 3801, 3858, 3841, 3864, 3838, 0, 1, 10797, -89.900, 0.000, 65.900, 0.000, 0.000, -2.900, 0.0, , , , , , 99, , , 49, 49, 49
36.7673043, -118.8834154, 16.100, 13:43:40.152, 16, 0.00, 0.13, 97, -0.500, 0.700, 65.000, 841, 100, 97, 16, 23019, -18773, 5418, 5586, 6, 14, 1523738620.152, 24, 0, 1024, 1024, 1024, 1024, 0, 6, 3815, 3801, 3858, 3841, 3864, 3838, 0, 1, 10896, -89.900, 0.000, 65.900, 0.000, 0.000, -2.900, 0.0, , , , , , 99, , , 49, 49, 49
36.7673043, -118.8834154, 16.400, 13:43:40.254, 16, 0.00, 0.13, 97, -0.500, 0.700, 65.000, 841, 100, 97, 16, 22898, -19333, 5418, 5586, 6, 14, 1523738620.256, 11, 0, 1024, 1024, 1024, 1024, 0, 6, 3815, 3801, 3858, 3841, 3864, 3838, 0, 1, 10999, -89.900, 0.000, 65.900, 0.000, 0.000, -3.000, 0.0, , , , , , 99, , , 49, 49, 49
36.7673043, -118.8834154, 16.700, 13:43:40.362, 16, 0.00, 0.12, 97, -0.700, 0.600, 65.000, 841, 100, 97, 16, 22898, -19333, 5418, 5586, 6, 14, 1523738620.363, 16, 0, 1024, 1024, 1024, 1024, 0, 6, 3815, 3801, 3858, 3841, 3864, 3838, 0, 1, 11107, -89.900, 0.000, 65.900, 0.000, 0.000, -3.000, 0.0, , , , , , 99, , , 49, 49, 49
36.7673042, -118.8834155, 17.100, 13:43:40.457, 15, 0.00, 0.12, 97, -1.100, 0.500, 65.000, 841, 100, 97, 16, 22898, -19333, 5418, 5586, 6, 14, 1523738620.458, 12, 0, 1024, 1024, 1024, 1024, 0, 6, 3815, 3801, 3858, 3841, 3864, 3838, 0, 1, 11202, -90.000, 0.000, 65.900, 0.000, 0.000, -2.900, 0.0, , , , , , 99, , , 49, 49, 49
36.7673042, -118.8834155, 17.100, 13:43:40.552, 15, 0.00, 0.12, 97, -1.100, 0.500, 65.000, 841, 100, 97, 16, 22898, -19333, 5418, 5586, 6, 14, 1523738620.553, 108, 0, 1024, 1024, 1024, 1024, 0, 6, 3815, 3801, 3858, 3841, 3864, 3838, 0, 1, 11297, -90.000, 0.000, 65.900, 0.000, 0.000, -2.900, 0.0, , , , , , 99, , , 49, 49, 49
36.7673041, -118.8834157, 17.700, 13:43:40.659, 16, 0.00, 0.11, 97, -1.900, 0.200, 65.000, 841, 100, 97, 16, 22898, -19333, 5418, 5586, 6, 14, 1523738620.659, 16, 0, 1024, 1024, 1024, 1024, 0, 6, 3815, 3801, 3858, 3841, 3864, 3838, 0, 1, 11403, -90.000, 0.000, 65.900, 0.000, 0.000, -2.900, 0.0, , , , , , 99, , , 49, 49, 49
36.7673041, -118.8834157, 18.000, 13:43:40.763, 16, 0.00, 0.12, 97, -1.800, 0.100, 65.200, 841, 100, 97, 16, 22898, -19333, 5418, 5586, 6, 14, 1523738620.763, 4, 0, 1024, 1024, 1024, 1024, 0, 6, 3815, 3801, 3858, 3841, 3864, 3838, 0, 1, 11507, -90.000, 0.000, 65.900, 0.000, 0.000, -2.900, 0.0, , , , , , 99, , , 49, 49, 49
36.7673041, -118.8834158, 18.300, 13:43:40.886, 15, 0.00, 0.12, 97, -1.700, 0.000, 65.300, 841, 100, 99, 16, 22898, -19333, 5418, 5586, 6, 14, 1523738620.887, 11, 0, 1024, 1024, 1024, 1024, 0, 6, 3790, 3784, 3828, 3821, 3839, 3806, 0, 1, 11630, -90.000, 0.000, 65.900, 0.000, 0.000, -2.900, 0.0, , , , , , 99, , , 49, 49, 49
36.7673041, -118.8834158, 18.300, 13:43:40.953, 15, 0.00, 0.12, 97, -1.700, 0.000, 65.300, 841, 100, 99, 16, 22898, -19333, 5418, 5586, 6, 14, 1523738620.954, 79, 0, 1024, 1024, 1024, 1024, 0, 6, 3790, 3784, 3828, 3821, 3839, 3806, 0, 1, 11698, -89.900, 0.000, 65.900, 0.000, 0.000, -2.900, 0.0, , , , , , 99, , , 49, 49, 49
36.7673041, -118.8834158, 18.600, 13:43:41.058, 15, 0.00, 0.13, 97, -1.700, 0.100, 65.300, 841, 100, 99, 16, 22898, -19333, 5418, 5586, 6, 14, 1523738621.060, 60, 0, 1024, 1024, 1024, 1024, 0, 6, 3790, 3784, 3828, 3821, 3839, 3806, 0, 1, 11803, -89.900, 0.000, 65.900, 0.000, 0.000, -2.900, 0.0, , , , , , 99, , , 49, 49, 49
36.7673041, -118.8834158, 18.600, 13:43:41.152, 15, 0.00, 0.13, 97, -1.700, 0.100, 65.300, 841, 100, 99, 16, 22898, -19333, 5418, 5586, 6, 14, 1523738621.153, 153, 0, 1024, 1024, 1024, 1024, 0, 6, 3790, 3784, 3828, 3821, 3839, 3806, 0, 1, 11897, -89.900, 0.000, 65.900, 0.000, 0.000, -2.900, 0.0, , , , , , 99, , , 49, 49, 49
36.7673041, -118.8834159, 18.900, 13:43:41.254, 16, 0.00, 0.13, 97, -1.900, 0.000, 65.200, 841, 100, 99, 16, 22898, -19333, 5418, 5586, 6, 14, 1523738621.255, 43, 0, 1024, 1024, 1024, 1024, 0, 6, 3790, 3784, 3828, 3821, 3839, 3806, 0, 1, 11999, -89.900, 0.000, 65.900, 0.000, 0.000, -2.900, 0.0, , , , , , 99, , , 49, 49, 49
36.7673041, -118.8834159, 19.200, 13:43:41.356, 16, 0.00, 0.13, 97, -2.000, 0.000, 65.100, 841, 100, 99, 16, 22898, -19333, 5418, 5586, 6, 14, 1523738621.357, 15, 0, 1024, 1024, 1024, 1024, 0, 6, 3790, 3784, 3828, 3821, 3839, 3806, 0, 1, 12101, -90.000, 0.000, 65.900, 0.000, 0.000, -2.900, 0.0, , , , , , 99, , , 49, 49, 49
36.7673041, -118.8834159, 19.500, 13:43:41.464, 14, 0.00, 0.13, 97, -2.000, 0.000, 65.000, 841, 100, 98, 17, 22898, -19333, 5418, 5586, 6, 14, 1523738621.465, 9, 0, 1024, 1024, 1024, 1024, 0, 6, 3790, 3784, 3828, 3821, 3839, 3806, 0, 1, 12209, -89.900, 0.000, 65.900, 0.000, 0.000, -2.800, 0.0, , , , , , 99, , , 49, 49, 49
36.7673041, -118.8834159, 19.500, 13:43:41.551, 14, 0.00, 0.13, 97, -2.000, 0.000, 65.000, 841, 100, 98, 17, 22898, -19333, 5418, 5586, 6, 14, 1523738621.552, 96, 0, 1024, 1024, 1024, 1024, 0, 6, 3790, 3784, 3828, 3821, 3839, 3806, 0, 1, 12296, -89.900, 0.000, 65.900, 0.000, 0.000, -2.800, 0.0, , , , , , 99, , , 49, 49, 49
36.7673040, -118.8834159, 19.800, 13:43:41.652, 14, 0.00, 0.12, 97, -2.000, 0.100, 64.900, 841, 100, 98, 17, 22898, -19333, 5418, 5586, 6, 14, 1523738621.653, 90, 0, 1024, 1024, 1024, 1024, 0, 6, 3790, 3784, 3828, 3821, 3839, 3806, 0, 1, 12397, -89.900, 0.000, 65.900, 0.000, 0.000, -2.900, 0.0, , , , , , 99, , , 49, 49, 49
36.7673040, -118.8834159, 20.100, 13:43:41.753, 17, 0.00, 0.12, 97, -2.100, 0.200, 64.800, 841, 100, 98, 17, 22898, -19333, 5418, 5586, 6, 14, 1523738621.754, 34, 0, 1024, 1024, 1024, 1024, 0, 6, 3790, 3784, 3828, 3821, 3839, 3806, 0, 1, 12498, -89.900, 0.000, 65.900, 0.000, 0.000, -2.800, 0.0, , , , , , 99, , , 49, 49, 49
36.7673039, -118.8834160, 20.400, 13:43:41.851, 17, 0.00, 0.12, 97, -1.900, 0.200, 64.600, 841, 100, 98, 17, 22898, -19333, 5418, 5586, 6, 14, 1523738621.852, 39, 0, 1024, 1024, 1024, 1024, 0, 6, 3790, 3784, 3828, 3821, 3839, 3806, 0, 1, 12595, -90.000, 0.000, 65.900, 0.000, 0.000, -2.800, 0.0, , , , , , 99, , , 49, 49, 49
36.7673039, -118.8834161, 20.900, 13:43:41.964, 17, 0.00, 0.13, 97, -1.900, 0.000, 64.600, 841, 100, 98, 17, 22859, -19794, 5418, 5586, 6, 14, 1523738621.964, 5, 0, 1024, 1024, 1024, 1024, 0, 6, 3790, 3784, 3828, 3821, 3839, 3806, 0, 1, 12708, -89.900, 0.000, 65.900, 0.000, 0.000, -2.900, 0.0, , , , , , 99, , , 49, 49, 49
36.7673039, -118.8834161, 20.900, 13:43:42.054, 17, 0.00, 0.13, 97, -1.900, 0.000, 64.600, 841, 100, 98, 17, 22859, -19794, 5418, 5586, 6, 14, 1523738622.055, 96, 0, 1024, 1024, 1024, 1024, 0, 6, 3783, 3780, 3831, 3807, 3835, 3815, 0, 1, 12799, -89.900, 0.000, 65.900, 0.000, 0.000, -2.900, 0.0, , , , , , 99, , , 49, 49, 49
36.7673039, -118.8834161, 21.200, 13:43:42.162, 17, 0.00, 0.12, 97, -2.000, 0.000, 64.700, 841, 100, 97, 17, 22859, -19794, 5418, 5586, 6, 14, 1523738622.162, 13, 0, 1024, 1024, 1024, 1024, 0, 6, 3783, 3780, 3831, 3807, 3835, 3815, 0, 1, 12906, -89.900, 0.000, 65.900, 0.000, 0.000, -2.900, 0.0, , , , , , 99, , , 49, 49, 49
36.7673038, -118.8834161, 21.500, 13:43:42.251, 17, 0.00, 0.12, 97, -2.100, 0.000, 64.800, 841, 100, 97, 17, 22859, -19794, 5418, 5586, 6, 14, 1523738622.252, 30, 0, 1024, 1024, 1024, 1024, 0, 6, 3783, 3780, 3831, 3807, 3835, 3815, 0, 1, 12996, -89.900, 0.000, 65.900, 0.000, 0.000, -2.900, 0.0, , , , , , 99, , , 49, 49, 49
36.7673037, -118.8834161, 21.800, 13:43:42.351, 17, 0.00, 0.11, 97, -2.300, 0.000, 64.800, 841, 100, 97, 17, 22859, -19794, 5418, 5586, 6, 14, 1523738622.352, 72, 0, 1024, 1024, 1024, 1024, 0, 6, 3783, 3780, 3831, 3807, 3835, 3815, 0, 1, 13095, -89.900, 0.000, 65.900, 0.000, 0.000, -2.800, 0.0, , , , , , 99, , , 49, 49, 49
36.7673036, -118.8834161, 22.400, 13:43:42.450, 17, 0.00, 0.11, 97, -2.600, -0.200, 64.900, 841, 100, 97, 17, 22859, -19794, 5418, 5586, 6, 14, 1523738622.451, 60, 0, 1024, 1024, 1024, 1024, 0, 6, 3783, 3780, 3831, 3807, 3835, 3815, 0, 1, 13195, -89.900, 0.000, 65.900, 0.000, 0.000, -2.900, 0.0, , , , , , 99, , , 49, 49, 49
36.7673036, -118.8834162, 23.000, 13:43:42.551, 17, 0.00, 0.11, 97, -2.500, -0.200, 64.900, 841, 100, 97, 17, 22859, -19794, 5418, 5586, 6, 14, 1523738622.551, 10, 0, 1024, 1024, 1024, 1024, 0, 6, 3783, 3780, 3831, 3807, 3835, 3815, 0, 1, 13295, -89.900, 0.000, 65.900, 0.000, 0.000, -2.900, 0.0, , , , , , 99, , , 49, 49, 49
36.7673036, -118.8834162, 23.300, 13:43:42.651, 17, 0.00, 0.12, 97, -2.000, -0.200, 64.900, 841, 100, 97, 17, 22859, -19794, 5418, 5586, 6, 14, 1523738622.651, 25, 0, 1024, 1024, 1024, 1024, 0, 6, 3783, 3780, 3831, 3807, 3835, 3815, 0, 1, 13395, -89.900, 0.000, 65.900, 0.000, 0.000, -2.900, 0.0, , , , , , 99, , , 49, 49, 49
36.7673037, -118.8834162, 23.500, 13:43:42.751, 17, 0.00, 0.12, 97, -1.700, 0.000, 64.900, 841, 100, 97, 17, 22859, -19794, 5418, 5586, 6, 14, 1523738622.752, 75, 0, 1024, 1024, 1024, 1024, 0, 6, 3783, 3780, 3831, 3807, 3835, 3815, 0, 1, 13495, -89.900, 0.000, 65.900, 0.000, 0.000, -2.900, 0.0, , , , , , 99, , , 49, 49, 49
36.7673038, -118.8834161, 23.800, 13:43:42.851, 17, 0.00, 0.12, 97, -1.500, 0.200, 64.900, 841, 100, 97, 17, 22804, -19616, 5418, 5586, 6, 14, 1523738622.852, 92, 0, 1024, 1024, 1024, 1024, 0, 6, 3776, 3769, 3823, 3797, 3828, 3793, 0, 1, 13595, -89.900, 0.000, 65.900, 0.000, 0.000, -2.900, 0.0, , , , , , 99, , , 49, 49, 49
36.7673038, -118.8834161, 24.100, 13:43:42.951, 16, 0.00, 0.12, 97, -1.400, 0.400, 65.000, 841, 100, 95, 17, 22804, -19616, 5418, 5586, 6, 14, 1523738622.952, 76, 0, 1024, 1024, 1024, 1024, 0, 6, 3776, 3769, 3823, 3797, 3828, 3793, 0, 1, 13696, -89.900, 0.000, 65.900, 0.000, 0.000, -2.900, 0.0, , , , , , 99, , , 49, 49, 49
36.7673039, -118.8834161, 24.400, 13:43:43.051, 16, 0.00, 0.13, 97, -1.300, 0.400, 65.200, 841, 100, 95, 17, 22804, -19616, 5418, 5586, 6, 14, 1523738623.051, 90, 0, 1024, 1024, 1024, 1024, 0, 6, 3776, 3769, 3823, 3797, 3828, 3793, 0, 1, 13795, -89.900, 0.000, 65.900, 0.000, 0.000, -3.000, 0.0, , , , , , 99, , , 49, 49, 49
36.7673040, -118.8834161, 24.700, 13:43:43.151, 17, 0.00, 0.13, 97, -1.300, 0.500, 65.300, 841, 100, 95, 17, 22804, -19616, 5418, 5586, 6, 14, 1523738623.151, 53, 0, 1024, 1024, 1024, 1024, 0, 6, 3776, 3769, 3823, 3797, 3828, 3793, 0, 1, 13895, -89.900, 0.000, 65.900, 0.000, 0.000, -3.000, 0.0, , , , , , 99, , , 49, 49, 49
36.7673040, -118.8834161, 25.000, 13:43:43.251, 17, 0.00, 0.13, 97, -1.300, 0.400, 65.400, 841, 100, 95, 17, 22804, -19616, 5418, 5586, 6, 14, 1523738623.251, 78, 0, 1024, 1024, 1024, 1024, 0, 6, 3776, 3769, 3823, 3797, 3828, 3793, 0, 1, 13995, -89.900, 0.000, 65.900, 0.000, 0.000, -3.000, 0.0, , , , , , 99, , , 49, 49, 49
36.7673041, -118.8834161, 25.300, 13:43:43.351, 17, 0.00, 0.14, 97, -1.400, 0.400, 65.600, 841, 100, 96, 17, 22804, -19616, 5418, 5586, 6, 14, 1523738623.351, 72, 0, 1024, 1024, 1024, 1024, 0, 6, 3776, 3769, 3823, 3797, 3828, 3793, 0, 1, 14095, -89.900, 0.000, 65.900, 0.000, 0.000, -3.000, 0.0, , , , , , 99, , , 49, 49, 49
36.7673041, -118.8834161, 25.600, 13:43:43.450, 17, 0.00, 0.14, 97, -1.300, 0.200, 65.600, 841, 100, 96, 17, 22804, -19616, 5418, 5586, 6, 14, 1523738623.451, 72, 0, 1024, 1024, 1024, 1024, 0, 6, 3776, 3769, 3823, 3797, 3828, 3793, 0, 1, 14195, -89.900, 0.000, 65.900, 0.000, 0.000, -3.000, 0.0, , , , , , 99, , , 49, 49, 49
36.7673042, -118.8834161, 25.900, 13:43:43.551, 18, 0.00, 0.15, 97, -1.300, 0.000, 65.500, 841, 100, 96, 17, 22804, -19616, 5418, 5586, 6, 14, 1523738623.551, 68, 0, 1024, 1024, 1024, 1024, 0, 6, 3776, 3769, 3823, 3797, 3828, 3793, 0, 1, 14295, -89.900, 0.000, 65.900, 0.000, 0.000, -3.000, 0.0, , , , , , 99, , , 49, 49, 49
36.7673042, -118.8834161, 26.200, 13:43:43.650, 18, 0.00, 0.15, 97, -1.400, 0.000, 65.400, 841, 100, 96, 17, 22804, -19616, 5418, 5586, 6, 14, 1523738623.651, 62, 0, 1024, 1024, 1024, 1024, 0, 6, 3776, 3769, 3823, 3797, 3828, 3793, 0, 1, 14395, -90.000, 0.000, 65.900, 0.000, 0.000, -2.900, 0.0, , , , , , 99, , , 49, 49, 49
36.7673042, -118.8834161, 26.500, 13:43:43.750, 18, 0.00, 0.15, 97, -1.400, -0.100, 65.100, 841, 100, 96, 17, 22804, -19616, 5418, 5586, 6, 14, 1523738623.750, 75, 0, 1024, 1024, 1024, 1024, 0, 6, 3776, 3769, 3823, 3797, 3828, 3793, 0, 1, 14494, -89.900, 0.000, 65.900, 0.000, 0.000, -3.000, 0.0, , , , , , 99, , , 49, 49, 49
36.7673042, -118.8834161, 26.500, 13:43:43.851, 18, 0.00, 0.15, 97, -1.400, -0.100, 65.100, 841, 100, 99, 17, 22804, -19616, 5418, 5586, 6, 14, 1523738623.851, 176, 0, 1024, 1024, 1024, 1024, 0, 6, 3776, 3769, 3823, 3797, 3828, 3793, 0, 1, 14595, -89.900, 0.000, 65.900, 0.000, 0.000, -3.000, 0.0, , , , , , 99, , , 49, 49, 49
36.7673042, -118.8834161, 27.400, 13:43:43.951, 18, 0.00, 0.15, 97, -1.500, 0.100, 64.700, 841, 100, 99, 17, 22804, -19616, 5418, 5586, 6, 14, 1523738623.951, 58, 0, 1024, 1024, 1024, 1024, 0, 6, 3776, 3769, 3823, 3797, 3828, 3793, 0, 1, 14695, -89.900, 0.000, 65.900, 0.000, 0.000, -3.000, 0.0, , , , , , 99, , , 49, 49, 49
36.7673043, -118.8834161, 27.800, 13:43:44.050, 18, 0.00, 0.15, 97, -1.400, 0.400, 64.800, 841, 100, 99, 17, 22804, -19616, 5418, 5586, 6, 14, 1523738624.051, 39, 0, 1024, 1024, 1024, 1024, 0, 6, 3776, 3769, 3823, 3797, 3828, 3793, 0, 1, 14794, -89.900, 0.000, 65.900, 0.000, 0.000, -3.100, 0.0, , , , , , 99, , , 49, 49, 49
36.7673043, -118.8834161, 28.100, 13:43:44.150, 18, 0.00, 0.15, 97, -1.700, 0.300, 64.700, 841, 100, 99, 17, 22804, -19616, 5418, 5586, 6, 14, 1523738624.151, 15, 0, 1024, 1024, 1024, 1024, 0, 6, 3776, 3769, 3823, 3797, 3828, 3793, 0, 1, 14894, -89.900, 0.000, 65.900, 0.000, 0.000, -3.100, 0.0, , , , , , 99, , , 49, 49, 49
36.7673043, -118.8834161, 28.400, 13:43:44.250, 18, 0.00, 0.15, 97, -2.000, 0.000, 64.700, 841, 100, 99, 17, 22684, -20558, 5418, 5586, 6, 14, 1523738624.251, 44, 0, 1024, 1024, 1024, 1024, 0, 6, 3776, 3769, 3823, 3797, 3828, 3793, 0, 1, 14995, -89.900, 0.000, 65.900, 0.000, 0.000, -3.000, 0.0, , , , , , 99, , , 49, 49, 49
36.7673043, -118.8834160, 28.700, 13:43:44.350, 18, 0.00, 0.16, 97, -2.000, -0.200, 64.600, 841, 100, 98, 17, 22684, -20558, 5418, 5586, 6, 14, 1523738624.351, 24, 0, 1024, 1024, 1024, 1024, 0, 6, 3749, 3752, 3797, 3777, 3811, 3772, 0, 1, 15094, -89.900, 0.000, 65.900, 0.000, 0.000, -3.000, 0.0, , , , , , 99, , , 49, 49, 49
36.7673043, -118.8834161, 29.000, 13:43:44.450, 18, 0.00, 0.15, 97, -2.000, -0.200, 64.400, 841, 100, 98, 17, 22684, -20558, 5418, 5586, 6, 14, 1523738624.450, 28, 0, 1024, 1024, 1024, 1024, 0, 6, 3749, 3752, 3797, 3777, 3811, 3772, 0, 1, 15194, -89.900, 0.000, 65.900, 0.000, 0.000, -3.000, 0.0, , , , , , 99, , , 49, 49, 49
36.7673043, -118.8834161, 29.300, 13:43:44.550, 18, 0.00, 0.15, 97, -2.100, -0.100, 64.500, 841, 100, 98, 17, 22684, -20558, 5418, 5586, 6, 14, 1523738624.552, 30, 0, 1024, 1024, 1024, 1024, 0, 6, 3749, 3752, 3797, 3777, 3811, 3772, 0, 1, 15295, -89.900, 0.000, 65.900, 0.000, 0.000, -3.000, 0.0, , , , , , 99, , , 49, 49, 49
36.7673043, -118.8834161, 29.600, 13:43:44.650, 19, 0.00, 0.16, 97, -2.100, -0.200, 64.800, 841, 100, 98, 17, 22684, -20558, 5418, 5586, 6, 14, 1523738624.652, 31, 0, 1024, 1024, 1024, 1024, 0, 6, 3749, 3752, 3797, 3777, 3811, 3772, 0, 1, 15395, -89.900, 0.000, 65.900, 0.000, 0.000, -2.900, 0.0, , , , , , 99, , , 49, 49, 49
36.7673043, -118.8834162, 29.900, 13:43:44.750, 19, 0.00, 0.16, 97, -1.900, -0.300, 65.100, 841, 100, 98, 17, 22687, -20417, 5418, 5586, 6, 14, 1523738624.751, 34, 0, 1024, 1024, 1024, 1024, 0, 6, 3755, 3764, 3793, 3789, 3826, 3768, 0, 1, 15494, -89.900, 0.000, 65.900, 0.000, 0.000, -2.900, 0.0, , , , , , 99, , , 49, 49, 49
36.7673043, -118.8834163, 30.200, 13:43:44.850, 17, 0.00, 0.16, 97, -1.900, -0.700, 65.400, 841, 100, 98, 17, 22687, -20417, 5418, 5586, 6, 14, 1523738624.851, 24, 0, 1024, 1024, 1024, 1024, 0, 6, 3755, 3764, 3793, 3789, 3826, 3768, 0, 1, 15595, -89.900, 0.000, 65.900, 0.000, 0.000, -2.900, 0.0, , , , , , 99, , , 49, 49, 49
36.7673042, -118.8834163, 30.500, 13:43:44.950, 17, 0.00, 0.17, 97, -1.700, -0.900, 65.700, 841, 100, 98, 17, 22687, -20417, 5418, 5586, 6, 14, 1523738624.950, 24, 0, 1024, 1024, 1024, 1024, 0, 6, 3755, 3764, 3793, 3789, 3826, 3768, 0, 1, 15694, -90.000, 0.000, 65.900, 0.000, 0.000, -2.900, 0.0, , , , , , 99, , , 49, 49, 49
36.7673042, -118.8834164, 30.800, 13:43:45.059, 18, 0.00, 0.17, 97, -1.700, -0.800, 65.700, 841, 100, 98, 17, 22687, -20417, 5418, 5586, 6, 14, 1523738625.060, 9, 0, 1024, 1024, 1024, 1024, 0, 6, 3755, 3764, 3793, 3789, 3826, 3768, 0, 1, 15804, -89.900, 0.000, 65.900, 0.000, 0.000, -3.000, 0.0, , , , , , 99, , , 49, 49, 49
36.7673041, -118.8834165, 31.100, 13:43:45.174, 18, 0.00, 0.17, 97, -1.900, -1.100, 65.400, 841, 100, 98, 17, 22687, -20417, 5418, 5586, 6, 14, 1523738625.175, 6, 0, 1024, 1024, 1024, 1024, 0, 6, 3755, 3764, 3793, 3789, 3826, 3768, 0, 1, 15919, -89.900, 0.000, 65.900, 0.000, 0.000, -2.900, 0.0, , , , , , 99, , , 49, 49, 49
36.7673041, -118.8834166, 31.400, 13:43:45.256, 18, 0.00, 0.17, 97, -2.000, -1.400, 65.100, 841, 100, 98, 17, 22687, -20417, 5418, 5586, 6, 14, 1523738625.256, 8, 0, 1024, 1024, 1024, 1024, 0, 6, 3755, 3764, 3793, 3789, 3826, 3768, 0, 1, 16000, -90.000, 0.000, 65.800, 0.000, 0.000, -2.900, 0.0, , , , , , 99, , , 49, 49, 49
36.7673041, -118.8834166, 31.400, 13:43:45.350, 18, 0.00, 0.17, 97, -2.000, -1.400, 65.100, 841, 100, 98, 17, 22687, -20417, 5418, 5586, 6, 14, 1523738625.352, 103, 0, 1024, 1024, 1024, 1024, 0, 6, 3755, 3764, 3793, 3789, 3826, 3768, 0, 1, 16095, -90.000, 0.000, 65.800, 0.000, 0.000, -2.900, 0.0, , , , , , 99, , , 49, 49, 49
36.7673040, -118.8834167, 32.000, 13:43:45.456, 18, 0.00, 0.17, 97, -2.300, -1.900, 64.700, 841, 100, 99, 17, 22687, -20417, 5418, 5586, 6, 14, 1523738625.456, 7, 0, 1024, 1024, 1024, 1024, 0, 6, 3755, 3764, 3793, 3789, 3826, 3768, 0, 1, 16200, -89.900, 0.000, 65.800, 0.000, 0.000, -2.900, 0.0, , , , , , 99, , , 49, 49, 49
36.7673040, -118.8834167, 32.300, 13:43:45.551, 18, 0.00, 0.17, 97, -2.200, -1.600, 64.700, 841, 100, 99, 17, 22687, -20417, 5418, 5586, 6, 14, 1523738625.552, 6, 0, 1024, 1024, 1024, 1024, 0, 6, 3755, 3764, 3793, 3789, 3826, 3768, 0, 1, 16295, -89.900, 0.000, 65.800, 0.000, 0.000, -2.900, 0.0, , , , , , 99, , , 49, 49, 49
36.7673040, -118.8834167, 32.300, 13:43:45.649, 18, 0.00, 0.17, 97, -2.200, -1.600, 64.700, 841, 100, 99, 17, 22687, -20417, 5418, 5586, 6, 14, 1523738625.650, 104, 0, 1024, 1024, 1024, 1024, 0, 6, 3755, 3764, 3793, 3789, 3826, 3768, 0, 1, 16393, -89.900, 0.000, 65.800, 0.000, 0.000, -2.900, 0.0, , , , , , 99, , , 49, 49, 49
36.7673039, -118.8834167, 32.600, 13:43:45.750, 18, 0.00, 0.17, 97, -2.100, -1.400, 64.700, 841, 100, 99, 17, 22687, -20417, 5418, 5586, 6, 14, 1523738625.751, 93, 0, 1024, 1024, 1024, 1024, 0, 6, 3755, 3764, 3793, 3789, 3826, 3768, 0, 1, 16494, -89.900, 0.000, 65.800, 0.000, 0.000, -2.800, 0.0, , , , , , 99, , , 49, 49, 49
36.7673039, -118.8834167, 32.900, 13:43:45.850, 18, 0.00, 0.17, 97, -2.200, -1.100, 64.800, 841, 100, 98, 17, 22747, -19459, 5418, 5586, 6, 14, 1523738625.850, 79, 0, 1024, 1024, 1024, 1024, 0, 6, 3755, 3764, 3793, 3789, 3826, 3768, 0, 1, 16594, -89.900, 0.000, 65.800, 0.000, 0.000, -2.900, 0.0, , , , , , 99, , , 49, 49, 49
36.7673039, -118.8834167, 33.200, 13:43:45.950, 17, 0.00, 0.17, 97, -2.400, -0.900, 64.800, 841, 100, 98, 17, 22747, -19459, 5418, 5586, 6, 14, 1523738625.950, 84, 0, 1024, 1024, 1024, 1024, 0, 6, 3755, 3764, 3793, 3789, 3826, 3768, 0, 1, 16694, -89.900, 0.000, 65.800, 0.000, 0.000, -2.900, 0.0, , , , , , 99, , , 49, 49, 49
36.7673039, -118.8834167, 33.500, 13:43:46.050, 17, 0.00, 0.17, 97, -2.200, -0.700, 64.800, 841, 100, 98, 17, 22747, -19459, 5418, 5586, 6, 14, 1523738626.050, 72, 0, 1024, 1024, 1024, 1024, 0, 6, 3755, 3764, 3793, 3789, 3826, 3768, 0, 1, 16794, -89.900, 0.000, 65.800, 0.000, 0.000, -2.900, 0.0, , , , , , 99, , , 49, 49, 49
36.7673039, -118.8834167, 33.800, 13:43:46.150, 18, 0.00, 0.17, 97, -2.200, -0.600, 64.800, 841, 100, 98, 17, 22747, -19459, 5418, 5586, 6, 14, 1523738626.151, 43, 0, 1024, 1024, 1024, 1024, 0, 6, 3755, 3764, 3793, 3789, 3826, 3768, 0, 1, 16894, -89.900, 0.000, 65.800, 0.000, 0.000, -2.900, 0.0, , , , , , 99, , , 49, 49, 49
36.7673039, -118.8834167, 34.100, 13:43:46.266, 18, 0.00, 0.17, 97, -2.000, -0.600, 65.000, 841, 100, 98, 17, 22747, -19459, 5418, 5586, 6, 14, 1523738626.267, 6, 0, 1024, 1024, 1024, 1024, 0, 6, 3755, 3764, 3793, 3789, 3826, 3768, 0, 1, 17011, -89.900, 0.000, 65.800, 0.000, 0.000, -3.000, 0.0, , , , , , 99, , , 49, 49, 49
36.7673039, -118.8834167, 34.700, 13:43:46.369, 19, 0.00, 0.17, 97, -1.500, -0.500, 65.500, 841, 100, 98, 17, 22747, -19459, 5418, 5586, 6, 14, 1523738626.369, 10, 0, 1024, 1024, 1024, 1024, 0, 6, 3755, 3764, 3793, 3789, 3826, 3768, 0, 1, 17113, -89.900, 0.000, 65.800, 0.000, 0.000, -2.900, 0.0, , , , , , 99, , , 49, 49, 49
36.7673039, -118.8834167, 34.700, 13:43:46.449, 19, 0.00, 0.17, 97, -1.500, -0.500, 65.500, 841, 100, 98, 17, 22747, -19459, 5418, 5586, 6, 14, 1523738626.450, 91, 0, 1024, 1024, 1024, 1024, 0, 6, 3755, 3764, 3793, 3789, 3826, 3768, 0, 1, 17193, -89.900, 0.000, 65.800, 0.000, 0.000, -2.900, 0.0, , , , , , 99, , , 49, 49, 49
36.7673038, -118.8834166, 35.000, 13:43:46.550, 19, 0.00, 0.16, 97, -2.200, -0.500, 65.400, 841, 100, 98, 17, 22747, -19459, 5418, 5586, 6, 14, 1523738626.552, 44, 0, 1024, 1024, 1024, 1024, 0, 6, 3755, 3764, 3793, 3789, 3826, 3768, 0, 1, 17296, -89.900, 0.000, 65.900, 0.000, 0.000, -3.000, 0.0, , , , , , 99, , , 49, 49, 49
36.7673038, -118.8834166, 35.300, 13:43:46.650, 19, 0.00, 0.15, 97, -2.800, -0.100, 65.100, 841, 100, 98, 17, 22747, -19459, 5418, 5586, 6, 14, 1523738626.652, 42, 0, 1024, 1024, 1024, 1024, 0, 6, 3755, 3764, 3793, 3789, 3826, 3768, 0, 1, 17395, -89.900, 0.000, 65.800, 0.000, 0.000, -2.900, 0.0, , , , , , 99, , , 49, 49, 49
36.7673037, -118.8834165, 35.600, 13:43:46.750, 19, 0.00, 0.14, 97, -3.300, 0.000, 64.800, 841, 100, 98, 17, 22747, -19459, 5418, 5586, 6, 14, 1523738626.752, 12, 0, 1024, 1024, 1024, 1024, 0, 6, 3755, 3764, 3793, 3789, 3826, 3768, 0, 1, 17496, -89.900, 0.000, 65.800, 0.000, 0.000, -3.000, 0.0, , , , , , 99, , , 49, 49, 49
36.7673036, -118.8834164, 35.900, 13:43:46.853, 19, 0.00, 0.13, 97, -3.600, 0.000, 64.500, 841, 100, 98, 17, 22747, -19459, 5418, 5586, 6, 14, 1523738626.856, 24, 0, 1024, 1024, 1024, 1024, 0, 6, 3755, 3764, 3793, 3789, 3826, 3768, 0, 1, 17600, -89.900, 0.000, 65.800, 0.000, 0.000, -2.900, 0.0, , , , , , 99, , , 49, 49, 49
36.7673035, -118.8834163, 36.200, 13:43:46.950, 20, 0.00, 0.13, 97, -3.800, 0.000, 64.200, 841, 100, 100, 17, 22747, -19459, 5418, 5586, 6, 14, 1523738626.953, 26, 0, 1024, 1024, 1024, 1024, 0, 6, 3768, 3761, 3813, 3797, 3815, 3789, 0, 1, 17697, -89.900, 0.000, 65.800, 0.000, 0.000, -2.900, 0.0, , , , , , 99, , , 49, 49, 49
36.7673035, -118.8834163, 36.200, 13:43:47.050, 20, 0.00, 0.13, 97, -3.800, 0.000, 64.200, 841, 100, 100, 17, 22747, -19459, 5418, 5586, 6, 14, 1523738627.054, 127, 0, 1024, 1024, 1024, 1024, 0, 6, 3768, 3761, 3813, 3797, 3815, 3789, 0, 1, 17798, -89.900, 0.000, 65.800, 0.000, 0.000, -2.900, 0.0, , , , , , 99, , , 49, 49, 49
36.7673035, -118.8834163, 36.500, 13:43:47.149, 20, 0.00, 0.12, 97, -4.100, 0.000, 64.000, 841, 100, 100, 17, 22747, -19459, 5418, 5586, 6, 14, 1523738627.151, 22, 0, 1024, 1024, 1024, 1024, 0, 6, 3768, 3761, 3813, 3797, 3815, 3789, 0, 1, 17895, -89.900, 0.000, 65.800, 0.000, 0.000, -2.900, 0.0, , , , , , 99, , , 49, 49, 49
36.7673034, -118.8834163, 36.800, 13:43:47.250, 20, 0.00, 0.12, 97, -3.900, -0.200, 64.000, 841, 100, 100, 17, 22747, -19459, 5418, 5586, 6, 14, 1523738627.251, 40, 0, 1024, 1024, 1024, 1024, 0, 6, 3768, 3761, 3813, 3797, 3815, 3789, 0, 1, 17995, -89.900, 0.000, 65.800, 0.000, 0.000, -3.000, 0.0, , , , , , 99, , , 49, 49, 49
36.7673034, -118.8834163, 37.100, 13:43:47.356, 20, 0.00, 0.12, 97, -3.900, -0.400, 64.200, 841, 100, 100, 17, 22747, -19459, 5418, 5586, 6, 14, 1523738627.360, 11, 0, 1024, 1024, 1024, 1024, 0, 6, 3768, 3761, 3813, 3797, 3815, 3789, 0, 1, 18104, -89.900, 0.000, 65.800, 0.000, 0.000, -3.000, 0.0, , , , , , 99, , , 49, 49, 49
36.7673034, -118.8834163, 37.400, 13:43:47.464, 20, 0.00, 0.12, 97, -3.800, -0.700, 64.400, 841, 100, 100, 17, 22668, -19538, 5418, 5586, 6, 14, 1523738627.465, 6, 0, 1024, 1024, 1024, 1024, 0, 6, 3768, 3761, 3813, 3797, 3815, 3789, 0, 1, 18208, -90.000, 0.000, 65.800, 0.000, 0.000, -2.900, 0.0, , , , , , 99, , , 49, 49, 49
36.7673034, -118.8834163, 37.400, 13:43:47.550, 20, 0.00, 0.12, 97, -3.800, -0.700, 64.400, 841, 100, 100, 17, 22668, -19538, 5418, 5586, 6, 14, 1523738627.552, 93, 0, 1024, 1024, 1024, 1024, 0, 6, 3756, 3742, 3809, 3776, 3794, 3786, 0, 1, 18295, -90.000, 0.000, 65.800, 0.000, 0.000, -2.900, 0.0, , , , , , 99, , , 49, 49, 49
36.7673034, -118.8834164, 37.700, 13:43:47.649, 20, 0.00, 0.13, 97, -3.300, -1.000, 64.700, 841, 100, 100, 17, 22668, -19538, 5418, 5586, 6, 14, 1523738627.653, 56, 0, 1024, 1024, 1024, 1024, 0, 6, 3756, 3742, 3809, 3776, 3794, 3786, 0, 1, 18396, -90.000, 0.000, 65.800, 0.000, 0.000, -2.900, 0.0, , , , , , 99, , , 49, 49, 49
36.7673033, -118.8834164, 38.000, 13:43:47.749, 20, 0.00, 0.13, 97, -3.300, -1.000, 64.900, 841, 100, 100, 17, 22668, -19538, 5418, 5586, 6, 14, 1523738627.750, 53, 0, 1024, 1024, 1024, 1024, 0, 6, 3756, 3742, 3809, 3776, 3794, 3786, 0, 1, 18494, -89.900, 0.000, 65.900, 0.000, 0.000, -2.900, 0.0, , , , , , 99, , , 49, 49, 49
36.7673033, -118.8834165, 38.300, 13:43:47.849, 20, 0.00, 0.13, 97, -3.200, -0.700, 65.000, 841, 100, 100, 17, 22668, -19538, 5418, 5586, 6, 14, 1523738627.849, 57, 0, 1024, 1024, 1024, 1024, 0, 6, 3756, 3742, 3809, 3776, 3794, 3786, 0, 1, 18593, -89.900, 0.000, 65.900, 0.000, 0.000, -3.000, 0.0, , , , , , 99, , , 49, 49, 49
36.7673033, -118.8834165, 38.600, 13:43:47.949, 20, 0.00, 0.13, 97, -3.600, -0.600, 64.900, 841, 100, 100, 17, 22668, -19538, 5418, 5586, 6, 14, 1523738627.952, 54, 0, 1024, 1024, 1024, 1024, 0, 6, 3756, 3742, 3809, 3776, 3794, 3786, 0, 1, 18696, -89.900, 0.000, 65.800, 0.000, 0.000, -3.000, 0.0, , , , , , 99, , , 49, 49, 49
36.7673032, -118.8834165, 38.900, 13:43:48.049, 20, 0.00, 0.14, 97, -3.900, -0.600, 64.800, 841, 100, 99, 17, 22668, -19538, 5418, 5586, 6, 14, 1523738628.050, 11, 0, 1024, 1024, 1024, 1024, 0, 6, 3756, 3742, 3809, 3776, 3794, 3786, 0, 1, 18794, -89.900, 0.000, 65.800, 0.000, 0.000, -2.900, 0.0, , , , , , 99, , , 49, 49, 49
36.7673032, -118.8834165, 38.900, 13:43:48.149, 20, 0.00, 0.14, 97, -3.900, -0.600, 64.800, 841, 100, 99, 17, 22668, -19538, 5418, 5586, 6, 14, 1523738628.150, 111, 0, 1024, 1024, 1024, 1024, 0, 6, 3756, 3742, 3809, 3776, 3794, 3786, 0, 1, 18894, -89.900, 0.000, 65.800, 0.000, 0.000, -2.900, 0.0, , , , , , 99, , , 49, 49, 49
36.7673032, -118.8834166, 39.200, 13:43:48.249, 20, 0.00, 0.14, 97, -3.800, -0.700, 64.700, 841, 100, 99, 17, 22668, -19538, 5418, 5586, 6, 14, 1523738628.250, 77, 0, 1024, 1024, 1024, 1024, 0, 6, 3756, 3742, 3809, 3776, 3794, 3786, 0, 1, 18993, -89.900, 0.000, 65.800, 0.000, 0.000, -2.900, 0.0, , , , , , 99, , , 49, 49, 49
36.7673031, -118.8834167, 40.000, 13:43:48.348, 20, 0.00, 0.15, 97, -3.200, -0.400, 64.900, 841, 100, 99, 17, 22668, -19538, 5418, 5586, 6, 14, 1523738628.349, 28, 0, 1024, 1024, 1024, 1024, 0, 6, 3756, 3742, 3809, 3776, 3794, 3786, 0, 1, 19093, -89.900, 0.000, 65.800, 0.000, 0.000, -2.700, 0.0, , , , , , 99, , , 49, 49, 49
36.7673031, -118.8834167, 40.300, 13:43:48.461, 20, 0.00, 0.15, 97, -3.000, -0.500, 65.000, 841, 100, 99, 17, 22689, -19521, 5362, 5586, 6, 14, 1523738628.461, 5, 0, 1024, 1024, 1024, 1024, 0, 6, 3756, 3742, 3809, 3776, 3794, 3786, 0, 1, 19205, -89.900, 0.000, 65.800, 0.000, 0.000, -2.800, 0.0, , , , , , 99, , , 49, 49, 49
36.7673031, -118.8834168, 40.900, 13:43:48.555, 20, 0.00, 0.16, 97, -3.300, -1.000, 65.200, 841, 100, 99, 17, 22689, -19521, 5362, 5586, 6, 14, 1523738628.555, 3, 0, 1024, 1024, 1024, 1024, 0, 6, 3746, 3753, 3808, 3783, 3819, 3768, 0, 1, 19299, -90.000, 0.000, 65.800, 0.000, 0.000, -2.900, 0.0, , , , , , 99, , , 49, 49, 49
36.7673030, -118.8834168, 41.200, 13:43:48.649, 20, 0.00, 0.16, 97, -3.600, -1.200, 65.300, 841, 100, 99, 17, 22689, -19521, 5362, 5586, 6, 14, 1523738628.649, 50, 0, 1024, 1024, 1024, 1024, 0, 6, 3746, 3753, 3808, 3783, 3819, 3768, 0, 1, 19393, -89.900, 0.000, 65.800, 0.000, 0.000, -2.900, 0.0, , , , , , 99, , , 49, 49, 49
36.7673030, -118.8834168, 41.400, 13:43:48.749, 20, 0.00, 0.16, 97, -3.600, -1.000, 65.300, 841, 100, 99, 17, 22689, -19521, 5362, 5586, 6, 14, 1523738628.749, 65, 0, 1024, 1024, 1024, 1024, 0, 6, 3746, 3753, 3808, 3783, 3819, 3768, 0, 1, 19493, -89.900, 0.000, 65.800, 0.000, 0.000, -2.900, 0.0, , , , , , 99, , , 49, 49, 49
36.7673030, -118.8834168, 41.700, 13:43:48.849, 20, 0.00, 0.16, 96, -3.600, -0.900, 65.400, 841, 100, 96, 17, 22689, -19521, 5362, 5586, 6, 14, 1523738628.849, 51, 0, 1024, 1024, 1024, 1024, 0, 6, 3746, 3753, 3808, 3783, 3819, 3768, 0, 1, 19593, -89.900, 0.000, 65.800, 0.000, 0.000, -2.900, 0.0, , , , , , 99, , , 49, 49, 49
36.7673031, -118.8834166, 42.300, 13:43:48.948, 20, 0.10, 0.14, 96, -3.300, -0.100, 65.100, 841, 100, 96, 17, 22689, -19521, 5362, 5586, 6, 14, 1523738628.950, 44, 0, 1024, 1024, 1024, 1024, 0, 6, 3746, 3753, 3808, 3783, 3819, 3768, 0, 1, 19694, -89.900, 0.000, 65.800, 0.100, 0.000, -3.000, 0.0, , , , , , 99, , , 49, 49, 49
36.7673032, -118.8834166, 42.600, 13:43:49.049, 20, 0.10, 0.14, 96, -2.800, 0.300, 64.900, 841, 100, 96, 17, 22689, -19521, 5362, 5586, 6, 14, 1523738629.049, 53, 0, 1024, 1024, 1024, 1024, 0, 6, 3746, 3753, 3808, 3783, 3819, 3768, 0, 1, 19793, -89.900, 0.000, 65.900, 0.100, 0.000, -3.000, 0.0, , , , , , 99, , , 49, 49, 49
36.7673034, -118.8834165, 42.900, 13:43:49.150, 20, 0.10, 0.14, 96, -2.400, 0.500, 64.800, 841, 100, 96, 17, 22689, -19521, 5362, 5586, 6, 14, 1523738629.150, 28, 0, 1024, 1024, 1024, 1024, 0, 6, 3746, 3753, 3808, 3783, 3819, 3768, 0, 1, 19894, -89.900, 0.000, 65.900, 0.100, 0.000, -3.000, 0.0, , , , , , 99, , , 49, 49, 49
36.7673035, -118.8834165, 43.200, 13:43:49.249, 20, 0.10, 0.14, 96, -2.100, 0.600, 64.700, 841, 100, 96, 17, 22596, -19521, 5362, 5586, 6, 14, 1523738629.250, 23, 0, 1024, 1024, 1024, 1024, 0, 6, 3740, 3730, 3798, 3764, 3792, 3759, 0, 1, 19994, -89.900, 0.000, 65.800, 0.100, 0.000, -3.000, 0.0, , , , , , 99, , , 49, 49, 49
36.7673036, -118.8834165, 43.500, 13:43:49.349, 20, 0.10, 0.14, 96, -1.800, 0.600, 64.700, 841, 100, 96, 17, 22596, -19521, 5362, 5586, 6, 14, 1523738629.349, 22, 0, 1024, 1024, 1024, 1024, 0, 6, 3740, 3730, 3798, 3764, 3792, 3759, 0, 1, 20093, -89.900, 0.000, 65.800, 0.100, 0.000, -3.100, 0.0, , , , , , 99, , , 49, 49, 49
36.7673036, -118.8834164, 43.800, 13:43:49.449, 20, 0.10, 0.14, 96, -2.000, 0.500, 64.700, 841, 100, 96, 17, 22596, -19521, 5362, 5586, 6, 14, 1523738629.449, 22, 0, 1024, 1024, 1024, 1024, 0, 6, 3740, 3730, 3798, 3764, 3792, 3759, 0, 1, 20193, -89.900, 0.000, 65.800, 0.100, 0.000, -3.200, 0.0, , , , , , 99, , , 49, 49, 49
36.7673037, -118.8834164, 44.200, 13:43:49.549, 20, 0.00, 0.13, 96, -2.400, 0.500, 64.600, 841, 100, 96, 17, 22596, -19521, 5362, 5586, 6, 14, 1523738629.549, 56, 0, 1024, 1024, 1024, 1024, 0, 6, 3740, 3730, 3798, 3764, 3792, 3759, 0, 1, 20293, -89.900, 0.000, 65.800, 0.000, 0.000, -3.200, 0.0, , , , , , 99, , , 49, 49, 49
36.7673037, -118.8834164, 44.500, 13:43:49.649, 20, 0.00, 0.13, 96, -2.800, 0.300, 64.600, 841, 100, 96, 17, 22596, -19521, 5362, 5586, 6, 14, 1523738629.650, 10, 0, 1024, 1024, 1024, 1024, 0, 6, 3740, 3730, 3798, 3764, 3792, 3759, 0, 1, 20394, -89.900, 0.000, 65.800, 0.000, 0.000, -3.200, 0.0, , , , , , 99, , , 49, 49, 49
36.7673037, -118.8834163, 44.800, 13:43:49.749, 20, 0.00, 0.13, 96, -2.800, 0.200, 64.600, 841, 100, 96, 17, 22596, -19521, 5362, 5586, 6, 14, 1523738629.751, 25, 0, 1024, 1024, 1024, 1024, 0, 6, 3740, 3730, 3798, 3764, 3792, 3759, 0, 1, 20494, -89.900, 0.000, 65.800, 0.000, 0.000, -3.200, 0.0, , , , , , 99, , , 49, 49, 49
36.7673037, -118.8834162, 45.100, 13:43:49.848, 20, 0.00, 0.12, 96, -2.800, 0.200, 64.600, 841, 100, 94, 17, 22596, -19521, 5362, 5586, 6, 14, 1523738629.849, 7, 0, 1024, 1024, 1024, 1024, 0, 6, 3740, 3730, 3798, 3764, 3792, 3759, 0, 1, 20593, -89.900, 0.000, 65.800, 0.000, 0.000, -3.100, 0.0, , , , , , 99, , , 49, 49, 49
36.7673037, -118.8834161, 45.500, 13:43:49.949, 20, 0.00, 0.11, 96, -3.200, 0.500, 64.600, 841, 100, 94, 17, 22596, -19521, 5362, 5586, 6, 14, 1523738629.951, 12, 0, 1024, 1024, 1024, 1024, 0, 6, 3740, 3730, 3798, 3764, 3792, 3759, 0, 1, 20695, -89.900, 0.000, 65.800, 0.000, 0.000, -3.200, 0.0, , , , , , 99, , , 49, 49, 49
36.7673036, -118.8834160, 45.800, 13:43:50.050, 20, 0.10, 0.10, 96, -3.800, 0.700, 64.400, 841, 100, 94, 17, 22596, -19521, 5362, 5586, 6, 14, 1523738630.053, 22, 0, 1024, 1024, 1024, 1024, 0, 6, 3740, 3730, 3798, 3764, 3792, 3759, 0, 1, 20797, -89.900, 0.000, 65.800, 0.000, 0.100, -3.100, 0.0, , , , , , 99, , , 49, 49, 49
36.7673036, -118.8834159, 46.100, 13:43:50.157, 20, 0.10, 0.09, 96, -4.700, 1.100, 64.300, 841, 100, 94, 17, 22596, -19521, 5362, 5586, 6, 14, 1523738630.158, 13, 0, 1024, 1024, 1024, 1024, 0, 6, 3740, 3730, 3798, 3764, 3792, 3759, 0, 1, 20902, -89.900, 0.000, 65.800, 0.000, 0.100, -3.100, 0.0, , , , , , 99, , , 49, 49, 49
36.7673036, -118.8834159, 46.100, 13:43:50.249, 20, 0.10, 0.09, 96, -4.700, 1.100, 64.300, 841, 100, 94, 17, 22596, -19521, 5362, 5586, 6, 14, 1523738630.249, 104, 0, 1024, 1024, 1024, 1024, 0, 6, 3740, 3730, 3798, 3764, 3792, 3759, 0, 1, 20993, -89.900, 0.000, 65.800, 0.000, 0.100, -3.100, 0.0, , , , , , 99, , , 49, 49, 49
