latitude,longitude,altitude(feet),ascent(feet),speed(mph),distance(feet),time(millisecond),datetime(utc),satellites,gpslevel,voltage(v),max_altitude(feet),max_ascent(feet),max_speed(mph),max_distance(feet), xSpeed(mph), ySpeed(mph), zSpeed(mph), compass_heading(degrees), pitch(degrees), roll(degrees),isPhoto,isVideo,rc_elevator,rc_aileron,rc_throttle,rc_rudder,gimbal_heading(degrees),gimbal_pitch(degrees),battery_percent,voltageCell1,voltageCell2,voltageCell3,voltageCell4,voltageCell5,voltageCell6,current(A),battery_temperature(f),flycStateRaw,flycState,message
36.7672911,-118.8834244,5724.400180228,0,0.4921268,0,3300,2018-04-14 20:02:57,13,0,0,5724.400180228,0,0.4921268,0,0,0,0,58.1, 1, 1.2,1,0,1024,1024,1024,1024,58.9,-89.9,100,4.171,4.174,4.257,4.265,0,0,0,60.8,11,AutoTakeoff,
36.7672909,-118.8834249,5724.400180228,0,0.3131716,0.163340884492,3400,2018-04-14 20:02:57,12,0,0,5724.400180228,0,0.4921268,0.163340884492,0,0,0,58.3, -0.8, 0.6,0,0,1024,1024,1024,1024,58.8,-89.9,100,4.171,4.174,4.257,4.265,0,0,0,60.8,11,AutoTakeoff,
36.7672909,-118.8834252,5724.728264228,0.328084,0.3131716,0.244938656132,3500,2018-04-14 20:02:57,13,0,0,5724.728264228,0.328084,0.4921268,0.244938656132,0,0,0,58.5, -1.3, 0.4,0,0,1024,1024,1024,1024,58.9,-89.9,100,4.171,4.174,4.257,4.265,0,0,0,60.8,11,AutoTakeoff,
36.7672908,-118.8834254,5724.728264228,0.328084,0.223694,0.312094170092,3600,2018-04-14 20:02:57,13,0,0,5724.728264228,0.328084,0.4921268,0.312094170092,0,0,0,58.6, -1.7, 0.1,0,0,1024,1024,1024,1024,58.9,-89.9,100,4.171,4.174,4.257,4.265,0,0,0,60.8,11,AutoTakeoff,
36.7672908,-118.8834255,5725.056348228,0.656168,0,0.33961943344,3700,2018-04-14 20:02:57,12,0,0,5725.056348228,0.656168,0.4921268,0.33961943344,0,0,0,58.7, -1.8, -0.1,0,0,1024,1024,1024,1024,58.9,-89.9,100,4.171,4.174,4.257,4.265,0,0,0,60.8,11,AutoTakeoff,
36.7672907,-118.8834257,5725.056348228,0.656168,0,0.40701772956,3800,2018-04-14 20:02:57,12,0,0,5725.056348228,0.656168,0.4921268,0.40701772956,0,0,0,58.7, -1.3, -0.2,0,0,1024,1024,1024,1024,58.9,-89.9,100,4.171,4.174,4.257,4.265,0,0,0,60.8,11,AutoTakeoff,
36.7672907,-118.8834259,5725.384432228,0.984252,0,0.46206038224,3900,2018-04-14 20:02:58,12,0,0,5725.384432228,0.984252,0.4921268,0.46206038224,0,0,0,58.6, -0.8, -0.1,0,0,1024,1024,1024,1024,58.9,-89.9,100,4.171,4.174,4.257,4.265,0,0,0,60.8,11,AutoTakeoff,
36.7672907,-118.8834259,5725.384432228,0.984252,0,0.46206038224,4000,2018-04-14 20:02:58,12,0,23.749,5725.384432228,0.984252,0.4921268,0.46206038224,0,0,0,58.6, -0.5, 0,0,0,1024,1024,1024,1024,58.9,-89.9,100,4.171,4.174,4.257,4.265,0,0,15.435,60.8,11,AutoTakeoff,
36.7672907,-118.8834259,5725.712516228,1.312336,0,0.46206038224,4100,2018-04-14 20:02:58,13,0,23.749,5725.712516228,1.312336,0.4921268,0.46206038224,0,0,0,58.5, -0.3, 0,0,0,1024,1024,1024,1024,58.9,-89.9,100,4.171,4.174,4.257,4.265,0,0,15.435,60.8,11,AutoTakeoff,
36.7672907,-118.8834259,5725.712516228,1.312336,0,0.46206038224,4300,2018-04-14 20:02:58,13,0,23.749,5725.712516228,1.312336,0.4921268,0.46206038224,0,0,0,58.4, 0, 0,0,0,1024,1024,1024,1024,58.9,-89.9,100,4.171,4.174,4.257,4.265,0,0,15.435,60.8,11,AutoTakeoff,
36.7672908,-118.8834259,5725.712516228,1.312336,0,0.45186353152,4400,2018-04-14 20:02:58,14,0,23.749,5725.712516228,1.312336,0.4921268,0.46206038224,0,0,0,58.3, 0.2, 0,0,0,1024,1024,1024,1024,58.9,-89.9,100,4.171,4.174,4.257,4.265,0,0,15.435,60.8,11,AutoTakeoff,
36.7672909,-118.8834259,5726.040600228,1.64042,0,0.4444389906,4500,2018-04-14 20:02:58,12,0,23.749,5726.040600228,1.64042,0.4921268,0.46206038224,0,0,0,58.1, 0.5, 0,0,0,1024,1024,1024,1024,58.9,-89.9,100,4.171,4.174,4.257,4.265,0,0,15.435,60.8,11,AutoTakeoff,
36.7672909,-118.8834259,5726.368684228,1.968504,0,0.4444389906,4700,2018-04-14 20:02:58,12,0,23.749,5726.368684228,1.968504,0.4921268,0.46206038224,0,0,0,58, 0.4, 0,0,0,1024,1024,1024,1024,58.9,-89.9,100,4.171,4.174,4.257,4.265,0,0,15.435,60.8,11,AutoTakeoff,
36.7672909,-118.8834259,5726.368684228,1.968504,0,0.4444389906,4800,2018-04-14 20:02:58,12,0,23.749,5726.368684228,1.968504,0.4921268,0.46206038224,0,0,-0.223694,58, 0.3, 0,0,0,1024,1024,1024,1024,58.9,-89.9,100,4.171,4.174,4.257,4.265,0,0,15.435,60.8,11,AutoTakeoff,
36.7672909,-118.8834259,5726.696768228,2.296588,0,0.4444389906,4900,2018-04-14 20:02:59,12,0,23.749,5726.696768228,2.296588,0.4921268,0.46206038224,0,0,-0.223694,57.9, 0.1, 0,0,0,1024,1024,1024,1024,58.9,-89.9,100,4.171,4.174,4.257,4.265,0,0,15.435,60.8,11,AutoTakeoff,
36.7672909,-118.8834258,5727.024852228,2.624672,0,0.41563649624,5000,2018-04-14 20:02:59,13,0,23.749,5727.024852228,2.624672,0.4921268,0.46206038224,0,0,-0.223694,57.9, 0.1, 0,0,0,1024,1024,1024,1024,58.9,-89.9,100,3.921,3.986,3.945,3.973,0,0,15.435,60.8,11,AutoTakeoff,
36.7672909,-118.8834259,5727.024852228,2.624672,0,0.4444389906,5100,2018-04-14 20:02:59,13,0,23.749,5727.024852228,2.624672,0.4921268,0.46206038224,0,0,-0.223694,58, 0.2, 0.1,0,0,1024,1024,1024,1024,58.9,-89.9,100,3.921,3.986,3.945,3.973,0,0,15.435,60.8,11,AutoTakeoff,
36.7672909,-118.8834259,5727.352936228,2.952756,0,0.4444389906,5200,2018-04-14 20:02:59,12,0,23.749,5727.352936228,2.952756,0.4921268,0.46206038224,0,0,-0.223694,58, 0.3, 0,0,0,1024,1024,1024,1024,58.9,-89.9,100,3.921,3.986,3.945,3.973,0,0,15.435,60.8,6,P-GPS,
36.7672909,-118.8834259,5727.352936228,2.952756,0,0.4444389906,5300,2018-04-14 20:02:59,12,0,23.749,5727.352936228,2.952756,0.4921268,0.46206038224,0,0,0,58.1, 0.4, 0,0,0,1024,1024,1024,1024,58.9,-89.9,100,3.921,3.986,3.945,3.973,0,0,15.435,60.8,14,Waypoint,
36.7672908,-118.8834258,5727.681020228,3.28084,0,0.42356628652,5400,2018-04-14 20:02:59,11,0,23.749,5727.681020228,3.28084,0.4921268,0.46206038224,0,0,0,58.2, 1, -0.3,0,0,1024,1024,1024,1024,58.9,-89.9,100,3.921,3.986,3.945,3.973,0,0,15.435,60.8,14,Waypoint,
36.7672908,-118.8834258,5727.681020228,3.28084,0,0.42356628652,5500,2018-04-14 20:02:59,11,0,23.749,5727.681020228,3.28084,0.4921268,0.46206038224,0,0,0,58.3, 1.3, -0.7,0,0,1024,1024,1024,1024,58.9,-89.9,100,3.921,3.986,3.945,3.973,0,0,15.435,60.8,14,Waypoint,
36.7672907,-118.8834258,5727.681020228,3.28084,0,0.43442586692,5600,2018-04-14 20:02:59,11,0,23.749,5727.681020228,3.28084,0.4921268,0.46206038224,0,0,0,58.4, 1.3, -0.8,0,0,1024,1024,1024,1024,58.9,-89.9,100,3.921,3.986,3.945,3.973,0,0,15.435,60.8,14,Waypoint,
36.7672907,-118.8834257,5727.681020228,3.28084,0,0.40701772956,5700,2018-04-14 20:02:59,11,0,23.749,5727.681020228,3.28084,0.4921268,0.46206038224,0,0,0,58.5, 1.1, -0.9,0,0,1024,1024,1024,1024,58.9,-89.9,100,3.921,3.986,3.945,3.973,0,0,15.435,60.8,14,Waypoint,
36.7672907,-118.8834257,5728.009104228,3.608924,0,0.40701772956,5800,2018-04-14 20:02:59,10,0,23.749,5728.009104228,3.608924,0.4921268,0.46206038224,0,0,-0.223694,58.6, 1, -0.8,0,0,1024,1024,1024,1024,58.9,-89.9,100,3.921,3.986,3.945,3.973,0,0,15.435,60.8,14,Waypoint,
36.7672906,-118.8834256,5728.665272228,4.265092,0,0.39533137748,5900,2018-04-14 20:03:00,12,0,23.749,5728.665272228,4.265092,0.4921268,0.46206038224,0,0,-0.223694,58.5, 0.7, -0.7,0,0,1024,1024,1024,1024,58.9,-89.9,100,3.921,3.986,3.945,3.973,0,0,15.435,60.8,14,Waypoint,
36.7672905,-118.8834255,5728.993356228,4.593176,0,0.38895014368,6100,2018-04-14 20:03:00,12,0,23.749,5728.993356228,4.593176,0.4921268,0.46206038224,0,0,-0.223694,58.4, 0.5, -0.6,0,0,1024,1024,1024,1024,58.9,-89.9,100,3.921,3.986,3.945,3.973,0,0,15.435,60.8,14,Waypoint,
36.7672906,-118.8834255,5729.649524228,5.249344,0,0.36964896196,6200,2018-04-14 20:03:00,10,0,23.749,5729.649524228,5.249344,0.4921268,0.46206038224,0,0,-0.223694,58.2, 0.4, -0.4,0,0,1024,1024,1024,1024,58.9,-89.9,100,3.921,3.986,3.945,3.973,0,0,15.435,60.8,14,Waypoint,
36.7672907,-118.8834255,5730.305692228,5.905512,0,0.35307087744,6300,2018-04-14 20:03:00,14,0,23.749,5730.305692228,5.905512,0.4921268,0.46206038224,0,0,-0.447388,58.1, 0.5, -0.5,0,0,1024,1024,1024,1024,58.9,-89.9,100,3.921,3.986,3.945,3.973,0,0,15.435,60.8,14,Waypoint,
36.7672908,-118.8834255,5730.961860228,6.56168,0,0.33961943344,6400,2018-04-14 20:03:00,14,0,23.749,5730.961860228,6.56168,0.4921268,0.46206038224,0,0,-0.447388,58.1, 0.6, -0.6,0,0,1024,1024,1024,1024,58.9,-89.9,100,3.921,3.986,3.945,3.973,0,0,15.435,60.8,14,Waypoint,
36.7672909,-118.8834255,5731.618028228,7.217848,0,0.3296752074,6510,2018-04-14 20:03:00,13,0,23.749,5731.618028228,7.217848,0.4921268,0.46206038224,0,0,-0.447388,58.1, 0.8, -0.5,0,0,1024,1024,1024,1024,58.9,-89.9,100,3.921,3.986,3.945,3.973,0,0,15.435,60.8,14,Waypoint,
36.7672909,-118.8834255,5732.274196228,7.874016,0,0.3296752074,6600,2018-04-14 20:03:00,13,0,23.749,5732.274196228,7.874016,0.4921268,0.46206038224,0,0,-0.447388,58.1, 0.7, -0.2,0,0,1024,1024,1024,1024,58.9,-89.9,100,3.921,3.986,3.945,3.973,0,0,15.435,60.8,14,Waypoint,
36.7672909,-118.8834255,5733.258448228,8.858268,0,0.3296752074,6700,2018-04-14 20:03:00,12,0,23.749,5733.258448228,8.858268,0.4921268,0.46206038224,0,0,-0.671082,58.1, 0.8, 0,0,0,1024,1024,1024,1024,58.9,-89.9,100,3.921,3.986,3.945,3.973,0,0,15.435,60.8,14,Waypoint,
36.7672909,-118.8834255,5733.914616228,9.514436,0,0.3296752074,6800,2018-04-14 20:03:00,12,0,23.749,5733.914616228,9.514436,0.4921268,0.46206038224,0,0,-0.671082,58.1, 0.8, 0.1,0,0,1024,1024,1024,1024,58.9,-89.9,100,3.921,3.986,3.945,3.973,0,0,15.435,60.8,14,Waypoint,
36.767291,-118.8834254,5734.898868228,10.498688,0,0.294539707588,6900,2018-04-14 20:03:01,10,0,23.749,5734.898868228,10.498688,0.4921268,0.46206038224,0,0,-0.671082,58.1, 0.8, 0.1,0,0,1024,1024,1024,1024,58.9,-89.9,100,3.921,3.986,3.945,3.973,0,0,15.435,60.8,14,Waypoint,
36.767291,-118.8834254,5735.883120228,11.48294,0,0.294539707588,7000,2018-04-14 20:03:01,10,0,22.825,5735.883120228,11.48294,0.4921268,0.46206038224,0,0,-0.671082,58.1, 0.9, 0,0,0,1024,1024,1024,1024,58.9,-89.9,98,3.941,3.982,3.921,3.906,0,0,22.736,60.8,14,Waypoint,
36.7672911,-118.8834255,5737.195456228,12.795276,0,0.321498369868,7110,2018-04-14 20:03:01,10,0,22.825,5737.195456228,12.795276,0.4921268,0.46206038224,0,0,-0.671082,58.1, 0.9, -0.1,0,0,1024,1024,1024,1024,58.9,-89.9,98,3.941,3.982,3.921,3.906,0,0,22.736,60.8,14,Waypoint,
36.7672912,-118.8834256,5738.179708228,13.779528,0,0.35261812152,7200,2018-04-14 20:03:01,10,0,22.825,5738.179708228,13.779528,0.4921268,0.46206038224,0,0,-0.671082,58.1, 0.8, 0,0,0,1024,1024,1024,1024,58.9,-89.9,98,3.941,3.982,3.921,3.906,0,0,22.736,60.8,14,Waypoint,
36.7672913,-118.8834257,5739.163960228,14.76378,0,0.38689633784,7400,2018-04-14 20:03:01,11,0,22.825,5739.163960228,14.76378,0.4921268,0.46206038224,0,0,-0.671082,58.1, 0.7, 0.2,0,0,1024,1024,1024,1024,58.9,-89.9,98,3.941,3.982,3.921,3.906,0,0,22.736,60.8,14,Waypoint,
36.7672911,-118.8834256,5741.460548228,17.060368,0,0.35072507684,7520,2018-04-14 20:03:01,11,0,22.825,5741.460548228,17.060368,0.4921268,0.46206038224,0,0,-0.671082,58.1, 0.7, 0.2,0,0,1024,1024,1024,1024,58.9,-89.9,98,3.941,3.982,3.921,3.906,0,0,22.736,60.8,14,Waypoint,
36.7672911,-118.8834256,5741.460548228,17.060368,0,0.35072507684,7600,2018-04-14 20:03:01,11,0,22.825,5741.460548228,17.060368,0.4921268,0.46206038224,0,0,-0.671082,58.1, 0.7, 0.2,0,0,1024,1024,1024,1024,58.9,-89.9,98,3.941,3.982,3.921,3.906,0,0,22.736,60.8,14,Waypoint,
36.7672911,-118.8834257,5742.444800228,18.04462,0,0.37995079956,7700,2018-04-14 20:03:01,11,0,22.825,5742.444800228,18.04462,0.4921268,0.46206038224,0,0,-0.671082,58.2, 0.6, 0,0,0,1024,1024,1024,1024,58.9,-89.9,98,3.941,3.982,3.921,3.906,0,0,22.736,60.8,14,Waypoint,
36.7672912,-118.8834259,5743.757136228,19.356956,0,0.43992127392,7800,2018-04-14 20:03:01,13,0,22.825,5743.757136228,19.356956,0.4921268,0.46206038224,0,0,-0.671082,58.2, 0.5, 0,0,0,1024,1024,1024,1024,58.9,-89.9,98,3.941,3.982,3.921,3.906,0,0,22.736,60.8,14,Waypoint,
36.7672916,-118.8834264,5744.741388228,20.341208,0,0.61234582012,7900,2018-04-14 20:03:02,13,0,22.825,5744.741388228,20.341208,0.4921268,0.61234582012,0,0,-0.671082,58.2, 0.2, 0.2,0,0,1024,1024,1024,1024,58.9,-89.9,98,3.941,3.982,3.921,3.906,0,0,22.736,60.8,14,Waypoint,
36.7672919,-118.8834269,5746.053724228,21.653544,0,0.78681761048,8000,2018-04-14 20:03:02,12,0,22.825,5746.053724228,21.653544,0.4921268,0.78681761048,0,0,-0.671082,58.2, 0, 0.9,0,0,1024,1024,1024,1024,58.9,-90,98,3.768,3.822,3.811,3.794,0,0,22.736,60.8,14,Waypoint,
36.767292,-118.8834271,5747.037976228,22.637796,0,0.8547244368,8100,2018-04-14 20:03:02,12,0,22.825,5747.037976228,22.637796,0.4921268,0.8547244368,0,0,-0.671082,58.1, -0.2, 1.8,0,0,1024,1024,1024,1024,58.9,-90,98,3.768,3.822,3.811,3.794,0,0,22.736,60.8,14,Waypoint,
36.7672922,-118.8834272,5748.350312228,23.950132,0,0.91147312628,8210,2018-04-14 20:03:02,13,0,22.825,5748.350312228,23.950132,0.4921268,0.91147312628,0,0,-0.671082,58.1, -0.1, 2.3,0,0,1024,1024,1024,1024,58.9,-89.9,98,3.768,3.822,3.811,3.794,0,0,22.736,60.8,14,Waypoint,
36.7672922,-118.8834271,5749.334564228,24.934384,0,0.88532483148,8300,2018-04-14 20:03:02,13,0,22.825,5749.334564228,24.934384,0.4921268,0.91147312628,0,0,-0.671082,58.1, 0, 2.4,0,0,1024,1024,1024,1024,58.9,-89.9,98,3.768,3.822,3.811,3.794,0,0,22.736,60.8,14,Waypoint,
36.7672922,-118.8834271,5750.318816228,25.918636,0,0.88532483148,8400,2018-04-14 20:03:02,13,0,22.825,5750.318816228,25.918636,0.4921268,0.91147312628,0,0,-0.671082,58.1, 0.2, 1.9,0,0,1024,1024,1024,1024,58.9,-89.9,98,3.768,3.822,3.811,3.794,0,0,22.736,60.8,14,Waypoint,
36.7672921,-118.8834269,5751.631152228,27.230972,0,0.81670278204,8500,2018-04-14 20:03:02,13,0,22.825,5751.631152228,27.230972,0.4921268,0.91147312628,0,0,-0.671082,58, 0.4, 1.2,0,0,1024,1024,1024,1024,58.9,-89.9,98,3.768,3.822,3.811,3.794,0,0,22.736,60.8,14,Waypoint,
36.7672918,-118.8834266,5753.599656228,29.199476,0.223694,0.69186025836,8600,2018-04-14 20:03:02,14,0,22.825,5753.599656228,29.199476,0.4921268,0.91147312628,0,0,-0.671082,58, 0.8, -0.2,0,0,1024,1024,1024,1024,58.9,-89.9,98,3.768,3.822,3.811,3.794,0,0,22.736,60.8,14,Waypoint,
36.7672917,-118.8834264,5754.583908228,30.183728,0.223694,0.62418965252,8700,2018-04-14 20:03:02,15,0,22.825,5754.583908228,30.183728,0.4921268,0.91147312628,0,0,-0.671082,57.9, 1, -0.8,0,0,1024,1024,1024,1024,58.9,-89.9,98,3.768,3.822,3.811,3.794,0,0,22.736,60.8,14,Waypoint,
36.7672918,-118.8834262,5756.880496228,32.480316,0,0.58480316832,8900,2018-04-14 20:03:03,15,0,22.825,5756.880496228,32.480316,0.4921268,0.91147312628,0,0,-0.671082,58, 1.1, -0.8,0,0,1024,1024,1024,1024,58.9,-89.9,98,3.768,3.822,3.811,3.794,0,0,22.736,60.8,14,Waypoint,
36.7672919,-118.883426,5757.864748228,33.464568,0,0.55125001764,9000,2018-04-14 20:03:03,15,0,22.73,5757.864748228,33.464568,0.4921268,0.91147312628,0,0,-0.671082,58.1, 1.2, -0.6,0,0,1024,1024,1024,1024,58.9,-89.9,98,3.762,3.818,3.792,3.819,0,0,22.919,60.8,14,Waypoint,
36.767292,-118.8834257,5758.849000228,34.44882,0,0.5021817746,9100,2018-04-14 20:03:03,16,0,22.73,5758.849000228,34.44882,0.4921268,0.91147312628,0,0,-0.671082,58.2, 1.3, -0.1,0,0,1024,1024,1024,1024,58.9,-89.9,98,3.762,3.818,3.792,3.819,0,0,22.919,60.8,14,Waypoint,
36.7672921,-118.8834255,5759.833252228,35.433072,0,0.48628938564,9200,2018-04-14 20:03:03,16,0,22.73,5759.833252228,35.433072,0.4921268,0.91147312628,0,0,-0.671082,58.2, 1.6, 0,0,0,1024,1024,1024,1024,58.9,-89.9,98,3.762,3.818,3.792,3.819,0,0,22.919,60.8,14,Waypoint,
36.7672922,-118.8834253,5760.817504228,36.417324,0,0.4798556584,9300,2018-04-14 20:03:03,16,0,22.73,5760.817504228,36.417324,0.4921268,0.91147312628,0,0,-0.671082,58.2, 1.9, -0.1,0,0,1024,1024,1024,1024,58.9,-89.9,98,3.762,3.818,3.792,3.819,0,0,22.919,60.8,14,Waypoint,
36.7672921,-118.8834251,5761.801756228,37.401576,0,0.41829725748,9400,2018-04-14 20:03:03,16,0,22.73,5761.801756228,37.401576,0.4921268,0.91147312628,0,0,-0.671082,58.2, 2.1, -0.1,0,0,1024,1024,1024,1024,58.9,-89.9,98,3.762,3.818,3.792,3.819,0,0,22.919,60.8,14,Waypoint,
36.767292,-118.8834249,5762.786008228,38.385828,0,0.359416022,9510,2018-04-14 20:03:03,16,0,22.73,5762.786008228,38.385828,0.4921268,0.91147312628,0,0,-0.671082,58.2, 2.3, -0.3,0,0,1024,1024,1024,1024,58.9,-89.9,98,3.762,3.818,3.792,3.819,0,0,22.919,60.8,14,Waypoint,
36.7672919,-118.8834247,5763.770260228,39.37008,0,0.304765101616,9600,2018-04-14 20:03:03,16,0,22.73,5763.770260228,39.37008,0.4921268,0.91147312628,0,0,-0.671082,58.3, 2.2, -0.6,0,0,1024,1024,1024,1024,58.9,-89.9,98,3.762,3.818,3.792,3.819,0,0,22.919,60.8,14,Waypoint,
36.7672917,-118.8834245,5764.754512228,40.354332,0,0.220852041188,9710,2018-04-14 20:03:03,16,0,22.73,5764.754512228,40.354332,0.4921268,0.91147312628,0,0,-0.671082,58.3, 2.2, -0.9,0,0,1024,1024,1024,1024,58.9,-89.9,98,3.762,3.818,3.792,3.819,0,0,22.919,60.8,14,Waypoint,
36.7672915,-118.8834243,5766.066848228,41.666668,0,0.148837603188,9800,2018-04-14 20:03:03,16,0,22.73,5766.066848228,41.666668,0.4921268,0.91147312628,0,0,-0.671082,58.4, 2, -1,0,0,1024,1024,1024,1024,58.9,-89.9,98,3.762,3.818,3.792,3.819,0,0,22.919,60.8,14,Waypoint,
36.7672913,-118.8834241,5767.051100228,42.65092,0,0.114072838296,10000,2018-04-14 20:03:04,13,0,22.964,5767.051100228,42.65092,0.4921268,0.91147312628,0,0,-0.671082,58.3, 1.8, -1.3,0,0,1024,1024,1024,1024,58.9,-89.9,98,3.798,3.849,3.834,3.828,0,0,19.151,60.8,14,Waypoint,
36.767291,-118.8834239,5768.035352228,43.635172,0,0.150621067812,10100,2018-04-14 20:03:04,13,0,22.964,5768.035352228,43.635172,0.4921268,0.91147312628,0,0,-0.671082,58.3, 1.7, -1.7,0,0,1024,1024,1024,1024,58.9,-89.9,98,3.798,3.849,3.834,3.828,0,0,19.151,60.8,14,Waypoint,
36.7672908,-118.8834238,5769.019604228,44.619424,0,0.206718182468,10200,2018-04-14 20:03:04,14,0,22.964,5769.019604228,44.619424,0.4921268,0.91147312628,0,0,-0.671082,58.3, 1.6, -2,0,0,1024,1024,1024,1024,58.9,-89.9,98,3.798,3.849,3.834,3.828,0,0,19.151,60.8,14,Waypoint,
36.7672905,-118.8834236,5770.003856228,45.603676,0,0.320299550932,10300,2018-04-14 20:03:04,14,0,22.964,5770.003856228,45.603676,0.4921268,0.91147312628,0,0,-0.671082,58.3, 1.4, -2.2,0,0,1024,1024,1024,1024,58.9,-89.9,98,3.798,3.849,3.834,3.828,0,0,19.151,60.8,14,Waypoint,
36.7672903,-118.8834235,5770.988108228,46.587928,0,0.39291996008,10400,2018-04-14 20:03:04,14,0,22.964,5770.988108228,46.587928,0.4921268,0.91147312628,0,0,-0.671082,58.4, 1.1, -2.3,0,0,1024,1024,1024,1024,58.9,-89.9,98,3.798,3.849,3.834,3.828,0,0,19.151,60.8,14,Waypoint,
36.7672901,-118.8834235,5771.644276228,47.244096,0,0.4497867598,10500,2018-04-14 20:03:04,14,0,22.964,5771.644276228,47.244096,0.4921268,0.91147312628,0,0,-0.671082,58.4, 0.8, -2.5,0,0,1024,1024,1024,1024,58.9,-90,98,3.798,3.849,3.834,3.828,0,0,19.151,60.8,14,Waypoint,
36.7672899,-118.8834235,5772.956612228,48.556432,0,0.5107611712,10600,2018-04-14 20:03:04,15,0,22.964,5772.956612228,48.556432,0.4921268,0.91147312628,0,0,-0.671082,58.3, 0.6, -2.4,0,0,1024,1024,1024,1024,58.9,-89.9,98,3.798,3.849,3.834,3.828,0,0,19.151,60.8,14,Waypoint,
36.7672898,-118.8834236,5773.940864228,49.540684,0,0.5288057912,10700,2018-04-14 20:03:04,15,0,22.964,5773.940864228,49.540684,0.4921268,0.91147312628,0,0,-0.671082,58.2, 0.5, -2,0,0,1024,1024,1024,1024,58.9,-90,98,3.798,3.849,3.834,3.828,0,0,19.151,60.8,14,Waypoint,
36.7672895,-118.8834236,5775.909368228,51.509188,0,0.62884516448,10800,2018-04-14 20:03:04,13,0,22.964,5775.909368228,51.509188,0.4921268,0.91147312628,0,0,-0.671082,57.9, 0.4, -1.6,0,0,1024,1024,1024,1024,58.9,-90,98,3.798,3.849,3.834,3.828,0,0,19.151,60.8,14,Waypoint,
36.7672893,-118.8834237,5777.877872228,53.477692,0,0.68785763356,11000,2018-04-14 20:03:05,15,0,22.962,5777.877872228,53.477692,0.4921268,0.91147312628,0,0,-0.671082,57.8, 0.5, -1.6,0,0,1024,1024,1024,1024,58.9,-89.9,98,3.803,3.839,3.832,3.832,0,0,19.445,60.8,14,Waypoint,
36.7672891,-118.8834239,5779.518292228,55.118112,0,0.74418965636,11200,2018-04-14 20:03:05,15,0,22.962,5779.518292228,55.118112,0.4921268,0.91147312628,0,0,-0.671082,58, 0.6, -1.3,0,0,1024,1024,1024,1024,58.9,-89.9,98,3.803,3.839,3.832,3.832,0,0,19.445,60.8,14,Waypoint,
36.7672891,-118.8834239,5780.502544228,56.102364,0,0.74418965636,11300,2018-04-14 20:03:05,15,0,22.962,5780.502544228,56.102364,0.4921268,0.91147312628,0,0,-0.671082,58.1, 0.4, -1.3,0,0,1024,1024,1024,1024,58.9,-89.9,98,3.803,3.839,3.832,3.832,0,0,19.445,60.8,14,Waypoint,
36.7672891,-118.8834241,5781.486796228,57.086616,0,0.73494753008,11400,2018-04-14 20:03:05,15,0,22.962,5781.486796228,57.086616,0.4921268,0.91147312628,0,0,-0.671082,58.1, 0.2, -1.3,0,0,1024,1024,1024,1024,58.9,-90,98,3.803,3.839,3.832,3.832,0,0,19.445,60.8,14,Waypoint,
36.7672891,-118.8834242,5782.471048228,58.070868,0,0.732037425,11500,2018-04-14 20:03:05,13,0,22.962,5782.471048228,58.070868,0.4921268,0.91147312628,0,0,-0.671082,58.2, 0.2, -1.2,0,0,1024,1024,1024,1024,58.9,-90,98,3.803,3.839,3.832,3.832,0,0,19.445,60.8,14,Waypoint,
36.7672891,-118.8834245,5784.439552228,60.039372,0.223694,0.73028545644,11700,2018-04-14 20:03:05,15,0,22.962,5784.439552228,60.039372,0.4921268,0.91147312628,0,0,-0.671082,58.2, 0, -0.9,0,0,1024,1024,1024,1024,58.9,-90,98,3.803,3.839,3.832,3.832,0,0,19.445,60.8,14,Waypoint,
36.7672891,-118.8834247,5785.423804228,61.023624,0.223694,0.73494753008,11900,2018-04-14 20:03:06,15,0,22.962,5785.423804228,61.023624,0.4921268,0.91147312628,0,0,-0.671082,58.2, -0.1, -0.7,0,0,1024,1024,1024,1024,58.9,-90,98,3.803,3.839,3.832,3.832,0,0,19.445,60.8,14,Waypoint,
36.7672892,-118.8834248,5786.408056228,62.007876,0.3131716,0.703001991,12000,2018-04-14 20:03:06,15,0,22.91,5786.408056228,62.007876,0.4921268,0.91147312628,0,0,-0.671082,58.2, -0.2, -0.6,0,0,1024,1024,1024,1024,58.9,-90,98,3.793,3.848,3.826,3.823,0,0,19.349,60.8,14,Waypoint,
36.7672892,-118.883425,5787.392308228,62.992128,0.223694,0.71504923548,12100,2018-04-14 20:03:06,15,0,22.91,5787.392308228,62.992128,0.4921268,0.91147312628,0,0,-0.671082,58.2, -0.2, -0.4,0,0,1024,1024,1024,1024,58.9,-89.9,98,3.793,3.848,3.826,3.823,0,0,19.349,60.8,14,Waypoint,
36.7672893,-118.8834251,5788.376560228,63.97638,0.223694,0.68785763356,12200,2018-04-14 20:03:06,15,0,22.91,5788.376560228,63.97638,0.4921268,0.91147312628,0,0,-0.671082,58.3, -0.1, -0.3,0,0,1024,1024,1024,1024,58.9,-90,98,3.793,3.848,3.826,3.823,0,0,19.349,60.8,14,Waypoint,
36.7672893,-118.8834252,5789.360812228,64.960632,0.223694,0.69710960236,12300,2018-04-14 20:03:06,15,0,22.91,5789.360812228,64.960632,0.4921268,0.91147312628,0,0,-0.671082,58.3, -0.1, -0.2,0,0,1024,1024,1024,1024,58.9,-89.9,98,3.793,3.848,3.826,3.823,0,0,19.349,60.8,14,Waypoint,
36.7672894,-118.8834253,5790.345064228,65.944884,0.223694,0.67371721316,12400,2018-04-14 20:03:06,15,0,22.91,5790.345064228,65.944884,0.4921268,0.91147312628,0,0,-0.671082,58.2, 0, -0.1,0,0,1024,1024,1024,1024,58.9,-89.9,98,3.793,3.848,3.826,3.823,0,0,19.349,60.8,14,Waypoint,
36.7672895,-118.8834254,5791.329316228,66.929136,0.223694,0.6528379474,12500,2018-04-14 20:03:06,15,0,22.91,5791.329316228,66.929136,0.4921268,0.91147312628,0,0,-0.671082,58.1, 0, -0.2,0,0,1024,1024,1024,1024,58.9,-89.9,98,3.793,3.848,3.826,3.823,0,0,19.349,60.8,14,Waypoint,
36.7672896,-118.8834256,5792.313568228,67.913388,0.223694,0.65001314416,12600,2018-04-14 20:03:06,14,0,22.91,5792.313568228,67.913388,0.4921268,0.91147312628,0,0,-0.671082,58.1, 0.1, 0.1,0,0,1024,1024,1024,1024,58.9,-89.9,98,3.793,3.848,3.826,3.823,0,0,19.349,60.8,14,Waypoint,
36.7672897,-118.8834257,5793.297820228,68.89764,0.223694,0.63660763192,12700,2018-04-14 20:03:06,14,0,22.91,5793.297820228,68.89764,0.4921268,0.91147312628,0,0,-0.671082,58, 0.4, 0.3,0,0,1024,1024,1024,1024,58.9,-89.9,98,3.793,3.848,3.826,3.823,0,0,19.349,60.8,14,Waypoint,
36.7672899,-118.8834259,5795.266324228,70.866144,0,0.619586634,12800,2018-04-14 20:03:06,16,0,22.91,5795.266324228,70.866144,0.4921268,0.91147312628,0,0,-0.671082,57.9, 0.5, 0.2,0,0,1024,1024,1024,1024,58.8,-89.9,98,3.793,3.848,3.826,3.823,0,0,19.349,60.8,14,Waypoint,
36.7672899,-118.8834261,5796.250576228,71.850396,0,0.662237554,12900,2018-04-14 20:03:07,15,0,22.91,5796.250576228,71.850396,0.4921268,0.91147312628,0,0,-0.671082,57.8, 0.3, 0,0,0,1024,1024,1024,1024,58.9,-89.9,98,3.793,3.848,3.826,3.823,0,0,19.349,60.8,14,Waypoint,
36.76729,-118.8834262,5797.234828228,72.834648,0,0.66169293456,13000,2018-04-14 20:03:07,15,0,22.873,5797.234828228,72.834648,0.4921268,0.91147312628,0,0,-0.671082,57.8, 0.1, -0.1,0,0,1024,1024,1024,1024,58.9,-89.9,98,3.794,3.825,3.813,3.827,0,0,19.451,60.8,14,Waypoint,
36.7672901,-118.8834262,5798.219080228,73.8189,0,0.6402231176,13100,2018-04-14 20:03:07,15,0,22.873,5798.219080228,73.8189,0.4921268,0.91147312628,0,0,-0.671082,57.8, 0, -0.1,0,0,1024,1024,1024,1024,58.9,-89.9,98,3.794,3.825,3.813,3.827,0,0,19.451,60.8,14,Waypoint,
36.7672902,-118.8834263,5799.203332228,74.803152,0,0.64513453508,13200,2018-04-14 20:03:07,15,0,22.873,5799.203332228,74.803152,0.4921268,0.91147312628,0,0,-0.671082,57.9, -0.2, 0,0,0,1024,1024,1024,1024,58.9,-90,98,3.794,3.825,3.813,3.827,0,0,19.451,60.8,14,Waypoint,
36.7672903,-118.8834264,5800.187584228,75.787404,0,0.6533628818,13310,2018-04-14 20:03:07,14,0,22.873,5800.187584228,75.787404,0.4921268,0.91147312628,0,0,-0.671082,58, -0.2, 0.1,0,0,1024,1024,1024,1024,58.9,-90,98,3.794,3.825,3.813,3.827,0,0,19.451,60.8,14,Waypoint,
36.7672904,-118.8834265,5801.171836228,76.771656,0,0.66478348584,13400,2018-04-14 20:03:07,14,0,22.873,5801.171836228,76.771656,0.4921268,0.91147312628,0,0,-0.671082,58.1, -0.2, 0.2,0,0,1024,1024,1024,1024,58.9,-89.9,98,3.794,3.825,3.813,3.827,0,0,19.451,60.8,14,Waypoint,
36.7672905,-118.8834266,5802.156088228,77.755908,0,0.67923886688,13520,2018-04-14 20:03:07,15,0,22.873,5802.156088228,77.755908,0.4921268,0.91147312628,0,0,-0.671082,58.2, 0, 0.4,0,0,1024,1024,1024,1024,58.9,-89.9,98,3.794,3.825,3.813,3.827,0,0,19.451,60.8,14,Waypoint,
36.7672905,-118.8834266,5802.156088228,77.755908,0,0.67923886688,13600,2018-04-14 20:03:07,15,0,22.873,5802.156088228,77.755908,0.4921268,0.91147312628,0,0,-0.671082,58.2, 0, 0.4,0,0,1024,1024,1024,1024,58.9,-89.9,98,3.794,3.825,3.813,3.827,0,0,19.451,60.8,14,Waypoint,
36.7672908,-118.8834268,5804.124592228,79.724412,0,0.70993768676,13710,2018-04-14 20:03:07,17,0,22.873,5804.124592228,79.724412,0.4921268,0.91147312628,0,0,-0.671082,58.2, 0.2, 0.6,0,0,1024,1024,1024,1024,58.9,-89.9,98,3.794,3.825,3.813,3.827,0,0,19.451,60.8,14,Waypoint,
36.7672908,-118.8834268,5805.108844228,80.708664,0,0.70993768676,13900,2018-04-14 20:03:08,17,0,22.873,5805.108844228,80.708664,0.4921268,0.91147312628,0,0,-0.671082,58.2, 0.1, 0.6,0,0,1024,1024,1024,1024,58.9,-89.9,98,3.794,3.825,3.813,3.827,0,0,19.451,60.8,14,Waypoint,
36.7672909,-118.8834269,5806.093096228,81.692916,0,0.73431104712,14000,2018-04-14 20:03:08,17,0,22.873,5806.093096228,81.692916,0.4921268,0.91147312628,0,0,-0.671082,58.2, 0, 0.6,0,0,1024,1024,1024,1024,58.9,-89.9,98,3.794,3.825,3.813,3.827,0,0,19.451,60.8,14,Waypoint,
36.767291,-118.8834269,5807.077348228,82.677168,0,0.73158794992,14100,2018-04-14 20:03:08,17,0,22.873,5807.077348228,82.677168,0.4921268,0.91147312628,0,0,-0.671082,58.2, 0.1, 0.5,0,0,1024,1024,1024,1024,58.9,-89.9,98,3.794,3.825,3.813,3.827,0,0,19.451,60.8,14,Waypoint,
36.7672911,-118.8834269,5808.061600228,83.66142,0,0.73067915724,14200,2018-04-14 20:03:08,16,0,22.873,5808.061600228,83.66142,0.4921268,0.91147312628,0,0,-0.671082,58.2, 0.2, 0.4,0,0,1024,1024,1024,1024,58.9,-89.9,98,3.794,3.825,3.813,3.827,0,0,19.451,60.8,14,Waypoint,
36.7672911,-118.883427,5809.045852228,84.645672,0,0.75990487996,14300,2018-04-14 20:03:08,16,0,22.873,5809.045852228,84.645672,0.4921268,0.91147312628,0,0,-0.671082,58.2, 0.2, 0.4,0,0,1024,1024,1024,1024,58.9,-89.9,98,3.794,3.825,3.813,3.827,0,0,19.451,60.8,14,Waypoint,
36.7672912,-118.883427,5810.030104228,85.629924,0,0.76078086424,14400,2018-04-14 20:03:08,17,0,22.873,5810.030104228,85.629924,0.4921268,0.91147312628,0,0,-0.671082,58.3, 0.4, 0.4,0,0,1024,1024,1024,1024,58.9,-89.9,98,3.794,3.825,3.813,3.827,0,0,19.451,60.8,14,Waypoint,
36.7672913,-118.8834271,5811.998608228,87.598428,0,0.79250002536,14600,2018-04-14 20:03:08,17,0,22.873,5811.998608228,87.598428,0.4921268,0.91147312628,0,0,-0.671082,58.3, 0.3, 0.4,0,0,1024,1024,1024,1024,58.9,-89.9,98,3.794,3.825,3.813,3.827,0,0,19.451,60.8,14,Waypoint,
36.7672913,-118.8834271,5812.982860228,88.58268,0,0.79250002536,14700,2018-04-14 20:03:08,17,0,22.873,5812.982860228,88.58268,0.4921268,0.91147312628,0,0,-0.671082,58.3, 0.3, 0.3,0,0,1024,1024,1024,1024,58.9,-90,98,3.794,3.825,3.813,3.827,0,0,19.451,60.8,14,Waypoint,
36.7672913,-118.8834271,5814.951364228,90.551184,0,0.79250002536,14800,2018-04-14 20:03:08,17,0,22.873,5814.951364228,90.551184,0.4921268,0.91147312628,0,0,-0.671082,58.2, 0, 0.1,0,0,1024,1024,1024,1024,58.9,-89.9,98,3.794,3.825,3.813,3.827,0,0,19.451,60.8,14,Waypoint,
36.7672913,-118.8834271,5816.919868228,92.519688,0,0.79250002536,15000,2018-04-14 20:03:09,17,0,22.828,5816.919868228,92.519688,0.4921268,0.91147312628,0,0,-0.671082,58, -0.1, 0,0,0,1024,1024,1024,1024,58.9,-89.9,98,3.775,3.83,3.816,3.811,0,0,19.424,60.8,14,Waypoint,
36.7672913,-118.883427,5817.904120228,93.50394,0,0.76339897456,15100,2018-04-14 20:03:09,17,0,22.828,5817.904120228,93.50394,0.4921268,0.91147312628,0,0,-0.671082,57.9, 0, -0.2,0,0,1024,1024,1024,1024,58.9,-89.9,98,3.775,3.83,3.816,3.811,0,0,19.424,60.8,14,Waypoint,
36.7672913,-118.883427,5818.888372228,94.488192,0,0.76339897456,15200,2018-04-14 20:03:09,17,0,22.828,5818.888372228,94.488192,0.4921268,0.91147312628,0,0,-0.671082,58, 0, -0.3,0,0,1024,1024,1024,1024,58.9,-89.9,98,3.775,3.83,3.816,3.811,0,0,19.424,60.8,14,Waypoint,
36.7672913,-118.883427,5819.872624228,95.472444,0,0.76339897456,15300,2018-04-14 20:03:09,17,0,22.828,5819.872624228,95.472444,0.4921268,0.91147312628,0,0,-0.671082,58, 0, -0.3,0,0,1024,1024,1024,1024,58.9,-89.9,98,3.775,3.83,3.816,3.811,0,0,19.424,60.8,14,Waypoint,
36.7672913,-118.8834268,5822.825380228,98.4252,0,0.70523624304,15620,2018-04-14 20:03:09,17,0,22.828,5822.825380228,98.4252,0.4921268,0.91147312628,0,0,-0.671082,58, 0.5, -0.3,0,0,1024,1024,1024,1024,58.9,-89.9,98,3.775,3.83,3.816,3.811,0,0,19.424,60.8,14,Waypoint,
36.7672913,-118.8834267,5823.809632228,99.409452,0,0.67617128148,15710,2018-04-14 20:03:09,17,0,22.828,5823.809632228,99.409452,0.4921268,0.91147312628,0,0,-0.671082,57.9, 0.6, -0.3,0,0,1024,1024,1024,1024,58.9,-89.9,98,3.775,3.83,3.816,3.811,0,0,19.424,60.8,14,Waypoint,
36.7672913,-118.8834267,5823.809632228,99.409452,0,0.67617128148,15800,2018-04-14 20:03:09,17,0,22.828,5823.809632228,99.409452,0.4921268,0.91147312628,0,0,-0.671082,57.9, 0.6, -0.3,0,0,1024,1024,1024,1024,58.9,-89.9,98,3.775,3.83,3.816,3.811,0,0,19.424,60.8,14,Waypoint,
36.7672912,-118.8834266,5824.793884228,100.393704,0,0.64403217284,15900,2018-04-14 20:03:10,17,0,22.828,5824.793884228,100.393704,0.4921268,0.91147312628,0,0,-0.671082,57.8, 0.7, -0.4,0,0,1024,1024,1024,1024,58.9,-89.9,98,3.775,3.83,3.816,3.811,0,0,19.424,60.8,14,Waypoint,
36.7672912,-118.8834265,5826.762388228,102.362208,0,0.61485238188,16100,2018-04-14 20:03:10,17,0,22.828,5826.762388228,102.362208,0.4921268,0.91147312628,0,0,-0.671082,57.7, 0.5, -0.6,0,0,1024,1024,1024,1024,58.9,-89.9,98,3.775,3.83,3.816,3.811,0,0,19.424,60.8,14,Waypoint,
36.7672912,-118.8834264,5827.746640228,103.34646,0,0.5856791526,16200,2018-04-14 20:03:10,17,0,22.828,5827.746640228,103.34646,0.4921268,0.91147312628,0,0,-0.671082,57.7, 0.4, -0.6,0,0,1024,1024,1024,1024,58.9,-89.9,98,3.775,3.83,3.816,3.811,0,0,19.424,60.8,14,Waypoint,
36.7672911,-118.8834264,5828.730892228,104.330712,0,0.58454070112,16300,2018-04-14 20:03:10,17,0,22.828,5828.730892228,104.330712,0.4921268,0.91147312628,0,0,-0.671082,57.8, 0.3, -0.4,0,0,1024,1024,1024,1024,58.9,-89.9,98,3.775,3.83,3.816,3.811,0,0,19.424,60.8,14,Waypoint,
36.7672911,-118.8834264,5829.715144228,105.314964,0,0.58454070112,16400,2018-04-14 20:03:10,17,0,22.828,5829.715144228,105.314964,0.4921268,0.91147312628,0,0,-0.671082,58, 0.2, -0.3,0,0,1024,1024,1024,1024,58.9,-90,98,3.775,3.83,3.816,3.811,0,0,19.424,60.8,14,Waypoint,
36.767291,-118.8834264,5830.699396228,106.299216,0,0.5856791526,16500,2018-04-14 20:03:10,17,0,22.828,5830.699396228,106.299216,0.4921268,0.91147312628,0,0,-0.671082,58.1, 0, -0.4,0,0,1024,1024,1024,1024,58.9,-90,98,3.775,3.83,3.816,3.811,0,0,19.424,60.8,14,Waypoint,
36.767291,-118.8834263,5831.683648228,107.283468,0,0.556512485,16600,2018-04-14 20:03:10,17,0,22.828,5831.683648228,107.283468,0.4921268,0.91147312628,0,0,-0.671082,58.3, 0, -0.6,0,0,1024,1024,1024,1024,58.9,-89.9,98,3.775,3.83,3.816,3.811,0,0,19.424,60.8,14,Waypoint,
36.767291,-118.8834263,5832.667900228,108.26772,0,0.556512485,16700,2018-04-14 20:03:10,17,0,22.828,5832.667900228,108.26772,0.4921268,0.91147312628,0,0,-0.671082,58.4, 0, -0.8,0,0,1024,1024,1024,1024,58.9,-89.9,98,3.775,3.83,3.816,3.811,0,0,19.424,60.8,14,Waypoint,
36.7672909,-118.8834263,5833.652152228,109.251972,0,0.5600886006,16800,2018-04-14 20:03:10,17,0,22.828,5833.652152228,109.251972,0.4921268,0.91147312628,0,0,-0.671082,58.4, 0.1, -1,0,0,1024,1024,1024,1024,58.9,-89.9,98,3.775,3.83,3.816,3.811,0,0,19.424,60.8,14,Waypoint,
36.7672908,-118.8834262,5834.636404228,110.236224,0,0.5373523794,16900,2018-04-14 20:03:11,17,0,22.828,5834.636404228,110.236224,0.4921268,0.91147312628,0,0,-0.671082,58.4, 0.1, -1.1,0,0,1024,1024,1024,1024,58.9,-89.9,98,3.775,3.83,3.816,3.811,0,0,19.424,60.8,14,Waypoint,
36.7672908,-118.8834261,5835.620656228,111.220476,0,0.50877298216,17000,2018-04-14 20:03:11,17,0,22.828,5835.620656228,111.220476,0.4921268,0.91147312628,0,0,-0.671082,58.4, 0.2, -1.2,0,0,1024,1024,1024,1024,58.9,-89.9,97,3.774,3.824,3.809,3.81,0,0,19.187,60.8,14,Waypoint,
36.7672907,-118.883426,5837.589160228,113.18898,0,0.4898786246,17100,2018-04-14 20:03:11,17,0,22.828,5837.589160228,113.18898,0.4921268,0.91147312628,0,0,-0.671082,58.4, 0.3, -1.1,0,0,1024,1024,1024,1024,58.9,-89.9,97,3.774,3.824,3.809,3.81,0,0,19.187,60.8,14,Waypoint,
36.7672908,-118.883426,5838.573412228,114.173232,0,0.48027232508,17200,2018-04-14 20:03:11,17,0,22.828,5838.573412228,114.173232,0.4921268,0.91147312628,0,0,-0.671082,58.4, 0.3, -1.1,0,0,1024,1024,1024,1024,58.9,-89.9,97,3.774,3.824,3.809,3.81,0,0,19.187,60.8,14,Waypoint,
36.7672908,-118.883426,5839.557664228,115.157484,0,0.48027232508,17300,2018-04-14 20:03:11,17,0,22.828,5839.557664228,115.157484,0.4921268,0.91147312628,0,0,-0.671082,58.4, 0.3, -0.9,0,0,1024,1024,1024,1024,58.9,-89.9,97,3.774,3.824,3.809,3.81,0,0,19.187,60.8,14,Waypoint,
36.7672907,-118.8834259,5841.526168228,117.125988,0,0.46206038224,17500,2018-04-14 20:03:11,17,0,22.828,5841.526168228,117.125988,0.4921268,0.91147312628,0,0,-0.671082,58.4, 0.4, -0.8,0,0,1024,1024,1024,1024,58.9,-89.9,97,3.774,3.824,3.809,3.81,0,0,19.187,60.8,14,Waypoint,
36.7672907,-118.8834259,5842.510420228,118.11024,0,0.46206038224,17600,2018-04-14 20:03:11,17,0,22.828,5842.510420228,118.11024,0.4921268,0.91147312628,0,0,-0.671082,58.5, 0.5, -0.7,0,0,1024,1024,1024,1024,58.9,-89.9,97,3.774,3.824,3.809,3.81,0,0,19.187,60.8,14,Waypoint,
36.7672907,-118.8834259,5843.166588228,118.766408,0,0.46206038224,17700,2018-04-14 20:03:11,17,0,22.828,5843.166588228,118.766408,0.4921268,0.91147312628,0,0,-0.671082,58.5, 0.7, -0.5,0,0,1024,1024,1024,1024,58.9,-89.9,97,3.774,3.824,3.809,3.81,0,0,19.187,60.8,14,Waypoint,
36.7672907,-118.8834258,5844.150840228,119.75066,0,0.43442586692,17800,2018-04-14 20:03:11,17,0,22.828,5844.150840228,119.75066,0.4921268,0.91147312628,0,0,-0.671082,58.4, 0.8, -0.4,0,0,1024,1024,1024,1024,58.9,-89.9,97,3.774,3.824,3.809,3.81,0,0,19.187,60.8,14,Waypoint,
36.7672907,-118.8834258,5845.135092228,120.734912,0,0.43442586692,17900,2018-04-14 20:03:12,17,0,22.828,5845.135092228,120.734912,0.4921268,0.91147312628,0,0,-0.671082,58.3, 0.7, -0.5,0,0,1024,1024,1024,1024,58.9,-89.9,97,3.774,3.824,3.809,3.81,0,0,19.187,60.8,14,Waypoint,
36.7672906,-118.8834258,5846.119344228,121.719164,0,0.44800198284,18000,2018-04-14 20:03:12,17,0,22.753,5846.119344228,121.719164,0.4921268,0.91147312628,0,0,-0.671082,58.2, 0.5, -0.8,0,0,1024,1024,1024,1024,58.9,-89.9,97,3.763,3.816,3.802,3.803,0,0,18.89,62.6,14,Waypoint,
36.7672906,-118.8834257,5847.103596228,122.703416,0,0.42147639144,18100,2018-04-14 20:03:12,17,0,22.753,5847.103596228,122.703416,0.4921268,0.91147312628,0,0,-0.671082,58.1, 0.4, -0.9,0,0,1024,1024,1024,1024,58.9,-89.9,97,3.763,3.816,3.802,3.803,0,0,18.89,62.6,14,Waypoint,
36.7672905,-118.8834257,5848.087848228,123.687668,0,0.43850395104,18200,2018-04-14 20:03:12,17,0,22.753,5848.087848228,123.687668,0.4921268,0.91147312628,0,0,-0.671082,58, 0.4, -1,0,0,1024,1024,1024,1024,58.9,-89.9,97,3.763,3.816,3.802,3.803,0,0,18.89,62.6,14,Waypoint,
36.7672905,-118.8834257,5849.072100228,124.67192,0,0.43850395104,18310,2018-04-14 20:03:12,17,0,22.753,5849.072100228,124.67192,0.4921268,0.91147312628,0,0,-0.671082,58, 0.4, -1.1,0,0,1024,1024,1024,1024,58.9,-89.9,97,3.763,3.816,3.802,3.803,0,0,18.89,62.6,14,Waypoint,
36.7672905,-118.8834257,5849.072100228,124.67192,0,0.43850395104,18400,2018-04-14 20:03:12,17,0,22.753,5849.072100228,124.67192,0.4921268,0.91147312628,0,0,-0.671082,58, 0.4, -1.1,0,0,1024,1024,1024,1024,58.9,-89.9,97,3.763,3.816,3.802,3.803,0,0,18.89,62.6,14,Waypoint,
36.7672905,-118.8834257,5850.056352228,125.656172,0,0.43850395104,18500,2018-04-14 20:03:12,17,0,22.753,5850.056352228,125.656172,0.4921268,0.91147312628,0,0,-0.671082,58.1, 0.4, -0.9,0,0,1024,1024,1024,1024,58.9,-89.9,97,3.763,3.816,3.802,3.803,0,0,18.89,62.6,14,Waypoint,
36.7672905,-118.8834257,5851.040604228,126.640424,0,0.43850395104,18600,2018-04-14 20:03:12,17,0,22.753,5851.040604228,126.640424,0.4921268,0.91147312628,0,0,-0.671082,58.1, 0.5, -0.6,0,0,1024,1024,1024,1024,58.9,-89.9,97,3.763,3.816,3.802,3.803,0,0,18.89,62.6,14,Waypoint,
36.7672904,-118.8834257,5852.024856228,127.624676,0,0.45781169444,18700,2018-04-14 20:03:12,17,0,22.753,5852.024856228,127.624676,0.4921268,0.91147312628,0,0,-0.671082,58.1, 0.6, -0.4,0,0,1024,1024,1024,1024,58.9,-89.9,97,3.763,3.816,3.802,3.803,0,0,18.89,62.6,14,Waypoint,
36.7672904,-118.8834257,5853.009108228,128.608928,0,0.45781169444,18800,2018-04-14 20:03:12,17,0,22.753,5853.009108228,128.608928,0.4921268,0.91147312628,0,0,-0.671082,58.1, 0.5, -0.5,0,0,1024,1024,1024,1024,58.9,-90,97,3.763,3.816,3.802,3.803,0,0,18.89,62.6,14,Waypoint,
36.7672903,-118.8834257,5853.993360228,129.59318,0,0.47912075024,18900,2018-04-14 20:03:13,17,0,22.753,5853.993360228,129.59318,0.4921268,0.91147312628,0,0,-0.671082,57.9, 0.4, -0.8,0,0,1024,1024,1024,1024,58.9,-89.9,97,3.763,3.816,3.802,3.803,0,0,18.89,62.6,14,Waypoint,
36.7672903,-118.8834256,5854.977612228,130.577432,0,0.45629266552,19000,2018-04-14 20:03:13,17,0,22.753,5854.977612228,130.577432,0.4921268,0.91147312628,0,0,-0.671082,57.8, 0.3, -0.9,0,0,1024,1024,1024,1024,58.9,-89.9,97,3.77,3.81,3.808,3.799,0,0,18.89,62.6,14,Waypoint,
36.7672903,-118.8834256,5855.961864228,131.561684,0,0.45629266552,19100,2018-04-14 20:03:13,17,0,22.753,5855.961864228,131.561684,0.4921268,0.91147312628,0,0,-0.671082,57.8, 0.3, -1.1,0,0,1024,1024,1024,1024,58.8,-89.9,97,3.77,3.81,3.808,3.799,0,0,18.89,62.6,14,Waypoint,
36.7672902,-118.8834256,5856.946116228,132.545936,0,0.48044949044,19200,2018-04-14 20:03:13,17,0,22.753,5856.946116228,132.545936,0.4921268,0.91147312628,0,0,-0.671082,57.8, 0.2, -1.3,0,0,1024,1024,1024,1024,58.9,-90,97,3.77,3.81,3.808,3.799,0,0,18.89,62.6,14,Waypoint,
36.7672901,-118.8834256,5857.930368228,133.530188,0,0.5060859742,19300,2018-04-14 20:03:13,17,0,22.753,5857.930368228,133.530188,0.4921268,0.91147312628,0,0,-0.671082,57.8, 0.1, -1.4,0,0,1024,1024,1024,1024,58.9,-90,97,3.77,3.81,3.808,3.799,0,0,18.89,62.6,14,Waypoint,
36.7672901,-118.8834255,5858.914620228,134.51444,0,0.48628938564,19400,2018-04-14 20:03:13,17,0,22.753,5858.914620228,134.51444,0.4921268,0.91147312628,0,0,-0.671082,57.8, 0.1, -1.3,0,0,1024,1024,1024,1024,58.9,-89.9,97,3.77,3.81,3.808,3.799,0,0,18.89,62.6,14,Waypoint,
36.7672901,-118.8834255,5860.226956228,135.826776,0,0.48628938564,19500,2018-04-14 20:03:13,17,0,22.753,5860.226956228,135.826776,0.4921268,0.91147312628,0,0,-0.671082,57.8, 0.2, -1.3,0,0,1024,1024,1024,1024,58.9,-89.9,97,3.77,3.81,3.808,3.799,0,0,18.89,62.6,14,Waypoint,
36.76729,-118.8834255,5862.195460228,137.79528,0,0.51422901908,19600,2018-04-14 20:03:13,17,0,22.753,5862.195460228,137.79528,0.4921268,0.91147312628,0,0,-0.671082,57.8, 0, -1.3,0,0,1024,1024,1024,1024,58.9,-90,97,3.77,3.81,3.808,3.799,0,0,18.89,62.6,14,Waypoint,
36.76729,-118.8834255,5864.163964228,139.763784,0,0.51422901908,19800,2018-04-14 20:03:13,17,0,22.753,5864.163964228,139.763784,0.4921268,0.91147312628,0,0,-0.671082,57.8, 0.2, -1.2,0,0,1024,1024,1024,1024,58.9,-89.9,97,3.77,3.81,3.808,3.799,0,0,18.89,62.6,14,Waypoint,
36.76729,-118.8834255,5865.148216228,140.748036,0,0.51422901908,19900,2018-04-14 20:03:14,17,0,22.753,5865.148216228,140.748036,0.4921268,0.91147312628,0,0,-0.671082,57.8, 0.2, -1.1,0,0,1024,1024,1024,1024,58.9,-89.9,97,3.77,3.81,3.808,3.799,0,0,18.89,62.6,14,Waypoint,
36.7672899,-118.8834254,5867.116720228,142.71654,0,0.526410778,20100,2018-04-14 20:03:14,17,0,22.753,5867.116720228,142.71654,0.4921268,0.91147312628,0,0,-0.671082,58, 0.1, -1.2,0,0,1024,1024,1024,1024,58.9,-89.9,97,3.77,3.81,3.808,3.799,0,0,18.89,62.6,14,Waypoint,
36.7672899,-118.8834254,5868.100972228,143.700792,0,0.526410778,20200,2018-04-14 20:03:14,17,0,22.753,5868.100972228,143.700792,0.4921268,0.91147312628,0,0,-0.671082,58, 0, -1.2,0,0,1024,1024,1024,1024,58.9,-90,97,3.77,3.81,3.808,3.799,0,0,18.89,62.6,14,Waypoint,
36.76729,-118.8834254,5870.069476228,145.669296,0,0.49647967468,20400,2018-04-14 20:03:14,17,0,22.753,5870.069476228,145.669296,0.4921268,0.91147312628,0,0,-0.671082,58.1, 0, -1,0,0,1024,1024,1024,1024,58.9,-89.9,97,3.77,3.81,3.808,3.799,0,0,18.89,62.6,14,Waypoint,
36.76729,-118.8834255,5871.053728228,146.653548,0,0.51422901908,20500,2018-04-14 20:03:14,17,0,22.753,5871.053728228,146.653548,0.4921268,0.91147312628,0,0,-0.671082,58.2, 0.1, -0.9,0,0,1024,1024,1024,1024,58.9,-89.9,97,3.77,3.81,3.808,3.799,0,0,18.89,62.6,14,Waypoint,
36.76729,-118.8834255,5872.037980228,147.6378,0,0.51422901908,20600,2018-04-14 20:03:14,17,0,22.753,5872.037980228,147.6378,0.4921268,0.91147312628,0,0,-0.671082,58.2, 0.1, -0.7,0,0,1024,1024,1024,1024,58.9,-89.9,97,3.77,3.81,3.808,3.799,0,0,18.89,62.6,14,Waypoint,
36.76729,-118.8834255,5873.022232228,148.622052,0,0.51422901908,20800,2018-04-14 20:03:14,17,0,22.753,5873.022232228,148.622052,0.4921268,0.91147312628,0,0,-0.671082,58.2, 0, -0.7,0,0,1024,1024,1024,1024,58.9,-89.9,97,3.77,3.81,3.808,3.799,0,0,18.89,62.6,14,Waypoint,
36.7672901,-118.8834255,5874.006484228,149.606304,0,0.48628938564,20900,2018-04-14 20:03:15,17,0,22.753,5874.006484228,149.606304,0.4921268,0.91147312628,0,0,-0.671082,58.2, 0, -0.7,0,0,1024,1024,1024,1024,58.9,-89.9,97,3.77,3.81,3.808,3.799,0,0,18.89,62.6,14,Waypoint,
36.7672901,-118.8834255,5874.990736228,150.590556,0,0.48628938564,21000,2018-04-14 20:03:15,17,0,22.697,5874.990736228,150.590556,0.4921268,0.91147312628,0,0,-0.671082,58.2, 0.1, -0.7,0,0,1024,1024,1024,1024,58.9,-89.9,97,3.759,3.81,3.785,3.793,0,0,19.428,62.6,14,Waypoint,
36.7672901,-118.8834255,5875.974988228,151.574808,0,0.48628938564,21100,2018-04-14 20:03:15,17,0,22.697,5875.974988228,151.574808,0.4921268,0.91147312628,0,0,-0.671082,58.2, 0.3, -0.7,0,0,1024,1024,1024,1024,58.9,-89.9,97,3.759,3.81,3.785,3.793,0,0,19.428,62.6,14,Waypoint,
36.7672901,-118.8834254,5876.959240228,152.55906,0,0.46748032992,21200,2018-04-14 20:03:15,17,0,22.697,5876.959240228,152.55906,0.4921268,0.91147312628,0,0,-0.671082,58.2, 0.2, -0.8,0,0,1024,1024,1024,1024,58.9,-89.9,97,3.759,3.81,3.785,3.793,0,0,19.428,62.6,14,Waypoint,
36.7672901,-118.8834254,5877.943492228,153.543312,0,0.46748032992,21300,2018-04-14 20:03:15,17,0,22.697,5877.943492228,153.543312,0.4921268,0.91147312628,0,0,-0.671082,58.1, 0.2, -0.8,0,0,1024,1024,1024,1024,58.9,-89.9,97,3.759,3.81,3.785,3.793,0,0,19.428,62.6,14,Waypoint,
36.7672901,-118.8834254,5878.927744228,154.527564,0,0.46748032992,21400,2018-04-14 20:03:15,17,0,22.697,5878.927744228,154.527564,0.4921268,0.91147312628,0,0,-0.671082,58, 0.3, -0.8,0,0,1024,1024,1024,1024,58.9,-89.9,97,3.759,3.81,3.785,3.793,0,0,19.428,62.6,14,Waypoint,
36.7672901,-118.8834254,5879.911996228,155.511816,0,0.46748032992,21500,2018-04-14 20:03:15,17,0,22.697,5879.911996228,155.511816,0.4921268,0.91147312628,0,0,-0.671082,57.9, 0.3, -0.8,0,0,1024,1024,1024,1024,58.9,-89.9,97,3.759,3.81,3.785,3.793,0,0,19.428,62.6,14,Waypoint,
36.7672901,-118.8834254,5880.896248228,156.496068,0,0.46748032992,21600,2018-04-14 20:03:15,17,0,22.697,5880.896248228,156.496068,0.4921268,0.91147312628,0,0,-0.671082,57.8, 0.2, -0.9,0,0,1024,1024,1024,1024,58.9,-89.9,97,3.759,3.81,3.785,3.793,0,0,19.428,62.6,14,Waypoint,
36.7672902,-118.8834254,5881.880500228,157.48032,0,0.43959647076,21700,2018-04-14 20:03:15,17,0,22.697,5881.880500228,157.48032,0.4921268,0.91147312628,0,0,-0.671082,57.7, 0.2, -1,0,0,1024,1024,1024,1024,58.9,-89.9,97,3.759,3.81,3.785,3.793,0,0,19.428,62.6,14,Waypoint,
36.7672902,-118.8834254,5882.864752228,158.464572,0,0.43959647076,21800,2018-04-14 20:03:15,17,0,22.697,5882.864752228,158.464572,0.4921268,0.91147312628,0,0,-0.671082,57.6, 0.2, -1,0,0,1024,1024,1024,1024,58.9,-89.9,97,3.759,3.81,3.785,3.793,0,0,19.428,62.6,14,Waypoint,
36.7672902,-118.8834254,5883.849004228,159.448824,0,0.43959647076,21900,2018-04-14 20:03:16,17,0,22.697,5883.849004228,159.448824,0.4921268,0.91147312628,0,0,-0.671082,57.6, 0.2, -1,0,0,1024,1024,1024,1024,58.9,-89.9,97,3.759,3.81,3.785,3.793,0,0,19.428,62.6,14,Waypoint,
36.7672902,-118.8834254,5884.833256228,160.433076,0,0.43959647076,22000,2018-04-14 20:03:16,17,0,22.743,5884.833256228,160.433076,0.4921268,0.91147312628,0,0,-0.671082,57.7, 0.2, -1,0,0,1024,1024,1024,1024,58.9,-89.9,97,3.756,3.809,3.804,3.804,0,0,18.367,62.6,14,Waypoint,
36.7672903,-118.8834255,5886.801760228,162.40158,0,0.43422901652,22100,2018-04-14 20:03:16,17,0,22.743,5886.801760228,162.40158,0.4921268,0.91147312628,0,0,-0.671082,58.2, 0.2, -0.4,0,0,1024,1024,1024,1024,58.9,-89.9,97,3.756,3.809,3.804,3.804,0,0,18.367,62.6,14,Waypoint,
36.7672903,-118.8834256,5887.786012228,163.385832,0,0.45629266552,22200,2018-04-14 20:03:16,17,0,22.743,5887.786012228,163.385832,0.4921268,0.91147312628,0,0,-0.671082,58.5, 0.3, -0.1,0,0,1024,1024,1024,1024,58.9,-89.9,97,3.756,3.809,3.804,3.804,0,0,18.367,62.6,14,Waypoint,
36.7672904,-118.8834256,5888.770264228,164.370084,0,0.43386156244,22300,2018-04-14 20:03:16,17,0,22.743,5888.770264228,164.370084,0.4921268,0.91147312628,0,0,-0.671082,58.7, 0.3, 0,0,0,1024,1024,1024,1024,58.9,-89.9,97,3.756,3.809,3.804,3.804,0,0,18.367,62.6,14,Waypoint,
36.7672904,-118.8834257,5889.754516228,165.354336,0,0.45781169444,22400,2018-04-14 20:03:16,17,0,22.743,5889.754516228,165.354336,0.4921268,0.91147312628,0,0,-0.671082,58.8, 0.2, 0.1,0,0,1024,1024,1024,1024,58.9,-89.9,97,3.756,3.809,3.804,3.804,0,0,18.367,62.6,14,Waypoint,
36.7672904,-118.8834257,5890.738768228,166.338588,0,0.45781169444,22500,2018-04-14 20:03:16,17,0,22.743,5890.738768228,166.338588,0.4921268,0.91147312628,0,0,-0.671082,58.9, 0, 0,0,0,1024,1024,1024,1024,58.9,-90,97,3.756,3.809,3.804,3.804,0,0,18.367,62.6,14,Waypoint,
36.7672904,-118.8834258,5891.723020228,167.32284,0,0.48234253512,22610,2018-04-14 20:03:16,17,0,22.743,5891.723020228,167.32284,0.4921268,0.91147312628,0,0,-0.671082,58.8, -0.1, -0.1,0,0,1024,1024,1024,1024,58.9,-90,97,3.756,3.809,3.804,3.804,0,0,18.367,62.6,14,Waypoint,
36.7672904,-118.8834258,5892.707272228,168.307092,0,0.48234253512,22700,2018-04-14 20:03:16,17,0,22.743,5892.707272228,168.307092,0.4921268,0.91147312628,0,0,-0.671082,58.8, -0.2, -0.2,0,0,1024,1024,1024,1024,58.9,-90,97,3.756,3.809,3.804,3.804,0,0,18.367,62.6,14,Waypoint,
36.7672904,-118.8834259,5894.675776228,170.275596,0,0.50737206348,22910,2018-04-14 20:03:17,17,0,22.743,5894.675776228,170.275596,0.4921268,0.91147312628,0,0,-0.671082,58.6, -0.4, -0.4,0,0,1024,1024,1024,1024,58.9,-89.9,97,3.756,3.809,3.804,3.804,0,0,18.367,62.6,14,Waypoint,
36.7672904,-118.883426,5895.660028228,171.259848,0,0.53283138188,23020,2018-04-14 20:03:17,17,0,22.777,5895.660028228,171.259848,0.4921268,0.91147312628,0,0,-0.671082,58.5, -0.4, -0.3,0,0,1024,1024,1024,1024,58.9,-90,97,3.763,3.811,3.815,3.799,0,0,17.769,62.6,14,Waypoint,
36.7672904,-118.883426,5896.644280228,172.2441,0,0.53283138188,23100,2018-04-14 20:03:17,17,0,22.777,5896.644280228,172.2441,0.4921268,0.91147312628,0,0,-0.671082,58.3, -0.3, -0.2,0,0,1024,1024,1024,1024,58.9,-89.9,97,3.763,3.811,3.815,3.799,0,0,17.769,62.6,14,Waypoint,
36.7672904,-118.8834261,5897.628532228,173.228352,0,0.55865815436,23200,2018-04-14 20:03:17,17,0,22.777,5897.628532228,173.228352,0.4921268,0.91147312628,0,0,-0.671082,58.1, -0.4, -0.2,0,0,1024,1024,1024,1024,58.9,-89.9,97,3.763,3.811,3.815,3.799,0,0,17.769,62.6,14,Waypoint,
36.7672904,-118.8834261,5898.612784228,174.212604,0,0.55865815436,23400,2018-04-14 20:03:17,17,0,22.777,5898.612784228,174.212604,0.4921268,0.91147312628,0,0,-0.671082,58, -0.6, -0.2,0,0,1024,1024,1024,1024,58.9,-90,97,3.763,3.811,3.815,3.799,0,0,17.769,62.6,14,Waypoint,
36.7672904,-118.8834262,5899.597036228,175.196856,0,0.58480316832,23500,2018-04-14 20:03:17,17,0,22.777,5899.597036228,175.196856,0.4921268,0.91147312628,0,0,-0.671082,57.8, -0.7, -0.3,0,0,1024,1024,1024,1024,58.9,-90,97,3.763,3.811,3.815,3.799,0,0,17.769,62.6,14,Waypoint,
36.7672904,-118.8834262,5900.581288228,176.181108,0,0.58480316832,23600,2018-04-14 20:03:17,17,0,22.777,5900.581288228,176.181108,0.4921268,0.91147312628,0,0,-0.671082,57.7, -0.7, -0.3,0,0,1024,1024,1024,1024,58.9,-90,97,3.763,3.811,3.815,3.799,0,0,17.769,62.6,14,Waypoint,
36.7672904,-118.8834262,5901.565540228,177.16536,0,0.58480316832,23700,2018-04-14 20:03:17,17,0,22.777,5901.565540228,177.16536,0.4921268,0.91147312628,0,0,-0.671082,57.7, -0.6, -0.3,0,0,1024,1024,1024,1024,58.9,-89.9,97,3.763,3.811,3.815,3.799,0,0,17.769,62.6,14,Waypoint,
36.7672904,-118.8834263,5902.549792228,178.149612,0,0.61123033452,23800,2018-04-14 20:03:17,17,0,22.777,5902.549792228,178.149612,0.4921268,0.91147312628,0,0,-0.671082,57.7, -0.5, -0.4,0,0,1024,1024,1024,1024,58.9,-89.9,97,3.763,3.811,3.815,3.799,0,0,17.769,62.6,14,Waypoint,
36.7672904,-118.8834263,5903.534044228,179.133864,0,0.61123033452,23900,2018-04-14 20:03:18,17,0,22.777,5903.534044228,179.133864,0.4921268,0.91147312628,0,0,-0.671082,57.8, -0.4, -0.3,0,0,1024,1024,1024,1024,58.9,-89.9,97,3.763,3.811,3.815,3.799,0,0,17.769,62.6,14,Waypoint,
36.7672904,-118.8834264,5904.518296228,180.118116,0,0.63790028288,24000,2018-04-14 20:03:18,17,0,22.737,5904.518296228,180.118116,0.4921268,0.91147312628,0,0,-0.671082,57.8, -0.5, -0.3,0,0,1024,1024,1024,1024,58.9,-89.9,97,3.763,3.811,3.815,3.799,0,0,18.177,62.6,14,Waypoint,
36.7672904,-118.8834264,5905.502548228,181.102368,0,0.63790028288,24100,2018-04-14 20:03:18,17,0,22.737,5905.502548228,181.102368,0.4921268,0.91147312628,0,0,-0.671082,57.9, -0.6, -0.3,0,0,1024,1024,1024,1024,58.9,-90,97,3.763,3.811,3.815,3.799,0,0,18.177,62.6,14,Waypoint,
36.7672904,-118.8834264,5906.486800228,182.08662,0,0.63790028288,24200,2018-04-14 20:03:18,17,0,22.737,5906.486800228,182.08662,0.4921268,0.91147312628,0,0,-0.671082,57.9, -0.7, -0.3,0,0,1024,1024,1024,1024,58.9,-89.9,97,3.763,3.811,3.815,3.799,0,0,18.177,62.6,14,Waypoint,
36.7672904,-118.8834264,5907.471052228,183.070872,0,0.63790028288,24300,2018-04-14 20:03:18,17,0,22.737,5907.471052228,183.070872,0.4921268,0.91147312628,0,0,-0.671082,58, -0.7, -0.2,0,0,1024,1024,1024,1024,58.9,-89.9,97,3.763,3.811,3.815,3.799,0,0,18.177,62.6,14,Waypoint,
36.7672904,-118.8834266,5910.423808228,186.023628,0,0.69186025836,24500,2018-04-14 20:03:18,17,0,22.737,5910.423808228,186.023628,0.4921268,0.91147312628,0,0,-0.671082,58.4, -0.6, 0,0,0,1024,1024,1024,1024,58.9,-89.9,97,3.763,3.811,3.815,3.799,0,0,18.177,62.6,14,Waypoint,
36.7672904,-118.8834266,5912.392312228,187.992132,0,0.69186025836,24700,2018-04-14 20:03:18,17,0,22.737,5912.392312228,187.992132,0.4921268,0.91147312628,0,0,-0.671082,58.5, -0.8, -0.3,0,0,1024,1024,1024,1024,58.9,-89.9,97,3.763,3.811,3.815,3.799,0,0,18.177,62.6,14,Waypoint,
36.7672904,-118.8834266,5913.376564228,188.976384,0,0.69186025836,24800,2018-04-14 20:03:18,17,0,22.737,5913.376564228,188.976384,0.4921268,0.91147312628,0,0,-0.671082,58.5, -0.9, -0.3,0,0,1024,1024,1024,1024,58.9,-90,97,3.763,3.811,3.815,3.799,0,0,18.177,62.6,14,Waypoint,
36.7672904,-118.8834266,5915.345068228,190.944888,0,0.69186025836,25000,2018-04-14 20:03:19,17,0,22.76,5915.345068228,190.944888,0.4921268,0.91147312628,0,0,-0.671082,58.3, -0.9, -0.2,0,0,1024,1024,1024,1024,58.9,-89.9,97,3.763,3.812,3.798,3.791,0,0,17.974,62.6,14,Waypoint,
36.7672903,-118.8834266,5916.329320228,191.92914,0,0.70614175488,25120,2018-04-14 20:03:19,17,0,22.76,5916.329320228,191.92914,0.4921268,0.91147312628,0,0,-0.671082,58.2, -0.9, -0.1,0,0,1024,1024,1024,1024,58.9,-89.9,97,3.763,3.812,3.798,3.791,0,0,17.974,62.6,14,Waypoint,
36.7672904,-118.8834266,5917.313572228,192.913392,0,0.69186025836,25200,2018-04-14 20:03:19,17,0,22.76,5917.313572228,192.913392,0.4921268,0.91147312628,0,0,-0.671082,58.1, -0.7, -0.2,0,0,1024,1024,1024,1024,58.9,-89.9,97,3.763,3.812,3.798,3.791,0,0,17.974,62.6,14,Waypoint,
36.7672904,-118.8834266,5918.625908228,194.225728,0,0.69186025836,25300,2018-04-14 20:03:19,17,0,22.76,5918.625908228,194.225728,0.4921268,0.91147312628,0,0,-0.671082,58.1, -0.7, -0.3,0,0,1024,1024,1024,1024,58.9,-89.9,97,3.763,3.812,3.798,3.791,0,0,17.974,62.6,14,Waypoint,
36.7672904,-118.8834266,5919.610160228,195.20998,0,0.69186025836,25400,2018-04-14 20:03:19,17,0,22.76,5919.610160228,195.20998,0.4921268,0.91147312628,0,0,-0.671082,58.1, -0.6, -0.4,0,0,1024,1024,1024,1024,58.9,-89.9,97,3.763,3.812,3.798,3.791,0,0,17.974,62.6,14,Waypoint,
36.7672904,-118.8834266,5920.266328228,195.866148,0,0.69186025836,25500,2018-04-14 20:03:19,17,0,22.76,5920.266328228,195.866148,0.4921268,0.91147312628,0,0,-0.671082,58.1, -0.5, -0.4,0,0,1024,1024,1024,1024,58.9,-89.9,97,3.763,3.812,3.798,3.791,0,0,17.974,62.6,14,Waypoint,
36.7672903,-118.8834265,5921.250580228,196.8504,0,0.67963584852,25700,2018-04-14 20:03:19,17,0,22.76,5921.250580228,196.8504,0.4921268,0.91147312628,0,0,-0.671082,58, -0.5, -0.5,0,0,1024,1024,1024,1024,58.9,-89.9,97,3.763,3.812,3.798,3.791,0,0,17.974,62.6,14,Waypoint,
36.7672903,-118.8834265,5922.562916228,198.162736,0,0.67963584852,25800,2018-04-14 20:03:19,17,0,22.76,5922.562916228,198.162736,0.4921268,0.91147312628,0,0,-0.671082,58, -0.5, -0.6,0,0,1024,1024,1024,1024,58.9,-89.9,97,3.763,3.812,3.798,3.791,0,0,17.974,62.6,14,Waypoint,
36.7672903,-118.8834265,5923.219084228,198.818904,0,0.67963584852,25900,2018-04-14 20:03:20,17,0,22.76,5923.219084228,198.818904,0.4921268,0.91147312628,0,0,-0.671082,58, -0.4, -0.7,0,0,1024,1024,1024,1024,58.9,-89.9,97,3.763,3.812,3.798,3.791,0,0,17.974,62.6,14,Waypoint,
36.7672902,-118.8834264,5924.203336228,199.803156,0,0.6704560582,26000,2018-04-14 20:03:20,17,0,22.76,5924.203336228,199.803156,0.4921268,0.91147312628,0,0,-0.671082,57.9, -0.4, -0.9,0,0,1024,1024,1024,1024,58.9,-89.9,97,3.769,3.81,3.817,3.788,0,0,17.974,62.6,14,Waypoint,
36.7672902,-118.8834264,5925.187588228,200.787408,0,0.6704560582,26100,2018-04-14 20:03:20,17,0,22.76,5925.187588228,200.787408,0.4921268,0.91147312628,0,0,-0.671082,57.9, -0.4, -1,0,0,1024,1024,1024,1024,58.8,-89.9,97,3.769,3.81,3.817,3.788,0,0,17.974,62.6,14,Waypoint,
36.7672902,-118.8834264,5926.171840228,201.77166,0,0.6704560582,26200,2018-04-14 20:03:20,17,0,22.76,5926.171840228,201.77166,0.4921268,0.91147312628,0,0,-0.671082,58, -0.4, -0.8,0,0,1024,1024,1024,1024,58.9,-89.9,97,3.769,3.81,3.817,3.788,0,0,17.974,62.6,14,Waypoint,
36.7672902,-118.8834264,5927.156092228,202.755912,0,0.6704560582,26300,2018-04-14 20:03:20,17,0,22.76,5927.156092228,202.755912,0.4921268,0.91147312628,0,0,-0.671082,58.2, -0.5, -0.6,0,0,1024,1024,1024,1024,58.9,-89.9,97,3.769,3.81,3.817,3.788,0,0,17.974,62.6,14,Waypoint,
36.7672902,-118.8834264,5928.140344228,203.740164,0,0.6704560582,26400,2018-04-14 20:03:20,17,0,22.76,5928.140344228,203.740164,0.4921268,0.91147312628,0,0,-0.671082,58.2, -0.5, -0.5,0,0,1024,1024,1024,1024,58.9,-89.9,97,3.769,3.81,3.817,3.788,0,0,17.974,62.6,14,Waypoint,
36.7672901,-118.8834264,5929.124596228,204.724416,0,0.68906170184,26500,2018-04-14 20:03:20,17,0,22.76,5929.124596228,204.724416,0.4921268,0.91147312628,0,0,-0.671082,58.3, -0.5, -0.5,0,0,1024,1024,1024,1024,58.8,-90,97,3.769,3.81,3.817,3.788,0,0,17.974,62.6,14,Waypoint,
36.7672901,-118.8834264,5930.108848228,205.708668,0,0.68906170184,26600,2018-04-14 20:03:20,17,0,22.76,5930.108848228,205.708668,0.4921268,0.91147312628,0,0,-0.671082,58.5, -0.7, -0.4,0,0,1024,1024,1024,1024,58.8,-90,97,3.769,3.81,3.817,3.788,0,0,17.974,62.6,14,Waypoint,
36.7672901,-118.8834264,5931.093100228,206.69292,0,0.68906170184,26700,2018-04-14 20:03:20,17,0,22.76,5931.093100228,206.69292,0.4921268,0.91147312628,0,0,-0.671082,58.6, -1, -0.4,0,0,1024,1024,1024,1024,58.9,-90,97,3.769,3.81,3.817,3.788,0,0,17.974,62.6,14,Waypoint,
36.76729,-118.8834264,5932.077352228,207.677172,0,0.7090551408,26800,2018-04-14 20:03:20,17,0,22.76,5932.077352228,207.677172,0.4921268,0.91147312628,0,0,-0.671082,58.6, -1.3, -0.8,0,0,1024,1024,1024,1024,58.9,-89.9,97,3.769,3.81,3.817,3.788,0,0,17.974,62.6,14,Waypoint,
36.7672899,-118.8834264,5934.045856228,209.645676,0,0.73032482652,26900,2018-04-14 20:03:21,17,0,22.76,5934.045856228,209.645676,0.4921268,0.91147312628,0,0,-0.671082,58.5, -1.4, -0.9,0,0,1024,1024,1024,1024,58.9,-90,97,3.769,3.81,3.817,3.788,0,0,17.974,62.6,14,Waypoint,
36.7672899,-118.8834264,5935.030108228,210.629928,0,0.73032482652,27100,2018-04-14 20:03:21,17,0,22.76,5935.030108228,210.629928,0.4921268,0.91147312628,0,0,-0.671082,58.5, -1.4, -0.8,0,0,1024,1024,1024,1024,58.9,-89.9,97,3.769,3.81,3.817,3.788,0,0,17.974,62.6,14,Waypoint,
36.7672898,-118.8834264,5936.998612228,212.598432,0,0.75276577212,27200,2018-04-14 20:03:21,17,0,22.76,5936.998612228,212.598432,0.4921268,0.91147312628,0,0,-0.671082,58.3, -1.5, -1,0,0,1024,1024,1024,1024,58.8,-90,97,3.769,3.81,3.817,3.788,0,0,17.974,62.6,14,Waypoint,
36.7672897,-118.8834264,5937.982864228,213.582684,0,0.77626970988,27300,2018-04-14 20:03:21,17,0,22.76,5937.982864228,213.582684,0.4921268,0.91147312628,0,0,-0.671082,58.2, -1.7, -1.4,0,0,1024,1024,1024,1024,58.9,-90,97,3.769,3.81,3.817,3.788,0,0,17.974,62.6,14,Waypoint,
36.7672895,-118.8834263,5939.951368228,215.551188,0,0.80569884468,27500,2018-04-14 20:03:21,17,0,22.76,5939.951368228,215.551188,0.4921268,0.91147312628,0,0,-0.671082,57.9, -1.9, -1.9,0,0,1024,1024,1024,1024,58.8,-89.9,97,3.769,3.81,3.817,3.788,0,0,17.974,62.6,14,Waypoint,
36.7672895,-118.8834263,5940.935620228,216.53544,0,0.80569884468,27600,2018-04-14 20:03:21,17,0,22.76,5940.935620228,216.53544,0.4921268,0.91147312628,0,0,-0.671082,57.8, -1.9, -1.6,0,0,1024,1024,1024,1024,58.9,-89.9,97,3.769,3.81,3.817,3.788,0,0,17.974,62.6,14,Waypoint,
36.7672894,-118.8834263,5941.919872228,217.519692,0,0.83251315,27700,2018-04-14 20:03:21,17,0,22.76,5941.919872228,217.519692,0.4921268,0.91147312628,0,0,-0.671082,57.8, -2, -1.3,0,0,1024,1024,1024,1024,58.9,-89.9,97,3.769,3.81,3.817,3.788,0,0,17.974,62.6,14,Waypoint,
36.7672894,-118.8834264,5943.888376228,219.488196,0,0.85228677268,27910,2018-04-14 20:03:22,17,0,22.76,5943.888376228,219.488196,0.4921268,0.91147312628,0,0,-0.671082,57.9, -2, -1.3,0,0,1024,1024,1024,1024,58.9,-90,97,3.769,3.81,3.817,3.788,0,0,17.974,62.6,14,Waypoint,
36.7672893,-118.8834264,5944.872628228,220.472448,0,0.87919294152,28000,2018-04-14 20:03:22,17,0,22.77,5944.872628228,220.472448,0.4921268,0.91147312628,0,0,-0.671082,58.1, -1.9, -1.5,0,0,1024,1024,1024,1024,58.9,-89.9,96,3.778,3.825,3.811,3.799,0,0,17.532,64.4,14,Waypoint,
36.7672893,-118.8834263,5945.856880228,221.4567,0,0.8600393976,28110,2018-04-14 20:03:22,17,0,22.77,5945.856880228,221.4567,0.4921268,0.91147312628,0,0,-0.671082,58.3, -1.8, -1.6,0,0,1024,1024,1024,1024,58.9,-90,96,3.778,3.825,3.811,3.799,0,0,17.532,64.4,14,Waypoint,
