Latitude, Longitude, Altitude (m), Time, Sats, Speed (m/s), Range (m), Battery (%), Roll (deg), Pitch (deg), Yaw (deg), Images, HD Signal (%), RC Signal (%), Battery Temp (C), Battery Voltage (mV), Battery Current (mA), Battery Energy (mAh), Battery Capacity (mAh), Battery Discharges, flyState, timestamp (Unix), LastUpdate (ms), radioChannel, Rc_elevator, Rc_aileron, Rc_throttle, Rc_rudder, Rc_gyro, Dronetype, Battery_Cell1 (mV), Battery_Cell2 (mV), Battery_Cell3 (mV), Battery_Cell4 (mV), Battery_Cell5 (mV), Battery_Cell6 (mV), Video, isFlying, elapsedTime (ms), gimbalPitch (deg), gimbalRoll (deg), gimbalYaw (deg), VelocityX (m/s), VelocityY (m/s), VelocityZ (m/s), GroundSmear (cm), App Version, Aircraft Name, Aircraft Firmware, Aircraft Serial Number, Battery Serial Number, Battery Lifetime (%), App_Tip, App_Warning, CurrentFlightStartingIndex, CurrentFlightLastVisitedWaypoint, PreviousFlightEndingWaypointIndex
36.7673290, -118.8834299, 0.000, 12:45:00.226, 11, 0.22, 0.07, 100, 0.900, 1.600, 60.900, 210, 100, 100, 15, 24876, -7664, 5548, 5548, 8, 11, 1523735100.227, 12, 0, 1024, 1024, 1024, 1024, 0, 6, 4258, 4234, 4281, 4177, 4175, 4282, 0, 1, 3234, -90.000, 0.000, 63.400, -0.100, -0.200, -0.200, 0.0, MapPilot_2.7.4_02272018, Dendroctonus I, 1.3.1.00, 041DDC1887, 1058171200161, 98, DJI_0208.jpg, Starting Mission from Lat/Long: 36.76734/-118.88342 Camera: Zenmuse X3 - Overlap: 90/90 - Active Connection: Yes, 13, 13, 13
36.7673290, -118.8834299, 0.000, 12:45:00.294, 11, 0.22, 0.07, 100, 0.900, 1.600, 60.900, 210, 100, 100, 15, 24876, -7664, 5548, 5548, 8, 11, 1523735100.295, 81, 0, 1024, 1024, 1024, 1024, 0, 6, 4070, 4110, 4071, 4107, 4091, 4246, 0, 1, 3303, -90.000, 0.000, 63.400, -0.100, -0.200, -0.200, 0.0, , , , , , 98, , , 13, 13, 13
36.7673289, -118.8834301, 0.000, 12:45:00.393, 11, 0.22, 0.09, 100, 0.400, 0.100, 60.900, 210, 100, 100, 15, 24876, -7664, 5548, 5548, 8, 11, 1523735100.393, 24, 0, 1024, 1024, 1024, 1024, 0, 6, 4070, 4110, 4071, 4107, 4091, 4246, 0, 1, 3401, -89.900, 0.000, 63.300, -0.100, -0.200, -0.300, 0.0, , , , , , 98, , , 13, 13, 13
36.7673289, -118.8834304, 0.100, 12:45:00.492, 11, 0.22, 0.12, 100, 0.000, -1.000, 61.100, 210, 100, 100, 15, 24876, -7664, 5548, 5548, 8, 11, 1523735100.493, 25, 0, 1024, 1024, 1024, 1024, 0, 6, 4070, 4110, 4071, 4107, 4091, 4246, 0, 1, 3501, -89.900, 0.000, 63.300, -0.100, -0.200, -0.200, 0.0, , , , , , 98, , , 13, 13, 13
36.7673289, -118.8834304, 0.100, 12:45:00.595, 11, 0.22, 0.12, 100, 0.000, -1.000, 61.100, 210, 100, 100, 15, 24876, -7664, 5548, 5548, 8, 11, 1523735100.596, 128, 0, 1024, 1024, 1024, 1024, 0, 6, 4070, 4110, 4071, 4107, 4091, 4246, 0, 1, 3604, -89.900, 0.000, 63.300, -0.100, -0.200, -0.200, 0.0, , , , , , 98, , , 13, 13, 13
36.7673289, -118.8834306, 0.100, 12:45:00.693, 11, 0.10, 0.14, 100, -0.100, -1.800, 61.300, 210, 100, 100, 15, 24876, -7664, 5548, 5548, 8, 11, 1523735100.695, 92, 0, 1024, 1024, 1024, 1024, 0, 6, 4070, 4110, 4071, 4107, 4091, 4246, 0, 1, 3702, -90.000, 0.000, 63.200, 0.000, -0.100, -0.300, 0.0, , , , , , 98, , , 13, 13, 13
36.7673289, -118.8834308, 0.100, 12:45:00.793, 10, 0.10, 0.16, 100, 0.000, -2.000, 61.500, 210, 100, 100, 15, 24876, -7664, 5548, 5548, 8, 11, 1523735100.795, 89, 0, 1024, 1024, 1024, 1024, 0, 6, 4070, 4110, 4071, 4107, 4091, 4246, 0, 1, 3803, -90.000, 0.000, 63.200, 0.000, -0.100, -0.300, 0.0, , , , , , 98, , , 13, 13, 13
36.7673289, -118.8834310, 0.100, 12:45:00.893, 10, 0.10, 0.17, 100, 0.000, -1.600, 61.700, 210, 100, 100, 15, 24876, -7664, 5548, 5548, 8, 11, 1523735100.894, 57, 0, 1024, 1024, 1024, 1024, 0, 6, 4070, 4110, 4071, 4107, 4091, 4246, 0, 1, 3902, -89.900, 0.000, 63.200, 0.000, -0.100, -0.300, 0.0, , , , , , 98, , , 13, 13, 13
36.7673289, -118.8834312, 0.200, 12:45:00.998, 12, 0.00, 0.18, 100, 0.000, -0.800, 61.800, 210, 100, 100, 15, 24876, -7664, 5548, 5548, 8, 11, 1523735100.999, 16, 0, 1024, 1024, 1024, 1024, 0, 6, 4070, 4110, 4071, 4107, 4091, 4246, 0, 1, 4007, -89.900, 0.000, 63.100, 0.000, 0.000, -0.400, 0.0, , , , , , 98, , , 13, 13, 13
36.7673290, -118.8834313, 0.200, 12:45:01.098, 12, 0.00, 0.19, 100, 0.100, -0.300, 61.900, 210, 100, 100, 15, 24876, -7664, 5548, 5548, 8, 11, 1523735101.099, 12, 0, 1024, 1024, 1024, 1024, 0, 6, 4070, 4110, 4071, 4107, 4091, 4246, 0, 1, 4107, -89.900, 0.000, 63.100, 0.000, 0.000, -0.400, 0.0, , , , , , 98, , , 13, 13, 13
36.7673291, -118.8834313, 0.300, 12:45:01.194, 12, 0.00, 0.19, 100, 0.300, -0.200, 61.900, 210, 100, 100, 15, 24876, -7664, 5548, 5548, 8, 11, 1523735101.195, 8, 0, 1024, 1024, 1024, 1024, 0, 6, 4070, 4110, 4071, 4107, 4091, 4246, 0, 1, 4202, -89.900, 0.000, 63.100, 0.000, 0.000, -0.400, 0.0, , , , , , 98, , , 13, 13, 13
36.7673291, -118.8834313, 0.400, 12:45:01.293, 12, 0.00, 0.19, 100, 0.300, -0.100, 61.800, 210, 100, 100, 15, 23765, -16687, 5548, 5548, 8, 11, 1523735101.293, 33, 0, 1024, 1024, 1024, 1024, 0, 6, 3934, 3958, 3927, 3961, 3951, 3948, 0, 1, 4301, -89.900, 0.000, 63.000, 0.000, 0.000, -0.500, 0.0, , , , , , 98, , , 13, 13, 13
36.7673291, -118.8834314, 0.500, 12:45:01.393, 12, 0.00, 0.19, 100, 0.300, 0.000, 61.800, 210, 100, 100, 15, 23765, -16687, 5548, 5548, 8, 11, 1523735101.393, 10, 0, 1024, 1024, 1024, 1024, 0, 6, 3934, 3958, 3927, 3961, 3951, 3948, 0, 1, 4401, -89.900, 0.000, 63.000, 0.000, 0.000, -0.500, 0.0, , , , , , 98, , , 13, 13, 13
36.7673291, -118.8834314, 0.500, 12:45:01.493, 10, 0.00, 0.20, 100, 0.200, 0.100, 61.700, 210, 100, 100, 15, 23765, -16687, 5548, 5548, 8, 11, 1523735101.493, 51, 0, 1024, 1024, 1024, 1024, 0, 6, 3934, 3958, 3927, 3961, 3951, 3948, 0, 1, 4501, -89.900, 0.000, 63.000, 0.000, 0.000, -0.400, 0.0, , , , , , 98, , , 13, 13, 13
36.7673290, -118.8834314, 0.600, 12:45:01.592, 10, 0.00, 0.19, 100, 0.200, 0.100, 61.600, 210, 100, 100, 15, 23765, -16687, 5548, 5548, 8, 11, 1523735101.592, 81, 0, 1024, 1024, 1024, 1024, 0, 6, 3934, 3958, 3927, 3961, 3951, 3948, 0, 1, 4600, -89.900, 0.000, 62.900, 0.000, 0.000, -0.400, 0.0, , , , , , 98, , , 13, 13, 13
36.7673290, -118.8834313, 0.600, 12:45:01.693, 11, 0.00, 0.19, 100, 0.100, 0.200, 61.400, 210, 100, 100, 15, 23765, -16687, 5548, 5548, 8, 11, 1523735101.694, 69, 0, 1024, 1024, 1024, 1024, 0, 6, 3934, 3958, 3927, 3961, 3951, 3948, 0, 1, 4702, -89.900, 0.000, 62.900, 0.000, 0.000, -0.500, 0.0, , , , , , 98, , , 13, 13, 13
36.7673289, -118.8834312, 0.700, 12:45:01.793, 11, 0.00, 0.19, 100, 0.000, 0.200, 61.300, 210, 100, 100, 15, 23765, -16687, 5548, 5548, 8, 11, 1523735101.794, 71, 0, 1024, 1024, 1024, 1024, 0, 6, 3934, 3958, 3927, 3961, 3951, 3948, 0, 1, 4802, -89.900, 0.000, 62.900, 0.000, 0.000, -0.400, 0.0, , , , , , 98, , , 13, 13, 13
36.7673289, -118.8834311, 0.800, 12:45:01.893, 12, 0.00, 0.18, 100, -0.200, 0.300, 61.200, 210, 100, 100, 15, 23765, -16687, 5548, 5548, 8, 11, 1523735101.894, 64, 0, 1024, 1024, 1024, 1024, 0, 6, 3934, 3958, 3927, 3961, 3951, 3948, 0, 1, 4901, -89.900, 0.000, 62.900, 0.000, 0.000, -0.500, 0.0, , , , , , 98, , , 13, 13, 13
36.7673287, -118.8834308, 0.900, 12:45:01.993, 12, 0.10, 0.16, 100, -0.700, 0.200, 61.200, 210, 100, 100, 15, 23765, -16687, 5548, 5548, 8, 6, 1523735101.994, 64, 0, 1024, 1024, 1024, 1024, 0, 6, 3934, 3958, 3927, 3961, 3951, 3948, 0, 1, 5002, -89.900, 0.000, 62.800, 0.000, 0.100, -0.500, 0.0, , , , , , 98, , , 13, 13, 13
36.7673287, -118.8834305, 0.900, 12:45:02.093, 12, 0.10, 0.14, 100, -1.100, 0.200, 61.300, 210, 100, 100, 15, 23765, -16687, 5548, 5548, 8, 14, 1523735102.094, 64, 0, 1024, 1024, 1024, 1024, 0, 6, 3934, 3958, 3927, 3961, 3951, 3948, 0, 1, 5101, -89.900, 0.000, 62.800, 0.000, 0.100, -0.500, 0.0, , , , , , 98, , , 13, 13, 13
36.7673286, -118.8834303, 1.000, 12:45:02.193, 12, 0.10, 0.13, 100, -1.800, 0.500, 61.300, 210, 100, 100, 15, 23544, -16991, 5548, 5548, 8, 14, 1523735102.193, 27, 0, 1024, 1024, 1024, 1024, 0, 6, 3934, 3958, 3927, 3961, 3951, 3948, 0, 1, 5201, -89.900, 0.000, 62.800, 0.000, 0.100, -0.400, 0.0, , , , , , 98, , , 13, 13, 13
36.7673286, -118.8834301, 1.100, 12:45:02.293, 12, 0.10, 0.12, 100, -2.300, 0.900, 61.400, 210, 100, 100, 15, 23544, -16991, 5548, 5548, 8, 14, 1523735102.294, 45, 0, 1024, 1024, 1024, 1024, 0, 6, 3934, 3958, 3927, 3961, 3951, 3948, 0, 1, 5302, -89.900, 0.000, 62.800, 0.000, 0.100, -0.300, 0.0, , , , , , 98, , , 13, 13, 13
36.7673285, -118.8834299, 1.100, 12:45:02.392, 12, 0.10, 0.12, 100, -2.500, 1.200, 61.500, 210, 100, 100, 15, 23544, -16991, 5548, 5548, 8, 14, 1523735102.392, 43, 0, 1024, 1024, 1024, 1024, 0, 6, 3934, 3958, 3927, 3961, 3951, 3948, 0, 1, 5400, -89.900, 0.000, 62.700, 0.000, 0.100, -0.200, 0.0, , , , , , 98, , , 13, 13, 13
36.7673283, -118.8834296, 1.100, 12:45:02.492, 12, 0.10, 0.12, 100, -2.400, 1.400, 61.600, 210, 100, 100, 15, 23544, -16991, 5548, 5548, 8, 14, 1523735102.493, 17, 0, 1024, 1024, 1024, 1024, 0, 6, 3934, 3958, 3927, 3961, 3951, 3948, 0, 1, 5501, -89.900, 0.000, 62.700, 0.000, 0.100, -0.300, 0.0, , , , , , 98, , , 13, 13, 13
36.7673281, -118.8834294, 1.200, 12:45:02.593, 12, 0.10, 0.14, 100, -2.200, 1.600, 61.700, 210, 100, 100, 15, 23544, -16991, 5548, 5548, 8, 14, 1523735102.594, 27, 0, 1024, 1024, 1024, 1024, 0, 6, 3917, 3915, 3905, 3936, 3927, 3912, 0, 1, 5601, -89.900, 0.000, 62.700, 0.000, 0.100, -0.400, 0.0, , , , , , 98, , , 13, 13, 13
36.7673280, -118.8834292, 1.200, 12:45:02.693, 12, 0.00, 0.15, 100, -2.100, 1.600, 61.700, 210, 100, 100, 15, 23544, -16991, 5548, 5548, 8, 14, 1523735102.694, 23, 0, 1024, 1024, 1024, 1024, 0, 6, 3917, 3915, 3905, 3936, 3927, 3912, 0, 1, 5702, -89.900, 0.000, 62.700, 0.000, 0.000, -0.500, 0.0, , , , , , 98, , , 13, 13, 13
36.7673279, -118.8834291, 1.300, 12:45:02.792, 12, 0.00, 0.16, 100, -2.000, 1.300, 61.600, 210, 100, 100, 15, 23544, -16991, 5548, 5548, 8, 14, 1523735102.793, 10, 0, 1024, 1024, 1024, 1024, 0, 6, 3917, 3915, 3905, 3936, 3927, 3912, 0, 1, 5801, -89.900, 0.000, 62.600, 0.000, 0.000, -0.800, 0.0, , , , , , 98, , , 13, 13, 13
36.7673280, -118.8834289, 1.400, 12:45:02.897, 12, 0.00, 0.16, 100, -2.100, 1.000, 61.400, 210, 100, 100, 15, 23544, -16991, 5548, 5548, 8, 14, 1523735102.897, 4, 0, 1024, 1024, 1024, 1024, 0, 6, 3917, 3915, 3905, 3936, 3927, 3912, 0, 1, 5905, -89.900, 0.000, 62.600, 0.000, 0.000, -1.000, 0.0, , , , , , 98, , , 13, 13, 13
36.7673280, -118.8834288, 1.500, 12:45:02.992, 11, 0.00, 0.15, 100, -2.100, 0.800, 61.200, 210, 100, 100, 15, 23544, -16991, 5548, 5548, 8, 14, 1523735102.993, 28, 0, 1024, 1024, 1024, 1024, 0, 6, 3917, 3915, 3905, 3936, 3927, 3912, 0, 1, 6001, -89.900, 0.000, 62.600, 0.000, 0.000, -1.200, 0.0, , , , , , 98, , , 13, 13, 13
36.7673280, -118.8834288, 1.500, 12:45:03.093, 11, 0.00, 0.15, 100, -2.100, 0.800, 61.200, 210, 100, 100, 15, 23544, -16991, 5548, 5548, 8, 14, 1523735103.094, 128, 0, 1024, 1024, 1024, 1024, 0, 6, 3917, 3915, 3905, 3936, 3927, 3912, 0, 1, 6101, -89.900, 0.000, 62.600, 0.000, 0.000, -1.200, 0.0, , , , , , 98, , , 13, 13, 13
36.7673281, -118.8834288, 1.700, 12:45:03.193, 11, 0.00, 0.14, 100, -2.100, 0.900, 61.100, 210, 100, 100, 15, 23544, -16991, 5548, 5548, 8, 14, 1523735103.194, 96, 0, 1024, 1024, 1024, 1024, 0, 6, 3917, 3915, 3905, 3936, 3927, 3912, 0, 1, 6202, -89.900, 0.000, 62.600, 0.000, 0.000, -1.300, 0.0, , , , , , 98, , , 13, 13, 13
36.7673283, -118.8834288, 1.800, 12:45:03.293, 11, 0.00, 0.12, 100, -1.800, 1.100, 61.100, 210, 100, 100, 15, 23544, -16991, 5548, 5548, 8, 14, 1523735103.294, 97, 0, 1024, 1024, 1024, 1024, 0, 6, 3917, 3915, 3905, 3936, 3927, 3912, 0, 1, 6301, -89.900, 0.000, 62.600, 0.000, 0.000, -1.500, 0.0, , , , , , 98, , , 13, 13, 13
36.7673287, -118.8834287, 2.000, 12:45:03.393, 11, 0.10, 0.09, 100, -1.200, 1.400, 61.100, 210, 100, 100, 15, 23544, -16991, 5548, 5548, 8, 14, 1523735103.394, 82, 0, 1024, 1024, 1024, 1024, 0, 6, 3917, 3915, 3905, 3936, 3927, 3912, 0, 1, 6402, -89.900, 0.000, 62.600, 0.100, 0.000, -1.700, 0.0, , , , , , 98, , , 13, 13, 13
36.7673290, -118.8834288, 2.200, 12:45:03.492, 11, 0.10, 0.06, 100, -0.300, 1.700, 61.100, 210, 100, 100, 15, 23544, -16991, 5548, 5548, 8, 14, 1523735103.493, 86, 0, 1024, 1024, 1024, 1024, 0, 6, 3917, 3915, 3905, 3936, 3927, 3912, 0, 1, 6500, -89.900, 0.000, 62.500, 0.100, 0.000, -1.900, 0.0, , , , , , 98, , , 13, 13, 13
36.7673293, -118.8834288, 2.400, 12:45:03.594, 11, 0.10, 0.04, 100, 0.400, 2.000, 61.200, 210, 100, 100, 15, 23544, -16991, 5548, 5548, 8, 14, 1523735103.595, 78, 0, 1024, 1024, 1024, 1024, 0, 6, 3917, 3915, 3905, 3936, 3927, 3912, 0, 1, 6602, -89.900, 0.000, 62.500, 0.100, 0.000, -2.100, 0.0, , , , , , 98, , , 13, 13, 13
36.7673296, -118.8834289, 2.600, 12:45:03.693, 14, 0.10, 0.04, 100, 1.000, 2.100, 61.200, 210, 100, 100, 15, 23435, -17034, 5548, 5548, 8, 14, 1523735103.694, 54, 0, 1024, 1024, 1024, 1024, 0, 6, 3881, 3870, 3847, 3886, 3884, 3867, 0, 1, 6701, -89.900, 0.000, 62.500, 0.100, 0.000, -2.400, 0.0, , , , , , 98, , , 13, 13, 13
36.7673298, -118.8834290, 2.900, 12:45:03.792, 14, 0.00, 0.06, 100, 1.400, 1.800, 61.200, 210, 100, 100, 15, 23435, -17034, 5548, 5548, 8, 14, 1523735103.793, 67, 0, 1024, 1024, 1024, 1024, 0, 6, 3881, 3870, 3847, 3886, 3884, 3867, 0, 1, 6801, -89.900, 0.000, 62.500, 0.000, 0.000, -2.600, 0.0, , , , , , 98, , , 13, 13, 13
36.7673300, -118.8834290, 3.200, 12:45:03.892, 14, 0.00, 0.07, 100, 1.600, 1.400, 61.200, 210, 100, 100, 15, 23435, -17034, 5548, 5548, 8, 14, 1523735103.893, 72, 0, 1024, 1024, 1024, 1024, 0, 6, 3881, 3870, 3847, 3886, 3884, 3867, 0, 1, 6901, -89.900, 0.000, 62.500, 0.000, 0.000, -2.900, 0.0, , , , , , 98, , , 13, 13, 13
36.7673303, -118.8834290, 3.500, 12:45:03.993, 14, 0.00, 0.10, 100, 1.400, 1.200, 61.200, 210, 100, 100, 15, 23435, -17034, 5548, 5548, 8, 14, 1523735103.994, 71, 0, 1024, 1024, 1024, 1024, 0, 6, 3881, 3870, 3847, 3886, 3884, 3867, 0, 1, 7001, -89.900, 0.000, 62.500, 0.000, 0.000, -3.100, 0.0, , , , , , 98, , , 13, 13, 13
36.7673304, -118.8834289, 4.200, 12:45:04.093, 14, 0.00, 0.12, 100, 0.800, 1.400, 61.400, 210, 100, 100, 15, 23435, -17034, 5548, 5548, 8, 14, 1523735104.094, 54, 0, 1024, 1024, 1024, 1024, 0, 6, 3881, 3870, 3847, 3886, 3884, 3867, 0, 1, 7101, -89.900, 0.000, 62.500, 0.000, 0.000, -3.200, 0.0, , , , , , 98, , , 13, 13, 13
36.7673305, -118.8834289, 4.500, 12:45:04.193, 14, 0.00, 0.12, 100, 0.200, 1.500, 61.400, 210, 100, 100, 15, 23435, -17034, 5548, 5548, 8, 14, 1523735104.195, 57, 0, 1024, 1024, 1024, 1024, 0, 6, 3881, 3870, 3847, 3886, 3884, 3867, 0, 1, 7202, -89.900, 0.000, 62.400, 0.000, 0.000, -3.200, 0.0, , , , , , 98, , , 13, 13, 13
36.7673307, -118.8834290, 4.800, 12:45:04.293, 14, 0.00, 0.15, 100, 0.000, 1.600, 61.400, 210, 100, 100, 15, 23435, -17034, 5548, 5548, 8, 14, 1523735104.294, 29, 0, 1024, 1024, 1024, 1024, 0, 6, 3881, 3870, 3847, 3886, 3884, 3867, 0, 1, 7301, -89.900, 0.000, 62.400, 0.000, 0.000, -3.300, 0.0, , , , , , 98, , , 13, 13, 13
36.7673309, -118.8834291, 5.200, 12:45:04.393, 14, 0.00, 0.17, 100, 0.300, 1.600, 61.500, 210, 100, 100, 15, 23435, -17034, 5548, 5548, 8, 14, 1523735104.394, 59, 0, 1024, 1024, 1024, 1024, 0, 6, 3881, 3870, 3847, 3886, 3884, 3867, 0, 1, 7402, -89.900, 0.000, 62.400, 0.000, 0.000, -3.200, 0.0, , , , , , 98, , , 13, 13, 13
36.7673309, -118.8834290, 5.500, 12:45:04.493, 14, 0.00, 0.16, 100, 0.600, 1.600, 61.500, 210, 100, 100, 15, 23435, -17034, 5548, 5548, 8, 14, 1523735104.493, 31, 0, 1024, 1024, 1024, 1024, 0, 6, 3881, 3870, 3847, 3886, 3884, 3867, 0, 1, 7501, -89.900, 0.000, 62.400, 0.000, 0.000, -3.200, 0.0, , , , , , 98, , , 13, 13, 13
36.7673307, -118.8834289, 5.900, 12:45:04.593, 12, 0.00, 0.15, 100, 0.600, 1.500, 61.500, 210, 100, 100, 15, 22716, -24790, 5548, 5548, 8, 14, 1523735104.594, 29, 0, 1024, 1024, 1024, 1024, 0, 6, 3754, 3751, 3729, 3792, 3786, 3745, 0, 1, 7602, -89.900, 0.000, 62.400, 0.000, 0.000, -3.200, 0.0, , , , , , 98, , , 13, 13, 13
36.7673305, -118.8834289, 6.200, 12:45:04.693, 12, 0.10, 0.13, 100, 0.300, 1.400, 61.500, 210, 100, 100, 15, 22716, -24790, 5548, 5548, 8, 14, 1523735104.693, 30, 0, 1024, 1024, 1024, 1024, 0, 6, 3754, 3751, 3729, 3792, 3786, 3745, 0, 1, 7701, -89.900, 0.000, 62.400, -0.100, 0.000, -3.200, 0.0, , , , , , 98, , , 13, 13, 13
36.7673303, -118.8834288, 6.500, 12:45:04.793, 12, 0.10, 0.11, 100, -0.400, 1.100, 61.600, 210, 100, 100, 15, 22716, -24790, 5548, 5548, 8, 14, 1523735104.794, 26, 0, 1024, 1024, 1024, 1024, 0, 6, 3754, 3751, 3729, 3792, 3786, 3745, 0, 1, 7801, -89.900, 0.000, 62.400, -0.100, 0.000, -3.200, 0.0, , , , , , 98, , , 13, 13, 13
36.7673301, -118.8834286, 6.800, 12:45:04.893, 12, 0.10, 0.10, 100, -1.100, 0.800, 61.600, 210, 100, 100, 15, 22716, -24790, 5548, 5548, 8, 14, 1523735104.894, 41, 0, 1024, 1024, 1024, 1024, 0, 6, 3754, 3751, 3729, 3792, 3786, 3745, 0, 1, 7901, -89.900, 0.000, 62.400, -0.100, 0.000, -3.200, 0.0, , , , , , 98, , , 13, 13, 13
36.7673299, -118.8834284, 7.200, 12:45:04.992, 12, 0.10, 0.09, 100, -1.700, 0.900, 61.600, 210, 100, 100, 15, 22716, -24790, 5548, 5548, 8, 14, 1523735104.993, 31, 0, 1024, 1024, 1024, 1024, 0, 6, 3754, 3751, 3729, 3792, 3786, 3745, 0, 1, 8001, -89.900, 0.000, 62.400, -0.100, 0.000, -3.200, 0.0, , , , , , 98, , , 13, 13, 13
36.7673297, -118.8834283, 7.500, 12:45:05.093, 12, 0.10, 0.09, 100, -2.100, 1.300, 61.500, 210, 100, 100, 15, 22716, -24790, 5548, 5548, 8, 14, 1523735105.095, 32, 0, 1024, 1024, 1024, 1024, 0, 6, 3754, 3751, 3729, 3792, 3786, 3745, 0, 1, 8103, -89.900, 0.000, 62.400, -0.100, 0.000, -3.100, 0.0, , , , , , 98, , , 13, 13, 13
36.7673295, -118.8834281, 7.800, 12:45:05.193, 12, 0.10, 0.10, 100, -2.300, 1.400, 61.400, 210, 100, 100, 15, 22716, -24790, 5548, 5548, 8, 14, 1523735105.194, 22, 0, 1024, 1024, 1024, 1024, 0, 6, 3754, 3751, 3729, 3792, 3786, 3745, 0, 1, 8201, -89.900, 0.000, 62.400, -0.100, 0.000, -3.100, 0.0, , , , , , 98, , , 13, 13, 13
36.7673292, -118.8834280, 8.200, 12:45:05.293, 12, 0.10, 0.11, 100, -2.400, 1.500, 61.300, 210, 100, 100, 15, 22716, -24790, 5548, 5548, 8, 14, 1523735105.294, 19, 0, 1024, 1024, 1024, 1024, 0, 6, 3754, 3751, 3729, 3792, 3786, 3745, 0, 1, 8301, -89.900, 0.000, 62.400, -0.100, 0.000, -3.100, 0.0, , , , , , 98, , , 13, 13, 13
36.7673292, -118.8834280, 8.200, 12:45:05.393, 12, 0.10, 0.11, 100, -2.400, 1.500, 61.300, 210, 100, 100, 15, 22716, -24790, 5548, 5548, 8, 14, 1523735105.393, 118, 0, 1024, 1024, 1024, 1024, 0, 6, 3754, 3751, 3729, 3792, 3786, 3745, 0, 1, 8401, -89.900, 0.000, 62.400, -0.100, 0.000, -3.100, 0.0, , , , , , 98, , , 13, 13, 13
36.7673290, -118.8834279, 8.500, 12:45:05.492, 14, 0.10, 0.13, 100, -2.500, 1.400, 61.300, 210, 100, 100, 15, 22716, -24790, 5548, 5548, 8, 14, 1523735105.493, 97, 0, 1024, 1024, 1024, 1024, 0, 6, 3754, 3751, 3729, 3792, 3786, 3745, 0, 1, 8500, -89.900, 0.000, 62.400, -0.100, 0.000, -3.100, 0.0, , , , , , 98, , , 13, 13, 13
36.7673288, -118.8834278, 8.800, 12:45:05.593, 14, 0.10, 0.14, 100, -2.400, 1.300, 61.400, 210, 100, 100, 15, 22716, -24790, 5548, 5548, 8, 14, 1523735105.593, 67, 0, 1024, 1024, 1024, 1024, 0, 6, 3754, 3751, 3729, 3792, 3786, 3745, 0, 1, 8601, -89.900, 0.000, 62.400, -0.100, 0.000, -3.100, 0.0, , , , , , 98, , , 13, 13, 13
36.7673286, -118.8834277, 9.100, 12:45:05.693, 16, 0.10, 0.16, 100, -2.400, 1.100, 61.500, 210, 100, 100, 15, 22882, -21545, 5437, 5548, 8, 14, 1523735105.694, 93, 0, 1024, 1024, 1024, 1024, 0, 6, 3815, 3824, 3794, 3843, 3832, 3812, 0, 1, 8702, -89.900, 0.000, 62.400, -0.100, 0.000, -3.100, 0.0, , , , , , 98, , , 13, 13, 13
36.7673283, -118.8834275, 9.500, 12:45:05.793, 16, 0.10, 0.19, 100, -2.800, 0.900, 61.500, 210, 100, 100, 15, 22882, -21545, 5437, 5548, 8, 14, 1523735105.794, 97, 0, 1024, 1024, 1024, 1024, 0, 6, 3815, 3824, 3794, 3843, 3832, 3812, 0, 1, 8802, -89.900, 0.000, 62.400, -0.100, 0.000, -3.100, 0.0, , , , , , 98, , , 13, 13, 13
36.7673281, -118.8834274, 9.800, 12:45:05.893, 15, 0.10, 0.22, 100, -3.500, 0.800, 61.400, 210, 100, 100, 15, 22882, -21545, 5437, 5548, 8, 14, 1523735105.894, 61, 0, 1024, 1024, 1024, 1024, 0, 6, 3815, 3824, 3794, 3843, 3832, 3812, 0, 1, 8901, -89.900, 0.000, 62.400, -0.100, 0.000, -3.100, 0.0, , , , , , 98, , , 13, 13, 13
36.7673279, -118.8834272, 10.100, 12:45:05.993, 15, 0.00, 0.24, 100, -3.800, 0.700, 61.300, 210, 100, 100, 15, 22882, -21545, 5437, 5548, 8, 14, 1523735105.994, 97, 0, 1024, 1024, 1024, 1024, 0, 6, 3815, 3824, 3794, 3843, 3832, 3812, 0, 1, 9002, -89.900, 0.000, 62.400, 0.000, 0.000, -3.100, 0.0, , , , , , 98, , , 13, 13, 13
36.7673277, -118.8834271, 10.400, 12:45:06.093, 13, 0.00, 0.26, 100, -3.600, 0.800, 61.200, 210, 100, 100, 15, 22882, -21545, 5437, 5548, 8, 14, 1523735106.094, 76, 0, 1024, 1024, 1024, 1024, 0, 6, 3815, 3824, 3794, 3843, 3832, 3812, 0, 1, 9101, -89.900, 0.000, 62.400, 0.000, 0.000, -3.000, 0.0, , , , , , 98, , , 13, 13, 13
36.7673275, -118.8834271, 10.700, 12:45:06.193, 13, 0.00, 0.28, 100, -3.100, 1.000, 61.100, 210, 100, 100, 15, 22882, -21545, 5437, 5548, 8, 14, 1523735106.195, 67, 0, 1024, 1024, 1024, 1024, 0, 6, 3815, 3824, 3794, 3843, 3832, 3812, 0, 1, 9203, -89.900, 0.000, 62.400, 0.000, 0.000, -3.000, 0.0, , , , , , 98, , , 13, 13, 13
36.7673274, -118.8834270, 11.000, 12:45:06.293, 12, 0.00, 0.29, 100, -2.700, 1.100, 61.100, 210, 100, 100, 15, 22882, -21545, 5437, 5548, 8, 14, 1523735106.294, 84, 0, 1024, 1024, 1024, 1024, 0, 6, 3815, 3824, 3794, 3843, 3832, 3812, 0, 1, 9301, -89.900, 0.000, 62.400, 0.000, 0.000, -3.000, 0.0, , , , , , 98, , , 13, 13, 13
36.7673274, -118.8834269, 11.300, 12:45:06.393, 12, 0.00, 0.30, 100, -2.400, 1.300, 61.000, 210, 100, 100, 15, 22882, -21545, 5437, 5548, 8, 14, 1523735106.394, 73, 0, 1024, 1024, 1024, 1024, 0, 6, 3815, 3824, 3794, 3843, 3832, 3812, 0, 1, 9402, -89.900, 0.000, 62.400, 0.000, 0.000, -3.000, 0.0, , , , , , 98, , , 13, 13, 13
36.7673273, -118.8834268, 11.600, 12:45:06.493, 13, 0.10, 0.32, 100, -2.100, 1.400, 61.000, 210, 100, 100, 15, 22882, -21545, 5437, 5548, 8, 14, 1523735106.494, 71, 0, 1024, 1024, 1024, 1024, 0, 6, 3815, 3824, 3794, 3843, 3832, 3812, 0, 1, 9502, -89.900, 0.000, 62.400, 0.000, -0.100, -3.000, 0.0, , , , , , 98, , , 13, 13, 13
36.7673272, -118.8834267, 11.900, 12:45:06.593, 13, 0.10, 0.33, 100, -2.000, 1.400, 61.100, 210, 100, 100, 15, 22882, -21545, 5437, 5548, 8, 14, 1523735106.593, 57, 0, 1024, 1024, 1024, 1024, 0, 6, 3815, 3824, 3794, 3843, 3832, 3812, 0, 1, 9601, -89.900, 0.000, 62.400, 0.000, -0.100, -2.900, 0.0, , , , , , 98, , , 13, 13, 13
36.7673271, -118.8834266, 12.200, 12:45:06.693, 13, 0.10, 0.34, 98, -2.000, 1.400, 61.200, 210, 100, 100, 15, 22953, -19976, 5437, 5548, 8, 14, 1523735106.694, 64, 0, 1024, 1024, 1024, 1024, 0, 6, 3830, 3838, 3810, 3845, 3839, 3820, 0, 1, 9701, -89.900, 0.000, 62.400, 0.000, -0.100, -3.000, 0.0, , , , , , 98, , , 13, 13, 13
36.7673272, -118.8834266, 12.900, 12:45:06.793, 13, 0.10, 0.34, 98, -1.900, 1.300, 61.400, 210, 100, 99, 15, 22953, -19976, 5437, 5548, 8, 14, 1523735106.794, 29, 0, 1024, 1024, 1024, 1024, 0, 6, 3830, 3838, 3810, 3845, 3839, 3820, 0, 1, 9802, -89.900, 0.000, 62.400, 0.000, -0.100, -3.000, 0.0, , , , , , 98, , , 13, 13, 13
36.7673271, -118.8834265, 13.200, 12:45:06.893, 13, 0.10, 0.34, 98, -1.500, 1.500, 61.400, 210, 100, 99, 15, 22953, -19976, 5437, 5548, 8, 14, 1523735106.894, 44, 0, 1024, 1024, 1024, 1024, 0, 6, 3830, 3838, 3810, 3845, 3839, 3820, 0, 1, 9902, -89.900, 0.000, 62.400, 0.000, -0.100, -3.100, 0.0, , , , , , 98, , , 13, 13, 13
36.7673271, -118.8834265, 13.500, 12:45:06.992, 13, 0.10, 0.35, 98, -1.500, 1.600, 61.400, 210, 100, 99, 15, 22953, -19976, 5437, 5548, 8, 14, 1523735106.993, 48, 0, 1024, 1024, 1024, 1024, 0, 6, 3830, 3838, 3810, 3845, 3839, 3820, 0, 1, 10001, -89.900, 0.000, 62.400, 0.000, -0.100, -3.000, 0.0, , , , , , 98, , , 13, 13, 13
36.7673271, -118.8834265, 13.500, 12:45:07.093, 13, 0.10, 0.35, 98, -1.500, 1.600, 61.400, 210, 100, 99, 15, 22953, -19976, 5437, 5548, 8, 14, 1523735107.094, 149, 0, 1024, 1024, 1024, 1024, 0, 6, 3830, 3838, 3810, 3845, 3839, 3820, 0, 1, 10102, -89.900, 0.000, 62.400, 0.000, -0.100, -3.000, 0.0, , , , , , 98, , , 13, 13, 13
36.7673271, -118.8834265, 14.100, 12:45:07.193, 14, 0.10, 0.35, 98, -2.100, 1.400, 61.400, 210, 100, 97, 15, 22953, -19976, 5437, 5548, 8, 14, 1523735107.198, 32, 0, 1024, 1024, 1024, 1024, 0, 6, 3830, 3838, 3810, 3845, 3839, 3820, 0, 1, 10206, -89.900, 0.000, 62.400, 0.000, -0.100, -3.000, 0.0, , , , , , 98, , , 13, 13, 13
36.7673271, -118.8834265, 14.100, 12:45:07.294, 14, 0.10, 0.35, 98, -2.100, 1.400, 61.400, 210, 100, 97, 15, 22953, -19976, 5437, 5548, 8, 14, 1523735107.296, 130, 0, 1024, 1024, 1024, 1024, 0, 6, 3830, 3838, 3810, 3845, 3839, 3820, 0, 1, 10304, -89.900, 0.000, 62.400, 0.000, -0.100, -3.000, 0.0, , , , , , 98, , , 13, 13, 13
36.7673273, -118.8834267, 14.800, 12:45:07.393, 15, 0.10, 0.32, 98, -1.200, 1.200, 61.600, 210, 100, 97, 15, 22953, -19976, 5437, 5548, 8, 14, 1523735107.394, 28, 0, 1024, 1024, 1024, 1024, 0, 6, 3830, 3838, 3810, 3845, 3839, 3820, 0, 1, 10402, -89.900, 0.000, 62.400, 0.000, -0.100, -3.000, 0.0, , , , , , 98, , , 13, 13, 13
36.7673273, -118.8834267, 14.800, 12:45:07.493, 15, 0.10, 0.32, 98, -1.200, 1.200, 61.600, 210, 100, 97, 15, 22953, -19976, 5437, 5548, 8, 14, 1523735107.494, 127, 0, 1024, 1024, 1024, 1024, 0, 6, 3830, 3838, 3810, 3845, 3839, 3820, 0, 1, 10502, -89.900, 0.000, 62.400, 0.000, -0.100, -3.000, 0.0, , , , , , 98, , , 13, 13, 13
36.7673271, -118.8834268, 15.400, 12:45:07.597, 15, 0.10, 0.33, 98, -1.600, 1.300, 61.600, 210, 100, 97, 15, 22930, -19763, 5437, 5548, 8, 14, 1523735107.598, 16, 0, 1024, 1024, 1024, 1024, 0, 6, 3830, 3838, 3810, 3845, 3839, 3820, 0, 1, 10605, -89.900, 0.000, 62.400, 0.000, -0.100, -2.900, 0.0, , , , , , 98, , , 13, 13, 13
36.7673270, -118.8834269, 15.700, 12:45:07.694, 15, 0.10, 0.34, 98, -1.900, 1.300, 61.500, 210, 100, 92, 15, 22930, -19763, 5437, 5548, 8, 14, 1523735107.699, 20, 0, 1024, 1024, 1024, 1024, 0, 6, 3830, 3838, 3810, 3845, 3839, 3820, 0, 1, 10706, -89.900, 0.000, 62.400, 0.000, -0.100, -2.900, 0.0, , , , , , 98, , , 13, 13, 13
36.7673269, -118.8834269, 16.000, 12:45:07.813, 15, 0.10, 0.34, 98, -2.600, 1.200, 61.500, 210, 100, 92, 15, 22930, -19763, 5437, 5548, 8, 14, 1523735107.813, 10, 0, 1024, 1024, 1024, 1024, 0, 6, 3830, 3838, 3810, 3845, 3839, 3820, 0, 1, 10821, -89.900, 0.000, 62.400, 0.000, -0.100, -2.900, 0.0, , , , , , 98, , , 13, 13, 13
36.7673269, -118.8834269, 16.000, 12:45:07.897, 15, 0.10, 0.34, 98, -2.600, 1.200, 61.500, 210, 100, 92, 15, 22930, -19763, 5437, 5548, 8, 14, 1523735107.898, 94, 0, 1024, 1024, 1024, 1024, 0, 6, 3830, 3838, 3810, 3845, 3839, 3820, 0, 1, 10905, -89.900, 0.000, 62.400, 0.000, -0.100, -2.900, 0.0, , , , , , 98, , , 13, 13, 13
36.7673268, -118.8834270, 16.300, 12:45:07.996, 15, 0.10, 0.35, 98, -3.100, 0.800, 61.500, 210, 100, 92, 15, 22930, -19763, 5437, 5548, 8, 14, 1523735107.997, 95, 0, 1024, 1024, 1024, 1024, 0, 6, 3830, 3838, 3810, 3845, 3839, 3820, 0, 1, 11005, -89.900, 0.000, 62.400, 0.000, -0.100, -2.800, 0.0, , , , , , 98, , , 13, 13, 13
36.7673267, -118.8834271, 16.600, 12:45:08.096, 15, 0.10, 0.35, 98, -3.300, 0.200, 61.500, 210, 100, 92, 15, 22930, -19763, 5437, 5548, 8, 14, 1523735108.100, 98, 0, 1024, 1024, 1024, 1024, 0, 6, 3830, 3838, 3810, 3845, 3839, 3820, 0, 1, 11108, -90.000, 0.000, 62.400, 0.000, -0.100, -2.800, 0.0, , , , , , 98, , , 13, 13, 13
36.7673266, -118.8834273, 16.900, 12:45:08.195, 15, 0.10, 0.35, 98, -3.200, -0.200, 61.400, 210, 100, 92, 15, 22930, -19763, 5437, 5548, 8, 14, 1523735108.196, 32, 0, 1024, 1024, 1024, 1024, 0, 6, 3830, 3838, 3810, 3845, 3839, 3820, 0, 1, 11204, -89.900, 0.000, 62.400, 0.000, -0.100, -2.800, 0.0, , , , , , 98, , , 13, 13, 13
36.7673265, -118.8834274, 17.200, 12:45:08.295, 14, 0.10, 0.35, 98, -3.200, -0.500, 61.400, 210, 100, 93, 15, 22930, -19763, 5437, 5548, 8, 14, 1523735108.296, 66, 0, 1024, 1024, 1024, 1024, 0, 6, 3814, 3827, 3805, 3842, 3833, 3812, 0, 1, 11304, -90.000, 0.000, 62.400, 0.000, -0.100, -2.800, 0.0, , , , , , 98, , , 13, 13, 13
36.7673265, -118.8834275, 17.500, 12:45:08.396, 14, 0.10, 0.35, 98, -3.400, -0.600, 61.300, 210, 100, 93, 15, 22930, -19763, 5437, 5548, 8, 14, 1523735108.397, 28, 0, 1024, 1024, 1024, 1024, 0, 6, 3814, 3827, 3805, 3842, 3833, 3812, 0, 1, 11405, -89.900, 0.000, 62.400, 0.000, -0.100, -2.800, 0.0, , , , , , 98, , , 13, 13, 13
36.7673265, -118.8834276, 17.800, 12:45:08.493, 15, 0.10, 0.35, 98, -3.200, 0.000, 61.400, 210, 100, 93, 15, 22930, -19763, 5437, 5548, 8, 14, 1523735108.493, 25, 0, 1024, 1024, 1024, 1024, 0, 6, 3814, 3827, 3805, 3842, 3833, 3812, 0, 1, 11501, -89.900, 0.000, 62.400, 0.000, -0.100, -2.900, 0.0, , , , , , 98, , , 13, 13, 13
36.7673266, -118.8834277, 18.100, 12:45:08.595, 15, 0.10, 0.34, 98, -3.000, 0.200, 61.400, 210, 100, 93, 15, 22930, -19763, 5437, 5548, 8, 14, 1523735108.597, 76, 0, 1024, 1024, 1024, 1024, 0, 6, 3814, 3827, 3805, 3842, 3833, 3812, 0, 1, 11604, -89.900, 0.000, 62.400, 0.000, -0.100, -2.900, 0.0, , , , , , 98, , , 13, 13, 13
36.7673266, -118.8834277, 18.100, 12:45:08.696, 15, 0.10, 0.34, 98, -3.000, 0.200, 61.400, 210, 100, 93, 15, 22930, -19763, 5437, 5548, 8, 14, 1523735108.698, 177, 0, 1024, 1024, 1024, 1024, 0, 6, 3814, 3827, 3805, 3842, 3833, 3812, 0, 1, 11705, -89.900, 0.000, 62.400, 0.000, -0.100, -2.900, 0.0, , , , , , 98, , , 13, 13, 13
36.7673267, -118.8834278, 18.400, 12:45:08.795, 15, 0.10, 0.33, 98, -2.700, 0.400, 61.400, 210, 100, 93, 15, 22930, -19763, 5437, 5548, 8, 14, 1523735108.796, 68, 0, 1024, 1024, 1024, 1024, 0, 6, 3814, 3827, 3805, 3842, 3833, 3812, 0, 1, 11804, -89.900, 0.000, 62.400, 0.000, -0.100, -2.800, 0.0, , , , , , 98, , , 13, 13, 13
36.7673267, -118.8834279, 18.700, 12:45:08.896, 15, 0.10, 0.32, 98, -2.800, 0.400, 61.400, 210, 100, 98, 15, 22930, -19763, 5437, 5548, 8, 14, 1523735108.897, 64, 0, 1024, 1024, 1024, 1024, 0, 6, 3814, 3827, 3805, 3842, 3833, 3812, 0, 1, 11904, -89.900, 0.000, 62.400, 0.000, -0.100, -2.800, 0.0, , , , , , 98, , , 13, 13, 13
36.7673267, -118.8834282, 19.200, 12:45:08.993, 16, 0.10, 0.31, 98, -2.400, 0.200, 61.500, 210, 100, 98, 15, 22930, -19763, 5437, 5548, 8, 14, 1523735108.994, 46, 0, 1024, 1024, 1024, 1024, 0, 6, 3814, 3827, 3805, 3842, 3833, 3812, 0, 1, 12002, -89.900, 0.000, 62.400, 0.000, -0.100, -2.700, 0.0, , , , , , 98, , , 13, 13, 13
36.7673268, -118.8834284, 19.500, 12:45:09.096, 15, 0.10, 0.29, 98, -2.200, 0.000, 61.600, 210, 100, 98, 15, 22930, -19763, 5437, 5548, 8, 14, 1523735109.098, 67, 0, 1024, 1024, 1024, 1024, 0, 6, 3814, 3827, 3805, 3842, 3833, 3812, 0, 1, 12105, -89.900, 0.000, 62.400, 0.000, -0.100, -2.800, 0.0, , , , , , 98, , , 13, 13, 13
36.7673269, -118.8834285, 19.800, 12:45:09.193, 15, 0.10, 0.28, 98, -2.000, 0.000, 61.700, 210, 100, 98, 15, 22930, -19763, 5437, 5548, 8, 14, 1523735109.194, 18, 0, 1024, 1024, 1024, 1024, 0, 6, 3814, 3827, 3805, 3842, 3833, 3812, 0, 1, 12202, -90.000, 0.000, 62.400, 0.000, -0.100, -2.800, 0.0, , , , , , 98, , , 13, 13, 13
36.7673270, -118.8834286, 20.100, 12:45:09.292, 16, 0.14, 0.26, 98, -1.700, 0.000, 61.700, 210, 100, 98, 15, 22965, -18893, 5437, 5548, 8, 14, 1523735109.294, 73, 0, 1024, 1024, 1024, 1024, 0, 6, 3814, 3827, 3805, 3842, 3833, 3812, 0, 1, 12301, -89.900, 0.000, 62.400, 0.100, -0.100, -2.800, 0.0, , , , , , 98, , , 13, 13, 13
36.7673271, -118.8834287, 20.400, 12:45:09.393, 16, 0.10, 0.26, 98, -1.400, 0.000, 61.600, 210, 100, 100, 15, 22965, -18893, 5437, 5548, 8, 14, 1523735109.394, 55, 0, 1024, 1024, 1024, 1024, 0, 6, 3813, 3827, 3799, 3847, 3846, 3813, 0, 1, 12401, -90.000, 0.000, 62.400, 0.000, -0.100, -2.900, 0.0, , , , , , 98, , , 13, 13, 13
36.7673273, -118.8834290, 21.000, 12:45:09.493, 16, 0.14, 0.23, 98, -1.800, 0.200, 61.200, 210, 100, 100, 15, 22965, -18893, 5437, 5548, 8, 14, 1523735109.493, 43, 0, 1024, 1024, 1024, 1024, 0, 6, 3813, 3827, 3799, 3847, 3846, 3813, 0, 1, 12501, -89.900, 0.000, 62.400, 0.100, -0.100, -2.900, 0.0, , , , , , 98, , , 13, 13, 13
36.7673275, -118.8834291, 21.200, 12:45:09.593, 15, 0.14, 0.21, 98, -1.800, 0.400, 61.000, 210, 100, 100, 15, 22965, -18893, 5437, 5548, 8, 14, 1523735109.594, 48, 0, 1024, 1024, 1024, 1024, 0, 6, 3813, 3827, 3799, 3847, 3846, 3813, 0, 1, 12602, -89.900, 0.000, 62.400, 0.100, -0.100, -2.900, 0.0, , , , , , 98, , , 13, 13, 13
36.7673276, -118.8834292, 21.600, 12:45:09.693, 15, 0.14, 0.20, 98, -1.400, 0.400, 60.900, 210, 100, 100, 15, 22965, -18893, 5437, 5548, 8, 14, 1523735109.693, 24, 0, 1024, 1024, 1024, 1024, 0, 6, 3813, 3827, 3799, 3847, 3846, 3813, 0, 1, 12701, -89.900, 0.000, 62.400, 0.100, -0.100, -3.000, 0.0, , , , , , 98, , , 13, 13, 13
36.7673277, -118.8834293, 21.900, 12:45:09.793, 16, 0.10, 0.19, 98, -1.200, 0.300, 60.800, 210, 100, 100, 15, 22965, -18893, 5437, 5548, 8, 14, 1523735109.793, 12, 0, 1024, 1024, 1024, 1024, 0, 6, 3813, 3827, 3799, 3847, 3846, 3813, 0, 1, 12801, -89.900, 0.000, 62.400, 0.000, -0.100, -3.100, 0.0, , , , , , 98, , , 13, 13, 13
36.7673277, -118.8834294, 22.200, 12:45:09.893, 16, 0.10, 0.19, 98, -1.300, 0.000, 60.700, 210, 100, 100, 15, 22965, -18893, 5437, 5548, 8, 14, 1523735109.893, 13, 0, 1024, 1024, 1024, 1024, 0, 6, 3813, 3827, 3799, 3847, 3846, 3813, 0, 1, 12901, -90.000, 0.000, 62.400, 0.000, -0.100, -3.100, 0.0, , , , , , 98, , , 13, 13, 13
36.7673277, -118.8834295, 22.500, 12:45:09.993, 15, 0.10, 0.18, 98, -1.400, 0.000, 60.700, 210, 100, 100, 15, 22965, -18893, 5437, 5548, 8, 14, 1523735109.993, 12, 0, 1024, 1024, 1024, 1024, 0, 6, 3813, 3827, 3799, 3847, 3846, 3813, 0, 1, 13001, -89.900, 0.000, 62.400, 0.000, -0.100, -3.100, 0.0, , , , , , 98, , , 13, 13, 13
36.7673278, -118.8834295, 22.800, 12:45:10.093, 15, 0.10, 0.18, 98, -1.800, -0.100, 60.700, 210, 100, 100, 15, 22812, -20008, 5437, 5548, 8, 14, 1523735110.094, 13, 0, 1024, 1024, 1024, 1024, 0, 6, 3813, 3827, 3799, 3847, 3846, 3813, 0, 1, 13101, -89.900, 0.000, 62.400, 0.000, -0.100, -3.000, 0.0, , , , , , 98, , , 13, 13, 13
36.7673278, -118.8834296, 23.100, 12:45:10.205, 15, 0.10, 0.18, 98, -2.000, -0.200, 60.900, 210, 100, 100, 15, 22812, -20008, 5437, 5548, 8, 14, 1523735110.206, 13, 0, 1024, 1024, 1024, 1024, 0, 6, 3800, 3790, 3783, 3847, 3846, 3813, 0, 1, 13214, -89.900, 0.000, 62.400, 0.000, -0.100, -3.000, 0.0, , , , , , 98, , , 13, 13, 13
36.7673278, -118.8834297, 23.400, 12:45:10.293, 15, 0.10, 0.18, 98, -2.300, -0.400, 61.100, 210, 100, 100, 15, 22812, -20008, 5437, 5548, 8, 14, 1523735110.294, 22, 0, 1024, 1024, 1024, 1024, 0, 6, 3800, 3790, 3783, 3847, 3846, 3813, 0, 1, 13301, -90.000, 0.000, 62.400, 0.000, -0.100, -2.900, 0.0, , , , , , 98, , , 13, 13, 13
36.7673278, -118.8834299, 23.700, 12:45:10.393, 15, 0.10, 0.18, 98, -2.000, -1.100, 61.400, 210, 100, 100, 15, 22812, -20008, 5437, 5548, 8, 14, 1523735110.393, 13, 0, 1024, 1024, 1024, 1024, 0, 6, 3800, 3790, 3783, 3847, 3846, 3813, 0, 1, 13401, -90.000, 0.000, 62.400, 0.000, -0.100, -2.900, 0.0, , , , , , 98, , , 13, 13, 13
36.7673279, -118.8834300, 24.000, 12:45:10.493, 15, 0.10, 0.18, 98, -1.500, -1.200, 61.700, 210, 100, 100, 15, 22812, -20008, 5437, 5548, 8, 14, 1523735110.494, 6, 0, 1024, 1024, 1024, 1024, 0, 6, 3800, 3790, 3783, 3847, 3846, 3813, 0, 1, 13501, -90.000, 0.000, 62.400, 0.000, -0.100, -2.800, 0.0, , , , , , 98, , , 13, 13, 13
36.7673279, -118.8834300, 24.000, 12:45:10.592, 15, 0.10, 0.18, 98, -1.500, -1.200, 61.700, 210, 100, 100, 15, 22812, -20008, 5437, 5548, 8, 14, 1523735110.593, 106, 0, 1024, 1024, 1024, 1024, 0, 6, 3800, 3790, 3783, 3847, 3846, 3813, 0, 1, 13601, -90.000, 0.000, 62.400, 0.000, -0.100, -2.800, 0.0, , , , , , 98, , , 13, 13, 13
36.7673279, -118.8834302, 24.300, 12:45:10.693, 15, 0.10, 0.18, 98, -0.700, -1.100, 61.900, 210, 100, 100, 15, 22812, -20008, 5437, 5548, 8, 14, 1523735110.694, 85, 0, 1024, 1024, 1024, 1024, 0, 6, 3800, 3790, 3783, 3847, 3846, 3813, 0, 1, 13702, -89.900, 0.000, 62.400, 0.000, -0.100, -2.800, 0.0, , , , , , 98, , , 13, 13, 13
36.7673279, -118.8834302, 24.600, 12:45:10.793, 15, 0.00, 0.18, 98, -0.500, -1.000, 62.000, 210, 100, 100, 15, 22812, -20008, 5437, 5548, 8, 14, 1523735110.794, 84, 0, 1024, 1024, 1024, 1024, 0, 6, 3800, 3790, 3783, 3847, 3846, 3813, 0, 1, 13802, -89.900, 0.000, 62.400, 0.000, 0.000, -2.800, 0.0, , , , , , 98, , , 13, 13, 13
36.7673280, -118.8834303, 24.900, 12:45:10.893, 16, 0.00, 0.18, 98, -0.600, -0.700, 62.100, 210, 100, 100, 15, 22812, -20008, 5437, 5548, 8, 14, 1523735110.894, 97, 0, 1024, 1024, 1024, 1024, 0, 6, 3800, 3790, 3783, 3847, 3846, 3813, 0, 1, 13902, -89.900, 0.000, 62.400, 0.000, 0.000, -2.800, 0.0, , , , , , 98, , , 13, 13, 13
36.7673280, -118.8834304, 25.200, 12:45:10.993, 16, 0.00, 0.18, 98, -0.600, -0.600, 62.100, 210, 100, 100, 15, 22812, -20008, 5437, 5548, 8, 14, 1523735110.994, 82, 0, 1024, 1024, 1024, 1024, 0, 6, 3800, 3790, 3783, 3847, 3846, 3813, 0, 1, 14002, -89.900, 0.000, 62.400, 0.000, 0.000, -2.900, 0.0, , , , , , 98, , , 13, 13, 13
36.7673280, -118.8834304, 25.400, 12:45:11.093, 16, 0.00, 0.18, 98, -0.700, -0.500, 62.100, 210, 100, 100, 15, 22812, -20008, 5437, 5548, 8, 14, 1523735111.094, 87, 0, 1024, 1024, 1024, 1024, 0, 6, 3800, 3790, 3783, 3847, 3846, 3813, 0, 1, 14101, -89.900, 0.000, 62.400, 0.000, 0.000, -2.800, 0.0, , , , , , 98, , , 13, 13, 13
36.7673281, -118.8834304, 25.800, 12:45:11.193, 16, 0.00, 0.18, 98, -0.500, -0.300, 62.000, 210, 100, 100, 16, 22785, -20008, 5437, 5548, 8, 14, 1523735111.194, 51, 0, 1024, 1024, 1024, 1024, 0, 6, 3800, 3790, 3783, 3847, 3846, 3813, 0, 1, 14202, -89.900, 0.000, 62.400, 0.000, 0.000, -2.900, 0.0, , , , , , 98, , , 13, 13, 13
36.7673281, -118.8834304, 26.100, 12:45:11.293, 16, 0.00, 0.18, 98, -0.400, -0.200, 61.900, 210, 100, 100, 16, 22785, -20008, 5437, 5548, 8, 14, 1523735111.294, 81, 0, 1024, 1024, 1024, 1024, 0, 6, 3799, 3795, 3793, 3817, 3824, 3819, 0, 1, 14301, -89.900, 0.000, 62.400, 0.000, 0.000, -3.000, 0.0, , , , , , 98, , , 13, 13, 13
36.7673281, -118.8834304, 26.400, 12:45:11.393, 16, 0.00, 0.18, 98, -0.900, -0.500, 61.800, 210, 100, 100, 16, 22785, -20008, 5437, 5548, 8, 14, 1523735111.394, 67, 0, 1024, 1024, 1024, 1024, 0, 6, 3799, 3795, 3793, 3817, 3824, 3819, 0, 1, 14401, -90.000, 0.000, 62.400, 0.000, 0.000, -3.000, 0.0, , , , , , 98, , , 13, 13, 13
36.7673280, -118.8834304, 26.700, 12:45:11.493, 16, 0.00, 0.18, 98, -1.800, -1.100, 61.800, 210, 100, 100, 16, 22785, -20008, 5437, 5548, 8, 14, 1523735111.494, 60, 0, 1024, 1024, 1024, 1024, 0, 6, 3799, 3795, 3793, 3817, 3824, 3819, 0, 1, 14501, -89.900, 0.000, 62.400, 0.000, 0.000, -3.000, 0.0, , , , , , 98, , , 13, 13, 13
36.7673279, -118.8834303, 27.000, 12:45:11.593, 16, 0.00, 0.19, 98, -2.500, -0.900, 61.700, 210, 100, 100, 16, 22785, -20008, 5437, 5548, 8, 14, 1523735111.593, 74, 0, 1024, 1024, 1024, 1024, 0, 6, 3799, 3795, 3793, 3817, 3824, 3819, 0, 1, 14601, -89.900, 0.000, 62.400, 0.000, 0.000, -3.000, 0.0, , , , , , 98, , , 13, 13, 13
36.7673277, -118.8834300, 27.600, 12:45:11.693, 16, 0.00, 0.20, 98, -2.900, 0.500, 61.200, 210, 100, 100, 16, 22785, -20008, 5437, 5548, 8, 14, 1523735111.694, 56, 0, 1024, 1024, 1024, 1024, 0, 6, 3799, 3795, 3793, 3817, 3824, 3819, 0, 1, 14702, -89.900, 0.000, 62.400, 0.000, 0.000, -2.900, 0.0, , , , , , 98, , , 13, 13, 13
36.7673276, -118.8834299, 27.900, 12:45:11.792, 15, 0.00, 0.20, 98, -3.200, 0.700, 61.000, 210, 100, 100, 16, 22785, -20008, 5437, 5548, 8, 14, 1523735111.793, 57, 0, 1024, 1024, 1024, 1024, 0, 6, 3799, 3795, 3793, 3817, 3824, 3819, 0, 1, 14801, -89.900, 0.000, 62.400, 0.000, 0.000, -2.900, 0.0, , , , , , 98, , , 13, 13, 13
36.7673275, -118.8834298, 28.300, 12:45:11.893, 15, 0.00, 0.21, 98, -3.400, 0.900, 60.900, 210, 100, 100, 16, 22785, -20008, 5437, 5548, 8, 14, 1523735111.894, 35, 0, 1024, 1024, 1024, 1024, 0, 6, 3799, 3795, 3793, 3817, 3824, 3819, 0, 1, 14902, -89.900, 0.000, 62.400, 0.000, 0.000, -3.000, 0.0, , , , , , 98, , , 13, 13, 13
36.7673274, -118.8834297, 28.600, 12:45:11.994, 17, 0.00, 0.22, 98, -3.700, 0.900, 61.000, 210, 100, 100, 16, 22785, -20008, 5437, 5548, 8, 14, 1523735111.994, 53, 0, 1024, 1024, 1024, 1024, 0, 6, 3799, 3795, 3793, 3817, 3824, 3819, 0, 1, 15002, -89.900, 0.000, 62.400, 0.000, 0.000, -2.900, 0.0, , , , , , 98, , , 13, 13, 13
36.7673272, -118.8834295, 28.900, 12:45:12.093, 17, 0.10, 0.24, 98, -4.100, 0.600, 61.100, 210, 100, 100, 16, 22785, -20008, 5437, 5548, 8, 14, 1523735112.093, 22, 0, 1024, 1024, 1024, 1024, 0, 6, 3799, 3795, 3793, 3817, 3824, 3819, 0, 1, 15101, -89.900, 0.000, 62.400, -0.100, 0.000, -3.000, 0.0, , , , , , 98, , , 13, 13, 13
36.7673270, -118.8834294, 29.200, 12:45:12.193, 17, 0.10, 0.26, 98, -5.100, 0.700, 61.300, 210, 100, 100, 16, 22814, -19277, 5437, 5548, 8, 14, 1523735112.193, 17, 0, 1024, 1024, 1024, 1024, 0, 6, 3799, 3795, 3793, 3817, 3824, 3819, 0, 1, 15201, -89.900, 0.000, 62.400, -0.100, 0.000, -2.900, 0.0, , , , , , 98, , , 13, 13, 13
36.7673268, -118.8834293, 29.500, 12:45:12.292, 17, 0.10, 0.29, 98, -5.700, 0.400, 61.600, 210, 100, 100, 16, 22814, -19277, 5437, 5548, 8, 14, 1523735112.293, 30, 0, 1024, 1024, 1024, 1024, 0, 6, 3799, 3795, 3793, 3817, 3824, 3819, 0, 1, 15300, -90.000, 0.000, 62.400, -0.100, 0.000, -2.800, 0.0, , , , , , 98, , , 13, 13, 13
36.7673266, -118.8834293, 29.800, 12:45:12.393, 17, 0.10, 0.31, 98, -5.900, -0.200, 61.900, 210, 100, 100, 16, 22814, -19277, 5437, 5548, 8, 14, 1523735112.394, 14, 0, 1024, 1024, 1024, 1024, 0, 6, 3799, 3795, 3793, 3817, 3824, 3819, 0, 1, 15401, -90.000, 0.000, 62.300, -0.100, 0.000, -2.700, 0.0, , , , , , 98, , , 13, 13, 13
36.7673264, -118.8834292, 30.100, 12:45:12.493, 17, 0.10, 0.33, 98, -5.700, -0.900, 62.100, 210, 100, 100, 16, 22814, -19277, 5437, 5548, 8, 14, 1523735112.494, 18, 0, 1024, 1024, 1024, 1024, 0, 6, 3799, 3795, 3793, 3817, 3824, 3819, 0, 1, 15502, -90.000, 0.000, 62.300, -0.100, 0.000, -2.700, 0.0, , , , , , 98, , , 13, 13, 13
36.7673262, -118.8834292, 30.400, 12:45:12.596, 17, 0.10, 0.35, 98, -5.900, -1.500, 62.100, 210, 100, 100, 16, 22814, -19277, 5437, 5548, 8, 14, 1523735112.596, 15, 0, 1024, 1024, 1024, 1024, 0, 6, 3799, 3795, 3793, 3817, 3824, 3819, 0, 1, 15604, -90.000, 0.000, 62.300, -0.100, 0.000, -2.800, 0.0, , , , , , 98, , , 13, 13, 13
36.7673261, -118.8834292, 30.700, 12:45:12.692, 17, 0.00, 0.37, 98, -6.200, -1.500, 62.000, 210, 100, 100, 16, 22814, -19277, 5437, 5548, 8, 14, 1523735112.693, 28, 0, 1024, 1024, 1024, 1024, 0, 6, 3799, 3795, 3793, 3817, 3824, 3819, 0, 1, 15701, -89.900, 0.000, 62.300, 0.000, 0.000, -2.800, 0.0, , , , , , 98, , , 13, 13, 13
36.7673261, -118.8834292, 30.700, 12:45:12.793, 17, 0.00, 0.37, 98, -6.200, -1.500, 62.000, 210, 100, 100, 16, 22814, -19277, 5437, 5548, 8, 14, 1523735112.794, 129, 0, 1024, 1024, 1024, 1024, 0, 6, 3799, 3795, 3793, 3817, 3824, 3819, 0, 1, 15801, -89.900, 0.000, 62.300, 0.000, 0.000, -2.800, 0.0, , , , , , 98, , , 13, 13, 13
36.7673260, -118.8834291, 30.900, 12:45:12.893, 17, 0.00, 0.38, 98, -5.800, -1.100, 61.800, 210, 100, 100, 16, 22814, -19277, 5437, 5548, 8, 14, 1523735112.894, 95, 0, 1024, 1024, 1024, 1024, 0, 6, 3799, 3795, 3793, 3817, 3824, 3819, 0, 1, 15902, -89.900, 0.000, 62.300, 0.000, 0.000, -2.600, 0.0, , , , , , 98, , , 13, 13, 13
36.7673259, -118.8834290, 31.200, 12:45:12.993, 17, 0.00, 0.39, 98, -5.400, -0.900, 61.500, 210, 100, 100, 16, 22814, -19277, 5437, 5548, 8, 14, 1523735112.994, 81, 0, 1024, 1024, 1024, 1024, 0, 6, 3799, 3795, 3793, 3817, 3824, 3819, 0, 1, 16002, -89.900, 0.000, 62.300, 0.000, 0.000, -2.600, 0.0, , , , , , 98, , , 13, 13, 13
36.7673258, -118.8834289, 31.400, 12:45:13.092, 16, 0.00, 0.39, 98, -4.600, -0.600, 61.200, 210, 100, 100, 16, 22814, -19277, 5437, 5548, 8, 14, 1523735113.093, 89, 0, 1024, 1024, 1024, 1024, 0, 6, 3799, 3795, 3793, 3817, 3824, 3819, 0, 1, 16101, -89.900, 0.000, 62.300, 0.000, 0.000, -2.700, 0.0, , , , , , 98, , , 13, 13, 13
36.7673258, -118.8834289, 31.700, 12:45:13.192, 16, 0.00, 0.40, 98, -4.200, -0.300, 61.000, 210, 100, 100, 16, 22814, -19277, 5437, 5548, 8, 14, 1523735113.193, 67, 0, 1024, 1024, 1024, 1024, 0, 6, 3799, 3795, 3793, 3817, 3824, 3819, 0, 1, 16201, -89.900, 0.000, 62.300, 0.000, 0.000, -2.700, 0.0, , , , , , 98, , , 13, 13, 13
36.7673258, -118.8834288, 32.000, 12:45:13.293, 17, 0.00, 0.40, 98, -4.200, -0.200, 61.000, 210, 100, 100, 16, 22814, -19277, 5437, 5548, 8, 14, 1523735113.294, 80, 0, 1024, 1024, 1024, 1024, 0, 6, 3799, 3795, 3793, 3817, 3824, 3819, 0, 1, 16302, -89.900, 0.000, 62.300, 0.000, 0.000, -2.700, 0.0, , , , , , 98, , , 13, 13, 13
36.7673257, -118.8834288, 32.200, 12:45:13.393, 17, 0.00, 0.41, 98, -4.300, -0.300, 61.100, 210, 100, 100, 16, 22814, -19277, 5437, 5548, 8, 14, 1523735113.394, 79, 0, 1024, 1024, 1024, 1024, 0, 6, 3799, 3795, 3793, 3817, 3824, 3819, 0, 1, 16402, -89.900, 0.000, 62.300, 0.000, 0.000, -2.800, 0.0, , , , , , 98, , , 13, 13, 13
36.7673257, -118.8834288, 32.500, 12:45:13.493, 17, 0.00, 0.41, 98, -4.200, -0.600, 61.300, 210, 100, 100, 16, 22814, -19277, 5437, 5548, 8, 14, 1523735113.494, 68, 0, 1024, 1024, 1024, 1024, 0, 6, 3799, 3795, 3793, 3817, 3824, 3819, 0, 1, 16501, -89.900, 0.000, 62.300, 0.000, 0.000, -2.800, 0.0, , , , , , 98, , , 13, 13, 13
36.7673258, -118.8834288, 32.800, 12:45:13.592, 17, 0.00, 0.40, 98, -4.100, -0.700, 61.400, 210, 100, 100, 16, 22814, -19277, 5437, 5548, 8, 14, 1523735113.593, 70, 0, 1024, 1024, 1024, 1024, 0, 6, 3799, 3795, 3793, 3817, 3824, 3819, 0, 1, 16600, -89.900, 0.000, 62.300, 0.000, 0.000, -2.800, 0.0, , , , , , 98, , , 13, 13, 13
36.7673258, -118.8834287, 33.100, 12:45:13.692, 17, 0.00, 0.40, 98, -4.200, -0.600, 61.400, 210, 100, 100, 16, 22600, -20765, 5437, 5548, 8, 14, 1523735113.693, 63, 0, 1024, 1024, 1024, 1024, 0, 6, 3755, 3736, 3729, 3767, 3757, 3763, 0, 1, 16701, -89.900, 0.000, 62.300, 0.000, 0.000, -2.900, 0.0, , , , , , 98, , , 13, 13, 13
36.7673259, -118.8834288, 33.600, 12:45:13.793, 17, 0.00, 0.39, 98, -3.800, -0.800, 61.100, 210, 100, 99, 16, 22600, -20765, 5437, 5548, 8, 14, 1523735113.795, 51, 0, 1024, 1024, 1024, 1024, 0, 6, 3755, 3736, 3729, 3767, 3757, 3763, 0, 1, 16802, -89.900, 0.000, 62.300, 0.000, 0.000, -2.900, 0.0, , , , , , 98, , , 13, 13, 13
36.7673260, -118.8834288, 33.900, 12:45:13.893, 17, 0.00, 0.38, 98, -3.600, -0.900, 61.200, 210, 100, 99, 16, 22600, -20765, 5437, 5548, 8, 14, 1523735113.894, 34, 0, 1024, 1024, 1024, 1024, 0, 6, 3755, 3736, 3729, 3767, 3757, 3763, 0, 1, 16902, -89.900, 0.000, 62.300, 0.000, 0.000, -2.900, 0.0, , , , , , 98, , , 13, 13, 13
36.7673261, -118.8834288, 34.200, 12:45:13.993, 17, 0.10, 0.37, 98, -3.500, -0.900, 61.300, 210, 100, 99, 16, 22600, -20765, 5437, 5548, 8, 14, 1523735113.994, 49, 0, 1024, 1024, 1024, 1024, 0, 6, 3755, 3736, 3729, 3767, 3757, 3763, 0, 1, 17001, -89.900, 0.000, 62.300, 0.100, 0.000, -3.000, 0.0, , , , , , 98, , , 13, 13, 13
36.7673261, -118.8834288, 34.500, 12:45:14.093, 17, 0.10, 0.36, 98, -3.500, -0.600, 61.400, 210, 100, 99, 16, 22600, -20765, 5437, 5548, 8, 14, 1523735114.094, 45, 0, 1024, 1024, 1024, 1024, 0, 6, 3755, 3736, 3729, 3767, 3757, 3763, 0, 1, 17101, -89.900, 0.000, 62.300, 0.100, 0.000, -3.100, 0.0, , , , , , 98, , , 13, 13, 13
36.7673262, -118.8834287, 34.800, 12:45:14.192, 17, 0.10, 0.35, 98, -3.700, 0.000, 61.400, 210, 100, 99, 16, 22600, -20765, 5437, 5548, 8, 14, 1523735114.193, 33, 0, 1024, 1024, 1024, 1024, 0, 6, 3755, 3736, 3729, 3767, 3757, 3763, 0, 1, 17200, -89.900, 0.000, 62.300, 0.100, 0.000, -3.200, 0.0, , , , , , 98, , , 13, 13, 13
36.7673264, -118.8834287, 35.100, 12:45:14.292, 17, 0.10, 0.34, 98, -3.800, 0.200, 61.400, 210, 100, 99, 16, 22600, -20765, 5437, 5548, 8, 14, 1523735114.293, 39, 0, 1024, 1024, 1024, 1024, 0, 6, 3755, 3736, 3729, 3767, 3757, 3763, 0, 1, 17301, -89.900, 0.000, 62.300, 0.100, 0.000, -3.200, 0.0, , , , , , 98, , , 13, 13, 13
36.7673264, -118.8834286, 35.400, 12:45:14.393, 17, 0.10, 0.33, 98, -3.700, 0.300, 61.400, 210, 100, 99, 16, 22600, -20765, 5437, 5548, 8, 14, 1523735114.396, 34, 0, 1024, 1024, 1024, 1024, 0, 6, 3755, 3736, 3729, 3767, 3757, 3763, 0, 1, 17404, -89.900, 0.000, 62.300, 0.100, 0.000, -3.100, 0.0, , , , , , 98, , , 13, 13, 13
36.7673265, -118.8834286, 35.700, 12:45:14.493, 17, 0.10, 0.32, 98, -3.500, 0.400, 61.400, 210, 100, 99, 16, 22600, -20765, 5437, 5548, 8, 14, 1523735114.494, 9, 0, 1024, 1024, 1024, 1024, 0, 6, 3755, 3736, 3729, 3767, 3757, 3763, 0, 1, 17502, -89.900, 0.000, 62.300, 0.100, 0.000, -3.100, 0.0, , , , , , 98, , , 13, 13, 13
36.7673266, -118.8834286, 36.000, 12:45:14.593, 17, 0.10, 0.31, 97, -3.200, 0.300, 61.300, 210, 100, 99, 16, 22271, -24229, 5381, 5548, 8, 14, 1523735114.593, 32, 0, 1024, 1024, 1024, 1024, 0, 6, 3704, 3706, 3691, 3727, 3716, 3705, 0, 1, 17601, -89.900, 0.000, 62.300, 0.100, 0.000, -3.100, 0.0, , , , , , 98, , , 13, 13, 13
36.7673266, -118.8834286, 36.000, 12:45:14.696, 17, 0.10, 0.31, 97, -3.200, 0.300, 61.300, 210, 100, 98, 16, 22271, -24229, 5381, 5548, 8, 14, 1523735114.697, 136, 0, 1024, 1024, 1024, 1024, 0, 6, 3704, 3706, 3691, 3727, 3716, 3705, 0, 1, 17705, -89.900, 0.000, 62.300, 0.100, 0.000, -3.100, 0.0, , , , , , 98, , , 13, 13, 13
36.7673266, -118.8834286, 36.000, 12:45:14.793, 17, 0.10, 0.31, 97, -3.200, 0.300, 61.300, 210, 100, 98, 16, 22271, -24229, 5381, 5548, 8, 14, 1523735114.795, 234, 0, 1024, 1024, 1024, 1024, 0, 6, 3704, 3706, 3691, 3727, 3716, 3705, 0, 1, 17803, -89.900, 0.000, 62.300, 0.100, 0.000, -3.100, 0.0, , , , , , 98, , , 13, 13, 13
36.7673267, -118.8834285, 37.000, 12:45:14.893, 17, 0.00, 0.30, 97, -4.000, 0.400, 61.400, 210, 100, 98, 16, 22271, -24229, 5381, 5548, 8, 14, 1523735114.894, 9, 0, 1024, 1024, 1024, 1024, 0, 6, 3704, 3706, 3691, 3727, 3716, 3705, 0, 1, 17901, -89.900, 0.000, 62.300, 0.000, 0.000, -3.100, 0.0, , , , , , 98, , , 13, 13, 13
36.7673267, -118.8834284, 37.300, 12:45:15.013, 17, 0.00, 0.30, 97, -4.100, 0.500, 61.300, 210, 100, 98, 16, 22271, -24229, 5381, 5548, 8, 14, 1523735115.014, 6, 0, 1024, 1024, 1024, 1024, 0, 6, 3704, 3706, 3691, 3727, 3716, 3705, 0, 1, 18022, -89.900, 0.000, 62.300, 0.000, 0.000, -3.000, 0.0, , , , , , 98, , , 13, 13, 13
36.7673267, -118.8834284, 37.300, 12:45:15.093, 17, 0.00, 0.30, 97, -4.100, 0.500, 61.300, 210, 100, 98, 16, 22271, -24229, 5381, 5548, 8, 14, 1523735115.094, 86, 0, 1024, 1024, 1024, 1024, 0, 6, 3704, 3706, 3691, 3727, 3716, 3705, 0, 1, 18102, -89.900, 0.000, 62.300, 0.000, 0.000, -3.000, 0.0, , , , , , 98, , , 13, 13, 13
36.7673267, -118.8834284, 37.300, 12:45:15.197, 17, 0.00, 0.30, 97, -4.100, 0.500, 61.300, 210, 100, 98, 16, 22271, -24229, 5381, 5548, 8, 14, 1523735115.198, 189, 0, 1024, 1024, 1024, 1024, 0, 6, 3704, 3706, 3691, 3727, 3716, 3705, 0, 1, 18205, -89.900, 0.000, 62.300, 0.000, 0.000, -3.000, 0.0, , , , , , 98, , , 13, 13, 13
36.7673267, -118.8834284, 37.900, 12:45:15.297, 18, 0.00, 0.31, 97, -4.300, 0.200, 61.300, 210, 100, 99, 16, 22271, -24229, 5381, 5548, 8, 14, 1523735115.299, 80, 0, 1024, 1024, 1024, 1024, 0, 6, 3704, 3706, 3691, 3727, 3716, 3705, 0, 1, 18306, -89.900, 0.000, 62.300, 0.000, 0.000, -3.100, 0.0, , , , , , 98, , , 13, 13, 13
36.7673267, -118.8834284, 38.200, 12:45:15.397, 18, 0.00, 0.31, 97, -4.500, 0.000, 61.300, 210, 100, 99, 16, 22271, -24229, 5381, 5548, 8, 14, 1523735115.398, 66, 0, 1024, 1024, 1024, 1024, 0, 6, 3704, 3706, 3691, 3727, 3716, 3705, 0, 1, 18406, -89.900, 0.000, 62.300, 0.000, 0.000, -3.100, 0.0, , , , , , 98, , , 13, 13, 13
36.7673267, -118.8834284, 38.500, 12:45:15.495, 18, 0.00, 0.30, 97, -4.500, 0.000, 61.400, 210, 100, 99, 16, 22271, -24229, 5381, 5548, 8, 14, 1523735115.495, 68, 0, 1024, 1024, 1024, 1024, 0, 6, 3704, 3706, 3691, 3727, 3716, 3705, 0, 1, 18503, -89.900, 0.000, 62.300, 0.000, 0.000, -3.100, 0.0, , , , , , 98, , , 13, 13, 13
36.7673267, -118.8834284, 38.800, 12:45:15.596, 18, 0.00, 0.31, 97, -4.300, 0.000, 61.400, 210, 100, 99, 16, 22271, -24229, 5381, 5548, 8, 14, 1523735115.598, 66, 0, 1024, 1024, 1024, 1024, 0, 6, 3704, 3706, 3691, 3727, 3716, 3705, 0, 1, 18606, -89.900, 0.000, 62.300, 0.000, 0.000, -3.000, 0.0, , , , , , 98, , , 13, 13, 13
36.7673267, -118.8834285, 39.100, 12:45:15.693, 17, 0.10, 0.31, 97, -4.100, -0.300, 61.400, 210, 100, 99, 16, 22271, -24229, 5381, 5548, 8, 14, 1523735115.693, 60, 0, 1024, 1024, 1024, 1024, 0, 6, 3704, 3706, 3691, 3727, 3716, 3705, 0, 1, 18701, -90.000, 0.000, 62.300, 0.000, -0.100, -3.000, 0.0, , , , , , 98, , , 13, 13, 13
36.7673267, -118.8834285, 39.400, 12:45:15.794, 17, 0.00, 0.30, 97, -4.000, -0.400, 61.500, 210, 100, 99, 16, 22271, -24229, 5381, 5548, 8, 14, 1523735115.795, 66, 0, 1024, 1024, 1024, 1024, 0, 6, 3704, 3706, 3691, 3727, 3716, 3705, 0, 1, 18803, -89.900, 0.000, 62.300, 0.000, 0.000, -3.000, 0.0, , , , , , 98, , , 13, 13, 13
36.7673267, -118.8834285, 39.700, 12:45:15.896, 17, 0.10, 0.30, 97, -4.000, -0.600, 61.600, 210, 100, 99, 16, 22271, -24229, 5381, 5548, 8, 14, 1523735115.897, 85, 0, 1024, 1024, 1024, 1024, 0, 6, 3704, 3706, 3691, 3727, 3716, 3705, 0, 1, 18905, -89.900, 0.000, 62.300, 0.000, -0.100, -3.100, 0.0, , , , , , 98, , , 13, 13, 13
36.7673267, -118.8834286, 40.400, 12:45:15.995, 18, 0.00, 0.30, 97, -3.600, -0.500, 61.600, 210, 100, 99, 16, 22271, -24229, 5381, 5548, 8, 14, 1523735115.996, 24, 0, 1024, 1024, 1024, 1024, 0, 6, 3704, 3706, 3691, 3727, 3716, 3705, 0, 1, 19003, -89.900, 0.000, 62.300, 0.000, 0.000, -3.100, 0.0, , , , , , 98, , , 13, 13, 13
36.7673267, -118.8834286, 40.400, 12:45:16.096, 18, 0.00, 0.30, 97, -3.600, -0.500, 61.600, 210, 100, 99, 16, 22271, -24229, 5381, 5548, 8, 14, 1523735116.098, 126, 0, 1024, 1024, 1024, 1024, 0, 6, 3704, 3706, 3691, 3727, 3716, 3705, 0, 1, 19106, -89.900, 0.000, 62.300, 0.000, 0.000, -3.100, 0.0, , , , , , 98, , , 13, 13, 13
36.7673267, -118.8834286, 40.400, 12:45:16.196, 18, 0.00, 0.30, 97, -3.600, -0.500, 61.600, 210, 100, 99, 16, 22271, -24229, 5381, 5548, 8, 14, 1523735116.197, 225, 0, 1024, 1024, 1024, 1024, 0, 6, 3704, 3706, 3691, 3727, 3716, 3705, 0, 1, 19205, -89.900, 0.000, 62.300, 0.000, 0.000, -3.100, 0.0, , , , , , 98, , , 13, 13, 13
36.7673267, -118.8834286, 40.900, 12:45:16.293, 18, 0.00, 0.30, 97, -3.900, -0.600, 61.500, 210, 100, 99, 16, 22361, -22317, 5381, 5548, 8, 14, 1523735116.294, 54, 0, 1024, 1024, 1024, 1024, 0, 6, 3731, 3730, 3707, 3757, 3746, 3724, 0, 1, 19301, -89.900, 0.000, 62.300, 0.000, 0.000, -3.000, 0.0, , , , , , 98, , , 13, 13, 13
36.7673267, -118.8834286, 41.200, 12:45:16.394, 18, 0.00, 0.30, 97, -4.300, -0.600, 61.400, 210, 100, 100, 16, 22361, -22317, 5381, 5548, 8, 14, 1523735116.395, 51, 0, 1024, 1024, 1024, 1024, 0, 6, 3731, 3730, 3707, 3757, 3746, 3724, 0, 1, 19402, -89.900, 0.000, 62.300, 0.000, 0.000, -2.900, 0.0, , , , , , 98, , , 13, 13, 13
36.7673267, -118.8834286, 41.500, 12:45:16.493, 18, 0.00, 0.31, 97, -4.600, -0.400, 61.400, 210, 100, 100, 16, 22361, -22317, 5381, 5548, 8, 14, 1523735116.494, 43, 0, 1024, 1024, 1024, 1024, 0, 6, 3731, 3730, 3707, 3757, 3746, 3724, 0, 1, 19502, -89.900, 0.000, 62.300, 0.000, 0.000, -2.900, 0.0, , , , , , 98, , , 13, 13, 13
36.7673266, -118.8834286, 41.800, 12:45:16.593, 18, 0.00, 0.31, 97, -4.600, -0.100, 61.400, 210, 100, 100, 16, 22361, -22317, 5381, 5548, 8, 14, 1523735116.594, 10, 0, 1024, 1024, 1024, 1024, 0, 6, 3731, 3730, 3707, 3757, 3746, 3724, 0, 1, 19601, -89.900, 0.000, 62.300, 0.000, 0.000, -2.900, 0.0, , , , , , 98, , , 13, 13, 13
36.7673265, -118.8834286, 42.100, 12:45:16.695, 18, 0.00, 0.32, 97, -4.400, 0.000, 61.400, 210, 100, 100, 16, 22361, -22317, 5381, 5548, 8, 14, 1523735116.696, 34, 0, 1024, 1024, 1024, 1024, 0, 6, 3731, 3730, 3707, 3757, 3746, 3724, 0, 1, 19704, -89.900, 0.000, 62.300, 0.000, 0.000, -2.900, 0.0, , , , , , 98, , , 13, 13, 13
36.7673265, -118.8834286, 42.100, 12:45:16.797, 18, 0.00, 0.32, 97, -4.400, 0.000, 61.400, 210, 100, 100, 16, 22381, -21799, 5381, 5548, 8, 14, 1523735116.798, 136, 0, 1024, 1024, 1024, 1024, 0, 6, 3731, 3730, 3707, 3757, 3746, 3724, 0, 1, 19805, -89.900, 0.000, 62.300, 0.000, 0.000, -2.900, 0.0, , , , , , 98, , , 13, 13, 13
36.7673265, -118.8834286, 42.700, 12:45:16.895, 18, 0.10, 0.32, 97, -3.900, -0.500, 61.400, 210, 100, 100, 16, 22381, -21799, 5381, 5548, 8, 14, 1523735116.896, 14, 0, 1024, 1024, 1024, 1024, 0, 6, 3731, 3730, 3707, 3757, 3746, 3724, 0, 1, 19904, -89.900, 0.000, 62.300, 0.000, -0.100, -2.900, 0.0, , , , , , 98, , , 13, 13, 13
36.7673265, -118.8834287, 43.000, 12:45:16.995, 18, 0.10, 0.32, 97, -3.700, -0.700, 61.500, 210, 100, 100, 16, 22381, -21799, 5381, 5548, 8, 14, 1523735116.996, 28, 0, 1024, 1024, 1024, 1024, 0, 6, 3726, 3726, 3708, 3751, 3746, 3727, 0, 1, 20003, -90.000, 0.000, 62.300, 0.000, -0.100, -2.900, 0.0, , , , , , 98, , , 13, 13, 13
36.7673265, -118.8834288, 43.300, 12:45:17.095, 18, 0.10, 0.32, 97, -3.500, -0.900, 61.500, 210, 100, 100, 16, 22381, -21799, 5381, 5548, 8, 14, 1523735117.096, 18, 0, 1024, 1024, 1024, 1024, 0, 6, 3726, 3726, 3708, 3751, 3746, 3727, 0, 1, 20104, -90.000, 0.000, 62.300, 0.000, -0.100, -2.900, 0.0, , , , , , 98, , , 13, 13, 13
36.7673265, -118.8834288, 43.300, 12:45:17.194, 18, 0.10, 0.32, 97, -3.500, -0.900, 61.500, 210, 100, 100, 16, 22381, -21799, 5381, 5548, 8, 14, 1523735117.196, 117, 0, 1024, 1024, 1024, 1024, 0, 6, 3726, 3726, 3708, 3751, 3746, 3727, 0, 1, 20203, -90.000, 0.000, 62.300, 0.000, -0.100, -2.900, 0.0, , , , , , 98, , , 13, 13, 13
36.7673265, -118.8834288, 43.600, 12:45:17.293, 18, 0.10, 0.32, 97, -3.300, -1.000, 61.500, 210, 100, 100, 16, 22381, -21799, 5381, 5548, 8, 14, 1523735117.294, 63, 0, 1024, 1024, 1024, 1024, 0, 6, 3726, 3726, 3708, 3751, 3746, 3727, 0, 1, 20302, -89.900, 0.000, 62.300, 0.000, -0.100, -2.900, 0.0, , , , , , 98, , , 13, 13, 13
36.7673266, -118.8834289, 44.200, 12:45:17.393, 18, 0.14, 0.31, 97, -3.200, -0.700, 61.400, 210, 100, 100, 16, 22381, -21799, 5381, 5548, 8, 14, 1523735117.394, 22, 0, 1024, 1024, 1024, 1024, 0, 6, 3726, 3726, 3708, 3751, 3746, 3727, 0, 1, 20402, -89.900, 0.000, 62.300, 0.100, -0.100, -3.000, 0.0, , , , , , 98, , , 13, 13, 13
36.7673267, -118.8834289, 44.500, 12:45:17.493, 18, 0.14, 0.30, 97, -3.100, -0.700, 61.400, 210, 100, 100, 16, 22381, -21799, 5381, 5548, 8, 14, 1523735117.494, 29, 0, 1024, 1024, 1024, 1024, 0, 6, 3726, 3726, 3708, 3751, 3746, 3727, 0, 1, 20501, -89.900, 0.000, 62.300, 0.100, -0.100, -3.000, 0.0, , , , , , 98, , , 13, 13, 13
36.7673269, -118.8834290, 45.100, 12:45:17.596, 18, 0.14, 0.28, 97, -2.700, -0.300, 61.500, 210, 100, 100, 16, 22260, -22304, 5381, 5548, 8, 14, 1523735117.597, 11, 0, 1024, 1024, 1024, 1024, 0, 6, 3726, 3726, 3708, 3751, 3746, 3727, 0, 1, 20604, -89.900, 0.000, 62.300, 0.100, -0.100, -3.100, 0.0, , , , , , 98, , , 13, 13, 13
36.7673269, -118.8834290, 45.100, 12:45:17.693, 18, 0.14, 0.28, 97, -2.700, -0.300, 61.500, 210, 100, 100, 16, 22260, -22304, 5381, 5548, 8, 14, 1523735117.694, 108, 0, 1024, 1024, 1024, 1024, 0, 6, 3726, 3726, 3708, 3751, 3746, 3727, 0, 1, 20701, -89.900, 0.000, 62.300, 0.100, -0.100, -3.100, 0.0, , , , , , 98, , , 13, 13, 13
36.7673270, -118.8834290, 45.500, 12:45:17.794, 18, 0.14, 0.27, 97, -2.500, -0.300, 61.500, 210, 100, 100, 16, 22260, -22304, 5381, 5548, 8, 14, 1523735117.795, 97, 0, 1024, 1024, 1024, 1024, 0, 6, 3726, 3726, 3708, 3751, 3746, 3727, 0, 1, 20803, -89.900, 0.000, 62.300, 0.100, -0.100, -3.100, 0.0, , , , , , 98, , , 13, 13, 13
36.7673270, -118.8834291, 45.800, 12:45:17.893, 18, 0.14, 0.26, 97, -2.400, -0.400, 61.600, 210, 100, 100, 16, 22260, -22304, 5381, 5548, 8, 14, 1523735117.894, 82, 0, 1024, 1024, 1024, 1024, 0, 6, 3726, 3726, 3708, 3751, 3746, 3727, 0, 1, 20902, -89.900, 0.000, 62.300, 0.100, -0.100, -3.100, 0.0, , , , , , 98, , , 13, 13, 13
36.7673271, -118.8834291, 46.100, 12:45:17.993, 18, 0.10, 0.26, 97, -2.300, -0.400, 61.600, 210, 100, 100, 16, 22260, -22304, 5381, 5548, 8, 14, 1523735117.994, 76, 0, 1024, 1024, 1024, 1024, 0, 6, 3726, 3726, 3708, 3751, 3746, 3727, 0, 1, 21001, -89.900, 0.000, 62.300, 0.100, 0.000, -3.100, 0.0, , , , , , 98, , , 13, 13, 13
36.7673271, -118.8834291, 46.400, 12:45:18.093, 18, 0.10, 0.25, 97, -2.500, -0.400, 61.600, 210, 100, 100, 16, 22260, -22304, 5381, 5548, 8, 14, 1523735118.094, 90, 0, 1024, 1024, 1024, 1024, 0, 6, 3726, 3726, 3708, 3751, 3746, 3727, 0, 1, 21102, -89.900, 0.000, 62.300, 0.100, 0.000, -3.100, 0.0, , , , , , 98, , , 13, 13, 13
