Latitude, Longitude, Altitude (m), Time, Sats, Speed (m/s), Range (m), Battery (%), Roll (deg), Pitch (deg), Yaw (deg), Images, HD Signal (%), RC Signal (%), Battery Temp (C), Battery Voltage (mV), Battery Current (mA), Battery Energy (mAh), Battery Capacity (mAh), Battery Discharges, flyState, timestamp (Unix), LastUpdate (ms), radioChannel, Rc_elevator, Rc_aileron, Rc_throttle, Rc_rudder, Rc_gyro, Dronetype, Battery_Cell1 (mV), Battery_Cell2 (mV), Battery_Cell3 (mV), Battery_Cell4 (mV), Battery_Cell5 (mV), Battery_Cell6 (mV), Video, isFlying, elapsedTime (ms), gimbalPitch (deg), gimbalRoll (deg), gimbalYaw (deg), VelocityX (m/s), VelocityY (m/s), VelocityZ (m/s), GroundSmear (cm), App Version, Aircraft Name, Aircraft Firmware, Aircraft Serial Number, Battery Serial Number, Battery Lifetime (%), App_Tip, App_Warning, CurrentFlightStartingIndex, CurrentFlightLastVisitedWaypoint, PreviousFlightEndingWaypointIndex
36.7673126, -118.8834258, 0.000, 12:28:57.804, 14, 0.10, 0.03, 90, -0.700, 0.400, 65.700, 2, 100, 100, 25, 25338, -3917, 4959, 5510, 10, 11, 1523734137.804, 134, 0, 1024, 1024, 1024, 1024, 0, 6, 4239, 4219, 4243, 4223, 4219, 4217, 0, 1, 2995, -90.000, 0.000, 65.500, 0.000, -0.100, -0.100, 0.0, MapPilot_2.7.4_02272018, Dendroctonus I, 1.3.1.00, 041DDC1887, 1058171200140, 98, DJI_0001.jpg, Starting Mission from Lat/Long: 36.76729/-118.88339 Camera: Zenmuse X3 - Overlap: 90/90 - Active Connection: Yes, 0, 0, 0
36.7673126, -118.8834260, 0.000, 12:28:57.813, 14, 0.14, 0.05, 90, 0.000, -0.300, 65.800, 2, 100, 100, 25, 25338, -3917, 4959, 5510, 10, 11, 1523734137.814, 5, 0, 1024, 1024, 1024, 1024, 0, 6, 4239, 4219, 4243, 4223, 4219, 4217, 0, 1, 3004, -90.000, 0.000, 65.500, 0.100, -0.100, -0.200, 0.0, , , , , , 98, , , 0, 0, 0
36.7673128, -118.8834261, 0.000, 12:28:57.909, 14, 0.14, 0.07, 90, 0.400, -0.400, 65.800, 2, 100, 100, 25, 25338, -3917, 4959, 5510, 10, 11, 1523734137.909, 19, 0, 1024, 1024, 1024, 1024, 0, 6, 4239, 4219, 4243, 4223, 4219, 4217, 0, 1, 3100, -89.900, 0.000, 65.500, 0.100, -0.100, -0.200, 0.0, , , , , , 98, , , 0, 0, 0
36.7673129, -118.8834263, 0.000, 12:28:58.010, 14, 0.14, 0.09, 90, 0.400, -0.500, 65.800, 2, 100, 100, 25, 25338, -3917, 4959, 5510, 10, 11, 1523734138.010, 16, 0, 1024, 1024, 1024, 1024, 0, 6, 4239, 4219, 4243, 4223, 4219, 4217, 0, 1, 3201, -89.900, 0.000, 65.500, 0.100, -0.100, -0.300, 0.0, , , , , , 98, , , 0, 0, 0
36.7673131, -118.8834264, 0.000, 12:28:58.110, 14, 0.10, 0.11, 90, 0.800, -0.300, 65.700, 2, 100, 100, 25, 25338, -3917, 4959, 5510, 10, 11, 1523734138.110, 19, 0, 1024, 1024, 1024, 1024, 0, 6, 4239, 4219, 4243, 4223, 4219, 4217, 0, 1, 3301, -89.900, 0.000, 65.500, 0.100, 0.000, -0.300, 0.0, , , , , , 98, , , 0, 0, 0
36.7673132, -118.8834265, 0.100, 12:28:58.209, 14, 0.10, 0.13, 90, 1.200, -0.200, 65.700, 2, 100, 100, 25, 25338, -3917, 4959, 5510, 10, 11, 1523734138.210, 25, 0, 1024, 1024, 1024, 1024, 0, 6, 4239, 4219, 4243, 4223, 4219, 4217, 0, 1, 3400, -89.900, 0.000, 65.500, 0.100, 0.000, -0.300, 0.0, , , , , , 98, , , 0, 0, 0
36.7673134, -118.8834265, 0.100, 12:28:58.310, 13, 0.10, 0.14, 90, 1.100, -0.100, 65.600, 2, 100, 100, 25, 24962, -8083, 4959, 5510, 10, 11, 1523734138.311, 17, 0, 1024, 1024, 1024, 1024, 0, 6, 4139, 4145, 4125, 4143, 4118, 4146, 0, 1, 3502, -89.900, 0.000, 65.500, 0.100, 0.000, -0.300, 0.0, , , , , , 98, , , 0, 0, 0
36.7673137, -118.8834265, 0.200, 12:28:58.410, 14, 0.10, 0.17, 90, 1.200, 0.400, 65.500, 2, 100, 100, 25, 24962, -8083, 4959, 5510, 10, 11, 1523734138.411, 5, 0, 1024, 1024, 1024, 1024, 0, 6, 4139, 4145, 4125, 4143, 4118, 4146, 0, 1, 3601, -89.900, 0.000, 65.500, 0.100, 0.000, -0.400, 0.0, , , , , , 98, , , 0, 0, 0
36.7673137, -118.8834265, 0.200, 12:28:58.510, 14, 0.10, 0.17, 90, 1.200, 0.400, 65.500, 2, 100, 100, 25, 24962, -8083, 4959, 5510, 10, 11, 1523734138.510, 105, 0, 1024, 1024, 1024, 1024, 0, 6, 4139, 4145, 4125, 4143, 4118, 4146, 0, 1, 3701, -89.900, 0.000, 65.500, 0.100, 0.000, -0.400, 0.0, , , , , , 98, , , 0, 0, 0
36.7673138, -118.8834265, 0.200, 12:28:58.609, 14, 0.10, 0.19, 90, 1.100, 0.600, 65.600, 2, 100, 100, 25, 24962, -8083, 4959, 5510, 10, 11, 1523734138.609, 93, 0, 1024, 1024, 1024, 1024, 0, 6, 4139, 4145, 4125, 4143, 4118, 4146, 0, 1, 3800, -89.900, 0.000, 65.500, 0.100, 0.000, -0.400, 0.0, , , , , , 98, , , 0, 0, 0
36.7673139, -118.8834265, 0.300, 12:28:58.709, 14, 0.10, 0.19, 90, 1.200, 0.600, 65.700, 2, 100, 100, 25, 24962, -8083, 4959, 5510, 10, 11, 1523734138.709, 90, 0, 1024, 1024, 1024, 1024, 0, 6, 4139, 4145, 4125, 4143, 4118, 4146, 0, 1, 3900, -89.900, 0.000, 65.500, 0.100, 0.000, -0.400, 0.0, , , , , , 98, , , 0, 0, 0
36.7673139, -118.8834265, 0.300, 12:28:58.810, 14, 0.00, 0.20, 90, 1.200, 0.800, 65.800, 2, 100, 100, 25, 24962, -8083, 4959, 5510, 10, 11, 1523734138.810, 85, 0, 1024, 1024, 1024, 1024, 0, 6, 4139, 4145, 4125, 4143, 4118, 4146, 0, 1, 4001, -89.900, 0.000, 65.500, 0.000, 0.000, -0.400, 0.0, , , , , , 98, , , 0, 0, 0
36.7673140, -118.8834264, 0.400, 12:28:58.910, 13, 0.00, 0.20, 90, 1.200, 1.000, 66.000, 2, 100, 100, 25, 24962, -8083, 4959, 5510, 10, 11, 1523734138.910, 85, 0, 1024, 1024, 1024, 1024, 0, 6, 4139, 4145, 4125, 4143, 4118, 4146, 0, 1, 4101, -89.900, 0.000, 65.500, 0.000, 0.000, -0.500, 0.0, , , , , , 98, , , 0, 0, 0
36.7673140, -118.8834263, 0.500, 12:28:59.010, 13, 0.00, 0.20, 90, 1.200, 1.200, 66.000, 2, 100, 100, 25, 24962, -8083, 4959, 5510, 10, 11, 1523734139.010, 65, 0, 1024, 1024, 1024, 1024, 0, 6, 4139, 4145, 4125, 4143, 4118, 4146, 0, 1, 4201, -89.900, 0.000, 65.500, 0.000, 0.000, -0.500, 0.0, , , , , , 98, , , 0, 0, 0
36.7673141, -118.8834262, 0.500, 12:28:59.109, 13, 0.00, 0.20, 90, 1.000, 1.400, 66.100, 2, 100, 100, 25, 24962, -8083, 4959, 5510, 10, 11, 1523734139.109, 89, 0, 1024, 1024, 1024, 1024, 0, 6, 4139, 4145, 4125, 4143, 4118, 4146, 0, 1, 4300, -89.900, 0.000, 65.500, 0.000, 0.000, -0.400, 0.0, , , , , , 98, , , 0, 0, 0
36.7673141, -118.8834262, 0.500, 12:28:59.209, 13, 0.00, 0.20, 90, 1.000, 1.400, 66.100, 2, 100, 100, 25, 24962, -8083, 4959, 5510, 10, 11, 1523734139.210, 190, 0, 1024, 1024, 1024, 1024, 0, 6, 4139, 4145, 4125, 4143, 4118, 4146, 0, 1, 4400, -89.900, 0.000, 65.500, 0.000, 0.000, -0.400, 0.0, , , , , , 98, , , 0, 0, 0
36.7673142, -118.8834261, 0.600, 12:28:59.309, 12, 0.00, 0.22, 90, 1.000, 1.500, 66.000, 2, 100, 100, 25, 24366, -15392, 4959, 5510, 10, 11, 1523734139.309, 67, 0, 1024, 1024, 1024, 1024, 0, 6, 4139, 4145, 4125, 4143, 4118, 4146, 0, 1, 4500, -89.900, 0.000, 65.500, 0.000, 0.000, -0.400, 0.0, , , , , , 98, , , 0, 0, 0
36.7673142, -118.8834261, 0.600, 12:28:59.410, 12, 0.00, 0.22, 90, 1.100, 1.500, 66.000, 2, 100, 100, 25, 24366, -15392, 4959, 5510, 10, 11, 1523734139.410, 56, 0, 1024, 1024, 1024, 1024, 0, 6, 4139, 4145, 4125, 4143, 4118, 4146, 0, 1, 4601, -89.900, 0.000, 65.500, 0.000, 0.000, -0.400, 0.0, , , , , , 98, , , 0, 0, 0
36.7673142, -118.8834261, 0.700, 12:28:59.510, 13, 0.00, 0.22, 90, 1.100, 1.500, 65.900, 2, 100, 100, 25, 24366, -15392, 4959, 5510, 10, 11, 1523734139.510, 72, 0, 1024, 1024, 1024, 1024, 0, 6, 4139, 4145, 4125, 4143, 4118, 4146, 0, 1, 4701, -89.900, 0.000, 65.500, 0.000, 0.000, -0.400, 0.0, , , , , , 98, , , 0, 0, 0
36.7673141, -118.8834260, 0.700, 12:28:59.610, 13, 0.00, 0.21, 90, 1.000, 1.500, 65.900, 2, 100, 100, 25, 24366, -15392, 4959, 5510, 10, 11, 1523734139.610, 60, 0, 1024, 1024, 1024, 1024, 0, 6, 4139, 4145, 4125, 4143, 4118, 4146, 0, 1, 4801, -89.900, 0.000, 65.500, 0.000, 0.000, -0.400, 0.0, , , , , , 98, , , 0, 0, 0
36.7673141, -118.8834259, 0.800, 12:28:59.709, 13, 0.00, 0.21, 90, 0.700, 1.400, 65.900, 2, 100, 100, 25, 24366, -15392, 4959, 5510, 10, 11, 1523734139.709, 38, 0, 1024, 1024, 1024, 1024, 0, 6, 4139, 4145, 4125, 4143, 4118, 4146, 0, 1, 4900, -89.900, 0.000, 65.500, 0.000, 0.000, -0.500, 0.0, , , , , , 98, , , 0, 0, 0
36.7673141, -118.8834258, 0.900, 12:28:59.810, 13, 0.00, 0.21, 89, 0.500, 1.400, 65.900, 2, 100, 100, 25, 24366, -15392, 4903, 5510, 10, 11, 1523734139.810, 56, 0, 1024, 1024, 1024, 1024, 0, 6, 4026, 4042, 4058, 4072, 4046, 4057, 0, 1, 5001, -89.900, 0.000, 65.500, 0.000, 0.000, -0.400, 0.0, , , , , , 98, , , 0, 0, 0
36.7673141, -118.8834258, 0.900, 12:28:59.910, 12, 0.00, 0.20, 89, 0.400, 1.500, 65.800, 2, 100, 100, 25, 24366, -15392, 4903, 5510, 10, 14, 1523734139.910, 36, 0, 1024, 1024, 1024, 1024, 0, 6, 4026, 4042, 4058, 4072, 4046, 4057, 0, 1, 5101, -89.900, 0.000, 65.500, 0.000, 0.000, -0.400, 0.0, , , , , , 98, , , 0, 0, 0
36.7673140, -118.8834257, 0.900, 12:29:00.010, 12, 0.00, 0.19, 89, 0.000, 1.300, 65.800, 2, 100, 100, 25, 24366, -15392, 4903, 5510, 10, 14, 1523734140.010, 10, 0, 1024, 1024, 1024, 1024, 0, 6, 4026, 4042, 4058, 4072, 4046, 4057, 0, 1, 5201, -89.900, 0.000, 65.500, 0.000, 0.000, -0.300, 0.0, , , , , , 98, , , 0, 0, 0
36.7673139, -118.8834257, 1.000, 12:29:00.110, 13, 0.00, 0.18, 89, -0.600, 0.800, 65.800, 2, 100, 100, 25, 24366, -15392, 4903, 5510, 10, 14, 1523734140.110, 28, 0, 1024, 1024, 1024, 1024, 0, 6, 4026, 4042, 4058, 4072, 4046, 4057, 0, 1, 5301, -90.000, 0.000, 65.500, 0.000, 0.000, -0.200, 0.0, , , , , , 98, , , 0, 0, 0
36.7673137, -118.8834257, 1.000, 12:29:00.209, 13, 0.00, 0.16, 89, -0.900, 0.500, 65.700, 2, 100, 100, 25, 24366, -15392, 4903, 5510, 10, 14, 1523734140.209, 34, 0, 1024, 1024, 1024, 1024, 0, 6, 4026, 4042, 4058, 4072, 4046, 4057, 0, 1, 5400, -90.000, 0.000, 65.500, 0.000, 0.000, -0.200, 0.0, , , , , , 98, , , 0, 0, 0
36.7673137, -118.8834256, 1.000, 12:29:00.310, 11, 0.00, 0.16, 89, -0.900, 0.400, 65.600, 2, 100, 100, 25, 24366, -15392, 4903, 5510, 10, 14, 1523734140.312, 37, 0, 1024, 1024, 1024, 1024, 0, 6, 4026, 4042, 4058, 4072, 4046, 4057, 0, 1, 5502, -90.000, 0.000, 65.500, 0.000, 0.000, -0.300, 0.0, , , , , , 98, , , 0, 0, 0
36.7673137, -118.8834256, 1.000, 12:29:00.410, 11, 0.00, 0.16, 89, -0.900, 0.400, 65.600, 2, 100, 100, 25, 24366, -15392, 4903, 5510, 10, 14, 1523734140.410, 136, 0, 1024, 1024, 1024, 1024, 0, 6, 4026, 4042, 4058, 4072, 4046, 4057, 0, 1, 5601, -90.000, 0.000, 65.500, 0.000, 0.000, -0.300, 0.0, , , , , , 98, , , 0, 0, 0
36.7673136, -118.8834254, 1.100, 12:29:00.509, 11, 0.00, 0.15, 89, -1.000, 0.400, 65.400, 2, 100, 100, 25, 24366, -15392, 4903, 5510, 10, 14, 1523734140.509, 89, 0, 1024, 1024, 1024, 1024, 0, 6, 4026, 4042, 4058, 4072, 4046, 4057, 0, 1, 5700, -89.900, 0.000, 65.500, 0.000, 0.000, -0.500, 0.0, , , , , , 98, , , 0, 0, 0
36.7673135, -118.8834254, 1.100, 12:29:00.610, 12, 0.00, 0.14, 89, -1.100, 0.700, 65.000, 2, 100, 100, 25, 24366, -15392, 4903, 5510, 10, 14, 1523734140.610, 94, 0, 1024, 1024, 1024, 1024, 0, 6, 4026, 4042, 4058, 4072, 4046, 4057, 0, 1, 5801, -89.900, 0.000, 65.500, 0.000, 0.000, -0.700, 0.0, , , , , , 98, , , 0, 0, 0
36.7673135, -118.8834253, 1.300, 12:29:00.709, 12, 0.00, 0.14, 89, -1.000, 0.900, 63.900, 2, 100, 100, 25, 24366, -15392, 4903, 5510, 10, 14, 1523734140.709, 90, 0, 1024, 1024, 1024, 1024, 0, 6, 4026, 4042, 4058, 4072, 4046, 4057, 0, 1, 5900, -89.900, 0.000, 65.500, 0.000, 0.000, -0.900, 0.0, , , , , , 98, , , 0, 0, 0
36.7673136, -118.8834253, 1.500, 12:29:00.809, 12, 0.00, 0.16, 89, -0.300, 1.000, 63.000, 2, 100, 100, 25, 24161, -16160, 4903, 5510, 10, 14, 1523734140.809, 9, 0, 1024, 1024, 1024, 1024, 0, 6, 3982, 4030, 4031, 4038, 4015, 4030, 0, 1, 6000, -89.900, 0.000, 65.400, 0.000, 0.000, -1.300, 0.0, , , , , , 98, , , 0, 0, 0
36.7673136, -118.8834253, 1.500, 12:29:00.910, 12, 0.00, 0.16, 89, -0.300, 1.000, 63.000, 2, 100, 100, 25, 24161, -16160, 4903, 5510, 10, 14, 1523734140.910, 110, 0, 1024, 1024, 1024, 1024, 0, 6, 3982, 4030, 4031, 4038, 4015, 4030, 0, 1, 6101, -89.900, 0.000, 65.400, 0.000, 0.000, -1.300, 0.0, , , , , , 98, , , 0, 0, 0
36.7673136, -118.8834253, 1.500, 12:29:01.010, 12, 0.00, 0.16, 89, -0.300, 1.000, 63.000, 2, 100, 100, 25, 24161, -16160, 4903, 5510, 10, 14, 1523734141.010, 210, 0, 1024, 1024, 1024, 1024, 0, 6, 3982, 4030, 4031, 4038, 4015, 4030, 0, 1, 6201, -89.900, 0.000, 65.400, 0.000, 0.000, -1.300, 0.0, , , , , , 98, , , 0, 0, 0
36.7673136, -118.8834253, 1.500, 12:29:01.110, 12, 0.00, 0.16, 89, -0.300, 1.000, 63.000, 2, 100, 100, 25, 24161, -16160, 4903, 5510, 10, 14, 1523734141.110, 310, 0, 1024, 1024, 1024, 1024, 0, 6, 3982, 4030, 4031, 4038, 4015, 4030, 0, 1, 6301, -89.900, 0.000, 65.300, 0.000, 0.000, -1.300, 0.0, , , , , , 98, , , 0, 0, 0
36.7673138, -118.8834253, 2.000, 12:29:01.209, 13, 0.00, 0.17, 89, -0.100, 0.900, 62.300, 2, 100, 100, 25, 24161, -16160, 4903, 5510, 10, 14, 1523734141.210, 47, 0, 1024, 1024, 1024, 1024, 0, 6, 3982, 4030, 4031, 4038, 4015, 4030, 0, 1, 6400, -89.900, 0.000, 65.300, 0.000, 0.000, -2.000, 0.0, , , , , , 98, , , 0, 0, 0
36.7673139, -118.8834253, 2.200, 12:29:01.310, 10, 0.00, 0.18, 89, 0.000, 0.600, 62.300, 2, 100, 100, 25, 24161, -16160, 4903, 5510, 10, 14, 1523734141.310, 65, 0, 1024, 1024, 1024, 1024, 0, 6, 3982, 4030, 4031, 4038, 4015, 4030, 0, 1, 6501, -90.000, 0.000, 65.200, 0.000, 0.000, -2.300, 0.0, , , , , , 98, , , 0, 0, 0
36.7673140, -118.8834253, 2.500, 12:29:01.409, 10, 0.00, 0.20, 89, 0.000, 0.600, 62.400, 2, 100, 100, 25, 24161, -16160, 4903, 5510, 10, 14, 1523734141.409, 67, 0, 1024, 1024, 1024, 1024, 0, 6, 3982, 4030, 4031, 4038, 4015, 4030, 0, 1, 6600, -89.900, 0.000, 65.100, 0.000, 0.000, -2.600, 0.0, , , , , , 98, , , 0, 0, 0
36.7673141, -118.8834253, 2.800, 12:29:01.509, 11, 0.00, 0.20, 89, 0.100, 0.700, 62.700, 2, 100, 100, 25, 24161, -16160, 4903, 5510, 10, 14, 1523734141.509, 48, 0, 1024, 1024, 1024, 1024, 0, 6, 3982, 4030, 4031, 4038, 4015, 4030, 0, 1, 6700, -89.900, 0.000, 65.100, 0.000, 0.000, -2.800, 0.0, , , , , , 98, , , 0, 0, 0
36.7673141, -118.8834253, 3.100, 12:29:01.609, 11, 0.00, 0.21, 89, 0.100, 0.700, 63.100, 2, 100, 100, 25, 24161, -16160, 4903, 5510, 10, 14, 1523734141.610, 55, 0, 1024, 1024, 1024, 1024, 0, 6, 3982, 4030, 4031, 4038, 4015, 4030, 0, 1, 6800, -89.900, 0.000, 65.000, 0.000, 0.000, -3.000, 0.0, , , , , , 98, , , 0, 0, 0
36.7673141, -118.8834253, 3.400, 12:29:01.708, 11, 0.00, 0.21, 89, -0.100, 0.500, 63.500, 2, 100, 100, 25, 24161, -16160, 4903, 5510, 10, 14, 1523734141.709, 45, 0, 1024, 1024, 1024, 1024, 0, 6, 3982, 4030, 4031, 4038, 4015, 4030, 0, 1, 6899, -90.000, 0.000, 65.000, 0.000, 0.000, -3.100, 0.0, , , , , , 98, , , 0, 0, 0
36.7673142, -118.8834254, 3.800, 12:29:01.809, 11, 0.00, 0.21, 89, 0.000, 0.400, 63.800, 2, 100, 100, 25, 23658, -22443, 4903, 5510, 10, 14, 1523734141.809, 50, 0, 1024, 1024, 1024, 1024, 0, 6, 3884, 3910, 3932, 3940, 3908, 4060, 0, 1, 7000, -90.000, 0.000, 64.900, 0.000, 0.000, -3.200, 0.0, , , , , , 98, , , 0, 0, 0
36.7673142, -118.8834254, 4.100, 12:29:01.910, 11, 0.00, 0.22, 89, 0.000, 0.100, 64.000, 2, 100, 100, 25, 23658, -22443, 4903, 5510, 10, 14, 1523734141.910, 38, 0, 1024, 1024, 1024, 1024, 0, 6, 3884, 3910, 3932, 3940, 3908, 4060, 0, 1, 7101, -89.900, 0.000, 64.900, 0.000, 0.000, -3.200, 0.0, , , , , , 98, , , 0, 0, 0
36.7673142, -118.8834254, 4.100, 12:29:02.009, 11, 0.00, 0.22, 89, 0.000, 0.100, 64.000, 2, 100, 100, 25, 23658, -22443, 4903, 5510, 10, 14, 1523734142.009, 137, 0, 1024, 1024, 1024, 1024, 0, 6, 3884, 3910, 3932, 3940, 3908, 4060, 0, 1, 7200, -89.900, 0.000, 64.800, 0.000, 0.000, -3.200, 0.0, , , , , , 98, , , 0, 0, 0
36.7673144, -118.8834254, 4.800, 12:29:02.109, 12, 0.00, 0.24, 89, 0.100, 0.200, 63.900, 2, 100, 100, 25, 23658, -22443, 4903, 5510, 10, 14, 1523734142.110, 56, 0, 1024, 1024, 1024, 1024, 0, 6, 3884, 3910, 3932, 3940, 3908, 4060, 0, 1, 7300, -89.900, 0.000, 64.800, 0.000, 0.000, -3.200, 0.0, , , , , , 98, , , 0, 0, 0
36.7673144, -118.8834255, 5.100, 12:29:02.209, 12, 0.00, 0.24, 89, 0.300, 0.300, 63.700, 2, 100, 100, 25, 23658, -22443, 4903, 5510, 10, 14, 1523734142.210, 33, 0, 1024, 1024, 1024, 1024, 0, 6, 3884, 3910, 3932, 3940, 3908, 4060, 0, 1, 7400, -89.900, 0.000, 64.800, 0.000, 0.000, -3.200, 0.0, , , , , , 98, , , 0, 0, 0
36.7673144, -118.8834255, 5.500, 12:29:02.310, 12, 0.00, 0.24, 89, 0.400, 0.400, 63.600, 2, 100, 100, 25, 23658, -22443, 4903, 5510, 10, 14, 1523734142.310, 25, 0, 1024, 1024, 1024, 1024, 0, 6, 3884, 3910, 3932, 3940, 3908, 4060, 0, 1, 7501, -89.900, 0.000, 64.700, 0.000, 0.000, -3.200, 0.0, , , , , , 98, , , 0, 0, 0
36.7673143, -118.8834255, 5.800, 12:29:02.409, 12, 0.00, 0.22, 89, 0.200, 0.400, 63.400, 2, 100, 99, 25, 23658, -22443, 4903, 5510, 10, 14, 1523734142.409, 42, 0, 1024, 1024, 1024, 1024, 0, 6, 3884, 3910, 3932, 3940, 3908, 4060, 0, 1, 7600, -89.900, 0.000, 64.700, 0.000, 0.000, -3.200, 0.0, , , , , , 98, , , 0, 0, 0
36.7673142, -118.8834255, 6.100, 12:29:02.509, 13, 0.00, 0.21, 89, -0.300, 0.400, 63.300, 2, 100, 99, 25, 23658, -22443, 4903, 5510, 10, 14, 1523734142.510, 24, 0, 1024, 1024, 1024, 1024, 0, 6, 3884, 3910, 3932, 3940, 3908, 4060, 0, 1, 7700, -89.900, 0.000, 64.700, 0.000, 0.000, -3.100, 0.0, , , , , , 98, , , 0, 0, 0
36.7673141, -118.8834256, 6.500, 12:29:02.610, 13, 0.00, 0.21, 89, -0.600, 0.300, 63.200, 2, 100, 99, 25, 23658, -22443, 4903, 5510, 10, 14, 1523734142.610, 33, 0, 1024, 1024, 1024, 1024, 0, 6, 3884, 3910, 3932, 3940, 3908, 4060, 0, 1, 7801, -89.900, 0.000, 64.600, 0.000, 0.000, -3.100, 0.0, , , , , , 98, , , 0, 0, 0
36.7673141, -118.8834258, 7.100, 12:29:02.708, 13, 0.00, 0.20, 89, -0.700, -0.100, 63.100, 2, 100, 99, 25, 23658, -22443, 4903, 5510, 10, 14, 1523734142.709, 18, 0, 1024, 1024, 1024, 1024, 0, 6, 3884, 3910, 3932, 3940, 3908, 4060, 0, 1, 7899, -90.000, 0.000, 64.600, 0.000, 0.000, -3.100, 0.0, , , , , , 98, , , 0, 0, 0
36.7673140, -118.8834258, 7.500, 12:29:02.820, 15, 0.00, 0.20, 89, -0.400, -0.300, 63.000, 2, 100, 99, 25, 23670, -21292, 4903, 5510, 10, 14, 1523734142.821, 11, 0, 1024, 1024, 1024, 1024, 0, 6, 3884, 3910, 3932, 3940, 3908, 4060, 0, 1, 8011, -90.000, 0.000, 64.600, 0.000, 0.000, -3.200, 0.0, , , , , , 98, , , 0, 0, 0
36.7673140, -118.8834258, 7.500, 12:29:02.909, 15, 0.00, 0.20, 89, -0.400, -0.300, 63.000, 2, 100, 99, 25, 23670, -21292, 4903, 5510, 10, 14, 1523734142.909, 100, 0, 1024, 1024, 1024, 1024, 0, 6, 3929, 3953, 3966, 3969, 3943, 3973, 0, 1, 8100, -90.000, 0.000, 64.600, 0.000, 0.000, -3.200, 0.0, , , , , , 98, , , 0, 0, 0
36.7673140, -118.8834258, 7.500, 12:29:03.009, 15, 0.00, 0.20, 89, -0.400, -0.300, 63.000, 2, 100, 99, 25, 23670, -21292, 4903, 5510, 10, 14, 1523734143.009, 199, 0, 1024, 1024, 1024, 1024, 0, 6, 3929, 3953, 3966, 3969, 3943, 3973, 0, 1, 8200, -90.000, 0.000, 64.600, 0.000, 0.000, -3.200, 0.0, , , , , , 98, , , 0, 0, 0
36.7673140, -118.8834258, 7.500, 12:29:03.109, 15, 0.00, 0.20, 89, -0.400, -0.300, 63.000, 2, 100, 99, 25, 23670, -21292, 4903, 5510, 10, 14, 1523734143.110, 300, 0, 1024, 1024, 1024, 1024, 0, 6, 3929, 3953, 3966, 3969, 3943, 3973, 0, 1, 8300, -90.000, 0.000, 64.600, 0.000, 0.000, -3.200, 0.0, , , , , , 98, , , 0, 0, 0
36.7673139, -118.8834259, 8.500, 12:29:03.209, 15, 0.00, 0.18, 89, 0.000, -0.200, 63.000, 2, 100, 99, 25, 23670, -21292, 4903, 5510, 10, 14, 1523734143.209, 30, 0, 1024, 1024, 1024, 1024, 0, 6, 3929, 3953, 3966, 3969, 3943, 3973, 0, 1, 8400, -89.900, 0.000, 64.500, 0.000, 0.000, -3.200, 0.0, , , , , , 98, , , 0, 0, 0
36.7673138, -118.8834258, 8.800, 12:29:03.309, 14, 0.00, 0.17, 89, -0.300, 0.000, 62.900, 2, 100, 99, 25, 23670, -21292, 4903, 5510, 10, 14, 1523734143.310, 17, 0, 1024, 1024, 1024, 1024, 0, 6, 3929, 3953, 3966, 3969, 3943, 3973, 0, 1, 8500, -89.900, 0.000, 64.500, 0.000, 0.000, -3.100, 0.0, , , , , , 98, , , 0, 0, 0
36.7673136, -118.8834257, 9.100, 12:29:03.409, 14, 0.00, 0.15, 89, -0.500, 0.300, 62.800, 2, 100, 98, 25, 23670, -21292, 4903, 5510, 10, 14, 1523734143.409, 78, 0, 1024, 1024, 1024, 1024, 0, 6, 3929, 3953, 3966, 3969, 3943, 3973, 0, 1, 8600, -89.900, 0.000, 64.500, 0.000, 0.000, -3.100, 0.0, , , , , , 98, , , 0, 0, 0
36.7673135, -118.8834256, 9.500, 12:29:03.509, 13, 0.00, 0.14, 89, -0.600, 0.400, 62.700, 2, 100, 98, 25, 23670, -21292, 4903, 5510, 10, 14, 1523734143.509, 86, 0, 1024, 1024, 1024, 1024, 0, 6, 3929, 3953, 3966, 3969, 3943, 3973, 0, 1, 8700, -89.900, 0.000, 64.400, 0.000, 0.000, -3.100, 0.0, , , , , , 98, , , 0, 0, 0
36.7673134, -118.8834255, 9.800, 12:29:03.609, 13, 0.00, 0.13, 89, -0.700, 0.400, 62.700, 2, 100, 98, 25, 23670, -21292, 4903, 5510, 10, 14, 1523734143.610, 84, 0, 1024, 1024, 1024, 1024, 0, 6, 3929, 3953, 3966, 3969, 3943, 3973, 0, 1, 8800, -89.900, 0.000, 64.400, 0.000, 0.000, -3.000, 0.0, , , , , , 98, , , 0, 0, 0
36.7673133, -118.8834254, 10.100, 12:29:03.708, 12, 0.00, 0.12, 89, -0.900, 0.500, 62.600, 2, 100, 98, 25, 23670, -21292, 4903, 5510, 10, 14, 1523734143.709, 71, 0, 1024, 1024, 1024, 1024, 0, 6, 3929, 3953, 3966, 3969, 3943, 3973, 0, 1, 8899, -89.900, 0.000, 64.400, 0.000, 0.000, -2.900, 0.0, , , , , , 98, , , 0, 0, 0
36.7673132, -118.8834253, 10.400, 12:29:03.809, 12, 0.00, 0.12, 89, -1.100, 0.600, 62.600, 2, 100, 98, 25, 23795, -18319, 4903, 5510, 10, 14, 1523734143.810, 56, 0, 1024, 1024, 1024, 1024, 0, 6, 3938, 3977, 3968, 3991, 3949, 3988, 0, 1, 9000, -89.900, 0.000, 64.400, 0.000, 0.000, -2.900, 0.0, , , , , , 98, , , 0, 0, 0
36.7673132, -118.8834252, 10.700, 12:29:03.909, 12, 0.00, 0.11, 89, -1.300, 0.800, 62.600, 2, 100, 99, 25, 23795, -18319, 4903, 5510, 10, 14, 1523734143.909, 66, 0, 1024, 1024, 1024, 1024, 0, 6, 3938, 3977, 3968, 3991, 3949, 3988, 0, 1, 9100, -89.900, 0.000, 64.400, 0.000, 0.000, -2.900, 0.0, , , , , , 98, , , 0, 0, 0
36.7673131, -118.8834253, 11.000, 12:29:04.009, 12, 0.00, 0.10, 89, -1.300, 0.900, 62.700, 2, 100, 99, 25, 23795, -18319, 4903, 5510, 10, 14, 1523734144.009, 69, 0, 1024, 1024, 1024, 1024, 0, 6, 3938, 3977, 3968, 3991, 3949, 3988, 0, 1, 9200, -89.900, 0.000, 64.300, 0.000, 0.000, -3.000, 0.0, , , , , , 98, , , 0, 0, 0
36.7673130, -118.8834252, 11.300, 12:29:04.109, 13, 0.00, 0.10, 89, -1.100, 0.700, 62.800, 2, 100, 99, 25, 23795, -18319, 4903, 5510, 10, 14, 1523734144.109, 71, 0, 1024, 1024, 1024, 1024, 0, 6, 3938, 3977, 3968, 3991, 3949, 3988, 0, 1, 9300, -89.900, 0.000, 64.300, 0.000, 0.000, -3.000, 0.0, , , , , , 98, , , 0, 0, 0
36.7673130, -118.8834252, 11.300, 12:29:04.209, 13, 0.00, 0.10, 89, -1.100, 0.700, 62.800, 2, 100, 99, 25, 23795, -18319, 4903, 5510, 10, 14, 1523734144.210, 171, 0, 1024, 1024, 1024, 1024, 0, 6, 3938, 3977, 3968, 3991, 3949, 3988, 0, 1, 9400, -89.900, 0.000, 64.300, 0.000, 0.000, -3.000, 0.0, , , , , , 98, , , 0, 0, 0
36.7673130, -118.8834251, 12.000, 12:29:04.309, 14, 0.00, 0.10, 89, -0.800, 0.500, 63.100, 2, 100, 99, 25, 23795, -18319, 4903, 5510, 10, 14, 1523734144.309, 62, 0, 1024, 1024, 1024, 1024, 0, 6, 3938, 3977, 3968, 3991, 3949, 3988, 0, 1, 9500, -89.900, 0.000, 64.300, 0.000, 0.000, -3.000, 0.0, , , , , , 98, , , 0, 0, 0
36.7673130, -118.8834250, 12.300, 12:29:04.409, 14, 0.00, 0.10, 89, -0.800, 0.600, 63.200, 2, 100, 98, 25, 23795, -18319, 4903, 5510, 10, 14, 1523734144.409, 57, 0, 1024, 1024, 1024, 1024, 0, 6, 3938, 3977, 3968, 3991, 3949, 3988, 0, 1, 9600, -89.900, 0.000, 64.200, 0.000, 0.000, -3.000, 0.0, , , , , , 98, , , 0, 0, 0
36.7673131, -118.8834250, 12.600, 12:29:04.509, 13, 0.00, 0.11, 89, -0.700, 0.700, 63.300, 2, 100, 98, 25, 23795, -18319, 4903, 5510, 10, 14, 1523734144.510, 58, 0, 1024, 1024, 1024, 1024, 0, 6, 3938, 3977, 3968, 3991, 3949, 3988, 0, 1, 9700, -89.900, 0.000, 64.200, 0.000, 0.000, -2.900, 0.0, , , , , , 98, , , 0, 0, 0
36.7673131, -118.8834249, 12.900, 12:29:04.609, 13, 0.00, 0.12, 89, -0.500, 0.900, 63.300, 2, 100, 98, 25, 23795, -18319, 4903, 5510, 10, 14, 1523734144.609, 57, 0, 1024, 1024, 1024, 1024, 0, 6, 3938, 3977, 3968, 3991, 3949, 3988, 0, 1, 9800, -89.900, 0.000, 64.200, 0.000, 0.000, -2.900, 0.0, , , , , , 98, , , 0, 0, 0
36.7673131, -118.8834249, 13.200, 12:29:04.708, 15, 0.00, 0.12, 89, -0.200, 0.900, 63.300, 2, 100, 98, 25, 23795, -18319, 4903, 5510, 10, 14, 1523734144.709, 61, 0, 1024, 1024, 1024, 1024, 0, 6, 3938, 3977, 3968, 3991, 3949, 3988, 0, 1, 9899, -89.900, 0.000, 64.200, 0.000, 0.000, -2.900, 0.0, , , , , , 98, , , 0, 0, 0
36.7673131, -118.8834249, 13.500, 12:29:04.809, 15, 0.00, 0.11, 89, -0.100, 1.000, 63.200, 2, 100, 98, 25, 23801, -17806, 4903, 5510, 10, 14, 1523734144.809, 56, 0, 1024, 1024, 1024, 1024, 0, 6, 3938, 3977, 3968, 3991, 3949, 3988, 0, 1, 10000, -89.900, 0.000, 64.200, 0.000, 0.000, -2.900, 0.0, , , , , , 98, , , 0, 0, 0
36.7673131, -118.8834249, 13.800, 12:29:04.909, 15, 0.00, 0.11, 89, -0.300, 0.800, 63.200, 2, 100, 97, 25, 23801, -17806, 4903, 5510, 10, 14, 1523734144.910, 38, 0, 1024, 1024, 1024, 1024, 0, 6, 3938, 3977, 3968, 3991, 3949, 3988, 0, 1, 10100, -89.900, 0.000, 64.200, 0.000, 0.000, -2.900, 0.0, , , , , , 98, , , 0, 0, 0
36.7673131, -118.8834249, 14.100, 12:29:05.009, 15, 0.00, 0.11, 89, -0.400, 0.600, 63.100, 2, 100, 97, 25, 23801, -17806, 4903, 5510, 10, 14, 1523734145.009, 38, 0, 1024, 1024, 1024, 1024, 0, 6, 3938, 3977, 3968, 3991, 3949, 3988, 0, 1, 10200, -89.900, 0.000, 64.100, 0.000, 0.000, -2.900, 0.0, , , , , , 98, , , 0, 0, 0
36.7673131, -118.8834249, 14.400, 12:29:05.109, 13, 0.00, 0.12, 89, -0.500, 0.400, 63.100, 2, 100, 97, 25, 23801, -17806, 4903, 5510, 10, 14, 1523734145.110, 33, 0, 1024, 1024, 1024, 1024, 0, 6, 3938, 3977, 3968, 3991, 3949, 3988, 0, 1, 10300, -89.900, 0.000, 64.100, 0.000, 0.000, -2.900, 0.0, , , , , , 98, , , 0, 0, 0
36.7673132, -118.8834249, 14.700, 12:29:05.209, 13, 0.00, 0.13, 89, -0.400, 0.300, 63.000, 2, 100, 97, 25, 23801, -17806, 4903, 5510, 10, 14, 1523734145.209, 40, 0, 1024, 1024, 1024, 1024, 0, 6, 3938, 3977, 3968, 3991, 3949, 3988, 0, 1, 10400, -89.900, 0.000, 64.100, 0.000, 0.000, -2.900, 0.0, , , , , , 98, , , 0, 0, 0
36.7673133, -118.8834249, 15.000, 12:29:05.309, 14, 0.00, 0.13, 89, -0.100, 0.500, 63.000, 2, 100, 97, 25, 23801, -17806, 4903, 5510, 10, 14, 1523734145.310, 34, 0, 1024, 1024, 1024, 1024, 0, 6, 3945, 3969, 3976, 3986, 3955, 3982, 0, 1, 10500, -89.900, 0.000, 64.100, 0.000, 0.000, -2.900, 0.0, , , , , , 98, , , 0, 0, 0
36.7673133, -118.8834250, 15.300, 12:29:05.409, 14, 0.00, 0.13, 89, -0.200, 0.600, 63.000, 2, 100, 97, 25, 23801, -17806, 4903, 5510, 10, 14, 1523734145.410, 26, 0, 1024, 1024, 1024, 1024, 0, 6, 3945, 3969, 3976, 3986, 3955, 3982, 0, 1, 10600, -89.900, 0.000, 64.100, 0.000, 0.000, -2.900, 0.0, , , , , , 98, , , 0, 0, 0
36.7673133, -118.8834250, 15.600, 12:29:05.509, 12, 0.00, 0.13, 89, -0.400, 0.500, 63.100, 2, 100, 97, 25, 23801, -17806, 4903, 5510, 10, 14, 1523734145.509, 21, 0, 1024, 1024, 1024, 1024, 0, 6, 3945, 3969, 3976, 3986, 3955, 3982, 0, 1, 10700, -89.900, 0.000, 64.100, 0.000, 0.000, -2.900, 0.0, , , , , , 98, , , 0, 0, 0
36.7673133, -118.8834250, 15.900, 12:29:05.609, 12, 0.00, 0.13, 89, -0.500, 0.400, 63.000, 2, 100, 97, 25, 23801, -17806, 4903, 5510, 10, 14, 1523734145.609, 23, 0, 1024, 1024, 1024, 1024, 0, 6, 3945, 3969, 3976, 3986, 3955, 3982, 0, 1, 10800, -89.900, 0.000, 64.100, 0.000, 0.000, -2.900, 0.0, , , , , , 98, , , 0, 0, 0
36.7673133, -118.8834250, 15.900, 12:29:05.708, 12, 0.00, 0.13, 89, -0.500, 0.400, 63.000, 2, 100, 97, 25, 23801, -17806, 4903, 5510, 10, 14, 1523734145.709, 122, 0, 1024, 1024, 1024, 1024, 0, 6, 3945, 3969, 3976, 3986, 3955, 3982, 0, 1, 10899, -89.900, 0.000, 64.000, 0.000, 0.000, -2.900, 0.0, , , , , , 98, , , 0, 0, 0
36.7673135, -118.8834251, 16.800, 12:29:05.820, 12, 0.00, 0.15, 89, 0.000, 0.300, 62.900, 2, 100, 97, 25, 23801, -17806, 4903, 5510, 10, 14, 1523734145.821, 11, 0, 1024, 1024, 1024, 1024, 0, 6, 3945, 3969, 3976, 3986, 3955, 3982, 0, 1, 11011, -89.900, 0.000, 64.000, 0.000, 0.000, -2.900, 0.0, , , , , , 98, , , 0, 0, 0
36.7673135, -118.8834251, 16.800, 12:29:05.909, 12, 0.00, 0.15, 89, 0.000, 0.300, 62.900, 2, 100, 97, 25, 23801, -17806, 4903, 5510, 10, 14, 1523734145.909, 100, 0, 1024, 1024, 1024, 1024, 0, 6, 3945, 3969, 3976, 3986, 3955, 3982, 0, 1, 11100, -89.900, 0.000, 64.000, 0.000, 0.000, -2.900, 0.0, , , , , , 98, , , 0, 0, 0
36.7673135, -118.8834250, 17.400, 12:29:06.016, 13, 0.00, 0.15, 89, 0.000, 0.500, 62.900, 2, 100, 97, 25, 23801, -17806, 4903, 5510, 10, 14, 1523734146.017, 8, 0, 1024, 1024, 1024, 1024, 0, 6, 3945, 3969, 3976, 3986, 3955, 3982, 0, 1, 11208, -89.900, 0.000, 64.000, 0.000, 0.000, -2.800, 0.0, , , , , , 98, , , 0, 0, 0
36.7673135, -118.8834250, 17.400, 12:29:06.108, 13, 0.00, 0.15, 89, 0.000, 0.500, 62.900, 2, 100, 97, 25, 23801, -17806, 4903, 5510, 10, 14, 1523734146.109, 100, 0, 1024, 1024, 1024, 1024, 0, 6, 3945, 3969, 3976, 3986, 3955, 3982, 0, 1, 11299, -89.900, 0.000, 64.000, 0.000, 0.000, -2.800, 0.0, , , , , , 98, , , 0, 0, 0
36.7673136, -118.8834251, 17.700, 12:29:06.209, 13, 0.00, 0.15, 89, -0.100, 0.500, 62.900, 2, 100, 97, 25, 23801, -17806, 4903, 5510, 10, 14, 1523734146.209, 70, 0, 1024, 1024, 1024, 1024, 0, 6, 3945, 3969, 3976, 3986, 3955, 3982, 0, 1, 11400, -89.900, 0.000, 64.000, 0.000, 0.000, -2.800, 0.0, , , , , , 98, , , 0, 0, 0
36.7673136, -118.8834251, 18.000, 12:29:06.309, 13, 0.00, 0.16, 89, -0.100, 0.300, 62.900, 2, 100, 97, 25, 23785, -17867, 4903, 5510, 10, 14, 1523734146.310, 84, 0, 1024, 1024, 1024, 1024, 0, 6, 3934, 3965, 3962, 3977, 3941, 3978, 0, 1, 11500, -89.900, 0.000, 64.000, 0.000, 0.000, -2.900, 0.0, , , , , , 98, , , 0, 0, 0
36.7673137, -118.8834252, 18.300, 12:29:06.409, 13, 0.00, 0.17, 89, 0.000, 0.300, 62.900, 2, 100, 96, 25, 23785, -17867, 4903, 5510, 10, 14, 1523734146.410, 91, 0, 1024, 1024, 1024, 1024, 0, 6, 3934, 3965, 3962, 3977, 3941, 3978, 0, 1, 11600, -89.900, 0.000, 64.000, 0.000, 0.000, -2.900, 0.0, , , , , , 98, , , 0, 0, 0
36.7673137, -118.8834251, 18.600, 12:29:06.509, 14, 0.00, 0.17, 89, 0.100, 0.400, 62.900, 2, 100, 96, 25, 23785, -17867, 4903, 5510, 10, 14, 1523734146.510, 71, 0, 1024, 1024, 1024, 1024, 0, 6, 3934, 3965, 3962, 3977, 3941, 3978, 0, 1, 11700, -89.900, 0.000, 64.000, 0.000, 0.000, -2.800, 0.0, , , , , , 98, , , 0, 0, 0
36.7673137, -118.8834251, 18.900, 12:29:06.609, 14, 0.00, 0.16, 89, 0.100, 0.500, 63.000, 2, 100, 96, 25, 23785, -17867, 4903, 5510, 10, 14, 1523734146.610, 93, 0, 1024, 1024, 1024, 1024, 0, 6, 3934, 3965, 3962, 3977, 3941, 3978, 0, 1, 11800, -89.900, 0.000, 64.000, 0.000, 0.000, -2.800, 0.0, , , , , , 98, , , 0, 0, 0
36.7673136, -118.8834250, 19.200, 12:29:06.708, 13, 0.00, 0.16, 89, -0.300, 0.600, 63.000, 2, 100, 96, 25, 23785, -17867, 4903, 5510, 10, 14, 1523734146.709, 89, 0, 1024, 1024, 1024, 1024, 0, 6, 3934, 3965, 3962, 3977, 3941, 3978, 0, 1, 11899, -89.900, 0.000, 64.000, 0.000, 0.000, -2.800, 0.0, , , , , , 98, , , 0, 0, 0
36.7673136, -118.8834250, 19.500, 12:29:06.808, 13, 0.00, 0.16, 89, -0.700, 0.600, 63.000, 2, 100, 96, 25, 23785, -17867, 4903, 5510, 10, 14, 1523734146.809, 72, 0, 1024, 1024, 1024, 1024, 0, 6, 3934, 3965, 3962, 3977, 3941, 3978, 0, 1, 12000, -89.900, 0.000, 64.000, 0.000, 0.000, -2.900, 0.0, , , , , , 98, , , 0, 0, 0
36.7673136, -118.8834250, 19.800, 12:29:06.909, 14, 0.00, 0.16, 89, -0.900, 0.500, 63.000, 2, 100, 96, 25, 23785, -17867, 4903, 5510, 10, 14, 1523734146.910, 75, 0, 1024, 1024, 1024, 1024, 0, 6, 3934, 3965, 3962, 3977, 3941, 3978, 0, 1, 12100, -89.900, 0.000, 64.000, 0.000, 0.000, -2.800, 0.0, , , , , , 98, , , 0, 0, 0
36.7673135, -118.8834249, 20.000, 12:29:07.009, 14, 0.00, 0.16, 89, -1.000, 0.400, 63.000, 2, 100, 96, 25, 23785, -17867, 4903, 5510, 10, 14, 1523734147.009, 73, 0, 1024, 1024, 1024, 1024, 0, 6, 3934, 3965, 3962, 3977, 3941, 3978, 0, 1, 12200, -89.900, 0.000, 64.000, 0.000, 0.000, -2.900, 0.0, , , , , , 98, , , 0, 0, 0
36.7673135, -118.8834249, 20.300, 12:29:07.108, 14, 0.00, 0.16, 89, -0.900, 0.500, 63.000, 2, 100, 96, 25, 23785, -17867, 4903, 5510, 10, 14, 1523734147.109, 66, 0, 1024, 1024, 1024, 1024, 0, 6, 3934, 3965, 3962, 3977, 3941, 3978, 0, 1, 12300, -89.900, 0.000, 64.000, 0.000, 0.000, -2.900, 0.0, , , , , , 98, , , 0, 0, 0
36.7673135, -118.8834248, 20.600, 12:29:07.209, 14, 0.00, 0.17, 89, -0.900, 0.700, 63.000, 2, 100, 96, 25, 23785, -17867, 4903, 5510, 10, 14, 1523734147.209, 67, 0, 1024, 1024, 1024, 1024, 0, 6, 3934, 3965, 3962, 3977, 3941, 3978, 0, 1, 12400, -89.900, 0.000, 64.000, 0.000, 0.000, -2.900, 0.0, , , , , , 98, , , 0, 0, 0
36.7673136, -118.8834247, 20.900, 12:29:07.309, 15, 0.00, 0.17, 89, -0.800, 1.000, 63.100, 2, 100, 96, 26, 23766, -17842, 4903, 5510, 10, 14, 1523734147.310, 66, 0, 1024, 1024, 1024, 1024, 0, 6, 3923, 3954, 3962, 3980, 3941, 3972, 0, 1, 12500, -89.900, 0.000, 64.000, 0.000, 0.000, -2.900, 0.0, , , , , , 98, , , 0, 0, 0
36.7673136, -118.8834247, 21.200, 12:29:07.409, 15, 0.00, 0.17, 89, -0.800, 1.100, 63.200, 2, 100, 98, 26, 23766, -17842, 4903, 5510, 10, 14, 1523734147.409, 54, 0, 1024, 1024, 1024, 1024, 0, 6, 3923, 3954, 3962, 3980, 3941, 3972, 0, 1, 12600, -89.900, 0.000, 64.000, 0.000, 0.000, -2.900, 0.0, , , , , , 98, , , 0, 0, 0
36.7673136, -118.8834247, 21.500, 12:29:07.509, 15, 0.00, 0.17, 89, -0.700, 1.100, 63.200, 2, 100, 98, 26, 23766, -17842, 4903, 5510, 10, 14, 1523734147.510, 24, 0, 1024, 1024, 1024, 1024, 0, 6, 3923, 3954, 3962, 3980, 3941, 3972, 0, 1, 12700, -89.900, 0.000, 64.000, 0.000, 0.000, -2.900, 0.0, , , , , , 98, , , 0, 0, 0
36.7673136, -118.8834247, 21.900, 12:29:07.609, 15, 0.00, 0.17, 89, -0.600, 0.900, 63.200, 2, 100, 98, 26, 23766, -17842, 4903, 5510, 10, 14, 1523734147.609, 53, 0, 1024, 1024, 1024, 1024, 0, 6, 3923, 3954, 3962, 3980, 3941, 3972, 0, 1, 12800, -89.900, 0.000, 64.000, 0.000, 0.000, -3.000, 0.0, , , , , , 98, , , 0, 0, 0
36.7673136, -118.8834247, 22.200, 12:29:07.708, 15, 0.00, 0.17, 89, -0.500, 0.700, 63.200, 2, 100, 98, 26, 23766, -17842, 4903, 5510, 10, 14, 1523734147.709, 49, 0, 1024, 1024, 1024, 1024, 0, 6, 3923, 3954, 3962, 3980, 3941, 3972, 0, 1, 12899, -90.000, 0.000, 64.000, 0.000, 0.000, -2.900, 0.0, , , , , , 98, , , 0, 0, 0
36.7673136, -118.8834248, 22.500, 12:29:07.809, 15, 0.00, 0.17, 89, -0.400, 0.400, 63.200, 2, 100, 98, 26, 23766, -17842, 4903, 5510, 10, 14, 1523734147.809, 37, 0, 1024, 1024, 1024, 1024, 0, 6, 3923, 3954, 3962, 3980, 3941, 3972, 0, 1, 13000, -90.000, 0.000, 64.000, 0.000, 0.000, -2.900, 0.0, , , , , , 98, , , 0, 0, 0
36.7673137, -118.8834248, 22.800, 12:29:07.908, 14, 0.00, 0.18, 89, -0.400, 0.300, 63.100, 2, 100, 97, 26, 23766, -17842, 4903, 5510, 10, 14, 1523734147.909, 30, 0, 1024, 1024, 1024, 1024, 0, 6, 3923, 3954, 3962, 3980, 3941, 3972, 0, 1, 13099, -89.900, 0.000, 64.000, 0.000, 0.000, -2.900, 0.0, , , , , , 98, , , 0, 0, 0
36.7673138, -118.8834248, 23.000, 12:29:08.009, 14, 0.00, 0.19, 89, -0.300, 0.400, 63.000, 2, 100, 97, 26, 23766, -17842, 4903, 5510, 10, 14, 1523734148.009, 33, 0, 1024, 1024, 1024, 1024, 0, 6, 3923, 3954, 3962, 3980, 3941, 3972, 0, 1, 13200, -89.900, 0.000, 64.000, 0.000, 0.000, -2.900, 0.0, , , , , , 98, , , 0, 0, 0
36.7673138, -118.8834249, 23.300, 12:29:08.109, 15, 0.00, 0.19, 89, -0.100, 0.600, 62.900, 2, 100, 97, 26, 23766, -17842, 4903, 5510, 10, 14, 1523734148.110, 29, 0, 1024, 1024, 1024, 1024, 0, 6, 3923, 3954, 3962, 3980, 3941, 3972, 0, 1, 13300, -89.900, 0.000, 64.000, 0.000, 0.000, -2.800, 0.0, , , , , , 98, , , 0, 0, 0
36.7673139, -118.8834250, 23.600, 12:29:08.209, 15, 0.00, 0.20, 89, 0.000, 0.600, 62.900, 2, 100, 97, 26, 23766, -17842, 4903, 5510, 10, 14, 1523734148.209, 25, 0, 1024, 1024, 1024, 1024, 0, 6, 3923, 3954, 3962, 3980, 3941, 3972, 0, 1, 13400, -89.900, 0.000, 64.000, 0.000, 0.000, -2.900, 0.0, , , , , , 98, , , 0, 0, 0
36.7673140, -118.8834251, 23.900, 12:29:08.309, 15, 0.00, 0.20, 89, 0.100, 0.500, 62.900, 2, 100, 97, 26, 23690, -18507, 4903, 5510, 10, 14, 1523734148.310, 14, 0, 1024, 1024, 1024, 1024, 0, 6, 3923, 3954, 3962, 3980, 3941, 3972, 0, 1, 13501, -89.900, 0.000, 64.000, 0.000, 0.000, -2.900, 0.0, , , , , , 98, , , 0, 0, 0
36.7673142, -118.8834251, 24.500, 12:29:08.416, 13, 0.00, 0.22, 89, 0.500, 0.500, 62.900, 2, 100, 97, 26, 23690, -18507, 4903, 5510, 10, 14, 1523734148.417, 13, 0, 1024, 1024, 1024, 1024, 0, 6, 3913, 3950, 3960, 3969, 3935, 3968, 0, 1, 13608, -89.900, 0.000, 64.000, 0.000, 0.000, -3.000, 0.0, , , , , , 98, , , 0, 0, 0
36.7673141, -118.8834252, 24.800, 12:29:08.509, 13, 0.00, 0.21, 89, 0.400, 0.500, 62.900, 2, 100, 97, 26, 23690, -18507, 4903, 5510, 10, 14, 1523734148.510, 10, 0, 1024, 1024, 1024, 1024, 0, 6, 3913, 3950, 3960, 3969, 3935, 3968, 0, 1, 13700, -90.000, 0.000, 64.000, 0.000, 0.000, -2.900, 0.0, , , , , , 98, , , 0, 0, 0
36.7673141, -118.8834252, 25.100, 12:29:08.609, 14, 0.00, 0.21, 89, 0.200, 0.500, 62.900, 2, 100, 97, 26, 23690, -18507, 4903, 5510, 10, 14, 1523734148.611, 16, 0, 1024, 1024, 1024, 1024, 0, 6, 3913, 3950, 3960, 3969, 3935, 3968, 0, 1, 13801, -89.900, 0.000, 64.000, 0.000, 0.000, -2.900, 0.0, , , , , , 98, , , 0, 0, 0
36.7673141, -118.8834252, 25.100, 12:29:08.708, 14, 0.00, 0.21, 89, 0.200, 0.500, 62.900, 2, 100, 97, 26, 23690, -18507, 4903, 5510, 10, 14, 1523734148.709, 115, 0, 1024, 1024, 1024, 1024, 0, 6, 3913, 3950, 3960, 3969, 3935, 3968, 0, 1, 13899, -89.900, 0.000, 64.000, 0.000, 0.000, -2.900, 0.0, , , , , , 98, , , 0, 0, 0
36.7673141, -118.8834252, 25.100, 12:29:08.808, 14, 0.00, 0.21, 89, 0.200, 0.500, 62.900, 2, 100, 97, 26, 23690, -18507, 4903, 5510, 10, 14, 1523734148.809, 215, 0, 1024, 1024, 1024, 1024, 0, 6, 3913, 3950, 3960, 3969, 3935, 3968, 0, 1, 13999, -89.900, 0.000, 64.000, 0.000, 0.000, -2.900, 0.0, , , , , , 98, , , 0, 0, 0
36.7673139, -118.8834252, 25.700, 12:29:08.908, 14, 0.00, 0.18, 89, -0.500, 0.200, 62.900, 2, 100, 97, 26, 23690, -18507, 4903, 5510, 10, 14, 1523734148.909, 85, 0, 1024, 1024, 1024, 1024, 0, 6, 3913, 3950, 3960, 3969, 3935, 3968, 0, 1, 14099, -89.900, 0.000, 64.000, 0.000, 0.000, -2.900, 0.0, , , , , , 98, , , 0, 0, 0
36.7673137, -118.8834252, 26.000, 12:29:09.009, 14, 0.00, 0.17, 89, -0.800, 0.100, 62.900, 2, 100, 97, 26, 23690, -18507, 4903, 5510, 10, 14, 1523734149.010, 87, 0, 1024, 1024, 1024, 1024, 0, 6, 3913, 3950, 3960, 3969, 3935, 3968, 0, 1, 14200, -90.000, 0.000, 64.000, 0.000, 0.000, -2.900, 0.0, , , , , , 98, , , 0, 0, 0
36.7673137, -118.8834252, 26.300, 12:29:09.108, 14, 0.00, 0.17, 89, -0.900, 0.000, 62.900, 2, 100, 97, 26, 23690, -18507, 4903, 5510, 10, 14, 1523734149.109, 89, 0, 1024, 1024, 1024, 1024, 0, 6, 3913, 3950, 3960, 3969, 3935, 3968, 0, 1, 14299, -90.000, 0.000, 64.000, 0.000, 0.000, -2.900, 0.0, , , , , , 98, , , 0, 0, 0
36.7673137, -118.8834252, 26.600, 12:29:09.209, 14, 0.00, 0.16, 89, -0.800, 0.100, 62.900, 2, 100, 97, 26, 23690, -18507, 4903, 5510, 10, 14, 1523734149.209, 72, 0, 1024, 1024, 1024, 1024, 0, 6, 3913, 3950, 3960, 3969, 3935, 3968, 0, 1, 14400, -90.000, 0.000, 64.000, 0.000, 0.000, -2.900, 0.0, , , , , , 98, , , 0, 0, 0
36.7673136, -118.8834251, 26.900, 12:29:09.308, 14, 0.00, 0.16, 89, -0.700, 0.200, 62.900, 2, 100, 97, 26, 23665, -18104, 4903, 5510, 10, 14, 1523734149.309, 97, 0, 1024, 1024, 1024, 1024, 0, 6, 3917, 3939, 3955, 3967, 3935, 3961, 0, 1, 14500, -89.900, 0.000, 64.000, 0.000, 0.000, -2.900, 0.0, , , , , , 98, , , 0, 0, 0
36.7673136, -118.8834251, 27.200, 12:29:09.409, 14, 0.00, 0.16, 89, -0.500, 0.300, 62.900, 2, 100, 99, 26, 23665, -18104, 4903, 5510, 10, 14, 1523734149.410, 86, 0, 1024, 1024, 1024, 1024, 0, 6, 3917, 3939, 3955, 3967, 3935, 3961, 0, 1, 14600, -89.900, 0.000, 64.000, 0.000, 0.000, -2.900, 0.0, , , , , , 98, , , 0, 0, 0
36.7673136, -118.8834251, 27.200, 12:29:09.508, 14, 0.00, 0.16, 89, -0.500, 0.300, 62.900, 2, 100, 99, 26, 23665, -18104, 4903, 5510, 10, 14, 1523734149.509, 185, 0, 1024, 1024, 1024, 1024, 0, 6, 3917, 3939, 3955, 3967, 3935, 3961, 0, 1, 14700, -89.900, 0.000, 64.000, 0.000, 0.000, -2.900, 0.0, , , , , , 98, , , 0, 0, 0
36.7673136, -118.8834251, 27.500, 12:29:09.609, 15, 0.00, 0.16, 89, -0.500, 0.400, 62.900, 2, 100, 99, 26, 23665, -18104, 4903, 5510, 10, 14, 1523734149.611, 69, 0, 1024, 1024, 1024, 1024, 0, 6, 3917, 3939, 3955, 3967, 3935, 3961, 0, 1, 14802, -89.900, 0.000, 64.000, 0.000, 0.000, -2.900, 0.0, , , , , , 98, , , 0, 0, 0
36.7673135, -118.8834251, 28.100, 12:29:09.708, 14, 0.00, 0.15, 89, -0.600, 0.600, 63.000, 2, 100, 99, 26, 23665, -18104, 4903, 5510, 10, 14, 1523734149.709, 83, 0, 1024, 1024, 1024, 1024, 0, 6, 3917, 3939, 3955, 3967, 3935, 3961, 0, 1, 14899, -89.900, 0.000, 64.000, 0.000, 0.000, -3.000, 0.0, , , , , , 98, , , 0, 0, 0
36.7673135, -118.8834250, 28.400, 12:29:09.809, 14, 0.00, 0.15, 89, -0.700, 0.500, 63.100, 2, 100, 99, 26, 23665, -18104, 4903, 5510, 10, 14, 1523734149.810, 82, 0, 1024, 1024, 1024, 1024, 0, 6, 3917, 3939, 3955, 3967, 3935, 3961, 0, 1, 15000, -89.900, 0.000, 64.000, 0.000, 0.000, -3.000, 0.0, , , , , , 98, , , 0, 0, 0
36.7673134, -118.8834250, 28.700, 12:29:09.909, 15, 0.00, 0.14, 89, -0.800, 0.400, 63.100, 2, 100, 98, 26, 23665, -18104, 4903, 5510, 10, 14, 1523734149.910, 72, 0, 1024, 1024, 1024, 1024, 0, 6, 3917, 3939, 3955, 3967, 3935, 3961, 0, 1, 15100, -89.900, 0.000, 64.000, 0.000, 0.000, -2.900, 0.0, , , , , , 98, , , 0, 0, 0
36.7673134, -118.8834250, 29.000, 12:29:10.009, 15, 0.00, 0.14, 89, -0.700, 0.300, 63.200, 2, 100, 98, 26, 23665, -18104, 4903, 5510, 10, 14, 1523734150.010, 77, 0, 1024, 1024, 1024, 1024, 0, 6, 3917, 3939, 3955, 3967, 3935, 3961, 0, 1, 15200, -89.900, 0.000, 64.000, 0.000, 0.000, -2.900, 0.0, , , , , , 98, , , 0, 0, 0
36.7673134, -118.8834250, 29.300, 12:29:10.109, 15, 0.00, 0.14, 89, -0.700, 0.300, 63.200, 2, 100, 98, 26, 23665, -18104, 4903, 5510, 10, 14, 1523734150.110, 74, 0, 1024, 1024, 1024, 1024, 0, 6, 3917, 3939, 3955, 3967, 3935, 3961, 0, 1, 15300, -89.900, 0.000, 64.000, 0.000, 0.000, -2.900, 0.0, , , , , , 98, , , 0, 0, 0
36.7673134, -118.8834251, 29.600, 12:29:10.209, 15, 0.00, 0.14, 89, -0.600, 0.300, 63.100, 2, 100, 98, 26, 23665, -18104, 4903, 5510, 10, 14, 1523734150.210, 64, 0, 1024, 1024, 1024, 1024, 0, 6, 3917, 3939, 3955, 3967, 3935, 3961, 0, 1, 15400, -89.900, 0.000, 64.000, 0.000, 0.000, -2.900, 0.0, , , , , , 98, , , 0, 0, 0
36.7673134, -118.8834251, 29.900, 12:29:10.309, 14, 0.00, 0.14, 89, -0.500, 0.400, 63.000, 2, 100, 98, 26, 23664, -18021, 4903, 5510, 10, 14, 1523734150.310, 69, 0, 1024, 1024, 1024, 1024, 0, 6, 3917, 3939, 3955, 3967, 3935, 3961, 0, 1, 15500, -89.900, 0.000, 64.000, 0.000, 0.000, -2.900, 0.0, , , , , , 98, , , 0, 0, 0
36.7673133, -118.8834251, 30.200, 12:29:10.409, 14, 0.00, 0.13, 89, -0.500, 0.500, 63.000, 2, 100, 98, 26, 23664, -18021, 4903, 5510, 10, 14, 1523734150.409, 56, 0, 1024, 1024, 1024, 1024, 0, 6, 3917, 3939, 3955, 3967, 3935, 3961, 0, 1, 15600, -89.900, 0.000, 64.000, 0.000, 0.000, -2.900, 0.0, , , , , , 98, , , 0, 0, 0
36.7673133, -118.8834251, 30.500, 12:29:10.508, 15, 0.00, 0.13, 89, -0.500, 0.400, 62.900, 2, 100, 98, 26, 23664, -18021, 4903, 5510, 10, 14, 1523734150.509, 48, 0, 1024, 1024, 1024, 1024, 0, 6, 3917, 3939, 3955, 3967, 3935, 3961, 0, 1, 15699, -89.900, 0.000, 64.000, 0.000, 0.000, -2.900, 0.0, , , , , , 98, , , 0, 0, 0
36.7673134, -118.8834251, 30.800, 12:29:10.609, 15, 0.00, 0.13, 89, -0.500, 0.300, 63.000, 2, 100, 98, 26, 23664, -18021, 4903, 5510, 10, 14, 1523734150.610, 52, 0, 1024, 1024, 1024, 1024, 0, 6, 3917, 3939, 3955, 3967, 3935, 3961, 0, 1, 15800, -89.900, 0.000, 64.000, 0.000, 0.000, -2.900, 0.0, , , , , , 98, , , 0, 0, 0
36.7673134, -118.8834252, 31.100, 12:29:10.708, 15, 0.00, 0.13, 89, -0.400, 0.100, 63.000, 2, 100, 98, 26, 23664, -18021, 4903, 5510, 10, 14, 1523734150.709, 38, 0, 1024, 1024, 1024, 1024, 0, 6, 3917, 3939, 3955, 3967, 3935, 3961, 0, 1, 15899, -89.900, 0.000, 64.000, 0.000, 0.000, -2.900, 0.0, , , , , , 98, , , 0, 0, 0
36.7673134, -118.8834252, 31.100, 12:29:10.809, 15, 0.00, 0.13, 88, -0.400, 0.100, 63.000, 2, 100, 98, 26, 23664, -18021, 4848, 5510, 10, 14, 1523734150.810, 139, 0, 1024, 1024, 1024, 1024, 0, 6, 3917, 3939, 3955, 3967, 3935, 3961, 0, 1, 16000, -89.900, 0.000, 64.000, 0.000, 0.000, -2.900, 0.0, , , , , , 98, , , 0, 0, 0
36.7673134, -118.8834252, 31.700, 12:29:10.909, 14, 0.00, 0.13, 88, -0.200, 0.200, 63.100, 2, 100, 92, 26, 23664, -18021, 4848, 5510, 10, 14, 1523734150.909, 41, 0, 1024, 1024, 1024, 1024, 0, 6, 3921, 3942, 3949, 3961, 3929, 3955, 0, 1, 16100, -89.900, 0.000, 64.000, 0.000, 0.000, -2.900, 0.0, , , , , , 98, , , 0, 0, 0
36.7673134, -118.8834252, 32.000, 12:29:11.009, 14, 0.00, 0.13, 88, -0.200, 0.300, 63.100, 2, 100, 92, 26, 23664, -18021, 4848, 5510, 10, 14, 1523734151.010, 31, 0, 1024, 1024, 1024, 1024, 0, 6, 3921, 3942, 3949, 3961, 3929, 3955, 0, 1, 16200, -89.900, 0.000, 64.000, 0.000, 0.000, -2.900, 0.0, , , , , , 98, , , 0, 0, 0
36.7673134, -118.8834251, 32.300, 12:29:11.108, 15, 0.00, 0.13, 88, -0.400, 0.400, 63.100, 2, 100, 92, 26, 23664, -18021, 4848, 5510, 10, 14, 1523734151.109, 39, 0, 1024, 1024, 1024, 1024, 0, 6, 3921, 3942, 3949, 3961, 3929, 3955, 0, 1, 16300, -89.900, 0.000, 64.000, 0.000, 0.000, -2.900, 0.0, , , , , , 98, , , 0, 0, 0
36.7673133, -118.8834251, 32.600, 12:29:11.209, 15, 0.00, 0.13, 88, -0.600, 0.400, 63.100, 2, 100, 92, 26, 23664, -18021, 4848, 5510, 10, 14, 1523734151.209, 25, 0, 1024, 1024, 1024, 1024, 0, 6, 3921, 3942, 3949, 3961, 3929, 3955, 0, 1, 16400, -89.900, 0.000, 64.000, 0.000, 0.000, -2.900, 0.0, , , , , , 98, , , 0, 0, 0
36.7673133, -118.8834251, 32.800, 12:29:11.309, 14, 0.00, 0.13, 88, -0.800, 0.500, 63.000, 2, 100, 92, 26, 23664, -18021, 4848, 5510, 10, 14, 1523734151.310, 26, 0, 1024, 1024, 1024, 1024, 0, 6, 3921, 3942, 3949, 3961, 3929, 3955, 0, 1, 16500, -89.900, 0.000, 64.000, 0.000, 0.000, -2.900, 0.0, , , , , , 98, , , 0, 0, 0
36.7673134, -118.8834251, 33.100, 12:29:11.409, 14, 0.00, 0.13, 88, -0.600, 0.700, 63.000, 2, 100, 93, 26, 23664, -18021, 4848, 5510, 10, 14, 1523734151.410, 24, 0, 1024, 1024, 1024, 1024, 0, 6, 3921, 3942, 3949, 3961, 3929, 3955, 0, 1, 16600, -89.900, 0.000, 64.000, 0.000, 0.000, -2.900, 0.0, , , , , , 98, , , 0, 0, 0
36.7673134, -118.8834251, 33.400, 12:29:11.508, 15, 0.00, 0.14, 88, -0.300, 0.800, 63.000, 2, 100, 93, 26, 23664, -18021, 4848, 5510, 10, 14, 1523734151.509, 33, 0, 1024, 1024, 1024, 1024, 0, 6, 3921, 3942, 3949, 3961, 3929, 3955, 0, 1, 16700, -89.900, 0.000, 64.000, 0.000, 0.000, -2.900, 0.0, , , , , , 98, , , 0, 0, 0
36.7673134, -118.8834251, 33.700, 12:29:11.609, 15, 0.00, 0.14, 88, -0.100, 0.800, 63.100, 2, 100, 93, 26, 23664, -18021, 4848, 5510, 10, 14, 1523734151.609, 9, 0, 1024, 1024, 1024, 1024, 0, 6, 3921, 3942, 3949, 3961, 3929, 3955, 0, 1, 16800, -89.900, 0.000, 64.000, 0.000, 0.000, -2.900, 0.0, , , , , , 98, , , 0, 0, 0
36.7673135, -118.8834251, 34.000, 12:29:11.708, 15, 0.00, 0.14, 88, -0.100, 0.700, 63.200, 2, 100, 93, 26, 23664, -18021, 4848, 5510, 10, 14, 1523734151.708, 6, 0, 1024, 1024, 1024, 1024, 0, 6, 3921, 3942, 3949, 3961, 3929, 3955, 0, 1, 16899, -89.900, 0.000, 64.000, 0.000, 0.000, -3.000, 0.0, , , , , , 98, , , 0, 0, 0
36.7673135, -118.8834252, 34.600, 12:29:11.809, 15, 0.00, 0.14, 88, -0.300, 0.200, 63.200, 2, 100, 92, 26, 23638, -18134, 4848, 5510, 10, 14, 1523734151.810, 22, 0, 1024, 1024, 1024, 1024, 0, 6, 3908, 3936, 3947, 3954, 3931, 3953, 0, 1, 17000, -90.000, 0.000, 64.000, 0.000, 0.000, -2.900, 0.0, , , , , , 98, , , 0, 0, 0
36.7673134, -118.8834252, 34.900, 12:29:11.909, 15, 0.00, 0.14, 88, -0.400, 0.100, 63.100, 2, 100, 92, 26, 23638, -18134, 4848, 5510, 10, 14, 1523734151.910, 24, 0, 1024, 1024, 1024, 1024, 0, 6, 3908, 3936, 3947, 3954, 3931, 3953, 0, 1, 17100, -90.000, 0.000, 64.000, 0.000, 0.000, -2.900, 0.0, , , , , , 98, , , 0, 0, 0
36.7673134, -118.8834252, 35.200, 12:29:12.009, 15, 0.00, 0.14, 88, -0.500, 0.200, 63.100, 2, 100, 92, 26, 23638, -18134, 4848, 5510, 10, 14, 1523734152.009, 11, 0, 1024, 1024, 1024, 1024, 0, 6, 3908, 3936, 3947, 3954, 3931, 3953, 0, 1, 17200, -90.000, 0.000, 64.000, 0.000, 0.000, -2.900, 0.0, , , , , , 98, , , 0, 0, 0
36.7673134, -118.8834252, 35.200, 12:29:12.108, 15, 0.00, 0.14, 88, -0.500, 0.200, 63.100, 2, 100, 92, 26, 23638, -18134, 4848, 5510, 10, 14, 1523734152.109, 111, 0, 1024, 1024, 1024, 1024, 0, 6, 3908, 3936, 3947, 3954, 3931, 3953, 0, 1, 17300, -90.000, 0.000, 64.000, 0.000, 0.000, -2.900, 0.0, , , , , , 98, , , 0, 0, 0
36.7673135, -118.8834253, 35.500, 12:29:12.209, 15, 0.00, 0.14, 88, -0.500, 0.200, 63.100, 2, 100, 92, 26, 23638, -18134, 4848, 5510, 10, 14, 1523734152.209, 75, 0, 1024, 1024, 1024, 1024, 0, 6, 3908, 3936, 3947, 3954, 3931, 3953, 0, 1, 17400, -90.000, 0.000, 64.000, 0.000, 0.000, -3.000, 0.0, , , , , , 98, , , 0, 0, 0
36.7673135, -118.8834253, 35.800, 12:29:12.310, 15, 0.00, 0.14, 88, -0.500, 0.100, 63.000, 2, 100, 92, 26, 23638, -18134, 4848, 5510, 10, 14, 1523734152.310, 95, 0, 1024, 1024, 1024, 1024, 0, 6, 3908, 3936, 3947, 3954, 3931, 3953, 0, 1, 17501, -90.000, 0.000, 64.000, 0.000, 0.000, -3.000, 0.0, , , , , , 98, , , 0, 0, 0
36.7673135, -118.8834253, 35.800, 12:29:12.408, 15, 0.00, 0.14, 88, -0.500, 0.100, 63.000, 2, 100, 92, 26, 23638, -18134, 4848, 5510, 10, 14, 1523734152.409, 194, 0, 1024, 1024, 1024, 1024, 0, 6, 3908, 3936, 3947, 3954, 3931, 3953, 0, 1, 17599, -89.900, 0.000, 64.000, 0.000, 0.000, -3.000, 0.0, , , , , , 98, , , 0, 0, 0
36.7673135, -118.8834253, 36.700, 12:29:12.518, 15, 0.00, 0.14, 88, -0.100, 0.400, 62.800, 2, 100, 99, 26, 23638, -18134, 4848, 5510, 10, 14, 1523734152.519, 11, 0, 1024, 1024, 1024, 1024, 0, 6, 3908, 3936, 3947, 3954, 3931, 3953, 0, 1, 17710, -89.900, 0.000, 64.000, 0.000, 0.000, -3.000, 0.0, , , , , , 98, , , 0, 0, 0
36.7673135, -118.8834253, 36.700, 12:29:12.609, 15, 0.00, 0.14, 88, -0.100, 0.400, 62.800, 2, 100, 99, 26, 23638, -18134, 4848, 5510, 10, 14, 1523734152.610, 101, 0, 1024, 1024, 1024, 1024, 0, 6, 3908, 3936, 3947, 3954, 3931, 3953, 0, 1, 17800, -89.900, 0.000, 64.000, 0.000, 0.000, -3.000, 0.0, , , , , , 98, , , 0, 0, 0
36.7673135, -118.8834253, 37.000, 12:29:12.708, 15, 0.00, 0.14, 88, -0.400, 0.200, 62.700, 2, 100, 99, 26, 23638, -18134, 4848, 5510, 10, 14, 1523734152.709, 61, 0, 1024, 1024, 1024, 1024, 0, 6, 3908, 3936, 3947, 3954, 3931, 3953, 0, 1, 17899, -90.000, 0.000, 64.000, 0.000, 0.000, -3.000, 0.0, , , , , , 98, , , 0, 0, 0
36.7673135, -118.8834253, 37.400, 12:29:12.809, 15, 0.00, 0.14, 88, -0.800, 0.200, 62.600, 2, 100, 99, 26, 23595, -18697, 4848, 5510, 10, 14, 1523734152.810, 69, 0, 1024, 1024, 1024, 1024, 0, 6, 3906, 3931, 3932, 3943, 3917, 3936, 0, 1, 18000, -89.900, 0.000, 64.000, 0.000, 0.000, -3.100, 0.0, , , , , , 98, , , 0, 0, 0
36.7673135, -118.8834253, 37.700, 12:29:12.908, 15, 0.00, 0.14, 88, -0.900, 0.300, 62.500, 2, 100, 99, 26, 23595, -18697, 4848, 5510, 10, 14, 1523734152.909, 80, 0, 1024, 1024, 1024, 1024, 0, 6, 3906, 3931, 3932, 3943, 3917, 3936, 0, 1, 18099, -90.000, 0.000, 64.000, 0.000, 0.000, -3.100, 0.0, , , , , , 98, , , 0, 0, 0
36.7673135, -118.8834253, 38.000, 12:29:13.009, 15, 0.00, 0.14, 88, -0.800, 0.300, 62.600, 2, 100, 99, 26, 23595, -18697, 4848, 5510, 10, 14, 1523734153.010, 91, 0, 1024, 1024, 1024, 1024, 0, 6, 3906, 3931, 3932, 3943, 3917, 3936, 0, 1, 18200, -89.900, 0.000, 64.000, 0.000, 0.000, -3.000, 0.0, , , , , , 98, , , 0, 0, 0
36.7673135, -118.8834253, 38.300, 12:29:13.109, 15, 0.00, 0.14, 88, -0.800, 0.200, 62.800, 2, 100, 99, 26, 23595, -18697, 4848, 5510, 10, 14, 1523734153.110, 60, 0, 1024, 1024, 1024, 1024, 0, 6, 3906, 3931, 3932, 3943, 3917, 3936, 0, 1, 18300, -89.900, 0.000, 64.000, 0.000, 0.000, -3.000, 0.0, , , , , , 98, , , 0, 0, 0
36.7673135, -118.8834253, 38.600, 12:29:13.209, 15, 0.00, 0.14, 88, -0.700, 0.200, 63.000, 2, 100, 99, 26, 23595, -18697, 4848, 5510, 10, 14, 1523734153.209, 82, 0, 1024, 1024, 1024, 1024, 0, 6, 3906, 3931, 3932, 3943, 3917, 3936, 0, 1, 18400, -89.900, 0.000, 64.000, 0.000, 0.000, -3.000, 0.0, , , , , , 98, , , 0, 0, 0
36.7673135, -118.8834253, 38.900, 12:29:13.309, 15, 0.00, 0.14, 88, -0.600, 0.200, 63.100, 2, 100, 99, 26, 23595, -18697, 4848, 5510, 10, 14, 1523734153.310, 63, 0, 1024, 1024, 1024, 1024, 0, 6, 3906, 3931, 3932, 3943, 3917, 3936, 0, 1, 18500, -89.900, 0.000, 64.000, 0.000, 0.000, -3.000, 0.0, , , , , , 98, , , 0, 0, 0
36.7673135, -118.8834253, 39.200, 12:29:13.409, 15, 0.00, 0.14, 88, -0.400, 0.200, 63.100, 2, 100, 100, 26, 23595, -18697, 4848, 5510, 10, 14, 1523734153.410, 66, 0, 1024, 1024, 1024, 1024, 0, 6, 3906, 3931, 3932, 3943, 3917, 3936, 0, 1, 18600, -89.900, 0.000, 64.000, 0.000, 0.000, -2.900, 0.0, , , , , , 98, , , 0, 0, 0
36.7673135, -118.8834253, 39.500, 12:29:13.508, 15, 0.00, 0.14, 88, -0.400, 0.400, 63.100, 2, 100, 100, 26, 23595, -18697, 4848, 5510, 10, 14, 1523734153.509, 34, 0, 1024, 1024, 1024, 1024, 0, 6, 3906, 3931, 3932, 3943, 3917, 3936, 0, 1, 18699, -89.900, 0.000, 64.000, 0.000, 0.000, -2.900, 0.0, , , , , , 98, , , 0, 0, 0
36.7673135, -118.8834253, 39.800, 12:29:13.609, 15, 0.00, 0.14, 88, -0.400, 0.400, 63.100, 2, 100, 100, 26, 23595, -18697, 4848, 5510, 10, 14, 1523734153.609, 61, 0, 1024, 1024, 1024, 1024, 0, 6, 3906, 3931, 3932, 3943, 3917, 3936, 0, 1, 18799, -89.900, 0.000, 64.000, 0.000, 0.000, -2.900, 0.0, , , , , , 98, , , 0, 0, 0
36.7673135, -118.8834252, 40.100, 12:29:13.708, 15, 0.00, 0.14, 88, -0.400, 0.400, 63.100, 2, 100, 100, 26, 23595, -18697, 4848, 5510, 10, 14, 1523734153.708, 23, 0, 1024, 1024, 1024, 1024, 0, 6, 3906, 3931, 3932, 3943, 3917, 3936, 0, 1, 18899, -89.900, 0.000, 64.000, 0.000, 0.000, -2.900, 0.0, , , , , , 98, , , 0, 0, 0
36.7673135, -118.8834251, 40.400, 12:29:13.809, 15, 0.00, 0.14, 88, -0.400, 0.600, 63.100, 2, 100, 100, 26, 23546, -17718, 4848, 5510, 10, 14, 1523734153.810, 54, 0, 1024, 1024, 1024, 1024, 0, 6, 3898, 3933, 3934, 3952, 3906, 3946, 0, 1, 19000, -89.900, 0.000, 64.000, 0.000, 0.000, -3.000, 0.0, , , , , , 98, , , 0, 0, 0
36.7673135, -118.8834251, 40.700, 12:29:13.909, 15, 0.00, 0.14, 88, -0.700, 1.000, 63.100, 2, 100, 100, 26, 23546, -17718, 4848, 5510, 10, 14, 1523734153.910, 52, 0, 1024, 1024, 1024, 1024, 0, 6, 3898, 3933, 3934, 3952, 3906, 3946, 0, 1, 19101, -89.900, 0.000, 64.000, 0.000, 0.000, -2.900, 0.0, , , , , , 98, , , 0, 0, 0
36.7673135, -118.8834250, 40.900, 12:29:14.009, 15, 0.00, 0.15, 88, -0.700, 1.200, 63.100, 2, 100, 100, 26, 23546, -17718, 4848, 5510, 10, 14, 1523734154.010, 47, 0, 1024, 1024, 1024, 1024, 0, 6, 3898, 3933, 3934, 3952, 3906, 3946, 0, 1, 19200, -89.900, 0.000, 64.000, 0.000, 0.000, -2.900, 0.0, , , , , , 98, , , 0, 0, 0
36.7673135, -118.8834249, 41.200, 12:29:14.109, 15, 0.00, 0.15, 88, -0.600, 1.300, 63.000, 2, 100, 100, 26, 23546, -17718, 4848, 5510, 10, 14, 1523734154.110, 48, 0, 1024, 1024, 1024, 1024, 0, 6, 3898, 3933, 3934, 3952, 3906, 3946, 0, 1, 19300, -89.900, 0.000, 64.000, 0.000, 0.000, -2.900, 0.0, , , , , , 98, , , 0, 0, 0
36.7673134, -118.8834249, 41.500, 12:29:14.209, 15, 0.00, 0.15, 88, -0.500, 1.300, 62.900, 2, 100, 100, 26, 23546, -17718, 4848, 5510, 10, 14, 1523734154.209, 49, 0, 1024, 1024, 1024, 1024, 0, 6, 3898, 3933, 3934, 3952, 3906, 3946, 0, 1, 19400, -89.900, 0.000, 64.000, 0.000, 0.000, -2.900, 0.0, , , , , , 98, , , 0, 0, 0
36.7673134, -118.8834248, 41.800, 12:29:14.309, 15, 0.00, 0.15, 88, -0.900, 1.300, 62.800, 2, 100, 100, 26, 23546, -17718, 4848, 5510, 10, 14, 1523734154.310, 26, 0, 1024, 1024, 1024, 1024, 0, 6, 3898, 3933, 3934, 3952, 3906, 3946, 0, 1, 19500, -89.900, 0.000, 64.000, 0.000, 0.000, -3.000, 0.0, , , , , , 98, , , 0, 0, 0
36.7673133, -118.8834248, 42.200, 12:29:14.409, 15, 0.00, 0.15, 88, -1.300, 1.000, 62.800, 2, 100, 100, 26, 23546, -17718, 4848, 5510, 10, 14, 1523734154.409, 31, 0, 1024, 1024, 1024, 1024, 0, 6, 3898, 3933, 3934, 3952, 3906, 3946, 0, 1, 19600, -89.900, 0.000, 64.000, 0.000, 0.000, -3.000, 0.0, , , , , , 98, , , 0, 0, 0
36.7673133, -118.8834247, 42.500, 12:29:14.509, 15, 0.00, 0.14, 88, -1.500, 1.000, 62.900, 2, 100, 100, 26, 23546, -17718, 4848, 5510, 10, 14, 1523734154.510, 33, 0, 1024, 1024, 1024, 1024, 0, 6, 3898, 3933, 3934, 3952, 3906, 3946, 0, 1, 19700, -89.900, 0.000, 64.000, 0.000, 0.000, -3.000, 0.0, , , , , , 98, , , 0, 0, 0
36.7673132, -118.8834246, 42.800, 12:29:14.609, 15, 0.00, 0.14, 88, -1.700, 1.000, 62.900, 2, 100, 100, 26, 23546, -17718, 4848, 5510, 10, 14, 1523734154.610, 26, 0, 1024, 1024, 1024, 1024, 0, 6, 3898, 3933, 3934, 3952, 3906, 3946, 0, 1, 19800, -89.900, 0.000, 64.000, 0.000, 0.000, -2.900, 0.0, , , , , , 98, , , 0, 0, 0
36.7673132, -118.8834245, 43.100, 12:29:14.708, 15, 0.00, 0.14, 88, -1.700, 1.200, 63.000, 2, 100, 100, 26, 23546, -17718, 4848, 5510, 10, 14, 1523734154.709, 13, 0, 1024, 1024, 1024, 1024, 0, 6, 3898, 3933, 3934, 3952, 3906, 3946, 0, 1, 19899, -89.900, 0.000, 64.000, 0.000, 0.000, -2.900, 0.0, , , , , , 98, , , 0, 0, 0
36.7673131, -118.8834245, 43.400, 12:29:14.809, 15, 0.00, 0.15, 88, -1.700, 1.400, 63.000, 2, 100, 100, 26, 23539, -18644, 4848, 5510, 10, 14, 1523734154.810, 20, 0, 1024, 1024, 1024, 1024, 0, 6, 3903, 3924, 3928, 3944, 3910, 3949, 0, 1, 20000, -89.900, 0.000, 64.000, 0.000, 0.000, -2.900, 0.0, , , , , , 98, , , 0, 0, 0
36.7673131, -118.8834244, 43.600, 12:29:14.908, 15, 0.00, 0.15, 88, -1.900, 1.500, 63.000, 2, 100, 100, 26, 23539, -18644, 4848, 5510, 10, 14, 1523734154.909, 17, 0, 1024, 1024, 1024, 1024, 0, 6, 3903, 3924, 3928, 3944, 3910, 3949, 0, 1, 20099, -89.900, 0.000, 64.000, 0.000, 0.000, -2.900, 0.0, , , , , , 98, , , 0, 0, 0
36.7673130, -118.8834243, 44.000, 12:29:15.009, 15, 0.00, 0.15, 88, -2.100, 1.400, 62.900, 2, 100, 100, 26, 23539, -18644, 4848, 5510, 10, 14, 1523734155.009, 14, 0, 1024, 1024, 1024, 1024, 0, 6, 3903, 3924, 3928, 3944, 3910, 3949, 0, 1, 20200, -89.900, 0.000, 64.000, 0.000, 0.000, -3.000, 0.0, , , , , , 98, , , 0, 0, 0
36.7673129, -118.8834242, 44.300, 12:29:15.109, 15, 0.00, 0.15, 88, -2.500, 1.600, 62.800, 2, 100, 100, 26, 23539, -18644, 4848, 5510, 10, 14, 1523734155.109, 14, 0, 1024, 1024, 1024, 1024, 0, 6, 3903, 3924, 3928, 3944, 3910, 3949, 0, 1, 20300, -89.900, 0.000, 64.000, 0.000, 0.000, -3.000, 0.0, , , , , , 98, , , 0, 0, 0
36.7673128, -118.8834240, 44.900, 12:29:15.208, 15, 0.00, 0.16, 88, -3.100, 1.700, 62.700, 2, 100, 100, 26, 23539, -18644, 4848, 5510, 10, 14, 1523734155.209, 17, 0, 1024, 1024, 1024, 1024, 0, 6, 3903, 3924, 3928, 3944, 3910, 3949, 0, 1, 20399, -89.900, 0.000, 64.000, 0.000, 0.000, -3.000, 0.0, , , , , , 98, , , 0, 0, 0
36.7673128, -118.8834240, 44.900, 12:29:15.309, 15, 0.00, 0.16, 88, -3.100, 1.700, 62.700, 2, 100, 100, 26, 23539, -18644, 4848, 5510, 10, 14, 1523734155.310, 117, 0, 1024, 1024, 1024, 1024, 0, 6, 3903, 3924, 3928, 3944, 3910, 3949, 0, 1, 20500, -89.900, 0.000, 64.000, 0.000, 0.000, -3.000, 0.0, , , , , , 98, , , 0, 0, 0
36.7673127, -118.8834239, 45.200, 12:29:15.409, 15, 0.00, 0.17, 88, -3.200, 1.900, 62.600, 2, 100, 100, 26, 23539, -18644, 4848, 5510, 10, 14, 1523734155.410, 85, 0, 1024, 1024, 1024, 1024, 0, 6, 3903, 3924, 3928, 3944, 3910, 3949, 0, 1, 20600, -89.900, 0.000, 64.000, 0.000, 0.000, -2.900, 0.0, , , , , , 98, , , 0, 0, 0
36.7673127, -118.8834238, 45.500, 12:29:15.509, 15, 0.00, 0.18, 88, -3.200, 2.400, 62.600, 2, 100, 100, 26, 23539, -18644, 4848, 5510, 10, 14, 1523734155.509, 94, 0, 1024, 1024, 1024, 1024, 0, 6, 3903, 3924, 3928, 3944, 3910, 3949, 0, 1, 20700, -89.900, 0.000, 64.000, 0.000, 0.000, -3.000, 0.0, , , , , , 98, , , 0, 0, 0
36.7673127, -118.8834236, 45.800, 12:29:15.609, 15, 0.00, 0.19, 88, -3.100, 2.700, 62.600, 2, 100, 100, 26, 23539, -18644, 4848, 5510, 10, 14, 1523734155.609, 72, 0, 1024, 1024, 1024, 1024, 0, 6, 3903, 3924, 3928, 3944, 3910, 3949, 0, 1, 20799, -89.900, 0.000, 64.000, 0.000, 0.000, -3.000, 0.0, , , , , , 98, , , 0, 0, 0
36.7673126, -118.8834235, 46.100, 12:29:15.708, 15, 0.00, 0.20, 88, -3.200, 2.700, 62.600, 2, 100, 100, 26, 23539, -18644, 4848, 5510, 10, 14, 1523734155.709, 73, 0, 1024, 1024, 1024, 1024, 0, 6, 3903, 3924, 3928, 3944, 3910, 3949, 0, 1, 20899, -89.900, 0.000, 64.000, 0.000, 0.000, -2.900, 0.0, , , , , , 98, , , 0, 0, 0
36.7673125, -118.8834234, 46.400, 12:29:15.809, 15, 0.00, 0.21, 88, -3.600, 2.500, 62.600, 2, 100, 100, 26, 23577, -17814, 4848, 5510, 10, 14, 1523734155.810, 80, 0, 1024, 1024, 1024, 1024, 0, 6, 3903, 3924, 3928, 3944, 3910, 3949, 0, 1, 21000, -89.900, 0.000, 64.000, 0.000, 0.000, -3.000, 0.0, , , , , , 98, , , 0, 0, 0
36.7673124, -118.8834233, 46.800, 12:29:15.909, 15, 0.00, 0.21, 88, -4.100, 2.400, 62.600, 2, 100, 100, 26, 23577, -17814, 4848, 5510, 10, 14, 1523734155.910, 84, 0, 1024, 1024, 1024, 1024, 0, 6, 3903, 3924, 3928, 3944, 3910, 3949, 0, 1, 21100, -89.900, 0.000, 64.000, 0.000, 0.000, -3.000, 0.0, , , , , , 98, , , 0, 0, 0
