latitude,longitude,altitude(feet),ascent(feet),speed(mph),distance(feet),time(millisecond),datetime(utc),satellites,gpslevel,voltage(v),max_altitude(feet),max_ascent(feet),max_speed(mph),max_distance(feet), xSpeed(mph), ySpeed(mph), zSpeed(mph), compass_heading(degrees), pitch(degrees), roll(degrees),isPhoto,isVideo,rc_elevator,rc_aileron,rc_throttle,rc_rudder,gimbal_heading(degrees),gimbal_pitch(degrees),battery_percent,voltageCell1,voltageCell2,voltageCell3,voltageCell4,voltageCell5,voltageCell6,current(A),battery_temperature(f),flycStateRaw,flycState,message
36.7673107,-118.8833941,5725.4895217983,0,0.223694,0,3110,2018-04-14 21:09:31,13,0,0,5725.4895217983,0,0.223694,0,0,0,0,64.1, 2.9, 0.8,1,0,1024,1024,1024,1024,64,-90,92,3.983,3.977,3.972,3.981,0,0,0,73.4,11,AutoTakeoff,DJI_0050.jpg Starting Mission from Lat/Long: 36.76731/-118.88340 Camera: Zenmuse X3 - Overlap: 90/90 - Active Connection: Yes
36.7673106,-118.8833943,5725.4895217983,0,0.3131716,0.068906170184,3200,2018-04-14 21:09:31,13,0,0,5725.4895217983,0,0.3131716,0.068906170184,0,0,0,64.2, 1.5, 0.8,0,0,1024,1024,1024,1024,64,-90,92,3.983,3.977,3.972,3.981,0,0,0,73.4,11,AutoTakeoff,
36.7673105,-118.8833945,5725.4895217983,0,0.3131716,0.137812012284,3300,2018-04-14 21:09:31,13,0,0,5725.4895217983,0,0.3131716,0.137812012284,0,0,0,64.2, 0.4, 0.6,0,0,1024,1024,1024,1024,64,-90,92,3.983,3.977,3.972,3.981,0,0,0,73.4,11,AutoTakeoff,
36.7673103,-118.8833947,5725.8176057983,0.328084,0.3131716,0.228145676592,3400,2018-04-14 21:09:31,13,0,0,5725.8176057983,0.328084,0.3131716,0.228145676592,0,0,0,64.2, -0.6, 0.2,0,0,1024,1024,1024,1024,64,-90,92,3.983,3.977,3.972,3.981,0,0,0,73.4,11,AutoTakeoff,
36.7673102,-118.8833949,5725.8176057983,0.328084,0.3131716,0.296562017364,3500,2018-04-14 21:09:31,12,0,0,5725.8176057983,0.328084,0.3131716,0.296562017364,0,0,0,64.3, -1.6, -0.3,0,0,1024,1024,1024,1024,64,-90,92,3.983,3.977,3.972,3.981,0,0,0,73.4,11,AutoTakeoff,
36.7673101,-118.883395,5726.1456897983,0.656168,0.223694,0.34221785872,3600,2018-04-14 21:09:32,12,0,0,5726.1456897983,0.656168,0.3131716,0.34221785872,0,0,0,64.4, -2, -0.5,0,0,1024,1024,1024,1024,64,-90,92,3.983,3.977,3.972,3.981,0,0,0,73.4,11,AutoTakeoff,
36.76731,-118.8833951,5726.1456897983,0.656168,0.223694,0.38813649536,3700,2018-04-14 21:09:32,11,0,0,5726.1456897983,0.656168,0.3131716,0.38813649536,0,0,0,64.4, -1.9, -0.9,0,0,1024,1024,1024,1024,64,-89.9,92,3.983,3.977,3.972,3.981,0,0,0,73.4,11,AutoTakeoff,
36.7673098,-118.8833952,5726.4737737983,0.984252,0.223694,0.4595472588,3900,2018-04-14 21:09:32,10,0,0,5726.4737737983,0.984252,0.3131716,0.4595472588,0,0,0,64.3, -1, -1.3,0,0,1024,1024,1024,1024,64,-89.9,92,3.983,3.977,3.972,3.981,0,0,0,73.4,11,AutoTakeoff,
36.7673097,-118.8833952,5726.4737737983,0.984252,0,0.48628938564,4100,2018-04-14 21:09:32,10,0,0,5726.4737737983,0.984252,0.3131716,0.48628938564,0,0,0,64.2, -0.4, -1.3,0,0,1024,1024,1024,1024,64,-89.9,92,3.983,3.977,3.972,3.981,0,0,0,73.4,11,AutoTakeoff,
36.7673097,-118.8833951,5726.8018577983,1.312336,0,0.46748032992,4200,2018-04-14 21:09:32,12,0,0,5726.8018577983,1.312336,0.3131716,0.48628938564,0,0,0,64.1, 0, -1.3,0,0,1024,1024,1024,1024,64,-89.9,92,3.983,3.977,3.972,3.981,0,0,0,73.4,11,AutoTakeoff,
36.7673095,-118.8833951,5727.1299417983,1.64042,0,0.526410778,4300,2018-04-14 21:09:32,13,0,0,5727.1299417983,1.64042,0.3131716,0.526410778,0,0,0,64, 0.4, -1.6,0,0,1024,1024,1024,1024,64,-89.9,92,3.983,3.977,3.972,3.981,0,0,0,73.4,11,AutoTakeoff,
36.7673094,-118.8833951,5727.1299417983,1.64042,0,0.55712272124,4400,2018-04-14 21:09:32,13,0,0,5727.1299417983,1.64042,0.3131716,0.55712272124,0,0,0,64, 0.3, -1.6,0,0,1024,1024,1024,1024,64,-89.9,92,3.983,3.977,3.972,3.981,0,0,0,73.4,11,AutoTakeoff,
36.7673094,-118.8833951,5727.4580257983,1.968504,0,0.55712272124,4500,2018-04-14 21:09:32,13,0,0,5727.4580257983,1.968504,0.3131716,0.55712272124,0,0,0,64.1, 0.1, -1.3,0,0,1024,1024,1024,1024,64,-89.9,92,3.983,3.977,3.972,3.981,0,0,0,73.4,11,AutoTakeoff,
36.7673094,-118.8833951,5727.4580257983,1.968504,0,0.55712272124,4600,2018-04-14 21:09:33,13,0,0,5727.4580257983,1.968504,0.3131716,0.55712272124,0,0,-0.223694,64.1, 0, -1.2,0,0,1024,1024,1024,1024,64,-89.9,92,3.983,3.977,3.972,3.981,0,0,0,73.4,11,AutoTakeoff,
36.7673093,-118.883395,5727.7861097983,2.296588,0,0.5745407008,4700,2018-04-14 21:09:33,11,0,0,5727.7861097983,2.296588,0.3131716,0.5745407008,0,0,-0.223694,64.2, -0.1, -1.2,0,0,1024,1024,1024,1024,64,-89.9,92,3.983,3.977,3.972,3.981,0,0,0,73.4,11,AutoTakeoff,
36.7673093,-118.8833949,5727.7861097983,2.296588,0,0.561761829,4800,2018-04-14 21:09:33,11,0,0,5727.7861097983,2.296588,0.3131716,0.5745407008,0,0,-0.223694,64.3, 0, -1.1,0,0,1024,1024,1024,1024,64,-89.9,92,3.983,3.977,3.972,3.981,0,0,0,73.4,11,AutoTakeoff,
36.7673092,-118.8833948,5728.1141937983,2.624672,0,0.58426511056,4900,2018-04-14 21:09:33,10,0,0,5728.1141937983,2.624672,0.3131716,0.58426511056,0,0,-0.223694,64.5, 0.2, -1.2,0,0,1024,1024,1024,1024,64,-89.9,92,3.983,3.977,3.972,3.981,0,0,0,73.4,11,AutoTakeoff,
36.7673091,-118.8833948,5728.4422777983,2.952756,0,0.61857285444,5000,2018-04-14 21:09:33,10,0,23.925,5728.4422777983,2.952756,0.3131716,0.61857285444,0,0,-0.223694,64.6, 0.4, -1.4,0,0,1024,1024,1024,1024,64,-89.9,92,3.983,3.977,3.972,3.981,0,0,16.098,73.4,6,P-GPS,
36.7673091,-118.8833947,5728.4422777983,2.952756,0,0.6095308594,5100,2018-04-14 21:09:33,11,0,23.925,5728.4422777983,2.952756,0.3131716,0.61857285444,0,0,-0.223694,64.5, 0.5, -1.5,0,0,1024,1024,1024,1024,64,-89.9,92,3.983,3.977,3.972,3.981,0,0,16.098,73.4,14,Waypoint,
36.767309,-118.8833947,5728.7703617983,3.28084,0,0.64455710724,5200,2018-04-14 21:09:33,11,0,23.925,5728.7703617983,3.28084,0.3131716,0.64455710724,0,0,0,64.6, 0.8, -1.3,0,0,1024,1024,1024,1024,64,-89.9,92,3.983,3.977,3.972,3.981,0,0,16.098,73.4,14,Waypoint,
36.767309,-118.8833947,5728.7703617983,3.28084,0,0.64455710724,5300,2018-04-14 21:09:33,11,0,23.925,5728.7703617983,3.28084,0.3131716,0.64455710724,0,0,0,64.7, 0.9, -0.8,0,0,1024,1024,1024,1024,64,-89.9,92,3.983,3.977,3.972,3.981,0,0,16.098,73.4,14,Waypoint,
36.7673089,-118.8833947,5728.7703617983,3.28084,0,0.67973755456,5400,2018-04-14 21:09:33,11,0,23.925,5728.7703617983,3.28084,0.3131716,0.67973755456,0,0,0,64.7, 0.9, -0.7,0,0,1024,1024,1024,1024,64,-89.9,92,3.983,3.977,3.972,3.981,0,0,16.098,73.4,14,Waypoint,
36.7673088,-118.8833945,5729.0984457983,3.608924,0,0.703001991,5500,2018-04-14 21:09:33,14,0,23.925,5729.0984457983,3.608924,0.3131716,0.703001991,0,0,0,64.6, 0.9, -0.8,0,0,1024,1024,1024,1024,64,-89.9,92,3.983,3.977,3.972,3.981,0,0,16.098,73.4,14,Waypoint,
36.7673087,-118.8833943,5729.0984457983,3.608924,0,0.732037425,5600,2018-04-14 21:09:34,14,0,23.925,5729.0984457983,3.608924,0.3131716,0.732037425,0,0,-0.223694,64.5, 0.9, -1.1,0,0,1024,1024,1024,1024,64,-89.9,92,3.983,3.977,3.972,3.981,0,0,16.098,73.4,14,Waypoint,
36.7673087,-118.8833942,5729.4265297983,3.937008,0,0.73028545644,5700,2018-04-14 21:09:34,12,0,23.925,5729.4265297983,3.937008,0.3131716,0.732037425,0,0,-0.223694,64.3, 1, -1.3,0,0,1024,1024,1024,1024,64,-89.9,92,3.983,3.977,3.972,3.981,0,0,16.098,73.4,14,Waypoint,
36.7673086,-118.8833942,5729.4265297983,3.937008,0,0.76674215052,5800,2018-04-14 21:09:34,12,0,23.925,5729.4265297983,3.937008,0.3131716,0.76674215052,0,0,-0.223694,64.2, 1, -1.4,0,0,1024,1024,1024,1024,64,-89.9,92,3.983,3.977,3.972,3.981,0,0,16.098,73.4,14,Waypoint,
36.7673086,-118.883394,5729.7546137983,4.265092,0,0.76674215052,5900,2018-04-14 21:09:34,12,0,23.925,5729.7546137983,4.265092,0.3131716,0.76674215052,0,0,-0.223694,64.2, 0.8, -1.5,0,0,1024,1024,1024,1024,64,-89.9,92,3.983,3.977,3.972,3.981,0,0,16.098,73.4,14,Waypoint,
36.7673086,-118.8833937,5730.7388657983,5.249344,0,0.77505251824,6200,2018-04-14 21:09:34,13,0,23.925,5730.7388657983,5.249344,0.3131716,0.77505251824,0,0,-0.223694,64.3, 0.8, -1.7,0,0,1024,1024,1024,1024,64,-89.9,92,3.983,3.977,3.972,3.981,0,0,16.098,73.4,14,Waypoint,
36.7673088,-118.8833935,5731.0669497983,5.577428,0,0.71504923548,6300,2018-04-14 21:09:34,13,0,23.925,5731.0669497983,5.577428,0.3131716,0.77505251824,0,0,-0.447388,64.3, 1.1, -1.8,0,0,1024,1024,1024,1024,64,-89.9,92,3.983,3.977,3.972,3.981,0,0,16.098,73.4,14,Waypoint,
36.7673088,-118.8833934,5731.7231177983,6.233596,0,0.72277561368,6400,2018-04-14 21:09:34,11,0,23.925,5731.7231177983,6.233596,0.3131716,0.77505251824,0,0,-0.447388,64.4, 1.5, -1.4,0,0,1024,1024,1024,1024,64,-89.9,92,3.983,3.977,3.972,3.981,0,0,16.098,73.4,14,Waypoint,
36.7673088,-118.8833932,5732.3792857983,6.889764,0,0.74144359328,6500,2018-04-14 21:09:34,11,0,23.925,5732.3792857983,6.889764,0.3131716,0.77505251824,0,0,-0.447388,64.4, 1.6, -1.2,0,0,1024,1024,1024,1024,64,-90,92,3.983,3.977,3.972,3.981,0,0,16.098,73.4,14,Waypoint,
36.7673091,-118.8833934,5734.0197057983,8.530184,0,0.61857285444,6600,2018-04-14 21:09:35,12,0,23.925,5734.0197057983,8.530184,0.3131716,0.77505251824,0,0,-0.671082,64.6, 1, -0.5,0,0,1024,1024,1024,1024,64,-90,92,3.983,3.977,3.972,3.981,0,0,16.098,73.4,14,Waypoint,
36.7673093,-118.8833934,5735.6601257983,10.170604,0,0.55023951892,6800,2018-04-14 21:09:35,12,0,23.925,5735.6601257983,10.170604,0.3131716,0.77505251824,0,0,-0.671082,64.6, 1, 0.4,0,0,1024,1024,1024,1024,64,-89.9,92,3.983,3.977,3.972,3.981,0,0,16.098,73.4,14,Waypoint,
36.7673094,-118.8833934,5736.9724617983,11.48294,0,0.51654857296,6900,2018-04-14 21:09:35,12,0,23.925,5736.9724617983,11.48294,0.3131716,0.77505251824,0,0,-0.671082,64.7, 1.3, 0.3,0,0,1024,1024,1024,1024,64,-89.9,92,3.983,3.977,3.972,3.981,0,0,16.098,73.4,14,Waypoint,
36.7673095,-118.8833933,5737.9567137983,12.467192,0,0.4963418794,7000,2018-04-14 21:09:35,12,0,23.574,5737.9567137983,12.467192,0.3131716,0.77505251824,0,0,-0.671082,64.8, 1.5, 0.3,0,0,1024,1024,1024,1024,64,-89.9,92,3.907,3.909,3.927,3.931,0,0,16.527,73.4,14,Waypoint,
36.7673095,-118.8833933,5738.9409657983,13.451444,0,0.4963418794,7100,2018-04-14 21:09:35,13,0,23.574,5738.9409657983,13.451444,0.3131716,0.77505251824,0,0,-0.671082,64.9, 1.7, 0.2,0,0,1024,1024,1024,1024,64,-89.9,92,3.907,3.909,3.927,3.931,0,0,16.527,73.4,14,Waypoint,
36.7673095,-118.8833932,5740.2533017983,14.76378,0,0.5107611712,7200,2018-04-14 21:09:35,13,0,23.574,5740.2533017983,14.76378,0.3131716,0.77505251824,0,0,-0.671082,65, 1.8, 0.1,0,0,1024,1024,1024,1024,64,-89.9,92,3.907,3.909,3.927,3.931,0,0,16.527,73.4,14,Waypoint,
36.7673097,-118.8833932,5741.2375537983,15.748032,0,0.4497867598,7300,2018-04-14 21:09:35,13,0,23.574,5741.2375537983,15.748032,0.3131716,0.77505251824,0,0,-0.671082,65, 1.7, -0.1,0,0,1024,1024,1024,1024,64,-89.9,92,3.907,3.909,3.927,3.931,0,0,16.527,73.4,14,Waypoint,
36.7673098,-118.8833932,5742.5498897983,17.060368,0,0.42073164076,7400,2018-04-14 21:09:35,13,0,23.574,5742.5498897983,17.060368,0.3131716,0.77505251824,0,0,-0.671082,65, 1.6, 0,0,0,1024,1024,1024,1024,64,-89.9,92,3.907,3.909,3.927,3.931,0,0,16.527,73.4,14,Waypoint,
36.7673098,-118.8833931,5743.5341417983,18.04462,0,0.43959647076,7500,2018-04-14 21:09:35,12,0,23.574,5743.5341417983,18.04462,0.3131716,0.77505251824,0,0,-0.671082,64.9, 1.5, 0.2,0,0,1024,1024,1024,1024,64,-90,92,3.907,3.909,3.927,3.931,0,0,16.527,73.4,14,Waypoint,
36.7673098,-118.8833931,5744.8464777983,19.356956,0,0.43959647076,7600,2018-04-14 21:09:36,12,0,23.574,5744.8464777983,19.356956,0.3131716,0.77505251824,0,0,-0.671082,64.7, 1.4, 0.1,0,0,1024,1024,1024,1024,64,-89.9,92,3.907,3.909,3.927,3.931,0,0,16.527,73.4,14,Waypoint,
36.7673095,-118.8833931,5745.8307297983,20.341208,0,0.526410778,7700,2018-04-14 21:09:36,15,0,23.574,5745.8307297983,20.341208,0.3131716,0.77505251824,0,0,-0.671082,64.6, 1.2, -0.3,0,0,1024,1024,1024,1024,64,-89.9,92,3.907,3.909,3.927,3.931,0,0,16.527,73.4,14,Waypoint,
36.7673091,-118.8833932,5746.8149817983,21.32546,0.223694,0.64028545356,7800,2018-04-14 21:09:36,15,0,23.574,5746.8149817983,21.32546,0.3131716,0.77505251824,0,0,-0.671082,64.6, 0.6, -1.2,0,0,1024,1024,1024,1024,64,-90,92,3.907,3.909,3.927,3.931,0,0,16.527,73.4,14,Waypoint,
36.7673087,-118.8833931,5748.1273177983,22.637796,0.223694,0.7860564556,7900,2018-04-14 21:09:36,15,0,23.574,5748.1273177983,22.637796,0.3131716,0.7860564556,0,0,-0.671082,64.6, 0.1, -2,0,0,1024,1024,1024,1024,64,-90,92,3.907,3.909,3.927,3.931,0,0,16.527,73.4,14,Waypoint,
36.7673083,-118.8833931,5749.1115697983,23.622048,0.223694,0.92312666996,8000,2018-04-14 21:09:36,15,0,23.015,5749.1115697983,23.622048,0.3131716,0.92312666996,0,0,-0.671082,64.6, 0, -2.9,0,0,1024,1024,1024,1024,64,-90,92,3.817,3.843,3.803,3.849,0,0,24.155,73.4,14,Waypoint,
36.7673081,-118.8833931,5750.0958217983,24.6063,0.223694,0.99261158032,8200,2018-04-14 21:09:36,14,0,23.015,5750.0958217983,24.6063,0.3131716,0.99261158032,0,0,-0.671082,64.4, 0, -3.6,0,0,1024,1024,1024,1024,64,-90,92,3.817,3.843,3.803,3.849,0,0,24.155,73.4,14,Waypoint,
36.7673079,-118.883393,5751.0800737983,25.590552,0,1.07097444372,8300,2018-04-14 21:09:36,14,0,23.015,5751.0800737983,25.590552,0.3131716,1.07097444372,0,0,-0.671082,64.3, 0.3, -3.7,0,0,1024,1024,1024,1024,64,-89.9,92,3.817,3.843,3.803,3.849,0,0,24.155,73.4,14,Waypoint,
36.767308,-118.8833929,5752.3924097983,26.902888,0,1.04566604396,8400,2018-04-14 21:09:36,16,0,23.015,5752.3924097983,26.902888,0.3131716,1.07097444372,0,0,-0.671082,64.2, 0.6, -3.3,0,0,1024,1024,1024,1024,64,-89.9,92,3.817,3.843,3.803,3.849,0,0,24.155,73.4,14,Waypoint,
36.7673087,-118.8833927,5755.6732497983,30.183728,0.223694,0.83659451496,8610,2018-04-14 21:09:37,16,0,23.015,5755.6732497983,30.183728,0.3131716,1.07097444372,0,0,-0.671082,64.2, 2.2, -0.1,0,0,1024,1024,1024,1024,64,-89.9,92,3.817,3.843,3.803,3.849,0,0,24.155,73.4,14,Waypoint,
36.7673087,-118.8833927,5755.6732497983,30.183728,0.223694,0.83659451496,8700,2018-04-14 21:09:37,16,0,23.015,5755.6732497983,30.183728,0.3131716,1.07097444372,0,0,-0.671082,64.2, 2.2, -0.1,0,0,1024,1024,1024,1024,64,-89.9,92,3.817,3.843,3.803,3.849,0,0,24.155,73.4,14,Waypoint,
36.7673088,-118.8833926,5756.6575017983,31.16798,0.223694,0.82021,8800,2018-04-14 21:09:37,15,0,23.015,5756.6575017983,31.16798,0.3131716,1.07097444372,0,0,-0.671082,64.3, 2.7, 0.4,0,0,1024,1024,1024,1024,64,-89.9,92,3.817,3.843,3.803,3.849,0,0,24.155,73.4,14,Waypoint,
36.7673089,-118.8833925,5757.6417537983,32.152232,0.223694,0.80621065572,8900,2018-04-14 21:09:37,15,0,23.015,5757.6417537983,32.152232,0.3131716,1.07097444372,0,0,-0.671082,64.5, 2.9, 0.5,0,0,1024,1024,1024,1024,64,-89.9,92,3.817,3.843,3.803,3.849,0,0,24.155,73.4,14,Waypoint,
36.767309,-118.8833925,5758.9540897983,33.464568,0,0.77677824008,9000,2018-04-14 21:09:37,16,0,23.169,5758.9540897983,33.464568,0.3131716,1.07097444372,0,0,-0.671082,64.7, 2.8, 0.3,0,0,1024,1024,1024,1024,64,-89.9,92,3.817,3.843,3.803,3.849,0,0,20.764,73.4,14,Waypoint,
36.7673091,-118.8833925,5760.9225937983,35.433072,0,0.74796918404,9100,2018-04-14 21:09:37,15,0,23.169,5760.9225937983,35.433072,0.3131716,1.07097444372,0,0,-0.671082,64.9, 2.3, 0.4,0,0,1024,1024,1024,1024,64,-89.9,92,3.817,3.843,3.803,3.849,0,0,20.764,73.4,14,Waypoint,
36.7673091,-118.8833925,5761.9068457983,36.417324,0,0.74796918404,9200,2018-04-14 21:09:37,15,0,23.169,5761.9068457983,36.417324,0.3131716,1.07097444372,0,0,-0.671082,64.8, 2, 0.2,0,0,1024,1024,1024,1024,64,-89.9,92,3.817,3.843,3.803,3.849,0,0,20.764,73.4,14,Waypoint,
36.7673091,-118.8833925,5762.8910977983,37.401576,0,0.74796918404,9400,2018-04-14 21:09:37,16,0,23.169,5762.8910977983,37.401576,0.3131716,1.07097444372,0,0,-0.671082,64.6, 1.8, -0.3,0,0,1024,1024,1024,1024,64,-90,92,3.817,3.843,3.803,3.849,0,0,20.764,73.4,14,Waypoint,
36.7673091,-118.8833924,5763.8753497983,38.385828,0,0.76658138936,9500,2018-04-14 21:09:37,16,0,23.169,5763.8753497983,38.385828,0.3131716,1.07097444372,0,0,-0.671082,64.5, 1.7, -0.7,0,0,1024,1024,1024,1024,64,-90,92,3.817,3.843,3.803,3.849,0,0,20.764,73.4,14,Waypoint,
36.767309,-118.8833924,5764.8596017983,39.37008,0,0.79471459236,9610,2018-04-14 21:09:38,17,0,23.169,5764.8596017983,39.37008,0.3131716,1.07097444372,0,0,-0.671082,64.3, 1.7, -1,0,0,1024,1024,1024,1024,64,-90,92,3.817,3.843,3.803,3.849,0,0,20.764,73.4,14,Waypoint,
36.767309,-118.8833925,5765.8438537983,40.354332,0,0.77677824008,9700,2018-04-14 21:09:38,17,0,23.169,5765.8438537983,40.354332,0.3131716,1.07097444372,0,0,-0.671082,64.3, 1.6, -1,0,0,1024,1024,1024,1024,64,-90,92,3.817,3.843,3.803,3.849,0,0,20.764,73.4,14,Waypoint,
36.7673089,-118.8833926,5766.8281057983,41.338584,0,0.789616167,9900,2018-04-14 21:09:38,17,0,23.169,5766.8281057983,41.338584,0.3131716,1.07097444372,0,0,-0.671082,64.2, 1.5, -1.1,0,0,1024,1024,1024,1024,64,-90,92,3.817,3.843,3.803,3.849,0,0,20.764,73.4,14,Waypoint,
36.7673089,-118.8833927,5767.8123577983,42.322836,0,0.7737697098,10000,2018-04-14 21:09:38,17,0,23.169,5767.8123577983,42.322836,0.3131716,1.07097444372,0,0,-0.671082,64.3, 1.3, -1.1,0,0,1024,1024,1024,1024,64,-90,92,3.859,3.853,3.855,3.861,0,0,20.764,73.4,14,Waypoint,
36.7673089,-118.8833928,5768.7966097983,43.307088,0,0.75872049672,10100,2018-04-14 21:09:38,16,0,23.169,5768.7966097983,43.307088,0.3131716,1.07097444372,0,0,-0.671082,64.3, 1.1, -1.1,0,0,1024,1024,1024,1024,64,-90,92,3.859,3.853,3.855,3.861,0,0,20.764,73.4,14,Waypoint,
36.7673089,-118.8833929,5769.7808617983,44.29134,0,0.74451445952,10210,2018-04-14 21:09:38,16,0,23.169,5769.7808617983,44.29134,0.3131716,1.07097444372,0,0,-0.671082,64.4, 1, -1,0,0,1024,1024,1024,1024,64,-90,92,3.859,3.853,3.855,3.861,0,0,20.764,73.4,14,Waypoint,
36.7673088,-118.883393,5770.7651137983,45.275592,0.223694,0.76413716356,10300,2018-04-14 21:09:38,16,0,23.169,5770.7651137983,45.275592,0.3131716,1.07097444372,0,0,-0.671082,64.5, 0.9, -0.8,0,0,1024,1024,1024,1024,64,-90,92,3.859,3.853,3.855,3.861,0,0,20.764,73.4,14,Waypoint,
36.7673089,-118.8833932,5772.7336177983,47.244096,0,0.70745081004,10410,2018-04-14 21:09:38,16,0,23.169,5772.7336177983,47.244096,0.3131716,1.07097444372,0,0,-0.671082,64.6, 0.6, -0.5,0,0,1024,1024,1024,1024,64,-90,92,3.859,3.853,3.855,3.861,0,0,20.764,73.4,14,Waypoint,
36.7673089,-118.8833932,5773.7178697983,48.228348,0,0.70745081004,10500,2018-04-14 21:09:38,16,0,23.169,5773.7178697983,48.228348,0.3131716,1.07097444372,0,0,-0.671082,64.7, 0.6, -0.4,0,0,1024,1024,1024,1024,64,-90,92,3.859,3.853,3.855,3.861,0,0,20.764,73.4,14,Waypoint,
36.7673089,-118.8833933,5775.0302057983,49.540684,0,0.69710960236,10600,2018-04-14 21:09:39,16,0,23.169,5775.0302057983,49.540684,0.3131716,1.07097444372,0,0,-0.671082,64.7, 0.6, -0.4,0,0,1024,1024,1024,1024,64,-90,92,3.859,3.853,3.855,3.861,0,0,20.764,73.4,14,Waypoint,
36.7673089,-118.8833934,5775.6863737983,50.196852,0,0.68785763356,10700,2018-04-14 21:09:39,16,0,23.169,5775.6863737983,50.196852,0.3131716,1.07097444372,0,0,-0.671082,64.7, 0.6, -0.3,0,0,1024,1024,1024,1024,64,-90,92,3.859,3.853,3.855,3.861,0,0,20.764,73.4,14,Waypoint,
36.767309,-118.8833935,5777.6548777983,52.165356,0,0.64455710724,10800,2018-04-14 21:09:39,17,0,23.169,5777.6548777983,52.165356,0.3131716,1.07097444372,0,0,-0.671082,64.6, 0.8, -0.3,0,0,1024,1024,1024,1024,64,-90,92,3.859,3.853,3.855,3.861,0,0,20.764,73.4,14,Waypoint,
36.7673088,-118.8833937,5779.6233817983,54.13386,0,0.703001991,11100,2018-04-14 21:09:39,15,0,23.169,5779.6233817983,54.13386,0.3131716,1.07097444372,0,0,-0.671082,64.6, 0.8, -0.4,0,0,1024,1024,1024,1024,64,-90,92,3.859,3.853,3.855,3.861,0,0,20.764,73.4,14,Waypoint,
36.7673088,-118.8833939,5780.6076337983,55.118112,0,0.69567259444,11200,2018-04-14 21:09:39,16,0,23.169,5780.6076337983,55.118112,0.3131716,1.07097444372,0,0,-0.671082,64.6, 0.4, -0.6,0,0,1024,1024,1024,1024,64,-90,92,3.859,3.853,3.855,3.861,0,0,20.764,73.4,14,Waypoint,
36.7673087,-118.883394,5781.5918857983,56.102364,0,0.73028545644,11300,2018-04-14 21:09:39,16,0,23.169,5781.5918857983,56.102364,0.3131716,1.07097444372,0,0,-0.671082,64.6, 0, -0.7,0,0,1024,1024,1024,1024,64,-90,92,3.859,3.853,3.855,3.861,0,0,20.764,73.4,14,Waypoint,
36.7673087,-118.8833941,5782.9042217983,57.4147,0,0.72969818608,11400,2018-04-14 21:09:39,16,0,23.169,5782.9042217983,57.4147,0.3131716,1.07097444372,0,0,-0.671082,64.5, 0, -0.8,0,0,1024,1024,1024,1024,64,-89.9,92,3.859,3.853,3.855,3.861,0,0,20.764,73.4,14,Waypoint,
36.7673086,-118.8833943,5784.8727257983,59.383204,0,0.76840881724,11500,2018-04-14 21:09:39,15,0,23.169,5784.8727257983,59.383204,0.3131716,1.07097444372,0,0,-0.671082,64.6, -0.1, -0.7,0,0,1024,1024,1024,1024,64,-89.9,92,3.859,3.853,3.855,3.861,0,0,20.764,73.4,14,Waypoint,
36.7673086,-118.8833945,5786.5131457983,61.023624,0,0.77505251824,11700,2018-04-14 21:09:40,15,0,23.169,5786.5131457983,61.023624,0.3131716,1.07097444372,0,0,-0.671082,64.7, 0, -0.3,0,0,1024,1024,1024,1024,64,-90,92,3.859,3.853,3.855,3.861,0,0,20.764,73.4,14,Waypoint,
36.7673086,-118.8833946,5787.4973977983,62.007876,0,0.77999674412,11800,2018-04-14 21:09:40,15,0,23.169,5787.4973977983,62.007876,0.3131716,1.07097444372,0,0,-0.671082,64.7, 0, -0.1,0,0,1024,1024,1024,1024,64,-90,92,3.859,3.853,3.855,3.861,0,0,20.764,73.4,14,Waypoint,
36.7673086,-118.8833947,5788.4816497983,62.992128,0,0.78599740048,11900,2018-04-14 21:09:40,16,0,23.169,5788.4816497983,62.992128,0.3131716,1.07097444372,0,0,-0.671082,64.7, 0, -0.1,0,0,1024,1024,1024,1024,64,-90,92,3.859,3.853,3.855,3.861,0,0,20.764,73.4,14,Waypoint,
36.7673086,-118.8833947,5789.4659017983,63.97638,0,0.78599740048,12000,2018-04-14 21:09:40,16,0,23.258,5789.4659017983,63.97638,0.3131716,1.07097444372,0,0,-0.671082,64.7, 0.1, 0,0,0,1024,1024,1024,1024,64,-90,92,3.862,3.869,3.846,3.885,0,0,19.221,73.4,14,Waypoint,
36.7673086,-118.8833948,5790.4501537983,64.960632,0,0.7930282406,12100,2018-04-14 21:09:40,16,0,23.258,5790.4501537983,64.960632,0.3131716,1.07097444372,0,0,-0.671082,64.8, 0.2, 0.1,0,0,1024,1024,1024,1024,64,-89.9,92,3.862,3.869,3.846,3.885,0,0,19.221,73.4,14,Waypoint,
36.7673087,-118.8833948,5791.4344057983,65.944884,0,0.75783795076,12200,2018-04-14 21:09:40,16,0,23.258,5791.4344057983,65.944884,0.3131716,1.07097444372,0,0,-0.671082,64.8, 0.4, 0.1,0,0,1024,1024,1024,1024,64,-89.9,92,3.862,3.869,3.846,3.885,0,0,19.221,73.4,14,Waypoint,
36.7673086,-118.8833949,5792.4186577983,66.929136,0,0.8010662986,12300,2018-04-14 21:09:40,17,0,23.258,5792.4186577983,66.929136,0.3131716,1.07097444372,0,0,-0.671082,64.7, 0.4, -0.1,0,0,1024,1024,1024,1024,64,-90,92,3.862,3.869,3.846,3.885,0,0,19.221,73.4,14,Waypoint,
36.7673086,-118.8833949,5793.4029097983,67.913388,0,0.8010662986,12400,2018-04-14 21:09:40,17,0,23.258,5793.4029097983,67.913388,0.3131716,1.07097444372,0,0,-0.671082,64.6, 0.2, -0.4,0,0,1024,1024,1024,1024,64,-89.9,92,3.862,3.869,3.846,3.885,0,0,19.221,73.4,14,Waypoint,
36.7673085,-118.8833949,5794.3871617983,68.89764,0,0.83603021048,12500,2018-04-14 21:09:40,17,0,23.258,5794.3871617983,68.89764,0.3131716,1.07097444372,0,0,-0.671082,64.7, 0.2, -0.7,0,0,1024,1024,1024,1024,64,-90,92,3.862,3.869,3.846,3.885,0,0,19.221,73.4,14,Waypoint,
36.7673085,-118.8833949,5795.3714137983,69.881892,0,0.83603021048,12600,2018-04-14 21:09:41,17,0,23.258,5795.3714137983,69.881892,0.3131716,1.07097444372,0,0,-0.671082,64.8, 0.3, -0.8,0,0,1024,1024,1024,1024,64,-90,92,3.862,3.869,3.846,3.885,0,0,19.221,73.4,14,Waypoint,
36.7673084,-118.8833949,5796.3556657983,70.866144,0,0.87111879428,12700,2018-04-14 21:09:41,17,0,23.258,5796.3556657983,70.866144,0.3131716,1.07097444372,0,0,-0.671082,64.9, 0.4, -1.1,0,0,1024,1024,1024,1024,64,-90,92,3.862,3.869,3.846,3.885,0,0,19.221,73.4,14,Waypoint,
36.7673083,-118.8833949,5798.3241697983,72.834648,0,0.90631892664,12900,2018-04-14 21:09:41,17,0,23.258,5798.3241697983,72.834648,0.3131716,1.07097444372,0,0,-0.671082,65.1, 0.2, -1.3,0,0,1024,1024,1024,1024,64,-90,92,3.862,3.869,3.846,3.885,0,0,19.221,73.4,14,Waypoint,
36.7673082,-118.883395,5799.3084217983,73.8189,0,0.9492946498,13000,2018-04-14 21:09:41,17,0,23.178,5799.3084217983,73.8189,0.3131716,1.07097444372,0,0,-0.671082,65, 0, -1.5,0,0,1024,1024,1024,1024,64,-90,92,3.862,3.869,3.846,3.885,0,0,19.2,73.4,14,Waypoint,
36.7673082,-118.883395,5800.2926737983,74.803152,0,0.9492946498,13100,2018-04-14 21:09:41,16,0,23.178,5800.2926737983,74.803152,0.3131716,1.07097444372,0,0,-0.671082,64.8, -0.1, -1.9,0,0,1024,1024,1024,1024,64,-90,92,3.862,3.869,3.846,3.885,0,0,19.2,73.4,14,Waypoint,
36.7673081,-118.883395,5802.2611777983,76.771656,0,0.98440291864,13300,2018-04-14 21:09:41,17,0,23.178,5802.2611777983,76.771656,0.3131716,1.07097444372,0,0,-0.671082,64.5, -0.1, -2.1,0,0,1024,1024,1024,1024,64,-90,92,3.862,3.869,3.846,3.885,0,0,19.2,73.4,14,Waypoint,
36.767308,-118.8833949,5803.2454297983,77.755908,0,1.01246066232,13400,2018-04-14 21:09:41,17,0,23.178,5803.2454297983,77.755908,0.3131716,1.07097444372,0,0,-0.671082,64.5, 0, -1.8,0,0,1024,1024,1024,1024,64,-89.9,92,3.862,3.869,3.846,3.885,0,0,19.2,73.4,14,Waypoint,
36.767308,-118.883395,5804.2296817983,78.74016,0,1.01960961268,13600,2018-04-14 21:09:42,17,0,23.178,5804.2296817983,78.74016,0.3131716,1.07097444372,0,0,-0.671082,64.5, 0.3, -1.6,0,0,1024,1024,1024,1024,64,-90,92,3.862,3.869,3.846,3.885,0,0,19.2,73.4,14,Waypoint,
36.7673079,-118.883395,5805.2139337983,79.724412,0,1.05490160856,13700,2018-04-14 21:09:42,17,0,23.178,5805.2139337983,79.724412,0.3131716,1.07097444372,0,0,-0.671082,64.5, 0.3, -1.8,0,0,1024,1024,1024,1024,64,-90,92,3.862,3.869,3.846,3.885,0,0,19.2,73.4,14,Waypoint,
36.7673078,-118.883395,5806.1981857983,80.708664,0,1.09026906376,13800,2018-04-14 21:09:42,16,0,23.178,5806.1981857983,80.708664,0.3131716,1.09026906376,0,0,-0.671082,64.6, 0.2, -1.9,0,0,1024,1024,1024,1024,64,-90,92,3.862,3.869,3.846,3.885,0,0,19.2,73.4,14,Waypoint,
36.7673077,-118.8833951,5808.1666897983,82.677168,0,1.13289701788,13900,2018-04-14 21:09:42,17,0,23.178,5808.1666897983,82.677168,0.3131716,1.13289701788,0,0,-0.671082,65, -0.2, -1.9,0,0,1024,1024,1024,1024,64,-90,92,3.862,3.869,3.846,3.885,0,0,19.2,73.4,14,Waypoint,
36.7673075,-118.8833951,5810.1351937983,84.645672,0,1.20354662644,14100,2018-04-14 21:09:42,17,0,23.178,5810.1351937983,84.645672,0.3131716,1.20354662644,0,0,-0.671082,65.4, -0.8, -2.2,0,0,1024,1024,1024,1024,64,-90,92,3.862,3.869,3.846,3.885,0,0,19.2,73.4,14,Waypoint,
36.7673074,-118.8833951,5811.1194457983,85.629924,0,1.23896985592,14200,2018-04-14 21:09:42,17,0,23.178,5811.1194457983,85.629924,0.3131716,1.23896985592,0,0,-0.671082,65.3, -0.9, -2.3,0,0,1024,1024,1024,1024,64,-89.9,92,3.862,3.869,3.846,3.885,0,0,19.2,73.4,14,Waypoint,
36.7673074,-118.8833951,5812.1036977983,86.614176,0,1.23896985592,14300,2018-04-14 21:09:42,17,0,23.178,5812.1036977983,86.614176,0.3131716,1.23896985592,0,0,-0.671082,65.1, -1, -2.6,0,0,1024,1024,1024,1024,64,-90,92,3.862,3.869,3.846,3.885,0,0,19.2,73.4,14,Waypoint,
36.7673073,-118.883395,5813.0879497983,87.598428,0,1.26807090672,14400,2018-04-14 21:09:42,17,0,23.178,5813.0879497983,87.598428,0.3131716,1.26807090672,0,0,-0.671082,64.7, -1, -3.3,0,0,1024,1024,1024,1024,64,-89.9,92,3.862,3.869,3.846,3.885,0,0,19.2,73.4,14,Waypoint,
36.7673072,-118.883395,5814.0722017983,88.58268,0,1.30378285012,14500,2018-04-14 21:09:42,17,0,23.178,5814.0722017983,88.58268,0.3131716,1.30378285012,0,0,-0.671082,64.4, -0.6, -3.6,0,0,1024,1024,1024,1024,64,-89.9,92,3.862,3.869,3.846,3.885,0,0,19.2,73.4,14,Waypoint,
36.7673072,-118.8833949,5815.0564537983,89.566932,0,1.29820214128,14600,2018-04-14 21:09:43,17,0,23.178,5815.0564537983,89.566932,0.3131716,1.30378285012,0,0,-0.671082,64.2, -0.1, -3.6,0,0,1024,1024,1024,1024,64,-89.9,92,3.862,3.869,3.846,3.885,0,0,19.2,73.4,14,Waypoint,
36.7673071,-118.8833949,5816.0407057983,90.551184,0,1.33410765424,14700,2018-04-14 21:09:43,17,0,23.178,5816.0407057983,90.551184,0.3131716,1.33410765424,0,0,-0.671082,64.2, 0, -3.1,0,0,1024,1024,1024,1024,64,-89.9,92,3.862,3.869,3.846,3.885,0,0,19.2,73.4,14,Waypoint,
36.7673072,-118.8833948,5817.0249577983,91.535436,0,1.2932579154,14800,2018-04-14 21:09:43,17,0,23.178,5817.0249577983,91.535436,0.3131716,1.33410765424,0,0,-0.671082,64.2, 0.1, -2.8,0,0,1024,1024,1024,1024,64,-89.9,92,3.862,3.869,3.846,3.885,0,0,19.2,73.4,14,Waypoint,
36.7673071,-118.8833948,5818.0092097983,92.519688,0,1.32929466196,14900,2018-04-14 21:09:43,17,0,23.178,5818.0092097983,92.519688,0.3131716,1.33410765424,0,0,-0.671082,64.3, 0.2, -2.7,0,0,1024,1024,1024,1024,64,-89.9,92,3.862,3.869,3.846,3.885,0,0,19.2,73.4,14,Waypoint,
36.7673071,-118.8833947,5818.9934617983,93.50394,0,1.32511159096,15000,2018-04-14 21:09:43,17,0,23.158,5818.9934617983,93.50394,0.3131716,1.33410765424,0,0,-0.671082,64.5, 0.4, -2.7,0,0,1024,1024,1024,1024,64,-89.9,91,3.845,3.854,3.84,3.857,0,0,19.022,73.4,14,Waypoint,
36.7673071,-118.8833947,5819.9777137983,94.488192,0,1.32511159096,15100,2018-04-14 21:09:43,17,0,23.158,5819.9777137983,94.488192,0.3131716,1.33410765424,0,0,-0.671082,64.6, 0.5, -2.5,0,0,1024,1024,1024,1024,64,-89.9,91,3.845,3.854,3.84,3.857,0,0,19.022,73.4,14,Waypoint,
36.7673072,-118.8833947,5820.9619657983,95.472444,0,1.28895673416,15200,2018-04-14 21:09:43,17,0,23.158,5820.9619657983,95.472444,0.3131716,1.33410765424,0,0,-0.671082,64.7, 0.5, -2.4,0,0,1024,1024,1024,1024,64,-89.9,91,3.845,3.854,3.84,3.857,0,0,19.022,73.4,14,Waypoint,
36.7673072,-118.8833946,5821.9462177983,96.456696,0,1.28530844008,15300,2018-04-14 21:09:43,17,0,23.158,5821.9462177983,96.456696,0.3131716,1.33410765424,0,0,-0.671082,64.9, 0.5, -2.4,0,0,1024,1024,1024,1024,64,-89.9,91,3.845,3.854,3.84,3.857,0,0,19.022,73.4,14,Waypoint,
36.7673072,-118.8833946,5822.9304697983,97.440948,0,1.28530844008,15400,2018-04-14 21:09:43,17,0,23.158,5822.9304697983,97.440948,0.3131716,1.33410765424,0,0,-0.671082,65.1, 0.5, -2.4,0,0,1024,1024,1024,1024,64,-89.9,91,3.845,3.854,3.84,3.857,0,0,19.022,73.4,14,Waypoint,
36.7673072,-118.8833946,5824.5708897983,99.081368,0,1.28530844008,15610,2018-04-14 21:09:44,17,0,23.158,5824.5708897983,99.081368,0.3131716,1.33410765424,0,0,-0.671082,65.1, 0, -2.3,0,0,1024,1024,1024,1024,64,-89.9,91,3.845,3.854,3.84,3.857,0,0,19.022,73.4,14,Waypoint,
36.7673072,-118.8833945,5825.5551417983,100.06562,0,1.28231303316,15700,2018-04-14 21:09:44,17,0,23.158,5825.5551417983,100.06562,0.3131716,1.33410765424,0,0,-0.671082,64.8, 0.1, -2.2,0,0,1024,1024,1024,1024,64,-89.9,91,3.845,3.854,3.84,3.857,0,0,19.022,73.4,14,Waypoint,
36.7673072,-118.8833944,5826.5393937983,101.049872,0,1.27998035592,15900,2018-04-14 21:09:44,17,0,23.158,5826.5393937983,101.049872,0.3131716,1.33410765424,0,0,-0.671082,64.6, 0.2, -2.3,0,0,1024,1024,1024,1024,64,-89.9,91,3.845,3.854,3.84,3.857,0,0,19.022,73.4,14,Waypoint,
36.7673073,-118.8833943,5828.5078977983,103.018376,0,1.2418635568,16000,2018-04-14 21:09:44,17,0,23.102,5828.5078977983,103.018376,0.3131716,1.33410765424,0,0,-0.671082,64.4, 1.2, -2.2,0,0,1024,1024,1024,1024,64,-89.9,91,3.838,3.841,3.835,3.854,0,0,19.639,73.4,14,Waypoint,
36.7673074,-118.8833943,5829.4921497983,104.002628,0,1.20541998608,16100,2018-04-14 21:09:44,17,0,23.102,5829.4921497983,104.002628,0.3131716,1.33410765424,0,0,-0.671082,64.5, 1.2, -1.9,0,0,1024,1024,1024,1024,64,-90,91,3.838,3.841,3.835,3.854,0,0,19.639,73.4,14,Waypoint,
36.7673074,-118.8833943,5830.1483177983,104.658796,0,1.20541998608,16200,2018-04-14 21:09:44,17,0,23.102,5830.1483177983,104.658796,0.3131716,1.33410765424,0,0,-0.671082,64.5, 1, -1.8,0,0,1024,1024,1024,1024,64,-90,91,3.838,3.841,3.835,3.854,0,0,19.639,73.4,14,Waypoint,
36.7673074,-118.8833943,5831.1325697983,105.643048,0,1.20541998608,16300,2018-04-14 21:09:44,17,0,23.102,5831.1325697983,105.643048,0.3131716,1.33410765424,0,0,-0.671082,64.5, 0.6, -1.9,0,0,1024,1024,1024,1024,64,-90,91,3.838,3.841,3.835,3.854,0,0,19.639,73.4,14,Waypoint,
36.7673074,-118.8833942,5832.1168217983,106.6273,0,1.20435699392,16400,2018-04-14 21:09:44,17,0,23.102,5832.1168217983,106.6273,0.3131716,1.33410765424,0,0,-0.671082,64.4, 0.3, -2.2,0,0,1024,1024,1024,1024,64,-90,91,3.838,3.841,3.835,3.854,0,0,19.639,73.4,14,Waypoint,
36.7673074,-118.8833942,5833.1010737983,107.611552,0,1.20435699392,16500,2018-04-14 21:09:44,17,0,23.102,5833.1010737983,107.611552,0.3131716,1.33410765424,0,0,-0.671082,64.4, 0.3, -2.6,0,0,1024,1024,1024,1024,64,-90,91,3.838,3.841,3.835,3.854,0,0,19.639,73.4,14,Waypoint,
36.7673074,-118.8833942,5834.4134097983,108.923888,0,1.20435699392,16600,2018-04-14 21:09:45,17,0,23.102,5834.4134097983,108.923888,0.3131716,1.33410765424,0,0,-0.671082,64.3, 0.5, -2.9,0,0,1024,1024,1024,1024,64,-89.9,91,3.838,3.841,3.835,3.854,0,0,19.639,73.4,14,Waypoint,
36.7673074,-118.8833942,5835.3976617983,109.90814,0,1.20435699392,16700,2018-04-14 21:09:45,17,0,23.102,5835.3976617983,109.90814,0.3131716,1.33410765424,0,0,-0.671082,64.3, 0.5, -3.1,0,0,1024,1024,1024,1024,64,-89.9,91,3.838,3.841,3.835,3.854,0,0,19.639,73.4,14,Waypoint,
36.7673074,-118.8833942,5836.0538297983,110.564308,0,1.20435699392,16800,2018-04-14 21:09:45,17,0,23.102,5836.0538297983,110.564308,0.3131716,1.33410765424,0,0,-0.671082,64.3, 0.3, -3,0,0,1024,1024,1024,1024,64,-89.9,91,3.838,3.841,3.835,3.854,0,0,19.639,73.4,14,Waypoint,
36.7673073,-118.8833942,5837.0380817983,111.54856,0,1.24083337304,16900,2018-04-14 21:09:45,17,0,23.102,5837.0380817983,111.54856,0.3131716,1.33410765424,0,0,-0.671082,64.4, 0.2, -2.8,0,0,1024,1024,1024,1024,64,-89.9,91,3.838,3.841,3.835,3.854,0,0,19.639,73.4,14,Waypoint,
36.7673073,-118.8833942,5838.0223337983,112.532812,0,1.24083337304,17000,2018-04-14 21:09:45,17,0,23.035,5838.0223337983,112.532812,0.3131716,1.33410765424,0,0,-0.671082,64.5, 0.2, -2.3,0,0,1024,1024,1024,1024,64,-89.9,91,3.824,3.838,3.808,3.835,0,0,19.963,73.4,14,Waypoint,
36.7673074,-118.8833943,5839.0065857983,113.517064,0,1.20541998608,17100,2018-04-14 21:09:45,17,0,23.035,5839.0065857983,113.517064,0.3131716,1.33410765424,0,0,-0.671082,64.6, 0.1, -2.3,0,0,1024,1024,1024,1024,64,-89.9,91,3.824,3.838,3.808,3.835,0,0,19.963,73.4,14,Waypoint,
36.7673074,-118.8833943,5839.9908377983,114.501316,0,1.20541998608,17220,2018-04-14 21:09:45,17,0,23.035,5839.9908377983,114.501316,0.3131716,1.33410765424,0,0,-0.671082,64.7, 0.1, -2.2,0,0,1024,1024,1024,1024,64,-89.9,91,3.824,3.838,3.808,3.835,0,0,19.963,73.4,14,Waypoint,
36.7673073,-118.8833943,5840.9750897983,115.485568,0,1.2418635568,17300,2018-04-14 21:09:45,17,0,23.035,5840.9750897983,115.485568,0.3131716,1.33410765424,0,0,-0.671082,64.7, 0, -2.2,0,0,1024,1024,1024,1024,64,-89.9,91,3.824,3.838,3.808,3.835,0,0,19.963,73.4,14,Waypoint,
36.7673073,-118.8833943,5842.2874257983,116.797904,0,1.2418635568,17410,2018-04-14 21:09:45,17,0,23.035,5842.2874257983,116.797904,0.3131716,1.33410765424,0,0,-0.671082,64.6, 0.1, -2.3,0,0,1024,1024,1024,1024,64,-90,91,3.824,3.838,3.808,3.835,0,0,19.963,73.4,14,Waypoint,
36.7673073,-118.8833943,5843.2716777983,117.782156,0,1.2418635568,17500,2018-04-14 21:09:45,17,0,23.035,5843.2716777983,117.782156,0.3131716,1.33410765424,0,0,-0.671082,64.6, 0.2, -2.5,0,0,1024,1024,1024,1024,64,-89.9,91,3.824,3.838,3.808,3.835,0,0,19.963,73.4,14,Waypoint,
36.7673073,-118.8833944,5844.2559297983,118.766408,0,1.24358271696,17700,2018-04-14 21:09:46,17,0,23.035,5844.2559297983,118.766408,0.3131716,1.33410765424,0,0,-0.671082,64.5, 0.2, -2.5,0,0,1024,1024,1024,1024,64,-89.9,91,3.824,3.838,3.808,3.835,0,0,19.963,73.4,14,Waypoint,
36.7673073,-118.8833944,5845.2401817983,119.75066,0,1.24358271696,17800,2018-04-14 21:09:46,17,0,23.035,5845.2401817983,119.75066,0.3131716,1.33410765424,0,0,-0.671082,64.5, 0.2, -2.5,0,0,1024,1024,1024,1024,64,-89.9,91,3.824,3.838,3.808,3.835,0,0,19.963,73.4,14,Waypoint,
36.7673073,-118.8833944,5846.2244337983,120.734912,0,1.24358271696,17900,2018-04-14 21:09:46,17,0,23.035,5846.2244337983,120.734912,0.3131716,1.33410765424,0,0,-0.671082,64.5, 0.1, -2.5,0,0,1024,1024,1024,1024,64,-90,91,3.824,3.838,3.808,3.835,0,0,19.963,73.4,14,Waypoint,
36.7673073,-118.8833944,5847.2086857983,121.719164,0,1.24358271696,18000,2018-04-14 21:09:46,17,0,23.01,5847.2086857983,121.719164,0.3131716,1.33410765424,0,0,-0.671082,64.6, 0.1, -2.5,0,0,1024,1024,1024,1024,64,-90,91,3.818,3.833,3.819,3.839,0,0,20.172,73.4,14,Waypoint,
36.7673073,-118.8833944,5849.1771897983,123.687668,0,1.24358271696,18100,2018-04-14 21:09:46,17,0,23.01,5849.1771897983,123.687668,0.3131716,1.33410765424,0,0,-0.671082,64.6, 0, -2.4,0,0,1024,1024,1024,1024,64,-90,91,3.818,3.833,3.819,3.839,0,0,20.172,73.4,14,Waypoint,
36.7673073,-118.8833945,5850.1614417983,124.67192,0,1.24598429184,18200,2018-04-14 21:09:46,17,0,23.01,5850.1614417983,124.67192,0.3131716,1.33410765424,0,0,-0.671082,64.7, 0, -2.4,0,0,1024,1024,1024,1024,64,-89.9,91,3.818,3.833,3.819,3.839,0,0,20.172,73.4,14,Waypoint,
36.7673073,-118.8833945,5851.1456937983,125.656172,0,1.24598429184,18300,2018-04-14 21:09:46,17,0,23.01,5851.1456937983,125.656172,0.3131716,1.33410765424,0,0,-0.671082,64.7, 0.2, -2.4,0,0,1024,1024,1024,1024,64,-89.9,91,3.818,3.833,3.819,3.839,0,0,20.172,73.4,14,Waypoint,
36.7673073,-118.8833945,5852.1299457983,126.640424,0,1.24598429184,18400,2018-04-14 21:09:46,17,0,23.01,5852.1299457983,126.640424,0.3131716,1.33410765424,0,0,-0.671082,64.6, 0.3, -2.6,0,0,1024,1024,1024,1024,64,-89.9,91,3.818,3.833,3.819,3.839,0,0,20.172,73.4,14,Waypoint,
36.7673073,-118.8833945,5853.1141977983,127.624676,0,1.24598429184,18500,2018-04-14 21:09:46,17,0,23.01,5853.1141977983,127.624676,0.3131716,1.33410765424,0,0,-0.671082,64.6, 0.3, -2.6,0,0,1024,1024,1024,1024,64,-89.9,91,3.818,3.833,3.819,3.839,0,0,20.172,73.4,14,Waypoint,
36.7673073,-118.8833945,5854.0984497983,128.608928,0,1.24598429184,18600,2018-04-14 21:09:47,17,0,23.01,5854.0984497983,128.608928,0.3131716,1.33410765424,0,0,-0.671082,64.5, 0.3, -2.6,0,0,1024,1024,1024,1024,64,-89.9,91,3.818,3.833,3.819,3.839,0,0,20.172,73.4,14,Waypoint,
36.7673073,-118.8833944,5855.0827017983,129.59318,0,1.24358271696,18700,2018-04-14 21:09:47,17,0,23.01,5855.0827017983,129.59318,0.3131716,1.33410765424,0,0,-0.671082,64.5, 0.3, -2.6,0,0,1024,1024,1024,1024,64,-89.9,91,3.818,3.833,3.819,3.839,0,0,20.172,73.4,14,Waypoint,
36.7673073,-118.8833944,5856.3950377983,130.905516,0,1.24358271696,18800,2018-04-14 21:09:47,17,0,23.01,5856.3950377983,130.905516,0.3131716,1.33410765424,0,0,-0.671082,64.4, 0.3, -2.6,0,0,1024,1024,1024,1024,64,-89.9,91,3.818,3.833,3.819,3.839,0,0,20.172,73.4,14,Waypoint,
36.7673073,-118.8833944,5857.3792897983,131.889768,0,1.24358271696,18900,2018-04-14 21:09:47,17,0,23.01,5857.3792897983,131.889768,0.3131716,1.33410765424,0,0,-0.671082,64.3, 0.3, -2.6,0,0,1024,1024,1024,1024,64,-89.9,91,3.818,3.833,3.819,3.839,0,0,20.172,73.4,14,Waypoint,
36.7673073,-118.8833944,5858.3635417983,132.87402,0,1.24358271696,19000,2018-04-14 21:09:47,17,0,23.041,5858.3635417983,132.87402,0.3131716,1.33410765424,0,0,-0.671082,64.2, 0.3, -2.4,0,0,1024,1024,1024,1024,64,-89.9,91,3.824,3.848,3.815,3.841,0,0,19.562,73.4,14,Waypoint,
36.7673073,-118.8833945,5859.0197097983,133.530188,0,1.24598429184,19100,2018-04-14 21:09:47,17,0,23.041,5859.0197097983,133.530188,0.3131716,1.33410765424,0,0,-0.671082,64.2, 0.4, -2.1,0,0,1024,1024,1024,1024,64,-89.9,91,3.824,3.848,3.815,3.841,0,0,19.562,73.4,14,Waypoint,
36.7673074,-118.8833945,5860.0039617983,134.51444,0,1.20966539304,19220,2018-04-14 21:09:47,17,0,23.041,5860.0039617983,134.51444,0.3131716,1.33410765424,0,0,-0.671082,64.2, 0.4, -2,0,0,1024,1024,1024,1024,64,-89.9,91,3.824,3.848,3.815,3.841,0,0,19.562,73.4,14,Waypoint,
36.7673074,-118.8833945,5860.0039617983,134.51444,0,1.20966539304,19300,2018-04-14 21:09:47,17,0,23.041,5860.0039617983,134.51444,0.3131716,1.33410765424,0,0,-0.671082,64.2, 0.4, -2,0,0,1024,1024,1024,1024,64,-89.9,91,3.824,3.848,3.815,3.841,0,0,19.562,73.4,14,Waypoint,
36.7673074,-118.8833945,5861.9724657983,136.482944,0,1.20966539304,19400,2018-04-14 21:09:47,17,0,23.041,5861.9724657983,136.482944,0.3131716,1.33410765424,0,0,-0.671082,64.3, 0.4, -2.3,0,0,1024,1024,1024,1024,64,-90,91,3.824,3.848,3.815,3.841,0,0,19.562,73.4,14,Waypoint,
36.7673074,-118.8833946,5862.9567177983,137.467196,0,1.21283796532,19510,2018-04-14 21:09:47,17,0,23.041,5862.9567177983,137.467196,0.3131716,1.33410765424,0,0,-0.671082,64.5, 0.5, -2.2,0,0,1024,1024,1024,1024,64,-89.9,91,3.824,3.848,3.815,3.841,0,0,19.562,73.4,14,Waypoint,
36.7673074,-118.8833946,5862.9567177983,137.467196,0,1.21283796532,19600,2018-04-14 21:09:48,17,0,23.041,5862.9567177983,137.467196,0.3131716,1.33410765424,0,0,-0.671082,64.5, 0.5, -2.2,0,0,1024,1024,1024,1024,64,-89.9,91,3.824,3.848,3.815,3.841,0,0,19.562,73.4,14,Waypoint,
36.7673074,-118.8833946,5863.9409697983,138.451448,0.223694,1.21283796532,19700,2018-04-14 21:09:48,17,0,23.041,5863.9409697983,138.451448,0.3131716,1.33410765424,0,0,-0.671082,64.6, 0.5, -2.1,0,0,1024,1024,1024,1024,64,-89.9,91,3.824,3.848,3.815,3.841,0,0,19.562,73.4,14,Waypoint,
36.7673074,-118.8833946,5864.9252217983,139.4357,0.223694,1.21283796532,19800,2018-04-14 21:09:48,17,0,23.041,5864.9252217983,139.4357,0.3131716,1.33410765424,0,0,-0.671082,64.7, 0.3, -2,0,0,1024,1024,1024,1024,64,-90,91,3.824,3.848,3.815,3.841,0,0,19.562,73.4,14,Waypoint,
36.7673075,-118.8833947,5865.9094737983,140.419952,0.223694,1.18061355484,19900,2018-04-14 21:09:48,17,0,23.041,5865.9094737983,140.419952,0.3131716,1.33410765424,0,0,-0.671082,64.7, 0, -2,0,0,1024,1024,1024,1024,64,-90,91,3.824,3.848,3.815,3.841,0,0,19.562,73.4,14,Waypoint,
36.7673076,-118.8833947,5867.8779777983,142.388456,0.223694,1.14454728072,20000,2018-04-14 21:09:48,17,0,22.99,5867.8779777983,142.388456,0.3131716,1.33410765424,0,0,-0.671082,64.7, 0.1, -1.2,0,0,1024,1024,1024,1024,64,-89.9,91,3.823,3.826,3.822,3.841,0,0,19.373,73.4,14,Waypoint,
36.7673077,-118.8833947,5868.8622297983,143.372708,0.223694,1.10850725332,20200,2018-04-14 21:09:48,17,0,22.99,5868.8622297983,143.372708,0.3131716,1.33410765424,0,0,-0.671082,64.7, 0.6, -0.8,0,0,1024,1024,1024,1024,64,-89.9,91,3.823,3.826,3.822,3.841,0,0,19.373,73.4,14,Waypoint,
36.7673078,-118.8833947,5869.5183977983,144.028876,0.223694,1.07249675348,20300,2018-04-14 21:09:48,17,0,22.99,5869.5183977983,144.028876,0.3131716,1.33410765424,0,0,-0.671082,64.7, 0.9, -0.6,0,0,1024,1024,1024,1024,64,-90,91,3.823,3.826,3.822,3.841,0,0,19.373,73.4,14,Waypoint,
36.7673079,-118.8833947,5872.4711537983,146.981632,0.223694,1.03651906204,20500,2018-04-14 21:09:48,17,0,22.99,5872.4711537983,146.981632,0.3131716,1.33410765424,0,0,-0.671082,64.6, 1, -0.6,0,0,1024,1024,1024,1024,64,-89.9,91,3.823,3.826,3.822,3.841,0,0,19.373,73.4,14,Waypoint,
36.767308,-118.8833947,5873.7834897983,148.293968,0.223694,1.00058074068,20600,2018-04-14 21:09:49,17,0,22.99,5873.7834897983,148.293968,0.3131716,1.33410765424,0,0,-0.671082,64.6, 0.9, -0.7,0,0,1024,1024,1024,1024,64,-89.9,91,3.823,3.826,3.822,3.841,0,0,19.373,73.4,14,Waypoint,
36.767308,-118.8833948,5874.7677417983,149.27822,0.223694,1.00611551776,20700,2018-04-14 21:09:49,17,0,22.99,5874.7677417983,149.27822,0.3131716,1.33410765424,0,0,-0.671082,64.6, 0.8, -0.9,0,0,1024,1024,1024,1024,64,-89.9,91,3.823,3.826,3.822,3.841,0,0,19.373,73.4,14,Waypoint,
36.7673081,-118.8833948,5875.7519937983,150.262472,0.223694,0.97041997856,20800,2018-04-14 21:09:49,17,0,22.99,5875.7519937983,150.262472,0.3131716,1.33410765424,0,0,-0.671082,64.6, 0.8, -0.8,0,0,1024,1024,1024,1024,64,-89.9,91,3.823,3.826,3.822,3.841,0,0,19.373,73.4,14,Waypoint,
36.7673081,-118.8833948,5876.7362457983,151.246724,0.223694,0.97041997856,20900,2018-04-14 21:09:49,17,0,22.99,5876.7362457983,151.246724,0.3131716,1.33410765424,0,0,-0.671082,64.5, 0.8, -0.8,0,0,1024,1024,1024,1024,64,-89.9,91,3.823,3.826,3.822,3.841,0,0,19.373,73.4,14,Waypoint,
36.7673081,-118.8833948,5877.7204977983,152.230976,0.223694,0.97041997856,21000,2018-04-14 21:09:49,17,0,22.933,5877.7204977983,152.230976,0.3131716,1.33410765424,0,0,-0.671082,64.5, 0.8, -0.9,0,0,1024,1024,1024,1024,64,-90,91,3.808,3.822,3.804,3.825,0,0,19.83,75.2,14,Waypoint,
36.7673081,-118.8833948,5878.7047497983,153.215228,0.223694,0.97041997856,21100,2018-04-14 21:09:49,17,0,22.933,5878.7047497983,153.215228,0.3131716,1.33410765424,0,0,-0.671082,64.5, 0.9, -0.9,0,0,1024,1024,1024,1024,64,-89.9,91,3.808,3.822,3.804,3.825,0,0,19.83,75.2,14,Waypoint,
36.7673082,-118.8833948,5879.6890017983,154.19948,0.223694,0.93478677532,21200,2018-04-14 21:09:49,17,0,22.933,5879.6890017983,154.19948,0.3131716,1.33410765424,0,0,-0.671082,64.5, 0.9, -0.8,0,0,1024,1024,1024,1024,64,-89.9,91,3.808,3.822,3.804,3.825,0,0,19.83,75.2,14,Waypoint,
36.7673082,-118.8833948,5880.6732537983,155.183732,0.223694,0.93478677532,21300,2018-04-14 21:09:49,17,0,22.933,5880.6732537983,155.183732,0.3131716,1.33410765424,0,0,-0.671082,64.5, 1, -0.7,0,0,1024,1024,1024,1024,64,-89.9,91,3.808,3.822,3.804,3.825,0,0,19.83,75.2,14,Waypoint,
36.7673083,-118.8833949,5881.6575057983,156.167984,0.223694,0.90631892664,21400,2018-04-14 21:09:49,17,0,22.933,5881.6575057983,156.167984,0.3131716,1.33410765424,0,0,-0.671082,64.5, 1, -0.6,0,0,1024,1024,1024,1024,64,-89.9,91,3.808,3.822,3.804,3.825,0,0,19.83,75.2,14,Waypoint,
36.7673083,-118.8833949,5882.9698417983,157.48032,0,0.90631892664,21500,2018-04-14 21:09:49,17,0,22.933,5882.9698417983,157.48032,0.3131716,1.33410765424,0,0,-0.671082,64.5, 0.9, -0.5,0,0,1024,1024,1024,1024,64,-89.9,91,3.808,3.822,3.804,3.825,0,0,19.83,75.2,14,Waypoint,
36.7673083,-118.8833949,5883.9540937983,158.464572,0,0.90631892664,21600,2018-04-14 21:09:50,17,0,22.933,5883.9540937983,158.464572,0.3131716,1.33410765424,0,0,-0.671082,64.5, 0.8, -0.6,0,0,1024,1024,1024,1024,64,-89.9,91,3.808,3.822,3.804,3.825,0,0,19.83,75.2,14,Waypoint,
36.7673083,-118.8833949,5884.9383457983,159.448824,0,0.90631892664,21700,2018-04-14 21:09:50,17,0,22.933,5884.9383457983,159.448824,0.3131716,1.33410765424,0,0,-0.671082,64.6, 0.7, -0.6,0,0,1024,1024,1024,1024,64,-89.9,91,3.808,3.822,3.804,3.825,0,0,19.83,75.2,14,Waypoint,
36.7673083,-118.8833949,5885.9225977983,160.433076,0,0.90631892664,21800,2018-04-14 21:09:50,17,0,22.933,5885.9225977983,160.433076,0.3131716,1.33410765424,0,0,-0.671082,64.6, 0.7, -0.7,0,0,1024,1024,1024,1024,64,-89.9,91,3.808,3.822,3.804,3.825,0,0,19.83,75.2,14,Waypoint,
36.7673083,-118.8833949,5886.9068497983,161.417328,0,0.90631892664,21900,2018-04-14 21:09:50,17,0,22.933,5886.9068497983,161.417328,0.3131716,1.33410765424,0,0,-0.671082,64.7, 0.8, -1,0,0,1024,1024,1024,1024,64,-89.9,91,3.808,3.822,3.804,3.825,0,0,19.83,75.2,14,Waypoint,
36.7673083,-118.8833949,5887.8911017983,162.40158,0,0.90631892664,22000,2018-04-14 21:09:50,17,0,22.866,5887.8911017983,162.40158,0.3131716,1.33410765424,0,0,-0.671082,64.7, 0.8, -1,0,0,1024,1024,1024,1024,64,-89.9,91,3.798,3.811,3.793,3.816,0,0,20.933,75.2,14,Waypoint,
36.7673083,-118.8833949,5888.8753537983,163.385832,0,0.90631892664,22100,2018-04-14 21:09:50,17,0,22.866,5888.8753537983,163.385832,0.3131716,1.33410765424,0,0,-0.671082,64.7, 0.9, -1.1,0,0,1024,1024,1024,1024,64,-89.9,91,3.798,3.811,3.793,3.816,0,0,20.933,75.2,14,Waypoint,
36.7673083,-118.883395,5889.8596057983,164.370084,0,0.91429464868,22200,2018-04-14 21:09:50,17,0,22.866,5889.8596057983,164.370084,0.3131716,1.33410765424,0,0,-0.671082,64.7, 0.8, -1.2,0,0,1024,1024,1024,1024,64,-90,91,3.798,3.811,3.793,3.816,0,0,20.933,75.2,14,Waypoint,
36.7673082,-118.8833951,5891.8281097983,166.338588,0,0.95780514876,22400,2018-04-14 21:09:50,17,0,22.866,5891.8281097983,166.338588,0.3131716,1.33410765424,0,0,-0.671082,64.7, 0.3, -1.2,0,0,1024,1024,1024,1024,64,-90,91,3.798,3.811,3.793,3.816,0,0,20.933,75.2,14,Waypoint,
36.7673081,-118.8833951,5893.7966137983,168.307092,0,0.99261158032,22600,2018-04-14 21:09:51,17,0,22.866,5893.7966137983,168.307092,0.3131716,1.33410765424,0,0,-0.671082,64.6, 0.2, -1.3,0,0,1024,1024,1024,1024,64,-90,91,3.798,3.811,3.793,3.816,0,0,20.933,75.2,14,Waypoint,
36.767308,-118.8833951,5894.7808657983,169.291344,0,1.02753612212,22800,2018-04-14 21:09:51,17,0,22.866,5894.7808657983,169.291344,0.3131716,1.33410765424,0,0,-0.671082,64.6, 0.2, -1.5,0,0,1024,1024,1024,1024,64,-90,91,3.798,3.811,3.793,3.816,0,0,20.933,75.2,14,Waypoint,
36.7673079,-118.8833952,5896.7493697983,171.259848,0,1.07097444372,23000,2018-04-14 21:09:51,17,0,22.897,5896.7493697983,171.259848,0.3131716,1.33410765424,0,0,-0.671082,64.6, 0.3, -1.7,0,0,1024,1024,1024,1024,64,-90,91,3.798,3.811,3.793,3.816,0,0,20.017,75.2,14,Waypoint,
36.7673079,-118.8833952,5897.7336217983,172.2441,0,1.07097444372,23100,2018-04-14 21:09:51,17,0,22.897,5897.7336217983,172.2441,0.3131716,1.33410765424,0,0,-0.671082,64.6, 0.2, -1.8,0,0,1024,1024,1024,1024,64,-90,91,3.798,3.811,3.793,3.816,0,0,20.017,75.2,14,Waypoint,
36.7673078,-118.8833952,5899.7021257983,174.212604,0,1.10583008788,23200,2018-04-14 21:09:51,17,0,22.897,5899.7021257983,174.212604,0.3131716,1.33410765424,0,0,-0.671082,64.6, 0.4, -1.7,0,0,1024,1024,1024,1024,64,-89.9,91,3.798,3.811,3.793,3.816,0,0,20.017,75.2,14,Waypoint,
36.7673077,-118.8833952,5900.6863777983,175.196856,0,1.14078743808,23300,2018-04-14 21:09:51,17,0,22.897,5900.6863777983,175.196856,0.3131716,1.33410765424,0,0,-0.671082,64.6, 0.4, -1.7,0,0,1024,1024,1024,1024,64,-89.9,91,3.798,3.811,3.793,3.816,0,0,20.017,75.2,14,Waypoint,
36.7673077,-118.8833952,5902.6548817983,177.16536,0,1.14078743808,23500,2018-04-14 21:09:51,17,0,22.897,5902.6548817983,177.16536,0.3131716,1.33410765424,0,0,-0.671082,64.6, 0.3, -1.7,0,0,1024,1024,1024,1024,64,-89.9,91,3.798,3.811,3.793,3.816,0,0,20.017,75.2,14,Waypoint,
36.7673076,-118.8833952,5903.6391337983,178.149612,0,1.17583993264,23600,2018-04-14 21:09:52,17,0,22.897,5903.6391337983,178.149612,0.3131716,1.33410765424,0,0,-0.671082,64.6, 0.3, -1.7,0,0,1024,1024,1024,1024,64,-89.9,91,3.798,3.811,3.793,3.816,0,0,20.017,75.2,14,Waypoint,
36.7673076,-118.8833952,5904.2953017983,178.80578,0,1.17583993264,23700,2018-04-14 21:09:52,17,0,22.897,5904.2953017983,178.80578,0.3131716,1.33410765424,0,0,-0.671082,64.7, 0.1, -1.8,0,0,1024,1024,1024,1024,64,-90,91,3.798,3.811,3.793,3.816,0,0,20.017,75.2,14,Waypoint,
36.7673076,-118.8833952,5905.2795537983,179.790032,0,1.17583993264,23800,2018-04-14 21:09:52,17,0,22.897,5905.2795537983,179.790032,0.3131716,1.33410765424,0,0,-0.671082,64.6, 0, -1.8,0,0,1024,1024,1024,1024,64,-90,91,3.798,3.811,3.793,3.816,0,0,20.017,75.2,14,Waypoint,
36.7673075,-118.8833952,5906.2638057983,180.774284,0,1.2109744482,23900,2018-04-14 21:09:52,17,0,22.897,5906.2638057983,180.774284,0.3131716,1.33410765424,0,0,-0.671082,64.6, 0, -1.7,0,0,1024,1024,1024,1024,64,-90,91,3.798,3.811,3.793,3.816,0,0,20.017,75.2,14,Waypoint,
36.7673075,-118.8833952,5907.2480577983,181.758536,0,1.2109744482,24000,2018-04-14 21:09:52,17,0,22.906,5907.2480577983,181.758536,0.3131716,1.33410765424,0,0,-0.671082,64.5, 0, -1.6,0,0,1024,1024,1024,1024,64,-90,91,3.803,3.808,3.793,3.812,0,0,20.039,75.2,14,Waypoint,
36.7673075,-118.8833953,5908.2323097983,182.742788,0,1.21905843796,24100,2018-04-14 21:09:52,17,0,22.906,5908.2323097983,182.742788,0.3131716,1.33410765424,0,0,-0.671082,64.5, 0.2, -1.6,0,0,1024,1024,1024,1024,64,-89.9,91,3.803,3.808,3.793,3.812,0,0,20.039,75.2,14,Waypoint,
36.7673075,-118.8833953,5909.2165617983,183.72704,0,1.21905843796,24200,2018-04-14 21:09:52,17,0,22.906,5909.2165617983,183.72704,0.3131716,1.33410765424,0,0,-0.671082,64.5, 0.2, -1.8,0,0,1024,1024,1024,1024,64,-90,91,3.803,3.808,3.793,3.812,0,0,20.039,75.2,14,Waypoint,
36.7673075,-118.8833953,5910.2008137983,184.711292,0,1.21905843796,24300,2018-04-14 21:09:52,17,0,22.906,5910.2008137983,184.711292,0.3131716,1.33410765424,0,0,-0.671082,64.5, 0.2, -1.8,0,0,1024,1024,1024,1024,64,-90,91,3.803,3.808,3.793,3.812,0,0,20.039,75.2,14,Waypoint,
36.7673074,-118.8833952,5911.1850657983,185.695544,0,1.24618770392,24400,2018-04-14 21:09:52,17,0,22.906,5911.1850657983,185.695544,0.3131716,1.33410765424,0,0,-0.671082,64.5, 0.2, -1.8,0,0,1024,1024,1024,1024,64,-89.9,91,3.803,3.808,3.793,3.812,0,0,20.039,75.2,14,Waypoint,
36.7673074,-118.8833952,5912.1693177983,186.679796,0,1.24618770392,24500,2018-04-14 21:09:52,17,0,22.906,5912.1693177983,186.679796,0.3131716,1.33410765424,0,0,-0.671082,64.5, 0.3, -1.9,0,0,1024,1024,1024,1024,64,-89.9,91,3.803,3.808,3.793,3.812,0,0,20.039,75.2,14,Waypoint,
36.7673074,-118.8833952,5913.1535697983,187.664048,0,1.24618770392,24600,2018-04-14 21:09:53,17,0,22.906,5913.1535697983,187.664048,0.3131716,1.33410765424,0,0,-0.671082,64.5, 0.5, -2,0,0,1024,1024,1024,1024,64,-89.9,91,3.803,3.808,3.793,3.812,0,0,20.039,75.2,14,Waypoint,
36.7673074,-118.8833952,5914.1378217983,188.6483,0.223694,1.24618770392,24700,2018-04-14 21:09:53,17,0,22.906,5914.1378217983,188.6483,0.3131716,1.33410765424,0,0,-0.671082,64.4, 0.6, -1.9,0,0,1024,1024,1024,1024,64,-89.9,91,3.803,3.808,3.793,3.812,0,0,20.039,75.2,14,Waypoint,
36.7673074,-118.8833952,5915.1220737983,189.632552,0.223694,1.24618770392,24820,2018-04-14 21:09:53,17,0,22.906,5915.1220737983,189.632552,0.3131716,1.33410765424,0,0,-0.671082,64.5, 0.5, -1.8,0,0,1024,1024,1024,1024,64,-89.9,91,3.803,3.808,3.793,3.812,0,0,20.039,75.2,14,Waypoint,
36.7673075,-118.8833952,5916.1063257983,190.616804,0.223694,1.2109744482,24900,2018-04-14 21:09:53,17,0,22.906,5916.1063257983,190.616804,0.3131716,1.33410765424,0,0,-0.671082,64.5, 0.5, -1.5,0,0,1024,1024,1024,1024,64,-89.9,91,3.803,3.808,3.793,3.812,0,0,20.039,75.2,14,Waypoint,
36.7673075,-118.8833952,5917.0905777983,191.601056,0.223694,1.2109744482,25100,2018-04-14 21:09:53,17,0,22.906,5917.0905777983,191.601056,0.3131716,1.33410765424,0,0,-0.671082,64.6, 0.5, -1.4,0,0,1024,1024,1024,1024,64,-89.9,91,3.803,3.808,3.793,3.812,0,0,20.039,75.2,14,Waypoint,
36.7673075,-118.8833952,5918.0748297983,192.585308,0.223694,1.2109744482,25200,2018-04-14 21:09:53,17,0,22.906,5918.0748297983,192.585308,0.3131716,1.33410765424,0,0,-0.671082,64.6, 0.4, -1.5,0,0,1024,1024,1024,1024,64,-89.9,91,3.803,3.808,3.793,3.812,0,0,20.039,75.2,14,Waypoint,
36.7673075,-118.8833952,5919.0590817983,193.56956,0.223694,1.2109744482,25300,2018-04-14 21:09:53,17,0,22.906,5919.0590817983,193.56956,0.3131716,1.33410765424,0,0,-0.671082,64.7, 0.3, -1.5,0,0,1024,1024,1024,1024,64,-90,91,3.803,3.808,3.793,3.812,0,0,20.039,75.2,14,Waypoint,
36.7673075,-118.8833952,5921.0275857983,195.538064,0.223694,1.2109744482,25400,2018-04-14 21:09:53,17,0,22.906,5921.0275857983,195.538064,0.3131716,1.33410765424,0,0,-0.671082,64.7, 0.3, -1.5,0,0,1024,1024,1024,1024,64,-90,91,3.803,3.808,3.793,3.812,0,0,20.039,75.2,14,Waypoint,
36.7673076,-118.8833952,5922.0118377983,196.522316,0.223694,1.17583993264,25500,2018-04-14 21:09:53,17,0,22.906,5922.0118377983,196.522316,0.3131716,1.33410765424,0,0,-0.671082,64.8, 0.1, -1.4,0,0,1024,1024,1024,1024,64,-90,91,3.803,3.808,3.793,3.812,0,0,20.039,75.2,14,Waypoint,
36.7673076,-118.8833952,5922.9960897983,197.506568,0,1.17583993264,25600,2018-04-14 21:09:54,17,0,22.906,5922.9960897983,197.506568,0.3131716,1.33410765424,0,0,-0.671082,64.8, 0, -1.4,0,0,1024,1024,1024,1024,64,-90,91,3.803,3.808,3.793,3.812,0,0,20.039,75.2,14,Waypoint,
36.7673076,-118.8833953,5923.9803417983,198.49082,0.223694,1.18416342372,25700,2018-04-14 21:09:54,17,0,22.906,5923.9803417983,198.49082,0.3131716,1.33410765424,0,0,-0.671082,64.8, 0, -1.4,0,0,1024,1024,1024,1024,64,-90,91,3.803,3.808,3.793,3.812,0,0,20.039,75.2,14,Waypoint,
36.7673076,-118.8833953,5924.9645937983,199.475072,0.223694,1.18416342372,25800,2018-04-14 21:09:54,17,0,22.906,5924.9645937983,199.475072,0.3131716,1.33410765424,0,0,-0.671082,64.8, 0, -1.3,0,0,1024,1024,1024,1024,64,-90,91,3.803,3.808,3.793,3.812,0,0,20.039,75.2,14,Waypoint,
36.7673077,-118.8833953,5925.9488457983,200.459324,0.223694,1.14936683468,25900,2018-04-14 21:09:54,17,0,22.906,5925.9488457983,200.459324,0.3131716,1.33410765424,0,0,-0.671082,64.8, 0.2, -1.2,0,0,1024,1024,1024,1024,64,-89.9,91,3.803,3.808,3.793,3.812,0,0,20.039,75.2,14,Waypoint,
36.7673077,-118.8833953,5926.9330977983,201.443576,0.223694,1.14936683468,26000,2018-04-14 21:09:54,17,0,22.828,5926.9330977983,201.443576,0.3131716,1.33410765424,0,0,-0.671082,64.8, 0.2, -1.2,0,0,1024,1024,1024,1024,64,-89.9,90,3.789,3.796,3.786,3.799,0,0,20.711,75.2,14,Waypoint,
36.7673078,-118.8833953,5927.9173497983,202.427828,0.223694,1.11467851336,26100,2018-04-14 21:09:54,17,0,22.828,5927.9173497983,202.427828,0.3131716,1.33410765424,0,0,-0.671082,64.7, 0.1, -1.1,0,0,1024,1024,1024,1024,64,-90,90,3.789,3.796,3.786,3.799,0,0,20.711,75.2,14,Waypoint,
36.7673078,-118.8833953,5928.9016017983,203.41208,0.223694,1.11467851336,26200,2018-04-14 21:09:54,17,0,22.828,5928.9016017983,203.41208,0.3131716,1.33410765424,0,0,-0.671082,64.7, 0.2, -1,0,0,1024,1024,1024,1024,64,-90,90,3.789,3.796,3.786,3.799,0,0,20.711,75.2,14,Waypoint,
36.7673078,-118.8833953,5929.8858537983,204.396332,0,1.11467851336,26300,2018-04-14 21:09:54,17,0,22.828,5929.8858537983,204.396332,0.3131716,1.33410765424,0,0,-0.671082,64.7, 0.2, -1,0,0,1024,1024,1024,1024,64,-89.9,90,3.789,3.796,3.786,3.799,0,0,20.711,75.2,14,Waypoint,
36.7673078,-118.8833953,5930.8701057983,205.380584,0,1.11467851336,26400,2018-04-14 21:09:54,17,0,22.828,5930.8701057983,205.380584,0.3131716,1.33410765424,0,0,-0.671082,64.6, 0.2, -1,0,0,1024,1024,1024,1024,64,-89.9,90,3.789,3.796,3.786,3.799,0,0,20.711,75.2,14,Waypoint,
36.7673079,-118.8833953,5931.8543577983,206.364836,0,1.08010830228,26500,2018-04-14 21:09:54,17,0,22.828,5931.8543577983,206.364836,0.3131716,1.33410765424,0,0,-0.671082,64.6, 0.1, -1.1,0,0,1024,1024,1024,1024,64,-90,90,3.789,3.796,3.786,3.799,0,0,20.711,75.2,14,Waypoint,
36.7673079,-118.8833953,5932.8386097983,207.349088,0.223694,1.08010830228,26600,2018-04-14 21:09:55,17,0,22.828,5932.8386097983,207.349088,0.3131716,1.33410765424,0,0,-0.671082,64.6, 0.2, -0.9,0,0,1024,1024,1024,1024,64,-89.9,90,3.789,3.796,3.786,3.799,0,0,20.711,75.2,14,Waypoint,
36.7673079,-118.8833953,5933.8228617983,208.33334,0,1.08010830228,26800,2018-04-14 21:09:55,17,0,22.828,5933.8228617983,208.33334,0.3131716,1.33410765424,0,0,-0.671082,64.6, 0.3, -0.8,0,0,1024,1024,1024,1024,64,-89.9,90,3.789,3.796,3.786,3.799,0,0,20.711,75.2,14,Waypoint,
36.767308,-118.8833953,5934.8071137983,209.317592,0,1.04566604396,26920,2018-04-14 21:09:55,17,0,22.828,5934.8071137983,209.317592,0.3131716,1.33410765424,0,0,-0.671082,64.7, 0.3, -1,0,0,1024,1024,1024,1024,64,-89.9,90,3.789,3.796,3.786,3.799,0,0,20.711,75.2,14,Waypoint,
36.767308,-118.8833953,5934.8071137983,209.317592,0,1.04566604396,27000,2018-04-14 21:09:55,17,0,22.801,5934.8071137983,209.317592,0.3131716,1.33410765424,0,0,-0.671082,64.7, 0.3, -1,0,0,1024,1024,1024,1024,64,-89.9,90,3.793,3.8,3.777,3.803,0,0,20.726,75.2,14,Waypoint,
36.767308,-118.8833953,5935.7913657983,210.301844,0,1.04566604396,27100,2018-04-14 21:09:55,17,0,22.801,5935.7913657983,210.301844,0.3131716,1.33410765424,0,0,-0.671082,64.6, 0.2, -1,0,0,1024,1024,1024,1024,64,-90,90,3.793,3.8,3.777,3.803,0,0,20.726,75.2,14,Waypoint,
36.767308,-118.8833953,5937.1037017983,211.61418,0,1.04566604396,27210,2018-04-14 21:09:55,17,0,22.801,5937.1037017983,211.61418,0.3131716,1.33410765424,0,0,-0.671082,64.5, 0, -0.9,0,0,1024,1024,1024,1024,64,-90,90,3.793,3.8,3.777,3.803,0,0,20.726,75.2,14,Waypoint,
36.767308,-118.8833953,5937.1037017983,211.61418,0,1.04566604396,27300,2018-04-14 21:09:55,17,0,22.801,5937.1037017983,211.61418,0.3131716,1.33410765424,0,0,-0.671082,64.5, 0, -0.9,0,0,1024,1024,1024,1024,64,-90,90,3.793,3.8,3.777,3.803,0,0,20.726,75.2,14,Waypoint,
36.767308,-118.8833953,5938.0879537983,212.598432,0,1.04566604396,27400,2018-04-14 21:09:55,17,0,22.801,5938.0879537983,212.598432,0.3131716,1.33410765424,0,0,-0.671082,64.4, -0.2, -1,0,0,1024,1024,1024,1024,64,-90,90,3.793,3.8,3.777,3.803,0,0,20.726,75.2,14,Waypoint,
36.767308,-118.8833953,5939.0722057983,213.582684,0,1.04566604396,27500,2018-04-14 21:09:55,17,0,22.801,5939.0722057983,213.582684,0.3131716,1.33410765424,0,0,-0.671082,64.2, -0.3, -1,0,0,1024,1024,1024,1024,64,-90,90,3.793,3.8,3.777,3.803,0,0,20.726,75.2,14,Waypoint,
36.767308,-118.8833953,5940.0564577983,214.566936,0,1.04566604396,27600,2018-04-14 21:09:56,17,0,22.801,5940.0564577983,214.566936,0.3131716,1.33410765424,0,0,-0.671082,64.1, -0.3, -1.1,0,0,1024,1024,1024,1024,64,-89.9,90,3.793,3.8,3.777,3.803,0,0,20.726,75.2,14,Waypoint,
36.7673079,-118.8833953,5942.0249617983,216.53544,0,1.08010830228,27700,2018-04-14 21:09:56,17,0,22.801,5942.0249617983,216.53544,0.3131716,1.33410765424,0,0,-0.671082,64.2, 0.3, -1.4,0,0,1024,1024,1024,1024,64,-89.9,90,3.793,3.8,3.777,3.803,0,0,20.726,75.2,14,Waypoint,
