Latitude, Longitude, Altitude (m), Time, Sats, Speed (m/s), Range (m), Battery (%), Roll (deg), Pitch (deg), Yaw (deg), Images, HD Signal (%), RC Signal (%), Battery Temp (C), Battery Voltage (mV), Battery Current (mA), Battery Energy (mAh), Battery Capacity (mAh), Battery Discharges, flyState, timestamp (Unix), LastUpdate (ms), radioChannel, Rc_elevator, Rc_aileron, Rc_throttle, Rc_rudder, Rc_gyro, Dronetype, Battery_Cell1 (mV), Battery_Cell2 (mV), Battery_Cell3 (mV), Battery_Cell4 (mV), Battery_Cell5 (mV), Battery_Cell6 (mV), Video, isFlying, elapsedTime (ms), gimbalPitch (deg), gimbalRoll (deg), gimbalYaw (deg), VelocityX (m/s), VelocityY (m/s), VelocityZ (m/s), GroundSmear (cm), App Version, Aircraft Name, Aircraft Firmware, Aircraft Serial Number, Battery Serial Number, Battery Lifetime (%), App_Tip, App_Warning, CurrentFlightStartingIndex, CurrentFlightLastVisitedWaypoint, PreviousFlightEndingWaypointIndex
38.5569474, -120.5321411, 0.000, 14:47:09.223, 13, 0.10, 0.03, 100, -1.300, -1.100, 22.800, 1424, 100, 100, 27, 25525, -4102, 5377, 5377, 17, 11, 1529531229.224, 75, 0, 1024, 1024, 1024, 1024, 0, 6, 4243, 4260, 4230, 4269, 4277, 4231, 0, 1, 3101, -89.900, 0.000, 20.900, 0.100, 0.000, -0.200, 0.0, MapPilot_2.8.1_04242018, Dendroctonus I, 1.3.1.00, 041DDC1887, 1058163200445, 96, DJI_0420.jpg, Starting Mission from Lat/Long: 38.55695/-120.53214 Camera: Zenmuse X3 - Overlap: 90/90 - Active Connection: No, 53, 53, 53
38.5569475, -120.5321412, 0.000, 14:47:09.323, 13, 0.14, 0.05, 100, -0.100, -0.300, 22.800, 1424, 100, 100, 27, 25525, -4102, 5377, 5377, 17, 11, 1529531229.324, 79, 0, 1024, 1024, 1024, 1024, 0, 6, 4243, 4260, 4230, 4269, 4277, 4231, 0, 1, 3201, -89.900, 0.000, 20.900, 0.100, -0.100, -0.300, 0.0, , , , , , 96, , , 53, 53, 53
38.5569477, -120.5321414, 0.000, 14:47:09.429, 11, 0.14, 0.07, 100, 0.600, 0.100, 22.700, 1424, 100, 100, 27, 25525, -4102, 5377, 5377, 17, 11, 1529531229.429, 78, 0, 1024, 1024, 1024, 1024, 0, 6, 4243, 4260, 4230, 4269, 4277, 4231, 0, 1, 3306, -89.900, 0.000, 20.900, 0.100, -0.100, -0.400, 0.0, , , , , , 96, , , 53, 53, 53
38.5569478, -120.5321415, 0.000, 14:47:09.523, 11, 0.10, 0.09, 100, 0.900, 0.500, 22.700, 1424, 100, 100, 27, 25525, -4102, 5377, 5377, 17, 11, 1529531229.524, 77, 0, 1024, 1024, 1024, 1024, 0, 6, 4243, 4260, 4230, 4269, 4277, 4231, 0, 1, 3401, -89.900, 0.000, 21.000, 0.100, 0.000, -0.400, 0.0, , , , , , 96, , , 53, 53, 53
38.5569480, -120.5321416, 0.000, 14:47:09.623, 12, 0.10, 0.11, 100, 1.300, 1.000, 22.600, 1424, 100, 100, 27, 25525, -4102, 5377, 5377, 17, 11, 1529531229.623, 43, 0, 1024, 1024, 1024, 1024, 0, 6, 4243, 4260, 4230, 4269, 4277, 4231, 0, 1, 3500, -89.900, 0.000, 21.000, 0.100, 0.000, -0.400, 0.0, , , , , , 96, , , 53, 53, 53
38.5569482, -120.5321416, 0.100, 14:47:09.723, 12, 0.10, 0.13, 100, 1.300, 1.400, 22.500, 1424, 100, 100, 27, 25525, -4102, 5377, 5377, 17, 11, 1529531229.723, 58, 0, 1024, 1024, 1024, 1024, 0, 6, 4243, 4260, 4230, 4269, 4277, 4231, 0, 1, 3600, -89.900, 0.000, 21.000, 0.100, 0.000, -0.400, 0.0, , , , , , 96, , , 53, 53, 53
38.5569483, -120.5321417, 0.100, 14:47:09.823, 12, 0.10, 0.14, 100, 1.200, 1.500, 22.500, 1424, 100, 100, 27, 25525, -4102, 5377, 5377, 17, 11, 1529531229.823, 58, 0, 1024, 1024, 1024, 1024, 0, 6, 4243, 4260, 4230, 4269, 4277, 4231, 0, 1, 3701, -89.900, 0.000, 21.000, 0.100, 0.000, -0.400, 0.0, , , , , , 96, , , 53, 53, 53
38.5569485, -120.5321418, 0.200, 14:47:09.923, 12, 0.10, 0.16, 100, 1.000, 1.300, 22.500, 1424, 100, 100, 27, 25525, -4102, 5377, 5377, 17, 11, 1529531229.923, 62, 0, 1024, 1024, 1024, 1024, 0, 6, 4243, 4260, 4230, 4269, 4277, 4231, 0, 1, 3800, -89.900, 0.000, 21.100, 0.100, 0.000, -0.400, 0.0, , , , , , 96, , , 53, 53, 53
38.5569486, -120.5321418, 0.200, 14:47:10.022, 11, 0.10, 0.17, 100, 0.600, 1.000, 22.500, 1424, 100, 100, 27, 25525, -4102, 5377, 5377, 17, 11, 1529531230.023, 65, 0, 1024, 1024, 1024, 1024, 0, 6, 4243, 4260, 4230, 4269, 4277, 4231, 0, 1, 3900, -89.900, 0.000, 21.100, 0.100, 0.000, -0.400, 0.0, , , , , , 96, , , 53, 53, 53
38.5569486, -120.5321418, 0.300, 14:47:10.123, 11, 0.00, 0.18, 100, 0.500, 1.000, 22.500, 1424, 100, 100, 27, 25525, -4102, 5377, 5377, 17, 11, 1529531230.123, 52, 0, 1024, 1024, 1024, 1024, 0, 6, 4243, 4260, 4230, 4269, 4277, 4231, 0, 1, 4001, -89.900, 0.000, 21.100, 0.000, 0.000, -0.400, 0.0, , , , , , 96, , , 53, 53, 53
38.5569486, -120.5321419, 0.300, 14:47:10.223, 10, 0.00, 0.18, 100, 0.400, 0.800, 22.500, 1424, 100, 100, 27, 24717, -14408, 5377, 5377, 17, 11, 1529531230.224, 44, 0, 1024, 1024, 1024, 1024, 0, 6, 4124, 4130, 4115, 4109, 4125, 4129, 0, 1, 4101, -89.900, 0.000, 21.200, 0.000, 0.000, -0.500, 0.0, , , , , , 96, , , 53, 53, 53
38.5569487, -120.5321419, 0.400, 14:47:10.323, 10, 0.00, 0.19, 100, 0.400, 0.700, 22.600, 1424, 100, 100, 27, 24717, -14408, 5377, 5377, 17, 11, 1529531230.323, 47, 0, 1024, 1024, 1024, 1024, 0, 6, 4124, 4130, 4115, 4109, 4125, 4129, 0, 1, 4200, -89.900, 0.000, 21.200, 0.000, 0.000, -0.500, 0.0, , , , , , 96, , , 53, 53, 53
38.5569487, -120.5321419, 0.400, 14:47:10.423, 10, 0.00, 0.19, 100, 0.400, 0.700, 22.600, 1424, 100, 100, 27, 24717, -14408, 5377, 5377, 17, 11, 1529531230.424, 13, 0, 1024, 1024, 1024, 1024, 0, 6, 4124, 4130, 4115, 4109, 4125, 4129, 0, 1, 4301, -89.900, 0.000, 21.200, 0.000, 0.000, -0.400, 0.0, , , , , , 96, , , 53, 53, 53
38.5569488, -120.5321419, 0.500, 14:47:10.523, 10, 0.00, 0.20, 100, 0.500, 0.700, 22.700, 1424, 100, 100, 27, 24717, -14408, 5377, 5377, 17, 11, 1529531230.523, 28, 0, 1024, 1024, 1024, 1024, 0, 6, 4124, 4130, 4115, 4109, 4125, 4129, 0, 1, 4400, -89.900, 0.000, 21.200, 0.000, 0.000, -0.500, 0.0, , , , , , 96, , , 53, 53, 53
38.5569488, -120.5321420, 0.600, 14:47:10.623, 11, 0.00, 0.21, 100, 0.600, 0.700, 22.700, 1424, 100, 100, 27, 24717, -14408, 5377, 5377, 17, 11, 1529531230.623, 20, 0, 1024, 1024, 1024, 1024, 0, 6, 4124, 4130, 4115, 4109, 4125, 4129, 0, 1, 4500, -89.900, 0.000, 21.200, 0.000, 0.000, -0.500, 0.0, , , , , , 96, , , 53, 53, 53
38.5569488, -120.5321420, 0.600, 14:47:10.723, 11, 0.00, 0.20, 100, 0.700, 0.600, 22.600, 1424, 100, 100, 27, 24717, -14408, 5377, 5377, 17, 11, 1529531230.723, 24, 0, 1024, 1024, 1024, 1024, 0, 6, 4124, 4130, 4115, 4109, 4125, 4129, 0, 1, 4600, -89.900, 0.000, 21.300, 0.000, 0.000, -0.500, 0.0, , , , , , 96, , , 53, 53, 53
38.5569488, -120.5321421, 0.700, 14:47:10.823, 12, 0.00, 0.20, 100, 0.800, 0.500, 22.600, 1424, 100, 100, 27, 24717, -14408, 5377, 5377, 17, 11, 1529531230.823, 27, 0, 1024, 1024, 1024, 1024, 0, 6, 4124, 4130, 4115, 4109, 4125, 4129, 0, 1, 4701, -89.900, 0.000, 21.300, 0.000, 0.000, -0.400, 0.0, , , , , , 96, , , 53, 53, 53
38.5569488, -120.5321421, 0.700, 14:47:10.923, 12, 0.00, 0.21, 100, 0.700, 0.500, 22.600, 1424, 100, 100, 27, 24717, -14408, 5377, 5377, 17, 11, 1529531230.924, 16, 0, 1024, 1024, 1024, 1024, 0, 6, 4124, 4130, 4115, 4109, 4125, 4129, 0, 1, 4801, -89.900, 0.000, 21.300, 0.000, 0.000, -0.400, 0.0, , , , , , 96, , , 53, 53, 53
38.5569489, -120.5321421, 0.800, 14:47:11.023, 11, 0.00, 0.22, 100, 0.600, 0.500, 22.500, 1424, 100, 100, 27, 24717, -14408, 5377, 5377, 17, 11, 1529531231.023, 25, 0, 1024, 1024, 1024, 1024, 0, 6, 4124, 4130, 4115, 4109, 4125, 4129, 0, 1, 4901, -89.900, 0.000, 21.300, 0.000, 0.000, -0.400, 0.0, , , , , , 96, , , 53, 53, 53
38.5569489, -120.5321421, 0.800, 14:47:11.129, 11, 0.00, 0.22, 100, 0.600, 0.500, 22.500, 1424, 100, 100, 27, 24717, -14408, 5377, 5377, 17, 11, 1529531231.129, 130, 0, 1024, 1024, 1024, 1024, 0, 6, 4124, 4130, 4115, 4109, 4125, 4129, 0, 1, 5006, -89.900, 0.000, 21.300, 0.000, 0.000, -0.400, 0.0, , , , , , 96, , , 53, 53, 53
38.5569489, -120.5321421, 0.800, 14:47:11.223, 11, 0.00, 0.22, 100, 0.500, 0.600, 22.600, 1424, 100, 100, 27, 24717, -14408, 5377, 5377, 17, 11, 1529531231.223, 90, 0, 1024, 1024, 1024, 1024, 0, 6, 4124, 4130, 4115, 4109, 4125, 4129, 0, 1, 5100, -89.900, 0.000, 21.300, 0.000, 0.000, -0.400, 0.0, , , , , , 96, , , 53, 53, 53
38.5569489, -120.5321420, 0.900, 14:47:11.323, 12, 0.00, 0.22, 100, 0.500, 0.700, 22.600, 1424, 100, 100, 27, 24533, -16171, 5377, 5377, 17, 14, 1529531231.323, 96, 0, 1024, 1024, 1024, 1024, 0, 6, 4124, 4130, 4115, 4109, 4125, 4129, 0, 1, 5200, -89.900, 0.000, 21.300, 0.000, 0.000, -0.400, 0.0, , , , , , 96, , , 53, 53, 53
38.5569490, -120.5321421, 1.000, 14:47:11.423, 12, 0.00, 0.23, 100, 0.300, 0.600, 22.600, 1424, 100, 100, 27, 24533, -16171, 5377, 5377, 17, 14, 1529531231.423, 98, 0, 1024, 1024, 1024, 1024, 0, 6, 4124, 4130, 4115, 4109, 4125, 4129, 0, 1, 5300, -89.900, 0.000, 21.400, 0.000, 0.000, -0.200, 0.0, , , , , , 96, , , 53, 53, 53
38.5569489, -120.5321420, 1.000, 14:47:11.523, 12, 0.00, 0.22, 100, 0.300, 0.500, 22.500, 1424, 100, 100, 27, 24533, -16171, 5377, 5377, 17, 14, 1529531231.523, 81, 0, 1024, 1024, 1024, 1024, 0, 6, 4124, 4130, 4115, 4109, 4125, 4129, 0, 1, 5400, -89.900, 0.000, 21.400, 0.000, 0.000, -0.200, 0.0, , , , , , 96, , , 53, 53, 53
38.5569489, -120.5321420, 1.100, 14:47:11.623, 11, 0.00, 0.22, 100, 0.400, 0.300, 22.400, 1424, 100, 100, 27, 24533, -16171, 5377, 5377, 17, 14, 1529531231.623, 98, 0, 1024, 1024, 1024, 1024, 0, 6, 4124, 4130, 4115, 4109, 4125, 4129, 0, 1, 5500, -90.000, 0.000, 21.400, 0.000, 0.000, -0.300, 0.0, , , , , , 96, , , 53, 53, 53
38.5569488, -120.5321421, 1.100, 14:47:11.723, 11, 0.00, 0.21, 100, 0.600, 0.100, 22.400, 1424, 100, 100, 27, 24533, -16171, 5377, 5377, 17, 14, 1529531231.723, 85, 0, 1024, 1024, 1024, 1024, 0, 6, 4090, 4080, 4072, 4084, 4107, 4098, 0, 1, 5600, -90.000, 0.000, 21.400, 0.000, 0.000, -0.400, 0.0, , , , , , 96, , , 53, 53, 53
38.5569488, -120.5321421, 1.200, 14:47:11.823, 12, 0.00, 0.21, 100, 0.600, 0.000, 22.300, 1424, 100, 100, 27, 24533, -16171, 5377, 5377, 17, 14, 1529531231.823, 90, 0, 1024, 1024, 1024, 1024, 0, 6, 4090, 4080, 4072, 4084, 4107, 4098, 0, 1, 5700, -90.000, 0.000, 21.400, 0.000, 0.000, -0.600, 0.0, , , , , , 96, , , 53, 53, 53
38.5569488, -120.5321421, 1.300, 14:47:11.923, 12, 0.00, 0.21, 100, 0.400, 0.000, 22.300, 1424, 100, 100, 27, 24533, -16171, 5377, 5377, 17, 14, 1529531231.923, 66, 0, 1024, 1024, 1024, 1024, 0, 6, 4090, 4080, 4072, 4084, 4107, 4098, 0, 1, 5800, -90.000, 0.000, 21.400, 0.000, 0.000, -0.800, 0.0, , , , , , 96, , , 53, 53, 53
38.5569488, -120.5321421, 1.400, 14:47:12.023, 13, 0.00, 0.20, 100, 0.100, 0.000, 22.200, 1424, 100, 100, 27, 24533, -16171, 5377, 5377, 17, 14, 1529531232.023, 69, 0, 1024, 1024, 1024, 1024, 0, 6, 4090, 4080, 4072, 4084, 4107, 4098, 0, 1, 5900, -90.000, 0.000, 21.500, 0.000, 0.000, -0.900, 0.0, , , , , , 96, , , 53, 53, 53
38.5569488, -120.5321419, 1.500, 14:47:12.123, 13, 0.00, 0.20, 100, 0.000, 0.200, 22.200, 1424, 100, 100, 27, 24533, -16171, 5377, 5377, 17, 14, 1529531232.123, 82, 0, 1024, 1024, 1024, 1024, 0, 6, 4090, 4080, 4072, 4084, 4107, 4098, 0, 1, 6001, -89.900, 0.000, 21.500, 0.000, 0.000, -1.200, 0.0, , , , , , 96, , , 53, 53, 53
38.5569489, -120.5321418, 1.600, 14:47:12.223, 13, 0.00, 0.20, 100, -0.100, 0.700, 22.100, 1424, 100, 100, 27, 24533, -16171, 5377, 5377, 17, 14, 1529531232.223, 52, 0, 1024, 1024, 1024, 1024, 0, 6, 4090, 4080, 4072, 4084, 4107, 4098, 0, 1, 6101, -89.900, 0.000, 21.500, 0.000, 0.000, -1.300, 0.0, , , , , , 96, , , 53, 53, 53
38.5569488, -120.5321417, 1.800, 14:47:12.323, 13, 0.00, 0.20, 100, 0.000, 0.900, 22.000, 1424, 100, 100, 27, 24533, -16171, 5377, 5377, 17, 14, 1529531232.324, 55, 0, 1024, 1024, 1024, 1024, 0, 6, 4090, 4080, 4072, 4084, 4107, 4098, 0, 1, 6201, -89.900, 0.000, 21.500, 0.000, 0.000, -1.600, 0.0, , , , , , 96, , , 53, 53, 53
38.5569488, -120.5321416, 2.000, 14:47:12.423, 12, 0.00, 0.19, 100, 0.100, 0.900, 22.000, 1424, 100, 100, 27, 24533, -16171, 5377, 5377, 17, 14, 1529531232.423, 72, 0, 1024, 1024, 1024, 1024, 0, 6, 4090, 4080, 4072, 4084, 4107, 4098, 0, 1, 6301, -89.900, 0.000, 21.500, 0.000, 0.000, -1.800, 0.0, , , , , , 96, , , 53, 53, 53
38.5569488, -120.5321414, 2.200, 14:47:12.523, 12, 0.00, 0.18, 100, -0.100, 0.900, 22.100, 1424, 100, 100, 27, 24533, -16171, 5377, 5377, 17, 14, 1529531232.523, 54, 0, 1024, 1024, 1024, 1024, 0, 6, 4090, 4080, 4072, 4084, 4107, 4098, 0, 1, 6401, -89.900, 0.000, 21.500, 0.000, 0.000, -2.000, 0.0, , , , , , 96, , , 53, 53, 53
38.5569487, -120.5321412, 2.400, 14:47:12.623, 12, 0.00, 0.17, 100, -0.500, 1.000, 22.300, 1424, 100, 100, 27, 24533, -16171, 5377, 5377, 17, 14, 1529531232.623, 63, 0, 1024, 1024, 1024, 1024, 0, 6, 4090, 4080, 4072, 4084, 4107, 4098, 0, 1, 6501, -89.900, 0.000, 21.500, 0.000, 0.000, -2.200, 0.0, , , , , , 96, , , 53, 53, 53
38.5569487, -120.5321411, 2.700, 14:47:12.723, 12, 0.00, 0.16, 100, -0.600, 0.800, 22.500, 1424, 100, 100, 27, 24595, -15815, 5377, 5377, 17, 14, 1529531232.723, 37, 0, 1024, 1024, 1024, 1024, 0, 6, 4135, 4079, 4105, 4061, 4076, 4081, 0, 1, 6600, -89.900, 0.000, 21.600, 0.000, 0.000, -2.500, 0.0, , , , , , 96, , , 53, 53, 53
38.5569485, -120.5321409, 3.000, 14:47:12.823, 12, 0.00, 0.15, 100, -0.600, 0.700, 22.600, 1424, 100, 100, 27, 24595, -15815, 5377, 5377, 17, 14, 1529531232.824, 33, 0, 1024, 1024, 1024, 1024, 0, 6, 4135, 4079, 4105, 4061, 4076, 4081, 0, 1, 6701, -89.900, 0.000, 21.600, 0.000, 0.000, -2.700, 0.0, , , , , , 96, , , 53, 53, 53
38.5569484, -120.5321407, 3.300, 14:47:12.922, 12, 0.00, 0.13, 100, -0.800, 0.500, 22.800, 1424, 100, 100, 27, 24595, -15815, 5377, 5377, 17, 14, 1529531232.923, 44, 0, 1024, 1024, 1024, 1024, 0, 6, 4135, 4079, 4105, 4061, 4076, 4081, 0, 1, 6800, -89.900, 0.000, 21.600, 0.000, 0.000, -2.800, 0.0, , , , , , 96, , , 53, 53, 53
38.5569482, -120.5321405, 3.600, 14:47:13.023, 12, 0.00, 0.11, 100, -1.300, 0.400, 22.800, 1424, 100, 100, 27, 24595, -15815, 5377, 5377, 17, 14, 1529531233.023, 37, 0, 1024, 1024, 1024, 1024, 0, 6, 4135, 4079, 4105, 4061, 4076, 4081, 0, 1, 6901, -89.900, 0.000, 21.600, 0.000, 0.000, -2.900, 0.0, , , , , , 96, , , 53, 53, 53
38.5569481, -120.5321405, 3.900, 14:47:13.123, 12, 0.00, 0.11, 100, -1.500, 0.400, 22.900, 1424, 100, 100, 27, 24595, -15815, 5377, 5377, 17, 14, 1529531233.123, 40, 0, 1024, 1024, 1024, 1024, 0, 6, 4135, 4079, 4105, 4061, 4076, 4081, 0, 1, 7001, -89.900, 0.000, 21.600, 0.000, 0.000, -3.000, 0.0, , , , , , 96, , , 53, 53, 53
38.5569480, -120.5321404, 4.200, 14:47:13.223, 11, 0.00, 0.10, 100, -1.300, 0.500, 23.000, 1424, 100, 100, 27, 24595, -15815, 5377, 5377, 17, 14, 1529531233.223, 32, 0, 1024, 1024, 1024, 1024, 0, 6, 4135, 4079, 4105, 4061, 4076, 4081, 0, 1, 7100, -89.900, 0.000, 21.600, 0.000, 0.000, -3.100, 0.0, , , , , , 96, , , 53, 53, 53
38.5569478, -120.5321401, 4.600, 14:47:13.323, 11, 0.00, 0.09, 100, -1.400, 0.500, 23.100, 1424, 100, 100, 27, 24595, -15815, 5377, 5377, 17, 14, 1529531233.324, 34, 0, 1024, 1024, 1024, 1024, 0, 6, 4135, 4079, 4105, 4061, 4076, 4081, 0, 1, 7201, -90.000, 0.000, 21.600, 0.000, 0.000, -3.000, 0.0, , , , , , 96, , , 53, 53, 53
38.5569476, -120.5321399, 4.900, 14:47:13.423, 11, 0.00, 0.09, 100, -1.500, 0.300, 23.100, 1424, 100, 100, 27, 24595, -15815, 5377, 5377, 17, 14, 1529531233.423, 25, 0, 1024, 1024, 1024, 1024, 0, 6, 4135, 4079, 4105, 4061, 4076, 4081, 0, 1, 7300, -90.000, 0.000, 21.600, 0.000, 0.000, -3.100, 0.0, , , , , , 96, , , 53, 53, 53
38.5569474, -120.5321397, 5.200, 14:47:13.523, 11, 0.00, 0.10, 100, -1.500, 0.100, 23.200, 1424, 100, 100, 27, 24595, -15815, 5377, 5377, 17, 14, 1529531233.523, 5, 0, 1024, 1024, 1024, 1024, 0, 6, 4135, 4079, 4105, 4061, 4076, 4081, 0, 1, 7401, -90.000, 0.000, 21.600, 0.000, 0.000, -3.100, 0.0, , , , , , 96, , , 53, 53, 53
38.5569472, -120.5321395, 5.600, 14:47:13.623, 10, 0.00, 0.11, 100, -1.700, -0.100, 23.100, 1424, 100, 100, 27, 24595, -15815, 5377, 5377, 17, 14, 1529531233.623, 7, 0, 1024, 1024, 1024, 1024, 0, 6, 4135, 4079, 4105, 4061, 4076, 4081, 0, 1, 7500, -90.000, 0.000, 21.600, 0.000, 0.000, -3.100, 0.0, , , , , , 96, , , 53, 53, 53
38.5569471, -120.5321391, 6.200, 14:47:13.723, 10, 0.00, 0.15, 100, -2.300, -0.200, 22.800, 1424, 100, 100, 27, 24021, -21922, 5377, 5377, 17, 14, 1529531233.723, 7, 0, 1024, 1024, 1024, 1024, 0, 6, 3999, 3975, 3966, 3988, 4022, 3991, 0, 1, 7600, -90.000, 0.000, 21.600, 0.000, 0.000, -3.100, 0.0, , , , , , 96, , , 53, 53, 53
38.5569471, -120.5321391, 6.200, 14:47:13.823, 10, 0.00, 0.15, 100, -2.300, -0.200, 22.800, 1424, 100, 100, 27, 24021, -21922, 5377, 5377, 17, 14, 1529531233.823, 107, 0, 1024, 1024, 1024, 1024, 0, 6, 3999, 3975, 3966, 3988, 4022, 3991, 0, 1, 7701, -90.000, 0.000, 21.600, 0.000, 0.000, -3.100, 0.0, , , , , , 96, , , 53, 53, 53
38.5569470, -120.5321391, 6.900, 14:47:13.925, 10, 0.00, 0.15, 100, -1.800, 0.200, 22.400, 1424, 100, 100, 27, 24021, -21922, 5377, 5377, 17, 14, 1529531233.925, 1, 0, 1024, 1024, 1024, 1024, 0, 6, 3999, 3975, 3966, 3988, 4022, 3991, 0, 1, 7802, -89.900, 0.000, 21.500, 0.000, 0.000, -3.000, 0.0, , , , , , 96, , , 53, 53, 53
38.5569470, -120.5321391, 6.900, 14:47:14.022, 10, 0.00, 0.15, 100, -1.800, 0.200, 22.400, 1424, 100, 100, 27, 24021, -21922, 5377, 5377, 17, 14, 1529531234.022, 98, 0, 1024, 1024, 1024, 1024, 0, 6, 3999, 3975, 3966, 3988, 4022, 3991, 0, 1, 7900, -89.900, 0.000, 21.500, 0.000, 0.000, -3.000, 0.0, , , , , , 96, , , 53, 53, 53
38.5569470, -120.5321392, 7.300, 14:47:14.123, 10, 0.14, 0.15, 100, -1.600, 0.300, 22.400, 1424, 100, 100, 27, 24021, -21922, 5377, 5377, 17, 14, 1529531234.123, 81, 0, 1024, 1024, 1024, 1024, 0, 6, 3999, 3975, 3966, 3988, 4022, 3991, 0, 1, 8000, -89.900, 0.000, 21.500, 0.100, -0.100, -3.000, 0.0, , , , , , 96, , , 53, 53, 53
38.5569471, -120.5321393, 7.600, 14:47:14.222, 12, 0.14, 0.14, 100, -1.200, 0.400, 22.400, 1424, 100, 100, 27, 24021, -21922, 5377, 5377, 17, 14, 1529531234.222, 88, 0, 1024, 1024, 1024, 1024, 0, 6, 3999, 3975, 3966, 3988, 4022, 3991, 0, 1, 8100, -89.900, 0.000, 21.600, 0.100, -0.100, -3.000, 0.0, , , , , , 96, , , 53, 53, 53
38.5569473, -120.5321394, 7.900, 14:47:14.323, 12, 0.14, 0.12, 100, -0.500, 0.500, 22.600, 1424, 100, 100, 27, 24021, -21922, 5377, 5377, 17, 14, 1529531234.323, 84, 0, 1024, 1024, 1024, 1024, 0, 6, 3999, 3975, 3966, 3988, 4022, 3991, 0, 1, 8200, -89.900, 0.000, 21.600, 0.100, -0.100, -3.000, 0.0, , , , , , 96, , , 53, 53, 53
38.5569475, -120.5321396, 8.200, 14:47:14.423, 12, 0.14, 0.11, 100, 0.200, 0.800, 22.900, 1424, 100, 100, 27, 24021, -21922, 5377, 5377, 17, 14, 1529531234.423, 77, 0, 1024, 1024, 1024, 1024, 0, 6, 3999, 3975, 3966, 3988, 4022, 3991, 0, 1, 8300, -89.900, 0.000, 21.600, 0.100, -0.100, -3.000, 0.0, , , , , , 96, , , 53, 53, 53
38.5569477, -120.5321398, 8.500, 14:47:14.522, 12, 0.14, 0.11, 100, 0.800, 1.500, 23.200, 1424, 100, 100, 27, 24021, -21922, 5377, 5377, 17, 14, 1529531234.523, 74, 0, 1024, 1024, 1024, 1024, 0, 6, 3999, 3975, 3966, 3988, 4022, 3991, 0, 1, 8400, -89.900, 0.000, 21.600, 0.100, -0.100, -2.900, 0.0, , , , , , 96, , , 53, 53, 53
38.5569480, -120.5321399, 8.800, 14:47:14.623, 13, 0.14, 0.11, 100, 0.900, 1.900, 23.300, 1424, 100, 100, 27, 24021, -21922, 5377, 5377, 17, 14, 1529531234.623, 65, 0, 1024, 1024, 1024, 1024, 0, 6, 3999, 3975, 3966, 3988, 4022, 3991, 0, 1, 8500, -89.900, 0.000, 21.600, 0.100, -0.100, -2.900, 0.0, , , , , , 96, , , 53, 53, 53
38.5569482, -120.5321402, 9.100, 14:47:14.723, 13, 0.14, 0.12, 100, 1.100, 2.100, 23.300, 1424, 100, 100, 27, 24016, -21201, 5377, 5377, 17, 14, 1529531234.723, 74, 0, 1024, 1024, 1024, 1024, 0, 6, 4008, 4008, 3986, 3998, 4032, 4022, 0, 1, 8600, -89.900, 0.000, 21.600, 0.100, -0.100, -2.900, 0.0, , , , , , 96, , , 53, 53, 53
38.5569484, -120.5321404, 9.500, 14:47:14.823, 13, 0.14, 0.13, 100, 1.200, 2.100, 23.100, 1424, 100, 100, 27, 24016, -21201, 5377, 5377, 17, 14, 1529531234.823, 65, 0, 1024, 1024, 1024, 1024, 0, 6, 4008, 4008, 3986, 3998, 4032, 4022, 0, 1, 8700, -89.900, 0.000, 21.600, 0.100, -0.100, -2.900, 0.0, , , , , , 96, , , 53, 53, 53
38.5569485, -120.5321405, 9.800, 14:47:14.929, 13, 0.14, 0.14, 100, 1.200, 2.000, 22.900, 1424, 100, 100, 27, 24016, -21201, 5377, 5377, 17, 14, 1529531234.929, 63, 0, 1024, 1024, 1024, 1024, 0, 6, 4008, 4008, 3986, 3998, 4032, 4022, 0, 1, 8806, -89.900, 0.000, 21.600, 0.100, -0.100, -3.000, 0.0, , , , , , 96, , , 53, 53, 53
38.5569486, -120.5321406, 10.100, 14:47:15.029, 12, 0.14, 0.15, 100, 1.100, 1.900, 22.700, 1424, 100, 100, 27, 24016, -21201, 5377, 5377, 17, 14, 1529531235.030, 55, 0, 1024, 1024, 1024, 1024, 0, 6, 4008, 4008, 3986, 3998, 4032, 4022, 0, 1, 8907, -89.900, 0.000, 21.600, 0.100, -0.100, -3.000, 0.0, , , , , , 96, , , 53, 53, 53
38.5569487, -120.5321408, 10.400, 14:47:15.122, 12, 0.14, 0.16, 100, 0.900, 1.700, 22.500, 1424, 100, 100, 27, 24016, -21201, 5377, 5377, 17, 14, 1529531235.123, 54, 0, 1024, 1024, 1024, 1024, 0, 6, 4008, 4008, 3986, 3998, 4032, 4022, 0, 1, 9000, -89.900, 0.000, 21.600, 0.100, -0.100, -3.000, 0.0, , , , , , 96, , , 53, 53, 53
38.5569488, -120.5321410, 10.700, 14:47:15.222, 13, 0.10, 0.17, 100, 1.000, 1.500, 22.400, 1424, 100, 100, 27, 24016, -21201, 5377, 5377, 17, 14, 1529531235.223, 48, 0, 1024, 1024, 1024, 1024, 0, 6, 4008, 4008, 3986, 3998, 4032, 4022, 0, 1, 9100, -89.900, 0.000, 21.600, 0.000, -0.100, -3.000, 0.0, , , , , , 96, , , 53, 53, 53
38.5569488, -120.5321412, 11.000, 14:47:15.323, 13, 0.10, 0.18, 100, 1.100, 1.500, 22.300, 1424, 100, 100, 27, 24016, -21201, 5377, 5377, 17, 14, 1529531235.323, 17, 0, 1024, 1024, 1024, 1024, 0, 6, 4008, 4008, 3986, 3998, 4032, 4022, 0, 1, 9200, -89.900, 0.000, 21.600, 0.000, -0.100, -3.000, 0.0, , , , , , 96, , , 53, 53, 53
38.5569489, -120.5321413, 11.400, 14:47:15.423, 12, 0.10, 0.19, 100, 1.200, 1.400, 22.300, 1424, 100, 100, 27, 24016, -21201, 5377, 5377, 17, 14, 1529531235.423, 42, 0, 1024, 1024, 1024, 1024, 0, 6, 4008, 4008, 3986, 3998, 4032, 4022, 0, 1, 9300, -89.900, 0.000, 21.600, 0.000, -0.100, -3.000, 0.0, , , , , , 96, , , 53, 53, 53
38.5569489, -120.5321415, 11.700, 14:47:15.523, 12, 0.10, 0.20, 100, 1.300, 1.100, 22.300, 1424, 100, 100, 27, 24016, -21201, 5377, 5377, 17, 14, 1529531235.523, 24, 0, 1024, 1024, 1024, 1024, 0, 6, 4008, 4008, 3986, 3998, 4032, 4022, 0, 1, 9400, -89.900, 0.000, 21.600, 0.000, -0.100, -3.000, 0.0, , , , , , 96, , , 53, 53, 53
38.5569489, -120.5321417, 12.000, 14:47:15.623, 12, 0.10, 0.20, 100, 1.100, 0.800, 22.400, 1424, 100, 100, 27, 24016, -21201, 5377, 5377, 17, 14, 1529531235.623, 28, 0, 1024, 1024, 1024, 1024, 0, 6, 4008, 4008, 3986, 3998, 4032, 4022, 0, 1, 9500, -89.900, 0.000, 21.600, 0.000, -0.100, -2.900, 0.0, , , , , , 96, , , 53, 53, 53
38.5569490, -120.5321419, 12.300, 14:47:15.723, 12, 0.10, 0.22, 100, 1.200, 0.800, 22.400, 1424, 100, 100, 27, 24110, -18236, 5269, 5377, 17, 14, 1529531235.723, 33, 0, 1024, 1024, 1024, 1024, 0, 6, 4032, 4021, 3984, 4012, 4047, 4028, 0, 1, 9600, -90.000, 0.000, 21.600, 0.000, -0.100, -2.900, 0.0, , , , , , 96, , , 53, 53, 53
38.5569490, -120.5321419, 12.300, 14:47:15.823, 12, 0.10, 0.22, 100, 1.200, 0.800, 22.400, 1424, 100, 100, 27, 24110, -18236, 5269, 5377, 17, 14, 1529531235.823, 133, 0, 1024, 1024, 1024, 1024, 0, 6, 4032, 4021, 3984, 4012, 4047, 4028, 0, 1, 9700, -90.000, 0.000, 21.600, 0.000, -0.100, -2.900, 0.0, , , , , , 96, , , 53, 53, 53
38.5569490, -120.5321422, 12.900, 14:47:15.930, 11, 0.00, 0.23, 100, 1.700, 0.500, 22.500, 1424, 100, 100, 27, 24110, -18236, 5269, 5377, 17, 14, 1529531235.930, 11, 0, 1024, 1024, 1024, 1024, 0, 6, 4032, 4021, 3984, 4012, 4047, 4028, 0, 1, 9807, -90.000, 0.000, 21.600, 0.000, 0.000, -2.800, 0.0, , , , , , 96, , , 53, 53, 53
38.5569490, -120.5321423, 13.200, 14:47:16.023, 13, 0.00, 0.24, 100, 1.600, 0.400, 22.500, 1424, 100, 100, 27, 24110, -18236, 5269, 5377, 17, 14, 1529531236.024, 8, 0, 1024, 1024, 1024, 1024, 0, 6, 4032, 4021, 3984, 4012, 4047, 4028, 0, 1, 9901, -89.900, 0.000, 21.600, 0.000, 0.000, -2.800, 0.0, , , , , , 96, , , 53, 53, 53
38.5569491, -120.5321426, 13.500, 14:47:16.124, 13, 0.00, 0.26, 100, 1.400, 0.600, 22.500, 1424, 100, 100, 27, 24110, -18236, 5269, 5377, 17, 14, 1529531236.124, 1, 0, 1024, 1024, 1024, 1024, 0, 6, 4032, 4021, 3984, 4012, 4047, 4028, 0, 1, 10001, -89.900, 0.000, 21.600, 0.000, 0.000, -2.800, 0.0, , , , , , 96, , , 53, 53, 53
38.5569491, -120.5321427, 13.800, 14:47:16.223, 13, 0.00, 0.27, 100, 1.500, 1.000, 22.400, 1424, 100, 100, 27, 24110, -18236, 5269, 5377, 17, 14, 1529531236.223, 7, 0, 1024, 1024, 1024, 1024, 0, 6, 4032, 4021, 3984, 4012, 4047, 4028, 0, 1, 10100, -89.900, 0.000, 21.600, 0.000, 0.000, -2.700, 0.0, , , , , , 96, , , 53, 53, 53
38.5569491, -120.5321427, 13.800, 14:47:16.323, 13, 0.00, 0.27, 100, 1.500, 1.000, 22.400, 1424, 100, 100, 27, 24110, -18236, 5269, 5377, 17, 14, 1529531236.323, 107, 0, 1024, 1024, 1024, 1024, 0, 6, 4032, 4021, 3984, 4012, 4047, 4028, 0, 1, 10200, -89.900, 0.000, 21.600, 0.000, 0.000, -2.700, 0.0, , , , , , 96, , , 53, 53, 53
38.5569492, -120.5321427, 14.400, 14:47:16.422, 14, 0.00, 0.28, 100, 1.400, 1.500, 22.400, 1424, 100, 100, 27, 24110, -18236, 5269, 5377, 17, 14, 1529531236.422, 96, 0, 1024, 1024, 1024, 1024, 0, 6, 4032, 4021, 3984, 4012, 4047, 4028, 0, 1, 10300, -89.900, 0.000, 21.600, 0.000, 0.000, -2.800, 0.0, , , , , , 96, , , 53, 53, 53
38.5569492, -120.5321428, 15.000, 14:47:16.524, 14, 0.00, 0.28, 100, 0.100, 1.700, 22.500, 1424, 100, 100, 27, 24110, -18236, 5269, 5377, 17, 14, 1529531236.525, 1, 0, 1024, 1024, 1024, 1024, 0, 6, 4032, 4021, 3984, 4012, 4047, 4028, 0, 1, 10402, -89.900, 0.000, 21.600, 0.000, 0.000, -2.800, 0.0, , , , , , 96, , , 53, 53, 53
38.5569492, -120.5321428, 15.000, 14:47:16.623, 14, 0.00, 0.28, 100, 0.100, 1.700, 22.500, 1424, 100, 100, 27, 24110, -18236, 5269, 5377, 17, 14, 1529531236.623, 100, 0, 1024, 1024, 1024, 1024, 0, 6, 4032, 4021, 3984, 4012, 4047, 4028, 0, 1, 10500, -89.900, 0.000, 21.600, 0.000, 0.000, -2.800, 0.0, , , , , , 96, , , 53, 53, 53
38.5569492, -120.5321428, 15.300, 14:47:16.723, 14, 0.00, 0.28, 98, -0.300, 1.500, 22.700, 1424, 100, 100, 27, 24147, -17867, 5269, 5377, 17, 14, 1529531236.723, 52, 0, 1024, 1024, 1024, 1024, 0, 6, 4032, 4021, 3984, 4012, 4047, 4028, 0, 1, 10600, -89.900, 0.000, 21.600, 0.000, 0.000, -2.800, 0.0, , , , , , 96, , , 53, 53, 53
38.5569491, -120.5321428, 15.600, 14:47:16.823, 14, 0.00, 0.27, 98, 0.000, 1.300, 22.800, 1424, 100, 100, 27, 24147, -17867, 5269, 5377, 17, 14, 1529531236.823, 74, 0, 1024, 1024, 1024, 1024, 0, 6, 4032, 4021, 3984, 4012, 4047, 4028, 0, 1, 10700, -89.900, 0.000, 21.600, 0.000, 0.000, -2.800, 0.0, , , , , , 96, , , 53, 53, 53
38.5569490, -120.5321428, 15.900, 14:47:16.923, 14, 0.00, 0.27, 98, 0.600, 1.100, 22.900, 1424, 100, 100, 27, 24147, -17867, 5269, 5377, 17, 14, 1529531236.923, 63, 0, 1024, 1024, 1024, 1024, 0, 6, 4032, 4021, 3984, 4012, 4047, 4028, 0, 1, 10800, -89.900, 0.000, 21.600, 0.000, 0.000, -2.800, 0.0, , , , , , 96, , , 53, 53, 53
38.5569490, -120.5321429, 16.200, 14:47:17.023, 14, 0.00, 0.27, 98, 0.900, 1.000, 22.800, 1424, 100, 100, 27, 24147, -17867, 5269, 5377, 17, 14, 1529531237.023, 56, 0, 1024, 1024, 1024, 1024, 0, 6, 4032, 4021, 3984, 4012, 4047, 4028, 0, 1, 10900, -89.900, 0.000, 21.600, 0.000, 0.000, -2.700, 0.0, , , , , , 96, , , 53, 53, 53
38.5569489, -120.5321429, 16.500, 14:47:17.122, 14, 0.00, 0.26, 98, 1.000, 1.000, 22.800, 1424, 100, 100, 27, 24147, -17867, 5269, 5377, 17, 14, 1529531237.122, 71, 0, 1024, 1024, 1024, 1024, 0, 6, 4032, 4021, 3984, 4012, 4047, 4028, 0, 1, 11000, -89.900, 0.000, 21.600, 0.000, 0.000, -2.800, 0.0, , , , , , 96, , , 53, 53, 53
38.5569488, -120.5321429, 16.800, 14:47:17.223, 13, 0.00, 0.26, 98, 1.100, 1.000, 22.800, 1424, 100, 100, 27, 24147, -17867, 5269, 5377, 17, 14, 1529531237.223, 65, 0, 1024, 1024, 1024, 1024, 0, 6, 4030, 4025, 3996, 4013, 4054, 4039, 0, 1, 11100, -89.900, 0.000, 21.600, 0.000, 0.000, -2.900, 0.0, , , , , , 96, , , 53, 53, 53
38.5569488, -120.5321428, 17.100, 14:47:17.322, 13, 0.00, 0.25, 98, 1.100, 0.900, 22.600, 1424, 100, 100, 27, 24147, -17867, 5269, 5377, 17, 14, 1529531237.322, 69, 0, 1024, 1024, 1024, 1024, 0, 6, 4030, 4025, 3996, 4013, 4054, 4039, 0, 1, 11200, -89.900, 0.000, 21.600, 0.000, 0.000, -2.800, 0.0, , , , , , 96, , , 53, 53, 53
38.5569487, -120.5321428, 17.400, 14:47:17.423, 12, 0.00, 0.24, 98, 0.800, 0.900, 22.500, 1424, 100, 100, 27, 24147, -17867, 5269, 5377, 17, 14, 1529531237.423, 71, 0, 1024, 1024, 1024, 1024, 0, 6, 4030, 4025, 3996, 4013, 4054, 4039, 0, 1, 11300, -89.900, 0.000, 21.600, 0.000, 0.000, -2.800, 0.0, , , , , , 96, , , 53, 53, 53
38.5569487, -120.5321427, 17.700, 14:47:17.523, 12, 0.00, 0.23, 98, 0.300, 1.000, 22.400, 1424, 100, 100, 27, 24147, -17867, 5269, 5377, 17, 14, 1529531237.523, 38, 0, 1024, 1024, 1024, 1024, 0, 6, 4030, 4025, 3996, 4013, 4054, 4039, 0, 1, 11400, -89.900, 0.000, 21.600, 0.000, 0.000, -2.800, 0.0, , , , , , 96, , , 53, 53, 53
38.5569486, -120.5321425, 18.000, 14:47:17.623, 14, 0.00, 0.22, 98, 0.000, 1.200, 22.400, 1424, 100, 100, 27, 24147, -17867, 5269, 5377, 17, 14, 1529531237.623, 63, 0, 1024, 1024, 1024, 1024, 0, 6, 4030, 4025, 3996, 4013, 4054, 4039, 0, 1, 11500, -89.900, 0.000, 21.600, 0.000, 0.000, -2.800, 0.0, , , , , , 96, , , 53, 53, 53
38.5569485, -120.5321424, 18.300, 14:47:17.723, 14, 0.00, 0.20, 98, -0.100, 1.300, 22.400, 1424, 100, 100, 27, 24147, -17867, 5269, 5377, 17, 14, 1529531237.723, 32, 0, 1024, 1024, 1024, 1024, 0, 6, 4030, 4025, 3996, 4013, 4054, 4039, 0, 1, 11600, -89.900, 0.000, 21.600, 0.000, 0.000, -2.900, 0.0, , , , , , 96, , , 53, 53, 53
38.5569485, -120.5321423, 18.600, 14:47:17.823, 14, 0.00, 0.19, 98, 0.000, 1.300, 22.400, 1424, 100, 100, 27, 24147, -17867, 5269, 5377, 17, 14, 1529531237.823, 28, 0, 1024, 1024, 1024, 1024, 0, 6, 4030, 4025, 3996, 4013, 4054, 4039, 0, 1, 11701, -89.900, 0.000, 21.600, 0.000, 0.000, -2.900, 0.0, , , , , , 96, , , 53, 53, 53
38.5569484, -120.5321422, 18.900, 14:47:17.922, 14, 0.00, 0.18, 98, 0.100, 1.300, 22.400, 1424, 100, 100, 27, 24147, -17867, 5269, 5377, 17, 14, 1529531237.922, 27, 0, 1024, 1024, 1024, 1024, 0, 6, 4030, 4025, 3996, 4013, 4054, 4039, 0, 1, 11800, -89.900, 0.000, 21.600, 0.000, 0.000, -2.900, 0.0, , , , , , 96, , , 53, 53, 53
38.5569483, -120.5321421, 19.200, 14:47:18.022, 14, 0.00, 0.17, 98, 0.000, 1.200, 22.200, 1424, 100, 100, 27, 24147, -17867, 5269, 5377, 17, 14, 1529531238.022, 29, 0, 1024, 1024, 1024, 1024, 0, 6, 4030, 4025, 3996, 4013, 4054, 4039, 0, 1, 11900, -89.900, 0.000, 21.600, 0.000, 0.000, -2.800, 0.0, , , , , , 96, , , 53, 53, 53
38.5569483, -120.5321421, 19.200, 14:47:18.123, 14, 0.00, 0.17, 98, 0.000, 1.200, 22.200, 1424, 100, 100, 27, 24147, -17867, 5269, 5377, 17, 14, 1529531238.123, 129, 0, 1024, 1024, 1024, 1024, 0, 6, 4030, 4025, 3996, 4013, 4054, 4039, 0, 1, 12000, -89.900, 0.000, 21.600, 0.000, 0.000, -2.800, 0.0, , , , , , 96, , , 53, 53, 53
38.5569482, -120.5321419, 19.500, 14:47:18.223, 14, 0.00, 0.15, 98, -0.500, 1.100, 22.100, 1424, 100, 100, 27, 24067, -19940, 5269, 5377, 17, 14, 1529531238.223, 88, 0, 1024, 1024, 1024, 1024, 0, 6, 4030, 4025, 3996, 4013, 4054, 4039, 0, 1, 12100, -89.900, 0.000, 21.600, 0.000, 0.000, -2.800, 0.0, , , , , , 96, , , 53, 53, 53
38.5569480, -120.5321417, 20.100, 14:47:18.326, 13, 0.00, 0.11, 98, -0.700, 1.000, 21.900, 1424, 100, 100, 27, 24067, -19940, 5269, 5377, 17, 14, 1529531238.327, 3, 0, 1024, 1024, 1024, 1024, 0, 6, 4030, 4025, 3996, 4013, 4054, 4039, 0, 1, 12204, -89.900, 0.000, 21.600, 0.000, 0.000, -2.800, 0.0, , , , , , 96, , , 53, 53, 53
38.5569479, -120.5321415, 20.400, 14:47:18.423, 14, 0.00, 0.10, 98, -0.600, 1.000, 22.000, 1424, 100, 97, 27, 24067, -19940, 5269, 5377, 17, 14, 1529531238.423, 15, 0, 1024, 1024, 1024, 1024, 0, 6, 3989, 3983, 3983, 4004, 4040, 4013, 0, 1, 12300, -89.900, 0.000, 21.600, 0.000, 0.000, -2.800, 0.0, , , , , , 96, , , 53, 53, 53
38.5569479, -120.5321415, 20.400, 14:47:18.523, 14, 0.00, 0.10, 98, -0.600, 1.000, 22.000, 1424, 100, 97, 27, 24067, -19940, 5269, 5377, 17, 14, 1529531238.523, 115, 0, 1024, 1024, 1024, 1024, 0, 6, 3989, 3983, 3983, 4004, 4040, 4013, 0, 1, 12400, -89.900, 0.000, 21.600, 0.000, 0.000, -2.800, 0.0, , , , , , 96, , , 53, 53, 53
38.5569478, -120.5321411, 21.000, 14:47:18.623, 13, 0.00, 0.07, 98, -1.100, 1.800, 22.300, 1424, 100, 97, 27, 24067, -19940, 5269, 5377, 17, 14, 1529531238.623, 82, 0, 1024, 1024, 1024, 1024, 0, 6, 3989, 3983, 3983, 4004, 4040, 4013, 0, 1, 12500, -89.900, 0.000, 21.600, 0.000, 0.000, -2.800, 0.0, , , , , , 96, , , 53, 53, 53
38.5569477, -120.5321408, 21.300, 14:47:18.723, 13, 0.00, 0.05, 98, -1.500, 2.100, 22.500, 1424, 100, 97, 27, 24067, -19940, 5269, 5377, 17, 14, 1529531238.723, 97, 0, 1024, 1024, 1024, 1024, 0, 6, 3989, 3983, 3983, 4004, 4040, 4013, 0, 1, 12600, -89.900, 0.000, 21.600, 0.000, 0.000, -2.900, 0.0, , , , , , 96, , , 53, 53, 53
38.5569476, -120.5321406, 21.700, 14:47:18.823, 14, 0.00, 0.05, 98, -2.100, 1.900, 22.600, 1424, 100, 94, 27, 24067, -19940, 5269, 5377, 17, 14, 1529531238.823, 98, 0, 1024, 1024, 1024, 1024, 0, 6, 3989, 3983, 3983, 4004, 4040, 4013, 0, 1, 12700, -89.900, 0.000, 21.600, 0.000, 0.000, -2.900, 0.0, , , , , , 96, , , 53, 53, 53
38.5569476, -120.5321404, 22.000, 14:47:18.923, 14, 0.00, 0.05, 98, -2.400, 1.900, 22.700, 1424, 100, 94, 27, 24067, -19940, 5269, 5377, 17, 14, 1529531238.923, 83, 0, 1024, 1024, 1024, 1024, 0, 6, 3989, 3983, 3983, 4004, 4040, 4013, 0, 1, 12800, -89.900, 0.000, 21.600, 0.000, 0.000, -2.800, 0.0, , , , , , 96, , , 53, 53, 53
38.5569476, -120.5321404, 22.000, 14:47:19.023, 14, 0.00, 0.05, 98, -2.400, 1.900, 22.700, 1424, 100, 94, 27, 24067, -19940, 5269, 5377, 17, 14, 1529531239.023, 183, 0, 1024, 1024, 1024, 1024, 0, 6, 3989, 3983, 3983, 4004, 4040, 4013, 0, 1, 12900, -89.900, 0.000, 21.600, 0.000, 0.000, -2.800, 0.0, , , , , , 96, , , 53, 53, 53
38.5569475, -120.5321401, 22.600, 14:47:19.123, 14, 0.10, 0.07, 98, -2.000, 1.900, 22.600, 1424, 100, 94, 27, 24067, -19940, 5269, 5377, 17, 14, 1529531239.123, 79, 0, 1024, 1024, 1024, 1024, 0, 6, 3989, 3983, 3983, 4004, 4040, 4013, 0, 1, 13000, -89.900, 0.000, 21.600, 0.100, 0.000, -2.800, 0.0, , , , , , 96, , , 53, 53, 53
38.5569475, -120.5321399, 22.900, 14:47:19.223, 14, 0.10, 0.08, 98, -1.900, 2.100, 22.500, 1424, 100, 94, 27, 23932, -19550, 5269, 5377, 17, 14, 1529531239.223, 85, 0, 1024, 1024, 1024, 1024, 0, 6, 3993, 3980, 3977, 3990, 4017, 3997, 0, 1, 13100, -89.900, 0.000, 21.600, 0.100, 0.000, -2.800, 0.0, , , , , , 96, , , 53, 53, 53
38.5569474, -120.5321398, 23.200, 14:47:19.323, 14, 0.10, 0.10, 98, -1.900, 2.300, 22.500, 1424, 100, 93, 27, 23932, -19550, 5269, 5377, 17, 14, 1529531239.323, 52, 0, 1024, 1024, 1024, 1024, 0, 6, 3993, 3980, 3977, 3990, 4017, 3997, 0, 1, 13200, -89.900, 0.000, 21.600, 0.100, 0.000, -2.800, 0.0, , , , , , 96, , , 53, 53, 53
38.5569474, -120.5321396, 23.500, 14:47:19.423, 15, 0.10, 0.11, 98, -1.800, 2.300, 22.500, 1424, 100, 93, 27, 23932, -19550, 5269, 5377, 17, 14, 1529531239.423, 43, 0, 1024, 1024, 1024, 1024, 0, 6, 3993, 3980, 3977, 3990, 4017, 3997, 0, 1, 13300, -89.900, 0.000, 21.600, 0.100, 0.000, -2.800, 0.0, , , , , , 96, , , 53, 53, 53
38.5569473, -120.5321395, 23.800, 14:47:19.523, 15, 0.10, 0.12, 98, -1.800, 2.000, 22.500, 1424, 100, 93, 27, 23932, -19550, 5269, 5377, 17, 14, 1529531239.523, 33, 0, 1024, 1024, 1024, 1024, 0, 6, 3993, 3980, 3977, 3990, 4017, 3997, 0, 1, 13400, -89.900, 0.000, 21.600, 0.100, 0.000, -2.800, 0.0, , , , , , 96, , , 53, 53, 53
38.5569473, -120.5321395, 23.800, 14:47:19.623, 15, 0.10, 0.12, 98, -1.800, 2.000, 22.500, 1424, 100, 93, 27, 23932, -19550, 5269, 5377, 17, 14, 1529531239.623, 133, 0, 1024, 1024, 1024, 1024, 0, 6, 3993, 3980, 3977, 3990, 4017, 3997, 0, 1, 13500, -89.900, 0.000, 21.600, 0.100, 0.000, -2.800, 0.0, , , , , , 96, , , 53, 53, 53
38.5569471, -120.5321392, 24.300, 14:47:19.723, 15, 0.10, 0.14, 98, -2.100, 1.700, 22.600, 1424, 100, 93, 27, 23932, -19550, 5269, 5377, 17, 14, 1529531239.723, 45, 0, 1024, 1024, 1024, 1024, 0, 6, 3993, 3980, 3977, 3990, 4017, 3997, 0, 1, 13600, -89.900, 0.000, 21.600, 0.100, 0.000, -2.800, 0.0, , , , , , 96, , , 53, 53, 53
38.5569471, -120.5321391, 24.600, 14:47:19.823, 15, 0.10, 0.15, 98, -2.100, 1.500, 22.600, 1424, 100, 94, 27, 23932, -19550, 5269, 5377, 17, 14, 1529531239.823, 29, 0, 1024, 1024, 1024, 1024, 0, 6, 3993, 3980, 3977, 3990, 4017, 3997, 0, 1, 13700, -89.900, 0.000, 21.600, 0.100, 0.000, -2.800, 0.0, , , , , , 96, , , 53, 53, 53
38.5569471, -120.5321390, 24.900, 14:47:19.923, 15, 0.10, 0.16, 98, -2.000, 1.300, 22.500, 1424, 100, 94, 27, 23932, -19550, 5269, 5377, 17, 14, 1529531239.923, 8, 0, 1024, 1024, 1024, 1024, 0, 6, 3993, 3980, 3977, 3990, 4017, 3997, 0, 1, 13801, -89.900, 0.000, 21.600, 0.100, 0.000, -2.800, 0.0, , , , , , 96, , , 53, 53, 53
38.5569470, -120.5321389, 25.200, 14:47:20.023, 15, 0.10, 0.17, 98, -1.800, 1.400, 22.400, 1424, 100, 94, 27, 23932, -19550, 5269, 5377, 17, 14, 1529531240.023, 13, 0, 1024, 1024, 1024, 1024, 0, 6, 3993, 3980, 3977, 3990, 4017, 3997, 0, 1, 13900, -89.900, 0.000, 21.600, 0.100, 0.000, -2.700, 0.0, , , , , , 96, , , 53, 53, 53
38.5569470, -120.5321388, 25.500, 14:47:20.123, 15, 0.10, 0.18, 98, -2.000, 2.000, 22.400, 1424, 100, 94, 27, 23932, -19550, 5269, 5377, 17, 14, 1529531240.123, 9, 0, 1024, 1024, 1024, 1024, 0, 6, 3993, 3980, 3977, 3990, 4017, 3997, 0, 1, 14001, -89.900, 0.000, 21.600, 0.100, 0.000, -2.700, 0.0, , , , , , 96, , , 53, 53, 53
38.5569469, -120.5321387, 25.800, 14:47:20.223, 15, 0.10, 0.19, 98, -2.200, 2.100, 22.500, 1424, 100, 94, 27, 23932, -19550, 5269, 5377, 17, 14, 1529531240.223, 16, 0, 1024, 1024, 1024, 1024, 0, 6, 3993, 3980, 3977, 3990, 4017, 3997, 0, 1, 14100, -89.900, 0.000, 21.600, 0.100, 0.000, -2.800, 0.0, , , , , , 96, , , 53, 53, 53
38.5569469, -120.5321385, 26.400, 14:47:20.322, 15, 0.10, 0.21, 98, -2.200, 2.100, 22.700, 1424, 100, 95, 27, 23932, -19550, 5269, 5377, 17, 14, 1529531240.322, 14, 0, 1024, 1024, 1024, 1024, 0, 6, 3993, 3980, 3977, 3990, 4017, 3997, 0, 1, 14199, -89.900, 0.000, 21.600, 0.100, 0.000, -2.800, 0.0, , , , , , 96, , , 53, 53, 53
38.5569469, -120.5321385, 26.700, 14:47:20.422, 15, 0.10, 0.21, 98, -2.400, 2.000, 22.700, 1424, 100, 95, 27, 23932, -19550, 5269, 5377, 17, 14, 1529531240.422, 11, 0, 1024, 1024, 1024, 1024, 0, 6, 3993, 3980, 3977, 3990, 4017, 3997, 0, 1, 14299, -89.900, 0.000, 21.600, 0.100, 0.000, -2.900, 0.0, , , , , , 96, , , 53, 53, 53
38.5569469, -120.5321385, 27.000, 14:47:20.523, 15, 0.10, 0.21, 98, -2.300, 2.100, 22.700, 1424, 100, 95, 27, 23932, -19550, 5269, 5377, 17, 14, 1529531240.523, 6, 0, 1024, 1024, 1024, 1024, 0, 6, 3993, 3980, 3977, 3990, 4017, 3997, 0, 1, 14400, -89.900, 0.000, 21.600, 0.100, 0.000, -2.900, 0.0, , , , , , 96, , , 53, 53, 53
38.5569469, -120.5321385, 27.000, 14:47:20.623, 15, 0.10, 0.21, 98, -2.300, 2.100, 22.700, 1424, 100, 95, 27, 23932, -19550, 5269, 5377, 17, 14, 1529531240.623, 106, 0, 1024, 1024, 1024, 1024, 0, 6, 3993, 3980, 3977, 3990, 4017, 3997, 0, 1, 14500, -89.900, 0.000, 21.600, 0.100, 0.000, -2.900, 0.0, , , , , , 96, , , 53, 53, 53
38.5569469, -120.5321385, 27.600, 14:47:20.729, 15, 0.14, 0.21, 98, -1.600, 2.000, 22.400, 1424, 100, 95, 27, 23900, -19467, 5269, 5377, 17, 14, 1529531240.729, 5, 0, 1024, 1024, 1024, 1024, 0, 6, 3984, 3969, 3963, 3979, 4006, 3997, 0, 1, 14607, -89.900, 0.000, 21.600, 0.100, -0.100, -2.800, 0.0, , , , , , 96, , , 53, 53, 53
38.5569469, -120.5321385, 27.600, 14:47:20.822, 15, 0.14, 0.21, 98, -1.600, 2.000, 22.400, 1424, 100, 95, 27, 23900, -19467, 5269, 5377, 17, 14, 1529531240.823, 98, 0, 1024, 1024, 1024, 1024, 0, 6, 3984, 3969, 3963, 3979, 4006, 3997, 0, 1, 14700, -89.900, 0.000, 21.600, 0.100, -0.100, -2.800, 0.0, , , , , , 96, , , 53, 53, 53
38.5569468, -120.5321385, 27.900, 14:47:20.923, 15, 0.14, 0.21, 98, -1.600, 2.000, 22.300, 1424, 100, 95, 27, 23900, -19467, 5269, 5377, 17, 14, 1529531240.923, 90, 0, 1024, 1024, 1024, 1024, 0, 6, 3984, 3969, 3963, 3979, 4006, 3997, 0, 1, 14800, -89.900, 0.000, 21.600, 0.100, -0.100, -2.900, 0.0, , , , , , 96, , , 53, 53, 53
38.5569468, -120.5321385, 28.200, 14:47:21.022, 15, 0.14, 0.21, 98, -1.700, 1.900, 22.300, 1424, 100, 95, 27, 23900, -19467, 5269, 5377, 17, 14, 1529531241.023, 79, 0, 1024, 1024, 1024, 1024, 0, 6, 3984, 3969, 3963, 3979, 4006, 3997, 0, 1, 14900, -89.900, 0.000, 21.600, 0.100, -0.100, -2.900, 0.0, , , , , , 96, , , 53, 53, 53
38.5569468, -120.5321384, 28.500, 14:47:21.122, 15, 0.10, 0.21, 98, -1.800, 1.900, 22.300, 1424, 100, 95, 27, 23900, -19467, 5269, 5377, 17, 14, 1529531241.123, 81, 0, 1024, 1024, 1024, 1024, 0, 6, 3984, 3969, 3963, 3979, 4006, 3997, 0, 1, 15000, -89.900, 0.000, 21.600, 0.100, 0.000, -2.800, 0.0, , , , , , 96, , , 53, 53, 53
38.5569467, -120.5321384, 28.800, 14:47:21.222, 15, 0.10, 0.22, 98, -2.100, 1.800, 22.400, 1424, 100, 95, 27, 23780, -21065, 5269, 5377, 17, 14, 1529531241.223, 77, 0, 1024, 1024, 1024, 1024, 0, 6, 3965, 3958, 3932, 3961, 3998, 3972, 0, 1, 15100, -89.900, 0.000, 21.600, 0.100, 0.000, -2.900, 0.0, , , , , , 96, , , 53, 53, 53
38.5569468, -120.5321384, 29.100, 14:47:21.322, 15, 0.10, 0.22, 98, -2.300, 2.100, 22.500, 1424, 100, 98, 27, 23780, -21065, 5269, 5377, 17, 14, 1529531241.323, 82, 0, 1024, 1024, 1024, 1024, 0, 6, 3965, 3958, 3932, 3961, 3998, 3972, 0, 1, 15200, -89.900, 0.000, 21.600, 0.100, 0.000, -2.800, 0.0, , , , , , 96, , , 53, 53, 53
38.5569468, -120.5321384, 29.400, 14:47:21.422, 15, 0.10, 0.22, 98, -2.400, 2.400, 22.600, 1424, 100, 98, 27, 23780, -21065, 5269, 5377, 17, 14, 1529531241.423, 84, 0, 1024, 1024, 1024, 1024, 0, 6, 3965, 3958, 3932, 3961, 3998, 3972, 0, 1, 15300, -89.900, 0.000, 21.600, 0.100, 0.000, -2.900, 0.0, , , , , , 96, , , 53, 53, 53
38.5569468, -120.5321383, 29.700, 14:47:21.522, 15, 0.10, 0.22, 98, -2.300, 2.600, 22.600, 1424, 100, 98, 27, 23780, -21065, 5269, 5377, 17, 14, 1529531241.522, 64, 0, 1024, 1024, 1024, 1024, 0, 6, 3965, 3958, 3932, 3961, 3998, 3972, 0, 1, 15399, -89.900, 0.000, 21.600, 0.100, 0.000, -2.900, 0.0, , , , , , 96, , , 53, 53, 53
38.5569468, -120.5321383, 30.000, 14:47:21.622, 15, 0.10, 0.23, 98, -2.300, 2.500, 22.700, 1424, 100, 98, 27, 23780, -21065, 5269, 5377, 17, 14, 1529531241.623, 68, 0, 1024, 1024, 1024, 1024, 0, 6, 3965, 3958, 3932, 3961, 3998, 3972, 0, 1, 15500, -89.900, 0.000, 21.600, 0.100, 0.000, -2.900, 0.0, , , , , , 96, , , 53, 53, 53
38.5569467, -120.5321383, 30.300, 14:47:21.722, 15, 0.10, 0.23, 98, -2.400, 2.400, 22.700, 1424, 100, 98, 27, 23780, -21065, 5269, 5377, 17, 14, 1529531241.723, 74, 0, 1024, 1024, 1024, 1024, 0, 6, 3965, 3958, 3932, 3961, 3998, 3972, 0, 1, 15600, -89.900, 0.000, 21.600, 0.100, 0.000, -2.900, 0.0, , , , , , 96, , , 53, 53, 53
38.5569467, -120.5321383, 30.600, 14:47:21.822, 15, 0.10, 0.23, 98, -2.600, 2.400, 22.700, 1424, 100, 99, 27, 23780, -21065, 5269, 5377, 17, 14, 1529531241.823, 28, 0, 1024, 1024, 1024, 1024, 0, 6, 3965, 3958, 3932, 3961, 3998, 3972, 0, 1, 15700, -89.900, 0.000, 21.600, 0.100, 0.000, -2.900, 0.0, , , , , , 96, , , 53, 53, 53
38.5569467, -120.5321382, 30.900, 14:47:21.922, 15, 0.10, 0.23, 98, -2.600, 2.500, 22.700, 1424, 100, 99, 27, 23780, -21065, 5269, 5377, 17, 14, 1529531241.923, 55, 0, 1024, 1024, 1024, 1024, 0, 6, 3965, 3958, 3932, 3961, 3998, 3972, 0, 1, 15800, -89.900, 0.000, 21.600, 0.100, 0.000, -2.900, 0.0, , , , , , 96, , , 53, 53, 53
38.5569467, -120.5321383, 31.200, 14:47:22.022, 15, 0.14, 0.23, 98, -2.300, 2.400, 22.700, 1424, 100, 99, 27, 23780, -21065, 5269, 5377, 17, 14, 1529531242.023, 44, 0, 1024, 1024, 1024, 1024, 0, 6, 3965, 3958, 3932, 3961, 3998, 3972, 0, 1, 15900, -89.900, 0.000, 21.600, 0.100, -0.100, -2.900, 0.0, , , , , , 96, , , 53, 53, 53
38.5569467, -120.5321383, 31.500, 14:47:22.122, 15, 0.14, 0.22, 98, -2.100, 2.200, 22.600, 1424, 100, 99, 27, 23780, -21065, 5269, 5377, 17, 14, 1529531242.123, 46, 0, 1024, 1024, 1024, 1024, 0, 6, 3965, 3958, 3932, 3961, 3998, 3972, 0, 1, 16000, -89.900, 0.000, 21.600, 0.100, -0.100, -2.900, 0.0, , , , , , 96, , , 53, 53, 53
38.5569467, -120.5321384, 31.800, 14:47:22.222, 15, 0.14, 0.22, 98, -1.900, 2.300, 22.400, 1424, 100, 99, 27, 23771, -20505, 5269, 5377, 17, 14, 1529531242.223, 39, 0, 1024, 1024, 1024, 1024, 0, 6, 3965, 3958, 3932, 3961, 3998, 3972, 0, 1, 16100, -89.900, 0.000, 21.600, 0.100, -0.100, -2.800, 0.0, , , , , , 96, , , 53, 53, 53
38.5569468, -120.5321385, 32.100, 14:47:22.322, 15, 0.22, 0.21, 98, -1.900, 2.400, 22.400, 1424, 100, 100, 27, 23771, -20505, 5269, 5377, 17, 14, 1529531242.323, 39, 0, 1024, 1024, 1024, 1024, 0, 6, 3965, 3958, 3932, 3961, 3998, 3972, 0, 1, 16200, -89.900, 0.000, 21.600, 0.200, -0.100, -2.900, 0.0, , , , , , 96, , , 53, 53, 53
38.5569468, -120.5321386, 32.400, 14:47:22.422, 15, 0.22, 0.20, 98, -1.900, 2.800, 22.500, 1424, 100, 100, 27, 23771, -20505, 5269, 5377, 17, 14, 1529531242.423, 42, 0, 1024, 1024, 1024, 1024, 0, 6, 3965, 3958, 3932, 3961, 3998, 3972, 0, 1, 16300, -89.900, 0.000, 21.600, 0.200, -0.100, -2.900, 0.0, , , , , , 96, , , 53, 53, 53
38.5569468, -120.5321386, 32.700, 14:47:22.522, 15, 0.22, 0.20, 98, -1.900, 2.900, 22.700, 1424, 100, 100, 27, 23771, -20505, 5269, 5377, 17, 14, 1529531242.522, 23, 0, 1024, 1024, 1024, 1024, 0, 6, 3965, 3958, 3932, 3961, 3998, 3972, 0, 1, 16399, -89.900, 0.000, 21.600, 0.200, -0.100, -2.900, 0.0, , , , , , 96, , , 53, 53, 53
38.5569469, -120.5321386, 33.000, 14:47:22.622, 15, 0.22, 0.19, 98, -2.000, 2.900, 22.800, 1424, 100, 100, 27, 23771, -20505, 5269, 5377, 17, 14, 1529531242.623, 25, 0, 1024, 1024, 1024, 1024, 0, 6, 3965, 3958, 3932, 3961, 3998, 3972, 0, 1, 16500, -89.900, 0.000, 21.600, 0.200, -0.100, -2.800, 0.0, , , , , , 96, , , 53, 53, 53
38.5569469, -120.5321387, 33.300, 14:47:22.722, 15, 0.22, 0.19, 98, -1.700, 3.100, 22.900, 1424, 100, 100, 27, 23771, -20505, 5269, 5377, 17, 14, 1529531242.723, 17, 0, 1024, 1024, 1024, 1024, 0, 6, 3964, 3957, 3927, 3959, 3987, 3970, 0, 1, 16600, -89.900, 0.000, 21.600, 0.200, -0.100, -2.800, 0.0, , , , , , 96, , , 53, 53, 53
38.5569469, -120.5321387, 33.300, 14:47:22.822, 15, 0.22, 0.19, 98, -1.700, 3.100, 22.900, 1424, 100, 100, 27, 23771, -20505, 5269, 5377, 17, 14, 1529531242.823, 116, 0, 1024, 1024, 1024, 1024, 0, 6, 3964, 3957, 3927, 3959, 3987, 3970, 0, 1, 16700, -89.900, 0.000, 21.600, 0.200, -0.100, -2.800, 0.0, , , , , , 96, , , 53, 53, 53
38.5569470, -120.5321387, 34.100, 14:47:22.922, 15, 0.22, 0.18, 98, -1.700, 2.900, 23.000, 1424, 100, 99, 27, 23771, -20505, 5269, 5377, 17, 14, 1529531242.923, 13, 0, 1024, 1024, 1024, 1024, 0, 6, 3964, 3957, 3927, 3959, 3987, 3970, 0, 1, 16800, -89.900, 0.000, 21.600, 0.200, -0.100, -2.800, 0.0, , , , , , 96, , , 53, 53, 53
38.5569470, -120.5321388, 34.400, 14:47:23.022, 15, 0.22, 0.18, 98, -1.900, 2.800, 22.800, 1424, 100, 99, 27, 23771, -20505, 5269, 5377, 17, 14, 1529531243.023, 5, 0, 1024, 1024, 1024, 1024, 0, 6, 3964, 3957, 3927, 3959, 3987, 3970, 0, 1, 16900, -89.900, 0.000, 21.600, 0.200, -0.100, -2.800, 0.0, , , , , , 96, , , 53, 53, 53
38.5569470, -120.5321388, 34.400, 14:47:23.122, 15, 0.22, 0.18, 98, -1.900, 2.800, 22.800, 1424, 100, 99, 27, 23771, -20505, 5269, 5377, 17, 14, 1529531243.123, 105, 0, 1024, 1024, 1024, 1024, 0, 6, 3964, 3957, 3927, 3959, 3987, 3970, 0, 1, 17000, -89.900, 0.000, 21.600, 0.200, -0.100, -2.800, 0.0, , , , , , 96, , , 53, 53, 53
38.5569470, -120.5321389, 34.700, 14:47:23.222, 15, 0.22, 0.17, 98, -1.800, 2.900, 22.700, 1424, 100, 99, 27, 23771, -20505, 5269, 5377, 17, 14, 1529531243.223, 95, 0, 1024, 1024, 1024, 1024, 0, 6, 3964, 3957, 3927, 3959, 3987, 3970, 0, 1, 17100, -89.900, 0.000, 21.600, 0.200, -0.100, -2.900, 0.0, , , , , , 96, , , 53, 53, 53
38.5569471, -120.5321389, 35.000, 14:47:23.322, 15, 0.22, 0.17, 98, -1.500, 3.200, 22.500, 1424, 100, 95, 27, 23771, -20505, 5269, 5377, 17, 14, 1529531243.323, 98, 0, 1024, 1024, 1024, 1024, 0, 6, 3964, 3957, 3927, 3959, 3987, 3970, 0, 1, 17200, -89.900, 0.000, 21.600, 0.200, -0.100, -2.900, 0.0, , , , , , 96, , , 53, 53, 53
38.5569471, -120.5321390, 35.300, 14:47:23.422, 15, 0.22, 0.16, 98, -1.100, 3.200, 22.400, 1424, 100, 95, 27, 23771, -20505, 5269, 5377, 17, 14, 1529531243.423, 95, 0, 1024, 1024, 1024, 1024, 0, 6, 3964, 3957, 3927, 3959, 3987, 3970, 0, 1, 17300, -89.900, 0.000, 21.600, 0.200, -0.100, -2.900, 0.0, , , , , , 96, , , 53, 53, 53
38.5569471, -120.5321391, 35.600, 14:47:23.522, 15, 0.22, 0.15, 98, -0.800, 3.200, 22.300, 1424, 100, 95, 27, 23771, -20505, 5269, 5377, 17, 14, 1529531243.523, 71, 0, 1024, 1024, 1024, 1024, 0, 6, 3964, 3957, 3927, 3959, 3987, 3970, 0, 1, 17400, -89.900, 0.000, 21.600, 0.200, -0.100, -2.900, 0.0, , , , , , 96, , , 53, 53, 53
38.5569471, -120.5321392, 35.900, 14:47:23.622, 15, 0.14, 0.15, 98, -0.800, 3.000, 22.300, 1424, 100, 95, 27, 23771, -20505, 5269, 5377, 17, 14, 1529531243.622, 64, 0, 1024, 1024, 1024, 1024, 0, 6, 3964, 3957, 3927, 3959, 3987, 3970, 0, 1, 17500, -89.900, 0.000, 21.600, 0.100, -0.100, -2.800, 0.0, , , , , , 96, , , 53, 53, 53
38.5569470, -120.5321392, 36.200, 14:47:23.722, 15, 0.14, 0.14, 98, -1.000, 2.700, 22.400, 1424, 100, 95, 27, 23794, -20095, 5269, 5377, 17, 14, 1529531243.723, 64, 0, 1024, 1024, 1024, 1024, 0, 6, 3974, 3956, 3935, 3959, 3996, 3969, 0, 1, 17600, -90.000, 0.000, 21.600, 0.100, -0.100, -2.900, 0.0, , , , , , 96, , , 53, 53, 53
38.5569470, -120.5321393, 36.500, 14:47:23.822, 15, 0.14, 0.14, 98, -1.300, 2.500, 22.400, 1424, 100, 95, 27, 23794, -20095, 5269, 5377, 17, 14, 1529531243.823, 48, 0, 1024, 1024, 1024, 1024, 0, 6, 3974, 3956, 3935, 3959, 3996, 3969, 0, 1, 17700, -89.900, 0.000, 21.600, 0.100, -0.100, -2.900, 0.0, , , , , , 96, , , 53, 53, 53
38.5569470, -120.5321393, 36.500, 14:47:23.922, 15, 0.14, 0.14, 98, -1.300, 2.500, 22.400, 1424, 100, 95, 27, 23794, -20095, 5269, 5377, 17, 14, 1529531243.923, 148, 0, 1024, 1024, 1024, 1024, 0, 6, 3974, 3956, 3935, 3959, 3996, 3969, 0, 1, 17800, -89.900, 0.000, 21.600, 0.100, -0.100, -2.900, 0.0, , , , , , 96, , , 53, 53, 53
38.5569470, -120.5321394, 37.200, 14:47:24.022, 15, 0.14, 0.13, 98, -1.600, 2.400, 22.400, 1424, 100, 95, 27, 23794, -20095, 5269, 5377, 17, 14, 1529531244.022, 64, 0, 1024, 1024, 1024, 1024, 0, 6, 3974, 3956, 3935, 3959, 3996, 3969, 0, 1, 17900, -90.000, 0.000, 21.600, 0.100, -0.100, -2.900, 0.0, , , , , , 96, , , 53, 53, 53
38.5569470, -120.5321394, 37.500, 14:47:24.122, 15, 0.14, 0.12, 98, -1.600, 2.500, 22.400, 1424, 100, 95, 27, 23794, -20095, 5269, 5377, 17, 14, 1529531244.123, 64, 0, 1024, 1024, 1024, 1024, 0, 6, 3974, 3956, 3935, 3959, 3996, 3969, 0, 1, 18000, -89.900, 0.000, 21.600, 0.100, -0.100, -2.900, 0.0, , , , , , 96, , , 53, 53, 53
38.5569469, -120.5321395, 37.800, 14:47:24.221, 15, 0.14, 0.12, 98, -1.500, 2.400, 22.300, 1424, 100, 95, 27, 23794, -20095, 5269, 5377, 17, 14, 1529531244.222, 56, 0, 1024, 1024, 1024, 1024, 0, 6, 3974, 3956, 3935, 3959, 3996, 3969, 0, 1, 18099, -89.900, 0.000, 21.600, 0.100, -0.100, -2.900, 0.0, , , , , , 96, , , 53, 53, 53
38.5569469, -120.5321396, 38.100, 14:47:24.322, 15, 0.14, 0.11, 98, -1.300, 2.500, 22.400, 1424, 100, 96, 27, 23794, -20095, 5269, 5377, 17, 14, 1529531244.322, 39, 0, 1024, 1024, 1024, 1024, 0, 6, 3974, 3956, 3935, 3959, 3996, 3969, 0, 1, 18200, -89.900, 0.000, 21.600, 0.100, -0.100, -2.900, 0.0, , , , , , 96, , , 53, 53, 53
38.5569469, -120.5321397, 38.400, 14:47:24.422, 15, 0.14, 0.11, 98, -0.900, 2.500, 22.400, 1424, 100, 96, 27, 23794, -20095, 5269, 5377, 17, 14, 1529531244.422, 46, 0, 1024, 1024, 1024, 1024, 0, 6, 3974, 3956, 3935, 3959, 3996, 3969, 0, 1, 18300, -89.900, 0.000, 21.600, 0.100, -0.100, -2.900, 0.0, , , , , , 96, , , 53, 53, 53
38.5569469, -120.5321397, 38.400, 14:47:24.522, 15, 0.14, 0.11, 98, -0.900, 2.500, 22.400, 1424, 100, 96, 27, 23794, -20095, 5269, 5377, 17, 14, 1529531244.523, 146, 0, 1024, 1024, 1024, 1024, 0, 6, 3974, 3956, 3935, 3959, 3996, 3969, 0, 1, 18400, -89.900, 0.000, 21.600, 0.100, -0.100, -2.900, 0.0, , , , , , 96, , , 53, 53, 53
38.5569468, -120.5321398, 39.000, 14:47:24.622, 15, 0.14, 0.10, 98, -0.500, 2.400, 22.500, 1424, 100, 96, 27, 23794, -20095, 5269, 5377, 17, 14, 1529531244.623, 27, 0, 1024, 1024, 1024, 1024, 0, 6, 3974, 3956, 3935, 3959, 3996, 3969, 0, 1, 18500, -89.900, 0.000, 21.600, 0.100, -0.100, -3.000, 0.0, , , , , , 96, , , 53, 53, 53
38.5569468, -120.5321399, 39.300, 14:47:24.722, 15, 0.14, 0.09, 98, -0.700, 2.500, 22.600, 1424, 100, 96, 28, 23739, -20503, 5269, 5377, 17, 14, 1529531244.723, 18, 0, 1024, 1024, 1024, 1024, 0, 6, 3955, 3949, 3924, 3953, 3992, 3960, 0, 1, 18600, -89.900, 0.000, 21.600, 0.100, -0.100, -3.000, 0.0, , , , , , 96, , , 53, 53, 53
38.5569467, -120.5321400, 39.600, 14:47:24.822, 15, 0.14, 0.09, 98, -0.700, 2.300, 22.600, 1424, 100, 98, 28, 23739, -20503, 5269, 5377, 17, 14, 1529531244.823, 22, 0, 1024, 1024, 1024, 1024, 0, 6, 3955, 3949, 3924, 3953, 3992, 3960, 0, 1, 18700, -90.000, 0.000, 21.600, 0.100, -0.100, -2.900, 0.0, , , , , , 96, , , 53, 53, 53
38.5569467, -120.5321400, 39.900, 14:47:24.922, 15, 0.14, 0.09, 98, -0.700, 1.900, 22.500, 1424, 100, 98, 28, 23739, -20503, 5269, 5377, 17, 14, 1529531244.923, 4, 0, 1024, 1024, 1024, 1024, 0, 6, 3955, 3949, 3924, 3953, 3992, 3960, 0, 1, 18800, -90.000, 0.000, 21.600, 0.100, -0.100, -2.900, 0.0, , , , , , 96, , , 53, 53, 53
38.5569466, -120.5321401, 40.200, 14:47:25.022, 15, 0.14, 0.09, 98, -0.700, 1.700, 22.500, 1424, 100, 98, 28, 23739, -20503, 5269, 5377, 17, 14, 1529531245.022, 6, 0, 1024, 1024, 1024, 1024, 0, 6, 3955, 3949, 3924, 3953, 3992, 3960, 0, 1, 18899, -90.000, 0.000, 21.600, 0.100, -0.100, -2.800, 0.0, , , , , , 96, , , 53, 53, 53
38.5569466, -120.5321401, 40.200, 14:47:25.122, 15, 0.14, 0.09, 98, -0.700, 1.700, 22.500, 1424, 100, 98, 28, 23739, -20503, 5269, 5377, 17, 14, 1529531245.123, 107, 0, 1024, 1024, 1024, 1024, 0, 6, 3955, 3949, 3924, 3953, 3992, 3960, 0, 1, 19000, -90.000, 0.000, 21.600, 0.100, -0.100, -2.800, 0.0, , , , , , 96, , , 53, 53, 53
38.5569464, -120.5321402, 40.800, 14:47:25.222, 15, 0.14, 0.10, 98, -0.300, 1.100, 22.300, 1424, 100, 98, 28, 23739, -20503, 5269, 5377, 17, 14, 1529531245.223, 79, 0, 1024, 1024, 1024, 1024, 0, 6, 3955, 3949, 3924, 3953, 3992, 3960, 0, 1, 19100, -90.000, 0.000, 21.600, 0.100, -0.100, -2.900, 0.0, , , , , , 96, , , 53, 53, 53
38.5569464, -120.5321402, 40.800, 14:47:25.322, 15, 0.14, 0.10, 98, -0.300, 1.100, 22.300, 1424, 100, 98, 28, 23739, -20503, 5269, 5377, 17, 14, 1529531245.323, 179, 0, 1024, 1024, 1024, 1024, 0, 6, 3955, 3949, 3924, 3953, 3992, 3960, 0, 1, 19200, -90.000, 0.000, 21.600, 0.100, -0.100, -2.900, 0.0, , , , , , 96, , , 53, 53, 53
38.5569462, -120.5321403, 41.500, 14:47:25.422, 15, 0.10, 0.12, 98, -1.200, 0.600, 22.500, 1424, 100, 99, 28, 23739, -20503, 5269, 5377, 17, 14, 1529531245.423, 86, 0, 1024, 1024, 1024, 1024, 0, 6, 3955, 3949, 3924, 3953, 3992, 3960, 0, 1, 19300, -89.900, 0.000, 21.600, 0.100, 0.000, -3.000, 0.0, , , , , , 96, , , 53, 53, 53
38.5569460, -120.5321403, 41.800, 14:47:25.522, 15, 0.10, 0.14, 98, -1.400, 0.400, 22.600, 1424, 100, 99, 28, 23739, -20503, 5269, 5377, 17, 14, 1529531245.523, 89, 0, 1024, 1024, 1024, 1024, 0, 6, 3955, 3949, 3924, 3953, 3992, 3960, 0, 1, 19400, -89.900, 0.000, 21.600, 0.100, 0.000, -2.900, 0.0, , , , , , 96, , , 53, 53, 53
38.5569459, -120.5321403, 42.100, 14:47:25.622, 15, 0.00, 0.15, 98, -1.600, 0.300, 22.700, 1424, 100, 99, 28, 23739, -20503, 5269, 5377, 17, 14, 1529531245.623, 93, 0, 1024, 1024, 1024, 1024, 0, 6, 3955, 3949, 3924, 3953, 3992, 3960, 0, 1, 19500, -89.900, 0.000, 21.600, 0.000, 0.000, -2.900, 0.0, , , , , , 96, , , 53, 53, 53
38.5569458, -120.5321403, 42.400, 14:47:25.722, 15, 0.10, 0.16, 98, -1.800, 0.100, 22.900, 1424, 100, 99, 28, 23808, -19444, 5215, 5377, 17, 14, 1529531245.723, 95, 0, 1024, 1024, 1024, 1024, 0, 6, 3965, 3953, 3947, 3966, 4004, 3981, 0, 1, 19600, -89.900, 0.000, 21.600, 0.100, 0.000, -2.900, 0.0, , , , , , 96, , , 53, 53, 53
38.5569457, -120.5321403, 42.700, 14:47:25.822, 15, 0.10, 0.17, 98, -1.900, 0.000, 23.000, 1424, 100, 99, 28, 23808, -19444, 5215, 5377, 17, 14, 1529531245.823, 84, 0, 1024, 1024, 1024, 1024, 0, 6, 3965, 3953, 3947, 3966, 4004, 3981, 0, 1, 19700, -89.900, 0.000, 21.600, 0.100, 0.000, -2.800, 0.0, , , , , , 96, , , 53, 53, 53
38.5569456, -120.5321403, 43.000, 14:47:25.922, 15, 0.10, 0.18, 98, -1.900, 0.000, 23.000, 1424, 100, 99, 28, 23808, -19444, 5215, 5377, 17, 14, 1529531245.923, 85, 0, 1024, 1024, 1024, 1024, 0, 6, 3965, 3953, 3947, 3966, 4004, 3981, 0, 1, 19800, -89.900, 0.000, 21.600, 0.100, 0.000, -2.800, 0.0, , , , , , 96, , , 53, 53, 53
38.5569455, -120.5321403, 43.300, 14:47:26.022, 15, 0.10, 0.20, 98, -2.200, 0.000, 22.900, 1424, 100, 99, 28, 23808, -19444, 5215, 5377, 17, 14, 1529531246.023, 82, 0, 1024, 1024, 1024, 1024, 0, 6, 3965, 3953, 3947, 3966, 4004, 3981, 0, 1, 19900, -89.900, 0.000, 21.600, 0.100, 0.000, -2.700, 0.0, , , , , , 96, , , 53, 53, 53
38.5569454, -120.5321403, 43.600, 14:47:26.122, 15, 0.10, 0.20, 98, -2.000, 0.200, 22.700, 1424, 100, 99, 28, 23808, -19444, 5215, 5377, 17, 14, 1529531246.122, 67, 0, 1024, 1024, 1024, 1024, 0, 6, 3965, 3953, 3947, 3966, 4004, 3981, 0, 1, 20000, -89.900, 0.000, 21.600, 0.100, 0.000, -2.700, 0.0, , , , , , 96, , , 53, 53, 53
38.5569454, -120.5321403, 43.900, 14:47:26.222, 15, 0.10, 0.21, 98, -1.600, 0.300, 22.600, 1424, 100, 99, 28, 23808, -19444, 5215, 5377, 17, 14, 1529531246.222, 72, 0, 1024, 1024, 1024, 1024, 0, 6, 3965, 3953, 3947, 3966, 4004, 3981, 0, 1, 20100, -89.900, 0.000, 21.600, 0.100, 0.000, -2.700, 0.0, , , , , , 96, , , 53, 53, 53
38.5569453, -120.5321402, 44.200, 14:47:26.322, 15, 0.10, 0.22, 98, -1.400, 0.400, 22.300, 1424, 100, 97, 28, 23808, -19444, 5215, 5377, 17, 14, 1529531246.322, 81, 0, 1024, 1024, 1024, 1024, 0, 6, 3965, 3953, 3947, 3966, 4004, 3981, 0, 1, 20200, -89.900, 0.000, 21.600, 0.100, 0.000, -2.800, 0.0, , , , , , 96, , , 53, 53, 53
38.5569452, -120.5321400, 44.500, 14:47:26.422, 15, 0.10, 0.23, 98, -2.100, 0.700, 22.100, 1424, 100, 97, 28, 23808, -19444, 5215, 5377, 17, 14, 1529531246.422, 64, 0, 1024, 1024, 1024, 1024, 0, 6, 3965, 3953, 3947, 3966, 4004, 3981, 0, 1, 20300, -89.900, 0.000, 21.600, 0.100, 0.000, -2.800, 0.0, , , , , , 96, , , 53, 53, 53
38.5569451, -120.5321399, 44.800, 14:47:26.522, 15, 0.10, 0.25, 98, -3.200, 1.100, 22.000, 1424, 100, 97, 28, 23808, -19444, 5215, 5377, 17, 14, 1529531246.522, 57, 0, 1024, 1024, 1024, 1024, 0, 6, 3965, 3953, 3947, 3966, 4004, 3981, 0, 1, 20400, -89.900, 0.000, 21.600, 0.100, 0.000, -2.800, 0.0, , , , , , 96, , , 53, 53, 53
38.5569451, -120.5321397, 45.100, 14:47:26.622, 15, 0.10, 0.26, 98, -4.100, 1.400, 21.900, 1424, 100, 97, 28, 23808, -19444, 5215, 5377, 17, 14, 1529531246.622, 74, 0, 1024, 1024, 1024, 1024, 0, 6, 3965, 3953, 3947, 3966, 4004, 3981, 0, 1, 20500, -89.900, 0.000, 21.600, 0.100, 0.000, -2.700, 0.0, , , , , , 96, , , 53, 53, 53
38.5569450, -120.5321396, 45.400, 14:47:26.722, 15, 0.10, 0.27, 97, -4.500, 1.600, 22.000, 1424, 100, 97, 28, 23842, -18928, 5215, 5377, 17, 14, 1529531246.722, 53, 0, 1024, 1024, 1024, 1024, 0, 6, 3971, 3963, 3948, 3968, 4002, 3983, 0, 1, 20599, -89.900, 0.000, 21.600, 0.100, 0.000, -2.700, 0.0, , , , , , 96, , , 53, 53, 53
38.5569450, -120.5321394, 45.700, 14:47:26.822, 15, 0.10, 0.27, 97, -4.800, 1.400, 22.200, 1424, 100, 98, 28, 23842, -18928, 5215, 5377, 17, 14, 1529531246.822, 60, 0, 1024, 1024, 1024, 1024, 0, 6, 3971, 3963, 3948, 3968, 4002, 3983, 0, 1, 20699, -89.900, 0.000, 21.600, 0.100, 0.000, -2.700, 0.0, , , , , , 96, , , 53, 53, 53
38.5569450, -120.5321393, 45.900, 14:47:26.922, 15, 0.20, 0.28, 97, -4.700, 1.200, 22.400, 1424, 100, 98, 28, 23842, -18928, 5215, 5377, 17, 14, 1529531246.922, 37, 0, 1024, 1024, 1024, 1024, 0, 6, 3971, 3963, 3948, 3968, 4002, 3983, 0, 1, 20799, -89.900, 0.000, 21.600, 0.200, 0.000, -2.700, 0.1, , , , , , 96, , , 53, 53, 53
38.5569449, -120.5321393, 46.200, 14:47:27.022, 15, 0.20, 0.29, 97, -4.100, 1.100, 22.500, 1424, 100, 98, 28, 23842, -18928, 5215, 5377, 17, 14, 1529531247.022, 43, 0, 1024, 1024, 1024, 1024, 0, 6, 3971, 3963, 3948, 3968, 4002, 3983, 0, 1, 20900, -89.900, 0.000, 21.600, 0.200, 0.000, -2.700, 0.1, , , , , , 96, , , 53, 53, 53
