Latitude, Longitude, Altitude (m), Time, Sats, Speed (m/s), Range (m), Battery (%), Roll (deg), Pitch (deg), Yaw (deg), Images, HD Signal (%), RC Signal (%), Battery Temp (C), Battery Voltage (mV), Battery Current (mA), Battery Energy (mAh), Battery Capacity (mAh), Battery Discharges, flyState, timestamp (Unix), LastUpdate (ms), radioChannel, Rc_elevator, Rc_aileron, Rc_throttle, Rc_rudder, Rc_gyro, Dronetype, Battery_Cell1 (mV), Battery_Cell2 (mV), Battery_Cell3 (mV), Battery_Cell4 (mV), Battery_Cell5 (mV), Battery_Cell6 (mV), Video, isFlying, elapsedTime (ms), gimbalPitch (deg), gimbalRoll (deg), gimbalYaw (deg), VelocityX (m/s), VelocityY (m/s), VelocityZ (m/s), GroundSmear (cm), App Version, Aircraft Name, Aircraft Firmware, Aircraft Serial Number, Battery Serial Number, Battery Lifetime (%), App_Tip, App_Warning, CurrentFlightStartingIndex, CurrentFlightLastVisitedWaypoint, PreviousFlightEndingWaypointIndex
38.5568335, -120.5320909, 0.000, 14:13:39.850, 10, 0.14, 0.09, 98, -0.900, -0.500, 26.200, 763, 100, 100, 28, 25655, -3256, 5269, 5377, 17, 11, 1529529219.851, 92, 0, 1024, 1024, 1024, 1024, 0, 6, 4290, 4231, 4294, 4275, 4296, 4241, 0, 1, 3001, -89.900, 0.000, 25.000, 0.100, -0.100, -0.100, 0.1, MapPilot_2.8.1_04242018, Dendroctonus I, 1.3.1.00, 041DDC1887, 1058163200459, 96, DJI_0760.jpg, Starting Mission from Lat/Long: 38.55683/-120.53209 Camera: Zenmuse X3 - Overlap: 90/90 - Active Connection: No, 29, 29, 29
38.5568337, -120.5320910, 0.000, 14:13:39.950, 10, 0.14, 0.11, 98, 0.000, -0.400, 26.300, 763, 100, 100, 28, 25655, -3256, 5269, 5377, 17, 11, 1529529219.950, 87, 0, 1024, 1024, 1024, 1024, 0, 6, 4290, 4231, 4294, 4275, 4296, 4241, 0, 1, 3101, -89.900, 0.000, 25.000, 0.100, -0.100, -0.300, 0.1, , , , , , 96, , , 29, 29, 29
38.5568339, -120.5320912, 0.000, 14:13:40.050, 10, 0.14, 0.13, 98, 0.300, 0.000, 26.300, 763, 100, 100, 28, 25655, -3256, 5269, 5377, 17, 11, 1529529220.050, 63, 0, 1024, 1024, 1024, 1024, 0, 6, 4290, 4231, 4294, 4275, 4296, 4241, 0, 1, 3201, -89.900, 0.000, 25.000, 0.100, -0.100, -0.400, 0.0, , , , , , 96, , , 29, 29, 29
38.5568341, -120.5320914, 0.100, 14:13:40.150, 10, 0.14, 0.16, 98, 0.500, 0.300, 26.300, 763, 100, 100, 28, 25655, -3256, 5269, 5377, 17, 11, 1529529220.150, 63, 0, 1024, 1024, 1024, 1024, 0, 6, 4290, 4231, 4294, 4275, 4296, 4241, 0, 1, 3301, -89.900, 0.000, 25.000, 0.100, -0.100, -0.400, 0.0, , , , , , 96, , , 29, 29, 29
38.5568343, -120.5320916, 0.100, 14:13:40.250, 10, 0.14, 0.19, 98, 1.000, 0.500, 26.200, 763, 100, 100, 28, 25655, -3256, 5269, 5377, 17, 11, 1529529220.250, 70, 0, 1024, 1024, 1024, 1024, 0, 6, 4290, 4231, 4294, 4275, 4296, 4241, 0, 1, 3401, -89.900, 0.000, 25.000, 0.100, -0.100, -0.400, 0.0, , , , , , 96, , , 29, 29, 29
38.5568345, -120.5320918, 0.200, 14:13:40.350, 10, 0.14, 0.22, 98, 1.700, 0.800, 26.100, 763, 100, 100, 28, 25655, -3256, 5269, 5377, 17, 11, 1529529220.350, 71, 0, 1024, 1024, 1024, 1024, 0, 6, 4262, 4281, 4260, 4270, 4259, 4270, 0, 1, 3501, -89.900, 0.000, 25.000, 0.100, -0.100, -0.400, 0.0, , , , , , 96, , , 29, 29, 29
38.5568348, -120.5320923, 0.300, 14:13:40.450, 10, 0.14, 0.27, 98, 2.600, 0.900, 26.000, 763, 100, 100, 28, 25655, -3256, 5269, 5377, 17, 11, 1529529220.450, 63, 0, 1024, 1024, 1024, 1024, 0, 6, 4262, 4281, 4260, 4270, 4259, 4270, 0, 1, 3601, -89.900, 0.000, 25.000, 0.100, -0.100, -0.400, 0.0, , , , , , 96, , , 29, 29, 29
38.5568348, -120.5320923, 0.300, 14:13:40.550, 10, 0.14, 0.27, 98, 2.600, 0.900, 26.000, 763, 100, 100, 28, 25655, -3256, 5269, 5377, 17, 11, 1529529220.550, 163, 0, 1024, 1024, 1024, 1024, 0, 6, 4262, 4281, 4260, 4270, 4259, 4270, 0, 1, 3701, -89.900, 0.000, 25.000, 0.100, -0.100, -0.400, 0.0, , , , , , 96, , , 29, 29, 29
38.5568352, -120.5320926, 0.400, 14:13:40.650, 10, 0.14, 0.32, 98, 2.600, 0.700, 26.000, 763, 100, 100, 28, 25655, -3256, 5269, 5377, 17, 11, 1529529220.650, 47, 0, 1024, 1024, 1024, 1024, 0, 6, 4262, 4281, 4260, 4270, 4259, 4270, 0, 1, 3801, -89.900, 0.000, 25.000, 0.100, -0.100, -0.400, 0.0, , , , , , 96, , , 29, 29, 29
38.5568353, -120.5320927, 0.400, 14:13:40.750, 10, 0.10, 0.34, 98, 2.300, 0.600, 26.000, 763, 100, 100, 28, 25655, -3256, 5269, 5377, 17, 11, 1529529220.750, 51, 0, 1024, 1024, 1024, 1024, 0, 6, 4262, 4281, 4260, 4270, 4259, 4270, 0, 1, 3901, -89.900, 0.000, 25.000, 0.100, 0.000, -0.400, 0.0, , , , , , 96, , , 29, 29, 29
38.5568355, -120.5320928, 0.500, 14:13:40.850, 10, 0.10, 0.35, 98, 1.900, 0.600, 26.000, 763, 100, 100, 28, 25655, -3256, 5269, 5377, 17, 11, 1529529220.851, 48, 0, 1024, 1024, 1024, 1024, 0, 6, 4262, 4281, 4260, 4270, 4259, 4270, 0, 1, 4002, -89.900, 0.000, 25.000, 0.100, 0.000, -0.400, 0.0, , , , , , 96, , , 29, 29, 29
38.5568356, -120.5320928, 0.500, 14:13:40.950, 10, 0.00, 0.37, 98, 1.400, 0.500, 26.000, 763, 100, 100, 28, 25655, -3256, 5269, 5377, 17, 11, 1529529220.950, 46, 0, 1024, 1024, 1024, 1024, 0, 6, 4262, 4281, 4260, 4270, 4259, 4270, 0, 1, 4101, -89.900, 0.000, 25.000, 0.000, 0.000, -0.400, 0.0, , , , , , 96, , , 29, 29, 29
38.5568357, -120.5320929, 0.600, 14:13:41.051, 11, 0.00, 0.38, 98, 1.200, 0.500, 26.000, 763, 100, 100, 28, 25655, -3256, 5269, 5377, 17, 11, 1529529221.051, 37, 0, 1024, 1024, 1024, 1024, 0, 6, 4262, 4281, 4260, 4270, 4259, 4270, 0, 1, 4202, -89.900, 0.000, 25.000, 0.000, 0.000, -0.500, 0.0, , , , , , 96, , , 29, 29, 29
38.5568358, -120.5320929, 0.600, 14:13:41.150, 11, 0.00, 0.39, 98, 1.200, 0.600, 26.000, 763, 100, 100, 28, 25655, -3256, 5269, 5377, 17, 11, 1529529221.150, 43, 0, 1024, 1024, 1024, 1024, 0, 6, 4262, 4281, 4260, 4270, 4259, 4270, 0, 1, 4301, -89.900, 0.000, 25.000, 0.000, 0.000, -0.400, 0.0, , , , , , 96, , , 29, 29, 29
38.5568359, -120.5320930, 0.700, 14:13:41.250, 10, 0.00, 0.40, 98, 1.300, 0.700, 26.000, 763, 100, 100, 28, 25655, -3256, 5269, 5377, 17, 11, 1529529221.250, 46, 0, 1024, 1024, 1024, 1024, 0, 6, 4262, 4281, 4260, 4270, 4259, 4270, 0, 1, 4401, -89.900, 0.000, 25.000, 0.000, 0.000, -0.500, 0.0, , , , , , 96, , , 29, 29, 29
38.5568359, -120.5320930, 0.700, 14:13:41.350, 10, 0.00, 0.41, 98, 1.300, 0.700, 26.000, 763, 100, 100, 28, 24944, -16204, 5269, 5377, 17, 11, 1529529221.350, 13, 0, 1024, 1024, 1024, 1024, 0, 6, 4058, 4090, 4094, 4111, 4107, 4094, 0, 1, 4501, -89.900, 0.000, 25.000, 0.000, 0.000, -0.500, 0.0, , , , , , 96, , , 29, 29, 29
38.5568360, -120.5320931, 0.800, 14:13:41.451, 10, 0.00, 0.42, 98, 1.300, 0.700, 26.000, 763, 100, 100, 28, 24944, -16204, 5269, 5377, 17, 11, 1529529221.451, 26, 0, 1024, 1024, 1024, 1024, 0, 6, 4058, 4090, 4094, 4111, 4107, 4094, 0, 1, 4602, -89.900, 0.000, 25.000, 0.000, 0.000, -0.400, 0.0, , , , , , 96, , , 29, 29, 29
38.5568361, -120.5320931, 0.800, 14:13:41.550, 10, 0.00, 0.43, 98, 1.300, 0.700, 26.000, 763, 100, 100, 28, 24944, -16204, 5269, 5377, 17, 11, 1529529221.550, 16, 0, 1024, 1024, 1024, 1024, 0, 6, 4058, 4090, 4094, 4111, 4107, 4094, 0, 1, 4701, -89.900, 0.000, 25.000, 0.000, 0.000, -0.400, 0.0, , , , , , 96, , , 29, 29, 29
38.5568362, -120.5320932, 0.900, 14:13:41.650, 10, 0.00, 0.44, 98, 1.400, 0.800, 26.000, 763, 100, 100, 28, 24944, -16204, 5269, 5377, 17, 14, 1529529221.651, 12, 0, 1024, 1024, 1024, 1024, 0, 6, 4058, 4090, 4094, 4111, 4107, 4094, 0, 1, 4802, -89.900, 0.000, 25.000, 0.000, 0.000, -0.500, 0.0, , , , , , 96, , , 29, 29, 29
38.5568362, -120.5320932, 1.000, 14:13:41.750, 10, 0.00, 0.45, 98, 1.500, 1.000, 26.000, 763, 100, 100, 28, 24944, -16204, 5269, 5377, 17, 14, 1529529221.751, 14, 0, 1024, 1024, 1024, 1024, 0, 6, 4058, 4090, 4094, 4111, 4107, 4094, 0, 1, 4902, -89.900, 0.000, 25.000, 0.000, 0.000, -0.400, 0.0, , , , , , 96, , , 29, 29, 29
38.5568363, -120.5320933, 1.000, 14:13:41.849, 10, 0.00, 0.46, 98, 1.400, 0.900, 26.000, 763, 100, 99, 28, 24944, -16204, 5269, 5377, 17, 14, 1529529221.849, 6, 0, 1024, 1024, 1024, 1024, 0, 6, 4058, 4090, 4094, 4111, 4107, 4094, 0, 1, 5000, -89.900, 0.000, 25.000, 0.000, 0.000, -0.200, 0.0, , , , , , 96, , , 29, 29, 29
38.5568363, -120.5320933, 1.000, 14:13:41.950, 10, 0.00, 0.46, 98, 1.400, 0.900, 26.000, 763, 100, 99, 28, 24944, -16204, 5269, 5377, 17, 14, 1529529221.951, 108, 0, 1024, 1024, 1024, 1024, 0, 6, 4058, 4090, 4094, 4111, 4107, 4094, 0, 1, 5102, -89.900, 0.000, 25.000, 0.000, 0.000, -0.200, 0.0, , , , , , 96, , , 29, 29, 29
38.5568363, -120.5320934, 1.000, 14:13:42.051, 10, 0.00, 0.47, 98, 1.300, 0.700, 26.000, 763, 100, 99, 28, 24944, -16204, 5269, 5377, 17, 14, 1529529222.051, 96, 0, 1024, 1024, 1024, 1024, 0, 6, 4058, 4090, 4094, 4111, 4107, 4094, 0, 1, 5202, -89.900, 0.000, 25.000, 0.000, 0.000, -0.200, 0.0, , , , , , 96, , , 29, 29, 29
38.5568364, -120.5320935, 1.100, 14:13:42.150, 10, 0.00, 0.48, 98, 1.200, 0.500, 26.000, 763, 100, 99, 28, 24944, -16204, 5269, 5377, 17, 14, 1529529222.151, 89, 0, 1024, 1024, 1024, 1024, 0, 6, 4058, 4090, 4094, 4111, 4107, 4094, 0, 1, 5302, -89.900, 0.000, 25.000, 0.000, 0.000, -0.300, 0.0, , , , , , 96, , , 29, 29, 29
38.5568365, -120.5320937, 1.100, 14:13:42.251, 10, 0.00, 0.49, 98, 1.300, 0.400, 26.000, 763, 100, 99, 28, 24944, -16204, 5269, 5377, 17, 14, 1529529222.251, 82, 0, 1024, 1024, 1024, 1024, 0, 6, 4058, 4090, 4094, 4111, 4107, 4094, 0, 1, 5402, -90.000, 0.000, 25.000, 0.000, 0.000, -0.400, 0.0, , , , , , 96, , , 29, 29, 29
38.5568365, -120.5320936, 1.200, 14:13:42.350, 10, 0.00, 0.48, 98, 1.300, 0.200, 25.900, 763, 100, 99, 28, 24374, -16644, 5269, 5377, 17, 14, 1529529222.350, 74, 0, 1024, 1024, 1024, 1024, 0, 6, 4043, 4069, 4064, 4058, 4070, 4080, 0, 1, 5501, -90.000, 0.000, 25.000, 0.000, 0.000, -0.600, 0.0, , , , , , 96, , , 29, 29, 29
38.5568365, -120.5320934, 1.200, 14:13:42.450, 10, 0.00, 0.48, 98, 1.200, 0.300, 25.900, 763, 100, 99, 28, 24374, -16644, 5269, 5377, 17, 14, 1529529222.450, 74, 0, 1024, 1024, 1024, 1024, 0, 6, 4043, 4069, 4064, 4058, 4070, 4080, 0, 1, 5601, -89.900, 0.000, 25.000, 0.000, 0.000, -0.700, 0.0, , , , , , 96, , , 29, 29, 29
38.5568364, -120.5320935, 1.300, 14:13:42.550, 10, 0.00, 0.48, 98, 1.000, 0.400, 25.900, 763, 100, 99, 28, 24374, -16644, 5269, 5377, 17, 14, 1529529222.550, 77, 0, 1024, 1024, 1024, 1024, 0, 6, 4043, 4069, 4064, 4058, 4070, 4080, 0, 1, 5701, -89.900, 0.000, 25.000, 0.000, 0.000, -0.900, 0.0, , , , , , 96, , , 29, 29, 29
38.5568364, -120.5320935, 1.400, 14:13:42.650, 10, 0.00, 0.48, 98, 0.800, 0.400, 25.900, 763, 100, 99, 28, 24374, -16644, 5269, 5377, 17, 14, 1529529222.650, 82, 0, 1024, 1024, 1024, 1024, 0, 6, 4043, 4069, 4064, 4058, 4070, 4080, 0, 1, 5801, -89.900, 0.000, 25.000, 0.000, 0.000, -1.100, 0.0, , , , , , 96, , , 29, 29, 29
38.5568365, -120.5320935, 1.600, 14:13:42.750, 10, 0.00, 0.49, 98, 0.800, 0.400, 26.000, 763, 100, 99, 28, 24374, -16644, 5269, 5377, 17, 14, 1529529222.750, 73, 0, 1024, 1024, 1024, 1024, 0, 6, 4043, 4069, 4064, 4058, 4070, 4080, 0, 1, 5901, -89.900, 0.000, 25.000, 0.000, 0.000, -1.300, 0.0, , , , , , 96, , , 29, 29, 29
38.5568366, -120.5320936, 1.700, 14:13:42.850, 10, 0.00, 0.50, 98, 0.900, 0.400, 26.000, 763, 100, 99, 28, 24374, -16644, 5269, 5377, 17, 14, 1529529222.850, 61, 0, 1024, 1024, 1024, 1024, 0, 6, 4043, 4069, 4064, 4058, 4070, 4080, 0, 1, 6001, -89.900, 0.000, 25.000, 0.000, 0.000, -1.500, 0.0, , , , , , 96, , , 29, 29, 29
38.5568366, -120.5320937, 1.900, 14:13:42.950, 11, 0.00, 0.51, 98, 1.200, 0.500, 26.000, 763, 100, 99, 28, 24374, -16644, 5269, 5377, 17, 14, 1529529222.950, 54, 0, 1024, 1024, 1024, 1024, 0, 6, 4043, 4069, 4064, 4058, 4070, 4080, 0, 1, 6101, -89.900, 0.000, 25.000, 0.000, 0.000, -1.700, 0.0, , , , , , 96, , , 29, 29, 29
38.5568366, -120.5320938, 2.100, 14:13:43.051, 11, 0.00, 0.51, 98, 1.500, 0.500, 26.100, 763, 100, 99, 28, 24374, -16644, 5269, 5377, 17, 14, 1529529223.051, 55, 0, 1024, 1024, 1024, 1024, 0, 6, 4043, 4069, 4064, 4058, 4070, 4080, 0, 1, 6202, -89.900, 0.000, 25.000, 0.000, 0.000, -2.000, 0.0, , , , , , 96, , , 29, 29, 29
38.5568368, -120.5320938, 2.600, 14:13:43.149, 11, 0.00, 0.53, 98, 1.800, 0.400, 26.200, 763, 100, 99, 28, 24374, -16644, 5269, 5377, 17, 14, 1529529223.149, 43, 0, 1024, 1024, 1024, 1024, 0, 6, 4043, 4069, 4064, 4058, 4070, 4080, 0, 1, 6300, -89.900, 0.000, 25.000, 0.000, 0.000, -2.400, 0.0, , , , , , 96, , , 29, 29, 29
38.5568369, -120.5320939, 2.900, 14:13:43.249, 11, 0.00, 0.54, 98, 1.800, 0.600, 26.300, 763, 100, 99, 28, 24374, -16644, 5269, 5377, 17, 14, 1529529223.249, 37, 0, 1024, 1024, 1024, 1024, 0, 6, 4043, 4069, 4064, 4058, 4070, 4080, 0, 1, 6400, -89.900, 0.000, 25.000, 0.000, 0.000, -2.700, 0.0, , , , , , 96, , , 29, 29, 29
38.5568370, -120.5320939, 3.200, 14:13:43.349, 11, 0.00, 0.55, 98, 1.600, 0.900, 26.300, 763, 100, 99, 28, 24027, -19250, 5269, 5377, 17, 14, 1529529223.349, 40, 0, 1024, 1024, 1024, 1024, 0, 6, 3972, 4007, 3996, 3982, 3977, 4018, 0, 1, 6500, -89.900, 0.000, 25.000, 0.000, 0.000, -2.900, 0.0, , , , , , 96, , , 29, 29, 29
38.5568370, -120.5320938, 3.500, 14:13:43.449, 10, 0.00, 0.55, 98, 1.400, 1.100, 26.300, 763, 100, 100, 28, 24027, -19250, 5269, 5377, 17, 14, 1529529223.449, 30, 0, 1024, 1024, 1024, 1024, 0, 6, 3972, 4007, 3996, 3982, 3977, 4018, 0, 1, 6600, -89.900, 0.000, 25.000, 0.000, 0.000, -3.000, 0.0, , , , , , 96, , , 29, 29, 29
38.5568370, -120.5320938, 3.800, 14:13:43.549, 10, 0.00, 0.55, 98, 1.200, 1.100, 26.300, 763, 100, 100, 28, 24027, -19250, 5269, 5377, 17, 14, 1529529223.549, 32, 0, 1024, 1024, 1024, 1024, 0, 6, 3972, 4007, 3996, 3982, 3977, 4018, 0, 1, 6700, -89.900, 0.000, 25.000, 0.000, 0.000, -3.000, 0.0, , , , , , 96, , , 29, 29, 29
38.5568370, -120.5320937, 4.200, 14:13:43.649, 10, 0.00, 0.55, 98, 1.000, 1.000, 26.200, 763, 100, 100, 28, 24027, -19250, 5269, 5377, 17, 14, 1529529223.649, 35, 0, 1024, 1024, 1024, 1024, 0, 6, 3972, 4007, 3996, 3982, 3977, 4018, 0, 1, 6800, -89.900, 0.000, 25.000, 0.000, 0.000, -3.100, 0.0, , , , , , 96, , , 29, 29, 29
38.5568370, -120.5320937, 4.500, 14:13:43.749, 10, 0.00, 0.54, 98, 0.800, 0.700, 26.200, 763, 100, 100, 28, 24027, -19250, 5269, 5377, 17, 14, 1529529223.749, 17, 0, 1024, 1024, 1024, 1024, 0, 6, 3972, 4007, 3996, 3982, 3977, 4018, 0, 1, 6900, -89.900, 0.000, 25.000, 0.000, 0.000, -3.100, 0.0, , , , , , 96, , , 29, 29, 29
38.5568369, -120.5320936, 4.900, 14:13:43.849, 10, 0.00, 0.52, 98, 0.500, 0.500, 26.200, 763, 100, 100, 28, 24027, -19250, 5269, 5377, 17, 14, 1529529223.849, 10, 0, 1024, 1024, 1024, 1024, 0, 6, 3972, 4007, 3996, 3982, 3977, 4018, 0, 1, 7000, -89.900, 0.000, 25.000, 0.000, 0.000, -3.000, 0.0, , , , , , 96, , , 29, 29, 29
38.5568367, -120.5320935, 5.200, 14:13:43.949, 10, 0.00, 0.51, 98, 0.400, 0.300, 26.100, 763, 100, 100, 28, 24027, -19250, 5269, 5377, 17, 14, 1529529223.949, 12, 0, 1024, 1024, 1024, 1024, 0, 6, 3972, 4007, 3996, 3982, 3977, 4018, 0, 1, 7100, -89.900, 0.000, 25.000, 0.000, 0.000, -3.100, 0.0, , , , , , 96, , , 29, 29, 29
38.5568367, -120.5320934, 5.500, 14:13:44.049, 10, 0.00, 0.50, 98, 0.200, 0.200, 26.100, 763, 100, 100, 28, 24027, -19250, 5269, 5377, 17, 14, 1529529224.049, 14, 0, 1024, 1024, 1024, 1024, 0, 6, 3972, 4007, 3996, 3982, 3977, 4018, 0, 1, 7200, -90.000, 0.000, 25.000, 0.000, 0.000, -3.100, 0.0, , , , , , 96, , , 29, 29, 29
38.5568367, -120.5320934, 5.500, 14:13:44.149, 10, 0.00, 0.50, 98, 0.200, 0.200, 26.100, 763, 100, 100, 28, 24027, -19250, 5269, 5377, 17, 14, 1529529224.149, 114, 0, 1024, 1024, 1024, 1024, 0, 6, 3972, 4007, 3996, 3982, 3977, 4018, 0, 1, 7300, -90.000, 0.000, 25.000, 0.000, 0.000, -3.100, 0.0, , , , , , 96, , , 29, 29, 29
38.5568367, -120.5320933, 5.900, 14:13:44.249, 10, 0.00, 0.50, 98, 0.100, 0.200, 26.100, 763, 100, 100, 28, 24027, -19250, 5269, 5377, 17, 14, 1529529224.249, 94, 0, 1024, 1024, 1024, 1024, 0, 6, 3972, 4007, 3996, 3982, 3977, 4018, 0, 1, 7400, -89.900, 0.000, 25.000, 0.000, 0.000, -3.100, 0.0, , , , , , 96, , , 29, 29, 29
38.5568366, -120.5320933, 6.200, 14:13:44.349, 10, 0.00, 0.48, 98, 0.100, 0.300, 26.100, 763, 100, 100, 28, 23825, -22751, 5269, 5377, 17, 14, 1529529224.349, 74, 0, 1024, 1024, 1024, 1024, 0, 6, 3942, 4001, 3991, 3973, 3978, 4010, 0, 1, 7500, -89.900, 0.000, 25.000, 0.000, 0.000, -3.100, 0.0, , , , , , 96, , , 29, 29, 29
38.5568364, -120.5320932, 6.500, 14:13:44.449, 10, 0.00, 0.46, 98, 0.100, 0.300, 26.100, 763, 100, 100, 28, 23825, -22751, 5269, 5377, 17, 14, 1529529224.449, 88, 0, 1024, 1024, 1024, 1024, 0, 6, 3942, 4001, 3991, 3973, 3978, 4010, 0, 1, 7600, -89.900, 0.000, 25.000, 0.000, 0.000, -3.100, 0.0, , , , , , 96, , , 29, 29, 29
38.5568364, -120.5320932, 6.900, 14:13:44.549, 10, 0.00, 0.46, 98, 0.100, 0.200, 26.100, 763, 100, 100, 28, 23825, -22751, 5269, 5377, 17, 14, 1529529224.549, 82, 0, 1024, 1024, 1024, 1024, 0, 6, 3942, 4001, 3991, 3973, 3978, 4010, 0, 1, 7700, -90.000, 0.000, 25.000, 0.000, 0.000, -3.000, 0.0, , , , , , 96, , , 29, 29, 29
38.5568364, -120.5320933, 7.200, 14:13:44.649, 10, 0.00, 0.46, 98, 0.300, 0.200, 26.100, 763, 100, 100, 28, 23825, -22751, 5269, 5377, 17, 14, 1529529224.649, 87, 0, 1024, 1024, 1024, 1024, 0, 6, 3942, 4001, 3991, 3973, 3978, 4010, 0, 1, 7800, -89.900, 0.000, 25.000, 0.000, 0.000, -3.000, 0.0, , , , , , 96, , , 29, 29, 29
38.5568363, -120.5320932, 7.500, 14:13:44.749, 10, 0.00, 0.45, 98, 0.500, 0.100, 26.100, 763, 100, 100, 28, 23825, -22751, 5269, 5377, 17, 14, 1529529224.749, 92, 0, 1024, 1024, 1024, 1024, 0, 6, 3942, 4001, 3991, 3973, 3978, 4010, 0, 1, 7900, -90.000, 0.000, 25.000, 0.000, 0.000, -3.000, 0.0, , , , , , 96, , , 29, 29, 29
38.5568362, -120.5320931, 7.800, 14:13:44.849, 10, 0.00, 0.44, 98, 0.500, 0.100, 26.100, 763, 100, 100, 28, 23825, -22751, 5269, 5377, 17, 14, 1529529224.849, 63, 0, 1024, 1024, 1024, 1024, 0, 6, 3942, 4001, 3991, 3973, 3978, 4010, 0, 1, 8000, -90.000, 0.000, 25.000, 0.000, 0.000, -3.000, 0.0, , , , , , 96, , , 29, 29, 29
38.5568361, -120.5320931, 8.100, 14:13:44.949, 10, 0.00, 0.43, 98, 0.300, 0.000, 26.100, 763, 100, 100, 28, 23825, -22751, 5269, 5377, 17, 14, 1529529224.949, 67, 0, 1024, 1024, 1024, 1024, 0, 6, 3942, 4001, 3991, 3973, 3978, 4010, 0, 1, 8100, -90.000, 0.000, 25.000, 0.000, 0.000, -3.000, 0.0, , , , , , 96, , , 29, 29, 29
38.5568360, -120.5320932, 8.500, 14:13:45.049, 10, 0.00, 0.42, 98, 0.300, -0.300, 26.000, 763, 100, 100, 28, 23825, -22751, 5269, 5377, 17, 14, 1529529225.049, 67, 0, 1024, 1024, 1024, 1024, 0, 6, 3942, 4001, 3991, 3973, 3978, 4010, 0, 1, 8200, -90.000, 0.000, 25.000, 0.000, 0.000, -3.100, 0.0, , , , , , 96, , , 29, 29, 29
38.5568359, -120.5320933, 8.800, 14:13:45.149, 10, 0.00, 0.42, 98, 0.300, -0.400, 26.000, 763, 100, 100, 28, 23825, -22751, 5269, 5377, 17, 14, 1529529225.149, 63, 0, 1024, 1024, 1024, 1024, 0, 6, 3942, 4001, 3991, 3973, 3978, 4010, 0, 1, 8300, -90.000, 0.000, 25.000, 0.000, 0.000, -3.000, 0.0, , , , , , 96, , , 29, 29, 29
38.5568359, -120.5320933, 9.100, 14:13:45.249, 10, 0.00, 0.42, 98, 0.400, -0.500, 26.000, 763, 100, 100, 28, 23825, -22751, 5269, 5377, 17, 14, 1529529225.249, 63, 0, 1024, 1024, 1024, 1024, 0, 6, 3942, 4001, 3991, 3973, 3978, 4010, 0, 1, 8400, -89.900, 0.000, 25.000, 0.000, 0.000, -3.000, 0.0, , , , , , 96, , , 29, 29, 29
38.5568359, -120.5320933, 9.400, 14:13:45.349, 10, 0.00, 0.42, 98, 0.500, -0.400, 26.000, 763, 100, 100, 28, 23996, -19070, 5269, 5377, 17, 14, 1529529225.349, 47, 0, 1024, 1024, 1024, 1024, 0, 6, 3942, 4001, 3991, 3973, 3978, 4010, 0, 1, 8500, -89.900, 0.000, 25.000, 0.000, 0.000, -3.000, 0.0, , , , , , 96, , , 29, 29, 29
38.5568359, -120.5320932, 10.100, 14:13:45.449, 10, 0.00, 0.41, 98, 0.500, 0.200, 26.000, 763, 100, 100, 28, 23996, -19070, 5269, 5377, 17, 14, 1529529225.449, 57, 0, 1024, 1024, 1024, 1024, 0, 6, 3942, 4001, 3991, 3973, 3978, 4010, 0, 1, 8600, -89.900, 0.000, 25.000, 0.000, 0.000, -3.000, 0.0, , , , , , 96, , , 29, 29, 29
38.5568359, -120.5320932, 10.400, 14:13:45.549, 10, 0.00, 0.41, 98, 0.600, 0.300, 26.000, 763, 100, 100, 28, 23996, -19070, 5269, 5377, 17, 14, 1529529225.549, 43, 0, 1024, 1024, 1024, 1024, 0, 6, 3942, 4001, 3991, 3973, 3978, 4010, 0, 1, 8700, -89.900, 0.000, 25.000, 0.000, 0.000, -3.000, 0.0, , , , , , 96, , , 29, 29, 29
38.5568359, -120.5320932, 10.700, 14:13:45.649, 11, 0.00, 0.41, 98, 0.600, 0.400, 26.000, 763, 100, 100, 28, 23996, -19070, 5269, 5377, 17, 14, 1529529225.649, 35, 0, 1024, 1024, 1024, 1024, 0, 6, 3942, 4001, 3991, 3973, 3978, 4010, 0, 1, 8800, -89.900, 0.000, 25.000, 0.000, 0.000, -2.900, 0.0, , , , , , 96, , , 29, 29, 29
38.5568359, -120.5320932, 11.000, 14:13:45.749, 11, 0.00, 0.41, 98, 0.600, 0.400, 26.100, 763, 100, 100, 28, 23996, -19070, 5269, 5377, 17, 14, 1529529225.749, 53, 0, 1024, 1024, 1024, 1024, 0, 6, 3942, 4001, 3991, 3973, 3978, 4010, 0, 1, 8900, -89.900, 0.000, 25.000, 0.000, 0.000, -2.900, 0.0, , , , , , 96, , , 29, 29, 29
38.5568359, -120.5320931, 11.300, 14:13:45.849, 11, 0.00, 0.42, 97, 0.500, 0.300, 26.100, 763, 100, 100, 28, 23996, -19070, 5215, 5377, 17, 14, 1529529225.849, 41, 0, 1024, 1024, 1024, 1024, 0, 6, 3970, 4008, 4001, 4004, 3993, 4020, 0, 1, 9000, -89.900, 0.000, 25.000, 0.000, 0.000, -2.900, 0.0, , , , , , 96, , , 29, 29, 29
38.5568360, -120.5320931, 11.600, 14:13:45.949, 11, 0.00, 0.42, 97, 0.600, 0.300, 26.000, 763, 100, 100, 28, 23996, -19070, 5215, 5377, 17, 14, 1529529225.949, 42, 0, 1024, 1024, 1024, 1024, 0, 6, 3970, 4008, 4001, 4004, 3993, 4020, 0, 1, 9100, -89.900, 0.000, 25.000, 0.000, 0.000, -2.900, 0.0, , , , , , 96, , , 29, 29, 29
38.5568360, -120.5320932, 11.900, 14:13:46.049, 11, 0.00, 0.42, 97, 0.500, 0.300, 26.000, 763, 100, 100, 28, 23996, -19070, 5215, 5377, 17, 14, 1529529226.049, 20, 0, 1024, 1024, 1024, 1024, 0, 6, 3970, 4008, 4001, 4004, 3993, 4020, 0, 1, 9200, -89.900, 0.000, 25.000, 0.000, 0.000, -2.900, 0.0, , , , , , 96, , , 29, 29, 29
38.5568359, -120.5320932, 12.200, 14:13:46.148, 11, 0.00, 0.42, 97, 0.600, 0.300, 26.000, 763, 100, 100, 28, 23996, -19070, 5215, 5377, 17, 14, 1529529226.148, 2, 0, 1024, 1024, 1024, 1024, 0, 6, 3970, 4008, 4001, 4004, 3993, 4020, 0, 1, 9299, -89.900, 0.000, 25.000, 0.000, 0.000, -2.800, 0.0, , , , , , 96, , , 29, 29, 29
38.5568360, -120.5320932, 12.500, 14:13:46.259, 11, 0.00, 0.42, 97, 0.700, 0.200, 26.000, 763, 100, 100, 28, 23996, -19070, 5215, 5377, 17, 14, 1529529226.260, 3, 0, 1024, 1024, 1024, 1024, 0, 6, 3970, 4008, 4001, 4004, 3993, 4020, 0, 1, 9411, -89.900, 0.000, 25.000, 0.000, 0.000, -2.900, 0.0, , , , , , 96, , , 29, 29, 29
38.5568360, -120.5320932, 12.800, 14:13:46.352, 11, 0.00, 0.42, 97, 0.700, 0.200, 26.000, 763, 100, 100, 28, 23996, -19070, 5215, 5377, 17, 14, 1529529226.352, 3, 0, 1024, 1024, 1024, 1024, 0, 6, 3970, 4008, 4001, 4004, 3993, 4020, 0, 1, 9503, -89.900, 0.000, 25.000, 0.000, 0.000, -2.900, 0.0, , , , , , 96, , , 29, 29, 29
38.5568360, -120.5320932, 13.100, 14:13:46.449, 11, 0.00, 0.42, 97, 0.700, 0.300, 26.000, 763, 100, 100, 28, 23996, -19070, 5215, 5377, 17, 14, 1529529226.449, 5, 0, 1024, 1024, 1024, 1024, 0, 6, 3970, 4008, 4001, 4004, 3993, 4020, 0, 1, 9600, -89.900, 0.000, 25.000, 0.000, 0.000, -2.900, 0.0, , , , , , 96, , , 29, 29, 29
38.5568359, -120.5320931, 13.400, 14:13:46.549, 11, 0.00, 0.41, 97, 0.600, 0.300, 25.900, 763, 100, 100, 28, 23996, -19070, 5215, 5377, 17, 14, 1529529226.549, 8, 0, 1024, 1024, 1024, 1024, 0, 6, 3970, 4008, 4001, 4004, 3993, 4020, 0, 1, 9700, -89.900, 0.000, 25.000, 0.000, 0.000, -2.900, 0.0, , , , , , 96, , , 29, 29, 29
38.5568360, -120.5320930, 13.700, 14:13:46.648, 10, 0.00, 0.42, 97, 0.400, 0.400, 25.900, 763, 100, 100, 28, 23996, -19070, 5215, 5377, 17, 14, 1529529226.648, 7, 0, 1024, 1024, 1024, 1024, 0, 6, 3970, 4008, 4001, 4004, 3993, 4020, 0, 1, 9799, -89.900, 0.000, 25.000, 0.000, 0.000, -2.900, 0.0, , , , , , 96, , , 29, 29, 29
38.5568360, -120.5320930, 13.700, 14:13:46.749, 10, 0.00, 0.42, 97, 0.400, 0.400, 25.900, 763, 100, 100, 28, 23996, -19070, 5215, 5377, 17, 14, 1529529226.749, 107, 0, 1024, 1024, 1024, 1024, 0, 6, 3970, 4008, 4001, 4004, 3993, 4020, 0, 1, 9900, -89.900, 0.000, 25.000, 0.000, 0.000, -2.900, 0.0, , , , , , 96, , , 29, 29, 29
38.5568361, -120.5320930, 14.000, 14:13:46.849, 10, 0.00, 0.43, 97, 0.300, 0.800, 25.900, 763, 100, 100, 28, 23999, -18641, 5215, 5377, 17, 14, 1529529226.849, 95, 0, 1024, 1024, 1024, 1024, 0, 6, 3975, 4001, 4004, 3988, 3998, 4019, 0, 1, 10000, -89.900, 0.000, 25.000, 0.000, 0.000, -2.900, 0.0, , , , , , 96, , , 29, 29, 29
38.5568361, -120.5320929, 14.300, 14:13:46.949, 10, 0.00, 0.42, 97, 0.300, 1.000, 26.000, 763, 100, 100, 28, 23999, -18641, 5215, 5377, 17, 14, 1529529226.949, 75, 0, 1024, 1024, 1024, 1024, 0, 6, 3975, 4001, 4004, 3988, 3998, 4019, 0, 1, 10100, -89.900, 0.000, 25.000, 0.000, 0.000, -2.900, 0.0, , , , , , 96, , , 29, 29, 29
38.5568361, -120.5320929, 14.600, 14:13:47.050, 10, 0.00, 0.42, 97, 0.400, 1.000, 26.000, 763, 100, 100, 28, 23999, -18641, 5215, 5377, 17, 14, 1529529227.050, 71, 0, 1024, 1024, 1024, 1024, 0, 6, 3975, 4001, 4004, 3988, 3998, 4019, 0, 1, 10201, -89.900, 0.000, 25.000, 0.000, 0.000, -2.900, 0.0, , , , , , 96, , , 29, 29, 29
38.5568362, -120.5320928, 14.900, 14:13:47.149, 10, 0.00, 0.42, 97, 0.400, 0.800, 26.000, 763, 100, 100, 28, 23999, -18641, 5215, 5377, 17, 14, 1529529227.149, 74, 0, 1024, 1024, 1024, 1024, 0, 6, 3975, 4001, 4004, 3988, 3998, 4019, 0, 1, 10300, -89.900, 0.000, 25.000, 0.000, 0.000, -3.000, 0.0, , , , , , 96, , , 29, 29, 29
38.5568362, -120.5320928, 15.200, 14:13:47.249, 10, 0.00, 0.42, 97, 0.300, 0.800, 26.000, 763, 100, 100, 28, 23999, -18641, 5215, 5377, 17, 14, 1529529227.249, 65, 0, 1024, 1024, 1024, 1024, 0, 6, 3975, 4001, 4004, 3988, 3998, 4019, 0, 1, 10400, -89.900, 0.000, 25.000, 0.000, 0.000, -3.000, 0.0, , , , , , 96, , , 29, 29, 29
38.5568362, -120.5320928, 15.500, 14:13:47.349, 10, 0.00, 0.43, 97, 0.400, 0.700, 26.000, 763, 100, 100, 28, 23999, -18641, 5215, 5377, 17, 14, 1529529227.349, 34, 0, 1024, 1024, 1024, 1024, 0, 6, 3975, 4001, 4004, 3988, 3998, 4019, 0, 1, 10500, -89.900, 0.000, 25.000, 0.000, 0.000, -2.900, 0.0, , , , , , 96, , , 29, 29, 29
38.5568362, -120.5320929, 15.800, 14:13:47.449, 10, 0.00, 0.43, 97, 0.400, 0.800, 26.000, 763, 100, 100, 28, 23999, -18641, 5215, 5377, 17, 14, 1529529227.449, 47, 0, 1024, 1024, 1024, 1024, 0, 6, 3975, 4001, 4004, 3988, 3998, 4019, 0, 1, 10600, -89.900, 0.000, 25.000, 0.000, 0.000, -2.900, 0.0, , , , , , 96, , , 29, 29, 29
38.5568363, -120.5320929, 16.400, 14:13:47.549, 10, 0.00, 0.44, 97, 0.500, 0.900, 26.100, 763, 100, 100, 28, 23999, -18641, 5215, 5377, 17, 14, 1529529227.549, 61, 0, 1024, 1024, 1024, 1024, 0, 6, 3975, 4001, 4004, 3988, 3998, 4019, 0, 1, 10700, -89.900, 0.000, 25.000, 0.000, 0.000, -2.900, 0.0, , , , , , 96, , , 29, 29, 29
38.5568364, -120.5320929, 16.700, 14:13:47.649, 10, 0.00, 0.45, 97, 0.500, 1.000, 26.100, 763, 100, 100, 28, 23999, -18641, 5215, 5377, 17, 14, 1529529227.649, 40, 0, 1024, 1024, 1024, 1024, 0, 6, 3975, 4001, 4004, 3988, 3998, 4019, 0, 1, 10800, -89.900, 0.000, 25.000, 0.000, 0.000, -2.900, 0.0, , , , , , 96, , , 29, 29, 29
38.5568364, -120.5320928, 17.000, 14:13:47.749, 10, 0.00, 0.45, 97, 0.500, 1.100, 26.000, 763, 100, 100, 28, 23999, -18641, 5215, 5377, 17, 14, 1529529227.749, 42, 0, 1024, 1024, 1024, 1024, 0, 6, 3975, 4001, 4004, 3988, 3998, 4019, 0, 1, 10900, -89.900, 0.000, 25.000, 0.000, 0.000, -2.900, 0.0, , , , , , 96, , , 29, 29, 29
38.5568364, -120.5320928, 17.300, 14:13:47.849, 11, 0.00, 0.45, 97, 0.300, 1.100, 26.000, 763, 100, 100, 28, 23950, -19131, 5215, 5377, 17, 14, 1529529227.849, 55, 0, 1024, 1024, 1024, 1024, 0, 6, 3972, 4002, 3998, 3982, 3989, 4009, 0, 1, 11000, -89.900, 0.000, 25.000, 0.000, 0.000, -2.900, 0.0, , , , , , 96, , , 29, 29, 29
38.5568365, -120.5320927, 17.600, 14:13:47.949, 11, 0.00, 0.45, 97, 0.300, 0.900, 26.000, 763, 100, 100, 28, 23950, -19131, 5215, 5377, 17, 14, 1529529227.949, 45, 0, 1024, 1024, 1024, 1024, 0, 6, 3972, 4002, 3998, 3982, 3989, 4009, 0, 1, 11100, -89.900, 0.000, 25.000, 0.000, 0.000, -2.900, 0.0, , , , , , 96, , , 29, 29, 29
38.5568365, -120.5320927, 17.900, 14:13:48.051, 11, 0.00, 0.45, 97, 0.400, 1.000, 26.100, 763, 100, 100, 28, 23950, -19131, 5215, 5377, 17, 14, 1529529228.051, 39, 0, 1024, 1024, 1024, 1024, 0, 6, 3972, 4002, 3998, 3982, 3989, 4009, 0, 1, 11202, -89.900, 0.000, 25.000, 0.000, 0.000, -2.800, 0.0, , , , , , 96, , , 29, 29, 29
38.5568365, -120.5320927, 18.200, 14:13:48.149, 11, 0.00, 0.45, 97, 0.400, 0.900, 26.100, 763, 100, 100, 28, 23950, -19131, 5215, 5377, 17, 14, 1529529228.149, 42, 0, 1024, 1024, 1024, 1024, 0, 6, 3972, 4002, 3998, 3982, 3989, 4009, 0, 1, 11300, -89.900, 0.000, 25.000, 0.000, 0.000, -2.900, 0.0, , , , , , 96, , , 29, 29, 29
38.5568365, -120.5320928, 18.500, 14:13:48.253, 11, 0.00, 0.46, 97, 0.500, 0.900, 26.100, 763, 100, 100, 28, 23950, -19131, 5215, 5377, 17, 14, 1529529228.253, 1, 0, 1024, 1024, 1024, 1024, 0, 6, 3972, 4002, 3998, 3982, 3989, 4009, 0, 1, 11404, -89.900, 0.000, 25.000, 0.000, 0.000, -2.900, 0.0, , , , , , 96, , , 29, 29, 29
38.5568366, -120.5320928, 18.800, 14:13:48.349, 11, 0.00, 0.47, 97, 0.500, 1.100, 26.100, 763, 100, 100, 28, 23950, -19131, 5215, 5377, 17, 14, 1529529228.349, 35, 0, 1024, 1024, 1024, 1024, 0, 6, 3972, 4002, 3998, 3982, 3989, 4009, 0, 1, 11500, -89.900, 0.000, 25.000, 0.000, 0.000, -2.900, 0.0, , , , , , 96, , , 29, 29, 29
38.5568367, -120.5320928, 19.100, 14:13:48.449, 11, 0.00, 0.47, 97, 0.400, 1.300, 26.100, 763, 100, 100, 28, 23950, -19131, 5215, 5377, 17, 14, 1529529228.449, 26, 0, 1024, 1024, 1024, 1024, 0, 6, 3972, 4002, 3998, 3982, 3989, 4009, 0, 1, 11600, -89.900, 0.000, 25.000, 0.000, 0.000, -2.900, 0.0, , , , , , 96, , , 29, 29, 29
38.5568367, -120.5320928, 19.400, 14:13:48.549, 11, 0.00, 0.47, 97, 0.500, 1.500, 26.100, 763, 100, 100, 28, 23950, -19131, 5215, 5377, 17, 14, 1529529228.549, 18, 0, 1024, 1024, 1024, 1024, 0, 6, 3972, 4002, 3998, 3982, 3989, 4009, 0, 1, 11700, -89.900, 0.000, 25.000, 0.000, 0.000, -2.900, 0.0, , , , , , 96, , , 29, 29, 29
38.5568368, -120.5320928, 19.700, 14:13:48.649, 11, 0.00, 0.48, 97, 0.500, 1.500, 26.100, 763, 100, 100, 28, 23950, -19131, 5215, 5377, 17, 14, 1529529228.649, 10, 0, 1024, 1024, 1024, 1024, 0, 6, 3972, 4002, 3998, 3982, 3989, 4009, 0, 1, 11800, -89.900, 0.000, 25.000, 0.000, 0.000, -2.900, 0.0, , , , , , 96, , , 29, 29, 29
38.5568369, -120.5320928, 20.000, 14:13:48.749, 11, 0.00, 0.49, 97, 0.600, 1.500, 26.200, 763, 100, 100, 28, 23943, -18709, 5215, 5377, 17, 14, 1529529228.749, 11, 0, 1024, 1024, 1024, 1024, 0, 6, 3968, 3994, 3992, 3973, 3994, 4010, 0, 1, 11900, -89.900, 0.000, 25.000, 0.000, 0.000, -2.900, 0.0, , , , , , 96, , , 29, 29, 29
38.5568369, -120.5320928, 20.000, 14:13:48.849, 11, 0.00, 0.49, 97, 0.600, 1.500, 26.200, 763, 100, 100, 28, 23943, -18709, 5215, 5377, 17, 14, 1529529228.849, 111, 0, 1024, 1024, 1024, 1024, 0, 6, 3968, 3994, 3992, 3973, 3994, 4010, 0, 1, 12000, -89.900, 0.000, 25.000, 0.000, 0.000, -2.900, 0.0, , , , , , 96, , , 29, 29, 29
38.5568369, -120.5320929, 20.300, 14:13:48.949, 11, 0.00, 0.50, 97, 0.700, 1.300, 26.100, 763, 100, 100, 28, 23943, -18709, 5215, 5377, 17, 14, 1529529228.949, 98, 0, 1024, 1024, 1024, 1024, 0, 6, 3968, 3994, 3992, 3973, 3994, 4010, 0, 1, 12100, -89.900, 0.000, 25.000, 0.000, 0.000, -2.900, 0.0, , , , , , 96, , , 29, 29, 29
38.5568370, -120.5320929, 20.900, 14:13:49.053, 12, 0.00, 0.51, 97, 0.800, 1.000, 26.000, 763, 100, 100, 28, 23943, -18709, 5215, 5377, 17, 14, 1529529229.054, 6, 0, 1024, 1024, 1024, 1024, 0, 6, 3968, 3994, 3992, 3973, 3994, 4010, 0, 1, 12204, -89.900, 0.000, 25.000, 0.000, 0.000, -2.900, 0.0, , , , , , 96, , , 29, 29, 29
38.5568370, -120.5320929, 20.900, 14:13:49.149, 12, 0.00, 0.51, 97, 0.800, 1.000, 26.000, 763, 100, 100, 28, 23943, -18709, 5215, 5377, 17, 14, 1529529229.149, 102, 0, 1024, 1024, 1024, 1024, 0, 6, 3968, 3994, 3992, 3973, 3994, 4010, 0, 1, 12300, -89.900, 0.000, 25.000, 0.000, 0.000, -2.900, 0.0, , , , , , 96, , , 29, 29, 29
38.5568370, -120.5320929, 21.200, 14:13:49.249, 12, 0.00, 0.51, 97, 0.800, 1.000, 25.900, 763, 100, 100, 28, 23943, -18709, 5215, 5377, 17, 14, 1529529229.249, 92, 0, 1024, 1024, 1024, 1024, 0, 6, 3968, 3994, 3992, 3973, 3994, 4010, 0, 1, 12400, -89.900, 0.000, 25.000, 0.000, 0.000, -2.900, 0.0, , , , , , 96, , , 29, 29, 29
38.5568371, -120.5320929, 21.500, 14:13:49.349, 11, 0.00, 0.52, 97, 0.700, 1.100, 25.800, 763, 100, 100, 28, 23943, -18709, 5215, 5377, 17, 14, 1529529229.349, 62, 0, 1024, 1024, 1024, 1024, 0, 6, 3968, 3994, 3992, 3973, 3994, 4010, 0, 1, 12500, -89.900, 0.000, 25.000, 0.000, 0.000, -2.900, 0.0, , , , , , 96, , , 29, 29, 29
38.5568371, -120.5320929, 21.800, 14:13:49.449, 11, 0.00, 0.52, 97, 0.800, 1.200, 25.700, 763, 100, 100, 28, 23943, -18709, 5215, 5377, 17, 14, 1529529229.449, 60, 0, 1024, 1024, 1024, 1024, 0, 6, 3968, 3994, 3992, 3973, 3994, 4010, 0, 1, 12600, -89.900, 0.000, 25.000, 0.000, 0.000, -2.900, 0.0, , , , , , 96, , , 29, 29, 29
38.5568371, -120.5320930, 22.100, 14:13:49.549, 12, 0.00, 0.53, 97, 0.800, 1.600, 25.700, 763, 100, 100, 28, 23943, -18709, 5215, 5377, 17, 14, 1529529229.549, 76, 0, 1024, 1024, 1024, 1024, 0, 6, 3968, 3994, 3992, 3973, 3994, 4010, 0, 1, 12700, -89.900, 0.000, 25.000, 0.000, 0.000, -2.800, 0.0, , , , , , 96, , , 29, 29, 29
38.5568372, -120.5320930, 22.400, 14:13:49.649, 12, 0.00, 0.53, 97, 0.600, 1.700, 25.900, 763, 100, 100, 28, 23943, -18709, 5215, 5377, 17, 14, 1529529229.649, 66, 0, 1024, 1024, 1024, 1024, 0, 6, 3968, 3994, 3992, 3973, 3994, 4010, 0, 1, 12800, -89.900, 0.000, 25.000, 0.000, 0.000, -2.800, 0.0, , , , , , 96, , , 29, 29, 29
38.5568373, -120.5320931, 23.000, 14:13:49.749, 12, 0.00, 0.55, 97, 1.200, 1.300, 26.100, 763, 100, 100, 28, 23943, -18709, 5215, 5377, 17, 14, 1529529229.749, 67, 0, 1024, 1024, 1024, 1024, 0, 6, 3968, 3994, 3992, 3973, 3994, 4010, 0, 1, 12900, -89.900, 0.000, 25.000, 0.000, 0.000, -2.800, 0.0, , , , , , 96, , , 29, 29, 29
38.5568373, -120.5320931, 23.300, 14:13:49.849, 14, 0.00, 0.55, 97, 1.200, 1.600, 26.100, 763, 100, 100, 28, 23905, -19083, 5215, 5377, 17, 14, 1529529229.849, 62, 0, 1024, 1024, 1024, 1024, 0, 6, 3957, 3987, 3996, 3971, 3988, 3998, 0, 1, 13000, -89.900, 0.000, 25.000, 0.000, 0.000, -2.900, 0.0, , , , , , 96, , , 29, 29, 29
38.5568373, -120.5320931, 23.300, 14:13:49.949, 14, 0.00, 0.55, 97, 1.200, 1.600, 26.100, 763, 100, 100, 28, 23905, -19083, 5215, 5377, 17, 14, 1529529229.949, 162, 0, 1024, 1024, 1024, 1024, 0, 6, 3957, 3987, 3996, 3971, 3988, 3998, 0, 1, 13100, -89.900, 0.000, 25.000, 0.000, 0.000, -2.900, 0.0, , , , , , 96, , , 29, 29, 29
38.5568373, -120.5320930, 23.600, 14:13:50.049, 14, 0.00, 0.55, 97, 1.000, 1.800, 26.000, 763, 100, 100, 28, 23905, -19083, 5215, 5377, 17, 14, 1529529230.049, 44, 0, 1024, 1024, 1024, 1024, 0, 6, 3957, 3987, 3996, 3971, 3988, 3998, 0, 1, 13200, -89.900, 0.000, 25.000, 0.000, 0.000, -3.000, 0.0, , , , , , 96, , , 29, 29, 29
38.5568373, -120.5320930, 23.900, 14:13:50.149, 14, 0.00, 0.55, 97, 0.700, 1.800, 26.000, 763, 100, 100, 28, 23905, -19083, 5215, 5377, 17, 14, 1529529230.149, 46, 0, 1024, 1024, 1024, 1024, 0, 6, 3957, 3987, 3996, 3971, 3988, 3998, 0, 1, 13300, -89.900, 0.000, 25.000, 0.000, 0.000, -2.900, 0.0, , , , , , 96, , , 29, 29, 29
38.5568373, -120.5320930, 24.500, 14:13:50.249, 14, 0.00, 0.55, 97, 0.200, 1.500, 26.100, 763, 100, 100, 28, 23905, -19083, 5215, 5377, 17, 14, 1529529230.249, 48, 0, 1024, 1024, 1024, 1024, 0, 6, 3957, 3987, 3996, 3971, 3988, 3998, 0, 1, 13400, -89.900, 0.000, 25.000, 0.000, 0.000, -2.800, 0.0, , , , , , 96, , , 29, 29, 29
38.5568373, -120.5320930, 24.500, 14:13:50.349, 14, 0.00, 0.55, 97, 0.200, 1.500, 26.100, 763, 100, 100, 28, 23905, -19083, 5215, 5377, 17, 14, 1529529230.349, 149, 0, 1024, 1024, 1024, 1024, 0, 6, 3957, 3987, 3996, 3971, 3988, 3998, 0, 1, 13500, -89.900, 0.000, 25.000, 0.000, 0.000, -2.800, 0.0, , , , , , 96, , , 29, 29, 29
38.5568373, -120.5320930, 25.100, 14:13:50.449, 14, 0.00, 0.54, 97, 0.000, 1.300, 26.100, 763, 100, 100, 28, 23905, -19083, 5215, 5377, 17, 14, 1529529230.449, 39, 0, 1024, 1024, 1024, 1024, 0, 6, 3957, 3987, 3996, 3971, 3988, 3998, 0, 1, 13600, -89.900, 0.000, 25.000, 0.000, 0.000, -2.800, 0.0, , , , , , 96, , , 29, 29, 29
38.5568372, -120.5320930, 25.400, 14:13:50.549, 14, 0.00, 0.53, 97, 0.000, 1.200, 26.100, 763, 100, 100, 28, 23905, -19083, 5215, 5377, 17, 14, 1529529230.549, 46, 0, 1024, 1024, 1024, 1024, 0, 6, 3957, 3987, 3996, 3971, 3988, 3998, 0, 1, 13700, -90.000, 0.000, 25.000, 0.000, 0.000, -2.800, 0.0, , , , , , 96, , , 29, 29, 29
38.5568372, -120.5320930, 25.700, 14:13:50.649, 13, 0.00, 0.53, 97, 0.100, 1.100, 26.100, 763, 100, 100, 28, 23905, -19083, 5215, 5377, 17, 14, 1529529230.649, 24, 0, 1024, 1024, 1024, 1024, 0, 6, 3957, 3987, 3996, 3971, 3988, 3998, 0, 1, 13800, -89.900, 0.000, 25.000, 0.000, 0.000, -2.900, 0.0, , , , , , 96, , , 29, 29, 29
38.5568372, -120.5320930, 26.000, 14:13:50.749, 13, 0.00, 0.53, 97, 0.300, 1.200, 26.100, 763, 100, 100, 28, 23905, -19083, 5215, 5377, 17, 14, 1529529230.749, 27, 0, 1024, 1024, 1024, 1024, 0, 6, 3957, 3987, 3996, 3971, 3988, 3998, 0, 1, 13900, -89.900, 0.000, 25.000, 0.000, 0.000, -3.000, 0.0, , , , , , 96, , , 29, 29, 29
38.5568371, -120.5320931, 26.300, 14:13:50.849, 14, 0.00, 0.53, 97, 0.500, 1.100, 26.100, 763, 100, 100, 28, 23853, -19672, 5215, 5377, 17, 14, 1529529230.849, 15, 0, 1024, 1024, 1024, 1024, 0, 6, 3957, 3987, 3996, 3971, 3988, 3998, 0, 1, 14000, -89.900, 0.000, 25.000, 0.000, 0.000, -3.000, 0.0, , , , , , 96, , , 29, 29, 29
38.5568371, -120.5320931, 26.700, 14:13:50.949, 14, 0.00, 0.53, 97, 0.600, 1.000, 26.100, 763, 100, 100, 28, 23853, -19672, 5215, 5377, 17, 14, 1529529230.949, 32, 0, 1024, 1024, 1024, 1024, 0, 6, 3957, 3987, 3996, 3971, 3988, 3998, 0, 1, 14100, -89.900, 0.000, 25.000, 0.000, 0.000, -3.000, 0.0, , , , , , 96, , , 29, 29, 29
38.5568371, -120.5320931, 27.000, 14:13:51.049, 14, 0.00, 0.52, 97, 0.500, 0.900, 26.200, 763, 100, 100, 28, 23853, -19672, 5215, 5377, 17, 14, 1529529231.049, 25, 0, 1024, 1024, 1024, 1024, 0, 6, 3957, 3987, 3996, 3971, 3988, 3998, 0, 1, 14200, -90.000, 0.000, 25.000, 0.000, 0.000, -3.000, 0.0, , , , , , 96, , , 29, 29, 29
38.5568371, -120.5320931, 27.000, 14:13:51.149, 14, 0.00, 0.52, 97, 0.500, 0.900, 26.200, 763, 100, 100, 28, 23853, -19672, 5215, 5377, 17, 14, 1529529231.149, 125, 0, 1024, 1024, 1024, 1024, 0, 6, 3957, 3987, 3996, 3971, 3988, 3998, 0, 1, 14300, -90.000, 0.000, 25.000, 0.000, 0.000, -3.000, 0.0, , , , , , 96, , , 29, 29, 29
38.5568370, -120.5320932, 27.600, 14:13:51.249, 14, 0.00, 0.52, 97, 0.700, 0.800, 26.200, 763, 100, 100, 28, 23853, -19672, 5215, 5377, 17, 14, 1529529231.249, 16, 0, 1024, 1024, 1024, 1024, 0, 6, 3941, 3983, 3970, 3950, 3964, 3992, 0, 1, 14400, -89.900, 0.000, 25.000, 0.000, 0.000, -2.900, 0.0, , , , , , 96, , , 29, 29, 29
38.5568370, -120.5320933, 27.900, 14:13:51.348, 14, 0.00, 0.52, 97, 0.600, 0.800, 26.200, 763, 100, 92, 28, 23853, -19672, 5215, 5377, 17, 14, 1529529231.349, 12, 0, 1024, 1024, 1024, 1024, 0, 6, 3941, 3983, 3970, 3950, 3964, 3992, 0, 1, 14500, -90.000, 0.000, 25.000, 0.000, 0.000, -2.900, 0.0, , , , , , 96, , , 29, 29, 29
38.5568369, -120.5320933, 28.200, 14:13:51.449, 14, 0.00, 0.52, 97, 0.800, 0.700, 26.300, 763, 100, 92, 28, 23853, -19672, 5215, 5377, 17, 14, 1529529231.449, 15, 0, 1024, 1024, 1024, 1024, 0, 6, 3941, 3983, 3970, 3950, 3964, 3992, 0, 1, 14600, -90.000, 0.000, 25.000, 0.000, 0.000, -2.900, 0.0, , , , , , 96, , , 29, 29, 29
38.5568369, -120.5320933, 28.500, 14:13:51.549, 14, 0.00, 0.51, 97, 0.700, 0.700, 26.300, 763, 100, 92, 28, 23853, -19672, 5215, 5377, 17, 14, 1529529231.549, 5, 0, 1024, 1024, 1024, 1024, 0, 6, 3941, 3983, 3970, 3950, 3964, 3992, 0, 1, 14700, -90.000, 0.000, 25.000, 0.000, 0.000, -2.900, 0.0, , , , , , 96, , , 29, 29, 29
38.5568369, -120.5320933, 28.500, 14:13:51.649, 14, 0.00, 0.51, 97, 0.700, 0.700, 26.300, 763, 100, 92, 28, 23853, -19672, 5215, 5377, 17, 14, 1529529231.649, 105, 0, 1024, 1024, 1024, 1024, 0, 6, 3941, 3983, 3970, 3950, 3964, 3992, 0, 1, 14800, -90.000, 0.000, 25.000, 0.000, 0.000, -2.900, 0.0, , , , , , 96, , , 29, 29, 29
38.5568368, -120.5320934, 28.800, 14:13:51.749, 14, 0.00, 0.51, 97, 0.700, 0.700, 26.300, 763, 100, 92, 28, 23853, -19672, 5215, 5377, 17, 14, 1529529231.749, 85, 0, 1024, 1024, 1024, 1024, 0, 6, 3941, 3983, 3970, 3950, 3964, 3992, 0, 1, 14900, -90.000, 0.000, 25.000, 0.000, 0.000, -2.800, 0.0, , , , , , 96, , , 29, 29, 29
38.5568368, -120.5320934, 29.100, 14:13:51.849, 14, 0.00, 0.51, 97, 0.700, 0.500, 26.300, 763, 100, 92, 28, 23853, -19672, 5215, 5377, 17, 14, 1529529231.849, 98, 0, 1024, 1024, 1024, 1024, 0, 6, 3941, 3983, 3970, 3950, 3964, 3992, 0, 1, 15000, -90.000, 0.000, 25.000, 0.000, 0.000, -2.800, 0.0, , , , , , 96, , , 29, 29, 29
38.5568367, -120.5320935, 29.400, 14:13:51.949, 14, 0.00, 0.50, 97, 1.000, 0.200, 26.200, 763, 100, 92, 28, 23853, -19672, 5215, 5377, 17, 14, 1529529231.949, 93, 0, 1024, 1024, 1024, 1024, 0, 6, 3941, 3983, 3970, 3950, 3964, 3992, 0, 1, 15100, -90.000, 0.000, 25.000, 0.000, 0.000, -2.900, 0.0, , , , , , 96, , , 29, 29, 29
38.5568366, -120.5320935, 29.700, 14:13:52.049, 14, 0.00, 0.50, 97, 1.100, 0.100, 26.100, 763, 100, 92, 28, 23853, -19672, 5215, 5377, 17, 14, 1529529232.049, 79, 0, 1024, 1024, 1024, 1024, 0, 6, 3941, 3983, 3970, 3950, 3964, 3992, 0, 1, 15200, -90.000, 0.000, 25.000, 0.000, 0.000, -2.900, 0.0, , , , , , 96, , , 29, 29, 29
38.5568366, -120.5320935, 30.000, 14:13:52.149, 14, 0.00, 0.50, 97, 1.000, 0.200, 26.000, 763, 100, 92, 28, 23853, -19672, 5215, 5377, 17, 14, 1529529232.149, 72, 0, 1024, 1024, 1024, 1024, 0, 6, 3941, 3983, 3970, 3950, 3964, 3992, 0, 1, 15300, -89.900, 0.000, 25.000, 0.000, 0.000, -2.900, 0.0, , , , , , 96, , , 29, 29, 29
38.5568366, -120.5320936, 30.300, 14:13:52.249, 14, 0.00, 0.50, 97, 1.100, 0.300, 26.000, 763, 100, 92, 28, 23853, -19672, 5215, 5377, 17, 14, 1529529232.249, 63, 0, 1024, 1024, 1024, 1024, 0, 6, 3941, 3983, 3970, 3950, 3964, 3992, 0, 1, 15400, -89.900, 0.000, 25.000, 0.000, 0.000, -2.900, 0.0, , , , , , 96, , , 29, 29, 29
38.5568366, -120.5320936, 30.600, 14:13:52.349, 14, 0.00, 0.50, 97, 1.000, 0.300, 26.100, 763, 100, 92, 28, 23853, -19672, 5215, 5377, 17, 14, 1529529232.349, 67, 0, 1024, 1024, 1024, 1024, 0, 6, 3941, 3983, 3970, 3950, 3964, 3992, 0, 1, 15500, -90.000, 0.000, 25.000, 0.000, 0.000, -2.900, 0.0, , , , , , 96, , , 29, 29, 29
38.5568366, -120.5320937, 30.900, 14:13:52.449, 14, 0.00, 0.50, 97, 0.700, 0.200, 26.300, 763, 100, 91, 28, 23853, -19672, 5215, 5377, 17, 14, 1529529232.449, 62, 0, 1024, 1024, 1024, 1024, 0, 6, 3941, 3983, 3970, 3950, 3964, 3992, 0, 1, 15600, -89.900, 0.000, 25.000, 0.000, 0.000, -2.900, 0.0, , , , , , 96, , , 29, 29, 29
38.5568366, -120.5320938, 31.200, 14:13:52.549, 16, 0.00, 0.51, 97, 0.800, 0.200, 26.500, 763, 100, 91, 28, 23853, -19672, 5215, 5377, 17, 14, 1529529232.549, 59, 0, 1024, 1024, 1024, 1024, 0, 6, 3941, 3983, 3970, 3950, 3964, 3992, 0, 1, 15700, -89.900, 0.000, 25.000, 0.000, 0.000, -3.000, 0.0, , , , , , 96, , , 29, 29, 29
38.5568367, -120.5320940, 31.800, 14:13:52.649, 16, 0.00, 0.52, 97, 1.900, 0.700, 26.500, 763, 100, 91, 28, 23853, -19672, 5215, 5377, 17, 14, 1529529232.649, 48, 0, 1024, 1024, 1024, 1024, 0, 6, 3941, 3983, 3970, 3950, 3964, 3992, 0, 1, 15800, -89.900, 0.000, 25.000, 0.000, 0.000, -2.900, 0.0, , , , , , 96, , , 29, 29, 29
38.5568367, -120.5320940, 32.100, 14:13:52.749, 16, 0.00, 0.53, 97, 2.300, 0.900, 26.400, 763, 100, 91, 28, 23853, -19672, 5215, 5377, 17, 14, 1529529232.749, 54, 0, 1024, 1024, 1024, 1024, 0, 6, 3941, 3983, 3970, 3950, 3964, 3992, 0, 1, 15900, -89.900, 0.000, 25.000, 0.000, 0.000, -2.800, 0.0, , , , , , 96, , , 29, 29, 29
38.5568368, -120.5320941, 32.400, 14:13:52.849, 16, 0.00, 0.54, 97, 2.400, 1.100, 26.300, 763, 100, 91, 28, 23747, -20255, 5215, 5377, 17, 14, 1529529232.849, 21, 0, 1024, 1024, 1024, 1024, 0, 6, 3935, 3976, 3977, 3959, 3965, 3982, 0, 1, 16000, -89.900, 0.000, 25.000, 0.000, 0.000, -2.800, 0.0, , , , , , 96, , , 29, 29, 29
38.5568369, -120.5320942, 32.700, 14:13:52.949, 16, 0.00, 0.55, 97, 2.600, 1.200, 26.200, 763, 100, 99, 28, 23747, -20255, 5215, 5377, 17, 14, 1529529232.949, 11, 0, 1024, 1024, 1024, 1024, 0, 6, 3935, 3976, 3977, 3959, 3965, 3982, 0, 1, 16100, -89.900, 0.000, 25.000, 0.000, 0.000, -2.900, 0.0, , , , , , 96, , , 29, 29, 29
38.5568369, -120.5320943, 33.000, 14:13:53.049, 17, 0.00, 0.56, 97, 3.000, 1.200, 26.000, 763, 100, 99, 28, 23747, -20255, 5215, 5377, 17, 14, 1529529233.049, 20, 0, 1024, 1024, 1024, 1024, 0, 6, 3935, 3976, 3977, 3959, 3965, 3982, 0, 1, 16200, -89.900, 0.000, 25.000, 0.000, 0.000, -2.900, 0.0, , , , , , 96, , , 29, 29, 29
38.5568369, -120.5320943, 33.300, 14:13:53.149, 17, 0.00, 0.56, 97, 3.000, 1.200, 25.700, 763, 100, 99, 28, 23747, -20255, 5215, 5377, 17, 14, 1529529233.149, 23, 0, 1024, 1024, 1024, 1024, 0, 6, 3935, 3976, 3977, 3959, 3965, 3982, 0, 1, 16300, -89.900, 0.000, 25.000, 0.000, 0.000, -2.800, 0.0, , , , , , 96, , , 29, 29, 29
38.5568370, -120.5320943, 33.600, 14:13:53.249, 17, 0.00, 0.57, 97, 2.700, 0.900, 25.500, 763, 100, 99, 28, 23747, -20255, 5215, 5377, 17, 14, 1529529233.249, 16, 0, 1024, 1024, 1024, 1024, 0, 6, 3935, 3976, 3977, 3959, 3965, 3982, 0, 1, 16400, -90.000, 0.000, 25.000, 0.000, 0.000, -2.800, 0.0, , , , , , 96, , , 29, 29, 29
38.5568370, -120.5320944, 33.800, 14:13:53.355, 17, 0.00, 0.57, 97, 2.400, 0.800, 25.400, 763, 100, 97, 28, 23781, -19053, 5215, 5377, 17, 14, 1529529233.355, 3, 0, 1024, 1024, 1024, 1024, 0, 6, 3935, 3976, 3977, 3959, 3965, 3982, 0, 1, 16506, -90.000, 0.000, 25.000, 0.000, 0.000, -2.800, 0.0, , , , , , 96, , , 29, 29, 29
38.5568371, -120.5320944, 34.100, 14:13:53.448, 17, 0.00, 0.58, 97, 2.300, 0.900, 25.400, 763, 100, 97, 28, 23781, -19053, 5215, 5377, 17, 14, 1529529233.448, 12, 0, 1024, 1024, 1024, 1024, 0, 6, 3939, 3972, 3971, 3957, 3958, 3985, 0, 1, 16599, -90.000, 0.000, 25.000, 0.000, 0.000, -2.800, 0.0, , , , , , 96, , , 29, 29, 29
38.5568371, -120.5320943, 34.400, 14:13:53.549, 17, 0.00, 0.58, 97, 2.200, 1.100, 25.400, 763, 100, 97, 28, 23781, -19053, 5215, 5377, 17, 14, 1529529233.549, 3, 0, 1024, 1024, 1024, 1024, 0, 6, 3939, 3972, 3971, 3957, 3958, 3985, 0, 1, 16700, -89.900, 0.000, 25.000, 0.000, 0.000, -2.800, 0.0, , , , , , 96, , , 29, 29, 29
38.5568371, -120.5320943, 34.400, 14:13:53.649, 17, 0.00, 0.58, 97, 2.200, 1.100, 25.400, 763, 100, 97, 28, 23781, -19053, 5215, 5377, 17, 14, 1529529233.649, 103, 0, 1024, 1024, 1024, 1024, 0, 6, 3939, 3972, 3971, 3957, 3958, 3985, 0, 1, 16800, -89.900, 0.000, 25.000, 0.000, 0.000, -2.800, 0.0, , , , , , 96, , , 29, 29, 29
38.5568371, -120.5320943, 34.400, 14:13:53.749, 17, 0.00, 0.58, 97, 2.200, 1.100, 25.400, 763, 100, 97, 28, 23781, -19053, 5215, 5377, 17, 14, 1529529233.749, 203, 0, 1024, 1024, 1024, 1024, 0, 6, 3939, 3972, 3971, 3957, 3958, 3985, 0, 1, 16900, -89.900, 0.000, 25.000, 0.000, 0.000, -2.800, 0.0, , , , , , 96, , , 29, 29, 29
38.5568374, -120.5320943, 35.000, 14:13:53.849, 17, 0.00, 0.60, 97, 2.300, 1.700, 25.500, 763, 100, 97, 28, 23781, -19053, 5215, 5377, 17, 14, 1529529233.849, 74, 0, 1024, 1024, 1024, 1024, 0, 6, 3939, 3972, 3971, 3957, 3958, 3985, 0, 1, 17000, -89.900, 0.000, 25.000, 0.000, 0.000, -2.900, 0.0, , , , , , 96, , , 29, 29, 29
38.5568375, -120.5320943, 35.300, 14:13:53.949, 17, 0.00, 0.61, 97, 2.400, 2.100, 25.600, 763, 100, 96, 28, 23781, -19053, 5215, 5377, 17, 14, 1529529233.949, 65, 0, 1024, 1024, 1024, 1024, 0, 6, 3939, 3972, 3971, 3957, 3958, 3985, 0, 1, 17100, -89.900, 0.000, 25.000, 0.000, 0.000, -2.900, 0.0, , , , , , 96, , , 29, 29, 29
38.5568376, -120.5320943, 35.500, 14:13:54.049, 17, 0.00, 0.62, 97, 2.300, 2.200, 25.700, 763, 100, 96, 28, 23781, -19053, 5215, 5377, 17, 14, 1529529234.049, 55, 0, 1024, 1024, 1024, 1024, 0, 6, 3939, 3972, 3971, 3957, 3958, 3985, 0, 1, 17200, -89.900, 0.000, 25.000, 0.000, 0.000, -2.900, 0.0, , , , , , 96, , , 29, 29, 29
38.5568376, -120.5320943, 35.800, 14:13:54.149, 17, 0.00, 0.63, 97, 2.300, 2.300, 25.800, 763, 100, 96, 28, 23781, -19053, 5215, 5377, 17, 14, 1529529234.149, 70, 0, 1024, 1024, 1024, 1024, 0, 6, 3939, 3972, 3971, 3957, 3958, 3985, 0, 1, 17300, -89.900, 0.000, 25.000, 0.000, 0.000, -2.900, 0.0, , , , , , 96, , , 29, 29, 29
38.5568378, -120.5320941, 36.400, 14:13:54.249, 17, 0.00, 0.63, 97, 1.600, 2.400, 26.100, 763, 100, 96, 28, 23781, -19053, 5215, 5377, 17, 14, 1529529234.249, 70, 0, 1024, 1024, 1024, 1024, 0, 6, 3939, 3972, 3971, 3957, 3958, 3985, 0, 1, 17400, -89.900, 0.000, 25.000, 0.000, 0.000, -2.900, 0.0, , , , , , 96, , , 29, 29, 29
38.5568378, -120.5320941, 36.400, 14:13:54.349, 17, 0.00, 0.63, 97, 1.600, 2.400, 26.100, 763, 100, 96, 28, 23874, -18700, 5215, 5377, 17, 14, 1529529234.349, 170, 0, 1024, 1024, 1024, 1024, 0, 6, 3939, 3972, 3971, 3957, 3958, 3985, 0, 1, 17500, -89.900, 0.000, 25.000, 0.000, 0.000, -2.900, 0.0, , , , , , 96, , , 29, 29, 29
38.5568378, -120.5320941, 36.700, 14:13:54.449, 17, 0.00, 0.63, 97, 1.400, 2.700, 26.200, 763, 100, 95, 28, 23874, -18700, 5215, 5377, 17, 14, 1529529234.449, 70, 0, 1024, 1024, 1024, 1024, 0, 6, 3936, 3975, 3981, 3970, 3977, 3993, 0, 1, 17600, -89.900, 0.000, 25.000, 0.000, 0.000, -3.000, 0.0, , , , , , 96, , , 29, 29, 29
38.5568378, -120.5320939, 37.300, 14:13:54.549, 17, 0.00, 0.63, 97, 1.500, 2.400, 26.200, 763, 100, 95, 28, 23874, -18700, 5215, 5377, 17, 14, 1529529234.549, 40, 0, 1024, 1024, 1024, 1024, 0, 6, 3936, 3975, 3981, 3970, 3977, 3993, 0, 1, 17700, -89.900, 0.000, 25.000, 0.000, 0.000, -3.000, 0.0, , , , , , 96, , , 29, 29, 29
38.5568378, -120.5320939, 37.300, 14:13:54.649, 17, 0.00, 0.63, 97, 1.500, 2.400, 26.200, 763, 100, 95, 28, 23874, -18700, 5215, 5377, 17, 14, 1529529234.649, 140, 0, 1024, 1024, 1024, 1024, 0, 6, 3936, 3975, 3981, 3970, 3977, 3993, 0, 1, 17800, -89.900, 0.000, 25.000, 0.000, 0.000, -3.000, 0.0, , , , , , 96, , , 29, 29, 29
38.5568378, -120.5320939, 37.600, 14:13:54.749, 17, 0.00, 0.63, 97, 1.400, 2.200, 26.200, 763, 100, 95, 28, 23874, -18700, 5215, 5377, 17, 14, 1529529234.749, 22, 0, 1024, 1024, 1024, 1024, 0, 6, 3936, 3975, 3981, 3970, 3977, 3993, 0, 1, 17900, -89.900, 0.000, 25.000, 0.000, 0.000, -3.000, 0.0, , , , , , 96, , , 29, 29, 29
38.5568379, -120.5320938, 38.200, 14:13:54.849, 17, 0.00, 0.63, 97, 1.200, 2.100, 26.100, 763, 100, 95, 28, 23874, -18700, 5215, 5377, 17, 14, 1529529234.849, 51, 0, 1024, 1024, 1024, 1024, 0, 6, 3936, 3975, 3981, 3970, 3977, 3993, 0, 1, 18000, -89.900, 0.000, 25.000, 0.000, 0.000, -3.000, 0.0, , , , , , 96, , , 29, 29, 29
38.5568380, -120.5320937, 38.500, 14:13:54.949, 17, 0.00, 0.64, 97, 1.300, 2.000, 26.000, 763, 100, 96, 28, 23874, -18700, 5215, 5377, 17, 14, 1529529234.949, 38, 0, 1024, 1024, 1024, 1024, 0, 6, 3936, 3975, 3981, 3970, 3977, 3993, 0, 1, 18100, -89.900, 0.000, 25.000, 0.000, 0.000, -3.000, 0.0, , , , , , 96, , , 29, 29, 29
38.5568380, -120.5320937, 38.800, 14:13:55.049, 17, 0.00, 0.64, 97, 1.300, 2.300, 25.900, 763, 100, 96, 28, 23874, -18700, 5215, 5377, 17, 14, 1529529235.049, 38, 0, 1024, 1024, 1024, 1024, 0, 6, 3936, 3975, 3981, 3970, 3977, 3993, 0, 1, 18200, -89.900, 0.000, 25.000, 0.000, 0.000, -3.000, 0.0, , , , , , 96, , , 29, 29, 29
38.5568380, -120.5320936, 39.100, 14:13:55.149, 17, 0.00, 0.64, 97, 1.400, 2.400, 25.900, 763, 100, 96, 28, 23874, -18700, 5215, 5377, 17, 14, 1529529235.149, 13, 0, 1024, 1024, 1024, 1024, 0, 6, 3936, 3975, 3981, 3970, 3977, 3993, 0, 1, 18300, -89.900, 0.000, 25.000, 0.000, 0.000, -3.000, 0.0, , , , , , 96, , , 29, 29, 29
38.5568380, -120.5320936, 39.500, 14:13:55.249, 17, 0.00, 0.63, 97, 1.500, 2.300, 25.800, 763, 100, 96, 28, 23874, -18700, 5215, 5377, 17, 14, 1529529235.249, 9, 0, 1024, 1024, 1024, 1024, 0, 6, 3936, 3975, 3981, 3970, 3977, 3993, 0, 1, 18400, -89.900, 0.000, 25.000, 0.000, 0.000, -3.000, 0.0, , , , , , 96, , , 29, 29, 29
38.5568379, -120.5320935, 39.800, 14:13:55.349, 17, 0.00, 0.63, 97, 1.600, 2.200, 25.800, 763, 100, 96, 28, 23833, -18249, 5161, 5377, 17, 14, 1529529235.349, 22, 0, 1024, 1024, 1024, 1024, 0, 6, 3949, 3974, 3983, 3963, 3970, 3986, 0, 1, 18500, -89.900, 0.000, 25.000, 0.000, 0.000, -3.100, 0.0, , , , , , 96, , , 29, 29, 29
38.5568379, -120.5320935, 40.100, 14:13:55.449, 17, 0.00, 0.63, 97, 1.600, 2.100, 25.800, 763, 100, 96, 28, 23833, -18249, 5161, 5377, 17, 14, 1529529235.449, 12, 0, 1024, 1024, 1024, 1024, 0, 6, 3949, 3974, 3983, 3963, 3970, 3986, 0, 1, 18600, -89.900, 0.000, 25.000, 0.000, 0.000, -3.000, 0.0, , , , , , 96, , , 29, 29, 29
38.5568379, -120.5320935, 40.100, 14:13:55.549, 17, 0.00, 0.63, 97, 1.600, 2.100, 25.800, 763, 100, 96, 28, 23833, -18249, 5161, 5377, 17, 14, 1529529235.549, 112, 0, 1024, 1024, 1024, 1024, 0, 6, 3949, 3974, 3983, 3963, 3970, 3986, 0, 1, 18700, -89.900, 0.000, 25.000, 0.000, 0.000, -3.000, 0.0, , , , , , 96, , , 29, 29, 29
38.5568379, -120.5320934, 40.700, 14:13:55.657, 17, 0.00, 0.62, 97, 1.200, 2.100, 26.000, 763, 100, 96, 28, 23833, -18249, 5161, 5377, 17, 14, 1529529235.657, 1, 0, 1024, 1024, 1024, 1024, 0, 6, 3949, 3974, 3983, 3963, 3970, 3986, 0, 1, 18808, -89.900, 0.000, 25.000, 0.000, 0.000, -2.900, 0.0, , , , , , 96, , , 29, 29, 29
38.5568378, -120.5320934, 41.000, 14:13:55.748, 17, 0.00, 0.61, 97, 1.200, 1.900, 26.100, 763, 100, 96, 28, 23833, -18249, 5161, 5377, 17, 14, 1529529235.748, 3, 0, 1024, 1024, 1024, 1024, 0, 6, 3949, 3974, 3983, 3963, 3970, 3986, 0, 1, 18899, -89.900, 0.000, 25.000, 0.000, 0.000, -2.900, 0.0, , , , , , 96, , , 29, 29, 29
38.5568378, -120.5320934, 41.000, 14:13:55.849, 17, 0.00, 0.61, 97, 1.200, 1.900, 26.100, 763, 100, 96, 28, 23833, -18249, 5161, 5377, 17, 14, 1529529235.849, 103, 0, 1024, 1024, 1024, 1024, 0, 6, 3949, 3974, 3983, 3963, 3970, 3986, 0, 1, 19000, -89.900, 0.000, 25.000, 0.000, 0.000, -2.900, 0.0, , , , , , 96, , , 29, 29, 29
38.5568378, -120.5320933, 41.300, 14:13:55.948, 17, 0.00, 0.60, 97, 1.300, 1.600, 26.100, 763, 100, 96, 28, 23833, -18249, 5161, 5377, 17, 14, 1529529235.949, 97, 0, 1024, 1024, 1024, 1024, 0, 6, 3949, 3974, 3983, 3963, 3970, 3986, 0, 1, 19100, -89.900, 0.000, 25.000, 0.000, 0.000, -2.900, 0.0, , , , , , 96, , , 29, 29, 29
38.5568377, -120.5320933, 41.600, 14:13:56.048, 17, 0.00, 0.60, 97, 1.300, 1.500, 26.100, 763, 100, 96, 28, 23833, -18249, 5161, 5377, 17, 14, 1529529236.049, 99, 0, 1024, 1024, 1024, 1024, 0, 6, 3949, 3974, 3983, 3963, 3970, 3986, 0, 1, 19200, -89.900, 0.000, 25.000, 0.000, 0.000, -2.900, 0.0, , , , , , 96, , , 29, 29, 29
38.5568376, -120.5320933, 41.900, 14:13:56.148, 17, 0.00, 0.59, 97, 1.500, 1.600, 25.900, 763, 100, 96, 28, 23833, -18249, 5161, 5377, 17, 14, 1529529236.149, 81, 0, 1024, 1024, 1024, 1024, 0, 6, 3949, 3974, 3983, 3963, 3970, 3986, 0, 1, 19300, -89.900, 0.000, 25.000, 0.000, 0.000, -2.900, 0.0, , , , , , 96, , , 29, 29, 29
38.5568376, -120.5320932, 42.200, 14:13:56.248, 17, 0.00, 0.58, 97, 1.700, 1.500, 25.700, 763, 100, 96, 28, 23833, -18249, 5161, 5377, 17, 14, 1529529236.249, 83, 0, 1024, 1024, 1024, 1024, 0, 6, 3949, 3974, 3983, 3963, 3970, 3986, 0, 1, 19400, -89.900, 0.000, 25.000, 0.000, 0.000, -2.900, 0.0, , , , , , 96, , , 29, 29, 29
38.5568375, -120.5320932, 42.500, 14:13:56.348, 17, 0.00, 0.57, 97, 1.600, 1.300, 25.600, 763, 100, 96, 28, 23874, -17227, 5161, 5377, 17, 14, 1529529236.349, 75, 0, 1024, 1024, 1024, 1024, 0, 6, 3949, 3974, 3983, 3963, 3970, 3986, 0, 1, 19500, -89.900, 0.000, 25.000, 0.000, 0.000, -2.900, 0.0, , , , , , 96, , , 29, 29, 29
38.5568375, -120.5320932, 42.500, 14:13:56.448, 17, 0.00, 0.57, 97, 1.600, 1.300, 25.600, 763, 100, 94, 28, 23874, -17227, 5161, 5377, 17, 14, 1529529236.449, 175, 0, 1024, 1024, 1024, 1024, 0, 6, 3949, 3974, 3983, 3963, 3970, 3986, 0, 1, 19600, -89.900, 0.000, 25.000, 0.000, 0.000, -2.900, 0.0, , , , , , 96, , , 29, 29, 29
38.5568374, -120.5320930, 43.100, 14:13:56.548, 17, 0.00, 0.56, 97, 0.800, 1.400, 25.500, 763, 100, 94, 28, 23874, -17227, 5161, 5377, 17, 14, 1529529236.549, 58, 0, 1024, 1024, 1024, 1024, 0, 6, 3949, 3974, 3983, 3963, 3970, 3986, 0, 1, 19700, -89.900, 0.000, 25.000, 0.000, 0.000, -2.900, 0.0, , , , , , 96, , , 29, 29, 29
38.5568374, -120.5320930, 43.400, 14:13:56.648, 17, 0.00, 0.55, 97, 0.800, 1.500, 25.400, 763, 100, 94, 28, 23874, -17227, 5161, 5377, 17, 14, 1529529236.649, 47, 0, 1024, 1024, 1024, 1024, 0, 6, 3949, 3974, 3983, 3963, 3970, 3986, 0, 1, 19800, -89.900, 0.000, 25.000, 0.000, 0.000, -3.000, 0.0, , , , , , 96, , , 29, 29, 29
38.5568374, -120.5320929, 43.700, 14:13:56.748, 17, 0.00, 0.55, 97, 0.600, 1.600, 25.400, 763, 100, 94, 28, 23874, -17227, 5161, 5377, 17, 14, 1529529236.749, 50, 0, 1024, 1024, 1024, 1024, 0, 6, 3949, 3974, 3983, 3963, 3970, 3986, 0, 1, 19900, -89.900, 0.000, 25.000, 0.000, 0.000, -3.000, 0.0, , , , , , 96, , , 29, 29, 29
38.5568373, -120.5320927, 44.300, 14:13:56.848, 17, 0.00, 0.53, 97, 0.200, 1.900, 25.600, 763, 100, 94, 28, 23874, -17227, 5161, 5377, 17, 14, 1529529236.849, 37, 0, 1024, 1024, 1024, 1024, 0, 6, 3949, 3974, 3983, 3963, 3970, 3986, 0, 1, 20000, -89.900, 0.000, 25.000, 0.000, 0.000, -2.900, 0.0, , , , , , 96, , , 29, 29, 29
38.5568373, -120.5320926, 44.600, 14:13:56.948, 17, 0.00, 0.53, 97, 0.100, 2.000, 25.900, 763, 100, 92, 28, 23874, -17227, 5161, 5377, 17, 14, 1529529236.949, 53, 0, 1024, 1024, 1024, 1024, 0, 6, 3949, 3974, 3983, 3963, 3970, 3986, 0, 1, 20100, -89.900, 0.000, 25.000, 0.000, 0.000, -2.900, 0.0, , , , , , 96, , , 29, 29, 29
38.5568372, -120.5320925, 44.900, 14:13:57.048, 17, 0.00, 0.52, 97, 0.000, 2.100, 26.200, 763, 100, 92, 28, 23874, -17227, 5161, 5377, 17, 14, 1529529237.049, 46, 0, 1024, 1024, 1024, 1024, 0, 6, 3949, 3974, 3983, 3963, 3970, 3986, 0, 1, 20200, -89.900, 0.000, 25.000, 0.000, 0.000, -2.900, 0.0, , , , , , 96, , , 29, 29, 29
38.5568372, -120.5320925, 45.200, 14:13:57.148, 17, 0.00, 0.51, 97, 0.000, 2.000, 26.600, 763, 100, 92, 28, 23874, -17227, 5161, 5377, 17, 14, 1529529237.149, 43, 0, 1024, 1024, 1024, 1024, 0, 6, 3949, 3974, 3983, 3963, 3970, 3986, 0, 1, 20300, -89.900, 0.000, 25.000, 0.000, 0.000, -2.900, 0.0, , , , , , 96, , , 29, 29, 29
38.5568371, -120.5320924, 45.500, 14:13:57.248, 17, 0.00, 0.51, 97, -0.100, 2.100, 26.700, 763, 100, 92, 28, 23874, -17227, 5161, 5377, 17, 14, 1529529237.249, 35, 0, 1024, 1024, 1024, 1024, 0, 6, 3949, 3974, 3983, 3963, 3970, 3986, 0, 1, 20400, -89.900, 0.000, 25.000, 0.000, 0.000, -2.900, 0.0, , , , , , 96, , , 29, 29, 29
38.5568371, -120.5320923, 45.800, 14:13:57.348, 17, 0.00, 0.50, 97, -0.400, 1.900, 26.800, 763, 100, 92, 28, 23874, -17227, 5161, 5377, 17, 14, 1529529237.349, 21, 0, 1024, 1024, 1024, 1024, 0, 6, 3949, 3974, 3983, 3963, 3970, 3986, 0, 1, 20500, -89.900, 0.000, 25.000, 0.000, 0.000, -2.800, 0.0, , , , , , 96, , , 29, 29, 29
38.5568370, -120.5320922, 46.100, 14:13:57.448, 17, 0.00, 0.49, 97, -0.600, 1.600, 26.800, 763, 100, 94, 28, 23874, -17227, 5161, 5377, 17, 14, 1529529237.449, 27, 0, 1024, 1024, 1024, 1024, 0, 6, 3949, 3974, 3983, 3963, 3970, 3986, 0, 1, 20600, -90.000, 0.000, 25.000, 0.000, 0.000, -2.800, 0.0, , , , , , 96, , , 29, 29, 29
38.5568370, -120.5320921, 46.400, 14:13:57.548, 17, 0.00, 0.49, 97, -0.700, 1.500, 26.700, 763, 100, 94, 28, 23874, -17227, 5161, 5377, 17, 14, 1529529237.549, 16, 0, 1024, 1024, 1024, 1024, 0, 6, 3949, 3974, 3983, 3963, 3970, 3986, 0, 1, 20700, -89.900, 0.000, 25.000, 0.000, 0.000, -2.800, 0.0, , , , , , 96, , , 29, 29, 29
38.5568370, -120.5320921, 46.700, 14:13:57.648, 17, 0.00, 0.48, 97, -0.700, 1.700, 26.600, 763, 100, 94, 28, 23874, -17227, 5161, 5377, 17, 14, 1529529237.649, 20, 0, 1024, 1024, 1024, 1024, 0, 6, 3949, 3974, 3983, 3963, 3970, 3986, 0, 1, 20800, -89.900, 0.000, 25.000, 0.000, 0.000, -2.900, 0.0, , , , , , 96, , , 29, 29, 29
38.5568370, -120.5320921, 46.700, 14:13:57.748, 17, 0.00, 0.48, 97, -0.700, 1.700, 26.600, 763, 100, 94, 28, 23874, -17227, 5161, 5377, 17, 14, 1529529237.749, 120, 0, 1024, 1024, 1024, 1024, 0, 6, 3949, 3974, 3983, 3963, 3970, 3986, 0, 1, 20900, -89.900, 0.000, 25.000, 0.000, 0.000, -2.900, 0.0, , , , , , 96, , , 29, 29, 29
38.5568370, -120.5320920, 47.300, 14:13:57.849, 17, 0.00, 0.48, 96, -0.600, 2.100, 25.900, 763, 100, 96, 28, 23922, -16855, 5161, 5377, 17, 14, 1529529237.849, 3, 0, 1024, 1024, 1024, 1024, 0, 6, 3958, 3999, 3999, 3981, 3994, 4004, 0, 1, 21000, -89.900, 0.000, 25.000, 0.000, 0.000, -2.900, 0.0, , , , , , 96, , , 29, 29, 29
