latitude,longitude,altitude(feet),ascent(feet),speed(mph),distance(feet),time(millisecond),datetime(utc),satellites,gpslevel,voltage(v),max_altitude(feet),max_ascent(feet),max_speed(mph),max_distance(feet), xSpeed(mph), ySpeed(mph), zSpeed(mph), compass_heading(degrees), pitch(degrees), roll(degrees),isPhoto,isVideo,rc_elevator,rc_aileron,rc_throttle,rc_rudder,gimbal_heading(degrees),gimbal_pitch(degrees),battery_percent,voltageCell1,voltageCell2,voltageCell3,voltageCell4,voltageCell5,voltageCell6,current(A),battery_temperature(f),flycStateRaw,flycState,message
38.5568903,-120.5321655,3754.2000919192,0,0,0,3000,2018-06-20 22:04:44,11,0,25.801,3754.2000919192,0,0,0,0,0,0,27.7, -0.5, 0.4,1,0,1024,1024,1024,1024,29.2,-89.9,100,4.228,4.305,4.322,4.268,4.296,4.269,2.902,84.2,11,AutoTakeoff,DJI_0819.jpg Starting Mission from Lat/Long: 38.55689/-120.53217 Camera: Zenmuse X3 - Overlap: 90/90 - Active Connection: No
38.5568904,-120.5321655,3754.2000919192,0,0,0.036484909304,3100,2018-06-20 22:04:44,10,0,25.801,3754.2000919192,0,0,0.036484909304,0,0,0,27.7, -0.3, 0.3,0,0,1024,1024,1024,1024,29.2,-89.9,100,4.228,4.305,4.322,4.268,4.296,4.269,2.902,84.2,11,AutoTakeoff,
38.5568904,-120.5321656,3754.2000919192,0,0,0.046315946364,3200,2018-06-20 22:04:44,10,0,25.801,3754.2000919192,0,0,0.046315946364,0,0,0,27.7, 0, 0.3,0,0,1024,1024,1024,1024,29.1,-89.9,100,4.228,4.305,4.322,4.268,4.296,4.269,2.902,84.2,11,AutoTakeoff,
38.5568905,-120.5321656,3754.2000919192,0,0,0.078349411956,3300,2018-06-20 22:04:44,10,0,25.801,3754.2000919192,0,0,0.078349411956,0,0,0,27.7, 0.4, 0.2,0,0,1024,1024,1024,1024,29.1,-89.9,100,4.228,4.305,4.322,4.268,4.296,4.269,2.902,84.2,11,AutoTakeoff,
38.5568906,-120.5321656,3754.2000919192,0,0,0.113112208344,3400,2018-06-20 22:04:44,10,0,25.801,3754.2000919192,0,0,0.113112208344,0,0,0,27.8, 0.4, 0.3,0,0,1024,1024,1024,1024,29.1,-89.9,100,4.228,4.305,4.322,4.268,4.296,4.269,2.902,84.2,11,AutoTakeoff,
38.5568907,-120.5321657,3754.5281759192,0.328084,0,0.156698495828,3500,2018-06-20 22:04:44,10,0,25.801,3754.5281759192,0.328084,0,0.156698495828,0,0,0,27.8, 0.4, 0.2,0,0,1024,1024,1024,1024,29,-89.9,100,4.228,4.305,4.322,4.268,4.296,4.269,2.902,84.2,11,AutoTakeoff,
38.5568908,-120.5321657,3754.5281759192,0.328084,0,0.191140754148,3600,2018-06-20 22:04:45,10,0,25.801,3754.5281759192,0.328084,0,0.191140754148,0,0,0,27.7, 0.5, 0.3,0,0,1024,1024,1024,1024,29,-89.9,100,4.228,4.305,4.322,4.268,4.296,4.269,2.902,84.2,11,AutoTakeoff,
38.5568908,-120.5321658,3754.8562599192,0.656168,0,0.201506568128,3700,2018-06-20 22:04:45,11,0,25.801,3754.8562599192,0.656168,0,0.201506568128,0,0,0,27.8, 0.6, 0.5,0,0,1024,1024,1024,1024,29,-89.9,100,4.228,4.305,4.322,4.268,4.296,4.269,2.902,84.2,11,AutoTakeoff,
38.5568907,-120.5321658,3754.8562599192,0.656168,0,0.169187669456,3800,2018-06-20 22:04:45,11,0,25.801,3754.8562599192,0.656168,0,0.201506568128,0,0,0,27.8, 0.5, 0.5,0,0,1024,1024,1024,1024,29,-89.9,100,4.228,4.305,4.322,4.268,4.296,4.269,2.902,84.2,11,AutoTakeoff,
38.5568907,-120.5321658,3754.8562599192,0.656168,0,0.169187669456,3900,2018-06-20 22:04:45,11,0,25.801,3754.8562599192,0.656168,0,0.201506568128,0,0,0,27.8, 0.4, 0.5,0,0,1024,1024,1024,1024,29,-89.9,100,4.228,4.305,4.322,4.268,4.296,4.269,2.902,84.2,11,AutoTakeoff,
38.5568907,-120.5321658,3755.1843439192,0.984252,0,0.169187669456,4000,2018-06-20 22:04:45,11,0,25.742,3755.1843439192,0.984252,0,0.201506568128,0,0,0,27.7, 0.3, 0.5,0,0,1024,1024,1024,1024,28.9,-89.9,100,4.257,4.265,4.278,4.259,4.286,4.266,4.478,84.2,11,AutoTakeoff,
38.5568905,-120.5321657,3755.5124279192,1.312336,0,0.092631892728,4100,2018-06-20 22:04:45,10,0,25.742,3755.5124279192,1.312336,0,0.201506568128,0,0,-0.223694,27.6, 0.1, 0.3,0,0,1024,1024,1024,1024,28.9,-89.9,100,4.257,4.265,4.278,4.259,4.286,4.266,4.478,84.2,11,AutoTakeoff,
38.5568905,-120.5321657,3755.8405119192,1.64042,0,0.092631892728,4200,2018-06-20 22:04:45,11,0,25.742,3755.8405119192,1.64042,0,0.201506568128,0,0,-0.223694,27.5, 0, 0.2,0,0,1024,1024,1024,1024,28.9,-90,100,4.257,4.265,4.278,4.259,4.286,4.266,4.478,84.2,11,AutoTakeoff,
38.5568905,-120.5321656,3755.8405119192,1.64042,0,0.078349411956,4300,2018-06-20 22:04:45,11,0,25.742,3755.8405119192,1.64042,0,0.201506568128,0,0,-0.223694,27.5, 0, 0.1,0,0,1024,1024,1024,1024,28.9,-90,100,4.257,4.265,4.278,4.259,4.286,4.266,4.478,84.2,11,AutoTakeoff,
38.5568906,-120.5321656,3756.4966799192,2.296588,0,0.113112208344,4500,2018-06-20 22:04:45,12,0,25.742,3756.4966799192,2.296588,0,0.201506568128,0,0,-0.223694,27.4, 0.1, 0,0,0,1024,1024,1024,1024,28.8,-89.9,100,4.257,4.265,4.278,4.259,4.286,4.266,4.478,84.2,11,AutoTakeoff,
38.5568906,-120.5321656,3756.4966799192,2.296588,0,0.113112208344,4700,2018-06-20 22:04:46,11,0,25.742,3756.4966799192,2.296588,0,0.201506568128,0,0,-0.223694,27.4, 0.2, 0.1,0,0,1024,1024,1024,1024,28.8,-89.9,100,4.257,4.265,4.278,4.259,4.286,4.266,4.478,84.2,11,AutoTakeoff,
38.5568906,-120.5321656,3756.8247639192,2.624672,0,0.113112208344,4800,2018-06-20 22:04:46,11,0,25.742,3756.8247639192,2.624672,0,0.201506568128,0,0,-0.223694,27.4, 0.2, 0.1,0,0,1024,1024,1024,1024,28.8,-89.9,100,4.257,4.265,4.278,4.259,4.286,4.266,4.478,84.2,11,AutoTakeoff,
38.5568906,-120.5321656,3757.1528479192,2.952756,0,0.113112208344,4900,2018-06-20 22:04:46,12,0,25.742,3757.1528479192,2.952756,0,0.201506568128,0,0,-0.223694,27.5, 0.2, 0.1,0,0,1024,1024,1024,1024,28.8,-89.9,100,4.257,4.265,4.278,4.259,4.286,4.266,4.478,84.2,11,AutoTakeoff,
38.5568907,-120.5321657,3757.1528479192,2.952756,0,0.156698495828,5000,2018-06-20 22:04:46,12,0,25.015,3757.1528479192,2.952756,0,0.201506568128,0,0,0,27.6, 0.2, 0.2,0,0,1024,1024,1024,1024,28.8,-89.9,100,4.153,4.168,4.169,4.157,4.179,4.163,15.147,84.2,14,Waypoint,
38.5568907,-120.5321658,3757.4809319192,3.28084,0,0.169187669456,5100,2018-06-20 22:04:46,12,0,25.015,3757.4809319192,3.28084,0,0.201506568128,0,0,0,27.6, 0.2, 0.4,0,0,1024,1024,1024,1024,28.8,-89.9,100,4.153,4.168,4.169,4.157,4.179,4.163,15.147,84.2,14,Waypoint,
38.5568907,-120.5321659,3757.4809319192,3.28084,0,0.185263457372,5200,2018-06-20 22:04:46,12,0,25.015,3757.4809319192,3.28084,0,0.201506568128,0,0,0,27.8, 0.2, 0.5,0,0,1024,1024,1024,1024,28.8,-89.9,100,4.153,4.168,4.169,4.157,4.179,4.163,15.147,84.2,14,Waypoint,
38.5568908,-120.5321659,3757.4809319192,3.28084,0,0.215181109248,5300,2018-06-20 22:04:46,11,0,25.015,3757.4809319192,3.28084,0,0.215181109248,0,0,0,28, 0.3, 0.7,0,0,1024,1024,1024,1024,28.8,-89.9,100,4.153,4.168,4.169,4.157,4.179,4.163,15.147,84.2,14,Waypoint,
38.5568909,-120.532166,3757.8090159192,3.608924,0,0.261288394188,5400,2018-06-20 22:04:46,11,0,25.015,3757.8090159192,3.608924,0,0.261288394188,0,0,0,28.2, 0.4, 0.8,0,0,1024,1024,1024,1024,28.7,-89.9,100,4.153,4.168,4.169,4.157,4.179,4.163,15.147,84.2,14,Waypoint,
38.556891,-120.532166,3757.8090159192,3.608924,0,0.292534786264,5500,2018-06-20 22:04:46,13,0,25.015,3757.8090159192,3.608924,0,0.292534786264,0,0,-0.223694,28.3, 0.5, 0.8,0,0,1024,1024,1024,1024,28.7,-89.9,100,4.153,4.168,4.169,4.157,4.179,4.163,15.147,84.2,14,Waypoint,
38.5568911,-120.532166,3758.1370999192,3.937008,0,0.32487533848,5600,2018-06-20 22:04:47,13,0,25.015,3758.1370999192,3.937008,0,0.32487533848,0,0,-0.223694,28.3, 0.6, 0.8,0,0,1024,1024,1024,1024,28.7,-89.9,100,4.153,4.168,4.169,4.157,4.179,4.163,15.147,84.2,14,Waypoint,
38.5568911,-120.532166,3758.4651839192,4.265092,0,0.32487533848,5700,2018-06-20 22:04:47,13,0,25.015,3758.4651839192,4.265092,0,0.32487533848,0,0,-0.223694,28.3, 0.6, 0.8,0,0,1024,1024,1024,1024,28.7,-89.9,100,4.153,4.168,4.169,4.157,4.179,4.163,15.147,84.2,14,Waypoint,
38.5568911,-120.5321661,3758.7932679192,4.593176,0,0.33837599508,5800,2018-06-20 22:04:47,13,0,25.015,3758.7932679192,4.593176,0,0.33837599508,0,0,-0.223694,28.3, 0.5, 0.8,0,0,1024,1024,1024,1024,28.7,-89.9,100,4.153,4.168,4.169,4.157,4.179,4.163,15.147,84.2,14,Waypoint,
38.5568911,-120.5321662,3759.1213519192,4.92126,0,0.35366799032,5900,2018-06-20 22:04:47,12,0,25.015,3759.1213519192,4.92126,0,0.35366799032,0,0,-0.223694,28.1, 0.3, 0.9,0,0,1024,1024,1024,1024,28.7,-90,100,4.153,4.168,4.169,4.157,4.179,4.163,15.147,84.2,14,Waypoint,
38.5568911,-120.5321662,3759.7775199192,5.577428,0,0.35366799032,6000,2018-06-20 22:04:47,12,0,24.884,3759.7775199192,5.577428,0,0.35366799032,0,0,-0.223694,28, 0.1, 0.8,0,0,1024,1024,1024,1024,28.7,-90,100,4.135,4.15,4.146,4.146,4.155,4.143,15.668,84.2,14,Waypoint,
38.556891,-120.5321662,3760.1056039192,5.905512,0,0.32421096838,6100,2018-06-20 22:04:47,13,0,24.884,3760.1056039192,5.905512,0,0.35366799032,0,0,-0.447388,27.8, 0, 0.7,0,0,1024,1024,1024,1024,28.7,-90,100,4.135,4.15,4.146,4.146,4.155,4.143,15.668,84.2,14,Waypoint,
38.5568911,-120.5321662,3760.7617719192,6.56168,0,0.35366799032,6200,2018-06-20 22:04:47,13,0,24.884,3760.7617719192,6.56168,0,0.35366799032,0,0,-0.447388,27.7, 0, 0.6,0,0,1024,1024,1024,1024,28.7,-90,100,4.135,4.15,4.146,4.146,4.155,4.143,15.668,84.2,14,Waypoint,
38.556891,-120.5321662,3761.7460239192,7.545932,0,0.32421096838,6300,2018-06-20 22:04:47,12,0,24.884,3761.7460239192,7.545932,0,0.35366799032,0,0,-0.447388,27.7, 0, 0.4,0,0,1024,1024,1024,1024,28.7,-90,100,4.135,4.15,4.146,4.146,4.155,4.143,15.668,84.2,14,Waypoint,
38.5568909,-120.5321661,3762.4021919192,8.2021,0,0.2778953501,6400,2018-06-20 22:04:47,12,0,24.884,3762.4021919192,8.2021,0,0.35366799032,0,0,-0.447388,27.6, 0, 0.3,0,0,1024,1024,1024,1024,28.7,-90,100,4.135,4.15,4.146,4.146,4.155,4.143,15.668,84.2,14,Waypoint,
38.5568908,-120.532166,3763.3864439192,9.186352,0,0.231579403736,6500,2018-06-20 22:04:47,12,0,24.884,3763.3864439192,9.186352,0,0.35366799032,0,0,-0.671082,27.6, -0.2, 0.1,0,0,1024,1024,1024,1024,28.7,-90,100,4.135,4.15,4.146,4.146,4.155,4.143,15.668,84.2,14,Waypoint,
38.5568906,-120.5321659,3764.3706959192,10.170604,0,0.1581282859,6600,2018-06-20 22:04:48,12,0,24.884,3764.3706959192,10.170604,0,0.35366799032,0,0,-0.671082,27.6, -0.5, 0,0,0,1024,1024,1024,1024,28.7,-90,100,4.135,4.15,4.146,4.146,4.155,4.143,15.668,84.2,14,Waypoint,
38.5568904,-120.5321657,3765.3549479192,11.154856,0,0.067728676708,6700,2018-06-20 22:04:48,12,0,24.884,3765.3549479192,11.154856,0,0.35366799032,0,0,-0.671082,27.6, -0.7, -0.4,0,0,1024,1024,1024,1024,28.7,-90,100,4.135,4.15,4.146,4.146,4.155,4.143,15.668,84.2,14,Waypoint,
38.5568902,-120.5321655,3766.3391999192,12.139108,0,0.036484909304,6800,2018-06-20 22:04:48,12,0,24.884,3766.3391999192,12.139108,0,0.35366799032,0,0,-0.671082,27.6, -0.7, -1,0,0,1024,1024,1024,1024,28.7,-90,100,4.135,4.15,4.146,4.146,4.155,4.143,15.668,84.2,14,Waypoint,
38.5568899,-120.5321654,3767.3234519192,13.12336,0,0.14870243258,7000,2018-06-20 22:04:48,12,0,24.884,3767.3234519192,13.12336,0,0.35366799032,0,0,-0.671082,27.6, -0.8, -1.3,0,0,1024,1024,1024,1024,28.7,-90,98,4.135,4.15,4.146,4.146,4.155,4.143,15.668,84.2,14,Waypoint,
38.5568896,-120.5321654,3768.3077039192,14.107612,0,0.25698327594,7100,2018-06-20 22:04:48,12,0,24.884,3768.3077039192,14.107612,0,0.35366799032,0,0,-0.671082,27.6, -0.9, -1.2,0,0,1024,1024,1024,1024,28.7,-90,98,4.135,4.15,4.146,4.146,4.155,4.143,15.668,84.2,14,Waypoint,
38.556889,-120.5321651,3770.6042919192,16.4042,0,0.48784122296,7200,2018-06-20 22:04:48,12,0,24.884,3770.6042919192,16.4042,0,0.48784122296,0,0,-0.671082,27.4, -1.6, -1,0,0,1024,1024,1024,1024,28.6,-90,98,4.135,4.15,4.146,4.146,4.155,4.143,15.668,84.2,14,Waypoint,
38.5568887,-120.5321649,3772.9008799192,18.700788,0,0.60833991448,7300,2018-06-20 22:04:48,12,0,24.884,3772.9008799192,18.700788,0,0.60833991448,0,0,-0.671082,27.5, -1.7, -1.3,0,0,1024,1024,1024,1024,28.6,-89.9,98,4.135,4.15,4.146,4.146,4.155,4.143,15.668,84.2,14,Waypoint,
38.5568887,-120.5321649,3772.9008799192,18.700788,0,0.60833991448,7400,2018-06-20 22:04:48,12,0,24.884,3772.9008799192,18.700788,0,0.60833991448,0,0,-0.671082,27.5, -1.7, -1.3,0,0,1024,1024,1024,1024,28.6,-89.9,98,4.135,4.15,4.146,4.146,4.155,4.143,15.668,84.2,14,Waypoint,
38.5568887,-120.5321649,3773.8851319192,19.68504,0,0.60833991448,7500,2018-06-20 22:04:48,12,0,24.884,3773.8851319192,19.68504,0,0.60833991448,0,0,-0.671082,27.6, -1.5, -1.3,0,0,1024,1024,1024,1024,28.6,-90,98,4.135,4.15,4.146,4.146,4.155,4.143,15.668,84.2,14,Waypoint,
38.5568887,-120.5321649,3775.1974679192,20.997376,0,0.60833991448,7600,2018-06-20 22:04:49,12,0,24.884,3775.1974679192,20.997376,0,0.60833991448,0,0,-0.671082,27.7, -1.3, -1.1,0,0,1024,1024,1024,1024,28.6,-89.9,98,4.135,4.15,4.146,4.146,4.155,4.143,15.668,84.2,14,Waypoint,
38.5568888,-120.532165,3776.1817199192,21.981628,0,0.56556104172,7700,2018-06-20 22:04:49,12,0,24.884,3776.1817199192,21.981628,0,0.60833991448,0,0,-0.671082,27.7, -0.9, -0.7,0,0,1024,1024,1024,1024,28.6,-89.9,98,4.135,4.15,4.146,4.146,4.155,4.143,15.668,84.2,14,Waypoint,
38.5568889,-120.5321651,3777.4940559192,23.293964,0,0.52338256268,7800,2018-06-20 22:04:49,12,0,24.884,3777.4940559192,23.293964,0,0.60833991448,0,0,-0.671082,27.6, -0.7, -0.2,0,0,1024,1024,1024,1024,28.6,-90,98,4.135,4.15,4.146,4.146,4.155,4.143,15.668,84.2,14,Waypoint,
38.5568891,-120.5321653,3778.4783079192,24.278216,0.223694,0.44152232384,7900,2018-06-20 22:04:49,13,0,24.884,3778.4783079192,24.278216,0.223694,0.60833991448,0,0,-0.671082,27.5, -0.6, 0.2,0,0,1024,1024,1024,1024,28.6,-89.9,98,4.135,4.15,4.146,4.146,4.155,4.143,15.668,84.2,14,Waypoint,
38.5568893,-120.5321655,3779.4625599192,25.262468,0.223694,0.36484909304,8000,2018-06-20 22:04:49,13,0,24.405,3779.4625599192,25.262468,0.223694,0.60833991448,0,0,-0.671082,27.4, -0.4, 0.8,0,0,1024,1024,1024,1024,28.6,-89.9,98,4.054,4.06,4.086,4.082,4.09,4.066,21.584,84.2,14,Waypoint,
38.5568896,-120.5321657,3780.4468119192,26.24672,0.223694,0.261691609424,8100,2018-06-20 22:04:49,14,0,24.405,3780.4468119192,26.24672,0.223694,0.60833991448,0,0,-0.671082,27.4, -0.2, 1.2,0,0,1024,1024,1024,1024,28.6,-89.9,98,4.054,4.06,4.086,4.082,4.09,4.066,21.584,84.2,14,Waypoint,
38.5568898,-120.5321658,3781.7591479192,27.559056,0.223694,0.201506568128,8200,2018-06-20 22:04:49,14,0,24.405,3781.7591479192,27.559056,0.223694,0.60833991448,0,0,-0.671082,27.4, 0, 1.4,0,0,1024,1024,1024,1024,28.6,-89.9,98,4.054,4.06,4.086,4.082,4.09,4.066,21.584,84.2,14,Waypoint,
38.5568901,-120.532166,3782.7433999192,28.543308,0.223694,0.160233600928,8300,2018-06-20 22:04:49,13,0,24.405,3782.7433999192,28.543308,0.223694,0.60833991448,0,0,-0.671082,27.5, 0.1, 1.6,0,0,1024,1024,1024,1024,28.6,-89.9,98,4.054,4.06,4.086,4.082,4.09,4.066,21.584,84.2,14,Waypoint,
38.5568905,-120.5321662,3783.7276519192,29.52756,0.223694,0.212628943812,8400,2018-06-20 22:04:49,13,0,24.405,3783.7276519192,29.52756,0.223694,0.60833991448,0,0,-0.671082,27.5, 0.4, 1.9,0,0,1024,1024,1024,1024,28.6,-89.9,98,4.054,4.06,4.086,4.082,4.09,4.066,21.584,84.2,14,Waypoint,
38.5568908,-120.5321663,3784.7119039192,30.511812,0.223694,0.292190626148,8500,2018-06-20 22:04:49,11,0,24.405,3784.7119039192,30.511812,0.223694,0.60833991448,0,0,-0.671082,27.6, 1.1, 2.3,0,0,1024,1024,1024,1024,28.6,-89.9,98,4.054,4.06,4.086,4.082,4.09,4.066,21.584,84.2,14,Waypoint,
38.556891,-120.5321665,3786.0242399192,31.824148,0.223694,0.38291995976,8600,2018-06-20 22:04:50,11,0,24.405,3786.0242399192,31.824148,0.223694,0.60833991448,0,0,-0.671082,27.6, 1.5, 2.4,0,0,1024,1024,1024,1024,28.6,-89.9,98,4.054,4.06,4.086,4.082,4.09,4.066,21.584,84.2,14,Waypoint,
38.5568912,-120.5321665,3787.0084919192,32.8084,0.223694,0.43500001392,8700,2018-06-20 22:04:50,13,0,24.405,3787.0084919192,32.8084,0.223694,0.60833991448,0,0,-0.671082,27.6, 1.6, 2.4,0,0,1024,1024,1024,1024,28.6,-89.9,98,4.054,4.06,4.086,4.082,4.09,4.066,21.584,84.2,14,Waypoint,
38.5568914,-120.5321666,3787.9927439192,33.792652,0,0.50947508192,8800,2018-06-20 22:04:50,13,0,24.405,3787.9927439192,33.792652,0.223694,0.60833991448,0,0,-0.671082,27.6, 1.5, 2.2,0,0,1024,1024,1024,1024,28.6,-89.9,98,4.054,4.06,4.086,4.082,4.09,4.066,21.584,84.2,14,Waypoint,
38.5568916,-120.5321667,3788.9769959192,34.776904,0,0.58496392948,8900,2018-06-20 22:04:50,13,0,24.405,3788.9769959192,34.776904,0.223694,0.60833991448,0,0,-0.671082,27.7, 1.4, 2,0,0,1024,1024,1024,1024,28.6,-89.9,98,4.054,4.06,4.086,4.082,4.09,4.066,21.584,84.2,14,Waypoint,
38.5568921,-120.532167,3790.9454999192,36.745408,0,0.78386485448,9020,2018-06-20 22:04:50,12,0,24.583,3790.9454999192,36.745408,0.223694,0.78386485448,0,0,-0.671082,27.8, 1.1, 2.1,0,0,1024,1024,1024,1024,28.6,-89.9,98,4.054,4.06,4.086,4.082,4.09,4.066,17.286,84.2,14,Waypoint,
38.5568921,-120.532167,3790.9454999192,36.745408,0,0.78386485448,9100,2018-06-20 22:04:50,12,0,24.583,3790.9454999192,36.745408,0.223694,0.78386485448,0,0,-0.671082,27.8, 1.1, 2.1,0,0,1024,1024,1024,1024,28.6,-89.9,98,4.054,4.06,4.086,4.082,4.09,4.066,17.286,84.2,14,Waypoint,
38.5568924,-120.532167,3791.9297519192,37.72966,0,0.87760501496,9200,2018-06-20 22:04:50,12,0,24.583,3791.9297519192,37.72966,0.223694,0.87760501496,0,0,-0.671082,27.8, 1.2, 2.2,0,0,1024,1024,1024,1024,28.6,-89.9,98,4.054,4.06,4.086,4.082,4.09,4.066,17.286,84.2,14,Waypoint,
38.5568926,-120.5321671,3793.2420879192,39.041996,0,0.9552821828,9300,2018-06-20 22:04:50,13,0,24.583,3793.2420879192,39.041996,0.223694,0.9552821828,0,0,-0.671082,27.8, 1.4, 2.2,0,0,1024,1024,1024,1024,28.6,-89.9,98,4.054,4.06,4.086,4.082,4.09,4.066,17.286,84.2,14,Waypoint,
38.5568928,-120.5321672,3794.2263399192,40.026248,0,1.03306105668,9400,2018-06-20 22:04:50,13,0,24.583,3794.2263399192,40.026248,0.223694,1.03306105668,0,0,-0.671082,27.8, 1.5, 2.3,0,0,1024,1024,1024,1024,28.6,-89.9,98,4.054,4.06,4.086,4.082,4.09,4.066,17.286,84.2,14,Waypoint,
38.5568929,-120.5321673,3795.2105919192,41.0105,0,1.07870082192,9500,2018-06-20 22:04:50,14,0,24.583,3795.2105919192,41.0105,0.223694,1.07870082192,0,0,-0.671082,27.8, 1.5, 2.2,0,0,1024,1024,1024,1024,28.6,-89.9,98,4.054,4.06,4.086,4.082,4.09,4.066,17.286,84.2,14,Waypoint,
38.556893,-120.5321672,3796.1948439192,41.994752,0,1.09802496952,9600,2018-06-20 22:04:51,14,0,24.583,3796.1948439192,41.994752,0.223694,1.09802496952,0,0,-0.671082,27.8, 1.4, 2,0,0,1024,1024,1024,1024,28.6,-89.9,98,4.054,4.06,4.086,4.082,4.09,4.066,17.286,84.2,14,Waypoint,
38.5568931,-120.5321672,3797.1790959192,42.979004,0,1.1308727396,9700,2018-06-20 22:04:51,14,0,24.583,3797.1790959192,42.979004,0.223694,1.1308727396,0,0,-0.671082,27.8, 1.5, 1.6,0,0,1024,1024,1024,1024,28.6,-89.9,98,4.054,4.06,4.086,4.082,4.09,4.066,17.286,84.2,14,Waypoint,
38.5568932,-120.5321674,3798.1633479192,43.963256,0,1.1888451824,9800,2018-06-20 22:04:51,14,0,24.583,3798.1633479192,43.963256,0.223694,1.1888451824,0,0,-0.671082,27.8, 1.4, 1.4,0,0,1024,1024,1024,1024,28.6,-89.9,98,4.054,4.06,4.086,4.082,4.09,4.066,17.286,84.2,14,Waypoint,
38.5568933,-120.5321673,3799.1475999192,44.947508,0,1.2090387526,9900,2018-06-20 22:04:51,13,0,24.583,3799.1475999192,44.947508,0.223694,1.2090387526,0,0,-0.671082,27.7, 1.3, 1.4,0,0,1024,1024,1024,1024,28.6,-89.9,98,4.054,4.06,4.086,4.082,4.09,4.066,17.286,84.2,14,Waypoint,
38.5568933,-120.5321671,3801.1161039192,46.916012,0.223694,1.1859252348,10100,2018-06-20 22:04:51,14,0,24.583,3801.1161039192,46.916012,0.223694,1.2090387526,0,0,-0.671082,27.4, 1.3, 1,0,0,1024,1024,1024,1024,28.6,-89.9,98,4.054,4.06,4.086,4.082,4.09,4.066,17.286,84.2,14,Waypoint,
38.5568934,-120.5321671,3802.1003559192,47.900264,0.223694,1.21968179756,10200,2018-06-20 22:04:51,14,0,24.583,3802.1003559192,47.900264,0.223694,1.21968179756,0,0,-0.671082,27.3, 1.3, 0.9,0,0,1024,1024,1024,1024,28.6,-89.9,98,4.054,4.06,4.086,4.082,4.09,4.066,17.286,84.2,14,Waypoint,
38.5568933,-120.532167,3803.0846079192,48.884516,0.223694,1.17523953892,10300,2018-06-20 22:04:51,14,0,24.583,3803.0846079192,48.884516,0.223694,1.21968179756,0,0,-0.671082,27.3, 1.3, 0.7,0,0,1024,1024,1024,1024,28.6,-89.9,98,4.054,4.06,4.086,4.082,4.09,4.066,17.286,84.2,14,Waypoint,
38.5568931,-120.532167,3804.0688599192,49.868768,0.223694,1.10759846064,10400,2018-06-20 22:04:51,14,0,24.583,3804.0688599192,49.868768,0.223694,1.21968179756,0,0,-0.671082,27.4, 1.1, 0.7,0,0,1024,1024,1024,1024,28.6,-89.9,98,4.054,4.06,4.086,4.082,4.09,4.066,17.286,84.2,14,Waypoint,
38.556893,-120.5321669,3805.0531119192,50.85302,0.223694,1.06299216,10500,2018-06-20 22:04:51,14,0,24.583,3805.0531119192,50.85302,0.223694,1.21968179756,0,0,-0.671082,27.4, 0.8, 0.7,0,0,1024,1024,1024,1024,28.6,-90,98,4.054,4.06,4.086,4.082,4.09,4.066,17.286,84.2,14,Waypoint,
38.5568929,-120.5321669,3806.0373639192,51.837272,0.223694,1.02927496732,10600,2018-06-20 22:04:52,14,0,24.583,3806.0373639192,51.837272,0.223694,1.21968179756,0,0,-0.671082,27.4, 0.3, 0.7,0,0,1024,1024,1024,1024,28.6,-89.9,98,4.054,4.06,4.086,4.082,4.09,4.066,17.286,84.2,14,Waypoint,
38.5568928,-120.5321669,3807.0216159192,52.821524,0.223694,0.99574806336,10700,2018-06-20 22:04:52,15,0,24.583,3807.0216159192,52.821524,0.223694,1.21968179756,0,0,-0.671082,27.4, 0.1, 0.3,0,0,1024,1024,1024,1024,28.6,-89.9,98,4.054,4.06,4.086,4.082,4.09,4.066,17.286,84.2,14,Waypoint,
38.5568925,-120.5321667,3808.9901199192,54.790028,0.223694,0.8726378232,10800,2018-06-20 22:04:52,16,0,24.583,3808.9901199192,54.790028,0.223694,1.21968179756,0,0,-0.671082,27.5, -0.2, 0,0,0,1024,1024,1024,1024,28.6,-90,98,4.054,4.06,4.086,4.082,4.09,4.066,17.286,84.2,14,Waypoint,
38.5568923,-120.5321666,3809.9743719192,55.77428,0.223694,0.79432745324,10900,2018-06-20 22:04:52,16,0,24.583,3809.9743719192,55.77428,0.223694,1.21968179756,0,0,-0.671082,27.5, -0.2, -0.3,0,0,1024,1024,1024,1024,28.6,-90,98,4.054,4.06,4.086,4.082,4.09,4.066,17.286,84.2,14,Waypoint,
38.5568921,-120.5321665,3811.9428759192,57.742784,0.223694,0.7160269258,11200,2018-06-20 22:04:52,16,0,24.583,3811.9428759192,57.742784,0.223694,1.21968179756,0,0,-0.671082,27.8, 0, -0.6,0,0,1024,1024,1024,1024,28.6,-89.9,98,4.054,4.06,4.086,4.082,4.09,4.066,17.286,84.2,14,Waypoint,
38.5568917,-120.5321661,3813.9113799192,59.711288,0.223694,0.53871064716,11300,2018-06-20 22:04:52,15,0,24.583,3813.9113799192,59.711288,0.223694,1.21968179756,0,0,-0.671082,28.3, -0.3, -0.4,0,0,1024,1024,1024,1024,28.6,-90,98,4.054,4.06,4.086,4.082,4.09,4.066,17.286,84.2,14,Waypoint,
38.5568915,-120.5321661,3814.8956319192,60.69554,0.223694,0.4700951594,11500,2018-06-20 22:04:52,15,0,24.583,3814.8956319192,60.69554,0.223694,1.21968179756,0,0,-0.671082,28.3, -0.5, -0.8,0,0,1024,1024,1024,1024,28.6,-90,98,4.054,4.06,4.086,4.082,4.09,4.066,17.286,84.2,14,Waypoint,
38.5568914,-120.532166,3815.8798839192,61.679792,0.223694,0.425935053,11600,2018-06-20 22:04:53,15,0,24.583,3815.8798839192,61.679792,0.223694,1.21968179756,0,0,-0.671082,28.2, -0.5, -1,0,0,1024,1024,1024,1024,28.6,-90,98,4.054,4.06,4.086,4.082,4.09,4.066,17.286,84.2,14,Waypoint,
38.5568912,-120.532166,3816.8641359192,62.664044,0.223694,0.35801182248,11700,2018-06-20 22:04:53,15,0,24.583,3816.8641359192,62.664044,0.223694,1.21968179756,0,0,-0.671082,28.1, -0.3, -1.1,0,0,1024,1024,1024,1024,28.6,-89.9,98,4.054,4.06,4.086,4.082,4.09,4.066,17.286,84.2,14,Waypoint,
38.5568911,-120.5321658,3817.8483879192,63.648296,0.223694,0.304170613408,11800,2018-06-20 22:04:53,15,0,24.583,3817.8483879192,63.648296,0.223694,1.21968179756,0,0,-0.671082,27.9, -0.2, -1,0,0,1024,1024,1024,1024,28.6,-89.9,98,4.054,4.06,4.086,4.082,4.09,4.066,17.286,84.2,14,Waypoint,
38.5568909,-120.5321657,3818.8326399192,64.632548,0,0.226224416688,11900,2018-06-20 22:04:53,16,0,24.583,3818.8326399192,64.632548,0.223694,1.21968179756,0,0,-0.671082,27.7, -0.1, -1,0,0,1024,1024,1024,1024,28.6,-89.9,98,4.054,4.06,4.086,4.082,4.09,4.066,17.286,84.2,14,Waypoint,
38.5568908,-120.5321657,3819.8168919192,65.6168,0,0.191140754148,12000,2018-06-20 22:04:53,16,0,24.566,3819.8168919192,65.6168,0.223694,1.21968179756,0,0,-0.671082,27.7, -0.1, -0.8,0,0,1024,1024,1024,1024,28.6,-89.9,98,4.08,4.09,4.099,4.093,4.097,4.083,16.984,84.2,14,Waypoint,
38.5568907,-120.5321656,3820.8011439192,66.601052,0,0.14870243258,12100,2018-06-20 22:04:53,16,0,24.566,3820.8011439192,66.601052,0.223694,1.21968179756,0,0,-0.671082,27.7, -0.2, -0.6,0,0,1024,1024,1024,1024,28.6,-90,98,4.08,4.09,4.099,4.093,4.097,4.083,16.984,84.2,14,Waypoint,
38.5568906,-120.5321656,3821.7853959192,67.585304,0,0.113112208344,12200,2018-06-20 22:04:53,16,0,24.566,3821.7853959192,67.585304,0.223694,1.21968179756,0,0,-0.671082,27.7, -0.3, -0.3,0,0,1024,1024,1024,1024,28.6,-90,98,4.08,4.09,4.099,4.093,4.097,4.083,16.984,84.2,14,Waypoint,
38.5568905,-120.5321655,3822.7696479192,68.569556,0,0.072969818608,12300,2018-06-20 22:04:53,16,0,24.566,3822.7696479192,68.569556,0.223694,1.21968179756,0,0,-0.671082,27.7, -0.6, -0.1,0,0,1024,1024,1024,1024,28.6,-90,98,4.08,4.09,4.099,4.093,4.097,4.083,16.984,84.2,14,Waypoint,
38.5568903,-120.5321655,3823.7538999192,69.553808,0,0,12400,2018-06-20 22:04:53,16,0,24.566,3823.7538999192,69.553808,0.223694,1.21968179756,0,0,-0.671082,27.7, -0.7, 0,0,0,1024,1024,1024,1024,28.6,-90,98,4.08,4.09,4.099,4.093,4.097,4.083,16.984,84.2,14,Waypoint,
38.5568902,-120.5321654,3824.7381519192,70.53806,0,0.046315946364,12500,2018-06-20 22:04:53,16,0,24.566,3824.7381519192,70.53806,0.223694,1.21968179756,0,0,-0.671082,27.6, -0.6, 0,0,0,1024,1024,1024,1024,28.6,-90,98,4.08,4.09,4.099,4.093,4.097,4.083,16.984,84.2,14,Waypoint,
38.5568901,-120.5321653,3825.7224039192,71.522312,0,0.092631892728,12600,2018-06-20 22:04:54,16,0,24.566,3825.7224039192,71.522312,0.223694,1.21968179756,0,0,-0.671082,27.5, -0.6, 0,0,0,1024,1024,1024,1024,28.6,-89.9,98,4.08,4.09,4.099,4.093,4.097,4.083,16.984,84.2,14,Waypoint,
38.55689,-120.5321652,3826.7066559192,72.506564,0,0.138947511008,12700,2018-06-20 22:04:54,16,0,24.566,3826.7066559192,72.506564,0.223694,1.21968179756,0,0,-0.671082,27.3, -0.4, -0.1,0,0,1024,1024,1024,1024,28.6,-89.9,98,4.08,4.09,4.099,4.093,4.097,4.083,16.984,84.2,14,Waypoint,
38.5568899,-120.532165,3827.6909079192,73.490816,0,0.204080059024,12800,2018-06-20 22:04:54,16,0,24.566,3827.6909079192,73.490816,0.223694,1.21968179756,0,0,-0.671082,27.2, -0.3, -0.3,0,0,1024,1024,1024,1024,28.6,-89.9,98,4.08,4.09,4.099,4.093,4.097,4.083,16.984,84.2,14,Waypoint,
38.5568898,-120.5321649,3828.6751599192,74.475068,0,0.250166018504,12900,2018-06-20 22:04:54,16,0,24.566,3828.6751599192,74.475068,0.223694,1.21968179756,0,0,-0.671082,27, -0.2, -0.7,0,0,1024,1024,1024,1024,28.6,-89.9,98,4.08,4.09,4.099,4.093,4.097,4.083,16.984,84.2,14,Waypoint,
38.5568898,-120.5321649,3829.6594119192,75.45932,0,0.250166018504,13000,2018-06-20 22:04:54,16,0,24.495,3829.6594119192,75.45932,0.223694,1.21968179756,0,0,-0.671082,27, -0.1, -0.7,0,0,1024,1024,1024,1024,28.6,-89.9,98,4.069,4.083,4.088,4.081,4.091,4.08,17.541,84.2,14,Waypoint,
38.5568898,-120.5321648,3830.6436639192,76.443572,0,0.270490822304,13100,2018-06-20 22:04:54,16,0,24.495,3830.6436639192,76.443572,0.223694,1.21968179756,0,0,-0.671082,27, 0, -0.7,0,0,1024,1024,1024,1024,28.6,-89.9,98,4.069,4.083,4.088,4.081,4.091,4.08,17.541,84.2,14,Waypoint,
38.5568897,-120.5321648,3831.6279159192,77.427824,0,0.29632382838,13200,2018-06-20 22:04:54,16,0,24.495,3831.6279159192,77.427824,0.223694,1.21968179756,0,0,-0.671082,27.1, 0, -0.6,0,0,1024,1024,1024,1024,28.6,-90,98,4.069,4.083,4.088,4.081,4.091,4.08,17.541,84.2,14,Waypoint,
38.5568896,-120.5321647,3832.6121679192,78.412076,0,0.34252297684,13400,2018-06-20 22:04:54,16,0,24.495,3832.6121679192,78.412076,0.223694,1.21968179756,0,0,-0.671082,27.1, -0.1, -0.4,0,0,1024,1024,1024,1024,28.6,-90,98,4.069,4.083,4.088,4.081,4.091,4.08,17.541,84.2,14,Waypoint,
38.5568895,-120.5321645,3835.5649239192,81.364832,0,0.40815946188,13500,2018-06-20 22:04:54,16,0,24.495,3835.5649239192,81.364832,0.223694,1.21968179756,0,0,-0.671082,27.4, -0.1, -0.5,0,0,1024,1024,1024,1024,28.6,-89.9,98,4.069,4.083,4.088,4.081,4.091,4.08,17.541,84.2,14,Waypoint,
38.5568895,-120.5321645,3835.5649239192,81.364832,0,0.40815946188,13600,2018-06-20 22:04:55,16,0,24.495,3835.5649239192,81.364832,0.223694,1.21968179756,0,0,-0.671082,27.4, -0.1, -0.5,0,0,1024,1024,1024,1024,28.6,-89.9,98,4.069,4.083,4.088,4.081,4.091,4.08,17.541,84.2,14,Waypoint,
38.5568894,-120.5321644,3836.5491759192,82.349084,0,0.45422245548,13700,2018-06-20 22:04:55,16,0,24.495,3836.5491759192,82.349084,0.223694,1.21968179756,0,0,-0.671082,27.4, -0.1, -0.6,0,0,1024,1024,1024,1024,28.6,-89.9,98,4.069,4.083,4.088,4.081,4.091,4.08,17.541,84.2,14,Waypoint,
38.5568894,-120.5321643,3837.5334279192,83.333336,0,0.47438321728,13800,2018-06-20 22:04:55,16,0,24.495,3837.5334279192,83.333336,0.223694,1.21968179756,0,0,-0.671082,27.4, -0.2, -0.9,0,0,1024,1024,1024,1024,28.6,-90,98,4.069,4.083,4.088,4.081,4.091,4.08,17.541,84.2,14,Waypoint,
38.5568893,-120.5321642,3838.5176799192,84.317588,0,0.52027232636,13900,2018-06-20 22:04:55,16,0,24.495,3838.5176799192,84.317588,0.223694,1.21968179756,0,0,-0.671082,27.4, -0.1, -1,0,0,1024,1024,1024,1024,28.6,-90,98,4.069,4.083,4.088,4.081,4.091,4.08,17.541,84.2,14,Waypoint,
38.5568893,-120.5321641,3839.5019319192,85.30184,0,0.54098098844,14000,2018-06-20 22:04:55,16,0,24.51,3839.5019319192,85.30184,0.223694,1.21968179756,0,0,-0.671082,27.3, 0, -1,0,0,1024,1024,1024,1024,28.6,-89.9,98,4.071,4.087,4.088,4.089,4.087,4.083,17.208,84.2,14,Waypoint,
38.5568893,-120.5321641,3840.4861839192,86.286092,0,0.54098098844,14100,2018-06-20 22:04:55,16,0,24.51,3840.4861839192,86.286092,0.223694,1.21968179756,0,0,-0.671082,27.3, 0, -0.8,0,0,1024,1024,1024,1024,28.6,-89.9,98,4.071,4.087,4.088,4.089,4.087,4.083,17.208,84.2,14,Waypoint,
38.5568892,-120.5321641,3841.4704359192,87.270344,0,0.56623033308,14200,2018-06-20 22:04:55,16,0,24.51,3841.4704359192,87.270344,0.223694,1.21968179756,0,0,-0.671082,27.2, 0, -0.6,0,0,1024,1024,1024,1024,28.6,-89.9,98,4.071,4.087,4.088,4.089,4.087,4.083,17.208,84.2,14,Waypoint,
38.5568892,-120.5321641,3842.1266039192,87.926512,0,0.56623033308,14300,2018-06-20 22:04:55,16,0,24.51,3842.1266039192,87.926512,0.223694,1.21968179756,0,0,-0.671082,27.3, 0, -0.3,0,0,1024,1024,1024,1024,28.6,-89.9,98,4.071,4.087,4.088,4.089,4.087,4.083,17.208,84.2,14,Waypoint,
38.5568892,-120.5321641,3843.1108559192,88.910764,0,0.56623033308,14400,2018-06-20 22:04:55,16,0,24.51,3843.1108559192,88.910764,0.223694,1.21968179756,0,0,-0.671082,27.4, -0.1, 0,0,0,1024,1024,1024,1024,28.6,-90,98,4.071,4.087,4.088,4.089,4.087,4.083,17.208,84.2,14,Waypoint,
38.5568891,-120.5321641,3844.0951079192,89.895016,0,0.59264765676,14500,2018-06-20 22:04:55,16,0,24.51,3844.0951079192,89.895016,0.223694,1.21968179756,0,0,-0.671082,27.5, -0.3, 0,0,0,1024,1024,1024,1024,28.6,-90,98,4.071,4.087,4.088,4.089,4.087,4.083,17.208,84.2,14,Waypoint,
38.5568891,-120.5321641,3845.4074439192,91.207352,0,0.59264765676,14600,2018-06-20 22:04:56,16,0,24.51,3845.4074439192,91.207352,0.223694,1.21968179756,0,0,-0.671082,27.6, -0.4, -0.1,0,0,1024,1024,1024,1024,28.6,-90,98,4.071,4.087,4.088,4.089,4.087,4.083,17.208,84.2,14,Waypoint,
38.5568891,-120.5321641,3846.3916959192,92.191604,0,0.59264765676,14700,2018-06-20 22:04:56,16,0,24.51,3846.3916959192,92.191604,0.223694,1.21968179756,0,0,-0.671082,27.7, -0.5, 0,0,0,1024,1024,1024,1024,28.6,-90,98,4.071,4.087,4.088,4.089,4.087,4.083,17.208,84.2,14,Waypoint,
38.5568891,-120.5321641,3847.0478639192,92.847772,0,0.59264765676,14800,2018-06-20 22:04:56,16,0,24.51,3847.0478639192,92.847772,0.223694,1.21968179756,0,0,-0.671082,27.9, -0.4, -0.1,0,0,1024,1024,1024,1024,28.6,-90,98,4.071,4.087,4.088,4.089,4.087,4.083,17.208,84.2,14,Waypoint,
38.5568891,-120.5321641,3848.0321159192,93.832024,0,0.59264765676,14900,2018-06-20 22:04:56,16,0,24.51,3848.0321159192,93.832024,0.223694,1.21968179756,0,0,-0.671082,28, -0.3, -0.2,0,0,1024,1024,1024,1024,28.6,-90,98,4.071,4.087,4.088,4.089,4.087,4.083,17.208,84.2,14,Waypoint,
38.5568891,-120.5321641,3849.3444519192,95.14436,0,0.59264765676,15000,2018-06-20 22:04:56,16,0,24.492,3849.3444519192,95.14436,0.223694,1.21968179756,0,0,-0.671082,28.1, -0.3, -0.3,0,0,1024,1024,1024,1024,28.6,-90,98,4.064,4.087,4.083,4.081,4.091,4.08,16.872,84.2,14,Waypoint,
38.5568891,-120.5321642,3850.3287039192,96.128612,0,0.57380579264,15100,2018-06-20 22:04:56,16,0,24.492,3850.3287039192,96.128612,0.223694,1.21968179756,0,0,-0.671082,28.2, -0.3, -0.1,0,0,1024,1024,1024,1024,28.6,-90,98,4.064,4.087,4.083,4.081,4.091,4.08,16.872,84.2,14,Waypoint,
38.556889,-120.5321641,3851.3129559192,97.112864,0,0.62008860252,15200,2018-06-20 22:04:56,16,0,24.492,3851.3129559192,97.112864,0.223694,1.21968179756,0,0,-0.671082,28.2, -0.4, -0.1,0,0,1024,1024,1024,1024,28.6,-90,98,4.064,4.087,4.083,4.081,4.091,4.08,16.872,84.2,14,Waypoint,
38.556889,-120.5321641,3852.9533759192,98.753284,0,0.62008860252,15400,2018-06-20 22:04:56,16,0,24.492,3852.9533759192,98.753284,0.223694,1.21968179756,0,0,-0.671082,28, -0.7, -0.5,0,0,1024,1024,1024,1024,28.6,-90,98,4.064,4.087,4.083,4.081,4.091,4.08,16.872,84.2,14,Waypoint,
38.556889,-120.5321641,3854.2657119192,100.06562,0,0.62008860252,15500,2018-06-20 22:04:56,16,0,24.492,3854.2657119192,100.06562,0.223694,1.21968179756,0,0,-0.671082,27.9, -0.6, -0.7,0,0,1024,1024,1024,1024,28.6,-89.9,98,4.064,4.087,4.083,4.081,4.091,4.08,16.872,84.2,14,Waypoint,
38.556889,-120.5321641,3855.2499639192,101.049872,0.3131716,0.62008860252,15600,2018-06-20 22:04:57,16,0,24.492,3855.2499639192,101.049872,0.3131716,1.21968179756,0,0,-0.671082,27.8, -0.4, -0.4,0,0,1024,1024,1024,1024,28.6,-89.9,98,4.064,4.087,4.083,4.081,4.091,4.08,16.872,84.2,14,Waypoint,
38.5568891,-120.5321642,3856.2342159192,102.034124,0.3131716,0.57380579264,15700,2018-06-20 22:04:57,16,0,24.492,3856.2342159192,102.034124,0.3131716,1.21968179756,0,0,-0.671082,27.7, -0.4, 0,0,0,1024,1024,1024,1024,28.6,-89.9,98,4.064,4.087,4.083,4.081,4.091,4.08,16.872,84.2,14,Waypoint,
38.5568891,-120.5321642,3856.8903839192,102.690292,0.3131716,0.57380579264,15800,2018-06-20 22:04:57,16,0,24.492,3856.8903839192,102.690292,0.3131716,1.21968179756,0,0,-0.671082,27.8, -0.4, 0.1,0,0,1024,1024,1024,1024,28.6,-90,98,4.064,4.087,4.083,4.081,4.091,4.08,16.872,84.2,14,Waypoint,
38.5568891,-120.5321643,3857.8746359192,103.674544,0.3131716,0.5557907002,15900,2018-06-20 22:04:57,16,0,24.492,3857.8746359192,103.674544,0.3131716,1.21968179756,0,0,-0.671082,27.8, -0.3, 0.4,0,0,1024,1024,1024,1024,28.6,-90,98,4.064,4.087,4.083,4.081,4.091,4.08,16.872,84.2,14,Waypoint,
38.5568891,-120.5321643,3858.8588879192,104.658796,0.3131716,0.5557907002,16000,2018-06-20 22:04:57,16,0,24.473,3858.8588879192,104.658796,0.3131716,1.21968179756,0,0,-0.671082,27.9, -0.4, 0.4,0,0,1024,1024,1024,1024,28.6,-89.9,98,4.075,4.085,4.086,4.086,4.094,4.079,16.544,84.2,14,Waypoint,
38.5568892,-120.5321643,3859.8431399192,105.643048,0.223694,0.52752954444,16100,2018-06-20 22:04:57,16,0,24.473,3859.8431399192,105.643048,0.3131716,1.21968179756,0,0,-0.671082,28, -0.4, 0.3,0,0,1024,1024,1024,1024,28.6,-90,98,4.075,4.085,4.086,4.086,4.094,4.079,16.544,84.2,14,Waypoint,
38.5568892,-120.5321643,3860.8273919192,106.6273,0.223694,0.52752954444,16200,2018-06-20 22:04:57,16,0,24.473,3860.8273919192,106.6273,0.3131716,1.21968179756,0,0,-0.671082,28, -0.3, 0.1,0,0,1024,1024,1024,1024,28.6,-90,98,4.075,4.085,4.086,4.086,4.094,4.079,16.544,84.2,14,Waypoint,
38.5568892,-120.5321643,3861.8116439192,107.611552,0.223694,0.52752954444,16300,2018-06-20 22:04:57,16,0,24.473,3861.8116439192,107.611552,0.3131716,1.21968179756,0,0,-0.671082,28, -0.3, 0,0,0,1024,1024,1024,1024,28.6,-90,98,4.075,4.085,4.086,4.086,4.094,4.079,16.544,84.2,14,Waypoint,
38.5568892,-120.5321643,3862.7958959192,108.595804,0.223694,0.52752954444,16400,2018-06-20 22:04:57,16,0,24.473,3862.7958959192,108.595804,0.3131716,1.21968179756,0,0,-0.671082,28, -0.1, 0,0,0,1024,1024,1024,1024,28.6,-89.9,98,4.075,4.085,4.086,4.086,4.094,4.079,16.544,84.2,14,Waypoint,
38.5568892,-120.5321643,3863.7801479192,109.580056,0.223694,0.52752954444,16500,2018-06-20 22:04:57,17,0,24.473,3863.7801479192,109.580056,0.3131716,1.21968179756,0,0,-0.671082,27.9, -0.1, 0,0,0,1024,1024,1024,1024,28.6,-89.9,98,4.075,4.085,4.086,4.086,4.094,4.079,16.544,84.2,14,Waypoint,
38.5568893,-120.5321644,3864.7643999192,110.564308,0.223694,0.48125985792,16600,2018-06-20 22:04:58,17,0,24.473,3864.7643999192,110.564308,0.3131716,1.21968179756,0,0,-0.671082,27.9, -0.1, 0,0,0,1024,1024,1024,1024,28.6,-90,98,4.075,4.085,4.086,4.086,4.094,4.079,16.544,84.2,14,Waypoint,
38.5568893,-120.5321644,3865.7486519192,111.54856,0.223694,0.48125985792,16700,2018-06-20 22:04:58,17,0,24.473,3865.7486519192,111.54856,0.3131716,1.21968179756,0,0,-0.671082,27.8, -0.2, 0.1,0,0,1024,1024,1024,1024,28.6,-89.9,98,4.075,4.085,4.086,4.086,4.094,4.079,16.544,84.2,14,Waypoint,
38.5568893,-120.5321644,3866.7329039192,112.532812,0.223694,0.48125985792,16800,2018-06-20 22:04:58,17,0,24.473,3866.7329039192,112.532812,0.3131716,1.21968179756,0,0,-0.671082,27.8, -0.2, 0.2,0,0,1024,1024,1024,1024,28.6,-89.9,98,4.075,4.085,4.086,4.086,4.094,4.079,16.544,84.2,14,Waypoint,
38.5568893,-120.5321644,3867.7171559192,113.517064,0.223694,0.48125985792,16900,2018-06-20 22:04:58,17,0,24.473,3867.7171559192,113.517064,0.3131716,1.21968179756,0,0,-0.671082,27.7, -0.3, 0.2,0,0,1024,1024,1024,1024,28.6,-89.9,98,4.075,4.085,4.086,4.086,4.094,4.079,16.544,84.2,14,Waypoint,
38.5568894,-120.5321644,3868.7014079192,114.501316,0.223694,0.45422245548,17000,2018-06-20 22:04:58,17,0,24.513,3868.7014079192,114.501316,0.3131716,1.21968179756,0,0,-0.671082,27.6, -0.2, 0.3,0,0,1024,1024,1024,1024,28.6,-89.9,97,4.074,4.095,4.082,4.079,4.092,4.075,16.381,84.2,14,Waypoint,
38.5568894,-120.5321644,3869.6856599192,115.485568,0.223694,0.45422245548,17100,2018-06-20 22:04:58,17,0,24.513,3869.6856599192,115.485568,0.3131716,1.21968179756,0,0,-0.671082,27.6, -0.1, 0.3,0,0,1024,1024,1024,1024,28.6,-89.9,97,4.074,4.095,4.082,4.079,4.092,4.075,16.381,84.2,14,Waypoint,
38.5568894,-120.5321644,3870.6699119192,116.46982,0.223694,0.45422245548,17200,2018-06-20 22:04:58,17,0,24.513,3870.6699119192,116.46982,0.3131716,1.21968179756,0,0,-0.671082,27.6, 0, 0.3,0,0,1024,1024,1024,1024,28.6,-89.9,97,4.074,4.095,4.082,4.079,4.092,4.075,16.381,84.2,14,Waypoint,
38.5568894,-120.5321644,3871.6541639192,117.454072,0.223694,0.45422245548,17300,2018-06-20 22:04:58,17,0,24.513,3871.6541639192,117.454072,0.3131716,1.21968179756,0,0,-0.671082,27.6, 0, 0.2,0,0,1024,1024,1024,1024,28.6,-89.9,97,4.074,4.095,4.082,4.079,4.092,4.075,16.381,84.2,14,Waypoint,
38.5568893,-120.5321645,3872.6384159192,118.438324,0,0.46315946364,17400,2018-06-20 22:04:58,17,0,24.513,3872.6384159192,118.438324,0.3131716,1.21968179756,0,0,-0.671082,27.6, 0, 0.1,0,0,1024,1024,1024,1024,28.6,-90,97,4.074,4.095,4.082,4.079,4.092,4.075,16.381,84.2,14,Waypoint,
38.5568893,-120.5321645,3873.6226679192,119.422576,0,0.46315946364,17500,2018-06-20 22:04:58,17,0,24.513,3873.6226679192,119.422576,0.3131716,1.21968179756,0,0,-0.671082,27.7, -0.2, 0,0,0,1024,1024,1024,1024,28.6,-90,97,4.074,4.095,4.082,4.079,4.092,4.075,16.381,84.2,14,Waypoint,
38.5568893,-120.5321645,3875.5911719192,121.39108,0,0.46315946364,17700,2018-06-20 22:04:59,17,0,24.513,3875.5911719192,121.39108,0.3131716,1.21968179756,0,0,-0.671082,27.8, -0.3, 0,0,0,1024,1024,1024,1024,28.6,-90,97,4.074,4.095,4.082,4.079,4.092,4.075,16.381,84.2,14,Waypoint,
38.5568893,-120.5321645,3876.5754239192,122.375332,0,0.46315946364,17800,2018-06-20 22:04:59,17,0,24.513,3876.5754239192,122.375332,0.3131716,1.21968179756,0,0,-0.671082,27.8, -0.3, 0.1,0,0,1024,1024,1024,1024,28.6,-89.9,97,4.074,4.095,4.082,4.079,4.092,4.075,16.381,84.2,14,Waypoint,
38.5568893,-120.5321645,3877.5596759192,123.359584,0,0.46315946364,18000,2018-06-20 22:04:59,17,0,24.513,3877.5596759192,123.359584,0.3131716,1.21968179756,0,0,-0.671082,27.9, -0.1, 0.3,0,0,1024,1024,1024,1024,28.6,-89.9,97,4.074,4.095,4.082,4.079,4.092,4.075,16.381,84.2,14,Waypoint,
38.5568892,-120.5321646,3879.5281799192,125.328088,0,0.47645014648,18100,2018-06-20 22:04:59,17,0,24.513,3879.5281799192,125.328088,0.3131716,1.21968179756,0,0,-0.671082,27.9, -0.3, 0.1,0,0,1024,1024,1024,1024,28.6,-89.9,97,4.074,4.095,4.082,4.079,4.092,4.075,16.381,84.2,14,Waypoint,
38.5568892,-120.5321645,3880.5124319192,126.31234,0,0.49241143308,18200,2018-06-20 22:04:59,17,0,24.513,3880.5124319192,126.31234,0.3131716,1.21968179756,0,0,-0.671082,27.9, -0.5, 0,0,0,1024,1024,1024,1024,28.6,-90,97,4.074,4.095,4.082,4.079,4.092,4.075,16.381,84.2,14,Waypoint,
38.5568891,-120.5321645,3881.4966839192,127.296592,0,0.52257547604,18300,2018-06-20 22:04:59,17,0,24.513,3881.4966839192,127.296592,0.3131716,1.21968179756,0,0,-0.671082,27.9, -0.5, 0,0,0,1024,1024,1024,1024,28.6,-90,97,4.074,4.095,4.082,4.079,4.092,4.075,16.381,84.2,14,Waypoint,
38.5568891,-120.5321645,3882.4809359192,128.280844,0,0.52257547604,18400,2018-06-20 22:04:59,17,0,24.513,3882.4809359192,128.280844,0.3131716,1.21968179756,0,0,-0.671082,27.8, -0.5, -0.1,0,0,1024,1024,1024,1024,28.6,-90,97,4.074,4.095,4.082,4.079,4.092,4.075,16.381,84.2,14,Waypoint,
38.556889,-120.5321645,3883.4651879192,129.265096,0,0.55350395472,18500,2018-06-20 22:04:59,17,0,24.513,3883.4651879192,129.265096,0.3131716,1.21968179756,0,0,-0.671082,27.8, -0.6, -0.4,0,0,1024,1024,1024,1024,28.6,-90,97,4.074,4.095,4.082,4.079,4.092,4.075,16.381,84.2,14,Waypoint,
38.5568889,-120.5321644,3884.4494399192,130.249348,0,0.59950133152,18600,2018-06-20 22:05:00,17,0,24.513,3884.4494399192,130.249348,0.3131716,1.21968179756,0,0,-0.671082,27.7, -0.5, -0.7,0,0,1024,1024,1024,1024,28.6,-89.9,97,4.074,4.095,4.082,4.079,4.092,4.075,16.381,84.2,14,Waypoint,
38.5568889,-120.5321644,3885.4336919192,131.2336,0,0.59950133152,18700,2018-06-20 22:05:00,17,0,24.513,3885.4336919192,131.2336,0.3131716,1.21968179756,0,0,-0.671082,27.6, -0.4, -0.9,0,0,1024,1024,1024,1024,28.6,-89.9,97,4.074,4.095,4.082,4.079,4.092,4.075,16.381,84.2,14,Waypoint,
38.5568888,-120.5321643,3886.4179439192,132.217852,0,0.64554464008,18800,2018-06-20 22:05:00,17,0,24.513,3886.4179439192,132.217852,0.3131716,1.21968179756,0,0,-0.671082,27.6, -0.3, -1.1,0,0,1024,1024,1024,1024,28.6,-90,97,4.074,4.095,4.082,4.079,4.092,4.075,16.381,84.2,14,Waypoint,
38.5568887,-120.5321642,3887.4021959192,133.202104,0,0.69162403788,18900,2018-06-20 22:05:00,17,0,24.513,3887.4021959192,133.202104,0.3131716,1.21968179756,0,0,-0.671082,27.6, -0.4, -1.2,0,0,1024,1024,1024,1024,28.6,-90,97,4.074,4.095,4.082,4.079,4.092,4.075,16.381,84.2,14,Waypoint,
38.5568886,-120.5321641,3888.3864479192,134.186356,0,0.73773296324,19000,2018-06-20 22:05:00,17,0,24.407,3888.3864479192,134.186356,0.3131716,1.21968179756,0,0,-0.671082,27.6, -0.5, -1.4,0,0,1024,1024,1024,1024,28.6,-90,97,4.052,4.065,4.071,4.069,4.074,4.061,17.293,86,14,Waypoint,
38.5568885,-120.532164,3889.3706999192,135.170608,0,0.78386485448,19100,2018-06-20 22:05:00,17,0,24.407,3889.3706999192,135.170608,0.3131716,1.21968179756,0,0,-0.671082,27.6, -0.5, -1.6,0,0,1024,1024,1024,1024,28.6,-89.9,97,4.052,4.065,4.071,4.069,4.074,4.061,17.293,86,14,Waypoint,
38.5568885,-120.532164,3890.3549519192,136.15486,0,0.78386485448,19200,2018-06-20 22:05:00,17,0,24.407,3890.3549519192,136.15486,0.3131716,1.21968179756,0,0,-0.671082,27.7, -0.6, -1.7,0,0,1024,1024,1024,1024,28.6,-90,97,4.052,4.065,4.071,4.069,4.074,4.061,17.293,86,14,Waypoint,
38.5568884,-120.5321639,3891.3392039192,137.139112,0,0.8300197116,19300,2018-06-20 22:05:00,17,0,24.407,3891.3392039192,137.139112,0.3131716,1.21968179756,0,0,-0.671082,27.7, -0.7, -1.7,0,0,1024,1024,1024,1024,28.6,-89.9,97,4.052,4.065,4.071,4.069,4.074,4.061,17.293,86,14,Waypoint,
38.5568884,-120.5321639,3892.3234559192,138.123364,0,0.8300197116,19400,2018-06-20 22:05:00,17,0,24.407,3892.3234559192,138.123364,0.3131716,1.21968179756,0,0,-0.671082,27.6, -0.7, -1.7,0,0,1024,1024,1024,1024,28.6,-89.9,97,4.052,4.065,4.071,4.069,4.074,4.061,17.293,86,14,Waypoint,
38.5568883,-120.5321638,3893.3077079192,139.107616,0.223694,0.87619097292,19500,2018-06-20 22:05:00,17,0,24.407,3893.3077079192,139.107616,0.3131716,1.21968179756,0,0,-0.671082,27.6, -0.5, -1.7,0,0,1024,1024,1024,1024,28.6,-89.9,97,4.052,4.065,4.071,4.069,4.074,4.061,17.293,86,14,Waypoint,
38.5568883,-120.5321638,3894.2919599192,140.091868,0.223694,0.87619097292,19600,2018-06-20 22:05:01,17,0,24.407,3894.2919599192,140.091868,0.3131716,1.21968179756,0,0,-0.671082,27.6, -0.4, -1.7,0,0,1024,1024,1024,1024,28.6,-89.9,97,4.052,4.065,4.071,4.069,4.074,4.061,17.293,86,14,Waypoint,
38.5568882,-120.5321637,3895.2762119192,141.07612,0.223694,0.9223753576,19700,2018-06-20 22:05:01,17,0,24.407,3895.2762119192,141.07612,0.3131716,1.21968179756,0,0,-0.671082,27.6, -0.4, -1.6,0,0,1024,1024,1024,1024,28.6,-90,97,4.052,4.065,4.071,4.069,4.074,4.061,17.293,86,14,Waypoint,
38.5568882,-120.5321637,3896.2604639192,142.060372,0.223694,0.9223753576,19800,2018-06-20 22:05:01,17,0,24.407,3896.2604639192,142.060372,0.3131716,1.21968179756,0,0,-0.671082,27.7, -0.6, -1.6,0,0,1024,1024,1024,1024,28.6,-90,97,4.052,4.065,4.071,4.069,4.074,4.061,17.293,86,14,Waypoint,
38.5568882,-120.5321637,3897.2447159192,143.044624,0.223694,0.9223753576,20000,2018-06-20 22:05:01,17,0,24.407,3897.2447159192,143.044624,0.3131716,1.21968179756,0,0,-0.671082,27.7, -0.5, -1.5,0,0,1024,1024,1024,1024,28.6,-89.9,97,4.052,4.065,4.071,4.069,4.074,4.061,17.293,86,14,Waypoint,
38.5568884,-120.5321638,3899.2132199192,145.013128,0.223694,0.846046615,20100,2018-06-20 22:05:01,17,0,24.407,3899.2132199192,145.013128,0.3131716,1.21968179756,0,0,-0.671082,27.6, -0.1, -1,0,0,1024,1024,1024,1024,28.6,-89.9,97,4.052,4.065,4.071,4.069,4.074,4.061,17.293,86,14,Waypoint,
38.5568884,-120.5321637,3900.1974719192,145.99738,0.223694,0.86271984388,20200,2018-06-20 22:05:01,17,0,24.407,3900.1974719192,145.99738,0.3131716,1.21968179756,0,0,-0.671082,27.6, 0, -0.8,0,0,1024,1024,1024,1024,28.6,-89.9,97,4.052,4.065,4.071,4.069,4.074,4.061,17.293,86,14,Waypoint,
38.5568884,-120.5321637,3901.1817239192,146.981632,0.223694,0.86271984388,20300,2018-06-20 22:05:01,17,0,24.407,3901.1817239192,146.981632,0.3131716,1.21968179756,0,0,-0.671082,27.6, 0, -0.8,0,0,1024,1024,1024,1024,28.6,-89.9,97,4.052,4.065,4.071,4.069,4.074,4.061,17.293,86,14,Waypoint,
38.5568883,-120.5321637,3901.8378919192,147.6378,0.223694,0.89229989732,20400,2018-06-20 22:05:01,17,0,24.407,3901.8378919192,147.6378,0.3131716,1.21968179756,0,0,-0.671082,27.7, -0.1, -0.9,0,0,1024,1024,1024,1024,28.6,-89.9,97,4.052,4.065,4.071,4.069,4.074,4.061,17.293,86,14,Waypoint,
38.5568883,-120.5321637,3902.8221439192,148.622052,0.223694,0.89229989732,20500,2018-06-20 22:05:01,17,0,24.407,3902.8221439192,148.622052,0.3131716,1.21968179756,0,0,-0.671082,27.7, -0.3, -1.1,0,0,1024,1024,1024,1024,28.6,-90,97,4.052,4.065,4.071,4.069,4.074,4.061,17.293,86,14,Waypoint,
38.5568883,-120.5321637,3903.8063959192,149.606304,0.223694,0.89229989732,20600,2018-06-20 22:05:02,17,0,24.407,3903.8063959192,149.606304,0.3131716,1.21968179756,0,0,-0.671082,27.7, -0.4, -1.3,0,0,1024,1024,1024,1024,28.6,-89.9,97,4.052,4.065,4.071,4.069,4.074,4.061,17.293,86,14,Waypoint,
38.5568883,-120.5321636,3904.7906479192,150.590556,0.223694,0.90901905796,20700,2018-06-20 22:05:02,17,0,24.407,3904.7906479192,150.590556,0.3131716,1.21968179756,0,0,-0.671082,27.7, -0.4, -1.4,0,0,1024,1024,1024,1024,28.6,-90,97,4.052,4.065,4.071,4.069,4.074,4.061,17.293,86,14,Waypoint,
38.5568882,-120.5321636,3905.7748999192,151.574808,0.223694,0.93855974132,20800,2018-06-20 22:05:02,17,0,24.407,3905.7748999192,151.574808,0.3131716,1.21968179756,0,0,-0.671082,27.6, -0.4, -1.4,0,0,1024,1024,1024,1024,28.6,-90,97,4.052,4.065,4.071,4.069,4.074,4.061,17.293,86,14,Waypoint,
38.5568882,-120.5321636,3906.7591519192,152.55906,0.223694,0.93855974132,20900,2018-06-20 22:05:02,17,0,24.407,3906.7591519192,152.55906,0.3131716,1.21968179756,0,0,-0.671082,27.6, -0.4, -1.3,0,0,1024,1024,1024,1024,28.6,-90,97,4.052,4.065,4.071,4.069,4.074,4.061,17.293,86,14,Waypoint,
38.5568881,-120.5321635,3908.7276559192,154.527564,0.223694,0.984826147,21100,2018-06-20 22:05:02,17,0,24.407,3908.7276559192,154.527564,0.3131716,1.21968179756,0,0,-0.671082,27.7, -0.4, -1.7,0,0,1024,1024,1024,1024,28.6,-89.9,97,4.052,4.065,4.071,4.069,4.074,4.061,17.293,86,14,Waypoint,
38.5568881,-120.5321635,3909.7119079192,155.511816,0.223694,0.984826147,21200,2018-06-20 22:05:02,17,0,24.407,3909.7119079192,155.511816,0.3131716,1.21968179756,0,0,-0.671082,27.8, -0.5, -1.6,0,0,1024,1024,1024,1024,28.6,-90,97,4.052,4.065,4.071,4.069,4.074,4.061,17.293,86,14,Waypoint,
38.5568881,-120.5321635,3910.6961599192,156.496068,0.223694,0.984826147,21300,2018-06-20 22:05:02,17,0,24.407,3910.6961599192,156.496068,0.3131716,1.21968179756,0,0,-0.671082,27.9, -0.5, -1.7,0,0,1024,1024,1024,1024,28.6,-89.9,97,4.052,4.065,4.071,4.069,4.074,4.061,17.293,86,14,Waypoint,
38.556888,-120.5321634,3911.6804119192,157.48032,0.223694,1.03109583352,21400,2018-06-20 22:05:02,17,0,24.407,3911.6804119192,157.48032,0.3131716,1.21968179756,0,0,-0.671082,27.7, -0.5, -1.9,0,0,1024,1024,1024,1024,28.6,-89.9,97,4.052,4.065,4.071,4.069,4.074,4.061,17.293,86,14,Waypoint,
38.556888,-120.5321634,3912.6646639192,158.464572,0.223694,1.03109583352,21500,2018-06-20 22:05:02,17,0,24.407,3912.6646639192,158.464572,0.3131716,1.21968179756,0,0,-0.671082,27.6, -0.5, -2.1,0,0,1024,1024,1024,1024,28.6,-90,97,4.052,4.065,4.071,4.069,4.074,4.061,17.293,86,14,Waypoint,
38.556888,-120.5321633,3913.6489159192,159.448824,0.223694,1.04792982356,21600,2018-06-20 22:05:03,17,0,24.407,3913.6489159192,159.448824,0.3131716,1.21968179756,0,0,-0.671082,27.5, -0.5, -2,0,0,1024,1024,1024,1024,28.6,-90,97,4.052,4.065,4.071,4.069,4.074,4.061,17.293,86,14,Waypoint,
38.556888,-120.5321633,3915.6174199192,161.417328,0.223694,1.04792982356,21700,2018-06-20 22:05:03,17,0,24.407,3915.6174199192,161.417328,0.3131716,1.21968179756,0,0,-0.671082,27.4, -0.4, -1.8,0,0,1024,1024,1024,1024,28.6,-89.9,97,4.052,4.065,4.071,4.069,4.074,4.061,17.293,86,14,Waypoint,
38.556888,-120.5321633,3917.5859239192,163.385832,0.223694,1.04792982356,22000,2018-06-20 22:05:03,17,0,24.336,3917.5859239192,163.385832,0.3131716,1.21968179756,0,0,-0.671082,27.5, -0.2, -1.5,0,0,1024,1024,1024,1024,28.6,-89.9,97,4.049,4.065,4.063,4.06,4.064,4.066,17.291,86,14,Waypoint,
38.556888,-120.5321632,3918.5701759192,164.370084,0.223694,1.06526578212,22100,2018-06-20 22:05:03,17,0,24.336,3918.5701759192,164.370084,0.3131716,1.21968179756,0,0,-0.671082,27.6, -0.2, -1.6,0,0,1024,1024,1024,1024,28.6,-89.9,97,4.049,4.065,4.063,4.06,4.064,4.066,17.291,86,14,Waypoint,
38.556888,-120.5321632,3919.5544279192,165.354336,0.223694,1.06526578212,22200,2018-06-20 22:05:03,17,0,24.336,3919.5544279192,165.354336,0.3131716,1.21968179756,0,0,-0.671082,27.7, -0.1, -1.8,0,0,1024,1024,1024,1024,28.6,-89.9,97,4.049,4.065,4.063,4.06,4.064,4.066,17.291,86,14,Waypoint,
38.556888,-120.5321631,3920.5386799192,166.338588,0.223694,1.08307418164,22300,2018-06-20 22:05:03,17,0,24.336,3920.5386799192,166.338588,0.3131716,1.21968179756,0,0,-0.671082,27.8, -0.2, -2.1,0,0,1024,1024,1024,1024,28.6,-89.9,97,4.049,4.065,4.063,4.06,4.064,4.066,17.291,86,14,Waypoint,
38.556888,-120.5321631,3921.5229319192,167.32284,0.223694,1.08307418164,22400,2018-06-20 22:05:03,17,0,24.336,3921.5229319192,167.32284,0.3131716,1.21968179756,0,0,-0.671082,27.8, -0.1, -2.2,0,0,1024,1024,1024,1024,28.6,-89.9,97,4.049,4.065,4.063,4.06,4.064,4.066,17.291,86,14,Waypoint,
38.556888,-120.532163,3922.5071839192,168.307092,0.223694,1.10133205624,22500,2018-06-20 22:05:03,17,0,24.336,3922.5071839192,168.307092,0.3131716,1.21968179756,0,0,-0.671082,27.7, -0.1, -2.5,0,0,1024,1024,1024,1024,28.6,-89.9,97,4.049,4.065,4.063,4.06,4.064,4.066,17.291,86,14,Waypoint,
38.5568881,-120.532163,3923.4914359192,169.291344,0.223694,1.07379268528,22600,2018-06-20 22:05:04,17,0,24.336,3923.4914359192,169.291344,0.3131716,1.21968179756,0,0,-0.671082,27.7, -0.1, -2.4,0,0,1024,1024,1024,1024,28.6,-89.9,97,4.049,4.065,4.063,4.06,4.064,4.066,17.291,86,14,Waypoint,
38.5568881,-120.5321629,3924.4756879192,170.275596,0.223694,1.09295279088,22700,2018-06-20 22:05:04,17,0,24.336,3924.4756879192,170.275596,0.3131716,1.21968179756,0,0,-0.671082,27.7, -0.3, -2.3,0,0,1024,1024,1024,1024,28.6,-90,97,4.049,4.065,4.063,4.06,4.064,4.066,17.291,86,14,Waypoint,
38.5568881,-120.5321629,3925.4599399192,171.259848,0.223694,1.09295279088,22800,2018-06-20 22:05:04,17,0,24.336,3925.4599399192,171.259848,0.3131716,1.21968179756,0,0,-0.671082,27.8, -0.1, -2.6,0,0,1024,1024,1024,1024,28.6,-89.9,97,4.049,4.065,4.063,4.06,4.064,4.066,17.291,86,14,Waypoint,
38.5568881,-120.5321628,3926.4441919192,172.2441,0.223694,1.1125164398,22900,2018-06-20 22:05:04,17,0,24.336,3926.4441919192,172.2441,0.3131716,1.21968179756,0,0,-0.671082,27.9, 0.1, -2.6,0,0,1024,1024,1024,1024,28.6,-89.9,97,4.049,4.065,4.063,4.06,4.064,4.066,17.291,86,14,Waypoint,
38.5568881,-120.5321628,3927.4284439192,173.228352,0.223694,1.1125164398,23000,2018-06-20 22:05:04,17,0,24.336,3927.4284439192,173.228352,0.3131716,1.21968179756,0,0,-0.671082,28.1, 0.2, -2.6,0,0,1024,1024,1024,1024,28.6,-89.9,97,4.042,4.059,4.059,4.057,4.062,4.056,17.291,86,14,Waypoint,
38.5568881,-120.5321628,3928.4126959192,174.212604,0.223694,1.1125164398,23100,2018-06-20 22:05:04,17,0,24.336,3928.4126959192,174.212604,0.3131716,1.21968179756,0,0,-0.671082,28.1, 0, -2.7,0,0,1024,1024,1024,1024,28.6,-89.9,97,4.042,4.059,4.059,4.057,4.062,4.056,17.291,86,14,Waypoint,
38.5568881,-120.5321628,3929.3969479192,175.196856,0.223694,1.1125164398,23200,2018-06-20 22:05:04,17,0,24.336,3929.3969479192,175.196856,0.3131716,1.21968179756,0,0,-0.671082,27.9, -0.1, -2.7,0,0,1024,1024,1024,1024,28.6,-89.9,97,4.042,4.059,4.059,4.057,4.062,4.056,17.291,86,14,Waypoint,
38.5568882,-120.5321628,3930.3811999192,176.181108,0.223694,1.08648625524,23300,2018-06-20 22:05:04,17,0,24.336,3930.3811999192,176.181108,0.3131716,1.21968179756,0,0,-0.671082,27.7, 0, -2.4,0,0,1024,1024,1024,1024,28.6,-89.9,97,4.042,4.059,4.059,4.057,4.062,4.056,17.291,86,14,Waypoint,
38.5568882,-120.5321627,3931.3654519192,177.16536,0.223694,1.10689636088,23400,2018-06-20 22:05:04,17,0,24.336,3931.3654519192,177.16536,0.3131716,1.21968179756,0,0,-0.671082,27.5, 0.3, -2.1,0,0,1024,1024,1024,1024,28.6,-89.9,97,4.042,4.059,4.059,4.057,4.062,4.056,17.291,86,14,Waypoint,
38.5568882,-120.5321628,3932.3497039192,178.149612,0.3131716,1.08648625524,23500,2018-06-20 22:05:04,17,0,24.336,3932.3497039192,178.149612,0.3131716,1.21968179756,0,0,-0.671082,27.5, 0.4, -1.8,0,0,1024,1024,1024,1024,28.6,-89.9,97,4.042,4.059,4.059,4.057,4.062,4.056,17.291,86,14,Waypoint,
38.5568883,-120.5321629,3933.3339559192,179.133864,0.3131716,1.04054465272,23600,2018-06-20 22:05:05,17,0,24.336,3933.3339559192,179.133864,0.3131716,1.21968179756,0,0,-0.671082,27.5, 0.4, -1.5,0,0,1024,1024,1024,1024,28.6,-89.9,97,4.042,4.059,4.059,4.057,4.062,4.056,17.291,86,14,Waypoint,
38.5568883,-120.5321629,3934.3182079192,180.118116,0.3131716,1.04054465272,23700,2018-06-20 22:05:05,17,0,24.336,3934.3182079192,180.118116,0.3131716,1.21968179756,0,0,-0.671082,27.5, 0.2, -1.6,0,0,1024,1024,1024,1024,28.6,-89.9,97,4.042,4.059,4.059,4.057,4.062,4.056,17.291,86,14,Waypoint,
38.5568883,-120.5321629,3935.3024599192,181.102368,0.3131716,1.04054465272,23800,2018-06-20 22:05:05,17,0,24.336,3935.3024599192,181.102368,0.3131716,1.21968179756,0,0,-0.671082,27.6, 0, -1.8,0,0,1024,1024,1024,1024,28.6,-90,97,4.042,4.059,4.059,4.057,4.062,4.056,17.291,86,14,Waypoint,
38.5568883,-120.532163,3936.2867119192,182.08662,0.3131716,1.02040029512,23900,2018-06-20 22:05:05,17,0,24.336,3936.2867119192,182.08662,0.3131716,1.21968179756,0,0,-0.671082,27.6, -0.2, -1.8,0,0,1024,1024,1024,1024,28.6,-90,97,4.042,4.059,4.059,4.057,4.062,4.056,17.291,86,14,Waypoint,
38.5568883,-120.532163,3937.2709639192,183.070872,0.3131716,1.02040029512,24000,2018-06-20 22:05:05,17,0,24.355,3937.2709639192,183.070872,0.3131716,1.21968179756,0,0,-0.671082,27.6, -0.1, -2,0,0,1024,1024,1024,1024,28.6,-90,97,4.047,4.064,4.059,4.062,4.066,4.055,17.312,86,14,Waypoint,
38.5568883,-120.532163,3938.2552159192,184.055124,0.3131716,1.02040029512,24100,2018-06-20 22:05:05,17,0,24.355,3938.2552159192,184.055124,0.3131716,1.21968179756,0,0,-0.671082,27.6, -0.3, -2.1,0,0,1024,1024,1024,1024,28.6,-90,97,4.047,4.064,4.059,4.062,4.066,4.055,17.312,86,14,Waypoint,
38.5568883,-120.5321631,3938.9113839192,184.711292,0.3131716,1.00066604252,24300,2018-06-20 22:05:05,17,0,24.355,3938.9113839192,184.711292,0.3131716,1.21968179756,0,0,-0.671082,27.7, -0.3, -1.9,0,0,1024,1024,1024,1024,28.6,-90,97,4.047,4.064,4.059,4.062,4.066,4.055,17.312,86,14,Waypoint,
38.5568883,-120.5321632,3940.8798879192,186.679796,0.3131716,0.98136157996,24400,2018-06-20 22:05:05,17,0,24.355,3940.8798879192,186.679796,0.3131716,1.21968179756,0,0,-0.671082,27.8, -0.3, -1.5,0,0,1024,1024,1024,1024,28.6,-90,97,4.047,4.064,4.059,4.062,4.066,4.055,17.312,86,14,Waypoint,
38.5568883,-120.5321632,3941.8641399192,187.664048,0.3131716,0.98136157996,24500,2018-06-20 22:05:05,17,0,24.355,3941.8641399192,187.664048,0.3131716,1.21968179756,0,0,-0.671082,27.7, -0.4, -1.6,0,0,1024,1024,1024,1024,28.6,-90,97,4.047,4.064,4.059,4.062,4.066,4.055,17.312,86,14,Waypoint,
38.5568883,-120.5321632,3942.8483919192,188.6483,0.223694,0.98136157996,24600,2018-06-20 22:05:06,17,0,24.355,3942.8483919192,188.6483,0.3131716,1.21968179756,0,0,-0.671082,27.7, -0.1, -1.8,0,0,1024,1024,1024,1024,28.6,-89.9,97,4.047,4.064,4.059,4.062,4.066,4.055,17.312,86,14,Waypoint,
38.5568883,-120.5321632,3943.8326439192,189.632552,0.223694,0.98136157996,24700,2018-06-20 22:05:06,17,0,24.355,3943.8326439192,189.632552,0.3131716,1.21968179756,0,0,-0.671082,27.6, -0.1, -2,0,0,1024,1024,1024,1024,28.6,-89.9,97,4.047,4.064,4.059,4.062,4.066,4.055,17.312,86,14,Waypoint,
38.5568883,-120.5321632,3944.8168959192,190.616804,0.223694,0.98136157996,24800,2018-06-20 22:05:06,17,0,24.355,3944.8168959192,190.616804,0.3131716,1.21968179756,0,0,-0.671082,27.7, -0.2, -2.2,0,0,1024,1024,1024,1024,28.6,-89.9,97,4.047,4.064,4.059,4.062,4.066,4.055,17.312,86,14,Waypoint,
38.5568883,-120.5321633,3945.8011479192,191.601056,0.223694,0.962516435,24900,2018-06-20 22:05:06,17,0,24.355,3945.8011479192,191.601056,0.3131716,1.21968179756,0,0,-0.671082,27.7, -0.3, -2,0,0,1024,1024,1024,1024,28.6,-90,97,4.047,4.064,4.059,4.062,4.066,4.055,17.312,86,14,Waypoint,
38.5568883,-120.5321634,3946.7853999192,192.585308,0.3131716,0.9441601352,25000,2018-06-20 22:05:06,17,0,24.37,3946.7853999192,192.585308,0.3131716,1.21968179756,0,0,-0.671082,27.6, -0.4, -1.8,0,0,1024,1024,1024,1024,28.6,-90,97,4.049,4.059,4.063,4.064,4.068,4.059,16.81,86,14,Waypoint,
38.5568884,-120.5321634,3947.7696519192,193.56956,0.3131716,0.916256591,25100,2018-06-20 22:05:06,17,0,24.37,3947.7696519192,193.56956,0.3131716,1.21968179756,0,0,-0.671082,27.5, -0.5, -1.4,0,0,1024,1024,1024,1024,28.6,-90,97,4.049,4.059,4.063,4.064,4.068,4.059,16.81,86,14,Waypoint,
38.5568884,-120.5321635,3948.7539039192,194.553812,0.3131716,0.89785764028,25200,2018-06-20 22:05:06,17,0,24.37,3948.7539039192,194.553812,0.3131716,1.21968179756,0,0,-0.671082,27.3, -0.4, -1.3,0,0,1024,1024,1024,1024,28.6,-89.9,97,4.049,4.059,4.063,4.064,4.068,4.059,16.81,86,14,Waypoint,
38.5568885,-120.5321636,3949.7381559192,195.538064,0.3131716,0.8515584262,25300,2018-06-20 22:05:06,17,0,24.37,3949.7381559192,195.538064,0.3131716,1.21968179756,0,0,-0.671082,27.1, -0.1, -0.9,0,0,1024,1024,1024,1024,28.6,-89.9,97,4.049,4.059,4.063,4.064,4.068,4.059,16.81,86,14,Waypoint,
38.5568886,-120.5321637,3950.7224079192,196.522316,0.3131716,0.80525921212,25400,2018-06-20 22:05:06,17,0,24.37,3950.7224079192,196.522316,0.3131716,1.21968179756,0,0,-0.671082,27, 0, -0.4,0,0,1024,1024,1024,1024,28.6,-89.9,97,4.049,4.059,4.063,4.064,4.068,4.059,16.81,86,14,Waypoint,
38.5568887,-120.5321638,3951.7066599192,197.506568,0.3131716,0.75896327888,25500,2018-06-20 22:05:06,17,0,24.37,3951.7066599192,197.506568,0.3131716,1.21968179756,0,0,-0.671082,27, 0, -0.1,0,0,1024,1024,1024,1024,28.6,-89.9,97,4.049,4.059,4.063,4.064,4.068,4.059,16.81,86,14,Waypoint,
38.5568888,-120.5321638,3952.6909119192,198.49082,0.3131716,0.73126970844,25600,2018-06-20 22:05:07,17,0,24.37,3952.6909119192,198.49082,0.3131716,1.21968179756,0,0,-0.671082,27, 0.2, 0,0,0,1024,1024,1024,1024,28.6,-89.9,97,4.049,4.059,4.063,4.064,4.068,4.059,16.81,86,14,Waypoint,
