latitude,longitude,altitude(feet),ascent(feet),speed(mph),distance(feet),time(millisecond),datetime(utc),satellites,gpslevel,voltage(v),max_altitude(feet),max_ascent(feet),max_speed(mph),max_distance(feet), xSpeed(mph), ySpeed(mph), zSpeed(mph), compass_heading(degrees), pitch(degrees), roll(degrees),isPhoto,isVideo,rc_elevator,rc_aileron,rc_throttle,rc_rudder,gimbal_heading(degrees),gimbal_pitch(degrees),battery_percent,voltageCell1,voltageCell2,voltageCell3,voltageCell4,voltageCell5,voltageCell6,current(A),battery_temperature(f),flycStateRaw,flycState,message
38.5569474,-120.5321411,3755.39836722,0,0.223694,0,3100,2018-06-20 21:47:09,13,0,0,3755.39836722,0,0.223694,0,0,0,0,22.8, -1.1, -1.3,1,0,1024,1024,1024,1024,20.9,-89.9,100,4.243,4.26,4.23,4.269,4.277,4.231,0,80.6,11,AutoTakeoff,DJI_0420.jpg Starting Mission from Lat/Long: 38.55695/-120.53214 Camera: Zenmuse X3 - Overlap: 90/90 - Active Connection: No
38.5569475,-120.5321412,3755.39836722,0,0.3131716,0.046315946364,3200,2018-06-20 21:47:09,13,0,0,3755.39836722,0,0.3131716,0.046315946364,0,0,0,22.8, -0.3, -0.1,0,0,1024,1024,1024,1024,20.9,-89.9,100,4.243,4.26,4.23,4.269,4.277,4.231,0,80.6,11,AutoTakeoff,
38.5569477,-120.5321414,3755.39836722,0,0.3131716,0.138947511008,3310,2018-06-20 21:47:09,11,0,0,3755.39836722,0,0.3131716,0.138947511008,0,0,0,22.7, 0.1, 0.6,0,0,1024,1024,1024,1024,20.9,-89.9,100,4.243,4.26,4.23,4.269,4.277,4.231,0,80.6,11,AutoTakeoff,
38.5569478,-120.5321415,3755.39836722,0,0.223694,0.185263457372,3400,2018-06-20 21:47:10,11,0,0,3755.39836722,0,0.3131716,0.185263457372,0,0,0,22.7, 0.5, 0.9,0,0,1024,1024,1024,1024,21,-89.9,100,4.243,4.26,4.23,4.269,4.277,4.231,0,80.6,11,AutoTakeoff,
38.556948,-120.5321416,3755.39836722,0,0.223694,0.261288394188,3500,2018-06-20 21:47:10,12,0,0,3755.39836722,0,0.3131716,0.261288394188,0,0,0,22.6, 1, 1.3,0,0,1024,1024,1024,1024,21,-89.9,100,4.243,4.26,4.23,4.269,4.277,4.231,0,80.6,11,AutoTakeoff,
38.5569482,-120.5321416,3755.72645122,0.328084,0.223694,0.324875010396,3600,2018-06-20 21:47:10,12,0,0,3755.72645122,0.328084,0.3131716,0.324875010396,0,0,0,22.5, 1.4, 1.3,0,0,1024,1024,1024,1024,21,-89.9,100,4.243,4.26,4.23,4.269,4.277,4.231,0,80.6,11,AutoTakeoff,
38.5569483,-120.5321417,3755.72645122,0.328084,0.223694,0.3703084108,3700,2018-06-20 21:47:10,12,0,0,3755.72645122,0.328084,0.3131716,0.3703084108,0,0,0,22.5, 1.5, 1.2,0,0,1024,1024,1024,1024,21,-89.9,100,4.243,4.26,4.23,4.269,4.277,4.231,0,80.6,11,AutoTakeoff,
38.5569485,-120.5321418,3756.05453522,0.656168,0.223694,0.44828085424,3800,2018-06-20 21:47:10,12,0,0,3756.05453522,0.656168,0.3131716,0.44828085424,0,0,0,22.5, 1.3, 1,0,0,1024,1024,1024,1024,21.1,-89.9,100,4.243,4.26,4.23,4.269,4.277,4.231,0,80.6,11,AutoTakeoff,
38.5569486,-120.5321418,3756.05453522,0.656168,0.223694,0.48122048784,3900,2018-06-20 21:47:10,11,0,0,3756.05453522,0.656168,0.3131716,0.48122048784,0,0,0,22.5, 1, 0.6,0,0,1024,1024,1024,1024,21.1,-89.9,100,4.243,4.26,4.23,4.269,4.277,4.231,0,80.6,11,AutoTakeoff,
38.5569486,-120.5321418,3756.38261922,0.984252,0,0.48122048784,4000,2018-06-20 21:47:10,11,0,25.525,3756.38261922,0.984252,0.3131716,0.48122048784,0,0,0,22.5, 1, 0.5,0,0,1024,1024,1024,1024,21.1,-89.9,100,4.243,4.26,4.23,4.269,4.277,4.231,4.102,80.6,11,AutoTakeoff,
38.5569486,-120.5321419,3756.38261922,0.984252,0,0.49374345412,4100,2018-06-20 21:47:10,10,0,25.525,3756.38261922,0.984252,0.3131716,0.49374345412,0,0,-0.223694,22.5, 0.8, 0.4,0,0,1024,1024,1024,1024,21.2,-89.9,100,4.243,4.26,4.23,4.269,4.277,4.231,4.102,80.6,11,AutoTakeoff,
38.5569487,-120.5321419,3756.71070322,1.312336,0,0.52636484624,4200,2018-06-20 21:47:10,10,0,25.525,3756.71070322,1.312336,0.3131716,0.52636484624,0,0,-0.223694,22.6, 0.7, 0.4,0,0,1024,1024,1024,1024,21.2,-89.9,100,4.243,4.26,4.23,4.269,4.277,4.231,4.102,80.6,11,AutoTakeoff,
38.5569487,-120.5321419,3756.71070322,1.312336,0,0.52636484624,4300,2018-06-20 21:47:10,10,0,25.525,3756.71070322,1.312336,0.3131716,0.52636484624,0,0,0,22.6, 0.7, 0.4,0,0,1024,1024,1024,1024,21.2,-89.9,100,4.243,4.26,4.23,4.269,4.277,4.231,4.102,80.6,11,AutoTakeoff,
38.5569488,-120.5321419,3757.03878722,1.64042,0,0.559465241,4400,2018-06-20 21:47:11,10,0,25.525,3757.03878722,1.64042,0.3131716,0.559465241,0,0,-0.223694,22.7, 0.7, 0.5,0,0,1024,1024,1024,1024,21.2,-89.9,100,4.243,4.26,4.23,4.269,4.277,4.231,4.102,80.6,11,AutoTakeoff,
38.5569488,-120.532142,3757.36687122,1.968504,0,0.57169949336,4500,2018-06-20 21:47:11,11,0,25.525,3757.36687122,1.968504,0.3131716,0.57169949336,0,0,-0.223694,22.7, 0.7, 0.6,0,0,1024,1024,1024,1024,21.2,-89.9,100,4.243,4.26,4.23,4.269,4.277,4.231,4.102,80.6,11,AutoTakeoff,
38.5569488,-120.532142,3757.36687122,1.968504,0,0.57169949336,4600,2018-06-20 21:47:11,11,0,25.525,3757.36687122,1.968504,0.3131716,0.57169949336,0,0,-0.223694,22.6, 0.6, 0.7,0,0,1024,1024,1024,1024,21.3,-89.9,100,4.243,4.26,4.23,4.269,4.277,4.231,4.102,80.6,11,AutoTakeoff,
38.5569488,-120.5321421,3757.69495522,2.296588,0,0.58506891636,4700,2018-06-20 21:47:11,12,0,25.525,3757.69495522,2.296588,0.3131716,0.58506891636,0,0,0,22.6, 0.5, 0.8,0,0,1024,1024,1024,1024,21.3,-89.9,100,4.243,4.26,4.23,4.269,4.277,4.231,4.102,80.6,11,AutoTakeoff,
38.5569488,-120.5321421,3757.69495522,2.296588,0,0.58506891636,4800,2018-06-20 21:47:11,12,0,25.525,3757.69495522,2.296588,0.3131716,0.58506891636,0,0,0,22.6, 0.5, 0.7,0,0,1024,1024,1024,1024,21.3,-89.9,100,4.243,4.26,4.23,4.269,4.277,4.231,4.102,80.6,11,AutoTakeoff,
38.5569489,-120.5321421,3758.02303922,2.624672,0,0.61717849744,4900,2018-06-20 21:47:11,11,0,25.525,3758.02303922,2.624672,0.3131716,0.61717849744,0,0,0,22.5, 0.5, 0.6,0,0,1024,1024,1024,1024,21.3,-89.9,100,4.243,4.26,4.23,4.269,4.277,4.231,4.102,80.6,11,AutoTakeoff,
38.5569489,-120.5321421,3758.02303922,2.624672,0,0.61717849744,5100,2018-06-20 21:47:11,11,0,25.525,3758.02303922,2.624672,0.3131716,0.61717849744,0,0,0,22.6, 0.6, 0.5,0,0,1024,1024,1024,1024,21.3,-89.9,100,4.243,4.26,4.23,4.269,4.277,4.231,4.102,80.6,11,AutoTakeoff,
38.5569489,-120.532142,3758.35112322,2.952756,0,0.60451773588,5200,2018-06-20 21:47:11,12,0,25.525,3758.35112322,2.952756,0.3131716,0.61717849744,0,0,0,22.6, 0.7, 0.5,0,0,1024,1024,1024,1024,21.3,-89.9,100,4.243,4.26,4.23,4.269,4.277,4.231,4.102,80.6,14,Waypoint,
38.556949,-120.5321421,3758.67920722,3.28084,0,0.64975067696,5300,2018-06-20 21:47:11,12,0,25.525,3758.67920722,3.28084,0.3131716,0.64975067696,0,0,0,22.6, 0.6, 0.3,0,0,1024,1024,1024,1024,21.4,-89.9,100,4.243,4.26,4.23,4.269,4.277,4.231,4.102,80.6,14,Waypoint,
38.5569489,-120.532142,3758.67920722,3.28084,0,0.60451773588,5400,2018-06-20 21:47:12,12,0,25.525,3758.67920722,3.28084,0.3131716,0.64975067696,0,0,0,22.5, 0.5, 0.3,0,0,1024,1024,1024,1024,21.4,-89.9,100,4.243,4.26,4.23,4.269,4.277,4.231,4.102,80.6,14,Waypoint,
38.5569489,-120.532142,3759.00729122,3.608924,0,0.60451773588,5500,2018-06-20 21:47:12,11,0,25.525,3759.00729122,3.608924,0.3131716,0.64975067696,0,0,0,22.4, 0.3, 0.4,0,0,1024,1024,1024,1024,21.4,-90,100,4.243,4.26,4.23,4.269,4.277,4.231,4.102,80.6,14,Waypoint,
38.5569488,-120.5321421,3759.00729122,3.608924,0,0.58506891636,5600,2018-06-20 21:47:12,11,0,25.525,3759.00729122,3.608924,0.3131716,0.64975067696,0,0,0,22.4, 0.1, 0.6,0,0,1024,1024,1024,1024,21.4,-90,100,4.243,4.26,4.23,4.269,4.277,4.231,4.102,80.6,14,Waypoint,
38.5569488,-120.5321421,3759.33537522,3.937008,0,0.58506891636,5700,2018-06-20 21:47:12,12,0,25.525,3759.33537522,3.937008,0.3131716,0.64975067696,0,0,-0.223694,22.3, 0, 0.6,0,0,1024,1024,1024,1024,21.4,-90,100,4.243,4.26,4.23,4.269,4.277,4.231,4.102,80.6,14,Waypoint,
38.5569488,-120.5321421,3759.66345922,4.265092,0,0.58506891636,5800,2018-06-20 21:47:12,12,0,25.525,3759.66345922,4.265092,0.3131716,0.64975067696,0,0,-0.223694,22.3, 0, 0.4,0,0,1024,1024,1024,1024,21.4,-90,100,4.243,4.26,4.23,4.269,4.277,4.231,4.102,80.6,14,Waypoint,
38.5569488,-120.5321421,3759.99154322,4.593176,0,0.58506891636,5900,2018-06-20 21:47:12,13,0,25.525,3759.99154322,4.593176,0.3131716,0.64975067696,0,0,-0.223694,22.2, 0, 0.1,0,0,1024,1024,1024,1024,21.5,-90,100,4.243,4.26,4.23,4.269,4.277,4.231,4.102,80.6,14,Waypoint,
38.5569488,-120.5321419,3760.31962722,4.92126,0,0.559465241,6000,2018-06-20 21:47:12,13,0,24.533,3760.31962722,4.92126,0.3131716,0.64975067696,0,0,-0.223694,22.2, 0.2, 0,0,0,1024,1024,1024,1024,21.5,-89.9,100,4.09,4.08,4.072,4.084,4.107,4.098,16.171,80.6,14,Waypoint,
38.5569489,-120.5321418,3760.64771122,5.249344,0,0.58257547796,6100,2018-06-20 21:47:12,13,0,24.533,3760.64771122,5.249344,0.3131716,0.64975067696,0,0,-0.223694,22.1, 0.7, -0.1,0,0,1024,1024,1024,1024,21.5,-89.9,100,4.09,4.08,4.072,4.084,4.107,4.098,16.171,80.6,14,Waypoint,
38.5569488,-120.5321417,3761.30387922,5.905512,0,0.53871064716,6200,2018-06-20 21:47:12,13,0,24.533,3761.30387922,5.905512,0.3131716,0.64975067696,0,0,-0.447388,22, 0.9, 0,0,0,1024,1024,1024,1024,21.5,-89.9,100,4.09,4.08,4.072,4.084,4.107,4.098,16.171,80.6,14,Waypoint,
38.5569488,-120.5321416,3761.96004722,6.56168,0,0.53033466264,6300,2018-06-20 21:47:12,12,0,24.533,3761.96004722,6.56168,0.3131716,0.64975067696,0,0,-0.447388,22, 0.9, 0.1,0,0,1024,1024,1024,1024,21.5,-89.9,100,4.09,4.08,4.072,4.084,4.107,4.098,16.171,80.6,14,Waypoint,
38.5569488,-120.5321414,3762.61621522,7.217848,0,0.51791012156,6400,2018-06-20 21:47:13,12,0,24.533,3762.61621522,7.217848,0.3131716,0.64975067696,0,0,-0.447388,22.1, 0.9, -0.1,0,0,1024,1024,1024,1024,21.5,-89.9,100,4.09,4.08,4.072,4.084,4.107,4.098,16.171,80.6,14,Waypoint,
38.5569487,-120.5321412,3763.27238322,7.874016,0,0.47516077636,6500,2018-06-20 21:47:13,12,0,24.533,3763.27238322,7.874016,0.3131716,0.64975067696,0,0,-0.447388,22.3, 1, -0.5,0,0,1024,1024,1024,1024,21.5,-89.9,100,4.09,4.08,4.072,4.084,4.107,4.098,16.171,80.6,14,Waypoint,
38.5569487,-120.5321411,3764.25663522,8.858268,0,0.47430447712,6600,2018-06-20 21:47:13,12,0,24.533,3764.25663522,8.858268,0.3131716,0.64975067696,0,0,-0.671082,22.5, 0.8, -0.6,0,0,1024,1024,1024,1024,21.6,-89.9,100,4.09,4.08,4.072,4.084,4.107,4.098,16.171,80.6,14,Waypoint,
38.5569485,-120.5321409,3765.24088722,9.84252,0,0.40537074788,6700,2018-06-20 21:47:13,12,0,24.533,3765.24088722,9.84252,0.3131716,0.64975067696,0,0,-0.671082,22.6, 0.7, -0.6,0,0,1024,1024,1024,1024,21.6,-89.9,100,4.09,4.08,4.072,4.084,4.107,4.098,16.171,80.6,14,Waypoint,
38.5569484,-120.5321407,3766.22513922,10.826772,0,0.38228019596,6800,2018-06-20 21:47:13,12,0,24.533,3766.22513922,10.826772,0.3131716,0.64975067696,0,0,-0.671082,22.8, 0.5, -0.8,0,0,1024,1024,1024,1024,21.6,-89.9,100,4.09,4.08,4.072,4.084,4.107,4.098,16.171,80.6,14,Waypoint,
38.5569482,-120.5321405,3767.20939122,11.811024,0,0.33837599508,6900,2018-06-20 21:47:13,12,0,24.533,3767.20939122,11.811024,0.3131716,0.64975067696,0,0,-0.671082,22.8, 0.4, -1.3,0,0,1024,1024,1024,1024,21.6,-89.9,100,4.09,4.08,4.072,4.084,4.107,4.098,16.171,80.6,14,Waypoint,
38.5569481,-120.5321405,3768.19364322,12.795276,0,0.307458343172,7000,2018-06-20 21:47:13,12,0,24.595,3768.19364322,12.795276,0.3131716,0.64975067696,0,0,-0.671082,22.9, 0.4, -1.5,0,0,1024,1024,1024,1024,21.6,-89.9,100,4.135,4.079,4.105,4.061,4.076,4.081,15.815,80.6,14,Waypoint,
38.556948,-120.5321404,3769.17789522,13.779528,0,0.29632382838,7100,2018-06-20 21:47:13,11,0,24.595,3769.17789522,13.779528,0.3131716,0.64975067696,0,0,-0.671082,23, 0.5, -1.3,0,0,1024,1024,1024,1024,21.6,-89.9,100,4.135,4.079,4.105,4.061,4.076,4.081,15.815,80.6,14,Waypoint,
38.5569478,-120.5321401,3770.49023122,15.091864,0,0.320467201856,7200,2018-06-20 21:47:13,11,0,24.595,3770.49023122,15.091864,0.3131716,0.64975067696,0,0,-0.671082,23.1, 0.5, -1.4,0,0,1024,1024,1024,1024,21.6,-90,100,4.135,4.079,4.105,4.061,4.076,4.081,15.815,80.6,14,Waypoint,
38.5569476,-120.5321399,3771.47448322,16.076116,0,0.35005906632,7300,2018-06-20 21:47:13,11,0,24.595,3771.47448322,16.076116,0.3131716,0.64975067696,0,0,-0.671082,23.1, 0.3, -1.5,0,0,1024,1024,1024,1024,21.6,-90,100,4.135,4.079,4.105,4.061,4.076,4.081,15.815,80.6,14,Waypoint,
38.5569474,-120.5321397,3772.45873522,17.060368,0,0.39943242748,7400,2018-06-20 21:47:14,11,0,24.595,3772.45873522,17.060368,0.3131716,0.64975067696,0,0,-0.671082,23.2, 0.1, -1.5,0,0,1024,1024,1024,1024,21.6,-90,100,4.135,4.079,4.105,4.061,4.076,4.081,15.815,80.6,14,Waypoint,
38.5569472,-120.5321395,3773.77107122,18.372704,0,0.46229004104,7500,2018-06-20 21:47:14,10,0,24.595,3773.77107122,18.372704,0.3131716,0.64975067696,0,0,-0.671082,23.1, -0.1, -1.7,0,0,1024,1024,1024,1024,21.6,-90,100,4.135,4.079,4.105,4.061,4.076,4.081,15.815,80.6,14,Waypoint,
38.5569471,-120.5321391,3775.73957522,20.341208,0,0.5810203598,7600,2018-06-20 21:47:14,10,0,24.595,3775.73957522,20.341208,0.3131716,0.64975067696,0,0,-0.671082,22.8, -0.2, -2.3,0,0,1024,1024,1024,1024,21.6,-90,100,4.135,4.079,4.105,4.061,4.076,4.081,15.815,80.6,14,Waypoint,
38.556947,-120.5321391,3778.03616322,22.637796,0,0.58898295848,7800,2018-06-20 21:47:14,10,0,24.595,3778.03616322,22.637796,0.3131716,0.64975067696,0,0,-0.671082,22.4, 0.2, -1.8,0,0,1024,1024,1024,1024,21.5,-89.9,100,4.135,4.079,4.105,4.061,4.076,4.081,15.815,80.6,14,Waypoint,
38.556947,-120.5321391,3778.03616322,22.637796,0,0.58898295848,7900,2018-06-20 21:47:14,10,0,24.595,3778.03616322,22.637796,0.3131716,0.64975067696,0,0,-0.671082,22.4, 0.2, -1.8,0,0,1024,1024,1024,1024,21.5,-89.9,100,4.135,4.079,4.105,4.061,4.076,4.081,15.815,80.6,14,Waypoint,
38.556947,-120.5321392,3779.34849922,23.950132,0.3131716,0.56138781324,8000,2018-06-20 21:47:14,10,0,24.021,3779.34849922,23.950132,0.3131716,0.64975067696,0,0,-0.671082,22.4, 0.3, -1.6,0,0,1024,1024,1024,1024,21.5,-89.9,100,3.999,3.975,3.966,3.988,4.022,3.991,21.922,80.6,14,Waypoint,
38.5569471,-120.5321393,3780.33275122,24.934384,0.3131716,0.52508859948,8100,2018-06-20 21:47:14,12,0,24.021,3780.33275122,24.934384,0.3131716,0.64975067696,0,0,-0.671082,22.4, 0.4, -1.2,0,0,1024,1024,1024,1024,21.6,-89.9,100,3.999,3.975,3.966,3.988,4.022,3.991,21.922,80.6,14,Waypoint,
38.5569473,-120.5321394,3781.31700322,25.918636,0.3131716,0.48639437252,8200,2018-06-20 21:47:14,12,0,24.021,3781.31700322,25.918636,0.3131716,0.64975067696,0,0,-0.671082,22.6, 0.5, -0.5,0,0,1024,1024,1024,1024,21.6,-89.9,100,3.999,3.975,3.966,3.988,4.022,3.991,21.922,80.6,14,Waypoint,
38.5569475,-120.5321396,3782.30125522,26.902888,0.3131716,0.42951444944,8300,2018-06-20 21:47:14,12,0,24.021,3782.30125522,26.902888,0.3131716,0.64975067696,0,0,-0.671082,22.9, 0.8, 0.2,0,0,1024,1024,1024,1024,21.6,-89.9,100,3.999,3.975,3.966,3.988,4.022,3.991,21.922,80.6,14,Waypoint,
38.5569477,-120.5321398,3783.28550722,27.88714,0.3131716,0.3867126108,8400,2018-06-20 21:47:15,12,0,24.021,3783.28550722,27.88714,0.3131716,0.64975067696,0,0,-0.671082,23.2, 1.5, 0.8,0,0,1024,1024,1024,1024,21.6,-89.9,100,3.999,3.975,3.966,3.988,4.022,3.991,21.922,80.6,14,Waypoint,
38.556948,-120.5321399,3784.26975922,28.871392,0.3131716,0.40637140408,8500,2018-06-20 21:47:15,13,0,24.021,3784.26975922,28.871392,0.3131716,0.64975067696,0,0,-0.671082,23.3, 1.9, 0.9,0,0,1024,1024,1024,1024,21.6,-89.9,100,3.999,3.975,3.966,3.988,4.022,3.991,21.922,80.6,14,Waypoint,
38.5569482,-120.5321402,3785.25401122,29.855644,0.3131716,0.38875329328,8600,2018-06-20 21:47:15,13,0,24.021,3785.25401122,29.855644,0.3131716,0.64975067696,0,0,-0.671082,23.3, 2.1, 1.1,0,0,1024,1024,1024,1024,21.6,-89.9,100,3.999,3.975,3.966,3.988,4.022,3.991,21.922,80.6,14,Waypoint,
38.5569484,-120.5321404,3786.56634722,31.16798,0.3131716,0.41593505268,8700,2018-06-20 21:47:15,13,0,24.021,3786.56634722,31.16798,0.3131716,0.64975067696,0,0,-0.671082,23.1, 2.1, 1.2,0,0,1024,1024,1024,1024,21.6,-89.9,100,3.999,3.975,3.966,3.988,4.022,3.991,21.922,80.6,14,Waypoint,
38.5569485,-120.5321405,3787.55059922,32.152232,0.3131716,0.4363189116,8810,2018-06-20 21:47:15,13,0,24.021,3787.55059922,32.152232,0.3131716,0.64975067696,0,0,-0.671082,22.9, 2, 1.2,0,0,1024,1024,1024,1024,21.6,-89.9,100,3.999,3.975,3.966,3.988,4.022,3.991,21.922,80.6,14,Waypoint,
38.5569486,-120.5321406,3788.53485122,33.136484,0.3131716,0.46047245568,8910,2018-06-20 21:47:15,12,0,24.021,3788.53485122,33.136484,0.3131716,0.64975067696,0,0,-0.671082,22.7, 1.9, 1.1,0,0,1024,1024,1024,1024,21.6,-89.9,100,3.999,3.975,3.966,3.988,4.022,3.991,21.922,80.6,14,Waypoint,
38.5569487,-120.5321408,3789.51910322,34.120736,0.3131716,0.48196523852,9000,2018-06-20 21:47:15,12,0,24.016,3789.51910322,34.120736,0.3131716,0.64975067696,0,0,-0.671082,22.5, 1.7, 0.9,0,0,1024,1024,1024,1024,21.6,-89.9,100,4.008,4.008,3.986,3.998,4.032,4.022,21.201,80.6,14,Waypoint,
38.5569488,-120.532141,3790.50335522,35.104988,0.223694,0.51158466204,9100,2018-06-20 21:47:15,13,0,24.016,3790.50335522,35.104988,0.3131716,0.64975067696,0,0,-0.671082,22.4, 1.5, 1,0,0,1024,1024,1024,1024,21.6,-89.9,100,4.008,4.008,3.986,3.998,4.032,4.022,21.201,80.6,14,Waypoint,
38.5569488,-120.5321412,3791.48760722,36.08924,0.223694,0.51158466204,9200,2018-06-20 21:47:15,13,0,24.016,3791.48760722,36.08924,0.3131716,0.64975067696,0,0,-0.671082,22.3, 1.5, 1.1,0,0,1024,1024,1024,1024,21.6,-89.9,100,4.008,4.008,3.986,3.998,4.032,4.022,21.201,80.6,14,Waypoint,
38.5569489,-120.5321413,3792.79994322,37.401576,0.223694,0.55023951892,9300,2018-06-20 21:47:15,12,0,24.016,3792.79994322,37.401576,0.3131716,0.64975067696,0,0,-0.671082,22.3, 1.4, 1.2,0,0,1024,1024,1024,1024,21.6,-89.9,100,4.008,4.008,3.986,3.998,4.032,4.022,21.201,80.6,14,Waypoint,
38.5569489,-120.5321415,3793.78419522,38.385828,0.223694,0.55904529348,9400,2018-06-20 21:47:16,12,0,24.016,3793.78419522,38.385828,0.3131716,0.64975067696,0,0,-0.671082,22.3, 1.1, 1.3,0,0,1024,1024,1024,1024,21.6,-89.9,100,4.008,4.008,3.986,3.998,4.032,4.022,21.201,80.6,14,Waypoint,
38.5569489,-120.5321417,3794.76844722,39.37008,0.223694,0.57342193436,9500,2018-06-20 21:47:16,12,0,24.016,3794.76844722,39.37008,0.3131716,0.64975067696,0,0,-0.671082,22.4, 0.8, 1.1,0,0,1024,1024,1024,1024,21.6,-89.9,100,4.008,4.008,3.986,3.998,4.032,4.022,21.201,80.6,14,Waypoint,
38.556949,-120.5321419,3795.75269922,40.354332,0.223694,0.62679463948,9600,2018-06-20 21:47:16,12,0,24.016,3795.75269922,40.354332,0.3131716,0.64975067696,0,0,-0.671082,22.4, 0.8, 1.2,0,0,1024,1024,1024,1024,21.6,-90,100,4.008,4.008,3.986,3.998,4.032,4.022,21.201,80.6,14,Waypoint,
38.556949,-120.5321422,3797.72120322,42.322836,0,0.66277561176,9810,2018-06-20 21:47:16,11,0,24.016,3797.72120322,42.322836,0.3131716,0.66277561176,0,0,-0.671082,22.5, 0.5, 1.7,0,0,1024,1024,1024,1024,21.6,-90,100,4.008,4.008,3.986,3.998,4.032,4.022,21.201,80.6,14,Waypoint,
38.556949,-120.5321423,3798.70545522,43.307088,0,0.67675199016,9900,2018-06-20 21:47:16,13,0,24.016,3798.70545522,43.307088,0.3131716,0.67675199016,0,0,-0.671082,22.5, 0.4, 1.6,0,0,1024,1024,1024,1024,21.6,-89.9,100,4.008,4.008,3.986,3.998,4.032,4.022,21.201,80.6,14,Waypoint,
38.5569491,-120.5321426,3799.68970722,44.29134,0,0.7535597354,10000,2018-06-20 21:47:16,13,0,24.11,3799.68970722,44.29134,0.3131716,0.7535597354,0,0,-0.671082,22.5, 0.6, 1.4,0,0,1024,1024,1024,1024,21.6,-89.9,100,4.032,4.021,3.984,4.012,4.047,4.028,18.236,80.6,14,Waypoint,
38.5569491,-120.5321427,3800.67395922,45.275592,0,0.77012141572,10100,2018-06-20 21:47:16,13,0,24.11,3800.67395922,45.275592,0.3131716,0.77012141572,0,0,-0.671082,22.4, 1, 1.5,0,0,1024,1024,1024,1024,21.6,-89.9,100,4.032,4.021,3.984,4.012,4.047,4.028,18.236,80.6,14,Waypoint,
38.5569492,-120.5321427,3802.64246322,47.244096,0,0.79979989436,10300,2018-06-20 21:47:16,14,0,24.11,3802.64246322,47.244096,0.3131716,0.79979989436,0,0,-0.671082,22.4, 1.5, 1.4,0,0,1024,1024,1024,1024,21.6,-89.9,100,4.032,4.021,3.984,4.012,4.047,4.028,18.236,80.6,14,Waypoint,
38.5569492,-120.5321428,3804.61096722,49.2126,0,0.8164206298,10400,2018-06-20 21:47:17,14,0,24.11,3804.61096722,49.2126,0.3131716,0.8164206298,0,0,-0.671082,22.5, 1.7, 0.1,0,0,1024,1024,1024,1024,21.6,-89.9,100,4.032,4.021,3.984,4.012,4.047,4.028,18.236,80.6,14,Waypoint,
38.5569492,-120.5321428,3805.59521922,50.196852,0,0.8164206298,10600,2018-06-20 21:47:17,14,0,24.11,3805.59521922,50.196852,0.3131716,0.8164206298,0,0,-0.671082,22.7, 1.5, -0.3,0,0,1024,1024,1024,1024,21.6,-89.9,100,4.032,4.021,3.984,4.012,4.047,4.028,18.236,80.6,14,Waypoint,
38.5569491,-120.5321428,3806.57947122,51.181104,0,0.7873687916,10700,2018-06-20 21:47:17,14,0,24.11,3806.57947122,51.181104,0.3131716,0.8164206298,0,0,-0.671082,22.8, 1.3, 0,0,0,1024,1024,1024,1024,21.6,-89.9,100,4.032,4.021,3.984,4.012,4.047,4.028,18.236,80.6,14,Waypoint,
38.556949,-120.5321428,3807.56372322,52.165356,0,0.75896327888,10800,2018-06-20 21:47:17,14,0,24.11,3807.56372322,52.165356,0.3131716,0.8164206298,0,0,-0.671082,22.9, 1.1, 0.6,0,0,1024,1024,1024,1024,21.6,-89.9,100,4.032,4.021,3.984,4.012,4.047,4.028,18.236,80.6,14,Waypoint,
38.556949,-120.5321429,3808.54797522,53.149608,0,0.77750330572,10900,2018-06-20 21:47:17,14,0,24.11,3808.54797522,53.149608,0.3131716,0.8164206298,0,0,-0.671082,22.8, 1, 0.9,0,0,1024,1024,1024,1024,21.6,-89.9,100,4.032,4.021,3.984,4.012,4.047,4.028,18.236,80.6,14,Waypoint,
38.5569489,-120.5321429,3809.53222722,54.13386,0,0.75049871168,11000,2018-06-20 21:47:17,14,0,24.147,3809.53222722,54.13386,0.3131716,0.8164206298,0,0,-0.671082,22.8, 1, 1,0,0,1024,1024,1024,1024,21.6,-89.9,98,4.032,4.021,3.984,4.012,4.047,4.028,17.867,80.6,14,Waypoint,
38.5569488,-120.5321429,3810.51647922,55.118112,0,0.72432417016,11100,2018-06-20 21:47:17,13,0,24.147,3810.51647922,55.118112,0.3131716,0.8164206298,0,0,-0.671082,22.8, 1, 1.1,0,0,1024,1024,1024,1024,21.6,-89.9,98,4.032,4.021,3.984,4.012,4.047,4.028,17.867,80.6,14,Waypoint,
38.5569488,-120.5321428,3811.50073122,56.102364,0,0.70438322464,11200,2018-06-20 21:47:17,13,0,24.147,3811.50073122,56.102364,0.3131716,0.8164206298,0,0,-0.671082,22.6, 0.9, 1.1,0,0,1024,1024,1024,1024,21.6,-89.9,98,4.032,4.021,3.984,4.012,4.047,4.028,17.867,80.6,14,Waypoint,
38.5569487,-120.5321428,3812.48498322,57.086616,0,0.67838912932,11300,2018-06-20 21:47:17,12,0,24.147,3812.48498322,57.086616,0.3131716,0.8164206298,0,0,-0.671082,22.5, 0.9, 0.8,0,0,1024,1024,1024,1024,21.6,-89.9,98,4.032,4.021,3.984,4.012,4.047,4.028,17.867,80.6,14,Waypoint,
38.5569487,-120.5321427,3813.46923522,58.070868,0,0.65829398432,11400,2018-06-20 21:47:18,12,0,24.147,3813.46923522,58.070868,0.3131716,0.8164206298,0,0,-0.671082,22.4, 1, 0.3,0,0,1024,1024,1024,1024,21.6,-89.9,98,4.032,4.021,3.984,4.012,4.047,4.028,17.867,80.6,14,Waypoint,
38.5569486,-120.5321425,3814.45348722,59.05512,0,0.59264765676,11500,2018-06-20 21:47:18,14,0,24.147,3814.45348722,59.05512,0.3131716,0.8164206298,0,0,-0.671082,22.4, 1.2, 0,0,0,1024,1024,1024,1024,21.6,-89.9,98,4.032,4.021,3.984,4.012,4.047,4.028,17.867,80.6,14,Waypoint,
38.5569485,-120.5321424,3815.43773922,60.039372,0,0.54647639544,11600,2018-06-20 21:47:18,14,0,24.147,3815.43773922,60.039372,0.3131716,0.8164206298,0,0,-0.671082,22.4, 1.3, -0.1,0,0,1024,1024,1024,1024,21.6,-89.9,98,4.032,4.021,3.984,4.012,4.047,4.028,17.867,80.6,14,Waypoint,
38.5569485,-120.5321423,3816.42199122,61.023624,0,0.52752954444,11700,2018-06-20 21:47:18,14,0,24.147,3816.42199122,61.023624,0.3131716,0.8164206298,0,0,-0.671082,22.4, 1.3, 0,0,0,1024,1024,1024,1024,21.6,-89.9,98,4.032,4.021,3.984,4.012,4.047,4.028,17.867,80.6,14,Waypoint,
38.5569484,-120.5321422,3817.40624322,62.007876,0,0.48125985792,11800,2018-06-20 21:47:18,14,0,24.147,3817.40624322,62.007876,0.3131716,0.8164206298,0,0,-0.671082,22.4, 1.3, 0.1,0,0,1024,1024,1024,1024,21.6,-89.9,98,4.032,4.021,3.984,4.012,4.047,4.028,17.867,80.6,14,Waypoint,
38.5569483,-120.5321421,3818.39049522,62.992128,0,0.43500001392,11900,2018-06-20 21:47:18,14,0,24.147,3818.39049522,62.992128,0.3131716,0.8164206298,0,0,-0.671082,22.2, 1.2, 0,0,0,1024,1024,1024,1024,21.6,-89.9,98,4.032,4.021,3.984,4.012,4.047,4.028,17.867,80.6,14,Waypoint,
38.5569482,-120.5321419,3819.37474722,63.97638,0,0.37052822708,12100,2018-06-20 21:47:18,14,0,24.147,3819.37474722,63.97638,0.3131716,0.8164206298,0,0,-0.671082,22.1, 1.1, -0.5,0,0,1024,1024,1024,1024,21.6,-89.9,98,4.032,4.021,3.984,4.012,4.047,4.028,17.867,80.6,14,Waypoint,
38.556948,-120.5321417,3821.34325122,65.944884,0,0.277895022016,12200,2018-06-20 21:47:18,13,0,24.147,3821.34325122,65.944884,0.3131716,0.8164206298,0,0,-0.671082,21.9, 1, -0.7,0,0,1024,1024,1024,1024,21.6,-89.9,98,4.032,4.021,3.984,4.012,4.047,4.028,17.867,80.6,14,Waypoint,
38.5569479,-120.5321415,3822.32750322,66.929136,0,0.215181109248,12300,2018-06-20 21:47:18,14,0,24.147,3822.32750322,66.929136,0.3131716,0.8164206298,0,0,-0.671082,22, 1, -0.6,0,0,1024,1024,1024,1024,21.6,-89.9,98,4.032,4.021,3.984,4.012,4.047,4.028,17.867,80.6,14,Waypoint,
38.5569478,-120.5321411,3824.29600722,68.89764,0,0.145939637216,12500,2018-06-20 21:47:19,13,0,24.147,3824.29600722,68.89764,0.3131716,0.8164206298,0,0,-0.671082,22.3, 1.8, -1.1,0,0,1024,1024,1024,1024,21.6,-89.9,98,4.032,4.021,3.984,4.012,4.047,4.028,17.867,80.6,14,Waypoint,
38.5569477,-120.5321408,3825.28025922,69.881892,0,0.138947511008,12600,2018-06-20 21:47:19,13,0,24.147,3825.28025922,69.881892,0.3131716,0.8164206298,0,0,-0.671082,22.5, 2.1, -1.5,0,0,1024,1024,1024,1024,21.6,-89.9,98,4.032,4.021,3.984,4.012,4.047,4.028,17.867,80.6,14,Waypoint,
38.5569476,-120.5321406,3826.59259522,71.194228,0,0.160233600928,12700,2018-06-20 21:47:19,14,0,24.147,3826.59259522,71.194228,0.3131716,0.8164206298,0,0,-0.671082,22.6, 1.9, -2.1,0,0,1024,1024,1024,1024,21.6,-89.9,98,4.032,4.021,3.984,4.012,4.047,4.028,17.867,80.6,14,Waypoint,
38.5569476,-120.5321404,3827.57684722,72.17848,0,0.212628615728,12800,2018-06-20 21:47:19,14,0,24.147,3827.57684722,72.17848,0.3131716,0.8164206298,0,0,-0.671082,22.7, 1.9, -2.4,0,0,1024,1024,1024,1024,21.6,-89.9,98,4.032,4.021,3.984,4.012,4.047,4.028,17.867,80.6,14,Waypoint,
38.5569475,-120.5321401,3829.54535122,74.146984,0.223694,0.287631570884,13000,2018-06-20 21:47:19,14,0,24.067,3829.54535122,74.146984,0.3131716,0.8164206298,0,0,-0.671082,22.6, 1.9, -2,0,0,1024,1024,1024,1024,21.6,-89.9,98,3.989,3.983,3.983,4.004,4.04,4.013,19.94,80.6,14,Waypoint,
38.5569475,-120.5321399,3830.52960322,75.131236,0.223694,0.3443077538,13100,2018-06-20 21:47:19,14,0,24.067,3830.52960322,75.131236,0.3131716,0.8164206298,0,0,-0.671082,22.5, 2.1, -1.9,0,0,1024,1024,1024,1024,21.6,-89.9,98,3.989,3.983,3.983,4.004,4.04,4.013,19.94,80.6,14,Waypoint,
38.5569474,-120.5321398,3831.51385522,76.115488,0.223694,0.37090224284,13200,2018-06-20 21:47:19,14,0,24.067,3831.51385522,76.115488,0.3131716,0.8164206298,0,0,-0.671082,22.5, 2.3, -1.9,0,0,1024,1024,1024,1024,21.6,-89.9,98,3.989,3.983,3.983,4.004,4.04,4.013,19.94,80.6,14,Waypoint,
38.5569474,-120.5321396,3832.49810722,77.09974,0.223694,0.42796261212,13300,2018-06-20 21:47:19,15,0,24.067,3832.49810722,77.09974,0.3131716,0.8164206298,0,0,-0.671082,22.5, 2.3, -1.8,0,0,1024,1024,1024,1024,21.6,-89.9,98,3.989,3.983,3.983,4.004,4.04,4.013,19.94,80.6,14,Waypoint,
38.5569473,-120.5321395,3833.48235922,78.083992,0.223694,0.45794948972,13400,2018-06-20 21:47:20,15,0,24.067,3833.48235922,78.083992,0.3131716,0.8164206298,0,0,-0.671082,22.5, 2, -1.8,0,0,1024,1024,1024,1024,21.6,-89.9,98,3.989,3.983,3.983,4.004,4.04,4.013,19.94,80.6,14,Waypoint,
38.5569471,-120.5321392,3835.12277922,79.724412,0.223694,0.55302495208,13600,2018-06-20 21:47:20,15,0,24.067,3835.12277922,79.724412,0.3131716,0.8164206298,0,0,-0.671082,22.6, 1.7, -2.1,0,0,1024,1024,1024,1024,21.6,-89.9,98,3.989,3.983,3.983,4.004,4.04,4.013,19.94,80.6,14,Waypoint,
38.5569471,-120.5321391,3836.10703122,80.708664,0.223694,0.5810203598,13700,2018-06-20 21:47:20,15,0,24.067,3836.10703122,80.708664,0.3131716,0.8164206298,0,0,-0.671082,22.6, 1.5, -2.1,0,0,1024,1024,1024,1024,21.6,-89.9,98,3.989,3.983,3.983,4.004,4.04,4.013,19.94,80.6,14,Waypoint,
38.5569471,-120.532139,3837.09128322,81.692916,0.223694,0.60906169928,13800,2018-06-20 21:47:20,15,0,24.067,3837.09128322,81.692916,0.3131716,0.8164206298,0,0,-0.671082,22.5, 1.3, -2,0,0,1024,1024,1024,1024,21.6,-89.9,98,3.989,3.983,3.983,4.004,4.04,4.013,19.94,80.6,14,Waypoint,
38.556947,-120.5321389,3838.07553522,82.677168,0.223694,0.64441931196,13900,2018-06-20 21:47:20,15,0,24.067,3838.07553522,82.677168,0.3131716,0.8164206298,0,0,-0.671082,22.4, 1.4, -1.8,0,0,1024,1024,1024,1024,21.6,-89.9,98,3.989,3.983,3.983,4.004,4.04,4.013,19.94,80.6,14,Waypoint,
38.556947,-120.5321388,3839.05978722,83.66142,0.223694,0.67224083516,14000,2018-06-20 21:47:20,15,0,23.932,3839.05978722,83.66142,0.3131716,0.8164206298,0,0,-0.671082,22.4, 2, -2,0,0,1024,1024,1024,1024,21.6,-89.9,98,3.993,3.98,3.977,3.99,4.017,3.997,19.55,80.6,14,Waypoint,
38.5569469,-120.5321387,3840.04403922,84.645672,0.223694,0.70862206992,14100,2018-06-20 21:47:20,15,0,23.932,3840.04403922,84.645672,0.3131716,0.8164206298,0,0,-0.671082,22.5, 2.1, -2.2,0,0,1024,1024,1024,1024,21.6,-89.9,98,3.993,3.98,3.977,3.99,4.017,3.997,19.55,80.6,14,Waypoint,
38.5569469,-120.5321385,3842.01254322,86.614176,0.223694,0.76390422392,14200,2018-06-20 21:47:20,15,0,23.932,3842.01254322,86.614176,0.3131716,0.8164206298,0,0,-0.671082,22.7, 2.1, -2.2,0,0,1024,1024,1024,1024,21.6,-89.9,98,3.993,3.98,3.977,3.99,4.017,3.997,19.55,80.6,14,Waypoint,
38.5569469,-120.5321385,3842.99679522,87.598428,0.223694,0.76390422392,14300,2018-06-20 21:47:20,15,0,23.932,3842.99679522,87.598428,0.3131716,0.8164206298,0,0,-0.671082,22.7, 2, -2.4,0,0,1024,1024,1024,1024,21.6,-89.9,98,3.993,3.98,3.977,3.99,4.017,3.997,19.55,80.6,14,Waypoint,
38.5569469,-120.5321385,3843.98104722,88.58268,0.223694,0.76390422392,14400,2018-06-20 21:47:21,15,0,23.932,3843.98104722,88.58268,0.3131716,0.8164206298,0,0,-0.671082,22.7, 2.1, -2.3,0,0,1024,1024,1024,1024,21.6,-89.9,98,3.993,3.98,3.977,3.99,4.017,3.997,19.55,80.6,14,Waypoint,
38.5569469,-120.5321385,3845.94955122,90.551184,0.3131716,0.76390422392,14610,2018-06-20 21:47:21,15,0,23.932,3845.94955122,90.551184,0.3131716,0.8164206298,0,0,-0.671082,22.4, 2, -1.6,0,0,1024,1024,1024,1024,21.6,-89.9,98,3.993,3.98,3.977,3.99,4.017,3.997,19.55,80.6,14,Waypoint,
38.5569469,-120.5321385,3845.94955122,90.551184,0.3131716,0.76390422392,14700,2018-06-20 21:47:21,15,0,23.932,3845.94955122,90.551184,0.3131716,0.8164206298,0,0,-0.671082,22.4, 2, -1.6,0,0,1024,1024,1024,1024,21.6,-89.9,98,3.993,3.98,3.977,3.99,4.017,3.997,19.55,80.6,14,Waypoint,
38.5569468,-120.5321385,3846.93380322,91.535436,0.3131716,0.77342850244,14800,2018-06-20 21:47:21,15,0,23.932,3846.93380322,91.535436,0.3131716,0.8164206298,0,0,-0.671082,22.3, 2, -1.6,0,0,1024,1024,1024,1024,21.6,-89.9,98,3.993,3.98,3.977,3.99,4.017,3.997,19.55,80.6,14,Waypoint,
38.5569468,-120.5321385,3847.91805522,92.519688,0.3131716,0.77342850244,14900,2018-06-20 21:47:21,15,0,23.932,3847.91805522,92.519688,0.3131716,0.8164206298,0,0,-0.671082,22.3, 1.9, -1.7,0,0,1024,1024,1024,1024,21.6,-89.9,98,3.993,3.98,3.977,3.99,4.017,3.997,19.55,80.6,14,Waypoint,
38.5569468,-120.5321384,3848.90230722,93.50394,0.223694,0.80083335896,15000,2018-06-20 21:47:21,15,0,23.9,3848.90230722,93.50394,0.3131716,0.8164206298,0,0,-0.671082,22.3, 1.9, -1.8,0,0,1024,1024,1024,1024,21.6,-89.9,98,3.984,3.969,3.963,3.979,4.006,3.997,19.467,80.6,14,Waypoint,
38.5569467,-120.5321384,3849.88655922,94.488192,0.223694,0.8115649866,15100,2018-06-20 21:47:21,15,0,23.9,3849.88655922,94.488192,0.3131716,0.8164206298,0,0,-0.671082,22.4, 1.8, -2.1,0,0,1024,1024,1024,1024,21.6,-89.9,98,3.984,3.969,3.963,3.979,4.006,3.997,19.467,80.6,14,Waypoint,
38.5569468,-120.5321384,3850.87081122,95.472444,0.223694,0.80083335896,15200,2018-06-20 21:47:21,15,0,23.9,3850.87081122,95.472444,0.3131716,0.8164206298,0,0,-0.671082,22.5, 2.1, -2.3,0,0,1024,1024,1024,1024,21.6,-89.9,98,3.984,3.969,3.963,3.979,4.006,3.997,19.467,80.6,14,Waypoint,
38.5569468,-120.5321384,3851.85506322,96.456696,0.223694,0.80083335896,15300,2018-06-20 21:47:21,15,0,23.9,3851.85506322,96.456696,0.3131716,0.8164206298,0,0,-0.671082,22.6, 2.4, -2.4,0,0,1024,1024,1024,1024,21.6,-89.9,98,3.984,3.969,3.963,3.979,4.006,3.997,19.467,80.6,14,Waypoint,
38.5569468,-120.5321383,3852.83931522,97.440948,0.223694,0.8283136748,15400,2018-06-20 21:47:22,15,0,23.9,3852.83931522,97.440948,0.3131716,0.8283136748,0,0,-0.671082,22.6, 2.6, -2.3,0,0,1024,1024,1024,1024,21.6,-89.9,98,3.984,3.969,3.963,3.979,4.006,3.997,19.467,80.6,14,Waypoint,
38.5569468,-120.5321383,3853.82356722,98.4252,0.223694,0.8283136748,15500,2018-06-20 21:47:22,15,0,23.9,3853.82356722,98.4252,0.3131716,0.8283136748,0,0,-0.671082,22.7, 2.5, -2.3,0,0,1024,1024,1024,1024,21.6,-89.9,98,3.984,3.969,3.963,3.979,4.006,3.997,19.467,80.6,14,Waypoint,
38.5569467,-120.5321383,3854.80781922,99.409452,0.223694,0.83869425256,15600,2018-06-20 21:47:22,15,0,23.9,3854.80781922,99.409452,0.3131716,0.83869425256,0,0,-0.671082,22.7, 2.4, -2.4,0,0,1024,1024,1024,1024,21.6,-89.9,98,3.984,3.969,3.963,3.979,4.006,3.997,19.467,80.6,14,Waypoint,
38.5569467,-120.5321383,3855.79207122,100.393704,0.223694,0.83869425256,15700,2018-06-20 21:47:22,15,0,23.9,3855.79207122,100.393704,0.3131716,0.83869425256,0,0,-0.671082,22.7, 2.4, -2.6,0,0,1024,1024,1024,1024,21.6,-89.9,98,3.984,3.969,3.963,3.979,4.006,3.997,19.467,80.6,14,Waypoint,
38.5569467,-120.5321382,3856.77632322,101.377956,0.223694,0.86591538204,15800,2018-06-20 21:47:22,15,0,23.9,3856.77632322,101.377956,0.3131716,0.86591538204,0,0,-0.671082,22.7, 2.5, -2.6,0,0,1024,1024,1024,1024,21.6,-89.9,98,3.984,3.969,3.963,3.979,4.006,3.997,19.467,80.6,14,Waypoint,
38.5569467,-120.5321383,3857.76057522,102.362208,0.3131716,0.83869425256,15900,2018-06-20 21:47:22,15,0,23.9,3857.76057522,102.362208,0.3131716,0.86591538204,0,0,-0.671082,22.7, 2.4, -2.3,0,0,1024,1024,1024,1024,21.6,-89.9,98,3.984,3.969,3.963,3.979,4.006,3.997,19.467,80.6,14,Waypoint,
38.5569467,-120.5321383,3858.74482722,103.34646,0.3131716,0.83869425256,16000,2018-06-20 21:47:22,15,0,23.78,3858.74482722,103.34646,0.3131716,0.86591538204,0,0,-0.671082,22.6, 2.2, -2.1,0,0,1024,1024,1024,1024,21.6,-89.9,98,3.965,3.958,3.932,3.961,3.998,3.972,21.065,80.6,14,Waypoint,
38.5569467,-120.5321384,3859.72907922,104.330712,0.3131716,0.8115649866,16100,2018-06-20 21:47:22,15,0,23.78,3859.72907922,104.330712,0.3131716,0.86591538204,0,0,-0.671082,22.4, 2.3, -1.9,0,0,1024,1024,1024,1024,21.6,-89.9,98,3.965,3.958,3.932,3.961,3.998,3.972,21.065,80.6,14,Waypoint,
38.5569468,-120.5321385,3860.71333122,105.314964,0.4921268,0.77342850244,16200,2018-06-20 21:47:22,15,0,23.78,3860.71333122,105.314964,0.4921268,0.86591538204,0,0,-0.671082,22.4, 2.4, -1.9,0,0,1024,1024,1024,1024,21.6,-89.9,98,3.965,3.958,3.932,3.961,3.998,3.972,21.065,80.6,14,Waypoint,
38.5569468,-120.5321386,3861.69758322,106.299216,0.4921268,0.74610894776,16300,2018-06-20 21:47:22,15,0,23.78,3861.69758322,106.299216,0.4921268,0.86591538204,0,0,-0.671082,22.5, 2.8, -1.9,0,0,1024,1024,1024,1024,21.6,-89.9,98,3.965,3.958,3.932,3.961,3.998,3.972,21.065,80.6,14,Waypoint,
38.5569468,-120.5321386,3862.68183522,107.283468,0.4921268,0.74610894776,16400,2018-06-20 21:47:23,15,0,23.78,3862.68183522,107.283468,0.4921268,0.86591538204,0,0,-0.671082,22.7, 2.9, -1.9,0,0,1024,1024,1024,1024,21.6,-89.9,98,3.965,3.958,3.932,3.961,3.998,3.972,21.065,80.6,14,Waypoint,
38.5569469,-120.5321386,3863.66608722,108.26772,0.4921268,0.73623033852,16500,2018-06-20 21:47:23,15,0,23.78,3863.66608722,108.26772,0.4921268,0.86591538204,0,0,-0.671082,22.8, 2.9, -2,0,0,1024,1024,1024,1024,21.6,-89.9,98,3.965,3.958,3.932,3.961,3.998,3.972,21.065,80.6,14,Waypoint,
38.5569469,-120.5321387,3864.65033922,109.251972,0.4921268,0.70862206992,16600,2018-06-20 21:47:23,15,0,23.78,3864.65033922,109.251972,0.4921268,0.86591538204,0,0,-0.671082,22.9, 3.1, -1.7,0,0,1024,1024,1024,1024,21.6,-89.9,98,3.965,3.958,3.932,3.961,3.998,3.972,21.065,80.6,14,Waypoint,
38.556947,-120.5321387,3867.27501122,111.876644,0.4921268,0.70011813264,16800,2018-06-20 21:47:23,15,0,23.78,3867.27501122,111.876644,0.4921268,0.86591538204,0,0,-0.671082,23, 2.9, -1.7,0,0,1024,1024,1024,1024,21.6,-89.9,98,3.965,3.958,3.932,3.961,3.998,3.972,21.065,80.6,14,Waypoint,
38.556947,-120.5321388,3868.25926322,112.860896,0.4921268,0.67224083516,16900,2018-06-20 21:47:23,15,0,23.78,3868.25926322,112.860896,0.4921268,0.86591538204,0,0,-0.671082,22.8, 2.8, -1.9,0,0,1024,1024,1024,1024,21.6,-89.9,98,3.965,3.958,3.932,3.961,3.998,3.972,21.065,80.6,14,Waypoint,
38.556947,-120.5321389,3869.24351522,113.845148,0.4921268,0.64441931196,17100,2018-06-20 21:47:23,15,0,23.78,3869.24351522,113.845148,0.4921268,0.86591538204,0,0,-0.671082,22.7, 2.9, -1.8,0,0,1024,1024,1024,1024,21.6,-89.9,98,3.965,3.958,3.932,3.961,3.998,3.972,21.065,80.6,14,Waypoint,
38.5569471,-120.5321389,3870.22776722,114.8294,0.4921268,0.63714897052,17200,2018-06-20 21:47:23,15,0,23.78,3870.22776722,114.8294,0.4921268,0.86591538204,0,0,-0.671082,22.5, 3.2, -1.5,0,0,1024,1024,1024,1024,21.6,-89.9,98,3.965,3.958,3.932,3.961,3.998,3.972,21.065,80.6,14,Waypoint,
38.5569471,-120.532139,3871.21201922,115.813652,0.4921268,0.60906169928,17300,2018-06-20 21:47:23,15,0,23.78,3871.21201922,115.813652,0.4921268,0.86591538204,0,0,-0.671082,22.4, 3.2, -1.1,0,0,1024,1024,1024,1024,21.6,-89.9,98,3.965,3.958,3.932,3.961,3.998,3.972,21.065,80.6,14,Waypoint,
38.5569471,-120.5321391,3872.19627122,116.797904,0.4921268,0.5810203598,17400,2018-06-20 21:47:24,15,0,23.78,3872.19627122,116.797904,0.4921268,0.86591538204,0,0,-0.671082,22.3, 3.2, -0.8,0,0,1024,1024,1024,1024,21.6,-89.9,98,3.965,3.958,3.932,3.961,3.998,3.972,21.065,80.6,14,Waypoint,
38.5569471,-120.5321392,3873.18052322,117.782156,0.3131716,0.55302495208,17500,2018-06-20 21:47:24,15,0,23.78,3873.18052322,117.782156,0.4921268,0.86591538204,0,0,-0.671082,22.3, 3, -0.8,0,0,1024,1024,1024,1024,21.6,-89.9,98,3.965,3.958,3.932,3.961,3.998,3.972,21.065,80.6,14,Waypoint,
38.556947,-120.5321392,3874.16477522,118.766408,0.3131716,0.56138781324,17600,2018-06-20 21:47:24,15,0,23.78,3874.16477522,118.766408,0.4921268,0.86591538204,0,0,-0.671082,22.4, 2.7, -1,0,0,1024,1024,1024,1024,21.6,-90,98,3.965,3.958,3.932,3.961,3.998,3.972,21.065,80.6,14,Waypoint,
38.556947,-120.5321393,3875.14902722,119.75066,0.3131716,0.53388781236,17700,2018-06-20 21:47:24,15,0,23.78,3875.14902722,119.75066,0.4921268,0.86591538204,0,0,-0.671082,22.4, 2.5, -1.3,0,0,1024,1024,1024,1024,21.6,-89.9,98,3.965,3.958,3.932,3.961,3.998,3.972,21.065,80.6,14,Waypoint,
38.556947,-120.5321394,3877.44561522,122.047248,0.3131716,0.50650592172,17900,2018-06-20 21:47:24,15,0,23.78,3877.44561522,122.047248,0.4921268,0.86591538204,0,0,-0.671082,22.4, 2.4, -1.6,0,0,1024,1024,1024,1024,21.6,-90,98,3.965,3.958,3.932,3.961,3.998,3.972,21.065,80.6,14,Waypoint,
38.556947,-120.5321394,3878.42986722,123.0315,0.3131716,0.50650592172,18000,2018-06-20 21:47:24,15,0,23.794,3878.42986722,123.0315,0.4921268,0.86591538204,0,0,-0.671082,22.4, 2.5, -1.6,0,0,1024,1024,1024,1024,21.6,-89.9,98,3.974,3.956,3.935,3.959,3.996,3.969,20.095,80.6,14,Waypoint,
38.5569469,-120.5321395,3879.41411922,124.015752,0.3131716,0.49159450392,18100,2018-06-20 21:47:24,15,0,23.794,3879.41411922,124.015752,0.4921268,0.86591538204,0,0,-0.671082,22.3, 2.4, -1.5,0,0,1024,1024,1024,1024,21.6,-89.9,98,3.974,3.956,3.935,3.959,3.996,3.969,20.095,80.6,14,Waypoint,
38.5569469,-120.5321396,3880.39837122,125.000004,0.3131716,0.46521983116,18200,2018-06-20 21:47:24,15,0,23.794,3880.39837122,125.000004,0.4921268,0.86591538204,0,0,-0.671082,22.4, 2.5, -1.3,0,0,1024,1024,1024,1024,21.6,-89.9,98,3.974,3.956,3.935,3.959,3.996,3.969,20.095,80.6,14,Waypoint,
38.5569469,-120.5321397,3881.38262322,125.984256,0.3131716,0.43911746812,18300,2018-06-20 21:47:24,15,0,23.794,3881.38262322,125.984256,0.4921268,0.86591538204,0,0,-0.671082,22.4, 2.5, -0.9,0,0,1024,1024,1024,1024,21.6,-89.9,98,3.974,3.956,3.935,3.959,3.996,3.969,20.095,80.6,14,Waypoint,
38.5569468,-120.5321398,3883.35112722,127.95276,0.3131716,0.43068242848,18500,2018-06-20 21:47:25,15,0,23.794,3883.35112722,127.95276,0.4921268,0.86591538204,0,0,-0.671082,22.5, 2.4, -0.5,0,0,1024,1024,1024,1024,21.6,-89.9,98,3.974,3.956,3.935,3.959,3.996,3.969,20.095,80.6,14,Waypoint,
38.5569468,-120.5321399,3884.33537922,128.937012,0.3131716,0.40637140408,18600,2018-06-20 21:47:25,15,0,23.794,3884.33537922,128.937012,0.4921268,0.86591538204,0,0,-0.671082,22.6, 2.5, -0.7,0,0,1024,1024,1024,1024,21.6,-89.9,98,3.974,3.956,3.935,3.959,3.996,3.969,20.095,80.6,14,Waypoint,
38.5569467,-120.53214,3885.31963122,129.921264,0.3131716,0.4046259972,18700,2018-06-20 21:47:25,15,0,23.794,3885.31963122,129.921264,0.4921268,0.86591538204,0,0,-0.671082,22.6, 2.3, -0.7,0,0,1024,1024,1024,1024,21.6,-90,98,3.974,3.956,3.935,3.959,3.996,3.969,20.095,80.6,14,Waypoint,
38.5569467,-120.53214,3886.30388322,130.905516,0.3131716,0.4046259972,18800,2018-06-20 21:47:25,15,0,23.794,3886.30388322,130.905516,0.4921268,0.86591538204,0,0,-0.671082,22.5, 1.9, -0.7,0,0,1024,1024,1024,1024,21.6,-90,98,3.974,3.956,3.935,3.959,3.996,3.969,20.095,80.6,14,Waypoint,
38.5569466,-120.5321401,3887.28813522,131.889768,0.3131716,0.40815946188,18900,2018-06-20 21:47:25,15,0,23.794,3887.28813522,131.889768,0.4921268,0.86591538204,0,0,-0.671082,22.5, 1.7, -0.7,0,0,1024,1024,1024,1024,21.6,-90,98,3.974,3.956,3.935,3.959,3.996,3.969,20.095,80.6,14,Waypoint,
38.5569464,-120.5321402,3889.25663922,133.858272,0.3131716,0.44614830824,19100,2018-06-20 21:47:25,15,0,23.794,3889.25663922,133.858272,0.4921268,0.86591538204,0,0,-0.671082,22.3, 1.1, -0.3,0,0,1024,1024,1024,1024,21.6,-90,98,3.974,3.956,3.935,3.959,3.996,3.969,20.095,80.6,14,Waypoint,
38.5569462,-120.5321403,3891.55322722,136.15486,0.223694,0.49374345412,19300,2018-06-20 21:47:25,15,0,23.794,3891.55322722,136.15486,0.4921268,0.86591538204,0,0,-0.671082,22.5, 0.6, -1.2,0,0,1024,1024,1024,1024,21.6,-89.9,98,3.974,3.956,3.935,3.959,3.996,3.969,20.095,80.6,14,Waypoint,
38.556946,-120.5321403,3892.53747922,137.139112,0.223694,0.559465241,19400,2018-06-20 21:47:26,15,0,23.794,3892.53747922,137.139112,0.4921268,0.86591538204,0,0,-0.671082,22.6, 0.4, -1.4,0,0,1024,1024,1024,1024,21.6,-89.9,98,3.974,3.956,3.935,3.959,3.996,3.969,20.095,80.6,14,Waypoint,
38.5569459,-120.5321403,3893.52173122,138.123364,0,0.5929626174,19500,2018-06-20 21:47:26,15,0,23.794,3893.52173122,138.123364,0.4921268,0.86591538204,0,0,-0.671082,22.7, 0.3, -1.6,0,0,1024,1024,1024,1024,21.6,-89.9,98,3.974,3.956,3.935,3.959,3.996,3.969,20.095,80.6,14,Waypoint,
38.5569458,-120.5321403,3894.50598322,139.107616,0.223694,0.62679463948,19600,2018-06-20 21:47:26,15,0,23.794,3894.50598322,139.107616,0.4921268,0.86591538204,0,0,-0.671082,22.9, 0.1, -1.8,0,0,1024,1024,1024,1024,21.6,-89.9,98,3.974,3.956,3.935,3.959,3.996,3.969,20.095,80.6,14,Waypoint,
38.5569457,-120.5321403,3895.49023522,140.091868,0.223694,0.6609088138,19700,2018-06-20 21:47:26,15,0,23.794,3895.49023522,140.091868,0.4921268,0.86591538204,0,0,-0.671082,23, 0, -1.9,0,0,1024,1024,1024,1024,21.6,-89.9,98,3.974,3.956,3.935,3.959,3.996,3.969,20.095,80.6,14,Waypoint,
38.5569456,-120.5321403,3896.47448722,141.07612,0.223694,0.69526248944,19800,2018-06-20 21:47:26,15,0,23.794,3896.47448722,141.07612,0.4921268,0.86591538204,0,0,-0.671082,23, 0, -1.9,0,0,1024,1024,1024,1024,21.6,-89.9,98,3.974,3.956,3.935,3.959,3.996,3.969,20.095,80.6,14,Waypoint,
38.5569455,-120.5321403,3897.45873922,142.060372,0.223694,0.729822858,19900,2018-06-20 21:47:26,15,0,23.794,3897.45873922,142.060372,0.4921268,0.86591538204,0,0,-0.671082,22.9, 0, -2.2,0,0,1024,1024,1024,1024,21.6,-89.9,98,3.974,3.956,3.935,3.959,3.996,3.969,20.095,80.6,14,Waypoint,
38.5569454,-120.5321403,3898.44299122,143.044624,0.223694,0.76456367276,20000,2018-06-20 21:47:26,15,0,23.808,3898.44299122,143.044624,0.4921268,0.86591538204,0,0,-0.671082,22.7, 0.2, -2,0,0,1024,1024,1024,1024,21.6,-89.9,98,3.965,3.953,3.947,3.966,4.004,3.981,19.444,82.4,14,Waypoint,
38.5569454,-120.5321403,3899.42724322,144.028876,0.223694,0.76456367276,20100,2018-06-20 21:47:26,15,0,23.808,3899.42724322,144.028876,0.4921268,0.86591538204,0,0,-0.671082,22.6, 0.3, -1.6,0,0,1024,1024,1024,1024,21.6,-89.9,98,3.965,3.953,3.947,3.966,4.004,3.981,19.444,82.4,14,Waypoint,
38.5569453,-120.5321402,3900.41149522,145.013128,0.223694,0.80806761116,20200,2018-06-20 21:47:26,15,0,23.808,3900.41149522,145.013128,0.4921268,0.86591538204,0,0,-0.671082,22.3, 0.4, -1.4,0,0,1024,1024,1024,1024,21.6,-89.9,98,3.965,3.953,3.947,3.966,4.004,3.981,19.444,82.4,14,Waypoint,
38.5569452,-120.53214,3901.39574722,145.99738,0.223694,0.8618438596,20300,2018-06-20 21:47:26,15,0,23.808,3901.39574722,145.99738,0.4921268,0.86591538204,0,0,-0.671082,22.1, 0.7, -2.1,0,0,1024,1024,1024,1024,21.6,-89.9,98,3.965,3.953,3.947,3.966,4.004,3.981,19.444,82.4,14,Waypoint,
38.5569451,-120.5321399,3902.37999922,146.981632,0.223694,0.90630908412,20400,2018-06-20 21:47:27,15,0,23.808,3902.37999922,146.981632,0.4921268,0.90630908412,0,0,-0.671082,22, 1.1, -3.2,0,0,1024,1024,1024,1024,21.6,-89.9,98,3.965,3.953,3.947,3.966,4.004,3.981,19.444,82.4,14,Waypoint,
38.5569451,-120.5321397,3903.36425122,147.965884,0.223694,0.92936682764,20500,2018-06-20 21:47:27,15,0,23.808,3903.36425122,147.965884,0.4921268,0.92936682764,0,0,-0.671082,21.9, 1.4, -4.1,0,0,1024,1024,1024,1024,21.6,-89.9,98,3.965,3.953,3.947,3.966,4.004,3.981,19.444,82.4,14,Waypoint,
38.556945,-120.5321396,3904.34850322,148.950136,0.223694,0.97462601544,20600,2018-06-20 21:47:27,15,0,23.808,3904.34850322,148.950136,0.4921268,0.97462601544,0,0,-0.671082,22, 1.6, -4.5,0,0,1024,1024,1024,1024,21.6,-89.9,98,3.965,3.953,3.947,3.966,4.004,3.981,19.444,82.4,14,Waypoint,
38.556945,-120.5321394,3905.33275522,149.934388,0.223694,1.00099412652,20700,2018-06-20 21:47:27,15,0,23.808,3905.33275522,149.934388,0.4921268,1.00099412652,0,0,-0.671082,22.2, 1.4, -4.8,0,0,1024,1024,1024,1024,21.6,-89.9,98,3.965,3.953,3.947,3.966,4.004,3.981,19.444,82.4,14,Waypoint,
38.556945,-120.5321393,3905.98892322,150.590556,0.447388,1.01512798524,20800,2018-06-20 21:47:27,15,0,23.808,3905.98892322,150.590556,0.4921268,1.01512798524,0,0,-0.671082,22.4, 1.2, -4.7,0,0,1024,1024,1024,1024,21.6,-89.9,98,3.965,3.953,3.947,3.966,4.004,3.981,19.444,82.4,14,Waypoint,
38.5569449,-120.5321393,3906.97317522,151.574808,0.447388,1.04676184452,20900,2018-06-20 21:47:27,15,0,23.808,3906.97317522,151.574808,0.4921268,1.04676184452,0,0,-0.671082,22.5, 1.1, -4.1,0,0,1024,1024,1024,1024,21.6,-89.9,98,3.965,3.953,3.947,3.966,4.004,3.981,19.444,82.4,14,Waypoint,
38.5569449,-120.5321392,3907.95742722,152.55906,0.447388,1.06104990272,21000,2018-06-20 21:47:27,15,0,23.842,3907.95742722,152.55906,0.4921268,1.06104990272,0,0,-0.671082,22.6, 1.1, -3.3,0,0,1024,1024,1024,1024,21.6,-89.9,97,3.971,3.963,3.948,3.968,4.002,3.983,18.928,82.4,14,Waypoint,
38.5569449,-120.5321392,3908.94167922,153.543312,0.447388,1.06104990272,21100,2018-06-20 21:47:27,15,0,23.842,3908.94167922,153.543312,0.4921268,1.06104990272,0,0,-0.671082,22.7, 1.2, -3.2,0,0,1024,1024,1024,1024,21.6,-89.9,97,3.971,3.963,3.948,3.968,4.002,3.983,18.928,82.4,14,Waypoint,
38.5569449,-120.5321392,3909.59784722,154.19948,0.447388,1.06104990272,21200,2018-06-20 21:47:27,15,0,23.842,3909.59784722,154.19948,0.4921268,1.06104990272,0,0,-0.671082,22.7, 1.1, -3.1,0,0,1024,1024,1024,1024,21.6,-89.9,97,3.971,3.963,3.948,3.968,4.002,3.983,18.928,82.4,14,Waypoint,
38.5569449,-120.5321391,3910.58209922,155.183732,0.447388,1.07590554624,21300,2018-06-20 21:47:27,15,0,23.842,3910.58209922,155.183732,0.4921268,1.07590554624,0,0,-0.671082,22.6, 1.1, -3.3,0,0,1024,1024,1024,1024,21.6,-89.9,97,3.971,3.963,3.948,3.968,4.002,3.983,18.928,82.4,14,Waypoint,
38.5569449,-120.532139,3911.56635122,156.167984,0.447388,1.0913058092,21400,2018-06-20 21:47:28,15,0,23.842,3911.56635122,156.167984,0.4921268,1.0913058092,0,0,-0.671082,22.5, 1.3, -3.4,0,0,1024,1024,1024,1024,21.6,-89.9,97,3.971,3.963,3.948,3.968,4.002,3.983,18.928,82.4,14,Waypoint,
38.5569449,-120.5321389,3912.22251922,156.824152,0.447388,1.10722444488,21500,2018-06-20 21:47:28,15,0,23.842,3912.22251922,156.824152,0.4921268,1.10722444488,0,0,-0.671082,22.5, 1.4, -3.6,0,0,1024,1024,1024,1024,21.6,-89.9,97,3.971,3.963,3.948,3.968,4.002,3.983,18.928,82.4,14,Waypoint,
38.556945,-120.5321388,3914.19102322,158.792656,0.447388,1.09423559932,21600,2018-06-20 21:47:28,15,0,23.842,3914.19102322,158.792656,0.4921268,1.10722444488,0,0,-0.671082,22.5, 1.7, -3.6,0,0,1024,1024,1024,1024,21.6,-89.9,97,3.971,3.963,3.948,3.968,4.002,3.983,18.928,82.4,14,Waypoint,
38.556945,-120.5321388,3915.17527522,159.776908,0.447388,1.09423559932,21700,2018-06-20 21:47:28,15,0,23.842,3915.17527522,159.776908,0.4921268,1.10722444488,0,0,-0.671082,22.5, 1.8, -3.5,0,0,1024,1024,1024,1024,21.6,-89.9,97,3.971,3.963,3.948,3.968,4.002,3.983,18.928,82.4,14,Waypoint,
38.556945,-120.5321387,3915.83144322,160.433076,0.4921268,1.1115814004,21900,2018-06-20 21:47:28,15,0,23.842,3915.83144322,160.433076,0.4921268,1.1115814004,0,0,-0.671082,22.5, 1.8, -3.3,0,0,1024,1024,1024,1024,21.6,-89.9,97,3.971,3.963,3.948,3.968,4.002,3.983,18.928,82.4,14,Waypoint,
38.5569451,-120.5321387,3916.81569522,161.417328,0.4921268,1.08307418164,22000,2018-06-20 21:47:28,15,0,23.805,3916.81569522,161.417328,0.4921268,1.1115814004,0,0,-0.671082,22.5, 1.6, -2.8,0,0,1024,1024,1024,1024,21.6,-89.9,97,3.971,3.963,3.948,3.968,4.002,3.983,19.824,82.4,14,Waypoint,
38.5569451,-120.5321387,3917.79994722,162.40158,0.4921268,1.08307418164,22100,2018-06-20 21:47:28,15,0,23.805,3917.79994722,162.40158,0.4921268,1.1115814004,0,0,-0.671082,22.5, 1.5, -2.8,0,0,1024,1024,1024,1024,21.6,-89.9,97,3.971,3.963,3.948,3.968,4.002,3.983,19.824,82.4,14,Waypoint,
38.5569451,-120.5321388,3918.78419922,163.385832,0.4921268,1.06526578212,22200,2018-06-20 21:47:28,15,0,23.805,3918.78419922,163.385832,0.4921268,1.1115814004,0,0,-0.671082,22.6, 1.2, -2.7,0,0,1024,1024,1024,1024,21.6,-90,97,3.971,3.963,3.948,3.968,4.002,3.983,19.824,82.4,14,Waypoint,
38.5569452,-120.5321388,3919.76845122,164.370084,0.4921268,1.03676840588,22300,2018-06-20 21:47:28,15,0,23.805,3919.76845122,164.370084,0.4921268,1.1115814004,0,0,-0.671082,22.7, 1.2, -2.7,0,0,1024,1024,1024,1024,21.6,-89.9,97,3.971,3.963,3.948,3.968,4.002,3.983,19.824,82.4,14,Waypoint,
38.5569452,-120.5321388,3920.75270322,165.354336,0.4921268,1.03676840588,22400,2018-06-20 21:47:29,15,0,23.805,3920.75270322,165.354336,0.4921268,1.1115814004,0,0,-0.671082,22.6, 1.7, -2.6,0,0,1024,1024,1024,1024,21.6,-89.9,97,3.971,3.963,3.948,3.968,4.002,3.983,19.824,82.4,14,Waypoint,
38.5569453,-120.5321388,3921.73695522,166.338588,0.4921268,1.00878612152,22500,2018-06-20 21:47:29,15,0,23.805,3921.73695522,166.338588,0.4921268,1.1115814004,0,0,-0.671082,22.4, 1.9, -2.1,0,0,1024,1024,1024,1024,21.6,-89.9,97,3.971,3.963,3.948,3.968,4.002,3.983,19.824,82.4,14,Waypoint,
38.5569453,-120.5321388,3922.72120722,167.32284,0.4921268,1.00878612152,22600,2018-06-20 21:47:29,15,0,23.805,3922.72120722,167.32284,0.4921268,1.1115814004,0,0,-0.671082,22.3, 1.7, -2,0,0,1024,1024,1024,1024,21.6,-89.9,97,3.971,3.963,3.948,3.968,4.002,3.983,19.824,82.4,14,Waypoint,
38.5569453,-120.5321388,3923.70545922,168.307092,0.447388,1.00878612152,22700,2018-06-20 21:47:29,15,0,23.805,3923.70545922,168.307092,0.4921268,1.1115814004,0,0,-0.671082,22.3, 1.7, -2.3,0,0,1024,1024,1024,1024,21.6,-89.9,97,3.971,3.963,3.948,3.968,4.002,3.983,19.824,82.4,14,Waypoint,
38.5569453,-120.5321387,3925.67396322,170.275596,0.223694,1.02757221136,22900,2018-06-20 21:47:29,15,0,23.805,3925.67396322,170.275596,0.4921268,1.1115814004,0,0,-0.671082,22.3, 1.7, -3.3,0,0,1024,1024,1024,1024,21.6,-89.9,97,3.971,3.963,3.948,3.968,4.002,3.983,19.824,82.4,14,Waypoint,
38.5569453,-120.5321387,3926.65821522,171.259848,0.223694,1.02757221136,23000,2018-06-20 21:47:29,15,0,23.805,3926.65821522,171.259848,0.4921268,1.1115814004,0,0,-0.671082,22.4, 1.5, -3.7,0,0,1024,1024,1024,1024,21.6,-89.9,97,3.969,3.957,3.934,3.948,3.989,3.969,19.824,82.4,14,Waypoint,
38.5569453,-120.5321386,3927.64246722,172.2441,0.447388,1.0468012146,23100,2018-06-20 21:47:29,15,0,23.805,3927.64246722,172.2441,0.4921268,1.1115814004,0,0,-0.671082,22.5, 1.4, -3.7,0,0,1024,1024,1024,1024,21.6,-89.9,97,3.969,3.957,3.934,3.948,3.989,3.969,19.824,82.4,14,Waypoint,
38.5569453,-120.5321386,3928.62671922,173.228352,0.447388,1.0468012146,23200,2018-06-20 21:47:29,15,0,23.805,3928.62671922,173.228352,0.4921268,1.1115814004,0,0,-0.671082,22.5, 1.4, -3.6,0,0,1024,1024,1024,1024,21.6,-89.9,97,3.969,3.957,3.934,3.948,3.989,3.969,19.824,82.4,14,Waypoint,
38.5569453,-120.5321386,3929.61097122,174.212604,0.447388,1.0468012146,23300,2018-06-20 21:47:29,15,0,23.805,3929.61097122,174.212604,0.4921268,1.1115814004,0,0,-0.671082,22.5, 1.6, -3.7,0,0,1024,1024,1024,1024,21.6,-89.9,97,3.969,3.957,3.934,3.948,3.989,3.969,19.824,82.4,14,Waypoint,
38.5569453,-120.5321385,3930.59522322,175.196856,0.447388,1.06644688452,23400,2018-06-20 21:47:30,15,0,23.805,3930.59522322,175.196856,0.4921268,1.1115814004,0,0,-0.671082,22.6, 1.5, -3.6,0,0,1024,1024,1024,1024,21.6,-90,97,3.969,3.957,3.934,3.948,3.989,3.969,19.824,82.4,14,Waypoint,
38.5569453,-120.5321386,3931.57947522,176.181108,0.447388,1.0468012146,23500,2018-06-20 21:47:30,15,0,23.805,3931.57947522,176.181108,0.4921268,1.1115814004,0,0,-0.671082,22.7, 1.4, -3.7,0,0,1024,1024,1024,1024,21.6,-89.9,97,3.969,3.957,3.934,3.948,3.989,3.969,19.824,82.4,14,Waypoint,
38.5569453,-120.5321386,3932.56372722,177.16536,0.4921268,1.0468012146,23600,2018-06-20 21:47:30,15,0,23.805,3932.56372722,177.16536,0.4921268,1.1115814004,0,0,-0.671082,22.9, 1.4, -3.7,0,0,1024,1024,1024,1024,21.6,-89.9,97,3.969,3.957,3.934,3.948,3.989,3.969,19.824,82.4,14,Waypoint,
38.5569453,-120.5321387,3933.54797922,178.149612,0.4921268,1.02757221136,23700,2018-06-20 21:47:30,15,0,23.805,3933.54797922,178.149612,0.4921268,1.1115814004,0,0,-0.671082,22.9, 1.4, -3.5,0,0,1024,1024,1024,1024,21.6,-90,97,3.969,3.957,3.934,3.948,3.989,3.969,19.824,82.4,14,Waypoint,
38.5569454,-120.5321388,3935.51648322,180.118116,0.4921268,0.98136157996,23800,2018-06-20 21:47:30,15,0,23.805,3935.51648322,180.118116,0.4921268,1.1115814004,0,0,-0.671082,22.8, 1.1, -3.2,0,0,1024,1024,1024,1024,21.6,-89.9,97,3.969,3.957,3.934,3.948,3.989,3.969,19.824,82.4,14,Waypoint,
38.5569454,-120.5321388,3936.50073522,181.102368,0.4921268,0.98136157996,24000,2018-06-20 21:47:30,15,0,23.587,3936.50073522,181.102368,0.4921268,1.1115814004,0,0,-0.671082,22.8, 1.1, -3.1,0,0,1024,1024,1024,1024,21.6,-89.9,97,3.941,3.924,3.898,3.923,3.953,3.932,21.821,82.4,14,Waypoint,
38.5569454,-120.5321389,3937.48498722,182.08662,0.4921268,0.962516435,24100,2018-06-20 21:47:30,15,0,23.587,3937.48498722,182.08662,0.4921268,1.1115814004,0,0,-0.671082,22.7, 1.1, -2.8,0,0,1024,1024,1024,1024,21.6,-89.9,97,3.941,3.924,3.898,3.923,3.953,3.932,21.821,82.4,14,Waypoint,
38.5569454,-120.5321389,3938.79732322,183.398956,0.4921268,0.962516435,24200,2018-06-20 21:47:30,15,0,23.587,3938.79732322,183.398956,0.4921268,1.1115814004,0,0,-0.671082,22.7, 1.2, -2.8,0,0,1024,1024,1024,1024,21.6,-89.9,97,3.941,3.924,3.898,3.923,3.953,3.932,21.821,82.4,14,Waypoint,
38.5569454,-120.532139,3939.78157522,184.383208,0.4921268,0.9441601352,24300,2018-06-20 21:47:30,15,0,23.587,3939.78157522,184.383208,0.4921268,1.1115814004,0,0,-0.671082,22.7, 1.2, -2.8,0,0,1024,1024,1024,1024,21.6,-89.9,97,3.941,3.924,3.898,3.923,3.953,3.932,21.821,82.4,14,Waypoint,
38.5569454,-120.532139,3940.76582722,185.36746,0.3131716,0.9441601352,24400,2018-06-20 21:47:31,15,0,23.587,3940.76582722,185.36746,0.4921268,1.1115814004,0,0,-0.671082,22.7, 1, -2.9,0,0,1024,1024,1024,1024,21.6,-89.9,97,3.941,3.924,3.898,3.923,3.953,3.932,21.821,82.4,14,Waypoint,
38.5569454,-120.5321391,3942.73433122,187.335964,0.3131716,0.92631564644,24600,2018-06-20 21:47:31,15,0,23.587,3942.73433122,187.335964,0.4921268,1.1115814004,0,0,-0.671082,22.7, 0.8, -2.9,0,0,1024,1024,1024,1024,21.6,-90,97,3.941,3.924,3.898,3.923,3.953,3.932,21.821,82.4,14,Waypoint,
38.5569454,-120.5321391,3943.71858322,188.320216,0.3131716,0.92631564644,24700,2018-06-20 21:47:31,15,0,23.587,3943.71858322,188.320216,0.4921268,1.1115814004,0,0,-0.671082,22.8, 0.7, -2.9,0,0,1024,1024,1024,1024,21.6,-89.9,97,3.941,3.924,3.898,3.923,3.953,3.932,21.821,82.4,14,Waypoint,
38.5569454,-120.5321391,3944.70283522,189.304468,0.3131716,0.92631564644,24800,2018-06-20 21:47:31,15,0,23.587,3944.70283522,189.304468,0.4921268,1.1115814004,0,0,-0.671082,23, 0.7, -3.2,0,0,1024,1024,1024,1024,21.6,-89.9,97,3.941,3.924,3.898,3.923,3.953,3.932,21.821,82.4,14,Waypoint,
38.5569453,-120.5321392,3946.67133922,191.272972,0.3131716,0.93855974132,25000,2018-06-20 21:47:31,15,0,23.523,3946.67133922,191.272972,0.4921268,1.1115814004,0,0,-0.671082,23.1, 0.3, -2.6,0,0,1024,1024,1024,1024,21.6,-90,97,3.92,3.917,3.906,3.928,3.962,3.932,21.95,82.4,14,Waypoint,
38.5569453,-120.5321393,3947.65559122,192.257224,0.3131716,0.9223753576,25100,2018-06-20 21:47:31,15,0,23.523,3947.65559122,192.257224,0.4921268,1.1115814004,0,0,-0.671082,23, 0, -2.6,0,0,1024,1024,1024,1024,21.6,-90,97,3.92,3.917,3.906,3.928,3.962,3.932,21.95,82.4,14,Waypoint,
38.5569453,-120.5321393,3948.31175922,192.913392,0.4921268,0.9223753576,25200,2018-06-20 21:47:31,15,0,23.523,3948.31175922,192.913392,0.4921268,1.1115814004,0,0,-0.671082,22.7, 0, -2.4,0,0,1024,1024,1024,1024,21.6,-89.9,97,3.92,3.917,3.906,3.928,3.962,3.932,21.95,82.4,14,Waypoint,
38.5569453,-120.5321394,3949.29601122,193.897644,0.4921268,0.90680121012,25300,2018-06-20 21:47:31,15,0,23.523,3949.29601122,193.897644,0.4921268,1.1115814004,0,0,-0.671082,22.4, 0.1, -2.2,0,0,1024,1024,1024,1024,21.6,-89.9,97,3.92,3.917,3.906,3.928,3.962,3.932,21.95,82.4,14,Waypoint,
38.5569453,-120.5321394,3950.60834722,195.20998,0.4921268,0.90680121012,25400,2018-06-20 21:47:32,15,0,23.523,3950.60834722,195.20998,0.4921268,1.1115814004,0,0,-0.671082,22.2, 0.4, -1.9,0,0,1024,1024,1024,1024,21.6,-89.9,97,3.92,3.917,3.906,3.928,3.962,3.932,21.95,82.4,14,Waypoint,
38.5569454,-120.5321394,3951.59259922,196.194232,0.4921268,0.87619097292,25500,2018-06-20 21:47:32,15,0,23.523,3951.59259922,196.194232,0.4921268,1.1115814004,0,0,-0.671082,22, 0.7, -2.2,0,0,1024,1024,1024,1024,21.6,-89.9,97,3.92,3.917,3.906,3.928,3.962,3.932,21.95,82.4,14,Waypoint,
38.5569454,-120.5321395,3952.57685122,197.178484,0.4921268,0.86072509316,25600,2018-06-20 21:47:32,15,0,23.523,3952.57685122,197.178484,0.4921268,1.1115814004,0,0,-0.671082,22, 0.9, -2.7,0,0,1024,1024,1024,1024,21.6,-89.9,97,3.92,3.917,3.906,3.928,3.962,3.932,21.95,82.4,14,Waypoint,
38.5569454,-120.5321395,3953.56110322,198.162736,0.4921268,0.86072509316,25700,2018-06-20 21:47:32,15,0,23.523,3953.56110322,198.162736,0.4921268,1.1115814004,0,0,-0.671082,22.2, 0.7, -2.6,0,0,1024,1024,1024,1024,21.6,-89.9,97,3.92,3.917,3.906,3.928,3.962,3.932,21.95,82.4,14,Waypoint,
38.5569454,-120.5321395,3954.54535522,199.146988,0.3131716,0.86072509316,25800,2018-06-20 21:47:32,15,0,23.523,3954.54535522,199.146988,0.4921268,1.1115814004,0,0,-0.671082,22.3, 0.8, -2.5,0,0,1024,1024,1024,1024,21.6,-90,97,3.92,3.917,3.906,3.928,3.962,3.932,21.95,82.4,14,Waypoint,
38.5569453,-120.5321396,3956.51385922,201.115492,0.3131716,0.87760501496,26000,2018-06-20 21:47:32,15,0,23.561,3956.51385922,201.115492,0.4921268,1.1115814004,0,0,-0.671082,22.6, 0.5, -2.7,0,0,1024,1024,1024,1024,21.6,-90,97,3.928,3.926,3.897,3.916,3.968,3.927,21.449,82.4,14,Waypoint,
38.5569452,-120.5321395,3958.48236322,203.083996,0.223694,0.92339897968,26200,2018-06-20 21:47:32,15,0,23.561,3958.48236322,203.083996,0.4921268,1.1115814004,0,0,-0.671082,22.7, 0.3, -3.1,0,0,1024,1024,1024,1024,21.6,-90,97,3.928,3.926,3.897,3.916,3.968,3.927,21.449,82.4,14,Waypoint,
38.5569451,-120.5321394,3960.45086722,205.0525,0.223694,0.96923887616,26300,2018-06-20 21:47:32,15,0,23.561,3960.45086722,205.0525,0.4921268,1.1115814004,0,0,-0.671082,22.7, 0.2, -3.3,0,0,1024,1024,1024,1024,21.6,-90,97,3.928,3.926,3.897,3.916,3.968,3.927,21.449,82.4,14,Waypoint,
38.5569451,-120.5321394,3961.43511922,206.036752,0.223694,0.96923887616,26500,2018-06-20 21:47:33,15,0,23.561,3961.43511922,206.036752,0.4921268,1.1115814004,0,0,-0.671082,22.6, 0.1, -3.2,0,0,1024,1024,1024,1024,21.6,-90,97,3.928,3.926,3.897,3.916,3.968,3.927,21.449,82.4,14,Waypoint,
