latitude,longitude,altitude(feet),ascent(feet),speed(mph),distance(feet),time(millisecond),datetime(utc),satellites,gpslevel,voltage(v),max_altitude(feet),max_ascent(feet),max_speed(mph),max_distance(feet), xSpeed(mph), ySpeed(mph), zSpeed(mph), compass_heading(degrees), pitch(degrees), roll(degrees),isPhoto,isVideo,rc_elevator,rc_aileron,rc_throttle,rc_rudder,gimbal_heading(degrees),gimbal_pitch(degrees),battery_percent,voltageCell1,voltageCell2,voltageCell3,voltageCell4,voltageCell5,voltageCell6,current(A),battery_temperature(f),flycStateRaw,flycState,message
38.556847,-120.5320675,3753.8923527361,-0.656168,0,0,2810,2018-06-20 21:32:04,11,0,0,3753.8923527361,0,0,0,0,0,0,33.5, -0.5, -1.2,1,0,1024,1024,1024,1024,32.3,-90,100,4.109,4.115,4.109,4.123,4.125,4.117,0,82.4,11,AutoTakeoff,DJI_0174.jpg Starting Mission from Lat/Long: 38.55685/-120.53207 Camera: Zenmuse X3 - Overlap: 90/90 - Active Connection: No
38.5568471,-120.5320676,3753.8923527361,-0.656168,0.223694,0.046315946364,2900,2018-06-20 21:32:04,11,0,0,3753.8923527361,0,0.223694,0.046315946364,0,0,0,33.4, -0.6, -0.5,0,0,1024,1024,1024,1024,32.3,-89.9,100,4.109,4.115,4.109,4.123,4.125,4.117,0,82.4,11,AutoTakeoff,
38.5568474,-120.5320678,3754.2204367361,-0.328084,0.223694,0.169187669456,3100,2018-06-20 21:32:04,11,0,0,3754.2204367361,0,0.223694,0.169187669456,0,0,0,33.4, 0.1, 0,0,0,1024,1024,1024,1024,32.4,-89.9,100,4.109,4.115,4.109,4.123,4.125,4.117,0,82.4,11,AutoTakeoff,
38.5568476,-120.5320679,3754.2204367361,-0.328084,0.223694,0.24687172706,3200,2018-06-20 21:32:04,10,0,0,3754.2204367361,0,0.223694,0.24687172706,0,0,0,33.4, 0.3, 0.5,0,0,1024,1024,1024,1024,32.4,-89.9,100,4.109,4.115,4.109,4.123,4.125,4.117,0,82.4,11,AutoTakeoff,
38.5568478,-120.5320681,3754.5485207361,0,0.3131716,0.33837599508,3300,2018-06-20 21:32:04,10,0,0,3754.5485207361,0,0.3131716,0.33837599508,0,0,0,33.4, 0.5, 1,0,0,1024,1024,1024,1024,32.4,-89.9,100,4.109,4.115,4.109,4.123,4.125,4.117,0,82.4,11,AutoTakeoff,
38.556848,-120.5320682,3754.5485207361,0,0.3131716,0.41593505268,3500,2018-06-20 21:32:04,11,0,0,3754.5485207361,0,0.3131716,0.41593505268,0,0,0,33.4, 0.8, 1.4,0,0,1024,1024,1024,1024,32.4,-89.9,100,4.109,4.115,4.109,4.123,4.125,4.117,0,82.4,11,AutoTakeoff,
38.5568481,-120.5320684,3754.5485207361,0,0.223694,0.47645014648,3600,2018-06-20 21:32:04,11,0,0,3754.5485207361,0,0.3131716,0.47645014648,0,0,0,33.4, 1, 1.6,0,0,1024,1024,1024,1024,32.4,-89.9,100,4.109,4.115,4.109,4.123,4.125,4.117,0,82.4,11,AutoTakeoff,
38.5568483,-120.5320685,3754.5485207361,0,0.223694,0.55350395472,3700,2018-06-20 21:32:04,11,0,0,3754.5485207361,0,0.3131716,0.55350395472,0,0,0,33.4, 0.9, 1.6,0,0,1024,1024,1024,1024,32.4,-89.9,100,4.109,4.115,4.109,4.123,4.125,4.117,0,82.4,11,AutoTakeoff,
38.5568485,-120.5320686,3754.8766047361,0.328084,0.223694,0.63087600444,3800,2018-06-20 21:32:05,11,0,0,3754.8766047361,0.328084,0.3131716,0.63087600444,0,0,0,33.4, 0.8, 1.4,0,0,1024,1024,1024,1024,32.4,-89.9,100,4.109,4.115,4.109,4.123,4.125,4.117,0,82.4,11,AutoTakeoff,
38.5568488,-120.5320689,3755.2046887361,0.656168,0.223694,0.76866144192,3900,2018-06-20 21:32:05,11,0,0,3755.2046887361,0.656168,0.3131716,0.76866144192,0,0,0,33.5, 0.6, 1.5,0,0,1024,1024,1024,1024,32.4,-89.9,100,4.109,4.115,4.109,4.123,4.125,4.117,0,82.4,11,AutoTakeoff,
38.5568491,-120.5320691,3755.5327727361,0.984252,0.223694,0.89186682644,4100,2018-06-20 21:32:05,10,0,0,3755.5327727361,0.984252,0.3131716,0.89186682644,0,0,0,33.4, 0.6, 1.9,0,0,1024,1024,1024,1024,32.4,-89.9,100,4.109,4.115,4.109,4.123,4.125,4.117,0,82.4,11,AutoTakeoff,
38.5568493,-120.5320692,3755.5327727361,0.984252,0.223694,0.969242157,4200,2018-06-20 21:32:05,10,0,0,3755.5327727361,0.984252,0.3131716,0.969242157,0,0,0,33.4, 0.8, 2,0,0,1024,1024,1024,1024,32.4,-89.9,100,4.109,4.115,4.109,4.123,4.125,4.117,0,82.4,11,AutoTakeoff,
38.5568494,-120.5320693,3755.8608567361,1.312336,0.223694,1.01512798524,4300,2018-06-20 21:32:05,10,0,0,3755.8608567361,1.312336,0.3131716,1.01512798524,0,0,0,33.4, 0.9, 1.7,0,0,1024,1024,1024,1024,32.4,-89.9,100,4.109,4.115,4.109,4.123,4.125,4.117,0,82.4,11,AutoTakeoff,
38.5568495,-120.5320693,3755.8608567361,1.312336,0.223694,1.04676184452,4400,2018-06-20 21:32:05,11,0,0,3755.8608567361,1.312336,0.3131716,1.04676184452,0,0,0,33.7, 0.8, 1.4,0,0,1024,1024,1024,1024,32.4,-89.9,100,4.109,4.115,4.109,4.123,4.125,4.117,0,82.4,11,AutoTakeoff,
38.5568497,-120.5320695,3756.1889407361,1.64042,0.223694,1.13842523328,4500,2018-06-20 21:32:05,11,0,0,3756.1889407361,1.64042,0.3131716,1.13842523328,0,0,0,34, 0.7, 1.4,0,0,1024,1024,1024,1024,32.4,-89.9,100,4.109,4.115,4.109,4.123,4.125,4.117,0,82.4,11,AutoTakeoff,
38.5568499,-120.5320696,3756.1889407361,1.64042,0.223694,1.21592523576,4600,2018-06-20 21:32:05,11,0,0,3756.1889407361,1.64042,0.3131716,1.21592523576,0,0,0,34.2, 0.8, 1.7,0,0,1024,1024,1024,1024,32.4,-89.9,100,4.109,4.115,4.109,4.123,4.125,4.117,0,82.4,11,AutoTakeoff,
38.55685,-120.5320698,3756.5170247361,1.968504,0.223694,1.27618442404,4700,2018-06-20 21:32:05,11,0,0,3756.5170247361,1.968504,0.3131716,1.27618442404,0,0,0,34.2, 1, 2.2,0,0,1024,1024,1024,1024,32.4,-89.9,100,4.109,4.115,4.109,4.123,4.125,4.117,0,82.4,11,AutoTakeoff,
38.5568502,-120.5320699,3756.8451087361,2.296588,0.223694,1.35350069948,4800,2018-06-20 21:32:06,11,0,0,3756.8451087361,2.296588,0.3131716,1.35350069948,0,0,0,34.1, 1, 2.6,0,0,1024,1024,1024,1024,32.4,-89.9,100,4.109,4.115,4.109,4.123,4.125,4.117,0,82.4,11,AutoTakeoff,
38.5568502,-120.53207,3756.8451087361,2.296588,0,1.36815621176,4900,2018-06-20 21:32:06,11,0,0,3756.8451087361,2.296588,0.3131716,1.36815621176,0,0,0,33.9, 1.2, 2.8,0,0,1024,1024,1024,1024,32.4,-89.9,100,4.109,4.115,4.109,4.123,4.125,4.117,0,82.4,11,AutoTakeoff,
38.5568503,-120.53207,3756.8451087361,2.296588,0,1.39942261696,5000,2018-06-20 21:32:06,11,0,24.772,3756.8451087361,2.296588,0.3131716,1.39942261696,0,0,0,33.7, 1.1, 2.8,0,0,1024,1024,1024,1024,32.4,-89.9,100,4.109,4.115,4.109,4.123,4.125,4.117,15.416,82.4,11,AutoTakeoff,
38.5568505,-120.5320701,3757.1731927361,2.624672,0,1.47679794752,5100,2018-06-20 21:32:06,11,0,24.772,3757.1731927361,2.624672,0.3131716,1.47679794752,0,0,0,33.7, 1.2, 2.7,0,0,1024,1024,1024,1024,32.4,-89.9,100,4.109,4.115,4.109,4.123,4.125,4.117,15.416,82.4,11,AutoTakeoff,
38.5568506,-120.5320701,3757.1731927361,2.624672,0,1.50845805352,5200,2018-06-20 21:32:06,11,0,24.772,3757.1731927361,2.624672,0.3131716,1.50845805352,0,0,0,33.7, 1.4, 2.6,0,0,1024,1024,1024,1024,32.4,-89.9,100,4.109,4.115,4.109,4.123,4.125,4.117,15.416,82.4,11,AutoTakeoff,
38.5568506,-120.53207,3757.5012767361,2.952756,0,1.49463259376,5300,2018-06-20 21:32:06,11,0,24.772,3757.5012767361,2.952756,0.3131716,1.50845805352,0,0,0,33.8, 1.6, 2.2,0,0,1024,1024,1024,1024,32.4,-89.9,100,4.109,4.115,4.109,4.123,4.125,4.117,15.416,82.4,14,Waypoint,
38.5568506,-120.5320699,3757.5012767361,2.952756,0,1.48123036236,5400,2018-06-20 21:32:06,10,0,24.772,3757.5012767361,2.952756,0.3131716,1.50845805352,0,0,0,33.8, 1.9, 1.6,0,0,1024,1024,1024,1024,32.5,-89.9,100,4.109,4.115,4.109,4.123,4.125,4.117,15.416,82.4,14,Waypoint,
38.5568506,-120.5320698,3757.8293607361,3.28084,0,1.468257921,5500,2018-06-20 21:32:06,10,0,24.772,3757.8293607361,3.28084,0.3131716,1.50845805352,0,0,0,34, 1.7, 0.4,0,0,1024,1024,1024,1024,32.5,-89.9,100,4.109,4.115,4.109,4.123,4.125,4.117,15.416,82.4,14,Waypoint,
38.5568506,-120.5320698,3757.8293607361,3.28084,0,1.468257921,5700,2018-06-20 21:32:06,11,0,24.772,3757.8293607361,3.28084,0.3131716,1.50845805352,0,0,0,34.3, 1.5, -0.1,0,0,1024,1024,1024,1024,32.5,-89.9,100,4.109,4.115,4.109,4.123,4.125,4.117,15.416,82.4,14,Waypoint,
38.5568507,-120.5320698,3758.1574447361,3.608924,0,1.5009843,5800,2018-06-20 21:32:07,11,0,24.772,3758.1574447361,3.608924,0.3131716,1.50845805352,0,0,0,34.8, 1.4, 0.1,0,0,1024,1024,1024,1024,32.6,-90,100,4.109,4.115,4.109,4.123,4.125,4.117,15.416,82.4,14,Waypoint,
38.5568508,-120.5320699,3758.4855287361,3.937008,0,1.54630254292,5900,2018-06-20 21:32:07,11,0,24.772,3758.4855287361,3.937008,0.3131716,1.54630254292,0,0,-0.223694,35.7, 1.1, 1.3,0,0,1024,1024,1024,1024,32.8,-89.9,100,4.109,4.115,4.109,4.123,4.125,4.117,15.416,82.4,14,Waypoint,
38.5568509,-120.5320699,3758.8136127361,4.265092,0,1.57909781956,6100,2018-06-20 21:32:07,11,0,24.772,3758.8136127361,4.265092,0.3131716,1.57909781956,0,0,-0.223694,36.1, 1.1, 1.6,0,0,1024,1024,1024,1024,32.9,-89.9,100,4.109,4.115,4.109,4.123,4.125,4.117,15.416,82.4,14,Waypoint,
38.556851,-120.53207,3759.1416967361,4.593176,0,1.6243766924,6200,2018-06-20 21:32:07,11,0,24.772,3759.1416967361,4.593176,0.3131716,1.6243766924,0,0,-0.223694,36.3, 1.4, 1.6,0,0,1024,1024,1024,1024,33,-89.9,100,4.109,4.115,4.109,4.123,4.125,4.117,15.416,82.4,14,Waypoint,
38.556851,-120.53207,3759.4697807361,4.92126,0,1.6243766924,6300,2018-06-20 21:32:07,11,0,24.772,3759.4697807361,4.92126,0.3131716,1.6243766924,0,0,-0.223694,36.4, 1.6, 1.4,0,0,1024,1024,1024,1024,33.1,-89.9,100,4.109,4.115,4.109,4.123,4.125,4.117,15.416,82.4,14,Waypoint,
38.5568512,-120.5320699,3760.1259487361,5.577428,0,1.67839900384,6400,2018-06-20 21:32:07,11,0,24.772,3760.1259487361,5.577428,0.3131716,1.67839900384,0,0,-0.223694,35.8, 1.7, 0.1,0,0,1024,1024,1024,1024,33.2,-89.9,100,4.109,4.115,4.109,4.123,4.125,4.117,15.416,82.4,14,Waypoint,
38.5568513,-120.5320698,3760.4540327361,5.905512,0,1.70056107804,6500,2018-06-20 21:32:07,11,0,24.772,3760.4540327361,5.905512,0.3131716,1.70056107804,0,0,-0.447388,35.5, 1.9, 0,0,0,1024,1024,1024,1024,33.3,-89.9,100,4.109,4.115,4.109,4.123,4.125,4.117,15.416,82.4,14,Waypoint,
38.5568514,-120.5320698,3761.1102007361,6.56168,0,1.73427827072,6600,2018-06-20 21:32:07,11,0,24.772,3761.1102007361,6.56168,0.3131716,1.73427827072,0,0,-0.447388,35.2, 1.8, 0.1,0,0,1024,1024,1024,1024,33.4,-89.9,100,4.109,4.115,4.109,4.123,4.125,4.117,15.416,82.4,14,Waypoint,
38.5568515,-120.5320698,3761.7663687361,7.217848,0,1.76810373112,6700,2018-06-20 21:32:07,11,0,24.772,3761.7663687361,7.217848,0.3131716,1.76810373112,0,0,-0.447388,35.1, 1.9, 0.4,0,0,1024,1024,1024,1024,33.4,-89.9,100,4.109,4.115,4.109,4.123,4.125,4.117,15.416,82.4,14,Waypoint,
38.5568515,-120.5320698,3762.4225367361,7.874016,0,1.76810373112,6800,2018-06-20 21:32:08,11,0,24.772,3762.4225367361,7.874016,0.3131716,1.76810373112,0,0,-0.447388,35.1, 2, 0.6,0,0,1024,1024,1024,1024,33.5,-89.9,100,4.109,4.115,4.109,4.123,4.125,4.117,15.416,82.4,14,Waypoint,
38.5568516,-120.5320699,3763.4067887361,8.858268,0,1.81261816824,6900,2018-06-20 21:32:08,11,0,24.772,3763.4067887361,8.858268,0.3131716,1.81261816824,0,0,-0.671082,35.2, 1.8, 0.6,0,0,1024,1024,1024,1024,33.6,-90,100,4.109,4.115,4.109,4.123,4.125,4.117,15.416,82.4,14,Waypoint,
38.5568516,-120.53207,3764.3910407361,9.84252,0,1.82358601636,7000,2018-06-20 21:32:08,11,0,24.502,3764.3910407361,9.84252,0.3131716,1.82358601636,0,0,-0.671082,35.4, 1.3, 0.7,0,0,1024,1024,1024,1024,33.7,-90,100,4.061,4.081,4.037,4.074,4.054,4.084,17.33,82.4,14,Waypoint,
38.5568516,-120.5320701,3765.3752927361,10.826772,0,1.83493444192,7100,2018-06-20 21:32:08,11,0,24.502,3765.3752927361,10.826772,0.3131716,1.83493444192,0,0,-0.671082,35.6, 0.7, 0.6,0,0,1024,1024,1024,1024,33.7,-90,100,4.061,4.081,4.037,4.074,4.054,4.084,17.33,82.4,14,Waypoint,
38.5568516,-120.5320701,3766.3595447361,11.811024,0,1.83493444192,7200,2018-06-20 21:32:08,11,0,24.502,3766.3595447361,11.811024,0.3131716,1.83493444192,0,0,-0.671082,35.8, 0.4, 0.5,0,0,1024,1024,1024,1024,33.8,-90,100,4.061,4.081,4.037,4.074,4.054,4.084,17.33,82.4,14,Waypoint,
38.5568515,-120.5320699,3767.6718807361,13.12336,0,1.77889113304,7300,2018-06-20 21:32:08,11,0,24.502,3767.6718807361,13.12336,0.3131716,1.83493444192,0,0,-0.671082,35.9, 0.4, 0.2,0,0,1024,1024,1024,1024,33.8,-90,100,4.061,4.081,4.037,4.074,4.054,4.084,17.33,82.4,14,Waypoint,
38.5568513,-120.5320697,3768.6561327361,14.107612,0,1.68975727192,7400,2018-06-20 21:32:08,11,0,24.502,3768.6561327361,14.107612,0.3131716,1.83493444192,0,0,-0.671082,36, 0.6, -0.2,0,0,1024,1024,1024,1024,33.9,-90,100,4.061,4.081,4.037,4.074,4.054,4.084,17.33,82.4,14,Waypoint,
38.5568513,-120.5320695,3769.6403847361,15.091864,0,1.66940294056,7500,2018-06-20 21:32:08,11,0,24.502,3769.6403847361,15.091864,0.3131716,1.83493444192,0,0,-0.671082,36.1, 0.6, -0.4,0,0,1024,1024,1024,1024,33.9,-90,100,4.061,4.081,4.037,4.074,4.054,4.084,17.33,82.4,14,Waypoint,
38.5568513,-120.5320693,3770.6246367361,16.076116,0,1.65076776936,7600,2018-06-20 21:32:08,11,0,24.502,3770.6246367361,16.076116,0.3131716,1.83493444192,0,0,-0.671082,36.1, 0.8, -0.7,0,0,1024,1024,1024,1024,34,-90,100,4.061,4.081,4.037,4.074,4.054,4.084,17.33,82.4,14,Waypoint,
38.5568512,-120.5320694,3771.9369727361,17.388452,0,1.6254265612,7700,2018-06-20 21:32:08,11,0,24.502,3771.9369727361,17.388452,0.3131716,1.83493444192,0,0,-0.671082,36.1, 1, -0.8,0,0,1024,1024,1024,1024,34,-90,100,4.061,4.081,4.037,4.074,4.054,4.084,17.33,82.4,14,Waypoint,
38.5568511,-120.5320695,3772.9212247361,18.372704,0,1.60102039244,7800,2018-06-20 21:32:09,11,0,24.502,3772.9212247361,18.372704,0.3131716,1.83493444192,0,0,-0.671082,36.2, 0.9, -0.6,0,0,1024,1024,1024,1024,34.1,-90,100,4.061,4.081,4.037,4.074,4.054,4.084,17.33,82.4,14,Waypoint,
38.5568511,-120.5320695,3774.2335607361,19.68504,0,1.60102039244,7900,2018-06-20 21:32:09,11,0,24.502,3774.2335607361,19.68504,0.3131716,1.83493444192,0,0,-0.671082,36.2, 0.7, -0.3,0,0,1024,1024,1024,1024,34.1,-90,100,4.061,4.081,4.037,4.074,4.054,4.084,17.33,82.4,14,Waypoint,
38.5568511,-120.5320695,3775.2178127361,20.669292,0,1.60102039244,8100,2018-06-20 21:32:09,11,0,24.502,3775.2178127361,20.669292,0.3131716,1.83493444192,0,0,-0.671082,36.2, 1, 0,0,0,1024,1024,1024,1024,34.2,-89.9,100,4.061,4.081,4.037,4.074,4.054,4.084,17.33,82.4,14,Waypoint,
38.556851,-120.5320695,3777.5144007361,22.96588,0,1.56698495828,8200,2018-06-20 21:32:09,11,0,24.502,3777.5144007361,22.96588,0.3131716,1.83493444192,0,0,-0.671082,35.9, 1.2, 0,0,0,1024,1024,1024,1024,34.2,-89.9,100,4.061,4.081,4.037,4.074,4.054,4.084,17.33,82.4,14,Waypoint,
38.5568509,-120.5320695,3778.4986527361,23.950132,0,1.53306435352,8300,2018-06-20 21:32:09,11,0,24.502,3778.4986527361,23.950132,0.3131716,1.83493444192,0,0,-0.671082,35.8, 1, -0.2,0,0,1024,1024,1024,1024,34.3,-89.9,100,4.061,4.081,4.037,4.074,4.054,4.084,17.33,82.4,14,Waypoint,
38.5568508,-120.5320694,3779.4829047361,24.934384,0,1.48863521824,8400,2018-06-20 21:32:09,12,0,24.502,3779.4829047361,24.934384,0.3131716,1.83493444192,0,0,-0.671082,35.7, 0.6, -0.5,0,0,1024,1024,1024,1024,34.3,-90,100,4.061,4.081,4.037,4.074,4.054,4.084,17.33,82.4,14,Waypoint,
38.5568508,-120.5320694,3780.7952407361,26.24672,0,1.48863521824,8600,2018-06-20 21:32:09,12,0,24.502,3780.7952407361,26.24672,0.3131716,1.83493444192,0,0,-0.671082,35.7, 0.3, -0.6,0,0,1024,1024,1024,1024,34.4,-90,100,4.061,4.081,4.037,4.074,4.054,4.084,17.33,82.4,14,Waypoint,
38.5568507,-120.5320695,3781.7794927361,27.230972,0,1.46558731724,8700,2018-06-20 21:32:09,12,0,24.502,3781.7794927361,27.230972,0.3131716,1.83493444192,0,0,-0.671082,35.8, 0, -0.4,0,0,1024,1024,1024,1024,34.4,-90,100,4.061,4.081,4.037,4.074,4.054,4.084,17.33,82.4,14,Waypoint,
38.5568506,-120.5320696,3782.4356607361,27.88714,0,1.44365818268,8800,2018-06-20 21:32:10,12,0,24.502,3782.4356607361,27.88714,0.3131716,1.83493444192,0,0,-0.671082,35.9, 0, -0.7,0,0,1024,1024,1024,1024,34.4,-90,100,4.061,4.081,4.037,4.074,4.054,4.084,17.33,82.4,14,Waypoint,
38.5568506,-120.5320696,3783.7479967361,29.199476,0,1.44365818268,8900,2018-06-20 21:32:10,11,0,24.502,3783.7479967361,29.199476,0.3131716,1.83493444192,0,0,-0.671082,36.1, -0.1, -0.9,0,0,1024,1024,1024,1024,34.5,-89.9,100,4.061,4.081,4.037,4.074,4.054,4.084,17.33,82.4,14,Waypoint,
38.5568506,-120.5320697,3785.7165007361,31.16798,0,1.45573167388,9000,2018-06-20 21:32:10,11,0,23.976,3785.7165007361,31.16798,0.3131716,1.83493444192,0,0,-0.671082,36.4, 0.6, 0,0,0,1024,1024,1024,1024,34.5,-89.9,100,3.957,3.967,3.974,3.997,3.99,3.978,24.554,82.4,14,Waypoint,
38.5568507,-120.5320698,3786.7007527361,32.152232,0,1.5009843,9100,2018-06-20 21:32:10,11,0,23.976,3786.7007527361,32.152232,0.3131716,1.83493444192,0,0,-0.671082,36.4, 1.1, 0.4,0,0,1024,1024,1024,1024,34.5,-89.9,100,3.957,3.967,3.974,3.997,3.99,3.978,24.554,82.4,14,Waypoint,
38.5568507,-120.5320698,3787.6850047361,33.136484,0,1.5009843,9200,2018-06-20 21:32:10,11,0,23.976,3787.6850047361,33.136484,0.3131716,1.83493444192,0,0,-0.671082,36.3, 1.2, 0.7,0,0,1024,1024,1024,1024,34.5,-89.9,100,3.957,3.967,3.974,3.997,3.99,3.978,24.554,82.4,14,Waypoint,
38.5568507,-120.5320699,3788.6692567361,34.120736,0,1.51367458912,9300,2018-06-20 21:32:10,11,0,23.976,3788.6692567361,34.120736,0.3131716,1.83493444192,0,0,-0.671082,36.1, 1.2, 0.8,0,0,1024,1024,1024,1024,34.6,-89.9,100,3.957,3.967,3.974,3.997,3.99,3.978,24.554,82.4,14,Waypoint,
38.5568507,-120.53207,3789.6535087361,35.104988,0,1.52679466828,9400,2018-06-20 21:32:10,11,0,23.976,3789.6535087361,35.104988,0.3131716,1.83493444192,0,0,-0.671082,36, 1.1, 0.8,0,0,1024,1024,1024,1024,34.6,-89.9,100,3.957,3.967,3.974,3.997,3.99,3.978,24.554,82.4,14,Waypoint,
38.5568507,-120.5320703,3790.9658447361,36.417324,0,1.56860897408,9500,2018-06-20 21:32:10,11,0,23.976,3790.9658447361,36.417324,0.3131716,1.83493444192,0,0,-0.671082,36, 1.2, 1.1,0,0,1024,1024,1024,1024,34.6,-89.9,100,3.957,3.967,3.974,3.997,3.99,3.978,24.554,82.4,14,Waypoint,
38.5568508,-120.5320705,3791.9500967361,37.401576,0,1.62935372668,9600,2018-06-20 21:32:10,11,0,23.976,3791.9500967361,37.401576,0.3131716,1.83493444192,0,0,-0.671082,36.1, 1.1, 1.3,0,0,1024,1024,1024,1024,34.6,-89.9,100,3.957,3.967,3.974,3.997,3.99,3.978,24.554,82.4,14,Waypoint,
38.5568509,-120.5320705,3792.9343487361,38.385828,0,1.66050858332,9700,2018-06-20 21:32:10,11,0,23.976,3792.9343487361,38.385828,0.3131716,1.83493444192,0,0,-0.671082,36.1, 0.8, 1.4,0,0,1024,1024,1024,1024,34.7,-89.9,100,3.957,3.967,3.974,3.997,3.99,3.978,24.554,82.4,14,Waypoint,
38.5568509,-120.5320705,3795.2309367361,40.682416,0,1.66050858332,9900,2018-06-20 21:32:11,11,0,23.976,3795.2309367361,40.682416,0.3131716,1.83493444192,0,0,-0.671082,35.9, 0.4, 0.6,0,0,1024,1024,1024,1024,34.7,-90,100,3.957,3.967,3.974,3.997,3.99,3.978,24.554,82.4,14,Waypoint,
38.5568508,-120.5320706,3796.2151887361,41.666668,0,1.64452105,10000,2018-06-20 21:32:11,11,0,23.956,3796.2151887361,41.666668,0.3131716,1.83493444192,0,0,-0.671082,35.9, 0.1, 0.3,0,0,1024,1024,1024,1024,34.7,-90,100,3.996,4.014,3.993,4.018,4.013,4.007,21.262,82.4,14,Waypoint,
38.5568508,-120.5320706,3797.1994407361,42.65092,0,1.64452105,10100,2018-06-20 21:32:11,11,0,23.956,3797.1994407361,42.65092,0.3131716,1.83493444192,0,0,-0.671082,35.9, 0.2, 0.2,0,0,1024,1024,1024,1024,34.7,-90,100,3.996,4.014,3.993,4.018,4.013,4.007,21.262,82.4,14,Waypoint,
38.5568508,-120.5320706,3798.5117767361,43.963256,0,1.64452105,10200,2018-06-20 21:32:11,11,0,23.956,3798.5117767361,43.963256,0.3131716,1.83493444192,0,0,-0.671082,36, 0.1, 0.1,0,0,1024,1024,1024,1024,34.8,-90,100,3.996,4.014,3.993,4.018,4.013,4.007,21.262,82.4,14,Waypoint,
38.5568507,-120.5320706,3799.4960287361,44.947508,0,1.61388128524,10300,2018-06-20 21:32:11,11,0,23.956,3799.4960287361,44.947508,0.3131716,1.83493444192,0,0,-0.671082,36, 0.3, 0.1,0,0,1024,1024,1024,1024,34.8,-89.9,100,3.996,4.014,3.993,4.018,4.013,4.007,21.262,82.4,14,Waypoint,
38.5568507,-120.5320706,3800.4802807361,45.93176,0,1.61388128524,10400,2018-06-20 21:32:11,11,0,23.956,3800.4802807361,45.93176,0.3131716,1.83493444192,0,0,-0.671082,36, 0.3, 0,0,0,1024,1024,1024,1024,34.8,-90,100,3.996,4.014,3.993,4.018,4.013,4.007,21.262,82.4,14,Waypoint,
38.5568507,-120.5320705,3801.4645327361,46.916012,0,1.59842196716,10500,2018-06-20 21:32:11,11,0,23.956,3801.4645327361,46.916012,0.3131716,1.83493444192,0,0,-0.671082,36, 0.2, -0.1,0,0,1024,1024,1024,1024,34.8,-89.9,100,3.996,4.014,3.993,4.018,4.013,4.007,21.262,82.4,14,Waypoint,
38.5568506,-120.5320705,3802.4487847361,47.900264,0,1.56772970896,10610,2018-06-20 21:32:11,11,0,23.956,3802.4487847361,47.900264,0.3131716,1.83493444192,0,0,-0.671082,36, 0.1, -0.2,0,0,1024,1024,1024,1024,34.8,-90,100,3.996,4.014,3.993,4.018,4.013,4.007,21.262,82.4,14,Waypoint,
38.5568506,-120.5320705,3803.4330367361,48.884516,0,1.56772970896,10700,2018-06-20 21:32:11,11,0,23.956,3803.4330367361,48.884516,0.3131716,1.83493444192,0,0,-0.671082,36, 0.1, -0.1,0,0,1024,1024,1024,1024,34.9,-89.9,100,3.996,4.014,3.993,4.018,4.013,4.007,21.262,82.4,14,Waypoint,
38.5568507,-120.5320704,3805.4015407361,50.85302,0,1.58332682232,10900,2018-06-20 21:32:12,11,0,23.956,3805.4015407361,50.85302,0.3131716,1.83493444192,0,0,-0.671082,36.1, 0.4, 0,0,0,1024,1024,1024,1024,34.9,-89.9,100,3.996,4.014,3.993,4.018,4.013,4.007,21.262,82.4,14,Waypoint,
38.5568508,-120.5320705,3806.0577087361,51.509188,0,1.62935372668,11100,2018-06-20 21:32:12,11,0,23.956,3806.0577087361,51.509188,0.3131716,1.83493444192,0,0,-0.671082,36.1, 0.7, 0,0,0,1024,1024,1024,1024,34.9,-89.9,100,3.996,4.014,3.993,4.018,4.013,4.007,21.262,82.4,14,Waypoint,
38.5568509,-120.5320704,3807.0419607361,52.49344,0,1.64598430464,11200,2018-06-20 21:32:12,11,0,23.956,3807.0419607361,52.49344,0.3131716,1.83493444192,0,0,-0.671082,36.1, 0.9, 0.1,0,0,1024,1024,1024,1024,34.9,-89.9,100,3.996,4.014,3.993,4.018,4.013,4.007,21.262,82.4,14,Waypoint,
38.5568509,-120.5320703,3808.0262127361,53.477692,0,1.63182748004,11300,2018-06-20 21:32:12,11,0,23.956,3808.0262127361,53.477692,0.3131716,1.83493444192,0,0,-0.671082,36, 1.3, 0.1,0,0,1024,1024,1024,1024,34.9,-89.9,100,3.996,4.014,3.993,4.018,4.013,4.007,21.262,82.4,14,Waypoint,
38.5568509,-120.5320702,3809.9947167361,55.446196,0,1.61805123288,11400,2018-06-20 21:32:12,11,0,23.956,3809.9947167361,55.446196,0.3131716,1.83493444192,0,0,-0.671082,35.8, 1.5, 0.1,0,0,1024,1024,1024,1024,34.9,-89.9,100,3.996,4.014,3.993,4.018,4.013,4.007,21.262,82.4,14,Waypoint,
38.556851,-120.5320702,3810.9789687361,56.430448,0,1.6502297116,11500,2018-06-20 21:32:12,11,0,23.956,3810.9789687361,56.430448,0.3131716,1.83493444192,0,0,-0.671082,35.6, 1.5, 0.2,0,0,1024,1024,1024,1024,35,-89.9,100,3.996,4.014,3.993,4.018,4.013,4.007,21.262,82.4,14,Waypoint,
38.556851,-120.5320702,3811.9632207361,57.4147,0,1.6502297116,11600,2018-06-20 21:32:12,11,0,23.956,3811.9632207361,57.4147,0.3131716,1.83493444192,0,0,-0.671082,35.5, 1.3, 0,0,0,1024,1024,1024,1024,35,-89.9,100,3.996,4.014,3.993,4.018,4.013,4.007,21.262,82.4,14,Waypoint,
38.556851,-120.5320702,3812.9474727361,58.398952,0,1.6502297116,11700,2018-06-20 21:32:12,11,0,23.956,3812.9474727361,58.398952,0.3131716,1.83493444192,0,0,-0.671082,35.5, 1, -0.3,0,0,1024,1024,1024,1024,35,-89.9,100,3.996,4.014,3.993,4.018,4.013,4.007,21.262,82.4,14,Waypoint,
38.556851,-120.5320701,3813.9317247361,59.383204,0,1.6371063516,11800,2018-06-20 21:32:13,11,0,23.956,3813.9317247361,59.383204,0.3131716,1.83493444192,0,0,-0.671082,35.5, 0.7, -0.3,0,0,1024,1024,1024,1024,35,-89.9,100,3.996,4.014,3.993,4.018,4.013,4.007,21.262,82.4,14,Waypoint,
38.556851,-120.5320702,3814.9159767361,60.367456,0,1.6502297116,11900,2018-06-20 21:32:13,11,0,23.956,3814.9159767361,60.367456,0.3131716,1.83493444192,0,0,-0.671082,35.6, 0.6, -0.2,0,0,1024,1024,1024,1024,35,-90,100,3.996,4.014,3.993,4.018,4.013,4.007,21.262,82.4,14,Waypoint,
38.556851,-120.5320703,3816.8844807361,62.33596,0,1.66373692988,12100,2018-06-20 21:32:13,12,0,23.956,3816.8844807361,62.33596,0.3131716,1.83493444192,0,0,-0.671082,35.9, 0.3, 0,0,0,1024,1024,1024,1024,35,-90,100,3.996,4.014,3.993,4.018,4.013,4.007,21.262,82.4,14,Waypoint,
38.556851,-120.5320703,3818.1968167361,63.648296,0,1.66373692988,12200,2018-06-20 21:32:13,11,0,23.956,3818.1968167361,63.648296,0.3131716,1.83493444192,0,0,-0.671082,36.1, 0.4, 0.2,0,0,1024,1024,1024,1024,35,-89.9,100,3.996,4.014,3.993,4.018,4.013,4.007,21.262,82.4,14,Waypoint,
38.556851,-120.5320703,3819.1810687361,64.632548,0,1.66373692988,12300,2018-06-20 21:32:13,11,0,23.956,3819.1810687361,64.632548,0.3131716,1.83493444192,0,0,-0.671082,36.4, 0.5, 0.4,0,0,1024,1024,1024,1024,35,-89.9,100,3.996,4.014,3.993,4.018,4.013,4.007,21.262,82.4,14,Waypoint,
38.556851,-120.5320703,3820.1653207361,65.6168,0,1.66373692988,12400,2018-06-20 21:32:13,11,0,23.956,3820.1653207361,65.6168,0.3131716,1.83493444192,0,0,-0.671082,36.4, 0.5, 0.3,0,0,1024,1024,1024,1024,35,-90,100,3.996,4.014,3.993,4.018,4.013,4.007,21.262,82.4,14,Waypoint,
38.5568509,-120.5320703,3821.1495727361,66.601052,0,1.63182748004,12500,2018-06-20 21:32:13,11,0,23.956,3821.1495727361,66.601052,0.3131716,1.83493444192,0,0,-0.671082,36.5, 0.4, 0,0,0,1024,1024,1024,1024,35,-90,100,3.996,4.014,3.993,4.018,4.013,4.007,21.262,82.4,14,Waypoint,
38.5568509,-120.5320702,3822.1338247361,67.585304,0,1.61805123288,12600,2018-06-20 21:32:13,12,0,23.956,3822.1338247361,67.585304,0.3131716,1.83493444192,0,0,-0.671082,36.4, 0.4, -0.1,0,0,1024,1024,1024,1024,35,-89.9,100,3.996,4.014,3.993,4.018,4.013,4.007,21.262,82.4,14,Waypoint,
38.5568509,-120.5320703,3823.1180767361,68.569556,0,1.63182748004,12700,2018-06-20 21:32:13,12,0,23.956,3823.1180767361,68.569556,0.3131716,1.83493444192,0,0,-0.671082,36.4, 0.4, -0.2,0,0,1024,1024,1024,1024,35,-89.9,100,3.996,4.014,3.993,4.018,4.013,4.007,21.262,82.4,14,Waypoint,
38.5568509,-120.5320704,3824.1023287361,69.553808,0,1.64598430464,12800,2018-06-20 21:32:14,12,0,23.956,3824.1023287361,69.553808,0.3131716,1.83493444192,0,0,-0.671082,36.4, 0.4, 0,0,0,1024,1024,1024,1024,35,-89.9,100,3.996,4.014,3.993,4.018,4.013,4.007,21.262,82.4,14,Waypoint,
38.5568509,-120.5320703,3826.0708327361,71.522312,0,1.63182748004,13000,2018-06-20 21:32:14,12,0,24.095,3826.0708327361,71.522312,0.3131716,1.83493444192,0,0,-0.671082,36.2, 0.1, 0.1,0,0,1024,1024,1024,1024,35,-90,98,4.013,4.013,4.011,4.026,4.024,4.021,19.377,82.4,14,Waypoint,
38.5568509,-120.5320704,3827.0550847361,72.506564,0,1.64598430464,13100,2018-06-20 21:32:14,12,0,24.095,3827.0550847361,72.506564,0.3131716,1.83493444192,0,0,-0.671082,36.1, 0, 0,0,0,1024,1024,1024,1024,35,-90,98,4.013,4.013,4.011,4.026,4.024,4.021,19.377,82.4,14,Waypoint,
38.5568508,-120.5320704,3828.0393367361,73.490816,0,1.61454729576,13300,2018-06-20 21:32:14,13,0,24.095,3828.0393367361,73.490816,0.3131716,1.83493444192,0,0,-0.671082,36, -0.2, 0,0,0,1024,1024,1024,1024,35,-90,98,4.013,4.013,4.011,4.026,4.024,4.021,19.377,82.4,14,Waypoint,
38.5568508,-120.5320704,3828.6955047361,74.146984,0,1.61454729576,13400,2018-06-20 21:32:14,13,0,24.095,3828.6955047361,74.146984,0.3131716,1.83493444192,0,0,-0.671082,36, -0.2, 0,0,0,1024,1024,1024,1024,35,-90,98,4.013,4.013,4.011,4.026,4.024,4.021,19.377,82.4,14,Waypoint,
38.5568508,-120.5320705,3829.6797567361,75.131236,0,1.62935372668,13500,2018-06-20 21:32:14,14,0,24.095,3829.6797567361,75.131236,0.3131716,1.83493444192,0,0,-0.671082,35.9, -0.2, 0,0,0,1024,1024,1024,1024,35,-90,98,4.013,4.013,4.011,4.026,4.024,4.021,19.377,82.4,14,Waypoint,
38.5568509,-120.5320705,3830.6640087361,76.115488,0,1.66050858332,13600,2018-06-20 21:32:14,14,0,24.095,3830.6640087361,76.115488,0.3131716,1.83493444192,0,0,-0.671082,35.9, -0.1, 0,0,0,1024,1024,1024,1024,35,-90,98,4.013,4.013,4.011,4.026,4.024,4.021,19.377,82.4,14,Waypoint,
38.5568509,-120.5320706,3831.6482607361,77.09974,0,1.6753937544,13700,2018-06-20 21:32:14,14,0,24.095,3831.6482607361,77.09974,0.3131716,1.83493444192,0,0,-0.671082,35.9, -0.1, 0.1,0,0,1024,1024,1024,1024,35,-89.9,98,4.013,4.013,4.011,4.026,4.024,4.021,19.377,82.4,14,Waypoint,
38.5568509,-120.5320707,3833.6167647361,79.068244,0,1.69062997536,13800,2018-06-20 21:32:15,11,0,24.095,3833.6167647361,79.068244,0.3131716,1.83493444192,0,0,-0.671082,36, 0.2, 0.3,0,0,1024,1024,1024,1024,35,-89.9,98,4.013,4.013,4.011,4.026,4.024,4.021,19.377,82.4,14,Waypoint,
38.5568509,-120.5320707,3834.6010167361,80.052496,0,1.69062997536,13900,2018-06-20 21:32:15,11,0,24.095,3834.6010167361,80.052496,0.3131716,1.83493444192,0,0,-0.671082,36, 0, 0.3,0,0,1024,1024,1024,1024,35,-89.9,98,4.013,4.013,4.011,4.026,4.024,4.021,19.377,82.4,14,Waypoint,
38.5568509,-120.5320706,3835.5852687361,81.036748,0,1.6753937544,14000,2018-06-20 21:32:15,13,0,24.103,3835.5852687361,81.036748,0.3131716,1.83493444192,0,0,-0.671082,36, 0, 0.3,0,0,1024,1024,1024,1024,35,-90,98,4.013,4.019,4.004,4.03,4.026,4.014,18.759,82.4,14,Waypoint,
38.5568508,-120.5320706,3837.5537727361,83.005252,0,1.64452105,14200,2018-06-20 21:32:15,13,0,24.103,3837.5537727361,83.005252,0.3131716,1.83493444192,0,0,-0.671082,36.1, 0, 0,0,0,1024,1024,1024,1024,35,-90,98,4.013,4.019,4.004,4.03,4.026,4.014,18.759,82.4,14,Waypoint,
38.5568508,-120.5320706,3838.5380247361,83.989504,0,1.64452105,14300,2018-06-20 21:32:15,13,0,24.103,3838.5380247361,83.989504,0.3131716,1.83493444192,0,0,-0.671082,36.2, 0, -0.3,0,0,1024,1024,1024,1024,35,-89.9,98,4.013,4.019,4.004,4.03,4.026,4.014,18.759,82.4,14,Waypoint,
38.5568508,-120.5320706,3839.5222767361,84.973756,0,1.64452105,14400,2018-06-20 21:32:15,14,0,24.103,3839.5222767361,84.973756,0.3131716,1.83493444192,0,0,-0.671082,36.3, 0, -0.3,0,0,1024,1024,1024,1024,35,-90,98,4.013,4.019,4.004,4.03,4.026,4.014,18.759,82.4,14,Waypoint,
38.5568508,-120.5320706,3840.5065287361,85.958008,0,1.64452105,14500,2018-06-20 21:32:15,14,0,24.103,3840.5065287361,85.958008,0.3131716,1.83493444192,0,0,-0.671082,36.3, 0, -0.3,0,0,1024,1024,1024,1024,35,-90,98,4.013,4.019,4.004,4.03,4.026,4.014,18.759,82.4,14,Waypoint,
38.5568508,-120.5320706,3841.4907807361,86.94226,0,1.64452105,14600,2018-06-20 21:32:15,13,0,24.103,3841.4907807361,86.94226,0.3131716,1.83493444192,0,0,-0.671082,36.3, 0.1, -0.1,0,0,1024,1024,1024,1024,35,-89.9,98,4.013,4.019,4.004,4.03,4.026,4.014,18.759,82.4,14,Waypoint,
38.5568508,-120.5320706,3842.4750327361,87.926512,0,1.64452105,14700,2018-06-20 21:32:15,13,0,24.103,3842.4750327361,87.926512,0.3131716,1.83493444192,0,0,-0.671082,36.3, 0.3, 0,0,0,1024,1024,1024,1024,35,-89.9,98,4.013,4.019,4.004,4.03,4.026,4.014,18.759,82.4,14,Waypoint,
38.5568509,-120.5320706,3843.4592847361,88.910764,0,1.6753937544,14800,2018-06-20 21:32:16,14,0,24.103,3843.4592847361,88.910764,0.3131716,1.83493444192,0,0,-0.671082,36.2, 0.3, 0.1,0,0,1024,1024,1024,1024,35,-89.9,98,4.013,4.019,4.004,4.03,4.026,4.014,18.759,82.4,14,Waypoint,
38.5568509,-120.5320706,3844.4435367361,89.895016,0,1.6753937544,14900,2018-06-20 21:32:16,14,0,24.103,3844.4435367361,89.895016,0.3131716,1.83493444192,0,0,-0.671082,36.1, 0.3, 0.2,0,0,1024,1024,1024,1024,35,-89.9,98,4.013,4.019,4.004,4.03,4.026,4.014,18.759,82.4,14,Waypoint,
38.5568509,-120.5320706,3845.4277887361,90.879268,0,1.6753937544,15000,2018-06-20 21:32:16,14,0,24.088,3845.4277887361,90.879268,0.3131716,1.83493444192,0,0,-0.671082,36.1, 0.2, 0.2,0,0,1024,1024,1024,1024,35,-89.9,98,4.005,4.013,4.004,4.027,4.025,4.011,18.829,82.4,14,Waypoint,
38.5568509,-120.5320706,3846.4120407361,91.86352,0,1.6753937544,15110,2018-06-20 21:32:16,14,0,24.088,3846.4120407361,91.86352,0.3131716,1.83493444192,0,0,-0.671082,36.1, 0.2, 0.1,0,0,1024,1024,1024,1024,35,-89.9,98,4.005,4.013,4.004,4.027,4.025,4.011,18.829,82.4,14,Waypoint,
38.5568509,-120.5320706,3847.3962927361,92.847772,0,1.6753937544,15200,2018-06-20 21:32:16,13,0,24.088,3847.3962927361,92.847772,0.3131716,1.83493444192,0,0,-0.671082,36.1, 0.2, 0.1,0,0,1024,1024,1024,1024,35,-89.9,98,4.005,4.013,4.004,4.027,4.025,4.011,18.829,82.4,14,Waypoint,
38.5568509,-120.5320706,3848.3805447361,93.832024,0,1.6753937544,15300,2018-06-20 21:32:16,13,0,24.088,3848.3805447361,93.832024,0.3131716,1.83493444192,0,0,-0.671082,36.1, 0.4, 0.2,0,0,1024,1024,1024,1024,35,-89.9,98,4.005,4.013,4.004,4.027,4.025,4.011,18.829,82.4,14,Waypoint,
38.5568509,-120.5320705,3849.3647967361,94.816276,0,1.66050858332,15500,2018-06-20 21:32:16,14,0,24.088,3849.3647967361,94.816276,0.3131716,1.83493444192,0,0,-0.671082,36, 0.7, 0,0,0,1024,1024,1024,1024,35,-89.9,98,4.005,4.013,4.004,4.027,4.025,4.011,18.829,82.4,14,Waypoint,
38.5568509,-120.5320705,3851.3333007361,96.78478,0,1.66050858332,15600,2018-06-20 21:32:16,14,0,24.088,3851.3333007361,96.78478,0.3131716,1.83493444192,0,0,-0.671082,36.1, 0.5, -0.1,0,0,1024,1024,1024,1024,35,-90,98,4.005,4.013,4.004,4.027,4.025,4.011,18.829,82.4,14,Waypoint,
38.5568509,-120.5320705,3852.3175527361,97.769032,0,1.66050858332,15800,2018-06-20 21:32:17,14,0,24.088,3852.3175527361,97.769032,0.3131716,1.83493444192,0,0,-0.671082,36.2, 0.4, -0.1,0,0,1024,1024,1024,1024,35,-90,98,4.005,4.013,4.004,4.027,4.025,4.011,18.829,82.4,14,Waypoint,
38.5568509,-120.5320705,3853.3018047361,98.753284,0,1.66050858332,15900,2018-06-20 21:32:17,14,0,24.088,3853.3018047361,98.753284,0.3131716,1.83493444192,0,0,-0.671082,36.3, 0.3, -0.1,0,0,1024,1024,1024,1024,35,-90,98,4.005,4.013,4.004,4.027,4.025,4.011,18.829,82.4,14,Waypoint,
38.5568509,-120.5320705,3854.2860567361,99.737536,0,1.66050858332,16000,2018-06-20 21:32:17,14,0,24.088,3854.2860567361,99.737536,0.3131716,1.83493444192,0,0,-0.671082,36.3, 0.1, -0.3,0,0,1024,1024,1024,1024,35,-90,98,4.005,4.013,4.004,4.027,4.025,4.011,18.829,82.4,14,Waypoint,
38.5568509,-120.5320704,3856.2545607361,101.70604,0,1.64598430464,16100,2018-06-20 21:32:17,14,0,24.088,3856.2545607361,101.70604,0.3131716,1.83493444192,0,0,-0.671082,36.2, 0.3, -0.3,0,0,1024,1024,1024,1024,35,-89.9,98,4.005,4.013,4.004,4.027,4.025,4.011,18.829,82.4,14,Waypoint,
38.5568509,-120.5320705,3857.2388127361,102.690292,0,1.66050858332,16200,2018-06-20 21:32:17,14,0,24.088,3857.2388127361,102.690292,0.3131716,1.83493444192,0,0,-0.671082,36.1, 0.5, -0.2,0,0,1024,1024,1024,1024,35,-89.9,98,4.005,4.013,4.004,4.027,4.025,4.011,18.829,82.4,14,Waypoint,
38.556851,-120.5320705,3858.2230647361,103.674544,0,1.69187669456,16300,2018-06-20 21:32:17,14,0,24.088,3858.2230647361,103.674544,0.3131716,1.83493444192,0,0,-0.671082,36, 0.7, 0,0,0,1024,1024,1024,1024,35,-89.9,98,4.005,4.013,4.004,4.027,4.025,4.011,18.829,82.4,14,Waypoint,
38.556851,-120.5320705,3859.2073167361,104.658796,0,1.69187669456,16400,2018-06-20 21:32:17,14,0,24.088,3859.2073167361,104.658796,0.3131716,1.83493444192,0,0,-0.671082,35.9, 0.7, 0,0,0,1024,1024,1024,1024,35,-89.9,98,4.005,4.013,4.004,4.027,4.025,4.011,18.829,82.4,14,Waypoint,
38.556851,-120.5320705,3860.1915687361,105.643048,0,1.69187669456,16500,2018-06-20 21:32:17,14,0,24.088,3860.1915687361,105.643048,0.3131716,1.83493444192,0,0,-0.671082,35.9, 0.6, 0.1,0,0,1024,1024,1024,1024,35,-89.9,98,4.005,4.013,4.004,4.027,4.025,4.011,18.829,82.4,14,Waypoint,
38.556851,-120.5320705,3861.1758207361,106.6273,0,1.69187669456,16600,2018-06-20 21:32:17,14,0,24.088,3861.1758207361,106.6273,0.3131716,1.83493444192,0,0,-0.671082,35.8, 0.4, 0.1,0,0,1024,1024,1024,1024,35,-89.9,98,4.005,4.013,4.004,4.027,4.025,4.011,18.829,82.4,14,Waypoint,
38.556851,-120.5320705,3862.1600727361,107.611552,0,1.69187669456,16700,2018-06-20 21:32:17,14,0,24.088,3862.1600727361,107.611552,0.3131716,1.83493444192,0,0,-0.671082,35.8, 0.2, 0.1,0,0,1024,1024,1024,1024,35,-90,98,4.005,4.013,4.004,4.027,4.025,4.011,18.829,82.4,14,Waypoint,
38.556851,-120.5320705,3863.1443247361,108.595804,0,1.69187669456,16800,2018-06-20 21:32:18,14,0,24.088,3863.1443247361,108.595804,0.3131716,1.83493444192,0,0,-0.671082,35.8, 0, 0,0,0,1024,1024,1024,1024,35,-90,98,4.005,4.013,4.004,4.027,4.025,4.011,18.829,82.4,14,Waypoint,
38.5568509,-120.5320705,3864.1285767361,109.580056,0,1.66050858332,16900,2018-06-20 21:32:18,14,0,24.088,3864.1285767361,109.580056,0.3131716,1.83493444192,0,0,-0.671082,35.8, -0.1, -0.2,0,0,1024,1024,1024,1024,35,-90,98,4.005,4.013,4.004,4.027,4.025,4.011,18.829,82.4,14,Waypoint,
38.5568509,-120.5320705,3865.1128287361,110.564308,0,1.66050858332,17000,2018-06-20 21:32:18,14,0,24.033,3865.1128287361,110.564308,0.3131716,1.83493444192,0,0,-0.671082,35.8, -0.1, -0.2,0,0,1024,1024,1024,1024,35,-90,98,3.997,4,3.996,4.019,4.02,4.003,18.736,84.2,14,Waypoint,
38.5568509,-120.5320705,3866.0970807361,111.54856,0,1.66050858332,17100,2018-06-20 21:32:18,14,0,24.033,3866.0970807361,111.54856,0.3131716,1.83493444192,0,0,-0.671082,35.9, -0.2, -0.2,0,0,1024,1024,1024,1024,35,-90,98,3.997,4,3.996,4.019,4.02,4.003,18.736,84.2,14,Waypoint,
38.5568509,-120.5320705,3867.0813327361,112.532812,0,1.66050858332,17200,2018-06-20 21:32:18,14,0,24.033,3867.0813327361,112.532812,0.3131716,1.83493444192,0,0,-0.671082,36, 0, -0.4,0,0,1024,1024,1024,1024,35,-90,98,3.997,4,3.996,4.019,4.02,4.003,18.736,84.2,14,Waypoint,
38.556851,-120.5320705,3868.0655847361,113.517064,0,1.69187669456,17300,2018-06-20 21:32:18,14,0,24.033,3868.0655847361,113.517064,0.3131716,1.83493444192,0,0,-0.671082,36.2, 0.3, -0.4,0,0,1024,1024,1024,1024,35,-89.9,98,3.997,4,3.996,4.019,4.02,4.003,18.736,84.2,14,Waypoint,
38.556851,-120.5320705,3869.0498367361,114.501316,0,1.69187669456,17400,2018-06-20 21:32:18,14,0,24.033,3869.0498367361,114.501316,0.3131716,1.83493444192,0,0,-0.671082,36.2, 0.9, 0,0,0,1024,1024,1024,1024,35.1,-89.9,98,3.997,4,3.996,4.019,4.02,4.003,18.736,84.2,14,Waypoint,
38.5568511,-120.5320705,3872.0025927361,117.454072,0,1.72344821788,17700,2018-06-20 21:32:18,14,0,24.033,3872.0025927361,117.454072,0.3131716,1.83493444192,0,0,-0.671082,36.2, 1, 0.1,0,0,1024,1024,1024,1024,35,-89.9,98,3.997,4,3.996,4.019,4.02,4.003,18.736,84.2,14,Waypoint,
38.5568511,-120.5320704,3873.9710967361,119.422576,0,1.70945871612,18000,2018-06-20 21:32:19,14,0,24.033,3873.9710967361,119.422576,0.3131716,1.83493444192,0,0,-0.671082,36, 0.8, 0.2,0,0,1024,1024,1024,1024,35,-89.9,98,3.997,4,3.996,4.019,4.02,4.003,18.736,84.2,14,Waypoint,
38.5568512,-120.5320704,3875.6115167361,121.062996,0,1.74147315284,18200,2018-06-20 21:32:19,14,0,24.033,3875.6115167361,121.062996,0.3131716,1.83493444192,0,0,-0.671082,35.9, 0.9, -0.3,0,0,1024,1024,1024,1024,35,-89.9,98,3.997,4,3.996,4.019,4.02,4.003,18.736,84.2,14,Waypoint,
38.5568512,-120.5320704,3876.5957687361,122.047248,0,1.74147315284,18300,2018-06-20 21:32:19,14,0,24.033,3876.5957687361,122.047248,0.3131716,1.83493444192,0,0,-0.671082,35.9, 1.1, -0.4,0,0,1024,1024,1024,1024,35,-89.9,98,3.997,4,3.996,4.019,4.02,4.003,18.736,84.2,14,Waypoint,
38.5568512,-120.5320703,3877.5800207361,123.0315,0,1.728100449,18400,2018-06-20 21:32:19,14,0,24.033,3877.5800207361,123.0315,0.3131716,1.83493444192,0,0,-0.671082,35.8, 1.2, -0.4,0,0,1024,1024,1024,1024,35,-89.9,98,3.997,4,3.996,4.019,4.02,4.003,18.736,84.2,14,Waypoint,
38.5568512,-120.5320703,3879.5485247361,125.000004,0,1.728100449,18500,2018-06-20 21:32:19,14,0,24.033,3879.5485247361,125.000004,0.3131716,1.83493444192,0,0,-0.671082,35.8, 1.3, 0,0,0,1024,1024,1024,1024,35,-89.9,98,3.997,4,3.996,4.019,4.02,4.003,18.736,84.2,14,Waypoint,
38.5568512,-120.5320703,3880.5327767361,125.984256,0,1.728100449,18600,2018-06-20 21:32:19,14,0,24.033,3880.5327767361,125.984256,0.3131716,1.83493444192,0,0,-0.671082,35.7, 1.1, 0,0,0,1024,1024,1024,1024,35,-89.9,98,3.997,4,3.996,4.019,4.02,4.003,18.736,84.2,14,Waypoint,
38.5568512,-120.5320702,3882.5012807361,127.95276,0,1.71509848008,18800,2018-06-20 21:32:20,14,0,24.033,3882.5012807361,127.95276,0.3131716,1.83493444192,0,0,-0.671082,35.7, 1, -0.5,0,0,1024,1024,1024,1024,35,-89.9,98,3.997,4,3.996,4.019,4.02,4.003,18.736,84.2,14,Waypoint,
38.5568512,-120.5320702,3883.8136167361,129.265096,0,1.71509848008,18900,2018-06-20 21:32:20,14,0,24.033,3883.8136167361,129.265096,0.3131716,1.83493444192,0,0,-0.671082,35.8, 0.6, -0.6,0,0,1024,1024,1024,1024,35,-90,98,3.997,4,3.996,4.019,4.02,4.003,18.736,84.2,14,Waypoint,
38.5568512,-120.5320702,3884.7978687361,130.249348,0,1.71509848008,19000,2018-06-20 21:32:20,14,0,23.96,3884.7978687361,130.249348,0.3131716,1.83493444192,0,0,-0.671082,35.9, 0.6, -0.4,0,0,1024,1024,1024,1024,35.1,-89.9,98,4.002,4.007,3.993,4.016,4.02,4.009,19.098,84.2,14,Waypoint,
38.5568511,-120.5320702,3885.7821207361,131.2336,0,1.68258207484,19100,2018-06-20 21:32:20,14,0,23.96,3885.7821207361,131.2336,0.3131716,1.83493444192,0,0,-0.671082,36, 0.6, -0.3,0,0,1024,1024,1024,1024,35.1,-89.9,98,4.002,4.007,3.993,4.016,4.02,4.009,19.098,84.2,14,Waypoint,
38.5568511,-120.5320701,3886.7663727361,132.217852,0,1.66971133952,19200,2018-06-20 21:32:20,15,0,23.96,3886.7663727361,132.217852,0.3131716,1.83493444192,0,0,-0.671082,36, 0.6, -0.5,0,0,1024,1024,1024,1024,35,-90,98,4.002,4.007,3.993,4.016,4.02,4.009,19.098,84.2,14,Waypoint,
38.5568511,-120.5320701,3887.7506247361,133.202104,0,1.66971133952,19300,2018-06-20 21:32:20,15,0,23.96,3887.7506247361,133.202104,0.3131716,1.83493444192,0,0,-0.671082,36.1, 0.6, -0.6,0,0,1024,1024,1024,1024,35,-90,98,4.002,4.007,3.993,4.016,4.02,4.009,19.098,84.2,14,Waypoint,
38.5568511,-120.5320701,3888.7348767361,134.186356,0,1.66971133952,19400,2018-06-20 21:32:20,15,0,23.96,3888.7348767361,134.186356,0.3131716,1.83493444192,0,0,-0.671082,36.1, 0.7, -0.7,0,0,1024,1024,1024,1024,35,-89.9,98,4.002,4.007,3.993,4.016,4.02,4.009,19.098,84.2,14,Waypoint,
38.5568511,-120.53207,3889.7191287361,135.170608,0,1.657234305,19500,2018-06-20 21:32:20,15,0,23.96,3889.7191287361,135.170608,0.3131716,1.83493444192,0,0,-0.671082,36.1, 0.9, -0.8,0,0,1024,1024,1024,1024,35.1,-89.9,98,4.002,4.007,3.993,4.016,4.02,4.009,19.098,84.2,14,Waypoint,
38.5568511,-120.53207,3890.7033807361,136.15486,0,1.657234305,19610,2018-06-20 21:32:20,15,0,23.96,3890.7033807361,136.15486,0.3131716,1.83493444192,0,0,-0.671082,36.1, 1.1, -0.7,0,0,1024,1024,1024,1024,35.1,-89.9,98,4.002,4.007,3.993,4.016,4.02,4.009,19.098,84.2,14,Waypoint,
38.5568511,-120.5320699,3891.6876327361,137.139112,0,1.64515425212,19700,2018-06-20 21:32:20,15,0,23.96,3891.6876327361,137.139112,0.3131716,1.83493444192,0,0,-0.671082,36.1, 1.1, -0.8,0,0,1024,1024,1024,1024,35.1,-89.9,98,4.002,4.007,3.993,4.016,4.02,4.009,19.098,84.2,14,Waypoint,
38.556851,-120.5320699,3892.6718847361,138.123364,0,1.61205057652,19800,2018-06-20 21:32:21,15,0,23.96,3892.6718847361,138.123364,0.3131716,1.83493444192,0,0,-0.671082,36.1, 0.8, -1.1,0,0,1024,1024,1024,1024,35.1,-90,98,4.002,4.007,3.993,4.016,4.02,4.009,19.098,84.2,14,Waypoint,
38.556851,-120.5320699,3893.6561367361,139.107616,0,1.61205057652,19900,2018-06-20 21:32:21,15,0,23.96,3893.6561367361,139.107616,0.3131716,1.83493444192,0,0,-0.671082,36.1, 0.7, -1.2,0,0,1024,1024,1024,1024,35,-89.9,98,4.002,4.007,3.993,4.016,4.02,4.009,19.098,84.2,14,Waypoint,
38.5568509,-120.5320699,3894.6403887361,140.091868,0,1.57909781956,20100,2018-06-20 21:32:21,15,0,23.96,3894.6403887361,140.091868,0.3131716,1.83493444192,0,0,-0.671082,36.1, 0.6, -1.2,0,0,1024,1024,1024,1024,35.1,-90,98,4.002,4.007,3.993,4.016,4.02,4.009,19.098,84.2,14,Waypoint,
38.5568509,-120.5320699,3895.6246407361,141.07612,0,1.57909781956,20200,2018-06-20 21:32:21,15,0,23.96,3895.6246407361,141.07612,0.3131716,1.83493444192,0,0,-0.671082,36, 0.4, -1,0,0,1024,1024,1024,1024,35.1,-90,98,4.002,4.007,3.993,4.016,4.02,4.009,19.098,84.2,14,Waypoint,
38.5568508,-120.5320699,3896.6088927361,142.060372,0,1.54630254292,20300,2018-06-20 21:32:21,15,0,23.96,3896.6088927361,142.060372,0.3131716,1.83493444192,0,0,-0.671082,36, 0.5, -0.8,0,0,1024,1024,1024,1024,35.1,-89.9,98,4.002,4.007,3.993,4.016,4.02,4.009,19.098,84.2,14,Waypoint,
38.5568508,-120.5320699,3897.5931447361,143.044624,0,1.54630254292,20400,2018-06-20 21:32:21,15,0,23.96,3897.5931447361,143.044624,0.3131716,1.83493444192,0,0,-0.671082,36, 0.6, -0.9,0,0,1024,1024,1024,1024,35.1,-90,98,4.002,4.007,3.993,4.016,4.02,4.009,19.098,84.2,14,Waypoint,
38.5568507,-120.5320699,3899.5616487361,145.013128,0,1.51367458912,20500,2018-06-20 21:32:21,15,0,23.96,3899.5616487361,145.013128,0.3131716,1.83493444192,0,0,-0.671082,35.9, 0.5, -1.1,0,0,1024,1024,1024,1024,35,-90,98,4.002,4.007,3.993,4.016,4.02,4.009,19.098,84.2,14,Waypoint,
38.5568507,-120.5320698,3900.5459007361,145.99738,0,1.5009843,20600,2018-06-20 21:32:21,15,0,23.96,3900.5459007361,145.99738,0.3131716,1.83493444192,0,0,-0.671082,35.7, 0.6, -1.3,0,0,1024,1024,1024,1024,35.1,-89.9,98,4.002,4.007,3.993,4.016,4.02,4.009,19.098,84.2,14,Waypoint,
38.5568507,-120.5320698,3901.5301527361,146.981632,0,1.5009843,20700,2018-06-20 21:32:21,15,0,23.96,3901.5301527361,146.981632,0.3131716,1.83493444192,0,0,-0.671082,35.7, 0.7, -1.3,0,0,1024,1024,1024,1024,35.1,-90,98,4.002,4.007,3.993,4.016,4.02,4.009,19.098,84.2,14,Waypoint,
38.5568507,-120.5320697,3902.5144047361,147.965884,0,1.48873364344,20800,2018-06-20 21:32:22,15,0,23.96,3902.5144047361,147.965884,0.3131716,1.83493444192,0,0,-0.671082,35.9, 0.7, -1.3,0,0,1024,1024,1024,1024,35.1,-90,98,4.002,4.007,3.993,4.016,4.02,4.009,19.098,84.2,14,Waypoint,
38.5568507,-120.5320696,3903.1705727361,148.622052,0,1.47692918112,20900,2018-06-20 21:32:22,15,0,23.96,3903.1705727361,148.622052,0.3131716,1.83493444192,0,0,-0.671082,36, 0.9, -1.4,0,0,1024,1024,1024,1024,35.1,-89.9,98,4.002,4.007,3.993,4.016,4.02,4.009,19.098,84.2,14,Waypoint,
38.5568507,-120.5320695,3904.1548247361,149.606304,0,1.46558731724,21000,2018-06-20 21:32:22,15,0,23.955,3904.1548247361,149.606304,0.3131716,1.83493444192,0,0,-0.671082,36.1, 1.3, -1.4,0,0,1024,1024,1024,1024,35.1,-89.9,97,3.981,3.981,3.979,4.003,3.991,3.992,19.422,84.2,14,Waypoint,
38.5568508,-120.5320695,3905.1390767361,150.590556,0,1.499261859,21100,2018-06-20 21:32:22,15,0,23.955,3905.1390767361,150.590556,0.3131716,1.83493444192,0,0,-0.671082,36.2, 1.3, -1.3,0,0,1024,1024,1024,1024,35.1,-89.9,97,3.981,3.981,3.979,4.003,3.991,3.992,19.422,84.2,14,Waypoint,
38.5568508,-120.5320695,3906.1233287361,151.574808,0,1.499261859,21200,2018-06-20 21:32:22,15,0,23.955,3906.1233287361,151.574808,0.3131716,1.83493444192,0,0,-0.671082,36.3, 1.8, -1.2,0,0,1024,1024,1024,1024,35.1,-89.9,97,3.981,3.981,3.979,4.003,3.991,3.992,19.422,84.2,14,Waypoint,
38.5568509,-120.5320695,3907.1075807361,152.55906,0,1.53306435352,21300,2018-06-20 21:32:22,15,0,23.955,3907.1075807361,152.55906,0.3131716,1.83493444192,0,0,-0.671082,36.3, 2, -0.7,0,0,1024,1024,1024,1024,35.1,-89.9,97,3.981,3.981,3.979,4.003,3.991,3.992,19.422,84.2,14,Waypoint,
38.556851,-120.5320694,3908.0918327361,153.543312,0,1.5568241968,21400,2018-06-20 21:32:22,16,0,23.955,3908.0918327361,153.543312,0.3131716,1.83493444192,0,0,-0.671082,36.1, 1.9, -0.7,0,0,1024,1024,1024,1024,35.1,-89.9,97,3.981,3.981,3.979,4.003,3.991,3.992,19.422,84.2,14,Waypoint,
38.5568511,-120.5320694,3909.0760847361,154.527564,0,1.5910761664,21500,2018-06-20 21:32:22,16,0,23.955,3909.0760847361,154.527564,0.3131716,1.83493444192,0,0,-0.671082,35.7, 1.9, -0.6,0,0,1024,1024,1024,1024,35.1,-89.9,97,3.981,3.981,3.979,4.003,3.991,3.992,19.422,84.2,14,Waypoint,
38.5568511,-120.5320693,3910.0603367361,155.511816,0,1.58158141544,21600,2018-06-20 21:32:22,16,0,23.955,3910.0603367361,155.511816,0.3131716,1.83493444192,0,0,-0.671082,35.3, 2.1, -0.8,0,0,1024,1024,1024,1024,35.1,-89.9,97,3.981,3.981,3.979,4.003,3.991,3.992,19.422,84.2,14,Waypoint,
38.5568513,-120.5320692,3912.3569247361,157.808404,0.223694,1.64211619428,21810,2018-06-20 21:32:23,16,0,23.955,3912.3569247361,157.808404,0.3131716,1.83493444192,0,0,-0.671082,35.2, 2.8, -1,0,0,1024,1024,1024,1024,35.1,-89.9,97,3.981,3.981,3.979,4.003,3.991,3.992,19.422,84.2,14,Waypoint,
38.5568513,-120.5320692,3912.3569247361,157.808404,0.223694,1.64211619428,21900,2018-06-20 21:32:23,16,0,23.955,3912.3569247361,157.808404,0.3131716,1.83493444192,0,0,-0.671082,35.2, 2.8, -1,0,0,1024,1024,1024,1024,35.1,-89.9,97,3.981,3.981,3.979,4.003,3.991,3.992,19.422,84.2,14,Waypoint,
38.5568514,-120.532069,3913.3411767361,158.792656,0.223694,1.66140425264,22000,2018-06-20 21:32:23,16,0,23.918,3913.3411767361,158.792656,0.3131716,1.83493444192,0,0,-0.671082,35.5, 2.9, -1.3,0,0,1024,1024,1024,1024,35.1,-89.9,97,3.976,3.98,3.973,3.997,3.994,3.982,19.55,84.2,14,Waypoint,
38.5568514,-120.5320689,3914.3254287361,159.776908,0.223694,1.65428482984,22100,2018-06-20 21:32:23,16,0,23.918,3914.3254287361,159.776908,0.3131716,1.83493444192,0,0,-0.671082,35.9, 3.1, -1.5,0,0,1024,1024,1024,1024,35.1,-89.9,97,3.976,3.98,3.973,3.997,3.994,3.982,19.55,84.2,14,Waypoint,
38.5568515,-120.5320688,3915.3096807361,160.76116,0.223694,1.68319559192,22200,2018-06-20 21:32:23,16,0,23.918,3915.3096807361,160.76116,0.3131716,1.83493444192,0,0,-0.671082,36.2, 3.4, -1.8,0,0,1024,1024,1024,1024,35.1,-89.9,97,3.976,3.98,3.973,3.997,3.994,3.982,19.55,84.2,14,Waypoint,
38.5568515,-120.5320687,3916.2939327361,161.745412,0,1.67713916128,22300,2018-06-20 21:32:23,16,0,23.918,3916.2939327361,161.745412,0.3131716,1.83493444192,0,0,-0.671082,36.5, 3.3, -2,0,0,1024,1024,1024,1024,35.1,-89.9,97,3.976,3.98,3.973,3.997,3.994,3.982,19.55,84.2,14,Waypoint,
38.5568515,-120.5320687,3917.2781847361,162.729664,0,1.67713916128,22400,2018-06-20 21:32:23,16,0,23.918,3917.2781847361,162.729664,0.3131716,1.83493444192,0,0,-0.671082,36.6, 3.2, -1.8,0,0,1024,1024,1024,1024,35.1,-89.9,97,3.976,3.98,3.973,3.997,3.994,3.982,19.55,84.2,14,Waypoint,
38.5568516,-120.5320687,3919.2466887361,164.698168,0,1.71287407056,22500,2018-06-20 21:32:23,16,0,23.918,3919.2466887361,164.698168,0.3131716,1.83493444192,0,0,-0.671082,36.5, 2.9, -0.9,0,0,1024,1024,1024,1024,35.1,-90,97,3.976,3.98,3.973,3.997,3.994,3.982,19.55,84.2,14,Waypoint,
38.5568517,-120.5320687,3920.5590247361,166.010504,0,1.74863522656,22600,2018-06-20 21:32:23,16,0,23.918,3920.5590247361,166.010504,0.3131716,1.83493444192,0,0,-0.671082,36.4, 2.8, -1,0,0,1024,1024,1024,1024,35.1,-89.9,97,3.976,3.98,3.973,3.997,3.994,3.982,19.55,84.2,14,Waypoint,
38.5568517,-120.5320687,3921.5432767361,166.994756,0,1.74863522656,22700,2018-06-20 21:32:23,16,0,23.918,3921.5432767361,166.994756,0.3131716,1.83493444192,0,0,-0.671082,36.2, 2.8, -1,0,0,1024,1024,1024,1024,35.1,-89.9,97,3.976,3.98,3.973,3.997,3.994,3.982,19.55,84.2,14,Waypoint,
38.5568518,-120.5320687,3922.5275287361,167.979008,0,1.78442919096,22800,2018-06-20 21:32:24,16,0,23.918,3922.5275287361,167.979008,0.3131716,1.83493444192,0,0,-0.671082,36.2, 3, -0.9,0,0,1024,1024,1024,1024,35.1,-89.9,97,3.976,3.98,3.973,3.997,3.994,3.982,19.55,84.2,14,Waypoint,
38.5568519,-120.5320687,3923.5117807361,168.96326,0,1.82024940208,22900,2018-06-20 21:32:24,16,0,23.918,3923.5117807361,168.96326,0.3131716,1.83493444192,0,0,-0.671082,36.1, 3.2, -0.8,0,0,1024,1024,1024,1024,35.1,-89.9,97,3.976,3.98,3.973,3.997,3.994,3.982,19.55,84.2,14,Waypoint,
38.5568519,-120.5320687,3924.4960327361,169.947512,0,1.82024940208,23000,2018-06-20 21:32:24,16,0,23.842,3924.4960327361,169.947512,0.3131716,1.83493444192,0,0,-0.671082,36.1, 3.2, -0.5,0,0,1024,1024,1024,1024,35.1,-89.9,97,3.961,3.962,3.963,3.974,3.979,3.975,19.787,84.2,14,Waypoint,
38.556852,-120.5320688,3925.4802847361,170.931764,0,1.86157158188,23100,2018-06-20 21:32:24,16,0,23.842,3925.4802847361,170.931764,0.3131716,1.86157158188,0,0,-0.671082,36.1, 3.3, -0.4,0,0,1024,1024,1024,1024,35.1,-89.9,97,3.961,3.962,3.963,3.974,3.979,3.975,19.787,84.2,14,Waypoint,
38.556852,-120.5320688,3926.4645367361,171.916016,0,1.86157158188,23200,2018-06-20 21:32:24,16,0,23.842,3926.4645367361,171.916016,0.3131716,1.86157158188,0,0,-0.671082,36.2, 3.3, -0.4,0,0,1024,1024,1024,1024,35.1,-89.9,97,3.961,3.962,3.963,3.974,3.979,3.975,19.787,84.2,14,Waypoint,
38.5568521,-120.5320688,3927.4487887361,172.900268,0,1.89733929956,23300,2018-06-20 21:32:24,16,0,23.842,3927.4487887361,172.900268,0.3131716,1.89733929956,0,0,-0.671082,36.2, 3.4, -0.3,0,0,1024,1024,1024,1024,35.1,-89.9,97,3.961,3.962,3.963,3.974,3.979,3.975,19.787,84.2,14,Waypoint,
38.5568522,-120.5320688,3928.4330407361,173.88452,0,1.93313326396,23400,2018-06-20 21:32:24,16,0,23.842,3928.4330407361,173.88452,0.3131716,1.93313326396,0,0,-0.671082,36.3, 3.5, -0.1,0,0,1024,1024,1024,1024,35.1,-89.9,97,3.961,3.962,3.963,3.974,3.979,3.975,19.787,84.2,14,Waypoint,
38.5568522,-120.5320689,3929.4172927361,174.868772,0,1.93880911716,23500,2018-06-20 21:32:24,16,0,23.842,3929.4172927361,174.868772,0.3131716,1.93880911716,0,0,-0.671082,36.2, 3.4, -0.1,0,0,1024,1024,1024,1024,35.1,-89.9,97,3.961,3.962,3.963,3.974,3.979,3.975,19.787,84.2,14,Waypoint,
38.5568522,-120.5320689,3930.4015447361,175.853024,0,1.93880911716,23600,2018-06-20 21:32:24,16,0,23.842,3930.4015447361,175.853024,0.3131716,1.93880911716,0,0,-0.671082,36.2, 3.4, 0,0,0,1024,1024,1024,1024,35.1,-89.9,97,3.961,3.962,3.963,3.974,3.979,3.975,19.787,84.2,14,Waypoint,
38.5568523,-120.5320691,3932.3700487361,177.821528,0,1.98685373812,23800,2018-06-20 21:32:25,16,0,23.842,3932.3700487361,177.821528,0.3131716,1.98685373812,0,0,-0.671082,36.1, 3, 0,0,0,1024,1024,1024,1024,35.1,-90,97,3.961,3.962,3.963,3.974,3.979,3.975,19.787,84.2,14,Waypoint,
38.5568522,-120.5320691,3934.3385527361,179.790032,0,1.951361611,24000,2018-06-20 21:32:25,16,0,23.882,3934.3385527361,179.790032,0.3131716,1.98685373812,0,0,-0.671082,36.2, 2.7, 0,0,0,1024,1024,1024,1024,35.1,-90,97,3.973,3.976,3.967,3.988,3.993,3.975,19.239,84.2,14,Waypoint,
38.5568522,-120.5320692,3935.3228047361,180.774284,0,1.9582349708,24100,2018-06-20 21:32:25,16,0,23.882,3935.3228047361,180.774284,0.3131716,1.98685373812,0,0,-0.671082,36.2, 2.7, -0.1,0,0,1024,1024,1024,1024,35.1,-90,97,3.973,3.976,3.967,3.988,3.993,3.975,19.239,84.2,14,Waypoint,
38.5568522,-120.5320693,3936.3070567361,181.758536,0,1.96549546972,24300,2018-06-20 21:32:25,16,0,23.882,3936.3070567361,181.758536,0.3131716,1.98685373812,0,0,-0.671082,36.2, 2.8, 0,0,0,1024,1024,1024,1024,35.1,-89.9,97,3.973,3.976,3.967,3.988,3.993,3.975,19.239,84.2,14,Waypoint,
38.5568522,-120.5320693,3937.2913087361,182.742788,0,1.96549546972,24400,2018-06-20 21:32:25,16,0,23.882,3937.2913087361,182.742788,0.3131716,1.98685373812,0,0,-0.671082,36.1, 2.7, 0,0,0,1024,1024,1024,1024,35.1,-89.9,97,3.973,3.976,3.967,3.988,3.993,3.975,19.239,84.2,14,Waypoint,
38.5568522,-120.5320694,3938.2755607361,183.72704,0,1.97314310776,24500,2018-06-20 21:32:25,16,0,23.882,3938.2755607361,183.72704,0.3131716,1.98685373812,0,0,-0.671082,36.1, 2.7, 0,0,0,1024,1024,1024,1024,35.1,-89.9,97,3.973,3.976,3.967,3.988,3.993,3.975,19.239,84.2,14,Waypoint,
38.5568522,-120.5320695,3939.2598127361,184.711292,0,1.98117132324,24600,2018-06-20 21:32:25,16,0,23.882,3939.2598127361,184.711292,0.3131716,1.98685373812,0,0,-0.671082,36.1, 2.5, 0.1,0,0,1024,1024,1024,1024,35.1,-90,97,3.973,3.976,3.967,3.988,3.993,3.975,19.239,84.2,14,Waypoint,
38.5568522,-120.5320696,3941.2283167361,186.679796,0,1.98957683532,24800,2018-06-20 21:32:26,16,0,23.882,3941.2283167361,186.679796,0.3131716,1.98957683532,0,0,-0.671082,36.2, 2.4, 0.1,0,0,1024,1024,1024,1024,35.1,-89.9,97,3.973,3.976,3.967,3.988,3.993,3.975,19.239,84.2,14,Waypoint,
38.5568522,-120.5320696,3942.2125687361,187.664048,0,1.98957683532,24900,2018-06-20 21:32:26,16,0,23.882,3942.2125687361,187.664048,0.3131716,1.98957683532,0,0,-0.671082,36.1, 2.6, 0.1,0,0,1024,1024,1024,1024,35.1,-89.9,97,3.973,3.976,3.967,3.988,3.993,3.975,19.239,84.2,14,Waypoint,
38.5568521,-120.5320696,3944.1810727361,189.632552,0,1.95481633552,25000,2018-06-20 21:32:26,16,0,23.874,3944.1810727361,189.632552,0.3131716,1.98957683532,0,0,-0.671082,36.2, 3.1, 0,0,0,1024,1024,1024,1024,35.1,-89.9,97,3.973,3.976,3.967,3.988,3.993,3.975,19.106,84.2,14,Waypoint,
38.5568522,-120.5320696,3945.1653247361,190.616804,0,1.98957683532,25100,2018-06-20 21:32:26,16,0,23.874,3945.1653247361,190.616804,0.3131716,1.98957683532,0,0,-0.671082,36.2, 3.4, -0.2,0,0,1024,1024,1024,1024,35.1,-89.9,97,3.973,3.976,3.967,3.988,3.993,3.975,19.106,84.2,14,Waypoint,
38.5568522,-120.5320697,3946.1495767361,191.601056,0,1.99835308232,25200,2018-06-20 21:32:26,16,0,23.874,3946.1495767361,191.601056,0.3131716,1.99835308232,0,0,-0.671082,36.2, 3.3, -0.1,0,0,1024,1024,1024,1024,35.1,-89.9,97,3.973,3.976,3.967,3.988,3.993,3.975,19.106,84.2,14,Waypoint,
38.5568521,-120.5320697,3947.1338287361,192.585308,0,1.963746782,25300,2018-06-20 21:32:26,16,0,23.874,3947.1338287361,192.585308,0.3131716,1.99835308232,0,0,-0.671082,36.1, 3.2, 0.1,0,0,1024,1024,1024,1024,35.1,-89.9,97,3.973,3.976,3.967,3.988,3.993,3.975,19.106,84.2,14,Waypoint,
38.5568521,-120.5320698,3948.4461647361,193.897644,0,1.97305124424,25400,2018-06-20 21:32:26,16,0,23.874,3948.4461647361,193.897644,0.3131716,1.99835308232,0,0,-0.671082,36, 3.2, 0.3,0,0,1024,1024,1024,1024,35.1,-89.9,97,3.973,3.976,3.967,3.988,3.993,3.975,19.106,84.2,14,Waypoint,
38.5568521,-120.5320698,3949.4304167361,194.881896,0,1.97305124424,25500,2018-06-20 21:32:26,16,0,23.874,3949.4304167361,194.881896,0.3131716,1.99835308232,0,0,-0.671082,36, 3.5, 0.6,0,0,1024,1024,1024,1024,35.1,-90,97,3.973,3.976,3.967,3.988,3.993,3.975,19.106,84.2,14,Waypoint,
38.5568521,-120.53207,3951.3989207361,196.8504,0,1.99275596928,25700,2018-06-20 21:32:26,16,0,23.874,3951.3989207361,196.8504,0.3131716,1.99835308232,0,0,-0.671082,35.7, 3.3, 1,0,0,1024,1024,1024,1024,35.1,-90,97,3.973,3.976,3.967,3.988,3.993,3.975,19.106,84.2,14,Waypoint,
38.5568518,-120.5320701,3953.3674247361,198.818904,0.223694,1.90190622884,25900,2018-06-20 21:32:27,16,0,23.874,3953.3674247361,198.818904,0.3131716,1.99835308232,0,0,-0.671082,35.6, 1.5, -0.7,0,0,1024,1024,1024,1024,35.1,-90,97,3.973,3.976,3.967,3.988,3.993,3.975,19.106,84.2,14,Waypoint,
38.5568517,-120.5320701,3954.3516767361,199.803156,0.223694,1.86836292068,26000,2018-06-20 21:32:27,16,0,23.865,3954.3516767361,199.803156,0.3131716,1.99835308232,0,0,-0.671082,35.7, 1, -1.4,0,0,1024,1024,1024,1024,35.1,-90,97,3.966,3.98,3.964,3.994,3.992,3.983,18.772,84.2,14,Waypoint,
38.5568515,-120.5320702,3955.0078447361,200.459324,0.223694,1.81355976932,26100,2018-06-20 21:32:27,16,0,23.865,3955.0078447361,200.459324,0.3131716,1.99835308232,0,0,-0.671082,35.7, 0.6, -1.2,0,0,1024,1024,1024,1024,35.1,-90,97,3.966,3.98,3.964,3.994,3.992,3.983,18.772,84.2,14,Waypoint,
38.5568514,-120.5320703,3955.9920967361,201.443576,0.223694,1.79312341696,26200,2018-06-20 21:32:27,16,0,23.865,3955.9920967361,201.443576,0.3131716,1.99835308232,0,0,-0.671082,35.8, 0.2, -0.7,0,0,1024,1024,1024,1024,35.1,-90,97,3.966,3.98,3.964,3.994,3.992,3.983,18.772,84.2,14,Waypoint,
38.5568513,-120.5320704,3956.9763487361,202.427828,0.223694,1.77366147408,26300,2018-06-20 21:32:27,16,0,23.865,3956.9763487361,202.427828,0.3131716,1.99835308232,0,0,-0.671082,35.9, 0.3, -0.8,0,0,1024,1024,1024,1024,35.1,-89.9,97,3.966,3.98,3.964,3.994,3.992,3.983,18.772,84.2,14,Waypoint,
38.5568511,-120.5320705,3958.9448527361,204.396332,0.223694,1.72344821788,26500,2018-06-20 21:32:27,16,0,23.865,3958.9448527361,204.396332,0.3131716,1.99835308232,0,0,-0.671082,36.2, 0, -0.9,0,0,1024,1024,1024,1024,35.1,-90,97,3.966,3.98,3.964,3.994,3.992,3.983,18.772,84.2,14,Waypoint,
38.5568509,-120.5320706,3960.9133567361,206.364836,0.223694,1.6753937544,26700,2018-06-20 21:32:27,16,0,23.865,3960.9133567361,206.364836,0.3131716,1.99835308232,0,0,-0.671082,36.4, 0.3, -0.4,0,0,1024,1024,1024,1024,35.1,-89.9,97,3.966,3.98,3.964,3.994,3.992,3.983,18.772,84.2,14,Waypoint,
38.5568508,-120.5320706,3961.8976087361,207.349088,0.223694,1.64452105,26900,2018-06-20 21:32:28,16,0,23.865,3961.8976087361,207.349088,0.3131716,1.99835308232,0,0,-0.671082,36.3, 0.8, -1.2,0,0,1024,1024,1024,1024,35.1,-89.9,97,3.966,3.98,3.964,3.994,3.992,3.983,18.772,84.2,14,Waypoint,
38.5568507,-120.5320705,3962.5537767361,208.005256,0.223694,1.59842196716,27000,2018-06-20 21:32:28,16,0,23.865,3962.5537767361,208.005256,0.3131716,1.99835308232,0,0,-0.671082,36.2, 1.2, -1.7,0,0,1024,1024,1024,1024,35.1,-89.9,97,3.966,3.98,3.964,3.994,3.992,3.983,18.772,84.2,14,Waypoint,
38.5568507,-120.5320705,3963.5380287361,208.989508,0,1.59842196716,27100,2018-06-20 21:32:28,16,0,23.865,3963.5380287361,208.989508,0.3131716,1.99835308232,0,0,-0.671082,36.2, 1.3, -1.8,0,0,1024,1024,1024,1024,35.1,-90,97,3.966,3.98,3.964,3.994,3.992,3.983,18.772,84.2,14,Waypoint,
38.5568506,-120.5320704,3964.5222807361,209.97376,0,1.55233928852,27200,2018-06-20 21:32:28,16,0,23.865,3964.5222807361,209.97376,0.3131716,1.99835308232,0,0,-0.671082,36.1, 1, -2,0,0,1024,1024,1024,1024,35.1,-89.9,97,3.966,3.98,3.964,3.994,3.992,3.983,18.772,84.2,14,Waypoint,
38.5568506,-120.5320703,3965.5065327361,210.958012,0.223694,1.537319603,27300,2018-06-20 21:32:28,16,0,23.865,3965.5065327361,210.958012,0.3131716,1.99835308232,0,0,-0.671082,35.8, 0.8, -1.5,0,0,1024,1024,1024,1024,35.1,-89.9,97,3.966,3.98,3.964,3.994,3.992,3.983,18.772,84.2,14,Waypoint,
