latitude,longitude,altitude(feet),ascent(feet),speed(mph),distance(feet),time(millisecond),datetime(utc),satellites,gpslevel,voltage(v),max_altitude(feet),max_ascent(feet),max_speed(mph),max_distance(feet), xSpeed(mph), ySpeed(mph), zSpeed(mph), compass_heading(degrees), pitch(degrees), roll(degrees),isPhoto,isVideo,rc_elevator,rc_aileron,rc_throttle,rc_rudder,gimbal_heading(degrees),gimbal_pitch(degrees),battery_percent,voltageCell1,voltageCell2,voltageCell3,voltageCell4,voltageCell5,voltageCell6,current(A),battery_temperature(f),flycStateRaw,flycState,message
38.5568335,-120.5320909,3753.7427287156,0,0.3131716,0,3000,2018-06-20 21:13:40,10,0,25.655,3753.7427287156,0,0.3131716,0,0,0,0,26.2, -0.5, -0.9,1,0,1024,1024,1024,1024,25,-89.9,98,4.29,4.231,4.294,4.275,4.296,4.241,3.256,82.4,11,AutoTakeoff,DJI_0760.jpg Starting Mission from Lat/Long: 38.55683/-120.53209 Camera: Zenmuse X3 - Overlap: 90/90 - Active Connection: No
38.5568337,-120.532091,3753.7427287156,0,0.3131716,0.078349411956,3100,2018-06-20 21:13:40,10,0,25.655,3753.7427287156,0,0.3131716,0.078349411956,0,0,0,26.3, -0.4, 0,0,0,1024,1024,1024,1024,25,-89.9,98,4.29,4.231,4.294,4.275,4.296,4.241,3.256,82.4,11,AutoTakeoff,
38.5568339,-120.5320912,3753.7427287156,0,0.3131716,0.169187669456,3200,2018-06-20 21:13:40,10,0,25.655,3753.7427287156,0,0.3131716,0.169187669456,0,0,0,26.3, 0, 0.3,0,0,1024,1024,1024,1024,25,-89.9,98,4.29,4.231,4.294,4.275,4.296,4.241,3.256,82.4,11,AutoTakeoff,
38.5568341,-120.5320914,3754.0708127156,0.328084,0.3131716,0.261288394188,3300,2018-06-20 21:13:40,10,0,25.655,3754.0708127156,0.328084,0.3131716,0.261288394188,0,0,0,26.3, 0.3, 0.5,0,0,1024,1024,1024,1024,25,-89.9,98,4.29,4.231,4.294,4.275,4.296,4.241,3.256,82.4,11,AutoTakeoff,
38.5568343,-120.5320916,3754.0708127156,0.328084,0.3131716,0.35366799032,3400,2018-06-20 21:13:40,10,0,25.655,3754.0708127156,0.328084,0.3131716,0.35366799032,0,0,0,26.2, 0.5, 1,0,0,1024,1024,1024,1024,25,-89.9,98,4.29,4.231,4.294,4.275,4.296,4.241,3.256,82.4,11,AutoTakeoff,
38.5568345,-120.5320918,3754.3988967156,0.656168,0.3131716,0.44615158908,3500,2018-06-20 21:13:40,10,0,25.655,3754.3988967156,0.656168,0.3131716,0.44615158908,0,0,0,26.1, 0.8, 1.7,0,0,1024,1024,1024,1024,25,-89.9,98,4.29,4.231,4.294,4.275,4.296,4.241,3.256,82.4,11,AutoTakeoff,
38.5568348,-120.5320923,3754.7269807156,0.984252,0.3131716,0.62008860252,3600,2018-06-20 21:13:40,10,0,25.655,3754.7269807156,0.984252,0.3131716,0.62008860252,0,0,0,26, 0.9, 2.6,0,0,1024,1024,1024,1024,25,-89.9,98,4.29,4.231,4.294,4.275,4.296,4.241,3.256,82.4,11,AutoTakeoff,
38.5568352,-120.5320926,3755.0550647156,1.312336,0.3131716,0.7873687916,3800,2018-06-20 21:13:41,10,0,25.655,3755.0550647156,1.312336,0.3131716,0.7873687916,0,0,0,26, 0.7, 2.6,0,0,1024,1024,1024,1024,25,-89.9,98,4.29,4.231,4.294,4.275,4.296,4.241,3.256,82.4,11,AutoTakeoff,
38.5568353,-120.5320927,3755.0550647156,1.312336,0.223694,0.83368440988,3900,2018-06-20 21:13:41,10,0,25.655,3755.0550647156,1.312336,0.3131716,0.83368440988,0,0,0,26, 0.6, 2.3,0,0,1024,1024,1024,1024,25,-89.9,98,4.29,4.231,4.294,4.275,4.296,4.241,3.256,82.4,11,AutoTakeoff,
38.5568355,-120.5320928,3755.3831487156,1.64042,0.223694,0.90901905796,4000,2018-06-20 21:13:41,10,0,25.655,3755.3831487156,1.64042,0.3131716,0.90901905796,0,0,0,26, 0.6, 1.9,0,0,1024,1024,1024,1024,25,-89.9,98,4.262,4.281,4.26,4.27,4.259,4.27,3.256,82.4,11,AutoTakeoff,
38.5568356,-120.5320928,3755.3831487156,1.64042,0,0.93855974132,4100,2018-06-20 21:13:41,10,0,25.655,3755.3831487156,1.64042,0.3131716,0.93855974132,0,0,0,26, 0.5, 1.4,0,0,1024,1024,1024,1024,25,-89.9,98,4.262,4.281,4.26,4.27,4.259,4.27,3.256,82.4,11,AutoTakeoff,
38.5568357,-120.5320929,3755.7112327156,1.968504,0,0.984826147,4200,2018-06-20 21:13:41,11,0,25.655,3755.7112327156,1.968504,0.3131716,0.984826147,0,0,-0.223694,26, 0.5, 1.2,0,0,1024,1024,1024,1024,25,-89.9,98,4.262,4.281,4.26,4.27,4.259,4.27,3.256,82.4,11,AutoTakeoff,
38.5568358,-120.5320929,3755.7112327156,1.968504,0,1.01478349704,4300,2018-06-20 21:13:41,11,0,25.655,3755.7112327156,1.968504,0.3131716,1.01478349704,0,0,0,26, 0.6, 1.2,0,0,1024,1024,1024,1024,25,-89.9,98,4.262,4.281,4.26,4.27,4.259,4.27,3.256,82.4,11,AutoTakeoff,
38.5568359,-120.532093,3756.0393167156,2.296588,0,1.06100069012,4400,2018-06-20 21:13:41,10,0,25.655,3756.0393167156,2.296588,0.3131716,1.06100069012,0,0,-0.223694,26, 0.7, 1.3,0,0,1024,1024,1024,1024,25,-89.9,98,4.262,4.281,4.26,4.27,4.259,4.27,3.256,82.4,11,AutoTakeoff,
38.5568359,-120.532093,3756.0393167156,2.296588,0,1.06100069012,4500,2018-06-20 21:13:41,10,0,25.655,3756.0393167156,2.296588,0.3131716,1.06100069012,0,0,-0.223694,26, 0.7, 1.3,0,0,1024,1024,1024,1024,25,-89.9,98,4.262,4.281,4.26,4.27,4.259,4.27,3.256,82.4,11,AutoTakeoff,
38.556836,-120.5320931,3756.3674007156,2.624672,0,1.10722772572,4600,2018-06-20 21:13:41,10,0,25.655,3756.3674007156,2.624672,0.3131716,1.10722772572,0,0,0,26, 0.7, 1.3,0,0,1024,1024,1024,1024,25,-89.9,98,4.262,4.281,4.26,4.27,4.259,4.27,3.256,82.4,11,AutoTakeoff,
38.5568361,-120.5320931,3756.3674007156,2.624672,0,1.13747050884,4700,2018-06-20 21:13:42,10,0,25.655,3756.3674007156,2.624672,0.3131716,1.13747050884,0,0,0,26, 0.7, 1.3,0,0,1024,1024,1024,1024,25,-89.9,98,4.262,4.281,4.26,4.27,4.259,4.27,3.256,82.4,11,AutoTakeoff,
38.5568362,-120.5320932,3756.6954847156,2.952756,0,1.18364833184,4800,2018-06-20 21:13:42,10,0,25.655,3756.6954847156,2.952756,0.3131716,1.18364833184,0,0,-0.223694,26, 0.8, 1.4,0,0,1024,1024,1024,1024,25,-89.9,98,4.262,4.281,4.26,4.27,4.259,4.27,3.256,82.4,14,Waypoint,
38.5568362,-120.5320932,3757.0235687156,3.28084,0,1.18364833184,4900,2018-06-20 21:13:42,10,0,25.655,3757.0235687156,3.28084,0.3131716,1.18364833184,0,0,0,26, 1, 1.5,0,0,1024,1024,1024,1024,25,-89.9,98,4.262,4.281,4.26,4.27,4.259,4.27,3.256,82.4,14,Waypoint,
38.5568363,-120.5320933,3757.0235687156,3.28084,0,1.22983271652,5000,2018-06-20 21:13:42,10,0,24.944,3757.0235687156,3.28084,0.3131716,1.22983271652,0,0,0,26, 0.9, 1.4,0,0,1024,1024,1024,1024,25,-89.9,98,4.058,4.09,4.094,4.111,4.107,4.094,16.204,82.4,14,Waypoint,
38.5568363,-120.5320934,3757.0235687156,3.28084,0,1.24594492176,5200,2018-06-20 21:13:42,10,0,24.944,3757.0235687156,3.28084,0.3131716,1.24594492176,0,0,0,26, 0.7, 1.3,0,0,1024,1024,1024,1024,25,-89.9,98,4.058,4.09,4.094,4.111,4.107,4.094,16.204,82.4,14,Waypoint,
38.5568364,-120.5320935,3757.3516527156,3.608924,0,1.29219492324,5300,2018-06-20 21:13:42,10,0,24.944,3757.3516527156,3.608924,0.3131716,1.29219492324,0,0,0,26, 0.5, 1.2,0,0,1024,1024,1024,1024,25,-89.9,98,4.058,4.09,4.094,4.111,4.107,4.094,16.204,82.4,14,Waypoint,
38.5568365,-120.5320937,3757.3516527156,3.608924,0,1.35507222184,5400,2018-06-20 21:13:42,10,0,24.944,3757.3516527156,3.608924,0.3131716,1.35507222184,0,0,0,26, 0.4, 1.3,0,0,1024,1024,1024,1024,25,-90,98,4.058,4.09,4.094,4.111,4.107,4.094,16.204,82.4,14,Waypoint,
38.5568365,-120.5320936,3757.6797367156,3.937008,0,1.3384514864,5500,2018-06-20 21:13:42,10,0,24.944,3757.6797367156,3.937008,0.3131716,1.35507222184,0,0,-0.223694,25.9, 0.2, 1.3,0,0,1024,1024,1024,1024,25,-90,98,4.058,4.09,4.094,4.111,4.107,4.094,16.204,82.4,14,Waypoint,
38.5568365,-120.5320934,3757.6797367156,3.937008,0,1.30644361136,5600,2018-06-20 21:13:42,10,0,24.944,3757.6797367156,3.937008,0.3131716,1.35507222184,0,0,-0.223694,25.9, 0.3, 1.2,0,0,1024,1024,1024,1024,25,-89.9,98,4.058,4.09,4.094,4.111,4.107,4.094,16.204,82.4,14,Waypoint,
38.5568364,-120.5320935,3758.0078207156,4.265092,0,1.29219492324,5700,2018-06-20 21:13:43,10,0,24.944,3758.0078207156,4.265092,0.3131716,1.35507222184,0,0,-0.223694,25.9, 0.4, 1,0,0,1024,1024,1024,1024,25,-89.9,98,4.058,4.09,4.094,4.111,4.107,4.094,16.204,82.4,14,Waypoint,
38.5568364,-120.5320935,3758.3359047156,4.593176,0,1.29219492324,5800,2018-06-20 21:13:43,10,0,24.944,3758.3359047156,4.593176,0.3131716,1.35507222184,0,0,-0.223694,25.9, 0.4, 0.8,0,0,1024,1024,1024,1024,25,-89.9,98,4.058,4.09,4.094,4.111,4.107,4.094,16.204,82.4,14,Waypoint,
38.5568365,-120.5320935,3758.9920727156,5.249344,0,1.32223429428,5900,2018-06-20 21:13:43,10,0,24.944,3758.9920727156,5.249344,0.3131716,1.35507222184,0,0,-0.223694,26, 0.4, 0.8,0,0,1024,1024,1024,1024,25,-89.9,98,4.058,4.09,4.094,4.111,4.107,4.094,16.204,82.4,14,Waypoint,
38.5568366,-120.5320936,3759.3201567156,5.577428,0,1.36844820652,6000,2018-06-20 21:13:43,10,0,24.374,3759.3201567156,5.577428,0.3131716,1.36844820652,0,0,-0.447388,26, 0.4, 0.9,0,0,1024,1024,1024,1024,25,-89.9,98,4.043,4.069,4.064,4.058,4.07,4.08,16.644,82.4,14,Waypoint,
38.5568366,-120.5320937,3759.9763247156,6.233596,0,1.38470804956,6100,2018-06-20 21:13:43,11,0,24.374,3759.9763247156,6.233596,0.3131716,1.38470804956,0,0,-0.447388,26, 0.5, 1.2,0,0,1024,1024,1024,1024,25,-89.9,98,4.043,4.069,4.064,4.058,4.07,4.08,16.644,82.4,14,Waypoint,
38.5568366,-120.5320938,3760.6324927156,6.889764,0,1.4013615934,6200,2018-06-20 21:13:43,11,0,24.374,3760.6324927156,6.889764,0.3131716,1.4013615934,0,0,-0.447388,26.1, 0.5, 1.5,0,0,1024,1024,1024,1024,25,-89.9,98,4.043,4.069,4.064,4.058,4.07,4.08,16.644,82.4,14,Waypoint,
38.5568368,-120.5320938,3762.2729127156,8.530184,0,1.4608924352,6300,2018-06-20 21:13:43,11,0,24.374,3762.2729127156,8.530184,0.3131716,1.4608924352,0,0,-0.447388,26.2, 0.4, 1.8,0,0,1024,1024,1024,1024,25,-89.9,98,4.043,4.069,4.064,4.058,4.07,4.08,16.644,82.4,14,Waypoint,
38.5568369,-120.5320939,3763.2571647156,9.514436,0,1.50712275164,6400,2018-06-20 21:13:43,11,0,24.374,3763.2571647156,9.514436,0.3131716,1.50712275164,0,0,-0.671082,26.3, 0.6, 1.8,0,0,1024,1024,1024,1024,25,-89.9,98,4.043,4.069,4.064,4.058,4.07,4.08,16.644,82.4,14,Waypoint,
38.556837,-120.5320939,3764.2414167156,10.498688,0,1.53729335628,6500,2018-06-20 21:13:43,11,0,24.374,3764.2414167156,10.498688,0.3131716,1.53729335628,0,0,-0.671082,26.3, 0.9, 1.6,0,0,1024,1024,1024,1024,25,-89.9,98,4.043,4.069,4.064,4.058,4.07,4.08,16.644,82.4,14,Waypoint,
38.556837,-120.5320938,3765.2256687156,11.48294,0,1.52159125604,6600,2018-06-20 21:13:43,10,0,24.374,3765.2256687156,11.48294,0.3131716,1.53729335628,0,0,-0.671082,26.3, 1.1, 1.4,0,0,1024,1024,1024,1024,25,-89.9,98,4.043,4.069,4.064,4.058,4.07,4.08,16.644,82.4,14,Waypoint,
38.556837,-120.5320938,3766.2099207156,12.467192,0,1.52159125604,6700,2018-06-20 21:13:44,10,0,24.374,3766.2099207156,12.467192,0.3131716,1.53729335628,0,0,-0.671082,26.3, 1.1, 1.2,0,0,1024,1024,1024,1024,25,-89.9,98,4.043,4.069,4.064,4.058,4.07,4.08,16.644,82.4,14,Waypoint,
38.556837,-120.5320937,3767.5222567156,13.779528,0,1.50626973324,6800,2018-06-20 21:13:44,10,0,24.374,3767.5222567156,13.779528,0.3131716,1.53729335628,0,0,-0.671082,26.2, 1, 1,0,0,1024,1024,1024,1024,25,-89.9,98,4.043,4.069,4.064,4.058,4.07,4.08,16.644,82.4,14,Waypoint,
38.556837,-120.5320937,3768.5065087156,14.76378,0,1.50626973324,6900,2018-06-20 21:13:44,10,0,24.374,3768.5065087156,14.76378,0.3131716,1.53729335628,0,0,-0.671082,26.2, 0.7, 0.8,0,0,1024,1024,1024,1024,25,-89.9,98,4.043,4.069,4.064,4.058,4.07,4.08,16.644,82.4,14,Waypoint,
38.5568369,-120.5320936,3769.8188447156,16.076116,0,1.46021330132,7000,2018-06-20 21:13:44,10,0,24.027,3769.8188447156,16.076116,0.3131716,1.53729335628,0,0,-0.671082,26.2, 0.5, 0.5,0,0,1024,1024,1024,1024,25,-89.9,98,3.972,4.007,3.996,3.982,3.977,4.018,19.25,82.4,14,Waypoint,
38.5568367,-120.5320935,3770.8030967156,17.060368,0,1.38324479492,7100,2018-06-20 21:13:44,10,0,24.027,3770.8030967156,17.060368,0.3131716,1.53729335628,0,0,-0.671082,26.1, 0.3, 0.4,0,0,1024,1024,1024,1024,25,-89.9,98,3.972,4.007,3.996,3.982,3.977,4.018,19.25,82.4,14,Waypoint,
38.5568367,-120.5320934,3771.7873487156,18.04462,0,1.36815621176,7200,2018-06-20 21:13:44,10,0,24.027,3771.7873487156,18.04462,0.3131716,1.53729335628,0,0,-0.671082,26.1, 0.2, 0.2,0,0,1024,1024,1024,1024,25,-90,98,3.972,4.007,3.996,3.982,3.977,4.018,19.25,82.4,14,Waypoint,
38.5568367,-120.5320933,3773.0996847156,19.356956,0,1.35350069948,7400,2018-06-20 21:13:44,10,0,24.027,3773.0996847156,19.356956,0.3131716,1.53729335628,0,0,-0.671082,26.1, 0.2, 0.1,0,0,1024,1024,1024,1024,25,-89.9,98,3.972,4.007,3.996,3.982,3.977,4.018,19.25,82.4,14,Waypoint,
38.5568366,-120.5320933,3774.0839367156,20.341208,0,1.32215883496,7500,2018-06-20 21:13:44,10,0,24.027,3774.0839367156,20.341208,0.3131716,1.53729335628,0,0,-0.671082,26.1, 0.3, 0.1,0,0,1024,1024,1024,1024,25,-89.9,98,3.972,4.007,3.996,3.982,3.977,4.018,19.25,82.4,14,Waypoint,
38.5568364,-120.5320932,3775.0681887156,21.32546,0,1.24503284824,7600,2018-06-20 21:13:44,10,0,24.027,3775.0681887156,21.32546,0.3131716,1.53729335628,0,0,-0.671082,26.1, 0.3, 0.1,0,0,1024,1024,1024,1024,25,-89.9,98,3.972,4.007,3.996,3.982,3.977,4.018,19.25,82.4,14,Waypoint,
38.5568364,-120.5320932,3776.3805247156,22.637796,0,1.24503284824,7700,2018-06-20 21:13:45,10,0,24.027,3776.3805247156,22.637796,0.3131716,1.53729335628,0,0,-0.671082,26.1, 0.2, 0.1,0,0,1024,1024,1024,1024,25,-90,98,3.972,4.007,3.996,3.982,3.977,4.018,19.25,82.4,14,Waypoint,
38.5568364,-120.5320933,3777.3647767156,23.622048,0,1.26030515844,7800,2018-06-20 21:13:45,10,0,24.027,3777.3647767156,23.622048,0.3131716,1.53729335628,0,0,-0.671082,26.1, 0.2, 0.3,0,0,1024,1024,1024,1024,25,-89.9,98,3.972,4.007,3.996,3.982,3.977,4.018,19.25,82.4,14,Waypoint,
38.5568363,-120.5320932,3778.3490287156,24.6063,0,1.21417982888,7900,2018-06-20 21:13:45,10,0,24.027,3778.3490287156,24.6063,0.3131716,1.53729335628,0,0,-0.671082,26.1, 0.1, 0.5,0,0,1024,1024,1024,1024,25,-90,98,3.972,4.007,3.996,3.982,3.977,4.018,19.25,82.4,14,Waypoint,
38.5568362,-120.5320931,3779.3332807156,25.590552,0,1.16807090352,8000,2018-06-20 21:13:45,10,0,23.825,3779.3332807156,25.590552,0.3131716,1.53729335628,0,0,-0.671082,26.1, 0.1, 0.5,0,0,1024,1024,1024,1024,25,-90,98,3.942,4.001,3.991,3.973,3.978,4.01,22.751,82.4,14,Waypoint,
38.5568361,-120.5320931,3780.3175327156,26.574804,0,1.13747050884,8100,2018-06-20 21:13:45,10,0,23.825,3780.3175327156,26.574804,0.3131716,1.53729335628,0,0,-0.671082,26.1, 0, 0.3,0,0,1024,1024,1024,1024,25,-90,98,3.942,4.001,3.991,3.973,3.978,4.01,22.751,82.4,14,Waypoint,
38.556836,-120.5320932,3781.6298687156,27.88714,0,1.12364504908,8200,2018-06-20 21:13:45,10,0,23.825,3781.6298687156,27.88714,0.3131716,1.53729335628,0,0,-0.671082,26, -0.3, 0.3,0,0,1024,1024,1024,1024,25,-90,98,3.942,4.001,3.991,3.973,3.978,4.01,22.751,82.4,14,Waypoint,
38.5568359,-120.5320933,3782.6141207156,28.871392,0,1.1115814004,8300,2018-06-20 21:13:45,10,0,23.825,3782.6141207156,28.871392,0.3131716,1.53729335628,0,0,-0.671082,26, -0.4, 0.3,0,0,1024,1024,1024,1024,25,-90,98,3.942,4.001,3.991,3.973,3.978,4.01,22.751,82.4,14,Waypoint,
38.5568359,-120.5320933,3783.5983727156,29.855644,0,1.1115814004,8400,2018-06-20 21:13:45,10,0,23.825,3783.5983727156,29.855644,0.3131716,1.53729335628,0,0,-0.671082,26, -0.5, 0.4,0,0,1024,1024,1024,1024,25,-89.9,98,3.942,4.001,3.991,3.973,3.978,4.01,22.751,82.4,14,Waypoint,
38.5568359,-120.5320933,3784.5826247156,30.839896,0,1.1115814004,8500,2018-06-20 21:13:45,10,0,23.825,3784.5826247156,30.839896,0.3131716,1.53729335628,0,0,-0.671082,26, -0.4, 0.5,0,0,1024,1024,1024,1024,25,-89.9,98,3.942,4.001,3.991,3.973,3.978,4.01,22.751,82.4,14,Waypoint,
38.5568359,-120.5320932,3786.8792127156,33.136484,0,1.09423559932,8600,2018-06-20 21:13:45,10,0,23.825,3786.8792127156,33.136484,0.3131716,1.53729335628,0,0,-0.671082,26, 0.2, 0.5,0,0,1024,1024,1024,1024,25,-89.9,98,3.942,4.001,3.991,3.973,3.978,4.01,22.751,82.4,14,Waypoint,
38.5568359,-120.5320932,3787.8634647156,34.120736,0,1.09423559932,8700,2018-06-20 21:13:46,10,0,23.825,3787.8634647156,34.120736,0.3131716,1.53729335628,0,0,-0.671082,26, 0.3, 0.6,0,0,1024,1024,1024,1024,25,-89.9,98,3.942,4.001,3.991,3.973,3.978,4.01,22.751,82.4,14,Waypoint,
38.5568359,-120.5320932,3788.8477167156,35.104988,0,1.09423559932,8800,2018-06-20 21:13:46,11,0,23.825,3788.8477167156,35.104988,0.3131716,1.53729335628,0,0,-0.671082,26, 0.4, 0.6,0,0,1024,1024,1024,1024,25,-89.9,98,3.942,4.001,3.991,3.973,3.978,4.01,22.751,82.4,14,Waypoint,
38.5568359,-120.5320932,3789.8319687156,36.08924,0,1.09423559932,8900,2018-06-20 21:13:46,11,0,23.825,3789.8319687156,36.08924,0.3131716,1.53729335628,0,0,-0.671082,26.1, 0.4, 0.6,0,0,1024,1024,1024,1024,25,-89.9,98,3.942,4.001,3.991,3.973,3.978,4.01,22.751,82.4,14,Waypoint,
38.5568359,-120.5320931,3790.8162207156,37.073492,0,1.07736880088,9000,2018-06-20 21:13:46,11,0,23.996,3790.8162207156,37.073492,0.3131716,1.53729335628,0,0,-0.671082,26.1, 0.3, 0.5,0,0,1024,1024,1024,1024,25,-89.9,97,3.97,4.008,4.001,4.004,3.993,4.02,19.07,82.4,14,Waypoint,
38.556836,-120.5320931,3791.8004727156,38.057744,0,1.10722772572,9100,2018-06-20 21:13:46,11,0,23.996,3791.8004727156,38.057744,0.3131716,1.53729335628,0,0,-0.671082,26, 0.3, 0.6,0,0,1024,1024,1024,1024,25,-89.9,97,3.97,4.008,4.001,4.004,3.993,4.02,19.07,82.4,14,Waypoint,
38.556836,-120.5320932,3792.7847247156,39.041996,0,1.12364504908,9200,2018-06-20 21:13:46,11,0,23.996,3792.7847247156,39.041996,0.3131716,1.53729335628,0,0,-0.671082,26, 0.3, 0.5,0,0,1024,1024,1024,1024,25,-89.9,97,3.97,4.008,4.001,4.004,3.993,4.02,19.07,82.4,14,Waypoint,
38.5568359,-120.5320932,3793.7689767156,40.026248,0,1.09423559932,9300,2018-06-20 21:13:46,11,0,23.996,3793.7689767156,40.026248,0.3131716,1.53729335628,0,0,-0.671082,26, 0.3, 0.6,0,0,1024,1024,1024,1024,25,-89.9,97,3.97,4.008,4.001,4.004,3.993,4.02,19.07,82.4,14,Waypoint,
38.556836,-120.5320932,3794.7532287156,41.0105,0,1.12364504908,9410,2018-06-20 21:13:46,11,0,23.996,3794.7532287156,41.0105,0.3131716,1.53729335628,0,0,-0.671082,26, 0.2, 0.7,0,0,1024,1024,1024,1024,25,-89.9,97,3.97,4.008,4.001,4.004,3.993,4.02,19.07,82.4,14,Waypoint,
38.556836,-120.5320932,3795.7374807156,41.994752,0,1.12364504908,9500,2018-06-20 21:13:46,11,0,23.996,3795.7374807156,41.994752,0.3131716,1.53729335628,0,0,-0.671082,26, 0.2, 0.7,0,0,1024,1024,1024,1024,25,-89.9,97,3.97,4.008,4.001,4.004,3.993,4.02,19.07,82.4,14,Waypoint,
38.556836,-120.5320932,3796.7217327156,42.979004,0,1.12364504908,9600,2018-06-20 21:13:46,11,0,23.996,3796.7217327156,42.979004,0.3131716,1.53729335628,0,0,-0.671082,26, 0.3, 0.7,0,0,1024,1024,1024,1024,25,-89.9,97,3.97,4.008,4.001,4.004,3.993,4.02,19.07,82.4,14,Waypoint,
38.5568359,-120.5320931,3797.7059847156,43.963256,0,1.07736880088,9700,2018-06-20 21:13:47,11,0,23.996,3797.7059847156,43.963256,0.3131716,1.53729335628,0,0,-0.671082,25.9, 0.3, 0.6,0,0,1024,1024,1024,1024,25,-89.9,97,3.97,4.008,4.001,4.004,3.993,4.02,19.07,82.4,14,Waypoint,
38.556836,-120.532093,3798.6902367156,44.947508,0,1.0913058092,9800,2018-06-20 21:13:47,10,0,23.996,3798.6902367156,44.947508,0.3131716,1.53729335628,0,0,-0.671082,25.9, 0.4, 0.4,0,0,1024,1024,1024,1024,25,-89.9,97,3.97,4.008,4.001,4.004,3.993,4.02,19.07,82.4,14,Waypoint,
38.5568361,-120.532093,3799.6744887156,45.93176,0,1.12197838236,10000,2018-06-20 21:13:47,10,0,23.999,3799.6744887156,45.93176,0.3131716,1.53729335628,0,0,-0.671082,25.9, 0.8, 0.3,0,0,1024,1024,1024,1024,25,-89.9,97,3.975,4.001,4.004,3.988,3.998,4.019,18.641,82.4,14,Waypoint,
38.5568361,-120.5320929,3800.6587407156,46.916012,0,1.1070046286,10100,2018-06-20 21:13:47,10,0,23.999,3800.6587407156,46.916012,0.3131716,1.53729335628,0,0,-0.671082,26, 1, 0.3,0,0,1024,1024,1024,1024,25,-89.9,97,3.975,4.001,4.004,3.988,3.998,4.019,18.641,82.4,14,Waypoint,
38.5568361,-120.5320929,3801.6429927156,47.900264,0,1.1070046286,10200,2018-06-20 21:13:47,10,0,23.999,3801.6429927156,47.900264,0.3131716,1.53729335628,0,0,-0.671082,26, 1, 0.4,0,0,1024,1024,1024,1024,25,-89.9,97,3.975,4.001,4.004,3.988,3.998,4.019,18.641,82.4,14,Waypoint,
38.5568362,-120.5320928,3802.6272447156,48.884516,0,1.12439636144,10300,2018-06-20 21:13:47,10,0,23.999,3802.6272447156,48.884516,0.3131716,1.53729335628,0,0,-0.671082,26, 0.8, 0.4,0,0,1024,1024,1024,1024,25,-89.9,97,3.975,4.001,4.004,3.988,3.998,4.019,18.641,82.4,14,Waypoint,
38.5568362,-120.5320928,3803.6114967156,49.868768,0,1.12439636144,10400,2018-06-20 21:13:47,10,0,23.999,3803.6114967156,49.868768,0.3131716,1.53729335628,0,0,-0.671082,26, 0.8, 0.3,0,0,1024,1024,1024,1024,25,-89.9,97,3.975,4.001,4.004,3.988,3.998,4.019,18.641,82.4,14,Waypoint,
38.5568362,-120.5320928,3804.5957487156,50.85302,0,1.12439636144,10500,2018-06-20 21:13:47,10,0,23.999,3804.5957487156,50.85302,0.3131716,1.53729335628,0,0,-0.671082,26, 0.7, 0.4,0,0,1024,1024,1024,1024,25,-89.9,97,3.975,4.001,4.004,3.988,3.998,4.019,18.641,82.4,14,Waypoint,
38.5568362,-120.5320929,3805.5800007156,51.837272,0,1.13842523328,10600,2018-06-20 21:13:47,10,0,23.999,3805.5800007156,51.837272,0.3131716,1.53729335628,0,0,-0.671082,26, 0.8, 0.4,0,0,1024,1024,1024,1024,25,-89.9,97,3.975,4.001,4.004,3.988,3.998,4.019,18.641,82.4,14,Waypoint,
38.5568363,-120.5320929,3807.5485047156,53.805776,0,1.17014111356,10700,2018-06-20 21:13:48,10,0,23.999,3807.5485047156,53.805776,0.3131716,1.53729335628,0,0,-0.671082,26.1, 0.9, 0.5,0,0,1024,1024,1024,1024,25,-89.9,97,3.975,4.001,4.004,3.988,3.998,4.019,18.641,82.4,14,Waypoint,
38.5568364,-120.5320929,3808.5327567156,54.790028,0,1.20212274188,10800,2018-06-20 21:13:48,10,0,23.999,3808.5327567156,54.790028,0.3131716,1.53729335628,0,0,-0.671082,26.1, 1, 0.5,0,0,1024,1024,1024,1024,25,-89.9,97,3.975,4.001,4.004,3.988,3.998,4.019,18.641,82.4,14,Waypoint,
38.5568364,-120.5320928,3809.5170087156,55.77428,0,1.1888451824,10900,2018-06-20 21:13:48,10,0,23.999,3809.5170087156,55.77428,0.3131716,1.53729335628,0,0,-0.671082,26, 1.1, 0.5,0,0,1024,1024,1024,1024,25,-89.9,97,3.975,4.001,4.004,3.988,3.998,4.019,18.641,82.4,14,Waypoint,
38.5568364,-120.5320928,3810.5012607156,56.758532,0,1.1888451824,11000,2018-06-20 21:13:48,11,0,23.95,3810.5012607156,56.758532,0.3131716,1.53729335628,0,0,-0.671082,26, 1.1, 0.3,0,0,1024,1024,1024,1024,25,-89.9,97,3.972,4.002,3.998,3.982,3.989,4.009,19.131,82.4,14,Waypoint,
38.5568365,-120.5320927,3811.4855127156,57.742784,0,1.2090387526,11100,2018-06-20 21:13:48,11,0,23.95,3811.4855127156,57.742784,0.3131716,1.53729335628,0,0,-0.671082,26, 0.9, 0.3,0,0,1024,1024,1024,1024,25,-89.9,97,3.972,4.002,3.998,3.982,3.989,4.009,19.131,82.4,14,Waypoint,
38.5568365,-120.5320927,3812.4697647156,58.727036,0,1.2090387526,11200,2018-06-20 21:13:48,11,0,23.95,3812.4697647156,58.727036,0.3131716,1.53729335628,0,0,-0.671082,26.1, 1, 0.4,0,0,1024,1024,1024,1024,25,-89.9,97,3.972,4.002,3.998,3.982,3.989,4.009,19.131,82.4,14,Waypoint,
38.5568365,-120.5320927,3813.4540167156,59.711288,0,1.2090387526,11300,2018-06-20 21:13:48,11,0,23.95,3813.4540167156,59.711288,0.3131716,1.53729335628,0,0,-0.671082,26.1, 0.9, 0.4,0,0,1024,1024,1024,1024,25,-89.9,97,3.972,4.002,3.998,3.982,3.989,4.009,19.131,82.4,14,Waypoint,
38.5568365,-120.5320928,3814.4382687156,60.69554,0,1.22143048528,11400,2018-06-20 21:13:48,11,0,23.95,3814.4382687156,60.69554,0.3131716,1.53729335628,0,0,-0.671082,26.1, 0.9, 0.5,0,0,1024,1024,1024,1024,25,-89.9,97,3.972,4.002,3.998,3.982,3.989,4.009,19.131,82.4,14,Waypoint,
38.5568366,-120.5320928,3815.4225207156,61.679792,0,1.25422904276,11500,2018-06-20 21:13:48,11,0,23.95,3815.4225207156,61.679792,0.3131716,1.53729335628,0,0,-0.671082,26.1, 1.1, 0.5,0,0,1024,1024,1024,1024,25,-89.9,97,3.972,4.002,3.998,3.982,3.989,4.009,19.131,82.4,14,Waypoint,
38.5568367,-120.5320928,3816.4067727156,62.664044,0,1.28722773148,11600,2018-06-20 21:13:48,11,0,23.95,3816.4067727156,62.664044,0.3131716,1.53729335628,0,0,-0.671082,26.1, 1.3, 0.4,0,0,1024,1024,1024,1024,25,-89.9,97,3.972,4.002,3.998,3.982,3.989,4.009,19.131,82.4,14,Waypoint,
38.5568367,-120.5320928,3817.3910247156,63.648296,0,1.28722773148,11700,2018-06-20 21:13:49,11,0,23.95,3817.3910247156,63.648296,0.3131716,1.53729335628,0,0,-0.671082,26.1, 1.5, 0.5,0,0,1024,1024,1024,1024,25,-89.9,97,3.972,4.002,3.998,3.982,3.989,4.009,19.131,82.4,14,Waypoint,
38.5568368,-120.5320928,3818.3752767156,64.632548,0,1.32041014724,11800,2018-06-20 21:13:49,11,0,23.95,3818.3752767156,64.632548,0.3131716,1.53729335628,0,0,-0.671082,26.1, 1.5, 0.5,0,0,1024,1024,1024,1024,25,-89.9,97,3.972,4.002,3.998,3.982,3.989,4.009,19.131,82.4,14,Waypoint,
38.5568369,-120.5320928,3819.3595287156,65.6168,0,1.35375988584,11900,2018-06-20 21:13:49,11,0,23.95,3819.3595287156,65.6168,0.3131716,1.53729335628,0,0,-0.671082,26.2, 1.5, 0.6,0,0,1024,1024,1024,1024,25,-89.9,97,3.972,4.002,3.998,3.982,3.989,4.009,19.131,82.4,14,Waypoint,
38.5568369,-120.5320929,3820.3437807156,66.601052,0,1.3654363954,12100,2018-06-20 21:13:49,11,0,23.95,3820.3437807156,66.601052,0.3131716,1.53729335628,0,0,-0.671082,26.1, 1.3, 0.7,0,0,1024,1024,1024,1024,25,-89.9,97,3.972,4.002,3.998,3.982,3.989,4.009,19.131,82.4,14,Waypoint,
38.556837,-120.5320929,3822.3122847156,68.569556,0,1.39866474292,12200,2018-06-20 21:13:49,12,0,23.95,3822.3122847156,68.569556,0.3131716,1.53729335628,0,0,-0.671082,26, 1, 0.8,0,0,1024,1024,1024,1024,25,-89.9,97,3.972,4.002,3.998,3.982,3.989,4.009,19.131,82.4,14,Waypoint,
38.556837,-120.5320929,3823.2965367156,69.553808,0,1.39866474292,12400,2018-06-20 21:13:49,12,0,23.95,3823.2965367156,69.553808,0.3131716,1.53729335628,0,0,-0.671082,25.9, 1, 0.8,0,0,1024,1024,1024,1024,25,-89.9,97,3.972,4.002,3.998,3.982,3.989,4.009,19.131,82.4,14,Waypoint,
38.5568371,-120.5320929,3824.2807887156,70.53806,0,1.4320538516,12500,2018-06-20 21:13:49,11,0,23.95,3824.2807887156,70.53806,0.3131716,1.53729335628,0,0,-0.671082,25.8, 1.1, 0.7,0,0,1024,1024,1024,1024,25,-89.9,97,3.972,4.002,3.998,3.982,3.989,4.009,19.131,82.4,14,Waypoint,
38.5568371,-120.5320929,3825.2650407156,71.522312,0,1.4320538516,12600,2018-06-20 21:13:49,11,0,23.95,3825.2650407156,71.522312,0.3131716,1.53729335628,0,0,-0.671082,25.7, 1.2, 0.8,0,0,1024,1024,1024,1024,25,-89.9,97,3.972,4.002,3.998,3.982,3.989,4.009,19.131,82.4,14,Waypoint,
38.5568371,-120.532093,3826.2492927156,72.506564,0,1.44365818268,12700,2018-06-20 21:13:50,12,0,23.95,3826.2492927156,72.506564,0.3131716,1.53729335628,0,0,-0.671082,25.7, 1.6, 0.8,0,0,1024,1024,1024,1024,25,-89.9,97,3.972,4.002,3.998,3.982,3.989,4.009,19.131,82.4,14,Waypoint,
38.5568372,-120.532093,3827.2335447156,73.490816,0,1.47692918112,12800,2018-06-20 21:13:50,12,0,23.95,3827.2335447156,73.490816,0.3131716,1.53729335628,0,0,-0.671082,25.9, 1.7, 0.6,0,0,1024,1024,1024,1024,25,-89.9,97,3.972,4.002,3.998,3.982,3.989,4.009,19.131,82.4,14,Waypoint,
38.5568373,-120.5320931,3829.2020487156,75.45932,0,1.52189309332,12900,2018-06-20 21:13:50,12,0,23.95,3829.2020487156,75.45932,0.3131716,1.53729335628,0,0,-0.671082,26.1, 1.3, 1.2,0,0,1024,1024,1024,1024,25,-89.9,97,3.972,4.002,3.998,3.982,3.989,4.009,19.131,82.4,14,Waypoint,
38.5568373,-120.5320931,3830.1863007156,76.443572,0,1.52189309332,13000,2018-06-20 21:13:50,14,0,23.905,3830.1863007156,76.443572,0.3131716,1.53729335628,0,0,-0.671082,26.1, 1.6, 1.2,0,0,1024,1024,1024,1024,25,-89.9,97,3.957,3.987,3.996,3.971,3.988,3.998,19.083,82.4,14,Waypoint,
38.5568373,-120.532093,3831.1705527156,77.427824,0,1.5103510982,13200,2018-06-20 21:13:50,14,0,23.905,3831.1705527156,77.427824,0.3131716,1.53729335628,0,0,-0.671082,26, 1.8, 1,0,0,1024,1024,1024,1024,25,-89.9,97,3.957,3.987,3.996,3.971,3.988,3.998,19.083,82.4,14,Waypoint,
38.5568373,-120.532093,3832.1548047156,78.412076,0,1.5103510982,13300,2018-06-20 21:13:50,14,0,23.905,3832.1548047156,78.412076,0.3131716,1.53729335628,0,0,-0.671082,26, 1.8, 0.7,0,0,1024,1024,1024,1024,25,-89.9,97,3.957,3.987,3.996,3.971,3.988,3.998,19.083,82.4,14,Waypoint,
38.5568373,-120.532093,3834.1233087156,80.38058,0,1.5103510982,13400,2018-06-20 21:13:50,14,0,23.905,3834.1233087156,80.38058,0.3131716,1.53729335628,0,0,-0.671082,26.1, 1.5, 0.2,0,0,1024,1024,1024,1024,25,-89.9,97,3.957,3.987,3.996,3.971,3.988,3.998,19.083,82.4,14,Waypoint,
38.5568373,-120.532093,3836.0918127156,82.349084,0,1.5103510982,13600,2018-06-20 21:13:50,14,0,23.905,3836.0918127156,82.349084,0.3131716,1.53729335628,0,0,-0.671082,26.1, 1.3, 0,0,0,1024,1024,1024,1024,25,-89.9,97,3.957,3.987,3.996,3.971,3.988,3.998,19.083,82.4,14,Waypoint,
38.5568372,-120.532093,3837.0760647156,83.333336,0,1.47692918112,13700,2018-06-20 21:13:51,14,0,23.905,3837.0760647156,83.333336,0.3131716,1.53729335628,0,0,-0.671082,26.1, 1.2, 0,0,0,1024,1024,1024,1024,25,-90,97,3.957,3.987,3.996,3.971,3.988,3.998,19.083,82.4,14,Waypoint,
38.5568372,-120.532093,3838.0603167156,84.317588,0,1.47692918112,13800,2018-06-20 21:13:51,13,0,23.905,3838.0603167156,84.317588,0.3131716,1.53729335628,0,0,-0.671082,26.1, 1.1, 0.1,0,0,1024,1024,1024,1024,25,-89.9,97,3.957,3.987,3.996,3.971,3.988,3.998,19.083,82.4,14,Waypoint,
38.5568372,-120.532093,3839.0445687156,85.30184,0,1.47692918112,13900,2018-06-20 21:13:51,13,0,23.905,3839.0445687156,85.30184,0.3131716,1.53729335628,0,0,-0.671082,26.1, 1.2, 0.3,0,0,1024,1024,1024,1024,25,-89.9,97,3.957,3.987,3.996,3.971,3.988,3.998,19.083,82.4,14,Waypoint,
38.5568371,-120.5320931,3840.0288207156,86.286092,0,1.45573167388,14000,2018-06-20 21:13:51,14,0,23.853,3840.0288207156,86.286092,0.3131716,1.53729335628,0,0,-0.671082,26.1, 1.1, 0.5,0,0,1024,1024,1024,1024,25,-89.9,97,3.957,3.987,3.996,3.971,3.988,3.998,19.672,82.4,14,Waypoint,
38.5568371,-120.5320931,3841.3411567156,87.598428,0,1.45573167388,14100,2018-06-20 21:13:51,14,0,23.853,3841.3411567156,87.598428,0.3131716,1.53729335628,0,0,-0.671082,26.1, 1, 0.6,0,0,1024,1024,1024,1024,25,-89.9,97,3.957,3.987,3.996,3.971,3.988,3.998,19.672,82.4,14,Waypoint,
38.5568371,-120.5320931,3842.3254087156,88.58268,0,1.45573167388,14200,2018-06-20 21:13:51,14,0,23.853,3842.3254087156,88.58268,0.3131716,1.53729335628,0,0,-0.671082,26.2, 0.9, 0.5,0,0,1024,1024,1024,1024,25,-90,97,3.957,3.987,3.996,3.971,3.988,3.998,19.672,82.4,14,Waypoint,
38.556837,-120.5320932,3844.2939127156,90.551184,0,1.4357119882,14400,2018-06-20 21:13:51,14,0,23.853,3844.2939127156,90.551184,0.3131716,1.53729335628,0,0,-0.671082,26.2, 0.8, 0.7,0,0,1024,1024,1024,1024,25,-89.9,97,3.957,3.987,3.996,3.971,3.988,3.998,19.672,82.4,14,Waypoint,
38.556837,-120.5320933,3845.2781647156,91.535436,0,1.44897642432,14500,2018-06-20 21:13:51,14,0,23.853,3845.2781647156,91.535436,0.3131716,1.53729335628,0,0,-0.671082,26.2, 0.8, 0.6,0,0,1024,1024,1024,1024,25,-90,97,3.957,3.987,3.996,3.971,3.988,3.998,19.672,82.4,14,Waypoint,
38.5568369,-120.5320933,3846.2624167156,92.519688,0,1.41692589836,14600,2018-06-20 21:13:51,14,0,23.853,3846.2624167156,92.519688,0.3131716,1.53729335628,0,0,-0.671082,26.3, 0.7, 0.8,0,0,1024,1024,1024,1024,25,-90,97,3.957,3.987,3.996,3.971,3.988,3.998,19.672,82.4,14,Waypoint,
38.5568369,-120.5320933,3847.2466687156,93.50394,0,1.41692589836,14700,2018-06-20 21:13:52,14,0,23.853,3847.2466687156,93.50394,0.3131716,1.53729335628,0,0,-0.671082,26.3, 0.7, 0.7,0,0,1024,1024,1024,1024,25,-90,97,3.957,3.987,3.996,3.971,3.988,3.998,19.672,82.4,14,Waypoint,
38.5568368,-120.5320934,3848.2309207156,94.488192,0,1.39942261696,14900,2018-06-20 21:13:52,14,0,23.853,3848.2309207156,94.488192,0.3131716,1.53729335628,0,0,-0.671082,26.3, 0.7, 0.7,0,0,1024,1024,1024,1024,25,-90,97,3.957,3.987,3.996,3.971,3.988,3.998,19.672,82.4,14,Waypoint,
38.5568368,-120.5320934,3849.2151727156,95.472444,0,1.39942261696,15000,2018-06-20 21:13:52,14,0,23.853,3849.2151727156,95.472444,0.3131716,1.53729335628,0,0,-0.671082,26.3, 0.5, 0.7,0,0,1024,1024,1024,1024,25,-90,97,3.941,3.983,3.97,3.95,3.964,3.992,19.672,82.4,14,Waypoint,
38.5568367,-120.5320935,3850.1994247156,96.456696,0,1.38324479492,15100,2018-06-20 21:13:52,14,0,23.853,3850.1994247156,96.456696,0.3131716,1.53729335628,0,0,-0.671082,26.2, 0.2, 1,0,0,1024,1024,1024,1024,25,-90,97,3.941,3.983,3.97,3.95,3.964,3.992,19.672,82.4,14,Waypoint,
38.5568366,-120.5320935,3851.1836767156,97.440948,0,1.3525919068,15200,2018-06-20 21:13:52,14,0,23.853,3851.1836767156,97.440948,0.3131716,1.53729335628,0,0,-0.671082,26.1, 0.1, 1.1,0,0,1024,1024,1024,1024,25,-90,97,3.941,3.983,3.97,3.95,3.964,3.992,19.672,82.4,14,Waypoint,
38.5568366,-120.5320935,3852.1679287156,98.4252,0,1.3525919068,15300,2018-06-20 21:13:52,14,0,23.853,3852.1679287156,98.4252,0.3131716,1.53729335628,0,0,-0.671082,26, 0.2, 1,0,0,1024,1024,1024,1024,25,-89.9,97,3.941,3.983,3.97,3.95,3.964,3.992,19.672,82.4,14,Waypoint,
38.5568366,-120.5320936,3853.1521807156,99.409452,0,1.36844820652,15400,2018-06-20 21:13:52,14,0,23.853,3853.1521807156,99.409452,0.3131716,1.53729335628,0,0,-0.671082,26, 0.3, 1.1,0,0,1024,1024,1024,1024,25,-89.9,97,3.941,3.983,3.97,3.95,3.964,3.992,19.672,82.4,14,Waypoint,
38.5568366,-120.5320936,3854.1364327156,100.393704,0,1.36844820652,15500,2018-06-20 21:13:52,14,0,23.853,3854.1364327156,100.393704,0.3131716,1.53729335628,0,0,-0.671082,26.1, 0.3, 1,0,0,1024,1024,1024,1024,25,-90,97,3.941,3.983,3.97,3.95,3.964,3.992,19.672,82.4,14,Waypoint,
38.5568366,-120.5320937,3855.1206847156,101.377956,0,1.38470804956,15600,2018-06-20 21:13:52,14,0,23.853,3855.1206847156,101.377956,0.3131716,1.53729335628,0,0,-0.671082,26.3, 0.2, 0.7,0,0,1024,1024,1024,1024,25,-89.9,97,3.941,3.983,3.97,3.95,3.964,3.992,19.672,82.4,14,Waypoint,
38.5568366,-120.5320938,3856.1049367156,102.362208,0,1.4013615934,15700,2018-06-20 21:13:53,16,0,23.853,3856.1049367156,102.362208,0.3131716,1.53729335628,0,0,-0.671082,26.5, 0.2, 0.8,0,0,1024,1024,1024,1024,25,-89.9,97,3.941,3.983,3.97,3.95,3.964,3.992,19.672,82.4,14,Waypoint,
38.5568367,-120.532094,3858.0734407156,104.330712,0,1.46470477128,15800,2018-06-20 21:13:53,16,0,23.853,3858.0734407156,104.330712,0.3131716,1.53729335628,0,0,-0.671082,26.5, 0.7, 1.9,0,0,1024,1024,1024,1024,25,-89.9,97,3.941,3.983,3.97,3.95,3.964,3.992,19.672,82.4,14,Waypoint,
38.5568367,-120.532094,3859.0576927156,105.314964,0,1.46470477128,15900,2018-06-20 21:13:53,16,0,23.853,3859.0576927156,105.314964,0.3131716,1.53729335628,0,0,-0.671082,26.4, 0.9, 2.3,0,0,1024,1024,1024,1024,25,-89.9,97,3.941,3.983,3.97,3.95,3.964,3.992,19.672,82.4,14,Waypoint,
38.5568368,-120.5320941,3860.0419447156,106.299216,0,1.51101710872,16000,2018-06-20 21:13:53,16,0,23.747,3860.0419447156,106.299216,0.3131716,1.53729335628,0,0,-0.671082,26.3, 1.1, 2.4,0,0,1024,1024,1024,1024,25,-89.9,97,3.935,3.976,3.977,3.959,3.965,3.982,20.255,82.4,14,Waypoint,
38.5568369,-120.5320942,3861.0261967156,107.283468,0,1.55732616532,16100,2018-06-20 21:13:53,16,0,23.747,3861.0261967156,107.283468,0.3131716,1.55732616532,0,0,-0.671082,26.2, 1.2, 2.6,0,0,1024,1024,1024,1024,25,-89.9,97,3.935,3.976,3.977,3.959,3.965,3.982,20.255,82.4,14,Waypoint,
38.5568369,-120.5320943,3862.0104487156,108.26772,0,1.57474086404,16200,2018-06-20 21:13:53,17,0,23.747,3862.0104487156,108.26772,0.3131716,1.57474086404,0,0,-0.671082,26, 1.2, 3,0,0,1024,1024,1024,1024,25,-89.9,97,3.935,3.976,3.977,3.959,3.965,3.982,20.255,82.4,14,Waypoint,
38.5568369,-120.5320943,3862.9947007156,109.251972,0,1.57474086404,16300,2018-06-20 21:13:53,17,0,23.747,3862.9947007156,109.251972,0.3131716,1.57474086404,0,0,-0.671082,25.7, 1.2, 3,0,0,1024,1024,1024,1024,25,-89.9,97,3.935,3.976,3.977,3.959,3.965,3.982,20.255,82.4,14,Waypoint,
38.556837,-120.5320943,3863.9789527156,110.236224,0,1.60363850276,16400,2018-06-20 21:13:53,17,0,23.747,3863.9789527156,110.236224,0.3131716,1.60363850276,0,0,-0.671082,25.5, 0.9, 2.7,0,0,1024,1024,1024,1024,25,-90,97,3.935,3.976,3.977,3.959,3.965,3.982,20.255,82.4,14,Waypoint,
38.556837,-120.5320944,3864.6351207156,110.892392,0,1.62105648232,16510,2018-06-20 21:13:53,17,0,23.747,3864.6351207156,110.892392,0.3131716,1.62105648232,0,0,-0.671082,25.4, 0.8, 2.4,0,0,1024,1024,1024,1024,25,-90,97,3.935,3.976,3.977,3.959,3.965,3.982,20.255,82.4,14,Waypoint,
38.5568371,-120.5320944,3865.6193727156,111.876644,0,1.6499508402,16600,2018-06-20 21:13:53,17,0,23.747,3865.6193727156,111.876644,0.3131716,1.6499508402,0,0,-0.671082,25.4, 0.9, 2.3,0,0,1024,1024,1024,1024,25,-90,97,3.935,3.976,3.977,3.959,3.965,3.982,20.255,82.4,14,Waypoint,
38.5568371,-120.5320943,3866.6036247156,112.860896,0,1.6328412596,16700,2018-06-20 21:13:54,17,0,23.747,3866.6036247156,112.860896,0.3131716,1.6499508402,0,0,-0.671082,25.4, 1.1, 2.2,0,0,1024,1024,1024,1024,25,-89.9,97,3.935,3.976,3.977,3.959,3.965,3.982,20.255,82.4,14,Waypoint,
38.5568374,-120.5320943,3868.5721287156,114.8294,0,1.722112916,17000,2018-06-20 21:13:54,17,0,23.781,3868.5721287156,114.8294,0.3131716,1.722112916,0,0,-0.671082,25.5, 1.7, 2.3,0,0,1024,1024,1024,1024,25,-89.9,97,3.939,3.972,3.971,3.957,3.958,3.985,19.053,82.4,14,Waypoint,
38.5568375,-120.5320943,3869.5563807156,115.813652,0,1.75238194584,17100,2018-06-20 21:13:54,17,0,23.781,3869.5563807156,115.813652,0.3131716,1.75238194584,0,0,-0.671082,25.6, 2.1, 2.4,0,0,1024,1024,1024,1024,25,-89.9,97,3.939,3.972,3.971,3.957,3.958,3.985,19.053,82.4,14,Waypoint,
38.5568376,-120.5320943,3870.2125487156,116.46982,0,1.78288063448,17200,2018-06-20 21:13:54,17,0,23.781,3870.2125487156,116.46982,0.3131716,1.78288063448,0,0,-0.671082,25.7, 2.2, 2.3,0,0,1024,1024,1024,1024,25,-89.9,97,3.939,3.972,3.971,3.957,3.958,3.985,19.053,82.4,14,Waypoint,
38.5568376,-120.5320943,3871.1968007156,117.454072,0,1.78288063448,17300,2018-06-20 21:13:54,17,0,23.781,3871.1968007156,117.454072,0.3131716,1.78288063448,0,0,-0.671082,25.8, 2.3, 2.3,0,0,1024,1024,1024,1024,25,-89.9,97,3.939,3.972,3.971,3.957,3.958,3.985,19.053,82.4,14,Waypoint,
38.5568378,-120.5320941,3873.1653047156,119.422576,0,1.81517066176,17400,2018-06-20 21:13:54,17,0,23.781,3873.1653047156,119.422576,0.3131716,1.81517066176,0,0,-0.671082,26.1, 2.4, 1.6,0,0,1024,1024,1024,1024,25,-89.9,97,3.939,3.972,3.971,3.957,3.958,3.985,19.053,82.4,14,Waypoint,
38.5568378,-120.5320941,3874.1495567156,120.406828,0,1.81517066176,17600,2018-06-20 21:13:54,17,0,23.781,3874.1495567156,120.406828,0.3131716,1.81517066176,0,0,-0.671082,26.2, 2.7, 1.4,0,0,1024,1024,1024,1024,25,-89.9,97,3.939,3.972,3.971,3.957,3.958,3.985,19.053,82.4,14,Waypoint,
38.5568378,-120.5320939,3876.1180607156,122.375332,0,1.78715228816,17700,2018-06-20 21:13:55,17,0,23.781,3876.1180607156,122.375332,0.3131716,1.81517066176,0,0,-0.671082,26.2, 2.4, 1.5,0,0,1024,1024,1024,1024,25,-89.9,97,3.939,3.972,3.971,3.957,3.958,3.985,19.053,82.4,14,Waypoint,
38.5568378,-120.5320939,3877.1023127156,123.359584,0,1.78715228816,17900,2018-06-20 21:13:55,17,0,23.781,3877.1023127156,123.359584,0.3131716,1.81517066176,0,0,-0.671082,26.2, 2.2, 1.4,0,0,1024,1024,1024,1024,25,-89.9,97,3.939,3.972,3.971,3.957,3.958,3.985,19.053,82.4,14,Waypoint,
38.5568379,-120.5320938,3879.0708167156,125.328088,0,1.80601383732,18000,2018-06-20 21:13:55,17,0,23.874,3879.0708167156,125.328088,0.3131716,1.81517066176,0,0,-0.671082,26.1, 2.1, 1.2,0,0,1024,1024,1024,1024,25,-89.9,97,3.936,3.975,3.981,3.97,3.977,3.993,18.7,82.4,14,Waypoint,
38.556838,-120.5320937,3880.0550687156,126.31234,0,1.82585963848,18100,2018-06-20 21:13:55,17,0,23.874,3880.0550687156,126.31234,0.3131716,1.82585963848,0,0,-0.671082,26, 2, 1.3,0,0,1024,1024,1024,1024,25,-89.9,97,3.936,3.975,3.981,3.97,3.977,3.993,18.7,82.4,14,Waypoint,
38.556838,-120.5320937,3881.0393207156,127.296592,0,1.82585963848,18200,2018-06-20 21:13:55,17,0,23.874,3881.0393207156,127.296592,0.3131716,1.82585963848,0,0,-0.671082,25.9, 2.3, 1.3,0,0,1024,1024,1024,1024,25,-89.9,97,3.936,3.975,3.981,3.97,3.977,3.993,18.7,82.4,14,Waypoint,
38.556838,-120.5320936,3882.0235727156,128.280844,0,1.81355976932,18300,2018-06-20 21:13:55,17,0,23.874,3882.0235727156,128.280844,0.3131716,1.82585963848,0,0,-0.671082,25.9, 2.4, 1.4,0,0,1024,1024,1024,1024,25,-89.9,97,3.936,3.975,3.981,3.97,3.977,3.993,18.7,82.4,14,Waypoint,
38.556838,-120.5320936,3883.3359087156,129.59318,0,1.81355976932,18400,2018-06-20 21:13:55,17,0,23.874,3883.3359087156,129.59318,0.3131716,1.82585963848,0,0,-0.671082,25.8, 2.3, 1.5,0,0,1024,1024,1024,1024,25,-89.9,97,3.936,3.975,3.981,3.97,3.977,3.993,18.7,82.4,14,Waypoint,
38.5568379,-120.5320935,3884.3201607156,130.577432,0,1.7684383768,18500,2018-06-20 21:13:55,17,0,23.874,3884.3201607156,130.577432,0.3131716,1.82585963848,0,0,-0.671082,25.8, 2.2, 1.6,0,0,1024,1024,1024,1024,25,-89.9,97,3.936,3.975,3.981,3.97,3.977,3.993,18.7,82.4,14,Waypoint,
38.5568379,-120.5320935,3885.3044127156,131.561684,0,1.7684383768,18600,2018-06-20 21:13:55,17,0,23.874,3885.3044127156,131.561684,0.3131716,1.82585963848,0,0,-0.671082,25.8, 2.1, 1.6,0,0,1024,1024,1024,1024,25,-89.9,97,3.936,3.975,3.981,3.97,3.977,3.993,18.7,82.4,14,Waypoint,
38.5568379,-120.5320934,3887.2729167156,133.530188,0,1.75666344204,18810,2018-06-20 21:13:56,17,0,23.874,3887.2729167156,133.530188,0.3131716,1.82585963848,0,0,-0.671082,26, 2.1, 1.2,0,0,1024,1024,1024,1024,25,-89.9,97,3.936,3.975,3.981,3.97,3.977,3.993,18.7,82.4,14,Waypoint,
38.5568378,-120.5320934,3888.2571687156,134.51444,0,1.72338588192,18900,2018-06-20 21:13:56,17,0,23.874,3888.2571687156,134.51444,0.3131716,1.82585963848,0,0,-0.671082,26.1, 1.9, 1.2,0,0,1024,1024,1024,1024,25,-89.9,97,3.936,3.975,3.981,3.97,3.977,3.993,18.7,82.4,14,Waypoint,
38.5568378,-120.5320933,3889.2414207156,135.498692,0,1.71177170832,19100,2018-06-20 21:13:56,17,0,23.874,3889.2414207156,135.498692,0.3131716,1.82585963848,0,0,-0.671082,26.1, 1.6, 1.3,0,0,1024,1024,1024,1024,25,-89.9,97,3.936,3.975,3.981,3.97,3.977,3.993,18.7,82.4,14,Waypoint,
38.5568377,-120.5320933,3890.2256727156,136.482944,0,1.67839900384,19200,2018-06-20 21:13:56,17,0,23.874,3890.2256727156,136.482944,0.3131716,1.82585963848,0,0,-0.671082,26.1, 1.5, 1.3,0,0,1024,1024,1024,1024,25,-89.9,97,3.936,3.975,3.981,3.97,3.977,3.993,18.7,82.4,14,Waypoint,
38.5568376,-120.5320933,3891.2099247156,137.467196,0,1.64515425212,19300,2018-06-20 21:13:56,17,0,23.874,3891.2099247156,137.467196,0.3131716,1.82585963848,0,0,-0.671082,25.9, 1.6, 1.5,0,0,1024,1024,1024,1024,25,-89.9,97,3.936,3.975,3.981,3.97,3.977,3.993,18.7,82.4,14,Waypoint,
38.5568376,-120.5320932,3892.1941767156,138.451448,0,1.63348430424,19400,2018-06-20 21:13:56,17,0,23.874,3892.1941767156,138.451448,0.3131716,1.82585963848,0,0,-0.671082,25.7, 1.5, 1.7,0,0,1024,1024,1024,1024,25,-89.9,97,3.936,3.975,3.981,3.97,3.977,3.993,18.7,82.4,14,Waypoint,
38.5568375,-120.5320932,3893.1784287156,139.4357,0,1.60014112732,19500,2018-06-20 21:13:56,17,0,23.874,3893.1784287156,139.4357,0.3131716,1.82585963848,0,0,-0.671082,25.6, 1.3, 1.6,0,0,1024,1024,1024,1024,25,-89.9,97,3.936,3.975,3.981,3.97,3.977,3.993,18.7,82.4,14,Waypoint,
38.5568374,-120.532093,3895.1469327156,141.404204,0,1.54391081056,19700,2018-06-20 21:13:57,17,0,23.874,3895.1469327156,141.404204,0.3131716,1.82585963848,0,0,-0.671082,25.5, 1.4, 0.8,0,0,1024,1024,1024,1024,25,-89.9,97,3.936,3.975,3.981,3.97,3.977,3.993,18.7,82.4,14,Waypoint,
38.5568374,-120.532093,3896.1311847156,142.388456,0,1.54391081056,19800,2018-06-20 21:13:57,17,0,23.874,3896.1311847156,142.388456,0.3131716,1.82585963848,0,0,-0.671082,25.4, 1.5, 0.8,0,0,1024,1024,1024,1024,25,-89.9,97,3.936,3.975,3.981,3.97,3.977,3.993,18.7,82.4,14,Waypoint,
38.5568374,-120.5320929,3897.1154367156,143.372708,0,1.53306435352,19900,2018-06-20 21:13:57,17,0,23.874,3897.1154367156,143.372708,0.3131716,1.82585963848,0,0,-0.671082,25.4, 1.6, 0.6,0,0,1024,1024,1024,1024,25,-89.9,97,3.936,3.975,3.981,3.97,3.977,3.993,18.7,82.4,14,Waypoint,
38.5568373,-120.5320927,3899.0839407156,145.341212,0,1.47848758012,20000,2018-06-20 21:13:57,17,0,23.874,3899.0839407156,145.341212,0.3131716,1.82585963848,0,0,-0.671082,25.6, 1.9, 0.2,0,0,1024,1024,1024,1024,25,-89.9,97,3.949,3.974,3.983,3.963,3.97,3.986,17.227,82.4,14,Waypoint,
38.5568373,-120.5320926,3900.0681927156,146.325464,0,1.46881894464,20100,2018-06-20 21:13:57,17,0,23.874,3900.0681927156,146.325464,0.3131716,1.82585963848,0,0,-0.671082,25.9, 2, 0.1,0,0,1024,1024,1024,1024,25,-89.9,97,3.949,3.974,3.983,3.963,3.97,3.986,17.227,82.4,14,Waypoint,
38.5568372,-120.5320925,3901.0524447156,147.309716,0,1.42503613484,20200,2018-06-20 21:13:57,17,0,23.874,3901.0524447156,147.309716,0.3131716,1.82585963848,0,0,-0.671082,26.2, 2.1, 0,0,0,1024,1024,1024,1024,25,-89.9,97,3.949,3.974,3.983,3.963,3.97,3.986,17.227,82.4,14,Waypoint,
38.5568372,-120.5320925,3902.0366967156,148.293968,0,1.42503613484,20300,2018-06-20 21:13:57,17,0,23.874,3902.0366967156,148.293968,0.3131716,1.82585963848,0,0,-0.671082,26.6, 2, 0,0,0,1024,1024,1024,1024,25,-89.9,97,3.949,3.974,3.983,3.963,3.97,3.986,17.227,82.4,14,Waypoint,
38.5568371,-120.5320924,3903.0209487156,149.27822,0,1.38142064788,20400,2018-06-20 21:13:57,17,0,23.874,3903.0209487156,149.27822,0.3131716,1.82585963848,0,0,-0.671082,26.7, 2.1, -0.1,0,0,1024,1024,1024,1024,25,-89.9,97,3.949,3.974,3.983,3.963,3.97,3.986,17.227,82.4,14,Waypoint,
38.5568371,-120.5320923,3904.0052007156,150.262472,0,1.3728510938,20500,2018-06-20 21:13:57,17,0,23.874,3904.0052007156,150.262472,0.3131716,1.82585963848,0,0,-0.671082,26.8, 1.9, -0.4,0,0,1024,1024,1024,1024,25,-89.9,97,3.949,3.974,3.983,3.963,3.97,3.986,17.227,82.4,14,Waypoint,
38.556837,-120.5320922,3904.9894527156,151.246724,0,1.32974741788,20600,2018-06-20 21:13:57,17,0,23.874,3904.9894527156,151.246724,0.3131716,1.82585963848,0,0,-0.671082,26.8, 1.6, -0.6,0,0,1024,1024,1024,1024,25,-90,97,3.949,3.974,3.983,3.963,3.97,3.986,17.227,82.4,14,Waypoint,
38.556837,-120.5320921,3905.9737047156,152.230976,0,1.32207353312,20700,2018-06-20 21:13:58,17,0,23.874,3905.9737047156,152.230976,0.3131716,1.82585963848,0,0,-0.671082,26.7, 1.5, -0.7,0,0,1024,1024,1024,1024,25,-89.9,97,3.949,3.974,3.983,3.963,3.97,3.986,17.227,82.4,14,Waypoint,
38.556837,-120.5320921,3906.9579567156,153.215228,0,1.32207353312,20800,2018-06-20 21:13:58,17,0,23.874,3906.9579567156,153.215228,0.3131716,1.82585963848,0,0,-0.671082,26.6, 1.7, -0.7,0,0,1024,1024,1024,1024,25,-89.9,97,3.949,3.974,3.983,3.963,3.97,3.986,17.227,82.4,14,Waypoint,
38.556837,-120.532092,3908.9264607156,155.183732,0,1.31497379536,21000,2018-06-20 21:13:58,17,0,23.922,3908.9264607156,155.183732,0.3131716,1.82585963848,0,0,-0.671082,25.9, 2.1, -0.6,0,0,1024,1024,1024,1024,25,-89.9,96,3.958,3.999,3.999,3.981,3.994,4.004,16.855,82.4,14,Waypoint,
38.5568369,-120.5320919,3909.5826287156,155.8399,0,1.27287405648,21100,2018-06-20 21:13:58,17,0,23.922,3909.5826287156,155.8399,0.3131716,1.82585963848,0,0,-0.671082,25.5, 1.9, -0.7,0,0,1024,1024,1024,1024,25,-89.9,96,3.958,3.999,3.999,3.981,3.994,4.004,16.855,82.4,14,Waypoint,
38.5568369,-120.5320919,3910.5668807156,156.824152,0,1.27287405648,21300,2018-06-20 21:13:58,17,0,23.922,3910.5668807156,156.824152,0.3131716,1.82585963848,0,0,-0.671082,25.2, 1.8, -0.8,0,0,1024,1024,1024,1024,25,-89.9,96,3.958,3.999,3.999,3.981,3.994,4.004,16.855,82.4,14,Waypoint,
38.5568369,-120.5320919,3911.5511327156,157.808404,0,1.27287405648,21400,2018-06-20 21:13:58,17,0,23.922,3911.5511327156,157.808404,0.3131716,1.82585963848,0,0,-0.671082,24.9, 1.8, -1,0,0,1024,1024,1024,1024,25,-89.9,96,3.958,3.999,3.999,3.981,3.994,4.004,16.855,82.4,14,Waypoint,
38.5568368,-120.5320919,3912.5353847156,158.792656,0,1.23734584012,21500,2018-06-20 21:13:58,17,0,23.922,3912.5353847156,158.792656,0.3131716,1.82585963848,0,0,-0.671082,24.6, 1.6, -1,0,0,1024,1024,1024,1024,25,-89.9,96,3.958,3.999,3.999,3.981,3.994,4.004,16.855,82.4,14,Waypoint,
38.5568367,-120.5320919,3913.5196367156,159.776908,0,1.20187339804,21600,2018-06-20 21:13:58,17,0,23.922,3913.5196367156,159.776908,0.3131716,1.82585963848,0,0,-0.671082,24.3, 1.4, -0.8,0,0,1024,1024,1024,1024,25,-90,96,3.958,3.999,3.999,3.981,3.994,4.004,16.855,82.4,14,Waypoint,
38.5568367,-120.5320919,3914.5038887156,160.76116,0,1.20187339804,21700,2018-06-20 21:13:59,17,0,23.922,3914.5038887156,160.76116,0.3131716,1.82585963848,0,0,-0.671082,24.3, 1.1, -1,0,0,1024,1024,1024,1024,25,-90,96,3.958,3.999,3.999,3.981,3.994,4.004,16.855,82.4,14,Waypoint,
38.5568367,-120.5320919,3915.4881407156,161.745412,0,1.20187339804,21800,2018-06-20 21:13:59,17,0,23.922,3915.4881407156,161.745412,0.3131716,1.82585963848,0,0,-0.671082,24.6, 1, -0.9,0,0,1024,1024,1024,1024,25,-89.9,96,3.958,3.999,3.999,3.981,3.994,4.004,16.855,82.4,14,Waypoint,
38.5568366,-120.5320918,3916.4723927156,162.729664,0,1.15981631008,21900,2018-06-20 21:13:59,17,0,23.922,3916.4723927156,162.729664,0.3131716,1.82585963848,0,0,-0.671082,25.1, 1.2, -0.9,0,0,1024,1024,1024,1024,25,-89.9,96,3.958,3.999,3.999,3.981,3.994,4.004,16.855,82.4,14,Waypoint,
38.5568366,-120.5320918,3917.4566447156,163.713916,0,1.15981631008,22000,2018-06-20 21:13:59,17,0,23.889,3917.4566447156,163.713916,0.3131716,1.82585963848,0,0,-0.671082,25.8, 1.3, -1.2,0,0,1024,1024,1024,1024,25,-89.9,96,3.954,3.987,3.991,3.975,3.978,4.002,17.163,82.4,14,Waypoint,
38.5568365,-120.5320918,3918.4408967156,164.698168,0,1.12426512784,22100,2018-06-20 21:13:59,17,0,23.889,3918.4408967156,164.698168,0.3131716,1.82585963848,0,0,-0.671082,26.4, 1.1, -1.8,0,0,1024,1024,1024,1024,25,-90,96,3.954,3.987,3.991,3.975,3.978,4.002,17.163,82.4,14,Waypoint,
38.5568364,-120.5320918,3919.4251487156,165.68242,0,1.08877628156,22200,2018-06-20 21:13:59,17,0,23.889,3919.4251487156,165.68242,0.3131716,1.82585963848,0,0,-0.671082,26.8, 0.7, -2.2,0,0,1024,1024,1024,1024,25,-90,96,3.954,3.987,3.991,3.975,3.978,4.002,17.163,82.4,14,Waypoint,
38.5568363,-120.5320917,3921.3936527156,167.650924,0,1.04676512536,22300,2018-06-20 21:13:59,17,0,23.889,3921.3936527156,167.650924,0.3131716,1.82585963848,0,0,-0.671082,27, 0.5, -1.5,0,0,1024,1024,1024,1024,25,-89.9,96,3.954,3.987,3.991,3.975,3.978,4.002,17.163,82.4,14,Waypoint,
38.5568362,-120.5320917,3922.3779047156,168.635176,0,1.01119097724,22500,2018-06-20 21:13:59,17,0,23.889,3922.3779047156,168.635176,0.3131716,1.82585963848,0,0,-0.671082,26.8, 0.4, -1.2,0,0,1024,1024,1024,1024,25,-90,96,3.954,3.987,3.991,3.975,3.978,4.002,17.163,82.4,14,Waypoint,
38.5568361,-120.5320915,3924.3464087156,170.60368,0,0.96393047704,22600,2018-06-20 21:13:59,17,0,23.889,3924.3464087156,170.60368,0.3131716,1.82585963848,0,0,-0.671082,26.1, 0.9, -1.9,0,0,1024,1024,1024,1024,25,-89.9,96,3.954,3.987,3.991,3.975,3.978,4.002,17.163,82.4,14,Waypoint,
38.556836,-120.5320914,3925.3306607156,171.587932,0.223694,0.9232119718,22700,2018-06-20 21:14:00,17,0,23.889,3925.3306607156,171.587932,0.3131716,1.82585963848,0,0,-0.671082,25.8, 0.6, -2.6,0,0,1024,1024,1024,1024,25,-90,96,3.954,3.987,3.991,3.975,3.978,4.002,17.163,82.4,14,Waypoint,
38.5568359,-120.5320912,3926.3149127156,172.572184,0.223694,0.87981302028,22800,2018-06-20 21:14:00,17,0,23.889,3926.3149127156,172.572184,0.3131716,1.82585963848,0,0,-0.671082,25.7, 0.7, -3,0,0,1024,1024,1024,1024,25,-89.9,96,3.954,3.987,3.991,3.975,3.978,4.002,17.163,82.4,14,Waypoint,
38.5568359,-120.5320911,3927.2991647156,173.556436,0.223694,0.87749674724,22900,2018-06-20 21:14:00,17,0,23.889,3927.2991647156,173.556436,0.3131716,1.82585963848,0,0,-0.671082,25.5, 1, -3.3,0,0,1024,1024,1024,1024,25,-89.9,96,3.954,3.987,3.991,3.975,3.978,4.002,17.163,82.4,14,Waypoint,
38.5568359,-120.5320909,3928.2834167156,174.540688,0.223694,0.8756397918,23000,2018-06-20 21:14:00,17,0,23.872,3928.2834167156,174.540688,0.3131716,1.82585963848,0,0,-0.671082,25.5, 1.5, -3.5,0,0,1024,1024,1024,1024,25.1,-89.9,96,3.954,3.981,3.988,3.973,3.979,3.999,17.237,82.4,14,Waypoint,
38.5568359,-120.5320907,3929.2676687156,175.52494,0.223694,0.87749674724,23100,2018-06-20 21:14:00,17,0,23.872,3929.2676687156,175.52494,0.3131716,1.82585963848,0,0,-0.671082,25.5, 2, -3.8,0,0,1024,1024,1024,1024,25.1,-89.9,96,3.954,3.981,3.988,3.973,3.979,3.999,17.237,82.4,14,Waypoint,
38.5568358,-120.5320906,3930.2519207156,176.509192,0.223694,0.84350724484,23210,2018-06-20 21:14:00,17,0,23.872,3930.2519207156,176.509192,0.3131716,1.82585963848,0,0,-0.671082,25.6, 2.2, -4.2,0,0,1024,1024,1024,1024,25.1,-89.9,96,3.954,3.981,3.988,3.973,3.979,3.999,17.237,82.4,14,Waypoint,
38.5568358,-120.5320906,3930.2519207156,176.509192,0.223694,0.84350724484,23300,2018-06-20 21:14:00,17,0,23.872,3930.2519207156,176.509192,0.3131716,1.82585963848,0,0,-0.671082,25.6, 2.2, -4.2,0,0,1024,1024,1024,1024,25.1,-89.9,96,3.954,3.981,3.988,3.973,3.979,3.999,17.237,82.4,14,Waypoint,
38.5568358,-120.5320903,3932.2204247156,178.477696,0.223694,0.85643703528,23400,2018-06-20 21:14:00,17,0,23.872,3932.2204247156,178.477696,0.3131716,1.82585963848,0,0,-0.671082,25.8, 2.2, -4.8,0,0,1024,1024,1024,1024,25.1,-89.9,96,3.954,3.981,3.988,3.973,3.979,3.999,17.237,82.4,14,Waypoint,
38.5568358,-120.5320902,3933.2046767156,179.461948,0,0.86259189112,23500,2018-06-20 21:14:00,17,0,23.872,3933.2046767156,179.461948,0.3131716,1.82585963848,0,0,-0.671082,25.9, 2.4, -5,0,0,1024,1024,1024,1024,25.1,-89.9,96,3.954,3.981,3.988,3.973,3.979,3.999,17.237,82.4,14,Waypoint,
38.5568357,-120.5320899,3936.1574327156,182.414704,0,0.85186682516,23900,2018-06-20 21:14:01,17,0,23.872,3936.1574327156,182.414704,0.3131716,1.82585963848,0,0,-0.671082,26, 1.4, -3.4,0,0,1024,1024,1024,1024,25.1,-89.9,96,3.954,3.981,3.988,3.973,3.979,3.999,17.237,82.4,14,Waypoint,
38.5568357,-120.5320898,3936.8136007156,183.070872,0,0.8618438596,24000,2018-06-20 21:14:01,17,0,23.866,3936.8136007156,183.070872,0.3131716,1.82585963848,0,0,-0.671082,25.8, 1.6, -2.9,0,0,1024,1024,1024,1024,25.1,-89.9,96,3.959,3.99,3.986,3.967,3.977,4,17.062,84.2,14,Waypoint,
38.5568358,-120.5320896,3937.7978527156,184.055124,0.223694,0.91746722096,24100,2018-06-20 21:14:01,17,0,23.866,3937.7978527156,184.055124,0.3131716,1.82585963848,0,0,-0.671082,25.6, 2.4, -3.5,0,0,1024,1024,1024,1024,25.1,-89.9,96,3.959,3.99,3.986,3.967,3.977,4,17.062,84.2,14,Waypoint,
38.5568358,-120.5320893,3938.7821047156,185.039376,0.223694,0.9552821828,24200,2018-06-20 21:14:01,17,0,23.866,3938.7821047156,185.039376,0.3131716,1.82585963848,0,0,-0.671082,25.5, 3.5, -4.3,0,0,1024,1024,1024,1024,25.1,-89.9,96,3.959,3.99,3.986,3.967,3.977,4,17.062,84.2,14,Waypoint,
38.556836,-120.5320891,3939.4382727156,185.695544,0.3131716,1.04676184452,24300,2018-06-20 21:14:01,17,0,23.866,3939.4382727156,185.695544,0.3131716,1.82585963848,0,0,-0.671082,25.5, 4.7, -4.7,0,0,1024,1024,1024,1024,25.1,-89.9,96,3.959,3.99,3.986,3.967,3.977,4,17.062,84.2,14,Waypoint,
38.5568362,-120.5320886,3941.4067767156,187.664048,0.3131716,1.18364833184,24400,2018-06-20 21:14:01,17,0,23.866,3941.4067767156,187.664048,0.3131716,1.82585963848,0,0,-0.671082,25.3, 5.5, -5.4,0,0,1024,1024,1024,1024,25.2,-89.9,96,3.959,3.99,3.986,3.967,3.977,4,17.062,84.2,14,Waypoint,
38.5568365,-120.5320883,3943.0471967156,189.304468,0,1.32223429428,24600,2018-06-20 21:14:01,17,0,23.866,3943.0471967156,189.304468,0.3131716,1.82585963848,0,0,-0.671082,25.6, 5.8, -5.3,0,0,1024,1024,1024,1024,25.2,-89.9,96,3.959,3.99,3.986,3.967,3.977,4,17.062,84.2,14,Waypoint,
38.5568366,-120.5320882,3944.0314487156,190.28872,0,1.36844820652,24700,2018-06-20 21:14:02,17,0,23.866,3944.0314487156,190.28872,0.3131716,1.82585963848,0,0,-0.671082,25.7, 5.9, -4.9,0,0,1024,1024,1024,1024,25.2,-89.9,96,3.959,3.99,3.986,3.967,3.977,4,17.062,84.2,14,Waypoint,
38.5568367,-120.5320881,3945.0157007156,191.272972,0,1.4146653996,24800,2018-06-20 21:14:02,17,0,23.866,3945.0157007156,191.272972,0.3131716,1.82585963848,0,0,-0.671082,25.8, 5.7, -4.8,0,0,1024,1024,1024,1024,25.2,-89.9,96,3.959,3.99,3.986,3.967,3.977,4,17.062,84.2,14,Waypoint,
38.5568368,-120.532088,3945.9999527156,192.257224,0,1.4608924352,24900,2018-06-20 21:14:02,17,0,23.866,3945.9999527156,192.257224,0.3131716,1.82585963848,0,0,-0.671082,26, 5.8, -4.6,0,0,1024,1024,1024,1024,25.2,-89.9,96,3.959,3.99,3.986,3.967,3.977,4,17.062,84.2,14,Waypoint,
38.5568369,-120.5320879,3946.9842047156,193.241476,0,1.50712275164,25000,2018-06-20 21:14:02,17,0,23.687,3946.9842047156,193.241476,0.3131716,1.82585963848,0,0,-0.671082,26, 5.7, -4.9,0,0,1024,1024,1024,1024,25.2,-89.9,96,3.959,3.99,3.986,3.967,3.977,4,19.642,84.2,14,Waypoint,
38.5568369,-120.5320879,3947.9684567156,194.225728,0,1.50712275164,25100,2018-06-20 21:14:02,17,0,23.687,3947.9684567156,194.225728,0.3131716,1.82585963848,0,0,-0.671082,26.1, 5.5, -5.2,0,0,1024,1024,1024,1024,25.2,-89.9,96,3.959,3.99,3.986,3.967,3.977,4,19.642,84.2,14,Waypoint,
38.556837,-120.5320878,3948.9527087156,195.20998,0,1.55335962976,25200,2018-06-20 21:14:02,17,0,23.687,3948.9527087156,195.20998,0.3131716,1.82585963848,0,0,-0.671082,26, 5, -4.9,0,0,1024,1024,1024,1024,25.2,-89.9,96,3.959,3.99,3.986,3.967,3.977,4,19.642,84.2,14,Waypoint,
38.556837,-120.5320878,3949.9369607156,196.194232,0,1.55335962976,25300,2018-06-20 21:14:02,17,0,23.687,3949.9369607156,196.194232,0.3131716,1.82585963848,0,0,-0.671082,26, 4.5, -4.5,0,0,1024,1024,1024,1024,25.2,-90,96,3.959,3.99,3.986,3.967,3.977,4,19.642,84.2,14,Waypoint,
38.556837,-120.5320879,3951.9054647156,198.162736,0,1.53729335628,25500,2018-06-20 21:14:02,17,0,23.687,3951.9054647156,198.162736,0.3131716,1.82585963848,0,0,-0.671082,25.9, 4.7, -4.5,0,0,1024,1024,1024,1024,25.2,-89.9,96,3.959,3.99,3.986,3.967,3.977,4,19.642,84.2,14,Waypoint,
38.5568371,-120.532088,3952.8897167156,199.146988,0,1.55233928852,25600,2018-06-20 21:14:02,17,0,23.687,3952.8897167156,199.146988,0.3131716,1.82585963848,0,0,-0.671082,25.9, 4.8, -4.3,0,0,1024,1024,1024,1024,25.2,-89.9,96,3.959,3.99,3.986,3.967,3.977,4,19.642,84.2,14,Waypoint,
38.5568371,-120.532088,3953.8739687156,200.13124,0,1.55233928852,25700,2018-06-20 21:14:03,17,0,23.687,3953.8739687156,200.13124,0.3131716,1.82585963848,0,0,-0.671082,25.9, 4.6, -4.5,0,0,1024,1024,1024,1024,25.2,-89.9,96,3.959,3.99,3.986,3.967,3.977,4,19.642,84.2,14,Waypoint,
38.5568371,-120.5320881,3954.8582207156,201.115492,0,1.537319603,25800,2018-06-20 21:14:03,17,0,23.687,3954.8582207156,201.115492,0.3131716,1.82585963848,0,0,-0.671082,25.9, 4.7, -4.3,0,0,1024,1024,1024,1024,25.2,-89.9,96,3.959,3.99,3.986,3.967,3.977,4,19.642,84.2,14,Waypoint,
38.5568373,-120.5320883,3957.1548087156,203.41208,0,1.57240490596,26000,2018-06-20 21:14:03,16,0,23.687,3957.1548087156,203.41208,0.3131716,1.82585963848,0,0,-0.671082,26, 4.7, -3.3,0,0,1024,1024,1024,1024,25.2,-89.9,96,3.914,3.957,3.959,3.946,3.942,3.981,19.642,84.2,14,Waypoint,
38.5568373,-120.5320884,3958.1390607156,204.396332,0,1.55914703152,26100,2018-06-20 21:14:03,16,0,23.687,3958.1390607156,204.396332,0.3131716,1.82585963848,0,0,-0.671082,26, 4.7, -3.4,0,0,1024,1024,1024,1024,25.2,-89.9,96,3.914,3.957,3.959,3.946,3.942,3.981,19.642,84.2,14,Waypoint,
38.5568374,-120.5320887,3960.1075647156,206.364836,0,1.55520346184,26400,2018-06-20 21:14:03,16,0,23.687,3960.1075647156,206.364836,0.3131716,1.82585963848,0,0,-0.671082,25.9, 4.8, -3.3,0,0,1024,1024,1024,1024,25.2,-89.9,96,3.914,3.957,3.959,3.946,3.942,3.981,19.642,84.2,14,Waypoint,
38.5568374,-120.5320888,3961.0918167156,207.349088,0,1.54391081056,26500,2018-06-20 21:14:03,16,0,23.687,3961.0918167156,207.349088,0.3131716,1.82585963848,0,0,-0.671082,25.9, 4.8, -3.3,0,0,1024,1024,1024,1024,25.2,-89.9,96,3.914,3.957,3.959,3.946,3.942,3.981,19.642,84.2,14,Waypoint,
38.5568374,-120.532089,3962.4041527156,208.661424,0,1.52267393324,26600,2018-06-20 21:14:03,16,0,23.687,3962.4041527156,208.661424,0.3131716,1.82585963848,0,0,-0.671082,25.9, 4.4, -3.3,0,0,1024,1024,1024,1024,25.2,-89.9,96,3.914,3.957,3.959,3.946,3.942,3.981,19.642,84.2,14,Waypoint,
38.5568374,-120.5320891,3963.3884047156,209.645676,0,1.51275267308,26700,2018-06-20 21:14:04,16,0,23.687,3963.3884047156,209.645676,0.3131716,1.82585963848,0,0,-0.671082,25.8, 4, -3.4,0,0,1024,1024,1024,1024,25.2,-90,96,3.914,3.957,3.959,3.946,3.942,3.981,19.642,84.2,14,Waypoint,
38.5568374,-120.5320892,3964.3726567156,210.629928,0,1.50330713472,26800,2018-06-20 21:14:04,16,0,23.687,3964.3726567156,210.629928,0.3131716,1.82585963848,0,0,-0.671082,25.8, 3.7, -3.6,0,0,1024,1024,1024,1024,25.2,-90,96,3.914,3.957,3.959,3.946,3.942,3.981,19.642,84.2,14,Waypoint,
38.5568373,-120.5320894,3965.3569087156,211.61418,0,1.45097773672,26900,2018-06-20 21:14:04,16,0,23.687,3965.3569087156,211.61418,0.3131716,1.82585963848,0,0,-0.671082,25.7, 3.6, -3.7,0,0,1024,1024,1024,1024,25.2,-90,96,3.914,3.957,3.959,3.946,3.942,3.981,19.642,84.2,14,Waypoint,
38.5568373,-120.5320895,3966.3411607156,212.598432,0,1.44281828764,27000,2018-06-20 21:14:04,16,0,23.656,3966.3411607156,212.598432,0.3131716,1.82585963848,0,0,-0.671082,25.7, 3.7, -3.6,0,0,1024,1024,1024,1024,25.2,-89.9,96,3.917,3.942,3.941,3.927,3.936,3.964,19.376,84.2,14,Waypoint,
