Latitude, Longitude, Altitude (m), Time, Sats, Speed (m/s), Range (m), Battery (%), Roll (deg), Pitch (deg), Yaw (deg), Images, HD Signal (%), RC Signal (%), Battery Temp (C), Battery Voltage (mV), Battery Current (mA), Battery Energy (mAh), Battery Capacity (mAh), Battery Discharges, flyState, timestamp (Unix), LastUpdate (ms), radioChannel, Rc_elevator, Rc_aileron, Rc_throttle, Rc_rudder, Rc_gyro, Dronetype, Battery_Cell1 (mV), Battery_Cell2 (mV), Battery_Cell3 (mV), Battery_Cell4 (mV), Battery_Cell5 (mV), Battery_Cell6 (mV), Video, isFlying, elapsedTime (ms), gimbalPitch (deg), gimbalRoll (deg), gimbalYaw (deg), VelocityX (m/s), VelocityY (m/s), VelocityZ (m/s), GroundSmear (cm), App Version, Aircraft Name, Aircraft Firmware, Aircraft Serial Number, Battery Serial Number, Battery Lifetime (%), App_Tip, App_Warning, CurrentFlightStartingIndex, CurrentFlightLastVisitedWaypoint, PreviousFlightEndingWaypointIndex
38.5568903, -120.5321655, 0.000, 15:04:43.959, 11, 0.00, 0.02, 100, 0.400, -0.500, 27.700, 1823, 100, 100, 29, 25801, -2902, 4350, 4350, 10, 11, 1529532283.959, 47, 0, 1024, 1024, 1024, 1024, 0, 6, 4228, 4305, 4322, 4268, 4296, 4269, 0, 1, 3000, -89.900, 0.000, 29.200, 0.000, 0.000, -0.100, 0.0, MapPilot_2.8.1_04242018, Dendroctonus I, 1.3.1.00, 041DDC1887, 9971171300641, 98, DJI_0819.jpg, Starting Mission from Lat/Long: 38.55689/-120.53217 Camera: Zenmuse X3 - Overlap: 90/90 - Active Connection: No, 67, 67, 67
38.5568904, -120.5321655, 0.000, 15:04:44.059, 10, 0.00, 0.03, 100, 0.300, -0.300, 27.700, 1823, 100, 100, 29, 25801, -2902, 4350, 4350, 10, 11, 1529532284.059, 52, 0, 1024, 1024, 1024, 1024, 0, 6, 4228, 4305, 4322, 4268, 4296, 4269, 0, 1, 3100, -89.900, 0.000, 29.200, 0.000, 0.000, -0.200, 0.0, , , , , , 98, , , 67, 67, 67
38.5568904, -120.5321656, 0.000, 15:04:44.159, 10, 0.00, 0.04, 100, 0.300, 0.000, 27.700, 1823, 100, 100, 29, 25801, -2902, 4350, 4350, 10, 11, 1529532284.159, 41, 0, 1024, 1024, 1024, 1024, 0, 6, 4228, 4305, 4322, 4268, 4296, 4269, 0, 1, 3200, -89.900, 0.000, 29.100, 0.000, 0.000, -0.300, 0.0, , , , , , 98, , , 67, 67, 67
38.5568905, -120.5321656, 0.000, 15:04:44.259, 10, 0.00, 0.05, 100, 0.200, 0.400, 27.700, 1823, 100, 100, 29, 25801, -2902, 4350, 4350, 10, 11, 1529532284.259, 34, 0, 1024, 1024, 1024, 1024, 0, 6, 4228, 4305, 4322, 4268, 4296, 4269, 0, 1, 3300, -89.900, 0.000, 29.100, 0.000, 0.000, -0.300, 0.0, , , , , , 98, , , 67, 67, 67
38.5568906, -120.5321656, 0.000, 15:04:44.359, 10, 0.00, 0.06, 100, 0.300, 0.400, 27.800, 1823, 100, 100, 29, 25801, -2902, 4350, 4350, 10, 11, 1529532284.360, 46, 0, 1024, 1024, 1024, 1024, 0, 6, 4228, 4305, 4322, 4268, 4296, 4269, 0, 1, 3401, -89.900, 0.000, 29.100, 0.000, 0.000, -0.300, 0.0, , , , , , 98, , , 67, 67, 67
38.5568907, -120.5321657, 0.100, 15:04:44.459, 10, 0.00, 0.07, 100, 0.200, 0.400, 27.800, 1823, 100, 100, 29, 25742, -4478, 4350, 4350, 10, 11, 1529532284.460, 11, 0, 1024, 1024, 1024, 1024, 0, 6, 4257, 4265, 4278, 4259, 4286, 4266, 0, 1, 3501, -89.900, 0.000, 29.000, 0.000, 0.000, -0.400, 0.0, , , , , , 98, , , 67, 67, 67
38.5568908, -120.5321657, 0.100, 15:04:44.559, 10, 0.00, 0.08, 100, 0.300, 0.500, 27.700, 1823, 100, 97, 29, 25742, -4478, 4350, 4350, 10, 11, 1529532284.559, 24, 0, 1024, 1024, 1024, 1024, 0, 6, 4257, 4265, 4278, 4259, 4286, 4266, 0, 1, 3600, -89.900, 0.000, 29.000, 0.000, 0.000, -0.400, 0.0, , , , , , 98, , , 67, 67, 67
38.5568908, -120.5321658, 0.200, 15:04:44.659, 11, 0.00, 0.08, 100, 0.500, 0.600, 27.800, 1823, 100, 97, 29, 25742, -4478, 4350, 4350, 10, 11, 1529532284.659, 12, 0, 1024, 1024, 1024, 1024, 0, 6, 4257, 4265, 4278, 4259, 4286, 4266, 0, 1, 3700, -89.900, 0.000, 29.000, 0.000, 0.000, -0.400, 0.0, , , , , , 98, , , 67, 67, 67
38.5568907, -120.5321658, 0.200, 15:04:44.759, 11, 0.00, 0.08, 100, 0.500, 0.500, 27.800, 1823, 100, 97, 29, 25742, -4478, 4350, 4350, 10, 11, 1529532284.759, 16, 0, 1024, 1024, 1024, 1024, 0, 6, 4257, 4265, 4278, 4259, 4286, 4266, 0, 1, 3800, -89.900, 0.000, 29.000, 0.000, 0.000, -0.400, 0.0, , , , , , 98, , , 67, 67, 67
38.5568907, -120.5321658, 0.200, 15:04:44.859, 11, 0.00, 0.08, 100, 0.500, 0.400, 27.800, 1823, 100, 97, 29, 25742, -4478, 4350, 4350, 10, 11, 1529532284.859, 5, 0, 1024, 1024, 1024, 1024, 0, 6, 4257, 4265, 4278, 4259, 4286, 4266, 0, 1, 3900, -89.900, 0.000, 29.000, 0.000, 0.000, -0.300, 0.0, , , , , , 98, , , 67, 67, 67
38.5568907, -120.5321658, 0.300, 15:04:44.959, 11, 0.00, 0.08, 100, 0.500, 0.300, 27.700, 1823, 100, 97, 29, 25742, -4478, 4350, 4350, 10, 11, 1529532284.960, 11, 0, 1024, 1024, 1024, 1024, 0, 6, 4257, 4265, 4278, 4259, 4286, 4266, 0, 1, 4001, -89.900, 0.000, 28.900, 0.000, 0.000, -0.400, 0.0, , , , , , 98, , , 67, 67, 67
38.5568905, -120.5321657, 0.400, 15:04:45.059, 10, 0.00, 0.05, 100, 0.300, 0.100, 27.600, 1823, 100, 97, 29, 25742, -4478, 4350, 4350, 10, 11, 1529532285.060, 4, 0, 1024, 1024, 1024, 1024, 0, 6, 4257, 4265, 4278, 4259, 4286, 4266, 0, 1, 4101, -89.900, 0.000, 28.900, 0.000, 0.000, -0.500, 0.0, , , , , , 98, , , 67, 67, 67
38.5568905, -120.5321657, 0.500, 15:04:45.159, 11, 0.00, 0.05, 100, 0.200, 0.000, 27.500, 1823, 100, 97, 29, 25742, -4478, 4350, 4350, 10, 11, 1529532285.159, 12, 0, 1024, 1024, 1024, 1024, 0, 6, 4257, 4265, 4278, 4259, 4286, 4266, 0, 1, 4200, -90.000, 0.000, 28.900, 0.000, 0.000, -0.500, 0.0, , , , , , 98, , , 67, 67, 67
38.5568905, -120.5321656, 0.500, 15:04:45.259, 11, 0.00, 0.05, 100, 0.100, 0.000, 27.500, 1823, 100, 97, 29, 25742, -4478, 4350, 4350, 10, 11, 1529532285.260, 13, 0, 1024, 1024, 1024, 1024, 0, 6, 4257, 4265, 4278, 4259, 4286, 4266, 0, 1, 4301, -90.000, 0.000, 28.900, 0.000, 0.000, -0.500, 0.0, , , , , , 98, , , 67, 67, 67
38.5568905, -120.5321656, 0.500, 15:04:45.359, 11, 0.00, 0.05, 100, 0.100, 0.000, 27.500, 1823, 100, 97, 29, 25742, -4478, 4350, 4350, 10, 11, 1529532285.359, 113, 0, 1024, 1024, 1024, 1024, 0, 6, 4257, 4265, 4278, 4259, 4286, 4266, 0, 1, 4400, -90.000, 0.000, 28.900, 0.000, 0.000, -0.500, 0.0, , , , , , 98, , , 67, 67, 67
38.5568906, -120.5321656, 0.700, 15:04:45.462, 12, 0.00, 0.06, 100, 0.000, 0.100, 27.400, 1823, 100, 99, 29, 25015, -15147, 4350, 4350, 10, 11, 1529532285.462, 4, 0, 1024, 1024, 1024, 1024, 0, 6, 4257, 4265, 4278, 4259, 4286, 4266, 0, 1, 4503, -89.900, 0.000, 28.800, 0.000, 0.000, -0.500, 0.0, , , , , , 98, , , 67, 67, 67
38.5568906, -120.5321656, 0.700, 15:04:45.559, 12, 0.00, 0.06, 100, 0.000, 0.100, 27.400, 1823, 100, 99, 29, 25015, -15147, 4350, 4350, 10, 11, 1529532285.560, 101, 0, 1024, 1024, 1024, 1024, 0, 6, 4153, 4168, 4169, 4157, 4179, 4163, 0, 1, 4600, -89.900, 0.000, 28.800, 0.000, 0.000, -0.500, 0.0, , , , , , 98, , , 67, 67, 67
38.5568906, -120.5321656, 0.700, 15:04:45.659, 11, 0.00, 0.06, 100, 0.100, 0.200, 27.400, 1823, 100, 99, 29, 25015, -15147, 4350, 4350, 10, 11, 1529532285.660, 94, 0, 1024, 1024, 1024, 1024, 0, 6, 4153, 4168, 4169, 4157, 4179, 4163, 0, 1, 4701, -89.900, 0.000, 28.800, 0.000, 0.000, -0.500, 0.0, , , , , , 98, , , 67, 67, 67
38.5568906, -120.5321656, 0.800, 15:04:45.759, 11, 0.00, 0.06, 100, 0.100, 0.200, 27.400, 1823, 100, 99, 29, 25015, -15147, 4350, 4350, 10, 11, 1529532285.759, 94, 0, 1024, 1024, 1024, 1024, 0, 6, 4153, 4168, 4169, 4157, 4179, 4163, 0, 1, 4800, -89.900, 0.000, 28.800, 0.000, 0.000, -0.500, 0.0, , , , , , 98, , , 67, 67, 67
38.5568906, -120.5321656, 0.900, 15:04:45.859, 12, 0.00, 0.06, 100, 0.100, 0.200, 27.500, 1823, 100, 99, 29, 25015, -15147, 4350, 4350, 10, 11, 1529532285.859, 84, 0, 1024, 1024, 1024, 1024, 0, 6, 4153, 4168, 4169, 4157, 4179, 4163, 0, 1, 4900, -89.900, 0.000, 28.800, 0.000, 0.000, -0.500, 0.0, , , , , , 98, , , 67, 67, 67
38.5568907, -120.5321657, 0.900, 15:04:45.959, 12, 0.00, 0.07, 100, 0.200, 0.200, 27.600, 1823, 100, 99, 29, 25015, -15147, 4350, 4350, 10, 14, 1529532285.959, 87, 0, 1024, 1024, 1024, 1024, 0, 6, 4153, 4168, 4169, 4157, 4179, 4163, 0, 1, 5000, -89.900, 0.000, 28.800, 0.000, 0.000, -0.400, 0.0, , , , , , 98, , , 67, 67, 67
38.5568907, -120.5321658, 1.000, 15:04:46.059, 12, 0.00, 0.08, 100, 0.400, 0.200, 27.600, 1823, 100, 100, 29, 25015, -15147, 4350, 4350, 10, 14, 1529532286.059, 73, 0, 1024, 1024, 1024, 1024, 0, 6, 4153, 4168, 4169, 4157, 4179, 4163, 0, 1, 5100, -89.900, 0.000, 28.800, 0.000, 0.000, -0.300, 0.0, , , , , , 98, , , 67, 67, 67
38.5568907, -120.5321659, 1.000, 15:04:46.159, 12, 0.00, 0.08, 100, 0.500, 0.200, 27.800, 1823, 100, 100, 29, 25015, -15147, 4350, 4350, 10, 14, 1529532286.159, 86, 0, 1024, 1024, 1024, 1024, 0, 6, 4153, 4168, 4169, 4157, 4179, 4163, 0, 1, 5200, -89.900, 0.000, 28.800, 0.000, 0.000, -0.200, 0.0, , , , , , 98, , , 67, 67, 67
38.5568908, -120.5321659, 1.000, 15:04:46.259, 11, 0.00, 0.09, 100, 0.700, 0.300, 28.000, 1823, 100, 100, 29, 25015, -15147, 4350, 4350, 10, 14, 1529532286.259, 68, 0, 1024, 1024, 1024, 1024, 0, 6, 4153, 4168, 4169, 4157, 4179, 4163, 0, 1, 5300, -89.900, 0.000, 28.800, 0.000, 0.000, -0.200, 0.0, , , , , , 98, , , 67, 67, 67
38.5568909, -120.5321660, 1.100, 15:04:46.359, 11, 0.00, 0.11, 100, 0.800, 0.400, 28.200, 1823, 100, 100, 29, 25015, -15147, 4350, 4350, 10, 14, 1529532286.359, 70, 0, 1024, 1024, 1024, 1024, 0, 6, 4153, 4168, 4169, 4157, 4179, 4163, 0, 1, 5400, -89.900, 0.000, 28.700, 0.000, 0.000, -0.300, 0.0, , , , , , 98, , , 67, 67, 67
38.5568910, -120.5321660, 1.100, 15:04:46.459, 13, 0.00, 0.11, 100, 0.800, 0.500, 28.300, 1823, 100, 100, 29, 24884, -15668, 4350, 4350, 10, 14, 1529532286.459, 64, 0, 1024, 1024, 1024, 1024, 0, 6, 4153, 4168, 4169, 4157, 4179, 4163, 0, 1, 5500, -89.900, 0.000, 28.700, 0.000, 0.000, -0.500, 0.0, , , , , , 98, , , 67, 67, 67
38.5568911, -120.5321660, 1.200, 15:04:46.559, 13, 0.00, 0.12, 100, 0.800, 0.600, 28.300, 1823, 100, 100, 29, 24884, -15668, 4350, 4350, 10, 14, 1529532286.559, 55, 0, 1024, 1024, 1024, 1024, 0, 6, 4153, 4168, 4169, 4157, 4179, 4163, 0, 1, 5600, -89.900, 0.000, 28.700, 0.000, 0.000, -0.600, 0.0, , , , , , 98, , , 67, 67, 67
38.5568911, -120.5321660, 1.300, 15:04:46.659, 13, 0.00, 0.13, 100, 0.800, 0.600, 28.300, 1823, 100, 100, 29, 24884, -15668, 4350, 4350, 10, 14, 1529532286.660, 61, 0, 1024, 1024, 1024, 1024, 0, 6, 4153, 4168, 4169, 4157, 4179, 4163, 0, 1, 5701, -89.900, 0.000, 28.700, 0.000, 0.000, -0.800, 0.0, , , , , , 98, , , 67, 67, 67
38.5568911, -120.5321661, 1.400, 15:04:46.759, 13, 0.00, 0.13, 100, 0.800, 0.500, 28.300, 1823, 100, 100, 29, 24884, -15668, 4350, 4350, 10, 14, 1529532286.759, 54, 0, 1024, 1024, 1024, 1024, 0, 6, 4153, 4168, 4169, 4157, 4179, 4163, 0, 1, 5800, -89.900, 0.000, 28.700, 0.000, 0.000, -0.900, 0.0, , , , , , 98, , , 67, 67, 67
38.5568911, -120.5321662, 1.500, 15:04:46.859, 12, 0.00, 0.13, 100, 0.900, 0.300, 28.100, 1823, 100, 100, 29, 24884, -15668, 4350, 4350, 10, 14, 1529532286.859, 53, 0, 1024, 1024, 1024, 1024, 0, 6, 4153, 4168, 4169, 4157, 4179, 4163, 0, 1, 5900, -90.000, 0.000, 28.700, 0.000, 0.000, -1.200, 0.0, , , , , , 98, , , 67, 67, 67
38.5568911, -120.5321662, 1.700, 15:04:46.959, 12, 0.00, 0.13, 100, 0.800, 0.100, 28.000, 1823, 100, 100, 29, 24884, -15668, 4263, 4350, 10, 14, 1529532286.959, 59, 0, 1024, 1024, 1024, 1024, 0, 6, 4135, 4150, 4146, 4146, 4155, 4143, 0, 1, 6000, -90.000, 0.000, 28.700, 0.000, 0.000, -1.400, 0.0, , , , , , 98, , , 67, 67, 67
38.5568910, -120.5321662, 1.800, 15:04:47.059, 13, 0.00, 0.13, 100, 0.700, 0.000, 27.800, 1823, 100, 100, 29, 24884, -15668, 4263, 4350, 10, 14, 1529532287.060, 47, 0, 1024, 1024, 1024, 1024, 0, 6, 4135, 4150, 4146, 4146, 4155, 4143, 0, 1, 6101, -90.000, 0.000, 28.700, 0.000, 0.000, -1.700, 0.0, , , , , , 98, , , 67, 67, 67
38.5568911, -120.5321662, 2.000, 15:04:47.159, 13, 0.00, 0.13, 100, 0.600, 0.000, 27.700, 1823, 100, 100, 29, 24884, -15668, 4263, 4350, 10, 14, 1529532287.159, 26, 0, 1024, 1024, 1024, 1024, 0, 6, 4135, 4150, 4146, 4146, 4155, 4143, 0, 1, 6200, -90.000, 0.000, 28.700, 0.000, 0.000, -1.800, 0.0, , , , , , 98, , , 67, 67, 67
38.5568910, -120.5321662, 2.300, 15:04:47.259, 12, 0.00, 0.12, 100, 0.400, 0.000, 27.700, 1823, 100, 100, 29, 24884, -15668, 4263, 4350, 10, 14, 1529532287.259, 54, 0, 1024, 1024, 1024, 1024, 0, 6, 4135, 4150, 4146, 4146, 4155, 4143, 0, 1, 6300, -90.000, 0.000, 28.700, 0.000, 0.000, -2.000, 0.0, , , , , , 98, , , 67, 67, 67
38.5568909, -120.5321661, 2.500, 15:04:47.359, 12, 0.00, 0.11, 100, 0.300, 0.000, 27.600, 1823, 100, 100, 29, 24884, -15668, 4263, 4350, 10, 14, 1529532287.359, 21, 0, 1024, 1024, 1024, 1024, 0, 6, 4135, 4150, 4146, 4146, 4155, 4143, 0, 1, 6400, -90.000, 0.000, 28.700, 0.000, 0.000, -2.300, 0.0, , , , , , 98, , , 67, 67, 67
38.5568908, -120.5321660, 2.800, 15:04:47.459, 12, 0.00, 0.09, 98, 0.100, -0.200, 27.600, 1823, 100, 100, 29, 24884, -15668, 4263, 4350, 10, 14, 1529532287.459, 24, 0, 1024, 1024, 1024, 1024, 0, 6, 4135, 4150, 4146, 4146, 4155, 4143, 0, 1, 6500, -90.000, 0.000, 28.700, 0.000, 0.000, -2.500, 0.0, , , , , , 98, , , 67, 67, 67
38.5568906, -120.5321659, 3.100, 15:04:47.559, 12, 0.00, 0.07, 98, 0.000, -0.500, 27.600, 1823, 100, 100, 29, 24884, -15668, 4263, 4350, 10, 14, 1529532287.559, 24, 0, 1024, 1024, 1024, 1024, 0, 6, 4135, 4150, 4146, 4146, 4155, 4143, 0, 1, 6600, -90.000, 0.000, 28.700, 0.000, 0.000, -2.700, 0.0, , , , , , 98, , , 67, 67, 67
38.5568904, -120.5321657, 3.400, 15:04:47.659, 12, 0.00, 0.04, 98, -0.400, -0.700, 27.600, 1823, 100, 100, 29, 24884, -15668, 4263, 4350, 10, 14, 1529532287.659, 15, 0, 1024, 1024, 1024, 1024, 0, 6, 4135, 4150, 4146, 4146, 4155, 4143, 0, 1, 6700, -90.000, 0.000, 28.700, 0.000, 0.000, -2.800, 0.0, , , , , , 98, , , 67, 67, 67
38.5568902, -120.5321655, 3.700, 15:04:47.759, 12, 0.00, 0.02, 98, -1.000, -0.700, 27.600, 1823, 100, 100, 29, 24884, -15668, 4263, 4350, 10, 14, 1529532287.759, 21, 0, 1024, 1024, 1024, 1024, 0, 6, 4135, 4150, 4146, 4146, 4155, 4143, 0, 1, 6800, -90.000, 0.000, 28.700, 0.000, 0.000, -3.000, 0.0, , , , , , 98, , , 67, 67, 67
38.5568902, -120.5321655, 3.700, 15:04:47.858, 12, 0.00, 0.02, 98, -1.000, -0.700, 27.600, 1823, 100, 100, 29, 24884, -15668, 4263, 4350, 10, 14, 1529532287.859, 121, 0, 1024, 1024, 1024, 1024, 0, 6, 4135, 4150, 4146, 4146, 4155, 4143, 0, 1, 6900, -90.000, 0.000, 28.700, 0.000, 0.000, -3.000, 0.0, , , , , , 98, , , 67, 67, 67
38.5568899, -120.5321654, 4.000, 15:04:47.959, 12, 0.00, 0.02, 98, -1.300, -0.800, 27.600, 1823, 100, 100, 29, 24884, -15668, 4263, 4350, 10, 14, 1529532287.959, 92, 0, 1024, 1024, 1024, 1024, 0, 6, 4135, 4150, 4146, 4146, 4155, 4143, 0, 1, 7000, -90.000, 0.000, 28.700, 0.000, 0.000, -3.000, 0.0, , , , , , 98, , , 67, 67, 67
38.5568896, -120.5321654, 4.300, 15:04:48.059, 12, 0.00, 0.06, 98, -1.200, -0.900, 27.600, 1823, 100, 100, 29, 24679, -17140, 4263, 4350, 10, 14, 1529532288.059, 98, 0, 1024, 1024, 1024, 1024, 0, 6, 4099, 4134, 4087, 4084, 4110, 4086, 0, 1, 7100, -90.000, 0.000, 28.700, 0.000, 0.000, -3.100, 0.0, , , , , , 98, , , 67, 67, 67
38.5568890, -120.5321651, 5.000, 15:04:48.159, 12, 0.00, 0.12, 98, -1.000, -1.600, 27.400, 1823, 100, 100, 29, 24679, -17140, 4263, 4350, 10, 14, 1529532288.159, 78, 0, 1024, 1024, 1024, 1024, 0, 6, 4099, 4134, 4087, 4084, 4110, 4086, 0, 1, 7200, -90.000, 0.000, 28.600, 0.000, 0.000, -3.100, 0.0, , , , , , 98, , , 67, 67, 67
38.5568887, -120.5321649, 5.700, 15:04:48.264, 12, 0.00, 0.16, 98, -1.300, -1.700, 27.500, 1823, 100, 100, 29, 24679, -17140, 4263, 4350, 10, 14, 1529532288.264, 2, 0, 1024, 1024, 1024, 1024, 0, 6, 4099, 4134, 4087, 4084, 4110, 4086, 0, 1, 7305, -89.900, 0.000, 28.600, 0.000, 0.000, -3.100, 0.0, , , , , , 98, , , 67, 67, 67
38.5568887, -120.5321649, 5.700, 15:04:48.359, 12, 0.00, 0.16, 98, -1.300, -1.700, 27.500, 1823, 100, 100, 29, 24679, -17140, 4263, 4350, 10, 14, 1529532288.359, 97, 0, 1024, 1024, 1024, 1024, 0, 6, 4099, 4134, 4087, 4084, 4110, 4086, 0, 1, 7400, -89.900, 0.000, 28.600, 0.000, 0.000, -3.100, 0.0, , , , , , 98, , , 67, 67, 67
38.5568887, -120.5321649, 6.000, 15:04:48.459, 12, 0.00, 0.17, 98, -1.300, -1.500, 27.600, 1823, 100, 100, 29, 24679, -17140, 4263, 4350, 10, 14, 1529532288.459, 82, 0, 1024, 1024, 1024, 1024, 0, 6, 4099, 4134, 4087, 4084, 4110, 4086, 0, 1, 7500, -90.000, 0.000, 28.600, 0.000, 0.000, -3.000, 0.0, , , , , , 98, , , 67, 67, 67
38.5568887, -120.5321649, 6.400, 15:04:48.559, 12, 0.00, 0.16, 98, -1.100, -1.300, 27.700, 1823, 100, 100, 29, 24679, -17140, 4263, 4350, 10, 14, 1529532288.559, 84, 0, 1024, 1024, 1024, 1024, 0, 6, 4099, 4134, 4087, 4084, 4110, 4086, 0, 1, 7600, -89.900, 0.000, 28.600, 0.000, 0.000, -3.000, 0.0, , , , , , 98, , , 67, 67, 67
38.5568888, -120.5321650, 6.700, 15:04:48.659, 12, 0.00, 0.15, 98, -0.700, -0.900, 27.700, 1823, 100, 100, 29, 24679, -17140, 4263, 4350, 10, 14, 1529532288.659, 54, 0, 1024, 1024, 1024, 1024, 0, 6, 4099, 4134, 4087, 4084, 4110, 4086, 0, 1, 7700, -89.900, 0.000, 28.600, 0.000, 0.000, -3.000, 0.0, , , , , , 98, , , 67, 67, 67
38.5568889, -120.5321651, 7.100, 15:04:48.759, 12, 0.00, 0.14, 98, -0.200, -0.700, 27.600, 1823, 100, 100, 29, 24679, -17140, 4263, 4350, 10, 14, 1529532288.759, 71, 0, 1024, 1024, 1024, 1024, 0, 6, 4099, 4134, 4087, 4084, 4110, 4086, 0, 1, 7800, -90.000, 0.000, 28.600, 0.000, 0.000, -3.100, 0.0, , , , , , 98, , , 67, 67, 67
38.5568891, -120.5321653, 7.400, 15:04:48.858, 13, 0.10, 0.11, 98, 0.200, -0.600, 27.500, 1823, 100, 100, 29, 24679, -17140, 4263, 4350, 10, 14, 1529532288.859, 34, 0, 1024, 1024, 1024, 1024, 0, 6, 4099, 4134, 4087, 4084, 4110, 4086, 0, 1, 7900, -89.900, 0.000, 28.600, 0.100, 0.000, -3.000, 0.0, , , , , , 98, , , 67, 67, 67
38.5568893, -120.5321655, 7.700, 15:04:48.959, 13, 0.10, 0.09, 98, 0.800, -0.400, 27.400, 1823, 100, 100, 29, 24405, -21584, 4263, 4350, 10, 14, 1529532288.959, 44, 0, 1024, 1024, 1024, 1024, 0, 6, 4054, 4060, 4086, 4082, 4090, 4066, 0, 1, 8000, -89.900, 0.000, 28.600, 0.100, 0.000, -3.000, 0.0, , , , , , 98, , , 67, 67, 67
38.5568896, -120.5321657, 8.000, 15:04:49.059, 14, 0.10, 0.06, 98, 1.200, -0.200, 27.400, 1823, 100, 100, 29, 24405, -21584, 4263, 4350, 10, 14, 1529532289.059, 24, 0, 1024, 1024, 1024, 1024, 0, 6, 4054, 4060, 4086, 4082, 4090, 4066, 0, 1, 8100, -89.900, 0.000, 28.600, 0.100, 0.000, -3.000, 0.0, , , , , , 98, , , 67, 67, 67
38.5568898, -120.5321658, 8.400, 15:04:49.159, 14, 0.10, 0.05, 98, 1.400, 0.000, 27.400, 1823, 100, 100, 29, 24405, -21584, 4263, 4350, 10, 14, 1529532289.159, 39, 0, 1024, 1024, 1024, 1024, 0, 6, 4054, 4060, 4086, 4082, 4090, 4066, 0, 1, 8200, -89.900, 0.000, 28.600, 0.100, 0.000, -3.000, 0.0, , , , , , 98, , , 67, 67, 67
38.5568901, -120.5321660, 8.700, 15:04:49.259, 13, 0.10, 0.05, 98, 1.600, 0.100, 27.500, 1823, 100, 100, 29, 24405, -21584, 4263, 4350, 10, 14, 1529532289.259, 41, 0, 1024, 1024, 1024, 1024, 0, 6, 4054, 4060, 4086, 4082, 4090, 4066, 0, 1, 8300, -89.900, 0.000, 28.600, 0.100, 0.000, -3.000, 0.0, , , , , , 98, , , 67, 67, 67
38.5568905, -120.5321662, 9.000, 15:04:49.359, 13, 0.10, 0.08, 98, 1.900, 0.400, 27.500, 1823, 100, 100, 29, 24405, -21584, 4263, 4350, 10, 14, 1529532289.359, 32, 0, 1024, 1024, 1024, 1024, 0, 6, 4054, 4060, 4086, 4082, 4090, 4066, 0, 1, 8400, -89.900, 0.000, 28.600, 0.100, 0.000, -2.900, 0.0, , , , , , 98, , , 67, 67, 67
38.5568908, -120.5321663, 9.300, 15:04:49.459, 11, 0.10, 0.11, 98, 2.300, 1.100, 27.600, 1823, 100, 100, 29, 24405, -21584, 4263, 4350, 10, 14, 1529532289.459, 41, 0, 1024, 1024, 1024, 1024, 0, 6, 4054, 4060, 4086, 4082, 4090, 4066, 0, 1, 8500, -89.900, 0.000, 28.600, 0.100, 0.000, -2.900, 0.0, , , , , , 98, , , 67, 67, 67
38.5568910, -120.5321665, 9.700, 15:04:49.559, 11, 0.10, 0.14, 98, 2.400, 1.500, 27.600, 1823, 100, 100, 29, 24405, -21584, 4263, 4350, 10, 14, 1529532289.559, 12, 0, 1024, 1024, 1024, 1024, 0, 6, 4054, 4060, 4086, 4082, 4090, 4066, 0, 1, 8600, -89.900, 0.000, 28.600, 0.100, 0.000, -2.900, 0.0, , , , , , 98, , , 67, 67, 67
38.5568912, -120.5321665, 10.000, 15:04:49.659, 13, 0.10, 0.16, 98, 2.400, 1.600, 27.600, 1823, 100, 100, 29, 24405, -21584, 4263, 4350, 10, 14, 1529532289.659, 15, 0, 1024, 1024, 1024, 1024, 0, 6, 4054, 4060, 4086, 4082, 4090, 4066, 0, 1, 8700, -89.900, 0.000, 28.600, 0.100, 0.000, -2.900, 0.0, , , , , , 98, , , 67, 67, 67
38.5568914, -120.5321666, 10.300, 15:04:49.759, 13, 0.00, 0.18, 98, 2.200, 1.500, 27.600, 1823, 100, 100, 29, 24405, -21584, 4263, 4350, 10, 14, 1529532289.759, 11, 0, 1024, 1024, 1024, 1024, 0, 6, 4054, 4060, 4086, 4082, 4090, 4066, 0, 1, 8800, -89.900, 0.000, 28.600, 0.000, 0.000, -2.900, 0.0, , , , , , 98, , , 67, 67, 67
38.5568916, -120.5321667, 10.600, 15:04:49.859, 13, 0.00, 0.20, 98, 2.000, 1.400, 27.700, 1823, 100, 100, 29, 24405, -21584, 4263, 4350, 10, 14, 1529532289.860, 2, 0, 1024, 1024, 1024, 1024, 0, 6, 4054, 4060, 4086, 4082, 4090, 4066, 0, 1, 8901, -89.900, 0.000, 28.600, 0.000, 0.000, -2.900, 0.0, , , , , , 98, , , 67, 67, 67
38.5568921, -120.5321670, 11.200, 15:04:49.974, 12, 0.00, 0.26, 98, 2.100, 1.100, 27.800, 1823, 100, 100, 29, 24583, -17286, 4263, 4350, 10, 14, 1529532289.974, 7, 0, 1024, 1024, 1024, 1024, 0, 6, 4054, 4060, 4086, 4082, 4090, 4066, 0, 1, 9015, -89.900, 0.000, 28.600, 0.000, 0.000, -2.800, 0.0, , , , , , 98, , , 67, 67, 67
38.5568921, -120.5321670, 11.200, 15:04:50.059, 12, 0.00, 0.26, 98, 2.100, 1.100, 27.800, 1823, 100, 100, 29, 24583, -17286, 4263, 4350, 10, 14, 1529532290.059, 92, 0, 1024, 1024, 1024, 1024, 0, 6, 4086, 4100, 4101, 4099, 4112, 4099, 0, 1, 9100, -89.900, 0.000, 28.600, 0.000, 0.000, -2.800, 0.0, , , , , , 98, , , 67, 67, 67
38.5568924, -120.5321670, 11.500, 15:04:50.158, 12, 0.00, 0.29, 98, 2.200, 1.200, 27.800, 1823, 100, 100, 29, 24583, -17286, 4263, 4350, 10, 14, 1529532290.159, 81, 0, 1024, 1024, 1024, 1024, 0, 6, 4086, 4100, 4101, 4099, 4112, 4099, 0, 1, 9200, -89.900, 0.000, 28.600, 0.000, 0.000, -2.900, 0.0, , , , , , 98, , , 67, 67, 67
38.5568926, -120.5321671, 11.900, 15:04:50.259, 13, 0.00, 0.32, 98, 2.200, 1.400, 27.800, 1823, 100, 100, 29, 24583, -17286, 4263, 4350, 10, 14, 1529532290.259, 89, 0, 1024, 1024, 1024, 1024, 0, 6, 4086, 4100, 4101, 4099, 4112, 4099, 0, 1, 9300, -89.900, 0.000, 28.600, 0.000, 0.000, -2.900, 0.0, , , , , , 98, , , 67, 67, 67
38.5568928, -120.5321672, 12.200, 15:04:50.359, 13, 0.00, 0.34, 98, 2.300, 1.500, 27.800, 1823, 100, 100, 29, 24583, -17286, 4263, 4350, 10, 14, 1529532290.359, 90, 0, 1024, 1024, 1024, 1024, 0, 6, 4086, 4100, 4101, 4099, 4112, 4099, 0, 1, 9400, -89.900, 0.000, 28.600, 0.000, 0.000, -2.900, 0.0, , , , , , 98, , , 67, 67, 67
38.5568929, -120.5321673, 12.500, 15:04:50.459, 14, 0.00, 0.35, 98, 2.200, 1.500, 27.800, 1823, 100, 100, 29, 24583, -17286, 4263, 4350, 10, 14, 1529532290.459, 83, 0, 1024, 1024, 1024, 1024, 0, 6, 4086, 4100, 4101, 4099, 4112, 4099, 0, 1, 9500, -89.900, 0.000, 28.600, 0.000, 0.000, -2.900, 0.0, , , , , , 98, , , 67, 67, 67
38.5568930, -120.5321672, 12.800, 15:04:50.559, 14, 0.00, 0.36, 98, 2.000, 1.400, 27.800, 1823, 100, 100, 29, 24583, -17286, 4263, 4350, 10, 14, 1529532290.559, 91, 0, 1024, 1024, 1024, 1024, 0, 6, 4086, 4100, 4101, 4099, 4112, 4099, 0, 1, 9600, -89.900, 0.000, 28.600, 0.000, 0.000, -2.800, 0.0, , , , , , 98, , , 67, 67, 67
38.5568931, -120.5321672, 13.100, 15:04:50.659, 14, 0.00, 0.37, 98, 1.600, 1.500, 27.800, 1823, 100, 100, 29, 24583, -17286, 4263, 4350, 10, 14, 1529532290.659, 60, 0, 1024, 1024, 1024, 1024, 0, 6, 4086, 4100, 4101, 4099, 4112, 4099, 0, 1, 9700, -89.900, 0.000, 28.600, 0.000, 0.000, -2.800, 0.0, , , , , , 98, , , 67, 67, 67
38.5568932, -120.5321674, 13.400, 15:04:50.759, 14, 0.00, 0.39, 98, 1.400, 1.400, 27.800, 1823, 100, 100, 29, 24583, -17286, 4263, 4350, 10, 14, 1529532290.759, 49, 0, 1024, 1024, 1024, 1024, 0, 6, 4086, 4100, 4101, 4099, 4112, 4099, 0, 1, 9800, -89.900, 0.000, 28.600, 0.000, 0.000, -2.700, 0.0, , , , , , 98, , , 67, 67, 67
38.5568933, -120.5321673, 13.700, 15:04:50.858, 13, 0.00, 0.39, 98, 1.400, 1.300, 27.700, 1823, 100, 100, 29, 24583, -17286, 4263, 4350, 10, 14, 1529532290.859, 64, 0, 1024, 1024, 1024, 1024, 0, 6, 4086, 4100, 4101, 4099, 4112, 4099, 0, 1, 9900, -89.900, 0.000, 28.600, 0.000, 0.000, -2.800, 0.0, , , , , , 98, , , 67, 67, 67
38.5568933, -120.5321673, 13.700, 15:04:50.959, 13, 0.00, 0.39, 98, 1.400, 1.300, 27.700, 1823, 100, 100, 29, 24601, -17046, 4263, 4350, 10, 14, 1529532290.959, 165, 0, 1024, 1024, 1024, 1024, 0, 6, 4086, 4100, 4101, 4099, 4112, 4099, 0, 1, 10000, -89.900, 0.000, 28.600, 0.000, 0.000, -2.800, 0.0, , , , , , 98, , , 67, 67, 67
38.5568933, -120.5321671, 14.300, 15:04:51.059, 14, 0.10, 0.39, 98, 1.000, 1.300, 27.400, 1823, 100, 98, 29, 24601, -17046, 4263, 4350, 10, 14, 1529532291.059, 48, 0, 1024, 1024, 1024, 1024, 0, 6, 4092, 4102, 4101, 4101, 4101, 4099, 0, 1, 10100, -89.900, 0.000, 28.600, -0.100, 0.000, -2.800, 0.0, , , , , , 98, , , 67, 67, 67
38.5568934, -120.5321671, 14.600, 15:04:51.159, 14, 0.10, 0.39, 98, 0.900, 1.300, 27.300, 1823, 100, 98, 29, 24601, -17046, 4263, 4350, 10, 14, 1529532291.159, 38, 0, 1024, 1024, 1024, 1024, 0, 6, 4092, 4102, 4101, 4101, 4101, 4099, 0, 1, 10200, -89.900, 0.000, 28.600, -0.100, 0.000, -2.800, 0.0, , , , , , 98, , , 67, 67, 67
38.5568933, -120.5321670, 14.900, 15:04:51.258, 14, 0.10, 0.38, 98, 0.700, 1.300, 27.300, 1823, 100, 98, 29, 24601, -17046, 4263, 4350, 10, 14, 1529532291.259, 36, 0, 1024, 1024, 1024, 1024, 0, 6, 4092, 4102, 4101, 4101, 4101, 4099, 0, 1, 10300, -89.900, 0.000, 28.600, -0.100, 0.000, -2.700, 0.0, , , , , , 98, , , 67, 67, 67
38.5568931, -120.5321670, 15.200, 15:04:51.359, 14, 0.10, 0.36, 98, 0.700, 1.100, 27.400, 1823, 100, 98, 29, 24601, -17046, 4263, 4350, 10, 14, 1529532291.359, 24, 0, 1024, 1024, 1024, 1024, 0, 6, 4092, 4102, 4101, 4101, 4101, 4099, 0, 1, 10400, -89.900, 0.000, 28.600, -0.100, 0.000, -2.800, 0.0, , , , , , 98, , , 67, 67, 67
38.5568930, -120.5321669, 15.500, 15:04:51.459, 14, 0.10, 0.35, 98, 0.700, 0.800, 27.400, 1823, 100, 98, 29, 24601, -17046, 4263, 4350, 10, 14, 1529532291.459, 32, 0, 1024, 1024, 1024, 1024, 0, 6, 4092, 4102, 4101, 4101, 4101, 4099, 0, 1, 10500, -90.000, 0.000, 28.600, -0.100, 0.000, -2.700, 0.0, , , , , , 98, , , 67, 67, 67
38.5568929, -120.5321669, 15.800, 15:04:51.559, 14, 0.10, 0.34, 98, 0.700, 0.300, 27.400, 1823, 100, 97, 29, 24601, -17046, 4263, 4350, 10, 14, 1529532291.559, 8, 0, 1024, 1024, 1024, 1024, 0, 6, 4092, 4102, 4101, 4101, 4101, 4099, 0, 1, 10600, -89.900, 0.000, 28.600, -0.100, 0.000, -2.800, 0.0, , , , , , 98, , , 67, 67, 67
38.5568928, -120.5321669, 16.100, 15:04:51.659, 15, 0.10, 0.32, 98, 0.300, 0.100, 27.400, 1823, 100, 97, 29, 24601, -17046, 4263, 4350, 10, 14, 1529532291.659, 12, 0, 1024, 1024, 1024, 1024, 0, 6, 4092, 4102, 4101, 4101, 4101, 4099, 0, 1, 10700, -89.900, 0.000, 28.600, -0.100, 0.000, -2.800, 0.0, , , , , , 98, , , 67, 67, 67
38.5568925, -120.5321667, 16.700, 15:04:51.759, 16, 0.10, 0.29, 98, 0.000, -0.200, 27.500, 1823, 100, 97, 29, 24601, -17046, 4263, 4350, 10, 14, 1529532291.759, 8, 0, 1024, 1024, 1024, 1024, 0, 6, 4092, 4102, 4101, 4101, 4101, 4099, 0, 1, 10800, -90.000, 0.000, 28.600, -0.100, 0.000, -2.800, 0.0, , , , , , 98, , , 67, 67, 67
38.5568923, -120.5321666, 17.000, 15:04:51.858, 16, 0.10, 0.27, 98, -0.300, -0.200, 27.500, 1823, 100, 97, 29, 24601, -17046, 4263, 4350, 10, 14, 1529532291.859, 11, 0, 1024, 1024, 1024, 1024, 0, 6, 4092, 4102, 4101, 4101, 4101, 4099, 0, 1, 10900, -90.000, 0.000, 28.600, -0.100, 0.000, -2.700, 0.0, , , , , , 98, , , 67, 67, 67
38.5568923, -120.5321666, 17.000, 15:04:51.959, 16, 0.10, 0.27, 98, -0.300, -0.200, 27.500, 1823, 100, 97, 29, 24601, -17046, 4263, 4350, 10, 14, 1529532291.959, 111, 0, 1024, 1024, 1024, 1024, 0, 6, 4092, 4102, 4101, 4101, 4101, 4099, 0, 1, 11000, -90.000, 0.000, 28.600, -0.100, 0.000, -2.700, 0.0, , , , , , 98, , , 67, 67, 67
38.5568923, -120.5321666, 17.000, 15:04:52.058, 16, 0.10, 0.27, 98, -0.300, -0.200, 27.500, 1823, 100, 97, 29, 24601, -17046, 4263, 4350, 10, 14, 1529532292.059, 211, 0, 1024, 1024, 1024, 1024, 0, 6, 4092, 4102, 4101, 4101, 4101, 4099, 0, 1, 11100, -90.000, 0.000, 28.600, -0.100, 0.000, -2.700, 0.0, , , , , , 98, , , 67, 67, 67
38.5568921, -120.5321665, 17.600, 15:04:52.159, 16, 0.10, 0.24, 98, -0.600, 0.000, 27.800, 1823, 100, 95, 29, 24601, -17046, 4263, 4350, 10, 14, 1529532292.159, 79, 0, 1024, 1024, 1024, 1024, 0, 6, 4092, 4102, 4101, 4101, 4101, 4099, 0, 1, 11200, -89.900, 0.000, 28.600, -0.100, 0.000, -2.800, 0.0, , , , , , 98, , , 67, 67, 67
38.5568917, -120.5321661, 18.200, 15:04:52.261, 15, 0.10, 0.19, 98, -0.400, -0.300, 28.300, 1823, 100, 95, 29, 24601, -17046, 4263, 4350, 10, 14, 1529532292.262, 6, 0, 1024, 1024, 1024, 1024, 0, 6, 4092, 4102, 4101, 4101, 4101, 4099, 0, 1, 11303, -90.000, 0.000, 28.600, -0.100, 0.000, -2.800, 0.0, , , , , , 98, , , 67, 67, 67
38.5568917, -120.5321661, 18.200, 15:04:52.359, 15, 0.10, 0.19, 98, -0.400, -0.300, 28.300, 1823, 100, 95, 29, 24601, -17046, 4263, 4350, 10, 14, 1529532292.359, 103, 0, 1024, 1024, 1024, 1024, 0, 6, 4092, 4102, 4101, 4101, 4101, 4099, 0, 1, 11400, -90.000, 0.000, 28.600, -0.100, 0.000, -2.800, 0.0, , , , , , 98, , , 67, 67, 67
38.5568915, -120.5321661, 18.500, 15:04:52.459, 15, 0.10, 0.17, 98, -0.800, -0.500, 28.300, 1823, 100, 95, 29, 24566, -16984, 4263, 4350, 10, 14, 1529532292.459, 68, 0, 1024, 1024, 1024, 1024, 0, 6, 4080, 4090, 4099, 4093, 4097, 4083, 0, 1, 11500, -90.000, 0.000, 28.600, -0.100, 0.000, -2.800, 0.0, , , , , , 98, , , 67, 67, 67
38.5568914, -120.5321660, 18.800, 15:04:52.559, 15, 0.10, 0.15, 98, -1.000, -0.500, 28.200, 1823, 100, 96, 29, 24566, -16984, 4263, 4350, 10, 14, 1529532292.559, 93, 0, 1024, 1024, 1024, 1024, 0, 6, 4080, 4090, 4099, 4093, 4097, 4083, 0, 1, 11600, -90.000, 0.000, 28.600, -0.100, 0.000, -2.800, 0.0, , , , , , 98, , , 67, 67, 67
38.5568912, -120.5321660, 19.100, 15:04:52.659, 15, 0.10, 0.13, 98, -1.100, -0.300, 28.100, 1823, 100, 96, 29, 24566, -16984, 4263, 4350, 10, 14, 1529532292.659, 83, 0, 1024, 1024, 1024, 1024, 0, 6, 4080, 4090, 4099, 4093, 4097, 4083, 0, 1, 11700, -89.900, 0.000, 28.600, -0.100, 0.000, -2.800, 0.0, , , , , , 98, , , 67, 67, 67
38.5568911, -120.5321658, 19.400, 15:04:52.759, 15, 0.10, 0.11, 98, -1.000, -0.200, 27.900, 1823, 100, 96, 29, 24566, -16984, 4263, 4350, 10, 14, 1529532292.759, 74, 0, 1024, 1024, 1024, 1024, 0, 6, 4080, 4090, 4099, 4093, 4097, 4083, 0, 1, 11800, -89.900, 0.000, 28.600, -0.100, 0.000, -2.800, 0.0, , , , , , 98, , , 67, 67, 67
38.5568909, -120.5321657, 19.700, 15:04:52.858, 16, 0.00, 0.10, 98, -1.000, -0.100, 27.700, 1823, 100, 96, 29, 24566, -16984, 4263, 4350, 10, 14, 1529532292.858, 36, 0, 1024, 1024, 1024, 1024, 0, 6, 4080, 4090, 4099, 4093, 4097, 4083, 0, 1, 11899, -89.900, 0.000, 28.600, 0.000, 0.000, -2.800, 0.0, , , , , , 98, , , 67, 67, 67
38.5568908, -120.5321657, 20.000, 15:04:52.959, 16, 0.00, 0.08, 98, -0.800, -0.100, 27.700, 1823, 100, 96, 29, 24566, -16984, 4263, 4350, 10, 14, 1529532292.959, 64, 0, 1024, 1024, 1024, 1024, 0, 6, 4080, 4090, 4099, 4093, 4097, 4083, 0, 1, 12000, -89.900, 0.000, 28.600, 0.000, 0.000, -2.800, 0.0, , , , , , 98, , , 67, 67, 67
38.5568907, -120.5321656, 20.300, 15:04:53.059, 16, 0.00, 0.07, 98, -0.600, -0.200, 27.700, 1823, 100, 95, 29, 24566, -16984, 4263, 4350, 10, 14, 1529532293.059, 65, 0, 1024, 1024, 1024, 1024, 0, 6, 4080, 4090, 4099, 4093, 4097, 4083, 0, 1, 12100, -90.000, 0.000, 28.600, 0.000, 0.000, -2.800, 0.0, , , , , , 98, , , 67, 67, 67
38.5568906, -120.5321656, 20.600, 15:04:53.159, 16, 0.00, 0.06, 98, -0.300, -0.300, 27.700, 1823, 100, 95, 29, 24566, -16984, 4263, 4350, 10, 14, 1529532293.159, 43, 0, 1024, 1024, 1024, 1024, 0, 6, 4080, 4090, 4099, 4093, 4097, 4083, 0, 1, 12200, -90.000, 0.000, 28.600, 0.000, 0.000, -2.800, 0.0, , , , , , 98, , , 67, 67, 67
38.5568905, -120.5321655, 20.900, 15:04:53.259, 16, 0.00, 0.04, 98, -0.100, -0.600, 27.700, 1823, 100, 95, 29, 24566, -16984, 4263, 4350, 10, 14, 1529532293.259, 27, 0, 1024, 1024, 1024, 1024, 0, 6, 4080, 4090, 4099, 4093, 4097, 4083, 0, 1, 12300, -90.000, 0.000, 28.600, 0.000, 0.000, -2.800, 0.0, , , , , , 98, , , 67, 67, 67
38.5568903, -120.5321655, 21.200, 15:04:53.359, 16, 0.00, 0.03, 98, 0.000, -0.700, 27.700, 1823, 100, 95, 29, 24566, -16984, 4263, 4350, 10, 14, 1529532293.359, 40, 0, 1024, 1024, 1024, 1024, 0, 6, 4080, 4090, 4099, 4093, 4097, 4083, 0, 1, 12400, -90.000, 0.000, 28.600, 0.000, 0.000, -2.800, 0.0, , , , , , 98, , , 67, 67, 67
38.5568902, -120.5321654, 21.500, 15:04:53.459, 16, 0.00, 0.01, 98, 0.000, -0.600, 27.600, 1823, 100, 95, 29, 24495, -17541, 4263, 4350, 10, 14, 1529532293.459, 29, 0, 1024, 1024, 1024, 1024, 0, 6, 4069, 4083, 4088, 4081, 4091, 4080, 0, 1, 12500, -90.000, 0.000, 28.600, 0.000, 0.000, -2.800, 0.0, , , , , , 98, , , 67, 67, 67
38.5568901, -120.5321653, 21.800, 15:04:53.559, 16, 0.00, 0.01, 98, 0.000, -0.600, 27.500, 1823, 100, 96, 29, 24495, -17541, 4263, 4350, 10, 14, 1529532293.559, 28, 0, 1024, 1024, 1024, 1024, 0, 6, 4069, 4083, 4088, 4081, 4091, 4080, 0, 1, 12600, -89.900, 0.000, 28.600, 0.000, 0.000, -2.800, 0.0, , , , , , 98, , , 67, 67, 67
38.5568900, -120.5321652, 22.100, 15:04:53.659, 16, 0.00, 0.02, 98, -0.100, -0.400, 27.300, 1823, 100, 96, 29, 24495, -17541, 4263, 4350, 10, 14, 1529532293.659, 8, 0, 1024, 1024, 1024, 1024, 0, 6, 4069, 4083, 4088, 4081, 4091, 4080, 0, 1, 12700, -89.900, 0.000, 28.600, 0.000, 0.000, -2.800, 0.0, , , , , , 98, , , 67, 67, 67
38.5568899, -120.5321650, 22.400, 15:04:53.759, 16, 0.00, 0.04, 98, -0.300, -0.300, 27.200, 1823, 100, 96, 29, 24495, -17541, 4263, 4350, 10, 14, 1529532293.759, 14, 0, 1024, 1024, 1024, 1024, 0, 6, 4069, 4083, 4088, 4081, 4091, 4080, 0, 1, 12800, -89.900, 0.000, 28.600, 0.000, 0.000, -2.800, 0.0, , , , , , 98, , , 67, 67, 67
38.5568898, -120.5321649, 22.700, 15:04:53.858, 16, 0.00, 0.05, 98, -0.700, -0.200, 27.000, 1823, 100, 96, 29, 24495, -17541, 4263, 4350, 10, 14, 1529532293.858, 24, 0, 1024, 1024, 1024, 1024, 0, 6, 4069, 4083, 4088, 4081, 4091, 4080, 0, 1, 12899, -89.900, 0.000, 28.600, 0.000, 0.000, -2.800, 0.0, , , , , , 98, , , 67, 67, 67
38.5568898, -120.5321649, 23.000, 15:04:53.959, 16, 0.00, 0.05, 98, -0.700, -0.100, 27.000, 1823, 100, 96, 29, 24495, -17541, 4263, 4350, 10, 14, 1529532293.959, 29, 0, 1024, 1024, 1024, 1024, 0, 6, 4069, 4083, 4088, 4081, 4091, 4080, 0, 1, 13000, -89.900, 0.000, 28.600, 0.000, 0.000, -2.800, 0.0, , , , , , 98, , , 67, 67, 67
38.5568898, -120.5321648, 23.300, 15:04:54.059, 16, 0.00, 0.06, 98, -0.700, 0.000, 27.000, 1823, 100, 95, 29, 24495, -17541, 4263, 4350, 10, 14, 1529532294.059, 31, 0, 1024, 1024, 1024, 1024, 0, 6, 4069, 4083, 4088, 4081, 4091, 4080, 0, 1, 13100, -89.900, 0.000, 28.600, 0.000, 0.000, -2.800, 0.0, , , , , , 98, , , 67, 67, 67
38.5568897, -120.5321648, 23.600, 15:04:54.159, 16, 0.00, 0.07, 98, -0.600, 0.000, 27.100, 1823, 100, 95, 29, 24495, -17541, 4263, 4350, 10, 14, 1529532294.159, 7, 0, 1024, 1024, 1024, 1024, 0, 6, 4069, 4083, 4088, 4081, 4091, 4080, 0, 1, 13200, -90.000, 0.000, 28.600, 0.000, 0.000, -2.800, 0.0, , , , , , 98, , , 67, 67, 67
38.5568897, -120.5321648, 23.600, 15:04:54.259, 16, 0.00, 0.07, 98, -0.600, 0.000, 27.100, 1823, 100, 95, 29, 24495, -17541, 4263, 4350, 10, 14, 1529532294.259, 106, 0, 1024, 1024, 1024, 1024, 0, 6, 4069, 4083, 4088, 4081, 4091, 4080, 0, 1, 13300, -90.000, 0.000, 28.600, 0.000, 0.000, -2.800, 0.0, , , , , , 98, , , 67, 67, 67
38.5568896, -120.5321647, 23.900, 15:04:54.359, 16, 0.00, 0.08, 98, -0.400, -0.100, 27.100, 1823, 100, 95, 29, 24495, -17541, 4263, 4350, 10, 14, 1529532294.359, 90, 0, 1024, 1024, 1024, 1024, 0, 6, 4069, 4083, 4088, 4081, 4091, 4080, 0, 1, 13400, -90.000, 0.000, 28.600, 0.000, 0.000, -2.800, 0.0, , , , , , 98, , , 67, 67, 67
38.5568895, -120.5321645, 24.800, 15:04:54.463, 16, 0.00, 0.11, 98, -0.500, -0.100, 27.400, 1823, 100, 95, 29, 24510, -17208, 4263, 4350, 10, 14, 1529532294.463, 3, 0, 1024, 1024, 1024, 1024, 0, 6, 4069, 4083, 4088, 4081, 4091, 4080, 0, 1, 13504, -89.900, 0.000, 28.600, 0.000, 0.000, -2.800, 0.0, , , , , , 98, , , 67, 67, 67
38.5568895, -120.5321645, 24.800, 15:04:54.559, 16, 0.00, 0.11, 98, -0.500, -0.100, 27.400, 1823, 100, 95, 29, 24510, -17208, 4263, 4350, 10, 14, 1529532294.559, 98, 0, 1024, 1024, 1024, 1024, 0, 6, 4071, 4087, 4088, 4089, 4087, 4083, 0, 1, 13600, -89.900, 0.000, 28.600, 0.000, 0.000, -2.800, 0.0, , , , , , 98, , , 67, 67, 67
38.5568894, -120.5321644, 25.100, 15:04:54.659, 16, 0.00, 0.12, 98, -0.600, -0.100, 27.400, 1823, 100, 95, 29, 24510, -17208, 4263, 4350, 10, 14, 1529532294.659, 89, 0, 1024, 1024, 1024, 1024, 0, 6, 4071, 4087, 4088, 4089, 4087, 4083, 0, 1, 13700, -89.900, 0.000, 28.600, 0.000, 0.000, -2.800, 0.0, , , , , , 98, , , 67, 67, 67
38.5568894, -120.5321643, 25.400, 15:04:54.758, 16, 0.00, 0.12, 98, -0.900, -0.200, 27.400, 1823, 100, 95, 29, 24510, -17208, 4263, 4350, 10, 14, 1529532294.759, 90, 0, 1024, 1024, 1024, 1024, 0, 6, 4071, 4087, 4088, 4089, 4087, 4083, 0, 1, 13800, -90.000, 0.000, 28.600, 0.000, 0.000, -2.800, 0.0, , , , , , 98, , , 67, 67, 67
38.5568893, -120.5321642, 25.700, 15:04:54.858, 16, 0.00, 0.13, 98, -1.000, -0.100, 27.400, 1823, 100, 95, 29, 24510, -17208, 4263, 4350, 10, 14, 1529532294.858, 64, 0, 1024, 1024, 1024, 1024, 0, 6, 4071, 4087, 4088, 4089, 4087, 4083, 0, 1, 13899, -90.000, 0.000, 28.600, 0.000, 0.000, -2.800, 0.0, , , , , , 98, , , 67, 67, 67
38.5568893, -120.5321641, 26.000, 15:04:54.959, 16, 0.00, 0.14, 98, -1.000, 0.000, 27.300, 1823, 100, 95, 29, 24510, -17208, 4263, 4350, 10, 14, 1529532294.959, 80, 0, 1024, 1024, 1024, 1024, 0, 6, 4071, 4087, 4088, 4089, 4087, 4083, 0, 1, 14000, -89.900, 0.000, 28.600, 0.000, 0.000, -2.800, 0.0, , , , , , 98, , , 67, 67, 67
38.5568893, -120.5321641, 26.300, 15:04:55.058, 16, 0.00, 0.14, 98, -0.800, 0.000, 27.300, 1823, 100, 94, 29, 24510, -17208, 4263, 4350, 10, 14, 1529532295.059, 82, 0, 1024, 1024, 1024, 1024, 0, 6, 4071, 4087, 4088, 4089, 4087, 4083, 0, 1, 14100, -89.900, 0.000, 28.600, 0.000, 0.000, -2.800, 0.0, , , , , , 98, , , 67, 67, 67
38.5568892, -120.5321641, 26.600, 15:04:55.159, 16, 0.00, 0.15, 98, -0.600, 0.000, 27.200, 1823, 100, 94, 29, 24510, -17208, 4263, 4350, 10, 14, 1529532295.159, 75, 0, 1024, 1024, 1024, 1024, 0, 6, 4071, 4087, 4088, 4089, 4087, 4083, 0, 1, 14200, -89.900, 0.000, 28.600, 0.000, 0.000, -2.800, 0.0, , , , , , 98, , , 67, 67, 67
38.5568892, -120.5321641, 26.800, 15:04:55.258, 16, 0.00, 0.15, 98, -0.300, 0.000, 27.300, 1823, 100, 94, 29, 24510, -17208, 4263, 4350, 10, 14, 1529532295.259, 60, 0, 1024, 1024, 1024, 1024, 0, 6, 4071, 4087, 4088, 4089, 4087, 4083, 0, 1, 14300, -89.900, 0.000, 28.600, 0.000, 0.000, -2.800, 0.0, , , , , , 98, , , 67, 67, 67
38.5568892, -120.5321641, 27.100, 15:04:55.358, 16, 0.00, 0.15, 98, 0.000, -0.100, 27.400, 1823, 100, 94, 29, 24510, -17208, 4263, 4350, 10, 14, 1529532295.359, 70, 0, 1024, 1024, 1024, 1024, 0, 6, 4071, 4087, 4088, 4089, 4087, 4083, 0, 1, 14400, -90.000, 0.000, 28.600, 0.000, 0.000, -2.800, 0.0, , , , , , 98, , , 67, 67, 67
38.5568891, -120.5321641, 27.400, 15:04:55.458, 16, 0.00, 0.15, 98, 0.000, -0.300, 27.500, 1823, 100, 94, 29, 24492, -16872, 4263, 4350, 10, 14, 1529532295.459, 74, 0, 1024, 1024, 1024, 1024, 0, 6, 4064, 4087, 4083, 4081, 4091, 4080, 0, 1, 14500, -90.000, 0.000, 28.600, 0.000, 0.000, -2.800, 0.0, , , , , , 98, , , 67, 67, 67
38.5568891, -120.5321641, 27.800, 15:04:55.558, 16, 0.00, 0.16, 98, -0.100, -0.400, 27.600, 1823, 100, 94, 29, 24492, -16872, 4263, 4350, 10, 14, 1529532295.558, 61, 0, 1024, 1024, 1024, 1024, 0, 6, 4064, 4087, 4083, 4081, 4091, 4080, 0, 1, 14599, -90.000, 0.000, 28.600, 0.000, 0.000, -2.900, 0.0, , , , , , 98, , , 67, 67, 67
38.5568891, -120.5321641, 28.100, 15:04:55.658, 16, 0.00, 0.16, 98, 0.000, -0.500, 27.700, 1823, 100, 94, 29, 24492, -16872, 4263, 4350, 10, 14, 1529532295.659, 53, 0, 1024, 1024, 1024, 1024, 0, 6, 4064, 4087, 4083, 4081, 4091, 4080, 0, 1, 14700, -90.000, 0.000, 28.600, 0.000, 0.000, -2.800, 0.0, , , , , , 98, , , 67, 67, 67
38.5568891, -120.5321641, 28.300, 15:04:55.759, 16, 0.00, 0.16, 98, -0.100, -0.400, 27.900, 1823, 100, 94, 29, 24492, -16872, 4263, 4350, 10, 14, 1529532295.759, 36, 0, 1024, 1024, 1024, 1024, 0, 6, 4064, 4087, 4083, 4081, 4091, 4080, 0, 1, 14800, -90.000, 0.000, 28.600, 0.000, 0.000, -2.800, 0.0, , , , , , 98, , , 67, 67, 67
38.5568891, -120.5321641, 28.600, 15:04:55.858, 16, 0.00, 0.16, 98, -0.200, -0.300, 28.000, 1823, 100, 94, 29, 24492, -16872, 4263, 4350, 10, 14, 1529532295.858, 35, 0, 1024, 1024, 1024, 1024, 0, 6, 4064, 4087, 4083, 4081, 4091, 4080, 0, 1, 14899, -90.000, 0.000, 28.600, 0.000, 0.000, -2.800, 0.0, , , , , , 98, , , 67, 67, 67
38.5568891, -120.5321641, 29.000, 15:04:55.958, 16, 0.00, 0.16, 98, -0.300, -0.300, 28.100, 1823, 100, 94, 29, 24492, -16872, 4263, 4350, 10, 14, 1529532295.959, 24, 0, 1024, 1024, 1024, 1024, 0, 6, 4064, 4087, 4083, 4081, 4091, 4080, 0, 1, 15000, -90.000, 0.000, 28.600, 0.000, 0.000, -2.800, 0.0, , , , , , 98, , , 67, 67, 67
38.5568891, -120.5321642, 29.300, 15:04:56.058, 16, 0.00, 0.16, 98, -0.100, -0.300, 28.200, 1823, 100, 94, 29, 24492, -16872, 4263, 4350, 10, 14, 1529532296.059, 29, 0, 1024, 1024, 1024, 1024, 0, 6, 4064, 4087, 4083, 4081, 4091, 4080, 0, 1, 15100, -90.000, 0.000, 28.600, 0.000, 0.000, -2.800, 0.0, , , , , , 98, , , 67, 67, 67
38.5568890, -120.5321641, 29.600, 15:04:56.158, 16, 0.00, 0.16, 98, -0.100, -0.400, 28.200, 1823, 100, 94, 29, 24492, -16872, 4263, 4350, 10, 14, 1529532296.159, 31, 0, 1024, 1024, 1024, 1024, 0, 6, 4064, 4087, 4083, 4081, 4091, 4080, 0, 1, 15200, -90.000, 0.000, 28.600, 0.000, 0.000, -2.900, 0.0, , , , , , 98, , , 67, 67, 67
38.5568890, -120.5321641, 29.600, 15:04:56.258, 16, 0.00, 0.16, 98, -0.100, -0.400, 28.200, 1823, 100, 94, 29, 24492, -16872, 4263, 4350, 10, 14, 1529532296.259, 131, 0, 1024, 1024, 1024, 1024, 0, 6, 4064, 4087, 4083, 4081, 4091, 4080, 0, 1, 15300, -90.000, 0.000, 28.600, 0.000, 0.000, -2.900, 0.0, , , , , , 98, , , 67, 67, 67
38.5568890, -120.5321641, 30.100, 15:04:56.358, 16, 0.00, 0.17, 98, -0.500, -0.700, 28.000, 1823, 100, 94, 29, 24492, -16872, 4263, 4350, 10, 14, 1529532296.359, 2, 0, 1024, 1024, 1024, 1024, 0, 6, 4064, 4087, 4083, 4081, 4091, 4080, 0, 1, 15400, -90.000, 0.000, 28.600, 0.000, 0.000, -2.800, 0.0, , , , , , 98, , , 67, 67, 67
38.5568890, -120.5321641, 30.500, 15:04:56.458, 16, 0.00, 0.17, 98, -0.700, -0.600, 27.900, 1823, 100, 94, 29, 24473, -16544, 4219, 4350, 10, 14, 1529532296.458, 5, 0, 1024, 1024, 1024, 1024, 0, 6, 4075, 4085, 4086, 4086, 4094, 4079, 0, 1, 15499, -89.900, 0.000, 28.600, 0.000, 0.000, -2.800, 0.0, , , , , , 98, , , 67, 67, 67
38.5568890, -120.5321641, 30.800, 15:04:56.563, 16, 0.14, 0.16, 98, -0.400, -0.400, 27.800, 1823, 100, 96, 29, 24473, -16544, 4219, 4350, 10, 14, 1529532296.563, 3, 0, 1024, 1024, 1024, 1024, 0, 6, 4075, 4085, 4086, 4086, 4094, 4079, 0, 1, 15604, -89.900, 0.000, 28.600, 0.100, -0.100, -2.800, 0.0, , , , , , 98, , , 67, 67, 67
38.5568891, -120.5321642, 31.100, 15:04:56.658, 16, 0.14, 0.16, 98, 0.000, -0.400, 27.700, 1823, 100, 96, 29, 24473, -16544, 4219, 4350, 10, 14, 1529532296.659, 94, 0, 1024, 1024, 1024, 1024, 0, 6, 4075, 4085, 4086, 4086, 4094, 4079, 0, 1, 15700, -89.900, 0.000, 28.600, 0.100, -0.100, -2.800, 0.0, , , , , , 98, , , 67, 67, 67
38.5568891, -120.5321642, 31.300, 15:04:56.758, 16, 0.14, 0.15, 98, 0.100, -0.400, 27.800, 1823, 100, 96, 29, 24473, -16544, 4219, 4350, 10, 14, 1529532296.758, 91, 0, 1024, 1024, 1024, 1024, 0, 6, 4075, 4085, 4086, 4086, 4094, 4079, 0, 1, 15799, -90.000, 0.000, 28.600, 0.100, -0.100, -2.800, 0.0, , , , , , 98, , , 67, 67, 67
38.5568891, -120.5321643, 31.600, 15:04:56.858, 16, 0.14, 0.15, 98, 0.400, -0.300, 27.800, 1823, 100, 96, 29, 24473, -16544, 4219, 4350, 10, 14, 1529532296.858, 56, 0, 1024, 1024, 1024, 1024, 0, 6, 4075, 4085, 4086, 4086, 4094, 4079, 0, 1, 15899, -90.000, 0.000, 28.600, 0.100, -0.100, -2.800, 0.0, , , , , , 98, , , 67, 67, 67
38.5568891, -120.5321643, 31.900, 15:04:56.958, 16, 0.14, 0.14, 98, 0.400, -0.400, 27.900, 1823, 100, 96, 29, 24473, -16544, 4219, 4350, 10, 14, 1529532296.959, 77, 0, 1024, 1024, 1024, 1024, 0, 6, 4075, 4085, 4086, 4086, 4094, 4079, 0, 1, 16000, -89.900, 0.000, 28.600, 0.100, -0.100, -2.800, 0.0, , , , , , 98, , , 67, 67, 67
38.5568892, -120.5321643, 32.200, 15:04:57.059, 16, 0.10, 0.14, 98, 0.300, -0.400, 28.000, 1823, 100, 100, 29, 24473, -16544, 4219, 4350, 10, 14, 1529532297.059, 90, 0, 1024, 1024, 1024, 1024, 0, 6, 4075, 4085, 4086, 4086, 4094, 4079, 0, 1, 16100, -90.000, 0.000, 28.600, 0.100, 0.000, -2.700, 0.0, , , , , , 98, , , 67, 67, 67
38.5568892, -120.5321643, 32.500, 15:04:57.158, 16, 0.10, 0.13, 98, 0.100, -0.300, 28.000, 1823, 100, 100, 29, 24473, -16544, 4219, 4350, 10, 14, 1529532297.159, 56, 0, 1024, 1024, 1024, 1024, 0, 6, 4075, 4085, 4086, 4086, 4094, 4079, 0, 1, 16200, -90.000, 0.000, 28.600, 0.100, 0.000, -2.700, 0.0, , , , , , 98, , , 67, 67, 67
38.5568892, -120.5321643, 32.800, 15:04:57.259, 16, 0.10, 0.13, 98, 0.000, -0.300, 28.000, 1823, 100, 100, 29, 24473, -16544, 4219, 4350, 10, 14, 1529532297.259, 63, 0, 1024, 1024, 1024, 1024, 0, 6, 4075, 4085, 4086, 4086, 4094, 4079, 0, 1, 16300, -90.000, 0.000, 28.600, 0.100, 0.000, -2.700, 0.0, , , , , , 98, , , 67, 67, 67
38.5568892, -120.5321643, 33.100, 15:04:57.359, 16, 0.10, 0.14, 98, 0.000, -0.100, 28.000, 1823, 100, 100, 29, 24473, -16544, 4219, 4350, 10, 14, 1529532297.359, 53, 0, 1024, 1024, 1024, 1024, 0, 6, 4075, 4085, 4086, 4086, 4094, 4079, 0, 1, 16400, -89.900, 0.000, 28.600, 0.100, 0.000, -2.800, 0.0, , , , , , 98, , , 67, 67, 67
38.5568892, -120.5321643, 33.400, 15:04:57.458, 17, 0.10, 0.13, 97, 0.000, -0.100, 27.900, 1823, 100, 100, 29, 24513, -16381, 4219, 4350, 10, 14, 1529532297.458, 71, 0, 1024, 1024, 1024, 1024, 0, 6, 4075, 4085, 4086, 4086, 4094, 4079, 0, 1, 16499, -89.900, 0.000, 28.600, 0.100, 0.000, -2.800, 0.0, , , , , , 98, , , 67, 67, 67
38.5568893, -120.5321644, 33.700, 15:04:57.559, 17, 0.10, 0.13, 97, 0.000, -0.100, 27.900, 1823, 100, 100, 29, 24513, -16381, 4219, 4350, 10, 14, 1529532297.559, 59, 0, 1024, 1024, 1024, 1024, 0, 6, 4075, 4085, 4086, 4086, 4094, 4079, 0, 1, 16600, -90.000, 0.000, 28.600, 0.100, 0.000, -2.800, 0.0, , , , , , 98, , , 67, 67, 67
38.5568893, -120.5321644, 34.000, 15:04:57.658, 17, 0.10, 0.13, 97, 0.100, -0.200, 27.800, 1823, 100, 100, 29, 24513, -16381, 4219, 4350, 10, 14, 1529532297.658, 51, 0, 1024, 1024, 1024, 1024, 0, 6, 4075, 4085, 4086, 4086, 4094, 4079, 0, 1, 16699, -89.900, 0.000, 28.600, 0.100, 0.000, -2.800, 0.0, , , , , , 98, , , 67, 67, 67
38.5568893, -120.5321644, 34.300, 15:04:57.759, 17, 0.10, 0.12, 97, 0.200, -0.200, 27.800, 1823, 100, 100, 29, 24513, -16381, 4219, 4350, 10, 14, 1529532297.759, 54, 0, 1024, 1024, 1024, 1024, 0, 6, 4075, 4085, 4086, 4086, 4094, 4079, 0, 1, 16800, -89.900, 0.000, 28.600, 0.100, 0.000, -2.800, 0.0, , , , , , 98, , , 67, 67, 67
38.5568893, -120.5321644, 34.600, 15:04:57.858, 17, 0.10, 0.12, 97, 0.200, -0.300, 27.700, 1823, 100, 100, 29, 24513, -16381, 4219, 4350, 10, 14, 1529532297.858, 54, 0, 1024, 1024, 1024, 1024, 0, 6, 4075, 4085, 4086, 4086, 4094, 4079, 0, 1, 16899, -89.900, 0.000, 28.600, 0.100, 0.000, -2.900, 0.0, , , , , , 98, , , 67, 67, 67
38.5568894, -120.5321644, 34.900, 15:04:57.959, 17, 0.10, 0.12, 97, 0.300, -0.200, 27.600, 1823, 100, 100, 29, 24513, -16381, 4219, 4350, 10, 14, 1529532297.959, 46, 0, 1024, 1024, 1024, 1024, 0, 6, 4074, 4095, 4082, 4079, 4092, 4075, 0, 1, 17000, -89.900, 0.000, 28.600, 0.100, 0.000, -2.900, 0.0, , , , , , 98, , , 67, 67, 67
38.5568894, -120.5321644, 35.200, 15:04:58.059, 17, 0.10, 0.11, 97, 0.300, -0.100, 27.600, 1823, 100, 100, 29, 24513, -16381, 4219, 4350, 10, 14, 1529532298.059, 41, 0, 1024, 1024, 1024, 1024, 0, 6, 4074, 4095, 4082, 4079, 4092, 4075, 0, 1, 17100, -89.900, 0.000, 28.600, 0.100, 0.000, -2.800, 0.0, , , , , , 98, , , 67, 67, 67
38.5568894, -120.5321644, 35.500, 15:04:58.159, 17, 0.10, 0.12, 97, 0.300, 0.000, 27.600, 1823, 100, 100, 29, 24513, -16381, 4219, 4350, 10, 14, 1529532298.159, 32, 0, 1024, 1024, 1024, 1024, 0, 6, 4074, 4095, 4082, 4079, 4092, 4075, 0, 1, 17200, -89.900, 0.000, 28.600, 0.100, 0.000, -2.800, 0.0, , , , , , 98, , , 67, 67, 67
38.5568894, -120.5321644, 35.800, 15:04:58.259, 17, 0.10, 0.12, 97, 0.200, 0.000, 27.600, 1823, 100, 100, 29, 24513, -16381, 4219, 4350, 10, 14, 1529532298.259, 14, 0, 1024, 1024, 1024, 1024, 0, 6, 4074, 4095, 4082, 4079, 4092, 4075, 0, 1, 17300, -89.900, 0.000, 28.600, 0.100, 0.000, -2.800, 0.0, , , , , , 98, , , 67, 67, 67
38.5568893, -120.5321645, 36.100, 15:04:58.359, 17, 0.00, 0.12, 97, 0.100, 0.000, 27.600, 1823, 100, 100, 29, 24513, -16381, 4219, 4350, 10, 14, 1529532298.359, 28, 0, 1024, 1024, 1024, 1024, 0, 6, 4074, 4095, 4082, 4079, 4092, 4075, 0, 1, 17400, -90.000, 0.000, 28.600, 0.000, 0.000, -2.900, 0.0, , , , , , 98, , , 67, 67, 67
38.5568893, -120.5321645, 36.400, 15:04:58.458, 17, 0.00, 0.12, 97, 0.000, -0.200, 27.700, 1823, 100, 100, 29, 24513, -16381, 4219, 4350, 10, 14, 1529532298.459, 23, 0, 1024, 1024, 1024, 1024, 0, 6, 4074, 4095, 4082, 4079, 4092, 4075, 0, 1, 17500, -90.000, 0.000, 28.600, 0.000, 0.000, -2.800, 0.0, , , , , , 98, , , 67, 67, 67
38.5568893, -120.5321645, 36.400, 15:04:58.559, 17, 0.00, 0.12, 97, 0.000, -0.200, 27.700, 1823, 100, 100, 29, 24513, -16381, 4219, 4350, 10, 14, 1529532298.559, 123, 0, 1024, 1024, 1024, 1024, 0, 6, 4074, 4095, 4082, 4079, 4092, 4075, 0, 1, 17600, -90.000, 0.000, 28.600, 0.000, 0.000, -2.800, 0.0, , , , , , 98, , , 67, 67, 67
38.5568893, -120.5321645, 37.000, 15:04:58.659, 17, 0.00, 0.12, 97, 0.000, -0.300, 27.800, 1823, 100, 100, 29, 24513, -16381, 4219, 4350, 10, 14, 1529532298.659, 22, 0, 1024, 1024, 1024, 1024, 0, 6, 4074, 4095, 4082, 4079, 4092, 4075, 0, 1, 17700, -90.000, 0.000, 28.600, 0.000, 0.000, -2.800, 0.0, , , , , , 98, , , 67, 67, 67
38.5568893, -120.5321645, 37.300, 15:04:58.758, 17, 0.00, 0.12, 97, 0.100, -0.300, 27.800, 1823, 100, 100, 29, 24513, -16381, 4219, 4350, 10, 14, 1529532298.759, 10, 0, 1024, 1024, 1024, 1024, 0, 6, 4074, 4095, 4082, 4079, 4092, 4075, 0, 1, 17800, -89.900, 0.000, 28.600, 0.000, 0.000, -2.800, 0.0, , , , , , 98, , , 67, 67, 67
38.5568893, -120.5321645, 37.300, 15:04:58.858, 17, 0.00, 0.12, 97, 0.100, -0.300, 27.800, 1823, 100, 100, 29, 24513, -16381, 4219, 4350, 10, 14, 1529532298.858, 110, 0, 1024, 1024, 1024, 1024, 0, 6, 4074, 4095, 4082, 4079, 4092, 4075, 0, 1, 17899, -89.900, 0.000, 28.600, 0.000, 0.000, -2.800, 0.0, , , , , , 98, , , 67, 67, 67
38.5568893, -120.5321645, 37.600, 15:04:58.958, 17, 0.00, 0.12, 97, 0.300, -0.100, 27.900, 1823, 100, 100, 29, 24513, -16381, 4219, 4350, 10, 14, 1529532298.958, 84, 0, 1024, 1024, 1024, 1024, 0, 6, 4074, 4095, 4082, 4079, 4092, 4075, 0, 1, 17999, -89.900, 0.000, 28.600, 0.000, 0.000, -2.900, 0.0, , , , , , 98, , , 67, 67, 67
38.5568892, -120.5321646, 38.200, 15:04:59.058, 17, 0.00, 0.12, 97, 0.100, -0.300, 27.900, 1823, 100, 99, 29, 24417, -17389, 4219, 4350, 10, 14, 1529532299.059, 96, 0, 1024, 1024, 1024, 1024, 0, 6, 4059, 4076, 4070, 4072, 4072, 4062, 0, 1, 18100, -89.900, 0.000, 28.600, 0.000, 0.000, -2.800, 0.0, , , , , , 98, , , 67, 67, 67
38.5568892, -120.5321645, 38.500, 15:04:59.158, 17, 0.00, 0.13, 97, 0.000, -0.500, 27.900, 1823, 100, 99, 29, 24417, -17389, 4219, 4350, 10, 14, 1529532299.159, 91, 0, 1024, 1024, 1024, 1024, 0, 6, 4059, 4076, 4070, 4072, 4072, 4062, 0, 1, 18200, -90.000, 0.000, 28.600, 0.000, 0.000, -2.800, 0.0, , , , , , 98, , , 67, 67, 67
38.5568891, -120.5321645, 38.800, 15:04:59.258, 17, 0.00, 0.13, 97, 0.000, -0.500, 27.900, 1823, 100, 99, 29, 24417, -17389, 4219, 4350, 10, 14, 1529532299.259, 85, 0, 1024, 1024, 1024, 1024, 0, 6, 4059, 4076, 4070, 4072, 4072, 4062, 0, 1, 18300, -90.000, 0.000, 28.600, 0.000, 0.000, -2.800, 0.0, , , , , , 98, , , 67, 67, 67
38.5568891, -120.5321645, 39.100, 15:04:59.359, 17, 0.00, 0.14, 97, -0.100, -0.500, 27.800, 1823, 100, 99, 29, 24417, -17389, 4219, 4350, 10, 14, 1529532299.359, 87, 0, 1024, 1024, 1024, 1024, 0, 6, 4059, 4076, 4070, 4072, 4072, 4062, 0, 1, 18400, -90.000, 0.000, 28.600, 0.000, 0.000, -2.800, 0.0, , , , , , 98, , , 67, 67, 67
38.5568890, -120.5321645, 39.400, 15:04:59.458, 17, 0.00, 0.14, 97, -0.400, -0.600, 27.800, 1823, 100, 99, 29, 24417, -17389, 4219, 4350, 10, 14, 1529532299.459, 64, 0, 1024, 1024, 1024, 1024, 0, 6, 4059, 4076, 4070, 4072, 4072, 4062, 0, 1, 18500, -90.000, 0.000, 28.600, 0.000, 0.000, -2.800, 0.0, , , , , , 98, , , 67, 67, 67
38.5568889, -120.5321644, 39.700, 15:04:59.558, 17, 0.00, 0.15, 97, -0.700, -0.500, 27.700, 1823, 100, 99, 29, 24417, -17389, 4219, 4350, 10, 14, 1529532299.559, 59, 0, 1024, 1024, 1024, 1024, 0, 6, 4059, 4076, 4070, 4072, 4072, 4062, 0, 1, 18600, -89.900, 0.000, 28.600, 0.000, 0.000, -2.800, 0.0, , , , , , 98, , , 67, 67, 67
38.5568889, -120.5321644, 40.000, 15:04:59.658, 17, 0.00, 0.16, 97, -0.900, -0.400, 27.600, 1823, 100, 99, 29, 24417, -17389, 4219, 4350, 10, 14, 1529532299.659, 63, 0, 1024, 1024, 1024, 1024, 0, 6, 4059, 4076, 4070, 4072, 4072, 4062, 0, 1, 18700, -89.900, 0.000, 28.600, 0.000, 0.000, -2.800, 0.0, , , , , , 98, , , 67, 67, 67
38.5568888, -120.5321643, 40.300, 15:04:59.758, 17, 0.00, 0.18, 97, -1.100, -0.300, 27.600, 1823, 100, 99, 29, 24417, -17389, 4219, 4350, 10, 14, 1529532299.758, 59, 0, 1024, 1024, 1024, 1024, 0, 6, 4059, 4076, 4070, 4072, 4072, 4062, 0, 1, 18799, -90.000, 0.000, 28.600, 0.000, 0.000, -2.800, 0.0, , , , , , 98, , , 67, 67, 67
38.5568887, -120.5321642, 40.600, 15:04:59.858, 17, 0.00, 0.19, 97, -1.200, -0.400, 27.600, 1823, 100, 99, 29, 24417, -17389, 4219, 4350, 10, 14, 1529532299.858, 63, 0, 1024, 1024, 1024, 1024, 0, 6, 4059, 4076, 4070, 4072, 4072, 4062, 0, 1, 18899, -90.000, 0.000, 28.600, 0.000, 0.000, -2.800, 0.0, , , , , , 98, , , 67, 67, 67
38.5568886, -120.5321641, 40.900, 15:04:59.958, 17, 0.00, 0.20, 97, -1.400, -0.500, 27.600, 1823, 100, 99, 30, 24407, -17293, 4219, 4350, 10, 14, 1529532299.959, 35, 0, 1024, 1024, 1024, 1024, 0, 6, 4052, 4065, 4071, 4069, 4074, 4061, 0, 1, 19000, -90.000, 0.000, 28.600, 0.000, 0.000, -2.800, 0.0, , , , , , 98, , , 67, 67, 67
38.5568885, -120.5321640, 41.200, 15:05:00.058, 17, 0.00, 0.21, 97, -1.600, -0.500, 27.600, 1823, 100, 99, 30, 24407, -17293, 4219, 4350, 10, 14, 1529532300.059, 35, 0, 1024, 1024, 1024, 1024, 0, 6, 4052, 4065, 4071, 4069, 4074, 4061, 0, 1, 19100, -89.900, 0.000, 28.600, 0.000, 0.000, -2.800, 0.0, , , , , , 98, , , 67, 67, 67
38.5568885, -120.5321640, 41.500, 15:05:00.158, 17, 0.00, 0.22, 97, -1.700, -0.600, 27.700, 1823, 100, 99, 30, 24407, -17293, 4219, 4350, 10, 14, 1529532300.159, 33, 0, 1024, 1024, 1024, 1024, 0, 6, 4052, 4065, 4071, 4069, 4074, 4061, 0, 1, 19200, -90.000, 0.000, 28.600, 0.000, 0.000, -2.900, 0.0, , , , , , 98, , , 67, 67, 67
38.5568884, -120.5321639, 41.800, 15:05:00.258, 17, 0.00, 0.23, 97, -1.700, -0.700, 27.700, 1823, 100, 99, 30, 24407, -17293, 4219, 4350, 10, 14, 1529532300.258, 31, 0, 1024, 1024, 1024, 1024, 0, 6, 4052, 4065, 4071, 4069, 4074, 4061, 0, 1, 19299, -89.900, 0.000, 28.600, 0.000, 0.000, -2.800, 0.0, , , , , , 98, , , 67, 67, 67
38.5568884, -120.5321639, 42.100, 15:05:00.358, 17, 0.00, 0.23, 97, -1.700, -0.700, 27.600, 1823, 100, 99, 30, 24407, -17293, 4219, 4350, 10, 14, 1529532300.359, 8, 0, 1024, 1024, 1024, 1024, 0, 6, 4052, 4065, 4071, 4069, 4074, 4061, 0, 1, 19400, -89.900, 0.000, 28.600, 0.000, 0.000, -2.800, 0.0, , , , , , 98, , , 67, 67, 67
38.5568883, -120.5321638, 42.400, 15:05:00.458, 17, 0.10, 0.24, 97, -1.700, -0.500, 27.600, 1823, 100, 99, 30, 24407, -17293, 4219, 4350, 10, 14, 1529532300.458, 10, 0, 1024, 1024, 1024, 1024, 0, 6, 4052, 4065, 4071, 4069, 4074, 4061, 0, 1, 19499, -89.900, 0.000, 28.600, 0.100, 0.000, -2.900, 0.0, , , , , , 98, , , 67, 67, 67
38.5568883, -120.5321638, 42.700, 15:05:00.558, 17, 0.10, 0.25, 97, -1.700, -0.400, 27.600, 1823, 100, 100, 30, 24407, -17293, 4219, 4350, 10, 14, 1529532300.559, 29, 0, 1024, 1024, 1024, 1024, 0, 6, 4052, 4065, 4071, 4069, 4074, 4061, 0, 1, 19600, -89.900, 0.000, 28.600, 0.100, 0.000, -2.800, 0.0, , , , , , 98, , , 67, 67, 67
38.5568882, -120.5321637, 43.000, 15:05:00.658, 17, 0.10, 0.25, 97, -1.600, -0.400, 27.600, 1823, 100, 100, 30, 24407, -17293, 4219, 4350, 10, 14, 1529532300.659, 31, 0, 1024, 1024, 1024, 1024, 0, 6, 4052, 4065, 4071, 4069, 4074, 4061, 0, 1, 19700, -90.000, 0.000, 28.600, 0.100, 0.000, -2.800, 0.0, , , , , , 98, , , 67, 67, 67
38.5568882, -120.5321637, 43.300, 15:05:00.758, 17, 0.10, 0.26, 97, -1.600, -0.600, 27.700, 1823, 100, 100, 30, 24407, -17293, 4219, 4350, 10, 14, 1529532300.759, 8, 0, 1024, 1024, 1024, 1024, 0, 6, 4052, 4065, 4071, 4069, 4074, 4061, 0, 1, 19800, -90.000, 0.000, 28.600, 0.100, 0.000, -2.800, 0.0, , , , , , 98, , , 67, 67, 67
38.5568882, -120.5321637, 43.300, 15:05:00.858, 17, 0.10, 0.26, 97, -1.600, -0.600, 27.700, 1823, 100, 100, 30, 24407, -17293, 4219, 4350, 10, 14, 1529532300.858, 108, 0, 1024, 1024, 1024, 1024, 0, 6, 4052, 4065, 4071, 4069, 4074, 4061, 0, 1, 19899, -90.000, 0.000, 28.600, 0.100, 0.000, -2.800, 0.0, , , , , , 98, , , 67, 67, 67
38.5568882, -120.5321637, 43.600, 15:05:00.958, 17, 0.10, 0.26, 97, -1.500, -0.500, 27.700, 1823, 100, 100, 30, 24407, -17293, 4219, 4350, 10, 14, 1529532300.959, 96, 0, 1024, 1024, 1024, 1024, 0, 6, 4052, 4065, 4071, 4069, 4074, 4061, 0, 1, 20000, -89.900, 0.000, 28.600, 0.100, 0.000, -2.800, 0.0, , , , , , 98, , , 67, 67, 67
38.5568884, -120.5321638, 44.200, 15:05:01.057, 17, 0.10, 0.24, 97, -1.000, -0.100, 27.600, 1823, 100, 98, 30, 24384, -17189, 4219, 4350, 10, 14, 1529532301.058, 34, 0, 1024, 1024, 1024, 1024, 0, 6, 4051, 4066, 4065, 4065, 4074, 4061, 0, 1, 20099, -89.900, 0.000, 28.600, 0.100, 0.000, -2.900, 0.0, , , , , , 98, , , 67, 67, 67
38.5568884, -120.5321637, 44.500, 15:05:01.158, 17, 0.10, 0.24, 97, -0.800, 0.000, 27.600, 1823, 100, 98, 30, 24384, -17189, 4219, 4350, 10, 14, 1529532301.158, 78, 0, 1024, 1024, 1024, 1024, 0, 6, 4051, 4066, 4065, 4065, 4074, 4061, 0, 1, 20199, -89.900, 0.000, 28.600, 0.100, 0.000, -2.900, 0.0, , , , , , 98, , , 67, 67, 67
38.5568884, -120.5321637, 44.800, 15:05:01.258, 17, 0.10, 0.24, 97, -0.800, 0.000, 27.600, 1823, 100, 98, 30, 24384, -17189, 4219, 4350, 10, 14, 1529532301.259, 59, 0, 1024, 1024, 1024, 1024, 0, 6, 4051, 4066, 4065, 4065, 4074, 4061, 0, 1, 20300, -89.900, 0.000, 28.600, 0.100, 0.000, -2.800, 0.0, , , , , , 98, , , 67, 67, 67
38.5568883, -120.5321637, 45.000, 15:05:01.358, 17, 0.10, 0.24, 97, -0.900, -0.100, 27.700, 1823, 100, 98, 30, 24384, -17189, 4219, 4350, 10, 14, 1529532301.359, 57, 0, 1024, 1024, 1024, 1024, 0, 6, 4051, 4066, 4065, 4065, 4074, 4061, 0, 1, 20400, -89.900, 0.000, 28.600, 0.100, 0.000, -2.800, 0.0, , , , , , 98, , , 67, 67, 67
38.5568883, -120.5321637, 45.300, 15:05:01.458, 17, 0.10, 0.25, 97, -1.100, -0.300, 27.700, 1823, 100, 98, 30, 24384, -17189, 4219, 4350, 10, 14, 1529532301.459, 48, 0, 1024, 1024, 1024, 1024, 0, 6, 4051, 4066, 4065, 4065, 4074, 4061, 0, 1, 20500, -90.000, 0.000, 28.600, 0.100, 0.000, -2.900, 0.0, , , , , , 98, , , 67, 67, 67
38.5568883, -120.5321637, 45.600, 15:05:01.558, 17, 0.10, 0.25, 97, -1.300, -0.400, 27.700, 1823, 100, 98, 30, 24384, -17189, 4219, 4350, 10, 14, 1529532301.559, 59, 0, 1024, 1024, 1024, 1024, 0, 6, 4051, 4066, 4065, 4065, 4074, 4061, 0, 1, 20600, -89.900, 0.000, 28.600, 0.100, 0.000, -2.900, 0.0, , , , , , 98, , , 67, 67, 67
38.5568883, -120.5321636, 45.900, 15:05:01.658, 17, 0.10, 0.25, 97, -1.400, -0.400, 27.700, 1823, 100, 98, 30, 24384, -17189, 4219, 4350, 10, 14, 1529532301.658, 31, 0, 1024, 1024, 1024, 1024, 0, 6, 4051, 4066, 4065, 4065, 4074, 4061, 0, 1, 20699, -90.000, 0.000, 28.600, 0.100, 0.000, -2.800, 0.0, , , , , , 98, , , 67, 67, 67
38.5568882, -120.5321636, 46.200, 15:05:01.758, 17, 0.10, 0.26, 97, -1.400, -0.400, 27.600, 1823, 100, 98, 30, 24384, -17189, 4219, 4350, 10, 14, 1529532301.759, 45, 0, 1024, 1024, 1024, 1024, 0, 6, 4051, 4066, 4065, 4065, 4074, 4061, 0, 1, 20800, -90.000, 0.000, 28.600, 0.100, 0.000, -2.800, 0.0, , , , , , 98, , , 67, 67, 67
38.5568882, -120.5321636, 46.500, 15:05:01.858, 17, 0.10, 0.26, 97, -1.300, -0.400, 27.600, 1823, 100, 98, 30, 24384, -17189, 4219, 4350, 10, 14, 1529532301.858, 58, 0, 1024, 1024, 1024, 1024, 0, 6, 4051, 4066, 4065, 4065, 4074, 4061, 0, 1, 20899, -90.000, 0.000, 28.600, 0.100, 0.000, -2.800, 0.0, , , , , , 98, , , 67, 67, 67
