Latitude, Longitude, Altitude (m), Time, Sats, Speed (m/s), Range (m), Battery (%), Roll (deg), Pitch (deg), Yaw (deg), Images, HD Signal (%), RC Signal (%), Battery Temp (C), Battery Voltage (mV), Battery Current (mA), Battery Energy (mAh), Battery Capacity (mAh), Battery Discharges, flyState, timestamp (Unix), LastUpdate (ms), radioChannel, Rc_elevator, Rc_aileron, Rc_throttle, Rc_rudder, Rc_gyro, Dronetype, Battery_Cell1 (mV), Battery_Cell2 (mV), Battery_Cell3 (mV), Battery_Cell4 (mV), Battery_Cell5 (mV), Battery_Cell6 (mV), Video, isFlying, elapsedTime (ms), gimbalPitch (deg), gimbalRoll (deg), gimbalYaw (deg), VelocityX (m/s), VelocityY (m/s), VelocityZ (m/s), GroundSmear (cm), App Version, Aircraft Name, Aircraft Firmware, Aircraft Serial Number, Battery Serial Number, Battery Lifetime (%), App_Tip, App_Warning, CurrentFlightStartingIndex, CurrentFlightLastVisitedWaypoint, PreviousFlightEndingWaypointIndex
38.5568470, -120.5320675, -0.200, 14:32:03.578, 11, 0.00, 0.05, 100, -1.200, -0.500, 33.500, 1177, 100, 96, 28, 25795, -2961, 5339, 5339, 19, 11, 1529530323.578, 32, 0, 1024, 1024, 1024, 1024, 0, 6, 4320, 4320, 4317, 4326, 4323, 4303, 0, 1, 2806, -90.000, 0.000, 32.300, 0.000, 0.000, 0.100, 0.0, MapPilot_2.8.1_04242018, Dendroctonus I, 1.3.1.00, 041DDC1887, 1058171200161, 96, DJI_0174.jpg, Starting Mission from Lat/Long: 38.55685/-120.53207 Camera: Zenmuse X3 - Overlap: 90/90 - Active Connection: No, 43, 43, 43
38.5568471, -120.5320676, -0.200, 14:32:03.673, 11, 0.10, 0.07, 100, -0.500, -0.600, 33.400, 1177, 100, 96, 28, 25795, -2961, 5339, 5339, 19, 11, 1529530323.673, 21, 0, 1024, 1024, 1024, 1024, 0, 6, 4320, 4320, 4317, 4326, 4323, 4303, 0, 1, 2901, -89.900, 0.000, 32.300, 0.100, 0.000, -0.100, 0.1, , , , , , 96, , , 43, 43, 43
38.5568471, -120.5320676, -0.200, 14:32:03.773, 11, 0.10, 0.07, 100, -0.500, -0.600, 33.400, 1177, 100, 96, 28, 25795, -2961, 5339, 5339, 19, 11, 1529530323.773, 121, 0, 1024, 1024, 1024, 1024, 0, 6, 4320, 4320, 4317, 4326, 4323, 4303, 0, 1, 3001, -89.900, 0.000, 32.300, 0.100, 0.000, -0.100, 0.1, , , , , , 96, , , 43, 43, 43
38.5568474, -120.5320678, -0.100, 14:32:03.873, 11, 0.10, 0.10, 100, 0.000, 0.100, 33.400, 1177, 100, 96, 28, 25795, -2961, 5339, 5339, 19, 11, 1529530323.873, 13, 0, 1024, 1024, 1024, 1024, 0, 6, 4312, 4284, 4300, 4286, 4298, 4286, 0, 1, 3101, -89.900, 0.000, 32.400, 0.100, 0.000, -0.300, 0.1, , , , , , 96, , , 43, 43, 43
38.5568476, -120.5320679, -0.100, 14:32:03.973, 10, 0.10, 0.13, 100, 0.500, 0.300, 33.400, 1177, 100, 96, 28, 25795, -2961, 5339, 5339, 19, 11, 1529530323.973, 14, 0, 1024, 1024, 1024, 1024, 0, 6, 4312, 4284, 4300, 4286, 4298, 4286, 0, 1, 3201, -89.900, 0.000, 32.400, 0.100, 0.000, -0.300, 0.0, , , , , , 96, , , 43, 43, 43
38.5568478, -120.5320681, 0.000, 14:32:04.073, 10, 0.14, 0.15, 100, 1.000, 0.500, 33.400, 1177, 100, 96, 28, 25795, -2961, 5339, 5339, 19, 11, 1529530324.073, 3, 0, 1024, 1024, 1024, 1024, 0, 6, 4312, 4284, 4300, 4286, 4298, 4286, 0, 1, 3301, -89.900, 0.000, 32.400, 0.100, -0.100, -0.300, 0.0, , , , , , 96, , , 43, 43, 43
38.5568478, -120.5320681, 0.000, 14:32:04.173, 10, 0.14, 0.15, 100, 1.000, 0.500, 33.400, 1177, 100, 96, 28, 25795, -2961, 5339, 5339, 19, 11, 1529530324.173, 103, 0, 1024, 1024, 1024, 1024, 0, 6, 4312, 4284, 4300, 4286, 4298, 4286, 0, 1, 3401, -89.900, 0.000, 32.400, 0.100, -0.100, -0.300, 0.0, , , , , , 96, , , 43, 43, 43
38.5568480, -120.5320682, 0.000, 14:32:04.273, 11, 0.14, 0.18, 100, 1.400, 0.800, 33.400, 1177, 100, 96, 28, 25795, -2961, 5339, 5339, 19, 11, 1529530324.273, 94, 0, 1024, 1024, 1024, 1024, 0, 6, 4312, 4284, 4300, 4286, 4298, 4286, 0, 1, 3501, -89.900, 0.000, 32.400, 0.100, -0.100, -0.300, 0.0, , , , , , 96, , , 43, 43, 43
38.5568481, -120.5320684, 0.000, 14:32:04.373, 11, 0.10, 0.19, 100, 1.600, 1.000, 33.400, 1177, 100, 96, 28, 25795, -2961, 5339, 5339, 19, 11, 1529530324.373, 60, 0, 1024, 1024, 1024, 1024, 0, 6, 4312, 4284, 4300, 4286, 4298, 4286, 0, 1, 3601, -89.900, 0.000, 32.400, 0.100, 0.000, -0.400, 0.0, , , , , , 96, , , 43, 43, 43
38.5568483, -120.5320685, 0.000, 14:32:04.473, 11, 0.10, 0.21, 100, 1.600, 0.900, 33.400, 1177, 100, 100, 28, 25795, -2961, 5339, 5339, 19, 11, 1529530324.473, 74, 0, 1024, 1024, 1024, 1024, 0, 6, 4312, 4284, 4300, 4286, 4298, 4286, 0, 1, 3701, -89.900, 0.000, 32.400, 0.100, 0.000, -0.400, 0.0, , , , , , 96, , , 43, 43, 43
38.5568485, -120.5320686, 0.100, 14:32:04.573, 11, 0.10, 0.24, 100, 1.400, 0.800, 33.400, 1177, 100, 100, 28, 25795, -2961, 5339, 5339, 19, 11, 1529530324.573, 76, 0, 1024, 1024, 1024, 1024, 0, 6, 4312, 4284, 4300, 4286, 4298, 4286, 0, 1, 3801, -89.900, 0.000, 32.400, 0.100, 0.000, -0.300, 0.0, , , , , , 96, , , 43, 43, 43
38.5568488, -120.5320689, 0.200, 14:32:04.673, 11, 0.10, 0.28, 100, 1.500, 0.600, 33.500, 1177, 100, 100, 28, 25795, -2961, 5339, 5339, 19, 11, 1529530324.673, 77, 0, 1024, 1024, 1024, 1024, 0, 6, 4312, 4284, 4300, 4286, 4298, 4286, 0, 1, 3901, -89.900, 0.000, 32.400, 0.100, 0.000, -0.400, 0.0, , , , , , 96, , , 43, 43, 43
38.5568488, -120.5320689, 0.200, 14:32:04.773, 11, 0.10, 0.28, 100, 1.500, 0.600, 33.500, 1177, 100, 100, 28, 25795, -2961, 5339, 5339, 19, 11, 1529530324.773, 177, 0, 1024, 1024, 1024, 1024, 0, 6, 4312, 4284, 4300, 4286, 4298, 4286, 0, 1, 4001, -89.900, 0.000, 32.400, 0.100, 0.000, -0.400, 0.0, , , , , , 96, , , 43, 43, 43
38.5568491, -120.5320691, 0.300, 14:32:04.873, 10, 0.10, 0.32, 100, 1.900, 0.600, 33.400, 1177, 100, 100, 28, 25121, -11218, 5339, 5339, 19, 11, 1529530324.873, 65, 0, 1024, 1024, 1024, 1024, 0, 6, 4182, 4175, 4188, 4157, 4169, 4138, 0, 1, 4101, -89.900, 0.000, 32.400, 0.100, 0.000, -0.400, 0.0, , , , , , 96, , , 43, 43, 43
38.5568493, -120.5320692, 0.300, 14:32:04.973, 10, 0.10, 0.34, 100, 2.000, 0.800, 33.400, 1177, 100, 100, 28, 25121, -11218, 5339, 5339, 19, 11, 1529530324.973, 71, 0, 1024, 1024, 1024, 1024, 0, 6, 4182, 4175, 4188, 4157, 4169, 4138, 0, 1, 4201, -89.900, 0.000, 32.400, 0.100, 0.000, -0.400, 0.0, , , , , , 96, , , 43, 43, 43
38.5568494, -120.5320693, 0.400, 14:32:05.073, 10, 0.10, 0.35, 100, 1.700, 0.900, 33.400, 1177, 100, 100, 28, 25121, -11218, 5339, 5339, 19, 11, 1529530325.073, 43, 0, 1024, 1024, 1024, 1024, 0, 6, 4182, 4175, 4188, 4157, 4169, 4138, 0, 1, 4301, -89.900, 0.000, 32.400, 0.100, 0.000, -0.400, 0.0, , , , , , 96, , , 43, 43, 43
38.5568495, -120.5320693, 0.400, 14:32:05.173, 11, 0.10, 0.37, 100, 1.400, 0.800, 33.700, 1177, 100, 100, 28, 25121, -11218, 5339, 5339, 19, 11, 1529530325.173, 46, 0, 1024, 1024, 1024, 1024, 0, 6, 4182, 4175, 4188, 4157, 4169, 4138, 0, 1, 4401, -89.900, 0.000, 32.400, 0.100, 0.000, -0.400, 0.0, , , , , , 96, , , 43, 43, 43
38.5568497, -120.5320695, 0.500, 14:32:05.273, 11, 0.10, 0.39, 100, 1.400, 0.700, 34.000, 1177, 100, 100, 28, 25121, -11218, 5339, 5339, 19, 11, 1529530325.273, 51, 0, 1024, 1024, 1024, 1024, 0, 6, 4182, 4175, 4188, 4157, 4169, 4138, 0, 1, 4501, -89.900, 0.000, 32.400, 0.100, 0.000, -0.400, 0.0, , , , , , 96, , , 43, 43, 43
38.5568499, -120.5320696, 0.500, 14:32:05.373, 11, 0.10, 0.42, 100, 1.700, 0.800, 34.200, 1177, 100, 100, 28, 25121, -11218, 5339, 5339, 19, 11, 1529530325.373, 46, 0, 1024, 1024, 1024, 1024, 0, 6, 4182, 4175, 4188, 4157, 4169, 4138, 0, 1, 4601, -89.900, 0.000, 32.400, 0.100, 0.000, -0.400, 0.0, , , , , , 96, , , 43, 43, 43
38.5568500, -120.5320698, 0.600, 14:32:05.473, 11, 0.10, 0.44, 100, 2.200, 1.000, 34.200, 1177, 100, 100, 28, 25121, -11218, 5339, 5339, 19, 11, 1529530325.473, 46, 0, 1024, 1024, 1024, 1024, 0, 6, 4182, 4175, 4188, 4157, 4169, 4138, 0, 1, 4701, -89.900, 0.000, 32.400, 0.100, 0.000, -0.400, 0.0, , , , , , 96, , , 43, 43, 43
38.5568502, -120.5320699, 0.700, 14:32:05.573, 11, 0.10, 0.45, 100, 2.600, 1.000, 34.100, 1177, 100, 100, 28, 25121, -11218, 5339, 5339, 19, 11, 1529530325.573, 47, 0, 1024, 1024, 1024, 1024, 0, 6, 4182, 4175, 4188, 4157, 4169, 4138, 0, 1, 4801, -89.900, 0.000, 32.400, 0.100, 0.000, -0.400, 0.0, , , , , , 96, , , 43, 43, 43
38.5568502, -120.5320700, 0.700, 14:32:05.673, 11, 0.00, 0.47, 100, 2.800, 1.200, 33.900, 1177, 100, 100, 28, 25121, -11218, 5339, 5339, 19, 11, 1529530325.673, 38, 0, 1024, 1024, 1024, 1024, 0, 6, 4182, 4175, 4188, 4157, 4169, 4138, 0, 1, 4901, -89.900, 0.000, 32.400, 0.000, 0.000, -0.400, 0.0, , , , , , 96, , , 43, 43, 43
38.5568503, -120.5320700, 0.700, 14:32:05.773, 11, 0.00, 0.48, 100, 2.800, 1.100, 33.700, 1177, 100, 100, 28, 24772, -15416, 5339, 5339, 19, 11, 1529530325.773, 28, 0, 1024, 1024, 1024, 1024, 0, 6, 4109, 4115, 4109, 4123, 4125, 4117, 0, 1, 5001, -89.900, 0.000, 32.400, 0.000, 0.000, -0.400, 0.0, , , , , , 96, , , 43, 43, 43
38.5568505, -120.5320701, 0.800, 14:32:05.873, 11, 0.00, 0.49, 100, 2.700, 1.200, 33.700, 1177, 100, 100, 28, 24772, -15416, 5339, 5339, 19, 11, 1529530325.873, 30, 0, 1024, 1024, 1024, 1024, 0, 6, 4109, 4115, 4109, 4123, 4125, 4117, 0, 1, 5101, -89.900, 0.000, 32.400, 0.000, 0.000, -0.400, 0.0, , , , , , 96, , , 43, 43, 43
38.5568506, -120.5320701, 0.800, 14:32:05.973, 11, 0.00, 0.50, 100, 2.600, 1.400, 33.700, 1177, 100, 100, 28, 24772, -15416, 5339, 5339, 19, 11, 1529530325.973, 21, 0, 1024, 1024, 1024, 1024, 0, 6, 4109, 4115, 4109, 4123, 4125, 4117, 0, 1, 5201, -89.900, 0.000, 32.400, 0.000, 0.000, -0.400, 0.0, , , , , , 96, , , 43, 43, 43
38.5568506, -120.5320700, 0.900, 14:32:06.073, 11, 0.00, 0.50, 100, 2.200, 1.600, 33.800, 1177, 100, 100, 28, 24772, -15416, 5339, 5339, 19, 14, 1529530326.073, 11, 0, 1024, 1024, 1024, 1024, 0, 6, 4109, 4115, 4109, 4123, 4125, 4117, 0, 1, 5301, -89.900, 0.000, 32.400, 0.000, 0.000, -0.400, 0.0, , , , , , 96, , , 43, 43, 43
38.5568506, -120.5320699, 0.900, 14:32:06.173, 10, 0.00, 0.50, 100, 1.600, 1.900, 33.800, 1177, 100, 100, 28, 24772, -15416, 5339, 5339, 19, 14, 1529530326.173, 14, 0, 1024, 1024, 1024, 1024, 0, 6, 4109, 4115, 4109, 4123, 4125, 4117, 0, 1, 5401, -89.900, 0.000, 32.500, 0.000, 0.000, -0.400, 0.0, , , , , , 96, , , 43, 43, 43
38.5568506, -120.5320698, 1.000, 14:32:06.273, 10, 0.00, 0.49, 100, 0.400, 1.700, 34.000, 1177, 100, 100, 28, 24772, -15416, 5339, 5339, 19, 14, 1529530326.273, 13, 0, 1024, 1024, 1024, 1024, 0, 6, 4109, 4115, 4109, 4123, 4125, 4117, 0, 1, 5501, -89.900, 0.000, 32.500, 0.000, 0.000, -0.300, 0.0, , , , , , 96, , , 43, 43, 43
38.5568506, -120.5320698, 1.000, 14:32:06.373, 10, 0.00, 0.49, 100, 0.400, 1.700, 34.000, 1177, 100, 100, 28, 24772, -15416, 5339, 5339, 19, 14, 1529530326.373, 113, 0, 1024, 1024, 1024, 1024, 0, 6, 4109, 4115, 4109, 4123, 4125, 4117, 0, 1, 5601, -89.900, 0.000, 32.500, 0.000, 0.000, -0.300, 0.0, , , , , , 96, , , 43, 43, 43
38.5568506, -120.5320698, 1.000, 14:32:06.473, 11, 0.00, 0.49, 100, -0.100, 1.500, 34.300, 1177, 100, 100, 28, 24772, -15416, 5339, 5339, 19, 14, 1529530326.473, 91, 0, 1024, 1024, 1024, 1024, 0, 6, 4109, 4115, 4109, 4123, 4125, 4117, 0, 1, 5701, -89.900, 0.000, 32.500, 0.000, 0.000, -0.200, 0.0, , , , , , 96, , , 43, 43, 43
38.5568507, -120.5320698, 1.100, 14:32:06.574, 11, 0.00, 0.50, 100, 0.100, 1.400, 34.800, 1177, 100, 100, 28, 24772, -15416, 5339, 5339, 19, 14, 1529530326.574, 94, 0, 1024, 1024, 1024, 1024, 0, 6, 4109, 4115, 4109, 4123, 4125, 4117, 0, 1, 5802, -90.000, 0.000, 32.600, 0.000, 0.000, -0.300, 0.0, , , , , , 96, , , 43, 43, 43
38.5568508, -120.5320699, 1.200, 14:32:06.673, 11, 0.00, 0.51, 100, 1.300, 1.100, 35.700, 1177, 100, 100, 28, 24772, -15416, 5339, 5339, 19, 14, 1529530326.673, 4, 0, 1024, 1024, 1024, 1024, 0, 6, 4109, 4115, 4109, 4123, 4125, 4117, 0, 1, 5901, -89.900, 0.000, 32.800, 0.000, 0.000, -0.600, 0.0, , , , , , 96, , , 43, 43, 43
38.5568508, -120.5320699, 1.200, 14:32:06.773, 11, 0.00, 0.51, 100, 1.300, 1.100, 35.700, 1177, 100, 100, 28, 24772, -15416, 5339, 5339, 19, 14, 1529530326.773, 104, 0, 1024, 1024, 1024, 1024, 0, 6, 4109, 4115, 4109, 4123, 4125, 4117, 0, 1, 6001, -89.900, 0.000, 32.800, 0.000, 0.000, -0.600, 0.0, , , , , , 96, , , 43, 43, 43
38.5568509, -120.5320699, 1.300, 14:32:06.873, 11, 0.00, 0.53, 100, 1.600, 1.100, 36.100, 1177, 100, 100, 28, 24656, -15938, 5339, 5339, 19, 14, 1529530326.873, 88, 0, 1024, 1024, 1024, 1024, 0, 6, 4100, 4111, 4098, 4115, 4115, 4108, 0, 1, 6101, -89.900, 0.000, 32.900, 0.000, 0.000, -0.700, 0.0, , , , , , 96, , , 43, 43, 43
38.5568510, -120.5320700, 1.400, 14:32:06.973, 11, 0.00, 0.53, 100, 1.600, 1.400, 36.300, 1177, 100, 100, 28, 24656, -15938, 5339, 5339, 19, 14, 1529530326.973, 91, 0, 1024, 1024, 1024, 1024, 0, 6, 4100, 4111, 4098, 4115, 4115, 4108, 0, 1, 6201, -89.900, 0.000, 33.000, 0.000, 0.000, -0.800, 0.0, , , , , , 96, , , 43, 43, 43
38.5568510, -120.5320700, 1.500, 14:32:07.071, 11, 0.00, 0.54, 100, 1.400, 1.600, 36.400, 1177, 100, 100, 28, 24656, -15938, 5339, 5339, 19, 14, 1529530327.071, 79, 0, 1024, 1024, 1024, 1024, 0, 6, 4100, 4111, 4098, 4115, 4115, 4108, 0, 1, 6300, -89.900, 0.000, 33.100, 0.000, 0.000, -1.000, 0.0, , , , , , 96, , , 43, 43, 43
38.5568512, -120.5320699, 1.700, 14:32:07.171, 11, 0.00, 0.55, 100, 0.100, 1.700, 35.800, 1177, 100, 100, 28, 24656, -15938, 5339, 5339, 19, 14, 1529530327.172, 70, 0, 1024, 1024, 1024, 1024, 0, 6, 4100, 4111, 4098, 4115, 4115, 4108, 0, 1, 6400, -89.900, 0.000, 33.200, 0.000, 0.000, -1.300, 0.0, , , , , , 96, , , 43, 43, 43
38.5568513, -120.5320698, 1.800, 14:32:07.271, 11, 0.00, 0.56, 100, 0.000, 1.900, 35.500, 1177, 100, 100, 28, 24656, -15938, 5339, 5339, 19, 14, 1529530327.271, 67, 0, 1024, 1024, 1024, 1024, 0, 6, 4100, 4111, 4098, 4115, 4115, 4108, 0, 1, 6500, -89.900, 0.000, 33.300, 0.000, 0.000, -1.600, 0.0, , , , , , 96, , , 43, 43, 43
38.5568514, -120.5320698, 2.000, 14:32:07.371, 11, 0.00, 0.57, 100, 0.100, 1.800, 35.200, 1177, 100, 100, 28, 24656, -15938, 5339, 5339, 19, 14, 1529530327.372, 59, 0, 1024, 1024, 1024, 1024, 0, 6, 4100, 4111, 4098, 4115, 4115, 4108, 0, 1, 6600, -89.900, 0.000, 33.400, 0.000, 0.000, -1.800, 0.0, , , , , , 96, , , 43, 43, 43
38.5568515, -120.5320698, 2.200, 14:32:07.471, 11, 0.00, 0.58, 100, 0.400, 1.900, 35.100, 1177, 100, 100, 28, 24656, -15938, 5339, 5339, 19, 14, 1529530327.472, 60, 0, 1024, 1024, 1024, 1024, 0, 6, 4100, 4111, 4098, 4115, 4115, 4108, 0, 1, 6700, -89.900, 0.000, 33.400, 0.000, 0.000, -2.100, 0.0, , , , , , 96, , , 43, 43, 43
38.5568515, -120.5320698, 2.400, 14:32:07.571, 11, 0.00, 0.58, 100, 0.600, 2.000, 35.100, 1177, 100, 100, 28, 24656, -15938, 5339, 5339, 19, 14, 1529530327.572, 77, 0, 1024, 1024, 1024, 1024, 0, 6, 4100, 4111, 4098, 4115, 4115, 4108, 0, 1, 6800, -89.900, 0.000, 33.500, 0.000, 0.000, -2.200, 0.0, , , , , , 96, , , 43, 43, 43
38.5568516, -120.5320699, 2.700, 14:32:07.671, 11, 0.00, 0.59, 100, 0.600, 1.800, 35.200, 1177, 100, 100, 28, 24656, -15938, 5339, 5339, 19, 14, 1529530327.672, 43, 0, 1024, 1024, 1024, 1024, 0, 6, 4100, 4111, 4098, 4115, 4115, 4108, 0, 1, 6900, -90.000, 0.000, 33.600, 0.000, 0.000, -2.500, 0.0, , , , , , 96, , , 43, 43, 43
38.5568516, -120.5320700, 3.000, 14:32:07.771, 11, 0.00, 0.60, 100, 0.700, 1.300, 35.400, 1177, 100, 100, 28, 24502, -17330, 5339, 5339, 19, 14, 1529530327.772, 35, 0, 1024, 1024, 1024, 1024, 0, 6, 4061, 4081, 4037, 4074, 4054, 4084, 0, 1, 7000, -90.000, 0.000, 33.700, 0.000, 0.000, -2.800, 0.0, , , , , , 96, , , 43, 43, 43
38.5568516, -120.5320701, 3.300, 14:32:07.871, 11, 0.00, 0.60, 100, 0.600, 0.700, 35.600, 1177, 100, 100, 28, 24502, -17330, 5339, 5339, 19, 14, 1529530327.872, 38, 0, 1024, 1024, 1024, 1024, 0, 6, 4061, 4081, 4037, 4074, 4054, 4084, 0, 1, 7100, -90.000, 0.000, 33.700, 0.000, 0.000, -3.000, 0.0, , , , , , 96, , , 43, 43, 43
38.5568516, -120.5320701, 3.600, 14:32:07.971, 11, 0.00, 0.60, 100, 0.500, 0.400, 35.800, 1177, 100, 100, 28, 24502, -17330, 5339, 5339, 19, 14, 1529530327.972, 30, 0, 1024, 1024, 1024, 1024, 0, 6, 4061, 4081, 4037, 4074, 4054, 4084, 0, 1, 7200, -90.000, 0.000, 33.800, 0.000, 0.000, -3.000, 0.0, , , , , , 96, , , 43, 43, 43
38.5568515, -120.5320699, 4.000, 14:32:08.071, 11, 0.00, 0.58, 100, 0.200, 0.400, 35.900, 1177, 100, 100, 28, 24502, -17330, 5339, 5339, 19, 14, 1529530328.072, 36, 0, 1024, 1024, 1024, 1024, 0, 6, 4061, 4081, 4037, 4074, 4054, 4084, 0, 1, 7300, -90.000, 0.000, 33.800, 0.000, 0.000, -3.100, 0.0, , , , , , 96, , , 43, 43, 43
38.5568513, -120.5320697, 4.300, 14:32:08.171, 11, 0.00, 0.56, 100, -0.200, 0.600, 36.000, 1177, 100, 100, 28, 24502, -17330, 5339, 5339, 19, 14, 1529530328.172, 30, 0, 1024, 1024, 1024, 1024, 0, 6, 4061, 4081, 4037, 4074, 4054, 4084, 0, 1, 7400, -90.000, 0.000, 33.900, 0.000, 0.000, -3.000, 0.0, , , , , , 96, , , 43, 43, 43
38.5568513, -120.5320695, 4.600, 14:32:08.271, 11, 0.00, 0.55, 100, -0.400, 0.600, 36.100, 1177, 100, 100, 28, 24502, -17330, 5339, 5339, 19, 14, 1529530328.271, 30, 0, 1024, 1024, 1024, 1024, 0, 6, 4061, 4081, 4037, 4074, 4054, 4084, 0, 1, 7500, -90.000, 0.000, 33.900, 0.000, 0.000, -3.100, 0.0, , , , , , 96, , , 43, 43, 43
38.5568513, -120.5320693, 4.900, 14:32:08.371, 11, 0.00, 0.54, 100, -0.700, 0.800, 36.100, 1177, 100, 100, 28, 24502, -17330, 5339, 5339, 19, 14, 1529530328.371, 32, 0, 1024, 1024, 1024, 1024, 0, 6, 4061, 4081, 4037, 4074, 4054, 4084, 0, 1, 7600, -90.000, 0.000, 34.000, 0.000, 0.000, -3.200, 0.0, , , , , , 96, , , 43, 43, 43
38.5568512, -120.5320694, 5.300, 14:32:08.471, 11, 0.00, 0.54, 100, -0.800, 1.000, 36.100, 1177, 100, 100, 28, 24502, -17330, 5339, 5339, 19, 14, 1529530328.472, 32, 0, 1024, 1024, 1024, 1024, 0, 6, 4061, 4081, 4037, 4074, 4054, 4084, 0, 1, 7700, -90.000, 0.000, 34.000, 0.000, 0.000, -3.200, 0.0, , , , , , 96, , , 43, 43, 43
38.5568511, -120.5320695, 5.600, 14:32:08.571, 11, 0.00, 0.53, 100, -0.600, 0.900, 36.200, 1177, 100, 100, 28, 24502, -17330, 5339, 5339, 19, 14, 1529530328.572, 9, 0, 1024, 1024, 1024, 1024, 0, 6, 4061, 4081, 4037, 4074, 4054, 4084, 0, 1, 7800, -90.000, 0.000, 34.100, 0.000, 0.000, -3.200, 0.0, , , , , , 96, , , 43, 43, 43
38.5568511, -120.5320695, 6.000, 14:32:08.671, 11, 0.00, 0.53, 100, -0.300, 0.700, 36.200, 1177, 100, 100, 28, 24502, -17330, 5339, 5339, 19, 14, 1529530328.671, 2, 0, 1024, 1024, 1024, 1024, 0, 6, 4061, 4081, 4037, 4074, 4054, 4084, 0, 1, 7900, -90.000, 0.000, 34.100, 0.000, 0.000, -3.200, 0.0, , , , , , 96, , , 43, 43, 43
38.5568511, -120.5320695, 6.000, 14:32:08.772, 11, 0.00, 0.53, 100, -0.300, 0.700, 36.200, 1177, 100, 100, 28, 24502, -17330, 5339, 5339, 19, 14, 1529530328.773, 103, 0, 1024, 1024, 1024, 1024, 0, 6, 4061, 4081, 4037, 4074, 4054, 4084, 0, 1, 8001, -89.900, 0.000, 34.200, 0.000, 0.000, -3.200, 0.0, , , , , , 96, , , 43, 43, 43
38.5568511, -120.5320695, 6.300, 14:32:08.871, 11, 0.00, 0.53, 100, 0.000, 1.000, 36.200, 1177, 100, 100, 28, 23976, -24554, 5339, 5339, 19, 14, 1529530328.872, 88, 0, 1024, 1024, 1024, 1024, 0, 6, 4061, 4081, 4037, 4074, 4054, 4084, 0, 1, 8100, -89.900, 0.000, 34.200, 0.000, 0.000, -3.200, 0.0, , , , , , 96, , , 43, 43, 43
38.5568510, -120.5320695, 7.000, 14:32:08.973, 11, 0.00, 0.52, 100, 0.000, 1.200, 35.900, 1177, 100, 100, 28, 23976, -24554, 5339, 5339, 19, 14, 1529530328.973, 1, 0, 1024, 1024, 1024, 1024, 0, 6, 4061, 4081, 4037, 4074, 4054, 4084, 0, 1, 8201, -89.900, 0.000, 34.200, 0.000, 0.000, -3.200, 0.0, , , , , , 96, , , 43, 43, 43
38.5568509, -120.5320695, 7.300, 14:32:09.071, 11, 0.00, 0.51, 100, -0.200, 1.000, 35.800, 1177, 100, 100, 28, 23976, -24554, 5339, 5339, 19, 14, 1529530329.072, 4, 0, 1024, 1024, 1024, 1024, 0, 6, 4061, 4081, 4037, 4074, 4054, 4084, 0, 1, 8300, -89.900, 0.000, 34.300, 0.000, 0.000, -3.200, 0.0, , , , , , 96, , , 43, 43, 43
38.5568508, -120.5320694, 7.600, 14:32:09.176, 12, 0.00, 0.50, 100, -0.500, 0.600, 35.700, 1177, 100, 100, 28, 23976, -24554, 5339, 5339, 19, 14, 1529530329.176, 5, 0, 1024, 1024, 1024, 1024, 0, 6, 4061, 4081, 4037, 4074, 4054, 4084, 0, 1, 8405, -90.000, 0.000, 34.300, 0.000, 0.000, -3.100, 0.0, , , , , , 96, , , 43, 43, 43
38.5568508, -120.5320694, 7.600, 14:32:09.271, 12, 0.00, 0.50, 100, -0.500, 0.600, 35.700, 1177, 100, 100, 28, 23976, -24554, 5339, 5339, 19, 14, 1529530329.272, 100, 0, 1024, 1024, 1024, 1024, 0, 6, 4061, 4081, 4037, 4074, 4054, 4084, 0, 1, 8500, -90.000, 0.000, 34.300, 0.000, 0.000, -3.100, 0.0, , , , , , 96, , , 43, 43, 43
38.5568508, -120.5320694, 8.000, 14:32:09.371, 12, 0.00, 0.49, 100, -0.600, 0.300, 35.700, 1177, 100, 100, 28, 23976, -24554, 5339, 5339, 19, 14, 1529530329.372, 75, 0, 1024, 1024, 1024, 1024, 0, 6, 3957, 3967, 3974, 3997, 3990, 3978, 0, 1, 8600, -90.000, 0.000, 34.400, 0.000, 0.000, -3.000, 0.0, , , , , , 96, , , 43, 43, 43
38.5568507, -120.5320695, 8.300, 14:32:09.471, 12, 0.00, 0.49, 100, -0.400, 0.000, 35.800, 1177, 100, 100, 28, 23976, -24554, 5339, 5339, 19, 14, 1529530329.472, 75, 0, 1024, 1024, 1024, 1024, 0, 6, 3957, 3967, 3974, 3997, 3990, 3978, 0, 1, 8700, -90.000, 0.000, 34.400, 0.000, 0.000, -3.000, 0.0, , , , , , 96, , , 43, 43, 43
38.5568506, -120.5320696, 8.500, 14:32:09.571, 12, 0.00, 0.48, 100, -0.700, 0.000, 35.900, 1177, 100, 100, 28, 23976, -24554, 5339, 5339, 19, 14, 1529530329.572, 91, 0, 1024, 1024, 1024, 1024, 0, 6, 3957, 3967, 3974, 3997, 3990, 3978, 0, 1, 8800, -90.000, 0.000, 34.400, 0.000, 0.000, -3.000, 0.0, , , , , , 96, , , 43, 43, 43
38.5568506, -120.5320696, 8.900, 14:32:09.671, 11, 0.00, 0.48, 100, -0.900, -0.100, 36.100, 1177, 100, 100, 28, 23976, -24554, 5339, 5339, 19, 14, 1529530329.672, 70, 0, 1024, 1024, 1024, 1024, 0, 6, 3957, 3967, 3974, 3997, 3990, 3978, 0, 1, 8900, -89.900, 0.000, 34.500, 0.000, 0.000, -3.000, 0.0, , , , , , 96, , , 43, 43, 43
38.5568506, -120.5320697, 9.500, 14:32:09.771, 11, 0.00, 0.49, 100, 0.000, 0.600, 36.400, 1177, 100, 100, 28, 23976, -24554, 5339, 5339, 19, 14, 1529530329.772, 58, 0, 1024, 1024, 1024, 1024, 0, 6, 3957, 3967, 3974, 3997, 3990, 3978, 0, 1, 9000, -89.900, 0.000, 34.500, 0.000, 0.000, -3.100, 0.0, , , , , , 96, , , 43, 43, 43
38.5568507, -120.5320698, 9.800, 14:32:09.871, 11, 0.00, 0.50, 100, 0.400, 1.100, 36.400, 1177, 100, 100, 28, 23976, -24554, 5339, 5339, 19, 14, 1529530329.872, 74, 0, 1024, 1024, 1024, 1024, 0, 6, 3957, 3967, 3974, 3997, 3990, 3978, 0, 1, 9100, -89.900, 0.000, 34.500, 0.000, 0.000, -3.100, 0.0, , , , , , 96, , , 43, 43, 43
38.5568507, -120.5320698, 10.100, 14:32:09.971, 11, 0.00, 0.50, 100, 0.700, 1.200, 36.300, 1177, 100, 100, 28, 23976, -24554, 5339, 5339, 19, 14, 1529530329.972, 78, 0, 1024, 1024, 1024, 1024, 0, 6, 3957, 3967, 3974, 3997, 3990, 3978, 0, 1, 9200, -89.900, 0.000, 34.500, 0.000, 0.000, -3.100, 0.0, , , , , , 96, , , 43, 43, 43
38.5568507, -120.5320699, 10.400, 14:32:10.073, 11, 0.00, 0.51, 100, 0.800, 1.200, 36.100, 1177, 100, 100, 28, 23976, -24554, 5339, 5339, 19, 14, 1529530330.073, 46, 0, 1024, 1024, 1024, 1024, 0, 6, 3957, 3967, 3974, 3997, 3990, 3978, 0, 1, 9301, -89.900, 0.000, 34.600, 0.000, 0.000, -3.100, 0.0, , , , , , 96, , , 43, 43, 43
38.5568507, -120.5320700, 10.700, 14:32:10.173, 11, 0.00, 0.51, 100, 0.800, 1.100, 36.000, 1177, 100, 100, 28, 23976, -24554, 5339, 5339, 19, 14, 1529530330.173, 63, 0, 1024, 1024, 1024, 1024, 0, 6, 3957, 3967, 3974, 3997, 3990, 3978, 0, 1, 9401, -89.900, 0.000, 34.600, 0.000, 0.000, -3.100, 0.0, , , , , , 96, , , 43, 43, 43
38.5568507, -120.5320703, 11.100, 14:32:10.272, 11, 0.00, 0.53, 100, 1.100, 1.200, 36.000, 1177, 100, 100, 28, 23956, -21262, 5232, 5339, 19, 14, 1529530330.273, 26, 0, 1024, 1024, 1024, 1024, 0, 6, 3996, 4014, 3993, 4018, 4013, 4007, 0, 1, 9501, -89.900, 0.000, 34.600, 0.000, 0.000, -3.100, 0.0, , , , , , 96, , , 43, 43, 43
38.5568508, -120.5320705, 11.400, 14:32:10.373, 11, 0.00, 0.54, 100, 1.300, 1.100, 36.100, 1177, 100, 100, 28, 23956, -21262, 5232, 5339, 19, 14, 1529530330.373, 51, 0, 1024, 1024, 1024, 1024, 0, 6, 3996, 4014, 3993, 4018, 4013, 4007, 0, 1, 9601, -89.900, 0.000, 34.600, 0.000, 0.000, -3.200, 0.0, , , , , , 96, , , 43, 43, 43
38.5568509, -120.5320705, 11.700, 14:32:10.473, 11, 0.00, 0.55, 100, 1.400, 0.800, 36.100, 1177, 100, 100, 28, 23956, -21262, 5232, 5339, 19, 14, 1529530330.473, 43, 0, 1024, 1024, 1024, 1024, 0, 6, 3996, 4014, 3993, 4018, 4013, 4007, 0, 1, 9701, -89.900, 0.000, 34.700, 0.000, 0.000, -3.200, 0.0, , , , , , 96, , , 43, 43, 43
38.5568509, -120.5320705, 11.700, 14:32:10.573, 11, 0.00, 0.55, 100, 1.400, 0.800, 36.100, 1177, 100, 100, 28, 23956, -21262, 5232, 5339, 19, 14, 1529530330.573, 143, 0, 1024, 1024, 1024, 1024, 0, 6, 3996, 4014, 3993, 4018, 4013, 4007, 0, 1, 9801, -89.900, 0.000, 34.700, 0.000, 0.000, -3.200, 0.0, , , , , , 96, , , 43, 43, 43
38.5568509, -120.5320705, 12.400, 14:32:10.673, 11, 0.00, 0.55, 100, 0.600, 0.400, 35.900, 1177, 100, 100, 28, 23956, -21262, 5232, 5339, 19, 14, 1529530330.673, 47, 0, 1024, 1024, 1024, 1024, 0, 6, 3996, 4014, 3993, 4018, 4013, 4007, 0, 1, 9901, -90.000, 0.000, 34.700, 0.000, 0.000, -3.100, 0.0, , , , , , 96, , , 43, 43, 43
38.5568508, -120.5320706, 12.700, 14:32:10.773, 11, 0.00, 0.55, 100, 0.300, 0.100, 35.900, 1177, 100, 100, 28, 23956, -21262, 5232, 5339, 19, 14, 1529530330.773, 38, 0, 1024, 1024, 1024, 1024, 0, 6, 3996, 4014, 3993, 4018, 4013, 4007, 0, 1, 10001, -90.000, 0.000, 34.700, 0.000, 0.000, -3.100, 0.0, , , , , , 96, , , 43, 43, 43
38.5568508, -120.5320706, 13.000, 14:32:10.873, 11, 0.00, 0.55, 100, 0.200, 0.200, 35.900, 1177, 100, 99, 28, 23956, -21262, 5232, 5339, 19, 14, 1529530330.873, 29, 0, 1024, 1024, 1024, 1024, 0, 6, 3996, 4014, 3993, 4018, 4013, 4007, 0, 1, 10101, -90.000, 0.000, 34.700, 0.000, 0.000, -3.000, 0.0, , , , , , 96, , , 43, 43, 43
38.5568508, -120.5320706, 13.400, 14:32:10.972, 11, 0.00, 0.55, 100, 0.100, 0.100, 36.000, 1177, 100, 99, 28, 23956, -21262, 5232, 5339, 19, 14, 1529530330.973, 31, 0, 1024, 1024, 1024, 1024, 0, 6, 3996, 4014, 3993, 4018, 4013, 4007, 0, 1, 10201, -90.000, 0.000, 34.800, 0.000, 0.000, -3.000, 0.0, , , , , , 96, , , 43, 43, 43
38.5568507, -120.5320706, 13.700, 14:32:11.073, 11, 0.00, 0.54, 100, 0.100, 0.300, 36.000, 1177, 100, 99, 28, 23956, -21262, 5232, 5339, 19, 14, 1529530331.073, 32, 0, 1024, 1024, 1024, 1024, 0, 6, 3996, 4014, 3993, 4018, 4013, 4007, 0, 1, 10301, -89.900, 0.000, 34.800, 0.000, 0.000, -2.900, 0.0, , , , , , 96, , , 43, 43, 43
38.5568507, -120.5320706, 14.000, 14:32:11.173, 11, 0.00, 0.54, 100, 0.000, 0.300, 36.000, 1177, 100, 99, 28, 23956, -21262, 5232, 5339, 19, 14, 1529530331.173, 8, 0, 1024, 1024, 1024, 1024, 0, 6, 3996, 4014, 3993, 4018, 4013, 4007, 0, 1, 10401, -90.000, 0.000, 34.800, 0.000, 0.000, -3.000, 0.0, , , , , , 96, , , 43, 43, 43
38.5568507, -120.5320705, 14.300, 14:32:11.273, 11, 0.00, 0.53, 98, -0.100, 0.200, 36.000, 1177, 100, 99, 28, 24127, -19853, 5232, 5339, 19, 14, 1529530331.273, 11, 0, 1024, 1024, 1024, 1024, 0, 6, 4021, 4028, 4018, 4037, 4038, 3997, 0, 1, 10501, -89.900, 0.000, 34.800, 0.000, 0.000, -2.900, 0.0, , , , , , 96, , , 43, 43, 43
38.5568506, -120.5320705, 14.600, 14:32:11.379, 11, 0.00, 0.53, 98, -0.200, 0.100, 36.000, 1177, 100, 98, 28, 24127, -19853, 5232, 5339, 19, 14, 1529530331.379, 3, 0, 1024, 1024, 1024, 1024, 0, 6, 4021, 4028, 4018, 4037, 4038, 3997, 0, 1, 10607, -90.000, 0.000, 34.800, 0.000, 0.000, -2.900, 0.0, , , , , , 96, , , 43, 43, 43
38.5568506, -120.5320705, 14.900, 14:32:11.473, 11, 0.00, 0.53, 98, -0.100, 0.100, 36.000, 1177, 100, 98, 28, 24127, -19853, 5232, 5339, 19, 14, 1529530331.473, 7, 0, 1024, 1024, 1024, 1024, 0, 6, 4021, 4028, 4018, 4037, 4038, 3997, 0, 1, 10701, -89.900, 0.000, 34.900, 0.000, 0.000, -2.900, 0.0, , , , , , 96, , , 43, 43, 43
38.5568506, -120.5320705, 14.900, 14:32:11.573, 11, 0.00, 0.53, 98, -0.100, 0.100, 36.000, 1177, 100, 98, 28, 24127, -19853, 5232, 5339, 19, 14, 1529530331.573, 107, 0, 1024, 1024, 1024, 1024, 0, 6, 4021, 4028, 4018, 4037, 4038, 3997, 0, 1, 10801, -89.900, 0.000, 34.900, 0.000, 0.000, -2.900, 0.0, , , , , , 96, , , 43, 43, 43
38.5568507, -120.5320704, 15.500, 14:32:11.676, 11, 0.00, 0.53, 98, 0.000, 0.400, 36.100, 1177, 100, 98, 28, 24127, -19853, 5232, 5339, 19, 14, 1529530331.676, 3, 0, 1024, 1024, 1024, 1024, 0, 6, 4021, 4028, 4018, 4037, 4038, 3997, 0, 1, 10904, -89.900, 0.000, 34.900, 0.000, 0.000, -2.800, 0.0, , , , , , 96, , , 43, 43, 43
38.5568507, -120.5320704, 15.500, 14:32:11.773, 11, 0.00, 0.53, 98, 0.000, 0.400, 36.100, 1177, 100, 98, 28, 24127, -19853, 5232, 5339, 19, 14, 1529530331.773, 100, 0, 1024, 1024, 1024, 1024, 0, 6, 4021, 4028, 4018, 4037, 4038, 3997, 0, 1, 11001, -89.900, 0.000, 34.900, 0.000, 0.000, -2.800, 0.0, , , , , , 96, , , 43, 43, 43
38.5568508, -120.5320705, 15.700, 14:32:11.873, 11, 0.00, 0.54, 98, 0.000, 0.700, 36.100, 1177, 100, 98, 28, 24127, -19853, 5232, 5339, 19, 14, 1529530331.873, 68, 0, 1024, 1024, 1024, 1024, 0, 6, 4021, 4028, 4018, 4037, 4038, 3997, 0, 1, 11101, -89.900, 0.000, 34.900, 0.000, 0.000, -2.800, 0.0, , , , , , 96, , , 43, 43, 43
38.5568509, -120.5320704, 16.000, 14:32:11.973, 11, 0.00, 0.54, 98, 0.100, 0.900, 36.100, 1177, 100, 98, 28, 24127, -19853, 5232, 5339, 19, 14, 1529530331.973, 72, 0, 1024, 1024, 1024, 1024, 0, 6, 4021, 4028, 4018, 4037, 4038, 3997, 0, 1, 11201, -89.900, 0.000, 34.900, 0.000, 0.000, -2.900, 0.0, , , , , , 96, , , 43, 43, 43
38.5568509, -120.5320703, 16.300, 14:32:12.071, 11, 0.00, 0.54, 98, 0.100, 1.300, 36.000, 1177, 100, 98, 28, 24127, -19853, 5232, 5339, 19, 14, 1529530332.071, 55, 0, 1024, 1024, 1024, 1024, 0, 6, 4021, 4028, 4018, 4037, 4038, 3997, 0, 1, 11300, -89.900, 0.000, 34.900, 0.000, 0.000, -2.900, 0.0, , , , , , 96, , , 43, 43, 43
38.5568509, -120.5320702, 16.900, 14:32:12.171, 11, 0.00, 0.54, 98, 0.100, 1.500, 35.800, 1177, 100, 98, 28, 24127, -19853, 5232, 5339, 19, 14, 1529530332.171, 58, 0, 1024, 1024, 1024, 1024, 0, 6, 4021, 4028, 4018, 4037, 4038, 3997, 0, 1, 11400, -89.900, 0.000, 34.900, 0.000, 0.000, -3.000, 0.0, , , , , , 96, , , 43, 43, 43
38.5568510, -120.5320702, 17.200, 14:32:12.271, 11, 0.00, 0.54, 98, 0.200, 1.500, 35.600, 1177, 100, 98, 28, 24127, -19853, 5232, 5339, 19, 14, 1529530332.271, 49, 0, 1024, 1024, 1024, 1024, 0, 6, 4021, 4028, 4018, 4037, 4038, 3997, 0, 1, 11500, -89.900, 0.000, 35.000, 0.000, 0.000, -2.900, 0.0, , , , , , 96, , , 43, 43, 43
38.5568510, -120.5320702, 17.500, 14:32:12.371, 11, 0.00, 0.55, 98, 0.000, 1.300, 35.500, 1177, 100, 98, 28, 24154, -19010, 5232, 5339, 19, 14, 1529530332.371, 50, 0, 1024, 1024, 1024, 1024, 0, 6, 4017, 4013, 4015, 4030, 4023, 4024, 0, 1, 11600, -89.900, 0.000, 35.000, 0.000, 0.000, -2.900, 0.0, , , , , , 96, , , 43, 43, 43
38.5568510, -120.5320702, 17.800, 14:32:12.471, 11, 0.00, 0.55, 98, -0.300, 1.000, 35.500, 1177, 100, 99, 28, 24154, -19010, 5232, 5339, 19, 14, 1529530332.471, 65, 0, 1024, 1024, 1024, 1024, 0, 6, 4017, 4013, 4015, 4030, 4023, 4024, 0, 1, 11700, -89.900, 0.000, 35.000, 0.000, 0.000, -2.900, 0.0, , , , , , 96, , , 43, 43, 43
38.5568510, -120.5320701, 18.100, 14:32:12.571, 11, 0.00, 0.55, 98, -0.300, 0.700, 35.500, 1177, 100, 99, 28, 24154, -19010, 5232, 5339, 19, 14, 1529530332.571, 59, 0, 1024, 1024, 1024, 1024, 0, 6, 4017, 4013, 4015, 4030, 4023, 4024, 0, 1, 11800, -89.900, 0.000, 35.000, 0.000, 0.000, -3.000, 0.0, , , , , , 96, , , 43, 43, 43
38.5568510, -120.5320702, 18.400, 14:32:12.671, 11, 0.00, 0.55, 98, -0.200, 0.600, 35.600, 1177, 100, 99, 28, 24154, -19010, 5232, 5339, 19, 14, 1529530332.672, 53, 0, 1024, 1024, 1024, 1024, 0, 6, 4017, 4013, 4015, 4030, 4023, 4024, 0, 1, 11900, -90.000, 0.000, 35.000, 0.000, 0.000, -2.900, 0.0, , , , , , 96, , , 43, 43, 43
38.5568510, -120.5320702, 18.400, 14:32:12.771, 11, 0.00, 0.55, 98, -0.200, 0.600, 35.600, 1177, 100, 99, 28, 24154, -19010, 5232, 5339, 19, 14, 1529530332.772, 153, 0, 1024, 1024, 1024, 1024, 0, 6, 4017, 4013, 4015, 4030, 4023, 4024, 0, 1, 12000, -90.000, 0.000, 35.000, 0.000, 0.000, -2.900, 0.0, , , , , , 96, , , 43, 43, 43
38.5568510, -120.5320703, 19.000, 14:32:12.871, 12, 0.00, 0.55, 98, 0.000, 0.300, 35.900, 1177, 100, 99, 28, 24154, -19010, 5232, 5339, 19, 14, 1529530332.871, 49, 0, 1024, 1024, 1024, 1024, 0, 6, 4017, 4013, 4015, 4030, 4023, 4024, 0, 1, 12100, -90.000, 0.000, 35.000, 0.000, 0.000, -2.900, 0.0, , , , , , 96, , , 43, 43, 43
38.5568510, -120.5320703, 19.400, 14:32:12.971, 11, 0.00, 0.55, 98, 0.200, 0.400, 36.100, 1177, 100, 99, 28, 24154, -19010, 5232, 5339, 19, 14, 1529530332.972, 19, 0, 1024, 1024, 1024, 1024, 0, 6, 4017, 4013, 4015, 4030, 4023, 4024, 0, 1, 12200, -89.900, 0.000, 35.000, 0.000, 0.000, -3.000, 0.0, , , , , , 96, , , 43, 43, 43
38.5568510, -120.5320703, 19.700, 14:32:13.071, 11, 0.00, 0.55, 98, 0.400, 0.500, 36.400, 1177, 100, 99, 28, 24154, -19010, 5232, 5339, 19, 14, 1529530333.072, 20, 0, 1024, 1024, 1024, 1024, 0, 6, 4017, 4013, 4015, 4030, 4023, 4024, 0, 1, 12300, -89.900, 0.000, 35.000, 0.000, 0.000, -3.000, 0.0, , , , , , 96, , , 43, 43, 43
38.5568510, -120.5320703, 20.000, 14:32:13.171, 11, 0.00, 0.55, 98, 0.300, 0.500, 36.400, 1177, 100, 99, 28, 24154, -19010, 5232, 5339, 19, 14, 1529530333.172, 20, 0, 1024, 1024, 1024, 1024, 0, 6, 4017, 4013, 4015, 4030, 4023, 4024, 0, 1, 12400, -90.000, 0.000, 35.000, 0.000, 0.000, -2.900, 0.0, , , , , , 96, , , 43, 43, 43
38.5568509, -120.5320703, 20.300, 14:32:13.271, 11, 0.00, 0.55, 98, 0.000, 0.400, 36.500, 1177, 100, 99, 28, 24095, -19377, 5232, 5339, 19, 14, 1529530333.272, 11, 0, 1024, 1024, 1024, 1024, 0, 6, 4013, 4013, 4011, 4026, 4024, 4021, 0, 1, 12500, -90.000, 0.000, 35.000, 0.000, 0.000, -2.900, 0.0, , , , , , 96, , , 43, 43, 43
38.5568509, -120.5320702, 20.600, 14:32:13.371, 12, 0.00, 0.54, 98, -0.100, 0.400, 36.400, 1177, 100, 99, 28, 24095, -19377, 5232, 5339, 19, 14, 1529530333.371, 9, 0, 1024, 1024, 1024, 1024, 0, 6, 4013, 4013, 4011, 4026, 4024, 4021, 0, 1, 12599, -89.900, 0.000, 35.000, 0.000, 0.000, -2.900, 0.0, , , , , , 96, , , 43, 43, 43
38.5568509, -120.5320703, 20.900, 14:32:13.471, 12, 0.00, 0.54, 98, -0.200, 0.400, 36.400, 1177, 100, 99, 28, 24095, -19377, 5232, 5339, 19, 14, 1529530333.472, 13, 0, 1024, 1024, 1024, 1024, 0, 6, 4013, 4013, 4011, 4026, 4024, 4021, 0, 1, 12700, -89.900, 0.000, 35.000, 0.000, 0.000, -2.900, 0.0, , , , , , 96, , , 43, 43, 43
38.5568509, -120.5320704, 21.200, 14:32:13.572, 12, 0.00, 0.55, 98, 0.000, 0.400, 36.400, 1177, 100, 99, 28, 24095, -19377, 5232, 5339, 19, 14, 1529530333.573, 4, 0, 1024, 1024, 1024, 1024, 0, 6, 4013, 4013, 4011, 4026, 4024, 4021, 0, 1, 12801, -89.900, 0.000, 35.000, 0.000, 0.000, -2.900, 0.0, , , , , , 96, , , 43, 43, 43
38.5568509, -120.5320704, 21.200, 14:32:13.671, 12, 0.00, 0.55, 98, 0.000, 0.400, 36.400, 1177, 100, 99, 28, 24095, -19377, 5232, 5339, 19, 14, 1529530333.671, 102, 0, 1024, 1024, 1024, 1024, 0, 6, 4013, 4013, 4011, 4026, 4024, 4021, 0, 1, 12900, -89.900, 0.000, 35.000, 0.000, 0.000, -2.900, 0.0, , , , , , 96, , , 43, 43, 43
38.5568509, -120.5320703, 21.800, 14:32:13.771, 12, 0.00, 0.54, 98, 0.100, 0.100, 36.200, 1177, 100, 99, 28, 24095, -19377, 5232, 5339, 19, 14, 1529530333.772, 11, 0, 1024, 1024, 1024, 1024, 0, 6, 4013, 4013, 4011, 4026, 4024, 4021, 0, 1, 13000, -90.000, 0.000, 35.000, 0.000, 0.000, -2.800, 0.0, , , , , , 96, , , 43, 43, 43
38.5568509, -120.5320704, 22.100, 14:32:13.871, 12, 0.00, 0.54, 98, 0.000, 0.000, 36.100, 1177, 100, 98, 28, 24095, -19377, 5232, 5339, 19, 14, 1529530333.871, 9, 0, 1024, 1024, 1024, 1024, 0, 6, 4013, 4013, 4011, 4026, 4024, 4021, 0, 1, 13100, -90.000, 0.000, 35.000, 0.000, 0.000, -2.900, 0.0, , , , , , 96, , , 43, 43, 43
38.5568509, -120.5320704, 22.100, 14:32:13.971, 12, 0.00, 0.54, 98, 0.000, 0.000, 36.100, 1177, 100, 98, 28, 24095, -19377, 5232, 5339, 19, 14, 1529530333.971, 109, 0, 1024, 1024, 1024, 1024, 0, 6, 4013, 4013, 4011, 4026, 4024, 4021, 0, 1, 13200, -90.000, 0.000, 35.000, 0.000, 0.000, -2.900, 0.0, , , , , , 96, , , 43, 43, 43
38.5568508, -120.5320704, 22.400, 14:32:14.071, 13, 0.00, 0.54, 98, 0.000, -0.200, 36.000, 1177, 100, 98, 28, 24095, -19377, 5232, 5339, 19, 14, 1529530334.072, 74, 0, 1024, 1024, 1024, 1024, 0, 6, 4013, 4013, 4011, 4026, 4024, 4021, 0, 1, 13300, -90.000, 0.000, 35.000, 0.000, 0.000, -2.800, 0.0, , , , , , 96, , , 43, 43, 43
38.5568508, -120.5320704, 22.600, 14:32:14.171, 13, 0.00, 0.54, 98, 0.000, -0.200, 36.000, 1177, 100, 98, 28, 24095, -19377, 5232, 5339, 19, 14, 1529530334.172, 85, 0, 1024, 1024, 1024, 1024, 0, 6, 4013, 4013, 4011, 4026, 4024, 4021, 0, 1, 13400, -90.000, 0.000, 35.000, 0.000, 0.000, -2.900, 0.0, , , , , , 96, , , 43, 43, 43
38.5568508, -120.5320705, 22.900, 14:32:14.271, 14, 0.00, 0.55, 98, 0.000, -0.200, 35.900, 1177, 100, 98, 28, 24095, -19377, 5232, 5339, 19, 14, 1529530334.272, 86, 0, 1024, 1024, 1024, 1024, 0, 6, 4013, 4013, 4011, 4026, 4024, 4021, 0, 1, 13500, -90.000, 0.000, 35.000, 0.000, 0.000, -2.900, 0.0, , , , , , 96, , , 43, 43, 43
38.5568509, -120.5320705, 23.200, 14:32:14.371, 14, 0.00, 0.55, 98, 0.000, -0.100, 35.900, 1177, 100, 98, 28, 24103, -18759, 5232, 5339, 19, 14, 1529530334.371, 58, 0, 1024, 1024, 1024, 1024, 0, 6, 4013, 4013, 4011, 4026, 4024, 4021, 0, 1, 13600, -90.000, 0.000, 35.000, 0.000, 0.000, -2.900, 0.0, , , , , , 96, , , 43, 43, 43
38.5568509, -120.5320706, 23.500, 14:32:14.471, 14, 0.00, 0.55, 98, 0.100, -0.100, 35.900, 1177, 100, 99, 28, 24103, -18759, 5232, 5339, 19, 14, 1529530334.471, 63, 0, 1024, 1024, 1024, 1024, 0, 6, 4013, 4013, 4011, 4026, 4024, 4021, 0, 1, 13700, -89.900, 0.000, 35.000, 0.000, 0.000, -2.900, 0.0, , , , , , 96, , , 43, 43, 43
38.5568509, -120.5320707, 24.100, 14:32:14.571, 11, 0.00, 0.56, 98, 0.300, 0.200, 36.000, 1177, 100, 99, 28, 24103, -18759, 5232, 5339, 19, 14, 1529530334.571, 54, 0, 1024, 1024, 1024, 1024, 0, 6, 4013, 4013, 4011, 4026, 4024, 4021, 0, 1, 13800, -89.900, 0.000, 35.000, 0.000, 0.000, -2.900, 0.0, , , , , , 96, , , 43, 43, 43
38.5568509, -120.5320707, 24.400, 14:32:14.671, 11, 0.00, 0.56, 98, 0.300, 0.000, 36.000, 1177, 100, 99, 28, 24103, -18759, 5232, 5339, 19, 14, 1529530334.671, 51, 0, 1024, 1024, 1024, 1024, 0, 6, 4013, 4013, 4011, 4026, 4024, 4021, 0, 1, 13900, -89.900, 0.000, 35.000, 0.000, 0.000, -2.900, 0.0, , , , , , 96, , , 43, 43, 43
38.5568509, -120.5320706, 24.700, 14:32:14.771, 13, 0.00, 0.56, 98, 0.300, 0.000, 36.000, 1177, 100, 99, 28, 24103, -18759, 5232, 5339, 19, 14, 1529530334.771, 54, 0, 1024, 1024, 1024, 1024, 0, 6, 4013, 4019, 4004, 4030, 4026, 4014, 0, 1, 14000, -90.000, 0.000, 35.000, 0.000, 0.000, -2.900, 0.0, , , , , , 96, , , 43, 43, 43
38.5568509, -120.5320706, 24.700, 14:32:14.871, 13, 0.00, 0.56, 98, 0.300, 0.000, 36.000, 1177, 100, 98, 28, 24103, -18759, 5232, 5339, 19, 14, 1529530334.871, 154, 0, 1024, 1024, 1024, 1024, 0, 6, 4013, 4019, 4004, 4030, 4026, 4014, 0, 1, 14100, -90.000, 0.000, 35.000, 0.000, 0.000, -2.900, 0.0, , , , , , 96, , , 43, 43, 43
38.5568508, -120.5320706, 25.300, 14:32:14.971, 13, 0.00, 0.55, 98, 0.000, 0.000, 36.100, 1177, 100, 98, 28, 24103, -18759, 5232, 5339, 19, 14, 1529530334.971, 47, 0, 1024, 1024, 1024, 1024, 0, 6, 4013, 4019, 4004, 4030, 4026, 4014, 0, 1, 14200, -90.000, 0.000, 35.000, 0.000, 0.000, -2.900, 0.0, , , , , , 96, , , 43, 43, 43
38.5568508, -120.5320706, 25.600, 14:32:15.071, 13, 0.00, 0.55, 98, -0.300, 0.000, 36.200, 1177, 100, 98, 28, 24103, -18759, 5232, 5339, 19, 14, 1529530335.071, 38, 0, 1024, 1024, 1024, 1024, 0, 6, 4013, 4019, 4004, 4030, 4026, 4014, 0, 1, 14300, -89.900, 0.000, 35.000, 0.000, 0.000, -2.900, 0.0, , , , , , 96, , , 43, 43, 43
38.5568508, -120.5320706, 25.900, 14:32:15.171, 14, 0.00, 0.55, 98, -0.300, 0.000, 36.300, 1177, 100, 98, 28, 24103, -18759, 5232, 5339, 19, 14, 1529530335.171, 25, 0, 1024, 1024, 1024, 1024, 0, 6, 4013, 4019, 4004, 4030, 4026, 4014, 0, 1, 14400, -90.000, 0.000, 35.000, 0.000, 0.000, -2.900, 0.0, , , , , , 96, , , 43, 43, 43
38.5568508, -120.5320706, 26.200, 14:32:15.271, 14, 0.00, 0.55, 98, -0.300, 0.000, 36.300, 1177, 100, 98, 28, 24103, -18759, 5232, 5339, 19, 14, 1529530335.272, 41, 0, 1024, 1024, 1024, 1024, 0, 6, 4013, 4019, 4004, 4030, 4026, 4014, 0, 1, 14500, -90.000, 0.000, 35.000, 0.000, 0.000, -2.900, 0.0, , , , , , 96, , , 43, 43, 43
38.5568508, -120.5320706, 26.500, 14:32:15.371, 13, 0.00, 0.55, 98, -0.100, 0.100, 36.300, 1177, 100, 98, 28, 24103, -18759, 5232, 5339, 19, 14, 1529530335.372, 44, 0, 1024, 1024, 1024, 1024, 0, 6, 4013, 4019, 4004, 4030, 4026, 4014, 0, 1, 14600, -89.900, 0.000, 35.000, 0.000, 0.000, -3.000, 0.0, , , , , , 96, , , 43, 43, 43
38.5568508, -120.5320706, 26.800, 14:32:15.476, 13, 0.00, 0.55, 98, 0.000, 0.300, 36.300, 1177, 100, 98, 28, 24103, -18759, 5232, 5339, 19, 14, 1529530335.476, 3, 0, 1024, 1024, 1024, 1024, 0, 6, 4013, 4019, 4004, 4030, 4026, 4014, 0, 1, 14704, -89.900, 0.000, 35.000, 0.000, 0.000, -2.900, 0.0, , , , , , 96, , , 43, 43, 43
38.5568509, -120.5320706, 27.100, 14:32:15.571, 14, 0.00, 0.55, 98, 0.100, 0.300, 36.200, 1177, 100, 98, 28, 24103, -18759, 5232, 5339, 19, 14, 1529530335.572, 12, 0, 1024, 1024, 1024, 1024, 0, 6, 4013, 4019, 4004, 4030, 4026, 4014, 0, 1, 14800, -89.900, 0.000, 35.000, 0.000, 0.000, -2.900, 0.0, , , , , , 96, , , 43, 43, 43
38.5568509, -120.5320706, 27.400, 14:32:15.671, 14, 0.00, 0.56, 98, 0.200, 0.300, 36.100, 1177, 100, 98, 28, 24103, -18759, 5232, 5339, 19, 14, 1529530335.672, 19, 0, 1024, 1024, 1024, 1024, 0, 6, 4013, 4019, 4004, 4030, 4026, 4014, 0, 1, 14900, -89.900, 0.000, 35.000, 0.000, 0.000, -2.900, 0.0, , , , , , 96, , , 43, 43, 43
38.5568509, -120.5320706, 27.700, 14:32:15.771, 14, 0.00, 0.56, 98, 0.200, 0.200, 36.100, 1177, 100, 98, 28, 24088, -18829, 5232, 5339, 19, 14, 1529530335.772, 9, 0, 1024, 1024, 1024, 1024, 0, 6, 4005, 4013, 4004, 4027, 4025, 4011, 0, 1, 15000, -89.900, 0.000, 35.000, 0.000, 0.000, -2.900, 0.0, , , , , , 96, , , 43, 43, 43
38.5568509, -120.5320706, 28.000, 14:32:15.878, 14, 0.00, 0.55, 98, 0.100, 0.200, 36.100, 1177, 100, 98, 28, 24088, -18829, 5232, 5339, 19, 14, 1529530335.879, 5, 0, 1024, 1024, 1024, 1024, 0, 6, 4005, 4013, 4004, 4027, 4025, 4011, 0, 1, 15107, -89.900, 0.000, 35.000, 0.000, 0.000, -2.900, 0.0, , , , , , 96, , , 43, 43, 43
38.5568509, -120.5320706, 28.300, 14:32:15.971, 13, 0.00, 0.55, 98, 0.100, 0.200, 36.100, 1177, 100, 98, 28, 24088, -18829, 5232, 5339, 19, 14, 1529530335.972, 18, 0, 1024, 1024, 1024, 1024, 0, 6, 4005, 4013, 4004, 4027, 4025, 4011, 0, 1, 15200, -89.900, 0.000, 35.000, 0.000, 0.000, -2.900, 0.0, , , , , , 96, , , 43, 43, 43
38.5568509, -120.5320706, 28.600, 14:32:16.076, 13, 0.00, 0.56, 98, 0.200, 0.400, 36.100, 1177, 100, 98, 28, 24088, -18829, 5232, 5339, 19, 14, 1529530336.076, 4, 0, 1024, 1024, 1024, 1024, 0, 6, 4005, 4013, 4004, 4027, 4025, 4011, 0, 1, 15305, -89.900, 0.000, 35.000, 0.000, 0.000, -2.900, 0.0, , , , , , 96, , , 43, 43, 43
38.5568509, -120.5320706, 28.600, 14:32:16.173, 13, 0.00, 0.56, 98, 0.200, 0.400, 36.100, 1177, 100, 98, 28, 24088, -18829, 5232, 5339, 19, 14, 1529530336.173, 100, 0, 1024, 1024, 1024, 1024, 0, 6, 4005, 4013, 4004, 4027, 4025, 4011, 0, 1, 15401, -89.900, 0.000, 35.000, 0.000, 0.000, -2.900, 0.0, , , , , , 96, , , 43, 43, 43
38.5568509, -120.5320705, 28.900, 14:32:16.273, 14, 0.00, 0.56, 98, 0.000, 0.700, 36.000, 1177, 100, 98, 28, 24088, -18829, 5232, 5339, 19, 14, 1529530336.273, 88, 0, 1024, 1024, 1024, 1024, 0, 6, 4005, 4013, 4004, 4027, 4025, 4011, 0, 1, 15501, -89.900, 0.000, 35.000, 0.000, 0.000, -2.900, 0.0, , , , , , 96, , , 43, 43, 43
38.5568509, -120.5320705, 29.500, 14:32:16.373, 14, 0.00, 0.55, 98, -0.100, 0.500, 36.100, 1177, 100, 93, 28, 24088, -18829, 5232, 5339, 19, 14, 1529530336.373, 5, 0, 1024, 1024, 1024, 1024, 0, 6, 4005, 4013, 4004, 4027, 4025, 4011, 0, 1, 15601, -90.000, 0.000, 35.000, 0.000, 0.000, -2.900, 0.0, , , , , , 96, , , 43, 43, 43
38.5568509, -120.5320705, 29.500, 14:32:16.473, 14, 0.00, 0.55, 98, -0.100, 0.500, 36.100, 1177, 100, 93, 28, 24088, -18829, 5232, 5339, 19, 14, 1529530336.473, 105, 0, 1024, 1024, 1024, 1024, 0, 6, 4005, 4013, 4004, 4027, 4025, 4011, 0, 1, 15701, -90.000, 0.000, 35.000, 0.000, 0.000, -2.900, 0.0, , , , , , 96, , , 43, 43, 43
38.5568509, -120.5320705, 29.800, 14:32:16.573, 14, 0.00, 0.55, 98, -0.100, 0.400, 36.200, 1177, 100, 93, 28, 24088, -18829, 5232, 5339, 19, 14, 1529530336.573, 97, 0, 1024, 1024, 1024, 1024, 0, 6, 4005, 4013, 4004, 4027, 4025, 4011, 0, 1, 15801, -90.000, 0.000, 35.000, 0.000, 0.000, -2.900, 0.0, , , , , , 96, , , 43, 43, 43
38.5568509, -120.5320705, 30.100, 14:32:16.672, 14, 0.00, 0.55, 98, -0.100, 0.300, 36.300, 1177, 100, 93, 28, 24088, -18829, 5232, 5339, 19, 14, 1529530336.673, 86, 0, 1024, 1024, 1024, 1024, 0, 6, 4005, 4013, 4004, 4027, 4025, 4011, 0, 1, 15901, -90.000, 0.000, 35.000, 0.000, 0.000, -2.900, 0.0, , , , , , 96, , , 43, 43, 43
38.5568509, -120.5320705, 30.400, 14:32:16.773, 14, 0.00, 0.55, 98, -0.300, 0.100, 36.300, 1177, 100, 93, 28, 24088, -18829, 5232, 5339, 19, 14, 1529530336.773, 63, 0, 1024, 1024, 1024, 1024, 0, 6, 4005, 4013, 4004, 4027, 4025, 4011, 0, 1, 16001, -90.000, 0.000, 35.000, 0.000, 0.000, -2.900, 0.0, , , , , , 96, , , 43, 43, 43
38.5568509, -120.5320704, 31.000, 14:32:16.873, 14, 0.00, 0.55, 98, -0.300, 0.300, 36.200, 1177, 100, 93, 28, 24088, -18829, 5232, 5339, 19, 14, 1529530336.873, 78, 0, 1024, 1024, 1024, 1024, 0, 6, 4005, 4013, 4004, 4027, 4025, 4011, 0, 1, 16101, -89.900, 0.000, 35.000, 0.000, 0.000, -2.900, 0.0, , , , , , 96, , , 43, 43, 43
38.5568509, -120.5320705, 31.300, 14:32:16.973, 14, 0.00, 0.55, 98, -0.200, 0.500, 36.100, 1177, 100, 94, 28, 24088, -18829, 5232, 5339, 19, 14, 1529530336.973, 65, 0, 1024, 1024, 1024, 1024, 0, 6, 4005, 4013, 4004, 4027, 4025, 4011, 0, 1, 16201, -89.900, 0.000, 35.000, 0.000, 0.000, -2.900, 0.0, , , , , , 96, , , 43, 43, 43
38.5568510, -120.5320705, 31.600, 14:32:17.073, 14, 0.00, 0.56, 98, 0.000, 0.700, 36.000, 1177, 100, 94, 28, 24088, -18829, 5232, 5339, 19, 14, 1529530337.073, 62, 0, 1024, 1024, 1024, 1024, 0, 6, 4005, 4013, 4004, 4027, 4025, 4011, 0, 1, 16301, -89.900, 0.000, 35.000, 0.000, 0.000, -2.900, 0.0, , , , , , 96, , , 43, 43, 43
38.5568510, -120.5320705, 31.900, 14:32:17.172, 14, 0.00, 0.56, 98, 0.000, 0.700, 35.900, 1177, 100, 94, 28, 24088, -18829, 5232, 5339, 19, 14, 1529530337.173, 59, 0, 1024, 1024, 1024, 1024, 0, 6, 4005, 4013, 4004, 4027, 4025, 4011, 0, 1, 16401, -89.900, 0.000, 35.000, 0.000, 0.000, -2.900, 0.0, , , , , , 96, , , 43, 43, 43
38.5568510, -120.5320705, 32.200, 14:32:17.273, 14, 0.00, 0.56, 98, 0.100, 0.600, 35.900, 1177, 100, 94, 28, 24063, -18721, 5232, 5339, 19, 14, 1529530337.273, 50, 0, 1024, 1024, 1024, 1024, 0, 6, 3998, 4008, 3997, 4026, 4029, 4006, 0, 1, 16501, -89.900, 0.000, 35.000, 0.000, 0.000, -2.900, 0.0, , , , , , 96, , , 43, 43, 43
38.5568510, -120.5320705, 32.500, 14:32:17.373, 14, 0.00, 0.56, 98, 0.100, 0.400, 35.800, 1177, 100, 98, 28, 24063, -18721, 5232, 5339, 19, 14, 1529530337.373, 54, 0, 1024, 1024, 1024, 1024, 0, 6, 3998, 4008, 3997, 4026, 4029, 4006, 0, 1, 16601, -89.900, 0.000, 35.000, 0.000, 0.000, -3.000, 0.0, , , , , , 96, , , 43, 43, 43
38.5568510, -120.5320705, 32.800, 14:32:17.473, 14, 0.00, 0.56, 98, 0.100, 0.200, 35.800, 1177, 100, 98, 28, 24063, -18721, 5232, 5339, 19, 14, 1529530337.473, 44, 0, 1024, 1024, 1024, 1024, 0, 6, 3998, 4008, 3997, 4026, 4029, 4006, 0, 1, 16701, -90.000, 0.000, 35.000, 0.000, 0.000, -3.000, 0.0, , , , , , 96, , , 43, 43, 43
38.5568510, -120.5320705, 33.100, 14:32:17.573, 14, 0.00, 0.56, 98, 0.000, 0.000, 35.800, 1177, 100, 98, 28, 24063, -18721, 5232, 5339, 19, 14, 1529530337.573, 48, 0, 1024, 1024, 1024, 1024, 0, 6, 3998, 4008, 3997, 4026, 4029, 4006, 0, 1, 16801, -90.000, 0.000, 35.000, 0.000, 0.000, -3.000, 0.0, , , , , , 96, , , 43, 43, 43
38.5568509, -120.5320705, 33.400, 14:32:17.673, 14, 0.00, 0.55, 98, -0.200, -0.100, 35.800, 1177, 100, 98, 28, 24063, -18721, 5232, 5339, 19, 14, 1529530337.673, 36, 0, 1024, 1024, 1024, 1024, 0, 6, 3998, 4008, 3997, 4026, 4029, 4006, 0, 1, 16901, -90.000, 0.000, 35.000, 0.000, 0.000, -3.000, 0.0, , , , , , 96, , , 43, 43, 43
38.5568509, -120.5320705, 33.700, 14:32:17.773, 14, 0.00, 0.55, 98, -0.200, -0.100, 35.800, 1177, 100, 98, 29, 24033, -18736, 5232, 5339, 19, 14, 1529530337.773, 37, 0, 1024, 1024, 1024, 1024, 0, 6, 3997, 4000, 3996, 4019, 4020, 4003, 0, 1, 17001, -90.000, 0.000, 35.000, 0.000, 0.000, -3.000, 0.0, , , , , , 96, , , 43, 43, 43
38.5568509, -120.5320705, 34.000, 14:32:17.873, 14, 0.00, 0.55, 98, -0.200, -0.200, 35.900, 1177, 100, 98, 29, 24033, -18736, 5232, 5339, 19, 14, 1529530337.873, 27, 0, 1024, 1024, 1024, 1024, 0, 6, 3997, 4000, 3996, 4019, 4020, 4003, 0, 1, 17101, -90.000, 0.000, 35.000, 0.000, 0.000, -2.900, 0.0, , , , , , 96, , , 43, 43, 43
38.5568509, -120.5320705, 34.300, 14:32:17.973, 14, 0.00, 0.55, 98, -0.400, 0.000, 36.000, 1177, 100, 98, 29, 24033, -18736, 5232, 5339, 19, 14, 1529530337.973, 20, 0, 1024, 1024, 1024, 1024, 0, 6, 3997, 4000, 3996, 4019, 4020, 4003, 0, 1, 17201, -90.000, 0.000, 35.000, 0.000, 0.000, -2.900, 0.0, , , , , , 96, , , 43, 43, 43
38.5568510, -120.5320705, 34.600, 14:32:18.073, 14, 0.00, 0.56, 98, -0.400, 0.300, 36.200, 1177, 100, 98, 29, 24033, -18736, 5232, 5339, 19, 14, 1529530338.073, 25, 0, 1024, 1024, 1024, 1024, 0, 6, 3997, 4000, 3996, 4019, 4020, 4003, 0, 1, 17301, -89.900, 0.000, 35.000, 0.000, 0.000, -2.900, 0.0, , , , , , 96, , , 43, 43, 43
38.5568510, -120.5320705, 34.900, 14:32:18.173, 14, 0.00, 0.56, 98, 0.000, 0.900, 36.200, 1177, 100, 98, 29, 24033, -18736, 5232, 5339, 19, 14, 1529530338.173, 3, 0, 1024, 1024, 1024, 1024, 0, 6, 3997, 4000, 3996, 4019, 4020, 4003, 0, 1, 17401, -89.900, 0.000, 35.100, 0.000, 0.000, -2.900, 0.0, , , , , , 96, , , 43, 43, 43
38.5568510, -120.5320705, 34.900, 14:32:18.272, 14, 0.00, 0.56, 98, 0.000, 0.900, 36.200, 1177, 100, 98, 29, 24033, -18736, 5232, 5339, 19, 14, 1529530338.273, 102, 0, 1024, 1024, 1024, 1024, 0, 6, 3997, 4000, 3996, 4019, 4020, 4003, 0, 1, 17501, -89.900, 0.000, 35.000, 0.000, 0.000, -2.900, 0.0, , , , , , 96, , , 43, 43, 43
38.5568510, -120.5320705, 34.900, 14:32:18.373, 14, 0.00, 0.56, 98, 0.000, 0.900, 36.200, 1177, 100, 97, 29, 24033, -18736, 5232, 5339, 19, 14, 1529530338.373, 203, 0, 1024, 1024, 1024, 1024, 0, 6, 3997, 4000, 3996, 4019, 4020, 4003, 0, 1, 17601, -89.900, 0.000, 35.000, 0.000, 0.000, -2.900, 0.0, , , , , , 96, , , 43, 43, 43
38.5568511, -120.5320705, 35.800, 14:32:18.473, 14, 0.00, 0.57, 98, 0.100, 1.000, 36.200, 1177, 100, 97, 29, 24033, -18736, 5232, 5339, 19, 14, 1529530338.473, 15, 0, 1024, 1024, 1024, 1024, 0, 6, 3997, 4000, 3996, 4019, 4020, 4003, 0, 1, 17701, -89.900, 0.000, 35.000, 0.000, 0.000, -2.900, 0.0, , , , , , 96, , , 43, 43, 43
38.5568511, -120.5320705, 35.800, 14:32:18.573, 14, 0.00, 0.57, 98, 0.100, 1.000, 36.200, 1177, 100, 97, 29, 24033, -18736, 5232, 5339, 19, 14, 1529530338.573, 115, 0, 1024, 1024, 1024, 1024, 0, 6, 3997, 4000, 3996, 4019, 4020, 4003, 0, 1, 17801, -89.900, 0.000, 35.000, 0.000, 0.000, -2.900, 0.0, , , , , , 96, , , 43, 43, 43
38.5568511, -120.5320705, 35.800, 14:32:18.673, 14, 0.00, 0.57, 98, 0.100, 1.000, 36.200, 1177, 100, 97, 29, 24033, -18736, 5232, 5339, 19, 14, 1529530338.673, 215, 0, 1024, 1024, 1024, 1024, 0, 6, 3997, 4000, 3996, 4019, 4020, 4003, 0, 1, 17901, -89.900, 0.000, 35.000, 0.000, 0.000, -2.900, 0.0, , , , , , 96, , , 43, 43, 43
38.5568511, -120.5320704, 36.400, 14:32:18.773, 14, 0.00, 0.57, 98, 0.200, 0.800, 36.000, 1177, 100, 97, 29, 24033, -18736, 5232, 5339, 19, 14, 1529530338.773, 96, 0, 1024, 1024, 1024, 1024, 0, 6, 3997, 4000, 3996, 4019, 4020, 4003, 0, 1, 18001, -89.900, 0.000, 35.000, 0.000, 0.000, -2.800, 0.0, , , , , , 96, , , 43, 43, 43
38.5568511, -120.5320704, 36.400, 14:32:18.873, 14, 0.00, 0.57, 98, 0.200, 0.800, 36.000, 1177, 100, 97, 29, 24033, -18736, 5232, 5339, 19, 14, 1529530338.873, 196, 0, 1024, 1024, 1024, 1024, 0, 6, 3997, 4000, 3996, 4019, 4020, 4003, 0, 1, 18101, -89.900, 0.000, 35.000, 0.000, 0.000, -2.800, 0.0, , , , , , 96, , , 43, 43, 43
38.5568512, -120.5320704, 36.900, 14:32:18.973, 14, 0.00, 0.57, 98, -0.300, 0.900, 35.900, 1177, 100, 91, 29, 24033, -18736, 5232, 5339, 19, 14, 1529530338.973, 80, 0, 1024, 1024, 1024, 1024, 0, 6, 3997, 4000, 3996, 4019, 4020, 4003, 0, 1, 18201, -89.900, 0.000, 35.000, 0.000, 0.000, -2.900, 0.0, , , , , , 96, , , 43, 43, 43
38.5568512, -120.5320704, 37.200, 14:32:19.072, 14, 0.00, 0.57, 98, -0.400, 1.100, 35.900, 1177, 100, 91, 29, 24033, -18736, 5232, 5339, 19, 14, 1529530339.073, 69, 0, 1024, 1024, 1024, 1024, 0, 6, 3997, 4000, 3996, 4019, 4020, 4003, 0, 1, 18301, -89.900, 0.000, 35.000, 0.000, 0.000, -2.900, 0.0, , , , , , 96, , , 43, 43, 43
38.5568512, -120.5320703, 37.500, 14:32:19.173, 14, 0.00, 0.57, 98, -0.400, 1.200, 35.800, 1177, 100, 91, 29, 24033, -18736, 5232, 5339, 19, 14, 1529530339.173, 65, 0, 1024, 1024, 1024, 1024, 0, 6, 3997, 4000, 3996, 4019, 4020, 4003, 0, 1, 18401, -89.900, 0.000, 35.000, 0.000, 0.000, -3.000, 0.0, , , , , , 96, , , 43, 43, 43
38.5568512, -120.5320703, 38.100, 14:32:19.273, 14, 0.00, 0.57, 98, 0.000, 1.300, 35.800, 1177, 100, 91, 29, 24033, -18736, 5232, 5339, 19, 14, 1529530339.273, 54, 0, 1024, 1024, 1024, 1024, 0, 6, 3997, 4000, 3996, 4019, 4020, 4003, 0, 1, 18501, -89.900, 0.000, 35.000, 0.000, 0.000, -2.900, 0.0, , , , , , 96, , , 43, 43, 43
38.5568512, -120.5320703, 38.400, 14:32:19.373, 14, 0.00, 0.57, 98, 0.000, 1.100, 35.700, 1177, 100, 91, 29, 24056, -18390, 5232, 5339, 19, 14, 1529530339.373, 61, 0, 1024, 1024, 1024, 1024, 0, 6, 4002, 4007, 3993, 4016, 4020, 4009, 0, 1, 18601, -89.900, 0.000, 35.000, 0.000, 0.000, -3.000, 0.0, , , , , , 96, , , 43, 43, 43
38.5568512, -120.5320703, 38.400, 14:32:19.473, 14, 0.00, 0.57, 98, 0.000, 1.100, 35.700, 1177, 100, 91, 29, 24056, -18390, 5232, 5339, 19, 14, 1529530339.473, 161, 0, 1024, 1024, 1024, 1024, 0, 6, 4002, 4007, 3993, 4016, 4020, 4009, 0, 1, 18701, -89.900, 0.000, 35.000, 0.000, 0.000, -3.000, 0.0, , , , , , 96, , , 43, 43, 43
38.5568512, -120.5320702, 39.000, 14:32:19.573, 14, 0.00, 0.56, 98, -0.500, 1.000, 35.700, 1177, 100, 91, 29, 24056, -18390, 5232, 5339, 19, 14, 1529530339.573, 48, 0, 1024, 1024, 1024, 1024, 0, 6, 4002, 4007, 3993, 4016, 4020, 4009, 0, 1, 18801, -89.900, 0.000, 35.000, 0.000, 0.000, -2.900, 0.0, , , , , , 96, , , 43, 43, 43
38.5568512, -120.5320702, 39.400, 14:32:19.673, 14, 0.00, 0.56, 98, -0.600, 0.600, 35.800, 1177, 100, 91, 29, 24056, -18390, 5232, 5339, 19, 14, 1529530339.673, 35, 0, 1024, 1024, 1024, 1024, 0, 6, 4002, 4007, 3993, 4016, 4020, 4009, 0, 1, 18901, -90.000, 0.000, 35.000, 0.000, 0.000, -3.000, 0.0, , , , , , 96, , , 43, 43, 43
38.5568512, -120.5320702, 39.700, 14:32:19.772, 14, 0.00, 0.56, 98, -0.400, 0.600, 35.900, 1177, 100, 91, 29, 23960, -19098, 5232, 5339, 19, 14, 1529530339.773, 36, 0, 1024, 1024, 1024, 1024, 0, 6, 4002, 4007, 3993, 4016, 4020, 4009, 0, 1, 19001, -89.900, 0.000, 35.100, 0.000, 0.000, -3.000, 0.0, , , , , , 96, , , 43, 43, 43
38.5568511, -120.5320702, 40.000, 14:32:19.872, 14, 0.00, 0.56, 98, -0.300, 0.600, 36.000, 1177, 100, 94, 29, 23960, -19098, 5232, 5339, 19, 14, 1529530339.873, 37, 0, 1024, 1024, 1024, 1024, 0, 6, 4002, 4007, 3993, 4016, 4020, 4009, 0, 1, 19101, -89.900, 0.000, 35.100, 0.000, 0.000, -2.900, 0.0, , , , , , 96, , , 43, 43, 43
38.5568511, -120.5320701, 40.300, 14:32:19.973, 15, 0.00, 0.56, 98, -0.500, 0.600, 36.000, 1177, 100, 94, 29, 23960, -19098, 5232, 5339, 19, 14, 1529530339.973, 29, 0, 1024, 1024, 1024, 1024, 0, 6, 4002, 4007, 3993, 4016, 4020, 4009, 0, 1, 19201, -90.000, 0.000, 35.000, 0.000, 0.000, -2.900, 0.0, , , , , , 96, , , 43, 43, 43
38.5568511, -120.5320701, 40.600, 14:32:20.073, 15, 0.00, 0.55, 98, -0.600, 0.600, 36.100, 1177, 100, 94, 29, 23960, -19098, 5232, 5339, 19, 14, 1529530340.073, 19, 0, 1024, 1024, 1024, 1024, 0, 6, 4002, 4007, 3993, 4016, 4020, 4009, 0, 1, 19301, -90.000, 0.000, 35.000, 0.000, 0.000, -2.900, 0.0, , , , , , 96, , , 43, 43, 43
38.5568511, -120.5320701, 40.900, 14:32:20.172, 15, 0.00, 0.55, 98, -0.700, 0.700, 36.100, 1177, 100, 94, 29, 23960, -19098, 5232, 5339, 19, 14, 1529530340.173, 20, 0, 1024, 1024, 1024, 1024, 0, 6, 4002, 4007, 3993, 4016, 4020, 4009, 0, 1, 19401, -89.900, 0.000, 35.000, 0.000, 0.000, -3.000, 0.0, , , , , , 96, , , 43, 43, 43
38.5568511, -120.5320700, 41.200, 14:32:20.273, 15, 0.00, 0.55, 98, -0.800, 0.900, 36.100, 1177, 100, 94, 29, 23960, -19098, 5178, 5339, 19, 14, 1529530340.273, 34, 0, 1024, 1024, 1024, 1024, 0, 6, 3979, 3991, 3974, 4002, 3996, 3994, 0, 1, 19501, -89.900, 0.000, 35.100, 0.000, 0.000, -3.000, 0.0, , , , , , 96, , , 43, 43, 43
38.5568511, -120.5320700, 41.500, 14:32:20.377, 15, 0.00, 0.55, 98, -0.700, 1.100, 36.100, 1177, 100, 97, 29, 23960, -19098, 5178, 5339, 19, 14, 1529530340.377, 6, 0, 1024, 1024, 1024, 1024, 0, 6, 3979, 3991, 3974, 4002, 3996, 3994, 0, 1, 19606, -89.900, 0.000, 35.100, 0.000, 0.000, -2.900, 0.0, , , , , , 96, , , 43, 43, 43
38.5568511, -120.5320699, 41.800, 14:32:20.472, 15, 0.00, 0.54, 98, -0.800, 1.100, 36.100, 1177, 100, 97, 29, 23960, -19098, 5178, 5339, 19, 14, 1529530340.473, 4, 0, 1024, 1024, 1024, 1024, 0, 6, 3979, 3991, 3974, 4002, 3996, 3994, 0, 1, 19701, -89.900, 0.000, 35.100, 0.000, 0.000, -2.900, 0.0, , , , , , 96, , , 43, 43, 43
38.5568510, -120.5320699, 42.100, 14:32:20.573, 15, 0.00, 0.54, 98, -1.100, 0.800, 36.100, 1177, 100, 97, 29, 23960, -19098, 5178, 5339, 19, 14, 1529530340.573, 8, 0, 1024, 1024, 1024, 1024, 0, 6, 3979, 3991, 3974, 4002, 3996, 3994, 0, 1, 19801, -90.000, 0.000, 35.100, 0.000, 0.000, -2.900, 0.0, , , , , , 96, , , 43, 43, 43
38.5568510, -120.5320699, 42.400, 14:32:20.673, 15, 0.00, 0.53, 98, -1.200, 0.700, 36.100, 1177, 100, 97, 29, 23960, -19098, 5178, 5339, 19, 14, 1529530340.673, 5, 0, 1024, 1024, 1024, 1024, 0, 6, 3979, 3991, 3974, 4002, 3996, 3994, 0, 1, 19901, -89.900, 0.000, 35.000, 0.000, 0.000, -2.900, 0.0, , , , , , 96, , , 43, 43, 43
38.5568510, -120.5320699, 42.400, 14:32:20.773, 15, 0.00, 0.53, 98, -1.200, 0.700, 36.100, 1177, 100, 97, 29, 23960, -19098, 5178, 5339, 19, 14, 1529530340.773, 105, 0, 1024, 1024, 1024, 1024, 0, 6, 3979, 3991, 3974, 4002, 3996, 3994, 0, 1, 20001, -89.900, 0.000, 35.000, 0.000, 0.000, -2.900, 0.0, , , , , , 96, , , 43, 43, 43
38.5568509, -120.5320699, 42.700, 14:32:20.873, 15, 0.00, 0.53, 98, -1.200, 0.600, 36.100, 1177, 100, 97, 29, 23960, -19098, 5178, 5339, 19, 14, 1529530340.873, 86, 0, 1024, 1024, 1024, 1024, 0, 6, 3979, 3991, 3974, 4002, 3996, 3994, 0, 1, 20101, -90.000, 0.000, 35.100, 0.000, 0.000, -2.900, 0.0, , , , , , 96, , , 43, 43, 43
38.5568509, -120.5320699, 43.000, 14:32:20.973, 15, 0.00, 0.52, 98, -1.000, 0.400, 36.000, 1177, 100, 97, 29, 23960, -19098, 5178, 5339, 19, 14, 1529530340.973, 69, 0, 1024, 1024, 1024, 1024, 0, 6, 3979, 3991, 3974, 4002, 3996, 3994, 0, 1, 20201, -90.000, 0.000, 35.100, 0.000, 0.000, -2.900, 0.0, , , , , , 96, , , 43, 43, 43
38.5568508, -120.5320699, 43.300, 14:32:21.071, 15, 0.00, 0.52, 98, -0.800, 0.500, 36.000, 1177, 100, 97, 29, 23960, -19098, 5178, 5339, 19, 14, 1529530341.071, 86, 0, 1024, 1024, 1024, 1024, 0, 6, 3979, 3991, 3974, 4002, 3996, 3994, 0, 1, 20300, -89.900, 0.000, 35.100, 0.000, 0.000, -2.800, 0.0, , , , , , 96, , , 43, 43, 43
38.5568508, -120.5320699, 43.600, 14:32:21.171, 15, 0.00, 0.52, 98, -0.900, 0.600, 36.000, 1177, 100, 97, 29, 23960, -19098, 5178, 5339, 19, 14, 1529530341.171, 70, 0, 1024, 1024, 1024, 1024, 0, 6, 3979, 3991, 3974, 4002, 3996, 3994, 0, 1, 20400, -90.000, 0.000, 35.100, 0.000, 0.000, -2.900, 0.0, , , , , , 96, , , 43, 43, 43
38.5568507, -120.5320699, 44.200, 14:32:21.271, 15, 0.00, 0.51, 98, -1.100, 0.500, 35.900, 1177, 100, 97, 29, 23960, -19098, 5178, 5339, 19, 14, 1529530341.271, 71, 0, 1024, 1024, 1024, 1024, 0, 6, 3979, 3991, 3974, 4002, 3996, 3994, 0, 1, 20500, -90.000, 0.000, 35.000, 0.000, 0.000, -2.900, 0.0, , , , , , 96, , , 43, 43, 43
38.5568507, -120.5320698, 44.500, 14:32:21.371, 15, 0.00, 0.50, 97, -1.300, 0.600, 35.700, 1177, 100, 97, 29, 23955, -19422, 5178, 5339, 19, 14, 1529530341.371, 77, 0, 1024, 1024, 1024, 1024, 0, 6, 3981, 3981, 3979, 4003, 3991, 3992, 0, 1, 20600, -89.900, 0.000, 35.100, 0.000, 0.000, -2.900, 0.0, , , , , , 96, , , 43, 43, 43
38.5568507, -120.5320698, 44.800, 14:32:21.471, 15, 0.00, 0.50, 97, -1.300, 0.700, 35.700, 1177, 100, 97, 29, 23955, -19422, 5178, 5339, 19, 14, 1529530341.471, 64, 0, 1024, 1024, 1024, 1024, 0, 6, 3981, 3981, 3979, 4003, 3991, 3992, 0, 1, 20700, -90.000, 0.000, 35.100, 0.000, 0.000, -2.900, 0.0, , , , , , 96, , , 43, 43, 43
