latitude,longitude,altitude(feet),ascent(feet),speed(mph),distance(feet),time(millisecond),datetime(utc),satellites,gpslevel,voltage(v),max_altitude(feet),max_ascent(feet),max_speed(mph),max_distance(feet), xSpeed(mph), ySpeed(mph), zSpeed(mph), compass_heading(degrees), pitch(degrees), roll(degrees),isPhoto,isVideo,rc_elevator,rc_aileron,rc_throttle,rc_rudder,gimbal_heading(degrees),gimbal_pitch(degrees),battery_percent,voltageCell1,voltageCell2,voltageCell3,voltageCell4,voltageCell5,voltageCell6,current(A),battery_temperature(f),flycStateRaw,flycState,message
38.5568751,-120.5320771,3754.0619216392,0,0.223694,0,2910,2018-06-20 20:56:36,11,0,0,3754.0619216392,0,0.223694,0,0,0,0,19, 1.8, -1,1,0,1024,1024,1024,1024,18.9,-89.9,98,4.318,4.311,4.172,4.307,4.285,4.307,0,82.4,11,AutoTakeoff,DJI_0387.jpg Starting Mission from Lat/Long: 38.55687/-120.53207 Camera: Zenmuse X3 - Overlap: 90/90 - Active Connection: No
38.556875,-120.5320774,3754.0619216392,0,0.447388,0.093044294316,3000,2018-06-20 20:56:36,11,0,25.73,3754.0619216392,0,0.447388,0.093044294316,0,0,0,19.1, 1.3, -0.3,0,0,1024,1024,1024,1024,18.9,-89.9,98,4.318,4.311,4.172,4.307,4.285,4.307,2.954,82.4,11,AutoTakeoff,
38.556875,-120.5320777,3754.0619216392,0,0.447388,0.175029861244,3100,2018-06-20 20:56:36,11,0,25.73,3754.0619216392,0,0.447388,0.175029861244,0,0,0,19.2, 0.4, 0.6,0,0,1024,1024,1024,1024,18.9,-90,98,4.318,4.311,4.172,4.307,4.285,4.307,2.954,82.4,11,AutoTakeoff,
38.556875,-120.532078,3754.0619216392,0,0.447388,0.259356635596,3200,2018-06-20 20:56:36,11,0,25.73,3754.0619216392,0,0.447388,0.259356635596,0,0,0,19.3, -0.3, 1,0,0,1024,1024,1024,1024,18.9,-90,98,4.318,4.311,4.172,4.307,4.285,4.307,2.954,82.4,11,AutoTakeoff,
38.556875,-120.5320783,3754.3900056392,0.328084,0.447388,0.3443077538,3300,2018-06-20 20:56:36,11,0,25.73,3754.3900056392,0.328084,0.447388,0.3443077538,0,0,-0.223694,19.4, -1, 1.6,0,0,1024,1024,1024,1024,18.9,-90,98,4.318,4.311,4.172,4.307,4.285,4.307,2.954,82.4,11,AutoTakeoff,
38.5568749,-120.5320786,3754.3900056392,0.328084,0.447388,0.43414043384,3400,2018-06-20 20:56:36,10,0,25.73,3754.3900056392,0.328084,0.447388,0.43414043384,0,0,0,19.5, -1.4, 1.8,0,0,1024,1024,1024,1024,18.8,-90,98,4.318,4.311,4.172,4.307,4.285,4.307,2.954,82.4,11,AutoTakeoff,
38.5568749,-120.5320788,3754.3900056392,0.328084,0.223694,0.49048229916,3500,2018-06-20 20:56:36,10,0,25.73,3754.3900056392,0.328084,0.447388,0.49048229916,0,0,0,19.6, -1.4, 1.6,0,0,1024,1024,1024,1024,18.9,-90,98,4.318,4.311,4.172,4.307,4.285,4.307,2.954,82.4,11,AutoTakeoff,
38.5568749,-120.532079,3754.7180896392,0.656168,0.223694,0.54697508312,3600,2018-06-20 20:56:36,10,0,25.73,3754.7180896392,0.656168,0.447388,0.54697508312,0,0,0,19.7, -1.2, 1.4,0,0,1024,1024,1024,1024,18.9,-90,98,4.318,4.311,4.172,4.307,4.285,4.307,2.954,82.4,11,AutoTakeoff,
38.5568749,-120.5320791,3754.7180896392,0.656168,0.223694,0.5752624856,3700,2018-06-20 20:56:36,10,0,25.73,3754.7180896392,0.656168,0.447388,0.5752624856,0,0,0,19.8, -0.7, 1,0,0,1024,1024,1024,1024,18.9,-90,98,4.318,4.311,4.172,4.307,4.285,4.307,2.954,82.4,11,AutoTakeoff,
38.5568749,-120.5320792,3755.0461736392,0.984252,0,0.6035761348,3800,2018-06-20 20:56:37,10,0,25.73,3755.0461736392,0.984252,0.447388,0.6035761348,0,0,0,19.9, -0.6, 1,0,0,1024,1024,1024,1024,18.9,-90,98,4.318,4.311,4.172,4.307,4.285,4.307,2.954,82.4,11,AutoTakeoff,
38.5568748,-120.5320794,3755.0461736392,0.984252,0,0.66527561184,3900,2018-06-20 20:56:37,10,0,25.73,3755.0461736392,0.984252,0.447388,0.66527561184,0,0,0,19.8, -0.8, 1,0,0,1024,1024,1024,1024,18.9,-90,98,4.318,4.311,4.172,4.307,4.285,4.307,2.954,82.4,11,AutoTakeoff,
38.5568748,-120.5320796,3755.3742576392,1.312336,0,0.721620758,4000,2018-06-20 20:56:37,11,0,25.728,3755.3742576392,1.312336,0.447388,0.721620758,0,0,-0.223694,19.6, -0.9, 1,0,0,1024,1024,1024,1024,18.9,-90,98,4.258,4.262,4.249,4.252,4.272,4.236,3.722,82.4,11,AutoTakeoff,
38.5568747,-120.5320797,3755.3742576392,1.312336,0,0.7560203654,4100,2018-06-20 20:56:37,11,0,25.728,3755.3742576392,1.312336,0.447388,0.7560203654,0,0,0,19.3, -1.1, 0.9,0,0,1024,1024,1024,1024,18.9,-90,98,4.258,4.262,4.249,4.252,4.272,4.236,3.722,82.4,11,AutoTakeoff,
38.5568745,-120.5320799,3755.7023416392,1.64042,0,0.8283136748,4200,2018-06-20 20:56:37,11,0,25.728,3755.7023416392,1.64042,0.447388,0.8283136748,0,0,-0.223694,19, -1.1, 0.8,0,0,1024,1024,1024,1024,18.9,-90,98,4.258,4.262,4.249,4.252,4.272,4.236,3.722,82.4,11,AutoTakeoff,
38.5568745,-120.53208,3756.0304256392,1.968504,0,0.85586288828,4300,2018-06-20 20:56:37,11,0,25.728,3756.0304256392,1.968504,0.447388,0.85586288828,0,0,-0.223694,18.8, -1.2, 0.8,0,0,1024,1024,1024,1024,18.9,-90,98,4.258,4.262,4.249,4.252,4.272,4.236,3.722,82.4,11,AutoTakeoff,
38.5568745,-120.5320802,3756.0304256392,1.968504,0,0.91114504228,4400,2018-06-20 20:56:37,11,0,25.728,3756.0304256392,1.968504,0.447388,0.91114504228,0,0,-0.223694,18.7, -1.2, 0.9,0,0,1024,1024,1024,1024,18.9,-90,98,4.258,4.262,4.249,4.252,4.272,4.236,3.722,82.4,11,AutoTakeoff,
38.5568744,-120.5320803,3756.3585096392,2.296588,0,0.94803480724,4500,2018-06-20 20:56:37,11,0,25.728,3756.3585096392,2.296588,0.447388,0.94803480724,0,0,-0.223694,18.7, -1.1, 1,0,0,1024,1024,1024,1024,18.9,-90,98,4.258,4.262,4.249,4.252,4.272,4.236,3.722,82.4,11,AutoTakeoff,
38.5568744,-120.5320804,3756.3585096392,2.296588,0,0.9755413698,4600,2018-06-20 20:56:37,11,0,25.728,3756.3585096392,2.296588,0.447388,0.9755413698,0,0,-0.223694,18.9, -1.1, 1.3,0,0,1024,1024,1024,1024,18.9,-90,98,4.258,4.262,4.249,4.252,4.272,4.236,3.722,82.4,11,AutoTakeoff,
38.5568743,-120.5320805,3756.6865936392,2.624672,0,1.0130085626,4800,2018-06-20 20:56:38,11,0,25.728,3756.6865936392,2.624672,0.447388,1.0130085626,0,0,-0.223694,19, -1.4, 1.6,0,0,1024,1024,1024,1024,18.9,-90,98,4.258,4.262,4.249,4.252,4.272,4.236,3.722,82.4,11,AutoTakeoff,
38.5568743,-120.5320806,3757.0146776392,2.952756,0,1.04036420652,4900,2018-06-20 20:56:38,11,0,25.728,3757.0146776392,2.952756,0.447388,1.04036420652,0,0,0,19.2, -1.6, 1.8,0,0,1024,1024,1024,1024,18.9,-90,98,4.258,4.262,4.249,4.252,4.272,4.236,3.722,82.4,11,AutoTakeoff,
38.5568742,-120.5320807,3757.0146776392,2.952756,0,1.07832352532,5000,2018-06-20 20:56:38,11,0,24.964,3757.0146776392,2.952756,0.447388,1.07832352532,0,0,0,19.2, -1.7, 1.7,0,0,1024,1024,1024,1024,18.9,-90,98,4.139,4.119,4.089,4.129,4.144,4.113,13.26,82.4,14,Waypoint,
38.5568741,-120.5320807,3757.0146776392,2.952756,0,1.08998691152,5100,2018-06-20 20:56:38,11,0,24.964,3757.0146776392,2.952756,0.447388,1.08998691152,0,0,0,19.2, -1.7, 0.8,0,0,1024,1024,1024,1024,18.9,-90,98,4.139,4.119,4.089,4.129,4.144,4.113,13.26,82.4,14,Waypoint,
38.556874,-120.5320807,3757.3427616392,3.28084,0,1.10273625576,5200,2018-06-20 20:56:38,11,0,24.964,3757.3427616392,3.28084,0.447388,1.10273625576,0,0,0,19.2, -1.2, 0,0,0,1024,1024,1024,1024,18.8,-90,98,4.139,4.119,4.089,4.129,4.144,4.113,13.26,82.4,14,Waypoint,
38.556874,-120.5320806,3757.3427616392,3.28084,0,1.07621066436,5300,2018-06-20 20:56:38,11,0,24.964,3757.3427616392,3.28084,0.447388,1.10273625576,0,0,0,19.1, -0.8, -0.6,0,0,1024,1024,1024,1024,18.9,-89.9,98,4.139,4.119,4.089,4.129,4.144,4.113,13.26,82.4,14,Waypoint,
38.5568739,-120.5320807,3757.3427616392,3.28084,0,1.11653218796,5400,2018-06-20 20:56:38,11,0,24.964,3757.3427616392,3.28084,0.447388,1.11653218796,0,0,0,19.1, -0.7, -0.7,0,0,1024,1024,1024,1024,18.9,-89.9,98,4.139,4.119,4.089,4.129,4.144,4.113,13.26,82.4,14,Waypoint,
38.5568739,-120.5320808,3757.6708456392,3.608924,0,1.1428314014,5500,2018-06-20 20:56:38,11,0,24.964,3757.6708456392,3.608924,0.447388,1.1428314014,0,0,-0.223694,19.2, -0.6, 0,0,0,1024,1024,1024,1024,18.9,-89.9,98,4.139,4.119,4.089,4.129,4.144,4.113,13.26,82.4,14,Waypoint,
38.5568738,-120.5320809,3757.9989296392,3.937008,0,1.1833825838,5600,2018-06-20 20:56:38,11,0,24.964,3757.9989296392,3.937008,0.447388,1.1833825838,0,0,-0.223694,19.3, -0.7, 0.4,0,0,1024,1024,1024,1024,18.9,-90,98,4.139,4.119,4.089,4.129,4.144,4.113,13.26,82.4,14,Waypoint,
38.5568739,-120.532081,3758.3270136392,4.265092,0,1.19574150808,5700,2018-06-20 20:56:38,11,0,24.964,3758.3270136392,4.265092,0.447388,1.19574150808,0,0,-0.223694,19.5, -1, 0.9,0,0,1024,1024,1024,1024,18.9,-90,98,4.139,4.119,4.089,4.129,4.144,4.113,13.26,82.4,14,Waypoint,
38.5568739,-120.5320811,3758.6550976392,4.593176,0,1.22233271628,5800,2018-06-20 20:56:39,11,0,24.964,3758.6550976392,4.593176,0.447388,1.22233271628,0,0,-0.223694,19.6, -1.2, 1.1,0,0,1024,1024,1024,1024,18.9,-90,98,4.139,4.119,4.089,4.129,4.144,4.113,13.26,82.4,14,Waypoint,
38.5568739,-120.5320812,3759.3112656392,5.249344,0,1.24901250716,5900,2018-06-20 20:56:39,11,0,24.964,3759.3112656392,5.249344,0.447388,1.24901250716,0,0,-0.223694,19.6, -1.2, 1.1,0,0,1024,1024,1024,1024,18.9,-90,98,4.139,4.119,4.089,4.129,4.144,4.113,13.26,82.4,14,Waypoint,
38.5568739,-120.5320814,3759.6393496392,5.577428,0,1.3026083094,6000,2018-06-20 20:56:39,11,0,24.558,3759.6393496392,5.577428,0.447388,1.3026083094,0,0,-0.447388,19.5, -1.2, 1.1,0,0,1024,1024,1024,1024,18.9,-90,98,4.097,4.087,4.068,4.078,4.108,4.089,15.784,82.4,14,Waypoint,
38.5568739,-120.5320814,3760.2955176392,6.233596,0,1.3026083094,6100,2018-06-20 20:56:39,11,0,24.558,3760.2955176392,6.233596,0.447388,1.3026083094,0,0,-0.447388,19.3, -0.9, 1.1,0,0,1024,1024,1024,1024,18.9,-90,98,4.097,4.087,4.068,4.078,4.108,4.089,15.784,82.4,14,Waypoint,
38.5568739,-120.5320815,3760.9516856392,6.889764,0,1.32951447824,6200,2018-06-20 20:56:39,10,0,24.558,3760.9516856392,6.889764,0.447388,1.32951447824,0,0,-0.447388,19.2, -0.7, 1,0,0,1024,1024,1024,1024,18.9,-89.9,98,4.097,4.087,4.068,4.078,4.108,4.089,15.784,82.4,14,Waypoint,
38.5568739,-120.5320815,3761.6078536392,7.545932,0,1.32951447824,6300,2018-06-20 20:56:39,10,0,24.558,3761.6078536392,7.545932,0.447388,1.32951447824,0,0,-0.447388,19.2, -0.6, 1,0,0,1024,1024,1024,1024,18.9,-89.9,98,4.097,4.087,4.068,4.078,4.108,4.089,15.784,82.4,14,Waypoint,
38.5568739,-120.5320815,3762.2640216392,8.2021,0,1.32951447824,6400,2018-06-20 20:56:39,10,0,24.558,3762.2640216392,8.2021,0.447388,1.32951447824,0,0,-0.447388,19.2, -0.7, 0.9,0,0,1024,1024,1024,1024,18.9,-90,98,4.097,4.087,4.068,4.078,4.108,4.089,15.784,82.4,14,Waypoint,
38.5568738,-120.5320814,3763.2482736392,9.186352,0,1.3153215644,6500,2018-06-20 20:56:39,10,0,24.558,3763.2482736392,9.186352,0.447388,1.32951447824,0,0,-0.671082,19.2, -0.9, 0.8,0,0,1024,1024,1024,1024,18.9,-90,98,4.097,4.087,4.068,4.078,4.108,4.089,15.784,82.4,14,Waypoint,
38.5568736,-120.5320814,3764.2325256392,10.170604,0,1.34335962304,6600,2018-06-20 20:56:39,10,0,24.558,3764.2325256392,10.170604,0.447388,1.34335962304,0,0,-0.671082,19.2, -1.3, 0.4,0,0,1024,1024,1024,1024,18.9,-90,98,4.097,4.087,4.068,4.078,4.108,4.089,15.784,82.4,14,Waypoint,
38.5568736,-120.5320814,3765.2167776392,11.154856,0,1.34335962304,6800,2018-06-20 20:56:40,10,0,24.558,3765.2167776392,11.154856,0.447388,1.34335962304,0,0,-0.671082,19.3, -1.7, 0.3,0,0,1024,1024,1024,1024,18.9,-90,98,4.097,4.087,4.068,4.078,4.108,4.089,15.784,82.4,14,Waypoint,
38.5568735,-120.5320815,3766.2010296392,12.139108,0,1.3844488632,6900,2018-06-20 20:56:40,9,0,24.558,3766.2010296392,12.139108,0.447388,1.3844488632,0,0,-0.671082,19.4, -1.8, 0.3,0,0,1024,1024,1024,1024,18.9,-90,98,4.097,4.087,4.068,4.078,4.108,4.089,15.784,82.4,14,Waypoint,
38.5568734,-120.5320814,3767.5133656392,13.451444,0,1.37470148756,7000,2018-06-20 20:56:40,9,0,24.633,3767.5133656392,13.451444,0.447388,1.3844488632,0,0,-0.671082,19.5, -2, 0.3,0,0,1024,1024,1024,1024,18.9,-90,98,4.114,4.069,4.048,4.137,4.108,4.105,15.249,82.4,14,Waypoint,
38.5568734,-120.5320814,3768.4976176392,14.435696,0,1.37470148756,7100,2018-06-20 20:56:40,10,0,24.633,3768.4976176392,14.435696,0.447388,1.3844488632,0,0,-0.671082,19.6, -2.1, 0,0,0,1024,1024,1024,1024,18.9,-90,98,4.114,4.069,4.048,4.137,4.108,4.105,15.249,82.4,14,Waypoint,
38.5568733,-120.5320813,3769.8099536392,15.748032,0,1.36645673664,7200,2018-06-20 20:56:40,10,0,24.633,3769.8099536392,15.748032,0.447388,1.3844488632,0,0,-0.671082,19.8, -2.1, -0.4,0,0,1024,1024,1024,1024,18.9,-90,98,4.114,4.069,4.048,4.137,4.108,4.105,15.249,82.4,14,Waypoint,
38.5568732,-120.5320812,3770.7942056392,16.732284,0,1.35974085716,7300,2018-06-20 20:56:40,10,0,24.633,3770.7942056392,16.732284,0.447388,1.3844488632,0,0,-0.671082,19.8, -2.2, -0.7,0,0,1024,1024,1024,1024,18.8,-90,98,4.114,4.069,4.048,4.137,4.108,4.105,15.249,82.4,14,Waypoint,
38.5568731,-120.532081,3771.7784576392,17.716536,0,1.330626683,7400,2018-06-20 20:56:40,10,0,24.633,3771.7784576392,17.716536,0.447388,1.3844488632,0,0,-0.671082,19.8, -1.9, -0.7,0,0,1024,1024,1024,1024,18.9,-90,98,4.114,4.069,4.048,4.137,4.108,4.105,15.249,82.4,14,Waypoint,
38.556873,-120.5320808,3773.0907936392,19.028872,0,1.30438324384,7500,2018-06-20 20:56:40,10,0,24.633,3773.0907936392,19.028872,0.447388,1.3844488632,0,0,-0.671082,19.8, -1.7, -0.8,0,0,1024,1024,1024,1024,18.9,-90,98,4.114,4.069,4.048,4.137,4.108,4.105,15.249,82.4,14,Waypoint,
38.5568729,-120.5320808,3774.0750456392,20.013124,0,1.32614177472,7600,2018-06-20 20:56:40,10,0,24.633,3774.0750456392,20.013124,0.447388,1.3844488632,0,0,-0.671082,19.9, -1.7, -1,0,0,1024,1024,1024,1024,18.9,-90,98,4.114,4.069,4.048,4.137,4.108,4.105,15.249,82.4,14,Waypoint,
38.5568728,-120.5320807,3776.3716336392,22.309712,0,1.32632550176,7700,2018-06-20 20:56:40,11,0,24.633,3776.3716336392,22.309712,0.447388,1.3844488632,0,0,-0.671082,19.7, -1.9, -0.9,0,0,1024,1024,1024,1024,18.8,-90,98,4.114,4.069,4.048,4.137,4.108,4.105,15.249,82.4,14,Waypoint,
38.5568728,-120.5320807,3778.3401376392,24.278216,0,1.32632550176,7900,2018-06-20 20:56:41,11,0,24.633,3778.3401376392,24.278216,0.447388,1.3844488632,0,0,-0.671082,19.5, -1.5, -0.5,0,0,1024,1024,1024,1024,18.9,-90,98,4.114,4.069,4.048,4.137,4.108,4.105,15.249,82.4,14,Waypoint,
38.5568728,-120.5320806,3779.6524736392,25.590552,0,1.30435371628,8000,2018-06-20 20:56:41,10,0,23.946,3779.6524736392,25.590552,0.447388,1.3844488632,0,0,-0.671082,19.4, -1.4, -0.3,0,0,1024,1024,1024,1024,18.9,-90,98,4,3.955,3.958,3.958,4.005,3.977,22.542,82.4,14,Waypoint,
38.5568728,-120.5320807,3780.6367256392,26.574804,0,1.32632550176,8100,2018-06-20 20:56:41,10,0,23.946,3780.6367256392,26.574804,0.447388,1.3844488632,0,0,-0.671082,19.3, -1.2, -0.1,0,0,1024,1024,1024,1024,18.9,-89.9,98,4,3.955,3.958,3.958,4.005,3.977,22.542,82.4,14,Waypoint,
38.5568729,-120.5320807,3781.6209776392,27.559056,0,1.30354662964,8200,2018-06-20 20:56:41,10,0,23.946,3781.6209776392,27.559056,0.447388,1.3844488632,0,0,-0.671082,19.3, -1.2, 0.1,0,0,1024,1024,1024,1024,18.9,-90,98,4,3.955,3.958,3.958,4.005,3.977,22.542,82.4,14,Waypoint,
38.5568729,-120.5320808,3782.6052296392,28.543308,0,1.32614177472,8300,2018-06-20 20:56:41,10,0,23.946,3782.6052296392,28.543308,0.447388,1.3844488632,0,0,-0.671082,19.4, -1.4, 0.3,0,0,1024,1024,1024,1024,18.9,-90,98,4,3.955,3.958,3.958,4.005,3.977,22.542,82.4,14,Waypoint,
38.556873,-120.5320808,3783.9175656392,29.855644,0,1.30438324384,8400,2018-06-20 20:56:41,10,0,23.946,3783.9175656392,29.855644,0.447388,1.3844488632,0,0,-0.671082,19.4, -1.4, 0.3,0,0,1024,1024,1024,1024,18.9,-90,98,4,3.955,3.958,3.958,4.005,3.977,22.542,82.4,14,Waypoint,
38.5568731,-120.5320809,3784.9018176392,30.839896,0.223694,1.30686355888,8500,2018-06-20 20:56:41,10,0,23.946,3784.9018176392,30.839896,0.447388,1.3844488632,0,0,-0.671082,19.5, -0.8, 0.4,0,0,1024,1024,1024,1024,18.9,-89.9,98,4,3.955,3.958,3.958,4.005,3.977,22.542,82.4,14,Waypoint,
38.5568732,-120.532081,3785.8860696392,31.824148,0.223694,1.3109744514,8600,2018-06-20 20:56:41,10,0,23.946,3785.8860696392,31.824148,0.447388,1.3844488632,0,0,-0.671082,19.5, 0.2, 0.6,0,0,1024,1024,1024,1024,18.9,-89.9,98,4,3.955,3.958,3.958,4.005,3.977,22.542,82.4,14,Waypoint,
38.5568733,-120.532081,3786.8703216392,32.8084,0,1.29205384712,8700,2018-06-20 20:56:41,10,0,23.946,3786.8703216392,32.8084,0.447388,1.3844488632,0,0,-0.671082,19.4, 0.4, 0.6,0,0,1024,1024,1024,1024,18.9,-89.9,98,4,3.955,3.958,3.958,4.005,3.977,22.542,82.4,14,Waypoint,
38.5568734,-120.532081,3787.8545736392,33.792652,0,1.27389767856,8810,2018-06-20 20:56:42,10,0,23.946,3787.8545736392,33.792652,0.447388,1.3844488632,0,0,-0.671082,19.3, 0, 0.4,0,0,1024,1024,1024,1024,18.9,-89.9,98,4,3.955,3.958,3.958,4.005,3.977,22.542,82.4,14,Waypoint,
38.5568735,-120.532081,3788.8388256392,34.776904,0,1.25653547328,8900,2018-06-20 20:56:42,10,0,23.946,3788.8388256392,34.776904,0.447388,1.3844488632,0,0,-0.671082,19.3, -0.4, 0.4,0,0,1024,1024,1024,1024,18.9,-90,98,4,3.955,3.958,3.958,4.005,3.977,22.542,82.4,14,Waypoint,
38.5568736,-120.5320811,3789.8230776392,35.761156,0,1.26567261268,9100,2018-06-20 20:56:42,10,0,23.946,3789.8230776392,35.761156,0.447388,1.3844488632,0,0,-0.671082,19.2, -0.5, 0.3,0,0,1024,1024,1024,1024,18.9,-89.9,98,4,3.955,3.958,3.958,4.005,3.977,22.542,82.4,14,Waypoint,
38.5568737,-120.5320811,3790.8073296392,36.745408,0,1.250328124,9200,2018-06-20 20:56:42,10,0,23.946,3790.8073296392,36.745408,0.447388,1.3844488632,0,0,-0.671082,19.2, -0.4, 0.3,0,0,1024,1024,1024,1024,18.9,-89.9,98,4,3.955,3.958,3.958,4.005,3.977,22.542,82.4,14,Waypoint,
38.5568737,-120.5320811,3791.7915816392,37.72966,0,1.250328124,9300,2018-06-20 20:56:42,10,0,23.946,3791.7915816392,37.72966,0.447388,1.3844488632,0,0,-0.671082,19.1, -0.2, 0.2,0,0,1024,1024,1024,1024,18.8,-89.9,98,4,3.955,3.958,3.958,4.005,3.977,22.542,82.4,14,Waypoint,
38.5568738,-120.5320812,3792.7758336392,38.713912,0,1.26226710076,9400,2018-06-20 20:56:42,10,0,23.946,3792.7758336392,38.713912,0.447388,1.3844488632,0,0,-0.671082,19.2, -0.2, 0.1,0,0,1024,1024,1024,1024,18.8,-89.9,98,4,3.955,3.958,3.958,4.005,3.977,22.542,82.4,14,Waypoint,
38.5568739,-120.5320812,3793.7600856392,39.698164,0,1.24901250716,9500,2018-06-20 20:56:42,11,0,23.946,3793.7600856392,39.698164,0.447388,1.3844488632,0,0,-0.671082,19.3, 0, 0.2,0,0,1024,1024,1024,1024,18.8,-89.9,98,4,3.955,3.958,3.958,4.005,3.977,22.542,82.4,14,Waypoint,
38.556874,-120.5320812,3794.7443376392,40.682416,0,1.2366962338,9600,2018-06-20 20:56:42,11,0,23.946,3794.7443376392,40.682416,0.447388,1.3844488632,0,0,-0.671082,19.3, 0, 0.3,0,0,1024,1024,1024,1024,18.9,-89.9,98,4,3.955,3.958,3.958,4.005,3.977,22.542,82.4,14,Waypoint,
38.556874,-120.5320812,3795.7285896392,41.666668,0,1.2366962338,9700,2018-06-20 20:56:42,10,0,23.946,3795.7285896392,41.666668,0.447388,1.3844488632,0,0,-0.671082,19.5, 0.1, 0.3,0,0,1024,1024,1024,1024,18.9,-89.9,98,4,3.955,3.958,3.958,4.005,3.977,22.542,82.4,14,Waypoint,
38.5568741,-120.5320812,3796.7128416392,42.65092,0,1.22534124656,9800,2018-06-20 20:56:43,10,0,23.946,3796.7128416392,42.65092,0.447388,1.3844488632,0,0,-0.671082,19.5, 0.3, 0.5,0,0,1024,1024,1024,1024,18.9,-89.9,98,4,3.955,3.958,3.958,4.005,3.977,22.542,82.4,14,Waypoint,
38.5568742,-120.5320812,3798.0251776392,43.963256,0,1.21498035384,9900,2018-06-20 20:56:43,10,0,23.946,3798.0251776392,43.963256,0.447388,1.3844488632,0,0,-0.671082,19.5, 0, 0.4,0,0,1024,1024,1024,1024,18.9,-89.9,98,4,3.955,3.958,3.958,4.005,3.977,22.542,82.4,14,Waypoint,
38.5568743,-120.5320811,3799.9936816392,45.93176,0,1.1779691978,10000,2018-06-20 20:56:43,10,0,24.001,3799.9936816392,45.93176,0.447388,1.3844488632,0,0,-0.671082,19.6, -0.2, 0.1,0,0,1024,1024,1024,1024,18.9,-90,98,4.007,3.991,3.985,3.988,4.021,3.999,19.989,82.4,14,Waypoint,
38.5568744,-120.532081,3800.9779336392,46.916012,0,1.14163717564,10100,2018-06-20 20:56:43,10,0,24.001,3800.9779336392,46.916012,0.447388,1.3844488632,0,0,-0.671082,19.6, -0.1, -0.1,0,0,1024,1024,1024,1024,18.9,-89.9,98,4.007,3.991,3.985,3.988,4.021,3.999,19.989,82.4,14,Waypoint,
38.5568744,-120.532081,3801.9621856392,47.900264,0,1.14163717564,10200,2018-06-20 20:56:43,11,0,24.001,3801.9621856392,47.900264,0.447388,1.3844488632,0,0,-0.671082,19.5, 0.1, -0.3,0,0,1024,1024,1024,1024,18.9,-89.9,98,4.007,3.991,3.985,3.988,4.021,3.999,19.989,82.4,14,Waypoint,
38.5568745,-120.5320809,3802.9464376392,48.884516,0,1.106053185,10300,2018-06-20 20:56:43,11,0,24.001,3802.9464376392,48.884516,0.447388,1.3844488632,0,0,-0.671082,19.4, 0.3, -0.6,0,0,1024,1024,1024,1024,18.9,-89.9,98,4.007,3.991,3.985,3.988,4.021,3.999,19.989,82.4,14,Waypoint,
38.5568745,-120.5320809,3803.9306896392,49.868768,0,1.106053185,10400,2018-06-20 20:56:43,11,0,24.001,3803.9306896392,49.868768,0.447388,1.3844488632,0,0,-0.671082,19.3, 0.4, -0.9,0,0,1024,1024,1024,1024,18.9,-89.9,98,4.007,3.991,3.985,3.988,4.021,3.999,19.989,82.4,14,Waypoint,
38.5568745,-120.5320808,3804.9149416392,50.85302,0,1.0781004282,10500,2018-06-20 20:56:43,11,0,24.001,3804.9149416392,50.85302,0.447388,1.3844488632,0,0,-0.671082,19.3, 0.6, -0.8,0,0,1024,1024,1024,1024,18.9,-89.9,98,4.007,3.991,3.985,3.988,4.021,3.999,19.989,82.4,14,Waypoint,
38.5568745,-120.5320807,3805.8991936392,51.837272,0,1.0501804798,10600,2018-06-20 20:56:43,11,0,24.001,3805.8991936392,51.837272,0.447388,1.3844488632,0,0,-0.671082,19.3, 0.6, -0.9,0,0,1024,1024,1024,1024,18.9,-89.9,98,4.007,3.991,3.985,3.988,4.021,3.999,19.989,82.4,14,Waypoint,
38.5568745,-120.5320807,3806.8834456392,52.821524,0,1.0501804798,10700,2018-06-20 20:56:43,11,0,24.001,3806.8834456392,52.821524,0.447388,1.3844488632,0,0,-0.671082,19.2, 0.5, -1.1,0,0,1024,1024,1024,1024,18.9,-89.9,98,4.007,3.991,3.985,3.988,4.021,3.999,19.989,82.4,14,Waypoint,
38.5568745,-120.5320806,3807.8676976392,53.805776,0,1.0222933398,10800,2018-06-20 20:56:44,12,0,24.001,3807.8676976392,53.805776,0.447388,1.3844488632,0,0,-0.671082,19.2, 0.4, -1.2,0,0,1024,1024,1024,1024,18.9,-89.9,98,4.007,3.991,3.985,3.988,4.021,3.999,19.989,82.4,14,Waypoint,
38.5568745,-120.5320805,3808.5238656392,54.461944,0,0.99444228904,10900,2018-06-20 20:56:44,12,0,24.001,3808.5238656392,54.461944,0.447388,1.3844488632,0,0,-0.671082,19.2, 0.1, -1.3,0,0,1024,1024,1024,1024,18.9,-90,98,4.007,3.991,3.985,3.988,4.021,3.999,19.989,82.4,14,Waypoint,
38.5568745,-120.5320804,3809.5081176392,55.446196,0,0.96663060836,11000,2018-06-20 20:56:44,11,0,23.899,3809.5081176392,55.446196,0.447388,1.3844488632,0,0,-0.671082,19.2, 0, -1.4,0,0,1024,1024,1024,1024,18.9,-90,97,3.998,3.97,3.967,3.967,4.002,3.99,20.888,82.4,14,Waypoint,
38.5568745,-120.5320803,3810.4923696392,56.430448,0,0.93886485944,11100,2018-06-20 20:56:44,11,0,23.899,3810.4923696392,56.430448,0.447388,1.3844488632,0,0,-0.671082,19.2, 0, -1.4,0,0,1024,1024,1024,1024,18.9,-89.9,97,3.998,3.97,3.967,3.967,4.002,3.99,20.888,82.4,14,Waypoint,
38.5568747,-120.5320803,3812.1327896392,58.070868,0,0.92457680124,11300,2018-06-20 20:56:44,12,0,23.899,3812.1327896392,58.070868,0.447388,1.3844488632,0,0,-0.671082,19.4, 0.8, -1.2,0,0,1024,1024,1024,1024,18.9,-89.9,97,3.998,3.97,3.967,3.967,4.002,3.99,20.888,82.4,14,Waypoint,
38.5568749,-120.5320803,3814.1012936392,60.039372,0.223694,0.91589897944,11500,2018-06-20 20:56:44,12,0,23.899,3814.1012936392,60.039372,0.447388,1.3844488632,0,0,-0.671082,19.4, 1.4, 0.1,0,0,1024,1024,1024,1024,18.9,-89.9,97,3.998,3.97,3.967,3.967,4.002,3.99,20.888,82.4,14,Waypoint,
38.556875,-120.5320803,3815.0855456392,61.023624,0.223694,0.91371722084,11700,2018-06-20 20:56:44,12,0,23.899,3815.0855456392,61.023624,0.447388,1.3844488632,0,0,-0.671082,19.5, 1.8, 0.5,0,0,1024,1024,1024,1024,18.9,-89.9,97,3.998,3.97,3.967,3.967,4.002,3.99,20.888,82.4,14,Waypoint,
38.5568751,-120.5320802,3816.0697976392,62.007876,0,0.88445540888,11800,2018-06-20 20:56:45,12,0,23.899,3816.0697976392,62.007876,0.447388,1.3844488632,0,0,-0.671082,19.5, 2.2, 0.8,0,0,1024,1024,1024,1024,18.9,-89.9,97,3.998,3.97,3.967,3.967,4.002,3.99,20.888,82.4,14,Waypoint,
38.5568752,-120.5320801,3817.0540496392,62.992128,0,0.85670278332,11900,2018-06-20 20:56:45,11,0,23.899,3817.0540496392,62.992128,0.447388,1.3844488632,0,0,-0.671082,19.5, 2.3, 0.3,0,0,1024,1024,1024,1024,18.9,-89.9,97,3.998,3.97,3.967,3.967,4.002,3.99,20.888,82.4,14,Waypoint,
38.5568752,-120.5320801,3818.0383016392,63.97638,0,0.85670278332,12000,2018-06-20 20:56:45,11,0,23.907,3818.0383016392,63.97638,0.447388,1.3844488632,0,0,-0.671082,19.4, 2.2, -0.2,0,0,1024,1024,1024,1024,18.9,-89.9,97,3.998,3.97,3.967,3.967,4.002,3.99,20.07,82.4,14,Waypoint,
38.5568753,-120.5320801,3819.0225536392,64.960632,0,0.85902889888,12100,2018-06-20 20:56:45,11,0,23.907,3819.0225536392,64.960632,0.447388,1.3844488632,0,0,-0.671082,19.3, 2.1, -0.5,0,0,1024,1024,1024,1024,18.9,-89.9,97,3.998,3.97,3.967,3.967,4.002,3.99,20.07,82.4,14,Waypoint,
38.5568753,-120.53208,3820.0068056392,65.944884,0,0.83060698196,12200,2018-06-20 20:56:45,11,0,23.907,3820.0068056392,65.944884,0.447388,1.3844488632,0,0,-0.671082,19.2, 2.1, -0.6,0,0,1024,1024,1024,1024,18.9,-90,97,3.998,3.97,3.967,3.967,4.002,3.99,20.07,82.4,14,Waypoint,
38.5568753,-120.53208,3820.9910576392,66.929136,0,0.83060698196,12300,2018-06-20 20:56:45,12,0,23.907,3820.9910576392,66.929136,0.447388,1.3844488632,0,0,-0.671082,19.2, 1.9, -0.5,0,0,1024,1024,1024,1024,18.9,-90,97,3.998,3.97,3.967,3.967,4.002,3.99,20.07,82.4,14,Waypoint,
38.5568754,-120.53208,3822.9595616392,68.89764,0,0.83460304508,12400,2018-06-20 20:56:45,12,0,23.907,3822.9595616392,68.89764,0.447388,1.3844488632,0,0,-0.671082,19.3, 1.9, -0.6,0,0,1024,1024,1024,1024,18.9,-89.9,97,3.998,3.97,3.967,3.967,4.002,3.99,20.07,82.4,14,Waypoint,
38.5568754,-120.53208,3824.2718976392,70.209976,0,0.83460304508,12500,2018-06-20 20:56:45,12,0,23.907,3824.2718976392,70.209976,0.447388,1.3844488632,0,0,-0.671082,19.3, 1.8, -0.7,0,0,1024,1024,1024,1024,18.9,-89.9,97,3.998,3.97,3.967,3.967,4.002,3.99,20.07,82.4,14,Waypoint,
38.5568754,-120.5320799,3825.2561496392,71.194228,0,0.80632876596,12600,2018-06-20 20:56:45,12,0,23.907,3825.2561496392,71.194228,0.447388,1.3844488632,0,0,-0.671082,19.3, 1.5, -0.8,0,0,1024,1024,1024,1024,18.8,-90,97,3.998,3.97,3.967,3.967,4.002,3.99,20.07,82.4,14,Waypoint,
38.5568754,-120.5320799,3826.2404016392,72.17848,0,0.80632876596,12700,2018-06-20 20:56:45,12,0,23.907,3826.2404016392,72.17848,0.447388,1.3844488632,0,0,-0.671082,19.4, 1.2, -1.1,0,0,1024,1024,1024,1024,18.9,-90,97,3.998,3.97,3.967,3.967,4.002,3.99,20.07,82.4,14,Waypoint,
38.5568753,-120.5320799,3827.2246536392,73.162732,0,0.80218834588,12800,2018-06-20 20:56:46,12,0,23.907,3827.2246536392,73.162732,0.447388,1.3844488632,0,0,-0.671082,19.5, 1, -1.4,0,0,1024,1024,1024,1024,18.9,-90,97,3.998,3.97,3.967,3.967,4.002,3.99,20.07,82.4,14,Waypoint,
38.5568753,-120.5320798,3828.2089056392,74.146984,0,0.77378283316,12900,2018-06-20 20:56:46,12,0,23.907,3828.2089056392,74.146984,0.447388,1.3844488632,0,0,-0.671082,19.5, 0.9, -1.5,0,0,1024,1024,1024,1024,18.9,-90,97,3.998,3.97,3.967,3.967,4.002,3.99,20.07,82.4,14,Waypoint,
38.5568752,-120.5320797,3830.1774096392,76.115488,0,0.742700155,13100,2018-06-20 20:56:46,14,0,23.907,3830.1774096392,76.115488,0.447388,1.3844488632,0,0,-0.671082,19.6, 1.2, -1.3,0,0,1024,1024,1024,1024,18.9,-89.9,97,3.998,3.97,3.967,3.967,4.002,3.99,20.07,82.4,14,Waypoint,
38.5568752,-120.5320797,3832.1459136392,78.083992,0,0.742700155,13300,2018-06-20 20:56:46,14,0,23.907,3832.1459136392,78.083992,0.447388,1.3844488632,0,0,-0.671082,19.6, 1.3, -0.9,0,0,1024,1024,1024,1024,18.9,-89.9,97,3.998,3.97,3.967,3.967,4.002,3.99,20.07,82.4,14,Waypoint,
38.5568752,-120.5320797,3833.1301656392,79.068244,0,0.742700155,13400,2018-06-20 20:56:46,14,0,23.907,3833.1301656392,79.068244,0.447388,1.3844488632,0,0,-0.671082,19.7, 1.4, -0.6,0,0,1024,1024,1024,1024,18.9,-89.9,97,3.998,3.97,3.967,3.967,4.002,3.99,20.07,82.4,14,Waypoint,
38.5568751,-120.5320797,3834.1144176392,80.052496,0,0.74180120484,13500,2018-06-20 20:56:46,14,0,23.907,3834.1144176392,80.052496,0.447388,1.3844488632,0,0,-0.671082,19.7, 1.4, -0.7,0,0,1024,1024,1024,1024,18.9,-89.9,97,3.998,3.97,3.967,3.967,4.002,3.99,20.07,82.4,14,Waypoint,
38.5568751,-120.5320797,3835.0986696392,81.036748,0,0.74180120484,13600,2018-06-20 20:56:46,14,0,23.907,3835.0986696392,81.036748,0.447388,1.3844488632,0,0,-0.671082,19.6, 1.1, -1.2,0,0,1024,1024,1024,1024,18.9,-90,97,3.998,3.97,3.967,3.967,4.002,3.99,20.07,82.4,14,Waypoint,
38.5568751,-120.5320797,3836.0829216392,82.021,0,0.74180120484,13700,2018-06-20 20:56:46,14,0,23.907,3836.0829216392,82.021,0.447388,1.3844488632,0,0,-0.671082,19.5, 0.7, -1.1,0,0,1024,1024,1024,1024,18.9,-90,97,3.998,3.97,3.967,3.967,4.002,3.99,20.07,82.4,14,Waypoint,
38.5568751,-120.5320797,3837.3952576392,83.333336,0,0.74180120484,13900,2018-06-20 20:56:47,14,0,23.907,3837.3952576392,83.333336,0.447388,1.3844488632,0,0,-0.671082,19.3, 0.9, -1,0,0,1024,1024,1024,1024,18.9,-89.9,97,3.998,3.97,3.967,3.967,4.002,3.99,20.07,82.4,14,Waypoint,
38.5568751,-120.5320797,3838.3795096392,84.317588,0,0.74180120484,14000,2018-06-20 20:56:47,14,0,23.816,3838.3795096392,84.317588,0.447388,1.3844488632,0,0,-0.671082,19.2, 1.2, -0.8,0,0,1024,1024,1024,1024,18.9,-89.9,97,3.976,3.962,3.948,3.955,3.994,3.977,21.547,82.4,14,Waypoint,
38.5568751,-120.5320797,3839.3637616392,85.30184,0,0.74180120484,14100,2018-06-20 20:56:47,14,0,23.816,3839.3637616392,85.30184,0.447388,1.3844488632,0,0,-0.671082,19.2, 1.4, -0.7,0,0,1024,1024,1024,1024,18.8,-89.9,97,3.976,3.962,3.948,3.955,3.994,3.977,21.547,82.4,14,Waypoint,
38.5568751,-120.5320797,3840.3480136392,86.286092,0,0.74180120484,14200,2018-06-20 20:56:47,14,0,23.816,3840.3480136392,86.286092,0.447388,1.3844488632,0,0,-0.671082,19.2, 1.8, -0.8,0,0,1024,1024,1024,1024,18.9,-89.9,97,3.976,3.962,3.948,3.955,3.994,3.977,21.547,82.4,14,Waypoint,
38.556875,-120.5320797,3841.3322656392,87.270344,0,0.742700155,14300,2018-06-20 20:56:47,14,0,23.816,3841.3322656392,87.270344,0.447388,1.3844488632,0,0,-0.671082,19.3, 1.7, -0.8,0,0,1024,1024,1024,1024,18.9,-89.9,97,3.976,3.962,3.948,3.955,3.994,3.977,21.547,82.4,14,Waypoint,
38.556875,-120.5320797,3842.3165176392,88.254596,0,0.742700155,14400,2018-06-20 20:56:47,14,0,23.816,3842.3165176392,88.254596,0.447388,1.3844488632,0,0,-0.671082,19.2, 1.8, -0.8,0,0,1024,1024,1024,1024,18.9,-89.9,97,3.976,3.962,3.948,3.955,3.994,3.977,21.547,82.4,14,Waypoint,
38.556875,-120.5320796,3843.3007696392,89.238848,0,0.71420277876,14500,2018-06-20 20:56:47,14,0,23.816,3843.3007696392,89.238848,0.447388,1.3844488632,0,0,-0.671082,19.1, 1.9, -1,0,0,1024,1024,1024,1024,18.9,-89.9,97,3.976,3.962,3.948,3.955,3.994,3.977,21.547,82.4,14,Waypoint,
38.556875,-120.5320794,3845.2692736392,91.207352,0,0.65722443048,14600,2018-06-20 20:56:47,14,0,23.816,3845.2692736392,91.207352,0.447388,1.3844488632,0,0,-0.671082,19.2, 1.8, -2,0,0,1024,1024,1024,1024,18.9,-90,97,3.976,3.962,3.948,3.955,3.994,3.977,21.547,82.4,14,Waypoint,
38.556875,-120.5320794,3846.5816096392,92.519688,0,0.65722443048,14700,2018-06-20 20:56:47,14,0,23.816,3846.5816096392,92.519688,0.447388,1.3844488632,0,0,-0.671082,19.3, 1.8, -2.1,0,0,1024,1024,1024,1024,18.9,-89.9,97,3.976,3.962,3.948,3.955,3.994,3.977,21.547,82.4,14,Waypoint,
38.556875,-120.5320792,3848.5501136392,94.488192,0,0.60025920556,14900,2018-06-20 20:56:48,14,0,23.816,3848.5501136392,94.488192,0.447388,1.3844488632,0,0,-0.671082,19.5, 1.9, -2.2,0,0,1024,1024,1024,1024,18.9,-89.9,97,3.976,3.962,3.948,3.955,3.994,3.977,21.547,82.4,14,Waypoint,
38.556875,-120.532079,3850.1905336392,96.128612,0,0.54331366568,15100,2018-06-20 20:56:48,14,0,23.816,3850.1905336392,96.128612,0.447388,1.3844488632,0,0,-0.671082,19.5, 2.3, -2.3,0,0,1024,1024,1024,1024,18.9,-89.9,97,3.976,3.962,3.948,3.955,3.994,3.977,21.547,82.4,14,Waypoint,
38.5568749,-120.5320789,3851.1747856392,97.112864,0.223694,0.51871392736,15200,2018-06-20 20:56:48,14,0,23.816,3851.1747856392,97.112864,0.447388,1.3844488632,0,0,-0.671082,19.4, 2.3, -2.4,0,0,1024,1024,1024,1024,18.9,-89.9,97,3.976,3.962,3.948,3.955,3.994,3.977,21.547,82.4,14,Waypoint,
38.5568749,-120.5320788,3852.1590376392,98.097116,0.223694,0.49048229916,15300,2018-06-20 20:56:48,14,0,23.816,3852.1590376392,98.097116,0.447388,1.3844488632,0,0,-0.671082,19.4, 2.4, -2.7,0,0,1024,1024,1024,1024,18.9,-89.9,97,3.976,3.962,3.948,3.955,3.994,3.977,21.547,82.4,14,Waypoint,
38.5568749,-120.5320787,3853.1432896392,99.081368,0.223694,0.46229004104,15400,2018-06-20 20:56:48,14,0,23.816,3853.1432896392,99.081368,0.447388,1.3844488632,0,0,-0.671082,19.4, 2.7, -3.1,0,0,1024,1024,1024,1024,18.9,-89.9,97,3.976,3.962,3.948,3.955,3.994,3.977,21.547,82.4,14,Waypoint,
38.5568749,-120.5320786,3854.1275416392,100.06562,0.223694,0.43414043384,15500,2018-06-20 20:56:48,14,0,23.816,3854.1275416392,100.06562,0.447388,1.3844488632,0,0,-0.671082,19.3, 3, -3.3,0,0,1024,1024,1024,1024,18.9,-89.9,97,3.976,3.962,3.948,3.955,3.994,3.977,21.547,82.4,14,Waypoint,
38.5568749,-120.5320785,3855.1117936392,101.049872,0.223694,0.40604332008,15600,2018-06-20 20:56:48,14,0,23.816,3855.1117936392,101.049872,0.447388,1.3844488632,0,0,-0.671082,19.2, 3.2, -3.5,0,0,1024,1024,1024,1024,18.9,-89.9,97,3.976,3.962,3.948,3.955,3.994,3.977,21.547,82.4,14,Waypoint,
38.5568749,-120.5320784,3856.0960456392,102.034124,0,0.37801182312,15700,2018-06-20 20:56:48,14,0,23.816,3856.0960456392,102.034124,0.447388,1.3844488632,0,0,-0.671082,19.1, 3, -3.5,0,0,1024,1024,1024,1024,18.9,-89.9,97,3.976,3.962,3.948,3.955,3.994,3.977,21.547,82.4,14,Waypoint,
38.5568749,-120.5320783,3857.0802976392,103.018376,0,0.35005906632,15800,2018-06-20 20:56:49,14,0,23.816,3857.0802976392,103.018376,0.447388,1.3844488632,0,0,-0.671082,19.1, 3, -3.5,0,0,1024,1024,1024,1024,18.8,-89.9,97,3.976,3.962,3.948,3.955,3.994,3.977,21.547,82.4,14,Waypoint,
38.5568749,-120.5320782,3858.0645496392,104.002628,0,0.322210640232,15900,2018-06-20 20:56:49,14,0,23.816,3858.0645496392,104.002628,0.447388,1.3844488632,0,0,-0.671082,19.1, 3.1, -3.5,0,0,1024,1024,1024,1024,18.9,-89.9,97,3.976,3.962,3.948,3.955,3.994,3.977,21.547,82.4,14,Waypoint,
38.5568749,-120.532078,3860.0330536392,105.971132,0,0.266944562348,16100,2018-06-20 20:56:49,14,0,23.816,3860.0330536392,105.971132,0.447388,1.3844488632,0,0,-0.671082,19.2, 3, -3.4,0,0,1024,1024,1024,1024,18.9,-90,97,3.976,3.962,3.948,3.955,3.994,3.977,21.547,82.4,14,Waypoint,
38.5568749,-120.532078,3861.0173056392,106.955384,0,0.266944562348,16300,2018-06-20 20:56:49,14,0,23.816,3861.0173056392,106.955384,0.447388,1.3844488632,0,0,-0.671082,19.2, 3.1, -3.5,0,0,1024,1024,1024,1024,18.9,-89.9,97,3.976,3.962,3.948,3.955,3.994,3.977,21.547,82.4,14,Waypoint,
38.5568749,-120.5320779,3862.0015576392,107.939636,0,0.239627304256,16400,2018-06-20 20:56:49,14,0,23.816,3862.0015576392,107.939636,0.447388,1.3844488632,0,0,-0.671082,19.2, 3.2, -3.6,0,0,1024,1024,1024,1024,18.8,-89.9,97,3.976,3.962,3.948,3.955,3.994,3.977,21.547,82.4,14,Waypoint,
38.5568749,-120.5320779,3862.9858096392,108.923888,0,0.239627304256,16500,2018-06-20 20:56:49,14,0,23.816,3862.9858096392,108.923888,0.447388,1.3844488632,0,0,-0.671082,19.2, 3.1, -3.6,0,0,1024,1024,1024,1024,18.9,-89.9,97,3.976,3.962,3.948,3.955,3.994,3.977,21.547,82.4,14,Waypoint,
38.5568749,-120.5320779,3863.6419776392,109.580056,0,0.239627304256,16600,2018-06-20 20:56:49,14,0,23.816,3863.6419776392,109.580056,0.447388,1.3844488632,0,0,-0.671082,19.2, 3, -3.4,0,0,1024,1024,1024,1024,18.9,-89.9,97,3.976,3.962,3.948,3.955,3.994,3.977,21.547,82.4,14,Waypoint,
38.5568748,-120.5320779,3864.6262296392,110.564308,0,0.253134194452,16700,2018-06-20 20:56:49,14,0,23.816,3864.6262296392,110.564308,0.447388,1.3844488632,0,0,-0.671082,19.2, 2.9, -3.4,0,0,1024,1024,1024,1024,18.9,-89.9,97,3.976,3.962,3.948,3.955,3.994,3.977,21.547,82.4,14,Waypoint,
38.5568749,-120.5320779,3865.6104816392,111.54856,0,0.239627304256,16800,2018-06-20 20:56:50,14,0,23.816,3865.6104816392,111.54856,0.447388,1.3844488632,0,0,-0.671082,19.1, 3, -3.4,0,0,1024,1024,1024,1024,18.9,-89.9,97,3.976,3.962,3.948,3.955,3.994,3.977,21.547,82.4,14,Waypoint,
38.5568749,-120.5320778,3866.5947336392,112.532812,0,0.212628943812,16900,2018-06-20 20:56:50,14,0,23.816,3866.5947336392,112.532812,0.447388,1.3844488632,0,0,-0.671082,19, 3, -3.5,0,0,1024,1024,1024,1024,18.9,-89.9,97,3.976,3.962,3.948,3.955,3.994,3.977,21.547,82.4,14,Waypoint,
38.5568749,-120.5320778,3867.5789856392,113.517064,0,0.212628943812,17000,2018-06-20 20:56:50,14,0,23.751,3867.5789856392,113.517064,0.447388,1.3844488632,0,0,-0.671082,19, 3.1, -3.8,0,0,1024,1024,1024,1024,18.9,-90,97,3.949,3.939,3.92,3.931,3.963,3.953,20.859,82.4,14,Waypoint,
38.5568748,-120.5320777,3869.5474896392,115.485568,0,0.203186358208,17100,2018-06-20 20:56:50,14,0,23.751,3869.5474896392,115.485568,0.447388,1.3844488632,0,0,-0.671082,19.2, 3, -4.2,0,0,1024,1024,1024,1024,18.9,-89.9,97,3.949,3.939,3.92,3.931,3.963,3.953,20.859,82.4,14,Waypoint,
38.5568748,-120.5320777,3870.5317416392,116.46982,0,0.203186358208,17200,2018-06-20 20:56:50,14,0,23.751,3870.5317416392,116.46982,0.447388,1.3844488632,0,0,-0.671082,19.4, 2.9, -4.1,0,0,1024,1024,1024,1024,18.9,-90,97,3.949,3.939,3.92,3.931,3.963,3.953,20.859,82.4,14,Waypoint,
38.5568748,-120.5320777,3871.1879096392,117.125988,0,0.203186358208,17300,2018-06-20 20:56:50,14,0,23.751,3871.1879096392,117.125988,0.447388,1.3844488632,0,0,-0.671082,19.5, 2.8, -4,0,0,1024,1024,1024,1024,18.9,-89.9,97,3.949,3.939,3.92,3.931,3.963,3.953,20.859,82.4,14,Waypoint,
38.5568748,-120.5320777,3872.1721616392,118.11024,0,0.203186358208,17400,2018-06-20 20:56:50,14,0,23.751,3872.1721616392,118.11024,0.447388,1.3844488632,0,0,-0.671082,19.5, 2.7, -3.9,0,0,1024,1024,1024,1024,18.8,-90,97,3.949,3.939,3.92,3.931,3.963,3.953,20.859,82.4,14,Waypoint,
38.5568748,-120.5320777,3873.1564136392,119.094492,0,0.203186358208,17500,2018-06-20 20:56:50,14,0,23.751,3873.1564136392,119.094492,0.447388,1.3844488632,0,0,-0.671082,19.6, 2.7, -3.7,0,0,1024,1024,1024,1024,18.9,-90,97,3.949,3.939,3.92,3.931,3.963,3.953,20.859,82.4,14,Waypoint,
38.5568748,-120.5320777,3874.1406656392,120.078744,0,0.203186358208,17600,2018-06-20 20:56:50,14,0,23.751,3874.1406656392,120.078744,0.447388,1.3844488632,0,0,-0.671082,19.6, 2.8, -3.6,0,0,1024,1024,1024,1024,18.9,-90,97,3.949,3.939,3.92,3.931,3.963,3.953,20.859,82.4,14,Waypoint,
38.5568748,-120.5320778,3875.4530016392,121.39108,0,0.22774278944,17700,2018-06-20 20:56:50,14,0,23.751,3875.4530016392,121.39108,0.447388,1.3844488632,0,0,-0.671082,19.5, 2.8, -3.5,0,0,1024,1024,1024,1024,18.8,-90,97,3.949,3.939,3.92,3.931,3.963,3.953,20.859,82.4,14,Waypoint,
38.5568748,-120.5320779,3876.4372536392,122.375332,0,0.253134194452,17800,2018-06-20 20:56:51,14,0,23.751,3876.4372536392,122.375332,0.447388,1.3844488632,0,0,-0.671082,19.4, 2.8, -3.3,0,0,1024,1024,1024,1024,18.9,-89.9,97,3.949,3.939,3.92,3.931,3.963,3.953,20.859,82.4,14,Waypoint,
38.5568749,-120.532078,3877.4215056392,123.359584,0,0.266944562348,17900,2018-06-20 20:56:51,14,0,23.751,3877.4215056392,123.359584,0.447388,1.3844488632,0,0,-0.671082,19.4, 2.7, -3,0,0,1024,1024,1024,1024,18.9,-89.9,97,3.949,3.939,3.92,3.931,3.963,3.953,20.859,82.4,14,Waypoint,
38.5568749,-120.5320781,3878.4057576392,124.343836,0,0.294492135408,18000,2018-06-20 20:56:51,14,0,23.617,3878.4057576392,124.343836,0.447388,1.3844488632,0,0,-0.671082,19.4, 2.8, -2.8,0,0,1024,1024,1024,1024,18.9,-89.9,97,3.94,3.917,3.92,3.924,3.964,3.939,21.962,82.4,14,Waypoint,
38.556875,-120.5320781,3879.0619256392,125.000004,0,0.287631898968,18100,2018-06-20 20:56:51,14,0,23.617,3879.0619256392,125.000004,0.447388,1.3844488632,0,0,-0.671082,19.5, 3.1, -2.3,0,0,1024,1024,1024,1024,18.9,-89.9,97,3.94,3.917,3.92,3.924,3.964,3.939,21.962,82.4,14,Waypoint,
38.556875,-120.5320782,3880.0461776392,125.984256,0,0.3159530941,18200,2018-06-20 20:56:51,15,0,23.617,3880.0461776392,125.984256,0.447388,1.3844488632,0,0,-0.671082,19.5, 3.3, -2.3,0,0,1024,1024,1024,1024,18.9,-89.9,97,3.94,3.917,3.92,3.924,3.964,3.939,21.962,82.4,14,Waypoint,
38.556875,-120.5320782,3881.0304296392,126.968508,0,0.3159530941,18300,2018-06-20 20:56:51,15,0,23.617,3881.0304296392,126.968508,0.447388,1.3844488632,0,0,-0.671082,19.5, 3.3, -2.7,0,0,1024,1024,1024,1024,18.9,-89.9,97,3.94,3.917,3.92,3.924,3.964,3.939,21.962,82.4,14,Waypoint,
38.556875,-120.5320782,3882.0146816392,127.95276,0,0.3159530941,18500,2018-06-20 20:56:51,15,0,23.617,3882.0146816392,127.95276,0.447388,1.3844488632,0,0,-0.671082,19.5, 3.1, -3,0,0,1024,1024,1024,1024,18.9,-90,97,3.94,3.917,3.92,3.924,3.964,3.939,21.962,82.4,14,Waypoint,
38.556875,-120.5320782,3882.9989336392,128.937012,0,0.3159530941,18600,2018-06-20 20:56:51,15,0,23.617,3882.9989336392,128.937012,0.447388,1.3844488632,0,0,-0.671082,19.4, 2.9, -3.2,0,0,1024,1024,1024,1024,18.9,-90,97,3.94,3.917,3.92,3.924,3.964,3.939,21.962,82.4,14,Waypoint,
38.5568749,-120.5320783,3883.9831856392,129.921264,0,0.35005906632,18700,2018-06-20 20:56:51,15,0,23.617,3883.9831856392,129.921264,0.447388,1.3844488632,0,0,-0.671082,19.4, 2.8, -3.3,0,0,1024,1024,1024,1024,18.9,-90,97,3.94,3.917,3.92,3.924,3.964,3.939,21.962,82.4,14,Waypoint,
38.5568749,-120.5320783,3884.9674376392,130.905516,0,0.35005906632,18800,2018-06-20 20:56:52,15,0,23.617,3884.9674376392,130.905516,0.447388,1.3844488632,0,0,-0.671082,19.3, 2.6, -3.2,0,0,1024,1024,1024,1024,18.9,-89.9,97,3.94,3.917,3.92,3.924,3.964,3.939,21.962,82.4,14,Waypoint,
38.5568749,-120.5320784,3886.2797736392,132.217852,0,0.37801182312,18900,2018-06-20 20:56:52,15,0,23.617,3886.2797736392,132.217852,0.447388,1.3844488632,0,0,-0.671082,19.3, 2.7, -3,0,0,1024,1024,1024,1024,18.9,-89.9,97,3.94,3.917,3.92,3.924,3.964,3.939,21.962,82.4,14,Waypoint,
38.5568749,-120.5320786,3887.2640256392,133.202104,0,0.43414043384,19000,2018-06-20 20:56:52,15,0,23.515,3887.2640256392,133.202104,0.447388,1.3844488632,0,0,-0.671082,19.3, 2.7, -2.8,0,0,1024,1024,1024,1024,18.9,-89.9,97,3.922,3.905,3.898,3.897,3.948,3.917,22.954,82.4,14,Waypoint,
38.5568749,-120.5320787,3888.2482776392,134.186356,0,0.46229004104,19100,2018-06-20 20:56:52,15,0,23.515,3888.2482776392,134.186356,0.447388,1.3844488632,0,0,-0.671082,19.3, 2.8, -2.6,0,0,1024,1024,1024,1024,18.9,-90,97,3.922,3.905,3.898,3.897,3.948,3.917,22.954,82.4,14,Waypoint,
38.5568749,-120.5320787,3889.2325296392,135.170608,0,0.46229004104,19200,2018-06-20 20:56:52,15,0,23.515,3889.2325296392,135.170608,0.447388,1.3844488632,0,0,-0.671082,19.3, 2.6, -2.5,0,0,1024,1024,1024,1024,18.8,-90,97,3.922,3.905,3.898,3.897,3.948,3.917,22.954,82.4,14,Waypoint,
38.5568749,-120.5320788,3890.2167816392,136.15486,0,0.49048229916,19300,2018-06-20 20:56:52,15,0,23.515,3890.2167816392,136.15486,0.447388,1.3844488632,0,0,-0.671082,19.3, 2.7, -2.5,0,0,1024,1024,1024,1024,18.9,-90,97,3.922,3.905,3.898,3.897,3.948,3.917,22.954,82.4,14,Waypoint,
38.5568749,-120.5320788,3891.2010336392,137.139112,0,0.49048229916,19400,2018-06-20 20:56:52,15,0,23.515,3891.2010336392,137.139112,0.447388,1.3844488632,0,0,-0.671082,19.3, 2.6, -2.7,0,0,1024,1024,1024,1024,18.9,-89.9,97,3.922,3.905,3.898,3.897,3.948,3.917,22.954,82.4,14,Waypoint,
38.5568749,-120.5320788,3893.4976216392,139.4357,0,0.49048229916,19500,2018-06-20 20:56:52,15,0,23.515,3893.4976216392,139.4357,0.447388,1.3844488632,0,0,-0.671082,19.4, 2.8, -2.5,0,0,1024,1024,1024,1024,18.9,-89.9,97,3.922,3.905,3.898,3.897,3.948,3.917,22.954,82.4,14,Waypoint,
38.5568749,-120.5320788,3894.4818736392,140.419952,0,0.49048229916,19600,2018-06-20 20:56:52,15,0,23.515,3894.4818736392,140.419952,0.447388,1.3844488632,0,0,-0.671082,19.5, 2.9, -2.8,0,0,1024,1024,1024,1024,18.9,-89.9,97,3.922,3.905,3.898,3.897,3.948,3.917,22.954,82.4,14,Waypoint,
38.5568749,-120.5320789,3895.4661256392,141.404204,0,0.51871392736,19700,2018-06-20 20:56:52,15,0,23.515,3895.4661256392,141.404204,0.447388,1.3844488632,0,0,-0.671082,19.5, 2.9, -3,0,0,1024,1024,1024,1024,18.9,-90,97,3.922,3.905,3.898,3.897,3.948,3.917,22.954,82.4,14,Waypoint,
38.5568749,-120.5320789,3896.4503776392,142.388456,0,0.51871392736,19800,2018-06-20 20:56:53,15,0,23.515,3896.4503776392,142.388456,0.447388,1.3844488632,0,0,-0.671082,19.5, 2.9, -3,0,0,1024,1024,1024,1024,18.9,-89.9,97,3.922,3.905,3.898,3.897,3.948,3.917,22.954,82.4,14,Waypoint,
38.5568749,-120.5320789,3897.4346296392,143.372708,0,0.51871392736,19900,2018-06-20 20:56:53,15,0,23.515,3897.4346296392,143.372708,0.447388,1.3844488632,0,0,-0.671082,19.5, 2.8, -2.9,0,0,1024,1024,1024,1024,18.8,-89.9,97,3.922,3.905,3.898,3.897,3.948,3.917,22.954,82.4,14,Waypoint,
38.5568749,-120.5320789,3898.4188816392,144.35696,0,0.51871392736,20000,2018-06-20 20:56:53,15,0,23.5,3898.4188816392,144.35696,0.447388,1.3844488632,0,0,-0.671082,19.4, 2.8, -3.1,0,0,1024,1024,1024,1024,18.9,-90,96,3.922,3.905,3.898,3.897,3.948,3.917,22.538,82.4,14,Waypoint,
38.5568749,-120.532079,3899.4031336392,145.341212,0,0.54697508312,20100,2018-06-20 20:56:53,15,0,23.5,3899.4031336392,145.341212,0.447388,1.3844488632,0,0,-0.671082,19.3, 2.7, -3.1,0,0,1024,1024,1024,1024,18.9,-90,96,3.922,3.905,3.898,3.897,3.948,3.917,22.538,82.4,14,Waypoint,
38.5568748,-120.532079,3900.3873856392,146.325464,0,0.55302495208,20200,2018-06-20 20:56:53,15,0,23.5,3900.3873856392,146.325464,0.447388,1.3844488632,0,0,-0.671082,19.2, 2.5, -3,0,0,1024,1024,1024,1024,18.9,-90,96,3.922,3.905,3.898,3.897,3.948,3.917,22.538,82.4,14,Waypoint,
38.5568748,-120.5320791,3901.3716376392,147.309716,0,0.5810203598,20300,2018-06-20 20:56:53,15,0,23.5,3901.3716376392,147.309716,0.447388,1.3844488632,0,0,-0.671082,19.2, 2.4, -3.1,0,0,1024,1024,1024,1024,18.9,-90,96,3.922,3.905,3.898,3.897,3.948,3.917,22.538,82.4,14,Waypoint,
38.5568748,-120.5320791,3902.3558896392,148.293968,0,0.5810203598,20400,2018-06-20 20:56:53,15,0,23.5,3902.3558896392,148.293968,0.447388,1.3844488632,0,0,-0.671082,19.2, 2.5, -3.1,0,0,1024,1024,1024,1024,18.8,-89.9,96,3.922,3.905,3.898,3.897,3.948,3.917,22.538,82.4,14,Waypoint,
38.5568748,-120.5320791,3904.6524776392,150.590556,0,0.5810203598,20600,2018-06-20 20:56:53,15,0,23.5,3904.6524776392,150.590556,0.447388,1.3844488632,0,0,-0.671082,19.2, 2.6, -3.3,0,0,1024,1024,1024,1024,18.9,-89.9,96,3.922,3.905,3.898,3.897,3.948,3.917,22.538,82.4,14,Waypoint,
38.5568748,-120.5320791,3905.6367296392,151.574808,0,0.5810203598,20700,2018-06-20 20:56:53,15,0,23.5,3905.6367296392,151.574808,0.447388,1.3844488632,0,0,-0.671082,19.1, 2.9, -3.3,0,0,1024,1024,1024,1024,18.9,-89.9,96,3.922,3.905,3.898,3.897,3.948,3.917,22.538,82.4,14,Waypoint,
38.5568748,-120.5320791,3907.6052336392,153.543312,0,0.5810203598,20900,2018-06-20 20:56:54,15,0,23.5,3907.6052336392,153.543312,0.447388,1.3844488632,0,0,-0.671082,19.2, 2.9, -3.5,0,0,1024,1024,1024,1024,18.9,-89.9,96,3.922,3.905,3.898,3.897,3.948,3.917,22.538,82.4,14,Waypoint,
38.5568748,-120.5320791,3908.9175696392,154.855648,0,0.5810203598,21000,2018-06-20 20:56:54,15,0,23.547,3908.9175696392,154.855648,0.447388,1.3844488632,0,0,-0.671082,19.4, 2.8, -3.9,0,0,1024,1024,1024,1024,18.9,-89.9,96,3.929,3.911,3.894,3.898,3.945,3.929,21.795,84.2,14,Waypoint,
38.5568747,-120.532079,3910.8860736392,156.824152,0,0.56138781324,21300,2018-06-20 20:56:54,15,0,23.547,3910.8860736392,156.824152,0.447388,1.3844488632,0,0,-0.671082,19.5, 2.2, -4.2,0,0,1024,1024,1024,1024,18.9,-90,96,3.929,3.911,3.894,3.898,3.945,3.929,21.795,84.2,14,Waypoint,
38.5568747,-120.532079,3911.5422416392,157.48032,0,0.56138781324,21400,2018-06-20 20:56:54,15,0,23.547,3911.5422416392,157.48032,0.447388,1.3844488632,0,0,-0.671082,19.4, 2, -4.1,0,0,1024,1024,1024,1024,18.9,-90,96,3.929,3.911,3.894,3.898,3.945,3.929,21.795,84.2,14,Waypoint,
38.5568746,-120.5320789,3912.5264936392,158.464572,0,0.54499345576,21500,2018-06-20 20:56:54,15,0,23.547,3912.5264936392,158.464572,0.447388,1.3844488632,0,0,-0.671082,19.4, 1.9, -3.9,0,0,1024,1024,1024,1024,18.9,-90,96,3.929,3.911,3.894,3.898,3.945,3.929,21.795,84.2,14,Waypoint,
38.5568746,-120.5320789,3913.5107456392,159.448824,0,0.54499345576,21600,2018-06-20 20:56:54,15,0,23.547,3913.5107456392,159.448824,0.447388,1.3844488632,0,0,-0.671082,19.3, 2, -3.9,0,0,1024,1024,1024,1024,18.9,-90,96,3.929,3.911,3.894,3.898,3.945,3.929,21.795,84.2,14,Waypoint,
38.5568746,-120.5320789,3915.1511656392,161.089244,0,0.54499345576,21700,2018-06-20 20:56:54,15,0,23.547,3915.1511656392,161.089244,0.447388,1.3844488632,0,0,-0.671082,19.4, 2.5, -3.4,0,0,1024,1024,1024,1024,18.9,-89.9,96,3.929,3.911,3.894,3.898,3.945,3.929,21.795,84.2,14,Waypoint,
38.5568746,-120.532079,3917.1196696392,163.057748,0,0.57195867972,21900,2018-06-20 20:56:55,15,0,23.547,3917.1196696392,163.057748,0.447388,1.3844488632,0,0,-0.671082,19.4, 3, -3.3,0,0,1024,1024,1024,1024,18.9,-89.9,96,3.929,3.911,3.894,3.898,3.945,3.929,21.795,84.2,14,Waypoint,
38.5568746,-120.532079,3918.1039216392,164.042,0,0.57195867972,22000,2018-06-20 20:56:55,15,0,23.592,3918.1039216392,164.042,0.447388,1.3844488632,0,0,-0.671082,19.3, 3.1, -3.5,0,0,1024,1024,1024,1024,18.9,-89.9,96,3.949,3.917,3.913,3.914,3.964,3.932,21.127,84.2,14,Waypoint,
38.5568746,-120.532079,3920.4005096392,166.338588,0,0.57195867972,22200,2018-06-20 20:56:55,15,0,23.592,3920.4005096392,166.338588,0.447388,1.3844488632,0,0,-0.671082,19.3, 2.8, -3.6,0,0,1024,1024,1024,1024,18.9,-89.9,96,3.949,3.917,3.913,3.914,3.964,3.932,21.127,84.2,14,Waypoint,
38.5568746,-120.532079,3921.3847616392,167.32284,0,0.57195867972,22300,2018-06-20 20:56:55,15,0,23.592,3921.3847616392,167.32284,0.447388,1.3844488632,0,0,-0.671082,19.3, 2.3, -3.8,0,0,1024,1024,1024,1024,18.9,-90,96,3.949,3.917,3.913,3.914,3.964,3.932,21.127,84.2,14,Waypoint,
38.5568745,-120.532079,3922.3690136392,168.307092,0,0.58461944128,22400,2018-06-20 20:56:55,15,0,23.592,3922.3690136392,168.307092,0.447388,1.3844488632,0,0,-0.671082,19.3, 2.1, -4,0,0,1024,1024,1024,1024,18.9,-90,96,3.949,3.917,3.913,3.914,3.964,3.932,21.127,84.2,14,Waypoint,
38.5568745,-120.5320789,3923.3532656392,169.291344,0,0.55826445356,22500,2018-06-20 20:56:55,15,0,23.592,3923.3532656392,169.291344,0.447388,1.3844488632,0,0,-0.671082,19.3, 2.1, -3.9,0,0,1024,1024,1024,1024,18.9,-90,96,3.949,3.917,3.913,3.914,3.964,3.932,21.127,84.2,14,Waypoint,
38.5568745,-120.5320789,3924.3375176392,170.275596,0,0.55826445356,22600,2018-06-20 20:56:55,15,0,23.592,3924.3375176392,170.275596,0.447388,1.3844488632,0,0,-0.671082,19.3, 2.1, -3.7,0,0,1024,1024,1024,1024,18.9,-90,96,3.949,3.917,3.913,3.914,3.964,3.932,21.127,84.2,14,Waypoint,
38.5568745,-120.5320789,3925.3217696392,171.259848,0,0.55826445356,22700,2018-06-20 20:56:55,15,0,23.592,3925.3217696392,171.259848,0.447388,1.3844488632,0,0,-0.671082,19.4, 2.2, -3.6,0,0,1024,1024,1024,1024,18.9,-89.9,96,3.949,3.917,3.913,3.914,3.964,3.932,21.127,84.2,14,Waypoint,
38.5568744,-120.5320789,3926.3060216392,172.2441,0,0.5735564488,22800,2018-06-20 20:56:56,15,0,23.592,3926.3060216392,172.2441,0.447388,1.3844488632,0,0,-0.671082,19.4, 2.2, -3.6,0,0,1024,1024,1024,1024,18.9,-90,96,3.949,3.917,3.913,3.914,3.964,3.932,21.127,84.2,14,Waypoint,
38.5568744,-120.5320789,3926.9621896392,172.900268,0,0.5735564488,22900,2018-06-20 20:56:56,15,0,23.592,3926.9621896392,172.900268,0.447388,1.3844488632,0,0,-0.671082,19.4, 2.2, -3.6,0,0,1024,1024,1024,1024,18.9,-90,96,3.949,3.917,3.913,3.914,3.964,3.932,21.127,84.2,14,Waypoint,
38.5568744,-120.5320789,3927.9464416392,173.88452,0,0.5735564488,23000,2018-06-20 20:56:56,15,0,23.655,3927.9464416392,173.88452,0.447388,1.3844488632,0,0,-0.671082,19.3, 2.3, -3.5,0,0,1024,1024,1024,1024,18.8,-89.9,96,3.93,3.908,3.903,3.906,3.947,3.926,20.452,84.2,14,Waypoint,
38.5568744,-120.5320789,3928.9306936392,174.868772,0,0.5735564488,23200,2018-06-20 20:56:56,15,0,23.655,3928.9306936392,174.868772,0.447388,1.3844488632,0,0,-0.671082,19.3, 2.4, -3.4,0,0,1024,1024,1024,1024,18.9,-89.9,96,3.93,3.908,3.903,3.906,3.947,3.926,20.452,84.2,14,Waypoint,
38.5568744,-120.5320789,3929.9149456392,175.853024,0,0.5735564488,23300,2018-06-20 20:56:56,15,0,23.655,3929.9149456392,175.853024,0.447388,1.3844488632,0,0,-0.671082,19.2, 2.5, -3.3,0,0,1024,1024,1024,1024,18.8,-89.9,96,3.93,3.908,3.903,3.906,3.947,3.926,20.452,84.2,14,Waypoint,
38.5568744,-120.5320788,3930.8991976392,176.837276,0,0.54815618552,23400,2018-06-20 20:56:56,15,0,23.655,3930.8991976392,176.837276,0.447388,1.3844488632,0,0,-0.671082,19.2, 2.7, -3.2,0,0,1024,1024,1024,1024,18.8,-89.9,96,3.93,3.908,3.903,3.906,3.947,3.926,20.452,84.2,14,Waypoint,
38.5568743,-120.5320788,3931.8834496392,177.821528,0,0.5660761336,23500,2018-06-20 20:56:56,15,0,23.655,3931.8834496392,177.821528,0.447388,1.3844488632,0,0,-0.671082,19.3, 2.7, -3.6,0,0,1024,1024,1024,1024,18.9,-90,96,3.93,3.908,3.903,3.906,3.947,3.926,20.452,84.2,14,Waypoint,
38.5568743,-120.5320787,3932.8677016392,178.80578,0,0.541830726,23600,2018-06-20 20:56:56,15,0,23.655,3932.8677016392,178.80578,0.447388,1.3844488632,0,0,-0.671082,19.5, 2.5, -4.2,0,0,1024,1024,1024,1024,18.9,-90,96,3.93,3.908,3.903,3.906,3.947,3.926,20.452,84.2,14,Waypoint,
38.5568743,-120.5320787,3933.8519536392,179.790032,0,0.541830726,23700,2018-06-20 20:56:56,15,0,23.655,3933.8519536392,179.790032,0.447388,1.3844488632,0,0,-0.671082,19.5, 2.4, -4.6,0,0,1024,1024,1024,1024,18.9,-90,96,3.93,3.908,3.903,3.906,3.947,3.926,20.452,84.2,14,Waypoint,
38.5568743,-120.5320786,3934.8362056392,180.774284,0,0.51802167012,23800,2018-06-20 20:56:57,15,0,23.655,3934.8362056392,180.774284,0.447388,1.3844488632,0,0,-0.671082,19.5, 2.4, -4.8,0,0,1024,1024,1024,1024,18.9,-90,96,3.93,3.908,3.903,3.906,3.947,3.926,20.452,84.2,14,Waypoint,
38.5568742,-120.5320786,3936.1485416392,182.08662,0,0.53942258944,23900,2018-06-20 20:56:57,15,0,23.655,3936.1485416392,182.08662,0.447388,1.3844488632,0,0,-0.671082,19.5, 2.4, -4.7,0,0,1024,1024,1024,1024,18.9,-90,96,3.93,3.908,3.903,3.906,3.947,3.926,20.452,84.2,14,Waypoint,
38.5568741,-120.5320787,3938.1170456392,184.055124,0,0.58437993996,24000,2018-06-20 20:56:57,16,0,23.631,3938.1170456392,184.055124,0.447388,1.3844488632,0,0,-0.671082,19.5, 1.7, -4.5,0,0,1024,1024,1024,1024,18.9,-90,96,3.93,3.908,3.903,3.906,3.947,3.926,20.828,84.2,14,Waypoint,
38.5568741,-120.5320787,3939.1012976392,185.039376,0,0.58437993996,24100,2018-06-20 20:56:57,16,0,23.631,3939.1012976392,185.039376,0.447388,1.3844488632,0,0,-0.671082,19.5, 1.5, -4.2,0,0,1024,1024,1024,1024,18.9,-90,96,3.93,3.908,3.903,3.906,3.947,3.926,20.828,84.2,14,Waypoint,
38.556874,-120.5320787,3940.0855496392,186.023628,0,0.60782810344,24200,2018-06-20 20:56:57,16,0,23.631,3940.0855496392,186.023628,0.447388,1.3844488632,0,0,-0.671082,19.5, 1.4, -4,0,0,1024,1024,1024,1024,18.9,-90,96,3.93,3.908,3.903,3.906,3.947,3.926,20.828,84.2,14,Waypoint,
38.556874,-120.5320788,3941.0698016392,187.00788,0,0.62953742172,24300,2018-06-20 20:56:57,16,0,23.631,3941.0698016392,187.00788,0.447388,1.3844488632,0,0,-0.671082,19.4, 1.6, -4,0,0,1024,1024,1024,1024,18.9,-90,96,3.93,3.908,3.903,3.906,3.947,3.926,20.828,84.2,14,Waypoint,
38.556874,-120.5320788,3942.0540536392,187.992132,0,0.62953742172,24400,2018-06-20 20:56:57,16,0,23.631,3942.0540536392,187.992132,0.447388,1.3844488632,0,0,-0.671082,19.5, 1.7, -3.5,0,0,1024,1024,1024,1024,18.9,-90,96,3.93,3.908,3.903,3.906,3.947,3.926,20.828,84.2,14,Waypoint,
38.5568739,-120.5320788,3943.0383056392,188.976384,0,0.65340225188,24500,2018-06-20 20:56:57,16,0,23.631,3943.0383056392,188.976384,0.447388,1.3844488632,0,0,-0.671082,19.6, 1.6, -3.5,0,0,1024,1024,1024,1024,18.9,-90,96,3.93,3.908,3.903,3.906,3.947,3.926,20.828,84.2,14,Waypoint,
38.5568739,-120.5320789,3943.6944736392,189.632552,0,0.6748523838,24600,2018-06-20 20:56:57,16,0,23.631,3943.6944736392,189.632552,0.447388,1.3844488632,0,0,-0.671082,19.6, 1.5, -3.5,0,0,1024,1024,1024,1024,18.9,-90,96,3.93,3.908,3.903,3.906,3.947,3.926,20.828,84.2,14,Waypoint,
38.5568739,-120.5320789,3944.6787256392,190.616804,0,0.6748523838,24700,2018-06-20 20:56:57,16,0,23.631,3944.6787256392,190.616804,0.447388,1.3844488632,0,0,-0.671082,19.6, 1.5, -3.5,0,0,1024,1024,1024,1024,18.9,-90,96,3.93,3.908,3.903,3.906,3.947,3.926,20.828,84.2,14,Waypoint,
38.556874,-120.532079,3945.3348936392,191.272972,0,0.67448164888,24800,2018-06-20 20:56:58,16,0,23.631,3945.3348936392,191.272972,0.447388,1.3844488632,0,0,-0.671082,19.6, 1.8, -3.2,0,0,1024,1024,1024,1024,18.9,-90,96,3.93,3.908,3.903,3.906,3.947,3.926,20.828,84.2,14,Waypoint,
38.556874,-120.532079,3946.3191456392,192.257224,0,0.67448164888,24900,2018-06-20 20:56:58,16,0,23.631,3946.3191456392,192.257224,0.447388,1.3844488632,0,0,-0.671082,19.5, 2.1, -2.8,0,0,1024,1024,1024,1024,18.9,-89.9,96,3.93,3.908,3.903,3.906,3.947,3.926,20.828,84.2,14,Waypoint,
38.5568741,-120.5320791,3946.9753136392,192.913392,0,0.67728676708,25000,2018-06-20 20:56:58,16,0,23.631,3946.9753136392,192.913392,0.447388,1.3844488632,0,0,-0.671082,19.4, 2.4, -2.3,0,0,1024,1024,1024,1024,18.9,-89.9,96,3.917,3.926,3.931,3.918,3.96,3.946,20.828,84.2,14,Waypoint,
38.5568741,-120.5320793,3947.9595656392,193.897644,0,0.72601380276,25100,2018-06-20 20:56:58,16,0,23.631,3947.9595656392,193.897644,0.447388,1.3844488632,0,0,-0.671082,19.4, 2.8, -2.1,0,0,1024,1024,1024,1024,18.8,-89.9,96,3.917,3.926,3.931,3.918,3.96,3.946,20.828,84.2,14,Waypoint,
38.5568743,-120.5320795,3949.9280696392,195.866148,0,0.74435369836,25300,2018-06-20 20:56:58,16,0,23.631,3949.9280696392,195.866148,0.447388,1.3844488632,0,0,-0.671082,19.2, 3, -1.8,0,0,1024,1024,1024,1024,18.8,-89.9,96,3.917,3.926,3.931,3.918,3.96,3.946,20.828,84.2,14,Waypoint,
38.5568744,-120.5320796,3951.8965736392,197.834652,0,0.75761485364,25500,2018-06-20 20:56:58,16,0,23.631,3951.8965736392,197.834652,0.447388,1.3844488632,0,0,-0.671082,19, 2.9, -2.2,0,0,1024,1024,1024,1024,18.9,-89.9,96,3.917,3.926,3.931,3.918,3.96,3.946,20.828,84.2,14,Waypoint,
38.5568744,-120.5320797,3952.8808256392,198.818904,0,0.78453742668,25700,2018-06-20 20:56:58,16,0,23.631,3952.8808256392,198.818904,0.447388,1.3844488632,0,0,-0.671082,19, 2.9, -2.2,0,0,1024,1024,1024,1024,18.9,-89.9,96,3.917,3.926,3.931,3.918,3.96,3.946,20.828,84.2,14,Waypoint,
38.5568745,-120.5320797,3953.8650776392,199.803156,0,0.77342850244,25800,2018-06-20 20:56:59,16,0,23.631,3953.8650776392,199.803156,0.447388,1.3844488632,0,0,-0.671082,19.1, 3, -2.4,0,0,1024,1024,1024,1024,18.9,-89.9,96,3.917,3.926,3.931,3.918,3.96,3.946,20.828,84.2,14,Waypoint,
38.5568745,-120.5320797,3954.8493296392,200.787408,0,0.77342850244,25900,2018-06-20 20:56:59,16,0,23.631,3954.8493296392,200.787408,0.447388,1.3844488632,0,0,-0.671082,19.3, 2.8, -2.8,0,0,1024,1024,1024,1024,18.9,-89.9,96,3.917,3.926,3.931,3.918,3.96,3.946,20.828,84.2,14,Waypoint,
38.5568745,-120.5320797,3955.8335816392,201.77166,0,0.77342850244,26000,2018-06-20 20:56:59,16,0,23.507,3955.8335816392,201.77166,0.447388,1.3844488632,0,0,-0.671082,19.5, 2.8, -2.8,0,0,1024,1024,1024,1024,18.9,-89.9,96,3.937,3.913,3.886,3.902,3.96,3.92,21.168,84.2,14,Waypoint,
38.5568746,-120.5320797,3957.1459176392,203.083996,0,0.76390422392,26100,2018-06-20 20:56:59,16,0,23.507,3957.1459176392,203.083996,0.447388,1.3844488632,0,0,-0.671082,19.6, 3.2, -3,0,0,1024,1024,1024,1024,18.9,-89.9,96,3.937,3.913,3.886,3.902,3.96,3.92,21.168,84.2,14,Waypoint,
38.5568746,-120.5320797,3958.1301696392,204.068248,0,0.76390422392,26200,2018-06-20 20:56:59,16,0,23.507,3958.1301696392,204.068248,0.447388,1.3844488632,0,0,-0.671082,19.7, 3.4, -3.1,0,0,1024,1024,1024,1024,18.9,-89.9,96,3.937,3.913,3.886,3.902,3.96,3.92,21.168,84.2,14,Waypoint,
38.5568746,-120.5320797,3959.1144216392,205.0525,0,0.76390422392,26300,2018-06-20 20:56:59,16,0,23.507,3959.1144216392,205.0525,0.447388,1.3844488632,0,0,-0.671082,19.7, 3.3, -3.1,0,0,1024,1024,1024,1024,18.9,-89.9,96,3.937,3.913,3.886,3.902,3.96,3.92,21.168,84.2,14,Waypoint,
38.5568746,-120.5320797,3961.4110096392,207.349088,0,0.76390422392,26400,2018-06-20 20:56:59,16,0,23.507,3961.4110096392,207.349088,0.447388,1.3844488632,0,0,-0.671082,19.6, 2.9, -3.2,0,0,1024,1024,1024,1024,18.8,-89.9,96,3.937,3.913,3.886,3.902,3.96,3.92,21.168,84.2,14,Waypoint,
38.5568746,-120.5320798,3962.3952616392,208.33334,0,0.79163716444,26500,2018-06-20 20:56:59,16,0,23.507,3962.3952616392,208.33334,0.447388,1.3844488632,0,0,-0.671082,19.4, 2.8, -2.9,0,0,1024,1024,1024,1024,18.9,-90,96,3.937,3.913,3.886,3.902,3.96,3.92,21.168,84.2,14,Waypoint,
38.5568747,-120.5320799,3963.3795136392,209.317592,0,0.81208335932,26600,2018-06-20 20:56:59,16,0,23.507,3963.3795136392,209.317592,0.447388,1.3844488632,0,0,-0.671082,19.2, 2.9, -2.7,0,0,1024,1024,1024,1024,18.9,-89.9,96,3.937,3.913,3.886,3.902,3.96,3.92,21.168,84.2,14,Waypoint,
