Latitude, Longitude, Altitude (m), Time, Sats, Speed (m/s), Range (m), Battery (%), Roll (deg), Pitch (deg), Yaw (deg), Images, HD Signal (%), RC Signal (%), Battery Temp (C), Battery Voltage (mV), Battery Current (mA), Battery Energy (mAh), Battery Capacity (mAh), Battery Discharges, flyState, timestamp (Unix), LastUpdate (ms), radioChannel, Rc_elevator, Rc_aileron, Rc_throttle, Rc_rudder, Rc_gyro, Dronetype, Battery_Cell1 (mV), Battery_Cell2 (mV), Battery_Cell3 (mV), Battery_Cell4 (mV), Battery_Cell5 (mV), Battery_Cell6 (mV), Video, isFlying, elapsedTime (ms), gimbalPitch (deg), gimbalRoll (deg), gimbalYaw (deg), VelocityX (m/s), VelocityY (m/s), VelocityZ (m/s), GroundSmear (cm), App Version, Aircraft Name, Aircraft Firmware, Aircraft Serial Number, Battery Serial Number, Battery Lifetime (%), App_Tip, App_Warning, CurrentFlightStartingIndex, CurrentFlightLastVisitedWaypoint, PreviousFlightEndingWaypointIndex
38.1644255, -120.1139091, 0.000, 10:29:40.278, 14, 0.00, 0.00, 98, -0.600, 1.500, -86.400, 2, 100, 100, 16, 25359, -3998, 5418, 5529, 9, 11, 1526059780.279, 136, 0, 1024, 1024, 1024, 1024, 0, 6, 4219, 4198, 4254, 4217, 4201, 4154, 0, 1, 3109, -89.900, 0.000, -85.100, 0.000, 0.000, 0.000, 0.0, MapPilot_2.8.1_04242018, Dendroctonus I, 1.3.1.00, 041DDC1887, 1058171200279, 98, DJI_0001.jpg, Starting Mission from Lat/Long: 38.16440/-120.11393 Camera: Zenmuse X3 - Overlap: 90/90 - Active Connection: No, 0, 0, 0
38.1644254, -120.1139091, 0.000, 10:29:40.371, 14, 0.00, 0.00, 98, -0.200, 1.800, -86.300, 2, 100, 100, 16, 25359, -3998, 5418, 5529, 9, 11, 1526059780.371, 72, 0, 1024, 1024, 1024, 1024, 0, 6, 4219, 4198, 4254, 4217, 4201, 4154, 0, 1, 3201, -89.900, 0.000, -85.200, 0.000, 0.000, -0.200, 0.0, , , , , , 98, , , 0, 0, 0
38.1644253, -120.1139091, 0.000, 10:29:40.471, 14, 0.00, 0.01, 98, 0.000, 1.400, -86.200, 2, 100, 100, 16, 25359, -3998, 5418, 5529, 9, 11, 1526059780.471, 19, 0, 1024, 1024, 1024, 1024, 0, 6, 4219, 4198, 4254, 4217, 4201, 4154, 0, 1, 3301, -89.900, 0.000, -85.200, 0.000, 0.000, -0.300, 0.0, , , , , , 98, , , 0, 0, 0
38.1644253, -120.1139090, 0.000, 10:29:40.571, 14, 0.00, 0.02, 98, 0.000, 0.900, -86.100, 2, 100, 100, 16, 25046, -3998, 5418, 5529, 9, 11, 1526059780.572, 39, 0, 1024, 1024, 1024, 1024, 0, 6, 4219, 4198, 4254, 4217, 4201, 4154, 0, 1, 3402, -90.000, 0.000, -85.200, 0.000, 0.000, -0.300, 0.0, , , , , , 98, , , 0, 0, 0
38.1644252, -120.1139090, 0.000, 10:29:40.671, 14, 0.10, 0.03, 98, 0.000, 0.500, -86.100, 2, 100, 100, 16, 25046, -3998, 5418, 5529, 9, 11, 1526059780.672, 90, 0, 1024, 1024, 1024, 1024, 0, 6, 4219, 4198, 4254, 4217, 4201, 4154, 0, 1, 3502, -89.900, 0.000, -85.200, -0.100, 0.000, -0.400, 0.0, , , , , , 98, , , 0, 0, 0
38.1644251, -120.1139089, 0.000, 10:29:40.771, 14, 0.10, 0.04, 98, 0.200, 0.100, -86.100, 2, 100, 100, 16, 25046, -3998, 5418, 5529, 9, 11, 1526059780.772, 55, 0, 1024, 1024, 1024, 1024, 0, 6, 4219, 4198, 4254, 4217, 4201, 4154, 0, 1, 3602, -90.000, 0.000, -85.300, -0.100, 0.000, -0.400, 0.0, , , , , , 98, , , 0, 0, 0
38.1644250, -120.1139089, 0.100, 10:29:40.871, 14, 0.10, 0.05, 98, 0.600, -0.200, -86.200, 2, 100, 100, 16, 25046, -3998, 5418, 5529, 9, 11, 1526059780.873, 72, 0, 1024, 1024, 1024, 1024, 0, 6, 4219, 4198, 4254, 4217, 4201, 4154, 0, 1, 3703, -90.000, 0.000, -85.300, -0.100, 0.000, -0.400, 0.0, , , , , , 98, , , 0, 0, 0
38.1644249, -120.1139088, 0.100, 10:29:40.971, 13, 0.10, 0.07, 98, 0.900, -0.300, -86.200, 2, 100, 100, 16, 25046, -3998, 5418, 5529, 9, 11, 1526059780.971, 71, 0, 1024, 1024, 1024, 1024, 0, 6, 4219, 4198, 4254, 4217, 4201, 4154, 0, 1, 3801, -89.900, 0.000, -85.300, -0.100, 0.000, -0.400, 0.0, , , , , , 98, , , 0, 0, 0
38.1644248, -120.1139088, 0.200, 10:29:41.071, 13, 0.10, 0.08, 98, 1.200, -0.500, -86.200, 2, 100, 100, 16, 25046, -5472, 5418, 5529, 9, 11, 1526059781.072, 42, 0, 1024, 1024, 1024, 1024, 0, 6, 4219, 4198, 4254, 4217, 4201, 4154, 0, 1, 3902, -89.900, 0.000, -85.300, -0.100, 0.000, -0.400, 0.0, , , , , , 98, , , 0, 0, 0
38.1644248, -120.1139088, 0.200, 10:29:41.171, 13, 0.10, 0.08, 98, 1.200, -0.500, -86.200, 2, 100, 100, 16, 25046, -5472, 5418, 5529, 9, 11, 1526059781.172, 142, 0, 1024, 1024, 1024, 1024, 0, 6, 4110, 4086, 4107, 4141, 4139, 4104, 0, 1, 4002, -89.900, 0.000, -85.300, -0.100, 0.000, -0.400, 0.0, , , , , , 98, , , 0, 0, 0
38.1644245, -120.1139088, 0.300, 10:29:41.271, 13, 0.10, 0.10, 98, 1.800, -0.200, -86.300, 2, 100, 100, 16, 25046, -5472, 5418, 5529, 9, 11, 1526059781.272, 3, 0, 1024, 1024, 1024, 1024, 0, 6, 4110, 4086, 4107, 4141, 4139, 4104, 0, 1, 4102, -89.900, 0.000, -85.300, -0.100, 0.000, -0.400, 0.0, , , , , , 98, , , 0, 0, 0
38.1644244, -120.1139088, 0.400, 10:29:41.370, 14, 0.00, 0.12, 98, 1.600, 0.000, -86.400, 2, 100, 100, 16, 25046, -5472, 5418, 5529, 9, 11, 1526059781.372, 41, 0, 1024, 1024, 1024, 1024, 0, 6, 4110, 4086, 4107, 4141, 4139, 4104, 0, 1, 4202, -89.900, 0.000, -85.300, 0.000, 0.000, -0.400, 0.0, , , , , , 98, , , 0, 0, 0
38.1644243, -120.1139088, 0.400, 10:29:41.471, 15, 0.00, 0.12, 98, 1.600, 0.000, -86.500, 2, 100, 100, 16, 25046, -5472, 5418, 5529, 9, 11, 1526059781.471, 54, 0, 1024, 1024, 1024, 1024, 0, 6, 4110, 4086, 4107, 4141, 4139, 4104, 0, 1, 4301, -89.900, 0.000, -85.300, 0.000, 0.000, -0.400, 0.0, , , , , , 98, , , 0, 0, 0
38.1644243, -120.1139087, 0.500, 10:29:41.571, 15, 0.00, 0.13, 98, 1.800, 0.000, -86.600, 2, 100, 100, 16, 25046, -5472, 5418, 5529, 9, 11, 1526059781.573, 45, 0, 1024, 1024, 1024, 1024, 0, 6, 4110, 4086, 4107, 4141, 4139, 4104, 0, 1, 4403, -89.900, 0.000, -85.400, 0.000, 0.000, -0.500, 0.0, , , , , , 98, , , 0, 0, 0
38.1644243, -120.1139087, 0.500, 10:29:41.671, 15, 0.00, 0.13, 98, 1.800, 0.000, -86.600, 2, 100, 100, 16, 25046, -5472, 5418, 5529, 9, 11, 1526059781.672, 144, 0, 1024, 1024, 1024, 1024, 0, 6, 4110, 4086, 4107, 4141, 4139, 4104, 0, 1, 4502, -89.900, 0.000, -85.400, 0.000, 0.000, -0.500, 0.0, , , , , , 98, , , 0, 0, 0
38.1644242, -120.1139087, 0.500, 10:29:41.771, 15, 0.00, 0.14, 98, 1.600, 0.000, -86.700, 2, 100, 100, 16, 25046, -5472, 5418, 5529, 9, 11, 1526059781.774, 57, 0, 1024, 1024, 1024, 1024, 0, 6, 4110, 4086, 4107, 4141, 4139, 4104, 0, 1, 4604, -90.000, 0.000, -85.400, 0.000, 0.000, -0.400, 0.0, , , , , , 98, , , 0, 0, 0
38.1644242, -120.1139087, 0.500, 10:29:41.871, 15, 0.00, 0.14, 98, 1.600, 0.000, -86.700, 2, 100, 100, 16, 25046, -5472, 5418, 5529, 9, 11, 1526059781.872, 155, 0, 1024, 1024, 1024, 1024, 0, 6, 4110, 4086, 4107, 4141, 4139, 4104, 0, 1, 4702, -90.000, 0.000, -85.400, 0.000, 0.000, -0.400, 0.0, , , , , , 98, , , 0, 0, 0
38.1644242, -120.1139087, 0.500, 10:29:41.971, 15, 0.00, 0.14, 98, 1.600, 0.000, -86.700, 2, 100, 100, 16, 25046, -5472, 5418, 5529, 9, 11, 1526059781.972, 255, 0, 1024, 1024, 1024, 1024, 0, 6, 4110, 4086, 4107, 4141, 4139, 4104, 0, 1, 4802, -90.000, 0.000, -85.400, 0.000, 0.000, -0.400, 0.0, , , , , , 98, , , 0, 0, 0
38.1644243, -120.1139087, 0.600, 10:29:42.071, 15, 0.00, 0.13, 98, 1.300, -0.100, -86.800, 2, 100, 100, 16, 25046, -5472, 5418, 5529, 9, 11, 1526059782.073, 75, 0, 1024, 1024, 1024, 1024, 0, 6, 4110, 4086, 4107, 4141, 4139, 4104, 0, 1, 4903, -89.900, 0.000, -85.400, 0.000, 0.000, -0.300, 0.0, , , , , , 98, , , 0, 0, 0
38.1644243, -120.1139087, 0.600, 10:29:42.170, 15, 0.00, 0.13, 98, 1.300, -0.100, -86.800, 2, 100, 100, 16, 25046, -5472, 5418, 5529, 9, 11, 1526059782.171, 173, 0, 1024, 1024, 1024, 1024, 0, 6, 4110, 4086, 4107, 4141, 4139, 4104, 0, 1, 5001, -89.900, 0.000, -85.400, 0.000, 0.000, -0.300, 0.0, , , , , , 98, , , 0, 0, 0
38.1644243, -120.1139086, 0.600, 10:29:42.271, 14, 0.00, 0.14, 98, 1.100, -0.100, -86.800, 2, 100, 100, 16, 25046, -5472, 5418, 5529, 9, 11, 1526059782.272, 59, 0, 1024, 1024, 1024, 1024, 0, 6, 4110, 4086, 4107, 4141, 4139, 4104, 0, 1, 5102, -90.000, 0.000, -85.400, 0.000, 0.000, -0.400, 0.0, , , , , , 98, , , 0, 0, 0
38.1644243, -120.1139086, 0.700, 10:29:42.370, 14, 0.00, 0.14, 98, 1.000, -0.200, -86.800, 2, 100, 100, 16, 23643, -16533, 5418, 5529, 9, 11, 1526059782.370, 21, 0, 1024, 1024, 1024, 1024, 0, 6, 4110, 4086, 4107, 4141, 4139, 4104, 0, 1, 5201, -89.900, 0.000, -85.400, 0.000, 0.000, -0.500, 0.0, , , , , , 98, , , 0, 0, 0
38.1644243, -120.1139086, 0.700, 10:29:42.473, 14, 0.00, 0.14, 98, 1.000, -0.200, -86.800, 2, 100, 100, 16, 23643, -16533, 5418, 5529, 9, 11, 1526059782.480, 131, 0, 1024, 1024, 1024, 1024, 0, 6, 3941, 3905, 3911, 3923, 3950, 3941, 0, 1, 5310, -89.900, 0.000, -85.400, 0.000, 0.000, -0.500, 0.0, , , , , , 98, , , 0, 0, 0
38.1644243, -120.1139086, 0.700, 10:29:42.572, 15, 0.00, 0.14, 98, 0.900, -0.200, -86.800, 2, 100, 100, 16, 23643, -16533, 5418, 5529, 9, 11, 1526059782.576, 30, 0, 1024, 1024, 1024, 1024, 0, 6, 3941, 3905, 3911, 3923, 3950, 3941, 0, 1, 5406, -89.900, 0.000, -85.400, 0.000, 0.000, -0.400, 0.0, , , , , , 98, , , 0, 0, 0
38.1644243, -120.1139086, 0.800, 10:29:42.673, 15, 0.00, 0.14, 98, 1.000, -0.200, -86.600, 2, 100, 100, 16, 23643, -16533, 5418, 5529, 9, 11, 1526059782.674, 13, 0, 1024, 1024, 1024, 1024, 0, 6, 3941, 3905, 3911, 3923, 3950, 3941, 0, 1, 5504, -89.900, 0.000, -85.400, 0.000, 0.000, -0.400, 0.0, , , , , , 98, , , 0, 0, 0
38.1644243, -120.1139086, 0.800, 10:29:42.771, 15, 0.00, 0.13, 98, 1.100, -0.100, -86.500, 2, 100, 100, 16, 23643, -16533, 5418, 5529, 9, 11, 1526059782.771, 74, 0, 1024, 1024, 1024, 1024, 0, 6, 3941, 3905, 3911, 3923, 3950, 3941, 0, 1, 5601, -89.900, 0.000, -85.400, 0.000, 0.000, -0.400, 0.0, , , , , , 98, , , 0, 0, 0
38.1644243, -120.1139086, 0.900, 10:29:42.871, 15, 0.00, 0.13, 98, 1.100, -0.100, -86.300, 2, 100, 100, 16, 23643, -16533, 5418, 5529, 9, 6, 1526059782.872, 57, 0, 1024, 1024, 1024, 1024, 0, 6, 3941, 3905, 3911, 3923, 3950, 3941, 0, 1, 5702, -89.900, 0.000, -85.400, 0.000, 0.000, -0.500, 0.0, , , , , , 98, , , 0, 0, 0
38.1644243, -120.1139086, 0.900, 10:29:42.971, 15, 0.00, 0.13, 98, 1.100, -0.100, -86.300, 2, 100, 100, 16, 23643, -16533, 5418, 5529, 9, 6, 1526059782.972, 157, 0, 1024, 1024, 1024, 1024, 0, 6, 3941, 3905, 3911, 3923, 3950, 3941, 0, 1, 5802, -89.900, 0.000, -85.400, 0.000, 0.000, -0.500, 0.0, , , , , , 98, , , 0, 0, 0
38.1644243, -120.1139086, 0.900, 10:29:43.071, 15, 0.00, 0.13, 98, 1.100, -0.100, -86.300, 2, 100, 100, 16, 23643, -16533, 5418, 5529, 9, 6, 1526059783.073, 258, 0, 1024, 1024, 1024, 1024, 0, 6, 3941, 3905, 3911, 3923, 3950, 3941, 0, 1, 5903, -89.900, 0.000, -85.400, 0.000, 0.000, -0.500, 0.0, , , , , , 98, , , 0, 0, 0
38.1644246, -120.1139088, 1.000, 10:29:43.171, 12, 0.00, 0.10, 98, 0.100, 0.500, -86.100, 2, 100, 100, 16, 23643, -16533, 5418, 5529, 9, 14, 1526059783.171, 72, 0, 1024, 1024, 1024, 1024, 0, 6, 3941, 3905, 3911, 3923, 3950, 3941, 0, 1, 6001, -89.900, 0.000, -85.400, 0.000, 0.000, -0.200, 0.0, , , , , , 98, , , 0, 0, 0
38.1644246, -120.1139088, 1.100, 10:29:43.270, 12, 0.00, 0.09, 98, -0.200, 0.700, -86.200, 2, 100, 100, 16, 23643, -16533, 5418, 5529, 9, 14, 1526059783.271, 54, 0, 1024, 1024, 1024, 1024, 0, 6, 3941, 3905, 3911, 3923, 3950, 3941, 0, 1, 6101, -89.900, 0.000, -85.400, 0.000, 0.000, -0.200, 0.0, , , , , , 98, , , 0, 0, 0
38.1644246, -120.1139088, 1.100, 10:29:43.371, 13, 0.00, 0.10, 98, -0.100, 0.600, -86.300, 2, 100, 100, 16, 23349, -17229, 5418, 5529, 9, 14, 1526059783.371, 83, 0, 1024, 1024, 1024, 1024, 0, 6, 3896, 3852, 3872, 3889, 3905, 3884, 0, 1, 6201, -89.900, 0.000, -85.400, 0.000, 0.000, -0.400, 0.0, , , , , , 98, , , 0, 0, 0
38.1644245, -120.1139087, 1.500, 10:29:43.471, 13, 0.00, 0.11, 98, 0.700, -0.100, -86.400, 2, 100, 100, 16, 23349, -17229, 5418, 5529, 9, 14, 1526059783.471, 19, 0, 1024, 1024, 1024, 1024, 0, 6, 3896, 3852, 3872, 3889, 3905, 3884, 0, 1, 6301, -89.900, 0.000, -85.400, 0.000, 0.000, -1.100, 0.0, , , , , , 98, , , 0, 0, 0
38.1644245, -120.1139087, 1.500, 10:29:43.571, 13, 0.00, 0.11, 98, 0.700, -0.100, -86.400, 2, 100, 100, 16, 23349, -17229, 5418, 5529, 9, 14, 1526059783.571, 119, 0, 1024, 1024, 1024, 1024, 0, 6, 3896, 3852, 3872, 3889, 3905, 3884, 0, 1, 6401, -89.900, 0.000, -85.400, 0.000, 0.000, -1.100, 0.0, , , , , , 98, , , 0, 0, 0
38.1644245, -120.1139087, 1.600, 10:29:43.671, 13, 0.00, 0.11, 98, 0.900, -0.200, -86.300, 2, 100, 100, 16, 23349, -17229, 5418, 5529, 9, 14, 1526059783.671, 71, 0, 1024, 1024, 1024, 1024, 0, 6, 3896, 3852, 3872, 3889, 3905, 3884, 0, 1, 6501, -90.000, 0.000, -85.400, 0.000, 0.000, -1.400, 0.0, , , , , , 98, , , 0, 0, 0
38.1644245, -120.1139086, 1.800, 10:29:43.770, 13, 0.00, 0.11, 98, 1.000, -0.100, -86.300, 2, 100, 100, 16, 23349, -17229, 5418, 5529, 9, 14, 1526059783.771, 69, 0, 1024, 1024, 1024, 1024, 0, 6, 3896, 3852, 3872, 3889, 3905, 3884, 0, 1, 6601, -89.900, 0.000, -85.400, 0.000, 0.000, -1.600, 0.0, , , , , , 98, , , 0, 0, 0
38.1644245, -120.1139087, 1.900, 10:29:43.871, 14, 0.00, 0.11, 98, 0.700, -0.100, -86.200, 2, 100, 100, 16, 23349, -17229, 5418, 5529, 9, 14, 1526059783.871, 45, 0, 1024, 1024, 1024, 1024, 0, 6, 3896, 3852, 3872, 3889, 3905, 3884, 0, 1, 6701, -89.900, 0.000, -85.400, 0.000, 0.000, -1.800, 0.0, , , , , , 98, , , 0, 0, 0
38.1644245, -120.1139087, 2.400, 10:29:43.970, 14, 0.00, 0.11, 98, 0.500, 0.000, -86.100, 2, 100, 100, 16, 23349, -17229, 5418, 5529, 9, 14, 1526059783.971, 52, 0, 1024, 1024, 1024, 1024, 0, 6, 3896, 3852, 3872, 3889, 3905, 3884, 0, 1, 6801, -89.900, 0.000, -85.400, 0.000, 0.000, -2.200, 0.0, , , , , , 98, , , 0, 0, 0
38.1644245, -120.1139088, 2.600, 10:29:44.071, 14, 0.00, 0.11, 98, 0.500, 0.200, -86.000, 2, 100, 100, 16, 23349, -17229, 5418, 5529, 9, 14, 1526059784.071, 58, 0, 1024, 1024, 1024, 1024, 0, 6, 3896, 3852, 3872, 3889, 3905, 3884, 0, 1, 6901, -89.900, 0.000, -85.400, 0.000, 0.000, -2.500, 0.0, , , , , , 98, , , 0, 0, 0
38.1644245, -120.1139088, 2.600, 10:29:44.171, 14, 0.00, 0.11, 98, 0.500, 0.200, -86.000, 2, 100, 100, 16, 23349, -17229, 5418, 5529, 9, 14, 1526059784.171, 158, 0, 1024, 1024, 1024, 1024, 0, 6, 3896, 3852, 3872, 3889, 3905, 3884, 0, 1, 7001, -89.900, 0.000, -85.400, 0.000, 0.000, -2.500, 0.0, , , , , , 98, , , 0, 0, 0
38.1644245, -120.1139089, 3.200, 10:29:44.271, 14, 0.00, 0.10, 98, 1.000, 0.400, -85.700, 2, 100, 100, 16, 23336, -17195, 5363, 5529, 9, 14, 1526059784.271, 6, 0, 1024, 1024, 1024, 1024, 0, 6, 3922, 3834, 3819, 3856, 3856, 3867, 0, 1, 7101, -89.900, 0.000, -85.400, 0.000, 0.000, -2.900, 0.0, , , , , , 98, , , 0, 0, 0
38.1644245, -120.1139089, 3.500, 10:29:44.371, 15, 0.00, 0.11, 98, 1.100, 0.500, -85.600, 2, 100, 100, 16, 23336, -17195, 5363, 5529, 9, 14, 1526059784.371, 45, 0, 1024, 1024, 1024, 1024, 0, 6, 3922, 3834, 3819, 3856, 3856, 3867, 0, 1, 7201, -89.900, 0.000, -85.400, 0.000, 0.000, -3.000, 0.0, , , , , , 98, , , 0, 0, 0
38.1644246, -120.1139089, 4.200, 10:29:44.470, 15, 0.00, 0.10, 97, 0.900, 0.300, -85.600, 2, 100, 100, 16, 23336, -17195, 5363, 5529, 9, 14, 1526059784.470, 50, 0, 1024, 1024, 1024, 1024, 0, 6, 3922, 3834, 3819, 3856, 3856, 3867, 0, 1, 7300, -90.000, 0.000, -85.400, 0.000, 0.000, -3.200, 0.0, , , , , , 98, , , 0, 0, 0
38.1644247, -120.1139089, 4.500, 10:29:44.571, 15, 0.00, 0.09, 97, 0.500, 0.000, -85.700, 2, 100, 100, 16, 23336, -17195, 5363, 5529, 9, 14, 1526059784.574, 79, 0, 1024, 1024, 1024, 1024, 0, 6, 3922, 3834, 3819, 3856, 3856, 3867, 0, 1, 7404, -89.900, 0.000, -85.400, 0.000, 0.000, -3.200, 0.0, , , , , , 98, , , 0, 0, 0
38.1644248, -120.1139088, 4.800, 10:29:44.671, 15, 0.00, 0.08, 97, 0.000, 0.000, -85.800, 2, 100, 100, 16, 23336, -17195, 5363, 5529, 9, 14, 1526059784.671, 81, 0, 1024, 1024, 1024, 1024, 0, 6, 3922, 3834, 3819, 3856, 3856, 3867, 0, 1, 7501, -90.000, 0.000, -85.400, 0.000, 0.000, -3.200, 0.0, , , , , , 98, , , 0, 0, 0
38.1644249, -120.1139088, 5.200, 10:29:44.770, 15, 0.00, 0.07, 97, -0.300, 0.000, -85.900, 2, 100, 100, 16, 23336, -17195, 5363, 5529, 9, 14, 1526059784.771, 60, 0, 1024, 1024, 1024, 1024, 0, 6, 3922, 3834, 3819, 3856, 3856, 3867, 0, 1, 7601, -89.900, 0.000, -85.400, 0.000, 0.000, -3.200, 0.0, , , , , , 98, , , 0, 0, 0
38.1644249, -120.1139088, 5.500, 10:29:44.871, 15, 0.00, 0.07, 97, -0.200, 0.200, -86.000, 2, 100, 100, 16, 23336, -17195, 5363, 5529, 9, 14, 1526059784.871, 35, 0, 1024, 1024, 1024, 1024, 0, 6, 3922, 3834, 3819, 3856, 3856, 3867, 0, 1, 7701, -89.900, 0.000, -85.400, 0.000, 0.000, -3.200, 0.0, , , , , , 98, , , 0, 0, 0
38.1644249, -120.1139086, 5.800, 10:29:44.971, 15, 0.00, 0.07, 97, 0.000, 0.200, -86.100, 2, 100, 100, 16, 22544, -24315, 5363, 5529, 9, 14, 1526059784.971, 40, 0, 1024, 1024, 1024, 1024, 0, 6, 3922, 3834, 3819, 3856, 3856, 3867, 0, 1, 7801, -89.900, 0.000, -85.400, 0.000, 0.000, -3.200, 0.0, , , , , , 98, , , 0, 0, 0
38.1644249, -120.1139086, 6.200, 10:29:45.070, 15, 0.00, 0.07, 97, 0.000, 0.000, -86.100, 2, 100, 100, 16, 22544, -24315, 5363, 5529, 9, 14, 1526059785.070, 29, 0, 1024, 1024, 1024, 1024, 0, 6, 3922, 3834, 3819, 3856, 3856, 3867, 0, 1, 7900, -90.000, 0.000, -85.400, 0.000, 0.000, -3.200, 0.0, , , , , , 98, , , 0, 0, 0
38.1644250, -120.1139086, 6.500, 10:29:45.171, 15, 0.00, 0.06, 97, 0.000, -0.100, -86.100, 2, 100, 100, 16, 22544, -24315, 5363, 5529, 9, 14, 1526059785.172, 33, 0, 1024, 1024, 1024, 1024, 0, 6, 3922, 3834, 3819, 3856, 3856, 3867, 0, 1, 8002, -89.900, 0.000, -85.400, 0.000, 0.000, -3.200, 0.0, , , , , , 98, , , 0, 0, 0
38.1644250, -120.1139086, 6.900, 10:29:45.270, 15, 0.00, 0.06, 97, 0.000, -0.100, -86.100, 2, 100, 100, 16, 22544, -24315, 5363, 5529, 9, 14, 1526059785.271, 46, 0, 1024, 1024, 1024, 1024, 0, 6, 3922, 3834, 3819, 3856, 3856, 3867, 0, 1, 8101, -90.000, 0.000, -85.400, 0.000, 0.000, -3.200, 0.0, , , , , , 98, , , 0, 0, 0
38.1644250, -120.1139086, 7.200, 10:29:45.371, 15, 0.00, 0.06, 97, 0.000, -0.100, -86.100, 2, 100, 100, 16, 22544, -24315, 5363, 5529, 9, 14, 1526059785.371, 36, 0, 1024, 1024, 1024, 1024, 0, 6, 3922, 3834, 3819, 3856, 3856, 3867, 0, 1, 8201, -89.900, 0.000, -85.400, 0.000, 0.000, -3.200, 0.0, , , , , , 98, , , 0, 0, 0
38.1644250, -120.1139087, 7.500, 10:29:45.471, 14, 0.00, 0.06, 97, 0.000, 0.000, -86.100, 2, 100, 100, 16, 22544, -24315, 5363, 5529, 9, 14, 1526059785.471, 51, 0, 1024, 1024, 1024, 1024, 0, 6, 3743, 3709, 3721, 3746, 3763, 3743, 0, 1, 8301, -89.900, 0.000, -85.400, 0.000, 0.000, -3.100, 0.0, , , , , , 98, , , 0, 0, 0
38.1644250, -120.1139087, 7.800, 10:29:45.571, 14, 0.00, 0.06, 97, 0.100, 0.000, -86.100, 2, 100, 100, 16, 22544, -24315, 5363, 5529, 9, 14, 1526059785.571, 15, 0, 1024, 1024, 1024, 1024, 0, 6, 3743, 3709, 3721, 3746, 3763, 3743, 0, 1, 8401, -89.900, 0.000, -85.400, 0.000, 0.000, -3.100, 0.0, , , , , , 98, , , 0, 0, 0
38.1644251, -120.1139087, 8.200, 10:29:45.671, 14, 0.00, 0.06, 97, 0.200, 0.100, -86.100, 2, 100, 100, 16, 22544, -24315, 5363, 5529, 9, 14, 1526059785.671, 28, 0, 1024, 1024, 1024, 1024, 0, 6, 3743, 3709, 3721, 3746, 3763, 3743, 0, 1, 8501, -89.900, 0.000, -85.400, 0.000, 0.000, -3.200, 0.0, , , , , , 98, , , 0, 0, 0
38.1644251, -120.1139086, 8.500, 10:29:45.771, 14, 0.00, 0.06, 97, 0.100, -0.100, -86.200, 2, 100, 100, 16, 22544, -24315, 5363, 5529, 9, 14, 1526059785.771, 30, 0, 1024, 1024, 1024, 1024, 0, 6, 3743, 3709, 3721, 3746, 3763, 3743, 0, 1, 8601, -90.000, 0.000, -85.400, 0.000, 0.000, -3.100, 0.0, , , , , , 98, , , 0, 0, 0
38.1644251, -120.1139085, 8.800, 10:29:45.870, 14, 0.00, 0.06, 97, 0.000, -0.400, -86.200, 2, 100, 100, 16, 22544, -24315, 5363, 5529, 9, 14, 1526059785.871, 31, 0, 1024, 1024, 1024, 1024, 0, 6, 3743, 3709, 3721, 3746, 3763, 3743, 0, 1, 8701, -90.000, 0.000, -85.400, 0.000, 0.000, -3.100, 0.0, , , , , , 98, , , 0, 0, 0
38.1644251, -120.1139086, 9.200, 10:29:45.970, 14, 0.00, 0.06, 97, 0.000, -0.500, -86.300, 2, 100, 100, 16, 22544, -24315, 5363, 5529, 9, 14, 1526059785.970, 17, 0, 1024, 1024, 1024, 1024, 0, 6, 3743, 3709, 3721, 3746, 3763, 3743, 0, 1, 8801, -90.000, 0.000, -85.400, 0.000, 0.000, -3.100, 0.0, , , , , , 98, , , 0, 0, 0
38.1644251, -120.1139085, 9.500, 10:29:46.071, 15, 0.00, 0.06, 97, 0.000, -0.400, -86.300, 2, 100, 100, 16, 22544, -24315, 5363, 5529, 9, 14, 1526059786.072, 4, 0, 1024, 1024, 1024, 1024, 0, 6, 3743, 3709, 3721, 3746, 3763, 3743, 0, 1, 8902, -90.000, 0.000, -85.400, 0.000, 0.000, -3.100, 0.0, , , , , , 98, , , 0, 0, 0
38.1644250, -120.1139085, 9.800, 10:29:46.175, 15, 0.00, 0.07, 97, 0.000, -0.300, -86.400, 2, 100, 100, 16, 22544, -24315, 5363, 5529, 9, 14, 1526059786.176, 5, 0, 1024, 1024, 1024, 1024, 0, 6, 3743, 3709, 3721, 3746, 3763, 3743, 0, 1, 9006, -89.900, 0.000, -85.400, 0.000, 0.000, -3.100, 0.0, , , , , , 98, , , 0, 0, 0
38.1644250, -120.1139085, 10.100, 10:29:46.281, 14, 0.00, 0.07, 97, 0.100, -0.200, -86.400, 2, 100, 100, 16, 22544, -24315, 5363, 5529, 9, 14, 1526059786.281, 15, 0, 1024, 1024, 1024, 1024, 0, 6, 3743, 3709, 3721, 3746, 3763, 3743, 0, 1, 9111, -89.900, 0.000, -85.400, 0.000, 0.000, -3.100, 0.0, , , , , , 98, , , 0, 0, 0
38.1644249, -120.1139085, 10.400, 10:29:46.371, 14, 0.00, 0.07, 97, 0.200, -0.200, -86.400, 2, 100, 100, 16, 22544, -24315, 5363, 5529, 9, 14, 1526059786.371, 15, 0, 1024, 1024, 1024, 1024, 0, 6, 3743, 3709, 3721, 3746, 3763, 3743, 0, 1, 9201, -89.900, 0.000, -85.400, 0.000, 0.000, -3.000, 0.0, , , , , , 98, , , 0, 0, 0
38.1644249, -120.1139085, 10.700, 10:29:46.471, 15, 0.00, 0.08, 97, 0.600, -0.200, -86.300, 2, 100, 100, 16, 22748, -20381, 5363, 5529, 9, 14, 1526059786.471, 6, 0, 1024, 1024, 1024, 1024, 0, 6, 3743, 3709, 3721, 3746, 3763, 3743, 0, 1, 9302, -89.900, 0.000, -85.400, 0.000, 0.000, -3.000, 0.0, , , , , , 98, , , 0, 0, 0
38.1644248, -120.1139086, 11.400, 10:29:46.571, 15, 0.00, 0.08, 97, 1.000, -0.100, -86.100, 2, 100, 100, 16, 22748, -20381, 5363, 5529, 9, 14, 1526059786.573, 9, 0, 1024, 1024, 1024, 1024, 0, 6, 3801, 3775, 3776, 3797, 3817, 3817, 0, 1, 9403, -89.900, 0.000, -85.400, 0.000, 0.000, -3.000, 0.0, , , , , , 98, , , 0, 0, 0
38.1644248, -120.1139086, 11.400, 10:29:46.671, 15, 0.00, 0.08, 97, 1.000, -0.100, -86.100, 2, 100, 100, 16, 22748, -20381, 5363, 5529, 9, 14, 1526059786.671, 107, 0, 1024, 1024, 1024, 1024, 0, 6, 3801, 3775, 3776, 3797, 3817, 3817, 0, 1, 9501, -89.900, 0.000, -85.400, 0.000, 0.000, -3.000, 0.0, , , , , , 98, , , 0, 0, 0
38.1644248, -120.1139086, 11.700, 10:29:46.771, 15, 0.00, 0.08, 97, 0.700, -0.300, -86.000, 2, 100, 100, 16, 22748, -20381, 5363, 5529, 9, 14, 1526059786.771, 83, 0, 1024, 1024, 1024, 1024, 0, 6, 3801, 3775, 3776, 3797, 3817, 3817, 0, 1, 9601, -90.000, 0.000, -85.400, 0.000, 0.000, -3.000, 0.0, , , , , , 98, , , 0, 0, 0
38.1644248, -120.1139086, 12.000, 10:29:46.871, 15, 0.00, 0.09, 97, 0.200, -0.400, -85.900, 2, 100, 100, 16, 22748, -20381, 5363, 5529, 9, 14, 1526059786.871, 77, 0, 1024, 1024, 1024, 1024, 0, 6, 3801, 3775, 3776, 3797, 3817, 3817, 0, 1, 9701, -90.000, 0.000, -85.400, 0.000, 0.000, -2.900, 0.0, , , , , , 98, , , 0, 0, 0
38.1644248, -120.1139086, 12.300, 10:29:46.971, 15, 0.00, 0.08, 97, 0.000, -0.300, -85.900, 2, 100, 100, 16, 22748, -20381, 5363, 5529, 9, 14, 1526059786.971, 75, 0, 1024, 1024, 1024, 1024, 0, 6, 3801, 3775, 3776, 3797, 3817, 3817, 0, 1, 9801, -89.900, 0.000, -85.400, 0.000, 0.000, -2.900, 0.0, , , , , , 98, , , 0, 0, 0
38.1644248, -120.1139086, 12.300, 10:29:47.071, 15, 0.00, 0.08, 97, 0.000, -0.300, -85.900, 2, 100, 100, 16, 22748, -20381, 5363, 5529, 9, 14, 1526059787.071, 175, 0, 1024, 1024, 1024, 1024, 0, 6, 3801, 3775, 3776, 3797, 3817, 3817, 0, 1, 9901, -89.900, 0.000, -85.400, 0.000, 0.000, -2.900, 0.0, , , , , , 98, , , 0, 0, 0
38.1644248, -120.1139086, 12.900, 10:29:47.171, 15, 0.00, 0.08, 97, 0.100, -0.300, -85.900, 2, 100, 100, 16, 22748, -20381, 5363, 5529, 9, 14, 1526059787.171, 51, 0, 1024, 1024, 1024, 1024, 0, 6, 3801, 3775, 3776, 3797, 3817, 3817, 0, 1, 10001, -89.900, 0.000, -85.400, 0.000, 0.000, -2.900, 0.0, , , , , , 98, , , 0, 0, 0
38.1644248, -120.1139086, 13.200, 10:29:47.271, 15, 0.00, 0.09, 97, 0.200, -0.400, -86.000, 2, 100, 100, 16, 22748, -20381, 5363, 5529, 9, 14, 1526059787.271, 75, 0, 1024, 1024, 1024, 1024, 0, 6, 3801, 3775, 3776, 3797, 3817, 3817, 0, 1, 10101, -90.000, 0.000, -85.400, 0.000, 0.000, -2.900, 0.0, , , , , , 98, , , 0, 0, 0
38.1644247, -120.1139085, 13.500, 10:29:47.370, 15, 0.00, 0.09, 97, 0.300, -0.700, -86.200, 2, 100, 100, 16, 22748, -20381, 5363, 5529, 9, 14, 1526059787.371, 69, 0, 1024, 1024, 1024, 1024, 0, 6, 3801, 3775, 3776, 3797, 3817, 3817, 0, 1, 10201, -90.000, 0.000, -85.400, 0.000, 0.000, -2.900, 0.0, , , , , , 98, , , 0, 0, 0
38.1644247, -120.1139086, 13.800, 10:29:47.471, 15, 0.00, 0.09, 97, 0.500, -0.800, -86.300, 2, 100, 100, 16, 22886, -19093, 5363, 5529, 9, 14, 1526059787.471, 43, 0, 1024, 1024, 1024, 1024, 0, 6, 3833, 3791, 3800, 3806, 3840, 3825, 0, 1, 10301, -89.900, 0.000, -85.400, 0.000, 0.000, -2.900, 0.0, , , , , , 98, , , 0, 0, 0
38.1644247, -120.1139086, 14.100, 10:29:47.571, 15, 0.00, 0.09, 97, 0.500, -0.300, -86.400, 2, 100, 99, 16, 22886, -19093, 5363, 5529, 9, 14, 1526059787.571, 58, 0, 1024, 1024, 1024, 1024, 0, 6, 3833, 3791, 3800, 3806, 3840, 3825, 0, 1, 10401, -89.900, 0.000, -85.400, 0.000, 0.000, -2.900, 0.0, , , , , , 98, , , 0, 0, 0
38.1644247, -120.1139087, 14.400, 10:29:47.671, 16, 0.00, 0.09, 97, 0.400, 0.100, -86.300, 2, 100, 99, 16, 22886, -19093, 5363, 5529, 9, 14, 1526059787.671, 36, 0, 1024, 1024, 1024, 1024, 0, 6, 3833, 3791, 3800, 3806, 3840, 3825, 0, 1, 10502, -89.900, 0.000, -85.400, 0.000, 0.000, -2.900, 0.0, , , , , , 98, , , 0, 0, 0
38.1644247, -120.1139087, 14.700, 10:29:47.770, 16, 0.00, 0.09, 97, 0.300, 0.600, -86.300, 2, 100, 99, 16, 22886, -19093, 5363, 5529, 9, 14, 1526059787.771, 49, 0, 1024, 1024, 1024, 1024, 0, 6, 3833, 3791, 3800, 3806, 3840, 3825, 0, 1, 10601, -89.900, 0.000, -85.400, 0.000, 0.000, -2.900, 0.0, , , , , , 98, , , 0, 0, 0
38.1644247, -120.1139087, 15.000, 10:29:47.871, 16, 0.00, 0.09, 97, 0.300, 0.800, -86.200, 2, 100, 99, 16, 22886, -19093, 5363, 5529, 9, 14, 1526059787.871, 46, 0, 1024, 1024, 1024, 1024, 0, 6, 3833, 3791, 3800, 3806, 3840, 3825, 0, 1, 10701, -89.900, 0.000, -85.400, 0.000, 0.000, -2.800, 0.0, , , , , , 98, , , 0, 0, 0
38.1644246, -120.1139088, 15.300, 10:29:47.971, 16, 0.00, 0.09, 97, 0.200, 0.600, -86.200, 2, 100, 99, 16, 22886, -19093, 5363, 5529, 9, 14, 1526059787.971, 49, 0, 1024, 1024, 1024, 1024, 0, 6, 3833, 3791, 3800, 3806, 3840, 3825, 0, 1, 10801, -89.900, 0.000, -85.400, 0.000, 0.000, -2.700, 0.0, , , , , , 98, , , 0, 0, 0
38.1644246, -120.1139088, 15.600, 10:29:48.071, 16, 0.00, 0.09, 97, 0.000, 0.400, -86.300, 2, 100, 99, 16, 22886, -19093, 5363, 5529, 9, 14, 1526059788.071, 28, 0, 1024, 1024, 1024, 1024, 0, 6, 3833, 3791, 3800, 3806, 3840, 3825, 0, 1, 10901, -89.900, 0.000, -85.400, 0.000, 0.000, -2.700, 0.0, , , , , , 98, , , 0, 0, 0
38.1644246, -120.1139088, 15.800, 10:29:48.183, 16, 0.00, 0.09, 97, 0.200, 0.400, -86.300, 2, 100, 99, 16, 22886, -19093, 5363, 5529, 9, 14, 1526059788.183, 4, 0, 1024, 1024, 1024, 1024, 0, 6, 3833, 3791, 3800, 3806, 3840, 3825, 0, 1, 11014, -89.900, 0.000, -85.400, 0.000, 0.000, -2.800, 0.0, , , , , , 98, , , 0, 0, 0
38.1644246, -120.1139088, 16.100, 10:29:48.271, 16, 0.00, 0.09, 97, 0.500, 0.400, -86.300, 2, 100, 99, 16, 22886, -19093, 5363, 5529, 9, 14, 1526059788.271, 38, 0, 1024, 1024, 1024, 1024, 0, 6, 3833, 3791, 3800, 3806, 3840, 3825, 0, 1, 11101, -89.900, 0.000, -85.400, 0.000, 0.000, -2.800, 0.0, , , , , , 98, , , 0, 0, 0
38.1644246, -120.1139089, 16.400, 10:29:48.371, 16, 0.00, 0.09, 97, 0.500, 0.400, -86.100, 2, 100, 99, 16, 22886, -19093, 5363, 5529, 9, 14, 1526059788.371, 26, 0, 1024, 1024, 1024, 1024, 0, 6, 3833, 3791, 3800, 3806, 3840, 3825, 0, 1, 11201, -89.900, 0.000, -85.400, 0.000, 0.000, -2.900, 0.0, , , , , , 98, , , 0, 0, 0
38.1644246, -120.1139089, 16.700, 10:29:48.471, 16, 0.00, 0.09, 97, 0.500, 0.500, -85.900, 2, 100, 96, 16, 22886, -19093, 5363, 5529, 9, 14, 1526059788.471, 38, 0, 1024, 1024, 1024, 1024, 0, 6, 3833, 3791, 3800, 3806, 3840, 3825, 0, 1, 11301, -89.900, 0.000, -85.400, 0.000, 0.000, -2.900, 0.0, , , , , , 98, , , 0, 0, 0
38.1644246, -120.1139089, 16.700, 10:29:48.571, 16, 0.00, 0.09, 97, 0.500, 0.500, -85.900, 2, 100, 96, 16, 22886, -19093, 5363, 5529, 9, 14, 1526059788.571, 138, 0, 1024, 1024, 1024, 1024, 0, 6, 3833, 3791, 3800, 3806, 3840, 3825, 0, 1, 11401, -89.900, 0.000, -85.400, 0.000, 0.000, -2.900, 0.0, , , , , , 98, , , 0, 0, 0
38.1644246, -120.1139089, 17.300, 10:29:48.671, 16, 0.00, 0.09, 97, 0.400, 0.400, -85.900, 2, 100, 96, 16, 22886, -19093, 5363, 5529, 9, 14, 1526059788.671, 6, 0, 1024, 1024, 1024, 1024, 0, 6, 3833, 3791, 3800, 3806, 3840, 3825, 0, 1, 11501, -89.900, 0.000, -85.400, 0.000, 0.000, -3.000, 0.0, , , , , , 98, , , 0, 0, 0
38.1644246, -120.1139089, 17.300, 10:29:48.770, 16, 0.00, 0.09, 97, 0.400, 0.400, -85.900, 2, 100, 96, 16, 22886, -19093, 5363, 5529, 9, 14, 1526059788.771, 106, 0, 1024, 1024, 1024, 1024, 0, 6, 3833, 3791, 3800, 3806, 3840, 3825, 0, 1, 11601, -89.900, 0.000, -85.400, 0.000, 0.000, -3.000, 0.0, , , , , , 98, , , 0, 0, 0
38.1644246, -120.1139090, 17.600, 10:29:48.870, 16, 0.00, 0.09, 97, 0.200, 0.400, -85.900, 2, 100, 96, 16, 22886, -19093, 5363, 5529, 9, 14, 1526059788.871, 91, 0, 1024, 1024, 1024, 1024, 0, 6, 3833, 3791, 3800, 3806, 3840, 3825, 0, 1, 11701, -89.900, 0.000, -85.400, 0.000, 0.000, -3.000, 0.0, , , , , , 98, , , 0, 0, 0
38.1644247, -120.1139090, 18.200, 10:29:48.971, 16, 0.00, 0.09, 97, 0.300, 0.500, -86.100, 2, 100, 96, 16, 22886, -19093, 5363, 5529, 9, 14, 1526059788.971, 85, 0, 1024, 1024, 1024, 1024, 0, 6, 3833, 3791, 3800, 3806, 3840, 3825, 0, 1, 11801, -89.900, 0.000, -85.400, 0.000, 0.000, -2.900, 0.0, , , , , , 98, , , 0, 0, 0
38.1644246, -120.1139090, 18.500, 10:29:49.071, 17, 0.00, 0.09, 97, 0.400, 0.600, -86.200, 2, 100, 93, 17, 22810, -19565, 5363, 5529, 9, 14, 1526059789.071, 94, 0, 1024, 1024, 1024, 1024, 0, 6, 3825, 3778, 3784, 3787, 3824, 3802, 0, 1, 11901, -89.900, 0.000, -85.400, 0.000, 0.000, -2.900, 0.0, , , , , , 98, , , 0, 0, 0
38.1644246, -120.1139090, 18.800, 10:29:49.171, 17, 0.00, 0.09, 97, 0.500, 0.700, -86.200, 2, 100, 93, 17, 22810, -19565, 5363, 5529, 9, 14, 1526059789.171, 75, 0, 1024, 1024, 1024, 1024, 0, 6, 3825, 3778, 3784, 3787, 3824, 3802, 0, 1, 12001, -89.900, 0.000, -85.400, 0.000, 0.000, -2.900, 0.0, , , , , , 98, , , 0, 0, 0
38.1644246, -120.1139090, 18.800, 10:29:49.270, 17, 0.00, 0.09, 97, 0.500, 0.700, -86.200, 2, 100, 93, 17, 22810, -19565, 5363, 5529, 9, 14, 1526059789.272, 176, 0, 1024, 1024, 1024, 1024, 0, 6, 3825, 3778, 3784, 3787, 3824, 3802, 0, 1, 12102, -89.900, 0.000, -85.400, 0.000, 0.000, -2.900, 0.0, , , , , , 98, , , 0, 0, 0
38.1644245, -120.1139089, 19.400, 10:29:49.370, 16, 0.00, 0.10, 97, 0.500, 0.500, -86.000, 2, 100, 93, 17, 22810, -19565, 5363, 5529, 9, 14, 1526059789.371, 43, 0, 1024, 1024, 1024, 1024, 0, 6, 3825, 3778, 3784, 3787, 3824, 3802, 0, 1, 12201, -89.900, 0.000, -85.400, 0.000, 0.000, -2.900, 0.0, , , , , , 98, , , 0, 0, 0
38.1644245, -120.1139089, 19.700, 10:29:49.471, 15, 0.00, 0.11, 97, 0.500, 0.300, -86.000, 2, 100, 93, 17, 22810, -19565, 5363, 5529, 9, 14, 1526059789.471, 67, 0, 1024, 1024, 1024, 1024, 0, 6, 3825, 3778, 3784, 3787, 3824, 3802, 0, 1, 12301, -89.900, 0.000, -85.400, 0.000, 0.000, -2.900, 0.0, , , , , , 98, , , 0, 0, 0
38.1644245, -120.1139089, 20.000, 10:29:49.571, 15, 0.00, 0.11, 97, 0.500, 0.100, -86.000, 2, 100, 92, 17, 22588, -21262, 5363, 5529, 9, 14, 1526059789.571, 86, 0, 1024, 1024, 1024, 1024, 0, 6, 3781, 3744, 3745, 3753, 3784, 3774, 0, 1, 12401, -89.900, 0.000, -85.400, 0.000, 0.000, -3.000, 0.0, , , , , , 98, , , 0, 0, 0
38.1644244, -120.1139088, 20.300, 10:29:49.671, 15, 0.00, 0.11, 97, 0.500, 0.000, -86.000, 2, 100, 92, 17, 22588, -21262, 5363, 5529, 9, 14, 1526059789.671, 64, 0, 1024, 1024, 1024, 1024, 0, 6, 3781, 3744, 3745, 3753, 3784, 3774, 0, 1, 12501, -89.900, 0.000, -85.400, 0.000, 0.000, -3.000, 0.0, , , , , , 98, , , 0, 0, 0
38.1644244, -120.1139088, 20.600, 10:29:49.770, 15, 0.00, 0.12, 97, 0.700, 0.000, -86.000, 2, 100, 92, 17, 22588, -21262, 5363, 5529, 9, 14, 1526059789.770, 37, 0, 1024, 1024, 1024, 1024, 0, 6, 3781, 3744, 3745, 3753, 3784, 3774, 0, 1, 12600, -89.900, 0.000, -85.400, 0.000, 0.000, -3.000, 0.0, , , , , , 98, , , 0, 0, 0
38.1644244, -120.1139088, 20.900, 10:29:49.871, 15, 0.00, 0.12, 97, 0.900, -0.100, -86.000, 2, 100, 92, 17, 22588, -21262, 5363, 5529, 9, 14, 1526059789.871, 59, 0, 1024, 1024, 1024, 1024, 0, 6, 3781, 3744, 3745, 3753, 3784, 3774, 0, 1, 12701, -89.900, 0.000, -85.400, 0.000, 0.000, -3.000, 0.0, , , , , , 98, , , 0, 0, 0
38.1644243, -120.1139087, 21.200, 10:29:49.971, 15, 0.00, 0.13, 97, 1.200, -0.200, -86.100, 2, 100, 92, 17, 22588, -21262, 5363, 5529, 9, 14, 1526059789.971, 58, 0, 1024, 1024, 1024, 1024, 0, 6, 3781, 3744, 3745, 3753, 3784, 3774, 0, 1, 12801, -89.900, 0.000, -85.400, 0.000, 0.000, -3.000, 0.0, , , , , , 98, , , 0, 0, 0
38.1644243, -120.1139087, 21.200, 10:29:50.071, 15, 0.00, 0.13, 97, 1.200, -0.200, -86.100, 2, 100, 96, 17, 22588, -21262, 5363, 5529, 9, 14, 1526059790.071, 158, 0, 1024, 1024, 1024, 1024, 0, 6, 3781, 3744, 3745, 3753, 3784, 3774, 0, 1, 12901, -89.900, 0.000, -85.400, 0.000, 0.000, -3.000, 0.0, , , , , , 98, , , 0, 0, 0
38.1644242, -120.1139086, 21.800, 10:29:50.171, 15, 0.00, 0.14, 97, 1.100, -0.200, -86.300, 2, 100, 96, 17, 22588, -21262, 5363, 5529, 9, 14, 1526059790.171, 24, 0, 1024, 1024, 1024, 1024, 0, 6, 3781, 3744, 3745, 3753, 3784, 3774, 0, 1, 13001, -89.900, 0.000, -85.400, 0.000, 0.000, -3.000, 0.0, , , , , , 98, , , 0, 0, 0
38.1644242, -120.1139086, 22.100, 10:29:50.270, 16, 0.00, 0.14, 97, 0.600, 0.000, -86.300, 2, 100, 96, 17, 22588, -21262, 5363, 5529, 9, 14, 1526059790.271, 60, 0, 1024, 1024, 1024, 1024, 0, 6, 3781, 3744, 3745, 3753, 3784, 3774, 0, 1, 13101, -89.900, 0.000, -85.400, 0.000, 0.000, -3.000, 0.0, , , , , , 98, , , 0, 0, 0
38.1644242, -120.1139086, 22.100, 10:29:50.371, 16, 0.00, 0.14, 97, 0.600, 0.000, -86.300, 2, 100, 96, 17, 22588, -21262, 5363, 5529, 9, 14, 1526059790.371, 160, 0, 1024, 1024, 1024, 1024, 0, 6, 3781, 3744, 3745, 3753, 3784, 3774, 0, 1, 13201, -89.900, 0.000, -85.400, 0.000, 0.000, -3.000, 0.0, , , , , , 98, , , 0, 0, 0
38.1644242, -120.1139086, 22.700, 10:29:50.470, 15, 0.00, 0.14, 97, 0.400, 0.000, -86.300, 2, 100, 96, 17, 22593, -20695, 5363, 5529, 9, 14, 1526059790.471, 35, 0, 1024, 1024, 1024, 1024, 0, 6, 3781, 3744, 3745, 3753, 3784, 3774, 0, 1, 13301, -89.900, 0.000, -85.400, 0.000, 0.000, -3.000, 0.0, , , , , , 98, , , 0, 0, 0
38.1644242, -120.1139085, 23.000, 10:29:50.571, 15, 0.00, 0.15, 97, 0.400, 0.000, -86.200, 2, 100, 98, 17, 22593, -20695, 5363, 5529, 9, 14, 1526059790.571, 57, 0, 1024, 1024, 1024, 1024, 0, 6, 3781, 3744, 3745, 3753, 3784, 3774, 0, 1, 13401, -90.000, 0.000, -85.400, 0.000, 0.000, -3.000, 0.0, , , , , , 98, , , 0, 0, 0
38.1644242, -120.1139085, 23.300, 10:29:50.671, 16, 0.00, 0.15, 97, 0.600, 0.000, -86.100, 2, 100, 98, 17, 22593, -20695, 5363, 5529, 9, 14, 1526059790.671, 33, 0, 1024, 1024, 1024, 1024, 0, 6, 3781, 3744, 3745, 3753, 3784, 3774, 0, 1, 13501, -89.900, 0.000, -85.400, 0.000, 0.000, -3.000, 0.0, , , , , , 98, , , 0, 0, 0
38.1644241, -120.1139085, 23.600, 10:29:50.771, 16, 0.00, 0.15, 97, 0.700, 0.000, -86.000, 2, 100, 98, 17, 22593, -20695, 5363, 5529, 9, 14, 1526059790.771, 49, 0, 1024, 1024, 1024, 1024, 0, 6, 3781, 3744, 3745, 3753, 3784, 3774, 0, 1, 13601, -89.900, 0.000, -85.400, 0.000, 0.000, -3.000, 0.0, , , , , , 98, , , 0, 0, 0
38.1644241, -120.1139085, 24.000, 10:29:50.871, 16, 0.00, 0.16, 97, 0.800, 0.000, -86.000, 2, 100, 98, 17, 22593, -20695, 5363, 5529, 9, 14, 1526059790.871, 16, 0, 1024, 1024, 1024, 1024, 0, 6, 3781, 3744, 3745, 3753, 3784, 3774, 0, 1, 13701, -89.900, 0.000, -85.400, 0.000, 0.000, -3.000, 0.0, , , , , , 98, , , 0, 0, 0
38.1644240, -120.1139085, 24.300, 10:29:50.971, 16, 0.00, 0.16, 97, 0.800, 0.000, -86.000, 2, 100, 98, 17, 22593, -20695, 5363, 5529, 9, 14, 1526059790.971, 19, 0, 1024, 1024, 1024, 1024, 0, 6, 3780, 3736, 3735, 3748, 3790, 3771, 0, 1, 13801, -89.900, 0.000, -85.400, 0.000, 0.000, -3.000, 0.0, , , , , , 98, , , 0, 0, 0
38.1644240, -120.1139085, 24.300, 10:29:51.070, 16, 0.00, 0.16, 97, 0.800, 0.000, -86.000, 2, 100, 98, 17, 22593, -20695, 5363, 5529, 9, 14, 1526059791.070, 118, 0, 1024, 1024, 1024, 1024, 0, 6, 3780, 3736, 3735, 3748, 3790, 3771, 0, 1, 13900, -89.900, 0.000, -85.400, 0.000, 0.000, -3.000, 0.0, , , , , , 98, , , 0, 0, 0
38.1644240, -120.1139084, 24.800, 10:29:51.171, 16, 0.00, 0.17, 97, 0.800, 0.000, -86.100, 2, 100, 98, 17, 22593, -20695, 5363, 5529, 9, 14, 1526059791.171, 22, 0, 1024, 1024, 1024, 1024, 0, 6, 3780, 3736, 3735, 3748, 3790, 3771, 0, 1, 14001, -89.900, 0.000, -85.400, 0.000, 0.000, -2.900, 0.0, , , , , , 98, , , 0, 0, 0
38.1644240, -120.1139084, 25.100, 10:29:51.273, 16, 0.00, 0.17, 97, 0.700, 0.000, -86.100, 2, 100, 98, 17, 22593, -20695, 5363, 5529, 9, 14, 1526059791.273, 9, 0, 1024, 1024, 1024, 1024, 0, 6, 3780, 3736, 3735, 3748, 3790, 3771, 0, 1, 14103, -89.900, 0.000, -85.400, 0.000, 0.000, -2.900, 0.0, , , , , , 98, , , 0, 0, 0
38.1644240, -120.1139083, 25.400, 10:29:51.374, 16, 0.00, 0.18, 97, 0.900, 0.000, -86.100, 2, 100, 98, 17, 22593, -20695, 5363, 5529, 9, 14, 1526059791.374, 5, 0, 1024, 1024, 1024, 1024, 0, 6, 3780, 3736, 3735, 3748, 3790, 3771, 0, 1, 14204, -89.900, 0.000, -85.400, 0.000, 0.000, -2.900, 0.0, , , , , , 98, , , 0, 0, 0
38.1644239, -120.1139083, 25.700, 10:29:51.473, 16, 0.00, 0.18, 97, 0.800, -0.100, -86.200, 2, 100, 98, 17, 22555, -20695, 5363, 5529, 9, 14, 1526059791.473, 5, 0, 1024, 1024, 1024, 1024, 0, 6, 3780, 3736, 3735, 3748, 3790, 3771, 0, 1, 14304, -90.000, 0.000, -85.400, 0.000, 0.000, -2.900, 0.0, , , , , , 98, , , 0, 0, 0
38.1644239, -120.1139082, 26.000, 10:29:51.585, 16, 0.00, 0.19, 97, 0.600, -0.200, -86.300, 2, 100, 94, 17, 22555, -20695, 5363, 5529, 9, 14, 1526059791.585, 7, 0, 1024, 1024, 1024, 1024, 0, 6, 3780, 3736, 3735, 3748, 3790, 3771, 0, 1, 14416, -90.000, 0.000, -85.400, 0.000, 0.000, -2.900, 0.0, , , , , , 98, , , 0, 0, 0
38.1644239, -120.1139082, 26.000, 10:29:51.671, 16, 0.00, 0.19, 97, 0.600, -0.200, -86.300, 2, 100, 94, 17, 22555, -20695, 5363, 5529, 9, 14, 1526059791.671, 93, 0, 1024, 1024, 1024, 1024, 0, 6, 3780, 3736, 3735, 3748, 3790, 3771, 0, 1, 14501, -90.000, 0.000, -85.400, 0.000, 0.000, -2.900, 0.0, , , , , , 98, , , 0, 0, 0
38.1644239, -120.1139081, 26.600, 10:29:51.771, 16, 0.00, 0.19, 97, 0.700, -0.200, -86.400, 2, 100, 94, 17, 22555, -20695, 5363, 5529, 9, 14, 1526059791.771, 85, 0, 1024, 1024, 1024, 1024, 0, 6, 3780, 3736, 3735, 3748, 3790, 3771, 0, 1, 14601, -89.900, 0.000, -85.400, 0.000, 0.000, -2.900, 0.0, , , , , , 98, , , 0, 0, 0
38.1644239, -120.1139081, 26.900, 10:29:51.871, 16, 0.00, 0.20, 97, 0.700, -0.200, -86.400, 2, 100, 94, 17, 22555, -20695, 5363, 5529, 9, 14, 1526059791.871, 50, 0, 1024, 1024, 1024, 1024, 0, 6, 3780, 3736, 3735, 3748, 3790, 3771, 0, 1, 14701, -89.900, 0.000, -85.400, 0.000, 0.000, -2.900, 0.0, , , , , , 98, , , 0, 0, 0
38.1644239, -120.1139081, 26.900, 10:29:51.971, 16, 0.00, 0.20, 97, 0.700, -0.200, -86.400, 2, 100, 94, 17, 22555, -20695, 5363, 5529, 9, 14, 1526059791.971, 151, 0, 1024, 1024, 1024, 1024, 0, 6, 3780, 3736, 3735, 3748, 3790, 3771, 0, 1, 14801, -90.000, 0.000, -85.400, 0.000, 0.000, -2.900, 0.0, , , , , , 98, , , 0, 0, 0
38.1644238, -120.1139079, 27.500, 10:29:52.071, 16, 0.00, 0.20, 97, 0.900, -0.800, -86.500, 2, 100, 94, 17, 22555, -20569, 5363, 5529, 9, 14, 1526059792.071, 78, 0, 1024, 1024, 1024, 1024, 0, 6, 3778, 3733, 3740, 3750, 3786, 3768, 0, 1, 14901, -90.000, 0.000, -85.400, 0.000, 0.000, -3.000, 0.0, , , , , , 98, , , 0, 0, 0
38.1644239, -120.1139079, 27.800, 10:29:52.171, 16, 0.00, 0.21, 97, 0.600, -0.900, -86.400, 2, 100, 94, 17, 22555, -20569, 5363, 5529, 9, 14, 1526059792.171, 76, 0, 1024, 1024, 1024, 1024, 0, 6, 3778, 3733, 3740, 3750, 3786, 3768, 0, 1, 15001, -90.000, 0.000, -85.400, 0.000, 0.000, -3.000, 0.0, , , , , , 98, , , 0, 0, 0
38.1644239, -120.1139078, 28.100, 10:29:52.271, 16, 0.00, 0.21, 97, 0.300, -1.200, -86.400, 2, 100, 94, 17, 22555, -20569, 5363, 5529, 9, 14, 1526059792.271, 64, 0, 1024, 1024, 1024, 1024, 0, 6, 3778, 3733, 3740, 3750, 3786, 3768, 0, 1, 15101, -90.000, 0.000, -85.400, 0.000, 0.000, -3.000, 0.0, , , , , , 98, , , 0, 0, 0
38.1644239, -120.1139077, 28.400, 10:29:52.371, 16, 0.00, 0.21, 97, 0.100, -1.200, -86.200, 2, 100, 94, 17, 22555, -20569, 5363, 5529, 9, 14, 1526059792.371, 77, 0, 1024, 1024, 1024, 1024, 0, 6, 3778, 3733, 3740, 3750, 3786, 3768, 0, 1, 15201, -90.000, 0.000, -85.400, 0.000, 0.000, -3.000, 0.0, , , , , , 98, , , 0, 0, 0
38.1644239, -120.1139077, 28.700, 10:29:52.471, 16, 0.00, 0.21, 97, 0.100, -1.100, -86.100, 2, 100, 94, 17, 22555, -20569, 5363, 5529, 9, 14, 1526059792.471, 78, 0, 1024, 1024, 1024, 1024, 0, 6, 3778, 3733, 3740, 3750, 3786, 3768, 0, 1, 15301, -90.000, 0.000, -85.400, 0.000, 0.000, -3.000, 0.0, , , , , , 98, , , 0, 0, 0
38.1644239, -120.1139076, 29.000, 10:29:52.571, 16, 0.00, 0.21, 97, 0.200, -1.000, -86.100, 2, 100, 97, 17, 22555, -20569, 5363, 5529, 9, 14, 1526059792.571, 57, 0, 1024, 1024, 1024, 1024, 0, 6, 3778, 3733, 3740, 3750, 3786, 3768, 0, 1, 15401, -90.000, 0.000, -85.400, 0.000, 0.000, -3.000, 0.0, , , , , , 98, , , 0, 0, 0
38.1644239, -120.1139076, 29.300, 10:29:52.671, 16, 0.00, 0.21, 97, 0.200, -0.900, -86.100, 2, 100, 97, 17, 22555, -20569, 5363, 5529, 9, 14, 1526059792.671, 32, 0, 1024, 1024, 1024, 1024, 0, 6, 3778, 3733, 3740, 3750, 3786, 3768, 0, 1, 15501, -89.900, 0.000, -85.400, 0.000, 0.000, -3.000, 0.0, , , , , , 98, , , 0, 0, 0
38.1644239, -120.1139076, 29.700, 10:29:52.771, 16, 0.00, 0.21, 97, 0.100, -0.900, -86.200, 2, 100, 97, 17, 22555, -20569, 5363, 5529, 9, 14, 1526059792.771, 41, 0, 1024, 1024, 1024, 1024, 0, 6, 3778, 3733, 3740, 3750, 3786, 3768, 0, 1, 15601, -90.000, 0.000, -85.400, 0.000, 0.000, -3.000, 0.0, , , , , , 98, , , 0, 0, 0
38.1644240, -120.1139076, 30.000, 10:29:52.871, 16, 0.00, 0.21, 97, 0.000, -1.000, -86.100, 2, 100, 97, 17, 22555, -20569, 5363, 5529, 9, 14, 1526059792.871, 66, 0, 1024, 1024, 1024, 1024, 0, 6, 3778, 3733, 3740, 3750, 3786, 3768, 0, 1, 15701, -90.000, 0.000, -85.400, 0.000, 0.000, -2.900, 0.0, , , , , , 98, , , 0, 0, 0
38.1644239, -120.1139076, 30.300, 10:29:52.970, 16, 0.00, 0.21, 97, 0.100, -0.900, -86.100, 2, 100, 97, 17, 22476, -20861, 5307, 5529, 9, 14, 1526059792.971, 24, 0, 1024, 1024, 1024, 1024, 0, 6, 3756, 3727, 3723, 3732, 3767, 3755, 0, 1, 15801, -89.900, 0.000, -85.400, 0.000, 0.000, -2.900, 0.0, , , , , , 98, , , 0, 0, 0
38.1644239, -120.1139075, 30.600, 10:29:53.070, 16, 0.00, 0.22, 97, 0.200, -0.800, -86.100, 2, 100, 99, 17, 22476, -20861, 5307, 5529, 9, 14, 1526059793.071, 29, 0, 1024, 1024, 1024, 1024, 0, 6, 3756, 3727, 3723, 3732, 3767, 3755, 0, 1, 15901, -89.900, 0.000, -85.400, 0.000, 0.000, -3.000, 0.0, , , , , , 98, , , 0, 0, 0
38.1644239, -120.1139075, 30.900, 10:29:53.171, 16, 0.00, 0.22, 97, 0.600, -0.700, -86.100, 2, 100, 99, 17, 22476, -20861, 5307, 5529, 9, 14, 1526059793.171, 8, 0, 1024, 1024, 1024, 1024, 0, 6, 3756, 3727, 3723, 3732, 3767, 3755, 0, 1, 16001, -90.000, 0.000, -85.400, 0.000, 0.000, -2.900, 0.0, , , , , , 98, , , 0, 0, 0
38.1644239, -120.1139075, 31.200, 10:29:53.271, 17, 0.00, 0.22, 97, 0.800, -0.900, -86.200, 2, 100, 99, 17, 22476, -20861, 5307, 5529, 9, 14, 1526059793.271, 23, 0, 1024, 1024, 1024, 1024, 0, 6, 3756, 3727, 3723, 3732, 3767, 3755, 0, 1, 16101, -90.000, 0.000, -85.400, 0.000, 0.000, -2.900, 0.0, , , , , , 98, , , 0, 0, 0
38.1644238, -120.1139074, 31.500, 10:29:53.371, 17, 0.00, 0.23, 97, 1.000, -1.100, -86.200, 2, 100, 99, 17, 22476, -20861, 5307, 5529, 9, 14, 1526059793.371, 36, 0, 1024, 1024, 1024, 1024, 0, 6, 3756, 3727, 3723, 3732, 3767, 3755, 0, 1, 16201, -90.000, 0.000, -85.400, 0.000, 0.000, -2.900, 0.0, , , , , , 98, , , 0, 0, 0
38.1644238, -120.1139074, 31.800, 10:29:53.470, 17, 0.00, 0.24, 96, 1.000, -1.200, -86.200, 2, 100, 98, 17, 22476, -20861, 5307, 5529, 9, 14, 1526059793.471, 28, 0, 1024, 1024, 1024, 1024, 0, 6, 3756, 3727, 3723, 3732, 3767, 3755, 0, 1, 16301, -90.000, 0.000, -85.400, 0.000, 0.000, -2.900, 0.0, , , , , , 98, , , 0, 0, 0
38.1644238, -120.1139073, 32.100, 10:29:53.570, 17, 0.00, 0.24, 96, 0.900, -1.200, -86.300, 2, 100, 98, 17, 22476, -20861, 5307, 5529, 9, 14, 1526059793.571, 20, 0, 1024, 1024, 1024, 1024, 0, 6, 3756, 3727, 3723, 3732, 3767, 3755, 0, 1, 16401, -90.000, 0.000, -85.400, 0.000, 0.000, -3.000, 0.0, , , , , , 98, , , 0, 0, 0
38.1644238, -120.1139073, 32.400, 10:29:53.671, 17, 0.00, 0.24, 96, 0.800, -1.500, -86.300, 2, 100, 98, 17, 22476, -20861, 5307, 5529, 9, 14, 1526059793.671, 24, 0, 1024, 1024, 1024, 1024, 0, 6, 3756, 3727, 3723, 3732, 3767, 3755, 0, 1, 16501, -90.000, 0.000, -85.400, 0.000, 0.000, -2.900, 0.0, , , , , , 98, , , 0, 0, 0
38.1644238, -120.1139072, 32.700, 10:29:53.771, 17, 0.00, 0.25, 96, 0.700, -1.600, -86.300, 2, 100, 98, 17, 22476, -20861, 5307, 5529, 9, 14, 1526059793.771, 29, 0, 1024, 1024, 1024, 1024, 0, 6, 3756, 3727, 3723, 3732, 3767, 3755, 0, 1, 16601, -89.900, 0.000, -85.400, 0.000, 0.000, -2.900, 0.0, , , , , , 98, , , 0, 0, 0
38.1644238, -120.1139072, 32.700, 10:29:53.871, 17, 0.00, 0.25, 96, 0.700, -1.600, -86.300, 2, 100, 98, 17, 22476, -20861, 5307, 5529, 9, 14, 1526059793.871, 129, 0, 1024, 1024, 1024, 1024, 0, 6, 3756, 3727, 3723, 3732, 3767, 3755, 0, 1, 16701, -89.900, 0.000, -85.400, 0.000, 0.000, -2.900, 0.0, , , , , , 98, , , 0, 0, 0
38.1644237, -120.1139071, 33.300, 10:29:53.970, 17, 0.00, 0.26, 96, 0.800, -1.400, -86.300, 2, 100, 99, 17, 22490, -20450, 5307, 5529, 9, 14, 1526059793.970, 12, 0, 1024, 1024, 1024, 1024, 0, 6, 3756, 3727, 3723, 3732, 3767, 3755, 0, 1, 16800, -89.900, 0.000, -85.400, 0.000, 0.000, -2.800, 0.0, , , , , , 98, , , 0, 0, 0
38.1644237, -120.1139070, 33.600, 10:29:54.076, 17, 0.00, 0.26, 96, 0.800, -1.400, -86.200, 2, 100, 99, 17, 22490, -20450, 5307, 5529, 9, 14, 1526059794.076, 10, 0, 1024, 1024, 1024, 1024, 0, 6, 3770, 3734, 3730, 3745, 3782, 3766, 0, 1, 16907, -89.900, 0.000, -85.400, 0.000, 0.000, -2.900, 0.0, , , , , , 98, , , 0, 0, 0
38.1644237, -120.1139070, 33.600, 10:29:54.171, 17, 0.00, 0.26, 96, 0.800, -1.400, -86.200, 2, 100, 99, 17, 22490, -20450, 5307, 5529, 9, 14, 1526059794.171, 105, 0, 1024, 1024, 1024, 1024, 0, 6, 3770, 3734, 3730, 3745, 3782, 3766, 0, 1, 17001, -90.000, 0.000, -85.400, 0.000, 0.000, -2.900, 0.0, , , , , , 98, , , 0, 0, 0
38.1644238, -120.1139070, 33.900, 10:29:54.271, 17, 0.00, 0.26, 96, 0.800, -1.600, -86.200, 2, 100, 99, 17, 22490, -20450, 5307, 5529, 9, 14, 1526059794.271, 80, 0, 1024, 1024, 1024, 1024, 0, 6, 3770, 3734, 3730, 3745, 3782, 3766, 0, 1, 17101, -90.000, 0.000, -85.400, 0.000, 0.000, -2.900, 0.0, , , , , , 98, , , 0, 0, 0
38.1644237, -120.1139068, 34.400, 10:29:54.371, 17, 0.00, 0.28, 96, 0.800, -2.100, -86.100, 2, 100, 99, 17, 22490, -20450, 5307, 5529, 9, 14, 1526059794.371, 74, 0, 1024, 1024, 1024, 1024, 0, 6, 3770, 3734, 3730, 3745, 3782, 3766, 0, 1, 17201, -90.000, 0.000, -85.400, 0.000, 0.000, -3.000, 0.0, , , , , , 98, , , 0, 0, 0
38.1644237, -120.1139067, 34.700, 10:29:54.471, 17, 0.00, 0.28, 96, 0.800, -2.500, -86.100, 2, 100, 99, 17, 22490, -20450, 5307, 5529, 9, 14, 1526059794.471, 65, 0, 1024, 1024, 1024, 1024, 0, 6, 3770, 3734, 3730, 3745, 3782, 3766, 0, 1, 17301, -90.000, 0.000, -85.400, 0.000, 0.000, -2.900, 0.0, , , , , , 98, , , 0, 0, 0
38.1644237, -120.1139067, 35.000, 10:29:54.570, 17, 0.00, 0.29, 96, 0.600, -2.500, -86.100, 2, 100, 99, 17, 22490, -20450, 5307, 5529, 9, 14, 1526059794.571, 80, 0, 1024, 1024, 1024, 1024, 0, 6, 3770, 3734, 3730, 3745, 3782, 3766, 0, 1, 17401, -90.000, 0.000, -85.400, 0.000, 0.000, -2.900, 0.0, , , , , , 98, , , 0, 0, 0
38.1644238, -120.1139066, 35.300, 10:29:54.671, 16, 0.00, 0.29, 96, 0.500, -2.500, -86.100, 2, 100, 99, 17, 22490, -20450, 5307, 5529, 9, 14, 1526059794.671, 67, 0, 1024, 1024, 1024, 1024, 0, 6, 3770, 3734, 3730, 3745, 3782, 3766, 0, 1, 17501, -89.900, 0.000, -85.400, 0.000, 0.000, -2.900, 0.0, , , , , , 98, , , 0, 0, 0
38.1644238, -120.1139066, 35.600, 10:29:54.770, 16, 0.00, 0.29, 96, 0.600, -2.400, -86.100, 2, 100, 99, 17, 22490, -20450, 5307, 5529, 9, 14, 1526059794.771, 89, 0, 1024, 1024, 1024, 1024, 0, 6, 3770, 3734, 3730, 3745, 3782, 3766, 0, 1, 17601, -89.900, 0.000, -85.400, 0.000, 0.000, -3.000, 0.0, , , , , , 98, , , 0, 0, 0
38.1644238, -120.1139066, 35.900, 10:29:54.871, 17, 0.00, 0.29, 96, 0.700, -2.300, -86.100, 2, 100, 99, 17, 22490, -20450, 5307, 5529, 9, 14, 1526059794.871, 69, 0, 1024, 1024, 1024, 1024, 0, 6, 3770, 3734, 3730, 3745, 3782, 3766, 0, 1, 17701, -89.900, 0.000, -85.400, 0.000, 0.000, -2.900, 0.0, , , , , , 98, , , 0, 0, 0
38.1644238, -120.1139065, 36.200, 10:29:54.971, 17, 0.00, 0.29, 96, 0.600, -2.200, -86.000, 2, 100, 99, 17, 22456, -20741, 5307, 5529, 9, 14, 1526059794.971, 76, 0, 1024, 1024, 1024, 1024, 0, 6, 3755, 3707, 3723, 3727, 3761, 3752, 0, 1, 17801, -89.900, 0.000, -85.400, 0.000, 0.000, -3.000, 0.0, , , , , , 98, , , 0, 0, 0
38.1644238, -120.1139065, 36.500, 10:29:55.070, 17, 0.00, 0.29, 96, 0.600, -2.100, -86.000, 2, 100, 100, 17, 22456, -20741, 5307, 5529, 9, 14, 1526059795.071, 77, 0, 1024, 1024, 1024, 1024, 0, 6, 3755, 3707, 3723, 3727, 3761, 3752, 0, 1, 17901, -89.900, 0.000, -85.400, 0.000, 0.000, -2.900, 0.0, , , , , , 98, , , 0, 0, 0
38.1644238, -120.1139065, 36.800, 10:29:55.170, 17, 0.00, 0.29, 96, 0.600, -2.000, -86.000, 2, 100, 100, 17, 22456, -20741, 5307, 5529, 9, 14, 1526059795.171, 57, 0, 1024, 1024, 1024, 1024, 0, 6, 3755, 3707, 3723, 3727, 3761, 3752, 0, 1, 18001, -90.000, 0.000, -85.400, 0.000, 0.000, -2.900, 0.0, , , , , , 98, , , 0, 0, 0
38.1644238, -120.1139065, 37.100, 10:29:55.271, 17, 0.00, 0.29, 96, 0.700, -2.100, -86.100, 2, 100, 100, 17, 22456, -20741, 5307, 5529, 9, 14, 1526059795.271, 58, 0, 1024, 1024, 1024, 1024, 0, 6, 3755, 3707, 3723, 3727, 3761, 3752, 0, 1, 18101, -90.000, 0.000, -85.400, 0.000, 0.000, -2.900, 0.0, , , , , , 98, , , 0, 0, 0
38.1644239, -120.1139065, 37.400, 10:29:55.371, 17, 0.00, 0.29, 96, 0.600, -2.000, -86.200, 2, 100, 100, 17, 22456, -20741, 5307, 5529, 9, 14, 1526059795.371, 62, 0, 1024, 1024, 1024, 1024, 0, 6, 3755, 3707, 3723, 3727, 3761, 3752, 0, 1, 18201, -89.900, 0.000, -85.400, 0.000, 0.000, -3.000, 0.0, , , , , , 98, , , 0, 0, 0
38.1644239, -120.1139066, 37.700, 10:29:55.470, 17, 0.00, 0.28, 96, 0.400, -1.900, -86.300, 2, 100, 100, 17, 22456, -20741, 5307, 5529, 9, 14, 1526059795.471, 28, 0, 1024, 1024, 1024, 1024, 0, 6, 3755, 3707, 3723, 3727, 3761, 3752, 0, 1, 18301, -90.000, 0.000, -85.400, 0.000, 0.000, -3.000, 0.0, , , , , , 98, , , 0, 0, 0
38.1644239, -120.1139066, 38.000, 10:29:55.571, 17, 0.00, 0.28, 96, 0.200, -2.000, -86.300, 2, 100, 99, 17, 22456, -20741, 5307, 5529, 9, 14, 1526059795.571, 33, 0, 1024, 1024, 1024, 1024, 0, 6, 3755, 3707, 3723, 3727, 3761, 3752, 0, 1, 18401, -90.000, 0.000, -85.400, 0.000, 0.000, -3.000, 0.0, , , , , , 98, , , 0, 0, 0
38.1644240, -120.1139066, 38.300, 10:29:55.670, 17, 0.00, 0.27, 96, 0.400, -2.000, -86.100, 2, 100, 99, 17, 22456, -20741, 5307, 5529, 9, 14, 1526059795.670, 9, 0, 1024, 1024, 1024, 1024, 0, 6, 3755, 3707, 3723, 3727, 3761, 3752, 0, 1, 18500, -90.000, 0.000, -85.400, 0.000, 0.000, -3.000, 0.0, , , , , , 98, , , 0, 0, 0
38.1644240, -120.1139066, 38.600, 10:29:55.770, 17, 0.00, 0.27, 96, 0.300, -2.000, -86.000, 2, 100, 99, 17, 22456, -20741, 5307, 5529, 9, 14, 1526059795.770, 38, 0, 1024, 1024, 1024, 1024, 0, 6, 3755, 3707, 3723, 3727, 3761, 3752, 0, 1, 18600, -90.000, 0.000, -85.400, 0.000, 0.000, -3.000, 0.0, , , , , , 98, , , 0, 0, 0
38.1644240, -120.1139067, 38.900, 10:29:55.871, 17, 0.00, 0.26, 96, 0.300, -2.000, -85.900, 2, 100, 99, 17, 22456, -20741, 5307, 5529, 9, 14, 1526059795.871, 40, 0, 1024, 1024, 1024, 1024, 0, 6, 3755, 3707, 3723, 3727, 3761, 3752, 0, 1, 18701, -89.900, 0.000, -85.400, 0.000, 0.000, -2.900, 0.0, , , , , , 98, , , 0, 0, 0
38.1644241, -120.1139067, 39.200, 10:29:55.971, 17, 0.00, 0.26, 96, 0.300, -1.800, -85.700, 2, 100, 99, 17, 22352, -21453, 5307, 5529, 9, 14, 1526059795.971, 19, 0, 1024, 1024, 1024, 1024, 0, 6, 3755, 3707, 3723, 3727, 3761, 3752, 0, 1, 18801, -89.900, 0.000, -85.400, 0.000, 0.000, -2.900, 0.0, , , , , , 98, , , 0, 0, 0
38.1644241, -120.1139067, 39.500, 10:29:56.071, 17, 0.00, 0.25, 96, 0.100, -1.500, -85.700, 2, 100, 99, 17, 22352, -21453, 5307, 5529, 9, 14, 1526059796.071, 18, 0, 1024, 1024, 1024, 1024, 0, 6, 3755, 3707, 3723, 3727, 3761, 3752, 0, 1, 18901, -89.900, 0.000, -85.400, 0.000, 0.000, -3.000, 0.0, , , , , , 98, , , 0, 0, 0
38.1644241, -120.1139068, 39.800, 10:29:56.170, 17, 0.00, 0.25, 96, 0.100, -1.500, -85.700, 2, 100, 99, 17, 22352, -21453, 5307, 5529, 9, 14, 1526059796.171, 20, 0, 1024, 1024, 1024, 1024, 0, 6, 3755, 3707, 3723, 3727, 3761, 3752, 0, 1, 19001, -89.900, 0.000, -85.400, 0.000, 0.000, -3.000, 0.0, , , , , , 98, , , 0, 0, 0
38.1644242, -120.1139068, 40.100, 10:29:56.271, 17, 0.00, 0.24, 96, 0.000, -1.400, -85.800, 2, 100, 99, 17, 22352, -21453, 5307, 5529, 9, 14, 1526059796.271, 22, 0, 1024, 1024, 1024, 1024, 0, 6, 3755, 3707, 3723, 3727, 3761, 3752, 0, 1, 19101, -89.900, 0.000, -85.400, 0.000, 0.000, -3.000, 0.0, , , , , , 98, , , 0, 0, 0
38.1644242, -120.1139069, 40.500, 10:29:56.370, 17, 0.00, 0.24, 96, -0.300, -1.300, -85.900, 2, 100, 99, 17, 22352, -21453, 5307, 5529, 9, 14, 1526059796.371, 13, 0, 1024, 1024, 1024, 1024, 0, 6, 3755, 3707, 3723, 3727, 3761, 3752, 0, 1, 19201, -89.900, 0.000, -85.400, 0.000, 0.000, -3.000, 0.0, , , , , , 98, , , 0, 0, 0
38.1644243, -120.1139069, 40.700, 10:29:56.470, 17, 0.00, 0.23, 96, -0.500, -1.200, -86.000, 2, 100, 99, 17, 22352, -21453, 5307, 5529, 9, 14, 1526059796.471, 14, 0, 1024, 1024, 1024, 1024, 0, 6, 3742, 3690, 3702, 3710, 3746, 3733, 0, 1, 19301, -89.900, 0.000, -85.400, 0.000, 0.000, -2.900, 0.0, , , , , , 98, , , 0, 0, 0
38.1644243, -120.1139069, 40.700, 10:29:56.571, 17, 0.00, 0.23, 96, -0.500, -1.200, -86.000, 2, 100, 99, 17, 22352, -21453, 5307, 5529, 9, 14, 1526059796.571, 114, 0, 1024, 1024, 1024, 1024, 0, 6, 3742, 3690, 3702, 3710, 3746, 3733, 0, 1, 19401, -89.900, 0.000, -85.400, 0.000, 0.000, -2.900, 0.0, , , , , , 98, , , 0, 0, 0
38.1644244, -120.1139069, 41.300, 10:29:56.671, 17, 0.00, 0.22, 96, -0.600, -1.300, -86.200, 2, 100, 99, 17, 22352, -21453, 5307, 5529, 9, 14, 1526059796.671, 56, 0, 1024, 1024, 1024, 1024, 0, 6, 3742, 3690, 3702, 3710, 3746, 3733, 0, 1, 19501, -89.900, 0.000, -85.400, 0.000, 0.000, -2.900, 0.0, , , , , , 98, , , 0, 0, 0
38.1644244, -120.1139070, 41.600, 10:29:56.771, 17, 0.00, 0.22, 96, -0.400, -1.400, -86.300, 2, 100, 99, 17, 22352, -21453, 5307, 5529, 9, 14, 1526059796.771, 78, 0, 1024, 1024, 1024, 1024, 0, 6, 3742, 3690, 3702, 3710, 3746, 3733, 0, 1, 19601, -89.900, 0.000, -85.400, 0.000, 0.000, -2.900, 0.0, , , , , , 98, , , 0, 0, 0
38.1644244, -120.1139070, 41.600, 10:29:56.871, 17, 0.00, 0.22, 96, -0.400, -1.400, -86.300, 2, 100, 99, 17, 22352, -21453, 5307, 5529, 9, 14, 1526059796.871, 178, 0, 1024, 1024, 1024, 1024, 0, 6, 3742, 3690, 3702, 3710, 3746, 3733, 0, 1, 19701, -89.900, 0.000, -85.400, 0.000, 0.000, -2.900, 0.0, , , , , , 98, , , 0, 0, 0
38.1644244, -120.1139071, 42.200, 10:29:56.971, 17, 0.00, 0.21, 96, -0.100, -1.200, -86.200, 2, 100, 99, 17, 22279, -21453, 5307, 5529, 9, 14, 1526059796.971, 83, 0, 1024, 1024, 1024, 1024, 0, 6, 3742, 3690, 3702, 3710, 3746, 3733, 0, 1, 19801, -89.900, 0.000, -85.400, 0.000, 0.000, -2.800, 0.0, , , , , , 98, , , 0, 0, 0
38.1644245, -120.1139071, 42.500, 10:29:57.071, 17, 0.00, 0.20, 96, -0.100, -1.200, -86.100, 2, 100, 99, 17, 22279, -21453, 5307, 5529, 9, 14, 1526059797.071, 84, 0, 1024, 1024, 1024, 1024, 0, 6, 3742, 3690, 3702, 3710, 3746, 3733, 0, 1, 19901, -89.900, 0.000, -85.400, 0.000, 0.000, -2.800, 0.0, , , , , , 98, , , 0, 0, 0
38.1644245, -120.1139072, 42.700, 10:29:57.170, 17, 0.00, 0.20, 96, -0.200, -1.200, -86.000, 2, 100, 99, 17, 22279, -21453, 5307, 5529, 9, 14, 1526059797.171, 87, 0, 1024, 1024, 1024, 1024, 0, 6, 3742, 3690, 3702, 3710, 3746, 3733, 0, 1, 20001, -89.900, 0.000, -85.400, 0.000, 0.000, -2.900, 0.0, , , , , , 98, , , 0, 0, 0
38.1644245, -120.1139072, 43.000, 10:29:57.271, 17, 0.00, 0.20, 96, -0.200, -1.300, -86.000, 2, 100, 99, 17, 22279, -21453, 5307, 5529, 9, 14, 1526059797.271, 78, 0, 1024, 1024, 1024, 1024, 0, 6, 3742, 3690, 3702, 3710, 3746, 3733, 0, 1, 20101, -89.900, 0.000, -85.400, 0.000, 0.000, -2.900, 0.0, , , , , , 98, , , 0, 0, 0
38.1644245, -120.1139073, 43.300, 10:29:57.371, 17, 0.00, 0.19, 96, -0.200, -1.300, -86.000, 2, 100, 99, 17, 22279, -21453, 5307, 5529, 9, 14, 1526059797.371, 57, 0, 1024, 1024, 1024, 1024, 0, 6, 3742, 3690, 3702, 3710, 3746, 3733, 0, 1, 20201, -89.900, 0.000, -85.400, 0.000, 0.000, -3.000, 0.0, , , , , , 98, , , 0, 0, 0
38.1644245, -120.1139073, 43.700, 10:29:57.471, 17, 0.00, 0.19, 96, 0.000, -1.300, -86.000, 2, 100, 99, 17, 22279, -21697, 5307, 5529, 9, 14, 1526059797.471, 59, 0, 1024, 1024, 1024, 1024, 0, 6, 3733, 3686, 3684, 3710, 3750, 3722, 0, 1, 20301, -89.900, 0.000, -85.400, 0.000, 0.000, -3.100, 0.0, , , , , , 98, , , 0, 0, 0
38.1644245, -120.1139074, 44.000, 10:29:57.571, 17, 0.00, 0.19, 96, 0.000, -1.200, -86.100, 2, 100, 99, 17, 22279, -21697, 5307, 5529, 9, 14, 1526059797.571, 54, 0, 1024, 1024, 1024, 1024, 0, 6, 3733, 3686, 3684, 3710, 3750, 3722, 0, 1, 20401, -89.900, 0.000, -85.400, 0.000, 0.000, -3.000, 0.0, , , , , , 98, , , 0, 0, 0
38.1644245, -120.1139074, 44.300, 10:29:57.671, 17, 0.00, 0.18, 96, 0.000, -1.000, -86.200, 2, 100, 99, 17, 22279, -21697, 5307, 5529, 9, 14, 1526059797.671, 40, 0, 1024, 1024, 1024, 1024, 0, 6, 3733, 3686, 3684, 3710, 3750, 3722, 0, 1, 20501, -89.900, 0.000, -85.400, 0.000, 0.000, -3.000, 0.0, , , , , , 98, , , 0, 0, 0
38.1644245, -120.1139074, 44.600, 10:29:57.771, 17, 0.00, 0.18, 96, -0.200, -1.000, -86.300, 2, 100, 99, 17, 22279, -21697, 5307, 5529, 9, 14, 1526059797.771, 16, 0, 1024, 1024, 1024, 1024, 0, 6, 3733, 3686, 3684, 3710, 3750, 3722, 0, 1, 20601, -89.900, 0.000, -85.400, 0.000, 0.000, -3.000, 0.0, , , , , , 98, , , 0, 0, 0
38.1644245, -120.1139075, 44.900, 10:29:57.871, 17, 0.00, 0.18, 96, -0.200, -1.100, -86.300, 2, 100, 99, 17, 22279, -21697, 5307, 5529, 9, 14, 1526059797.871, 48, 0, 1024, 1024, 1024, 1024, 0, 6, 3733, 3686, 3684, 3710, 3750, 3722, 0, 1, 20701, -89.900, 0.000, -85.400, 0.000, 0.000, -3.000, 0.0, , , , , , 98, , , 0, 0, 0
38.1644246, -120.1139075, 45.200, 10:29:57.972, 17, 0.00, 0.17, 96, -0.200, -1.100, -86.200, 2, 100, 99, 17, 22279, -21697, 5307, 5529, 9, 14, 1526059797.973, 4, 0, 1024, 1024, 1024, 1024, 0, 6, 3733, 3686, 3684, 3710, 3750, 3722, 0, 1, 20803, -89.900, 0.000, -85.400, 0.000, 0.000, -3.000, 0.0, , , , , , 98, , , 0, 0, 0
38.1644246, -120.1139075, 45.500, 10:29:58.070, 17, 0.00, 0.17, 96, -0.200, -1.200, -86.200, 2, 100, 98, 17, 22279, -21697, 5307, 5529, 9, 14, 1526059798.071, 25, 0, 1024, 1024, 1024, 1024, 0, 6, 3733, 3686, 3684, 3710, 3750, 3722, 0, 1, 20901, -90.000, 0.000, -85.400, 0.000, 0.000, -3.000, 0.0, , , , , , 98, , , 0, 0, 0
38.1644246, -120.1139075, 45.800, 10:29:58.171, 17, 0.00, 0.17, 96, -0.100, -1.400, -86.100, 2, 100, 98, 17, 22279, -21697, 5307, 5529, 9, 14, 1526059798.171, 21, 0, 1024, 1024, 1024, 1024, 0, 6, 3733, 3686, 3684, 3710, 3750, 3722, 0, 1, 21001, -89.900, 0.000, -85.400, 0.000, 0.000, -2.900, 0.0, , , , , , 98, , , 0, 0, 0
38.1644246, -120.1139075, 45.800, 10:29:58.271, 17, 0.00, 0.17, 96, -0.100, -1.400, -86.100, 2, 100, 98, 17, 22279, -21697, 5307, 5529, 9, 14, 1526059798.271, 121, 0, 1024, 1024, 1024, 1024, 0, 6, 3733, 3686, 3684, 3710, 3750, 3722, 0, 1, 21101, -89.900, 0.000, -85.400, 0.000, 0.000, -2.900, 0.0, , , , , , 98, , , 0, 0, 0
38.1644246, -120.1139075, 46.400, 10:29:58.378, 17, 0.00, 0.17, 96, -0.100, -1.400, -86.000, 2, 100, 98, 17, 22279, -21697, 5307, 5529, 9, 14, 1526059798.379, 10, 0, 1024, 1024, 1024, 1024, 0, 6, 3733, 3686, 3684, 3710, 3750, 3722, 0, 1, 21209, -90.000, 0.000, -85.400, 0.000, 0.000, -3.000, 0.0, , , , , , 98, , , 0, 0, 0
38.1644246, -120.1139075, 46.400, 10:29:58.471, 17, 0.00, 0.17, 96, -0.100, -1.400, -86.000, 2, 100, 98, 17, 22279, -21697, 5307, 5529, 9, 14, 1526059798.471, 101, 0, 1024, 1024, 1024, 1024, 0, 6, 3733, 3686, 3684, 3710, 3750, 3722, 0, 1, 21301, -90.000, 0.000, -85.400, 0.000, 0.000, -3.000, 0.0, , , , , , 98, , , 0, 0, 0
