latitude,longitude,altitude(feet),ascent(feet),speed(mph),distance(feet),time(millisecond),datetime(utc),satellites,gpslevel,voltage(v),max_altitude(feet),max_ascent(feet),max_speed(mph),max_distance(feet), xSpeed(mph), ySpeed(mph), zSpeed(mph), compass_heading(degrees), pitch(degrees), roll(degrees),isPhoto,isVideo,rc_elevator,rc_aileron,rc_throttle,rc_rudder,gimbal_heading(degrees),gimbal_pitch(degrees),battery_percent,voltageCell1,voltageCell2,voltageCell3,voltageCell4,voltageCell5,voltageCell6,current(A),battery_temperature(f),flycStateRaw,flycState,message
38.164446,-120.1139043,4997.4866648408,0,0,0,2940,2018-05-11 19:15:41,15,0,0,4997.4866648408,0,0,0,0,0,0,271.8, 1.1, -0.4,1,0,1024,1024,1024,1024,273.4,-89.9,100,4.16,4.151,4.146,4.14,4.14,4.144,0,64.4,11,AutoTakeoff,DJI_0896.jpg Starting Mission from Lat/Long: 38.16444/-120.11391 Camera: Zenmuse X3 - Overlap: 90/90 - Active Connection: No
38.1644459,-120.1139042,4997.4866648408,0,0,0.046411418808,3100,2018-05-11 19:15:41,15,0,0,4997.4866648408,0,0,0.046411418808,0,0,0,272, 1.1, -0.1,0,0,1024,1024,1024,1024,273.3,-89.9,100,4.16,4.151,4.146,4.14,4.14,4.144,0,64.4,11,AutoTakeoff,
38.1644458,-120.1139041,4997.4866648408,0,0,0.0928231657,3210,2018-05-11 19:15:41,15,0,0,4997.4866648408,0,0,0.0928231657,0,0,0,272.1, 0.9, 0.1,0,0,1024,1024,1024,1024,273.3,-89.9,100,4.16,4.151,4.146,4.14,4.14,4.144,0,64.4,11,AutoTakeoff,
38.1644457,-120.1139041,4997.4866648408,0,0,0.12357940028,3310,2018-05-11 19:15:41,16,0,0,4997.4866648408,0,0,0.12357940028,0,0,0,272.3, 0.4, 0.3,0,0,1024,1024,1024,1024,273.3,-89.9,100,4.16,4.151,4.146,4.14,4.14,4.144,0,64.4,11,AutoTakeoff,
38.1644456,-120.1139038,4997.8147488408,0.328084,0,0.20462270996,3600,2018-05-11 19:15:41,16,0,0,4997.8147488408,0.328084,0,0.20462270996,0,0,0,272.7, -0.5, 0.8,0,0,1024,1024,1024,1024,273.2,-90,100,4.16,4.151,4.146,4.14,4.14,4.144,0,64.4,11,AutoTakeoff,
38.1644455,-120.1139037,4998.1428328408,0.656168,0,0.2508038138,3700,2018-05-11 19:15:41,16,0,0,4998.1428328408,0.656168,0,0.2508038138,0,0,0,272.8, -0.9, 0.8,0,0,1024,1024,1024,1024,273.2,-90,100,4.16,4.151,4.146,4.14,4.14,4.144,0,64.4,11,AutoTakeoff,
38.1644454,-120.1139036,4998.1428328408,0.656168,0,0.297056768036,3800,2018-05-11 19:15:41,16,0,0,4998.1428328408,0.656168,0,0.297056768036,0,0,0,272.8, -1, 1,0,0,1024,1024,1024,1024,273.2,-90,100,4.16,4.151,4.146,4.14,4.14,4.144,0,64.4,11,AutoTakeoff,
38.1644453,-120.1139036,4998.4709168408,0.984252,0,0.324880915908,3900,2018-05-11 19:15:42,16,0,0,4998.4709168408,0.984252,0,0.324880915908,0,0,0,272.7, -1, 1,0,0,1024,1024,1024,1024,273.1,-89.9,100,4.16,4.151,4.146,4.14,4.14,4.144,0,64.4,11,AutoTakeoff,
38.1644452,-120.1139035,4998.4709168408,0.984252,0,0.3712926628,4000,2018-05-11 19:15:42,15,0,25.07,4998.4709168408,0.984252,0,0.3712926628,0,0,0,272.5, -0.7, 0.8,0,0,1024,1024,1024,1024,273.1,-89.9,100,4.16,4.151,4.146,4.14,4.14,4.144,6.728,64.4,11,AutoTakeoff,
38.1644451,-120.1139035,4998.7990008408,1.312336,0,0.40061024904,4100,2018-05-11 19:15:42,15,0,25.07,4998.7990008408,1.312336,0,0.40061024904,0,0,0,272.4, -0.5, 0.9,0,0,1024,1024,1024,1024,273.1,-89.9,100,4.16,4.151,4.146,4.14,4.14,4.144,6.728,64.4,11,AutoTakeoff,
38.1644451,-120.1139035,4999.1270848408,1.64042,0,0.40061024904,4300,2018-05-11 19:15:42,15,0,25.07,4999.1270848408,1.64042,0,0.40061024904,0,0,-0.223694,272.2, -0.5, 1.5,0,0,1024,1024,1024,1024,273.1,-89.9,100,4.16,4.151,4.146,4.14,4.14,4.144,6.728,64.4,11,AutoTakeoff,
38.1644451,-120.1139035,4999.1270848408,1.64042,0,0.40061024904,4500,2018-05-11 19:15:42,15,0,25.07,4999.1270848408,1.64042,0,0.40061024904,0,0,0,272.1, -0.4, 1.3,0,0,1024,1024,1024,1024,273,-89.9,100,4.16,4.151,4.146,4.14,4.14,4.144,6.728,64.4,11,AutoTakeoff,
38.1644451,-120.1139034,4999.4551688408,1.968504,0,0.41770342544,4610,2018-05-11 19:15:42,16,0,25.07,4999.4551688408,1.968504,0,0.41770342544,0,0,0,271.8, -0.4, 0.8,0,0,1024,1024,1024,1024,273,-89.9,100,4.16,4.151,4.146,4.14,4.14,4.144,6.728,64.4,11,AutoTakeoff,
38.1644451,-120.1139034,4999.4551688408,1.968504,0,0.41770342544,4700,2018-05-11 19:15:42,16,0,25.07,4999.4551688408,1.968504,0,0.41770342544,0,0,0,271.8, -0.4, 0.8,0,0,1024,1024,1024,1024,273,-89.9,100,4.16,4.151,4.146,4.14,4.14,4.144,6.728,64.4,11,AutoTakeoff,
38.1644452,-120.1139033,4999.7832528408,2.296588,0,0.40924541992,4800,2018-05-11 19:15:42,17,0,25.07,4999.7832528408,2.296588,0,0.41770342544,0,0,-0.223694,271.6, -0.5, 0.5,0,0,1024,1024,1024,1024,273,-89.9,100,4.16,4.151,4.146,4.14,4.14,4.144,6.728,64.4,11,AutoTakeoff,
38.1644452,-120.1139033,4999.7832528408,2.296588,0,0.40924541992,4910,2018-05-11 19:15:43,17,0,25.07,4999.7832528408,2.296588,0,0.41770342544,0,0,0,271.6, -0.6, 0.3,0,0,1024,1024,1024,1024,273,-89.9,100,4.16,4.151,4.146,4.14,4.14,4.144,6.728,64.4,11,AutoTakeoff,
38.1644452,-120.1139032,5000.1113368408,2.624672,0,0.4298392526,5000,2018-05-11 19:15:43,16,0,24.1,5000.1113368408,2.624672,0,0.4298392526,0,0,-0.223694,271.6, -0.8, 0.1,0,0,1024,1024,1024,1024,273,-90,100,4.16,4.151,4.146,4.14,4.14,4.144,15.85,64.4,11,AutoTakeoff,
38.1644452,-120.1139032,5000.4394208408,2.952756,0,0.4298392526,5100,2018-05-11 19:15:43,16,0,24.1,5000.4394208408,2.952756,0,0.4298392526,0,0,-0.223694,271.5, -1.1, 0.3,0,0,1024,1024,1024,1024,272.9,-90,100,4.16,4.151,4.146,4.14,4.14,4.144,15.85,64.4,6,P-GPS,
38.1644451,-120.1139031,5000.4394208408,2.952756,0,0.47572836168,5300,2018-05-11 19:15:43,17,0,24.1,5000.4394208408,2.952756,0,0.47572836168,0,0,-0.223694,271.3, -1.3, 0.8,0,0,1024,1024,1024,1024,272.9,-90,100,4.16,4.151,4.146,4.14,4.14,4.144,15.85,64.4,14,Waypoint,
38.1644451,-120.1139031,5000.7675048408,3.28084,0,0.47572836168,5400,2018-05-11 19:15:43,17,0,24.1,5000.7675048408,3.28084,0,0.47572836168,0,0,0,271, -1.1, 0.7,0,0,1024,1024,1024,1024,272.9,-89.9,100,4.16,4.151,4.146,4.14,4.14,4.144,15.85,64.4,14,Waypoint,
38.1644452,-120.1139031,5000.7675048408,3.28084,0,0.45131891208,5500,2018-05-11 19:15:43,16,0,24.1,5000.7675048408,3.28084,0,0.47572836168,0,0,0,270.8, -0.6, 0.2,0,0,1024,1024,1024,1024,272.9,-89.9,100,4.16,4.151,4.146,4.14,4.14,4.144,15.85,64.4,14,Waypoint,
38.1644452,-120.113903,5000.7675048408,3.28084,0,0.47356300728,5600,2018-05-11 19:15:43,16,0,24.1,5000.7675048408,3.28084,0,0.47572836168,0,0,0,270.7, -0.4, 0.1,0,0,1024,1024,1024,1024,272.8,-89.9,100,4.16,4.151,4.146,4.14,4.14,4.144,15.85,64.4,14,Waypoint,
38.1644452,-120.113903,5000.7675048408,3.28084,0,0.47356300728,5700,2018-05-11 19:15:43,16,0,24.1,5000.7675048408,3.28084,0,0.47572836168,0,0,0,270.9, -0.4, 0.3,0,0,1024,1024,1024,1024,272.8,-89.9,100,4.16,4.151,4.146,4.14,4.14,4.144,15.85,64.4,14,Waypoint,
38.1644451,-120.1139029,5001.0955888408,3.608924,0,0.51875657828,5800,2018-05-11 19:15:43,16,0,24.1,5001.0955888408,3.608924,0,0.51875657828,0,0,0,271.1, -0.2, 0.5,0,0,1024,1024,1024,1024,272.7,-89.9,100,4.16,4.151,4.146,4.14,4.14,4.144,15.85,64.4,14,Waypoint,
38.1644451,-120.1139029,5001.0955888408,3.608924,0,0.51875657828,5900,2018-05-11 19:15:44,16,0,24.1,5001.0955888408,3.608924,0,0.51875657828,0,0,-0.223694,271.5, -0.4, 0.8,0,0,1024,1024,1024,1024,272.7,-89.9,100,4.16,4.151,4.146,4.14,4.14,4.144,15.85,64.4,14,Waypoint,
38.1644451,-120.1139029,5001.4236728408,3.937008,0,0.51875657828,6000,2018-05-11 19:15:44,16,0,23.873,5001.4236728408,3.937008,0,0.51875657828,0,0,-0.223694,272.1, -0.5, 1.1,0,0,1024,1024,1024,1024,272.7,-89.9,100,3.984,3.986,4.017,4.005,4.021,4.011,16.689,64.4,14,Waypoint,
38.164445,-120.1139028,5001.7517568408,4.265092,0,0.56415028052,6100,2018-05-11 19:15:44,15,0,23.873,5001.7517568408,4.265092,0,0.56415028052,0,0,-0.223694,272.4, -0.8, 0.8,0,0,1024,1024,1024,1024,272.7,-90,100,3.984,3.986,4.017,4.005,4.021,4.011,16.689,64.4,14,Waypoint,
38.1644451,-120.1139027,5002.4079248408,4.92126,0,0.56434056924,6210,2018-05-11 19:15:44,15,0,23.873,5002.4079248408,4.92126,0,0.56434056924,0,0,-0.223694,272.6, -1.1, 0.8,0,0,1024,1024,1024,1024,272.7,-89.9,100,3.984,3.986,4.017,4.005,4.021,4.011,16.689,64.4,14,Waypoint,
38.1644451,-120.1139027,5002.4079248408,4.92126,0,0.56434056924,6300,2018-05-11 19:15:44,15,0,23.873,5002.4079248408,4.92126,0,0.56434056924,0,0,-0.223694,272.6, -1.1, 0.8,0,0,1024,1024,1024,1024,272.7,-89.9,100,3.984,3.986,4.017,4.005,4.021,4.011,16.689,64.4,14,Waypoint,
38.1644451,-120.1139025,5002.7360088408,5.249344,0,0.61191274924,6400,2018-05-11 19:15:44,15,0,23.873,5002.7360088408,5.249344,0,0.61191274924,0,0,-0.223694,272.6, -1.3, 0.9,0,0,1024,1024,1024,1024,272.7,-89.9,100,3.984,3.986,4.017,4.005,4.021,4.011,16.689,64.4,14,Waypoint,
38.1644452,-120.1139024,5003.3921768408,5.905512,0,0.61826773632,6500,2018-05-11 19:15:44,15,0,23.873,5003.3921768408,5.905512,0,0.61826773632,0,0,-0.447388,272.3, -1.4, 0.6,0,0,1024,1024,1024,1024,272.7,-90,100,3.984,3.986,4.017,4.005,4.021,4.011,16.689,64.4,14,Waypoint,
38.1644453,-120.1139021,5004.3764288408,6.889764,0,0.68081038924,6600,2018-05-11 19:15:44,15,0,23.873,5004.3764288408,6.889764,0,0.68081038924,0,0,-0.447388,271.7, -1.5, 0.7,0,0,1024,1024,1024,1024,272.7,-90,100,3.984,3.986,4.017,4.005,4.021,4.011,16.689,64.4,14,Waypoint,
38.1644456,-120.1139018,5007.0011008408,9.514436,0,0.73184713628,6800,2018-05-11 19:15:44,16,0,23.873,5007.0011008408,9.514436,0,0.73184713628,0,0,-0.671082,272.1, -1.2, -0.5,0,0,1024,1024,1024,1024,272.7,-89.9,100,3.984,3.986,4.017,4.005,4.021,4.011,16.689,64.4,14,Waypoint,
38.1644459,-120.1139017,5008.9696048408,11.48294,0,0.74672574568,6900,2018-05-11 19:15:45,16,0,23.873,5008.9696048408,11.48294,0,0.74672574568,0,0,-0.671082,272.7, -2, -0.4,0,0,1024,1024,1024,1024,272.7,-90,100,3.984,3.986,4.017,4.005,4.021,4.011,16.689,64.4,14,Waypoint,
38.164446,-120.1139016,5009.9538568408,12.467192,0,0.77452102216,7020,2018-05-11 19:15:45,16,0,23.775,5009.9538568408,12.467192,0,0.77452102216,0,0,-0.671082,272.8, -2.1, -0.7,0,0,1024,1024,1024,1024,272.7,-89.9,100,3.898,3.878,3.95,3.935,3.967,3.928,17.618,64.4,14,Waypoint,
38.1644461,-120.1139015,5011.2661928408,13.779528,0,0.8040354588,7100,2018-05-11 19:15:45,16,0,23.775,5011.2661928408,13.779528,0,0.8040354588,0,0,-0.671082,272.7, -1.9, -1,0,0,1024,1024,1024,1024,272.7,-89.9,100,3.898,3.878,3.95,3.935,3.967,3.928,17.618,64.4,14,Waypoint,
38.1644462,-120.1139014,5013.2346968408,15.748032,0,0.83508532856,7300,2018-05-11 19:15:45,15,0,23.775,5013.2346968408,15.748032,0,0.83508532856,0,0,-0.671082,272.4, -1.8, -1.1,0,0,1024,1024,1024,1024,272.7,-90,100,3.898,3.878,3.95,3.935,3.967,3.928,17.618,64.4,14,Waypoint,
38.1644463,-120.1139014,5014.2189488408,16.732284,0,0.83906170664,7400,2018-05-11 19:15:45,15,0,23.775,5014.2189488408,16.732284,0,0.83906170664,0,0,-0.671082,272.1, -1.8, -1,0,0,1024,1024,1024,1024,272.7,-89.9,100,3.898,3.878,3.95,3.935,3.967,3.928,17.618,64.4,14,Waypoint,
38.1644464,-120.1139014,5015.5312848408,18.04462,0,0.84459648372,7500,2018-05-11 19:15:45,14,0,23.775,5015.5312848408,18.04462,0,0.84459648372,0,0,-0.671082,271.7, -1.8, -0.9,0,0,1024,1024,1024,1024,272.7,-89.9,100,3.898,3.878,3.95,3.935,3.967,3.928,17.618,64.4,14,Waypoint,
38.1644464,-120.1139015,5016.5155368408,19.028872,0,0.81635829384,7600,2018-05-11 19:15:45,14,0,23.775,5016.5155368408,19.028872,0,0.84459648372,0,0,-0.671082,271.6, -1.8, -0.6,0,0,1024,1024,1024,1024,272.7,-90,100,3.898,3.878,3.95,3.935,3.967,3.928,17.618,64.4,14,Waypoint,
38.1644464,-120.1139016,5017.8278728408,20.341208,0,0.78814963152,7800,2018-05-11 19:15:45,15,0,23.775,5017.8278728408,20.341208,0,0.84459648372,0,0,-0.671082,271.6, -1.6, -0.7,0,0,1024,1024,1024,1024,272.7,-89.9,100,3.898,3.878,3.95,3.935,3.967,3.928,17.618,64.4,14,Waypoint,
38.1644463,-120.1139017,5019.7963768408,22.309712,0,0.7538222026,7900,2018-05-11 19:15:46,15,0,23.775,5019.7963768408,22.309712,0,0.84459648372,0,0,-0.671082,272.5, -0.5, 0,0,0,1024,1024,1024,1024,272.7,-89.9,100,3.898,3.878,3.95,3.935,3.967,3.928,17.618,64.4,14,Waypoint,
38.1644462,-120.1139018,5020.7806288408,23.293964,0,0.7208497606,8100,2018-05-11 19:15:46,15,0,23.775,5020.7806288408,23.293964,0,0.84459648372,0,0,-0.671082,272.9, 0, 0.4,0,0,1024,1024,1024,1024,272.7,-89.9,100,3.898,3.878,3.95,3.935,3.967,3.928,17.618,64.4,14,Waypoint,
38.164446,-120.113902,5022.0929648408,24.6063,0,0.659776924,8200,2018-05-11 19:15:46,18,0,23.775,5022.0929648408,24.6063,0,0.84459648372,0,0,-0.671082,273, 0, 0.7,0,0,1024,1024,1024,1024,272.7,-89.9,100,3.898,3.878,3.95,3.935,3.967,3.928,17.618,64.4,14,Waypoint,
38.1644459,-120.1139022,5023.0772168408,25.590552,0,0.60350723716,8300,2018-05-11 19:15:46,18,0,23.775,5023.0772168408,25.590552,0,0.84459648372,0,0,-0.671082,272.9, 0, 1,0,0,1024,1024,1024,1024,272.7,-89.9,100,3.898,3.878,3.95,3.935,3.967,3.928,17.618,64.4,14,Waypoint,
38.1644457,-120.1139023,5024.0614688408,26.574804,0,0.58406497932,8400,2018-05-11 19:15:46,16,0,23.775,5024.0614688408,26.574804,0,0.84459648372,0,0,-0.671082,272.8, -0.2, 1.2,0,0,1024,1024,1024,1024,272.7,-89.9,100,3.898,3.878,3.95,3.935,3.967,3.928,17.618,64.4,14,Waypoint,
38.1644456,-120.1139025,5025.0457208408,27.559056,0,0.53657482032,8500,2018-05-11 19:15:46,16,0,23.775,5025.0457208408,27.559056,0,0.84459648372,0,0,-0.671082,272.6, -0.3, 1.1,0,0,1024,1024,1024,1024,272.7,-89.9,100,3.898,3.878,3.95,3.935,3.967,3.928,17.618,64.4,14,Waypoint,
38.1644455,-120.1139026,5026.0299728408,28.543308,0,0.52066602716,8600,2018-05-11 19:15:46,17,0,23.775,5026.0299728408,28.543308,0,0.84459648372,0,0,-0.671082,272.4, -0.3, 0.9,0,0,1024,1024,1024,1024,272.7,-89.9,100,3.898,3.878,3.95,3.935,3.967,3.928,17.618,64.4,14,Waypoint,
38.1644454,-120.1139028,5027.0142248408,29.52756,0,0.48277232516,8700,2018-05-11 19:15:46,17,0,23.775,5027.0142248408,29.52756,0,0.84459648372,0,0,-0.671082,272.4, -0.2, 0.5,0,0,1024,1024,1024,1024,272.7,-89.9,100,3.898,3.878,3.95,3.935,3.967,3.928,17.618,64.4,14,Waypoint,
38.1644453,-120.113903,5029.3108128408,31.824148,0,0.45198820344,8800,2018-05-11 19:15:46,17,0,23.775,5029.3108128408,31.824148,0,0.84459648372,0,0,-0.671082,272.7, 0, 0,0,0,1024,1024,1024,1024,272.7,-89.9,100,3.898,3.878,3.95,3.935,3.967,3.928,17.618,64.4,14,Waypoint,
38.1644453,-120.1139032,5030.2950648408,32.8084,0,0.40594817572,9000,2018-05-11 19:15:47,17,0,23.155,5030.2950648408,32.8084,0,0.84459648372,0,0,-0.671082,272.7, 0.2, -0.1,0,0,1024,1024,1024,1024,272.7,-89.9,98,3.807,3.809,3.867,3.868,3.88,3.825,19.372,64.4,14,Waypoint,
38.1644453,-120.1139035,5032.2635688408,34.776904,0,0.34335302936,9100,2018-05-11 19:15:47,17,0,23.155,5032.2635688408,34.776904,0,0.84459648372,0,0,-0.671082,272.6, 0.4, 0.4,0,0,1024,1024,1024,1024,272.7,-89.9,98,3.807,3.809,3.867,3.868,3.88,3.825,19.372,64.4,14,Waypoint,
38.1644452,-120.1139036,5033.2478208408,35.761156,0,0.3542815074,9200,2018-05-11 19:15:47,17,0,23.155,5033.2478208408,35.761156,0,0.84459648372,0,0,-0.671082,272.6, 0.7, 0.9,0,0,1024,1024,1024,1024,272.7,-89.9,98,3.807,3.809,3.867,3.868,3.88,3.825,19.372,64.4,14,Waypoint,
38.1644451,-120.1139037,5034.2320728408,36.745408,0,0.37073820084,9300,2018-05-11 19:15:47,17,0,23.155,5034.2320728408,36.745408,0,0.84459648372,0,0,-0.671082,272.6, 0.9, 1.2,0,0,1024,1024,1024,1024,272.7,-89.9,98,3.807,3.809,3.867,3.868,3.88,3.825,19.372,64.4,14,Waypoint,
38.1644451,-120.1139039,5035.5444088408,38.057744,0,0.3478346568,9400,2018-05-11 19:15:47,17,0,23.155,5035.5444088408,38.057744,0,0.84459648372,0,0,-0.671082,272.7, 0.6, 1.1,0,0,1024,1024,1024,1024,272.7,-89.9,98,3.807,3.809,3.867,3.868,3.88,3.825,19.372,64.4,14,Waypoint,
38.164445,-120.113904,5036.5286608408,39.041996,0,0.37486221672,9500,2018-05-11 19:15:47,17,0,23.155,5036.5286608408,39.041996,0,0.84459648372,0,0,-0.671082,272.8, 0.4, 0.8,0,0,1024,1024,1024,1024,272.7,-89.9,98,3.807,3.809,3.867,3.868,3.88,3.825,19.372,64.4,14,Waypoint,
38.164445,-120.113904,5037.5129128408,40.026248,0,0.37486221672,9600,2018-05-11 19:15:47,17,0,23.155,5037.5129128408,40.026248,0,0.84459648372,0,0,-0.671082,272.9, 0.5, 0.5,0,0,1024,1024,1024,1024,272.7,-89.9,98,3.807,3.809,3.867,3.868,3.88,3.825,19.372,64.4,14,Waypoint,
38.164445,-120.113904,5038.4971648408,41.0105,0,0.37486221672,9700,2018-05-11 19:15:47,18,0,23.155,5038.4971648408,41.0105,0,0.84459648372,0,0,-0.671082,272.9, 0.4, 0.4,0,0,1024,1024,1024,1024,272.7,-89.9,98,3.807,3.809,3.867,3.868,3.88,3.825,19.372,64.4,14,Waypoint,
38.1644449,-120.1139041,5039.4814168408,41.994752,0,0.4054133988,9800,2018-05-11 19:15:47,18,0,23.155,5039.4814168408,41.994752,0,0.84459648372,0,0,-0.671082,272.9, 0.2, 0.4,0,0,1024,1024,1024,1024,272.7,-89.9,98,3.807,3.809,3.867,3.868,3.88,3.825,19.372,64.4,14,Waypoint,
38.1644449,-120.1139042,5040.4656688408,42.979004,0,0.40235893676,9900,2018-05-11 19:15:48,18,0,23.155,5040.4656688408,42.979004,0,0.84459648372,0,0,-0.671082,272.8, 0.1, 0.4,0,0,1024,1024,1024,1024,272.7,-89.9,98,3.807,3.809,3.867,3.868,3.88,3.825,19.372,64.4,14,Waypoint,
38.1644449,-120.1139042,5041.4499208408,43.963256,0,0.40235893676,10020,2018-05-11 19:15:48,18,0,23.155,5041.4499208408,43.963256,0,0.84459648372,0,0,-0.671082,272.7, 0, 0.3,0,0,1024,1024,1024,1024,272.7,-89.9,98,3.871,3.861,3.906,3.879,3.905,3.89,19.372,64.4,14,Waypoint,
38.1644449,-120.1139042,5041.4499208408,43.963256,0,0.40235893676,10100,2018-05-11 19:15:48,18,0,23.155,5041.4499208408,43.963256,0,0.84459648372,0,0,-0.671082,272.7, 0, 0.3,0,0,1024,1024,1024,1024,272.7,-89.9,98,3.871,3.861,3.906,3.879,3.905,3.89,19.372,64.4,14,Waypoint,
38.1644449,-120.1139042,5042.4341728408,44.947508,0,0.40235893676,10200,2018-05-11 19:15:48,18,0,23.155,5042.4341728408,44.947508,0,0.84459648372,0,0,-0.671082,272.4, 0, 0.3,0,0,1024,1024,1024,1024,272.7,-89.9,98,3.871,3.861,3.906,3.879,3.905,3.89,19.372,64.4,14,Waypoint,
38.1644449,-120.1139042,5043.7465088408,46.259844,0,0.40235893676,10300,2018-05-11 19:15:48,18,0,23.155,5043.7465088408,46.259844,0,0.84459648372,0,0,-0.671082,272.2, 0, 0,0,0,1024,1024,1024,1024,272.7,-89.9,98,3.871,3.861,3.906,3.879,3.905,3.89,19.372,64.4,14,Waypoint,
38.164445,-120.1139043,5044.7307608408,47.244096,0,0.36484909304,10400,2018-05-11 19:15:48,18,0,23.155,5044.7307608408,47.244096,0,0.84459648372,0,0,-0.671082,272.1, 0, 0,0,0,1024,1024,1024,1024,272.7,-89.9,98,3.871,3.861,3.906,3.879,3.905,3.89,19.372,64.4,14,Waypoint,
38.164445,-120.1139043,5045.7150128408,48.228348,0,0.36484909304,10500,2018-05-11 19:15:48,18,0,23.155,5045.7150128408,48.228348,0,0.84459648372,0,0,-0.671082,272.2, 0.1, 0.2,0,0,1024,1024,1024,1024,272.7,-89.9,98,3.871,3.861,3.906,3.879,3.905,3.89,19.372,64.4,14,Waypoint,
38.1644449,-120.1139044,5046.6992648408,49.2126,0,0.40235893676,10600,2018-05-11 19:15:48,18,0,23.155,5046.6992648408,49.2126,0,0.84459648372,0,0,-0.671082,272.2, 0.4, 0.3,0,0,1024,1024,1024,1024,272.7,-89.9,98,3.871,3.861,3.906,3.879,3.905,3.89,19.372,64.4,14,Waypoint,
38.1644449,-120.1139044,5047.6835168408,50.196852,0,0.40235893676,10700,2018-05-11 19:15:48,18,0,23.155,5047.6835168408,50.196852,0,0.84459648372,0,0,-0.671082,272.3, 0.4, 0.3,0,0,1024,1024,1024,1024,272.7,-89.9,98,3.871,3.861,3.906,3.879,3.905,3.89,19.372,64.4,14,Waypoint,
38.1644449,-120.1139043,5048.6677688408,51.181104,0,0.40133531468,10800,2018-05-11 19:15:48,18,0,23.155,5048.6677688408,51.181104,0,0.84459648372,0,0,-0.671082,272.4, 0.2, 0.4,0,0,1024,1024,1024,1024,272.7,-89.9,98,3.871,3.861,3.906,3.879,3.905,3.89,19.372,64.4,14,Waypoint,
38.1644449,-120.1139043,5049.6520208408,52.165356,0,0.40133531468,10900,2018-05-11 19:15:49,18,0,23.155,5049.6520208408,52.165356,0,0.84459648372,0,0,-0.671082,272.5, 0.1, 0.5,0,0,1024,1024,1024,1024,272.7,-89.9,98,3.871,3.861,3.906,3.879,3.905,3.89,19.372,64.4,14,Waypoint,
38.1644449,-120.1139042,5050.6362728408,53.149608,0,0.40235893676,11000,2018-05-11 19:15:49,18,0,23.259,5050.6362728408,53.149608,0,0.84459648372,0,0,-0.671082,272.6, 0, 0.7,0,0,1024,1024,1024,1024,272.7,-90,98,3.853,3.842,3.902,3.88,3.903,3.89,19.806,64.4,14,Waypoint,
38.1644449,-120.1139041,5051.6205248408,54.13386,0,0.4054133988,11100,2018-05-11 19:15:49,18,0,23.259,5051.6205248408,54.13386,0,0.84459648372,0,0,-0.671082,272.6, -0.3, 0.7,0,0,1024,1024,1024,1024,272.7,-90,98,3.853,3.842,3.902,3.88,3.903,3.89,19.806,64.4,14,Waypoint,
38.1644449,-120.113904,5052.6047768408,55.118112,0,0.41045604988,11200,2018-05-11 19:15:49,18,0,23.259,5052.6047768408,55.118112,0,0.84459648372,0,0,-0.671082,272.6, -0.8, 0.6,0,0,1024,1024,1024,1024,272.7,-90,98,3.853,3.842,3.902,3.88,3.903,3.89,19.806,64.4,14,Waypoint,
38.1644449,-120.1139039,5053.5890288408,56.102364,0,0.41741471152,11300,2018-05-11 19:15:49,18,0,23.259,5053.5890288408,56.102364,0,0.84459648372,0,0,-0.671082,272.6, -0.9, 0.8,0,0,1024,1024,1024,1024,272.7,-89.9,98,3.853,3.842,3.902,3.88,3.903,3.89,19.806,64.4,14,Waypoint,
38.164445,-120.1139038,5055.5575328408,58.070868,0,0.39203085244,11400,2018-05-11 19:15:49,18,0,23.259,5055.5575328408,58.070868,0,0.84459648372,0,0,-0.671082,273, -0.4, 0.7,0,0,1024,1024,1024,1024,272.7,-89.9,98,3.853,3.842,3.902,3.88,3.903,3.89,19.806,64.4,14,Waypoint,
38.164445,-120.1139036,5056.5417848408,59.05512,0,0.41645670624,11500,2018-05-11 19:15:49,18,0,23.259,5056.5417848408,59.05512,0,0.84459648372,0,0,-0.671082,273.1, -0.7, 0.3,0,0,1024,1024,1024,1024,272.7,-90,98,3.853,3.842,3.902,3.88,3.903,3.89,19.806,64.4,14,Waypoint,
38.1644451,-120.1139035,5057.5260368408,60.039372,0,0.40061024904,11600,2018-05-11 19:15:49,18,0,23.259,5057.5260368408,60.039372,0,0.84459648372,0,0,-0.671082,273.2, -1, -0.1,0,0,1024,1024,1024,1024,272.7,-90,98,3.853,3.842,3.902,3.88,3.903,3.89,19.806,64.4,14,Waypoint,
38.1644451,-120.1139034,5058.5102888408,61.023624,0,0.41770342544,11700,2018-05-11 19:15:49,18,0,23.259,5058.5102888408,61.023624,0,0.84459648372,0,0,-0.671082,273.1, -1, -0.2,0,0,1024,1024,1024,1024,272.7,-90,98,3.853,3.842,3.902,3.88,3.903,3.89,19.806,64.4,14,Waypoint,
38.1644452,-120.1139033,5059.4945408408,62.007876,0,0.40924541992,11800,2018-05-11 19:15:49,18,0,23.259,5059.4945408408,62.007876,0,0.84459648372,0,0,-0.671082,273, -1.2, -0.5,0,0,1024,1024,1024,1024,272.7,-90,98,3.853,3.842,3.902,3.88,3.903,3.89,19.806,64.4,14,Waypoint,
38.1644453,-120.1139032,5060.4787928408,62.992128,0,0.40594817572,11900,2018-05-11 19:15:50,18,0,23.259,5060.4787928408,62.992128,0,0.84459648372,0,0,-0.671082,272.9, -1.4, -0.7,0,0,1024,1024,1024,1024,272.7,-90,98,3.853,3.842,3.902,3.88,3.903,3.89,19.806,64.4,14,Waypoint,
38.1644453,-120.1139031,5061.4630448408,63.97638,0,0.42862862264,12020,2018-05-11 19:15:50,18,0,23.301,5061.4630448408,63.97638,0,0.84459648372,0,0,-0.671082,272.9, -1.5, -0.6,0,0,1024,1024,1024,1024,272.7,-90,98,3.861,3.856,3.904,3.892,3.906,3.89,19.359,64.4,14,Waypoint,
38.1644453,-120.113903,5062.4472968408,64.960632,0,0.45198820344,12100,2018-05-11 19:15:50,18,0,23.301,5062.4472968408,64.960632,0,0.84459648372,0,0,-0.671082,272.9, -1.4, -0.3,0,0,1024,1024,1024,1024,272.7,-89.9,98,3.861,3.856,3.904,3.892,3.906,3.89,19.359,64.4,14,Waypoint,
38.1644453,-120.113903,5063.4315488408,65.944884,0,0.45198820344,12200,2018-05-11 19:15:50,18,0,23.301,5063.4315488408,65.944884,0,0.84459648372,0,0,-0.671082,272.9, -1.1, -0.2,0,0,1024,1024,1024,1024,272.7,-89.9,98,3.861,3.856,3.904,3.892,3.906,3.89,19.359,64.4,14,Waypoint,
38.1644454,-120.1139029,5064.4158008408,66.929136,0,0.45739174692,12300,2018-05-11 19:15:50,19,0,23.301,5064.4158008408,66.929136,0,0.84459648372,0,0,-0.671082,272.9, -0.8, -0.1,0,0,1024,1024,1024,1024,272.7,-89.9,98,3.861,3.856,3.904,3.892,3.906,3.89,19.359,64.4,14,Waypoint,
38.1644454,-120.1139028,5065.0719688408,67.585304,0,0.48277232516,12500,2018-05-11 19:15:50,19,0,23.301,5065.0719688408,67.585304,0,0.84459648372,0,0,-0.671082,272.8, -0.9, 0,0,0,1024,1024,1024,1024,272.7,-89.9,98,3.861,3.856,3.904,3.892,3.906,3.89,19.359,64.4,14,Waypoint,
38.1644454,-120.1139027,5066.0562208408,68.569556,0,0.50850723412,12600,2018-05-11 19:15:50,19,0,23.301,5066.0562208408,68.569556,0,0.84459648372,0,0,-0.671082,272.8, -1.1, 0,0,0,1024,1024,1024,1024,272.7,-89.9,98,3.861,3.856,3.904,3.892,3.906,3.89,19.359,64.4,14,Waypoint,
38.1644455,-120.1139026,5067.0404728408,69.553808,0,0.52066602716,12700,2018-05-11 19:15:50,19,0,23.301,5067.0404728408,69.553808,0,0.84459648372,0,0,-0.671082,272.7, -1.2, 0,0,0,1024,1024,1024,1024,272.7,-89.9,98,3.861,3.856,3.904,3.892,3.906,3.89,19.359,64.4,14,Waypoint,
38.1644455,-120.1139025,5068.0247248408,70.53806,0,0.54762468944,12800,2018-05-11 19:15:50,19,0,23.301,5068.0247248408,70.53806,0,0.84459648372,0,0,-0.671082,272.5, -1.2, -0.5,0,0,1024,1024,1024,1024,272.7,-89.9,98,3.861,3.856,3.904,3.892,3.906,3.89,19.359,64.4,14,Waypoint,
38.1644456,-120.1139024,5069.0089768408,71.522312,0,0.56423230152,12900,2018-05-11 19:15:51,19,0,23.301,5069.0089768408,71.522312,0,0.84459648372,0,0,-0.671082,272.2, -1.5, -0.8,0,0,1024,1024,1024,1024,272.7,-90,98,3.861,3.856,3.904,3.892,3.906,3.89,19.359,64.4,14,Waypoint,
38.1644456,-120.1139024,5069.9932288408,72.506564,0,0.56423230152,13000,2018-05-11 19:15:51,19,0,23.273,5069.9932288408,72.506564,0,0.84459648372,0,0,-0.671082,272, -1.7, -0.8,0,0,1024,1024,1024,1024,272.7,-90,98,3.857,3.844,3.901,3.89,3.903,3.871,19.269,64.4,14,Waypoint,
38.1644457,-120.1139023,5070.9774808408,73.490816,0,0.58406497932,13100,2018-05-11 19:15:51,19,0,23.273,5070.9774808408,73.490816,0,0.84459648372,0,0,-0.671082,271.9, -1.7, -0.4,0,0,1024,1024,1024,1024,272.7,-89.9,98,3.857,3.844,3.901,3.89,3.903,3.871,19.269,64.4,14,Waypoint,
38.1644457,-120.1139022,5071.9617328408,74.475068,0,0.61226707996,13200,2018-05-11 19:15:51,19,0,23.273,5071.9617328408,74.475068,0,0.84459648372,0,0,-0.671082,271.9, -1.7, 0,0,0,1024,1024,1024,1024,272.7,-90,98,3.857,3.844,3.901,3.89,3.903,3.871,19.269,64.4,14,Waypoint,
38.1644456,-120.1139021,5072.9459848408,75.45932,0,0.64774608372,13300,2018-05-11 19:15:51,19,0,23.273,5072.9459848408,75.45932,0,0.84459648372,0,0,-0.671082,272, -1.7, 0.1,0,0,1024,1024,1024,1024,272.7,-90,98,3.857,3.844,3.901,3.89,3.903,3.871,19.269,64.4,14,Waypoint,
38.1644456,-120.113902,5073.9302368408,76.443572,0,0.67572508724,13400,2018-05-11 19:15:51,18,0,23.273,5073.9302368408,76.443572,0,0.84459648372,0,0,-0.671082,272.2, -1.8, 0.4,0,0,1024,1024,1024,1024,272.7,-89.9,98,3.857,3.844,3.901,3.89,3.903,3.871,19.269,64.4,14,Waypoint,
38.1644456,-120.1139019,5074.9144888408,77.427824,0,0.70375986504,13500,2018-05-11 19:15:51,18,0,23.273,5074.9144888408,77.427824,0,0.84459648372,0,0,-0.671082,272.4, -1.7, 0.6,0,0,1024,1024,1024,1024,272.7,-89.9,98,3.857,3.844,3.901,3.89,3.903,3.871,19.269,64.4,14,Waypoint,
38.1644456,-120.1139018,5076.8829928408,79.396328,0,0.73184713628,13600,2018-05-11 19:15:51,18,0,23.273,5076.8829928408,79.396328,0,0.84459648372,0,0,-0.671082,272.5, -1.7, 0.2,0,0,1024,1024,1024,1024,272.7,-90,98,3.857,3.844,3.901,3.89,3.903,3.871,19.269,64.4,14,Waypoint,
38.1644456,-120.1139017,5077.8672448408,80.38058,0,0.75997705844,13700,2018-05-11 19:15:51,18,0,23.273,5077.8672448408,80.38058,0,0.84459648372,0,0,-0.671082,272.6, -1.8, 0.2,0,0,1024,1024,1024,1024,272.7,-89.9,98,3.857,3.844,3.901,3.89,3.903,3.871,19.269,64.4,14,Waypoint,
38.1644456,-120.1139016,5078.8514968408,81.364832,0,0.78814963152,13900,2018-05-11 19:15:52,18,0,23.273,5078.8514968408,81.364832,0,0.84459648372,0,0,-0.671082,272.6, -2, 0.2,0,0,1024,1024,1024,1024,272.7,-90,98,3.857,3.844,3.901,3.89,3.903,3.871,19.269,64.4,14,Waypoint,
38.1644456,-120.1139015,5080.8200008408,83.333336,0,0.81635829384,14000,2018-05-11 19:15:52,18,0,23.068,5080.8200008408,83.333336,0,0.84459648372,0,0,-0.671082,272.8, -1.9, 0.5,0,0,1024,1024,1024,1024,272.7,-89.9,98,3.82,3.802,3.872,3.858,3.863,3.838,21.251,64.4,14,Waypoint,
38.1644456,-120.1139015,5081.8042528408,84.317588,0,0.81635829384,14100,2018-05-11 19:15:52,18,0,23.068,5081.8042528408,84.317588,0,0.84459648372,0,0,-0.671082,272.8, -1.9, 0.6,0,0,1024,1024,1024,1024,272.7,-89.9,98,3.82,3.802,3.872,3.858,3.863,3.838,21.251,64.4,14,Waypoint,
38.1644456,-120.1139014,5082.7885048408,85.30184,0,0.84459648372,14200,2018-05-11 19:15:52,18,0,23.068,5082.7885048408,85.30184,0,0.84459648372,0,0,-0.671082,272.7, -1.9, 0.5,0,0,1024,1024,1024,1024,272.7,-89.9,98,3.82,3.802,3.872,3.858,3.863,3.838,21.251,64.4,14,Waypoint,
38.1644456,-120.1139014,5083.7727568408,86.286092,0,0.84459648372,14300,2018-05-11 19:15:52,19,0,23.068,5083.7727568408,86.286092,0,0.84459648372,0,0,-0.671082,272.6, -2, 0.3,0,0,1024,1024,1024,1024,272.7,-89.9,98,3.82,3.802,3.872,3.858,3.863,3.838,21.251,64.4,14,Waypoint,
38.1644456,-120.1139013,5084.7570088408,87.270344,0,0.87286420116,14400,2018-05-11 19:15:52,19,0,23.068,5084.7570088408,87.270344,0,0.87286420116,0,0,-0.671082,272.5, -1.9, 0,0,0,1024,1024,1024,1024,272.7,-89.9,98,3.82,3.802,3.872,3.858,3.863,3.838,21.251,64.4,14,Waypoint,
38.1644456,-120.1139013,5085.7412608408,88.254596,0,0.87286420116,14500,2018-05-11 19:15:52,19,0,23.068,5085.7412608408,88.254596,0,0.87286420116,0,0,-0.671082,272.4, -2.2, -0.2,0,0,1024,1024,1024,1024,272.7,-90,98,3.82,3.802,3.872,3.858,3.863,3.838,21.251,64.4,14,Waypoint,
38.1644457,-120.1139013,5086.7255128408,89.238848,0,0.86750987028,14610,2018-05-11 19:15:52,19,0,23.068,5086.7255128408,89.238848,0,0.87286420116,0,0,-0.671082,272.4, -2.2, -0.1,0,0,1024,1024,1024,1024,272.7,-89.9,98,3.82,3.802,3.872,3.858,3.863,3.838,21.251,64.4,14,Waypoint,
38.1644457,-120.1139013,5087.7097648408,90.2231,0,0.86750987028,14800,2018-05-11 19:15:52,19,0,23.068,5087.7097648408,90.2231,0,0.87286420116,0,0,-0.671082,272.3, -2.1, 0,0,0,1024,1024,1024,1024,272.7,-89.9,98,3.82,3.802,3.872,3.858,3.863,3.838,21.251,64.4,14,Waypoint,
38.1644456,-120.1139013,5088.6940168408,91.207352,0,0.87286420116,14900,2018-05-11 19:15:53,19,0,23.068,5088.6940168408,91.207352,0,0.87286420116,0,0,-0.671082,272.3, -2, 0,0,0,1024,1024,1024,1024,272.7,-89.9,98,3.82,3.802,3.872,3.858,3.863,3.838,21.251,64.4,14,Waypoint,
38.1644456,-120.1139013,5089.6782688408,92.191604,0,0.87286420116,15000,2018-05-11 19:15:53,19,0,22.987,5089.6782688408,92.191604,0,0.87286420116,0,0,-0.671082,272.3, -2, -0.5,0,0,1024,1024,1024,1024,272.7,-90,98,3.807,3.795,3.856,3.833,3.849,3.831,21.202,64.4,14,Waypoint,
38.1644456,-120.1139014,5090.6625208408,93.175856,0,0.84459648372,15100,2018-05-11 19:15:53,19,0,22.987,5090.6625208408,93.175856,0,0.87286420116,0,0,-0.671082,272.3, -1.7, -0.3,0,0,1024,1024,1024,1024,272.7,-89.9,98,3.807,3.795,3.856,3.833,3.849,3.831,21.202,64.4,14,Waypoint,
38.1644455,-120.1139015,5091.6467728408,94.160108,0,0.82366144368,15200,2018-05-11 19:15:53,19,0,22.987,5091.6467728408,94.160108,0,0.87286420116,0,0,-0.671082,272.3, -1.3, 0.2,0,0,1024,1024,1024,1024,272.7,-89.9,98,3.807,3.795,3.856,3.833,3.849,3.831,21.202,64.4,14,Waypoint,
38.1644454,-120.1139016,5092.6310248408,95.14436,0,0.80486223048,15300,2018-05-11 19:15:53,19,0,22.987,5092.6310248408,95.14436,0,0.87286420116,0,0,-0.671082,272.3, -1, 0.6,0,0,1024,1024,1024,1024,272.7,-89.9,98,3.807,3.795,3.856,3.833,3.849,3.831,21.202,64.4,14,Waypoint,
38.1644453,-120.1139017,5093.6152768408,96.128612,0,0.78834976276,15400,2018-05-11 19:15:53,19,0,22.987,5093.6152768408,96.128612,0,0.87286420116,0,0,-0.671082,272.4, -0.8, 1,0,0,1024,1024,1024,1024,272.7,-89.9,98,3.807,3.795,3.856,3.833,3.849,3.831,21.202,64.4,14,Waypoint,
38.1644453,-120.1139018,5094.5995288408,97.112864,0,0.76126642856,15500,2018-05-11 19:15:53,19,0,22.987,5094.5995288408,97.112864,0,0.87286420116,0,0,-0.671082,272.6, -0.7, 1.4,0,0,1024,1024,1024,1024,272.7,-89.9,98,3.807,3.795,3.856,3.833,3.849,3.831,21.202,64.4,14,Waypoint,
38.1644452,-120.1139019,5095.5837808408,98.097116,0,0.74777889532,15600,2018-05-11 19:15:53,19,0,22.987,5095.5837808408,98.097116,0,0.87286420116,0,0,-0.671082,272.7, -0.8, 1.6,0,0,1024,1024,1024,1024,272.7,-89.9,98,3.807,3.795,3.856,3.833,3.849,3.831,21.202,64.4,14,Waypoint,
38.1644451,-120.113902,5096.5680328408,99.081368,0,0.73697180836,15700,2018-05-11 19:15:53,19,0,22.987,5096.5680328408,99.081368,0,0.87286420116,0,0,-0.671082,272.7, -0.7, 1.7,0,0,1024,1024,1024,1024,272.7,-89.9,98,3.807,3.795,3.856,3.833,3.849,3.831,21.202,64.4,14,Waypoint,
38.164445,-120.1139021,5098.5365368408,101.049872,0,0.72896655876,15900,2018-05-11 19:15:54,19,0,22.987,5098.5365368408,101.049872,0,0.87286420116,0,0,-0.671082,272.7, -0.6, 1.5,0,0,1024,1024,1024,1024,272.7,-89.9,98,3.807,3.795,3.856,3.833,3.849,3.831,21.202,64.4,14,Waypoint,
38.164445,-120.1139022,5099.5207888408,102.034124,0,0.70427823776,16000,2018-05-11 19:15:54,19,0,22.947,5099.5207888408,102.034124,0,0.87286420116,0,0,-0.671082,272.6, -0.5, 1.4,0,0,1024,1024,1024,1024,272.7,-89.9,98,3.802,3.801,3.846,3.827,3.857,3.834,20.991,64.4,14,Waypoint,
38.1644449,-120.1139022,5100.5050408408,103.018376,0,0.7238517292,16100,2018-05-11 19:15:54,19,0,22.947,5100.5050408408,103.018376,0,0.87286420116,0,0,-0.671082,272.5, -0.6, 1.1,0,0,1024,1024,1024,1024,272.7,-89.9,98,3.802,3.801,3.846,3.827,3.857,3.834,20.991,64.4,14,Waypoint,
38.1644449,-120.1139023,5101.4892928408,104.002628,0,0.70015750272,16200,2018-05-11 19:15:54,19,0,22.947,5101.4892928408,104.002628,0,0.87286420116,0,0,-0.671082,272.5, -0.5, 1.1,0,0,1024,1024,1024,1024,272.7,-89.9,98,3.802,3.801,3.846,3.827,3.857,3.834,20.991,64.4,14,Waypoint,
38.1644449,-120.1139024,5103.4577968408,105.971132,0,0.6768536962,16300,2018-05-11 19:15:54,19,0,22.947,5103.4577968408,105.971132,0,0.87286420116,0,0,-0.671082,272.2, -0.7, 0.7,0,0,1024,1024,1024,1024,272.7,-89.9,98,3.802,3.801,3.846,3.827,3.857,3.834,20.991,64.4,14,Waypoint,
38.1644449,-120.1139025,5104.4420488408,106.955384,0,0.65397639888,16400,2018-05-11 19:15:54,19,0,22.947,5104.4420488408,106.955384,0,0.87286420116,0,0,-0.671082,272.1, -0.9, 0.6,0,0,1024,1024,1024,1024,272.7,-89.9,98,3.802,3.801,3.846,3.827,3.857,3.834,20.991,64.4,14,Waypoint,
38.1644449,-120.1139026,5105.4263008408,107.939636,0,0.63157154252,16500,2018-05-11 19:15:54,19,0,22.947,5105.4263008408,107.939636,0,0.87286420116,0,0,-0.671082,272.1, -1, 0.6,0,0,1024,1024,1024,1024,272.7,-89.9,98,3.802,3.801,3.846,3.827,3.857,3.834,20.991,64.4,14,Waypoint,
38.1644448,-120.1139026,5106.4105528408,108.923888,0,0.65536091336,16600,2018-05-11 19:15:54,19,0,22.947,5106.4105528408,108.923888,0,0.87286420116,0,0,-0.671082,272.2, -0.9, 0.8,0,0,1024,1024,1024,1024,272.7,-89.9,98,3.802,3.801,3.846,3.827,3.857,3.834,20.991,64.4,14,Waypoint,
38.1644448,-120.1139027,5107.3948048408,109.90814,0,0.63430448224,16700,2018-05-11 19:15:54,19,0,22.947,5107.3948048408,109.90814,0,0.87286420116,0,0,-0.671082,272.3, -0.5, 1.2,0,0,1024,1024,1024,1024,272.7,-89.9,98,3.802,3.801,3.846,3.827,3.857,3.834,20.991,64.4,14,Waypoint,
38.1644447,-120.1139028,5108.7071408408,111.220476,0,0.64040028296,16800,2018-05-11 19:15:54,19,0,22.947,5108.7071408408,111.220476,0,0.87286420116,0,0,-0.671082,272.5, -0.1, 1.5,0,0,1024,1024,1024,1024,272.7,-89.9,98,3.802,3.801,3.846,3.827,3.857,3.834,20.991,64.4,14,Waypoint,
38.1644447,-120.1139029,5109.6913928408,112.204728,0,0.6214895212,16900,2018-05-11 19:15:55,19,0,22.947,5109.6913928408,112.204728,0,0.87286420116,0,0,-0.671082,272.6, 0.1, 1.5,0,0,1024,1024,1024,1024,272.7,-89.9,98,3.802,3.801,3.846,3.827,3.857,3.834,20.991,64.4,14,Waypoint,
38.1644447,-120.1139029,5110.6756448408,113.18898,0,0.6214895212,17000,2018-05-11 19:15:55,19,0,22.964,5110.6756448408,113.18898,0,0.87286420116,0,0,-0.671082,272.7, 0, 1.4,0,0,1024,1024,1024,1024,272.7,-89.9,98,3.803,3.801,3.849,3.83,3.851,3.822,20.539,64.4,14,Waypoint,
38.1644447,-120.113903,5111.3318128408,113.845148,0,0.60334975684,17100,2018-05-11 19:15:55,19,0,22.964,5111.3318128408,113.845148,0,0.87286420116,0,0,-0.671082,272.7, 0, 1.1,0,0,1024,1024,1024,1024,272.7,-89.9,98,3.803,3.801,3.849,3.83,3.851,3.822,20.539,64.4,14,Waypoint,
38.1644446,-120.1139031,5113.3003168408,115.813652,0,0.61595474412,17310,2018-05-11 19:15:55,19,0,22.964,5113.3003168408,115.813652,0,0.87286420116,0,0,-0.671082,272.6, -0.3, 1.4,0,0,1024,1024,1024,1024,272.7,-89.9,98,3.803,3.801,3.849,3.83,3.851,3.822,20.539,64.4,14,Waypoint,
38.1644445,-120.1139032,5114.2845688408,116.797904,0,0.631725742,17410,2018-05-11 19:15:55,19,0,22.964,5114.2845688408,116.797904,0,0.87286420116,0,0,-0.671082,272.6, -0.5, 1.5,0,0,1024,1024,1024,1024,272.7,-89.9,98,3.803,3.801,3.849,3.83,3.851,3.822,20.539,64.4,14,Waypoint,
38.1644445,-120.1139032,5114.2845688408,116.797904,0,0.631725742,17500,2018-05-11 19:15:55,19,0,22.964,5114.2845688408,116.797904,0,0.87286420116,0,0,-0.671082,272.6, -0.5, 1.5,0,0,1024,1024,1024,1024,272.7,-89.9,98,3.803,3.801,3.849,3.83,3.851,3.822,20.539,64.4,14,Waypoint,
38.1644444,-120.1139032,5115.5969048408,118.11024,0,0.6635826984,17600,2018-05-11 19:15:55,19,0,22.964,5115.5969048408,118.11024,0,0.87286420116,0,0,-0.671082,272.5, -0.7, 1.3,0,0,1024,1024,1024,1024,272.7,-90,98,3.803,3.801,3.849,3.83,3.851,3.822,20.539,64.4,14,Waypoint,
38.1644444,-120.1139032,5116.5811568408,119.094492,0,0.6635826984,17700,2018-05-11 19:15:55,19,0,22.964,5116.5811568408,119.094492,0,0.87286420116,0,0,-0.671082,272.4, -0.8, 1.4,0,0,1024,1024,1024,1024,272.7,-89.9,98,3.803,3.801,3.849,3.83,3.851,3.822,20.539,64.4,14,Waypoint,
38.1644443,-120.1139032,5117.5654088408,120.078744,0,0.69589569156,17800,2018-05-11 19:15:55,19,0,22.964,5117.5654088408,120.078744,0,0.87286420116,0,0,-0.671082,272.4, -0.6, 1.6,0,0,1024,1024,1024,1024,272.7,-89.9,98,3.803,3.801,3.849,3.83,3.851,3.822,20.539,64.4,14,Waypoint,
38.1644443,-120.1139032,5118.5496608408,121.062996,0,0.69589569156,17900,2018-05-11 19:15:56,19,0,22.964,5118.5496608408,121.062996,0,0.87286420116,0,0,-0.671082,272.4, -0.5, 1.9,0,0,1024,1024,1024,1024,272.7,-89.9,98,3.803,3.801,3.849,3.83,3.851,3.822,20.539,64.4,14,Waypoint,
38.1644442,-120.1139033,5119.5339128408,122.047248,0,0.71664700456,18000,2018-05-11 19:15:56,19,0,22.981,5119.5339128408,122.047248,0,0.87286420116,0,0,-0.671082,272.4, -0.8, 2.1,0,0,1024,1024,1024,1024,272.7,-90,97,3.813,3.799,3.864,3.84,3.846,3.836,20.051,64.4,14,Waypoint,
38.1644442,-120.1139033,5120.5181648408,123.0315,0,0.71664700456,18100,2018-05-11 19:15:56,19,0,22.981,5120.5181648408,123.0315,0,0.87286420116,0,0,-0.671082,272.5, -0.9, 2.2,0,0,1024,1024,1024,1024,272.7,-89.9,97,3.813,3.799,3.864,3.84,3.846,3.836,20.051,64.4,14,Waypoint,
38.1644442,-120.1139033,5121.5024168408,124.015752,0,0.71664700456,18200,2018-05-11 19:15:56,19,0,22.981,5121.5024168408,124.015752,0,0.87286420116,0,0,-0.671082,272.6, -0.8, 2.1,0,0,1024,1024,1024,1024,272.7,-89.9,97,3.813,3.799,3.864,3.84,3.846,3.836,20.051,64.4,14,Waypoint,
38.1644442,-120.1139033,5122.4866688408,125.000004,0,0.71664700456,18300,2018-05-11 19:15:56,19,0,22.981,5122.4866688408,125.000004,0,0.87286420116,0,0,-0.671082,272.6, -0.5, 1.9,0,0,1024,1024,1024,1024,272.7,-89.9,97,3.813,3.799,3.864,3.84,3.846,3.836,20.051,64.4,14,Waypoint,
38.1644442,-120.1139034,5123.4709208408,125.984256,0,0.70565290972,18400,2018-05-11 19:15:56,19,0,22.981,5123.4709208408,125.984256,0,0.87286420116,0,0,-0.671082,272.7, -0.3, 1.8,0,0,1024,1024,1024,1024,272.7,-89.9,97,3.813,3.799,3.864,3.84,3.846,3.836,20.051,64.4,14,Waypoint,
38.1644442,-120.1139034,5124.4551728408,126.968508,0,0.70565290972,18500,2018-05-11 19:15:56,19,0,22.981,5124.4551728408,126.968508,0,0.87286420116,0,0,-0.671082,272.7, -0.4, 1.7,0,0,1024,1024,1024,1024,272.7,-89.9,97,3.813,3.799,3.864,3.84,3.846,3.836,20.051,64.4,14,Waypoint,
38.1644442,-120.1139035,5126.4236768408,128.937012,0,0.6956693136,18600,2018-05-11 19:15:56,19,0,22.981,5126.4236768408,128.937012,0,0.87286420116,0,0,-0.671082,272.7, -0.3, 1.7,0,0,1024,1024,1024,1024,272.7,-89.9,97,3.813,3.799,3.864,3.84,3.846,3.836,20.051,64.4,14,Waypoint,
38.1644443,-120.1139035,5127.4079288408,129.921264,0,0.66133860384,18800,2018-05-11 19:15:56,19,0,22.981,5127.4079288408,129.921264,0,0.87286420116,0,0,-0.671082,272.7, -0.2, 1.5,0,0,1024,1024,1024,1024,272.7,-89.9,97,3.813,3.799,3.864,3.84,3.846,3.836,20.051,64.4,14,Waypoint,
38.1644444,-120.1139035,5129.0483488408,131.561684,0,0.6272473954,18900,2018-05-11 19:15:57,19,0,22.981,5129.0483488408,131.561684,0,0.87286420116,0,0,-0.671082,272.7, -0.1, 1,0,0,1024,1024,1024,1024,272.7,-89.9,97,3.813,3.799,3.864,3.84,3.846,3.836,20.051,64.4,14,Waypoint,
38.1644445,-120.1139035,5130.0326008408,132.545936,0,0.59344162004,19000,2018-05-11 19:15:57,19,0,22.958,5130.0326008408,132.545936,0,0.87286420116,0,0,-0.671082,272.7, 0, 0.8,0,0,1024,1024,1024,1024,272.7,-89.9,97,3.803,3.795,3.861,3.832,3.848,3.834,20.036,64.4,14,Waypoint,
38.1644446,-120.1139034,5131.0168528408,133.530188,0,0.57232941464,19100,2018-05-11 19:15:57,19,0,22.958,5131.0168528408,133.530188,0,0.87286420116,0,0,-0.671082,272.7, -0.2, 0.4,0,0,1024,1024,1024,1024,272.7,-89.9,97,3.803,3.795,3.861,3.832,3.848,3.834,20.036,64.4,14,Waypoint,
38.1644447,-120.1139034,5132.0011048408,134.51444,0,0.54001642148,19200,2018-05-11 19:15:57,19,0,22.958,5132.0011048408,134.51444,0,0.87286420116,0,0,-0.671082,272.7, -0.7, 0,0,0,1024,1024,1024,1024,272.7,-90,97,3.803,3.795,3.861,3.832,3.848,3.834,20.036,64.4,14,Waypoint,
38.1644448,-120.1139034,5132.9853568408,135.498692,0,0.50827101364,19300,2018-05-11 19:15:57,19,0,22.958,5132.9853568408,135.498692,0,0.87286420116,0,0,-0.671082,272.7, -1.2, -0.2,0,0,1024,1024,1024,1024,272.7,-90,97,3.803,3.795,3.861,3.832,3.848,3.834,20.036,64.4,14,Waypoint,
38.1644449,-120.1139033,5133.9696088408,136.482944,0,0.49331366408,19400,2018-05-11 19:15:57,19,0,22.958,5133.9696088408,136.482944,0,0.87286420116,0,0,-0.671082,272.8, -1.2, -0.3,0,0,1024,1024,1024,1024,272.7,-90,97,3.803,3.795,3.861,3.832,3.848,3.834,20.036,64.4,14,Waypoint,
38.164445,-120.1139033,5134.9538608408,137.467196,0,0.46411418808,19600,2018-05-11 19:15:57,19,0,22.958,5134.9538608408,137.467196,0,0.87286420116,0,0,-0.671082,272.8, -0.9, -0.3,0,0,1024,1024,1024,1024,272.7,-89.9,97,3.803,3.795,3.861,3.832,3.848,3.834,20.036,64.4,14,Waypoint,
38.1644451,-120.1139032,5135.9381128408,138.451448,0,0.45540355788,19700,2018-05-11 19:15:57,19,0,22.958,5135.9381128408,138.451448,0,0.87286420116,0,0,-0.671082,272.9, -0.7, -0.1,0,0,1024,1024,1024,1024,272.7,-89.9,97,3.803,3.795,3.861,3.832,3.848,3.834,20.036,64.4,14,Waypoint,
38.1644452,-120.1139032,5136.9223648408,139.4357,0,0.4298392526,19800,2018-05-11 19:15:57,19,0,22.958,5136.9223648408,139.4357,0,0.87286420116,0,0,-0.671082,272.9, -0.8, -0.1,0,0,1024,1024,1024,1024,272.7,-89.9,97,3.803,3.795,3.861,3.832,3.848,3.834,20.036,64.4,14,Waypoint,
38.1644453,-120.1139032,5137.9066168408,140.419952,0,0.40594817572,19900,2018-05-11 19:15:58,19,0,22.958,5137.9066168408,140.419952,0,0.87286420116,0,0,-0.671082,273, -0.9, -0.4,0,0,1024,1024,1024,1024,272.7,-90,97,3.803,3.795,3.861,3.832,3.848,3.834,20.036,64.4,14,Waypoint,
38.1644454,-120.1139031,5138.8908688408,141.404204,0,0.40794292644,20000,2018-05-11 19:15:58,19,0,22.951,5138.8908688408,141.404204,0,0.87286420116,0,0,-0.671082,272.9, -1, -0.4,0,0,1024,1024,1024,1024,272.7,-89.9,97,3.803,3.795,3.861,3.832,3.848,3.834,20.064,64.4,14,Waypoint,
38.1644455,-120.1139031,5139.8751208408,142.388456,0,0.3895833458,20100,2018-05-11 19:15:58,19,0,22.951,5139.8751208408,142.388456,0,0.87286420116,0,0,-0.671082,272.8, -0.8, -0.5,0,0,1024,1024,1024,1024,272.7,-89.9,97,3.803,3.795,3.861,3.832,3.848,3.834,20.064,64.4,14,Waypoint,
38.1644456,-120.113903,5140.8593728408,143.372708,0,0.40045604956,20200,2018-05-11 19:15:58,19,0,22.951,5140.8593728408,143.372708,0,0.87286420116,0,0,-0.671082,272.7, -1, -0.7,0,0,1024,1024,1024,1024,272.7,-90,97,3.803,3.795,3.861,3.832,3.848,3.834,20.064,64.4,14,Waypoint,
38.1644457,-120.113903,5141.8436248408,144.35696,0,0.3886483064,20300,2018-05-11 19:15:58,19,0,22.951,5141.8436248408,144.35696,0,0.87286420116,0,0,-0.671082,272.7, -1.4, -0.9,0,0,1024,1024,1024,1024,272.7,-90,97,3.803,3.795,3.861,3.832,3.848,3.834,20.064,64.4,14,Waypoint,
38.1644458,-120.1139029,5142.8278768408,145.341212,0,0.40817914692,20400,2018-05-11 19:15:58,19,0,22.951,5142.8278768408,145.341212,0,0.87286420116,0,0,-0.671082,272.6, -1.5, -0.8,0,0,1024,1024,1024,1024,272.7,-90,97,3.803,3.795,3.861,3.832,3.848,3.834,20.064,64.4,14,Waypoint,
38.1644458,-120.1139028,5143.8121288408,146.325464,0,0.436433741,20500,2018-05-11 19:15:58,19,0,22.951,5143.8121288408,146.325464,0,0.87286420116,0,0,-0.671082,272.6, -1.6, -0.7,0,0,1024,1024,1024,1024,272.7,-90,97,3.803,3.795,3.861,3.832,3.848,3.834,20.064,64.4,14,Waypoint,
38.1644459,-120.1139027,5144.7963808408,147.309716,0,0.46042324308,20600,2018-05-11 19:15:58,19,0,22.951,5144.7963808408,147.309716,0,0.87286420116,0,0,-0.671082,272.6, -1.7, -0.5,0,0,1024,1024,1024,1024,272.7,-90,97,3.803,3.795,3.861,3.832,3.848,3.834,20.064,64.4,14,Waypoint,
38.164446,-120.1139026,5145.7806328408,148.293968,0,0.48766077676,20700,2018-05-11 19:15:58,19,0,22.951,5145.7806328408,148.293968,0,0.87286420116,0,0,-0.671082,272.5, -1.8, -0.5,0,0,1024,1024,1024,1024,272.7,-90,97,3.803,3.795,3.861,3.832,3.848,3.834,20.064,64.4,14,Waypoint,
38.1644461,-120.1139025,5146.7648848408,149.27822,0,0.517634531,20800,2018-05-11 19:15:58,19,0,22.951,5146.7648848408,149.27822,0,0.87286420116,0,0,-0.671082,272.4, -1.8, -0.9,0,0,1024,1024,1024,1024,272.7,-90,97,3.803,3.795,3.861,3.832,3.848,3.834,20.064,64.4,14,Waypoint,
38.1644462,-120.1139025,5147.7491368408,150.262472,0,0.52147639464,20900,2018-05-11 19:15:59,19,0,22.951,5147.7491368408,150.262472,0,0.87286420116,0,0,-0.671082,272.3, -1.8, -1.3,0,0,1024,1024,1024,1024,272.7,-90,97,3.803,3.795,3.861,3.832,3.848,3.834,20.064,64.4,14,Waypoint,
38.1644463,-120.1139023,5150.0457248408,152.55906,0,0.58406497932,21000,2018-05-11 19:15:59,19,0,22.951,5150.0457248408,152.55906,0,0.87286420116,0,0,-0.671082,272.6, -2, -1.6,0,0,1024,1024,1024,1024,272.7,-90,97,3.798,3.783,3.854,3.824,3.839,3.824,20.064,66.2,14,Waypoint,
38.1644464,-120.1139023,5151.0299768408,153.543312,0,0.59198820792,21100,2018-05-11 19:15:59,19,0,22.951,5151.0299768408,153.543312,0,0.87286420116,0,0,-0.671082,272.6, -2.2, -1.4,0,0,1024,1024,1024,1024,272.7,-90,97,3.798,3.783,3.854,3.824,3.839,3.824,20.064,66.2,14,Waypoint,
38.1644465,-120.1139022,5152.0142288408,154.527564,0,0.62941931148,21200,2018-05-11 19:15:59,19,0,22.951,5152.0142288408,154.527564,0,0.87286420116,0,0,-0.671082,272.7, -2.1, -1.4,0,0,1024,1024,1024,1024,272.7,-90,97,3.798,3.783,3.854,3.824,3.839,3.824,20.064,66.2,14,Waypoint,
38.1644465,-120.1139022,5152.9984808408,155.511816,0,0.62941931148,21300,2018-05-11 19:15:59,19,0,22.951,5152.9984808408,155.511816,0,0.87286420116,0,0,-0.671082,272.7, -1.8, -1.4,0,0,1024,1024,1024,1024,272.7,-90,97,3.798,3.783,3.854,3.824,3.839,3.824,20.064,66.2,14,Waypoint,
38.1644466,-120.1139022,5153.9827328408,156.496068,0,0.64094818324,21400,2018-05-11 19:15:59,19,0,22.951,5153.9827328408,156.496068,0,0.87286420116,0,0,-0.671082,272.8, -1.6, -1.8,0,0,1024,1024,1024,1024,272.7,-90,97,3.798,3.783,3.854,3.824,3.839,3.824,20.064,66.2,14,Waypoint,
38.1644467,-120.1139022,5154.9669848408,157.48032,0,0.65430776372,21500,2018-05-11 19:15:59,19,0,22.951,5154.9669848408,157.48032,0,0.87286420116,0,0,-0.671082,272.7, -1.1, -1.8,0,0,1024,1024,1024,1024,272.7,-89.9,97,3.798,3.783,3.854,3.824,3.839,3.824,20.064,66.2,14,Waypoint,
38.1644468,-120.1139021,5155.9512368408,158.464572,0,0.69531826372,21610,2018-05-11 19:15:59,19,0,22.951,5155.9512368408,158.464572,0,0.87286420116,0,0,-0.671082,272.6, -1, -1.8,0,0,1024,1024,1024,1024,272.7,-89.9,97,3.798,3.783,3.854,3.824,3.839,3.824,20.064,66.2,14,Waypoint,
38.1644469,-120.1139021,5156.9354888408,159.448824,0,0.71140750308,21700,2018-05-11 19:15:59,19,0,22.951,5156.9354888408,159.448824,0,0.87286420116,0,0,-0.671082,272.6, -1.1, -2.1,0,0,1024,1024,1024,1024,272.7,-90,97,3.798,3.783,3.854,3.824,3.839,3.824,20.064,66.2,14,Waypoint,
38.1644469,-120.1139021,5157.9197408408,160.433076,0,0.71140750308,21800,2018-05-11 19:15:59,19,0,22.951,5157.9197408408,160.433076,0,0.87286420116,0,0,-0.671082,272.6, -1.5, -2.3,0,0,1024,1024,1024,1024,272.7,-90,97,3.798,3.783,3.854,3.824,3.839,3.824,20.064,66.2,14,Waypoint,
38.164447,-120.113902,5158.9039928408,161.417328,0,0.753937032,21900,2018-05-11 19:16:00,19,0,22.951,5158.9039928408,161.417328,0,0.87286420116,0,0,-0.671082,272.7, -1.7, -2.4,0,0,1024,1024,1024,1024,272.7,-90,97,3.798,3.783,3.854,3.824,3.839,3.824,20.064,66.2,14,Waypoint,
38.1644471,-120.1139019,5159.8882448408,162.40158,0,0.7968996318,22100,2018-05-11 19:16:00,19,0,22.951,5159.8882448408,162.40158,0,0.87286420116,0,0,-0.671082,272.7, -1.9, -2.5,0,0,1024,1024,1024,1024,272.7,-90,97,3.798,3.783,3.854,3.824,3.839,3.824,20.064,66.2,14,Waypoint,
38.1644472,-120.1139018,5161.8567488408,164.370084,0,0.84022968568,22300,2018-05-11 19:16:00,19,0,22.951,5161.8567488408,164.370084,0,0.87286420116,0,0,-0.671082,272.7, -2.1, -2.8,0,0,1024,1024,1024,1024,272.7,-90,97,3.798,3.783,3.854,3.824,3.839,3.824,20.064,66.2,14,Waypoint,
38.1644472,-120.1139017,5162.8410008408,165.354336,0,0.86484254736,22400,2018-05-11 19:16:00,19,0,22.951,5162.8410008408,165.354336,0,0.87286420116,0,0,-0.671082,272.7, -2.1, -2.5,0,0,1024,1024,1024,1024,272.7,-90,97,3.798,3.783,3.854,3.824,3.839,3.824,20.064,66.2,14,Waypoint,
38.1644472,-120.1139017,5163.8252528408,166.338588,0,0.86484254736,22500,2018-05-11 19:16:00,19,0,22.951,5163.8252528408,166.338588,0,0.87286420116,0,0,-0.671082,272.7, -2.1, -2.1,0,0,1024,1024,1024,1024,272.7,-90,97,3.798,3.783,3.854,3.824,3.839,3.824,20.064,66.2,14,Waypoint,
38.1644472,-120.1139016,5164.8095048408,167.32284,0,0.88970147204,22600,2018-05-11 19:16:00,19,0,22.951,5164.8095048408,167.32284,0,0.88970147204,0,0,-0.671082,272.7, -2.2, -1.9,0,0,1024,1024,1024,1024,272.7,-90,97,3.798,3.783,3.854,3.824,3.839,3.824,20.064,66.2,14,Waypoint,
38.1644472,-120.1139016,5165.7937568408,168.307092,0,0.88970147204,22700,2018-05-11 19:16:00,19,0,22.951,5165.7937568408,168.307092,0,0.88970147204,0,0,-0.671082,272.6, -2.2, -1.9,0,0,1024,1024,1024,1024,272.7,-90,97,3.798,3.783,3.854,3.824,3.839,3.824,20.064,66.2,14,Waypoint,
38.1644472,-120.1139015,5166.7780088408,169.291344,0,0.91478349384,22800,2018-05-11 19:16:00,19,0,22.951,5166.7780088408,169.291344,0,0.91478349384,0,0,-0.671082,272.6, -2.3, -1.8,0,0,1024,1024,1024,1024,272.7,-90,97,3.798,3.783,3.854,3.824,3.839,3.824,20.064,66.2,14,Waypoint,
38.1644472,-120.1139015,5167.7622608408,170.275596,0,0.91478349384,22900,2018-05-11 19:16:01,19,0,22.951,5167.7622608408,170.275596,0,0.91478349384,0,0,-0.671082,272.6, -2.3, -1.5,0,0,1024,1024,1024,1024,272.7,-90,97,3.798,3.783,3.854,3.824,3.839,3.824,20.064,66.2,14,Waypoint,
38.1644471,-120.1139014,5169.7307648408,172.2441,0,0.92364176184,23100,2018-05-11 19:16:01,19,0,22.951,5169.7307648408,172.2441,0,0.92364176184,0,0,-0.671082,272.7, -2.2, -1.2,0,0,1024,1024,1024,1024,272.7,-89.9,97,3.798,3.783,3.854,3.824,3.839,3.824,20.064,66.2,14,Waypoint,
38.164447,-120.1139014,5170.7150168408,173.228352,0.223694,0.908382575,23200,2018-05-11 19:16:01,19,0,22.951,5170.7150168408,173.228352,0.223694,0.92364176184,0,0,-0.671082,272.8, -1.8, -1.5,0,0,1024,1024,1024,1024,272.7,-89.9,97,3.798,3.783,3.854,3.824,3.839,3.824,20.064,66.2,14,Waypoint,
38.1644469,-120.1139014,5171.3711848408,173.88452,0.223694,0.89435370316,23300,2018-05-11 19:16:01,19,0,22.951,5171.3711848408,173.88452,0.223694,0.92364176184,0,0,-0.671082,273.1, -1.2, -1.4,0,0,1024,1024,1024,1024,272.7,-89.9,97,3.798,3.783,3.854,3.824,3.839,3.824,20.064,66.2,14,Waypoint,
38.1644467,-120.1139014,5173.3396888408,175.853024,0.223694,0.87021328244,23400,2018-05-11 19:16:01,19,0,22.951,5173.3396888408,175.853024,0.223694,0.92364176184,0,0,-0.671082,273.1, -2.1, -0.4,0,0,1024,1024,1024,1024,272.7,-90,97,3.798,3.783,3.854,3.824,3.839,3.824,20.064,66.2,14,Waypoint,
38.1644466,-120.1139013,5174.6520248408,177.16536,0.223694,0.88798559272,23500,2018-05-11 19:16:01,19,0,22.951,5174.6520248408,177.16536,0.223694,0.92364176184,0,0,-0.671082,272.9, -3, -0.2,0,0,1024,1024,1024,1024,272.7,-90,97,3.798,3.783,3.854,3.824,3.839,3.824,20.064,66.2,14,Waypoint,
38.1644465,-120.1139013,5175.6362768408,178.149612,0.223694,0.87970147172,23600,2018-05-11 19:16:01,19,0,22.951,5175.6362768408,178.149612,0.223694,0.92364176184,0,0,-0.671082,272.6, -3.6, -0.1,0,0,1024,1024,1024,1024,272.7,-90,97,3.798,3.783,3.854,3.824,3.839,3.824,20.064,66.2,14,Waypoint,
38.1644464,-120.1139012,5176.2924448408,178.80578,0.223694,0.90115816532,23700,2018-05-11 19:16:01,19,0,22.951,5176.2924448408,178.80578,0.223694,0.92364176184,0,0,-0.671082,272.4, -3.7, 0.2,0,0,1024,1024,1024,1024,272.7,-89.9,97,3.798,3.783,3.854,3.824,3.839,3.824,20.064,66.2,14,Waypoint,
38.1644462,-120.1139012,5177.2766968408,179.790032,0.223694,0.89225396556,23800,2018-05-11 19:16:01,19,0,22.951,5177.2766968408,179.790032,0.223694,0.92364176184,0,0,-0.671082,272, -3.4, 0.5,0,0,1024,1024,1024,1024,272.7,-89.9,97,3.798,3.783,3.854,3.824,3.839,3.824,20.064,66.2,14,Waypoint,
38.1644461,-120.1139012,5178.2609488408,180.774284,0.223694,0.89001315184,23900,2018-05-11 19:16:02,19,0,22.951,5178.2609488408,180.774284,0.223694,0.92364176184,0,0,-0.671082,271.7, -3.1, 0.3,0,0,1024,1024,1024,1024,272.7,-89.9,97,3.798,3.783,3.854,3.824,3.839,3.824,20.064,66.2,14,Waypoint,
38.164446,-120.1139012,5179.2452008408,181.758536,0.223694,0.88926512032,24000,2018-05-11 19:16:02,19,0,23.031,5179.2452008408,181.758536,0.223694,0.92364176184,0,0,-0.671082,271.6, -3, 0.8,0,0,1024,1024,1024,1024,272.7,-89.9,97,3.813,3.794,3.87,3.837,3.849,3.849,18.362,66.2,14,Waypoint,
38.1644458,-120.1139012,5180.2294528408,182.742788,0.223694,0.89225396556,24100,2018-05-11 19:16:02,19,0,23.031,5180.2294528408,182.742788,0.223694,0.92364176184,0,0,-0.671082,271.6, -2.9, 1.2,0,0,1024,1024,1024,1024,272.7,-89.9,97,3.813,3.794,3.87,3.837,3.849,3.849,18.362,66.2,14,Waypoint,
38.1644457,-120.1139012,5181.2137048408,183.72704,0.223694,0.89597443812,24200,2018-05-11 19:16:02,19,0,23.031,5181.2137048408,183.72704,0.223694,0.92364176184,0,0,-0.671082,271.7, -3, 1.2,0,0,1024,1024,1024,1024,272.7,-89.9,97,3.813,3.794,3.87,3.837,3.849,3.849,18.362,66.2,14,Waypoint,
38.1644456,-120.1139012,5182.1979568408,184.711292,0.223694,0.90115816532,24320,2018-05-11 19:16:02,19,0,23.031,5182.1979568408,184.711292,0.223694,0.92364176184,0,0,-0.671082,271.9, -3.1, 1.1,0,0,1024,1024,1024,1024,272.7,-90,97,3.813,3.794,3.87,3.837,3.849,3.849,18.362,66.2,14,Waypoint,
38.1644454,-120.1139012,5183.1822088408,185.695544,0.223694,0.9158136776,24400,2018-05-11 19:16:02,19,0,23.031,5183.1822088408,185.695544,0.223694,0.92364176184,0,0,-0.671082,272.1, -3.1, 1.3,0,0,1024,1024,1024,1024,272.7,-90,97,3.813,3.794,3.87,3.837,3.849,3.849,18.362,66.2,14,Waypoint,
38.1644453,-120.1139012,5184.4945448408,187.00788,0.223694,0.9252132842,24600,2018-05-11 19:16:02,19,0,23.031,5184.4945448408,187.00788,0.223694,0.9252132842,0,0,-0.671082,272.3, -3.1, 1.5,0,0,1024,1024,1024,1024,272.7,-90,97,3.813,3.794,3.87,3.837,3.849,3.849,18.362,66.2,14,Waypoint,
38.1644452,-120.1139012,5185.4787968408,187.992132,0.223694,0.935941631,24700,2018-05-11 19:16:02,19,0,23.031,5185.4787968408,187.992132,0.223694,0.935941631,0,0,-0.671082,272.6, -3.3, 1.7,0,0,1024,1024,1024,1024,272.7,-90,97,3.813,3.794,3.87,3.837,3.849,3.849,18.362,66.2,14,Waypoint,
38.1644451,-120.1139011,5186.4630488408,188.976384,0.223694,0.97491144852,24800,2018-05-11 19:16:02,19,0,23.031,5186.4630488408,188.976384,0.223694,0.97491144852,0,0,-0.671082,272.8, -3.6, 1.8,0,0,1024,1024,1024,1024,272.7,-90,97,3.813,3.794,3.87,3.837,3.849,3.849,18.362,66.2,14,Waypoint,
38.164445,-120.1139011,5187.4473008408,189.960636,0.223694,0.98779858804,24900,2018-05-11 19:16:03,19,0,23.031,5187.4473008408,189.960636,0.223694,0.98779858804,0,0,-0.671082,272.9, -3.8, 1.9,0,0,1024,1024,1024,1024,272.7,-90,97,3.813,3.794,3.87,3.837,3.849,3.849,18.362,66.2,14,Waypoint,
38.1644448,-120.113901,5188.7596368408,191.272972,0,1.042979036,25000,2018-05-11 19:16:03,19,0,23.016,5188.7596368408,191.272972,0.223694,1.042979036,0,0,-0.671082,273, -4, 1.9,0,0,1024,1024,1024,1024,272.7,-90,97,3.815,3.795,3.87,3.84,3.856,3.831,18.528,66.2,14,Waypoint,
38.1644448,-120.1139009,5189.7438888408,192.257224,0,1.06908467988,25100,2018-05-11 19:16:03,19,0,23.016,5189.7438888408,192.257224,0.223694,1.06908467988,0,0,-0.671082,273.1, -4.2, 1.7,0,0,1024,1024,1024,1024,272.7,-90,97,3.815,3.795,3.87,3.84,3.856,3.831,18.528,66.2,14,Waypoint,
38.1644447,-120.1139009,5190.7281408408,193.241476,0,1.08453415544,25200,2018-05-11 19:16:03,19,0,23.016,5190.7281408408,193.241476,0.223694,1.08453415544,0,0,-0.671082,273.1, -4.2, 1.9,0,0,1024,1024,1024,1024,272.7,-89.9,97,3.815,3.795,3.87,3.84,3.856,3.831,18.528,66.2,14,Waypoint,
38.1644446,-120.1139008,5191.7123928408,194.225728,0,1.12646985232,25300,2018-05-11 19:16:03,19,0,23.016,5191.7123928408,194.225728,0.223694,1.12646985232,0,0,-0.671082,273, -4.2, 1.8,0,0,1024,1024,1024,1024,272.7,-89.9,97,3.815,3.795,3.87,3.84,3.856,3.831,18.528,66.2,14,Waypoint,
38.1644445,-120.1139007,5192.6966448408,195.20998,0,1.16874675656,25400,2018-05-11 19:16:03,19,0,23.016,5192.6966448408,195.20998,0.223694,1.16874675656,0,0,-0.671082,273, -4.3, 2,0,0,1024,1024,1024,1024,272.7,-89.9,97,3.815,3.795,3.87,3.84,3.856,3.831,18.528,66.2,14,Waypoint,
38.1644445,-120.1139006,5193.6808968408,196.194232,0,1.19416670488,25500,2018-05-11 19:16:03,19,0,23.016,5193.6808968408,196.194232,0.223694,1.19416670488,0,0,-0.671082,272.9, -4.4, 1.9,0,0,1024,1024,1024,1024,272.7,-90,97,3.815,3.795,3.87,3.84,3.856,3.831,18.528,66.2,14,Waypoint,
38.1644444,-120.1139004,5195.6494008408,198.162736,0,1.26189636584,25600,2018-05-11 19:16:03,19,0,23.016,5195.6494008408,198.162736,0.223694,1.26189636584,0,0,-0.671082,272.7, -5.1, 1.4,0,0,1024,1024,1024,1024,272.7,-90,97,3.815,3.795,3.87,3.84,3.856,3.831,18.528,66.2,14,Waypoint,
38.1644444,-120.1139003,5196.9617368408,199.475072,0,1.28739505432,25700,2018-05-11 19:16:03,19,0,23.016,5196.9617368408,199.475072,0.223694,1.28739505432,0,0,-0.671082,272.6, -5.3, 1.3,0,0,1024,1024,1024,1024,272.7,-90,97,3.815,3.795,3.87,3.84,3.856,3.831,18.528,66.2,14,Waypoint,
38.1644444,-120.1139002,5197.9459888408,200.459324,0,1.31302825724,25800,2018-05-11 19:16:03,19,0,23.016,5197.9459888408,200.459324,0.223694,1.31302825724,0,0,-0.671082,272.6, -5.6, 1.3,0,0,1024,1024,1024,1024,272.7,-90,97,3.815,3.795,3.87,3.84,3.856,3.831,18.528,66.2,14,Waypoint,
38.1644444,-120.1139001,5198.9302408408,201.443576,0,1.33878285124,25900,2018-05-11 19:16:04,19,0,23.016,5198.9302408408,201.443576,0.223694,1.33878285124,0,0,-0.671082,272.7, -5.9, 1.5,0,0,1024,1024,1024,1024,272.7,-90,97,3.815,3.795,3.87,3.84,3.856,3.831,18.528,66.2,14,Waypoint,
38.1644444,-120.1138999,5199.9144928408,202.427828,0,1.39063980828,26000,2018-05-11 19:16:04,19,0,23.091,5199.9144928408,202.427828,0.223694,1.39063980828,0,0,-0.671082,272.7, -6.1, 1.1,0,0,1024,1024,1024,1024,272.7,-90,97,3.837,3.833,3.891,3.851,3.874,3.873,17.373,66.2,14,Waypoint,
38.1644445,-120.1138998,5200.5706608408,203.083996,0,1.40208665904,26100,2018-05-11 19:16:04,19,0,23.091,5200.5706608408,203.083996,0.223694,1.40208665904,0,0,-0.671082,272.6, -6.3, 0.2,0,0,1024,1024,1024,1024,272.7,-89.9,97,3.837,3.833,3.891,3.851,3.874,3.873,17.373,66.2,14,Waypoint,
38.1644446,-120.1138997,5201.5549128408,204.068248,0,1.41496395604,26200,2018-05-11 19:16:04,19,0,23.091,5201.5549128408,204.068248,0.223694,1.41496395604,0,0,-0.671082,272.6, -6.1, -0.4,0,0,1024,1024,1024,1024,272.7,-89.9,97,3.837,3.833,3.891,3.851,3.874,3.873,17.373,66.2,14,Waypoint,
38.1644446,-120.1138997,5202.2110808408,204.724416,0,1.41496395604,26320,2018-05-11 19:16:04,19,0,23.091,5202.2110808408,204.724416,0.223694,1.41496395604,0,0,-0.671082,272.6, -5.9, -0.5,0,0,1024,1024,1024,1024,272.7,-89.9,97,3.837,3.833,3.891,3.851,3.874,3.873,17.373,66.2,14,Waypoint,
38.1644446,-120.1138997,5202.2110808408,204.724416,0,1.41496395604,26400,2018-05-11 19:16:04,19,0,23.091,5202.2110808408,204.724416,0.223694,1.41496395604,0,0,-0.671082,272.6, -5.9, -0.5,0,0,1024,1024,1024,1024,272.7,-89.9,97,3.837,3.833,3.891,3.851,3.874,3.873,17.373,66.2,14,Waypoint,
38.1644448,-120.1138997,5204.1795848408,206.69292,0,1.3902887584,26500,2018-05-11 19:16:04,19,0,23.091,5204.1795848408,206.69292,0.223694,1.41496395604,0,0,-0.671082,272.4, -5.4, -0.3,0,0,1024,1024,1024,1024,272.7,-89.9,97,3.837,3.833,3.891,3.851,3.874,3.873,17.373,66.2,14,Waypoint,
