latitude,longitude,altitude(feet),ascent(feet),speed(mph),distance(feet),time(millisecond),datetime(utc),satellites,gpslevel,voltage(v),max_altitude(feet),max_ascent(feet),max_speed(mph),max_distance(feet), xSpeed(mph), ySpeed(mph), zSpeed(mph), compass_heading(degrees), pitch(degrees), roll(degrees),isPhoto,isVideo,rc_elevator,rc_aileron,rc_throttle,rc_rudder,gimbal_heading(degrees),gimbal_pitch(degrees),battery_percent,voltageCell1,voltageCell2,voltageCell3,voltageCell4,voltageCell5,voltageCell6,current(A),battery_temperature(f),flycStateRaw,flycState,message
38.1644191,-120.1138912,4997.1518524942,0,0,0,3160,2018-05-11 18:28:22,18,0,0,4997.1518524942,0,0,0,0,0,0,278.4, 0.3, 0.1,1,0,1024,1024,1024,1024,278.3,-89.9,100,4.128,4.147,4.111,4.145,4.188,4.1,0,59,11,AutoTakeoff,DJI_0070.jpg Starting Mission from Lat/Long: 38.16442/-120.11389 Camera: Zenmuse X3 - Overlap: 90/90 - Active Connection: No
38.1644191,-120.1138913,4997.1518524942,0,0,0.0286859589232,3200,2018-05-11 18:28:22,18,0,0,4997.1518524942,0,0,0.0286859589232,0,0,0,278.6, 0.7, 0.6,0,0,1024,1024,1024,1024,278.3,-89.9,100,4.128,4.147,4.111,4.145,4.188,4.1,0,59,11,AutoTakeoff,
38.164419,-120.1138913,4997.1518524942,0,0,0.046411418808,3300,2018-05-11 18:28:22,18,0,0,4997.1518524942,0,0,0.046411418808,0,0,0,278.7, 1, 0.7,0,0,1024,1024,1024,1024,278.3,-89.9,100,4.128,4.147,4.111,4.145,4.188,4.1,0,59,11,AutoTakeoff,
38.164419,-120.1138914,4997.1518524942,0,0,0.06799048774,3400,2018-05-11 18:28:22,18,0,0,4997.1518524942,0,0,0.06799048774,0,0,0,278.7, 0.8, 0.4,0,0,1024,1024,1024,1024,278.2,-89.9,100,4.128,4.147,4.111,4.145,4.188,4.1,0,59,11,AutoTakeoff,
38.164419,-120.1138914,4997.4799364942,0.328084,0,0.06799048774,3500,2018-05-11 18:28:22,18,0,0,4997.4799364942,0.328084,0,0.06799048774,0,0,0,278.7, 0.4, 0.2,0,0,1024,1024,1024,1024,278.3,-89.9,100,4.128,4.147,4.111,4.145,4.188,4.1,0,59,11,AutoTakeoff,
38.164419,-120.1138914,4997.4799364942,0.328084,0,0.06799048774,3600,2018-05-11 18:28:22,17,0,0,4997.4799364942,0.328084,0,0.06799048774,0,0,0,278.6, 0.2, 0.3,0,0,1024,1024,1024,1024,278.2,-89.9,100,4.128,4.147,4.111,4.145,4.188,4.1,0,59,11,AutoTakeoff,
38.164419,-120.1138914,4997.8080204942,0.656168,0,0.06799048774,3800,2018-05-11 18:28:22,17,0,0,4997.8080204942,0.656168,0,0.06799048774,0,0,0,278.6, 0, 0.6,0,0,1024,1024,1024,1024,278.2,-89.9,100,4.128,4.147,4.111,4.145,4.188,4.1,0,59,11,AutoTakeoff,
38.164419,-120.1138914,4997.8080204942,0.656168,0,0.06799048774,4000,2018-05-11 18:28:22,16,0,24.876,4997.8080204942,0.656168,0,0.06799048774,0,0,0,278.5, 0.2, 0.8,0,0,1024,1024,1024,1024,278.2,-89.9,100,4.128,4.147,4.111,4.145,4.188,4.1,3.981,59,11,AutoTakeoff,
38.164419,-120.1138914,4998.1361044942,0.984252,0,0.06799048774,4100,2018-05-11 18:28:23,16,0,24.876,4998.1361044942,0.984252,0,0.06799048774,0,0,-0.223694,278.4, 0.1, 0.7,0,0,1024,1024,1024,1024,278.2,-89.9,100,4.128,4.147,4.111,4.145,4.188,4.1,3.981,59,11,AutoTakeoff,
38.164419,-120.1138914,4998.4641884942,1.312336,0,0.06799048774,4200,2018-05-11 18:28:23,15,0,24.876,4998.4641884942,1.312336,0,0.06799048774,0,0,-0.223694,278.3, 0.3, 0.4,0,0,1024,1024,1024,1024,278.2,-89.9,100,4.128,4.147,4.111,4.145,4.188,4.1,3.981,59,11,AutoTakeoff,
38.164419,-120.1138914,4998.4641884942,1.312336,0,0.06799048774,4300,2018-05-11 18:28:23,15,0,24.876,4998.4641884942,1.312336,0,0.06799048774,0,0,-0.223694,278.1, 0.5, 0.1,0,0,1024,1024,1024,1024,278.2,-89.9,100,4.128,4.147,4.111,4.145,4.188,4.1,3.981,59,11,AutoTakeoff,
38.1644191,-120.1138915,4998.7922724942,1.64042,0,0.086057745536,4500,2018-05-11 18:28:23,15,0,24.876,4998.7922724942,1.64042,0,0.086057745536,0,0,-0.223694,278, 0.6, 0,0,0,1024,1024,1024,1024,278.2,-89.9,100,4.128,4.147,4.111,4.145,4.188,4.1,3.981,59,11,AutoTakeoff,
38.1644191,-120.1138915,4998.7922724942,1.64042,0,0.086057745536,4600,2018-05-11 18:28:23,15,0,24.876,4998.7922724942,1.64042,0,0.086057745536,0,0,-0.223694,277.9, 0.6, -0.2,0,0,1024,1024,1024,1024,278.2,-89.9,100,4.128,4.147,4.111,4.145,4.188,4.1,3.981,59,11,AutoTakeoff,
38.1644191,-120.1138915,4999.1203564942,1.968504,0,0.086057745536,4800,2018-05-11 18:28:23,13,0,24.876,4999.1203564942,1.968504,0,0.086057745536,0,0,-0.223694,277.8, 0.5, -0.3,0,0,1024,1024,1024,1024,278.2,-89.9,100,4.128,4.147,4.111,4.145,4.188,4.1,3.981,59,11,AutoTakeoff,
38.1644191,-120.1138915,4999.1203564942,1.968504,0,0.086057745536,4900,2018-05-11 18:28:23,13,0,24.876,4999.1203564942,1.968504,0,0.086057745536,0,0,0,277.8, 0.4, -0.1,0,0,1024,1024,1024,1024,278.2,-89.9,100,4.128,4.147,4.111,4.145,4.188,4.1,3.981,59,11,AutoTakeoff,
38.1644191,-120.1138915,4999.4484404942,2.296588,0,0.086057745536,5100,2018-05-11 18:28:24,14,0,24.876,4999.4484404942,2.296588,0,0.086057745536,0,0,0,277.9, 0.3, 0,0,0,1024,1024,1024,1024,278.2,-89.9,100,4.128,4.147,4.111,4.145,4.188,4.1,3.981,59,11,AutoTakeoff,
38.1644191,-120.1138915,4999.7765244942,2.624672,0,0.086057745536,5200,2018-05-11 18:28:24,15,0,24.876,4999.7765244942,2.624672,0,0.086057745536,0,0,0,278.1, 0.3, 0,0,0,1024,1024,1024,1024,278.2,-89.9,100,4.128,4.147,4.111,4.145,4.188,4.1,3.981,59,11,AutoTakeoff,
38.1644191,-120.1138915,5000.1046084942,2.952756,0,0.086057745536,5300,2018-05-11 18:28:24,15,0,24.876,5000.1046084942,2.952756,0,0.086057745536,0,0,0,278.1, 0.4, 0,0,0,1024,1024,1024,1024,278.2,-89.9,100,4.128,4.147,4.111,4.145,4.188,4.1,3.981,59,6,P-GPS,
38.1644192,-120.1138916,5000.4326924942,3.28084,0,0.120404859496,5500,2018-05-11 18:28:24,15,0,24.876,5000.4326924942,3.28084,0,0.120404859496,0,0,0,278.1, 0.3, -0.2,0,0,1024,1024,1024,1024,278.2,-89.9,100,4.128,4.147,4.111,4.145,4.188,4.1,3.981,59,14,Waypoint,
38.1644192,-120.1138916,5000.4326924942,3.28084,0,0.120404859496,5600,2018-05-11 18:28:24,15,0,24.876,5000.4326924942,3.28084,0,0.120404859496,0,0,0,278, 0.4, -0.3,0,0,1024,1024,1024,1024,278.2,-89.9,100,4.128,4.147,4.111,4.145,4.188,4.1,3.981,59,14,Waypoint,
38.1644193,-120.1138915,5000.4326924942,3.28084,0,0.11282972802,5700,2018-05-11 18:28:24,15,0,24.876,5000.4326924942,3.28084,0,0.120404859496,0,0,0,277.9, 0.3, -0.3,0,0,1024,1024,1024,1024,278.2,-89.9,100,4.128,4.147,4.111,4.145,4.188,4.1,3.981,59,14,Waypoint,
38.1644192,-120.1138914,5000.7607764942,3.608924,0,0.06799048774,5800,2018-05-11 18:28:24,15,0,24.876,5000.7607764942,3.608924,0,0.120404859496,0,0,-0.223694,277.9, -0.1, 0.1,0,0,1024,1024,1024,1024,278.2,-90,100,4.128,4.147,4.111,4.145,4.188,4.1,3.981,59,14,Waypoint,
38.1644192,-120.1138914,5001.0888604942,3.937008,0,0.06799048774,5900,2018-05-11 18:28:24,17,0,24.876,5001.0888604942,3.937008,0,0.120404859496,0,0,-0.223694,277.9, -0.2, 0.3,0,0,1024,1024,1024,1024,278.2,-90,100,4.128,4.147,4.111,4.145,4.188,4.1,3.981,59,14,Waypoint,
38.1644192,-120.1138913,5001.7450284942,4.593176,0,0.046411418808,6000,2018-05-11 18:28:24,14,0,23.154,5001.7450284942,4.593176,0,0.120404859496,0,0,-0.223694,278, -0.3, 0.5,0,0,1024,1024,1024,1024,278.2,-90,100,3.855,3.833,3.826,3.849,3.885,3.866,16.456,59,14,Waypoint,
38.1644192,-120.1138913,5002.4011964942,5.249344,0,0.046411418808,6100,2018-05-11 18:28:25,14,0,23.154,5002.4011964942,5.249344,0,0.120404859496,0,0,-0.223694,278, -0.2, 0.4,0,0,1024,1024,1024,1024,278.2,-89.9,100,3.855,3.833,3.826,3.849,3.885,3.866,16.456,59,14,Waypoint,
38.1644192,-120.1138913,5002.7292804942,5.577428,0,0.046411418808,6200,2018-05-11 18:28:25,15,0,23.154,5002.7292804942,5.577428,0,0.120404859496,0,0,-0.447388,278.1, 0, 0.2,0,0,1024,1024,1024,1024,278.2,-89.9,100,3.855,3.833,3.826,3.849,3.885,3.866,16.456,59,14,Waypoint,
38.1644193,-120.1138913,5003.3854484942,6.233596,0,0.078405842404,6310,2018-05-11 18:28:25,15,0,23.154,5003.3854484942,6.233596,0,0.120404859496,0,0,-0.447388,278.3, 0, 0.1,0,0,1024,1024,1024,1024,278.2,-89.9,100,3.855,3.833,3.826,3.849,3.885,3.866,16.456,59,14,Waypoint,
38.1644194,-120.1138912,5004.6977844942,7.545932,0,0.109454727912,6510,2018-05-11 18:28:25,14,0,23.154,5004.6977844942,7.545932,0,0.120404859496,0,0,-0.447388,278.5, 0.2, 0,0,0,1024,1024,1024,1024,278.2,-89.9,100,3.855,3.833,3.826,3.849,3.885,3.866,16.456,59,14,Waypoint,
38.1644196,-120.1138911,5005.3539524942,8.2021,0,0.184666344492,6620,2018-05-11 18:28:25,16,0,23.154,5005.3539524942,8.2021,0,0.184666344492,0,0,-0.671082,278.5, 0.2, 0,0,0,1024,1024,1024,1024,278.2,-89.9,100,3.855,3.833,3.826,3.849,3.885,3.866,16.456,59,14,Waypoint,
38.1644199,-120.1138911,5007.3224564942,10.170604,0,0.29328577054,6810,2018-05-11 18:28:25,16,0,23.154,5007.3224564942,10.170604,0,0.29328577054,0,0,-0.671082,278.6, 0.2, -0.4,0,0,1024,1024,1024,1024,278.2,-89.9,100,3.855,3.833,3.826,3.849,3.885,3.866,16.456,59,14,Waypoint,
38.1644199,-120.1138911,5007.3224564942,10.170604,0,0.29328577054,6900,2018-05-11 18:28:25,16,0,23.154,5007.3224564942,10.170604,0,0.29328577054,0,0,-0.671082,278.6, 0.2, -0.4,0,0,1024,1024,1024,1024,278.2,-89.9,100,3.855,3.833,3.826,3.849,3.885,3.866,16.456,59,14,Waypoint,
38.1644204,-120.1138909,5009.6190444942,12.467192,0,0.48204725952,7100,2018-05-11 18:28:26,16,0,23.154,5009.6190444942,12.467192,0,0.48204725952,0,0,-0.671082,278.8, -0.3, -0.9,0,0,1024,1024,1024,1024,278.3,-90,100,3.855,3.833,3.826,3.849,3.885,3.866,16.456,59,14,Waypoint,
38.1644205,-120.1138907,5010.6032964942,13.451444,0,0.5305446364,7200,2018-05-11 18:28:26,16,0,23.154,5010.6032964942,13.451444,0,0.5305446364,0,0,-0.671082,278.9, -0.6, -1,0,0,1024,1024,1024,1024,278.3,-90,100,3.855,3.833,3.826,3.849,3.885,3.866,16.456,59,14,Waypoint,
38.1644207,-120.1138906,5011.9156324942,14.76378,0,0.60860238168,7300,2018-05-11 18:28:26,14,0,23.154,5011.9156324942,14.76378,0,0.60860238168,0,0,-0.671082,278.9, -0.9, -1.2,0,0,1024,1024,1024,1024,278.2,-90,100,3.855,3.833,3.826,3.849,3.885,3.866,16.456,59,14,Waypoint,
38.1644211,-120.1138904,5014.2122204942,17.060368,0,0.76493440768,7400,2018-05-11 18:28:26,14,0,23.154,5014.2122204942,17.060368,0,0.76493440768,0,0,-0.671082,278.6, -1.1, -1.7,0,0,1024,1024,1024,1024,278.2,-90,100,3.855,3.833,3.826,3.849,3.885,3.866,16.456,59,14,Waypoint,
38.1644211,-120.1138904,5015.1964724942,18.04462,0,0.76493440768,7500,2018-05-11 18:28:26,14,0,23.154,5015.1964724942,18.04462,0,0.76493440768,0,0,-0.671082,278.4, -1.2, -1.7,0,0,1024,1024,1024,1024,278.2,-90,100,3.855,3.833,3.826,3.849,3.885,3.866,16.456,59,14,Waypoint,
38.1644212,-120.1138903,5016.5088084942,19.356956,0,0.80851052456,7600,2018-05-11 18:28:26,15,0,23.154,5016.5088084942,19.356956,0,0.80851052456,0,0,-0.671082,278.2, -1.1, -1.7,0,0,1024,1024,1024,1024,278.2,-90,100,3.855,3.833,3.826,3.849,3.885,3.866,16.456,59,14,Waypoint,
38.1644211,-120.1138903,5017.4930604942,20.341208,0,0.77402561532,7700,2018-05-11 18:28:26,15,0,23.154,5017.4930604942,20.341208,0,0.80851052456,0,0,-0.671082,278, -0.9, -1.4,0,0,1024,1024,1024,1024,278.2,-89.9,100,3.855,3.833,3.826,3.849,3.885,3.866,16.456,59,14,Waypoint,
38.164421,-120.1138903,5018.8053964942,21.653544,0,0.73972771396,7800,2018-05-11 18:28:26,15,0,23.154,5018.8053964942,21.653544,0,0.80851052456,0,0,-0.671082,277.9, -0.7, -1.1,0,0,1024,1024,1024,1024,278.2,-89.9,100,3.855,3.833,3.826,3.849,3.885,3.866,16.456,59,14,Waypoint,
38.1644209,-120.1138903,5019.7896484942,22.637796,0.223694,0.70565290972,7900,2018-05-11 18:28:26,15,0,23.154,5019.7896484942,22.637796,0.223694,0.80851052456,0,0,-0.671082,277.9, -0.6, -0.7,0,0,1024,1024,1024,1024,278.2,-89.9,100,3.855,3.833,3.826,3.849,3.885,3.866,16.456,59,14,Waypoint,
38.1644208,-120.1138903,5020.7739004942,23.622048,0.223694,0.67183073016,8000,2018-05-11 18:28:26,15,0,22.352,5020.7739004942,23.622048,0.223694,0.80851052456,0,0,-0.671082,277.9, -0.6, -0.4,0,0,1024,1024,1024,1024,278.2,-89.9,98,3.922,3.879,3.803,3.899,3.878,3.836,24.021,59,14,Waypoint,
38.1644206,-120.1138902,5022.0862364942,24.934384,0.223694,0.6178970014,8100,2018-05-11 18:28:27,15,0,22.352,5022.0862364942,24.934384,0.223694,0.80851052456,0,0,-0.671082,278, -0.6, -0.1,0,0,1024,1024,1024,1024,278.2,-90,98,3.922,3.879,3.803,3.899,3.878,3.836,24.021,59,14,Waypoint,
38.1644203,-120.1138902,5023.0704884942,25.918636,0.223694,0.5234252136,8200,2018-05-11 18:28:27,16,0,22.352,5023.0704884942,25.918636,0.223694,0.80851052456,0,0,-0.671082,278, -0.8, 0.5,0,0,1024,1024,1024,1024,278.2,-90,98,3.922,3.879,3.803,3.899,3.878,3.836,24.021,59,14,Waypoint,
38.1644198,-120.1138903,5025.0389924942,27.88714,0.223694,0.36315289876,8400,2018-05-11 18:28:27,17,0,22.352,5025.0389924942,27.88714,0.223694,0.80851052456,0,0,-0.671082,278.3, -0.8, 1.6,0,0,1024,1024,1024,1024,278.2,-89.9,98,3.922,3.879,3.803,3.899,3.878,3.836,24.021,59,14,Waypoint,
38.1644196,-120.1138903,5026.0232444942,28.871392,0.223694,0.316120745024,8600,2018-05-11 18:28:27,17,0,22.352,5026.0232444942,28.871392,0.223694,0.80851052456,0,0,-0.671082,278.4, -0.8, 1.8,0,0,1024,1024,1024,1024,278.2,-89.9,98,3.922,3.879,3.803,3.899,3.878,3.836,24.021,59,14,Waypoint,
38.1644194,-120.1138903,5027.3355804942,30.183728,0.223694,0.280417331808,8700,2018-05-11 18:28:27,16,0,22.352,5027.3355804942,30.183728,0.223694,0.80851052456,0,0,-0.671082,278.4, -0.6, 1.8,0,0,1024,1024,1024,1024,278.2,-89.9,98,3.922,3.879,3.803,3.899,3.878,3.836,24.021,59,14,Waypoint,
38.1644192,-120.1138904,5028.3198324942,31.16798,0.223694,0.232369758092,8800,2018-05-11 18:28:27,16,0,22.352,5028.3198324942,31.16798,0.223694,0.80851052456,0,0,-0.671082,278.5, -0.5, 1.7,0,0,1024,1024,1024,1024,278.2,-89.9,98,3.922,3.879,3.803,3.899,3.878,3.836,24.021,59,14,Waypoint,
38.164419,-120.1138904,5029.3040844942,32.152232,0,0.232369758092,8900,2018-05-11 18:28:27,18,0,22.352,5029.3040844942,32.152232,0.223694,0.80851052456,0,0,-0.671082,278.4, -0.5, 1.6,0,0,1024,1024,1024,1024,278.2,-89.9,98,3.922,3.879,3.803,3.899,3.878,3.836,24.021,59,14,Waypoint,
38.1644186,-120.1138905,5031.2725884942,34.120736,0,0.271293315768,9000,2018-05-11 18:28:27,17,0,22.261,5031.2725884942,34.120736,0.223694,0.80851052456,0,0,-0.671082,278.3, -0.3, 1.4,0,0,1024,1024,1024,1024,278.2,-89.9,98,3.922,3.879,3.803,3.899,3.878,3.836,19.416,59,14,Waypoint,
38.1644185,-120.1138906,5032.5849244942,35.433072,0,0.2784694971,9120,2018-05-11 18:28:28,17,0,22.261,5032.5849244942,35.433072,0.223694,0.80851052456,0,0,-0.671082,278.2, -0.3, 1.2,0,0,1024,1024,1024,1024,278.2,-89.9,98,3.922,3.879,3.803,3.899,3.878,3.836,19.416,59,14,Waypoint,
38.1644185,-120.1138906,5032.5849244942,35.433072,0,0.2784694971,9200,2018-05-11 18:28:28,17,0,22.261,5032.5849244942,35.433072,0.223694,0.80851052456,0,0,-0.671082,278.2, -0.3, 1.2,0,0,1024,1024,1024,1024,278.2,-89.9,98,3.922,3.879,3.803,3.899,3.878,3.836,19.416,59,14,Waypoint,
38.1644183,-120.1138906,5033.5691764942,36.417324,0,0.33884843604,9300,2018-05-11 18:28:28,17,0,22.261,5033.5691764942,36.417324,0.223694,0.80851052456,0,0,-0.671082,278.1, -0.4, 1.1,0,0,1024,1024,1024,1024,278.2,-89.9,98,3.922,3.879,3.803,3.899,3.878,3.836,19.416,59,14,Waypoint,
38.1644182,-120.1138907,5034.5534284942,37.401576,0,0.35832350228,9400,2018-05-11 18:28:28,17,0,22.261,5034.5534284942,37.401576,0.223694,0.80851052456,0,0,-0.671082,278, -0.3, 0.9,0,0,1024,1024,1024,1024,278.2,-89.9,98,3.922,3.879,3.803,3.899,3.878,3.836,19.416,59,14,Waypoint,
38.1644182,-120.1138908,5035.5376804942,38.385828,0,0.3478346568,9500,2018-05-11 18:28:28,18,0,22.261,5035.5376804942,38.385828,0.223694,0.80851052456,0,0,-0.671082,278, -0.2, 0.7,0,0,1024,1024,1024,1024,278.2,-89.9,98,3.922,3.879,3.803,3.899,3.878,3.836,19.416,59,14,Waypoint,
38.1644181,-120.1138908,5036.5219324942,39.37008,0,0.38246720384,9600,2018-05-11 18:28:28,18,0,22.261,5036.5219324942,39.37008,0.223694,0.80851052456,0,0,-0.671082,278, -0.1, 0.6,0,0,1024,1024,1024,1024,278.2,-89.9,98,3.922,3.879,3.803,3.899,3.878,3.836,19.416,59,14,Waypoint,
38.164418,-120.1138909,5038.4904364942,41.338584,0,0.41045604988,9700,2018-05-11 18:28:28,18,0,22.261,5038.4904364942,41.338584,0.223694,0.80851052456,0,0,-0.671082,278.1, -0.1, 0.5,0,0,1024,1024,1024,1024,278.2,-89.9,98,3.922,3.879,3.803,3.899,3.878,3.836,19.416,59,14,Waypoint,
38.1644179,-120.1138909,5039.4746884942,42.322836,0,0.44619752084,9800,2018-05-11 18:28:28,18,0,22.261,5039.4746884942,42.322836,0.223694,0.80851052456,0,0,-0.671082,278.2, -0.1, 0.5,0,0,1024,1024,1024,1024,278.2,-89.9,98,3.922,3.879,3.803,3.899,3.878,3.836,19.416,59,14,Waypoint,
38.164418,-120.1138909,5041.4431924942,44.29134,0,0.41045604988,10000,2018-05-11 18:28:28,18,0,22.562,5041.4431924942,44.29134,0.223694,0.80851052456,0,0,-0.671082,278.2, -0.1, 0.2,0,0,1024,1024,1024,1024,278.2,-89.9,98,3.769,3.742,3.723,3.749,3.793,3.77,19.246,59,14,Waypoint,
38.164418,-120.113891,5042.4274444942,45.275592,0,0.4054133988,10100,2018-05-11 18:28:29,18,0,22.562,5042.4274444942,45.275592,0.223694,0.80851052456,0,0,-0.671082,278.1, -0.2, 0.1,0,0,1024,1024,1024,1024,278.2,-90,98,3.769,3.742,3.723,3.749,3.793,3.77,19.246,59,14,Waypoint,
38.164418,-120.113891,5043.4116964942,46.259844,0,0.4054133988,10200,2018-05-11 18:28:29,17,0,22.562,5043.4116964942,46.259844,0.223694,0.80851052456,0,0,-0.671082,278.1, -0.2, 0.1,0,0,1024,1024,1024,1024,278.2,-89.9,98,3.769,3.742,3.723,3.749,3.793,3.77,19.246,59,14,Waypoint,
38.1644181,-120.113891,5044.3959484942,47.244096,0,0.36933400132,10300,2018-05-11 18:28:29,17,0,22.562,5044.3959484942,47.244096,0.223694,0.80851052456,0,0,-0.671082,278, -0.2, 0.2,0,0,1024,1024,1024,1024,278.2,-89.9,98,3.769,3.742,3.723,3.749,3.793,3.77,19.246,59,14,Waypoint,
38.1644181,-120.113891,5045.3802004942,48.228348,0,0.36933400132,10400,2018-05-11 18:28:29,18,0,22.562,5045.3802004942,48.228348,0.223694,0.80851052456,0,0,-0.671082,278, -0.2, 0.2,0,0,1024,1024,1024,1024,278.2,-89.9,98,3.769,3.742,3.723,3.749,3.793,3.77,19.246,59,14,Waypoint,
38.1644182,-120.113891,5046.3644524942,49.2126,0,0.33333990568,10500,2018-05-11 18:28:29,18,0,22.562,5046.3644524942,49.2126,0.223694,0.80851052456,0,0,-0.671082,278, -0.2, 0.1,0,0,1024,1024,1024,1024,278.2,-89.9,98,3.769,3.742,3.723,3.749,3.793,3.77,19.246,59,14,Waypoint,
38.1644182,-120.113891,5047.3487044942,50.196852,0,0.33333990568,10600,2018-05-11 18:28:29,18,0,22.562,5047.3487044942,50.196852,0.223694,0.80851052456,0,0,-0.671082,277.9, -0.3, 0,0,0,1024,1024,1024,1024,278.2,-90,98,3.769,3.742,3.723,3.749,3.793,3.77,19.246,59,14,Waypoint,
38.1644185,-120.1138909,5049.3172084942,52.165356,0,0.235217855296,10800,2018-05-11 18:28:29,18,0,22.562,5049.3172084942,52.165356,0.223694,0.80851052456,0,0,-0.671082,277.9, -0.8, -0.5,0,0,1024,1024,1024,1024,278.2,-90,98,3.769,3.742,3.723,3.749,3.793,3.77,19.246,59,14,Waypoint,
38.1644186,-120.1138909,5050.3014604942,53.149608,0,0.20170440278,10900,2018-05-11 18:28:29,18,0,22.562,5050.3014604942,53.149608,0.223694,0.80851052456,0,0,-0.671082,278, -0.8, -0.8,0,0,1024,1024,1024,1024,278.2,-90,98,3.769,3.742,3.723,3.749,3.793,3.77,19.246,59,14,Waypoint,
38.1644187,-120.1138908,5051.2857124942,54.13386,0,0.1856463314,11000,2018-05-11 18:28:29,19,0,22.551,5051.2857124942,54.13386,0.223694,0.80851052456,0,0,-0.671082,278, -0.8, -1,0,0,1024,1024,1024,1024,278.2,-89.9,98,3.768,3.736,3.734,3.744,3.798,3.768,19.157,59,14,Waypoint,
38.1644189,-120.1138909,5052.2699644942,55.118112,0,0.11282972802,11120,2018-05-11 18:28:30,19,0,22.551,5052.2699644942,55.118112,0.223694,0.80851052456,0,0,-0.671082,278.1, -0.5, -1.2,0,0,1024,1024,1024,1024,278.2,-89.9,98,3.768,3.736,3.734,3.744,3.798,3.768,19.157,59,14,Waypoint,
38.164419,-120.1138909,5053.2542164942,56.102364,0,0.093472443936,11200,2018-05-11 18:28:30,18,0,22.551,5053.2542164942,56.102364,0.223694,0.80851052456,0,0,-0.671082,278.2, -0.3, -1.3,0,0,1024,1024,1024,1024,278.2,-89.9,98,3.768,3.736,3.734,3.744,3.798,3.768,19.157,59,14,Waypoint,
38.1644191,-120.1138909,5054.2384684942,57.086616,0,0.086057745536,11400,2018-05-11 18:28:30,18,0,22.551,5054.2384684942,57.086616,0.223694,0.80851052456,0,0,-0.671082,278.3, -0.1, -1.3,0,0,1024,1024,1024,1024,278.2,-89.9,98,3.768,3.736,3.734,3.744,3.798,3.768,19.157,59,14,Waypoint,
38.1644193,-120.1138909,5055.2227204942,58.070868,0,0.11282972802,11500,2018-05-11 18:28:30,17,0,22.551,5055.2227204942,58.070868,0.223694,0.80851052456,0,0,-0.671082,278.4, 0, -1.2,0,0,1024,1024,1024,1024,278.2,-89.9,98,3.768,3.736,3.734,3.744,3.798,3.768,19.157,59,14,Waypoint,
38.1644194,-120.1138909,5056.2069724942,59.05512,0,0.139234584508,11600,2018-05-11 18:28:30,17,0,22.551,5056.2069724942,59.05512,0.223694,0.80851052456,0,0,-0.671082,278.4, 0, -1.2,0,0,1024,1024,1024,1024,278.2,-89.9,98,3.768,3.736,3.734,3.744,3.798,3.768,19.157,59,14,Waypoint,
38.1644195,-120.1138909,5057.1912244942,60.039372,0,0.169423561852,11700,2018-05-11 18:28:30,19,0,22.551,5057.1912244942,60.039372,0.223694,0.80851052456,0,0,-0.671082,278.4, 0, -1.2,0,0,1024,1024,1024,1024,278.2,-89.9,98,3.768,3.736,3.734,3.744,3.798,3.768,19.157,59,14,Waypoint,
38.1644197,-120.113891,5058.1754764942,61.023624,0,0.226302828764,11800,2018-05-11 18:28:30,19,0,22.551,5058.1754764942,61.023624,0.223694,0.80851052456,0,0,-0.671082,278.3, 0.1, -1.2,0,0,1024,1024,1024,1024,278.2,-89.9,98,3.768,3.736,3.734,3.744,3.798,3.768,19.157,59,14,Waypoint,
38.1644198,-120.113891,5059.1597284942,62.007876,0,0.261759194728,11900,2018-05-11 18:28:30,19,0,22.551,5059.1597284942,62.007876,0.223694,0.80851052456,0,0,-0.671082,278.2, 0.3, -1.3,0,0,1024,1024,1024,1024,278.2,-89.9,98,3.768,3.736,3.734,3.744,3.798,3.768,19.157,59,14,Waypoint,
38.1644199,-120.113891,5060.1439804942,62.992128,0,0.297464576448,12000,2018-05-11 18:28:30,19,0,22.551,5060.1439804942,62.992128,0.223694,0.80851052456,0,0,-0.671082,278.1, 0.4, -1.3,0,0,1024,1024,1024,1024,278.2,-89.9,98,3.768,3.736,3.734,3.744,3.798,3.768,19.157,59,14,Waypoint,
38.16442,-120.113891,5061.1282324942,63.97638,0,0.33333990568,12100,2018-05-11 18:28:31,19,0,22.551,5061.1282324942,63.97638,0.223694,0.80851052456,0,0,-0.671082,278, 0.3, -1.2,0,0,1024,1024,1024,1024,278.2,-89.9,98,3.768,3.736,3.734,3.744,3.798,3.768,19.157,59,14,Waypoint,
38.1644202,-120.113891,5063.0967364942,65.944884,0,0.4054133988,12200,2018-05-11 18:28:31,19,0,22.551,5063.0967364942,65.944884,0.223694,0.80851052456,0,0,-0.671082,278, 0, -1.1,0,0,1024,1024,1024,1024,278.2,-89.9,98,3.768,3.736,3.734,3.744,3.798,3.768,19.157,59,14,Waypoint,
38.1644202,-120.1138909,5064.0809884942,66.929136,0,0.41045604988,12300,2018-05-11 18:28:31,19,0,22.551,5064.0809884942,66.929136,0.223694,0.80851052456,0,0,-0.671082,278, 0, -1.1,0,0,1024,1024,1024,1024,278.2,-89.9,98,3.768,3.736,3.734,3.744,3.798,3.768,19.157,59,14,Waypoint,
38.1644203,-120.1138909,5065.0652404942,67.913388,0,0.44619752084,12400,2018-05-11 18:28:31,19,0,22.551,5065.0652404942,67.913388,0.223694,0.80851052456,0,0,-0.671082,278, -0.1, -1.2,0,0,1024,1024,1024,1024,278.2,-89.9,98,3.768,3.736,3.734,3.744,3.798,3.768,19.157,59,14,Waypoint,
38.1644204,-120.1138909,5066.0494924942,68.89764,0,0.48204725952,12500,2018-05-11 18:28:31,19,0,22.551,5066.0494924942,68.89764,0.223694,0.80851052456,0,0,-0.671082,278, 0, -1.2,0,0,1024,1024,1024,1024,278.2,-89.9,98,3.768,3.736,3.734,3.744,3.798,3.768,19.157,59,14,Waypoint,
38.1644204,-120.1138909,5067.0337444942,69.881892,0,0.48204725952,12600,2018-05-11 18:28:31,19,0,22.551,5067.0337444942,69.881892,0.223694,0.80851052456,0,0,-0.671082,278, 0, -1.1,0,0,1024,1024,1024,1024,278.2,-89.9,98,3.768,3.736,3.734,3.744,3.798,3.768,19.157,59,14,Waypoint,
38.1644205,-120.1138909,5068.0179964942,70.866144,0,0.51798886172,12700,2018-05-11 18:28:31,19,0,22.551,5068.0179964942,70.866144,0.223694,0.80851052456,0,0,-0.671082,278, 0, -0.9,0,0,1024,1024,1024,1024,278.2,-89.9,98,3.768,3.736,3.734,3.744,3.798,3.768,19.157,59,14,Waypoint,
38.1644205,-120.1138908,5069.0022484942,71.850396,0,0.52351707712,12800,2018-05-11 18:28:31,19,0,22.551,5069.0022484942,71.850396,0.223694,0.80851052456,0,0,-0.671082,278, -0.2, -0.8,0,0,1024,1024,1024,1024,278.2,-90,98,3.768,3.736,3.734,3.744,3.798,3.768,19.157,59,14,Waypoint,
38.1644205,-120.1138908,5069.9865004942,72.834648,0,0.52351707712,12900,2018-05-11 18:28:31,19,0,22.551,5069.9865004942,72.834648,0.223694,0.80851052456,0,0,-0.671082,277.9, -0.6, -0.9,0,0,1024,1024,1024,1024,278.2,-90,98,3.768,3.736,3.734,3.744,3.798,3.768,19.157,59,14,Waypoint,
38.1644205,-120.1138907,5070.9707524942,73.8189,0,0.5305446364,13000,2018-05-11 18:28:31,19,0,22.536,5070.9707524942,73.8189,0.223694,0.80851052456,0,0,-0.671082,277.8, -0.8, -0.8,0,0,1024,1024,1024,1024,278.2,-90,98,3.766,3.735,3.725,3.749,3.788,3.769,18.79,59,14,Waypoint,
38.1644205,-120.1138906,5072.9392564942,75.787404,0,0.5390092036,13200,2018-05-11 18:28:32,19,0,22.536,5072.9392564942,75.787404,0.223694,0.80851052456,0,0,-0.671082,277.6, -1, -0.5,0,0,1024,1024,1024,1024,278.2,-90,98,3.766,3.735,3.725,3.749,3.788,3.769,18.79,59,14,Waypoint,
38.1644205,-120.1138906,5073.9235084942,76.771656,0,0.5390092036,13310,2018-05-11 18:28:32,19,0,22.536,5073.9235084942,76.771656,0.223694,0.80851052456,0,0,-0.671082,277.6, -1.1, -0.3,0,0,1024,1024,1024,1024,278.2,-90,98,3.766,3.735,3.725,3.749,3.788,3.769,18.79,59,14,Waypoint,
38.1644204,-120.1138906,5075.8920124942,78.74016,0.223694,0.50456694528,13500,2018-05-11 18:28:32,19,0,22.536,5075.8920124942,78.74016,0.223694,0.80851052456,0,0,-0.671082,277.7, -0.8, -0.1,0,0,1024,1024,1024,1024,278.2,-89.9,98,3.766,3.735,3.725,3.749,3.788,3.769,18.79,59,14,Waypoint,
38.1644204,-120.1138906,5076.8762644942,79.724412,0.223694,0.50456694528,13700,2018-05-11 18:28:32,19,0,22.536,5076.8762644942,79.724412,0.223694,0.80851052456,0,0,-0.671082,277.7, -0.6, 0,0,0,1024,1024,1024,1024,278.2,-89.9,98,3.766,3.735,3.725,3.749,3.788,3.769,18.79,59,14,Waypoint,
38.1644204,-120.1138906,5077.8605164942,80.708664,0.223694,0.50456694528,13800,2018-05-11 18:28:32,19,0,22.536,5077.8605164942,80.708664,0.223694,0.80851052456,0,0,-0.671082,277.7, -0.4, 0,0,0,1024,1024,1024,1024,278.2,-89.9,98,3.766,3.735,3.725,3.749,3.788,3.769,18.79,59,14,Waypoint,
38.1644203,-120.1138905,5079.8290204942,82.677168,0,0.48166996292,13900,2018-05-11 18:28:32,19,0,22.536,5079.8290204942,82.677168,0.223694,0.80851052456,0,0,-0.671082,277.7, -0.4, 0.3,0,0,1024,1024,1024,1024,278.2,-89.9,98,3.766,3.735,3.725,3.749,3.788,3.769,18.79,59,14,Waypoint,
38.1644203,-120.1138905,5080.8132724942,83.66142,0,0.48166996292,14000,2018-05-11 18:28:32,19,0,22.565,5080.8132724942,83.66142,0.223694,0.80851052456,0,0,-0.671082,277.7, -0.5, 0.3,0,0,1024,1024,1024,1024,278.2,-90,98,3.766,3.735,3.725,3.749,3.788,3.769,18.368,59,14,Waypoint,
38.1644202,-120.1138905,5081.7975244942,84.645672,0,0.44876641856,14100,2018-05-11 18:28:33,19,0,22.565,5081.7975244942,84.645672,0.223694,0.80851052456,0,0,-0.671082,277.8, -0.5, 0.1,0,0,1024,1024,1024,1024,278.2,-89.9,98,3.766,3.735,3.725,3.749,3.788,3.769,18.368,59,14,Waypoint,
38.1644202,-120.1138905,5083.7660284942,86.614176,0,0.44876641856,14300,2018-05-11 18:28:33,19,0,22.565,5083.7660284942,86.614176,0.223694,0.80851052456,0,0,-0.671082,278.1, -0.6, 0,0,0,1024,1024,1024,1024,278.2,-90,98,3.766,3.735,3.725,3.749,3.788,3.769,18.368,59,14,Waypoint,
38.1644201,-120.1138905,5084.7502804942,87.598428,0,0.41645670624,14400,2018-05-11 18:28:33,19,0,22.565,5084.7502804942,87.598428,0.223694,0.80851052456,0,0,-0.671082,278.2, -0.7, 0,0,0,1024,1024,1024,1024,278.2,-89.9,98,3.766,3.735,3.725,3.749,3.788,3.769,18.368,59,14,Waypoint,
38.1644201,-120.1138905,5085.7345324942,88.58268,0,0.41645670624,14500,2018-05-11 18:28:33,19,0,22.565,5085.7345324942,88.58268,0.223694,0.80851052456,0,0,-0.671082,278.3, -0.6, 0,0,0,1024,1024,1024,1024,278.2,-89.9,98,3.766,3.735,3.725,3.749,3.788,3.769,18.368,59,14,Waypoint,
38.1644201,-120.1138905,5086.7187844942,89.566932,0,0.41645670624,14600,2018-05-11 18:28:33,19,0,22.565,5086.7187844942,89.566932,0.223694,0.80851052456,0,0,-0.671082,278.5, -0.5, 0,0,0,1024,1024,1024,1024,278.2,-89.9,98,3.766,3.735,3.725,3.749,3.788,3.769,18.368,59,14,Waypoint,
38.16442,-120.1138905,5087.7030364942,90.551184,0,0.38489502544,14700,2018-05-11 18:28:33,19,0,22.565,5087.7030364942,90.551184,0.223694,0.80851052456,0,0,-0.671082,278.6, -0.5, 0.1,0,0,1024,1024,1024,1024,278.2,-90,98,3.766,3.735,3.725,3.749,3.788,3.769,18.368,59,14,Waypoint,
38.16442,-120.1138905,5088.6872884942,91.535436,0,0.38489502544,14800,2018-05-11 18:28:33,20,0,22.565,5088.6872884942,91.535436,0.223694,0.80851052456,0,0,-0.671082,278.8, -0.6, 0.2,0,0,1024,1024,1024,1024,278.2,-90,98,3.766,3.735,3.725,3.749,3.788,3.769,18.368,59,14,Waypoint,
38.16442,-120.1138904,5089.6715404942,92.519688,0,0.40061024904,14900,2018-05-11 18:28:33,20,0,22.565,5089.6715404942,92.519688,0.223694,0.80851052456,0,0,-0.671082,278.9, -0.6, 0.4,0,0,1024,1024,1024,1024,278.2,-90,98,3.766,3.735,3.725,3.749,3.788,3.769,18.368,59,14,Waypoint,
38.1644199,-120.1138904,5090.6557924942,93.50394,0,0.3712926628,15000,2018-05-11 18:28:33,20,0,22.565,5090.6557924942,93.50394,0.223694,0.80851052456,0,0,-0.671082,278.9, -0.7, 0.5,0,0,1024,1024,1024,1024,278.2,-90,98,3.774,3.742,3.723,3.754,3.793,3.775,18.368,59,14,Waypoint,
38.1644199,-120.1138904,5091.6400444942,94.488192,0,0.3712926628,15100,2018-05-11 18:28:34,20,0,22.565,5091.6400444942,94.488192,0.223694,0.80851052456,0,0,-0.671082,278.9, -0.9, 0.5,0,0,1024,1024,1024,1024,278.2,-90,98,3.774,3.742,3.723,3.754,3.793,3.775,18.368,59,14,Waypoint,
38.1644199,-120.1138905,5092.6242964942,95.472444,0,0.3542815074,15200,2018-05-11 18:28:34,20,0,22.565,5092.6242964942,95.472444,0.223694,0.80851052456,0,0,-0.671082,278.8, -0.8, 0.3,0,0,1024,1024,1024,1024,278.2,-89.9,98,3.774,3.742,3.723,3.754,3.793,3.775,18.368,59,14,Waypoint,
38.1644199,-120.1138905,5093.6085484942,96.456696,0,0.3542815074,15300,2018-05-11 18:28:34,20,0,22.565,5093.6085484942,96.456696,0.223694,0.80851052456,0,0,-0.671082,278.6, -0.6, 0.1,0,0,1024,1024,1024,1024,278.2,-89.9,98,3.774,3.742,3.723,3.754,3.793,3.775,18.368,59,14,Waypoint,
38.1644198,-120.1138905,5094.5928004942,97.440948,0,0.324880915908,15410,2018-05-11 18:28:34,20,0,22.565,5094.5928004942,97.440948,0.223694,0.80851052456,0,0,-0.671082,278.4, -0.6, 0,0,0,1024,1024,1024,1024,278.2,-89.9,98,3.774,3.742,3.723,3.754,3.793,3.775,18.368,59,14,Waypoint,
38.1644198,-120.1138906,5095.5770524942,98.4252,0,0.307977700144,15500,2018-05-11 18:28:34,20,0,22.565,5095.5770524942,98.4252,0.223694,0.80851052456,0,0,-0.671082,278.3, -0.4, 0,0,0,1024,1024,1024,1024,278.2,-89.9,98,3.774,3.742,3.723,3.754,3.793,3.775,18.368,59,14,Waypoint,
38.1644198,-120.1138906,5096.5613044942,99.409452,0,0.307977700144,15700,2018-05-11 18:28:34,20,0,22.565,5096.5613044942,99.409452,0.223694,0.80851052456,0,0,-0.671082,278.1, -0.1, 0,0,0,1024,1024,1024,1024,278.2,-89.9,98,3.774,3.742,3.723,3.754,3.793,3.775,18.368,59,14,Waypoint,
38.1644198,-120.1138907,5097.5455564942,100.393704,0,0.292913723284,15800,2018-05-11 18:28:34,20,0,22.565,5097.5455564942,100.393704,0.223694,0.80851052456,0,0,-0.671082,277.9, 0, 0.2,0,0,1024,1024,1024,1024,278.2,-89.9,98,3.774,3.742,3.723,3.754,3.793,3.775,18.368,59,14,Waypoint,
38.1644198,-120.1138907,5098.5298084942,101.377956,0,0.292913723284,15900,2018-05-11 18:28:34,20,0,22.565,5098.5298084942,101.377956,0.223694,0.80851052456,0,0,-0.671082,277.7, 0, 0.4,0,0,1024,1024,1024,1024,278.2,-89.9,98,3.774,3.742,3.723,3.754,3.793,3.775,18.368,59,14,Waypoint,
38.1644198,-120.1138908,5099.5140604942,102.362208,0,0.279986557516,16000,2018-05-11 18:28:34,20,0,22.515,5099.5140604942,102.362208,0.223694,0.80851052456,0,0,-0.671082,277.7, 0, 0.4,0,0,1024,1024,1024,1024,278.2,-89.9,98,3.757,3.726,3.725,3.754,3.792,3.768,18.521,59,14,Waypoint,
38.1644198,-120.1138908,5100.4983124942,103.34646,0,0.279986557516,16100,2018-05-11 18:28:35,20,0,22.515,5100.4983124942,103.34646,0.223694,0.80851052456,0,0,-0.671082,277.8, -0.1, 0.1,0,0,1024,1024,1024,1024,278.2,-89.9,98,3.757,3.726,3.725,3.754,3.792,3.768,18.521,59,14,Waypoint,
38.1644198,-120.1138908,5101.4825644942,104.330712,0,0.279986557516,16200,2018-05-11 18:28:35,20,0,22.515,5101.4825644942,104.330712,0.223694,0.80851052456,0,0,-0.671082,277.9, -0.3, -0.3,0,0,1024,1024,1024,1024,278.2,-89.9,98,3.757,3.726,3.725,3.754,3.792,3.768,18.521,59,14,Waypoint,
38.1644199,-120.1138908,5102.4668164942,105.314964,0,0.3136236977,16300,2018-05-11 18:28:35,19,0,22.515,5102.4668164942,105.314964,0.223694,0.80851052456,0,0,-0.671082,278, -0.3, -0.6,0,0,1024,1024,1024,1024,278.2,-89.9,98,3.757,3.726,3.725,3.754,3.792,3.768,18.521,59,14,Waypoint,
38.1644199,-120.1138908,5103.4510684942,106.299216,0,0.3136236977,16400,2018-05-11 18:28:35,19,0,22.515,5103.4510684942,106.299216,0.223694,0.80851052456,0,0,-0.671082,278.1, -0.3, -0.7,0,0,1024,1024,1024,1024,278.2,-90,98,3.757,3.726,3.725,3.754,3.792,3.768,18.521,59,14,Waypoint,
38.1644199,-120.1138907,5105.4195724942,108.26772,0,0.32521654584,16500,2018-05-11 18:28:35,20,0,22.515,5105.4195724942,108.26772,0.223694,0.80851052456,0,0,-0.671082,278.2, -0.5, -0.6,0,0,1024,1024,1024,1024,278.2,-90,98,3.757,3.726,3.725,3.754,3.792,3.768,18.521,59,14,Waypoint,
38.1644199,-120.1138907,5106.4038244942,109.251972,0,0.32521654584,16600,2018-05-11 18:28:35,20,0,22.515,5106.4038244942,109.251972,0.223694,0.80851052456,0,0,-0.671082,278.2, -0.6, -0.3,0,0,1024,1024,1024,1024,278.2,-89.9,98,3.757,3.726,3.725,3.754,3.792,3.768,18.521,59,14,Waypoint,
38.1644199,-120.1138907,5107.3880764942,110.236224,0,0.32521654584,16700,2018-05-11 18:28:35,20,0,22.515,5107.3880764942,110.236224,0.223694,0.80851052456,0,0,-0.671082,278, -0.4, -0.1,0,0,1024,1024,1024,1024,278.2,-89.9,98,3.757,3.726,3.725,3.754,3.792,3.768,18.521,59,14,Waypoint,
38.1644199,-120.1138907,5108.3723284942,111.220476,0,0.32521654584,16800,2018-05-11 18:28:35,20,0,22.515,5108.3723284942,111.220476,0.223694,0.80851052456,0,0,-0.671082,278, -0.4, -0.1,0,0,1024,1024,1024,1024,278.2,-89.9,98,3.757,3.726,3.725,3.754,3.792,3.768,18.521,59,14,Waypoint,
38.1644199,-120.1138907,5109.3565804942,112.204728,0,0.32521654584,16900,2018-05-11 18:28:35,20,0,22.515,5109.3565804942,112.204728,0.223694,0.80851052456,0,0,-0.671082,277.9, -0.5, -0.2,0,0,1024,1024,1024,1024,278.2,-89.9,98,3.757,3.726,3.725,3.754,3.792,3.768,18.521,59,14,Waypoint,
38.1644199,-120.1138907,5110.3408324942,113.18898,0,0.32521654584,17000,2018-05-11 18:28:35,20,0,22.532,5110.3408324942,113.18898,0.223694,0.80851052456,0,0,-0.671082,277.9, -0.4, -0.1,0,0,1024,1024,1024,1024,278.2,-90,98,3.759,3.739,3.719,3.75,3.795,3.766,18.298,59,14,Waypoint,
38.1644199,-120.1138907,5111.3250844942,114.173232,0,0.32521654584,17100,2018-05-11 18:28:36,20,0,22.532,5111.3250844942,114.173232,0.223694,0.80851052456,0,0,-0.671082,277.9, -0.6, -0.2,0,0,1024,1024,1024,1024,278.2,-90,98,3.759,3.739,3.719,3.75,3.795,3.766,18.298,59,14,Waypoint,
38.1644199,-120.1138906,5113.2935884942,116.141736,0,0.33884843604,17300,2018-05-11 18:28:36,20,0,22.532,5113.2935884942,116.141736,0.223694,0.80851052456,0,0,-0.671082,277.9, -1, -0.1,0,0,1024,1024,1024,1024,278.2,-90,98,3.759,3.739,3.719,3.75,3.795,3.766,18.298,59,14,Waypoint,
38.1644198,-120.1138906,5114.2778404942,117.125988,0,0.307977700144,17400,2018-05-11 18:28:36,20,0,22.532,5114.2778404942,117.125988,0.223694,0.80851052456,0,0,-0.671082,277.9, -1, 0,0,0,1024,1024,1024,1024,278.2,-90,98,3.759,3.739,3.719,3.75,3.795,3.766,18.298,59,14,Waypoint,
38.1644198,-120.1138906,5115.2620924942,118.11024,0,0.307977700144,17500,2018-05-11 18:28:36,20,0,22.532,5115.2620924942,118.11024,0.223694,0.80851052456,0,0,-0.671082,277.9, -0.9, 0.1,0,0,1024,1024,1024,1024,278.2,-90,98,3.759,3.739,3.719,3.75,3.795,3.766,18.298,59,14,Waypoint,
38.1644198,-120.1138906,5116.2463444942,119.094492,0,0.307977700144,17610,2018-05-11 18:28:36,20,0,22.532,5116.2463444942,119.094492,0.223694,0.80851052456,0,0,-0.671082,277.9, -0.9, 0.2,0,0,1024,1024,1024,1024,278.2,-90,98,3.759,3.739,3.719,3.75,3.795,3.766,18.298,59,14,Waypoint,
38.1644198,-120.1138906,5117.2305964942,120.078744,0,0.307977700144,17700,2018-05-11 18:28:36,20,0,22.532,5117.2305964942,120.078744,0.223694,0.80851052456,0,0,-0.671082,278, -0.9, 0.1,0,0,1024,1024,1024,1024,278.2,-90,98,3.759,3.739,3.719,3.75,3.795,3.766,18.298,59,14,Waypoint,
38.1644198,-120.1138905,5118.2148484942,121.062996,0,0.324880915908,17800,2018-05-11 18:28:36,20,0,22.532,5118.2148484942,121.062996,0.223694,0.80851052456,0,0,-0.671082,278.1, -1, 0,0,0,1024,1024,1024,1024,278.2,-90,98,3.759,3.739,3.719,3.75,3.795,3.766,18.298,59,14,Waypoint,
38.1644199,-120.1138905,5119.1991004942,122.047248,0,0.3542815074,17900,2018-05-11 18:28:36,20,0,22.532,5119.1991004942,122.047248,0.223694,0.80851052456,0,0,-0.671082,278.2, -1, 0,0,0,1024,1024,1024,1024,278.2,-90,98,3.759,3.739,3.719,3.75,3.795,3.766,18.298,59,14,Waypoint,
38.1644199,-120.1138905,5120.1833524942,123.0315,0,0.3542815074,18000,2018-05-11 18:28:36,20,0,22.486,5120.1833524942,123.0315,0.223694,0.80851052456,0,0,-0.671082,278.3, -1, 0,0,0,1024,1024,1024,1024,278.2,-90,97,3.75,3.735,3.721,3.746,3.789,3.77,18.323,59,14,Waypoint,
38.1644199,-120.1138905,5121.1676044942,124.015752,0,0.3542815074,18100,2018-05-11 18:28:37,20,0,22.486,5121.1676044942,124.015752,0.223694,0.80851052456,0,0,-0.671082,278.3, -1, 0.1,0,0,1024,1024,1024,1024,278.2,-90,97,3.75,3.735,3.721,3.746,3.789,3.77,18.323,59,14,Waypoint,
38.1644199,-120.1138905,5122.1518564942,125.000004,0,0.3542815074,18300,2018-05-11 18:28:37,20,0,22.486,5122.1518564942,125.000004,0.223694,0.80851052456,0,0,-0.671082,278.2, -1.1, 0,0,0,1024,1024,1024,1024,278.2,-90,97,3.75,3.735,3.721,3.746,3.789,3.77,18.323,59,14,Waypoint,
38.1644199,-120.1138905,5123.1361084942,125.984256,0,0.3542815074,18400,2018-05-11 18:28:37,20,0,22.486,5123.1361084942,125.984256,0.223694,0.80851052456,0,0,-0.671082,278.2, -1, 0,0,0,1024,1024,1024,1024,278.2,-89.9,97,3.75,3.735,3.721,3.746,3.789,3.77,18.323,59,14,Waypoint,
38.1644199,-120.1138905,5124.1203604942,126.968508,0,0.3542815074,18500,2018-05-11 18:28:37,20,0,22.486,5124.1203604942,126.968508,0.223694,0.80851052456,0,0,-0.671082,278.1, -0.9, -0.1,0,0,1024,1024,1024,1024,278.2,-89.9,97,3.75,3.735,3.721,3.746,3.789,3.77,18.323,59,14,Waypoint,
38.1644199,-120.1138905,5125.1046124942,127.95276,0,0.3542815074,18600,2018-05-11 18:28:37,20,0,22.486,5125.1046124942,127.95276,0.223694,0.80851052456,0,0,-0.671082,278.1, -0.8, -0.1,0,0,1024,1024,1024,1024,278.2,-89.9,97,3.75,3.735,3.721,3.746,3.789,3.77,18.323,59,14,Waypoint,
38.16442,-120.1138905,5126.0888644942,128.937012,0,0.38489502544,18700,2018-05-11 18:28:37,20,0,22.486,5126.0888644942,128.937012,0.223694,0.80851052456,0,0,-0.671082,278, -0.8, -0.1,0,0,1024,1024,1024,1024,278.2,-90,97,3.75,3.735,3.721,3.746,3.789,3.77,18.323,59,14,Waypoint,
38.16442,-120.1138905,5127.0731164942,129.921264,0,0.38489502544,18800,2018-05-11 18:28:37,20,0,22.486,5127.0731164942,129.921264,0.223694,0.80851052456,0,0,-0.671082,277.9, -0.8, -0.3,0,0,1024,1024,1024,1024,278.2,-89.9,97,3.75,3.735,3.721,3.746,3.789,3.77,18.323,59,14,Waypoint,
38.16442,-120.1138905,5129.0416204942,131.889768,0,0.38489502544,18900,2018-05-11 18:28:37,20,0,22.486,5129.0416204942,131.889768,0.223694,0.80851052456,0,0,-0.671082,277.6, -0.8, -0.5,0,0,1024,1024,1024,1024,278.2,-90,97,3.75,3.735,3.721,3.746,3.789,3.77,18.323,59,14,Waypoint,
38.16442,-120.1138905,5130.0258724942,132.87402,0,0.38489502544,19000,2018-05-11 18:28:37,20,0,22.482,5130.0258724942,132.87402,0.223694,0.80851052456,0,0,-0.671082,277.4, -0.7, -0.3,0,0,1024,1024,1024,1024,278.2,-90,97,3.751,3.734,3.711,3.735,3.78,3.756,18.379,59,14,Waypoint,
38.1644201,-120.1138905,5131.9943764942,134.842524,0,0.41645670624,19200,2018-05-11 18:28:38,20,0,22.482,5131.9943764942,134.842524,0.223694,0.80851052456,0,0,-0.671082,277.3, -0.9, -0.2,0,0,1024,1024,1024,1024,278.2,-90,97,3.751,3.734,3.711,3.735,3.78,3.756,18.379,59,14,Waypoint,
38.1644201,-120.1138905,5132.9786284942,135.826776,0,0.41645670624,19300,2018-05-11 18:28:38,20,0,22.482,5132.9786284942,135.826776,0.223694,0.80851052456,0,0,-0.671082,277.4, -1, -0.3,0,0,1024,1024,1024,1024,278.2,-90,97,3.751,3.734,3.711,3.735,3.78,3.756,18.379,59,14,Waypoint,
38.1644201,-120.1138905,5133.9628804942,136.811028,0,0.41645670624,19400,2018-05-11 18:28:38,20,0,22.482,5133.9628804942,136.811028,0.223694,0.80851052456,0,0,-0.671082,277.5, -0.9, -0.2,0,0,1024,1024,1024,1024,278.2,-89.9,97,3.751,3.734,3.711,3.735,3.78,3.756,18.379,59,14,Waypoint,
38.16442,-120.1138905,5134.9471324942,137.79528,0,0.38489502544,19500,2018-05-11 18:28:38,20,0,22.482,5134.9471324942,137.79528,0.223694,0.80851052456,0,0,-0.671082,277.7, -0.8, -0.1,0,0,1024,1024,1024,1024,278.2,-89.9,97,3.751,3.734,3.711,3.735,3.78,3.756,18.379,59,14,Waypoint,
38.16442,-120.1138905,5135.9313844942,138.779532,0,0.38489502544,19610,2018-05-11 18:28:38,20,0,22.482,5135.9313844942,138.779532,0.223694,0.80851052456,0,0,-0.671082,277.9, -0.7, 0,0,0,1024,1024,1024,1024,278.2,-89.9,97,3.751,3.734,3.711,3.735,3.78,3.756,18.379,59,14,Waypoint,
38.16442,-120.1138905,5136.9156364942,139.763784,0,0.38489502544,19700,2018-05-11 18:28:38,20,0,22.482,5136.9156364942,139.763784,0.223694,0.80851052456,0,0,-0.671082,278.2, -0.5, 0.2,0,0,1024,1024,1024,1024,278.2,-89.9,97,3.751,3.734,3.711,3.735,3.78,3.756,18.379,59,14,Waypoint,
38.16442,-120.1138906,5137.8998884942,140.748036,0,0.37073820084,19800,2018-05-11 18:28:38,20,0,22.482,5137.8998884942,140.748036,0.223694,0.80851052456,0,0,-0.671082,278.4, -0.6, 0.3,0,0,1024,1024,1024,1024,278.2,-90,97,3.751,3.734,3.711,3.735,3.78,3.756,18.379,59,14,Waypoint,
38.1644199,-120.1138905,5138.8841404942,141.732288,0,0.3542815074,19900,2018-05-11 18:28:38,20,0,22.482,5138.8841404942,141.732288,0.223694,0.80851052456,0,0,-0.671082,278.6, -0.6, 0.2,0,0,1024,1024,1024,1024,278.2,-90,97,3.751,3.734,3.711,3.735,3.78,3.756,18.379,59,14,Waypoint,
38.1644199,-120.1138906,5139.8683924942,142.71654,0,0.33884843604,20010,2018-05-11 18:28:38,20,0,22.448,5139.8683924942,142.71654,0.223694,0.80851052456,0,0,-0.671082,278.8, -0.7, 0.2,0,0,1024,1024,1024,1024,278.2,-90,97,3.751,3.734,3.711,3.735,3.78,3.756,18.217,60.8,14,Waypoint,
38.1644199,-120.1138906,5140.8526444942,143.700792,0,0.33884843604,20110,2018-05-11 18:28:39,20,0,22.448,5140.8526444942,143.700792,0.223694,0.80851052456,0,0,-0.671082,278.9, -0.7, 0.3,0,0,1024,1024,1024,1024,278.2,-90,97,3.751,3.734,3.711,3.735,3.78,3.756,18.217,60.8,14,Waypoint,
38.1644199,-120.1138906,5141.8368964942,144.685044,0,0.33884843604,20200,2018-05-11 18:28:39,20,0,22.448,5141.8368964942,144.685044,0.223694,0.80851052456,0,0,-0.671082,278.9, -0.7, 0.3,0,0,1024,1024,1024,1024,278.2,-89.9,97,3.751,3.734,3.711,3.735,3.78,3.756,18.217,60.8,14,Waypoint,
38.1644199,-120.1138906,5142.8211484942,145.669296,0,0.33884843604,20320,2018-05-11 18:28:39,20,0,22.448,5142.8211484942,145.669296,0.223694,0.80851052456,0,0,-0.671082,278.8, -0.7, 0.3,0,0,1024,1024,1024,1024,278.2,-89.9,97,3.751,3.734,3.711,3.735,3.78,3.756,18.217,60.8,14,Waypoint,
38.1644199,-120.1138906,5143.8054004942,146.653548,0,0.33884843604,20400,2018-05-11 18:28:39,20,0,22.448,5143.8054004942,146.653548,0.223694,0.80851052456,0,0,-0.671082,278.8, -0.6, 0.2,0,0,1024,1024,1024,1024,278.2,-89.9,97,3.751,3.734,3.711,3.735,3.78,3.756,18.217,60.8,14,Waypoint,
38.1644199,-120.1138906,5144.7896524942,147.6378,0,0.33884843604,20500,2018-05-11 18:28:39,20,0,22.448,5144.7896524942,147.6378,0.223694,0.80851052456,0,0,-0.671082,278.7, -0.5, 0.3,0,0,1024,1024,1024,1024,278.2,-89.9,97,3.751,3.734,3.711,3.735,3.78,3.756,18.217,60.8,14,Waypoint,
38.1644199,-120.1138906,5145.7739044942,148.622052,0,0.33884843604,20700,2018-05-11 18:28:39,20,0,22.448,5145.7739044942,148.622052,0.223694,0.80851052456,0,0,-0.671082,278.6, -0.6, 0.3,0,0,1024,1024,1024,1024,278.2,-89.9,97,3.751,3.734,3.711,3.735,3.78,3.756,18.217,60.8,14,Waypoint,
38.1644199,-120.1138906,5146.7581564942,149.606304,0,0.33884843604,20800,2018-05-11 18:28:39,20,0,22.448,5146.7581564942,149.606304,0.223694,0.80851052456,0,0,-0.671082,278.4, -0.7, 0,0,0,1024,1024,1024,1024,278.2,-89.9,97,3.751,3.734,3.711,3.735,3.78,3.756,18.217,60.8,14,Waypoint,
38.1644199,-120.1138906,5147.7424084942,150.590556,0,0.33884843604,20900,2018-05-11 18:28:39,20,0,22.448,5147.7424084942,150.590556,0.223694,0.80851052456,0,0,-0.671082,278.3, -0.8, -0.4,0,0,1024,1024,1024,1024,278.2,-90,97,3.751,3.734,3.711,3.735,3.78,3.756,18.217,60.8,14,Waypoint,
38.16442,-120.1138906,5148.7266604942,151.574808,0,0.37073820084,21000,2018-05-11 18:28:39,20,0,22.448,5148.7266604942,151.574808,0.223694,0.80851052456,0,0,-0.671082,278.2, -0.9, -0.6,0,0,1024,1024,1024,1024,278.2,-90,97,3.746,3.727,3.707,3.736,3.786,3.754,18.217,60.8,14,Waypoint,
38.16442,-120.1138905,5149.7109124942,152.55906,0,0.38489502544,21100,2018-05-11 18:28:40,20,0,22.448,5149.7109124942,152.55906,0.223694,0.80851052456,0,0,-0.671082,278.2, -1, -0.8,0,0,1024,1024,1024,1024,278.2,-90,97,3.746,3.727,3.707,3.736,3.786,3.754,18.217,60.8,14,Waypoint,
38.1644201,-120.1138905,5151.6794164942,154.527564,0,0.41645670624,21200,2018-05-11 18:28:40,20,0,22.448,5151.6794164942,154.527564,0.223694,0.80851052456,0,0,-0.671082,278.6, -1.3, -0.9,0,0,1024,1024,1024,1024,278.2,-90,97,3.746,3.727,3.707,3.736,3.786,3.754,18.217,60.8,14,Waypoint,
38.1644201,-120.1138905,5152.6636684942,155.511816,0,0.41645670624,21300,2018-05-11 18:28:40,20,0,22.448,5152.6636684942,155.511816,0.223694,0.80851052456,0,0,-0.671082,278.8, -1.3, -0.2,0,0,1024,1024,1024,1024,278.2,-90,97,3.746,3.727,3.707,3.736,3.786,3.754,18.217,60.8,14,Waypoint,
38.1644201,-120.1138905,5153.6479204942,156.496068,0,0.41645670624,21400,2018-05-11 18:28:40,20,0,22.448,5153.6479204942,156.496068,0.223694,0.80851052456,0,0,-0.671082,278.8, -1.4, 0,0,0,1024,1024,1024,1024,278.2,-90,97,3.746,3.727,3.707,3.736,3.786,3.754,18.217,60.8,14,Waypoint,
38.1644202,-120.1138905,5154.6321724942,157.48032,0,0.44876641856,21500,2018-05-11 18:28:40,20,0,22.448,5154.6321724942,157.48032,0.223694,0.80851052456,0,0,-0.671082,278.7, -1.1, -0.4,0,0,1024,1024,1024,1024,278.2,-89.9,97,3.746,3.727,3.707,3.736,3.786,3.754,18.217,60.8,14,Waypoint,
38.1644202,-120.1138905,5155.6164244942,158.464572,0,0.44876641856,21600,2018-05-11 18:28:40,20,0,22.448,5155.6164244942,158.464572,0.223694,0.80851052456,0,0,-0.671082,278.5, -1, -1,0,0,1024,1024,1024,1024,278.2,-89.9,97,3.746,3.727,3.707,3.736,3.786,3.754,18.217,60.8,14,Waypoint,
38.1644203,-120.1138905,5156.6006764942,159.448824,0,0.48166996292,21700,2018-05-11 18:28:40,20,0,22.448,5156.6006764942,159.448824,0.223694,0.80851052456,0,0,-0.671082,278.2, -0.8, -1.6,0,0,1024,1024,1024,1024,278.2,-89.9,97,3.746,3.727,3.707,3.736,3.786,3.754,18.217,60.8,14,Waypoint,
38.1644204,-120.1138905,5157.5849284942,160.433076,0,0.5150590716,21800,2018-05-11 18:28:40,20,0,22.448,5157.5849284942,160.433076,0.223694,0.80851052456,0,0,-0.671082,278, -0.7, -2,0,0,1024,1024,1024,1024,278.2,-89.9,97,3.746,3.727,3.707,3.736,3.786,3.754,18.217,60.8,14,Waypoint,
38.1644205,-120.1138905,5158.5691804942,161.417328,0,0.54884188108,21900,2018-05-11 18:28:40,20,0,22.448,5158.5691804942,161.417328,0.223694,0.80851052456,0,0,-0.671082,277.9, -0.7, -2.1,0,0,1024,1024,1024,1024,278.2,-89.9,97,3.746,3.727,3.707,3.736,3.786,3.754,18.217,60.8,14,Waypoint,
38.1644205,-120.1138905,5159.5534324942,162.40158,0,0.54884188108,22000,2018-05-11 18:28:40,20,0,22.464,5159.5534324942,162.40158,0.223694,0.80851052456,0,0,-0.671082,277.7, -0.7, -2,0,0,1024,1024,1024,1024,278.2,-89.9,97,3.748,3.726,3.71,3.744,3.79,3.756,17.984,60.8,14,Waypoint,
38.1644205,-120.1138905,5160.5376844942,163.385832,0,0.54884188108,22100,2018-05-11 18:28:41,20,0,22.464,5160.5376844942,163.385832,0.223694,0.80851052456,0,0,-0.671082,277.7, -0.8, -1.9,0,0,1024,1024,1024,1024,278.2,-89.9,97,3.748,3.726,3.71,3.744,3.79,3.756,17.984,60.8,14,Waypoint,
38.1644206,-120.1138906,5161.5219364942,164.370084,0,0.57370080576,22200,2018-05-11 18:28:41,20,0,22.464,5161.5219364942,164.370084,0.223694,0.80851052456,0,0,-0.671082,277.7, -0.8, -1.3,0,0,1024,1024,1024,1024,278.2,-89.9,97,3.748,3.726,3.71,3.744,3.79,3.756,17.984,60.8,14,Waypoint,
38.1644206,-120.1138906,5162.5061884942,165.354336,0,0.57370080576,22300,2018-05-11 18:28:41,20,0,22.464,5162.5061884942,165.354336,0.223694,0.80851052456,0,0,-0.671082,277.8, -0.7, -1.1,0,0,1024,1024,1024,1024,278.2,-89.9,97,3.748,3.726,3.71,3.744,3.79,3.756,17.984,60.8,14,Waypoint,
38.1644206,-120.1138907,5163.4904404942,166.338588,0,0.56575789212,22400,2018-05-11 18:28:41,20,0,22.464,5163.4904404942,166.338588,0.223694,0.80851052456,0,0,-0.671082,277.8, -0.5, -1,0,0,1024,1024,1024,1024,278.2,-89.9,97,3.748,3.726,3.71,3.744,3.79,3.756,17.984,60.8,14,Waypoint,
38.1644207,-120.1138908,5165.4589444942,168.307092,0,0.59492784056,22600,2018-05-11 18:28:41,20,0,22.464,5165.4589444942,168.307092,0.223694,0.80851052456,0,0,-0.671082,277.8, -0.2, -1.2,0,0,1024,1024,1024,1024,278.2,-89.9,97,3.748,3.726,3.71,3.744,3.79,3.756,17.984,60.8,14,Waypoint,
38.1644207,-120.1138908,5167.4274484942,170.275596,0,0.59492784056,22800,2018-05-11 18:28:41,20,0,22.464,5167.4274484942,170.275596,0.223694,0.80851052456,0,0,-0.671082,277.7, -0.1, -1.6,0,0,1024,1024,1024,1024,278.2,-89.9,97,3.748,3.726,3.71,3.744,3.79,3.756,17.984,60.8,14,Waypoint,
38.1644208,-120.1138909,5169.3959524942,172.2441,0,0.62618440324,23100,2018-05-11 18:28:42,20,0,22.464,5169.3959524942,172.2441,0.223694,0.80851052456,0,0,-0.671082,277.8, -0.3, -2,0,0,1024,1024,1024,1024,278.2,-89.9,97,3.748,3.726,3.71,3.744,3.79,3.756,17.984,60.8,14,Waypoint,
38.1644208,-120.1138909,5170.3802044942,173.228352,0,0.62618440324,23200,2018-05-11 18:28:42,20,0,22.464,5170.3802044942,173.228352,0.223694,0.80851052456,0,0,-0.671082,277.8, -0.4, -1.3,0,0,1024,1024,1024,1024,278.2,-90,97,3.748,3.726,3.71,3.744,3.79,3.756,17.984,60.8,14,Waypoint,
38.1644208,-120.1138909,5171.3644564942,174.212604,0,0.62618440324,23300,2018-05-11 18:28:42,20,0,22.464,5171.3644564942,174.212604,0.223694,0.80851052456,0,0,-0.671082,277.9, -0.8, -1.1,0,0,1024,1024,1024,1024,278.2,-90,97,3.748,3.726,3.71,3.744,3.79,3.756,17.984,60.8,14,Waypoint,
38.1644208,-120.1138909,5172.3487084942,175.196856,0,0.62618440324,23400,2018-05-11 18:28:42,20,0,22.464,5172.3487084942,175.196856,0.223694,0.80851052456,0,0,-0.671082,278.1, -1, -1.5,0,0,1024,1024,1024,1024,278.2,-90,97,3.748,3.726,3.71,3.744,3.79,3.756,17.984,60.8,14,Waypoint,
38.1644209,-120.1138909,5174.3172124942,177.16536,0,0.66234254088,23500,2018-05-11 18:28:42,20,0,22.464,5174.3172124942,177.16536,0.223694,0.80851052456,0,0,-0.671082,278.5, -0.9, -1.5,0,0,1024,1024,1024,1024,278.2,-89.9,97,3.748,3.726,3.71,3.744,3.79,3.756,17.984,60.8,14,Waypoint,
38.1644209,-120.1138909,5175.3014644942,178.149612,0,0.66234254088,23600,2018-05-11 18:28:42,20,0,22.464,5175.3014644942,178.149612,0.223694,0.80851052456,0,0,-0.671082,278.7, -0.9, -1.9,0,0,1024,1024,1024,1024,278.2,-90,97,3.748,3.726,3.71,3.744,3.79,3.756,17.984,60.8,14,Waypoint,
38.164421,-120.1138909,5177.5980524942,180.4462,0,0.69853676776,23800,2018-05-11 18:28:42,20,0,22.464,5177.5980524942,180.4462,0.223694,0.80851052456,0,0,-0.671082,278.8, -1, -2.9,0,0,1024,1024,1024,1024,278.2,-89.9,97,3.748,3.726,3.71,3.744,3.79,3.756,17.984,60.8,14,Waypoint,
38.1644211,-120.1138909,5178.5823044942,181.430452,0,0.73475724136,23900,2018-05-11 18:28:42,20,0,22.464,5178.5823044942,181.430452,0.223694,0.80851052456,0,0,-0.671082,278.7, -0.7, -2.8,0,0,1024,1024,1024,1024,278.2,-89.9,97,3.748,3.726,3.71,3.744,3.79,3.756,17.984,60.8,14,Waypoint,
38.1644212,-120.1138909,5179.5665564942,182.414704,0,0.77100068084,24000,2018-05-11 18:28:42,20,0,22.383,5179.5665564942,182.414704,0.223694,0.80851052456,0,0,-0.671082,278.5, -0.2, -2.6,0,0,1024,1024,1024,1024,278.2,-89.9,97,3.744,3.709,3.692,3.719,3.758,3.747,18.572,60.8,14,Waypoint,
38.1644212,-120.1138909,5180.5508084942,183.398956,0,0.77100068084,24100,2018-05-11 18:28:43,20,0,22.383,5180.5508084942,183.398956,0.223694,0.80851052456,0,0,-0.671082,278.2, 0.2, -2.5,0,0,1024,1024,1024,1024,278.2,-89.9,97,3.744,3.709,3.692,3.719,3.758,3.747,18.572,60.8,14,Waypoint,
38.1644213,-120.113891,5181.5350604942,184.383208,0,0.80471787352,24200,2018-05-11 18:28:43,20,0,22.383,5181.5350604942,184.383208,0.223694,0.80851052456,0,0,-0.671082,277.9, 0.3, -2.9,0,0,1024,1024,1024,1024,278.2,-89.9,97,3.744,3.709,3.692,3.719,3.758,3.747,18.572,60.8,14,Waypoint,
38.1644214,-120.113891,5182.5193124942,185.36746,0,0.84111223164,24300,2018-05-11 18:28:43,20,0,22.383,5182.5193124942,185.36746,0.223694,0.84111223164,0,0,-0.671082,277.8, 0.2, -3.3,0,0,1024,1024,1024,1024,278.2,-89.9,97,3.744,3.709,3.692,3.719,3.758,3.747,18.572,60.8,14,Waypoint,
38.1644214,-120.113891,5183.5035644942,186.351712,0,0.84111223164,24410,2018-05-11 18:28:43,20,0,22.383,5183.5035644942,186.351712,0.223694,0.84111223164,0,0,-0.671082,277.7, 0, -3.4,0,0,1024,1024,1024,1024,278.2,-89.9,97,3.744,3.709,3.692,3.719,3.758,3.747,18.572,60.8,14,Waypoint,
38.1644215,-120.113891,5184.4878164942,187.335964,0,0.87751643228,24500,2018-05-11 18:28:43,20,0,22.383,5184.4878164942,187.335964,0.223694,0.87751643228,0,0,-0.671082,277.8, -0.2, -3.1,0,0,1024,1024,1024,1024,278.2,-90,97,3.744,3.709,3.692,3.719,3.758,3.747,18.572,60.8,14,Waypoint,
38.1644215,-120.1138909,5185.1439844942,187.992132,0,0.8798556712,24700,2018-05-11 18:28:43,20,0,22.383,5185.1439844942,187.992132,0.223694,0.8798556712,0,0,-0.671082,278, -0.5, -2.9,0,0,1024,1024,1024,1024,278.2,-90,97,3.744,3.709,3.692,3.719,3.758,3.747,18.572,60.8,14,Waypoint,
38.1644215,-120.1138909,5186.1282364942,188.976384,0,0.8798556712,24800,2018-05-11 18:28:43,20,0,22.383,5186.1282364942,188.976384,0.223694,0.8798556712,0,0,-0.671082,278.1, -0.7, -2.5,0,0,1024,1024,1024,1024,278.2,-90,97,3.744,3.709,3.692,3.719,3.758,3.747,18.572,60.8,14,Waypoint,
38.1644214,-120.1138909,5188.0967404942,190.944888,0.223694,0.84355645744,24900,2018-05-11 18:28:43,20,0,22.383,5188.0967404942,190.944888,0.223694,0.8798556712,0,0,-0.671082,278.3, -0.3, -2.1,0,0,1024,1024,1024,1024,278.2,-90,97,3.744,3.709,3.692,3.719,3.758,3.747,18.572,60.8,14,Waypoint,
38.1644214,-120.113891,5188.7529084942,191.601056,0.223694,0.84111223164,25100,2018-05-11 18:28:44,20,0,22.383,5188.7529084942,191.601056,0.223694,0.8798556712,0,0,-0.671082,278.4, -0.2, -1.8,0,0,1024,1024,1024,1024,278.2,-89.9,97,3.744,3.709,3.692,3.719,3.758,3.747,18.572,60.8,14,Waypoint,
38.1644213,-120.113891,5189.7371604942,192.585308,0.223694,0.80471787352,25200,2018-05-11 18:28:44,20,0,22.383,5189.7371604942,192.585308,0.223694,0.8798556712,0,0,-0.671082,278.5, 0, -1.6,0,0,1024,1024,1024,1024,278.2,-89.9,97,3.744,3.709,3.692,3.719,3.758,3.747,18.572,60.8,14,Waypoint,
38.1644213,-120.113891,5190.7214124942,193.56956,0.223694,0.80471787352,25300,2018-05-11 18:28:44,20,0,22.383,5190.7214124942,193.56956,0.223694,0.8798556712,0,0,-0.671082,278.7, 0, -1.3,0,0,1024,1024,1024,1024,278.2,-89.9,97,3.744,3.709,3.692,3.719,3.758,3.747,18.572,60.8,14,Waypoint,
38.1644212,-120.1138911,5191.7056644942,194.553812,0.223694,0.76671918464,25400,2018-05-11 18:28:44,20,0,22.383,5191.7056644942,194.553812,0.223694,0.8798556712,0,0,-0.671082,278.6, 0, -1.2,0,0,1024,1024,1024,1024,278.2,-89.9,97,3.744,3.709,3.692,3.719,3.758,3.747,18.572,60.8,14,Waypoint,
38.1644212,-120.1138911,5192.6899164942,195.538064,0.223694,0.76671918464,25500,2018-05-11 18:28:44,20,0,22.383,5192.6899164942,195.538064,0.223694,0.8798556712,0,0,-0.671082,278.5, 0, -1.3,0,0,1024,1024,1024,1024,278.2,-89.9,97,3.744,3.709,3.692,3.719,3.758,3.747,18.572,60.8,14,Waypoint,
38.1644212,-120.1138911,5193.6741684942,196.522316,0.223694,0.76671918464,25600,2018-05-11 18:28:44,20,0,22.383,5193.6741684942,196.522316,0.223694,0.8798556712,0,0,-0.671082,278.4, 0, -1.5,0,0,1024,1024,1024,1024,278.2,-89.9,97,3.744,3.709,3.692,3.719,3.758,3.747,18.572,60.8,14,Waypoint,
38.1644211,-120.1138911,5194.6584204942,197.506568,0.223694,0.73026249056,25700,2018-05-11 18:28:44,20,0,22.383,5194.6584204942,197.506568,0.223694,0.8798556712,0,0,-0.671082,278.3, 0, -1.5,0,0,1024,1024,1024,1024,278.2,-89.9,97,3.744,3.709,3.692,3.719,3.758,3.747,18.572,60.8,14,Waypoint,
38.1644211,-120.1138911,5196.6269244942,199.475072,0.223694,0.73026249056,25800,2018-05-11 18:28:44,20,0,22.383,5196.6269244942,199.475072,0.223694,0.8798556712,0,0,-0.671082,278, -0.1, -1.5,0,0,1024,1024,1024,1024,278.2,-90,97,3.744,3.709,3.692,3.719,3.758,3.747,18.572,60.8,14,Waypoint,
38.1644211,-120.1138911,5197.6111764942,200.459324,0.223694,0.73026249056,25900,2018-05-11 18:28:44,20,0,22.383,5197.6111764942,200.459324,0.223694,0.8798556712,0,0,-0.671082,277.9, -0.3, -1.7,0,0,1024,1024,1024,1024,278.2,-90,97,3.744,3.709,3.692,3.719,3.758,3.747,18.572,60.8,14,Waypoint,
38.1644211,-120.1138911,5198.5954284942,201.443576,0.223694,0.73026249056,26000,2018-05-11 18:28:44,20,0,22.378,5198.5954284942,201.443576,0.223694,0.8798556712,0,0,-0.671082,277.7, -0.4, -1.7,0,0,1024,1024,1024,1024,278.2,-90,97,3.75,3.703,3.686,3.715,3.763,3.738,17.929,60.8,14,Waypoint,
38.164421,-120.1138911,5199.5796804942,202.427828,0.223694,0.69380579648,26100,2018-05-11 18:28:45,20,0,22.378,5199.5796804942,202.427828,0.223694,0.8798556712,0,0,-0.671082,277.6, -0.7, -1.6,0,0,1024,1024,1024,1024,278.2,-90,97,3.75,3.703,3.686,3.715,3.763,3.738,17.929,60.8,14,Waypoint,
38.164421,-120.113891,5200.5639324942,203.41208,0.223694,0.69558401176,26200,2018-05-11 18:28:45,20,0,22.378,5200.5639324942,203.41208,0.223694,0.8798556712,0,0,-0.671082,277.4, -0.8, -1.5,0,0,1024,1024,1024,1024,278.2,-90,97,3.75,3.703,3.686,3.715,3.763,3.738,17.929,60.8,14,Waypoint,
38.1644209,-120.113891,5202.5324364942,205.380584,0.223694,0.65922902372,26400,2018-05-11 18:28:45,20,0,22.378,5202.5324364942,205.380584,0.223694,0.8798556712,0,0,-0.671082,277.3, -1.2, -1.2,0,0,1024,1024,1024,1024,278.2,-90,97,3.75,3.703,3.686,3.715,3.763,3.738,17.929,60.8,14,Waypoint,
38.1644208,-120.1138909,5203.8447724942,206.69292,0.223694,0.62618440324,26500,2018-05-11 18:28:45,20,0,22.378,5203.8447724942,206.69292,0.223694,0.8798556712,0,0,-0.671082,277.3, -1.3, -1.1,0,0,1024,1024,1024,1024,278.2,-90,97,3.75,3.703,3.686,3.715,3.763,3.738,17.929,60.8,14,Waypoint,
38.1644207,-120.1138909,5204.5009404942,207.349088,0.223694,0.59006891652,26600,2018-05-11 18:28:45,20,0,22.378,5204.5009404942,207.349088,0.223694,0.8798556712,0,0,-0.671082,277.5, -1.2, -1,0,0,1024,1024,1024,1024,278.2,-90,97,3.75,3.703,3.686,3.715,3.763,3.738,17.929,60.8,14,Waypoint,
38.1644206,-120.1138909,5206.7975284942,209.645676,0.223694,0.55399936156,26800,2018-05-11 18:28:45,20,0,22.378,5206.7975284942,209.645676,0.223694,0.8798556712,0,0,-0.671082,277.7, -0.9, -1,0,0,1024,1024,1024,1024,278.2,-89.9,97,3.75,3.703,3.686,3.715,3.763,3.738,17.929,60.8,14,Waypoint,
38.1644205,-120.1138909,5207.7817804942,210.629928,0.223694,0.51798886172,26900,2018-05-11 18:28:45,20,0,22.378,5207.7817804942,210.629928,0.223694,0.8798556712,0,0,-0.671082,277.7, -0.9, -0.9,0,0,1024,1024,1024,1024,278.2,-90,97,3.75,3.703,3.686,3.715,3.763,3.738,17.929,60.8,14,Waypoint,
38.1644204,-120.1138909,5208.7660324942,211.61418,0.223694,0.48204725952,27000,2018-05-11 18:28:45,20,0,22.321,5208.7660324942,211.61418,0.223694,0.8798556712,0,0,-0.671082,277.6, -0.9, -0.8,0,0,1024,1024,1024,1024,278.2,-90,97,3.73,3.704,3.689,3.714,3.763,3.735,18.737,60.8,14,Waypoint,
38.1644203,-120.1138909,5209.7502844942,212.598432,0.223694,0.44619752084,27100,2018-05-11 18:28:46,20,0,22.321,5209.7502844942,212.598432,0.223694,0.8798556712,0,0,-0.671082,277.7, -0.9, -0.6,0,0,1024,1024,1024,1024,278.2,-89.9,97,3.73,3.704,3.689,3.714,3.763,3.735,18.737,60.8,14,Waypoint,
38.1644202,-120.1138909,5210.7345364942,213.582684,0.223694,0.41045604988,27200,2018-05-11 18:28:46,20,0,22.321,5210.7345364942,213.582684,0.223694,0.8798556712,0,0,-0.671082,277.8, -0.8, -0.4,0,0,1024,1024,1024,1024,278.2,-90,97,3.73,3.704,3.689,3.714,3.763,3.735,18.737,60.8,14,Waypoint,
38.1644201,-120.1138909,5211.7187884942,214.566936,0.223694,0.37486221672,27300,2018-05-11 18:28:46,20,0,22.321,5211.7187884942,214.566936,0.223694,0.8798556712,0,0,-0.671082,278.1, -0.9, 0,0,0,1024,1024,1024,1024,278.2,-90,97,3.73,3.704,3.689,3.714,3.763,3.735,18.737,60.8,14,Waypoint,
38.16442,-120.1138909,5212.7030404942,215.551188,0.223694,0.33945539144,27500,2018-05-11 18:28:46,20,0,22.321,5212.7030404942,215.551188,0.223694,0.8798556712,0,0,-0.671082,278.4, -1, 0.5,0,0,1024,1024,1024,1024,278.2,-90,97,3.73,3.704,3.689,3.714,3.763,3.735,18.737,60.8,14,Waypoint,
