latitude,longitude,altitude(feet),ascent(feet),speed(mph),distance(feet),time(millisecond),datetime(utc),satellites,gpslevel,voltage(v),max_altitude(feet),max_ascent(feet),max_speed(mph),max_distance(feet), xSpeed(mph), ySpeed(mph), zSpeed(mph), compass_heading(degrees), pitch(degrees), roll(degrees),isPhoto,isVideo,rc_elevator,rc_aileron,rc_throttle,rc_rudder,gimbal_heading(degrees),gimbal_pitch(degrees),battery_percent,voltageCell1,voltageCell2,voltageCell3,voltageCell4,voltageCell5,voltageCell6,current(A),battery_temperature(f),flycStateRaw,flycState,message
38.164437,-120.1138963,4997.0043908753,-0.328084,0.223694,0,2960,2018-05-11 18:54:19,19,0,25.573,4997.0043908753,0,0.223694,0,0,0,0,269.4, 2.2, -2.2,1,0,1024,1024,1024,1024,271.1,-89.9,98,4.238,4.261,4.283,4.234,4.242,4.259,3.145,68,11,AutoTakeoff,DJI_0470.jpg Starting Mission from Lat/Long: 38.16445/-120.11389 Camera: Zenmuse X3 - Overlap: 90/90 - Active Connection: No
38.164437,-120.1138963,4997.0043908753,-0.328084,0.223694,0,3000,2018-05-11 18:54:19,19,0,25.573,4997.0043908753,0,0.223694,0,0,0,0,269.4, 2.2, -2.2,0,0,1024,1024,1024,1024,271.1,-89.9,98,4.238,4.261,4.283,4.234,4.242,4.259,3.145,68,11,AutoTakeoff,
38.1644368,-120.1138962,4997.0043908753,-0.328084,0.447388,0.078405842404,3100,2018-05-11 18:54:20,19,0,25.573,4997.0043908753,0,0.447388,0.078405842404,0,0,0,269.4, 2.1, -1.6,0,0,1024,1024,1024,1024,271.1,-90,98,4.238,4.261,4.283,4.234,4.242,4.259,3.145,68,11,AutoTakeoff,
38.1644364,-120.1138959,4997.3324748753,0,0.4921268,0.247159128644,3200,2018-05-11 18:54:20,19,0,25.573,4997.3324748753,0,0.4921268,0.247159128644,0,0,0,269.6, -0.3, 0.1,0,0,1024,1024,1024,1024,271.1,-89.9,98,4.238,4.261,4.283,4.234,4.242,4.259,3.145,68,11,AutoTakeoff,
38.1644361,-120.1138957,4997.3324748753,0,0.4921268,0.37073820084,3300,2018-05-11 18:54:20,19,0,25.573,4997.3324748753,0,0.4921268,0.37073820084,0,0,0,269.6, -0.8, 1.3,0,0,1024,1024,1024,1024,271,-90,98,4.238,4.261,4.283,4.234,4.242,4.259,3.145,68,11,AutoTakeoff,
38.1644359,-120.1138956,4997.3324748753,0,0.4921268,0.44876641856,3400,2018-05-11 18:54:20,19,0,25.573,4997.3324748753,0,0.4921268,0.44876641856,0,0,0,269.7, -1.1, 2.2,0,0,1024,1024,1024,1024,271,-90,98,4.238,4.261,4.283,4.234,4.242,4.259,3.145,68,11,AutoTakeoff,
38.1644357,-120.1138954,4997.6605588753,0.328084,0.4921268,0.54001642148,3500,2018-05-11 18:54:20,19,0,25.573,4997.6605588753,0.328084,0.4921268,0.54001642148,0,0,0,269.8, -1.4, 3.1,0,0,1024,1024,1024,1024,271,-90,98,4.238,4.261,4.283,4.234,4.242,4.259,3.145,68,11,AutoTakeoff,
38.1644355,-120.1138954,4997.6605588753,0.328084,0.223694,0.60511484876,3600,2018-05-11 18:54:20,19,0,25.573,4997.6605588753,0.328084,0.4921268,0.60511484876,0,0,0,269.9, -1, 3.4,0,0,1024,1024,1024,1024,271,-89.9,98,4.238,4.261,4.283,4.234,4.242,4.259,3.145,68,11,AutoTakeoff,
38.1644354,-120.1138953,4997.6605588753,0.328084,0.223694,0.65043309168,3700,2018-05-11 18:54:20,19,0,25.573,4997.6605588753,0.328084,0.4921268,0.65043309168,0,0,0,270, -0.6, 2.8,0,0,1024,1024,1024,1024,271,-89.9,98,4.238,4.261,4.283,4.234,4.242,4.259,3.145,68,11,AutoTakeoff,
38.1644353,-120.1138952,4997.9886428753,0.656168,0.223694,0.69589569156,3800,2018-05-11 18:54:20,21,0,25.573,4997.9886428753,0.656168,0.4921268,0.69589569156,0,0,0,270, -0.4, 2,0,0,1024,1024,1024,1024,270.9,-89.9,98,4.238,4.261,4.283,4.234,4.242,4.259,3.145,68,11,AutoTakeoff,
38.1644352,-120.1138952,4997.9886428753,0.656168,0,0.72860238552,3900,2018-05-11 18:54:20,21,0,25.573,4997.9886428753,0.656168,0.4921268,0.72860238552,0,0,0,269.8, -0.2, 1.7,0,0,1024,1024,1024,1024,270.9,-89.9,98,4.238,4.261,4.283,4.234,4.242,4.259,3.145,68,11,AutoTakeoff,
38.1644351,-120.1138951,4998.3167268753,0.984252,0,0.77397640272,4000,2018-05-11 18:54:20,19,0,24.502,4998.3167268753,0.984252,0.4921268,0.77397640272,0,0,-0.223694,269.4, -0.2, 1.3,0,0,1024,1024,1024,1024,270.9,-89.9,98,4.048,4.06,4.083,4.045,4.025,4.058,11.7,68,11,AutoTakeoff,
38.164435,-120.1138951,4998.6448108753,1.312336,0,0.80681761112,4100,2018-05-11 18:54:21,19,0,24.502,4998.6448108753,1.312336,0.4921268,0.80681761112,0,0,-0.223694,268.9, -0.2, 1.3,0,0,1024,1024,1024,1024,270.9,-89.9,98,4.048,4.06,4.083,4.045,4.025,4.058,11.7,68,11,AutoTakeoff,
38.1644349,-120.113895,4998.6448108753,1.312336,0,0.85211944984,4200,2018-05-11 18:54:21,19,0,24.502,4998.6448108753,1.312336,0.4921268,0.85211944984,0,0,-0.223694,268.5, -0.3, 1,0,0,1024,1024,1024,1024,270.8,-89.9,98,4.048,4.06,4.083,4.045,4.025,4.058,11.7,68,11,AutoTakeoff,
38.1644349,-120.1138949,4998.9728948753,1.64042,0,0.86505580196,4300,2018-05-11 18:54:21,19,0,24.502,4998.9728948753,1.64042,0.4921268,0.86505580196,0,0,-0.223694,268.2, -0.8, 0.8,0,0,1024,1024,1024,1024,270.8,-90,98,4.048,4.06,4.083,4.045,4.025,4.058,11.7,68,11,AutoTakeoff,
38.1644348,-120.1138947,4998.9728948753,1.64042,0,0.92462601384,4400,2018-05-11 18:54:21,20,0,24.502,4998.9728948753,1.64042,0.4921268,0.92462601384,0,0,-0.223694,268.1, -1.2, 0.6,0,0,1024,1024,1024,1024,270.8,-90,98,4.048,4.06,4.083,4.045,4.025,4.058,11.7,68,11,AutoTakeoff,
38.1644348,-120.1138947,4999.3009788753,1.968504,0,0.92462601384,4500,2018-05-11 18:54:21,20,0,24.502,4999.3009788753,1.968504,0.4921268,0.92462601384,0,0,0,268.2, -1.3, 0.7,0,0,1024,1024,1024,1024,270.8,-90,98,4.048,4.06,4.083,4.045,4.025,4.058,11.7,68,11,AutoTakeoff,
38.1644347,-120.1138946,4999.3009788753,1.968504,0,0.97056433552,4600,2018-05-11 18:54:21,20,0,24.502,4999.3009788753,1.968504,0.4921268,0.97056433552,0,0,0,268.5, -1.4, 0.9,0,0,1024,1024,1024,1024,270.8,-90,98,4.048,4.06,4.083,4.045,4.025,4.058,11.7,68,11,AutoTakeoff,
38.1644346,-120.1138946,4999.6290628753,2.296588,0,1.00227693496,4700,2018-05-11 18:54:21,20,0,24.502,4999.6290628753,2.296588,0.4921268,1.00227693496,0,0,-0.223694,268.9, -1.2, 1.2,0,0,1024,1024,1024,1024,270.7,-90,98,4.048,4.06,4.083,4.045,4.025,4.058,11.7,68,11,AutoTakeoff,
38.1644345,-120.1138945,4999.9571468753,2.624672,0,1.04813323564,4800,2018-05-11 18:54:21,18,0,24.502,4999.9571468753,2.624672,0.4921268,1.04813323564,0,0,-0.223694,269.5, -1.2, 1.5,0,0,1024,1024,1024,1024,270.7,-89.9,98,4.048,4.06,4.083,4.045,4.025,4.058,11.7,68,11,AutoTakeoff,
38.1644344,-120.1138945,4999.9571468753,2.624672,0,1.08003284296,5000,2018-05-11 18:54:21,18,0,23.762,4999.9571468753,2.624672,0.4921268,1.08003284296,0,0,-0.223694,269.9, -1.2, 1.8,0,0,1024,1024,1024,1024,270.7,-89.9,98,3.935,3.977,3.962,3.957,3.938,3.959,17.135,68,11,AutoTakeoff,
38.1644344,-120.1138945,5000.2852308753,2.952756,0,1.08003284296,5100,2018-05-11 18:54:22,17,0,23.762,5000.2852308753,2.952756,0.4921268,1.08003284296,0,0,0,270.4, -1.2, 1.8,0,0,1024,1024,1024,1024,270.7,-90,98,3.935,3.977,3.962,3.957,3.938,3.959,17.135,68,14,Waypoint,
38.1644344,-120.1138944,5000.6133148753,3.28084,0,1.09403874892,5300,2018-05-11 18:54:22,17,0,23.762,5000.6133148753,3.28084,0.4921268,1.09403874892,0,0,0,270.6, -1.2, 0.9,0,0,1024,1024,1024,1024,270.7,-89.9,98,3.935,3.977,3.962,3.957,3.938,3.959,17.135,68,14,Waypoint,
38.1644344,-120.1138945,5000.6133148753,3.28084,0,1.08003284296,5400,2018-05-11 18:54:22,17,0,23.762,5000.6133148753,3.28084,0.4921268,1.09403874892,0,0,0,270.9, -0.9, 0.1,0,0,1024,1024,1024,1024,270.7,-89.9,98,3.935,3.977,3.962,3.957,3.938,3.959,17.135,68,14,Waypoint,
38.1644344,-120.1138946,5000.6133148753,3.28084,0,1.0666174882,5500,2018-05-11 18:54:22,17,0,23.762,5000.6133148753,3.28084,0.4921268,1.09403874892,0,0,0,271.1, -0.5, -0.1,0,0,1024,1024,1024,1024,270.7,-89.9,98,3.935,3.977,3.962,3.957,3.938,3.959,17.135,68,14,Waypoint,
38.1644344,-120.1138946,5000.6133148753,3.28084,0,1.0666174882,5600,2018-05-11 18:54:22,17,0,23.762,5000.6133148753,3.28084,0.4921268,1.09403874892,0,0,0,271.1, 0, 0,0,0,1024,1024,1024,1024,270.7,-89.9,98,3.935,3.977,3.962,3.957,3.938,3.959,17.135,68,14,Waypoint,
38.1644344,-120.1138946,5000.9413988753,3.608924,0,1.0666174882,5700,2018-05-11 18:54:22,18,0,23.762,5000.9413988753,3.608924,0.4921268,1.09403874892,0,0,0,271.2, 0.1, 0.3,0,0,1024,1024,1024,1024,270.7,-89.9,98,3.935,3.977,3.962,3.957,3.938,3.959,17.135,68,14,Waypoint,
38.1644343,-120.1138946,5000.9413988753,3.608924,0,1.09919294856,5800,2018-05-11 18:54:22,18,0,23.762,5000.9413988753,3.608924,0.4921268,1.09919294856,0,0,-0.223694,271.1, 0, 0.4,0,0,1024,1024,1024,1024,270.7,-89.9,98,3.935,3.977,3.962,3.957,3.938,3.959,17.135,68,14,Waypoint,
38.1644342,-120.1138945,5001.5975668753,4.265092,0,1.14465554844,5900,2018-05-11 18:54:22,17,0,23.762,5001.5975668753,4.265092,0.4921268,1.14465554844,0,0,-0.223694,270.8, -0.4, 1,0,0,1024,1024,1024,1024,270.7,-89.9,98,3.935,3.977,3.962,3.957,3.938,3.959,17.135,68,14,Waypoint,
38.1644342,-120.1138944,5001.9256508753,4.593176,0,1.15787733364,6000,2018-05-11 18:54:22,17,0,23.631,5001.9256508753,4.593176,0.4921268,1.15787733364,0,0,-0.223694,270.8, -0.5, 0.9,0,0,1024,1024,1024,1024,270.7,-90,98,3.935,3.977,3.962,3.957,3.938,3.959,16.599,68,14,Waypoint,
38.1644343,-120.1138943,5002.5818188753,5.249344,0,1.13998363228,6100,2018-05-11 18:54:23,17,0,23.631,5002.5818188753,5.249344,0.4921268,1.15787733364,0,0,-0.223694,270.8, -1, 0.8,0,0,1024,1024,1024,1024,270.7,-90,98,3.935,3.977,3.962,3.957,3.938,3.959,16.599,68,14,Waypoint,
38.1644344,-120.1138943,5002.9099028753,5.577428,0,1.10860895936,6200,2018-05-11 18:54:23,17,0,23.631,5002.9099028753,5.577428,0.4921268,1.15787733364,0,0,-0.447388,270.9, -1, 0.7,0,0,1024,1024,1024,1024,270.7,-90,98,3.935,3.977,3.962,3.957,3.938,3.959,16.599,68,14,Waypoint,
38.1644344,-120.1138943,5003.5660708753,6.233596,0,1.10860895936,6300,2018-05-11 18:54:23,17,0,23.631,5003.5660708753,6.233596,0.4921268,1.15787733364,0,0,-0.447388,271.1, -0.9, 0.6,0,0,1024,1024,1024,1024,270.7,-90,98,3.935,3.977,3.962,3.957,3.938,3.959,16.599,68,14,Waypoint,
38.1644344,-120.1138942,5004.2222388753,6.889764,0,1.1237205084,6400,2018-05-11 18:54:23,19,0,23.631,5004.2222388753,6.889764,0.4921268,1.15787733364,0,0,-0.447388,271.2, -1.1, 0.8,0,0,1024,1024,1024,1024,270.7,-90,98,3.935,3.977,3.962,3.957,3.938,3.959,16.599,68,14,Waypoint,
38.1644345,-120.1138941,5004.8784068753,7.545932,0,1.10916342132,6500,2018-05-11 18:54:23,19,0,23.631,5004.8784068753,7.545932,0.4921268,1.15787733364,0,0,-0.447388,271.4, -1.4, 1.1,0,0,1024,1024,1024,1024,270.7,-90,98,3.935,3.977,3.962,3.957,3.938,3.959,16.599,68,14,Waypoint,
38.1644347,-120.113894,5005.5345748753,8.2021,0,1.06746722576,6600,2018-05-11 18:54:23,17,0,23.631,5005.5345748753,8.2021,0.4921268,1.15787733364,0,0,-0.671082,271.6, -1.3, 1,0,0,1024,1024,1024,1024,270.7,-90,98,3.935,3.977,3.962,3.957,3.938,3.959,16.599,68,14,Waypoint,
38.1644349,-120.1138939,5006.5188268753,9.186352,0.223694,1.03005908808,6700,2018-05-11 18:54:23,17,0,23.631,5006.5188268753,9.186352,0.4921268,1.15787733364,0,0,-0.671082,271.8, -1.2, 0,0,0,1024,1024,1024,1024,270.7,-90,98,3.935,3.977,3.962,3.957,3.938,3.959,16.599,68,14,Waypoint,
38.1644351,-120.1138939,5007.5030788753,10.170604,0.223694,0.97699806276,6800,2018-05-11 18:54:23,18,0,23.631,5007.5030788753,10.170604,0.4921268,1.15787733364,0,0,-0.671082,272, -1.1, -0.9,0,0,1024,1024,1024,1024,270.7,-89.9,98,3.935,3.977,3.962,3.957,3.938,3.959,16.599,68,14,Waypoint,
38.1644352,-120.1138939,5008.4873308753,11.154856,0.223694,0.9514600042,6900,2018-05-11 18:54:23,18,0,23.631,5008.4873308753,11.154856,0.4921268,1.15787733364,0,0,-0.671082,271.9, -0.9, -1.5,0,0,1024,1024,1024,1024,270.7,-89.9,98,3.935,3.977,3.962,3.957,3.938,3.959,16.599,68,14,Waypoint,
38.1644354,-120.1138938,5009.4715828753,12.139108,0,0.924704754,7000,2018-05-11 18:54:23,19,0,23.419,5009.4715828753,12.139108,0.4921268,1.15787733364,0,0,-0.671082,271.5, -0.7, -1.7,0,0,1024,1024,1024,1024,270.7,-89.9,98,3.881,3.94,3.868,3.88,3.858,3.893,18.553,68,14,Waypoint,
38.1644356,-120.1138937,5010.4558348753,13.12336,0,0.90397640688,7100,2018-05-11 18:54:24,19,0,23.419,5010.4558348753,13.12336,0.4921268,1.15787733364,0,0,-0.671082,271.1, -1.1, -1.8,0,0,1024,1024,1024,1024,270.7,-90,98,3.881,3.94,3.868,3.88,3.858,3.893,18.553,68,14,Waypoint,
38.1644358,-120.1138936,5011.7681708753,14.435696,0,0.88970147204,7200,2018-05-11 18:54:24,18,0,23.419,5011.7681708753,14.435696,0.4921268,1.15787733364,0,0,-0.671082,270.8, -1.3, -1.8,0,0,1024,1024,1024,1024,270.7,-90,98,3.881,3.94,3.868,3.88,3.858,3.893,18.553,68,14,Waypoint,
38.164436,-120.1138935,5012.7524228753,15.419948,0,0.88218834844,7300,2018-05-11 18:54:24,18,0,23.419,5012.7524228753,15.419948,0.4921268,1.15787733364,0,0,-0.671082,270.6, -1.3, -2.2,0,0,1024,1024,1024,1024,270.7,-89.9,98,3.881,3.94,3.868,3.88,3.858,3.893,18.553,68,14,Waypoint,
38.1644362,-120.1138934,5014.0647588753,16.732284,0,0.8816109206,7400,2018-05-11 18:54:24,18,0,23.419,5014.0647588753,16.732284,0.4921268,1.15787733364,0,0,-0.671082,270.6, -1.3, -2.4,0,0,1024,1024,1024,1024,270.7,-90,98,3.881,3.94,3.868,3.88,3.858,3.893,18.553,68,14,Waypoint,
38.1644363,-120.1138934,5015.0490108753,17.716536,0,0.87021328244,7500,2018-05-11 18:54:24,18,0,23.419,5015.0490108753,17.716536,0.4921268,1.15787733364,0,0,-0.671082,270.6, -1.3, -2.4,0,0,1024,1024,1024,1024,270.7,-90,98,3.881,3.94,3.868,3.88,3.858,3.893,18.553,68,14,Waypoint,
38.1644364,-120.1138934,5016.0332628753,18.700788,0,0.86021328212,7610,2018-05-11 18:54:24,18,0,23.419,5016.0332628753,18.700788,0.4921268,1.15787733364,0,0,-0.671082,270.7, -1.2, -2.1,0,0,1024,1024,1024,1024,270.7,-90,98,3.881,3.94,3.868,3.88,3.858,3.893,18.553,68,14,Waypoint,
38.1644364,-120.1138934,5016.0332628753,18.700788,0,0.86021328212,7700,2018-05-11 18:54:24,18,0,23.419,5016.0332628753,18.700788,0.4921268,1.15787733364,0,0,-0.671082,270.7, -1.2, -2.1,0,0,1024,1024,1024,1024,270.7,-89.9,98,3.881,3.94,3.868,3.88,3.858,3.893,18.553,68,14,Waypoint,
38.1644365,-120.1138935,5017.3455988753,20.013124,0,0.82366144368,7800,2018-05-11 18:54:24,18,0,23.419,5017.3455988753,20.013124,0.4921268,1.15787733364,0,0,-0.671082,270.9, -0.8, -1.8,0,0,1024,1024,1024,1024,270.7,-89.9,98,3.881,3.94,3.868,3.88,3.858,3.893,18.553,68,14,Waypoint,
38.1644365,-120.1138937,5019.3141028753,21.981628,0,0.76782154688,7910,2018-05-11 18:54:24,18,0,23.419,5019.3141028753,21.981628,0.4921268,1.15787733364,0,0,-0.671082,271.1, -0.2, -1.6,0,0,1024,1024,1024,1024,270.7,-89.9,98,3.881,3.94,3.868,3.88,3.858,3.893,18.553,68,14,Waypoint,
38.1644364,-120.113894,5021.6106908753,24.278216,0.223694,0.6951443792,8100,2018-05-11 18:54:25,18,0,23.419,5021.6106908753,24.278216,0.4921268,1.15787733364,0,0,-0.671082,271, 0.1, -1,0,0,1024,1024,1024,1024,270.7,-89.9,98,3.881,3.94,3.868,3.88,3.858,3.893,18.553,68,14,Waypoint,
38.1644363,-120.1138941,5022.5949428753,25.262468,0.223694,0.68081038924,8200,2018-05-11 18:54:25,19,0,23.419,5022.5949428753,25.262468,0.4921268,1.15787733364,0,0,-0.671082,270.9, 0.2, -0.6,0,0,1024,1024,1024,1024,270.7,-89.9,98,3.881,3.94,3.868,3.88,3.858,3.893,18.553,68,14,Waypoint,
38.1644361,-120.1138942,5023.5791948753,26.24672,0.223694,0.68608597996,8300,2018-05-11 18:54:25,19,0,23.419,5023.5791948753,26.24672,0.4921268,1.15787733364,0,0,-0.671082,270.8, 0, 0,0,0,1024,1024,1024,1024,270.7,-89.9,98,3.881,3.94,3.868,3.88,3.858,3.893,18.553,68,14,Waypoint,
38.1644359,-120.1138944,5024.8915308753,27.559056,0.223694,0.6768536962,8400,2018-05-11 18:54:25,18,0,23.419,5024.8915308753,27.559056,0.4921268,1.15787733364,0,0,-0.671082,270.7, -0.1, 0.2,0,0,1024,1024,1024,1024,270.7,-89.9,98,3.881,3.94,3.868,3.88,3.858,3.893,18.553,68,14,Waypoint,
38.1644357,-120.1138946,5025.8757828753,28.543308,0.223694,0.68027889316,8500,2018-05-11 18:54:25,18,0,23.419,5025.8757828753,28.543308,0.4921268,1.15787733364,0,0,-0.671082,270.8, 0, 0.1,0,0,1024,1024,1024,1024,270.7,-89.9,98,3.881,3.94,3.868,3.88,3.858,3.893,18.553,68,14,Waypoint,
38.1644355,-120.1138947,5027.1881188753,29.855644,0.223694,0.71425855304,8600,2018-05-11 18:54:25,17,0,23.419,5027.1881188753,29.855644,0.4921268,1.15787733364,0,0,-0.671082,270.9, 0.4, 0.3,0,0,1024,1024,1024,1024,270.7,-89.9,98,3.881,3.94,3.868,3.88,3.858,3.893,18.553,68,14,Waypoint,
38.1644353,-120.1138949,5028.1723708753,30.839896,0.223694,0.7389107848,8700,2018-05-11 18:54:25,17,0,23.419,5028.1723708753,30.839896,0.4921268,1.15787733364,0,0,-0.671082,271, 0.7, 0.5,0,0,1024,1024,1024,1024,270.7,-89.9,98,3.881,3.94,3.868,3.88,3.858,3.893,18.553,68,14,Waypoint,
38.1644352,-120.1138951,5029.1566228753,31.824148,0,0.74147640168,8800,2018-05-11 18:54:25,19,0,23.419,5029.1566228753,31.824148,0.4921268,1.15787733364,0,0,-0.671082,271.1, 0.9, 0.6,0,0,1024,1024,1024,1024,270.7,-89.9,98,3.881,3.94,3.868,3.88,3.858,3.893,18.553,68,14,Waypoint,
38.164435,-120.1138952,5030.4689588753,33.136484,0,0.79500330628,8900,2018-05-11 18:54:25,19,0,23.419,5030.4689588753,33.136484,0.4921268,1.15787733364,0,0,-0.671082,271.2, 0.9, 0.4,0,0,1024,1024,1024,1024,270.7,-89.9,98,3.881,3.94,3.868,3.88,3.858,3.893,18.553,68,14,Waypoint,
38.1644349,-120.1138952,5031.4532108753,34.120736,0,0.82861551208,9010,2018-05-11 18:54:25,19,0,23.081,5031.4532108753,34.120736,0.4921268,1.15787733364,0,0,-0.671082,271.3, 0.8, 0.2,0,0,1024,1024,1024,1024,270.7,-89.9,97,3.791,3.824,3.813,3.805,3.793,3.807,19.699,68,14,Waypoint,
38.1644348,-120.1138953,5032.4374628753,35.104988,0,0.85238847872,9100,2018-05-11 18:54:26,19,0,23.081,5032.4374628753,35.104988,0.4921268,1.15787733364,0,0,-0.671082,271.4, 0.7, 0.1,0,0,1024,1024,1024,1024,270.7,-89.9,97,3.791,3.824,3.813,3.805,3.793,3.807,19.699,68,14,Waypoint,
38.1644346,-120.1138954,5033.4217148753,36.08924,0,0.91290685336,9200,2018-05-11 18:54:26,20,0,23.081,5033.4217148753,36.08924,0.4921268,1.15787733364,0,0,-0.671082,271.4, 0.6, 0.3,0,0,1024,1024,1024,1024,270.7,-89.9,97,3.791,3.824,3.813,3.805,3.793,3.807,19.699,68,14,Waypoint,
38.1644345,-120.1138954,5034.4059668753,37.073492,0,0.94795606708,9300,2018-05-11 18:54:26,20,0,23.081,5034.4059668753,37.073492,0.4921268,1.15787733364,0,0,-0.671082,271.3, 0.5, 0.7,0,0,1024,1024,1024,1024,270.7,-89.9,97,3.791,3.824,3.813,3.805,3.793,3.807,19.699,68,14,Waypoint,
38.1644343,-120.1138955,5035.3902188753,38.057744,0,1.01146984864,9400,2018-05-11 18:54:26,17,0,23.081,5035.3902188753,38.057744,0.4921268,1.15787733364,0,0,-0.671082,271.2, 0.5, 0.9,0,0,1024,1024,1024,1024,270.7,-89.9,97,3.791,3.824,3.813,3.805,3.793,3.807,19.699,68,14,Waypoint,
38.1644342,-120.1138956,5036.3744708753,39.041996,0,1.0411253614,9500,2018-05-11 18:54:26,17,0,23.081,5036.3744708753,39.041996,0.4921268,1.15787733364,0,0,-0.671082,271.1, 0.5, 0.7,0,0,1024,1024,1024,1024,270.7,-89.9,97,3.791,3.824,3.813,3.805,3.793,3.807,19.699,68,14,Waypoint,
38.1644341,-120.1138956,5037.6868068753,40.354332,0,1.07694885336,9620,2018-05-11 18:54:26,19,0,23.081,5037.6868068753,40.354332,0.4921268,1.15787733364,0,0,-0.671082,271, 0.6, 0.6,0,0,1024,1024,1024,1024,270.7,-89.9,97,3.791,3.824,3.813,3.805,3.793,3.807,19.699,68,14,Waypoint,
38.1644341,-120.1138956,5037.6868068753,40.354332,0,1.07694885336,9700,2018-05-11 18:54:26,19,0,23.081,5037.6868068753,40.354332,0.4921268,1.15787733364,0,0,-0.671082,271, 0.6, 0.6,0,0,1024,1024,1024,1024,270.7,-89.9,97,3.791,3.824,3.813,3.805,3.793,3.807,19.699,68,14,Waypoint,
38.1644338,-120.1138956,5039.6553108753,42.322836,0,1.18465883056,9810,2018-05-11 18:54:26,19,0,23.081,5039.6553108753,42.322836,0.4921268,1.18465883056,0,0,-0.671082,270.7, 0.3, 1.1,0,0,1024,1024,1024,1024,270.7,-89.9,97,3.791,3.824,3.813,3.805,3.793,3.807,19.699,68,14,Waypoint,
38.1644338,-120.1138956,5039.6553108753,42.322836,0,1.18465883056,9900,2018-05-11 18:54:26,19,0,23.081,5039.6553108753,42.322836,0.4921268,1.18465883056,0,0,-0.671082,270.7, 0.3, 1.1,0,0,1024,1024,1024,1024,270.7,-89.9,97,3.791,3.824,3.813,3.805,3.793,3.807,19.699,68,14,Waypoint,
38.1644337,-120.1138957,5041.6238148753,44.29134,0,1.21624347724,10000,2018-05-11 18:54:26,20,0,23.244,5041.6238148753,44.29134,0.4921268,1.21624347724,0,0,-0.671082,270.7, 0.1, 0.7,0,0,1024,1024,1024,1024,270.7,-89.9,97,3.827,3.859,3.869,3.864,3.853,3.858,18.625,68,14,Waypoint,
38.1644337,-120.1138957,5043.5923188753,46.259844,0,1.21624347724,10200,2018-05-11 18:54:27,19,0,23.244,5043.5923188753,46.259844,0.4921268,1.21624347724,0,0,-0.671082,271.1, 0.4, 0.2,0,0,1024,1024,1024,1024,270.7,-89.9,97,3.827,3.859,3.869,3.864,3.853,3.858,18.625,68,14,Waypoint,
38.1644337,-120.1138957,5044.5765708753,47.244096,0,1.21624347724,10300,2018-05-11 18:54:27,19,0,23.244,5044.5765708753,47.244096,0.4921268,1.21624347724,0,0,-0.671082,271.3, 0.5, -0.1,0,0,1024,1024,1024,1024,270.7,-89.9,97,3.827,3.859,3.869,3.864,3.853,3.858,18.625,68,14,Waypoint,
38.1644337,-120.1138957,5045.5608228753,48.228348,0,1.21624347724,10400,2018-05-11 18:54:27,20,0,23.244,5045.5608228753,48.228348,0.4921268,1.21624347724,0,0,-0.671082,271.5, 0.5, -0.2,0,0,1024,1024,1024,1024,270.7,-89.9,97,3.827,3.859,3.869,3.864,3.853,3.858,18.625,68,14,Waypoint,
38.1644337,-120.1138957,5046.5450748753,49.2126,0,1.21624347724,10500,2018-05-11 18:54:27,20,0,23.244,5046.5450748753,49.2126,0.4921268,1.21624347724,0,0,-0.671082,271.5, 0.5, -0.1,0,0,1024,1024,1024,1024,270.7,-89.9,97,3.827,3.859,3.869,3.864,3.853,3.858,18.625,68,14,Waypoint,
38.1644337,-120.1138957,5047.5293268753,50.196852,0,1.21624347724,10600,2018-05-11 18:54:27,19,0,23.244,5047.5293268753,50.196852,0.4921268,1.21624347724,0,0,-0.671082,271.4, 0.7, 0,0,0,1024,1024,1024,1024,270.7,-89.9,97,3.827,3.859,3.869,3.864,3.853,3.858,18.625,68,14,Waypoint,
38.1644337,-120.1138957,5048.1854948753,50.85302,0,1.21624347724,10700,2018-05-11 18:54:27,19,0,23.244,5048.1854948753,50.85302,0.4921268,1.21624347724,0,0,-0.671082,271.2, 0.6, 0.5,0,0,1024,1024,1024,1024,270.7,-89.9,97,3.827,3.859,3.869,3.864,3.853,3.858,18.625,68,14,Waypoint,
38.1644336,-120.1138957,5049.1697468753,51.837272,0,1.25237208732,10800,2018-05-11 18:54:27,19,0,23.244,5049.1697468753,51.837272,0.4921268,1.25237208732,0,0,-0.671082,270.9, 0.6, 1,0,0,1024,1024,1024,1024,270.7,-89.9,97,3.827,3.859,3.869,3.864,3.853,3.858,18.625,68,14,Waypoint,
38.1644336,-120.1138956,5050.1539988753,52.821524,0,1.25663389848,10900,2018-05-11 18:54:27,19,0,23.244,5050.1539988753,52.821524,0.4921268,1.25663389848,0,0,-0.671082,270.8, 0.4, 1.2,0,0,1024,1024,1024,1024,270.7,-89.9,97,3.827,3.859,3.869,3.864,3.853,3.858,18.625,68,14,Waypoint,
38.1644336,-120.1138955,5051.4663348753,54.13386,0,1.26153547344,11000,2018-05-11 18:54:27,19,0,23.222,5051.4663348753,54.13386,0.4921268,1.26153547344,0,0,-0.671082,270.7, 0.2, 1.2,0,0,1024,1024,1024,1024,270.7,-89.9,97,3.854,3.878,3.889,3.88,3.873,3.867,17.978,68,14,Waypoint,
38.1644337,-120.1138954,5052.4505868753,55.118112,0,1.23137143048,11100,2018-05-11 18:54:28,19,0,23.222,5052.4505868753,55.118112,0.4921268,1.26153547344,0,0,-0.671082,270.7, 0, 0.9,0,0,1024,1024,1024,1024,270.7,-90,97,3.854,3.878,3.889,3.88,3.873,3.867,17.978,68,14,Waypoint,
38.1644337,-120.1138953,5053.4348388753,56.102364,0,1.23770345168,11200,2018-05-11 18:54:28,21,0,23.222,5053.4348388753,56.102364,0.4921268,1.26153547344,0,0,-0.671082,270.8, -0.2, 0.5,0,0,1024,1024,1024,1024,270.7,-90,97,3.854,3.878,3.889,3.88,3.873,3.867,17.978,68,14,Waypoint,
38.1644338,-120.1138952,5054.4190908753,57.086616,0,1.20940948752,11300,2018-05-11 18:54:28,21,0,23.222,5054.4190908753,57.086616,0.4921268,1.26153547344,0,0,-0.671082,270.8, -0.4, 0.2,0,0,1024,1024,1024,1024,270.7,-90,97,3.854,3.878,3.889,3.88,3.873,3.867,17.978,68,14,Waypoint,
38.1644339,-120.113895,5055.4033428753,58.070868,0.3131716,1.19092523496,11400,2018-05-11 18:54:28,21,0,23.222,5055.4033428753,58.070868,0.4921268,1.26153547344,0,0,-0.671082,270.9, -0.7, 0,0,0,1024,1024,1024,1024,270.7,-90,97,3.854,3.878,3.889,3.88,3.873,3.867,17.978,68,14,Waypoint,
38.164434,-120.1138949,5056.3875948753,59.05512,0.3131716,1.16589898744,11500,2018-05-11 18:54:28,21,0,23.222,5056.3875948753,59.05512,0.4921268,1.26153547344,0,0,-0.671082,270.9, -0.8, -0.4,0,0,1024,1024,1024,1024,270.7,-90,97,3.854,3.878,3.889,3.88,3.873,3.867,17.978,68,14,Waypoint,
38.1644341,-120.1138948,5057.3718468753,60.039372,0.3131716,1.14221132264,11610,2018-05-11 18:54:28,21,0,23.222,5057.3718468753,60.039372,0.4921268,1.26153547344,0,0,-0.671082,270.9, -1, -0.7,0,0,1024,1024,1024,1024,270.7,-90,97,3.854,3.878,3.889,3.88,3.873,3.867,17.978,68,14,Waypoint,
38.1644341,-120.1138946,5058.3560988753,61.023624,0.3131716,1.16503612652,11700,2018-05-11 18:54:28,21,0,23.222,5058.3560988753,61.023624,0.4921268,1.26153547344,0,0,-0.671082,270.9, -1.3, -0.9,0,0,1024,1024,1024,1024,270.7,-90,97,3.854,3.878,3.889,3.88,3.873,3.867,17.978,68,14,Waypoint,
38.1644342,-120.1138945,5059.3403508753,62.007876,0.223694,1.14465554844,11800,2018-05-11 18:54:28,21,0,23.222,5059.3403508753,62.007876,0.4921268,1.26153547344,0,0,-0.671082,271, -1.8, -0.8,0,0,1024,1024,1024,1024,270.7,-90,97,3.854,3.878,3.889,3.88,3.873,3.867,17.978,68,14,Waypoint,
38.1644343,-120.1138942,5061.3088548753,63.97638,0.223694,1.15468507632,12000,2018-05-11 18:54:28,21,0,23.222,5061.3088548753,63.97638,0.4921268,1.26153547344,0,0,-0.671082,270.7, -2.1, -1.4,0,0,1024,1024,1024,1024,270.7,-90,97,3.855,3.884,3.878,3.867,3.862,3.868,17.978,68,14,Waypoint,
38.1644344,-120.113894,5062.2931068753,64.960632,0.223694,1.15549216296,12100,2018-05-11 18:54:29,21,0,23.222,5062.2931068753,64.960632,0.4921268,1.26153547344,0,0,-0.671082,270.5, -1.8, -1.6,0,0,1024,1024,1024,1024,270.7,-90,97,3.855,3.884,3.878,3.867,3.862,3.868,17.978,68,14,Waypoint,
38.1644345,-120.1138939,5063.2773588753,65.944884,0.223694,1.1427821888,12210,2018-05-11 18:54:29,21,0,23.222,5063.2773588753,65.944884,0.4921268,1.26153547344,0,0,-0.671082,270.5, -1.6, -1,0,0,1024,1024,1024,1024,270.7,-90,97,3.855,3.884,3.878,3.867,3.862,3.868,17.978,68,14,Waypoint,
38.1644345,-120.1138937,5064.2616108753,66.929136,0.223694,1.17823494584,12300,2018-05-11 18:54:29,21,0,23.222,5064.2616108753,66.929136,0.4921268,1.26153547344,0,0,-0.671082,270.5, -1.7, -0.8,0,0,1024,1024,1024,1024,270.7,-90,97,3.855,3.884,3.878,3.867,3.862,3.868,17.978,68,14,Waypoint,
38.1644345,-120.1138937,5064.2616108753,66.929136,0.223694,1.17823494584,12400,2018-05-11 18:54:29,21,0,23.222,5064.2616108753,66.929136,0.4921268,1.26153547344,0,0,-0.671082,270.5, -1.7, -0.8,0,0,1024,1024,1024,1024,270.7,-90,97,3.855,3.884,3.878,3.867,3.862,3.868,17.978,68,14,Waypoint,
38.1644346,-120.1138935,5065.2458628753,67.913388,0.223694,1.18822838448,12500,2018-05-11 18:54:29,21,0,23.222,5065.2458628753,67.913388,0.4921268,1.26153547344,0,0,-0.671082,270.6, -2.1, -1,0,0,1024,1024,1024,1024,270.7,-90,97,3.855,3.884,3.878,3.867,3.862,3.868,17.978,68,14,Waypoint,
38.1644348,-120.1138932,5067.5424508753,70.209976,0.223694,1.19794295172,12600,2018-05-11 18:54:29,21,0,23.222,5067.5424508753,70.209976,0.4921268,1.26153547344,0,0,-0.671082,270.7, -2.5, -0.7,0,0,1024,1024,1024,1024,270.7,-90,97,3.855,3.884,3.878,3.867,3.862,3.868,17.978,68,14,Waypoint,
38.164435,-120.1138928,5069.5109548753,72.17848,0,1.24116473788,12800,2018-05-11 18:54:29,21,0,23.222,5069.5109548753,72.17848,0.4921268,1.26153547344,0,0,-0.671082,270.8, -3.2, -1.4,0,0,1024,1024,1024,1024,270.7,-90,97,3.855,3.884,3.878,3.867,3.862,3.868,17.978,68,14,Waypoint,
38.1644351,-120.1138927,5070.4952068753,73.162732,0,1.24378612904,12900,2018-05-11 18:54:29,21,0,23.222,5070.4952068753,73.162732,0.4921268,1.26153547344,0,0,-0.671082,270.8, -3.2, -1.6,0,0,1024,1024,1024,1024,270.7,-90,97,3.855,3.884,3.878,3.867,3.862,3.868,17.978,68,14,Waypoint,
38.1644352,-120.1138925,5071.4794588753,74.146984,0,1.27261158928,13000,2018-05-11 18:54:29,21,0,23.203,5071.4794588753,74.146984,0.4921268,1.27261158928,0,0,-0.671082,270.9, -3.2, -1.6,0,0,1024,1024,1024,1024,270.7,-90,97,3.848,3.878,3.869,3.873,3.855,3.857,17.989,68,14,Waypoint,
38.1644353,-120.1138924,5072.4637108753,75.131236,0,1.2791831118,13100,2018-05-11 18:54:30,21,0,23.203,5072.4637108753,75.131236,0.4921268,1.2791831118,0,0,-0.671082,271, -3, -1.3,0,0,1024,1024,1024,1024,270.7,-89.9,97,3.848,3.878,3.869,3.873,3.855,3.857,17.989,68,14,Waypoint,
38.1644354,-120.1138923,5073.4479628753,76.115488,0,1.28739505432,13200,2018-05-11 18:54:30,21,0,23.203,5073.4479628753,76.115488,0.4921268,1.28739505432,0,0,-0.671082,270.9, -2.9, -1.2,0,0,1024,1024,1024,1024,270.7,-89.9,97,3.848,3.878,3.869,3.873,3.855,3.857,17.989,68,14,Waypoint,
38.1644355,-120.1138922,5074.4322148753,77.09974,0,1.29721788928,13300,2018-05-11 18:54:30,21,0,23.203,5074.4322148753,77.09974,0.4921268,1.29721788928,0,0,-0.671082,270.8, -2.8, -1.8,0,0,1024,1024,1024,1024,270.7,-89.9,97,3.848,3.878,3.869,3.873,3.855,3.857,17.989,68,14,Waypoint,
38.1644358,-120.1138921,5076.4007188753,79.068244,0.223694,1.28189308564,13500,2018-05-11 18:54:30,21,0,23.203,5076.4007188753,79.068244,0.4921268,1.29721788928,0,0,-0.671082,271, -2.6, -2.8,0,0,1024,1024,1024,1024,270.7,-89.9,97,3.848,3.878,3.869,3.873,3.855,3.857,17.989,68,14,Waypoint,
38.1644359,-120.1138921,5077.3849708753,80.052496,0.223694,1.26989505376,13600,2018-05-11 18:54:30,21,0,23.203,5077.3849708753,80.052496,0.4921268,1.29721788928,0,0,-0.671082,271.3, -2.7, -3.4,0,0,1024,1024,1024,1024,270.7,-90,97,3.848,3.878,3.869,3.873,3.855,3.857,17.989,68,14,Waypoint,
38.1644361,-120.1138921,5078.3692228753,81.036748,0.223694,1.24875660164,13700,2018-05-11 18:54:30,21,0,23.203,5078.3692228753,81.036748,0.4921268,1.29721788928,0,0,-0.671082,271.4, -2.5, -4.8,0,0,1024,1024,1024,1024,270.7,-89.9,97,3.848,3.878,3.869,3.873,3.855,3.857,17.989,68,14,Waypoint,
38.1644363,-120.113892,5080.3377268753,83.005252,0,1.25965883296,13910,2018-05-11 18:54:30,21,0,23.203,5080.3377268753,83.005252,0.4921268,1.29721788928,0,0,-0.671082,271.2, -1.7, -4.3,0,0,1024,1024,1024,1024,270.7,-89.9,97,3.848,3.878,3.869,3.873,3.855,3.857,17.989,68,14,Waypoint,
38.1644364,-120.113892,5081.3219788753,83.989504,0,1.25276906896,14000,2018-05-11 18:54:30,21,0,23.275,5081.3219788753,83.989504,0.4921268,1.29721788928,0,0,-0.671082,270.9, -1.8, -3.6,0,0,1024,1024,1024,1024,270.7,-89.9,97,3.855,3.889,3.878,3.883,3.866,3.874,17.56,68,14,Waypoint,
38.1644365,-120.113892,5082.3062308753,84.973756,0,1.24691276956,14100,2018-05-11 18:54:31,21,0,23.275,5082.3062308753,84.973756,0.4921268,1.29721788928,0,0,-0.671082,270.7, -2.2, -2.9,0,0,1024,1024,1024,1024,270.7,-90,97,3.855,3.889,3.878,3.883,3.866,3.874,17.56,68,14,Waypoint,
38.1644365,-120.113892,5083.2904828753,85.958008,0,1.24691276956,14200,2018-05-11 18:54:31,21,0,23.275,5083.2904828753,85.958008,0.4921268,1.29721788928,0,0,-0.671082,270.7, -2.1, -2.1,0,0,1024,1024,1024,1024,270.7,-89.9,97,3.855,3.889,3.878,3.883,3.866,3.874,17.56,68,14,Waypoint,
38.1644365,-120.113892,5083.9466508753,86.614176,0,1.24691276956,14300,2018-05-11 18:54:31,21,0,23.275,5083.9466508753,86.614176,0.4921268,1.29721788928,0,0,-0.671082,270.6, -1.9, -1.7,0,0,1024,1024,1024,1024,270.7,-89.9,97,3.855,3.889,3.878,3.883,3.866,3.874,17.56,68,14,Waypoint,
38.1644363,-120.1138919,5086.8994068753,89.566932,0,1.2877625084,14700,2018-05-11 18:54:31,21,0,23.275,5086.8994068753,89.566932,0.4921268,1.29721788928,0,0,-0.671082,271, -2.9, -2.1,0,0,1024,1024,1024,1024,270.7,-90,97,3.855,3.889,3.878,3.883,3.866,3.874,17.56,68,14,Waypoint,
38.1644363,-120.1138919,5087.8836588753,90.551184,0,1.2877625084,14800,2018-05-11 18:54:31,21,0,23.275,5087.8836588753,90.551184,0.4921268,1.29721788928,0,0,-0.671082,271, -3, -1.9,0,0,1024,1024,1024,1024,270.7,-90,97,3.855,3.889,3.878,3.883,3.866,3.874,17.56,68,14,Waypoint,
38.1644363,-120.1138919,5088.8679108753,91.535436,0,1.2877625084,14900,2018-05-11 18:54:31,21,0,23.275,5088.8679108753,91.535436,0.4921268,1.29721788928,0,0,-0.671082,270.9, -3.1, -1.3,0,0,1024,1024,1024,1024,270.7,-90,97,3.855,3.889,3.878,3.883,3.866,3.874,17.56,68,14,Waypoint,
38.1644363,-120.1138918,5089.5240788753,92.191604,0,1.31588914972,15000,2018-05-11 18:54:31,21,0,23.287,5089.5240788753,92.191604,0.4921268,1.31588914972,0,0,-0.671082,270.8, -3.1, -1.1,0,0,1024,1024,1024,1024,270.7,-90,97,3.86,3.887,3.888,3.889,3.856,3.891,16.678,68,14,Waypoint,
38.1644363,-120.1138917,5090.5083308753,93.175856,0,1.34404203776,15100,2018-05-11 18:54:32,21,0,23.287,5090.5083308753,93.175856,0.4921268,1.34404203776,0,0,-0.671082,270.7, -3.2, -1,0,0,1024,1024,1024,1024,270.7,-90,97,3.86,3.887,3.888,3.889,3.856,3.891,16.678,68,14,Waypoint,
38.1644362,-120.1138915,5092.4768348753,95.14436,0,1.40752301092,15200,2018-05-11 18:54:32,21,0,23.287,5092.4768348753,95.14436,0.4921268,1.40752301092,0,0,-0.671082,270.8, -4, -1.7,0,0,1024,1024,1024,1024,270.7,-90,97,3.86,3.887,3.888,3.889,3.856,3.891,16.678,68,14,Waypoint,
38.1644362,-120.1138914,5093.4610868753,96.128612,0,1.4355971588,15300,2018-05-11 18:54:32,21,0,23.287,5093.4610868753,96.128612,0.4921268,1.4355971588,0,0,-0.671082,270.9, -4.3, -2.1,0,0,1024,1024,1024,1024,270.7,-90,97,3.86,3.887,3.888,3.889,3.856,3.891,16.678,68,14,Waypoint,
38.1644362,-120.1138914,5094.4453388753,97.112864,0,1.4355971588,15400,2018-05-11 18:54:32,21,0,23.287,5094.4453388753,97.112864,0.4921268,1.4355971588,0,0,-0.671082,271, -4.4, -2,0,0,1024,1024,1024,1024,270.7,-90,97,3.86,3.887,3.888,3.889,3.856,3.891,16.678,68,14,Waypoint,
38.1644361,-120.1138914,5095.1015068753,97.769032,0,1.4434547706,15500,2018-05-11 18:54:32,21,0,23.287,5095.1015068753,97.769032,0.4921268,1.4434547706,0,0,-0.671082,271, -4.3, -1.8,0,0,1024,1024,1024,1024,270.7,-90,97,3.86,3.887,3.888,3.889,3.856,3.891,16.678,68,14,Waypoint,
38.1644361,-120.1138913,5096.0857588753,98.753284,0.223694,1.47140424656,15600,2018-05-11 18:54:32,21,0,23.287,5096.0857588753,98.753284,0.4921268,1.47140424656,0,0,-0.671082,270.9, -4.5, -1.5,0,0,1024,1024,1024,1024,270.7,-90,97,3.86,3.887,3.888,3.889,3.856,3.891,16.678,68,14,Waypoint,
38.1644359,-120.1138914,5098.0542628753,100.721788,0.223694,1.46178482368,15800,2018-05-11 18:54:32,21,0,23.287,5098.0542628753,100.721788,0.4921268,1.47140424656,0,0,-0.671082,271.2, -4, -0.6,0,0,1024,1024,1024,1024,270.7,-89.9,97,3.86,3.887,3.888,3.889,3.856,3.891,16.678,68,14,Waypoint,
38.1644357,-120.1138914,5099.6946828753,102.362208,0.223694,1.48347773776,16000,2018-05-11 18:54:32,21,0,23.068,5099.6946828753,102.362208,0.4921268,1.48347773776,0,0,-0.671082,271.3, -3.4, 0.4,0,0,1024,1024,1024,1024,270.7,-89.9,97,3.823,3.858,3.847,3.849,3.817,3.842,18.446,69.8,14,Waypoint,
38.1644356,-120.1138915,5100.6789348753,103.34646,0,1.46861553256,16100,2018-05-11 18:54:33,21,0,23.068,5100.6789348753,103.34646,0.4921268,1.48347773776,0,0,-0.671082,271.2, -3.2, 0.3,0,0,1024,1024,1024,1024,270.7,-89.9,97,3.823,3.858,3.847,3.849,3.817,3.842,18.446,69.8,14,Waypoint,
38.1644356,-120.1138916,5102.6474388753,105.314964,0,1.44175529548,16300,2018-05-11 18:54:33,21,0,23.068,5102.6474388753,105.314964,0.4921268,1.48347773776,0,0,-0.671082,270.5, -2.9, -0.8,0,0,1024,1024,1024,1024,270.7,-89.9,97,3.823,3.858,3.847,3.849,3.817,3.842,18.446,69.8,14,Waypoint,
38.1644355,-120.1138916,5103.6316908753,106.299216,0,1.45507878672,16400,2018-05-11 18:54:33,21,0,23.068,5103.6316908753,106.299216,0.4921268,1.48347773776,0,0,-0.671082,270.4, -2.7, -1.4,0,0,1024,1024,1024,1024,270.7,-89.9,97,3.823,3.858,3.847,3.849,3.817,3.842,18.446,69.8,14,Waypoint,
38.1644355,-120.1138917,5104.6159428753,107.283468,0,1.42854007196,16500,2018-05-11 18:54:33,21,0,23.068,5104.6159428753,107.283468,0.4921268,1.48347773776,0,0,-0.671082,270.4, -3.1, -1.8,0,0,1024,1024,1024,1024,270.7,-90,97,3.823,3.858,3.847,3.849,3.817,3.842,18.446,69.8,14,Waypoint,
38.1644355,-120.1138917,5105.9282788753,108.595804,0,1.42854007196,16600,2018-05-11 18:54:33,21,0,23.068,5105.9282788753,108.595804,0.4921268,1.48347773776,0,0,-0.671082,270.6, -3.4, -1.8,0,0,1024,1024,1024,1024,270.7,-90,97,3.823,3.858,3.847,3.849,3.817,3.842,18.446,69.8,14,Waypoint,
38.1644354,-120.1138918,5107.8967828753,110.564308,0,1.41672576712,16800,2018-05-11 18:54:33,21,0,23.068,5107.8967828753,110.564308,0.4921268,1.48347773776,0,0,-0.671082,271.3, -3.2, -0.9,0,0,1024,1024,1024,1024,270.7,-89.9,97,3.823,3.858,3.847,3.849,3.817,3.842,18.446,69.8,14,Waypoint,
38.1644352,-120.1138918,5108.8810348753,111.54856,0.223694,1.44832025632,16900,2018-05-11 18:54:33,21,0,23.068,5108.8810348753,111.54856,0.4921268,1.48347773776,0,0,-0.671082,271.7, -3, -0.4,0,0,1024,1024,1024,1024,270.7,-90,97,3.823,3.858,3.847,3.849,3.817,3.842,18.446,69.8,14,Waypoint,
38.1644351,-120.1138918,5110.8495388753,113.517064,0.223694,1.46522642484,17100,2018-05-11 18:54:34,21,0,23.068,5110.8495388753,113.517064,0.4921268,1.48347773776,0,0,-0.671082,271.8, -4.1, 0.1,0,0,1024,1024,1024,1024,270.7,-90,97,3.823,3.858,3.847,3.849,3.817,3.842,18.446,69.8,14,Waypoint,
38.164435,-120.1138919,5111.8337908753,114.501316,0.223694,1.45792983668,17300,2018-05-11 18:54:34,21,0,23.068,5111.8337908753,114.501316,0.4921268,1.48347773776,0,0,-0.671082,271.7, -4.3, 0,0,0,1024,1024,1024,1024,270.7,-89.9,97,3.823,3.858,3.847,3.849,3.817,3.842,18.446,69.8,14,Waypoint,
38.1644348,-120.1138919,5113.8022948753,116.46982,0.223694,1.49578744944,17420,2018-05-11 18:54:34,21,0,23.068,5113.8022948753,116.46982,0.4921268,1.49578744944,0,0,-0.671082,271.4, -3.8, 0.9,0,0,1024,1024,1024,1024,270.7,-89.9,97,3.823,3.858,3.847,3.849,3.817,3.842,18.446,69.8,14,Waypoint,
38.1644348,-120.1138919,5113.8022948753,116.46982,0.223694,1.49578744944,17500,2018-05-11 18:54:34,21,0,23.068,5113.8022948753,116.46982,0.4921268,1.49578744944,0,0,-0.671082,271.4, -3.8, 0.9,0,0,1024,1024,1024,1024,270.7,-89.9,97,3.823,3.858,3.847,3.849,3.817,3.842,18.446,69.8,14,Waypoint,
38.1644347,-120.113892,5114.7865468753,117.454072,0,1.49187340732,17600,2018-05-11 18:54:34,21,0,23.068,5114.7865468753,117.454072,0.4921268,1.49578744944,0,0,-0.671082,271.1, -3.3, 1,0,0,1024,1024,1024,1024,270.7,-89.9,97,3.823,3.858,3.847,3.849,3.817,3.842,18.446,69.8,14,Waypoint,
38.1644346,-120.1138921,5115.7707988753,118.438324,0,1.48939965396,17700,2018-05-11 18:54:34,21,0,23.068,5115.7707988753,118.438324,0.4921268,1.49578744944,0,0,-0.671082,270.9, -2.8, 0.4,0,0,1024,1024,1024,1024,270.7,-89.9,97,3.823,3.858,3.847,3.849,3.817,3.842,18.446,69.8,14,Waypoint,
38.1644346,-120.1138923,5117.4112188753,120.078744,0,1.44338259212,17800,2018-05-11 18:54:34,21,0,23.068,5117.4112188753,120.078744,0.4921268,1.49578744944,0,0,-0.671082,270.8, -2.8, -0.2,0,0,1024,1024,1024,1024,270.7,-89.9,97,3.823,3.858,3.847,3.849,3.817,3.842,18.446,69.8,14,Waypoint,
38.1644346,-120.1138924,5118.3954708753,121.062996,0,1.420685741,17900,2018-05-11 18:54:34,21,0,23.068,5118.3954708753,121.062996,0.4921268,1.49578744944,0,0,-0.671082,271, -2.3, -0.3,0,0,1024,1024,1024,1024,270.7,-89.9,97,3.823,3.858,3.847,3.849,3.817,3.842,18.446,69.8,14,Waypoint,
38.1644346,-120.1138924,5119.3797228753,122.047248,0,1.420685741,18000,2018-05-11 18:54:34,21,0,22.961,5119.3797228753,122.047248,0.4921268,1.49578744944,0,0,-0.671082,271, -2.2, -0.5,0,0,1024,1024,1024,1024,270.7,-89.9,97,3.804,3.839,3.833,3.831,3.821,3.815,19.247,69.8,14,Waypoint,
38.1644346,-120.1138924,5120.6920588753,123.359584,0,1.420685741,18100,2018-05-11 18:54:35,21,0,22.961,5120.6920588753,123.359584,0.4921268,1.49578744944,0,0,-0.671082,271, -2.8, -0.5,0,0,1024,1024,1024,1024,270.7,-90,97,3.804,3.839,3.833,3.831,3.821,3.815,19.247,69.8,14,Waypoint,
38.1644346,-120.1138924,5121.6763108753,124.343836,0,1.420685741,18200,2018-05-11 18:54:35,21,0,22.961,5121.6763108753,124.343836,0.4921268,1.49578744944,0,0,-0.671082,271.1, -3.3, -0.9,0,0,1024,1024,1024,1024,270.7,-90,97,3.804,3.839,3.833,3.831,3.821,3.815,19.247,69.8,14,Waypoint,
38.1644346,-120.1138925,5122.6605628753,125.328088,0,1.39820870616,18300,2018-05-11 18:54:35,21,0,22.961,5122.6605628753,125.328088,0.4921268,1.49578744944,0,0,-0.671082,271.2, -3.3, -0.9,0,0,1024,1024,1024,1024,270.7,-90,97,3.804,3.839,3.833,3.831,3.821,3.815,19.247,69.8,14,Waypoint,
38.1644346,-120.1138925,5123.6448148753,126.31234,0,1.39820870616,18400,2018-05-11 18:54:35,21,0,22.961,5123.6448148753,126.31234,0.4921268,1.49578744944,0,0,-0.671082,271.1, -3, -0.7,0,0,1024,1024,1024,1024,270.7,-89.9,97,3.804,3.839,3.833,3.831,3.821,3.815,19.247,69.8,14,Waypoint,
38.1644346,-120.1138926,5124.6290668753,127.296592,0,1.37596133012,18500,2018-05-11 18:54:35,21,0,22.961,5124.6290668753,127.296592,0.4921268,1.49578744944,0,0,-0.671082,271, -3.2, -0.7,0,0,1024,1024,1024,1024,270.7,-89.9,97,3.804,3.839,3.833,3.831,3.821,3.815,19.247,69.8,14,Waypoint,
38.1644345,-120.1138926,5125.6133188753,128.280844,0,1.39946198704,18600,2018-05-11 18:54:35,21,0,22.961,5125.6133188753,128.280844,0.4921268,1.49578744944,0,0,-0.671082,270.8, -3.2, -0.4,0,0,1024,1024,1024,1024,270.7,-89.9,97,3.804,3.839,3.833,3.831,3.821,3.815,19.247,69.8,14,Waypoint,
38.1644345,-120.1138927,5126.5975708753,129.265096,0,1.37783468976,18700,2018-05-11 18:54:35,21,0,22.961,5126.5975708753,129.265096,0.4921268,1.49578744944,0,0,-0.671082,270.7, -2.6, -0.2,0,0,1024,1024,1024,1024,270.7,-89.9,97,3.804,3.839,3.833,3.831,3.821,3.815,19.247,69.8,14,Waypoint,
38.1644345,-120.1138927,5127.5818228753,130.249348,0,1.37783468976,18800,2018-05-11 18:54:35,21,0,22.961,5127.5818228753,130.249348,0.4921268,1.49578744944,0,0,-0.671082,270.7, -2.3, 0,0,0,1024,1024,1024,1024,270.7,-89.9,97,3.804,3.839,3.833,3.831,3.821,3.815,19.247,69.8,14,Waypoint,
38.1644345,-120.1138927,5128.5660748753,131.2336,0,1.37783468976,18900,2018-05-11 18:54:35,21,0,22.961,5128.5660748753,131.2336,0.4921268,1.49578744944,0,0,-0.671082,270.7, -2.3, -0.1,0,0,1024,1024,1024,1024,270.7,-89.9,97,3.804,3.839,3.833,3.831,3.821,3.815,19.247,69.8,14,Waypoint,
38.1644346,-120.1138928,5130.8626628753,133.530188,0,1.33220804788,19100,2018-05-11 18:54:36,21,0,22.961,5130.8626628753,133.530188,0.4921268,1.49578744944,0,0,-0.671082,270.8, -2.6, -0.4,0,0,1024,1024,1024,1024,270.7,-89.9,97,3.804,3.839,3.833,3.831,3.821,3.815,19.247,69.8,14,Waypoint,
38.1644346,-120.1138929,5131.8469148753,134.51444,0,1.31072510756,19200,2018-05-11 18:54:36,21,0,22.961,5131.8469148753,134.51444,0.4921268,1.49578744944,0,0,-0.671082,270.9, -2.4, -0.4,0,0,1024,1024,1024,1024,270.7,-89.9,97,3.804,3.839,3.833,3.831,3.821,3.815,19.247,69.8,14,Waypoint,
38.1644346,-120.1138929,5132.8311668753,135.498692,0,1.31072510756,19300,2018-05-11 18:54:36,21,0,22.961,5132.8311668753,135.498692,0.4921268,1.49578744944,0,0,-0.671082,271, -2.3, -0.5,0,0,1024,1024,1024,1024,270.7,-89.9,97,3.804,3.839,3.833,3.831,3.821,3.815,19.247,69.8,14,Waypoint,
38.1644346,-120.113893,5133.8154188753,136.482944,0,1.28952103864,19410,2018-05-11 18:54:36,21,0,22.961,5133.8154188753,136.482944,0.4921268,1.49578744944,0,0,-0.671082,271.1, -2, -0.8,0,0,1024,1024,1024,1024,270.7,-89.9,97,3.804,3.839,3.833,3.831,3.821,3.815,19.247,69.8,14,Waypoint,
38.1644346,-120.113893,5133.8154188753,136.482944,0,1.28952103864,19500,2018-05-11 18:54:36,21,0,22.961,5133.8154188753,136.482944,0.4921268,1.49578744944,0,0,-0.671082,271.1, -2, -0.8,0,0,1024,1024,1024,1024,270.7,-89.9,97,3.804,3.839,3.833,3.831,3.821,3.815,19.247,69.8,14,Waypoint,
38.1644347,-120.113893,5134.7996708753,137.467196,0,1.26502956804,19600,2018-05-11 18:54:36,21,0,22.961,5134.7996708753,137.467196,0.4921268,1.49578744944,0,0,-0.671082,271.3, -1.9, -0.9,0,0,1024,1024,1024,1024,270.7,-89.9,97,3.804,3.839,3.833,3.831,3.821,3.815,19.247,69.8,14,Waypoint,
38.1644347,-120.1138931,5135.7839228753,138.451448,0,1.24370738888,19700,2018-05-11 18:54:36,21,0,22.961,5135.7839228753,138.451448,0.4921268,1.49578744944,0,0,-0.671082,271.4, -2, -0.6,0,0,1024,1024,1024,1024,270.7,-89.9,97,3.804,3.839,3.833,3.831,3.821,3.815,19.247,69.8,14,Waypoint,
38.1644347,-120.1138931,5136.7681748753,139.4357,0,1.24370738888,19800,2018-05-11 18:54:36,21,0,22.961,5136.7681748753,139.4357,0.4921268,1.49578744944,0,0,-0.671082,271.5, -2.1, -0.3,0,0,1024,1024,1024,1024,270.7,-89.9,97,3.804,3.839,3.833,3.831,3.821,3.815,19.247,69.8,14,Waypoint,
38.1644347,-120.1138932,5137.7524268753,140.419952,0,1.22269032784,19900,2018-05-11 18:54:36,21,0,22.961,5137.7524268753,140.419952,0.4921268,1.49578744944,0,0,-0.671082,271.6, -1.8, -0.5,0,0,1024,1024,1024,1024,270.7,-89.9,97,3.804,3.839,3.833,3.831,3.821,3.815,19.247,69.8,14,Waypoint,
38.1644349,-120.1138932,5140.0490148753,142.71654,0,1.17380909268,20000,2018-05-11 18:54:36,21,0,22.833,5140.0490148753,142.71654,0.4921268,1.49578744944,0,0,-0.671082,271.1, -2.1, -1.7,0,0,1024,1024,1024,1024,270.7,-89.9,96,3.788,3.813,3.817,3.814,3.807,3.813,19.334,69.8,14,Waypoint,
38.1644349,-120.1138931,5141.0332668753,143.700792,0,1.19568901464,20100,2018-05-11 18:54:37,21,0,22.833,5141.0332668753,143.700792,0.4921268,1.49578744944,0,0,-0.671082,270.8, -2.2, -1.7,0,0,1024,1024,1024,1024,270.7,-89.9,96,3.788,3.813,3.817,3.814,3.807,3.813,19.334,69.8,14,Waypoint,
38.164435,-120.1138931,5142.0175188753,144.685044,0,1.17264439448,20200,2018-05-11 18:54:37,21,0,22.833,5142.0175188753,144.685044,0.4921268,1.49578744944,0,0,-0.671082,270.5, -2.6, -1.4,0,0,1024,1024,1024,1024,270.7,-90,96,3.788,3.813,3.817,3.814,3.807,3.813,19.334,69.8,14,Waypoint,
38.164435,-120.113893,5143.0017708753,145.669296,0,1.19523297788,20300,2018-05-11 18:54:37,21,0,22.833,5143.0017708753,145.669296,0.4921268,1.49578744944,0,0,-0.671082,270.4, -2.9, -1.2,0,0,1024,1024,1024,1024,270.7,-90,96,3.788,3.813,3.817,3.814,3.807,3.813,19.334,69.8,14,Waypoint,
38.1644351,-120.113893,5143.9860228753,146.653548,0,1.17331368584,20400,2018-05-11 18:54:37,21,0,22.833,5143.9860228753,146.653548,0.4921268,1.49578744944,0,0,-0.671082,270.2, -3.2, -1.3,0,0,1024,1024,1024,1024,270.7,-90,96,3.788,3.813,3.817,3.814,3.807,3.813,19.334,69.8,14,Waypoint,
38.1644351,-120.1138929,5144.9702748753,147.6378,0,1.19657812228,20500,2018-05-11 18:54:37,21,0,22.833,5144.9702748753,147.6378,0.4921268,1.49578744944,0,0,-0.671082,270.2, -3.4, -1.4,0,0,1024,1024,1024,1024,270.7,-90,96,3.788,3.813,3.817,3.814,3.807,3.813,19.334,69.8,14,Waypoint,
38.1644352,-120.1138929,5145.9545268753,148.622052,0,1.17581696676,20600,2018-05-11 18:54:37,21,0,22.833,5145.9545268753,148.622052,0.4921268,1.49578744944,0,0,-0.671082,270.3, -3.4, -1.4,0,0,1024,1024,1024,1024,270.7,-90,96,3.788,3.813,3.817,3.814,3.807,3.813,19.334,69.8,14,Waypoint,
38.1644352,-120.1138928,5146.9387788753,149.606304,0,1.19971788616,20700,2018-05-11 18:54:37,21,0,22.833,5146.9387788753,149.606304,0.4921268,1.49578744944,0,0,-0.671082,270.5, -3.5, -1.3,0,0,1024,1024,1024,1024,270.7,-90,96,3.788,3.813,3.817,3.814,3.807,3.813,19.334,69.8,14,Waypoint,
38.1644352,-120.1138928,5147.9230308753,150.590556,0,1.19971788616,20800,2018-05-11 18:54:37,21,0,22.833,5147.9230308753,150.590556,0.4921268,1.49578744944,0,0,-0.671082,270.7, -3.5, -1.2,0,0,1024,1024,1024,1024,270.7,-90,96,3.788,3.813,3.817,3.814,3.807,3.813,19.334,69.8,14,Waypoint,
38.1644352,-120.1138928,5148.9072828753,151.574808,0,1.19971788616,20900,2018-05-11 18:54:37,21,0,22.833,5148.9072828753,151.574808,0.4921268,1.49578744944,0,0,-0.671082,270.8, -3.4, -0.8,0,0,1024,1024,1024,1024,270.7,-90,96,3.788,3.813,3.817,3.814,3.807,3.813,19.334,69.8,14,Waypoint,
38.1644352,-120.1138928,5149.8915348753,152.55906,0,1.19971788616,21000,2018-05-11 18:54:37,21,0,22.947,5149.8915348753,152.55906,0.4921268,1.49578744944,0,0,-0.671082,270.9, -3.6, -0.7,0,0,1024,1024,1024,1024,270.7,-90,96,3.802,3.848,3.83,3.825,3.825,3.841,17.976,69.8,14,Waypoint,
38.1644352,-120.1138927,5150.8757868753,153.543312,0,1.22382549848,21100,2018-05-11 18:54:38,21,0,22.947,5150.8757868753,153.543312,0.4921268,1.49578744944,0,0,-0.671082,271.1, -3.8, -0.1,0,0,1024,1024,1024,1024,270.7,-90,96,3.802,3.848,3.83,3.825,3.825,3.841,17.976,69.8,14,Waypoint,
38.1644352,-120.1138927,5151.8600388753,154.527564,0,1.22382549848,21200,2018-05-11 18:54:38,21,0,22.947,5151.8600388753,154.527564,0.4921268,1.49578744944,0,0,-0.671082,271.3, -3.7, -0.5,0,0,1024,1024,1024,1024,270.7,-90,96,3.802,3.848,3.83,3.825,3.825,3.841,17.976,69.8,14,Waypoint,
38.1644353,-120.1138927,5152.8442908753,155.511816,0,1.20463914616,21300,2018-05-11 18:54:38,21,0,22.947,5152.8442908753,155.511816,0.4921268,1.49578744944,0,0,-0.671082,271.4, -3.5, -1.4,0,0,1024,1024,1024,1024,270.7,-89.9,96,3.802,3.848,3.83,3.825,3.825,3.841,17.976,69.8,14,Waypoint,
38.1644355,-120.1138928,5154.8127948753,157.48032,0,1.14347772688,21510,2018-05-11 18:54:38,21,0,22.947,5154.8127948753,157.48032,0.4921268,1.49578744944,0,0,-0.671082,270.7, -2.8, -3.6,0,0,1024,1024,1024,1024,270.7,-89.9,96,3.802,3.848,3.83,3.825,3.825,3.841,17.976,69.8,14,Waypoint,
38.1644356,-120.1138928,5155.7970468753,158.464572,0,1.12646985232,21600,2018-05-11 18:54:38,21,0,22.947,5155.7970468753,158.464572,0.4921268,1.49578744944,0,0,-0.671082,270.8, -2.8, -3.7,0,0,1024,1024,1024,1024,270.7,-89.9,96,3.802,3.848,3.83,3.825,3.825,3.841,17.976,69.8,14,Waypoint,
38.1644357,-120.1138928,5157.7655508753,160.433076,0,1.11040357884,21800,2018-05-11 18:54:38,21,0,22.947,5157.7655508753,160.433076,0.4921268,1.49578744944,0,0,-0.671082,271.2, -3.5, -2.5,0,0,1024,1024,1024,1024,270.7,-89.9,96,3.802,3.848,3.83,3.825,3.825,3.841,17.976,69.8,14,Waypoint,
38.1644359,-120.1138929,5160.0621388753,162.729664,0.223694,1.05466538808,22100,2018-05-11 18:54:39,21,0,22.947,5160.0621388753,162.729664,0.4921268,1.49578744944,0,0,-0.671082,271.2, -2.7, -3.4,0,0,1024,1024,1024,1024,270.7,-89.9,96,3.802,3.848,3.83,3.825,3.825,3.841,17.976,69.8,14,Waypoint,
38.1644361,-120.113893,5161.0463908753,163.713916,0.223694,1.001968536,22200,2018-05-11 18:54:39,21,0,22.947,5161.0463908753,163.713916,0.4921268,1.49578744944,0,0,-0.671082,271, -2.2, -4,0,0,1024,1024,1024,1024,270.7,-89.9,96,3.802,3.848,3.83,3.825,3.825,3.841,17.976,69.8,14,Waypoint,
38.1644362,-120.113893,5162.0306428753,164.698168,0.223694,0.99061354876,22300,2018-05-11 18:54:39,21,0,22.947,5162.0306428753,164.698168,0.4921268,1.49578744944,0,0,-0.671082,271, -2, -4.7,0,0,1024,1024,1024,1024,270.7,-89.9,96,3.802,3.848,3.83,3.825,3.825,3.841,17.976,69.8,14,Waypoint,
38.1644365,-120.1138932,5164.3272308753,166.994756,0.223694,0.90778218128,22400,2018-05-11 18:54:39,21,0,22.947,5164.3272308753,166.994756,0.4921268,1.49578744944,0,0,-0.671082,271.1, -1.8, -5.9,0,0,1024,1024,1024,1024,270.7,-89.9,96,3.802,3.848,3.83,3.825,3.825,3.841,17.976,69.8,14,Waypoint,
38.1644367,-120.1138933,5165.3114828753,167.979008,0.223694,0.86750987028,22500,2018-05-11 18:54:39,21,0,22.947,5165.3114828753,167.979008,0.4921268,1.49578744944,0,0,-0.671082,271.3, -1.7, -5.5,0,0,1024,1024,1024,1024,270.7,-89.9,96,3.802,3.848,3.83,3.825,3.825,3.841,17.976,69.8,14,Waypoint,
38.1644369,-120.1138935,5167.2799868753,169.947512,0,0.8040354588,22700,2018-05-11 18:54:39,21,0,22.947,5167.2799868753,169.947512,0.4921268,1.49578744944,0,0,-0.671082,271.7, -1.6, -5.5,0,0,1024,1024,1024,1024,270.7,-89.9,96,3.802,3.848,3.83,3.825,3.825,3.841,17.976,69.8,14,Waypoint,
38.164437,-120.1138936,5168.2642388753,170.931764,0,0.77452102216,22800,2018-05-11 18:54:39,21,0,22.947,5168.2642388753,170.931764,0.4921268,1.49578744944,0,0,-0.671082,271.8, -1.5, -4.9,0,0,1024,1024,1024,1024,270.7,-89.9,96,3.802,3.848,3.83,3.825,3.825,3.841,17.976,69.8,14,Waypoint,
38.1644371,-120.1138937,5168.9204068753,171.587932,0,0.74672574568,22900,2018-05-11 18:54:39,21,0,22.947,5168.9204068753,171.587932,0.4921268,1.49578744944,0,0,-0.671082,271.9, -1.3, -4.8,0,0,1024,1024,1024,1024,270.7,-89.9,96,3.802,3.848,3.83,3.825,3.825,3.841,17.976,69.8,14,Waypoint,
38.1644372,-120.1138939,5171.2169948753,173.88452,0,0.69231957596,23100,2018-05-11 18:54:40,21,0,22.947,5171.2169948753,173.88452,0.4921268,1.49578744944,0,0,-0.671082,271.6, -0.4, -5.2,0,0,1024,1024,1024,1024,270.7,-89.9,96,3.802,3.848,3.83,3.825,3.825,3.841,17.976,69.8,14,Waypoint,
38.1644373,-120.113894,5172.2012468753,174.868772,0,0.66879267232,23200,2018-05-11 18:54:40,21,0,22.947,5172.2012468753,174.868772,0.4921268,1.49578744944,0,0,-0.671082,271.5, -0.5, -5.2,0,0,1024,1024,1024,1024,270.7,-89.9,96,3.802,3.848,3.83,3.825,3.825,3.841,17.976,69.8,14,Waypoint,
38.1644374,-120.113894,5173.1854988753,175.853024,0,0.67572508724,23300,2018-05-11 18:54:40,21,0,22.947,5173.1854988753,175.853024,0.4921268,1.49578744944,0,0,-0.671082,271.2, -0.8, -5.3,0,0,1024,1024,1024,1024,270.7,-89.9,96,3.802,3.848,3.83,3.825,3.825,3.841,17.976,69.8,14,Waypoint,
38.1644376,-120.113894,5174.1697508753,176.837276,0.223694,0.6951443792,23400,2018-05-11 18:54:40,21,0,22.947,5174.1697508753,176.837276,0.4921268,1.49578744944,0,0,-0.671082,270.9, -1.2, -5.7,0,0,1024,1024,1024,1024,270.7,-89.9,96,3.802,3.848,3.83,3.825,3.825,3.841,17.976,69.8,14,Waypoint,
38.1644377,-120.113894,5175.4820868753,178.149612,0.223694,0.70748361844,23500,2018-05-11 18:54:40,21,0,22.947,5175.4820868753,178.149612,0.4921268,1.49578744944,0,0,-0.671082,270.5, -1.6, -6.2,0,0,1024,1024,1024,1024,270.7,-90,96,3.802,3.848,3.83,3.825,3.825,3.841,17.976,69.8,14,Waypoint,
38.1644379,-120.1138939,5176.4663388753,179.133864,0.223694,0.76275921076,23600,2018-05-11 18:54:40,21,0,22.947,5176.4663388753,179.133864,0.4921268,1.49578744944,0,0,-0.671082,270.4, -2.2, -7.6,0,0,1024,1024,1024,1024,270.7,-90,96,3.802,3.848,3.83,3.825,3.825,3.841,17.976,69.8,14,Waypoint,
38.164438,-120.1138939,5177.4505908753,180.118116,0,0.77916341076,23700,2018-05-11 18:54:40,21,0,22.947,5177.4505908753,180.118116,0.4921268,1.49578744944,0,0,-0.671082,270.4, -2.6, -8,0,0,1024,1024,1024,1024,270.7,-90,96,3.802,3.848,3.83,3.825,3.825,3.841,17.976,69.8,14,Waypoint,
38.1644383,-120.1138937,5179.0910108753,181.758536,0,0.8838747002,23910,2018-05-11 18:54:40,21,0,22.947,5179.0910108753,181.758536,0.4921268,1.49578744944,0,0,-0.671082,270.7, -2.6, -7.1,0,0,1024,1024,1024,1024,270.7,-89.9,96,3.802,3.848,3.83,3.825,3.825,3.841,17.976,69.8,14,Waypoint,
38.1644383,-120.1138937,5180.0752628753,182.742788,0,0.8838747002,24010,2018-05-11 18:54:40,21,0,22.854,5180.0752628753,182.742788,0.4921268,1.49578744944,0,0,-0.671082,270.9, -2.6, -6.3,0,0,1024,1024,1024,1024,270.7,-89.9,96,3.784,3.831,3.834,3.814,3.804,3.828,18.629,69.8,14,Waypoint,
38.1644383,-120.1138937,5181.0595148753,183.72704,0,0.8838747002,24200,2018-05-11 18:54:41,21,0,22.854,5181.0595148753,183.72704,0.4921268,1.49578744944,0,0,-0.671082,271.1, -2.5, -6,0,0,1024,1024,1024,1024,270.7,-90,96,3.784,3.831,3.834,3.814,3.804,3.828,18.629,69.8,14,Waypoint,
38.1644384,-120.1138937,5182.0437668753,184.711292,0,0.90397640688,24300,2018-05-11 18:54:41,21,0,22.854,5182.0437668753,184.711292,0.4921268,1.49578744944,0,0,-0.671082,271.2, -2.3, -6.2,0,0,1024,1024,1024,1024,270.7,-89.9,96,3.784,3.831,3.834,3.814,3.804,3.828,18.629,69.8,14,Waypoint,
38.1644384,-120.1138936,5183.0280188753,185.695544,0,0.92778546276,24400,2018-05-11 18:54:41,21,0,22.854,5183.0280188753,185.695544,0.4921268,1.49578744944,0,0,-0.671082,271.2, -2.2, -6.6,0,0,1024,1024,1024,1024,270.7,-90,96,3.784,3.831,3.834,3.814,3.804,3.828,18.629,69.8,14,Waypoint,
38.1644385,-120.1138936,5184.9965228753,187.664048,0,0.94836289124,24500,2018-05-11 18:54:41,21,0,22.854,5184.9965228753,187.664048,0.4921268,1.49578744944,0,0,-0.671082,271.1, -2.8, -7.1,0,0,1024,1024,1024,1024,270.7,-90,96,3.784,3.831,3.834,3.814,3.804,3.828,18.629,69.8,14,Waypoint,
38.1644386,-120.1138935,5185.6526908753,188.320216,0,0.99293310264,24600,2018-05-11 18:54:41,21,0,22.854,5185.6526908753,188.320216,0.4921268,1.49578744944,0,0,-0.671082,271.1, -2.9, -7,0,0,1024,1024,1024,1024,270.7,-90,96,3.784,3.831,3.834,3.814,3.804,3.828,18.629,69.8,14,Waypoint,
38.1644387,-120.1138935,5186.6369428753,189.304468,0,1.0148130246,24700,2018-05-11 18:54:41,21,0,22.854,5186.6369428753,189.304468,0.4921268,1.49578744944,0,0,-0.671082,271.2, -2.6, -6.6,0,0,1024,1024,1024,1024,270.7,-89.9,96,3.784,3.831,3.834,3.814,3.804,3.828,18.629,69.8,14,Waypoint,
38.1644387,-120.1138936,5187.2931108753,189.960636,0,0.99226381128,24800,2018-05-11 18:54:41,21,0,22.854,5187.2931108753,189.960636,0.4921268,1.49578744944,0,0,-0.671082,271.2, -2, -6.3,0,0,1024,1024,1024,1024,270.7,-89.9,96,3.784,3.831,3.834,3.814,3.804,3.828,18.629,69.8,14,Waypoint,
38.1644388,-120.1138936,5188.2773628753,190.944888,0,1.0154691926,24900,2018-05-11 18:54:41,21,0,22.854,5188.2773628753,190.944888,0.4921268,1.49578744944,0,0,-0.671082,271.2, -1.4, -6.5,0,0,1024,1024,1024,1024,270.7,-89.9,96,3.784,3.831,3.834,3.814,3.804,3.828,18.629,69.8,14,Waypoint,
38.1644388,-120.1138936,5189.2616148753,191.92914,0,1.0154691926,25000,2018-05-11 18:54:41,21,0,22.781,5189.2616148753,191.92914,0.4921268,1.49578744944,0,0,-0.671082,271.3, -1.3, -6.9,0,0,1024,1024,1024,1024,270.7,-89.9,96,3.768,3.815,3.818,3.797,3.788,3.809,19.667,69.8,14,Waypoint,
38.1644389,-120.1138936,5189.9177828753,192.585308,0,1.0394357288,25100,2018-05-11 18:54:42,21,0,22.781,5189.9177828753,192.585308,0.4921268,1.49578744944,0,0,-0.671082,271.3, -1.6, -7.3,0,0,1024,1024,1024,1024,270.7,-89.9,96,3.768,3.815,3.818,3.797,3.788,3.809,19.667,69.8,14,Waypoint,
38.1644389,-120.1138936,5190.9020348753,193.56956,0,1.0394357288,25200,2018-05-11 18:54:42,21,0,22.781,5190.9020348753,193.56956,0.4921268,1.49578744944,0,0,-0.671082,271.2, -1.9, -7.5,0,0,1024,1024,1024,1024,270.7,-90,96,3.768,3.815,3.818,3.797,3.788,3.809,19.667,69.8,14,Waypoint,
38.1644389,-120.1138936,5191.5582028753,194.225728,0,1.0394357288,25300,2018-05-11 18:54:42,21,0,22.781,5191.5582028753,194.225728,0.4921268,1.49578744944,0,0,-0.671082,271.2, -2.3, -7.5,0,0,1024,1024,1024,1024,270.7,-89.9,96,3.768,3.815,3.818,3.797,3.788,3.809,19.667,69.8,14,Waypoint,
38.1644389,-120.1138935,5192.5424548753,195.20998,0.223694,1.06098428592,25400,2018-05-11 18:54:42,21,0,22.781,5192.5424548753,195.20998,0.4921268,1.49578744944,0,0,-0.671082,271.3, -2.6, -6.3,0,0,1024,1024,1024,1024,270.7,-89.9,96,3.768,3.815,3.818,3.797,3.788,3.809,19.667,69.8,14,Waypoint,
38.1644388,-120.1138935,5193.1986228753,195.866148,0.223694,1.03751315656,25500,2018-05-11 18:54:42,21,0,22.781,5193.1986228753,195.866148,0.4921268,1.49578744944,0,0,-0.671082,271.4, -2.7, -5.8,0,0,1024,1024,1024,1024,270.7,-89.9,96,3.768,3.815,3.818,3.797,3.788,3.809,19.667,69.8,14,Waypoint,
38.1644387,-120.1138935,5194.1828748753,196.8504,0.223694,1.0148130246,25600,2018-05-11 18:54:42,21,0,22.781,5194.1828748753,196.8504,0.4921268,1.49578744944,0,0,-0.671082,271.5, -2.8, -5.8,0,0,1024,1024,1024,1024,270.7,-89.9,96,3.768,3.815,3.818,3.797,3.788,3.809,19.667,69.8,14,Waypoint,
38.1644386,-120.1138935,5195.1671268753,197.834652,0.223694,0.99293310264,25700,2018-05-11 18:54:42,21,0,22.781,5195.1671268753,197.834652,0.4921268,1.49578744944,0,0,-0.671082,271.5, -2.2, -5.7,0,0,1024,1024,1024,1024,270.7,-89.9,96,3.768,3.815,3.818,3.797,3.788,3.809,19.667,69.8,14,Waypoint,
38.1644385,-120.1138935,5196.1513788753,198.818904,0.223694,0.97192916496,25820,2018-05-11 18:54:42,21,0,22.781,5196.1513788753,198.818904,0.4921268,1.49578744944,0,0,-0.671082,271.5, -2, -5.9,0,0,1024,1024,1024,1024,270.7,-89.9,96,3.768,3.815,3.818,3.797,3.788,3.809,19.667,69.8,14,Waypoint,
38.1644385,-120.1138935,5196.1513788753,198.818904,0.223694,0.97192916496,25900,2018-05-11 18:54:42,21,0,22.781,5196.1513788753,198.818904,0.4921268,1.49578744944,0,0,-0.671082,271.5, -2, -5.9,0,0,1024,1024,1024,1024,270.7,-89.9,96,3.768,3.815,3.818,3.797,3.788,3.809,19.667,69.8,14,Waypoint,
38.1644384,-120.1138936,5198.1198828753,200.787408,0.223694,0.92778546276,26000,2018-05-11 18:54:42,21,0,23.026,5198.1198828753,200.787408,0.4921268,1.49578744944,0,0,-0.671082,271.4, -1.9, -5.7,0,0,1024,1024,1024,1024,270.7,-89.9,96,3.789,3.837,3.856,3.814,3.81,3.832,17.526,69.8,14,Waypoint,
38.1644383,-120.1138937,5199.7603028753,202.427828,0.223694,0.8838747002,26200,2018-05-11 18:54:43,21,0,23.026,5199.7603028753,202.427828,0.4921268,1.49578744944,0,0,-0.671082,270.9, -1.8, -5,0,0,1024,1024,1024,1024,270.7,-89.9,96,3.789,3.837,3.856,3.814,3.81,3.832,17.526,69.8,14,Waypoint,
38.1644382,-120.1138937,5200.7445548753,203.41208,0.223694,0.86484254736,26300,2018-05-11 18:54:43,21,0,23.026,5200.7445548753,203.41208,0.4921268,1.49578744944,0,0,-0.671082,270.8, -1.7, -5,0,0,1024,1024,1024,1024,270.7,-89.9,96,3.789,3.837,3.856,3.814,3.81,3.832,17.526,69.8,14,Waypoint,
38.1644381,-120.1138938,5201.7288068753,204.396332,0.223694,0.82181104992,26500,2018-05-11 18:54:43,21,0,23.026,5201.7288068753,204.396332,0.4921268,1.49578744944,0,0,-0.671082,270.7, -2, -5.2,0,0,1024,1024,1024,1024,270.7,-89.9,96,3.789,3.837,3.856,3.814,3.81,3.832,17.526,69.8,14,Waypoint,
