latitude,longitude,altitude(feet),ascent(feet),speed(mph),distance(feet),time(millisecond),datetime(utc),satellites,gpslevel,voltage(v),max_altitude(feet),max_ascent(feet),max_speed(mph),max_distance(feet), xSpeed(mph), ySpeed(mph), zSpeed(mph), compass_heading(degrees), pitch(degrees), roll(degrees),isPhoto,isVideo,rc_elevator,rc_aileron,rc_throttle,rc_rudder,gimbal_heading(degrees),gimbal_pitch(degrees),battery_percent,voltageCell1,voltageCell2,voltageCell3,voltageCell4,voltageCell5,voltageCell6,current(A),battery_temperature(f),flycStateRaw,flycState,message
38.1644254,-120.1139091,4997.1818895686,0,0,0,3200,2018-05-11 17:29:40,14,0,0,4997.1818895686,0,0,0,0,0,0,273.7, 1.8, -0.2,1,0,1024,1024,1024,1024,274.8,-89.9,98,3.941,3.905,3.911,3.923,3.95,3.941,0,60.8,11,AutoTakeoff,
38.1644253,-120.1139091,4997.1818895686,0,0,0.036484909304,3300,2018-05-11 17:29:40,14,0,0,4997.1818895686,0,0,0.036484909304,0,0,0,273.8, 1.4, 0,0,0,1024,1024,1024,1024,274.8,-89.9,98,3.941,3.905,3.911,3.923,3.95,3.941,0,60.8,11,AutoTakeoff,
38.1644253,-120.113909,4997.1818895686,0,0,0.046411418808,3400,2018-05-11 17:29:41,14,0,0,4997.1818895686,0,0,0.046411418808,0,0,0,273.9, 0.9, 0,0,0,1024,1024,1024,1024,274.8,-90,98,3.941,3.905,3.911,3.923,3.95,3.941,0,60.8,11,AutoTakeoff,
38.1644252,-120.113909,4997.1818895686,0,0.223694,0.078405842404,3500,2018-05-11 17:29:41,14,0,0,4997.1818895686,0,0.223694,0.078405842404,0,0,0,273.9, 0.5, 0,0,0,1024,1024,1024,1024,274.8,-89.9,98,3.941,3.905,3.911,3.923,3.95,3.941,0,60.8,11,AutoTakeoff,
38.1644251,-120.1139089,4997.1818895686,0,0.223694,0.12357940028,3600,2018-05-11 17:29:41,14,0,0,4997.1818895686,0,0.223694,0.12357940028,0,0,0,273.9, 0.1, 0.2,0,0,1024,1024,1024,1024,274.7,-90,98,3.941,3.905,3.911,3.923,3.95,3.941,0,60.8,11,AutoTakeoff,
38.164425,-120.1139089,4997.5099735686,0.328084,0.223694,0.156811684808,3700,2018-05-11 17:29:41,14,0,0,4997.5099735686,0.328084,0.223694,0.156811684808,0,0,0,273.8, -0.2, 0.6,0,0,1024,1024,1024,1024,274.7,-90,98,3.941,3.905,3.911,3.923,3.95,3.941,0,60.8,11,AutoTakeoff,
38.1644249,-120.1139088,4997.5099735686,0.328084,0.223694,0.20170440278,3800,2018-05-11 17:29:41,13,0,0,4997.5099735686,0.328084,0.223694,0.20170440278,0,0,0,273.8, -0.3, 0.9,0,0,1024,1024,1024,1024,274.7,-89.9,98,3.941,3.905,3.911,3.923,3.95,3.941,0,60.8,11,AutoTakeoff,
38.1644248,-120.1139088,4997.8380575686,0.656168,0.223694,0.235217855296,3900,2018-05-11 17:29:41,13,0,0,4997.8380575686,0.656168,0.223694,0.235217855296,0,0,0,273.8, -0.5, 1.2,0,0,1024,1024,1024,1024,274.7,-89.9,98,3.941,3.905,3.911,3.923,3.95,3.941,0,60.8,11,AutoTakeoff,
38.1644245,-120.1139088,4998.1661415686,0.984252,0.223694,0.33945539144,4100,2018-05-11 17:29:41,13,0,0,4998.1661415686,0.984252,0.223694,0.33945539144,0,0,0,273.7, -0.2, 1.8,0,0,1024,1024,1024,1024,274.7,-89.9,98,3.941,3.905,3.911,3.923,3.95,3.941,0,60.8,11,AutoTakeoff,
38.1644244,-120.1139088,4998.4942255686,1.312336,0,0.37486221672,4200,2018-05-11 17:29:41,14,0,0,4998.4942255686,1.312336,0.223694,0.37486221672,0,0,0,273.6, 0, 1.6,0,0,1024,1024,1024,1024,274.7,-89.9,98,3.941,3.905,3.911,3.923,3.95,3.941,0,60.8,11,AutoTakeoff,
38.1644243,-120.1139088,4998.4942255686,1.312336,0,0.41045604988,4300,2018-05-11 17:29:41,15,0,0,4998.4942255686,1.312336,0.223694,0.41045604988,0,0,0,273.5, 0, 1.6,0,0,1024,1024,1024,1024,274.7,-89.9,98,3.941,3.905,3.911,3.923,3.95,3.941,0,60.8,11,AutoTakeoff,
38.1644243,-120.1139087,4998.8223095686,1.64042,0,0.41741471152,4400,2018-05-11 17:29:42,15,0,0,4998.8223095686,1.64042,0.223694,0.41741471152,0,0,-0.223694,273.4, 0, 1.8,0,0,1024,1024,1024,1024,274.6,-89.9,98,3.941,3.905,3.911,3.923,3.95,3.941,0,60.8,11,AutoTakeoff,
38.1644242,-120.1139087,4998.8223095686,1.64042,0,0.45260500136,4600,2018-05-11 17:29:42,15,0,0,4998.8223095686,1.64042,0.223694,0.45260500136,0,0,0,273.3, 0, 1.6,0,0,1024,1024,1024,1024,274.6,-90,98,3.941,3.905,3.911,3.923,3.95,3.941,0,60.8,11,AutoTakeoff,
38.1644243,-120.1139087,4999.1503935686,1.968504,0,0.41741471152,4900,2018-05-11 17:29:42,15,0,0,4999.1503935686,1.968504,0.223694,0.45260500136,0,0,0,273.2, -0.1, 1.3,0,0,1024,1024,1024,1024,274.6,-89.9,98,3.941,3.905,3.911,3.923,3.95,3.941,0,60.8,11,AutoTakeoff,
38.1644243,-120.1139086,4999.1503935686,1.968504,0,0.42619423936,5100,2018-05-11 17:29:42,14,0,0,4999.1503935686,1.968504,0.223694,0.45260500136,0,0,0,273.2, -0.1, 1.1,0,0,1024,1024,1024,1024,274.6,-90,98,3.941,3.905,3.911,3.923,3.95,3.941,0,60.8,11,AutoTakeoff,
38.1644243,-120.1139086,4999.4784775686,2.296588,0,0.42619423936,5200,2018-05-11 17:29:42,14,0,0,4999.4784775686,2.296588,0.223694,0.45260500136,0,0,-0.223694,273.2, -0.2, 1,0,0,1024,1024,1024,1024,274.6,-89.9,98,3.941,3.905,3.911,3.923,3.95,3.941,0,60.8,11,AutoTakeoff,
38.1644243,-120.1139086,4999.4784775686,2.296588,0,0.42619423936,5410,2018-05-11 17:29:43,15,0,0,4999.4784775686,2.296588,0.223694,0.45260500136,0,0,0,273.2, -0.2, 0.9,0,0,1024,1024,1024,1024,274.6,-89.9,98,3.941,3.905,3.911,3.923,3.95,3.941,0,60.8,11,AutoTakeoff,
38.1644243,-120.1139086,4999.8065615686,2.624672,0,0.42619423936,5500,2018-05-11 17:29:43,15,0,0,4999.8065615686,2.624672,0.223694,0.45260500136,0,0,0,273.4, -0.2, 1,0,0,1024,1024,1024,1024,274.6,-89.9,98,3.941,3.905,3.911,3.923,3.95,3.941,0,60.8,11,AutoTakeoff,
38.1644243,-120.1139086,4999.8065615686,2.624672,0,0.42619423936,5600,2018-05-11 17:29:43,15,0,0,4999.8065615686,2.624672,0.223694,0.45260500136,0,0,0,273.5, -0.1, 1.1,0,0,1024,1024,1024,1024,274.6,-89.9,98,3.941,3.905,3.911,3.923,3.95,3.941,0,60.8,11,AutoTakeoff,
38.1644243,-120.1139086,5000.1346455686,2.952756,0,0.42619423936,5700,2018-05-11 17:29:43,15,0,0,5000.1346455686,2.952756,0.223694,0.45260500136,0,0,-0.223694,273.7, -0.1, 1.1,0,0,1024,1024,1024,1024,274.6,-89.9,98,3.941,3.905,3.911,3.923,3.95,3.941,0,60.8,6,P-GPS,
38.1644246,-120.1139088,5000.4627295686,3.28084,0,0.304301847008,6000,2018-05-11 17:29:43,12,0,23.643,5000.4627295686,3.28084,0.223694,0.45260500136,0,0,0,273.9, 0.5, 0.1,0,0,1024,1024,1024,1024,274.6,-89.9,98,3.941,3.905,3.911,3.923,3.95,3.941,16.533,60.8,14,Waypoint,
38.1644246,-120.1139088,5000.7908135686,3.608924,0,0.304301847008,6100,2018-05-11 17:29:43,12,0,23.643,5000.7908135686,3.608924,0.223694,0.45260500136,0,0,0,273.8, 0.7, -0.2,0,0,1024,1024,1024,1024,274.6,-89.9,98,3.941,3.905,3.911,3.923,3.95,3.941,16.533,60.8,14,Waypoint,
38.1644246,-120.1139088,5000.7908135686,3.608924,0,0.304301847008,6200,2018-05-11 17:29:43,13,0,23.643,5000.7908135686,3.608924,0.223694,0.45260500136,0,0,0,273.7, 0.6, -0.1,0,0,1024,1024,1024,1024,274.6,-89.9,98,3.941,3.905,3.911,3.923,3.95,3.941,16.533,60.8,14,Waypoint,
38.1644245,-120.1139087,5002.1031495686,4.92126,0,0.3478346568,6300,2018-05-11 17:29:43,13,0,23.643,5002.1031495686,4.92126,0.223694,0.45260500136,0,0,-0.223694,273.6, -0.1, 0.7,0,0,1024,1024,1024,1024,274.6,-89.9,98,3.941,3.905,3.911,3.923,3.95,3.941,16.533,60.8,14,Waypoint,
38.1644245,-120.1139087,5002.4312335686,5.249344,0,0.3478346568,6500,2018-05-11 17:29:44,13,0,23.643,5002.4312335686,5.249344,0.223694,0.45260500136,0,0,-0.223694,273.7, -0.2, 0.9,0,0,1024,1024,1024,1024,274.6,-90,98,3.941,3.905,3.911,3.923,3.95,3.941,16.533,60.8,14,Waypoint,
38.1644245,-120.1139086,5003.0874015686,5.905512,0,0.35832350228,6600,2018-05-11 17:29:44,13,0,23.643,5003.0874015686,5.905512,0.223694,0.45260500136,0,0,-0.447388,273.7, -0.1, 1,0,0,1024,1024,1024,1024,274.6,-89.9,98,3.941,3.905,3.911,3.923,3.95,3.941,16.533,60.8,14,Waypoint,
38.1644245,-120.1139087,5003.4154855686,6.233596,0,0.3478346568,6700,2018-05-11 17:29:44,14,0,23.643,5003.4154855686,6.233596,0.223694,0.45260500136,0,0,-0.447388,273.8, -0.1, 0.7,0,0,1024,1024,1024,1024,274.6,-89.9,98,3.941,3.905,3.911,3.923,3.95,3.941,16.533,60.8,14,Waypoint,
38.1644245,-120.1139087,5005.0559055686,7.874016,0,0.3478346568,6800,2018-05-11 17:29:44,14,0,23.643,5005.0559055686,7.874016,0.223694,0.45260500136,0,0,-0.447388,273.9, 0, 0.5,0,0,1024,1024,1024,1024,274.6,-89.9,98,3.941,3.905,3.911,3.923,3.95,3.941,16.533,60.8,14,Waypoint,
38.1644245,-120.1139088,5005.7120735686,8.530184,0,0.33945539144,6900,2018-05-11 17:29:44,14,0,23.643,5005.7120735686,8.530184,0.223694,0.45260500136,0,0,-0.671082,274, 0.2, 0.5,0,0,1024,1024,1024,1024,274.6,-89.9,98,3.941,3.905,3.911,3.923,3.95,3.941,16.533,60.8,14,Waypoint,
38.1644245,-120.1139089,5007.6805775686,10.498688,0,0.33333990568,7100,2018-05-11 17:29:44,14,0,23.643,5007.6805775686,10.498688,0.223694,0.45260500136,0,0,-0.671082,274.3, 0.4, 1,0,0,1024,1024,1024,1024,274.6,-89.9,98,3.941,3.905,3.911,3.923,3.95,3.941,16.533,60.8,14,Waypoint,
38.1644245,-120.1139089,5008.6648295686,11.48294,0,0.33333990568,7200,2018-05-11 17:29:44,15,0,23.643,5008.6648295686,11.48294,0.223694,0.45260500136,0,0,-0.671082,274.4, 0.5, 1.1,0,0,1024,1024,1024,1024,274.6,-89.9,98,3.941,3.905,3.911,3.923,3.95,3.941,16.533,60.8,14,Waypoint,
38.1644246,-120.1139089,5010.9614175686,13.779528,0,0.297464576448,7300,2018-05-11 17:29:44,15,0,23.643,5010.9614175686,13.779528,0.223694,0.45260500136,0,0,-0.671082,274.4, 0.3, 0.9,0,0,1024,1024,1024,1024,274.6,-90,98,3.941,3.905,3.911,3.923,3.95,3.941,16.533,60.8,14,Waypoint,
38.1644247,-120.1139089,5011.9456695686,14.76378,0,0.261759194728,7400,2018-05-11 17:29:45,15,0,23.643,5011.9456695686,14.76378,0.223694,0.45260500136,0,0,-0.671082,274.3, 0, 0.5,0,0,1024,1024,1024,1024,274.6,-89.9,98,3.941,3.905,3.911,3.923,3.95,3.941,16.533,60.8,14,Waypoint,
38.1644248,-120.1139088,5012.9299215686,15.748032,0,0.235217855296,7500,2018-05-11 17:29:45,15,0,23.643,5012.9299215686,15.748032,0.223694,0.45260500136,0,0,-0.671082,274.2, 0, 0,0,0,1024,1024,1024,1024,274.6,-90,98,3.941,3.905,3.911,3.923,3.95,3.941,16.533,60.8,14,Waypoint,
38.1644249,-120.1139088,5014.2422575686,17.060368,0,0.20170440278,7600,2018-05-11 17:29:45,15,0,23.643,5014.2422575686,17.060368,0.223694,0.45260500136,0,0,-0.671082,274.1, 0, -0.3,0,0,1024,1024,1024,1024,274.6,-89.9,98,3.941,3.905,3.911,3.923,3.95,3.941,16.533,60.8,14,Waypoint,
38.1644249,-120.1139088,5015.2265095686,18.04462,0,0.20170440278,7700,2018-05-11 17:29:45,15,0,23.643,5015.2265095686,18.04462,0.223694,0.45260500136,0,0,-0.671082,274, 0.2, -0.2,0,0,1024,1024,1024,1024,274.6,-89.9,98,3.941,3.905,3.911,3.923,3.95,3.941,16.533,60.8,14,Waypoint,
38.1644249,-120.1139086,5016.2107615686,19.028872,0,0.232057750208,7800,2018-05-11 17:29:45,15,0,23.643,5016.2107615686,19.028872,0.223694,0.45260500136,0,0,-0.671082,273.9, 0.2, 0,0,0,1024,1024,1024,1024,274.6,-89.9,98,3.941,3.905,3.911,3.923,3.95,3.941,16.533,60.8,14,Waypoint,
38.1644249,-120.1139086,5017.5230975686,20.341208,0,0.232057750208,7900,2018-05-11 17:29:45,15,0,23.643,5017.5230975686,20.341208,0.223694,0.45260500136,0,0,-0.671082,273.9, 0, 0,0,0,1024,1024,1024,1024,274.6,-90,98,3.941,3.905,3.911,3.923,3.95,3.941,16.533,60.8,14,Waypoint,
38.164425,-120.1139086,5018.5073495686,21.32546,0,0.20462270996,8000,2018-05-11 17:29:45,15,0,22.544,5018.5073495686,21.32546,0.223694,0.45260500136,0,0,-0.671082,273.9, -0.1, 0,0,0,1024,1024,1024,1024,274.6,-89.9,97,3.922,3.834,3.819,3.856,3.856,3.867,24.315,60.8,14,Waypoint,
38.164425,-120.1139086,5019.8196855686,22.637796,0,0.20462270996,8100,2018-05-11 17:29:45,15,0,22.544,5019.8196855686,22.637796,0.223694,0.45260500136,0,0,-0.671082,273.9, -0.1, 0,0,0,1024,1024,1024,1024,274.6,-90,97,3.922,3.834,3.819,3.856,3.856,3.867,24.315,60.8,14,Waypoint,
38.164425,-120.1139086,5020.8039375686,23.622048,0,0.20462270996,8200,2018-05-11 17:29:45,15,0,22.544,5020.8039375686,23.622048,0.223694,0.45260500136,0,0,-0.671082,273.9, -0.1, 0,0,0,1024,1024,1024,1024,274.6,-89.9,97,3.922,3.834,3.819,3.856,3.856,3.867,24.315,60.8,14,Waypoint,
38.164425,-120.1139087,5021.7881895686,24.6063,0,0.1856463314,8300,2018-05-11 17:29:45,14,0,22.544,5021.7881895686,24.6063,0.223694,0.45260500136,0,0,-0.671082,273.9, 0, 0,0,0,1024,1024,1024,1024,274.6,-89.9,97,3.922,3.834,3.819,3.856,3.856,3.867,24.315,60.8,14,Waypoint,
38.164425,-120.1139087,5022.7724415686,25.590552,0,0.1856463314,8400,2018-05-11 17:29:46,14,0,22.544,5022.7724415686,25.590552,0.223694,0.45260500136,0,0,-0.671082,273.9, 0, 0.1,0,0,1024,1024,1024,1024,274.6,-89.9,97,3.922,3.834,3.819,3.856,3.856,3.867,24.315,60.8,14,Waypoint,
38.1644251,-120.1139087,5024.0847775686,26.902888,0,0.158576448644,8500,2018-05-11 17:29:46,14,0,22.544,5024.0847775686,26.902888,0.223694,0.45260500136,0,0,-0.671082,273.9, 0.1, 0.2,0,0,1024,1024,1024,1024,274.6,-89.9,97,3.922,3.834,3.819,3.856,3.856,3.867,24.315,60.8,14,Waypoint,
38.1644251,-120.1139086,5025.0690295686,27.88714,0,0.180422906036,8600,2018-05-11 17:29:46,14,0,22.544,5025.0690295686,27.88714,0.223694,0.45260500136,0,0,-0.671082,273.8, -0.1, 0.1,0,0,1024,1024,1024,1024,274.6,-90,97,3.922,3.834,3.819,3.856,3.856,3.867,24.315,60.8,14,Waypoint,
38.1644251,-120.1139085,5026.0532815686,28.871392,0,0.203971135136,8700,2018-05-11 17:29:46,14,0,22.544,5026.0532815686,28.871392,0.223694,0.45260500136,0,0,-0.671082,273.8, -0.4, 0,0,0,1024,1024,1024,1024,274.6,-90,97,3.922,3.834,3.819,3.856,3.856,3.867,24.315,60.8,14,Waypoint,
38.1644251,-120.1139086,5027.3656175686,30.183728,0,0.180422906036,8800,2018-05-11 17:29:46,14,0,22.544,5027.3656175686,30.183728,0.223694,0.45260500136,0,0,-0.671082,273.7, -0.5, 0,0,0,1024,1024,1024,1024,274.6,-90,97,3.922,3.834,3.819,3.856,3.856,3.867,24.315,60.8,14,Waypoint,
38.1644251,-120.1139085,5028.3498695686,31.16798,0,0.203971135136,8900,2018-05-11 17:29:46,15,0,22.544,5028.3498695686,31.16798,0.223694,0.45260500136,0,0,-0.671082,273.7, -0.4, 0,0,0,1024,1024,1024,1024,274.6,-90,97,3.922,3.834,3.819,3.856,3.856,3.867,24.315,60.8,14,Waypoint,
38.164425,-120.1139085,5029.3341215686,32.152232,0,0.22565945604,9010,2018-05-11 17:29:46,15,0,22.544,5029.3341215686,32.152232,0.223694,0.45260500136,0,0,-0.671082,273.6, -0.3, 0,0,0,1024,1024,1024,1024,274.6,-89.9,97,3.743,3.709,3.721,3.746,3.763,3.743,24.315,60.8,14,Waypoint,
38.164425,-120.1139085,5030.3183735686,33.136484,0,0.22565945604,9110,2018-05-11 17:29:46,14,0,22.544,5030.3183735686,33.136484,0.223694,0.45260500136,0,0,-0.671082,273.6, -0.2, 0.1,0,0,1024,1024,1024,1024,274.6,-89.9,97,3.743,3.709,3.721,3.746,3.763,3.743,24.315,60.8,14,Waypoint,
38.1644249,-120.1139085,5031.3026255686,34.120736,0,0.2508038138,9200,2018-05-11 17:29:46,14,0,22.544,5031.3026255686,34.120736,0.223694,0.45260500136,0,0,-0.671082,273.6, -0.2, 0.2,0,0,1024,1024,1024,1024,274.6,-89.9,97,3.743,3.709,3.721,3.746,3.763,3.743,24.315,60.8,14,Waypoint,
38.1644249,-120.1139085,5032.2868775686,35.104988,0,0.2508038138,9300,2018-05-11 17:29:46,15,0,22.544,5032.2868775686,35.104988,0.223694,0.45260500136,0,0,-0.671082,273.7, -0.2, 0.6,0,0,1024,1024,1024,1024,274.6,-89.9,97,3.743,3.709,3.721,3.746,3.763,3.743,24.315,60.8,14,Waypoint,
38.1644248,-120.1139086,5034.5834655686,37.401576,0,0.2617126068,9400,2018-05-11 17:29:47,15,0,22.544,5034.5834655686,37.401576,0.223694,0.45260500136,0,0,-0.671082,273.9, -0.1, 1,0,0,1024,1024,1024,1024,274.6,-89.9,97,3.743,3.709,3.721,3.746,3.763,3.743,24.315,60.8,14,Waypoint,
38.1644248,-120.1139086,5035.5677175686,38.385828,0,0.2617126068,9600,2018-05-11 17:29:47,15,0,22.544,5035.5677175686,38.385828,0.223694,0.45260500136,0,0,-0.671082,274, -0.3, 0.7,0,0,1024,1024,1024,1024,274.6,-90,97,3.743,3.709,3.721,3.746,3.763,3.743,24.315,60.8,14,Waypoint,
38.1644248,-120.1139086,5036.5519695686,39.37008,0,0.2617126068,9700,2018-05-11 17:29:47,15,0,22.544,5036.5519695686,39.37008,0.223694,0.45260500136,0,0,-0.671082,274.1, -0.4, 0.2,0,0,1024,1024,1024,1024,274.6,-90,97,3.743,3.709,3.721,3.746,3.763,3.743,24.315,60.8,14,Waypoint,
38.1644248,-120.1139086,5037.5362215686,40.354332,0,0.2617126068,9800,2018-05-11 17:29:47,15,0,22.544,5037.5362215686,40.354332,0.223694,0.45260500136,0,0,-0.671082,274.1, -0.3, 0,0,0,1024,1024,1024,1024,274.6,-89.9,97,3.743,3.709,3.721,3.746,3.763,3.743,24.315,60.8,14,Waypoint,
38.1644248,-120.1139086,5039.5047255686,42.322836,0,0.2617126068,10000,2018-05-11 17:29:47,15,0,22.748,5039.5047255686,42.322836,0.223694,0.45260500136,0,0,-0.671082,274.1, -0.3, 0.1,0,0,1024,1024,1024,1024,274.6,-89.9,97,3.801,3.775,3.776,3.797,3.817,3.817,20.381,60.8,14,Waypoint,
38.1644248,-120.1139086,5040.4889775686,43.307088,0,0.2617126068,10100,2018-05-11 17:29:47,15,0,22.748,5040.4889775686,43.307088,0.223694,0.45260500136,0,0,-0.671082,274, -0.4, 0.2,0,0,1024,1024,1024,1024,274.6,-90,97,3.801,3.775,3.776,3.797,3.817,3.817,20.381,60.8,14,Waypoint,
38.1644247,-120.1139085,5041.4732295686,44.29134,0,0.307977700144,10200,2018-05-11 17:29:47,15,0,22.748,5041.4732295686,44.29134,0.223694,0.45260500136,0,0,-0.671082,273.8, -0.7, 0.3,0,0,1024,1024,1024,1024,274.6,-90,97,3.801,3.775,3.776,3.797,3.817,3.817,20.381,60.8,14,Waypoint,
38.1644247,-120.1139086,5042.4574815686,45.275592,0,0.292913723284,10300,2018-05-11 17:29:47,15,0,22.748,5042.4574815686,45.275592,0.223694,0.45260500136,0,0,-0.671082,273.7, -0.8, 0.5,0,0,1024,1024,1024,1024,274.6,-89.9,97,3.801,3.775,3.776,3.797,3.817,3.817,20.381,60.8,14,Waypoint,
38.1644247,-120.1139086,5043.4417335686,46.259844,0,0.292913723284,10400,2018-05-11 17:29:48,15,0,22.748,5043.4417335686,46.259844,0.223694,0.45260500136,0,0,-0.671082,273.6, -0.3, 0.5,0,0,1024,1024,1024,1024,274.6,-89.9,97,3.801,3.775,3.776,3.797,3.817,3.817,20.381,60.8,14,Waypoint,
38.1644247,-120.1139087,5044.4259855686,47.244096,0,0.279986557516,10500,2018-05-11 17:29:48,16,0,22.748,5044.4259855686,47.244096,0.223694,0.45260500136,0,0,-0.671082,273.7, 0.1, 0.4,0,0,1024,1024,1024,1024,274.6,-89.9,97,3.801,3.775,3.776,3.797,3.817,3.817,20.381,60.8,14,Waypoint,
38.1644247,-120.1139087,5045.4102375686,48.228348,0,0.279986557516,10600,2018-05-11 17:29:48,16,0,22.748,5045.4102375686,48.228348,0.223694,0.45260500136,0,0,-0.671082,273.7, 0.6, 0.3,0,0,1024,1024,1024,1024,274.6,-89.9,97,3.801,3.775,3.776,3.797,3.817,3.817,20.381,60.8,14,Waypoint,
38.1644247,-120.1139087,5046.3944895686,49.2126,0,0.279986557516,10700,2018-05-11 17:29:48,16,0,22.748,5046.3944895686,49.2126,0.223694,0.45260500136,0,0,-0.671082,273.8, 0.8, 0.3,0,0,1024,1024,1024,1024,274.6,-89.9,97,3.801,3.775,3.776,3.797,3.817,3.817,20.381,60.8,14,Waypoint,
38.1644246,-120.1139088,5047.3787415686,50.196852,0,0.304301847008,10800,2018-05-11 17:29:48,16,0,22.748,5047.3787415686,50.196852,0.223694,0.45260500136,0,0,-0.671082,273.8, 0.6, 0.2,0,0,1024,1024,1024,1024,274.6,-89.9,97,3.801,3.775,3.776,3.797,3.817,3.817,20.381,60.8,14,Waypoint,
38.1644246,-120.1139088,5048.3629935686,51.181104,0,0.304301847008,10900,2018-05-11 17:29:48,16,0,22.748,5048.3629935686,51.181104,0.223694,0.45260500136,0,0,-0.671082,273.7, 0.4, 0,0,0,1024,1024,1024,1024,274.6,-89.9,97,3.801,3.775,3.776,3.797,3.817,3.817,20.381,60.8,14,Waypoint,
38.1644246,-120.1139088,5049.0191615686,51.837272,0,0.304301847008,11010,2018-05-11 17:29:48,16,0,22.886,5049.0191615686,51.837272,0.223694,0.45260500136,0,0,-0.671082,273.7, 0.4, 0.2,0,0,1024,1024,1024,1024,274.6,-89.9,97,3.833,3.791,3.8,3.806,3.84,3.825,19.093,60.8,14,Waypoint,
38.1644246,-120.1139088,5050.0034135686,52.821524,0,0.304301847008,11100,2018-05-11 17:29:48,16,0,22.886,5050.0034135686,52.821524,0.223694,0.45260500136,0,0,-0.671082,273.7, 0.4, 0.5,0,0,1024,1024,1024,1024,274.6,-89.9,97,3.833,3.791,3.8,3.806,3.84,3.825,19.093,60.8,14,Waypoint,
38.1644246,-120.1139089,5050.9876655686,53.805776,0,0.297464576448,11200,2018-05-11 17:29:48,16,0,22.886,5050.9876655686,53.805776,0.223694,0.45260500136,0,0,-0.671082,273.9, 0.4, 0.5,0,0,1024,1024,1024,1024,274.6,-89.9,97,3.833,3.791,3.8,3.806,3.84,3.825,19.093,60.8,14,Waypoint,
38.1644246,-120.1139089,5051.9719175686,54.790028,0,0.297464576448,11300,2018-05-11 17:29:48,16,0,22.886,5051.9719175686,54.790028,0.223694,0.45260500136,0,0,-0.671082,274.1, 0.5, 0.5,0,0,1024,1024,1024,1024,274.6,-89.9,97,3.833,3.791,3.8,3.806,3.84,3.825,19.093,60.8,14,Waypoint,
38.1644246,-120.1139089,5053.9404215686,56.758532,0,0.297464576448,11500,2018-05-11 17:29:49,16,0,22.886,5053.9404215686,56.758532,0.223694,0.45260500136,0,0,-0.671082,274.1, 0.4, 0.4,0,0,1024,1024,1024,1024,274.6,-89.9,97,3.833,3.791,3.8,3.806,3.84,3.825,19.093,60.8,14,Waypoint,
38.1644246,-120.113909,5054.9246735686,57.742784,0,0.29328577054,11700,2018-05-11 17:29:49,16,0,22.886,5054.9246735686,57.742784,0.223694,0.45260500136,0,0,-0.671082,274.1, 0.4, 0.2,0,0,1024,1024,1024,1024,274.6,-89.9,97,3.833,3.791,3.8,3.806,3.84,3.825,19.093,60.8,14,Waypoint,
38.1644247,-120.113909,5056.8931775686,59.711288,0,0.257000664392,11800,2018-05-11 17:29:49,16,0,22.886,5056.8931775686,59.711288,0.223694,0.45260500136,0,0,-0.671082,273.9, 0.5, 0.3,0,0,1024,1024,1024,1024,274.6,-89.9,97,3.833,3.791,3.8,3.806,3.84,3.825,19.093,60.8,14,Waypoint,
38.1644246,-120.113909,5057.8774295686,60.69554,0,0.29328577054,11900,2018-05-11 17:29:49,17,0,22.886,5057.8774295686,60.69554,0.223694,0.45260500136,0,0,-0.671082,273.8, 0.6, 0.4,0,0,1024,1024,1024,1024,274.6,-89.9,97,3.833,3.791,3.8,3.806,3.84,3.825,19.093,60.8,14,Waypoint,
38.1644246,-120.113909,5058.8616815686,61.679792,0,0.29328577054,12000,2018-05-11 17:29:49,17,0,22.81,5058.8616815686,61.679792,0.223694,0.45260500136,0,0,-0.671082,273.8, 0.7, 0.5,0,0,1024,1024,1024,1024,274.6,-89.9,97,3.825,3.778,3.784,3.787,3.824,3.802,19.565,62.6,14,Waypoint,
38.1644245,-120.1139089,5060.8301855686,63.648296,0,0.33333990568,12200,2018-05-11 17:29:49,16,0,22.81,5060.8301855686,63.648296,0.223694,0.45260500136,0,0,-0.671082,274, 0.5, 0.5,0,0,1024,1024,1024,1024,274.6,-89.9,97,3.825,3.778,3.784,3.787,3.824,3.802,19.565,62.6,14,Waypoint,
38.1644245,-120.1139089,5061.8144375686,64.632548,0,0.33333990568,12300,2018-05-11 17:29:49,15,0,22.81,5061.8144375686,64.632548,0.223694,0.45260500136,0,0,-0.671082,274, 0.3, 0.5,0,0,1024,1024,1024,1024,274.6,-89.9,97,3.825,3.778,3.784,3.787,3.824,3.802,19.565,62.6,14,Waypoint,
38.1644245,-120.1139089,5062.7986895686,65.6168,0,0.33333990568,12400,2018-05-11 17:29:50,15,0,22.81,5062.7986895686,65.6168,0.223694,0.45260500136,0,0,-0.671082,274, 0.1, 0.5,0,0,1024,1024,1024,1024,274.6,-89.9,97,3.825,3.778,3.784,3.787,3.824,3.802,19.565,62.6,14,Waypoint,
38.1644244,-120.1139088,5063.7829415686,66.601052,0,0.37486221672,12500,2018-05-11 17:29:50,15,0,22.81,5063.7829415686,66.601052,0.223694,0.45260500136,0,0,-0.671082,274, 0, 0.5,0,0,1024,1024,1024,1024,274.6,-89.9,97,3.825,3.778,3.784,3.787,3.824,3.802,19.565,62.6,14,Waypoint,
38.1644244,-120.1139088,5064.7671935686,67.585304,0,0.37486221672,12600,2018-05-11 17:29:50,15,0,22.81,5064.7671935686,67.585304,0.223694,0.45260500136,0,0,-0.671082,274, 0, 0.7,0,0,1024,1024,1024,1024,274.6,-89.9,97,3.825,3.778,3.784,3.787,3.824,3.802,19.565,62.6,14,Waypoint,
38.1644244,-120.1139088,5065.7514455686,68.569556,0,0.37486221672,12700,2018-05-11 17:29:50,15,0,22.81,5065.7514455686,68.569556,0.223694,0.45260500136,0,0,-0.671082,274, -0.1, 0.9,0,0,1024,1024,1024,1024,274.6,-89.9,97,3.825,3.778,3.784,3.787,3.824,3.802,19.565,62.6,14,Waypoint,
38.1644243,-120.1139087,5066.7356975686,69.553808,0,0.41741471152,12800,2018-05-11 17:29:50,15,0,22.81,5066.7356975686,69.553808,0.223694,0.45260500136,0,0,-0.671082,273.9, -0.2, 1.2,0,0,1024,1024,1024,1024,274.6,-89.9,97,3.825,3.778,3.784,3.787,3.824,3.802,19.565,62.6,14,Waypoint,
38.1644242,-120.1139086,5068.7042015686,71.522312,0,0.46071523784,13000,2018-05-11 17:29:50,15,0,22.588,5068.7042015686,71.522312,0.223694,0.46071523784,0,0,-0.671082,273.7, -0.2, 1.1,0,0,1024,1024,1024,1024,274.6,-89.9,97,3.781,3.744,3.745,3.753,3.784,3.774,21.262,62.6,14,Waypoint,
38.1644242,-120.1139086,5069.6884535686,72.506564,0,0.46071523784,13100,2018-05-11 17:29:50,16,0,22.588,5069.6884535686,72.506564,0.223694,0.46071523784,0,0,-0.671082,273.7, 0, 0.6,0,0,1024,1024,1024,1024,274.6,-89.9,97,3.781,3.744,3.745,3.753,3.784,3.774,21.262,62.6,14,Waypoint,
38.1644242,-120.1139086,5071.6569575686,74.475068,0,0.46071523784,13300,2018-05-11 17:29:50,15,0,22.588,5071.6569575686,74.475068,0.223694,0.46071523784,0,0,-0.671082,273.7, 0, 0.4,0,0,1024,1024,1024,1024,274.6,-89.9,97,3.781,3.744,3.745,3.753,3.784,3.774,21.262,62.6,14,Waypoint,
38.1644242,-120.1139085,5072.6412095686,75.45932,0,0.47043636676,13400,2018-05-11 17:29:51,15,0,22.588,5072.6412095686,75.45932,0.223694,0.47043636676,0,0,-0.671082,273.8, 0, 0.4,0,0,1024,1024,1024,1024,274.6,-90,97,3.781,3.744,3.745,3.753,3.784,3.774,21.262,62.6,14,Waypoint,
38.1644242,-120.1139085,5073.6254615686,76.443572,0,0.47043636676,13500,2018-05-11 17:29:51,16,0,22.588,5073.6254615686,76.443572,0.223694,0.47043636676,0,0,-0.671082,273.9, 0, 0.6,0,0,1024,1024,1024,1024,274.6,-89.9,97,3.781,3.744,3.745,3.753,3.784,3.774,21.262,62.6,14,Waypoint,
38.1644241,-120.1139085,5074.6097135686,77.427824,0,0.50456694528,13600,2018-05-11 17:29:51,16,0,22.588,5074.6097135686,77.427824,0.223694,0.50456694528,0,0,-0.671082,274, 0, 0.7,0,0,1024,1024,1024,1024,274.6,-89.9,97,3.781,3.744,3.745,3.753,3.784,3.774,21.262,62.6,14,Waypoint,
38.1644241,-120.1139085,5075.9220495686,78.74016,0,0.50456694528,13700,2018-05-11 17:29:51,16,0,22.588,5075.9220495686,78.74016,0.223694,0.50456694528,0,0,-0.671082,274, 0, 0.8,0,0,1024,1024,1024,1024,274.6,-89.9,97,3.781,3.744,3.745,3.753,3.784,3.774,21.262,62.6,14,Waypoint,
38.164424,-120.1139085,5076.9063015686,79.724412,0,0.5390092036,13800,2018-05-11 17:29:51,16,0,22.588,5076.9063015686,79.724412,0.223694,0.5390092036,0,0,-0.671082,274, 0, 0.8,0,0,1024,1024,1024,1024,274.6,-89.9,97,3.781,3.744,3.745,3.753,3.784,3.774,21.262,62.6,14,Waypoint,
38.164424,-120.1139084,5078.5467215686,81.364832,0,0.54884188108,14000,2018-05-11 17:29:51,16,0,22.593,5078.5467215686,81.364832,0.223694,0.54884188108,0,0,-0.671082,273.9, 0, 0.8,0,0,1024,1024,1024,1024,274.6,-89.9,97,3.78,3.736,3.735,3.748,3.79,3.771,20.695,62.6,14,Waypoint,
38.164424,-120.1139084,5079.5309735686,82.349084,0,0.54884188108,14100,2018-05-11 17:29:51,16,0,22.593,5079.5309735686,82.349084,0.223694,0.54884188108,0,0,-0.671082,273.9, 0, 0.7,0,0,1024,1024,1024,1024,274.6,-89.9,97,3.78,3.736,3.735,3.748,3.79,3.771,20.695,62.6,14,Waypoint,
38.164424,-120.1139083,5080.5152255686,83.333336,0,0.5599737712,14200,2018-05-11 17:29:51,16,0,22.593,5080.5152255686,83.333336,0.223694,0.5599737712,0,0,-0.671082,273.9, 0, 0.9,0,0,1024,1024,1024,1024,274.6,-89.9,97,3.78,3.736,3.735,3.748,3.79,3.771,20.695,62.6,14,Waypoint,
38.1644239,-120.1139083,5081.4994775686,84.317588,0,0.59344162004,14300,2018-05-11 17:29:51,16,0,22.593,5081.4994775686,84.317588,0.223694,0.59344162004,0,0,-0.671082,273.8, -0.1, 0.8,0,0,1024,1024,1024,1024,274.6,-90,97,3.78,3.736,3.735,3.748,3.79,3.771,20.695,62.6,14,Waypoint,
38.1644239,-120.1139082,5082.4837295686,85.30184,0,0.60511484876,14420,2018-05-11 17:29:52,16,0,22.593,5082.4837295686,85.30184,0.223694,0.60511484876,0,0,-0.671082,273.7, -0.2, 0.6,0,0,1024,1024,1024,1024,274.6,-90,97,3.78,3.736,3.735,3.748,3.79,3.771,20.695,62.6,14,Waypoint,
38.1644239,-120.1139082,5082.4837295686,85.30184,0,0.60511484876,14500,2018-05-11 17:29:52,16,0,22.593,5082.4837295686,85.30184,0.223694,0.60511484876,0,0,-0.671082,273.7, -0.2, 0.6,0,0,1024,1024,1024,1024,274.6,-90,97,3.78,3.736,3.735,3.748,3.79,3.771,20.695,62.6,14,Waypoint,
38.1644239,-120.1139081,5084.4522335686,87.270344,0,0.6178970014,14600,2018-05-11 17:29:52,16,0,22.593,5084.4522335686,87.270344,0.223694,0.6178970014,0,0,-0.671082,273.6, -0.2, 0.7,0,0,1024,1024,1024,1024,274.6,-89.9,97,3.78,3.736,3.735,3.748,3.79,3.771,20.695,62.6,14,Waypoint,
38.1644239,-120.1139081,5085.4364855686,88.254596,0,0.6178970014,14700,2018-05-11 17:29:52,16,0,22.593,5085.4364855686,88.254596,0.223694,0.6178970014,0,0,-0.671082,273.6, -0.2, 0.7,0,0,1024,1024,1024,1024,274.6,-89.9,97,3.78,3.736,3.735,3.748,3.79,3.771,20.695,62.6,14,Waypoint,
38.1644238,-120.1139079,5087.4049895686,90.2231,0,0.67769359124,14900,2018-05-11 17:29:52,16,0,22.593,5087.4049895686,90.2231,0.223694,0.67769359124,0,0,-0.671082,273.5, -0.8, 0.9,0,0,1024,1024,1024,1024,274.6,-90,97,3.78,3.736,3.735,3.748,3.79,3.771,20.695,62.6,14,Waypoint,
38.1644239,-120.1139079,5088.3892415686,91.207352,0,0.64653217292,15000,2018-05-11 17:29:52,16,0,22.555,5088.3892415686,91.207352,0.223694,0.67769359124,0,0,-0.671082,273.6, -0.9, 0.6,0,0,1024,1024,1024,1024,274.6,-90,97,3.778,3.733,3.74,3.75,3.786,3.768,20.569,62.6,14,Waypoint,
38.1644239,-120.1139078,5089.3734935686,92.191604,0,0.66225067736,15100,2018-05-11 17:29:52,16,0,22.555,5089.3734935686,92.191604,0.223694,0.67769359124,0,0,-0.671082,273.6, -1.2, 0.3,0,0,1024,1024,1024,1024,274.6,-90,97,3.778,3.733,3.74,3.75,3.786,3.768,20.569,62.6,14,Waypoint,
38.1644239,-120.1139077,5090.3577455686,93.175856,0,0.67881891936,15200,2018-05-11 17:29:52,16,0,22.555,5090.3577455686,93.175856,0.223694,0.67881891936,0,0,-0.671082,273.8, -1.2, 0.1,0,0,1024,1024,1024,1024,274.6,-90,97,3.778,3.733,3.74,3.75,3.786,3.768,20.569,62.6,14,Waypoint,
38.1644239,-120.1139077,5091.3419975686,94.160108,0,0.67881891936,15300,2018-05-11 17:29:52,16,0,22.555,5091.3419975686,94.160108,0.223694,0.67881891936,0,0,-0.671082,273.9, -1.1, 0.1,0,0,1024,1024,1024,1024,274.6,-90,97,3.778,3.733,3.74,3.75,3.786,3.768,20.569,62.6,14,Waypoint,
38.1644239,-120.1139076,5092.3262495686,95.14436,0,0.69617456296,15400,2018-05-11 17:29:53,16,0,22.555,5092.3262495686,95.14436,0.223694,0.69617456296,0,0,-0.671082,273.9, -1, 0.2,0,0,1024,1024,1024,1024,274.6,-90,97,3.778,3.733,3.74,3.75,3.786,3.768,20.569,62.6,14,Waypoint,
38.1644239,-120.1139076,5093.3105015686,96.128612,0,0.69617456296,15500,2018-05-11 17:29:53,16,0,22.555,5093.3105015686,96.128612,0.223694,0.69617456296,0,0,-0.671082,273.9, -0.9, 0.2,0,0,1024,1024,1024,1024,274.6,-89.9,97,3.778,3.733,3.74,3.75,3.786,3.768,20.569,62.6,14,Waypoint,
38.1644239,-120.1139076,5094.6228375686,97.440948,0,0.69617456296,15600,2018-05-11 17:29:53,16,0,22.555,5094.6228375686,97.440948,0.223694,0.69617456296,0,0,-0.671082,273.8, -0.9, 0.1,0,0,1024,1024,1024,1024,274.6,-90,97,3.778,3.733,3.74,3.75,3.786,3.768,20.569,62.6,14,Waypoint,
38.164424,-120.1139076,5095.6070895686,98.4252,0,0.66787403712,15700,2018-05-11 17:29:53,16,0,22.555,5095.6070895686,98.4252,0.223694,0.69617456296,0,0,-0.671082,273.9, -1, 0,0,0,1024,1024,1024,1024,274.6,-90,97,3.778,3.733,3.74,3.75,3.786,3.768,20.569,62.6,14,Waypoint,
38.1644239,-120.1139076,5096.5913415686,99.409452,0,0.69617456296,15800,2018-05-11 17:29:53,16,0,22.555,5096.5913415686,99.409452,0.223694,0.69617456296,0,0,-0.671082,273.9, -0.9, 0.1,0,0,1024,1024,1024,1024,274.6,-89.9,97,3.778,3.733,3.74,3.75,3.786,3.768,20.569,62.6,14,Waypoint,
38.1644239,-120.1139075,5097.5755935686,100.393704,0,0.71425855304,15900,2018-05-11 17:29:53,16,0,22.555,5097.5755935686,100.393704,0.223694,0.71425855304,0,0,-0.671082,273.9, -0.8, 0.2,0,0,1024,1024,1024,1024,274.6,-89.9,97,3.778,3.733,3.74,3.75,3.786,3.768,20.569,62.6,14,Waypoint,
38.1644239,-120.1139075,5098.5598455686,101.377956,0,0.71425855304,16000,2018-05-11 17:29:53,16,0,22.476,5098.5598455686,101.377956,0.223694,0.71425855304,0,0,-0.671082,273.9, -0.7, 0.6,0,0,1024,1024,1024,1024,274.6,-90,97,3.756,3.727,3.723,3.732,3.767,3.755,20.861,62.6,14,Waypoint,
38.1644239,-120.1139075,5099.5440975686,102.362208,0,0.71425855304,16100,2018-05-11 17:29:53,17,0,22.476,5099.5440975686,102.362208,0.223694,0.71425855304,0,0,-0.671082,273.8, -0.9, 0.8,0,0,1024,1024,1024,1024,274.6,-90,97,3.756,3.727,3.723,3.732,3.767,3.755,20.861,62.6,14,Waypoint,
38.1644238,-120.1139074,5100.5283495686,103.34646,0,0.76064963064,16200,2018-05-11 17:29:53,17,0,22.476,5100.5283495686,103.34646,0.223694,0.76064963064,0,0,-0.671082,273.8, -1.1, 1,0,0,1024,1024,1024,1024,274.6,-90,97,3.756,3.727,3.723,3.732,3.767,3.755,20.861,62.6,14,Waypoint,
38.1644238,-120.1139074,5101.5126015686,104.330712,0,0.76064963064,16300,2018-05-11 17:29:53,17,0,22.476,5101.5126015686,104.330712,0.223694,0.76064963064,0,0,-0.671082,273.8, -1.2, 1,0,0,1024,1024,1024,1024,274.6,-90,97,3.756,3.727,3.723,3.732,3.767,3.755,20.861,62.6,14,Waypoint,
38.1644238,-120.1139073,5102.4968535686,105.314964,0,0.77935041864,16400,2018-05-11 17:29:54,17,0,22.476,5102.4968535686,105.314964,0.223694,0.77935041864,0,0,-0.671082,273.7, -1.2, 0.9,0,0,1024,1024,1024,1024,274.6,-90,97,3.756,3.727,3.723,3.732,3.767,3.755,20.861,62.6,14,Waypoint,
38.1644238,-120.1139073,5103.4811055686,106.299216,0,0.77935041864,16500,2018-05-11 17:29:54,17,0,22.476,5103.4811055686,106.299216,0.223694,0.77935041864,0,0,-0.671082,273.7, -1.5, 0.8,0,0,1024,1024,1024,1024,274.6,-90,97,3.756,3.727,3.723,3.732,3.767,3.755,20.861,62.6,14,Waypoint,
38.1644238,-120.1139072,5104.4653575686,107.283468,0,0.79864503868,16600,2018-05-11 17:29:54,17,0,22.476,5104.4653575686,107.283468,0.223694,0.79864503868,0,0,-0.671082,273.7, -1.6, 0.7,0,0,1024,1024,1024,1024,274.6,-89.9,97,3.756,3.727,3.723,3.732,3.767,3.755,20.861,62.6,14,Waypoint,
38.1644237,-120.1139071,5106.4338615686,109.251972,0,0.84490160184,16800,2018-05-11 17:29:54,17,0,22.476,5106.4338615686,109.251972,0.223694,0.84490160184,0,0,-0.671082,273.7, -1.4, 0.8,0,0,1024,1024,1024,1024,274.6,-89.9,97,3.756,3.727,3.723,3.732,3.767,3.755,20.861,62.6,14,Waypoint,
38.1644237,-120.113907,5107.4181135686,110.236224,0,0.86463585444,16910,2018-05-11 17:29:54,17,0,22.476,5107.4181135686,110.236224,0.223694,0.86463585444,0,0,-0.671082,273.8, -1.4, 0.8,0,0,1024,1024,1024,1024,274.6,-89.9,97,3.756,3.727,3.723,3.732,3.767,3.755,20.861,62.6,14,Waypoint,
38.1644238,-120.113907,5108.4023655686,111.220476,0,0.83884845204,17100,2018-05-11 17:29:54,17,0,22.476,5108.4023655686,111.220476,0.223694,0.86463585444,0,0,-0.671082,273.8, -1.6, 0.8,0,0,1024,1024,1024,1024,274.6,-90,97,3.756,3.727,3.723,3.732,3.767,3.755,20.861,62.6,14,Waypoint,
38.1644237,-120.1139068,5110.0427855686,112.860896,0,0.90554136756,17200,2018-05-11 17:29:54,17,0,22.476,5110.0427855686,112.860896,0.223694,0.90554136756,0,0,-0.671082,273.9, -2.1, 0.8,0,0,1024,1024,1024,1024,274.6,-90,97,3.756,3.727,3.723,3.732,3.767,3.755,20.861,62.6,14,Waypoint,
38.1644237,-120.1139067,5111.0270375686,113.845148,0,0.92665029212,17300,2018-05-11 17:29:54,17,0,22.476,5111.0270375686,113.845148,0.223694,0.92665029212,0,0,-0.671082,273.9, -2.5, 0.8,0,0,1024,1024,1024,1024,274.6,-90,97,3.756,3.727,3.723,3.732,3.767,3.755,20.861,62.6,14,Waypoint,
38.1644237,-120.1139067,5112.0112895686,114.8294,0,0.92665029212,17400,2018-05-11 17:29:55,17,0,22.476,5112.0112895686,114.8294,0.223694,0.92665029212,0,0,-0.671082,273.9, -2.5, 0.6,0,0,1024,1024,1024,1024,274.6,-90,97,3.756,3.727,3.723,3.732,3.767,3.755,20.861,62.6,14,Waypoint,
38.1644238,-120.1139066,5112.9955415686,115.813652,0,0.924704754,17500,2018-05-11 17:29:55,16,0,22.476,5112.9955415686,115.813652,0.223694,0.92665029212,0,0,-0.671082,273.9, -2.5, 0.5,0,0,1024,1024,1024,1024,274.6,-89.9,97,3.756,3.727,3.723,3.732,3.767,3.755,20.861,62.6,14,Waypoint,
38.1644238,-120.1139066,5113.9797935686,116.797904,0,0.924704754,17600,2018-05-11 17:29:55,16,0,22.476,5113.9797935686,116.797904,0.223694,0.92665029212,0,0,-0.671082,273.9, -2.4, 0.6,0,0,1024,1024,1024,1024,274.6,-89.9,97,3.756,3.727,3.723,3.732,3.767,3.755,20.861,62.6,14,Waypoint,
38.1644238,-120.1139066,5114.9640455686,117.782156,0,0.924704754,17700,2018-05-11 17:29:55,17,0,22.476,5114.9640455686,117.782156,0.223694,0.92665029212,0,0,-0.671082,273.9, -2.3, 0.7,0,0,1024,1024,1024,1024,274.6,-89.9,97,3.756,3.727,3.723,3.732,3.767,3.755,20.861,62.6,14,Waypoint,
38.1644238,-120.1139065,5115.9482975686,118.766408,0,0.94712273372,17800,2018-05-11 17:29:55,17,0,22.476,5115.9482975686,118.766408,0.223694,0.94712273372,0,0,-0.671082,274, -2.2, 0.6,0,0,1024,1024,1024,1024,274.6,-89.9,97,3.756,3.727,3.723,3.732,3.767,3.755,20.861,62.6,14,Waypoint,
38.1644238,-120.1139065,5116.9325495686,119.75066,0,0.94712273372,17900,2018-05-11 17:29:55,17,0,22.476,5116.9325495686,119.75066,0.223694,0.94712273372,0,0,-0.671082,274, -2.1, 0.6,0,0,1024,1024,1024,1024,274.6,-89.9,97,3.756,3.727,3.723,3.732,3.767,3.755,20.861,62.6,14,Waypoint,
38.1644238,-120.1139065,5117.9168015686,120.734912,0,0.94712273372,18000,2018-05-11 17:29:55,17,0,22.456,5117.9168015686,120.734912,0.223694,0.94712273372,0,0,-0.671082,274, -2, 0.6,0,0,1024,1024,1024,1024,274.6,-90,96,3.755,3.707,3.723,3.727,3.761,3.752,20.741,62.6,14,Waypoint,
38.1644238,-120.1139065,5118.9010535686,121.719164,0,0.94712273372,18100,2018-05-11 17:29:55,17,0,22.456,5118.9010535686,121.719164,0.223694,0.94712273372,0,0,-0.671082,273.9, -2.1, 0.7,0,0,1024,1024,1024,1024,274.6,-90,96,3.755,3.707,3.723,3.727,3.761,3.752,20.741,62.6,14,Waypoint,
38.1644239,-120.1139065,5119.8853055686,122.703416,0,0.9250820506,18200,2018-05-11 17:29:55,17,0,22.456,5119.8853055686,122.703416,0.223694,0.94712273372,0,0,-0.671082,273.8, -2, 0.6,0,0,1024,1024,1024,1024,274.6,-89.9,96,3.755,3.707,3.723,3.727,3.761,3.752,20.741,62.6,14,Waypoint,
38.1644239,-120.1139066,5120.8695575686,123.687668,0,0.9021161706,18300,2018-05-11 17:29:55,17,0,22.456,5120.8695575686,123.687668,0.223694,0.94712273372,0,0,-0.671082,273.7, -1.9, 0.4,0,0,1024,1024,1024,1024,274.6,-90,96,3.755,3.707,3.723,3.727,3.761,3.752,20.741,62.6,14,Waypoint,
38.1644239,-120.1139066,5121.8538095686,124.67192,0,0.9021161706,18400,2018-05-11 17:29:56,17,0,22.456,5121.8538095686,124.67192,0.223694,0.94712273372,0,0,-0.671082,273.7, -2, 0.2,0,0,1024,1024,1024,1024,274.6,-90,96,3.755,3.707,3.723,3.727,3.761,3.752,20.741,62.6,14,Waypoint,
38.164424,-120.1139066,5122.8380615686,125.656172,0,0.88045934576,18500,2018-05-11 17:29:56,17,0,22.456,5122.8380615686,125.656172,0.223694,0.94712273372,0,0,-0.671082,273.9, -2, 0.4,0,0,1024,1024,1024,1024,274.6,-90,96,3.755,3.707,3.723,3.727,3.761,3.752,20.741,62.6,14,Waypoint,
38.164424,-120.1139066,5123.8223135686,126.640424,0,0.88045934576,18600,2018-05-11 17:29:56,17,0,22.456,5123.8223135686,126.640424,0.223694,0.94712273372,0,0,-0.671082,274, -2, 0.3,0,0,1024,1024,1024,1024,274.6,-90,96,3.755,3.707,3.723,3.727,3.761,3.752,20.741,62.6,14,Waypoint,
38.164424,-120.1139067,5124.8065655686,127.624676,0,0.85725396444,18700,2018-05-11 17:29:56,17,0,22.456,5124.8065655686,127.624676,0.223694,0.94712273372,0,0,-0.671082,274.1, -2, 0.3,0,0,1024,1024,1024,1024,274.6,-89.9,96,3.755,3.707,3.723,3.727,3.761,3.752,20.741,62.6,14,Waypoint,
38.1644241,-120.1139067,5125.7908175686,128.608928,0,0.83603021048,18800,2018-05-11 17:29:56,17,0,22.456,5125.7908175686,128.608928,0.223694,0.94712273372,0,0,-0.671082,274.3, -1.8, 0.3,0,0,1024,1024,1024,1024,274.6,-89.9,96,3.755,3.707,3.723,3.727,3.761,3.752,20.741,62.6,14,Waypoint,
38.1644241,-120.1139067,5126.7750695686,129.59318,0,0.83603021048,18900,2018-05-11 17:29:56,17,0,22.456,5126.7750695686,129.59318,0.223694,0.94712273372,0,0,-0.671082,274.3, -1.5, 0.1,0,0,1024,1024,1024,1024,274.6,-89.9,96,3.755,3.707,3.723,3.727,3.761,3.752,20.741,62.6,14,Waypoint,
38.1644241,-120.1139068,5127.7593215686,130.577432,0,0.81256892364,19000,2018-05-11 17:29:56,17,0,22.352,5127.7593215686,130.577432,0.223694,0.94712273372,0,0,-0.671082,274.3, -1.5, 0.1,0,0,1024,1024,1024,1024,274.6,-89.9,96,3.755,3.707,3.723,3.727,3.761,3.752,21.453,62.6,14,Waypoint,
38.1644242,-120.1139068,5128.7435735686,131.561684,0,0.79182745316,19100,2018-05-11 17:29:56,17,0,22.352,5128.7435735686,131.561684,0.223694,0.94712273372,0,0,-0.671082,274.2, -1.4, 0,0,0,1024,1024,1024,1024,274.6,-89.9,96,3.755,3.707,3.723,3.727,3.761,3.752,21.453,62.6,14,Waypoint,
38.1644242,-120.1139069,5130.0559095686,132.87402,0,0.76809057576,19200,2018-05-11 17:29:56,17,0,22.352,5130.0559095686,132.87402,0.223694,0.94712273372,0,0,-0.671082,274.1, -1.3, -0.3,0,0,1024,1024,1024,1024,274.6,-89.9,96,3.755,3.707,3.723,3.727,3.761,3.752,21.453,62.6,14,Waypoint,
38.1644243,-120.1139069,5130.7120775686,133.530188,0,0.74789372472,19300,2018-05-11 17:29:56,17,0,22.352,5130.7120775686,133.530188,0.223694,0.94712273372,0,0,-0.671082,274, -1.2, -0.5,0,0,1024,1024,1024,1024,274.6,-89.9,96,3.755,3.707,3.723,3.727,3.761,3.752,21.453,62.6,14,Waypoint,
38.1644244,-120.1139069,5132.6805815686,135.498692,0,0.72896655876,19500,2018-05-11 17:29:57,17,0,22.352,5132.6805815686,135.498692,0.223694,0.94712273372,0,0,-0.671082,273.8, -1.3, -0.6,0,0,1024,1024,1024,1024,274.6,-89.9,96,3.755,3.707,3.723,3.727,3.761,3.752,21.453,62.6,14,Waypoint,
38.1644244,-120.113907,5133.6648335686,136.482944,0,0.70427823776,19600,2018-05-11 17:29:57,17,0,22.352,5133.6648335686,136.482944,0.223694,0.94712273372,0,0,-0.671082,273.7, -1.4, -0.4,0,0,1024,1024,1024,1024,274.6,-89.9,96,3.755,3.707,3.723,3.727,3.761,3.752,21.453,62.6,14,Waypoint,
38.1644244,-120.1139071,5135.6333375686,138.451448,0,0.6799048774,19800,2018-05-11 17:29:57,17,0,22.352,5135.6333375686,138.451448,0.223694,0.94712273372,0,0,-0.671082,273.8, -1.2, -0.1,0,0,1024,1024,1024,1024,274.6,-89.9,96,3.755,3.707,3.723,3.727,3.761,3.752,21.453,62.6,14,Waypoint,
38.1644245,-120.1139071,5136.6175895686,139.4357,0,0.66104332824,19900,2018-05-11 17:29:57,17,0,22.352,5136.6175895686,139.4357,0.223694,0.94712273372,0,0,-0.671082,273.9, -1.2, -0.1,0,0,1024,1024,1024,1024,274.6,-89.9,96,3.755,3.707,3.723,3.727,3.761,3.752,21.453,62.6,14,Waypoint,
38.1644245,-120.1139072,5137.2737575686,140.091868,0,0.63630579464,20000,2018-05-11 17:29:57,17,0,22.279,5137.2737575686,140.091868,0.223694,0.94712273372,0,0,-0.671082,274, -1.2, -0.2,0,0,1024,1024,1024,1024,274.6,-89.9,96,3.742,3.69,3.702,3.71,3.746,3.733,21.453,62.6,14,Waypoint,
38.1644245,-120.1139072,5138.2580095686,141.07612,0,0.63630579464,20100,2018-05-11 17:29:57,17,0,22.279,5138.2580095686,141.07612,0.223694,0.94712273372,0,0,-0.671082,274, -1.3, -0.2,0,0,1024,1024,1024,1024,274.6,-89.9,96,3.742,3.69,3.702,3.71,3.746,3.733,21.453,62.6,14,Waypoint,
38.1644245,-120.1139073,5139.2422615686,142.060372,0,0.61191274924,20200,2018-05-11 17:29:57,17,0,22.279,5139.2422615686,142.060372,0.223694,0.94712273372,0,0,-0.671082,274, -1.3, -0.2,0,0,1024,1024,1024,1024,274.6,-89.9,96,3.742,3.69,3.702,3.71,3.746,3.733,21.453,62.6,14,Waypoint,
38.1644245,-120.1139073,5140.5545975686,143.372708,0,0.61191274924,20300,2018-05-11 17:29:57,17,0,22.279,5140.5545975686,143.372708,0.223694,0.94712273372,0,0,-0.671082,274, -1.3, 0,0,0,1024,1024,1024,1024,274.6,-89.9,96,3.742,3.69,3.702,3.71,3.746,3.733,21.453,62.6,14,Waypoint,
38.1644245,-120.1139074,5141.5388495686,144.35696,0,0.5879101238,20400,2018-05-11 17:29:58,17,0,22.279,5141.5388495686,144.35696,0.223694,0.94712273372,0,0,-0.671082,273.9, -1.2, 0,0,0,1024,1024,1024,1024,274.6,-89.9,96,3.742,3.69,3.702,3.71,3.746,3.733,21.453,62.6,14,Waypoint,
38.1644245,-120.1139074,5142.5231015686,145.341212,0,0.5879101238,20500,2018-05-11 17:29:58,17,0,22.279,5142.5231015686,145.341212,0.223694,0.94712273372,0,0,-0.671082,273.8, -1, 0,0,0,1024,1024,1024,1024,274.6,-89.9,96,3.742,3.69,3.702,3.71,3.746,3.733,21.453,62.6,14,Waypoint,
38.1644245,-120.1139074,5143.5073535686,146.325464,0,0.5879101238,20600,2018-05-11 17:29:58,17,0,22.279,5143.5073535686,146.325464,0.223694,0.94712273372,0,0,-0.671082,273.7, -1, -0.2,0,0,1024,1024,1024,1024,274.6,-89.9,96,3.742,3.69,3.702,3.71,3.746,3.733,21.453,62.6,14,Waypoint,
38.1644245,-120.1139075,5144.4916055686,147.309716,0,0.56434056924,20700,2018-05-11 17:29:58,17,0,22.279,5144.4916055686,147.309716,0.223694,0.94712273372,0,0,-0.671082,273.7, -1.1, -0.2,0,0,1024,1024,1024,1024,274.6,-89.9,96,3.742,3.69,3.702,3.71,3.746,3.733,21.453,62.6,14,Waypoint,
38.1644246,-120.1139075,5145.4758575686,148.293968,0,0.54392390192,20800,2018-05-11 17:29:58,17,0,22.279,5145.4758575686,148.293968,0.223694,0.94712273372,0,0,-0.671082,273.8, -1.1, -0.2,0,0,1024,1024,1024,1024,274.6,-89.9,96,3.742,3.69,3.702,3.71,3.746,3.733,21.453,62.6,14,Waypoint,
38.1644246,-120.1139075,5146.4601095686,149.27822,0,0.54392390192,20900,2018-05-11 17:29:58,17,0,22.279,5146.4601095686,149.27822,0.223694,0.94712273372,0,0,-0.671082,273.8, -1.2, -0.2,0,0,1024,1024,1024,1024,274.6,-90,96,3.742,3.69,3.702,3.71,3.746,3.733,21.453,62.6,14,Waypoint,
38.1644246,-120.1139075,5147.4443615686,150.262472,0,0.54392390192,21000,2018-05-11 17:29:58,17,0,22.279,5147.4443615686,150.262472,0.223694,0.94712273372,0,0,-0.671082,273.9, -1.4, -0.1,0,0,1024,1024,1024,1024,274.6,-89.9,96,3.733,3.686,3.684,3.71,3.75,3.722,21.697,62.6,14,Waypoint,
38.1644246,-120.1139075,5149.4128655686,152.230976,0,0.54392390192,21210,2018-05-11 17:29:58,17,0,22.279,5149.4128655686,152.230976,0.223694,0.94712273372,0,0,-0.671082,274, -1.4, -0.1,0,0,1024,1024,1024,1024,274.6,-90,96,3.733,3.686,3.684,3.71,3.75,3.722,21.697,62.6,14,Waypoint,
38.1644246,-120.1139074,5151.3813695686,154.19948,0,0.56833663236,21400,2018-05-11 17:29:59,17,0,22.279,5151.3813695686,154.19948,0.223694,0.94712273372,0,0,-0.671082,273.9, -1.6, -0.6,0,0,1024,1024,1024,1024,274.6,-89.9,96,3.733,3.686,3.684,3.71,3.75,3.722,21.697,62.6,14,Waypoint,
38.1644246,-120.1139074,5152.3656215686,155.183732,0,0.56833663236,21500,2018-05-11 17:29:59,17,0,22.279,5152.3656215686,155.183732,0.223694,0.94712273372,0,0,-0.671082,273.7, -1.5, -0.7,0,0,1024,1024,1024,1024,274.6,-89.9,96,3.733,3.686,3.684,3.71,3.75,3.722,21.697,62.6,14,Waypoint,
38.1644246,-120.1139074,5154.3341255686,157.152236,0,0.56833663236,21720,2018-05-11 17:29:59,17,0,22.279,5154.3341255686,157.152236,0.223694,0.94712273372,0,0,-0.671082,273.4, -1.6, -0.4,0,0,1024,1024,1024,1024,274.6,-90,96,3.733,3.686,3.684,3.71,3.75,3.722,21.697,62.6,14,Waypoint,
38.1644246,-120.1139074,5154.3341255686,157.152236,0,0.56833663236,21800,2018-05-11 17:29:59,17,0,22.279,5154.3341255686,157.152236,0.223694,0.94712273372,0,0,-0.671082,273.4, -1.6, -0.4,0,0,1024,1024,1024,1024,274.6,-90,96,3.733,3.686,3.684,3.71,3.75,3.722,21.697,62.6,14,Waypoint,
38.1644246,-120.1139073,5155.3183775686,158.136488,0,0.59313322108,21900,2018-05-11 17:29:59,17,0,22.279,5155.3183775686,158.136488,0.223694,0.94712273372,0,0,-0.671082,273.4, -1.7, -0.1,0,0,1024,1024,1024,1024,274.6,-90,96,3.733,3.686,3.684,3.71,3.75,3.722,21.697,62.6,14,Waypoint,
38.1644245,-120.1139072,5158.2711335686,161.089244,0,0.63630579464,22010,2018-05-11 17:29:59,17,0,22.217,5158.2711335686,161.089244,0.223694,0.94712273372,0,0,-0.671082,273.5, -2.3, 0.2,0,0,1024,1024,1024,1024,274.6,-90,96,3.725,3.67,3.661,3.681,3.729,3.695,22.156,62.6,14,Waypoint,
38.1644245,-120.1139072,5159.2553855686,162.073496,0,0.63630579464,22200,2018-05-11 17:29:59,17,0,22.217,5159.2553855686,162.073496,0.223694,0.94712273372,0,0,-0.671082,273.6, -2.3, 0.1,0,0,1024,1024,1024,1024,274.6,-89.9,96,3.725,3.67,3.661,3.681,3.729,3.695,22.156,62.6,14,Waypoint,
38.1644245,-120.1139071,5160.2396375686,163.057748,0,0.66104332824,22300,2018-05-11 17:29:59,17,0,22.217,5160.2396375686,163.057748,0.223694,0.94712273372,0,0,-0.671082,273.7, -2.3, 0.3,0,0,1024,1024,1024,1024,274.6,-90,96,3.725,3.67,3.661,3.681,3.729,3.695,22.156,62.6,14,Waypoint,
38.1644244,-120.113907,5162.2081415686,165.026252,0,0.70427823776,22500,2018-05-11 17:30:00,17,0,22.217,5162.2081415686,165.026252,0.223694,0.94712273372,0,0,-0.671082,273.7, -2.2, 0.3,0,0,1024,1024,1024,1024,274.6,-89.9,96,3.725,3.67,3.661,3.681,3.729,3.695,22.156,62.6,14,Waypoint,
38.1644244,-120.113907,5163.1923935686,166.010504,0,0.70427823776,22600,2018-05-11 17:30:00,17,0,22.217,5163.1923935686,166.010504,0.223694,0.94712273372,0,0,-0.671082,273.6, -2, 0.3,0,0,1024,1024,1024,1024,274.6,-89.9,96,3.725,3.67,3.661,3.681,3.729,3.695,22.156,62.6,14,Waypoint,
38.1644244,-120.113907,5164.1766455686,166.994756,0,0.70427823776,22700,2018-05-11 17:30:00,17,0,22.217,5164.1766455686,166.994756,0.223694,0.94712273372,0,0,-0.671082,273.5, -2, 0.2,0,0,1024,1024,1024,1024,274.6,-89.9,96,3.725,3.67,3.661,3.681,3.729,3.695,22.156,62.6,14,Waypoint,
38.1644244,-120.113907,5165.1608975686,167.979008,0,0.70427823776,22800,2018-05-11 17:30:00,17,0,22.217,5165.1608975686,167.979008,0.223694,0.94712273372,0,0,-0.671082,273.6, -2.1, 0.3,0,0,1024,1024,1024,1024,274.6,-89.9,96,3.725,3.67,3.661,3.681,3.729,3.695,22.156,62.6,14,Waypoint,
38.1644244,-120.113907,5166.1451495686,168.96326,0,0.70427823776,22900,2018-05-11 17:30:00,17,0,22.217,5166.1451495686,168.96326,0.223694,0.94712273372,0,0,-0.671082,273.6, -2, 0.3,0,0,1024,1024,1024,1024,274.6,-89.9,96,3.725,3.67,3.661,3.681,3.729,3.695,22.156,62.6,14,Waypoint,
38.1644244,-120.113907,5167.1294015686,169.947512,0,0.70427823776,23000,2018-05-11 17:30:00,17,0,22.218,5167.1294015686,169.947512,0.223694,0.94712273372,0,0,-0.671082,273.8, -1.9, 0.2,0,0,1024,1024,1024,1024,274.6,-89.9,96,3.721,3.688,3.664,3.695,3.745,3.708,21.601,62.6,14,Waypoint,
38.1644244,-120.113907,5168.1136535686,170.931764,0,0.70427823776,23100,2018-05-11 17:30:00,17,0,22.218,5168.1136535686,170.931764,0.223694,0.94712273372,0,0,-0.671082,274, -1.7, 0.2,0,0,1024,1024,1024,1024,274.6,-89.9,96,3.721,3.688,3.664,3.695,3.745,3.708,21.601,62.6,14,Waypoint,
38.1644244,-120.113907,5169.0979055686,171.916016,0,0.70427823776,23200,2018-05-11 17:30:00,17,0,22.218,5169.0979055686,171.916016,0.223694,0.94712273372,0,0,-0.671082,274.1, -1.6, 0,0,0,1024,1024,1024,1024,274.6,-89.9,96,3.721,3.688,3.664,3.695,3.745,3.708,21.601,62.6,14,Waypoint,
38.1644243,-120.1139071,5170.0821575686,172.900268,0,0.70015750272,23300,2018-05-11 17:30:00,17,0,22.218,5170.0821575686,172.900268,0.223694,0.94712273372,0,0,-0.671082,274.1, -1.6, 0,0,0,1024,1024,1024,1024,274.6,-89.9,96,3.721,3.688,3.664,3.695,3.745,3.708,21.601,62.6,14,Waypoint,
38.1644243,-120.1139071,5171.0664095686,173.88452,0,0.70015750272,23400,2018-05-11 17:30:01,17,0,22.218,5171.0664095686,173.88452,0.223694,0.94712273372,0,0,-0.671082,274.2, -1.6, 0.1,0,0,1024,1024,1024,1024,274.6,-89.9,96,3.721,3.688,3.664,3.695,3.745,3.708,21.601,62.6,14,Waypoint,
38.1644243,-120.1139071,5172.0506615686,174.868772,0,0.70015750272,23500,2018-05-11 17:30:01,17,0,22.218,5172.0506615686,174.868772,0.223694,0.94712273372,0,0,-0.671082,274.2, -1.6, 0.3,0,0,1024,1024,1024,1024,274.6,-90,96,3.721,3.688,3.664,3.695,3.745,3.708,21.601,62.6,14,Waypoint,
38.1644243,-120.1139071,5173.0349135686,175.853024,0,0.70015750272,23600,2018-05-11 17:30:01,17,0,22.218,5173.0349135686,175.853024,0.223694,0.94712273372,0,0,-0.671082,274.1, -1.7, 0.1,0,0,1024,1024,1024,1024,274.6,-90,96,3.721,3.688,3.664,3.695,3.745,3.708,21.601,62.6,14,Waypoint,
38.1644243,-120.1139071,5174.0191655686,176.837276,0,0.70015750272,23700,2018-05-11 17:30:01,17,0,22.218,5174.0191655686,176.837276,0.223694,0.94712273372,0,0,-0.671082,274, -1.7, 0,0,0,1024,1024,1024,1024,274.6,-89.9,96,3.721,3.688,3.664,3.695,3.745,3.708,21.601,62.6,14,Waypoint,
38.1644244,-120.1139071,5175.0034175686,177.821528,0,0.6799048774,23800,2018-05-11 17:30:01,17,0,22.218,5175.0034175686,177.821528,0.223694,0.94712273372,0,0,-0.671082,274, -1.6, 0,0,0,1024,1024,1024,1024,274.6,-89.9,96,3.721,3.688,3.664,3.695,3.745,3.708,21.601,62.6,14,Waypoint,
38.1644244,-120.1139071,5175.9876695686,178.80578,0,0.6799048774,23900,2018-05-11 17:30:01,17,0,22.218,5175.9876695686,178.80578,0.223694,0.94712273372,0,0,-0.671082,274, -1.5, -0.1,0,0,1024,1024,1024,1024,274.6,-89.9,96,3.721,3.688,3.664,3.695,3.745,3.708,21.601,62.6,14,Waypoint,
38.1644244,-120.1139072,5178.9404255686,181.758536,0,0.65587928608,24200,2018-05-11 17:30:01,17,0,22.218,5178.9404255686,181.758536,0.223694,0.94712273372,0,0,-0.671082,274, -1.4, -0.3,0,0,1024,1024,1024,1024,274.6,-89.9,96,3.721,3.688,3.664,3.695,3.745,3.708,21.601,62.6,14,Waypoint,
38.1644244,-120.1139072,5180.9089295686,183.72704,0,0.65587928608,24400,2018-05-11 17:30:02,17,0,22.218,5180.9089295686,183.72704,0.223694,0.94712273372,0,0,-0.671082,274, -1.2, 0,0,0,1024,1024,1024,1024,274.6,-89.9,96,3.721,3.688,3.664,3.695,3.745,3.708,21.601,62.6,14,Waypoint,
38.1644244,-120.1139072,5181.8931815686,184.711292,0,0.65587928608,24500,2018-05-11 17:30:02,17,0,22.218,5181.8931815686,184.711292,0.223694,0.94712273372,0,0,-0.671082,274, -1.3, 0,0,0,1024,1024,1024,1024,274.6,-89.9,96,3.721,3.688,3.664,3.695,3.745,3.708,21.601,62.6,14,Waypoint,
38.1644244,-120.1139072,5182.8774335686,185.695544,0,0.65587928608,24600,2018-05-11 17:30:02,17,0,22.218,5182.8774335686,185.695544,0.223694,0.94712273372,0,0,-0.671082,273.9, -1.6, 0.2,0,0,1024,1024,1024,1024,274.6,-89.9,96,3.721,3.688,3.664,3.695,3.745,3.708,21.601,62.6,14,Waypoint,
38.1644243,-120.1139072,5183.8616855686,186.679796,0,0.6768536962,24700,2018-05-11 17:30:02,17,0,22.218,5183.8616855686,186.679796,0.223694,0.94712273372,0,0,-0.671082,273.8, -2, 0.2,0,0,1024,1024,1024,1024,274.6,-90,96,3.721,3.688,3.664,3.695,3.745,3.708,21.601,62.6,14,Waypoint,
38.1644243,-120.1139072,5184.8459375686,187.664048,0,0.6768536962,24800,2018-05-11 17:30:02,17,0,22.218,5184.8459375686,187.664048,0.223694,0.94712273372,0,0,-0.671082,273.7, -2, 0,0,0,1024,1024,1024,1024,274.6,-90,96,3.721,3.688,3.664,3.695,3.745,3.708,21.601,62.6,14,Waypoint,
38.1644243,-120.1139072,5185.8301895686,188.6483,0,0.6768536962,24900,2018-05-11 17:30:02,17,0,22.218,5185.8301895686,188.6483,0.223694,0.94712273372,0,0,-0.671082,273.6, -1.8, 0,0,0,1024,1024,1024,1024,274.6,-89.9,96,3.721,3.688,3.664,3.695,3.745,3.708,21.601,62.6,14,Waypoint,
38.1644243,-120.1139071,5187.1425255686,189.960636,0,0.70015750272,25000,2018-05-11 17:30:02,17,0,22.168,5187.1425255686,189.960636,0.223694,0.94712273372,0,0,-0.671082,273.5, -1.8, 0.2,0,0,1024,1024,1024,1024,274.6,-89.9,96,3.717,3.668,3.666,3.676,3.734,3.699,21.348,64.4,14,Waypoint,
38.1644242,-120.1139071,5188.1267775686,190.944888,0,0.72169293648,25100,2018-05-11 17:30:02,17,0,22.168,5188.1267775686,190.944888,0.223694,0.94712273372,0,0,-0.671082,273.5, -1.8, 0.4,0,0,1024,1024,1024,1024,274.6,-89.9,96,3.717,3.668,3.666,3.676,3.734,3.699,21.348,64.4,14,Waypoint,
38.1644242,-120.1139071,5189.1110295686,191.92914,0,0.72169293648,25200,2018-05-11 17:30:02,17,0,22.168,5189.1110295686,191.92914,0.223694,0.94712273372,0,0,-0.671082,273.4, -1.7, 0.4,0,0,1024,1024,1024,1024,274.6,-90,96,3.717,3.668,3.666,3.676,3.734,3.699,21.348,64.4,14,Waypoint,
38.1644241,-120.1139071,5190.0952815686,192.913392,0,0.7443897876,25300,2018-05-11 17:30:02,17,0,22.168,5190.0952815686,192.913392,0.223694,0.94712273372,0,0,-0.671082,273.5, -1.8, 0.6,0,0,1024,1024,1024,1024,274.6,-89.9,96,3.717,3.668,3.666,3.676,3.734,3.699,21.348,64.4,14,Waypoint,
38.1644241,-120.1139071,5191.0795335686,193.897644,0,0.7443897876,25400,2018-05-11 17:30:03,17,0,22.168,5191.0795335686,193.897644,0.223694,0.94712273372,0,0,-0.671082,273.6, -1.9, 0.9,0,0,1024,1024,1024,1024,274.6,-89.9,96,3.717,3.668,3.666,3.676,3.734,3.699,21.348,64.4,14,Waypoint,
38.164424,-120.1139071,5192.0637855686,194.881896,0,0.76815291172,25500,2018-05-11 17:30:03,17,0,22.168,5192.0637855686,194.881896,0.223694,0.94712273372,0,0,-0.671082,273.9, -1.9, 1.1,0,0,1024,1024,1024,1024,274.6,-90,96,3.717,3.668,3.666,3.676,3.734,3.699,21.348,64.4,14,Waypoint,
38.1644239,-120.1139071,5193.0480375686,195.866148,0,0.79288388364,25600,2018-05-11 17:30:03,17,0,22.168,5193.0480375686,195.866148,0.223694,0.94712273372,0,0,-0.671082,274.3, -2, 1.5,0,0,1024,1024,1024,1024,274.6,-89.9,96,3.717,3.668,3.666,3.676,3.734,3.699,21.348,64.4,14,Waypoint,
38.1644239,-120.113907,5194.0322895686,196.8504,0,0.81388125964,25700,2018-05-11 17:30:03,17,0,22.168,5194.0322895686,196.8504,0.223694,0.94712273372,0,0,-0.671082,274.7, -2.1, 1.6,0,0,1024,1024,1024,1024,274.6,-90,96,3.717,3.668,3.666,3.676,3.734,3.699,21.348,64.4,14,Waypoint,
38.1644238,-120.113907,5195.0165415686,197.834652,0,0.83884845204,25810,2018-05-11 17:30:03,17,0,22.168,5195.0165415686,197.834652,0.223694,0.94712273372,0,0,-0.671082,274.8, -2.3, 1.4,0,0,1024,1024,1024,1024,274.6,-90,96,3.717,3.668,3.666,3.676,3.734,3.699,21.348,64.4,14,Waypoint,
38.1644238,-120.1139069,5196.0007935686,198.818904,0,0.85968178604,25900,2018-05-11 17:30:03,17,0,22.168,5196.0007935686,198.818904,0.223694,0.94712273372,0,0,-0.671082,274.7, -2.4, 0.8,0,0,1024,1024,1024,1024,274.6,-90,96,3.717,3.668,3.666,3.676,3.734,3.699,21.348,64.4,14,Waypoint,
38.1644238,-120.1139068,5198.9535495686,201.77166,0,0.8809547526,26210,2018-05-11 17:30:03,17,0,22.168,5198.9535495686,201.77166,0.223694,0.94712273372,0,0,-0.671082,274.3, -2.9, 0.3,0,0,1024,1024,1024,1024,274.6,-90,96,3.717,3.668,3.666,3.676,3.734,3.699,21.348,64.4,14,Waypoint,
38.1644238,-120.1139068,5199.9378015686,202.755912,0,0.8809547526,26300,2018-05-11 17:30:03,17,0,22.168,5199.9378015686,202.755912,0.223694,0.94712273372,0,0,-0.671082,274.4, -2.8, 0.6,0,0,1024,1024,1024,1024,274.6,-90,96,3.717,3.668,3.666,3.676,3.734,3.699,21.348,64.4,14,Waypoint,
38.1644238,-120.1139067,5201.5782215686,204.396332,0,0.90263782416,26500,2018-05-11 17:30:04,17,0,22.168,5201.5782215686,204.396332,0.223694,0.94712273372,0,0,-0.671082,274.4, -2.5, 0.7,0,0,1024,1024,1024,1024,274.6,-89.9,96,3.717,3.668,3.666,3.676,3.734,3.699,21.348,64.4,14,Waypoint,
38.1644239,-120.1139067,5203.5467255686,206.364836,0,0.87948165544,26800,2018-05-11 17:30:04,17,0,22.168,5203.5467255686,206.364836,0.223694,0.94712273372,0,0,-0.671082,273.9, -2.2, 0.4,0,0,1024,1024,1024,1024,274.6,-89.9,96,3.717,3.668,3.666,3.676,3.734,3.699,21.348,64.4,14,Waypoint,
38.164424,-120.1139067,5205.5152295686,208.33334,0,0.85725396444,26910,2018-05-11 17:30:04,17,0,22.168,5205.5152295686,208.33334,0.223694,0.94712273372,0,0,-0.671082,273.1, -1.9, -0.5,0,0,1024,1024,1024,1024,274.6,-90,96,3.717,3.668,3.666,3.676,3.734,3.699,21.348,64.4,14,Waypoint,
38.1644241,-120.1139067,5207.4837335686,210.301844,0,0.83603021048,27100,2018-05-11 17:30:04,17,0,22.168,5207.4837335686,210.301844,0.223694,0.94712273372,0,0,-0.671082,272.9, -2.2, -0.5,0,0,1024,1024,1024,1024,274.6,-90,96,3.717,3.668,3.666,3.676,3.734,3.699,21.348,64.4,14,Waypoint,
38.1644241,-120.1139066,5209.7803215686,212.598432,0,0.85980645796,27300,2018-05-11 17:30:04,17,0,22.168,5209.7803215686,212.598432,0.223694,0.94712273372,0,0,-0.671082,273.3, -3.1, 0.1,0,0,1024,1024,1024,1024,274.6,-90,96,3.717,3.668,3.666,3.676,3.734,3.699,21.348,64.4,14,Waypoint,
38.1644241,-120.1139066,5210.7645735686,213.582684,0,0.85980645796,27400,2018-05-11 17:30:05,17,0,22.168,5210.7645735686,213.582684,0.223694,0.94712273372,0,0,-0.671082,273.5, -3.3, 0.3,0,0,1024,1024,1024,1024,274.6,-90,96,3.717,3.668,3.666,3.676,3.734,3.699,21.348,64.4,14,Waypoint,
38.1644241,-120.1139065,5211.7488255686,214.566936,0,0.8838747002,27500,2018-05-11 17:30:05,17,0,22.168,5211.7488255686,214.566936,0.223694,0.94712273372,0,0,-0.671082,273.6, -3.1, 0.5,0,0,1024,1024,1024,1024,274.6,-89.9,96,3.717,3.668,3.666,3.676,3.734,3.699,21.348,64.4,14,Waypoint,
38.1644241,-120.1139064,5212.7330775686,215.551188,0,0.90821197132,27600,2018-05-11 17:30:05,17,0,22.168,5212.7330775686,215.551188,0.223694,0.94712273372,0,0,-0.671082,273.6, -3.3, 0.4,0,0,1024,1024,1024,1024,274.6,-90,96,3.717,3.668,3.666,3.676,3.734,3.699,21.348,64.4,14,Waypoint,
38.1644241,-120.1139063,5213.7173295686,216.53544,0,0.93279530544,27700,2018-05-11 17:30:05,17,0,22.168,5213.7173295686,216.53544,0.223694,0.94712273372,0,0,-0.671082,273.6, -3.5, 0.1,0,0,1024,1024,1024,1024,274.6,-90,96,3.717,3.668,3.666,3.676,3.734,3.699,21.348,64.4,14,Waypoint,
38.1644241,-120.1139063,5214.7015815686,217.519692,0,0.93279530544,27800,2018-05-11 17:30:05,17,0,22.168,5214.7015815686,217.519692,0.223694,0.94712273372,0,0,-0.671082,273.6, -3.8, 0,0,0,1024,1024,1024,1024,274.6,-90,96,3.717,3.668,3.666,3.676,3.734,3.699,21.348,64.4,14,Waypoint,
38.1644241,-120.1139062,5215.6858335686,218.503944,0,0.95760501752,27900,2018-05-11 17:30:05,17,0,22.168,5215.6858335686,218.503944,0.223694,0.95760501752,0,0,-0.671082,273.6, -4, 0.1,0,0,1024,1024,1024,1024,274.6,-90,96,3.717,3.668,3.666,3.676,3.734,3.699,21.348,64.4,14,Waypoint,
38.1644241,-120.1139061,5216.6700855686,219.488196,0,0.9826279842,28000,2018-05-11 17:30:05,17,0,22.165,5216.6700855686,219.488196,0.223694,0.9826279842,0,0,-0.671082,273.6, -4.1, 0.1,0,0,1024,1024,1024,1024,274.6,-90,95,3.715,3.667,3.665,3.684,3.736,3.691,21.056,64.4,14,Waypoint,
38.1644241,-120.1139061,5217.6543375686,220.472448,0,0.9826279842,28100,2018-05-11 17:30:05,17,0,22.165,5217.6543375686,220.472448,0.223694,0.9826279842,0,0,-0.671082,273.7, -4.1, 0,0,0,1024,1024,1024,1024,274.6,-89.9,95,3.715,3.667,3.665,3.684,3.736,3.691,21.056,64.4,14,Waypoint,
