Latitude, Longitude, Altitude (m), Time, Sats, Speed (m/s), Range (m), Battery (%), Roll (deg), Pitch (deg), Yaw (deg), Images, HD Signal (%), RC Signal (%), Battery Temp (C), Battery Voltage (mV), Battery Current (mA), Battery Energy (mAh), Battery Capacity (mAh), Battery Discharges, flyState, timestamp (Unix), LastUpdate (ms), radioChannel, Rc_elevator, Rc_aileron, Rc_throttle, Rc_rudder, Rc_gyro, Dronetype, Battery_Cell1 (mV), Battery_Cell2 (mV), Battery_Cell3 (mV), Battery_Cell4 (mV), Battery_Cell5 (mV), Battery_Cell6 (mV), Video, isFlying, elapsedTime (ms), gimbalPitch (deg), gimbalRoll (deg), gimbalYaw (deg), VelocityX (m/s), VelocityY (m/s), VelocityZ (m/s), GroundSmear (cm), App Version, Aircraft Name, Aircraft Firmware, Aircraft Serial Number, Battery Serial Number, Battery Lifetime (%), App_Tip, App_Warning, CurrentFlightStartingIndex, CurrentFlightLastVisitedWaypoint, PreviousFlightEndingWaypointIndex
38.1644370, -120.1138963, -0.100, 11:54:19.384, 19, 0.10, 0.03, 98, -2.200, 2.200, -90.600, 1421, 100, 100, 20, 25573, -3145, 5325, 5434, 14, 11, 1526064859.385, 61, 0, 1024, 1024, 1024, 1024, 0, 6, 4238, 4261, 4283, 4234, 4242, 4259, 0, 1, 2963, -89.900, 0.000, -88.900, -0.100, 0.000, -0.100, 0.0, MapPilot_2.8.1_04242018, Dendroctonus I, 1.3.1.00, 041DDC1887, 1058171200162, 97, DJI_0470.jpg, Starting Mission from Lat/Long: 38.16445/-120.11389 Camera: Zenmuse X3 - Overlap: 90/90 - Active Connection: No, 53, 53, 53
38.1644370, -120.1138963, -0.100, 11:54:19.422, 19, 0.10, 0.03, 98, -2.200, 2.200, -90.600, 1421, 100, 100, 20, 25573, -3145, 5325, 5434, 14, 11, 1526064859.423, 99, 0, 1024, 1024, 1024, 1024, 0, 6, 4238, 4261, 4283, 4234, 4242, 4259, 0, 1, 3001, -89.900, 0.000, -88.900, -0.100, 0.000, -0.100, 0.0, , , , , , 97, , , 53, 53, 53
38.1644368, -120.1138962, -0.100, 11:54:19.522, 19, 0.20, 0.05, 98, -1.600, 2.100, -90.600, 1421, 100, 100, 20, 25573, -3145, 5325, 5434, 14, 11, 1526064859.523, 95, 0, 1024, 1024, 1024, 1024, 0, 6, 4238, 4261, 4283, 4234, 4242, 4259, 0, 1, 3101, -90.000, 0.000, -88.900, -0.200, 0.000, -0.200, 0.0, , , , , , 97, , , 53, 53, 53
38.1644364, -120.1138959, 0.000, 11:54:19.622, 19, 0.22, 0.10, 98, 0.100, -0.300, -90.400, 1421, 100, 100, 20, 25573, -3145, 5325, 5434, 14, 11, 1526064859.623, 79, 0, 1024, 1024, 1024, 1024, 0, 6, 4238, 4261, 4283, 4234, 4242, 4259, 0, 1, 3201, -89.900, 0.000, -88.900, -0.200, 0.100, -0.300, 0.0, , , , , , 97, , , 53, 53, 53
38.1644361, -120.1138957, 0.000, 11:54:19.722, 19, 0.22, 0.13, 98, 1.300, -0.800, -90.400, 1421, 100, 100, 20, 25573, -3145, 5325, 5434, 14, 11, 1526064859.723, 70, 0, 1024, 1024, 1024, 1024, 0, 6, 4238, 4261, 4283, 4234, 4242, 4259, 0, 1, 3301, -90.000, 0.000, -89.000, -0.200, 0.100, -0.400, 0.0, , , , , , 97, , , 53, 53, 53
38.1644359, -120.1138956, 0.000, 11:54:19.822, 19, 0.22, 0.16, 98, 2.200, -1.100, -90.300, 1421, 100, 100, 20, 25573, -3145, 5325, 5434, 14, 11, 1526064859.823, 83, 0, 1024, 1024, 1024, 1024, 0, 6, 4238, 4261, 4283, 4234, 4242, 4259, 0, 1, 3401, -90.000, 0.000, -89.000, -0.200, 0.100, -0.300, 0.0, , , , , , 97, , , 53, 53, 53
38.1644357, -120.1138954, 0.100, 11:54:19.922, 19, 0.22, 0.18, 98, 3.100, -1.400, -90.200, 1421, 100, 100, 20, 24502, -11700, 5325, 5434, 14, 11, 1526064859.923, 64, 0, 1024, 1024, 1024, 1024, 0, 6, 4048, 4060, 4083, 4045, 4025, 4058, 0, 1, 3501, -90.000, 0.000, -89.000, -0.200, 0.100, -0.300, 0.0, , , , , , 97, , , 53, 53, 53
38.1644355, -120.1138954, 0.100, 11:54:20.022, 19, 0.10, 0.20, 98, 3.400, -1.000, -90.100, 1421, 100, 100, 20, 24502, -11700, 5325, 5434, 14, 11, 1526064860.023, 51, 0, 1024, 1024, 1024, 1024, 0, 6, 4048, 4060, 4083, 4045, 4025, 4058, 0, 1, 3601, -89.900, 0.000, -89.000, -0.100, 0.000, -0.400, 0.0, , , , , , 97, , , 53, 53, 53
38.1644354, -120.1138953, 0.100, 11:54:20.122, 19, 0.10, 0.22, 98, 2.800, -0.600, -90.000, 1421, 100, 100, 20, 24502, -11700, 5325, 5434, 14, 11, 1526064860.123, 41, 0, 1024, 1024, 1024, 1024, 0, 6, 4048, 4060, 4083, 4045, 4025, 4058, 0, 1, 3701, -89.900, 0.000, -89.000, -0.100, 0.000, -0.300, 0.0, , , , , , 97, , , 53, 53, 53
38.1644353, -120.1138952, 0.200, 11:54:20.222, 21, 0.10, 0.23, 98, 2.000, -0.400, -90.000, 1421, 100, 100, 20, 24502, -11700, 5325, 5434, 14, 11, 1526064860.223, 48, 0, 1024, 1024, 1024, 1024, 0, 6, 4048, 4060, 4083, 4045, 4025, 4058, 0, 1, 3801, -89.900, 0.000, -89.100, -0.100, 0.000, -0.400, 0.0, , , , , , 97, , , 53, 53, 53
38.1644352, -120.1138952, 0.200, 11:54:20.322, 21, 0.00, 0.24, 98, 1.700, -0.200, -90.200, 1421, 100, 100, 20, 24502, -11700, 5325, 5434, 14, 11, 1526064860.323, 39, 0, 1024, 1024, 1024, 1024, 0, 6, 4048, 4060, 4083, 4045, 4025, 4058, 0, 1, 3901, -89.900, 0.000, -89.100, 0.000, 0.000, -0.400, 0.0, , , , , , 97, , , 53, 53, 53
38.1644351, -120.1138951, 0.300, 11:54:20.422, 19, 0.00, 0.25, 98, 1.300, -0.200, -90.600, 1421, 100, 100, 20, 24502, -11700, 5325, 5434, 14, 11, 1526064860.423, 46, 0, 1024, 1024, 1024, 1024, 0, 6, 4048, 4060, 4083, 4045, 4025, 4058, 0, 1, 4001, -89.900, 0.000, -89.100, 0.000, 0.000, -0.500, 0.0, , , , , , 97, , , 53, 53, 53
38.1644350, -120.1138951, 0.400, 11:54:20.522, 19, 0.00, 0.27, 98, 1.300, -0.200, -91.100, 1421, 100, 100, 20, 24502, -11700, 5325, 5434, 14, 11, 1526064860.524, 38, 0, 1024, 1024, 1024, 1024, 0, 6, 4048, 4060, 4083, 4045, 4025, 4058, 0, 1, 4102, -89.900, 0.000, -89.100, 0.000, 0.000, -0.600, 0.0, , , , , , 97, , , 53, 53, 53
38.1644349, -120.1138950, 0.400, 11:54:20.622, 19, 0.00, 0.28, 98, 1.000, -0.300, -91.500, 1421, 100, 100, 20, 24502, -11700, 5325, 5434, 14, 11, 1526064860.623, 50, 0, 1024, 1024, 1024, 1024, 0, 6, 4048, 4060, 4083, 4045, 4025, 4058, 0, 1, 4201, -89.900, 0.000, -89.200, 0.000, 0.000, -0.500, 0.0, , , , , , 97, , , 53, 53, 53
38.1644349, -120.1138949, 0.500, 11:54:20.722, 19, 0.00, 0.28, 98, 0.800, -0.800, -91.800, 1421, 100, 100, 20, 24502, -11700, 5325, 5434, 14, 11, 1526064860.723, 50, 0, 1024, 1024, 1024, 1024, 0, 6, 4048, 4060, 4083, 4045, 4025, 4058, 0, 1, 4301, -90.000, 0.000, -89.200, 0.000, 0.000, -0.500, 0.0, , , , , , 97, , , 53, 53, 53
38.1644348, -120.1138947, 0.500, 11:54:20.822, 20, 0.00, 0.29, 98, 0.600, -1.200, -91.900, 1421, 100, 100, 20, 23762, -17135, 5325, 5434, 14, 11, 1526064860.823, 22, 0, 1024, 1024, 1024, 1024, 0, 6, 3935, 3977, 3962, 3957, 3938, 3959, 0, 1, 4401, -90.000, 0.000, -89.200, 0.000, 0.000, -0.500, 0.0, , , , , , 97, , , 53, 53, 53
38.1644348, -120.1138947, 0.600, 11:54:20.922, 20, 0.00, 0.30, 98, 0.700, -1.300, -91.800, 1421, 100, 100, 20, 23762, -17135, 5325, 5434, 14, 11, 1526064860.923, 29, 0, 1024, 1024, 1024, 1024, 0, 6, 3935, 3977, 3962, 3957, 3938, 3959, 0, 1, 4501, -90.000, 0.000, -89.200, 0.000, 0.000, -0.400, 0.0, , , , , , 97, , , 53, 53, 53
38.1644347, -120.1138946, 0.600, 11:54:21.022, 20, 0.00, 0.31, 98, 0.900, -1.400, -91.500, 1421, 100, 100, 20, 23762, -17135, 5325, 5434, 14, 11, 1526064861.023, 22, 0, 1024, 1024, 1024, 1024, 0, 6, 3935, 3977, 3962, 3957, 3938, 3959, 0, 1, 4601, -90.000, 0.000, -89.200, 0.000, 0.000, -0.400, 0.0, , , , , , 97, , , 53, 53, 53
38.1644346, -120.1138946, 0.700, 11:54:21.122, 20, 0.00, 0.33, 98, 1.200, -1.200, -91.100, 1421, 100, 100, 20, 23762, -17135, 5325, 5434, 14, 11, 1526064861.123, 22, 0, 1024, 1024, 1024, 1024, 0, 6, 3935, 3977, 3962, 3957, 3938, 3959, 0, 1, 4701, -90.000, 0.000, -89.300, 0.000, 0.000, -0.500, 0.0, , , , , , 97, , , 53, 53, 53
38.1644345, -120.1138945, 0.800, 11:54:21.222, 18, 0.00, 0.34, 98, 1.500, -1.200, -90.500, 1421, 100, 100, 20, 23762, -17135, 5325, 5434, 14, 11, 1526064861.223, 28, 0, 1024, 1024, 1024, 1024, 0, 6, 3935, 3977, 3962, 3957, 3938, 3959, 0, 1, 4802, -89.900, 0.000, -89.300, 0.000, 0.000, -0.500, 0.0, , , , , , 97, , , 53, 53, 53
38.1644345, -120.1138945, 0.800, 11:54:21.322, 18, 0.00, 0.34, 98, 1.500, -1.200, -90.500, 1421, 100, 100, 20, 23762, -17135, 5325, 5434, 14, 11, 1526064861.323, 128, 0, 1024, 1024, 1024, 1024, 0, 6, 3935, 3977, 3962, 3957, 3938, 3959, 0, 1, 4901, -89.900, 0.000, -89.300, 0.000, 0.000, -0.500, 0.0, , , , , , 97, , , 53, 53, 53
38.1644344, -120.1138945, 0.800, 11:54:21.422, 18, 0.00, 0.34, 98, 1.800, -1.200, -90.100, 1421, 100, 100, 20, 23762, -17135, 5325, 5434, 14, 11, 1526064861.423, 94, 0, 1024, 1024, 1024, 1024, 0, 6, 3935, 3977, 3962, 3957, 3938, 3959, 0, 1, 5001, -89.900, 0.000, -89.300, 0.000, 0.000, -0.500, 0.0, , , , , , 97, , , 53, 53, 53
38.1644344, -120.1138945, 0.900, 11:54:21.525, 17, 0.00, 0.35, 98, 1.800, -1.200, -89.600, 1421, 100, 100, 20, 23762, -17135, 5325, 5434, 14, 14, 1526064861.525, 3, 0, 1024, 1024, 1024, 1024, 0, 6, 3935, 3977, 3962, 3957, 3938, 3959, 0, 1, 5103, -90.000, 0.000, -89.300, 0.000, 0.000, -0.400, 0.0, , , , , , 97, , , 53, 53, 53
38.1644344, -120.1138945, 0.900, 11:54:21.622, 17, 0.00, 0.35, 98, 1.800, -1.200, -89.600, 1421, 100, 100, 20, 23762, -17135, 5325, 5434, 14, 14, 1526064861.623, 101, 0, 1024, 1024, 1024, 1024, 0, 6, 3935, 3977, 3962, 3957, 3938, 3959, 0, 1, 5201, -89.900, 0.000, -89.300, 0.000, 0.000, -0.400, 0.0, , , , , , 97, , , 53, 53, 53
38.1644344, -120.1138944, 1.000, 11:54:21.722, 17, 0.00, 0.35, 98, 0.900, -1.200, -89.400, 1421, 100, 100, 20, 23762, -17135, 5325, 5434, 14, 14, 1526064861.723, 94, 0, 1024, 1024, 1024, 1024, 0, 6, 3935, 3977, 3962, 3957, 3938, 3959, 0, 1, 5301, -89.900, 0.000, -89.300, 0.000, 0.000, -0.300, 0.0, , , , , , 97, , , 53, 53, 53
38.1644344, -120.1138945, 1.000, 11:54:21.822, 17, 0.00, 0.35, 98, 0.100, -0.900, -89.100, 1421, 100, 100, 20, 23762, -17135, 5325, 5434, 14, 14, 1526064861.823, 83, 0, 1024, 1024, 1024, 1024, 0, 6, 3935, 3977, 3962, 3957, 3938, 3959, 0, 1, 5401, -89.900, 0.000, -89.300, 0.000, 0.000, -0.200, 0.0, , , , , , 97, , , 53, 53, 53
38.1644344, -120.1138946, 1.000, 11:54:21.922, 17, 0.00, 0.35, 98, -0.100, -0.500, -88.900, 1421, 100, 100, 20, 23631, -16599, 5325, 5434, 14, 14, 1526064861.922, 85, 0, 1024, 1024, 1024, 1024, 0, 6, 3935, 3977, 3962, 3957, 3938, 3959, 0, 1, 5501, -89.900, 0.000, -89.300, 0.000, 0.000, -0.300, 0.0, , , , , , 97, , , 53, 53, 53
38.1644344, -120.1138946, 1.000, 11:54:22.022, 17, 0.00, 0.34, 98, 0.000, 0.000, -88.900, 1421, 100, 100, 20, 23631, -16599, 5325, 5434, 14, 14, 1526064862.023, 78, 0, 1024, 1024, 1024, 1024, 0, 6, 3935, 3977, 3962, 3957, 3938, 3959, 0, 1, 5601, -89.900, 0.000, -89.300, 0.000, 0.000, -0.300, 0.0, , , , , , 97, , , 53, 53, 53
38.1644344, -120.1138946, 1.100, 11:54:22.122, 18, 0.00, 0.35, 98, 0.300, 0.100, -88.800, 1421, 100, 100, 20, 23631, -16599, 5325, 5434, 14, 14, 1526064862.123, 52, 0, 1024, 1024, 1024, 1024, 0, 6, 3935, 3977, 3962, 3957, 3938, 3959, 0, 1, 5702, -89.900, 0.000, -89.300, 0.000, 0.000, -0.400, 0.0, , , , , , 97, , , 53, 53, 53
38.1644343, -120.1138946, 1.100, 11:54:22.222, 18, 0.00, 0.35, 98, 0.400, 0.000, -88.900, 1421, 100, 100, 20, 23631, -16599, 5325, 5434, 14, 14, 1526064862.223, 65, 0, 1024, 1024, 1024, 1024, 0, 6, 3935, 3977, 3962, 3957, 3938, 3959, 0, 1, 5801, -89.900, 0.000, -89.300, 0.000, 0.000, -0.600, 0.0, , , , , , 97, , , 53, 53, 53
38.1644342, -120.1138945, 1.300, 11:54:22.322, 17, 0.00, 0.36, 98, 1.000, -0.400, -89.200, 1421, 100, 100, 20, 23631, -16599, 5325, 5434, 14, 14, 1526064862.322, 59, 0, 1024, 1024, 1024, 1024, 0, 6, 3935, 3977, 3962, 3957, 3938, 3959, 0, 1, 5901, -89.900, 0.000, -89.300, 0.000, 0.000, -1.000, 0.0, , , , , , 97, , , 53, 53, 53
38.1644342, -120.1138944, 1.400, 11:54:22.422, 17, 0.00, 0.36, 98, 0.900, -0.500, -89.200, 1421, 100, 99, 20, 23631, -16599, 5325, 5434, 14, 14, 1526064862.423, 56, 0, 1024, 1024, 1024, 1024, 0, 6, 3935, 3977, 3962, 3957, 3938, 3959, 0, 1, 6002, -90.000, 0.000, -89.300, 0.000, 0.000, -1.200, 0.0, , , , , , 97, , , 53, 53, 53
38.1644343, -120.1138943, 1.600, 11:54:22.522, 17, 0.00, 0.36, 98, 0.800, -1.000, -89.200, 1421, 100, 99, 20, 23631, -16599, 5325, 5434, 14, 14, 1526064862.523, 73, 0, 1024, 1024, 1024, 1024, 0, 6, 3918, 3956, 3951, 3948, 3931, 3943, 0, 1, 6101, -90.000, 0.000, -89.300, 0.000, 0.000, -1.300, 0.0, , , , , , 97, , , 53, 53, 53
38.1644344, -120.1138943, 1.700, 11:54:22.622, 17, 0.00, 0.36, 98, 0.700, -1.000, -89.100, 1421, 100, 99, 20, 23631, -16599, 5325, 5434, 14, 14, 1526064862.623, 77, 0, 1024, 1024, 1024, 1024, 0, 6, 3918, 3956, 3951, 3948, 3931, 3943, 0, 1, 6201, -90.000, 0.000, -89.300, 0.000, 0.000, -1.500, 0.0, , , , , , 97, , , 53, 53, 53
38.1644344, -120.1138943, 1.900, 11:54:22.722, 17, 0.00, 0.36, 98, 0.600, -0.900, -88.900, 1421, 100, 99, 20, 23631, -16599, 5325, 5434, 14, 14, 1526064862.723, 67, 0, 1024, 1024, 1024, 1024, 0, 6, 3918, 3956, 3951, 3948, 3931, 3943, 0, 1, 6302, -90.000, 0.000, -89.300, 0.000, 0.000, -1.800, 0.0, , , , , , 97, , , 53, 53, 53
38.1644344, -120.1138942, 2.100, 11:54:22.822, 19, 0.00, 0.36, 98, 0.800, -1.100, -88.800, 1421, 100, 99, 20, 23631, -16599, 5325, 5434, 14, 14, 1526064862.823, 67, 0, 1024, 1024, 1024, 1024, 0, 6, 3918, 3956, 3951, 3948, 3931, 3943, 0, 1, 6401, -90.000, 0.000, -89.300, 0.000, 0.000, -2.100, 0.0, , , , , , 97, , , 53, 53, 53
38.1644345, -120.1138941, 2.300, 11:54:22.922, 19, 0.00, 0.35, 98, 1.100, -1.400, -88.600, 1421, 100, 99, 20, 23631, -16599, 5325, 5434, 14, 14, 1526064862.923, 59, 0, 1024, 1024, 1024, 1024, 0, 6, 3918, 3956, 3951, 3948, 3931, 3943, 0, 1, 6501, -90.000, 0.000, -89.300, 0.000, 0.000, -2.300, 0.0, , , , , , 97, , , 53, 53, 53
38.1644347, -120.1138940, 2.500, 11:54:23.022, 17, 0.00, 0.34, 98, 1.000, -1.300, -88.400, 1421, 100, 99, 20, 23631, -16599, 5325, 5434, 14, 14, 1526064863.024, 33, 0, 1024, 1024, 1024, 1024, 0, 6, 3918, 3956, 3951, 3948, 3931, 3943, 0, 1, 6602, -90.000, 0.000, -89.300, 0.000, 0.000, -2.500, 0.0, , , , , , 97, , , 53, 53, 53
38.1644349, -120.1138939, 2.800, 11:54:23.123, 17, 0.10, 0.33, 98, 0.000, -1.200, -88.200, 1421, 100, 99, 20, 23631, -16599, 5325, 5434, 14, 14, 1526064863.124, 41, 0, 1024, 1024, 1024, 1024, 0, 6, 3918, 3956, 3951, 3948, 3931, 3943, 0, 1, 6702, -90.000, 0.000, -89.300, 0.100, 0.000, -2.700, 0.0, , , , , , 97, , , 53, 53, 53
38.1644351, -120.1138939, 3.100, 11:54:23.222, 18, 0.10, 0.31, 98, -0.900, -1.100, -88.000, 1421, 100, 99, 20, 23631, -16599, 5325, 5434, 14, 14, 1526064863.223, 52, 0, 1024, 1024, 1024, 1024, 0, 6, 3918, 3956, 3951, 3948, 3931, 3943, 0, 1, 6802, -89.900, 0.000, -89.300, 0.100, 0.000, -2.900, 0.0, , , , , , 97, , , 53, 53, 53
38.1644352, -120.1138939, 3.400, 11:54:23.323, 18, 0.10, 0.30, 98, -1.500, -0.900, -88.100, 1421, 100, 99, 20, 23419, -18553, 5325, 5434, 14, 14, 1526064863.324, 43, 0, 1024, 1024, 1024, 1024, 0, 6, 3881, 3940, 3868, 3880, 3858, 3893, 0, 1, 6902, -89.900, 0.000, -89.300, 0.100, 0.000, -3.000, 0.0, , , , , , 97, , , 53, 53, 53
38.1644354, -120.1138938, 3.700, 11:54:23.422, 19, 0.00, 0.28, 98, -1.700, -0.700, -88.500, 1421, 100, 99, 20, 23419, -18553, 5325, 5434, 14, 14, 1526064863.423, 31, 0, 1024, 1024, 1024, 1024, 0, 6, 3881, 3940, 3868, 3880, 3858, 3893, 0, 1, 7001, -89.900, 0.000, -89.300, 0.000, 0.000, -3.200, 0.0, , , , , , 97, , , 53, 53, 53
38.1644356, -120.1138937, 4.000, 11:54:23.523, 19, 0.00, 0.28, 98, -1.800, -1.100, -88.900, 1421, 100, 99, 20, 23419, -18553, 5325, 5434, 14, 14, 1526064863.523, 31, 0, 1024, 1024, 1024, 1024, 0, 6, 3881, 3940, 3868, 3880, 3858, 3893, 0, 1, 7102, -90.000, 0.000, -89.300, 0.000, 0.000, -3.200, 0.0, , , , , , 97, , , 53, 53, 53
38.1644358, -120.1138936, 4.400, 11:54:23.622, 18, 0.00, 0.27, 98, -1.800, -1.300, -89.200, 1421, 100, 99, 20, 23419, -18553, 5325, 5434, 14, 14, 1526064863.623, 19, 0, 1024, 1024, 1024, 1024, 0, 6, 3881, 3940, 3868, 3880, 3858, 3893, 0, 1, 7201, -90.000, 0.000, -89.300, 0.000, 0.000, -3.300, 0.0, , , , , , 97, , , 53, 53, 53
38.1644360, -120.1138935, 4.700, 11:54:23.722, 18, 0.00, 0.27, 98, -2.200, -1.300, -89.400, 1421, 100, 99, 20, 23419, -18553, 5325, 5434, 14, 14, 1526064863.724, 25, 0, 1024, 1024, 1024, 1024, 0, 6, 3881, 3940, 3868, 3880, 3858, 3893, 0, 1, 7302, -89.900, 0.000, -89.300, 0.000, 0.000, -3.200, 0.0, , , , , , 97, , , 53, 53, 53
38.1644362, -120.1138934, 5.100, 11:54:23.822, 18, 0.00, 0.26, 98, -2.400, -1.300, -89.400, 1421, 100, 99, 20, 23419, -18553, 5325, 5434, 14, 14, 1526064863.822, 23, 0, 1024, 1024, 1024, 1024, 0, 6, 3881, 3940, 3868, 3880, 3858, 3893, 0, 1, 7400, -90.000, 0.000, -89.300, 0.000, 0.000, -3.200, 0.0, , , , , , 97, , , 53, 53, 53
38.1644363, -120.1138934, 5.400, 11:54:23.922, 18, 0.00, 0.25, 98, -2.400, -1.300, -89.400, 1421, 100, 100, 20, 23419, -18553, 5325, 5434, 14, 14, 1526064863.922, 14, 0, 1024, 1024, 1024, 1024, 0, 6, 3881, 3940, 3868, 3880, 3858, 3893, 0, 1, 7501, -90.000, 0.000, -89.300, 0.000, 0.000, -3.300, 0.0, , , , , , 97, , , 53, 53, 53
38.1644364, -120.1138934, 5.700, 11:54:24.031, 18, 0.00, 0.25, 98, -2.100, -1.200, -89.300, 1421, 100, 100, 20, 23419, -18553, 5325, 5434, 14, 14, 1526064864.032, 5, 0, 1024, 1024, 1024, 1024, 0, 6, 3881, 3940, 3868, 3880, 3858, 3893, 0, 1, 7610, -90.000, 0.000, -89.300, 0.000, 0.000, -3.200, 0.0, , , , , , 97, , , 53, 53, 53
38.1644364, -120.1138934, 5.700, 11:54:24.122, 18, 0.00, 0.25, 98, -2.100, -1.200, -89.300, 1421, 100, 100, 20, 23419, -18553, 5325, 5434, 14, 14, 1526064864.122, 95, 0, 1024, 1024, 1024, 1024, 0, 6, 3881, 3940, 3868, 3880, 3858, 3893, 0, 1, 7700, -89.900, 0.000, -89.300, 0.000, 0.000, -3.200, 0.0, , , , , , 97, , , 53, 53, 53
38.1644365, -120.1138935, 6.100, 11:54:24.222, 18, 0.00, 0.25, 98, -1.800, -0.800, -89.100, 1421, 100, 100, 20, 23419, -18553, 5325, 5434, 14, 14, 1526064864.223, 64, 0, 1024, 1024, 1024, 1024, 0, 6, 3881, 3940, 3868, 3880, 3858, 3893, 0, 1, 7802, -89.900, 0.000, -89.300, 0.000, 0.000, -3.300, 0.0, , , , , , 97, , , 53, 53, 53
38.1644365, -120.1138937, 6.700, 11:54:24.328, 18, 0.00, 0.23, 98, -1.600, -0.200, -88.900, 1421, 100, 100, 20, 23419, -18553, 5325, 5434, 14, 14, 1526064864.329, 6, 0, 1024, 1024, 1024, 1024, 0, 6, 3881, 3940, 3868, 3880, 3858, 3893, 0, 1, 7907, -89.900, 0.000, -89.300, 0.000, 0.000, -3.200, 0.0, , , , , , 97, , , 53, 53, 53
38.1644365, -120.1138937, 6.700, 11:54:24.423, 18, 0.00, 0.23, 98, -1.600, -0.200, -88.900, 1421, 100, 100, 20, 22797, -24357, 5325, 5434, 14, 14, 1526064864.424, 101, 0, 1024, 1024, 1024, 1024, 0, 6, 3881, 3940, 3868, 3880, 3858, 3893, 0, 1, 8002, -89.900, 0.000, -89.300, 0.000, 0.000, -3.200, 0.0, , , , , , 97, , , 53, 53, 53
38.1644364, -120.1138940, 7.400, 11:54:24.522, 18, 0.10, 0.21, 98, -1.000, 0.100, -89.000, 1421, 100, 100, 20, 22797, -24357, 5325, 5434, 14, 14, 1526064864.525, 73, 0, 1024, 1024, 1024, 1024, 0, 6, 3881, 3940, 3868, 3880, 3858, 3893, 0, 1, 8104, -89.900, 0.000, -89.300, -0.100, 0.000, -3.200, 0.0, , , , , , 97, , , 53, 53, 53
38.1644363, -120.1138941, 7.700, 11:54:24.622, 19, 0.10, 0.21, 98, -0.600, 0.200, -89.100, 1421, 100, 100, 20, 22797, -24357, 5325, 5434, 14, 14, 1526064864.624, 78, 0, 1024, 1024, 1024, 1024, 0, 6, 3791, 3824, 3813, 3805, 3793, 3807, 0, 1, 8203, -89.900, 0.000, -89.300, -0.100, 0.000, -3.100, 0.0, , , , , , 97, , , 53, 53, 53
38.1644361, -120.1138942, 8.000, 11:54:24.723, 19, 0.10, 0.21, 98, 0.000, 0.000, -89.200, 1421, 100, 100, 20, 22797, -24357, 5325, 5434, 14, 14, 1526064864.725, 45, 0, 1024, 1024, 1024, 1024, 0, 6, 3791, 3824, 3813, 3805, 3793, 3807, 0, 1, 8303, -89.900, 0.000, -89.300, -0.100, 0.000, -3.200, 0.0, , , , , , 97, , , 53, 53, 53
38.1644359, -120.1138944, 8.400, 11:54:24.823, 18, 0.10, 0.21, 98, 0.200, -0.100, -89.300, 1421, 100, 100, 20, 22797, -24357, 5325, 5434, 14, 14, 1526064864.824, 58, 0, 1024, 1024, 1024, 1024, 0, 6, 3791, 3824, 3813, 3805, 3793, 3807, 0, 1, 8402, -89.900, 0.000, -89.300, -0.100, 0.000, -3.300, 0.0, , , , , , 97, , , 53, 53, 53
38.1644357, -120.1138946, 8.700, 11:54:24.922, 18, 0.10, 0.22, 98, 0.100, 0.000, -89.200, 1421, 100, 100, 20, 22797, -24357, 5325, 5434, 14, 14, 1526064864.924, 63, 0, 1024, 1024, 1024, 1024, 0, 6, 3791, 3824, 3813, 3805, 3793, 3807, 0, 1, 8502, -89.900, 0.000, -89.300, -0.100, 0.000, -3.300, 0.0, , , , , , 97, , , 53, 53, 53
38.1644355, -120.1138947, 9.100, 11:54:25.023, 17, 0.10, 0.23, 98, 0.300, 0.400, -89.100, 1421, 100, 100, 20, 22797, -24357, 5325, 5434, 14, 14, 1526064865.024, 48, 0, 1024, 1024, 1024, 1024, 0, 6, 3791, 3824, 3813, 3805, 3793, 3807, 0, 1, 8602, -89.900, 0.000, -89.300, -0.100, 0.000, -3.200, 0.0, , , , , , 97, , , 53, 53, 53
38.1644353, -120.1138949, 9.400, 11:54:25.123, 17, 0.10, 0.24, 98, 0.500, 0.700, -89.000, 1421, 100, 100, 20, 22797, -24357, 5325, 5434, 14, 14, 1526064865.126, 47, 0, 1024, 1024, 1024, 1024, 0, 6, 3791, 3824, 3813, 3805, 3793, 3807, 0, 1, 8704, -89.900, 0.000, -89.300, -0.100, 0.000, -3.100, 0.0, , , , , , 97, , , 53, 53, 53
38.1644352, -120.1138951, 9.700, 11:54:25.225, 19, 0.00, 0.25, 98, 0.600, 0.900, -88.900, 1421, 100, 100, 20, 22797, -24357, 5325, 5434, 14, 14, 1526064865.227, 25, 0, 1024, 1024, 1024, 1024, 0, 6, 3791, 3824, 3813, 3805, 3793, 3807, 0, 1, 8805, -89.900, 0.000, -89.300, 0.000, 0.000, -3.200, 0.0, , , , , , 97, , , 53, 53, 53
38.1644350, -120.1138952, 10.100, 11:54:25.323, 19, 0.00, 0.26, 98, 0.400, 0.900, -88.800, 1421, 100, 100, 20, 22797, -24357, 5325, 5434, 14, 14, 1526064865.326, 31, 0, 1024, 1024, 1024, 1024, 0, 6, 3791, 3824, 3813, 3805, 3793, 3807, 0, 1, 8904, -89.900, 0.000, -89.300, 0.000, 0.000, -3.100, 0.0, , , , , , 97, , , 53, 53, 53
38.1644349, -120.1138952, 10.400, 11:54:25.430, 19, 0.00, 0.27, 97, 0.200, 0.800, -88.700, 1421, 100, 100, 20, 23081, -19699, 5270, 5434, 14, 14, 1526064865.430, 21, 0, 1024, 1024, 1024, 1024, 0, 6, 3791, 3824, 3813, 3805, 3793, 3807, 0, 1, 9009, -89.900, 0.000, -89.300, 0.000, 0.000, -3.100, 0.0, , , , , , 97, , , 53, 53, 53
38.1644348, -120.1138953, 10.700, 11:54:25.522, 19, 0.00, 0.28, 97, 0.100, 0.700, -88.600, 1421, 100, 100, 20, 23081, -19699, 5270, 5434, 14, 14, 1526064865.523, 13, 0, 1024, 1024, 1024, 1024, 0, 6, 3791, 3824, 3813, 3805, 3793, 3807, 0, 1, 9102, -89.900, 0.000, -89.300, 0.000, 0.000, -3.100, 0.0, , , , , , 97, , , 53, 53, 53
38.1644346, -120.1138954, 11.000, 11:54:25.625, 20, 0.00, 0.30, 97, 0.300, 0.600, -88.600, 1421, 100, 100, 20, 23081, -19699, 5270, 5434, 14, 14, 1526064865.626, 25, 0, 1024, 1024, 1024, 1024, 0, 6, 3827, 3859, 3869, 3864, 3853, 3858, 0, 1, 9204, -89.900, 0.000, -89.300, 0.000, 0.000, -3.000, 0.0, , , , , , 97, , , 53, 53, 53
38.1644345, -120.1138954, 11.300, 11:54:25.724, 20, 0.00, 0.32, 97, 0.700, 0.500, -88.700, 1421, 100, 100, 20, 23081, -19699, 5270, 5434, 14, 14, 1526064865.726, 28, 0, 1024, 1024, 1024, 1024, 0, 6, 3827, 3859, 3869, 3864, 3853, 3858, 0, 1, 9304, -89.900, 0.000, -89.300, 0.000, 0.000, -2.900, 0.0, , , , , , 97, , , 53, 53, 53
38.1644343, -120.1138955, 11.600, 11:54:25.824, 17, 0.00, 0.33, 97, 0.900, 0.500, -88.800, 1421, 100, 100, 20, 23081, -19699, 5270, 5434, 14, 14, 1526064865.825, 14, 0, 1024, 1024, 1024, 1024, 0, 6, 3827, 3859, 3869, 3864, 3853, 3858, 0, 1, 9403, -89.900, 0.000, -89.300, 0.000, 0.000, -2.900, 0.0, , , , , , 97, , , 53, 53, 53
38.1644342, -120.1138956, 11.900, 11:54:25.924, 17, 0.00, 0.34, 97, 0.700, 0.500, -88.900, 1421, 100, 99, 20, 23081, -19699, 5270, 5434, 14, 14, 1526064865.925, 10, 0, 1024, 1024, 1024, 1024, 0, 6, 3827, 3859, 3869, 3864, 3853, 3858, 0, 1, 9503, -89.900, 0.000, -89.300, 0.000, 0.000, -3.000, 0.0, , , , , , 97, , , 53, 53, 53
38.1644341, -120.1138956, 12.300, 11:54:26.042, 19, 0.00, 0.36, 97, 0.600, 0.600, -89.000, 1421, 100, 99, 20, 23081, -19699, 5270, 5434, 14, 14, 1526064866.043, 13, 0, 1024, 1024, 1024, 1024, 0, 6, 3827, 3859, 3869, 3864, 3853, 3858, 0, 1, 9622, -89.900, 0.000, -89.300, 0.000, 0.000, -3.000, 0.0, , , , , , 97, , , 53, 53, 53
38.1644341, -120.1138956, 12.300, 11:54:26.124, 19, 0.00, 0.36, 97, 0.600, 0.600, -89.000, 1421, 100, 99, 20, 23081, -19699, 5270, 5434, 14, 14, 1526064866.125, 95, 0, 1024, 1024, 1024, 1024, 0, 6, 3827, 3859, 3869, 3864, 3853, 3858, 0, 1, 9703, -89.900, 0.000, -89.300, 0.000, 0.000, -3.000, 0.0, , , , , , 97, , , 53, 53, 53
38.1644338, -120.1138956, 12.900, 11:54:26.230, 19, 0.00, 0.38, 97, 1.100, 0.300, -89.300, 1421, 100, 99, 20, 23081, -19699, 5270, 5434, 14, 14, 1526064866.230, 5, 0, 1024, 1024, 1024, 1024, 0, 6, 3827, 3859, 3869, 3864, 3853, 3858, 0, 1, 9809, -89.900, 0.000, -89.300, 0.000, 0.000, -3.000, 0.0, , , , , , 97, , , 53, 53, 53
38.1644338, -120.1138956, 12.900, 11:54:26.322, 19, 0.00, 0.38, 97, 1.100, 0.300, -89.300, 1421, 100, 99, 20, 23081, -19699, 5270, 5434, 14, 14, 1526064866.323, 98, 0, 1024, 1024, 1024, 1024, 0, 6, 3827, 3859, 3869, 3864, 3853, 3858, 0, 1, 9902, -89.900, 0.000, -89.300, 0.000, 0.000, -3.000, 0.0, , , , , , 97, , , 53, 53, 53
38.1644337, -120.1138957, 13.500, 11:54:26.425, 20, 0.00, 0.39, 97, 0.700, 0.100, -89.300, 1421, 100, 99, 20, 23244, -18625, 5270, 5434, 14, 14, 1526064866.426, 14, 0, 1024, 1024, 1024, 1024, 0, 6, 3827, 3859, 3869, 3864, 3853, 3858, 0, 1, 10004, -89.900, 0.000, -89.300, 0.000, 0.000, -2.900, 0.0, , , , , , 97, , , 53, 53, 53
38.1644337, -120.1138957, 13.500, 11:54:26.522, 20, 0.00, 0.39, 97, 0.700, 0.100, -89.300, 1421, 100, 99, 20, 23244, -18625, 5270, 5434, 14, 14, 1526064866.523, 112, 0, 1024, 1024, 1024, 1024, 0, 6, 3854, 3878, 3889, 3880, 3873, 3867, 0, 1, 10101, -89.900, 0.000, -89.300, 0.000, 0.000, -2.900, 0.0, , , , , , 97, , , 53, 53, 53
38.1644337, -120.1138957, 14.100, 11:54:26.622, 19, 0.00, 0.39, 97, 0.200, 0.400, -88.900, 1421, 100, 99, 20, 23244, -18625, 5270, 5434, 14, 14, 1526064866.623, 72, 0, 1024, 1024, 1024, 1024, 0, 6, 3854, 3878, 3889, 3880, 3873, 3867, 0, 1, 10201, -89.900, 0.000, -89.300, 0.000, 0.000, -2.900, 0.0, , , , , , 97, , , 53, 53, 53
38.1644337, -120.1138957, 14.400, 11:54:26.722, 19, 0.00, 0.39, 97, -0.100, 0.500, -88.700, 1421, 100, 99, 20, 23244, -18625, 5270, 5434, 14, 14, 1526064866.723, 78, 0, 1024, 1024, 1024, 1024, 0, 6, 3854, 3878, 3889, 3880, 3873, 3867, 0, 1, 10301, -89.900, 0.000, -89.300, 0.000, 0.000, -2.900, 0.0, , , , , , 97, , , 53, 53, 53
38.1644337, -120.1138957, 14.700, 11:54:26.822, 20, 0.00, 0.39, 97, -0.200, 0.500, -88.500, 1421, 100, 99, 20, 23244, -18625, 5270, 5434, 14, 14, 1526064866.823, 66, 0, 1024, 1024, 1024, 1024, 0, 6, 3854, 3878, 3889, 3880, 3873, 3867, 0, 1, 10401, -89.900, 0.000, -89.300, 0.000, 0.000, -2.900, 0.0, , , , , , 97, , , 53, 53, 53
38.1644337, -120.1138957, 15.000, 11:54:26.922, 20, 0.00, 0.39, 97, -0.100, 0.500, -88.500, 1421, 100, 99, 20, 23244, -18625, 5270, 5434, 14, 14, 1526064866.923, 73, 0, 1024, 1024, 1024, 1024, 0, 6, 3854, 3878, 3889, 3880, 3873, 3867, 0, 1, 10501, -89.900, 0.000, -89.300, 0.000, 0.000, -2.900, 0.0, , , , , , 97, , , 53, 53, 53
38.1644337, -120.1138957, 15.300, 11:54:27.022, 19, 0.00, 0.39, 97, 0.000, 0.700, -88.600, 1421, 100, 99, 20, 23244, -18625, 5270, 5434, 14, 14, 1526064867.023, 45, 0, 1024, 1024, 1024, 1024, 0, 6, 3854, 3878, 3889, 3880, 3873, 3867, 0, 1, 10601, -89.900, 0.000, -89.300, 0.000, 0.000, -2.900, 0.0, , , , , , 97, , , 53, 53, 53
38.1644337, -120.1138957, 15.500, 11:54:27.122, 19, 0.00, 0.40, 97, 0.500, 0.600, -88.800, 1421, 100, 99, 20, 23244, -18625, 5270, 5434, 14, 14, 1526064867.124, 70, 0, 1024, 1024, 1024, 1024, 0, 6, 3854, 3878, 3889, 3880, 3873, 3867, 0, 1, 10703, -89.900, 0.000, -89.300, 0.000, 0.000, -2.900, 0.0, , , , , , 97, , , 53, 53, 53
38.1644336, -120.1138957, 15.800, 11:54:27.222, 19, 0.00, 0.40, 97, 1.000, 0.600, -89.100, 1421, 100, 99, 20, 23244, -18625, 5270, 5434, 14, 14, 1526064867.223, 57, 0, 1024, 1024, 1024, 1024, 0, 6, 3854, 3878, 3889, 3880, 3873, 3867, 0, 1, 10801, -89.900, 0.000, -89.300, 0.000, 0.000, -2.900, 0.0, , , , , , 97, , , 53, 53, 53
38.1644336, -120.1138956, 16.100, 11:54:27.322, 19, 0.00, 0.41, 97, 1.200, 0.400, -89.200, 1421, 100, 99, 20, 23244, -18625, 5270, 5434, 14, 14, 1526064867.323, 48, 0, 1024, 1024, 1024, 1024, 0, 6, 3854, 3878, 3889, 3880, 3873, 3867, 0, 1, 10901, -89.900, 0.000, -89.300, 0.000, 0.000, -3.000, 0.0, , , , , , 97, , , 53, 53, 53
38.1644336, -120.1138955, 16.500, 11:54:27.422, 19, 0.00, 0.41, 97, 1.200, 0.200, -89.300, 1421, 100, 99, 20, 23222, -17978, 5270, 5434, 14, 14, 1526064867.423, 49, 0, 1024, 1024, 1024, 1024, 0, 6, 3854, 3878, 3889, 3880, 3873, 3867, 0, 1, 11001, -89.900, 0.000, -89.300, 0.000, 0.000, -3.000, 0.0, , , , , , 97, , , 53, 53, 53
38.1644337, -120.1138954, 16.800, 11:54:27.522, 19, 0.00, 0.40, 97, 0.900, 0.000, -89.300, 1421, 100, 99, 20, 23222, -17978, 5270, 5434, 14, 14, 1526064867.523, 47, 0, 1024, 1024, 1024, 1024, 0, 6, 3854, 3878, 3889, 3880, 3873, 3867, 0, 1, 11101, -90.000, 0.000, -89.300, 0.000, 0.000, -3.000, 0.0, , , , , , 97, , , 53, 53, 53
38.1644337, -120.1138953, 17.100, 11:54:27.621, 21, 0.00, 0.40, 97, 0.500, -0.200, -89.200, 1421, 100, 99, 20, 23222, -17978, 5270, 5434, 14, 14, 1526064867.622, 38, 0, 1024, 1024, 1024, 1024, 0, 6, 3854, 3878, 3889, 3880, 3873, 3867, 0, 1, 11200, -90.000, 0.000, -89.300, 0.000, 0.000, -3.000, 0.0, , , , , , 97, , , 53, 53, 53
38.1644338, -120.1138952, 17.400, 11:54:27.722, 21, 0.00, 0.39, 97, 0.200, -0.400, -89.200, 1421, 100, 99, 20, 23222, -17978, 5270, 5434, 14, 14, 1526064867.723, 28, 0, 1024, 1024, 1024, 1024, 0, 6, 3854, 3878, 3889, 3880, 3873, 3867, 0, 1, 11301, -90.000, 0.000, -89.300, 0.000, 0.000, -3.000, 0.0, , , , , , 97, , , 53, 53, 53
38.1644339, -120.1138950, 17.700, 11:54:27.822, 21, 0.14, 0.38, 97, 0.000, -0.700, -89.100, 1421, 100, 99, 20, 23222, -17978, 5270, 5434, 14, 14, 1526064867.823, 31, 0, 1024, 1024, 1024, 1024, 0, 6, 3855, 3884, 3878, 3867, 3862, 3868, 0, 1, 11401, -90.000, 0.000, -89.300, 0.100, 0.100, -3.000, 0.0, , , , , , 97, , , 53, 53, 53
38.1644340, -120.1138949, 18.000, 11:54:27.922, 21, 0.14, 0.38, 97, -0.400, -0.800, -89.100, 1421, 100, 99, 20, 23222, -17978, 5270, 5434, 14, 14, 1526064867.923, 33, 0, 1024, 1024, 1024, 1024, 0, 6, 3855, 3884, 3878, 3867, 3862, 3868, 0, 1, 11502, -90.000, 0.000, -89.300, 0.100, 0.100, -3.000, 0.0, , , , , , 97, , , 53, 53, 53
38.1644341, -120.1138948, 18.300, 11:54:28.029, 21, 0.14, 0.37, 97, -0.700, -1.000, -89.100, 1421, 100, 99, 20, 23222, -17978, 5270, 5434, 14, 14, 1526064868.030, 6, 0, 1024, 1024, 1024, 1024, 0, 6, 3855, 3884, 3878, 3867, 3862, 3868, 0, 1, 11609, -90.000, 0.000, -89.300, 0.100, 0.100, -3.000, 0.0, , , , , , 97, , , 53, 53, 53
38.1644341, -120.1138946, 18.600, 11:54:28.123, 21, 0.14, 0.37, 97, -0.900, -1.300, -89.100, 1421, 100, 99, 20, 23222, -17978, 5270, 5434, 14, 14, 1526064868.124, 42, 0, 1024, 1024, 1024, 1024, 0, 6, 3855, 3884, 3878, 3867, 3862, 3868, 0, 1, 11702, -90.000, 0.000, -89.300, 0.100, 0.100, -3.000, 0.0, , , , , , 97, , , 53, 53, 53
38.1644342, -120.1138945, 18.900, 11:54:28.226, 21, 0.10, 0.37, 97, -0.800, -1.800, -89.000, 1421, 100, 99, 20, 23222, -17978, 5270, 5434, 14, 14, 1526064868.226, 4, 0, 1024, 1024, 1024, 1024, 0, 6, 3855, 3884, 3878, 3867, 3862, 3868, 0, 1, 11804, -90.000, 0.000, -89.300, 0.000, 0.100, -2.900, 0.0, , , , , , 97, , , 53, 53, 53
38.1644342, -120.1138945, 18.900, 11:54:28.322, 21, 0.10, 0.37, 97, -0.800, -1.800, -89.000, 1421, 100, 99, 20, 23222, -17978, 5270, 5434, 14, 14, 1526064868.323, 100, 0, 1024, 1024, 1024, 1024, 0, 6, 3855, 3884, 3878, 3867, 3862, 3868, 0, 1, 11901, -89.900, 0.000, -89.300, 0.000, 0.100, -2.900, 0.0, , , , , , 97, , , 53, 53, 53
38.1644343, -120.1138942, 19.500, 11:54:28.424, 21, 0.10, 0.37, 97, -1.400, -2.100, -89.300, 1421, 100, 98, 20, 23222, -17978, 5270, 5434, 14, 14, 1526064868.425, 16, 0, 1024, 1024, 1024, 1024, 0, 6, 3855, 3884, 3878, 3867, 3862, 3868, 0, 1, 12003, -90.000, 0.000, -89.300, 0.000, 0.100, -2.900, 0.0, , , , , , 97, , , 53, 53, 53
38.1644344, -120.1138940, 19.800, 11:54:28.522, 21, 0.10, 0.36, 97, -1.600, -1.800, -89.500, 1421, 100, 98, 20, 23222, -17978, 5270, 5434, 14, 14, 1526064868.523, 18, 0, 1024, 1024, 1024, 1024, 0, 6, 3855, 3884, 3878, 3867, 3862, 3868, 0, 1, 12102, -90.000, 0.000, -89.300, 0.000, 0.100, -2.900, 0.0, , , , , , 97, , , 53, 53, 53
38.1644345, -120.1138939, 20.100, 11:54:28.626, 21, 0.10, 0.36, 97, -1.000, -1.600, -89.500, 1421, 100, 98, 20, 23222, -17978, 5270, 5434, 14, 14, 1526064868.627, 4, 0, 1024, 1024, 1024, 1024, 0, 6, 3855, 3884, 3878, 3867, 3862, 3868, 0, 1, 12205, -90.000, 0.000, -89.300, 0.000, 0.100, -2.800, 0.0, , , , , , 97, , , 53, 53, 53
38.1644345, -120.1138937, 20.400, 11:54:28.726, 21, 0.10, 0.37, 97, -0.800, -1.700, -89.500, 1421, 100, 98, 20, 23222, -17978, 5270, 5434, 14, 14, 1526064868.726, 4, 0, 1024, 1024, 1024, 1024, 0, 6, 3855, 3884, 3878, 3867, 3862, 3868, 0, 1, 12305, -90.000, 0.000, -89.300, 0.000, 0.100, -2.900, 0.0, , , , , , 97, , , 53, 53, 53
38.1644345, -120.1138937, 20.400, 11:54:28.821, 21, 0.10, 0.37, 97, -0.800, -1.700, -89.500, 1421, 100, 98, 20, 23222, -17978, 5270, 5434, 14, 14, 1526064868.822, 99, 0, 1024, 1024, 1024, 1024, 0, 6, 3855, 3884, 3878, 3867, 3862, 3868, 0, 1, 12400, -90.000, 0.000, -89.300, 0.000, 0.100, -2.900, 0.0, , , , , , 97, , , 53, 53, 53
38.1644346, -120.1138935, 20.700, 11:54:28.922, 21, 0.10, 0.37, 97, -1.000, -2.100, -89.400, 1421, 100, 98, 20, 23203, -17989, 5270, 5434, 14, 14, 1526064868.923, 77, 0, 1024, 1024, 1024, 1024, 0, 6, 3848, 3878, 3869, 3873, 3855, 3857, 0, 1, 12501, -90.000, 0.000, -89.300, 0.000, 0.100, -2.900, 0.0, , , , , , 97, , , 53, 53, 53
38.1644348, -120.1138932, 21.400, 11:54:29.023, 21, 0.10, 0.38, 97, -0.700, -2.500, -89.300, 1421, 100, 99, 20, 23203, -17989, 5270, 5434, 14, 14, 1526064869.023, 59, 0, 1024, 1024, 1024, 1024, 0, 6, 3848, 3878, 3869, 3873, 3855, 3857, 0, 1, 12602, -90.000, 0.000, -89.300, 0.000, 0.100, -3.000, 0.0, , , , , , 97, , , 53, 53, 53
38.1644348, -120.1138932, 21.400, 11:54:29.122, 21, 0.10, 0.38, 97, -0.700, -2.500, -89.300, 1421, 100, 99, 20, 23203, -17989, 5270, 5434, 14, 14, 1526064869.123, 158, 0, 1024, 1024, 1024, 1024, 0, 6, 3848, 3878, 3869, 3873, 3855, 3857, 0, 1, 12701, -90.000, 0.000, -89.300, 0.000, 0.100, -3.000, 0.0, , , , , , 97, , , 53, 53, 53
38.1644350, -120.1138928, 22.000, 11:54:29.222, 21, 0.00, 0.38, 97, -1.400, -3.200, -89.200, 1421, 100, 99, 20, 23203, -17989, 5270, 5434, 14, 14, 1526064869.222, 45, 0, 1024, 1024, 1024, 1024, 0, 6, 3848, 3878, 3869, 3873, 3855, 3857, 0, 1, 12801, -90.000, 0.000, -89.300, 0.000, 0.000, -3.000, 0.0, , , , , , 97, , , 53, 53, 53
38.1644351, -120.1138927, 22.300, 11:54:29.322, 21, 0.00, 0.38, 97, -1.600, -3.200, -89.200, 1421, 100, 99, 20, 23203, -17989, 5270, 5434, 14, 14, 1526064869.323, 66, 0, 1024, 1024, 1024, 1024, 0, 6, 3848, 3878, 3869, 3873, 3855, 3857, 0, 1, 12902, -90.000, 0.000, -89.300, 0.000, 0.000, -2.900, 0.0, , , , , , 97, , , 53, 53, 53
38.1644352, -120.1138925, 22.600, 11:54:29.422, 21, 0.00, 0.39, 97, -1.600, -3.200, -89.100, 1421, 100, 97, 20, 23203, -17989, 5270, 5434, 14, 14, 1526064869.423, 66, 0, 1024, 1024, 1024, 1024, 0, 6, 3848, 3878, 3869, 3873, 3855, 3857, 0, 1, 13001, -90.000, 0.000, -89.300, 0.000, 0.000, -2.900, 0.0, , , , , , 97, , , 53, 53, 53
38.1644353, -120.1138924, 22.900, 11:54:29.522, 21, 0.00, 0.39, 97, -1.300, -3.000, -89.000, 1421, 100, 97, 20, 23203, -17989, 5270, 5434, 14, 14, 1526064869.523, 68, 0, 1024, 1024, 1024, 1024, 0, 6, 3848, 3878, 3869, 3873, 3855, 3857, 0, 1, 13101, -89.900, 0.000, -89.300, 0.000, 0.000, -2.900, 0.0, , , , , , 97, , , 53, 53, 53
38.1644354, -120.1138923, 23.200, 11:54:29.622, 21, 0.00, 0.39, 97, -1.200, -2.900, -89.100, 1421, 100, 97, 20, 23203, -17989, 5270, 5434, 14, 14, 1526064869.623, 70, 0, 1024, 1024, 1024, 1024, 0, 6, 3848, 3878, 3869, 3873, 3855, 3857, 0, 1, 13201, -89.900, 0.000, -89.300, 0.000, 0.000, -2.900, 0.0, , , , , , 97, , , 53, 53, 53
38.1644355, -120.1138922, 23.500, 11:54:29.722, 21, 0.00, 0.39, 97, -1.800, -2.800, -89.200, 1421, 100, 97, 20, 23203, -17989, 5270, 5434, 14, 14, 1526064869.722, 47, 0, 1024, 1024, 1024, 1024, 0, 6, 3848, 3878, 3869, 3873, 3855, 3857, 0, 1, 13301, -89.900, 0.000, -89.300, 0.000, 0.000, -2.900, 0.0, , , , , , 97, , , 53, 53, 53
38.1644355, -120.1138922, 23.500, 11:54:29.822, 21, 0.00, 0.39, 97, -1.800, -2.800, -89.200, 1421, 100, 97, 20, 23203, -17989, 5270, 5434, 14, 14, 1526064869.823, 148, 0, 1024, 1024, 1024, 1024, 0, 6, 3848, 3878, 3869, 3873, 3855, 3857, 0, 1, 13401, -89.900, 0.000, -89.300, 0.000, 0.000, -2.900, 0.0, , , , , , 97, , , 53, 53, 53
38.1644358, -120.1138921, 24.100, 11:54:29.921, 21, 0.10, 0.38, 97, -2.800, -2.600, -89.000, 1421, 100, 93, 20, 23275, -17560, 5270, 5434, 14, 14, 1526064869.922, 29, 0, 1024, 1024, 1024, 1024, 0, 6, 3848, 3878, 3869, 3873, 3855, 3857, 0, 1, 13500, -89.900, 0.000, -89.300, 0.100, 0.000, -2.900, 0.0, , , , , , 97, , , 53, 53, 53
38.1644359, -120.1138921, 24.400, 11:54:30.022, 21, 0.10, 0.38, 97, -3.400, -2.700, -88.700, 1421, 100, 93, 20, 23275, -17560, 5270, 5434, 14, 14, 1526064870.023, 41, 0, 1024, 1024, 1024, 1024, 0, 6, 3855, 3889, 3878, 3883, 3866, 3874, 0, 1, 13602, -90.000, 0.000, -89.300, 0.100, 0.000, -2.900, 0.0, , , , , , 97, , , 53, 53, 53
38.1644361, -120.1138921, 24.700, 11:54:30.124, 21, 0.10, 0.38, 97, -4.800, -2.500, -88.600, 1421, 100, 93, 20, 23275, -17560, 5270, 5434, 14, 14, 1526064870.125, 22, 0, 1024, 1024, 1024, 1024, 0, 6, 3855, 3889, 3878, 3883, 3866, 3874, 0, 1, 13704, -89.900, 0.000, -89.300, 0.100, 0.000, -2.900, 0.0, , , , , , 97, , , 53, 53, 53
38.1644361, -120.1138921, 24.700, 11:54:30.222, 21, 0.10, 0.38, 97, -4.800, -2.500, -88.600, 1421, 100, 93, 20, 23275, -17560, 5270, 5434, 14, 14, 1526064870.222, 119, 0, 1024, 1024, 1024, 1024, 0, 6, 3855, 3889, 3878, 3883, 3866, 3874, 0, 1, 13801, -89.900, 0.000, -89.300, 0.100, 0.000, -2.900, 0.0, , , , , , 97, , , 53, 53, 53
38.1644363, -120.1138920, 25.300, 11:54:30.333, 21, 0.00, 0.37, 97, -4.300, -1.700, -88.800, 1421, 100, 93, 20, 23275, -17560, 5270, 5434, 14, 14, 1526064870.333, 5, 0, 1024, 1024, 1024, 1024, 0, 6, 3855, 3889, 3878, 3883, 3866, 3874, 0, 1, 13912, -89.900, 0.000, -89.300, 0.000, 0.000, -2.800, 0.0, , , , , , 97, , , 53, 53, 53
38.1644364, -120.1138920, 25.600, 11:54:30.422, 21, 0.00, 0.37, 97, -3.600, -1.800, -89.100, 1421, 100, 91, 20, 23275, -17560, 5270, 5434, 14, 14, 1526064870.423, 39, 0, 1024, 1024, 1024, 1024, 0, 6, 3855, 3889, 3878, 3883, 3866, 3874, 0, 1, 14001, -89.900, 0.000, -89.300, 0.000, 0.000, -2.800, 0.0, , , , , , 97, , , 53, 53, 53
38.1644365, -120.1138920, 25.900, 11:54:30.523, 21, 0.00, 0.37, 97, -2.900, -2.200, -89.300, 1421, 100, 91, 20, 23275, -17560, 5270, 5434, 14, 14, 1526064870.523, 39, 0, 1024, 1024, 1024, 1024, 0, 6, 3855, 3889, 3878, 3883, 3866, 3874, 0, 1, 14102, -90.000, 0.000, -89.300, 0.000, 0.000, -2.700, 0.0, , , , , , 97, , , 53, 53, 53
38.1644365, -120.1138920, 26.200, 11:54:30.622, 21, 0.00, 0.37, 97, -2.100, -2.100, -89.300, 1421, 100, 91, 20, 23275, -17560, 5270, 5434, 14, 14, 1526064870.623, 23, 0, 1024, 1024, 1024, 1024, 0, 6, 3855, 3889, 3878, 3883, 3866, 3874, 0, 1, 14201, -89.900, 0.000, -89.300, 0.000, 0.000, -2.700, 0.0, , , , , , 97, , , 53, 53, 53
38.1644365, -120.1138920, 26.400, 11:54:30.722, 21, 0.00, 0.37, 97, -1.700, -1.900, -89.400, 1421, 100, 91, 20, 23275, -17560, 5270, 5434, 14, 14, 1526064870.723, 24, 0, 1024, 1024, 1024, 1024, 0, 6, 3855, 3889, 3878, 3883, 3866, 3874, 0, 1, 14301, -89.900, 0.000, -89.300, 0.000, 0.000, -2.800, 0.0, , , , , , 97, , , 53, 53, 53
38.1644365, -120.1138920, 26.400, 11:54:30.822, 21, 0.00, 0.37, 97, -1.700, -1.900, -89.400, 1421, 100, 91, 20, 23287, -16678, 5270, 5434, 14, 14, 1526064870.823, 124, 0, 1024, 1024, 1024, 1024, 0, 6, 3855, 3889, 3878, 3883, 3866, 3874, 0, 1, 14401, -90.000, 0.000, -89.300, 0.000, 0.000, -2.800, 0.0, , , , , , 97, , , 53, 53, 53
38.1644365, -120.1138920, 26.400, 11:54:30.922, 21, 0.00, 0.37, 97, -1.700, -1.900, -89.400, 1421, 100, 91, 20, 23287, -16678, 5270, 5434, 14, 14, 1526064870.923, 225, 0, 1024, 1024, 1024, 1024, 0, 6, 3855, 3889, 3878, 3883, 3866, 3874, 0, 1, 14502, -90.000, 0.000, -89.300, 0.000, 0.000, -2.800, 0.0, , , , , , 97, , , 53, 53, 53
38.1644365, -120.1138920, 26.400, 11:54:31.022, 21, 0.00, 0.37, 97, -1.700, -1.900, -89.400, 1421, 100, 87, 20, 23287, -16678, 5270, 5434, 14, 14, 1526064871.023, 324, 0, 1024, 1024, 1024, 1024, 0, 6, 3855, 3889, 3878, 3883, 3866, 3874, 0, 1, 14601, -90.000, 0.000, -89.300, 0.000, 0.000, -2.800, 0.0, , , , , , 97, , , 53, 53, 53
38.1644363, -120.1138919, 27.300, 11:54:31.122, 21, 0.00, 0.38, 97, -2.100, -2.900, -89.000, 1421, 100, 87, 20, 23287, -16678, 5270, 5434, 14, 14, 1526064871.123, 98, 0, 1024, 1024, 1024, 1024, 0, 6, 3860, 3887, 3888, 3889, 3856, 3891, 0, 1, 14701, -90.000, 0.000, -89.300, 0.000, 0.000, -2.800, 0.0, , , , , , 97, , , 53, 53, 53
38.1644363, -120.1138919, 27.600, 11:54:31.222, 21, 0.00, 0.38, 97, -1.900, -3.000, -89.000, 1421, 100, 87, 20, 23287, -16678, 5270, 5434, 14, 14, 1526064871.223, 83, 0, 1024, 1024, 1024, 1024, 0, 6, 3860, 3887, 3888, 3889, 3856, 3891, 0, 1, 14802, -90.000, 0.000, -89.300, 0.000, 0.000, -2.900, 0.0, , , , , , 97, , , 53, 53, 53
38.1644363, -120.1138919, 27.900, 11:54:31.323, 21, 0.00, 0.39, 97, -1.300, -3.100, -89.100, 1421, 100, 87, 20, 23287, -16678, 5270, 5434, 14, 14, 1526064871.323, 81, 0, 1024, 1024, 1024, 1024, 0, 6, 3860, 3887, 3888, 3889, 3856, 3891, 0, 1, 14901, -90.000, 0.000, -89.300, 0.000, 0.000, -2.800, 0.0, , , , , , 97, , , 53, 53, 53
38.1644363, -120.1138918, 28.100, 11:54:31.422, 21, 0.00, 0.39, 97, -1.100, -3.100, -89.200, 1421, 100, 87, 20, 23287, -16678, 5270, 5434, 14, 14, 1526064871.423, 87, 0, 1024, 1024, 1024, 1024, 0, 6, 3860, 3887, 3888, 3889, 3856, 3891, 0, 1, 15001, -90.000, 0.000, -89.300, 0.000, 0.000, -2.800, 0.0, , , , , , 97, , , 53, 53, 53
38.1644363, -120.1138917, 28.400, 11:54:31.522, 21, 0.00, 0.40, 97, -1.000, -3.200, -89.300, 1421, 100, 91, 20, 23287, -16678, 5270, 5434, 14, 14, 1526064871.523, 76, 0, 1024, 1024, 1024, 1024, 0, 6, 3860, 3887, 3888, 3889, 3856, 3891, 0, 1, 15101, -90.000, 0.000, -89.300, 0.000, 0.000, -2.800, 0.0, , , , , , 97, , , 53, 53, 53
38.1644362, -120.1138915, 29.000, 11:54:31.622, 21, 0.00, 0.42, 97, -1.700, -4.000, -89.200, 1421, 100, 91, 20, 23287, -16678, 5270, 5434, 14, 14, 1526064871.623, 57, 0, 1024, 1024, 1024, 1024, 0, 6, 3860, 3887, 3888, 3889, 3856, 3891, 0, 1, 15202, -90.000, 0.000, -89.300, 0.000, 0.000, -2.900, 0.0, , , , , , 97, , , 53, 53, 53
38.1644362, -120.1138914, 29.300, 11:54:31.722, 21, 0.00, 0.43, 97, -2.100, -4.300, -89.100, 1421, 100, 91, 20, 23287, -16678, 5270, 5434, 14, 14, 1526064871.723, 81, 0, 1024, 1024, 1024, 1024, 0, 6, 3860, 3887, 3888, 3889, 3856, 3891, 0, 1, 15301, -90.000, 0.000, -89.300, 0.000, 0.000, -2.900, 0.0, , , , , , 97, , , 53, 53, 53
38.1644362, -120.1138914, 29.600, 11:54:31.822, 21, 0.00, 0.43, 97, -2.000, -4.400, -89.000, 1421, 100, 91, 20, 23287, -16678, 5270, 5434, 14, 14, 1526064871.823, 63, 0, 1024, 1024, 1024, 1024, 0, 6, 3860, 3887, 3888, 3889, 3856, 3891, 0, 1, 15402, -90.000, 0.000, -89.300, 0.000, 0.000, -2.900, 0.0, , , , , , 97, , , 53, 53, 53
38.1644361, -120.1138914, 29.800, 11:54:31.922, 21, 0.00, 0.43, 97, -1.800, -4.300, -89.000, 1421, 100, 93, 21, 23068, -18446, 5270, 5434, 14, 14, 1526064871.923, 45, 0, 1024, 1024, 1024, 1024, 0, 6, 3823, 3858, 3847, 3849, 3817, 3842, 0, 1, 15502, -90.000, 0.000, -89.300, 0.000, 0.000, -2.900, 0.0, , , , , , 97, , , 53, 53, 53
38.1644361, -120.1138913, 30.100, 11:54:32.022, 21, 0.10, 0.44, 97, -1.500, -4.500, -89.100, 1421, 100, 93, 21, 23068, -18446, 5270, 5434, 14, 14, 1526064872.023, 67, 0, 1024, 1024, 1024, 1024, 0, 6, 3823, 3858, 3847, 3849, 3817, 3842, 0, 1, 15601, -90.000, 0.000, -89.300, -0.100, 0.000, -2.800, 0.0, , , , , , 97, , , 53, 53, 53
38.1644361, -120.1138913, 30.100, 11:54:32.124, 21, 0.10, 0.44, 97, -1.500, -4.500, -89.100, 1421, 100, 93, 21, 23068, -18446, 5270, 5434, 14, 14, 1526064872.126, 170, 0, 1024, 1024, 1024, 1024, 0, 6, 3823, 3858, 3847, 3849, 3817, 3842, 0, 1, 15704, -89.900, 0.000, -89.300, -0.100, 0.000, -2.800, 0.0, , , , , , 97, , , 53, 53, 53
38.1644359, -120.1138914, 30.700, 11:54:32.223, 21, 0.10, 0.44, 97, -0.600, -4.000, -88.800, 1421, 100, 93, 21, 23068, -18446, 5270, 5434, 14, 14, 1526064872.223, 52, 0, 1024, 1024, 1024, 1024, 0, 6, 3823, 3858, 3847, 3849, 3817, 3842, 0, 1, 15801, -89.900, 0.000, -89.300, -0.100, 0.000, -2.900, 0.0, , , , , , 97, , , 53, 53, 53
38.1644359, -120.1138914, 30.700, 11:54:32.322, 21, 0.10, 0.44, 97, -0.600, -4.000, -88.800, 1421, 100, 93, 21, 23068, -18446, 5270, 5434, 14, 14, 1526064872.323, 152, 0, 1024, 1024, 1024, 1024, 0, 6, 3823, 3858, 3847, 3849, 3817, 3842, 0, 1, 15901, -89.900, 0.000, -89.300, -0.100, 0.000, -2.900, 0.0, , , , , , 97, , , 53, 53, 53
38.1644357, -120.1138914, 31.200, 11:54:32.422, 21, 0.10, 0.44, 97, 0.400, -3.400, -88.700, 1421, 100, 98, 21, 23068, -18446, 5270, 5434, 14, 14, 1526064872.423, 33, 0, 1024, 1024, 1024, 1024, 0, 6, 3823, 3858, 3847, 3849, 3817, 3842, 0, 1, 16002, -89.900, 0.000, -89.300, -0.100, 0.000, -2.800, 0.0, , , , , , 97, , , 53, 53, 53
38.1644356, -120.1138915, 31.500, 11:54:32.522, 21, 0.00, 0.44, 97, 0.300, -3.200, -88.800, 1421, 100, 98, 21, 23068, -18446, 5270, 5434, 14, 14, 1526064872.523, 47, 0, 1024, 1024, 1024, 1024, 0, 6, 3823, 3858, 3847, 3849, 3817, 3842, 0, 1, 16102, -89.900, 0.000, -89.300, 0.000, 0.000, -2.900, 0.0, , , , , , 97, , , 53, 53, 53
38.1644356, -120.1138915, 31.500, 11:54:32.622, 21, 0.00, 0.44, 97, 0.300, -3.200, -88.800, 1421, 100, 98, 21, 23068, -18446, 5270, 5434, 14, 14, 1526064872.623, 147, 0, 1024, 1024, 1024, 1024, 0, 6, 3823, 3858, 3847, 3849, 3817, 3842, 0, 1, 16201, -89.900, 0.000, -89.300, 0.000, 0.000, -2.900, 0.0, , , , , , 97, , , 53, 53, 53
38.1644356, -120.1138916, 32.100, 11:54:32.722, 21, 0.00, 0.44, 97, -0.800, -2.900, -89.500, 1421, 100, 98, 21, 23068, -18446, 5270, 5434, 14, 14, 1526064872.723, 41, 0, 1024, 1024, 1024, 1024, 0, 6, 3823, 3858, 3847, 3849, 3817, 3842, 0, 1, 16301, -89.900, 0.000, -89.300, 0.000, 0.000, -3.100, 0.0, , , , , , 97, , , 53, 53, 53
38.1644355, -120.1138916, 32.400, 11:54:32.822, 21, 0.00, 0.43, 97, -1.400, -2.700, -89.600, 1421, 100, 98, 21, 22948, -19462, 5270, 5434, 14, 14, 1526064872.823, 29, 0, 1024, 1024, 1024, 1024, 0, 6, 3823, 3858, 3847, 3849, 3817, 3842, 0, 1, 16401, -89.900, 0.000, -89.300, 0.000, 0.000, -3.100, 0.0, , , , , , 97, , , 53, 53, 53
38.1644355, -120.1138917, 32.700, 11:54:32.922, 21, 0.00, 0.43, 97, -1.800, -3.100, -89.600, 1421, 100, 98, 21, 22948, -19462, 5270, 5434, 14, 14, 1526064872.923, 37, 0, 1024, 1024, 1024, 1024, 0, 6, 3823, 3858, 3847, 3849, 3817, 3842, 0, 1, 16501, -90.000, 0.000, -89.300, 0.000, 0.000, -3.200, 0.0, , , , , , 97, , , 53, 53, 53
38.1644355, -120.1138917, 33.100, 11:54:33.022, 21, 0.00, 0.43, 97, -1.800, -3.400, -89.400, 1421, 100, 98, 21, 22948, -19462, 5270, 5434, 14, 14, 1526064873.023, 29, 0, 1024, 1024, 1024, 1024, 0, 6, 3823, 3858, 3847, 3849, 3817, 3842, 0, 1, 16601, -90.000, 0.000, -89.300, 0.000, 0.000, -3.100, 0.0, , , , , , 97, , , 53, 53, 53
38.1644355, -120.1138917, 33.100, 11:54:33.122, 21, 0.00, 0.43, 97, -1.800, -3.400, -89.400, 1421, 100, 98, 21, 22948, -19462, 5270, 5434, 14, 14, 1526064873.123, 129, 0, 1024, 1024, 1024, 1024, 0, 6, 3823, 3858, 3847, 3849, 3817, 3842, 0, 1, 16702, -90.000, 0.000, -89.300, 0.000, 0.000, -3.100, 0.0, , , , , , 97, , , 53, 53, 53
38.1644354, -120.1138918, 33.700, 11:54:33.222, 21, 0.00, 0.43, 97, -0.900, -3.200, -88.700, 1421, 100, 98, 21, 22948, -19462, 5270, 5434, 14, 14, 1526064873.223, 12, 0, 1024, 1024, 1024, 1024, 0, 6, 3823, 3858, 3847, 3849, 3817, 3842, 0, 1, 16801, -89.900, 0.000, -89.300, 0.000, 0.000, -3.000, 0.0, , , , , , 97, , , 53, 53, 53
38.1644352, -120.1138918, 34.000, 11:54:33.322, 21, 0.10, 0.44, 97, -0.400, -3.000, -88.300, 1421, 100, 98, 21, 22948, -19462, 5270, 5434, 14, 14, 1526064873.323, 24, 0, 1024, 1024, 1024, 1024, 0, 6, 3807, 3842, 3832, 3824, 3814, 3813, 0, 1, 16901, -90.000, 0.000, -89.300, -0.100, 0.000, -3.000, 0.0, , , , , , 97, , , 53, 53, 53
38.1644352, -120.1138918, 34.000, 11:54:33.422, 21, 0.10, 0.44, 97, -0.400, -3.000, -88.300, 1421, 100, 98, 21, 22948, -19462, 5270, 5434, 14, 14, 1526064873.423, 124, 0, 1024, 1024, 1024, 1024, 0, 6, 3807, 3842, 3832, 3824, 3814, 3813, 0, 1, 17001, -90.000, 0.000, -89.300, -0.100, 0.000, -3.000, 0.0, , , , , , 97, , , 53, 53, 53
38.1644351, -120.1138918, 34.600, 11:54:33.525, 21, 0.10, 0.45, 97, 0.100, -4.100, -88.200, 1421, 100, 96, 21, 22948, -19462, 5270, 5434, 14, 14, 1526064873.525, 8, 0, 1024, 1024, 1024, 1024, 0, 6, 3807, 3842, 3832, 3824, 3814, 3813, 0, 1, 17104, -90.000, 0.000, -89.300, -0.100, 0.000, -3.000, 0.0, , , , , , 97, , , 53, 53, 53
38.1644351, -120.1138918, 34.600, 11:54:33.622, 21, 0.10, 0.45, 97, 0.100, -4.100, -88.200, 1421, 100, 96, 21, 22948, -19462, 5270, 5434, 14, 14, 1526064873.623, 106, 0, 1024, 1024, 1024, 1024, 0, 6, 3807, 3842, 3832, 3824, 3814, 3813, 0, 1, 17202, -90.000, 0.000, -89.300, -0.100, 0.000, -3.000, 0.0, , , , , , 97, , , 53, 53, 53
38.1644350, -120.1138919, 34.900, 11:54:33.722, 21, 0.10, 0.45, 97, 0.000, -4.300, -88.300, 1421, 100, 96, 21, 22948, -19462, 5270, 5434, 14, 14, 1526064873.723, 85, 0, 1024, 1024, 1024, 1024, 0, 6, 3807, 3842, 3832, 3824, 3814, 3813, 0, 1, 17301, -89.900, 0.000, -89.300, -0.100, 0.000, -3.000, 0.0, , , , , , 97, , , 53, 53, 53
38.1644348, -120.1138919, 35.500, 11:54:33.843, 21, 0.10, 0.46, 97, 0.900, -3.800, -88.600, 1421, 100, 96, 21, 22948, -19462, 5270, 5434, 14, 14, 1526064873.843, 4, 0, 1024, 1024, 1024, 1024, 0, 6, 3807, 3842, 3832, 3824, 3814, 3813, 0, 1, 17422, -89.900, 0.000, -89.300, -0.100, 0.000, -2.900, 0.0, , , , , , 97, , , 53, 53, 53
38.1644348, -120.1138919, 35.500, 11:54:33.922, 21, 0.10, 0.46, 97, 0.900, -3.800, -88.600, 1421, 100, 96, 21, 22948, -19462, 5270, 5434, 14, 14, 1526064873.923, 84, 0, 1024, 1024, 1024, 1024, 0, 6, 3807, 3842, 3832, 3824, 3814, 3813, 0, 1, 17502, -89.900, 0.000, -89.300, -0.100, 0.000, -2.900, 0.0, , , , , , 97, , , 53, 53, 53
38.1644347, -120.1138920, 35.800, 11:54:34.022, 21, 0.00, 0.46, 97, 1.000, -3.300, -88.900, 1421, 100, 98, 21, 22948, -19462, 5270, 5434, 14, 14, 1526064874.023, 81, 0, 1024, 1024, 1024, 1024, 0, 6, 3807, 3842, 3832, 3824, 3814, 3813, 0, 1, 17602, -89.900, 0.000, -89.300, 0.000, 0.000, -2.900, 0.0, , , , , , 97, , , 53, 53, 53
38.1644346, -120.1138921, 36.100, 11:54:34.125, 21, 0.00, 0.46, 97, 0.400, -2.800, -89.100, 1421, 100, 98, 21, 22948, -19462, 5270, 5434, 14, 14, 1526064874.126, 89, 0, 1024, 1024, 1024, 1024, 0, 6, 3807, 3842, 3832, 3824, 3814, 3813, 0, 1, 17704, -89.900, 0.000, -89.300, 0.000, 0.000, -2.800, 0.0, , , , , , 97, , , 53, 53, 53
38.1644346, -120.1138923, 36.600, 11:54:34.222, 21, 0.00, 0.45, 97, -0.200, -2.800, -89.200, 1421, 100, 98, 21, 22948, -19462, 5270, 5434, 14, 14, 1526064874.223, 73, 0, 1024, 1024, 1024, 1024, 0, 6, 3807, 3842, 3832, 3824, 3814, 3813, 0, 1, 17801, -89.900, 0.000, -89.300, 0.000, 0.000, -2.900, 0.0, , , , , , 97, , , 53, 53, 53
38.1644346, -120.1138924, 36.900, 11:54:34.322, 21, 0.00, 0.44, 97, -0.300, -2.300, -89.000, 1421, 100, 98, 21, 22948, -19462, 5270, 5434, 14, 14, 1526064874.323, 61, 0, 1024, 1024, 1024, 1024, 0, 6, 3807, 3842, 3832, 3824, 3814, 3813, 0, 1, 17901, -89.900, 0.000, -89.300, 0.000, 0.000, -3.000, 0.0, , , , , , 97, , , 53, 53, 53
38.1644346, -120.1138924, 37.200, 11:54:34.422, 21, 0.00, 0.44, 97, -0.500, -2.200, -89.000, 1421, 100, 96, 21, 22961, -19247, 5270, 5434, 14, 14, 1526064874.423, 54, 0, 1024, 1024, 1024, 1024, 0, 6, 3804, 3839, 3833, 3831, 3821, 3815, 0, 1, 18002, -89.900, 0.000, -89.300, 0.000, 0.000, -3.100, 0.0, , , , , , 97, , , 53, 53, 53
38.1644346, -120.1138924, 37.600, 11:54:34.522, 21, 0.00, 0.44, 97, -0.500, -2.800, -89.000, 1421, 100, 96, 21, 22961, -19247, 5270, 5434, 14, 14, 1526064874.524, 66, 0, 1024, 1024, 1024, 1024, 0, 6, 3804, 3839, 3833, 3831, 3821, 3815, 0, 1, 18102, -90.000, 0.000, -89.300, 0.000, 0.000, -3.100, 0.0, , , , , , 97, , , 53, 53, 53
38.1644346, -120.1138924, 37.900, 11:54:34.622, 21, 0.00, 0.44, 97, -0.900, -3.300, -88.900, 1421, 100, 96, 21, 22961, -19247, 5270, 5434, 14, 14, 1526064874.623, 66, 0, 1024, 1024, 1024, 1024, 0, 6, 3804, 3839, 3833, 3831, 3821, 3815, 0, 1, 18202, -90.000, 0.000, -89.300, 0.000, 0.000, -3.100, 0.0, , , , , , 97, , , 53, 53, 53
38.1644346, -120.1138925, 38.200, 11:54:34.722, 21, 0.00, 0.44, 97, -0.900, -3.300, -88.800, 1421, 100, 96, 21, 22961, -19247, 5270, 5434, 14, 14, 1526064874.723, 59, 0, 1024, 1024, 1024, 1024, 0, 6, 3804, 3839, 3833, 3831, 3821, 3815, 0, 1, 18302, -90.000, 0.000, -89.300, 0.000, 0.000, -3.000, 0.0, , , , , , 97, , , 53, 53, 53
38.1644346, -120.1138925, 38.500, 11:54:34.822, 21, 0.00, 0.43, 97, -0.700, -3.000, -88.900, 1421, 100, 96, 21, 22961, -19247, 5270, 5434, 14, 14, 1526064874.824, 34, 0, 1024, 1024, 1024, 1024, 0, 6, 3804, 3839, 3833, 3831, 3821, 3815, 0, 1, 18402, -89.900, 0.000, -89.300, 0.000, 0.000, -3.100, 0.0, , , , , , 97, , , 53, 53, 53
38.1644346, -120.1138926, 38.800, 11:54:34.922, 21, 0.00, 0.43, 97, -0.700, -3.200, -89.000, 1421, 100, 94, 21, 22961, -19247, 5270, 5434, 14, 14, 1526064874.924, 45, 0, 1024, 1024, 1024, 1024, 0, 6, 3804, 3839, 3833, 3831, 3821, 3815, 0, 1, 18502, -89.900, 0.000, -89.300, 0.000, 0.000, -3.100, 0.0, , , , , , 97, , , 53, 53, 53
38.1644345, -120.1138926, 39.100, 11:54:35.023, 21, 0.00, 0.43, 97, -0.400, -3.200, -89.200, 1421, 100, 94, 21, 22961, -19247, 5270, 5434, 14, 14, 1526064875.023, 48, 0, 1024, 1024, 1024, 1024, 0, 6, 3804, 3839, 3833, 3831, 3821, 3815, 0, 1, 18601, -89.900, 0.000, -89.300, 0.000, 0.000, -3.000, 0.0, , , , , , 97, , , 53, 53, 53
38.1644345, -120.1138927, 39.400, 11:54:35.124, 21, 0.00, 0.43, 97, -0.200, -2.600, -89.300, 1421, 100, 94, 21, 22961, -19247, 5270, 5434, 14, 14, 1526064875.125, 52, 0, 1024, 1024, 1024, 1024, 0, 6, 3804, 3839, 3833, 3831, 3821, 3815, 0, 1, 18704, -89.900, 0.000, -89.300, 0.000, 0.000, -3.100, 0.0, , , , , , 97, , , 53, 53, 53
38.1644345, -120.1138927, 39.700, 11:54:35.222, 21, 0.00, 0.42, 97, 0.000, -2.300, -89.300, 1421, 100, 94, 21, 22961, -19247, 5270, 5434, 14, 14, 1526064875.223, 33, 0, 1024, 1024, 1024, 1024, 0, 6, 3804, 3839, 3833, 3831, 3821, 3815, 0, 1, 18801, -89.900, 0.000, -89.300, 0.000, 0.000, -3.100, 0.0, , , , , , 97, , , 53, 53, 53
38.1644345, -120.1138927, 40.000, 11:54:35.322, 21, 0.00, 0.42, 97, -0.100, -2.300, -89.300, 1421, 100, 94, 21, 22961, -19247, 5270, 5434, 14, 14, 1526064875.323, 11, 0, 1024, 1024, 1024, 1024, 0, 6, 3804, 3839, 3833, 3831, 3821, 3815, 0, 1, 18901, -89.900, 0.000, -89.300, 0.000, 0.000, -3.100, 0.0, , , , , , 97, , , 53, 53, 53
38.1644345, -120.1138927, 40.000, 11:54:35.422, 21, 0.00, 0.42, 97, -0.100, -2.300, -89.300, 1421, 100, 94, 21, 22961, -19247, 5270, 5434, 14, 14, 1526064875.422, 110, 0, 1024, 1024, 1024, 1024, 0, 6, 3804, 3839, 3833, 3831, 3821, 3815, 0, 1, 19001, -89.900, 0.000, -89.300, 0.000, 0.000, -3.100, 0.0, , , , , , 97, , , 53, 53, 53
38.1644346, -120.1138928, 40.700, 11:54:35.522, 21, 0.00, 0.41, 97, -0.400, -2.600, -89.200, 1421, 100, 91, 21, 22961, -19247, 5270, 5434, 14, 14, 1526064875.522, 26, 0, 1024, 1024, 1024, 1024, 0, 6, 3804, 3839, 3833, 3831, 3821, 3815, 0, 1, 19101, -89.900, 0.000, -89.300, 0.000, 0.000, -3.100, 0.0, , , , , , 97, , , 53, 53, 53
38.1644346, -120.1138929, 41.000, 11:54:35.622, 21, 0.00, 0.41, 97, -0.400, -2.400, -89.100, 1421, 100, 91, 21, 22961, -19247, 5270, 5434, 14, 14, 1526064875.623, 19, 0, 1024, 1024, 1024, 1024, 0, 6, 3804, 3839, 3833, 3831, 3821, 3815, 0, 1, 19201, -89.900, 0.000, -89.300, 0.000, 0.000, -3.000, 0.0, , , , , , 97, , , 53, 53, 53
38.1644346, -120.1138929, 41.300, 11:54:35.722, 21, 0.00, 0.40, 97, -0.500, -2.300, -89.000, 1421, 100, 91, 21, 22961, -19247, 5270, 5434, 14, 14, 1526064875.723, 20, 0, 1024, 1024, 1024, 1024, 0, 6, 3804, 3839, 3833, 3831, 3821, 3815, 0, 1, 19301, -89.900, 0.000, -89.300, 0.000, 0.000, -3.100, 0.0, , , , , , 97, , , 53, 53, 53
38.1644346, -120.1138930, 41.600, 11:54:35.831, 21, 0.00, 0.40, 97, -0.800, -2.000, -88.900, 1421, 100, 91, 21, 22961, -19247, 5270, 5434, 14, 14, 1526064875.831, 4, 0, 1024, 1024, 1024, 1024, 0, 6, 3804, 3839, 3833, 3831, 3821, 3815, 0, 1, 19409, -89.900, 0.000, -89.300, 0.000, 0.000, -3.100, 0.0, , , , , , 97, , , 53, 53, 53
38.1644346, -120.1138930, 41.600, 11:54:35.922, 21, 0.00, 0.40, 97, -0.800, -2.000, -88.900, 1421, 100, 91, 21, 22713, -20912, 5270, 5434, 14, 14, 1526064875.923, 96, 0, 1024, 1024, 1024, 1024, 0, 6, 3764, 3795, 3793, 3800, 3781, 3796, 0, 1, 19501, -89.900, 0.000, -89.300, 0.000, 0.000, -3.100, 0.0, , , , , , 97, , , 53, 53, 53
38.1644347, -120.1138930, 41.900, 11:54:36.023, 21, 0.00, 0.39, 97, -0.900, -1.900, -88.700, 1421, 100, 89, 21, 22713, -20912, 5270, 5434, 14, 14, 1526064876.024, 99, 0, 1024, 1024, 1024, 1024, 0, 6, 3764, 3795, 3793, 3800, 3781, 3796, 0, 1, 19603, -89.900, 0.000, -89.300, 0.000, 0.000, -3.000, 0.0, , , , , , 97, , , 53, 53, 53
38.1644347, -120.1138931, 42.200, 11:54:36.123, 21, 0.00, 0.39, 97, -0.600, -2.000, -88.600, 1421, 100, 89, 21, 22713, -20912, 5270, 5434, 14, 14, 1526064876.124, 77, 0, 1024, 1024, 1024, 1024, 0, 6, 3764, 3795, 3793, 3800, 3781, 3796, 0, 1, 19702, -89.900, 0.000, -89.300, 0.000, 0.000, -3.000, 0.0, , , , , , 97, , , 53, 53, 53
38.1644347, -120.1138931, 42.500, 11:54:36.222, 21, 0.00, 0.39, 97, -0.300, -2.100, -88.500, 1421, 100, 89, 21, 22713, -20912, 5270, 5434, 14, 14, 1526064876.223, 81, 0, 1024, 1024, 1024, 1024, 0, 6, 3764, 3795, 3793, 3800, 3781, 3796, 0, 1, 19801, -89.900, 0.000, -89.300, 0.000, 0.000, -3.000, 0.0, , , , , , 97, , , 53, 53, 53
38.1644347, -120.1138932, 42.800, 11:54:36.322, 21, 0.00, 0.38, 97, -0.500, -1.800, -88.400, 1421, 100, 89, 21, 22713, -20912, 5270, 5434, 14, 14, 1526064876.323, 95, 0, 1024, 1024, 1024, 1024, 0, 6, 3764, 3795, 3793, 3800, 3781, 3796, 0, 1, 19901, -89.900, 0.000, -89.300, 0.000, 0.000, -3.100, 0.0, , , , , , 97, , , 53, 53, 53
38.1644349, -120.1138932, 43.500, 11:54:36.422, 21, 0.00, 0.37, 96, -1.700, -2.100, -88.900, 1421, 100, 89, 21, 22833, -19334, 5216, 5434, 14, 14, 1526064876.423, 62, 0, 1024, 1024, 1024, 1024, 0, 6, 3788, 3813, 3817, 3814, 3807, 3813, 0, 1, 20001, -89.900, 0.000, -89.300, 0.000, 0.000, -3.000, 0.0, , , , , , 97, , , 53, 53, 53
38.1644349, -120.1138931, 43.800, 11:54:36.521, 21, 0.00, 0.37, 96, -1.700, -2.200, -89.200, 1421, 100, 88, 21, 22833, -19334, 5216, 5434, 14, 14, 1526064876.522, 77, 0, 1024, 1024, 1024, 1024, 0, 6, 3788, 3813, 3817, 3814, 3807, 3813, 0, 1, 20101, -89.900, 0.000, -89.300, 0.000, 0.000, -3.100, 0.0, , , , , , 97, , , 53, 53, 53
38.1644350, -120.1138931, 44.100, 11:54:36.622, 21, 0.00, 0.37, 96, -1.400, -2.600, -89.500, 1421, 100, 88, 21, 22833, -19334, 5216, 5434, 14, 14, 1526064876.622, 56, 0, 1024, 1024, 1024, 1024, 0, 6, 3788, 3813, 3817, 3814, 3807, 3813, 0, 1, 20201, -90.000, 0.000, -89.300, 0.000, 0.000, -3.000, 0.0, , , , , , 97, , , 53, 53, 53
38.1644350, -120.1138930, 44.400, 11:54:36.722, 21, 0.00, 0.37, 96, -1.200, -2.900, -89.600, 1421, 100, 88, 21, 22833, -19334, 5216, 5434, 14, 14, 1526064876.723, 56, 0, 1024, 1024, 1024, 1024, 0, 6, 3788, 3813, 3817, 3814, 3807, 3813, 0, 1, 20301, -90.000, 0.000, -89.300, 0.000, 0.000, -3.000, 0.0, , , , , , 97, , , 53, 53, 53
38.1644351, -120.1138930, 44.700, 11:54:36.822, 21, 0.00, 0.37, 96, -1.300, -3.200, -89.800, 1421, 100, 88, 21, 22833, -19334, 5216, 5434, 14, 14, 1526064876.823, 48, 0, 1024, 1024, 1024, 1024, 0, 6, 3788, 3813, 3817, 3814, 3807, 3813, 0, 1, 20401, -90.000, 0.000, -89.300, 0.000, 0.000, -3.000, 0.0, , , , , , 97, , , 53, 53, 53
38.1644351, -120.1138929, 45.000, 11:54:36.922, 21, 0.00, 0.36, 96, -1.400, -3.400, -89.800, 1421, 100, 90, 21, 22833, -19334, 5216, 5434, 14, 14, 1526064876.924, 59, 0, 1024, 1024, 1024, 1024, 0, 6, 3788, 3813, 3817, 3814, 3807, 3813, 0, 1, 20503, -90.000, 0.000, -89.300, 0.000, 0.000, -2.900, 0.0, , , , , , 97, , , 53, 53, 53
38.1644352, -120.1138929, 45.300, 11:54:37.021, 21, 0.00, 0.36, 96, -1.400, -3.400, -89.700, 1421, 100, 90, 21, 22833, -19334, 5216, 5434, 14, 14, 1526064877.022, 69, 0, 1024, 1024, 1024, 1024, 0, 6, 3788, 3813, 3817, 3814, 3807, 3813, 0, 1, 20600, -90.000, 0.000, -89.300, 0.000, 0.000, -2.900, 0.0, , , , , , 97, , , 53, 53, 53
