latitude,longitude,altitude(feet),ascent(feet),speed(mph),distance(feet),time(millisecond),datetime(utc),satellites,gpslevel,voltage(v),max_altitude(feet),max_ascent(feet),max_speed(mph),max_distance(feet), xSpeed(mph), ySpeed(mph), zSpeed(mph), compass_heading(degrees), pitch(degrees), roll(degrees),isPhoto,isVideo,rc_elevator,rc_aileron,rc_throttle,rc_rudder,gimbal_heading(degrees),gimbal_pitch(degrees),battery_percent,voltageCell1,voltageCell2,voltageCell3,voltageCell4,voltageCell5,voltageCell6,current(A),battery_temperature(f),flycStateRaw,flycState,message
38.1644148,-120.1139044,4997.0637442236,0,0,0,3300,2018-05-11 17:48:58,15,0,0,4997.0637442236,0,0,0,0,0,0,274.9, 1.9, -0.3,1,0,1024,1024,1024,1024,275.8,-89.9,98,4.136,4.066,4.097,4.098,4.055,4.106,0,57.2,11,AutoTakeoff,
38.1644146,-120.1139043,4997.0637442236,0,0.223694,0.078405842404,3400,2018-05-11 17:48:58,15,0,0,4997.0637442236,0,0.223694,0.078405842404,0,0,0,275.2, 0.5, 0.3,0,0,1024,1024,1024,1024,275.8,-90,98,4.136,4.066,4.097,4.098,4.055,4.106,0,57.2,11,AutoTakeoff,
38.1644145,-120.1139042,4997.3918282236,0.328084,0,0.12357940028,3600,2018-05-11 17:48:58,14,0,0,4997.3918282236,0.328084,0.223694,0.12357940028,0,0,0,275.3, -0.4, 0.3,0,0,1024,1024,1024,1024,275.8,-90,98,4.136,4.066,4.097,4.098,4.055,4.106,0,57.2,11,AutoTakeoff,
38.1644143,-120.1139041,4997.7199122236,0.656168,0,0.20170440278,3800,2018-05-11 17:48:59,13,0,0,4997.7199122236,0.656168,0.223694,0.20170440278,0,0,0,275.2, -0.5, 0.6,0,0,1024,1024,1024,1024,275.8,-90,98,4.136,4.066,4.097,4.098,4.055,4.106,0,57.2,11,AutoTakeoff,
38.1644143,-120.1139041,4998.0479962236,0.984252,0,0.20170440278,3900,2018-05-11 17:48:59,13,0,0,4998.0479962236,0.984252,0.223694,0.20170440278,0,0,0,275.1, -0.6, 0.5,0,0,1024,1024,1024,1024,275.8,-90,98,4.136,4.066,4.097,4.098,4.055,4.106,0,57.2,11,AutoTakeoff,
38.1644142,-120.1139041,4998.0479962236,0.984252,0,0.235217855296,4000,2018-05-11 17:48:59,13,0,24.846,4998.0479962236,0.984252,0.223694,0.235217855296,0,0,-0.223694,275.2, -0.5, 0.5,0,0,1024,1024,1024,1024,275.8,-89.9,98,4.136,4.066,4.097,4.098,4.055,4.106,6.1,57.2,11,AutoTakeoff,
38.1644142,-120.1139041,4998.3760802236,1.312336,0,0.235217855296,4100,2018-05-11 17:48:59,14,0,24.846,4998.3760802236,1.312336,0.223694,0.235217855296,0,0,0,275.3, -0.3, 0.7,0,0,1024,1024,1024,1024,275.8,-89.9,98,4.136,4.066,4.097,4.098,4.055,4.106,6.1,57.2,11,AutoTakeoff,
38.1644141,-120.1139041,4998.3760802236,1.312336,0,0.269503945632,4200,2018-05-11 17:48:59,14,0,24.846,4998.3760802236,1.312336,0.223694,0.269503945632,0,0,0,275.4, -0.1, 0.8,0,0,1024,1024,1024,1024,275.8,-89.9,98,4.136,4.066,4.097,4.098,4.055,4.106,6.1,57.2,11,AutoTakeoff,
38.164414,-120.1139041,4998.7041642236,1.64042,0,0.304301847008,4300,2018-05-11 17:48:59,13,0,24.846,4998.7041642236,1.64042,0.223694,0.304301847008,0,0,0,275.4, -0.1, 0.9,0,0,1024,1024,1024,1024,275.8,-89.9,98,4.136,4.066,4.097,4.098,4.055,4.106,6.1,57.2,11,AutoTakeoff,
38.1644139,-120.1139041,4998.7041642236,1.64042,0,0.33945539144,4400,2018-05-11 17:48:59,13,0,24.846,4998.7041642236,1.64042,0.223694,0.33945539144,0,0,0,275.4, -0.1, 1,0,0,1024,1024,1024,1024,275.8,-89.9,98,4.136,4.066,4.097,4.098,4.055,4.106,6.1,57.2,11,AutoTakeoff,
38.1644139,-120.1139041,4999.0322482236,1.968504,0,0.33945539144,4500,2018-05-11 17:48:59,13,0,24.846,4999.0322482236,1.968504,0.223694,0.33945539144,0,0,0,275.3, -0.2, 1,0,0,1024,1024,1024,1024,275.8,-90,98,4.136,4.066,4.097,4.098,4.055,4.106,6.1,57.2,11,AutoTakeoff,
38.1644138,-120.1139041,4999.0322482236,1.968504,0,0.37486221672,4600,2018-05-11 17:48:59,13,0,24.846,4999.0322482236,1.968504,0.223694,0.37486221672,0,0,-0.223694,275.2, -0.3, 1,0,0,1024,1024,1024,1024,275.8,-90,98,4.136,4.066,4.097,4.098,4.055,4.106,6.1,57.2,11,AutoTakeoff,
38.1644138,-120.113904,4999.3603322236,2.296588,0,0.38246720384,4700,2018-05-11 17:48:59,13,0,24.846,4999.3603322236,2.296588,0.223694,0.38246720384,0,0,-0.223694,275.2, -0.3, 1,0,0,1024,1024,1024,1024,275.8,-90,98,4.136,4.066,4.097,4.098,4.055,4.106,6.1,57.2,11,AutoTakeoff,
38.1644138,-120.1139041,4999.6884162236,2.624672,0,0.37486221672,4800,2018-05-11 17:49:00,13,0,24.846,4999.6884162236,2.624672,0.223694,0.38246720384,0,0,-0.223694,275.2, -0.4, 0.9,0,0,1024,1024,1024,1024,275.8,-90,98,4.136,4.066,4.097,4.098,4.055,4.106,6.1,57.2,11,AutoTakeoff,
38.1644138,-120.113904,4999.6884162236,2.624672,0,0.38246720384,4900,2018-05-11 17:49:00,15,0,24.846,4999.6884162236,2.624672,0.223694,0.38246720384,0,0,0,275.2, -0.4, 0.7,0,0,1024,1024,1024,1024,275.8,-89.9,98,4.136,4.066,4.097,4.098,4.055,4.106,6.1,57.2,11,AutoTakeoff,
38.1644138,-120.113904,5000.0165002236,2.952756,0,0.38246720384,5000,2018-05-11 17:49:00,15,0,23.619,5000.0165002236,2.952756,0.223694,0.38246720384,0,0,-0.223694,275.2, -0.2, 0.4,0,0,1024,1024,1024,1024,275.8,-89.9,98,3.926,3.912,3.931,3.942,3.899,3.941,15.927,57.2,6,P-GPS,
38.1644138,-120.113904,5000.0165002236,2.952756,0,0.38246720384,5100,2018-05-11 17:49:00,15,0,23.619,5000.0165002236,2.952756,0.223694,0.38246720384,0,0,0,275.2, -0.3, 0.2,0,0,1024,1024,1024,1024,275.8,-90,98,3.926,3.912,3.931,3.942,3.899,3.941,15.927,57.2,14,Waypoint,
38.1644138,-120.1139039,5000.3445842236,3.28084,0,0.39203085244,5200,2018-05-11 17:49:00,15,0,23.619,5000.3445842236,3.28084,0.223694,0.39203085244,0,0,0,275.1, -0.5, 0,0,0,1024,1024,1024,1024,275.8,-90,98,3.926,3.912,3.931,3.942,3.899,3.941,15.927,57.2,14,Waypoint,
38.1644138,-120.1139038,5000.3445842236,3.28084,0,0.40340880556,5300,2018-05-11 17:49:00,14,0,23.619,5000.3445842236,3.28084,0.223694,0.40340880556,0,0,0,275, -0.6, -0.2,0,0,1024,1024,1024,1024,275.8,-90,98,3.926,3.912,3.931,3.942,3.899,3.941,15.927,57.2,14,Waypoint,
38.1644138,-120.1139038,5000.3445842236,3.28084,0,0.40340880556,5400,2018-05-11 17:49:00,14,0,23.619,5000.3445842236,3.28084,0.223694,0.40340880556,0,0,0,275, -0.6, 0,0,0,1024,1024,1024,1024,275.8,-90,98,3.926,3.912,3.931,3.942,3.899,3.941,15.927,57.2,14,Waypoint,
38.1644138,-120.1139037,5000.6726682236,3.608924,0,0.41645670624,5500,2018-05-11 17:49:00,14,0,23.619,5000.6726682236,3.608924,0.223694,0.41645670624,0,0,0,275.1, -0.6, 0.3,0,0,1024,1024,1024,1024,275.8,-89.9,98,3.926,3.912,3.931,3.942,3.899,3.941,15.927,57.2,14,Waypoint,
38.1644137,-120.1139037,5000.6726682236,3.608924,0,0.44876641856,5600,2018-05-11 17:49:00,14,0,23.619,5000.6726682236,3.608924,0.223694,0.44876641856,0,0,-0.223694,275.3, -0.5, 0.7,0,0,1024,1024,1024,1024,275.8,-90,98,3.926,3.912,3.931,3.942,3.899,3.941,15.927,57.2,14,Waypoint,
38.1644136,-120.1139037,5001.3288362236,4.265092,0,0.48166996292,5800,2018-05-11 17:49:01,14,0,23.619,5001.3288362236,4.265092,0.223694,0.48166996292,0,0,-0.223694,275.4, -0.5, 1.1,0,0,1024,1024,1024,1024,275.8,-89.9,98,3.926,3.912,3.931,3.942,3.899,3.941,15.927,57.2,14,Waypoint,
38.1644136,-120.1139037,5001.9850042236,4.92126,0,0.48166996292,5900,2018-05-11 17:49:01,14,0,23.619,5001.9850042236,4.92126,0.223694,0.48166996292,0,0,-0.223694,275.1, -0.1, 0.9,0,0,1024,1024,1024,1024,275.8,-89.9,98,3.926,3.912,3.931,3.942,3.899,3.941,15.927,57.2,14,Waypoint,
38.1644136,-120.1139037,5002.3130882236,5.249344,0,0.48166996292,6000,2018-05-11 17:49:01,13,0,23.27,5002.3130882236,5.249344,0.223694,0.48166996292,0,0,-0.223694,274.9, -0.1, 0.8,0,0,1024,1024,1024,1024,275.8,-89.9,98,3.86,3.873,3.887,3.896,3.854,3.898,17.06,57.2,14,Waypoint,
38.1644137,-120.1139037,5002.6411722236,5.577428,0,0.44876641856,6120,2018-05-11 17:49:01,13,0,23.27,5002.6411722236,5.577428,0.223694,0.48166996292,0,0,-0.447388,274.7, -0.2, 0.8,0,0,1024,1024,1024,1024,275.8,-90,98,3.86,3.873,3.887,3.896,3.854,3.898,17.06,57.2,14,Waypoint,
38.1644138,-120.1139037,5003.2973402236,6.233596,0,0.41645670624,6210,2018-05-11 17:49:01,12,0,23.27,5003.2973402236,6.233596,0.223694,0.48166996292,0,0,-0.447388,274.6, -0.2, 0.7,0,0,1024,1024,1024,1024,275.8,-90,98,3.86,3.873,3.887,3.896,3.854,3.898,17.06,57.2,14,Waypoint,
38.1644138,-120.1139037,5003.2973402236,6.233596,0,0.41645670624,6300,2018-05-11 17:49:01,12,0,23.27,5003.2973402236,6.233596,0.223694,0.48166996292,0,0,-0.447388,274.6, -0.2, 0.7,0,0,1024,1024,1024,1024,275.8,-90,98,3.86,3.873,3.887,3.896,3.854,3.898,17.06,57.2,14,Waypoint,
38.1644139,-120.1139037,5003.9535082236,6.889764,0,0.38489502544,6400,2018-05-11 17:49:01,12,0,23.27,5003.9535082236,6.889764,0.223694,0.48166996292,0,0,-0.447388,274.5, -0.2, 0.5,0,0,1024,1024,1024,1024,275.8,-90,98,3.86,3.873,3.887,3.896,3.854,3.898,17.06,57.2,14,Waypoint,
38.1644141,-120.1139037,5004.6096762236,7.545932,0,0.324880915908,6500,2018-05-11 17:49:01,12,0,23.27,5004.6096762236,7.545932,0.223694,0.48166996292,0,0,-0.447388,274.5, -0.1, 0.1,0,0,1024,1024,1024,1024,275.8,-89.9,98,3.86,3.873,3.887,3.896,3.854,3.898,17.06,57.2,14,Waypoint,
38.1644144,-120.1139036,5005.5939282236,8.530184,0,0.271961294792,6600,2018-05-11 17:49:01,12,0,23.27,5005.5939282236,8.530184,0.223694,0.48166996292,0,0,-0.671082,274.5, -0.2, -0.2,0,0,1024,1024,1024,1024,275.8,-89.9,98,3.86,3.873,3.887,3.896,3.854,3.898,17.06,57.2,14,Waypoint,
38.1644146,-120.1139036,5006.5781802236,9.514436,0,0.240809390908,6700,2018-05-11 17:49:01,15,0,23.27,5006.5781802236,9.514436,0.223694,0.48166996292,0,0,-0.671082,274.6, -0.4, -0.4,0,0,1024,1024,1024,1024,275.8,-90,98,3.86,3.873,3.887,3.896,3.854,3.898,17.06,57.2,14,Waypoint,
38.1644148,-120.1139035,5007.5624322236,10.498688,0,0.258173564692,6800,2018-05-11 17:49:02,15,0,23.27,5007.5624322236,10.498688,0.223694,0.48166996292,0,0,-0.671082,274.7, -0.6, -0.6,0,0,1024,1024,1024,1024,275.8,-90,98,3.86,3.873,3.887,3.896,3.854,3.898,17.06,57.2,14,Waypoint,
38.1644149,-120.1139035,5008.5466842236,11.48294,0,0.260738853488,6900,2018-05-11 17:49:02,14,0,23.27,5008.5466842236,11.48294,0.223694,0.48166996292,0,0,-0.671082,274.8, -0.6, -0.7,0,0,1024,1024,1024,1024,275.8,-90,98,3.86,3.873,3.887,3.896,3.854,3.898,17.06,57.2,14,Waypoint,
38.1644151,-120.1139035,5009.5309362236,12.467192,0,0.280417331808,7000,2018-05-11 17:49:02,14,0,23.166,5009.5309362236,12.467192,0.223694,0.48166996292,0,0,-0.671082,274.9, -0.6, -0.8,0,0,1024,1024,1024,1024,275.8,-90,98,3.811,3.821,3.852,3.853,3.798,3.862,16.923,57.2,14,Waypoint,
38.1644153,-120.1139035,5010.8432722236,13.779528,0,0.316120745024,7100,2018-05-11 17:49:02,14,0,23.166,5010.8432722236,13.779528,0.223694,0.48166996292,0,0,-0.671082,274.9, -0.5, -1.1,0,0,1024,1024,1024,1024,275.8,-90,98,3.811,3.821,3.852,3.853,3.798,3.862,16.923,57.2,14,Waypoint,
38.1644155,-120.1139034,5011.8275242236,14.76378,0,0.38407809628,7200,2018-05-11 17:49:02,14,0,23.166,5011.8275242236,14.76378,0.223694,0.48166996292,0,0,-0.671082,274.9, -0.3, -1.3,0,0,1024,1024,1024,1024,275.8,-89.9,98,3.811,3.821,3.852,3.853,3.798,3.862,16.923,57.2,14,Waypoint,
38.1644157,-120.1139033,5013.1398602236,16.076116,0,0.45540355788,7300,2018-05-11 17:49:02,14,0,23.166,5013.1398602236,16.076116,0.223694,0.48166996292,0,0,-0.671082,275, -0.3, -1.5,0,0,1024,1024,1024,1024,275.8,-90,98,3.811,3.821,3.852,3.853,3.798,3.862,16.923,57.2,14,Waypoint,
38.1644159,-120.1139034,5014.1241122236,17.060368,0,0.49331366408,7400,2018-05-11 17:49:02,14,0,23.166,5014.1241122236,17.060368,0.223694,0.49331366408,0,0,-0.671082,275, -0.4, -1.6,0,0,1024,1024,1024,1024,275.8,-89.9,98,3.811,3.821,3.852,3.853,3.798,3.862,16.923,57.2,14,Waypoint,
38.164416,-120.1139034,5015.1083642236,18.04462,0,0.5234252136,7500,2018-05-11 17:49:02,13,0,23.166,5015.1083642236,18.04462,0.223694,0.5234252136,0,0,-0.671082,275, -0.3, -1.6,0,0,1024,1024,1024,1024,275.8,-89.9,98,3.811,3.821,3.852,3.853,3.798,3.862,16.923,57.2,14,Waypoint,
38.164416,-120.1139034,5016.4207002236,19.356956,0,0.5234252136,7600,2018-05-11 17:49:02,13,0,23.166,5016.4207002236,19.356956,0.223694,0.5234252136,0,0,-0.671082,274.9, -0.1, -1.5,0,0,1024,1024,1024,1024,275.8,-89.9,98,3.811,3.821,3.852,3.853,3.798,3.862,16.923,57.2,14,Waypoint,
38.1644159,-120.1139034,5017.4049522236,20.341208,0,0.49331366408,7700,2018-05-11 17:49:02,13,0,23.166,5017.4049522236,20.341208,0.223694,0.5234252136,0,0,-0.671082,274.9, 0, -1.2,0,0,1024,1024,1024,1024,275.8,-89.9,98,3.811,3.821,3.852,3.853,3.798,3.862,16.923,57.2,14,Waypoint,
38.1644158,-120.1139035,5018.7172882236,21.653544,0.223694,0.44695539488,7800,2018-05-11 17:49:03,13,0,23.166,5018.7172882236,21.653544,0.223694,0.5234252136,0,0,-0.671082,274.9, 0, -0.8,0,0,1024,1024,1024,1024,275.8,-89.9,98,3.811,3.821,3.852,3.853,3.798,3.862,16.923,57.2,14,Waypoint,
38.1644157,-120.1139036,5019.7015402236,22.637796,0.223694,0.40061024904,7900,2018-05-11 17:49:03,13,0,23.166,5019.7015402236,22.637796,0.223694,0.5234252136,0,0,-0.671082,274.9, 0.2, -0.4,0,0,1024,1024,1024,1024,275.8,-89.9,98,3.811,3.821,3.852,3.853,3.798,3.862,16.923,57.2,14,Waypoint,
38.1644154,-120.1139037,5020.6857922236,23.622048,0.223694,0.297056768036,8000,2018-05-11 17:49:03,13,0,22.425,5020.6857922236,23.622048,0.223694,0.5234252136,0,0,-0.671082,274.9, 0.5, 0,0,0,1024,1024,1024,1024,275.8,-89.9,98,3.687,3.709,3.731,3.738,3.688,3.744,24.106,57.2,14,Waypoint,
38.1644152,-120.1139037,5021.9981282236,24.934384,0.223694,0.24823327566,8100,2018-05-11 17:49:03,15,0,22.425,5021.9981282236,24.934384,0.223694,0.5234252136,0,0,-0.671082,274.9, 0.6, 0.4,0,0,1024,1024,1024,1024,275.8,-89.9,98,3.687,3.709,3.731,3.738,3.688,3.744,24.106,57.2,14,Waypoint,
38.164415,-120.1139039,5022.9823802236,25.918636,0.223694,0.160924545832,8200,2018-05-11 17:49:03,15,0,22.425,5022.9823802236,25.918636,0.223694,0.5234252136,0,0,-0.671082,274.9, 0.7, 0.9,0,0,1024,1024,1024,1024,275.8,-89.9,98,3.687,3.709,3.731,3.738,3.688,3.744,24.106,57.2,14,Waypoint,
38.1644148,-120.113904,5023.9666322236,26.902888,0.223694,0.114743770076,8300,2018-05-11 17:49:03,15,0,22.425,5023.9666322236,26.902888,0.223694,0.5234252136,0,0,-0.671082,274.8, 0.7, 1.3,0,0,1024,1024,1024,1024,275.8,-89.9,98,3.687,3.709,3.731,3.738,3.688,3.744,24.106,57.2,14,Waypoint,
38.1644145,-120.1139041,5025.2789682236,28.215224,0.223694,0.139234584508,8500,2018-05-11 17:49:03,15,0,22.425,5025.2789682236,28.215224,0.223694,0.5234252136,0,0,-0.671082,274.8, 0.8, 1.5,0,0,1024,1024,1024,1024,275.8,-89.9,98,3.687,3.709,3.731,3.738,3.688,3.744,24.106,57.2,14,Waypoint,
38.1644143,-120.1139042,5026.2632202236,29.199476,0.223694,0.19123360192,8600,2018-05-11 17:49:03,14,0,22.425,5026.2632202236,29.199476,0.223694,0.5234252136,0,0,-0.671082,274.9, 0.9, 1.7,0,0,1024,1024,1024,1024,275.8,-89.9,98,3.687,3.709,3.731,3.738,3.688,3.744,24.106,57.2,14,Waypoint,
38.1644134,-120.1139045,5029.5440602236,32.480316,0.223694,0.51159450456,8700,2018-05-11 17:49:03,15,0,22.425,5029.5440602236,32.480316,0.223694,0.5234252136,0,0,-0.671082,275.1, 1, 2.6,0,0,1024,1024,1024,1024,275.8,-89.9,98,3.687,3.709,3.731,3.738,3.688,3.744,24.106,57.2,14,Waypoint,
38.1644131,-120.1139045,5030.5283122236,33.464568,0.223694,0.62090553168,8900,2018-05-11 17:49:04,15,0,22.425,5030.5283122236,33.464568,0.223694,0.62090553168,0,0,-0.671082,275.2, 0.6, 2.5,0,0,1024,1024,1024,1024,275.8,-89.9,98,3.687,3.709,3.731,3.738,3.688,3.744,24.106,57.2,14,Waypoint,
38.1644129,-120.1139045,5031.5125642236,34.44882,0,0.69380579648,9000,2018-05-11 17:49:04,15,0,22.706,5031.5125642236,34.44882,0.223694,0.69380579648,0,0,-0.671082,275.2, 0.2, 2.5,0,0,1024,1024,1024,1024,275.8,-90,98,3.768,3.779,3.788,3.813,3.767,3.81,20.232,57.2,14,Waypoint,
38.1644127,-120.1139045,5032.4968162236,35.433072,0,0.76671918464,9100,2018-05-11 17:49:04,15,0,22.706,5032.4968162236,35.433072,0.223694,0.76671918464,0,0,-0.671082,275.2, 0, 2.4,0,0,1024,1024,1024,1024,275.8,-90,98,3.768,3.779,3.788,3.813,3.767,3.81,20.232,57.2,14,Waypoint,
38.1644125,-120.1139045,5033.4810682236,36.417324,0,0.83964241532,9200,2018-05-11 17:49:04,15,0,22.706,5033.4810682236,36.417324,0.223694,0.83964241532,0,0,-0.671082,275.1, -0.1, 2.3,0,0,1024,1024,1024,1024,275.8,-90,98,3.768,3.779,3.788,3.813,3.767,3.81,20.232,57.2,14,Waypoint,
38.1644123,-120.1139045,5034.4653202236,37.401576,0,0.91257548852,9300,2018-05-11 17:49:04,15,0,22.706,5034.4653202236,37.401576,0.223694,0.91257548852,0,0,-0.671082,275, -0.1, 2.3,0,0,1024,1024,1024,1024,275.8,-90,98,3.768,3.779,3.788,3.813,3.767,3.81,20.232,57.2,14,Waypoint,
38.1644121,-120.1139045,5035.4495722236,38.385828,0,0.98551184256,9400,2018-05-11 17:49:04,15,0,22.706,5035.4495722236,38.385828,0.223694,0.98551184256,0,0,-0.671082,274.9, 0, 2.2,0,0,1024,1024,1024,1024,275.8,-89.9,98,3.768,3.779,3.788,3.813,3.767,3.81,20.232,57.2,14,Waypoint,
38.164412,-120.1139046,5036.4338242236,39.37008,0,1.02318900912,9500,2018-05-11 17:49:04,16,0,22.706,5036.4338242236,39.37008,0.223694,1.02318900912,0,0,-0.671082,274.8, 0.2, 1.9,0,0,1024,1024,1024,1024,275.8,-89.9,98,3.768,3.779,3.788,3.813,3.767,3.81,20.232,57.2,14,Waypoint,
38.1644119,-120.1139047,5037.4180762236,40.354332,0,1.06155843292,9700,2018-05-11 17:49:04,16,0,22.706,5037.4180762236,40.354332,0.223694,1.06155843292,0,0,-0.671082,274.8, 0.5, 1.8,0,0,1024,1024,1024,1024,275.8,-89.9,98,3.768,3.779,3.788,3.813,3.767,3.81,20.232,57.2,14,Waypoint,
38.1644118,-120.1139048,5038.4023282236,41.338584,0,1.10054465464,9800,2018-05-11 17:49:05,16,0,22.706,5038.4023282236,41.338584,0.223694,1.10054465464,0,0,-0.671082,274.8, 0.8, 1.7,0,0,1024,1024,1024,1024,275.8,-89.9,98,3.768,3.779,3.788,3.813,3.767,3.81,20.232,57.2,14,Waypoint,
38.1644118,-120.1139048,5039.3865802236,42.322836,0,1.10054465464,10000,2018-05-11 17:49:05,16,0,22.758,5039.3865802236,42.322836,0.223694,1.10054465464,0,0,-0.671082,274.8, 1.2, 1.7,0,0,1024,1024,1024,1024,275.8,-89.9,98,3.773,3.794,3.794,3.818,3.761,3.809,19.334,57.2,14,Waypoint,
38.1644118,-120.1139049,5040.3708322236,43.307088,0,1.1039042348,10100,2018-05-11 17:49:05,15,0,22.758,5040.3708322236,43.307088,0.223694,1.1039042348,0,0,-0.671082,274.9, 1.6, 1.9,0,0,1024,1024,1024,1024,275.8,-89.9,98,3.773,3.794,3.794,3.818,3.761,3.809,19.334,57.2,14,Waypoint,
38.1644117,-120.113905,5041.3550842236,44.29134,0,1.14405515472,10200,2018-05-11 17:49:05,15,0,22.758,5041.3550842236,44.29134,0.223694,1.14405515472,0,0,-0.671082,275, 1.6, 2,0,0,1024,1024,1024,1024,275.8,-89.9,98,3.773,3.794,3.794,3.818,3.761,3.809,19.334,57.2,14,Waypoint,
38.1644116,-120.113905,5042.3393362236,45.275592,0,1.18013783304,10400,2018-05-11 17:49:05,15,0,22.758,5042.3393362236,45.275592,0.223694,1.18013783304,0,0,-0.671082,275, 1.2, 2.1,0,0,1024,1024,1024,1024,275.8,-89.9,98,3.773,3.794,3.794,3.818,3.761,3.809,19.334,57.2,14,Waypoint,
38.1644116,-120.1139049,5043.3235882236,46.259844,0,1.1762959694,10500,2018-05-11 17:49:05,15,0,22.758,5043.3235882236,46.259844,0.223694,1.18013783304,0,0,-0.671082,275, 0.8, 2.1,0,0,1024,1024,1024,1024,275.8,-90,98,3.773,3.794,3.794,3.818,3.761,3.809,19.334,57.2,14,Waypoint,
38.1644117,-120.1139049,5044.6359242236,47.57218,0,1.1400919,10600,2018-05-11 17:49:05,16,0,22.758,5044.6359242236,47.57218,0.223694,1.18013783304,0,0,-0.671082,275, 0.5, 2,0,0,1024,1024,1024,1024,275.8,-90,98,3.773,3.794,3.794,3.818,3.761,3.809,19.334,57.2,14,Waypoint,
38.1644118,-120.1139047,5046.6044282236,49.540684,0.223694,1.09792654432,10800,2018-05-11 17:49:06,16,0,22.758,5046.6044282236,49.540684,0.223694,1.18013783304,0,0,-0.671082,275, 0, 1.5,0,0,1024,1024,1024,1024,275.8,-90,98,3.773,3.794,3.794,3.818,3.761,3.809,19.334,57.2,14,Waypoint,
38.1644119,-120.1139047,5048.5729322236,51.509188,0.223694,1.06155843292,11000,2018-05-11 17:49:06,15,0,22.681,5048.5729322236,51.509188,0.223694,1.18013783304,0,0,-0.671082,274.9, 0, 1,0,0,1024,1024,1024,1024,275.8,-90,98,3.773,3.794,3.794,3.818,3.761,3.809,19.961,57.2,14,Waypoint,
38.1644121,-120.1139046,5050.5414362236,53.477692,0.223694,0.9867618426,11100,2018-05-11 17:49:06,16,0,22.681,5050.5414362236,53.477692,0.223694,1.18013783304,0,0,-0.671082,274.6, 0.3, 0.4,0,0,1024,1024,1024,1024,275.8,-89.9,98,3.773,3.794,3.794,3.818,3.761,3.809,19.961,57.2,14,Waypoint,
38.1644122,-120.1139046,5051.1976042236,54.13386,0.223694,0.95034123776,11200,2018-05-11 17:49:06,16,0,22.681,5051.1976042236,54.13386,0.223694,1.18013783304,0,0,-0.671082,274.5, 0.4, 0.3,0,0,1024,1024,1024,1024,275.8,-89.9,98,3.773,3.794,3.794,3.818,3.761,3.809,19.961,57.2,14,Waypoint,
38.1644123,-120.1139045,5052.1818562236,55.118112,0,0.91257548852,11400,2018-05-11 17:49:06,16,0,22.681,5052.1818562236,55.118112,0.223694,1.18013783304,0,0,-0.671082,274.6, 0.2, 0.4,0,0,1024,1024,1024,1024,275.8,-90,98,3.773,3.794,3.794,3.818,3.761,3.809,19.961,57.2,14,Waypoint,
38.1644124,-120.1139045,5053.1661082236,56.102364,0,0.87610895192,11500,2018-05-11 17:49:06,16,0,22.681,5053.1661082236,56.102364,0.223694,1.18013783304,0,0,-0.671082,274.7, 0, 0.7,0,0,1024,1024,1024,1024,275.8,-90,98,3.773,3.794,3.794,3.818,3.761,3.809,19.961,57.2,14,Waypoint,
38.1644127,-120.1139044,5057.4312002236,60.367456,0,0.76618440772,11600,2018-05-11 17:49:06,16,0,22.681,5057.4312002236,60.367456,0.223694,1.18013783304,0,0,-0.671082,275, 0, 1,0,0,1024,1024,1024,1024,275.8,-90,98,3.773,3.794,3.794,3.818,3.761,3.809,19.961,57.2,14,Waypoint,
38.1644128,-120.1139043,5058.4154522236,61.351708,0,0.73026249056,11700,2018-05-11 17:49:06,17,0,22.681,5058.4154522236,61.351708,0.223694,1.18013783304,0,0,-0.671082,275, 0, 1,0,0,1024,1024,1024,1024,275.8,-90,98,3.773,3.794,3.794,3.818,3.761,3.809,19.961,57.2,14,Waypoint,
38.1644128,-120.1139042,5059.3997042236,62.33596,0,0.73195212316,11800,2018-05-11 17:49:07,17,0,22.681,5059.3997042236,62.33596,0.223694,1.18013783304,0,0,-0.671082,275, -0.3, 1,0,0,1024,1024,1024,1024,275.8,-90,98,3.773,3.794,3.794,3.818,3.761,3.809,19.961,57.2,14,Waypoint,
38.1644129,-120.1139041,5060.3839562236,63.320212,0,0.69853676776,11900,2018-05-11 17:49:07,18,0,22.681,5060.3839562236,63.320212,0.223694,1.18013783304,0,0,-0.671082,275, -0.7, 1,0,0,1024,1024,1024,1024,275.8,-90,98,3.773,3.794,3.794,3.818,3.761,3.809,19.961,57.2,14,Waypoint,
38.164413,-120.113904,5061.3682082236,64.304464,0,0.66667653052,12010,2018-05-11 17:49:07,18,0,22.681,5061.3682082236,64.304464,0.223694,1.18013783304,0,0,-0.671082,275, -0.9, 1,0,0,1024,1024,1024,1024,275.8,-90,98,3.755,3.769,3.797,3.804,3.748,3.797,19.961,57.2,14,Waypoint,
38.1644131,-120.1139039,5062.3524602236,65.288716,0,0.63661091276,12100,2018-05-11 17:49:07,17,0,22.681,5062.3524602236,65.288716,0.223694,1.18013783304,0,0,-0.671082,275, -0.9, 0.9,0,0,1024,1024,1024,1024,275.8,-90,98,3.755,3.769,3.797,3.804,3.748,3.797,19.961,57.2,14,Waypoint,
38.1644131,-120.1139039,5063.3367122236,66.272968,0,0.63661091276,12200,2018-05-11 17:49:07,17,0,22.681,5063.3367122236,66.272968,0.223694,1.18013783304,0,0,-0.671082,275, -0.6, 0.9,0,0,1024,1024,1024,1024,275.8,-89.9,98,3.755,3.769,3.797,3.804,3.748,3.797,19.961,57.2,14,Waypoint,
38.1644132,-120.1139038,5064.3209642236,67.25722,0,0.60860238168,12300,2018-05-11 17:49:07,18,0,22.681,5064.3209642236,67.25722,0.223694,1.18013783304,0,0,-0.671082,275, -0.3, 0.9,0,0,1024,1024,1024,1024,275.8,-90,98,3.755,3.769,3.797,3.804,3.748,3.797,19.961,57.2,14,Waypoint,
38.1644134,-120.1139037,5065.9613842236,68.89764,0,0.54884188108,12500,2018-05-11 17:49:07,18,0,22.681,5065.9613842236,68.89764,0.223694,1.18013783304,0,0,-0.671082,275, -0.6, 0.6,0,0,1024,1024,1024,1024,275.8,-90,98,3.755,3.769,3.797,3.804,3.748,3.797,19.961,57.2,14,Waypoint,
38.1644135,-120.1139036,5066.9456362236,69.881892,0,0.52690618484,12600,2018-05-11 17:49:07,18,0,22.681,5066.9456362236,69.881892,0.223694,1.18013783304,0,0,-0.671082,275, -1.2, 0.3,0,0,1024,1024,1024,1024,275.8,-90,98,3.755,3.769,3.797,3.804,3.748,3.797,19.961,57.2,14,Waypoint,
38.1644136,-120.1139035,5067.9298882236,70.866144,0,0.50827101364,12700,2018-05-11 17:49:07,18,0,22.681,5067.9298882236,70.866144,0.223694,1.18013783304,0,0,-0.671082,275.1, -1.6, 0,0,0,1024,1024,1024,1024,275.8,-90,98,3.755,3.769,3.797,3.804,3.748,3.797,19.961,57.2,14,Waypoint,
38.1644137,-120.1139033,5069.8983922236,72.834648,0,0.51052823156,12900,2018-05-11 17:49:08,17,0,22.681,5069.8983922236,72.834648,0.223694,1.18013783304,0,0,-0.671082,275.3, -1.6, 0,0,0,1024,1024,1024,1024,275.8,-89.9,98,3.755,3.769,3.797,3.804,3.748,3.797,19.961,57.2,14,Waypoint,
38.1644138,-120.1139032,5070.8826442236,73.8189,0,0.5016076276,13000,2018-05-11 17:49:08,17,0,22.563,5070.8826442236,73.8189,0.223694,1.18013783304,0,0,-0.671082,275.3, -1.5, -0.1,0,0,1024,1024,1024,1024,275.8,-89.9,97,3.738,3.751,3.772,3.792,3.73,3.78,20.528,57.2,14,Waypoint,
38.1644139,-120.1139031,5071.8668962236,74.803152,0,0.49687993716,13100,2018-05-11 17:49:08,17,0,22.563,5071.8668962236,74.803152,0.223694,1.18013783304,0,0,-0.671082,275.3, -1.3, -0.2,0,0,1024,1024,1024,1024,275.8,-89.9,97,3.738,3.751,3.772,3.792,3.73,3.78,20.528,57.2,14,Waypoint,
38.164414,-120.113903,5072.8511482236,75.787404,0,0.49646655132,13200,2018-05-11 17:49:08,17,0,22.563,5072.8511482236,75.787404,0.223694,1.18013783304,0,0,-0.671082,275.3, -1.3, -0.2,0,0,1024,1024,1024,1024,275.8,-90,97,3.738,3.751,3.772,3.792,3.73,3.78,20.528,57.2,14,Waypoint,
38.1644142,-120.1139029,5074.8196522236,77.755908,0,0.48277232516,13500,2018-05-11 17:49:08,17,0,22.563,5074.8196522236,77.755908,0.223694,1.18013783304,0,0,-0.671082,275.3, -1.4, -0.4,0,0,1024,1024,1024,1024,275.8,-90,97,3.738,3.751,3.772,3.792,3.73,3.78,20.528,57.2,14,Waypoint,
38.1644144,-120.1139028,5077.4443242236,80.38058,0,0.48161746948,13700,2018-05-11 17:49:08,18,0,22.563,5077.4443242236,80.38058,0.223694,1.18013783304,0,0,-0.671082,275.1, -1.2, 0,0,0,1024,1024,1024,1024,275.8,-89.9,97,3.738,3.751,3.772,3.792,3.73,3.78,20.528,57.2,14,Waypoint,
38.1644144,-120.1139028,5078.4285762236,81.364832,0,0.48161746948,13900,2018-05-11 17:49:09,18,0,22.563,5078.4285762236,81.364832,0.223694,1.18013783304,0,0,-0.671082,275, -1.2, -0.1,0,0,1024,1024,1024,1024,275.8,-90,97,3.738,3.751,3.772,3.792,3.73,3.78,20.528,57.2,14,Waypoint,
38.1644145,-120.1139027,5079.4128282236,82.349084,0,0.49979332308,14000,2018-05-11 17:49:09,18,0,22.572,5079.4128282236,82.349084,0.223694,1.18013783304,0,0,-0.671082,274.9, -1.2, -0.4,0,0,1024,1024,1024,1024,275.8,-90,97,3.733,3.743,3.761,3.789,3.738,3.785,20.486,57.2,14,Waypoint,
38.1644145,-120.1139027,5080.3970802236,83.333336,0,0.49979332308,14100,2018-05-11 17:49:09,18,0,22.572,5080.3970802236,83.333336,0.223694,1.18013783304,0,0,-0.671082,274.8, -1.1, -0.5,0,0,1024,1024,1024,1024,275.8,-89.9,97,3.733,3.743,3.761,3.789,3.738,3.785,20.486,57.2,14,Waypoint,
38.1644146,-120.1139027,5081.3813322236,84.317588,0,0.49309056696,14200,2018-05-11 17:49:09,18,0,22.572,5081.3813322236,84.317588,0.223694,1.18013783304,0,0,-0.671082,274.7, -1, -0.5,0,0,1024,1024,1024,1024,275.8,-89.9,97,3.733,3.743,3.761,3.789,3.738,3.785,20.486,57.2,14,Waypoint,
38.1644147,-120.1139027,5083.3498362236,86.286092,0,0.4890256062,14400,2018-05-11 17:49:09,18,0,22.572,5083.3498362236,86.286092,0.223694,1.18013783304,0,0,-0.671082,274.4, -0.7, -0.2,0,0,1024,1024,1024,1024,275.8,-90,97,3.733,3.743,3.761,3.789,3.738,3.785,20.486,57.2,14,Waypoint,
38.1644146,-120.1139028,5084.3340882236,87.270344,0,0.46474082852,14500,2018-05-11 17:49:09,18,0,22.572,5084.3340882236,87.270344,0.223694,1.18013783304,0,0,-0.671082,274.4, -0.9, 0,0,0,1024,1024,1024,1024,275.8,-90,97,3.733,3.743,3.761,3.789,3.738,3.785,20.486,57.2,14,Waypoint,
38.1644146,-120.1139028,5085.3183402236,88.254596,0,0.46474082852,14600,2018-05-11 17:49:09,18,0,22.572,5085.3183402236,88.254596,0.223694,1.18013783304,0,0,-0.671082,274.5, -1, 0.2,0,0,1024,1024,1024,1024,275.8,-90,97,3.733,3.743,3.761,3.789,3.738,3.785,20.486,57.2,14,Waypoint,
38.1644147,-120.1139028,5087.2868442236,90.2231,0,0.46042324308,14700,2018-05-11 17:49:09,19,0,22.572,5087.2868442236,90.2231,0.223694,1.18013783304,0,0,-0.671082,274.7, -1, 0.2,0,0,1024,1024,1024,1024,275.8,-90,97,3.733,3.743,3.761,3.789,3.738,3.785,20.486,57.2,14,Waypoint,
38.1644147,-120.1139028,5089.2553482236,92.191604,0,0.46042324308,14900,2018-05-11 17:49:10,19,0,22.572,5089.2553482236,92.191604,0.223694,1.18013783304,0,0,-0.671082,275, -0.7, 0,0,0,1024,1024,1024,1024,275.8,-90,97,3.733,3.743,3.761,3.789,3.738,3.785,20.486,57.2,14,Waypoint,
38.1644147,-120.1139028,5090.2396002236,93.175856,0,0.46042324308,15000,2018-05-11 17:49:10,19,0,22.388,5090.2396002236,93.175856,0.223694,1.18013783304,0,0,-0.671082,275.1, -0.8, 0,0,0,1024,1024,1024,1024,275.8,-90,97,3.709,3.71,3.741,3.765,3.69,3.765,21.688,57.2,14,Waypoint,
38.1644146,-120.1139028,5091.2238522236,94.160108,0,0.46474082852,15100,2018-05-11 17:49:10,19,0,22.388,5091.2238522236,94.160108,0.223694,1.18013783304,0,0,-0.671082,275.2, -0.9, -0.1,0,0,1024,1024,1024,1024,275.8,-90,97,3.709,3.71,3.741,3.765,3.69,3.765,21.688,57.2,14,Waypoint,
38.1644146,-120.1139028,5092.2081042236,95.14436,0,0.46474082852,15200,2018-05-11 17:49:10,19,0,22.388,5092.2081042236,95.14436,0.223694,1.18013783304,0,0,-0.671082,275.2, -1, -0.1,0,0,1024,1024,1024,1024,275.8,-90,97,3.709,3.71,3.741,3.765,3.69,3.765,21.688,57.2,14,Waypoint,
38.1644146,-120.1139028,5093.1923562236,96.128612,0,0.46474082852,15300,2018-05-11 17:49:10,19,0,22.388,5093.1923562236,96.128612,0.223694,1.18013783304,0,0,-0.671082,275.2, -1.1, 0,0,0,1024,1024,1024,1024,275.8,-90,97,3.709,3.71,3.741,3.765,3.69,3.765,21.688,57.2,14,Waypoint,
38.1644146,-120.1139028,5094.1766082236,97.112864,0,0.46474082852,15400,2018-05-11 17:49:10,19,0,22.388,5094.1766082236,97.112864,0.223694,1.18013783304,0,0,-0.671082,275.2, -1.1, 0,0,0,1024,1024,1024,1024,275.8,-90,97,3.709,3.71,3.741,3.765,3.69,3.765,21.688,57.2,14,Waypoint,
38.1644146,-120.1139029,5095.1608602236,98.097116,0,0.436433741,15500,2018-05-11 17:49:10,19,0,22.388,5095.1608602236,98.097116,0.223694,1.18013783304,0,0,-0.671082,275.2, -1, 0,0,0,1024,1024,1024,1024,275.8,-89.9,97,3.709,3.71,3.741,3.765,3.69,3.765,21.688,57.2,14,Waypoint,
38.1644145,-120.1139029,5096.1451122236,99.081368,0,0.44399279636,15600,2018-05-11 17:49:10,19,0,22.388,5096.1451122236,99.081368,0.223694,1.18013783304,0,0,-0.671082,275.1, -0.9, 0,0,0,1024,1024,1024,1024,275.8,-89.9,97,3.709,3.71,3.741,3.765,3.69,3.765,21.688,57.2,14,Waypoint,
38.1644145,-120.1139029,5098.1136162236,101.049872,0,0.44399279636,15700,2018-05-11 17:49:10,19,0,22.388,5098.1136162236,101.049872,0.223694,1.18013783304,0,0,-0.671082,275, -0.6, 0.1,0,0,1024,1024,1024,1024,275.8,-89.9,97,3.709,3.71,3.741,3.765,3.69,3.765,21.688,57.2,14,Waypoint,
38.1644144,-120.1139029,5099.0978682236,102.034124,0,0.4543635316,15800,2018-05-11 17:49:11,19,0,22.388,5099.0978682236,102.034124,0.223694,1.18013783304,0,0,-0.671082,275, -0.8, 0.2,0,0,1024,1024,1024,1024,275.8,-90,97,3.709,3.71,3.741,3.765,3.69,3.765,21.688,57.2,14,Waypoint,
38.1644144,-120.113903,5100.0821202236,103.018376,0,0.4272966016,15910,2018-05-11 17:49:11,19,0,22.388,5100.0821202236,103.018376,0.223694,1.18013783304,0,0,-0.671082,275, -0.9, 0.3,0,0,1024,1024,1024,1024,275.8,-89.9,97,3.709,3.71,3.741,3.765,3.69,3.765,21.688,57.2,14,Waypoint,
38.1644144,-120.113903,5100.0821202236,103.018376,0,0.4272966016,16000,2018-05-11 17:49:11,19,0,22.43,5100.0821202236,103.018376,0.223694,1.18013783304,0,0,-0.671082,275, -0.9, 0.3,0,0,1024,1024,1024,1024,275.8,-89.9,97,3.718,3.726,3.745,3.767,3.701,3.756,20.851,59,14,Waypoint,
38.1644143,-120.113903,5101.0663722236,104.002628,0,0.4410925338,16100,2018-05-11 17:49:11,19,0,22.43,5101.0663722236,104.002628,0.223694,1.18013783304,0,0,-0.671082,274.9, -1.1, 0.5,0,0,1024,1024,1024,1024,275.8,-90,97,3.718,3.726,3.745,3.767,3.701,3.756,20.851,59,14,Waypoint,
38.1644142,-120.113903,5102.0506242236,104.98688,0,0.45739174692,16200,2018-05-11 17:49:11,19,0,22.43,5102.0506242236,104.98688,0.223694,1.18013783304,0,0,-0.671082,274.9, -1.1, 0.6,0,0,1024,1024,1024,1024,275.8,-90,97,3.718,3.726,3.745,3.767,3.701,3.756,20.851,59,14,Waypoint,
38.1644141,-120.113903,5103.0348762236,105.971132,0,0.47593177376,16300,2018-05-11 17:49:11,19,0,22.43,5103.0348762236,105.971132,0.223694,1.18013783304,0,0,-0.671082,274.9, -1.2, 0.7,0,0,1024,1024,1024,1024,275.8,-90,97,3.718,3.726,3.745,3.767,3.701,3.756,20.851,59,14,Waypoint,
38.164414,-120.113903,5104.0191282236,106.955384,0,0.49646655132,16400,2018-05-11 17:49:11,19,0,22.43,5104.0191282236,106.955384,0.223694,1.18013783304,0,0,-0.671082,274.8, -1.2, 0.9,0,0,1024,1024,1024,1024,275.8,-90,97,3.718,3.726,3.745,3.767,3.701,3.756,20.851,59,14,Waypoint,
38.1644139,-120.1139031,5105.0033802236,107.939636,0,0.49687993716,16500,2018-05-11 17:49:11,19,0,22.43,5105.0033802236,107.939636,0.223694,1.18013783304,0,0,-0.671082,274.8, -1.1, 1,0,0,1024,1024,1024,1024,275.8,-89.9,97,3.718,3.726,3.745,3.767,3.701,3.756,20.851,59,14,Waypoint,
38.1644139,-120.1139031,5105.9876322236,108.923888,0,0.49687993716,16600,2018-05-11 17:49:11,19,0,22.43,5105.9876322236,108.923888,0.223694,1.18013783304,0,0,-0.671082,274.7, -1, 1.2,0,0,1024,1024,1024,1024,275.8,-89.9,97,3.718,3.726,3.745,3.767,3.701,3.756,20.851,59,14,Waypoint,
38.1644138,-120.1139031,5106.9718842236,109.90814,0,0.52171261512,16700,2018-05-11 17:49:11,19,0,22.43,5106.9718842236,109.90814,0.223694,1.18013783304,0,0,-0.671082,274.7, -1, 1.5,0,0,1024,1024,1024,1024,275.8,-89.9,97,3.718,3.726,3.745,3.767,3.701,3.756,20.851,59,14,Waypoint,
38.1644137,-120.1139032,5107.9561362236,110.892392,0,0.5287401744,16800,2018-05-11 17:49:12,19,0,22.43,5107.9561362236,110.892392,0.223694,1.18013783304,0,0,-0.671082,274.7, -0.8, 1.5,0,0,1024,1024,1024,1024,275.8,-89.9,97,3.718,3.726,3.745,3.767,3.701,3.756,20.851,59,14,Waypoint,
38.1644137,-120.1139032,5108.9403882236,111.876644,0,0.5287401744,16900,2018-05-11 17:49:12,19,0,22.43,5108.9403882236,111.876644,0.223694,1.18013783304,0,0,-0.671082,274.8, -0.7, 1.4,0,0,1024,1024,1024,1024,275.8,-89.9,97,3.718,3.726,3.745,3.767,3.701,3.756,20.851,59,14,Waypoint,
38.1644136,-120.1139032,5109.9246402236,112.860896,0,0.5569389942,17000,2018-05-11 17:49:12,19,0,22.442,5109.9246402236,112.860896,0.223694,1.18013783304,0,0,-0.671082,274.8, -0.6, 1.1,0,0,1024,1024,1024,1024,275.8,-89.9,97,3.71,3.729,3.75,3.769,3.708,3.761,20.345,59,14,Waypoint,
38.1644136,-120.1139032,5110.9088922236,113.845148,0,0.5569389942,17100,2018-05-11 17:49:12,19,0,22.442,5110.9088922236,113.845148,0.223694,1.18013783304,0,0,-0.671082,274.8, -0.5, 0.9,0,0,1024,1024,1024,1024,275.8,-90,97,3.71,3.729,3.75,3.769,3.708,3.761,20.345,59,14,Waypoint,
38.1644136,-120.1139032,5111.8931442236,114.8294,0,0.5569389942,17200,2018-05-11 17:49:12,19,0,22.442,5111.8931442236,114.8294,0.223694,1.18013783304,0,0,-0.671082,274.8, -0.7, 0.8,0,0,1024,1024,1024,1024,275.8,-90,97,3.71,3.729,3.75,3.769,3.708,3.761,20.345,59,14,Waypoint,
38.1644135,-120.1139032,5112.8773962236,115.813652,0,0.58605316836,17300,2018-05-11 17:49:12,19,0,22.442,5112.8773962236,115.813652,0.223694,1.18013783304,0,0,-0.671082,274.7, -0.8, 0.9,0,0,1024,1024,1024,1024,275.8,-90,97,3.71,3.729,3.75,3.769,3.708,3.761,20.345,59,14,Waypoint,
38.1644135,-120.1139032,5113.8616482236,116.797904,0,0.58605316836,17400,2018-05-11 17:49:12,19,0,22.442,5113.8616482236,116.797904,0.223694,1.18013783304,0,0,-0.671082,274.7, -0.8, 1.1,0,0,1024,1024,1024,1024,275.8,-90,97,3.71,3.729,3.75,3.769,3.708,3.761,20.345,59,14,Waypoint,
38.1644135,-120.1139032,5114.8459002236,117.782156,0,0.58605316836,17500,2018-05-11 17:49:12,19,0,22.442,5114.8459002236,117.782156,0.223694,1.18013783304,0,0,-0.671082,274.7, -0.6, 1.2,0,0,1024,1024,1024,1024,275.8,-89.9,97,3.71,3.729,3.75,3.769,3.708,3.761,20.345,59,14,Waypoint,
38.1644134,-120.1139032,5115.8301522236,118.766408,0,0.61595474412,17600,2018-05-11 17:49:12,19,0,22.442,5115.8301522236,118.766408,0.223694,1.18013783304,0,0,-0.671082,274.7, -0.5, 1.2,0,0,1024,1024,1024,1024,275.8,-90,97,3.71,3.729,3.75,3.769,3.708,3.761,20.345,59,14,Waypoint,
38.1644134,-120.1139032,5116.8144042236,119.75066,0,0.61595474412,17700,2018-05-11 17:49:12,19,0,22.442,5116.8144042236,119.75066,0.223694,1.18013783304,0,0,-0.671082,274.8, -0.7, 1,0,0,1024,1024,1024,1024,275.8,-90,97,3.71,3.729,3.75,3.769,3.708,3.761,20.345,59,14,Waypoint,
38.1644134,-120.1139032,5117.7986562236,120.734912,0,0.61595474412,17800,2018-05-11 17:49:13,19,0,22.442,5117.7986562236,120.734912,0.223694,1.18013783304,0,0,-0.671082,274.9, -1, 0.9,0,0,1024,1024,1024,1024,275.8,-90,97,3.71,3.729,3.75,3.769,3.708,3.761,20.345,59,14,Waypoint,
38.1644134,-120.1139032,5118.7829082236,121.719164,0,0.61595474412,17900,2018-05-11 17:49:13,19,0,22.442,5118.7829082236,121.719164,0.223694,1.18013783304,0,0,-0.671082,275, -1.3, 1,0,0,1024,1024,1024,1024,275.8,-90,97,3.71,3.729,3.75,3.769,3.708,3.761,20.345,59,14,Waypoint,
38.1644133,-120.1139031,5119.7671602236,122.703416,0,0.66225067736,18000,2018-05-11 17:49:13,19,0,22.299,5119.7671602236,122.703416,0.223694,1.18013783304,0,0,-0.671082,275.2, -1.4, 1,0,0,1024,1024,1024,1024,275.8,-90,97,3.695,3.696,3.733,3.758,3.686,3.744,21.337,59,14,Waypoint,
38.1644133,-120.1139031,5120.7514122236,123.687668,0,0.66225067736,18100,2018-05-11 17:49:13,19,0,22.299,5120.7514122236,123.687668,0.223694,1.18013783304,0,0,-0.671082,275.2, -1.5, 0.9,0,0,1024,1024,1024,1024,275.8,-90,97,3.695,3.696,3.733,3.758,3.686,3.744,21.337,59,14,Waypoint,
38.1644133,-120.1139031,5121.7356642236,124.67192,0,0.66225067736,18200,2018-05-11 17:49:13,19,0,22.299,5121.7356642236,124.67192,0.223694,1.18013783304,0,0,-0.671082,275.3, -1.5, 0.9,0,0,1024,1024,1024,1024,275.8,-89.9,97,3.695,3.696,3.733,3.758,3.686,3.744,21.337,59,14,Waypoint,
38.1644133,-120.1139031,5122.7199162236,125.656172,0,0.66225067736,18400,2018-05-11 17:49:13,19,0,22.299,5122.7199162236,125.656172,0.223694,1.18013783304,0,0,-0.671082,275.2, -1.3, 1,0,0,1024,1024,1024,1024,275.8,-89.9,97,3.695,3.696,3.733,3.758,3.686,3.744,21.337,59,14,Waypoint,
38.1644133,-120.1139031,5125.6726722236,128.608928,0,0.66225067736,18500,2018-05-11 17:49:13,19,0,22.299,5125.6726722236,128.608928,0.223694,1.18013783304,0,0,-0.671082,274.7, -0.7, 1.4,0,0,1024,1024,1024,1024,275.8,-89.9,97,3.695,3.696,3.733,3.758,3.686,3.744,21.337,59,14,Waypoint,
38.1644134,-120.1139032,5127.6411762236,130.577432,0,0.61595474412,18710,2018-05-11 17:49:13,19,0,22.299,5127.6411762236,130.577432,0.223694,1.18013783304,0,0,-0.671082,274.6, -0.7, 0.5,0,0,1024,1024,1024,1024,275.8,-89.9,97,3.695,3.696,3.733,3.758,3.686,3.744,21.337,59,14,Waypoint,
38.1644134,-120.1139032,5128.6254282236,131.561684,0,0.61595474412,18810,2018-05-11 17:49:14,19,0,22.299,5128.6254282236,131.561684,0.223694,1.18013783304,0,0,-0.671082,274.6, -0.7, 0.3,0,0,1024,1024,1024,1024,275.8,-89.9,97,3.695,3.696,3.733,3.758,3.686,3.744,21.337,59,14,Waypoint,
38.1644134,-120.1139032,5129.6096802236,132.545936,0,0.61595474412,19000,2018-05-11 17:49:14,19,0,22.235,5129.6096802236,132.545936,0.223694,1.18013783304,0,0,-0.671082,274.7, -0.7, 0.2,0,0,1024,1024,1024,1024,275.8,-89.9,97,3.674,3.692,3.726,3.741,3.672,3.735,21.682,59,14,Waypoint,
38.1644135,-120.1139032,5130.5939322236,133.530188,0,0.58605316836,19100,2018-05-11 17:49:14,19,0,22.235,5130.5939322236,133.530188,0.223694,1.18013783304,0,0,-0.671082,274.8, -0.7, 0,0,0,1024,1024,1024,1024,275.8,-89.9,97,3.674,3.692,3.726,3.741,3.672,3.735,21.682,59,14,Waypoint,
38.1644135,-120.1139032,5131.5781842236,134.51444,0,0.58605316836,19200,2018-05-11 17:49:14,19,0,22.235,5131.5781842236,134.51444,0.223694,1.18013783304,0,0,-0.671082,274.9, -0.7, 0.1,0,0,1024,1024,1024,1024,275.8,-90,97,3.674,3.692,3.726,3.741,3.672,3.735,21.682,59,14,Waypoint,
38.1644135,-120.1139032,5132.5624362236,135.498692,0,0.58605316836,19300,2018-05-11 17:49:14,19,0,22.235,5132.5624362236,135.498692,0.223694,1.18013783304,0,0,-0.671082,274.9, -0.8, 0.3,0,0,1024,1024,1024,1024,275.8,-90,97,3.674,3.692,3.726,3.741,3.672,3.735,21.682,59,14,Waypoint,
38.1644135,-120.1139032,5133.5466882236,136.482944,0,0.58605316836,19400,2018-05-11 17:49:14,19,0,22.235,5133.5466882236,136.482944,0.223694,1.18013783304,0,0,-0.671082,274.9, -0.9, 0.5,0,0,1024,1024,1024,1024,275.8,-90,97,3.674,3.692,3.726,3.741,3.672,3.735,21.682,59,14,Waypoint,
38.1644135,-120.1139032,5134.5309402236,137.467196,0,0.58605316836,19500,2018-05-11 17:49:14,19,0,22.235,5134.5309402236,137.467196,0.223694,1.18013783304,0,0,-0.671082,274.9, -1, 0.6,0,0,1024,1024,1024,1024,275.8,-90,97,3.674,3.692,3.726,3.741,3.672,3.735,21.682,59,14,Waypoint,
38.1644135,-120.1139031,5135.5151922236,138.451448,0,0.60334975684,19600,2018-05-11 17:49:14,19,0,22.235,5135.5151922236,138.451448,0.223694,1.18013783304,0,0,-0.671082,274.8, -1.2, 0.6,0,0,1024,1024,1024,1024,275.8,-90,97,3.674,3.692,3.726,3.741,3.672,3.735,21.682,59,14,Waypoint,
38.1644135,-120.1139031,5136.4994442236,139.4357,0,0.60334975684,19700,2018-05-11 17:49:14,19,0,22.235,5136.4994442236,139.4357,0.223694,1.18013783304,0,0,-0.671082,274.8, -1.2, 0.8,0,0,1024,1024,1024,1024,275.8,-89.9,97,3.674,3.692,3.726,3.741,3.672,3.735,21.682,59,14,Waypoint,
38.1644135,-120.1139031,5137.4836962236,140.419952,0,0.60334975684,19800,2018-05-11 17:49:15,19,0,22.235,5137.4836962236,140.419952,0.223694,1.18013783304,0,0,-0.671082,274.8, -1.2, 0.9,0,0,1024,1024,1024,1024,275.8,-89.9,97,3.674,3.692,3.726,3.741,3.672,3.735,21.682,59,14,Waypoint,
38.1644135,-120.1139031,5138.4679482236,141.404204,0,0.60334975684,19900,2018-05-11 17:49:15,19,0,22.235,5138.4679482236,141.404204,0.223694,1.18013783304,0,0,-0.671082,274.8, -1.2, 0.8,0,0,1024,1024,1024,1024,275.8,-90,97,3.674,3.692,3.726,3.741,3.672,3.735,21.682,59,14,Waypoint,
38.1644135,-120.113903,5139.4522002236,142.388456,0,0.6214895212,20000,2018-05-11 17:49:15,19,0,22.269,5139.4522002236,142.388456,0.223694,1.18013783304,0,0,-0.671082,274.9, -1.3, 0.7,0,0,1024,1024,1024,1024,275.8,-90,97,3.69,3.707,3.73,3.748,3.677,3.737,20.951,59,14,Waypoint,
38.1644135,-120.113903,5140.4364522236,143.372708,0,0.6214895212,20100,2018-05-11 17:49:15,19,0,22.269,5140.4364522236,143.372708,0.223694,1.18013783304,0,0,-0.671082,274.9, -1.3, 0.7,0,0,1024,1024,1024,1024,275.8,-90,97,3.69,3.707,3.73,3.748,3.677,3.737,20.951,59,14,Waypoint,
38.1644135,-120.113903,5141.4207042236,144.35696,0,0.6214895212,20200,2018-05-11 17:49:15,19,0,22.269,5141.4207042236,144.35696,0.223694,1.18013783304,0,0,-0.671082,274.9, -1.4, 0.8,0,0,1024,1024,1024,1024,275.8,-90,97,3.69,3.707,3.73,3.748,3.677,3.737,20.951,59,14,Waypoint,
38.1644135,-120.1139029,5142.4049562236,145.341212,0,0.64040028296,20300,2018-05-11 17:49:15,19,0,22.269,5142.4049562236,145.341212,0.223694,1.18013783304,0,0,-0.671082,274.9, -1.6, 0.9,0,0,1024,1024,1024,1024,275.8,-90,97,3.69,3.707,3.73,3.748,3.677,3.737,20.951,59,14,Waypoint,
38.1644134,-120.1139029,5143.7172922236,146.653548,0,0.66787403712,20400,2018-05-11 17:49:15,19,0,22.269,5143.7172922236,146.653548,0.223694,1.18013783304,0,0,-0.671082,275, -1.7, 1.1,0,0,1024,1024,1024,1024,275.8,-90,97,3.69,3.707,3.73,3.748,3.677,3.737,20.951,59,14,Waypoint,
38.1644134,-120.1139029,5144.7015442236,147.6378,0,0.66787403712,20500,2018-05-11 17:49:15,19,0,22.269,5144.7015442236,147.6378,0.223694,1.18013783304,0,0,-0.671082,275, -1.6, 1.2,0,0,1024,1024,1024,1024,275.8,-89.9,97,3.69,3.707,3.73,3.748,3.677,3.737,20.951,59,14,Waypoint,
38.1644134,-120.1139029,5146.3419642236,149.27822,0,0.66787403712,20600,2018-05-11 17:49:15,19,0,22.269,5146.3419642236,149.27822,0.223694,1.18013783304,0,0,-0.671082,274.9, -1.3, 1.4,0,0,1024,1024,1024,1024,275.8,-89.9,97,3.69,3.707,3.73,3.748,3.677,3.737,20.951,59,14,Waypoint,
38.1644134,-120.1139029,5147.3262162236,150.262472,0,0.66787403712,20800,2018-05-11 17:49:16,19,0,22.269,5147.3262162236,150.262472,0.223694,1.18013783304,0,0,-0.671082,274.9, -1.3, 1.3,0,0,1024,1024,1024,1024,275.8,-90,97,3.69,3.707,3.73,3.748,3.677,3.737,20.951,59,14,Waypoint,
38.1644134,-120.1139029,5148.3104682236,151.246724,0,0.66787403712,20900,2018-05-11 17:49:16,19,0,22.269,5148.3104682236,151.246724,0.223694,1.18013783304,0,0,-0.671082,274.9, -1.4, 1.2,0,0,1024,1024,1024,1024,275.8,-89.9,97,3.69,3.707,3.73,3.748,3.677,3.737,20.951,59,14,Waypoint,
38.1644134,-120.1139028,5150.2789722236,153.215228,0,0.68670605872,21100,2018-05-11 17:49:16,19,0,22.269,5150.2789722236,153.215228,0.223694,1.18013783304,0,0,-0.671082,274.9, -1.5, 1.3,0,0,1024,1024,1024,1024,275.8,-89.9,97,3.69,3.707,3.73,3.748,3.677,3.737,20.951,59,14,Waypoint,
38.1644134,-120.1139028,5151.2632242236,154.19948,0,0.68670605872,21200,2018-05-11 17:49:16,19,0,22.269,5151.2632242236,154.19948,0.223694,1.18013783304,0,0,-0.671082,275, -1.6, 1.3,0,0,1024,1024,1024,1024,275.8,-90,97,3.69,3.707,3.73,3.748,3.677,3.737,20.951,59,14,Waypoint,
38.1644134,-120.1139028,5152.2474762236,155.183732,0,0.68670605872,21300,2018-05-11 17:49:16,19,0,22.269,5152.2474762236,155.183732,0.223694,1.18013783304,0,0,-0.671082,275, -1.6, 1.2,0,0,1024,1024,1024,1024,275.8,-90,97,3.69,3.707,3.73,3.748,3.677,3.737,20.951,59,14,Waypoint,
38.1644135,-120.1139027,5153.2317282236,156.167984,0,0.68027889316,21400,2018-05-11 17:49:16,19,0,22.269,5153.2317282236,156.167984,0.223694,1.18013783304,0,0,-0.671082,274.9, -1.6, 1,0,0,1024,1024,1024,1024,275.8,-90,97,3.69,3.707,3.73,3.748,3.677,3.737,20.951,59,14,Waypoint,
38.1644135,-120.1139027,5154.2159802236,157.152236,0,0.68027889316,21500,2018-05-11 17:49:16,19,0,22.269,5154.2159802236,157.152236,0.223694,1.18013783304,0,0,-0.671082,274.9, -1.6, 0.9,0,0,1024,1024,1024,1024,275.8,-90,97,3.69,3.707,3.73,3.748,3.677,3.737,20.951,59,14,Waypoint,
38.1644136,-120.1139027,5155.2002322236,158.136488,0,0.65536091336,21600,2018-05-11 17:49:16,19,0,22.269,5155.2002322236,158.136488,0.223694,1.18013783304,0,0,-0.671082,274.8, -1.5, 0.7,0,0,1024,1024,1024,1024,275.8,-89.9,97,3.69,3.707,3.73,3.748,3.677,3.737,20.951,59,14,Waypoint,
38.1644136,-120.1139027,5156.1844842236,159.12074,0,0.65536091336,21700,2018-05-11 17:49:16,19,0,22.269,5156.1844842236,159.12074,0.223694,1.18013783304,0,0,-0.671082,274.7, -1.4, 0.4,0,0,1024,1024,1024,1024,275.8,-89.9,97,3.69,3.707,3.73,3.748,3.677,3.737,20.951,59,14,Waypoint,
38.1644137,-120.1139028,5157.1687362236,160.104992,0,0.6096949014,21800,2018-05-11 17:49:17,19,0,22.269,5157.1687362236,160.104992,0.223694,1.18013783304,0,0,-0.671082,274.6, -1.4, 0.2,0,0,1024,1024,1024,1024,275.8,-89.9,97,3.69,3.707,3.73,3.748,3.677,3.737,20.951,59,14,Waypoint,
38.1644137,-120.1139028,5158.1529882236,161.089244,0,0.6096949014,21900,2018-05-11 17:49:17,19,0,22.269,5158.1529882236,161.089244,0.223694,1.18013783304,0,0,-0.671082,274.7, -1.3, 0.4,0,0,1024,1024,1024,1024,275.8,-89.9,97,3.69,3.707,3.73,3.748,3.677,3.737,20.951,59,14,Waypoint,
38.1644138,-120.1139028,5159.1372402236,162.073496,0,0.58632219724,22000,2018-05-11 17:49:17,19,0,22.27,5159.1372402236,162.073496,0.223694,1.18013783304,0,0,-0.671082,274.8, -1.1, 0.7,0,0,1024,1024,1024,1024,275.8,-89.9,97,3.682,3.7,3.724,3.755,3.678,3.734,20.639,59,14,Waypoint,
38.1644138,-120.1139029,5160.1214922236,163.057748,0,0.56415028052,22100,2018-05-11 17:49:17,19,0,22.27,5160.1214922236,163.057748,0.223694,1.18013783304,0,0,-0.671082,274.9, -1, 0.8,0,0,1024,1024,1024,1024,275.8,-89.9,97,3.682,3.7,3.724,3.755,3.678,3.734,20.639,59,14,Waypoint,
38.1644138,-120.1139029,5161.1057442236,164.042,0,0.56415028052,22200,2018-05-11 17:49:17,19,0,22.27,5161.1057442236,164.042,0.223694,1.18013783304,0,0,-0.671082,274.9, -1, 0.9,0,0,1024,1024,1024,1024,275.8,-89.9,97,3.682,3.7,3.724,3.755,3.678,3.734,20.639,59,14,Waypoint,
38.1644138,-120.113903,5162.0899962236,165.026252,0,0.5425853192,22300,2018-05-11 17:49:17,19,0,22.27,5162.0899962236,165.026252,0.223694,1.18013783304,0,0,-0.671082,274.9, -1, 0.9,0,0,1024,1024,1024,1024,275.8,-89.9,97,3.682,3.7,3.724,3.755,3.678,3.734,20.639,59,14,Waypoint,
38.1644138,-120.113903,5164.0585002236,166.994756,0,0.5425853192,22500,2018-05-11 17:49:17,19,0,22.27,5164.0585002236,166.994756,0.223694,1.18013783304,0,0,-0.671082,274.7, -0.9, 0.9,0,0,1024,1024,1024,1024,275.8,-89.9,97,3.682,3.7,3.724,3.755,3.678,3.734,20.639,59,14,Waypoint,
38.1644139,-120.113903,5165.0427522236,167.979008,0,0.51875657828,22600,2018-05-11 17:49:17,19,0,22.27,5165.0427522236,167.979008,0.223694,1.18013783304,0,0,-0.671082,274.7, -0.9, 0.9,0,0,1024,1024,1024,1024,275.8,-89.9,97,3.682,3.7,3.724,3.755,3.678,3.734,20.639,59,14,Waypoint,
38.1644139,-120.1139031,5167.0112562236,169.947512,0,0.49687993716,22710,2018-05-11 17:49:17,19,0,22.27,5167.0112562236,169.947512,0.223694,1.18013783304,0,0,-0.671082,274.9, -0.7, 1.1,0,0,1024,1024,1024,1024,275.8,-89.9,97,3.682,3.7,3.724,3.755,3.678,3.734,20.639,59,14,Waypoint,
38.1644138,-120.1139032,5167.9955082236,170.931764,0,0.5016076276,22900,2018-05-11 17:49:18,19,0,22.27,5167.9955082236,170.931764,0.223694,1.18013783304,0,0,-0.671082,275, -0.6, 1.3,0,0,1024,1024,1024,1024,275.8,-89.9,97,3.682,3.7,3.724,3.755,3.678,3.734,20.639,59,14,Waypoint,
38.1644138,-120.1139033,5169.9640122236,172.900268,0,0.48237206268,23100,2018-05-11 17:49:18,19,0,22.27,5169.9640122236,172.900268,0.223694,1.18013783304,0,0,-0.671082,275.3, -0.5, 1.4,0,0,1024,1024,1024,1024,275.8,-89.9,97,3.682,3.7,3.724,3.755,3.678,3.734,20.639,59,14,Waypoint,
38.1644138,-120.1139033,5170.9482642236,173.88452,0,0.48237206268,23200,2018-05-11 17:49:18,19,0,22.27,5170.9482642236,173.88452,0.223694,1.18013783304,0,0,-0.671082,275.4, -0.4, 1.4,0,0,1024,1024,1024,1024,275.8,-89.9,97,3.682,3.7,3.724,3.755,3.678,3.734,20.639,59,14,Waypoint,
38.1644138,-120.1139034,5171.9325162236,174.868772,0,0.46411418808,23300,2018-05-11 17:49:18,19,0,22.27,5171.9325162236,174.868772,0.223694,1.18013783304,0,0,-0.671082,275.5, -0.4, 1.5,0,0,1024,1024,1024,1024,275.8,-89.9,97,3.682,3.7,3.724,3.755,3.678,3.734,20.639,59,14,Waypoint,
38.1644138,-120.1139034,5172.9167682236,175.853024,0,0.46411418808,23400,2018-05-11 17:49:18,19,0,22.27,5172.9167682236,175.853024,0.223694,1.18013783304,0,0,-0.671082,275.6, -0.5, 1.6,0,0,1024,1024,1024,1024,275.8,-89.9,97,3.682,3.7,3.724,3.755,3.678,3.734,20.639,59,14,Waypoint,
38.1644137,-120.1139033,5173.9010202236,176.837276,0,0.51052823156,23500,2018-05-11 17:49:18,19,0,22.27,5173.9010202236,176.837276,0.223694,1.18013783304,0,0,-0.671082,275.5, -0.8, 1.7,0,0,1024,1024,1024,1024,275.8,-89.9,97,3.682,3.7,3.724,3.755,3.678,3.734,20.639,59,14,Waypoint,
38.1644137,-120.1139033,5175.2133562236,178.149612,0,0.51052823156,23600,2018-05-11 17:49:18,19,0,22.27,5175.2133562236,178.149612,0.223694,1.18013783304,0,0,-0.671082,275.3, -0.9, 1.3,0,0,1024,1024,1024,1024,275.8,-90,97,3.682,3.7,3.724,3.755,3.678,3.734,20.639,59,14,Waypoint,
38.1644137,-120.1139033,5175.8695242236,178.80578,0,0.51052823156,23700,2018-05-11 17:49:18,19,0,22.27,5175.8695242236,178.80578,0.223694,1.18013783304,0,0,-0.671082,275.1, -1, 1,0,0,1024,1024,1024,1024,275.8,-90,97,3.682,3.7,3.724,3.755,3.678,3.734,20.639,59,14,Waypoint,
38.1644137,-120.1139033,5176.8537762236,179.790032,0,0.51052823156,23800,2018-05-11 17:49:19,19,0,22.27,5176.8537762236,179.790032,0.223694,1.18013783304,0,0,-0.671082,275, -1.1, 0.9,0,0,1024,1024,1024,1024,275.8,-90,97,3.682,3.7,3.724,3.755,3.678,3.734,20.639,59,14,Waypoint,
38.1644136,-120.1139033,5177.8380282236,180.774284,0,0.53967849496,23900,2018-05-11 17:49:19,19,0,22.27,5177.8380282236,180.774284,0.223694,1.18013783304,0,0,-0.671082,275, -1, 1.2,0,0,1024,1024,1024,1024,275.8,-89.9,97,3.682,3.7,3.724,3.755,3.678,3.734,20.639,59,14,Waypoint,
38.1644135,-120.1139033,5179.8065322236,182.742788,0,0.56967849592,24100,2018-05-11 17:49:19,19,0,22.27,5179.8065322236,182.742788,0.223694,1.18013783304,0,0,-0.671082,275, -0.9, 1.5,0,0,1024,1024,1024,1024,275.8,-89.9,97,3.682,3.7,3.724,3.755,3.678,3.734,20.639,59,14,Waypoint,
38.1644135,-120.1139033,5180.7907842236,183.72704,0,0.56967849592,24200,2018-05-11 17:49:19,19,0,22.27,5180.7907842236,183.72704,0.223694,1.18013783304,0,0,-0.671082,274.9, -0.7, 1.6,0,0,1024,1024,1024,1024,275.8,-89.9,97,3.682,3.7,3.724,3.755,3.678,3.734,20.639,59,14,Waypoint,
38.1644135,-120.1139034,5181.7750362236,184.711292,0,0.55430447968,24300,2018-05-11 17:49:19,19,0,22.27,5181.7750362236,184.711292,0.223694,1.18013783304,0,0,-0.671082,274.9, -0.6, 1.7,0,0,1024,1024,1024,1024,275.8,-89.9,97,3.682,3.7,3.724,3.755,3.678,3.734,20.639,59,14,Waypoint,
38.1644135,-120.1139034,5182.7592882236,185.695544,0,0.55430447968,24400,2018-05-11 17:49:19,19,0,22.27,5182.7592882236,185.695544,0.223694,1.18013783304,0,0,-0.671082,274.8, -0.4, 1.6,0,0,1024,1024,1024,1024,275.8,-89.9,97,3.682,3.7,3.724,3.755,3.678,3.734,20.639,59,14,Waypoint,
38.1644135,-120.1139034,5183.7435402236,186.679796,0,0.55430447968,24500,2018-05-11 17:49:19,19,0,22.27,5183.7435402236,186.679796,0.223694,1.18013783304,0,0,-0.671082,274.7, -0.4, 1.4,0,0,1024,1024,1024,1024,275.8,-89.9,97,3.682,3.7,3.724,3.755,3.678,3.734,20.639,59,14,Waypoint,
38.1644135,-120.1139035,5184.7277922236,187.664048,0,0.54001642148,24600,2018-05-11 17:49:19,19,0,22.27,5184.7277922236,187.664048,0.223694,1.18013783304,0,0,-0.671082,274.7, -0.4, 1.4,0,0,1024,1024,1024,1024,275.8,-89.9,97,3.682,3.7,3.724,3.755,3.678,3.734,20.639,59,14,Waypoint,
38.1644135,-120.1139036,5185.7120442236,188.6483,0,0.52690618484,24700,2018-05-11 17:49:19,19,0,22.27,5185.7120442236,188.6483,0.223694,1.18013783304,0,0,-0.671082,274.9, 0, 1.4,0,0,1024,1024,1024,1024,275.8,-89.9,97,3.682,3.7,3.724,3.755,3.678,3.734,20.639,59,14,Waypoint,
38.1644134,-120.1139036,5186.3682122236,189.304468,0,0.5599737712,24800,2018-05-11 17:49:20,19,0,22.27,5186.3682122236,189.304468,0.223694,1.18013783304,0,0,-0.671082,275.2, 0.1, 1.8,0,0,1024,1024,1024,1024,275.8,-89.9,97,3.682,3.7,3.724,3.755,3.678,3.734,20.639,59,14,Waypoint,
38.1644134,-120.1139037,5187.6805482236,190.616804,0,0.54884188108,24900,2018-05-11 17:49:20,19,0,22.27,5187.6805482236,190.616804,0.223694,1.18013783304,0,0,-0.671082,275.4, 0, 2,0,0,1024,1024,1024,1024,275.8,-89.9,97,3.682,3.7,3.724,3.755,3.678,3.734,20.639,59,14,Waypoint,
38.1644134,-120.1139037,5189.3209682236,192.257224,0,0.54884188108,25100,2018-05-11 17:49:20,19,0,22.27,5189.3209682236,192.257224,0.223694,1.18013783304,0,0,-0.671082,275.4, 0, 1.6,0,0,1024,1024,1024,1024,275.8,-89.9,97,3.682,3.7,3.724,3.755,3.678,3.734,20.639,59,14,Waypoint,
38.1644134,-120.1139038,5190.3052202236,193.241476,0,0.5390092036,25220,2018-05-11 17:49:20,19,0,22.27,5190.3052202236,193.241476,0.223694,1.18013783304,0,0,-0.671082,275.3, -0.2, 1.5,0,0,1024,1024,1024,1024,275.8,-89.9,97,3.682,3.7,3.724,3.755,3.678,3.734,20.639,59,14,Waypoint,
38.1644134,-120.1139038,5191.2894722236,194.225728,0,0.5390092036,25300,2018-05-11 17:49:20,19,0,22.27,5191.2894722236,194.225728,0.223694,1.18013783304,0,0,-0.671082,275.2, -0.2, 1.4,0,0,1024,1024,1024,1024,275.8,-89.9,97,3.682,3.7,3.724,3.755,3.678,3.734,20.639,59,14,Waypoint,
38.1644135,-120.1139038,5192.6018082236,195.538064,0,0.50456694528,25400,2018-05-11 17:49:20,19,0,22.27,5192.6018082236,195.538064,0.223694,1.18013783304,0,0,-0.671082,275, -0.2, 1.2,0,0,1024,1024,1024,1024,275.8,-89.9,97,3.682,3.7,3.724,3.755,3.678,3.734,20.639,59,14,Waypoint,
38.1644135,-120.1139037,5194.5703122236,197.506568,0,0.5150590716,25500,2018-05-11 17:49:20,19,0,22.27,5194.5703122236,197.506568,0.223694,1.18013783304,0,0,-0.671082,274.5, -0.5, 0.9,0,0,1024,1024,1024,1024,275.8,-90,97,3.682,3.7,3.724,3.755,3.678,3.734,20.639,59,14,Waypoint,
38.1644135,-120.1139037,5195.5545642236,198.49082,0,0.5150590716,25600,2018-05-11 17:49:20,19,0,22.27,5195.5545642236,198.49082,0.223694,1.18013783304,0,0,-0.671082,274.5, -0.6, 1.2,0,0,1024,1024,1024,1024,275.8,-90,97,3.682,3.7,3.724,3.755,3.678,3.734,20.639,59,14,Waypoint,
38.1644134,-120.1139037,5196.5388162236,199.475072,0,0.54884188108,25710,2018-05-11 17:49:20,19,0,22.27,5196.5388162236,199.475072,0.223694,1.18013783304,0,0,-0.671082,274.7, -0.6, 1.5,0,0,1024,1024,1024,1024,275.8,-90,97,3.682,3.7,3.724,3.755,3.678,3.734,20.639,59,14,Waypoint,
38.1644134,-120.1139036,5197.5230682236,200.459324,0,0.5599737712,25900,2018-05-11 17:49:21,19,0,22.27,5197.5230682236,200.459324,0.223694,1.18013783304,0,0,-0.671082,275.1, -0.5, 1.8,0,0,1024,1024,1024,1024,275.8,-89.9,97,3.682,3.7,3.724,3.755,3.678,3.734,20.639,59,14,Waypoint,
38.1644134,-120.1139036,5198.5073202236,201.443576,0,0.5599737712,26000,2018-05-11 17:49:21,19,0,22.154,5198.5073202236,201.443576,0.223694,1.18013783304,0,0,-0.671082,275.3, -0.4, 2,0,0,1024,1024,1024,1024,275.8,-89.9,96,3.652,3.692,3.698,3.735,3.652,3.696,21.223,59,14,Waypoint,
38.1644134,-120.1139035,5199.4915722236,202.427828,0,0.57232941464,26100,2018-05-11 17:49:21,19,0,22.154,5199.4915722236,202.427828,0.223694,1.18013783304,0,0,-0.671082,275.5, -0.4, 1.7,0,0,1024,1024,1024,1024,275.8,-89.9,96,3.652,3.692,3.698,3.735,3.652,3.696,21.223,59,14,Waypoint,
38.1644134,-120.1139035,5200.4758242236,203.41208,0,0.57232941464,26200,2018-05-11 17:49:21,19,0,22.154,5200.4758242236,203.41208,0.223694,1.18013783304,0,0,-0.671082,275.6, -0.7, 1.4,0,0,1024,1024,1024,1024,275.8,-90,96,3.652,3.692,3.698,3.735,3.652,3.696,21.223,59,14,Waypoint,
38.1644134,-120.1139034,5201.4600762236,204.396332,0,0.5858267904,26300,2018-05-11 17:49:21,19,0,22.154,5201.4600762236,204.396332,0.223694,1.18013783304,0,0,-0.671082,275.5, -1.2, 0.9,0,0,1024,1024,1024,1024,275.8,-90,96,3.652,3.692,3.698,3.735,3.652,3.696,21.223,59,14,Waypoint,
38.1644134,-120.1139034,5202.4443282236,205.380584,0,0.5858267904,26400,2018-05-11 17:49:21,19,0,22.154,5202.4443282236,205.380584,0.223694,1.18013783304,0,0,-0.671082,275.3, -1.5, 0.8,0,0,1024,1024,1024,1024,275.8,-90,96,3.652,3.692,3.698,3.735,3.652,3.696,21.223,59,14,Waypoint,
38.1644134,-120.1139033,5203.4285802236,206.364836,0,0.60039372,26500,2018-05-11 17:49:21,19,0,22.154,5203.4285802236,206.364836,0.223694,1.18013783304,0,0,-0.671082,275, -1.5, 1.1,0,0,1024,1024,1024,1024,275.8,-90,96,3.652,3.692,3.698,3.735,3.652,3.696,21.223,59,14,Waypoint,
38.1644133,-120.1139033,5204.4128322236,207.349088,0,0.631725742,26600,2018-05-11 17:49:21,19,0,22.154,5204.4128322236,207.349088,0.223694,1.18013783304,0,0,-0.671082,274.7, -1.4, 1.5,0,0,1024,1024,1024,1024,275.8,-90,96,3.652,3.692,3.698,3.735,3.652,3.696,21.223,59,14,Waypoint,
38.1644133,-120.1139033,5205.3970842236,208.33334,0,0.631725742,26700,2018-05-11 17:49:21,19,0,22.154,5205.3970842236,208.33334,0.223694,1.18013783304,0,0,-0.671082,274.5, -1.1, 1.9,0,0,1024,1024,1024,1024,275.8,-89.9,96,3.652,3.692,3.698,3.735,3.652,3.696,21.223,59,14,Waypoint,
38.1644132,-120.1139033,5206.3813362236,209.317592,0,0.6635826984,26800,2018-05-11 17:49:22,19,0,22.154,5206.3813362236,209.317592,0.223694,1.18013783304,0,0,-0.671082,274.3, -0.8, 2.3,0,0,1024,1024,1024,1024,275.8,-89.9,96,3.652,3.692,3.698,3.735,3.652,3.696,21.223,59,14,Waypoint,
38.1644131,-120.1139033,5207.3655882236,210.301844,0,0.69589569156,26900,2018-05-11 17:49:22,19,0,22.154,5207.3655882236,210.301844,0.223694,1.18013783304,0,0,-0.671082,274.2, -0.5, 2.7,0,0,1024,1024,1024,1024,275.8,-89.9,96,3.652,3.692,3.698,3.735,3.652,3.696,21.223,59,14,Waypoint,
38.1644131,-120.1139033,5208.3498402236,211.286096,0,0.69589569156,27000,2018-05-11 17:49:22,19,0,22.019,5208.3498402236,211.286096,0.223694,1.18013783304,0,0,-0.671082,274.1, -0.3, 3,0,0,1024,1024,1024,1024,275.8,-89.9,96,3.63,3.657,3.69,3.714,3.633,3.7,21.573,60.8,14,Waypoint,
38.164413,-120.1139033,5209.3340922236,212.270348,0,0.72860238552,27100,2018-05-11 17:49:22,19,0,22.019,5209.3340922236,212.270348,0.223694,1.18013783304,0,0,-0.671082,274.1, -0.2, 3.1,0,0,1024,1024,1024,1024,275.8,-89.9,96,3.63,3.657,3.69,3.714,3.633,3.7,21.573,60.8,14,Waypoint,
38.164413,-120.1139032,5210.3183442236,213.2546,0,0.74147640168,27300,2018-05-11 17:49:22,19,0,22.019,5210.3183442236,213.2546,0.223694,1.18013783304,0,0,-0.671082,274.2, -0.5, 3,0,0,1024,1024,1024,1024,275.8,-90,96,3.63,3.657,3.69,3.714,3.633,3.7,21.573,60.8,14,Waypoint,
38.1644129,-120.1139032,5212.2868482236,215.223104,0,0.77397640272,27410,2018-05-11 17:49:22,19,0,22.019,5212.2868482236,215.223104,0.223694,1.18013783304,0,0,-0.671082,274.5, -0.9, 2.8,0,0,1024,1024,1024,1024,275.8,-90,96,3.63,3.657,3.69,3.714,3.633,3.7,21.573,60.8,14,Waypoint,
38.1644129,-120.1139031,5213.5991842236,216.53544,0,0.787155537,27500,2018-05-11 17:49:22,19,0,22.019,5213.5991842236,216.53544,0.223694,1.18013783304,0,0,-0.671082,274.6, -0.7, 2.7,0,0,1024,1024,1024,1024,275.8,-89.9,96,3.63,3.657,3.69,3.714,3.633,3.7,21.573,60.8,14,Waypoint,
38.1644129,-120.1139031,5214.5834362236,217.519692,0,0.787155537,27600,2018-05-11 17:49:22,19,0,22.019,5214.5834362236,217.519692,0.223694,1.18013783304,0,0,-0.671082,274.7, -0.7, 2.7,0,0,1024,1024,1024,1024,275.8,-89.9,96,3.63,3.657,3.69,3.714,3.633,3.7,21.573,60.8,14,Waypoint,
