Latitude, Longitude, Altitude (m), Time, Sats, Speed (m/s), Range (m), Battery (%), Roll (deg), Pitch (deg), Yaw (deg), Images, HD Signal (%), RC Signal (%), Battery Temp (C), Battery Voltage (mV), Battery Current (mA), Battery Energy (mAh), Battery Capacity (mAh), Battery Discharges, flyState, timestamp (Unix), LastUpdate (ms), radioChannel, Rc_elevator, Rc_aileron, Rc_throttle, Rc_rudder, Rc_gyro, Dronetype, Battery_Cell1 (mV), Battery_Cell2 (mV), Battery_Cell3 (mV), Battery_Cell4 (mV), Battery_Cell5 (mV), Battery_Cell6 (mV), Video, isFlying, elapsedTime (ms), gimbalPitch (deg), gimbalRoll (deg), gimbalYaw (deg), VelocityX (m/s), VelocityY (m/s), VelocityZ (m/s), GroundSmear (cm), App Version, Aircraft Name, Aircraft Firmware, Aircraft Serial Number, Battery Serial Number, Battery Lifetime (%), App_Tip, App_Warning, CurrentFlightStartingIndex, CurrentFlightLastVisitedWaypoint, PreviousFlightEndingWaypointIndex
38.1644191, -120.1138912, 0.000, 11:28:21.588, 18, 0.00, 0.03, 100, 0.100, 0.300, -81.600, 1036, 100, 100, 15, 25232, -3437, 5529, 5529, 9, 11, 1526063301.588, 95, 0, 1024, 1024, 1024, 1024, 0, 6, 4195, 4108, 4097, 4239, 4257, 4217, 0, 1, 3164, -89.900, 0.000, -81.700, 0.000, 0.000, -0.200, 0.0, MapPilot_2.8.1_04242018, Dendroctonus I, 1.3.1.00, 041DDC1887, 1058163200445, 98, DJI_0070.jpg, Starting Mission from Lat/Long: 38.16442/-120.11389 Camera: Zenmuse X3 - Overlap: 90/90 - Active Connection: No, 39, 39, 39
38.1644191, -120.1138913, 0.000, 11:28:21.625, 18, 0.00, 0.02, 100, 0.600, 0.700, -81.400, 1036, 100, 100, 15, 25232, -3437, 5529, 5529, 9, 11, 1526063301.625, 33, 0, 1024, 1024, 1024, 1024, 0, 6, 4195, 4108, 4097, 4239, 4257, 4217, 0, 1, 3201, -89.900, 0.000, -81.700, 0.000, 0.000, -0.300, 0.0, , , , , , 98, , , 39, 39, 39
38.1644190, -120.1138913, 0.000, 11:28:21.725, 18, 0.00, 0.02, 100, 0.700, 1.000, -81.300, 1036, 100, 100, 15, 25232, -3437, 5529, 5529, 9, 11, 1526063301.725, 42, 0, 1024, 1024, 1024, 1024, 0, 6, 4195, 4108, 4097, 4239, 4257, 4217, 0, 1, 3301, -89.900, 0.000, -81.700, 0.000, 0.000, -0.400, 0.0, , , , , , 98, , , 39, 39, 39
38.1644190, -120.1138914, 0.000, 11:28:21.824, 18, 0.00, 0.02, 100, 0.400, 0.800, -81.300, 1036, 100, 100, 15, 25232, -3437, 5529, 5529, 9, 11, 1526063301.824, 7, 0, 1024, 1024, 1024, 1024, 0, 6, 4195, 4108, 4097, 4239, 4257, 4217, 0, 1, 3400, -89.900, 0.000, -81.800, 0.000, 0.000, -0.400, 0.0, , , , , , 98, , , 39, 39, 39
38.1644190, -120.1138914, 0.100, 11:28:21.925, 18, 0.00, 0.02, 100, 0.200, 0.400, -81.300, 1036, 100, 100, 15, 24876, -3981, 5529, 5529, 9, 11, 1526063301.925, 10, 0, 1024, 1024, 1024, 1024, 0, 6, 4195, 4108, 4097, 4239, 4257, 4217, 0, 1, 3501, -89.900, 0.000, -81.700, 0.000, 0.000, -0.400, 0.0, , , , , , 98, , , 39, 39, 39
38.1644190, -120.1138914, 0.100, 11:28:22.025, 17, 0.00, 0.02, 100, 0.300, 0.200, -81.400, 1036, 100, 100, 15, 24876, -3981, 5529, 5529, 9, 11, 1526063302.025, 25, 0, 1024, 1024, 1024, 1024, 0, 6, 4128, 4147, 4111, 4145, 4188, 4100, 0, 1, 3601, -89.900, 0.000, -81.800, 0.000, 0.000, -0.400, 0.0, , , , , , 98, , , 39, 39, 39
38.1644190, -120.1138914, 0.100, 11:28:22.124, 17, 0.00, 0.02, 100, 0.300, 0.200, -81.400, 1036, 100, 100, 15, 24876, -3981, 5529, 5529, 9, 11, 1526063302.124, 124, 0, 1024, 1024, 1024, 1024, 0, 6, 4128, 4147, 4111, 4145, 4188, 4100, 0, 1, 3700, -89.900, 0.000, -81.800, 0.000, 0.000, -0.400, 0.0, , , , , , 98, , , 39, 39, 39
38.1644190, -120.1138914, 0.200, 11:28:22.224, 17, 0.00, 0.02, 100, 0.600, 0.000, -81.400, 1036, 100, 100, 15, 24876, -3981, 5529, 5529, 9, 11, 1526063302.224, 54, 0, 1024, 1024, 1024, 1024, 0, 6, 4128, 4147, 4111, 4145, 4188, 4100, 0, 1, 3800, -89.900, 0.000, -81.800, 0.000, 0.000, -0.400, 0.0, , , , , , 98, , , 39, 39, 39
38.1644190, -120.1138914, 0.200, 11:28:22.325, 17, 0.00, 0.02, 100, 0.600, 0.000, -81.400, 1036, 100, 100, 15, 24876, -3981, 5529, 5529, 9, 11, 1526063302.325, 155, 0, 1024, 1024, 1024, 1024, 0, 6, 4128, 4147, 4111, 4145, 4188, 4100, 0, 1, 3901, -89.900, 0.000, -81.800, 0.000, 0.000, -0.400, 0.0, , , , , , 98, , , 39, 39, 39
38.1644190, -120.1138914, 0.200, 11:28:22.424, 16, 0.00, 0.02, 100, 0.800, 0.200, -81.500, 1036, 100, 100, 15, 24876, -3981, 5529, 5529, 9, 11, 1526063302.425, 89, 0, 1024, 1024, 1024, 1024, 0, 6, 4128, 4147, 4111, 4145, 4188, 4100, 0, 1, 4001, -89.900, 0.000, -81.800, 0.000, 0.000, -0.400, 0.0, , , , , , 98, , , 39, 39, 39
38.1644190, -120.1138914, 0.300, 11:28:22.524, 16, 0.00, 0.02, 100, 0.700, 0.100, -81.600, 1036, 100, 100, 15, 24876, -3981, 5529, 5529, 9, 11, 1526063302.524, 78, 0, 1024, 1024, 1024, 1024, 0, 6, 4128, 4147, 4111, 4145, 4188, 4100, 0, 1, 4100, -89.900, 0.000, -81.800, 0.000, 0.000, -0.500, 0.0, , , , , , 98, , , 39, 39, 39
38.1644190, -120.1138914, 0.400, 11:28:22.625, 15, 0.00, 0.01, 100, 0.400, 0.300, -81.700, 1036, 100, 100, 15, 24876, -3981, 5529, 5529, 9, 11, 1526063302.625, 23, 0, 1024, 1024, 1024, 1024, 0, 6, 4128, 4147, 4111, 4145, 4188, 4100, 0, 1, 4201, -89.900, 0.000, -81.800, 0.000, 0.000, -0.500, 0.0, , , , , , 98, , , 39, 39, 39
38.1644190, -120.1138914, 0.400, 11:28:22.724, 15, 0.00, 0.01, 100, 0.100, 0.500, -81.900, 1036, 100, 100, 15, 24876, -3981, 5529, 5529, 9, 11, 1526063302.724, 7, 0, 1024, 1024, 1024, 1024, 0, 6, 4128, 4147, 4111, 4145, 4188, 4100, 0, 1, 4300, -89.900, 0.000, -81.800, 0.000, 0.000, -0.500, 0.0, , , , , , 98, , , 39, 39, 39
38.1644190, -120.1138914, 0.400, 11:28:22.825, 15, 0.00, 0.01, 100, 0.100, 0.500, -81.900, 1036, 100, 100, 15, 24876, -3981, 5529, 5529, 9, 11, 1526063302.825, 108, 0, 1024, 1024, 1024, 1024, 0, 6, 4128, 4147, 4111, 4145, 4188, 4100, 0, 1, 4401, -89.900, 0.000, -81.800, 0.000, 0.000, -0.500, 0.0, , , , , , 98, , , 39, 39, 39
38.1644191, -120.1138915, 0.500, 11:28:22.925, 15, 0.00, 0.01, 100, 0.000, 0.600, -82.000, 1036, 100, 100, 15, 24876, -3981, 5529, 5529, 9, 11, 1526063302.926, 30, 0, 1024, 1024, 1024, 1024, 0, 6, 4128, 4147, 4111, 4145, 4188, 4100, 0, 1, 4502, -89.900, 0.000, -81.800, 0.000, 0.000, -0.500, 0.0, , , , , , 98, , , 39, 39, 39
38.1644191, -120.1138915, 0.500, 11:28:23.024, 15, 0.00, 0.01, 100, -0.200, 0.600, -82.100, 1036, 100, 100, 15, 24876, -3981, 5529, 5529, 9, 11, 1526063303.024, 52, 0, 1024, 1024, 1024, 1024, 0, 6, 4128, 4147, 4111, 4145, 4188, 4100, 0, 1, 4600, -89.900, 0.000, -81.800, 0.000, 0.000, -0.500, 0.0, , , , , , 98, , , 39, 39, 39
38.1644191, -120.1138915, 0.500, 11:28:23.124, 15, 0.00, 0.01, 100, -0.200, 0.600, -82.100, 1036, 100, 100, 15, 24876, -3981, 5529, 5529, 9, 11, 1526063303.124, 152, 0, 1024, 1024, 1024, 1024, 0, 6, 4128, 4147, 4111, 4145, 4188, 4100, 0, 1, 4700, -89.900, 0.000, -81.800, 0.000, 0.000, -0.500, 0.0, , , , , , 98, , , 39, 39, 39
38.1644191, -120.1138915, 0.600, 11:28:23.225, 13, 0.00, 0.01, 100, -0.300, 0.500, -82.200, 1036, 100, 100, 15, 24876, -3981, 5529, 5529, 9, 11, 1526063303.225, 38, 0, 1024, 1024, 1024, 1024, 0, 6, 4128, 4147, 4111, 4145, 4188, 4100, 0, 1, 4801, -89.900, 0.000, -81.800, 0.000, 0.000, -0.500, 0.0, , , , , , 98, , , 39, 39, 39
38.1644191, -120.1138915, 0.600, 11:28:23.325, 13, 0.00, 0.01, 100, -0.100, 0.400, -82.200, 1036, 100, 100, 15, 23428, -13869, 5529, 5529, 9, 11, 1526063303.326, 24, 0, 1024, 1024, 1024, 1024, 0, 6, 4128, 4147, 4111, 4145, 4188, 4100, 0, 1, 4902, -89.900, 0.000, -81.800, 0.000, 0.000, -0.400, 0.0, , , , , , 98, , , 39, 39, 39
38.1644191, -120.1138915, 0.600, 11:28:23.424, 13, 0.00, 0.01, 100, -0.100, 0.400, -82.200, 1036, 100, 100, 15, 23428, -13869, 5529, 5529, 9, 11, 1526063303.425, 123, 0, 1024, 1024, 1024, 1024, 0, 6, 4128, 4147, 4111, 4145, 4188, 4100, 0, 1, 5001, -89.900, 0.000, -81.800, 0.000, 0.000, -0.400, 0.0, , , , , , 98, , , 39, 39, 39
38.1644191, -120.1138915, 0.700, 11:28:23.525, 14, 0.00, 0.01, 100, 0.000, 0.300, -82.100, 1036, 100, 100, 15, 23428, -13869, 5529, 5529, 9, 11, 1526063303.525, 51, 0, 1024, 1024, 1024, 1024, 0, 6, 3883, 3908, 3863, 3891, 3971, 3906, 0, 1, 5101, -89.900, 0.000, -81.800, 0.000, 0.000, -0.400, 0.0, , , , , , 98, , , 39, 39, 39
38.1644191, -120.1138915, 0.800, 11:28:23.628, 15, 0.00, 0.01, 100, 0.000, 0.300, -81.900, 1036, 100, 100, 15, 23428, -13869, 5529, 5529, 9, 11, 1526063303.628, 5, 0, 1024, 1024, 1024, 1024, 0, 6, 3883, 3908, 3863, 3891, 3971, 3906, 0, 1, 5204, -89.900, 0.000, -81.800, 0.000, 0.000, -0.400, 0.0, , , , , , 98, , , 39, 39, 39
38.1644191, -120.1138915, 0.900, 11:28:23.724, 15, 0.00, 0.01, 100, 0.000, 0.400, -81.900, 1036, 100, 100, 15, 23428, -13869, 5529, 5529, 9, 6, 1526063303.725, 6, 0, 1024, 1024, 1024, 1024, 0, 6, 3883, 3908, 3863, 3891, 3971, 3906, 0, 1, 5301, -89.900, 0.000, -81.800, 0.000, 0.000, -0.400, 0.0, , , , , , 98, , , 39, 39, 39
38.1644191, -120.1138915, 0.900, 11:28:23.826, 15, 0.00, 0.01, 100, 0.000, 0.400, -81.900, 1036, 100, 100, 15, 23428, -13869, 5529, 5529, 9, 6, 1526063303.826, 107, 0, 1024, 1024, 1024, 1024, 0, 6, 3883, 3908, 3863, 3891, 3971, 3906, 0, 1, 5402, -89.900, 0.000, -81.800, 0.000, 0.000, -0.400, 0.0, , , , , , 98, , , 39, 39, 39
38.1644192, -120.1138916, 1.000, 11:28:23.925, 15, 0.00, 0.02, 100, -0.200, 0.300, -81.900, 1036, 100, 100, 15, 23428, -13869, 5529, 5529, 9, 14, 1526063303.925, 36, 0, 1024, 1024, 1024, 1024, 0, 6, 3883, 3908, 3863, 3891, 3971, 3906, 0, 1, 5501, -89.900, 0.000, -81.800, 0.000, 0.000, -0.300, 0.0, , , , , , 98, , , 39, 39, 39
38.1644192, -120.1138916, 1.000, 11:28:24.025, 15, 0.00, 0.02, 100, -0.300, 0.400, -82.000, 1036, 100, 100, 15, 23428, -13869, 5529, 5529, 9, 14, 1526063304.025, 36, 0, 1024, 1024, 1024, 1024, 0, 6, 3883, 3908, 3863, 3891, 3971, 3906, 0, 1, 5601, -89.900, 0.000, -81.800, 0.000, 0.000, -0.200, 0.0, , , , , , 98, , , 39, 39, 39
38.1644193, -120.1138915, 1.000, 11:28:24.125, 15, 0.00, 0.03, 100, -0.300, 0.300, -82.100, 1036, 100, 100, 15, 23428, -13869, 5529, 5529, 9, 14, 1526063304.125, 56, 0, 1024, 1024, 1024, 1024, 0, 6, 3883, 3908, 3863, 3891, 3971, 3906, 0, 1, 5701, -89.900, 0.000, -81.800, 0.000, 0.000, -0.200, 0.0, , , , , , 98, , , 39, 39, 39
38.1644192, -120.1138914, 1.100, 11:28:24.227, 15, 0.00, 0.03, 100, 0.100, -0.100, -82.100, 1036, 100, 100, 15, 23154, -16456, 5529, 5529, 9, 14, 1526063304.227, 4, 0, 1024, 1024, 1024, 1024, 0, 6, 3855, 3833, 3826, 3849, 3885, 3866, 0, 1, 5803, -90.000, 0.000, -81.800, 0.000, 0.000, -0.600, 0.0, , , , , , 98, , , 39, 39, 39
38.1644192, -120.1138914, 1.200, 11:28:24.324, 17, 0.00, 0.02, 100, 0.300, -0.200, -82.100, 1036, 100, 100, 15, 23154, -16456, 5529, 5529, 9, 14, 1526063304.325, 21, 0, 1024, 1024, 1024, 1024, 0, 6, 3855, 3833, 3826, 3849, 3885, 3866, 0, 1, 5901, -90.000, 0.000, -81.800, 0.000, 0.000, -0.800, 0.0, , , , , , 98, , , 39, 39, 39
38.1644192, -120.1138913, 1.400, 11:28:24.428, 14, 0.00, 0.03, 100, 0.500, -0.300, -82.000, 1036, 100, 100, 15, 23154, -16456, 5529, 5529, 9, 14, 1526063304.428, 5, 0, 1024, 1024, 1024, 1024, 0, 6, 3855, 3833, 3826, 3849, 3885, 3866, 0, 1, 6004, -90.000, 0.000, -81.800, 0.000, 0.000, -1.200, 0.0, , , , , , 98, , , 39, 39, 39
38.1644192, -120.1138913, 1.600, 11:28:24.525, 14, 0.00, 0.03, 100, 0.400, -0.200, -82.000, 1036, 100, 100, 15, 23154, -16456, 5529, 5529, 9, 14, 1526063304.525, 17, 0, 1024, 1024, 1024, 1024, 0, 6, 3855, 3833, 3826, 3849, 3885, 3866, 0, 1, 6101, -89.900, 0.000, -81.800, 0.000, 0.000, -1.400, 0.0, , , , , , 98, , , 39, 39, 39
38.1644192, -120.1138913, 1.700, 11:28:24.624, 15, 0.00, 0.03, 100, 0.200, 0.000, -81.900, 1036, 100, 100, 15, 23154, -16456, 5529, 5529, 9, 14, 1526063304.624, 6, 0, 1024, 1024, 1024, 1024, 0, 6, 3855, 3833, 3826, 3849, 3885, 3866, 0, 1, 6200, -89.900, 0.000, -81.800, 0.000, 0.000, -1.600, 0.0, , , , , , 98, , , 39, 39, 39
38.1644193, -120.1138913, 1.900, 11:28:24.730, 15, 0.00, 0.04, 100, 0.100, 0.000, -81.700, 1036, 100, 100, 15, 23154, -16456, 5529, 5529, 9, 14, 1526063304.731, 17, 0, 1024, 1024, 1024, 1024, 0, 6, 3855, 3833, 3826, 3849, 3885, 3866, 0, 1, 6307, -89.900, 0.000, -81.800, 0.000, 0.000, -1.800, 0.0, , , , , , 98, , , 39, 39, 39
38.1644193, -120.1138913, 1.900, 11:28:24.825, 15, 0.00, 0.04, 100, 0.100, 0.000, -81.700, 1036, 100, 100, 15, 23154, -16456, 5529, 5529, 9, 14, 1526063304.825, 112, 0, 1024, 1024, 1024, 1024, 0, 6, 3855, 3833, 3826, 3849, 3885, 3866, 0, 1, 6401, -89.900, 0.000, -81.800, 0.000, 0.000, -1.800, 0.0, , , , , , 98, , , 39, 39, 39
38.1644194, -120.1138912, 2.300, 11:28:24.930, 14, 0.00, 0.06, 100, 0.000, 0.200, -81.500, 1036, 100, 100, 15, 23282, -17269, 5418, 5529, 9, 14, 1526063304.931, 5, 0, 1024, 1024, 1024, 1024, 0, 6, 3855, 3833, 3826, 3849, 3885, 3866, 0, 1, 6507, -89.900, 0.000, -81.800, 0.000, 0.000, -2.200, 0.0, , , , , , 98, , , 39, 39, 39
38.1644196, -120.1138911, 2.500, 11:28:25.039, 16, 0.00, 0.07, 100, 0.000, 0.200, -81.500, 1036, 100, 100, 15, 23282, -17269, 5418, 5529, 9, 14, 1526063305.039, 15, 0, 1024, 1024, 1024, 1024, 0, 6, 3922, 3879, 3803, 3899, 3878, 3836, 0, 1, 6615, -89.900, 0.000, -81.800, 0.000, 0.000, -2.700, 0.0, , , , , , 98, , , 39, 39, 39
38.1644196, -120.1138911, 2.500, 11:28:25.124, 16, 0.00, 0.07, 100, 0.000, 0.200, -81.500, 1036, 100, 100, 15, 23282, -17269, 5418, 5529, 9, 14, 1526063305.125, 100, 0, 1024, 1024, 1024, 1024, 0, 6, 3922, 3879, 3803, 3899, 3878, 3836, 0, 1, 6701, -89.900, 0.000, -81.700, 0.000, 0.000, -2.700, 0.0, , , , , , 98, , , 39, 39, 39
38.1644199, -120.1138911, 3.100, 11:28:25.231, 16, 0.00, 0.11, 100, -0.400, 0.200, -81.400, 1036, 100, 100, 15, 23282, -17269, 5418, 5529, 9, 14, 1526063305.232, 7, 0, 1024, 1024, 1024, 1024, 0, 6, 3922, 3879, 3803, 3899, 3878, 3836, 0, 1, 6808, -89.900, 0.000, -81.800, 0.000, 0.000, -2.900, 0.0, , , , , , 98, , , 39, 39, 39
38.1644199, -120.1138911, 3.100, 11:28:25.324, 16, 0.00, 0.11, 100, -0.400, 0.200, -81.400, 1036, 100, 100, 15, 23282, -17269, 5418, 5529, 9, 14, 1526063305.324, 99, 0, 1024, 1024, 1024, 1024, 0, 6, 3922, 3879, 3803, 3899, 3878, 3836, 0, 1, 6900, -89.900, 0.000, -81.800, 0.000, 0.000, -2.900, 0.0, , , , , , 98, , , 39, 39, 39
38.1644199, -120.1138911, 3.100, 11:28:25.425, 16, 0.00, 0.11, 100, -0.400, 0.200, -81.400, 1036, 100, 100, 15, 23282, -17269, 5418, 5529, 9, 14, 1526063305.425, 200, 0, 1024, 1024, 1024, 1024, 0, 6, 3922, 3879, 3803, 3899, 3878, 3836, 0, 1, 7001, -89.900, 0.000, -81.800, 0.000, 0.000, -2.900, 0.0, , , , , , 98, , , 39, 39, 39
38.1644204, -120.1138909, 3.800, 11:28:25.525, 16, 0.00, 0.16, 100, -0.900, -0.300, -81.200, 1036, 100, 100, 15, 23282, -17269, 5418, 5529, 9, 14, 1526063305.525, 56, 0, 1024, 1024, 1024, 1024, 0, 6, 3922, 3879, 3803, 3899, 3878, 3836, 0, 1, 7101, -90.000, 0.000, -81.700, 0.000, 0.000, -3.200, 0.0, , , , , , 98, , , 39, 39, 39
38.1644205, -120.1138907, 4.100, 11:28:25.624, 16, 0.00, 0.18, 100, -1.000, -0.600, -81.100, 1036, 100, 100, 15, 23282, -17269, 5418, 5529, 9, 14, 1526063305.624, 69, 0, 1024, 1024, 1024, 1024, 0, 6, 3922, 3879, 3803, 3899, 3878, 3836, 0, 1, 7200, -90.000, 0.000, -81.700, 0.000, 0.000, -3.300, 0.0, , , , , , 98, , , 39, 39, 39
38.1644207, -120.1138906, 4.500, 11:28:25.724, 14, 0.00, 0.20, 100, -1.200, -0.900, -81.100, 1036, 100, 100, 15, 23282, -17269, 5418, 5529, 9, 14, 1526063305.724, 66, 0, 1024, 1024, 1024, 1024, 0, 6, 3922, 3879, 3803, 3899, 3878, 3836, 0, 1, 7300, -90.000, 0.000, -81.800, 0.000, 0.000, -3.300, 0.0, , , , , , 98, , , 39, 39, 39
38.1644211, -120.1138904, 5.200, 11:28:25.824, 14, 0.00, 0.25, 100, -1.700, -1.100, -81.400, 1036, 100, 100, 15, 23282, -17269, 5418, 5529, 9, 14, 1526063305.825, 55, 0, 1024, 1024, 1024, 1024, 0, 6, 3922, 3879, 3803, 3899, 3878, 3836, 0, 1, 7401, -90.000, 0.000, -81.800, 0.000, 0.000, -3.400, 0.0, , , , , , 98, , , 39, 39, 39
38.1644211, -120.1138904, 5.500, 11:28:25.925, 14, 0.00, 0.26, 98, -1.700, -1.200, -81.600, 1036, 100, 100, 15, 22352, -24021, 5418, 5529, 9, 14, 1526063305.925, 70, 0, 1024, 1024, 1024, 1024, 0, 6, 3922, 3879, 3803, 3899, 3878, 3836, 0, 1, 7501, -90.000, 0.000, -81.800, 0.000, 0.000, -3.300, 0.0, , , , , , 98, , , 39, 39, 39
38.1644212, -120.1138903, 5.900, 11:28:26.025, 15, 0.00, 0.26, 98, -1.700, -1.100, -81.800, 1036, 100, 100, 15, 22352, -24021, 5418, 5529, 9, 14, 1526063306.025, 26, 0, 1024, 1024, 1024, 1024, 0, 6, 3922, 3879, 3803, 3899, 3878, 3836, 0, 1, 7601, -90.000, 0.000, -81.800, 0.000, 0.000, -3.300, 0.0, , , , , , 98, , , 39, 39, 39
38.1644211, -120.1138903, 6.200, 11:28:26.125, 15, 0.00, 0.25, 98, -1.400, -0.900, -82.000, 1036, 100, 100, 15, 22352, -24021, 5418, 5529, 9, 14, 1526063306.125, 67, 0, 1024, 1024, 1024, 1024, 0, 6, 3922, 3879, 3803, 3899, 3878, 3836, 0, 1, 7701, -89.900, 0.000, -81.800, 0.000, 0.000, -3.300, 0.0, , , , , , 98, , , 39, 39, 39
38.1644210, -120.1138903, 6.600, 11:28:26.225, 15, 0.00, 0.25, 98, -1.100, -0.700, -82.100, 1036, 100, 100, 15, 22352, -24021, 5418, 5529, 9, 14, 1526063306.225, 38, 0, 1024, 1024, 1024, 1024, 0, 6, 3922, 3879, 3803, 3899, 3878, 3836, 0, 1, 7801, -89.900, 0.000, -81.800, 0.000, 0.000, -3.300, 0.0, , , , , , 98, , , 39, 39, 39
38.1644209, -120.1138903, 6.900, 11:28:26.325, 15, 0.10, 0.24, 98, -0.700, -0.600, -82.100, 1036, 100, 100, 15, 22352, -24021, 5418, 5529, 9, 14, 1526063306.325, 39, 0, 1024, 1024, 1024, 1024, 0, 6, 3922, 3879, 3803, 3899, 3878, 3836, 0, 1, 7901, -89.900, 0.000, -81.800, -0.100, 0.000, -3.200, 0.0, , , , , , 98, , , 39, 39, 39
38.1644208, -120.1138903, 7.200, 11:28:26.424, 15, 0.10, 0.22, 98, -0.400, -0.600, -82.100, 1036, 100, 100, 15, 22352, -24021, 5418, 5529, 9, 14, 1526063306.425, 7, 0, 1024, 1024, 1024, 1024, 0, 6, 3922, 3879, 3803, 3899, 3878, 3836, 0, 1, 8001, -89.900, 0.000, -81.800, -0.100, 0.000, -3.200, 0.0, , , , , , 98, , , 39, 39, 39
38.1644206, -120.1138902, 7.600, 11:28:26.527, 15, 0.10, 0.21, 98, -0.100, -0.600, -82.000, 1036, 100, 100, 15, 22352, -24021, 5418, 5529, 9, 14, 1526063306.527, 5, 0, 1024, 1024, 1024, 1024, 0, 6, 3922, 3879, 3803, 3899, 3878, 3836, 0, 1, 8103, -90.000, 0.000, -81.800, -0.100, 0.000, -3.100, 0.0, , , , , , 98, , , 39, 39, 39
38.1644203, -120.1138902, 7.900, 11:28:26.625, 16, 0.10, 0.19, 98, 0.500, -0.800, -82.000, 1036, 100, 100, 15, 22352, -24021, 5418, 5529, 9, 14, 1526063306.625, 40, 0, 1024, 1024, 1024, 1024, 0, 6, 3922, 3879, 3803, 3899, 3878, 3836, 0, 1, 8201, -90.000, 0.000, -81.800, -0.100, 0.000, -3.000, 0.0, , , , , , 98, , , 39, 39, 39
38.1644203, -120.1138902, 7.900, 11:28:26.724, 16, 0.10, 0.19, 98, 0.500, -0.800, -82.000, 1036, 100, 100, 15, 22352, -24021, 5418, 5529, 9, 14, 1526063306.724, 139, 0, 1024, 1024, 1024, 1024, 0, 6, 3922, 3879, 3803, 3899, 3878, 3836, 0, 1, 8300, -90.000, 0.000, -81.800, -0.100, 0.000, -3.000, 0.0, , , , , , 98, , , 39, 39, 39
38.1644198, -120.1138903, 8.500, 11:28:26.825, 17, 0.10, 0.14, 98, 1.600, -0.800, -81.700, 1036, 100, 100, 15, 22352, -24021, 5418, 5529, 9, 14, 1526063306.826, 15, 0, 1024, 1024, 1024, 1024, 0, 6, 3922, 3879, 3803, 3899, 3878, 3836, 0, 1, 8402, -89.900, 0.000, -81.800, -0.100, 0.000, -3.100, 0.0, , , , , , 98, , , 39, 39, 39
38.1644198, -120.1138903, 8.500, 11:28:26.924, 17, 0.10, 0.14, 98, 1.600, -0.800, -81.700, 1036, 100, 100, 15, 22352, -24021, 5418, 5529, 9, 14, 1526063306.925, 114, 0, 1024, 1024, 1024, 1024, 0, 6, 3922, 3879, 3803, 3899, 3878, 3836, 0, 1, 8501, -89.900, 0.000, -81.800, -0.100, 0.000, -3.100, 0.0, , , , , , 98, , , 39, 39, 39
38.1644196, -120.1138903, 8.800, 11:28:27.025, 17, 0.10, 0.13, 98, 1.800, -0.800, -81.600, 1036, 100, 100, 15, 22261, -19416, 5418, 5529, 9, 14, 1526063307.025, 97, 0, 1024, 1024, 1024, 1024, 0, 6, 3922, 3879, 3803, 3899, 3878, 3836, 0, 1, 8601, -89.900, 0.000, -81.800, -0.100, 0.000, -3.100, 0.0, , , , , , 98, , , 39, 39, 39
38.1644194, -120.1138903, 9.200, 11:28:27.124, 16, 0.10, 0.12, 98, 1.800, -0.600, -81.600, 1036, 100, 96, 15, 22261, -19416, 5418, 5529, 9, 14, 1526063307.124, 86, 0, 1024, 1024, 1024, 1024, 0, 6, 3922, 3879, 3803, 3899, 3878, 3836, 0, 1, 8700, -89.900, 0.000, -81.800, -0.100, 0.000, -3.100, 0.0, , , , , , 98, , , 39, 39, 39
38.1644192, -120.1138904, 9.500, 11:28:27.225, 16, 0.10, 0.11, 98, 1.700, -0.500, -81.500, 1036, 100, 96, 15, 22261, -19416, 5418, 5529, 9, 14, 1526063307.225, 65, 0, 1024, 1024, 1024, 1024, 0, 6, 3922, 3879, 3803, 3899, 3878, 3836, 0, 1, 8801, -89.900, 0.000, -81.800, -0.100, 0.000, -3.100, 0.0, , , , , , 98, , , 39, 39, 39
38.1644190, -120.1138904, 9.800, 11:28:27.324, 18, 0.00, 0.10, 98, 1.600, -0.500, -81.600, 1036, 100, 96, 15, 22261, -19416, 5418, 5529, 9, 14, 1526063307.324, 92, 0, 1024, 1024, 1024, 1024, 0, 6, 3922, 3879, 3803, 3899, 3878, 3836, 0, 1, 8900, -89.900, 0.000, -81.800, 0.000, 0.000, -3.100, 0.0, , , , , , 98, , , 39, 39, 39
38.1644186, -120.1138905, 10.400, 11:28:27.427, 17, 0.00, 0.10, 98, 1.400, -0.300, -81.700, 1036, 100, 96, 15, 22261, -19416, 5418, 5529, 9, 14, 1526063307.428, 4, 0, 1024, 1024, 1024, 1024, 0, 6, 3922, 3879, 3803, 3899, 3878, 3836, 0, 1, 9004, -89.900, 0.000, -81.800, 0.000, 0.000, -3.000, 0.0, , , , , , 98, , , 39, 39, 39
38.1644185, -120.1138906, 10.800, 11:28:27.540, 17, 0.00, 0.11, 98, 1.200, -0.300, -81.800, 1036, 100, 96, 15, 22261, -19416, 5418, 5529, 9, 14, 1526063307.540, 4, 0, 1024, 1024, 1024, 1024, 0, 6, 3769, 3740, 3672, 3731, 3772, 3741, 0, 1, 9116, -89.900, 0.000, -81.800, 0.000, 0.000, -3.000, 0.0, , , , , , 98, , , 39, 39, 39
38.1644185, -120.1138906, 10.800, 11:28:27.625, 17, 0.00, 0.11, 98, 1.200, -0.300, -81.800, 1036, 100, 96, 15, 22261, -19416, 5418, 5529, 9, 14, 1526063307.626, 89, 0, 1024, 1024, 1024, 1024, 0, 6, 3769, 3740, 3672, 3731, 3772, 3741, 0, 1, 9202, -89.900, 0.000, -81.800, 0.000, 0.000, -3.000, 0.0, , , , , , 98, , , 39, 39, 39
38.1644183, -120.1138906, 11.100, 11:28:27.725, 17, 0.00, 0.11, 98, 1.100, -0.400, -81.900, 1036, 100, 96, 15, 22261, -19416, 5418, 5529, 9, 14, 1526063307.725, 91, 0, 1024, 1024, 1024, 1024, 0, 6, 3769, 3740, 3672, 3731, 3772, 3741, 0, 1, 9301, -89.900, 0.000, -81.800, 0.000, 0.000, -3.000, 0.0, , , , , , 98, , , 39, 39, 39
38.1644182, -120.1138907, 11.400, 11:28:27.824, 17, 0.00, 0.12, 98, 0.900, -0.300, -82.000, 1036, 100, 96, 15, 22261, -19416, 5418, 5529, 9, 14, 1526063307.824, 74, 0, 1024, 1024, 1024, 1024, 0, 6, 3769, 3740, 3672, 3731, 3772, 3741, 0, 1, 9400, -89.900, 0.000, -81.800, 0.000, 0.000, -3.000, 0.0, , , , , , 98, , , 39, 39, 39
38.1644182, -120.1138908, 11.700, 11:28:27.925, 18, 0.00, 0.12, 98, 0.700, -0.200, -82.000, 1036, 100, 96, 15, 22261, -19416, 5418, 5529, 9, 14, 1526063307.925, 87, 0, 1024, 1024, 1024, 1024, 0, 6, 3769, 3740, 3672, 3731, 3772, 3741, 0, 1, 9501, -89.900, 0.000, -81.800, 0.000, 0.000, -3.000, 0.0, , , , , , 98, , , 39, 39, 39
38.1644181, -120.1138908, 12.000, 11:28:28.025, 18, 0.00, 0.12, 98, 0.600, -0.100, -82.000, 1036, 100, 96, 15, 22261, -19416, 5418, 5529, 9, 14, 1526063308.025, 73, 0, 1024, 1024, 1024, 1024, 0, 6, 3769, 3740, 3672, 3731, 3772, 3741, 0, 1, 9601, -89.900, 0.000, -81.800, 0.000, 0.000, -3.000, 0.0, , , , , , 98, , , 39, 39, 39
38.1644180, -120.1138909, 12.600, 11:28:28.124, 18, 0.00, 0.13, 98, 0.500, -0.100, -81.900, 1036, 100, 96, 15, 22261, -19416, 5418, 5529, 9, 14, 1526063308.124, 69, 0, 1024, 1024, 1024, 1024, 0, 6, 3769, 3740, 3672, 3731, 3772, 3741, 0, 1, 9700, -89.900, 0.000, -81.800, 0.000, 0.000, -2.900, 0.0, , , , , , 98, , , 39, 39, 39
38.1644179, -120.1138909, 12.900, 11:28:28.224, 18, 0.00, 0.14, 98, 0.500, -0.100, -81.800, 1036, 100, 96, 15, 22261, -19416, 5418, 5529, 9, 14, 1526063308.224, 65, 0, 1024, 1024, 1024, 1024, 0, 6, 3769, 3740, 3672, 3731, 3772, 3741, 0, 1, 9800, -89.900, 0.000, -81.800, 0.000, 0.000, -2.900, 0.0, , , , , , 98, , , 39, 39, 39
38.1644179, -120.1138909, 12.900, 11:28:28.325, 18, 0.00, 0.14, 98, 0.500, -0.100, -81.800, 1036, 100, 96, 15, 22261, -19416, 5418, 5529, 9, 14, 1526063308.325, 165, 0, 1024, 1024, 1024, 1024, 0, 6, 3769, 3740, 3672, 3731, 3772, 3741, 0, 1, 9901, -89.900, 0.000, -81.800, 0.000, 0.000, -2.900, 0.0, , , , , , 98, , , 39, 39, 39
38.1644180, -120.1138909, 13.500, 11:28:28.424, 18, 0.00, 0.13, 98, 0.200, -0.100, -81.800, 1036, 100, 96, 15, 22562, -19246, 5418, 5529, 9, 14, 1526063308.425, 53, 0, 1024, 1024, 1024, 1024, 0, 6, 3769, 3742, 3723, 3749, 3793, 3770, 0, 1, 10001, -89.900, 0.000, -81.800, 0.000, 0.000, -3.000, 0.0, , , , , , 98, , , 39, 39, 39
38.1644180, -120.1138910, 13.800, 11:28:28.525, 18, 0.00, 0.12, 98, 0.100, -0.200, -81.900, 1036, 100, 100, 15, 22562, -19246, 5418, 5529, 9, 14, 1526063308.525, 39, 0, 1024, 1024, 1024, 1024, 0, 6, 3769, 3742, 3723, 3749, 3793, 3770, 0, 1, 10101, -90.000, 0.000, -81.800, 0.000, 0.000, -3.000, 0.0, , , , , , 98, , , 39, 39, 39
38.1644180, -120.1138910, 14.100, 11:28:28.625, 17, 0.00, 0.12, 98, 0.100, -0.200, -81.900, 1036, 100, 100, 15, 22562, -19246, 5418, 5529, 9, 14, 1526063308.625, 43, 0, 1024, 1024, 1024, 1024, 0, 6, 3769, 3742, 3723, 3749, 3793, 3770, 0, 1, 10201, -89.900, 0.000, -81.800, 0.000, 0.000, -2.900, 0.0, , , , , , 98, , , 39, 39, 39
38.1644181, -120.1138910, 14.400, 11:28:28.725, 17, 0.00, 0.11, 98, 0.200, -0.200, -82.000, 1036, 100, 100, 15, 22562, -19246, 5418, 5529, 9, 14, 1526063308.725, 52, 0, 1024, 1024, 1024, 1024, 0, 6, 3769, 3742, 3723, 3749, 3793, 3770, 0, 1, 10301, -89.900, 0.000, -81.800, 0.000, 0.000, -3.000, 0.0, , , , , , 98, , , 39, 39, 39
38.1644181, -120.1138910, 14.700, 11:28:28.825, 18, 0.00, 0.11, 98, 0.200, -0.200, -82.000, 1036, 100, 100, 15, 22562, -19246, 5418, 5529, 9, 14, 1526063308.825, 42, 0, 1024, 1024, 1024, 1024, 0, 6, 3769, 3742, 3723, 3749, 3793, 3770, 0, 1, 10401, -89.900, 0.000, -81.800, 0.000, 0.000, -3.000, 0.0, , , , , , 98, , , 39, 39, 39
38.1644182, -120.1138910, 15.000, 11:28:28.924, 18, 0.00, 0.11, 98, 0.100, -0.200, -82.000, 1036, 100, 100, 15, 22562, -19246, 5418, 5529, 9, 14, 1526063308.924, 30, 0, 1024, 1024, 1024, 1024, 0, 6, 3769, 3742, 3723, 3749, 3793, 3770, 0, 1, 10500, -89.900, 0.000, -81.800, 0.000, 0.000, -3.000, 0.0, , , , , , 98, , , 39, 39, 39
38.1644182, -120.1138910, 15.300, 11:28:29.024, 18, 0.00, 0.10, 98, 0.000, -0.300, -82.100, 1036, 100, 100, 15, 22562, -19246, 5418, 5529, 9, 14, 1526063309.024, 35, 0, 1024, 1024, 1024, 1024, 0, 6, 3769, 3742, 3723, 3749, 3793, 3770, 0, 1, 10600, -90.000, 0.000, -81.800, 0.000, 0.000, -3.000, 0.0, , , , , , 98, , , 39, 39, 39
38.1644182, -120.1138910, 15.300, 11:28:29.124, 18, 0.00, 0.10, 98, 0.000, -0.300, -82.100, 1036, 100, 100, 15, 22562, -19246, 5418, 5529, 9, 14, 1526063309.124, 135, 0, 1024, 1024, 1024, 1024, 0, 6, 3769, 3742, 3723, 3749, 3793, 3770, 0, 1, 10700, -90.000, 0.000, -81.800, 0.000, 0.000, -3.000, 0.0, , , , , , 98, , , 39, 39, 39
38.1644185, -120.1138909, 15.900, 11:28:29.224, 18, 0.00, 0.09, 98, -0.500, -0.800, -82.100, 1036, 100, 100, 15, 22562, -19246, 5418, 5529, 9, 14, 1526063309.224, 23, 0, 1024, 1024, 1024, 1024, 0, 6, 3769, 3742, 3723, 3749, 3793, 3770, 0, 1, 10800, -90.000, 0.000, -81.800, 0.000, 0.000, -3.000, 0.0, , , , , , 98, , , 39, 39, 39
38.1644186, -120.1138909, 16.200, 11:28:29.324, 18, 0.00, 0.08, 98, -0.800, -0.800, -82.000, 1036, 100, 100, 15, 22562, -19246, 5418, 5529, 9, 14, 1526063309.324, 13, 0, 1024, 1024, 1024, 1024, 0, 6, 3769, 3742, 3723, 3749, 3793, 3770, 0, 1, 10900, -90.000, 0.000, -81.800, 0.000, 0.000, -3.000, 0.0, , , , , , 98, , , 39, 39, 39
38.1644187, -120.1138908, 16.500, 11:28:29.424, 19, 0.00, 0.07, 98, -1.000, -0.800, -82.000, 1036, 100, 100, 15, 22551, -19157, 5418, 5529, 9, 14, 1526063309.425, 13, 0, 1024, 1024, 1024, 1024, 0, 6, 3768, 3736, 3734, 3744, 3798, 3768, 0, 1, 11001, -89.900, 0.000, -81.800, 0.000, 0.000, -3.000, 0.0, , , , , , 98, , , 39, 39, 39
38.1644189, -120.1138909, 16.800, 11:28:29.540, 19, 0.00, 0.07, 98, -1.200, -0.500, -81.900, 1036, 100, 100, 15, 22551, -19157, 5418, 5529, 9, 14, 1526063309.540, 9, 0, 1024, 1024, 1024, 1024, 0, 6, 3768, 3736, 3734, 3744, 3798, 3768, 0, 1, 11116, -89.900, 0.000, -81.800, 0.000, 0.000, -3.000, 0.0, , , , , , 98, , , 39, 39, 39
38.1644190, -120.1138909, 17.100, 11:28:29.624, 18, 0.00, 0.06, 98, -1.300, -0.300, -81.800, 1036, 100, 100, 15, 22551, -19157, 5418, 5529, 9, 14, 1526063309.624, 10, 0, 1024, 1024, 1024, 1024, 0, 6, 3768, 3736, 3734, 3744, 3798, 3768, 0, 1, 11200, -89.900, 0.000, -81.800, 0.000, 0.000, -2.900, 0.0, , , , , , 98, , , 39, 39, 39
38.1644190, -120.1138909, 17.100, 11:28:29.725, 18, 0.00, 0.06, 98, -1.300, -0.300, -81.800, 1036, 100, 100, 15, 22551, -19157, 5418, 5529, 9, 14, 1526063309.725, 111, 0, 1024, 1024, 1024, 1024, 0, 6, 3768, 3736, 3734, 3744, 3798, 3768, 0, 1, 11301, -89.900, 0.000, -81.800, 0.000, 0.000, -2.900, 0.0, , , , , , 98, , , 39, 39, 39
38.1644191, -120.1138909, 17.400, 11:28:29.824, 18, 0.00, 0.06, 98, -1.300, -0.100, -81.700, 1036, 100, 100, 15, 22551, -19157, 5418, 5529, 9, 14, 1526063309.825, 91, 0, 1024, 1024, 1024, 1024, 0, 6, 3768, 3736, 3734, 3744, 3798, 3768, 0, 1, 11401, -89.900, 0.000, -81.800, 0.000, 0.000, -3.000, 0.0, , , , , , 98, , , 39, 39, 39
38.1644193, -120.1138909, 17.700, 11:28:29.925, 17, 0.00, 0.06, 98, -1.200, 0.000, -81.600, 1036, 100, 100, 15, 22551, -19157, 5418, 5529, 9, 14, 1526063309.926, 98, 0, 1024, 1024, 1024, 1024, 0, 6, 3768, 3736, 3734, 3744, 3798, 3768, 0, 1, 11502, -89.900, 0.000, -81.800, 0.000, 0.000, -3.000, 0.0, , , , , , 98, , , 39, 39, 39
38.1644194, -120.1138909, 18.000, 11:28:30.024, 17, 0.00, 0.07, 98, -1.200, 0.000, -81.600, 1036, 100, 100, 15, 22551, -19157, 5418, 5529, 9, 14, 1526063310.024, 73, 0, 1024, 1024, 1024, 1024, 0, 6, 3768, 3736, 3734, 3744, 3798, 3768, 0, 1, 11600, -89.900, 0.000, -81.800, 0.000, 0.000, -3.000, 0.0, , , , , , 98, , , 39, 39, 39
38.1644195, -120.1138909, 18.300, 11:28:30.125, 19, 0.00, 0.08, 98, -1.200, 0.000, -81.600, 1036, 100, 99, 15, 22551, -19157, 5418, 5529, 9, 14, 1526063310.125, 91, 0, 1024, 1024, 1024, 1024, 0, 6, 3768, 3736, 3734, 3744, 3798, 3768, 0, 1, 11701, -89.900, 0.000, -81.800, 0.000, 0.000, -2.900, 0.0, , , , , , 98, , , 39, 39, 39
38.1644197, -120.1138910, 18.600, 11:28:30.224, 19, 0.00, 0.09, 98, -1.200, 0.100, -81.700, 1036, 100, 99, 15, 22551, -19157, 5418, 5529, 9, 14, 1526063310.225, 80, 0, 1024, 1024, 1024, 1024, 0, 6, 3768, 3736, 3734, 3744, 3798, 3768, 0, 1, 11801, -89.900, 0.000, -81.800, 0.000, 0.000, -2.900, 0.0, , , , , , 98, , , 39, 39, 39
38.1644198, -120.1138910, 18.900, 11:28:30.325, 19, 0.00, 0.10, 98, -1.300, 0.300, -81.800, 1036, 100, 99, 15, 22551, -19157, 5418, 5529, 9, 14, 1526063310.325, 82, 0, 1024, 1024, 1024, 1024, 0, 6, 3768, 3736, 3734, 3744, 3798, 3768, 0, 1, 11901, -89.900, 0.000, -81.800, 0.000, 0.000, -2.900, 0.0, , , , , , 98, , , 39, 39, 39
38.1644199, -120.1138910, 19.200, 11:28:30.425, 19, 0.00, 0.11, 98, -1.300, 0.400, -81.900, 1036, 100, 99, 15, 22551, -19157, 5418, 5529, 9, 14, 1526063310.426, 40, 0, 1024, 1024, 1024, 1024, 0, 6, 3768, 3736, 3734, 3744, 3798, 3768, 0, 1, 12002, -89.900, 0.000, -81.800, 0.000, 0.000, -2.900, 0.0, , , , , , 98, , , 39, 39, 39
38.1644200, -120.1138910, 19.500, 11:28:30.524, 19, 0.00, 0.12, 98, -1.200, 0.300, -82.000, 1036, 100, 99, 15, 22546, -18786, 5418, 5529, 9, 14, 1526063310.524, 72, 0, 1024, 1024, 1024, 1024, 0, 6, 3765, 3736, 3727, 3765, 3792, 3764, 0, 1, 12100, -89.900, 0.000, -81.800, 0.000, 0.000, -2.900, 0.0, , , , , , 98, , , 39, 39, 39
38.1644202, -120.1138910, 20.100, 11:28:30.624, 19, 0.00, 0.14, 98, -1.100, 0.000, -82.000, 1036, 100, 99, 15, 22546, -18786, 5418, 5529, 9, 14, 1526063310.624, 32, 0, 1024, 1024, 1024, 1024, 0, 6, 3765, 3736, 3727, 3765, 3792, 3764, 0, 1, 12200, -89.900, 0.000, -81.800, 0.000, 0.000, -2.900, 0.0, , , , , , 98, , , 39, 39, 39
38.1644202, -120.1138909, 20.400, 11:28:30.724, 19, 0.00, 0.15, 98, -1.100, 0.000, -82.000, 1036, 100, 99, 15, 22546, -18786, 5418, 5529, 9, 14, 1526063310.724, 51, 0, 1024, 1024, 1024, 1024, 0, 6, 3765, 3736, 3727, 3765, 3792, 3764, 0, 1, 12300, -89.900, 0.000, -81.800, 0.000, 0.000, -2.900, 0.0, , , , , , 98, , , 39, 39, 39
38.1644203, -120.1138909, 20.700, 11:28:30.824, 19, 0.00, 0.15, 98, -1.200, -0.100, -82.000, 1036, 100, 99, 15, 22546, -18786, 5418, 5529, 9, 14, 1526063310.825, 50, 0, 1024, 1024, 1024, 1024, 0, 6, 3765, 3736, 3727, 3765, 3792, 3764, 0, 1, 12401, -89.900, 0.000, -81.800, 0.000, 0.000, -2.900, 0.0, , , , , , 98, , , 39, 39, 39
38.1644204, -120.1138909, 21.000, 11:28:30.925, 19, 0.00, 0.16, 98, -1.200, 0.000, -82.000, 1036, 100, 99, 15, 22546, -18786, 5418, 5529, 9, 14, 1526063310.925, 30, 0, 1024, 1024, 1024, 1024, 0, 6, 3765, 3736, 3727, 3765, 3792, 3764, 0, 1, 12501, -89.900, 0.000, -81.800, 0.000, 0.000, -2.900, 0.0, , , , , , 98, , , 39, 39, 39
38.1644204, -120.1138909, 21.300, 11:28:31.024, 19, 0.00, 0.16, 98, -1.100, 0.000, -82.000, 1036, 100, 99, 15, 22546, -18786, 5418, 5529, 9, 14, 1526063311.024, 48, 0, 1024, 1024, 1024, 1024, 0, 6, 3765, 3736, 3727, 3765, 3792, 3764, 0, 1, 12600, -89.900, 0.000, -81.800, 0.000, 0.000, -2.900, 0.0, , , , , , 98, , , 39, 39, 39
38.1644205, -120.1138909, 21.600, 11:28:31.124, 19, 0.00, 0.17, 98, -0.900, 0.000, -82.000, 1036, 100, 99, 15, 22546, -18786, 5418, 5529, 9, 14, 1526063311.124, 35, 0, 1024, 1024, 1024, 1024, 0, 6, 3765, 3736, 3727, 3765, 3792, 3764, 0, 1, 12700, -89.900, 0.000, -81.800, 0.000, 0.000, -2.900, 0.0, , , , , , 98, , , 39, 39, 39
38.1644205, -120.1138908, 21.900, 11:28:31.224, 19, 0.00, 0.18, 98, -0.800, -0.200, -82.000, 1036, 100, 99, 15, 22546, -18786, 5418, 5529, 9, 14, 1526063311.225, 34, 0, 1024, 1024, 1024, 1024, 0, 6, 3765, 3736, 3727, 3765, 3792, 3764, 0, 1, 12801, -90.000, 0.000, -81.800, 0.000, 0.000, -3.000, 0.0, , , , , , 98, , , 39, 39, 39
38.1644205, -120.1138908, 22.200, 11:28:31.324, 19, 0.00, 0.18, 98, -0.900, -0.600, -82.100, 1036, 100, 99, 15, 22546, -18786, 5418, 5529, 9, 14, 1526063311.324, 23, 0, 1024, 1024, 1024, 1024, 0, 6, 3765, 3736, 3727, 3765, 3792, 3764, 0, 1, 12900, -90.000, 0.000, -81.800, 0.000, 0.000, -3.000, 0.0, , , , , , 98, , , 39, 39, 39
38.1644205, -120.1138907, 22.500, 11:28:31.425, 19, 0.00, 0.18, 98, -0.800, -0.800, -82.200, 1036, 100, 99, 15, 22536, -18790, 5418, 5529, 9, 14, 1526063311.425, 28, 0, 1024, 1024, 1024, 1024, 0, 6, 3766, 3735, 3725, 3749, 3788, 3769, 0, 1, 13001, -90.000, 0.000, -81.800, 0.000, 0.000, -3.000, 0.0, , , , , , 98, , , 39, 39, 39
38.1644205, -120.1138907, 22.500, 11:28:31.525, 19, 0.00, 0.18, 98, -0.800, -0.800, -82.200, 1036, 100, 99, 15, 22536, -18790, 5418, 5529, 9, 14, 1526063311.525, 128, 0, 1024, 1024, 1024, 1024, 0, 6, 3766, 3735, 3725, 3749, 3788, 3769, 0, 1, 13101, -90.000, 0.000, -81.800, 0.000, 0.000, -3.000, 0.0, , , , , , 98, , , 39, 39, 39
38.1644205, -120.1138906, 23.100, 11:28:31.628, 19, 0.00, 0.18, 98, -0.500, -1.000, -82.400, 1036, 100, 100, 15, 22536, -18790, 5418, 5529, 9, 14, 1526063311.628, 5, 0, 1024, 1024, 1024, 1024, 0, 6, 3766, 3735, 3725, 3749, 3788, 3769, 0, 1, 13204, -90.000, 0.000, -81.800, 0.000, 0.000, -2.900, 0.0, , , , , , 98, , , 39, 39, 39
38.1644205, -120.1138906, 23.400, 11:28:31.730, 19, 0.00, 0.18, 98, -0.300, -1.100, -82.400, 1036, 100, 100, 15, 22536, -18790, 5418, 5529, 9, 14, 1526063311.731, 9, 0, 1024, 1024, 1024, 1024, 0, 6, 3766, 3735, 3725, 3749, 3788, 3769, 0, 1, 13307, -90.000, 0.000, -81.800, 0.000, 0.000, -2.900, 0.0, , , , , , 98, , , 39, 39, 39
38.1644205, -120.1138906, 23.400, 11:28:31.824, 19, 0.00, 0.18, 98, -0.300, -1.100, -82.400, 1036, 100, 100, 15, 22536, -18790, 5418, 5529, 9, 14, 1526063311.825, 103, 0, 1024, 1024, 1024, 1024, 0, 6, 3766, 3735, 3725, 3749, 3788, 3769, 0, 1, 13401, -90.000, 0.000, -81.800, 0.000, 0.000, -2.900, 0.0, , , , , , 98, , , 39, 39, 39
38.1644204, -120.1138906, 24.000, 11:28:31.927, 19, 0.10, 0.18, 98, -0.100, -0.800, -82.300, 1036, 100, 100, 15, 22536, -18790, 5418, 5529, 9, 14, 1526063311.927, 5, 0, 1024, 1024, 1024, 1024, 0, 6, 3766, 3735, 3725, 3749, 3788, 3769, 0, 1, 13504, -89.900, 0.000, -81.800, -0.100, 0.000, -3.000, 0.0, , , , , , 98, , , 39, 39, 39
38.1644204, -120.1138906, 24.000, 11:28:32.024, 19, 0.10, 0.18, 98, -0.100, -0.800, -82.300, 1036, 100, 100, 15, 22536, -18790, 5418, 5529, 9, 14, 1526063312.024, 101, 0, 1024, 1024, 1024, 1024, 0, 6, 3766, 3735, 3725, 3749, 3788, 3769, 0, 1, 13600, -89.900, 0.000, -81.800, -0.100, 0.000, -3.000, 0.0, , , , , , 98, , , 39, 39, 39
38.1644204, -120.1138906, 24.300, 11:28:32.125, 19, 0.10, 0.18, 98, 0.000, -0.600, -82.300, 1036, 100, 100, 15, 22536, -18790, 5418, 5529, 9, 14, 1526063312.125, 93, 0, 1024, 1024, 1024, 1024, 0, 6, 3766, 3735, 3725, 3749, 3788, 3769, 0, 1, 13701, -89.900, 0.000, -81.800, -0.100, 0.000, -2.900, 0.0, , , , , , 98, , , 39, 39, 39
38.1644204, -120.1138906, 24.600, 11:28:32.224, 19, 0.10, 0.17, 98, 0.000, -0.400, -82.300, 1036, 100, 100, 15, 22536, -18790, 5418, 5529, 9, 14, 1526063312.224, 80, 0, 1024, 1024, 1024, 1024, 0, 6, 3766, 3735, 3725, 3749, 3788, 3769, 0, 1, 13800, -89.900, 0.000, -81.800, -0.100, 0.000, -2.900, 0.0, , , , , , 98, , , 39, 39, 39
38.1644203, -120.1138905, 25.200, 11:28:32.325, 19, 0.00, 0.17, 98, 0.300, -0.400, -82.300, 1036, 100, 100, 15, 22536, -18790, 5418, 5529, 9, 14, 1526063312.326, 65, 0, 1024, 1024, 1024, 1024, 0, 6, 3766, 3735, 3725, 3749, 3788, 3769, 0, 1, 13902, -89.900, 0.000, -81.800, 0.000, 0.000, -2.900, 0.0, , , , , , 98, , , 39, 39, 39
38.1644203, -120.1138905, 25.500, 11:28:32.425, 19, 0.00, 0.16, 98, 0.300, -0.500, -82.300, 1036, 100, 100, 15, 22565, -18368, 5418, 5529, 9, 14, 1526063312.425, 86, 0, 1024, 1024, 1024, 1024, 0, 6, 3766, 3735, 3725, 3749, 3788, 3769, 0, 1, 14001, -90.000, 0.000, -81.800, 0.000, 0.000, -2.900, 0.0, , , , , , 98, , , 39, 39, 39
38.1644202, -120.1138905, 25.800, 11:28:32.525, 19, 0.00, 0.16, 98, 0.100, -0.500, -82.200, 1036, 100, 100, 15, 22565, -18368, 5418, 5529, 9, 14, 1526063312.525, 68, 0, 1024, 1024, 1024, 1024, 0, 6, 3766, 3735, 3725, 3749, 3788, 3769, 0, 1, 14101, -89.900, 0.000, -81.800, 0.000, 0.000, -2.900, 0.0, , , , , , 98, , , 39, 39, 39
38.1644202, -120.1138905, 25.800, 11:28:32.625, 19, 0.00, 0.16, 98, 0.100, -0.500, -82.200, 1036, 100, 100, 15, 22565, -18368, 5418, 5529, 9, 14, 1526063312.625, 167, 0, 1024, 1024, 1024, 1024, 0, 6, 3766, 3735, 3725, 3749, 3788, 3769, 0, 1, 14201, -89.900, 0.000, -81.800, 0.000, 0.000, -2.900, 0.0, , , , , , 98, , , 39, 39, 39
38.1644202, -120.1138905, 26.400, 11:28:32.725, 19, 0.00, 0.16, 98, 0.000, -0.600, -81.900, 1036, 100, 100, 15, 22565, -18368, 5418, 5529, 9, 14, 1526063312.725, 34, 0, 1024, 1024, 1024, 1024, 0, 6, 3766, 3735, 3725, 3749, 3788, 3769, 0, 1, 14301, -90.000, 0.000, -81.800, 0.000, 0.000, -2.900, 0.0, , , , , , 98, , , 39, 39, 39
38.1644201, -120.1138905, 26.700, 11:28:32.825, 19, 0.00, 0.16, 98, 0.000, -0.700, -81.800, 1036, 100, 100, 15, 22565, -18368, 5418, 5529, 9, 14, 1526063312.825, 57, 0, 1024, 1024, 1024, 1024, 0, 6, 3766, 3735, 3725, 3749, 3788, 3769, 0, 1, 14401, -89.900, 0.000, -81.800, 0.000, 0.000, -3.000, 0.0, , , , , , 98, , , 39, 39, 39
38.1644201, -120.1138905, 27.000, 11:28:32.925, 19, 0.00, 0.15, 98, 0.000, -0.600, -81.700, 1036, 100, 100, 15, 22565, -18368, 5418, 5529, 9, 14, 1526063312.925, 31, 0, 1024, 1024, 1024, 1024, 0, 6, 3774, 3742, 3723, 3754, 3793, 3775, 0, 1, 14501, -89.900, 0.000, -81.800, 0.000, 0.000, -2.900, 0.0, , , , , , 98, , , 39, 39, 39
38.1644201, -120.1138905, 27.300, 11:28:33.024, 19, 0.00, 0.15, 98, 0.000, -0.500, -81.500, 1036, 100, 100, 15, 22565, -18368, 5418, 5529, 9, 14, 1526063313.024, 58, 0, 1024, 1024, 1024, 1024, 0, 6, 3774, 3742, 3723, 3754, 3793, 3775, 0, 1, 14600, -89.900, 0.000, -81.800, 0.000, 0.000, -2.900, 0.0, , , , , , 98, , , 39, 39, 39
38.1644200, -120.1138905, 27.600, 11:28:33.124, 19, 0.00, 0.15, 98, 0.100, -0.500, -81.400, 1036, 100, 100, 15, 22565, -18368, 5418, 5529, 9, 14, 1526063313.124, 62, 0, 1024, 1024, 1024, 1024, 0, 6, 3774, 3742, 3723, 3754, 3793, 3775, 0, 1, 14700, -90.000, 0.000, -81.800, 0.000, 0.000, -2.900, 0.0, , , , , , 98, , , 39, 39, 39
38.1644200, -120.1138905, 27.900, 11:28:33.225, 20, 0.00, 0.14, 98, 0.200, -0.600, -81.200, 1036, 100, 100, 15, 22565, -18368, 5418, 5529, 9, 14, 1526063313.225, 42, 0, 1024, 1024, 1024, 1024, 0, 6, 3774, 3742, 3723, 3754, 3793, 3775, 0, 1, 14801, -90.000, 0.000, -81.800, 0.000, 0.000, -2.900, 0.0, , , , , , 98, , , 39, 39, 39
38.1644200, -120.1138904, 28.200, 11:28:33.325, 20, 0.00, 0.14, 98, 0.400, -0.600, -81.100, 1036, 100, 100, 15, 22565, -18368, 5418, 5529, 9, 14, 1526063313.325, 24, 0, 1024, 1024, 1024, 1024, 0, 6, 3774, 3742, 3723, 3754, 3793, 3775, 0, 1, 14901, -90.000, 0.000, -81.800, 0.000, 0.000, -3.000, 0.0, , , , , , 98, , , 39, 39, 39
38.1644199, -120.1138904, 28.500, 11:28:33.424, 20, 0.00, 0.14, 98, 0.500, -0.700, -81.100, 1036, 100, 100, 15, 22565, -18368, 5418, 5529, 9, 14, 1526063313.424, 15, 0, 1024, 1024, 1024, 1024, 0, 6, 3774, 3742, 3723, 3754, 3793, 3775, 0, 1, 15000, -90.000, 0.000, -81.800, 0.000, 0.000, -3.000, 0.0, , , , , , 98, , , 39, 39, 39
38.1644199, -120.1138904, 28.800, 11:28:33.525, 20, 0.00, 0.14, 98, 0.500, -0.900, -81.100, 1036, 100, 96, 15, 22565, -18368, 5418, 5529, 9, 14, 1526063313.525, 30, 0, 1024, 1024, 1024, 1024, 0, 6, 3774, 3742, 3723, 3754, 3793, 3775, 0, 1, 15101, -90.000, 0.000, -81.800, 0.000, 0.000, -3.000, 0.0, , , , , , 98, , , 39, 39, 39
38.1644199, -120.1138905, 29.100, 11:28:33.624, 20, 0.00, 0.14, 98, 0.300, -0.800, -81.200, 1036, 100, 96, 15, 22565, -18368, 5418, 5529, 9, 14, 1526063313.624, 6, 0, 1024, 1024, 1024, 1024, 0, 6, 3774, 3742, 3723, 3754, 3793, 3775, 0, 1, 15200, -89.900, 0.000, -81.800, 0.000, 0.000, -3.000, 0.0, , , , , , 98, , , 39, 39, 39
38.1644199, -120.1138905, 29.400, 11:28:33.724, 20, 0.00, 0.13, 98, 0.100, -0.600, -81.400, 1036, 100, 96, 15, 22565, -18368, 5418, 5529, 9, 14, 1526063313.724, 22, 0, 1024, 1024, 1024, 1024, 0, 6, 3774, 3742, 3723, 3754, 3793, 3775, 0, 1, 15300, -89.900, 0.000, -81.800, 0.000, 0.000, -3.000, 0.0, , , , , , 98, , , 39, 39, 39
38.1644198, -120.1138905, 29.700, 11:28:33.830, 20, 0.00, 0.13, 98, 0.000, -0.600, -81.600, 1036, 100, 96, 15, 22565, -18368, 5418, 5529, 9, 14, 1526063313.830, 5, 0, 1024, 1024, 1024, 1024, 0, 6, 3774, 3742, 3723, 3754, 3793, 3775, 0, 1, 15406, -89.900, 0.000, -81.800, 0.000, 0.000, -2.900, 0.0, , , , , , 98, , , 39, 39, 39
38.1644198, -120.1138906, 30.000, 11:28:33.925, 20, 0.00, 0.12, 98, 0.000, -0.400, -81.700, 1036, 100, 96, 15, 22515, -18521, 5418, 5529, 9, 14, 1526063313.925, 17, 0, 1024, 1024, 1024, 1024, 0, 6, 3757, 3726, 3725, 3754, 3792, 3768, 0, 1, 15501, -89.900, 0.000, -81.800, 0.000, 0.000, -2.900, 0.0, , , , , , 98, , , 39, 39, 39
38.1644198, -120.1138906, 30.000, 11:28:34.025, 20, 0.00, 0.12, 98, 0.000, -0.400, -81.700, 1036, 100, 96, 15, 22515, -18521, 5418, 5529, 9, 14, 1526063314.025, 116, 0, 1024, 1024, 1024, 1024, 0, 6, 3757, 3726, 3725, 3754, 3792, 3768, 0, 1, 15601, -89.900, 0.000, -81.800, 0.000, 0.000, -2.900, 0.0, , , , , , 98, , , 39, 39, 39
38.1644198, -120.1138906, 30.300, 11:28:34.125, 20, 0.00, 0.12, 98, 0.000, -0.100, -81.900, 1036, 100, 96, 15, 22515, -18521, 5418, 5529, 9, 14, 1526063314.125, 92, 0, 1024, 1024, 1024, 1024, 0, 6, 3757, 3726, 3725, 3754, 3792, 3768, 0, 1, 15701, -89.900, 0.000, -81.800, 0.000, 0.000, -2.900, 0.0, , , , , , 98, , , 39, 39, 39
38.1644198, -120.1138907, 30.600, 11:28:34.225, 20, 0.00, 0.11, 98, 0.200, 0.000, -82.100, 1036, 100, 96, 15, 22515, -18521, 5418, 5529, 9, 14, 1526063314.225, 79, 0, 1024, 1024, 1024, 1024, 0, 6, 3757, 3726, 3725, 3754, 3792, 3768, 0, 1, 15801, -89.900, 0.000, -81.800, 0.000, 0.000, -3.000, 0.0, , , , , , 98, , , 39, 39, 39
38.1644198, -120.1138907, 30.900, 11:28:34.325, 20, 0.00, 0.11, 98, 0.400, 0.000, -82.300, 1036, 100, 96, 15, 22515, -18521, 5418, 5529, 9, 14, 1526063314.325, 84, 0, 1024, 1024, 1024, 1024, 0, 6, 3757, 3726, 3725, 3754, 3792, 3768, 0, 1, 15901, -89.900, 0.000, -81.800, 0.000, 0.000, -3.000, 0.0, , , , , , 98, , , 39, 39, 39
38.1644198, -120.1138908, 31.200, 11:28:34.424, 20, 0.00, 0.11, 98, 0.400, 0.000, -82.300, 1036, 100, 96, 15, 22515, -18521, 5418, 5529, 9, 14, 1526063314.425, 86, 0, 1024, 1024, 1024, 1024, 0, 6, 3757, 3726, 3725, 3754, 3792, 3768, 0, 1, 16001, -89.900, 0.000, -81.800, 0.000, 0.000, -3.000, 0.0, , , , , , 98, , , 39, 39, 39
38.1644198, -120.1138908, 31.500, 11:28:34.525, 20, 0.00, 0.11, 98, 0.100, -0.100, -82.200, 1036, 100, 96, 15, 22515, -18521, 5418, 5529, 9, 14, 1526063314.526, 75, 0, 1024, 1024, 1024, 1024, 0, 6, 3757, 3726, 3725, 3754, 3792, 3768, 0, 1, 16102, -89.900, 0.000, -81.800, 0.000, 0.000, -3.000, 0.0, , , , , , 98, , , 39, 39, 39
38.1644198, -120.1138908, 31.800, 11:28:34.624, 20, 0.00, 0.11, 98, -0.300, -0.300, -82.100, 1036, 100, 96, 15, 22515, -18521, 5418, 5529, 9, 14, 1526063314.624, 63, 0, 1024, 1024, 1024, 1024, 0, 6, 3757, 3726, 3725, 3754, 3792, 3768, 0, 1, 16200, -89.900, 0.000, -81.800, 0.000, 0.000, -3.000, 0.0, , , , , , 98, , , 39, 39, 39
38.1644199, -120.1138908, 32.100, 11:28:34.724, 19, 0.00, 0.12, 98, -0.600, -0.300, -82.000, 1036, 100, 96, 15, 22515, -18521, 5418, 5529, 9, 14, 1526063314.724, 24, 0, 1024, 1024, 1024, 1024, 0, 6, 3757, 3726, 3725, 3754, 3792, 3768, 0, 1, 16300, -89.900, 0.000, -81.800, 0.000, 0.000, -3.000, 0.0, , , , , , 98, , , 39, 39, 39
38.1644199, -120.1138908, 32.400, 11:28:34.825, 19, 0.00, 0.12, 98, -0.700, -0.300, -81.900, 1036, 100, 96, 15, 22515, -18521, 5418, 5529, 9, 14, 1526063314.825, 64, 0, 1024, 1024, 1024, 1024, 0, 6, 3757, 3726, 3725, 3754, 3792, 3768, 0, 1, 16401, -90.000, 0.000, -81.800, 0.000, 0.000, -3.100, 0.0, , , , , , 98, , , 39, 39, 39
38.1644199, -120.1138907, 33.000, 11:28:34.924, 20, 0.00, 0.12, 98, -0.600, -0.500, -81.800, 1036, 100, 96, 15, 22515, -18521, 5418, 5529, 9, 14, 1526063314.924, 47, 0, 1024, 1024, 1024, 1024, 0, 6, 3757, 3726, 3725, 3754, 3792, 3768, 0, 1, 16500, -90.000, 0.000, -81.800, 0.000, 0.000, -3.000, 0.0, , , , , , 98, , , 39, 39, 39
38.1644199, -120.1138907, 33.300, 11:28:35.025, 20, 0.00, 0.12, 98, -0.300, -0.600, -81.800, 1036, 100, 100, 15, 22532, -18298, 5363, 5529, 9, 14, 1526063315.025, 63, 0, 1024, 1024, 1024, 1024, 0, 6, 3759, 3739, 3719, 3750, 3795, 3766, 0, 1, 16601, -89.900, 0.000, -81.800, 0.000, 0.000, -3.000, 0.0, , , , , , 98, , , 39, 39, 39
38.1644199, -120.1138907, 33.600, 11:28:35.125, 20, 0.00, 0.12, 98, -0.100, -0.400, -82.000, 1036, 100, 100, 15, 22532, -18298, 5363, 5529, 9, 14, 1526063315.125, 51, 0, 1024, 1024, 1024, 1024, 0, 6, 3759, 3739, 3719, 3750, 3795, 3766, 0, 1, 16701, -89.900, 0.000, -81.800, 0.000, 0.000, -3.000, 0.0, , , , , , 98, , , 39, 39, 39
38.1644199, -120.1138907, 33.900, 11:28:35.225, 20, 0.00, 0.12, 98, -0.100, -0.400, -82.000, 1036, 100, 100, 15, 22532, -18298, 5363, 5529, 9, 14, 1526063315.225, 63, 0, 1024, 1024, 1024, 1024, 0, 6, 3759, 3739, 3719, 3750, 3795, 3766, 0, 1, 16801, -89.900, 0.000, -81.800, 0.000, 0.000, -2.900, 0.0, , , , , , 98, , , 39, 39, 39
38.1644199, -120.1138907, 34.200, 11:28:35.325, 20, 0.00, 0.12, 98, -0.200, -0.500, -82.100, 1036, 100, 100, 15, 22532, -18298, 5363, 5529, 9, 14, 1526063315.325, 65, 0, 1024, 1024, 1024, 1024, 0, 6, 3759, 3739, 3719, 3750, 3795, 3766, 0, 1, 16901, -89.900, 0.000, -81.800, 0.000, 0.000, -2.900, 0.0, , , , , , 98, , , 39, 39, 39
38.1644199, -120.1138907, 34.500, 11:28:35.424, 20, 0.00, 0.12, 98, -0.100, -0.400, -82.100, 1036, 100, 100, 15, 22532, -18298, 5363, 5529, 9, 14, 1526063315.425, 54, 0, 1024, 1024, 1024, 1024, 0, 6, 3759, 3739, 3719, 3750, 3795, 3766, 0, 1, 17001, -90.000, 0.000, -81.800, 0.000, 0.000, -2.900, 0.0, , , , , , 98, , , 39, 39, 39
38.1644199, -120.1138907, 34.800, 11:28:35.524, 20, 0.00, 0.12, 98, -0.200, -0.600, -82.100, 1036, 100, 100, 15, 22532, -18298, 5363, 5529, 9, 14, 1526063315.525, 30, 0, 1024, 1024, 1024, 1024, 0, 6, 3759, 3739, 3719, 3750, 3795, 3766, 0, 1, 17101, -90.000, 0.000, -81.800, 0.000, 0.000, -2.900, 0.0, , , , , , 98, , , 39, 39, 39
38.1644199, -120.1138907, 34.800, 11:28:35.625, 20, 0.00, 0.12, 98, -0.200, -0.600, -82.100, 1036, 100, 100, 15, 22532, -18298, 5363, 5529, 9, 14, 1526063315.625, 130, 0, 1024, 1024, 1024, 1024, 0, 6, 3759, 3739, 3719, 3750, 3795, 3766, 0, 1, 17201, -90.000, 0.000, -81.800, 0.000, 0.000, -2.900, 0.0, , , , , , 98, , , 39, 39, 39
38.1644199, -120.1138906, 35.400, 11:28:35.724, 20, 0.00, 0.12, 98, -0.100, -1.000, -82.100, 1036, 100, 100, 15, 22532, -18298, 5363, 5529, 9, 14, 1526063315.724, 33, 0, 1024, 1024, 1024, 1024, 0, 6, 3759, 3739, 3719, 3750, 3795, 3766, 0, 1, 17300, -90.000, 0.000, -81.800, 0.000, 0.000, -3.000, 0.0, , , , , , 98, , , 39, 39, 39
38.1644198, -120.1138906, 35.700, 11:28:35.825, 20, 0.00, 0.12, 98, 0.000, -1.000, -82.100, 1036, 100, 100, 15, 22532, -18298, 5363, 5529, 9, 14, 1526063315.825, 19, 0, 1024, 1024, 1024, 1024, 0, 6, 3759, 3739, 3719, 3750, 3795, 3766, 0, 1, 17401, -90.000, 0.000, -81.800, 0.000, 0.000, -2.900, 0.0, , , , , , 98, , , 39, 39, 39
38.1644198, -120.1138906, 36.000, 11:28:35.925, 20, 0.00, 0.12, 97, 0.100, -0.900, -82.100, 1036, 100, 100, 15, 22486, -18323, 5363, 5529, 9, 14, 1526063315.925, 34, 0, 1024, 1024, 1024, 1024, 0, 6, 3750, 3735, 3721, 3746, 3789, 3770, 0, 1, 17501, -90.000, 0.000, -81.800, 0.000, 0.000, -2.900, 0.0, , , , , , 98, , , 39, 39, 39
38.1644198, -120.1138906, 36.300, 11:28:36.036, 20, 0.00, 0.12, 97, 0.200, -0.900, -82.100, 1036, 100, 100, 15, 22486, -18323, 5363, 5529, 9, 14, 1526063316.036, 13, 0, 1024, 1024, 1024, 1024, 0, 6, 3750, 3735, 3721, 3746, 3789, 3770, 0, 1, 17612, -90.000, 0.000, -81.800, 0.000, 0.000, -2.900, 0.0, , , , , , 98, , , 39, 39, 39
38.1644198, -120.1138906, 36.600, 11:28:36.126, 20, 0.00, 0.12, 97, 0.100, -0.900, -82.000, 1036, 100, 100, 15, 22486, -18323, 5363, 5529, 9, 14, 1526063316.126, 6, 0, 1024, 1024, 1024, 1024, 0, 6, 3750, 3735, 3721, 3746, 3789, 3770, 0, 1, 17702, -90.000, 0.000, -81.800, 0.000, 0.000, -3.000, 0.0, , , , , , 98, , , 39, 39, 39
38.1644198, -120.1138905, 36.900, 11:28:36.228, 20, 0.00, 0.13, 97, 0.000, -1.000, -81.900, 1036, 100, 100, 15, 22486, -18323, 5363, 5529, 9, 14, 1526063316.228, 9, 0, 1024, 1024, 1024, 1024, 0, 6, 3750, 3735, 3721, 3746, 3789, 3770, 0, 1, 17804, -90.000, 0.000, -81.800, 0.000, 0.000, -3.000, 0.0, , , , , , 98, , , 39, 39, 39
38.1644199, -120.1138905, 37.200, 11:28:36.324, 20, 0.00, 0.13, 97, 0.000, -1.000, -81.800, 1036, 100, 100, 15, 22486, -18323, 5363, 5529, 9, 14, 1526063316.324, 8, 0, 1024, 1024, 1024, 1024, 0, 6, 3750, 3735, 3721, 3746, 3789, 3770, 0, 1, 17900, -90.000, 0.000, -81.800, 0.000, 0.000, -2.900, 0.0, , , , , , 98, , , 39, 39, 39
38.1644199, -120.1138905, 37.500, 11:28:36.424, 20, 0.00, 0.13, 97, 0.000, -1.000, -81.700, 1036, 100, 100, 15, 22486, -18323, 5363, 5529, 9, 14, 1526063316.424, 15, 0, 1024, 1024, 1024, 1024, 0, 6, 3750, 3735, 3721, 3746, 3789, 3770, 0, 1, 18000, -90.000, 0.000, -81.800, 0.000, 0.000, -2.900, 0.0, , , , , , 98, , , 39, 39, 39
38.1644199, -120.1138905, 37.800, 11:28:36.524, 20, 0.00, 0.13, 97, 0.100, -1.000, -81.700, 1036, 100, 100, 15, 22486, -18323, 5363, 5529, 9, 14, 1526063316.524, 3, 0, 1024, 1024, 1024, 1024, 0, 6, 3750, 3735, 3721, 3746, 3789, 3770, 0, 1, 18100, -90.000, 0.000, -81.800, 0.000, 0.000, -2.900, 0.0, , , , , , 98, , , 39, 39, 39
38.1644199, -120.1138905, 37.800, 11:28:36.625, 20, 0.00, 0.13, 97, 0.100, -1.000, -81.700, 1036, 100, 100, 15, 22486, -18323, 5363, 5529, 9, 14, 1526063316.625, 104, 0, 1024, 1024, 1024, 1024, 0, 6, 3750, 3735, 3721, 3746, 3789, 3770, 0, 1, 18201, -90.000, 0.000, -81.800, 0.000, 0.000, -2.900, 0.0, , , , , , 98, , , 39, 39, 39
38.1644199, -120.1138905, 38.100, 11:28:36.724, 20, 0.00, 0.13, 97, 0.000, -1.100, -81.800, 1036, 100, 100, 15, 22486, -18323, 5363, 5529, 9, 14, 1526063316.724, 81, 0, 1024, 1024, 1024, 1024, 0, 6, 3750, 3735, 3721, 3746, 3789, 3770, 0, 1, 18300, -90.000, 0.000, -81.800, 0.000, 0.000, -3.000, 0.0, , , , , , 98, , , 39, 39, 39
38.1644199, -120.1138905, 38.400, 11:28:36.825, 20, 0.00, 0.13, 97, 0.000, -1.000, -81.800, 1036, 100, 100, 15, 22486, -18323, 5363, 5529, 9, 14, 1526063316.825, 79, 0, 1024, 1024, 1024, 1024, 0, 6, 3750, 3735, 3721, 3746, 3789, 3770, 0, 1, 18401, -89.900, 0.000, -81.800, 0.000, 0.000, -2.900, 0.0, , , , , , 98, , , 39, 39, 39
38.1644199, -120.1138905, 38.700, 11:28:36.925, 20, 0.00, 0.14, 97, -0.100, -0.900, -81.900, 1036, 100, 100, 15, 22486, -18323, 5363, 5529, 9, 14, 1526063316.925, 74, 0, 1024, 1024, 1024, 1024, 0, 6, 3750, 3735, 3721, 3746, 3789, 3770, 0, 1, 18501, -89.900, 0.000, -81.800, 0.000, 0.000, -3.000, 0.0, , , , , , 98, , , 39, 39, 39
38.1644199, -120.1138905, 39.000, 11:28:37.024, 20, 0.00, 0.14, 97, -0.100, -0.800, -81.900, 1036, 100, 99, 15, 22482, -18379, 5363, 5529, 9, 14, 1526063317.025, 87, 0, 1024, 1024, 1024, 1024, 0, 6, 3751, 3734, 3711, 3735, 3780, 3756, 0, 1, 18601, -89.900, 0.000, -81.800, 0.000, 0.000, -3.000, 0.0, , , , , , 98, , , 39, 39, 39
38.1644200, -120.1138905, 39.300, 11:28:37.125, 20, 0.00, 0.14, 97, -0.100, -0.800, -82.000, 1036, 100, 99, 15, 22482, -18379, 5363, 5529, 9, 14, 1526063317.125, 91, 0, 1024, 1024, 1024, 1024, 0, 6, 3751, 3734, 3711, 3735, 3780, 3756, 0, 1, 18701, -90.000, 0.000, -81.800, 0.000, 0.000, -3.000, 0.0, , , , , , 98, , , 39, 39, 39
38.1644200, -120.1138905, 39.600, 11:28:37.224, 20, 0.00, 0.14, 97, -0.300, -0.800, -82.100, 1036, 100, 99, 15, 22482, -18379, 5363, 5529, 9, 14, 1526063317.225, 81, 0, 1024, 1024, 1024, 1024, 0, 6, 3751, 3734, 3711, 3735, 3780, 3756, 0, 1, 18801, -89.900, 0.000, -81.800, 0.000, 0.000, -3.000, 0.0, , , , , , 98, , , 39, 39, 39
38.1644200, -120.1138905, 40.200, 11:28:37.324, 20, 0.00, 0.14, 97, -0.500, -0.800, -82.400, 1036, 100, 99, 15, 22482, -18379, 5363, 5529, 9, 14, 1526063317.324, 64, 0, 1024, 1024, 1024, 1024, 0, 6, 3751, 3734, 3711, 3735, 3780, 3756, 0, 1, 18900, -90.000, 0.000, -81.800, 0.000, 0.000, -3.000, 0.0, , , , , , 98, , , 39, 39, 39
38.1644200, -120.1138905, 40.500, 11:28:37.424, 20, 0.00, 0.14, 97, -0.300, -0.700, -82.600, 1036, 100, 99, 15, 22482, -18379, 5363, 5529, 9, 14, 1526063317.425, 62, 0, 1024, 1024, 1024, 1024, 0, 6, 3751, 3734, 3711, 3735, 3780, 3756, 0, 1, 19001, -90.000, 0.000, -81.800, 0.000, 0.000, -2.900, 0.0, , , , , , 98, , , 39, 39, 39
38.1644200, -120.1138905, 40.500, 11:28:37.525, 20, 0.00, 0.14, 97, -0.300, -0.700, -82.600, 1036, 100, 99, 15, 22482, -18379, 5363, 5529, 9, 14, 1526063317.525, 162, 0, 1024, 1024, 1024, 1024, 0, 6, 3751, 3734, 3711, 3735, 3780, 3756, 0, 1, 19101, -90.000, 0.000, -81.800, 0.000, 0.000, -2.900, 0.0, , , , , , 98, , , 39, 39, 39
38.1644201, -120.1138905, 41.100, 11:28:37.624, 20, 0.00, 0.15, 97, -0.200, -0.900, -82.700, 1036, 100, 99, 15, 22482, -18379, 5363, 5529, 9, 14, 1526063317.624, 48, 0, 1024, 1024, 1024, 1024, 0, 6, 3751, 3734, 3711, 3735, 3780, 3756, 0, 1, 19200, -90.000, 0.000, -81.800, 0.000, 0.000, -2.900, 0.0, , , , , , 98, , , 39, 39, 39
38.1644201, -120.1138905, 41.400, 11:28:37.725, 20, 0.00, 0.15, 97, -0.300, -1.000, -82.600, 1036, 100, 99, 15, 22482, -18379, 5363, 5529, 9, 14, 1526063317.725, 40, 0, 1024, 1024, 1024, 1024, 0, 6, 3751, 3734, 3711, 3735, 3780, 3756, 0, 1, 19301, -90.000, 0.000, -81.800, 0.000, 0.000, -2.900, 0.0, , , , , , 98, , , 39, 39, 39
38.1644201, -120.1138905, 41.700, 11:28:37.825, 20, 0.00, 0.15, 97, -0.200, -0.900, -82.500, 1036, 100, 99, 15, 22482, -18379, 5363, 5529, 9, 14, 1526063317.825, 57, 0, 1024, 1024, 1024, 1024, 0, 6, 3751, 3734, 3711, 3735, 3780, 3756, 0, 1, 19401, -89.900, 0.000, -81.800, 0.000, 0.000, -3.000, 0.0, , , , , , 98, , , 39, 39, 39
38.1644200, -120.1138905, 42.000, 11:28:37.924, 20, 0.00, 0.14, 97, -0.100, -0.800, -82.300, 1036, 100, 99, 16, 22448, -18217, 5363, 5529, 9, 14, 1526063317.924, 49, 0, 1024, 1024, 1024, 1024, 0, 6, 3751, 3734, 3711, 3735, 3780, 3756, 0, 1, 19500, -89.900, 0.000, -81.800, 0.000, 0.000, -3.000, 0.0, , , , , , 98, , , 39, 39, 39
38.1644200, -120.1138905, 42.300, 11:28:38.032, 20, 0.00, 0.14, 97, 0.000, -0.700, -82.100, 1036, 100, 100, 16, 22448, -18217, 5363, 5529, 9, 14, 1526063318.033, 14, 0, 1024, 1024, 1024, 1024, 0, 6, 3751, 3734, 3711, 3735, 3780, 3756, 0, 1, 19609, -89.900, 0.000, -81.800, 0.000, 0.000, -2.900, 0.0, , , , , , 98, , , 39, 39, 39
38.1644200, -120.1138905, 42.600, 11:28:38.125, 20, 0.00, 0.14, 97, 0.200, -0.500, -81.800, 1036, 100, 100, 16, 22448, -18217, 5363, 5529, 9, 14, 1526063318.125, 22, 0, 1024, 1024, 1024, 1024, 0, 6, 3751, 3734, 3711, 3735, 3780, 3756, 0, 1, 19701, -89.900, 0.000, -81.800, 0.000, 0.000, -3.000, 0.0, , , , , , 98, , , 39, 39, 39
38.1644200, -120.1138906, 42.900, 11:28:38.225, 20, 0.00, 0.14, 97, 0.300, -0.600, -81.600, 1036, 100, 100, 16, 22448, -18217, 5363, 5529, 9, 14, 1526063318.225, 24, 0, 1024, 1024, 1024, 1024, 0, 6, 3751, 3734, 3711, 3735, 3780, 3756, 0, 1, 19801, -90.000, 0.000, -81.800, 0.000, 0.000, -3.000, 0.0, , , , , , 98, , , 39, 39, 39
38.1644199, -120.1138905, 43.200, 11:28:38.324, 20, 0.00, 0.13, 97, 0.200, -0.600, -81.400, 1036, 100, 100, 16, 22448, -18217, 5363, 5529, 9, 14, 1526063318.324, 12, 0, 1024, 1024, 1024, 1024, 0, 6, 3751, 3734, 3711, 3735, 3780, 3756, 0, 1, 19900, -90.000, 0.000, -81.800, 0.000, 0.000, -3.000, 0.0, , , , , , 98, , , 39, 39, 39
38.1644199, -120.1138906, 43.500, 11:28:38.432, 20, 0.00, 0.13, 97, 0.200, -0.700, -81.200, 1036, 100, 100, 16, 22448, -18217, 5363, 5529, 9, 14, 1526063318.433, 8, 0, 1024, 1024, 1024, 1024, 0, 6, 3751, 3734, 3711, 3735, 3780, 3756, 0, 1, 20009, -90.000, 0.000, -81.800, 0.000, 0.000, -2.900, 0.0, , , , , , 98, , , 39, 39, 39
38.1644199, -120.1138906, 43.800, 11:28:38.536, 20, 0.00, 0.13, 97, 0.300, -0.700, -81.100, 1036, 100, 100, 16, 22448, -18217, 5363, 5529, 9, 14, 1526063318.536, 12, 0, 1024, 1024, 1024, 1024, 0, 6, 3746, 3727, 3707, 3736, 3786, 3754, 0, 1, 20112, -90.000, 0.000, -81.800, 0.000, 0.000, -2.900, 0.0, , , , , , 98, , , 39, 39, 39
38.1644199, -120.1138906, 44.100, 11:28:38.624, 20, 0.00, 0.13, 97, 0.300, -0.700, -81.100, 1036, 100, 100, 16, 22448, -18217, 5363, 5529, 9, 14, 1526063318.625, 6, 0, 1024, 1024, 1024, 1024, 0, 6, 3746, 3727, 3707, 3736, 3786, 3754, 0, 1, 20201, -89.900, 0.000, -81.800, 0.000, 0.000, -2.900, 0.0, , , , , , 98, , , 39, 39, 39
38.1644199, -120.1138906, 44.400, 11:28:38.738, 20, 0.00, 0.13, 97, 0.300, -0.700, -81.200, 1036, 100, 100, 16, 22448, -18217, 5363, 5529, 9, 14, 1526063318.739, 12, 0, 1024, 1024, 1024, 1024, 0, 6, 3746, 3727, 3707, 3736, 3786, 3754, 0, 1, 20315, -89.900, 0.000, -81.800, 0.000, 0.000, -2.900, 0.0, , , , , , 98, , , 39, 39, 39
38.1644199, -120.1138906, 44.700, 11:28:38.825, 20, 0.00, 0.13, 97, 0.200, -0.600, -81.200, 1036, 100, 100, 16, 22448, -18217, 5363, 5529, 9, 14, 1526063318.825, 6, 0, 1024, 1024, 1024, 1024, 0, 6, 3746, 3727, 3707, 3736, 3786, 3754, 0, 1, 20401, -89.900, 0.000, -81.800, 0.000, 0.000, -2.900, 0.0, , , , , , 98, , , 39, 39, 39
38.1644199, -120.1138906, 45.000, 11:28:38.924, 20, 0.00, 0.13, 97, 0.300, -0.500, -81.300, 1036, 100, 100, 16, 22448, -18217, 5363, 5529, 9, 14, 1526063318.925, 8, 0, 1024, 1024, 1024, 1024, 0, 6, 3746, 3727, 3707, 3736, 3786, 3754, 0, 1, 20501, -89.900, 0.000, -81.800, 0.000, 0.000, -2.900, 0.0, , , , , , 98, , , 39, 39, 39
38.1644199, -120.1138906, 45.000, 11:28:39.024, 20, 0.00, 0.13, 97, 0.300, -0.500, -81.300, 1036, 100, 100, 16, 22448, -18217, 5363, 5529, 9, 14, 1526063319.024, 107, 0, 1024, 1024, 1024, 1024, 0, 6, 3746, 3727, 3707, 3736, 3786, 3754, 0, 1, 20600, -89.900, 0.000, -81.800, 0.000, 0.000, -2.900, 0.0, , , , , , 98, , , 39, 39, 39
38.1644199, -120.1138906, 45.300, 11:28:39.125, 20, 0.00, 0.13, 97, 0.300, -0.600, -81.400, 1036, 100, 99, 16, 22448, -18217, 5363, 5529, 9, 14, 1526063319.125, 64, 0, 1024, 1024, 1024, 1024, 0, 6, 3746, 3727, 3707, 3736, 3786, 3754, 0, 1, 20701, -89.900, 0.000, -81.800, 0.000, 0.000, -2.900, 0.0, , , , , , 98, , , 39, 39, 39
38.1644199, -120.1138906, 45.600, 11:28:39.225, 20, 0.00, 0.13, 97, 0.000, -0.700, -81.600, 1036, 100, 99, 16, 22448, -18217, 5363, 5529, 9, 14, 1526063319.226, 81, 0, 1024, 1024, 1024, 1024, 0, 6, 3746, 3727, 3707, 3736, 3786, 3754, 0, 1, 20802, -89.900, 0.000, -81.800, 0.000, 0.000, -3.000, 0.0, , , , , , 98, , , 39, 39, 39
38.1644199, -120.1138906, 45.900, 11:28:39.325, 20, 0.00, 0.13, 97, -0.400, -0.800, -81.700, 1036, 100, 99, 16, 22448, -18217, 5363, 5529, 9, 14, 1526063319.325, 70, 0, 1024, 1024, 1024, 1024, 0, 6, 3746, 3727, 3707, 3736, 3786, 3754, 0, 1, 20901, -90.000, 0.000, -81.800, 0.000, 0.000, -3.000, 0.0, , , , , , 98, , , 39, 39, 39
