Latitude, Longitude, Altitude (m), Time, Sats, Speed (m/s), Range (m), Battery (%), Roll (deg), Pitch (deg), Yaw (deg), Images, HD Signal (%), RC Signal (%), Battery Temp (C), Battery Voltage (mV), Battery Current (mA), Battery Energy (mAh), Battery Capacity (mAh), Battery Discharges, flyState, timestamp (Unix), LastUpdate (ms), radioChannel, Rc_elevator, Rc_aileron, Rc_throttle, Rc_rudder, Rc_gyro, Dronetype, Battery_Cell1 (mV), Battery_Cell2 (mV), Battery_Cell3 (mV), Battery_Cell4 (mV), Battery_Cell5 (mV), Battery_Cell6 (mV), Video, isFlying, elapsedTime (ms), gimbalPitch (deg), gimbalRoll (deg), gimbalYaw (deg), VelocityX (m/s), VelocityY (m/s), VelocityZ (m/s), GroundSmear (cm), App Version, Aircraft Name, Aircraft Firmware, Aircraft Serial Number, Battery Serial Number, Battery Lifetime (%), App_Tip, App_Warning, CurrentFlightStartingIndex, CurrentFlightLastVisitedWaypoint, PreviousFlightEndingWaypointIndex
38.1644148, -120.1139044, 0.000, 10:48:57.954, 15, 0.00, 0.05, 98, -0.700, 1.600, -85.000, 345, 100, 100, 14, 25226, -3867, 5343, 5453, 13, 11, 1526060937.956, 126, 0, 1024, 1024, 1024, 1024, 0, 6, 4235, 4206, 4227, 4266, 4232, 4223, 0, 1, 3211, -89.900, 0.000, -84.200, 0.000, 0.000, -0.100, 0.0, MapPilot_2.8.1_04242018, Dendroctonus I, 1.3.1.00, 041DDC1887, 1058171200140, 97, DJI_0346.jpg, Starting Mission from Lat/Long: 38.16441/-120.11389 Camera: Zenmuse X3 - Overlap: 90/90 - Active Connection: No, 13, 13, 13
38.1644148, -120.1139044, 0.000, 10:48:58.045, 15, 0.00, 0.05, 98, -0.300, 1.900, -85.100, 345, 100, 100, 14, 24846, -6100, 5343, 5453, 13, 11, 1526060938.046, 52, 0, 1024, 1024, 1024, 1024, 0, 6, 4136, 4066, 4097, 4098, 4055, 4106, 0, 1, 3301, -89.900, 0.000, -84.200, 0.000, 0.000, -0.200, 0.0, , , , , , 97, , , 13, 13, 13
38.1644146, -120.1139043, 0.000, 10:48:58.145, 15, 0.10, 0.03, 98, 0.300, 0.500, -84.800, 345, 100, 100, 14, 24846, -6100, 5343, 5453, 13, 11, 1526060938.146, 74, 0, 1024, 1024, 1024, 1024, 0, 6, 4136, 4066, 4097, 4098, 4055, 4106, 0, 1, 3401, -90.000, 0.000, -84.200, -0.100, 0.000, -0.400, 0.0, , , , , , 97, , , 13, 13, 13
38.1644146, -120.1139043, 0.000, 10:48:58.245, 15, 0.10, 0.03, 98, 0.300, 0.500, -84.800, 345, 100, 100, 14, 24846, -6100, 5343, 5453, 13, 11, 1526060938.246, 174, 0, 1024, 1024, 1024, 1024, 0, 6, 4136, 4066, 4097, 4098, 4055, 4106, 0, 1, 3501, -90.000, 0.000, -84.200, -0.100, 0.000, -0.400, 0.0, , , , , , 97, , , 13, 13, 13
38.1644145, -120.1139042, 0.100, 10:48:58.345, 14, 0.00, 0.03, 98, 0.300, -0.400, -84.700, 345, 100, 100, 14, 24846, -6100, 5343, 5453, 13, 11, 1526060938.346, 18, 0, 1024, 1024, 1024, 1024, 0, 6, 4136, 4066, 4097, 4098, 4055, 4106, 0, 1, 3601, -90.000, 0.000, -84.200, 0.000, 0.000, -0.400, 0.0, , , , , , 97, , , 13, 13, 13
38.1644145, -120.1139042, 0.100, 10:48:58.445, 14, 0.00, 0.03, 98, 0.300, -0.400, -84.700, 345, 100, 100, 14, 24846, -6100, 5343, 5453, 13, 11, 1526060938.446, 118, 0, 1024, 1024, 1024, 1024, 0, 6, 4136, 4066, 4097, 4098, 4055, 4106, 0, 1, 3701, -90.000, 0.000, -84.200, 0.000, 0.000, -0.400, 0.0, , , , , , 97, , , 13, 13, 13
38.1644143, -120.1139041, 0.200, 10:48:58.545, 13, 0.00, 0.03, 98, 0.600, -0.500, -84.800, 345, 100, 100, 14, 24846, -6100, 5343, 5453, 13, 11, 1526060938.545, 65, 0, 1024, 1024, 1024, 1024, 0, 6, 4136, 4066, 4097, 4098, 4055, 4106, 0, 1, 3800, -90.000, 0.000, -84.200, 0.000, 0.000, -0.400, 0.0, , , , , , 97, , , 13, 13, 13
38.1644143, -120.1139041, 0.300, 10:48:58.645, 13, 0.00, 0.04, 98, 0.500, -0.600, -84.900, 345, 100, 100, 14, 24846, -6100, 5343, 5453, 13, 11, 1526060938.646, 56, 0, 1024, 1024, 1024, 1024, 0, 6, 4136, 4066, 4097, 4098, 4055, 4106, 0, 1, 3901, -90.000, 0.000, -84.200, 0.000, 0.000, -0.400, 0.0, , , , , , 97, , , 13, 13, 13
38.1644142, -120.1139041, 0.300, 10:48:58.745, 13, 0.00, 0.04, 98, 0.500, -0.500, -84.800, 345, 100, 100, 14, 24846, -6100, 5343, 5453, 13, 11, 1526060938.746, 81, 0, 1024, 1024, 1024, 1024, 0, 6, 4136, 4066, 4097, 4098, 4055, 4106, 0, 1, 4001, -89.900, 0.000, -84.200, 0.000, 0.000, -0.500, 0.0, , , , , , 97, , , 13, 13, 13
38.1644142, -120.1139041, 0.400, 10:48:58.845, 14, 0.00, 0.05, 98, 0.700, -0.300, -84.700, 345, 100, 100, 14, 24846, -6100, 5343, 5453, 13, 11, 1526060938.846, 72, 0, 1024, 1024, 1024, 1024, 0, 6, 4136, 4066, 4097, 4098, 4055, 4106, 0, 1, 4101, -89.900, 0.000, -84.200, 0.000, 0.000, -0.400, 0.0, , , , , , 97, , , 13, 13, 13
38.1644141, -120.1139041, 0.400, 10:48:58.945, 14, 0.00, 0.06, 98, 0.800, -0.100, -84.600, 345, 100, 100, 14, 24846, -6100, 5343, 5453, 13, 11, 1526060938.946, 77, 0, 1024, 1024, 1024, 1024, 0, 6, 4136, 4066, 4097, 4098, 4055, 4106, 0, 1, 4201, -89.900, 0.000, -84.200, 0.000, 0.000, -0.400, 0.0, , , , , , 97, , , 13, 13, 13
38.1644140, -120.1139041, 0.500, 10:48:59.045, 13, 0.00, 0.07, 98, 0.900, -0.100, -84.600, 345, 100, 100, 14, 23619, -15927, 5343, 5453, 13, 11, 1526060939.046, 73, 0, 1024, 1024, 1024, 1024, 0, 6, 3926, 3912, 3931, 3942, 3899, 3941, 0, 1, 4301, -89.900, 0.000, -84.200, 0.000, 0.000, -0.400, 0.0, , , , , , 97, , , 13, 13, 13
38.1644139, -120.1139041, 0.500, 10:48:59.145, 13, 0.00, 0.08, 98, 1.000, -0.100, -84.600, 345, 100, 100, 14, 23619, -15927, 5343, 5453, 13, 11, 1526060939.146, 59, 0, 1024, 1024, 1024, 1024, 0, 6, 3926, 3912, 3931, 3942, 3899, 3941, 0, 1, 4400, -89.900, 0.000, -84.200, 0.000, 0.000, -0.400, 0.0, , , , , , 97, , , 13, 13, 13
38.1644139, -120.1139041, 0.600, 10:48:59.245, 13, 0.00, 0.08, 98, 1.000, -0.200, -84.700, 345, 100, 100, 14, 23619, -15927, 5343, 5453, 13, 11, 1526060939.246, 32, 0, 1024, 1024, 1024, 1024, 0, 6, 3926, 3912, 3931, 3942, 3899, 3941, 0, 1, 4501, -90.000, 0.000, -84.200, 0.000, 0.000, -0.400, 0.0, , , , , , 97, , , 13, 13, 13
38.1644138, -120.1139041, 0.600, 10:48:59.345, 13, 0.00, 0.09, 98, 1.000, -0.300, -84.800, 345, 100, 100, 14, 23619, -15927, 5343, 5453, 13, 11, 1526060939.346, 67, 0, 1024, 1024, 1024, 1024, 0, 6, 3926, 3912, 3931, 3942, 3899, 3941, 0, 1, 4601, -90.000, 0.000, -84.200, 0.000, 0.000, -0.500, 0.0, , , , , , 97, , , 13, 13, 13
38.1644138, -120.1139040, 0.700, 10:48:59.445, 13, 0.00, 0.09, 98, 1.000, -0.300, -84.800, 345, 100, 100, 14, 23619, -15927, 5343, 5453, 13, 11, 1526060939.446, 35, 0, 1024, 1024, 1024, 1024, 0, 6, 3926, 3912, 3931, 3942, 3899, 3941, 0, 1, 4701, -90.000, 0.000, -84.200, 0.000, 0.000, -0.500, 0.0, , , , , , 97, , , 13, 13, 13
38.1644138, -120.1139041, 0.800, 10:48:59.545, 13, 0.00, 0.09, 98, 0.900, -0.400, -84.800, 345, 100, 100, 14, 23619, -15927, 5343, 5453, 13, 11, 1526060939.546, 46, 0, 1024, 1024, 1024, 1024, 0, 6, 3926, 3912, 3931, 3942, 3899, 3941, 0, 1, 4801, -90.000, 0.000, -84.200, 0.000, 0.000, -0.500, 0.0, , , , , , 97, , , 13, 13, 13
38.1644138, -120.1139040, 0.800, 10:48:59.645, 15, 0.00, 0.09, 98, 0.700, -0.400, -84.800, 345, 100, 100, 14, 23619, -15927, 5343, 5453, 13, 11, 1526060939.646, 51, 0, 1024, 1024, 1024, 1024, 0, 6, 3926, 3912, 3931, 3942, 3899, 3941, 0, 1, 4901, -89.900, 0.000, -84.200, 0.000, 0.000, -0.400, 0.0, , , , , , 97, , , 13, 13, 13
38.1644138, -120.1139040, 0.900, 10:48:59.745, 15, 0.00, 0.09, 98, 0.400, -0.200, -84.800, 345, 100, 100, 14, 23619, -15927, 5343, 5453, 13, 6, 1526060939.746, 40, 0, 1024, 1024, 1024, 1024, 0, 6, 3926, 3912, 3931, 3942, 3899, 3941, 0, 1, 5000, -89.900, 0.000, -84.200, 0.000, 0.000, -0.500, 0.0, , , , , , 97, , , 13, 13, 13
38.1644138, -120.1139040, 0.900, 10:48:59.845, 15, 0.00, 0.09, 98, 0.200, -0.300, -84.800, 345, 100, 100, 14, 23619, -15927, 5343, 5453, 13, 14, 1526060939.846, 57, 0, 1024, 1024, 1024, 1024, 0, 6, 3926, 3912, 3931, 3942, 3899, 3941, 0, 1, 5101, -90.000, 0.000, -84.200, 0.000, 0.000, -0.400, 0.0, , , , , , 97, , , 13, 13, 13
38.1644138, -120.1139039, 1.000, 10:48:59.945, 15, 0.00, 0.09, 98, 0.000, -0.500, -84.900, 345, 100, 100, 14, 23270, -17060, 5343, 5453, 13, 14, 1526060939.946, 24, 0, 1024, 1024, 1024, 1024, 0, 6, 3926, 3912, 3931, 3942, 3899, 3941, 0, 1, 5200, -90.000, 0.000, -84.200, 0.000, 0.000, -0.300, 0.0, , , , , , 97, , , 13, 13, 13
38.1644138, -120.1139038, 1.000, 10:49:00.045, 14, 0.00, 0.09, 98, -0.200, -0.600, -85.000, 345, 100, 100, 14, 23270, -17060, 5343, 5453, 13, 14, 1526060940.046, 40, 0, 1024, 1024, 1024, 1024, 0, 6, 3926, 3912, 3931, 3942, 3899, 3941, 0, 1, 5301, -90.000, 0.000, -84.200, 0.000, 0.000, -0.200, 0.0, , , , , , 97, , , 13, 13, 13
38.1644138, -120.1139038, 1.000, 10:49:00.145, 14, 0.00, 0.09, 98, 0.000, -0.600, -85.000, 345, 100, 100, 14, 23270, -17060, 5343, 5453, 13, 14, 1526060940.146, 40, 0, 1024, 1024, 1024, 1024, 0, 6, 3926, 3912, 3931, 3942, 3899, 3941, 0, 1, 5401, -90.000, 0.000, -84.200, 0.000, 0.000, -0.200, 0.0, , , , , , 97, , , 13, 13, 13
38.1644138, -120.1139037, 1.100, 10:49:00.245, 14, 0.00, 0.09, 98, 0.300, -0.600, -84.900, 345, 100, 100, 14, 23270, -17060, 5343, 5453, 13, 14, 1526060940.246, 22, 0, 1024, 1024, 1024, 1024, 0, 6, 3926, 3912, 3931, 3942, 3899, 3941, 0, 1, 5501, -89.900, 0.000, -84.200, 0.000, 0.000, -0.400, 0.0, , , , , , 97, , , 13, 13, 13
38.1644137, -120.1139037, 1.100, 10:49:00.345, 14, 0.00, 0.10, 98, 0.700, -0.500, -84.700, 345, 100, 100, 14, 23270, -17060, 5343, 5453, 13, 14, 1526060940.345, 30, 0, 1024, 1024, 1024, 1024, 0, 6, 3926, 3912, 3931, 3942, 3899, 3941, 0, 1, 5600, -90.000, 0.000, -84.200, 0.000, 0.000, -0.500, 0.0, , , , , , 97, , , 13, 13, 13
38.1644137, -120.1139037, 1.100, 10:49:00.445, 14, 0.00, 0.10, 98, 0.700, -0.500, -84.700, 345, 100, 100, 14, 23270, -17060, 5343, 5453, 13, 14, 1526060940.446, 130, 0, 1024, 1024, 1024, 1024, 0, 6, 3926, 3912, 3931, 3942, 3899, 3941, 0, 1, 5701, -90.000, 0.000, -84.200, 0.000, 0.000, -0.500, 0.0, , , , , , 97, , , 13, 13, 13
38.1644136, -120.1139037, 1.300, 10:49:00.545, 14, 0.00, 0.11, 98, 1.100, -0.500, -84.600, 345, 100, 100, 14, 23270, -17060, 5343, 5453, 13, 14, 1526060940.546, 17, 0, 1024, 1024, 1024, 1024, 0, 6, 3860, 3873, 3887, 3896, 3854, 3898, 0, 1, 5800, -89.900, 0.000, -84.200, 0.000, 0.000, -0.800, 0.0, , , , , , 97, , , 13, 13, 13
38.1644136, -120.1139037, 1.500, 10:49:00.645, 14, 0.00, 0.11, 98, 0.900, -0.100, -84.900, 345, 100, 100, 14, 23270, -17060, 5343, 5453, 13, 14, 1526060940.646, 7, 0, 1024, 1024, 1024, 1024, 0, 6, 3860, 3873, 3887, 3896, 3854, 3898, 0, 1, 5901, -89.900, 0.000, -84.200, 0.000, 0.000, -1.000, 0.0, , , , , , 97, , , 13, 13, 13
38.1644136, -120.1139037, 1.600, 10:49:00.745, 13, 0.00, 0.11, 98, 0.800, -0.100, -85.100, 345, 100, 100, 14, 23270, -17060, 5343, 5453, 13, 14, 1526060940.746, 18, 0, 1024, 1024, 1024, 1024, 0, 6, 3860, 3873, 3887, 3896, 3854, 3898, 0, 1, 6001, -89.900, 0.000, -84.200, 0.000, 0.000, -1.300, 0.0, , , , , , 97, , , 13, 13, 13
38.1644137, -120.1139037, 1.700, 10:49:00.865, 13, 0.00, 0.10, 98, 0.800, -0.200, -85.300, 345, 100, 100, 14, 23270, -17060, 5343, 5453, 13, 14, 1526060940.865, 5, 0, 1024, 1024, 1024, 1024, 0, 6, 3860, 3873, 3887, 3896, 3854, 3898, 0, 1, 6120, -90.000, 0.000, -84.200, 0.000, 0.000, -1.500, 0.0, , , , , , 97, , , 13, 13, 13
38.1644138, -120.1139037, 1.900, 10:49:00.956, 12, 0.00, 0.09, 98, 0.700, -0.200, -85.400, 345, 100, 100, 14, 23270, -17060, 5343, 5453, 13, 14, 1526060940.957, 8, 0, 1024, 1024, 1024, 1024, 0, 6, 3860, 3873, 3887, 3896, 3854, 3898, 0, 1, 6212, -90.000, 0.000, -84.200, 0.000, 0.000, -1.800, 0.0, , , , , , 97, , , 13, 13, 13
38.1644138, -120.1139037, 1.900, 10:49:01.045, 12, 0.00, 0.09, 98, 0.700, -0.200, -85.400, 345, 100, 100, 14, 23270, -17060, 5343, 5453, 13, 14, 1526060941.046, 97, 0, 1024, 1024, 1024, 1024, 0, 6, 3860, 3873, 3887, 3896, 3854, 3898, 0, 1, 6301, -90.000, 0.000, -84.200, 0.000, 0.000, -1.800, 0.0, , , , , , 97, , , 13, 13, 13
38.1644139, -120.1139037, 2.100, 10:49:01.145, 12, 0.00, 0.08, 98, 0.500, -0.200, -85.500, 345, 100, 100, 14, 23270, -17060, 5343, 5453, 13, 14, 1526060941.146, 86, 0, 1024, 1024, 1024, 1024, 0, 6, 3860, 3873, 3887, 3896, 3854, 3898, 0, 1, 6401, -90.000, 0.000, -84.200, 0.000, 0.000, -2.000, 0.0, , , , , , 97, , , 13, 13, 13
38.1644141, -120.1139037, 2.300, 10:49:01.245, 12, 0.00, 0.06, 98, 0.100, -0.100, -85.500, 345, 100, 100, 14, 23270, -17060, 5343, 5453, 13, 14, 1526060941.246, 54, 0, 1024, 1024, 1024, 1024, 0, 6, 3860, 3873, 3887, 3896, 3854, 3898, 0, 1, 6500, -89.900, 0.000, -84.200, 0.000, 0.000, -2.200, 0.0, , , , , , 97, , , 13, 13, 13
38.1644144, -120.1139036, 2.600, 10:49:01.345, 12, 0.00, 0.04, 98, -0.200, -0.200, -85.500, 345, 100, 100, 14, 23270, -17060, 5343, 5453, 13, 14, 1526060941.346, 53, 0, 1024, 1024, 1024, 1024, 0, 6, 3860, 3873, 3887, 3896, 3854, 3898, 0, 1, 6600, -89.900, 0.000, -84.200, 0.000, 0.000, -2.600, 0.0, , , , , , 97, , , 13, 13, 13
38.1644146, -120.1139036, 2.900, 10:49:01.445, 15, 0.00, 0.03, 98, -0.400, -0.400, -85.400, 345, 100, 100, 14, 23270, -17060, 5343, 5453, 13, 14, 1526060941.446, 54, 0, 1024, 1024, 1024, 1024, 0, 6, 3860, 3873, 3887, 3896, 3854, 3898, 0, 1, 6701, -90.000, 0.000, -84.200, 0.000, 0.000, -2.800, 0.0, , , , , , 97, , , 13, 13, 13
38.1644148, -120.1139035, 3.200, 10:49:01.545, 15, 0.00, 0.04, 98, -0.600, -0.600, -85.300, 345, 100, 100, 14, 23166, -16923, 5343, 5453, 13, 14, 1526060941.546, 55, 0, 1024, 1024, 1024, 1024, 0, 6, 3811, 3821, 3852, 3853, 3798, 3862, 0, 1, 6800, -90.000, 0.000, -84.200, 0.000, 0.000, -2.900, 0.0, , , , , , 97, , , 13, 13, 13
38.1644149, -120.1139035, 3.500, 10:49:01.645, 14, 0.00, 0.06, 98, -0.700, -0.600, -85.200, 345, 100, 100, 14, 23166, -16923, 5343, 5453, 13, 14, 1526060941.646, 76, 0, 1024, 1024, 1024, 1024, 0, 6, 3811, 3821, 3852, 3853, 3798, 3862, 0, 1, 6901, -90.000, 0.000, -84.200, 0.000, 0.000, -3.000, 0.0, , , , , , 97, , , 13, 13, 13
38.1644151, -120.1139035, 3.800, 10:49:01.745, 14, 0.00, 0.07, 98, -0.800, -0.600, -85.100, 345, 100, 100, 14, 23166, -16923, 5343, 5453, 13, 14, 1526060941.746, 66, 0, 1024, 1024, 1024, 1024, 0, 6, 3811, 3821, 3852, 3853, 3798, 3862, 0, 1, 7001, -90.000, 0.000, -84.200, 0.000, 0.000, -3.100, 0.0, , , , , , 97, , , 13, 13, 13
38.1644153, -120.1139035, 4.200, 10:49:01.845, 14, 0.00, 0.09, 98, -1.100, -0.500, -85.100, 345, 100, 100, 14, 23166, -16923, 5343, 5453, 13, 14, 1526060941.846, 77, 0, 1024, 1024, 1024, 1024, 0, 6, 3811, 3821, 3852, 3853, 3798, 3862, 0, 1, 7101, -90.000, 0.000, -84.200, 0.000, 0.000, -3.200, 0.0, , , , , , 97, , , 13, 13, 13
38.1644155, -120.1139034, 4.500, 10:49:01.945, 14, 0.00, 0.11, 98, -1.300, -0.300, -85.100, 345, 100, 100, 14, 23166, -16923, 5343, 5453, 13, 14, 1526060941.946, 43, 0, 1024, 1024, 1024, 1024, 0, 6, 3811, 3821, 3852, 3853, 3798, 3862, 0, 1, 7200, -89.900, 0.000, -84.200, 0.000, 0.000, -3.200, 0.0, , , , , , 97, , , 13, 13, 13
38.1644157, -120.1139033, 4.900, 10:49:02.045, 14, 0.00, 0.13, 98, -1.500, -0.300, -85.000, 345, 100, 98, 14, 23166, -16923, 5343, 5453, 13, 14, 1526060942.046, 46, 0, 1024, 1024, 1024, 1024, 0, 6, 3811, 3821, 3852, 3853, 3798, 3862, 0, 1, 7301, -90.000, 0.000, -84.200, 0.000, 0.000, -3.200, 0.0, , , , , , 97, , , 13, 13, 13
38.1644159, -120.1139034, 5.200, 10:49:02.145, 14, 0.00, 0.15, 98, -1.600, -0.400, -85.000, 345, 100, 98, 14, 23166, -16923, 5343, 5453, 13, 14, 1526060942.146, 46, 0, 1024, 1024, 1024, 1024, 0, 6, 3811, 3821, 3852, 3853, 3798, 3862, 0, 1, 7401, -89.900, 0.000, -84.200, 0.000, 0.000, -3.200, 0.0, , , , , , 97, , , 13, 13, 13
38.1644160, -120.1139034, 5.500, 10:49:02.245, 13, 0.00, 0.16, 98, -1.600, -0.300, -85.000, 345, 100, 98, 14, 23166, -16923, 5343, 5453, 13, 14, 1526060942.246, 31, 0, 1024, 1024, 1024, 1024, 0, 6, 3811, 3821, 3852, 3853, 3798, 3862, 0, 1, 7501, -89.900, 0.000, -84.200, 0.000, 0.000, -3.200, 0.0, , , , , , 97, , , 13, 13, 13
38.1644160, -120.1139034, 5.900, 10:49:02.345, 13, 0.00, 0.16, 98, -1.500, -0.100, -85.100, 345, 100, 98, 14, 23166, -16923, 5343, 5453, 13, 14, 1526060942.346, 34, 0, 1024, 1024, 1024, 1024, 0, 6, 3811, 3821, 3852, 3853, 3798, 3862, 0, 1, 7601, -89.900, 0.000, -84.200, 0.000, 0.000, -3.200, 0.0, , , , , , 97, , , 13, 13, 13
38.1644159, -120.1139034, 6.200, 10:49:02.445, 13, 0.00, 0.15, 98, -1.200, 0.000, -85.100, 345, 100, 98, 14, 22425, -24106, 5343, 5453, 13, 14, 1526060942.446, 36, 0, 1024, 1024, 1024, 1024, 0, 6, 3687, 3709, 3731, 3738, 3688, 3744, 0, 1, 7701, -89.900, 0.000, -84.200, 0.000, 0.000, -3.200, 0.0, , , , , , 97, , , 13, 13, 13
38.1644158, -120.1139035, 6.600, 10:49:02.545, 13, 0.10, 0.14, 98, -0.800, 0.000, -85.100, 345, 100, 98, 14, 22425, -24106, 5343, 5453, 13, 14, 1526060942.546, 20, 0, 1024, 1024, 1024, 1024, 0, 6, 3687, 3709, 3731, 3738, 3688, 3744, 0, 1, 7800, -89.900, 0.000, -84.200, -0.100, 0.000, -3.200, 0.0, , , , , , 97, , , 13, 13, 13
38.1644157, -120.1139036, 6.900, 10:49:02.645, 13, 0.10, 0.12, 98, -0.400, 0.200, -85.100, 345, 100, 98, 14, 22425, -24106, 5343, 5453, 13, 14, 1526060942.645, 24, 0, 1024, 1024, 1024, 1024, 0, 6, 3687, 3709, 3731, 3738, 3688, 3744, 0, 1, 7900, -89.900, 0.000, -84.200, -0.100, 0.000, -3.100, 0.0, , , , , , 97, , , 13, 13, 13
38.1644154, -120.1139037, 7.200, 10:49:02.745, 13, 0.10, 0.10, 98, 0.000, 0.500, -85.100, 345, 100, 98, 14, 22425, -24106, 5343, 5453, 13, 14, 1526060942.746, 24, 0, 1024, 1024, 1024, 1024, 0, 6, 3687, 3709, 3731, 3738, 3688, 3744, 0, 1, 8000, -89.900, 0.000, -84.200, -0.100, 0.000, -3.100, 0.0, , , , , , 97, , , 13, 13, 13
38.1644152, -120.1139037, 7.600, 10:49:02.845, 15, 0.10, 0.07, 98, 0.400, 0.600, -85.100, 345, 100, 98, 14, 22425, -24106, 5343, 5453, 13, 14, 1526060942.846, 24, 0, 1024, 1024, 1024, 1024, 0, 6, 3687, 3709, 3731, 3738, 3688, 3744, 0, 1, 8100, -89.900, 0.000, -84.200, -0.100, 0.000, -3.100, 0.0, , , , , , 97, , , 13, 13, 13
38.1644150, -120.1139039, 7.900, 10:49:02.945, 15, 0.10, 0.04, 98, 0.900, 0.700, -85.100, 345, 100, 98, 14, 22425, -24106, 5343, 5453, 13, 14, 1526060942.945, 7, 0, 1024, 1024, 1024, 1024, 0, 6, 3687, 3709, 3731, 3738, 3688, 3744, 0, 1, 8200, -89.900, 0.000, -84.200, -0.100, 0.000, -3.100, 0.0, , , , , , 97, , , 13, 13, 13
38.1644148, -120.1139040, 8.200, 10:49:03.045, 15, 0.10, 0.02, 98, 1.300, 0.700, -85.200, 345, 100, 98, 14, 22425, -24106, 5343, 5453, 13, 14, 1526060943.046, 10, 0, 1024, 1024, 1024, 1024, 0, 6, 3687, 3709, 3731, 3738, 3688, 3744, 0, 1, 8301, -89.900, 0.000, -84.200, -0.100, 0.000, -3.100, 0.0, , , , , , 97, , , 13, 13, 13
38.1644148, -120.1139040, 8.200, 10:49:03.145, 15, 0.10, 0.02, 98, 1.300, 0.700, -85.200, 345, 100, 98, 14, 22425, -24106, 5343, 5453, 13, 14, 1526060943.146, 110, 0, 1024, 1024, 1024, 1024, 0, 6, 3687, 3709, 3731, 3738, 3688, 3744, 0, 1, 8401, -89.900, 0.000, -84.200, -0.100, 0.000, -3.100, 0.0, , , , , , 97, , , 13, 13, 13
38.1644145, -120.1139041, 8.600, 10:49:03.245, 15, 0.10, 0.02, 98, 1.500, 0.800, -85.200, 345, 100, 98, 14, 22425, -24106, 5343, 5453, 13, 14, 1526060943.246, 94, 0, 1024, 1024, 1024, 1024, 0, 6, 3687, 3709, 3731, 3738, 3688, 3744, 0, 1, 8500, -89.900, 0.000, -84.200, -0.100, 0.000, -3.100, 0.0, , , , , , 97, , , 13, 13, 13
38.1644143, -120.1139042, 8.900, 10:49:03.346, 14, 0.10, 0.04, 98, 1.700, 0.900, -85.100, 345, 100, 98, 14, 22425, -24106, 5343, 5453, 13, 14, 1526060943.346, 94, 0, 1024, 1024, 1024, 1024, 0, 6, 3687, 3709, 3731, 3738, 3688, 3744, 0, 1, 8601, -89.900, 0.000, -84.200, -0.100, 0.000, -3.100, 0.0, , , , , , 97, , , 13, 13, 13
38.1644134, -120.1139045, 9.900, 10:49:03.449, 15, 0.10, 0.14, 98, 2.600, 1.000, -84.900, 345, 100, 98, 14, 22706, -20232, 5343, 5453, 13, 14, 1526060943.449, 8, 0, 1024, 1024, 1024, 1024, 0, 6, 3687, 3709, 3731, 3738, 3688, 3744, 0, 1, 8704, -89.900, 0.000, -84.200, -0.100, 0.000, -3.000, 0.0, , , , , , 97, , , 13, 13, 13
38.1644134, -120.1139045, 9.900, 10:49:03.545, 15, 0.10, 0.14, 98, 2.600, 1.000, -84.900, 345, 100, 98, 14, 22706, -20232, 5343, 5453, 13, 14, 1526060943.546, 105, 0, 1024, 1024, 1024, 1024, 0, 6, 3768, 3779, 3788, 3813, 3767, 3810, 0, 1, 8801, -89.900, 0.000, -84.200, -0.100, 0.000, -3.000, 0.0, , , , , , 97, , , 13, 13, 13
38.1644131, -120.1139045, 10.200, 10:49:03.645, 15, 0.10, 0.17, 98, 2.500, 0.600, -84.800, 345, 100, 100, 14, 22706, -20232, 5343, 5453, 13, 14, 1526060943.646, 65, 0, 1024, 1024, 1024, 1024, 0, 6, 3768, 3779, 3788, 3813, 3767, 3810, 0, 1, 8901, -89.900, 0.000, -84.200, -0.100, 0.000, -3.000, 0.0, , , , , , 97, , , 13, 13, 13
38.1644129, -120.1139045, 10.500, 10:49:03.745, 15, 0.00, 0.19, 98, 2.500, 0.200, -84.800, 345, 100, 100, 14, 22706, -20232, 5343, 5453, 13, 14, 1526060943.746, 62, 0, 1024, 1024, 1024, 1024, 0, 6, 3768, 3779, 3788, 3813, 3767, 3810, 0, 1, 9001, -90.000, 0.000, -84.200, 0.000, 0.000, -3.000, 0.0, , , , , , 97, , , 13, 13, 13
38.1644127, -120.1139045, 10.800, 10:49:03.845, 15, 0.00, 0.22, 98, 2.400, 0.000, -84.800, 345, 100, 100, 14, 22706, -20232, 5343, 5453, 13, 14, 1526060943.846, 80, 0, 1024, 1024, 1024, 1024, 0, 6, 3768, 3779, 3788, 3813, 3767, 3810, 0, 1, 9101, -90.000, 0.000, -84.200, 0.000, 0.000, -2.900, 0.0, , , , , , 97, , , 13, 13, 13
38.1644125, -120.1139045, 11.100, 10:49:03.945, 15, 0.00, 0.24, 98, 2.300, -0.100, -84.900, 345, 100, 100, 14, 22706, -20232, 5343, 5453, 13, 14, 1526060943.946, 50, 0, 1024, 1024, 1024, 1024, 0, 6, 3768, 3779, 3788, 3813, 3767, 3810, 0, 1, 9201, -90.000, 0.000, -84.200, 0.000, 0.000, -2.900, 0.0, , , , , , 97, , , 13, 13, 13
38.1644123, -120.1139045, 11.400, 10:49:04.045, 15, 0.00, 0.26, 98, 2.300, -0.100, -85.000, 345, 100, 100, 14, 22706, -20232, 5343, 5453, 13, 14, 1526060944.046, 69, 0, 1024, 1024, 1024, 1024, 0, 6, 3768, 3779, 3788, 3813, 3767, 3810, 0, 1, 9300, -90.000, 0.000, -84.200, 0.000, 0.000, -2.900, 0.0, , , , , , 97, , , 13, 13, 13
38.1644121, -120.1139045, 11.700, 10:49:04.145, 15, 0.00, 0.28, 98, 2.200, 0.000, -85.100, 345, 100, 100, 14, 22706, -20232, 5343, 5453, 13, 14, 1526060944.146, 69, 0, 1024, 1024, 1024, 1024, 0, 6, 3768, 3779, 3788, 3813, 3767, 3810, 0, 1, 9401, -89.900, 0.000, -84.200, 0.000, 0.000, -3.000, 0.0, , , , , , 97, , , 13, 13, 13
38.1644120, -120.1139046, 12.000, 10:49:04.245, 16, 0.00, 0.30, 98, 1.900, 0.200, -85.200, 345, 100, 100, 14, 22706, -20232, 5343, 5453, 13, 14, 1526060944.246, 17, 0, 1024, 1024, 1024, 1024, 0, 6, 3768, 3779, 3788, 3813, 3767, 3810, 0, 1, 9500, -89.900, 0.000, -84.200, 0.000, 0.000, -2.900, 0.0, , , , , , 97, , , 13, 13, 13
38.1644120, -120.1139046, 12.000, 10:49:04.345, 16, 0.00, 0.30, 98, 1.900, 0.200, -85.200, 345, 100, 100, 14, 22706, -20232, 5343, 5453, 13, 14, 1526060944.346, 117, 0, 1024, 1024, 1024, 1024, 0, 6, 3768, 3779, 3788, 3813, 3767, 3810, 0, 1, 9601, -89.900, 0.000, -84.200, 0.000, 0.000, -2.900, 0.0, , , , , , 97, , , 13, 13, 13
38.1644119, -120.1139047, 12.300, 10:49:04.445, 16, 0.00, 0.31, 98, 1.800, 0.500, -85.200, 345, 100, 100, 14, 22706, -20232, 5343, 5453, 13, 14, 1526060944.446, 82, 0, 1024, 1024, 1024, 1024, 0, 6, 3768, 3779, 3788, 3813, 3767, 3810, 0, 1, 9701, -89.900, 0.000, -84.200, 0.000, 0.000, -2.900, 0.0, , , , , , 97, , , 13, 13, 13
38.1644118, -120.1139048, 12.600, 10:49:04.545, 16, 0.00, 0.32, 98, 1.700, 0.800, -85.200, 345, 100, 100, 14, 22706, -20232, 5343, 5453, 13, 14, 1526060944.546, 64, 0, 1024, 1024, 1024, 1024, 0, 6, 3768, 3779, 3788, 3813, 3767, 3810, 0, 1, 9801, -89.900, 0.000, -84.200, 0.000, 0.000, -2.900, 0.0, , , , , , 97, , , 13, 13, 13
38.1644118, -120.1139048, 12.600, 10:49:04.645, 16, 0.00, 0.32, 98, 1.700, 0.800, -85.200, 345, 100, 100, 14, 22706, -20232, 5343, 5453, 13, 14, 1526060944.646, 164, 0, 1024, 1024, 1024, 1024, 0, 6, 3768, 3779, 3788, 3813, 3767, 3810, 0, 1, 9901, -89.900, 0.000, -84.200, 0.000, 0.000, -2.900, 0.0, , , , , , 97, , , 13, 13, 13
38.1644118, -120.1139048, 12.900, 10:49:04.745, 16, 0.00, 0.32, 98, 1.700, 1.200, -85.200, 345, 100, 100, 14, 22758, -19334, 5343, 5453, 13, 14, 1526060944.746, 67, 0, 1024, 1024, 1024, 1024, 0, 6, 3773, 3794, 3794, 3818, 3761, 3809, 0, 1, 10001, -89.900, 0.000, -84.200, 0.000, 0.000, -2.900, 0.0, , , , , , 97, , , 13, 13, 13
38.1644118, -120.1139049, 13.200, 10:49:04.845, 15, 0.00, 0.33, 98, 1.900, 1.600, -85.100, 345, 100, 100, 14, 22758, -19334, 5343, 5453, 13, 14, 1526060944.846, 78, 0, 1024, 1024, 1024, 1024, 0, 6, 3773, 3794, 3794, 3818, 3761, 3809, 0, 1, 10101, -89.900, 0.000, -84.200, 0.000, 0.000, -2.900, 0.0, , , , , , 97, , , 13, 13, 13
38.1644117, -120.1139050, 13.500, 10:49:04.945, 15, 0.00, 0.34, 98, 2.000, 1.600, -85.000, 345, 100, 100, 14, 22758, -19334, 5343, 5453, 13, 14, 1526060944.946, 70, 0, 1024, 1024, 1024, 1024, 0, 6, 3773, 3794, 3794, 3818, 3761, 3809, 0, 1, 10201, -89.900, 0.000, -84.200, 0.000, 0.000, -2.900, 0.0, , , , , , 97, , , 13, 13, 13
38.1644117, -120.1139050, 13.500, 10:49:05.045, 15, 0.00, 0.34, 98, 2.000, 1.600, -85.000, 345, 100, 100, 14, 22758, -19334, 5343, 5453, 13, 14, 1526060945.046, 170, 0, 1024, 1024, 1024, 1024, 0, 6, 3773, 3794, 3794, 3818, 3761, 3809, 0, 1, 10300, -89.900, 0.000, -84.200, 0.000, 0.000, -2.900, 0.0, , , , , , 97, , , 13, 13, 13
38.1644116, -120.1139050, 13.800, 10:49:05.145, 15, 0.00, 0.34, 98, 2.100, 1.200, -85.000, 345, 100, 100, 14, 22758, -19334, 5343, 5453, 13, 14, 1526060945.146, 89, 0, 1024, 1024, 1024, 1024, 0, 6, 3773, 3794, 3794, 3818, 3761, 3809, 0, 1, 10401, -89.900, 0.000, -84.200, 0.000, 0.000, -2.900, 0.0, , , , , , 97, , , 13, 13, 13
38.1644116, -120.1139049, 14.100, 10:49:05.246, 15, 0.00, 0.34, 98, 2.100, 0.800, -85.000, 345, 100, 100, 14, 22758, -19334, 5343, 5453, 13, 14, 1526060945.247, 17, 0, 1024, 1024, 1024, 1024, 0, 6, 3773, 3794, 3794, 3818, 3761, 3809, 0, 1, 10502, -90.000, 0.000, -84.200, 0.000, 0.000, -2.900, 0.0, , , , , , 97, , , 13, 13, 13
38.1644117, -120.1139049, 14.500, 10:49:05.345, 16, 0.00, 0.33, 98, 2.000, 0.500, -85.000, 345, 100, 99, 14, 22758, -19334, 5343, 5453, 13, 14, 1526060945.346, 22, 0, 1024, 1024, 1024, 1024, 0, 6, 3773, 3794, 3794, 3818, 3761, 3809, 0, 1, 10601, -90.000, 0.000, -84.200, 0.000, 0.000, -2.900, 0.0, , , , , , 97, , , 13, 13, 13
38.1644117, -120.1139049, 14.500, 10:49:05.445, 16, 0.00, 0.33, 98, 2.000, 0.500, -85.000, 345, 100, 99, 14, 22758, -19334, 5343, 5453, 13, 14, 1526060945.446, 121, 0, 1024, 1024, 1024, 1024, 0, 6, 3773, 3794, 3794, 3818, 3761, 3809, 0, 1, 10701, -90.000, 0.000, -84.200, 0.000, 0.000, -2.900, 0.0, , , , , , 97, , , 13, 13, 13
38.1644118, -120.1139047, 15.100, 10:49:05.548, 16, 0.10, 0.32, 98, 1.500, 0.000, -85.000, 345, 100, 99, 14, 22758, -19334, 5343, 5453, 13, 14, 1526060945.548, 9, 0, 1024, 1024, 1024, 1024, 0, 6, 3773, 3794, 3794, 3818, 3761, 3809, 0, 1, 10803, -90.000, 0.000, -84.200, 0.100, 0.000, -2.800, 0.0, , , , , , 97, , , 13, 13, 13
38.1644118, -120.1139047, 15.100, 10:49:05.645, 16, 0.10, 0.32, 98, 1.500, 0.000, -85.000, 345, 100, 99, 14, 22758, -19334, 5343, 5453, 13, 14, 1526060945.646, 107, 0, 1024, 1024, 1024, 1024, 0, 6, 3773, 3794, 3794, 3818, 3761, 3809, 0, 1, 10901, -90.000, 0.000, -84.200, 0.100, 0.000, -2.800, 0.0, , , , , , 97, , , 13, 13, 13
38.1644119, -120.1139047, 15.700, 10:49:05.745, 15, 0.10, 0.30, 98, 1.000, 0.000, -85.100, 345, 100, 99, 14, 22681, -19961, 5343, 5453, 13, 14, 1526060945.746, 22, 0, 1024, 1024, 1024, 1024, 0, 6, 3773, 3794, 3794, 3818, 3761, 3809, 0, 1, 11000, -90.000, 0.000, -84.200, 0.100, 0.000, -2.900, 0.0, , , , , , 97, , , 13, 13, 13
38.1644121, -120.1139046, 16.300, 10:49:05.847, 16, 0.10, 0.28, 98, 0.400, 0.300, -85.400, 345, 100, 98, 14, 22681, -19961, 5343, 5453, 13, 14, 1526060945.847, 6, 0, 1024, 1024, 1024, 1024, 0, 6, 3773, 3794, 3794, 3818, 3761, 3809, 0, 1, 11102, -89.900, 0.000, -84.200, 0.100, 0.000, -2.800, 0.0, , , , , , 97, , , 13, 13, 13
38.1644122, -120.1139046, 16.500, 10:49:05.945, 16, 0.10, 0.27, 98, 0.300, 0.400, -85.500, 345, 100, 98, 14, 22681, -19961, 5343, 5453, 13, 14, 1526060945.946, 33, 0, 1024, 1024, 1024, 1024, 0, 6, 3773, 3794, 3794, 3818, 3761, 3809, 0, 1, 11201, -89.900, 0.000, -84.200, 0.100, 0.000, -2.800, 0.0, , , , , , 97, , , 13, 13, 13
38.1644122, -120.1139046, 16.500, 10:49:06.045, 16, 0.10, 0.27, 98, 0.300, 0.400, -85.500, 345, 100, 98, 14, 22681, -19961, 5343, 5453, 13, 14, 1526060946.046, 133, 0, 1024, 1024, 1024, 1024, 0, 6, 3773, 3794, 3794, 3818, 3761, 3809, 0, 1, 11301, -89.900, 0.000, -84.200, 0.100, 0.000, -2.800, 0.0, , , , , , 97, , , 13, 13, 13
38.1644123, -120.1139045, 16.800, 10:49:06.145, 16, 0.00, 0.26, 98, 0.400, 0.200, -85.400, 345, 100, 98, 14, 22681, -19961, 5343, 5453, 13, 14, 1526060946.146, 53, 0, 1024, 1024, 1024, 1024, 0, 6, 3773, 3794, 3794, 3818, 3761, 3809, 0, 1, 11401, -90.000, 0.000, -84.200, 0.000, 0.000, -2.800, 0.0, , , , , , 97, , , 13, 13, 13
38.1644124, -120.1139045, 17.100, 10:49:06.245, 16, 0.00, 0.25, 98, 0.700, 0.000, -85.300, 345, 100, 98, 14, 22681, -19961, 5343, 5453, 13, 14, 1526060946.246, 33, 0, 1024, 1024, 1024, 1024, 0, 6, 3773, 3794, 3794, 3818, 3761, 3809, 0, 1, 11501, -90.000, 0.000, -84.200, 0.000, 0.000, -2.900, 0.0, , , , , , 97, , , 13, 13, 13
38.1644127, -120.1139044, 18.400, 10:49:06.345, 16, 0.00, 0.21, 98, 1.000, 0.000, -85.000, 345, 100, 98, 14, 22681, -19961, 5343, 5453, 13, 14, 1526060946.346, 5, 0, 1024, 1024, 1024, 1024, 0, 6, 3773, 3794, 3794, 3818, 3761, 3809, 0, 1, 11601, -90.000, 0.000, -84.200, 0.000, 0.000, -2.900, 0.0, , , , , , 97, , , 13, 13, 13
38.1644128, -120.1139043, 18.700, 10:49:06.445, 17, 0.00, 0.20, 98, 1.000, 0.000, -85.000, 345, 100, 98, 14, 22681, -19961, 5343, 5453, 13, 14, 1526060946.446, 46, 0, 1024, 1024, 1024, 1024, 0, 6, 3773, 3794, 3794, 3818, 3761, 3809, 0, 1, 11700, -90.000, 0.000, -84.200, 0.000, 0.000, -2.900, 0.0, , , , , , 97, , , 13, 13, 13
38.1644128, -120.1139042, 19.000, 10:49:06.545, 17, 0.00, 0.20, 98, 1.000, -0.300, -85.000, 345, 100, 98, 14, 22681, -19961, 5343, 5453, 13, 14, 1526060946.546, 12, 0, 1024, 1024, 1024, 1024, 0, 6, 3773, 3794, 3794, 3818, 3761, 3809, 0, 1, 11801, -90.000, 0.000, -84.200, 0.000, 0.000, -2.900, 0.0, , , , , , 97, , , 13, 13, 13
38.1644129, -120.1139041, 19.300, 10:49:06.645, 18, 0.00, 0.19, 98, 1.000, -0.700, -85.000, 345, 100, 96, 14, 22681, -19961, 5343, 5453, 13, 14, 1526060946.647, 32, 0, 1024, 1024, 1024, 1024, 0, 6, 3755, 3769, 3797, 3804, 3748, 3797, 0, 1, 11902, -90.000, 0.000, -84.200, 0.000, 0.000, -2.900, 0.0, , , , , , 97, , , 13, 13, 13
38.1644130, -120.1139040, 19.600, 10:49:06.755, 18, 0.00, 0.18, 98, 1.000, -0.900, -85.000, 345, 100, 96, 14, 22681, -19961, 5343, 5453, 13, 14, 1526060946.755, 78, 0, 1024, 1024, 1024, 1024, 0, 6, 3755, 3769, 3797, 3804, 3748, 3797, 0, 1, 12010, -90.000, 0.000, -84.200, 0.000, 0.000, -2.900, 0.0, , , , , , 97, , , 13, 13, 13
38.1644131, -120.1139039, 19.900, 10:49:06.845, 17, 0.00, 0.17, 98, 0.900, -0.900, -85.000, 345, 100, 96, 14, 22681, -19961, 5343, 5453, 13, 14, 1526060946.846, 35, 0, 1024, 1024, 1024, 1024, 0, 6, 3755, 3769, 3797, 3804, 3748, 3797, 0, 1, 12101, -90.000, 0.000, -84.200, 0.000, 0.000, -2.900, 0.0, , , , , , 97, , , 13, 13, 13
38.1644131, -120.1139039, 20.200, 10:49:06.945, 17, 0.00, 0.16, 98, 0.900, -0.600, -85.000, 345, 100, 96, 14, 22681, -19961, 5343, 5453, 13, 14, 1526060946.946, 50, 0, 1024, 1024, 1024, 1024, 0, 6, 3755, 3769, 3797, 3804, 3748, 3797, 0, 1, 12201, -89.900, 0.000, -84.200, 0.000, 0.000, -2.800, 0.0, , , , , , 97, , , 13, 13, 13
38.1644132, -120.1139038, 20.500, 10:49:07.045, 18, 0.00, 0.15, 98, 0.900, -0.300, -85.000, 345, 100, 96, 14, 22563, -20528, 5289, 5453, 13, 14, 1526060947.046, 42, 0, 1024, 1024, 1024, 1024, 0, 6, 3738, 3751, 3772, 3792, 3730, 3780, 0, 1, 12301, -90.000, 0.000, -84.200, 0.000, 0.000, -2.900, 0.0, , , , , , 97, , , 13, 13, 13
38.1644132, -120.1139038, 20.500, 10:49:07.145, 18, 0.00, 0.15, 98, 0.900, -0.300, -85.000, 345, 100, 96, 14, 22563, -20528, 5289, 5453, 13, 14, 1526060947.146, 143, 0, 1024, 1024, 1024, 1024, 0, 6, 3738, 3751, 3772, 3792, 3730, 3780, 0, 1, 12401, -90.000, 0.000, -84.200, 0.000, 0.000, -2.900, 0.0, , , , , , 97, , , 13, 13, 13
38.1644134, -120.1139037, 21.000, 10:49:07.245, 18, 0.00, 0.14, 98, 0.600, -0.600, -85.000, 345, 100, 96, 14, 22563, -20528, 5289, 5453, 13, 14, 1526060947.246, 13, 0, 1024, 1024, 1024, 1024, 0, 6, 3738, 3751, 3772, 3792, 3730, 3780, 0, 1, 12501, -90.000, 0.000, -84.200, 0.000, 0.000, -2.900, 0.0, , , , , , 97, , , 13, 13, 13
38.1644135, -120.1139036, 21.300, 10:49:07.345, 18, 0.00, 0.13, 98, 0.300, -1.200, -85.000, 345, 100, 96, 14, 22563, -20528, 5289, 5453, 13, 14, 1526060947.346, 13, 0, 1024, 1024, 1024, 1024, 0, 6, 3738, 3751, 3772, 3792, 3730, 3780, 0, 1, 12601, -90.000, 0.000, -84.200, 0.000, 0.000, -2.800, 0.0, , , , , , 97, , , 13, 13, 13
38.1644136, -120.1139035, 21.600, 10:49:07.445, 18, 0.00, 0.12, 98, 0.000, -1.600, -84.900, 345, 100, 96, 14, 22563, -20528, 5289, 5453, 13, 14, 1526060947.446, 31, 0, 1024, 1024, 1024, 1024, 0, 6, 3738, 3751, 3772, 3792, 3730, 3780, 0, 1, 12700, -90.000, 0.000, -84.200, 0.000, 0.000, -2.800, 0.0, , , , , , 97, , , 13, 13, 13
38.1644136, -120.1139035, 21.600, 10:49:07.548, 18, 0.00, 0.12, 97, 0.000, -1.600, -84.900, 345, 100, 96, 14, 22563, -20528, 5289, 5453, 13, 14, 1526060947.548, 134, 0, 1024, 1024, 1024, 1024, 0, 6, 3738, 3751, 3772, 3792, 3730, 3780, 0, 1, 12803, -90.000, 0.000, -84.200, 0.000, 0.000, -2.800, 0.0, , , , , , 97, , , 13, 13, 13
38.1644137, -120.1139033, 22.200, 10:49:07.649, 17, 0.00, 0.11, 97, 0.000, -1.600, -84.700, 345, 100, 93, 14, 22563, -20528, 5289, 5453, 13, 14, 1526060947.650, 14, 0, 1024, 1024, 1024, 1024, 0, 6, 3738, 3751, 3772, 3792, 3730, 3780, 0, 1, 12905, -89.900, 0.000, -84.200, 0.000, 0.000, -2.900, 0.0, , , , , , 97, , , 13, 13, 13
38.1644138, -120.1139032, 22.500, 10:49:07.745, 17, 0.00, 0.11, 97, -0.100, -1.500, -84.700, 345, 100, 93, 14, 22563, -20528, 5289, 5453, 13, 14, 1526060947.746, 7, 0, 1024, 1024, 1024, 1024, 0, 6, 3738, 3751, 3772, 3792, 3730, 3780, 0, 1, 13001, -89.900, 0.000, -84.200, 0.000, 0.000, -2.800, 0.0, , , , , , 97, , , 13, 13, 13
38.1644139, -120.1139031, 22.800, 10:49:07.846, 17, 0.00, 0.10, 97, -0.200, -1.300, -84.700, 345, 100, 93, 14, 22563, -20528, 5289, 5453, 13, 14, 1526060947.846, 7, 0, 1024, 1024, 1024, 1024, 0, 6, 3738, 3751, 3772, 3792, 3730, 3780, 0, 1, 13101, -89.900, 0.000, -84.200, 0.000, 0.000, -2.800, 0.0, , , , , , 97, , , 13, 13, 13
38.1644140, -120.1139030, 23.100, 10:49:07.945, 17, 0.00, 0.10, 97, -0.200, -1.300, -84.700, 345, 100, 93, 14, 22572, -20486, 5289, 5453, 13, 14, 1526060947.946, 28, 0, 1024, 1024, 1024, 1024, 0, 6, 3733, 3743, 3761, 3789, 3738, 3785, 0, 1, 13201, -90.000, 0.000, -84.200, 0.000, 0.000, -2.800, 0.0, , , , , , 97, , , 13, 13, 13
38.1644140, -120.1139030, 23.100, 10:49:08.045, 17, 0.00, 0.10, 97, -0.200, -1.300, -84.700, 345, 100, 93, 14, 22572, -20486, 5289, 5453, 13, 14, 1526060948.046, 128, 0, 1024, 1024, 1024, 1024, 0, 6, 3733, 3743, 3761, 3789, 3738, 3785, 0, 1, 13300, -90.000, 0.000, -84.200, 0.000, 0.000, -2.800, 0.0, , , , , , 97, , , 13, 13, 13
38.1644140, -120.1139030, 23.100, 10:49:08.145, 17, 0.00, 0.10, 97, -0.200, -1.300, -84.700, 345, 100, 93, 14, 22572, -20486, 5289, 5453, 13, 14, 1526060948.146, 227, 0, 1024, 1024, 1024, 1024, 0, 6, 3733, 3743, 3761, 3789, 3738, 3785, 0, 1, 13400, -90.000, 0.000, -84.200, 0.000, 0.000, -2.800, 0.0, , , , , , 97, , , 13, 13, 13
38.1644142, -120.1139029, 23.700, 10:49:08.245, 17, 0.00, 0.10, 97, -0.400, -1.400, -84.700, 345, 100, 93, 14, 22572, -20486, 5289, 5453, 13, 14, 1526060948.246, 70, 0, 1024, 1024, 1024, 1024, 0, 6, 3733, 3743, 3761, 3789, 3738, 3785, 0, 1, 13501, -90.000, 0.000, -84.200, 0.000, 0.000, -3.000, 0.0, , , , , , 97, , , 13, 13, 13
38.1644142, -120.1139029, 23.700, 10:49:08.345, 17, 0.00, 0.10, 97, -0.400, -1.400, -84.700, 345, 100, 93, 14, 22572, -20486, 5289, 5453, 13, 14, 1526060948.346, 170, 0, 1024, 1024, 1024, 1024, 0, 6, 3733, 3743, 3761, 3789, 3738, 3785, 0, 1, 13601, -89.900, 0.000, -84.200, 0.000, 0.000, -3.000, 0.0, , , , , , 97, , , 13, 13, 13
38.1644144, -120.1139028, 24.500, 10:49:08.445, 18, 0.00, 0.11, 97, 0.000, -1.200, -84.900, 345, 100, 93, 14, 22572, -20486, 5289, 5453, 13, 14, 1526060948.446, 69, 0, 1024, 1024, 1024, 1024, 0, 6, 3733, 3743, 3761, 3789, 3738, 3785, 0, 1, 13701, -89.900, 0.000, -84.200, 0.000, 0.000, -2.900, 0.0, , , , , , 97, , , 13, 13, 13
38.1644144, -120.1139028, 24.500, 10:49:08.545, 18, 0.00, 0.11, 97, 0.000, -1.200, -84.900, 345, 100, 93, 14, 22572, -20486, 5289, 5453, 13, 14, 1526060948.546, 169, 0, 1024, 1024, 1024, 1024, 0, 6, 3733, 3743, 3761, 3789, 3738, 3785, 0, 1, 13800, -89.900, 0.000, -84.200, 0.000, 0.000, -2.900, 0.0, , , , , , 97, , , 13, 13, 13
38.1644144, -120.1139028, 24.800, 10:49:08.645, 18, 0.00, 0.11, 97, -0.100, -1.200, -85.000, 345, 100, 93, 14, 22572, -20486, 5289, 5453, 13, 14, 1526060948.646, 20, 0, 1024, 1024, 1024, 1024, 0, 6, 3733, 3743, 3761, 3789, 3738, 3785, 0, 1, 13901, -90.000, 0.000, -84.200, 0.000, 0.000, -2.900, 0.0, , , , , , 97, , , 13, 13, 13
38.1644145, -120.1139027, 25.100, 10:49:08.748, 18, 0.00, 0.11, 97, -0.400, -1.200, -85.100, 345, 100, 93, 14, 22572, -20486, 5289, 5453, 13, 14, 1526060948.748, 3, 0, 1024, 1024, 1024, 1024, 0, 6, 3733, 3743, 3761, 3789, 3738, 3785, 0, 1, 14003, -90.000, 0.000, -84.200, 0.000, 0.000, -2.900, 0.0, , , , , , 97, , , 13, 13, 13
38.1644145, -120.1139027, 25.400, 10:49:08.845, 18, 0.00, 0.11, 97, -0.500, -1.100, -85.200, 345, 100, 93, 14, 22572, -20486, 5289, 5453, 13, 14, 1526060948.846, 29, 0, 1024, 1024, 1024, 1024, 0, 6, 3733, 3743, 3761, 3789, 3738, 3785, 0, 1, 14101, -89.900, 0.000, -84.200, 0.000, 0.000, -3.000, 0.0, , , , , , 97, , , 13, 13, 13
38.1644146, -120.1139027, 25.700, 10:49:08.945, 18, 0.00, 0.11, 97, -0.500, -1.000, -85.300, 345, 100, 93, 14, 22572, -20486, 5289, 5453, 13, 14, 1526060948.946, 52, 0, 1024, 1024, 1024, 1024, 0, 6, 3733, 3743, 3761, 3789, 3738, 3785, 0, 1, 14201, -89.900, 0.000, -84.200, 0.000, 0.000, -3.000, 0.0, , , , , , 97, , , 13, 13, 13
38.1644146, -120.1139027, 25.700, 10:49:09.045, 18, 0.00, 0.11, 97, -0.500, -1.000, -85.300, 345, 100, 93, 14, 22572, -20486, 5289, 5453, 13, 14, 1526060949.046, 152, 0, 1024, 1024, 1024, 1024, 0, 6, 3733, 3743, 3761, 3789, 3738, 3785, 0, 1, 14301, -89.900, 0.000, -84.200, 0.000, 0.000, -3.000, 0.0, , , , , , 97, , , 13, 13, 13
38.1644147, -120.1139027, 26.300, 10:49:09.145, 18, 0.00, 0.11, 97, -0.200, -0.700, -85.600, 345, 100, 93, 14, 22388, -21688, 5289, 5453, 13, 14, 1526060949.146, 46, 0, 1024, 1024, 1024, 1024, 0, 6, 3709, 3710, 3741, 3765, 3690, 3765, 0, 1, 14401, -90.000, 0.000, -84.200, 0.000, 0.000, -3.000, 0.0, , , , , , 97, , , 13, 13, 13
38.1644146, -120.1139028, 26.600, 10:49:09.245, 18, 0.00, 0.11, 97, 0.000, -0.900, -85.600, 345, 100, 95, 14, 22388, -21688, 5289, 5453, 13, 14, 1526060949.246, 38, 0, 1024, 1024, 1024, 1024, 0, 6, 3709, 3710, 3741, 3765, 3690, 3765, 0, 1, 14501, -90.000, 0.000, -84.200, 0.000, 0.000, -3.000, 0.0, , , , , , 97, , , 13, 13, 13
38.1644146, -120.1139028, 26.900, 10:49:09.345, 18, 0.00, 0.10, 97, 0.200, -1.000, -85.500, 345, 100, 95, 14, 22388, -21688, 5289, 5453, 13, 14, 1526060949.346, 40, 0, 1024, 1024, 1024, 1024, 0, 6, 3709, 3710, 3741, 3765, 3690, 3765, 0, 1, 14600, -90.000, 0.000, -84.200, 0.000, 0.000, -3.000, 0.0, , , , , , 97, , , 13, 13, 13
38.1644147, -120.1139028, 27.500, 10:49:09.445, 19, 0.00, 0.10, 97, 0.200, -1.000, -85.300, 345, 100, 95, 14, 22388, -21688, 5289, 5453, 13, 14, 1526060949.446, 31, 0, 1024, 1024, 1024, 1024, 0, 6, 3709, 3710, 3741, 3765, 3690, 3765, 0, 1, 14700, -90.000, 0.000, -84.200, 0.000, 0.000, -2.900, 0.0, , , , , , 97, , , 13, 13, 13
38.1644147, -120.1139028, 27.500, 10:49:09.545, 19, 0.00, 0.10, 97, 0.200, -1.000, -85.300, 345, 100, 95, 14, 22388, -21688, 5289, 5453, 13, 14, 1526060949.546, 131, 0, 1024, 1024, 1024, 1024, 0, 6, 3709, 3710, 3741, 3765, 3690, 3765, 0, 1, 14801, -90.000, 0.000, -84.200, 0.000, 0.000, -2.900, 0.0, , , , , , 97, , , 13, 13, 13
38.1644147, -120.1139028, 28.100, 10:49:09.645, 19, 0.00, 0.10, 97, 0.000, -0.700, -85.000, 345, 100, 97, 14, 22388, -21688, 5289, 5453, 13, 14, 1526060949.646, 9, 0, 1024, 1024, 1024, 1024, 0, 6, 3709, 3710, 3741, 3765, 3690, 3765, 0, 1, 14900, -90.000, 0.000, -84.200, 0.000, 0.000, -3.000, 0.0, , , , , , 97, , , 13, 13, 13
38.1644147, -120.1139028, 28.400, 10:49:09.745, 19, 0.00, 0.10, 97, 0.000, -0.800, -84.900, 345, 100, 97, 14, 22388, -21688, 5289, 5453, 13, 14, 1526060949.746, 38, 0, 1024, 1024, 1024, 1024, 0, 6, 3709, 3710, 3741, 3765, 3690, 3765, 0, 1, 15000, -90.000, 0.000, -84.200, 0.000, 0.000, -3.000, 0.0, , , , , , 97, , , 13, 13, 13
38.1644146, -120.1139028, 28.700, 10:49:09.845, 19, 0.00, 0.10, 97, -0.100, -0.900, -84.800, 345, 100, 97, 14, 22388, -21688, 5289, 5453, 13, 14, 1526060949.846, 40, 0, 1024, 1024, 1024, 1024, 0, 6, 3709, 3710, 3741, 3765, 3690, 3765, 0, 1, 15101, -90.000, 0.000, -84.200, 0.000, 0.000, -3.000, 0.0, , , , , , 97, , , 13, 13, 13
38.1644146, -120.1139028, 29.000, 10:49:09.946, 19, 0.00, 0.10, 97, -0.100, -1.000, -84.800, 345, 100, 97, 15, 22430, -20851, 5289, 5453, 13, 14, 1526060949.947, 41, 0, 1024, 1024, 1024, 1024, 0, 6, 3718, 3726, 3745, 3767, 3701, 3756, 0, 1, 15201, -90.000, 0.000, -84.200, 0.000, 0.000, -3.000, 0.0, , , , , , 97, , , 13, 13, 13
38.1644146, -120.1139028, 29.300, 10:49:10.045, 19, 0.00, 0.10, 97, 0.000, -1.100, -84.800, 345, 100, 100, 15, 22430, -20851, 5289, 5453, 13, 14, 1526060950.046, 29, 0, 1024, 1024, 1024, 1024, 0, 6, 3718, 3726, 3745, 3767, 3701, 3756, 0, 1, 15301, -90.000, 0.000, -84.200, 0.000, 0.000, -3.000, 0.0, , , , , , 97, , , 13, 13, 13
38.1644146, -120.1139028, 29.600, 10:49:10.145, 19, 0.00, 0.10, 97, 0.000, -1.100, -84.800, 345, 100, 100, 15, 22430, -20851, 5289, 5453, 13, 14, 1526060950.146, 16, 0, 1024, 1024, 1024, 1024, 0, 6, 3718, 3726, 3745, 3767, 3701, 3756, 0, 1, 15401, -90.000, 0.000, -84.200, 0.000, 0.000, -3.000, 0.0, , , , , , 97, , , 13, 13, 13
38.1644146, -120.1139029, 29.900, 10:49:10.245, 19, 0.00, 0.09, 97, 0.000, -1.000, -84.800, 345, 100, 100, 15, 22430, -20851, 5289, 5453, 13, 14, 1526060950.246, 17, 0, 1024, 1024, 1024, 1024, 0, 6, 3718, 3726, 3745, 3767, 3701, 3756, 0, 1, 15501, -89.900, 0.000, -84.200, 0.000, 0.000, -3.000, 0.0, , , , , , 97, , , 13, 13, 13
38.1644145, -120.1139029, 30.200, 10:49:10.345, 19, 0.00, 0.09, 97, 0.000, -0.900, -84.900, 345, 100, 100, 15, 22430, -20851, 5289, 5453, 13, 14, 1526060950.346, 18, 0, 1024, 1024, 1024, 1024, 0, 6, 3718, 3726, 3745, 3767, 3701, 3756, 0, 1, 15600, -89.900, 0.000, -84.200, 0.000, 0.000, -3.000, 0.0, , , , , , 97, , , 13, 13, 13
38.1644145, -120.1139029, 30.800, 10:49:10.445, 19, 0.00, 0.09, 97, 0.100, -0.600, -85.000, 345, 100, 100, 15, 22430, -20851, 5289, 5453, 13, 14, 1526060950.446, 21, 0, 1024, 1024, 1024, 1024, 0, 6, 3718, 3726, 3745, 3767, 3701, 3756, 0, 1, 15701, -89.900, 0.000, -84.200, 0.000, 0.000, -3.000, 0.0, , , , , , 97, , , 13, 13, 13
38.1644144, -120.1139029, 31.100, 10:49:10.545, 19, 0.00, 0.09, 97, 0.200, -0.800, -85.000, 345, 100, 98, 15, 22430, -20851, 5289, 5453, 13, 14, 1526060950.545, 6, 0, 1024, 1024, 1024, 1024, 0, 6, 3718, 3726, 3745, 3767, 3701, 3756, 0, 1, 15800, -90.000, 0.000, -84.200, 0.000, 0.000, -2.900, 0.0, , , , , , 97, , , 13, 13, 13
38.1644144, -120.1139030, 31.400, 10:49:10.656, 19, 0.00, 0.09, 97, 0.300, -0.900, -85.000, 345, 100, 98, 15, 22430, -20851, 5289, 5453, 13, 14, 1526060950.657, 6, 0, 1024, 1024, 1024, 1024, 0, 6, 3718, 3726, 3745, 3767, 3701, 3756, 0, 1, 15911, -89.900, 0.000, -84.200, 0.000, 0.000, -2.900, 0.0, , , , , , 97, , , 13, 13, 13
38.1644144, -120.1139030, 31.400, 10:49:10.745, 19, 0.00, 0.09, 97, 0.300, -0.900, -85.000, 345, 100, 98, 15, 22430, -20851, 5289, 5453, 13, 14, 1526060950.746, 96, 0, 1024, 1024, 1024, 1024, 0, 6, 3718, 3726, 3745, 3767, 3701, 3756, 0, 1, 16001, -89.900, 0.000, -84.200, 0.000, 0.000, -2.900, 0.0, , , , , , 97, , , 13, 13, 13
38.1644143, -120.1139030, 31.700, 10:49:10.845, 19, 0.00, 0.09, 97, 0.500, -1.100, -85.100, 345, 100, 98, 15, 22430, -20851, 5289, 5453, 13, 14, 1526060950.846, 89, 0, 1024, 1024, 1024, 1024, 0, 6, 3718, 3726, 3745, 3767, 3701, 3756, 0, 1, 16101, -90.000, 0.000, -84.200, 0.000, 0.000, -2.800, 0.0, , , , , , 97, , , 13, 13, 13
38.1644142, -120.1139030, 32.000, 10:49:10.945, 19, 0.00, 0.09, 97, 0.600, -1.100, -85.100, 345, 100, 98, 15, 22430, -20851, 5289, 5453, 13, 14, 1526060950.946, 96, 0, 1024, 1024, 1024, 1024, 0, 6, 3718, 3726, 3745, 3767, 3701, 3756, 0, 1, 16201, -90.000, 0.000, -84.200, 0.000, 0.000, -2.800, 0.0, , , , , , 97, , , 13, 13, 13
38.1644141, -120.1139030, 32.300, 10:49:11.045, 19, 0.00, 0.10, 97, 0.700, -1.200, -85.100, 345, 100, 98, 15, 22442, -20345, 5289, 5453, 13, 14, 1526060951.046, 87, 0, 1024, 1024, 1024, 1024, 0, 6, 3718, 3726, 3745, 3767, 3701, 3756, 0, 1, 16300, -90.000, 0.000, -84.200, 0.000, 0.000, -2.900, 0.0, , , , , , 97, , , 13, 13, 13
38.1644140, -120.1139030, 32.600, 10:49:11.145, 19, 0.00, 0.10, 97, 0.900, -1.200, -85.200, 345, 100, 98, 15, 22442, -20345, 5289, 5453, 13, 14, 1526060951.146, 80, 0, 1024, 1024, 1024, 1024, 0, 6, 3718, 3726, 3745, 3767, 3701, 3756, 0, 1, 16401, -90.000, 0.000, -84.200, 0.000, 0.000, -2.900, 0.0, , , , , , 97, , , 13, 13, 13
38.1644139, -120.1139031, 32.900, 10:49:11.245, 19, 0.00, 0.11, 97, 1.000, -1.100, -85.200, 345, 100, 98, 15, 22442, -20345, 5289, 5453, 13, 14, 1526060951.246, 79, 0, 1024, 1024, 1024, 1024, 0, 6, 3718, 3726, 3745, 3767, 3701, 3756, 0, 1, 16501, -89.900, 0.000, -84.200, 0.000, 0.000, -3.000, 0.0, , , , , , 97, , , 13, 13, 13
38.1644139, -120.1139031, 33.200, 10:49:11.345, 19, 0.00, 0.11, 97, 1.200, -1.000, -85.300, 345, 100, 98, 15, 22442, -20345, 5289, 5453, 13, 14, 1526060951.346, 81, 0, 1024, 1024, 1024, 1024, 0, 6, 3718, 3726, 3745, 3767, 3701, 3756, 0, 1, 16601, -89.900, 0.000, -84.200, 0.000, 0.000, -3.000, 0.0, , , , , , 97, , , 13, 13, 13
38.1644138, -120.1139031, 33.500, 10:49:11.445, 19, 0.00, 0.12, 97, 1.500, -1.000, -85.300, 345, 100, 98, 15, 22442, -20345, 5289, 5453, 13, 14, 1526060951.446, 81, 0, 1024, 1024, 1024, 1024, 0, 6, 3718, 3726, 3745, 3767, 3701, 3756, 0, 1, 16701, -89.900, 0.000, -84.200, 0.000, 0.000, -2.900, 0.0, , , , , , 97, , , 13, 13, 13
38.1644137, -120.1139032, 33.800, 10:49:11.545, 19, 0.00, 0.12, 97, 1.500, -0.800, -85.300, 345, 100, 98, 15, 22442, -20345, 5289, 5453, 13, 14, 1526060951.545, 82, 0, 1024, 1024, 1024, 1024, 0, 6, 3710, 3729, 3750, 3769, 3708, 3761, 0, 1, 16800, -89.900, 0.000, -84.200, 0.000, 0.000, -2.900, 0.0, , , , , , 97, , , 13, 13, 13
38.1644137, -120.1139032, 34.100, 10:49:11.645, 19, 0.00, 0.12, 97, 1.400, -0.700, -85.200, 345, 100, 96, 15, 22442, -20345, 5289, 5453, 13, 14, 1526060951.646, 34, 0, 1024, 1024, 1024, 1024, 0, 6, 3710, 3729, 3750, 3769, 3708, 3761, 0, 1, 16901, -89.900, 0.000, -84.200, 0.000, 0.000, -2.900, 0.0, , , , , , 97, , , 13, 13, 13
38.1644136, -120.1139032, 34.400, 10:49:11.745, 19, 0.00, 0.13, 97, 1.100, -0.600, -85.200, 345, 100, 96, 15, 22442, -20345, 5289, 5453, 13, 14, 1526060951.746, 43, 0, 1024, 1024, 1024, 1024, 0, 6, 3710, 3729, 3750, 3769, 3708, 3761, 0, 1, 17001, -89.900, 0.000, -84.200, 0.000, 0.000, -2.900, 0.0, , , , , , 97, , , 13, 13, 13
38.1644136, -120.1139032, 34.700, 10:49:11.845, 19, 0.00, 0.13, 97, 0.900, -0.500, -85.200, 345, 100, 96, 15, 22442, -20345, 5289, 5453, 13, 14, 1526060951.846, 50, 0, 1024, 1024, 1024, 1024, 0, 6, 3710, 3729, 3750, 3769, 3708, 3761, 0, 1, 17101, -90.000, 0.000, -84.200, 0.000, 0.000, -3.000, 0.0, , , , , , 97, , , 13, 13, 13
38.1644136, -120.1139032, 35.000, 10:49:11.945, 19, 0.00, 0.13, 97, 0.800, -0.700, -85.200, 345, 100, 96, 15, 22442, -20345, 5289, 5453, 13, 14, 1526060951.945, 52, 0, 1024, 1024, 1024, 1024, 0, 6, 3710, 3729, 3750, 3769, 3708, 3761, 0, 1, 17200, -90.000, 0.000, -84.200, 0.000, 0.000, -2.900, 0.0, , , , , , 97, , , 13, 13, 13
38.1644135, -120.1139032, 35.300, 10:49:12.045, 19, 0.00, 0.13, 97, 0.900, -0.800, -85.300, 345, 100, 96, 15, 22442, -20345, 5289, 5453, 13, 14, 1526060952.046, 40, 0, 1024, 1024, 1024, 1024, 0, 6, 3710, 3729, 3750, 3769, 3708, 3761, 0, 1, 17301, -90.000, 0.000, -84.200, 0.000, 0.000, -2.900, 0.0, , , , , , 97, , , 13, 13, 13
38.1644135, -120.1139032, 35.600, 10:49:12.145, 19, 0.00, 0.14, 97, 1.100, -0.800, -85.300, 345, 100, 96, 15, 22442, -20345, 5289, 5453, 13, 14, 1526060952.146, 30, 0, 1024, 1024, 1024, 1024, 0, 6, 3710, 3729, 3750, 3769, 3708, 3761, 0, 1, 17400, -90.000, 0.000, -84.200, 0.000, 0.000, -3.000, 0.0, , , , , , 97, , , 13, 13, 13
38.1644135, -120.1139032, 35.900, 10:49:12.245, 19, 0.00, 0.14, 97, 1.200, -0.600, -85.300, 345, 100, 96, 15, 22442, -20345, 5289, 5453, 13, 14, 1526060952.246, 38, 0, 1024, 1024, 1024, 1024, 0, 6, 3710, 3729, 3750, 3769, 3708, 3761, 0, 1, 17501, -89.900, 0.000, -84.200, 0.000, 0.000, -3.000, 0.0, , , , , , 97, , , 13, 13, 13
38.1644134, -120.1139032, 36.200, 10:49:12.345, 19, 0.00, 0.14, 97, 1.200, -0.500, -85.300, 345, 100, 96, 15, 22442, -20345, 5289, 5453, 13, 14, 1526060952.346, 29, 0, 1024, 1024, 1024, 1024, 0, 6, 3710, 3729, 3750, 3769, 3708, 3761, 0, 1, 17601, -90.000, 0.000, -84.200, 0.000, 0.000, -3.000, 0.0, , , , , , 97, , , 13, 13, 13
38.1644134, -120.1139032, 36.500, 10:49:12.445, 19, 0.00, 0.15, 97, 1.000, -0.700, -85.200, 345, 100, 96, 15, 22299, -21337, 5289, 5453, 13, 14, 1526060952.445, 42, 0, 1024, 1024, 1024, 1024, 0, 6, 3695, 3696, 3733, 3758, 3686, 3744, 0, 1, 17700, -90.000, 0.000, -84.200, 0.000, 0.000, -3.000, 0.0, , , , , , 97, , , 13, 13, 13
38.1644134, -120.1139032, 36.800, 10:49:12.545, 19, 0.00, 0.15, 97, 0.900, -1.000, -85.100, 345, 100, 98, 15, 22299, -21337, 5289, 5453, 13, 14, 1526060952.546, 32, 0, 1024, 1024, 1024, 1024, 0, 6, 3695, 3696, 3733, 3758, 3686, 3744, 0, 1, 17801, -90.000, 0.000, -84.200, 0.000, 0.000, -3.000, 0.0, , , , , , 97, , , 13, 13, 13
38.1644134, -120.1139032, 37.100, 10:49:12.645, 19, 0.00, 0.15, 97, 1.000, -1.300, -85.000, 345, 100, 98, 15, 22299, -21337, 5289, 5453, 13, 14, 1526060952.646, 34, 0, 1024, 1024, 1024, 1024, 0, 6, 3695, 3696, 3733, 3758, 3686, 3744, 0, 1, 17900, -90.000, 0.000, -84.200, 0.000, 0.000, -3.000, 0.0, , , , , , 97, , , 13, 13, 13
38.1644133, -120.1139031, 37.400, 10:49:12.745, 19, 0.00, 0.16, 97, 1.000, -1.400, -84.800, 345, 100, 98, 15, 22299, -21337, 5289, 5453, 13, 14, 1526060952.745, 22, 0, 1024, 1024, 1024, 1024, 0, 6, 3695, 3696, 3733, 3758, 3686, 3744, 0, 1, 18000, -90.000, 0.000, -84.200, 0.000, 0.000, -3.000, 0.0, , , , , , 97, , , 13, 13, 13
38.1644133, -120.1139031, 37.700, 10:49:12.845, 19, 0.00, 0.17, 97, 0.900, -1.500, -84.800, 345, 100, 98, 15, 22299, -21337, 5289, 5453, 13, 14, 1526060952.846, 5, 0, 1024, 1024, 1024, 1024, 0, 6, 3695, 3696, 3733, 3758, 3686, 3744, 0, 1, 18101, -90.000, 0.000, -84.200, 0.000, 0.000, -3.000, 0.0, , , , , , 97, , , 13, 13, 13
38.1644133, -120.1139031, 38.000, 10:49:12.945, 19, 0.00, 0.17, 97, 0.900, -1.500, -84.700, 345, 100, 98, 15, 22299, -21337, 5289, 5453, 13, 14, 1526060952.946, 20, 0, 1024, 1024, 1024, 1024, 0, 6, 3695, 3696, 3733, 3758, 3686, 3744, 0, 1, 18201, -89.900, 0.000, -84.200, 0.000, 0.000, -2.900, 0.0, , , , , , 97, , , 13, 13, 13
38.1644133, -120.1139031, 38.000, 10:49:13.045, 19, 0.00, 0.17, 97, 0.900, -1.500, -84.700, 345, 100, 98, 15, 22299, -21337, 5289, 5453, 13, 14, 1526060953.046, 120, 0, 1024, 1024, 1024, 1024, 0, 6, 3695, 3696, 3733, 3758, 3686, 3744, 0, 1, 18301, -89.900, 0.000, -84.200, 0.000, 0.000, -2.900, 0.0, , , , , , 97, , , 13, 13, 13
38.1644133, -120.1139031, 38.300, 10:49:13.145, 19, 0.00, 0.17, 97, 1.000, -1.300, -84.800, 345, 100, 98, 15, 22299, -21337, 5289, 5453, 13, 14, 1526060953.146, 90, 0, 1024, 1024, 1024, 1024, 0, 6, 3695, 3696, 3733, 3758, 3686, 3744, 0, 1, 18401, -89.900, 0.000, -84.200, 0.000, 0.000, -3.000, 0.0, , , , , , 97, , , 13, 13, 13
38.1644133, -120.1139031, 39.200, 10:49:13.245, 19, 0.00, 0.16, 97, 1.400, -0.700, -85.300, 345, 100, 98, 15, 22299, -21337, 5289, 5453, 13, 14, 1526060953.246, 14, 0, 1024, 1024, 1024, 1024, 0, 6, 3695, 3696, 3733, 3758, 3686, 3744, 0, 1, 18501, -89.900, 0.000, -84.200, 0.000, 0.000, -3.000, 0.0, , , , , , 97, , , 13, 13, 13
38.1644133, -120.1139031, 39.200, 10:49:13.345, 19, 0.00, 0.16, 97, 1.400, -0.700, -85.300, 345, 100, 98, 15, 22299, -21337, 5289, 5453, 13, 14, 1526060953.346, 114, 0, 1024, 1024, 1024, 1024, 0, 6, 3695, 3696, 3733, 3758, 3686, 3744, 0, 1, 18601, -89.900, 0.000, -84.200, 0.000, 0.000, -3.000, 0.0, , , , , , 97, , , 13, 13, 13
38.1644134, -120.1139032, 39.800, 10:49:13.456, 19, 0.00, 0.15, 97, 0.500, -0.700, -85.400, 345, 100, 98, 15, 22235, -21682, 5289, 5453, 13, 14, 1526060953.456, 13, 0, 1024, 1024, 1024, 1024, 0, 6, 3695, 3696, 3733, 3758, 3686, 3744, 0, 1, 18711, -89.900, 0.000, -84.200, 0.000, 0.000, -3.000, 0.0, , , , , , 97, , , 13, 13, 13
38.1644134, -120.1139032, 40.100, 10:49:13.551, 19, 0.00, 0.15, 97, 0.300, -0.700, -85.400, 345, 100, 97, 15, 22235, -21682, 5289, 5453, 13, 14, 1526060953.552, 5, 0, 1024, 1024, 1024, 1024, 0, 6, 3674, 3692, 3726, 3741, 3672, 3735, 0, 1, 18806, -89.900, 0.000, -84.200, 0.000, 0.000, -3.000, 0.0, , , , , , 97, , , 13, 13, 13
38.1644134, -120.1139032, 40.100, 10:49:13.646, 19, 0.00, 0.15, 97, 0.300, -0.700, -85.400, 345, 100, 97, 15, 22235, -21682, 5289, 5453, 13, 14, 1526060953.646, 100, 0, 1024, 1024, 1024, 1024, 0, 6, 3674, 3692, 3726, 3741, 3672, 3735, 0, 1, 18901, -89.900, 0.000, -84.200, 0.000, 0.000, -3.000, 0.0, , , , , , 97, , , 13, 13, 13
38.1644134, -120.1139032, 40.400, 10:49:13.745, 19, 0.00, 0.14, 97, 0.200, -0.700, -85.300, 345, 100, 97, 15, 22235, -21682, 5289, 5453, 13, 14, 1526060953.746, 32, 0, 1024, 1024, 1024, 1024, 0, 6, 3674, 3692, 3726, 3741, 3672, 3735, 0, 1, 19001, -89.900, 0.000, -84.200, 0.000, 0.000, -3.000, 0.0, , , , , , 97, , , 13, 13, 13
38.1644135, -120.1139032, 40.700, 10:49:13.845, 19, 0.00, 0.14, 97, 0.000, -0.700, -85.200, 345, 100, 97, 15, 22235, -21682, 5289, 5453, 13, 14, 1526060953.846, 63, 0, 1024, 1024, 1024, 1024, 0, 6, 3674, 3692, 3726, 3741, 3672, 3735, 0, 1, 19101, -89.900, 0.000, -84.200, 0.000, 0.000, -3.000, 0.0, , , , , , 97, , , 13, 13, 13
38.1644135, -120.1139032, 41.000, 10:49:13.945, 19, 0.00, 0.14, 97, 0.100, -0.700, -85.100, 345, 100, 97, 15, 22235, -21682, 5289, 5453, 13, 14, 1526060953.946, 65, 0, 1024, 1024, 1024, 1024, 0, 6, 3674, 3692, 3726, 3741, 3672, 3735, 0, 1, 19201, -90.000, 0.000, -84.200, 0.000, 0.000, -3.000, 0.0, , , , , , 97, , , 13, 13, 13
38.1644135, -120.1139032, 41.300, 10:49:14.045, 19, 0.00, 0.14, 97, 0.300, -0.800, -85.100, 345, 100, 97, 15, 22235, -21682, 5289, 5453, 13, 14, 1526060954.046, 56, 0, 1024, 1024, 1024, 1024, 0, 6, 3674, 3692, 3726, 3741, 3672, 3735, 0, 1, 19300, -90.000, 0.000, -84.200, 0.000, 0.000, -3.000, 0.0, , , , , , 97, , , 13, 13, 13
38.1644135, -120.1139032, 41.600, 10:49:14.145, 19, 0.00, 0.14, 97, 0.500, -0.900, -85.100, 345, 100, 97, 15, 22235, -21682, 5289, 5453, 13, 14, 1526060954.146, 57, 0, 1024, 1024, 1024, 1024, 0, 6, 3674, 3692, 3726, 3741, 3672, 3735, 0, 1, 19401, -90.000, 0.000, -84.200, 0.000, 0.000, -3.000, 0.0, , , , , , 97, , , 13, 13, 13
38.1644135, -120.1139032, 41.900, 10:49:14.245, 19, 0.00, 0.14, 97, 0.600, -1.000, -85.100, 345, 100, 97, 15, 22235, -21682, 5289, 5453, 13, 14, 1526060954.246, 48, 0, 1024, 1024, 1024, 1024, 0, 6, 3674, 3692, 3726, 3741, 3672, 3735, 0, 1, 19501, -90.000, 0.000, -84.200, 0.000, 0.000, -3.000, 0.0, , , , , , 97, , , 13, 13, 13
38.1644135, -120.1139031, 42.200, 10:49:14.345, 19, 0.00, 0.14, 97, 0.600, -1.200, -85.200, 345, 100, 97, 15, 22235, -21682, 5289, 5453, 13, 14, 1526060954.345, 23, 0, 1024, 1024, 1024, 1024, 0, 6, 3674, 3692, 3726, 3741, 3672, 3735, 0, 1, 19600, -90.000, 0.000, -84.200, 0.000, 0.000, -3.000, 0.0, , , , , , 97, , , 13, 13, 13
38.1644135, -120.1139031, 42.500, 10:49:14.445, 19, 0.00, 0.14, 97, 0.800, -1.200, -85.200, 345, 100, 97, 15, 22269, -20951, 5289, 5453, 13, 14, 1526060954.446, 38, 0, 1024, 1024, 1024, 1024, 0, 6, 3690, 3707, 3730, 3748, 3677, 3737, 0, 1, 19701, -89.900, 0.000, -84.200, 0.000, 0.000, -3.000, 0.0, , , , , , 97, , , 13, 13, 13
38.1644135, -120.1139031, 42.800, 10:49:14.545, 19, 0.00, 0.14, 97, 0.900, -1.200, -85.200, 345, 100, 97, 15, 22269, -20951, 5289, 5453, 13, 14, 1526060954.546, 29, 0, 1024, 1024, 1024, 1024, 0, 6, 3690, 3707, 3730, 3748, 3677, 3737, 0, 1, 19801, -89.900, 0.000, -84.200, 0.000, 0.000, -3.000, 0.0, , , , , , 97, , , 13, 13, 13
38.1644135, -120.1139031, 43.100, 10:49:14.645, 19, 0.00, 0.14, 97, 0.800, -1.200, -85.200, 345, 100, 97, 15, 22269, -20951, 5289, 5453, 13, 14, 1526060954.646, 36, 0, 1024, 1024, 1024, 1024, 0, 6, 3690, 3707, 3730, 3748, 3677, 3737, 0, 1, 19901, -90.000, 0.000, -84.200, 0.000, 0.000, -3.000, 0.0, , , , , , 97, , , 13, 13, 13
38.1644135, -120.1139030, 43.400, 10:49:14.745, 19, 0.00, 0.15, 97, 0.700, -1.300, -85.100, 345, 100, 97, 15, 22269, -20951, 5289, 5453, 13, 14, 1526060954.746, 11, 0, 1024, 1024, 1024, 1024, 0, 6, 3690, 3707, 3730, 3748, 3677, 3737, 0, 1, 20001, -90.000, 0.000, -84.200, 0.000, 0.000, -2.900, 0.0, , , , , , 97, , , 13, 13, 13
38.1644135, -120.1139030, 43.700, 10:49:14.845, 19, 0.00, 0.15, 97, 0.700, -1.300, -85.100, 345, 100, 97, 15, 22269, -20951, 5289, 5453, 13, 14, 1526060954.846, 30, 0, 1024, 1024, 1024, 1024, 0, 6, 3690, 3707, 3730, 3748, 3677, 3737, 0, 1, 20101, -90.000, 0.000, -84.200, 0.000, 0.000, -2.900, 0.0, , , , , , 97, , , 13, 13, 13
38.1644135, -120.1139030, 44.000, 10:49:14.945, 19, 0.00, 0.15, 97, 0.800, -1.400, -85.100, 345, 100, 97, 15, 22269, -20951, 5289, 5453, 13, 14, 1526060954.946, 37, 0, 1024, 1024, 1024, 1024, 0, 6, 3690, 3707, 3730, 3748, 3677, 3737, 0, 1, 20201, -90.000, 0.000, -84.200, 0.000, 0.000, -2.900, 0.0, , , , , , 97, , , 13, 13, 13
38.1644135, -120.1139029, 44.300, 10:49:15.045, 19, 0.00, 0.15, 97, 0.900, -1.600, -85.100, 345, 100, 94, 15, 22269, -20951, 5289, 5453, 13, 14, 1526060955.046, 22, 0, 1024, 1024, 1024, 1024, 0, 6, 3690, 3707, 3730, 3748, 3677, 3737, 0, 1, 20301, -90.000, 0.000, -84.200, 0.000, 0.000, -3.000, 0.0, , , , , , 97, , , 13, 13, 13
38.1644134, -120.1139029, 44.700, 10:49:15.145, 19, 0.00, 0.16, 97, 1.100, -1.700, -85.000, 345, 100, 94, 15, 22269, -20951, 5289, 5453, 13, 14, 1526060955.146, 21, 0, 1024, 1024, 1024, 1024, 0, 6, 3690, 3707, 3730, 3748, 3677, 3737, 0, 1, 20401, -90.000, 0.000, -84.200, 0.000, 0.000, -3.000, 0.0, , , , , , 97, , , 13, 13, 13
38.1644134, -120.1139029, 45.000, 10:49:15.245, 19, 0.00, 0.16, 97, 1.200, -1.600, -85.000, 345, 100, 94, 15, 22269, -20951, 5289, 5453, 13, 14, 1526060955.246, 22, 0, 1024, 1024, 1024, 1024, 0, 6, 3690, 3707, 3730, 3748, 3677, 3737, 0, 1, 20501, -89.900, 0.000, -84.200, 0.000, 0.000, -2.900, 0.0, , , , , , 97, , , 13, 13, 13
38.1644134, -120.1139029, 45.500, 10:49:15.348, 19, 0.00, 0.16, 97, 1.400, -1.300, -85.100, 345, 100, 94, 15, 22269, -20951, 5289, 5453, 13, 14, 1526060955.348, 4, 0, 1024, 1024, 1024, 1024, 0, 6, 3690, 3707, 3730, 3748, 3677, 3737, 0, 1, 20603, -89.900, 0.000, -84.200, 0.000, 0.000, -2.900, 0.0, , , , , , 97, , , 13, 13, 13
38.1644134, -120.1139029, 45.500, 10:49:15.445, 19, 0.00, 0.16, 97, 1.400, -1.300, -85.100, 345, 100, 94, 15, 22269, -20951, 5289, 5453, 13, 14, 1526060955.446, 102, 0, 1024, 1024, 1024, 1024, 0, 6, 3690, 3707, 3730, 3748, 3677, 3737, 0, 1, 20701, -89.900, 0.000, -84.200, 0.000, 0.000, -2.900, 0.0, , , , , , 97, , , 13, 13, 13
38.1644134, -120.1139029, 45.800, 10:49:15.545, 19, 0.00, 0.16, 97, 1.300, -1.300, -85.100, 345, 100, 94, 15, 22270, -20639, 5289, 5453, 13, 14, 1526060955.546, 88, 0, 1024, 1024, 1024, 1024, 0, 6, 3682, 3700, 3724, 3755, 3678, 3734, 0, 1, 20801, -90.000, 0.000, -84.200, 0.000, 0.000, -2.900, 0.0, , , , , , 97, , , 13, 13, 13
38.1644134, -120.1139029, 46.100, 10:49:15.645, 19, 0.00, 0.16, 97, 1.200, -1.400, -85.100, 345, 100, 94, 15, 22270, -20639, 5289, 5453, 13, 14, 1526060955.646, 77, 0, 1024, 1024, 1024, 1024, 0, 6, 3682, 3700, 3724, 3755, 3678, 3734, 0, 1, 20901, -89.900, 0.000, -84.200, 0.000, 0.000, -2.900, 0.0, , , , , , 97, , , 13, 13, 13
38.1644134, -120.1139029, 46.100, 10:49:15.745, 19, 0.00, 0.16, 97, 1.200, -1.400, -85.100, 345, 100, 94, 15, 22270, -20639, 5289, 5453, 13, 14, 1526060955.746, 177, 0, 1024, 1024, 1024, 1024, 0, 6, 3682, 3700, 3724, 3755, 3678, 3734, 0, 1, 21001, -89.900, 0.000, -84.200, 0.000, 0.000, -2.900, 0.0, , , , , , 97, , , 13, 13, 13
