Latitude, Longitude, Altitude (m), Time, Sats, Speed (m/s), Range (m), Battery (%), Roll (deg), Pitch (deg), Yaw (deg), Images, HD Signal (%), RC Signal (%), Battery Temp (C), Battery Voltage (mV), Battery Current (mA), Battery Energy (mAh), Battery Capacity (mAh), Battery Discharges, flyState, timestamp (Unix), LastUpdate (ms), radioChannel, Rc_elevator, Rc_aileron, Rc_throttle, Rc_rudder, Rc_gyro, Dronetype, Battery_Cell1 (mV), Battery_Cell2 (mV), Battery_Cell3 (mV), Battery_Cell4 (mV), Battery_Cell5 (mV), Battery_Cell6 (mV), Video, isFlying, elapsedTime (ms), gimbalPitch (deg), gimbalRoll (deg), gimbalYaw (deg), VelocityX (m/s), VelocityY (m/s), VelocityZ (m/s), GroundSmear (cm), App Version, Aircraft Name, Aircraft Firmware, Aircraft Serial Number, Battery Serial Number, Battery Lifetime (%), App_Tip, App_Warning, CurrentFlightStartingIndex, CurrentFlightLastVisitedWaypoint, PreviousFlightEndingWaypointIndex
36.0028541, -118.5646365, 0.000, 10:13:39.235, 13, 0.00, 0.08, 97, 0.100, 0.600, 52.500, 657, 100, 100, 18, 25314, -3908, 5197, 5358, 18, 11, 1530724419.236, 45, 0, 1024, 1024, 1024, 1024, 0, 6, 4207, 4247, 4232, 4231, 4223, 4228, 0, 1, 3134, -89.900, 0.000, 52.900, 0.000, 0.000, 0.000, 0.0, MapPilot_2.8.1_04242018, Dendroctonus I, 1.3.1.00, 041DDC1887, 1058163200459, 96, DJI_0656.jpg, Starting Mission from Lat/Long: 36.00286/-118.56464 Camera: Zenmuse X3 - Overlap: 90/90 - Active Connection: No, 27, 27, 27
36.0028541, -118.5646365, 0.000, 10:13:39.302, 13, 0.00, 0.08, 97, 0.100, 0.600, 52.500, 657, 100, 100, 18, 25314, -3908, 5197, 5358, 18, 11, 1530724419.302, 112, 0, 1024, 1024, 1024, 1024, 0, 6, 4207, 4247, 4232, 4231, 4223, 4228, 0, 1, 3201, -89.900, 0.000, 52.900, 0.000, 0.000, 0.000, 0.0, , , , , , 96, , , 27, 27, 27
36.0028540, -118.5646365, 0.000, 10:13:39.403, 12, 0.00, 0.09, 97, 0.200, 0.100, 52.600, 657, 100, 100, 18, 25314, -3908, 5197, 5358, 18, 11, 1530724419.403, 95, 0, 1024, 1024, 1024, 1024, 0, 6, 4207, 4247, 4232, 4231, 4223, 4228, 0, 1, 3301, -89.900, 0.000, 52.900, 0.000, 0.000, -0.300, 0.0, , , , , , 96, , , 27, 27, 27
36.0028540, -118.5646365, 0.000, 10:13:39.502, 12, 0.00, 0.10, 97, 0.000, 0.000, 52.600, 657, 100, 100, 18, 25314, -3908, 5197, 5358, 18, 11, 1530724419.502, 98, 0, 1024, 1024, 1024, 1024, 0, 6, 4207, 4247, 4232, 4231, 4223, 4228, 0, 1, 3401, -89.900, 0.000, 52.900, 0.000, 0.000, -0.400, 0.0, , , , , , 96, , , 27, 27, 27
36.0028540, -118.5646365, 0.100, 10:13:39.602, 12, 0.00, 0.11, 97, 0.000, -0.200, 52.600, 657, 100, 100, 18, 24618, -9449, 5197, 5358, 18, 11, 1530724419.602, 78, 0, 1024, 1024, 1024, 1024, 0, 6, 4047, 4063, 4037, 4032, 4026, 4065, 0, 1, 3501, -89.900, 0.000, 52.900, 0.000, 0.000, -0.400, 0.0, , , , , , 96, , , 27, 27, 27
36.0028539, -118.5646364, 0.100, 10:13:39.702, 12, 0.00, 0.11, 97, 0.100, -0.200, 52.500, 657, 100, 100, 18, 24618, -9449, 5197, 5358, 18, 11, 1530724419.702, 81, 0, 1024, 1024, 1024, 1024, 0, 6, 4047, 4063, 4037, 4032, 4026, 4065, 0, 1, 3600, -89.900, 0.000, 52.900, 0.000, 0.000, -0.400, 0.0, , , , , , 96, , , 27, 27, 27
36.0028539, -118.5646363, 0.200, 10:13:39.802, 12, 0.00, 0.11, 97, 0.100, -0.100, 52.500, 657, 100, 100, 18, 24618, -9449, 5197, 5358, 18, 11, 1530724419.802, 85, 0, 1024, 1024, 1024, 1024, 0, 6, 4047, 4063, 4037, 4032, 4026, 4065, 0, 1, 3700, -89.900, 0.000, 52.900, 0.000, 0.000, -0.400, 0.0, , , , , , 96, , , 27, 27, 27
36.0028539, -118.5646363, 0.200, 10:13:39.902, 12, 0.00, 0.12, 97, 0.200, 0.100, 52.400, 657, 100, 100, 18, 24618, -9449, 5197, 5358, 18, 11, 1530724419.902, 78, 0, 1024, 1024, 1024, 1024, 0, 6, 4047, 4063, 4037, 4032, 4026, 4065, 0, 1, 3801, -89.900, 0.000, 52.900, 0.000, 0.000, -0.300, 0.0, , , , , , 96, , , 27, 27, 27
36.0028539, -118.5646362, 0.300, 10:13:40.002, 12, 0.00, 0.12, 97, 0.000, 0.400, 52.400, 657, 100, 100, 18, 24618, -9449, 5197, 5358, 18, 11, 1530724420.003, 70, 0, 1024, 1024, 1024, 1024, 0, 6, 4047, 4063, 4037, 4032, 4026, 4065, 0, 1, 3901, -89.900, 0.000, 52.900, 0.000, 0.000, -0.300, 0.0, , , , , , 96, , , 27, 27, 27
36.0028539, -118.5646361, 0.300, 10:13:40.101, 12, 0.00, 0.13, 97, -0.200, 0.500, 52.400, 657, 100, 100, 18, 24618, -9449, 5197, 5358, 18, 11, 1530724420.102, 69, 0, 1024, 1024, 1024, 1024, 0, 6, 4047, 4063, 4037, 4032, 4026, 4065, 0, 1, 4000, -89.900, 0.000, 52.900, 0.000, 0.000, -0.400, 0.0, , , , , , 96, , , 27, 27, 27
36.0028538, -118.5646361, 0.400, 10:13:40.202, 12, 0.00, 0.13, 97, -0.200, 0.400, 52.400, 657, 100, 100, 18, 24618, -9449, 5197, 5358, 18, 11, 1530724420.202, 75, 0, 1024, 1024, 1024, 1024, 0, 6, 4047, 4063, 4037, 4032, 4026, 4065, 0, 1, 4101, -89.900, 0.000, 52.900, 0.000, 0.000, -0.300, 0.0, , , , , , 96, , , 27, 27, 27
36.0028538, -118.5646361, 0.400, 10:13:40.302, 12, 0.00, 0.14, 97, -0.300, 0.300, 52.400, 657, 100, 100, 18, 24618, -9449, 5197, 5358, 18, 11, 1530724420.303, 59, 0, 1024, 1024, 1024, 1024, 0, 6, 4047, 4063, 4037, 4032, 4026, 4065, 0, 1, 4201, -89.900, 0.000, 52.900, 0.000, 0.000, -0.400, 0.0, , , , , , 96, , , 27, 27, 27
36.0028538, -118.5646361, 0.400, 10:13:40.402, 12, 0.00, 0.14, 97, -0.400, 0.200, 52.400, 657, 100, 100, 18, 24618, -9449, 5197, 5358, 18, 11, 1530724420.403, 60, 0, 1024, 1024, 1024, 1024, 0, 6, 4047, 4063, 4037, 4032, 4026, 4065, 0, 1, 4301, -89.900, 0.000, 52.900, 0.000, 0.000, -0.400, 0.0, , , , , , 96, , , 27, 27, 27
36.0028538, -118.5646361, 0.500, 10:13:40.502, 12, 0.00, 0.14, 97, -0.500, 0.200, 52.400, 657, 100, 100, 18, 24618, -9449, 5197, 5358, 18, 11, 1530724420.503, 49, 0, 1024, 1024, 1024, 1024, 0, 6, 4047, 4063, 4037, 4032, 4026, 4065, 0, 1, 4401, -89.900, 0.000, 52.900, 0.000, 0.000, -0.400, 0.0, , , , , , 96, , , 27, 27, 27
36.0028538, -118.5646361, 0.500, 10:13:40.602, 12, 0.00, 0.14, 97, -0.300, 0.100, 52.500, 657, 100, 100, 18, 23609, -16604, 5197, 5358, 18, 11, 1530724420.602, 41, 0, 1024, 1024, 1024, 1024, 0, 6, 3909, 3922, 3938, 3902, 3910, 3940, 0, 1, 4500, -89.900, 0.000, 52.900, 0.000, 0.000, -0.400, 0.0, , , , , , 96, , , 27, 27, 27
36.0028538, -118.5646361, 0.600, 10:13:40.702, 11, 0.00, 0.14, 97, -0.200, 0.000, 52.600, 657, 100, 100, 18, 23609, -16604, 5197, 5358, 18, 11, 1530724420.702, 34, 0, 1024, 1024, 1024, 1024, 0, 6, 3909, 3922, 3938, 3902, 3910, 3940, 0, 1, 4601, -89.900, 0.000, 52.900, 0.000, 0.000, -0.400, 0.0, , , , , , 96, , , 27, 27, 27
36.0028537, -118.5646361, 0.600, 10:13:40.802, 11, 0.00, 0.14, 97, -0.100, 0.000, 52.700, 657, 100, 100, 18, 23609, -16604, 5197, 5358, 18, 11, 1530724420.802, 41, 0, 1024, 1024, 1024, 1024, 0, 6, 3909, 3922, 3938, 3902, 3910, 3940, 0, 1, 4701, -89.900, 0.000, 52.900, 0.000, 0.000, -0.400, 0.0, , , , , , 96, , , 27, 27, 27
36.0028538, -118.5646361, 0.700, 10:13:40.902, 12, 0.00, 0.14, 97, 0.000, 0.000, 52.900, 657, 100, 100, 18, 23609, -16604, 5197, 5358, 18, 11, 1530724420.902, 31, 0, 1024, 1024, 1024, 1024, 0, 6, 3909, 3922, 3938, 3902, 3910, 3940, 0, 1, 4801, -89.900, 0.000, 52.900, 0.000, 0.000, -0.500, 0.0, , , , , , 96, , , 27, 27, 27
36.0028538, -118.5646361, 0.700, 10:13:41.002, 12, 0.00, 0.13, 97, 0.000, 0.000, 52.900, 657, 100, 100, 18, 23609, -16604, 5197, 5358, 18, 11, 1530724421.002, 37, 0, 1024, 1024, 1024, 1024, 0, 6, 3909, 3922, 3938, 3902, 3910, 3940, 0, 1, 4901, -89.900, 0.000, 52.900, 0.000, 0.000, -0.500, 0.0, , , , , , 96, , , 27, 27, 27
36.0028538, -118.5646362, 0.800, 10:13:41.102, 12, 0.00, 0.13, 97, 0.100, 0.000, 53.000, 657, 100, 100, 18, 23609, -16604, 5197, 5358, 18, 11, 1530724421.102, 25, 0, 1024, 1024, 1024, 1024, 0, 6, 3909, 3922, 3938, 3902, 3910, 3940, 0, 1, 5000, -89.900, 0.000, 52.900, 0.000, 0.000, -0.500, 0.0, , , , , , 96, , , 27, 27, 27
36.0028538, -118.5646362, 0.900, 10:13:41.202, 12, 0.00, 0.12, 97, 0.200, 0.100, 53.000, 657, 100, 100, 18, 23609, -16604, 5197, 5358, 18, 11, 1530724421.202, 18, 0, 1024, 1024, 1024, 1024, 0, 6, 3909, 3922, 3938, 3902, 3910, 3940, 0, 1, 5101, -89.900, 0.000, 52.900, 0.000, 0.000, -0.500, 0.0, , , , , , 96, , , 27, 27, 27
36.0028538, -118.5646362, 0.900, 10:13:41.302, 13, 0.00, 0.12, 97, 0.100, 0.100, 53.000, 657, 100, 100, 18, 23609, -16604, 5197, 5358, 18, 14, 1530724421.302, 10, 0, 1024, 1024, 1024, 1024, 0, 6, 3909, 3922, 3938, 3902, 3910, 3940, 0, 1, 5200, -89.900, 0.000, 52.900, 0.000, 0.000, -0.400, 0.0, , , , , , 96, , , 27, 27, 27
36.0028539, -118.5646362, 0.900, 10:13:41.402, 13, 0.00, 0.13, 97, 0.200, 0.200, 52.900, 657, 100, 100, 18, 23609, -16604, 5197, 5358, 18, 14, 1530724421.402, 9, 0, 1024, 1024, 1024, 1024, 0, 6, 3909, 3922, 3938, 3902, 3910, 3940, 0, 1, 5300, -89.900, 0.000, 52.900, 0.000, 0.000, -0.300, 0.0, , , , , , 96, , , 27, 27, 27
36.0028539, -118.5646362, 1.000, 10:13:41.502, 13, 0.00, 0.12, 97, 0.400, 0.300, 52.900, 657, 100, 100, 18, 23332, -17469, 5197, 5358, 18, 14, 1530724421.502, 4, 0, 1024, 1024, 1024, 1024, 0, 6, 3909, 3922, 3938, 3902, 3910, 3940, 0, 1, 5401, -89.900, 0.000, 52.900, 0.000, 0.000, -0.300, 0.0, , , , , , 96, , , 27, 27, 27
36.0028539, -118.5646363, 1.100, 10:13:41.602, 13, 0.00, 0.11, 97, 0.600, 0.000, 53.000, 657, 100, 100, 18, 23332, -17469, 5197, 5358, 18, 14, 1530724421.602, 2, 0, 1024, 1024, 1024, 1024, 0, 6, 3909, 3922, 3938, 3902, 3910, 3940, 0, 1, 5501, -89.900, 0.000, 52.900, 0.000, 0.000, -0.300, 0.0, , , , , , 96, , , 27, 27, 27
36.0028539, -118.5646363, 1.100, 10:13:41.702, 13, 0.00, 0.11, 97, 0.600, 0.000, 53.000, 657, 100, 100, 18, 23332, -17469, 5197, 5358, 18, 14, 1530724421.702, 102, 0, 1024, 1024, 1024, 1024, 0, 6, 3909, 3922, 3938, 3902, 3910, 3940, 0, 1, 5601, -89.900, 0.000, 52.900, 0.000, 0.000, -0.300, 0.0, , , , , , 96, , , 27, 27, 27
36.0028539, -118.5646363, 1.100, 10:13:41.802, 13, 0.00, 0.12, 97, 0.500, 0.000, 53.000, 657, 100, 100, 18, 23332, -17469, 5197, 5358, 18, 14, 1530724421.802, 61, 0, 1024, 1024, 1024, 1024, 0, 6, 3909, 3922, 3938, 3902, 3910, 3940, 0, 1, 5700, -90.000, 0.000, 52.900, 0.000, 0.000, -0.400, 0.0, , , , , , 96, , , 27, 27, 27
36.0028539, -118.5646364, 1.200, 10:13:41.901, 13, 0.00, 0.11, 97, 0.300, 0.000, 53.000, 657, 100, 100, 18, 23332, -17469, 5197, 5358, 18, 14, 1530724421.902, 97, 0, 1024, 1024, 1024, 1024, 0, 6, 3909, 3922, 3938, 3902, 3910, 3940, 0, 1, 5800, -89.900, 0.000, 52.900, 0.000, 0.000, -0.600, 0.0, , , , , , 96, , , 27, 27, 27
36.0028539, -118.5646364, 1.200, 10:13:42.002, 13, 0.00, 0.11, 97, 0.200, 0.000, 53.100, 657, 100, 100, 18, 23332, -17469, 5197, 5358, 18, 14, 1530724422.003, 100, 0, 1024, 1024, 1024, 1024, 0, 6, 3909, 3922, 3938, 3902, 3910, 3940, 0, 1, 5901, -89.900, 0.000, 52.900, 0.000, 0.000, -0.700, 0.0, , , , , , 96, , , 27, 27, 27
36.0028539, -118.5646365, 1.300, 10:13:42.101, 13, 0.00, 0.11, 97, 0.200, -0.100, 53.100, 657, 100, 100, 18, 23332, -17469, 5197, 5358, 18, 14, 1530724422.101, 85, 0, 1024, 1024, 1024, 1024, 0, 6, 3858, 3882, 3916, 3869, 3866, 3905, 0, 1, 5999, -90.000, 0.000, 52.900, 0.000, 0.000, -0.900, 0.0, , , , , , 96, , , 27, 27, 27
36.0028540, -118.5646366, 1.400, 10:13:42.202, 13, 0.00, 0.10, 97, 0.300, -0.100, 53.100, 657, 100, 100, 18, 23332, -17469, 5197, 5358, 18, 14, 1530724422.202, 99, 0, 1024, 1024, 1024, 1024, 0, 6, 3858, 3882, 3916, 3869, 3866, 3905, 0, 1, 6100, -89.900, 0.000, 52.900, 0.000, 0.000, -1.000, 0.0, , , , , , 96, , , 27, 27, 27
36.0028540, -118.5646366, 1.500, 10:13:42.302, 13, 0.00, 0.10, 97, 0.400, -0.200, 53.000, 657, 100, 100, 18, 23332, -17469, 5197, 5358, 18, 14, 1530724422.303, 80, 0, 1024, 1024, 1024, 1024, 0, 6, 3858, 3882, 3916, 3869, 3866, 3905, 0, 1, 6201, -90.000, 0.000, 52.900, 0.000, 0.000, -1.200, 0.0, , , , , , 96, , , 27, 27, 27
36.0028540, -118.5646366, 1.600, 10:13:42.402, 13, 0.00, 0.10, 97, 0.500, -0.100, 52.900, 657, 100, 100, 18, 23332, -17469, 5197, 5358, 18, 14, 1530724422.402, 68, 0, 1024, 1024, 1024, 1024, 0, 6, 3858, 3882, 3916, 3869, 3866, 3905, 0, 1, 6300, -89.900, 0.000, 52.900, 0.000, 0.000, -1.400, 0.0, , , , , , 96, , , 27, 27, 27
36.0028540, -118.5646366, 1.800, 10:13:42.502, 13, 0.00, 0.09, 97, 0.500, 0.000, 52.800, 657, 100, 100, 18, 23332, -17469, 5197, 5358, 18, 14, 1530724422.502, 71, 0, 1024, 1024, 1024, 1024, 0, 6, 3858, 3882, 3916, 3869, 3866, 3905, 0, 1, 6400, -89.900, 0.000, 52.900, 0.000, 0.000, -1.700, 0.0, , , , , , 96, , , 27, 27, 27
36.0028541, -118.5646366, 2.000, 10:13:42.602, 13, 0.00, 0.09, 97, 0.400, 0.100, 52.700, 657, 100, 100, 18, 23332, -17469, 5197, 5358, 18, 14, 1530724422.602, 60, 0, 1024, 1024, 1024, 1024, 0, 6, 3858, 3882, 3916, 3869, 3866, 3905, 0, 1, 6500, -89.900, 0.000, 52.900, 0.000, 0.000, -2.000, 0.0, , , , , , 96, , , 27, 27, 27
36.0028541, -118.5646365, 2.200, 10:13:42.702, 13, 0.00, 0.09, 97, 0.200, 0.000, 52.600, 657, 100, 100, 18, 23332, -17469, 5197, 5358, 18, 14, 1530724422.702, 76, 0, 1024, 1024, 1024, 1024, 0, 6, 3858, 3882, 3916, 3869, 3866, 3905, 0, 1, 6600, -89.900, 0.000, 52.900, 0.000, 0.000, -2.300, 0.0, , , , , , 96, , , 27, 27, 27
36.0028541, -118.5646365, 2.500, 10:13:42.802, 13, 0.00, 0.09, 97, 0.300, 0.000, 52.700, 657, 100, 100, 18, 23332, -17469, 5197, 5358, 18, 14, 1530724422.802, 64, 0, 1024, 1024, 1024, 1024, 0, 6, 3858, 3882, 3916, 3869, 3866, 3905, 0, 1, 6700, -89.900, 0.000, 52.900, 0.000, 0.000, -2.600, 0.0, , , , , , 96, , , 27, 27, 27
36.0028542, -118.5646364, 2.800, 10:13:42.902, 13, 0.00, 0.08, 97, 0.400, 0.000, 52.700, 657, 100, 100, 18, 23332, -17469, 5197, 5358, 18, 14, 1530724422.902, 54, 0, 1024, 1024, 1024, 1024, 0, 6, 3858, 3882, 3916, 3869, 3866, 3905, 0, 1, 6801, -89.900, 0.000, 52.900, 0.000, 0.000, -2.700, 0.0, , , , , , 96, , , 27, 27, 27
36.0028542, -118.5646363, 3.100, 10:13:43.002, 13, 0.00, 0.08, 97, 0.700, 0.100, 52.800, 657, 100, 100, 18, 23332, -17469, 5197, 5358, 18, 14, 1530724423.002, 61, 0, 1024, 1024, 1024, 1024, 0, 6, 3858, 3882, 3916, 3869, 3866, 3905, 0, 1, 6900, -89.900, 0.000, 52.900, 0.000, 0.000, -2.900, 0.0, , , , , , 96, , , 27, 27, 27
36.0028543, -118.5646362, 3.400, 10:13:43.102, 13, 0.00, 0.09, 97, 0.800, 0.300, 52.900, 657, 100, 100, 18, 23298, -16908, 5197, 5358, 18, 14, 1530724423.102, 56, 0, 1024, 1024, 1024, 1024, 0, 6, 3819, 3839, 3893, 3834, 3826, 3855, 0, 1, 7000, -89.900, 0.000, 52.900, 0.000, 0.000, -3.100, 0.0, , , , , , 96, , , 27, 27, 27
36.0028543, -118.5646361, 3.700, 10:13:43.202, 13, 0.00, 0.09, 97, 0.600, 0.500, 53.000, 657, 100, 100, 18, 23298, -16908, 5197, 5358, 18, 14, 1530724423.202, 60, 0, 1024, 1024, 1024, 1024, 0, 6, 3819, 3839, 3893, 3834, 3826, 3855, 0, 1, 7100, -89.900, 0.000, 52.900, 0.000, 0.000, -3.100, 0.0, , , , , , 96, , , 27, 27, 27
36.0028542, -118.5646360, 4.000, 10:13:43.302, 13, 0.00, 0.10, 97, 0.500, 0.600, 53.000, 657, 100, 100, 18, 23298, -16908, 5197, 5358, 18, 14, 1530724423.302, 49, 0, 1024, 1024, 1024, 1024, 0, 6, 3819, 3839, 3893, 3834, 3826, 3855, 0, 1, 7200, -89.900, 0.000, 52.900, 0.000, 0.000, -3.100, 0.0, , , , , , 96, , , 27, 27, 27
36.0028542, -118.5646359, 4.400, 10:13:43.402, 13, 0.00, 0.11, 97, 0.400, 0.600, 53.000, 657, 100, 100, 18, 23298, -16908, 5197, 5358, 18, 14, 1530724423.402, 39, 0, 1024, 1024, 1024, 1024, 0, 6, 3819, 3839, 3893, 3834, 3826, 3855, 0, 1, 7300, -89.900, 0.000, 52.900, 0.000, 0.000, -3.200, 0.0, , , , , , 96, , , 27, 27, 27
36.0028542, -118.5646357, 4.700, 10:13:43.502, 12, 0.00, 0.12, 97, 0.300, 0.600, 52.900, 657, 100, 100, 18, 23298, -16908, 5197, 5358, 18, 14, 1530724423.502, 24, 0, 1024, 1024, 1024, 1024, 0, 6, 3819, 3839, 3893, 3834, 3826, 3855, 0, 1, 7400, -89.900, 0.000, 52.900, 0.000, 0.000, -3.200, 0.0, , , , , , 96, , , 27, 27, 27
36.0028541, -118.5646356, 5.000, 10:13:43.602, 12, 0.00, 0.13, 97, 0.100, 0.600, 52.800, 657, 100, 100, 18, 23298, -16908, 5197, 5358, 18, 14, 1530724423.602, 18, 0, 1024, 1024, 1024, 1024, 0, 6, 3819, 3839, 3893, 3834, 3826, 3855, 0, 1, 7500, -89.900, 0.000, 52.900, 0.000, 0.000, -3.300, 0.0, , , , , , 96, , , 27, 27, 27
36.0028541, -118.5646356, 5.400, 10:13:43.702, 12, 0.00, 0.13, 97, 0.200, 0.600, 52.800, 657, 100, 100, 18, 23298, -16908, 5197, 5358, 18, 14, 1530724423.702, 27, 0, 1024, 1024, 1024, 1024, 0, 6, 3819, 3839, 3893, 3834, 3826, 3855, 0, 1, 7600, -89.900, 0.000, 52.900, 0.000, 0.000, -3.300, 0.0, , , , , , 96, , , 27, 27, 27
36.0028541, -118.5646357, 5.700, 10:13:43.801, 12, 0.00, 0.13, 97, 0.200, 0.400, 52.700, 657, 100, 100, 18, 23298, -16908, 5197, 5358, 18, 14, 1530724423.801, 5, 0, 1024, 1024, 1024, 1024, 0, 6, 3819, 3839, 3893, 3834, 3826, 3855, 0, 1, 7700, -89.900, 0.000, 52.900, 0.000, 0.000, -3.300, 0.0, , , , , , 96, , , 27, 27, 27
36.0028541, -118.5646356, 6.100, 10:13:43.901, 13, 0.00, 0.14, 97, 0.400, 0.200, 52.700, 657, 100, 100, 18, 23298, -16908, 5197, 5358, 18, 14, 1530724423.902, 19, 0, 1024, 1024, 1024, 1024, 0, 6, 3819, 3839, 3893, 3834, 3826, 3855, 0, 1, 7800, -89.900, 0.000, 52.900, 0.000, 0.000, -3.300, 0.0, , , , , , 96, , , 27, 27, 27
36.0028541, -118.5646356, 6.400, 10:13:44.002, 13, 0.00, 0.14, 97, 0.300, 0.100, 52.700, 657, 100, 100, 18, 22473, -24928, 5197, 5358, 18, 14, 1530724424.002, 27, 0, 1024, 1024, 1024, 1024, 0, 6, 3703, 3737, 3763, 3731, 3719, 3765, 0, 1, 7900, -89.900, 0.000, 52.900, 0.000, 0.000, -3.300, 0.0, , , , , , 96, , , 27, 27, 27
36.0028540, -118.5646358, 6.800, 10:13:44.102, 13, 0.00, 0.13, 97, 0.300, 0.100, 52.700, 657, 100, 100, 18, 22473, -24928, 5197, 5358, 18, 14, 1530724424.102, 19, 0, 1024, 1024, 1024, 1024, 0, 6, 3703, 3737, 3763, 3731, 3719, 3765, 0, 1, 8000, -89.900, 0.000, 52.900, 0.000, 0.000, -3.200, 0.0, , , , , , 96, , , 27, 27, 27
36.0028540, -118.5646361, 7.400, 10:13:44.202, 13, 0.00, 0.11, 97, 0.600, -0.400, 52.800, 657, 100, 100, 18, 22473, -24928, 5197, 5358, 18, 14, 1530724424.202, 15, 0, 1024, 1024, 1024, 1024, 0, 6, 3703, 3737, 3763, 3731, 3719, 3765, 0, 1, 8100, -90.000, 0.000, 52.900, 0.000, 0.000, -3.200, 0.0, , , , , , 96, , , 27, 27, 27
36.0028540, -118.5646363, 7.800, 10:13:44.302, 13, 0.00, 0.10, 97, 1.000, -0.600, 52.800, 657, 100, 100, 18, 22473, -24928, 5197, 5358, 18, 14, 1530724424.302, 11, 0, 1024, 1024, 1024, 1024, 0, 6, 3703, 3737, 3763, 3731, 3719, 3765, 0, 1, 8200, -90.000, 0.000, 52.900, 0.000, 0.000, -3.200, 0.0, , , , , , 96, , , 27, 27, 27
36.0028540, -118.5646363, 7.800, 10:13:44.402, 13, 0.00, 0.10, 97, 1.000, -0.600, 52.800, 657, 100, 100, 18, 22473, -24928, 5197, 5358, 18, 14, 1530724424.402, 111, 0, 1024, 1024, 1024, 1024, 0, 6, 3703, 3737, 3763, 3731, 3719, 3765, 0, 1, 8300, -90.000, 0.000, 52.900, 0.000, 0.000, -3.200, 0.0, , , , , , 96, , , 27, 27, 27
36.0028540, -118.5646363, 7.800, 10:13:44.502, 13, 0.00, 0.10, 97, 1.000, -0.600, 52.800, 657, 100, 100, 18, 22473, -24928, 5197, 5358, 18, 14, 1530724424.502, 211, 0, 1024, 1024, 1024, 1024, 0, 6, 3703, 3737, 3763, 3731, 3719, 3765, 0, 1, 8400, -90.000, 0.000, 52.900, 0.000, 0.000, -3.200, 0.0, , , , , , 96, , , 27, 27, 27
36.0028541, -118.5646367, 8.400, 10:13:44.602, 13, 0.00, 0.09, 97, 1.500, -0.800, 52.900, 657, 100, 100, 18, 22473, -24928, 5197, 5358, 18, 14, 1530724424.602, 86, 0, 1024, 1024, 1024, 1024, 0, 6, 3703, 3737, 3763, 3731, 3719, 3765, 0, 1, 8500, -90.000, 0.000, 52.900, 0.000, 0.000, -3.100, 0.0, , , , , , 96, , , 27, 27, 27
36.0028543, -118.5646370, 8.800, 10:13:44.702, 14, 0.00, 0.07, 97, 1.800, -0.700, 52.900, 657, 100, 100, 18, 22473, -24928, 5197, 5358, 18, 14, 1530724424.702, 91, 0, 1024, 1024, 1024, 1024, 0, 6, 3703, 3737, 3763, 3731, 3719, 3765, 0, 1, 8600, -90.000, 0.000, 52.900, 0.000, 0.000, -3.100, 0.0, , , , , , 96, , , 27, 27, 27
36.0028545, -118.5646374, 9.100, 10:13:44.802, 14, 0.00, 0.06, 97, 2.200, -0.600, 52.900, 657, 100, 100, 18, 22473, -24928, 5197, 5358, 18, 14, 1530724424.802, 78, 0, 1024, 1024, 1024, 1024, 0, 6, 3703, 3737, 3763, 3731, 3719, 3765, 0, 1, 8700, -89.900, 0.000, 52.900, 0.000, 0.000, -3.000, 0.0, , , , , , 96, , , 27, 27, 27
36.0028545, -118.5646375, 9.400, 10:13:44.902, 13, 0.00, 0.07, 97, 2.600, -0.500, 53.000, 657, 100, 100, 18, 22473, -24928, 5197, 5358, 18, 14, 1530724424.902, 81, 0, 1024, 1024, 1024, 1024, 0, 6, 3703, 3737, 3763, 3731, 3719, 3765, 0, 1, 8800, -89.900, 0.000, 52.900, 0.000, 0.000, -3.100, 0.0, , , , , , 96, , , 27, 27, 27
36.0028545, -118.5646376, 9.700, 10:13:45.002, 13, 0.00, 0.09, 97, 2.500, -0.500, 53.100, 657, 100, 100, 18, 22473, -24928, 5197, 5358, 18, 14, 1530724425.002, 85, 0, 1024, 1024, 1024, 1024, 0, 6, 3703, 3737, 3763, 3731, 3719, 3765, 0, 1, 8900, -89.900, 0.000, 52.900, 0.000, 0.000, -3.100, 0.0, , , , , , 96, , , 27, 27, 27
36.0028545, -118.5646378, 10.000, 10:13:45.102, 13, 0.00, 0.10, 97, 2.300, -0.600, 53.200, 657, 100, 100, 18, 22771, -20569, 5197, 5358, 18, 14, 1530724425.102, 77, 0, 1024, 1024, 1024, 1024, 0, 6, 3763, 3794, 3834, 3808, 3807, 3834, 0, 1, 9000, -89.900, 0.000, 52.900, 0.000, 0.000, -3.100, 0.0, , , , , , 96, , , 27, 27, 27
36.0028545, -118.5646380, 10.300, 10:13:45.202, 13, 0.00, 0.12, 97, 2.100, -0.800, 53.200, 657, 100, 100, 18, 22771, -20569, 5197, 5358, 18, 14, 1530724425.202, 65, 0, 1024, 1024, 1024, 1024, 0, 6, 3763, 3794, 3834, 3808, 3807, 3834, 0, 1, 9100, -90.000, 0.000, 52.900, 0.000, 0.000, -3.000, 0.0, , , , , , 96, , , 27, 27, 27
36.0028544, -118.5646381, 10.600, 10:13:45.302, 12, 0.00, 0.12, 97, 2.000, -0.900, 53.300, 657, 100, 100, 18, 22771, -20569, 5197, 5358, 18, 14, 1530724425.302, 57, 0, 1024, 1024, 1024, 1024, 0, 6, 3763, 3794, 3834, 3808, 3807, 3834, 0, 1, 9200, -90.000, 0.000, 52.900, 0.000, 0.000, -3.000, 0.0, , , , , , 96, , , 27, 27, 27
36.0028543, -118.5646381, 11.000, 10:13:45.402, 12, 0.00, 0.13, 97, 1.800, -1.000, 53.400, 657, 100, 100, 18, 22771, -20569, 5197, 5358, 18, 14, 1530724425.402, 60, 0, 1024, 1024, 1024, 1024, 0, 6, 3763, 3794, 3834, 3808, 3807, 3834, 0, 1, 9300, -89.900, 0.000, 53.000, 0.000, 0.000, -3.100, 0.0, , , , , , 96, , , 27, 27, 27
36.0028543, -118.5646381, 11.300, 10:13:45.501, 13, 0.00, 0.13, 97, 1.500, -1.000, 53.300, 657, 100, 100, 18, 22771, -20569, 5197, 5358, 18, 14, 1530724425.501, 48, 0, 1024, 1024, 1024, 1024, 0, 6, 3763, 3794, 3834, 3808, 3807, 3834, 0, 1, 9399, -89.900, 0.000, 53.000, 0.000, 0.000, -3.000, 0.0, , , , , , 96, , , 27, 27, 27
36.0028542, -118.5646381, 11.600, 10:13:45.602, 13, 0.00, 0.14, 97, 1.200, -0.800, 53.200, 657, 100, 100, 18, 22771, -20569, 5197, 5358, 18, 14, 1530724425.602, 52, 0, 1024, 1024, 1024, 1024, 0, 6, 3763, 3794, 3834, 3808, 3807, 3834, 0, 1, 9500, -89.900, 0.000, 53.000, 0.000, 0.000, -3.000, 0.0, , , , , , 96, , , 27, 27, 27
36.0028541, -118.5646381, 11.900, 10:13:45.702, 13, 0.00, 0.14, 97, 0.900, -0.600, 53.000, 657, 100, 100, 18, 22771, -20569, 5197, 5358, 18, 14, 1530724425.702, 44, 0, 1024, 1024, 1024, 1024, 0, 6, 3763, 3794, 3834, 3808, 3807, 3834, 0, 1, 9600, -89.900, 0.000, 52.900, 0.000, 0.000, -3.000, 0.0, , , , , , 96, , , 27, 27, 27
36.0028541, -118.5646381, 12.200, 10:13:45.802, 13, 0.00, 0.15, 97, 0.700, -0.400, 52.900, 657, 100, 100, 18, 22771, -20569, 5197, 5358, 18, 14, 1530724425.802, 36, 0, 1024, 1024, 1024, 1024, 0, 6, 3763, 3794, 3834, 3808, 3807, 3834, 0, 1, 9700, -89.900, 0.000, 52.900, 0.000, 0.000, -3.000, 0.0, , , , , , 96, , , 27, 27, 27
36.0028540, -118.5646381, 12.500, 10:13:45.902, 12, 0.00, 0.15, 97, 0.700, -0.300, 52.700, 657, 100, 100, 18, 22771, -20569, 5197, 5358, 18, 14, 1530724425.902, 27, 0, 1024, 1024, 1024, 1024, 0, 6, 3763, 3794, 3834, 3808, 3807, 3834, 0, 1, 9800, -89.900, 0.000, 52.900, 0.000, 0.000, -2.900, 0.0, , , , , , 96, , , 27, 27, 27
36.0028539, -118.5646381, 12.800, 10:13:46.002, 12, 0.00, 0.15, 97, 0.600, -0.400, 52.700, 657, 100, 100, 18, 22907, -19049, 5197, 5358, 18, 14, 1530724426.002, 19, 0, 1024, 1024, 1024, 1024, 0, 6, 3787, 3814, 3842, 3808, 3811, 3833, 0, 1, 9900, -89.900, 0.000, 52.900, 0.000, 0.000, -2.900, 0.0, , , , , , 96, , , 27, 27, 27
36.0028538, -118.5646380, 13.100, 10:13:46.102, 13, 0.00, 0.16, 97, 0.300, -0.500, 52.600, 657, 100, 100, 18, 22907, -19049, 5197, 5358, 18, 14, 1530724426.102, 19, 0, 1024, 1024, 1024, 1024, 0, 6, 3787, 3814, 3842, 3808, 3811, 3833, 0, 1, 10000, -89.900, 0.000, 52.900, 0.000, 0.000, -2.900, 0.0, , , , , , 96, , , 27, 27, 27
36.0028538, -118.5646380, 13.100, 10:13:46.202, 13, 0.00, 0.16, 97, 0.300, -0.500, 52.600, 657, 100, 100, 18, 22907, -19049, 5197, 5358, 18, 14, 1530724426.202, 119, 0, 1024, 1024, 1024, 1024, 0, 6, 3787, 3814, 3842, 3808, 3811, 3833, 0, 1, 10100, -89.900, 0.000, 52.900, 0.000, 0.000, -2.900, 0.0, , , , , , 96, , , 27, 27, 27
36.0028537, -118.5646380, 13.400, 10:13:46.302, 13, 0.00, 0.17, 97, 0.100, -0.600, 52.600, 657, 100, 100, 18, 22907, -19049, 5197, 5358, 18, 14, 1530724426.302, 98, 0, 1024, 1024, 1024, 1024, 0, 6, 3787, 3814, 3842, 3808, 3811, 3833, 0, 1, 10200, -90.000, 0.000, 52.900, 0.000, 0.000, -2.900, 0.0, , , , , , 96, , , 27, 27, 27
36.0028535, -118.5646379, 14.000, 10:13:46.401, 13, 0.00, 0.18, 97, -0.200, -0.800, 52.600, 657, 100, 100, 18, 22907, -19049, 5197, 5358, 18, 14, 1530724426.401, 7, 0, 1024, 1024, 1024, 1024, 0, 6, 3787, 3814, 3842, 3808, 3811, 3833, 0, 1, 10299, -89.900, 0.000, 52.900, 0.000, 0.000, -2.900, 0.0, , , , , , 96, , , 27, 27, 27
36.0028535, -118.5646379, 14.300, 10:13:46.502, 13, 0.00, 0.18, 97, -0.200, -0.700, 52.700, 657, 100, 100, 18, 22907, -19049, 5197, 5358, 18, 14, 1530724426.502, 9, 0, 1024, 1024, 1024, 1024, 0, 6, 3787, 3814, 3842, 3808, 3811, 3833, 0, 1, 10400, -89.900, 0.000, 53.000, 0.000, 0.000, -2.900, 0.0, , , , , , 96, , , 27, 27, 27
36.0028535, -118.5646379, 14.300, 10:13:46.602, 13, 0.00, 0.18, 97, -0.200, -0.700, 52.700, 657, 100, 100, 18, 22907, -19049, 5197, 5358, 18, 14, 1530724426.602, 109, 0, 1024, 1024, 1024, 1024, 0, 6, 3787, 3814, 3842, 3808, 3811, 3833, 0, 1, 10500, -89.900, 0.000, 53.000, 0.000, 0.000, -2.900, 0.0, , , , , , 96, , , 27, 27, 27
36.0028534, -118.5646379, 15.000, 10:13:46.702, 13, 0.00, 0.18, 97, 0.000, -0.600, 52.800, 657, 100, 99, 18, 22907, -19049, 5197, 5358, 18, 14, 1530724426.702, 85, 0, 1024, 1024, 1024, 1024, 0, 6, 3787, 3814, 3842, 3808, 3811, 3833, 0, 1, 10600, -89.900, 0.000, 52.900, 0.000, 0.000, -3.000, 0.0, , , , , , 96, , , 27, 27, 27
36.0028535, -118.5646377, 15.600, 10:13:46.803, 13, 0.00, 0.17, 97, 0.700, 0.000, 52.900, 657, 100, 99, 18, 22907, -19049, 5197, 5358, 18, 14, 1530724426.803, 1, 0, 1024, 1024, 1024, 1024, 0, 6, 3787, 3814, 3842, 3808, 3811, 3833, 0, 1, 10701, -89.900, 0.000, 52.900, 0.000, 0.000, -2.900, 0.0, , , , , , 96, , , 27, 27, 27
36.0028535, -118.5646377, 15.600, 10:13:46.902, 13, 0.00, 0.17, 97, 0.700, 0.000, 52.900, 657, 100, 99, 18, 22907, -19049, 5197, 5358, 18, 14, 1530724426.902, 100, 0, 1024, 1024, 1024, 1024, 0, 6, 3787, 3814, 3842, 3808, 3811, 3833, 0, 1, 10800, -89.900, 0.000, 52.900, 0.000, 0.000, -2.900, 0.0, , , , , , 96, , , 27, 27, 27
36.0028535, -118.5646376, 15.900, 10:13:47.002, 13, 0.00, 0.17, 97, 0.900, 0.300, 52.900, 657, 100, 99, 18, 22907, -19049, 5197, 5358, 18, 14, 1530724427.002, 89, 0, 1024, 1024, 1024, 1024, 0, 6, 3787, 3814, 3842, 3808, 3811, 3833, 0, 1, 10900, -89.900, 0.000, 53.000, 0.000, 0.000, -2.800, 0.0, , , , , , 96, , , 27, 27, 27
36.0028535, -118.5646375, 16.100, 10:13:47.101, 14, 0.00, 0.16, 97, 0.800, 0.600, 52.900, 657, 100, 99, 18, 22864, -19248, 5197, 5358, 18, 14, 1530724427.102, 89, 0, 1024, 1024, 1024, 1024, 0, 6, 3787, 3814, 3842, 3808, 3811, 3833, 0, 1, 11000, -89.900, 0.000, 52.900, 0.000, 0.000, -2.800, 0.0, , , , , , 96, , , 27, 27, 27
36.0028535, -118.5646375, 16.400, 10:13:47.202, 14, 0.00, 0.16, 97, 0.600, 0.500, 52.800, 657, 100, 97, 18, 22864, -19248, 5197, 5358, 18, 14, 1530724427.202, 72, 0, 1024, 1024, 1024, 1024, 0, 6, 3787, 3814, 3842, 3808, 3811, 3833, 0, 1, 11100, -89.900, 0.000, 52.900, 0.000, 0.000, -2.800, 0.0, , , , , , 96, , , 27, 27, 27
36.0028535, -118.5646374, 16.700, 10:13:47.302, 14, 0.00, 0.16, 97, 0.500, 0.300, 52.800, 657, 100, 97, 18, 22864, -19248, 5197, 5358, 18, 14, 1530724427.302, 72, 0, 1024, 1024, 1024, 1024, 0, 6, 3787, 3814, 3842, 3808, 3811, 3833, 0, 1, 11200, -89.900, 0.000, 52.900, 0.000, 0.000, -2.900, 0.0, , , , , , 96, , , 27, 27, 27
36.0028535, -118.5646374, 17.000, 10:13:47.401, 14, 0.00, 0.16, 97, 0.500, 0.000, 52.800, 657, 100, 97, 18, 22864, -19248, 5197, 5358, 18, 14, 1530724427.401, 86, 0, 1024, 1024, 1024, 1024, 0, 6, 3787, 3814, 3842, 3808, 3811, 3833, 0, 1, 11300, -89.900, 0.000, 52.900, 0.000, 0.000, -2.900, 0.0, , , , , , 96, , , 27, 27, 27
36.0028535, -118.5646374, 17.300, 10:13:47.502, 14, 0.00, 0.16, 97, 0.700, -0.100, 52.800, 657, 100, 97, 18, 22864, -19248, 5197, 5358, 18, 14, 1530724427.502, 65, 0, 1024, 1024, 1024, 1024, 0, 6, 3787, 3814, 3842, 3808, 3811, 3833, 0, 1, 11400, -89.900, 0.000, 52.900, 0.000, 0.000, -2.900, 0.0, , , , , , 96, , , 27, 27, 27
36.0028535, -118.5646373, 17.600, 10:13:47.602, 14, 0.00, 0.16, 97, 0.800, -0.100, 52.900, 657, 100, 97, 18, 22864, -19248, 5197, 5358, 18, 14, 1530724427.602, 79, 0, 1024, 1024, 1024, 1024, 0, 6, 3784, 3810, 3829, 3806, 3794, 3834, 0, 1, 11500, -89.900, 0.000, 52.900, 0.000, 0.000, -2.900, 0.0, , , , , , 96, , , 27, 27, 27
36.0028535, -118.5646373, 17.900, 10:13:47.702, 14, 0.00, 0.15, 97, 0.900, -0.100, 53.000, 657, 100, 97, 18, 22864, -19248, 5197, 5358, 18, 14, 1530724427.702, 60, 0, 1024, 1024, 1024, 1024, 0, 6, 3784, 3810, 3829, 3806, 3794, 3834, 0, 1, 11600, -89.900, 0.000, 52.900, 0.000, 0.000, -2.900, 0.0, , , , , , 96, , , 27, 27, 27
36.0028535, -118.5646372, 18.200, 10:13:47.802, 14, 0.00, 0.15, 97, 0.900, 0.000, 53.100, 657, 100, 97, 18, 22864, -19248, 5197, 5358, 18, 14, 1530724427.802, 63, 0, 1024, 1024, 1024, 1024, 0, 6, 3784, 3810, 3829, 3806, 3794, 3834, 0, 1, 11700, -89.900, 0.000, 52.900, 0.000, 0.000, -2.900, 0.0, , , , , , 96, , , 27, 27, 27
36.0028535, -118.5646372, 18.600, 10:13:47.902, 14, 0.00, 0.15, 97, 1.000, -0.200, 53.200, 657, 100, 97, 18, 22864, -19248, 5197, 5358, 18, 14, 1530724427.902, 49, 0, 1024, 1024, 1024, 1024, 0, 6, 3784, 3810, 3829, 3806, 3794, 3834, 0, 1, 11800, -90.000, 0.000, 52.900, 0.000, 0.000, -2.900, 0.0, , , , , , 96, , , 27, 27, 27
36.0028535, -118.5646372, 18.900, 10:13:48.002, 14, 0.00, 0.15, 97, 1.100, -0.400, 53.200, 657, 100, 97, 18, 22864, -19248, 5197, 5358, 18, 14, 1530724428.002, 36, 0, 1024, 1024, 1024, 1024, 0, 6, 3784, 3810, 3829, 3806, 3794, 3834, 0, 1, 11900, -89.900, 0.000, 52.900, 0.000, 0.000, -2.900, 0.0, , , , , , 96, , , 27, 27, 27
36.0028536, -118.5646372, 19.100, 10:13:48.102, 14, 0.00, 0.14, 97, 1.300, -0.300, 53.200, 657, 100, 98, 18, 22864, -19248, 5197, 5358, 18, 14, 1530724428.102, 35, 0, 1024, 1024, 1024, 1024, 0, 6, 3784, 3810, 3829, 3806, 3794, 3834, 0, 1, 12000, -89.900, 0.000, 52.900, 0.000, 0.000, -2.800, 0.0, , , , , , 96, , , 27, 27, 27
36.0028536, -118.5646372, 19.100, 10:13:48.202, 14, 0.00, 0.14, 97, 1.300, -0.300, 53.200, 657, 100, 98, 18, 22864, -19248, 5197, 5358, 18, 14, 1530724428.202, 135, 0, 1024, 1024, 1024, 1024, 0, 6, 3784, 3810, 3829, 3806, 3794, 3834, 0, 1, 12100, -89.900, 0.000, 52.900, 0.000, 0.000, -2.800, 0.0, , , , , , 96, , , 27, 27, 27
36.0028536, -118.5646371, 19.700, 10:13:48.302, 14, 0.00, 0.14, 97, 1.500, 0.200, 53.000, 657, 100, 98, 18, 22864, -19248, 5197, 5358, 18, 14, 1530724428.302, 44, 0, 1024, 1024, 1024, 1024, 0, 6, 3784, 3810, 3829, 3806, 3794, 3834, 0, 1, 12200, -89.900, 0.000, 52.900, 0.000, 0.000, -2.900, 0.0, , , , , , 96, , , 27, 27, 27
36.0028536, -118.5646370, 20.000, 10:13:48.402, 14, 0.00, 0.14, 97, 1.500, 0.400, 52.800, 657, 100, 98, 18, 22864, -19248, 5197, 5358, 18, 14, 1530724428.402, 35, 0, 1024, 1024, 1024, 1024, 0, 6, 3784, 3810, 3829, 3806, 3794, 3834, 0, 1, 12300, -89.900, 0.000, 52.900, 0.000, 0.000, -2.800, 0.0, , , , , , 96, , , 27, 27, 27
36.0028537, -118.5646369, 20.300, 10:13:48.502, 14, 0.00, 0.13, 97, 1.300, 0.400, 52.800, 657, 100, 98, 18, 22828, -19556, 5197, 5358, 18, 14, 1530724428.502, 28, 0, 1024, 1024, 1024, 1024, 0, 6, 3776, 3803, 3814, 3789, 3796, 3823, 0, 1, 12400, -89.900, 0.000, 52.900, 0.000, 0.000, -2.900, 0.0, , , , , , 96, , , 27, 27, 27
36.0028537, -118.5646368, 20.600, 10:13:48.602, 14, 0.00, 0.13, 97, 1.000, 0.400, 52.700, 657, 100, 98, 18, 22828, -19556, 5197, 5358, 18, 14, 1530724428.602, 18, 0, 1024, 1024, 1024, 1024, 0, 6, 3776, 3803, 3814, 3789, 3796, 3823, 0, 1, 12500, -89.900, 0.000, 52.900, 0.000, 0.000, -2.900, 0.0, , , , , , 96, , , 27, 27, 27
36.0028537, -118.5646368, 20.900, 10:13:48.701, 14, 0.00, 0.13, 97, 0.700, 0.300, 52.700, 657, 100, 98, 18, 22828, -19556, 5197, 5358, 18, 14, 1530724428.702, 6, 0, 1024, 1024, 1024, 1024, 0, 6, 3776, 3803, 3814, 3789, 3796, 3823, 0, 1, 12600, -89.900, 0.000, 52.900, 0.000, 0.000, -2.900, 0.0, , , , , , 96, , , 27, 27, 27
36.0028537, -118.5646367, 21.200, 10:13:48.802, 14, 0.00, 0.13, 97, 0.400, 0.200, 52.800, 657, 100, 98, 18, 22828, -19556, 5197, 5358, 18, 14, 1530724428.802, 10, 0, 1024, 1024, 1024, 1024, 0, 6, 3776, 3803, 3814, 3789, 3796, 3823, 0, 1, 12700, -89.900, 0.000, 52.900, 0.000, 0.000, -2.800, 0.0, , , , , , 96, , , 27, 27, 27
36.0028537, -118.5646367, 21.200, 10:13:48.902, 14, 0.00, 0.13, 97, 0.400, 0.200, 52.800, 657, 100, 98, 18, 22828, -19556, 5197, 5358, 18, 14, 1530724428.902, 110, 0, 1024, 1024, 1024, 1024, 0, 6, 3776, 3803, 3814, 3789, 3796, 3823, 0, 1, 12800, -89.900, 0.000, 52.900, 0.000, 0.000, -2.800, 0.0, , , , , , 96, , , 27, 27, 27
36.0028537, -118.5646367, 21.500, 10:13:49.002, 14, 0.00, 0.13, 97, 0.300, 0.100, 52.900, 657, 100, 98, 18, 22828, -19556, 5197, 5358, 18, 14, 1530724429.002, 93, 0, 1024, 1024, 1024, 1024, 0, 6, 3776, 3803, 3814, 3789, 3796, 3823, 0, 1, 12900, -89.900, 0.000, 52.900, 0.000, 0.000, -2.900, 0.0, , , , , , 96, , , 27, 27, 27
36.0028537, -118.5646367, 21.800, 10:13:49.102, 14, 0.00, 0.13, 97, 0.500, 0.000, 52.800, 657, 100, 98, 18, 22828, -19556, 5197, 5358, 18, 14, 1530724429.102, 86, 0, 1024, 1024, 1024, 1024, 0, 6, 3776, 3803, 3814, 3789, 3796, 3823, 0, 1, 13000, -90.000, 0.000, 52.900, 0.000, 0.000, -2.900, 0.0, , , , , , 96, , , 27, 27, 27
36.0028538, -118.5646366, 22.400, 10:13:49.202, 14, 0.00, 0.12, 97, 1.200, -0.200, 52.600, 657, 100, 98, 18, 22828, -19556, 5197, 5358, 18, 14, 1530724429.202, 91, 0, 1024, 1024, 1024, 1024, 0, 6, 3776, 3803, 3814, 3789, 3796, 3823, 0, 1, 13100, -89.900, 0.000, 52.900, 0.000, 0.000, -2.900, 0.0, , , , , , 96, , , 27, 27, 27
36.0028538, -118.5646366, 22.400, 10:13:49.302, 14, 0.00, 0.12, 97, 1.200, -0.200, 52.600, 657, 100, 98, 18, 22828, -19556, 5197, 5358, 18, 14, 1530724429.302, 191, 0, 1024, 1024, 1024, 1024, 0, 6, 3776, 3803, 3814, 3789, 3796, 3823, 0, 1, 13200, -89.900, 0.000, 52.900, 0.000, 0.000, -2.900, 0.0, , , , , , 96, , , 27, 27, 27
36.0028538, -118.5646365, 23.000, 10:13:49.402, 14, 0.00, 0.12, 97, 0.800, -0.200, 52.800, 657, 100, 98, 18, 22828, -19556, 5197, 5358, 18, 14, 1530724429.402, 84, 0, 1024, 1024, 1024, 1024, 0, 6, 3776, 3803, 3814, 3789, 3796, 3823, 0, 1, 13300, -89.900, 0.000, 52.900, 0.000, 0.000, -2.900, 0.0, , , , , , 96, , , 27, 27, 27
36.0028538, -118.5646364, 23.300, 10:13:49.502, 14, 0.00, 0.12, 97, 0.700, -0.100, 52.900, 657, 100, 98, 18, 22828, -19556, 5197, 5358, 18, 14, 1530724429.502, 67, 0, 1024, 1024, 1024, 1024, 0, 6, 3776, 3803, 3814, 3789, 3796, 3823, 0, 1, 13400, -89.900, 0.000, 52.900, 0.000, 0.000, -2.900, 0.0, , , , , , 96, , , 27, 27, 27
36.0028539, -118.5646364, 23.600, 10:13:49.602, 14, 0.00, 0.12, 97, 0.700, 0.000, 53.100, 657, 100, 98, 19, 22745, -20763, 5143, 5358, 18, 14, 1530724429.602, 68, 0, 1024, 1024, 1024, 1024, 0, 6, 3750, 3779, 3803, 3774, 3769, 3810, 0, 1, 13500, -89.900, 0.000, 52.900, 0.000, 0.000, -2.900, 0.0, , , , , , 96, , , 27, 27, 27
36.0028539, -118.5646363, 23.900, 10:13:49.702, 14, 0.00, 0.11, 97, 0.800, 0.200, 53.200, 657, 100, 98, 19, 22745, -20763, 5143, 5358, 18, 14, 1530724429.702, 75, 0, 1024, 1024, 1024, 1024, 0, 6, 3750, 3779, 3803, 3774, 3769, 3810, 0, 1, 13600, -89.900, 0.000, 53.000, 0.000, 0.000, -2.900, 0.0, , , , , , 96, , , 27, 27, 27
36.0028540, -118.5646363, 24.200, 10:13:49.802, 14, 0.00, 0.11, 97, 0.900, 0.300, 53.300, 657, 100, 98, 19, 22745, -20763, 5143, 5358, 18, 14, 1530724429.802, 43, 0, 1024, 1024, 1024, 1024, 0, 6, 3750, 3779, 3803, 3774, 3769, 3810, 0, 1, 13700, -89.900, 0.000, 53.000, 0.000, 0.000, -2.900, 0.0, , , , , , 96, , , 27, 27, 27
36.0028540, -118.5646362, 24.500, 10:13:49.902, 14, 0.00, 0.10, 97, 1.000, 0.300, 53.300, 657, 100, 98, 19, 22745, -20763, 5143, 5358, 18, 14, 1530724429.902, 56, 0, 1024, 1024, 1024, 1024, 0, 6, 3750, 3779, 3803, 3774, 3769, 3810, 0, 1, 13800, -89.900, 0.000, 53.000, 0.000, 0.000, -2.900, 0.0, , , , , , 96, , , 27, 27, 27
36.0028541, -118.5646362, 24.800, 10:13:50.001, 14, 0.00, 0.10, 97, 1.000, 0.200, 53.300, 657, 100, 98, 19, 22745, -20763, 5143, 5358, 18, 14, 1530724430.001, 39, 0, 1024, 1024, 1024, 1024, 0, 6, 3750, 3779, 3803, 3774, 3769, 3810, 0, 1, 13899, -89.900, 0.000, 52.900, 0.000, 0.000, -2.900, 0.0, , , , , , 96, , , 27, 27, 27
36.0028542, -118.5646361, 25.000, 10:13:50.102, 14, 0.00, 0.10, 96, 0.800, 0.200, 53.300, 657, 100, 99, 19, 22745, -20763, 5143, 5358, 18, 14, 1530724430.102, 37, 0, 1024, 1024, 1024, 1024, 0, 6, 3750, 3779, 3803, 3774, 3769, 3810, 0, 1, 14000, -89.900, 0.000, 52.900, 0.000, 0.000, -2.800, 0.0, , , , , , 96, , , 27, 27, 27
36.0028542, -118.5646360, 25.300, 10:13:50.202, 14, 0.00, 0.10, 96, 0.800, 0.400, 53.200, 657, 100, 99, 19, 22745, -20763, 5143, 5358, 18, 14, 1530724430.202, 42, 0, 1024, 1024, 1024, 1024, 0, 6, 3750, 3779, 3803, 3774, 3769, 3810, 0, 1, 14100, -89.900, 0.000, 52.900, 0.000, 0.000, -2.900, 0.0, , , , , , 96, , , 27, 27, 27
36.0028543, -118.5646360, 25.600, 10:13:50.302, 13, 0.00, 0.10, 96, 0.900, 0.500, 53.200, 657, 100, 99, 19, 22745, -20763, 5143, 5358, 18, 14, 1530724430.302, 44, 0, 1024, 1024, 1024, 1024, 0, 6, 3750, 3779, 3803, 3774, 3769, 3810, 0, 1, 14200, -89.900, 0.000, 52.900, 0.000, 0.000, -3.000, 0.0, , , , , , 96, , , 27, 27, 27
36.0028543, -118.5646359, 25.900, 10:13:50.402, 13, 0.00, 0.10, 96, 1.100, 0.800, 53.200, 657, 100, 99, 19, 22745, -20763, 5143, 5358, 18, 14, 1530724430.402, 46, 0, 1024, 1024, 1024, 1024, 0, 6, 3750, 3779, 3803, 3774, 3769, 3810, 0, 1, 14300, -89.900, 0.000, 52.900, 0.000, 0.000, -3.000, 0.0, , , , , , 96, , , 27, 27, 27
36.0028544, -118.5646359, 26.200, 10:13:50.502, 13, 0.00, 0.10, 96, 1.200, 1.000, 53.000, 657, 100, 99, 19, 22631, -20401, 5143, 5358, 18, 14, 1530724430.502, 46, 0, 1024, 1024, 1024, 1024, 0, 6, 3743, 3767, 3777, 3756, 3754, 3801, 0, 1, 14400, -89.900, 0.000, 52.900, 0.000, 0.000, -3.000, 0.0, , , , , , 96, , , 27, 27, 27
36.0028544, -118.5646358, 26.600, 10:13:50.602, 13, 0.00, 0.10, 96, 1.100, 1.100, 52.800, 657, 100, 99, 19, 22631, -20401, 5143, 5358, 18, 14, 1530724430.602, 15, 0, 1024, 1024, 1024, 1024, 0, 6, 3743, 3767, 3777, 3756, 3754, 3801, 0, 1, 14500, -89.900, 0.000, 52.900, 0.000, 0.000, -3.000, 0.0, , , , , , 96, , , 27, 27, 27
36.0028544, -118.5646358, 26.900, 10:13:50.702, 14, 0.00, 0.11, 96, 1.100, 1.000, 52.600, 657, 100, 99, 19, 22631, -20401, 5143, 5358, 18, 14, 1530724430.702, 10, 0, 1024, 1024, 1024, 1024, 0, 6, 3743, 3767, 3777, 3756, 3754, 3801, 0, 1, 14600, -89.900, 0.000, 52.900, 0.000, 0.000, -3.000, 0.0, , , , , , 96, , , 27, 27, 27
36.0028544, -118.5646357, 27.200, 10:13:50.802, 14, 0.00, 0.11, 96, 0.900, 1.000, 52.400, 657, 100, 99, 19, 22631, -20401, 5143, 5358, 18, 14, 1530724430.802, 35, 0, 1024, 1024, 1024, 1024, 0, 6, 3743, 3767, 3777, 3756, 3754, 3801, 0, 1, 14700, -89.900, 0.000, 52.900, 0.000, 0.000, -3.000, 0.0, , , , , , 96, , , 27, 27, 27
36.0028544, -118.5646357, 27.200, 10:13:50.902, 14, 0.00, 0.11, 96, 0.900, 1.000, 52.400, 657, 100, 99, 19, 22631, -20401, 5143, 5358, 18, 14, 1530724430.902, 135, 0, 1024, 1024, 1024, 1024, 0, 6, 3743, 3767, 3777, 3756, 3754, 3801, 0, 1, 14800, -89.900, 0.000, 52.900, 0.000, 0.000, -3.000, 0.0, , , , , , 96, , , 27, 27, 27
36.0028545, -118.5646357, 27.800, 10:13:51.002, 14, 0.00, 0.11, 96, 0.900, 0.500, 52.400, 657, 100, 99, 19, 22631, -20401, 5143, 5358, 18, 14, 1530724431.002, 9, 0, 1024, 1024, 1024, 1024, 0, 6, 3743, 3767, 3777, 3756, 3754, 3801, 0, 1, 14900, -89.900, 0.000, 52.900, 0.000, 0.000, -3.000, 0.0, , , , , , 96, , , 27, 27, 27
36.0028544, -118.5646357, 28.100, 10:13:51.110, 14, 0.00, 0.11, 96, 0.900, 0.400, 52.600, 657, 100, 99, 19, 22631, -20401, 5143, 5358, 18, 14, 1530724431.110, 3, 0, 1024, 1024, 1024, 1024, 0, 6, 3743, 3767, 3777, 3756, 3754, 3801, 0, 1, 15008, -89.900, 0.000, 52.900, 0.000, 0.000, -3.100, 0.0, , , , , , 96, , , 27, 27, 27
36.0028544, -118.5646357, 28.400, 10:13:51.201, 14, 0.00, 0.11, 96, 0.800, 0.300, 52.700, 657, 100, 97, 19, 22631, -20401, 5143, 5358, 18, 14, 1530724431.201, 90, 0, 1024, 1024, 1024, 1024, 0, 6, 3743, 3767, 3777, 3756, 3754, 3801, 0, 1, 15099, -89.900, 0.000, 52.900, 0.000, 0.000, -3.100, 0.0, , , , , , 96, , , 27, 27, 27
36.0028544, -118.5646357, 28.400, 10:13:51.302, 14, 0.00, 0.11, 96, 0.800, 0.300, 52.700, 657, 100, 97, 19, 22631, -20401, 5143, 5358, 18, 14, 1530724431.302, 191, 0, 1024, 1024, 1024, 1024, 0, 6, 3743, 3767, 3777, 3756, 3754, 3801, 0, 1, 15200, -89.900, 0.000, 52.900, 0.000, 0.000, -3.100, 0.0, , , , , , 96, , , 27, 27, 27
36.0028544, -118.5646358, 29.300, 10:13:51.401, 14, 0.00, 0.11, 96, 0.800, 0.200, 53.000, 657, 100, 97, 19, 22631, -20401, 5143, 5358, 18, 14, 1530724431.401, 7, 0, 1024, 1024, 1024, 1024, 0, 6, 3743, 3767, 3777, 3756, 3754, 3801, 0, 1, 15299, -89.900, 0.000, 52.900, 0.000, 0.000, -3.000, 0.0, , , , , , 96, , , 27, 27, 27
36.0028544, -118.5646358, 29.300, 10:13:51.505, 14, 0.00, 0.11, 96, 0.800, 0.200, 53.000, 657, 100, 97, 19, 22631, -20401, 5143, 5358, 18, 14, 1530724431.505, 110, 0, 1024, 1024, 1024, 1024, 0, 6, 3743, 3767, 3777, 3756, 3754, 3801, 0, 1, 15403, -89.900, 0.000, 52.900, 0.000, 0.000, -3.000, 0.0, , , , , , 96, , , 27, 27, 27
36.0028544, -118.5646358, 29.300, 10:13:51.602, 14, 0.00, 0.11, 96, 0.800, 0.200, 53.000, 657, 100, 97, 19, 22636, -20286, 5143, 5358, 18, 14, 1530724431.602, 207, 0, 1024, 1024, 1024, 1024, 0, 6, 3743, 3767, 3777, 3756, 3754, 3801, 0, 1, 15500, -89.900, 0.000, 52.900, 0.000, 0.000, -3.000, 0.0, , , , , , 96, , , 27, 27, 27
36.0028544, -118.5646359, 29.900, 10:13:51.701, 14, 0.00, 0.10, 96, 1.000, 0.100, 53.000, 657, 100, 96, 19, 22636, -20286, 5143, 5358, 18, 14, 1530724431.701, 89, 0, 1024, 1024, 1024, 1024, 0, 6, 3745, 3776, 3801, 3771, 3774, 3795, 0, 1, 15599, -89.900, 0.000, 52.900, 0.000, 0.000, -2.900, 0.0, , , , , , 96, , , 27, 27, 27
36.0028545, -118.5646359, 30.200, 10:13:51.802, 14, 0.00, 0.09, 96, 1.100, 0.000, 53.000, 657, 100, 96, 19, 22636, -20286, 5143, 5358, 18, 14, 1530724431.802, 57, 0, 1024, 1024, 1024, 1024, 0, 6, 3745, 3776, 3801, 3771, 3774, 3795, 0, 1, 15700, -89.900, 0.000, 52.900, 0.000, 0.000, -2.900, 0.0, , , , , , 96, , , 27, 27, 27
36.0028545, -118.5646360, 30.500, 10:13:51.905, 14, 0.00, 0.09, 96, 1.100, 0.000, 52.900, 657, 100, 96, 19, 22636, -20286, 5143, 5358, 18, 14, 1530724431.905, 62, 0, 1024, 1024, 1024, 1024, 0, 6, 3745, 3776, 3801, 3771, 3774, 3795, 0, 1, 15803, -89.900, 0.000, 52.900, 0.000, 0.000, -2.900, 0.0, , , , , , 96, , , 27, 27, 27
36.0028544, -118.5646360, 30.800, 10:13:52.001, 14, 0.00, 0.09, 96, 1.200, 0.000, 52.900, 657, 100, 96, 19, 22636, -20286, 5143, 5358, 18, 14, 1530724432.001, 54, 0, 1024, 1024, 1024, 1024, 0, 6, 3745, 3776, 3801, 3771, 3774, 3795, 0, 1, 15899, -89.900, 0.000, 52.900, 0.000, 0.000, -2.900, 0.0, , , , , , 96, , , 27, 27, 27
36.0028545, -118.5646361, 31.100, 10:13:52.102, 14, 0.00, 0.08, 96, 1.200, 0.000, 52.800, 657, 100, 96, 19, 22636, -20286, 5143, 5358, 18, 14, 1530724432.102, 43, 0, 1024, 1024, 1024, 1024, 0, 6, 3745, 3776, 3801, 3771, 3774, 3795, 0, 1, 16000, -89.900, 0.000, 52.900, 0.000, 0.000, -3.000, 0.0, , , , , , 96, , , 27, 27, 27
36.0028545, -118.5646362, 31.400, 10:13:52.202, 14, 0.00, 0.07, 96, 1.300, 0.000, 52.800, 657, 100, 96, 19, 22636, -20286, 5143, 5358, 18, 14, 1530724432.202, 57, 0, 1024, 1024, 1024, 1024, 0, 6, 3745, 3776, 3801, 3771, 3774, 3795, 0, 1, 16100, -89.900, 0.000, 52.900, 0.000, 0.000, -2.900, 0.0, , , , , , 96, , , 27, 27, 27
36.0028545, -118.5646362, 31.700, 10:13:52.302, 14, 0.00, 0.07, 96, 1.400, 0.000, 52.700, 657, 100, 96, 19, 22636, -20286, 5143, 5358, 18, 14, 1530724432.302, 60, 0, 1024, 1024, 1024, 1024, 0, 6, 3745, 3776, 3801, 3771, 3774, 3795, 0, 1, 16200, -90.000, 0.000, 52.900, 0.000, 0.000, -2.900, 0.0, , , , , , 96, , , 27, 27, 27
36.0028545, -118.5646363, 32.000, 10:13:52.402, 14, 0.00, 0.06, 96, 1.500, 0.000, 52.700, 657, 100, 96, 19, 22636, -20286, 5143, 5358, 18, 14, 1530724432.402, 63, 0, 1024, 1024, 1024, 1024, 0, 6, 3745, 3776, 3801, 3771, 3774, 3795, 0, 1, 16300, -89.900, 0.000, 52.900, 0.000, 0.000, -2.900, 0.0, , , , , , 96, , , 27, 27, 27
36.0028545, -118.5646364, 32.300, 10:13:52.502, 14, 0.00, 0.05, 96, 1.600, 0.000, 52.800, 657, 100, 96, 19, 22636, -20286, 5143, 5358, 18, 14, 1530724432.502, 40, 0, 1024, 1024, 1024, 1024, 0, 6, 3745, 3776, 3801, 3771, 3774, 3795, 0, 1, 16400, -89.900, 0.000, 52.900, 0.000, 0.000, -2.900, 0.0, , , , , , 96, , , 27, 27, 27
36.0028545, -118.5646364, 32.300, 10:13:52.601, 14, 0.00, 0.05, 96, 1.600, 0.000, 52.800, 657, 100, 93, 19, 22721, -19142, 5143, 5358, 18, 14, 1530724432.602, 139, 0, 1024, 1024, 1024, 1024, 0, 6, 3745, 3776, 3801, 3771, 3774, 3795, 0, 1, 16500, -89.900, 0.000, 52.900, 0.000, 0.000, -2.900, 0.0, , , , , , 96, , , 27, 27, 27
36.0028546, -118.5646365, 32.900, 10:13:52.702, 14, 0.00, 0.04, 96, 1.900, 0.100, 53.100, 657, 100, 93, 19, 22721, -19142, 5143, 5358, 18, 14, 1530724432.702, 48, 0, 1024, 1024, 1024, 1024, 0, 6, 3745, 3776, 3801, 3771, 3774, 3795, 0, 1, 16600, -89.900, 0.000, 52.900, 0.000, 0.000, -2.900, 0.0, , , , , , 96, , , 27, 27, 27
36.0028546, -118.5646366, 33.200, 10:13:52.801, 14, 0.00, 0.03, 96, 2.100, 0.000, 53.200, 657, 100, 93, 19, 22721, -19142, 5143, 5358, 18, 14, 1530724432.802, 53, 0, 1024, 1024, 1024, 1024, 0, 6, 3745, 3776, 3801, 3771, 3774, 3795, 0, 1, 16700, -89.900, 0.000, 52.900, 0.000, 0.000, -2.900, 0.0, , , , , , 96, , , 27, 27, 27
36.0028546, -118.5646367, 33.500, 10:13:52.901, 14, 0.00, 0.03, 96, 2.000, 0.000, 53.200, 657, 100, 93, 19, 22721, -19142, 5143, 5358, 18, 14, 1530724432.902, 47, 0, 1024, 1024, 1024, 1024, 0, 6, 3745, 3776, 3801, 3771, 3774, 3795, 0, 1, 16800, -89.900, 0.000, 52.900, 0.000, 0.000, -3.000, 0.0, , , , , , 96, , , 27, 27, 27
36.0028546, -118.5646368, 33.800, 10:13:53.001, 14, 0.00, 0.03, 96, 1.900, -0.100, 53.200, 657, 100, 93, 19, 22721, -19142, 5143, 5358, 18, 14, 1530724433.002, 26, 0, 1024, 1024, 1024, 1024, 0, 6, 3745, 3776, 3801, 3771, 3774, 3795, 0, 1, 16900, -89.900, 0.000, 52.900, 0.000, 0.000, -3.000, 0.0, , , , , , 96, , , 27, 27, 27
36.0028546, -118.5646369, 34.100, 10:13:53.101, 14, 0.00, 0.03, 96, 1.800, -0.200, 53.200, 657, 100, 92, 19, 22721, -19142, 5143, 5358, 18, 14, 1530724433.102, 34, 0, 1024, 1024, 1024, 1024, 0, 6, 3745, 3776, 3801, 3771, 3774, 3795, 0, 1, 17000, -90.000, 0.000, 52.900, 0.000, 0.000, -2.900, 0.0, , , , , , 96, , , 27, 27, 27
36.0028546, -118.5646369, 34.400, 10:13:53.201, 14, 0.00, 0.03, 96, 1.700, -0.400, 53.100, 657, 100, 92, 19, 22721, -19142, 5143, 5358, 18, 14, 1530724433.201, 14, 0, 1024, 1024, 1024, 1024, 0, 6, 3745, 3776, 3801, 3771, 3774, 3795, 0, 1, 17099, -90.000, 0.000, 52.900, 0.000, 0.000, -2.900, 0.0, , , , , , 96, , , 27, 27, 27
36.0028546, -118.5646370, 34.700, 10:13:53.301, 14, 0.00, 0.03, 96, 1.900, -0.600, 53.100, 657, 100, 92, 19, 22721, -19142, 5143, 5358, 18, 14, 1530724433.301, 4, 0, 1024, 1024, 1024, 1024, 0, 6, 3745, 3776, 3801, 3771, 3774, 3795, 0, 1, 17199, -90.000, 0.000, 52.900, 0.000, 0.000, -2.900, 0.0, , , , , , 96, , , 27, 27, 27
36.0028546, -118.5646371, 35.000, 10:13:53.401, 14, 0.00, 0.04, 96, 1.900, -0.700, 53.000, 657, 100, 92, 19, 22721, -19142, 5143, 5358, 18, 14, 1530724433.402, 31, 0, 1024, 1024, 1024, 1024, 0, 6, 3745, 3776, 3801, 3771, 3774, 3795, 0, 1, 17300, -90.000, 0.000, 52.900, 0.000, 0.000, -2.900, 0.0, , , , , , 96, , , 27, 27, 27
36.0028545, -118.5646372, 35.300, 10:13:53.501, 14, 0.00, 0.05, 96, 1.800, -0.800, 52.900, 657, 100, 92, 19, 22721, -19142, 5143, 5358, 18, 14, 1530724433.502, 8, 0, 1024, 1024, 1024, 1024, 0, 6, 3745, 3776, 3801, 3771, 3774, 3795, 0, 1, 17400, -90.000, 0.000, 52.900, 0.000, 0.000, -2.900, 0.0, , , , , , 96, , , 27, 27, 27
36.0028545, -118.5646373, 35.600, 10:13:53.601, 14, 0.00, 0.06, 96, 1.900, -0.700, 52.800, 657, 100, 91, 19, 22721, -19142, 5143, 5358, 18, 14, 1530724433.601, 13, 0, 1024, 1024, 1024, 1024, 0, 6, 3745, 3776, 3801, 3771, 3774, 3795, 0, 1, 17499, -89.900, 0.000, 52.900, 0.000, 0.000, -2.900, 0.0, , , , , , 96, , , 27, 27, 27
36.0028545, -118.5646373, 35.600, 10:13:53.701, 14, 0.00, 0.06, 96, 1.900, -0.700, 52.800, 657, 100, 91, 19, 22721, -19142, 5143, 5358, 18, 14, 1530724433.702, 113, 0, 1024, 1024, 1024, 1024, 0, 6, 3745, 3776, 3801, 3771, 3774, 3795, 0, 1, 17600, -89.900, 0.000, 52.900, 0.000, 0.000, -2.900, 0.0, , , , , , 96, , , 27, 27, 27
36.0028545, -118.5646374, 35.900, 10:13:53.801, 14, 0.00, 0.06, 96, 2.200, -0.700, 52.700, 657, 100, 91, 19, 22721, -19142, 5143, 5358, 18, 14, 1530724433.802, 96, 0, 1024, 1024, 1024, 1024, 0, 6, 3745, 3776, 3801, 3771, 3774, 3795, 0, 1, 17700, -90.000, 0.000, 52.900, 0.000, 0.000, -2.900, 0.0, , , , , , 96, , , 27, 27, 27
36.0028545, -118.5646375, 36.800, 10:13:53.903, 14, 0.00, 0.07, 96, 2.000, -0.600, 52.600, 657, 100, 91, 19, 22721, -19142, 5143, 5358, 18, 14, 1530724433.903, 1, 0, 1024, 1024, 1024, 1024, 0, 6, 3745, 3776, 3801, 3771, 3774, 3795, 0, 1, 17801, -89.900, 0.000, 52.900, 0.000, 0.000, -3.000, 0.0, , , , , , 96, , , 27, 27, 27
36.0028545, -118.5646375, 36.800, 10:13:54.001, 14, 0.00, 0.07, 96, 2.000, -0.600, 52.600, 657, 100, 91, 19, 22721, -19142, 5143, 5358, 18, 14, 1530724434.002, 100, 0, 1024, 1024, 1024, 1024, 0, 6, 3745, 3776, 3801, 3771, 3774, 3795, 0, 1, 17900, -89.900, 0.000, 52.900, 0.000, 0.000, -3.000, 0.0, , , , , , 96, , , 27, 27, 27
36.0028545, -118.5646375, 37.100, 10:13:54.101, 14, 0.00, 0.08, 96, 2.200, -0.600, 52.700, 657, 100, 91, 19, 22643, -19678, 5143, 5358, 18, 14, 1530724434.102, 94, 0, 1024, 1024, 1024, 1024, 0, 6, 3750, 3785, 3791, 3769, 3768, 3799, 0, 1, 18000, -89.900, 0.000, 52.900, 0.000, 0.000, -2.900, 0.0, , , , , , 96, , , 27, 27, 27
36.0028545, -118.5646376, 37.400, 10:13:54.201, 14, 0.00, 0.08, 96, 2.200, -0.600, 52.800, 657, 100, 95, 19, 22643, -19678, 5143, 5358, 18, 14, 1530724434.202, 87, 0, 1024, 1024, 1024, 1024, 0, 6, 3750, 3785, 3791, 3769, 3768, 3799, 0, 1, 18100, -90.000, 0.000, 52.900, 0.000, 0.000, -2.900, 0.0, , , , , , 96, , , 27, 27, 27
36.0028545, -118.5646376, 37.700, 10:13:54.301, 14, 0.00, 0.08, 96, 2.100, -0.500, 52.900, 657, 100, 95, 19, 22643, -19678, 5143, 5358, 18, 14, 1530724434.302, 77, 0, 1024, 1024, 1024, 1024, 0, 6, 3750, 3785, 3791, 3769, 3768, 3799, 0, 1, 18200, -89.900, 0.000, 52.900, 0.000, 0.000, -2.900, 0.0, , , , , , 96, , , 27, 27, 27
36.0028545, -118.5646376, 38.000, 10:13:54.401, 14, 0.00, 0.08, 96, 2.200, -0.100, 53.000, 657, 100, 95, 19, 22643, -19678, 5143, 5358, 18, 14, 1530724434.402, 81, 0, 1024, 1024, 1024, 1024, 0, 6, 3750, 3785, 3791, 3769, 3768, 3799, 0, 1, 18300, -89.900, 0.000, 52.900, 0.000, 0.000, -2.900, 0.0, , , , , , 96, , , 27, 27, 27
36.0028546, -118.5646376, 38.300, 10:13:54.501, 14, 0.00, 0.08, 96, 2.500, 0.000, 53.200, 657, 100, 95, 19, 22643, -19678, 5143, 5358, 18, 14, 1530724434.502, 86, 0, 1024, 1024, 1024, 1024, 0, 6, 3750, 3785, 3791, 3769, 3768, 3799, 0, 1, 18400, -89.900, 0.000, 52.900, 0.000, 0.000, -3.000, 0.0, , , , , , 96, , , 27, 27, 27
36.0028546, -118.5646376, 38.300, 10:13:54.601, 14, 0.00, 0.08, 96, 2.500, 0.000, 53.200, 657, 100, 95, 19, 22643, -19678, 5143, 5358, 18, 14, 1530724434.601, 185, 0, 1024, 1024, 1024, 1024, 0, 6, 3750, 3785, 3791, 3769, 3768, 3799, 0, 1, 18499, -89.900, 0.000, 52.900, 0.000, 0.000, -3.000, 0.0, , , , , , 96, , , 27, 27, 27
36.0028545, -118.5646376, 38.900, 10:13:54.701, 14, 0.00, 0.08, 96, 2.000, -0.300, 53.200, 657, 100, 96, 19, 22643, -19678, 5143, 5358, 18, 14, 1530724434.702, 63, 0, 1024, 1024, 1024, 1024, 0, 6, 3750, 3785, 3791, 3769, 3768, 3799, 0, 1, 18600, -89.900, 0.000, 53.000, 0.000, 0.000, -3.000, 0.0, , , , , , 96, , , 27, 27, 27
36.0028545, -118.5646376, 39.200, 10:13:54.801, 14, 0.00, 0.08, 96, 1.800, -0.400, 53.100, 657, 100, 96, 19, 22643, -19678, 5143, 5358, 18, 14, 1530724434.801, 76, 0, 1024, 1024, 1024, 1024, 0, 6, 3750, 3785, 3791, 3769, 3768, 3799, 0, 1, 18699, -90.000, 0.000, 52.900, 0.000, 0.000, -2.900, 0.0, , , , , , 96, , , 27, 27, 27
36.0028545, -118.5646376, 39.500, 10:13:54.901, 14, 0.00, 0.08, 96, 1.700, -0.600, 53.000, 657, 100, 96, 19, 22643, -19678, 5143, 5358, 18, 14, 1530724434.902, 68, 0, 1024, 1024, 1024, 1024, 0, 6, 3750, 3785, 3791, 3769, 3768, 3799, 0, 1, 18800, -90.000, 0.000, 52.900, 0.000, 0.000, -3.000, 0.0, , , , , , 96, , , 27, 27, 27
36.0028544, -118.5646376, 39.800, 10:13:55.001, 14, 0.00, 0.08, 96, 1.700, -0.600, 52.900, 657, 100, 96, 19, 22643, -19678, 5143, 5358, 18, 14, 1530724435.002, 44, 0, 1024, 1024, 1024, 1024, 0, 6, 3750, 3785, 3791, 3769, 3768, 3799, 0, 1, 18900, -89.900, 0.000, 52.900, 0.000, 0.000, -2.900, 0.0, , , , , , 96, , , 27, 27, 27
36.0028544, -118.5646376, 40.100, 10:13:55.101, 14, 0.00, 0.08, 96, 1.600, -0.500, 52.900, 657, 100, 96, 19, 22597, -19957, 5143, 5358, 18, 14, 1530724435.102, 51, 0, 1024, 1024, 1024, 1024, 0, 6, 3747, 3778, 3787, 3764, 3761, 3796, 0, 1, 19000, -89.900, 0.000, 52.900, 0.000, 0.000, -2.800, 0.0, , , , , , 96, , , 27, 27, 27
36.0028544, -118.5646376, 40.400, 10:13:55.201, 14, 0.00, 0.08, 96, 1.500, -0.400, 52.900, 657, 100, 97, 19, 22597, -19957, 5143, 5358, 18, 14, 1530724435.201, 43, 0, 1024, 1024, 1024, 1024, 0, 6, 3747, 3778, 3787, 3764, 3761, 3796, 0, 1, 19099, -89.900, 0.000, 52.900, 0.000, 0.000, -2.900, 0.0, , , , , , 96, , , 27, 27, 27
36.0028544, -118.5646375, 40.700, 10:13:55.301, 14, 0.00, 0.08, 96, 1.600, -0.300, 52.900, 657, 100, 97, 19, 22597, -19957, 5143, 5358, 18, 14, 1530724435.301, 26, 0, 1024, 1024, 1024, 1024, 0, 6, 3747, 3778, 3787, 3764, 3761, 3796, 0, 1, 19200, -89.900, 0.000, 52.900, 0.000, 0.000, -2.900, 0.0, , , , , , 96, , , 27, 27, 27
36.0028544, -118.5646375, 41.000, 10:13:55.401, 14, 0.00, 0.08, 96, 1.600, -0.200, 52.900, 657, 100, 97, 19, 22597, -19957, 5143, 5358, 18, 14, 1530724435.401, 39, 0, 1024, 1024, 1024, 1024, 0, 6, 3747, 3778, 3787, 3764, 3761, 3796, 0, 1, 19300, -89.900, 0.000, 52.900, 0.000, 0.000, -2.900, 0.0, , , , , , 96, , , 27, 27, 27
36.0028543, -118.5646375, 41.300, 10:13:55.501, 14, 0.00, 0.08, 96, 1.500, -0.200, 53.000, 657, 100, 97, 19, 22597, -19957, 5143, 5358, 18, 14, 1530724435.501, 32, 0, 1024, 1024, 1024, 1024, 0, 6, 3747, 3778, 3787, 3764, 3761, 3796, 0, 1, 19400, -89.900, 0.000, 52.900, 0.000, 0.000, -2.900, 0.0, , , , , , 96, , , 27, 27, 27
36.0028543, -118.5646375, 41.500, 10:13:55.601, 14, 0.00, 0.09, 96, 1.400, -0.400, 53.100, 657, 100, 97, 19, 22597, -19957, 5143, 5358, 18, 14, 1530724435.602, 32, 0, 1024, 1024, 1024, 1024, 0, 6, 3747, 3778, 3787, 3764, 3761, 3796, 0, 1, 19500, -90.000, 0.000, 52.900, 0.000, 0.000, -2.900, 0.0, , , , , , 96, , , 27, 27, 27
36.0028542, -118.5646375, 41.800, 10:13:55.701, 15, 0.00, 0.09, 96, 1.300, -0.700, 53.200, 657, 100, 97, 19, 22597, -19957, 5143, 5358, 18, 14, 1530724435.701, 27, 0, 1024, 1024, 1024, 1024, 0, 6, 3747, 3778, 3787, 3764, 3761, 3796, 0, 1, 19600, -89.900, 0.000, 52.900, 0.000, 0.000, -3.000, 0.0, , , , , , 96, , , 27, 27, 27
36.0028542, -118.5646374, 42.100, 10:13:55.801, 15, 0.00, 0.09, 96, 1.200, -0.800, 53.200, 657, 100, 97, 19, 22597, -19957, 5143, 5358, 18, 14, 1530724435.801, 30, 0, 1024, 1024, 1024, 1024, 0, 6, 3747, 3778, 3787, 3764, 3761, 3796, 0, 1, 19700, -89.900, 0.000, 52.900, 0.000, 0.000, -2.900, 0.0, , , , , , 96, , , 27, 27, 27
36.0028541, -118.5646374, 42.400, 10:13:55.901, 15, 0.00, 0.10, 96, 1.100, -0.800, 53.200, 657, 100, 97, 19, 22597, -19957, 5143, 5358, 18, 14, 1530724435.901, 5, 0, 1024, 1024, 1024, 1024, 0, 6, 3747, 3778, 3787, 3764, 3761, 3796, 0, 1, 19800, -89.900, 0.000, 52.900, 0.000, 0.000, -3.000, 0.0, , , , , , 96, , , 27, 27, 27
36.0028541, -118.5646374, 42.400, 10:13:56.001, 15, 0.00, 0.10, 96, 1.100, -0.800, 53.200, 657, 100, 97, 19, 22597, -19957, 5143, 5358, 18, 14, 1530724436.001, 105, 0, 1024, 1024, 1024, 1024, 0, 6, 3747, 3778, 3787, 3764, 3761, 3796, 0, 1, 19900, -89.900, 0.000, 52.900, 0.000, 0.000, -3.000, 0.0, , , , , , 96, , , 27, 27, 27
36.0028540, -118.5646373, 43.300, 10:13:56.101, 15, 0.00, 0.11, 96, 0.900, -0.700, 53.000, 657, 100, 98, 19, 22618, -19571, 5143, 5358, 18, 14, 1530724436.101, 6, 0, 1024, 1024, 1024, 1024, 0, 6, 3737, 3762, 3790, 3763, 3763, 3793, 0, 1, 20000, -89.900, 0.000, 52.900, 0.000, 0.000, -2.900, 0.0, , , , , , 96, , , 27, 27, 27
36.0028540, -118.5646373, 43.700, 10:13:56.210, 15, 0.00, 0.11, 96, 1.000, -0.800, 52.900, 657, 100, 98, 19, 22618, -19571, 5143, 5358, 18, 14, 1530724436.210, 1, 0, 1024, 1024, 1024, 1024, 0, 6, 3737, 3762, 3790, 3763, 3763, 3793, 0, 1, 20109, -89.900, 0.000, 52.900, 0.000, 0.000, -3.000, 0.0, , , , , , 96, , , 27, 27, 27
36.0028540, -118.5646373, 43.700, 10:13:56.300, 15, 0.00, 0.11, 96, 1.000, -0.800, 52.900, 657, 100, 98, 19, 22618, -19571, 5143, 5358, 18, 14, 1530724436.301, 91, 0, 1024, 1024, 1024, 1024, 0, 6, 3737, 3762, 3790, 3763, 3763, 3793, 0, 1, 20199, -89.900, 0.000, 52.900, 0.000, 0.000, -3.000, 0.0, , , , , , 96, , , 27, 27, 27
36.0028540, -118.5646373, 44.000, 10:13:56.401, 15, 0.00, 0.11, 96, 1.100, -0.900, 52.900, 657, 100, 98, 19, 22618, -19571, 5143, 5358, 18, 14, 1530724436.401, 81, 0, 1024, 1024, 1024, 1024, 0, 6, 3737, 3762, 3790, 3763, 3763, 3793, 0, 1, 20300, -89.900, 0.000, 52.900, 0.000, 0.000, -3.000, 0.0, , , , , , 96, , , 27, 27, 27
36.0028539, -118.5646373, 44.300, 10:13:56.501, 15, 0.00, 0.11, 96, 1.100, -0.900, 52.900, 657, 100, 98, 19, 22618, -19571, 5143, 5358, 18, 14, 1530724436.501, 94, 0, 1024, 1024, 1024, 1024, 0, 6, 3737, 3762, 3790, 3763, 3763, 3793, 0, 1, 20400, -89.900, 0.000, 52.900, 0.000, 0.000, -3.000, 0.0, , , , , , 96, , , 27, 27, 27
36.0028539, -118.5646373, 44.600, 10:13:56.601, 15, 0.00, 0.11, 96, 1.100, -0.900, 52.900, 657, 100, 98, 19, 22618, -19571, 5143, 5358, 18, 14, 1530724436.601, 96, 0, 1024, 1024, 1024, 1024, 0, 6, 3737, 3762, 3790, 3763, 3763, 3793, 0, 1, 20499, -89.900, 0.000, 52.900, 0.000, 0.000, -2.900, 0.0, , , , , , 96, , , 27, 27, 27
36.0028539, -118.5646373, 44.900, 10:13:56.701, 15, 0.00, 0.12, 96, 1.000, -0.900, 52.800, 657, 100, 99, 19, 22618, -19571, 5143, 5358, 18, 14, 1530724436.701, 78, 0, 1024, 1024, 1024, 1024, 0, 6, 3737, 3762, 3790, 3763, 3763, 3793, 0, 1, 20600, -89.900, 0.000, 52.900, 0.000, 0.000, -2.900, 0.0, , , , , , 96, , , 27, 27, 27
36.0028539, -118.5646373, 45.200, 10:13:56.801, 15, 0.00, 0.12, 96, 0.900, -1.100, 52.700, 657, 100, 99, 19, 22618, -19571, 5143, 5358, 18, 14, 1530724436.801, 62, 0, 1024, 1024, 1024, 1024, 0, 6, 3737, 3762, 3790, 3763, 3763, 3793, 0, 1, 20699, -90.000, 0.000, 52.900, 0.000, 0.000, -2.900, 0.0, , , , , , 96, , , 27, 27, 27
36.0028539, -118.5646373, 45.500, 10:13:56.901, 15, 0.00, 0.12, 96, 1.100, -1.200, 52.800, 657, 100, 99, 19, 22618, -19571, 5143, 5358, 18, 14, 1530724436.902, 67, 0, 1024, 1024, 1024, 1024, 0, 6, 3737, 3762, 3790, 3763, 3763, 3793, 0, 1, 20800, -90.000, 0.000, 52.900, 0.000, 0.000, -3.000, 0.0, , , , , , 96, , , 27, 27, 27
36.0028539, -118.5646374, 45.800, 10:13:57.001, 15, 0.00, 0.12, 96, 1.500, -1.300, 52.900, 657, 100, 99, 19, 22618, -19571, 5143, 5358, 18, 14, 1530724437.002, 68, 0, 1024, 1024, 1024, 1024, 0, 6, 3737, 3762, 3790, 3763, 3763, 3793, 0, 1, 20900, -90.000, 0.000, 52.900, 0.000, 0.000, -3.000, 0.0, , , , , , 96, , , 27, 27, 27
36.0028539, -118.5646374, 46.100, 10:13:57.100, 15, 0.00, 0.12, 96, 1.500, -1.300, 52.900, 657, 100, 99, 19, 22557, -20271, 5143, 5358, 18, 14, 1530724437.100, 48, 0, 1024, 1024, 1024, 1024, 0, 6, 3734, 3759, 3781, 3755, 3756, 3783, 0, 1, 20999, -89.900, 0.000, 52.900, 0.000, 0.000, -3.000, 0.0, , , , , , 96, , , 27, 27, 27
36.0028539, -118.5646374, 46.400, 10:13:57.201, 15, 0.00, 0.12, 96, 1.400, -1.300, 52.900, 657, 100, 98, 19, 22557, -20271, 5143, 5358, 18, 14, 1530724437.201, 42, 0, 1024, 1024, 1024, 1024, 0, 6, 3734, 3759, 3781, 3755, 3756, 3783, 0, 1, 21100, -89.900, 0.000, 52.900, 0.000, 0.000, -3.000, 0.0, , , , , , 96, , , 27, 27, 27
