latitude,longitude,altitude(feet),ascent(feet),speed(mph),distance(feet),time(millisecond),datetime(utc),satellites,gpslevel,voltage(v),max_altitude(feet),max_ascent(feet),max_speed(mph),max_distance(feet), xSpeed(mph), ySpeed(mph), zSpeed(mph), compass_heading(degrees), pitch(degrees), roll(degrees),isPhoto,isVideo,rc_elevator,rc_aileron,rc_throttle,rc_rudder,gimbal_heading(degrees),gimbal_pitch(degrees),battery_percent,voltageCell1,voltageCell2,voltageCell3,voltageCell4,voltageCell5,voltageCell6,current(A),battery_temperature(f),flycStateRaw,flycState,message
36.0028568,-118.5646161,5758.5858762039,0,0,0,3130,2018-07-04 17:30:58,13,0,0,5758.5858762039,0,0,0,0,0,0,322.2, 0.1, -0.8,1,0,1024,1024,1024,1024,320.3,-90,98,4.251,4.264,4.264,4.246,4.249,4.25,0,64.4,11,AutoTakeoff,DJI_0017.jpg Starting Mission from Lat/Long: 36.00285/-118.56462 Camera: Zenmuse X3 - Overlap: 90/90 - Active Connection: No
36.0028567,-118.5646161,5758.5858762039,0,0,0.036484909304,3200,2018-07-04 17:30:58,13,0,0,5758.5858762039,0,0,0.036484909304,0,0,0,322.3, -0.4, -1.1,0,0,1024,1024,1024,1024,320.3,-89.9,98,4.251,4.264,4.264,4.246,4.249,4.25,0,64.4,11,AutoTakeoff,
36.0028567,-118.5646161,5758.5858762039,0,0,0.036484909304,3400,2018-07-04 17:30:58,13,0,0,5758.5858762039,0,0,0.036484909304,0,0,0,322.4, -0.7, -0.8,0,0,1024,1024,1024,1024,320.3,-90,98,4.251,4.264,4.264,4.246,4.249,4.25,0,64.4,11,AutoTakeoff,
36.0028566,-118.5646162,5758.5858762039,0,0.223694,0.078713257112,3500,2018-07-04 17:30:59,13,0,0,5758.5858762039,0,0.223694,0.078713257112,0,0,0,322.4, -0.7, -0.3,0,0,1024,1024,1024,1024,320.4,-89.9,98,4.251,4.264,4.264,4.246,4.249,4.25,0,64.4,11,AutoTakeoff,
36.0028566,-118.5646163,5758.9139602039,0.328084,0.223694,0.09385827072,3600,2018-07-04 17:30:59,13,0,0,5758.9139602039,0.328084,0.223694,0.09385827072,0,0,0,322.3, -0.6, 0.4,0,0,1024,1024,1024,1024,320.4,-89.9,98,4.251,4.264,4.264,4.246,4.249,4.25,0,64.4,11,AutoTakeoff,
36.0028566,-118.5646164,5758.9139602039,0.328084,0.223694,0.114740161152,3700,2018-07-04 17:30:59,13,0,0,5758.9139602039,0.328084,0.223694,0.114740161152,0,0,-0.223694,322.2, -0.6, 0.9,0,0,1024,1024,1024,1024,320.4,-89.9,98,4.251,4.264,4.264,4.246,4.249,4.25,0,64.4,11,AutoTakeoff,
36.0028566,-118.5646166,5759.2420442039,0.656168,0.223694,0.164633863536,3800,2018-07-04 17:30:59,15,0,0,5759.2420442039,0.656168,0.223694,0.164633863536,0,0,0,322.2, -0.1, 1.3,0,0,1024,1024,1024,1024,320.5,-89.9,98,4.251,4.264,4.264,4.246,4.249,4.25,0,64.4,11,AutoTakeoff,
36.0028565,-118.5646168,5759.2420442039,0.656168,0.223694,0.233812999608,3900,2018-07-04 17:30:59,15,0,0,5759.2420442039,0.656168,0.223694,0.233812999608,0,0,0,322.2, 0.2, 1.4,0,0,1024,1024,1024,1024,320.5,-89.9,98,4.251,4.264,4.264,4.246,4.249,4.25,0,64.4,11,AutoTakeoff,
36.0028566,-118.564617,5759.5701282039,0.984252,0.223694,0.275482620364,4000,2018-07-04 17:30:59,13,0,24.636,5759.5701282039,0.984252,0.223694,0.275482620364,0,0,0,322.1, 0.6, 1.5,0,0,1024,1024,1024,1024,320.5,-89.9,98,4.251,4.264,4.264,4.246,4.249,4.25,9.302,64.4,11,AutoTakeoff,
36.0028566,-118.5646171,5759.5701282039,0.984252,0.223694,0.304044957236,4100,2018-07-04 17:30:59,13,0,24.636,5759.5701282039,0.984252,0.223694,0.304044957236,0,0,0,322.1, 0.8, 1.7,0,0,1024,1024,1024,1024,320.6,-89.9,98,4.251,4.264,4.264,4.246,4.249,4.25,9.302,64.4,11,AutoTakeoff,
36.0028566,-118.5646173,5759.8982122039,1.312336,0.223694,0.36162730816,4200,2018-07-04 17:30:59,13,0,24.636,5759.8982122039,1.312336,0.223694,0.36162730816,0,0,0,322.1, 0.9, 1.7,0,0,1024,1024,1024,1024,320.6,-89.9,98,4.251,4.264,4.264,4.246,4.249,4.25,9.302,64.4,11,AutoTakeoff,
36.0028567,-118.5646174,5759.8982122039,1.312336,0,0.38543636404,4300,2018-07-04 17:30:59,13,0,24.636,5759.8982122039,1.312336,0.223694,0.38543636404,0,0,0,322.1, 1, 1.6,0,0,1024,1024,1024,1024,320.6,-89.9,98,4.251,4.264,4.264,4.246,4.249,4.25,9.302,64.4,11,AutoTakeoff,
36.0028567,-118.5646175,5760.2262962039,1.64042,0,0.4148294096,4400,2018-07-04 17:30:59,11,0,24.636,5760.2262962039,1.64042,0.223694,0.4148294096,0,0,0,322.1, 1.1, 1.6,0,0,1024,1024,1024,1024,320.7,-89.9,98,4.251,4.264,4.264,4.246,4.249,4.25,9.302,64.4,11,AutoTakeoff,
36.0028567,-118.5646176,5760.2262962039,1.64042,0,0.44423885936,4500,2018-07-04 17:31:00,11,0,24.636,5760.2262962039,1.64042,0.223694,0.44423885936,0,0,0,322.1, 1.2, 1.6,0,0,1024,1024,1024,1024,320.7,-89.9,98,4.251,4.264,4.264,4.246,4.249,4.25,9.302,64.4,11,AutoTakeoff,
36.0028567,-118.5646177,5760.5543802039,1.968504,0,0.47366143248,4600,2018-07-04 17:31:00,12,0,24.636,5760.5543802039,1.968504,0.223694,0.47366143248,0,0,0,322.2, 1.3, 1.6,0,0,1024,1024,1024,1024,320.7,-89.9,98,4.251,4.264,4.264,4.246,4.249,4.25,9.302,64.4,11,AutoTakeoff,
36.0028568,-118.5646178,5760.8824642039,2.296588,0,0.50176838876,4800,2018-07-04 17:31:00,11,0,24.636,5760.8824642039,2.296588,0.223694,0.50176838876,0,0,0,322.2, 1.3, 1.6,0,0,1024,1024,1024,1024,320.7,-89.9,98,4.251,4.264,4.264,4.246,4.249,4.25,9.302,64.4,11,AutoTakeoff,
36.0028569,-118.5646178,5761.2105482039,2.624672,0,0.50309384812,4900,2018-07-04 17:31:00,13,0,24.636,5761.2105482039,2.624672,0.223694,0.50309384812,0,0,-0.223694,322.4, 1.3, 1.5,0,0,1024,1024,1024,1024,320.8,-89.9,98,4.251,4.264,4.264,4.246,4.249,4.25,9.302,64.4,11,AutoTakeoff,
36.0028569,-118.5646177,5761.2105482039,2.624672,0,0.47366143248,5000,2018-07-04 17:31:00,13,0,24.636,5761.2105482039,2.624672,0.223694,0.50309384812,0,0,0,322.4, 1.4, 1.2,0,0,1024,1024,1024,1024,320.8,-89.9,98,4.094,4.069,4.114,4.054,4.054,4.075,9.302,64.4,11,AutoTakeoff,
36.0028569,-118.5646177,5761.5386322039,2.952756,0,0.47366143248,5100,2018-07-04 17:31:00,12,0,24.636,5761.5386322039,2.952756,0.223694,0.50309384812,0,0,0,322.4, 1.4, 1.1,0,0,1024,1024,1024,1024,320.8,-89.9,98,4.094,4.069,4.114,4.054,4.054,4.075,9.302,64.4,14,Waypoint,
36.0028569,-118.5646177,5761.8667162039,3.28084,0,0.47366143248,5300,2018-07-04 17:31:00,12,0,24.636,5761.8667162039,3.28084,0.223694,0.50309384812,0,0,0,322.5, 1.3, 1.1,0,0,1024,1024,1024,1024,320.8,-89.9,98,4.094,4.069,4.114,4.054,4.054,4.075,9.302,64.4,14,Waypoint,
36.002857,-118.5646176,5762.1948002039,3.608924,0,0.44871064428,5400,2018-07-04 17:31:00,12,0,24.636,5762.1948002039,3.608924,0.223694,0.50309384812,0,0,0,322.6, -0.1, 0.1,0,0,1024,1024,1024,1024,320.9,-90,98,4.094,4.069,4.114,4.054,4.054,4.075,9.302,64.4,14,Waypoint,
36.0028569,-118.5646176,5762.1948002039,3.608924,0,0.44423885936,5600,2018-07-04 17:31:01,11,0,24.636,5762.1948002039,3.608924,0.223694,0.50309384812,0,0,0,322.7, -0.1, 0,0,0,1024,1024,1024,1024,320.9,-90,98,4.094,4.069,4.114,4.054,4.054,4.075,9.302,64.4,14,Waypoint,
36.0028569,-118.5646177,5762.1948002039,3.608924,0,0.47366143248,5700,2018-07-04 17:31:01,11,0,24.636,5762.1948002039,3.608924,0.223694,0.50309384812,0,0,0,322.8, 0, 0.1,0,0,1024,1024,1024,1024,320.9,-89.9,98,4.094,4.069,4.114,4.054,4.054,4.075,9.302,64.4,14,Waypoint,
36.0028568,-118.5646177,5762.5228842039,3.937008,0,0.47225395212,5800,2018-07-04 17:31:01,11,0,24.636,5762.5228842039,3.937008,0.223694,0.50309384812,0,0,-0.223694,323, 0.2, 0.5,0,0,1024,1024,1024,1024,321,-89.9,98,4.094,4.069,4.114,4.054,4.054,4.075,9.302,64.4,14,Waypoint,
36.0028568,-118.5646177,5762.8509682039,4.265092,0,0.47225395212,5900,2018-07-04 17:31:01,11,0,24.636,5762.8509682039,4.265092,0.223694,0.50309384812,0,0,-0.223694,323, 0.4, 0.8,0,0,1024,1024,1024,1024,321,-89.9,98,4.094,4.069,4.114,4.054,4.054,4.075,9.302,64.4,14,Waypoint,
36.0028568,-118.5646177,5762.8509682039,4.265092,0,0.47225395212,6000,2018-07-04 17:31:01,12,0,23.707,5762.8509682039,4.265092,0.223694,0.50309384812,0,0,-0.223694,323, 0.4, 1,0,0,1024,1024,1024,1024,321,-89.9,98,3.945,3.928,3.956,3.952,3.954,3.954,16.812,64.4,14,Waypoint,
36.0028568,-118.5646177,5763.1790522039,4.593176,0,0.47225395212,6100,2018-07-04 17:31:01,12,0,23.707,5763.1790522039,4.593176,0.223694,0.50309384812,0,0,-0.223694,322.9, 0.5, 0.9,0,0,1024,1024,1024,1024,321,-89.9,98,3.945,3.928,3.956,3.952,3.954,3.954,16.812,64.4,14,Waypoint,
36.0028568,-118.5646178,5763.8352202039,5.249344,0,0.50176838876,6200,2018-07-04 17:31:01,12,0,23.707,5763.8352202039,5.249344,0.223694,0.50309384812,0,0,-0.223694,322.8, 0.6, 0.8,0,0,1024,1024,1024,1024,321,-89.9,98,3.945,3.928,3.956,3.952,3.954,3.954,16.812,64.4,14,Waypoint,
36.0028568,-118.5646179,5764.1633042039,5.577428,0,0.53128610624,6300,2018-07-04 17:31:01,12,0,23.707,5764.1633042039,5.577428,0.223694,0.53128610624,0,0,-0.223694,322.7, 0.8, 0.9,0,0,1024,1024,1024,1024,321.1,-89.9,98,3.945,3.928,3.956,3.952,3.954,3.954,16.812,64.4,14,Waypoint,
36.0028569,-118.5646179,5764.8194722039,6.233596,0,0.53253610628,6400,2018-07-04 17:31:01,13,0,23.707,5764.8194722039,6.233596,0.223694,0.53253610628,0,0,-0.447388,322.5, 0.9, 1.3,0,0,1024,1024,1024,1024,321.1,-89.9,98,3.945,3.928,3.956,3.952,3.954,3.954,16.812,64.4,14,Waypoint,
36.002857,-118.5646178,5765.1475562039,6.56168,0,0.50704726032,6500,2018-07-04 17:31:02,13,0,23.707,5765.1475562039,6.56168,0.223694,0.53253610628,0,0,-0.447388,322.4, 0.8, 1.3,0,0,1024,1024,1024,1024,321.1,-89.9,98,3.945,3.928,3.956,3.952,3.954,3.954,16.812,64.4,14,Waypoint,
36.0028572,-118.5646179,5766.4598922039,7.874016,0,0.55096458456,6600,2018-07-04 17:31:02,13,0,23.707,5766.4598922039,7.874016,0.223694,0.55096458456,0,0,-0.447388,322.2, 0.8, 0.8,0,0,1024,1024,1024,1024,321.1,-89.9,98,3.945,3.928,3.956,3.952,3.954,3.954,16.812,64.4,14,Waypoint,
36.0028574,-118.5646178,5767.4441442039,8.858268,0,0.54744424324,6700,2018-07-04 17:31:02,15,0,23.707,5767.4441442039,8.858268,0.223694,0.55096458456,0,0,-0.671082,322.1, 1.1, 0.7,0,0,1024,1024,1024,1024,321.2,-89.9,98,3.945,3.928,3.956,3.952,3.954,3.954,16.812,64.4,14,Waypoint,
36.0028576,-118.5646177,5768.4283962039,9.84252,0,0.55517390228,6800,2018-07-04 17:31:02,15,0,23.707,5768.4283962039,9.84252,0.223694,0.55517390228,0,0,-0.671082,322.1, 1.4, 0.5,0,0,1024,1024,1024,1024,321.2,-89.9,98,3.945,3.928,3.956,3.952,3.954,3.954,16.812,64.4,14,Waypoint,
36.002858,-118.5646174,5770.3969002039,11.811024,0,0.58216537296,7000,2018-07-04 17:31:02,14,0,23.474,5770.3969002039,11.811024,0.223694,0.58216537296,0,0,-0.671082,322.1, 1.6, -0.4,0,0,1024,1024,1024,1024,321.2,-89.9,97,3.903,3.883,3.917,3.912,3.922,3.922,17.557,64.4,14,Waypoint,
36.0028582,-118.5646173,5771.7092362039,13.12336,0,0.62157482304,7100,2018-07-04 17:31:02,15,0,23.474,5771.7092362039,13.12336,0.223694,0.62157482304,0,0,-0.671082,322.2, 1.5, -0.8,0,0,1024,1024,1024,1024,321.2,-89.9,97,3.903,3.883,3.917,3.912,3.922,3.922,17.557,64.4,14,Waypoint,
36.0028584,-118.5646172,5772.6934882039,14.107612,0,0.66797246232,7200,2018-07-04 17:31:02,15,0,23.474,5772.6934882039,14.107612,0.223694,0.66797246232,0,0,-0.671082,322.3, 1.5, -0.9,0,0,1024,1024,1024,1024,321.3,-89.9,97,3.903,3.883,3.917,3.912,3.922,3.922,17.557,64.4,14,Waypoint,
36.0028585,-118.5646171,5774.0058242039,15.419948,0,0.6868930666,7310,2018-07-04 17:31:02,14,0,23.474,5774.0058242039,15.419948,0.223694,0.6868930666,0,0,-0.671082,322.4, 1.5, -1.1,0,0,1024,1024,1024,1024,321.3,-89.9,97,3.903,3.883,3.917,3.912,3.922,3.922,17.557,64.4,14,Waypoint,
36.0028585,-118.5646171,5774.0058242039,15.419948,0,0.6868930666,7400,2018-07-04 17:31:02,14,0,23.474,5774.0058242039,15.419948,0.223694,0.6868930666,0,0,-0.671082,322.4, 1.5, -1.1,0,0,1024,1024,1024,1024,321.3,-89.9,97,3.903,3.883,3.917,3.912,3.922,3.922,17.557,64.4,14,Waypoint,
36.0028585,-118.5646169,5774.9900762039,16.4042,0,0.66367128108,7500,2018-07-04 17:31:03,14,0,23.474,5774.9900762039,16.4042,0.223694,0.6868930666,0,0,-0.671082,322.5, 1.5, -1.2,0,0,1024,1024,1024,1024,321.3,-89.9,97,3.903,3.883,3.917,3.912,3.922,3.922,17.557,64.4,14,Waypoint,
36.0028585,-118.5646168,5776.3024122039,17.716536,0,0.65375002092,7600,2018-07-04 17:31:03,15,0,23.474,5776.3024122039,17.716536,0.223694,0.6868930666,0,0,-0.671082,322.5, 1.2, -1.2,0,0,1024,1024,1024,1024,321.3,-89.9,97,3.903,3.883,3.917,3.912,3.922,3.922,17.557,64.4,14,Waypoint,
36.0028585,-118.5646168,5777.2866642039,18.700788,0,0.65375002092,7700,2018-07-04 17:31:03,15,0,23.474,5777.2866642039,18.700788,0.223694,0.6868930666,0,0,-0.671082,322.5, 0.8, -1,0,0,1024,1024,1024,1024,321.3,-89.9,97,3.903,3.883,3.917,3.912,3.922,3.922,17.557,64.4,14,Waypoint,
36.0028584,-118.5646168,5778.5990002039,20.013124,0.223694,0.6192421458,7800,2018-07-04 17:31:03,15,0,23.474,5778.5990002039,20.013124,0.223694,0.6868930666,0,0,-0.671082,322.5, 0.5, -0.4,0,0,1024,1024,1024,1024,321.3,-90,97,3.903,3.883,3.917,3.912,3.922,3.922,17.557,64.4,14,Waypoint,
36.0028582,-118.5646168,5779.5832522039,20.997376,0.223694,0.55099411212,7900,2018-07-04 17:31:03,15,0,23.474,5779.5832522039,20.997376,0.223694,0.6868930666,0,0,-0.671082,322.5, 0.2, 0,0,0,1024,1024,1024,1024,321.3,-90,97,3.903,3.883,3.917,3.912,3.922,3.922,17.557,64.4,14,Waypoint,
36.0028581,-118.5646169,5780.8955882039,22.309712,0.223694,0.52982941328,8000,2018-07-04 17:31:03,15,0,23.231,5780.8955882039,22.309712,0.223694,0.6868930666,0,0,-0.671082,322.5, 0, 0.5,0,0,1024,1024,1024,1024,321.4,-90,97,3.843,3.811,3.846,3.842,3.862,3.859,17.954,64.4,14,Waypoint,
36.002858,-118.5646171,5781.8798402039,23.293964,0,0.5280183896,8100,2018-07-04 17:31:03,15,0,23.231,5781.8798402039,23.293964,0.223694,0.6868930666,0,0,-0.671082,322.5, 0.1, 0.9,0,0,1024,1024,1024,1024,321.4,-89.9,97,3.843,3.811,3.846,3.842,3.862,3.859,17.954,64.4,14,Waypoint,
36.0028579,-118.5646172,5782.8640922039,24.278216,0,0.51622048896,8200,2018-07-04 17:31:03,15,0,23.231,5782.8640922039,24.278216,0.223694,0.6868930666,0,0,-0.671082,322.5, 0.3, 1,0,0,1024,1024,1024,1024,321.4,-89.9,97,3.843,3.811,3.846,3.842,3.862,3.859,17.954,64.4,14,Waypoint,
36.0028578,-118.5646173,5783.8483442039,25.262468,0,0.50849411076,8300,2018-07-04 17:31:03,15,0,23.231,5783.8483442039,25.262468,0.223694,0.6868930666,0,0,-0.671082,322.5, 0.7, 0.9,0,0,1024,1024,1024,1024,321.4,-89.9,97,3.843,3.811,3.846,3.842,3.862,3.859,17.954,64.4,14,Waypoint,
36.0028577,-118.5646175,5785.1606802039,26.574804,0,0.52780185416,8400,2018-07-04 17:31:03,15,0,23.231,5785.1606802039,26.574804,0.223694,0.6868930666,0,0,-0.671082,322.5, 0.7, 0.9,0,0,1024,1024,1024,1024,321.4,-89.9,97,3.843,3.811,3.846,3.842,3.862,3.859,17.954,64.4,14,Waypoint,
36.0028575,-118.5646176,5786.1449322039,27.559056,0,0.51111878276,8500,2018-07-04 17:31:04,15,0,23.231,5786.1449322039,27.559056,0.223694,0.6868930666,0,0,-0.671082,322.4, 0.7, 1,0,0,1024,1024,1024,1024,321.4,-89.9,97,3.843,3.811,3.846,3.842,3.862,3.859,17.954,64.4,14,Waypoint,
36.0028574,-118.5646178,5787.1291842039,28.543308,0,0.54744424324,8600,2018-07-04 17:31:04,15,0,23.231,5787.1291842039,28.543308,0.223694,0.6868930666,0,0,-0.671082,322.3, 0.7, 1.2,0,0,1024,1024,1024,1024,321.4,-89.9,97,3.843,3.811,3.846,3.842,3.862,3.859,17.954,64.4,14,Waypoint,
36.0028573,-118.5646179,5788.1134362039,29.52756,0,0.56173230144,8700,2018-07-04 17:31:04,15,0,23.231,5788.1134362039,29.52756,0.223694,0.6868930666,0,0,-0.671082,322.3, 0.8, 1.7,0,0,1024,1024,1024,1024,321.4,-89.9,97,3.843,3.811,3.846,3.842,3.862,3.859,17.954,64.4,14,Waypoint,
36.0028572,-118.5646181,5789.0976882039,30.511812,0,0.60809057064,8800,2018-07-04 17:31:04,13,0,23.231,5789.0976882039,30.511812,0.223694,0.6868930666,0,0,-0.671082,322.3, 0.6, 2.2,0,0,1024,1024,1024,1024,321.4,-89.9,97,3.843,3.811,3.846,3.842,3.862,3.859,17.954,64.4,14,Waypoint,
36.0028571,-118.5646184,5790.0819402039,31.496064,0,0.6876312556,8900,2018-07-04 17:31:04,13,0,23.231,5790.0819402039,31.496064,0.223694,0.6876312556,0,0,-0.671082,322.4, 0.4, 2.5,0,0,1024,1024,1024,1024,321.4,-89.9,97,3.843,3.811,3.846,3.842,3.862,3.859,17.954,64.4,14,Waypoint,
36.002857,-118.5646185,5791.0661922039,32.480316,0,0.71212928788,9000,2018-07-04 17:31:04,14,0,22.587,5791.0661922039,32.480316,0.223694,0.71212928788,0,0,-0.671082,322.4, 0.3, 2.5,0,0,1024,1024,1024,1024,321.4,-89.9,97,3.782,3.759,3.803,3.778,3.806,3.798,25.796,66.2,14,Waypoint,
36.0028569,-118.5646187,5793.3627802039,34.776904,0,0.76828086448,9100,2018-07-04 17:31:04,15,0,22.587,5793.3627802039,34.776904,0.223694,0.76828086448,0,0,-0.671082,322.4, 0.6, 2,0,0,1024,1024,1024,1024,321.4,-89.9,97,3.782,3.759,3.803,3.778,3.806,3.798,25.796,66.2,14,Waypoint,
36.0028569,-118.5646189,5794.3470322039,35.761156,0,0.82725068264,9200,2018-07-04 17:31:04,15,0,22.587,5794.3470322039,35.761156,0.223694,0.82725068264,0,0,-0.671082,322.4, 1, 1.8,0,0,1024,1024,1024,1024,321.4,-89.9,97,3.782,3.759,3.803,3.778,3.806,3.798,25.796,66.2,14,Waypoint,
36.0028569,-118.5646191,5795.3312842039,36.745408,0,0.88622706248,9300,2018-07-04 17:31:04,16,0,22.587,5795.3312842039,36.745408,0.223694,0.88622706248,0,0,-0.671082,322.4, 1.5, 1.6,0,0,1024,1024,1024,1024,321.4,-89.9,97,3.782,3.759,3.803,3.778,3.806,3.798,25.796,66.2,14,Waypoint,
36.0028568,-118.5646191,5796.6436202039,38.057744,0,0.88547575012,9400,2018-07-04 17:31:04,16,0,22.587,5796.6436202039,38.057744,0.223694,0.88622706248,0,0,-0.671082,322.4, 1.9, 1.6,0,0,1024,1024,1024,1024,321.4,-89.9,97,3.782,3.759,3.803,3.778,3.806,3.798,25.796,66.2,14,Waypoint,
36.0028567,-118.5646192,5797.2997882039,38.713912,0,0.91571853324,9500,2018-07-04 17:31:05,15,0,22.587,5797.2997882039,38.713912,0.223694,0.91571853324,0,0,-0.671082,322.5, 1.8, 1.6,0,0,1024,1024,1024,1024,321.4,-89.9,97,3.782,3.759,3.803,3.778,3.806,3.798,25.796,66.2,14,Waypoint,
36.0028566,-118.5646193,5799.2682922039,40.682416,0,0.94732286496,9700,2018-07-04 17:31:05,15,0,22.587,5799.2682922039,40.682416,0.223694,0.94732286496,0,0,-0.671082,322.6, 0.8, 1.7,0,0,1024,1024,1024,1024,321.4,-89.9,97,3.782,3.759,3.803,3.778,3.806,3.798,25.796,66.2,14,Waypoint,
36.0028565,-118.5646193,5800.2525442039,41.666668,0,0.95083008292,9900,2018-07-04 17:31:05,15,0,22.587,5800.2525442039,41.666668,0.223694,0.95083008292,0,0,-0.671082,322.6, 0.6, 1.6,0,0,1024,1024,1024,1024,321.4,-90,97,3.782,3.759,3.803,3.778,3.806,3.798,25.796,66.2,14,Waypoint,
36.0028565,-118.5646194,5801.2367962039,42.65092,0,0.98015423084,10000,2018-07-04 17:31:05,15,0,22.915,5801.2367962039,42.65092,0.223694,0.98015423084,0,0,-0.671082,322.6, 0.6, 1.6,0,0,1024,1024,1024,1024,321.4,-90,97,3.824,3.811,3.832,3.829,3.849,3.84,20.648,66.2,14,Waypoint,
36.0028564,-118.5646194,5802.5491322039,43.963256,0,0.98489504464,10100,2018-07-04 17:31:05,15,0,22.915,5802.5491322039,43.963256,0.223694,0.98489504464,0,0,-0.671082,322.6, 0.6, 1.5,0,0,1024,1024,1024,1024,321.4,-90,97,3.824,3.811,3.832,3.829,3.849,3.84,20.648,66.2,14,Waypoint,
36.0028564,-118.5646194,5803.5333842039,44.947508,0,0.98489504464,10200,2018-07-04 17:31:05,15,0,22.915,5803.5333842039,44.947508,0.223694,0.98489504464,0,0,-0.671082,322.6, 0.5, 1.6,0,0,1024,1024,1024,1024,321.4,-90,97,3.824,3.811,3.832,3.829,3.849,3.84,20.648,66.2,14,Waypoint,
36.0028563,-118.5646194,5804.5176362039,45.93176,0,0.99095803696,10300,2018-07-04 17:31:05,15,0,22.915,5804.5176362039,45.93176,0.223694,0.99095803696,0,0,-0.671082,322.5, 0.6, 1.7,0,0,1024,1024,1024,1024,321.4,-90,97,3.824,3.811,3.832,3.829,3.849,3.84,20.648,66.2,14,Waypoint,
36.0028563,-118.5646194,5805.5018882039,46.916012,0,0.99095803696,10400,2018-07-04 17:31:05,15,0,22.915,5805.5018882039,46.916012,0.223694,0.99095803696,0,0,-0.671082,322.5, 0.5, 1.7,0,0,1024,1024,1024,1024,321.4,-90,97,3.824,3.811,3.832,3.829,3.849,3.84,20.648,66.2,14,Waypoint,
36.0028562,-118.5646194,5806.4861402039,47.900264,0,0.99832024192,10500,2018-07-04 17:31:06,15,0,22.915,5806.4861402039,47.900264,0.223694,0.99832024192,0,0,-0.671082,322.5, 0.5, 1.8,0,0,1024,1024,1024,1024,321.4,-90,97,3.824,3.811,3.832,3.829,3.849,3.84,20.648,66.2,14,Waypoint,
36.0028562,-118.5646194,5807.4703922039,48.884516,0,0.99832024192,10600,2018-07-04 17:31:06,15,0,22.915,5807.4703922039,48.884516,0.223694,0.99832024192,0,0,-0.671082,322.5, 0.8, 1.9,0,0,1024,1024,1024,1024,321.4,-89.9,97,3.824,3.811,3.832,3.829,3.849,3.84,20.648,66.2,14,Waypoint,
36.0028562,-118.5646194,5808.4546442039,49.868768,0,0.99832024192,10700,2018-07-04 17:31:06,15,0,22.915,5808.4546442039,49.868768,0.223694,0.99832024192,0,0,-0.671082,322.6, 1, 1.9,0,0,1024,1024,1024,1024,321.4,-89.9,97,3.824,3.811,3.832,3.829,3.849,3.84,20.648,66.2,14,Waypoint,
36.0028563,-118.5646193,5809.4388962039,50.85302,0,0.96196197304,10800,2018-07-04 17:31:06,15,0,22.915,5809.4388962039,50.85302,0.223694,0.99832024192,0,0,-0.671082,322.6, 1.1, 1.9,0,0,1024,1024,1024,1024,321.4,-89.9,97,3.824,3.811,3.832,3.829,3.849,3.84,20.648,66.2,14,Waypoint,
36.0028563,-118.5646193,5810.4231482039,51.837272,0,0.96196197304,10900,2018-07-04 17:31:06,15,0,22.915,5810.4231482039,51.837272,0.223694,0.99832024192,0,0,-0.671082,322.5, 1.2, 1.6,0,0,1024,1024,1024,1024,321.4,-89.9,97,3.824,3.811,3.832,3.829,3.849,3.84,20.648,66.2,14,Waypoint,
36.0028563,-118.5646193,5811.4074002039,52.821524,0,0.96196197304,11000,2018-07-04 17:31:06,15,0,22.975,5811.4074002039,52.821524,0.223694,0.99832024192,0,0,-0.671082,322.6, 1.2, 1.3,0,0,1024,1024,1024,1024,321.4,-89.9,97,3.822,3.785,3.849,3.826,3.846,3.853,19.712,66.2,14,Waypoint,
36.0028564,-118.5646193,5812.3916522039,53.805776,0,0.95571525368,11100,2018-07-04 17:31:06,15,0,22.975,5812.3916522039,53.805776,0.223694,0.99832024192,0,0,-0.671082,322.6, 1.2, 1.1,0,0,1024,1024,1024,1024,321.4,-89.9,97,3.822,3.785,3.849,3.826,3.846,3.853,19.712,66.2,14,Waypoint,
36.0028564,-118.5646193,5814.3601562039,55.77428,0,0.95571525368,11200,2018-07-04 17:31:06,16,0,22.975,5814.3601562039,55.77428,0.223694,0.99832024192,0,0,-0.671082,322.8, 1.2, 1.1,0,0,1024,1024,1024,1024,321.4,-89.9,97,3.822,3.785,3.849,3.826,3.846,3.853,19.712,66.2,14,Waypoint,
36.0028565,-118.5646193,5815.3444082039,56.758532,0,0.95083008292,11300,2018-07-04 17:31:06,16,0,22.975,5815.3444082039,56.758532,0.223694,0.99832024192,0,0,-0.671082,322.9, 1.4, 1.3,0,0,1024,1024,1024,1024,321.4,-89.9,97,3.822,3.785,3.849,3.826,3.846,3.853,19.712,66.2,14,Waypoint,
36.0028565,-118.5646192,5816.3286602039,57.742784,0,0.92151577752,11400,2018-07-04 17:31:06,16,0,22.975,5816.3286602039,57.742784,0.223694,0.99832024192,0,0,-0.671082,322.8, 1.6, 1.6,0,0,1024,1024,1024,1024,321.4,-89.9,97,3.822,3.785,3.849,3.826,3.846,3.853,19.712,66.2,14,Waypoint,
36.0028566,-118.5646192,5817.3129122039,58.727036,0,0.917897011,11500,2018-07-04 17:31:07,16,0,22.975,5817.3129122039,58.727036,0.223694,0.99832024192,0,0,-0.671082,322.8, 1.5, 1.8,0,0,1024,1024,1024,1024,321.4,-89.9,97,3.822,3.785,3.849,3.826,3.846,3.853,19.712,66.2,14,Waypoint,
36.0028566,-118.5646192,5818.2971642039,59.711288,0,0.917897011,11700,2018-07-04 17:31:07,16,0,22.975,5818.2971642039,59.711288,0.223694,0.99832024192,0,0,-0.671082,322.6, 1.3, 2,0,0,1024,1024,1024,1024,321.4,-89.9,97,3.822,3.785,3.849,3.826,3.846,3.853,19.712,66.2,14,Waypoint,
36.0028566,-118.5646192,5819.2814162039,60.69554,0,0.917897011,11800,2018-07-04 17:31:07,16,0,22.975,5819.2814162039,60.69554,0.223694,0.99832024192,0,0,-0.671082,322.5, 1.1, 2.2,0,0,1024,1024,1024,1024,321.4,-89.9,97,3.822,3.785,3.849,3.826,3.846,3.853,19.712,66.2,14,Waypoint,
36.0028566,-118.5646191,5820.2656682039,61.679792,0,0.88847771872,11900,2018-07-04 17:31:07,16,0,22.975,5820.2656682039,61.679792,0.223694,0.99832024192,0,0,-0.671082,322.3, 1.2, 2.2,0,0,1024,1024,1024,1024,321.4,-89.9,97,3.822,3.785,3.849,3.826,3.846,3.853,19.712,66.2,14,Waypoint,
36.0028566,-118.5646191,5821.2499202039,62.664044,0,0.88847771872,12000,2018-07-04 17:31:07,16,0,22.987,5821.2499202039,62.664044,0.223694,0.99832024192,0,0,-0.671082,322.2, 1.1, 2,0,0,1024,1024,1024,1024,321.4,-89.9,97,3.83,3.807,3.834,3.834,3.845,3.845,19.376,66.2,14,Waypoint,
36.0028567,-118.5646191,5822.2341722039,63.648296,0,0.88622706248,12100,2018-07-04 17:31:07,16,0,22.987,5822.2341722039,63.648296,0.223694,0.99832024192,0,0,-0.671082,322.3, 1.1, 1.9,0,0,1024,1024,1024,1024,321.4,-89.9,97,3.83,3.807,3.834,3.834,3.845,3.845,19.376,66.2,14,Waypoint,
36.0028568,-118.564619,5823.2184242039,64.632548,0,0.85596131348,12200,2018-07-04 17:31:07,16,0,22.987,5823.2184242039,64.632548,0.223694,0.99832024192,0,0,-0.671082,322.3, 1.2, 1.7,0,0,1024,1024,1024,1024,321.4,-89.9,97,3.83,3.807,3.834,3.834,3.845,3.845,19.376,66.2,14,Waypoint,
36.0028568,-118.564619,5824.2026762039,65.6168,0,0.85596131348,12300,2018-07-04 17:31:07,16,0,22.987,5824.2026762039,65.6168,0.223694,0.99832024192,0,0,-0.671082,322.4, 1.4, 1.5,0,0,1024,1024,1024,1024,321.4,-89.9,97,3.83,3.807,3.834,3.834,3.845,3.845,19.376,66.2,14,Waypoint,
36.0028569,-118.5646189,5825.1869282039,66.601052,0,0.82725068264,12400,2018-07-04 17:31:07,16,0,22.987,5825.1869282039,66.601052,0.223694,0.99832024192,0,0,-0.671082,322.5, 1.4, 1.4,0,0,1024,1024,1024,1024,321.4,-89.9,97,3.83,3.807,3.834,3.834,3.845,3.845,19.376,66.2,14,Waypoint,
36.0028571,-118.5646188,5827.1554322039,68.569556,0,0.80440947456,12600,2018-07-04 17:31:08,16,0,22.987,5827.1554322039,68.569556,0.223694,0.99832024192,0,0,-0.671082,322.5, 1.4, 1.2,0,0,1024,1024,1024,1024,321.4,-89.9,97,3.83,3.807,3.834,3.834,3.845,3.845,19.376,66.2,14,Waypoint,
36.0028571,-118.5646187,5828.1396842039,69.553808,0,0.775180471,12700,2018-07-04 17:31:08,16,0,22.987,5828.1396842039,69.553808,0.223694,0.99832024192,0,0,-0.671082,322.5, 1.6, 0.9,0,0,1024,1024,1024,1024,321.4,-89.9,97,3.83,3.807,3.834,3.834,3.845,3.845,19.376,66.2,14,Waypoint,
36.0028572,-118.5646187,5829.1239362039,70.53806,0,0.78116472316,12800,2018-07-04 17:31:08,16,0,22.987,5829.1239362039,70.53806,0.223694,0.99832024192,0,0,-0.671082,322.4, 1.9, 0.6,0,0,1024,1024,1024,1024,321.4,-89.9,97,3.83,3.807,3.834,3.834,3.845,3.845,19.376,66.2,14,Waypoint,
36.0028573,-118.5646187,5830.1081882039,71.522312,0,0.788795957,12900,2018-07-04 17:31:08,16,0,22.987,5830.1081882039,71.522312,0.223694,0.99832024192,0,0,-0.671082,322.3, 2, 0.5,0,0,1024,1024,1024,1024,321.4,-89.9,97,3.83,3.807,3.834,3.834,3.845,3.845,19.376,66.2,14,Waypoint,
36.0028574,-118.5646186,5831.0924402039,72.506564,0,0.769685064,13000,2018-07-04 17:31:08,16,0,22.943,5831.0924402039,72.506564,0.223694,0.99832024192,0,0,-0.671082,322.2, 2.2, 0.7,0,0,1024,1024,1024,1024,321.4,-89.9,97,3.818,3.8,3.824,3.82,3.842,3.833,19.425,66.2,14,Waypoint,
36.0028575,-118.5646186,5833.0609442039,74.475068,0,0.78084320084,13200,2018-07-04 17:31:08,16,0,22.943,5833.0609442039,74.475068,0.223694,0.99832024192,0,0,-0.671082,322.1, 1.9, 0.8,0,0,1024,1024,1024,1024,321.4,-89.9,97,3.818,3.8,3.824,3.82,3.842,3.833,19.425,66.2,14,Waypoint,
36.0028575,-118.5646186,5834.0451962039,75.45932,0,0.78084320084,13300,2018-07-04 17:31:08,16,0,22.943,5834.0451962039,75.45932,0.223694,0.99832024192,0,0,-0.671082,322, 1.8, 1,0,0,1024,1024,1024,1024,321.4,-89.9,97,3.818,3.8,3.824,3.82,3.842,3.833,19.425,66.2,14,Waypoint,
36.0028575,-118.5646185,5835.0294482039,76.443572,0,0.75301511596,13400,2018-07-04 17:31:08,16,0,22.943,5835.0294482039,76.443572,0.223694,0.99832024192,0,0,-0.671082,322, 1.8, 1.3,0,0,1024,1024,1024,1024,321.4,-89.9,97,3.818,3.8,3.824,3.82,3.842,3.833,19.425,66.2,14,Waypoint,
36.0028575,-118.5646185,5836.0137002039,77.427824,0,0.75301511596,13500,2018-07-04 17:31:09,16,0,22.943,5836.0137002039,77.427824,0.223694,0.99832024192,0,0,-0.671082,322, 1.7, 1.7,0,0,1024,1024,1024,1024,321.4,-89.9,97,3.818,3.8,3.824,3.82,3.842,3.833,19.425,66.2,14,Waypoint,
36.0028575,-118.5646185,5837.9822042039,79.396328,0,0.75301511596,13600,2018-07-04 17:31:09,16,0,22.943,5837.9822042039,79.396328,0.223694,0.99832024192,0,0,-0.671082,322.4, 1.5, 1.7,0,0,1024,1024,1024,1024,321.4,-89.9,97,3.818,3.8,3.824,3.82,3.842,3.833,19.425,66.2,14,Waypoint,
36.0028575,-118.5646184,5838.9664562039,80.38058,0,0.72531498384,13700,2018-07-04 17:31:09,16,0,22.943,5838.9664562039,80.38058,0.223694,0.99832024192,0,0,-0.671082,322.6, 1.4, 1.5,0,0,1024,1024,1024,1024,321.4,-90,97,3.818,3.8,3.824,3.82,3.842,3.833,19.425,66.2,14,Waypoint,
36.0028576,-118.5646184,5839.9507082039,81.364832,0,0.73895343572,13800,2018-07-04 17:31:09,16,0,22.943,5839.9507082039,81.364832,0.223694,0.99832024192,0,0,-0.671082,322.8, 1.3, 1.3,0,0,1024,1024,1024,1024,321.4,-90,97,3.818,3.8,3.824,3.82,3.842,3.833,19.425,66.2,14,Waypoint,
36.0028576,-118.5646183,5840.9349602039,82.349084,0,0.71193243748,13900,2018-07-04 17:31:09,16,0,22.943,5840.9349602039,82.349084,0.223694,0.99832024192,0,0,-0.671082,322.9, 1.3, 1.1,0,0,1024,1024,1024,1024,321.4,-89.9,97,3.818,3.8,3.824,3.82,3.842,3.833,19.425,66.2,14,Waypoint,
36.0028575,-118.5646183,5841.9192122039,83.333336,0,0.6977690512,14000,2018-07-04 17:31:09,16,0,22.834,5841.9192122039,83.333336,0.223694,0.99832024192,0,0,-0.671082,323, 1.2, 1.2,0,0,1024,1024,1024,1024,321.4,-90,97,3.794,3.79,3.808,3.801,3.832,3.815,20.1,66.2,14,Waypoint,
36.0028575,-118.5646183,5842.9034642039,84.317588,0,0.6977690512,14200,2018-07-04 17:31:09,16,0,22.834,5842.9034642039,84.317588,0.223694,0.99832024192,0,0,-0.671082,323, 1, 1.6,0,0,1024,1024,1024,1024,321.4,-90,97,3.794,3.79,3.808,3.801,3.832,3.815,20.1,66.2,14,Waypoint,
36.0028576,-118.5646183,5843.8877162039,85.30184,0,0.71193243748,14300,2018-07-04 17:31:09,16,0,22.834,5843.8877162039,85.30184,0.223694,0.99832024192,0,0,-0.671082,322.9, 0.9, 1.7,0,0,1024,1024,1024,1024,321.4,-90,97,3.794,3.79,3.808,3.801,3.832,3.815,20.1,66.2,14,Waypoint,
36.0028576,-118.5646183,5844.8719682039,86.286092,0,0.71193243748,14400,2018-07-04 17:31:09,16,0,22.834,5844.8719682039,86.286092,0.223694,0.99832024192,0,0,-0.671082,322.8, 1, 1.6,0,0,1024,1024,1024,1024,321.4,-90,97,3.794,3.79,3.808,3.801,3.832,3.815,20.1,66.2,14,Waypoint,
36.0028576,-118.5646184,5845.8562202039,87.270344,0,0.73895343572,14500,2018-07-04 17:31:10,16,0,22.834,5845.8562202039,87.270344,0.223694,0.99832024192,0,0,-0.671082,322.8, 1.2, 1.5,0,0,1024,1024,1024,1024,321.4,-89.9,97,3.794,3.79,3.808,3.801,3.832,3.815,20.1,66.2,14,Waypoint,
36.0028576,-118.5646184,5846.8404722039,88.254596,0,0.73895343572,14600,2018-07-04 17:31:10,16,0,22.834,5846.8404722039,88.254596,0.223694,0.99832024192,0,0,-0.671082,322.7, 1.5, 1.7,0,0,1024,1024,1024,1024,321.4,-89.9,97,3.794,3.79,3.808,3.801,3.832,3.815,20.1,66.2,14,Waypoint,
36.0028576,-118.5646184,5847.8247242039,89.238848,0,0.73895343572,14700,2018-07-04 17:31:10,16,0,22.834,5847.8247242039,89.238848,0.223694,0.99832024192,0,0,-0.671082,322.6, 1.7, 1.8,0,0,1024,1024,1024,1024,321.4,-89.9,97,3.794,3.79,3.808,3.801,3.832,3.815,20.1,66.2,14,Waypoint,
36.0028576,-118.5646184,5848.8089762039,90.2231,0,0.73895343572,14800,2018-07-04 17:31:10,16,0,22.834,5848.8089762039,90.2231,0.223694,0.99832024192,0,0,-0.671082,322.4, 2, 1.9,0,0,1024,1024,1024,1024,321.4,-89.9,97,3.794,3.79,3.808,3.801,3.832,3.815,20.1,66.2,14,Waypoint,
36.0028577,-118.5646184,5849.7932282039,91.207352,0,0.75411091652,14900,2018-07-04 17:31:10,16,0,22.834,5849.7932282039,91.207352,0.223694,0.99832024192,0,0,-0.671082,322.3, 2.2, 2,0,0,1024,1024,1024,1024,321.4,-89.9,97,3.794,3.79,3.808,3.801,3.832,3.815,20.1,66.2,14,Waypoint,
36.0028577,-118.5646184,5850.7774802039,92.191604,0,0.75411091652,15000,2018-07-04 17:31:10,16,0,22.893,5850.7774802039,92.191604,0.223694,0.99832024192,0,0,-0.671082,322.1, 2, 1.8,0,0,1024,1024,1024,1024,321.4,-89.9,97,3.794,3.79,3.808,3.801,3.832,3.815,19.275,66.2,14,Waypoint,
36.0028578,-118.5646184,5851.7617322039,93.175856,0,0.77069556272,15100,2018-07-04 17:31:10,16,0,22.893,5851.7617322039,93.175856,0.223694,0.99832024192,0,0,-0.671082,322, 1.9, 1.4,0,0,1024,1024,1024,1024,321.4,-89.9,97,3.794,3.79,3.808,3.801,3.832,3.815,19.275,66.2,14,Waypoint,
36.0028578,-118.5646183,5852.7459842039,94.160108,0,0.74482942016,15200,2018-07-04 17:31:10,16,0,22.893,5852.7459842039,94.160108,0.223694,0.99832024192,0,0,-0.671082,322, 1.7, 1.1,0,0,1024,1024,1024,1024,321.4,-89.9,97,3.794,3.79,3.808,3.801,3.832,3.815,19.275,66.2,14,Waypoint,
36.0028578,-118.5646183,5853.7302362039,95.14436,0,0.74482942016,15300,2018-07-04 17:31:10,16,0,22.893,5853.7302362039,95.14436,0.223694,0.99832024192,0,0,-0.671082,322, 1.5, 1,0,0,1024,1024,1024,1024,321.4,-89.9,97,3.794,3.79,3.808,3.801,3.832,3.815,19.275,66.2,14,Waypoint,
36.0028579,-118.5646183,5854.7144882039,96.128612,0,0.76336288532,15400,2018-07-04 17:31:10,16,0,22.893,5854.7144882039,96.128612,0.223694,0.99832024192,0,0,-0.671082,322.2, 1.7, 0.9,0,0,1024,1024,1024,1024,321.4,-89.9,97,3.794,3.79,3.808,3.801,3.832,3.815,19.275,66.2,14,Waypoint,
36.0028579,-118.5646183,5855.6987402039,97.112864,0,0.76336288532,15500,2018-07-04 17:31:11,16,0,22.893,5855.6987402039,97.112864,0.223694,0.99832024192,0,0,-0.671082,322.4, 1.8, 1.1,0,0,1024,1024,1024,1024,321.4,-89.9,97,3.794,3.79,3.808,3.801,3.832,3.815,19.275,66.2,14,Waypoint,
36.0028579,-118.5646183,5856.6829922039,98.097116,0,0.76336288532,15600,2018-07-04 17:31:11,16,0,22.893,5856.6829922039,98.097116,0.223694,0.99832024192,0,0,-0.671082,322.6, 1.8, 1.4,0,0,1024,1024,1024,1024,321.4,-89.9,97,3.794,3.79,3.808,3.801,3.832,3.815,19.275,66.2,14,Waypoint,
36.0028579,-118.5646183,5857.6672442039,99.081368,0,0.76336288532,15700,2018-07-04 17:31:11,16,0,22.893,5857.6672442039,99.081368,0.223694,0.99832024192,0,0,-0.671082,322.7, 1.6, 1.4,0,0,1024,1024,1024,1024,321.4,-89.9,97,3.794,3.79,3.808,3.801,3.832,3.815,19.275,66.2,14,Waypoint,
36.0028578,-118.5646183,5859.6357482039,101.049872,0,0.74482942016,15800,2018-07-04 17:31:11,16,0,22.893,5859.6357482039,101.049872,0.223694,0.99832024192,0,0,-0.671082,322.7, 1.2, 1.9,0,0,1024,1024,1024,1024,321.4,-90,97,3.794,3.79,3.808,3.801,3.832,3.815,19.275,66.2,14,Waypoint,
36.0028578,-118.5646183,5860.6200002039,102.034124,0,0.74482942016,15900,2018-07-04 17:31:11,16,0,22.893,5860.6200002039,102.034124,0.223694,0.99832024192,0,0,-0.671082,322.7, 1.3, 1.8,0,0,1024,1024,1024,1024,321.4,-89.9,97,3.794,3.79,3.808,3.801,3.832,3.815,19.275,66.2,14,Waypoint,
36.0028578,-118.5646183,5861.6042522039,103.018376,0,0.74482942016,16000,2018-07-04 17:31:11,16,0,22.893,5861.6042522039,103.018376,0.223694,0.99832024192,0,0,-0.671082,322.7, 1.4, 1.7,0,0,1024,1024,1024,1024,321.4,-89.9,96,3.807,3.788,3.831,3.806,3.826,3.825,19.275,66.2,14,Waypoint,
36.0028578,-118.5646183,5862.5885042039,104.002628,0,0.74482942016,16100,2018-07-04 17:31:11,16,0,22.893,5862.5885042039,104.002628,0.223694,0.99832024192,0,0,-0.671082,322.7, 1.5, 1.6,0,0,1024,1024,1024,1024,321.4,-89.9,96,3.807,3.788,3.831,3.806,3.826,3.825,19.275,66.2,14,Waypoint,
36.0028578,-118.5646183,5863.5727562039,104.98688,0,0.74482942016,16200,2018-07-04 17:31:11,16,0,22.893,5863.5727562039,104.98688,0.223694,0.99832024192,0,0,-0.671082,322.6, 1.3, 1.4,0,0,1024,1024,1024,1024,321.4,-89.9,96,3.807,3.788,3.831,3.806,3.826,3.825,19.275,66.2,14,Waypoint,
36.0028578,-118.5646183,5864.5570082039,105.971132,0,0.74482942016,16300,2018-07-04 17:31:11,16,0,22.893,5864.5570082039,105.971132,0.223694,0.99832024192,0,0,-0.671082,322.5, 1.2, 1.1,0,0,1024,1024,1024,1024,321.4,-90,96,3.807,3.788,3.831,3.806,3.826,3.825,19.275,66.2,14,Waypoint,
36.0028578,-118.5646184,5865.5412602039,106.955384,0,0.77069556272,16400,2018-07-04 17:31:11,16,0,22.893,5865.5412602039,106.955384,0.223694,0.99832024192,0,0,-0.671082,322.5, 1.4, 1,0,0,1024,1024,1024,1024,321.4,-89.9,96,3.807,3.788,3.831,3.806,3.826,3.825,19.275,66.2,14,Waypoint,
36.0028579,-118.5646184,5866.5255122039,107.939636,0,0.78862207248,16600,2018-07-04 17:31:12,16,0,22.893,5866.5255122039,107.939636,0.223694,0.99832024192,0,0,-0.671082,322.6, 2, 1.3,0,0,1024,1024,1024,1024,321.4,-89.9,96,3.807,3.788,3.831,3.806,3.826,3.825,19.275,66.2,14,Waypoint,
36.0028579,-118.5646185,5867.5097642039,108.923888,0,0.81416997356,16700,2018-07-04 17:31:12,16,0,22.893,5867.5097642039,108.923888,0.223694,0.99832024192,0,0,-0.671082,322.8, 2.6, 1.6,0,0,1024,1024,1024,1024,321.4,-89.9,96,3.807,3.788,3.831,3.806,3.826,3.825,19.275,66.2,14,Waypoint,
36.0028579,-118.5646187,5868.4940162039,109.90814,0,0.86602036892,16800,2018-07-04 17:31:12,16,0,22.893,5868.4940162039,109.90814,0.223694,0.99832024192,0,0,-0.671082,323, 3.1, 1.8,0,0,1024,1024,1024,1024,321.4,-89.9,96,3.807,3.788,3.831,3.806,3.826,3.825,19.275,66.2,14,Waypoint,
36.002858,-118.5646188,5869.4782682039,110.892392,0,0.90927496348,16900,2018-07-04 17:31:12,16,0,22.893,5869.4782682039,110.892392,0.223694,0.99832024192,0,0,-0.671082,323.1, 3.4, 2.2,0,0,1024,1024,1024,1024,321.4,-89.9,96,3.807,3.788,3.831,3.806,3.826,3.825,19.275,66.2,14,Waypoint,
36.002858,-118.5646189,5870.4625202039,111.876644,0,0.9352526546,17000,2018-07-04 17:31:12,16,0,22.858,5870.4625202039,111.876644,0.223694,0.99832024192,0,0,-0.671082,322.9, 3.6, 2.2,0,0,1024,1024,1024,1024,321.4,-89.9,96,3.801,3.789,3.811,3.812,3.816,3.818,19.8,66.2,14,Waypoint,
36.002858,-118.564619,5871.4467722039,112.860896,0,0.9614337578,17100,2018-07-04 17:31:12,16,0,22.858,5871.4467722039,112.860896,0.223694,0.99832024192,0,0,-0.671082,322.7, 3.6, 2,0,0,1024,1024,1024,1024,321.4,-89.9,96,3.801,3.789,3.811,3.812,3.816,3.818,19.8,66.2,14,Waypoint,
36.0028581,-118.564619,5872.4310242039,113.845148,0,0.97858598932,17210,2018-07-04 17:31:12,16,0,22.858,5872.4310242039,113.845148,0.223694,0.99832024192,0,0,-0.671082,322.5, 3.5, 1.9,0,0,1024,1024,1024,1024,321.4,-89.9,96,3.801,3.789,3.811,3.812,3.816,3.818,19.8,66.2,14,Waypoint,
36.0028581,-118.5646191,5873.4152762039,114.8294,0,1.00450462532,17300,2018-07-04 17:31:12,16,0,22.858,5873.4152762039,114.8294,0.223694,1.00450462532,0,0,-0.671082,322.3, 3.6, 1.9,0,0,1024,1024,1024,1024,321.4,-89.9,96,3.801,3.789,3.811,3.812,3.816,3.818,19.8,66.2,14,Waypoint,
36.0028581,-118.5646192,5874.3995282039,115.813652,0,1.03062011172,17400,2018-07-04 17:31:12,16,0,22.858,5874.3995282039,115.813652,0.223694,1.03062011172,0,0,-0.671082,322.2, 3.7, 1.8,0,0,1024,1024,1024,1024,321.4,-89.9,96,3.801,3.789,3.811,3.812,3.816,3.818,19.8,66.2,14,Waypoint,
36.0028582,-118.5646192,5875.3837802039,116.797904,0,1.04791013852,17500,2018-07-04 17:31:13,16,0,22.858,5875.3837802039,116.797904,0.223694,1.04791013852,0,0,-0.671082,322.2, 3.7, 1.4,0,0,1024,1024,1024,1024,321.4,-89.9,96,3.801,3.789,3.811,3.812,3.816,3.818,19.8,66.2,14,Waypoint,
36.0028582,-118.5646193,5876.3680322039,117.782156,0,1.07377956192,17600,2018-07-04 17:31:13,16,0,22.858,5876.3680322039,117.782156,0.223694,1.07377956192,0,0,-0.671082,322.3, 3.6, 1.1,0,0,1024,1024,1024,1024,321.4,-89.9,96,3.801,3.789,3.811,3.812,3.816,3.818,19.8,66.2,14,Waypoint,
36.0028582,-118.5646194,5877.3522842039,118.766408,0,1.09982943152,17700,2018-07-04 17:31:13,16,0,22.858,5877.3522842039,118.766408,0.223694,1.09982943152,0,0,-0.671082,322.4, 3.5, 1.2,0,0,1024,1024,1024,1024,321.4,-89.9,96,3.801,3.789,3.811,3.812,3.816,3.818,19.8,66.2,14,Waypoint,
36.0028582,-118.5646195,5879.3207882039,120.734912,0,1.12605318564,17800,2018-07-04 17:31:13,16,0,22.858,5879.3207882039,120.734912,0.223694,1.12605318564,0,0,-0.671082,322.7, 3.5, 2,0,0,1024,1024,1024,1024,321.4,-89.9,96,3.801,3.789,3.811,3.812,3.816,3.818,19.8,66.2,14,Waypoint,
36.0028582,-118.5646196,5880.3050402039,121.719164,0,1.15243770092,17900,2018-07-04 17:31:13,16,0,22.858,5880.3050402039,121.719164,0.223694,1.15243770092,0,0,-0.671082,322.7, 3.7, 2.3,0,0,1024,1024,1024,1024,321.4,-89.9,96,3.801,3.789,3.811,3.812,3.816,3.818,19.8,66.2,14,Waypoint,
36.0028581,-118.5646197,5882.2735442039,123.687668,0,1.16362536532,18100,2018-07-04 17:31:13,16,0,22.858,5882.2735442039,123.687668,0.223694,1.16362536532,0,0,-0.671082,322.9, 3.3, 2.2,0,0,1024,1024,1024,1024,321.4,-89.9,96,3.801,3.789,3.811,3.812,3.816,3.818,19.8,66.2,14,Waypoint,
36.0028581,-118.5646198,5883.2577962039,124.67192,0,1.19063652104,18200,2018-07-04 17:31:13,16,0,22.858,5883.2577962039,124.67192,0.223694,1.19063652104,0,0,-0.671082,322.9, 3.4, 2.4,0,0,1024,1024,1024,1024,321.4,-89.9,96,3.801,3.789,3.811,3.812,3.816,3.818,19.8,66.2,14,Waypoint,
36.0028581,-118.5646198,5884.2420482039,125.656172,0,1.19063652104,18300,2018-07-04 17:31:13,16,0,22.858,5884.2420482039,125.656172,0.223694,1.19063652104,0,0,-0.671082,322.8, 3.6, 2.4,0,0,1024,1024,1024,1024,321.4,-89.9,96,3.801,3.789,3.811,3.812,3.816,3.818,19.8,66.2,14,Waypoint,
36.0028581,-118.5646199,5885.8824682039,127.296592,0,1.21776906784,18510,2018-07-04 17:31:14,16,0,22.858,5885.8824682039,127.296592,0.223694,1.21776906784,0,0,-0.671082,322.6, 3.6, 2,0,0,1024,1024,1024,1024,321.4,-89.9,96,3.801,3.789,3.811,3.812,3.816,3.818,19.8,66.2,14,Waypoint,
36.0028581,-118.5646199,5885.8824682039,127.296592,0,1.21776906784,18600,2018-07-04 17:31:14,16,0,22.858,5885.8824682039,127.296592,0.223694,1.21776906784,0,0,-0.671082,322.6, 3.6, 2,0,0,1024,1024,1024,1024,321.4,-89.9,96,3.801,3.789,3.811,3.812,3.816,3.818,19.8,66.2,14,Waypoint,
36.0028581,-118.56462,5886.8667202039,128.280844,0,1.24500660152,18700,2018-07-04 17:31:14,16,0,22.858,5886.8667202039,128.280844,0.223694,1.24500660152,0,0,-0.671082,322.6, 3.7, 1.9,0,0,1024,1024,1024,1024,321.4,-89.9,96,3.801,3.789,3.811,3.812,3.816,3.818,19.8,66.2,14,Waypoint,
36.002858,-118.56462,5888.8352242039,130.249348,0,1.23156828088,18900,2018-07-04 17:31:14,16,0,22.858,5888.8352242039,130.249348,0.223694,1.24500660152,0,0,-0.671082,322.6, 4, 1.8,0,0,1024,1024,1024,1024,321.4,-89.9,96,3.801,3.789,3.811,3.812,3.816,3.818,19.8,66.2,14,Waypoint,
36.002858,-118.56462,5889.8194762039,131.2336,0,1.23156828088,19000,2018-07-04 17:31:14,16,0,22.853,5889.8194762039,131.2336,0.223694,1.24500660152,0,0,-0.671082,322.6, 3.9, 1.7,0,0,1024,1024,1024,1024,321.4,-89.9,96,3.807,3.784,3.817,3.815,3.826,3.826,19.222,66.2,14,Waypoint,
36.002858,-118.56462,5890.8037282039,132.217852,0,1.23156828088,19100,2018-07-04 17:31:14,16,0,22.853,5890.8037282039,132.217852,0.223694,1.24500660152,0,0,-0.671082,322.6, 3.7, 1.8,0,0,1024,1024,1024,1024,321.4,-89.9,96,3.807,3.784,3.817,3.815,3.826,3.826,19.222,66.2,14,Waypoint,
36.002858,-118.56462,5891.7879802039,133.202104,0,1.23156828088,19200,2018-07-04 17:31:14,16,0,22.853,5891.7879802039,133.202104,0.223694,1.24500660152,0,0,-0.671082,322.6, 3.4, 1.9,0,0,1024,1024,1024,1024,321.4,-89.9,96,3.807,3.784,3.817,3.815,3.826,3.826,19.222,66.2,14,Waypoint,
36.0028579,-118.56462,5892.7722322039,134.186356,0,1.21907484216,19300,2018-07-04 17:31:14,16,0,22.853,5892.7722322039,134.186356,0.223694,1.24500660152,0,0,-0.671082,322.6, 3.2, 2.2,0,0,1024,1024,1024,1024,321.4,-89.9,96,3.807,3.784,3.817,3.815,3.826,3.826,19.222,66.2,14,Waypoint,
36.0028579,-118.56462,5893.7564842039,135.170608,0,1.21907484216,19400,2018-07-04 17:31:14,16,0,22.853,5893.7564842039,135.170608,0.223694,1.24500660152,0,0,-0.671082,322.6, 3.1, 2.1,0,0,1024,1024,1024,1024,321.4,-89.9,96,3.807,3.784,3.817,3.815,3.826,3.826,19.222,66.2,14,Waypoint,
36.0028578,-118.56462,5894.7407362039,136.15486,0,1.20755581292,19500,2018-07-04 17:31:15,16,0,22.853,5894.7407362039,136.15486,0.223694,1.24500660152,0,0,-0.671082,322.7, 3.1, 2,0,0,1024,1024,1024,1024,321.4,-89.9,96,3.807,3.784,3.817,3.815,3.826,3.826,19.222,66.2,14,Waypoint,
36.0028577,-118.5646199,5896.7092402039,138.123364,0,1.16868113976,19700,2018-07-04 17:31:15,16,0,22.853,5896.7092402039,138.123364,0.223694,1.24500660152,0,0,-0.671082,322.6, 3, 1.9,0,0,1024,1024,1024,1024,321.4,-89.9,96,3.807,3.784,3.817,3.815,3.826,3.826,19.222,66.2,14,Waypoint,
36.0028577,-118.5646198,5897.6934922039,139.107616,0,1.14038389476,19800,2018-07-04 17:31:15,16,0,22.853,5897.6934922039,139.107616,0.223694,1.24500660152,0,0,-0.671082,322.5, 3, 1.9,0,0,1024,1024,1024,1024,321.4,-89.9,96,3.807,3.784,3.817,3.815,3.826,3.826,19.222,66.2,14,Waypoint,
36.0028576,-118.5646197,5899.6619962039,141.07612,0,1.10192916912,19900,2018-07-04 17:31:15,16,0,22.853,5899.6619962039,141.07612,0.223694,1.24500660152,0,0,-0.671082,322.3, 3, 2,0,0,1024,1024,1024,1024,321.4,-89.9,96,3.807,3.784,3.817,3.815,3.826,3.826,19.222,66.2,14,Waypoint,
36.0028576,-118.5646197,5900.6462482039,142.060372,0,1.10192916912,20000,2018-07-04 17:31:15,16,0,22.841,5900.6462482039,142.060372,0.223694,1.24500660152,0,0,-0.671082,322.2, 3, 2,0,0,1024,1024,1024,1024,321.4,-89.9,96,3.802,3.78,3.823,3.792,3.806,3.811,19.385,66.2,14,Waypoint,
36.0028575,-118.5646196,5901.6305002039,143.044624,0,1.0641568582,20100,2018-07-04 17:31:15,16,0,22.841,5901.6305002039,143.044624,0.223694,1.24500660152,0,0,-0.671082,322.1, 2.9, 1.9,0,0,1024,1024,1024,1024,321.4,-89.9,96,3.802,3.78,3.823,3.792,3.806,3.811,19.385,66.2,14,Waypoint,
36.0028575,-118.5646195,5902.6147522039,144.028876,0,1.03552824836,20200,2018-07-04 17:31:15,16,0,22.841,5902.6147522039,144.028876,0.223694,1.24500660152,0,0,-0.671082,322.1, 2.7, 1.8,0,0,1024,1024,1024,1024,321.4,-89.9,96,3.802,3.78,3.823,3.792,3.806,3.811,19.385,66.2,14,Waypoint,
36.0028575,-118.5646194,5903.5990042039,145.013128,0,1.00694885112,20300,2018-07-04 17:31:15,16,0,22.841,5903.5990042039,145.013128,0.223694,1.24500660152,0,0,-0.671082,322.2, 2.6, 1.5,0,0,1024,1024,1024,1024,321.4,-89.9,96,3.802,3.78,3.823,3.792,3.806,3.811,19.385,66.2,14,Waypoint,
36.0028575,-118.5646193,5904.5832562039,145.99738,0,0.978428509,20400,2018-07-04 17:31:15,16,0,22.841,5904.5832562039,145.99738,0.223694,1.24500660152,0,0,-0.671082,322.2, 2.5, 1.3,0,0,1024,1024,1024,1024,321.4,-90,96,3.802,3.78,3.823,3.792,3.806,3.811,19.385,66.2,14,Waypoint,
36.0028574,-118.5646193,5905.5675082039,146.981632,0,0.96954399428,20600,2018-07-04 17:31:16,16,0,22.841,5905.5675082039,146.981632,0.223694,1.24500660152,0,0,-0.671082,322.3, 2.6, 1.3,0,0,1024,1024,1024,1024,321.4,-89.9,96,3.802,3.78,3.823,3.792,3.806,3.811,19.385,66.2,14,Waypoint,
36.0028574,-118.5646192,5906.5517602039,147.965884,0,0.9408136784,20700,2018-07-04 17:31:16,16,0,22.841,5906.5517602039,147.965884,0.223694,1.24500660152,0,0,-0.671082,322.4, 2.6, 1.3,0,0,1024,1024,1024,1024,321.4,-89.9,96,3.802,3.78,3.823,3.792,3.806,3.811,19.385,66.2,14,Waypoint,
36.0028574,-118.5646191,5907.5360122039,148.950136,0,0.91213585596,20800,2018-07-04 17:31:16,16,0,22.841,5907.5360122039,148.950136,0.223694,1.24500660152,0,0,-0.671082,322.4, 2.6, 1.4,0,0,1024,1024,1024,1024,321.4,-89.9,96,3.802,3.78,3.823,3.792,3.806,3.811,19.385,66.2,14,Waypoint,
36.0028574,-118.5646191,5908.5202642039,149.934388,0,0.91213585596,20900,2018-07-04 17:31:16,16,0,22.841,5908.5202642039,149.934388,0.223694,1.24500660152,0,0,-0.671082,322.5, 2.7, 1.4,0,0,1024,1024,1024,1024,321.4,-89.9,96,3.802,3.78,3.823,3.792,3.806,3.811,19.385,66.2,14,Waypoint,
36.0028573,-118.564619,5909.5045162039,150.91864,0,0.87518375504,21000,2018-07-04 17:31:16,16,0,22.736,5909.5045162039,150.91864,0.223694,1.24500660152,0,0,-0.671082,322.5, 2.7, 1.5,0,0,1024,1024,1024,1024,321.4,-90,96,3.774,3.772,3.784,3.788,3.801,3.807,20.319,68,14,Waypoint,
36.0028573,-118.564619,5910.4887682039,151.902892,0,0.87518375504,21100,2018-07-04 17:31:16,16,0,22.736,5910.4887682039,151.902892,0.223694,1.24500660152,0,0,-0.671082,322.7, 2.8, 1.5,0,0,1024,1024,1024,1024,321.4,-89.9,96,3.774,3.772,3.784,3.788,3.801,3.807,20.319,68,14,Waypoint,
36.0028573,-118.5646189,5911.4730202039,152.887144,0,0.84633860976,21200,2018-07-04 17:31:16,16,0,22.736,5911.4730202039,152.887144,0.223694,1.24500660152,0,0,-0.671082,322.9, 2.7, 1.3,0,0,1024,1024,1024,1024,321.4,-89.9,96,3.774,3.772,3.784,3.788,3.801,3.807,20.319,68,14,Waypoint,
36.0028573,-118.5646189,5912.7853562039,154.19948,0,0.84633860976,21300,2018-07-04 17:31:16,16,0,22.736,5912.7853562039,154.19948,0.223694,1.24500660152,0,0,-0.671082,323.1, 2.7, 1.3,0,0,1024,1024,1024,1024,321.4,-89.9,96,3.774,3.772,3.784,3.788,3.801,3.807,20.319,68,14,Waypoint,
36.0028573,-118.5646188,5913.7696082039,155.183732,0,0.81754267708,21400,2018-07-04 17:31:16,16,0,22.736,5913.7696082039,155.183732,0.223694,1.24500660152,0,0,-0.671082,323.1, 2.6, 1.3,0,0,1024,1024,1024,1024,321.4,-89.9,96,3.774,3.772,3.784,3.788,3.801,3.807,20.319,68,14,Waypoint,
36.0028573,-118.5646187,5914.7538602039,156.167984,0,0.788795957,21500,2018-07-04 17:31:17,16,0,22.736,5914.7538602039,156.167984,0.223694,1.24500660152,0,0,-0.671082,322.9, 2.3, 1.3,0,0,1024,1024,1024,1024,321.4,-90,96,3.774,3.772,3.784,3.788,3.801,3.807,20.319,68,14,Waypoint,
36.0028572,-118.5646186,5915.7381122039,157.152236,0,0.75219162512,21600,2018-07-04 17:31:17,16,0,22.736,5915.7381122039,157.152236,0.223694,1.24500660152,0,0,-0.671082,322.8, 1.9, 1.4,0,0,1024,1024,1024,1024,321.4,-90,96,3.774,3.772,3.784,3.788,3.801,3.807,20.319,68,14,Waypoint,
36.0028572,-118.5646186,5916.7223642039,158.136488,0,0.75219162512,21700,2018-07-04 17:31:17,16,0,22.736,5916.7223642039,158.136488,0.223694,1.24500660152,0,0,-0.671082,322.6, 1.5, 1.7,0,0,1024,1024,1024,1024,321.4,-90,96,3.774,3.772,3.784,3.788,3.801,3.807,20.319,68,14,Waypoint,
36.0028571,-118.5646186,5917.7066162039,159.12074,0,0.74597115248,21800,2018-07-04 17:31:17,16,0,22.736,5917.7066162039,159.12074,0.223694,1.24500660152,0,0,-0.671082,322.5, 1.3, 1.9,0,0,1024,1024,1024,1024,321.4,-90,96,3.774,3.772,3.784,3.788,3.801,3.807,20.319,68,14,Waypoint,
36.0028571,-118.5646186,5918.3627842039,159.776908,0,0.74597115248,21900,2018-07-04 17:31:17,16,0,22.736,5918.3627842039,159.776908,0.223694,1.24500660152,0,0,-0.671082,322.4, 1.3, 2,0,0,1024,1024,1024,1024,321.4,-90,96,3.774,3.772,3.784,3.788,3.801,3.807,20.319,68,14,Waypoint,
36.002857,-118.5646186,5919.3470362039,160.76116,0,0.74149608672,22000,2018-07-04 17:31:17,16,0,22.717,5919.3470362039,160.76116,0.223694,1.24500660152,0,0,-0.671082,322.3, 1.6, 2,0,0,1024,1024,1024,1024,321.4,-89.9,96,3.776,3.761,3.783,3.78,3.789,3.795,20.159,68,14,Waypoint,
36.002857,-118.5646186,5921.3155402039,162.729664,0,0.74149608672,22200,2018-07-04 17:31:17,16,0,22.717,5921.3155402039,162.729664,0.223694,1.24500660152,0,0,-0.671082,322.2, 2.1, 1.8,0,0,1024,1024,1024,1024,321.4,-89.9,96,3.776,3.761,3.783,3.78,3.789,3.795,20.159,68,14,Waypoint,
36.002857,-118.5646186,5922.2997922039,163.713916,0,0.74149608672,22300,2018-07-04 17:31:17,16,0,22.717,5922.2997922039,163.713916,0.223694,1.24500660152,0,0,-0.671082,322.2, 2.3, 1.7,0,0,1024,1024,1024,1024,321.4,-89.9,96,3.776,3.761,3.783,3.78,3.789,3.795,20.159,68,14,Waypoint,
36.002857,-118.5646186,5923.2840442039,164.698168,0,0.74149608672,22400,2018-07-04 17:31:17,16,0,22.717,5923.2840442039,164.698168,0.223694,1.24500660152,0,0,-0.671082,322.3, 2.4, 1.6,0,0,1024,1024,1024,1024,321.4,-89.9,96,3.776,3.761,3.783,3.78,3.789,3.795,20.159,68,14,Waypoint,
36.002857,-118.5646185,5924.2682962039,165.68242,0,0.71212928788,22500,2018-07-04 17:31:18,16,0,22.717,5924.2682962039,165.68242,0.223694,1.24500660152,0,0,-0.671082,322.4, 2.4, 1.5,0,0,1024,1024,1024,1024,321.4,-89.9,96,3.776,3.761,3.783,3.78,3.789,3.795,20.159,68,14,Waypoint,
36.0028571,-118.5646185,5927.2210522039,168.635176,0,0.71678808068,22700,2018-07-04 17:31:18,16,0,22.717,5927.2210522039,168.635176,0.223694,1.24500660152,0,0,-0.671082,322.4, 2, 1.2,0,0,1024,1024,1024,1024,321.4,-89.9,96,3.776,3.761,3.783,3.78,3.789,3.795,20.159,68,14,Waypoint,
36.0028571,-118.5646185,5928.2053042039,169.619428,0,0.71678808068,22810,2018-07-04 17:31:18,16,0,22.717,5928.2053042039,169.619428,0.223694,1.24500660152,0,0,-0.671082,322.4, 2.1, 1.2,0,0,1024,1024,1024,1024,321.4,-89.9,96,3.776,3.761,3.783,3.78,3.789,3.795,20.159,68,14,Waypoint,
36.0028572,-118.5646184,5929.1895562039,170.60368,0,0.6943733818,22900,2018-07-04 17:31:18,16,0,22.717,5929.1895562039,170.60368,0.223694,1.24500660152,0,0,-0.671082,322.3, 2.3, 1.5,0,0,1024,1024,1024,1024,321.4,-90,96,3.776,3.761,3.783,3.78,3.789,3.795,20.159,68,14,Waypoint,
36.0028572,-118.5646184,5931.1580602039,172.572184,0,0.6943733818,23100,2018-07-04 17:31:18,16,0,22.717,5931.1580602039,172.572184,0.223694,1.24500660152,0,0,-0.671082,322.2, 2.7, 1.4,0,0,1024,1024,1024,1024,321.4,-89.9,96,3.776,3.761,3.783,3.78,3.789,3.795,20.159,68,14,Waypoint,
36.0028573,-118.5646183,5931.8142282039,173.228352,0,0.67448821056,23300,2018-07-04 17:31:18,16,0,22.717,5931.8142282039,173.228352,0.223694,1.24500660152,0,0,-0.671082,322.3, 2.8, 0.9,0,0,1024,1024,1024,1024,321.4,-89.9,96,3.776,3.761,3.783,3.78,3.789,3.795,20.159,68,14,Waypoint,
36.0028573,-118.5646183,5932.7984802039,174.212604,0,0.67448821056,23400,2018-07-04 17:31:18,16,0,22.717,5932.7984802039,174.212604,0.223694,1.24500660152,0,0,-0.671082,322.4, 2.9, 0.2,0,0,1024,1024,1024,1024,321.5,-89.9,96,3.776,3.761,3.783,3.78,3.789,3.795,20.159,68,14,Waypoint,
36.0028574,-118.5646183,5933.7827322039,175.196856,0,0.68525592744,23500,2018-07-04 17:31:19,16,0,22.717,5933.7827322039,175.196856,0.223694,1.24500660152,0,0,-0.671082,322.6, 3, 0.2,0,0,1024,1024,1024,1024,321.4,-89.9,96,3.776,3.761,3.783,3.78,3.789,3.795,20.159,68,14,Waypoint,
36.0028574,-118.5646182,5934.7669842039,176.181108,0,0.65735566408,23600,2018-07-04 17:31:19,16,0,22.717,5934.7669842039,176.181108,0.223694,1.24500660152,0,0,-0.671082,322.7, 2.8, 0.3,0,0,1024,1024,1024,1024,321.4,-89.9,96,3.776,3.761,3.783,3.78,3.789,3.795,20.159,68,14,Waypoint,
36.0028575,-118.5646182,5935.7512362039,177.16536,0,0.67038716056,23700,2018-07-04 17:31:19,16,0,22.717,5935.7512362039,177.16536,0.223694,1.24500660152,0,0,-0.671082,322.8, 2.5, 0.3,0,0,1024,1024,1024,1024,321.4,-89.9,96,3.776,3.761,3.783,3.78,3.789,3.795,20.159,68,14,Waypoint,
36.0028575,-118.5646182,5936.7354882039,178.149612,0,0.67038716056,23800,2018-07-04 17:31:19,16,0,22.717,5936.7354882039,178.149612,0.223694,1.24500660152,0,0,-0.671082,322.8, 2.2, 0.4,0,0,1024,1024,1024,1024,321.4,-89.9,96,3.776,3.761,3.783,3.78,3.789,3.795,20.159,68,14,Waypoint,
36.0028576,-118.5646181,5937.7197402039,179.133864,0,0.65853348564,23900,2018-07-04 17:31:19,16,0,22.717,5937.7197402039,179.133864,0.223694,1.24500660152,0,0,-0.671082,322.8, 2.3, 0.4,0,0,1024,1024,1024,1024,321.4,-89.9,96,3.776,3.761,3.783,3.78,3.789,3.795,20.159,68,14,Waypoint,
36.0028576,-118.5646181,5938.7039922039,180.118116,0,0.65853348564,24000,2018-07-04 17:31:19,16,0,22.558,5938.7039922039,180.118116,0.223694,1.24500660152,0,0,-0.671082,322.8, 2.6, 0.3,0,0,1024,1024,1024,1024,321.4,-89.9,96,3.72,3.71,3.765,3.745,3.777,3.754,22.303,68,14,Waypoint,
36.0028577,-118.5646181,5939.6882442039,181.102368,0,0.67549870928,24100,2018-07-04 17:31:19,16,0,22.558,5939.6882442039,181.102368,0.223694,1.24500660152,0,0,-0.671082,322.8, 2.8, 0.3,0,0,1024,1024,1024,1024,321.4,-89.9,96,3.72,3.71,3.765,3.745,3.777,3.754,22.303,68,14,Waypoint,
36.0028578,-118.5646181,5940.6724962039,182.08662,0,0.69396655764,24200,2018-07-04 17:31:19,16,0,22.558,5940.6724962039,182.08662,0.223694,1.24500660152,0,0,-0.671082,322.8, 3.1, 0.4,0,0,1024,1024,1024,1024,321.4,-89.9,96,3.72,3.71,3.765,3.745,3.777,3.754,22.303,68,14,Waypoint,
36.0028578,-118.5646182,5941.9848322039,183.398956,0,0.719242149,24300,2018-07-04 17:31:19,16,0,22.558,5941.9848322039,183.398956,0.223694,1.24500660152,0,0,-0.671082,322.8, 3.4, 0.5,0,0,1024,1024,1024,1024,321.4,-89.9,96,3.72,3.71,3.765,3.745,3.777,3.754,22.303,68,14,Waypoint,
36.0028579,-118.5646182,5942.9690842039,184.383208,0,0.7384186588,24400,2018-07-04 17:31:19,16,0,22.558,5942.9690842039,184.383208,0.223694,1.24500660152,0,0,-0.671082,322.8, 3.6, 0.6,0,0,1024,1024,1024,1024,321.4,-89.9,96,3.72,3.71,3.765,3.745,3.777,3.754,22.303,68,14,Waypoint,
36.0028579,-118.5646182,5943.9533362039,185.36746,0,0.7384186588,24500,2018-07-04 17:31:20,16,0,22.558,5943.9533362039,185.36746,0.223694,1.24500660152,0,0,-0.671082,322.7, 3.6, 0.6,0,0,1024,1024,1024,1024,321.4,-89.9,96,3.72,3.71,3.765,3.745,3.777,3.754,22.303,68,14,Waypoint,
36.0028579,-118.5646182,5944.9375882039,186.351712,0,0.7384186588,24600,2018-07-04 17:31:20,16,0,22.558,5944.9375882039,186.351712,0.223694,1.24500660152,0,0,-0.671082,322.6, 3.4, 0.5,0,0,1024,1024,1024,1024,321.4,-89.9,96,3.72,3.71,3.765,3.745,3.777,3.754,22.303,68,14,Waypoint,
36.0028579,-118.5646181,5948.2184282039,189.632552,0,0.71382220132,24800,2018-07-04 17:31:20,16,0,22.558,5948.2184282039,189.632552,0.223694,1.24500660152,0,0,-0.671082,322.3, 2.5, 0.4,0,0,1024,1024,1024,1024,321.4,-89.9,96,3.72,3.71,3.765,3.745,3.777,3.754,22.303,68,14,Waypoint,
36.0028579,-118.5646182,5949.2026802039,190.616804,0,0.7384186588,24900,2018-07-04 17:31:20,16,0,22.558,5949.2026802039,190.616804,0.223694,1.24500660152,0,0,-0.671082,322.3, 2.7, 0.7,0,0,1024,1024,1024,1024,321.4,-89.9,96,3.72,3.71,3.765,3.745,3.777,3.754,22.303,68,14,Waypoint,
36.0028579,-118.5646182,5951.1711842039,192.585308,0,0.7384186588,25100,2018-07-04 17:31:20,16,0,22.558,5951.1711842039,192.585308,0.223694,1.24500660152,0,0,-0.671082,322.3, 2.9, 1.3,0,0,1024,1024,1024,1024,321.4,-89.9,96,3.72,3.71,3.765,3.745,3.777,3.754,22.303,68,14,Waypoint,
36.0028578,-118.5646183,5952.1554362039,193.56956,0,0.74482942016,25200,2018-07-04 17:31:20,16,0,22.558,5952.1554362039,193.56956,0.223694,1.24500660152,0,0,-0.671082,322.3, 2.9, 1.4,0,0,1024,1024,1024,1024,321.4,-89.9,96,3.72,3.71,3.765,3.745,3.777,3.754,22.303,68,14,Waypoint,
36.0028578,-118.5646183,5953.4677722039,194.881896,0,0.74482942016,25400,2018-07-04 17:31:20,16,0,22.558,5953.4677722039,194.881896,0.223694,1.24500660152,0,0,-0.671082,322.2, 3, 1.4,0,0,1024,1024,1024,1024,321.4,-89.9,96,3.72,3.71,3.765,3.745,3.777,3.754,22.303,68,14,Waypoint,
36.0028579,-118.5646184,5954.4520242039,195.866148,0,0.78862207248,25500,2018-07-04 17:31:21,16,0,22.558,5954.4520242039,195.866148,0.223694,1.24500660152,0,0,-0.671082,322.1, 3.2, 1.3,0,0,1024,1024,1024,1024,321.4,-89.9,96,3.72,3.71,3.765,3.745,3.777,3.754,22.303,68,14,Waypoint,
36.0028579,-118.5646184,5955.4362762039,196.8504,0,0.78862207248,25600,2018-07-04 17:31:21,16,0,22.558,5955.4362762039,196.8504,0.223694,1.24500660152,0,0,-0.671082,322.1, 3.4, 1.1,0,0,1024,1024,1024,1024,321.4,-89.9,96,3.72,3.71,3.765,3.745,3.777,3.754,22.303,68,14,Waypoint,
36.0028579,-118.5646185,5956.4205282039,197.834652,0,0.81416997356,25700,2018-07-04 17:31:21,16,0,22.558,5956.4205282039,197.834652,0.223694,1.24500660152,0,0,-0.671082,322.2, 3.5, 1,0,0,1024,1024,1024,1024,321.4,-89.9,96,3.72,3.71,3.765,3.745,3.777,3.754,22.303,68,14,Waypoint,
36.0028579,-118.5646185,5957.4047802039,198.818904,0,0.81416997356,25800,2018-07-04 17:31:21,16,0,22.558,5957.4047802039,198.818904,0.223694,1.24500660152,0,0,-0.671082,322.2, 3.6, 0.9,0,0,1024,1024,1024,1024,321.4,-89.9,96,3.72,3.71,3.765,3.745,3.777,3.754,22.303,68,14,Waypoint,
36.0028579,-118.5646185,5958.3890322039,199.803156,0,0.81416997356,25900,2018-07-04 17:31:21,16,0,22.558,5958.3890322039,199.803156,0.223694,1.24500660152,0,0,-0.671082,322.3, 3.6, 0.8,0,0,1024,1024,1024,1024,321.4,-89.9,96,3.72,3.71,3.765,3.745,3.777,3.754,22.303,68,14,Waypoint,
36.0028579,-118.5646185,5959.3732842039,200.787408,0,0.81416997356,26000,2018-07-04 17:31:21,16,0,22.528,5959.3732842039,200.787408,0.223694,1.24500660152,0,0,-0.671082,322.4, 3.4, 0.8,0,0,1024,1024,1024,1024,321.4,-90,95,3.722,3.703,3.734,3.717,3.749,3.756,20.94,68,14,Waypoint,
36.0028579,-118.5646185,5960.3575362039,201.77166,0,0.81416997356,26100,2018-07-04 17:31:21,16,0,22.528,5960.3575362039,201.77166,0.223694,1.24500660152,0,0,-0.671082,322.4, 3.1, 0.7,0,0,1024,1024,1024,1024,321.4,-89.9,95,3.722,3.703,3.734,3.717,3.749,3.756,20.94,68,14,Waypoint,
36.0028579,-118.5646185,5961.3417882039,202.755912,0,0.81416997356,26200,2018-07-04 17:31:21,16,0,22.528,5961.3417882039,202.755912,0.223694,1.24500660152,0,0,-0.671082,322.4, 3.1, 0.6,0,0,1024,1024,1024,1024,321.4,-89.9,95,3.722,3.703,3.734,3.717,3.749,3.756,20.94,68,14,Waypoint,
36.0028579,-118.5646186,5961.9979562039,203.41208,0,0.839977061,26300,2018-07-04 17:31:21,16,0,22.528,5961.9979562039,203.41208,0.223694,1.24500660152,0,0,-0.671082,322.3, 3.3, 0.5,0,0,1024,1024,1024,1024,321.4,-89.9,95,3.722,3.703,3.734,3.717,3.749,3.756,20.94,68,14,Waypoint,
36.0028579,-118.5646186,5962.9822082039,204.396332,0,0.839977061,26400,2018-07-04 17:31:21,16,0,22.528,5962.9822082039,204.396332,0.223694,1.24500660152,0,0,-0.671082,322.2, 3.4, 0.7,0,0,1024,1024,1024,1024,321.4,-89.9,95,3.722,3.703,3.734,3.717,3.749,3.756,20.94,68,14,Waypoint,
36.0028579,-118.5646186,5963.9664602039,205.380584,0,0.839977061,26500,2018-07-04 17:31:22,16,0,22.528,5963.9664602039,205.380584,0.223694,1.24500660152,0,0,-0.671082,322.2, 3.5, 0.8,0,0,1024,1024,1024,1024,321.4,-89.9,95,3.722,3.703,3.734,3.717,3.749,3.756,20.94,68,14,Waypoint,
36.0028579,-118.5646186,5964.9507122039,206.364836,0,0.839977061,26600,2018-07-04 17:31:22,16,0,22.528,5964.9507122039,206.364836,0.223694,1.24500660152,0,0,-0.671082,322.3, 3.5, 0.9,0,0,1024,1024,1024,1024,321.4,-89.9,95,3.722,3.703,3.734,3.717,3.749,3.756,20.94,68,14,Waypoint,
