Latitude, Longitude, Altitude (m), Time, Sats, Speed (m/s), Range (m), Battery (%), Roll (deg), Pitch (deg), Yaw (deg), Images, HD Signal (%), RC Signal (%), Battery Temp (C), Battery Voltage (mV), Battery Current (mA), Battery Energy (mAh), Battery Capacity (mAh), Battery Discharges, flyState, timestamp (Unix), LastUpdate (ms), radioChannel, Rc_elevator, Rc_aileron, Rc_throttle, Rc_rudder, Rc_gyro, Dronetype, Battery_Cell1 (mV), Battery_Cell2 (mV), Battery_Cell3 (mV), Battery_Cell4 (mV), Battery_Cell5 (mV), Battery_Cell6 (mV), Video, isFlying, elapsedTime (ms), gimbalPitch (deg), gimbalRoll (deg), gimbalYaw (deg), VelocityX (m/s), VelocityY (m/s), VelocityZ (m/s), GroundSmear (cm), App Version, Aircraft Name, Aircraft Firmware, Aircraft Serial Number, Battery Serial Number, Battery Lifetime (%), App_Tip, App_Warning, CurrentFlightStartingIndex, CurrentFlightLastVisitedWaypoint, PreviousFlightEndingWaypointIndex
36.0028653, -118.5646343, 0.000, 09:40:09.879, 14, 0.00, 0.09, 96, -0.400, 0.400, 53.200, 2, 100, 100, 19, 25179, -3750, 5052, 5263, 23, 11, 1530722409.879, 59, 0, 1024, 1024, 1024, 1024, 0, 6, 4249, 4204, 4247, 4236, 4226, 4193, 0, 1, 3208, -89.900, 0.000, 53.400, 0.000, 0.000, -0.200, 0.0, MapPilot_2.8.1_04242018, Dendroctonus I, 1.3.1.00, 041DDC1887, 1058171200162, 95, DJI_0001.jpg, Starting Mission from Lat/Long: 36.00287/-118.56464 Camera: Zenmuse X3 - Overlap: 90/90 - Active Connection: No, 0, 0, 0
36.0028653, -118.5646343, 0.000, 09:40:09.970, 14, 0.00, 0.09, 96, -0.100, 0.500, 53.200, 2, 100, 100, 19, 25179, -3750, 5052, 5263, 23, 11, 1530722409.971, 57, 0, 1024, 1024, 1024, 1024, 0, 6, 4249, 4204, 4247, 4236, 4226, 4193, 0, 1, 3300, -89.900, 0.000, 53.400, 0.000, 0.000, -0.300, 0.0, , , , , , 95, , , 0, 0, 0
36.0028653, -118.5646343, 0.000, 09:40:10.070, 14, 0.00, 0.09, 96, 0.000, 0.200, 53.200, 2, 100, 100, 19, 24793, -7719, 5052, 5263, 23, 11, 1530722410.071, 51, 0, 1024, 1024, 1024, 1024, 0, 6, 4081, 4097, 4060, 4083, 4065, 4032, 0, 1, 3400, -89.900, 0.000, 53.400, 0.000, 0.000, -0.300, 0.0, , , , , , 95, , , 0, 0, 0
36.0028653, -118.5646343, 0.100, 09:40:10.170, 14, 0.00, 0.09, 96, 0.100, -0.200, 53.300, 2, 100, 100, 19, 24793, -7719, 5052, 5263, 23, 11, 1530722410.171, 54, 0, 1024, 1024, 1024, 1024, 0, 6, 4081, 4097, 4060, 4083, 4065, 4032, 0, 1, 3500, -90.000, 0.000, 53.400, 0.000, 0.000, -0.400, 0.0, , , , , , 95, , , 0, 0, 0
36.0028653, -118.5646343, 0.100, 09:40:10.270, 14, 0.00, 0.09, 96, 0.300, -0.300, 53.300, 2, 100, 100, 19, 24793, -7719, 5052, 5263, 23, 11, 1530722410.271, 59, 0, 1024, 1024, 1024, 1024, 0, 6, 4081, 4097, 4060, 4083, 4065, 4032, 0, 1, 3600, -89.900, 0.000, 53.400, 0.000, 0.000, -0.400, 0.0, , , , , , 95, , , 0, 0, 0
36.0028653, -118.5646343, 0.200, 09:40:10.370, 14, 0.00, 0.09, 96, 0.200, -0.200, 53.300, 2, 100, 100, 19, 24793, -7719, 5052, 5263, 23, 11, 1530722410.371, 61, 0, 1024, 1024, 1024, 1024, 0, 6, 4081, 4097, 4060, 4083, 4065, 4032, 0, 1, 3700, -89.900, 0.000, 53.400, 0.000, 0.000, -0.400, 0.0, , , , , , 95, , , 0, 0, 0
36.0028653, -118.5646344, 0.200, 09:40:10.470, 14, 0.00, 0.09, 96, 0.300, 0.000, 53.300, 2, 100, 100, 19, 24793, -7719, 5052, 5263, 23, 11, 1530722410.471, 55, 0, 1024, 1024, 1024, 1024, 0, 6, 4081, 4097, 4060, 4083, 4065, 4032, 0, 1, 3800, -89.900, 0.000, 53.400, 0.000, 0.000, -0.400, 0.0, , , , , , 95, , , 0, 0, 0
36.0028654, -118.5646344, 0.300, 09:40:10.570, 13, 0.00, 0.08, 96, 0.600, 0.300, 53.200, 2, 100, 100, 19, 24793, -7719, 5052, 5263, 23, 11, 1530722410.571, 44, 0, 1024, 1024, 1024, 1024, 0, 6, 4081, 4097, 4060, 4083, 4065, 4032, 0, 1, 3900, -89.900, 0.000, 53.400, 0.000, 0.000, -0.400, 0.0, , , , , , 95, , , 0, 0, 0
36.0028655, -118.5646344, 0.400, 09:40:10.670, 13, 0.00, 0.07, 96, 0.700, 0.200, 53.100, 2, 100, 100, 19, 24793, -7719, 5052, 5263, 23, 11, 1530722410.671, 36, 0, 1024, 1024, 1024, 1024, 0, 6, 4081, 4097, 4060, 4083, 4065, 4032, 0, 1, 4000, -89.900, 0.000, 53.400, 0.000, 0.000, -0.400, 0.0, , , , , , 95, , , 0, 0, 0
36.0028655, -118.5646344, 0.400, 09:40:10.770, 13, 0.00, 0.07, 96, 0.700, 0.200, 53.100, 2, 100, 100, 19, 24793, -7719, 5052, 5263, 23, 11, 1530722410.771, 136, 0, 1024, 1024, 1024, 1024, 0, 6, 4081, 4097, 4060, 4083, 4065, 4032, 0, 1, 4100, -89.900, 0.000, 53.400, 0.000, 0.000, -0.400, 0.0, , , , , , 95, , , 0, 0, 0
36.0028656, -118.5646344, 0.500, 09:40:10.870, 13, 0.00, 0.06, 96, 0.700, 0.000, 53.100, 2, 100, 100, 19, 24793, -7719, 5052, 5263, 23, 11, 1530722410.870, 19, 0, 1024, 1024, 1024, 1024, 0, 6, 4081, 4097, 4060, 4083, 4065, 4032, 0, 1, 4200, -89.900, 0.000, 53.400, 0.000, 0.000, -0.400, 0.0, , , , , , 95, , , 0, 0, 0
36.0028656, -118.5646344, 0.500, 09:40:10.970, 13, 0.00, 0.06, 96, 0.600, 0.100, 53.100, 2, 100, 100, 19, 24793, -7719, 5052, 5263, 23, 11, 1530722410.971, 25, 0, 1024, 1024, 1024, 1024, 0, 6, 4081, 4097, 4060, 4083, 4065, 4032, 0, 1, 4300, -89.900, 0.000, 53.400, 0.000, 0.000, -0.400, 0.0, , , , , , 95, , , 0, 0, 0
36.0028656, -118.5646343, 0.600, 09:40:11.070, 13, 0.00, 0.06, 96, 0.700, 0.300, 53.200, 2, 100, 100, 19, 23635, -16581, 5052, 5263, 23, 11, 1530722411.071, 28, 0, 1024, 1024, 1024, 1024, 0, 6, 3909, 3940, 3921, 3937, 3918, 3920, 0, 1, 4400, -89.900, 0.000, 53.400, 0.000, 0.000, -0.400, 0.0, , , , , , 95, , , 0, 0, 0
36.0028657, -118.5646343, 0.600, 09:40:11.170, 12, 0.00, 0.06, 96, 0.700, 0.300, 53.200, 2, 100, 100, 19, 23635, -16581, 5052, 5263, 23, 11, 1530722411.171, 22, 0, 1024, 1024, 1024, 1024, 0, 6, 3909, 3940, 3921, 3937, 3918, 3920, 0, 1, 4500, -89.900, 0.000, 53.400, 0.000, 0.000, -0.500, 0.0, , , , , , 95, , , 0, 0, 0
36.0028658, -118.5646344, 0.700, 09:40:11.270, 12, 0.00, 0.05, 96, 0.700, 0.400, 53.200, 2, 100, 100, 19, 23635, -16581, 5052, 5263, 23, 11, 1530722411.271, 17, 0, 1024, 1024, 1024, 1024, 0, 6, 3909, 3940, 3921, 3937, 3918, 3920, 0, 1, 4600, -89.900, 0.000, 53.400, 0.000, 0.000, -0.400, 0.0, , , , , , 95, , , 0, 0, 0
36.0028659, -118.5646344, 0.700, 09:40:11.370, 12, 0.00, 0.05, 96, 0.800, 0.400, 53.300, 2, 100, 100, 19, 23635, -16581, 5052, 5263, 23, 11, 1530722411.371, 10, 0, 1024, 1024, 1024, 1024, 0, 6, 3909, 3940, 3921, 3937, 3918, 3920, 0, 1, 4700, -89.900, 0.000, 53.400, 0.000, 0.000, -0.300, 0.0, , , , , , 95, , , 0, 0, 0
36.0028659, -118.5646344, 0.700, 09:40:11.470, 12, 0.00, 0.05, 96, 0.900, 0.400, 53.300, 2, 100, 100, 19, 23635, -16581, 5052, 5263, 23, 11, 1530722411.471, 16, 0, 1024, 1024, 1024, 1024, 0, 6, 3909, 3940, 3921, 3937, 3918, 3920, 0, 1, 4800, -89.900, 0.000, 53.400, 0.000, 0.000, -0.400, 0.0, , , , , , 95, , , 0, 0, 0
36.0028659, -118.5646344, 0.700, 09:40:11.570, 12, 0.00, 0.05, 96, 0.900, 0.400, 53.300, 2, 100, 100, 19, 23635, -16581, 5052, 5263, 23, 11, 1530722411.571, 116, 0, 1024, 1024, 1024, 1024, 0, 6, 3909, 3940, 3921, 3937, 3918, 3920, 0, 1, 4900, -89.900, 0.000, 53.400, 0.000, 0.000, -0.400, 0.0, , , , , , 95, , , 0, 0, 0
36.0028660, -118.5646343, 0.800, 09:40:11.670, 12, 0.00, 0.05, 96, 0.800, 0.500, 53.300, 2, 100, 100, 19, 23635, -16581, 5052, 5263, 23, 11, 1530722411.671, 8, 0, 1024, 1024, 1024, 1024, 0, 6, 3909, 3940, 3921, 3937, 3918, 3920, 0, 1, 5000, -89.900, 0.000, 53.400, 0.000, 0.000, -0.400, 0.0, , , , , , 95, , , 0, 0, 0
36.0028660, -118.5646343, 0.800, 09:40:11.770, 12, 0.00, 0.05, 96, 0.800, 0.500, 53.300, 2, 100, 100, 19, 23635, -16581, 5052, 5263, 23, 11, 1530722411.771, 108, 0, 1024, 1024, 1024, 1024, 0, 6, 3909, 3940, 3921, 3937, 3918, 3920, 0, 1, 5100, -89.900, 0.000, 53.400, 0.000, 0.000, -0.400, 0.0, , , , , , 95, , , 0, 0, 0
36.0028661, -118.5646343, 0.900, 09:40:11.872, 13, 0.00, 0.05, 96, 1.000, 0.700, 53.300, 2, 100, 100, 19, 23635, -16581, 5052, 5263, 23, 14, 1530722411.872, 2, 0, 1024, 1024, 1024, 1024, 0, 6, 3909, 3940, 3921, 3937, 3918, 3920, 0, 1, 5201, -89.900, 0.000, 53.400, 0.000, 0.000, -0.300, 0.0, , , , , , 95, , , 0, 0, 0
36.0028661, -118.5646342, 1.000, 09:40:11.977, 12, 0.00, 0.06, 96, 1.000, 0.600, 53.200, 2, 100, 100, 19, 23341, -17232, 5052, 5263, 23, 14, 1530722411.977, 2, 0, 1024, 1024, 1024, 1024, 0, 6, 3909, 3940, 3921, 3937, 3918, 3920, 0, 1, 5307, -89.900, 0.000, 53.400, 0.000, 0.000, -0.300, 0.0, , , , , , 95, , , 0, 0, 0
36.0028661, -118.5646342, 1.000, 09:40:12.070, 12, 0.00, 0.06, 96, 1.000, 0.600, 53.200, 2, 100, 100, 19, 23341, -17232, 5052, 5263, 23, 14, 1530722412.071, 95, 0, 1024, 1024, 1024, 1024, 0, 6, 3909, 3940, 3921, 3937, 3918, 3920, 0, 1, 5400, -89.900, 0.000, 53.400, 0.000, 0.000, -0.300, 0.0, , , , , , 95, , , 0, 0, 0
36.0028661, -118.5646342, 1.000, 09:40:12.170, 12, 0.00, 0.06, 96, 1.000, 0.600, 53.200, 2, 100, 99, 19, 23341, -17232, 5052, 5263, 23, 14, 1530722412.171, 195, 0, 1024, 1024, 1024, 1024, 0, 6, 3909, 3940, 3921, 3937, 3918, 3920, 0, 1, 5500, -89.900, 0.000, 53.400, 0.000, 0.000, -0.300, 0.0, , , , , , 95, , , 0, 0, 0
36.0028660, -118.5646341, 1.000, 09:40:12.270, 11, 0.00, 0.07, 96, 0.500, 0.500, 53.300, 2, 100, 99, 19, 23341, -17232, 5052, 5263, 23, 14, 1530722412.271, 78, 0, 1024, 1024, 1024, 1024, 0, 6, 3909, 3940, 3921, 3937, 3918, 3920, 0, 1, 5600, -89.900, 0.000, 53.400, 0.000, 0.000, -0.300, 0.0, , , , , , 95, , , 0, 0, 0
36.0028660, -118.5646341, 1.000, 09:40:12.370, 11, 0.00, 0.07, 96, 0.400, 0.500, 53.300, 2, 100, 99, 19, 23341, -17232, 5052, 5263, 23, 14, 1530722412.371, 79, 0, 1024, 1024, 1024, 1024, 0, 6, 3909, 3940, 3921, 3937, 3918, 3920, 0, 1, 5700, -89.900, 0.000, 53.400, 0.000, 0.000, -0.400, 0.0, , , , , , 95, , , 0, 0, 0
36.0028660, -118.5646341, 1.100, 09:40:12.470, 11, 0.00, 0.07, 96, 0.300, 0.500, 53.300, 2, 100, 99, 19, 23341, -17232, 5052, 5263, 23, 14, 1530722412.471, 61, 0, 1024, 1024, 1024, 1024, 0, 6, 3909, 3940, 3921, 3937, 3918, 3920, 0, 1, 5800, -89.900, 0.000, 53.400, 0.000, 0.000, -0.500, 0.0, , , , , , 95, , , 0, 0, 0
36.0028660, -118.5646340, 1.100, 09:40:12.570, 11, 0.00, 0.08, 96, 0.400, 0.500, 53.300, 2, 100, 99, 19, 23341, -17232, 5052, 5263, 23, 14, 1530722412.571, 63, 0, 1024, 1024, 1024, 1024, 0, 6, 3873, 3899, 3894, 3896, 3888, 3880, 0, 1, 5900, -89.900, 0.000, 53.400, 0.000, 0.000, -0.600, 0.0, , , , , , 95, , , 0, 0, 0
36.0028661, -118.5646340, 1.200, 09:40:12.670, 12, 0.00, 0.08, 96, 0.400, 0.500, 53.300, 2, 100, 96, 19, 23341, -17232, 5052, 5263, 23, 14, 1530722412.671, 78, 0, 1024, 1024, 1024, 1024, 0, 6, 3873, 3899, 3894, 3896, 3888, 3880, 0, 1, 6000, -89.900, 0.000, 53.400, 0.000, 0.000, -0.800, 0.0, , , , , , 95, , , 0, 0, 0
36.0028661, -118.5646340, 1.300, 09:40:12.770, 12, 0.00, 0.08, 96, 0.500, 0.600, 53.300, 2, 100, 96, 19, 23341, -17232, 5052, 5263, 23, 14, 1530722412.771, 66, 0, 1024, 1024, 1024, 1024, 0, 6, 3873, 3899, 3894, 3896, 3888, 3880, 0, 1, 6100, -89.900, 0.000, 53.400, 0.000, 0.000, -1.000, 0.0, , , , , , 95, , , 0, 0, 0
36.0028662, -118.5646341, 1.400, 09:40:12.870, 13, 0.00, 0.08, 96, 0.600, 0.600, 53.300, 2, 100, 96, 19, 23341, -17232, 5052, 5263, 23, 14, 1530722412.871, 65, 0, 1024, 1024, 1024, 1024, 0, 6, 3873, 3899, 3894, 3896, 3888, 3880, 0, 1, 6200, -89.900, 0.000, 53.400, 0.000, 0.000, -1.200, 0.0, , , , , , 95, , , 0, 0, 0
36.0028662, -118.5646341, 1.600, 09:40:12.970, 13, 0.00, 0.07, 96, 0.700, 0.600, 53.200, 2, 100, 96, 19, 23341, -17232, 5052, 5263, 23, 14, 1530722412.971, 70, 0, 1024, 1024, 1024, 1024, 0, 6, 3873, 3899, 3894, 3896, 3888, 3880, 0, 1, 6300, -89.900, 0.000, 53.400, 0.000, 0.000, -1.400, 0.0, , , , , , 95, , , 0, 0, 0
36.0028662, -118.5646341, 1.700, 09:40:13.070, 13, 0.00, 0.07, 96, 0.800, 0.600, 53.100, 2, 100, 96, 19, 23341, -17232, 5052, 5263, 23, 14, 1530722413.071, 62, 0, 1024, 1024, 1024, 1024, 0, 6, 3873, 3899, 3894, 3896, 3888, 3880, 0, 1, 6400, -89.900, 0.000, 53.400, 0.000, 0.000, -1.500, 0.0, , , , , , 95, , , 0, 0, 0
36.0028662, -118.5646341, 1.900, 09:40:13.170, 13, 0.00, 0.07, 96, 0.800, 0.500, 53.100, 2, 100, 96, 19, 23341, -17232, 5052, 5263, 23, 14, 1530722413.171, 54, 0, 1024, 1024, 1024, 1024, 0, 6, 3873, 3899, 3894, 3896, 3888, 3880, 0, 1, 6500, -89.900, 0.000, 53.400, 0.000, 0.000, -1.800, 0.0, , , , , , 95, , , 0, 0, 0
36.0028662, -118.5646341, 2.100, 09:40:13.270, 13, 0.00, 0.07, 96, 0.600, 0.400, 53.100, 2, 100, 96, 19, 23341, -17232, 5052, 5263, 23, 14, 1530722413.271, 56, 0, 1024, 1024, 1024, 1024, 0, 6, 3873, 3899, 3894, 3896, 3888, 3880, 0, 1, 6600, -90.000, 0.000, 53.400, 0.000, 0.000, -2.100, 0.0, , , , , , 95, , , 0, 0, 0
36.0028662, -118.5646342, 2.300, 09:40:13.370, 13, 0.00, 0.07, 96, 0.400, 0.300, 53.200, 2, 100, 96, 19, 23341, -17232, 5052, 5263, 23, 14, 1530722413.371, 33, 0, 1024, 1024, 1024, 1024, 0, 6, 3873, 3899, 3894, 3896, 3888, 3880, 0, 1, 6700, -89.900, 0.000, 53.400, 0.000, 0.000, -2.400, 0.0, , , , , , 95, , , 0, 0, 0
36.0028664, -118.5646343, 2.900, 09:40:13.470, 12, 0.00, 0.06, 96, 1.000, 0.300, 53.400, 2, 100, 96, 19, 23341, -17232, 5052, 5263, 23, 14, 1530722413.471, 32, 0, 1024, 1024, 1024, 1024, 0, 6, 3873, 3899, 3894, 3896, 3888, 3880, 0, 1, 6800, -89.900, 0.000, 53.400, 0.000, 0.000, -2.900, 0.0, , , , , , 95, , , 0, 0, 0
36.0028664, -118.5646344, 3.200, 09:40:13.570, 12, 0.00, 0.07, 96, 1.100, 0.300, 53.500, 2, 100, 96, 19, 23148, -16765, 5052, 5263, 23, 14, 1530722413.571, 41, 0, 1024, 1024, 1024, 1024, 0, 6, 3842, 3898, 3842, 3850, 3803, 3832, 0, 1, 6900, -89.900, 0.000, 53.400, 0.000, 0.000, -3.100, 0.0, , , , , , 95, , , 0, 0, 0
36.0028664, -118.5646344, 3.600, 09:40:13.671, 12, 0.00, 0.07, 96, 1.200, 0.400, 53.500, 2, 100, 100, 19, 23148, -16765, 5052, 5263, 23, 14, 1530722413.671, 23, 0, 1024, 1024, 1024, 1024, 0, 6, 3842, 3898, 3842, 3850, 3803, 3832, 0, 1, 7000, -89.900, 0.000, 53.400, 0.000, 0.000, -3.100, 0.0, , , , , , 95, , , 0, 0, 0
36.0028664, -118.5646344, 3.900, 09:40:13.770, 12, 0.00, 0.07, 96, 1.200, 0.400, 53.500, 2, 100, 100, 19, 23148, -16765, 5052, 5263, 23, 14, 1530722413.770, 38, 0, 1024, 1024, 1024, 1024, 0, 6, 3842, 3898, 3842, 3850, 3803, 3832, 0, 1, 7100, -89.900, 0.000, 53.400, 0.000, 0.000, -3.100, 0.0, , , , , , 95, , , 0, 0, 0
36.0028664, -118.5646345, 4.200, 09:40:13.870, 12, 0.00, 0.06, 96, 1.200, 0.400, 53.400, 2, 100, 100, 19, 23148, -16765, 5052, 5263, 23, 14, 1530722413.871, 41, 0, 1024, 1024, 1024, 1024, 0, 6, 3842, 3898, 3842, 3850, 3803, 3832, 0, 1, 7200, -89.900, 0.000, 53.400, 0.000, 0.000, -3.100, 0.0, , , , , , 95, , , 0, 0, 0
36.0028664, -118.5646345, 4.200, 09:40:13.970, 12, 0.00, 0.06, 96, 1.200, 0.400, 53.400, 2, 100, 100, 19, 23148, -16765, 5052, 5263, 23, 14, 1530722413.971, 141, 0, 1024, 1024, 1024, 1024, 0, 6, 3842, 3898, 3842, 3850, 3803, 3832, 0, 1, 7300, -89.900, 0.000, 53.400, 0.000, 0.000, -3.100, 0.0, , , , , , 95, , , 0, 0, 0
36.0028663, -118.5646343, 4.900, 09:40:14.070, 12, 0.00, 0.06, 96, 0.800, 0.300, 53.400, 2, 100, 100, 19, 23148, -16765, 5052, 5263, 23, 14, 1530722414.071, 14, 0, 1024, 1024, 1024, 1024, 0, 6, 3842, 3898, 3842, 3850, 3803, 3832, 0, 1, 7400, -89.900, 0.000, 53.400, 0.000, 0.000, -3.200, 0.0, , , , , , 95, , , 0, 0, 0
36.0028663, -118.5646342, 5.300, 09:40:14.170, 13, 0.00, 0.07, 96, 0.500, 0.500, 53.400, 2, 100, 100, 19, 23148, -16765, 5052, 5263, 23, 14, 1530722414.171, 7, 0, 1024, 1024, 1024, 1024, 0, 6, 3842, 3898, 3842, 3850, 3803, 3832, 0, 1, 7500, -89.900, 0.000, 53.400, 0.000, 0.000, -3.200, 0.0, , , , , , 95, , , 0, 0, 0
36.0028662, -118.5646342, 5.600, 09:40:14.270, 13, 0.00, 0.07, 96, 0.300, 0.600, 53.400, 2, 100, 100, 19, 23148, -16765, 5052, 5263, 23, 14, 1530722414.271, 21, 0, 1024, 1024, 1024, 1024, 0, 6, 3842, 3898, 3842, 3850, 3803, 3832, 0, 1, 7600, -89.900, 0.000, 53.400, 0.000, 0.000, -3.200, 0.0, , , , , , 95, , , 0, 0, 0
36.0028662, -118.5646342, 5.900, 09:40:14.376, 12, 0.00, 0.07, 96, 0.200, 0.700, 53.400, 2, 100, 100, 19, 23148, -16765, 5052, 5263, 23, 14, 1530722414.376, 5, 0, 1024, 1024, 1024, 1024, 0, 6, 3842, 3898, 3842, 3850, 3803, 3832, 0, 1, 7705, -89.900, 0.000, 53.400, 0.000, 0.000, -3.100, 0.0, , , , , , 95, , , 0, 0, 0
36.0028662, -118.5646342, 5.900, 09:40:14.470, 12, 0.00, 0.07, 96, 0.200, 0.700, 53.400, 2, 100, 100, 19, 23148, -16765, 5052, 5263, 23, 14, 1530722414.471, 100, 0, 1024, 1024, 1024, 1024, 0, 6, 3842, 3898, 3842, 3850, 3803, 3832, 0, 1, 7800, -89.900, 0.000, 53.400, 0.000, 0.000, -3.100, 0.0, , , , , , 95, , , 0, 0, 0
36.0028661, -118.5646342, 6.600, 09:40:14.577, 12, 0.00, 0.07, 96, 0.200, 0.500, 53.200, 2, 100, 100, 19, 22425, -23853, 5052, 5263, 23, 14, 1530722414.577, 7, 0, 1024, 1024, 1024, 1024, 0, 6, 3711, 3751, 3733, 3750, 3712, 3738, 0, 1, 7906, -90.000, 0.000, 53.400, 0.000, 0.000, -3.200, 0.0, , , , , , 95, , , 0, 0, 0
36.0028661, -118.5646342, 6.600, 09:40:14.670, 12, 0.00, 0.07, 96, 0.200, 0.500, 53.200, 2, 100, 100, 19, 22425, -23853, 5052, 5263, 23, 14, 1530722414.671, 100, 0, 1024, 1024, 1024, 1024, 0, 6, 3711, 3751, 3733, 3750, 3712, 3738, 0, 1, 8000, -90.000, 0.000, 53.400, 0.000, 0.000, -3.200, 0.0, , , , , , 95, , , 0, 0, 0
36.0028661, -118.5646342, 6.900, 09:40:14.770, 12, 0.00, 0.06, 96, 0.300, 0.300, 53.200, 2, 100, 100, 19, 22425, -23853, 5052, 5263, 23, 14, 1530722414.771, 93, 0, 1024, 1024, 1024, 1024, 0, 6, 3711, 3751, 3733, 3750, 3712, 3738, 0, 1, 8100, -90.000, 0.000, 53.400, 0.000, 0.000, -3.100, 0.0, , , , , , 95, , , 0, 0, 0
36.0028661, -118.5646343, 7.300, 09:40:14.870, 12, 0.00, 0.05, 96, 0.600, 0.000, 53.200, 2, 100, 100, 19, 22425, -23853, 5052, 5263, 23, 14, 1530722414.871, 95, 0, 1024, 1024, 1024, 1024, 0, 6, 3711, 3751, 3733, 3750, 3712, 3738, 0, 1, 8200, -90.000, 0.000, 53.400, 0.000, 0.000, -3.200, 0.0, , , , , , 95, , , 0, 0, 0
36.0028660, -118.5646343, 7.900, 09:40:14.970, 13, 0.00, 0.05, 96, 0.900, 0.000, 53.200, 2, 100, 100, 19, 22425, -23853, 5052, 5263, 23, 14, 1530722414.970, 6, 0, 1024, 1024, 1024, 1024, 0, 6, 3711, 3751, 3733, 3750, 3712, 3738, 0, 1, 8300, -89.900, 0.000, 53.400, 0.000, 0.000, -3.200, 0.0, , , , , , 95, , , 0, 0, 0
36.0028660, -118.5646343, 7.900, 09:40:15.070, 13, 0.00, 0.05, 96, 0.900, 0.000, 53.200, 2, 100, 100, 19, 22425, -23853, 5052, 5263, 23, 14, 1530722415.071, 106, 0, 1024, 1024, 1024, 1024, 0, 6, 3711, 3751, 3733, 3750, 3712, 3738, 0, 1, 8400, -89.900, 0.000, 53.400, 0.000, 0.000, -3.200, 0.0, , , , , , 95, , , 0, 0, 0
36.0028659, -118.5646344, 8.300, 09:40:15.170, 13, 0.00, 0.04, 96, 0.700, -0.100, 53.200, 2, 100, 100, 19, 22425, -23853, 5052, 5263, 23, 14, 1530722415.171, 79, 0, 1024, 1024, 1024, 1024, 0, 6, 3711, 3751, 3733, 3750, 3712, 3738, 0, 1, 8500, -90.000, 0.000, 53.400, 0.000, 0.000, -3.100, 0.0, , , , , , 95, , , 0, 0, 0
36.0028658, -118.5646345, 8.600, 09:40:15.270, 13, 0.00, 0.04, 96, 0.400, -0.200, 53.200, 2, 100, 100, 19, 22425, -23853, 5052, 5263, 23, 14, 1530722415.270, 93, 0, 1024, 1024, 1024, 1024, 0, 6, 3711, 3751, 3733, 3750, 3712, 3738, 0, 1, 8600, -90.000, 0.000, 53.400, 0.000, 0.000, -3.100, 0.0, , , , , , 95, , , 0, 0, 0
36.0028657, -118.5646345, 8.900, 09:40:15.370, 13, 0.00, 0.04, 96, 0.300, -0.300, 53.200, 2, 100, 100, 19, 22425, -23853, 5052, 5263, 23, 14, 1530722415.370, 60, 0, 1024, 1024, 1024, 1024, 0, 6, 3711, 3751, 3733, 3750, 3712, 3738, 0, 1, 8700, -90.000, 0.000, 53.400, 0.000, 0.000, -3.100, 0.0, , , , , , 95, , , 0, 0, 0
36.0028657, -118.5646345, 9.200, 09:40:15.470, 13, 0.00, 0.05, 96, 0.300, -0.300, 53.300, 2, 100, 100, 19, 22425, -23853, 5052, 5263, 23, 14, 1530722415.471, 65, 0, 1024, 1024, 1024, 1024, 0, 6, 3711, 3751, 3733, 3750, 3712, 3738, 0, 1, 8800, -90.000, 0.000, 53.400, 0.000, 0.000, -3.000, 0.0, , , , , , 95, , , 0, 0, 0
36.0028656, -118.5646346, 9.600, 09:40:15.570, 13, 0.00, 0.05, 96, 0.300, -0.300, 53.400, 2, 100, 100, 19, 22663, -21597, 5052, 5263, 23, 14, 1530722415.570, 68, 0, 1024, 1024, 1024, 1024, 0, 6, 3752, 3792, 3795, 3798, 3783, 3784, 0, 1, 8900, -90.000, 0.000, 53.400, 0.000, 0.000, -3.000, 0.0, , , , , , 95, , , 0, 0, 0
36.0028656, -118.5646346, 9.900, 09:40:15.670, 14, 0.00, 0.05, 96, 0.300, -0.300, 53.400, 2, 100, 100, 19, 22663, -21597, 5052, 5263, 23, 14, 1530722415.670, 66, 0, 1024, 1024, 1024, 1024, 0, 6, 3752, 3792, 3795, 3798, 3783, 3784, 0, 1, 9000, -90.000, 0.000, 53.400, 0.000, 0.000, -3.000, 0.0, , , , , , 95, , , 0, 0, 0
36.0028656, -118.5646347, 10.200, 09:40:15.770, 14, 0.00, 0.05, 96, 0.300, -0.300, 53.300, 2, 100, 100, 19, 22663, -21597, 5052, 5263, 23, 14, 1530722415.771, 46, 0, 1024, 1024, 1024, 1024, 0, 6, 3752, 3792, 3795, 3798, 3783, 3784, 0, 1, 9100, -90.000, 0.000, 53.400, 0.000, 0.000, -3.000, 0.0, , , , , , 95, , , 0, 0, 0
36.0028656, -118.5646347, 10.500, 09:40:15.870, 14, 0.00, 0.04, 96, 0.400, -0.100, 53.300, 2, 100, 100, 19, 22663, -21597, 5052, 5263, 23, 14, 1530722415.871, 36, 0, 1024, 1024, 1024, 1024, 0, 6, 3752, 3792, 3795, 3798, 3783, 3784, 0, 1, 9200, -89.900, 0.000, 53.400, 0.000, 0.000, -3.000, 0.0, , , , , , 95, , , 0, 0, 0
36.0028656, -118.5646347, 10.800, 09:40:15.970, 14, 0.00, 0.05, 96, 0.500, -0.100, 53.200, 2, 100, 100, 19, 22663, -21597, 5052, 5263, 23, 14, 1530722415.971, 50, 0, 1024, 1024, 1024, 1024, 0, 6, 3752, 3792, 3795, 3798, 3783, 3784, 0, 1, 9300, -89.900, 0.000, 53.400, 0.000, 0.000, -2.900, 0.0, , , , , , 95, , , 0, 0, 0
36.0028655, -118.5646348, 11.400, 09:40:16.070, 14, 0.00, 0.05, 96, 0.500, -0.100, 53.100, 2, 100, 100, 19, 22663, -21597, 5052, 5263, 23, 14, 1530722416.071, 25, 0, 1024, 1024, 1024, 1024, 0, 6, 3752, 3792, 3795, 3798, 3783, 3784, 0, 1, 9400, -90.000, 0.000, 53.400, 0.000, 0.000, -3.000, 0.0, , , , , , 95, , , 0, 0, 0
36.0028655, -118.5646348, 11.700, 09:40:16.170, 14, 0.00, 0.05, 96, 0.300, -0.200, 53.100, 2, 100, 100, 19, 22663, -21597, 5052, 5263, 23, 14, 1530722416.171, 56, 0, 1024, 1024, 1024, 1024, 0, 6, 3752, 3792, 3795, 3798, 3783, 3784, 0, 1, 9500, -90.000, 0.000, 53.400, 0.000, 0.000, -3.000, 0.0, , , , , , 95, , , 0, 0, 0
36.0028654, -118.5646347, 12.000, 09:40:16.270, 14, 0.00, 0.06, 96, 0.200, -0.200, 53.100, 2, 100, 100, 19, 22663, -21597, 5052, 5263, 23, 14, 1530722416.271, 48, 0, 1024, 1024, 1024, 1024, 0, 6, 3752, 3792, 3795, 3798, 3783, 3784, 0, 1, 9600, -90.000, 0.000, 53.400, 0.000, 0.000, -2.900, 0.0, , , , , , 95, , , 0, 0, 0
36.0028654, -118.5646347, 12.300, 09:40:16.370, 14, 0.00, 0.07, 96, 0.000, -0.200, 53.200, 2, 100, 100, 19, 22663, -21597, 5052, 5263, 23, 14, 1530722416.371, 48, 0, 1024, 1024, 1024, 1024, 0, 6, 3752, 3792, 3795, 3798, 3783, 3784, 0, 1, 9700, -90.000, 0.000, 53.400, 0.000, 0.000, -2.900, 0.0, , , , , , 95, , , 0, 0, 0
36.0028653, -118.5646347, 12.600, 09:40:16.470, 14, 0.00, 0.08, 96, -0.100, -0.200, 53.200, 2, 100, 100, 19, 22663, -21597, 5052, 5263, 23, 14, 1530722416.470, 37, 0, 1024, 1024, 1024, 1024, 0, 6, 3752, 3792, 3795, 3798, 3783, 3784, 0, 1, 9800, -89.900, 0.000, 53.400, 0.000, 0.000, -2.900, 0.0, , , , , , 95, , , 0, 0, 0
36.0028653, -118.5646347, 12.900, 09:40:16.570, 14, 0.00, 0.08, 96, 0.000, 0.000, 53.300, 2, 100, 100, 19, 22801, -19763, 5052, 5263, 23, 14, 1530722416.570, 28, 0, 1024, 1024, 1024, 1024, 0, 6, 3775, 3807, 3812, 3808, 3799, 3811, 0, 1, 9900, -89.900, 0.000, 53.400, 0.000, 0.000, -2.900, 0.0, , , , , , 95, , , 0, 0, 0
36.0028653, -118.5646348, 13.200, 09:40:16.670, 14, 0.00, 0.07, 96, 0.100, -0.100, 53.300, 2, 100, 100, 19, 22801, -19763, 5052, 5263, 23, 14, 1530722416.671, 5, 0, 1024, 1024, 1024, 1024, 0, 6, 3775, 3807, 3812, 3808, 3799, 3811, 0, 1, 10000, -90.000, 0.000, 53.400, 0.000, 0.000, -2.900, 0.0, , , , , , 95, , , 0, 0, 0
36.0028654, -118.5646348, 13.500, 09:40:16.770, 14, 0.00, 0.07, 96, 0.300, 0.000, 53.400, 2, 100, 100, 19, 22801, -19763, 5052, 5263, 23, 14, 1530722416.770, 7, 0, 1024, 1024, 1024, 1024, 0, 6, 3775, 3807, 3812, 3808, 3799, 3811, 0, 1, 10100, -89.900, 0.000, 53.400, 0.000, 0.000, -3.000, 0.0, , , , , , 95, , , 0, 0, 0
36.0028654, -118.5646347, 13.900, 09:40:16.870, 14, 0.00, 0.07, 96, 0.200, 0.000, 53.400, 2, 100, 100, 19, 22801, -19763, 5052, 5263, 23, 14, 1530722416.871, 8, 0, 1024, 1024, 1024, 1024, 0, 6, 3775, 3807, 3812, 3808, 3799, 3811, 0, 1, 10200, -89.900, 0.000, 53.400, 0.000, 0.000, -3.000, 0.0, , , , , , 95, , , 0, 0, 0
36.0028654, -118.5646347, 14.200, 09:40:16.970, 15, 0.00, 0.07, 96, 0.200, 0.100, 53.500, 2, 100, 100, 19, 22801, -19763, 5052, 5263, 23, 14, 1530722416.971, 16, 0, 1024, 1024, 1024, 1024, 0, 6, 3775, 3807, 3812, 3808, 3799, 3811, 0, 1, 10300, -89.900, 0.000, 53.400, 0.000, 0.000, -3.000, 0.0, , , , , , 95, , , 0, 0, 0
36.0028654, -118.5646347, 14.500, 09:40:17.078, 15, 0.00, 0.06, 96, 0.300, 0.300, 53.700, 2, 100, 100, 19, 22801, -19763, 5052, 5263, 23, 14, 1530722417.078, 2, 0, 1024, 1024, 1024, 1024, 0, 6, 3775, 3807, 3812, 3808, 3799, 3811, 0, 1, 10407, -89.900, 0.000, 53.400, 0.000, 0.000, -2.900, 0.0, , , , , , 95, , , 0, 0, 0
36.0028655, -118.5646347, 14.800, 09:40:17.170, 14, 0.00, 0.06, 96, 0.300, 0.300, 53.900, 2, 100, 100, 19, 22801, -19763, 5052, 5263, 23, 14, 1530722417.170, 7, 0, 1024, 1024, 1024, 1024, 0, 6, 3775, 3807, 3812, 3808, 3799, 3811, 0, 1, 10500, -89.900, 0.000, 53.400, 0.000, 0.000, -2.900, 0.0, , , , , , 95, , , 0, 0, 0
36.0028655, -118.5646348, 15.100, 09:40:17.270, 14, 0.00, 0.05, 96, 0.500, 0.300, 53.900, 2, 100, 100, 19, 22801, -19763, 5052, 5263, 23, 14, 1530722417.270, 12, 0, 1024, 1024, 1024, 1024, 0, 6, 3775, 3807, 3812, 3808, 3799, 3811, 0, 1, 10600, -89.900, 0.000, 53.400, 0.000, 0.000, -2.900, 0.0, , , , , , 95, , , 0, 0, 0
36.0028655, -118.5646348, 15.100, 09:40:17.370, 14, 0.00, 0.05, 96, 0.500, 0.300, 53.900, 2, 100, 100, 19, 22801, -19763, 5052, 5263, 23, 14, 1530722417.370, 112, 0, 1024, 1024, 1024, 1024, 0, 6, 3775, 3807, 3812, 3808, 3799, 3811, 0, 1, 10700, -89.900, 0.000, 53.400, 0.000, 0.000, -2.900, 0.0, , , , , , 95, , , 0, 0, 0
36.0028655, -118.5646348, 15.400, 09:40:17.470, 15, 0.00, 0.05, 96, 1.000, 0.200, 53.900, 2, 100, 100, 19, 22801, -19763, 5052, 5263, 23, 14, 1530722417.471, 82, 0, 1024, 1024, 1024, 1024, 0, 6, 3775, 3807, 3812, 3808, 3799, 3811, 0, 1, 10800, -90.000, 0.000, 53.400, 0.000, 0.000, -2.900, 0.0, , , , , , 95, , , 0, 0, 0
36.0028655, -118.5646349, 15.700, 09:40:17.570, 15, 0.00, 0.05, 96, 1.200, 0.000, 53.700, 2, 100, 100, 19, 22759, -19985, 5052, 5263, 23, 14, 1530722417.570, 86, 0, 1024, 1024, 1024, 1024, 0, 6, 3775, 3807, 3812, 3808, 3799, 3811, 0, 1, 10900, -90.000, 0.000, 53.400, 0.000, 0.000, -2.800, 0.0, , , , , , 95, , , 0, 0, 0
36.0028656, -118.5646350, 16.300, 09:40:17.670, 14, 0.00, 0.05, 96, 1.500, -0.400, 53.400, 2, 100, 100, 19, 22759, -19985, 5052, 5263, 23, 14, 1530722417.670, 5, 0, 1024, 1024, 1024, 1024, 0, 6, 3775, 3807, 3812, 3808, 3799, 3811, 0, 1, 11000, -90.000, 0.000, 53.400, 0.000, 0.000, -2.900, 0.0, , , , , , 95, , , 0, 0, 0
36.0028656, -118.5646350, 16.300, 09:40:17.770, 14, 0.00, 0.05, 96, 1.500, -0.400, 53.400, 2, 100, 100, 19, 22759, -19985, 5052, 5263, 23, 14, 1530722417.770, 105, 0, 1024, 1024, 1024, 1024, 0, 6, 3775, 3807, 3812, 3808, 3799, 3811, 0, 1, 11100, -90.000, 0.000, 53.400, 0.000, 0.000, -2.900, 0.0, , , , , , 95, , , 0, 0, 0
36.0028656, -118.5646350, 16.600, 09:40:17.870, 14, 0.00, 0.04, 96, 1.500, -0.500, 53.200, 2, 100, 100, 19, 22759, -19985, 5052, 5263, 23, 14, 1530722417.870, 86, 0, 1024, 1024, 1024, 1024, 0, 6, 3775, 3807, 3812, 3808, 3799, 3811, 0, 1, 11200, -90.000, 0.000, 53.400, 0.000, 0.000, -2.800, 0.0, , , , , , 95, , , 0, 0, 0
36.0028655, -118.5646350, 16.800, 09:40:17.970, 14, 0.00, 0.05, 96, 1.100, -0.400, 53.100, 2, 100, 100, 19, 22759, -19985, 5052, 5263, 23, 14, 1530722417.970, 83, 0, 1024, 1024, 1024, 1024, 0, 6, 3775, 3807, 3812, 3808, 3799, 3811, 0, 1, 11300, -90.000, 0.000, 53.400, 0.000, 0.000, -2.900, 0.0, , , , , , 95, , , 0, 0, 0
36.0028655, -118.5646349, 17.100, 09:40:18.070, 14, 0.00, 0.05, 96, 0.700, -0.200, 53.100, 2, 100, 100, 19, 22759, -19985, 5052, 5263, 23, 14, 1530722418.070, 76, 0, 1024, 1024, 1024, 1024, 0, 6, 3780, 3798, 3799, 3791, 3779, 3789, 0, 1, 11400, -89.900, 0.000, 53.400, 0.000, 0.000, -2.900, 0.0, , , , , , 95, , , 0, 0, 0
36.0028655, -118.5646349, 17.400, 09:40:18.170, 14, 0.00, 0.05, 96, 0.500, 0.000, 53.100, 2, 100, 99, 19, 22759, -19985, 5052, 5263, 23, 14, 1530722418.171, 49, 0, 1024, 1024, 1024, 1024, 0, 6, 3780, 3798, 3799, 3791, 3779, 3789, 0, 1, 11500, -89.900, 0.000, 53.400, 0.000, 0.000, -2.900, 0.0, , , , , , 95, , , 0, 0, 0
36.0028656, -118.5646349, 17.700, 09:40:18.270, 14, 0.00, 0.05, 96, 0.500, 0.000, 53.100, 2, 100, 99, 19, 22759, -19985, 5052, 5263, 23, 14, 1530722418.270, 63, 0, 1024, 1024, 1024, 1024, 0, 6, 3780, 3798, 3799, 3791, 3779, 3789, 0, 1, 11600, -89.900, 0.000, 53.400, 0.000, 0.000, -2.900, 0.0, , , , , , 95, , , 0, 0, 0
36.0028656, -118.5646349, 18.000, 09:40:18.370, 14, 0.00, 0.05, 96, 0.800, 0.100, 53.000, 2, 100, 99, 19, 22759, -19985, 5052, 5263, 23, 14, 1530722418.370, 56, 0, 1024, 1024, 1024, 1024, 0, 6, 3780, 3798, 3799, 3791, 3779, 3789, 0, 1, 11700, -89.900, 0.000, 53.400, 0.000, 0.000, -3.000, 0.0, , , , , , 95, , , 0, 0, 0
36.0028656, -118.5646349, 18.700, 09:40:18.470, 14, 0.00, 0.04, 96, 0.900, 0.400, 53.000, 2, 100, 99, 19, 22759, -19985, 5052, 5263, 23, 14, 1530722418.471, 34, 0, 1024, 1024, 1024, 1024, 0, 6, 3780, 3798, 3799, 3791, 3779, 3789, 0, 1, 11800, -89.900, 0.000, 53.400, 0.000, 0.000, -3.000, 0.0, , , , , , 95, , , 0, 0, 0
36.0028656, -118.5646349, 19.000, 09:40:18.570, 14, 0.00, 0.04, 96, 1.300, 0.100, 53.000, 2, 100, 99, 19, 22759, -19985, 5052, 5263, 23, 14, 1530722418.571, 40, 0, 1024, 1024, 1024, 1024, 0, 6, 3780, 3798, 3799, 3791, 3779, 3789, 0, 1, 11900, -89.900, 0.000, 53.400, 0.000, 0.000, -3.000, 0.0, , , , , , 95, , , 0, 0, 0
36.0028656, -118.5646348, 19.300, 09:40:18.670, 14, 0.00, 0.04, 96, 1.400, 0.000, 53.100, 2, 100, 99, 19, 22759, -19985, 5052, 5263, 23, 14, 1530722418.671, 35, 0, 1024, 1024, 1024, 1024, 0, 6, 3780, 3798, 3799, 3791, 3779, 3789, 0, 1, 12000, -89.900, 0.000, 53.400, 0.000, 0.000, -2.900, 0.0, , , , , , 95, , , 0, 0, 0
36.0028656, -118.5646348, 19.600, 09:40:18.770, 15, 0.00, 0.05, 96, 0.900, -0.200, 53.100, 2, 100, 99, 19, 22759, -19985, 5052, 5263, 23, 14, 1530722418.771, 23, 0, 1024, 1024, 1024, 1024, 0, 6, 3780, 3798, 3799, 3791, 3779, 3789, 0, 1, 12100, -90.000, 0.000, 53.400, 0.000, 0.000, -2.900, 0.0, , , , , , 95, , , 0, 0, 0
36.0028655, -118.5646347, 19.900, 09:40:18.870, 15, 0.00, 0.05, 96, 0.500, -0.400, 53.100, 2, 100, 99, 19, 22759, -19985, 5052, 5263, 23, 14, 1530722418.871, 26, 0, 1024, 1024, 1024, 1024, 0, 6, 3780, 3798, 3799, 3791, 3779, 3789, 0, 1, 12200, -90.000, 0.000, 53.400, 0.000, 0.000, -2.900, 0.0, , , , , , 95, , , 0, 0, 0
36.0028655, -118.5646347, 19.900, 09:40:18.970, 15, 0.00, 0.05, 96, 0.500, -0.400, 53.100, 2, 100, 99, 19, 22759, -19985, 5052, 5263, 23, 14, 1530722418.971, 126, 0, 1024, 1024, 1024, 1024, 0, 6, 3780, 3798, 3799, 3791, 3779, 3789, 0, 1, 12300, -90.000, 0.000, 53.400, 0.000, 0.000, -2.900, 0.0, , , , , , 95, , , 0, 0, 0
36.0028655, -118.5646347, 20.500, 09:40:19.074, 15, 0.00, 0.06, 96, -0.300, -0.500, 53.200, 2, 100, 99, 19, 22703, -20278, 4999, 5263, 23, 14, 1530722419.074, 5, 0, 1024, 1024, 1024, 1024, 0, 6, 3751, 3785, 3797, 3795, 3779, 3783, 0, 1, 12403, -90.000, 0.000, 53.400, 0.000, 0.000, -2.900, 0.0, , , , , , 95, , , 0, 0, 0
36.0028654, -118.5646346, 20.800, 09:40:19.180, 15, 0.00, 0.07, 96, -0.500, -0.400, 53.200, 2, 100, 97, 19, 22703, -20278, 4999, 5263, 23, 14, 1530722419.180, 22, 0, 1024, 1024, 1024, 1024, 0, 6, 3751, 3785, 3797, 3795, 3779, 3783, 0, 1, 12509, -90.000, 0.000, 53.400, 0.000, 0.000, -2.900, 0.0, , , , , , 95, , , 0, 0, 0
36.0028654, -118.5646345, 21.100, 09:40:19.271, 15, 0.00, 0.07, 96, -0.400, -0.400, 53.200, 2, 100, 97, 19, 22703, -20278, 4999, 5263, 23, 14, 1530722419.272, 7, 0, 1024, 1024, 1024, 1024, 0, 6, 3751, 3785, 3797, 3795, 3779, 3783, 0, 1, 12601, -90.000, 0.000, 53.400, 0.000, 0.000, -2.900, 0.0, , , , , , 95, , , 0, 0, 0
36.0028654, -118.5646345, 21.400, 09:40:19.371, 15, 0.00, 0.07, 96, -0.400, -0.400, 53.200, 2, 100, 97, 19, 22703, -20278, 4999, 5263, 23, 14, 1530722419.371, 11, 0, 1024, 1024, 1024, 1024, 0, 6, 3751, 3785, 3797, 3795, 3779, 3783, 0, 1, 12700, -90.000, 0.000, 53.400, 0.000, 0.000, -2.900, 0.0, , , , , , 95, , , 0, 0, 0
36.0028654, -118.5646345, 21.700, 09:40:19.472, 15, 0.00, 0.07, 96, -0.200, -0.400, 53.200, 2, 100, 97, 19, 22703, -20278, 4999, 5263, 23, 14, 1530722419.472, 4, 0, 1024, 1024, 1024, 1024, 0, 6, 3751, 3785, 3797, 3795, 3779, 3783, 0, 1, 12801, -90.000, 0.000, 53.400, 0.000, 0.000, -2.900, 0.0, , , , , , 95, , , 0, 0, 0
36.0028654, -118.5646345, 21.700, 09:40:19.571, 15, 0.00, 0.07, 96, -0.200, -0.400, 53.200, 2, 100, 97, 19, 22703, -20278, 4999, 5263, 23, 14, 1530722419.572, 104, 0, 1024, 1024, 1024, 1024, 0, 6, 3751, 3785, 3797, 3795, 3779, 3783, 0, 1, 12901, -90.000, 0.000, 53.400, 0.000, 0.000, -2.900, 0.0, , , , , , 95, , , 0, 0, 0
36.0028654, -118.5646345, 21.900, 09:40:19.671, 15, 0.00, 0.07, 96, 0.100, -0.200, 53.100, 2, 100, 95, 19, 22703, -20278, 4999, 5263, 23, 14, 1530722419.672, 83, 0, 1024, 1024, 1024, 1024, 0, 6, 3751, 3785, 3797, 3795, 3779, 3783, 0, 1, 13001, -89.900, 0.000, 53.400, 0.000, 0.000, -2.900, 0.0, , , , , , 95, , , 0, 0, 0
36.0028654, -118.5646344, 22.300, 09:40:19.771, 15, 0.00, 0.08, 96, 0.000, -0.200, 53.000, 2, 100, 95, 19, 22703, -20278, 4999, 5263, 23, 14, 1530722419.771, 87, 0, 1024, 1024, 1024, 1024, 0, 6, 3751, 3785, 3797, 3795, 3779, 3783, 0, 1, 13100, -89.900, 0.000, 53.400, 0.000, 0.000, -3.000, 0.0, , , , , , 95, , , 0, 0, 0
36.0028654, -118.5646343, 22.500, 09:40:19.871, 15, 0.00, 0.08, 96, -0.100, -0.200, 52.900, 2, 100, 95, 19, 22703, -20278, 4999, 5263, 23, 14, 1530722419.871, 89, 0, 1024, 1024, 1024, 1024, 0, 6, 3751, 3785, 3797, 3795, 3779, 3783, 0, 1, 13201, -89.900, 0.000, 53.400, 0.000, 0.000, -2.900, 0.0, , , , , , 95, , , 0, 0, 0
36.0028654, -118.5646343, 22.800, 09:40:19.971, 15, 0.00, 0.09, 96, -0.200, -0.200, 52.900, 2, 100, 95, 19, 22703, -20278, 4999, 5263, 23, 14, 1530722419.971, 83, 0, 1024, 1024, 1024, 1024, 0, 6, 3751, 3785, 3797, 3795, 3779, 3783, 0, 1, 13300, -90.000, 0.000, 53.400, 0.000, 0.000, -2.900, 0.0, , , , , , 95, , , 0, 0, 0
36.0028654, -118.5646342, 23.200, 09:40:20.071, 15, 0.00, 0.09, 95, -0.200, -0.200, 52.800, 2, 100, 95, 19, 22596, -20547, 4999, 5263, 23, 14, 1530722420.071, 79, 0, 1024, 1024, 1024, 1024, 0, 6, 3749, 3785, 3779, 3779, 3767, 3774, 0, 1, 13400, -89.900, 0.000, 53.400, 0.000, 0.000, -3.000, 0.0, , , , , , 95, , , 0, 0, 0
36.0028654, -118.5646342, 23.500, 09:40:20.171, 15, 0.00, 0.09, 95, -0.300, 0.000, 52.800, 2, 100, 95, 19, 22596, -20547, 4999, 5263, 23, 14, 1530722420.171, 74, 0, 1024, 1024, 1024, 1024, 0, 6, 3749, 3785, 3779, 3779, 3767, 3774, 0, 1, 13500, -89.900, 0.000, 53.400, 0.000, 0.000, -3.000, 0.0, , , , , , 95, , , 0, 0, 0
36.0028654, -118.5646341, 23.800, 09:40:20.271, 15, 0.00, 0.09, 95, -0.200, 0.200, 52.900, 2, 100, 95, 19, 22596, -20547, 4999, 5263, 23, 14, 1530722420.271, 58, 0, 1024, 1024, 1024, 1024, 0, 6, 3749, 3785, 3779, 3779, 3767, 3774, 0, 1, 13600, -89.900, 0.000, 53.400, 0.000, 0.000, -3.000, 0.0, , , , , , 95, , , 0, 0, 0
36.0028654, -118.5646342, 24.100, 09:40:20.371, 15, 0.00, 0.09, 95, 0.000, 0.300, 53.100, 2, 100, 95, 19, 22596, -20547, 4999, 5263, 23, 14, 1530722420.371, 58, 0, 1024, 1024, 1024, 1024, 0, 6, 3749, 3785, 3779, 3779, 3767, 3774, 0, 1, 13700, -89.900, 0.000, 53.400, 0.000, 0.000, -3.000, 0.0, , , , , , 95, , , 0, 0, 0
36.0028655, -118.5646342, 24.400, 09:40:20.471, 16, 0.00, 0.09, 95, 0.200, 0.200, 53.300, 2, 100, 95, 19, 22596, -20547, 4999, 5263, 23, 14, 1530722420.471, 59, 0, 1024, 1024, 1024, 1024, 0, 6, 3749, 3785, 3779, 3779, 3767, 3774, 0, 1, 13800, -89.900, 0.000, 53.400, 0.000, 0.000, -3.000, 0.0, , , , , , 95, , , 0, 0, 0
36.0028655, -118.5646342, 24.700, 09:40:20.571, 16, 0.00, 0.08, 95, 0.400, 0.000, 53.500, 2, 100, 95, 19, 22596, -20547, 4999, 5263, 23, 14, 1530722420.571, 63, 0, 1024, 1024, 1024, 1024, 0, 6, 3749, 3785, 3779, 3779, 3767, 3774, 0, 1, 13900, -90.000, 0.000, 53.400, 0.000, 0.000, -2.900, 0.0, , , , , , 95, , , 0, 0, 0
36.0028655, -118.5646342, 25.000, 09:40:20.671, 16, 0.00, 0.08, 95, 0.100, -0.200, 53.600, 2, 100, 97, 19, 22596, -20547, 4999, 5263, 23, 14, 1530722420.671, 66, 0, 1024, 1024, 1024, 1024, 0, 6, 3749, 3785, 3779, 3779, 3767, 3774, 0, 1, 14000, -90.000, 0.000, 53.400, 0.000, 0.000, -2.900, 0.0, , , , , , 95, , , 0, 0, 0
36.0028656, -118.5646342, 25.300, 09:40:20.771, 16, 0.00, 0.07, 95, 0.100, -0.200, 53.600, 2, 100, 97, 19, 22596, -20547, 4999, 5263, 23, 14, 1530722420.771, 46, 0, 1024, 1024, 1024, 1024, 0, 6, 3749, 3785, 3779, 3779, 3767, 3774, 0, 1, 14100, -89.900, 0.000, 53.400, 0.000, 0.000, -2.900, 0.0, , , , , , 95, , , 0, 0, 0
36.0028657, -118.5646343, 25.900, 09:40:20.871, 16, 0.00, 0.07, 95, 0.800, -0.400, 53.800, 2, 100, 97, 19, 22596, -20547, 4999, 5263, 23, 14, 1530722420.871, 43, 0, 1024, 1024, 1024, 1024, 0, 6, 3749, 3785, 3779, 3779, 3767, 3774, 0, 1, 14200, -90.000, 0.000, 53.400, 0.000, 0.000, -2.800, 0.0, , , , , , 95, , , 0, 0, 0
36.0028657, -118.5646343, 26.200, 09:40:20.971, 16, 0.00, 0.06, 95, 1.100, -0.500, 53.800, 2, 100, 97, 19, 22596, -20547, 4999, 5263, 23, 14, 1530722420.971, 46, 0, 1024, 1024, 1024, 1024, 0, 6, 3749, 3785, 3779, 3779, 3767, 3774, 0, 1, 14300, -90.000, 0.000, 53.400, 0.000, 0.000, -2.900, 0.0, , , , , , 95, , , 0, 0, 0
36.0028658, -118.5646343, 26.500, 09:40:21.070, 16, 0.00, 0.06, 95, 1.500, -0.300, 53.600, 2, 100, 97, 19, 22640, -19492, 4999, 5263, 23, 14, 1530722421.070, 16, 0, 1024, 1024, 1024, 1024, 0, 6, 3757, 3782, 3784, 3780, 3767, 3757, 0, 1, 14400, -89.900, 0.000, 53.400, 0.000, 0.000, -2.900, 0.0, , , , , , 95, , , 0, 0, 0
36.0028659, -118.5646343, 26.800, 09:40:21.170, 16, 0.00, 0.05, 95, 1.900, -0.200, 53.400, 2, 100, 100, 19, 22640, -19492, 4999, 5263, 23, 14, 1530722421.170, 28, 0, 1024, 1024, 1024, 1024, 0, 6, 3757, 3782, 3784, 3780, 3767, 3757, 0, 1, 14500, -89.900, 0.000, 53.400, 0.000, 0.000, -2.900, 0.0, , , , , , 95, , , 0, 0, 0
36.0028659, -118.5646343, 27.100, 09:40:21.270, 16, 0.00, 0.05, 95, 1.800, 0.000, 53.300, 2, 100, 100, 19, 22640, -19492, 4999, 5263, 23, 14, 1530722421.270, 30, 0, 1024, 1024, 1024, 1024, 0, 6, 3757, 3782, 3784, 3780, 3767, 3757, 0, 1, 14599, -89.900, 0.000, 53.400, 0.000, 0.000, -2.900, 0.0, , , , , , 95, , , 0, 0, 0
36.0028659, -118.5646343, 27.400, 09:40:21.370, 16, 0.00, 0.05, 95, 1.700, -0.200, 53.100, 2, 100, 100, 19, 22640, -19492, 4999, 5263, 23, 14, 1530722421.370, 34, 0, 1024, 1024, 1024, 1024, 0, 6, 3757, 3782, 3784, 3780, 3767, 3757, 0, 1, 14699, -89.900, 0.000, 53.400, 0.000, 0.000, -2.800, 0.0, , , , , , 95, , , 0, 0, 0
36.0028660, -118.5646343, 27.700, 09:40:21.470, 16, 0.00, 0.05, 95, 1.600, -0.100, 52.900, 2, 100, 100, 19, 22640, -19492, 4999, 5263, 23, 14, 1530722421.470, 20, 0, 1024, 1024, 1024, 1024, 0, 6, 3757, 3782, 3784, 3780, 3767, 3757, 0, 1, 14800, -89.900, 0.000, 53.400, 0.000, 0.000, -2.800, 0.0, , , , , , 95, , , 0, 0, 0
36.0028660, -118.5646343, 28.000, 09:40:21.570, 16, 0.00, 0.05, 95, 1.600, 0.000, 52.600, 2, 100, 99, 19, 22640, -19492, 4999, 5263, 23, 14, 1530722421.570, 26, 0, 1024, 1024, 1024, 1024, 0, 6, 3757, 3782, 3784, 3780, 3767, 3757, 0, 1, 14900, -89.900, 0.000, 53.400, 0.000, 0.000, -2.800, 0.0, , , , , , 95, , , 0, 0, 0
36.0028660, -118.5646343, 28.000, 09:40:21.670, 16, 0.00, 0.05, 95, 1.600, 0.000, 52.600, 2, 100, 99, 19, 22640, -19492, 4999, 5263, 23, 14, 1530722421.670, 126, 0, 1024, 1024, 1024, 1024, 0, 6, 3757, 3782, 3784, 3780, 3767, 3757, 0, 1, 15000, -89.900, 0.000, 53.400, 0.000, 0.000, -2.800, 0.0, , , , , , 95, , , 0, 0, 0
36.0028660, -118.5646343, 28.200, 09:40:21.770, 16, 0.00, 0.05, 95, 1.400, 0.000, 52.500, 2, 100, 99, 19, 22640, -19492, 4999, 5263, 23, 14, 1530722421.770, 91, 0, 1024, 1024, 1024, 1024, 0, 6, 3757, 3782, 3784, 3780, 3767, 3757, 0, 1, 15100, -89.900, 0.000, 53.400, 0.000, 0.000, -2.800, 0.0, , , , , , 95, , , 0, 0, 0
36.0028660, -118.5646344, 28.800, 09:40:21.870, 16, 0.00, 0.04, 95, 1.000, -0.400, 52.700, 2, 100, 99, 19, 22640, -19492, 4999, 5263, 23, 14, 1530722421.870, 9, 0, 1024, 1024, 1024, 1024, 0, 6, 3757, 3782, 3784, 3780, 3767, 3757, 0, 1, 15200, -90.000, 0.000, 53.400, 0.000, 0.000, -2.800, 0.0, , , , , , 95, , , 0, 0, 0
36.0028660, -118.5646345, 29.100, 09:40:21.970, 16, 0.00, 0.04, 95, 0.800, -0.700, 53.000, 2, 100, 99, 20, 22570, -20077, 4999, 5263, 23, 14, 1530722421.971, 1, 0, 1024, 1024, 1024, 1024, 0, 6, 3729, 3766, 3760, 3757, 3752, 3766, 0, 1, 15300, -90.000, 0.000, 53.400, 0.000, 0.000, -2.800, 0.0, , , , , , 95, , , 0, 0, 0
36.0028660, -118.5646345, 29.100, 09:40:22.071, 16, 0.00, 0.04, 95, 0.800, -0.700, 53.000, 2, 100, 99, 20, 22570, -20077, 4999, 5263, 23, 14, 1530722422.071, 102, 0, 1024, 1024, 1024, 1024, 0, 6, 3729, 3766, 3760, 3757, 3752, 3766, 0, 1, 15401, -90.000, 0.000, 53.400, 0.000, 0.000, -2.800, 0.0, , , , , , 95, , , 0, 0, 0
36.0028660, -118.5646345, 29.400, 09:40:22.171, 16, 0.00, 0.03, 95, 1.000, -0.700, 53.200, 2, 100, 99, 20, 22570, -20077, 4999, 5263, 23, 14, 1530722422.171, 64, 0, 1024, 1024, 1024, 1024, 0, 6, 3729, 3766, 3760, 3757, 3752, 3766, 0, 1, 15501, -90.000, 0.000, 53.400, 0.000, 0.000, -2.900, 0.0, , , , , , 95, , , 0, 0, 0
36.0028661, -118.5646346, 29.700, 09:40:22.271, 16, 0.00, 0.03, 95, 1.100, -0.800, 53.300, 2, 100, 99, 20, 22570, -20077, 4999, 5263, 23, 14, 1530722422.271, 62, 0, 1024, 1024, 1024, 1024, 0, 6, 3729, 3766, 3760, 3757, 3752, 3766, 0, 1, 15600, -90.000, 0.000, 53.400, 0.000, 0.000, -2.900, 0.0, , , , , , 95, , , 0, 0, 0
36.0028661, -118.5646347, 30.000, 09:40:22.371, 16, 0.00, 0.02, 95, 1.400, -0.700, 53.500, 2, 100, 99, 20, 22570, -20077, 4999, 5263, 23, 14, 1530722422.371, 66, 0, 1024, 1024, 1024, 1024, 0, 6, 3729, 3766, 3760, 3757, 3752, 3766, 0, 1, 15700, -89.900, 0.000, 53.400, 0.000, 0.000, -2.900, 0.0, , , , , , 95, , , 0, 0, 0
36.0028661, -118.5646348, 30.300, 09:40:22.471, 16, 0.00, 0.02, 95, 1.500, -0.700, 53.500, 2, 100, 99, 20, 22570, -20077, 4999, 5263, 23, 14, 1530722422.471, 79, 0, 1024, 1024, 1024, 1024, 0, 6, 3729, 3766, 3760, 3757, 3752, 3766, 0, 1, 15800, -89.900, 0.000, 53.400, 0.000, 0.000, -2.900, 0.0, , , , , , 95, , , 0, 0, 0
36.0028662, -118.5646348, 30.600, 09:40:22.571, 16, 0.00, 0.02, 95, 1.600, -0.600, 53.600, 2, 100, 99, 20, 22570, -20077, 4999, 5263, 23, 14, 1530722422.571, 81, 0, 1024, 1024, 1024, 1024, 0, 6, 3729, 3766, 3760, 3757, 3752, 3766, 0, 1, 15900, -89.900, 0.000, 53.400, 0.000, 0.000, -2.900, 0.0, , , , , , 95, , , 0, 0, 0
36.0028662, -118.5646349, 30.800, 09:40:22.671, 16, 0.00, 0.03, 95, 1.800, -0.400, 53.600, 2, 100, 99, 20, 22570, -20077, 4999, 5263, 23, 14, 1530722422.671, 59, 0, 1024, 1024, 1024, 1024, 0, 6, 3729, 3766, 3760, 3757, 3752, 3766, 0, 1, 16000, -89.900, 0.000, 53.400, 0.000, 0.000, -2.900, 0.0, , , , , , 95, , , 0, 0, 0
36.0028662, -118.5646350, 31.100, 09:40:22.771, 16, 0.00, 0.03, 95, 2.000, -0.200, 53.600, 2, 100, 99, 20, 22570, -20077, 4999, 5263, 23, 14, 1530722422.771, 66, 0, 1024, 1024, 1024, 1024, 0, 6, 3729, 3766, 3760, 3757, 3752, 3766, 0, 1, 16101, -89.900, 0.000, 53.400, 0.000, 0.000, -2.900, 0.0, , , , , , 95, , , 0, 0, 0
36.0028662, -118.5646350, 31.100, 09:40:22.871, 16, 0.00, 0.03, 95, 2.000, -0.200, 53.600, 2, 100, 99, 20, 22570, -20077, 4999, 5263, 23, 14, 1530722422.871, 166, 0, 1024, 1024, 1024, 1024, 0, 6, 3729, 3766, 3760, 3757, 3752, 3766, 0, 1, 16200, -89.900, 0.000, 53.400, 0.000, 0.000, -2.900, 0.0, , , , , , 95, , , 0, 0, 0
36.0028661, -118.5646351, 31.700, 09:40:22.971, 16, 0.00, 0.02, 95, 1.700, -0.900, 53.500, 2, 100, 99, 20, 22570, -20077, 4999, 5263, 23, 14, 1530722422.971, 45, 0, 1024, 1024, 1024, 1024, 0, 6, 3729, 3766, 3760, 3757, 3752, 3766, 0, 1, 16300, -90.000, 0.000, 53.400, 0.000, 0.000, -3.000, 0.0, , , , , , 95, , , 0, 0, 0
36.0028661, -118.5646351, 32.000, 09:40:23.071, 16, 0.00, 0.02, 95, 1.200, -1.200, 53.300, 2, 100, 99, 20, 22409, -21698, 4999, 5263, 23, 14, 1530722423.071, 37, 0, 1024, 1024, 1024, 1024, 0, 6, 3729, 3766, 3760, 3757, 3752, 3766, 0, 1, 16400, -90.000, 0.000, 53.400, 0.000, 0.000, -3.000, 0.0, , , , , , 95, , , 0, 0, 0
36.0028660, -118.5646352, 32.700, 09:40:23.170, 16, 0.00, 0.03, 95, 0.600, -1.700, 53.000, 2, 100, 98, 20, 22409, -21698, 4999, 5263, 23, 14, 1530722423.170, 35, 0, 1024, 1024, 1024, 1024, 0, 6, 3729, 3766, 3760, 3757, 3752, 3766, 0, 1, 16499, -90.000, 0.000, 53.400, 0.000, 0.000, -3.000, 0.0, , , , , , 95, , , 0, 0, 0
36.0028660, -118.5646353, 33.000, 09:40:23.271, 16, 0.00, 0.04, 95, 0.800, -1.600, 53.000, 2, 100, 98, 20, 22409, -21698, 4999, 5263, 23, 14, 1530722423.271, 41, 0, 1024, 1024, 1024, 1024, 0, 6, 3729, 3766, 3760, 3757, 3752, 3766, 0, 1, 16600, -90.000, 0.000, 53.400, 0.000, 0.000, -3.000, 0.0, , , , , , 95, , , 0, 0, 0
36.0028659, -118.5646354, 33.300, 09:40:23.371, 16, 0.00, 0.05, 95, 1.100, -1.400, 52.900, 2, 100, 98, 20, 22409, -21698, 4999, 5263, 23, 14, 1530722423.371, 30, 0, 1024, 1024, 1024, 1024, 0, 6, 3729, 3766, 3760, 3757, 3752, 3766, 0, 1, 16701, -90.000, 0.000, 53.400, 0.000, 0.000, -3.000, 0.0, , , , , , 95, , , 0, 0, 0
36.0028659, -118.5646354, 33.600, 09:40:23.471, 16, 0.00, 0.05, 95, 1.400, -1.400, 52.900, 2, 100, 98, 20, 22409, -21698, 4999, 5263, 23, 14, 1530722423.471, 34, 0, 1024, 1024, 1024, 1024, 0, 6, 3729, 3766, 3760, 3757, 3752, 3766, 0, 1, 16800, -90.000, 0.000, 53.400, 0.000, 0.000, -3.000, 0.0, , , , , , 95, , , 0, 0, 0
36.0028660, -118.5646355, 33.900, 09:40:23.571, 16, 0.00, 0.06, 95, 1.700, -1.400, 53.000, 2, 100, 98, 20, 22409, -21698, 4999, 5263, 23, 14, 1530722423.571, 27, 0, 1024, 1024, 1024, 1024, 0, 6, 3709, 3748, 3740, 3738, 3723, 3735, 0, 1, 16900, -90.000, 0.000, 53.400, 0.000, 0.000, -3.000, 0.0, , , , , , 95, , , 0, 0, 0
36.0028660, -118.5646356, 34.200, 09:40:23.671, 16, 0.00, 0.06, 95, 2.200, -1.400, 53.100, 2, 100, 97, 20, 22409, -21698, 4999, 5263, 23, 14, 1530722423.671, 3, 0, 1024, 1024, 1024, 1024, 0, 6, 3709, 3748, 3740, 3738, 3723, 3735, 0, 1, 17000, -89.900, 0.000, 53.400, 0.000, 0.000, -2.900, 0.0, , , , , , 95, , , 0, 0, 0
36.0028660, -118.5646356, 34.500, 09:40:23.771, 16, 0.00, 0.07, 95, 2.200, -1.500, 53.100, 2, 100, 97, 20, 22409, -21698, 4999, 5263, 23, 14, 1530722423.771, 16, 0, 1024, 1024, 1024, 1024, 0, 6, 3709, 3748, 3740, 3738, 3723, 3735, 0, 1, 17100, -90.000, 0.000, 53.400, 0.000, 0.000, -2.900, 0.0, , , , , , 95, , , 0, 0, 0
36.0028659, -118.5646357, 34.800, 09:40:23.871, 16, 0.00, 0.07, 95, 1.900, -1.500, 53.100, 2, 100, 97, 20, 22409, -21698, 4999, 5263, 23, 14, 1530722423.871, 7, 0, 1024, 1024, 1024, 1024, 0, 6, 3709, 3748, 3740, 3738, 3723, 3735, 0, 1, 17201, -90.000, 0.000, 53.400, 0.000, 0.000, -3.000, 0.0, , , , , , 95, , , 0, 0, 0
36.0028659, -118.5646358, 35.100, 09:40:23.971, 16, 0.00, 0.08, 95, 1.700, -1.600, 53.100, 2, 100, 97, 20, 22409, -21698, 4999, 5263, 23, 14, 1530722423.971, 8, 0, 1024, 1024, 1024, 1024, 0, 6, 3709, 3748, 3740, 3738, 3723, 3735, 0, 1, 17300, -90.000, 0.000, 53.400, 0.000, 0.000, -3.000, 0.0, , , , , , 95, , , 0, 0, 0
36.0028659, -118.5646358, 35.400, 09:40:24.072, 16, 0.00, 0.08, 95, 1.900, -1.700, 53.100, 2, 100, 97, 20, 22409, -21698, 4999, 5263, 23, 14, 1530722424.072, 2, 0, 1024, 1024, 1024, 1024, 0, 6, 3709, 3748, 3740, 3738, 3723, 3735, 0, 1, 17401, -90.000, 0.000, 53.400, 0.000, 0.000, -3.000, 0.0, , , , , , 95, , , 0, 0, 0
36.0028659, -118.5646358, 35.400, 09:40:24.170, 16, 0.00, 0.08, 95, 1.900, -1.700, 53.100, 2, 100, 97, 20, 22409, -21698, 4999, 5263, 23, 14, 1530722424.170, 100, 0, 1024, 1024, 1024, 1024, 0, 6, 3709, 3748, 3740, 3738, 3723, 3735, 0, 1, 17499, -90.000, 0.000, 53.400, 0.000, 0.000, -3.000, 0.0, , , , , , 95, , , 0, 0, 0
36.0028659, -118.5646359, 35.700, 09:40:24.271, 16, 0.00, 0.09, 95, 2.400, -2.200, 53.000, 2, 100, 97, 20, 22409, -21698, 4999, 5263, 23, 14, 1530722424.271, 72, 0, 1024, 1024, 1024, 1024, 0, 6, 3709, 3748, 3740, 3738, 3723, 3735, 0, 1, 17600, -90.000, 0.000, 53.400, 0.000, 0.000, -3.000, 0.0, , , , , , 95, , , 0, 0, 0
36.0028659, -118.5646359, 36.000, 09:40:24.371, 16, 0.00, 0.09, 95, 2.200, -2.300, 53.000, 2, 100, 97, 20, 22409, -21698, 4999, 5263, 23, 14, 1530722424.371, 97, 0, 1024, 1024, 1024, 1024, 0, 6, 3709, 3748, 3740, 3738, 3723, 3735, 0, 1, 17701, -90.000, 0.000, 53.400, 0.000, 0.000, -3.000, 0.0, , , , , , 95, , , 0, 0, 0
36.0028658, -118.5646359, 36.300, 09:40:24.471, 16, 0.00, 0.09, 95, 2.100, -1.800, 53.100, 2, 100, 97, 20, 22409, -21698, 4999, 5263, 23, 14, 1530722424.471, 79, 0, 1024, 1024, 1024, 1024, 0, 6, 3709, 3748, 3740, 3738, 3723, 3735, 0, 1, 17800, -89.900, 0.000, 53.400, 0.000, 0.000, -2.900, 0.0, , , , , , 95, , , 0, 0, 0
36.0028658, -118.5646359, 36.600, 09:40:24.571, 16, 0.00, 0.10, 95, 1.900, -1.500, 53.200, 2, 100, 97, 20, 22442, -20573, 4999, 5263, 23, 14, 1530722424.571, 79, 0, 1024, 1024, 1024, 1024, 0, 6, 3721, 3758, 3750, 3742, 3736, 3755, 0, 1, 17900, -89.900, 0.000, 53.400, 0.000, 0.000, -2.900, 0.0, , , , , , 95, , , 0, 0, 0
36.0028658, -118.5646359, 36.900, 09:40:24.672, 16, 0.00, 0.10, 95, 1.700, -1.300, 53.500, 2, 100, 96, 20, 22442, -20573, 4999, 5263, 23, 14, 1530722424.672, 80, 0, 1024, 1024, 1024, 1024, 0, 6, 3721, 3758, 3750, 3742, 3736, 3755, 0, 1, 18001, -89.900, 0.000, 53.400, 0.000, 0.000, -2.900, 0.0, , , , , , 95, , , 0, 0, 0
36.0028658, -118.5646359, 37.200, 09:40:24.771, 16, 0.00, 0.10, 95, 1.400, -1.200, 53.700, 2, 100, 96, 20, 22442, -20573, 4999, 5263, 23, 14, 1530722424.771, 70, 0, 1024, 1024, 1024, 1024, 0, 6, 3721, 3758, 3750, 3742, 3736, 3755, 0, 1, 18100, -89.900, 0.000, 53.400, 0.000, 0.000, -2.900, 0.0, , , , , , 95, , , 0, 0, 0
36.0028658, -118.5646359, 37.500, 09:40:24.871, 16, 0.00, 0.10, 95, 1.600, -1.100, 53.800, 2, 100, 96, 20, 22442, -20573, 4999, 5263, 23, 14, 1530722424.871, 62, 0, 1024, 1024, 1024, 1024, 0, 6, 3721, 3758, 3750, 3742, 3736, 3755, 0, 1, 18200, -89.900, 0.000, 53.400, 0.000, 0.000, -2.900, 0.0, , , , , , 95, , , 0, 0, 0
36.0028658, -118.5646359, 37.800, 09:40:24.971, 16, 0.00, 0.10, 95, 1.700, -1.000, 53.700, 2, 100, 96, 20, 22442, -20573, 4999, 5263, 23, 14, 1530722424.971, 55, 0, 1024, 1024, 1024, 1024, 0, 6, 3721, 3758, 3750, 3742, 3736, 3755, 0, 1, 18300, -89.900, 0.000, 53.400, 0.000, 0.000, -2.900, 0.0, , , , , , 95, , , 0, 0, 0
36.0028658, -118.5646360, 38.100, 09:40:25.071, 16, 0.00, 0.10, 95, 1.900, -1.200, 53.500, 2, 100, 96, 20, 22442, -20573, 4999, 5263, 23, 14, 1530722425.071, 58, 0, 1024, 1024, 1024, 1024, 0, 6, 3721, 3758, 3750, 3742, 3736, 3755, 0, 1, 18400, -90.000, 0.000, 53.400, 0.000, 0.000, -2.900, 0.0, , , , , , 95, , , 0, 0, 0
36.0028658, -118.5646360, 38.400, 09:40:25.170, 16, 0.00, 0.10, 95, 2.000, -1.400, 53.400, 2, 100, 97, 20, 22442, -20573, 4999, 5263, 23, 14, 1530722425.170, 47, 0, 1024, 1024, 1024, 1024, 0, 6, 3721, 3758, 3750, 3742, 3736, 3755, 0, 1, 18499, -90.000, 0.000, 53.400, 0.000, 0.000, -2.900, 0.0, , , , , , 95, , , 0, 0, 0
36.0028658, -118.5646360, 38.700, 09:40:25.271, 16, 0.00, 0.10, 95, 2.000, -1.700, 53.200, 2, 100, 97, 20, 22442, -20573, 4999, 5263, 23, 14, 1530722425.271, 14, 0, 1024, 1024, 1024, 1024, 0, 6, 3721, 3758, 3750, 3742, 3736, 3755, 0, 1, 18600, -90.000, 0.000, 53.400, 0.000, 0.000, -2.900, 0.0, , , , , , 95, , , 0, 0, 0
36.0028658, -118.5646360, 39.200, 09:40:25.371, 16, 0.00, 0.10, 95, 1.600, -1.300, 52.900, 2, 100, 97, 20, 22442, -20573, 4999, 5263, 23, 14, 1530722425.371, 39, 0, 1024, 1024, 1024, 1024, 0, 6, 3721, 3758, 3750, 3742, 3736, 3755, 0, 1, 18700, -89.900, 0.000, 53.400, 0.000, 0.000, -2.900, 0.0, , , , , , 95, , , 0, 0, 0
36.0028658, -118.5646360, 39.500, 09:40:25.471, 16, 0.00, 0.10, 95, 1.300, -1.100, 52.800, 2, 100, 97, 20, 22442, -20573, 4999, 5263, 23, 14, 1530722425.471, 52, 0, 1024, 1024, 1024, 1024, 0, 6, 3721, 3758, 3750, 3742, 3736, 3755, 0, 1, 18800, -89.900, 0.000, 53.400, 0.000, 0.000, -3.000, 0.0, , , , , , 95, , , 0, 0, 0
36.0028658, -118.5646359, 39.800, 09:40:25.571, 16, 0.00, 0.10, 95, 1.400, -1.200, 52.800, 2, 100, 97, 20, 22487, -20082, 4999, 5263, 23, 14, 1530722425.571, 20, 0, 1024, 1024, 1024, 1024, 0, 6, 3710, 3756, 3748, 3747, 3731, 3741, 0, 1, 18900, -89.900, 0.000, 53.400, 0.000, 0.000, -2.900, 0.0, , , , , , 95, , , 0, 0, 0
36.0028658, -118.5646359, 40.100, 09:40:25.671, 16, 0.00, 0.09, 95, 1.400, -1.100, 52.700, 2, 100, 93, 20, 22487, -20082, 4999, 5263, 23, 14, 1530722425.671, 34, 0, 1024, 1024, 1024, 1024, 0, 6, 3710, 3756, 3748, 3747, 3731, 3741, 0, 1, 19000, -89.900, 0.000, 53.400, 0.000, 0.000, -3.000, 0.0, , , , , , 95, , , 0, 0, 0
36.0028658, -118.5646359, 40.500, 09:40:25.771, 16, 0.00, 0.09, 95, 1.800, -1.000, 52.700, 2, 100, 93, 20, 22487, -20082, 4999, 5263, 23, 14, 1530722425.771, 27, 0, 1024, 1024, 1024, 1024, 0, 6, 3710, 3756, 3748, 3747, 3731, 3741, 0, 1, 19100, -89.900, 0.000, 53.400, 0.000, 0.000, -3.000, 0.0, , , , , , 95, , , 0, 0, 0
36.0028658, -118.5646359, 40.800, 09:40:25.871, 16, 0.00, 0.09, 95, 2.200, -1.000, 52.800, 2, 100, 93, 20, 22487, -20082, 4999, 5263, 23, 14, 1530722425.871, 18, 0, 1024, 1024, 1024, 1024, 0, 6, 3710, 3756, 3748, 3747, 3731, 3741, 0, 1, 19200, -89.900, 0.000, 53.400, 0.000, 0.000, -3.000, 0.0, , , , , , 95, , , 0, 0, 0
36.0028659, -118.5646359, 41.100, 09:40:25.971, 16, 0.00, 0.09, 95, 2.200, -0.900, 53.000, 2, 100, 93, 20, 22487, -20082, 4999, 5263, 23, 14, 1530722425.971, 24, 0, 1024, 1024, 1024, 1024, 0, 6, 3710, 3756, 3748, 3747, 3731, 3741, 0, 1, 19300, -89.900, 0.000, 53.400, 0.000, 0.000, -3.000, 0.0, , , , , , 95, , , 0, 0, 0
36.0028659, -118.5646359, 41.400, 09:40:26.070, 16, 0.00, 0.09, 95, 2.200, -0.900, 53.100, 2, 100, 93, 20, 22487, -20082, 4999, 5263, 23, 14, 1530722426.070, 13, 0, 1024, 1024, 1024, 1024, 0, 6, 3710, 3756, 3748, 3747, 3731, 3741, 0, 1, 19400, -89.900, 0.000, 53.400, 0.000, 0.000, -2.900, 0.0, , , , , , 95, , , 0, 0, 0
36.0028660, -118.5646359, 41.700, 09:40:26.170, 16, 0.00, 0.09, 95, 2.600, -0.900, 53.200, 2, 100, 92, 20, 22487, -20082, 4999, 5263, 23, 14, 1530722426.170, 7, 0, 1024, 1024, 1024, 1024, 0, 6, 3710, 3756, 3748, 3747, 3731, 3741, 0, 1, 19499, -89.900, 0.000, 53.400, 0.000, 0.000, -2.900, 0.0, , , , , , 95, , , 0, 0, 0
36.0028660, -118.5646359, 41.700, 09:40:26.270, 16, 0.00, 0.09, 95, 2.600, -0.900, 53.200, 2, 100, 92, 20, 22487, -20082, 4999, 5263, 23, 14, 1530722426.270, 107, 0, 1024, 1024, 1024, 1024, 0, 6, 3710, 3756, 3748, 3747, 3731, 3741, 0, 1, 19599, -89.900, 0.000, 53.400, 0.000, 0.000, -2.900, 0.0, , , , , , 95, , , 0, 0, 0
36.0028660, -118.5646359, 42.000, 09:40:26.370, 16, 0.00, 0.09, 95, 2.800, -0.800, 53.300, 2, 100, 92, 20, 22487, -20082, 4999, 5263, 23, 14, 1530722426.370, 74, 0, 1024, 1024, 1024, 1024, 0, 6, 3710, 3756, 3748, 3747, 3731, 3741, 0, 1, 19700, -89.900, 0.000, 53.400, 0.000, 0.000, -3.000, 0.0, , , , , , 95, , , 0, 0, 0
36.0028660, -118.5646359, 42.000, 09:40:26.470, 16, 0.00, 0.09, 95, 2.800, -0.800, 53.300, 2, 100, 92, 20, 22487, -20082, 4999, 5263, 23, 14, 1530722426.470, 174, 0, 1024, 1024, 1024, 1024, 0, 6, 3710, 3756, 3748, 3747, 3731, 3741, 0, 1, 19800, -90.000, 0.000, 53.400, 0.000, 0.000, -3.000, 0.0, , , , , , 95, , , 0, 0, 0
36.0028661, -118.5646360, 42.600, 09:40:26.570, 16, 0.00, 0.10, 95, 3.300, -1.100, 53.000, 2, 100, 92, 20, 22334, -21303, 4999, 5263, 23, 14, 1530722426.570, 94, 0, 1024, 1024, 1024, 1024, 0, 6, 3701, 3741, 3731, 3717, 3714, 3731, 0, 1, 19900, -89.900, 0.000, 53.400, 0.000, 0.000, -3.000, 0.0, , , , , , 95, , , 0, 0, 0
36.0028662, -118.5646361, 42.900, 09:40:26.670, 16, 0.00, 0.11, 95, 3.000, -1.300, 52.800, 2, 100, 91, 20, 22334, -21303, 4999, 5263, 23, 14, 1530722426.670, 84, 0, 1024, 1024, 1024, 1024, 0, 6, 3701, 3741, 3731, 3717, 3714, 3731, 0, 1, 19999, -89.900, 0.000, 53.400, 0.000, 0.000, -3.000, 0.0, , , , , , 95, , , 0, 0, 0
36.0028662, -118.5646361, 43.200, 09:40:26.770, 16, 0.00, 0.11, 95, 2.900, -1.300, 52.900, 2, 100, 91, 20, 22334, -21303, 4999, 5263, 23, 14, 1530722426.770, 79, 0, 1024, 1024, 1024, 1024, 0, 6, 3701, 3741, 3731, 3717, 3714, 3731, 0, 1, 20100, -89.900, 0.000, 53.400, 0.000, 0.000, -2.900, 0.0, , , , , , 95, , , 0, 0, 0
36.0028663, -118.5646361, 43.500, 09:40:26.870, 16, 0.00, 0.11, 95, 2.800, -1.200, 53.100, 2, 100, 91, 20, 22334, -21303, 4999, 5263, 23, 14, 1530722426.870, 61, 0, 1024, 1024, 1024, 1024, 0, 6, 3701, 3741, 3731, 3717, 3714, 3731, 0, 1, 20199, -90.000, 0.000, 53.400, 0.000, 0.000, -2.900, 0.0, , , , , , 95, , , 0, 0, 0
36.0028663, -118.5646361, 43.800, 09:40:26.970, 16, 0.00, 0.11, 95, 2.800, -1.100, 53.200, 2, 100, 91, 20, 22334, -21303, 4999, 5263, 23, 14, 1530722426.971, 74, 0, 1024, 1024, 1024, 1024, 0, 6, 3701, 3741, 3731, 3717, 3714, 3731, 0, 1, 20300, -89.900, 0.000, 53.400, 0.000, 0.000, -2.900, 0.0, , , , , , 95, , , 0, 0, 0
36.0028664, -118.5646360, 44.100, 09:40:27.070, 16, 0.00, 0.11, 95, 2.800, -0.800, 53.300, 2, 100, 91, 20, 22334, -21303, 4999, 5263, 23, 14, 1530722427.070, 66, 0, 1024, 1024, 1024, 1024, 0, 6, 3701, 3741, 3731, 3717, 3714, 3731, 0, 1, 20400, -89.900, 0.000, 53.400, 0.000, 0.000, -2.900, 0.0, , , , , , 95, , , 0, 0, 0
36.0028664, -118.5646360, 44.300, 09:40:27.170, 16, 0.00, 0.12, 95, 2.900, -0.500, 53.400, 2, 100, 96, 20, 22334, -21303, 4999, 5263, 23, 14, 1530722427.170, 70, 0, 1024, 1024, 1024, 1024, 0, 6, 3701, 3741, 3731, 3717, 3714, 3731, 0, 1, 20499, -89.900, 0.000, 53.400, 0.000, 0.000, -2.900, 0.0, , , , , , 95, , , 0, 0, 0
36.0028665, -118.5646360, 44.600, 09:40:27.270, 16, 0.00, 0.12, 95, 3.200, -0.300, 53.300, 2, 100, 96, 20, 22334, -21303, 4999, 5263, 23, 14, 1530722427.270, 46, 0, 1024, 1024, 1024, 1024, 0, 6, 3701, 3741, 3731, 3717, 3714, 3731, 0, 1, 20600, -89.900, 0.000, 53.400, 0.000, 0.000, -2.900, 0.0, , , , , , 95, , , 0, 0, 0
36.0028667, -118.5646360, 45.200, 09:40:27.370, 16, 0.00, 0.13, 95, 3.700, 0.300, 53.100, 2, 100, 96, 20, 22334, -21303, 4999, 5263, 23, 14, 1530722427.370, 33, 0, 1024, 1024, 1024, 1024, 0, 6, 3701, 3741, 3731, 3717, 3714, 3731, 0, 1, 20700, -89.900, 0.000, 53.400, 0.000, 0.000, -3.000, 0.0, , , , , , 95, , , 0, 0, 0
36.0028667, -118.5646360, 45.500, 09:40:27.470, 16, 0.00, 0.13, 95, 3.800, 0.000, 52.900, 2, 100, 96, 20, 22334, -21303, 4999, 5263, 23, 14, 1530722427.471, 48, 0, 1024, 1024, 1024, 1024, 0, 6, 3701, 3741, 3731, 3717, 3714, 3731, 0, 1, 20800, -89.900, 0.000, 53.400, 0.000, 0.000, -3.000, 0.0, , , , , , 95, , , 0, 0, 0
36.0028667, -118.5646361, 45.800, 09:40:27.570, 16, 0.00, 0.14, 95, 3.800, -0.400, 52.800, 2, 100, 96, 20, 22385, -20594, 4999, 5263, 23, 14, 1530722427.570, 42, 0, 1024, 1024, 1024, 1024, 0, 6, 3712, 3754, 3731, 3734, 3728, 3723, 0, 1, 20899, -89.900, 0.000, 53.400, 0.000, 0.000, -3.000, 0.0, , , , , , 95, , , 0, 0, 0
36.0028667, -118.5646361, 45.800, 09:40:27.670, 16, 0.00, 0.14, 95, 3.800, -0.400, 52.800, 2, 100, 99, 20, 22385, -20594, 4999, 5263, 23, 14, 1530722427.670, 142, 0, 1024, 1024, 1024, 1024, 0, 6, 3712, 3754, 3731, 3734, 3728, 3723, 0, 1, 21000, -89.900, 0.000, 53.400, 0.000, 0.000, -3.000, 0.0, , , , , , 95, , , 0, 0, 0
36.0028667, -118.5646361, 46.400, 09:40:27.770, 16, 0.00, 0.14, 95, 3.300, -1.000, 52.700, 2, 100, 99, 20, 22385, -20594, 4999, 5263, 23, 14, 1530722427.770, 36, 0, 1024, 1024, 1024, 1024, 0, 6, 3712, 3754, 3731, 3734, 3728, 3723, 0, 1, 21100, -90.000, 0.000, 53.400, 0.000, 0.000, -3.000, 0.0, , , , , , 95, , , 0, 0, 0
36.0028668, -118.5646362, 46.700, 09:40:27.870, 16, 0.00, 0.15, 95, 3.400, -1.500, 52.800, 2, 100, 99, 20, 22385, -20594, 4999, 5263, 23, 14, 1530722427.870, 16, 0, 1024, 1024, 1024, 1024, 0, 6, 3712, 3754, 3731, 3734, 3728, 3723, 0, 1, 21200, -90.000, 0.000, 53.400, 0.000, 0.000, -3.000, 0.0, , , , , , 95, , , 0, 0, 0
36.0028668, -118.5646362, 47.000, 09:40:27.970, 16, 0.00, 0.15, 95, 3.500, -1.700, 53.000, 2, 100, 99, 20, 22385, -20594, 4999, 5263, 23, 14, 1530722427.970, 15, 0, 1024, 1024, 1024, 1024, 0, 6, 3712, 3754, 3731, 3734, 3728, 3723, 0, 1, 21300, -90.000, 0.000, 53.400, 0.000, 0.000, -3.000, 0.0, , , , , , 95, , , 0, 0, 0
36.0028668, -118.5646363, 47.300, 09:40:28.070, 16, 0.00, 0.15, 95, 3.400, -1.700, 53.200, 2, 100, 99, 20, 22385, -20594, 4999, 5263, 23, 14, 1530722428.070, 16, 0, 1024, 1024, 1024, 1024, 0, 6, 3712, 3754, 3731, 3734, 3728, 3723, 0, 1, 21400, -90.000, 0.000, 53.400, 0.000, 0.000, -3.000, 0.0, , , , , , 95, , , 0, 0, 0
