latitude,longitude,altitude(feet),ascent(feet),speed(mph),distance(feet),time(millisecond),datetime(utc),satellites,gpslevel,voltage(v),max_altitude(feet),max_ascent(feet),max_speed(mph),max_distance(feet), xSpeed(mph), ySpeed(mph), zSpeed(mph), compass_heading(degrees), pitch(degrees), roll(degrees),isPhoto,isVideo,rc_elevator,rc_aileron,rc_throttle,rc_rudder,gimbal_heading(degrees),gimbal_pitch(degrees),battery_percent,voltageCell1,voltageCell2,voltageCell3,voltageCell4,voltageCell5,voltageCell6,current(A),battery_temperature(f),flycStateRaw,flycState,message
36.00285,-118.5646159,5758.7532823772,0,0.223694,0,3300,2018-07-04 16:56:51,12,0,0,5758.7532823772,0,0.223694,0,0,0,0,52.9, -0.1, -0.5,1,0,1024,1024,1024,1024,52.2,-89.9,98,4.024,3.971,3.942,3.939,3.949,3.973,0,62.6,11,AutoTakeoff,DJI_0337.jpg Starting Mission from Lat/Long: 36.00285/-118.56462 Camera: Zenmuse X3 - Overlap: 90/90 - Active Connection: No
36.0028501,-118.564616,5758.7532823772,0,0.223694,0.04692913536,3500,2018-07-04 16:56:52,12,0,0,5758.7532823772,0,0.223694,0.04692913536,0,0,0,52.9, 0.2, -0.3,0,0,1024,1024,1024,1024,52.2,-89.9,98,4.024,3.971,3.942,3.939,3.949,3.973,0,62.6,11,AutoTakeoff,
36.0028503,-118.564616,5759.0813663772,0.328084,0.223694,0.11336450494,3600,2018-07-04 16:56:52,12,0,0,5759.0813663772,0.328084,0.223694,0.11336450494,0,0,0,52.9, 0.3, 0,0,0,1024,1024,1024,1024,52.2,-89.9,98,4.024,3.971,3.942,3.939,3.949,3.973,0,62.6,11,AutoTakeoff,
36.0028505,-118.564616,5759.0813663772,0.328084,0.447388,0.184796921924,3700,2018-07-04 16:56:52,12,0,0,5759.0813663772,0.328084,0.447388,0.184796921924,0,0,0,53, 0.5, 1,0,0,1024,1024,1024,1024,52.2,-89.9,98,4.024,3.971,3.942,3.939,3.949,3.973,0,62.6,11,AutoTakeoff,
36.0028507,-118.5646161,5759.4094503772,0.656168,0.447388,0.262127961144,3800,2018-07-04 16:56:52,12,0,0,5759.4094503772,0.656168,0.447388,0.262127961144,0,0,0,53, 0.7, 1.9,0,0,1024,1024,1024,1024,52.2,-89.9,98,4.024,3.971,3.942,3.939,3.949,3.973,0,62.6,11,AutoTakeoff,
36.0028509,-118.5646162,5759.4094503772,0.656168,0.223694,0.34009515524,3900,2018-07-04 16:56:52,12,0,0,5759.4094503772,0.656168,0.447388,0.34009515524,0,0,0,53, 0.8, 2.2,0,0,1024,1024,1024,1024,52.2,-89.9,98,4.024,3.971,3.942,3.939,3.949,3.973,0,62.6,11,AutoTakeoff,
36.002851,-118.5646163,5759.7375343772,0.984252,0.223694,0.38347770256,4000,2018-07-04 16:56:52,12,0,24.046,5759.7375343772,0.984252,0.447388,0.38347770256,0,0,0,53.1, 0.8, 2.4,0,0,1024,1024,1024,1024,52.2,-89.9,98,4.024,3.971,3.942,3.939,3.949,3.973,12.583,62.6,11,AutoTakeoff,
36.0028511,-118.5646163,5759.7375343772,0.984252,0.223694,0.4183399084,4100,2018-07-04 16:56:52,10,0,24.046,5759.7375343772,0.984252,0.447388,0.4183399084,0,0,0,53.1, 0.7, 2.4,0,0,1024,1024,1024,1024,52.2,-89.9,98,4.024,3.971,3.942,3.939,3.949,3.973,12.583,62.6,11,AutoTakeoff,
36.0028512,-118.5646165,5760.0656183772,1.312336,0.223694,0.47228019884,4200,2018-07-04 16:56:52,10,0,24.046,5760.0656183772,1.312336,0.447388,0.47228019884,0,0,0,53.1, 0.4, 2.2,0,0,1024,1024,1024,1024,52.2,-89.9,98,4.024,3.971,3.942,3.939,3.949,3.973,12.583,62.6,11,AutoTakeoff,
36.0028513,-118.5646166,5760.0656183772,1.312336,0.223694,0.51735237876,4300,2018-07-04 16:56:52,10,0,24.046,5760.0656183772,1.312336,0.447388,0.51735237876,0,0,0,53, 0.2, 2.2,0,0,1024,1024,1024,1024,52.2,-89.9,98,4.024,3.971,3.942,3.939,3.949,3.973,12.583,62.6,11,AutoTakeoff,
36.0028514,-118.5646166,5760.3937023772,1.64042,0.223694,0.55099411212,4400,2018-07-04 16:56:53,10,0,24.046,5760.3937023772,1.64042,0.447388,0.55099411212,0,0,0,52.9, 0.1, 1.9,0,0,1024,1024,1024,1024,52.2,-89.9,98,4.024,3.971,3.942,3.939,3.949,3.973,12.583,62.6,11,AutoTakeoff,
36.0028516,-118.5646167,5760.3937023772,1.64042,0.223694,0.6297080254,4500,2018-07-04 16:56:53,11,0,24.046,5760.3937023772,1.64042,0.447388,0.6297080254,0,0,-0.223694,52.8, 0.2, 1.5,0,0,1024,1024,1024,1024,52.2,-89.9,98,4.024,3.971,3.942,3.939,3.949,3.973,12.583,62.6,11,AutoTakeoff,
36.0028519,-118.564617,5760.7217863772,1.968504,0.223694,0.76547902712,4600,2018-07-04 16:56:53,11,0,24.046,5760.7217863772,1.968504,0.447388,0.76547902712,0,0,-0.223694,52.8, 0.3, 1.8,0,0,1024,1024,1024,1024,52.2,-89.9,98,4.024,3.971,3.942,3.939,3.949,3.973,12.583,62.6,11,AutoTakeoff,
36.0028521,-118.5646171,5761.0498703772,2.296588,0.223694,0.84409123436,4700,2018-07-04 16:56:53,11,0,24.046,5761.0498703772,2.296588,0.447388,0.84409123436,0,0,-0.223694,52.9, 0.2, 1.9,0,0,1024,1024,1024,1024,52.2,-89.9,98,4.024,3.971,3.942,3.939,3.949,3.973,12.583,62.6,11,AutoTakeoff,
36.0028522,-118.5646173,5761.0498703772,2.296588,0,0.9027887428,4800,2018-07-04 16:56:53,11,0,24.046,5761.0498703772,2.296588,0.447388,0.9027887428,0,0,-0.223694,53, 0.1, 2,0,0,1024,1024,1024,1024,52.2,-89.9,98,4.024,3.971,3.942,3.939,3.949,3.973,12.583,62.6,11,AutoTakeoff,
36.0028523,-118.5646174,5761.3779543772,2.624672,0,0.9487861196,4900,2018-07-04 16:56:53,11,0,24.046,5761.3779543772,2.624672,0.447388,0.9487861196,0,0,-0.223694,53.2, 0, 2.2,0,0,1024,1024,1024,1024,52.2,-89.9,98,4.024,3.971,3.942,3.939,3.949,3.973,12.583,62.6,11,AutoTakeoff,
36.0028524,-118.5646175,5761.3779543772,2.624672,0,0.99486879824,5000,2018-07-04 16:56:53,11,0,23.432,5761.3779543772,2.624672,0.447388,0.99486879824,0,0,-0.223694,53.3, 0, 2.7,0,0,1024,1024,1024,1024,52.2,-89.9,98,3.924,3.883,3.875,3.882,3.909,3.905,17.475,62.6,11,AutoTakeoff,
36.0028526,-118.5646177,5761.7060383772,2.952756,0,1.0872539718,5100,2018-07-04 16:56:53,11,0,23.432,5761.7060383772,2.952756,0.447388,1.0872539718,0,0,-0.223694,53.3, 0, 3,0,0,1024,1024,1024,1024,52.2,-89.9,98,3.924,3.883,3.875,3.882,3.909,3.905,17.475,62.6,6,P-GPS,
36.0028528,-118.5646179,5761.7060383772,2.952756,0,1.179872085,5200,2018-07-04 16:56:53,12,0,23.432,5761.7060383772,2.952756,0.447388,1.179872085,0,0,0,53.2, -0.1, 3.4,0,0,1024,1024,1024,1024,52.2,-89.9,98,3.924,3.883,3.875,3.882,3.909,3.905,17.475,62.6,14,Waypoint,
36.0028529,-118.564618,5762.0341223772,3.28084,0,1.22625003924,5300,2018-07-04 16:56:53,12,0,23.432,5762.0341223772,3.28084,0.447388,1.22625003924,0,0,0,53.2, -0.2, 2.9,0,0,1024,1024,1024,1024,52.2,-90,98,3.924,3.883,3.875,3.882,3.909,3.905,17.475,62.6,14,Waypoint,
36.002853,-118.5646181,5762.0341223772,3.28084,0,1.2726706444,5400,2018-07-04 16:56:54,11,0,23.432,5762.0341223772,3.28084,0.447388,1.2726706444,0,0,0,53.2, -0.3, 2.4,0,0,1024,1024,1024,1024,52.2,-89.9,98,3.924,3.883,3.875,3.882,3.909,3.905,17.475,62.6,14,Waypoint,
36.0028531,-118.5646182,5762.0341223772,3.28084,0,1.3191273388,5500,2018-07-04 16:56:54,11,0,23.432,5762.0341223772,3.28084,0.447388,1.3191273388,0,0,0,53.3, -0.2, 2.2,0,0,1024,1024,1024,1024,52.2,-89.9,98,3.924,3.883,3.875,3.882,3.909,3.905,17.475,62.6,14,Waypoint,
36.0028532,-118.5646183,5762.3622063772,3.608924,0,1.36561356076,5600,2018-07-04 16:56:54,11,0,23.432,5762.3622063772,3.608924,0.447388,1.36561356076,0,0,0,53.5, -0.3, 2.1,0,0,1024,1024,1024,1024,52.2,-89.9,98,3.924,3.883,3.875,3.882,3.909,3.905,17.475,62.6,14,Waypoint,
36.0028532,-118.5646185,5762.6902903772,3.937008,0,1.397145714,5700,2018-07-04 16:56:54,11,0,23.432,5762.6902903772,3.937008,0.447388,1.397145714,0,0,-0.223694,53.7, -0.3, 2.2,0,0,1024,1024,1024,1024,52.2,-89.9,98,3.924,3.883,3.875,3.882,3.909,3.905,17.475,62.6,14,Waypoint,
36.0028533,-118.5646187,5763.0183743772,4.265092,0,1.46035437744,5900,2018-07-04 16:56:54,11,0,23.432,5763.0183743772,4.265092,0.447388,1.46035437744,0,0,-0.223694,54, -0.3, 2.2,0,0,1024,1024,1024,1024,52.3,-90,98,3.924,3.883,3.875,3.882,3.909,3.905,17.475,62.6,14,Waypoint,
36.0028533,-118.5646188,5763.0183743772,4.265092,0,1.47725726512,6000,2018-07-04 16:56:54,12,0,23.323,5763.0183743772,4.265092,0.447388,1.47725726512,0,0,-0.223694,54.1, -0.4, 1.9,0,0,1024,1024,1024,1024,52.3,-90,97,3.924,3.883,3.875,3.882,3.909,3.905,17.076,62.6,14,Waypoint,
36.0028534,-118.5646189,5763.6745423772,4.92126,0,1.5240978178,6100,2018-07-04 16:56:54,12,0,23.323,5763.6745423772,4.92126,0.447388,1.5240978178,0,0,-0.223694,54.1, -0.4, 1.7,0,0,1024,1024,1024,1024,52.3,-89.9,97,3.924,3.883,3.875,3.882,3.909,3.905,17.076,62.6,14,Waypoint,
36.0028534,-118.564619,5764.0026263772,5.249344,0,1.54143377636,6300,2018-07-04 16:56:54,12,0,23.323,5764.0026263772,5.249344,0.447388,1.54143377636,0,0,-0.447388,54.1, -0.4, 1.7,0,0,1024,1024,1024,1024,52.3,-90,97,3.924,3.883,3.875,3.882,3.909,3.905,17.076,62.6,14,Waypoint,
36.0028533,-118.5646191,5764.3307103772,5.577428,0,1.53026907784,6400,2018-07-04 16:56:55,12,0,23.323,5764.3307103772,5.577428,0.447388,1.54143377636,0,0,-0.447388,54.1, -0.6, 1.8,0,0,1024,1024,1024,1024,52.4,-90,97,3.924,3.883,3.875,3.882,3.909,3.905,17.076,62.6,14,Waypoint,
36.0028533,-118.5646192,5764.9868783772,6.233596,0,1.54865818604,6500,2018-07-04 16:56:55,11,0,23.323,5764.9868783772,6.233596,0.447388,1.54865818604,0,0,-0.447388,54.1, -0.9, 1.8,0,0,1024,1024,1024,1024,52.4,-90,97,3.924,3.883,3.875,3.882,3.909,3.905,17.076,62.6,14,Waypoint,
36.0028533,-118.5646193,5765.6430463772,6.889764,0,1.56739178244,6600,2018-07-04 16:56:55,11,0,23.323,5765.6430463772,6.889764,0.447388,1.56739178244,0,0,-0.447388,54, -0.9, 1.4,0,0,1024,1024,1024,1024,52.4,-90,97,3.924,3.883,3.875,3.882,3.909,3.905,17.076,62.6,14,Waypoint,
36.0028534,-118.5646193,5766.6272983772,7.874016,0,1.5955873214,6700,2018-07-04 16:56:55,11,0,23.323,5766.6272983772,7.874016,0.447388,1.5955873214,0,0,-0.447388,53.8, -0.8, 1,0,0,1024,1024,1024,1024,52.4,-89.9,97,3.924,3.883,3.875,3.882,3.909,3.905,17.076,62.6,14,Waypoint,
36.0028534,-118.5646193,5767.2834663772,8.530184,0,1.5955873214,6800,2018-07-04 16:56:55,11,0,23.323,5767.2834663772,8.530184,0.447388,1.5955873214,0,0,-0.671082,53.6, -0.3, 0.8,0,0,1024,1024,1024,1024,52.4,-89.9,97,3.924,3.883,3.875,3.882,3.909,3.905,17.076,62.6,14,Waypoint,
36.0028534,-118.5646193,5768.2677183772,9.514436,0,1.5955873214,6900,2018-07-04 16:56:55,11,0,23.323,5768.2677183772,9.514436,0.447388,1.5955873214,0,0,-0.671082,53.4, 0, 1.1,0,0,1024,1024,1024,1024,52.5,-89.9,97,3.924,3.883,3.875,3.882,3.909,3.905,17.076,62.6,14,Waypoint,
36.0028533,-118.5646193,5769.2519703772,10.498688,0,1.56739178244,7000,2018-07-04 16:56:55,11,0,23.323,5769.2519703772,10.498688,0.447388,1.5955873214,0,0,-0.671082,53.3, 0.1, 1.4,0,0,1024,1024,1024,1024,52.5,-89.9,97,3.909,3.859,3.87,3.879,3.897,3.899,17.076,62.6,14,Waypoint,
36.0028533,-118.5646193,5770.2362223772,11.48294,0,1.56739178244,7100,2018-07-04 16:56:55,10,0,23.323,5770.2362223772,11.48294,0.447388,1.5955873214,0,0,-0.671082,53.2, 0.1, 1.5,0,0,1024,1024,1024,1024,52.5,-89.9,97,3.909,3.859,3.87,3.879,3.897,3.899,17.076,62.6,14,Waypoint,
36.0028533,-118.5646193,5771.2204743772,12.467192,0,1.56739178244,7200,2018-07-04 16:56:55,10,0,23.323,5771.2204743772,12.467192,0.447388,1.5955873214,0,0,-0.671082,53.3, 0, 1.6,0,0,1024,1024,1024,1024,52.5,-89.9,97,3.909,3.859,3.87,3.879,3.897,3.899,17.076,62.6,14,Waypoint,
36.0028532,-118.5646193,5772.5328103772,13.779528,0,1.53954073168,7300,2018-07-04 16:56:55,12,0,23.323,5772.5328103772,13.779528,0.447388,1.5955873214,0,0,-0.671082,53.5, -0.2, 1.3,0,0,1024,1024,1024,1024,52.5,-89.9,97,3.909,3.859,3.87,3.879,3.897,3.899,17.076,62.6,14,Waypoint,
36.0028533,-118.5646195,5774.8293983772,16.076116,0,1.60582682304,7400,2018-07-04 16:56:56,11,0,23.323,5774.8293983772,16.076116,0.447388,1.60582682304,0,0,-0.671082,53.8, -0.2, 1.3,0,0,1024,1024,1024,1024,52.6,-89.9,97,3.909,3.859,3.87,3.879,3.897,3.899,17.076,62.6,14,Waypoint,
36.0028535,-118.5646197,5775.8136503772,17.060368,0,1.69960307276,7500,2018-07-04 16:56:56,11,0,23.323,5775.8136503772,17.060368,0.447388,1.69960307276,0,0,-0.671082,53.9, 0, 1.6,0,0,1024,1024,1024,1024,52.6,-89.9,97,3.909,3.859,3.87,3.879,3.897,3.899,17.076,62.6,14,Waypoint,
36.0028537,-118.5646199,5777.1259863772,18.372704,0,1.793389165,7600,2018-07-04 16:56:56,10,0,23.323,5777.1259863772,18.372704,0.447388,1.793389165,0,0,-0.671082,53.9, 0, 2.2,0,0,1024,1024,1024,1024,52.6,-89.9,97,3.909,3.859,3.87,3.879,3.897,3.899,17.076,62.6,14,Waypoint,
36.0028539,-118.5646202,5778.1102383772,19.356956,0,1.90669953608,7700,2018-07-04 16:56:56,10,0,23.323,5778.1102383772,19.356956,0.447388,1.90669953608,0,0,-0.671082,53.9, 0, 2.9,0,0,1024,1024,1024,1024,52.6,-89.9,97,3.909,3.859,3.87,3.879,3.897,3.899,17.076,62.6,14,Waypoint,
36.0028541,-118.5646204,5779.4225743772,20.669292,0,2.00045281992,7800,2018-07-04 16:56:56,12,0,23.323,5779.4225743772,20.669292,0.447388,2.00045281992,0,0,-0.671082,53.9, -0.2, 3.6,0,0,1024,1024,1024,1024,52.6,-89.9,97,3.909,3.859,3.87,3.879,3.897,3.899,17.076,62.6,14,Waypoint,
36.0028542,-118.5646206,5780.4068263772,21.653544,0,2.0670276252,7900,2018-07-04 16:56:56,12,0,23.323,5780.4068263772,21.653544,0.447388,2.0670276252,0,0,-0.671082,53.8, -0.3, 4,0,0,1024,1024,1024,1024,52.6,-89.9,97,3.909,3.859,3.87,3.879,3.897,3.899,17.076,62.6,14,Waypoint,
36.0028543,-118.5646207,5781.3910783772,22.637796,0,2.11388458208,8000,2018-07-04 16:56:56,14,0,22.977,5781.3910783772,22.637796,0.447388,2.11388458208,0,0,-0.671082,53.8, -0.4, 3.9,0,0,1024,1024,1024,1024,52.7,-90,97,3.854,3.754,3.771,3.776,3.784,3.811,19.158,62.6,14,Waypoint,
36.0028543,-118.5646208,5782.7034143772,23.950132,0,2.13377959584,8100,2018-07-04 16:56:56,14,0,22.977,5782.7034143772,23.950132,0.447388,2.13377959584,0,0,-0.671082,53.7, -0.5, 3.5,0,0,1024,1024,1024,1024,52.7,-89.9,97,3.854,3.754,3.771,3.776,3.784,3.811,19.158,62.6,14,Waypoint,
36.0028542,-118.5646208,5783.6876663772,24.934384,0,2.10709980496,8200,2018-07-04 16:56:56,14,0,22.977,5783.6876663772,24.934384,0.447388,2.13377959584,0,0,-0.671082,53.7, -0.7, 3,0,0,1024,1024,1024,1024,52.7,-90,97,3.854,3.754,3.771,3.776,3.784,3.811,19.158,62.6,14,Waypoint,
36.0028541,-118.5646207,5784.6719183772,25.918636,0,2.06031174572,8300,2018-07-04 16:56:56,14,0,22.977,5784.6719183772,25.918636,0.447388,2.13377959584,0,0,-0.671082,53.7, -0.8, 2.7,0,0,1024,1024,1024,1024,52.7,-89.9,97,3.854,3.754,3.771,3.776,3.784,3.811,19.158,62.6,14,Waypoint,
36.002854,-118.5646206,5785.6561703772,26.902888,0.223694,2.01352696732,8400,2018-07-04 16:56:57,15,0,22.977,5785.6561703772,26.902888,0.447388,2.13377959584,0,0,-0.671082,53.7, -0.7, 2.3,0,0,1024,1024,1024,1024,52.7,-89.9,97,3.854,3.754,3.771,3.776,3.784,3.811,19.158,62.6,14,Waypoint,
36.0028539,-118.5646205,5786.9685063772,28.215224,0.223694,1.96675203144,8500,2018-07-04 16:56:57,15,0,22.977,5786.9685063772,28.215224,0.447388,2.13377959584,0,0,-0.671082,53.7, -0.6, 1.9,0,0,1024,1024,1024,1024,52.7,-89.9,97,3.854,3.754,3.771,3.776,3.784,3.811,19.158,62.6,14,Waypoint,
36.0028537,-118.5646204,5787.9527583772,29.199476,0.223694,1.89380583488,8600,2018-07-04 16:56:57,14,0,22.977,5787.9527583772,29.199476,0.447388,2.13377959584,0,0,-0.671082,53.7, -0.5, 1.5,0,0,1024,1024,1024,1024,52.7,-89.9,97,3.854,3.754,3.771,3.776,3.784,3.811,19.158,62.6,14,Waypoint,
36.0028535,-118.5646202,5790.2493463772,31.496064,0.223694,1.80041344344,8800,2018-07-04 16:56:57,14,0,22.977,5790.2493463772,31.496064,0.447388,2.13377959584,0,0,-0.671082,53.7, -0.4, 1.2,0,0,1024,1024,1024,1024,52.8,-89.9,97,3.854,3.754,3.771,3.776,3.784,3.811,19.158,62.6,14,Waypoint,
36.0028534,-118.5646201,5791.2335983772,32.480316,0.223694,1.75373365192,8900,2018-07-04 16:56:57,14,0,22.977,5791.2335983772,32.480316,0.447388,2.13377959584,0,0,-0.671082,53.7, -0.2, 1.1,0,0,1024,1024,1024,1024,52.7,-89.9,97,3.854,3.754,3.771,3.776,3.784,3.811,19.158,62.6,14,Waypoint,
36.0028533,-118.5646199,5792.2178503772,33.464568,0.223694,1.68627301984,9000,2018-07-04 16:56:57,14,0,22.335,5792.2178503772,33.464568,0.447388,2.13377959584,0,0,-0.671082,53.7, 0.1, 1.1,0,0,1024,1024,1024,1024,52.8,-89.9,97,3.754,3.722,3.722,3.736,3.737,3.749,25.697,62.6,14,Waypoint,
36.0028531,-118.5646197,5793.5301863772,34.776904,0.223694,1.59286750504,9200,2018-07-04 16:56:57,14,0,22.335,5793.5301863772,34.776904,0.447388,2.13377959584,0,0,-0.671082,53.6, 0.3, 1.1,0,0,1024,1024,1024,1024,52.7,-89.9,97,3.754,3.722,3.722,3.736,3.737,3.749,25.697,62.6,14,Waypoint,
36.0028529,-118.5646195,5794.5144383772,35.761156,0.223694,1.49951776452,9300,2018-07-04 16:56:57,15,0,22.335,5794.5144383772,35.761156,0.447388,2.13377959584,0,0,-0.671082,53.6, 0.3, 0.8,0,0,1024,1024,1024,1024,52.8,-89.9,97,3.754,3.722,3.722,3.736,3.737,3.749,25.697,62.6,14,Waypoint,
36.0028528,-118.5646194,5795.4986903772,36.745408,0,1.45286750056,9400,2018-07-04 16:56:58,15,0,22.335,5795.4986903772,36.745408,0.447388,2.13377959584,0,0,-0.671082,53.5, 0.1, 0.4,0,0,1024,1024,1024,1024,52.8,-89.9,97,3.754,3.722,3.722,3.736,3.737,3.749,25.697,62.6,14,Waypoint,
36.0028528,-118.5646194,5796.4829423772,37.72966,0,1.45286750056,9500,2018-07-04 16:56:58,15,0,22.335,5796.4829423772,37.72966,0.447388,2.13377959584,0,0,-0.671082,53.5, -0.1, 0.6,0,0,1024,1024,1024,1024,52.8,-90,97,3.754,3.722,3.722,3.736,3.737,3.749,25.697,62.6,14,Waypoint,
36.0028527,-118.5646193,5797.4671943772,38.713912,0,1.40623692164,9600,2018-07-04 16:56:58,15,0,22.335,5797.4671943772,38.713912,0.447388,2.13377959584,0,0,-0.671082,53.5, -0.4, 1,0,0,1024,1024,1024,1024,52.8,-90,97,3.754,3.722,3.722,3.736,3.737,3.749,25.697,62.6,14,Waypoint,
36.0028525,-118.5646193,5798.7795303772,40.026248,0,1.3561188098,9700,2018-07-04 16:56:58,13,0,22.335,5798.7795303772,40.026248,0.447388,2.13377959584,0,0,-0.671082,53.5, -0.8, 1.1,0,0,1024,1024,1024,1024,52.8,-90,97,3.754,3.722,3.722,3.736,3.737,3.749,25.697,62.6,14,Waypoint,
36.0028525,-118.5646192,5799.7637823772,41.0105,0,1.33442589572,9800,2018-07-04 16:56:58,13,0,22.335,5799.7637823772,41.0105,0.447388,2.13377959584,0,0,-0.671082,53.6, -0.9, 1.2,0,0,1024,1024,1024,1024,52.8,-89.9,97,3.754,3.722,3.722,3.736,3.737,3.749,25.697,62.6,14,Waypoint,
36.0028524,-118.5646191,5800.7480343772,41.994752,0,1.2879593588,9900,2018-07-04 16:56:58,14,0,22.335,5800.7480343772,41.994752,0.447388,2.13377959584,0,0,-0.671082,53.7, -0.8, 1.1,0,0,1024,1024,1024,1024,52.8,-90,97,3.754,3.722,3.722,3.736,3.737,3.749,25.697,62.6,14,Waypoint,
36.0028524,-118.5646191,5802.7165383772,43.963256,0,1.2879593588,10000,2018-07-04 16:56:58,14,0,22.707,5802.7165383772,43.963256,0.447388,2.13377959584,0,0,-0.671082,53.7, -0.8, 1.4,0,0,1024,1024,1024,1024,52.8,-89.9,97,3.807,3.762,3.773,3.774,3.797,3.802,20.619,62.6,14,Waypoint,
36.0028523,-118.564619,5803.7007903772,44.947508,0,1.24152563028,10100,2018-07-04 16:56:58,14,0,22.707,5803.7007903772,44.947508,0.447388,2.13377959584,0,0,-0.671082,53.7, -0.8, 1.7,0,0,1024,1024,1024,1024,52.8,-90,97,3.807,3.762,3.773,3.774,3.797,3.802,20.619,62.6,14,Waypoint,
36.0028523,-118.564619,5804.6850423772,45.93176,0,1.24152563028,10200,2018-07-04 16:56:58,14,0,22.707,5804.6850423772,45.93176,0.447388,2.13377959584,0,0,-0.671082,53.7, -0.7, 1.9,0,0,1024,1024,1024,1024,52.8,-90,97,3.807,3.762,3.773,3.774,3.797,3.802,20.619,62.6,14,Waypoint,
36.0028524,-118.5646189,5806.3254623772,47.57218,0,1.24531500048,10400,2018-07-04 16:56:59,14,0,22.707,5806.3254623772,47.57218,0.447388,2.13377959584,0,0,-0.671082,53.6, -0.5, 2,0,0,1024,1024,1024,1024,52.8,-89.9,97,3.807,3.762,3.773,3.774,3.797,3.802,20.619,62.6,14,Waypoint,
36.0028524,-118.5646189,5807.3097143772,48.556432,0,1.24531500048,10500,2018-07-04 16:56:59,14,0,22.707,5807.3097143772,48.556432,0.447388,2.13377959584,0,0,-0.671082,53.6, -0.3, 2.1,0,0,1024,1024,1024,1024,52.8,-89.9,97,3.807,3.762,3.773,3.774,3.797,3.802,20.619,62.6,14,Waypoint,
36.0028525,-118.5646189,5808.2939663772,49.540684,0,1.27123363648,10600,2018-07-04 16:56:59,14,0,22.707,5808.2939663772,49.540684,0.447388,2.13377959584,0,0,-0.671082,53.7, -0.1, 2,0,0,1024,1024,1024,1024,52.8,-89.9,97,3.807,3.762,3.773,3.774,3.797,3.802,20.619,62.6,14,Waypoint,
36.0028526,-118.5646189,5809.6063023772,50.85302,0,1.29766080268,10700,2018-07-04 16:56:59,14,0,22.707,5809.6063023772,50.85302,0.447388,2.13377959584,0,0,-0.671082,53.7, -0.2, 2.1,0,0,1024,1024,1024,1024,52.8,-89.9,97,3.807,3.762,3.773,3.774,3.797,3.802,20.619,62.6,14,Waypoint,
36.0028526,-118.5646189,5810.5905543772,51.837272,0,1.29766080268,10800,2018-07-04 16:56:59,15,0,22.707,5810.5905543772,51.837272,0.447388,2.13377959584,0,0,-0.671082,53.8, -0.3, 2.1,0,0,1024,1024,1024,1024,52.8,-89.9,97,3.807,3.762,3.773,3.774,3.797,3.802,20.619,62.6,14,Waypoint,
36.0028528,-118.5646189,5812.2309743772,53.477692,0,1.3519193346,11000,2018-07-04 16:56:59,15,0,22.717,5812.2309743772,53.477692,0.447388,2.13377959584,0,0,-0.671082,53.8, -0.1, 2.5,0,0,1024,1024,1024,1024,52.8,-89.9,97,3.81,3.763,3.765,3.772,3.807,3.803,20.296,62.6,14,Waypoint,
36.0028528,-118.5646189,5813.2152263772,54.461944,0,1.3519193346,11100,2018-07-04 16:56:59,15,0,22.717,5813.2152263772,54.461944,0.447388,2.13377959584,0,0,-0.671082,53.9, -0.1, 2.7,0,0,1024,1024,1024,1024,52.8,-89.9,97,3.81,3.763,3.765,3.772,3.807,3.803,20.296,62.6,14,Waypoint,
36.0028529,-118.564619,5814.1994783772,55.446196,0,1.39882550408,11200,2018-07-04 16:56:59,15,0,22.717,5814.1994783772,55.446196,0.447388,2.13377959584,0,0,-0.671082,53.9, -0.2, 2.7,0,0,1024,1024,1024,1024,52.8,-90,97,3.81,3.763,3.765,3.772,3.807,3.803,20.296,62.6,14,Waypoint,
36.0028529,-118.564619,5815.1837303772,56.430448,0,1.39882550408,11300,2018-07-04 16:56:59,15,0,22.717,5815.1837303772,56.430448,0.447388,2.13377959584,0,0,-0.671082,53.8, -0.5, 2.4,0,0,1024,1024,1024,1024,52.8,-90,97,3.81,3.763,3.765,3.772,3.807,3.803,20.296,62.6,14,Waypoint,
36.002853,-118.5646191,5816.1679823772,57.4147,0,1.44572839272,11500,2018-07-04 16:57:00,16,0,22.717,5816.1679823772,57.4147,0.447388,2.13377959584,0,0,-0.671082,53.8, -0.9, 2.6,0,0,1024,1024,1024,1024,52.8,-90,97,3.81,3.763,3.765,3.772,3.807,3.803,20.296,62.6,14,Waypoint,
36.002853,-118.5646191,5817.1522343772,58.398952,0,1.44572839272,11600,2018-07-04 16:57:00,16,0,22.717,5817.1522343772,58.398952,0.447388,2.13377959584,0,0,-0.671082,53.8, -1, 2.8,0,0,1024,1024,1024,1024,52.8,-89.9,97,3.81,3.763,3.765,3.772,3.807,3.803,20.296,62.6,14,Waypoint,
36.0028531,-118.5646191,5818.1364863772,59.383204,0,1.47354335424,11700,2018-07-04 16:57:00,16,0,22.717,5818.1364863772,59.383204,0.447388,2.13377959584,0,0,-0.671082,53.8, -0.6, 2.8,0,0,1024,1024,1024,1024,52.8,-89.9,97,3.81,3.763,3.765,3.772,3.807,3.803,20.296,62.6,14,Waypoint,
36.0028532,-118.5646192,5820.1049903772,61.351708,0,1.52046592792,11900,2018-07-04 16:57:00,16,0,22.717,5820.1049903772,61.351708,0.447388,2.13377959584,0,0,-0.671082,53.7, -0.5, 2.9,0,0,1024,1024,1024,1024,52.8,-89.9,97,3.81,3.763,3.765,3.772,3.807,3.803,20.296,62.6,14,Waypoint,
36.0028533,-118.5646193,5821.0892423772,62.33596,0,1.56739178244,12000,2018-07-04 16:57:00,16,0,22.687,5821.0892423772,62.33596,0.447388,2.13377959584,0,0,-0.671082,53.8, -0.7, 3.2,0,0,1024,1024,1024,1024,52.8,-90,97,3.787,3.744,3.746,3.753,3.795,3.787,20.409,62.6,14,Waypoint,
36.0028533,-118.5646194,5821.7454103772,62.992128,0,1.586450182,12100,2018-07-04 16:57:00,16,0,22.687,5821.7454103772,62.992128,0.447388,2.13377959584,0,0,-0.671082,54, -1, 3.3,0,0,1024,1024,1024,1024,52.8,-90,97,3.787,3.744,3.746,3.753,3.795,3.787,20.409,62.6,14,Waypoint,
36.0028533,-118.5646194,5822.7296623772,63.97638,0,1.586450182,12200,2018-07-04 16:57:00,16,0,22.687,5822.7296623772,63.97638,0.447388,2.13377959584,0,0,-0.671082,54.1, -1.3, 3.1,0,0,1024,1024,1024,1024,52.8,-90,97,3.787,3.744,3.746,3.753,3.795,3.787,20.409,62.6,14,Waypoint,
36.0028533,-118.5646194,5823.7139143772,64.960632,0,1.586450182,12300,2018-07-04 16:57:00,16,0,22.687,5823.7139143772,64.960632,0.447388,2.13377959584,0,0,-0.671082,54.2, -1.4, 2.8,0,0,1024,1024,1024,1024,52.8,-90,97,3.787,3.744,3.746,3.753,3.795,3.787,20.409,62.6,14,Waypoint,
36.0028533,-118.5646195,5825.6824183772,66.929136,0,1.60582682304,12400,2018-07-04 16:57:01,15,0,22.687,5825.6824183772,66.929136,0.447388,2.13377959584,0,0,-0.671082,54, -1.7, 2.1,0,0,1024,1024,1024,1024,52.8,-90,97,3.787,3.744,3.746,3.753,3.795,3.787,20.409,62.6,14,Waypoint,
36.0028532,-118.5646196,5826.6666703772,67.913388,0,1.598671311,12500,2018-07-04 16:57:01,15,0,22.687,5826.6666703772,67.913388,0.447388,2.13377959584,0,0,-0.671082,53.9, -1.7, 2.1,0,0,1024,1024,1024,1024,52.8,-90,97,3.787,3.744,3.746,3.753,3.795,3.787,20.409,62.6,14,Waypoint,
36.0028532,-118.5646197,5827.6509223772,68.89764,0,1.6189797106,12600,2018-07-04 16:57:01,16,0,22.687,5827.6509223772,68.89764,0.447388,2.13377959584,0,0,-0.671082,53.8, -2, 2,0,0,1024,1024,1024,1024,52.8,-90,97,3.787,3.744,3.746,3.753,3.795,3.787,20.409,62.6,14,Waypoint,
36.0028532,-118.5646197,5828.6351743772,69.881892,0,1.6189797106,12700,2018-07-04 16:57:01,16,0,22.687,5828.6351743772,69.881892,0.447388,2.13377959584,0,0,-0.671082,53.7, -2.2, 2.1,0,0,1024,1024,1024,1024,52.8,-90,97,3.787,3.744,3.746,3.753,3.795,3.787,20.409,62.6,14,Waypoint,
36.0028531,-118.5646198,5830.6036783772,71.850396,0,1.61378614088,12900,2018-07-04 16:57:01,16,0,22.687,5830.6036783772,71.850396,0.447388,2.13377959584,0,0,-0.671082,53.7, -2.2, 1.9,0,0,1024,1024,1024,1024,52.8,-89.9,97,3.787,3.744,3.746,3.753,3.795,3.787,20.409,62.6,14,Waypoint,
36.0028531,-118.5646198,5831.5879303772,72.834648,0,1.61378614088,13010,2018-07-04 16:57:01,16,0,22.687,5831.5879303772,72.834648,0.447388,2.13377959584,0,0,-0.671082,53.7, -2.1, 2,0,0,1024,1024,1024,1024,52.8,-89.9,97,3.787,3.744,3.746,3.753,3.795,3.787,20.409,62.6,14,Waypoint,
36.002853,-118.5646198,5832.2440983772,73.490816,0,1.58843180936,13100,2018-07-04 16:57:01,16,0,22.687,5832.2440983772,73.490816,0.447388,2.13377959584,0,0,-0.671082,53.7, -2, 1.8,0,0,1024,1024,1024,1024,52.8,-90,97,3.787,3.744,3.746,3.753,3.795,3.787,20.409,62.6,14,Waypoint,
36.002853,-118.5646198,5834.2126023772,75.45932,0,1.58843180936,13300,2018-07-04 16:57:01,16,0,22.687,5834.2126023772,75.45932,0.447388,2.13377959584,0,0,-0.671082,53.5, -2, 1.6,0,0,1024,1024,1024,1024,52.8,-89.9,97,3.787,3.744,3.746,3.753,3.795,3.787,20.409,62.6,14,Waypoint,
36.002853,-118.5646198,5835.1968543772,76.443572,0,1.58843180936,13400,2018-07-04 16:57:02,16,0,22.687,5835.1968543772,76.443572,0.447388,2.13377959584,0,0,-0.671082,53.5, -1.8, 1.8,0,0,1024,1024,1024,1024,52.8,-89.9,97,3.787,3.744,3.746,3.753,3.795,3.787,20.409,62.6,14,Waypoint,
36.0028529,-118.5646198,5836.1811063772,77.427824,0,1.56351382956,13600,2018-07-04 16:57:02,16,0,22.687,5836.1811063772,77.427824,0.447388,2.13377959584,0,0,-0.671082,53.5, -1.7, 1.9,0,0,1024,1024,1024,1024,52.8,-89.9,97,3.787,3.744,3.746,3.753,3.795,3.787,20.409,62.6,14,Waypoint,
36.0028529,-118.5646199,5837.1653583772,78.412076,0,1.58537078564,13700,2018-07-04 16:57:02,16,0,22.687,5837.1653583772,78.412076,0.447388,2.13377959584,0,0,-0.671082,53.5, -1.8, 2,0,0,1024,1024,1024,1024,52.8,-90,97,3.787,3.744,3.746,3.753,3.795,3.787,20.409,62.6,14,Waypoint,
36.0028529,-118.5646199,5838.1496103772,79.396328,0,1.58537078564,13800,2018-07-04 16:57:02,16,0,22.687,5838.1496103772,79.396328,0.447388,2.13377959584,0,0,-0.671082,53.6, -2, 2.2,0,0,1024,1024,1024,1024,52.8,-90,97,3.787,3.744,3.746,3.753,3.795,3.787,20.409,62.6,14,Waypoint,
36.0028529,-118.56462,5839.1338623772,80.38058,0,1.60747052388,13900,2018-07-04 16:57:02,16,0,22.687,5839.1338623772,80.38058,0.447388,2.13377959584,0,0,-0.671082,53.6, -2.3, 2.2,0,0,1024,1024,1024,1024,52.8,-90,97,3.787,3.744,3.746,3.753,3.795,3.787,20.409,62.6,14,Waypoint,
36.0028529,-118.56462,5840.1181143772,81.364832,0,1.60747052388,14000,2018-07-04 16:57:02,16,0,22.46,5840.1181143772,81.364832,0.447388,2.13377959584,0,0,-0.671082,53.6, -2.4, 2.2,0,0,1024,1024,1024,1024,52.8,-90,97,3.751,3.723,3.709,3.739,3.771,3.751,21.648,62.6,14,Waypoint,
36.0028529,-118.56462,5841.4304503772,82.677168,0,1.60747052388,14100,2018-07-04 16:57:02,16,0,22.46,5841.4304503772,82.677168,0.447388,2.13377959584,0,0,-0.671082,53.6, -2.3, 2.3,0,0,1024,1024,1024,1024,52.8,-89.9,97,3.751,3.723,3.709,3.739,3.771,3.751,21.648,62.6,14,Waypoint,
36.0028529,-118.56462,5842.4147023772,83.66142,0,1.60747052388,14200,2018-07-04 16:57:02,16,0,22.46,5842.4147023772,83.66142,0.447388,2.13377959584,0,0,-0.671082,53.6, -2.1, 2.5,0,0,1024,1024,1024,1024,52.8,-90,97,3.751,3.723,3.709,3.739,3.771,3.751,21.648,62.6,14,Waypoint,
36.0028529,-118.56462,5843.3989543772,84.645672,0,1.60747052388,14300,2018-07-04 16:57:02,16,0,22.46,5843.3989543772,84.645672,0.447388,2.13377959584,0,0,-0.671082,53.6, -2, 2.6,0,0,1024,1024,1024,1024,52.8,-89.9,97,3.751,3.723,3.709,3.739,3.771,3.751,21.648,62.6,14,Waypoint,
36.0028529,-118.56462,5844.3832063772,85.629924,0,1.60747052388,14400,2018-07-04 16:57:03,16,0,22.46,5844.3832063772,85.629924,0.447388,2.13377959584,0,0,-0.671082,53.6, -1.8, 2.7,0,0,1024,1024,1024,1024,52.8,-89.9,97,3.751,3.723,3.709,3.739,3.771,3.751,21.648,62.6,14,Waypoint,
36.0028529,-118.56462,5845.3674583772,86.614176,0,1.60747052388,14500,2018-07-04 16:57:03,16,0,22.46,5845.3674583772,86.614176,0.447388,2.13377959584,0,0,-0.671082,53.7, -1.7, 2.6,0,0,1024,1024,1024,1024,52.8,-89.9,97,3.751,3.723,3.709,3.739,3.771,3.751,21.648,62.6,14,Waypoint,
36.0028529,-118.56462,5846.3517103772,87.598428,0,1.60747052388,14600,2018-07-04 16:57:03,16,0,22.46,5846.3517103772,87.598428,0.447388,2.13377959584,0,0,-0.671082,53.6, -1.6, 2.5,0,0,1024,1024,1024,1024,52.8,-89.9,97,3.751,3.723,3.709,3.739,3.771,3.751,21.648,62.6,14,Waypoint,
36.002853,-118.56462,5848.3202143772,89.566932,0,1.63171593148,14700,2018-07-04 16:57:03,16,0,22.46,5848.3202143772,89.566932,0.447388,2.13377959584,0,0,-0.671082,53.6, -1.5, 2.5,0,0,1024,1024,1024,1024,52.8,-89.9,97,3.751,3.723,3.709,3.739,3.771,3.751,21.648,62.6,14,Waypoint,
36.002853,-118.56462,5849.3044663772,90.551184,0,1.63171593148,14800,2018-07-04 16:57:03,16,0,22.46,5849.3044663772,90.551184,0.447388,2.13377959584,0,0,-0.671082,53.6, -1.5, 2.5,0,0,1024,1024,1024,1024,52.8,-89.9,97,3.751,3.723,3.709,3.739,3.771,3.751,21.648,62.6,14,Waypoint,
36.002853,-118.56462,5850.9448863772,92.191604,0,1.63171593148,15010,2018-07-04 16:57:03,16,0,22.468,5850.9448863772,92.191604,0.447388,2.13377959584,0,0,-0.671082,53.6, -1.7, 2.5,0,0,1024,1024,1024,1024,52.8,-89.9,96,3.767,3.73,3.717,3.728,3.766,3.761,20.995,62.6,14,Waypoint,
36.002853,-118.56462,5851.9291383772,93.175856,0,1.63171593148,15110,2018-07-04 16:57:03,16,0,22.468,5851.9291383772,93.175856,0.447388,2.13377959584,0,0,-0.671082,53.7, -1.9, 2.4,0,0,1024,1024,1024,1024,52.8,-90,96,3.767,3.73,3.717,3.728,3.766,3.761,20.995,62.6,14,Waypoint,
36.002853,-118.56462,5852.9133903772,94.160108,0,1.63171593148,15210,2018-07-04 16:57:03,16,0,22.468,5852.9133903772,94.160108,0.447388,2.13377959584,0,0,-0.671082,53.7, -2, 2.3,0,0,1024,1024,1024,1024,52.8,-90,96,3.767,3.73,3.717,3.728,3.766,3.761,20.995,62.6,14,Waypoint,
36.0028529,-118.56462,5853.8976423772,95.14436,0,1.60747052388,15300,2018-07-04 16:57:03,16,0,22.468,5853.8976423772,95.14436,0.447388,2.13377959584,0,0,-0.671082,53.8, -2, 2.1,0,0,1024,1024,1024,1024,52.8,-89.9,96,3.767,3.73,3.717,3.728,3.766,3.761,20.995,62.6,14,Waypoint,
36.0028529,-118.56462,5854.8818943772,96.128612,0,1.60747052388,15400,2018-07-04 16:57:04,16,0,22.468,5854.8818943772,96.128612,0.447388,2.13377959584,0,0,-0.671082,53.8, -2, 2,0,0,1024,1024,1024,1024,52.8,-90,96,3.767,3.73,3.717,3.728,3.766,3.761,20.995,62.6,14,Waypoint,
36.0028529,-118.56462,5856.1942303772,97.440948,0,1.60747052388,15510,2018-07-04 16:57:04,16,0,22.468,5856.1942303772,97.440948,0.447388,2.13377959584,0,0,-0.671082,53.8, -2, 2,0,0,1024,1024,1024,1024,52.8,-89.9,96,3.767,3.73,3.717,3.728,3.766,3.761,20.995,62.6,14,Waypoint,
36.0028529,-118.56462,5857.1784823772,98.4252,0,1.60747052388,15610,2018-07-04 16:57:04,16,0,22.468,5857.1784823772,98.4252,0.447388,2.13377959584,0,0,-0.671082,53.8, -2, 2,0,0,1024,1024,1024,1024,52.8,-90,96,3.767,3.73,3.717,3.728,3.766,3.761,20.995,62.6,14,Waypoint,
36.0028529,-118.56462,5858.1627343772,99.409452,0,1.60747052388,15710,2018-07-04 16:57:04,16,0,22.468,5858.1627343772,99.409452,0.447388,2.13377959584,0,0,-0.671082,53.7, -1.9, 2.1,0,0,1024,1024,1024,1024,52.8,-89.9,96,3.767,3.73,3.717,3.728,3.766,3.761,20.995,62.6,14,Waypoint,
36.0028529,-118.56462,5859.1469863772,100.393704,0,1.60747052388,15810,2018-07-04 16:57:04,16,0,22.468,5859.1469863772,100.393704,0.447388,2.13377959584,0,0,-0.671082,53.7, -1.8, 2.2,0,0,1024,1024,1024,1024,52.8,-89.9,96,3.767,3.73,3.717,3.728,3.766,3.761,20.995,62.6,14,Waypoint,
36.0028529,-118.56462,5860.1312383772,101.377956,0,1.60747052388,15900,2018-07-04 16:57:04,16,0,22.468,5860.1312383772,101.377956,0.447388,2.13377959584,0,0,-0.671082,53.6, -1.8, 2.2,0,0,1024,1024,1024,1024,52.8,-89.9,96,3.767,3.73,3.717,3.728,3.766,3.761,20.995,62.6,14,Waypoint,
36.0028529,-118.56462,5861.1154903772,102.362208,0,1.60747052388,16010,2018-07-04 16:57:04,16,0,22.369,5861.1154903772,102.362208,0.447388,2.13377959584,0,0,-0.671082,53.6, -1.8, 2.2,0,0,1024,1024,1024,1024,52.8,-89.9,96,3.751,3.706,3.701,3.714,3.751,3.733,21.511,62.6,14,Waypoint,
36.0028529,-118.56462,5861.1154903772,102.362208,0,1.60747052388,16110,2018-07-04 16:57:04,16,0,22.369,5861.1154903772,102.362208,0.447388,2.13377959584,0,0,-0.671082,53.6, -1.8, 2.2,0,0,1024,1024,1024,1024,52.8,-89.9,96,3.751,3.706,3.701,3.714,3.751,3.733,21.511,62.6,14,Waypoint,
36.0028529,-118.56462,5862.0997423772,103.34646,0,1.60747052388,16210,2018-07-04 16:57:04,16,0,22.369,5862.0997423772,103.34646,0.447388,2.13377959584,0,0,-0.671082,53.7, -1.8, 2.2,0,0,1024,1024,1024,1024,52.8,-89.9,96,3.751,3.706,3.701,3.714,3.751,3.733,21.511,62.6,14,Waypoint,
36.0028529,-118.5646199,5863.0839943772,104.330712,0,1.58537078564,16310,2018-07-04 16:57:04,16,0,22.369,5863.0839943772,104.330712,0.447388,2.13377959584,0,0,-0.671082,53.7, -1.9, 2.1,0,0,1024,1024,1024,1024,52.8,-89.9,96,3.751,3.706,3.701,3.714,3.751,3.733,21.511,62.6,14,Waypoint,
36.0028529,-118.5646199,5864.0682463772,105.314964,0,1.58537078564,16410,2018-07-04 16:57:05,16,0,22.369,5864.0682463772,105.314964,0.447388,2.13377959584,0,0,-0.671082,53.8, -1.9, 2,0,0,1024,1024,1024,1024,52.8,-89.9,96,3.751,3.706,3.701,3.714,3.751,3.733,21.511,62.6,14,Waypoint,
36.0028528,-118.5646199,5865.0524983772,106.299216,0,1.56125661164,16510,2018-07-04 16:57:05,16,0,22.369,5865.0524983772,106.299216,0.447388,2.13377959584,0,0,-0.671082,53.8, -1.9, 2,0,0,1024,1024,1024,1024,52.8,-89.9,96,3.751,3.706,3.701,3.714,3.751,3.733,21.511,62.6,14,Waypoint,
36.0028528,-118.5646198,5866.0367503772,107.283468,0,1.5390584482,16610,2018-07-04 16:57:05,16,0,22.369,5866.0367503772,107.283468,0.447388,2.13377959584,0,0,-0.671082,53.9, -1.8, 2,0,0,1024,1024,1024,1024,52.8,-89.9,96,3.751,3.706,3.701,3.714,3.751,3.733,21.511,62.6,14,Waypoint,
36.0028529,-118.5646197,5868.0052543772,109.251972,0,1.541912779,16810,2018-07-04 16:57:05,16,0,22.369,5868.0052543772,109.251972,0.447388,2.13377959584,0,0,-0.671082,53.9, -1.5, 1.9,0,0,1024,1024,1024,1024,52.8,-89.9,96,3.751,3.706,3.701,3.714,3.751,3.733,21.511,62.6,14,Waypoint,
36.0028529,-118.5646197,5868.9895063772,110.236224,0,1.541912779,16910,2018-07-04 16:57:05,16,0,22.369,5868.9895063772,110.236224,0.447388,2.13377959584,0,0,-0.671082,53.9, -1.5, 1.8,0,0,1024,1024,1024,1024,52.8,-89.9,96,3.751,3.706,3.701,3.714,3.751,3.733,21.511,62.6,14,Waypoint,
36.0028529,-118.5646196,5870.9580103772,112.204728,0,1.52057747648,17010,2018-07-04 16:57:05,16,0,22.376,5870.9580103772,112.204728,0.447388,2.13377959584,0,0,-0.671082,53.9, -1.6, 1.9,0,0,1024,1024,1024,1024,52.8,-89.9,96,3.751,3.706,3.701,3.714,3.751,3.733,20.876,64.4,14,Waypoint,
36.0028529,-118.5646195,5871.9422623772,113.18898,0,1.49951776452,17110,2018-07-04 16:57:05,16,0,22.376,5871.9422623772,113.18898,0.447388,2.13377959584,0,0,-0.671082,53.8, -1.4, 1.7,0,0,1024,1024,1024,1024,52.8,-89.9,96,3.751,3.706,3.701,3.714,3.751,3.733,20.876,64.4,14,Waypoint,
36.0028529,-118.5646194,5872.9265143772,114.173232,0,1.47875004732,17310,2018-07-04 16:57:05,16,0,22.376,5872.9265143772,114.173232,0.447388,2.13377959584,0,0,-0.671082,53.8, -1.2, 1.7,0,0,1024,1024,1024,1024,52.8,-89.9,96,3.751,3.706,3.701,3.714,3.751,3.733,20.876,64.4,14,Waypoint,
36.0028529,-118.5646193,5875.8792703772,117.125988,0,1.4582841674,17510,2018-07-04 16:57:06,16,0,22.376,5875.8792703772,117.125988,0.447388,2.13377959584,0,0,-0.671082,53.8, -1, 2,0,0,1024,1024,1024,1024,52.8,-89.9,96,3.751,3.706,3.701,3.714,3.751,3.733,20.876,64.4,14,Waypoint,
36.002853,-118.5646193,5876.8635223772,118.11024,0,1.48496723912,17610,2018-07-04 16:57:06,16,0,22.376,5876.8635223772,118.11024,0.447388,2.13377959584,0,0,-0.671082,53.6, -1, 1.8,0,0,1024,1024,1024,1024,52.8,-89.9,96,3.751,3.706,3.701,3.714,3.751,3.733,20.876,64.4,14,Waypoint,
36.002853,-118.5646193,5877.8477743772,119.094492,0,1.48496723912,17710,2018-07-04 16:57:06,16,0,22.376,5877.8477743772,119.094492,0.447388,2.13377959584,0,0,-0.671082,53.4, -1.2, 1.6,0,0,1024,1024,1024,1024,52.8,-89.9,96,3.751,3.706,3.701,3.714,3.751,3.733,20.876,64.4,14,Waypoint,
36.002853,-118.5646193,5878.8320263772,120.078744,0,1.48496723912,17810,2018-07-04 16:57:06,16,0,22.376,5878.8320263772,120.078744,0.447388,2.13377959584,0,0,-0.671082,53.3, -1.4, 1.6,0,0,1024,1024,1024,1024,52.8,-90,96,3.751,3.706,3.701,3.714,3.751,3.733,20.876,64.4,14,Waypoint,
36.002853,-118.5646192,5879.8162783772,121.062996,0,1.46518049308,17910,2018-07-04 16:57:06,16,0,22.376,5879.8162783772,121.062996,0.447388,2.13377959584,0,0,-0.671082,53.3, -1.5, 1.7,0,0,1024,1024,1024,1024,52.8,-90,96,3.751,3.706,3.701,3.714,3.751,3.733,20.876,64.4,14,Waypoint,
36.002853,-118.5646193,5880.8005303772,122.047248,0,1.48496723912,18010,2018-07-04 16:57:06,16,0,22.376,5880.8005303772,122.047248,0.447388,2.13377959584,0,0,-0.671082,53.4, -1.5, 2,0,0,1024,1024,1024,1024,52.8,-89.9,96,3.753,3.712,3.705,3.72,3.756,3.75,20.876,64.4,14,Waypoint,
36.002853,-118.5646193,5881.7847823772,123.0315,0,1.48496723912,18110,2018-07-04 16:57:06,16,0,22.376,5881.7847823772,123.0315,0.447388,2.13377959584,0,0,-0.671082,53.5, -1.5, 2.1,0,0,1024,1024,1024,1024,52.8,-89.9,96,3.753,3.712,3.705,3.72,3.756,3.75,20.876,64.4,14,Waypoint,
36.002853,-118.5646193,5882.7690343772,124.015752,0,1.48496723912,18210,2018-07-04 16:57:06,16,0,22.376,5882.7690343772,124.015752,0.447388,2.13377959584,0,0,-0.671082,53.6, -1.6, 2,0,0,1024,1024,1024,1024,52.8,-90,96,3.753,3.712,3.705,3.72,3.756,3.75,20.876,64.4,14,Waypoint,
36.002853,-118.5646193,5883.7532863772,125.000004,0,1.48496723912,18310,2018-07-04 16:57:06,16,0,22.376,5883.7532863772,125.000004,0.447388,2.13377959584,0,0,-0.671082,53.6, -1.7, 2,0,0,1024,1024,1024,1024,52.8,-90,96,3.753,3.712,3.705,3.72,3.756,3.75,20.876,64.4,14,Waypoint,
36.002853,-118.5646193,5885.0656223772,126.31234,0,1.48496723912,18410,2018-07-04 16:57:07,16,0,22.376,5885.0656223772,126.31234,0.447388,2.13377959584,0,0,-0.671082,53.7, -1.8, 2,0,0,1024,1024,1024,1024,52.8,-90,96,3.753,3.712,3.705,3.72,3.756,3.75,20.876,64.4,14,Waypoint,
36.002853,-118.5646193,5887.0341263772,128.280844,0,1.48496723912,18710,2018-07-04 16:57:07,16,0,22.376,5887.0341263772,128.280844,0.447388,2.13377959584,0,0,-0.671082,53.8, -1.9, 1.9,0,0,1024,1024,1024,1024,52.8,-90,96,3.753,3.712,3.705,3.72,3.756,3.75,20.876,64.4,14,Waypoint,
36.002853,-118.5646193,5888.0183783772,129.265096,0,1.48496723912,18810,2018-07-04 16:57:07,16,0,22.376,5888.0183783772,129.265096,0.447388,2.13377959584,0,0,-0.671082,53.9, -1.9, 1.9,0,0,1024,1024,1024,1024,52.8,-90,96,3.753,3.712,3.705,3.72,3.756,3.75,20.876,64.4,14,Waypoint,
36.002853,-118.5646193,5889.0026303772,130.249348,0,1.48496723912,18910,2018-07-04 16:57:07,16,0,22.376,5889.0026303772,130.249348,0.447388,2.13377959584,0,0,-0.671082,53.9, -1.9, 1.9,0,0,1024,1024,1024,1024,52.8,-89.9,96,3.753,3.712,3.705,3.72,3.756,3.75,20.876,64.4,14,Waypoint,
36.0028529,-118.5646194,5889.9868823772,131.2336,0,1.47875004732,19010,2018-07-04 16:57:07,16,0,22.347,5889.9868823772,131.2336,0.447388,2.13377959584,0,0,-0.671082,53.9, -2, 1.8,0,0,1024,1024,1024,1024,52.8,-90,96,3.753,3.698,3.701,3.709,3.751,3.735,21.245,64.4,14,Waypoint,
36.0028529,-118.5646194,5890.9711343772,132.217852,0,1.47875004732,19110,2018-07-04 16:57:07,16,0,22.347,5890.9711343772,132.217852,0.447388,2.13377959584,0,0,-0.671082,53.8, -2.1, 1.8,0,0,1024,1024,1024,1024,52.8,-89.9,96,3.753,3.698,3.701,3.709,3.751,3.735,21.245,64.4,14,Waypoint,
36.002853,-118.5646194,5891.9553863772,133.202104,0,1.50507222664,19210,2018-07-04 16:57:07,16,0,22.347,5891.9553863772,133.202104,0.447388,2.13377959584,0,0,-0.671082,53.8, -2.1, 1.9,0,0,1024,1024,1024,1024,52.8,-90,96,3.753,3.698,3.701,3.709,3.751,3.735,21.245,64.4,14,Waypoint,
36.002853,-118.5646195,5892.9396383772,134.186356,0,1.52548233228,19310,2018-07-04 16:57:07,16,0,22.347,5892.9396383772,134.186356,0.447388,2.13377959584,0,0,-0.671082,53.9, -2, 2,0,0,1024,1024,1024,1024,52.8,-89.9,96,3.753,3.698,3.701,3.709,3.751,3.735,21.245,64.4,14,Waypoint,
36.002853,-118.5646194,5894.9081423772,136.15486,0,1.50507222664,19410,2018-07-04 16:57:08,16,0,22.347,5894.9081423772,136.15486,0.447388,2.13377959584,0,0,-0.671082,53.9, -1.6, 2.2,0,0,1024,1024,1024,1024,52.8,-89.9,96,3.753,3.698,3.701,3.709,3.751,3.735,21.245,64.4,14,Waypoint,
36.0028531,-118.5646194,5896.8766463772,138.123364,0,1.5318077918,19610,2018-07-04 16:57:08,16,0,22.347,5896.8766463772,138.123364,0.447388,2.13377959584,0,0,-0.671082,53.9, -1.4, 2.1,0,0,1024,1024,1024,1024,52.8,-89.9,96,3.753,3.698,3.701,3.709,3.751,3.735,21.245,64.4,14,Waypoint,
36.0028531,-118.5646194,5897.8608983772,139.107616,0,1.5318077918,19710,2018-07-04 16:57:08,16,0,22.347,5897.8608983772,139.107616,0.447388,2.13377959584,0,0,-0.671082,53.8, -1.6, 2.1,0,0,1024,1024,1024,1024,52.8,-89.9,96,3.753,3.698,3.701,3.709,3.751,3.735,21.245,64.4,14,Waypoint,
36.0028531,-118.5646195,5898.8451503772,140.091868,0,1.55186684756,19810,2018-07-04 16:57:08,16,0,22.347,5898.8451503772,140.091868,0.447388,2.13377959584,0,0,-0.671082,53.8, -1.6, 2.2,0,0,1024,1024,1024,1024,52.8,-90,96,3.753,3.698,3.701,3.709,3.751,3.735,21.245,64.4,14,Waypoint,
36.0028531,-118.5646195,5899.8294023772,141.07612,0,1.55186684756,19910,2018-07-04 16:57:08,16,0,22.347,5899.8294023772,141.07612,0.447388,2.13377959584,0,0,-0.671082,53.8, -1.7, 2.1,0,0,1024,1024,1024,1024,52.8,-89.9,96,3.753,3.698,3.701,3.709,3.751,3.735,21.245,64.4,14,Waypoint,
36.0028531,-118.5646195,5900.8136543772,142.060372,0,1.55186684756,20010,2018-07-04 16:57:08,16,0,22.3,5900.8136543772,142.060372,0.447388,2.13377959584,0,0,-0.671082,53.8, -1.8, 2,0,0,1024,1024,1024,1024,52.8,-90,96,3.737,3.688,3.691,3.695,3.751,3.722,21.463,64.4,14,Waypoint,
36.0028531,-118.5646195,5901.7979063772,143.044624,0,1.55186684756,20110,2018-07-04 16:57:08,16,0,22.3,5901.7979063772,143.044624,0.447388,2.13377959584,0,0,-0.671082,53.8, -1.8, 1.9,0,0,1024,1024,1024,1024,52.8,-89.9,96,3.737,3.688,3.691,3.695,3.751,3.722,21.463,64.4,14,Waypoint,
36.0028531,-118.5646195,5902.7821583772,144.028876,0,1.55186684756,20210,2018-07-04 16:57:08,16,0,22.3,5902.7821583772,144.028876,0.447388,2.13377959584,0,0,-0.671082,53.8, -1.8, 2,0,0,1024,1024,1024,1024,52.8,-89.9,96,3.737,3.688,3.691,3.695,3.751,3.722,21.463,64.4,14,Waypoint,
36.0028532,-118.5646194,5903.4383263772,144.685044,0,1.55894361944,20310,2018-07-04 16:57:08,16,0,22.3,5903.4383263772,144.685044,0.447388,2.13377959584,0,0,-0.671082,53.8, -1.7, 2,0,0,1024,1024,1024,1024,52.8,-89.9,96,3.737,3.688,3.691,3.695,3.751,3.722,21.463,64.4,14,Waypoint,
36.0028532,-118.5646194,5904.7506623772,145.99738,0,1.55894361944,20410,2018-07-04 16:57:09,16,0,22.3,5904.7506623772,145.99738,0.447388,2.13377959584,0,0,-0.671082,53.8, -1.6, 1.9,0,0,1024,1024,1024,1024,52.8,-89.9,96,3.737,3.688,3.691,3.695,3.751,3.722,21.463,64.4,14,Waypoint,
36.0028532,-118.5646194,5905.7349143772,146.981632,0,1.55894361944,20510,2018-07-04 16:57:09,16,0,22.3,5905.7349143772,146.981632,0.447388,2.13377959584,0,0,-0.671082,53.8, -1.3, 1.9,0,0,1024,1024,1024,1024,52.8,-89.9,96,3.737,3.688,3.691,3.695,3.751,3.722,21.463,64.4,14,Waypoint,
36.0028532,-118.5646194,5906.7191663772,147.965884,0,1.55894361944,20610,2018-07-04 16:57:09,16,0,22.3,5906.7191663772,147.965884,0.447388,2.13377959584,0,0,-0.671082,53.8, -1.2, 1.9,0,0,1024,1024,1024,1024,52.8,-89.9,96,3.737,3.688,3.691,3.695,3.751,3.722,21.463,64.4,14,Waypoint,
36.0028532,-118.5646194,5907.7034183772,148.950136,0,1.55894361944,20710,2018-07-04 16:57:09,16,0,22.3,5907.7034183772,148.950136,0.447388,2.13377959584,0,0,-0.671082,53.7, -1.2, 2,0,0,1024,1024,1024,1024,52.8,-89.9,96,3.737,3.688,3.691,3.695,3.751,3.722,21.463,64.4,14,Waypoint,
36.0028533,-118.5646194,5908.6876703772,149.934388,0,1.586450182,20910,2018-07-04 16:57:09,16,0,22.3,5908.6876703772,149.934388,0.447388,2.13377959584,0,0,-0.671082,53.8, -1.4, 2.1,0,0,1024,1024,1024,1024,52.8,-89.9,96,3.737,3.688,3.691,3.695,3.751,3.722,21.463,64.4,14,Waypoint,
36.0028533,-118.5646194,5909.3438383772,150.590556,0,1.586450182,21010,2018-07-04 16:57:09,16,0,22.301,5909.3438383772,150.590556,0.447388,2.13377959584,0,0,-0.671082,53.8, -1.6, 2.1,0,0,1024,1024,1024,1024,52.8,-90,96,3.743,3.69,3.694,3.7,3.752,3.725,20.955,64.4,14,Waypoint,
36.0028532,-118.5646194,5910.3280903772,151.574808,0,1.55894361944,21110,2018-07-04 16:57:09,16,0,22.301,5910.3280903772,151.574808,0.447388,2.13377959584,0,0,-0.671082,53.9, -1.8, 2.1,0,0,1024,1024,1024,1024,52.8,-89.9,96,3.743,3.69,3.694,3.7,3.752,3.725,20.955,64.4,14,Waypoint,
36.0028532,-118.5646194,5911.3123423772,152.55906,0,1.55894361944,21210,2018-07-04 16:57:09,16,0,22.301,5911.3123423772,152.55906,0.447388,2.13377959584,0,0,-0.671082,53.9, -2, 2.1,0,0,1024,1024,1024,1024,52.8,-90,96,3.743,3.69,3.694,3.7,3.752,3.725,20.955,64.4,14,Waypoint,
36.0028532,-118.5646194,5913.2808463772,154.527564,0,1.55894361944,21410,2018-07-04 16:57:10,16,0,22.301,5913.2808463772,154.527564,0.447388,2.13377959584,0,0,-0.671082,53.9, -1.8, 1.9,0,0,1024,1024,1024,1024,52.8,-89.9,96,3.743,3.69,3.694,3.7,3.752,3.725,20.955,64.4,14,Waypoint,
36.0028532,-118.5646194,5914.2650983772,155.511816,0,1.55894361944,21510,2018-07-04 16:57:10,16,0,22.301,5914.2650983772,155.511816,0.447388,2.13377959584,0,0,-0.671082,53.9, -1.7, 1.7,0,0,1024,1024,1024,1024,52.8,-89.9,96,3.743,3.69,3.694,3.7,3.752,3.725,20.955,64.4,14,Waypoint,
36.0028531,-118.5646194,5915.2493503772,156.496068,0,1.5318077918,21610,2018-07-04 16:57:10,16,0,22.301,5915.2493503772,156.496068,0.447388,2.13377959584,0,0,-0.671082,53.8, -1.7, 1.5,0,0,1024,1024,1024,1024,52.8,-89.9,96,3.743,3.69,3.694,3.7,3.752,3.725,20.955,64.4,14,Waypoint,
36.0028531,-118.5646194,5916.2336023772,157.48032,0,1.5318077918,21710,2018-07-04 16:57:10,16,0,22.301,5916.2336023772,157.48032,0.447388,2.13377959584,0,0,-0.671082,53.7, -1.7, 1.5,0,0,1024,1024,1024,1024,52.8,-89.9,96,3.743,3.69,3.694,3.7,3.752,3.725,20.955,64.4,14,Waypoint,
36.0028531,-118.5646194,5917.2178543772,158.464572,0,1.5318077918,21810,2018-07-04 16:57:10,16,0,22.301,5917.2178543772,158.464572,0.447388,2.13377959584,0,0,-0.671082,53.7, -1.7, 1.4,0,0,1024,1024,1024,1024,52.8,-90,96,3.743,3.69,3.694,3.7,3.752,3.725,20.955,64.4,14,Waypoint,
36.002853,-118.5646194,5919.1863583772,160.433076,0,1.50507222664,21910,2018-07-04 16:57:10,16,0,22.301,5919.1863583772,160.433076,0.447388,2.13377959584,0,0,-0.671082,53.6, -1.8, 1.7,0,0,1024,1024,1024,1024,52.8,-89.9,96,3.743,3.69,3.694,3.7,3.752,3.725,20.955,64.4,14,Waypoint,
36.002853,-118.5646194,5920.1706103772,161.417328,0,1.50507222664,22010,2018-07-04 16:57:10,16,0,22.249,5920.1706103772,161.417328,0.447388,2.13377959584,0,0,-0.671082,53.5, -1.8, 1.8,0,0,1024,1024,1024,1024,52.8,-89.9,96,3.728,3.682,3.679,3.693,3.738,3.72,21.225,64.4,14,Waypoint,
36.002853,-118.5646193,5921.1548623772,162.40158,0,1.48496723912,22110,2018-07-04 16:57:10,16,0,22.249,5921.1548623772,162.40158,0.447388,2.13377959584,0,0,-0.671082,53.5, -1.7, 1.9,0,0,1024,1024,1024,1024,52.8,-89.9,96,3.728,3.682,3.679,3.693,3.738,3.72,21.225,64.4,14,Waypoint,
36.002853,-118.5646193,5922.4671983772,163.713916,0,1.48496723912,22210,2018-07-04 16:57:10,16,0,22.249,5922.4671983772,163.713916,0.447388,2.13377959584,0,0,-0.671082,53.5, -1.6, 2,0,0,1024,1024,1024,1024,52.8,-89.9,96,3.728,3.682,3.679,3.693,3.738,3.72,21.225,64.4,14,Waypoint,
36.002853,-118.5646193,5923.1233663772,164.370084,0,1.48496723912,22310,2018-07-04 16:57:10,16,0,22.249,5923.1233663772,164.370084,0.447388,2.13377959584,0,0,-0.671082,53.5, -1.4, 1.9,0,0,1024,1024,1024,1024,52.8,-89.9,96,3.728,3.682,3.679,3.693,3.738,3.72,21.225,64.4,14,Waypoint,
36.0028531,-118.5646192,5924.1076183772,165.354336,0,1.4926345622,22410,2018-07-04 16:57:11,16,0,22.249,5924.1076183772,165.354336,0.447388,2.13377959584,0,0,-0.671082,53.6, -1.1, 1.9,0,0,1024,1024,1024,1024,52.8,-89.9,96,3.728,3.682,3.679,3.693,3.738,3.72,21.225,64.4,14,Waypoint,
36.0028531,-118.5646191,5925.0918703772,166.338588,0.223694,1.47354335424,22610,2018-07-04 16:57:11,16,0,22.249,5925.0918703772,166.338588,0.447388,2.13377959584,0,0,-0.671082,53.7, -0.8, 2,0,0,1024,1024,1024,1024,52.8,-89.9,96,3.728,3.682,3.679,3.693,3.738,3.72,21.225,64.4,14,Waypoint,
36.0028531,-118.564619,5927.0603743772,168.307092,0.223694,1.45479991532,22710,2018-07-04 16:57:11,16,0,22.249,5927.0603743772,168.307092,0.447388,2.13377959584,0,0,-0.671082,53.9, -0.3, 1.6,0,0,1024,1024,1024,1024,52.8,-89.9,96,3.728,3.682,3.679,3.693,3.738,3.72,21.225,64.4,14,Waypoint,
36.0028531,-118.5646189,5928.0446263772,169.291344,0,1.43642064964,22910,2018-07-04 16:57:11,16,0,22.249,5928.0446263772,169.291344,0.447388,2.13377959584,0,0,-0.671082,54.1, -0.3, 1.6,0,0,1024,1024,1024,1024,52.8,-89.9,96,3.728,3.682,3.679,3.693,3.738,3.72,21.225,64.4,14,Waypoint,
36.0028531,-118.5646188,5928.7007943772,169.947512,0,1.41841539972,23010,2018-07-04 16:57:11,16,0,22.228,5928.7007943772,169.947512,0.447388,2.13377959584,0,0,-0.671082,54.2, -0.3, 1.6,0,0,1024,1024,1024,1024,52.8,-89.9,96,3.726,3.686,3.674,3.682,3.743,3.715,21.254,64.4,14,Waypoint,
36.0028531,-118.5646188,5930.0131303772,171.259848,0,1.41841539972,23110,2018-07-04 16:57:11,16,0,22.228,5930.0131303772,171.259848,0.447388,2.13377959584,0,0,-0.671082,54.2, -0.4, 1.7,0,0,1024,1024,1024,1024,52.8,-89.9,96,3.726,3.686,3.674,3.682,3.743,3.715,21.254,64.4,14,Waypoint,
36.0028531,-118.5646187,5930.9973823772,172.2441,0,1.40080056976,23210,2018-07-04 16:57:11,16,0,22.228,5930.9973823772,172.2441,0.447388,2.13377959584,0,0,-0.671082,54.1, -0.4, 1.7,0,0,1024,1024,1024,1024,52.8,-89.9,96,3.726,3.686,3.674,3.682,3.743,3.715,21.254,64.4,14,Waypoint,
36.0028531,-118.5646187,5931.9816343772,173.228352,0,1.40080056976,23310,2018-07-04 16:57:11,16,0,22.228,5931.9816343772,173.228352,0.447388,2.13377959584,0,0,-0.671082,54, -0.5, 1.6,0,0,1024,1024,1024,1024,52.8,-89.9,96,3.726,3.686,3.674,3.682,3.743,3.715,21.254,64.4,14,Waypoint,
36.002853,-118.5646187,5932.9658863772,174.212604,0,1.37151251108,23410,2018-07-04 16:57:12,16,0,22.228,5932.9658863772,174.212604,0.447388,2.13377959584,0,0,-0.671082,53.9, -0.7, 1.5,0,0,1024,1024,1024,1024,52.8,-89.9,96,3.726,3.686,3.674,3.682,3.743,3.715,21.254,64.4,14,Waypoint,
36.002853,-118.5646186,5933.9501383772,175.196856,0,1.35393048952,23510,2018-07-04 16:57:12,16,0,22.228,5933.9501383772,175.196856,0.447388,2.13377959584,0,0,-0.671082,53.7, -0.9, 1.2,0,0,1024,1024,1024,1024,52.8,-89.9,96,3.726,3.686,3.674,3.682,3.743,3.715,21.254,64.4,14,Waypoint,
36.002853,-118.5646186,5934.9343903772,176.181108,0,1.35393048952,23610,2018-07-04 16:57:12,16,0,22.228,5934.9343903772,176.181108,0.447388,2.13377959584,0,0,-0.671082,53.6, -1, 1.2,0,0,1024,1024,1024,1024,52.8,-89.9,96,3.726,3.686,3.674,3.682,3.743,3.715,21.254,64.4,14,Waypoint,
36.002853,-118.5646186,5935.9186423772,177.16536,0,1.35393048952,23710,2018-07-04 16:57:12,16,0,22.228,5935.9186423772,177.16536,0.447388,2.13377959584,0,0,-0.671082,53.5, -1, 1.3,0,0,1024,1024,1024,1024,52.8,-89.9,96,3.726,3.686,3.674,3.682,3.743,3.715,21.254,64.4,14,Waypoint,
36.002853,-118.5646186,5936.9028943772,178.149612,0,1.35393048952,23810,2018-07-04 16:57:12,16,0,22.228,5936.9028943772,178.149612,0.447388,2.13377959584,0,0,-0.671082,53.5, -1, 1.6,0,0,1024,1024,1024,1024,52.8,-89.9,96,3.726,3.686,3.674,3.682,3.743,3.715,21.254,64.4,14,Waypoint,
36.002853,-118.5646186,5937.8871463772,179.133864,0,1.35393048952,23910,2018-07-04 16:57:12,16,0,22.228,5937.8871463772,179.133864,0.447388,2.13377959584,0,0,-0.671082,53.5, -0.9, 1.7,0,0,1024,1024,1024,1024,52.8,-89.9,96,3.726,3.686,3.674,3.682,3.743,3.715,21.254,64.4,14,Waypoint,
36.002853,-118.5646185,5939.8556503772,181.102368,0,1.33677169632,24010,2018-07-04 16:57:12,16,0,22.189,5939.8556503772,181.102368,0.447388,2.13377959584,0,0,-0.671082,53.6, -1, 1.7,0,0,1024,1024,1024,1024,52.8,-89.9,95,3.716,3.679,3.667,3.683,3.738,3.699,21.166,64.4,14,Waypoint,
36.002853,-118.5646185,5940.8399023772,182.08662,0,1.33677169632,24110,2018-07-04 16:57:12,16,0,22.189,5940.8399023772,182.08662,0.447388,2.13377959584,0,0,-0.671082,53.6, -1, 1.2,0,0,1024,1024,1024,1024,52.8,-89.9,95,3.716,3.679,3.667,3.683,3.738,3.699,21.166,64.4,14,Waypoint,
36.002853,-118.5646185,5941.8241543772,183.070872,0,1.33677169632,24210,2018-07-04 16:57:12,16,0,22.189,5941.8241543772,183.070872,0.447388,2.13377959584,0,0,-0.671082,53.8, -0.7, 1,0,0,1024,1024,1024,1024,52.8,-89.9,95,3.716,3.679,3.667,3.683,3.738,3.699,21.166,64.4,14,Waypoint,
36.0028531,-118.5646185,5942.8084063772,184.055124,0,1.36680450568,24310,2018-07-04 16:57:12,16,0,22.189,5942.8084063772,184.055124,0.447388,2.13377959584,0,0,-0.671082,53.8, -0.6, 1.4,0,0,1024,1024,1024,1024,52.8,-89.9,95,3.716,3.679,3.667,3.683,3.738,3.699,21.166,64.4,14,Waypoint,
36.0028531,-118.5646185,5943.7926583772,185.039376,0,1.36680450568,24410,2018-07-04 16:57:13,16,0,22.189,5943.7926583772,185.039376,0.447388,2.13377959584,0,0,-0.671082,53.8, -0.6, 2.1,0,0,1024,1024,1024,1024,52.8,-89.9,95,3.716,3.679,3.667,3.683,3.738,3.699,21.166,64.4,14,Waypoint,
36.0028531,-118.5646185,5945.1049943772,186.351712,0,1.36680450568,24510,2018-07-04 16:57:13,16,0,22.189,5945.1049943772,186.351712,0.447388,2.13377959584,0,0,-0.671082,53.8, -0.7, 2.3,0,0,1024,1024,1024,1024,52.8,-89.9,95,3.716,3.679,3.667,3.683,3.738,3.699,21.166,64.4,14,Waypoint,
36.0028532,-118.5646185,5946.0892463772,187.335964,0,1.397145714,24610,2018-07-04 16:57:13,16,0,22.189,5946.0892463772,187.335964,0.447388,2.13377959584,0,0,-0.671082,53.7, -0.7, 2.3,0,0,1024,1024,1024,1024,52.8,-89.9,95,3.716,3.679,3.667,3.683,3.738,3.699,21.166,64.4,14,Waypoint,
36.0028532,-118.5646185,5947.0734983772,188.320216,0,1.397145714,24710,2018-07-04 16:57:13,16,0,22.189,5947.0734983772,188.320216,0.447388,2.13377959584,0,0,-0.671082,53.7, -0.7, 2.3,0,0,1024,1024,1024,1024,52.8,-89.9,95,3.716,3.679,3.667,3.683,3.738,3.699,21.166,64.4,14,Waypoint,
36.0028533,-118.5646185,5948.7139183772,189.960636,0,1.42777563624,24910,2018-07-04 16:57:13,16,0,22.189,5948.7139183772,189.960636,0.447388,2.13377959584,0,0,-0.671082,53.6, -0.8, 2.2,0,0,1024,1024,1024,1024,52.8,-89.9,95,3.716,3.679,3.667,3.683,3.738,3.699,21.166,64.4,14,Waypoint,
36.0028533,-118.5646185,5949.6981703772,190.944888,0,1.42777563624,25010,2018-07-04 16:57:13,16,0,22.189,5949.6981703772,190.944888,0.447388,2.13377959584,0,0,-0.671082,53.5, -0.7, 2.1,0,0,1024,1024,1024,1024,52.8,-89.9,95,3.716,3.679,3.667,3.683,3.738,3.699,21.166,64.4,14,Waypoint,
36.0028533,-118.5646185,5950.6824223772,191.92914,0,1.42777563624,25110,2018-07-04 16:57:13,16,0,22.189,5950.6824223772,191.92914,0.447388,2.13377959584,0,0,-0.671082,53.6, -0.7, 2,0,0,1024,1024,1024,1024,52.8,-89.9,95,3.716,3.679,3.667,3.683,3.738,3.699,21.166,64.4,14,Waypoint,
36.0028533,-118.5646184,5951.6666743772,192.913392,0,1.41213259112,25210,2018-07-04 16:57:13,16,0,22.189,5951.6666743772,192.913392,0.447388,2.13377959584,0,0,-0.671082,53.6, -0.6, 1.9,0,0,1024,1024,1024,1024,52.8,-89.9,95,3.716,3.679,3.667,3.683,3.738,3.699,21.166,64.4,14,Waypoint,
36.0028534,-118.5646184,5953.6351783772,194.881896,0,1.44336618792,25510,2018-07-04 16:57:14,16,0,22.189,5953.6351783772,194.881896,0.447388,2.13377959584,0,0,-0.671082,53.8, -0.4, 1.8,0,0,1024,1024,1024,1024,52.8,-89.9,95,3.716,3.679,3.667,3.683,3.738,3.699,21.166,64.4,14,Waypoint,
36.0028534,-118.5646184,5954.6194303772,195.866148,0,1.44336618792,25610,2018-07-04 16:57:14,16,0,22.189,5954.6194303772,195.866148,0.447388,2.13377959584,0,0,-0.671082,53.9, -0.4, 1.9,0,0,1024,1024,1024,1024,52.8,-89.9,95,3.716,3.679,3.667,3.683,3.738,3.699,21.166,64.4,14,Waypoint,
36.0028534,-118.5646183,5955.6036823772,196.8504,0,1.42850070188,25710,2018-07-04 16:57:14,16,0,22.189,5955.6036823772,196.8504,0.447388,2.13377959584,0,0,-0.671082,54, -0.3, 2,0,0,1024,1024,1024,1024,52.8,-89.9,95,3.716,3.679,3.667,3.683,3.738,3.699,21.166,64.4,14,Waypoint,
36.0028535,-118.5646183,5956.5879343772,197.834652,0,1.46029532232,25810,2018-07-04 16:57:14,16,0,22.189,5956.5879343772,197.834652,0.447388,2.13377959584,0,0,-0.671082,54.1, -0.1, 2.1,0,0,1024,1024,1024,1024,52.8,-89.9,95,3.716,3.679,3.667,3.683,3.738,3.699,21.166,64.4,14,Waypoint,
36.0028535,-118.5646183,5957.5721863772,198.818904,0,1.46029532232,25910,2018-07-04 16:57:14,16,0,22.189,5957.5721863772,198.818904,0.447388,2.13377959584,0,0,-0.671082,54.1, 0, 2.2,0,0,1024,1024,1024,1024,52.8,-89.9,95,3.716,3.679,3.667,3.683,3.738,3.699,21.166,64.4,14,Waypoint,
36.0028535,-118.5646183,5958.5564383772,199.803156,0,1.46029532232,26010,2018-07-04 16:57:14,16,0,22.126,5958.5564383772,199.803156,0.447388,2.13377959584,0,0,-0.671082,54.1, -0.1, 2.1,0,0,1024,1024,1024,1024,52.8,-89.9,95,3.709,3.664,3.662,3.661,3.729,3.702,21.371,64.4,14,Waypoint,
36.0028536,-118.5646183,5960.5249423772,201.77166,0,1.4923064782,26110,2018-07-04 16:57:14,16,0,22.126,5960.5249423772,201.77166,0.447388,2.13377959584,0,0,-0.671082,54.1, -0.4, 1.9,0,0,1024,1024,1024,1024,52.8,-89.9,95,3.709,3.664,3.662,3.661,3.729,3.702,21.371,64.4,14,Waypoint,
36.0028536,-118.5646183,5961.5091943772,202.755912,0,1.4923064782,26310,2018-07-04 16:57:14,16,0,22.126,5961.5091943772,202.755912,0.447388,2.13377959584,0,0,-0.671082,54, -0.3, 1.9,0,0,1024,1024,1024,1024,52.8,-89.9,95,3.709,3.664,3.662,3.661,3.729,3.702,21.371,64.4,14,Waypoint,
36.0028536,-118.5646183,5962.4934463772,203.740164,0,1.4923064782,26410,2018-07-04 16:57:15,16,0,22.126,5962.4934463772,203.740164,0.447388,2.13377959584,0,0,-0.671082,53.9, -0.4, 2,0,0,1024,1024,1024,1024,52.8,-89.9,95,3.709,3.664,3.662,3.661,3.729,3.702,21.371,64.4,14,Waypoint,
36.0028536,-118.5646183,5964.4619503772,205.708668,0,1.4923064782,26510,2018-07-04 16:57:15,16,0,22.126,5964.4619503772,205.708668,0.447388,2.13377959584,0,0,-0.671082,53.5, -0.7, 2.2,0,0,1024,1024,1024,1024,52.8,-90,95,3.709,3.664,3.662,3.661,3.729,3.702,21.371,64.4,14,Waypoint,
36.0028536,-118.5646183,5965.4462023772,206.69292,0,1.4923064782,26610,2018-07-04 16:57:15,16,0,22.126,5965.4462023772,206.69292,0.447388,2.13377959584,0,0,-0.671082,53.4, -0.8, 2.1,0,0,1024,1024,1024,1024,52.8,-90,95,3.709,3.664,3.662,3.661,3.729,3.702,21.371,64.4,14,Waypoint,
36.0028535,-118.5646183,5966.4304543772,207.677172,0,1.46029532232,26710,2018-07-04 16:57:15,16,0,22.126,5966.4304543772,207.677172,0.447388,2.13377959584,0,0,-0.671082,53.3, -0.6, 1.9,0,0,1024,1024,1024,1024,52.8,-89.9,95,3.709,3.664,3.662,3.661,3.729,3.702,21.371,64.4,14,Waypoint,
36.0028535,-118.5646183,5967.4147063772,208.661424,0,1.46029532232,26810,2018-07-04 16:57:15,16,0,22.126,5967.4147063772,208.661424,0.447388,2.13377959584,0,0,-0.671082,53.4, -0.5, 1.8,0,0,1024,1024,1024,1024,52.8,-89.9,95,3.709,3.664,3.662,3.661,3.729,3.702,21.371,64.4,14,Waypoint,
36.0028535,-118.5646183,5968.3989583772,209.645676,0,1.46029532232,26910,2018-07-04 16:57:15,16,0,22.126,5968.3989583772,209.645676,0.447388,2.13377959584,0,0,-0.671082,53.5, -0.5, 1.8,0,0,1024,1024,1024,1024,52.8,-89.9,95,3.709,3.664,3.662,3.661,3.729,3.702,21.371,64.4,14,Waypoint,
36.0028535,-118.5646183,5969.3832103772,210.629928,0,1.46029532232,27010,2018-07-04 16:57:15,16,0,22.097,5969.3832103772,210.629928,0.447388,2.13377959584,0,0,-0.671082,53.7, -0.5, 1.9,0,0,1024,1024,1024,1024,52.8,-89.9,95,3.71,3.662,3.642,3.663,3.721,3.684,21.31,64.4,14,Waypoint,
36.0028535,-118.5646183,5970.3674623772,211.61418,0,1.46029532232,27110,2018-07-04 16:57:15,16,0,22.097,5970.3674623772,211.61418,0.447388,2.13377959584,0,0,-0.671082,53.8, -0.6, 1.9,0,0,1024,1024,1024,1024,52.8,-89.9,95,3.71,3.662,3.642,3.663,3.721,3.684,21.31,64.4,14,Waypoint,
