Latitude, Longitude, Altitude (m), Time, Sats, Speed (m/s), Range (m), Battery (%), Roll (deg), Pitch (deg), Yaw (deg), Images, HD Signal (%), RC Signal (%), Battery Temp (C), Battery Voltage (mV), Battery Current (mA), Battery Energy (mAh), Battery Capacity (mAh), Battery Discharges, flyState, timestamp (Unix), LastUpdate (ms), radioChannel, Rc_elevator, Rc_aileron, Rc_throttle, Rc_rudder, Rc_gyro, Dronetype, Battery_Cell1 (mV), Battery_Cell2 (mV), Battery_Cell3 (mV), Battery_Cell4 (mV), Battery_Cell5 (mV), Battery_Cell6 (mV), Video, isFlying, elapsedTime (ms), gimbalPitch (deg), gimbalRoll (deg), gimbalYaw (deg), VelocityX (m/s), VelocityY (m/s), VelocityZ (m/s), GroundSmear (cm), App Version, Aircraft Name, Aircraft Firmware, Aircraft Serial Number, Battery Serial Number, Battery Lifetime (%), App_Tip, App_Warning, CurrentFlightStartingIndex, CurrentFlightLastVisitedWaypoint, PreviousFlightEndingWaypointIndex
36.0028804, -118.5646389, 0.000, 10:49:43.634, 14, 0.00, 0.08, 98, 0.000, 0.200, -35.800, 1406, 100, 100, 19, 25694, -3776, 5288, 5396, 16, 11, 1530726583.634, 84, 0, 1024, 1024, 1024, 1024, 0, 6, 4262, 4229, 4248, 4250, 4252, 4149, 0, 1, 3101, -90.000, 0.000, -37.000, 0.000, 0.000, 0.000, 0.0, MapPilot_2.8.1_04242018, Dendroctonus I, 1.3.1.00, 041DDC1887, 1058163200468, 96, DJI_0404.jpg, Starting Mission from Lat/Long: 36.00289/-118.56464 Camera: Zenmuse X3 - Overlap: 90/90 - Active Connection: No, 57, 57, 57
36.0028804, -118.5646389, 0.000, 10:49:43.733, 14, 0.00, 0.08, 98, -0.200, -0.600, -36.000, 1406, 100, 100, 19, 25694, -3776, 5288, 5396, 16, 11, 1530726583.733, 74, 0, 1024, 1024, 1024, 1024, 0, 6, 4262, 4229, 4248, 4250, 4252, 4149, 0, 1, 3200, -90.000, 0.000, -37.000, 0.000, 0.000, -0.100, 0.0, , , , , , 96, , , 57, 57, 57
36.0028803, -118.5646389, 0.000, 10:49:43.834, 15, 0.00, 0.09, 98, 0.000, -0.800, -36.100, 1406, 100, 100, 19, 25694, -3776, 5288, 5396, 16, 11, 1530726583.834, 77, 0, 1024, 1024, 1024, 1024, 0, 6, 4262, 4229, 4248, 4250, 4252, 4149, 0, 1, 3301, -89.900, 0.000, -37.000, 0.000, 0.000, -0.300, 0.0, , , , , , 96, , , 57, 57, 57
36.0028803, -118.5646389, 0.000, 10:49:43.934, 15, 0.00, 0.09, 98, 0.300, -0.500, -36.200, 1406, 100, 100, 19, 25694, -3776, 5288, 5396, 16, 11, 1530726583.934, 80, 0, 1024, 1024, 1024, 1024, 0, 6, 4262, 4229, 4248, 4250, 4252, 4149, 0, 1, 3401, -89.900, 0.000, -37.000, 0.000, 0.000, -0.300, 0.0, , , , , , 96, , , 57, 57, 57
36.0028802, -118.5646389, 0.000, 10:49:44.034, 15, 0.00, 0.10, 98, 0.300, -0.300, -36.300, 1406, 100, 100, 19, 25694, -3776, 5288, 5396, 16, 11, 1530726584.034, 72, 0, 1024, 1024, 1024, 1024, 0, 6, 4262, 4229, 4248, 4250, 4252, 4149, 0, 1, 3501, -89.900, 0.000, -37.000, 0.000, 0.000, -0.400, 0.0, , , , , , 96, , , 57, 57, 57
36.0028802, -118.5646390, 0.100, 10:49:44.134, 15, 0.00, 0.10, 98, 0.500, -0.100, -36.300, 1406, 100, 100, 19, 24577, -8057, 5288, 5396, 16, 11, 1530726584.134, 73, 0, 1024, 1024, 1024, 1024, 0, 6, 4044, 4023, 3989, 4056, 4049, 4245, 0, 1, 3601, -89.900, 0.000, -36.900, 0.000, 0.000, -0.300, 0.0, , , , , , 96, , , 57, 57, 57
36.0028802, -118.5646390, 0.100, 10:49:44.234, 14, 0.00, 0.10, 98, 0.600, 0.000, -36.300, 1406, 100, 100, 19, 24577, -8057, 5288, 5396, 16, 11, 1530726584.234, 55, 0, 1024, 1024, 1024, 1024, 0, 6, 4044, 4023, 3989, 4056, 4049, 4245, 0, 1, 3700, -89.900, 0.000, -36.900, 0.000, 0.000, -0.300, 0.0, , , , , , 96, , , 57, 57, 57
36.0028802, -118.5646390, 0.200, 10:49:44.334, 14, 0.00, 0.10, 98, 0.500, 0.400, -36.200, 1406, 100, 100, 19, 24577, -8057, 5288, 5396, 16, 11, 1530726584.334, 44, 0, 1024, 1024, 1024, 1024, 0, 6, 4044, 4023, 3989, 4056, 4049, 4245, 0, 1, 3801, -89.900, 0.000, -36.900, 0.000, 0.000, -0.300, 0.0, , , , , , 96, , , 57, 57, 57
36.0028803, -118.5646390, 0.200, 10:49:44.434, 13, 0.00, 0.09, 98, 0.400, 0.500, -36.100, 1406, 100, 100, 19, 24577, -8057, 5288, 5396, 16, 11, 1530726584.434, 47, 0, 1024, 1024, 1024, 1024, 0, 6, 4044, 4023, 3989, 4056, 4049, 4245, 0, 1, 3900, -89.900, 0.000, -36.900, 0.000, 0.000, -0.400, 0.0, , , , , , 96, , , 57, 57, 57
36.0028803, -118.5646391, 0.300, 10:49:44.533, 13, 0.00, 0.09, 98, 0.300, 0.500, -36.100, 1406, 100, 100, 19, 24577, -8057, 5288, 5396, 16, 11, 1530726584.533, 27, 0, 1024, 1024, 1024, 1024, 0, 6, 4044, 4023, 3989, 4056, 4049, 4245, 0, 1, 4000, -89.900, 0.000, -36.900, 0.000, 0.000, -0.400, 0.0, , , , , , 96, , , 57, 57, 57
36.0028804, -118.5646391, 0.300, 10:49:44.634, 12, 0.00, 0.08, 98, 0.200, 0.700, -36.000, 1406, 100, 100, 19, 24577, -8057, 5288, 5396, 16, 11, 1530726584.634, 32, 0, 1024, 1024, 1024, 1024, 0, 6, 4044, 4023, 3989, 4056, 4049, 4245, 0, 1, 4100, -89.900, 0.000, -36.900, 0.000, 0.000, -0.500, 0.0, , , , , , 96, , , 57, 57, 57
36.0028804, -118.5646392, 0.400, 10:49:44.734, 12, 0.00, 0.08, 98, 0.000, 1.000, -36.000, 1406, 100, 100, 19, 24577, -8057, 5288, 5396, 16, 11, 1530726584.734, 22, 0, 1024, 1024, 1024, 1024, 0, 6, 4044, 4023, 3989, 4056, 4049, 4245, 0, 1, 4201, -89.900, 0.000, -36.900, 0.000, 0.000, -0.400, 0.0, , , , , , 96, , , 57, 57, 57
36.0028804, -118.5646393, 0.400, 10:49:44.834, 14, 0.00, 0.08, 98, 0.000, 1.000, -36.000, 1406, 100, 100, 19, 24577, -8057, 5288, 5396, 16, 11, 1530726584.834, 11, 0, 1024, 1024, 1024, 1024, 0, 6, 4044, 4023, 3989, 4056, 4049, 4245, 0, 1, 4300, -89.900, 0.000, -36.900, 0.000, 0.000, -0.400, 0.0, , , , , , 96, , , 57, 57, 57
36.0028805, -118.5646394, 0.500, 10:49:44.933, 14, 0.00, 0.08, 98, 0.100, 1.000, -36.000, 1406, 100, 100, 19, 24577, -8057, 5288, 5396, 16, 11, 1530726584.934, 24, 0, 1024, 1024, 1024, 1024, 0, 6, 4044, 4023, 3989, 4056, 4049, 4245, 0, 1, 4400, -89.900, 0.000, -36.900, 0.000, 0.000, -0.400, 0.0, , , , , , 96, , , 57, 57, 57
36.0028805, -118.5646394, 0.500, 10:49:45.034, 13, 0.00, 0.08, 98, 0.200, 1.100, -36.000, 1406, 100, 100, 19, 24577, -8057, 5288, 5396, 16, 11, 1530726585.034, 26, 0, 1024, 1024, 1024, 1024, 0, 6, 4044, 4023, 3989, 4056, 4049, 4245, 0, 1, 4501, -89.900, 0.000, -36.900, 0.000, 0.000, -0.400, 0.0, , , , , , 96, , , 57, 57, 57
36.0028805, -118.5646395, 0.600, 10:49:45.134, 13, 0.00, 0.09, 98, 0.200, 1.100, -36.000, 1406, 100, 100, 19, 23536, -16537, 5234, 5396, 16, 11, 1530726585.134, 10, 0, 1024, 1024, 1024, 1024, 0, 6, 3910, 3909, 3898, 3940, 3926, 3940, 0, 1, 4601, -89.900, 0.000, -36.900, 0.000, 0.000, -0.400, 0.0, , , , , , 96, , , 57, 57, 57
36.0028805, -118.5646396, 0.600, 10:49:45.234, 13, 0.00, 0.09, 98, 0.300, 1.100, -36.000, 1406, 100, 100, 19, 23536, -16537, 5234, 5396, 16, 11, 1530726585.234, 14, 0, 1024, 1024, 1024, 1024, 0, 6, 3910, 3909, 3898, 3940, 3926, 3940, 0, 1, 4700, -89.900, 0.000, -36.900, 0.000, 0.000, -0.400, 0.0, , , , , , 96, , , 57, 57, 57
36.0028805, -118.5646396, 0.600, 10:49:45.334, 13, 0.00, 0.09, 98, 0.300, 1.100, -36.000, 1406, 100, 100, 19, 23536, -16537, 5234, 5396, 16, 11, 1530726585.334, 114, 0, 1024, 1024, 1024, 1024, 0, 6, 3910, 3909, 3898, 3940, 3926, 3940, 0, 1, 4800, -89.900, 0.000, -36.900, 0.000, 0.000, -0.400, 0.0, , , , , , 96, , , 57, 57, 57
36.0028806, -118.5646396, 0.700, 10:49:45.434, 13, 0.00, 0.08, 98, 0.400, 1.200, -36.000, 1406, 100, 100, 19, 23536, -16537, 5234, 5396, 16, 11, 1530726585.434, 84, 0, 1024, 1024, 1024, 1024, 0, 6, 3910, 3909, 3898, 3940, 3926, 3940, 0, 1, 4900, -89.900, 0.000, -36.900, 0.000, 0.000, -0.400, 0.0, , , , , , 96, , , 57, 57, 57
36.0028806, -118.5646397, 0.700, 10:49:45.534, 14, 0.00, 0.09, 98, 0.300, 1.300, -35.900, 1406, 100, 100, 19, 23536, -16537, 5234, 5396, 16, 11, 1530726585.534, 90, 0, 1024, 1024, 1024, 1024, 0, 6, 3910, 3909, 3898, 3940, 3926, 3940, 0, 1, 5000, -89.900, 0.000, -36.800, 0.000, 0.000, -0.400, 0.0, , , , , , 96, , , 57, 57, 57
36.0028805, -118.5646399, 0.800, 10:49:45.634, 15, 0.00, 0.10, 98, 0.200, 1.400, -35.600, 1406, 100, 100, 19, 23536, -16537, 5234, 5396, 16, 11, 1530726585.634, 76, 0, 1024, 1024, 1024, 1024, 0, 6, 3910, 3909, 3898, 3940, 3926, 3940, 0, 1, 5100, -89.900, 0.000, -36.900, 0.000, 0.000, -0.400, 0.0, , , , , , 96, , , 57, 57, 57
36.0028805, -118.5646399, 0.800, 10:49:45.734, 15, 0.00, 0.10, 97, 0.200, 1.400, -35.600, 1406, 100, 100, 19, 23536, -16537, 5234, 5396, 16, 11, 1530726585.734, 176, 0, 1024, 1024, 1024, 1024, 0, 6, 3910, 3909, 3898, 3940, 3926, 3940, 0, 1, 5200, -89.900, 0.000, -36.900, 0.000, 0.000, -0.400, 0.0, , , , , , 96, , , 57, 57, 57
36.0028805, -118.5646399, 0.900, 10:49:45.834, 15, 0.00, 0.11, 97, 0.100, 1.400, -35.400, 1406, 100, 100, 19, 23536, -16537, 5234, 5396, 16, 14, 1530726585.834, 68, 0, 1024, 1024, 1024, 1024, 0, 6, 3910, 3909, 3898, 3940, 3926, 3940, 0, 1, 5300, -89.900, 0.000, -36.900, 0.000, 0.000, -0.400, 0.0, , , , , , 96, , , 57, 57, 57
36.0028805, -118.5646399, 0.900, 10:49:45.934, 15, 0.00, 0.11, 97, 0.100, 1.400, -35.400, 1406, 100, 100, 19, 23536, -16537, 5234, 5396, 16, 14, 1530726585.934, 168, 0, 1024, 1024, 1024, 1024, 0, 6, 3910, 3909, 3898, 3940, 3926, 3940, 0, 1, 5400, -89.900, 0.000, -36.800, 0.000, 0.000, -0.400, 0.0, , , , , , 96, , , 57, 57, 57
36.0028805, -118.5646399, 1.000, 10:49:46.034, 15, 0.00, 0.10, 97, -0.100, 0.900, -35.200, 1406, 100, 100, 19, 23536, -16537, 5234, 5396, 16, 14, 1530726586.034, 74, 0, 1024, 1024, 1024, 1024, 0, 6, 3910, 3909, 3898, 3940, 3926, 3940, 0, 1, 5500, -89.900, 0.000, -36.800, 0.000, 0.000, -0.300, 0.0, , , , , , 96, , , 57, 57, 57
36.0028805, -118.5646399, 1.000, 10:49:46.134, 15, 0.00, 0.10, 97, -0.200, 0.500, -35.100, 1406, 100, 100, 19, 23305, -17302, 5234, 5396, 16, 14, 1530726586.134, 80, 0, 1024, 1024, 1024, 1024, 0, 6, 3883, 3873, 3873, 3890, 3877, 3906, 0, 1, 5600, -90.000, 0.000, -36.800, 0.000, 0.000, -0.200, 0.0, , , , , , 96, , , 57, 57, 57
36.0028805, -118.5646399, 1.000, 10:49:46.234, 15, 0.00, 0.11, 97, -0.200, 0.300, -35.100, 1406, 100, 99, 19, 23305, -17302, 5234, 5396, 16, 14, 1530726586.234, 74, 0, 1024, 1024, 1024, 1024, 0, 6, 3883, 3873, 3873, 3890, 3877, 3906, 0, 1, 5700, -90.000, 0.000, -36.800, 0.000, 0.000, -0.300, 0.0, , , , , , 96, , , 57, 57, 57
36.0028804, -118.5646399, 1.100, 10:49:46.334, 15, 0.00, 0.12, 97, 0.000, 0.400, -35.100, 1406, 100, 99, 19, 23305, -17302, 5234, 5396, 16, 14, 1530726586.334, 66, 0, 1024, 1024, 1024, 1024, 0, 6, 3883, 3873, 3873, 3890, 3877, 3906, 0, 1, 5800, -89.900, 0.000, -36.700, 0.000, 0.000, -0.400, 0.0, , , , , , 96, , , 57, 57, 57
36.0028804, -118.5646400, 1.100, 10:49:46.434, 14, 0.00, 0.13, 97, 0.100, 0.500, -35.100, 1406, 100, 99, 19, 23305, -17302, 5234, 5396, 16, 14, 1530726586.434, 60, 0, 1024, 1024, 1024, 1024, 0, 6, 3883, 3873, 3873, 3890, 3877, 3906, 0, 1, 5900, -89.900, 0.000, -36.700, 0.000, 0.000, -0.400, 0.0, , , , , , 96, , , 57, 57, 57
36.0028803, -118.5646401, 1.100, 10:49:46.534, 14, 0.00, 0.13, 97, 0.200, 0.500, -35.200, 1406, 100, 99, 19, 23305, -17302, 5234, 5396, 16, 14, 1530726586.534, 51, 0, 1024, 1024, 1024, 1024, 0, 6, 3883, 3873, 3873, 3890, 3877, 3906, 0, 1, 6000, -89.900, 0.000, -36.700, 0.000, 0.000, -0.600, 0.0, , , , , , 96, , , 57, 57, 57
36.0028803, -118.5646401, 1.200, 10:49:46.634, 13, 0.00, 0.14, 97, 0.300, 0.500, -35.300, 1406, 100, 99, 19, 23305, -17302, 5234, 5396, 16, 14, 1530726586.634, 43, 0, 1024, 1024, 1024, 1024, 0, 6, 3883, 3873, 3873, 3890, 3877, 3906, 0, 1, 6100, -89.900, 0.000, -36.700, 0.000, 0.000, -0.800, 0.0, , , , , , 96, , , 57, 57, 57
36.0028803, -118.5646402, 1.300, 10:49:46.734, 13, 0.00, 0.14, 97, 0.300, 0.700, -35.300, 1406, 100, 99, 19, 23305, -17302, 5234, 5396, 16, 14, 1530726586.734, 56, 0, 1024, 1024, 1024, 1024, 0, 6, 3883, 3873, 3873, 3890, 3877, 3906, 0, 1, 6200, -89.900, 0.000, -36.700, 0.000, 0.000, -1.100, 0.0, , , , , , 96, , , 57, 57, 57
36.0028804, -118.5646403, 1.400, 10:49:46.834, 14, 0.00, 0.14, 97, 0.300, 0.900, -35.300, 1406, 100, 99, 19, 23305, -17302, 5234, 5396, 16, 14, 1530726586.834, 60, 0, 1024, 1024, 1024, 1024, 0, 6, 3883, 3873, 3873, 3890, 3877, 3906, 0, 1, 6300, -89.900, 0.000, -36.600, 0.000, 0.000, -1.300, 0.0, , , , , , 96, , , 57, 57, 57
36.0028805, -118.5646404, 1.600, 10:49:46.933, 14, 0.00, 0.15, 97, 0.300, 1.100, -35.200, 1406, 100, 99, 19, 23305, -17302, 5234, 5396, 16, 14, 1530726586.934, 60, 0, 1024, 1024, 1024, 1024, 0, 6, 3883, 3873, 3873, 3890, 3877, 3906, 0, 1, 6400, -89.900, 0.000, -36.600, 0.000, 0.000, -1.400, 0.0, , , , , , 96, , , 57, 57, 57
36.0028806, -118.5646404, 1.700, 10:49:47.033, 15, 0.00, 0.14, 97, 0.200, 1.500, -35.100, 1406, 100, 99, 19, 23305, -17302, 5234, 5396, 16, 14, 1530726587.034, 27, 0, 1024, 1024, 1024, 1024, 0, 6, 3883, 3873, 3873, 3890, 3877, 3906, 0, 1, 6500, -89.900, 0.000, -36.600, 0.000, 0.000, -1.700, 0.0, , , , , , 96, , , 57, 57, 57
36.0028807, -118.5646403, 1.900, 10:49:47.134, 15, 0.00, 0.13, 97, 0.000, 1.700, -34.900, 1406, 100, 99, 19, 23225, -16823, 5234, 5396, 16, 14, 1530726587.134, 26, 0, 1024, 1024, 1024, 1024, 0, 6, 3872, 3843, 3899, 3862, 3840, 3831, 0, 1, 6600, -89.900, 0.000, -36.600, 0.000, 0.000, -1.900, 0.0, , , , , , 96, , , 57, 57, 57
36.0028808, -118.5646403, 2.100, 10:49:47.233, 15, 0.00, 0.12, 97, -0.400, 1.600, -34.800, 1406, 100, 100, 19, 23225, -16823, 5234, 5396, 16, 14, 1530726587.234, 28, 0, 1024, 1024, 1024, 1024, 0, 6, 3872, 3843, 3899, 3862, 3840, 3831, 0, 1, 6700, -89.900, 0.000, -36.500, 0.000, 0.000, -2.100, 0.0, , , , , , 96, , , 57, 57, 57
36.0028809, -118.5646404, 2.300, 10:49:47.333, 15, 0.00, 0.13, 97, -0.400, 1.400, -34.700, 1406, 100, 100, 19, 23225, -16823, 5234, 5396, 16, 14, 1530726587.334, 24, 0, 1024, 1024, 1024, 1024, 0, 6, 3872, 3843, 3899, 3862, 3840, 3831, 0, 1, 6800, -89.900, 0.000, -36.500, 0.000, 0.000, -2.200, 0.0, , , , , , 96, , , 57, 57, 57
36.0028809, -118.5646404, 2.600, 10:49:47.433, 15, 0.00, 0.13, 97, -0.400, 1.200, -34.700, 1406, 100, 100, 19, 23225, -16823, 5234, 5396, 16, 14, 1530726587.434, 27, 0, 1024, 1024, 1024, 1024, 0, 6, 3872, 3843, 3899, 3862, 3840, 3831, 0, 1, 6900, -89.900, 0.000, -36.500, 0.000, 0.000, -2.600, 0.0, , , , , , 96, , , 57, 57, 57
36.0028810, -118.5646404, 2.800, 10:49:47.534, 15, 0.00, 0.13, 97, -0.400, 1.200, -34.700, 1406, 100, 100, 19, 23225, -16823, 5234, 5396, 16, 14, 1530726587.534, 27, 0, 1024, 1024, 1024, 1024, 0, 6, 3872, 3843, 3899, 3862, 3840, 3831, 0, 1, 7000, -89.900, 0.000, -36.500, 0.000, 0.000, -2.900, 0.0, , , , , , 96, , , 57, 57, 57
36.0028809, -118.5646403, 3.200, 10:49:47.633, 15, 0.00, 0.12, 97, -0.400, 1.200, -34.800, 1406, 100, 100, 19, 23225, -16823, 5234, 5396, 16, 14, 1530726587.634, 21, 0, 1024, 1024, 1024, 1024, 0, 6, 3872, 3843, 3899, 3862, 3840, 3831, 0, 1, 7100, -89.900, 0.000, -36.500, 0.000, 0.000, -3.000, 0.0, , , , , , 96, , , 57, 57, 57
36.0028809, -118.5646402, 3.500, 10:49:47.733, 15, 0.00, 0.12, 97, 0.000, 1.000, -34.900, 1406, 100, 100, 19, 23225, -16823, 5234, 5396, 16, 14, 1530726587.734, 21, 0, 1024, 1024, 1024, 1024, 0, 6, 3872, 3843, 3899, 3862, 3840, 3831, 0, 1, 7200, -89.900, 0.000, -36.500, 0.000, 0.000, -3.200, 0.0, , , , , , 96, , , 57, 57, 57
36.0028809, -118.5646402, 3.800, 10:49:47.833, 16, 0.00, 0.11, 97, 0.000, 0.700, -35.000, 1406, 100, 100, 19, 23225, -16823, 5234, 5396, 16, 14, 1530726587.834, 11, 0, 1024, 1024, 1024, 1024, 0, 6, 3872, 3843, 3899, 3862, 3840, 3831, 0, 1, 7300, -89.900, 0.000, -36.500, 0.000, 0.000, -3.200, 0.0, , , , , , 96, , , 57, 57, 57
36.0028809, -118.5646401, 4.200, 10:49:47.934, 16, 0.00, 0.11, 97, -0.100, 0.700, -35.000, 1406, 100, 100, 19, 23225, -16823, 5234, 5396, 16, 14, 1530726587.934, 1, 0, 1024, 1024, 1024, 1024, 0, 6, 3872, 3843, 3899, 3862, 3840, 3831, 0, 1, 7401, -89.900, 0.000, -36.400, 0.000, 0.000, -3.300, 0.0, , , , , , 96, , , 57, 57, 57
36.0028809, -118.5646402, 4.500, 10:49:48.033, 15, 0.00, 0.11, 97, -0.100, 0.700, -35.100, 1406, 100, 100, 19, 23225, -16823, 5234, 5396, 16, 14, 1530726588.034, 2, 0, 1024, 1024, 1024, 1024, 0, 6, 3872, 3843, 3899, 3862, 3840, 3831, 0, 1, 7500, -89.900, 0.000, -36.400, 0.000, 0.000, -3.300, 0.0, , , , , , 96, , , 57, 57, 57
36.0028809, -118.5646402, 4.500, 10:49:48.133, 15, 0.00, 0.11, 97, -0.100, 0.700, -35.100, 1406, 100, 100, 19, 23225, -16823, 5234, 5396, 16, 14, 1530726588.134, 102, 0, 1024, 1024, 1024, 1024, 0, 6, 3872, 3843, 3899, 3862, 3840, 3831, 0, 1, 7600, -89.900, 0.000, -36.400, 0.000, 0.000, -3.300, 0.0, , , , , , 96, , , 57, 57, 57
36.0028809, -118.5646403, 4.800, 10:49:48.233, 15, 0.00, 0.12, 97, 0.000, 0.700, -35.100, 1406, 100, 100, 19, 22478, -25719, 5234, 5396, 16, 14, 1530726588.234, 93, 0, 1024, 1024, 1024, 1024, 0, 6, 3872, 3843, 3899, 3862, 3840, 3831, 0, 1, 7700, -89.900, 0.000, -36.400, 0.000, 0.000, -3.300, 0.0, , , , , , 96, , , 57, 57, 57
36.0028809, -118.5646404, 5.200, 10:49:48.333, 15, 0.00, 0.13, 97, 0.100, 0.900, -35.100, 1406, 100, 100, 19, 22478, -25719, 5234, 5396, 16, 14, 1530726588.334, 95, 0, 1024, 1024, 1024, 1024, 0, 6, 3872, 3843, 3899, 3862, 3840, 3831, 0, 1, 7800, -89.900, 0.000, -36.400, 0.000, 0.000, -3.300, 0.0, , , , , , 96, , , 57, 57, 57
36.0028807, -118.5646405, 5.900, 10:49:48.433, 16, 0.00, 0.15, 97, 0.600, 1.300, -35.200, 1406, 100, 100, 19, 22478, -25719, 5234, 5396, 16, 14, 1530726588.434, 84, 0, 1024, 1024, 1024, 1024, 0, 6, 3872, 3843, 3899, 3862, 3840, 3831, 0, 1, 7900, -89.900, 0.000, -36.400, 0.000, 0.000, -3.300, 0.0, , , , , , 96, , , 57, 57, 57
36.0028807, -118.5646407, 6.200, 10:49:48.533, 16, 0.00, 0.17, 97, 0.600, 1.300, -35.300, 1406, 100, 100, 19, 22478, -25719, 5234, 5396, 16, 14, 1530726588.533, 78, 0, 1024, 1024, 1024, 1024, 0, 6, 3872, 3843, 3899, 3862, 3840, 3831, 0, 1, 7999, -89.900, 0.000, -36.300, 0.000, 0.000, -3.300, 0.0, , , , , , 96, , , 57, 57, 57
36.0028806, -118.5646408, 6.500, 10:49:48.633, 15, 0.00, 0.18, 97, 0.800, 1.300, -35.300, 1406, 100, 100, 19, 22478, -25719, 5234, 5396, 16, 14, 1530726588.634, 36, 0, 1024, 1024, 1024, 1024, 0, 6, 3735, 3723, 3740, 3757, 3716, 3765, 0, 1, 8100, -89.900, 0.000, -36.300, 0.000, 0.000, -3.200, 0.0, , , , , , 96, , , 57, 57, 57
36.0028805, -118.5646409, 6.900, 10:49:48.733, 15, 0.00, 0.19, 97, 1.000, 1.300, -35.400, 1406, 100, 100, 19, 22478, -25719, 5234, 5396, 16, 14, 1530726588.734, 72, 0, 1024, 1024, 1024, 1024, 0, 6, 3735, 3723, 3740, 3757, 3716, 3765, 0, 1, 8200, -89.900, 0.000, -36.300, 0.000, 0.000, -3.200, 0.0, , , , , , 96, , , 57, 57, 57
36.0028804, -118.5646410, 7.200, 10:49:48.833, 16, 0.00, 0.20, 97, 1.100, 1.200, -35.400, 1406, 100, 100, 19, 22478, -25719, 5234, 5396, 16, 14, 1530726588.834, 64, 0, 1024, 1024, 1024, 1024, 0, 6, 3735, 3723, 3740, 3757, 3716, 3765, 0, 1, 8300, -89.900, 0.000, -36.300, 0.000, 0.000, -3.200, 0.0, , , , , , 96, , , 57, 57, 57
36.0028804, -118.5646412, 7.500, 10:49:48.933, 16, 0.00, 0.21, 97, 1.100, 1.000, -35.400, 1406, 100, 100, 19, 22478, -25719, 5234, 5396, 16, 14, 1530726588.934, 52, 0, 1024, 1024, 1024, 1024, 0, 6, 3735, 3723, 3740, 3757, 3716, 3765, 0, 1, 8400, -89.900, 0.000, -36.300, 0.000, 0.000, -3.200, 0.0, , , , , , 96, , , 57, 57, 57
36.0028803, -118.5646413, 7.800, 10:49:49.033, 15, 0.00, 0.23, 97, 1.100, 1.100, -35.300, 1406, 100, 100, 19, 22478, -25719, 5234, 5396, 16, 14, 1530726589.034, 47, 0, 1024, 1024, 1024, 1024, 0, 6, 3735, 3723, 3740, 3757, 3716, 3765, 0, 1, 8500, -89.900, 0.000, -36.300, 0.000, 0.000, -3.100, 0.0, , , , , , 96, , , 57, 57, 57
36.0028803, -118.5646414, 8.200, 10:49:49.133, 15, 0.00, 0.24, 97, 1.200, 1.200, -35.300, 1406, 100, 100, 19, 22478, -25719, 5234, 5396, 16, 14, 1530726589.134, 50, 0, 1024, 1024, 1024, 1024, 0, 6, 3735, 3723, 3740, 3757, 3716, 3765, 0, 1, 8600, -89.900, 0.000, -36.300, 0.000, 0.000, -3.200, 0.0, , , , , , 96, , , 57, 57, 57
36.0028803, -118.5646416, 8.500, 10:49:49.233, 16, 0.00, 0.25, 97, 1.300, 1.300, -35.200, 1406, 100, 100, 19, 22478, -25719, 5234, 5396, 16, 14, 1530726589.234, 40, 0, 1024, 1024, 1024, 1024, 0, 6, 3735, 3723, 3740, 3757, 3716, 3765, 0, 1, 8700, -89.900, 0.000, -36.300, 0.000, 0.000, -3.200, 0.0, , , , , , 96, , , 57, 57, 57
36.0028802, -118.5646417, 8.800, 10:49:49.333, 16, 0.00, 0.27, 97, 1.300, 1.300, -35.200, 1406, 100, 100, 19, 22478, -25719, 5234, 5396, 16, 14, 1530726589.334, 42, 0, 1024, 1024, 1024, 1024, 0, 6, 3735, 3723, 3740, 3757, 3716, 3765, 0, 1, 8800, -89.900, 0.000, -36.300, 0.000, 0.000, -3.200, 0.0, , , , , , 96, , , 57, 57, 57
36.0028801, -118.5646418, 9.100, 10:49:49.433, 16, 0.00, 0.28, 97, 1.400, 1.300, -35.200, 1406, 100, 100, 19, 22478, -25719, 5234, 5396, 16, 14, 1530726589.434, 34, 0, 1024, 1024, 1024, 1024, 0, 6, 3735, 3723, 3740, 3757, 3716, 3765, 0, 1, 8900, -89.900, 0.000, -36.300, 0.000, 0.000, -3.100, 0.0, , , , , , 96, , , 57, 57, 57
36.0028801, -118.5646419, 9.500, 10:49:49.533, 16, 0.00, 0.28, 97, 1.600, 1.300, -35.200, 1406, 100, 100, 19, 22478, -25719, 5234, 5396, 16, 14, 1530726589.534, 35, 0, 1024, 1024, 1024, 1024, 0, 6, 3735, 3723, 3740, 3757, 3716, 3765, 0, 1, 9000, -89.900, 0.000, -36.300, 0.000, 0.000, -3.100, 0.0, , , , , , 96, , , 57, 57, 57
36.0028801, -118.5646419, 9.800, 10:49:49.633, 16, 0.00, 0.29, 97, 1.700, 1.300, -35.200, 1406, 100, 100, 19, 22738, -21201, 5234, 5396, 16, 14, 1530726589.634, 19, 0, 1024, 1024, 1024, 1024, 0, 6, 3784, 3782, 3778, 3792, 3796, 3827, 0, 1, 9100, -89.900, 0.000, -36.300, 0.000, 0.000, -3.100, 0.0, , , , , , 96, , , 57, 57, 57
36.0028800, -118.5646420, 10.100, 10:49:49.733, 16, 0.00, 0.30, 97, 1.500, 1.200, -35.300, 1406, 100, 100, 19, 22738, -21201, 5234, 5396, 16, 14, 1530726589.733, 35, 0, 1024, 1024, 1024, 1024, 0, 6, 3784, 3782, 3778, 3792, 3796, 3827, 0, 1, 9200, -89.900, 0.000, -36.300, 0.000, 0.000, -3.100, 0.0, , , , , , 96, , , 57, 57, 57
36.0028800, -118.5646420, 10.400, 10:49:49.833, 15, 0.00, 0.30, 97, 1.300, 1.000, -35.300, 1406, 100, 100, 19, 22738, -21201, 5234, 5396, 16, 14, 1530726589.833, 11, 0, 1024, 1024, 1024, 1024, 0, 6, 3784, 3782, 3778, 3792, 3796, 3827, 0, 1, 9300, -89.900, 0.000, -36.300, 0.000, 0.000, -3.100, 0.0, , , , , , 96, , , 57, 57, 57
36.0028800, -118.5646421, 10.800, 10:49:49.933, 15, 0.00, 0.31, 97, 1.200, 1.000, -35.300, 1406, 100, 100, 19, 22738, -21201, 5234, 5396, 16, 14, 1530726589.934, 27, 0, 1024, 1024, 1024, 1024, 0, 6, 3784, 3782, 3778, 3792, 3796, 3827, 0, 1, 9400, -89.900, 0.000, -36.300, 0.000, 0.000, -3.100, 0.0, , , , , , 96, , , 57, 57, 57
36.0028800, -118.5646422, 11.100, 10:49:50.033, 16, 0.00, 0.31, 97, 1.200, 1.300, -35.200, 1406, 100, 100, 19, 22738, -21201, 5234, 5396, 16, 14, 1530726590.033, 22, 0, 1024, 1024, 1024, 1024, 0, 6, 3784, 3782, 3778, 3792, 3796, 3827, 0, 1, 9500, -89.900, 0.000, -36.300, 0.000, 0.000, -3.100, 0.0, , , , , , 96, , , 57, 57, 57
36.0028800, -118.5646422, 11.400, 10:49:50.133, 16, 0.00, 0.31, 97, 1.100, 1.600, -35.100, 1406, 100, 100, 19, 22738, -21201, 5234, 5396, 16, 14, 1530726590.133, 6, 0, 1024, 1024, 1024, 1024, 0, 6, 3784, 3782, 3778, 3792, 3796, 3827, 0, 1, 9600, -89.900, 0.000, -36.300, 0.000, 0.000, -3.100, 0.0, , , , , , 96, , , 57, 57, 57
36.0028800, -118.5646421, 11.800, 10:49:50.233, 16, 0.00, 0.31, 97, 0.800, 1.600, -35.000, 1406, 100, 100, 19, 22738, -21201, 5234, 5396, 16, 14, 1530726590.233, 7, 0, 1024, 1024, 1024, 1024, 0, 6, 3784, 3782, 3778, 3792, 3796, 3827, 0, 1, 9700, -89.900, 0.000, -36.300, 0.000, 0.000, -3.000, 0.0, , , , , , 96, , , 57, 57, 57
36.0028800, -118.5646421, 11.800, 10:49:50.333, 16, 0.00, 0.31, 97, 0.800, 1.600, -35.000, 1406, 100, 100, 19, 22738, -21201, 5234, 5396, 16, 14, 1530726590.333, 107, 0, 1024, 1024, 1024, 1024, 0, 6, 3784, 3782, 3778, 3792, 3796, 3827, 0, 1, 9800, -89.900, 0.000, -36.300, 0.000, 0.000, -3.000, 0.0, , , , , , 96, , , 57, 57, 57
36.0028800, -118.5646421, 12.100, 10:49:50.433, 16, 0.00, 0.31, 97, 0.800, 1.500, -34.900, 1406, 100, 100, 19, 22738, -21201, 5234, 5396, 16, 14, 1530726590.433, 95, 0, 1024, 1024, 1024, 1024, 0, 6, 3784, 3782, 3778, 3792, 3796, 3827, 0, 1, 9900, -89.900, 0.000, -36.300, 0.000, 0.000, -2.900, 0.0, , , , , , 96, , , 57, 57, 57
36.0028799, -118.5646420, 13.000, 10:49:50.545, 16, 0.00, 0.30, 97, 1.200, 0.700, -35.100, 1406, 100, 100, 19, 22738, -21201, 5234, 5396, 16, 14, 1530726590.545, 2, 0, 1024, 1024, 1024, 1024, 0, 6, 3784, 3782, 3778, 3792, 3796, 3827, 0, 1, 10012, -90.000, 0.000, -36.300, 0.000, 0.000, -3.000, 0.0, , , , , , 96, , , 57, 57, 57
36.0028799, -118.5646420, 13.000, 10:49:50.633, 16, 0.00, 0.30, 97, 1.200, 0.700, -35.100, 1406, 100, 100, 19, 22738, -21201, 5234, 5396, 16, 14, 1530726590.633, 90, 0, 1024, 1024, 1024, 1024, 0, 6, 3784, 3782, 3778, 3792, 3796, 3827, 0, 1, 10100, -90.000, 0.000, -36.300, 0.000, 0.000, -3.000, 0.0, , , , , , 96, , , 57, 57, 57
36.0028799, -118.5646420, 13.000, 10:49:50.733, 16, 0.00, 0.30, 97, 1.200, 0.700, -35.100, 1406, 100, 100, 19, 22818, -20041, 5234, 5396, 16, 14, 1530726590.733, 191, 0, 1024, 1024, 1024, 1024, 0, 6, 3784, 3782, 3778, 3792, 3796, 3827, 0, 1, 10200, -90.000, 0.000, -36.300, 0.000, 0.000, -3.000, 0.0, , , , , , 96, , , 57, 57, 57
36.0028798, -118.5646420, 13.300, 10:49:50.833, 16, 0.00, 0.31, 97, 1.400, 0.400, -35.200, 1406, 100, 100, 19, 22818, -20041, 5234, 5396, 16, 14, 1530726590.834, 73, 0, 1024, 1024, 1024, 1024, 0, 6, 3801, 3794, 3791, 3797, 3798, 3827, 0, 1, 10300, -90.000, 0.000, -36.300, 0.000, 0.000, -3.000, 0.0, , , , , , 96, , , 57, 57, 57
36.0028798, -118.5646421, 13.900, 10:49:50.933, 16, 0.00, 0.31, 97, 1.300, 0.400, -35.500, 1406, 100, 100, 19, 22818, -20041, 5234, 5396, 16, 14, 1530726590.933, 88, 0, 1024, 1024, 1024, 1024, 0, 6, 3801, 3794, 3791, 3797, 3798, 3827, 0, 1, 10400, -90.000, 0.000, -36.300, 0.000, 0.000, -3.000, 0.0, , , , , , 96, , , 57, 57, 57
36.0028799, -118.5646421, 14.200, 10:49:51.033, 16, 0.00, 0.32, 97, 1.100, 1.000, -35.700, 1406, 100, 100, 19, 22818, -20041, 5234, 5396, 16, 14, 1530726591.033, 90, 0, 1024, 1024, 1024, 1024, 0, 6, 3801, 3794, 3791, 3797, 3798, 3827, 0, 1, 10500, -89.900, 0.000, -36.300, 0.000, 0.000, -2.900, 0.0, , , , , , 96, , , 57, 57, 57
36.0028799, -118.5646421, 14.500, 10:49:51.133, 16, 0.00, 0.32, 97, 1.000, 1.400, -35.700, 1406, 100, 100, 19, 22818, -20041, 5234, 5396, 16, 14, 1530726591.133, 66, 0, 1024, 1024, 1024, 1024, 0, 6, 3801, 3794, 3791, 3797, 3798, 3827, 0, 1, 10600, -89.900, 0.000, -36.300, 0.000, 0.000, -2.900, 0.0, , , , , , 96, , , 57, 57, 57
36.0028799, -118.5646421, 14.800, 10:49:51.233, 16, 0.00, 0.31, 97, 0.900, 1.500, -35.600, 1406, 100, 99, 19, 22818, -20041, 5234, 5396, 16, 14, 1530726591.233, 60, 0, 1024, 1024, 1024, 1024, 0, 6, 3801, 3794, 3791, 3797, 3798, 3827, 0, 1, 10700, -89.900, 0.000, -36.300, 0.000, 0.000, -2.900, 0.0, , , , , , 96, , , 57, 57, 57
36.0028800, -118.5646420, 15.100, 10:49:51.332, 16, 0.00, 0.30, 97, 0.800, 1.500, -35.400, 1406, 100, 99, 19, 22818, -20041, 5234, 5396, 16, 14, 1530726591.333, 60, 0, 1024, 1024, 1024, 1024, 0, 6, 3801, 3794, 3791, 3797, 3798, 3827, 0, 1, 10799, -89.900, 0.000, -36.300, 0.000, 0.000, -2.900, 0.0, , , , , , 96, , , 57, 57, 57
36.0028800, -118.5646419, 15.400, 10:49:51.433, 16, 0.00, 0.29, 97, 0.500, 1.400, -35.200, 1406, 100, 99, 19, 22818, -20041, 5234, 5396, 16, 14, 1530726591.433, 51, 0, 1024, 1024, 1024, 1024, 0, 6, 3801, 3794, 3791, 3797, 3798, 3827, 0, 1, 10900, -89.900, 0.000, -36.300, 0.000, 0.000, -3.000, 0.0, , , , , , 96, , , 57, 57, 57
36.0028800, -118.5646419, 15.700, 10:49:51.533, 16, 0.00, 0.29, 97, 0.500, 1.300, -35.100, 1406, 100, 99, 19, 22818, -20041, 5234, 5396, 16, 14, 1530726591.533, 51, 0, 1024, 1024, 1024, 1024, 0, 6, 3801, 3794, 3791, 3797, 3798, 3827, 0, 1, 11000, -89.900, 0.000, -36.300, 0.000, 0.000, -3.000, 0.0, , , , , , 96, , , 57, 57, 57
36.0028800, -118.5646418, 16.000, 10:49:51.633, 16, 0.00, 0.29, 97, 0.600, 1.300, -35.200, 1406, 100, 99, 20, 22825, -19553, 5234, 5396, 16, 14, 1530726591.633, 32, 0, 1024, 1024, 1024, 1024, 0, 6, 3807, 3791, 3797, 3804, 3806, 3833, 0, 1, 11100, -89.900, 0.000, -36.300, 0.000, 0.000, -3.000, 0.0, , , , , , 96, , , 57, 57, 57
36.0028800, -118.5646418, 16.300, 10:49:51.733, 16, 0.00, 0.28, 97, 0.700, 1.300, -35.200, 1406, 100, 99, 20, 22825, -19553, 5234, 5396, 16, 14, 1530726591.733, 17, 0, 1024, 1024, 1024, 1024, 0, 6, 3807, 3791, 3797, 3804, 3806, 3833, 0, 1, 11200, -89.900, 0.000, -36.300, 0.000, 0.000, -2.900, 0.0, , , , , , 96, , , 57, 57, 57
36.0028800, -118.5646417, 16.600, 10:49:51.833, 16, 0.00, 0.28, 97, 0.800, 1.200, -35.200, 1406, 100, 99, 20, 22825, -19553, 5234, 5396, 16, 14, 1530726591.833, 29, 0, 1024, 1024, 1024, 1024, 0, 6, 3807, 3791, 3797, 3804, 3806, 3833, 0, 1, 11300, -89.900, 0.000, -36.300, 0.000, 0.000, -2.900, 0.0, , , , , , 96, , , 57, 57, 57
36.0028800, -118.5646417, 16.900, 10:49:51.933, 16, 0.00, 0.27, 97, 0.700, 1.200, -35.100, 1406, 100, 99, 20, 22825, -19553, 5234, 5396, 16, 14, 1530726591.933, 19, 0, 1024, 1024, 1024, 1024, 0, 6, 3807, 3791, 3797, 3804, 3806, 3833, 0, 1, 11400, -89.900, 0.000, -36.300, 0.000, 0.000, -2.900, 0.0, , , , , , 96, , , 57, 57, 57
36.0028800, -118.5646417, 16.900, 10:49:52.033, 16, 0.00, 0.27, 97, 0.700, 1.200, -35.100, 1406, 100, 99, 20, 22825, -19553, 5234, 5396, 16, 14, 1530726592.033, 119, 0, 1024, 1024, 1024, 1024, 0, 6, 3807, 3791, 3797, 3804, 3806, 3833, 0, 1, 11500, -89.900, 0.000, -36.300, 0.000, 0.000, -2.900, 0.0, , , , , , 96, , , 57, 57, 57
36.0028800, -118.5646416, 17.500, 10:49:52.132, 16, 0.00, 0.27, 97, 0.900, 1.500, -35.200, 1406, 100, 99, 20, 22825, -19553, 5234, 5396, 16, 14, 1530726592.133, 14, 0, 1024, 1024, 1024, 1024, 0, 6, 3807, 3791, 3797, 3804, 3806, 3833, 0, 1, 11599, -89.900, 0.000, -36.300, 0.000, 0.000, -2.900, 0.0, , , , , , 96, , , 57, 57, 57
36.0028800, -118.5646416, 17.800, 10:49:52.233, 16, 0.00, 0.27, 97, 0.900, 1.500, -35.200, 1406, 100, 99, 20, 22825, -19553, 5234, 5396, 16, 14, 1530726592.233, 18, 0, 1024, 1024, 1024, 1024, 0, 6, 3807, 3791, 3797, 3804, 3806, 3833, 0, 1, 11700, -89.900, 0.000, -36.300, 0.000, 0.000, -2.900, 0.0, , , , , , 96, , , 57, 57, 57
36.0028800, -118.5646416, 18.100, 10:49:52.333, 16, 0.00, 0.26, 97, 0.700, 1.500, -35.300, 1406, 100, 99, 20, 22825, -19553, 5234, 5396, 16, 14, 1530726592.333, 10, 0, 1024, 1024, 1024, 1024, 0, 6, 3807, 3791, 3797, 3804, 3806, 3833, 0, 1, 11800, -89.900, 0.000, -36.300, 0.000, 0.000, -2.900, 0.0, , , , , , 96, , , 57, 57, 57
36.0028800, -118.5646416, 18.100, 10:49:52.433, 16, 0.00, 0.26, 97, 0.700, 1.500, -35.300, 1406, 100, 99, 20, 22825, -19553, 5234, 5396, 16, 14, 1530726592.433, 109, 0, 1024, 1024, 1024, 1024, 0, 6, 3807, 3791, 3797, 3804, 3806, 3833, 0, 1, 11900, -89.900, 0.000, -36.300, 0.000, 0.000, -2.900, 0.0, , , , , , 96, , , 57, 57, 57
36.0028801, -118.5646415, 18.700, 10:49:52.533, 16, 0.00, 0.26, 97, 0.900, 1.300, -35.200, 1406, 100, 99, 20, 22825, -19553, 5234, 5396, 16, 14, 1530726592.533, 5, 0, 1024, 1024, 1024, 1024, 0, 6, 3807, 3791, 3797, 3804, 3806, 3833, 0, 1, 12000, -89.900, 0.000, -36.300, 0.000, 0.000, -2.800, 0.0, , , , , , 96, , , 57, 57, 57
36.0028801, -118.5646415, 18.700, 10:49:52.633, 16, 0.00, 0.26, 97, 0.900, 1.300, -35.200, 1406, 100, 99, 20, 22825, -19553, 5234, 5396, 16, 14, 1530726592.633, 105, 0, 1024, 1024, 1024, 1024, 0, 6, 3807, 3791, 3797, 3804, 3806, 3833, 0, 1, 12100, -89.900, 0.000, -36.300, 0.000, 0.000, -2.800, 0.0, , , , , , 96, , , 57, 57, 57
36.0028801, -118.5646415, 19.000, 10:49:52.733, 16, 0.00, 0.25, 97, 0.900, 1.200, -35.100, 1406, 100, 99, 20, 22853, -18940, 5234, 5396, 16, 14, 1530726592.733, 87, 0, 1024, 1024, 1024, 1024, 0, 6, 3811, 3802, 3798, 3813, 3803, 3837, 0, 1, 12200, -89.900, 0.000, -36.300, 0.000, 0.000, -2.900, 0.0, , , , , , 96, , , 57, 57, 57
36.0028801, -118.5646414, 19.600, 10:49:52.833, 16, 0.00, 0.25, 97, 0.900, 1.300, -34.900, 1406, 100, 99, 20, 22853, -18940, 5234, 5396, 16, 14, 1530726592.833, 76, 0, 1024, 1024, 1024, 1024, 0, 6, 3811, 3802, 3798, 3813, 3803, 3837, 0, 1, 12300, -89.900, 0.000, -36.300, 0.000, 0.000, -2.900, 0.0, , , , , , 96, , , 57, 57, 57
36.0028801, -118.5646414, 19.600, 10:49:52.933, 16, 0.00, 0.25, 97, 0.900, 1.300, -34.900, 1406, 100, 99, 20, 22853, -18940, 5234, 5396, 16, 14, 1530726592.933, 176, 0, 1024, 1024, 1024, 1024, 0, 6, 3811, 3802, 3798, 3813, 3803, 3837, 0, 1, 12400, -89.900, 0.000, -36.300, 0.000, 0.000, -2.900, 0.0, , , , , , 96, , , 57, 57, 57
36.0028801, -118.5646413, 20.200, 10:49:53.033, 16, 0.00, 0.24, 97, 1.400, 1.100, -34.800, 1406, 100, 99, 20, 22853, -18940, 5234, 5396, 16, 14, 1530726593.033, 81, 0, 1024, 1024, 1024, 1024, 0, 6, 3811, 3802, 3798, 3813, 3803, 3837, 0, 1, 12500, -89.900, 0.000, -36.300, 0.000, 0.000, -2.900, 0.0, , , , , , 96, , , 57, 57, 57
36.0028801, -118.5646413, 20.200, 10:49:53.133, 16, 0.00, 0.24, 97, 1.400, 1.100, -34.800, 1406, 100, 99, 20, 22853, -18940, 5234, 5396, 16, 14, 1530726593.133, 181, 0, 1024, 1024, 1024, 1024, 0, 6, 3811, 3802, 3798, 3813, 3803, 3837, 0, 1, 12600, -89.900, 0.000, -36.300, 0.000, 0.000, -2.900, 0.0, , , , , , 96, , , 57, 57, 57
36.0028802, -118.5646413, 20.800, 10:49:53.233, 16, 0.00, 0.23, 97, 1.400, 1.400, -34.800, 1406, 100, 98, 20, 22853, -18940, 5234, 5396, 16, 14, 1530726593.233, 85, 0, 1024, 1024, 1024, 1024, 0, 6, 3811, 3802, 3798, 3813, 3803, 3837, 0, 1, 12700, -89.900, 0.000, -36.300, 0.000, 0.000, -2.900, 0.0, , , , , , 96, , , 57, 57, 57
36.0028802, -118.5646413, 20.800, 10:49:53.333, 16, 0.00, 0.23, 97, 1.400, 1.400, -34.800, 1406, 100, 98, 20, 22853, -18940, 5234, 5396, 16, 14, 1530726593.333, 186, 0, 1024, 1024, 1024, 1024, 0, 6, 3811, 3802, 3798, 3813, 3803, 3837, 0, 1, 12800, -89.900, 0.000, -36.300, 0.000, 0.000, -2.900, 0.0, , , , , , 96, , , 57, 57, 57
36.0028802, -118.5646413, 21.400, 10:49:53.433, 16, 0.00, 0.23, 97, 0.900, 1.500, -34.900, 1406, 100, 98, 20, 22853, -18940, 5234, 5396, 16, 14, 1530726593.433, 55, 0, 1024, 1024, 1024, 1024, 0, 6, 3811, 3802, 3798, 3813, 3803, 3837, 0, 1, 12900, -89.900, 0.000, -36.300, 0.000, 0.000, -2.800, 0.0, , , , , , 96, , , 57, 57, 57
36.0028802, -118.5646413, 21.700, 10:49:53.533, 16, 0.00, 0.23, 97, 0.900, 1.600, -35.000, 1406, 100, 98, 20, 22853, -18940, 5234, 5396, 16, 14, 1530726593.533, 48, 0, 1024, 1024, 1024, 1024, 0, 6, 3811, 3802, 3798, 3813, 3803, 3837, 0, 1, 13000, -89.900, 0.000, -36.300, 0.000, 0.000, -2.800, 0.0, , , , , , 96, , , 57, 57, 57
36.0028802, -118.5646413, 22.000, 10:49:53.633, 16, 0.00, 0.23, 97, 1.300, 1.800, -35.000, 1406, 100, 98, 20, 22836, -19001, 5234, 5396, 16, 14, 1530726593.633, 51, 0, 1024, 1024, 1024, 1024, 0, 6, 3811, 3802, 3798, 3813, 3803, 3837, 0, 1, 13100, -89.900, 0.000, -36.300, 0.000, 0.000, -2.900, 0.0, , , , , , 96, , , 57, 57, 57
36.0028802, -118.5646413, 22.300, 10:49:53.733, 16, 0.00, 0.23, 97, 1.700, 2.100, -35.000, 1406, 100, 94, 20, 22836, -19001, 5234, 5396, 16, 14, 1530726593.733, 55, 0, 1024, 1024, 1024, 1024, 0, 6, 3811, 3802, 3798, 3813, 3803, 3837, 0, 1, 13200, -89.900, 0.000, -36.300, 0.000, 0.000, -2.900, 0.0, , , , , , 96, , , 57, 57, 57
36.0028803, -118.5646413, 22.500, 10:49:53.833, 16, 0.00, 0.23, 97, 1.700, 2.300, -34.900, 1406, 100, 94, 20, 22836, -19001, 5234, 5396, 16, 14, 1530726593.833, 51, 0, 1024, 1024, 1024, 1024, 0, 6, 3811, 3802, 3798, 3813, 3803, 3837, 0, 1, 13300, -89.900, 0.000, -36.300, 0.000, 0.000, -2.800, 0.0, , , , , , 96, , , 57, 57, 57
36.0028803, -118.5646414, 22.800, 10:49:53.933, 16, 0.00, 0.23, 97, 1.500, 2.500, -34.800, 1406, 100, 94, 20, 22836, -19001, 5234, 5396, 16, 14, 1530726593.933, 32, 0, 1024, 1024, 1024, 1024, 0, 6, 3811, 3802, 3798, 3813, 3803, 3837, 0, 1, 13400, -89.900, 0.000, -36.300, 0.000, 0.000, -2.800, 0.0, , , , , , 96, , , 57, 57, 57
36.0028804, -118.5646414, 23.100, 10:49:54.033, 16, 0.00, 0.24, 97, 1.600, 2.600, -34.800, 1406, 100, 94, 20, 22836, -19001, 5234, 5396, 16, 14, 1530726594.033, 43, 0, 1024, 1024, 1024, 1024, 0, 6, 3811, 3802, 3798, 3813, 3803, 3837, 0, 1, 13500, -89.900, 0.000, -36.300, 0.000, 0.000, -2.900, 0.0, , , , , , 96, , , 57, 57, 57
36.0028804, -118.5646415, 23.400, 10:49:54.133, 16, 0.00, 0.24, 97, 1.500, 2.800, -34.900, 1406, 100, 94, 20, 22836, -19001, 5234, 5396, 16, 14, 1530726594.133, 46, 0, 1024, 1024, 1024, 1024, 0, 6, 3808, 3794, 3791, 3816, 3802, 3835, 0, 1, 13599, -89.900, 0.000, -36.300, 0.000, 0.000, -2.900, 0.0, , , , , , 96, , , 57, 57, 57
36.0028804, -118.5646415, 23.700, 10:49:54.233, 16, 0.00, 0.24, 97, 1.600, 2.800, -35.000, 1406, 100, 94, 20, 22836, -19001, 5234, 5396, 16, 14, 1530726594.233, 40, 0, 1024, 1024, 1024, 1024, 0, 6, 3808, 3794, 3791, 3816, 3802, 3835, 0, 1, 13700, -89.900, 0.000, -36.300, 0.000, 0.000, -2.900, 0.0, , , , , , 96, , , 57, 57, 57
36.0028804, -118.5646415, 24.000, 10:49:54.333, 16, 0.00, 0.24, 97, 1.700, 2.700, -35.200, 1406, 100, 94, 20, 22836, -19001, 5234, 5396, 16, 14, 1530726594.333, 32, 0, 1024, 1024, 1024, 1024, 0, 6, 3808, 3794, 3791, 3816, 3802, 3835, 0, 1, 13800, -89.900, 0.000, -36.300, 0.000, 0.000, -3.000, 0.0, , , , , , 96, , , 57, 57, 57
36.0028804, -118.5646415, 24.300, 10:49:54.433, 16, 0.00, 0.25, 97, 1.700, 2.400, -35.400, 1406, 100, 94, 20, 22836, -19001, 5234, 5396, 16, 14, 1530726594.433, 23, 0, 1024, 1024, 1024, 1024, 0, 6, 3808, 3794, 3791, 3816, 3802, 3835, 0, 1, 13900, -89.900, 0.000, -36.300, 0.000, 0.000, -3.000, 0.0, , , , , , 96, , , 57, 57, 57
36.0028804, -118.5646415, 24.600, 10:49:54.533, 16, 0.00, 0.24, 97, 1.700, 2.100, -35.500, 1406, 100, 94, 20, 22836, -19001, 5234, 5396, 16, 14, 1530726594.533, 27, 0, 1024, 1024, 1024, 1024, 0, 6, 3808, 3794, 3791, 3816, 3802, 3835, 0, 1, 14000, -89.900, 0.000, -36.300, 0.000, 0.000, -3.100, 0.0, , , , , , 96, , , 57, 57, 57
36.0028804, -118.5646415, 24.900, 10:49:54.633, 16, 0.00, 0.24, 97, 2.000, 1.900, -35.600, 1406, 100, 94, 20, 22836, -19001, 5234, 5396, 16, 14, 1530726594.633, 12, 0, 1024, 1024, 1024, 1024, 0, 6, 3808, 3794, 3791, 3816, 3802, 3835, 0, 1, 14099, -89.900, 0.000, -36.300, 0.000, 0.000, -3.000, 0.0, , , , , , 96, , , 57, 57, 57
36.0028804, -118.5646415, 24.900, 10:49:54.733, 16, 0.00, 0.24, 97, 2.000, 1.900, -35.600, 1406, 100, 94, 20, 22836, -19001, 5234, 5396, 16, 14, 1530726594.733, 112, 0, 1024, 1024, 1024, 1024, 0, 6, 3808, 3794, 3791, 3816, 3802, 3835, 0, 1, 14200, -89.900, 0.000, -36.300, 0.000, 0.000, -3.000, 0.0, , , , , , 96, , , 57, 57, 57
36.0028804, -118.5646415, 25.200, 10:49:54.833, 16, 0.00, 0.24, 97, 2.300, 1.900, -35.600, 1406, 100, 94, 20, 22836, -19001, 5234, 5396, 16, 14, 1530726594.833, 76, 0, 1024, 1024, 1024, 1024, 0, 6, 3808, 3794, 3791, 3816, 3802, 3835, 0, 1, 14300, -89.900, 0.000, -36.300, 0.000, 0.000, -3.000, 0.0, , , , , , 96, , , 57, 57, 57
36.0028804, -118.5646416, 25.900, 10:49:54.943, 16, 0.00, 0.25, 97, 2.400, 2.400, -35.300, 1406, 100, 94, 20, 22836, -19001, 5234, 5396, 16, 14, 1530726594.943, 1, 0, 1024, 1024, 1024, 1024, 0, 6, 3808, 3794, 3791, 3816, 3802, 3835, 0, 1, 14409, -89.900, 0.000, -36.300, 0.000, 0.000, -2.900, 0.0, , , , , , 96, , , 57, 57, 57
36.0028804, -118.5646416, 25.900, 10:49:55.033, 16, 0.00, 0.25, 97, 2.400, 2.400, -35.300, 1406, 100, 94, 20, 22836, -19001, 5234, 5396, 16, 14, 1530726595.033, 91, 0, 1024, 1024, 1024, 1024, 0, 6, 3808, 3794, 3791, 3816, 3802, 3835, 0, 1, 14500, -89.900, 0.000, -36.300, 0.000, 0.000, -2.900, 0.0, , , , , , 96, , , 57, 57, 57
36.0028804, -118.5646416, 26.200, 10:49:55.133, 16, 0.00, 0.25, 97, 2.100, 2.500, -35.200, 1406, 100, 94, 20, 22836, -19001, 5234, 5396, 16, 14, 1530726595.133, 92, 0, 1024, 1024, 1024, 1024, 0, 6, 3808, 3794, 3791, 3816, 3802, 3835, 0, 1, 14600, -89.900, 0.000, -36.300, 0.000, 0.000, -3.000, 0.0, , , , , , 96, , , 57, 57, 57
36.0028804, -118.5646416, 26.700, 10:49:55.233, 16, 0.00, 0.25, 97, 2.200, 2.700, -35.500, 1406, 100, 94, 20, 22778, -19107, 5234, 5396, 16, 14, 1530726595.233, 85, 0, 1024, 1024, 1024, 1024, 0, 6, 3783, 3775, 3777, 3789, 3785, 3814, 0, 1, 14700, -89.900, 0.000, -36.300, 0.000, 0.000, -2.900, 0.0, , , , , , 96, , , 57, 57, 57
36.0028804, -118.5646416, 27.000, 10:49:55.332, 16, 0.00, 0.25, 97, 2.200, 2.300, -35.600, 1406, 100, 97, 20, 22778, -19107, 5234, 5396, 16, 14, 1530726595.333, 75, 0, 1024, 1024, 1024, 1024, 0, 6, 3783, 3775, 3777, 3789, 3785, 3814, 0, 1, 14799, -89.900, 0.000, -36.300, 0.000, 0.000, -2.900, 0.0, , , , , , 96, , , 57, 57, 57
36.0028803, -118.5646416, 27.400, 10:49:55.433, 16, 0.00, 0.26, 97, 2.100, 1.900, -35.700, 1406, 100, 97, 20, 22778, -19107, 5234, 5396, 16, 14, 1530726595.433, 76, 0, 1024, 1024, 1024, 1024, 0, 6, 3783, 3775, 3777, 3789, 3785, 3814, 0, 1, 14900, -89.900, 0.000, -36.300, 0.000, 0.000, -3.000, 0.0, , , , , , 96, , , 57, 57, 57
36.0028803, -118.5646416, 27.600, 10:49:55.533, 16, 0.00, 0.26, 97, 2.100, 1.600, -35.600, 1406, 100, 97, 20, 22778, -19107, 5234, 5396, 16, 14, 1530726595.533, 63, 0, 1024, 1024, 1024, 1024, 0, 6, 3783, 3775, 3777, 3789, 3785, 3814, 0, 1, 15000, -90.000, 0.000, -36.300, 0.000, 0.000, -2.900, 0.0, , , , , , 96, , , 57, 57, 57
36.0028802, -118.5646417, 27.900, 10:49:55.633, 16, 0.00, 0.26, 97, 2.100, 1.600, -35.500, 1406, 100, 97, 20, 22778, -19107, 5234, 5396, 16, 14, 1530726595.633, 64, 0, 1024, 1024, 1024, 1024, 0, 6, 3783, 3775, 3777, 3789, 3785, 3814, 0, 1, 15100, -89.900, 0.000, -36.300, 0.000, 0.000, -3.000, 0.0, , , , , , 96, , , 57, 57, 57
36.0028802, -118.5646417, 28.300, 10:49:55.733, 16, 0.00, 0.27, 97, 2.500, 1.800, -35.400, 1406, 100, 97, 20, 22778, -19107, 5234, 5396, 16, 14, 1530726595.733, 68, 0, 1024, 1024, 1024, 1024, 0, 6, 3783, 3775, 3777, 3789, 3785, 3814, 0, 1, 15200, -89.900, 0.000, -36.300, 0.000, 0.000, -3.000, 0.0, , , , , , 96, , , 57, 57, 57
36.0028802, -118.5646418, 28.500, 10:49:55.833, 16, 0.00, 0.27, 97, 2.700, 2.200, -35.200, 1406, 100, 97, 20, 22778, -19107, 5234, 5396, 16, 14, 1530726595.833, 63, 0, 1024, 1024, 1024, 1024, 0, 6, 3783, 3775, 3777, 3789, 3785, 3814, 0, 1, 15300, -89.900, 0.000, -36.300, 0.000, 0.000, -2.900, 0.0, , , , , , 96, , , 57, 57, 57
36.0028801, -118.5646418, 28.900, 10:49:55.933, 16, 0.00, 0.28, 97, 2.700, 2.300, -35.100, 1406, 100, 97, 20, 22778, -19107, 5234, 5396, 16, 14, 1530726595.933, 35, 0, 1024, 1024, 1024, 1024, 0, 6, 3783, 3775, 3777, 3789, 3785, 3814, 0, 1, 15400, -89.900, 0.000, -36.300, 0.000, 0.000, -3.000, 0.0, , , , , , 96, , , 57, 57, 57
36.0028801, -118.5646418, 29.100, 10:49:56.033, 16, 0.00, 0.28, 97, 2.800, 2.400, -35.000, 1406, 100, 97, 20, 22778, -19107, 5234, 5396, 16, 14, 1530726596.033, 49, 0, 1024, 1024, 1024, 1024, 0, 6, 3783, 3775, 3777, 3789, 3785, 3814, 0, 1, 15500, -89.900, 0.000, -36.300, 0.000, 0.000, -2.900, 0.0, , , , , , 96, , , 57, 57, 57
36.0028801, -118.5646418, 29.400, 10:49:56.133, 16, 0.00, 0.28, 97, 2.700, 2.300, -34.900, 1406, 100, 97, 20, 22610, -19591, 5180, 5396, 16, 14, 1530726596.133, 43, 0, 1024, 1024, 1024, 1024, 0, 6, 3773, 3760, 3764, 3781, 3782, 3803, 0, 1, 15600, -89.900, 0.000, -36.300, 0.000, 0.000, -2.900, 0.0, , , , , , 96, , , 57, 57, 57
36.0028801, -118.5646418, 29.800, 10:49:56.233, 16, 0.00, 0.28, 97, 2.500, 2.300, -34.800, 1406, 100, 97, 20, 22610, -19591, 5180, 5396, 16, 14, 1530726596.233, 34, 0, 1024, 1024, 1024, 1024, 0, 6, 3773, 3760, 3764, 3781, 3782, 3803, 0, 1, 15700, -89.900, 0.000, -36.300, 0.000, 0.000, -3.000, 0.0, , , , , , 96, , , 57, 57, 57
36.0028801, -118.5646418, 30.000, 10:49:56.333, 16, 0.00, 0.28, 97, 2.300, 2.300, -34.900, 1406, 100, 97, 20, 22610, -19591, 5180, 5396, 16, 14, 1530726596.333, 42, 0, 1024, 1024, 1024, 1024, 0, 6, 3773, 3760, 3764, 3781, 3782, 3803, 0, 1, 15800, -89.900, 0.000, -36.300, 0.000, 0.000, -2.900, 0.0, , , , , , 96, , , 57, 57, 57
36.0028801, -118.5646418, 30.300, 10:49:56.433, 16, 0.00, 0.28, 97, 2.600, 2.300, -35.000, 1406, 100, 97, 20, 22610, -19591, 5180, 5396, 16, 14, 1530726596.433, 38, 0, 1024, 1024, 1024, 1024, 0, 6, 3773, 3760, 3764, 3781, 3782, 3803, 0, 1, 15900, -89.900, 0.000, -36.300, 0.000, 0.000, -2.900, 0.0, , , , , , 96, , , 57, 57, 57
36.0028801, -118.5646418, 30.600, 10:49:56.533, 16, 0.00, 0.28, 97, 2.700, 2.200, -35.100, 1406, 100, 97, 20, 22610, -19591, 5180, 5396, 16, 14, 1530726596.533, 30, 0, 1024, 1024, 1024, 1024, 0, 6, 3773, 3760, 3764, 3781, 3782, 3803, 0, 1, 16000, -89.900, 0.000, -36.300, 0.000, 0.000, -2.900, 0.0, , , , , , 96, , , 57, 57, 57
36.0028801, -118.5646418, 30.600, 10:49:56.633, 16, 0.00, 0.28, 97, 2.700, 2.200, -35.100, 1406, 100, 97, 20, 22610, -19591, 5180, 5396, 16, 14, 1530726596.633, 130, 0, 1024, 1024, 1024, 1024, 0, 6, 3773, 3760, 3764, 3781, 3782, 3803, 0, 1, 16100, -89.900, 0.000, -36.300, 0.000, 0.000, -2.900, 0.0, , , , , , 96, , , 57, 57, 57
36.0028800, -118.5646418, 31.200, 10:49:56.733, 16, 0.00, 0.28, 96, 2.800, 2.000, -35.300, 1406, 100, 97, 20, 22610, -19591, 5180, 5396, 16, 14, 1530726596.733, 29, 0, 1024, 1024, 1024, 1024, 0, 6, 3773, 3760, 3764, 3781, 3782, 3803, 0, 1, 16200, -89.900, 0.000, -36.300, 0.000, 0.000, -2.900, 0.0, , , , , , 96, , , 57, 57, 57
36.0028800, -118.5646418, 31.200, 10:49:56.833, 16, 0.00, 0.28, 96, 2.800, 2.000, -35.300, 1406, 100, 97, 20, 22610, -19591, 5180, 5396, 16, 14, 1530726596.833, 129, 0, 1024, 1024, 1024, 1024, 0, 6, 3773, 3760, 3764, 3781, 3782, 3803, 0, 1, 16300, -89.900, 0.000, -36.300, 0.000, 0.000, -2.900, 0.0, , , , , , 96, , , 57, 57, 57
36.0028800, -118.5646418, 31.500, 10:49:56.933, 16, 0.00, 0.29, 96, 2.600, 1.700, -35.400, 1406, 100, 97, 20, 22610, -19591, 5180, 5396, 16, 14, 1530726596.933, 77, 0, 1024, 1024, 1024, 1024, 0, 6, 3773, 3760, 3764, 3781, 3782, 3803, 0, 1, 16400, -89.900, 0.000, -36.300, 0.000, 0.000, -2.900, 0.0, , , , , , 96, , , 57, 57, 57
36.0028799, -118.5646418, 32.100, 10:49:57.041, 16, 0.00, 0.29, 96, 2.500, 1.900, -35.400, 1406, 100, 97, 20, 22610, -19591, 5180, 5396, 16, 14, 1530726597.041, 2, 0, 1024, 1024, 1024, 1024, 0, 6, 3773, 3760, 3764, 3781, 3782, 3803, 0, 1, 16508, -89.900, 0.000, -36.300, 0.000, 0.000, -3.000, 0.0, , , , , , 96, , , 57, 57, 57
36.0028799, -118.5646418, 32.100, 10:49:57.133, 16, 0.00, 0.29, 96, 2.500, 1.900, -35.400, 1406, 100, 97, 20, 22610, -19591, 5180, 5396, 16, 14, 1530726597.133, 94, 0, 1024, 1024, 1024, 1024, 0, 6, 3773, 3760, 3764, 3781, 3782, 3803, 0, 1, 16600, -89.900, 0.000, -36.300, 0.000, 0.000, -3.000, 0.0, , , , , , 96, , , 57, 57, 57
36.0028799, -118.5646418, 32.700, 10:49:57.233, 16, 0.00, 0.28, 96, 2.400, 2.200, -35.400, 1406, 100, 97, 20, 22658, -19828, 5180, 5396, 16, 14, 1530726597.233, 81, 0, 1024, 1024, 1024, 1024, 0, 6, 3762, 3756, 3755, 3765, 3767, 3804, 0, 1, 16700, -89.900, 0.000, -36.300, 0.000, 0.000, -2.900, 0.0, , , , , , 96, , , 57, 57, 57
36.0028800, -118.5646417, 33.000, 10:49:57.333, 16, 0.00, 0.28, 96, 2.400, 2.300, -35.300, 1406, 100, 97, 20, 22658, -19828, 5180, 5396, 16, 14, 1530726597.333, 88, 0, 1024, 1024, 1024, 1024, 0, 6, 3762, 3756, 3755, 3765, 3767, 3804, 0, 1, 16800, -89.900, 0.000, -36.300, 0.000, 0.000, -3.000, 0.0, , , , , , 96, , , 57, 57, 57
36.0028800, -118.5646417, 33.300, 10:49:57.433, 16, 0.00, 0.28, 96, 2.300, 2.300, -35.200, 1406, 100, 97, 20, 22658, -19828, 5180, 5396, 16, 14, 1530726597.433, 90, 0, 1024, 1024, 1024, 1024, 0, 6, 3762, 3756, 3755, 3765, 3767, 3804, 0, 1, 16900, -89.900, 0.000, -36.300, 0.000, 0.000, -2.900, 0.0, , , , , , 96, , , 57, 57, 57
36.0028800, -118.5646417, 33.300, 10:49:57.533, 16, 0.00, 0.28, 96, 2.300, 2.300, -35.200, 1406, 100, 97, 20, 22658, -19828, 5180, 5396, 16, 14, 1530726597.533, 190, 0, 1024, 1024, 1024, 1024, 0, 6, 3762, 3756, 3755, 3765, 3767, 3804, 0, 1, 17000, -89.900, 0.000, -36.300, 0.000, 0.000, -2.900, 0.0, , , , , , 96, , , 57, 57, 57
36.0028800, -118.5646417, 33.900, 10:49:57.633, 17, 0.00, 0.27, 96, 2.100, 2.400, -34.800, 1406, 100, 97, 20, 22658, -19828, 5180, 5396, 16, 14, 1530726597.633, 63, 0, 1024, 1024, 1024, 1024, 0, 6, 3762, 3756, 3755, 3765, 3767, 3804, 0, 1, 17100, -89.900, 0.000, -36.300, 0.000, 0.000, -3.000, 0.0, , , , , , 96, , , 57, 57, 57
36.0028800, -118.5646417, 33.900, 10:49:57.733, 17, 0.00, 0.27, 96, 2.100, 2.400, -34.800, 1406, 100, 88, 20, 22658, -19828, 5180, 5396, 16, 14, 1530726597.733, 163, 0, 1024, 1024, 1024, 1024, 0, 6, 3762, 3756, 3755, 3765, 3767, 3804, 0, 1, 17200, -89.900, 0.000, -36.300, 0.000, 0.000, -3.000, 0.0, , , , , , 96, , , 57, 57, 57
36.0028800, -118.5646417, 33.900, 10:49:57.833, 17, 0.00, 0.27, 96, 2.100, 2.400, -34.800, 1406, 100, 88, 20, 22658, -19828, 5180, 5396, 16, 14, 1530726597.833, 263, 0, 1024, 1024, 1024, 1024, 0, 6, 3762, 3756, 3755, 3765, 3767, 3804, 0, 1, 17300, -89.900, 0.000, -36.300, 0.000, 0.000, -3.000, 0.0, , , , , , 96, , , 57, 57, 57
36.0028800, -118.5646416, 34.800, 10:49:57.933, 17, 0.00, 0.27, 96, 2.700, 2.200, -34.600, 1406, 100, 88, 20, 22658, -19828, 5180, 5396, 16, 14, 1530726597.933, 57, 0, 1024, 1024, 1024, 1024, 0, 6, 3762, 3756, 3755, 3765, 3767, 3804, 0, 1, 17400, -89.900, 0.000, -36.300, 0.000, 0.000, -3.200, 0.0, , , , , , 96, , , 57, 57, 57
36.0028799, -118.5646417, 35.200, 10:49:58.033, 17, 0.00, 0.28, 96, 3.500, 2.400, -34.900, 1406, 100, 88, 20, 22658, -19828, 5180, 5396, 16, 14, 1530726598.033, 66, 0, 1024, 1024, 1024, 1024, 0, 6, 3762, 3756, 3755, 3765, 3767, 3804, 0, 1, 17500, -89.900, 0.000, -36.300, 0.000, 0.000, -3.100, 0.0, , , , , , 96, , , 57, 57, 57
36.0028799, -118.5646417, 35.500, 10:49:58.132, 17, 0.00, 0.28, 96, 3.800, 2.400, -35.200, 1406, 100, 88, 20, 22539, -20563, 5180, 5396, 16, 14, 1530726598.133, 45, 0, 1024, 1024, 1024, 1024, 0, 6, 3761, 3735, 3753, 3762, 3761, 3794, 0, 1, 17599, -89.900, 0.000, -36.300, 0.000, 0.000, -3.000, 0.0, , , , , , 96, , , 57, 57, 57
36.0028799, -118.5646418, 35.800, 10:49:58.233, 17, 0.00, 0.29, 96, 3.700, 2.300, -35.500, 1406, 100, 84, 20, 22539, -20563, 5180, 5396, 16, 14, 1530726598.233, 52, 0, 1024, 1024, 1024, 1024, 0, 6, 3761, 3735, 3753, 3762, 3761, 3794, 0, 1, 17700, -89.900, 0.000, -36.300, 0.000, 0.000, -2.900, 0.0, , , , , , 96, , , 57, 57, 57
36.0028799, -118.5646418, 36.100, 10:49:58.333, 17, 0.00, 0.29, 96, 3.300, 2.300, -35.600, 1406, 100, 84, 20, 22539, -20563, 5180, 5396, 16, 14, 1530726598.333, 33, 0, 1024, 1024, 1024, 1024, 0, 6, 3761, 3735, 3753, 3762, 3761, 3794, 0, 1, 17800, -89.900, 0.000, -36.300, 0.000, 0.000, -2.900, 0.0, , , , , , 96, , , 57, 57, 57
36.0028799, -118.5646417, 36.300, 10:49:58.433, 17, 0.00, 0.29, 96, 2.900, 2.400, -35.600, 1406, 100, 84, 20, 22539, -20563, 5180, 5396, 16, 14, 1530726598.433, 43, 0, 1024, 1024, 1024, 1024, 0, 6, 3761, 3735, 3753, 3762, 3761, 3794, 0, 1, 17900, -89.900, 0.000, -36.300, 0.000, 0.000, -2.900, 0.0, , , , , , 96, , , 57, 57, 57
36.0028799, -118.5646417, 36.600, 10:49:58.533, 17, 0.00, 0.28, 96, 2.800, 2.300, -35.500, 1406, 100, 84, 20, 22539, -20563, 5180, 5396, 16, 14, 1530726598.533, 35, 0, 1024, 1024, 1024, 1024, 0, 6, 3761, 3735, 3753, 3762, 3761, 3794, 0, 1, 18000, -89.900, 0.000, -36.300, 0.000, 0.000, -2.800, 0.0, , , , , , 96, , , 57, 57, 57
36.0028798, -118.5646417, 36.900, 10:49:58.633, 17, 0.00, 0.28, 96, 2.800, 2.300, -35.500, 1406, 100, 84, 20, 22539, -20563, 5180, 5396, 16, 14, 1530726598.633, 52, 0, 1024, 1024, 1024, 1024, 0, 6, 3761, 3735, 3753, 3762, 3761, 3794, 0, 1, 18100, -89.900, 0.000, -36.300, 0.000, 0.000, -2.900, 0.0, , , , , , 96, , , 57, 57, 57
36.0028798, -118.5646417, 37.200, 10:49:58.733, 17, 0.00, 0.28, 96, 2.800, 2.200, -35.400, 1406, 100, 87, 20, 22539, -20563, 5180, 5396, 16, 14, 1530726598.733, 48, 0, 1024, 1024, 1024, 1024, 0, 6, 3761, 3735, 3753, 3762, 3761, 3794, 0, 1, 18200, -89.900, 0.000, -36.300, 0.000, 0.000, -2.900, 0.0, , , , , , 96, , , 57, 57, 57
36.0028798, -118.5646417, 37.200, 10:49:58.833, 17, 0.00, 0.28, 96, 2.800, 2.200, -35.400, 1406, 100, 87, 20, 22539, -20563, 5180, 5396, 16, 14, 1530726598.833, 148, 0, 1024, 1024, 1024, 1024, 0, 6, 3761, 3735, 3753, 3762, 3761, 3794, 0, 1, 18300, -89.900, 0.000, -36.300, 0.000, 0.000, -2.900, 0.0, , , , , , 96, , , 57, 57, 57
36.0028798, -118.5646416, 37.800, 10:49:58.933, 17, 0.00, 0.28, 96, 2.800, 2.300, -35.300, 1406, 100, 87, 20, 22539, -20563, 5180, 5396, 16, 14, 1530726598.933, 18, 0, 1024, 1024, 1024, 1024, 0, 6, 3761, 3735, 3753, 3762, 3761, 3794, 0, 1, 18400, -89.900, 0.000, -36.300, 0.000, 0.000, -3.100, 0.0, , , , , , 96, , , 57, 57, 57
36.0028798, -118.5646415, 38.100, 10:49:59.033, 17, 0.00, 0.28, 96, 2.700, 2.300, -35.200, 1406, 100, 87, 20, 22539, -20563, 5180, 5396, 16, 14, 1530726599.033, 23, 0, 1024, 1024, 1024, 1024, 0, 6, 3761, 3735, 3753, 3762, 3761, 3794, 0, 1, 18500, -89.900, 0.000, -36.300, 0.000, 0.000, -3.000, 0.0, , , , , , 96, , , 57, 57, 57
36.0028798, -118.5646414, 38.400, 10:49:59.133, 17, 0.00, 0.27, 96, 2.400, 2.100, -35.200, 1406, 100, 87, 20, 22632, -19739, 5180, 5396, 16, 14, 1530726599.133, 24, 0, 1024, 1024, 1024, 1024, 0, 6, 3761, 3735, 3753, 3762, 3761, 3794, 0, 1, 18600, -89.900, 0.000, -36.300, 0.000, 0.000, -2.900, 0.0, , , , , , 96, , , 57, 57, 57
36.0028798, -118.5646414, 38.700, 10:49:59.233, 17, 0.00, 0.26, 96, 2.200, 2.100, -35.200, 1406, 100, 87, 20, 22632, -19739, 5180, 5396, 16, 14, 1530726599.233, 5, 0, 1024, 1024, 1024, 1024, 0, 6, 3761, 3735, 3753, 3762, 3761, 3794, 0, 1, 18700, -89.900, 0.000, -36.300, 0.000, 0.000, -3.000, 0.0, , , , , , 96, , , 57, 57, 57
36.0028798, -118.5646414, 38.700, 10:49:59.332, 17, 0.00, 0.26, 96, 2.200, 2.100, -35.200, 1406, 100, 87, 20, 22632, -19739, 5180, 5396, 16, 14, 1530726599.333, 104, 0, 1024, 1024, 1024, 1024, 0, 6, 3761, 3735, 3753, 3762, 3761, 3794, 0, 1, 18799, -89.900, 0.000, -36.300, 0.000, 0.000, -3.000, 0.0, , , , , , 96, , , 57, 57, 57
36.0028798, -118.5646413, 39.300, 10:49:59.432, 17, 0.00, 0.26, 96, 2.800, 2.100, -35.100, 1406, 100, 87, 20, 22632, -19739, 5180, 5396, 16, 14, 1530726599.432, 12, 0, 1024, 1024, 1024, 1024, 0, 6, 3761, 3735, 3753, 3762, 3761, 3794, 0, 1, 18899, -89.900, 0.000, -36.300, 0.000, 0.000, -3.000, 0.0, , , , , , 96, , , 57, 57, 57
36.0028798, -118.5646412, 39.600, 10:49:59.540, 17, 0.00, 0.25, 96, 2.800, 2.100, -35.200, 1406, 100, 87, 20, 22632, -19739, 5180, 5396, 16, 14, 1530726599.540, 1, 0, 1024, 1024, 1024, 1024, 0, 6, 3761, 3735, 3753, 3762, 3761, 3794, 0, 1, 19007, -89.900, 0.000, -36.300, 0.000, 0.000, -3.000, 0.0, , , , , , 96, , , 57, 57, 57
36.0028798, -118.5646411, 39.900, 10:49:59.633, 17, 0.00, 0.25, 96, 2.600, 2.100, -35.400, 1406, 100, 87, 20, 22632, -19739, 5180, 5396, 16, 14, 1530726599.633, 10, 0, 1024, 1024, 1024, 1024, 0, 6, 3761, 3735, 3753, 3762, 3761, 3794, 0, 1, 19100, -89.900, 0.000, -36.300, 0.000, 0.000, -3.000, 0.0, , , , , , 96, , , 57, 57, 57
36.0028798, -118.5646411, 40.200, 10:49:59.735, 17, 0.00, 0.24, 96, 2.300, 2.000, -35.500, 1406, 100, 87, 20, 22632, -19739, 5180, 5396, 16, 14, 1530726599.735, 2, 0, 1024, 1024, 1024, 1024, 0, 6, 3761, 3735, 3753, 3762, 3761, 3794, 0, 1, 19202, -90.000, 0.000, -36.300, 0.000, 0.000, -3.000, 0.0, , , , , , 96, , , 57, 57, 57
36.0028798, -118.5646411, 40.200, 10:49:59.833, 17, 0.00, 0.24, 96, 2.300, 2.000, -35.500, 1406, 100, 87, 20, 22632, -19739, 5180, 5396, 16, 14, 1530726599.833, 100, 0, 1024, 1024, 1024, 1024, 0, 6, 3761, 3735, 3753, 3762, 3761, 3794, 0, 1, 19300, -90.000, 0.000, -36.300, 0.000, 0.000, -3.000, 0.0, , , , , , 96, , , 57, 57, 57
36.0028798, -118.5646410, 40.500, 10:49:59.933, 17, 0.00, 0.23, 96, 2.100, 1.800, -35.400, 1406, 100, 87, 20, 22632, -19739, 5180, 5396, 16, 14, 1530726599.933, 90, 0, 1024, 1024, 1024, 1024, 0, 6, 3761, 3735, 3753, 3762, 3761, 3794, 0, 1, 19400, -90.000, 0.000, -36.300, 0.000, 0.000, -3.000, 0.0, , , , , , 96, , , 57, 57, 57
36.0028798, -118.5646410, 40.500, 10:50:00.033, 17, 0.00, 0.23, 96, 2.100, 1.800, -35.400, 1406, 100, 87, 20, 22632, -19739, 5180, 5396, 16, 14, 1530726600.033, 190, 0, 1024, 1024, 1024, 1024, 0, 6, 3761, 3735, 3753, 3762, 3761, 3794, 0, 1, 19500, -89.900, 0.000, -36.300, 0.000, 0.000, -3.000, 0.0, , , , , , 96, , , 57, 57, 57
36.0028798, -118.5646408, 41.500, 10:50:00.133, 17, 0.00, 0.22, 96, 1.700, 1.900, -35.200, 1406, 100, 87, 20, 22632, -19739, 5180, 5396, 16, 14, 1530726600.133, 91, 0, 1024, 1024, 1024, 1024, 0, 6, 3761, 3735, 3753, 3762, 3761, 3794, 0, 1, 19600, -89.900, 0.000, -36.300, 0.000, 0.000, -2.900, 0.0, , , , , , 96, , , 57, 57, 57
36.0028798, -118.5646407, 41.800, 10:50:00.233, 17, 0.00, 0.21, 96, 1.500, 1.700, -35.100, 1406, 100, 94, 21, 22632, -19739, 5180, 5396, 16, 14, 1530726600.233, 85, 0, 1024, 1024, 1024, 1024, 0, 6, 3755, 3742, 3762, 3774, 3754, 3782, 0, 1, 19700, -89.900, 0.000, -36.300, 0.000, 0.000, -3.000, 0.0, , , , , , 96, , , 57, 57, 57
36.0028798, -118.5646407, 42.100, 10:50:00.333, 17, 0.00, 0.21, 96, 1.700, 1.800, -34.900, 1406, 100, 94, 21, 22632, -19739, 5180, 5396, 16, 14, 1530726600.333, 74, 0, 1024, 1024, 1024, 1024, 0, 6, 3755, 3742, 3762, 3774, 3754, 3782, 0, 1, 19800, -89.900, 0.000, -36.300, 0.000, 0.000, -3.000, 0.0, , , , , , 96, , , 57, 57, 57
36.0028798, -118.5646407, 42.400, 10:50:00.433, 17, 0.00, 0.21, 96, 2.100, 1.800, -34.800, 1406, 100, 94, 21, 22632, -19739, 5180, 5396, 16, 14, 1530726600.433, 71, 0, 1024, 1024, 1024, 1024, 0, 6, 3755, 3742, 3762, 3774, 3754, 3782, 0, 1, 19900, -89.900, 0.000, -36.300, 0.000, 0.000, -3.000, 0.0, , , , , , 96, , , 57, 57, 57
36.0028798, -118.5646406, 42.700, 10:50:00.533, 17, 0.00, 0.20, 96, 2.300, 1.800, -34.700, 1406, 100, 94, 21, 22632, -19739, 5180, 5396, 16, 14, 1530726600.533, 78, 0, 1024, 1024, 1024, 1024, 0, 6, 3755, 3742, 3762, 3774, 3754, 3782, 0, 1, 20000, -89.900, 0.000, -36.300, 0.000, 0.000, -2.900, 0.0, , , , , , 96, , , 57, 57, 57
36.0028798, -118.5646406, 43.000, 10:50:00.633, 17, 0.00, 0.20, 96, 2.300, 1.900, -34.800, 1406, 100, 94, 21, 22579, -20123, 5180, 5396, 16, 14, 1530726600.633, 62, 0, 1024, 1024, 1024, 1024, 0, 6, 3757, 3745, 3758, 3766, 3760, 3793, 0, 1, 20100, -89.900, 0.000, -36.300, 0.000, 0.000, -2.900, 0.0, , , , , , 96, , , 57, 57, 57
36.0028798, -118.5646406, 43.000, 10:50:00.733, 17, 0.00, 0.20, 96, 2.300, 1.900, -34.800, 1406, 100, 93, 21, 22579, -20123, 5180, 5396, 16, 14, 1530726600.733, 162, 0, 1024, 1024, 1024, 1024, 0, 6, 3757, 3745, 3758, 3766, 3760, 3793, 0, 1, 20200, -89.900, 0.000, -36.300, 0.000, 0.000, -2.900, 0.0, , , , , , 96, , , 57, 57, 57
36.0028798, -118.5646405, 43.600, 10:50:00.833, 17, 0.00, 0.20, 96, 2.800, 1.900, -35.100, 1406, 100, 93, 21, 22579, -20123, 5180, 5396, 16, 14, 1530726600.833, 35, 0, 1024, 1024, 1024, 1024, 0, 6, 3757, 3745, 3758, 3766, 3760, 3793, 0, 1, 20300, -89.900, 0.000, -36.300, 0.000, 0.000, -3.000, 0.0, , , , , , 96, , , 57, 57, 57
36.0028798, -118.5646405, 43.900, 10:50:00.933, 17, 0.00, 0.20, 96, 2.900, 1.900, -35.200, 1406, 100, 93, 21, 22579, -20123, 5180, 5396, 16, 14, 1530726600.933, 55, 0, 1024, 1024, 1024, 1024, 0, 6, 3757, 3745, 3758, 3766, 3760, 3793, 0, 1, 20400, -89.900, 0.000, -36.300, 0.000, 0.000, -2.900, 0.0, , , , , , 96, , , 57, 57, 57
36.0028798, -118.5646405, 44.200, 10:50:01.033, 17, 0.00, 0.20, 96, 2.700, 2.000, -35.300, 1406, 100, 93, 21, 22579, -20123, 5180, 5396, 16, 14, 1530726601.033, 15, 0, 1024, 1024, 1024, 1024, 0, 6, 3757, 3745, 3758, 3766, 3760, 3793, 0, 1, 20500, -89.900, 0.000, -36.300, 0.000, 0.000, -3.000, 0.0, , , , , , 96, , , 57, 57, 57
36.0028798, -118.5646405, 44.500, 10:50:01.132, 17, 0.00, 0.20, 96, 2.800, 2.000, -35.400, 1406, 100, 93, 21, 22579, -20123, 5180, 5396, 16, 14, 1530726601.132, 41, 0, 1024, 1024, 1024, 1024, 0, 6, 3757, 3745, 3758, 3766, 3760, 3793, 0, 1, 20599, -89.900, 0.000, -36.300, 0.000, 0.000, -2.900, 0.0, , , , , , 96, , , 57, 57, 57
36.0028798, -118.5646405, 44.800, 10:50:01.233, 17, 0.00, 0.20, 96, 2.800, 2.300, -35.500, 1406, 100, 95, 21, 22579, -20123, 5180, 5396, 16, 14, 1530726601.233, 43, 0, 1024, 1024, 1024, 1024, 0, 6, 3757, 3745, 3758, 3766, 3760, 3793, 0, 1, 20700, -89.900, 0.000, -36.300, 0.000, 0.000, -2.900, 0.0, , , , , , 96, , , 57, 57, 57
36.0028799, -118.5646405, 45.100, 10:50:01.333, 17, 0.00, 0.20, 96, 2.700, 2.300, -35.500, 1406, 100, 95, 21, 22579, -20123, 5180, 5396, 16, 14, 1530726601.333, 32, 0, 1024, 1024, 1024, 1024, 0, 6, 3757, 3745, 3758, 3766, 3760, 3793, 0, 1, 20800, -89.900, 0.000, -36.300, 0.000, 0.000, -2.900, 0.0, , , , , , 96, , , 57, 57, 57
36.0028799, -118.5646405, 45.400, 10:50:01.433, 17, 0.00, 0.19, 96, 2.500, 2.400, -35.500, 1406, 100, 95, 21, 22579, -20123, 5180, 5396, 16, 14, 1530726601.433, 12, 0, 1024, 1024, 1024, 1024, 0, 6, 3757, 3745, 3758, 3766, 3760, 3793, 0, 1, 20899, -89.900, 0.000, -36.300, 0.000, 0.000, -2.900, 0.0, , , , , , 96, , , 57, 57, 57
