Latitude, Longitude, Altitude (m), Time, Sats, Speed (m/s), Range (m), Battery (%), Roll (deg), Pitch (deg), Yaw (deg), Images, HD Signal (%), RC Signal (%), Battery Temp (C), Battery Voltage (mV), Battery Current (mA), Battery Energy (mAh), Battery Capacity (mAh), Battery Discharges, flyState, timestamp (Unix), LastUpdate (ms), radioChannel, Rc_elevator, Rc_aileron, Rc_throttle, Rc_rudder, Rc_gyro, Dronetype, Battery_Cell1 (mV), Battery_Cell2 (mV), Battery_Cell3 (mV), Battery_Cell4 (mV), Battery_Cell5 (mV), Battery_Cell6 (mV), Video, isFlying, elapsedTime (ms), gimbalPitch (deg), gimbalRoll (deg), gimbalYaw (deg), VelocityX (m/s), VelocityY (m/s), VelocityZ (m/s), GroundSmear (cm), App Version, Aircraft Name, Aircraft Firmware, Aircraft Serial Number, Battery Serial Number, Battery Lifetime (%), App_Tip, App_Warning, CurrentFlightStartingIndex, CurrentFlightLastVisitedWaypoint, PreviousFlightEndingWaypointIndex
35.7347998, -118.6147851, 0.000, 15:08:38.613, 14, 0.20, 0.08, 100, -1.100, -0.600, -49.000, 783, 100, 100, 27, 25744, -3860, 5358, 5358, 18, 11, 1530828518.614, 42, 0, 1024, 1024, 1024, 1024, 0, 6, 4280, 4290, 4298, 4294, 4299, 4311, 0, 1, 3026, -89.900, 0.000, -49.100, 0.000, -0.200, -0.100, 0.0, MapPilot_2.8.1_04242018, Dendroctonus I, 1.3.1.00, 041DDC1887, 1058163200563, 96, DJI_0789.jpg, Starting Mission from Lat/Long: 35.73480/-118.61479 Camera: Zenmuse X3 - Overlap: 90/90 - Active Connection: No, 31, 31, 31
35.7347998, -118.6147853, 0.000, 15:08:38.688, 14, 0.20, 0.10, 100, -0.500, 0.200, -48.800, 783, 100, 100, 27, 25744, -3860, 5358, 5358, 18, 11, 1530828518.688, 22, 0, 1024, 1024, 1024, 1024, 0, 6, 4280, 4290, 4298, 4294, 4299, 4311, 0, 1, 3100, -89.900, 0.000, -49.100, 0.000, -0.200, -0.200, 0.0, , , , , , 96, , , 31, 31, 31
35.7347998, -118.6147855, 0.000, 15:08:38.788, 15, 0.20, 0.12, 100, 0.100, 0.700, -48.800, 783, 100, 100, 27, 25744, -3860, 5358, 5358, 18, 11, 1530828518.788, 10, 0, 1024, 1024, 1024, 1024, 0, 6, 4280, 4290, 4298, 4294, 4299, 4311, 0, 1, 3200, -89.900, 0.000, -49.100, 0.000, -0.200, -0.300, 0.0, , , , , , 96, , , 31, 31, 31
35.7347998, -118.6147857, 0.000, 15:08:38.888, 15, 0.20, 0.13, 100, 0.500, 1.100, -48.800, 783, 100, 100, 27, 25744, -3860, 5358, 5358, 18, 11, 1530828518.888, 16, 0, 1024, 1024, 1024, 1024, 0, 6, 4280, 4290, 4298, 4294, 4299, 4311, 0, 1, 3300, -89.900, 0.000, -49.100, 0.000, -0.200, -0.300, 0.0, , , , , , 96, , , 31, 31, 31
35.7347998, -118.6147861, 0.100, 15:08:38.988, 14, 0.10, 0.16, 100, 0.800, 1.400, -48.700, 783, 100, 100, 27, 25744, -3860, 5358, 5358, 18, 11, 1530828518.988, 5, 0, 1024, 1024, 1024, 1024, 0, 6, 4280, 4290, 4298, 4294, 4299, 4311, 0, 1, 3400, -89.900, 0.000, -49.100, 0.000, -0.100, -0.400, 0.0, , , , , , 96, , , 31, 31, 31
35.7347998, -118.6147861, 0.100, 15:08:39.088, 14, 0.10, 0.16, 100, 0.800, 1.400, -48.700, 783, 100, 100, 27, 25744, -3860, 5358, 5358, 18, 11, 1530828519.088, 105, 0, 1024, 1024, 1024, 1024, 0, 6, 4280, 4290, 4298, 4294, 4299, 4311, 0, 1, 3500, -89.900, 0.000, -49.100, 0.000, -0.100, -0.400, 0.0, , , , , , 96, , , 31, 31, 31
35.7347998, -118.6147861, 0.100, 15:08:39.188, 14, 0.10, 0.16, 100, 0.800, 1.400, -48.700, 783, 100, 100, 27, 25138, -6578, 5358, 5358, 18, 11, 1530828519.188, 205, 0, 1024, 1024, 1024, 1024, 0, 6, 4280, 4290, 4298, 4294, 4299, 4311, 0, 1, 3600, -89.900, 0.000, -49.100, 0.000, -0.100, -0.400, 0.0, , , , , , 96, , , 31, 31, 31
35.7347997, -118.6147863, 0.200, 15:08:39.288, 14, 0.10, 0.18, 100, 0.700, 1.000, -48.500, 783, 100, 100, 27, 25138, -6578, 5358, 5358, 18, 11, 1530828519.288, 88, 0, 1024, 1024, 1024, 1024, 0, 6, 4184, 4172, 4200, 4189, 4149, 4161, 0, 1, 3700, -89.900, 0.000, -49.100, 0.000, -0.100, -0.500, 0.0, , , , , , 96, , , 31, 31, 31
35.7347997, -118.6147865, 0.300, 15:08:39.388, 14, 0.00, 0.20, 100, 0.600, 0.900, -48.600, 783, 100, 100, 27, 25138, -6578, 5358, 5358, 18, 11, 1530828519.388, 83, 0, 1024, 1024, 1024, 1024, 0, 6, 4184, 4172, 4200, 4189, 4149, 4161, 0, 1, 3800, -89.900, 0.000, -49.100, 0.000, 0.000, -0.400, 0.0, , , , , , 96, , , 31, 31, 31
35.7347996, -118.6147866, 0.300, 15:08:39.487, 14, 0.00, 0.21, 100, 0.600, 0.600, -48.800, 783, 100, 100, 27, 25138, -6578, 5358, 5358, 18, 11, 1530828519.488, 88, 0, 1024, 1024, 1024, 1024, 0, 6, 4184, 4172, 4200, 4189, 4149, 4161, 0, 1, 3900, -89.900, 0.000, -49.100, 0.000, 0.000, -0.400, 0.0, , , , , , 96, , , 31, 31, 31
35.7347995, -118.6147866, 0.400, 15:08:39.588, 14, 0.00, 0.22, 100, 0.700, 0.300, -49.100, 783, 100, 100, 27, 25138, -6578, 5358, 5358, 18, 11, 1530828519.588, 65, 0, 1024, 1024, 1024, 1024, 0, 6, 4184, 4172, 4200, 4189, 4149, 4161, 0, 1, 4000, -90.000, 0.000, -49.100, 0.000, 0.000, -0.500, 0.0, , , , , , 96, , , 31, 31, 31
35.7347995, -118.6147867, 0.500, 15:08:39.688, 14, 0.00, 0.23, 100, 0.900, 0.000, -49.200, 783, 100, 100, 27, 25138, -6578, 5358, 5358, 18, 11, 1530828519.688, 47, 0, 1024, 1024, 1024, 1024, 0, 6, 4184, 4172, 4200, 4189, 4149, 4161, 0, 1, 4100, -90.000, 0.000, -49.100, 0.000, 0.000, -0.500, 0.0, , , , , , 96, , , 31, 31, 31
35.7347994, -118.6147869, 0.500, 15:08:39.788, 14, 0.00, 0.24, 100, 1.100, 0.000, -49.200, 783, 100, 100, 27, 25138, -6578, 5358, 5358, 18, 11, 1530828519.788, 48, 0, 1024, 1024, 1024, 1024, 0, 6, 4184, 4172, 4200, 4189, 4149, 4161, 0, 1, 4200, -89.900, 0.000, -49.100, 0.000, 0.000, -0.500, 0.0, , , , , , 96, , , 31, 31, 31
35.7347994, -118.6147869, 0.600, 15:08:39.888, 14, 0.00, 0.25, 100, 1.300, 0.000, -49.200, 783, 100, 100, 27, 25138, -6578, 5358, 5358, 18, 11, 1530828519.888, 52, 0, 1024, 1024, 1024, 1024, 0, 6, 4184, 4172, 4200, 4189, 4149, 4161, 0, 1, 4300, -90.000, 0.000, -49.100, 0.000, 0.000, -0.500, 0.0, , , , , , 96, , , 31, 31, 31
35.7347994, -118.6147869, 0.600, 15:08:39.988, 14, 0.00, 0.25, 100, 1.300, 0.000, -49.100, 783, 100, 100, 27, 25138, -6578, 5358, 5358, 18, 11, 1530828519.988, 57, 0, 1024, 1024, 1024, 1024, 0, 6, 4184, 4172, 4200, 4189, 4149, 4161, 0, 1, 4400, -89.900, 0.000, -49.100, 0.000, 0.000, -0.500, 0.0, , , , , , 96, , , 31, 31, 31
35.7347992, -118.6147870, 0.700, 15:08:40.087, 14, 0.00, 0.26, 100, 1.400, 0.000, -49.100, 783, 100, 100, 27, 24557, -16339, 5250, 5358, 18, 11, 1530828520.088, 47, 0, 1024, 1024, 1024, 1024, 0, 6, 4082, 4086, 4099, 4087, 4089, 4102, 0, 1, 4500, -89.900, 0.000, -49.100, 0.000, 0.000, -0.400, 0.0, , , , , , 96, , , 31, 31, 31
35.7347991, -118.6147871, 0.700, 15:08:40.188, 15, 0.00, 0.28, 100, 1.400, 0.000, -49.200, 783, 100, 100, 27, 24557, -16339, 5250, 5358, 18, 11, 1530828520.188, 54, 0, 1024, 1024, 1024, 1024, 0, 6, 4082, 4086, 4099, 4087, 4089, 4102, 0, 1, 4600, -90.000, 0.000, -49.100, 0.000, 0.000, -0.400, 0.0, , , , , , 96, , , 31, 31, 31
35.7347990, -118.6147871, 0.800, 15:08:40.288, 15, 0.00, 0.28, 100, 1.200, -0.200, -49.300, 783, 100, 100, 27, 24557, -16339, 5250, 5358, 18, 11, 1530828520.288, 42, 0, 1024, 1024, 1024, 1024, 0, 6, 4082, 4086, 4099, 4087, 4089, 4102, 0, 1, 4700, -90.000, 0.000, -49.100, 0.000, 0.000, -0.400, 0.0, , , , , , 96, , , 31, 31, 31
35.7347990, -118.6147872, 0.800, 15:08:40.387, 15, 0.00, 0.29, 100, 1.200, -0.300, -49.300, 783, 100, 100, 27, 24557, -16339, 5250, 5358, 18, 11, 1530828520.388, 37, 0, 1024, 1024, 1024, 1024, 0, 6, 4082, 4086, 4099, 4087, 4089, 4102, 0, 1, 4800, -89.900, 0.000, -49.100, 0.000, 0.000, -0.400, 0.0, , , , , , 96, , , 31, 31, 31
35.7347989, -118.6147872, 0.900, 15:08:40.487, 15, 0.00, 0.30, 100, 1.300, -0.500, -49.200, 783, 100, 100, 27, 24557, -16339, 5250, 5358, 18, 6, 1530828520.488, 39, 0, 1024, 1024, 1024, 1024, 0, 6, 4082, 4086, 4099, 4087, 4089, 4102, 0, 1, 4900, -90.000, 0.000, -49.100, 0.000, 0.000, -0.500, 0.0, , , , , , 96, , , 31, 31, 31
35.7347988, -118.6147873, 1.000, 15:08:40.588, 15, 0.00, 0.30, 98, 1.600, -0.600, -49.200, 783, 100, 100, 27, 24557, -16339, 5250, 5358, 18, 14, 1530828520.588, 36, 0, 1024, 1024, 1024, 1024, 0, 6, 4082, 4086, 4099, 4087, 4089, 4102, 0, 1, 5000, -89.900, 0.000, -49.100, 0.000, 0.000, -0.500, 0.0, , , , , , 96, , , 31, 31, 31
35.7347988, -118.6147872, 1.000, 15:08:40.687, 15, 0.00, 0.31, 98, 1.100, -0.800, -49.100, 783, 100, 100, 27, 24557, -16339, 5250, 5358, 18, 14, 1530828520.688, 27, 0, 1024, 1024, 1024, 1024, 0, 6, 4082, 4086, 4099, 4087, 4089, 4102, 0, 1, 5100, -90.000, 0.000, -49.100, 0.000, 0.000, -0.300, 0.0, , , , , , 96, , , 31, 31, 31
35.7347987, -118.6147872, 1.100, 15:08:40.787, 15, 0.00, 0.31, 98, 0.900, -0.700, -48.900, 783, 100, 100, 27, 24557, -16339, 5250, 5358, 18, 14, 1530828520.788, 30, 0, 1024, 1024, 1024, 1024, 0, 6, 4082, 4086, 4099, 4087, 4089, 4102, 0, 1, 5200, -89.900, 0.000, -49.100, 0.000, 0.000, -0.200, 0.0, , , , , , 96, , , 31, 31, 31
35.7347987, -118.6147872, 1.100, 15:08:40.887, 15, 0.00, 0.31, 98, 0.700, -0.300, -48.600, 783, 100, 100, 27, 24557, -16339, 5250, 5358, 18, 14, 1530828520.888, 23, 0, 1024, 1024, 1024, 1024, 0, 6, 4082, 4086, 4099, 4087, 4089, 4102, 0, 1, 5300, -89.900, 0.000, -49.100, 0.000, 0.000, -0.200, 0.0, , , , , , 96, , , 31, 31, 31
35.7347987, -118.6147872, 1.100, 15:08:40.998, 15, 0.00, 0.31, 98, 0.700, -0.200, -48.400, 783, 100, 100, 27, 24557, -16339, 5250, 5358, 18, 14, 1530828520.998, 1, 0, 1024, 1024, 1024, 1024, 0, 6, 4082, 4086, 4099, 4087, 4089, 4102, 0, 1, 5410, -89.900, 0.000, -49.100, 0.000, 0.000, -0.400, 0.0, , , , , , 96, , , 31, 31, 31
35.7347986, -118.6147872, 1.200, 15:08:41.089, 15, 0.00, 0.32, 98, 0.600, -0.300, -48.400, 783, 100, 100, 27, 24460, -16559, 5250, 5358, 18, 14, 1530828521.089, 3, 0, 1024, 1024, 1024, 1024, 0, 6, 4082, 4086, 4099, 4087, 4089, 4102, 0, 1, 5501, -90.000, 0.000, -49.100, 0.000, 0.000, -0.500, 0.0, , , , , , 96, , , 31, 31, 31
35.7347985, -118.6147873, 1.300, 15:08:41.188, 15, 0.00, 0.33, 98, 0.800, -0.600, -48.500, 783, 100, 100, 27, 24460, -16559, 5250, 5358, 18, 14, 1530828521.188, 7, 0, 1024, 1024, 1024, 1024, 0, 6, 4070, 4059, 4087, 4074, 4088, 4129, 0, 1, 5600, -90.000, 0.000, -49.100, 0.000, 0.000, -0.700, 0.0, , , , , , 96, , , 31, 31, 31
35.7347985, -118.6147873, 1.300, 15:08:41.287, 15, 0.00, 0.33, 98, 0.800, -0.600, -48.500, 783, 100, 100, 27, 24460, -16559, 5250, 5358, 18, 14, 1530828521.288, 106, 0, 1024, 1024, 1024, 1024, 0, 6, 4070, 4059, 4087, 4074, 4088, 4129, 0, 1, 5700, -90.000, 0.000, -49.100, 0.000, 0.000, -0.700, 0.0, , , , , , 96, , , 31, 31, 31
35.7347984, -118.6147872, 1.400, 15:08:41.387, 15, 0.00, 0.33, 98, 1.000, -0.900, -48.700, 783, 100, 100, 27, 24460, -16559, 5250, 5358, 18, 14, 1530828521.388, 94, 0, 1024, 1024, 1024, 1024, 0, 6, 4070, 4059, 4087, 4074, 4088, 4129, 0, 1, 5800, -90.000, 0.000, -49.100, 0.000, 0.000, -0.900, 0.0, , , , , , 96, , , 31, 31, 31
35.7347983, -118.6147872, 1.500, 15:08:41.487, 15, 0.00, 0.34, 98, 1.200, -0.900, -48.700, 783, 100, 100, 27, 24460, -16559, 5250, 5358, 18, 14, 1530828521.488, 94, 0, 1024, 1024, 1024, 1024, 0, 6, 4070, 4059, 4087, 4074, 4088, 4129, 0, 1, 5900, -90.000, 0.000, -49.100, 0.000, 0.000, -1.100, 0.0, , , , , , 96, , , 31, 31, 31
35.7347982, -118.6147873, 1.600, 15:08:41.587, 15, 0.00, 0.35, 98, 1.300, -0.900, -48.700, 783, 100, 100, 27, 24460, -16559, 5250, 5358, 18, 14, 1530828521.588, 87, 0, 1024, 1024, 1024, 1024, 0, 6, 4070, 4059, 4087, 4074, 4088, 4129, 0, 1, 6000, -90.000, 0.000, -49.100, 0.000, 0.000, -1.200, 0.0, , , , , , 96, , , 31, 31, 31
35.7347979, -118.6147872, 1.900, 15:08:41.687, 15, 0.00, 0.37, 98, 1.400, -1.200, -48.700, 783, 100, 100, 27, 24460, -16559, 5250, 5358, 18, 14, 1530828521.688, 53, 0, 1024, 1024, 1024, 1024, 0, 6, 4070, 4059, 4087, 4074, 4088, 4129, 0, 1, 6100, -90.000, 0.000, -49.100, 0.000, 0.000, -1.600, 0.0, , , , , , 96, , , 31, 31, 31
35.7347978, -118.6147872, 2.100, 15:08:41.787, 15, 0.00, 0.37, 98, 1.300, -1.700, -48.600, 783, 100, 100, 27, 24460, -16559, 5250, 5358, 18, 14, 1530828521.788, 57, 0, 1024, 1024, 1024, 1024, 0, 6, 4070, 4059, 4087, 4074, 4088, 4129, 0, 1, 6200, -90.000, 0.000, -49.100, 0.000, 0.000, -1.700, 0.0, , , , , , 96, , , 31, 31, 31
35.7347977, -118.6147871, 2.200, 15:08:41.887, 15, 0.00, 0.38, 98, 1.700, -1.700, -48.500, 783, 100, 100, 27, 24460, -16559, 5250, 5358, 18, 14, 1530828521.888, 47, 0, 1024, 1024, 1024, 1024, 0, 6, 4070, 4059, 4087, 4074, 4088, 4129, 0, 1, 6300, -90.000, 0.000, -49.100, 0.000, 0.000, -1.900, 0.0, , , , , , 96, , , 31, 31, 31
35.7347976, -118.6147870, 2.400, 15:08:41.987, 15, 0.00, 0.38, 98, 1.600, -1.500, -48.600, 783, 100, 100, 27, 24460, -16559, 5250, 5358, 18, 14, 1530828521.988, 42, 0, 1024, 1024, 1024, 1024, 0, 6, 4070, 4059, 4087, 4074, 4088, 4129, 0, 1, 6400, -90.000, 0.000, -49.100, 0.000, 0.000, -2.200, 0.0, , , , , , 96, , , 31, 31, 31
35.7347976, -118.6147869, 2.700, 15:08:42.087, 15, 0.00, 0.38, 98, 1.000, -1.800, -48.600, 783, 100, 100, 27, 24326, -17707, 5250, 5358, 18, 14, 1530828522.088, 31, 0, 1024, 1024, 1024, 1024, 0, 6, 4051, 4034, 4060, 4033, 4030, 4052, 0, 1, 6500, -90.000, 0.000, -49.100, 0.000, 0.000, -2.500, 0.0, , , , , , 96, , , 31, 31, 31
35.7347976, -118.6147869, 3.000, 15:08:42.187, 15, 0.00, 0.37, 98, 0.300, -1.800, -48.700, 783, 100, 100, 27, 24326, -17707, 5250, 5358, 18, 14, 1530828522.188, 49, 0, 1024, 1024, 1024, 1024, 0, 6, 4051, 4034, 4060, 4033, 4030, 4052, 0, 1, 6600, -90.000, 0.000, -49.100, 0.000, 0.000, -2.800, 0.0, , , , , , 96, , , 31, 31, 31
35.7347977, -118.6147866, 3.300, 15:08:42.287, 15, 0.00, 0.35, 98, -0.100, -1.800, -48.700, 783, 100, 100, 27, 24326, -17707, 5250, 5358, 18, 14, 1530828522.288, 52, 0, 1024, 1024, 1024, 1024, 0, 6, 4051, 4034, 4060, 4033, 4030, 4052, 0, 1, 6700, -90.000, 0.000, -49.100, 0.000, 0.000, -2.900, 0.0, , , , , , 96, , , 31, 31, 31
35.7347978, -118.6147864, 3.600, 15:08:42.387, 15, 0.00, 0.34, 98, -0.600, -1.600, -48.700, 783, 100, 100, 27, 24326, -17707, 5250, 5358, 18, 14, 1530828522.388, 46, 0, 1024, 1024, 1024, 1024, 0, 6, 4051, 4034, 4060, 4033, 4030, 4052, 0, 1, 6800, -89.900, 0.000, -49.100, 0.000, 0.000, -2.900, 0.0, , , , , , 96, , , 31, 31, 31
35.7347978, -118.6147863, 3.900, 15:08:42.487, 15, 0.00, 0.33, 98, -0.800, -1.300, -48.700, 783, 100, 100, 27, 24326, -17707, 5250, 5358, 18, 14, 1530828522.488, 50, 0, 1024, 1024, 1024, 1024, 0, 6, 4051, 4034, 4060, 4033, 4030, 4052, 0, 1, 6900, -89.900, 0.000, -49.100, 0.000, 0.000, -3.100, 0.0, , , , , , 96, , , 31, 31, 31
35.7347978, -118.6147862, 4.200, 15:08:42.587, 15, 0.00, 0.33, 98, -0.700, -1.200, -48.800, 783, 100, 100, 27, 24326, -17707, 5250, 5358, 18, 14, 1530828522.588, 20, 0, 1024, 1024, 1024, 1024, 0, 6, 4051, 4034, 4060, 4033, 4030, 4052, 0, 1, 7000, -89.900, 0.000, -49.100, 0.000, 0.000, -3.100, 0.0, , , , , , 96, , , 31, 31, 31
35.7347978, -118.6147862, 4.500, 15:08:42.687, 15, 0.00, 0.32, 98, -0.400, -1.200, -48.800, 783, 100, 100, 27, 24326, -17707, 5250, 5358, 18, 14, 1530828522.688, 12, 0, 1024, 1024, 1024, 1024, 0, 6, 4051, 4034, 4060, 4033, 4030, 4052, 0, 1, 7100, -89.900, 0.000, -49.100, 0.000, 0.000, -3.200, 0.0, , , , , , 96, , , 31, 31, 31
35.7347978, -118.6147862, 4.800, 15:08:42.787, 15, 0.00, 0.32, 98, -0.100, -1.200, -48.800, 783, 100, 100, 27, 24326, -17707, 5250, 5358, 18, 14, 1530828522.788, 19, 0, 1024, 1024, 1024, 1024, 0, 6, 4051, 4034, 4060, 4033, 4030, 4052, 0, 1, 7200, -89.900, 0.000, -49.100, 0.000, 0.000, -3.200, 0.0, , , , , , 96, , , 31, 31, 31
35.7347978, -118.6147862, 5.200, 15:08:42.887, 15, 0.00, 0.32, 98, 0.100, -1.000, -48.700, 783, 100, 100, 27, 24326, -17707, 5250, 5358, 18, 14, 1530828522.888, 23, 0, 1024, 1024, 1024, 1024, 0, 6, 4051, 4034, 4060, 4033, 4030, 4052, 0, 1, 7300, -89.900, 0.000, -49.100, 0.000, 0.000, -3.200, 0.0, , , , , , 96, , , 31, 31, 31
35.7347978, -118.6147861, 5.500, 15:08:42.987, 16, 0.00, 0.32, 98, 0.200, -0.600, -48.600, 783, 100, 100, 27, 24326, -17707, 5250, 5358, 18, 14, 1530828522.988, 9, 0, 1024, 1024, 1024, 1024, 0, 6, 4051, 4034, 4060, 4033, 4030, 4052, 0, 1, 7400, -89.900, 0.000, -49.100, 0.000, 0.000, -3.300, 0.0, , , , , , 96, , , 31, 31, 31
35.7347978, -118.6147862, 5.900, 15:08:43.088, 16, 0.00, 0.32, 98, 0.100, -0.700, -48.500, 783, 100, 100, 27, 23803, -23565, 5250, 5358, 18, 14, 1530828523.088, 14, 0, 1024, 1024, 1024, 1024, 0, 6, 4051, 4034, 4060, 4033, 4030, 4052, 0, 1, 7500, -89.900, 0.000, -49.100, 0.000, 0.000, -3.300, 0.0, , , , , , 96, , , 31, 31, 31
35.7347978, -118.6147862, 6.200, 15:08:43.187, 16, 0.00, 0.32, 98, 0.000, -0.600, -48.500, 783, 100, 100, 27, 23803, -23565, 5250, 5358, 18, 14, 1530828523.188, 6, 0, 1024, 1024, 1024, 1024, 0, 6, 4051, 4034, 4060, 4033, 4030, 4052, 0, 1, 7600, -89.900, 0.000, -49.100, 0.000, 0.000, -3.300, 0.0, , , , , , 96, , , 31, 31, 31
35.7347978, -118.6147862, 6.600, 15:08:43.287, 16, 0.00, 0.32, 98, 0.000, -0.500, -48.500, 783, 100, 100, 27, 23803, -23565, 5250, 5358, 18, 14, 1530828523.287, 5, 0, 1024, 1024, 1024, 1024, 0, 6, 4051, 4034, 4060, 4033, 4030, 4052, 0, 1, 7699, -89.900, 0.000, -49.100, 0.000, 0.000, -3.200, 0.0, , , , , , 96, , , 31, 31, 31
35.7347978, -118.6147863, 6.900, 15:08:43.387, 16, 0.00, 0.32, 98, 0.200, -0.700, -48.500, 783, 100, 100, 27, 23803, -23565, 5250, 5358, 18, 14, 1530828523.387, 10, 0, 1024, 1024, 1024, 1024, 0, 6, 4051, 4034, 4060, 4033, 4030, 4052, 0, 1, 7799, -89.900, 0.000, -49.100, 0.000, 0.000, -3.200, 0.0, , , , , , 96, , , 31, 31, 31
35.7347978, -118.6147863, 6.900, 15:08:43.487, 16, 0.00, 0.32, 98, 0.200, -0.700, -48.500, 783, 100, 100, 27, 23803, -23565, 5250, 5358, 18, 14, 1530828523.488, 110, 0, 1024, 1024, 1024, 1024, 0, 6, 4051, 4034, 4060, 4033, 4030, 4052, 0, 1, 7899, -89.900, 0.000, -49.100, 0.000, 0.000, -3.200, 0.0, , , , , , 96, , , 31, 31, 31
35.7347979, -118.6147863, 7.900, 15:08:43.588, 16, 0.00, 0.32, 98, 0.100, -0.200, -48.800, 783, 100, 100, 27, 23803, -23565, 5250, 5358, 18, 14, 1530828523.588, 1, 0, 1024, 1024, 1024, 1024, 0, 6, 3958, 3947, 3975, 3977, 3996, 3989, 0, 1, 8000, -89.900, 0.000, -49.100, 0.000, 0.000, -3.100, 0.0, , , , , , 96, , , 31, 31, 31
35.7347979, -118.6147863, 7.900, 15:08:43.687, 16, 0.00, 0.32, 98, 0.100, -0.200, -48.800, 783, 100, 100, 27, 23803, -23565, 5250, 5358, 18, 14, 1530828523.687, 100, 0, 1024, 1024, 1024, 1024, 0, 6, 3958, 3947, 3975, 3977, 3996, 3989, 0, 1, 8099, -89.900, 0.000, -49.100, 0.000, 0.000, -3.100, 0.0, , , , , , 96, , , 31, 31, 31
35.7347979, -118.6147863, 8.200, 15:08:43.787, 16, 0.00, 0.32, 98, 0.000, -0.200, -48.900, 783, 100, 100, 27, 23803, -23565, 5250, 5358, 18, 14, 1530828523.787, 60, 0, 1024, 1024, 1024, 1024, 0, 6, 3958, 3947, 3975, 3977, 3996, 3989, 0, 1, 8199, -89.900, 0.000, -49.100, 0.000, 0.000, -3.100, 0.0, , , , , , 96, , , 31, 31, 31
35.7347979, -118.6147863, 8.500, 15:08:43.887, 16, 0.00, 0.32, 98, -0.100, -0.500, -48.900, 783, 100, 100, 27, 23803, -23565, 5250, 5358, 18, 14, 1530828523.888, 89, 0, 1024, 1024, 1024, 1024, 0, 6, 3958, 3947, 3975, 3977, 3996, 3989, 0, 1, 8300, -89.900, 0.000, -49.100, 0.000, 0.000, -3.100, 0.0, , , , , , 96, , , 31, 31, 31
35.7347979, -118.6147863, 8.900, 15:08:43.987, 16, 0.00, 0.31, 98, -0.100, -0.800, -48.800, 783, 100, 100, 27, 23803, -23565, 5250, 5358, 18, 14, 1530828523.988, 60, 0, 1024, 1024, 1024, 1024, 0, 6, 3958, 3947, 3975, 3977, 3996, 3989, 0, 1, 8400, -89.900, 0.000, -49.100, 0.000, 0.000, -3.100, 0.0, , , , , , 96, , , 31, 31, 31
35.7347979, -118.6147863, 9.200, 15:08:44.087, 16, 0.00, 0.31, 98, 0.000, -0.900, -48.700, 783, 100, 100, 27, 23803, -23565, 5250, 5358, 18, 14, 1530828524.088, 65, 0, 1024, 1024, 1024, 1024, 0, 6, 3958, 3947, 3975, 3977, 3996, 3989, 0, 1, 8500, -89.900, 0.000, -49.100, 0.000, 0.000, -3.100, 0.0, , , , , , 96, , , 31, 31, 31
35.7347979, -118.6147863, 9.500, 15:08:44.187, 16, 0.00, 0.31, 98, 0.000, -1.100, -48.600, 783, 100, 100, 28, 23803, -23565, 5250, 5358, 18, 14, 1530828524.187, 69, 0, 1024, 1024, 1024, 1024, 0, 6, 3958, 3947, 3975, 3977, 3996, 3989, 0, 1, 8599, -89.900, 0.000, -49.100, 0.000, 0.000, -3.100, 0.0, , , , , , 96, , , 31, 31, 31
35.7347979, -118.6147864, 9.800, 15:08:44.287, 16, 0.00, 0.32, 98, 0.100, -1.100, -48.500, 783, 100, 100, 28, 23803, -23565, 5250, 5358, 18, 14, 1530828524.288, 72, 0, 1024, 1024, 1024, 1024, 0, 6, 3958, 3947, 3975, 3977, 3996, 3989, 0, 1, 8700, -89.900, 0.000, -49.100, 0.000, 0.000, -3.100, 0.0, , , , , , 96, , , 31, 31, 31
35.7347979, -118.6147864, 10.100, 15:08:44.387, 16, 0.00, 0.32, 98, 0.100, -0.900, -48.400, 783, 100, 100, 28, 23803, -23565, 5250, 5358, 18, 14, 1530828524.387, 39, 0, 1024, 1024, 1024, 1024, 0, 6, 3958, 3947, 3975, 3977, 3996, 3989, 0, 1, 8799, -89.900, 0.000, -49.100, 0.000, 0.000, -3.000, 0.0, , , , , , 96, , , 31, 31, 31
35.7347979, -118.6147864, 10.500, 15:08:44.487, 16, 0.00, 0.33, 98, 0.100, -0.600, -48.300, 783, 100, 100, 28, 23803, -23565, 5250, 5358, 18, 14, 1530828524.488, 52, 0, 1024, 1024, 1024, 1024, 0, 6, 3958, 3947, 3975, 3977, 3996, 3989, 0, 1, 8900, -89.900, 0.000, -49.100, 0.000, 0.000, -3.100, 0.0, , , , , , 96, , , 31, 31, 31
35.7347979, -118.6147865, 10.800, 15:08:44.587, 16, 0.00, 0.33, 98, 0.300, -0.700, -48.000, 783, 100, 100, 28, 24072, -19688, 5250, 5358, 18, 14, 1530828524.587, 46, 0, 1024, 1024, 1024, 1024, 0, 6, 4008, 4002, 4008, 4014, 4033, 4019, 0, 1, 8999, -89.900, 0.000, -49.100, 0.000, 0.000, -3.100, 0.0, , , , , , 96, , , 31, 31, 31
35.7347979, -118.6147865, 11.100, 15:08:44.687, 16, 0.00, 0.33, 98, 0.500, -0.700, -47.900, 783, 100, 100, 28, 24072, -19688, 5250, 5358, 18, 14, 1530828524.688, 47, 0, 1024, 1024, 1024, 1024, 0, 6, 4008, 4002, 4008, 4014, 4033, 4019, 0, 1, 9100, -89.900, 0.000, -49.100, 0.000, 0.000, -3.000, 0.0, , , , , , 96, , , 31, 31, 31
35.7347979, -118.6147865, 11.400, 15:08:44.787, 16, 0.00, 0.33, 98, 0.400, -0.900, -47.900, 783, 100, 100, 28, 24072, -19688, 5250, 5358, 18, 14, 1530828524.788, 39, 0, 1024, 1024, 1024, 1024, 0, 6, 4008, 4002, 4008, 4014, 4033, 4019, 0, 1, 9200, -89.900, 0.000, -49.100, 0.000, 0.000, -3.100, 0.0, , , , , , 96, , , 31, 31, 31
35.7347979, -118.6147864, 11.700, 15:08:44.887, 16, 0.00, 0.33, 98, 0.000, -1.200, -48.000, 783, 100, 100, 28, 24072, -19688, 5250, 5358, 18, 14, 1530828524.888, 8, 0, 1024, 1024, 1024, 1024, 0, 6, 4008, 4002, 4008, 4014, 4033, 4019, 0, 1, 9300, -89.900, 0.000, -49.100, 0.000, 0.000, -3.000, 0.0, , , , , , 96, , , 31, 31, 31
35.7347979, -118.6147864, 12.000, 15:08:44.987, 16, 0.00, 0.32, 98, -0.500, -1.400, -48.200, 783, 100, 100, 28, 24072, -19688, 5250, 5358, 18, 14, 1530828524.988, 27, 0, 1024, 1024, 1024, 1024, 0, 6, 4008, 4002, 4008, 4014, 4033, 4019, 0, 1, 9400, -90.000, 0.000, -49.100, 0.000, 0.000, -3.100, 0.0, , , , , , 96, , , 31, 31, 31
35.7347979, -118.6147863, 12.400, 15:08:45.087, 16, 0.00, 0.32, 98, -1.000, -1.500, -48.400, 783, 100, 100, 28, 24072, -19688, 5250, 5358, 18, 14, 1530828525.088, 4, 0, 1024, 1024, 1024, 1024, 0, 6, 4008, 4002, 4008, 4014, 4033, 4019, 0, 1, 9500, -90.000, 0.000, -49.100, 0.000, 0.000, -3.000, 0.0, , , , , , 96, , , 31, 31, 31
35.7347979, -118.6147863, 12.700, 15:08:45.187, 16, 0.00, 0.31, 98, -1.100, -1.600, -48.700, 783, 100, 100, 28, 24072, -19688, 5250, 5358, 18, 14, 1530828525.187, 11, 0, 1024, 1024, 1024, 1024, 0, 6, 4008, 4002, 4008, 4014, 4033, 4019, 0, 1, 9599, -89.900, 0.000, -49.100, 0.000, 0.000, -2.900, 0.0, , , , , , 96, , , 31, 31, 31
35.7347980, -118.6147862, 13.000, 15:08:45.287, 16, 0.00, 0.31, 98, -1.100, -1.300, -48.900, 783, 100, 100, 28, 24072, -19688, 5250, 5358, 18, 14, 1530828525.287, 5, 0, 1024, 1024, 1024, 1024, 0, 6, 4008, 4002, 4008, 4014, 4033, 4019, 0, 1, 9699, -89.900, 0.000, -49.100, 0.000, 0.000, -3.000, 0.0, , , , , , 96, , , 31, 31, 31
35.7347980, -118.6147862, 13.300, 15:08:45.387, 15, 0.00, 0.30, 98, -1.200, -1.000, -49.000, 783, 100, 100, 28, 24072, -19688, 5250, 5358, 18, 14, 1530828525.388, 8, 0, 1024, 1024, 1024, 1024, 0, 6, 4008, 4002, 4008, 4014, 4033, 4019, 0, 1, 9800, -89.900, 0.000, -49.100, 0.000, 0.000, -2.900, 0.0, , , , , , 96, , , 31, 31, 31
35.7347980, -118.6147862, 13.300, 15:08:45.487, 15, 0.00, 0.30, 98, -1.200, -1.000, -49.000, 783, 100, 100, 28, 24072, -19688, 5250, 5358, 18, 14, 1530828525.487, 107, 0, 1024, 1024, 1024, 1024, 0, 6, 4008, 4002, 4008, 4014, 4033, 4019, 0, 1, 9899, -89.900, 0.000, -49.100, 0.000, 0.000, -2.900, 0.0, , , , , , 96, , , 31, 31, 31
35.7347980, -118.6147862, 13.600, 15:08:45.587, 15, 0.00, 0.30, 98, -1.300, -1.100, -49.100, 783, 100, 100, 28, 24072, -19688, 5250, 5358, 18, 14, 1530828525.587, 95, 0, 1024, 1024, 1024, 1024, 0, 6, 4008, 4002, 4008, 4014, 4033, 4019, 0, 1, 9999, -89.900, 0.000, -49.100, 0.000, 0.000, -2.900, 0.0, , , , , , 96, , , 31, 31, 31
35.7347981, -118.6147862, 14.200, 15:08:45.690, 15, 0.00, 0.29, 98, -0.600, -0.900, -49.200, 783, 100, 100, 28, 24123, -18682, 5250, 5358, 18, 14, 1530828525.690, 3, 0, 1024, 1024, 1024, 1024, 0, 6, 4017, 4005, 4025, 4015, 4030, 4030, 0, 1, 10102, -89.900, 0.000, -49.100, 0.000, 0.000, -2.900, 0.0, , , , , , 96, , , 31, 31, 31
35.7347981, -118.6147862, 14.500, 15:08:45.787, 15, 0.00, 0.29, 98, -0.300, -0.800, -49.200, 783, 100, 100, 28, 24123, -18682, 5250, 5358, 18, 14, 1530828525.787, 96, 0, 1024, 1024, 1024, 1024, 0, 6, 4017, 4005, 4025, 4015, 4030, 4030, 0, 1, 10199, -89.900, 0.000, -49.100, 0.000, 0.000, -2.900, 0.0, , , , , , 96, , , 31, 31, 31
35.7347982, -118.6147862, 14.800, 15:08:45.887, 15, 0.10, 0.29, 98, -0.500, -0.600, -49.400, 783, 100, 100, 28, 24123, -18682, 5250, 5358, 18, 14, 1530828525.887, 54, 0, 1024, 1024, 1024, 1024, 0, 6, 4017, 4005, 4025, 4015, 4030, 4030, 0, 1, 10299, -89.900, 0.000, -49.100, 0.100, 0.000, -2.900, 0.0, , , , , , 96, , , 31, 31, 31
35.7347983, -118.6147862, 15.100, 15:08:45.987, 15, 0.10, 0.28, 98, -0.800, -0.200, -49.400, 783, 100, 100, 28, 24123, -18682, 5250, 5358, 18, 14, 1530828525.987, 52, 0, 1024, 1024, 1024, 1024, 0, 6, 4017, 4005, 4025, 4015, 4030, 4030, 0, 1, 10399, -89.900, 0.000, -49.100, 0.100, 0.000, -2.900, 0.0, , , , , , 96, , , 31, 31, 31
35.7347983, -118.6147863, 15.400, 15:08:46.087, 15, 0.10, 0.28, 98, -1.100, 0.000, -49.400, 783, 100, 100, 28, 24123, -18682, 5250, 5358, 18, 14, 1530828526.087, 67, 0, 1024, 1024, 1024, 1024, 0, 6, 4017, 4005, 4025, 4015, 4030, 4030, 0, 1, 10499, -89.900, 0.000, -49.100, 0.100, 0.000, -2.900, 0.0, , , , , , 96, , , 31, 31, 31
35.7347984, -118.6147863, 15.700, 15:08:46.187, 15, 0.10, 0.27, 98, -1.400, 0.100, -49.300, 783, 100, 100, 28, 24123, -18682, 5250, 5358, 18, 14, 1530828526.187, 60, 0, 1024, 1024, 1024, 1024, 0, 6, 4017, 4005, 4025, 4015, 4030, 4030, 0, 1, 10599, -89.900, 0.000, -49.100, 0.100, 0.000, -2.900, 0.0, , , , , , 96, , , 31, 31, 31
35.7347984, -118.6147863, 16.000, 15:08:46.287, 15, 0.00, 0.27, 98, -1.200, 0.100, -49.000, 783, 100, 100, 28, 24123, -18682, 5250, 5358, 18, 14, 1530828526.287, 53, 0, 1024, 1024, 1024, 1024, 0, 6, 4017, 4005, 4025, 4015, 4030, 4030, 0, 1, 10699, -89.900, 0.000, -49.100, 0.000, 0.000, -2.900, 0.0, , , , , , 96, , , 31, 31, 31
35.7347984, -118.6147863, 16.300, 15:08:46.387, 15, 0.00, 0.27, 98, -1.100, -0.100, -48.800, 783, 100, 100, 28, 24123, -18682, 5250, 5358, 18, 14, 1530828526.388, 38, 0, 1024, 1024, 1024, 1024, 0, 6, 4017, 4005, 4025, 4015, 4030, 4030, 0, 1, 10800, -89.900, 0.000, -49.100, 0.000, 0.000, -2.900, 0.0, , , , , , 96, , , 31, 31, 31
35.7347984, -118.6147863, 16.500, 15:08:46.487, 15, 0.00, 0.27, 98, -1.000, -0.300, -48.600, 783, 100, 100, 28, 24123, -18682, 5250, 5358, 18, 14, 1530828526.487, 41, 0, 1024, 1024, 1024, 1024, 0, 6, 4017, 4005, 4025, 4015, 4030, 4030, 0, 1, 10899, -89.900, 0.000, -49.100, 0.000, 0.000, -2.900, 0.0, , , , , , 96, , , 31, 31, 31
35.7347985, -118.6147863, 16.800, 15:08:46.587, 15, 0.00, 0.26, 98, -0.800, -0.300, -48.400, 783, 100, 100, 28, 24206, -17683, 5250, 5358, 18, 14, 1530828526.587, 46, 0, 1024, 1024, 1024, 1024, 0, 6, 4027, 4017, 4030, 4028, 4039, 4040, 0, 1, 10999, -89.900, 0.000, -49.100, 0.000, 0.000, -2.900, 0.0, , , , , , 96, , , 31, 31, 31
35.7347985, -118.6147863, 17.100, 15:08:46.687, 15, 0.00, 0.26, 98, -0.600, -0.300, -48.300, 783, 100, 98, 28, 24206, -17683, 5250, 5358, 18, 14, 1530828526.687, 49, 0, 1024, 1024, 1024, 1024, 0, 6, 4027, 4017, 4030, 4028, 4039, 4040, 0, 1, 11099, -89.900, 0.000, -49.100, 0.000, 0.000, -2.900, 0.0, , , , , , 96, , , 31, 31, 31
35.7347986, -118.6147863, 17.500, 15:08:46.787, 15, 0.00, 0.26, 98, -0.700, -0.200, -48.300, 783, 100, 98, 28, 24206, -17683, 5250, 5358, 18, 14, 1530828526.787, 41, 0, 1024, 1024, 1024, 1024, 0, 6, 4027, 4017, 4030, 4028, 4039, 4040, 0, 1, 11199, -89.900, 0.000, -49.100, 0.000, 0.000, -3.000, 0.0, , , , , , 96, , , 31, 31, 31
35.7347986, -118.6147863, 17.800, 15:08:46.887, 15, 0.00, 0.25, 98, -1.000, -0.100, -48.300, 783, 100, 98, 28, 24206, -17683, 5250, 5358, 18, 14, 1530828526.888, 6, 0, 1024, 1024, 1024, 1024, 0, 6, 4027, 4017, 4030, 4028, 4039, 4040, 0, 1, 11300, -89.900, 0.000, -49.100, 0.000, 0.000, -3.000, 0.0, , , , , , 96, , , 31, 31, 31
35.7347987, -118.6147863, 18.100, 15:08:46.987, 15, 0.00, 0.25, 98, -1.400, 0.000, -48.400, 783, 100, 98, 28, 24206, -17683, 5250, 5358, 18, 14, 1530828526.988, 5, 0, 1024, 1024, 1024, 1024, 0, 6, 4027, 4017, 4030, 4028, 4039, 4040, 0, 1, 11400, -89.900, 0.000, -49.100, 0.000, 0.000, -3.000, 0.0, , , , , , 96, , , 31, 31, 31
35.7347987, -118.6147863, 18.400, 15:08:47.087, 15, 0.00, 0.24, 98, -1.700, 0.700, -48.600, 783, 100, 98, 28, 24206, -17683, 5250, 5358, 18, 14, 1530828527.088, 5, 0, 1024, 1024, 1024, 1024, 0, 6, 4027, 4017, 4030, 4028, 4039, 4040, 0, 1, 11500, -89.900, 0.000, -49.100, 0.000, 0.000, -3.000, 0.0, , , , , , 96, , , 31, 31, 31
35.7347988, -118.6147863, 18.800, 15:08:47.187, 15, 0.00, 0.24, 98, -0.800, 1.400, -48.700, 783, 100, 97, 28, 24206, -17683, 5250, 5358, 18, 14, 1530828527.188, 22, 0, 1024, 1024, 1024, 1024, 0, 6, 4027, 4017, 4030, 4028, 4039, 4040, 0, 1, 11600, -89.900, 0.000, -49.100, 0.000, 0.000, -3.100, 0.0, , , , , , 96, , , 31, 31, 31
35.7347988, -118.6147863, 19.100, 15:08:47.287, 15, 0.00, 0.24, 98, -0.300, 0.900, -48.800, 783, 100, 97, 28, 24206, -17683, 5250, 5358, 18, 14, 1530828527.288, 15, 0, 1024, 1024, 1024, 1024, 0, 6, 4027, 4017, 4030, 4028, 4039, 4040, 0, 1, 11700, -89.900, 0.000, -49.100, 0.000, 0.000, -3.200, 0.0, , , , , , 96, , , 31, 31, 31
35.7347988, -118.6147863, 19.100, 15:08:47.387, 15, 0.00, 0.24, 98, -0.300, 0.900, -48.800, 783, 100, 97, 28, 24206, -17683, 5250, 5358, 18, 14, 1530828527.387, 114, 0, 1024, 1024, 1024, 1024, 0, 6, 4027, 4017, 4030, 4028, 4039, 4040, 0, 1, 11799, -89.900, 0.000, -49.100, 0.000, 0.000, -3.200, 0.0, , , , , , 96, , , 31, 31, 31
35.7347987, -118.6147862, 19.400, 15:08:47.487, 15, 0.00, 0.24, 98, -0.300, -0.100, -49.000, 783, 100, 97, 28, 24206, -17683, 5250, 5358, 18, 14, 1530828527.487, 91, 0, 1024, 1024, 1024, 1024, 0, 6, 4027, 4017, 4030, 4028, 4039, 4040, 0, 1, 11899, -90.000, 0.000, -49.100, 0.000, 0.000, -3.100, 0.0, , , , , , 96, , , 31, 31, 31
35.7347987, -118.6147859, 20.100, 15:08:47.589, 15, 0.10, 0.22, 98, -1.200, -1.600, -49.500, 783, 100, 97, 28, 24106, -18281, 5250, 5358, 18, 14, 1530828527.589, 1, 0, 1024, 1024, 1024, 1024, 0, 6, 4027, 4017, 4030, 4028, 4039, 4040, 0, 1, 12001, -90.000, 0.000, -49.100, 0.000, 0.100, -2.900, 0.0, , , , , , 96, , , 31, 31, 31
35.7347987, -118.6147859, 20.100, 15:08:47.687, 15, 0.10, 0.22, 98, -1.200, -1.600, -49.500, 783, 100, 97, 28, 24106, -18281, 5250, 5358, 18, 14, 1530828527.688, 100, 0, 1024, 1024, 1024, 1024, 0, 6, 4010, 4000, 4019, 4011, 4026, 4015, 0, 1, 12100, -89.900, 0.000, -49.100, 0.000, 0.100, -2.900, 0.0, , , , , , 96, , , 31, 31, 31
35.7347988, -118.6147857, 20.400, 15:08:47.787, 15, 0.10, 0.21, 98, -2.000, -2.100, -49.500, 783, 100, 97, 28, 24106, -18281, 5250, 5358, 18, 14, 1530828527.787, 90, 0, 1024, 1024, 1024, 1024, 0, 6, 4010, 4000, 4019, 4011, 4026, 4015, 0, 1, 12199, -90.000, 0.000, -49.100, 0.000, 0.100, -2.900, 0.0, , , , , , 96, , , 31, 31, 31
35.7347988, -118.6147854, 20.700, 15:08:47.887, 15, 0.10, 0.19, 98, -2.600, -2.900, -49.200, 783, 100, 97, 28, 24106, -18281, 5250, 5358, 18, 14, 1530828527.888, 56, 0, 1024, 1024, 1024, 1024, 0, 6, 4010, 4000, 4019, 4011, 4026, 4015, 0, 1, 12300, -90.000, 0.000, -49.100, 0.000, 0.100, -2.800, 0.0, , , , , , 96, , , 31, 31, 31
35.7347988, -118.6147849, 21.300, 15:08:47.987, 15, 0.10, 0.18, 98, -3.200, -4.000, -48.400, 783, 100, 97, 28, 24106, -18281, 5250, 5358, 18, 14, 1530828527.988, 48, 0, 1024, 1024, 1024, 1024, 0, 6, 4010, 4000, 4019, 4011, 4026, 4015, 0, 1, 12400, -90.000, 0.000, -49.100, 0.000, 0.100, -2.700, 0.0, , , , , , 96, , , 31, 31, 31
35.7347988, -118.6147847, 21.600, 15:08:48.087, 15, 0.10, 0.17, 98, -3.400, -4.100, -48.200, 783, 100, 97, 28, 24106, -18281, 5250, 5358, 18, 14, 1530828528.088, 62, 0, 1024, 1024, 1024, 1024, 0, 6, 4010, 4000, 4019, 4011, 4026, 4015, 0, 1, 12500, -90.000, 0.000, -49.100, 0.000, 0.100, -2.700, 0.0, , , , , , 96, , , 31, 31, 31
35.7347988, -118.6147844, 21.900, 15:08:48.187, 15, 0.10, 0.17, 98, -4.000, -4.100, -48.100, 783, 100, 97, 28, 24106, -18281, 5250, 5358, 18, 14, 1530828528.187, 53, 0, 1024, 1024, 1024, 1024, 0, 6, 4010, 4000, 4019, 4011, 4026, 4015, 0, 1, 12599, -89.900, 0.000, -49.100, 0.000, 0.100, -2.700, 0.0, , , , , , 96, , , 31, 31, 31
35.7347989, -118.6147842, 22.200, 15:08:48.287, 15, 0.10, 0.16, 98, -4.600, -3.900, -48.000, 783, 100, 97, 28, 24106, -18281, 5250, 5358, 18, 14, 1530828528.287, 60, 0, 1024, 1024, 1024, 1024, 0, 6, 4010, 4000, 4019, 4011, 4026, 4015, 0, 1, 12699, -90.000, 0.000, -49.100, 0.000, 0.100, -2.800, 0.0, , , , , , 96, , , 31, 31, 31
35.7347989, -118.6147840, 22.500, 15:08:48.387, 15, 0.10, 0.16, 98, -4.900, -3.800, -47.900, 783, 100, 97, 28, 24106, -18281, 5250, 5358, 18, 14, 1530828528.387, 53, 0, 1024, 1024, 1024, 1024, 0, 6, 4010, 4000, 4019, 4011, 4026, 4015, 0, 1, 12799, -90.000, 0.000, -49.100, 0.000, 0.100, -2.900, 0.0, , , , , , 96, , , 31, 31, 31
35.7347990, -118.6147838, 22.800, 15:08:48.487, 15, 0.10, 0.16, 98, -5.300, -3.800, -48.000, 783, 100, 97, 28, 24106, -18281, 5250, 5358, 18, 14, 1530828528.488, 57, 0, 1024, 1024, 1024, 1024, 0, 6, 4010, 4000, 4019, 4011, 4026, 4015, 0, 1, 12900, -90.000, 0.000, -49.100, 0.000, 0.100, -2.900, 0.0, , , , , , 96, , , 31, 31, 31
35.7347991, -118.6147836, 23.100, 15:08:48.587, 15, 0.10, 0.16, 98, -5.600, -3.800, -48.200, 783, 100, 97, 28, 24122, -18281, 5250, 5358, 18, 14, 1530828528.587, 26, 0, 1024, 1024, 1024, 1024, 0, 6, 4010, 4000, 4019, 4011, 4026, 4015, 0, 1, 12999, -90.000, 0.000, -49.100, 0.000, 0.100, -2.700, 0.0, , , , , , 96, , , 31, 31, 31
35.7347991, -118.6147834, 23.300, 15:08:48.687, 15, 0.00, 0.16, 98, -5.200, -3.300, -48.300, 783, 100, 98, 28, 24122, -18281, 5250, 5358, 18, 14, 1530828528.688, 40, 0, 1024, 1024, 1024, 1024, 0, 6, 4010, 4000, 4019, 4011, 4026, 4015, 0, 1, 13100, -90.000, 0.000, -49.100, 0.000, 0.000, -2.700, 0.0, , , , , , 96, , , 31, 31, 31
35.7347991, -118.6147833, 23.600, 15:08:48.787, 15, 0.00, 0.16, 98, -4.400, -3.400, -48.200, 783, 100, 98, 28, 24122, -18281, 5250, 5358, 18, 14, 1530828528.788, 40, 0, 1024, 1024, 1024, 1024, 0, 6, 4010, 4000, 4019, 4011, 4026, 4015, 0, 1, 13200, -89.900, 0.000, -49.100, 0.000, 0.000, -2.700, 0.0, , , , , , 96, , , 31, 31, 31
35.7347991, -118.6147832, 23.900, 15:08:48.887, 15, 0.00, 0.17, 98, -3.700, -3.800, -48.100, 783, 100, 98, 28, 24122, -18281, 5250, 5358, 18, 14, 1530828528.887, 22, 0, 1024, 1024, 1024, 1024, 0, 6, 4010, 4000, 4019, 4011, 4026, 4015, 0, 1, 13299, -90.000, 0.000, -49.100, 0.000, 0.000, -2.800, 0.0, , , , , , 96, , , 31, 31, 31
35.7347991, -118.6147831, 24.200, 15:08:48.987, 15, 0.00, 0.18, 98, -3.800, -3.700, -48.100, 783, 100, 98, 28, 24122, -18281, 5250, 5358, 18, 14, 1530828528.987, 11, 0, 1024, 1024, 1024, 1024, 0, 6, 4010, 4000, 4019, 4011, 4026, 4015, 0, 1, 13399, -89.900, 0.000, -49.100, 0.000, 0.000, -2.800, 0.0, , , , , , 96, , , 31, 31, 31
35.7347992, -118.6147830, 24.500, 15:08:49.087, 15, 0.00, 0.18, 98, -4.200, -3.900, -48.000, 783, 100, 98, 28, 24122, -18281, 5250, 5358, 18, 14, 1530828529.087, 24, 0, 1024, 1024, 1024, 1024, 0, 6, 4041, 4032, 4048, 4042, 4039, 4052, 0, 1, 13499, -89.900, 0.000, -49.100, 0.000, 0.000, -2.800, 0.0, , , , , , 96, , , 31, 31, 31
35.7347992, -118.6147829, 24.800, 15:08:49.187, 15, 0.00, 0.18, 98, -4.400, -3.800, -48.000, 783, 100, 97, 28, 24122, -18281, 5250, 5358, 18, 14, 1530828529.187, 25, 0, 1024, 1024, 1024, 1024, 0, 6, 4041, 4032, 4048, 4042, 4039, 4052, 0, 1, 13599, -89.900, 0.000, -49.100, 0.000, 0.000, -2.900, 0.0, , , , , , 96, , , 31, 31, 31
35.7347992, -118.6147829, 25.000, 15:08:49.287, 15, 0.00, 0.19, 98, -4.800, -3.700, -47.900, 783, 100, 97, 28, 24122, -18281, 5250, 5358, 18, 14, 1530828529.287, 15, 0, 1024, 1024, 1024, 1024, 0, 6, 4041, 4032, 4048, 4042, 4039, 4052, 0, 1, 13699, -89.900, 0.000, -49.100, 0.000, 0.000, -2.900, 0.0, , , , , , 96, , , 31, 31, 31
35.7347993, -118.6147828, 25.300, 15:08:49.387, 15, 0.00, 0.19, 98, -5.100, -3.700, -47.800, 783, 100, 97, 28, 24122, -18281, 5250, 5358, 18, 14, 1530828529.387, 16, 0, 1024, 1024, 1024, 1024, 0, 6, 4041, 4032, 4048, 4042, 4039, 4052, 0, 1, 13799, -89.900, 0.000, -49.100, 0.000, 0.000, -2.800, 0.0, , , , , , 96, , , 31, 31, 31
35.7347993, -118.6147828, 25.300, 15:08:49.487, 15, 0.00, 0.19, 98, -5.100, -3.700, -47.800, 783, 100, 97, 28, 24122, -18281, 5250, 5358, 18, 14, 1530828529.487, 116, 0, 1024, 1024, 1024, 1024, 0, 6, 4041, 4032, 4048, 4042, 4039, 4052, 0, 1, 13899, -89.900, 0.000, -49.100, 0.000, 0.000, -2.800, 0.0, , , , , , 96, , , 31, 31, 31
35.7347993, -118.6147827, 25.900, 15:08:49.588, 15, 0.00, 0.19, 98, -5.300, -3.600, -48.000, 783, 100, 97, 28, 24122, -18281, 5250, 5358, 18, 14, 1530828529.588, 2, 0, 1024, 1024, 1024, 1024, 0, 6, 4041, 4032, 4048, 4042, 4039, 4052, 0, 1, 14000, -89.900, 0.000, -49.100, 0.000, 0.000, -2.800, 0.0, , , , , , 96, , , 31, 31, 31
35.7347994, -118.6147826, 26.200, 15:08:49.687, 15, 0.00, 0.19, 98, -5.200, -3.500, -48.100, 783, 100, 99, 28, 24122, -18281, 5250, 5358, 18, 14, 1530828529.687, 6, 0, 1024, 1024, 1024, 1024, 0, 6, 4041, 4032, 4048, 4042, 4039, 4052, 0, 1, 14099, -89.900, 0.000, -49.100, 0.000, 0.000, -2.800, 0.0, , , , , , 96, , , 31, 31, 31
35.7347994, -118.6147826, 26.200, 15:08:49.787, 15, 0.00, 0.19, 98, -5.200, -3.500, -48.100, 783, 100, 99, 28, 24122, -18281, 5250, 5358, 18, 14, 1530828529.787, 106, 0, 1024, 1024, 1024, 1024, 0, 6, 4041, 4032, 4048, 4042, 4039, 4052, 0, 1, 14199, -89.900, 0.000, -49.100, 0.000, 0.000, -2.800, 0.0, , , , , , 96, , , 31, 31, 31
35.7347994, -118.6147826, 26.700, 15:08:49.887, 15, 0.00, 0.19, 98, -4.400, -3.400, -48.600, 783, 100, 99, 28, 24122, -18281, 5250, 5358, 18, 14, 1530828529.887, 71, 0, 1024, 1024, 1024, 1024, 0, 6, 4041, 4032, 4048, 4042, 4039, 4052, 0, 1, 14299, -89.900, 0.000, -49.100, 0.000, 0.000, -2.700, 0.0, , , , , , 96, , , 31, 31, 31
35.7347994, -118.6147826, 26.700, 15:08:49.987, 15, 0.00, 0.19, 98, -4.400, -3.400, -48.600, 783, 100, 99, 28, 24122, -18281, 5250, 5358, 18, 14, 1530828529.987, 171, 0, 1024, 1024, 1024, 1024, 0, 6, 4041, 4032, 4048, 4042, 4039, 4052, 0, 1, 14399, -90.000, 0.000, -49.100, 0.000, 0.000, -2.700, 0.0, , , , , , 96, , , 31, 31, 31
35.7347994, -118.6147826, 27.200, 15:08:50.087, 15, 0.00, 0.19, 98, -4.700, -3.700, -48.700, 783, 100, 99, 28, 24122, -18281, 5250, 5358, 18, 14, 1530828530.087, 33, 0, 1024, 1024, 1024, 1024, 0, 6, 4041, 4032, 4048, 4042, 4039, 4052, 0, 1, 14499, -90.000, 0.000, -49.100, 0.000, 0.000, -2.900, 0.0, , , , , , 96, , , 31, 31, 31
35.7347995, -118.6147825, 27.500, 15:08:50.187, 15, 0.00, 0.20, 98, -5.400, -4.000, -48.500, 783, 100, 99, 28, 24152, -17677, 5250, 5358, 18, 14, 1530828530.188, 84, 0, 1024, 1024, 1024, 1024, 0, 6, 4010, 4007, 4013, 4032, 4040, 4024, 0, 1, 14600, -90.000, 0.000, -49.100, 0.000, 0.000, -2.900, 0.0, , , , , , 96, , , 31, 31, 31
35.7347995, -118.6147825, 27.800, 15:08:50.287, 15, 0.00, 0.20, 98, -5.700, -4.100, -48.200, 783, 100, 100, 28, 24152, -17677, 5250, 5358, 18, 14, 1530828530.287, 89, 0, 1024, 1024, 1024, 1024, 0, 6, 4010, 4007, 4013, 4032, 4040, 4024, 0, 1, 14699, -90.000, 0.000, -49.100, 0.000, 0.000, -2.900, 0.0, , , , , , 96, , , 31, 31, 31
35.7347995, -118.6147825, 27.800, 15:08:50.387, 15, 0.00, 0.20, 98, -5.700, -4.100, -48.200, 783, 100, 100, 28, 24152, -17677, 5250, 5358, 18, 14, 1530828530.388, 189, 0, 1024, 1024, 1024, 1024, 0, 6, 4010, 4007, 4013, 4032, 4040, 4024, 0, 1, 14800, -89.900, 0.000, -49.100, 0.000, 0.000, -2.900, 0.0, , , , , , 96, , , 31, 31, 31
35.7347996, -118.6147825, 28.400, 15:08:50.487, 15, 0.00, 0.19, 98, -5.600, -3.500, -47.900, 783, 100, 100, 28, 24152, -17677, 5250, 5358, 18, 14, 1530828530.487, 60, 0, 1024, 1024, 1024, 1024, 0, 6, 4010, 4007, 4013, 4032, 4040, 4024, 0, 1, 14899, -89.900, 0.000, -49.100, 0.000, 0.000, -2.900, 0.0, , , , , , 96, , , 31, 31, 31
35.7347997, -118.6147826, 28.600, 15:08:50.587, 15, 0.10, 0.18, 98, -5.800, -3.000, -47.900, 783, 100, 100, 28, 24152, -17677, 5250, 5358, 18, 14, 1530828530.587, 51, 0, 1024, 1024, 1024, 1024, 0, 6, 4010, 4007, 4013, 4032, 4040, 4024, 0, 1, 14999, -89.900, 0.000, -49.100, 0.100, 0.000, -2.900, 0.0, , , , , , 96, , , 31, 31, 31
35.7347998, -118.6147827, 28.900, 15:08:50.687, 15, 0.10, 0.16, 98, -6.000, -2.000, -48.000, 783, 100, 100, 28, 24152, -17677, 5250, 5358, 18, 14, 1530828530.687, 51, 0, 1024, 1024, 1024, 1024, 0, 6, 4010, 4007, 4013, 4032, 4040, 4024, 0, 1, 15099, -89.900, 0.000, -49.100, 0.100, 0.000, -2.900, 0.0, , , , , , 96, , , 31, 31, 31
35.7347999, -118.6147829, 29.200, 15:08:50.787, 15, 0.00, 0.15, 98, -6.000, -1.300, -48.200, 783, 100, 99, 28, 24152, -17677, 5250, 5358, 18, 14, 1530828530.788, 56, 0, 1024, 1024, 1024, 1024, 0, 6, 4010, 4007, 4013, 4032, 4040, 4024, 0, 1, 15200, -89.900, 0.000, -49.100, 0.000, 0.000, -3.000, 0.0, , , , , , 96, , , 31, 31, 31
35.7347999, -118.6147830, 29.500, 15:08:50.887, 15, 0.00, 0.13, 98, -5.800, -1.200, -48.400, 783, 100, 99, 28, 24152, -17677, 5250, 5358, 18, 14, 1530828530.888, 62, 0, 1024, 1024, 1024, 1024, 0, 6, 4010, 4007, 4013, 4032, 4040, 4024, 0, 1, 15300, -89.900, 0.000, -49.100, 0.000, 0.000, -3.000, 0.0, , , , , , 96, , , 31, 31, 31
35.7347999, -118.6147832, 29.800, 15:08:50.987, 15, 0.00, 0.12, 98, -5.300, -1.600, -48.500, 783, 100, 99, 28, 24152, -17677, 5250, 5358, 18, 14, 1530828530.987, 52, 0, 1024, 1024, 1024, 1024, 0, 6, 4010, 4007, 4013, 4032, 4040, 4024, 0, 1, 15399, -89.900, 0.000, -49.100, 0.000, 0.000, -3.000, 0.0, , , , , , 96, , , 31, 31, 31
35.7347998, -118.6147833, 30.100, 15:08:51.087, 15, 0.00, 0.11, 98, -4.800, -2.200, -48.700, 783, 100, 99, 28, 23980, -18713, 5197, 5358, 18, 14, 1530828531.087, 33, 0, 1024, 1024, 1024, 1024, 0, 6, 3982, 3972, 3996, 3989, 4009, 4024, 0, 1, 15499, -89.900, 0.000, -49.100, 0.000, 0.000, -3.100, 0.0, , , , , , 96, , , 31, 31, 31
35.7347998, -118.6147834, 30.400, 15:08:51.187, 15, 0.00, 0.11, 98, -4.700, -2.600, -48.800, 783, 100, 99, 28, 23980, -18713, 5197, 5358, 18, 14, 1530828531.187, 46, 0, 1024, 1024, 1024, 1024, 0, 6, 3982, 3972, 3996, 3989, 4009, 4024, 0, 1, 15599, -90.000, 0.000, -49.100, 0.000, 0.000, -3.100, 0.0, , , , , , 96, , , 31, 31, 31
35.7347997, -118.6147835, 30.700, 15:08:51.287, 15, 0.00, 0.11, 98, -4.500, -3.000, -48.800, 783, 100, 99, 28, 23980, -18713, 5197, 5358, 18, 14, 1530828531.287, 39, 0, 1024, 1024, 1024, 1024, 0, 6, 3982, 3972, 3996, 3989, 4009, 4024, 0, 1, 15699, -90.000, 0.000, -49.100, 0.000, 0.000, -3.000, 0.0, , , , , , 96, , , 31, 31, 31
35.7347996, -118.6147837, 31.000, 15:08:51.387, 15, 0.00, 0.10, 98, -3.700, -3.100, -48.900, 783, 100, 99, 28, 23980, -18713, 5197, 5358, 18, 14, 1530828531.387, 22, 0, 1024, 1024, 1024, 1024, 0, 6, 3982, 3972, 3996, 3989, 4009, 4024, 0, 1, 15799, -90.000, 0.000, -49.100, 0.000, 0.000, -3.000, 0.0, , , , , , 96, , , 31, 31, 31
35.7347995, -118.6147838, 31.300, 15:08:51.487, 15, 0.00, 0.10, 98, -3.200, -3.300, -48.900, 783, 100, 99, 28, 23980, -18713, 5197, 5358, 18, 14, 1530828531.488, 23, 0, 1024, 1024, 1024, 1024, 0, 6, 3982, 3972, 3996, 3989, 4009, 4024, 0, 1, 15900, -89.900, 0.000, -49.100, 0.000, 0.000, -2.900, 0.0, , , , , , 96, , , 31, 31, 31
35.7347994, -118.6147839, 31.600, 15:08:51.587, 15, 0.00, 0.11, 97, -3.100, -3.100, -48.800, 783, 100, 99, 28, 23980, -18713, 5197, 5358, 18, 14, 1530828531.587, 29, 0, 1024, 1024, 1024, 1024, 0, 6, 3982, 3972, 3996, 3989, 4009, 4024, 0, 1, 15999, -89.900, 0.000, -49.100, 0.000, 0.000, -3.000, 0.0, , , , , , 96, , , 31, 31, 31
35.7347993, -118.6147841, 31.900, 15:08:51.687, 15, 0.00, 0.11, 97, -3.000, -3.300, -48.700, 783, 100, 99, 28, 23980, -18713, 5197, 5358, 18, 14, 1530828531.687, 32, 0, 1024, 1024, 1024, 1024, 0, 6, 3982, 3972, 3996, 3989, 4009, 4024, 0, 1, 16099, -90.000, 0.000, -49.100, 0.000, 0.000, -3.000, 0.0, , , , , , 96, , , 31, 31, 31
35.7347992, -118.6147842, 32.200, 15:08:51.787, 15, 0.00, 0.12, 97, -2.600, -3.400, -48.500, 783, 100, 99, 28, 23980, -18713, 5197, 5358, 18, 14, 1530828531.787, 25, 0, 1024, 1024, 1024, 1024, 0, 6, 3982, 3972, 3996, 3989, 4009, 4024, 0, 1, 16199, -89.900, 0.000, -49.100, 0.000, 0.000, -3.100, 0.0, , , , , , 96, , , 31, 31, 31
35.7347991, -118.6147844, 32.500, 15:08:51.887, 15, 0.00, 0.13, 97, -2.300, -3.600, -48.400, 783, 100, 99, 28, 23980, -18713, 5197, 5358, 18, 14, 1530828531.887, 7, 0, 1024, 1024, 1024, 1024, 0, 6, 3982, 3972, 3996, 3989, 4009, 4024, 0, 1, 16299, -90.000, 0.000, -49.100, 0.000, 0.000, -3.100, 0.0, , , , , , 96, , , 31, 31, 31
35.7347990, -118.6147845, 32.800, 15:08:51.987, 15, 0.00, 0.15, 97, -2.300, -3.600, -48.200, 783, 100, 99, 28, 23980, -18713, 5197, 5358, 18, 14, 1530828531.987, 12, 0, 1024, 1024, 1024, 1024, 0, 6, 3982, 3972, 3996, 3989, 4009, 4024, 0, 1, 16399, -89.900, 0.000, -49.100, 0.000, 0.000, -2.900, 0.0, , , , , , 96, , , 31, 31, 31
35.7347990, -118.6147845, 32.800, 15:08:52.088, 15, 0.00, 0.15, 97, -2.300, -3.600, -48.200, 783, 100, 99, 28, 23980, -18713, 5197, 5358, 18, 14, 1530828532.088, 112, 0, 1024, 1024, 1024, 1024, 0, 6, 3982, 3972, 3996, 3989, 4009, 4024, 0, 1, 16500, -90.000, 0.000, -49.100, 0.000, 0.000, -2.900, 0.0, , , , , , 96, , , 31, 31, 31
35.7347989, -118.6147847, 33.300, 15:08:52.190, 15, 0.00, 0.16, 97, -2.200, -3.600, -48.000, 783, 100, 98, 28, 23938, -19228, 5197, 5358, 18, 14, 1530828532.190, 4, 0, 1024, 1024, 1024, 1024, 0, 6, 3985, 3965, 3990, 3975, 3999, 3974, 0, 1, 16602, -90.000, 0.000, -49.100, 0.000, 0.000, -3.100, 0.0, , , , , , 96, , , 31, 31, 31
35.7347988, -118.6147849, 33.700, 15:08:52.287, 15, 0.00, 0.17, 97, -2.400, -3.500, -48.100, 783, 100, 98, 28, 23938, -19228, 5197, 5358, 18, 14, 1530828532.287, 96, 0, 1024, 1024, 1024, 1024, 0, 6, 3985, 3965, 3990, 3975, 3999, 3974, 0, 1, 16699, -89.900, 0.000, -49.100, 0.000, 0.000, -3.100, 0.0, , , , , , 96, , , 31, 31, 31
35.7347988, -118.6147849, 33.700, 15:08:52.387, 15, 0.00, 0.17, 97, -2.400, -3.500, -48.100, 783, 100, 98, 28, 23938, -19228, 5197, 5358, 18, 14, 1530828532.387, 196, 0, 1024, 1024, 1024, 1024, 0, 6, 3985, 3965, 3990, 3975, 3999, 3974, 0, 1, 16799, -89.900, 0.000, -49.100, 0.000, 0.000, -3.100, 0.0, , , , , , 96, , , 31, 31, 31
35.7347987, -118.6147851, 34.300, 15:08:52.487, 15, 0.00, 0.19, 97, -2.500, -2.500, -48.300, 783, 100, 98, 28, 23938, -19228, 5197, 5358, 18, 14, 1530828532.487, 95, 0, 1024, 1024, 1024, 1024, 0, 6, 3985, 3965, 3990, 3975, 3999, 3974, 0, 1, 16899, -89.900, 0.000, -49.100, 0.000, 0.000, -3.100, 0.0, , , , , , 96, , , 31, 31, 31
35.7347987, -118.6147851, 34.300, 15:08:52.587, 15, 0.00, 0.19, 97, -2.500, -2.500, -48.300, 783, 100, 98, 28, 23938, -19228, 5197, 5358, 18, 14, 1530828532.587, 195, 0, 1024, 1024, 1024, 1024, 0, 6, 3985, 3965, 3990, 3975, 3999, 3974, 0, 1, 16999, -89.900, 0.000, -49.100, 0.000, 0.000, -3.100, 0.0, , , , , , 96, , , 31, 31, 31
35.7347987, -118.6147853, 34.900, 15:08:52.687, 15, 0.00, 0.20, 97, -2.400, -1.900, -48.600, 783, 100, 98, 28, 23938, -19228, 5197, 5358, 18, 14, 1530828532.687, 74, 0, 1024, 1024, 1024, 1024, 0, 6, 3985, 3965, 3990, 3975, 3999, 3974, 0, 1, 17099, -89.900, 0.000, -49.100, 0.000, 0.000, -3.100, 0.0, , , , , , 96, , , 31, 31, 31
35.7347987, -118.6147854, 35.200, 15:08:52.787, 15, 0.00, 0.20, 97, -2.400, -1.700, -48.900, 783, 100, 97, 28, 23938, -19228, 5197, 5358, 18, 14, 1530828532.788, 81, 0, 1024, 1024, 1024, 1024, 0, 6, 3985, 3965, 3990, 3975, 3999, 3974, 0, 1, 17199, -89.900, 0.000, -49.100, 0.000, 0.000, -3.000, 0.0, , , , , , 96, , , 31, 31, 31
35.7347987, -118.6147855, 35.500, 15:08:52.887, 15, 0.00, 0.20, 97, -2.300, -1.800, -49.000, 783, 100, 97, 28, 23938, -19228, 5197, 5358, 18, 14, 1530828532.887, 71, 0, 1024, 1024, 1024, 1024, 0, 6, 3985, 3965, 3990, 3975, 3999, 3974, 0, 1, 17299, -89.900, 0.000, -49.100, 0.000, 0.000, -3.000, 0.0, , , , , , 96, , , 31, 31, 31
35.7347987, -118.6147857, 35.800, 15:08:52.987, 15, 0.00, 0.21, 97, -2.300, -2.000, -49.000, 783, 100, 97, 28, 23938, -19228, 5197, 5358, 18, 14, 1530828532.987, 73, 0, 1024, 1024, 1024, 1024, 0, 6, 3985, 3965, 3990, 3975, 3999, 3974, 0, 1, 17399, -89.900, 0.000, -49.100, 0.000, 0.000, -3.000, 0.0, , , , , , 96, , , 31, 31, 31
35.7347987, -118.6147858, 36.100, 15:08:53.087, 15, 0.00, 0.22, 97, -2.300, -2.300, -48.700, 783, 100, 97, 28, 23938, -19228, 5197, 5358, 18, 14, 1530828533.087, 68, 0, 1024, 1024, 1024, 1024, 0, 6, 3985, 3965, 3990, 3975, 3999, 3974, 0, 1, 17499, -89.900, 0.000, -49.100, 0.000, 0.000, -3.000, 0.0, , , , , , 96, , , 31, 31, 31
35.7347987, -118.6147858, 36.100, 15:08:53.187, 15, 0.00, 0.22, 97, -2.300, -2.300, -48.700, 783, 100, 97, 28, 23832, -20235, 5197, 5358, 18, 14, 1530828533.187, 168, 0, 1024, 1024, 1024, 1024, 0, 6, 3985, 3965, 3990, 3975, 3999, 3974, 0, 1, 17599, -89.900, 0.000, -49.100, 0.000, 0.000, -3.000, 0.0, , , , , , 96, , , 31, 31, 31
35.7347987, -118.6147858, 36.100, 15:08:53.287, 15, 0.00, 0.22, 97, -2.300, -2.300, -48.700, 783, 100, 96, 28, 23832, -20235, 5197, 5358, 18, 14, 1530828533.288, 269, 0, 1024, 1024, 1024, 1024, 0, 6, 3985, 3965, 3990, 3975, 3999, 3974, 0, 1, 17700, -89.900, 0.000, -49.100, 0.000, 0.000, -3.000, 0.0, , , , , , 96, , , 31, 31, 31
35.7347987, -118.6147860, 37.000, 15:08:53.387, 15, 0.00, 0.23, 97, -2.600, -1.100, -48.400, 783, 100, 96, 28, 23832, -20235, 5197, 5358, 18, 14, 1530828533.387, 62, 0, 1024, 1024, 1024, 1024, 0, 6, 3966, 3955, 3983, 3966, 3985, 3978, 0, 1, 17799, -89.900, 0.000, -49.100, 0.000, 0.000, -3.000, 0.0, , , , , , 96, , , 31, 31, 31
35.7347987, -118.6147861, 37.300, 15:08:53.487, 15, 0.00, 0.24, 97, -2.700, -1.200, -48.400, 783, 100, 96, 28, 23832, -20235, 5197, 5358, 18, 14, 1530828533.487, 65, 0, 1024, 1024, 1024, 1024, 0, 6, 3966, 3955, 3983, 3966, 3985, 3978, 0, 1, 17899, -89.900, 0.000, -49.100, 0.000, 0.000, -3.000, 0.0, , , , , , 96, , , 31, 31, 31
35.7347987, -118.6147862, 37.700, 15:08:53.587, 15, 0.00, 0.24, 97, -2.300, -1.200, -48.500, 783, 100, 96, 28, 23832, -20235, 5197, 5358, 18, 14, 1530828533.587, 65, 0, 1024, 1024, 1024, 1024, 0, 6, 3966, 3955, 3983, 3966, 3985, 3978, 0, 1, 17999, -89.900, 0.000, -49.100, 0.000, 0.000, -3.100, 0.0, , , , , , 96, , , 31, 31, 31
35.7347987, -118.6147863, 38.000, 15:08:53.687, 15, 0.00, 0.24, 97, -2.100, -1.100, -48.700, 783, 100, 95, 28, 23832, -20235, 5197, 5358, 18, 14, 1530828533.687, 44, 0, 1024, 1024, 1024, 1024, 0, 6, 3966, 3955, 3983, 3966, 3985, 3978, 0, 1, 18099, -89.900, 0.000, -49.100, 0.000, 0.000, -3.100, 0.0, , , , , , 96, , , 31, 31, 31
35.7347988, -118.6147864, 38.300, 15:08:53.787, 15, 0.00, 0.25, 97, -2.200, -0.900, -48.800, 783, 100, 95, 28, 23832, -20235, 5197, 5358, 18, 14, 1530828533.787, 40, 0, 1024, 1024, 1024, 1024, 0, 6, 3966, 3955, 3983, 3966, 3985, 3978, 0, 1, 18199, -89.900, 0.000, -49.100, 0.000, 0.000, -3.100, 0.0, , , , , , 96, , , 31, 31, 31
35.7347988, -118.6147864, 38.600, 15:08:53.887, 15, 0.00, 0.25, 97, -2.200, -0.900, -49.000, 783, 100, 95, 28, 23832, -20235, 5197, 5358, 18, 14, 1530828533.887, 31, 0, 1024, 1024, 1024, 1024, 0, 6, 3966, 3955, 3983, 3966, 3985, 3978, 0, 1, 18299, -89.900, 0.000, -49.100, 0.000, 0.000, -3.000, 0.0, , , , , , 96, , , 31, 31, 31
35.7347988, -118.6147865, 38.900, 15:08:53.987, 15, 0.00, 0.25, 97, -2.400, -0.900, -49.000, 783, 100, 95, 28, 23832, -20235, 5197, 5358, 18, 14, 1530828533.988, 45, 0, 1024, 1024, 1024, 1024, 0, 6, 3966, 3955, 3983, 3966, 3985, 3978, 0, 1, 18399, -89.900, 0.000, -49.100, 0.000, 0.000, -3.100, 0.0, , , , , , 96, , , 31, 31, 31
35.7347988, -118.6147865, 39.300, 15:08:54.087, 15, 0.00, 0.25, 97, -2.600, -1.000, -49.000, 783, 100, 95, 28, 23781, -20049, 5197, 5358, 18, 14, 1530828534.087, 46, 0, 1024, 1024, 1024, 1024, 0, 6, 3966, 3955, 3983, 3966, 3985, 3978, 0, 1, 18499, -89.900, 0.000, -49.100, 0.000, 0.000, -3.100, 0.0, , , , , , 96, , , 31, 31, 31
35.7347988, -118.6147865, 39.600, 15:08:54.187, 15, 0.00, 0.25, 97, -2.800, -1.100, -49.000, 783, 100, 95, 28, 23781, -20049, 5197, 5358, 18, 14, 1530828534.187, 38, 0, 1024, 1024, 1024, 1024, 0, 6, 3966, 3955, 3983, 3966, 3985, 3978, 0, 1, 18599, -89.900, 0.000, -49.100, 0.000, 0.000, -3.000, 0.0, , , , , , 96, , , 31, 31, 31
35.7347988, -118.6147864, 39.900, 15:08:54.287, 15, 0.00, 0.25, 97, -2.900, -1.400, -48.800, 783, 100, 95, 28, 23781, -20049, 5197, 5358, 18, 14, 1530828534.287, 31, 0, 1024, 1024, 1024, 1024, 0, 6, 3966, 3955, 3983, 3966, 3985, 3978, 0, 1, 18699, -89.900, 0.000, -49.100, 0.000, 0.000, -3.000, 0.0, , , , , , 96, , , 31, 31, 31
35.7347988, -118.6147864, 40.200, 15:08:54.387, 15, 0.00, 0.25, 97, -3.000, -1.700, -48.600, 783, 100, 95, 28, 23781, -20049, 5197, 5358, 18, 14, 1530828534.387, 21, 0, 1024, 1024, 1024, 1024, 0, 6, 3966, 3955, 3983, 3966, 3985, 3978, 0, 1, 18799, -89.900, 0.000, -49.100, 0.000, 0.000, -2.900, 0.0, , , , , , 96, , , 31, 31, 31
35.7347988, -118.6147863, 40.500, 15:08:54.487, 15, 0.00, 0.24, 97, -3.200, -2.000, -48.400, 783, 100, 95, 28, 23781, -20049, 5197, 5358, 18, 14, 1530828534.487, 38, 0, 1024, 1024, 1024, 1024, 0, 6, 3966, 3955, 3983, 3966, 3985, 3978, 0, 1, 18899, -90.000, 0.000, -49.100, 0.000, 0.000, -3.000, 0.0, , , , , , 96, , , 31, 31, 31
35.7347987, -118.6147862, 40.800, 15:08:54.587, 15, 0.00, 0.24, 97, -3.400, -2.200, -48.300, 783, 100, 95, 28, 23781, -20049, 5197, 5358, 18, 14, 1530828534.587, 27, 0, 1024, 1024, 1024, 1024, 0, 6, 3960, 3951, 3977, 3944, 3987, 3963, 0, 1, 18999, -90.000, 0.000, -49.100, 0.000, 0.000, -3.000, 0.0, , , , , , 96, , , 31, 31, 31
35.7347987, -118.6147861, 41.200, 15:08:54.687, 15, 0.00, 0.23, 97, -3.600, -2.300, -48.300, 783, 100, 98, 28, 23781, -20049, 5197, 5358, 18, 14, 1530828534.687, 26, 0, 1024, 1024, 1024, 1024, 0, 6, 3960, 3951, 3977, 3944, 3987, 3963, 0, 1, 19099, -90.000, 0.000, -49.100, 0.000, 0.000, -3.100, 0.0, , , , , , 96, , , 31, 31, 31
35.7347988, -118.6147860, 41.500, 15:08:54.787, 15, 0.00, 0.23, 97, -3.700, -2.400, -48.200, 783, 100, 98, 28, 23781, -20049, 5197, 5358, 18, 14, 1530828534.787, 15, 0, 1024, 1024, 1024, 1024, 0, 6, 3960, 3951, 3977, 3944, 3987, 3963, 0, 1, 19199, -90.000, 0.000, -49.100, 0.000, 0.000, -3.000, 0.0, , , , , , 96, , , 31, 31, 31
35.7347987, -118.6147859, 41.800, 15:08:54.887, 15, 0.00, 0.22, 97, -3.700, -2.700, -48.200, 783, 100, 98, 28, 23781, -20049, 5197, 5358, 18, 14, 1530828534.887, 30, 0, 1024, 1024, 1024, 1024, 0, 6, 3960, 3951, 3977, 3944, 3987, 3963, 0, 1, 19299, -90.000, 0.000, -49.100, 0.000, 0.000, -2.900, 0.0, , , , , , 96, , , 31, 31, 31
35.7347987, -118.6147858, 42.100, 15:08:54.987, 15, 0.00, 0.22, 97, -3.900, -2.600, -48.200, 783, 100, 98, 28, 23781, -20049, 5197, 5358, 18, 14, 1530828534.987, 10, 0, 1024, 1024, 1024, 1024, 0, 6, 3960, 3951, 3977, 3944, 3987, 3963, 0, 1, 19399, -89.900, 0.000, -49.100, 0.000, 0.000, -2.900, 0.0, , , , , , 96, , , 31, 31, 31
35.7347987, -118.6147857, 42.400, 15:08:55.087, 15, 0.00, 0.21, 97, -3.800, -2.500, -48.300, 783, 100, 98, 28, 23781, -20049, 5197, 5358, 18, 14, 1530828535.087, 14, 0, 1024, 1024, 1024, 1024, 0, 6, 3960, 3951, 3977, 3944, 3987, 3963, 0, 1, 19499, -90.000, 0.000, -49.100, 0.000, 0.000, -2.900, 0.0, , , , , , 96, , , 31, 31, 31
35.7347988, -118.6147856, 42.700, 15:08:55.187, 15, 0.00, 0.20, 97, -4.100, -2.400, -48.400, 783, 100, 99, 28, 23781, -20049, 5197, 5358, 18, 14, 1530828535.187, 14, 0, 1024, 1024, 1024, 1024, 0, 6, 3960, 3951, 3977, 3944, 3987, 3963, 0, 1, 19599, -89.900, 0.000, -49.100, 0.000, 0.000, -2.900, 0.0, , , , , , 96, , , 31, 31, 31
35.7347988, -118.6147856, 42.700, 15:08:55.287, 15, 0.00, 0.20, 97, -4.100, -2.400, -48.400, 783, 100, 99, 28, 23781, -20049, 5197, 5358, 18, 14, 1530828535.287, 114, 0, 1024, 1024, 1024, 1024, 0, 6, 3960, 3951, 3977, 3944, 3987, 3963, 0, 1, 19699, -89.900, 0.000, -49.100, 0.000, 0.000, -2.900, 0.0, , , , , , 96, , , 31, 31, 31
35.7347988, -118.6147855, 43.000, 15:08:55.387, 15, 0.00, 0.19, 97, -4.100, -2.200, -48.500, 783, 100, 99, 28, 23781, -20049, 5197, 5358, 18, 14, 1530828535.387, 85, 0, 1024, 1024, 1024, 1024, 0, 6, 3960, 3951, 3977, 3944, 3987, 3963, 0, 1, 19799, -89.900, 0.000, -49.100, 0.000, 0.000, -2.900, 0.0, , , , , , 96, , , 31, 31, 31
35.7347989, -118.6147854, 43.300, 15:08:55.487, 15, 0.00, 0.19, 97, -4.300, -2.200, -48.500, 783, 100, 99, 28, 23781, -20049, 5197, 5358, 18, 14, 1530828535.487, 97, 0, 1024, 1024, 1024, 1024, 0, 6, 3960, 3951, 3977, 3944, 3987, 3963, 0, 1, 19899, -90.000, 0.000, -49.100, 0.000, 0.000, -3.000, 0.0, , , , , , 96, , , 31, 31, 31
35.7347989, -118.6147853, 43.700, 15:08:55.587, 15, 0.00, 0.18, 97, -4.500, -2.400, -48.500, 783, 100, 99, 28, 23781, -20049, 5197, 5358, 18, 14, 1530828535.587, 91, 0, 1024, 1024, 1024, 1024, 0, 6, 3960, 3951, 3977, 3944, 3987, 3963, 0, 1, 19999, -90.000, 0.000, -49.100, 0.000, 0.000, -2.900, 0.0, , , , , , 96, , , 31, 31, 31
35.7347990, -118.6147851, 44.300, 15:08:55.687, 15, 0.00, 0.16, 97, -4.500, -2.800, -48.500, 783, 100, 99, 28, 23744, -20482, 5197, 5358, 18, 14, 1530828535.687, 95, 0, 1024, 1024, 1024, 1024, 0, 6, 3953, 3949, 3958, 3951, 3976, 3977, 0, 1, 20099, -90.000, 0.000, -49.100, 0.000, 0.000, -2.900, 0.0, , , , , , 96, , , 31, 31, 31
35.7347990, -118.6147851, 44.300, 15:08:55.787, 15, 0.00, 0.16, 97, -4.500, -2.800, -48.500, 783, 100, 99, 28, 23744, -20482, 5197, 5358, 18, 14, 1530828535.787, 195, 0, 1024, 1024, 1024, 1024, 0, 6, 3953, 3949, 3958, 3951, 3976, 3977, 0, 1, 20199, -89.900, 0.000, -49.100, 0.000, 0.000, -2.900, 0.0, , , , , , 96, , , 31, 31, 31
35.7347991, -118.6147849, 44.900, 15:08:55.887, 15, 0.00, 0.14, 97, -5.000, -2.600, -48.300, 783, 100, 99, 28, 23744, -20482, 5197, 5358, 18, 14, 1530828535.887, 90, 0, 1024, 1024, 1024, 1024, 0, 6, 3953, 3949, 3958, 3951, 3976, 3977, 0, 1, 20299, -90.000, 0.000, -49.100, 0.000, 0.000, -2.900, 0.0, , , , , , 96, , , 31, 31, 31
35.7347992, -118.6147847, 45.200, 15:08:55.987, 15, 0.00, 0.13, 97, -5.300, -2.500, -48.400, 783, 100, 99, 28, 23744, -20482, 5197, 5358, 18, 14, 1530828535.987, 81, 0, 1024, 1024, 1024, 1024, 0, 6, 3953, 3949, 3958, 3951, 3976, 3977, 0, 1, 20399, -89.900, 0.000, -49.100, 0.000, 0.000, -2.900, 0.0, , , , , , 96, , , 31, 31, 31
35.7347993, -118.6147846, 45.500, 15:08:56.087, 15, 0.00, 0.12, 97, -5.500, -2.200, -48.600, 783, 100, 99, 28, 23744, -20482, 5197, 5358, 18, 14, 1530828536.087, 72, 0, 1024, 1024, 1024, 1024, 0, 6, 3953, 3949, 3958, 3951, 3976, 3977, 0, 1, 20499, -89.900, 0.000, -49.100, 0.000, 0.000, -2.900, 0.0, , , , , , 96, , , 31, 31, 31
35.7347993, -118.6147846, 45.500, 15:08:56.187, 15, 0.00, 0.12, 97, -5.500, -2.200, -48.600, 783, 100, 99, 28, 23744, -20482, 5197, 5358, 18, 14, 1530828536.187, 172, 0, 1024, 1024, 1024, 1024, 0, 6, 3953, 3949, 3958, 3951, 3976, 3977, 0, 1, 20599, -89.900, 0.000, -49.100, 0.000, 0.000, -2.900, 0.0, , , , , , 96, , , 31, 31, 31
35.7347994, -118.6147843, 46.000, 15:08:56.287, 15, 0.00, 0.11, 97, -5.100, -3.200, -48.800, 783, 100, 98, 28, 23744, -20482, 5197, 5358, 18, 14, 1530828536.287, 64, 0, 1024, 1024, 1024, 1024, 0, 6, 3953, 3949, 3958, 3951, 3976, 3977, 0, 1, 20699, -89.900, 0.000, -49.100, 0.000, 0.000, -2.700, 0.0, , , , , , 96, , , 31, 31, 31
35.7347994, -118.6147841, 46.300, 15:08:56.387, 15, 0.00, 0.11, 97, -4.900, -3.600, -48.800, 783, 100, 98, 28, 23744, -20482, 5197, 5358, 18, 14, 1530828536.388, 58, 0, 1024, 1024, 1024, 1024, 0, 6, 3953, 3949, 3958, 3951, 3976, 3977, 0, 1, 20800, -89.900, 0.000, -49.100, 0.000, 0.000, -2.800, 0.0, , , , , , 96, , , 31, 31, 31
