latitude,longitude,altitude(feet),ascent(feet),speed(mph),distance(feet),time(millisecond),datetime(utc),satellites,gpslevel,voltage(v),max_altitude(feet),max_ascent(feet),max_speed(mph),max_distance(feet), xSpeed(mph), ySpeed(mph), zSpeed(mph), compass_heading(degrees), pitch(degrees), roll(degrees),isPhoto,isVideo,rc_elevator,rc_aileron,rc_throttle,rc_rudder,gimbal_heading(degrees),gimbal_pitch(degrees),battery_percent,voltageCell1,voltageCell2,voltageCell3,voltageCell4,voltageCell5,voltageCell6,current(A),battery_temperature(f),flycStateRaw,flycState,message
35.7348149,-118.6147595,4884.7286156289,0,0.223694,0,3100,2018-07-05 22:56:48,17,0,0,4884.7286156289,0,0.223694,0,0,0,0,310.5, 0, -1.9,1,0,1024,1024,1024,1024,310.4,-89.9,96,4.276,4.27,4.27,4.285,4.282,4.276,0,86,11,AutoTakeoff,DJI_0707.jpg Starting Mission from Lat/Long: 35.73482/-118.61475 Camera: Zenmuse X3 - Overlap: 90/90 - Active Connection: No
35.7348148,-118.61476,4885.0566996289,0.328084,0.4921268,0.152507878896,3200,2018-07-05 22:56:48,16,0,0,4885.0566996289,0.328084,0.4921268,0.152507878896,0,0,0,310.5, 0.6, -0.1,0,0,1024,1024,1024,1024,310.4,-89.9,96,4.276,4.27,4.27,4.285,4.282,4.276,0,86,11,AutoTakeoff,
35.7348147,-118.6147603,4885.3847836289,0.656168,0.4921268,0.247909456752,3400,2018-07-05 22:56:48,16,0,0,4885.3847836289,0.656168,0.4921268,0.247909456752,0,0,0,310.6, 0.8, 0.5,0,0,1024,1024,1024,1024,310.4,-89.9,96,4.276,4.27,4.27,4.285,4.282,4.276,0,86,11,AutoTakeoff,
35.7348145,-118.6147605,4885.3847836289,0.656168,0.4921268,0.33016405256,3500,2018-07-05 22:56:48,16,0,0,4885.3847836289,0.656168,0.4921268,0.33016405256,0,0,0,310.8, 1.1, 1.1,0,0,1024,1024,1024,1024,310.4,-89.9,96,4.276,4.27,4.27,4.285,4.282,4.276,0,86,11,AutoTakeoff,
35.7348143,-118.614761,4885.7128676289,0.984252,0.3131716,0.49524607884,3600,2018-07-05 22:56:49,15,0,0,4885.7128676289,0.984252,0.4921268,0.49524607884,0,0,0,310.8, 0.9, 2.2,0,0,1024,1024,1024,1024,310.4,-89.9,96,4.276,4.27,4.27,4.285,4.282,4.276,0,86,11,AutoTakeoff,
35.7348142,-118.6147612,4885.7128676289,0.984252,0.223694,0.56454398132,3700,2018-07-05 22:56:49,15,0,0,4885.7128676289,0.984252,0.4921268,0.56454398132,0,0,0,310.6, 0.5, 2.1,0,0,1024,1024,1024,1024,310.4,-90,96,4.276,4.27,4.27,4.285,4.282,4.276,0,86,11,AutoTakeoff,
35.7348141,-118.6147613,4886.0409516289,1.312336,0,0.60776248664,3800,2018-07-05 22:56:49,15,0,0,4886.0409516289,1.312336,0.4921268,0.60776248664,0,0,0,310.5, 0.1, 1.7,0,0,1024,1024,1024,1024,310.4,-89.9,96,4.276,4.27,4.27,4.285,4.282,4.276,0,86,11,AutoTakeoff,
35.7348141,-118.6147615,4886.3690356289,1.64042,0,0.66032810512,3900,2018-07-05 22:56:49,15,0,0,4886.3690356289,1.64042,0.4921268,0.66032810512,0,0,-0.223694,310.4, 0.3, 1.5,0,0,1024,1024,1024,1024,310.4,-89.9,96,4.276,4.27,4.27,4.285,4.282,4.276,0,86,11,AutoTakeoff,
35.734814,-118.6147616,4886.3690356289,1.64042,0,0.70329398576,4000,2018-07-05 22:56:49,15,0,25.681,4886.3690356289,1.64042,0.4921268,0.70329398576,0,0,-0.223694,310.3, 0.4, 1.3,0,0,1024,1024,1024,1024,310.4,-89.9,96,4.276,4.27,4.27,4.285,4.282,4.276,4.042,86,11,AutoTakeoff,
35.7348139,-118.6147617,4886.6971196289,1.968504,0,0.74674871156,4100,2018-07-05 22:56:49,16,0,25.681,4886.6971196289,1.968504,0.4921268,0.74674871156,0,0,-0.223694,310.2, 0.3, 1,0,0,1024,1024,1024,1024,310.4,-89.9,96,4.276,4.27,4.27,4.285,4.282,4.276,4.042,86,11,AutoTakeoff,
35.7348139,-118.6147617,4886.6971196289,1.968504,0,0.74674871156,4200,2018-07-05 22:56:49,16,0,25.681,4886.6971196289,1.968504,0.4921268,0.74674871156,0,0,0,310.2, 0.1, 0.9,0,0,1024,1024,1024,1024,310.4,-89.9,96,4.276,4.27,4.27,4.285,4.282,4.276,4.042,86,11,AutoTakeoff,
35.7348138,-118.6147617,4887.0252036289,2.296588,0,0.76523624496,4300,2018-07-05 22:56:49,17,0,25.681,4887.0252036289,2.296588,0.4921268,0.76523624496,0,0,-0.223694,310.2, 0, 0.9,0,0,1024,1024,1024,1024,310.4,-89.9,96,4.276,4.27,4.27,4.285,4.282,4.276,4.042,86,11,AutoTakeoff,
35.7348137,-118.6147617,4887.3532876289,2.624672,0,0.78498690176,4400,2018-07-05 22:56:49,17,0,25.681,4887.3532876289,2.624672,0.4921268,0.78498690176,0,0,-0.223694,310.2, -0.1, 0.9,0,0,1024,1024,1024,1024,310.4,-90,96,4.276,4.27,4.27,4.285,4.282,4.276,4.042,86,11,AutoTakeoff,
35.7348136,-118.6147617,4887.3532876289,2.624672,0,0.80590225676,4500,2018-07-05 22:56:49,15,0,25.681,4887.3532876289,2.624672,0.4921268,0.80590225676,0,0,0,310.3, -0.5, 0.8,0,0,1024,1024,1024,1024,310.4,-90,96,4.276,4.27,4.27,4.285,4.282,4.276,4.042,86,11,AutoTakeoff,
35.7348135,-118.6147617,4887.6813716289,2.952756,0,0.8279035698,4600,2018-07-05 22:56:50,15,0,25.681,4887.6813716289,2.952756,0.4921268,0.8279035698,0,0,0,310.5, -0.9, 0.8,0,0,1024,1024,1024,1024,310.4,-90,96,4.276,4.27,4.27,4.285,4.282,4.276,4.042,86,11,AutoTakeoff,
35.7348134,-118.6147617,4887.6813716289,2.952756,0,0.85089569652,4700,2018-07-05 22:56:50,16,0,25.681,4887.6813716289,2.952756,0.4921268,0.85089569652,0,0,0,310.6, -1.1, 0.9,0,0,1024,1024,1024,1024,310.4,-90,96,4.276,4.27,4.27,4.285,4.282,4.276,4.042,86,14,Waypoint,
35.7348133,-118.6147616,4887.6813716289,2.952756,0,0.85297902992,4800,2018-07-05 22:56:50,16,0,25.681,4887.6813716289,2.952756,0.4921268,0.85297902992,0,0,0,310.8, -1.1, 0.9,0,0,1024,1024,1024,1024,310.4,-90,96,4.276,4.27,4.27,4.285,4.282,4.276,4.042,86,14,Waypoint,
35.7348132,-118.6147616,4888.0094556289,3.28084,0,0.87835304648,5000,2018-07-05 22:56:50,16,0,25,4888.0094556289,3.28084,0.4921268,0.87835304648,0,0,0,311.2, -0.9, 0.2,0,0,1024,1024,1024,1024,310.4,-90,96,4.154,4.155,4.132,4.146,4.142,4.153,12.721,86,14,Waypoint,
35.7348132,-118.6147616,4888.0094556289,3.28084,0,0.87835304648,5200,2018-07-05 22:56:50,17,0,25,4888.0094556289,3.28084,0.4921268,0.87835304648,0,0,0,311.5, -0.6, 0,0,0,1024,1024,1024,1024,310.4,-90,96,4.154,4.155,4.132,4.146,4.142,4.153,12.721,86,14,Waypoint,
35.7348131,-118.6147615,4888.3375396289,3.608924,0,0.8843832304,5300,2018-07-05 22:56:50,17,0,25,4888.3375396289,3.608924,0.4921268,0.8843832304,0,0,-0.223694,312, -0.5, 0,0,0,1024,1024,1024,1024,310.5,-90,96,4.154,4.155,4.132,4.146,4.142,4.153,12.721,86,14,Waypoint,
35.734813,-118.6147615,4888.6656236289,3.937008,0,0.91180449112,5400,2018-07-05 22:56:50,17,0,25,4888.6656236289,3.937008,0.4921268,0.91180449112,0,0,-0.223694,312.4, -0.6, 0.6,0,0,1024,1024,1024,1024,310.5,-90,96,4.154,4.155,4.132,4.146,4.142,4.153,12.721,86,14,Waypoint,
35.734813,-118.6147614,4888.9937076289,4.265092,0,0.8928477976,5500,2018-07-05 22:56:50,16,0,25,4888.9937076289,4.265092,0.4921268,0.91180449112,0,0,-0.223694,312.7, -0.9, 1,0,0,1024,1024,1024,1024,310.5,-90,96,4.154,4.155,4.132,4.146,4.142,4.153,12.721,86,14,Waypoint,
35.7348129,-118.6147613,4889.3217916289,4.593176,0,0.90368113128,5600,2018-07-05 22:56:51,16,0,25,4889.3217916289,4.593176,0.4921268,0.91180449112,0,0,-0.223694,312.8, -1.2, 0.6,0,0,1024,1024,1024,1024,310.6,-90,96,4.154,4.155,4.132,4.146,4.142,4.153,12.721,86,14,Waypoint,
35.7348129,-118.6147611,4890.3060436289,5.577428,0,0.87005580212,5710,2018-07-05 22:56:51,16,0,25,4890.3060436289,5.577428,0.4921268,0.91180449112,0,0,-0.447388,313.1, -1, -0.1,0,0,1024,1024,1024,1024,310.6,-90,96,4.154,4.155,4.132,4.146,4.142,4.153,12.721,86,14,Waypoint,
35.7348129,-118.6147611,4890.3060436289,5.577428,0,0.87005580212,5800,2018-07-05 22:56:51,16,0,25,4890.3060436289,5.577428,0.4921268,0.91180449112,0,0,-0.447388,313.1, -1, -0.1,0,0,1024,1024,1024,1024,310.6,-90,96,4.154,4.155,4.132,4.146,4.142,4.153,12.721,86,14,Waypoint,
35.7348129,-118.6147609,4890.9622116289,6.233596,0,0.83926839956,6000,2018-07-05 22:56:51,17,0,24.758,4890.9622116289,6.233596,0.4921268,0.91180449112,0,0,-0.447388,313.1, -1.4, -0.3,0,0,1024,1024,1024,1024,310.7,-90,96,4.114,4.129,4.12,4.124,4.131,4.124,14.911,86,14,Waypoint,
35.7348129,-118.6147606,4892.2745476289,7.545932,0,0.79911747964,6100,2018-07-05 22:56:51,17,0,24.758,4892.2745476289,7.545932,0.4921268,0.91180449112,0,0,-0.447388,313.2, -2.2, -0.6,0,0,1024,1024,1024,1024,310.8,-90,96,4.114,4.129,4.12,4.124,4.131,4.124,14.911,86,14,Waypoint,
35.7348129,-118.6147604,4892.9307156289,8.2021,0,0.77685698024,6200,2018-07-05 22:56:51,17,0,24.758,4892.9307156289,8.2021,0.4921268,0.91180449112,0,0,-0.671082,313, -2.2, -0.9,0,0,1024,1024,1024,1024,310.8,-90,96,4.114,4.129,4.12,4.124,4.131,4.124,14.911,86,14,Waypoint,
35.7348129,-118.6147602,4893.9149676289,9.186352,0,0.75857613976,6300,2018-07-05 22:56:51,17,0,24.758,4893.9149676289,9.186352,0.4921268,0.91180449112,0,0,-0.671082,312.9, -2.1, -1.1,0,0,1024,1024,1024,1024,310.9,-90,96,4.114,4.129,4.12,4.124,4.131,4.124,14.911,86,14,Waypoint,
35.7348129,-118.6147601,4894.8992196289,10.170604,0,0.75102364608,6400,2018-07-05 22:56:51,17,0,24.758,4894.8992196289,10.170604,0.4921268,0.91180449112,0,0,-0.671082,312.8, -2.1, -1.3,0,0,1024,1024,1024,1024,310.9,-90,96,4.114,4.129,4.12,4.124,4.131,4.124,14.911,86,14,Waypoint,
35.7348129,-118.6147599,4896.2115556289,11.48294,0,0.73925199216,6500,2018-07-05 22:56:51,18,0,24.758,4896.2115556289,11.48294,0.4921268,0.91180449112,0,0,-0.671082,312.6, -2.2, -1.5,0,0,1024,1024,1024,1024,310.9,-90,96,4.114,4.129,4.12,4.124,4.131,4.124,14.911,86,14,Waypoint,
35.734813,-118.6147597,4897.1958076289,12.467192,0,0.69573821124,6600,2018-07-05 22:56:52,18,0,24.758,4897.1958076289,12.467192,0.4921268,0.91180449112,0,0,-0.671082,312.5, -2.6, -1.6,0,0,1024,1024,1024,1024,311,-90,96,4.114,4.129,4.12,4.124,4.131,4.124,14.911,86,14,Waypoint,
35.734813,-118.6147596,4898.1800596289,13.451444,0,0.69384516656,6700,2018-07-05 22:56:52,19,0,24.758,4898.1800596289,13.451444,0.4921268,0.91180449112,0,0,-0.671082,312.5, -2.7, -1.8,0,0,1024,1024,1024,1024,311,-89.9,96,4.114,4.129,4.12,4.124,4.131,4.124,14.911,86,14,Waypoint,
35.7348131,-118.6147595,4899.4923956289,14.76378,0,0.65672902364,6800,2018-07-05 22:56:52,19,0,24.758,4899.4923956289,14.76378,0.4921268,0.91180449112,0,0,-0.671082,312.6, -2.4, -1.6,0,0,1024,1024,1024,1024,311.1,-89.9,96,4.114,4.129,4.12,4.124,4.131,4.124,14.911,86,14,Waypoint,
35.7348131,-118.6147594,4900.4766476289,15.748032,0,0.65739503416,6900,2018-07-05 22:56:52,19,0,24.758,4900.4766476289,15.748032,0.4921268,0.91180449112,0,0,-0.671082,312.7, -2, -1.5,0,0,1024,1024,1024,1024,311.1,-89.9,96,4.114,4.129,4.12,4.124,4.131,4.124,14.911,86,14,Waypoint,
35.7348132,-118.6147594,4901.7889836289,17.060368,0,0.62095146344,7000,2018-07-05 22:56:52,19,0,24.517,4901.7889836289,17.060368,0.4921268,0.91180449112,0,0,-0.671082,312.7, -1.7, -1.4,0,0,1024,1024,1024,1024,311.1,-89.9,95,4.065,4.076,4.094,4.077,4.094,4.064,16.914,86,14,Waypoint,
35.7348132,-118.6147594,4902.7732356289,18.04462,0,0.62095146344,7100,2018-07-05 22:56:52,19,0,24.517,4902.7732356289,18.04462,0.4921268,0.91180449112,0,0,-0.671082,312.6, -1.5, -1.2,0,0,1024,1024,1024,1024,311.2,-90,95,4.065,4.076,4.094,4.077,4.094,4.064,16.914,86,14,Waypoint,
35.7348132,-118.6147594,4903.7574876289,19.028872,0,0.62095146344,7200,2018-07-05 22:56:52,19,0,24.517,4903.7574876289,19.028872,0.4921268,0.91180449112,0,0,-0.671082,312.6, -1.4, -1.1,0,0,1024,1024,1024,1024,311.2,-89.9,95,4.065,4.076,4.094,4.077,4.094,4.064,16.914,86,14,Waypoint,
35.7348132,-118.6147594,4905.0698236289,20.341208,0,0.62095146344,7300,2018-07-05 22:56:52,19,0,24.517,4905.0698236289,20.341208,0.4921268,0.91180449112,0,0,-0.671082,312.6, -1.4, -0.9,0,0,1024,1024,1024,1024,311.2,-89.9,95,4.065,4.076,4.094,4.077,4.094,4.064,16.914,86,14,Waypoint,
35.7348132,-118.6147594,4906.0540756289,21.32546,0,0.62095146344,7400,2018-07-05 22:56:52,19,0,24.517,4906.0540756289,21.32546,0.4921268,0.91180449112,0,0,-0.671082,312.5, -1.5, -0.8,0,0,1024,1024,1024,1024,311.3,-89.9,95,4.065,4.076,4.094,4.077,4.094,4.064,16.914,86,14,Waypoint,
35.7348132,-118.6147594,4907.0383276289,22.309712,0,0.62095146344,7500,2018-07-05 22:56:52,19,0,24.517,4907.0383276289,22.309712,0.4921268,0.91180449112,0,0,-0.671082,312.6, -1.7, -0.7,0,0,1024,1024,1024,1024,311.3,-89.9,95,4.065,4.076,4.094,4.077,4.094,4.064,16.914,86,14,Waypoint,
35.7348131,-118.6147596,4909.3349156289,24.6063,0,0.65739503416,7700,2018-07-05 22:56:53,19,0,24.517,4909.3349156289,24.6063,0.4921268,0.91180449112,0,0,-0.671082,312.7, -1.5, -0.4,0,0,1024,1024,1024,1024,311.3,-89.9,95,4.065,4.076,4.094,4.077,4.094,4.064,16.914,86,14,Waypoint,
35.7348131,-118.6147596,4910.3191676289,25.590552,0,0.65739503416,7900,2018-07-05 22:56:53,19,0,24.517,4910.3191676289,25.590552,0.4921268,0.91180449112,0,0,-0.671082,312.7, -1.5, -0.3,0,0,1024,1024,1024,1024,311.4,-89.9,95,4.065,4.076,4.094,4.077,4.094,4.064,16.914,86,14,Waypoint,
35.734813,-118.6147597,4911.3034196289,26.574804,0,0.69573821124,8000,2018-07-05 22:56:53,19,0,24.143,4911.3034196289,26.574804,0.4921268,0.91180449112,0,0,-0.671082,312.7, -1.6, -0.3,0,0,1024,1024,1024,1024,311.4,-89.9,95,4.005,4.027,4.029,4.041,4.058,4.028,22.694,86,14,Waypoint,
35.734813,-118.6147599,4913.6000076289,28.871392,0,0.7032644582,8100,2018-07-05 22:56:53,19,0,24.143,4913.6000076289,28.871392,0.4921268,0.91180449112,0,0,-0.671082,312.5, -1.3, -0.8,0,0,1024,1024,1024,1024,311.4,-89.9,95,4.005,4.027,4.029,4.041,4.058,4.028,22.694,86,14,Waypoint,
35.734813,-118.61476,4914.5842596289,29.855644,0,0.70885172872,8300,2018-07-05 22:56:53,19,0,24.143,4914.5842596289,29.855644,0.4921268,0.91180449112,0,0,-0.671082,312.6, -1.2, -0.8,0,0,1024,1024,1024,1024,311.4,-89.9,95,4.005,4.027,4.029,4.041,4.058,4.028,22.694,86,14,Waypoint,
35.734813,-118.6147601,4916.5527636289,31.824148,0,0.71562666332,8400,2018-07-05 22:56:53,19,0,24.143,4916.5527636289,31.824148,0.4921268,0.91180449112,0,0,-0.671082,313.1, -1.3, -0.7,0,0,1024,1024,1024,1024,311.5,-90,95,4.005,4.027,4.029,4.041,4.058,4.028,22.694,86,14,Waypoint,
35.734813,-118.6147601,4917.8650996289,33.136484,0.223694,0.71562666332,8500,2018-07-05 22:56:53,19,0,24.143,4917.8650996289,33.136484,0.4921268,0.91180449112,0,0,-0.671082,313.3, -1.1, -1,0,0,1024,1024,1024,1024,311.5,-89.9,95,4.005,4.027,4.029,4.041,4.058,4.028,22.694,86,14,Waypoint,
35.7348131,-118.6147602,4918.8493516289,34.120736,0.223694,0.68867456272,8600,2018-07-05 22:56:54,19,0,24.143,4918.8493516289,34.120736,0.4921268,0.91180449112,0,0,-0.671082,313.2, -0.7, -1.6,0,0,1024,1024,1024,1024,311.5,-89.9,95,4.005,4.027,4.029,4.041,4.058,4.028,22.694,86,14,Waypoint,
35.7348132,-118.6147602,4919.8336036289,35.104988,0.223694,0.65397311804,8700,2018-07-05 22:56:54,19,0,24.143,4919.8336036289,35.104988,0.4921268,0.91180449112,0,0,-0.671082,313, -0.3, -2.5,0,0,1024,1024,1024,1024,311.5,-89.9,95,4.005,4.027,4.029,4.041,4.058,4.028,22.694,86,14,Waypoint,
35.7348133,-118.6147602,4920.8178556289,36.08924,0.223694,0.61947836628,8800,2018-07-05 22:56:54,19,0,24.143,4920.8178556289,36.08924,0.4921268,0.91180449112,0,0,-0.671082,312.8, -0.2, -3.4,0,0,1024,1024,1024,1024,311.5,-89.9,95,4.005,4.027,4.029,4.041,4.058,4.028,22.694,86,14,Waypoint,
35.7348134,-118.6147602,4922.1301916289,37.401576,0.223694,0.58522311584,8900,2018-07-05 22:56:54,19,0,24.143,4922.1301916289,37.401576,0.4921268,0.91180449112,0,0,-0.671082,312.6, -0.1, -4.5,0,0,1024,1024,1024,1024,311.6,-89.9,95,4.005,4.027,4.029,4.041,4.058,4.028,22.694,86,14,Waypoint,
35.7348135,-118.6147602,4923.1144436289,38.385828,0.223694,0.55125657932,9000,2018-07-05 22:56:54,19,0,24.304,4923.1144436289,38.385828,0.4921268,0.91180449112,0,0,-0.671082,312.6, -0.2, -4.7,0,0,1024,1024,1024,1024,311.6,-89.9,95,4.043,4.051,4.059,4.053,4.058,4.055,18.685,86,14,Waypoint,
35.7348136,-118.6147602,4924.0986956289,39.37008,0.223694,0.51763125016,9100,2018-07-05 22:56:54,19,0,24.304,4924.0986956289,39.37008,0.4921268,0.91180449112,0,0,-0.671082,312.5, -0.4, -4.3,0,0,1024,1024,1024,1024,311.6,-89.9,95,4.043,4.051,4.059,4.053,4.058,4.055,18.685,86,14,Waypoint,
35.7348137,-118.6147601,4925.0829476289,40.354332,0,0.4725065768,9200,2018-07-05 22:56:54,19,0,24.304,4925.0829476289,40.354332,0.4921268,0.91180449112,0,0,-0.671082,312.6, -0.4, -3.6,0,0,1024,1024,1024,1024,311.6,-89.9,95,4.043,4.051,4.059,4.053,4.058,4.055,18.685,86,14,Waypoint,
35.7348137,-118.6147602,4926.0671996289,41.338584,0,0.48441930684,9300,2018-07-05 22:56:54,19,0,24.304,4926.0671996289,41.338584,0.4921268,0.91180449112,0,0,-0.671082,312.8, -0.3, -2.9,0,0,1024,1024,1024,1024,311.6,-89.9,95,4.043,4.051,4.059,4.053,4.058,4.055,18.685,86,14,Waypoint,
35.7348137,-118.6147603,4927.0514516289,42.322836,0,0.49781497656,9400,2018-07-05 22:56:54,19,0,24.304,4927.0514516289,42.322836,0.4921268,0.91180449112,0,0,-0.671082,313, -0.3, -2.6,0,0,1024,1024,1024,1024,311.7,-89.9,95,4.043,4.051,4.059,4.053,4.058,4.055,18.685,86,14,Waypoint,
35.7348138,-118.6147603,4928.0357036289,43.307088,0,0.46604988368,9500,2018-07-05 22:56:54,19,0,24.304,4928.0357036289,43.307088,0.4921268,0.91180449112,0,0,-0.671082,313, -0.2, -2.6,0,0,1024,1024,1024,1024,311.7,-89.9,95,4.043,4.051,4.059,4.053,4.058,4.055,18.685,86,14,Waypoint,
35.7348138,-118.6147604,4928.6918716289,43.963256,0,0.48178151148,9600,2018-07-05 22:56:55,19,0,24.304,4928.6918716289,43.963256,0.4921268,0.91180449112,0,0,-0.671082,313, 0, -2.6,0,0,1024,1024,1024,1024,311.7,-89.9,95,4.043,4.051,4.059,4.053,4.058,4.055,18.685,86,14,Waypoint,
35.7348138,-118.6147604,4929.6761236289,44.947508,0,0.48178151148,9700,2018-07-05 22:56:55,19,0,24.304,4929.6761236289,44.947508,0.4921268,0.91180449112,0,0,-0.671082,312.9, -0.2, -2.8,0,0,1024,1024,1024,1024,311.7,-89.9,95,4.043,4.051,4.059,4.053,4.058,4.055,18.685,86,14,Waypoint,
35.7348139,-118.6147605,4930.6603756289,45.93176,0,0.46992127488,9810,2018-07-05 22:56:55,19,0,24.304,4930.6603756289,45.93176,0.4921268,0.91180449112,0,0,-0.671082,312.8, -0.4, -2.9,0,0,1024,1024,1024,1024,311.7,-90,95,4.043,4.051,4.059,4.053,4.058,4.055,18.685,86,14,Waypoint,
35.7348139,-118.6147605,4931.6446276289,46.916012,0,0.46992127488,9900,2018-07-05 22:56:55,19,0,24.304,4931.6446276289,46.916012,0.4921268,0.91180449112,0,0,-0.671082,312.8, -0.7, -2.7,0,0,1024,1024,1024,1024,311.7,-90,95,4.043,4.051,4.059,4.053,4.058,4.055,18.685,86,14,Waypoint,
35.7348139,-118.6147604,4932.6288796289,47.900264,0,0.45184056564,10100,2018-07-05 22:56:55,19,0,24.304,4932.6288796289,47.900264,0.4921268,0.91180449112,0,0,-0.671082,312.8, -0.9, -2.6,0,0,1024,1024,1024,1024,311.7,-90,95,4.043,4.051,4.059,4.053,4.058,4.055,18.685,86,14,Waypoint,
35.734814,-118.6147604,4934.5973836289,49.868768,0,0.42292980356,10200,2018-07-05 22:56:55,19,0,24.304,4934.5973836289,49.868768,0.4921268,0.91180449112,0,0,-0.671082,312.9, -1.4, -2.8,0,0,1024,1024,1024,1024,311.7,-90,95,4.043,4.051,4.059,4.053,4.058,4.055,18.685,86,14,Waypoint,
35.734814,-118.6147603,4935.5816356289,50.85302,0,0.40491799196,10400,2018-07-05 22:56:55,19,0,24.304,4935.5816356289,50.85302,0.4921268,0.91180449112,0,0,-0.671082,312.7, -1.5, -3.3,0,0,1024,1024,1024,1024,311.8,-90,95,4.043,4.051,4.059,4.053,4.058,4.055,18.685,86,14,Waypoint,
35.7348141,-118.6147602,4936.5658876289,51.837272,0,0.35801182248,10500,2018-07-05 22:56:55,19,0,24.304,4936.5658876289,51.837272,0.4921268,0.91180449112,0,0,-0.671082,312.3, -1.4, -4,0,0,1024,1024,1024,1024,311.8,-90,95,4.043,4.051,4.059,4.053,4.058,4.055,18.685,86,14,Waypoint,
35.7348143,-118.6147603,4938.2063076289,53.477692,0,0.322576781976,10600,2018-07-05 22:56:56,19,0,24.304,4938.2063076289,53.477692,0.4921268,0.91180449112,0,0,-0.671082,312.1, 0, -3.7,0,0,1024,1024,1024,1024,311.8,-89.9,95,4.043,4.051,4.059,4.053,4.058,4.055,18.685,86,14,Waypoint,
35.7348143,-118.6147603,4939.1905596289,54.461944,0,0.322576781976,10700,2018-07-05 22:56:56,19,0,24.304,4939.1905596289,54.461944,0.4921268,0.91180449112,0,0,-0.671082,312.4, 0.2, -2.6,0,0,1024,1024,1024,1024,311.8,-89.9,95,4.043,4.051,4.059,4.053,4.058,4.055,18.685,86,14,Waypoint,
35.7348142,-118.6147604,4940.1748116289,55.446196,0,0.36915027428,10800,2018-07-05 22:56:56,19,0,24.304,4940.1748116289,55.446196,0.4921268,0.91180449112,0,0,-0.671082,312.7, -0.1, -1.7,0,0,1024,1024,1024,1024,311.8,-89.9,95,4.043,4.051,4.059,4.053,4.058,4.055,18.685,86,14,Waypoint,
35.7348141,-118.6147605,4941.1590636289,56.430448,0,0.41581694244,10900,2018-07-05 22:56:56,19,0,24.304,4941.1590636289,56.430448,0.4921268,0.91180449112,0,0,-0.671082,313, -1, -1.1,0,0,1024,1024,1024,1024,311.8,-90,95,4.043,4.051,4.059,4.053,4.058,4.055,18.685,86,14,Waypoint,
35.734814,-118.6147605,4941.8152316289,57.086616,0,0.4421916152,11000,2018-07-05 22:56:56,19,0,24.238,4941.8152316289,57.086616,0.4921268,0.91180449112,0,0,-0.671082,313.1, -1.8, -1.1,0,0,1024,1024,1024,1024,311.8,-90,95,4.021,4.02,4.042,4.034,4.042,4.044,18.919,86,14,Waypoint,
35.734814,-118.6147606,4942.7994836289,58.070868,0,0.4625492274,11100,2018-07-05 22:56:56,19,0,24.238,4942.7994836289,58.070868,0.4921268,0.91180449112,0,0,-0.671082,313.2, -2.3, -1.2,0,0,1024,1024,1024,1024,311.8,-90,95,4.021,4.02,4.042,4.034,4.042,4.044,18.919,86,14,Waypoint,
35.7348139,-118.6147606,4943.7837356289,59.05512,0,0.48912731224,11200,2018-07-05 22:56:56,19,0,24.238,4943.7837356289,59.05512,0.4921268,0.91180449112,0,0,-0.671082,313.1, -2.7, -1.2,0,0,1024,1024,1024,1024,311.8,-90,95,4.021,4.02,4.042,4.034,4.042,4.044,18.919,86,14,Waypoint,
35.7348138,-118.6147606,4944.7679876289,60.039372,0,0.5169127462,11300,2018-07-05 22:56:56,19,0,24.238,4944.7679876289,60.039372,0.4921268,0.91180449112,0,0,-0.671082,313.1, -2.7, -1.3,0,0,1024,1024,1024,1024,311.8,-90,95,4.021,4.02,4.042,4.034,4.042,4.044,18.919,86,14,Waypoint,
35.7348138,-118.6147606,4945.7522396289,61.023624,0,0.5169127462,11400,2018-07-05 22:56:56,19,0,24.238,4945.7522396289,61.023624,0.4921268,0.91180449112,0,0,-0.671082,313, -2.6, -1.3,0,0,1024,1024,1024,1024,311.8,-89.9,95,4.021,4.02,4.042,4.034,4.042,4.044,18.919,86,14,Waypoint,
35.7348137,-118.6147607,4946.7364916289,62.007876,0,0.56390421752,11500,2018-07-05 22:56:56,19,0,24.238,4946.7364916289,62.007876,0.4921268,0.91180449112,0,0,-0.671082,312.9, -2.4, -1.3,0,0,1024,1024,1024,1024,311.8,-89.9,95,4.021,4.02,4.042,4.034,4.042,4.044,18.919,86,14,Waypoint,
35.7348137,-118.6147607,4947.3926596289,62.664044,0,0.56390421752,11600,2018-07-05 22:56:57,19,0,24.238,4947.3926596289,62.664044,0.4921268,0.91180449112,0,0,-0.671082,312.8, -2.1, -1.1,0,0,1024,1024,1024,1024,311.8,-89.9,95,4.021,4.02,4.042,4.034,4.042,4.044,18.919,86,14,Waypoint,
35.7348137,-118.6147608,4948.3769116289,63.648296,0,0.5830216722,11700,2018-07-05 22:56:57,19,0,24.238,4948.3769116289,63.648296,0.4921268,0.91180449112,0,0,-0.671082,312.7, -1.8, -0.8,0,0,1024,1024,1024,1024,311.8,-89.9,95,4.021,4.02,4.042,4.034,4.042,4.044,18.919,86,14,Waypoint,
35.7348136,-118.6147608,4949.3611636289,64.632548,0,0.61089568884,11810,2018-07-05 22:56:57,19,0,24.238,4949.3611636289,64.632548,0.4921268,0.91180449112,0,0,-0.671082,312.7, -1.5, -0.7,0,0,1024,1024,1024,1024,311.8,-89.9,95,4.021,4.02,4.042,4.034,4.042,4.044,18.919,86,14,Waypoint,
35.7348136,-118.6147609,4950.3454156289,65.6168,0,0.62998033512,11900,2018-07-05 22:56:57,19,0,24.238,4950.3454156289,65.6168,0.4921268,0.91180449112,0,0,-0.671082,312.7, -1.3, -0.8,0,0,1024,1024,1024,1024,311.8,-89.9,95,4.021,4.02,4.042,4.034,4.042,4.044,18.919,86,14,Waypoint,
35.7348137,-118.614761,4952.3139196289,67.585304,0,0.62372377324,12100,2018-07-05 22:56:57,19,0,24.238,4952.3139196289,67.585304,0.4921268,0.91180449112,0,0,-0.671082,312.4, -1, -2.1,0,0,1024,1024,1024,1024,311.8,-89.9,95,4.021,4.02,4.042,4.034,4.042,4.044,18.919,86,14,Waypoint,
35.7348136,-118.614761,4953.6262556289,68.89764,0,0.64985566384,12300,2018-07-05 22:56:57,19,0,24.238,4953.6262556289,68.89764,0.4921268,0.91180449112,0,0,-0.671082,312.3, -1, -2.2,0,0,1024,1024,1024,1024,311.8,-89.9,95,4.021,4.02,4.042,4.034,4.042,4.044,18.919,86,14,Waypoint,
35.7348136,-118.6147611,4954.6105076289,69.881892,0,0.67044949652,12400,2018-07-05 22:56:57,19,0,24.238,4954.6105076289,69.881892,0.4921268,0.91180449112,0,0,-0.671082,312.2, -1.2, -2.2,0,0,1024,1024,1024,1024,311.8,-89.9,95,4.021,4.02,4.042,4.034,4.042,4.044,18.919,86,14,Waypoint,
35.7348136,-118.6147611,4955.5947596289,70.866144,0,0.67044949652,12500,2018-07-05 22:56:57,19,0,24.238,4955.5947596289,70.866144,0.4921268,0.91180449112,0,0,-0.671082,312.3, -1.2, -1.7,0,0,1024,1024,1024,1024,311.8,-90,95,4.021,4.02,4.042,4.034,4.042,4.044,18.919,86,14,Waypoint,
35.7348134,-118.6147613,4957.5632636289,72.834648,0,0.76399608744,12600,2018-07-05 22:56:58,19,0,24.238,4957.5632636289,72.834648,0.4921268,0.91180449112,0,0,-0.671082,313, -1.6, -0.8,0,0,1024,1024,1024,1024,311.8,-90,95,4.021,4.02,4.042,4.034,4.042,4.044,18.919,86,14,Waypoint,
35.7348133,-118.6147613,4958.5475156289,73.8189,0,0.79054136388,12700,2018-07-05 22:56:58,19,0,24.238,4958.5475156289,73.8189,0.4921268,0.91180449112,0,0,-0.671082,313.3, -1.7, -0.7,0,0,1024,1024,1024,1024,311.8,-90,95,4.021,4.02,4.042,4.034,4.042,4.044,18.919,86,14,Waypoint,
35.7348133,-118.6147614,4959.5317676289,74.803152,0,0.81080711256,12800,2018-07-05 22:56:58,19,0,24.238,4959.5317676289,74.803152,0.4921268,0.91180449112,0,0,-0.671082,313.4, -1.8, -0.8,0,0,1024,1024,1024,1024,311.8,-90,95,4.021,4.02,4.042,4.034,4.042,4.044,18.919,86,14,Waypoint,
35.7348132,-118.6147615,4960.5160196289,75.787404,0,0.85763782272,12900,2018-07-05 22:56:58,19,0,24.238,4960.5160196289,75.787404,0.4921268,0.91180449112,0,0,-0.671082,313.4, -1.6, -0.8,0,0,1024,1024,1024,1024,311.8,-90,95,4.021,4.02,4.042,4.034,4.042,4.044,18.919,86,14,Waypoint,
35.7348131,-118.6147616,4961.8283556289,77.09974,0,0.90448493708,13000,2018-07-05 22:56:58,19,0,24.114,4961.8283556289,77.09974,0.4921268,0.91180449112,0,0,-0.671082,313.3, -1.4, -0.8,0,0,1024,1024,1024,1024,311.8,-89.9,95,4.003,4.028,4.031,4.028,4.038,4.034,19.702,87.8,14,Waypoint,
35.7348131,-118.6147617,4962.8126076289,78.083992,0,0.9250984548,13100,2018-07-05 22:56:58,19,0,24.114,4962.8126076289,78.083992,0.4921268,0.9250984548,0,0,-0.671082,313.1, -1.4, -0.9,0,0,1024,1024,1024,1024,311.8,-89.9,95,4.003,4.028,4.031,4.028,4.038,4.034,19.702,87.8,14,Waypoint,
35.7348131,-118.6147618,4963.7968596289,79.068244,0,0.94619097516,13200,2018-07-05 22:56:58,19,0,24.114,4963.7968596289,79.068244,0.4921268,0.94619097516,0,0,-0.671082,312.9, -1.2, -1.1,0,0,1024,1024,1024,1024,311.8,-89.9,95,4.003,4.028,4.031,4.028,4.038,4.034,19.702,87.8,14,Waypoint,
35.734813,-118.6147619,4964.7811116289,80.052496,0,0.99285108164,13300,2018-07-05 22:56:58,19,0,24.114,4964.7811116289,80.052496,0.4921268,0.99285108164,0,0,-0.671082,312.9, -1.3, -1,0,0,1024,1024,1024,1024,311.8,-89.9,95,4.003,4.028,4.031,4.028,4.038,4.034,19.702,87.8,14,Waypoint,
35.734813,-118.6147619,4965.7653636289,81.036748,0,0.99285108164,13400,2018-07-05 22:56:58,19,0,24.114,4965.7653636289,81.036748,0.4921268,0.99285108164,0,0,-0.671082,313, -1.2, -1.1,0,0,1024,1024,1024,1024,311.8,-89.9,95,4.003,4.028,4.031,4.028,4.038,4.034,19.702,87.8,14,Waypoint,
35.734813,-118.614762,4967.0776996289,82.349084,0,1.01426512432,13500,2018-07-05 22:56:58,19,0,24.114,4967.0776996289,82.349084,0.4921268,1.01426512432,0,0,-0.671082,313, -1.1, -1.3,0,0,1024,1024,1024,1024,311.8,-89.9,95,4.003,4.028,4.031,4.028,4.038,4.034,19.702,87.8,14,Waypoint,
35.734813,-118.614762,4968.0619516289,83.333336,0,1.01426512432,13600,2018-07-05 22:56:59,19,0,24.114,4968.0619516289,83.333336,0.4921268,1.01426512432,0,0,-0.671082,313, -1, -1.5,0,0,1024,1024,1024,1024,311.8,-89.9,95,4.003,4.028,4.031,4.028,4.038,4.034,19.702,87.8,14,Waypoint,
35.734813,-118.614762,4969.0462036289,84.317588,0.223694,1.01426512432,13700,2018-07-05 22:56:59,19,0,24.114,4969.0462036289,84.317588,0.4921268,1.01426512432,0,0,-0.671082,312.9, -0.9, -1.9,0,0,1024,1024,1024,1024,311.8,-89.9,95,4.003,4.028,4.031,4.028,4.038,4.034,19.702,87.8,14,Waypoint,
35.7348131,-118.614762,4970.0304556289,85.30184,0.223694,0.98968835188,13800,2018-07-05 22:56:59,19,0,24.114,4970.0304556289,85.30184,0.4921268,1.01426512432,0,0,-0.671082,312.8, -0.9, -2.3,0,0,1024,1024,1024,1024,311.8,-89.9,95,4.003,4.028,4.031,4.028,4.038,4.034,19.702,87.8,14,Waypoint,
35.7348131,-118.6147619,4971.0147076289,86.286092,0.223694,0.96772968976,13900,2018-07-05 22:56:59,19,0,24.114,4971.0147076289,86.286092,0.4921268,1.01426512432,0,0,-0.671082,312.7, -0.9, -2.6,0,0,1024,1024,1024,1024,311.8,-89.9,95,4.003,4.028,4.031,4.028,4.038,4.034,19.702,87.8,14,Waypoint,
35.7348132,-118.6147619,4972.3270436289,87.598428,0.223694,0.94335304856,14000,2018-07-05 22:56:59,19,0,24.221,4972.3270436289,87.598428,0.4921268,1.01426512432,0,0,-0.671082,312.8, -0.9, -2.9,0,0,1024,1024,1024,1024,311.8,-89.9,95,4.003,4.028,4.031,4.028,4.038,4.034,17.529,87.8,14,Waypoint,
35.7348132,-118.6147618,4973.3112956289,88.58268,0.223694,0.9212434678,14100,2018-07-05 22:56:59,19,0,24.221,4973.3112956289,88.58268,0.4921268,1.01426512432,0,0,-0.671082,312.7, -0.8, -3,0,0,1024,1024,1024,1024,311.8,-89.9,95,4.003,4.028,4.031,4.028,4.038,4.034,17.529,87.8,14,Waypoint,
35.7348133,-118.6147618,4974.2955476289,89.566932,0.223694,0.89708336204,14200,2018-07-05 22:56:59,19,0,24.221,4974.2955476289,89.566932,0.4921268,1.01426512432,0,0,-0.671082,312.7, -0.6, -3,0,0,1024,1024,1024,1024,311.8,-89.9,95,4.003,4.028,4.031,4.028,4.038,4.034,17.529,87.8,14,Waypoint,
35.7348133,-118.6147618,4975.2797996289,90.551184,0.223694,0.89708336204,14400,2018-07-05 22:56:59,19,0,24.221,4975.2797996289,90.551184,0.4921268,1.01426512432,0,0,-0.671082,312.6, -0.5, -3.1,0,0,1024,1024,1024,1024,311.8,-89.9,95,4.003,4.028,4.031,4.028,4.038,4.034,17.529,87.8,14,Waypoint,
35.7348133,-118.6147617,4976.2640516289,91.535436,0,0.87480973928,14500,2018-07-05 22:56:59,19,0,24.221,4976.2640516289,91.535436,0.4921268,1.01426512432,0,0,-0.671082,312.6, -0.7, -3.1,0,0,1024,1024,1024,1024,311.8,-89.9,95,4.003,4.028,4.031,4.028,4.038,4.034,17.529,87.8,14,Waypoint,
35.7348134,-118.6147617,4977.2483036289,92.519688,0,0.85089569652,14600,2018-07-05 22:57:00,19,0,24.221,4977.2483036289,92.519688,0.4921268,1.01426512432,0,0,-0.671082,312.6, -1, -3.1,0,0,1024,1024,1024,1024,311.8,-90,95,4.003,4.028,4.031,4.028,4.038,4.034,17.529,87.8,14,Waypoint,
35.7348134,-118.6147616,4978.2325556289,93.50394,0,0.82843834672,14700,2018-07-05 22:57:00,19,0,24.221,4978.2325556289,93.50394,0.4921268,1.01426512432,0,0,-0.671082,312.7, -1, -3.4,0,0,1024,1024,1024,1024,311.8,-90,95,4.003,4.028,4.031,4.028,4.038,4.034,17.529,87.8,14,Waypoint,
35.7348135,-118.6147614,4980.2010596289,95.472444,0,0.75996065424,14800,2018-07-05 22:57:00,19,0,24.221,4980.2010596289,95.472444,0.4921268,1.01426512432,0,0,-0.671082,312.8, -1.1, -3.3,0,0,1024,1024,1024,1024,311.8,-90,95,4.003,4.028,4.031,4.028,4.038,4.034,17.529,87.8,14,Waypoint,
35.7348135,-118.6147613,4981.1853116289,96.456696,0,0.73830054856,14900,2018-07-05 22:57:00,19,0,24.221,4981.1853116289,96.456696,0.4921268,1.01426512432,0,0,-0.671082,312.9, -1.3, -3.1,0,0,1024,1024,1024,1024,311.8,-90,95,4.003,4.028,4.031,4.028,4.038,4.034,17.529,87.8,14,Waypoint,
35.7348135,-118.6147612,4982.1695636289,97.440948,0.223694,0.7172080282,15000,2018-07-05 22:57:00,19,0,24.221,4982.1695636289,97.440948,0.4921268,1.01426512432,0,0,-0.671082,313, -1.3, -3.2,0,0,1024,1024,1024,1024,311.8,-90,94,4.024,4.031,4.044,4.04,4.049,4.04,17.529,87.8,14,Waypoint,
35.7348134,-118.6147611,4983.1538156289,98.4252,0.223694,0.72391078432,15100,2018-07-05 22:57:00,19,0,24.221,4983.1538156289,98.4252,0.4921268,1.01426512432,0,0,-0.671082,313, -1.5, -3.4,0,0,1024,1024,1024,1024,311.8,-90,94,4.024,4.031,4.044,4.04,4.049,4.04,17.529,87.8,14,Waypoint,
35.7348135,-118.614761,4983.8099836289,99.081368,0.223694,0.67694555972,15200,2018-07-05 22:57:00,19,0,24.221,4983.8099836289,99.081368,0.4921268,1.01426512432,0,0,-0.671082,312.9, -1.8, -3.3,0,0,1024,1024,1024,1024,311.8,-90,94,4.024,4.031,4.044,4.04,4.049,4.04,17.529,87.8,14,Waypoint,
35.7348135,-118.6147609,4984.7942356289,100.06562,0.223694,0.65788716016,15300,2018-07-05 22:57:00,19,0,24.221,4984.7942356289,100.06562,0.4921268,1.01426512432,0,0,-0.671082,312.9, -1.8, -3.3,0,0,1024,1024,1024,1024,311.8,-90,94,4.024,4.031,4.044,4.04,4.049,4.04,17.529,87.8,14,Waypoint,
35.7348135,-118.6147608,4985.7784876289,101.049872,0.223694,0.63963584724,15400,2018-07-05 22:57:00,19,0,24.221,4985.7784876289,101.049872,0.4921268,1.01426512432,0,0,-0.671082,312.9, -1.8, -3.4,0,0,1024,1024,1024,1024,311.8,-90,94,4.024,4.031,4.044,4.04,4.049,4.04,17.529,87.8,14,Waypoint,
35.7348135,-118.6147606,4986.7627396289,102.034124,0.223694,0.60583335272,15500,2018-07-05 22:57:00,19,0,24.221,4986.7627396289,102.034124,0.4921268,1.01426512432,0,0,-0.671082,312.9, -2, -3.5,0,0,1024,1024,1024,1024,311.8,-90,94,4.024,4.031,4.044,4.04,4.049,4.04,17.529,87.8,14,Waypoint,
35.7348135,-118.6147605,4987.7469916289,103.018376,0.223694,0.5904363706,15600,2018-07-05 22:57:01,19,0,24.221,4987.7469916289,103.018376,0.4921268,1.01426512432,0,0,-0.671082,313, -2.3, -3.6,0,0,1024,1024,1024,1024,311.8,-90,94,4.024,4.031,4.044,4.04,4.049,4.04,17.529,87.8,14,Waypoint,
35.7348135,-118.6147604,4988.7312436289,104.002628,0.223694,0.57615159324,15700,2018-07-05 22:57:01,19,0,24.221,4988.7312436289,104.002628,0.4921268,1.01426512432,0,0,-0.671082,313, -2.3, -4,0,0,1024,1024,1024,1024,311.8,-90,94,4.024,4.031,4.044,4.04,4.049,4.04,17.529,87.8,14,Waypoint,
35.7348136,-118.6147602,4989.7154956289,104.98688,0.223694,0.51763125016,15800,2018-07-05 22:57:01,19,0,24.221,4989.7154956289,104.98688,0.4921268,1.01426512432,0,0,-0.671082,313, -2.2, -4.3,0,0,1024,1024,1024,1024,311.8,-89.9,94,4.024,4.031,4.044,4.04,4.049,4.04,17.529,87.8,14,Waypoint,
35.7348136,-118.6147601,4990.6997476289,105.971132,0.223694,0.50649936004,15900,2018-07-05 22:57:01,19,0,24.221,4990.6997476289,105.971132,0.4921268,1.01426512432,0,0,-0.671082,313.1, -2.3, -4.1,0,0,1024,1024,1024,1024,311.8,-90,94,4.024,4.031,4.044,4.04,4.049,4.04,17.529,87.8,14,Waypoint,
35.7348136,-118.61476,4991.3559156289,106.6273,0,0.496883218,16000,2018-07-05 22:57:01,19,0,24.235,4991.3559156289,106.6273,0.4921268,1.01426512432,0,0,-0.671082,313, -2.2, -4.2,0,0,1024,1024,1024,1024,311.8,-90,94,4.025,4.036,4.038,4.04,4.047,4.039,17.34,87.8,14,Waypoint,
35.7348136,-118.6147599,4992.3401676289,107.611552,0,0.48887468756,16100,2018-07-05 22:57:01,19,0,24.235,4992.3401676289,107.611552,0.4921268,1.01426512432,0,0,-0.671082,313, -2.1, -4.2,0,0,1024,1024,1024,1024,311.8,-90,94,4.025,4.036,4.038,4.04,4.047,4.039,17.34,87.8,14,Waypoint,
35.7348136,-118.6147599,4993.3244196289,108.595804,0,0.48887468756,16200,2018-07-05 22:57:01,19,0,24.235,4993.3244196289,108.595804,0.4921268,1.01426512432,0,0,-0.671082,313.1, -2.4, -4.1,0,0,1024,1024,1024,1024,311.8,-90,94,4.025,4.036,4.038,4.04,4.047,4.039,17.34,87.8,14,Waypoint,
35.7348136,-118.6147598,4994.3086716289,109.580056,0,0.48255250888,16400,2018-07-05 22:57:01,19,0,24.235,4994.3086716289,109.580056,0.4921268,1.01426512432,0,0,-0.671082,313, -2.4, -4.1,0,0,1024,1024,1024,1024,311.8,-90,94,4.025,4.036,4.038,4.04,4.047,4.039,17.34,87.8,14,Waypoint,
35.7348135,-118.6147598,4995.2929236289,110.564308,0,0.51845802184,16500,2018-07-05 22:57:01,19,0,24.235,4995.2929236289,110.564308,0.4921268,1.01426512432,0,0,-0.671082,313, -2.4, -4,0,0,1024,1024,1024,1024,311.8,-90,94,4.025,4.036,4.038,4.04,4.047,4.039,17.34,87.8,14,Waypoint,
35.7348135,-118.6147598,4996.2771756289,111.54856,0,0.51845802184,16600,2018-07-05 22:57:02,19,0,24.235,4996.2771756289,111.54856,0.4921268,1.01426512432,0,0,-0.671082,312.9, -2.4, -3.9,0,0,1024,1024,1024,1024,311.8,-90,94,4.025,4.036,4.038,4.04,4.047,4.039,17.34,87.8,14,Waypoint,
35.7348135,-118.6147597,4997.2614276289,112.532812,0,0.51421261488,16700,2018-07-05 22:57:02,19,0,24.235,4997.2614276289,112.532812,0.4921268,1.01426512432,0,0,-0.671082,312.9, -2.4, -3.7,0,0,1024,1024,1024,1024,311.8,-90,94,4.025,4.036,4.038,4.04,4.047,4.039,17.34,87.8,14,Waypoint,
35.7348135,-118.6147597,4998.2456796289,113.517064,0,0.51421261488,16800,2018-07-05 22:57:02,19,0,24.235,4998.2456796289,113.517064,0.4921268,1.01426512432,0,0,-0.671082,312.9, -2.5, -3.7,0,0,1024,1024,1024,1024,311.8,-89.9,94,4.025,4.036,4.038,4.04,4.047,4.039,17.34,87.8,14,Waypoint,
35.7348134,-118.6147596,5000.8703516289,116.141736,0,0.54807416452,17000,2018-07-05 22:57:02,19,0,24.201,5000.8703516289,116.141736,0.4921268,1.01426512432,0,0,-0.671082,312.8, -2.8, -3.5,0,0,1024,1024,1024,1024,311.8,-90,94,4.029,4.029,4.036,4.034,4.029,4.043,17.943,87.8,14,Waypoint,
35.7348134,-118.6147596,5001.8546036289,117.125988,0,0.54807416452,17100,2018-07-05 22:57:02,19,0,24.201,5001.8546036289,117.125988,0.4921268,1.01426512432,0,0,-0.671082,312.8, -2.9, -3.4,0,0,1024,1024,1024,1024,311.8,-90,94,4.029,4.029,4.036,4.034,4.029,4.043,17.943,87.8,14,Waypoint,
35.7348133,-118.6147596,5002.8388556289,118.11024,0,0.58451117356,17200,2018-07-05 22:57:02,19,0,24.201,5002.8388556289,118.11024,0.4921268,1.01426512432,0,0,-0.671082,312.9, -3, -3.3,0,0,1024,1024,1024,1024,311.8,-90,94,4.029,4.029,4.036,4.034,4.029,4.043,17.943,87.8,14,Waypoint,
35.7348133,-118.6147596,5003.8231076289,119.094492,0,0.58451117356,17300,2018-07-05 22:57:02,19,0,24.201,5003.8231076289,119.094492,0.4921268,1.01426512432,0,0,-0.671082,312.9, -3, -3.2,0,0,1024,1024,1024,1024,311.8,-90,94,4.029,4.029,4.036,4.034,4.029,4.043,17.943,87.8,14,Waypoint,
35.7348133,-118.6147596,5004.8073596289,120.078744,0,0.58451117356,17400,2018-07-05 22:57:02,19,0,24.201,5004.8073596289,120.078744,0.4921268,1.01426512432,0,0,-0.671082,312.9, -3, -3,0,0,1024,1024,1024,1024,311.8,-90,94,4.029,4.029,4.036,4.034,4.029,4.043,17.943,87.8,14,Waypoint,
35.7348132,-118.6147597,5005.7916116289,121.062996,0,0.6230643244,17500,2018-07-05 22:57:02,19,0,24.201,5005.7916116289,121.062996,0.4921268,1.01426512432,0,0,-0.671082,312.9, -3, -2.9,0,0,1024,1024,1024,1024,311.8,-90,94,4.029,4.029,4.036,4.034,4.029,4.043,17.943,87.8,14,Waypoint,
35.7348132,-118.6147597,5006.7758636289,122.047248,0,0.6230643244,17600,2018-07-05 22:57:03,19,0,24.201,5006.7758636289,122.047248,0.4921268,1.01426512432,0,0,-0.671082,312.9, -2.8, -2.9,0,0,1024,1024,1024,1024,311.8,-89.9,94,4.029,4.029,4.036,4.034,4.029,4.043,17.943,87.8,14,Waypoint,
35.7348132,-118.6147598,5007.4320316289,122.703416,0,0.6265748232,17700,2018-07-05 22:57:03,19,0,24.201,5007.4320316289,122.703416,0.4921268,1.01426512432,0,0,-0.671082,312.8, -2.7, -2.7,0,0,1024,1024,1024,1024,311.8,-89.9,94,4.029,4.029,4.036,4.034,4.029,4.043,17.943,87.8,14,Waypoint,
35.7348132,-118.6147598,5008.4162836289,123.687668,0,0.6265748232,17800,2018-07-05 22:57:03,19,0,24.201,5008.4162836289,123.687668,0.4921268,1.01426512432,0,0,-0.671082,312.8, -2.7, -2.6,0,0,1024,1024,1024,1024,311.8,-89.9,94,4.029,4.029,4.036,4.034,4.029,4.043,17.943,87.8,14,Waypoint,
35.7348132,-118.6147599,5009.7286196289,125.000004,0,0.63145671312,17900,2018-07-05 22:57:03,19,0,24.201,5009.7286196289,125.000004,0.4921268,1.01426512432,0,0,-0.671082,312.8, -2.6, -2.5,0,0,1024,1024,1024,1024,311.8,-89.9,94,4.029,4.029,4.036,4.034,4.029,4.043,17.943,87.8,14,Waypoint,
35.7348132,-118.6147599,5010.7128716289,125.984256,0,0.63145671312,18000,2018-07-05 22:57:03,19,0,24.096,5010.7128716289,125.984256,0.4921268,1.01426512432,0,0,-0.671082,312.8, -2.5, -2.9,0,0,1024,1024,1024,1024,311.8,-89.9,94,4.003,4.014,4.018,4.019,4.019,4.016,18.854,87.8,14,Waypoint,
35.7348133,-118.61476,5011.6971236289,126.968508,0,0.6022473946,18100,2018-07-05 22:57:03,19,0,24.096,5011.6971236289,126.968508,0.4921268,1.01426512432,0,0,-0.671082,312.9, -2, -3.2,0,0,1024,1024,1024,1024,311.8,-89.9,94,4.003,4.014,4.018,4.019,4.019,4.016,18.854,87.8,14,Waypoint,
35.7348133,-118.6147601,5012.6813756289,127.95276,0,0.6102034316,18200,2018-07-05 22:57:03,19,0,24.096,5012.6813756289,127.95276,0.4921268,1.01426512432,0,0,-0.671082,313, -1.7, -3.5,0,0,1024,1024,1024,1024,311.8,-89.9,94,4.003,4.014,4.018,4.019,4.019,4.016,18.854,87.8,14,Waypoint,
35.7348134,-118.6147602,5013.6656276289,128.937012,0,0.58522311584,18300,2018-07-05 22:57:03,19,0,24.096,5013.6656276289,128.937012,0.4921268,1.01426512432,0,0,-0.671082,313, -1.5, -3.9,0,0,1024,1024,1024,1024,311.8,-89.9,94,4.003,4.014,4.018,4.019,4.019,4.016,18.854,87.8,14,Waypoint,
35.7348135,-118.6147602,5014.6498796289,129.921264,0,0.55125657932,18400,2018-07-05 22:57:03,19,0,24.096,5014.6498796289,129.921264,0.4921268,1.01426512432,0,0,-0.671082,313.1, -1.4, -3.9,0,0,1024,1024,1024,1024,311.8,-89.9,94,4.003,4.014,4.018,4.019,4.019,4.016,18.854,87.8,14,Waypoint,
35.7348135,-118.6147603,5015.6341316289,130.905516,0,0.56306432248,18500,2018-07-05 22:57:03,19,0,24.096,5015.6341316289,130.905516,0.4921268,1.01426512432,0,0,-0.671082,313, -1.3, -3.8,0,0,1024,1024,1024,1024,311.8,-89.9,94,4.003,4.014,4.018,4.019,4.019,4.016,18.854,87.8,14,Waypoint,
35.7348136,-118.6147604,5016.6183836289,131.889768,0,0.54406825888,18600,2018-07-05 22:57:04,19,0,24.096,5016.6183836289,131.889768,0.4921268,1.01426512432,0,0,-0.671082,312.9, -1.3, -3.8,0,0,1024,1024,1024,1024,311.8,-89.9,94,4.003,4.014,4.018,4.019,4.019,4.016,18.854,87.8,14,Waypoint,
35.7348136,-118.6147604,5017.6026356289,132.87402,0,0.54406825888,18700,2018-07-05 22:57:04,19,0,24.096,5017.6026356289,132.87402,0.4921268,1.01426512432,0,0,-0.671082,312.8, -1.6, -3.6,0,0,1024,1024,1024,1024,311.8,-89.9,94,4.003,4.014,4.018,4.019,4.019,4.016,18.854,87.8,14,Waypoint,
35.7348136,-118.6147605,5018.5868876289,133.858272,0,0.55917324624,18900,2018-07-05 22:57:04,19,0,24.096,5018.5868876289,133.858272,0.4921268,1.01426512432,0,0,-0.671082,312.8, -1.7, -3.3,0,0,1024,1024,1024,1024,311.8,-89.9,94,4.003,4.014,4.018,4.019,4.019,4.016,18.854,87.8,14,Waypoint,
35.7348136,-118.6147606,5019.5711396289,134.842524,0,0.57540684256,19000,2018-07-05 22:57:04,19,0,24.037,5019.5711396289,134.842524,0.4921268,1.01426512432,0,0,-0.671082,312.7, -1.7, -3.2,0,0,1024,1024,1024,1024,311.8,-89.9,94,3.992,4.004,4.01,4.009,4.01,4.005,19.523,87.8,14,Waypoint,
35.7348136,-118.6147607,5020.8834756289,136.15486,0,0.59267718432,19100,2018-07-05 22:57:04,19,0,24.037,5020.8834756289,136.15486,0.4921268,1.01426512432,0,0,-0.671082,312.7, -1.7, -3.1,0,0,1024,1024,1024,1024,311.8,-89.9,94,3.992,4.004,4.01,4.009,4.01,4.005,19.523,87.8,14,Waypoint,
35.7348136,-118.6147608,5021.8677276289,137.139112,0,0.61089568884,19200,2018-07-05 22:57:04,19,0,24.037,5021.8677276289,137.139112,0.4921268,1.01426512432,0,0,-0.671082,312.6, -1.7, -3,0,0,1024,1024,1024,1024,311.8,-89.9,94,3.992,4.004,4.01,4.009,4.01,4.005,19.523,87.8,14,Waypoint,
35.7348136,-118.6147609,5022.8519796289,138.123364,0,0.62998033512,19300,2018-07-05 22:57:04,19,0,24.037,5022.8519796289,138.123364,0.4921268,1.01426512432,0,0,-0.671082,312.6, -1.5, -2.9,0,0,1024,1024,1024,1024,311.8,-89.9,94,3.992,4.004,4.01,4.009,4.01,4.005,19.523,87.8,14,Waypoint,
35.7348136,-118.6147611,5024.8204836289,140.091868,0,0.67044949652,19400,2018-07-05 22:57:04,19,0,24.037,5024.8204836289,140.091868,0.4921268,1.01426512432,0,0,-0.671082,312.7, -1.1, -3,0,0,1024,1024,1024,1024,311.8,-89.9,94,3.992,4.004,4.01,4.009,4.01,4.005,19.523,87.8,14,Waypoint,
35.7348136,-118.6147612,5025.8047356289,141.07612,0,0.6916994972,19500,2018-07-05 22:57:04,19,0,24.037,5025.8047356289,141.07612,0.4921268,1.01426512432,0,0,-0.671082,312.6, -1, -3,0,0,1024,1024,1024,1024,311.8,-89.9,94,3.992,4.004,4.01,4.009,4.01,4.005,19.523,87.8,14,Waypoint,
35.7348137,-118.6147613,5026.7889876289,142.060372,0,0.6898294184,19600,2018-07-05 22:57:05,19,0,24.037,5026.7889876289,142.060372,0.4921268,1.01426512432,0,0,-0.671082,312.6, -0.9, -3.1,0,0,1024,1024,1024,1024,311.8,-89.9,94,3.992,4.004,4.01,4.009,4.01,4.005,19.523,87.8,14,Waypoint,
35.7348137,-118.6147614,5027.7732396289,143.044624,0,0.71296590208,19700,2018-07-05 22:57:05,19,0,24.037,5027.7732396289,143.044624,0.4921268,1.01426512432,0,0,-0.671082,312.6, -1.1, -3,0,0,1024,1024,1024,1024,311.8,-89.9,94,3.992,4.004,4.01,4.009,4.01,4.005,19.523,87.8,14,Waypoint,
35.7348136,-118.6147614,5029.0855756289,144.35696,0,0.73593178208,19800,2018-07-05 22:57:05,19,0,24.037,5029.0855756289,144.35696,0.4921268,1.01426512432,0,0,-0.671082,312.7, -1.3, -2.9,0,0,1024,1024,1024,1024,311.8,-89.9,94,3.992,4.004,4.01,4.009,4.01,4.005,19.523,87.8,14,Waypoint,
35.7348136,-118.6147615,5030.0698276289,145.341212,0,0.75881892192,19900,2018-07-05 22:57:05,19,0,24.037,5030.0698276289,145.341212,0.4921268,1.01426512432,0,0,-0.671082,312.8, -1.5, -2.8,0,0,1024,1024,1024,1024,311.8,-89.9,94,3.992,4.004,4.01,4.009,4.01,4.005,19.523,87.8,14,Waypoint,
35.7348136,-118.6147615,5031.0540796289,146.325464,0,0.75881892192,20000,2018-07-05 22:57:05,19,0,24.019,5031.0540796289,146.325464,0.4921268,1.01426512432,0,0,-0.671082,312.8, -1.6, -2.7,0,0,1024,1024,1024,1024,311.8,-89.9,94,3.993,4.003,4.001,4.006,4.016,4.006,19.517,87.8,14,Waypoint,
35.7348136,-118.6147616,5032.0383316289,147.309716,0,0.78215553684,20100,2018-07-05 22:57:05,19,0,24.019,5032.0383316289,147.309716,0.4921268,1.01426512432,0,0,-0.671082,312.9, -1.7, -2.6,0,0,1024,1024,1024,1024,311.8,-89.9,94,3.993,4.003,4.001,4.006,4.016,4.006,19.517,87.8,14,Waypoint,
35.7348136,-118.6147616,5033.0225836289,148.293968,0,0.78215553684,20200,2018-07-05 22:57:05,19,0,24.019,5033.0225836289,148.293968,0.4921268,1.01426512432,0,0,-0.671082,312.9, -2, -2.6,0,0,1024,1024,1024,1024,311.8,-89.9,94,3.993,4.003,4.001,4.006,4.016,4.006,19.517,87.8,14,Waypoint,
35.7348136,-118.6147616,5034.0068356289,149.27822,0,0.78215553684,20300,2018-07-05 22:57:05,19,0,24.019,5034.0068356289,149.27822,0.4921268,1.01426512432,0,0,-0.671082,313, -2, -2.7,0,0,1024,1024,1024,1024,311.8,-89.9,94,3.993,4.003,4.001,4.006,4.016,4.006,19.517,87.8,14,Waypoint,
35.7348136,-118.6147616,5034.9910876289,150.262472,0,0.78215553684,20400,2018-07-05 22:57:05,19,0,24.019,5034.9910876289,150.262472,0.4921268,1.01426512432,0,0,-0.671082,312.9, -2, -2.9,0,0,1024,1024,1024,1024,311.8,-89.9,94,3.993,4.003,4.001,4.006,4.016,4.006,19.517,87.8,14,Waypoint,
35.7348136,-118.6147616,5035.9753396289,151.246724,0,0.78215553684,20500,2018-07-05 22:57:05,19,0,24.019,5035.9753396289,151.246724,0.4921268,1.01426512432,0,0,-0.671082,312.9, -1.8, -3.2,0,0,1024,1024,1024,1024,311.8,-89.9,94,3.993,4.003,4.001,4.006,4.016,4.006,19.517,87.8,14,Waypoint,
35.7348136,-118.6147616,5036.9595916289,152.230976,0,0.78215553684,20600,2018-07-05 22:57:06,19,0,24.019,5036.9595916289,152.230976,0.4921268,1.01426512432,0,0,-0.671082,312.9, -1.8, -3.2,0,0,1024,1024,1024,1024,311.8,-89.9,94,3.993,4.003,4.001,4.006,4.016,4.006,19.517,87.8,14,Waypoint,
35.7348136,-118.6147616,5037.9438436289,153.215228,0,0.78215553684,20700,2018-07-05 22:57:06,19,0,24.019,5037.9438436289,153.215228,0.4921268,1.01426512432,0,0,-0.671082,312.9, -1.8, -3.3,0,0,1024,1024,1024,1024,311.8,-89.9,94,3.993,4.003,4.001,4.006,4.016,4.006,19.517,87.8,14,Waypoint,
35.7348136,-118.6147616,5038.9280956289,154.19948,0,0.78215553684,20800,2018-07-05 22:57:06,19,0,24.019,5038.9280956289,154.19948,0.4921268,1.01426512432,0,0,-0.671082,312.9, -1.9, -3.3,0,0,1024,1024,1024,1024,311.8,-90,94,3.993,4.003,4.001,4.006,4.016,4.006,19.517,87.8,14,Waypoint,
35.7348136,-118.6147616,5039.9123476289,155.183732,0,0.78215553684,20900,2018-07-05 22:57:06,19,0,24.019,5039.9123476289,155.183732,0.4921268,1.01426512432,0,0,-0.671082,312.8, -2.2, -3.2,0,0,1024,1024,1024,1024,311.8,-89.9,94,3.993,4.003,4.001,4.006,4.016,4.006,19.517,87.8,14,Waypoint,
35.7348136,-118.6147616,5040.8965996289,156.167984,0,0.78215553684,21100,2018-07-05 22:57:06,19,0,24.019,5040.8965996289,156.167984,0.4921268,1.01426512432,0,0,-0.671082,312.9, -2.2, -3,0,0,1024,1024,1024,1024,311.8,-89.9,94,3.993,4.003,4.001,4.006,4.016,4.006,19.517,87.8,14,Waypoint,
35.7348135,-118.6147616,5041.8808516289,157.152236,0,0.80480317536,21200,2018-07-05 22:57:06,19,0,24.019,5041.8808516289,157.152236,0.4921268,1.01426512432,0,0,-0.671082,312.9, -2.3, -2.7,0,0,1024,1024,1024,1024,311.8,-89.9,94,3.993,4.003,4.001,4.006,4.016,4.006,19.517,87.8,14,Waypoint,
35.7348135,-118.6147616,5042.8651036289,158.136488,0,0.80480317536,21300,2018-07-05 22:57:06,19,0,24.019,5042.8651036289,158.136488,0.4921268,1.01426512432,0,0,-0.671082,312.8, -2.1, -2.7,0,0,1024,1024,1024,1024,311.8,-89.9,94,3.993,4.003,4.001,4.006,4.016,4.006,19.517,87.8,14,Waypoint,
35.7348135,-118.6147616,5043.8493556289,159.12074,0,0.80480317536,21400,2018-07-05 22:57:06,19,0,24.019,5043.8493556289,159.12074,0.4921268,1.01426512432,0,0,-0.671082,312.8, -1.8, -3,0,0,1024,1024,1024,1024,311.8,-89.9,94,3.993,4.003,4.001,4.006,4.016,4.006,19.517,87.8,14,Waypoint,
35.7348136,-118.6147615,5044.8336076289,160.104992,0,0.75881892192,21500,2018-07-05 22:57:06,19,0,24.019,5044.8336076289,160.104992,0.4921268,1.01426512432,0,0,-0.671082,312.8, -1.5, -3.4,0,0,1024,1024,1024,1024,311.8,-89.9,94,3.993,4.003,4.001,4.006,4.016,4.006,19.517,87.8,14,Waypoint,
35.7348138,-118.6147614,5047.7863636289,163.057748,0,0.69116143944,21700,2018-07-05 22:57:07,19,0,24.019,5047.7863636289,163.057748,0.4921268,1.01426512432,0,0,-0.671082,312.8, -1.1, -4.1,0,0,1024,1024,1024,1024,311.8,-89.9,94,3.993,4.003,4.001,4.006,4.016,4.006,19.517,87.8,14,Waypoint,
35.7348138,-118.6147614,5048.7706156289,164.042,0,0.69116143944,21800,2018-07-05 22:57:07,19,0,24.019,5048.7706156289,164.042,0.4921268,1.01426512432,0,0,-0.671082,312.7, -1, -4.1,0,0,1024,1024,1024,1024,311.8,-89.9,94,3.993,4.003,4.001,4.006,4.016,4.006,19.517,87.8,14,Waypoint,
35.7348138,-118.6147614,5049.7548676289,165.026252,0,0.69116143944,21900,2018-07-05 22:57:07,19,0,24.019,5049.7548676289,165.026252,0.4921268,1.01426512432,0,0,-0.671082,312.7, -0.9, -3.9,0,0,1024,1024,1024,1024,311.8,-89.9,94,3.993,4.003,4.001,4.006,4.016,4.006,19.517,87.8,14,Waypoint,
35.7348137,-118.6147615,5050.7391196289,166.010504,0,0.7365649842,22000,2018-07-05 22:57:07,19,0,24.016,5050.7391196289,166.010504,0.4921268,1.01426512432,0,0,-0.671082,312.9, -1, -3.5,0,0,1024,1024,1024,1024,311.8,-89.9,94,3.988,4.005,4.005,4.001,4.005,4.007,18.92,87.8,14,Waypoint,
35.7348137,-118.6147615,5051.7233716289,166.994756,0,0.7365649842,22100,2018-07-05 22:57:07,19,0,24.016,5051.7233716289,166.994756,0.4921268,1.01426512432,0,0,-0.671082,313.2, -1.2, -3.2,0,0,1024,1024,1024,1024,311.8,-89.9,94,3.988,4.005,4.005,4.001,4.005,4.007,18.92,87.8,14,Waypoint,
35.7348136,-118.6147615,5052.7076236289,167.979008,0,0.75881892192,22200,2018-07-05 22:57:07,19,0,24.016,5052.7076236289,167.979008,0.4921268,1.01426512432,0,0,-0.671082,313.4, -1.8, -3.2,0,0,1024,1024,1024,1024,311.8,-90,94,3.988,4.005,4.005,4.001,4.005,4.007,18.92,87.8,14,Waypoint,
35.7348136,-118.6147615,5053.6918756289,168.96326,0,0.75881892192,22300,2018-07-05 22:57:07,19,0,24.016,5053.6918756289,168.96326,0.4921268,1.01426512432,0,0,-0.671082,313.5, -1.8, -3.2,0,0,1024,1024,1024,1024,311.8,-90,94,3.988,4.005,4.005,4.001,4.005,4.007,18.92,87.8,14,Waypoint,
35.7348136,-118.6147615,5054.6761276289,169.947512,0,0.75881892192,22400,2018-07-05 22:57:07,19,0,24.016,5054.6761276289,169.947512,0.4921268,1.01426512432,0,0,-0.671082,313.4, -1.6, -3.3,0,0,1024,1024,1024,1024,311.8,-89.9,94,3.988,4.005,4.005,4.001,4.005,4.007,18.92,87.8,14,Waypoint,
35.7348135,-118.6147615,5055.6603796289,170.931764,0,0.78214241348,22500,2018-07-05 22:57:07,19,0,24.016,5055.6603796289,170.931764,0.4921268,1.01426512432,0,0,-0.671082,313.2, -1.5, -3.3,0,0,1024,1024,1024,1024,311.8,-89.9,94,3.988,4.005,4.005,4.001,4.005,4.007,18.92,87.8,14,Waypoint,
35.7348135,-118.6147615,5057.6288836289,172.900268,0,0.78214241348,22700,2018-07-05 22:57:08,19,0,24.016,5057.6288836289,172.900268,0.4921268,1.01426512432,0,0,-0.671082,312.6, -1.1, -3.6,0,0,1024,1024,1024,1024,311.8,-89.9,94,3.988,4.005,4.005,4.001,4.005,4.007,18.92,87.8,14,Waypoint,
35.7348134,-118.6147615,5058.6131356289,173.88452,0,0.80644359536,22800,2018-07-05 22:57:08,19,0,24.016,5058.6131356289,173.88452,0.4921268,1.01426512432,0,0,-0.671082,312.4, -1.2, -3.5,0,0,1024,1024,1024,1024,311.8,-89.9,94,3.988,4.005,4.005,4.001,4.005,4.007,18.92,87.8,14,Waypoint,
35.7348134,-118.6147615,5059.5973876289,174.868772,0,0.80644359536,22900,2018-07-05 22:57:08,19,0,24.016,5059.5973876289,174.868772,0.4921268,1.01426512432,0,0,-0.671082,312.3, -1.4, -3.3,0,0,1024,1024,1024,1024,311.8,-90,94,3.988,4.005,4.005,4.001,4.005,4.007,18.92,87.8,14,Waypoint,
35.7348133,-118.6147615,5060.5816396289,175.853024,0,0.83163388488,23100,2018-07-05 22:57:08,19,0,24.016,5060.5816396289,175.853024,0.4921268,1.01426512432,0,0,-0.671082,312.3, -1.7, -3.1,0,0,1024,1024,1024,1024,311.8,-90,94,3.988,4.005,4.005,4.001,4.005,4.007,18.92,87.8,14,Waypoint,
35.7348132,-118.6147615,5061.5658916289,176.837276,0,0.85763782272,23200,2018-07-05 22:57:08,19,0,24.016,5061.5658916289,176.837276,0.4921268,1.01426512432,0,0,-0.671082,312.4, -2, -2.9,0,0,1024,1024,1024,1024,311.8,-90,94,3.988,4.005,4.005,4.001,4.005,4.007,18.92,87.8,14,Waypoint,
35.734813,-118.6147615,5063.5343956289,178.80578,0,0.91180449112,23300,2018-07-05 22:57:08,19,0,24.016,5063.5343956289,178.80578,0.4921268,1.01426512432,0,0,-0.671082,312.6, -2.4, -2.4,0,0,1024,1024,1024,1024,311.8,-90,94,3.988,4.005,4.005,4.001,4.005,4.007,18.92,87.8,14,Waypoint,
35.7348128,-118.6147615,5065.5028996289,180.774284,0,0.96844163204,23600,2018-07-05 22:57:09,19,0,24.016,5065.5028996289,180.774284,0.4921268,1.01426512432,0,0,-0.671082,312.9, -2.7, -2,0,0,1024,1024,1024,1024,311.8,-90,94,3.988,4.005,4.005,4.001,4.005,4.007,18.92,87.8,14,Waypoint,
35.7348126,-118.6147614,5067.4714036289,182.742788,0,1.0103510822,23700,2018-07-05 22:57:09,19,0,24.016,5067.4714036289,182.742788,0.4921268,1.01426512432,0,0,-0.671082,313, -3.1, -2.1,0,0,1024,1024,1024,1024,311.8,-90,94,3.988,4.005,4.005,4.001,4.005,4.007,18.92,87.8,14,Waypoint,
35.7348126,-118.6147614,5068.4556556289,183.72704,0,1.0103510822,23800,2018-07-05 22:57:09,19,0,24.016,5068.4556556289,183.72704,0.4921268,1.01426512432,0,0,-0.671082,313, -3.3, -2.6,0,0,1024,1024,1024,1024,311.8,-90,94,3.988,4.005,4.005,4.001,4.005,4.007,18.92,87.8,14,Waypoint,
35.7348126,-118.6147613,5069.4399076289,184.711292,0,0.99416341764,23900,2018-07-05 22:57:09,19,0,24.016,5069.4399076289,184.711292,0.4921268,1.01426512432,0,0,-0.671082,312.9, -3.2, -3,0,0,1024,1024,1024,1024,311.8,-90,94,3.988,4.005,4.005,4.001,4.005,4.007,18.92,87.8,14,Waypoint,
35.7348126,-118.6147613,5070.4241596289,185.695544,0,0.99416341764,24000,2018-07-05 22:57:09,19,0,23.98,5070.4241596289,185.695544,0.4921268,1.01426512432,0,0,-0.671082,312.9, -2.8, -3,0,0,1024,1024,1024,1024,311.8,-90,93,3.985,3.99,4.002,3.996,3.998,3.999,18.924,87.8,14,Waypoint,
35.7348126,-118.6147613,5071.4084116289,186.679796,0,0.99416341764,24100,2018-07-05 22:57:09,19,0,23.98,5071.4084116289,186.679796,0.4921268,1.01426512432,0,0,-0.671082,312.8, -2.5, -2.8,0,0,1024,1024,1024,1024,311.8,-89.9,93,3.985,3.99,4.002,3.996,3.998,3.999,18.924,87.8,14,Waypoint,
35.7348125,-118.6147613,5072.3926636289,187.664048,0,1.02514438976,24200,2018-07-05 22:57:09,19,0,23.98,5072.3926636289,187.664048,0.4921268,1.02514438976,0,0,-0.671082,312.7, -2.4, -2.6,0,0,1024,1024,1024,1024,311.8,-89.9,93,3.985,3.99,4.002,3.996,3.998,3.999,18.924,87.8,14,Waypoint,
35.7348125,-118.6147613,5073.3769156289,188.6483,0,1.02514438976,24300,2018-07-05 22:57:09,19,0,23.98,5073.3769156289,188.6483,0.4921268,1.02514438976,0,0,-0.671082,312.7, -2.6, -2.2,0,0,1024,1024,1024,1024,311.8,-89.9,93,3.985,3.99,4.002,3.996,3.998,3.999,18.924,87.8,14,Waypoint,
35.7348125,-118.6147613,5074.3611676289,189.632552,0,1.02514438976,24400,2018-07-05 22:57:09,19,0,23.98,5074.3611676289,189.632552,0.4921268,1.02514438976,0,0,-0.671082,312.8, -2.8, -2,0,0,1024,1024,1024,1024,311.8,-89.9,93,3.985,3.99,4.002,3.996,3.998,3.999,18.924,87.8,14,Waypoint,
35.7348124,-118.6147612,5075.3454196289,190.616804,0,1.04185042704,24500,2018-07-05 22:57:09,19,0,23.98,5075.3454196289,190.616804,0.4921268,1.04185042704,0,0,-0.671082,312.9, -3, -1.9,0,0,1024,1024,1024,1024,311.8,-90,93,3.985,3.99,4.002,3.996,3.998,3.999,18.924,87.8,14,Waypoint,
35.7348124,-118.6147612,5076.3296716289,191.601056,0,1.04185042704,24600,2018-07-05 22:57:10,19,0,23.98,5076.3296716289,191.601056,0.4921268,1.04185042704,0,0,-0.671082,312.9, -3.1, -2.3,0,0,1024,1024,1024,1024,311.8,-90,93,3.985,3.99,4.002,3.996,3.998,3.999,18.924,87.8,14,Waypoint,
35.7348124,-118.6147611,5077.3139236289,192.585308,0,1.02786420612,24700,2018-07-05 22:57:10,19,0,23.98,5077.3139236289,192.585308,0.4921268,1.04185042704,0,0,-0.671082,312.9, -3.2, -2.6,0,0,1024,1024,1024,1024,311.8,-90,93,3.985,3.99,4.002,3.996,3.998,3.999,18.924,87.8,14,Waypoint,
35.7348124,-118.6147611,5078.2981756289,193.56956,0,1.02786420612,24800,2018-07-05 22:57:10,19,0,23.98,5078.2981756289,193.56956,0.4921268,1.04185042704,0,0,-0.671082,312.9, -3.1, -3.1,0,0,1024,1024,1024,1024,311.8,-89.9,93,3.985,3.99,4.002,3.996,3.998,3.999,18.924,87.8,14,Waypoint,
35.7348124,-118.614761,5079.2824276289,194.553812,0,1.01455383824,24900,2018-07-05 22:57:10,19,0,23.98,5079.2824276289,194.553812,0.4921268,1.04185042704,0,0,-0.671082,312.9, -3.1, -3.3,0,0,1024,1024,1024,1024,311.8,-89.9,93,3.985,3.99,4.002,3.996,3.998,3.999,18.924,87.8,14,Waypoint,
35.7348125,-118.6147609,5080.2666796289,195.538064,0,0.96884189452,25000,2018-07-05 22:57:10,19,0,23.936,5080.2666796289,195.538064,0.4921268,1.04185042704,0,0,-0.671082,312.9, -3.1, -3.6,0,0,1024,1024,1024,1024,311.8,-89.9,93,3.985,3.99,4.002,3.996,3.998,3.999,19.325,87.8,14,Waypoint,
35.7348125,-118.6147609,5081.2509316289,196.522316,0,0.96884189452,25100,2018-07-05 22:57:10,19,0,23.936,5081.2509316289,196.522316,0.4921268,1.04185042704,0,0,-0.671082,312.8, -3, -3.4,0,0,1024,1024,1024,1024,311.8,-89.9,93,3.985,3.99,4.002,3.996,3.998,3.999,19.325,87.8,14,Waypoint,
35.7348125,-118.6147608,5082.2351836289,197.506568,0,0.95654202536,25200,2018-07-05 22:57:10,19,0,23.936,5082.2351836289,197.506568,0.4921268,1.04185042704,0,0,-0.671082,312.8, -2.9, -3.3,0,0,1024,1024,1024,1024,311.8,-89.9,93,3.985,3.99,4.002,3.996,3.998,3.999,19.325,87.8,14,Waypoint,
35.7348126,-118.6147608,5083.2194356289,198.49082,0,0.9232611844,25300,2018-07-05 22:57:10,19,0,23.936,5083.2194356289,198.49082,0.4921268,1.04185042704,0,0,-0.671082,312.7, -2.7, -3.3,0,0,1024,1024,1024,1024,311.8,-89.9,93,3.985,3.99,4.002,3.996,3.998,3.999,19.325,87.8,14,Waypoint,
35.7348126,-118.6147608,5084.2036876289,199.475072,0,0.9232611844,25400,2018-07-05 22:57:10,19,0,23.936,5084.2036876289,199.475072,0.4921268,1.04185042704,0,0,-0.671082,312.8, -2.6, -3.4,0,0,1024,1024,1024,1024,311.8,-89.9,93,3.985,3.99,4.002,3.996,3.998,3.999,19.325,87.8,14,Waypoint,
35.7348127,-118.6147607,5085.1879396289,200.459324,0,0.87782811208,25500,2018-07-05 22:57:10,19,0,23.936,5085.1879396289,200.459324,0.4921268,1.04185042704,0,0,-0.671082,312.8, -2.7, -3.8,0,0,1024,1024,1024,1024,311.8,-89.9,93,3.985,3.99,4.002,3.996,3.998,3.999,19.325,87.8,14,Waypoint,
35.7348128,-118.6147607,5086.1721916289,201.443576,0,0.84459320288,25700,2018-07-05 22:57:11,19,0,23.936,5086.1721916289,201.443576,0.4921268,1.04185042704,0,0,-0.671082,312.8, -2.6, -4.1,0,0,1024,1024,1024,1024,311.8,-89.9,93,3.985,3.99,4.002,3.996,3.998,3.999,19.325,87.8,14,Waypoint,
35.7348128,-118.6147607,5087.1564436289,202.427828,0,0.84459320288,25800,2018-07-05 22:57:11,19,0,23.936,5087.1564436289,202.427828,0.4921268,1.04185042704,0,0,-0.671082,312.9, -2.4, -4,0,0,1024,1024,1024,1024,311.8,-89.9,93,3.985,3.99,4.002,3.996,3.998,3.999,19.325,87.8,14,Waypoint,
35.7348129,-118.6147606,5088.1406956289,203.41208,0,0.79911747964,25900,2018-07-05 22:57:11,19,0,23.936,5088.1406956289,203.41208,0.4921268,1.04185042704,0,0,-0.671082,313, -2.2, -4,0,0,1024,1024,1024,1024,311.8,-89.9,93,3.985,3.99,4.002,3.996,3.998,3.999,19.325,87.8,14,Waypoint,
35.734813,-118.6147607,5090.1091996289,205.380584,0,0.77900593044,26000,2018-07-05 22:57:11,19,0,23.936,5090.1091996289,205.380584,0.4921268,1.04185042704,0,0,-0.671082,313, -2.3, -3.5,0,0,1024,1024,1024,1024,311.8,-89.9,93,3.983,3.988,3.991,3.991,3.992,3.998,19.325,89.6,14,Waypoint,
35.734813,-118.6147607,5091.0934516289,206.364836,0,0.77900593044,26100,2018-07-05 22:57:11,19,0,23.936,5091.0934516289,206.364836,0.4921268,1.04185042704,0,0,-0.671082,313, -2.5, -3.3,0,0,1024,1024,1024,1024,311.8,-90,93,3.983,3.988,3.991,3.991,3.992,3.998,19.325,89.6,14,Waypoint,
35.734813,-118.6147608,5092.0777036289,207.349088,0,0.79295278128,26200,2018-07-05 22:57:11,19,0,23.936,5092.0777036289,207.349088,0.4921268,1.04185042704,0,0,-0.671082,313, -2.4, -3.1,0,0,1024,1024,1024,1024,311.8,-89.9,93,3.983,3.988,3.991,3.991,3.992,3.998,19.325,89.6,14,Waypoint,
