latitude,longitude,altitude(feet),ascent(feet),speed(mph),distance(feet),time(millisecond),datetime(utc),satellites,gpslevel,voltage(v),max_altitude(feet),max_ascent(feet),max_speed(mph),max_distance(feet), xSpeed(mph), ySpeed(mph), zSpeed(mph), compass_heading(degrees), pitch(degrees), roll(degrees),isPhoto,isVideo,rc_elevator,rc_aileron,rc_throttle,rc_rudder,gimbal_heading(degrees),gimbal_pitch(degrees),battery_percent,voltageCell1,voltageCell2,voltageCell3,voltageCell4,voltageCell5,voltageCell6,current(A),battery_temperature(f),flycStateRaw,flycState,message
35.7347601,-118.6147778,4884.5347767119,0,0.447388,0,3070,2018-07-05 21:49:44,14,0,0,4884.5347767119,0,0.447388,0,0,0,0,317.7, 0.2, -1,1,0,1024,1024,1024,1024,317.9,-89.9,100,4.126,4.14,4.16,4.085,4.271,4.261,0,80.6,11,AutoTakeoff,DJI_0382.jpg Starting Mission from Lat/Long: 35.73476/-118.61478 Camera: Zenmuse X3 - Overlap: 90/90 - Active Connection: No
35.7347601,-118.6147778,4884.5347767119,0,0.447388,0,3100,2018-07-05 21:49:44,14,0,0,4884.5347767119,0,0.447388,0,0,0,0,317.7, 0.2, -1,0,0,1024,1024,1024,1024,317.9,-89.9,100,4.126,4.14,4.16,4.085,4.271,4.261,0,80.6,11,AutoTakeoff,
35.7347601,-118.614778,4884.5347767119,0,0.447388,0.059231957276,3200,2018-07-05 21:49:44,14,0,0,4884.5347767119,0,0.447388,0.059231957276,0,0,0,317.6, 1.2, -0.5,0,0,1024,1024,1024,1024,317.9,-89.9,100,4.126,4.14,4.16,4.085,4.271,4.261,0,80.6,11,AutoTakeoff,
35.7347601,-118.6147783,4884.5347767119,0,0.447388,0.148079401064,3300,2018-07-05 21:49:44,14,0,0,4884.5347767119,0,0.447388,0.148079401064,0,0,0,317.4, 1.3, -0.1,0,0,1024,1024,1024,1024,317.9,-89.9,100,4.126,4.14,4.16,4.085,4.271,4.261,0,80.6,11,AutoTakeoff,
35.73476,-118.6147787,4884.5347767119,0,0.223694,0.269028551916,3400,2018-07-05 21:49:44,15,0,0,4884.5347767119,0,0.447388,0.269028551916,0,0,0,317.1, 0.8, 0.9,0,0,1024,1024,1024,1024,317.9,-89.9,100,4.126,4.14,4.16,4.085,4.271,4.261,0,80.6,11,AutoTakeoff,
35.7347599,-118.6147789,4884.8628607119,0.328084,0.223694,0.33384843588,3500,2018-07-05 21:49:45,15,0,0,4884.8628607119,0.328084,0.447388,0.33384843588,0,0,0,317, 0.3, 1.1,0,0,1024,1024,1024,1024,317.9,-90,100,4.126,4.14,4.16,4.085,4.271,4.261,0,80.6,11,AutoTakeoff,
35.7347599,-118.6147791,4884.8628607119,0.328084,0.223694,0.39186024876,3600,2018-07-05 21:49:45,15,0,0,4884.8628607119,0.328084,0.447388,0.39186024876,0,0,0,317.1, 0, 1.5,0,0,1024,1024,1024,1024,317.9,-89.9,100,4.126,4.14,4.16,4.085,4.271,4.261,0,80.6,11,AutoTakeoff,
35.7347598,-118.6147794,4885.1909447119,0.656168,0.223694,0.48633203656,3700,2018-07-05 21:49:45,15,0,0,4885.1909447119,0.656168,0.447388,0.48633203656,0,0,0,317.2, 0.1, 1.6,0,0,1024,1024,1024,1024,317.9,-89.9,100,4.126,4.14,4.16,4.085,4.271,4.261,0,80.6,11,AutoTakeoff,
35.7347598,-118.6147795,4885.1909447119,0.656168,0.223694,0.51522967528,3800,2018-07-05 21:49:45,15,0,0,4885.1909447119,0.656168,0.447388,0.51522967528,0,0,-0.223694,317.4, 0.5, 1.5,0,0,1024,1024,1024,1024,317.9,-89.9,100,4.126,4.14,4.16,4.085,4.271,4.261,0,80.6,11,AutoTakeoff,
35.7347597,-118.6147796,4885.5190287119,0.984252,0.223694,0.55270014892,3900,2018-07-05 21:49:45,15,0,0,4885.5190287119,0.984252,0.447388,0.55270014892,0,0,-0.223694,317.6, 0.6, 1.3,0,0,1024,1024,1024,1024,317.9,-89.9,100,4.126,4.14,4.16,4.085,4.271,4.261,0,80.6,11,AutoTakeoff,
35.7347597,-118.6147798,4885.5190287119,0.984252,0.223694,0.61003282792,4000,2018-07-05 21:49:45,16,0,24.866,4885.5190287119,0.984252,0.447388,0.61003282792,0,0,-0.223694,317.9, 0.6, 0.9,0,0,1024,1024,1024,1024,317.9,-89.9,100,4.126,4.14,4.16,4.085,4.271,4.261,11.812,80.6,11,AutoTakeoff,
35.7347597,-118.61478,4885.8471127119,1.312336,0.223694,0.66769359092,4100,2018-07-05 21:49:45,16,0,24.866,4885.8471127119,1.312336,0.447388,0.66769359092,0,0,-0.223694,318.3, 0.4, 1.2,0,0,1024,1024,1024,1024,317.9,-89.9,100,4.126,4.14,4.16,4.085,4.271,4.261,11.812,80.6,11,AutoTakeoff,
35.7347596,-118.6147802,4886.1751967119,1.64042,0.223694,0.73381892112,4200,2018-07-05 21:49:45,14,0,24.866,4886.1751967119,1.64042,0.447388,0.73381892112,0,0,-0.223694,318.5, 0.3, 1.6,0,0,1024,1024,1024,1024,317.9,-89.9,100,4.126,4.14,4.16,4.085,4.271,4.261,11.812,80.6,11,AutoTakeoff,
35.7347595,-118.6147803,4886.1751967119,1.64042,0,0.7720800772,4300,2018-07-05 21:49:45,14,0,24.866,4886.1751967119,1.64042,0.447388,0.7720800772,0,0,-0.223694,318.6, 0, 1.8,0,0,1024,1024,1024,1024,317.9,-90,100,4.126,4.14,4.16,4.085,4.271,4.261,11.812,80.6,11,AutoTakeoff,
35.7347594,-118.6147804,4886.5032807119,1.968504,0,0.81126314932,4400,2018-07-05 21:49:45,14,0,24.866,4886.5032807119,1.968504,0.447388,0.81126314932,0,0,0,318.5, 0, 1.8,0,0,1024,1024,1024,1024,317.9,-89.9,100,4.126,4.14,4.16,4.085,4.271,4.261,11.812,80.6,11,AutoTakeoff,
35.7347593,-118.6147806,4886.5032807119,1.968504,0,0.87911420136,4500,2018-07-05 21:49:46,14,0,24.866,4886.5032807119,1.968504,0.447388,0.87911420136,0,0,0,318.2, 0, 1.8,0,0,1024,1024,1024,1024,317.9,-89.9,100,4.126,4.14,4.16,4.085,4.271,4.261,11.812,80.6,11,AutoTakeoff,
35.7347593,-118.6147807,4886.8313647119,2.296588,0,0.9071030474,4600,2018-07-05 21:49:46,14,0,24.866,4886.8313647119,2.296588,0.447388,0.9071030474,0,0,0,317.9, 0, 1.7,0,0,1024,1024,1024,1024,317.9,-89.9,100,4.126,4.14,4.16,4.085,4.271,4.261,11.812,80.6,11,AutoTakeoff,
35.7347593,-118.6147807,4886.8313647119,2.296588,0,0.9071030474,4700,2018-07-05 21:49:46,14,0,24.866,4886.8313647119,2.296588,0.447388,0.9071030474,0,0,-0.223694,317.7, 0, 1.8,0,0,1024,1024,1024,1024,317.9,-89.9,100,4.126,4.14,4.16,4.085,4.271,4.261,11.812,80.6,11,AutoTakeoff,
35.7347592,-118.6147808,4887.1594487119,2.624672,0,0.94721459724,4800,2018-07-05 21:49:46,14,0,24.866,4887.1594487119,2.624672,0.447388,0.94721459724,0,0,0,317.6, -0.2, 1.8,0,0,1024,1024,1024,1024,317.9,-90,100,4.126,4.14,4.16,4.085,4.271,4.261,11.812,80.6,11,AutoTakeoff,
35.7347591,-118.6147808,4887.4875327119,2.952756,0,0.96047247168,4900,2018-07-05 21:49:46,14,0,24.866,4887.4875327119,2.952756,0.447388,0.96047247168,0,0,0,317.5, -0.2, 1.7,0,0,1024,1024,1024,1024,317.9,-89.9,100,4.126,4.14,4.16,4.085,4.271,4.261,11.812,80.6,11,AutoTakeoff,
35.734759,-118.6147808,4887.4875327119,2.952756,0,0.97491472936,5000,2018-07-05 21:49:46,14,0,24.477,4887.4875327119,2.952756,0.447388,0.97491472936,0,0,-0.223694,317.4, -0.3, 1.9,0,0,1024,1024,1024,1024,317.9,-89.9,100,4.058,4.083,4.089,4.069,4.07,4.087,16.331,80.6,14,Waypoint,
35.734759,-118.6147809,4887.8156167119,3.28084,0,1.00197837852,5100,2018-07-05 21:49:46,14,0,24.477,4887.8156167119,3.28084,0.447388,1.00197837852,0,0,0,317.4, -0.4, 1.9,0,0,1024,1024,1024,1024,317.9,-90,100,4.058,4.083,4.089,4.069,4.07,4.087,16.331,80.6,14,Waypoint,
35.7347589,-118.6147809,4887.8156167119,3.28084,0,1.017142421,5200,2018-07-05 21:49:46,14,0,24.477,4887.8156167119,3.28084,0.447388,1.017142421,0,0,0,317.5, -0.4, 1.3,0,0,1024,1024,1024,1024,317.9,-90,100,4.058,4.083,4.089,4.069,4.07,4.087,16.331,80.6,14,Waypoint,
35.7347589,-118.6147808,4887.8156167119,3.28084,0,0.99049215768,5400,2018-07-05 21:49:46,14,0,24.477,4887.8156167119,3.28084,0.447388,1.017142421,0,0,0,317.7, -0.5, 1.2,0,0,1024,1024,1024,1024,317.9,-90,100,4.058,4.083,4.089,4.069,4.07,4.087,16.331,80.6,14,Waypoint,
35.7347589,-118.6147808,4888.1437007119,3.608924,0,0.99049215768,5500,2018-07-05 21:49:47,14,0,24.477,4888.1437007119,3.608924,0.447388,1.017142421,0,0,0,318.2, -0.6, 1.1,0,0,1024,1024,1024,1024,317.9,-90,100,4.058,4.083,4.089,4.069,4.07,4.087,16.331,80.6,14,Waypoint,
35.7347588,-118.6147807,4888.4717847119,3.937008,0,0.98112535948,5700,2018-07-05 21:49:47,14,0,24.477,4888.4717847119,3.937008,0.447388,1.017142421,0,0,-0.223694,318.5, -0.7, 0.8,0,0,1024,1024,1024,1024,317.9,-90,100,4.058,4.083,4.089,4.069,4.07,4.087,16.331,80.6,14,Waypoint,
35.7347588,-118.6147807,4888.4717847119,3.937008,0,0.98112535948,5800,2018-07-05 21:49:47,14,0,24.477,4888.4717847119,3.937008,0.447388,1.017142421,0,0,-0.223694,318.6, -0.5, 0.9,0,0,1024,1024,1024,1024,317.9,-89.9,100,4.058,4.083,4.089,4.069,4.07,4.087,16.331,80.6,14,Waypoint,
35.7347587,-118.6147807,4888.7998687119,4.265092,0,0.99927496636,5900,2018-07-05 21:49:47,14,0,24.477,4888.7998687119,4.265092,0.447388,1.017142421,0,0,-0.223694,318.6, -0.6, 1,0,0,1024,1024,1024,1024,317.9,-89.9,100,4.058,4.083,4.089,4.069,4.07,4.087,16.331,80.6,14,Waypoint,
35.7347587,-118.6147806,4889.1279527119,4.593176,0,0.97393703904,6000,2018-07-05 21:49:47,14,0,24.378,4889.1279527119,4.593176,0.447388,1.017142421,0,0,-0.223694,318.4, -0.7, 0.9,0,0,1024,1024,1024,1024,317.9,-90,100,4.042,4.068,4.096,4.054,4.062,4.081,16.154,80.6,14,Waypoint,
35.7347585,-118.6147806,4890.1122047119,5.577428,0,1.01411092484,6100,2018-07-05 21:49:47,14,0,24.378,4890.1122047119,5.577428,0.447388,1.017142421,0,0,-0.447388,317.9, -0.9, 0.5,0,0,1024,1024,1024,1024,317.9,-90,100,4.042,4.068,4.096,4.054,4.062,4.081,16.154,80.6,14,Waypoint,
35.7347584,-118.6147806,4890.7683727119,6.233596,0,1.03554465256,6200,2018-07-05 21:49:47,13,0,24.378,4890.7683727119,6.233596,0.447388,1.03554465256,0,0,-0.447388,317.7, -1, 0.4,0,0,1024,1024,1024,1024,317.9,-89.9,100,4.042,4.068,4.096,4.054,4.062,4.081,16.154,80.6,14,Waypoint,
35.7347583,-118.6147805,4891.4245407119,6.889764,0,1.03474740844,6300,2018-07-05 21:49:47,13,0,24.378,4891.4245407119,6.889764,0.447388,1.03554465256,0,0,-0.447388,317.5, -1.1, 0.8,0,0,1024,1024,1024,1024,317.9,-90,100,4.042,4.068,4.096,4.054,4.062,4.081,16.154,80.6,14,Waypoint,
35.7347582,-118.6147805,4892.0807087119,7.545932,0,1.05827759292,6400,2018-07-05 21:49:47,14,0,24.378,4892.0807087119,7.545932,0.447388,1.05827759292,0,0,-0.447388,317.5, -1.4, 1.3,0,0,1024,1024,1024,1024,317.9,-90,100,4.042,4.068,4.096,4.054,4.062,4.081,16.154,80.6,14,Waypoint,
35.7347582,-118.6147805,4893.0649607119,8.530184,0,1.05827759292,6500,2018-07-05 21:49:48,14,0,24.378,4893.0649607119,8.530184,0.447388,1.05827759292,0,0,-0.671082,317.6, -1.5, 1.6,0,0,1024,1024,1024,1024,317.9,-90,100,4.042,4.068,4.096,4.054,4.062,4.081,16.154,80.6,14,Waypoint,
35.7347581,-118.6147805,4894.0492127119,9.514436,0,1.0825295622,6600,2018-07-05 21:49:48,14,0,24.378,4894.0492127119,9.514436,0.447388,1.0825295622,0,0,-0.671082,317.9, -1.5, 1.6,0,0,1024,1024,1024,1024,317.9,-89.9,100,4.042,4.068,4.096,4.054,4.062,4.081,16.154,80.6,14,Waypoint,
35.7347581,-118.6147805,4895.0334647119,10.498688,0,1.0825295622,6700,2018-07-05 21:49:48,14,0,24.378,4895.0334647119,10.498688,0.447388,1.0825295622,0,0,-0.671082,318.2, -1.2, 1.5,0,0,1024,1024,1024,1024,317.9,-89.9,100,4.042,4.068,4.096,4.054,4.062,4.081,16.154,80.6,14,Waypoint,
35.734758,-118.6147805,4896.0177167119,11.48294,0,1.10745082284,6800,2018-07-05 21:49:48,13,0,24.378,4896.0177167119,11.48294,0.447388,1.10745082284,0,0,-0.671082,318.4, -1.1, 1.5,0,0,1024,1024,1024,1024,317.9,-89.9,100,4.042,4.068,4.096,4.054,4.062,4.081,16.154,80.6,14,Waypoint,
35.7347579,-118.6147806,4897.0019687119,12.467192,0,1.15409124428,6900,2018-07-05 21:49:48,13,0,24.378,4897.0019687119,12.467192,0.447388,1.15409124428,0,0,-0.671082,318.6, -1.1, 1.5,0,0,1024,1024,1024,1024,317.9,-90,100,4.042,4.068,4.096,4.054,4.062,4.081,16.154,80.6,14,Waypoint,
35.7347578,-118.6147806,4897.9862207119,13.451444,0,1.1797572556,7000,2018-07-05 21:49:48,13,0,24.066,4897.9862207119,13.451444,0.447388,1.1797572556,0,0,-0.671082,318.7, -1.3, 1.4,0,0,1024,1024,1024,1024,317.9,-89.9,100,4.042,4.068,4.096,4.054,4.062,4.081,20.248,80.6,14,Waypoint,
35.7347578,-118.6147806,4899.2985567119,14.76378,0,1.1797572556,7100,2018-07-05 21:49:48,13,0,24.066,4899.2985567119,14.76378,0.447388,1.1797572556,0,0,-0.671082,318.7, -1.2, 1.2,0,0,1024,1024,1024,1024,317.9,-89.9,100,4.042,4.068,4.096,4.054,4.062,4.081,20.248,80.6,14,Waypoint,
35.7347578,-118.6147805,4900.2828087119,15.748032,0,1.15913061452,7200,2018-07-05 21:49:48,15,0,24.066,4900.2828087119,15.748032,0.447388,1.1797572556,0,0,-0.671082,318.6, -1.2, 1,0,0,1024,1024,1024,1024,317.9,-89.9,100,4.042,4.068,4.096,4.054,4.062,4.081,20.248,80.6,14,Waypoint,
35.7347578,-118.6147805,4901.2670607119,16.732284,0,1.15913061452,7300,2018-07-05 21:49:48,15,0,24.066,4901.2670607119,16.732284,0.447388,1.1797572556,0,0,-0.671082,318.6, -1, 0.8,0,0,1024,1024,1024,1024,317.9,-89.9,100,4.042,4.068,4.096,4.054,4.062,4.081,20.248,80.6,14,Waypoint,
35.7347578,-118.6147805,4901.2670607119,16.732284,0,1.15913061452,7400,2018-07-05 21:49:48,15,0,24.066,4901.2670607119,16.732284,0.447388,1.1797572556,0,0,-0.671082,318.6, -1, 0.8,0,0,1024,1024,1024,1024,317.9,-89.9,100,4.042,4.068,4.096,4.054,4.062,4.081,20.248,80.6,14,Waypoint,
35.7347579,-118.6147804,4902.5793967119,18.04462,0,1.11229334268,7500,2018-07-05 21:49:49,15,0,24.066,4902.5793967119,18.04462,0.447388,1.1797572556,0,0,-0.671082,318.4, -0.9, 0.6,0,0,1024,1024,1024,1024,317.9,-89.9,100,4.042,4.068,4.096,4.054,4.062,4.081,20.248,80.6,14,Waypoint,
35.734758,-118.6147803,4903.5636487119,19.028872,0,1.0654691942,7600,2018-07-05 21:49:49,15,0,24.066,4903.5636487119,19.028872,0.447388,1.1797572556,0,0,-0.671082,318.3, -1, 0.2,0,0,1024,1024,1024,1024,317.9,-89.9,100,4.042,4.068,4.096,4.054,4.062,4.081,20.248,80.6,14,Waypoint,
35.7347583,-118.6147803,4905.8602367119,21.32546,0.223694,0.98968835188,7700,2018-07-05 21:49:49,14,0,24.066,4905.8602367119,21.32546,0.447388,1.1797572556,0,0,-0.671082,318.2, -0.4, -0.1,0,0,1024,1024,1024,1024,317.9,-89.9,100,4.042,4.068,4.096,4.054,4.062,4.081,20.248,80.6,14,Waypoint,
35.7347584,-118.6147803,4906.8444887119,22.309712,0.223694,0.9658628918,7900,2018-07-05 21:49:49,14,0,24.066,4906.8444887119,22.309712,0.447388,1.1797572556,0,0,-0.671082,318.2, 0, -0.1,0,0,1024,1024,1024,1024,317.9,-89.9,100,4.042,4.068,4.096,4.054,4.062,4.081,20.248,80.6,14,Waypoint,
35.7347586,-118.6147802,4908.1568247119,23.622048,0.223694,0.89706039616,8000,2018-07-05 21:49:49,14,0,24.066,4908.1568247119,23.622048,0.447388,1.1797572556,0,0,-0.671082,318.4, 0.3, -0.4,0,0,1024,1024,1024,1024,317.9,-89.9,100,3.983,4.02,3.992,3.969,3.992,4.004,20.248,80.6,14,Waypoint,
35.7347589,-118.6147801,4910.1253287119,25.590552,0,0.80973755872,8100,2018-07-05 21:49:49,15,0,24.066,4910.1253287119,25.590552,0.447388,1.1797572556,0,0,-0.671082,318.4, 0.1, -1.5,0,0,1024,1024,1024,1024,317.9,-89.9,100,3.983,4.02,3.992,3.969,3.992,4.004,20.248,80.6,14,Waypoint,
35.7347591,-118.6147799,4911.1095807119,26.574804,0,0.72105317268,8200,2018-07-05 21:49:49,15,0,24.066,4911.1095807119,26.574804,0.447388,1.1797572556,0,0,-0.671082,318.3, 0, -1.7,0,0,1024,1024,1024,1024,317.9,-89.9,100,3.983,4.02,3.992,3.969,3.992,4.004,20.248,80.6,14,Waypoint,
35.7347592,-118.6147798,4912.4219167119,27.88714,0,0.677247397,8300,2018-07-05 21:49:49,15,0,24.066,4912.4219167119,27.88714,0.447388,1.1797572556,0,0,-0.671082,318.2, -0.2, -1.7,0,0,1024,1024,1024,1024,317.9,-89.9,100,3.983,4.02,3.992,3.969,3.992,4.004,20.248,80.6,14,Waypoint,
35.7347593,-118.6147797,4913.4061687119,28.871392,0,0.63389765808,8400,2018-07-05 21:49:49,16,0,24.066,4913.4061687119,28.871392,0.447388,1.1797572556,0,0,-0.671082,318.2, -0.4, -1.6,0,0,1024,1024,1024,1024,317.9,-89.9,100,3.983,4.02,3.992,3.969,3.992,4.004,20.248,80.6,14,Waypoint,
35.7347594,-118.6147797,4914.3904207119,29.855644,0,0.61794949484,8500,2018-07-05 21:49:50,16,0,24.066,4914.3904207119,29.855644,0.447388,1.1797572556,0,0,-0.671082,318.2, -0.7, -1.3,0,0,1024,1024,1024,1024,317.9,-90,100,3.983,4.02,3.992,3.969,3.992,4.004,20.248,80.6,14,Waypoint,
35.7347595,-118.6147796,4915.3746727119,30.839896,0,0.57628282684,8600,2018-07-05 21:49:50,16,0,24.066,4915.3746727119,30.839896,0.447388,1.1797572556,0,0,-0.671082,318.2, -0.7, -1,0,0,1024,1024,1024,1024,317.9,-90,100,3.983,4.02,3.992,3.969,3.992,4.004,20.248,80.6,14,Waypoint,
35.7347595,-118.6147796,4916.3589247119,31.824148,0,0.57628282684,8700,2018-07-05 21:49:50,16,0,24.066,4916.3589247119,31.824148,0.447388,1.1797572556,0,0,-0.671082,318.2, -0.7, -0.9,0,0,1024,1024,1024,1024,317.9,-89.9,100,3.983,4.02,3.992,3.969,3.992,4.004,20.248,80.6,14,Waypoint,
35.7347596,-118.6147795,4917.3431767119,32.8084,0,0.53550198564,8800,2018-07-05 21:49:50,16,0,24.066,4917.3431767119,32.8084,0.447388,1.1797572556,0,0,-0.671082,318.2, -0.6, -0.7,0,0,1024,1024,1024,1024,317.9,-89.9,100,3.983,4.02,3.992,3.969,3.992,4.004,20.248,80.6,14,Waypoint,
35.7347597,-118.6147795,4918.6555127119,34.120736,0,0.524196211,8900,2018-07-05 21:49:50,16,0,24.066,4918.6555127119,34.120736,0.447388,1.1797572556,0,0,-0.671082,318.2, -0.4, -0.7,0,0,1024,1024,1024,1024,317.9,-89.9,100,3.983,4.02,3.992,3.969,3.992,4.004,20.248,80.6,14,Waypoint,
35.7347598,-118.6147795,4919.6397647119,35.104988,0,0.51522967528,9000,2018-07-05 21:49:50,16,0,23.833,4919.6397647119,35.104988,0.447388,1.1797572556,0,0,-0.671082,318.5, -0.1, -0.5,0,0,1024,1024,1024,1024,317.9,-89.9,100,3.951,3.977,4,3.974,3.985,4.002,22.183,80.6,14,Waypoint,
35.7347599,-118.6147795,4920.6240167119,36.08924,0,0.50873033124,9100,2018-07-05 21:49:50,16,0,23.833,4920.6240167119,36.08924,0.447388,1.1797572556,0,0,-0.671082,318.8, 0, -0.5,0,0,1024,1024,1024,1024,317.9,-89.9,100,3.951,3.977,4,3.974,3.985,4.002,22.183,80.6,14,Waypoint,
35.7347599,-118.6147794,4921.6082687119,37.073492,0,0.47943899172,9200,2018-07-05 21:49:50,16,0,23.833,4921.6082687119,37.073492,0.447388,1.1797572556,0,0,-0.671082,318.9, -0.4, -0.6,0,0,1024,1024,1024,1024,317.9,-89.9,100,3.951,3.977,4,3.974,3.985,4.002,22.183,80.6,14,Waypoint,
35.73476,-118.6147794,4922.5925207119,38.057744,0,0.47525592072,9300,2018-07-05 21:49:50,16,0,23.833,4922.5925207119,38.057744,0.447388,1.1797572556,0,0,-0.671082,318.7, -0.7, -1.2,0,0,1024,1024,1024,1024,317.9,-90,100,3.951,3.977,4,3.974,3.985,4.002,22.183,80.6,14,Waypoint,
35.7347601,-118.6147792,4923.5767727119,39.041996,0,0.41462271668,9400,2018-07-05 21:49:50,16,0,23.833,4923.5767727119,39.041996,0.447388,1.1797572556,0,0,-0.671082,318.5, -0.9, -2,0,0,1024,1024,1024,1024,317.9,-90,100,3.951,3.977,4,3.974,3.985,4.002,22.183,80.6,14,Waypoint,
35.7347601,-118.6147791,4924.5610247119,40.026248,0,0.385006574,9500,2018-07-05 21:49:51,16,0,23.833,4924.5610247119,40.026248,0.447388,1.1797572556,0,0,-0.671082,318.2, -1.2, -2.2,0,0,1024,1024,1024,1024,317.9,-90,100,3.951,3.977,4,3.974,3.985,4.002,22.183,80.6,14,Waypoint,
35.7347601,-118.614779,4925.5452767119,41.0105,0,0.35539043132,9600,2018-07-05 21:49:51,16,0,23.833,4925.5452767119,41.0105,0.447388,1.1797572556,0,0,-0.671082,318.1, -1.4, -2,0,0,1024,1024,1024,1024,317.9,-90,100,3.951,3.977,4,3.974,3.985,4.002,22.183,80.6,14,Waypoint,
35.7347601,-118.614779,4926.5295287119,41.994752,0,0.35539043132,9700,2018-07-05 21:49:51,16,0,23.833,4926.5295287119,41.994752,0.447388,1.1797572556,0,0,-0.671082,318, -1.6, -2.1,0,0,1024,1024,1024,1024,317.9,-90,100,3.951,3.977,4,3.974,3.985,4.002,22.183,80.6,14,Waypoint,
35.7347601,-118.6147789,4927.8418647119,43.307088,0,0.325774944808,9800,2018-07-05 21:49:51,16,0,23.833,4927.8418647119,43.307088,0.447388,1.1797572556,0,0,-0.671082,318, -2, -2,0,0,1024,1024,1024,1024,317.9,-89.9,100,3.951,3.977,4,3.974,3.985,4.002,22.183,80.6,14,Waypoint,
35.7347601,-118.6147788,4928.8261167119,44.29134,0,0.296159130212,9900,2018-07-05 21:49:51,16,0,23.833,4928.8261167119,44.29134,0.447388,1.1797572556,0,0,-0.671082,318.1, -2.5, -2,0,0,1024,1024,1024,1024,317.9,-89.9,100,3.951,3.977,4,3.974,3.985,4.002,22.183,80.6,14,Waypoint,
35.7347601,-118.6147787,4929.8103687119,45.275592,0,0.266542987532,10010,2018-07-05 21:49:51,16,0,24.082,4929.8103687119,45.275592,0.447388,1.1797572556,0,0,-0.671082,318.2, -2.6, -2.1,0,0,1024,1024,1024,1024,317.9,-89.9,98,3.994,4.022,4.022,4.009,4.013,4.031,17.822,80.6,14,Waypoint,
35.7347601,-118.6147785,4930.7946207119,46.259844,0,0.20731135834,10110,2018-07-05 21:49:51,16,0,24.082,4930.7946207119,46.259844,0.447388,1.1797572556,0,0,-0.671082,318.4, -2.5, -2.4,0,0,1024,1024,1024,1024,317.9,-89.9,98,3.994,4.022,4.022,4.009,4.013,4.031,17.822,80.6,14,Waypoint,
35.7347601,-118.6147784,4932.1069567119,47.57218,0,0.177695543744,10300,2018-07-05 21:49:51,16,0,24.082,4932.1069567119,47.57218,0.447388,1.1797572556,0,0,-0.671082,318.7, -2.4, -2.6,0,0,1024,1024,1024,1024,317.9,-89.9,98,3.994,4.022,4.022,4.009,4.013,4.031,17.822,80.6,14,Waypoint,
35.73476,-118.6147782,4934.0754607119,49.540684,0,0.123954728376,10400,2018-07-05 21:49:51,16,0,24.082,4934.0754607119,49.540684,0.447388,1.1797572556,0,0,-0.671082,318.9, -2.8, -2.9,0,0,1024,1024,1024,1024,317.9,-89.9,98,3.994,4.022,4.022,4.009,4.013,4.031,17.822,80.6,14,Waypoint,
35.73476,-118.6147781,4935.0597127119,50.524936,0,0.096047247168,10500,2018-07-05 21:49:52,16,0,24.082,4935.0597127119,50.524936,0.447388,1.1797572556,0,0,-0.671082,319, -3.1, -3,0,0,1024,1024,1024,1024,317.9,-89.9,98,3.994,4.022,4.022,4.009,4.013,4.031,17.822,80.6,14,Waypoint,
35.73476,-118.614778,4936.0439647119,51.509188,0,0.06956693136,10600,2018-07-05 21:49:52,16,0,24.082,4936.0439647119,51.509188,0.447388,1.1797572556,0,0,-0.671082,319, -3.2, -2.9,0,0,1024,1024,1024,1024,317.9,-89.9,98,3.994,4.022,4.022,4.009,4.013,4.031,17.822,80.6,14,Waypoint,
35.73476,-118.6147779,4937.0282167119,52.49344,0,0.046992127488,10700,2018-07-05 21:49:52,16,0,24.082,4937.0282167119,52.49344,0.447388,1.1797572556,0,0,-0.671082,318.8, -3.1, -3.1,0,0,1024,1024,1024,1024,317.9,-89.9,98,3.994,4.022,4.022,4.009,4.013,4.031,17.822,80.6,14,Waypoint,
35.73476,-118.6147778,4938.0124687119,53.477692,0,0.036484909304,10800,2018-07-05 21:49:52,16,0,24.082,4938.0124687119,53.477692,0.447388,1.1797572556,0,0,-0.671082,318.5, -2.8, -3.4,0,0,1024,1024,1024,1024,317.9,-89.9,98,3.994,4.022,4.022,4.009,4.013,4.031,17.822,80.6,14,Waypoint,
35.7347601,-118.6147778,4938.6686367119,54.13386,0,0,10900,2018-07-05 21:49:52,16,0,24.082,4938.6686367119,54.13386,0.447388,1.1797572556,0,0,-0.671082,318.2, -2.1, -3.7,0,0,1024,1024,1024,1024,317.9,-89.9,98,3.994,4.022,4.022,4.009,4.013,4.031,17.822,80.6,14,Waypoint,
35.7347602,-118.6147778,4939.6528887119,55.118112,0,0.036484909304,11000,2018-07-05 21:49:52,16,0,24.033,4939.6528887119,55.118112,0.447388,1.1797572556,0,0,-0.671082,317.9, -1.2, -3.6,0,0,1024,1024,1024,1024,317.9,-89.9,98,3.981,4.01,4.019,3.998,3.999,4.027,18.574,80.6,14,Waypoint,
35.7347602,-118.6147778,4940.6371407119,56.102364,0,0.036484909304,11100,2018-07-05 21:49:52,16,0,24.033,4940.6371407119,56.102364,0.447388,1.1797572556,0,0,-0.671082,317.6, -0.9, -3.4,0,0,1024,1024,1024,1024,317.9,-89.9,98,3.981,4.01,4.019,3.998,3.999,4.027,18.574,80.6,14,Waypoint,
35.7347602,-118.6147778,4941.6213927119,57.086616,0,0.036484909304,11200,2018-07-05 21:49:52,16,0,24.033,4941.6213927119,57.086616,0.447388,1.1797572556,0,0,-0.671082,317.5, -1, -3,0,0,1024,1024,1024,1024,317.9,-89.9,98,3.981,4.01,4.019,3.998,3.999,4.027,18.574,80.6,14,Waypoint,
35.7347602,-118.6147778,4942.2775607119,57.742784,0,0.036484909304,11300,2018-07-05 21:49:52,16,0,24.033,4942.2775607119,57.742784,0.447388,1.1797572556,0,0,-0.671082,317.6, -1.1, -3,0,0,1024,1024,1024,1024,317.9,-89.9,98,3.981,4.01,4.019,3.998,3.999,4.027,18.574,80.6,14,Waypoint,
35.7347602,-118.6147778,4943.2618127119,58.727036,0,0.036484909304,11400,2018-07-05 21:49:52,16,0,24.033,4943.2618127119,58.727036,0.447388,1.1797572556,0,0,-0.671082,317.7, -1.8, -2.9,0,0,1024,1024,1024,1024,317.9,-90,98,3.981,4.01,4.019,3.998,3.999,4.027,18.574,80.6,14,Waypoint,
35.7347601,-118.6147778,4944.2460647119,59.711288,0,0,11500,2018-07-05 21:49:53,16,0,24.033,4944.2460647119,59.711288,0.447388,1.1797572556,0,0,-0.671082,317.9, -2.4, -2.9,0,0,1024,1024,1024,1024,317.9,-90,98,3.981,4.01,4.019,3.998,3.999,4.027,18.574,80.6,14,Waypoint,
35.73476,-118.6147778,4945.2303167119,60.69554,0,0.036484909304,11600,2018-07-05 21:49:53,16,0,24.033,4945.2303167119,60.69554,0.447388,1.1797572556,0,0,-0.671082,318, -2.8, -2.7,0,0,1024,1024,1024,1024,317.9,-89.9,98,3.981,4.01,4.019,3.998,3.999,4.027,18.574,80.6,14,Waypoint,
35.73476,-118.6147778,4945.8864847119,61.351708,0,0.036484909304,11700,2018-07-05 21:49:53,16,0,24.033,4945.8864847119,61.351708,0.447388,1.1797572556,0,0,-0.671082,318.1, -3, -2.6,0,0,1024,1024,1024,1024,317.9,-89.9,98,3.981,4.01,4.019,3.998,3.999,4.027,18.574,80.6,14,Waypoint,
35.7347599,-118.6147778,4946.8707367119,62.33596,0,0.072969818608,11800,2018-07-05 21:49:53,16,0,24.033,4946.8707367119,62.33596,0.447388,1.1797572556,0,0,-0.671082,318.3, -3.2, -2.5,0,0,1024,1024,1024,1024,317.9,-89.9,98,3.981,4.01,4.019,3.998,3.999,4.027,18.574,80.6,14,Waypoint,
35.7347598,-118.6147778,4947.8549887119,63.320212,0,0.109454727912,11900,2018-07-05 21:49:53,16,0,24.033,4947.8549887119,63.320212,0.447388,1.1797572556,0,0,-0.671082,318.3, -3.2, -2.4,0,0,1024,1024,1024,1024,317.9,-89.9,98,3.981,4.01,4.019,3.998,3.999,4.027,18.574,80.6,14,Waypoint,
35.7347598,-118.6147778,4948.8392407119,64.304464,0,0.109454727912,12000,2018-07-05 21:49:53,16,0,23.999,4948.8392407119,64.304464,0.447388,1.1797572556,0,0,-0.671082,318.2, -2.8, -2.3,0,0,1024,1024,1024,1024,317.9,-89.9,98,3.985,4.025,4.011,4.006,4.008,4.03,18.221,80.6,14,Waypoint,
35.7347597,-118.6147779,4949.8234927119,65.288716,0,0.148914374844,12100,2018-07-05 21:49:53,16,0,23.999,4949.8234927119,65.288716,0.447388,1.1797572556,0,0,-0.671082,318.1, -2.6, -2,0,0,1024,1024,1024,1024,317.9,-89.9,98,3.985,4.025,4.011,4.006,4.008,4.03,18.221,80.6,14,Waypoint,
35.7347596,-118.614778,4950.8077447119,66.272968,0,0.191799874904,12200,2018-07-05 21:49:53,16,0,23.999,4950.8077447119,66.272968,0.447388,1.1797572556,0,0,-0.671082,318, -2.6, -1.8,0,0,1024,1024,1024,1024,317.9,-89.9,98,3.985,4.025,4.011,4.006,4.008,4.03,18.221,80.6,14,Waypoint,
35.7347596,-118.614778,4951.7919967119,67.25722,0,0.191799874904,12300,2018-07-05 21:49:53,16,0,23.999,4951.7919967119,67.25722,0.447388,1.1797572556,0,0,-0.671082,318, -2.3, -1.9,0,0,1024,1024,1024,1024,317.9,-89.9,98,3.985,4.025,4.011,4.006,4.008,4.03,18.221,80.6,14,Waypoint,
35.7347595,-118.6147781,4952.4481647119,67.913388,0,0.236252632232,12400,2018-07-05 21:49:53,16,0,23.999,4952.4481647119,67.913388,0.447388,1.1797572556,0,0,-0.671082,318.1, -2.1, -2,0,0,1024,1024,1024,1024,317.9,-89.9,98,3.985,4.025,4.011,4.006,4.008,4.03,18.221,80.6,14,Waypoint,
35.7347594,-118.6147782,4953.4324167119,68.89764,0,0.281531505072,12500,2018-07-05 21:49:54,16,0,23.999,4953.4324167119,68.89764,0.447388,1.1797572556,0,0,-0.671082,318.2, -2.3, -1.5,0,0,1024,1024,1024,1024,317.9,-89.9,98,3.985,4.025,4.011,4.006,4.008,4.03,18.221,80.6,14,Waypoint,
35.7347593,-118.6147782,4954.4166687119,69.881892,0,0.315003619004,12600,2018-07-05 21:49:54,16,0,23.999,4954.4166687119,69.881892,0.447388,1.1797572556,0,0,-0.671082,318.2, -2.6, -1.5,0,0,1024,1024,1024,1024,317.9,-90,98,3.985,4.025,4.011,4.006,4.008,4.03,18.221,80.6,14,Waypoint,
35.7347593,-118.6147783,4955.4009207119,70.866144,0,0.327293645644,12700,2018-07-05 21:49:54,16,0,23.999,4955.4009207119,70.866144,0.447388,1.1797572556,0,0,-0.671082,318.2, -2.8, -1.7,0,0,1024,1024,1024,1024,317.9,-90,98,3.985,4.025,4.011,4.006,4.008,4.03,18.221,80.6,14,Waypoint,
35.7347593,-118.6147783,4956.3851727119,71.850396,0,0.327293645644,12810,2018-07-05 21:49:54,16,0,23.999,4956.3851727119,71.850396,0.447388,1.1797572556,0,0,-0.671082,318.2, -2.6, -1.9,0,0,1024,1024,1024,1024,317.9,-89.9,98,3.985,4.025,4.011,4.006,4.008,4.03,18.221,80.6,14,Waypoint,
35.7347593,-118.6147783,4956.3851727119,71.850396,0,0.327293645644,12900,2018-07-05 21:49:54,16,0,23.999,4956.3851727119,71.850396,0.447388,1.1797572556,0,0,-0.671082,318.2, -2.6, -1.9,0,0,1024,1024,1024,1024,317.9,-89.9,98,3.985,4.025,4.011,4.006,4.008,4.03,18.221,80.6,14,Waypoint,
35.7347593,-118.6147783,4957.3694247119,72.834648,0,0.327293645644,13000,2018-07-05 21:49:54,16,0,23.999,4957.3694247119,72.834648,0.447388,1.1797572556,0,0,-0.671082,318.1, -2.4, -1.9,0,0,1024,1024,1024,1024,317.9,-89.9,98,3.963,3.997,3.996,3.99,3.982,4.017,18.221,80.6,14,Waypoint,
35.7347592,-118.6147783,4958.3536767119,73.8189,0,0.36020998528,13100,2018-07-05 21:49:54,16,0,23.999,4958.3536767119,73.8189,0.447388,1.1797572556,0,0,-0.671082,318.1, -2.4, -2.1,0,0,1024,1024,1024,1024,317.9,-89.9,98,3.963,3.997,3.996,3.99,3.982,4.017,18.221,80.6,14,Waypoint,
35.7347592,-118.6147784,4959.3379287119,74.803152,0,0.37336287284,13200,2018-07-05 21:49:54,16,0,23.999,4959.3379287119,74.803152,0.447388,1.1797572556,0,0,-0.671082,318.1, -2.5, -2.1,0,0,1024,1024,1024,1024,317.9,-89.9,98,3.963,3.997,3.996,3.99,3.982,4.017,18.221,80.6,14,Waypoint,
35.7347591,-118.6147784,4961.6345167119,77.09974,0,0.40582022296,13300,2018-07-05 21:49:54,16,0,23.999,4961.6345167119,77.09974,0.447388,1.1797572556,0,0,-0.671082,318.3, -2.9, -1.9,0,0,1024,1024,1024,1024,317.9,-90,98,3.963,3.997,3.996,3.99,3.982,4.017,18.221,80.6,14,Waypoint,
35.7347591,-118.6147784,4962.6187687119,78.083992,0,0.40582022296,13400,2018-07-05 21:49:54,16,0,23.999,4962.6187687119,78.083992,0.447388,1.1797572556,0,0,-0.671082,318.4, -3.2, -1.9,0,0,1024,1024,1024,1024,317.9,-89.9,98,3.963,3.997,3.996,3.99,3.982,4.017,18.221,80.6,14,Waypoint,
35.7347591,-118.6147784,4963.6030207119,79.068244,0,0.40582022296,13500,2018-07-05 21:49:55,16,0,23.999,4963.6030207119,79.068244,0.447388,1.1797572556,0,0,-0.671082,318.5, -3.2, -2.3,0,0,1024,1024,1024,1024,317.9,-89.9,98,3.963,3.997,3.996,3.99,3.982,4.017,18.221,80.6,14,Waypoint,
35.7347591,-118.6147784,4964.9153567119,80.38058,0,0.40582022296,13600,2018-07-05 21:49:55,16,0,23.999,4964.9153567119,80.38058,0.447388,1.1797572556,0,0,-0.671082,318.5, -3, -2.7,0,0,1024,1024,1024,1024,317.9,-89.9,98,3.963,3.997,3.996,3.99,3.982,4.017,18.221,80.6,14,Waypoint,
35.7347591,-118.6147784,4965.8996087119,81.364832,0,0.40582022296,13700,2018-07-05 21:49:55,16,0,23.999,4965.8996087119,81.364832,0.447388,1.1797572556,0,0,-0.671082,318.5, -2.7, -2.9,0,0,1024,1024,1024,1024,317.9,-89.9,98,3.963,3.997,3.996,3.99,3.982,4.017,18.221,80.6,14,Waypoint,
35.7347591,-118.6147783,4968.1961967119,83.66142,0,0.39375329344,13910,2018-07-05 21:49:55,16,0,23.999,4968.1961967119,83.66142,0.447388,1.1797572556,0,0,-0.671082,318.4, -3.1, -3.2,0,0,1024,1024,1024,1024,317.9,-89.9,98,3.963,3.997,3.996,3.99,3.982,4.017,18.221,80.6,14,Waypoint,
35.7347592,-118.6147783,4969.1804487119,84.645672,0,0.36020998528,14000,2018-07-05 21:49:55,16,0,23.88,4969.1804487119,84.645672,0.447388,1.1797572556,0,0,-0.671082,318.3, -3.1, -3.2,0,0,1024,1024,1024,1024,317.9,-89.9,98,3.962,3.991,3.984,3.975,3.972,3.998,19.359,82.4,14,Waypoint,
35.7347592,-118.6147782,4970.1647007119,85.629924,0,0.349081376,14100,2018-07-05 21:49:55,16,0,23.88,4970.1647007119,85.629924,0.447388,1.1797572556,0,0,-0.671082,318.1, -3, -3.3,0,0,1024,1024,1024,1024,317.9,-89.9,98,3.962,3.991,3.984,3.975,3.972,3.998,19.359,82.4,14,Waypoint,
35.7347592,-118.6147782,4971.4770367119,86.94226,0,0.349081376,14200,2018-07-05 21:49:55,16,0,23.88,4971.4770367119,86.94226,0.447388,1.1797572556,0,0,-0.671082,318.1, -2.8, -3.4,0,0,1024,1024,1024,1024,317.9,-89.9,98,3.962,3.991,3.984,3.975,3.972,3.998,19.359,82.4,14,Waypoint,
35.7347593,-118.6147783,4972.4612887119,87.926512,0,0.327293645644,14300,2018-07-05 21:49:55,16,0,23.88,4972.4612887119,87.926512,0.447388,1.1797572556,0,0,-0.671082,318.2, -2.5, -3.6,0,0,1024,1024,1024,1024,317.9,-89.9,98,3.962,3.991,3.984,3.975,3.972,3.998,19.359,82.4,14,Waypoint,
35.7347594,-118.6147783,4973.4455407119,88.910764,0,0.295218513384,14400,2018-07-05 21:49:55,16,0,23.88,4973.4455407119,88.910764,0.447388,1.1797572556,0,0,-0.671082,318.3, -2, -3.7,0,0,1024,1024,1024,1024,317.9,-89.9,98,3.962,3.991,3.984,3.975,3.972,3.998,19.359,82.4,14,Waypoint,
35.7347595,-118.6147783,4974.4297927119,89.895016,0,0.26428970662,14500,2018-07-05 21:49:56,16,0,23.88,4974.4297927119,89.895016,0.447388,1.1797572556,0,0,-0.671082,318.4, -1.6, -3.9,0,0,1024,1024,1024,1024,317.9,-89.9,98,3.962,3.991,3.984,3.975,3.972,3.998,19.359,82.4,14,Waypoint,
35.7347596,-118.6147783,4975.4140447119,90.879268,0,0.234960309356,14600,2018-07-05 21:49:56,16,0,23.88,4975.4140447119,90.879268,0.447388,1.1797572556,0,0,-0.671082,318.5, -1.5, -4.2,0,0,1024,1024,1024,1024,317.9,-89.9,98,3.962,3.991,3.984,3.975,3.972,3.998,19.359,82.4,14,Waypoint,
35.7347596,-118.6147783,4976.3982967119,91.86352,0,0.234960309356,14700,2018-07-05 21:49:56,16,0,23.88,4976.3982967119,91.86352,0.447388,1.1797572556,0,0,-0.671082,318.5, -1.8, -4.6,0,0,1024,1024,1024,1024,317.9,-89.9,98,3.962,3.991,3.984,3.975,3.972,3.998,19.359,82.4,14,Waypoint,
35.7347597,-118.6147782,4977.0544647119,92.519688,0,0.187968181868,14800,2018-07-05 21:49:56,16,0,23.88,4977.0544647119,92.519688,0.447388,1.1797572556,0,0,-0.671082,318.6, -2, -5.1,0,0,1024,1024,1024,1024,317.9,-89.9,98,3.962,3.991,3.984,3.975,3.972,3.998,19.359,82.4,14,Waypoint,
35.7347598,-118.6147781,4978.0387167119,93.50394,0,0.14097605438,14900,2018-07-05 21:49:56,16,0,23.88,4978.0387167119,93.50394,0.447388,1.1797572556,0,0,-0.671082,318.8, -2, -5.3,0,0,1024,1024,1024,1024,317.9,-89.9,98,3.962,3.991,3.984,3.975,3.972,3.998,19.359,82.4,14,Waypoint,
35.7347599,-118.6147781,4979.0229687119,94.488192,0,0.114971788456,15000,2018-07-05 21:49:56,16,0,23.955,4979.0229687119,94.488192,0.447388,1.1797572556,0,0,-0.671082,318.9, -2, -4.8,0,0,1024,1024,1024,1024,317.9,-89.9,98,3.977,4.013,4.007,3.996,3.996,4.032,18.116,82.4,14,Waypoint,
35.73476,-118.614778,4980.0072207119,95.472444,0,0.06956693136,15100,2018-07-05 21:49:56,16,0,23.955,4980.0072207119,95.472444,0.447388,1.1797572556,0,0,-0.671082,318.9, -2.1, -5.2,0,0,1024,1024,1024,1024,317.9,-89.9,98,3.977,4.013,4.007,3.996,3.996,4.032,18.116,82.4,14,Waypoint,
35.7347601,-118.6147779,4980.9914727119,96.456696,0.3131716,0.0296159130212,15300,2018-07-05 21:49:56,16,0,23.955,4980.9914727119,96.456696,0.447388,1.1797572556,0,0,-0.671082,318.8, -2, -5.6,0,0,1024,1024,1024,1024,317.9,-89.9,98,3.977,4.013,4.007,3.996,3.996,4.032,18.116,82.4,14,Waypoint,
35.7347603,-118.6147776,4982.9599767119,98.4252,0.3131716,0.093983926892,15400,2018-07-05 21:49:56,16,0,23.955,4982.9599767119,98.4252,0.447388,1.1797572556,0,0,-0.671082,318.4, -2.7, -7,0,0,1024,1024,1024,1024,317.9,-90,98,3.977,4.013,4.007,3.996,3.996,4.032,18.116,82.4,14,Waypoint,
35.7347604,-118.6147775,4983.9442287119,99.409452,0.223694,0.14097605438,15500,2018-07-05 21:49:57,16,0,23.955,4983.9442287119,99.409452,0.447388,1.1797572556,0,0,-0.671082,318.2, -2.9, -7.8,0,0,1024,1024,1024,1024,317.9,-89.9,98,3.977,4.013,4.007,3.996,3.996,4.032,18.116,82.4,14,Waypoint,
35.7347604,-118.6147773,4984.9284807119,100.393704,0.223694,0.184141082008,15700,2018-07-05 21:49:57,16,0,23.955,4984.9284807119,100.393704,0.447388,1.1797572556,0,0,-0.671082,318.1, -2.9, -8.1,0,0,1024,1024,1024,1024,317.9,-89.9,98,3.977,4.013,4.007,3.996,3.996,4.032,18.116,82.4,14,Waypoint,
35.7347605,-118.6147772,4985.5846487119,101.049872,0.223694,0.229943576912,15800,2018-07-05 21:49:57,16,0,23.955,4985.5846487119,101.049872,0.447388,1.1797572556,0,0,-0.671082,318.1, -3, -7.8,0,0,1024,1024,1024,1024,317.9,-90,98,3.977,4.013,4.007,3.996,3.996,4.032,18.116,82.4,14,Waypoint,
35.7347606,-118.614777,4986.5689007119,102.034124,0,0.299020350776,15900,2018-07-05 21:49:57,17,0,23.955,4986.5689007119,102.034124,0.447388,1.1797572556,0,0,-0.671082,318.1, -3.1, -7.4,0,0,1024,1024,1024,1024,317.9,-90,98,3.977,4.013,4.007,3.996,3.996,4.032,18.116,82.4,14,Waypoint,
35.7347605,-118.6147769,4987.8812367119,103.34646,0,0.303880915236,16000,2018-07-05 21:49:57,17,0,24.154,4987.8812367119,103.34646,0.447388,1.1797572556,0,0,-0.671082,318.1, -2.6, -5.8,0,0,1024,1024,1024,1024,317.9,-89.9,98,3.966,4.009,4.04,4.02,4.04,4.051,17.44,82.4,14,Waypoint,
35.7347605,-118.6147769,4988.5374047119,104.002628,0.223694,0.303880915236,16100,2018-07-05 21:49:57,17,0,24.154,4988.5374047119,104.002628,0.447388,1.1797572556,0,0,-0.671082,318.1, -3.2, -5.1,0,0,1024,1024,1024,1024,317.9,-90,98,3.966,4.009,4.04,4.02,4.04,4.051,17.44,82.4,14,Waypoint,
35.7347604,-118.6147769,4989.5216567119,104.98688,0.223694,0.288141741504,16200,2018-07-05 21:49:57,17,0,24.154,4989.5216567119,104.98688,0.447388,1.1797572556,0,0,-0.671082,318.2, -3.9, -4.3,0,0,1024,1024,1024,1024,317.9,-90,98,3.966,4.009,4.04,4.02,4.04,4.051,17.44,82.4,14,Waypoint,
35.7347602,-118.6147769,4990.1778247119,105.643048,0.223694,0.269028551916,16300,2018-07-05 21:49:57,17,0,24.154,4990.1778247119,105.643048,0.447388,1.1797572556,0,0,-0.671082,318.3, -4.4, -4,0,0,1024,1024,1024,1024,317.9,-90,98,3.966,4.009,4.04,4.02,4.04,4.051,17.44,82.4,14,Waypoint,
35.7347601,-118.6147769,4991.1620767119,106.6273,0.223694,0.266542987532,16400,2018-07-05 21:49:57,17,0,24.154,4991.1620767119,106.6273,0.447388,1.1797572556,0,0,-0.671082,318.2, -5.1, -3.9,0,0,1024,1024,1024,1024,317.9,-90,98,3.966,4.009,4.04,4.02,4.04,4.051,17.44,82.4,14,Waypoint,
35.73476,-118.6147769,4992.1463287119,107.611552,0.223694,0.269028551916,16500,2018-07-05 21:49:58,17,0,24.154,4992.1463287119,107.611552,0.447388,1.1797572556,0,0,-0.671082,318.2, -5.1, -4.2,0,0,1024,1024,1024,1024,317.9,-89.9,98,3.966,4.009,4.04,4.02,4.04,4.051,17.44,82.4,14,Waypoint,
35.7347599,-118.6147769,4993.1305807119,108.595804,0.223694,0.276350730628,16600,2018-07-05 21:49:58,17,0,24.154,4993.1305807119,108.595804,0.447388,1.1797572556,0,0,-0.671082,318.1, -5.1, -4.5,0,0,1024,1024,1024,1024,317.9,-90,98,3.966,4.009,4.04,4.02,4.04,4.051,17.44,82.4,14,Waypoint,
35.7347598,-118.614777,4993.7867487119,109.251972,0.223694,0.260988197328,16700,2018-07-05 21:49:58,17,0,24.154,4993.7867487119,109.251972,0.447388,1.1797572556,0,0,-0.671082,318.1, -5.2, -4.2,0,0,1024,1024,1024,1024,317.9,-89.9,98,3.966,4.009,4.04,4.02,4.04,4.051,17.44,82.4,14,Waypoint,
35.7347597,-118.6147771,4994.7710007119,110.236224,0.3131716,0.253527895252,16800,2018-07-05 21:49:58,16,0,24.154,4994.7710007119,110.236224,0.447388,1.1797572556,0,0,-0.671082,318.2, -5.1, -3.2,0,0,1024,1024,1024,1024,317.9,-89.9,98,3.966,4.009,4.04,4.02,4.04,4.051,17.44,82.4,14,Waypoint,
35.7347596,-118.6147772,4995.7552527119,111.220476,0.3131716,0.25466536248,16900,2018-07-05 21:49:58,16,0,24.154,4995.7552527119,111.220476,0.447388,1.1797572556,0,0,-0.671082,318.2, -4.7, -2.1,0,0,1024,1024,1024,1024,317.9,-89.9,98,3.966,4.009,4.04,4.02,4.04,4.051,17.44,82.4,14,Waypoint,
35.7347595,-118.6147773,4996.7395047119,112.204728,0.223694,0.26428970662,17000,2018-07-05 21:49:58,16,0,23.738,4996.7395047119,112.204728,0.447388,1.1797572556,0,0,-0.671082,318.1, -4.3, -2.2,0,0,1024,1024,1024,1024,317.9,-89.9,98,3.926,3.962,3.966,3.947,3.984,4.023,19.02,82.4,14,Waypoint,
35.7347594,-118.6147774,4998.0518407119,113.517064,0.223694,0.281531505072,17100,2018-07-05 21:49:58,16,0,23.738,4998.0518407119,113.517064,0.447388,1.1797572556,0,0,-0.671082,318.2, -4.3, -2.3,0,0,1024,1024,1024,1024,317.9,-89.9,98,3.926,3.962,3.966,3.947,3.984,4.023,19.02,82.4,14,Waypoint,
35.7347593,-118.6147774,4999.0360927119,114.501316,0.223694,0.315003619004,17200,2018-07-05 21:49:58,16,0,23.738,4999.0360927119,114.501316,0.447388,1.1797572556,0,0,-0.671082,318.2, -4.5, -2.4,0,0,1024,1024,1024,1024,317.9,-90,98,3.926,3.962,3.966,3.947,3.984,4.023,19.02,82.4,14,Waypoint,
35.7347593,-118.6147775,5000.0203447119,115.485568,0.223694,0.305102700052,17400,2018-07-05 21:49:58,16,0,23.738,5000.0203447119,115.485568,0.447388,1.1797572556,0,0,-0.671082,318.2, -4.8, -2.6,0,0,1024,1024,1024,1024,317.9,-90,98,3.926,3.962,3.966,3.947,3.984,4.023,19.02,82.4,14,Waypoint,
35.7347591,-118.6147775,5002.3169327119,117.782156,0,0.37551182304,17500,2018-07-05 21:49:59,16,0,23.738,5002.3169327119,117.782156,0.447388,1.1797572556,0,0,-0.671082,318.3, -5.2, -2.6,0,0,1024,1024,1024,1024,317.9,-90,98,3.926,3.962,3.966,3.947,3.984,4.023,19.02,82.4,14,Waypoint,
35.7347591,-118.6147775,5003.3011847119,118.766408,0,0.37551182304,17600,2018-07-05 21:49:59,16,0,23.738,5003.3011847119,118.766408,0.447388,1.1797572556,0,0,-0.671082,318.3, -5.2, -3.1,0,0,1024,1024,1024,1024,317.9,-89.9,98,3.926,3.962,3.966,3.947,3.984,4.023,19.02,82.4,14,Waypoint,
35.7347591,-118.6147774,5004.6135207119,120.078744,0,0.38359909364,17800,2018-07-05 21:49:59,16,0,23.738,5004.6135207119,120.078744,0.447388,1.1797572556,0,0,-0.671082,318.3, -5.3, -3.6,0,0,1024,1024,1024,1024,317.9,-90,98,3.926,3.962,3.966,3.947,3.984,4.023,19.02,82.4,14,Waypoint,
35.7347591,-118.6147773,5005.5977727119,121.062996,0,0.39375329344,17900,2018-07-05 21:49:59,16,0,23.738,5005.5977727119,121.062996,0.447388,1.1797572556,0,0,-0.671082,318.4, -5.3, -4,0,0,1024,1024,1024,1024,317.9,-89.9,98,3.926,3.962,3.966,3.947,3.984,4.023,19.02,82.4,14,Waypoint,
35.7347592,-118.6147772,5006.9101087119,122.375332,0,0.37336287284,18000,2018-07-05 21:49:59,16,0,23.731,5006.9101087119,122.375332,0.447388,1.1797572556,0,0,-0.671082,318.5, -4.8, -4.7,0,0,1024,1024,1024,1024,317.9,-89.9,98,3.926,3.962,3.966,3.947,3.984,4.023,19.871,82.4,14,Waypoint,
35.7347593,-118.6147771,5007.8943607119,123.359584,0,0.35801182248,18100,2018-07-05 21:49:59,16,0,23.731,5007.8943607119,123.359584,0.447388,1.1797572556,0,0,-0.671082,318.7, -4.5, -4.9,0,0,1024,1024,1024,1024,317.9,-90,98,3.926,3.962,3.966,3.947,3.984,4.023,19.871,82.4,14,Waypoint,
35.7347593,-118.614777,5008.8786127119,124.343836,0,0.3759350514,18200,2018-07-05 21:49:59,16,0,23.731,5008.8786127119,124.343836,0.447388,1.1797572556,0,0,-0.671082,318.8, -4.8, -4.8,0,0,1024,1024,1024,1024,317.9,-89.9,98,3.926,3.962,3.966,3.947,3.984,4.023,19.871,82.4,14,Waypoint,
35.7347595,-118.6147768,5010.8471167119,126.31234,0,0.36828085168,18300,2018-07-05 21:49:59,16,0,23.731,5010.8471167119,126.31234,0.447388,1.1797572556,0,0,-0.671082,319, -4.8, -5.5,0,0,1024,1024,1024,1024,317.9,-89.9,98,3.926,3.962,3.966,3.947,3.984,4.023,19.871,82.4,14,Waypoint,
35.7347595,-118.6147768,5012.1594527119,127.624676,0,0.36828085168,18400,2018-07-05 21:49:59,16,0,23.731,5012.1594527119,127.624676,0.447388,1.1797572556,0,0,-0.671082,318.8, -4.5, -5.4,0,0,1024,1024,1024,1024,317.9,-89.9,98,3.926,3.962,3.966,3.947,3.984,4.023,19.871,82.4,14,Waypoint,
35.7347596,-118.6147768,5013.1437047119,128.608928,0,0.3478346568,18500,2018-07-05 21:50:00,16,0,23.731,5013.1437047119,128.608928,0.447388,1.1797572556,0,0,-0.671082,318.7, -4.6, -5.1,0,0,1024,1024,1024,1024,317.9,-89.9,98,3.926,3.962,3.966,3.947,3.984,4.023,19.871,82.4,14,Waypoint,
35.7347597,-118.6147768,5014.1279567119,129.59318,0,0.33016405256,18600,2018-07-05 21:50:00,16,0,23.731,5014.1279567119,129.59318,0.447388,1.1797572556,0,0,-0.671082,318.6, -4.4, -5.1,0,0,1024,1024,1024,1024,317.9,-89.9,98,3.926,3.962,3.966,3.947,3.984,4.023,19.871,82.4,14,Waypoint,
35.7347597,-118.6147768,5015.1122087119,130.577432,0,0.33016405256,18700,2018-07-05 21:50:00,16,0,23.731,5015.1122087119,130.577432,0.447388,1.1797572556,0,0,-0.671082,318.5, -4.3, -5.2,0,0,1024,1024,1024,1024,317.9,-89.9,98,3.926,3.962,3.966,3.947,3.984,4.023,19.871,82.4,14,Waypoint,
35.7347597,-118.6147768,5016.4245447119,131.889768,0,0.33016405256,18800,2018-07-05 21:50:00,16,0,23.731,5016.4245447119,131.889768,0.447388,1.1797572556,0,0,-0.671082,318.5, -4.5, -5,0,0,1024,1024,1024,1024,317.9,-89.9,98,3.926,3.962,3.966,3.947,3.984,4.023,19.871,82.4,14,Waypoint,
35.7347598,-118.6147769,5018.3930487119,133.858272,0,0.288141741504,19000,2018-07-05 21:50:00,16,0,23.731,5018.3930487119,133.858272,0.447388,1.1797572556,0,0,-0.671082,318.4, -4.2, -4.7,0,0,1024,1024,1024,1024,317.9,-89.9,98,3.932,3.959,3.965,3.95,3.961,3.997,19.871,82.4,14,Waypoint,
35.7347598,-118.6147769,5019.3773007119,134.842524,0,0.288141741504,19100,2018-07-05 21:50:00,16,0,23.731,5019.3773007119,134.842524,0.447388,1.1797572556,0,0,-0.671082,318.3, -4.2, -4.7,0,0,1024,1024,1024,1024,317.9,-90,98,3.932,3.959,3.965,3.95,3.961,3.997,19.871,82.4,14,Waypoint,
35.7347598,-118.6147769,5020.3615527119,135.826776,0,0.288141741504,19200,2018-07-05 21:50:00,16,0,23.731,5020.3615527119,135.826776,0.447388,1.1797572556,0,0,-0.671082,318.1, -4.6, -4.5,0,0,1024,1024,1024,1024,317.9,-90,98,3.932,3.959,3.965,3.95,3.961,3.997,19.871,82.4,14,Waypoint,
35.7347598,-118.6147769,5021.3458047119,136.811028,0,0.288141741504,19300,2018-07-05 21:50:00,16,0,23.731,5021.3458047119,136.811028,0.447388,1.1797572556,0,0,-0.671082,318, -5, -4.1,0,0,1024,1024,1024,1024,317.9,-90,98,3.932,3.959,3.965,3.95,3.961,3.997,19.871,82.4,14,Waypoint,
35.7347598,-118.6147769,5022.3300567119,137.79528,0,0.288141741504,19400,2018-07-05 21:50:00,17,0,23.731,5022.3300567119,137.79528,0.447388,1.1797572556,0,0,-0.671082,317.9, -5.3, -4.2,0,0,1024,1024,1024,1024,317.9,-90,98,3.932,3.959,3.965,3.95,3.961,3.997,19.871,82.4,14,Waypoint,
35.7347598,-118.6147769,5023.3143087119,138.779532,0,0.288141741504,19500,2018-07-05 21:50:01,17,0,23.731,5023.3143087119,138.779532,0.447388,1.1797572556,0,0,-0.671082,317.9, -5.6, -4.6,0,0,1024,1024,1024,1024,317.9,-90,98,3.932,3.959,3.965,3.95,3.961,3.997,19.871,82.4,14,Waypoint,
35.7347598,-118.6147769,5024.2985607119,139.763784,0,0.288141741504,19600,2018-07-05 21:50:01,17,0,23.731,5024.2985607119,139.763784,0.447388,1.1797572556,0,0,-0.671082,317.9, -5.6, -5.1,0,0,1024,1024,1024,1024,317.9,-90,98,3.932,3.959,3.965,3.95,3.961,3.997,19.871,82.4,14,Waypoint,
35.7347598,-118.6147768,5025.2828127119,140.748036,0,0.315737870996,19700,2018-07-05 21:50:01,17,0,23.731,5025.2828127119,140.748036,0.447388,1.1797572556,0,0,-0.671082,318, -5.5, -5.4,0,0,1024,1024,1024,1024,317.9,-89.9,98,3.932,3.959,3.965,3.95,3.961,3.997,19.871,82.4,14,Waypoint,
35.7347599,-118.6147768,5026.2670647119,141.732288,0,0.305016085876,19800,2018-07-05 21:50:01,16,0,23.731,5026.2670647119,141.732288,0.447388,1.1797572556,0,0,-0.671082,318, -5.2, -5.4,0,0,1024,1024,1024,1024,317.9,-89.9,98,3.932,3.959,3.965,3.95,3.961,3.997,19.871,82.4,14,Waypoint,
35.7347599,-118.6147768,5028.2355687119,143.700792,0,0.305016085876,20000,2018-07-05 21:50:01,17,0,23.833,5028.2355687119,143.700792,0.447388,1.1797572556,0,0,-0.671082,318.2, -5.2, -4.3,0,0,1024,1024,1024,1024,317.9,-89.9,97,3.939,3.982,3.988,3.968,3.963,3.993,18.171,82.4,14,Waypoint,
35.7347599,-118.6147769,5030.5321567119,145.99738,0,0.276350730628,20200,2018-07-05 21:50:01,17,0,23.833,5030.5321567119,145.99738,0.447388,1.1797572556,0,0,-0.671082,318, -5.1, -4.6,0,0,1024,1024,1024,1024,317.9,-89.9,97,3.939,3.982,3.988,3.968,3.963,3.993,18.171,82.4,14,Waypoint,
35.7347599,-118.6147769,5030.5321567119,145.99738,0,0.276350730628,20300,2018-07-05 21:50:01,17,0,23.833,5030.5321567119,145.99738,0.447388,1.1797572556,0,0,-0.671082,318, -5.1, -4.6,0,0,1024,1024,1024,1024,317.9,-89.9,97,3.939,3.982,3.988,3.968,3.963,3.993,18.171,82.4,14,Waypoint,
35.7347599,-118.614777,5031.5164087119,146.981632,0,0.247909456752,20400,2018-07-05 21:50:01,17,0,23.833,5031.5164087119,146.981632,0.447388,1.1797572556,0,0,-0.671082,318.2, -5, -4.5,0,0,1024,1024,1024,1024,317.9,-89.9,97,3.939,3.982,3.988,3.968,3.963,3.993,18.171,82.4,14,Waypoint,
35.73476,-118.6147771,5033.4849127119,148.950136,0,0.210497382064,20500,2018-07-05 21:50:02,16,0,23.833,5033.4849127119,148.950136,0.447388,1.1797572556,0,0,-0.671082,318.4, -4.1, -5,0,0,1024,1024,1024,1024,317.9,-89.9,97,3.939,3.982,3.988,3.968,3.963,3.993,18.171,82.4,14,Waypoint,
35.7347601,-118.6147772,5034.7972487119,150.262472,0,0.177695543744,20700,2018-07-05 21:50:02,16,0,23.833,5034.7972487119,150.262472,0.447388,1.1797572556,0,0,-0.671082,318.4, -3.7, -5.6,0,0,1024,1024,1024,1024,317.9,-89.9,97,3.939,3.982,3.988,3.968,3.963,3.993,18.171,82.4,14,Waypoint,
35.7347602,-118.6147773,5036.7657527119,152.230976,0,0.152507878896,20800,2018-07-05 21:50:02,16,0,23.833,5036.7657527119,152.230976,0.447388,1.1797572556,0,0,-0.671082,318.4, -3.6, -5.6,0,0,1024,1024,1024,1024,317.9,-89.9,97,3.939,3.982,3.988,3.968,3.963,3.993,18.171,82.4,14,Waypoint,
35.7347601,-118.6147773,5038.7342567119,154.19948,0,0.148079401064,21000,2018-07-05 21:50:02,16,0,23.833,5038.7342567119,154.19948,0.447388,1.1797572556,0,0,-0.671082,318.4, -4.5, -5,0,0,1024,1024,1024,1024,317.9,-89.9,97,3.939,3.982,3.988,3.968,3.963,3.993,18.171,82.4,14,Waypoint,
35.7347601,-118.6147773,5039.7185087119,155.183732,0,0.148079401064,21100,2018-07-05 21:50:02,16,0,23.833,5039.7185087119,155.183732,0.447388,1.1797572556,0,0,-0.671082,318.5, -5, -5,0,0,1024,1024,1024,1024,317.9,-90,97,3.939,3.982,3.988,3.968,3.963,3.993,18.171,82.4,14,Waypoint,
35.7347601,-118.6147773,5040.3746767119,155.8399,0,0.148079401064,21200,2018-07-05 21:50:02,16,0,23.833,5040.3746767119,155.8399,0.447388,1.1797572556,0,0,-0.671082,318.4, -4.9, -4.8,0,0,1024,1024,1024,1024,317.9,-90,97,3.939,3.982,3.988,3.968,3.963,3.993,18.171,82.4,14,Waypoint,
35.73476,-118.6147773,5041.3589287119,156.824152,0,0.152507878896,21300,2018-07-05 21:50:02,16,0,23.833,5041.3589287119,156.824152,0.447388,1.1797572556,0,0,-0.671082,318.4, -5, -5.3,0,0,1024,1024,1024,1024,317.9,-89.9,97,3.939,3.982,3.988,3.968,3.963,3.993,18.171,82.4,14,Waypoint,
35.73476,-118.6147773,5042.3431807119,157.808404,0,0.152507878896,21400,2018-07-05 21:50:02,16,0,23.833,5042.3431807119,157.808404,0.447388,1.1797572556,0,0,-0.671082,318.3, -4.8, -5.6,0,0,1024,1024,1024,1024,317.9,-89.9,97,3.939,3.982,3.988,3.968,3.963,3.993,18.171,82.4,14,Waypoint,
35.7347601,-118.6147773,5043.3274327119,158.792656,0,0.148079401064,21500,2018-07-05 21:50:03,16,0,23.833,5043.3274327119,158.792656,0.447388,1.1797572556,0,0,-0.671082,318.3, -4.7, -5.6,0,0,1024,1024,1024,1024,317.9,-89.9,97,3.939,3.982,3.988,3.968,3.963,3.993,18.171,82.4,14,Waypoint,
35.7347601,-118.6147773,5044.3116847119,159.776908,0,0.148079401064,21600,2018-07-05 21:50:03,16,0,23.833,5044.3116847119,159.776908,0.447388,1.1797572556,0,0,-0.671082,318.4, -4.5, -5.3,0,0,1024,1024,1024,1024,317.9,-89.9,97,3.939,3.982,3.988,3.968,3.963,3.993,18.171,82.4,14,Waypoint,
35.7347601,-118.6147774,5045.2959367119,160.76116,0,0.118463586468,21700,2018-07-05 21:50:03,16,0,23.833,5045.2959367119,160.76116,0.447388,1.1797572556,0,0,-0.671082,318.5, -4.4, -5.6,0,0,1024,1024,1024,1024,317.9,-89.9,97,3.939,3.982,3.988,3.968,3.963,3.993,18.171,82.4,14,Waypoint,
35.73476,-118.6147774,5045.9521047119,161.417328,0,0.123954728376,21800,2018-07-05 21:50:03,16,0,23.833,5045.9521047119,161.417328,0.447388,1.1797572556,0,0,-0.671082,318.6, -4.3, -5.6,0,0,1024,1024,1024,1024,317.9,-89.9,97,3.939,3.982,3.988,3.968,3.963,3.993,18.171,82.4,14,Waypoint,
35.73476,-118.6147775,5046.9363567119,162.40158,0,0.096047247168,21900,2018-07-05 21:50:03,16,0,23.833,5046.9363567119,162.40158,0.447388,1.1797572556,0,0,-0.671082,318.7, -4.4, -5.4,0,0,1024,1024,1024,1024,317.9,-89.9,97,3.939,3.982,3.988,3.968,3.963,3.993,18.171,82.4,14,Waypoint,
35.7347599,-118.6147775,5047.9206087119,163.385832,0,0.114971788456,22000,2018-07-05 21:50:03,16,0,23.833,5047.9206087119,163.385832,0.447388,1.1797572556,0,0,-0.671082,318.8, -4.6, -5.2,0,0,1024,1024,1024,1024,317.9,-89.9,97,3.941,3.985,3.982,3.982,3.987,4.01,17.867,82.4,14,Waypoint,
35.7347598,-118.6147776,5048.9048607119,164.370084,0,0.12445374414,22100,2018-07-05 21:50:03,16,0,23.833,5048.9048607119,164.370084,0.447388,1.1797572556,0,0,-0.671082,318.8, -4.9, -4.5,0,0,1024,1024,1024,1024,317.9,-89.9,97,3.941,3.985,3.982,3.982,3.987,4.01,17.867,82.4,14,Waypoint,
35.7347597,-118.6147776,5049.8891127119,165.354336,0,0.15750164546,22200,2018-07-05 21:50:03,16,0,23.833,5049.8891127119,165.354336,0.447388,1.1797572556,0,0,-0.671082,318.7, -5.1, -4.4,0,0,1024,1024,1024,1024,317.9,-90,97,3.941,3.985,3.982,3.982,3.987,4.01,17.867,82.4,14,Waypoint,
35.7347596,-118.6147777,5050.8733647119,166.338588,0,0.18481299804,22300,2018-07-05 21:50:03,16,0,23.833,5050.8733647119,166.338588,0.447388,1.1797572556,0,0,-0.671082,318.4, -5.1, -4.4,0,0,1024,1024,1024,1024,317.9,-89.9,97,3.941,3.985,3.982,3.982,3.987,4.01,17.867,82.4,14,Waypoint,
35.7347594,-118.6147777,5052.8418687119,168.307092,0.223694,0.257105979356,22500,2018-07-05 21:50:04,16,0,23.833,5052.8418687119,168.307092,0.447388,1.1797572556,0,0,-0.671082,317.8, -5.5, -4.7,0,0,1024,1024,1024,1024,317.9,-90,97,3.941,3.985,3.982,3.982,3.987,4.01,17.867,82.4,14,Waypoint,
35.7347593,-118.6147777,5053.8261207119,169.291344,0.223694,0.293378290228,22600,2018-07-05 21:50:04,16,0,23.833,5053.8261207119,169.291344,0.447388,1.1797572556,0,0,-0.671082,317.6, -5.9, -4.6,0,0,1024,1024,1024,1024,317.9,-90,97,3.941,3.985,3.982,3.982,3.987,4.01,17.867,82.4,14,Waypoint,
35.7347592,-118.6147778,5054.8103727119,170.275596,0.223694,0.3283628714,22700,2018-07-05 21:50:04,16,0,23.833,5054.8103727119,170.275596,0.447388,1.1797572556,0,0,-0.671082,317.4, -6.2, -4.2,0,0,1024,1024,1024,1024,317.9,-90,97,3.941,3.985,3.982,3.982,3.987,4.01,17.867,82.4,14,Waypoint,
35.734759,-118.6147779,5055.7946247119,171.259848,0.223694,0.40242455356,22800,2018-07-05 21:50:04,16,0,23.833,5055.7946247119,171.259848,0.447388,1.1797572556,0,0,-0.671082,317.3, -6.6, -3.3,0,0,1024,1024,1024,1024,317.9,-90,97,3.941,3.985,3.982,3.982,3.987,4.01,17.867,82.4,14,Waypoint,
35.7347589,-118.614778,5056.7788767119,172.2441,0.223694,0.44180775692,22900,2018-07-05 21:50:04,16,0,23.833,5056.7788767119,172.2441,0.447388,1.1797572556,0,0,-0.671082,317.4, -7.1, -2.4,0,0,1024,1024,1024,1024,317.9,-90,97,3.941,3.985,3.982,3.982,3.987,4.01,17.867,82.4,14,Waypoint,
35.7347588,-118.6147781,5057.7631287119,173.228352,0.223694,0.48255250888,23000,2018-07-05 21:50:04,16,0,23.898,5057.7631287119,173.228352,0.447388,1.1797572556,0,0,-0.671082,317.5, -7, -1.9,0,0,1024,1024,1024,1024,317.9,-89.9,97,3.964,4,4.006,3.976,3.987,4.004,16.944,82.4,14,Waypoint,
35.7347587,-118.6147782,5058.7473807119,174.212604,0,0.52434712964,23110,2018-07-05 21:50:04,16,0,23.898,5058.7473807119,174.212604,0.447388,1.1797572556,0,0,-0.671082,317.7, -6.6, -2.3,0,0,1024,1024,1024,1024,317.9,-89.9,97,3.964,4,4.006,3.976,3.987,4.004,16.944,82.4,14,Waypoint,
35.7347587,-118.6147782,5058.7473807119,174.212604,0,0.52434712964,23200,2018-07-05 21:50:04,16,0,23.898,5058.7473807119,174.212604,0.447388,1.1797572556,0,0,-0.671082,317.7, -6.6, -2.3,0,0,1024,1024,1024,1024,317.9,-89.9,97,3.964,4,4.006,3.976,3.987,4.004,16.944,82.4,14,Waypoint,
35.7347587,-118.6147782,5059.7316327119,175.196856,0,0.52434712964,23300,2018-07-05 21:50:04,16,0,23.898,5059.7316327119,175.196856,0.447388,1.1797572556,0,0,-0.671082,317.9, -5.9, -3.2,0,0,1024,1024,1024,1024,317.9,-89.9,97,3.964,4,4.006,3.976,3.987,4.004,16.944,82.4,14,Waypoint,
35.7347587,-118.6147782,5060.7158847119,176.181108,0,0.52434712964,23400,2018-07-05 21:50:04,16,0,23.898,5060.7158847119,176.181108,0.447388,1.1797572556,0,0,-0.671082,318, -6.1, -3.8,0,0,1024,1024,1024,1024,317.9,-89.9,97,3.964,4,4.006,3.976,3.987,4.004,16.944,82.4,14,Waypoint,
35.7347587,-118.6147781,5061.7001367119,177.16536,0,0.51845802184,23500,2018-07-05 21:50:05,16,0,23.898,5061.7001367119,177.16536,0.447388,1.1797572556,0,0,-0.671082,318.2, -6, -4,0,0,1024,1024,1024,1024,317.9,-89.9,97,3.964,4,4.006,3.976,3.987,4.004,16.944,82.4,14,Waypoint,
35.7347588,-118.614778,5063.6686407119,179.133864,0,0.47798886044,23600,2018-07-05 21:50:05,16,0,23.898,5063.6686407119,179.133864,0.447388,1.1797572556,0,0,-0.671082,318.5, -6, -4.6,0,0,1024,1024,1024,1024,317.9,-90,97,3.964,4,4.006,3.976,3.987,4.004,16.944,82.4,14,Waypoint,
35.7347589,-118.6147779,5064.6528927119,180.118116,0,0.43881891168,23700,2018-07-05 21:50:05,16,0,23.898,5064.6528927119,180.118116,0.447388,1.1797572556,0,0,-0.671082,318.6, -6, -4.9,0,0,1024,1024,1024,1024,317.9,-89.9,97,3.964,4,4.006,3.976,3.987,4.004,16.944,82.4,14,Waypoint,
35.734759,-118.6147778,5065.6371447119,181.102368,0,0.40133531468,23800,2018-07-05 21:50:05,16,0,23.898,5065.6371447119,181.102368,0.447388,1.1797572556,0,0,-0.671082,318.6, -5.9, -5.2,0,0,1024,1024,1024,1024,317.9,-89.9,97,3.964,4,4.006,3.976,3.987,4.004,16.944,82.4,14,Waypoint,
35.734759,-118.6147777,5066.6213967119,182.08662,0,0.40242455356,23900,2018-07-05 21:50:05,16,0,23.898,5066.6213967119,182.08662,0.447388,1.1797572556,0,0,-0.671082,318.6, -5.7, -5.5,0,0,1024,1024,1024,1024,317.9,-89.9,97,3.964,4,4.006,3.976,3.987,4.004,16.944,82.4,14,Waypoint,
35.7347591,-118.6147777,5067.6056487119,183.070872,0,0.36604988048,24000,2018-07-05 21:50:05,16,0,23.898,5067.6056487119,183.070872,0.447388,1.1797572556,0,0,-0.671082,318.5, -5.6, -5.8,0,0,1024,1024,1024,1024,317.9,-89.9,97,3.962,3.993,3.991,3.981,3.98,4.006,16.944,82.4,14,Waypoint,
35.7347591,-118.6147776,5068.5899007119,184.055124,0,0.36962599608,24100,2018-07-05 21:50:05,16,0,23.898,5068.5899007119,184.055124,0.447388,1.1797572556,0,0,-0.671082,318.4, -5.9, -5.8,0,0,1024,1024,1024,1024,317.9,-90,97,3.962,3.993,3.991,3.981,3.98,4.006,16.944,82.4,14,Waypoint,
35.7347591,-118.6147776,5069.2460687119,184.711292,0,0.36962599608,24200,2018-07-05 21:50:05,16,0,23.898,5069.2460687119,184.711292,0.447388,1.1797572556,0,0,-0.671082,318.4, -6.2, -5.6,0,0,1024,1024,1024,1024,317.9,-90,97,3.962,3.993,3.991,3.981,3.98,4.006,16.944,82.4,14,Waypoint,
35.7347591,-118.6147776,5070.2303207119,185.695544,0,0.36962599608,24300,2018-07-05 21:50:05,16,0,23.898,5070.2303207119,185.695544,0.447388,1.1797572556,0,0,-0.671082,318.4, -6.5, -5.3,0,0,1024,1024,1024,1024,317.9,-90,97,3.962,3.993,3.991,3.981,3.98,4.006,16.944,82.4,14,Waypoint,
35.7347591,-118.6147776,5071.2145727119,186.679796,0,0.36962599608,24400,2018-07-05 21:50:05,16,0,23.898,5071.2145727119,186.679796,0.447388,1.1797572556,0,0,-0.671082,318.5, -6.7, -4.9,0,0,1024,1024,1024,1024,317.9,-89.9,97,3.962,3.993,3.991,3.981,3.98,4.006,16.944,82.4,14,Waypoint,
35.7347591,-118.6147776,5072.1988247119,187.664048,0,0.36962599608,24500,2018-07-05 21:50:06,16,0,23.898,5072.1988247119,187.664048,0.447388,1.1797572556,0,0,-0.671082,318.5, -6.7, -4.7,0,0,1024,1024,1024,1024,317.9,-90,97,3.962,3.993,3.991,3.981,3.98,4.006,16.944,82.4,14,Waypoint,
35.7347591,-118.6147776,5072.8549927119,188.320216,0,0.36962599608,24600,2018-07-05 21:50:06,16,0,23.898,5072.8549927119,188.320216,0.447388,1.1797572556,0,0,-0.671082,318.7, -6.7, -4.5,0,0,1024,1024,1024,1024,317.9,-90,97,3.962,3.993,3.991,3.981,3.98,4.006,16.944,82.4,14,Waypoint,
35.7347591,-118.6147776,5073.8392447119,189.304468,0,0.36962599608,24700,2018-07-05 21:50:06,16,0,23.898,5073.8392447119,189.304468,0.447388,1.1797572556,0,0,-0.671082,318.8, -6.6, -4.5,0,0,1024,1024,1024,1024,317.9,-90,97,3.962,3.993,3.991,3.981,3.98,4.006,16.944,82.4,14,Waypoint,
35.7347591,-118.6147776,5074.8234967119,190.28872,0,0.36962599608,24800,2018-07-05 21:50:06,16,0,23.898,5074.8234967119,190.28872,0.447388,1.1797572556,0,0,-0.671082,318.9, -6.4, -4.7,0,0,1024,1024,1024,1024,317.9,-89.9,97,3.962,3.993,3.991,3.981,3.98,4.006,16.944,82.4,14,Waypoint,
35.7347591,-118.6147776,5075.8077487119,191.272972,0,0.36962599608,24900,2018-07-05 21:50:06,16,0,23.898,5075.8077487119,191.272972,0.447388,1.1797572556,0,0,-0.671082,319, -6.5, -4.6,0,0,1024,1024,1024,1024,317.9,-89.9,97,3.962,3.993,3.991,3.981,3.98,4.006,16.944,82.4,14,Waypoint,
35.7347591,-118.6147777,5076.7920007119,192.257224,0,0.36604988048,25000,2018-07-05 21:50:06,16,0,24.033,5076.7920007119,192.257224,0.447388,1.1797572556,0,0,-0.671082,319, -6.3, -4.7,0,0,1024,1024,1024,1024,317.9,-89.9,97,3.985,4.019,4.015,4.002,4.013,4.033,15.104,82.4,14,Waypoint,
35.7347591,-118.6147777,5077.4481687119,192.913392,0,0.36604988048,25100,2018-07-05 21:50:06,16,0,24.033,5077.4481687119,192.913392,0.447388,1.1797572556,0,0,-0.671082,318.8, -6.2, -4.7,0,0,1024,1024,1024,1024,317.9,-89.9,97,3.985,4.019,4.015,4.002,4.013,4.033,15.104,82.4,14,Waypoint,
35.7347591,-118.6147777,5078.4324207119,193.897644,0,0.36604988048,25200,2018-07-05 21:50:06,16,0,24.033,5078.4324207119,193.897644,0.447388,1.1797572556,0,0,-0.671082,318.6, -6.1, -4.9,0,0,1024,1024,1024,1024,317.9,-89.9,97,3.985,4.019,4.015,4.002,4.013,4.033,15.104,82.4,14,Waypoint,
35.7347591,-118.6147778,5080.4009247119,195.866148,0,0.36484909304,25400,2018-07-05 21:50:06,16,0,24.033,5080.4009247119,195.866148,0.447388,1.1797572556,0,0,-0.671082,318.2, -6.2, -4.4,0,0,1024,1024,1024,1024,317.9,-89.9,97,3.985,4.019,4.015,4.002,4.013,4.033,15.104,82.4,14,Waypoint,
35.734759,-118.6147778,5081.3851767119,196.8504,0.223694,0.40133531468,25500,2018-07-05 21:50:07,16,0,24.033,5081.3851767119,196.8504,0.447388,1.1797572556,0,0,-0.671082,318.2, -6.4, -3.8,0,0,1024,1024,1024,1024,317.9,-90,97,3.985,4.019,4.015,4.002,4.013,4.033,15.104,82.4,14,Waypoint,
