Latitude, Longitude, Altitude (m), Time, Sats, Speed (m/s), Range (m), Battery (%), Roll (deg), Pitch (deg), Yaw (deg), Images, HD Signal (%), RC Signal (%), Battery Temp (C), Battery Voltage (mV), Battery Current (mA), Battery Energy (mAh), Battery Capacity (mAh), Battery Discharges, flyState, timestamp (Unix), LastUpdate (ms), radioChannel, Rc_elevator, Rc_aileron, Rc_throttle, Rc_rudder, Rc_gyro, Dronetype, Battery_Cell1 (mV), Battery_Cell2 (mV), Battery_Cell3 (mV), Battery_Cell4 (mV), Battery_Cell5 (mV), Battery_Cell6 (mV), Video, isFlying, elapsedTime (ms), gimbalPitch (deg), gimbalRoll (deg), gimbalYaw (deg), VelocityX (m/s), VelocityY (m/s), VelocityZ (m/s), GroundSmear (cm), App Version, Aircraft Name, Aircraft Firmware, Aircraft Serial Number, Battery Serial Number, Battery Lifetime (%), App_Tip, App_Warning, CurrentFlightStartingIndex, CurrentFlightLastVisitedWaypoint, PreviousFlightEndingWaypointIndex
35.7347953, -118.6147660, 0.000, 15:28:34.020, 14, 0.10, 0.14, 100, 0.000, 0.200, -45.500, 1226, 100, 100, 27, 25619, -2882, 5377, 5377, 17, 11, 1530829714.021, 3, 0, 1024, 1024, 1024, 1024, 0, 6, 4295, 4318, 4242, 4240, 4286, 4320, 0, 1, 3102, -89.900, 0.000, -47.300, 0.000, -0.100, -0.200, 0.0, MapPilot_2.8.1_04242018, Dendroctonus I, 1.3.1.00, 041DDC1887, 1058163200468, 96, DJI_0232.jpg, Starting Mission from Lat/Long: 35.73479/-118.61476 Camera: Zenmuse X3 - Overlap: 90/90 - Active Connection: No, 49, 49, 49
35.7347954, -118.6147663, 0.000, 15:28:34.120, 14, 0.10, 0.16, 100, 0.400, 1.000, -45.500, 1226, 100, 100, 27, 25619, -2882, 5377, 5377, 17, 11, 1530829714.121, 5, 0, 1024, 1024, 1024, 1024, 0, 6, 4295, 4318, 4242, 4240, 4286, 4320, 0, 1, 3201, -89.900, 0.000, -47.300, 0.000, -0.100, -0.300, 0.0, , , , , , 96, , , 49, 49, 49
35.7347954, -118.6147663, 0.000, 15:28:34.219, 14, 0.10, 0.16, 100, 0.400, 1.000, -45.500, 1226, 100, 100, 27, 25619, -2882, 5377, 5377, 17, 11, 1530829714.219, 103, 0, 1024, 1024, 1024, 1024, 0, 6, 4295, 4318, 4242, 4240, 4286, 4320, 0, 1, 3300, -89.900, 0.000, -47.300, 0.000, -0.100, -0.300, 0.0, , , , , , 96, , , 49, 49, 49
35.7347954, -118.6147665, 0.000, 15:28:34.320, 14, 0.10, 0.18, 100, 0.600, 1.500, -45.500, 1226, 100, 100, 27, 25619, -2882, 5377, 5377, 17, 11, 1530829714.320, 94, 0, 1024, 1024, 1024, 1024, 0, 6, 4295, 4318, 4242, 4240, 4286, 4320, 0, 1, 3401, -89.900, 0.000, -47.300, 0.000, -0.100, -0.300, 0.0, , , , , , 96, , , 49, 49, 49
35.7347954, -118.6147667, 0.100, 15:28:34.420, 14, 0.10, 0.20, 100, 0.700, 1.400, -45.600, 1226, 100, 100, 27, 25619, -2882, 5377, 5377, 17, 11, 1530829714.420, 94, 0, 1024, 1024, 1024, 1024, 0, 6, 4295, 4318, 4242, 4240, 4286, 4320, 0, 1, 3501, -90.000, 0.000, -47.200, 0.000, -0.100, -0.300, 0.0, , , , , , 96, , , 49, 49, 49
35.7347955, -118.6147668, 0.100, 15:28:34.520, 14, 0.10, 0.21, 100, 0.700, 1.000, -45.700, 1226, 100, 100, 27, 25697, -13663, 5377, 5377, 17, 11, 1530829714.521, 94, 0, 1024, 1024, 1024, 1024, 0, 6, 4148, 4148, 4250, 4256, 4257, 4244, 0, 1, 3601, -89.900, 0.000, -47.200, 0.000, -0.100, -0.300, 0.0, , , , , , 96, , , 49, 49, 49
35.7347955, -118.6147670, 0.100, 15:28:34.620, 14, 0.00, 0.22, 100, 0.500, 0.800, -45.900, 1226, 100, 100, 27, 25697, -13663, 5377, 5377, 17, 11, 1530829714.620, 76, 0, 1024, 1024, 1024, 1024, 0, 6, 4148, 4148, 4250, 4256, 4257, 4244, 0, 1, 3701, -89.900, 0.000, -47.200, 0.000, 0.000, -0.300, 0.0, , , , , , 96, , , 49, 49, 49
35.7347956, -118.6147671, 0.200, 15:28:34.720, 15, 0.00, 0.24, 100, 0.500, 0.800, -46.000, 1226, 100, 100, 27, 25697, -13663, 5377, 5377, 17, 11, 1530829714.720, 68, 0, 1024, 1024, 1024, 1024, 0, 6, 4148, 4148, 4250, 4256, 4257, 4244, 0, 1, 3801, -90.000, 0.000, -47.200, 0.000, 0.000, -0.300, 0.0, , , , , , 96, , , 49, 49, 49
35.7347956, -118.6147673, 0.200, 15:28:34.820, 15, 0.00, 0.26, 100, 0.500, 0.800, -46.000, 1226, 100, 100, 27, 25697, -13663, 5377, 5377, 17, 11, 1530829714.821, 84, 0, 1024, 1024, 1024, 1024, 0, 6, 4148, 4148, 4250, 4256, 4257, 4244, 0, 1, 3901, -89.900, 0.000, -47.100, 0.000, 0.000, -0.300, 0.0, , , , , , 96, , , 49, 49, 49
35.7347956, -118.6147674, 0.200, 15:28:34.920, 15, 0.00, 0.26, 100, 0.300, 0.900, -45.900, 1226, 100, 100, 27, 25697, -13663, 5377, 5377, 17, 11, 1530829714.921, 76, 0, 1024, 1024, 1024, 1024, 0, 6, 4148, 4148, 4250, 4256, 4257, 4244, 0, 1, 4001, -89.900, 0.000, -47.100, 0.000, 0.000, -0.300, 0.0, , , , , , 96, , , 49, 49, 49
35.7347956, -118.6147674, 0.300, 15:28:35.020, 15, 0.00, 0.26, 100, 0.200, 0.800, -45.800, 1226, 100, 100, 27, 25697, -13663, 5377, 5377, 17, 11, 1530829715.021, 79, 0, 1024, 1024, 1024, 1024, 0, 6, 4148, 4148, 4250, 4256, 4257, 4244, 0, 1, 4101, -90.000, 0.000, -47.100, 0.000, 0.000, -0.400, 0.0, , , , , , 96, , , 49, 49, 49
35.7347956, -118.6147674, 0.300, 15:28:35.120, 15, 0.00, 0.27, 100, 0.000, 0.500, -45.600, 1226, 100, 100, 27, 25697, -13663, 5377, 5377, 17, 11, 1530829715.120, 70, 0, 1024, 1024, 1024, 1024, 0, 6, 4148, 4148, 4250, 4256, 4257, 4244, 0, 1, 4201, -90.000, 0.000, -47.100, 0.000, 0.000, -0.400, 0.0, , , , , , 96, , , 49, 49, 49
35.7347956, -118.6147675, 0.400, 15:28:35.220, 15, 0.00, 0.27, 100, 0.000, 0.200, -45.400, 1226, 100, 100, 27, 25697, -13663, 5377, 5377, 17, 11, 1530829715.220, 68, 0, 1024, 1024, 1024, 1024, 0, 6, 4148, 4148, 4250, 4256, 4257, 4244, 0, 1, 4301, -90.000, 0.000, -47.000, 0.000, 0.000, -0.400, 0.0, , , , , , 96, , , 49, 49, 49
35.7347956, -118.6147676, 0.400, 15:28:35.320, 15, 0.00, 0.28, 100, 0.100, 0.200, -45.200, 1226, 100, 100, 27, 25697, -13663, 5377, 5377, 17, 11, 1530829715.320, 73, 0, 1024, 1024, 1024, 1024, 0, 6, 4148, 4148, 4250, 4256, 4257, 4244, 0, 1, 4401, -90.000, 0.000, -47.000, 0.000, 0.000, -0.400, 0.0, , , , , , 96, , , 49, 49, 49
35.7347955, -118.6147676, 0.500, 15:28:35.420, 15, 0.00, 0.28, 100, 0.400, 0.100, -45.100, 1226, 100, 100, 27, 25697, -13663, 5377, 5377, 17, 11, 1530829715.420, 42, 0, 1024, 1024, 1024, 1024, 0, 6, 4148, 4148, 4250, 4256, 4257, 4244, 0, 1, 4501, -90.000, 0.000, -47.000, 0.000, 0.000, -0.400, 0.0, , , , , , 96, , , 49, 49, 49
35.7347954, -118.6147677, 0.500, 15:28:35.520, 15, 0.00, 0.28, 100, 0.700, 0.000, -45.000, 1226, 100, 100, 27, 24441, -16169, 5377, 5377, 17, 11, 1530829715.520, 45, 0, 1024, 1024, 1024, 1024, 0, 6, 4076, 4068, 4069, 4062, 4112, 4116, 0, 1, 4601, -90.000, 0.000, -47.000, 0.000, 0.000, -0.400, 0.0, , , , , , 96, , , 49, 49, 49
35.7347954, -118.6147677, 0.600, 15:28:35.620, 15, 0.00, 0.29, 100, 1.000, -0.100, -45.100, 1226, 100, 100, 27, 24441, -16169, 5377, 5377, 17, 11, 1530829715.620, 52, 0, 1024, 1024, 1024, 1024, 0, 6, 4076, 4068, 4069, 4062, 4112, 4116, 0, 1, 4701, -90.000, 0.000, -47.000, 0.000, 0.000, -0.500, 0.0, , , , , , 96, , , 49, 49, 49
35.7347953, -118.6147677, 0.600, 15:28:35.720, 15, 0.00, 0.29, 100, 1.200, -0.100, -45.100, 1226, 100, 100, 27, 24441, -16169, 5377, 5377, 17, 11, 1530829715.720, 43, 0, 1024, 1024, 1024, 1024, 0, 6, 4076, 4068, 4069, 4062, 4112, 4116, 0, 1, 4801, -89.900, 0.000, -46.900, 0.000, 0.000, -0.500, 0.0, , , , , , 96, , , 49, 49, 49
35.7347953, -118.6147677, 0.700, 15:28:35.820, 15, 0.00, 0.29, 100, 1.200, -0.100, -45.300, 1226, 100, 100, 27, 24441, -16169, 5377, 5377, 17, 11, 1530829715.820, 39, 0, 1024, 1024, 1024, 1024, 0, 6, 4076, 4068, 4069, 4062, 4112, 4116, 0, 1, 4901, -89.900, 0.000, -46.900, 0.000, 0.000, -0.500, 0.0, , , , , , 96, , , 49, 49, 49
35.7347952, -118.6147677, 0.700, 15:28:35.920, 15, 0.00, 0.28, 100, 1.100, -0.100, -45.400, 1226, 100, 100, 27, 24441, -16169, 5377, 5377, 17, 11, 1530829715.920, 33, 0, 1024, 1024, 1024, 1024, 0, 6, 4076, 4068, 4069, 4062, 4112, 4116, 0, 1, 5000, -89.900, 0.000, -46.900, 0.000, 0.000, -0.400, 0.0, , , , , , 96, , , 49, 49, 49
35.7347952, -118.6147676, 0.800, 15:28:36.020, 15, 0.00, 0.28, 100, 1.000, -0.100, -45.300, 1226, 100, 100, 27, 24441, -16169, 5377, 5377, 17, 11, 1530829716.020, 27, 0, 1024, 1024, 1024, 1024, 0, 6, 4076, 4068, 4069, 4062, 4112, 4116, 0, 1, 5100, -90.000, 0.000, -46.900, 0.000, 0.000, -0.500, 0.0, , , , , , 96, , , 49, 49, 49
35.7347951, -118.6147676, 0.900, 15:28:36.120, 15, 0.00, 0.27, 100, 0.900, -0.300, -45.200, 1226, 100, 100, 27, 24441, -16169, 5377, 5377, 17, 11, 1530829716.120, 34, 0, 1024, 1024, 1024, 1024, 0, 6, 4076, 4068, 4069, 4062, 4112, 4116, 0, 1, 5201, -90.000, 0.000, -46.800, 0.000, 0.000, -0.500, 0.0, , , , , , 96, , , 49, 49, 49
35.7347951, -118.6147675, 0.900, 15:28:36.220, 15, 0.00, 0.26, 100, 1.000, -0.500, -45.200, 1226, 100, 100, 27, 24441, -16169, 5377, 5377, 17, 14, 1530829716.220, 18, 0, 1024, 1024, 1024, 1024, 0, 6, 4076, 4068, 4069, 4062, 4112, 4116, 0, 1, 5301, -90.000, 0.000, -46.800, 0.000, 0.000, -0.400, 0.0, , , , , , 96, , , 49, 49, 49
35.7347951, -118.6147675, 0.900, 15:28:36.320, 15, 0.00, 0.26, 100, 1.000, -0.500, -45.200, 1226, 100, 100, 27, 24441, -16169, 5377, 5377, 17, 14, 1530829716.320, 118, 0, 1024, 1024, 1024, 1024, 0, 6, 4076, 4068, 4069, 4062, 4112, 4116, 0, 1, 5401, -90.000, 0.000, -46.800, 0.000, 0.000, -0.400, 0.0, , , , , , 96, , , 49, 49, 49
35.7347950, -118.6147673, 0.900, 15:28:36.420, 15, 0.00, 0.25, 100, 0.900, -0.700, -45.200, 1226, 100, 100, 27, 24441, -16169, 5377, 5377, 17, 14, 1530829716.420, 73, 0, 1024, 1024, 1024, 1024, 0, 6, 4076, 4068, 4069, 4062, 4112, 4116, 0, 1, 5501, -90.000, 0.000, -46.800, 0.000, 0.000, -0.300, 0.0, , , , , , 96, , , 49, 49, 49
35.7347950, -118.6147673, 1.000, 15:28:36.520, 15, 0.00, 0.24, 100, 0.400, -0.900, -45.200, 1226, 100, 100, 27, 24441, -16169, 5377, 5377, 17, 14, 1530829716.520, 86, 0, 1024, 1024, 1024, 1024, 0, 6, 4076, 4068, 4069, 4062, 4112, 4116, 0, 1, 5600, -90.000, 0.000, -46.800, 0.000, 0.000, -0.200, 0.0, , , , , , 96, , , 49, 49, 49
35.7347951, -118.6147672, 1.000, 15:28:36.619, 15, 0.00, 0.24, 100, -0.100, -1.000, -45.300, 1226, 100, 100, 27, 24359, -16550, 5377, 5377, 17, 14, 1530829716.619, 94, 0, 1024, 1024, 1024, 1024, 0, 6, 4057, 4045, 4060, 4050, 4053, 4072, 0, 1, 5700, -90.000, 0.000, -46.800, 0.000, 0.000, -0.200, 0.0, , , , , , 96, , , 49, 49, 49
35.7347950, -118.6147671, 1.000, 15:28:36.720, 15, 0.00, 0.22, 100, -0.400, -1.000, -45.500, 1226, 100, 100, 27, 24359, -16550, 5377, 5377, 17, 14, 1530829716.720, 97, 0, 1024, 1024, 1024, 1024, 0, 6, 4057, 4045, 4060, 4050, 4053, 4072, 0, 1, 5801, -90.000, 0.000, -46.700, 0.000, 0.000, -0.200, 0.0, , , , , , 96, , , 49, 49, 49
35.7347950, -118.6147670, 1.000, 15:28:36.820, 15, 0.00, 0.21, 100, -0.400, -1.200, -45.700, 1226, 100, 100, 27, 24359, -16550, 5377, 5377, 17, 14, 1530829716.820, 79, 0, 1024, 1024, 1024, 1024, 0, 6, 4057, 4045, 4060, 4050, 4053, 4072, 0, 1, 5901, -90.000, 0.000, -46.700, 0.000, 0.000, -0.400, 0.0, , , , , , 96, , , 49, 49, 49
35.7347950, -118.6147669, 1.100, 15:28:36.920, 15, 0.00, 0.20, 100, -0.300, -1.300, -45.900, 1226, 100, 100, 27, 24359, -16550, 5377, 5377, 17, 14, 1530829716.920, 88, 0, 1024, 1024, 1024, 1024, 0, 6, 4057, 4045, 4060, 4050, 4053, 4072, 0, 1, 6001, -90.000, 0.000, -46.700, 0.000, 0.000, -0.500, 0.0, , , , , , 96, , , 49, 49, 49
35.7347950, -118.6147668, 1.100, 15:28:37.020, 15, 0.00, 0.20, 100, -0.200, -1.300, -46.100, 1226, 100, 100, 27, 24359, -16550, 5377, 5377, 17, 14, 1530829717.020, 92, 0, 1024, 1024, 1024, 1024, 0, 6, 4057, 4045, 4060, 4050, 4053, 4072, 0, 1, 6101, -90.000, 0.000, -46.700, 0.000, 0.000, -0.800, 0.0, , , , , , 96, , , 49, 49, 49
35.7347949, -118.6147667, 1.200, 15:28:37.120, 15, 0.00, 0.19, 100, -0.100, -1.300, -46.300, 1226, 100, 100, 27, 24359, -16550, 5377, 5377, 17, 14, 1530829717.120, 75, 0, 1024, 1024, 1024, 1024, 0, 6, 4057, 4045, 4060, 4050, 4053, 4072, 0, 1, 6201, -90.000, 0.000, -46.700, 0.000, 0.000, -1.000, 0.0, , , , , , 96, , , 49, 49, 49
35.7347949, -118.6147667, 1.300, 15:28:37.220, 15, 0.00, 0.19, 100, 0.000, -1.000, -46.400, 1226, 100, 100, 27, 24359, -16550, 5377, 5377, 17, 14, 1530829717.220, 51, 0, 1024, 1024, 1024, 1024, 0, 6, 4057, 4045, 4060, 4050, 4053, 4072, 0, 1, 6300, -89.900, 0.000, -46.700, 0.000, 0.000, -1.200, 0.0, , , , , , 96, , , 49, 49, 49
35.7347948, -118.6147667, 1.500, 15:28:37.320, 15, 0.00, 0.19, 100, -0.200, -0.700, -46.600, 1226, 100, 100, 27, 24359, -16550, 5377, 5377, 17, 14, 1530829717.320, 54, 0, 1024, 1024, 1024, 1024, 0, 6, 4057, 4045, 4060, 4050, 4053, 4072, 0, 1, 6400, -89.900, 0.000, -46.700, 0.000, 0.000, -1.300, 0.0, , , , , , 96, , , 49, 49, 49
35.7347947, -118.6147667, 1.600, 15:28:37.420, 15, 0.00, 0.19, 100, -0.300, -0.300, -46.700, 1226, 100, 100, 27, 24359, -16550, 5377, 5377, 17, 14, 1530829717.420, 59, 0, 1024, 1024, 1024, 1024, 0, 6, 4057, 4045, 4060, 4050, 4053, 4072, 0, 1, 6500, -89.900, 0.000, -46.700, 0.000, 0.000, -1.600, 0.0, , , , , , 96, , , 49, 49, 49
35.7347947, -118.6147666, 1.800, 15:28:37.520, 15, 0.00, 0.18, 100, -0.100, -0.300, -46.800, 1226, 100, 100, 27, 24116, -19118, 5377, 5377, 17, 14, 1530829717.520, 64, 0, 1024, 1024, 1024, 1024, 0, 6, 4057, 4045, 4060, 4050, 4053, 4072, 0, 1, 6600, -89.900, 0.000, -46.700, 0.000, 0.000, -1.800, 0.0, , , , , , 96, , , 49, 49, 49
35.7347946, -118.6147665, 2.000, 15:28:37.620, 15, 0.00, 0.17, 100, 0.100, -0.800, -46.800, 1226, 100, 100, 27, 24116, -19118, 5377, 5377, 17, 14, 1530829717.620, 56, 0, 1024, 1024, 1024, 1024, 0, 6, 4057, 4045, 4060, 4050, 4053, 4072, 0, 1, 6701, -90.000, 0.000, -46.700, 0.000, 0.000, -2.100, 0.0, , , , , , 96, , , 49, 49, 49
35.7347946, -118.6147665, 2.200, 15:28:37.720, 15, 0.00, 0.17, 100, 0.500, -1.300, -46.700, 1226, 100, 100, 27, 24116, -19118, 5377, 5377, 17, 14, 1530829717.720, 58, 0, 1024, 1024, 1024, 1024, 0, 6, 4057, 4045, 4060, 4050, 4053, 4072, 0, 1, 6801, -90.000, 0.000, -46.700, 0.000, 0.000, -2.300, 0.0, , , , , , 96, , , 49, 49, 49
35.7347945, -118.6147664, 2.500, 15:28:37.820, 15, 0.00, 0.17, 100, 0.700, -1.800, -46.600, 1226, 100, 100, 27, 24116, -19118, 5377, 5377, 17, 14, 1530829717.820, 45, 0, 1024, 1024, 1024, 1024, 0, 6, 4057, 4045, 4060, 4050, 4053, 4072, 0, 1, 6901, -90.000, 0.000, -46.700, 0.000, 0.000, -2.600, 0.0, , , , , , 96, , , 49, 49, 49
35.7347944, -118.6147663, 2.800, 15:28:37.920, 15, 0.00, 0.17, 100, 0.800, -1.800, -46.600, 1226, 100, 100, 27, 24116, -19118, 5377, 5377, 17, 14, 1530829717.920, 44, 0, 1024, 1024, 1024, 1024, 0, 6, 4057, 4045, 4060, 4050, 4053, 4072, 0, 1, 7001, -90.000, 0.000, -46.700, 0.000, 0.000, -2.800, 0.0, , , , , , 96, , , 49, 49, 49
35.7347943, -118.6147663, 3.100, 15:28:38.020, 15, 0.00, 0.16, 100, 0.900, -1.900, -46.500, 1226, 100, 100, 27, 24116, -19118, 5377, 5377, 17, 14, 1530829718.020, 31, 0, 1024, 1024, 1024, 1024, 0, 6, 4030, 3976, 3989, 3982, 3988, 4013, 0, 1, 7101, -90.000, 0.000, -46.700, 0.000, 0.000, -3.000, 0.0, , , , , , 96, , , 49, 49, 49
35.7347943, -118.6147662, 3.400, 15:28:38.120, 15, 0.00, 0.17, 100, 0.900, -2.000, -46.500, 1226, 100, 100, 27, 24116, -19118, 5377, 5377, 17, 14, 1530829718.120, 34, 0, 1024, 1024, 1024, 1024, 0, 6, 4030, 3976, 3989, 3982, 3988, 4013, 0, 1, 7200, -90.000, 0.000, -46.700, 0.000, 0.000, -3.100, 0.0, , , , , , 96, , , 49, 49, 49
35.7347941, -118.6147661, 4.100, 15:28:38.221, 15, 0.00, 0.16, 100, 1.100, -1.900, -46.300, 1226, 100, 100, 27, 24116, -19118, 5377, 5377, 17, 14, 1530829718.221, 1, 0, 1024, 1024, 1024, 1024, 0, 6, 4030, 3976, 3989, 3982, 3988, 4013, 0, 1, 7302, -89.900, 0.000, -46.700, 0.000, 0.000, -3.200, 0.0, , , , , , 96, , , 49, 49, 49
35.7347941, -118.6147659, 4.400, 15:28:38.320, 15, 0.00, 0.15, 100, 1.100, -1.900, -46.100, 1226, 100, 100, 27, 24116, -19118, 5377, 5377, 17, 14, 1530829718.320, 27, 0, 1024, 1024, 1024, 1024, 0, 6, 4030, 3976, 3989, 3982, 3988, 4013, 0, 1, 7400, -90.000, 0.000, -46.700, 0.000, 0.000, -3.300, 0.0, , , , , , 96, , , 49, 49, 49
35.7347941, -118.6147658, 4.700, 15:28:38.420, 15, 0.00, 0.15, 100, 0.800, -1.900, -45.800, 1226, 100, 100, 27, 24116, -19118, 5377, 5377, 17, 14, 1530829718.420, 6, 0, 1024, 1024, 1024, 1024, 0, 6, 4030, 3976, 3989, 3982, 3988, 4013, 0, 1, 7500, -90.000, 0.000, -46.700, 0.000, 0.000, -3.300, 0.0, , , , , , 96, , , 49, 49, 49
35.7347941, -118.6147657, 5.100, 15:28:38.520, 15, 0.00, 0.14, 100, 0.300, -2.100, -45.600, 1226, 100, 100, 28, 24116, -19118, 5377, 5377, 17, 14, 1530829718.520, 19, 0, 1024, 1024, 1024, 1024, 0, 6, 4030, 3976, 3989, 3982, 3988, 4013, 0, 1, 7600, -90.000, 0.000, -46.700, 0.000, 0.000, -3.300, 0.0, , , , , , 96, , , 49, 49, 49
35.7347941, -118.6147657, 5.400, 15:28:38.620, 15, 0.00, 0.13, 100, 0.000, -2.200, -45.600, 1226, 100, 100, 28, 24116, -19118, 5377, 5377, 17, 14, 1530829718.620, 21, 0, 1024, 1024, 1024, 1024, 0, 6, 4030, 3976, 3989, 3982, 3988, 4013, 0, 1, 7701, -90.000, 0.000, -46.700, 0.000, 0.000, -3.300, 0.0, , , , , , 96, , , 49, 49, 49
35.7347941, -118.6147657, 5.400, 15:28:38.720, 15, 0.00, 0.13, 100, 0.000, -2.200, -45.600, 1226, 100, 100, 28, 24116, -19118, 5377, 5377, 17, 14, 1530829718.720, 121, 0, 1024, 1024, 1024, 1024, 0, 6, 4030, 3976, 3989, 3982, 3988, 4013, 0, 1, 7801, -90.000, 0.000, -46.700, 0.000, 0.000, -3.300, 0.0, , , , , , 96, , , 49, 49, 49
35.7347941, -118.6147656, 5.800, 15:28:38.820, 15, 0.00, 0.13, 100, -0.400, -2.500, -45.700, 1226, 100, 100, 28, 24116, -19118, 5377, 5377, 17, 14, 1530829718.820, 74, 0, 1024, 1024, 1024, 1024, 0, 6, 4030, 3976, 3989, 3982, 3988, 4013, 0, 1, 7900, -90.000, 0.000, -46.700, 0.000, 0.000, -3.200, 0.0, , , , , , 96, , , 49, 49, 49
35.7347942, -118.6147655, 6.100, 15:28:38.920, 15, 0.00, 0.12, 100, -0.700, -2.300, -45.800, 1226, 100, 100, 28, 24116, -19118, 5377, 5377, 17, 14, 1530829718.920, 89, 0, 1024, 1024, 1024, 1024, 0, 6, 4030, 3976, 3989, 3982, 3988, 4013, 0, 1, 8000, -89.900, 0.000, -46.700, 0.000, 0.000, -3.300, 0.0, , , , , , 96, , , 49, 49, 49
35.7347942, -118.6147654, 6.500, 15:28:39.020, 15, 0.00, 0.11, 100, -0.800, -2.000, -46.000, 1226, 100, 100, 28, 24116, -19118, 5377, 5377, 17, 14, 1530829719.020, 89, 0, 1024, 1024, 1024, 1024, 0, 6, 4030, 3976, 3989, 3982, 3988, 4013, 0, 1, 8101, -89.900, 0.000, -46.700, 0.000, 0.000, -3.200, 0.0, , , , , , 96, , , 49, 49, 49
35.7347942, -118.6147653, 6.800, 15:28:39.120, 15, 0.00, 0.10, 98, -0.900, -1.700, -46.100, 1226, 100, 100, 28, 23644, -23975, 5269, 5377, 17, 14, 1530829719.120, 88, 0, 1024, 1024, 1024, 1024, 0, 6, 3931, 3941, 3958, 3950, 3955, 3966, 0, 1, 8201, -89.900, 0.000, -46.700, 0.000, 0.000, -3.200, 0.0, , , , , , 96, , , 49, 49, 49
35.7347943, -118.6147653, 7.100, 15:28:39.220, 15, 0.00, 0.10, 98, -1.200, -1.500, -46.200, 1226, 100, 100, 28, 23644, -23975, 5269, 5377, 17, 14, 1530829719.220, 78, 0, 1024, 1024, 1024, 1024, 0, 6, 3931, 3941, 3958, 3950, 3955, 3966, 0, 1, 8301, -90.000, 0.000, -46.700, 0.000, 0.000, -3.200, 0.0, , , , , , 96, , , 49, 49, 49
35.7347943, -118.6147652, 7.500, 15:28:39.320, 14, 0.00, 0.10, 98, -1.200, -2.000, -46.200, 1226, 100, 100, 28, 23644, -23975, 5269, 5377, 17, 14, 1530829719.320, 79, 0, 1024, 1024, 1024, 1024, 0, 6, 3931, 3941, 3958, 3950, 3955, 3966, 0, 1, 8401, -89.900, 0.000, -46.700, 0.000, 0.000, -3.200, 0.0, , , , , , 96, , , 49, 49, 49
35.7347943, -118.6147652, 7.800, 15:28:39.420, 14, 0.00, 0.09, 98, -1.100, -2.300, -46.200, 1226, 100, 100, 28, 23644, -23975, 5269, 5377, 17, 14, 1530829719.420, 81, 0, 1024, 1024, 1024, 1024, 0, 6, 3931, 3941, 3958, 3950, 3955, 3966, 0, 1, 8501, -89.900, 0.000, -46.700, 0.000, 0.000, -3.200, 0.0, , , , , , 96, , , 49, 49, 49
35.7347943, -118.6147652, 8.100, 15:28:39.520, 15, 0.00, 0.09, 98, -1.300, -2.700, -46.200, 1226, 100, 100, 28, 23644, -23975, 5269, 5377, 17, 14, 1530829719.520, 56, 0, 1024, 1024, 1024, 1024, 0, 6, 3931, 3941, 3958, 3950, 3955, 3966, 0, 1, 8601, -89.900, 0.000, -46.700, 0.000, 0.000, -3.100, 0.0, , , , , , 96, , , 49, 49, 49
35.7347943, -118.6147652, 8.500, 15:28:39.620, 15, 0.00, 0.09, 98, -1.300, -2.800, -46.200, 1226, 100, 100, 28, 23644, -23975, 5269, 5377, 17, 14, 1530829719.621, 62, 0, 1024, 1024, 1024, 1024, 0, 6, 3931, 3941, 3958, 3950, 3955, 3966, 0, 1, 8701, -90.000, 0.000, -46.700, 0.000, 0.000, -3.100, 0.0, , , , , , 96, , , 49, 49, 49
35.7347943, -118.6147652, 8.800, 15:28:39.720, 15, 0.00, 0.09, 98, -0.900, -3.000, -46.100, 1226, 100, 100, 28, 23644, -23975, 5269, 5377, 17, 14, 1530829719.720, 73, 0, 1024, 1024, 1024, 1024, 0, 6, 3931, 3941, 3958, 3950, 3955, 3966, 0, 1, 8801, -90.000, 0.000, -46.700, 0.000, 0.000, -3.000, 0.0, , , , , , 96, , , 49, 49, 49
35.7347943, -118.6147651, 9.100, 15:28:39.820, 15, 0.00, 0.09, 98, -0.800, -3.000, -46.100, 1226, 100, 100, 28, 23644, -23975, 5269, 5377, 17, 14, 1530829719.820, 46, 0, 1024, 1024, 1024, 1024, 0, 6, 3931, 3941, 3958, 3950, 3955, 3966, 0, 1, 8901, -90.000, 0.000, -46.700, 0.000, 0.000, -3.000, 0.0, , , , , , 96, , , 49, 49, 49
35.7347943, -118.6147652, 9.400, 15:28:39.920, 15, 0.00, 0.09, 98, -0.700, -3.000, -46.200, 1226, 100, 100, 28, 23644, -23975, 5269, 5377, 17, 14, 1530829719.920, 54, 0, 1024, 1024, 1024, 1024, 0, 6, 3931, 3941, 3958, 3950, 3955, 3966, 0, 1, 9001, -90.000, 0.000, -46.700, 0.000, 0.000, -3.000, 0.0, , , , , , 96, , , 49, 49, 49
35.7347943, -118.6147652, 9.800, 15:28:40.020, 15, 0.00, 0.09, 98, -0.700, -2.800, -46.200, 1226, 100, 100, 28, 24003, -18338, 5269, 5377, 17, 14, 1530829720.020, 54, 0, 1024, 1024, 1024, 1024, 0, 6, 4002, 4006, 3993, 4011, 4006, 4027, 0, 1, 9101, -89.900, 0.000, -46.700, 0.000, 0.000, -3.000, 0.0, , , , , , 96, , , 49, 49, 49
35.7347943, -118.6147652, 10.100, 15:28:40.119, 15, 0.00, 0.09, 98, -0.800, -2.600, -46.100, 1226, 100, 100, 28, 24003, -18338, 5269, 5377, 17, 14, 1530829720.119, 51, 0, 1024, 1024, 1024, 1024, 0, 6, 4002, 4006, 3993, 4011, 4006, 4027, 0, 1, 9200, -89.900, 0.000, -46.700, 0.000, 0.000, -3.100, 0.0, , , , , , 96, , , 49, 49, 49
35.7347943, -118.6147653, 10.400, 15:28:40.220, 15, 0.00, 0.09, 98, -1.000, -2.700, -45.900, 1226, 100, 100, 28, 24003, -18338, 5269, 5377, 17, 14, 1530829720.220, 41, 0, 1024, 1024, 1024, 1024, 0, 6, 4002, 4006, 3993, 4011, 4006, 4027, 0, 1, 9301, -89.900, 0.000, -46.700, 0.000, 0.000, -3.100, 0.0, , , , , , 96, , , 49, 49, 49
35.7347944, -118.6147653, 10.800, 15:28:40.320, 15, 0.00, 0.09, 98, -1.500, -2.500, -45.900, 1226, 100, 100, 28, 24003, -18338, 5269, 5377, 17, 14, 1530829720.320, 32, 0, 1024, 1024, 1024, 1024, 0, 6, 4002, 4006, 3993, 4011, 4006, 4027, 0, 1, 9401, -89.900, 0.000, -46.700, 0.000, 0.000, -3.100, 0.0, , , , , , 96, , , 49, 49, 49
35.7347945, -118.6147652, 11.100, 15:28:40.419, 15, 0.10, 0.07, 98, -2.100, -2.200, -46.100, 1226, 100, 100, 28, 24003, -18338, 5269, 5377, 17, 14, 1530829720.419, 11, 0, 1024, 1024, 1024, 1024, 0, 6, 4002, 4006, 3993, 4011, 4006, 4027, 0, 1, 9500, -89.900, 0.000, -46.700, 0.100, 0.000, -3.000, 0.0, , , , , , 96, , , 49, 49, 49
35.7347947, -118.6147652, 11.400, 15:28:40.520, 15, 0.10, 0.06, 98, -2.700, -1.900, -46.200, 1226, 100, 100, 28, 24003, -18338, 5269, 5377, 17, 14, 1530829720.520, 26, 0, 1024, 1024, 1024, 1024, 0, 6, 4002, 4006, 3993, 4011, 4006, 4027, 0, 1, 9601, -89.900, 0.000, -46.700, 0.100, 0.000, -2.900, 0.0, , , , , , 96, , , 49, 49, 49
35.7347948, -118.6147651, 11.700, 15:28:40.620, 15, 0.10, 0.05, 98, -3.000, -1.900, -46.300, 1226, 100, 100, 28, 24003, -18338, 5269, 5377, 17, 14, 1530829720.620, 39, 0, 1024, 1024, 1024, 1024, 0, 6, 4002, 4006, 3993, 4011, 4006, 4027, 0, 1, 9701, -89.900, 0.000, -46.700, 0.100, 0.000, -2.900, 0.0, , , , , , 96, , , 49, 49, 49
35.7347949, -118.6147651, 12.000, 15:28:40.720, 15, 0.10, 0.05, 98, -3.300, -1.600, -46.300, 1226, 100, 100, 28, 24003, -18338, 5269, 5377, 17, 14, 1530829720.720, 44, 0, 1024, 1024, 1024, 1024, 0, 6, 4002, 4006, 3993, 4011, 4006, 4027, 0, 1, 9801, -89.900, 0.000, -46.700, 0.100, 0.000, -2.900, 0.0, , , , , , 96, , , 49, 49, 49
35.7347951, -118.6147651, 12.300, 15:28:40.820, 15, 0.10, 0.05, 98, -3.300, -1.300, -46.400, 1226, 100, 100, 28, 24003, -18338, 5269, 5377, 17, 14, 1530829720.820, 10, 0, 1024, 1024, 1024, 1024, 0, 6, 4002, 4006, 3993, 4011, 4006, 4027, 0, 1, 9901, -89.900, 0.000, -46.700, 0.100, 0.000, -2.900, 0.0, , , , , , 96, , , 49, 49, 49
35.7347952, -118.6147651, 12.600, 15:28:40.919, 15, 0.00, 0.05, 98, -3.200, -1.200, -46.500, 1226, 100, 100, 28, 24003, -18338, 5269, 5377, 17, 14, 1530829720.920, 12, 0, 1024, 1024, 1024, 1024, 0, 6, 4002, 4006, 3993, 4011, 4006, 4027, 0, 1, 10001, -89.900, 0.000, -46.700, 0.000, 0.000, -2.900, 0.0, , , , , , 96, , , 49, 49, 49
35.7347954, -118.6147652, 13.200, 15:28:41.019, 15, 0.00, 0.07, 98, -2.700, -1.000, -46.300, 1226, 100, 100, 28, 24054, -17809, 5269, 5377, 17, 14, 1530829721.020, 25, 0, 1024, 1024, 1024, 1024, 0, 6, 4002, 3997, 4008, 4005, 4003, 4030, 0, 1, 10101, -89.900, 0.000, -46.700, 0.000, 0.000, -2.800, 0.0, , , , , , 96, , , 49, 49, 49
35.7347955, -118.6147653, 13.500, 15:28:41.120, 15, 0.00, 0.08, 98, -2.500, -0.800, -46.200, 1226, 100, 99, 28, 24054, -17809, 5269, 5377, 17, 14, 1530829721.120, 30, 0, 1024, 1024, 1024, 1024, 0, 6, 4002, 3997, 4008, 4005, 4003, 4030, 0, 1, 10201, -89.900, 0.000, -46.700, 0.000, 0.000, -2.700, 0.0, , , , , , 96, , , 49, 49, 49
35.7347956, -118.6147653, 13.800, 15:28:41.219, 15, 0.00, 0.10, 98, -2.500, -0.800, -46.300, 1226, 100, 99, 28, 24054, -17809, 5269, 5377, 17, 14, 1530829721.220, 24, 0, 1024, 1024, 1024, 1024, 0, 6, 4002, 3997, 4008, 4005, 4003, 4030, 0, 1, 10300, -89.900, 0.000, -46.700, 0.000, 0.000, -2.700, 0.0, , , , , , 96, , , 49, 49, 49
35.7347958, -118.6147653, 14.000, 15:28:41.319, 15, 0.00, 0.11, 98, -2.500, -0.300, -46.500, 1226, 100, 99, 28, 24054, -17809, 5269, 5377, 17, 14, 1530829721.320, 11, 0, 1024, 1024, 1024, 1024, 0, 6, 4002, 3997, 4008, 4005, 4003, 4030, 0, 1, 10400, -89.900, 0.000, -46.700, 0.000, 0.000, -2.700, 0.0, , , , , , 96, , , 49, 49, 49
35.7347958, -118.6147653, 14.000, 15:28:41.419, 15, 0.00, 0.11, 98, -2.500, -0.300, -46.500, 1226, 100, 99, 28, 24054, -17809, 5269, 5377, 17, 14, 1530829721.420, 111, 0, 1024, 1024, 1024, 1024, 0, 6, 4002, 3997, 4008, 4005, 4003, 4030, 0, 1, 10500, -89.900, 0.000, -46.700, 0.000, 0.000, -2.700, 0.0, , , , , , 96, , , 49, 49, 49
35.7347958, -118.6147653, 14.000, 15:28:41.519, 15, 0.00, 0.11, 98, -2.500, -0.300, -46.500, 1226, 100, 99, 28, 24054, -17809, 5269, 5377, 17, 14, 1530829721.520, 212, 0, 1024, 1024, 1024, 1024, 0, 6, 4002, 3997, 4008, 4005, 4003, 4030, 0, 1, 10601, -89.900, 0.000, -46.700, 0.000, 0.000, -2.700, 0.0, , , , , , 96, , , 49, 49, 49
35.7347959, -118.6147654, 14.600, 15:28:41.619, 15, 0.00, 0.13, 98, -2.500, 0.000, -46.600, 1226, 100, 99, 28, 24054, -17809, 5269, 5377, 17, 14, 1530829721.620, 95, 0, 1024, 1024, 1024, 1024, 0, 6, 4002, 3997, 4008, 4005, 4003, 4030, 0, 1, 10701, -89.900, 0.000, -46.700, 0.000, 0.000, -2.800, 0.0, , , , , , 96, , , 49, 49, 49
35.7347961, -118.6147654, 14.800, 15:28:41.719, 15, 0.00, 0.14, 98, -2.300, 0.200, -46.800, 1226, 100, 99, 28, 24054, -17809, 5269, 5377, 17, 14, 1530829721.719, 94, 0, 1024, 1024, 1024, 1024, 0, 6, 4002, 3997, 4008, 4005, 4003, 4030, 0, 1, 10799, -89.900, 0.000, -46.700, 0.000, 0.000, -2.800, 0.0, , , , , , 96, , , 49, 49, 49
35.7347962, -118.6147656, 15.400, 15:28:41.819, 15, 0.00, 0.17, 98, -2.400, 0.100, -46.700, 1226, 100, 99, 28, 24054, -17809, 5269, 5377, 17, 14, 1530829721.820, 4, 0, 1024, 1024, 1024, 1024, 0, 6, 4002, 3997, 4008, 4005, 4003, 4030, 0, 1, 10900, -89.900, 0.000, -46.700, 0.000, 0.000, -2.900, 0.0, , , , , , 96, , , 49, 49, 49
35.7347962, -118.6147656, 15.400, 15:28:41.919, 15, 0.00, 0.17, 98, -2.400, 0.100, -46.700, 1226, 100, 99, 28, 24054, -17809, 5269, 5377, 17, 14, 1530829721.920, 104, 0, 1024, 1024, 1024, 1024, 0, 6, 4002, 3997, 4008, 4005, 4003, 4030, 0, 1, 11000, -89.900, 0.000, -46.700, 0.000, 0.000, -2.900, 0.0, , , , , , 96, , , 49, 49, 49
35.7347963, -118.6147656, 15.700, 15:28:42.020, 15, 0.00, 0.18, 98, -2.500, -0.300, -46.600, 1226, 100, 99, 28, 24054, -17809, 5269, 5377, 17, 14, 1530829722.020, 84, 0, 1024, 1024, 1024, 1024, 0, 6, 4002, 3997, 4008, 4005, 4003, 4030, 0, 1, 11101, -89.900, 0.000, -46.700, 0.000, 0.000, -2.900, 0.0, , , , , , 96, , , 49, 49, 49
35.7347963, -118.6147656, 16.000, 15:28:42.119, 15, 0.00, 0.18, 98, -2.700, -0.700, -46.600, 1226, 100, 99, 28, 24089, -17385, 5269, 5377, 17, 14, 1530829722.120, 75, 0, 1024, 1024, 1024, 1024, 0, 6, 4004, 3994, 3994, 4011, 3996, 4024, 0, 1, 11201, -89.900, 0.000, -46.700, 0.000, 0.000, -2.900, 0.0, , , , , , 96, , , 49, 49, 49
35.7347963, -118.6147656, 16.000, 15:28:42.219, 15, 0.00, 0.18, 98, -2.700, -0.700, -46.600, 1226, 100, 99, 28, 24089, -17385, 5269, 5377, 17, 14, 1530829722.220, 174, 0, 1024, 1024, 1024, 1024, 0, 6, 4004, 3994, 3994, 4011, 3996, 4024, 0, 1, 11300, -89.900, 0.000, -46.700, 0.000, 0.000, -2.900, 0.0, , , , , , 96, , , 49, 49, 49
35.7347964, -118.6147657, 16.600, 15:28:42.319, 15, 0.00, 0.19, 98, -2.700, -0.400, -46.600, 1226, 100, 99, 28, 24089, -17385, 5269, 5377, 17, 14, 1530829722.320, 79, 0, 1024, 1024, 1024, 1024, 0, 6, 4004, 3994, 3994, 4011, 3996, 4024, 0, 1, 11400, -89.900, 0.000, -46.700, 0.000, 0.000, -2.900, 0.0, , , , , , 96, , , 49, 49, 49
35.7347965, -118.6147657, 16.900, 15:28:42.419, 15, 0.00, 0.20, 98, -2.600, -0.400, -46.500, 1226, 100, 99, 28, 24089, -17385, 5269, 5377, 17, 14, 1530829722.420, 46, 0, 1024, 1024, 1024, 1024, 0, 6, 4004, 3994, 3994, 4011, 3996, 4024, 0, 1, 11501, -89.900, 0.000, -46.700, 0.000, 0.000, -2.900, 0.0, , , , , , 96, , , 49, 49, 49
35.7347965, -118.6147657, 17.200, 15:28:42.519, 15, 0.00, 0.20, 98, -2.500, -0.300, -46.500, 1226, 100, 99, 28, 24089, -17385, 5269, 5377, 17, 14, 1530829722.520, 50, 0, 1024, 1024, 1024, 1024, 0, 6, 4004, 3994, 3994, 4011, 3996, 4024, 0, 1, 11601, -89.900, 0.000, -46.700, 0.000, 0.000, -2.900, 0.0, , , , , , 96, , , 49, 49, 49
35.7347965, -118.6147658, 17.500, 15:28:42.619, 15, 0.00, 0.20, 98, -2.400, -0.400, -46.400, 1226, 100, 99, 28, 24089, -17385, 5269, 5377, 17, 14, 1530829722.620, 68, 0, 1024, 1024, 1024, 1024, 0, 6, 4004, 3994, 3994, 4011, 3996, 4024, 0, 1, 11700, -89.900, 0.000, -46.700, 0.000, 0.000, -2.900, 0.0, , , , , , 96, , , 49, 49, 49
35.7347965, -118.6147658, 17.800, 15:28:42.719, 15, 0.00, 0.20, 98, -2.400, -0.600, -46.400, 1226, 100, 99, 28, 24089, -17385, 5269, 5377, 17, 14, 1530829722.720, 39, 0, 1024, 1024, 1024, 1024, 0, 6, 4004, 3994, 3994, 4011, 3996, 4024, 0, 1, 11801, -89.900, 0.000, -46.700, 0.000, 0.000, -3.000, 0.0, , , , , , 96, , , 49, 49, 49
35.7347965, -118.6147658, 18.100, 15:28:42.819, 15, 0.00, 0.20, 98, -2.400, -0.800, -46.300, 1226, 100, 99, 28, 24089, -17385, 5269, 5377, 17, 14, 1530829722.819, 25, 0, 1024, 1024, 1024, 1024, 0, 6, 4004, 3994, 3994, 4011, 3996, 4024, 0, 1, 11900, -89.900, 0.000, -46.700, 0.000, 0.000, -3.000, 0.0, , , , , , 96, , , 49, 49, 49
35.7347964, -118.6147658, 18.400, 15:28:42.919, 15, 0.00, 0.20, 98, -2.200, -0.900, -46.200, 1226, 100, 99, 28, 24089, -17385, 5269, 5377, 17, 14, 1530829722.920, 52, 0, 1024, 1024, 1024, 1024, 0, 6, 4004, 3994, 3994, 4011, 3996, 4024, 0, 1, 12001, -89.900, 0.000, -46.700, 0.000, 0.000, -3.000, 0.0, , , , , , 96, , , 49, 49, 49
35.7347964, -118.6147658, 18.700, 15:28:43.019, 15, 0.00, 0.19, 98, -2.200, -0.800, -46.100, 1226, 100, 99, 28, 23821, -20508, 5269, 5377, 17, 14, 1530829723.020, 31, 0, 1024, 1024, 1024, 1024, 0, 6, 4004, 3994, 3994, 4011, 3996, 4024, 0, 1, 12101, -89.900, 0.000, -46.700, 0.000, 0.000, -3.000, 0.0, , , , , , 96, , , 49, 49, 49
35.7347964, -118.6147658, 19.000, 15:28:43.119, 15, 0.00, 0.19, 98, -2.200, -1.100, -46.000, 1226, 100, 97, 28, 23821, -20508, 5269, 5377, 17, 14, 1530829723.120, 23, 0, 1024, 1024, 1024, 1024, 0, 6, 4004, 3994, 3994, 4011, 3996, 4024, 0, 1, 12201, -90.000, 0.000, -46.700, 0.000, 0.000, -3.000, 0.0, , , , , , 96, , , 49, 49, 49
35.7347963, -118.6147659, 19.300, 15:28:43.219, 15, 0.00, 0.19, 98, -2.400, -1.400, -46.000, 1226, 100, 97, 28, 23821, -20508, 5269, 5377, 17, 14, 1530829723.220, 25, 0, 1024, 1024, 1024, 1024, 0, 6, 4004, 3994, 3994, 4011, 3996, 4024, 0, 1, 12301, -90.000, 0.000, -46.700, 0.000, 0.000, -3.000, 0.0, , , , , , 96, , , 49, 49, 49
35.7347963, -118.6147659, 19.500, 15:28:43.319, 15, 0.00, 0.19, 98, -2.500, -1.300, -46.100, 1226, 100, 97, 28, 23821, -20508, 5269, 5377, 17, 14, 1530829723.320, 31, 0, 1024, 1024, 1024, 1024, 0, 6, 4004, 3994, 3994, 4011, 3996, 4024, 0, 1, 12400, -89.900, 0.000, -46.700, 0.000, 0.000, -3.000, 0.0, , , , , , 96, , , 49, 49, 49
35.7347963, -118.6147659, 19.500, 15:28:43.419, 15, 0.00, 0.19, 98, -2.500, -1.300, -46.100, 1226, 100, 97, 28, 23821, -20508, 5269, 5377, 17, 14, 1530829723.420, 131, 0, 1024, 1024, 1024, 1024, 0, 6, 4004, 3994, 3994, 4011, 3996, 4024, 0, 1, 12501, -89.900, 0.000, -46.700, 0.000, 0.000, -3.000, 0.0, , , , , , 96, , , 49, 49, 49
35.7347962, -118.6147660, 20.400, 15:28:43.519, 15, 0.00, 0.19, 98, -2.300, -0.400, -46.000, 1226, 100, 97, 28, 23821, -20508, 5269, 5377, 17, 14, 1530829723.520, 31, 0, 1024, 1024, 1024, 1024, 0, 6, 3967, 3966, 3958, 3973, 3970, 3984, 0, 1, 12600, -89.900, 0.000, -46.700, 0.000, 0.000, -3.000, 0.0, , , , , , 96, , , 49, 49, 49
35.7347962, -118.6147661, 20.800, 15:28:43.623, 15, 0.00, 0.19, 98, -2.400, -0.300, -46.000, 1226, 100, 98, 28, 23821, -20508, 5269, 5377, 17, 14, 1530829723.623, 2, 0, 1024, 1024, 1024, 1024, 0, 6, 3967, 3966, 3958, 3973, 3970, 3984, 0, 1, 12704, -89.900, 0.000, -46.700, 0.000, 0.000, -3.100, 0.0, , , , , , 96, , , 49, 49, 49
35.7347962, -118.6147661, 21.100, 15:28:43.719, 15, 0.00, 0.19, 98, -2.800, -0.500, -45.900, 1226, 100, 98, 28, 23821, -20508, 5269, 5377, 17, 14, 1530829723.720, 4, 0, 1024, 1024, 1024, 1024, 0, 6, 3967, 3966, 3958, 3973, 3970, 3984, 0, 1, 12801, -89.900, 0.000, -46.700, 0.000, 0.000, -3.100, 0.0, , , , , , 96, , , 49, 49, 49
35.7347962, -118.6147661, 21.400, 15:28:43.819, 15, 0.00, 0.19, 98, -2.800, -0.800, -45.900, 1226, 100, 98, 28, 23821, -20508, 5269, 5377, 17, 14, 1530829723.820, 9, 0, 1024, 1024, 1024, 1024, 0, 6, 3967, 3966, 3958, 3973, 3970, 3984, 0, 1, 12901, -90.000, 0.000, -46.700, 0.000, 0.000, -3.100, 0.0, , , , , , 96, , , 49, 49, 49
35.7347962, -118.6147661, 21.400, 15:28:43.919, 15, 0.00, 0.19, 98, -2.800, -0.800, -45.900, 1226, 100, 98, 28, 23821, -20508, 5269, 5377, 17, 14, 1530829723.920, 109, 0, 1024, 1024, 1024, 1024, 0, 6, 3967, 3966, 3958, 3973, 3970, 3984, 0, 1, 13000, -90.000, 0.000, -46.700, 0.000, 0.000, -3.100, 0.0, , , , , , 96, , , 49, 49, 49
35.7347961, -118.6147661, 22.000, 15:28:44.019, 15, 0.00, 0.18, 98, -3.100, -1.000, -46.100, 1226, 100, 97, 28, 23821, -20508, 5269, 5377, 17, 14, 1530829724.020, 4, 0, 1024, 1024, 1024, 1024, 0, 6, 3967, 3966, 3958, 3973, 3970, 3984, 0, 1, 13100, -89.900, 0.000, -46.700, 0.000, 0.000, -3.000, 0.0, , , , , , 96, , , 49, 49, 49
35.7347961, -118.6147661, 22.000, 15:28:44.119, 15, 0.00, 0.18, 98, -3.100, -1.000, -46.100, 1226, 100, 97, 28, 23821, -20508, 5269, 5377, 17, 14, 1530829724.119, 104, 0, 1024, 1024, 1024, 1024, 0, 6, 3967, 3966, 3958, 3973, 3970, 3984, 0, 1, 13200, -89.900, 0.000, -46.700, 0.000, 0.000, -3.000, 0.0, , , , , , 96, , , 49, 49, 49
35.7347961, -118.6147661, 22.300, 15:28:44.219, 15, 0.00, 0.18, 98, -3.000, -1.200, -46.300, 1226, 100, 97, 28, 23821, -20508, 5269, 5377, 17, 14, 1530829724.220, 86, 0, 1024, 1024, 1024, 1024, 0, 6, 3967, 3966, 3958, 3973, 3970, 3984, 0, 1, 13300, -90.000, 0.000, -46.700, 0.000, 0.000, -3.000, 0.0, , , , , , 96, , , 49, 49, 49
35.7347960, -118.6147661, 22.600, 15:28:44.319, 15, 0.00, 0.18, 98, -2.800, -1.600, -46.500, 1226, 100, 97, 28, 23821, -20508, 5269, 5377, 17, 14, 1530829724.320, 76, 0, 1024, 1024, 1024, 1024, 0, 6, 3967, 3966, 3958, 3973, 3970, 3984, 0, 1, 13401, -90.000, 0.000, -46.700, 0.000, 0.000, -3.100, 0.0, , , , , , 96, , , 49, 49, 49
35.7347959, -118.6147660, 22.900, 15:28:44.419, 15, 0.00, 0.17, 98, -2.900, -1.900, -46.500, 1226, 100, 97, 28, 23821, -20508, 5269, 5377, 17, 14, 1530829724.419, 94, 0, 1024, 1024, 1024, 1024, 0, 6, 3967, 3966, 3958, 3973, 3970, 3984, 0, 1, 13500, -90.000, 0.000, -46.700, 0.000, 0.000, -3.000, 0.0, , , , , , 96, , , 49, 49, 49
35.7347959, -118.6147660, 23.200, 15:28:44.519, 15, 0.00, 0.16, 98, -2.700, -2.300, -46.500, 1226, 100, 97, 28, 23753, -20265, 5269, 5377, 17, 14, 1530829724.519, 59, 0, 1024, 1024, 1024, 1024, 0, 6, 3948, 3960, 3952, 3956, 3959, 3981, 0, 1, 13600, -90.000, 0.000, -46.700, 0.000, 0.000, -3.000, 0.0, , , , , , 96, , , 49, 49, 49
35.7347958, -118.6147660, 23.500, 15:28:44.619, 15, 0.00, 0.16, 98, -2.700, -2.500, -46.500, 1226, 100, 96, 28, 23753, -20265, 5269, 5377, 17, 14, 1530829724.619, 72, 0, 1024, 1024, 1024, 1024, 0, 6, 3948, 3960, 3952, 3956, 3959, 3981, 0, 1, 13700, -90.000, 0.000, -46.700, 0.000, 0.000, -3.000, 0.0, , , , , , 96, , , 49, 49, 49
35.7347958, -118.6147660, 23.800, 15:28:44.719, 15, 0.00, 0.16, 98, -2.900, -2.300, -46.400, 1226, 100, 96, 28, 23753, -20265, 5269, 5377, 17, 14, 1530829724.719, 54, 0, 1024, 1024, 1024, 1024, 0, 6, 3948, 3960, 3952, 3956, 3959, 3981, 0, 1, 13800, -89.900, 0.000, -46.700, 0.000, 0.000, -3.000, 0.0, , , , , , 96, , , 49, 49, 49
35.7347958, -118.6147659, 24.100, 15:28:44.819, 15, 0.00, 0.15, 98, -3.100, -2.200, -46.300, 1226, 100, 96, 28, 23753, -20265, 5269, 5377, 17, 14, 1530829724.819, 67, 0, 1024, 1024, 1024, 1024, 0, 6, 3948, 3960, 3952, 3956, 3959, 3981, 0, 1, 13900, -89.900, 0.000, -46.700, 0.000, 0.000, -2.900, 0.0, , , , , , 96, , , 49, 49, 49
35.7347958, -118.6147658, 24.400, 15:28:44.919, 15, 0.00, 0.14, 98, -3.200, -2.100, -46.200, 1226, 100, 96, 28, 23753, -20265, 5269, 5377, 17, 14, 1530829724.919, 65, 0, 1024, 1024, 1024, 1024, 0, 6, 3948, 3960, 3952, 3956, 3959, 3981, 0, 1, 14000, -90.000, 0.000, -46.700, 0.000, 0.000, -2.900, 0.0, , , , , , 96, , , 49, 49, 49
35.7347958, -118.6147658, 24.700, 15:28:45.019, 15, 0.00, 0.14, 98, -3.600, -2.300, -46.200, 1226, 100, 96, 28, 23753, -20265, 5269, 5377, 17, 14, 1530829725.019, 56, 0, 1024, 1024, 1024, 1024, 0, 6, 3948, 3960, 3952, 3956, 3959, 3981, 0, 1, 14100, -90.000, 0.000, -46.700, 0.000, 0.000, -3.000, 0.0, , , , , , 96, , , 49, 49, 49
35.7347958, -118.6147656, 25.000, 15:28:45.119, 15, 0.00, 0.13, 98, -4.300, -2.400, -46.200, 1226, 100, 96, 28, 23753, -20265, 5269, 5377, 17, 14, 1530829725.120, 60, 0, 1024, 1024, 1024, 1024, 0, 6, 3948, 3960, 3952, 3956, 3959, 3981, 0, 1, 14201, -89.900, 0.000, -46.700, 0.000, 0.000, -3.000, 0.0, , , , , , 96, , , 49, 49, 49
35.7347958, -118.6147655, 25.300, 15:28:45.219, 15, 0.00, 0.13, 98, -4.600, -2.100, -46.300, 1226, 100, 96, 28, 23753, -20265, 5269, 5377, 17, 14, 1530829725.219, 45, 0, 1024, 1024, 1024, 1024, 0, 6, 3948, 3960, 3952, 3956, 3959, 3981, 0, 1, 14300, -90.000, 0.000, -46.700, 0.000, 0.000, -3.000, 0.0, , , , , , 96, , , 49, 49, 49
35.7347959, -118.6147654, 25.600, 15:28:45.319, 15, 0.00, 0.13, 98, -4.900, -1.700, -46.300, 1226, 100, 96, 28, 23753, -20265, 5269, 5377, 17, 14, 1530829725.320, 34, 0, 1024, 1024, 1024, 1024, 0, 6, 3948, 3960, 3952, 3956, 3959, 3981, 0, 1, 14400, -89.900, 0.000, -46.700, 0.000, 0.000, -2.900, 0.0, , , , , , 96, , , 49, 49, 49
35.7347959, -118.6147654, 25.900, 15:28:45.419, 15, 0.00, 0.13, 98, -4.400, -1.400, -46.300, 1226, 100, 96, 28, 23753, -20265, 5269, 5377, 17, 14, 1530829725.419, 34, 0, 1024, 1024, 1024, 1024, 0, 6, 3948, 3960, 3952, 3956, 3959, 3981, 0, 1, 14500, -90.000, 0.000, -46.700, 0.000, 0.000, -2.800, 0.0, , , , , , 96, , , 49, 49, 49
35.7347959, -118.6147653, 26.100, 15:28:45.519, 15, 0.00, 0.12, 98, -3.900, -1.800, -46.200, 1226, 100, 96, 28, 23820, -18824, 5269, 5377, 17, 14, 1530829725.519, 29, 0, 1024, 1024, 1024, 1024, 0, 6, 3963, 3964, 3969, 3974, 3974, 4002, 0, 1, 14600, -90.000, 0.000, -46.700, 0.000, 0.000, -2.900, 0.0, , , , , , 96, , , 49, 49, 49
35.7347959, -118.6147653, 26.400, 15:28:45.619, 15, 0.00, 0.12, 98, -3.800, -2.300, -46.200, 1226, 100, 99, 28, 23820, -18824, 5269, 5377, 17, 14, 1530829725.619, 29, 0, 1024, 1024, 1024, 1024, 0, 6, 3963, 3964, 3969, 3974, 3974, 4002, 0, 1, 14700, -90.000, 0.000, -46.700, 0.000, 0.000, -2.900, 0.0, , , , , , 96, , , 49, 49, 49
35.7347958, -118.6147652, 26.900, 15:28:45.719, 15, 0.00, 0.11, 98, -3.700, -3.400, -46.300, 1226, 100, 99, 28, 23820, -18824, 5269, 5377, 17, 14, 1530829725.719, 30, 0, 1024, 1024, 1024, 1024, 0, 6, 3963, 3964, 3969, 3974, 3974, 4002, 0, 1, 14800, -90.000, 0.000, -46.700, 0.000, 0.000, -2.900, 0.0, , , , , , 96, , , 49, 49, 49
35.7347958, -118.6147652, 27.200, 15:28:45.819, 15, 0.00, 0.11, 98, -3.400, -3.100, -46.400, 1226, 100, 99, 28, 23820, -18824, 5269, 5377, 17, 14, 1530829725.819, 12, 0, 1024, 1024, 1024, 1024, 0, 6, 3963, 3964, 3969, 3974, 3974, 4002, 0, 1, 14900, -89.900, 0.000, -46.700, 0.000, 0.000, -3.000, 0.0, , , , , , 96, , , 49, 49, 49
35.7347958, -118.6147653, 27.500, 15:28:45.919, 15, 0.00, 0.11, 98, -3.300, -2.400, -46.400, 1226, 100, 99, 28, 23820, -18824, 5269, 5377, 17, 14, 1530829725.919, 16, 0, 1024, 1024, 1024, 1024, 0, 6, 3963, 3964, 3969, 3974, 3974, 4002, 0, 1, 15000, -89.900, 0.000, -46.700, 0.000, 0.000, -3.000, 0.0, , , , , , 96, , , 49, 49, 49
35.7347958, -118.6147653, 27.800, 15:28:46.019, 15, 0.00, 0.11, 98, -3.100, -1.800, -46.500, 1226, 100, 97, 28, 23820, -18824, 5269, 5377, 17, 14, 1530829726.019, 14, 0, 1024, 1024, 1024, 1024, 0, 6, 3963, 3964, 3969, 3974, 3974, 4002, 0, 1, 15100, -89.900, 0.000, -46.700, 0.000, 0.000, -3.000, 0.0, , , , , , 96, , , 49, 49, 49
35.7347958, -118.6147653, 27.800, 15:28:46.119, 15, 0.00, 0.11, 98, -3.100, -1.800, -46.500, 1226, 100, 97, 28, 23820, -18824, 5269, 5377, 17, 14, 1530829726.119, 114, 0, 1024, 1024, 1024, 1024, 0, 6, 3963, 3964, 3969, 3974, 3974, 4002, 0, 1, 15200, -89.900, 0.000, -46.700, 0.000, 0.000, -3.000, 0.0, , , , , , 96, , , 49, 49, 49
35.7347958, -118.6147654, 28.100, 15:28:46.219, 15, 0.00, 0.12, 98, -3.100, -1.400, -46.500, 1226, 100, 97, 28, 23820, -18824, 5269, 5377, 17, 14, 1530829726.219, 63, 0, 1024, 1024, 1024, 1024, 0, 6, 3963, 3964, 3969, 3974, 3974, 4002, 0, 1, 15300, -89.900, 0.000, -46.700, 0.000, 0.000, -3.000, 0.0, , , , , , 96, , , 49, 49, 49
35.7347958, -118.6147655, 28.400, 15:28:46.319, 15, 0.00, 0.12, 98, -3.300, -1.300, -46.500, 1226, 100, 97, 28, 23820, -18824, 5269, 5377, 17, 14, 1530829726.319, 84, 0, 1024, 1024, 1024, 1024, 0, 6, 3963, 3964, 3969, 3974, 3974, 4002, 0, 1, 15400, -89.900, 0.000, -46.700, 0.000, 0.000, -3.100, 0.0, , , , , , 96, , , 49, 49, 49
35.7347958, -118.6147655, 28.800, 15:28:46.419, 15, 0.00, 0.12, 98, -3.500, -1.500, -46.500, 1226, 100, 97, 28, 23820, -18824, 5269, 5377, 17, 14, 1530829726.419, 84, 0, 1024, 1024, 1024, 1024, 0, 6, 3963, 3964, 3969, 3974, 3974, 4002, 0, 1, 15500, -89.900, 0.000, -46.700, 0.000, 0.000, -3.100, 0.0, , , , , , 96, , , 49, 49, 49
35.7347958, -118.6147655, 29.100, 15:28:46.519, 15, 0.00, 0.12, 98, -3.400, -1.800, -46.300, 1226, 100, 97, 28, 23802, -19456, 5269, 5377, 17, 14, 1530829726.519, 51, 0, 1024, 1024, 1024, 1024, 0, 6, 3958, 3963, 3958, 3964, 3962, 3986, 0, 1, 15600, -89.900, 0.000, -46.700, 0.000, 0.000, -3.100, 0.0, , , , , , 96, , , 49, 49, 49
35.7347957, -118.6147655, 29.400, 15:28:46.619, 15, 0.00, 0.12, 98, -3.700, -2.100, -46.200, 1226, 100, 97, 28, 23802, -19456, 5269, 5377, 17, 14, 1530829726.619, 78, 0, 1024, 1024, 1024, 1024, 0, 6, 3958, 3963, 3958, 3964, 3962, 3986, 0, 1, 15700, -90.000, 0.000, -46.700, 0.000, 0.000, -3.100, 0.0, , , , , , 96, , , 49, 49, 49
35.7347957, -118.6147655, 29.700, 15:28:46.719, 15, 0.00, 0.11, 98, -3.800, -2.600, -46.000, 1226, 100, 97, 28, 23802, -19456, 5269, 5377, 17, 14, 1530829726.719, 55, 0, 1024, 1024, 1024, 1024, 0, 6, 3958, 3963, 3958, 3964, 3962, 3986, 0, 1, 15800, -90.000, 0.000, -46.700, 0.000, 0.000, -3.000, 0.0, , , , , , 96, , , 49, 49, 49
35.7347957, -118.6147654, 30.000, 15:28:46.819, 15, 0.00, 0.11, 98, -3.800, -2.800, -45.900, 1226, 100, 97, 28, 23802, -19456, 5269, 5377, 17, 14, 1530829726.819, 62, 0, 1024, 1024, 1024, 1024, 0, 6, 3958, 3963, 3958, 3964, 3962, 3986, 0, 1, 15900, -90.000, 0.000, -46.700, 0.000, 0.000, -3.000, 0.0, , , , , , 96, , , 49, 49, 49
35.7347956, -118.6147654, 30.300, 15:28:46.919, 15, 0.00, 0.10, 98, -3.600, -3.000, -45.900, 1226, 100, 97, 28, 23802, -19456, 5269, 5377, 17, 14, 1530829726.919, 62, 0, 1024, 1024, 1024, 1024, 0, 6, 3958, 3963, 3958, 3964, 3962, 3986, 0, 1, 16000, -90.000, 0.000, -46.700, 0.000, 0.000, -3.000, 0.0, , , , , , 96, , , 49, 49, 49
35.7347955, -118.6147654, 30.600, 15:28:47.019, 15, 0.00, 0.10, 98, -3.200, -3.200, -46.000, 1226, 100, 97, 28, 23802, -19456, 5269, 5377, 17, 14, 1530829727.019, 53, 0, 1024, 1024, 1024, 1024, 0, 6, 3958, 3963, 3958, 3964, 3962, 3986, 0, 1, 16100, -90.000, 0.000, -46.700, 0.000, 0.000, -3.000, 0.0, , , , , , 96, , , 49, 49, 49
35.7347955, -118.6147654, 30.900, 15:28:47.119, 15, 0.00, 0.09, 98, -2.900, -3.300, -46.100, 1226, 100, 98, 28, 23802, -19456, 5269, 5377, 17, 14, 1530829727.119, 54, 0, 1024, 1024, 1024, 1024, 0, 6, 3958, 3963, 3958, 3964, 3962, 3986, 0, 1, 16200, -90.000, 0.000, -46.700, 0.000, 0.000, -3.100, 0.0, , , , , , 96, , , 49, 49, 49
35.7347954, -118.6147655, 31.300, 15:28:47.219, 15, 0.00, 0.09, 98, -2.800, -3.200, -46.100, 1226, 100, 98, 28, 23802, -19456, 5269, 5377, 17, 14, 1530829727.219, 21, 0, 1024, 1024, 1024, 1024, 0, 6, 3958, 3963, 3958, 3964, 3962, 3986, 0, 1, 16300, -90.000, 0.000, -46.700, 0.000, 0.000, -3.000, 0.0, , , , , , 96, , , 49, 49, 49
35.7347954, -118.6147655, 31.600, 15:28:47.319, 15, 0.00, 0.09, 98, -2.900, -3.100, -46.200, 1226, 100, 98, 28, 23802, -19456, 5269, 5377, 17, 14, 1530829727.319, 35, 0, 1024, 1024, 1024, 1024, 0, 6, 3958, 3963, 3958, 3964, 3962, 3986, 0, 1, 16400, -89.900, 0.000, -46.700, 0.000, 0.000, -3.000, 0.0, , , , , , 96, , , 49, 49, 49
35.7347954, -118.6147655, 31.800, 15:28:47.419, 15, 0.00, 0.09, 98, -3.100, -2.700, -46.200, 1226, 100, 98, 28, 23802, -19456, 5269, 5377, 17, 14, 1530829727.419, 29, 0, 1024, 1024, 1024, 1024, 0, 6, 3958, 3963, 3958, 3964, 3962, 3986, 0, 1, 16500, -89.900, 0.000, -46.700, 0.000, 0.000, -2.900, 0.0, , , , , , 96, , , 49, 49, 49
35.7347953, -118.6147655, 32.100, 15:28:47.519, 15, 0.00, 0.09, 98, -3.000, -2.500, -46.200, 1226, 100, 98, 28, 23677, -20660, 5269, 5377, 17, 14, 1530829727.519, 25, 0, 1024, 1024, 1024, 1024, 0, 6, 3935, 3936, 3938, 3943, 3940, 3971, 0, 1, 16600, -90.000, 0.000, -46.700, 0.000, 0.000, -2.900, 0.0, , , , , , 96, , , 49, 49, 49
35.7347953, -118.6147655, 32.700, 15:28:47.619, 15, 0.00, 0.09, 98, -3.300, -2.700, -46.200, 1226, 100, 99, 28, 23677, -20660, 5269, 5377, 17, 14, 1530829727.619, 25, 0, 1024, 1024, 1024, 1024, 0, 6, 3935, 3936, 3938, 3943, 3940, 3971, 0, 1, 16700, -90.000, 0.000, -46.700, 0.000, 0.000, -3.100, 0.0, , , , , , 96, , , 49, 49, 49
35.7347953, -118.6147655, 32.700, 15:28:47.719, 15, 0.00, 0.09, 98, -3.300, -2.700, -46.200, 1226, 100, 99, 28, 23677, -20660, 5269, 5377, 17, 14, 1530829727.719, 125, 0, 1024, 1024, 1024, 1024, 0, 6, 3935, 3936, 3938, 3943, 3940, 3971, 0, 1, 16800, -90.000, 0.000, -46.700, 0.000, 0.000, -3.100, 0.0, , , , , , 96, , , 49, 49, 49
35.7347953, -118.6147654, 33.000, 15:28:47.819, 15, 0.00, 0.09, 98, -3.800, -2.900, -46.200, 1226, 100, 99, 28, 23677, -20660, 5269, 5377, 17, 14, 1530829727.819, 6, 0, 1024, 1024, 1024, 1024, 0, 6, 3935, 3936, 3938, 3943, 3940, 3971, 0, 1, 16900, -90.000, 0.000, -46.700, 0.000, 0.000, -3.000, 0.0, , , , , , 96, , , 49, 49, 49
35.7347954, -118.6147653, 33.700, 15:28:47.919, 15, 0.00, 0.08, 98, -4.200, -2.700, -46.300, 1226, 100, 99, 28, 23677, -20660, 5269, 5377, 17, 14, 1530829727.919, 19, 0, 1024, 1024, 1024, 1024, 0, 6, 3935, 3936, 3938, 3943, 3940, 3971, 0, 1, 17000, -89.900, 0.000, -46.700, 0.000, 0.000, -3.000, 0.0, , , , , , 96, , , 49, 49, 49
35.7347954, -118.6147652, 33.900, 15:28:48.019, 15, 0.00, 0.08, 98, -3.900, -2.300, -46.400, 1226, 100, 99, 28, 23677, -20660, 5269, 5377, 17, 14, 1530829728.019, 8, 0, 1024, 1024, 1024, 1024, 0, 6, 3935, 3936, 3938, 3943, 3940, 3971, 0, 1, 17100, -89.900, 0.000, -46.700, 0.000, 0.000, -2.900, 0.0, , , , , , 96, , , 49, 49, 49
35.7347954, -118.6147652, 34.200, 15:28:48.119, 15, 0.00, 0.08, 98, -3.800, -2.500, -46.400, 1226, 100, 98, 28, 23677, -20660, 5269, 5377, 17, 14, 1530829728.119, 13, 0, 1024, 1024, 1024, 1024, 0, 6, 3935, 3936, 3938, 3943, 3940, 3971, 0, 1, 17200, -90.000, 0.000, -46.700, 0.000, 0.000, -3.000, 0.0, , , , , , 96, , , 49, 49, 49
35.7347954, -118.6147652, 34.200, 15:28:48.219, 15, 0.00, 0.08, 98, -3.800, -2.500, -46.400, 1226, 100, 98, 28, 23677, -20660, 5269, 5377, 17, 14, 1530829728.219, 113, 0, 1024, 1024, 1024, 1024, 0, 6, 3935, 3936, 3938, 3943, 3940, 3971, 0, 1, 17300, -90.000, 0.000, -46.700, 0.000, 0.000, -3.000, 0.0, , , , , , 96, , , 49, 49, 49
35.7347954, -118.6147652, 34.200, 15:28:48.319, 15, 0.00, 0.08, 98, -3.800, -2.500, -46.400, 1226, 100, 98, 28, 23677, -20660, 5269, 5377, 17, 14, 1530829728.319, 213, 0, 1024, 1024, 1024, 1024, 0, 6, 3935, 3936, 3938, 3943, 3940, 3971, 0, 1, 17400, -90.000, 0.000, -46.700, 0.000, 0.000, -3.000, 0.0, , , , , , 96, , , 49, 49, 49
35.7347954, -118.6147652, 34.800, 15:28:48.419, 15, 0.00, 0.08, 98, -3.900, -3.200, -46.300, 1226, 100, 98, 28, 23677, -20660, 5269, 5377, 17, 14, 1530829728.419, 84, 0, 1024, 1024, 1024, 1024, 0, 6, 3935, 3936, 3938, 3943, 3940, 3971, 0, 1, 17500, -90.000, 0.000, -46.700, 0.000, 0.000, -3.100, 0.0, , , , , , 96, , , 49, 49, 49
35.7347954, -118.6147652, 35.200, 15:28:48.519, 15, 0.00, 0.08, 98, -4.200, -3.600, -46.300, 1226, 100, 98, 28, 23585, -21123, 5269, 5377, 17, 14, 1530829728.519, 70, 0, 1024, 1024, 1024, 1024, 0, 6, 3935, 3936, 3938, 3943, 3940, 3971, 0, 1, 17600, -90.000, 0.000, -46.700, 0.000, 0.000, -3.100, 0.0, , , , , , 96, , , 49, 49, 49
35.7347955, -118.6147652, 35.500, 15:28:48.619, 15, 0.00, 0.08, 98, -4.500, -3.300, -46.300, 1226, 100, 98, 28, 23585, -21123, 5269, 5377, 17, 14, 1530829728.619, 93, 0, 1024, 1024, 1024, 1024, 0, 6, 3935, 3936, 3938, 3943, 3940, 3971, 0, 1, 17700, -89.900, 0.000, -46.700, 0.000, 0.000, -3.200, 0.0, , , , , , 96, , , 49, 49, 49
35.7347955, -118.6147653, 35.900, 15:28:48.719, 15, 0.00, 0.09, 98, -4.600, -2.600, -46.400, 1226, 100, 98, 28, 23585, -21123, 5269, 5377, 17, 14, 1530829728.719, 74, 0, 1024, 1024, 1024, 1024, 0, 6, 3935, 3936, 3938, 3943, 3940, 3971, 0, 1, 17800, -89.900, 0.000, -46.700, 0.000, 0.000, -3.100, 0.0, , , , , , 96, , , 49, 49, 49
35.7347956, -118.6147653, 36.200, 15:28:48.819, 15, 0.00, 0.10, 98, -4.500, -2.000, -46.500, 1226, 100, 98, 28, 23585, -21123, 5269, 5377, 17, 14, 1530829728.819, 74, 0, 1024, 1024, 1024, 1024, 0, 6, 3935, 3936, 3938, 3943, 3940, 3971, 0, 1, 17900, -89.900, 0.000, -46.700, 0.000, 0.000, -2.900, 0.0, , , , , , 96, , , 49, 49, 49
35.7347957, -118.6147654, 36.500, 15:28:48.919, 15, 0.00, 0.10, 98, -4.200, -1.500, -46.600, 1226, 100, 98, 28, 23585, -21123, 5269, 5377, 17, 14, 1530829728.919, 39, 0, 1024, 1024, 1024, 1024, 0, 6, 3935, 3936, 3938, 3943, 3940, 3971, 0, 1, 18000, -89.900, 0.000, -46.700, 0.000, 0.000, -2.900, 0.0, , , , , , 96, , , 49, 49, 49
35.7347957, -118.6147654, 36.700, 15:28:49.019, 15, 0.00, 0.11, 97, -3.900, -1.400, -46.700, 1226, 100, 98, 28, 23585, -21123, 5215, 5377, 17, 14, 1530829729.020, 64, 0, 1024, 1024, 1024, 1024, 0, 6, 3930, 3931, 3919, 3938, 3933, 3961, 0, 1, 18101, -89.900, 0.000, -46.700, 0.000, 0.000, -2.900, 0.0, , , , , , 96, , , 49, 49, 49
35.7347957, -118.6147655, 37.000, 15:28:49.119, 15, 0.00, 0.11, 97, -3.500, -1.600, -46.700, 1226, 100, 99, 28, 23585, -21123, 5215, 5377, 17, 14, 1530829729.119, 52, 0, 1024, 1024, 1024, 1024, 0, 6, 3930, 3931, 3919, 3938, 3933, 3961, 0, 1, 18200, -89.900, 0.000, -46.700, 0.000, 0.000, -2.900, 0.0, , , , , , 96, , , 49, 49, 49
35.7347957, -118.6147656, 37.300, 15:28:49.219, 15, 0.00, 0.12, 97, -2.900, -1.700, -46.600, 1226, 100, 99, 28, 23585, -21123, 5215, 5377, 17, 14, 1530829729.219, 54, 0, 1024, 1024, 1024, 1024, 0, 6, 3930, 3931, 3919, 3938, 3933, 3961, 0, 1, 18300, -89.900, 0.000, -46.700, 0.000, 0.000, -2.900, 0.0, , , , , , 96, , , 49, 49, 49
35.7347956, -118.6147656, 37.600, 15:28:49.319, 15, 0.00, 0.12, 97, -2.400, -2.100, -46.500, 1226, 100, 99, 28, 23585, -21123, 5215, 5377, 17, 14, 1530829729.319, 54, 0, 1024, 1024, 1024, 1024, 0, 6, 3930, 3931, 3919, 3938, 3933, 3961, 0, 1, 18400, -90.000, 0.000, -46.700, 0.000, 0.000, -2.900, 0.0, , , , , , 96, , , 49, 49, 49
35.7347956, -118.6147657, 37.900, 15:28:49.419, 15, 0.00, 0.12, 97, -2.400, -2.600, -46.400, 1226, 100, 99, 28, 23585, -21123, 5215, 5377, 17, 14, 1530829729.419, 54, 0, 1024, 1024, 1024, 1024, 0, 6, 3930, 3931, 3919, 3938, 3933, 3961, 0, 1, 18500, -90.000, 0.000, -46.700, 0.000, 0.000, -3.000, 0.0, , , , , , 96, , , 49, 49, 49
35.7347955, -118.6147657, 38.300, 15:28:49.519, 15, 0.00, 0.12, 97, -2.500, -2.800, -46.300, 1226, 100, 99, 28, 23585, -21123, 5215, 5377, 17, 14, 1530829729.519, 31, 0, 1024, 1024, 1024, 1024, 0, 6, 3930, 3931, 3919, 3938, 3933, 3961, 0, 1, 18600, -90.000, 0.000, -46.700, 0.000, 0.000, -3.000, 0.0, , , , , , 96, , , 49, 49, 49
35.7347955, -118.6147658, 38.500, 15:28:49.619, 15, 0.00, 0.12, 97, -2.700, -2.800, -46.300, 1226, 100, 94, 28, 23585, -21123, 5215, 5377, 17, 14, 1530829729.619, 19, 0, 1024, 1024, 1024, 1024, 0, 6, 3930, 3931, 3919, 3938, 3933, 3961, 0, 1, 18700, -90.000, 0.000, -46.700, 0.000, 0.000, -2.900, 0.0, , , , , , 96, , , 49, 49, 49
35.7347955, -118.6147658, 38.800, 15:28:49.719, 15, 0.00, 0.13, 97, -2.600, -2.500, -46.100, 1226, 100, 94, 28, 23585, -21123, 5215, 5377, 17, 14, 1530829729.719, 33, 0, 1024, 1024, 1024, 1024, 0, 6, 3930, 3931, 3919, 3938, 3933, 3961, 0, 1, 18800, -89.900, 0.000, -46.700, 0.000, 0.000, -2.900, 0.0, , , , , , 96, , , 49, 49, 49
35.7347955, -118.6147659, 39.200, 15:28:49.819, 15, 0.00, 0.13, 97, -2.600, -2.100, -46.100, 1226, 100, 94, 28, 23585, -21123, 5215, 5377, 17, 14, 1530829729.819, 20, 0, 1024, 1024, 1024, 1024, 0, 6, 3930, 3931, 3919, 3938, 3933, 3961, 0, 1, 18900, -89.900, 0.000, -46.700, 0.000, 0.000, -3.000, 0.0, , , , , , 96, , , 49, 49, 49
35.7347955, -118.6147660, 39.800, 15:28:49.919, 15, 0.00, 0.14, 97, -2.400, -2.300, -46.100, 1226, 100, 94, 28, 23585, -21123, 5215, 5377, 17, 14, 1530829729.919, 10, 0, 1024, 1024, 1024, 1024, 0, 6, 3930, 3931, 3919, 3938, 3933, 3961, 0, 1, 19000, -89.900, 0.000, -46.700, 0.000, 0.000, -3.000, 0.0, , , , , , 96, , , 49, 49, 49
35.7347954, -118.6147660, 40.100, 15:28:50.019, 15, 0.00, 0.14, 97, -2.200, -2.200, -46.200, 1226, 100, 94, 28, 23530, -20681, 5215, 5377, 17, 14, 1530829730.019, 15, 0, 1024, 1024, 1024, 1024, 0, 6, 3917, 3920, 3906, 3915, 3915, 3942, 0, 1, 19100, -89.900, 0.000, -46.700, 0.000, 0.000, -2.900, 0.0, , , , , , 96, , , 49, 49, 49
35.7347954, -118.6147660, 40.400, 15:28:50.119, 15, 0.00, 0.14, 97, -2.500, -2.200, -46.400, 1226, 100, 94, 28, 23530, -20681, 5215, 5377, 17, 14, 1530829730.119, 6, 0, 1024, 1024, 1024, 1024, 0, 6, 3917, 3920, 3906, 3915, 3915, 3942, 0, 1, 19200, -89.900, 0.000, -46.700, 0.000, 0.000, -2.900, 0.0, , , , , , 96, , , 49, 49, 49
35.7347954, -118.6147660, 40.400, 15:28:50.219, 15, 0.00, 0.14, 97, -2.500, -2.200, -46.400, 1226, 100, 94, 28, 23530, -20681, 5215, 5377, 17, 14, 1530829730.219, 106, 0, 1024, 1024, 1024, 1024, 0, 6, 3917, 3920, 3906, 3915, 3915, 3942, 0, 1, 19300, -89.900, 0.000, -46.700, 0.000, 0.000, -2.900, 0.0, , , , , , 96, , , 49, 49, 49
35.7347954, -118.6147660, 41.000, 15:28:50.318, 15, 0.00, 0.13, 97, -2.600, -2.700, -46.600, 1226, 100, 94, 28, 23530, -20681, 5215, 5377, 17, 14, 1530829730.318, 3, 0, 1024, 1024, 1024, 1024, 0, 6, 3917, 3920, 3906, 3915, 3915, 3942, 0, 1, 19399, -90.000, 0.000, -46.700, 0.000, 0.000, -2.900, 0.0, , , , , , 96, , , 49, 49, 49
35.7347954, -118.6147660, 41.000, 15:28:50.419, 15, 0.00, 0.13, 97, -2.600, -2.700, -46.600, 1226, 100, 94, 28, 23530, -20681, 5215, 5377, 17, 14, 1530829730.419, 104, 0, 1024, 1024, 1024, 1024, 0, 6, 3917, 3920, 3906, 3915, 3915, 3942, 0, 1, 19500, -90.000, 0.000, -46.700, 0.000, 0.000, -2.900, 0.0, , , , , , 96, , , 49, 49, 49
35.7347953, -118.6147660, 41.300, 15:28:50.519, 15, 0.00, 0.13, 97, -2.500, -2.900, -46.600, 1226, 100, 94, 28, 23530, -20681, 5215, 5377, 17, 14, 1530829730.519, 87, 0, 1024, 1024, 1024, 1024, 0, 6, 3917, 3920, 3906, 3915, 3915, 3942, 0, 1, 19600, -90.000, 0.000, -46.700, 0.000, 0.000, -3.000, 0.0, , , , , , 96, , , 49, 49, 49
35.7347952, -118.6147660, 41.900, 15:28:50.620, 15, 0.00, 0.13, 97, -2.200, -3.100, -46.600, 1226, 100, 94, 28, 23530, -20681, 5215, 5377, 17, 14, 1530829730.620, 2, 0, 1024, 1024, 1024, 1024, 0, 6, 3917, 3920, 3906, 3915, 3915, 3942, 0, 1, 19701, -90.000, 0.000, -46.700, 0.000, 0.000, -2.900, 0.0, , , , , , 96, , , 49, 49, 49
35.7347952, -118.6147660, 41.900, 15:28:50.719, 15, 0.00, 0.13, 97, -2.200, -3.100, -46.600, 1226, 100, 94, 28, 23530, -20681, 5215, 5377, 17, 14, 1530829730.719, 101, 0, 1024, 1024, 1024, 1024, 0, 6, 3917, 3920, 3906, 3915, 3915, 3942, 0, 1, 19800, -90.000, 0.000, -46.700, 0.000, 0.000, -2.900, 0.0, , , , , , 96, , , 49, 49, 49
35.7347952, -118.6147660, 42.100, 15:28:50.818, 15, 0.00, 0.13, 97, -2.400, -3.000, -46.400, 1226, 100, 94, 28, 23530, -20681, 5215, 5377, 17, 14, 1530829730.818, 88, 0, 1024, 1024, 1024, 1024, 0, 6, 3917, 3920, 3906, 3915, 3915, 3942, 0, 1, 19899, -90.000, 0.000, -46.700, 0.000, 0.000, -2.900, 0.0, , , , , , 96, , , 49, 49, 49
35.7347951, -118.6147660, 42.400, 15:28:50.919, 15, 0.00, 0.13, 97, -2.200, -3.000, -46.300, 1226, 100, 94, 28, 23530, -20681, 5215, 5377, 17, 14, 1530829730.919, 63, 0, 1024, 1024, 1024, 1024, 0, 6, 3917, 3920, 3906, 3915, 3915, 3942, 0, 1, 20000, -90.000, 0.000, -46.700, 0.000, 0.000, -2.900, 0.0, , , , , , 96, , , 49, 49, 49
35.7347951, -118.6147660, 42.700, 15:28:51.019, 15, 0.00, 0.13, 97, -2.300, -2.900, -46.200, 1226, 100, 94, 28, 23452, -22133, 5215, 5377, 17, 14, 1530829731.019, 64, 0, 1024, 1024, 1024, 1024, 0, 6, 3907, 3899, 3894, 3897, 3909, 3913, 0, 1, 20100, -90.000, 0.000, -46.700, 0.000, 0.000, -3.000, 0.0, , , , , , 96, , , 49, 49, 49
35.7347951, -118.6147660, 43.100, 15:28:51.119, 15, 0.00, 0.13, 97, -2.200, -2.900, -46.200, 1226, 100, 99, 28, 23452, -22133, 5215, 5377, 17, 14, 1530829731.119, 69, 0, 1024, 1024, 1024, 1024, 0, 6, 3907, 3899, 3894, 3897, 3909, 3913, 0, 1, 20200, -90.000, 0.000, -46.700, 0.000, 0.000, -3.000, 0.0, , , , , , 96, , , 49, 49, 49
35.7347950, -118.6147660, 43.400, 15:28:51.219, 15, 0.00, 0.13, 97, -2.000, -3.100, -46.100, 1226, 100, 99, 28, 23452, -22133, 5215, 5377, 17, 14, 1530829731.219, 60, 0, 1024, 1024, 1024, 1024, 0, 6, 3907, 3899, 3894, 3897, 3909, 3913, 0, 1, 20300, -90.000, 0.000, -46.700, 0.000, 0.000, -3.000, 0.0, , , , , , 96, , , 49, 49, 49
35.7347950, -118.6147660, 43.400, 15:28:51.319, 15, 0.00, 0.13, 97, -2.000, -3.100, -46.100, 1226, 100, 99, 28, 23452, -22133, 5215, 5377, 17, 14, 1530829731.319, 160, 0, 1024, 1024, 1024, 1024, 0, 6, 3907, 3899, 3894, 3897, 3909, 3913, 0, 1, 20400, -90.000, 0.000, -46.700, 0.000, 0.000, -3.000, 0.0, , , , , , 96, , , 49, 49, 49
35.7347950, -118.6147660, 44.000, 15:28:51.419, 15, 0.00, 0.13, 97, -2.400, -3.000, -46.200, 1226, 100, 99, 28, 23452, -22133, 5215, 5377, 17, 14, 1530829731.419, 62, 0, 1024, 1024, 1024, 1024, 0, 6, 3907, 3899, 3894, 3897, 3909, 3913, 0, 1, 20500, -89.900, 0.000, -46.700, 0.000, 0.000, -2.900, 0.0, , , , , , 96, , , 49, 49, 49
35.7347949, -118.6147660, 44.200, 15:28:51.519, 15, 0.00, 0.13, 97, -2.000, -2.800, -46.200, 1226, 100, 99, 28, 23452, -22133, 5215, 5377, 17, 14, 1530829731.519, 54, 0, 1024, 1024, 1024, 1024, 0, 6, 3907, 3899, 3894, 3897, 3909, 3913, 0, 1, 20600, -89.900, 0.000, -46.700, 0.000, 0.000, -2.900, 0.0, , , , , , 96, , , 49, 49, 49
35.7347949, -118.6147660, 44.500, 15:28:51.619, 15, 0.00, 0.13, 97, -1.900, -2.900, -46.200, 1226, 100, 98, 28, 23452, -22133, 5215, 5377, 17, 14, 1530829731.619, 34, 0, 1024, 1024, 1024, 1024, 0, 6, 3907, 3899, 3894, 3897, 3909, 3913, 0, 1, 20700, -90.000, 0.000, -46.700, 0.000, 0.000, -3.000, 0.0, , , , , , 96, , , 49, 49, 49
35.7347949, -118.6147660, 44.900, 15:28:51.719, 15, 0.00, 0.13, 97, -1.900, -3.100, -46.200, 1226, 100, 98, 28, 23452, -22133, 5215, 5377, 17, 14, 1530829731.719, 21, 0, 1024, 1024, 1024, 1024, 0, 6, 3907, 3899, 3894, 3897, 3909, 3913, 0, 1, 20800, -90.000, 0.000, -46.700, 0.000, 0.000, -3.100, 0.0, , , , , , 96, , , 49, 49, 49
