latitude,longitude,altitude(feet),ascent(feet),speed(mph),distance(feet),time(millisecond),datetime(utc),satellites,gpslevel,voltage(v),max_altitude(feet),max_ascent(feet),max_speed(mph),max_distance(feet), xSpeed(mph), ySpeed(mph), zSpeed(mph), compass_heading(degrees), pitch(degrees), roll(degrees),isPhoto,isVideo,rc_elevator,rc_aileron,rc_throttle,rc_rudder,gimbal_heading(degrees),gimbal_pitch(degrees),battery_percent,voltageCell1,voltageCell2,voltageCell3,voltageCell4,voltageCell5,voltageCell6,current(A),battery_temperature(f),flycStateRaw,flycState,message
37.7328473,-120.0946695,3056.6859783914,0,0,0,2910,2018-05-13 19:08:14,15,0,0,3056.6859783914,0,0,0,0,0,0,34.3, 0.2, -0.1,1,0,1024,1024,1024,1024,31.8,-90,100,4.234,4.264,4.308,4.29,4.309,4.278,0,73.4,11,AutoTakeoff,DJI_0193.jpg Starting Mission from Lat/Long: 37.73286/-120.09465 Camera: Zenmuse X3 - Overlap: 90/90 - Active Connection: No
37.7328474,-120.0946697,3056.6859783914,0,0,0.06827592082,3000,2018-05-13 19:08:14,15,0,25.599,3056.6859783914,0,0,0.06827592082,0,0,0,34.5, -0.1, 0.2,0,0,1024,1024,1024,1024,31.9,-90,100,4.234,4.264,4.308,4.29,4.309,4.278,2.893,73.4,11,AutoTakeoff,
37.7328474,-120.0946698,3056.6859783914,0,0,0.093939307468,3100,2018-05-13 19:08:15,15,0,25.599,3056.6859783914,0,0,0.093939307468,0,0,0,34.4, -0.3, 0.4,0,0,1024,1024,1024,1024,31.9,-89.9,100,4.234,4.264,4.308,4.29,4.309,4.278,2.893,73.4,11,AutoTakeoff,
37.7328475,-120.0946699,3056.6859783914,0,0,0.136551513556,3200,2018-05-13 19:08:15,16,0,25.599,3056.6859783914,0,0,0.136551513556,0,0,0,34.2, 0, 0.7,0,0,1024,1024,1024,1024,32,-89.9,100,4.234,4.264,4.308,4.29,4.309,4.278,2.893,73.4,11,AutoTakeoff,
37.7328475,-120.09467,3056.6859783914,0,0,0.16167815478,3300,2018-05-13 19:08:15,16,0,25.599,3056.6859783914,0,0,0.16167815478,0,0,0,33.9, 0.7, 0.8,0,0,1024,1024,1024,1024,32,-89.9,100,4.234,4.264,4.308,4.29,4.309,4.278,2.893,73.4,11,AutoTakeoff,
37.7328476,-120.09467,3056.6859783914,0,0,0.181095478236,3400,2018-05-13 19:08:15,17,0,25.599,3056.6859783914,0,0,0.181095478236,0,0,0,33.7, 0.8, 0.7,0,0,1024,1024,1024,1024,32.1,-89.9,100,4.234,4.264,4.308,4.29,4.309,4.278,2.893,73.4,11,AutoTakeoff,
37.7328476,-120.0946701,3057.0140623914,0.328084,0,0.204827434376,3500,2018-05-13 19:08:15,17,0,25.599,3057.0140623914,0.328084,0,0.204827434376,0,0,0,33.7, 0.9, 0.4,0,0,1024,1024,1024,1024,32.1,-89.9,100,4.234,4.264,4.308,4.29,4.309,4.278,2.893,73.4,11,AutoTakeoff,
37.7328477,-120.0946701,3057.0140623914,0.328084,0,0.22643373428,3600,2018-05-13 19:08:15,15,0,25.599,3057.0140623914,0.328084,0,0.22643373428,0,0,0,33.8, 0.8, 0.2,0,0,1024,1024,1024,1024,32.1,-89.9,100,4.234,4.264,4.308,4.29,4.309,4.278,2.893,73.4,11,AutoTakeoff,
37.7328477,-120.0946702,3057.0140623914,0.328084,0,0.249190952856,3700,2018-05-13 19:08:15,15,0,25.599,3057.0140623914,0.328084,0,0.249190952856,0,0,0,34.1, 0.6, 0,0,0,1024,1024,1024,1024,32.2,-90,100,4.234,4.264,4.308,4.29,4.309,4.278,2.893,73.4,11,AutoTakeoff,
37.7328477,-120.0946703,3057.3421463914,0.656168,0,0.273103027112,3800,2018-05-13 19:08:15,15,0,25.599,3057.3421463914,0.656168,0,0.273103027112,0,0,0,34.2, 0.5, 0.1,0,0,1024,1024,1024,1024,32.2,-89.9,100,4.234,4.264,4.308,4.29,4.309,4.278,2.893,73.4,11,AutoTakeoff,
37.7328478,-120.0946704,3057.3421463914,0.656168,0,0.317364183384,3900,2018-05-13 19:08:15,15,0,25.599,3057.3421463914,0.656168,0,0.317364183384,0,0,0,34.4, 0.3, 0.6,0,0,1024,1024,1024,1024,32.2,-90,100,4.234,4.264,4.308,4.29,4.309,4.278,2.893,73.4,11,AutoTakeoff,
37.7328478,-120.0946704,3057.6702303914,0.984252,0,0.317364183384,4000,2018-05-13 19:08:15,15,0,24.64,3057.6702303914,0.984252,0,0.317364183384,0,0,0,34.6, 0.3, 0.7,0,0,1024,1024,1024,1024,32.3,-89.9,100,4.243,4.238,4.257,4.272,4.259,4.243,12.895,73.4,11,AutoTakeoff,
37.732848,-120.0946706,3057.9983143914,1.312336,0.223694,0.40739502616,4200,2018-05-13 19:08:16,15,0,24.64,3057.9983143914,1.312336,0.223694,0.40739502616,0,0,-0.223694,34.8, 0.5, 0.8,0,0,1024,1024,1024,1024,32.3,-89.9,100,4.243,4.238,4.257,4.272,4.259,4.243,12.895,73.4,11,AutoTakeoff,
37.7328481,-120.0946707,3058.3263983914,1.64042,0.223694,0.45286746856,4300,2018-05-13 19:08:16,15,0,24.64,3058.3263983914,1.64042,0.223694,0.45286746856,0,0,-0.223694,34.7, 0.7, 0.7,0,0,1024,1024,1024,1024,32.3,-89.9,100,4.243,4.238,4.257,4.272,4.259,4.243,12.895,73.4,11,AutoTakeoff,
37.7328482,-120.0946708,3058.3263983914,1.64042,0.223694,0.49853019968,4400,2018-05-13 19:08:16,15,0,24.64,3058.3263983914,1.64042,0.223694,0.49853019968,0,0,-0.223694,34.4, 0.9, 0.8,0,0,1024,1024,1024,1024,32.4,-89.9,100,4.243,4.238,4.257,4.272,4.259,4.243,12.895,73.4,11,AutoTakeoff,
37.7328484,-120.0946709,3058.6544823914,1.968504,0.223694,0.5694389946,4600,2018-05-13 19:08:16,15,0,24.64,3058.6544823914,1.968504,0.223694,0.5694389946,0,0,-0.223694,34.2, 1, 1.2,0,0,1024,1024,1024,1024,32.4,-89.9,100,4.243,4.238,4.257,4.272,4.259,4.243,12.895,73.4,11,AutoTakeoff,
37.7328485,-120.094671,3058.9825663914,2.296588,0.223694,0.615649626,4700,2018-05-13 19:08:16,15,0,24.64,3058.9825663914,2.296588,0.223694,0.615649626,0,0,-0.223694,33.8, 1.1, 1.8,0,0,1024,1024,1024,1024,32.4,-89.9,100,4.243,4.238,4.257,4.272,4.259,4.243,12.895,73.4,11,AutoTakeoff,
37.7328487,-120.0946711,3058.9825663914,2.296588,0.223694,0.68851380156,4800,2018-05-13 19:08:16,15,0,24.64,3058.9825663914,2.296588,0.223694,0.68851380156,0,0,-0.223694,33.6, 1.4, 2,0,0,1024,1024,1024,1024,32.4,-89.9,100,4.243,4.238,4.257,4.272,4.259,4.243,12.895,73.4,11,AutoTakeoff,
37.7328489,-120.0946711,3059.3106503914,2.624672,0.223694,0.744258554,4900,2018-05-13 19:08:16,14,0,24.64,3059.3106503914,2.624672,0.223694,0.744258554,0,0,-0.223694,33.4, 2, 2.4,0,0,1024,1024,1024,1024,32.5,-89.9,100,4.243,4.238,4.257,4.272,4.259,4.243,12.895,73.4,11,AutoTakeoff,
37.7328491,-120.0946711,3059.6387343914,2.952756,0.223694,0.80276905456,5000,2018-05-13 19:08:16,15,0,24.64,3059.6387343914,2.952756,0.223694,0.80276905456,0,0,-0.223694,33.3, 2.7, 2.6,0,0,1024,1024,1024,1024,32.5,-89.9,100,4.106,4.1,4.113,4.09,4.124,4.095,12.895,73.4,14,Waypoint,
37.7328492,-120.0946712,3059.9668183914,3.28084,0,0.84921590644,5100,2018-05-13 19:08:17,15,0,24.64,3059.9668183914,3.28084,0.223694,0.84921590644,0,0,0,33.6, 2.7, 2.6,0,0,1024,1024,1024,1024,32.5,-89.9,100,4.106,4.1,4.113,4.09,4.124,4.095,12.895,73.4,14,Waypoint,
37.7328493,-120.0946713,3059.9668183914,3.28084,0,0.89566932,5200,2018-05-13 19:08:17,16,0,24.64,3059.9668183914,3.28084,0.223694,0.89566932,0,0,0,34.1, 2.2, 1.7,0,0,1024,1024,1024,1024,32.5,-89.9,100,4.106,4.1,4.113,4.09,4.124,4.095,12.895,73.4,14,Waypoint,
37.7328494,-120.0946712,3060.2949023914,3.608924,0,0.9097605278,5300,2018-05-13 19:08:17,16,0,24.64,3060.2949023914,3.608924,0.223694,0.9097605278,0,0,0,34.9, 1.2, 1.5,0,0,1024,1024,1024,1024,32.5,-90,100,4.106,4.1,4.113,4.09,4.124,4.095,12.895,73.4,14,Waypoint,
37.7328494,-120.0946713,3060.6229863914,3.937008,0,0.92563651256,5400,2018-05-13 19:08:17,16,0,24.64,3060.6229863914,3.937008,0.223694,0.92563651256,0,0,0,35.9, 0.6, 1.4,0,0,1024,1024,1024,1024,32.6,-90,100,4.106,4.1,4.113,4.09,4.124,4.095,12.895,73.4,14,Waypoint,
37.7328495,-120.0946714,3060.6229863914,3.937008,0,0.97203415184,5500,2018-05-13 19:08:17,16,0,24.64,3060.6229863914,3.937008,0.223694,0.97203415184,0,0,-0.223694,37, 0.5, 1.6,0,0,1024,1024,1024,1024,32.7,-90,100,4.106,4.1,4.113,4.09,4.124,4.095,12.895,73.4,14,Waypoint,
37.7328496,-120.0946715,3060.9510703914,4.265092,0,1.01844163364,5600,2018-05-13 19:08:17,15,0,24.64,3060.9510703914,4.265092,0.223694,1.01844163364,0,0,-0.223694,38.1, 1, 1.5,0,0,1024,1024,1024,1024,32.8,-89.9,100,4.106,4.1,4.113,4.09,4.124,4.095,12.895,73.4,14,Waypoint,
37.7328497,-120.0946715,3061.2791543914,4.593176,0,1.04870738264,5700,2018-05-13 19:08:17,15,0,24.64,3061.2791543914,4.593176,0.223694,1.04870738264,0,0,-0.223694,39.2, 1.3, 1.5,0,0,1024,1024,1024,1024,33.1,-89.9,100,4.106,4.1,4.113,4.09,4.124,4.095,12.895,73.4,14,Waypoint,
37.7328497,-120.0946716,3061.6072383914,4.92126,0,1.06485895796,5800,2018-05-13 19:08:17,15,0,24.64,3061.6072383914,4.92126,0.223694,1.06485895796,0,0,-0.223694,39.9, 1.5, 1.2,0,0,1024,1024,1024,1024,33.5,-89.9,100,4.106,4.1,4.113,4.09,4.124,4.095,12.895,73.4,14,Waypoint,
37.7328497,-120.0946716,3061.6072383914,4.92126,0,1.06485895796,5900,2018-05-13 19:08:17,15,0,24.64,3061.6072383914,4.92126,0.223694,1.06485895796,0,0,-0.223694,40.3, 1.6, 1.5,0,0,1024,1024,1024,1024,33.9,-89.9,100,4.106,4.1,4.113,4.09,4.124,4.095,12.895,73.4,14,Waypoint,
37.7328496,-120.0946716,3061.9353223914,5.249344,0,1.03506564992,6000,2018-05-13 19:08:17,15,0,24.346,3061.9353223914,5.249344,0.223694,1.06485895796,0,0,-0.223694,40.1, 1.3, 1.7,0,0,1024,1024,1024,1024,34.6,-90,100,4.062,4.054,4.048,4.057,4.079,4.063,15.908,73.4,14,Waypoint,
37.7328496,-120.0946715,3062.5914903914,5.905512,0,1.01844163364,6100,2018-05-13 19:08:18,15,0,24.346,3062.5914903914,5.905512,0.223694,1.06485895796,0,0,-0.223694,39.5, 1.1, 1.7,0,0,1024,1024,1024,1024,34.6,-90,100,4.062,4.054,4.048,4.057,4.079,4.063,15.908,73.4,14,Waypoint,
37.7328495,-120.0946714,3062.9195743914,6.233596,0.3131716,0.97203415184,6200,2018-05-13 19:08:18,15,0,24.346,3062.9195743914,6.233596,0.3131716,1.06485895796,0,0,-0.447388,38.8, 0.7, 1.4,0,0,1024,1024,1024,1024,35.2,-90,100,4.062,4.054,4.048,4.057,4.079,4.063,15.908,73.4,14,Waypoint,
37.7328494,-120.0946713,3063.5757423914,6.889764,0.3131716,0.92563651256,6300,2018-05-13 19:08:18,15,0,24.346,3063.5757423914,6.889764,0.3131716,1.06485895796,0,0,-0.447388,38.4, 0.7, 0.5,0,0,1024,1024,1024,1024,35.5,-89.9,100,4.062,4.054,4.048,4.057,4.079,4.063,15.908,73.4,14,Waypoint,
37.7328493,-120.0946711,3064.2319103914,7.545932,0.3131716,0.86348756044,6400,2018-05-13 19:08:18,15,0,24.346,3064.2319103914,7.545932,0.3131716,1.06485895796,0,0,-0.447388,38.3, 1.2, -0.8,0,0,1024,1024,1024,1024,35.7,-89.9,100,4.062,4.054,4.048,4.057,4.079,4.063,15.908,73.4,14,Waypoint,
37.7328491,-120.0946709,3064.8880783914,8.2021,0.3131716,0.77102692756,6500,2018-05-13 19:08:18,15,0,24.346,3064.8880783914,8.2021,0.3131716,1.06485895796,0,0,-0.447388,38.6, 1.5, -1.8,0,0,1024,1024,1024,1024,35.9,-90,100,4.062,4.054,4.048,4.057,4.079,4.063,15.908,73.4,14,Waypoint,
37.732849,-120.0946708,3065.8723303914,9.186352,0.3131716,0.72485566624,6610,2018-05-13 19:08:18,16,0,24.346,3065.8723303914,9.186352,0.3131716,1.06485895796,0,0,-0.671082,39.1, 1.4, -2.1,0,0,1024,1024,1024,1024,36.1,-90,100,4.062,4.054,4.048,4.057,4.079,4.063,15.908,73.4,14,Waypoint,
37.7328489,-120.0946707,3066.5284983914,9.84252,0.223694,0.67872705584,6700,2018-05-13 19:08:18,16,0,24.346,3066.5284983914,9.84252,0.3131716,1.06485895796,0,0,-0.671082,39.7, 0.9, -2,0,0,1024,1024,1024,1024,36.2,-90,100,4.062,4.054,4.048,4.057,4.079,4.063,15.908,73.4,14,Waypoint,
37.7328485,-120.0946705,3069.4812543914,12.795276,0,0.52435369132,7000,2018-05-13 19:08:18,16,0,24.489,3069.4812543914,12.795276,0.3131716,1.06485895796,0,0,-0.671082,39.5, 0.1, -2.1,0,0,1024,1024,1024,1024,36.5,-90,100,4.054,4.086,4.039,4.045,4.055,4.096,14.362,73.4,14,Waypoint,
37.7328484,-120.0946704,3070.7935903914,14.107612,0,0.47802823052,7200,2018-05-13 19:08:19,16,0,24.489,3070.7935903914,14.107612,0.3131716,1.06485895796,0,0,-0.671082,39.1, 0.2, -2.1,0,0,1024,1024,1024,1024,36.8,-90,100,4.054,4.086,4.039,4.045,4.055,4.096,14.362,73.4,14,Waypoint,
37.7328483,-120.0946704,3073.0901783914,16.4042,0,0.44783466,7300,2018-05-13 19:08:19,16,0,24.489,3073.0901783914,16.4042,0.3131716,1.06485895796,0,0,-0.671082,39.1, 0.7, -1.9,0,0,1024,1024,1024,1024,36.9,-89.9,100,4.054,4.086,4.039,4.045,4.055,4.096,14.362,73.4,14,Waypoint,
37.7328483,-120.0946704,3074.0744303914,17.388452,0,0.44783466,7400,2018-05-13 19:08:19,16,0,24.489,3074.0744303914,17.388452,0.3131716,1.06485895796,0,0,-0.671082,39.2, 0.6, -1.5,0,0,1024,1024,1024,1024,37,-90,100,4.054,4.086,4.039,4.045,4.055,4.096,14.362,73.4,14,Waypoint,
37.7328483,-120.0946705,3075.3867663914,18.700788,0,0.46516077604,7500,2018-05-13 19:08:19,16,0,24.489,3075.3867663914,18.700788,0.3131716,1.06485895796,0,0,-0.671082,39.3, 0.4, -1.1,0,0,1024,1024,1024,1024,37.1,-90,100,4.054,4.086,4.039,4.045,4.055,4.096,14.362,73.4,14,Waypoint,
37.7328483,-120.0946707,3076.3710183914,19.68504,0,0.5030019846,7600,2018-05-13 19:08:19,16,0,24.489,3076.3710183914,19.68504,0.3131716,1.06485895796,0,0,-0.671082,39.7, 0.3, -0.7,0,0,1024,1024,1024,1024,37.2,-90,100,4.054,4.086,4.039,4.045,4.055,4.096,14.362,73.4,14,Waypoint,
37.7328484,-120.0946709,3077.3552703914,20.669292,0,0.5694389946,7700,2018-05-13 19:08:19,16,0,24.489,3077.3552703914,20.669292,0.3131716,1.06485895796,0,0,-0.671082,39.9, 0.3, -0.1,0,0,1024,1024,1024,1024,37.3,-90,100,4.054,4.086,4.039,4.045,4.055,4.096,14.362,73.4,14,Waypoint,
37.7328486,-120.0946711,3078.3395223914,21.653544,0,0.66189962748,7800,2018-05-13 19:08:19,16,0,24.489,3078.3395223914,21.653544,0.3131716,1.06485895796,0,0,-0.671082,40, 0.2, 0.4,0,0,1024,1024,1024,1024,37.4,-90,100,4.054,4.086,4.039,4.045,4.055,4.096,14.362,73.4,14,Waypoint,
37.7328488,-120.0946712,3079.6518583914,22.96588,0.223694,0.73493768756,7900,2018-05-13 19:08:19,16,0,24.489,3079.6518583914,22.96588,0.3131716,1.06485895796,0,0,-0.671082,40, 0.4, 0.8,0,0,1024,1024,1024,1024,37.4,-90,100,4.054,4.086,4.039,4.045,4.055,4.096,14.362,73.4,14,Waypoint,
37.732849,-120.0946713,3080.6361103914,23.950132,0.223694,0.80899280804,8000,2018-05-13 19:08:19,17,0,23.836,3080.6361103914,23.950132,0.3131716,1.06485895796,0,0,-0.671082,40, 0.6, 1.2,0,0,1024,1024,1024,1024,37.5,-89.9,98,3.953,3.96,3.964,3.973,3.957,3.981,21.4,73.4,14,Waypoint,
37.7328491,-120.0946715,3081.6203623914,24.934384,0.223694,0.874261839,8100,2018-05-13 19:08:20,17,0,23.836,3081.6203623914,24.934384,0.3131716,1.06485895796,0,0,-0.671082,40, 1, 1.5,0,0,1024,1024,1024,1024,37.6,-89.9,98,3.953,3.96,3.964,3.973,3.957,3.981,21.4,73.4,14,Waypoint,
37.7328493,-120.0946715,3082.9326983914,26.24672,0,0.93032483292,8200,2018-05-13 19:08:20,17,0,23.836,3082.9326983914,26.24672,0.3131716,1.06485895796,0,0,-0.671082,40, 1.3, 1.6,0,0,1024,1024,1024,1024,37.6,-89.9,98,3.953,3.96,3.964,3.973,3.957,3.981,21.4,73.4,14,Waypoint,
37.7328494,-120.0946714,3083.9169503914,27.230972,0,0.94212929524,8300,2018-05-13 19:08:20,17,0,23.836,3083.9169503914,27.230972,0.3131716,1.06485895796,0,0,-0.671082,40, 1.5, 1.3,0,0,1024,1024,1024,1024,37.7,-89.9,98,3.953,3.96,3.964,3.973,3.957,3.981,21.4,73.4,14,Waypoint,
37.7328494,-120.0946714,3084.9012023914,28.215224,0,0.94212929524,8400,2018-05-13 19:08:20,17,0,23.836,3084.9012023914,28.215224,0.3131716,1.06485895796,0,0,-0.671082,39.9, 1.6, 0.8,0,0,1024,1024,1024,1024,37.8,-89.9,98,3.953,3.96,3.964,3.973,3.957,3.981,21.4,73.4,14,Waypoint,
37.7328495,-120.0946714,3085.8854543914,29.199476,0,0.97203415184,8500,2018-05-13 19:08:20,17,0,23.836,3085.8854543914,29.199476,0.3131716,1.06485895796,0,0,-0.671082,39.9, 1.5, 0.3,0,0,1024,1024,1024,1024,37.8,-89.9,98,3.953,3.96,3.964,3.973,3.957,3.981,21.4,73.4,14,Waypoint,
37.7328495,-120.0946713,3087.1977903914,30.511812,0,0.95605646104,8600,2018-05-13 19:08:20,17,0,23.836,3087.1977903914,30.511812,0.3131716,1.06485895796,0,0,-0.671082,39.9, 1.4, 0,0,0,1024,1024,1024,1024,37.9,-89.9,98,3.953,3.96,3.964,3.973,3.957,3.981,21.4,73.4,14,Waypoint,
37.7328495,-120.0946713,3088.1820423914,31.496064,0,0.95605646104,8700,2018-05-13 19:08:20,17,0,23.836,3088.1820423914,31.496064,0.3131716,1.06485895796,0,0,-0.671082,40, 1.4, 0,0,0,1024,1024,1024,1024,38,-89.9,98,3.953,3.96,3.964,3.973,3.957,3.981,21.4,73.4,14,Waypoint,
37.7328495,-120.0946713,3090.1505463914,33.464568,0,0.95605646104,8900,2018-05-13 19:08:20,16,0,23.836,3090.1505463914,33.464568,0.3131716,1.06485895796,0,0,-0.671082,40.1, 1.3, -0.3,0,0,1024,1024,1024,1024,38.1,-89.9,98,3.953,3.96,3.964,3.973,3.957,3.981,21.4,73.4,14,Waypoint,
37.7328496,-120.0946714,3091.1347983914,34.44882,0,1.00237207932,9000,2018-05-13 19:08:20,16,0,23.638,3091.1347983914,34.44882,0.3131716,1.06485895796,0,0,-0.671082,40.1, 1.2, -0.3,0,0,1024,1024,1024,1024,38.1,-89.9,98,3.981,3.979,3.959,3.953,3.977,3.957,18.779,73.4,14,Waypoint,
37.7328496,-120.0946714,3092.4471343914,35.761156,0,1.00237207932,9110,2018-05-13 19:08:21,16,0,23.638,3092.4471343914,35.761156,0.3131716,1.06485895796,0,0,-0.671082,40, 1.4, -0.2,0,0,1024,1024,1024,1024,38.1,-89.9,98,3.981,3.979,3.959,3.953,3.977,3.957,18.779,73.4,14,Waypoint,
37.7328496,-120.0946714,3092.4471343914,35.761156,0,1.00237207932,9200,2018-05-13 19:08:21,16,0,23.638,3092.4471343914,35.761156,0.3131716,1.06485895796,0,0,-0.671082,40, 1.4, -0.2,0,0,1024,1024,1024,1024,38.1,-89.9,98,3.981,3.979,3.959,3.953,3.977,3.957,18.779,73.4,14,Waypoint,
37.7328498,-120.0946715,3094.4156383914,37.72966,0,1.07935698992,9300,2018-05-13 19:08:21,17,0,23.638,3094.4156383914,37.72966,0.3131716,1.07935698992,0,0,-0.671082,39.8, 1.7, -0.2,0,0,1024,1024,1024,1024,38.2,-89.9,98,3.981,3.979,3.959,3.953,3.977,3.957,18.779,73.4,14,Waypoint,
37.7328498,-120.0946714,3095.7279743914,39.041996,0,1.06420935164,9400,2018-05-13 19:08:21,17,0,23.638,3095.7279743914,39.041996,0.3131716,1.07935698992,0,0,-0.671082,39.6, 1.7, -0.3,0,0,1024,1024,1024,1024,38.3,-89.9,98,3.981,3.979,3.959,3.953,3.977,3.957,18.779,73.4,14,Waypoint,
37.7328497,-120.0946713,3096.7122263914,40.026248,0.223694,1.01809058376,9600,2018-05-13 19:08:21,17,0,23.638,3096.7122263914,40.026248,0.3131716,1.07935698992,0,0,-0.671082,39.5, 1.6, -0.7,0,0,1024,1024,1024,1024,38.3,-89.9,98,3.981,3.979,3.959,3.953,3.977,3.957,18.779,73.4,14,Waypoint,
37.7328497,-120.0946712,3097.6964783914,41.0105,0.223694,1.00367785364,9700,2018-05-13 19:08:21,17,0,23.638,3097.6964783914,41.0105,0.3131716,1.07935698992,0,0,-0.671082,39.5, 1.6, -1.3,0,0,1024,1024,1024,1024,38.3,-89.9,98,3.981,3.979,3.959,3.953,3.977,3.957,18.779,73.4,14,Waypoint,
37.7328497,-120.0946711,3098.6807303914,41.994752,0.223694,0.9898950448,9800,2018-05-13 19:08:21,17,0,23.638,3098.6807303914,41.994752,0.3131716,1.07935698992,0,0,-0.671082,39.6, 1.6, -1.5,0,0,1024,1024,1024,1024,38.4,-89.9,98,3.981,3.979,3.959,3.953,3.977,3.957,18.779,73.4,14,Waypoint,
37.7328496,-120.0946709,3100.6492343914,43.963256,0.223694,0.93132548912,9900,2018-05-13 19:08:21,18,0,23.638,3100.6492343914,43.963256,0.3131716,1.07935698992,0,0,-0.671082,39.9, 1.7, -2.2,0,0,1024,1024,1024,1024,38.4,-89.9,98,3.981,3.979,3.959,3.953,3.977,3.957,18.779,73.4,14,Waypoint,
37.7328495,-120.0946708,3101.6334863914,44.947508,0.223694,0.88599412284,10000,2018-05-13 19:08:21,18,0,23.967,3101.6334863914,44.947508,0.3131716,1.07935698992,0,0,-0.671082,40, 1.6, -2.5,0,0,1024,1024,1024,1024,38.4,-89.9,98,3.981,3.979,3.959,3.953,3.977,3.957,17.905,73.4,14,Waypoint,
37.7328495,-120.0946707,3102.6177383914,45.93176,0.223694,0.87416997548,10100,2018-05-13 19:08:22,18,0,23.967,3102.6177383914,45.93176,0.3131716,1.07935698992,0,0,-0.671082,40.1, 1.7, -2.7,0,0,1024,1024,1024,1024,38.4,-89.9,98,3.981,3.979,3.959,3.953,3.977,3.957,17.905,73.4,14,Waypoint,
37.7328495,-120.0946707,3103.6019903914,46.916012,0.223694,0.87416997548,10200,2018-05-13 19:08:22,18,0,23.967,3103.6019903914,46.916012,0.3131716,1.07935698992,0,0,-0.671082,40, 1.7, -2.6,0,0,1024,1024,1024,1024,38.5,-89.9,98,3.981,3.979,3.959,3.953,3.977,3.957,17.905,73.4,14,Waypoint,
37.7328496,-120.0946706,3104.5862423914,47.900264,0,0.89717522556,10300,2018-05-13 19:08:22,18,0,23.967,3104.5862423914,47.900264,0.3131716,1.07935698992,0,0,-0.671082,39.9, 1.8, -2.1,0,0,1024,1024,1024,1024,38.5,-89.9,98,3.981,3.979,3.959,3.953,3.977,3.957,17.905,73.4,14,Waypoint,
37.7328496,-120.0946706,3105.5704943914,48.884516,0,0.89717522556,10400,2018-05-13 19:08:22,18,0,23.967,3105.5704943914,48.884516,0.3131716,1.07935698992,0,0,-0.671082,39.7, 2, -1.5,0,0,1024,1024,1024,1024,38.5,-89.9,98,3.981,3.979,3.959,3.953,3.977,3.957,17.905,73.4,14,Waypoint,
37.7328496,-120.0946705,3106.5547463914,49.868768,0,0.88737863732,10500,2018-05-13 19:08:22,18,0,23.967,3106.5547463914,49.868768,0.3131716,1.07935698992,0,0,-0.671082,39.6, 2.3, -1.5,0,0,1024,1024,1024,1024,38.6,-89.9,98,3.981,3.979,3.959,3.953,3.977,3.957,17.905,73.4,14,Waypoint,
37.7328496,-120.0946705,3107.5389983914,50.85302,0,0.88737863732,10600,2018-05-13 19:08:22,18,0,23.967,3107.5389983914,50.85302,0.3131716,1.07935698992,0,0,-0.671082,39.5, 2.2, -1.5,0,0,1024,1024,1024,1024,38.6,-89.9,98,3.981,3.979,3.959,3.953,3.977,3.957,17.905,73.4,14,Waypoint,
37.7328496,-120.0946704,3108.5232503914,51.837272,0,0.87841866328,10700,2018-05-13 19:08:22,18,0,23.967,3108.5232503914,51.837272,0.3131716,1.07935698992,0,0,-0.671082,39.4, 2, -1.9,0,0,1024,1024,1024,1024,38.6,-89.9,98,3.981,3.979,3.959,3.953,3.977,3.957,17.905,73.4,14,Waypoint,
37.7328495,-120.0946704,3109.5075023914,52.821524,0,0.8436351976,10800,2018-05-13 19:08:22,18,0,23.967,3109.5075023914,52.821524,0.3131716,1.07935698992,0,0,-0.671082,39.4, 1.9, -2.1,0,0,1024,1024,1024,1024,38.7,-89.9,98,3.981,3.979,3.959,3.953,3.977,3.957,17.905,73.4,14,Waypoint,
37.7328495,-120.0946703,3110.4917543914,53.805776,0,0.8352034388,10900,2018-05-13 19:08:22,18,0,23.967,3110.4917543914,53.805776,0.3131716,1.07935698992,0,0,-0.671082,39.5, 1.8, -2.4,0,0,1024,1024,1024,1024,38.7,-89.9,98,3.981,3.979,3.959,3.953,3.977,3.957,17.905,73.4,14,Waypoint,
37.7328494,-120.0946702,3111.4760063914,54.790028,0.223694,0.79236223008,11000,2018-05-13 19:08:22,18,0,23.94,3111.4760063914,54.790028,0.3131716,1.07935698992,0,0,-0.671082,39.7, 1.8, -2.5,0,0,1024,1024,1024,1024,38.7,-89.9,98,3.989,3.973,3.985,3.983,4.004,3.997,18.203,73.4,14,Waypoint,
37.7328494,-120.0946701,3112.4602583914,55.77428,0.223694,0.78550199364,11120,2018-05-13 19:08:23,18,0,23.94,3112.4602583914,55.77428,0.3131716,1.07935698992,0,0,-0.671082,39.9, 1.9, -2.6,0,0,1024,1024,1024,1024,38.7,-89.9,98,3.989,3.973,3.985,3.983,4.004,3.997,18.203,73.4,14,Waypoint,
37.7328494,-120.0946701,3113.4445103914,56.758532,0,0.78550199364,11200,2018-05-13 19:08:23,18,0,23.94,3113.4445103914,56.758532,0.3131716,1.07935698992,0,0,-0.671082,40.1, 2.1, -2.5,0,0,1024,1024,1024,1024,38.7,-89.9,98,3.989,3.973,3.985,3.983,4.004,3.997,18.203,73.4,14,Waypoint,
37.7328494,-120.0946701,3114.4287623914,57.742784,0,0.78550199364,11300,2018-05-13 19:08:23,18,0,23.94,3114.4287623914,57.742784,0.3131716,1.07935698992,0,0,-0.671082,40.2, 2.2, -2.3,0,0,1024,1024,1024,1024,38.8,-89.9,98,3.989,3.973,3.985,3.983,4.004,3.997,18.203,73.4,14,Waypoint,
37.7328494,-120.09467,3116.3972663914,59.711288,0,0.77964897508,11500,2018-05-13 19:08:23,19,0,23.94,3116.3972663914,59.711288,0.3131716,1.07935698992,0,0,-0.671082,40.2, 2.4, -2.1,0,0,1024,1024,1024,1024,38.8,-89.9,98,3.989,3.973,3.985,3.983,4.004,3.997,18.203,73.4,14,Waypoint,
37.7328494,-120.09467,3117.3815183914,60.69554,0,0.77964897508,11700,2018-05-13 19:08:23,19,0,23.94,3117.3815183914,60.69554,0.3131716,1.07935698992,0,0,-0.671082,40.3, 2.5, -1.9,0,0,1024,1024,1024,1024,38.8,-89.9,98,3.989,3.973,3.985,3.983,4.004,3.997,18.203,73.4,14,Waypoint,
37.7328494,-120.09467,3118.3657703914,61.679792,0,0.77964897508,11800,2018-05-13 19:08:23,19,0,23.94,3118.3657703914,61.679792,0.3131716,1.07935698992,0,0,-0.671082,40.3, 2.6, -1.7,0,0,1024,1024,1024,1024,38.8,-89.9,98,3.989,3.973,3.985,3.983,4.004,3.997,18.203,73.4,14,Waypoint,
37.7328494,-120.09467,3119.3500223914,62.664044,0,0.77964897508,11900,2018-05-13 19:08:23,19,0,23.94,3119.3500223914,62.664044,0.3131716,1.07935698992,0,0,-0.671082,40.2, 2.4, -1.8,0,0,1024,1024,1024,1024,38.9,-89.9,98,3.989,3.973,3.985,3.983,4.004,3.997,18.203,73.4,14,Waypoint,
37.7328494,-120.09467,3120.3342743914,63.648296,0,0.77964897508,12000,2018-05-13 19:08:23,19,0,23.94,3120.3342743914,63.648296,0.3131716,1.07935698992,0,0,-0.671082,40.2, 2.2, -1.7,0,0,1024,1024,1024,1024,38.9,-89.9,98,3.989,3.973,3.985,3.983,4.004,3.997,18.203,73.4,14,Waypoint,
37.7328494,-120.09467,3121.3185263914,64.632548,0,0.77964897508,12100,2018-05-13 19:08:24,19,0,23.94,3121.3185263914,64.632548,0.3131716,1.07935698992,0,0,-0.671082,40.2, 2.2, -1.7,0,0,1024,1024,1024,1024,38.9,-89.9,98,3.989,3.973,3.985,3.983,4.004,3.997,18.203,73.4,14,Waypoint,
37.7328493,-120.0946699,3123.2870303914,66.601052,0,0.73876970868,12200,2018-05-13 19:08:24,19,0,23.94,3123.2870303914,66.601052,0.3131716,1.07935698992,0,0,-0.671082,40, 2.2, -1.9,0,0,1024,1024,1024,1024,38.9,-89.9,98,3.989,3.973,3.985,3.983,4.004,3.997,18.203,73.4,14,Waypoint,
37.7328493,-120.0946699,3124.2712823914,67.585304,0,0.73876970868,12300,2018-05-13 19:08:24,19,0,23.94,3124.2712823914,67.585304,0.3131716,1.07935698992,0,0,-0.671082,39.9, 2.1, -1.8,0,0,1024,1024,1024,1024,38.9,-89.9,98,3.989,3.973,3.985,3.983,4.004,3.997,18.203,73.4,14,Waypoint,
37.7328493,-120.09467,3126.2397863914,69.553808,0,0.74382548312,12500,2018-05-13 19:08:24,19,0,23.94,3126.2397863914,69.553808,0.3131716,1.07935698992,0,0,-0.671082,39.9, 1.9, -1.8,0,0,1024,1024,1024,1024,38.9,-90,98,3.989,3.973,3.985,3.983,4.004,3.997,18.203,73.4,14,Waypoint,
37.7328492,-120.09467,3127.2240383914,70.53806,0,0.70806760796,12600,2018-05-13 19:08:24,19,0,23.94,3127.2240383914,70.53806,0.3131716,1.07935698992,0,0,-0.671082,40, 2.2, -1.6,0,0,1024,1024,1024,1024,39,-89.9,98,3.989,3.973,3.985,3.983,4.004,3.997,18.203,73.4,14,Waypoint,
37.7328492,-120.0946701,3128.2082903914,71.522312,0,0.71450789688,12700,2018-05-13 19:08:24,19,0,23.94,3128.2082903914,71.522312,0.3131716,1.07935698992,0,0,-0.671082,40, 2.2, -1.8,0,0,1024,1024,1024,1024,39,-89.9,98,3.989,3.973,3.985,3.983,4.004,3.997,18.203,73.4,14,Waypoint,
37.7328492,-120.0946701,3129.1925423914,72.506564,0,0.71450789688,12800,2018-05-13 19:08:24,19,0,23.94,3129.1925423914,72.506564,0.3131716,1.07935698992,0,0,-0.671082,40.1, 2.1, -1.9,0,0,1024,1024,1024,1024,39,-89.9,98,3.989,3.973,3.985,3.983,4.004,3.997,18.203,73.4,14,Waypoint,
37.7328492,-120.0946701,3130.1767943914,73.490816,0,0.71450789688,12900,2018-05-13 19:08:24,19,0,23.94,3130.1767943914,73.490816,0.3131716,1.07935698992,0,0,-0.671082,40.1, 2.2, -1.8,0,0,1024,1024,1024,1024,39,-89.9,98,3.989,3.973,3.985,3.983,4.004,3.997,18.203,73.4,14,Waypoint,
37.7328492,-120.0946701,3131.1610463914,74.475068,0,0.71450789688,13000,2018-05-13 19:08:24,19,0,23.965,3131.1610463914,74.475068,0.3131716,1.07935698992,0,0,-0.671082,40.1, 2.1, -1.6,0,0,1024,1024,1024,1024,39,-89.9,98,3.991,3.98,3.991,3.989,4.013,3.987,17.825,75.2,14,Waypoint,
37.7328492,-120.0946701,3131.8172143914,75.131236,0,0.71450789688,13100,2018-05-13 19:08:25,19,0,23.965,3131.8172143914,75.131236,0.3131716,1.07935698992,0,0,-0.671082,40.1, 2.2, -1.6,0,0,1024,1024,1024,1024,39,-89.9,98,3.991,3.98,3.991,3.989,4.013,3.987,17.825,75.2,14,Waypoint,
37.7328492,-120.0946701,3132.8014663914,76.115488,0,0.71450789688,13200,2018-05-13 19:08:25,19,0,23.965,3132.8014663914,76.115488,0.3131716,1.07935698992,0,0,-0.671082,40, 2.2, -1.7,0,0,1024,1024,1024,1024,39,-89.9,98,3.991,3.98,3.991,3.989,4.013,3.987,17.825,75.2,14,Waypoint,
37.7328493,-120.0946701,3133.7857183914,77.09974,0,0.74995737308,13300,2018-05-13 19:08:25,19,0,23.965,3133.7857183914,77.09974,0.3131716,1.07935698992,0,0,-0.671082,39.9, 2.3, -1.8,0,0,1024,1024,1024,1024,39.1,-89.9,98,3.991,3.98,3.991,3.989,4.013,3.987,17.825,75.2,14,Waypoint,
37.7328493,-120.0946702,3134.7699703914,78.083992,0,0.75713913184,13400,2018-05-13 19:08:25,19,0,23.965,3134.7699703914,78.083992,0.3131716,1.07935698992,0,0,-0.671082,39.9, 2.4, -1.6,0,0,1024,1024,1024,1024,39,-89.9,98,3.991,3.98,3.991,3.989,4.013,3.987,17.825,75.2,14,Waypoint,
37.7328493,-120.0946702,3135.7542223914,79.068244,0,0.75713913184,13500,2018-05-13 19:08:25,19,0,23.965,3135.7542223914,79.068244,0.3131716,1.07935698992,0,0,-0.671082,39.9, 2.5, -1.4,0,0,1024,1024,1024,1024,39,-89.9,98,3.991,3.98,3.991,3.989,4.013,3.987,17.825,75.2,14,Waypoint,
37.7328493,-120.0946703,3136.7384743914,80.052496,0,0.76534123184,13610,2018-05-13 19:08:25,19,0,23.965,3136.7384743914,80.052496,0.3131716,1.07935698992,0,0,-0.671082,39.9, 2.5, -1.3,0,0,1024,1024,1024,1024,39,-89.9,98,3.991,3.98,3.991,3.989,4.013,3.987,17.825,75.2,14,Waypoint,
37.7328493,-120.0946703,3137.7227263914,81.036748,0,0.76534123184,13700,2018-05-13 19:08:25,19,0,23.965,3137.7227263914,81.036748,0.3131716,1.07935698992,0,0,-0.671082,40, 2.4, -1.3,0,0,1024,1024,1024,1024,39,-89.9,98,3.991,3.98,3.991,3.989,4.013,3.987,17.825,75.2,14,Waypoint,
37.7328493,-120.0946703,3138.7069783914,82.021,0,0.76534123184,13800,2018-05-13 19:08:25,19,0,23.965,3138.7069783914,82.021,0.3131716,1.07935698992,0,0,-0.671082,40, 2.3, -1.3,0,0,1024,1024,1024,1024,39.1,-90,98,3.991,3.98,3.991,3.989,4.013,3.987,17.825,75.2,14,Waypoint,
37.7328493,-120.0946704,3139.6912303914,83.005252,0,0.77453414552,13900,2018-05-13 19:08:25,19,0,23.965,3139.6912303914,83.005252,0.3131716,1.07935698992,0,0,-0.671082,40.1, 2.1, -1.3,0,0,1024,1024,1024,1024,39,-90,98,3.991,3.98,3.991,3.989,4.013,3.987,17.825,75.2,14,Waypoint,
37.7328493,-120.0946704,3140.6754823914,83.989504,0,0.77453414552,14000,2018-05-13 19:08:25,19,0,23.911,3140.6754823914,83.989504,0.3131716,1.07935698992,0,0,-0.671082,40.1, 2.1, -1.3,0,0,1024,1024,1024,1024,39.1,-90,98,3.974,3.966,3.998,3.997,4.011,3.992,17.753,75.2,14,Waypoint,
37.7328492,-120.0946705,3141.6597343914,84.973756,0,0.7508694466,14110,2018-05-13 19:08:26,19,0,23.911,3141.6597343914,84.973756,0.3131716,1.07935698992,0,0,-0.671082,40.1, 2.1, -1.4,0,0,1024,1024,1024,1024,39.1,-90,98,3.974,3.966,3.998,3.997,4.011,3.992,17.753,75.2,14,Waypoint,
37.7328493,-120.0946705,3142.6439863914,85.958008,0,0.7846785028,14300,2018-05-13 19:08:26,19,0,23.911,3142.6439863914,85.958008,0.3131716,1.07935698992,0,0,-0.671082,40, 2.1, -1.4,0,0,1024,1024,1024,1024,39,-89.9,98,3.974,3.966,3.998,3.997,4.011,3.992,17.753,75.2,14,Waypoint,
37.7328493,-120.0946705,3143.9563223914,87.270344,0,0.7846785028,14400,2018-05-13 19:08:26,19,0,23.911,3143.9563223914,87.270344,0.3131716,1.07935698992,0,0,-0.671082,39.9, 2.2, -1.4,0,0,1024,1024,1024,1024,39,-89.9,98,3.974,3.966,3.998,3.997,4.011,3.992,17.753,75.2,14,Waypoint,
37.7328493,-120.0946705,3144.6124903914,87.926512,0,0.7846785028,14500,2018-05-13 19:08:26,19,0,23.911,3144.6124903914,87.926512,0.3131716,1.07935698992,0,0,-0.671082,39.9, 2.3, -1.3,0,0,1024,1024,1024,1024,39,-89.9,98,3.974,3.966,3.998,3.997,4.011,3.992,17.753,75.2,14,Waypoint,
37.7328493,-120.0946706,3146.9090783914,90.2231,0,0.79574149528,14600,2018-05-13 19:08:26,19,0,23.911,3146.9090783914,90.2231,0.3131716,1.07935698992,0,0,-0.671082,39.8, 2.3, -0.9,0,0,1024,1024,1024,1024,39,-89.9,98,3.974,3.966,3.998,3.997,4.011,3.992,17.753,75.2,14,Waypoint,
37.7328493,-120.0946706,3147.8933303914,91.207352,0,0.79574149528,14700,2018-05-13 19:08:26,19,0,23.911,3147.8933303914,91.207352,0.3131716,1.07935698992,0,0,-0.671082,39.7, 2.1, -1.2,0,0,1024,1024,1024,1024,39.1,-90,98,3.974,3.966,3.998,3.997,4.011,3.992,17.753,75.2,14,Waypoint,
37.7328493,-120.0946705,3148.8775823914,92.191604,0.223694,0.7846785028,14800,2018-05-13 19:08:26,19,0,23.911,3148.8775823914,92.191604,0.3131716,1.07935698992,0,0,-0.671082,39.7, 2.6, -1.6,0,0,1024,1024,1024,1024,39.1,-89.9,98,3.974,3.966,3.998,3.997,4.011,3.992,17.753,75.2,14,Waypoint,
37.7328493,-120.0946704,3149.5337503914,92.847772,0.223694,0.77453414552,14900,2018-05-13 19:08:26,19,0,23.911,3149.5337503914,92.847772,0.3131716,1.07935698992,0,0,-0.671082,39.6, 2.9, -1.9,0,0,1024,1024,1024,1024,39.1,-89.9,98,3.974,3.966,3.998,3.997,4.011,3.992,17.753,75.2,14,Waypoint,
37.7328493,-120.0946704,3150.5180023914,93.832024,0.223694,0.77453414552,15000,2018-05-13 19:08:26,19,0,23.911,3150.5180023914,93.832024,0.3131716,1.07935698992,0,0,-0.671082,39.6, 3, -2.4,0,0,1024,1024,1024,1024,39.1,-89.9,98,3.982,3.961,3.988,3.979,3.994,3.994,17.753,75.2,14,Waypoint,
37.7328493,-120.0946703,3151.8303383914,95.14436,0.223694,0.76534123184,15100,2018-05-13 19:08:27,19,0,23.911,3151.8303383914,95.14436,0.3131716,1.07935698992,0,0,-0.671082,39.6, 3.2, -2.8,0,0,1024,1024,1024,1024,39.1,-89.9,98,3.982,3.961,3.988,3.979,3.994,3.994,17.753,75.2,14,Waypoint,
37.7328493,-120.0946702,3152.8145903914,96.128612,0.223694,0.75713913184,15200,2018-05-13 19:08:27,19,0,23.911,3152.8145903914,96.128612,0.3131716,1.07935698992,0,0,-0.671082,39.6, 3.5, -2.7,0,0,1024,1024,1024,1024,39.1,-89.9,98,3.982,3.961,3.988,3.979,3.994,3.994,17.753,75.2,14,Waypoint,
37.7328493,-120.0946701,3153.7988423914,97.112864,0,0.74995737308,15300,2018-05-13 19:08:27,19,0,23.911,3153.7988423914,97.112864,0.3131716,1.07935698992,0,0,-0.671082,39.6, 3.9, -2.5,0,0,1024,1024,1024,1024,39.1,-89.9,98,3.982,3.961,3.988,3.979,3.994,3.994,17.753,75.2,14,Waypoint,
37.7328493,-120.09467,3154.7830943914,98.097116,0,0.74382548312,15400,2018-05-13 19:08:27,19,0,23.911,3154.7830943914,98.097116,0.3131716,1.07935698992,0,0,-0.671082,39.6, 3.8, -2.6,0,0,1024,1024,1024,1024,39.1,-89.9,98,3.982,3.961,3.988,3.979,3.994,3.994,17.753,75.2,14,Waypoint,
37.7328493,-120.09467,3155.7673463914,99.081368,0,0.74382548312,15500,2018-05-13 19:08:27,19,0,23.911,3155.7673463914,99.081368,0.3131716,1.07935698992,0,0,-0.671082,39.8, 3.6, -2.6,0,0,1024,1024,1024,1024,39.1,-89.9,98,3.982,3.961,3.988,3.979,3.994,3.994,17.753,75.2,14,Waypoint,
37.7328493,-120.09467,3156.7515983914,100.06562,0,0.74382548312,15600,2018-05-13 19:08:27,19,0,23.911,3156.7515983914,100.06562,0.3131716,1.07935698992,0,0,-0.671082,39.9, 3.3, -2.3,0,0,1024,1024,1024,1024,39.1,-89.9,98,3.982,3.961,3.988,3.979,3.994,3.994,17.753,75.2,14,Waypoint,
37.7328492,-120.09467,3157.7358503914,101.049872,0,0.70806760796,15800,2018-05-13 19:08:27,19,0,23.911,3157.7358503914,101.049872,0.3131716,1.07935698992,0,0,-0.671082,40.1, 3.1, -2.4,0,0,1024,1024,1024,1024,39.1,-90,98,3.982,3.961,3.988,3.979,3.994,3.994,17.753,75.2,14,Waypoint,
37.7328492,-120.09467,3158.7201023914,102.034124,0,0.70806760796,15900,2018-05-13 19:08:27,19,0,23.911,3158.7201023914,102.034124,0.3131716,1.07935698992,0,0,-0.671082,40.2, 2.7, -2.4,0,0,1024,1024,1024,1024,39.1,-90,98,3.982,3.961,3.988,3.979,3.994,3.994,17.753,75.2,14,Waypoint,
37.7328491,-120.09467,3159.7043543914,103.018376,0,0.67238847296,16000,2018-05-13 19:08:27,19,0,23.914,3159.7043543914,103.018376,0.3131716,1.07935698992,0,0,-0.671082,40.3, 2.2, -2.2,0,0,1024,1024,1024,1024,39.1,-90,98,3.975,3.967,3.991,3.979,3.994,3.994,17.474,75.2,14,Waypoint,
37.732849,-120.09467,3160.6886063914,104.002628,0,0.63680120148,16100,2018-05-13 19:08:28,19,0,23.914,3160.6886063914,104.002628,0.3131716,1.07935698992,0,0,-0.671082,40.4, 1.9, -2.3,0,0,1024,1024,1024,1024,39.1,-90,98,3.975,3.967,3.991,3.979,3.994,3.994,17.474,75.2,14,Waypoint,
37.7328489,-120.09467,3161.6728583914,104.98688,0,0.60132219772,16200,2018-05-13 19:08:28,19,0,23.914,3161.6728583914,104.98688,0.3131716,1.07935698992,0,0,-0.671082,40.3, 1.8, -2.7,0,0,1024,1024,1024,1024,39.1,-89.9,98,3.975,3.967,3.991,3.979,3.994,3.994,17.474,75.2,14,Waypoint,
37.7328488,-120.09467,3162.9851943914,106.299216,0,0.56597114672,16300,2018-05-13 19:08:28,19,0,23.914,3162.9851943914,106.299216,0.3131716,1.07935698992,0,0,-0.671082,40.3, 2.1, -2.9,0,0,1024,1024,1024,1024,39.1,-90,98,3.975,3.967,3.991,3.979,3.994,3.994,17.474,75.2,14,Waypoint,
37.7328487,-120.09467,3163.9694463914,107.283468,0,0.5307742952,16400,2018-05-13 19:08:28,19,0,23.914,3163.9694463914,107.283468,0.3131716,1.07935698992,0,0,-0.671082,40.3, 2, -2.9,0,0,1024,1024,1024,1024,39.1,-90,98,3.975,3.967,3.991,3.979,3.994,3.994,17.474,75.2,14,Waypoint,
37.7328486,-120.09467,3164.9536983914,108.26772,0.223694,0.49576117072,16500,2018-05-13 19:08:28,19,0,23.914,3164.9536983914,108.26772,0.3131716,1.07935698992,0,0,-0.671082,40.3, 1.5, -3.1,0,0,1024,1024,1024,1024,39.1,-90,98,3.975,3.967,3.991,3.979,3.994,3.994,17.474,75.2,14,Waypoint,
37.7328483,-120.09467,3166.9222023914,110.236224,0.223694,0.3923392514,16600,2018-05-13 19:08:28,19,0,23.914,3166.9222023914,110.236224,0.3131716,1.07935698992,0,0,-0.671082,40.4, 0.8, -3.3,0,0,1024,1024,1024,1024,39.1,-90,98,3.975,3.967,3.991,3.979,3.994,3.994,17.474,75.2,14,Waypoint,
37.732848,-120.0946701,3168.8907063914,112.204728,0.223694,0.308545285464,16800,2018-05-13 19:08:28,19,0,23.914,3168.8907063914,112.204728,0.3131716,1.07935698992,0,0,-0.671082,40.3, 0.3, -3.6,0,0,1024,1024,1024,1024,39.1,-90,98,3.975,3.967,3.991,3.979,3.994,3.994,17.474,75.2,14,Waypoint,
37.7328478,-120.0946701,3169.8749583914,113.18898,0.223694,0.251500664216,16900,2018-05-13 19:08:28,19,0,23.914,3169.8749583914,113.18898,0.3131716,1.07935698992,0,0,-0.671082,40.3, 0, -3.8,0,0,1024,1024,1024,1024,39.1,-90,98,3.975,3.967,3.991,3.979,3.994,3.994,17.474,75.2,14,Waypoint,
37.7328477,-120.0946702,3170.8592103914,114.173232,0.223694,0.249190952856,17000,2018-05-13 19:08:28,19,0,23.846,3170.8592103914,114.173232,0.3131716,1.07935698992,0,0,-0.671082,40.3, -0.2, -4,0,0,1024,1024,1024,1024,39.1,-89.9,98,3.966,3.956,3.98,3.975,3.985,3.984,17.987,75.2,14,Waypoint,
37.7328475,-120.0946701,3171.8434623914,115.157484,0.223694,0.18787894302,17100,2018-05-13 19:08:29,19,0,23.846,3171.8434623914,115.157484,0.3131716,1.07935698992,0,0,-0.671082,40.2, -0.3, -4.5,0,0,1024,1024,1024,1024,39.1,-89.9,98,3.966,3.956,3.98,3.975,3.985,3.984,17.987,75.2,14,Waypoint,
37.7328473,-120.0946701,3172.8277143914,116.141736,0.223694,0.173129598716,17200,2018-05-13 19:08:29,19,0,23.846,3172.8277143914,116.141736,0.3131716,1.07935698992,0,0,-0.671082,40.2, -0.2, -5,0,0,1024,1024,1024,1024,39.1,-89.9,98,3.966,3.956,3.98,3.975,3.985,3.984,17.987,75.2,14,Waypoint,
37.7328471,-120.09467,3173.8119663914,117.125988,0.223694,0.16167815478,17300,2018-05-13 19:08:29,19,0,23.846,3173.8119663914,117.125988,0.3131716,1.07935698992,0,0,-0.671082,40.3, -0.1, -5.4,0,0,1024,1024,1024,1024,39.1,-89.9,98,3.966,3.956,3.98,3.975,3.985,3.984,17.987,75.2,14,Waypoint,
37.732847,-120.09467,3174.7962183914,118.11024,0,0.181095478236,17400,2018-05-13 19:08:29,19,0,23.846,3174.7962183914,118.11024,0.3131716,1.07935698992,0,0,-0.671082,40.3, 0, -5.4,0,0,1024,1024,1024,1024,39.1,-89.9,98,3.966,3.956,3.98,3.975,3.985,3.984,17.987,75.2,14,Waypoint,
37.7328468,-120.09467,3175.7804703914,119.094492,0,0.232581044188,17500,2018-05-13 19:08:29,19,0,23.846,3175.7804703914,119.094492,0.3131716,1.07935698992,0,0,-0.671082,40.3, -0.1, -5.2,0,0,1024,1024,1024,1024,39.1,-90,98,3.966,3.956,3.98,3.975,3.985,3.984,17.987,75.2,14,Waypoint,
37.7328467,-120.09467,3176.7647223914,120.078744,0,0.26217684566,17600,2018-05-13 19:08:29,19,0,23.846,3176.7647223914,120.078744,0.3131716,1.07935698992,0,0,-0.671082,40.3, -0.4, -5,0,0,1024,1024,1024,1024,39.1,-90,98,3.966,3.956,3.98,3.975,3.985,3.984,17.987,75.2,14,Waypoint,
37.7328466,-120.09467,3177.4208903914,120.734912,0,0.29332842146,17700,2018-05-13 19:08:29,19,0,23.846,3177.4208903914,120.734912,0.3131716,1.07935698992,0,0,-0.671082,40.1, -0.6, -4.6,0,0,1024,1024,1024,1024,39.1,-90,98,3.966,3.956,3.98,3.975,3.985,3.984,17.987,75.2,14,Waypoint,
37.7328465,-120.09467,3178.4051423914,121.719164,0,0.325589905432,17800,2018-05-13 19:08:29,19,0,23.846,3178.4051423914,121.719164,0.3131716,1.07935698992,0,0,-0.671082,40, -0.8, -4.6,0,0,1024,1024,1024,1024,39.1,-90,98,3.966,3.956,3.98,3.975,3.985,3.984,17.987,75.2,14,Waypoint,
37.7328465,-120.0946701,3179.3893943914,122.703416,0,0.33936352792,17900,2018-05-13 19:08:29,19,0,23.846,3179.3893943914,122.703416,0.3131716,1.07935698992,0,0,-0.671082,39.8, -0.9, -4.4,0,0,1024,1024,1024,1024,39.1,-89.9,98,3.966,3.956,3.98,3.975,3.985,3.984,17.987,75.2,14,Waypoint,
37.7328465,-120.0946701,3180.0455623914,123.359584,0,0.33936352792,18000,2018-05-13 19:08:29,19,0,23.71,3180.0455623914,123.359584,0.3131716,1.07935698992,0,0,-0.671082,39.6, -0.8, -4,0,0,1024,1024,1024,1024,39.1,-89.9,97,3.95,3.939,3.947,3.95,3.976,3.954,19.148,75.2,14,Waypoint,
37.7328465,-120.0946701,3181.0298143914,124.343836,0,0.33936352792,18100,2018-05-13 19:08:30,19,0,23.71,3181.0298143914,124.343836,0.3131716,1.07935698992,0,0,-0.671082,39.4, -0.2, -3.7,0,0,1024,1024,1024,1024,39.1,-89.9,97,3.95,3.939,3.947,3.95,3.976,3.954,19.148,75.2,14,Waypoint,
37.7328465,-120.09467,3182.0140663914,125.328088,0,0.325589905432,18200,2018-05-13 19:08:30,19,0,23.71,3182.0140663914,125.328088,0.3131716,1.07935698992,0,0,-0.671082,39.5, 0.4, -3.9,0,0,1024,1024,1024,1024,39.1,-89.9,97,3.95,3.939,3.947,3.95,3.976,3.954,19.148,75.2,14,Waypoint,
37.7328466,-120.09467,3183.9825703914,127.296592,0,0.29332842146,18400,2018-05-13 19:08:30,19,0,23.71,3183.9825703914,127.296592,0.3131716,1.07935698992,0,0,-0.671082,39.6, 1.2, -4.2,0,0,1024,1024,1024,1024,39.1,-89.9,97,3.95,3.939,3.947,3.95,3.976,3.954,19.148,75.2,14,Waypoint,
37.7328466,-120.0946699,3184.9668223914,128.280844,0,0.280264444664,18600,2018-05-13 19:08:30,19,0,23.71,3184.9668223914,128.280844,0.3131716,1.07935698992,0,0,-0.671082,39.7, 1.3, -4.2,0,0,1024,1024,1024,1024,39.1,-89.9,97,3.95,3.939,3.947,3.95,3.976,3.954,19.148,75.2,14,Waypoint,
37.7328466,-120.0946699,3185.9510743914,129.265096,0,0.280264444664,18700,2018-05-13 19:08:30,19,0,23.71,3185.9510743914,129.265096,0.3131716,1.07935698992,0,0,-0.671082,40, 1.3, -4.2,0,0,1024,1024,1024,1024,39.1,-89.9,97,3.95,3.939,3.947,3.95,3.976,3.954,19.148,75.2,14,Waypoint,
37.7328467,-120.0946698,3186.6072423914,129.921264,0,0.235403878924,18800,2018-05-13 19:08:30,19,0,23.71,3186.6072423914,129.921264,0.3131716,1.07935698992,0,0,-0.671082,40.1, 1.2, -4.1,0,0,1024,1024,1024,1024,39.1,-90,97,3.95,3.939,3.947,3.95,3.976,3.954,19.148,75.2,14,Waypoint,
37.7328467,-120.0946698,3187.5914943914,130.905516,0,0.235403878924,18900,2018-05-13 19:08:30,19,0,23.71,3187.5914943914,130.905516,0.3131716,1.07935698992,0,0,-0.671082,40.1, 1, -4.1,0,0,1024,1024,1024,1024,39.1,-89.9,97,3.95,3.939,3.947,3.95,3.976,3.954,19.148,75.2,14,Waypoint,
37.7328468,-120.0946698,3188.5757463914,131.889768,0,0.201921266304,19000,2018-05-13 19:08:30,19,0,23.688,3188.5757463914,131.889768,0.3131716,1.07935698992,0,0,-0.671082,40.1, 1, -4,0,0,1024,1024,1024,1024,39.1,-89.9,97,3.941,3.93,3.947,3.937,3.963,3.959,19.127,75.2,14,Waypoint,
37.732847,-120.0946697,3190.5442503914,133.858272,0.223694,0.1237368806,19100,2018-05-13 19:08:31,19,0,23.688,3190.5442503914,133.858272,0.3131716,1.07935698992,0,0,-0.671082,40, 1.5, -3.9,0,0,1024,1024,1024,1024,39.1,-89.9,97,3.941,3.93,3.947,3.937,3.963,3.959,19.127,75.2,14,Waypoint,
37.732847,-120.0946697,3191.5285023914,134.842524,0,0.1237368806,19200,2018-05-13 19:08:31,19,0,23.688,3191.5285023914,134.842524,0.3131716,1.07935698992,0,0,-0.671082,40, 1.5, -3.7,0,0,1024,1024,1024,1024,39.1,-89.9,97,3.941,3.93,3.947,3.937,3.963,3.959,19.127,75.2,14,Waypoint,
37.7328471,-120.0946697,3192.5127543914,135.826776,0,0.093032483292,19300,2018-05-13 19:08:31,19,0,23.688,3192.5127543914,135.826776,0.3131716,1.07935698992,0,0,-0.671082,40.1, 1.4, -3.8,0,0,1024,1024,1024,1024,39.1,-89.9,97,3.941,3.93,3.947,3.937,3.963,3.959,19.127,75.2,14,Waypoint,
37.7328472,-120.0946697,3193.4970063914,136.811028,0,0.06827592082,19400,2018-05-13 19:08:31,19,0,23.688,3193.4970063914,136.811028,0.3131716,1.07935698992,0,0,-0.671082,40.2, 1.3, -3.7,0,0,1024,1024,1024,1024,39.1,-89.9,97,3.941,3.93,3.947,3.937,3.963,3.959,19.127,75.2,14,Waypoint,
37.7328473,-120.0946697,3194.4812583914,137.79528,0,0.0577099756,19500,2018-05-13 19:08:31,19,0,23.688,3194.4812583914,137.79528,0.3131716,1.07935698992,0,0,-0.671082,40.3, 1.3, -3.6,0,0,1024,1024,1024,1024,39.1,-89.9,97,3.941,3.93,3.947,3.937,3.963,3.959,19.127,75.2,14,Waypoint,
37.7328474,-120.0946697,3196.4497623914,139.763784,0,0.06827592082,19700,2018-05-13 19:08:31,19,0,23.688,3196.4497623914,139.763784,0.3131716,1.07935698992,0,0,-0.671082,40.2, 1.6, -3.8,0,0,1024,1024,1024,1024,39.1,-89.9,97,3.941,3.93,3.947,3.937,3.963,3.959,19.127,75.2,14,Waypoint,
37.7328475,-120.0946697,3197.4340143914,140.748036,0,0.093032483292,19800,2018-05-13 19:08:31,19,0,23.688,3197.4340143914,140.748036,0.3131716,1.07935698992,0,0,-0.671082,40.1, 1.5, -3.7,0,0,1024,1024,1024,1024,39.1,-89.9,97,3.941,3.93,3.947,3.937,3.963,3.959,19.127,75.2,14,Waypoint,
37.7328475,-120.0946698,3198.7463503914,142.060372,0,0.11321686714,19900,2018-05-13 19:08:31,19,0,23.688,3198.7463503914,142.060372,0.3131716,1.07935698992,0,0,-0.671082,40.1, 0.9, -3.5,0,0,1024,1024,1024,1024,39.1,-90,97,3.941,3.93,3.947,3.937,3.963,3.959,19.127,75.2,14,Waypoint,
37.7328476,-120.0946699,3199.7306023914,143.044624,0,0.159066278056,20000,2018-05-13 19:08:31,19,0,23.659,3199.7306023914,143.044624,0.3131716,1.07935698992,0,0,-0.671082,40.1, 0.3, -3.1,0,0,1024,1024,1024,1024,39.1,-90,97,3.937,3.932,3.954,3.937,3.965,3.954,19.26,75.2,14,Waypoint,
37.7328477,-120.09467,3200.7148543914,144.028876,0,0.205215885832,20100,2018-05-13 19:08:32,19,0,23.659,3200.7148543914,144.028876,0.3131716,1.07935698992,0,0,-0.671082,40.1, 0.2, -2.8,0,0,1024,1024,1024,1024,39.1,-90,97,3.937,3.932,3.954,3.937,3.965,3.954,19.26,75.2,14,Waypoint,
37.7328477,-120.0946701,3201.6991063914,145.013128,0,0.22643373428,20200,2018-05-13 19:08:32,19,0,23.659,3201.6991063914,145.013128,0.3131716,1.07935698992,0,0,-0.671082,40, 0.3, -2.6,0,0,1024,1024,1024,1024,39.1,-89.9,97,3.937,3.932,3.954,3.937,3.965,3.954,19.26,75.2,14,Waypoint,
37.7328478,-120.0946702,3202.6833583914,145.99738,0,0.272169956216,20300,2018-05-13 19:08:32,19,0,23.659,3202.6833583914,145.99738,0.3131716,1.07935698992,0,0,-0.671082,39.9, 0.5, -2.5,0,0,1024,1024,1024,1024,39.1,-89.9,97,3.937,3.932,3.954,3.937,3.965,3.954,19.26,75.2,14,Waypoint,
37.7328479,-120.0946702,3203.6676103914,146.981632,0,0.29785762108,20400,2018-05-13 19:08:32,19,0,23.659,3203.6676103914,146.981632,0.3131716,1.07935698992,0,0,-0.671082,39.9, 0.9, -2.7,0,0,1024,1024,1024,1024,39.1,-89.9,97,3.937,3.932,3.954,3.937,3.965,3.954,19.26,75.2,14,Waypoint,
37.7328479,-120.0946702,3204.6518623914,147.965884,0,0.29785762108,20500,2018-05-13 19:08:32,19,0,23.659,3204.6518623914,147.965884,0.3131716,1.07935698992,0,0,-0.671082,39.9, 1, -2.9,0,0,1024,1024,1024,1024,39.1,-90,97,3.937,3.932,3.954,3.937,3.965,3.954,19.26,75.2,14,Waypoint,
37.732848,-120.0946703,3205.6361143914,148.950136,0,0.3442585412,20600,2018-05-13 19:08:32,19,0,23.659,3205.6361143914,148.950136,0.3131716,1.07935698992,0,0,-0.671082,39.9, 0.8, -3.2,0,0,1024,1024,1024,1024,39.1,-90,97,3.937,3.932,3.954,3.937,3.965,3.954,19.26,75.2,14,Waypoint,
37.732848,-120.0946703,3207.9327023914,151.246724,0,0.3442585412,20800,2018-05-13 19:08:32,19,0,23.659,3207.9327023914,151.246724,0.3131716,1.07935698992,0,0,-0.671082,39.9, 0.5, -3.6,0,0,1024,1024,1024,1024,39.1,-89.9,97,3.937,3.932,3.954,3.937,3.965,3.954,19.26,75.2,14,Waypoint,
37.7328481,-120.0946703,3208.9169543914,152.230976,0,0.372129277,20900,2018-05-13 19:08:32,19,0,23.659,3208.9169543914,152.230976,0.3131716,1.07935698992,0,0,-0.671082,39.8, 0.8, -3.6,0,0,1024,1024,1024,1024,39.1,-89.9,97,3.937,3.932,3.954,3.937,3.965,3.954,19.26,75.2,14,Waypoint,
37.7328481,-120.0946703,3209.9012063914,153.215228,0,0.372129277,21000,2018-05-13 19:08:32,19,0,23.75,3209.9012063914,153.215228,0.3131716,1.07935698992,0,0,-0.671082,39.9, 1.1, -3.4,0,0,1024,1024,1024,1024,39.1,-89.9,97,3.937,3.932,3.954,3.937,3.965,3.954,18.049,75.2,14,Waypoint,
37.7328483,-120.0946703,3211.8697103914,155.183732,0,0.4317421398,21200,2018-05-13 19:08:33,19,0,23.75,3211.8697103914,155.183732,0.3131716,1.07935698992,0,0,-0.671082,40, 1.5, -3.4,0,0,1024,1024,1024,1024,39.1,-89.9,97,3.937,3.932,3.954,3.937,3.965,3.954,18.049,75.2,14,Waypoint,
37.7328483,-120.0946703,3212.8539623914,156.167984,0,0.4317421398,21400,2018-05-13 19:08:33,19,0,23.75,3212.8539623914,156.167984,0.3131716,1.07935698992,0,0,-0.671082,40.1, 1.7, -3.5,0,0,1024,1024,1024,1024,39.1,-89.9,97,3.937,3.932,3.954,3.937,3.965,3.954,18.049,75.2,14,Waypoint,
37.7328484,-120.0946702,3213.8382143914,157.152236,0,0.4492946338,21500,2018-05-13 19:08:33,19,0,23.75,3213.8382143914,157.152236,0.3131716,1.07935698992,0,0,-0.671082,40.2, 1.6, -3.5,0,0,1024,1024,1024,1024,39.1,-89.9,97,3.937,3.932,3.954,3.937,3.965,3.954,18.049,75.2,14,Waypoint,
37.7328484,-120.0946702,3214.8224663914,158.136488,0,0.4492946338,21600,2018-05-13 19:08:33,19,0,23.75,3214.8224663914,158.136488,0.3131716,1.07935698992,0,0,-0.671082,40.3, 1.6, -3.3,0,0,1024,1024,1024,1024,39.1,-89.9,97,3.937,3.932,3.954,3.937,3.965,3.954,18.049,75.2,14,Waypoint,
37.7328484,-120.0946702,3215.8067183914,159.12074,0,0.4492946338,21700,2018-05-13 19:08:33,19,0,23.75,3215.8067183914,159.12074,0.3131716,1.07935698992,0,0,-0.671082,40.3, 1.5, -3.2,0,0,1024,1024,1024,1024,39.1,-89.9,97,3.937,3.932,3.954,3.937,3.965,3.954,18.049,75.2,14,Waypoint,
37.7328484,-120.0946703,3217.7752223914,161.089244,0,0.46298557912,21800,2018-05-13 19:08:33,19,0,23.75,3217.7752223914,161.089244,0.3131716,1.07935698992,0,0,-0.671082,40.3, 0.9, -3.2,0,0,1024,1024,1024,1024,39.1,-90,97,3.937,3.932,3.954,3.937,3.965,3.954,18.049,75.2,14,Waypoint,
37.7328484,-120.0946704,3218.7594743914,162.073496,0,0.47802823052,21900,2018-05-13 19:08:33,19,0,23.75,3218.7594743914,162.073496,0.3131716,1.07935698992,0,0,-0.671082,40.3, 0.6, -3.2,0,0,1024,1024,1024,1024,39.1,-90,97,3.937,3.932,3.954,3.937,3.965,3.954,18.049,75.2,14,Waypoint,
37.7328484,-120.0946705,3219.7437263914,163.057748,0,0.49429791608,22000,2018-05-13 19:08:33,19,0,23.75,3219.7437263914,163.057748,0.3131716,1.07935698992,0,0,-0.671082,40.2, 0.4, -3.3,0,0,1024,1024,1024,1024,39.1,-90,97,3.95,3.949,3.951,3.96,3.975,3.969,18.049,75.2,14,Waypoint,
37.7328484,-120.0946705,3220.7279783914,164.042,0,0.49429791608,22100,2018-05-13 19:08:34,19,0,23.75,3220.7279783914,164.042,0.3131716,1.07935698992,0,0,-0.671082,40.1, 0.2, -3.2,0,0,1024,1024,1024,1024,39.1,-90,97,3.95,3.949,3.951,3.96,3.975,3.969,18.049,75.2,14,Waypoint,
37.7328484,-120.0946705,3221.7122303914,165.026252,0,0.49429791608,22200,2018-05-13 19:08:34,19,0,23.75,3221.7122303914,165.026252,0.3131716,1.07935698992,0,0,-0.671082,39.9, 0.2, -3,0,0,1024,1024,1024,1024,39.1,-90,97,3.95,3.949,3.951,3.96,3.975,3.969,18.049,75.2,14,Waypoint,
37.7328484,-120.0946706,3222.6964823914,166.010504,0,0.5116798064,22300,2018-05-13 19:08:34,19,0,23.75,3222.6964823914,166.010504,0.3131716,1.07935698992,0,0,-0.671082,39.6, 0.2, -2.9,0,0,1024,1024,1024,1024,39.1,-90,97,3.95,3.949,3.951,3.96,3.975,3.969,18.049,75.2,14,Waypoint,
37.7328484,-120.0946707,3223.6807343914,166.994756,0,0.53006235292,22400,2018-05-13 19:08:34,19,0,23.75,3223.6807343914,166.994756,0.3131716,1.07935698992,0,0,-0.671082,39.4, 0.4, -2.9,0,0,1024,1024,1024,1024,39.1,-89.9,97,3.95,3.949,3.951,3.96,3.975,3.969,18.049,75.2,14,Waypoint,
37.7328484,-120.0946707,3224.6649863914,167.979008,0,0.53006235292,22500,2018-05-13 19:08:34,19,0,23.75,3224.6649863914,167.979008,0.3131716,1.07935698992,0,0,-0.671082,39.4, 0.7, -2.5,0,0,1024,1024,1024,1024,39.1,-89.9,97,3.95,3.949,3.951,3.96,3.975,3.969,18.049,75.2,14,Waypoint,
37.7328484,-120.0946708,3225.6492383914,168.96326,0,0.5493438496,22600,2018-05-13 19:08:34,19,0,23.75,3225.6492383914,168.96326,0.3131716,1.07935698992,0,0,-0.671082,39.4, 0.7, -2.2,0,0,1024,1024,1024,1024,39.1,-89.9,97,3.95,3.949,3.951,3.96,3.975,3.969,18.049,75.2,14,Waypoint,
37.7328485,-120.0946709,3226.9615743914,170.275596,0,0.59571524216,22700,2018-05-13 19:08:34,19,0,23.75,3226.9615743914,170.275596,0.3131716,1.07935698992,0,0,-0.671082,39.6, 0.8, -2.2,0,0,1024,1024,1024,1024,39.1,-89.9,97,3.95,3.949,3.951,3.96,3.975,3.969,18.049,75.2,14,Waypoint,
37.7328485,-120.0946709,3227.9458263914,171.259848,0,0.59571524216,22800,2018-05-13 19:08:34,19,0,23.75,3227.9458263914,171.259848,0.3131716,1.07935698992,0,0,-0.671082,39.7, 0.7, -2,0,0,1024,1024,1024,1024,39.1,-90,97,3.95,3.949,3.951,3.96,3.975,3.969,18.049,75.2,14,Waypoint,
37.7328485,-120.094671,3228.9300783914,172.2441,0,0.615649626,22900,2018-05-13 19:08:34,19,0,23.75,3228.9300783914,172.2441,0.3131716,1.07935698992,0,0,-0.671082,39.7, 0.6, -1.8,0,0,1024,1024,1024,1024,39.1,-90,97,3.95,3.949,3.951,3.96,3.975,3.969,18.049,75.2,14,Waypoint,
37.7328485,-120.094671,3229.9143303914,173.228352,0,0.615649626,23000,2018-05-13 19:08:34,19,0,23.701,3229.9143303914,173.228352,0.3131716,1.07935698992,0,0,-0.671082,39.6, 0.8, -1.7,0,0,1024,1024,1024,1024,39.1,-89.9,97,3.936,3.931,3.948,3.945,3.966,3.967,18.274,75.2,14,Waypoint,
37.7328486,-120.094671,3230.8985823914,174.212604,0,0.64210631976,23100,2018-05-13 19:08:35,19,0,23.701,3230.8985823914,174.212604,0.3131716,1.07935698992,0,0,-0.671082,39.5, 0.9, -1.7,0,0,1024,1024,1024,1024,39.1,-89.9,97,3.936,3.931,3.948,3.945,3.966,3.967,18.274,75.2,14,Waypoint,
37.7328486,-120.094671,3231.8828343914,175.196856,0,0.64210631976,23210,2018-05-13 19:08:35,19,0,23.701,3231.8828343914,175.196856,0.3131716,1.07935698992,0,0,-0.671082,39.3, 0.9, -2.2,0,0,1024,1024,1024,1024,39.1,-89.9,97,3.936,3.931,3.948,3.945,3.966,3.967,18.274,75.2,14,Waypoint,
37.7328486,-120.094671,3232.8670863914,176.181108,0,0.64210631976,23300,2018-05-13 19:08:35,19,0,23.701,3232.8670863914,176.181108,0.3131716,1.07935698992,0,0,-0.671082,39.2, 1.2, -2.6,0,0,1024,1024,1024,1024,39.1,-89.9,97,3.936,3.931,3.948,3.945,3.966,3.967,18.274,75.2,14,Waypoint,
37.7328486,-120.0946709,3233.8513383914,177.16536,0,0.62302167348,23400,2018-05-13 19:08:35,19,0,23.701,3233.8513383914,177.16536,0.3131716,1.07935698992,0,0,-0.671082,39.1, 1.7, -2.9,0,0,1024,1024,1024,1024,39.1,-89.9,97,3.936,3.931,3.948,3.945,3.966,3.967,18.274,75.2,14,Waypoint,
37.7328486,-120.0946708,3234.5075063914,177.821528,0,0.60471130544,23500,2018-05-13 19:08:35,19,0,23.701,3234.5075063914,177.821528,0.3131716,1.07935698992,0,0,-0.671082,39.2, 2, -3,0,0,1024,1024,1024,1024,39.1,-89.9,97,3.936,3.931,3.948,3.945,3.966,3.967,18.274,75.2,14,Waypoint,
37.7328486,-120.0946707,3235.4917583914,178.80578,0,0.58724739412,23610,2018-05-13 19:08:35,19,0,23.701,3235.4917583914,178.80578,0.3131716,1.07935698992,0,0,-0.671082,39.4, 2.3, -3.1,0,0,1024,1024,1024,1024,39.1,-89.9,97,3.936,3.931,3.948,3.945,3.966,3.967,18.274,75.2,14,Waypoint,
37.7328486,-120.0946707,3236.4760103914,179.790032,0,0.58724739412,23700,2018-05-13 19:08:35,19,0,23.701,3236.4760103914,179.790032,0.3131716,1.07935698992,0,0,-0.671082,39.7, 2.3, -3,0,0,1024,1024,1024,1024,39.1,-89.9,97,3.936,3.931,3.948,3.945,3.966,3.967,18.274,75.2,14,Waypoint,
37.7328487,-120.0946706,3237.4602623914,180.774284,0,0.60137469116,23800,2018-05-13 19:08:35,19,0,23.701,3237.4602623914,180.774284,0.3131716,1.07935698992,0,0,-0.671082,40, 2.4, -2.9,0,0,1024,1024,1024,1024,39.1,-89.9,97,3.936,3.931,3.948,3.945,3.966,3.967,18.274,75.2,14,Waypoint,
37.7328487,-120.0946706,3238.4445143914,181.758536,0,0.60137469116,24000,2018-05-13 19:08:35,19,0,23.701,3238.4445143914,181.758536,0.3131716,1.07935698992,0,0,-0.671082,40.3, 2.5, -2.8,0,0,1024,1024,1024,1024,39.1,-89.9,97,3.936,3.931,3.948,3.945,3.966,3.967,18.274,75.2,14,Waypoint,
37.7328486,-120.0946705,3240.4130183914,183.72704,0,0.55518046396,24100,2018-05-13 19:08:36,19,0,23.701,3240.4130183914,183.72704,0.3131716,1.07935698992,0,0,-0.671082,40.6, 2.2, -2.9,0,0,1024,1024,1024,1024,39.1,-89.9,97,3.936,3.931,3.948,3.945,3.966,3.967,18.274,75.2,14,Waypoint,
37.7328486,-120.0946705,3241.7253543914,185.039376,0,0.55518046396,24200,2018-05-13 19:08:36,19,0,23.701,3241.7253543914,185.039376,0.3131716,1.07935698992,0,0,-0.671082,40.6, 2, -3,0,0,1024,1024,1024,1024,39.1,-89.9,97,3.936,3.931,3.948,3.945,3.966,3.967,18.274,75.2,14,Waypoint,
37.7328486,-120.0946704,3243.6938583914,187.00788,0,0.54074476796,24400,2018-05-13 19:08:36,19,0,23.701,3243.6938583914,187.00788,0.3131716,1.07935698992,0,0,-0.671082,40.3, 1.9, -3.3,0,0,1024,1024,1024,1024,39.1,-89.9,97,3.936,3.931,3.948,3.945,3.966,3.967,18.274,75.2,14,Waypoint,
37.7328485,-120.0946704,3244.6781103914,187.992132,0,0.50904529188,24500,2018-05-13 19:08:36,19,0,23.701,3244.6781103914,187.992132,0.3131716,1.07935698992,0,0,-0.671082,40.2, 1.9, -3.4,0,0,1024,1024,1024,1024,39.1,-89.9,97,3.936,3.931,3.948,3.945,3.966,3.967,18.274,75.2,14,Waypoint,
37.7328485,-120.0946704,3245.6623623914,188.976384,0,0.50904529188,24600,2018-05-13 19:08:36,19,0,23.701,3245.6623623914,188.976384,0.3131716,1.07935698992,0,0,-0.671082,40.2, 1.7, -3.4,0,0,1024,1024,1024,1024,39.1,-90,97,3.936,3.931,3.948,3.945,3.966,3.967,18.274,75.2,14,Waypoint,
37.7328485,-120.0946704,3246.6466143914,189.960636,0,0.50904529188,24700,2018-05-13 19:08:36,19,0,23.701,3246.6466143914,189.960636,0.3131716,1.07935698992,0,0,-0.671082,40.2, 1.6, -3.5,0,0,1024,1024,1024,1024,39.1,-90,97,3.936,3.931,3.948,3.945,3.966,3.967,18.274,75.2,14,Waypoint,
37.7328484,-120.0946704,3247.6308663914,190.944888,0,0.47802823052,24800,2018-05-13 19:08:36,19,0,23.701,3247.6308663914,190.944888,0.3131716,1.07935698992,0,0,-0.671082,40.2, 1.5, -3.5,0,0,1024,1024,1024,1024,39.1,-90,97,3.936,3.931,3.948,3.945,3.966,3.967,18.274,75.2,14,Waypoint,
37.7328484,-120.0946704,3248.6151183914,191.92914,0,0.47802823052,24900,2018-05-13 19:08:36,19,0,23.701,3248.6151183914,191.92914,0.3131716,1.07935698992,0,0,-0.671082,40.2, 1.6, -3.3,0,0,1024,1024,1024,1024,39.1,-89.9,97,3.936,3.931,3.948,3.945,3.966,3.967,18.274,75.2,14,Waypoint,
37.7328484,-120.0946704,3249.5993703914,192.913392,0,0.47802823052,25000,2018-05-13 19:08:36,19,0,23.692,3249.5993703914,192.913392,0.3131716,1.07935698992,0,0,-0.671082,40.2, 1.7, -3.3,0,0,1024,1024,1024,1024,39.1,-89.9,97,3.938,3.929,3.956,3.946,3.966,3.95,18.224,77,14,Waypoint,
37.7328483,-120.0946703,3250.5836223914,193.897644,0,0.4317421398,25100,2018-05-13 19:08:37,19,0,23.692,3250.5836223914,193.897644,0.3131716,1.07935698992,0,0,-0.671082,40.2, 1.6, -3.5,0,0,1024,1024,1024,1024,39.1,-89.9,97,3.938,3.929,3.956,3.946,3.966,3.95,18.224,77,14,Waypoint,
37.7328483,-120.0946703,3251.5678743914,194.881896,0,0.4317421398,25200,2018-05-13 19:08:37,19,0,23.692,3251.5678743914,194.881896,0.3131716,1.07935698992,0,0,-0.671082,40.2, 1.7, -3.6,0,0,1024,1024,1024,1024,39.1,-90,97,3.938,3.929,3.956,3.946,3.966,3.95,18.224,77,14,Waypoint,
37.7328483,-120.0946703,3252.2240423914,195.538064,0,0.4317421398,25300,2018-05-13 19:08:37,19,0,23.692,3252.2240423914,195.538064,0.3131716,1.07935698992,0,0,-0.671082,40.1, 1.7, -4,0,0,1024,1024,1024,1024,39.1,-90,97,3.938,3.929,3.956,3.946,3.966,3.95,18.224,77,14,Waypoint,
37.7328483,-120.0946702,3253.2082943914,196.522316,0,0.4170275724,25400,2018-05-13 19:08:37,19,0,23.692,3253.2082943914,196.522316,0.3131716,1.07935698992,0,0,-0.671082,40, 1.9, -4,0,0,1024,1024,1024,1024,39.1,-89.9,97,3.938,3.929,3.956,3.946,3.966,3.95,18.224,77,14,Waypoint,
37.7328483,-120.0946702,3254.1925463914,197.506568,0,0.4170275724,25500,2018-05-13 19:08:37,19,0,23.692,3254.1925463914,197.506568,0.3131716,1.07935698992,0,0,-0.671082,39.8, 2.2, -3.7,0,0,1024,1024,1024,1024,39.1,-89.9,97,3.938,3.929,3.956,3.946,3.966,3.95,18.224,77,14,Waypoint,
37.7328483,-120.0946701,3256.1610503914,199.475072,0,0.40384187644,25700,2018-05-13 19:08:37,19,0,23.692,3256.1610503914,199.475072,0.3131716,1.07935698992,0,0,-0.671082,39.7, 2.2, -3.5,0,0,1024,1024,1024,1024,39.1,-89.9,97,3.938,3.929,3.956,3.946,3.966,3.95,18.224,77,14,Waypoint,
37.7328483,-120.0946701,3257.1453023914,200.459324,0,0.40384187644,25800,2018-05-13 19:08:37,19,0,23.692,3257.1453023914,200.459324,0.3131716,1.07935698992,0,0,-0.671082,39.6, 2.2, -3.4,0,0,1024,1024,1024,1024,39.1,-89.9,97,3.938,3.929,3.956,3.946,3.966,3.95,18.224,77,14,Waypoint,
37.7328483,-120.0946701,3257.8014703914,201.115492,0,0.40384187644,25900,2018-05-13 19:08:37,19,0,23.692,3257.8014703914,201.115492,0.3131716,1.07935698992,0,0,-0.671082,39.6, 2.1, -3.2,0,0,1024,1024,1024,1024,39.1,-89.9,97,3.938,3.929,3.956,3.946,3.966,3.95,18.224,77,14,Waypoint,
37.7328483,-120.0946702,3258.7857223914,202.099744,0,0.4170275724,26100,2018-05-13 19:08:38,19,0,23.692,3258.7857223914,202.099744,0.3131716,1.07935698992,0,0,-0.671082,39.7, 2.1, -3,0,0,1024,1024,1024,1024,39.1,-89.9,97,3.938,3.929,3.956,3.946,3.966,3.95,18.224,77,14,Waypoint,
37.7328484,-120.0946702,3260.7542263914,204.068248,0,0.4492946338,26220,2018-05-13 19:08:38,19,0,23.692,3260.7542263914,204.068248,0.3131716,1.07935698992,0,0,-0.671082,40.1, 2, -2.9,0,0,1024,1024,1024,1024,39.1,-89.9,97,3.938,3.929,3.956,3.946,3.966,3.95,18.224,77,14,Waypoint,
37.7328484,-120.0946702,3260.7542263914,204.068248,0,0.4492946338,26300,2018-05-13 19:08:38,19,0,23.692,3260.7542263914,204.068248,0.3131716,1.07935698992,0,0,-0.671082,40.1, 2, -2.9,0,0,1024,1024,1024,1024,39.1,-89.9,97,3.938,3.929,3.956,3.946,3.966,3.95,18.224,77,14,Waypoint,
