Latitude, Longitude, Altitude (m), Time, Sats, Speed (m/s), Range (m), Battery (%), Roll (deg), Pitch (deg), Yaw (deg), Images, HD Signal (%), RC Signal (%), Battery Temp (C), Battery Voltage (mV), Battery Current (mA), Battery Energy (mAh), Battery Capacity (mAh), Battery Discharges, flyState, timestamp (Unix), LastUpdate (ms), radioChannel, Rc_elevator, Rc_aileron, Rc_throttle, Rc_rudder, Rc_gyro, Dronetype, Battery_Cell1 (mV), Battery_Cell2 (mV), Battery_Cell3 (mV), Battery_Cell4 (mV), Battery_Cell5 (mV), Battery_Cell6 (mV), Video, isFlying, elapsedTime (ms), gimbalPitch (deg), gimbalRoll (deg), gimbalYaw (deg), VelocityX (m/s), VelocityY (m/s), VelocityZ (m/s), GroundSmear (cm), App Version, Aircraft Name, Aircraft Firmware, Aircraft Serial Number, Battery Serial Number, Battery Lifetime (%), App_Tip, App_Warning, CurrentFlightStartingIndex, CurrentFlightLastVisitedWaypoint, PreviousFlightEndingWaypointIndex
37.7328303, -120.0946851, 0.000, 11:29:45.298, 15, 0.00, 0.07, 100, -0.100, 0.300, -137.300, 393, 100, 100, 28, 25645, -2964, 5491, 5491, 11, 11, 1526236185.299, 16, 0, 1024, 1024, 1024, 1024, 0, 6, 4284, 4309, 4238, 4311, 4280, 4270, 0, 1, 3038, -89.900, 0.000, -138.500, 0.000, 0.000, -0.300, 0.0, MapPilot_2.8.1_04242018, Dendroctonus I, 1.3.1.00, 041DDC1887, 1058171200279, 98, DJI_0392.jpg, Starting Mission from Lat/Long: 37.73284/-120.09469 Camera: Zenmuse X3 - Overlap: 90/90 - Active Connection: No, 15, 15, 15
37.7328304, -120.0946851, 0.000, 11:29:45.361, 15, 0.00, 0.08, 100, 0.000, 0.600, -137.300, 393, 100, 100, 28, 25645, -2964, 5491, 5491, 11, 11, 1526236185.362, 38, 0, 1024, 1024, 1024, 1024, 0, 6, 4284, 4309, 4238, 4311, 4280, 4270, 0, 1, 3101, -89.900, 0.000, -138.500, 0.000, 0.000, -0.300, 0.0, , , , , , 98, , , 15, 15, 15
37.7328305, -120.0946851, 0.000, 11:29:45.461, 15, 0.00, 0.08, 100, 0.000, 0.600, -137.400, 393, 100, 100, 28, 25645, -2964, 5491, 5491, 11, 11, 1526236185.462, 38, 0, 1024, 1024, 1024, 1024, 0, 6, 4284, 4309, 4238, 4311, 4280, 4270, 0, 1, 3201, -89.900, 0.000, -138.500, 0.000, 0.000, -0.300, 0.0, , , , , , 98, , , 15, 15, 15
37.7328305, -120.0946851, 0.100, 11:29:45.562, 15, 0.00, 0.09, 100, 0.000, 0.200, -137.600, 393, 100, 100, 28, 25645, -2964, 5491, 5491, 11, 11, 1526236185.562, 35, 0, 1024, 1024, 1024, 1024, 0, 6, 4284, 4309, 4238, 4311, 4280, 4270, 0, 1, 3301, -89.900, 0.000, -138.500, 0.000, 0.000, -0.400, 0.0, , , , , , 98, , , 15, 15, 15
37.7328306, -120.0946851, 0.100, 11:29:45.661, 14, 0.00, 0.10, 100, -0.200, 0.000, -137.700, 393, 100, 100, 28, 25645, -2964, 5491, 5491, 11, 11, 1526236185.662, 34, 0, 1024, 1024, 1024, 1024, 0, 6, 4284, 4309, 4238, 4311, 4280, 4270, 0, 1, 3401, -90.000, 0.000, -138.500, 0.000, 0.000, -0.400, 0.0, , , , , , 98, , , 15, 15, 15
37.7328307, -120.0946851, 0.200, 11:29:45.761, 14, 0.00, 0.11, 100, 0.000, -0.200, -137.800, 393, 100, 100, 28, 25645, -2964, 5491, 5491, 11, 11, 1526236185.762, 19, 0, 1024, 1024, 1024, 1024, 0, 6, 4284, 4309, 4238, 4311, 4280, 4270, 0, 1, 3501, -90.000, 0.000, -138.500, 0.000, 0.000, -0.400, 0.0, , , , , , 98, , , 15, 15, 15
37.7328307, -120.0946851, 0.200, 11:29:45.862, 14, 0.00, 0.11, 100, 0.000, -0.200, -137.900, 393, 100, 100, 28, 25645, -2964, 5491, 5491, 11, 11, 1526236185.863, 4, 0, 1024, 1024, 1024, 1024, 0, 6, 4284, 4309, 4238, 4311, 4280, 4270, 0, 1, 3602, -90.000, 0.000, -138.500, 0.000, 0.000, -0.400, 0.0, , , , , , 98, , , 15, 15, 15
37.7328308, -120.0946851, 0.300, 11:29:45.961, 14, 0.00, 0.12, 100, 0.200, -0.200, -137.900, 393, 100, 100, 28, 25716, -3831, 5491, 5491, 11, 11, 1526236185.962, 17, 0, 1024, 1024, 1024, 1024, 0, 6, 4269, 4258, 4258, 4242, 4250, 4241, 0, 1, 3701, -90.000, 0.000, -138.500, 0.000, 0.000, -0.400, 0.0, , , , , , 98, , , 15, 15, 15
37.7328308, -120.0946851, 0.300, 11:29:46.061, 14, 0.00, 0.13, 100, 0.000, -0.100, -137.900, 393, 100, 100, 28, 25716, -3831, 5491, 5491, 11, 11, 1526236186.062, 17, 0, 1024, 1024, 1024, 1024, 0, 6, 4269, 4258, 4258, 4242, 4250, 4241, 0, 1, 3801, -89.900, 0.000, -138.500, 0.000, 0.000, -0.400, 0.0, , , , , , 98, , , 15, 15, 15
37.7328308, -120.0946851, 0.300, 11:29:46.161, 14, 0.00, 0.13, 100, 0.000, -0.100, -137.900, 393, 100, 100, 28, 25716, -3831, 5491, 5491, 11, 11, 1526236186.162, 117, 0, 1024, 1024, 1024, 1024, 0, 6, 4269, 4258, 4258, 4242, 4250, 4241, 0, 1, 3901, -89.900, 0.000, -138.500, 0.000, 0.000, -0.400, 0.0, , , , , , 98, , , 15, 15, 15
37.7328308, -120.0946851, 0.400, 11:29:46.262, 14, 0.00, 0.13, 100, 0.000, 0.000, -137.800, 393, 100, 100, 28, 25716, -3831, 5491, 5491, 11, 11, 1526236186.262, 55, 0, 1024, 1024, 1024, 1024, 0, 6, 4269, 4258, 4258, 4242, 4250, 4241, 0, 1, 4001, -89.900, 0.000, -138.500, 0.000, 0.000, -0.400, 0.0, , , , , , 98, , , 15, 15, 15
37.7328308, -120.0946852, 0.500, 11:29:46.361, 14, 0.00, 0.12, 100, -0.100, 0.000, -137.800, 393, 100, 100, 28, 25716, -3831, 5491, 5491, 11, 11, 1526236186.361, 61, 0, 1024, 1024, 1024, 1024, 0, 6, 4269, 4258, 4258, 4242, 4250, 4241, 0, 1, 4101, -89.900, 0.000, -138.500, 0.000, 0.000, -0.500, 0.0, , , , , , 98, , , 15, 15, 15
37.7328308, -120.0946852, 0.500, 11:29:46.461, 14, 0.00, 0.12, 100, -0.100, 0.000, -137.800, 393, 100, 100, 28, 25716, -3831, 5491, 5491, 11, 11, 1526236186.462, 161, 0, 1024, 1024, 1024, 1024, 0, 6, 4269, 4258, 4258, 4242, 4250, 4241, 0, 1, 4201, -89.900, 0.000, -138.500, 0.000, 0.000, -0.500, 0.0, , , , , , 98, , , 15, 15, 15
37.7328308, -120.0946853, 0.500, 11:29:46.562, 14, 0.00, 0.12, 100, -0.200, 0.100, -137.800, 393, 100, 100, 28, 25716, -3831, 5491, 5491, 11, 11, 1526236186.562, 67, 0, 1024, 1024, 1024, 1024, 0, 6, 4269, 4258, 4258, 4242, 4250, 4241, 0, 1, 4301, -89.900, 0.000, -138.500, 0.000, 0.000, -0.500, 0.0, , , , , , 98, , , 15, 15, 15
37.7328308, -120.0946853, 0.600, 11:29:46.662, 14, 0.00, 0.12, 100, -0.100, 0.100, -137.900, 393, 100, 100, 28, 25716, -3831, 5491, 5491, 11, 11, 1526236186.663, 44, 0, 1024, 1024, 1024, 1024, 0, 6, 4269, 4258, 4258, 4242, 4250, 4241, 0, 1, 4402, -89.900, 0.000, -138.500, 0.000, 0.000, -0.400, 0.0, , , , , , 98, , , 15, 15, 15
37.7328308, -120.0946853, 0.700, 11:29:46.762, 14, 0.00, 0.12, 100, -0.100, 0.100, -137.900, 393, 100, 100, 28, 25716, -3831, 5491, 5491, 11, 11, 1526236186.762, 56, 0, 1024, 1024, 1024, 1024, 0, 6, 4269, 4258, 4258, 4242, 4250, 4241, 0, 1, 4501, -89.900, 0.000, -138.500, 0.000, 0.000, -0.500, 0.0, , , , , , 98, , , 15, 15, 15
37.7328308, -120.0946853, 0.800, 11:29:46.862, 14, 0.00, 0.12, 100, 0.000, 0.000, -137.900, 393, 100, 100, 28, 25716, -3831, 5491, 5491, 11, 11, 1526236186.862, 46, 0, 1024, 1024, 1024, 1024, 0, 6, 4269, 4258, 4258, 4242, 4250, 4241, 0, 1, 4602, -89.900, 0.000, -138.500, 0.000, 0.000, -0.500, 0.0, , , , , , 98, , , 15, 15, 15
37.7328308, -120.0946853, 0.800, 11:29:46.962, 14, 0.00, 0.12, 100, 0.000, 0.000, -137.900, 393, 100, 100, 28, 24974, -13312, 5381, 5491, 11, 11, 1526236186.962, 59, 0, 1024, 1024, 1024, 1024, 0, 6, 4127, 4137, 4153, 4155, 4177, 4138, 0, 1, 4701, -89.900, 0.000, -138.500, 0.000, 0.000, -0.500, 0.0, , , , , , 98, , , 15, 15, 15
37.7328308, -120.0946852, 0.900, 11:29:47.061, 15, 0.00, 0.12, 100, 0.000, 0.000, -137.900, 393, 100, 100, 28, 24974, -13312, 5381, 5491, 11, 6, 1526236187.062, 57, 0, 1024, 1024, 1024, 1024, 0, 6, 4127, 4137, 4153, 4155, 4177, 4138, 0, 1, 4801, -90.000, 0.000, -138.500, 0.000, 0.000, -0.400, 0.0, , , , , , 98, , , 15, 15, 15
37.7328308, -120.0946851, 0.900, 11:29:47.165, 15, 0.00, 0.12, 100, 0.100, 0.000, -137.900, 393, 100, 100, 28, 24974, -13312, 5381, 5491, 11, 14, 1526236187.166, 7, 0, 1024, 1024, 1024, 1024, 0, 6, 4127, 4137, 4153, 4155, 4177, 4138, 0, 1, 4905, -89.900, 0.000, -138.500, 0.000, 0.000, -0.400, 0.0, , , , , , 98, , , 15, 15, 15
37.7328308, -120.0946850, 0.900, 11:29:47.261, 15, 0.00, 0.12, 100, 0.500, 0.000, -137.800, 393, 100, 100, 28, 24974, -13312, 5381, 5491, 11, 14, 1526236187.262, 35, 0, 1024, 1024, 1024, 1024, 0, 6, 4127, 4137, 4153, 4155, 4177, 4138, 0, 1, 5001, -89.900, 0.000, -138.500, 0.000, 0.000, -0.200, 0.0, , , , , , 98, , , 15, 15, 15
37.7328308, -120.0946850, 0.900, 11:29:47.361, 15, 0.00, 0.12, 100, 0.500, 0.000, -137.800, 393, 100, 100, 28, 24974, -13312, 5381, 5491, 11, 14, 1526236187.362, 135, 0, 1024, 1024, 1024, 1024, 0, 6, 4127, 4137, 4153, 4155, 4177, 4138, 0, 1, 5101, -89.900, 0.000, -138.500, 0.000, 0.000, -0.200, 0.0, , , , , , 98, , , 15, 15, 15
37.7328307, -120.0946849, 1.000, 11:29:47.461, 14, 0.00, 0.12, 100, 1.000, 0.300, -137.800, 393, 100, 100, 28, 24974, -13312, 5381, 5491, 11, 14, 1526236187.462, 16, 0, 1024, 1024, 1024, 1024, 0, 6, 4127, 4137, 4153, 4155, 4177, 4138, 0, 1, 5201, -89.900, 0.000, -138.500, 0.000, 0.000, -0.300, 0.0, , , , , , 98, , , 15, 15, 15
37.7328307, -120.0946849, 1.000, 11:29:47.567, 14, 0.00, 0.12, 100, 0.900, 0.400, -137.800, 393, 100, 100, 28, 24974, -13312, 5381, 5491, 11, 14, 1526236187.568, 5, 0, 1024, 1024, 1024, 1024, 0, 6, 4127, 4137, 4153, 4155, 4177, 4138, 0, 1, 5307, -89.900, 0.000, -138.500, 0.000, 0.000, -0.300, 0.0, , , , , , 98, , , 15, 15, 15
37.7328307, -120.0946849, 1.100, 11:29:47.662, 14, 0.00, 0.12, 100, 0.700, 0.400, -137.800, 393, 100, 100, 28, 24974, -13312, 5381, 5491, 11, 14, 1526236187.663, 11, 0, 1024, 1024, 1024, 1024, 0, 6, 4127, 4137, 4153, 4155, 4177, 4138, 0, 1, 5402, -89.900, 0.000, -138.500, 0.000, 0.000, -0.500, 0.0, , , , , , 98, , , 15, 15, 15
37.7328307, -120.0946849, 1.100, 11:29:47.761, 14, 0.00, 0.11, 100, 0.600, 0.400, -137.800, 393, 100, 100, 28, 24974, -13312, 5381, 5491, 11, 14, 1526236187.761, 20, 0, 1024, 1024, 1024, 1024, 0, 6, 4127, 4137, 4153, 4155, 4177, 4138, 0, 1, 5501, -89.900, 0.000, -138.500, 0.000, 0.000, -0.600, 0.0, , , , , , 98, , , 15, 15, 15
37.7328307, -120.0946848, 1.200, 11:29:47.866, 15, 0.00, 0.12, 98, 0.500, 0.300, -137.800, 393, 100, 100, 28, 24802, -14861, 5381, 5491, 11, 14, 1526236187.866, 16, 0, 1024, 1024, 1024, 1024, 0, 6, 4127, 4137, 4153, 4155, 4177, 4138, 0, 1, 5606, -89.900, 0.000, -138.500, 0.000, 0.000, -0.800, 0.0, , , , , , 98, , , 15, 15, 15
37.7328308, -120.0946847, 1.300, 11:29:47.962, 15, 0.00, 0.13, 98, 0.500, 0.200, -137.900, 393, 100, 100, 28, 24802, -14861, 5381, 5491, 11, 14, 1526236187.962, 33, 0, 1024, 1024, 1024, 1024, 0, 6, 4126, 4078, 4119, 4114, 4140, 4124, 0, 1, 5702, -90.000, 0.000, -138.500, 0.000, 0.000, -1.000, 0.0, , , , , , 98, , , 15, 15, 15
37.7328308, -120.0946846, 1.400, 11:29:48.062, 15, 0.00, 0.14, 98, 0.500, 0.000, -137.900, 393, 100, 100, 28, 24802, -14861, 5381, 5491, 11, 14, 1526236188.062, 4, 0, 1024, 1024, 1024, 1024, 0, 6, 4126, 4078, 4119, 4114, 4140, 4124, 0, 1, 5801, -90.000, 0.000, -138.500, 0.000, 0.000, -1.300, 0.0, , , , , , 98, , , 15, 15, 15
37.7328308, -120.0946846, 1.400, 11:29:48.161, 15, 0.00, 0.14, 98, 0.500, 0.000, -137.900, 393, 100, 100, 28, 24802, -14861, 5381, 5491, 11, 14, 1526236188.162, 104, 0, 1024, 1024, 1024, 1024, 0, 6, 4126, 4078, 4119, 4114, 4140, 4124, 0, 1, 5901, -90.000, 0.000, -138.500, 0.000, 0.000, -1.300, 0.0, , , , , , 98, , , 15, 15, 15
37.7328308, -120.0946845, 1.600, 11:29:48.261, 15, 0.00, 0.14, 98, 0.500, 0.000, -137.900, 393, 100, 100, 28, 24802, -14861, 5381, 5491, 11, 14, 1526236188.262, 50, 0, 1024, 1024, 1024, 1024, 0, 6, 4126, 4078, 4119, 4114, 4140, 4124, 0, 1, 6001, -89.900, 0.000, -138.500, 0.000, 0.000, -1.500, 0.0, , , , , , 98, , , 15, 15, 15
37.7328308, -120.0946844, 1.700, 11:29:48.361, 15, 0.00, 0.15, 98, 0.700, 0.000, -137.900, 393, 100, 100, 28, 24802, -14861, 5381, 5491, 11, 14, 1526236188.362, 35, 0, 1024, 1024, 1024, 1024, 0, 6, 4126, 4078, 4119, 4114, 4140, 4124, 0, 1, 6101, -90.000, 0.000, -138.500, 0.000, 0.000, -1.700, 0.0, , , , , , 98, , , 15, 15, 15
37.7328308, -120.0946842, 1.900, 11:29:48.461, 15, 0.00, 0.16, 98, 0.800, -0.100, -137.900, 393, 100, 100, 28, 24802, -14861, 5381, 5491, 11, 14, 1526236188.462, 19, 0, 1024, 1024, 1024, 1024, 0, 6, 4126, 4078, 4119, 4114, 4140, 4124, 0, 1, 6201, -90.000, 0.000, -138.500, 0.000, 0.000, -1.900, 0.0, , , , , , 98, , , 15, 15, 15
37.7328308, -120.0946841, 2.100, 11:29:48.561, 16, 0.00, 0.17, 98, 1.000, -0.200, -137.900, 393, 100, 100, 28, 24802, -14861, 5381, 5491, 11, 14, 1526236188.562, 34, 0, 1024, 1024, 1024, 1024, 0, 6, 4126, 4078, 4119, 4114, 4140, 4124, 0, 1, 6301, -89.900, 0.000, -138.500, 0.000, 0.000, -2.100, 0.0, , , , , , 98, , , 15, 15, 15
37.7328308, -120.0946840, 2.400, 11:29:48.661, 16, 0.00, 0.17, 98, 1.000, -0.300, -137.900, 393, 100, 100, 28, 24802, -14861, 5381, 5491, 11, 14, 1526236188.662, 63, 0, 1024, 1024, 1024, 1024, 0, 6, 4126, 4078, 4119, 4114, 4140, 4124, 0, 1, 6401, -89.900, 0.000, -138.500, 0.000, 0.000, -2.300, 0.0, , , , , , 98, , , 15, 15, 15
37.7328309, -120.0946840, 2.600, 11:29:48.762, 15, 0.00, 0.17, 98, 0.900, -0.200, -137.900, 393, 100, 100, 28, 24802, -14861, 5381, 5491, 11, 14, 1526236188.763, 47, 0, 1024, 1024, 1024, 1024, 0, 6, 4126, 4078, 4119, 4114, 4140, 4124, 0, 1, 6502, -89.900, 0.000, -138.500, 0.000, 0.000, -2.500, 0.0, , , , , , 98, , , 15, 15, 15
37.7328309, -120.0946841, 2.900, 11:29:48.862, 15, 0.00, 0.17, 98, 0.700, 0.000, -137.900, 393, 100, 100, 28, 24802, -14861, 5381, 5491, 11, 14, 1526236188.862, 23, 0, 1024, 1024, 1024, 1024, 0, 6, 4126, 4078, 4119, 4114, 4140, 4124, 0, 1, 6601, -89.900, 0.000, -138.500, 0.000, 0.000, -2.800, 0.0, , , , , , 98, , , 15, 15, 15
37.7328309, -120.0946841, 2.900, 11:29:48.961, 15, 0.00, 0.17, 98, 0.700, 0.000, -137.900, 393, 100, 100, 28, 24802, -14861, 5381, 5491, 11, 14, 1526236188.962, 123, 0, 1024, 1024, 1024, 1024, 0, 6, 4126, 4078, 4119, 4114, 4140, 4124, 0, 1, 6701, -89.900, 0.000, -138.500, 0.000, 0.000, -2.800, 0.0, , , , , , 98, , , 15, 15, 15
37.7328309, -120.0946842, 3.900, 11:29:49.078, 15, 0.00, 0.17, 98, 0.300, 0.300, -137.800, 393, 100, 100, 28, 24292, -21235, 5381, 5491, 11, 14, 1526236189.078, 11, 0, 1024, 1024, 1024, 1024, 0, 6, 4045, 4027, 4012, 4021, 4063, 4031, 0, 1, 6817, -89.900, 0.000, -138.500, 0.000, 0.000, -3.100, 0.0, , , , , , 98, , , 15, 15, 15
37.7328309, -120.0946842, 3.900, 11:29:49.161, 15, 0.00, 0.17, 98, 0.300, 0.300, -137.800, 393, 100, 100, 28, 24292, -21235, 5381, 5491, 11, 14, 1526236189.162, 95, 0, 1024, 1024, 1024, 1024, 0, 6, 4045, 4027, 4012, 4021, 4063, 4031, 0, 1, 6901, -89.900, 0.000, -138.500, 0.000, 0.000, -3.100, 0.0, , , , , , 98, , , 15, 15, 15
37.7328311, -120.0946843, 4.200, 11:29:49.261, 15, 0.00, 0.18, 98, 0.300, 0.200, -137.800, 393, 100, 100, 28, 24292, -21235, 5381, 5491, 11, 14, 1526236189.262, 41, 0, 1024, 1024, 1024, 1024, 0, 6, 4045, 4027, 4012, 4021, 4063, 4031, 0, 1, 7001, -89.900, 0.000, -138.500, 0.000, 0.000, -3.200, 0.0, , , , , , 98, , , 15, 15, 15
37.7328311, -120.0946844, 4.500, 11:29:49.361, 15, 0.00, 0.18, 98, 0.000, 0.000, -137.800, 393, 100, 100, 28, 24292, -21235, 5381, 5491, 11, 14, 1526236189.362, 53, 0, 1024, 1024, 1024, 1024, 0, 6, 4045, 4027, 4012, 4021, 4063, 4031, 0, 1, 7101, -89.900, 0.000, -138.500, 0.000, 0.000, -3.100, 0.0, , , , , , 98, , , 15, 15, 15
37.7328311, -120.0946845, 4.900, 11:29:49.461, 15, 0.00, 0.17, 98, -0.100, 0.000, -137.700, 393, 100, 100, 28, 24292, -21235, 5381, 5491, 11, 14, 1526236189.462, 86, 0, 1024, 1024, 1024, 1024, 0, 6, 4045, 4027, 4012, 4021, 4063, 4031, 0, 1, 7201, -89.900, 0.000, -138.500, 0.000, 0.000, -3.100, 0.0, , , , , , 98, , , 15, 15, 15
37.7328310, -120.0946846, 5.200, 11:29:49.561, 15, 0.00, 0.16, 98, -0.100, 0.000, -137.700, 393, 100, 100, 28, 24292, -21235, 5381, 5491, 11, 14, 1526236189.561, 68, 0, 1024, 1024, 1024, 1024, 0, 6, 4045, 4027, 4012, 4021, 4063, 4031, 0, 1, 7301, -89.900, 0.000, -138.500, 0.000, 0.000, -3.200, 0.0, , , , , , 98, , , 15, 15, 15
37.7328310, -120.0946847, 5.500, 11:29:49.661, 15, 0.00, 0.16, 98, 0.000, 0.200, -137.600, 393, 100, 100, 28, 24292, -21235, 5381, 5491, 11, 14, 1526236189.662, 85, 0, 1024, 1024, 1024, 1024, 0, 6, 4045, 4027, 4012, 4021, 4063, 4031, 0, 1, 7401, -89.900, 0.000, -138.500, 0.000, 0.000, -3.100, 0.0, , , , , , 98, , , 15, 15, 15
37.7328309, -120.0946848, 6.200, 11:29:49.768, 16, 0.00, 0.14, 98, 0.400, 0.600, -137.800, 393, 100, 100, 28, 24292, -21235, 5381, 5491, 11, 14, 1526236189.769, 9, 0, 1024, 1024, 1024, 1024, 0, 6, 4045, 4027, 4012, 4021, 4063, 4031, 0, 1, 7508, -89.900, 0.000, -138.500, 0.000, 0.000, -3.200, 0.0, , , , , , 98, , , 15, 15, 15
37.7328309, -120.0946848, 6.200, 11:29:49.862, 16, 0.00, 0.14, 98, 0.400, 0.600, -137.800, 393, 100, 100, 28, 24292, -21235, 5381, 5491, 11, 14, 1526236189.862, 103, 0, 1024, 1024, 1024, 1024, 0, 6, 4045, 4027, 4012, 4021, 4063, 4031, 0, 1, 7602, -89.900, 0.000, -138.500, 0.000, 0.000, -3.200, 0.0, , , , , , 98, , , 15, 15, 15
37.7328309, -120.0946847, 6.500, 11:29:49.962, 17, 0.00, 0.14, 98, 0.500, 0.800, -138.100, 393, 100, 100, 28, 24232, -20504, 5381, 5491, 11, 14, 1526236189.963, 59, 0, 1024, 1024, 1024, 1024, 0, 6, 4045, 4027, 4012, 4021, 4063, 4031, 0, 1, 7702, -89.900, 0.000, -138.500, 0.000, 0.000, -3.200, 0.0, , , , , , 98, , , 15, 15, 15
37.7328310, -120.0946845, 7.200, 11:29:50.081, 16, 0.00, 0.16, 98, 0.600, 0.000, -138.200, 393, 100, 99, 28, 24232, -20504, 5381, 5491, 11, 14, 1526236190.081, 7, 0, 1024, 1024, 1024, 1024, 0, 6, 4045, 4027, 4012, 4021, 4063, 4031, 0, 1, 7821, -90.000, 0.000, -138.500, 0.000, 0.000, -3.100, 0.0, , , , , , 98, , , 15, 15, 15
37.7328310, -120.0946845, 7.200, 11:29:50.161, 16, 0.00, 0.16, 98, 0.600, 0.000, -138.200, 393, 100, 99, 28, 24232, -20504, 5381, 5491, 11, 14, 1526236190.162, 87, 0, 1024, 1024, 1024, 1024, 0, 6, 4045, 4027, 4012, 4021, 4063, 4031, 0, 1, 7901, -90.000, 0.000, -138.500, 0.000, 0.000, -3.100, 0.0, , , , , , 98, , , 15, 15, 15
37.7328310, -120.0946844, 7.500, 11:29:50.262, 16, 0.00, 0.17, 98, 0.700, -0.300, -138.200, 393, 100, 99, 28, 24232, -20504, 5381, 5491, 11, 14, 1526236190.262, 38, 0, 1024, 1024, 1024, 1024, 0, 6, 4045, 4027, 4012, 4021, 4063, 4031, 0, 1, 8001, -90.000, 0.000, -138.500, 0.000, 0.000, -3.100, 0.0, , , , , , 98, , , 15, 15, 15
37.7328311, -120.0946844, 7.900, 11:29:50.370, 15, 0.00, 0.17, 98, 0.700, -0.500, -138.200, 393, 100, 99, 28, 24232, -20504, 5381, 5491, 11, 14, 1526236190.371, 9, 0, 1024, 1024, 1024, 1024, 0, 6, 4045, 4027, 4012, 4021, 4063, 4031, 0, 1, 8110, -90.000, 0.000, -138.500, 0.000, 0.000, -3.100, 0.0, , , , , , 98, , , 15, 15, 15
37.7328311, -120.0946842, 8.200, 11:29:50.461, 15, 0.00, 0.18, 98, 0.700, -0.600, -138.200, 393, 100, 99, 28, 24232, -20504, 5381, 5491, 11, 14, 1526236190.462, 9, 0, 1024, 1024, 1024, 1024, 0, 6, 4046, 4044, 4037, 4043, 4064, 4050, 0, 1, 8201, -90.000, 0.000, -138.500, 0.000, 0.000, -3.100, 0.0, , , , , , 98, , , 15, 15, 15
37.7328311, -120.0946841, 8.500, 11:29:50.562, 16, 0.00, 0.19, 98, 0.600, -0.800, -138.200, 393, 100, 99, 28, 24232, -20504, 5381, 5491, 11, 14, 1526236190.562, 19, 0, 1024, 1024, 1024, 1024, 0, 6, 4046, 4044, 4037, 4043, 4064, 4050, 0, 1, 8301, -90.000, 0.000, -138.500, 0.000, 0.000, -3.100, 0.0, , , , , , 98, , , 15, 15, 15
37.7328311, -120.0946841, 8.500, 11:29:50.662, 16, 0.00, 0.19, 98, 0.600, -0.800, -138.200, 393, 100, 99, 28, 24232, -20504, 5381, 5491, 11, 14, 1526236190.662, 120, 0, 1024, 1024, 1024, 1024, 0, 6, 4046, 4044, 4037, 4043, 4064, 4050, 0, 1, 8402, -90.000, 0.000, -138.500, 0.000, 0.000, -3.100, 0.0, , , , , , 98, , , 15, 15, 15
37.7328311, -120.0946840, 8.800, 11:29:50.762, 16, 0.00, 0.20, 98, 0.400, -0.800, -138.100, 393, 100, 99, 28, 24232, -20504, 5381, 5491, 11, 14, 1526236190.763, 69, 0, 1024, 1024, 1024, 1024, 0, 6, 4046, 4044, 4037, 4043, 4064, 4050, 0, 1, 8502, -90.000, 0.000, -138.500, 0.000, 0.000, -3.100, 0.0, , , , , , 98, , , 15, 15, 15
37.7328312, -120.0946838, 9.100, 11:29:50.861, 15, 0.00, 0.21, 98, 0.200, -0.800, -138.000, 393, 100, 99, 28, 24232, -20504, 5381, 5491, 11, 14, 1526236190.862, 33, 0, 1024, 1024, 1024, 1024, 0, 6, 4046, 4044, 4037, 4043, 4064, 4050, 0, 1, 8601, -90.000, 0.000, -138.500, 0.000, 0.000, -3.100, 0.0, , , , , , 98, , , 15, 15, 15
37.7328312, -120.0946838, 9.100, 11:29:50.962, 15, 0.00, 0.21, 98, 0.200, -0.800, -138.000, 393, 100, 99, 28, 24232, -20504, 5381, 5491, 11, 14, 1526236190.962, 134, 0, 1024, 1024, 1024, 1024, 0, 6, 4046, 4044, 4037, 4043, 4064, 4050, 0, 1, 8701, -90.000, 0.000, -138.500, 0.000, 0.000, -3.100, 0.0, , , , , , 98, , , 15, 15, 15
37.7328312, -120.0946836, 9.500, 11:29:51.061, 15, 0.00, 0.23, 98, 0.300, -0.800, -137.900, 393, 100, 99, 28, 24232, -20504, 5381, 5491, 11, 14, 1526236191.062, 82, 0, 1024, 1024, 1024, 1024, 0, 6, 4046, 4044, 4037, 4043, 4064, 4050, 0, 1, 8801, -90.000, 0.000, -138.500, 0.000, 0.000, -3.000, 0.0, , , , , , 98, , , 15, 15, 15
37.7328312, -120.0946834, 9.800, 11:29:51.168, 16, 0.00, 0.24, 98, 0.400, -0.900, -137.800, 393, 100, 99, 28, 24232, -20504, 5381, 5491, 11, 14, 1526236191.170, 9, 0, 1024, 1024, 1024, 1024, 0, 6, 4046, 4044, 4037, 4043, 4064, 4050, 0, 1, 8909, -90.000, 0.000, -138.500, 0.000, 0.000, -3.000, 0.0, , , , , , 98, , , 15, 15, 15
37.7328312, -120.0946833, 10.100, 11:29:51.261, 16, 0.00, 0.24, 98, 0.700, -1.000, -137.800, 393, 100, 99, 28, 24232, -20504, 5381, 5491, 11, 14, 1526236191.261, 36, 0, 1024, 1024, 1024, 1024, 0, 6, 4046, 4044, 4037, 4043, 4064, 4050, 0, 1, 9000, -90.000, 0.000, -138.500, 0.000, 0.000, -3.000, 0.0, , , , , , 98, , , 15, 15, 15
37.7328312, -120.0946832, 11.000, 11:29:51.381, 17, 0.00, 0.26, 98, 0.900, -0.800, -138.000, 393, 100, 99, 28, 24232, -20504, 5381, 5491, 11, 14, 1526236191.381, 6, 0, 1024, 1024, 1024, 1024, 0, 6, 4046, 4044, 4037, 4043, 4064, 4050, 0, 1, 9120, -90.000, 0.000, -138.500, 0.000, 0.000, -3.100, 0.0, , , , , , 98, , , 15, 15, 15
37.7328312, -120.0946832, 11.000, 11:29:51.461, 17, 0.00, 0.26, 98, 0.900, -0.800, -138.000, 393, 100, 99, 28, 24232, -20504, 5381, 5491, 11, 14, 1526236191.462, 86, 0, 1024, 1024, 1024, 1024, 0, 6, 4046, 4044, 4037, 4043, 4064, 4050, 0, 1, 9201, -90.000, 0.000, -138.500, 0.000, 0.000, -3.100, 0.0, , , , , , 98, , , 15, 15, 15
37.7328313, -120.0946831, 11.700, 11:29:51.561, 16, 0.00, 0.27, 98, 0.500, -0.800, -137.900, 393, 100, 100, 28, 24395, -17734, 5381, 5491, 11, 14, 1526236191.562, 43, 0, 1024, 1024, 1024, 1024, 0, 6, 4076, 4058, 4057, 4058, 4087, 4070, 0, 1, 9301, -89.900, 0.000, -138.500, 0.000, 0.000, -3.000, 0.0, , , , , , 98, , , 15, 15, 15
37.7328312, -120.0946832, 12.300, 11:29:51.662, 18, 0.00, 0.25, 98, 0.500, -0.200, -137.600, 393, 100, 100, 28, 24395, -17734, 5381, 5491, 11, 14, 1526236191.662, 57, 0, 1024, 1024, 1024, 1024, 0, 6, 4076, 4058, 4057, 4058, 4087, 4070, 0, 1, 9401, -89.900, 0.000, -138.500, 0.000, 0.000, -3.000, 0.0, , , , , , 98, , , 15, 15, 15
37.7328312, -120.0946833, 12.600, 11:29:51.761, 18, 0.10, 0.25, 98, 0.400, 0.000, -137.500, 393, 100, 100, 28, 24395, -17734, 5381, 5491, 11, 14, 1526236191.762, 96, 0, 1024, 1024, 1024, 1024, 0, 6, 4076, 4058, 4057, 4058, 4087, 4070, 0, 1, 9501, -89.900, 0.000, -138.500, 0.000, -0.100, -3.000, 0.0, , , , , , 98, , , 15, 15, 15
37.7328313, -120.0946834, 12.900, 11:29:51.862, 16, 0.10, 0.25, 98, 0.400, 0.000, -137.500, 393, 100, 100, 28, 24395, -17734, 5381, 5491, 11, 14, 1526236191.862, 61, 0, 1024, 1024, 1024, 1024, 0, 6, 4076, 4058, 4057, 4058, 4087, 4070, 0, 1, 9601, -89.900, 0.000, -138.500, 0.000, -0.100, -3.000, 0.0, , , , , , 98, , , 15, 15, 15
37.7328313, -120.0946835, 13.200, 11:29:51.961, 16, 0.10, 0.24, 98, 0.000, 0.000, -137.500, 393, 100, 100, 28, 24395, -17734, 5381, 5491, 11, 14, 1526236191.962, 62, 0, 1024, 1024, 1024, 1024, 0, 6, 4076, 4058, 4057, 4058, 4087, 4070, 0, 1, 9701, -89.900, 0.000, -138.500, 0.000, -0.100, -2.900, 0.0, , , , , , 98, , , 15, 15, 15
37.7328314, -120.0946836, 13.500, 11:29:52.062, 17, 0.10, 0.24, 98, -0.200, 0.000, -137.600, 393, 100, 100, 28, 24395, -17734, 5381, 5491, 11, 14, 1526236192.062, 61, 0, 1024, 1024, 1024, 1024, 0, 6, 4076, 4058, 4057, 4058, 4087, 4070, 0, 1, 9801, -90.000, 0.000, -138.500, 0.000, -0.100, -2.900, 0.0, , , , , , 98, , , 15, 15, 15
37.7328313, -120.0946836, 13.800, 11:29:52.161, 17, 0.00, 0.24, 98, -0.400, -0.100, -137.600, 393, 100, 100, 28, 24395, -17734, 5381, 5491, 11, 14, 1526236192.161, 64, 0, 1024, 1024, 1024, 1024, 0, 6, 4076, 4058, 4057, 4058, 4087, 4070, 0, 1, 9900, -90.000, 0.000, -138.500, 0.000, 0.000, -2.900, 0.0, , , , , , 98, , , 15, 15, 15
37.7328314, -120.0946837, 14.100, 11:29:52.262, 18, 0.00, 0.23, 98, -0.100, 0.000, -137.600, 393, 100, 100, 28, 24395, -17734, 5381, 5491, 11, 14, 1526236192.262, 39, 0, 1024, 1024, 1024, 1024, 0, 6, 4076, 4058, 4057, 4058, 4087, 4070, 0, 1, 10001, -89.900, 0.000, -138.500, 0.000, 0.000, -2.900, 0.0, , , , , , 98, , , 15, 15, 15
37.7328314, -120.0946838, 14.400, 11:29:52.362, 18, 0.00, 0.23, 98, 0.000, 0.000, -137.600, 393, 100, 100, 28, 24438, -16769, 5381, 5491, 11, 14, 1526236192.362, 60, 0, 1024, 1024, 1024, 1024, 0, 6, 4082, 4064, 4065, 4074, 4095, 4073, 0, 1, 10101, -89.900, 0.000, -138.500, 0.000, 0.000, -2.800, 0.0, , , , , , 98, , , 15, 15, 15
37.7328314, -120.0946839, 14.700, 11:29:52.461, 18, 0.00, 0.22, 98, 0.100, 0.200, -137.800, 393, 100, 100, 28, 24438, -16769, 5381, 5491, 11, 14, 1526236192.462, 39, 0, 1024, 1024, 1024, 1024, 0, 6, 4082, 4064, 4065, 4074, 4095, 4073, 0, 1, 10201, -89.900, 0.000, -138.500, 0.000, 0.000, -2.900, 0.0, , , , , , 98, , , 15, 15, 15
37.7328313, -120.0946840, 15.000, 11:29:52.562, 18, 0.00, 0.22, 98, 0.000, 0.400, -137.900, 393, 100, 100, 28, 24438, -16769, 5381, 5491, 11, 14, 1526236192.562, 30, 0, 1024, 1024, 1024, 1024, 0, 6, 4082, 4064, 4065, 4074, 4095, 4073, 0, 1, 10301, -89.900, 0.000, -138.500, 0.000, 0.000, -2.900, 0.0, , , , , , 98, , , 15, 15, 15
37.7328313, -120.0946841, 15.300, 11:29:52.662, 18, 0.00, 0.21, 98, 0.000, 0.500, -138.000, 393, 100, 100, 28, 24438, -16769, 5381, 5491, 11, 14, 1526236192.662, 29, 0, 1024, 1024, 1024, 1024, 0, 6, 4082, 4064, 4065, 4074, 4095, 4073, 0, 1, 10401, -89.900, 0.000, -138.500, 0.000, 0.000, -2.900, 0.0, , , , , , 98, , , 15, 15, 15
37.7328313, -120.0946842, 15.600, 11:29:52.762, 18, 0.00, 0.21, 98, 0.000, 0.300, -138.100, 393, 100, 100, 28, 24438, -16769, 5381, 5491, 11, 14, 1526236192.762, 21, 0, 1024, 1024, 1024, 1024, 0, 6, 4082, 4064, 4065, 4074, 4095, 4073, 0, 1, 10501, -89.900, 0.000, -138.500, 0.000, 0.000, -2.900, 0.0, , , , , , 98, , , 15, 15, 15
37.7328313, -120.0946842, 15.900, 11:29:52.861, 17, 0.00, 0.20, 98, 0.100, 0.200, -138.100, 393, 100, 100, 28, 24438, -16769, 5381, 5491, 11, 14, 1526236192.861, 21, 0, 1024, 1024, 1024, 1024, 0, 6, 4082, 4064, 4065, 4074, 4095, 4073, 0, 1, 10600, -90.000, 0.000, -138.500, 0.000, 0.000, -2.900, 0.0, , , , , , 98, , , 15, 15, 15
37.7328313, -120.0946843, 16.200, 11:29:52.962, 17, 0.00, 0.19, 98, 0.000, 0.000, -138.100, 393, 100, 100, 28, 24438, -16769, 5381, 5491, 11, 14, 1526236192.962, 22, 0, 1024, 1024, 1024, 1024, 0, 6, 4082, 4064, 4065, 4074, 4095, 4073, 0, 1, 10701, -90.000, 0.000, -138.500, 0.000, 0.000, -2.900, 0.0, , , , , , 98, , , 15, 15, 15
37.7328312, -120.0946844, 16.500, 11:29:53.062, 17, 0.00, 0.19, 98, 0.100, 0.000, -138.000, 393, 100, 100, 28, 24438, -16769, 5381, 5491, 11, 14, 1526236193.062, 11, 0, 1024, 1024, 1024, 1024, 0, 6, 4082, 4064, 4065, 4074, 4095, 4073, 0, 1, 10802, -89.900, 0.000, -138.500, 0.000, 0.000, -2.900, 0.0, , , , , , 98, , , 15, 15, 15
37.7328312, -120.0946844, 16.500, 11:29:53.162, 17, 0.00, 0.19, 98, 0.100, 0.000, -138.000, 393, 100, 100, 28, 24438, -16769, 5381, 5491, 11, 14, 1526236193.162, 111, 0, 1024, 1024, 1024, 1024, 0, 6, 4082, 4064, 4065, 4074, 4095, 4073, 0, 1, 10901, -89.900, 0.000, -138.500, 0.000, 0.000, -2.900, 0.0, , , , , , 98, , , 15, 15, 15
37.7328312, -120.0946845, 16.800, 11:29:53.261, 17, 0.00, 0.18, 98, 0.100, 0.100, -137.900, 393, 100, 100, 28, 24438, -16769, 5381, 5491, 11, 14, 1526236193.261, 96, 0, 1024, 1024, 1024, 1024, 0, 6, 4082, 4064, 4065, 4074, 4095, 4073, 0, 1, 11000, -89.900, 0.000, -138.500, 0.000, 0.000, -2.800, 0.0, , , , , , 98, , , 15, 15, 15
37.7328312, -120.0946846, 17.100, 11:29:53.362, 18, 0.00, 0.18, 98, 0.100, 0.200, -137.800, 393, 100, 100, 28, 24438, -16769, 5381, 5491, 11, 14, 1526236193.362, 80, 0, 1024, 1024, 1024, 1024, 0, 6, 4082, 4064, 4065, 4074, 4095, 4073, 0, 1, 11101, -89.900, 0.000, -138.500, 0.000, 0.000, -2.800, 0.0, , , , , , 98, , , 15, 15, 15
37.7328312, -120.0946846, 17.400, 11:29:53.461, 18, 0.00, 0.18, 98, 0.100, 0.400, -137.700, 393, 100, 100, 28, 24394, -16658, 5381, 5491, 11, 14, 1526236193.462, 97, 0, 1024, 1024, 1024, 1024, 0, 6, 4069, 4059, 4048, 4067, 4088, 4069, 0, 1, 11201, -89.900, 0.000, -138.500, 0.000, 0.000, -2.800, 0.0, , , , , , 98, , , 15, 15, 15
37.7328313, -120.0946846, 17.700, 11:29:53.562, 18, 0.00, 0.18, 98, -0.100, 0.300, -137.700, 393, 100, 100, 28, 24394, -16658, 5381, 5491, 11, 14, 1526236193.562, 91, 0, 1024, 1024, 1024, 1024, 0, 6, 4069, 4059, 4048, 4067, 4088, 4069, 0, 1, 11301, -89.900, 0.000, -138.500, 0.000, 0.000, -2.800, 0.0, , , , , , 98, , , 15, 15, 15
37.7328313, -120.0946847, 18.300, 11:29:53.662, 19, 0.00, 0.18, 98, 0.000, 0.300, -138.000, 393, 100, 100, 28, 24394, -16658, 5381, 5491, 11, 14, 1526236193.662, 78, 0, 1024, 1024, 1024, 1024, 0, 6, 4069, 4059, 4048, 4067, 4088, 4069, 0, 1, 11401, -89.900, 0.000, -138.500, 0.000, 0.000, -2.900, 0.0, , , , , , 98, , , 15, 15, 15
37.7328313, -120.0946847, 18.600, 11:29:53.762, 19, 0.00, 0.18, 98, 0.000, 0.300, -138.200, 393, 100, 100, 28, 24394, -16658, 5381, 5491, 11, 14, 1526236193.762, 87, 0, 1024, 1024, 1024, 1024, 0, 6, 4069, 4059, 4048, 4067, 4088, 4069, 0, 1, 11501, -89.900, 0.000, -138.500, 0.000, 0.000, -3.000, 0.0, , , , , , 98, , , 15, 15, 15
37.7328313, -120.0946847, 18.900, 11:29:53.861, 19, 0.00, 0.18, 98, 0.000, 0.200, -138.400, 393, 100, 100, 28, 24394, -16658, 5381, 5491, 11, 14, 1526236193.862, 76, 0, 1024, 1024, 1024, 1024, 0, 6, 4069, 4059, 4048, 4067, 4088, 4069, 0, 1, 11601, -89.900, 0.000, -138.500, 0.000, 0.000, -2.900, 0.0, , , , , , 98, , , 15, 15, 15
37.7328313, -120.0946848, 19.200, 11:29:53.962, 19, 0.00, 0.19, 98, 0.200, 0.000, -138.400, 393, 100, 100, 28, 24394, -16658, 5381, 5491, 11, 14, 1526236193.962, 76, 0, 1024, 1024, 1024, 1024, 0, 6, 4069, 4059, 4048, 4067, 4088, 4069, 0, 1, 11701, -90.000, 0.000, -138.500, 0.000, 0.000, -2.900, 0.0, , , , , , 98, , , 15, 15, 15
37.7328313, -120.0946848, 19.500, 11:29:54.062, 19, 0.00, 0.19, 98, 0.100, -0.100, -138.300, 393, 100, 100, 28, 24394, -16658, 5381, 5491, 11, 14, 1526236194.062, 69, 0, 1024, 1024, 1024, 1024, 0, 6, 4069, 4059, 4048, 4067, 4088, 4069, 0, 1, 11801, -90.000, 0.000, -138.500, 0.000, 0.000, -2.900, 0.0, , , , , , 98, , , 15, 15, 15
37.7328313, -120.0946848, 19.800, 11:29:54.161, 19, 0.00, 0.19, 98, 0.000, -0.300, -138.100, 393, 100, 100, 28, 24394, -16658, 5381, 5491, 11, 14, 1526236194.161, 32, 0, 1024, 1024, 1024, 1024, 0, 6, 4069, 4059, 4048, 4067, 4088, 4069, 0, 1, 11901, -90.000, 0.000, -138.500, 0.000, 0.000, -2.800, 0.0, , , , , , 98, , , 15, 15, 15
37.7328314, -120.0946848, 20.100, 11:29:54.261, 19, 0.00, 0.19, 98, 0.000, -0.200, -137.800, 393, 100, 100, 28, 24394, -16658, 5381, 5491, 11, 14, 1526236194.262, 43, 0, 1024, 1024, 1024, 1024, 0, 6, 4069, 4059, 4048, 4067, 4088, 4069, 0, 1, 12001, -90.000, 0.000, -138.500, 0.000, 0.000, -2.900, 0.0, , , , , , 98, , , 15, 15, 15
37.7328314, -120.0946849, 20.400, 11:29:54.362, 19, 0.00, 0.19, 98, -0.200, 0.000, -137.600, 393, 100, 100, 28, 24394, -16658, 5381, 5491, 11, 14, 1526236194.362, 32, 0, 1024, 1024, 1024, 1024, 0, 6, 4069, 4059, 4048, 4067, 4088, 4069, 0, 1, 12102, -89.900, 0.000, -138.500, 0.000, 0.000, -2.900, 0.0, , , , , , 98, , , 15, 15, 15
37.7328314, -120.0946850, 20.700, 11:29:54.461, 19, 0.00, 0.19, 98, -0.300, 0.200, -137.400, 393, 100, 100, 28, 24322, -17484, 5381, 5491, 11, 14, 1526236194.462, 46, 0, 1024, 1024, 1024, 1024, 0, 6, 4069, 4059, 4048, 4067, 4088, 4069, 0, 1, 12202, -89.900, 0.000, -138.500, 0.000, 0.000, -2.900, 0.0, , , , , , 98, , , 15, 15, 15
37.7328314, -120.0946851, 20.900, 11:29:54.562, 19, 0.00, 0.19, 98, -0.400, 0.300, -137.300, 393, 100, 100, 28, 24322, -17484, 5381, 5491, 11, 14, 1526236194.562, 38, 0, 1024, 1024, 1024, 1024, 0, 6, 4062, 4045, 4037, 4049, 4075, 4050, 0, 1, 12301, -89.900, 0.000, -138.500, 0.000, 0.000, -2.900, 0.0, , , , , , 98, , , 15, 15, 15
37.7328314, -120.0946851, 21.200, 11:29:54.661, 19, 0.00, 0.19, 98, -0.400, 0.500, -137.400, 393, 100, 100, 28, 24322, -17484, 5381, 5491, 11, 14, 1526236194.662, 45, 0, 1024, 1024, 1024, 1024, 0, 6, 4062, 4045, 4037, 4049, 4075, 4050, 0, 1, 12401, -89.900, 0.000, -138.500, 0.000, 0.000, -2.900, 0.0, , , , , , 98, , , 15, 15, 15
37.7328314, -120.0946852, 21.500, 11:29:54.762, 19, 0.00, 0.19, 98, -0.300, 0.500, -137.600, 393, 100, 100, 28, 24322, -17484, 5381, 5491, 11, 14, 1526236194.762, 34, 0, 1024, 1024, 1024, 1024, 0, 6, 4062, 4045, 4037, 4049, 4075, 4050, 0, 1, 12502, -89.900, 0.000, -138.500, 0.000, 0.000, -2.900, 0.0, , , , , , 98, , , 15, 15, 15
37.7328314, -120.0946852, 21.800, 11:29:54.862, 19, 0.00, 0.19, 98, -0.400, 0.600, -137.700, 393, 100, 100, 28, 24322, -17484, 5381, 5491, 11, 14, 1526236194.863, 10, 0, 1024, 1024, 1024, 1024, 0, 6, 4062, 4045, 4037, 4049, 4075, 4050, 0, 1, 12602, -89.900, 0.000, -138.500, 0.000, 0.000, -2.900, 0.0, , , , , , 98, , , 15, 15, 15
37.7328315, -120.0946853, 22.100, 11:29:54.963, 19, 0.00, 0.19, 98, -0.400, 0.600, -137.700, 393, 100, 100, 28, 24322, -17484, 5381, 5491, 11, 14, 1526236194.963, 8, 0, 1024, 1024, 1024, 1024, 0, 6, 4062, 4045, 4037, 4049, 4075, 4050, 0, 1, 12702, -89.900, 0.000, -138.500, 0.000, 0.000, -2.900, 0.0, , , , , , 98, , , 15, 15, 15
37.7328315, -120.0946853, 22.400, 11:29:55.062, 19, 0.00, 0.20, 98, -0.300, 0.600, -137.700, 393, 100, 100, 28, 24322, -17484, 5381, 5491, 11, 14, 1526236195.062, 20, 0, 1024, 1024, 1024, 1024, 0, 6, 4062, 4045, 4037, 4049, 4075, 4050, 0, 1, 12801, -89.900, 0.000, -138.500, 0.000, 0.000, -3.000, 0.0, , , , , , 98, , , 15, 15, 15
37.7328315, -120.0946853, 22.400, 11:29:55.162, 19, 0.00, 0.20, 98, -0.300, 0.600, -137.700, 393, 100, 100, 28, 24322, -17484, 5381, 5491, 11, 14, 1526236195.162, 119, 0, 1024, 1024, 1024, 1024, 0, 6, 4062, 4045, 4037, 4049, 4075, 4050, 0, 1, 12901, -89.900, 0.000, -138.500, 0.000, 0.000, -3.000, 0.0, , , , , , 98, , , 15, 15, 15
37.7328315, -120.0946853, 23.000, 11:29:55.278, 19, 0.00, 0.20, 98, -0.300, 0.300, -137.700, 393, 100, 100, 28, 24322, -17484, 5381, 5491, 11, 14, 1526236195.279, 3, 0, 1024, 1024, 1024, 1024, 0, 6, 4062, 4045, 4037, 4049, 4075, 4050, 0, 1, 13018, -89.900, 0.000, -138.500, 0.000, 0.000, -2.900, 0.0, , , , , , 98, , , 15, 15, 15
37.7328316, -120.0946853, 23.600, 11:29:55.373, 19, 0.00, 0.20, 98, -0.200, 0.000, -137.800, 393, 100, 100, 28, 24306, -17590, 5381, 5491, 11, 14, 1526236195.373, 9, 0, 1024, 1024, 1024, 1024, 0, 6, 4062, 4045, 4037, 4049, 4075, 4050, 0, 1, 13112, -90.000, 0.000, -138.500, 0.000, 0.000, -3.000, 0.0, , , , , , 98, , , 15, 15, 15
37.7328316, -120.0946853, 23.600, 11:29:55.464, 19, 0.00, 0.20, 98, -0.200, 0.000, -137.800, 393, 100, 100, 28, 24306, -17590, 5381, 5491, 11, 14, 1526236195.464, 100, 0, 1024, 1024, 1024, 1024, 0, 6, 4062, 4045, 4037, 4049, 4075, 4050, 0, 1, 13203, -89.900, 0.000, -138.500, 0.000, 0.000, -3.000, 0.0, , , , , , 98, , , 15, 15, 15
37.7328316, -120.0946853, 23.600, 11:29:55.562, 19, 0.00, 0.20, 98, -0.200, 0.000, -137.800, 393, 100, 100, 28, 24306, -17590, 5381, 5491, 11, 14, 1526236195.562, 198, 0, 1024, 1024, 1024, 1024, 0, 6, 4062, 4045, 4037, 4049, 4075, 4050, 0, 1, 13301, -89.900, 0.000, -138.500, 0.000, 0.000, -3.000, 0.0, , , , , , 98, , , 15, 15, 15
37.7328316, -120.0946853, 24.200, 11:29:55.664, 19, 0.00, 0.21, 98, -0.700, 0.000, -137.900, 393, 100, 100, 28, 24306, -17590, 5381, 5491, 11, 14, 1526236195.665, 76, 0, 1024, 1024, 1024, 1024, 0, 6, 4062, 4045, 4037, 4049, 4075, 4050, 0, 1, 13404, -89.900, 0.000, -138.500, 0.000, 0.000, -3.000, 0.0, , , , , , 98, , , 15, 15, 15
37.7328317, -120.0946853, 24.500, 11:29:55.762, 19, 0.00, 0.22, 98, -0.800, 0.000, -137.900, 393, 100, 100, 28, 24306, -17590, 5381, 5491, 11, 14, 1526236195.762, 94, 0, 1024, 1024, 1024, 1024, 0, 6, 4062, 4045, 4037, 4049, 4075, 4050, 0, 1, 13501, -89.900, 0.000, -138.500, 0.000, 0.000, -2.900, 0.0, , , , , , 98, , , 15, 15, 15
37.7328317, -120.0946853, 24.900, 11:29:55.862, 20, 0.00, 0.22, 98, -0.600, 0.000, -137.900, 393, 100, 100, 28, 24306, -17590, 5381, 5491, 11, 14, 1526236195.863, 66, 0, 1024, 1024, 1024, 1024, 0, 6, 4062, 4045, 4037, 4049, 4075, 4050, 0, 1, 13602, -89.900, 0.000, -138.500, 0.000, 0.000, -3.000, 0.0, , , , , , 98, , , 15, 15, 15
37.7328317, -120.0946852, 25.100, 11:29:55.962, 20, 0.00, 0.22, 98, -0.200, 0.000, -137.800, 393, 100, 100, 28, 24306, -17590, 5381, 5491, 11, 14, 1526236195.962, 53, 0, 1024, 1024, 1024, 1024, 0, 6, 4060, 4043, 4034, 4045, 4073, 4050, 0, 1, 13702, -90.000, 0.000, -138.500, 0.000, 0.000, -2.900, 0.0, , , , , , 98, , , 15, 15, 15
37.7328316, -120.0946852, 25.400, 11:29:56.062, 20, 0.00, 0.21, 98, 0.100, 0.000, -137.700, 393, 100, 100, 28, 24306, -17590, 5381, 5491, 11, 14, 1526236196.062, 63, 0, 1024, 1024, 1024, 1024, 0, 6, 4060, 4043, 4034, 4045, 4073, 4050, 0, 1, 13801, -89.900, 0.000, -138.500, 0.000, 0.000, -2.900, 0.0, , , , , , 98, , , 15, 15, 15
37.7328316, -120.0946852, 25.700, 11:29:56.161, 20, 0.00, 0.21, 98, 0.400, 0.000, -137.600, 393, 100, 100, 28, 24306, -17590, 5381, 5491, 11, 14, 1526236196.162, 64, 0, 1024, 1024, 1024, 1024, 0, 6, 4060, 4043, 4034, 4045, 4073, 4050, 0, 1, 13901, -89.900, 0.000, -138.500, 0.000, 0.000, -2.900, 0.0, , , , , , 98, , , 15, 15, 15
37.7328316, -120.0946851, 26.000, 11:29:56.262, 20, 0.00, 0.21, 98, 0.500, 0.100, -137.500, 393, 100, 100, 28, 24306, -17590, 5381, 5491, 11, 14, 1526236196.262, 59, 0, 1024, 1024, 1024, 1024, 0, 6, 4060, 4043, 4034, 4045, 4073, 4050, 0, 1, 14002, -89.900, 0.000, -138.500, 0.000, 0.000, -2.900, 0.0, , , , , , 98, , , 15, 15, 15
37.7328316, -120.0946851, 26.300, 11:29:56.362, 20, 0.00, 0.21, 98, 0.500, 0.200, -137.400, 393, 100, 100, 28, 24306, -17590, 5381, 5491, 11, 14, 1526236196.363, 51, 0, 1024, 1024, 1024, 1024, 0, 6, 4060, 4043, 4034, 4045, 4073, 4050, 0, 1, 14102, -89.900, 0.000, -138.500, 0.000, 0.000, -2.900, 0.0, , , , , , 98, , , 15, 15, 15
37.7328316, -120.0946851, 26.600, 11:29:56.462, 20, 0.00, 0.21, 98, 0.400, 0.200, -137.400, 393, 100, 100, 28, 24306, -17590, 5381, 5491, 11, 14, 1526236196.463, 18, 0, 1024, 1024, 1024, 1024, 0, 6, 4060, 4043, 4034, 4045, 4073, 4050, 0, 1, 14203, -90.000, 0.000, -138.500, 0.000, 0.000, -2.900, 0.0, , , , , , 98, , , 15, 15, 15
37.7328316, -120.0946850, 26.900, 11:29:56.565, 20, 0.00, 0.21, 98, 0.200, 0.000, -137.400, 393, 100, 100, 28, 24306, -17590, 5381, 5491, 11, 14, 1526236196.565, 4, 0, 1024, 1024, 1024, 1024, 0, 6, 4060, 4043, 4034, 4045, 4073, 4050, 0, 1, 14305, -90.000, 0.000, -138.500, 0.000, 0.000, -2.900, 0.0, , , , , , 98, , , 15, 15, 15
37.7328316, -120.0946850, 27.200, 11:29:56.662, 20, 0.00, 0.21, 98, 0.100, 0.000, -137.500, 393, 100, 100, 28, 24306, -17590, 5381, 5491, 11, 14, 1526236196.662, 38, 0, 1024, 1024, 1024, 1024, 0, 6, 4060, 4043, 4034, 4045, 4073, 4050, 0, 1, 14401, -90.000, 0.000, -138.500, 0.000, 0.000, -2.900, 0.0, , , , , , 98, , , 15, 15, 15
37.7328316, -120.0946850, 27.500, 11:29:56.762, 20, 0.00, 0.21, 98, 0.100, 0.000, -137.600, 393, 100, 100, 28, 24306, -17590, 5381, 5491, 11, 14, 1526236196.763, 17, 0, 1024, 1024, 1024, 1024, 0, 6, 4060, 4043, 4034, 4045, 4073, 4050, 0, 1, 14502, -89.900, 0.000, -138.500, 0.000, 0.000, -2.900, 0.0, , , , , , 98, , , 15, 15, 15
37.7328315, -120.0946850, 27.800, 11:29:56.861, 20, 0.00, 0.21, 98, 0.000, 0.200, -137.700, 393, 100, 100, 28, 24252, -17809, 5381, 5491, 11, 14, 1526236196.862, 17, 0, 1024, 1024, 1024, 1024, 0, 6, 4060, 4043, 4034, 4045, 4073, 4050, 0, 1, 14601, -89.900, 0.000, -138.500, 0.000, 0.000, -2.900, 0.0, , , , , , 98, , , 15, 15, 15
37.7328315, -120.0946850, 27.800, 11:29:56.962, 20, 0.00, 0.21, 98, 0.000, 0.200, -137.700, 393, 100, 100, 28, 24252, -17809, 5381, 5491, 11, 14, 1526236196.962, 117, 0, 1024, 1024, 1024, 1024, 0, 6, 4060, 4043, 4034, 4045, 4073, 4050, 0, 1, 14701, -89.900, 0.000, -138.500, 0.000, 0.000, -2.900, 0.0, , , , , , 98, , , 15, 15, 15
37.7328315, -120.0946850, 28.100, 11:29:57.061, 20, 0.00, 0.20, 98, 0.100, 0.500, -137.800, 393, 100, 100, 28, 24252, -17809, 5381, 5491, 11, 14, 1526236197.061, 95, 0, 1024, 1024, 1024, 1024, 0, 6, 4060, 4043, 4034, 4045, 4073, 4050, 0, 1, 14800, -89.900, 0.000, -138.500, 0.000, 0.000, -3.000, 0.0, , , , , , 98, , , 15, 15, 15
37.7328315, -120.0946849, 28.300, 11:29:57.162, 20, 0.00, 0.20, 98, 0.100, 0.500, -138.000, 393, 100, 100, 28, 24252, -17809, 5381, 5491, 11, 14, 1526236197.162, 83, 0, 1024, 1024, 1024, 1024, 0, 6, 4060, 4043, 4034, 4045, 4073, 4050, 0, 1, 14901, -89.900, 0.000, -138.500, 0.000, 0.000, -2.900, 0.0, , , , , , 98, , , 15, 15, 15
37.7328315, -120.0946849, 28.600, 11:29:57.262, 20, 0.00, 0.20, 98, 0.100, 0.600, -138.200, 393, 100, 100, 28, 24252, -17809, 5381, 5491, 11, 14, 1526236197.262, 69, 0, 1024, 1024, 1024, 1024, 0, 6, 4060, 4043, 4034, 4045, 4073, 4050, 0, 1, 15001, -89.900, 0.000, -138.500, 0.000, 0.000, -3.000, 0.0, , , , , , 98, , , 15, 15, 15
37.7328314, -120.0946849, 29.200, 11:29:57.362, 20, 0.00, 0.19, 98, 0.000, 0.300, -138.600, 393, 100, 100, 28, 24252, -17809, 5381, 5491, 11, 14, 1526236197.362, 69, 0, 1024, 1024, 1024, 1024, 0, 6, 4060, 4043, 4034, 4045, 4073, 4050, 0, 1, 15101, -89.900, 0.000, -138.500, 0.000, 0.000, -3.000, 0.0, , , , , , 98, , , 15, 15, 15
37.7328314, -120.0946848, 29.500, 11:29:57.461, 20, 0.00, 0.19, 98, 0.300, 0.100, -138.600, 393, 100, 100, 28, 24252, -17809, 5381, 5491, 11, 14, 1526236197.462, 84, 0, 1024, 1024, 1024, 1024, 0, 6, 4060, 4043, 4034, 4045, 4073, 4050, 0, 1, 15201, -90.000, 0.000, -138.500, 0.000, 0.000, -3.000, 0.0, , , , , , 98, , , 15, 15, 15
37.7328314, -120.0946848, 29.800, 11:29:57.561, 20, 0.00, 0.19, 98, 0.600, 0.000, -138.500, 393, 100, 99, 28, 24252, -17809, 5381, 5491, 11, 14, 1526236197.562, 70, 0, 1024, 1024, 1024, 1024, 0, 6, 4060, 4043, 4034, 4045, 4073, 4050, 0, 1, 15301, -90.000, 0.000, -138.500, 0.000, 0.000, -3.000, 0.0, , , , , , 98, , , 15, 15, 15
37.7328313, -120.0946847, 30.100, 11:29:57.662, 20, 0.00, 0.19, 98, 0.800, 0.100, -138.300, 393, 100, 99, 28, 24252, -17809, 5381, 5491, 11, 14, 1526236197.662, 68, 0, 1024, 1024, 1024, 1024, 0, 6, 4060, 4043, 4034, 4045, 4073, 4050, 0, 1, 15401, -89.900, 0.000, -138.500, 0.000, 0.000, -3.000, 0.0, , , , , , 98, , , 15, 15, 15
37.7328313, -120.0946847, 30.400, 11:29:57.762, 20, 0.00, 0.19, 98, 0.800, 0.300, -138.000, 393, 100, 99, 28, 24252, -17809, 5381, 5491, 11, 14, 1526236197.762, 84, 0, 1024, 1024, 1024, 1024, 0, 6, 4060, 4043, 4034, 4045, 4073, 4050, 0, 1, 15501, -89.900, 0.000, -138.500, 0.000, 0.000, -3.000, 0.0, , , , , , 98, , , 15, 15, 15
37.7328313, -120.0946846, 30.800, 11:29:57.862, 20, 0.00, 0.18, 98, 0.800, 0.300, -137.800, 393, 100, 99, 28, 24252, -17809, 5381, 5491, 11, 14, 1526236197.863, 60, 0, 1024, 1024, 1024, 1024, 0, 6, 4060, 4043, 4034, 4045, 4073, 4050, 0, 1, 15602, -89.900, 0.000, -138.500, 0.000, 0.000, -3.100, 0.0, , , , , , 98, , , 15, 15, 15
37.7328313, -120.0946846, 31.100, 11:29:57.961, 20, 0.00, 0.19, 97, 0.700, -0.200, -137.900, 393, 100, 99, 28, 24159, -18316, 5326, 5491, 11, 14, 1526236197.962, 64, 0, 1024, 1024, 1024, 1024, 0, 6, 4027, 4012, 4012, 4009, 4059, 4026, 0, 1, 15701, -90.000, 0.000, -138.500, 0.000, 0.000, -3.100, 0.0, , , , , , 98, , , 15, 15, 15
37.7328313, -120.0946846, 31.400, 11:29:58.062, 20, 0.00, 0.19, 97, 0.300, -0.600, -138.400, 393, 100, 98, 28, 24159, -18316, 5326, 5491, 11, 14, 1526236198.062, 78, 0, 1024, 1024, 1024, 1024, 0, 6, 4027, 4012, 4012, 4009, 4059, 4026, 0, 1, 15801, -90.000, 0.000, -138.500, 0.000, 0.000, -3.100, 0.0, , , , , , 98, , , 15, 15, 15
37.7328313, -120.0946845, 31.800, 11:29:58.161, 20, 0.00, 0.19, 97, 0.100, -0.800, -139.200, 393, 100, 98, 28, 24159, -18316, 5326, 5491, 11, 14, 1526236198.162, 12, 0, 1024, 1024, 1024, 1024, 0, 6, 4027, 4012, 4012, 4009, 4059, 4026, 0, 1, 15901, -90.000, 0.000, -138.500, 0.000, 0.000, -3.200, 0.0, , , , , , 98, , , 15, 15, 15
37.7328313, -120.0946845, 32.100, 11:29:58.262, 20, 0.00, 0.19, 97, 0.200, -0.600, -140.000, 393, 100, 98, 28, 24159, -18316, 5326, 5491, 11, 14, 1526236198.262, 52, 0, 1024, 1024, 1024, 1024, 0, 6, 4027, 4012, 4012, 4009, 4059, 4026, 0, 1, 16001, -90.000, 0.000, -138.500, 0.000, 0.000, -3.100, 0.0, , , , , , 98, , , 15, 15, 15
37.7328313, -120.0946845, 32.100, 11:29:58.362, 20, 0.00, 0.19, 97, 0.200, -0.600, -140.000, 393, 100, 98, 28, 24159, -18316, 5326, 5491, 11, 14, 1526236198.362, 152, 0, 1024, 1024, 1024, 1024, 0, 6, 4027, 4012, 4012, 4009, 4059, 4026, 0, 1, 16101, -90.000, 0.000, -138.500, 0.000, 0.000, -3.100, 0.0, , , , , , 98, , , 15, 15, 15
37.7328312, -120.0946843, 32.700, 11:29:58.461, 20, 0.10, 0.19, 97, 1.700, -0.500, -139.900, 393, 100, 96, 28, 24159, -18316, 5326, 5491, 11, 14, 1526236198.462, 53, 0, 1024, 1024, 1024, 1024, 0, 6, 4027, 4012, 4012, 4009, 4059, 4026, 0, 1, 16201, -89.900, 0.000, -138.500, -0.100, 0.000, -2.900, 0.0, , , , , , 98, , , 15, 15, 15
37.7328312, -120.0946843, 33.000, 11:29:58.562, 20, 0.10, 0.19, 97, 2.300, -0.200, -139.200, 393, 100, 96, 28, 24159, -18316, 5326, 5491, 11, 14, 1526236198.563, 21, 0, 1024, 1024, 1024, 1024, 0, 6, 4027, 4012, 4012, 4009, 4059, 4026, 0, 1, 16302, -89.900, 0.000, -138.500, -0.100, 0.000, -2.800, 0.0, , , , , , 98, , , 15, 15, 15
37.7328311, -120.0946843, 33.300, 11:29:58.661, 20, 0.10, 0.18, 97, 2.700, -0.100, -138.300, 393, 100, 96, 28, 24159, -18316, 5326, 5491, 11, 14, 1526236198.661, 18, 0, 1024, 1024, 1024, 1024, 0, 6, 4027, 4012, 4012, 4009, 4059, 4026, 0, 1, 16400, -89.900, 0.000, -138.500, -0.100, 0.000, -2.900, 0.0, , , , , , 98, , , 15, 15, 15
37.7328310, -120.0946843, 33.600, 11:29:58.762, 20, 0.00, 0.18, 97, 2.900, 0.100, -137.400, 393, 100, 96, 28, 24159, -18316, 5326, 5491, 11, 14, 1526236198.762, 29, 0, 1024, 1024, 1024, 1024, 0, 6, 4027, 4012, 4012, 4009, 4059, 4026, 0, 1, 16501, -89.900, 0.000, -138.500, 0.000, 0.000, -2.900, 0.0, , , , , , 98, , , 15, 15, 15
37.7328310, -120.0946842, 33.900, 11:29:58.866, 20, 0.00, 0.17, 97, 2.600, 0.400, -136.800, 393, 100, 96, 28, 24159, -18316, 5326, 5491, 11, 14, 1526236198.867, 5, 0, 1024, 1024, 1024, 1024, 0, 6, 4027, 4012, 4012, 4009, 4059, 4026, 0, 1, 16606, -89.900, 0.000, -138.500, 0.000, 0.000, -2.800, 0.0, , , , , , 98, , , 15, 15, 15
37.7328309, -120.0946842, 34.200, 11:29:58.971, 20, 0.00, 0.17, 97, 2.200, 0.500, -136.500, 393, 100, 96, 28, 24212, -18385, 5326, 5491, 11, 14, 1526236198.971, 9, 0, 1024, 1024, 1024, 1024, 0, 6, 4046, 4027, 4020, 4026, 4053, 4042, 0, 1, 16711, -89.900, 0.000, -138.500, 0.000, 0.000, -2.800, 0.0, , , , , , 98, , , 15, 15, 15
37.7328309, -120.0946842, 34.500, 11:29:59.066, 20, 0.00, 0.17, 97, 1.800, 0.300, -136.400, 393, 100, 97, 28, 24212, -18385, 5326, 5491, 11, 14, 1526236199.067, 13, 0, 1024, 1024, 1024, 1024, 0, 6, 4046, 4027, 4020, 4026, 4053, 4042, 0, 1, 16806, -89.900, 0.000, -138.500, 0.000, 0.000, -2.900, 0.0, , , , , , 98, , , 15, 15, 15
37.7328309, -120.0946842, 34.500, 11:29:59.161, 20, 0.00, 0.17, 97, 1.800, 0.300, -136.400, 393, 100, 97, 28, 24212, -18385, 5326, 5491, 11, 14, 1526236199.161, 108, 0, 1024, 1024, 1024, 1024, 0, 6, 4046, 4027, 4020, 4026, 4053, 4042, 0, 1, 16900, -89.900, 0.000, -138.500, 0.000, 0.000, -2.900, 0.0, , , , , , 98, , , 15, 15, 15
37.7328309, -120.0946841, 35.100, 11:29:59.266, 20, 0.00, 0.17, 97, 1.400, 0.100, -136.700, 393, 100, 97, 28, 24212, -18385, 5326, 5491, 11, 14, 1526236199.266, 12, 0, 1024, 1024, 1024, 1024, 0, 6, 4046, 4027, 4020, 4026, 4053, 4042, 0, 1, 17005, -90.000, 0.000, -138.500, 0.000, 0.000, -2.800, 0.0, , , , , , 98, , , 15, 15, 15
37.7328309, -120.0946840, 35.600, 11:29:59.382, 20, 0.00, 0.18, 97, 1.800, 0.000, -137.100, 393, 100, 97, 28, 24212, -18385, 5326, 5491, 11, 14, 1526236199.383, 9, 0, 1024, 1024, 1024, 1024, 0, 6, 4046, 4027, 4020, 4026, 4053, 4042, 0, 1, 17122, -89.900, 0.000, -138.500, 0.000, 0.000, -2.800, 0.0, , , , , , 98, , , 15, 15, 15
37.7328309, -120.0946839, 35.900, 11:29:59.463, 20, 0.00, 0.19, 97, 1.600, -0.100, -137.500, 393, 100, 97, 28, 24212, -18385, 5326, 5491, 11, 14, 1526236199.463, 11, 0, 1024, 1024, 1024, 1024, 0, 6, 4046, 4027, 4020, 4026, 4053, 4042, 0, 1, 17202, -89.900, 0.000, -138.500, 0.000, 0.000, -2.800, 0.0, , , , , , 98, , , 15, 15, 15
37.7328309, -120.0946839, 35.900, 11:29:59.562, 20, 0.00, 0.19, 97, 1.600, -0.100, -137.500, 393, 100, 97, 28, 24212, -18385, 5326, 5491, 11, 14, 1526236199.562, 110, 0, 1024, 1024, 1024, 1024, 0, 6, 4046, 4027, 4020, 4026, 4053, 4042, 0, 1, 17301, -89.900, 0.000, -138.500, 0.000, 0.000, -2.800, 0.0, , , , , , 98, , , 15, 15, 15
37.7328310, -120.0946838, 36.200, 11:29:59.662, 21, 0.00, 0.20, 97, 1.200, -0.700, -137.900, 393, 100, 97, 28, 24212, -18385, 5326, 5491, 11, 14, 1526236199.662, 82, 0, 1024, 1024, 1024, 1024, 0, 6, 4046, 4027, 4020, 4026, 4053, 4042, 0, 1, 17401, -90.000, 0.000, -138.500, 0.000, 0.000, -2.900, 0.0, , , , , , 98, , , 15, 15, 15
37.7328310, -120.0946838, 36.500, 11:29:59.762, 21, 0.00, 0.20, 97, 1.000, -1.400, -138.200, 393, 100, 97, 28, 24212, -18385, 5326, 5491, 11, 14, 1526236199.762, 79, 0, 1024, 1024, 1024, 1024, 0, 6, 4046, 4027, 4020, 4026, 4053, 4042, 0, 1, 17501, -90.000, 0.000, -138.500, 0.000, 0.000, -2.900, 0.0, , , , , , 98, , , 15, 15, 15
37.7328311, -120.0946837, 36.700, 11:29:59.862, 21, 0.00, 0.21, 97, 1.000, -2.100, -138.400, 393, 100, 97, 28, 24212, -18385, 5326, 5491, 11, 14, 1526236199.863, 83, 0, 1024, 1024, 1024, 1024, 0, 6, 4046, 4027, 4020, 4026, 4053, 4042, 0, 1, 17602, -90.000, 0.000, -138.500, 0.000, 0.000, -2.900, 0.0, , , , , , 98, , , 15, 15, 15
37.7328312, -120.0946836, 37.000, 11:29:59.962, 21, 0.00, 0.23, 97, 0.900, -2.500, -138.400, 393, 100, 97, 28, 24212, -16583, 5326, 5491, 11, 14, 1526236199.963, 65, 0, 1024, 1024, 1024, 1024, 0, 6, 4046, 4027, 4020, 4026, 4053, 4042, 0, 1, 17702, -90.000, 0.000, -138.500, 0.000, 0.000, -3.000, 0.0, , , , , , 98, , , 15, 15, 15
37.7328312, -120.0946835, 37.300, 11:30:00.061, 21, 0.00, 0.23, 97, 1.000, -2.700, -138.200, 393, 100, 99, 28, 24212, -16583, 5326, 5491, 11, 14, 1526236200.062, 45, 0, 1024, 1024, 1024, 1024, 0, 6, 4046, 4027, 4020, 4026, 4053, 4042, 0, 1, 17801, -90.000, 0.000, -138.500, 0.000, 0.000, -3.000, 0.0, , , , , , 98, , , 15, 15, 15
37.7328312, -120.0946834, 37.600, 11:30:00.162, 21, 0.00, 0.24, 97, 1.200, -2.600, -137.900, 393, 100, 99, 28, 24212, -16583, 5326, 5491, 11, 14, 1526236200.162, 6, 0, 1024, 1024, 1024, 1024, 0, 6, 4041, 4027, 4025, 4025, 4051, 4040, 0, 1, 17901, -89.900, 0.000, -138.500, 0.000, 0.000, -2.900, 0.0, , , , , , 98, , , 15, 15, 15
37.7328312, -120.0946833, 37.900, 11:30:00.262, 21, 0.00, 0.25, 97, 1.300, -2.200, -137.700, 393, 100, 99, 28, 24212, -16583, 5326, 5491, 11, 14, 1526236200.262, 59, 0, 1024, 1024, 1024, 1024, 0, 6, 4041, 4027, 4025, 4025, 4051, 4040, 0, 1, 18001, -89.900, 0.000, -138.500, 0.000, 0.000, -3.000, 0.0, , , , , , 98, , , 15, 15, 15
37.7328312, -120.0946833, 38.200, 11:30:00.362, 21, 0.00, 0.25, 97, 1.600, -2.000, -137.500, 393, 100, 99, 28, 24212, -16583, 5326, 5491, 11, 14, 1526236200.362, 34, 0, 1024, 1024, 1024, 1024, 0, 6, 4041, 4027, 4025, 4025, 4051, 4040, 0, 1, 18101, -89.900, 0.000, -138.500, 0.000, 0.000, -3.100, 0.0, , , , , , 98, , , 15, 15, 15
37.7328313, -120.0946833, 38.500, 11:30:00.461, 21, 0.00, 0.25, 97, 1.800, -1.900, -137.400, 393, 100, 100, 28, 24212, -16583, 5326, 5491, 11, 14, 1526236200.462, 43, 0, 1024, 1024, 1024, 1024, 0, 6, 4041, 4027, 4025, 4025, 4051, 4040, 0, 1, 18201, -89.900, 0.000, -138.500, 0.000, 0.000, -3.000, 0.0, , , , , , 98, , , 15, 15, 15
37.7328313, -120.0946833, 38.800, 11:30:00.562, 21, 0.00, 0.25, 97, 1.700, -1.800, -137.300, 393, 100, 100, 28, 24212, -16583, 5326, 5491, 11, 14, 1526236200.562, 52, 0, 1024, 1024, 1024, 1024, 0, 6, 4041, 4027, 4025, 4025, 4051, 4040, 0, 1, 18301, -89.900, 0.000, -138.500, 0.000, 0.000, -3.000, 0.0, , , , , , 98, , , 15, 15, 15
37.7328313, -120.0946833, 39.100, 11:30:00.662, 21, 0.00, 0.25, 97, 1.500, -1.800, -137.300, 393, 100, 100, 28, 24212, -16583, 5326, 5491, 11, 14, 1526236200.662, 31, 0, 1024, 1024, 1024, 1024, 0, 6, 4041, 4027, 4025, 4025, 4051, 4040, 0, 1, 18401, -89.900, 0.000, -138.500, 0.000, 0.000, -3.000, 0.0, , , , , , 98, , , 15, 15, 15
37.7328313, -120.0946833, 39.400, 11:30:00.762, 21, 0.00, 0.25, 97, 1.000, -1.700, -137.400, 393, 100, 100, 28, 24212, -16583, 5326, 5491, 11, 14, 1526236200.762, 23, 0, 1024, 1024, 1024, 1024, 0, 6, 4041, 4027, 4025, 4025, 4051, 4040, 0, 1, 18501, -89.900, 0.000, -138.500, 0.000, 0.000, -3.000, 0.0, , , , , , 98, , , 15, 15, 15
37.7328314, -120.0946834, 39.700, 11:30:00.862, 21, 0.00, 0.26, 97, 0.700, -1.700, -137.600, 393, 100, 100, 28, 24009, -19922, 5326, 5491, 11, 14, 1526236200.862, 22, 0, 1024, 1024, 1024, 1024, 0, 6, 4008, 3996, 3995, 3991, 4027, 4009, 0, 1, 18601, -89.900, 0.000, -138.500, 0.000, 0.000, -3.000, 0.0, , , , , , 98, , , 15, 15, 15
37.7328314, -120.0946834, 40.000, 11:30:00.962, 21, 0.00, 0.26, 97, 0.500, -1.800, -137.800, 393, 100, 100, 28, 24009, -19922, 5326, 5491, 11, 14, 1526236200.962, 26, 0, 1024, 1024, 1024, 1024, 0, 6, 4008, 3996, 3995, 3991, 4027, 4009, 0, 1, 18701, -89.900, 0.000, -138.500, 0.000, 0.000, -3.000, 0.0, , , , , , 98, , , 15, 15, 15
37.7328315, -120.0946834, 40.300, 11:30:01.062, 21, 0.00, 0.26, 97, 0.500, -1.900, -137.900, 393, 100, 100, 28, 24009, -19922, 5326, 5491, 11, 14, 1526236201.062, 31, 0, 1024, 1024, 1024, 1024, 0, 6, 4008, 3996, 3995, 3991, 4027, 4009, 0, 1, 18801, -89.900, 0.000, -138.500, 0.000, 0.000, -3.000, 0.0, , , , , , 98, , , 15, 15, 15
37.7328315, -120.0946835, 40.700, 11:30:01.161, 21, 0.00, 0.26, 97, 0.500, -1.900, -138.000, 393, 100, 100, 28, 24009, -19922, 5326, 5491, 11, 14, 1526236201.161, 12, 0, 1024, 1024, 1024, 1024, 0, 6, 4008, 3996, 3995, 3991, 4027, 4009, 0, 1, 18901, -89.900, 0.000, -138.500, 0.000, 0.000, -3.100, 0.0, , , , , , 98, , , 15, 15, 15
37.7328315, -120.0946835, 41.000, 11:30:01.263, 21, 0.00, 0.26, 97, 0.500, -1.900, -137.900, 393, 100, 100, 28, 24009, -19922, 5326, 5491, 11, 14, 1526236201.265, 11, 0, 1024, 1024, 1024, 1024, 0, 6, 4008, 3996, 3995, 3991, 4027, 4009, 0, 1, 19004, -89.900, 0.000, -138.500, 0.000, 0.000, -3.100, 0.0, , , , , , 98, , , 15, 15, 15
37.7328316, -120.0946835, 41.300, 11:30:01.363, 21, 0.00, 0.26, 97, 0.500, -1.900, -137.900, 393, 100, 100, 28, 24009, -19922, 5326, 5491, 11, 14, 1526236201.364, 4, 0, 1024, 1024, 1024, 1024, 0, 6, 4008, 3996, 3995, 3991, 4027, 4009, 0, 1, 19103, -89.900, 0.000, -138.500, 0.000, 0.000, -3.000, 0.0, , , , , , 98, , , 15, 15, 15
37.7328316, -120.0946836, 41.600, 11:30:01.464, 21, 0.00, 0.26, 97, 0.300, -2.100, -137.900, 393, 100, 98, 28, 24009, -19922, 5326, 5491, 11, 14, 1526236201.465, 13, 0, 1024, 1024, 1024, 1024, 0, 6, 4008, 3996, 3995, 3991, 4027, 4009, 0, 1, 19204, -89.900, 0.000, -138.500, 0.000, 0.000, -3.000, 0.0, , , , , , 98, , , 15, 15, 15
37.7328316, -120.0946836, 41.900, 11:30:01.567, 21, 0.00, 0.26, 97, 0.200, -2.100, -138.000, 393, 100, 98, 28, 24009, -19922, 5326, 5491, 11, 14, 1526236201.568, 7, 0, 1024, 1024, 1024, 1024, 0, 6, 4008, 3996, 3995, 3991, 4027, 4009, 0, 1, 19307, -89.900, 0.000, -138.500, 0.000, 0.000, -2.900, 0.0, , , , , , 98, , , 15, 15, 15
37.7328316, -120.0946837, 42.500, 11:30:01.673, 21, 0.00, 0.26, 97, 0.600, -1.900, -137.800, 393, 100, 98, 28, 24009, -19922, 5326, 5491, 11, 14, 1526236201.674, 13, 0, 1024, 1024, 1024, 1024, 0, 6, 4008, 3996, 3995, 3991, 4027, 4009, 0, 1, 19413, -89.900, 0.000, -138.500, 0.000, 0.000, -3.000, 0.0, , , , , , 98, , , 15, 15, 15
37.7328316, -120.0946837, 42.500, 11:30:01.762, 21, 0.00, 0.26, 97, 0.600, -1.900, -137.800, 393, 100, 98, 28, 24009, -19922, 5326, 5491, 11, 14, 1526236201.762, 102, 0, 1024, 1024, 1024, 1024, 0, 6, 4008, 3996, 3995, 3991, 4027, 4009, 0, 1, 19502, -89.900, 0.000, -138.500, 0.000, 0.000, -3.000, 0.0, , , , , , 98, , , 15, 15, 15
37.7328316, -120.0946838, 42.800, 11:30:01.861, 21, 0.00, 0.25, 97, 0.600, -1.700, -137.600, 393, 100, 98, 28, 24009, -19922, 5326, 5491, 11, 14, 1526236201.862, 84, 0, 1024, 1024, 1024, 1024, 0, 6, 4008, 3996, 3995, 3991, 4027, 4009, 0, 1, 19601, -89.900, 0.000, -138.500, 0.000, 0.000, -3.000, 0.0, , , , , , 98, , , 15, 15, 15
37.7328316, -120.0946839, 43.100, 11:30:01.962, 21, 0.00, 0.25, 97, 0.400, -1.500, -137.500, 393, 100, 98, 28, 24065, -18615, 5326, 5491, 11, 14, 1526236201.962, 59, 0, 1024, 1024, 1024, 1024, 0, 6, 4008, 3996, 3995, 3991, 4027, 4009, 0, 1, 19701, -89.900, 0.000, -138.500, 0.000, 0.000, -2.900, 0.0, , , , , , 98, , , 15, 15, 15
37.7328316, -120.0946839, 43.400, 11:30:02.062, 21, 0.00, 0.25, 97, 0.100, -1.300, -137.600, 393, 100, 96, 28, 24065, -18615, 5326, 5491, 11, 14, 1526236202.062, 76, 0, 1024, 1024, 1024, 1024, 0, 6, 4008, 3996, 3995, 3991, 4027, 4009, 0, 1, 19802, -89.900, 0.000, -138.500, 0.000, 0.000, -3.000, 0.0, , , , , , 98, , , 15, 15, 15
37.7328316, -120.0946839, 43.700, 11:30:02.162, 21, 0.00, 0.25, 97, 0.000, -1.500, -137.800, 393, 100, 96, 28, 24065, -18615, 5326, 5491, 11, 14, 1526236202.163, 17, 0, 1024, 1024, 1024, 1024, 0, 6, 4008, 3996, 3995, 3991, 4027, 4009, 0, 1, 19902, -89.900, 0.000, -138.500, 0.000, 0.000, -3.000, 0.0, , , , , , 98, , , 15, 15, 15
37.7328316, -120.0946839, 44.100, 11:30:02.262, 21, 0.00, 0.25, 97, 0.100, -1.800, -138.000, 393, 100, 96, 28, 24065, -18615, 5326, 5491, 11, 14, 1526236202.263, 32, 0, 1024, 1024, 1024, 1024, 0, 6, 4008, 3996, 3995, 3991, 4027, 4009, 0, 1, 20002, -90.000, 0.000, -138.500, 0.000, 0.000, -3.000, 0.0, , , , , , 98, , , 15, 15, 15
37.7328316, -120.0946839, 44.400, 11:30:02.365, 21, 0.00, 0.25, 97, 0.500, -2.100, -138.100, 393, 100, 96, 28, 24065, -18615, 5326, 5491, 11, 14, 1526236202.365, 4, 0, 1024, 1024, 1024, 1024, 0, 6, 4008, 3996, 3995, 3991, 4027, 4009, 0, 1, 20104, -90.000, 0.000, -138.500, 0.000, 0.000, -3.000, 0.0, , , , , , 98, , , 15, 15, 15
37.7328317, -120.0946839, 44.700, 11:30:02.461, 21, 0.00, 0.25, 97, 0.700, -2.300, -138.100, 393, 100, 97, 28, 24065, -18615, 5326, 5491, 11, 14, 1526236202.462, 34, 0, 1024, 1024, 1024, 1024, 0, 6, 4008, 3996, 3995, 3991, 4027, 4009, 0, 1, 20201, -90.000, 0.000, -138.500, 0.000, 0.000, -2.900, 0.0, , , , , , 98, , , 15, 15, 15
37.7328317, -120.0946838, 45.000, 11:30:02.562, 21, 0.00, 0.26, 97, 0.900, -2.600, -138.000, 393, 100, 97, 28, 24065, -18615, 5326, 5491, 11, 14, 1526236202.562, 50, 0, 1024, 1024, 1024, 1024, 0, 6, 4015, 4003, 4002, 3997, 4037, 4018, 0, 1, 20302, -90.000, 0.000, -138.500, 0.000, 0.000, -2.900, 0.0, , , , , , 98, , , 15, 15, 15
37.7328317, -120.0946837, 45.300, 11:30:02.662, 21, 0.00, 0.26, 97, 1.300, -2.700, -137.800, 393, 100, 97, 28, 24065, -18615, 5326, 5491, 11, 14, 1526236202.663, 37, 0, 1024, 1024, 1024, 1024, 0, 6, 4015, 4003, 4002, 3997, 4037, 4018, 0, 1, 20402, -90.000, 0.000, -138.500, 0.000, 0.000, -3.000, 0.0, , , , , , 98, , , 15, 15, 15
37.7328316, -120.0946836, 45.600, 11:30:02.761, 21, 0.00, 0.26, 97, 1.600, -2.800, -137.800, 393, 100, 97, 28, 24065, -18615, 5326, 5491, 11, 14, 1526236202.762, 50, 0, 1024, 1024, 1024, 1024, 0, 6, 4015, 4003, 4002, 3997, 4037, 4018, 0, 1, 20501, -90.000, 0.000, -138.500, 0.000, 0.000, -3.000, 0.0, , , , , , 98, , , 15, 15, 15
37.7328316, -120.0946835, 45.900, 11:30:02.862, 21, 0.00, 0.27, 97, 2.000, -3.000, -137.800, 393, 100, 97, 28, 24065, -18615, 5326, 5491, 11, 14, 1526236202.862, 38, 0, 1024, 1024, 1024, 1024, 0, 6, 4015, 4003, 4002, 3997, 4037, 4018, 0, 1, 20601, -90.000, 0.000, -138.500, 0.000, 0.000, -3.000, 0.0, , , , , , 98, , , 15, 15, 15
37.7328317, -120.0946834, 46.200, 11:30:02.961, 21, 0.00, 0.27, 97, 2.000, -3.400, -137.800, 393, 100, 96, 28, 24065, -18615, 5326, 5491, 11, 14, 1526236202.962, 33, 0, 1024, 1024, 1024, 1024, 0, 6, 4015, 4003, 4002, 3997, 4037, 4018, 0, 1, 20701, -90.000, 0.000, -138.500, 0.000, 0.000, -3.000, 0.0, , , , , , 98, , , 15, 15, 15
