latitude,longitude,altitude(feet),ascent(feet),speed(mph),distance(feet),time(millisecond),datetime(utc),satellites,gpslevel,voltage(v),max_altitude(feet),max_ascent(feet),max_speed(mph),max_distance(feet), xSpeed(mph), ySpeed(mph), zSpeed(mph), compass_heading(degrees), pitch(degrees), roll(degrees),isPhoto,isVideo,rc_elevator,rc_aileron,rc_throttle,rc_rudder,gimbal_heading(degrees),gimbal_pitch(degrees),battery_percent,voltageCell1,voltageCell2,voltageCell3,voltageCell4,voltageCell5,voltageCell6,current(A),battery_temperature(f),flycStateRaw,flycState,message
37.7328203,-120.0946498,3056.3273369757,0,0,0,2800,2018-05-13 19:30:23,16,0,0,3056.3273369757,0,0,0,0,0,0,33.7, 1.2, -0.9,1,0,1024,1024,1024,1024,32.3,-89.9,100,4.259,4.272,4.26,4.282,4.249,4.251,0,71.6,11,AutoTakeoff,DJI_0581.jpg Starting Mission from Lat/Long: 37.73282/-120.09465 Camera: Zenmuse X3 - Overlap: 90/90 - Active Connection: No
37.7328203,-120.0946499,3056.3273369757,0,0,0.0288549549916,2900,2018-05-13 19:30:23,16,0,0,3056.3273369757,0,0,0.0288549549916,0,0,0,33.9, 1.1, -0.2,0,0,1024,1024,1024,1024,32.3,-89.9,100,4.259,4.272,4.26,4.282,4.249,4.251,0,71.6,11,AutoTakeoff,
37.7328203,-120.09465,3056.3273369757,0,0,0.0577099756,3000,2018-05-13 19:30:23,16,0,25.465,3056.3273369757,0,0,0.0577099756,0,0,0,33.9, 0.6, 0.2,0,0,1024,1024,1024,1024,32.3,-90,100,4.259,4.272,4.26,4.282,4.249,4.251,3.989,71.6,11,AutoTakeoff,
37.7328203,-120.0946501,3056.3273369757,0,0,0.0865649634,3100,2018-05-13 19:30:23,16,0,25.465,3056.3273369757,0,0,0.0865649634,0,0,0,33.8, 0, 0.5,0,0,1024,1024,1024,1024,32.3,-90,100,4.259,4.272,4.26,4.282,4.249,4.251,3.989,71.6,11,AutoTakeoff,
37.7328203,-120.0946502,3056.3273369757,0,0,0.1154199512,3200,2018-05-13 19:30:23,16,0,25.465,3056.3273369757,0,0,0.1154199512,0,0,0,33.7, -0.6, 0.9,0,0,1024,1024,1024,1024,32.3,-90,100,4.259,4.272,4.26,4.282,4.249,4.251,3.989,71.6,11,AutoTakeoff,
37.7328202,-120.0946503,3056.3273369757,0,0,0.148816605812,3300,2018-05-13 19:30:23,16,0,25.465,3056.3273369757,0,0,0.148816605812,0,0,0,33.6, -0.5, 1,0,0,1024,1024,1024,1024,32.4,-90,100,4.259,4.272,4.26,4.282,4.249,4.251,3.989,71.6,11,AutoTakeoff,
37.7328202,-120.0946502,3056.3273369757,0,0,0.121049216472,3400,2018-05-13 19:30:23,16,0,25.465,3056.3273369757,0,0,0.148816605812,0,0,0,33.5, -0.4, 0.6,0,0,1024,1024,1024,1024,32.4,-89.9,100,4.259,4.272,4.26,4.282,4.249,4.251,3.989,71.6,11,AutoTakeoff,
37.7328201,-120.0946502,3056.6554209757,0.328084,0,0.136551513556,3500,2018-05-13 19:30:23,16,0,25.465,3056.6554209757,0.328084,0,0.148816605812,0,0,0,33.4, -0.2, 0,0,0,1024,1024,1024,1024,32.4,-89.9,100,4.259,4.272,4.26,4.282,4.249,4.251,3.989,71.6,11,AutoTakeoff,
37.7328201,-120.0946502,3056.6554209757,0.328084,0,0.136551513556,3600,2018-05-13 19:30:23,16,0,25.465,3056.6554209757,0.328084,0,0.148816605812,0,0,0,33.4, 0, -0.4,0,0,1024,1024,1024,1024,32.4,-90,100,4.259,4.272,4.26,4.282,4.249,4.251,3.989,71.6,11,AutoTakeoff,
37.7328201,-120.0946502,3056.9835049757,0.656168,0,0.136551513556,3700,2018-05-13 19:30:23,16,0,25.465,3056.9835049757,0.656168,0,0.148816605812,0,0,0,33.4, 0, -0.6,0,0,1024,1024,1024,1024,32.4,-89.9,100,4.259,4.272,4.26,4.282,4.249,4.251,3.989,71.6,11,AutoTakeoff,
37.73282,-120.0946501,3056.9835049757,0.656168,0,0.139548560896,3800,2018-05-13 19:30:24,16,0,25.465,3056.9835049757,0.656168,0,0.148816605812,0,0,0,33.4, 0.3, -0.4,0,0,1024,1024,1024,1024,32.5,-89.9,100,4.259,4.272,4.26,4.282,4.249,4.251,3.989,71.6,11,AutoTakeoff,
37.73282,-120.09465,3057.3115889757,0.984252,0,0.1237368806,3900,2018-05-13 19:30:24,15,0,25.465,3057.3115889757,0.984252,0,0.148816605812,0,0,-0.223694,33.5, 0.4, -0.6,0,0,1024,1024,1024,1024,32.5,-89.9,100,4.259,4.272,4.26,4.282,4.249,4.251,3.989,71.6,11,AutoTakeoff,
37.73282,-120.09465,3057.3115889757,0.984252,0,0.1237368806,4000,2018-05-13 19:30:24,15,0,25.224,3057.3115889757,0.984252,0,0.148816605812,0,0,-0.223694,33.5, 0.3, -0.8,0,0,1024,1024,1024,1024,32.5,-89.9,100,4.2,4.134,4.144,4.164,4.175,4.171,6.659,71.6,11,AutoTakeoff,
37.7328201,-120.0946499,3057.6396729757,1.312336,0,0.07846785028,4100,2018-05-13 19:30:24,16,0,25.224,3057.6396729757,1.312336,0,0.148816605812,0,0,-0.223694,33.6, 0.3, -0.9,0,0,1024,1024,1024,1024,32.5,-90,100,4.2,4.134,4.144,4.164,4.175,4.171,6.659,71.6,11,AutoTakeoff,
37.73282,-120.0946498,3057.9677569757,1.64042,0,0.109454727912,4200,2018-05-13 19:30:24,16,0,25.224,3057.9677569757,1.64042,0,0.148816605812,0,0,0,33.9, 0.3, -1.1,0,0,1024,1024,1024,1024,32.5,-90,100,4.2,4.134,4.144,4.164,4.175,4.171,6.659,71.6,11,AutoTakeoff,
37.7328201,-120.0946497,3057.9677569757,1.64042,0,0.07846785028,4300,2018-05-13 19:30:24,16,0,25.224,3057.9677569757,1.64042,0,0.148816605812,0,0,0,33.9, 0.3, -1.1,0,0,1024,1024,1024,1024,32.5,-90,100,4.2,4.134,4.144,4.164,4.175,4.171,6.659,71.6,11,AutoTakeoff,
37.7328201,-120.0946497,3058.2958409757,1.968504,0,0.07846785028,4400,2018-05-13 19:30:24,16,0,25.224,3058.2958409757,1.968504,0,0.148816605812,0,0,0,33.9, 0.4, -0.9,0,0,1024,1024,1024,1024,32.6,-89.9,100,4.2,4.134,4.144,4.164,4.175,4.171,6.659,71.6,11,AutoTakeoff,
37.7328201,-120.0946496,3058.2958409757,1.968504,0,0.093032483292,4500,2018-05-13 19:30:24,16,0,25.224,3058.2958409757,1.968504,0,0.148816605812,0,0,-0.223694,33.8, 0.4, -0.9,0,0,1024,1024,1024,1024,32.6,-89.9,100,4.2,4.134,4.144,4.164,4.175,4.171,6.659,71.6,11,AutoTakeoff,
37.7328201,-120.0946496,3058.6239249757,2.296588,0,0.093032483292,4600,2018-05-13 19:30:24,16,0,25.224,3058.6239249757,2.296588,0,0.148816605812,0,0,-0.223694,33.7, 0.4, -0.9,0,0,1024,1024,1024,1024,32.6,-89.9,100,4.2,4.134,4.144,4.164,4.175,4.171,6.659,71.6,11,AutoTakeoff,
37.7328201,-120.0946495,3058.9520089757,2.624672,0,0.11321686714,4700,2018-05-13 19:30:24,16,0,25.224,3058.9520089757,2.624672,0,0.148816605812,0,0,-0.223694,33.7, 0.5, -0.9,0,0,1024,1024,1024,1024,32.6,-89.9,100,4.2,4.134,4.144,4.164,4.175,4.171,6.659,71.6,11,AutoTakeoff,
37.7328201,-120.0946494,3058.9520089757,2.624672,0,0.136551513556,4800,2018-05-13 19:30:25,16,0,25.224,3058.9520089757,2.624672,0,0.148816605812,0,0,-0.223694,33.6, 0.6, -0.8,0,0,1024,1024,1024,1024,32.6,-89.9,100,4.2,4.134,4.144,4.164,4.175,4.171,6.659,71.6,11,AutoTakeoff,
37.7328201,-120.0946494,3059.2800929757,2.952756,0,0.136551513556,5000,2018-05-13 19:30:25,16,0,24.281,3059.2800929757,2.952756,0,0.148816605812,0,0,0,33.6, 0.7, -0.8,0,0,1024,1024,1024,1024,32.6,-89.9,100,4.053,4.037,4.02,4.039,4.06,4.057,16.184,71.6,6,P-GPS,
37.7328202,-120.0946493,3059.2800929757,2.952756,0,0.148816605812,5100,2018-05-13 19:30:25,16,0,24.281,3059.2800929757,2.952756,0,0.148816605812,0,0,0,33.5, 0.7, -0.8,0,0,1024,1024,1024,1024,32.6,-89.9,100,4.053,4.037,4.02,4.039,4.06,4.057,16.184,71.6,14,Waypoint,
37.7328202,-120.0946493,3059.2800929757,2.952756,0,0.148816605812,5200,2018-05-13 19:30:25,16,0,24.281,3059.2800929757,2.952756,0,0.148816605812,0,0,0,33.4, 0.9, -0.7,0,0,1024,1024,1024,1024,32.6,-89.9,100,4.053,4.037,4.02,4.039,4.06,4.057,16.184,71.6,14,Waypoint,
37.7328202,-120.0946492,3059.6081769757,3.28084,0,0.17693242036,5300,2018-05-13 19:30:25,16,0,24.281,3059.6081769757,3.28084,0,0.17693242036,0,0,0,33.3, 0.9, -0.5,0,0,1024,1024,1024,1024,32.6,-89.9,100,4.053,4.037,4.02,4.039,4.06,4.057,16.184,71.6,14,Waypoint,
37.7328202,-120.0946492,3059.6081769757,3.28084,0,0.17693242036,5400,2018-05-13 19:30:25,16,0,24.281,3059.6081769757,3.28084,0,0.17693242036,0,0,0,33.3, 1, -0.6,0,0,1024,1024,1024,1024,32.6,-89.9,100,4.053,4.037,4.02,4.039,4.06,4.057,16.184,71.6,14,Waypoint,
37.7328203,-120.0946491,3059.6081769757,3.28084,0,0.201984586516,5500,2018-05-13 19:30:25,16,0,24.281,3059.6081769757,3.28084,0,0.201984586516,0,0,0,33.4, 0.9, -0.6,0,0,1024,1024,1024,1024,32.6,-89.9,100,4.053,4.037,4.02,4.039,4.06,4.057,16.184,71.6,14,Waypoint,
37.7328203,-120.094649,3059.9362609757,3.608924,0,0.230839574316,5600,2018-05-13 19:30:25,16,0,24.281,3059.9362609757,3.608924,0,0.230839574316,0,0,-0.223694,33.4, 0.9, -0.6,0,0,1024,1024,1024,1024,32.6,-89.9,100,4.053,4.037,4.02,4.039,4.06,4.057,16.184,71.6,14,Waypoint,
37.7328203,-120.094649,3060.2643449757,3.937008,0,0.230839574316,5700,2018-05-13 19:30:25,16,0,24.281,3060.2643449757,3.937008,0,0.230839574316,0,0,-0.223694,33.5, 0.8, -0.6,0,0,1024,1024,1024,1024,32.6,-89.9,100,4.053,4.037,4.02,4.039,4.06,4.057,16.184,71.6,14,Waypoint,
37.7328203,-120.0946489,3060.2643449757,3.937008,0,0.259694562116,5800,2018-05-13 19:30:26,16,0,24.281,3060.2643449757,3.937008,0,0.259694562116,0,0,-0.223694,33.5, 0.8, -0.7,0,0,1024,1024,1024,1024,32.6,-89.9,100,4.053,4.037,4.02,4.039,4.06,4.057,16.184,71.6,14,Waypoint,
37.7328203,-120.0946488,3060.5924289757,4.265092,0,0.288549549916,5900,2018-05-13 19:30:26,15,0,24.281,3060.5924289757,4.265092,0,0.288549549916,0,0,-0.223694,33.5, 0.9, -0.8,0,0,1024,1024,1024,1024,32.6,-89.9,100,4.053,4.037,4.02,4.039,4.06,4.057,16.184,71.6,14,Waypoint,
37.7328203,-120.0946488,3060.9205129757,4.593176,0,0.288549549916,6000,2018-05-13 19:30:26,15,0,24.189,3060.9205129757,4.593176,0,0.288549549916,0,0,-0.223694,33.6, 0.9, -0.8,0,0,1024,1024,1024,1024,32.6,-89.9,100,4.033,4.017,4.001,4.016,4.054,4.033,15.889,71.6,14,Waypoint,
37.7328203,-120.0946487,3061.5766809757,5.249344,0,0.317404537716,6100,2018-05-13 19:30:26,15,0,24.189,3061.5766809757,5.249344,0,0.317404537716,0,0,-0.223694,33.7, 0.8, -0.9,0,0,1024,1024,1024,1024,32.6,-89.9,100,4.033,4.017,4.001,4.016,4.054,4.033,15.889,71.6,14,Waypoint,
37.7328202,-120.0946486,3061.9047649757,5.577428,0,0.34817586416,6200,2018-05-13 19:30:26,15,0,24.189,3061.9047649757,5.577428,0,0.34817586416,0,0,-0.447388,33.8, 0.8, -1.1,0,0,1024,1024,1024,1024,32.6,-90,100,4.033,4.017,4.001,4.016,4.054,4.033,15.889,71.6,14,Waypoint,
37.7328202,-120.0946485,3062.5609329757,6.233596,0,0.37688321416,6300,2018-05-13 19:30:26,15,0,24.189,3062.5609329757,6.233596,0,0.37688321416,0,0,-0.447388,33.9, 0.7, -1.3,0,0,1024,1024,1024,1024,32.6,-90,100,4.033,4.017,4.001,4.016,4.054,4.033,15.889,71.6,14,Waypoint,
37.7328202,-120.0946484,3063.2171009757,6.889764,0,0.40561353004,6400,2018-05-13 19:30:26,15,0,24.189,3063.2171009757,6.889764,0,0.40561353004,0,0,-0.447388,33.9, 0.8, -1.3,0,0,1024,1024,1024,1024,32.6,-90,100,4.033,4.017,4.001,4.016,4.054,4.033,15.889,71.6,14,Waypoint,
37.7328202,-120.0946484,3063.8732689757,7.545932,0,0.40561353004,6500,2018-05-13 19:30:26,16,0,24.189,3063.8732689757,7.545932,0,0.40561353004,0,0,-0.447388,34, 0.8, -1.1,0,0,1024,1024,1024,1024,32.6,-90,100,4.033,4.017,4.001,4.016,4.054,4.033,15.889,71.6,14,Waypoint,
37.7328201,-120.0946483,3064.8575209757,8.530184,0,0.43893374108,6600,2018-05-13 19:30:26,16,0,24.189,3064.8575209757,8.530184,0,0.43893374108,0,0,-0.671082,34, 0.7, -0.9,0,0,1024,1024,1024,1024,32.6,-90,100,4.033,4.017,4.001,4.016,4.054,4.033,15.889,71.6,14,Waypoint,
37.73282,-120.0946483,3065.8417729757,9.514436,0,0.44645014552,6700,2018-05-13 19:30:26,16,0,24.189,3065.8417729757,9.514436,0,0.44645014552,0,0,-0.671082,33.9, 0.4, -1,0,0,1024,1024,1024,1024,32.6,-90,100,4.033,4.017,4.001,4.016,4.054,4.033,15.889,71.6,14,Waypoint,
37.73282,-120.0946483,3066.8260249757,10.498688,0,0.44645014552,6800,2018-05-13 19:30:27,16,0,24.189,3066.8260249757,10.498688,0,0.44645014552,0,0,-0.671082,33.8, 0.2, -1.1,0,0,1024,1024,1024,1024,32.6,-90,100,4.033,4.017,4.001,4.016,4.054,4.033,15.889,71.6,14,Waypoint,
37.7328199,-120.0946484,3067.8102769757,11.48294,0,0.42952429196,6900,2018-05-13 19:30:27,17,0,24.189,3067.8102769757,11.48294,0,0.44645014552,0,0,-0.671082,33.7, 0, -1.1,0,0,1024,1024,1024,1024,32.6,-90,100,4.033,4.017,4.001,4.016,4.054,4.033,15.889,71.6,14,Waypoint,
37.7328199,-120.0946484,3070.1068649757,13.779528,0,0.42952429196,7000,2018-05-13 19:30:27,17,0,24.387,3070.1068649757,13.779528,0,0.44645014552,0,0,-0.671082,33.6, 0, -0.9,0,0,1024,1024,1024,1024,32.6,-90,100,3.913,3.913,3.986,3.999,4.004,4.006,21.863,71.6,14,Waypoint,
37.7328199,-120.0946485,3071.0911169757,14.76378,0,0.40250329372,7100,2018-05-13 19:30:27,17,0,24.387,3071.0911169757,14.76378,0,0.44645014552,0,0,-0.671082,33.6, 0, -0.8,0,0,1024,1024,1024,1024,32.6,-90,100,3.913,3.913,3.986,3.999,4.004,4.006,21.863,71.6,14,Waypoint,
37.7328199,-120.0946485,3072.0753689757,15.748032,0,0.40250329372,7210,2018-05-13 19:30:27,17,0,24.387,3072.0753689757,15.748032,0,0.44645014552,0,0,-0.671082,33.6, 0.1, -0.5,0,0,1024,1024,1024,1024,32.6,-90,100,3.913,3.913,3.986,3.999,4.004,4.006,21.863,71.6,14,Waypoint,
37.7328201,-120.0946487,3073.0596209757,16.732284,0,0.325684393624,7320,2018-05-13 19:30:27,17,0,24.387,3073.0596209757,16.732284,0,0.44645014552,0,0,-0.671082,33.5, 0.4, -0.2,0,0,1024,1024,1024,1024,32.6,-89.9,100,3.913,3.913,3.986,3.999,4.004,4.006,21.863,71.6,14,Waypoint,
37.7328201,-120.0946487,3073.0596209757,16.732284,0,0.325684393624,7400,2018-05-13 19:30:27,17,0,24.387,3073.0596209757,16.732284,0,0.44645014552,0,0,-0.671082,33.5, 0.4, -0.2,0,0,1024,1024,1024,1024,32.6,-89.9,100,3.913,3.913,3.986,3.999,4.004,4.006,21.863,71.6,14,Waypoint,
37.7328202,-120.0946487,3074.3719569757,18.04462,0,0.319494432796,7500,2018-05-13 19:30:27,17,0,24.387,3074.3719569757,18.04462,0,0.44645014552,0,0,-0.671082,33.5, 0.7, 0.1,0,0,1024,1024,1024,1024,32.6,-89.9,100,3.913,3.913,3.986,3.999,4.004,4.006,21.863,71.6,14,Waypoint,
37.7328203,-120.0946487,3075.3562089757,19.028872,0,0.317404537716,7600,2018-05-13 19:30:27,17,0,24.387,3075.3562089757,19.028872,0,0.44645014552,0,0,-0.671082,33.5, 0.9, 0.1,0,0,1024,1024,1024,1024,32.6,-89.9,100,3.913,3.913,3.986,3.999,4.004,4.006,21.863,71.6,14,Waypoint,
37.7328203,-120.0946487,3076.3404609757,20.013124,0,0.317404537716,7700,2018-05-13 19:30:27,17,0,24.387,3076.3404609757,20.013124,0,0.44645014552,0,0,-0.671082,33.5, 0.9, -0.3,0,0,1024,1024,1024,1024,32.6,-89.9,100,3.913,3.913,3.986,3.999,4.004,4.006,21.863,71.6,14,Waypoint,
37.7328204,-120.0946488,3077.6527969757,21.32546,0,0.290847122168,7800,2018-05-13 19:30:28,17,0,24.387,3077.6527969757,21.32546,0,0.44645014552,0,0,-0.671082,33.5, 0.7, -0.5,0,0,1024,1024,1024,1024,32.6,-90,100,3.913,3.913,3.986,3.999,4.004,4.006,21.863,71.6,14,Waypoint,
37.7328205,-120.0946489,3078.6370489757,22.309712,0,0.269751649052,7900,2018-05-13 19:30:28,17,0,24.387,3078.6370489757,22.309712,0,0.44645014552,0,0,-0.671082,33.5, 0.5, -0.3,0,0,1024,1024,1024,1024,32.6,-90,100,3.913,3.913,3.986,3.999,4.004,4.006,21.863,71.6,14,Waypoint,
37.7328206,-120.094649,3079.6213009757,23.293964,0,0.255474745708,8000,2018-05-13 19:30:28,17,0,23.608,3079.6213009757,23.293964,0,0.44645014552,0,0,-0.671082,33.4, 0.5, 0,0,0,1024,1024,1024,1024,32.6,-90,100,3.913,3.913,3.986,3.999,4.004,4.006,20.43,71.6,14,Waypoint,
37.7328207,-120.0946491,3080.6055529757,24.278216,0,0.24919128094,8100,2018-05-13 19:30:28,17,0,23.608,3080.6055529757,24.278216,0,0.44645014552,0,0,-0.671082,33.2, 0.4, 0.3,0,0,1024,1024,1024,1024,32.6,-90,100,3.913,3.913,3.986,3.999,4.004,4.006,20.43,71.6,14,Waypoint,
37.7328207,-120.0946491,3081.9178889757,25.590552,0,0.24919128094,8200,2018-05-13 19:30:28,17,0,23.608,3081.9178889757,25.590552,0,0.44645014552,0,0,-0.671082,33.1, 0.5, 0.4,0,0,1024,1024,1024,1024,32.6,-90,100,3.913,3.913,3.986,3.999,4.004,4.006,20.43,71.6,14,Waypoint,
37.7328208,-120.0946491,3082.9021409757,26.574804,0,0.2721702843,8300,2018-05-13 19:30:28,16,0,23.608,3082.9021409757,26.574804,0,0.44645014552,0,0,-0.671082,33.1, 0.6, 0.4,0,0,1024,1024,1024,1024,32.6,-89.9,100,3.913,3.913,3.986,3.999,4.004,4.006,20.43,71.6,14,Waypoint,
37.7328208,-120.0946491,3083.8863929757,27.559056,0,0.2721702843,8400,2018-05-13 19:30:28,16,0,23.608,3083.8863929757,27.559056,0,0.44645014552,0,0,-0.671082,33.1, 0.7, 0.4,0,0,1024,1024,1024,1024,32.6,-89.9,100,3.913,3.913,3.986,3.999,4.004,4.006,20.43,71.6,14,Waypoint,
37.7328209,-120.0946492,3085.1987289757,28.871392,0,0.279097449876,8500,2018-05-13 19:30:28,17,0,23.608,3085.1987289757,28.871392,0,0.44645014552,0,0,-0.671082,33.2, 0.8, 0.2,0,0,1024,1024,1024,1024,32.6,-89.9,100,3.913,3.913,3.986,3.999,4.004,4.006,20.43,71.6,14,Waypoint,
37.732821,-120.0946492,3086.1829809757,29.855644,0,0.308545613548,8600,2018-05-13 19:30:28,17,0,23.608,3086.1829809757,29.855644,0,0.44645014552,0,0,-0.671082,33.4, 0.9, 0,0,0,1024,1024,1024,1024,32.6,-89.9,100,3.913,3.913,3.986,3.999,4.004,4.006,20.43,71.6,14,Waypoint,
37.732821,-120.0946493,3087.1672329757,30.839896,0,0.29332842146,8700,2018-05-13 19:30:28,16,0,23.608,3087.1672329757,30.839896,0,0.44645014552,0,0,-0.671082,33.5, 0.9, 0,0,0,1024,1024,1024,1024,32.6,-89.9,100,3.913,3.913,3.986,3.999,4.004,4.006,20.43,71.6,14,Waypoint,
37.7328211,-120.0946493,3088.1514849757,31.824148,0,0.325589905432,8800,2018-05-13 19:30:29,16,0,23.608,3088.1514849757,31.824148,0,0.44645014552,0,0,-0.671082,33.6, 0.9, 0.1,0,0,1024,1024,1024,1024,32.6,-89.9,100,3.913,3.913,3.986,3.999,4.004,4.006,20.43,71.6,14,Waypoint,
37.7328212,-120.0946494,3089.1357369757,32.8084,0,0.34805775392,8900,2018-05-13 19:30:29,16,0,23.608,3089.1357369757,32.8084,0,0.44645014552,0,0,-0.671082,33.5, 0.8, 0.3,0,0,1024,1024,1024,1024,32.6,-89.9,100,3.913,3.913,3.986,3.999,4.004,4.006,20.43,71.6,14,Waypoint,
37.7328212,-120.0946494,3090.1199889757,33.792652,0,0.34805775392,9000,2018-05-13 19:30:29,16,0,23.608,3090.1199889757,33.792652,0,0.44645014552,0,0,-0.671082,33.5, 0.9, 0.5,0,0,1024,1024,1024,1024,32.6,-89.9,98,3.943,3.927,3.923,3.935,3.982,3.928,20.43,73.4,14,Waypoint,
37.7328213,-120.0946494,3091.4323249757,35.104988,0,0.38267061592,9100,2018-05-13 19:30:29,18,0,23.608,3091.4323249757,35.104988,0,0.44645014552,0,0,-0.671082,33.4, 0.9, 0.5,0,0,1024,1024,1024,1024,32.6,-89.9,98,3.943,3.927,3.923,3.935,3.982,3.928,20.43,73.4,14,Waypoint,
37.7328213,-120.0946494,3092.4165769757,36.08924,0,0.38267061592,9200,2018-05-13 19:30:29,18,0,23.608,3092.4165769757,36.08924,0,0.44645014552,0,0,-0.671082,33.3, 0.9, 0.3,0,0,1024,1024,1024,1024,32.6,-89.9,98,3.943,3.927,3.923,3.935,3.982,3.928,20.43,73.4,14,Waypoint,
37.7328213,-120.0946494,3093.4008289757,37.073492,0,0.38267061592,9300,2018-05-13 19:30:29,18,0,23.608,3093.4008289757,37.073492,0,0.44645014552,0,0,-0.671082,33.3, 0.8, 0.1,0,0,1024,1024,1024,1024,32.6,-89.9,98,3.943,3.927,3.923,3.935,3.982,3.928,20.43,73.4,14,Waypoint,
37.7328213,-120.0946494,3094.3850809757,38.057744,0,0.38267061592,9410,2018-05-13 19:30:29,18,0,23.608,3094.3850809757,38.057744,0,0.44645014552,0,0,-0.671082,33.2, 0.6, 0,0,0,1024,1024,1024,1024,32.6,-89.9,98,3.943,3.927,3.923,3.935,3.982,3.928,20.43,73.4,14,Waypoint,
37.7328213,-120.0946495,3096.3535849757,40.026248,0,0.37497704612,9510,2018-05-13 19:30:29,18,0,23.608,3096.3535849757,40.026248,0,0.44645014552,0,0,-0.671082,33.2, 0.4, -0.1,0,0,1024,1024,1024,1024,32.6,-90,98,3.943,3.927,3.923,3.935,3.982,3.928,20.43,73.4,14,Waypoint,
37.7328212,-120.0946495,3097.3378369757,41.0105,0,0.3395833442,9600,2018-05-13 19:30:29,18,0,23.608,3097.3378369757,41.0105,0,0.44645014552,0,0,-0.671082,33.1, 0.4, 0,0,0,1024,1024,1024,1024,32.6,-90,98,3.943,3.927,3.923,3.935,3.982,3.928,20.43,73.4,14,Waypoint,
37.7328212,-120.0946495,3098.3220889757,41.994752,0,0.3395833442,9700,2018-05-13 19:30:29,18,0,23.608,3098.3220889757,41.994752,0,0.44645014552,0,0,-0.671082,33.1, 0.3, 0,0,0,1024,1024,1024,1024,32.6,-90,98,3.943,3.927,3.923,3.935,3.982,3.928,20.43,73.4,14,Waypoint,
37.7328212,-120.0946495,3099.3063409757,42.979004,0,0.3395833442,9800,2018-05-13 19:30:30,18,0,23.608,3099.3063409757,42.979004,0,0.44645014552,0,0,-0.671082,33.1, 0.4, 0.1,0,0,1024,1024,1024,1024,32.6,-90,98,3.943,3.927,3.923,3.935,3.982,3.928,20.43,73.4,14,Waypoint,
37.7328212,-120.0946495,3100.2905929757,43.963256,0,0.3395833442,10000,2018-05-13 19:30:30,18,0,23.757,3100.2905929757,43.963256,0,0.44645014552,0,0,-0.671082,33, 0.6, 0.3,0,0,1024,1024,1024,1024,32.6,-89.9,98,3.967,3.951,3.942,3.954,3.995,3.971,18.245,73.4,14,Waypoint,
37.7328212,-120.0946495,3101.2748449757,44.947508,0,0.3395833442,10100,2018-05-13 19:30:30,18,0,23.757,3101.2748449757,44.947508,0,0.44645014552,0,0,-0.671082,33, 0.7, 0.3,0,0,1024,1024,1024,1024,32.6,-89.9,98,3.967,3.951,3.942,3.954,3.995,3.971,18.245,73.4,14,Waypoint,
37.7328212,-120.0946496,3102.2590969757,45.93176,0,0.33339567996,10200,2018-05-13 19:30:30,18,0,23.757,3102.2590969757,45.93176,0,0.44645014552,0,0,-0.671082,33, 0.8, 0.1,0,0,1024,1024,1024,1024,32.6,-89.9,98,3.967,3.951,3.942,3.954,3.995,3.971,18.245,73.4,14,Waypoint,
37.7328212,-120.0946496,3103.2433489757,46.916012,0,0.33339567996,10300,2018-05-13 19:30:30,18,0,23.757,3103.2433489757,46.916012,0,0.44645014552,0,0,-0.671082,33.1, 0.7, -0.1,0,0,1024,1024,1024,1024,32.6,-89.9,98,3.967,3.951,3.942,3.954,3.995,3.971,18.245,73.4,14,Waypoint,
37.7328211,-120.0946495,3104.2276009757,47.900264,0,0.3044455478,10400,2018-05-13 19:30:30,18,0,23.757,3104.2276009757,47.900264,0,0.44645014552,0,0,-0.671082,33.3, 0.7, -0.5,0,0,1024,1024,1024,1024,32.6,-89.9,98,3.967,3.951,3.942,3.954,3.995,3.971,18.245,73.4,14,Waypoint,
37.7328211,-120.0946494,3105.2118529757,48.884516,0,0.313871729204,10500,2018-05-13 19:30:30,18,0,23.757,3105.2118529757,48.884516,0,0.44645014552,0,0,-0.671082,33.5, 0.7, -0.8,0,0,1024,1024,1024,1024,32.6,-89.9,98,3.967,3.951,3.942,3.954,3.995,3.971,18.245,73.4,14,Waypoint,
37.732821,-120.0946494,3106.5241889757,50.196852,0,0.280264444664,10600,2018-05-13 19:30:30,18,0,23.757,3106.5241889757,50.196852,0,0.44645014552,0,0,-0.671082,33.7, 0.7, -1,0,0,1024,1024,1024,1024,32.6,-89.9,98,3.967,3.951,3.942,3.954,3.995,3.971,18.245,73.4,14,Waypoint,
37.732821,-120.0946494,3107.5084409757,51.181104,0,0.280264444664,10700,2018-05-13 19:30:30,18,0,23.757,3107.5084409757,51.181104,0,0.44645014552,0,0,-0.671082,33.8, 0.7, -0.9,0,0,1024,1024,1024,1024,32.6,-90,98,3.967,3.951,3.942,3.954,3.995,3.971,18.245,73.4,14,Waypoint,
37.732821,-120.0946493,3109.4769449757,53.149608,0,0.29332842146,10800,2018-05-13 19:30:31,18,0,23.757,3109.4769449757,53.149608,0,0.44645014552,0,0,-0.671082,33.8, 0.8, -0.6,0,0,1024,1024,1024,1024,32.6,-89.9,98,3.967,3.951,3.942,3.954,3.995,3.971,18.245,73.4,14,Waypoint,
37.732821,-120.0946494,3111.1173649757,54.790028,0,0.280264444664,11010,2018-05-13 19:30:31,18,0,23.791,3111.1173649757,54.790028,0,0.44645014552,0,0,-0.671082,33.7, 1, -0.5,0,0,1024,1024,1024,1024,32.6,-89.9,98,3.968,3.951,3.94,3.96,3.994,3.972,17.95,73.4,14,Waypoint,
37.7328209,-120.0946494,3112.1016169757,55.77428,0,0.247473433116,11200,2018-05-13 19:30:31,18,0,23.791,3112.1016169757,55.77428,0,0.44645014552,0,0,-0.671082,33.7, 1, -0.4,0,0,1024,1024,1024,1024,32.6,-89.9,98,3.968,3.951,3.94,3.96,3.994,3.972,17.95,73.4,14,Waypoint,
37.7328209,-120.0946495,3113.0858689757,56.758532,0,0.235403878924,11300,2018-05-13 19:30:31,18,0,23.791,3113.0858689757,56.758532,0,0.44645014552,0,0,-0.671082,33.7, 0.8, -0.3,0,0,1024,1024,1024,1024,32.6,-89.9,98,3.968,3.951,3.94,3.96,3.994,3.972,17.95,73.4,14,Waypoint,
37.7328209,-120.0946495,3114.0701209757,57.742784,0,0.235403878924,11400,2018-05-13 19:30:31,18,0,23.791,3114.0701209757,57.742784,0,0.44645014552,0,0,-0.671082,33.6, 0.6, -0.2,0,0,1024,1024,1024,1024,32.6,-90,98,3.968,3.951,3.94,3.96,3.994,3.972,17.95,73.4,14,Waypoint,
37.7328209,-120.0946495,3115.0543729757,58.727036,0,0.235403878924,11500,2018-05-13 19:30:31,18,0,23.791,3115.0543729757,58.727036,0,0.44645014552,0,0,-0.671082,33.5, 0.5, -0.1,0,0,1024,1024,1024,1024,32.6,-90,98,3.968,3.951,3.94,3.96,3.994,3.972,17.95,73.4,14,Waypoint,
37.7328208,-120.0946496,3116.0386249757,59.711288,0,0.19133530796,11600,2018-05-13 19:30:31,18,0,23.791,3116.0386249757,59.711288,0,0.44645014552,0,0,-0.671082,33.4, 0.5, 0,0,0,1024,1024,1024,1024,32.6,-90,98,3.968,3.951,3.94,3.96,3.994,3.972,17.95,73.4,14,Waypoint,
37.7328208,-120.0946496,3117.0228769757,60.69554,0,0.19133530796,11700,2018-05-13 19:30:31,18,0,23.791,3117.0228769757,60.69554,0,0.44645014552,0,0,-0.671082,33.4, 0.5, 0,0,0,1024,1024,1024,1024,32.6,-90,98,3.968,3.951,3.94,3.96,3.994,3.972,17.95,73.4,14,Waypoint,
37.7328208,-120.0946497,3118.3352129757,62.007876,0,0.184692591212,11800,2018-05-13 19:30:32,18,0,23.791,3118.3352129757,62.007876,0,0.44645014552,0,0,-0.671082,33.4, 0.6, -0.1,0,0,1024,1024,1024,1024,32.6,-89.9,98,3.968,3.951,3.94,3.96,3.994,3.972,17.95,73.4,14,Waypoint,
37.7328208,-120.0946497,3119.3194649757,62.992128,0,0.184692591212,11900,2018-05-13 19:30:32,18,0,23.791,3119.3194649757,62.992128,0,0.44645014552,0,0,-0.671082,33.4, 0.7, 0,0,0,1024,1024,1024,1024,32.6,-89.9,98,3.968,3.951,3.94,3.96,3.994,3.972,17.95,73.4,14,Waypoint,
37.7328208,-120.0946497,3120.3037169757,63.97638,0,0.184692591212,12000,2018-05-13 19:30:32,18,0,23.761,3120.3037169757,63.97638,0,0.44645014552,0,0,-0.671082,33.4, 0.7, 0.1,0,0,1024,1024,1024,1024,32.6,-89.9,98,3.965,3.945,3.936,3.96,3.987,3.966,18.086,73.4,14,Waypoint,
37.7328207,-120.0946498,3121.2879689757,64.960632,0,0.145939637216,12100,2018-05-13 19:30:32,18,0,23.761,3121.2879689757,64.960632,0,0.44645014552,0,0,-0.671082,33.4, 0.6, 0.1,0,0,1024,1024,1024,1024,32.6,-90,98,3.965,3.945,3.936,3.96,3.987,3.966,18.086,73.4,14,Waypoint,
37.7328207,-120.0946498,3122.2722209757,65.944884,0,0.145939637216,12200,2018-05-13 19:30:32,18,0,23.761,3122.2722209757,65.944884,0,0.44645014552,0,0,-0.671082,33.4, 0.3, 0,0,0,1024,1024,1024,1024,32.6,-90,98,3.965,3.945,3.936,3.96,3.987,3.966,18.086,73.4,14,Waypoint,
37.7328207,-120.0946499,3123.2564729757,66.929136,0,0.148765096624,12300,2018-05-13 19:30:32,18,0,23.761,3123.2564729757,66.929136,0,0.44645014552,0,0,-0.671082,33.4, 0.2, 0,0,0,1024,1024,1024,1024,32.6,-90,98,3.965,3.945,3.936,3.96,3.987,3.966,18.086,73.4,14,Waypoint,
37.7328207,-120.0946499,3124.2407249757,67.913388,0,0.148765096624,12400,2018-05-13 19:30:32,18,0,23.761,3124.2407249757,67.913388,0,0.44645014552,0,0,-0.671082,33.4, 0.3, 0,0,0,1024,1024,1024,1024,32.6,-90,98,3.965,3.945,3.936,3.96,3.987,3.966,18.086,73.4,14,Waypoint,
37.7328206,-120.0946499,3125.5530609757,69.225724,0,0.113194229344,12500,2018-05-13 19:30:32,18,0,23.761,3125.5530609757,69.225724,0,0.44645014552,0,0,-0.671082,33.4, 0.3, 0,0,0,1024,1024,1024,1024,32.6,-90,98,3.965,3.945,3.936,3.96,3.987,3.966,18.086,73.4,14,Waypoint,
37.7328206,-120.09465,3126.5373129757,70.209976,0,0.1237368806,12600,2018-05-13 19:30:32,18,0,23.761,3126.5373129757,70.209976,0,0.44645014552,0,0,-0.671082,33.4, 0.5, 0,0,0,1024,1024,1024,1024,32.6,-90,98,3.965,3.945,3.936,3.96,3.987,3.966,18.086,73.4,14,Waypoint,
37.7328206,-120.09465,3127.1934809757,70.866144,0,0.1237368806,12700,2018-05-13 19:30:32,18,0,23.761,3127.1934809757,70.866144,0,0.44645014552,0,0,-0.671082,33.4, 0.7, 0,0,0,1024,1024,1024,1024,32.6,-89.9,98,3.965,3.945,3.936,3.96,3.987,3.966,18.086,73.4,14,Waypoint,
37.7328206,-120.09465,3128.5058169757,72.17848,0,0.1237368806,12800,2018-05-13 19:30:33,18,0,23.761,3128.5058169757,72.17848,0,0.44645014552,0,0,-0.671082,33.4, 0.6, 0,0,0,1024,1024,1024,1024,32.6,-90,98,3.965,3.945,3.936,3.96,3.987,3.966,18.086,73.4,14,Waypoint,
37.7328206,-120.09465,3129.4900689757,73.162732,0,0.1237368806,12900,2018-05-13 19:30:33,18,0,23.761,3129.4900689757,73.162732,0,0.44645014552,0,0,-0.671082,33.5, 0.6, -0.3,0,0,1024,1024,1024,1024,32.6,-89.9,98,3.965,3.945,3.936,3.96,3.987,3.966,18.086,73.4,14,Waypoint,
37.7328205,-120.0946501,3131.4585729757,75.131236,0,0.11321686714,13100,2018-05-13 19:30:33,18,0,23.761,3131.4585729757,75.131236,0,0.44645014552,0,0,-0.671082,33.7, 0.8, -0.4,0,0,1024,1024,1024,1024,32.6,-89.9,98,3.965,3.945,3.936,3.96,3.987,3.966,18.086,73.4,14,Waypoint,
37.7328205,-120.0946501,3133.4270769757,77.09974,0,0.11321686714,13210,2018-05-13 19:30:33,18,0,23.761,3133.4270769757,77.09974,0,0.44645014552,0,0,-0.671082,33.8, 0.8, 0.2,0,0,1024,1024,1024,1024,32.6,-89.9,98,3.965,3.945,3.936,3.96,3.987,3.966,18.086,73.4,14,Waypoint,
37.7328205,-120.09465,3134.4113289757,78.083992,0,0.093032483292,13320,2018-05-13 19:30:33,18,0,23.761,3134.4113289757,78.083992,0,0.44645014552,0,0,-0.671082,33.7, 0.9, 0.3,0,0,1024,1024,1024,1024,32.6,-89.9,98,3.965,3.945,3.936,3.96,3.987,3.966,18.086,73.4,14,Waypoint,
37.7328205,-120.09465,3134.4113289757,78.083992,0,0.093032483292,13400,2018-05-13 19:30:33,18,0,23.761,3134.4113289757,78.083992,0,0.44645014552,0,0,-0.671082,33.7, 0.9, 0.3,0,0,1024,1024,1024,1024,32.6,-89.9,98,3.965,3.945,3.936,3.96,3.987,3.966,18.086,73.4,14,Waypoint,
37.7328204,-120.0946499,3136.3798329757,80.052496,0.223694,0.046516077604,13500,2018-05-13 19:30:33,18,0,23.761,3136.3798329757,80.052496,0.223694,0.44645014552,0,0,-0.671082,33.3, 0.9, -0.6,0,0,1024,1024,1024,1024,32.6,-90,98,3.965,3.945,3.936,3.96,3.987,3.966,18.086,73.4,14,Waypoint,
37.7328203,-120.0946497,3137.3640849757,81.036748,0.223694,0.0288549549916,13700,2018-05-13 19:30:33,18,0,23.761,3137.3640849757,81.036748,0.223694,0.44645014552,0,0,-0.671082,33.1, 0.7, -1.5,0,0,1024,1024,1024,1024,32.6,-90,98,3.965,3.945,3.936,3.96,3.987,3.966,18.086,73.4,14,Waypoint,
37.7328202,-120.0946496,3138.3483369757,82.021,0.223694,0.06827592082,13800,2018-05-13 19:30:34,18,0,23.761,3138.3483369757,82.021,0.223694,0.44645014552,0,0,-0.671082,32.9, 0.6, -2.2,0,0,1024,1024,1024,1024,32.6,-90,98,3.965,3.945,3.936,3.96,3.987,3.966,18.086,73.4,14,Waypoint,
37.7328202,-120.0946495,3139.3325889757,83.005252,0.223694,0.093939635552,13900,2018-05-13 19:30:34,18,0,23.761,3139.3325889757,83.005252,0.223694,0.44645014552,0,0,-0.671082,32.8, 0.7, -2.5,0,0,1024,1024,1024,1024,32.6,-90,98,3.965,3.945,3.936,3.96,3.987,3.966,18.086,73.4,14,Waypoint,
37.7328201,-120.0946494,3140.3168409757,83.989504,0.223694,0.136551513556,14000,2018-05-13 19:30:34,18,0,23.796,3140.3168409757,83.989504,0.223694,0.44645014552,0,0,-0.671082,32.8, 0.9, -2.6,0,0,1024,1024,1024,1024,32.6,-89.9,98,3.973,3.956,3.947,3.964,4.002,3.967,17.067,73.4,14,Waypoint,
37.7328201,-120.0946493,3141.3010929757,84.973756,0.223694,0.16167815478,14100,2018-05-13 19:30:34,18,0,23.796,3141.3010929757,84.973756,0.223694,0.44645014552,0,0,-0.671082,32.8, 1.1, -2.4,0,0,1024,1024,1024,1024,32.6,-89.9,98,3.973,3.956,3.947,3.964,4.002,3.967,17.067,73.4,14,Waypoint,
37.7328201,-120.0946492,3141.9572609757,85.629924,0.223694,0.18787894302,14200,2018-05-13 19:30:34,18,0,23.796,3141.9572609757,85.629924,0.223694,0.44645014552,0,0,-0.671082,32.9, 1.5, -2.2,0,0,1024,1024,1024,1024,32.6,-89.9,98,3.973,3.956,3.947,3.964,4.002,3.967,17.067,73.4,14,Waypoint,
37.7328201,-120.0946491,3142.9415129757,86.614176,0.223694,0.214761489812,14300,2018-05-13 19:30:34,18,0,23.796,3142.9415129757,86.614176,0.223694,0.44645014552,0,0,-0.671082,32.9, 1.8, -2.1,0,0,1024,1024,1024,1024,32.6,-89.9,98,3.973,3.956,3.947,3.964,4.002,3.967,17.067,73.4,14,Waypoint,
37.7328201,-120.0946489,3143.9257649757,87.598428,0.223694,0.269751649052,14400,2018-05-13 19:30:34,18,0,23.796,3143.9257649757,87.598428,0.223694,0.44645014552,0,0,-0.671082,32.8, 1.9, -2.4,0,0,1024,1024,1024,1024,32.6,-89.9,98,3.973,3.956,3.947,3.964,4.002,3.967,17.067,73.4,14,Waypoint,
37.7328201,-120.0946488,3144.9100169757,88.58268,0.223694,0.297633211624,14500,2018-05-13 19:30:34,18,0,23.796,3144.9100169757,88.58268,0.223694,0.44645014552,0,0,-0.671082,32.8, 2.1, -2.7,0,0,1024,1024,1024,1024,32.6,-89.9,98,3.973,3.956,3.947,3.964,4.002,3.967,17.067,73.4,14,Waypoint,
37.73282,-120.0946487,3145.8942689757,89.566932,0.223694,0.33574804224,14600,2018-05-13 19:30:34,18,0,23.796,3145.8942689757,89.566932,0.223694,0.44645014552,0,0,-0.671082,32.8, 2.1, -3,0,0,1024,1024,1024,1024,32.6,-89.9,98,3.973,3.956,3.947,3.964,4.002,3.967,17.067,73.4,14,Waypoint,
37.73282,-120.0946485,3146.5504369757,90.2231,0.223694,0.39075788652,14700,2018-05-13 19:30:34,18,0,23.796,3146.5504369757,90.2231,0.223694,0.44645014552,0,0,-0.671082,33, 1.9, -3.1,0,0,1024,1024,1024,1024,32.6,-89.9,98,3.973,3.956,3.947,3.964,4.002,3.967,17.067,73.4,14,Waypoint,
37.73282,-120.0946485,3147.5346889757,91.207352,0,0.39075788652,14800,2018-05-13 19:30:35,18,0,23.796,3147.5346889757,91.207352,0.223694,0.44645014552,0,0,-0.671082,33.1, 1.5, -2.9,0,0,1024,1024,1024,1024,32.6,-89.9,98,3.973,3.956,3.947,3.964,4.002,3.967,17.067,73.4,14,Waypoint,
37.7328199,-120.0946484,3148.5189409757,92.191604,0,0.42952429196,14900,2018-05-13 19:30:35,18,0,23.796,3148.5189409757,92.191604,0.223694,0.44645014552,0,0,-0.671082,33.3, 1, -2.8,0,0,1024,1024,1024,1024,32.6,-90,98,3.973,3.956,3.947,3.964,4.002,3.967,17.067,73.4,14,Waypoint,
37.7328198,-120.0946483,3149.5031929757,93.175856,0,0.46969817776,15000,2018-05-13 19:30:35,18,0,23.796,3149.5031929757,93.175856,0.223694,0.46969817776,0,0,-0.671082,33.5, 0.6, -2.9,0,0,1024,1024,1024,1024,32.6,-90,98,3.975,3.953,3.942,3.965,3.999,3.967,16.779,73.4,14,Waypoint,
37.7328197,-120.0946482,3150.4874449757,94.160108,0,0.51094817908,15100,2018-05-13 19:30:35,18,0,23.796,3150.4874449757,94.160108,0.223694,0.51094817908,0,0,-0.671082,33.6, 0.5, -3,0,0,1024,1024,1024,1024,32.6,-90,98,3.975,3.953,3.942,3.965,3.999,3.967,16.779,73.4,14,Waypoint,
37.7328197,-120.0946481,3151.4716969757,95.14436,0.223694,0.53716537152,15200,2018-05-13 19:30:35,18,0,23.796,3151.4716969757,95.14436,0.223694,0.53716537152,0,0,-0.671082,33.5, 0.6, -3.2,0,0,1024,1024,1024,1024,32.6,-90,98,3.975,3.953,3.942,3.965,3.999,3.967,16.779,73.4,14,Waypoint,
37.7328196,-120.094648,3152.4559489757,96.128612,0.223694,0.57878610776,15300,2018-05-13 19:30:35,18,0,23.796,3152.4559489757,96.128612,0.223694,0.57878610776,0,0,-0.671082,33.4, 1, -3.4,0,0,1024,1024,1024,1024,32.6,-90,98,3.975,3.953,3.942,3.965,3.999,3.967,16.779,73.4,14,Waypoint,
37.7328196,-120.0946479,3153.4402009757,97.112864,0.223694,0.60481301148,15420,2018-05-13 19:30:35,18,0,23.796,3153.4402009757,97.112864,0.223694,0.60481301148,0,0,-0.671082,33.5, 1, -3.9,0,0,1024,1024,1024,1024,32.6,-90,98,3.975,3.953,3.942,3.965,3.999,3.967,16.779,73.4,14,Waypoint,
37.7328195,-120.0946478,3154.4244529757,98.097116,0.223694,0.64671261912,15500,2018-05-13 19:30:35,18,0,23.796,3154.4244529757,98.097116,0.223694,0.64671261912,0,0,-0.671082,33.6, 1, -4.3,0,0,1024,1024,1024,1024,32.6,-89.9,98,3.975,3.953,3.942,3.965,3.999,3.967,16.779,73.4,14,Waypoint,
37.7328194,-120.0946476,3155.4087049757,99.081368,0.223694,0.71470802812,15600,2018-05-13 19:30:35,18,0,23.796,3155.4087049757,99.081368,0.223694,0.71470802812,0,0,-0.671082,33.6, 1.3, -4.6,0,0,1024,1024,1024,1024,32.6,-89.9,98,3.975,3.953,3.942,3.965,3.999,3.967,16.779,73.4,14,Waypoint,
37.7328192,-120.0946473,3158.3614609757,102.034124,0.223694,0.82549871408,15810,2018-05-13 19:30:36,18,0,23.796,3158.3614609757,102.034124,0.223694,0.82549871408,0,0,-0.671082,33.6, 0.9, -5.4,0,0,1024,1024,1024,1024,32.6,-90,98,3.975,3.953,3.942,3.965,3.999,3.967,16.779,73.4,14,Waypoint,
37.7328191,-120.0946472,3159.3457129757,103.018376,0.223694,0.8686351984,15900,2018-05-13 19:30:36,18,0,23.796,3159.3457129757,103.018376,0.223694,0.8686351984,0,0,-0.671082,33.7, 0.8, -5.5,0,0,1024,1024,1024,1024,32.6,-90,98,3.975,3.953,3.942,3.965,3.999,3.967,16.779,73.4,14,Waypoint,
37.732819,-120.0946471,3160.3299649757,104.002628,0.223694,0.9121063284,16100,2018-05-13 19:30:36,18,0,23.796,3160.3299649757,104.002628,0.223694,0.9121063284,0,0,-0.671082,33.7, 0.9, -5.6,0,0,1024,1024,1024,1024,32.6,-90,98,3.975,3.953,3.942,3.965,3.999,3.967,16.779,73.4,14,Waypoint,
37.732819,-120.094647,3161.3142169757,104.98688,0,0.93687338956,16200,2018-05-13 19:30:36,18,0,23.796,3161.3142169757,104.98688,0.223694,0.93687338956,0,0,-0.671082,33.6, 1, -5.5,0,0,1024,1024,1024,1024,32.6,-90,98,3.975,3.953,3.942,3.965,3.999,3.967,16.779,73.4,14,Waypoint,
37.732819,-120.0946469,3163.2827209757,106.955384,0,0.96186682868,16310,2018-05-13 19:30:36,18,0,23.796,3163.2827209757,106.955384,0.223694,0.96186682868,0,0,-0.671082,33.6, 1.4, -5.2,0,0,1024,1024,1024,1024,32.6,-89.9,98,3.975,3.953,3.942,3.965,3.999,3.967,16.779,73.4,14,Waypoint,
37.732819,-120.0946469,3163.2827209757,106.955384,0,0.96186682868,16400,2018-05-13 19:30:36,18,0,23.796,3163.2827209757,106.955384,0.223694,0.96186682868,0,0,-0.671082,33.6, 1.4, -5.2,0,0,1024,1024,1024,1024,32.6,-89.9,98,3.975,3.953,3.942,3.965,3.999,3.967,16.779,73.4,14,Waypoint,
37.732819,-120.0946468,3163.9388889757,107.611552,0,0.9870735224,16500,2018-05-13 19:30:36,18,0,23.796,3163.9388889757,107.611552,0.223694,0.9870735224,0,0,-0.671082,33.6, 1.5, -5,0,0,1024,1024,1024,1024,32.6,-89.9,98,3.975,3.953,3.942,3.965,3.999,3.967,16.779,73.4,14,Waypoint,
37.732819,-120.0946468,3164.9231409757,108.595804,0,0.9870735224,16600,2018-05-13 19:30:36,18,0,23.796,3164.9231409757,108.595804,0.223694,0.9870735224,0,0,-0.671082,33.5, 1.5, -4.8,0,0,1024,1024,1024,1024,32.6,-89.9,98,3.975,3.953,3.942,3.965,3.999,3.967,16.779,73.4,14,Waypoint,
37.732819,-120.0946468,3165.9073929757,109.580056,0,0.9870735224,16700,2018-05-13 19:30:36,18,0,23.796,3165.9073929757,109.580056,0.223694,0.9870735224,0,0,-0.671082,33.3, 1.5, -4.8,0,0,1024,1024,1024,1024,32.6,-89.9,98,3.975,3.953,3.942,3.965,3.999,3.967,16.779,73.4,14,Waypoint,
37.732819,-120.0946468,3166.5635609757,110.236224,0,0.9870735224,16800,2018-05-13 19:30:37,18,0,23.796,3166.5635609757,110.236224,0.223694,0.9870735224,0,0,-0.671082,33.2, 1.4, -4.6,0,0,1024,1024,1024,1024,32.6,-89.9,98,3.975,3.953,3.942,3.965,3.999,3.967,16.779,73.4,14,Waypoint,
37.732819,-120.0946468,3167.5478129757,111.220476,0,0.9870735224,16900,2018-05-13 19:30:37,18,0,23.796,3167.5478129757,111.220476,0.223694,0.9870735224,0,0,-0.671082,33.2, 1.3, -4.4,0,0,1024,1024,1024,1024,32.6,-89.9,98,3.975,3.953,3.942,3.965,3.999,3.967,16.779,73.4,14,Waypoint,
37.732819,-120.0946469,3168.5320649757,112.204728,0,0.96186682868,17000,2018-05-13 19:30:37,18,0,23.726,3168.5320649757,112.204728,0.223694,0.9870735224,0,0,-0.671082,33.2, 1.3, -4.2,0,0,1024,1024,1024,1024,32.6,-89.9,98,3.961,3.949,3.921,3.946,3.977,3.954,17.434,73.4,14,Waypoint,
37.732819,-120.0946469,3169.5163169757,113.18898,0,0.96186682868,17100,2018-05-13 19:30:37,18,0,23.726,3169.5163169757,113.18898,0.223694,0.9870735224,0,0,-0.671082,33.3, 1.4, -4.2,0,0,1024,1024,1024,1024,32.6,-89.9,98,3.961,3.949,3.921,3.946,3.977,3.954,17.434,73.4,14,Waypoint,
37.7328191,-120.0946469,3170.1724849757,113.845148,0,0.94440947904,17200,2018-05-13 19:30:37,18,0,23.726,3170.1724849757,113.845148,0.223694,0.9870735224,0,0,-0.671082,33.2, 1.6, -4.2,0,0,1024,1024,1024,1024,32.6,-89.9,98,3.961,3.949,3.921,3.946,3.977,3.954,17.434,73.4,14,Waypoint,
37.7328191,-120.0946469,3171.1567369757,114.8294,0,0.94440947904,17300,2018-05-13 19:30:37,18,0,23.726,3171.1567369757,114.8294,0.223694,0.9870735224,0,0,-0.671082,33.2, 1.8, -4.1,0,0,1024,1024,1024,1024,32.6,-89.9,98,3.961,3.949,3.921,3.946,3.977,3.954,17.434,73.4,14,Waypoint,
37.7328191,-120.0946469,3172.1409889757,115.813652,0,0.94440947904,17400,2018-05-13 19:30:37,18,0,23.726,3172.1409889757,115.813652,0.223694,0.9870735224,0,0,-0.671082,33.1, 2, -4.3,0,0,1024,1024,1024,1024,32.6,-89.9,98,3.961,3.949,3.921,3.946,3.977,3.954,17.434,73.4,14,Waypoint,
37.7328192,-120.0946469,3173.1252409757,116.797904,0,0.92805777248,17500,2018-05-13 19:30:37,18,0,23.726,3173.1252409757,116.797904,0.223694,0.9870735224,0,0,-0.671082,33.1, 2.1, -4.4,0,0,1024,1024,1024,1024,32.6,-89.9,98,3.961,3.949,3.921,3.946,3.977,3.954,17.434,73.4,14,Waypoint,
37.7328192,-120.0946468,3174.1094929757,117.782156,0,0.95415685468,17600,2018-05-13 19:30:37,18,0,23.726,3174.1094929757,117.782156,0.223694,0.9870735224,0,0,-0.671082,33.1, 2.3, -4.6,0,0,1024,1024,1024,1024,32.6,-89.9,98,3.961,3.949,3.921,3.946,3.977,3.954,17.434,73.4,14,Waypoint,
37.7328192,-120.0946468,3175.4218289757,119.094492,0,0.95415685468,17700,2018-05-13 19:30:37,18,0,23.726,3175.4218289757,119.094492,0.223694,0.9870735224,0,0,-0.671082,33.2, 2.4, -4.9,0,0,1024,1024,1024,1024,32.6,-89.9,98,3.961,3.949,3.921,3.946,3.977,3.954,17.434,73.4,14,Waypoint,
37.7328193,-120.0946467,3176.4060809757,120.078744,0,0.96604989968,17800,2018-05-13 19:30:38,18,0,23.726,3176.4060809757,120.078744,0.223694,0.9870735224,0,0,-0.671082,33.3, 2.5, -5.2,0,0,1024,1024,1024,1024,32.7,-89.9,98,3.961,3.949,3.921,3.946,3.977,3.954,17.434,73.4,14,Waypoint,
37.7328194,-120.0946466,3178.0465009757,121.719164,0.223694,0.98000659304,17900,2018-05-13 19:30:38,18,0,23.726,3178.0465009757,121.719164,0.223694,0.9870735224,0,0,-0.671082,33.2, 3.1, -5.2,0,0,1024,1024,1024,1024,32.6,-89.9,98,3.961,3.949,3.921,3.946,3.977,3.954,17.434,73.4,14,Waypoint,
37.7328194,-120.0946465,3180.3430889757,124.015752,0.223694,1.00724084588,18100,2018-05-13 19:30:38,18,0,23.726,3180.3430889757,124.015752,0.223694,1.00724084588,0,0,-0.671082,33.3, 3.4, -6.2,0,0,1024,1024,1024,1024,32.6,-89.9,98,3.961,3.949,3.921,3.946,3.977,3.954,17.434,73.4,14,Waypoint,
37.7328195,-120.0946464,3182.3115929757,125.984256,0,1.02356630572,18300,2018-05-13 19:30:38,18,0,23.726,3182.3115929757,125.984256,0.223694,1.02356630572,0,0,-0.671082,33.4, 3.1, -5.9,0,0,1024,1024,1024,1024,32.7,-89.9,98,3.961,3.949,3.921,3.946,3.977,3.954,17.434,73.4,14,Waypoint,
37.7328195,-120.0946464,3183.2958449757,126.968508,0,1.02356630572,18420,2018-05-13 19:30:38,18,0,23.726,3183.2958449757,126.968508,0.223694,1.02356630572,0,0,-0.671082,33.5, 2.9, -5.4,0,0,1024,1024,1024,1024,32.6,-89.9,98,3.961,3.949,3.921,3.946,3.977,3.954,17.434,73.4,14,Waypoint,
37.7328195,-120.0946464,3183.2958449757,126.968508,0,1.02356630572,18500,2018-05-13 19:30:38,18,0,23.726,3183.2958449757,126.968508,0.223694,1.02356630572,0,0,-0.671082,33.5, 2.9, -5.4,0,0,1024,1024,1024,1024,32.6,-89.9,98,3.961,3.949,3.921,3.946,3.977,3.954,17.434,73.4,14,Waypoint,
37.7328195,-120.0946464,3184.6081809757,128.280844,0,1.02356630572,18600,2018-05-13 19:30:38,18,0,23.726,3184.6081809757,128.280844,0.223694,1.02356630572,0,0,-0.671082,33.5, 2.6, -5.2,0,0,1024,1024,1024,1024,32.7,-89.9,98,3.961,3.949,3.921,3.946,3.977,3.954,17.434,73.4,14,Waypoint,
37.7328195,-120.0946464,3185.5924329757,129.265096,0,1.02356630572,18700,2018-05-13 19:30:38,18,0,23.726,3185.5924329757,129.265096,0.223694,1.02356630572,0,0,-0.671082,33.7, 2.2, -5,0,0,1024,1024,1024,1024,32.6,-90,98,3.961,3.949,3.921,3.946,3.977,3.954,17.434,73.4,14,Waypoint,
37.7328195,-120.0946464,3186.5766849757,130.249348,0,1.02356630572,18800,2018-05-13 19:30:39,18,0,23.726,3186.5766849757,130.249348,0.223694,1.02356630572,0,0,-0.671082,33.7, 1.9, -5.3,0,0,1024,1024,1024,1024,32.7,-90,98,3.961,3.949,3.921,3.946,3.977,3.954,17.434,73.4,14,Waypoint,
37.7328196,-120.0946465,3188.5451889757,132.217852,0,0.98586945412,19000,2018-05-13 19:30:39,18,0,23.341,3188.5451889757,132.217852,0.223694,1.02356630572,0,0,-0.671082,33.5, 1.8, -5.7,0,0,1024,1024,1024,1024,32.6,-89.9,98,3.898,3.885,3.871,3.897,3.926,3.906,20.919,73.4,14,Waypoint,
37.7328197,-120.0946465,3189.5294409757,133.202104,0,0.97705383704,19100,2018-05-13 19:30:39,18,0,23.341,3189.5294409757,133.202104,0.223694,1.02356630572,0,0,-0.671082,33.3, 2.4, -5.8,0,0,1024,1024,1024,1024,32.6,-89.9,98,3.898,3.885,3.871,3.897,3.926,3.906,20.919,73.4,14,Waypoint,
37.7328197,-120.0946464,3190.5136929757,134.186356,0,1.00519360172,19200,2018-05-13 19:30:39,18,0,23.341,3190.5136929757,134.186356,0.223694,1.02356630572,0,0,-0.671082,33.2, 2.9, -5.3,0,0,1024,1024,1024,1024,32.6,-89.9,98,3.898,3.885,3.871,3.897,3.926,3.906,20.919,73.4,14,Waypoint,
37.7328197,-120.0946464,3191.4979449757,135.170608,0,1.00519360172,19300,2018-05-13 19:30:39,18,0,23.341,3191.4979449757,135.170608,0.223694,1.02356630572,0,0,-0.671082,33.1, 3.2, -5,0,0,1024,1024,1024,1024,32.6,-89.9,98,3.898,3.885,3.871,3.897,3.926,3.906,20.919,73.4,14,Waypoint,
37.7328198,-120.0946465,3192.4821969757,136.15486,0,0.96953087092,19400,2018-05-13 19:30:39,18,0,23.341,3192.4821969757,136.15486,0.223694,1.02356630572,0,0,-0.671082,33, 3.2, -4.8,0,0,1024,1024,1024,1024,32.6,-89.9,98,3.898,3.885,3.871,3.897,3.926,3.906,20.919,73.4,14,Waypoint,
37.7328199,-120.0946465,3193.4664489757,137.139112,0,0.96333336416,19500,2018-05-13 19:30:39,18,0,23.341,3193.4664489757,137.139112,0.223694,1.02356630572,0,0,-0.671082,32.9, 3.2, -4.8,0,0,1024,1024,1024,1024,32.6,-89.9,98,3.898,3.885,3.871,3.897,3.926,3.906,20.919,73.4,14,Waypoint,
37.7328199,-120.0946465,3194.4507009757,138.123364,0,0.96333336416,19600,2018-05-13 19:30:39,18,0,23.341,3194.4507009757,138.123364,0.223694,1.02356630572,0,0,-0.671082,33, 3.3, -4.9,0,0,1024,1024,1024,1024,32.6,-89.9,98,3.898,3.885,3.871,3.897,3.926,3.906,20.919,73.4,14,Waypoint,
37.7328199,-120.0946465,3195.4349529757,139.107616,0,0.96333336416,19700,2018-05-13 19:30:39,18,0,23.341,3195.4349529757,139.107616,0.223694,1.02356630572,0,0,-0.671082,33, 3.2, -5.3,0,0,1024,1024,1024,1024,32.6,-89.9,98,3.898,3.885,3.871,3.897,3.926,3.906,20.919,73.4,14,Waypoint,
37.7328199,-120.0946465,3196.4192049757,140.091868,0,0.96333336416,19800,2018-05-13 19:30:40,18,0,23.341,3196.4192049757,140.091868,0.223694,1.02356630572,0,0,-0.671082,33.1, 3.3, -5.3,0,0,1024,1024,1024,1024,32.6,-89.9,98,3.898,3.885,3.871,3.897,3.926,3.906,20.919,73.4,14,Waypoint,
37.73282,-120.0946466,3197.4034569757,141.07612,0,0.9298228644,19900,2018-05-13 19:30:40,18,0,23.341,3197.4034569757,141.07612,0.223694,1.02356630572,0,0,-0.671082,33.2, 3.2, -5.2,0,0,1024,1024,1024,1024,32.6,-89.9,98,3.898,3.885,3.871,3.897,3.926,3.906,20.919,73.4,14,Waypoint,
37.73282,-120.0946466,3198.3877089757,142.060372,0,0.9298228644,20000,2018-05-13 19:30:40,18,0,23.341,3198.3877089757,142.060372,0.223694,1.02356630572,0,0,-0.671082,33.3, 3.1, -4.9,0,0,1024,1024,1024,1024,32.6,-89.9,98,3.896,3.888,3.87,3.887,3.929,3.904,20.919,73.4,14,Waypoint,
37.73282,-120.0946468,3200.6842969757,144.35696,0,0.87254267884,20100,2018-05-13 19:30:40,18,0,23.341,3200.6842969757,144.35696,0.223694,1.02356630572,0,0,-0.671082,33.7, 2.9, -4.4,0,0,1024,1024,1024,1024,32.6,-89.9,98,3.896,3.888,3.87,3.887,3.929,3.904,20.919,73.4,14,Waypoint,
37.7328201,-120.0946468,3201.6685489757,145.341212,0,0.8687172194,20300,2018-05-13 19:30:40,18,0,23.341,3201.6685489757,145.341212,0.223694,1.02356630572,0,0,-0.671082,33.9, 2.7, -4.6,0,0,1024,1024,1024,1024,32.7,-90,98,3.896,3.888,3.87,3.887,3.929,3.904,20.919,73.4,14,Waypoint,
37.73282,-120.0946469,3203.9651369757,147.6378,0,0.84392063068,20400,2018-05-13 19:30:40,18,0,23.341,3203.9651369757,147.6378,0.223694,1.02356630572,0,0,-0.671082,33.7, 2.3, -5.4,0,0,1024,1024,1024,1024,32.7,-90,98,3.896,3.888,3.87,3.887,3.929,3.904,20.919,73.4,14,Waypoint,
37.73282,-120.0946469,3205.9336409757,149.606304,0,0.84392063068,20610,2018-05-13 19:30:40,18,0,23.341,3205.9336409757,149.606304,0.223694,1.02356630572,0,0,-0.671082,33.3, 2.4, -5.6,0,0,1024,1024,1024,1024,32.6,-89.9,98,3.896,3.888,3.87,3.887,3.929,3.904,20.919,73.4,14,Waypoint,
37.73282,-120.0946469,3206.9178929757,150.590556,0,0.84392063068,20700,2018-05-13 19:30:40,18,0,23.341,3206.9178929757,150.590556,0.223694,1.02356630572,0,0,-0.671082,33.2, 2.4, -5.6,0,0,1024,1024,1024,1024,32.6,-90,98,3.896,3.888,3.87,3.887,3.929,3.904,20.919,73.4,14,Waypoint,
37.7328199,-120.0946469,3207.9021449757,151.574808,0,0.8494258802,20900,2018-05-13 19:30:41,18,0,23.341,3207.9021449757,151.574808,0.223694,1.02356630572,0,0,-0.671082,33.2, 2.4, -5.9,0,0,1024,1024,1024,1024,32.7,-89.9,98,3.896,3.888,3.87,3.887,3.929,3.904,20.919,73.4,14,Waypoint,
37.7328199,-120.0946469,3208.8863969757,152.55906,0,0.8494258802,21000,2018-05-13 19:30:41,18,0,23.292,3208.8863969757,152.55906,0.223694,1.02356630572,0,0,-0.671082,33.3, 2.4, -5.8,0,0,1024,1024,1024,1024,32.6,-90,97,3.868,3.853,3.848,3.878,3.903,3.895,22.117,73.4,14,Waypoint,
37.7328198,-120.0946469,3209.8706489757,153.543312,0,0.8564468778,21100,2018-05-13 19:30:41,18,0,23.292,3209.8706489757,153.543312,0.223694,1.02356630572,0,0,-0.671082,33.4, 2.3, -6.1,0,0,1024,1024,1024,1024,32.6,-90,97,3.868,3.853,3.848,3.878,3.903,3.895,22.117,73.4,14,Waypoint,
37.7328198,-120.0946469,3210.8549009757,154.527564,0,0.8564468778,21200,2018-05-13 19:30:41,18,0,23.292,3210.8549009757,154.527564,0.223694,1.02356630572,0,0,-0.671082,33.4, 2.2, -6.3,0,0,1024,1024,1024,1024,32.6,-89.9,97,3.868,3.853,3.848,3.878,3.903,3.895,22.117,73.4,14,Waypoint,
37.7328198,-120.0946469,3211.8391529757,155.511816,0,0.8564468778,21300,2018-05-13 19:30:41,18,0,23.292,3211.8391529757,155.511816,0.223694,1.02356630572,0,0,-0.671082,33.3, 2.2, -6,0,0,1024,1024,1024,1024,32.6,-90,97,3.868,3.853,3.848,3.878,3.903,3.895,22.117,73.4,14,Waypoint,
37.7328198,-120.0946469,3212.8234049757,156.496068,0,0.8564468778,21400,2018-05-13 19:30:41,18,0,23.292,3212.8234049757,156.496068,0.223694,1.02356630572,0,0,-0.671082,33.2, 2.2, -5.8,0,0,1024,1024,1024,1024,32.7,-89.9,97,3.868,3.853,3.848,3.878,3.903,3.895,22.117,73.4,14,Waypoint,
37.7328198,-120.094647,3213.8076569757,157.48032,0,0.82827758556,21500,2018-05-13 19:30:41,18,0,23.292,3213.8076569757,157.48032,0.223694,1.02356630572,0,0,-0.671082,33.2, 2.2, -5.5,0,0,1024,1024,1024,1024,32.6,-89.9,97,3.868,3.853,3.848,3.878,3.903,3.895,22.117,73.4,14,Waypoint,
37.7328198,-120.0946471,3214.7919089757,158.464572,0,0.80015750592,21600,2018-05-13 19:30:41,18,0,23.292,3214.7919089757,158.464572,0.223694,1.02356630572,0,0,-0.671082,33.1, 2.2, -5.3,0,0,1024,1024,1024,1024,32.7,-89.9,97,3.868,3.853,3.848,3.878,3.903,3.895,22.117,73.4,14,Waypoint,
37.7328199,-120.0946472,3215.7761609757,159.448824,0,0.76429136304,21700,2018-05-13 19:30:41,18,0,23.292,3215.7761609757,159.448824,0.223694,1.02356630572,0,0,-0.671082,33.1, 2.2, -5.1,0,0,1024,1024,1024,1024,32.6,-89.9,97,3.868,3.853,3.848,3.878,3.903,3.895,22.117,73.4,14,Waypoint,
37.7328199,-120.0946473,3216.7604129757,160.433076,0,0.73598755636,21800,2018-05-13 19:30:42,18,0,23.292,3216.7604129757,160.433076,0.223694,1.02356630572,0,0,-0.671082,33.1, 2.3, -4.9,0,0,1024,1024,1024,1024,32.6,-89.9,97,3.868,3.853,3.848,3.878,3.903,3.895,22.117,73.4,14,Waypoint,
37.7328199,-120.0946474,3217.7446649757,161.417328,0,0.70772968144,21900,2018-05-13 19:30:42,18,0,23.292,3217.7446649757,161.417328,0.223694,1.02356630572,0,0,-0.671082,33.1, 2.4, -4.7,0,0,1024,1024,1024,1024,32.6,-89.9,97,3.868,3.853,3.848,3.878,3.903,3.895,22.117,73.4,14,Waypoint,
37.73282,-120.0946475,3218.7289169757,162.40158,0,0.67262797428,22000,2018-05-13 19:30:42,18,0,23.245,3218.7289169757,162.40158,0.223694,1.02356630572,0,0,-0.671082,33.2, 2.5, -4.5,0,0,1024,1024,1024,1024,32.7,-89.9,97,3.873,3.864,3.84,3.871,3.903,3.879,21.25,73.4,14,Waypoint,
37.73282,-120.0946476,3219.7131689757,163.385832,0,0.6441765298,22100,2018-05-13 19:30:42,18,0,23.245,3219.7131689757,163.385832,0.223694,1.02356630572,0,0,-0.671082,33.3, 2.4, -4.6,0,0,1024,1024,1024,1024,32.7,-90,97,3.873,3.864,3.84,3.871,3.903,3.879,21.25,73.4,14,Waypoint,
37.73282,-120.0946476,3220.6974209757,164.370084,0,0.6441765298,22200,2018-05-13 19:30:42,18,0,23.245,3220.6974209757,164.370084,0.223694,1.02356630572,0,0,-0.671082,33.4, 2.3, -4.7,0,0,1024,1024,1024,1024,32.7,-90,97,3.873,3.864,3.84,3.871,3.903,3.879,21.25,73.4,14,Waypoint,
37.7328199,-120.0946476,3221.6816729757,165.354336,0,0.65136813108,22300,2018-05-13 19:30:42,18,0,23.245,3221.6816729757,165.354336,0.223694,1.02356630572,0,0,-0.671082,33.4, 2.2, -4.7,0,0,1024,1024,1024,1024,32.6,-90,97,3.873,3.864,3.84,3.871,3.903,3.879,21.25,73.4,14,Waypoint,
37.7328199,-120.0946477,3224.6344289757,168.307092,0,0.62328085984,22520,2018-05-13 19:30:42,18,0,23.245,3224.6344289757,168.307092,0.223694,1.02356630572,0,0,-0.671082,33.5, 1.8, -5,0,0,1024,1024,1024,1024,32.6,-90,97,3.873,3.864,3.84,3.871,3.903,3.879,21.25,73.4,14,Waypoint,
37.7328199,-120.0946477,3224.6344289757,168.307092,0,0.62328085984,22600,2018-05-13 19:30:42,18,0,23.245,3224.6344289757,168.307092,0.223694,1.02356630572,0,0,-0.671082,33.5, 1.8, -5,0,0,1024,1024,1024,1024,32.6,-90,97,3.873,3.864,3.84,3.871,3.903,3.879,21.25,73.4,14,Waypoint,
37.7328199,-120.0946477,3225.6186809757,169.291344,0,0.62328085984,22700,2018-05-13 19:30:42,18,0,23.245,3225.6186809757,169.291344,0.223694,1.02356630572,0,0,-0.671082,33.5, 1.8, -4.9,0,0,1024,1024,1024,1024,32.6,-90,97,3.873,3.864,3.84,3.871,3.903,3.879,21.25,73.4,14,Waypoint,
37.7328199,-120.0946478,3227.5871849757,171.259848,0,0.59526576708,22900,2018-05-13 19:30:43,18,0,23.245,3227.5871849757,171.259848,0.223694,1.02356630572,0,0,-0.671082,33.6, 1.7, -4.8,0,0,1024,1024,1024,1024,32.6,-90,97,3.873,3.864,3.84,3.871,3.903,3.879,21.25,73.4,14,Waypoint,
37.7328198,-120.094648,3229.5556889757,173.228352,0,0.55049542444,23100,2018-05-13 19:30:43,18,0,23.245,3229.5556889757,173.228352,0.223694,1.02356630572,0,0,-0.671082,33.5, 1.6, -4.4,0,0,1024,1024,1024,1024,32.6,-90,97,3.873,3.864,3.84,3.871,3.903,3.879,21.25,73.4,14,Waypoint,
37.7328198,-120.0946481,3230.5399409757,174.212604,0,0.52335631596,23200,2018-05-13 19:30:43,18,0,23.245,3230.5399409757,174.212604,0.223694,1.02356630572,0,0,-0.671082,33.4, 1.7, -4.2,0,0,1024,1024,1024,1024,32.6,-89.9,97,3.873,3.864,3.84,3.871,3.903,3.879,21.25,73.4,14,Waypoint,
37.7328198,-120.0946481,3231.5241929757,175.196856,0,0.52335631596,23300,2018-05-13 19:30:43,18,0,23.245,3231.5241929757,175.196856,0.223694,1.02356630572,0,0,-0.671082,33.4, 1.5, -4.4,0,0,1024,1024,1024,1024,32.6,-90,97,3.873,3.864,3.84,3.871,3.903,3.879,21.25,73.4,14,Waypoint,
37.7328198,-120.0946481,3232.5084449757,176.181108,0,0.52335631596,23400,2018-05-13 19:30:43,18,0,23.245,3232.5084449757,176.181108,0.223694,1.02356630572,0,0,-0.671082,33.3, 1.5, -4.6,0,0,1024,1024,1024,1024,32.6,-90,97,3.873,3.864,3.84,3.871,3.903,3.879,21.25,73.4,14,Waypoint,
37.7328198,-120.0946482,3233.4926969757,177.16536,0,0.49641405788,23500,2018-05-13 19:30:43,18,0,23.245,3233.4926969757,177.16536,0.223694,1.02356630572,0,0,-0.671082,33.1, 1.4, -4.6,0,0,1024,1024,1024,1024,32.6,-90,97,3.873,3.864,3.84,3.871,3.903,3.879,21.25,73.4,14,Waypoint,
37.7328198,-120.0946482,3234.4769489757,178.149612,0,0.49641405788,23600,2018-05-13 19:30:43,18,0,23.245,3234.4769489757,178.149612,0.223694,1.02356630572,0,0,-0.671082,33, 1.4, -4.7,0,0,1024,1024,1024,1024,32.6,-90,97,3.873,3.864,3.84,3.871,3.903,3.879,21.25,73.4,14,Waypoint,
37.7328198,-120.0946482,3235.4612009757,179.133864,0,0.49641405788,23700,2018-05-13 19:30:43,18,0,23.245,3235.4612009757,179.133864,0.223694,1.02356630572,0,0,-0.671082,32.9, 1.5, -4.8,0,0,1024,1024,1024,1024,32.6,-89.9,97,3.873,3.864,3.84,3.871,3.903,3.879,21.25,73.4,14,Waypoint,
37.7328198,-120.0946482,3236.4454529757,180.118116,0,0.49641405788,23800,2018-05-13 19:30:44,18,0,23.245,3236.4454529757,180.118116,0.223694,1.02356630572,0,0,-0.671082,32.9, 1.7, -4.8,0,0,1024,1024,1024,1024,32.6,-89.9,97,3.873,3.864,3.84,3.871,3.903,3.879,21.25,73.4,14,Waypoint,
37.7328198,-120.0946482,3237.4297049757,181.102368,0,0.49641405788,23900,2018-05-13 19:30:44,18,0,23.245,3237.4297049757,181.102368,0.223694,1.02356630572,0,0,-0.671082,33, 1.8, -4.7,0,0,1024,1024,1024,1024,32.6,-89.9,97,3.873,3.864,3.84,3.871,3.903,3.879,21.25,73.4,14,Waypoint,
37.7328198,-120.0946482,3238.4139569757,182.08662,0,0.49641405788,24000,2018-05-13 19:30:44,18,0,23.069,3238.4139569757,182.08662,0.223694,1.02356630572,0,0,-0.671082,33.1, 2, -4.8,0,0,1024,1024,1024,1024,32.6,-89.9,97,3.851,3.831,3.806,3.839,3.873,3.849,22.552,73.4,14,Waypoint,
37.7328198,-120.0946482,3239.3982089757,183.070872,0,0.49641405788,24100,2018-05-13 19:30:44,18,0,23.069,3239.3982089757,183.070872,0.223694,1.02356630572,0,0,-0.671082,33.3, 2, -4.8,0,0,1024,1024,1024,1024,32.6,-89.9,97,3.851,3.831,3.806,3.839,3.873,3.849,22.552,73.4,14,Waypoint,
37.7328198,-120.0946481,3240.3824609757,184.055124,0,0.52335631596,24200,2018-05-13 19:30:44,18,0,23.069,3240.3824609757,184.055124,0.223694,1.02356630572,0,0,-0.671082,33.4, 2, -5.1,0,0,1024,1024,1024,1024,32.6,-89.9,97,3.851,3.831,3.806,3.839,3.873,3.849,22.552,73.4,14,Waypoint,
37.7328197,-120.0946481,3241.3667129757,185.039376,0,0.53716537152,24300,2018-05-13 19:30:44,18,0,23.069,3241.3667129757,185.039376,0.223694,1.02356630572,0,0,-0.671082,33.5, 2, -5.1,0,0,1024,1024,1024,1024,32.7,-89.9,97,3.851,3.831,3.806,3.839,3.873,3.849,22.552,73.4,14,Waypoint,
37.7328197,-120.094648,3242.3509649757,186.023628,0,0.56363846948,24400,2018-05-13 19:30:44,18,0,23.069,3242.3509649757,186.023628,0.223694,1.02356630572,0,0,-0.671082,33.6, 2.1, -5.4,0,0,1024,1024,1024,1024,32.6,-89.9,97,3.851,3.831,3.806,3.839,3.873,3.849,22.552,73.4,14,Waypoint,
37.7328197,-120.0946479,3243.3352169757,187.00788,0,0.59033466456,24500,2018-05-13 19:30:44,18,0,23.069,3243.3352169757,187.00788,0.223694,1.02356630572,0,0,-0.671082,33.7, 2.1, -5.6,0,0,1024,1024,1024,1024,32.7,-89.9,97,3.851,3.831,3.806,3.839,3.873,3.849,22.552,73.4,14,Waypoint,
37.7328197,-120.0946479,3244.3194689757,187.992132,0,0.59033466456,24600,2018-05-13 19:30:44,18,0,23.069,3244.3194689757,187.992132,0.223694,1.02356630572,0,0,-0.671082,33.7, 2.2, -5.6,0,0,1024,1024,1024,1024,32.6,-89.9,97,3.851,3.831,3.806,3.839,3.873,3.849,22.552,73.4,14,Waypoint,
37.7328197,-120.0946479,3245.3037209757,188.976384,0,0.59033466456,24700,2018-05-13 19:30:44,18,0,23.069,3245.3037209757,188.976384,0.223694,1.02356630572,0,0,-0.671082,33.6, 2.2, -5.6,0,0,1024,1024,1024,1024,32.7,-89.9,97,3.851,3.831,3.806,3.839,3.873,3.849,22.552,73.4,14,Waypoint,
37.7328197,-120.0946478,3245.9598889757,189.632552,0,0.6172244292,24800,2018-05-13 19:30:45,18,0,23.069,3245.9598889757,189.632552,0.223694,1.02356630572,0,0,-0.671082,33.5, 2.3, -5.6,0,0,1024,1024,1024,1024,32.6,-89.9,97,3.851,3.831,3.806,3.839,3.873,3.849,22.552,73.4,14,Waypoint,
37.7328197,-120.0946478,3246.9441409757,190.616804,0,0.6172244292,24900,2018-05-13 19:30:45,18,0,23.069,3246.9441409757,190.616804,0.223694,1.02356630572,0,0,-0.671082,33.5, 2.4, -5.2,0,0,1024,1024,1024,1024,32.6,-89.9,97,3.851,3.831,3.806,3.839,3.873,3.849,22.552,73.4,14,Waypoint,
37.7328197,-120.0946478,3247.9283929757,191.601056,0,0.6172244292,25000,2018-05-13 19:30:45,18,0,23.024,3247.9283929757,191.601056,0.223694,1.02356630572,0,0,-0.671082,33.6, 2.4, -4.8,0,0,1024,1024,1024,1024,32.6,-89.9,97,3.846,3.818,3.8,3.837,3.866,3.845,23.121,75.2,14,Waypoint,
37.7328198,-120.0946479,3248.9126449757,192.585308,0,0.57779857492,25100,2018-05-13 19:30:45,18,0,23.024,3248.9126449757,192.585308,0.223694,1.02356630572,0,0,-0.671082,33.5, 2.3, -4.6,0,0,1024,1024,1024,1024,32.6,-89.9,97,3.846,3.818,3.8,3.837,3.866,3.845,23.121,75.2,14,Waypoint,
37.7328198,-120.0946479,3250.5530649757,194.225728,0,0.57779857492,25200,2018-05-13 19:30:45,18,0,23.024,3250.5530649757,194.225728,0.223694,1.02356630572,0,0,-0.671082,33.5, 2.4, -4.2,0,0,1024,1024,1024,1024,32.7,-89.9,97,3.846,3.818,3.8,3.837,3.866,3.845,23.121,75.2,14,Waypoint,
37.7328199,-120.0946479,3251.5373169757,195.20998,0,0.56733597616,25300,2018-05-13 19:30:45,18,0,23.024,3251.5373169757,195.20998,0.223694,1.02356630572,0,0,-0.671082,33.4, 2.6, -4.2,0,0,1024,1024,1024,1024,32.6,-89.9,97,3.846,3.818,3.8,3.837,3.866,3.845,23.121,75.2,14,Waypoint,
37.7328199,-120.0946479,3252.5215689757,196.194232,0,0.56733597616,25500,2018-05-13 19:30:45,18,0,23.024,3252.5215689757,196.194232,0.223694,1.02356630572,0,0,-0.671082,33.2, 2.6, -4.6,0,0,1024,1024,1024,1024,32.6,-89.9,97,3.846,3.818,3.8,3.837,3.866,3.845,23.121,75.2,14,Waypoint,
37.7328199,-120.0946479,3253.5058209757,197.178484,0,0.56733597616,25600,2018-05-13 19:30:45,18,0,23.024,3253.5058209757,197.178484,0.223694,1.02356630572,0,0,-0.671082,33.1, 2.6, -4.9,0,0,1024,1024,1024,1024,32.6,-89.9,97,3.846,3.818,3.8,3.837,3.866,3.845,23.121,75.2,14,Waypoint,
37.73282,-120.0946479,3254.4900729757,198.162736,0,0.55906497852,25700,2018-05-13 19:30:45,18,0,23.024,3254.4900729757,198.162736,0.223694,1.02356630572,0,0,-0.671082,33.1, 2.6, -5,0,0,1024,1024,1024,1024,32.6,-89.9,97,3.846,3.818,3.8,3.837,3.866,3.845,23.121,75.2,14,Waypoint,
37.73282,-120.0946478,3255.4743249757,199.146988,0,0.58738847024,25800,2018-05-13 19:30:46,18,0,23.024,3255.4743249757,199.146988,0.223694,1.02356630572,0,0,-0.671082,33.1, 2.7, -5.1,0,0,1024,1024,1024,1024,32.6,-89.9,97,3.846,3.818,3.8,3.837,3.866,3.845,23.121,75.2,14,Waypoint,
37.73282,-120.0946478,3256.4585769757,200.13124,0,0.58738847024,25900,2018-05-13 19:30:46,18,0,23.024,3256.4585769757,200.13124,0.223694,1.02356630572,0,0,-0.671082,33.3, 2.7, -4.8,0,0,1024,1024,1024,1024,32.7,-89.9,97,3.846,3.818,3.8,3.837,3.866,3.845,23.121,75.2,14,Waypoint,
37.7328201,-120.0946478,3257.4428289757,201.115492,0,0.581692932,26000,2018-05-13 19:30:46,18,0,23.025,3257.4428289757,201.115492,0.223694,1.02356630572,0,0,-0.671082,33.3, 2.7, -4.5,0,0,1024,1024,1024,1024,32.7,-89.9,97,3.838,3.82,3.804,3.831,3.869,3.853,22.621,75.2,14,Waypoint,
