latitude,longitude,altitude(feet),ascent(feet),speed(mph),distance(feet),time(millisecond),datetime(utc),satellites,gpslevel,voltage(v),max_altitude(feet),max_ascent(feet),max_speed(mph),max_distance(feet), xSpeed(mph), ySpeed(mph), zSpeed(mph), compass_heading(degrees), pitch(degrees), roll(degrees),isPhoto,isVideo,rc_elevator,rc_aileron,rc_throttle,rc_rudder,gimbal_heading(degrees),gimbal_pitch(degrees),battery_percent,voltageCell1,voltageCell2,voltageCell3,voltageCell4,voltageCell5,voltageCell6,current(A),battery_temperature(f),flycStateRaw,flycState,message
37.7328303,-120.0946851,3057.2006122661,0,0,0,3040,2018-05-13 18:29:45,15,0,25.645,3057.2006122661,0,0,0,0,0,0,222.7, 0.3, -0.1,1,0,1024,1024,1024,1024,221.5,-89.9,100,4.284,4.309,4.238,4.311,4.28,4.27,2.964,82.4,11,AutoTakeoff,DJI_0392.jpg Starting Mission from Lat/Long: 37.73284/-120.09469 Camera: Zenmuse X3 - Overlap: 90/90 - Active Connection: No
37.7328304,-120.0946851,3057.2006122661,0,0,0.036484909304,3100,2018-05-13 18:29:45,15,0,25.645,3057.2006122661,0,0,0.036484909304,0,0,0,222.7, 0.6, 0,0,0,1024,1024,1024,1024,221.5,-89.9,100,4.284,4.309,4.238,4.311,4.28,4.27,2.964,82.4,11,AutoTakeoff,
37.7328305,-120.0946851,3057.2006122661,0,0,0.072969818608,3200,2018-05-13 18:29:45,15,0,25.645,3057.2006122661,0,0,0.072969818608,0,0,0,222.6, 0.6, 0,0,0,1024,1024,1024,1024,221.5,-89.9,100,4.284,4.309,4.238,4.311,4.28,4.27,2.964,82.4,11,AutoTakeoff,
37.7328305,-120.0946851,3057.5286962661,0.328084,0,0.072969818608,3300,2018-05-13 18:29:46,15,0,25.645,3057.5286962661,0.328084,0,0.072969818608,0,0,0,222.4, 0.2, 0,0,0,1024,1024,1024,1024,221.5,-89.9,100,4.284,4.309,4.238,4.311,4.28,4.27,2.964,82.4,11,AutoTakeoff,
37.7328306,-120.0946851,3057.5286962661,0.328084,0,0.109454727912,3400,2018-05-13 18:29:46,14,0,25.645,3057.5286962661,0.328084,0,0.109454727912,0,0,0,222.3, 0, -0.2,0,0,1024,1024,1024,1024,221.5,-90,100,4.284,4.309,4.238,4.311,4.28,4.27,2.964,82.4,11,AutoTakeoff,
37.7328307,-120.0946851,3057.8567802661,0.656168,0,0.145939637216,3500,2018-05-13 18:29:46,14,0,25.645,3057.8567802661,0.656168,0,0.145939637216,0,0,0,222.2, -0.2, 0,0,0,1024,1024,1024,1024,221.5,-90,100,4.284,4.309,4.238,4.311,4.28,4.27,2.964,82.4,11,AutoTakeoff,
37.7328307,-120.0946851,3057.8567802661,0.656168,0,0.145939637216,3600,2018-05-13 18:29:46,14,0,25.645,3057.8567802661,0.656168,0,0.145939637216,0,0,0,222.1, -0.2, 0,0,0,1024,1024,1024,1024,221.5,-90,100,4.284,4.309,4.238,4.311,4.28,4.27,2.964,82.4,11,AutoTakeoff,
37.7328308,-120.0946851,3058.1848642661,0.984252,0,0.18242454652,3700,2018-05-13 18:29:46,14,0,25.645,3058.1848642661,0.984252,0,0.18242454652,0,0,0,222.1, -0.2, 0.2,0,0,1024,1024,1024,1024,221.5,-90,100,4.284,4.309,4.238,4.311,4.28,4.27,2.964,82.4,11,AutoTakeoff,
37.7328308,-120.0946851,3058.1848642661,0.984252,0,0.18242454652,3800,2018-05-13 18:29:46,14,0,25.645,3058.1848642661,0.984252,0,0.18242454652,0,0,0,222.1, -0.1, 0,0,0,1024,1024,1024,1024,221.5,-89.9,100,4.284,4.309,4.238,4.311,4.28,4.27,2.964,82.4,11,AutoTakeoff,
37.7328308,-120.0946851,3058.5129482661,1.312336,0,0.18242454652,4000,2018-05-13 18:29:46,14,0,25.716,3058.5129482661,1.312336,0,0.18242454652,0,0,0,222.2, 0, 0,0,0,1024,1024,1024,1024,221.5,-89.9,100,4.269,4.258,4.258,4.242,4.25,4.241,3.831,82.4,11,AutoTakeoff,
37.7328308,-120.0946852,3058.8410322661,1.64042,0,0.184692591212,4100,2018-05-13 18:29:46,14,0,25.716,3058.8410322661,1.64042,0,0.184692591212,0,0,-0.223694,222.2, 0, -0.1,0,0,1024,1024,1024,1024,221.5,-89.9,100,4.269,4.258,4.258,4.242,4.25,4.241,3.831,82.4,11,AutoTakeoff,
37.7328308,-120.0946853,3058.8410322661,1.64042,0,0.19133530796,4300,2018-05-13 18:29:47,14,0,25.716,3058.8410322661,1.64042,0,0.19133530796,0,0,-0.223694,222.2, 0.1, -0.2,0,0,1024,1024,1024,1024,221.5,-89.9,100,4.269,4.258,4.258,4.242,4.25,4.241,3.831,82.4,11,AutoTakeoff,
37.7328308,-120.0946853,3059.1691162661,1.968504,0,0.19133530796,4400,2018-05-13 18:29:47,14,0,25.716,3059.1691162661,1.968504,0,0.19133530796,0,0,0,222.1, 0.1, -0.1,0,0,1024,1024,1024,1024,221.5,-89.9,100,4.269,4.258,4.258,4.242,4.25,4.241,3.831,82.4,11,AutoTakeoff,
37.7328308,-120.0946853,3059.4972002661,2.296588,0,0.19133530796,4500,2018-05-13 18:29:47,14,0,25.716,3059.4972002661,2.296588,0,0.19133530796,0,0,-0.223694,222.1, 0.1, -0.1,0,0,1024,1024,1024,1024,221.5,-89.9,100,4.269,4.258,4.258,4.242,4.25,4.241,3.831,82.4,11,AutoTakeoff,
37.7328308,-120.0946853,3059.8252842661,2.624672,0,0.19133530796,4600,2018-05-13 18:29:47,14,0,25.716,3059.8252842661,2.624672,0,0.19133530796,0,0,-0.223694,222.1, 0, 0,0,0,1024,1024,1024,1024,221.5,-89.9,100,4.269,4.258,4.258,4.242,4.25,4.241,3.831,82.4,11,AutoTakeoff,
37.7328308,-120.0946853,3059.8252842661,2.624672,0,0.19133530796,4700,2018-05-13 18:29:47,14,0,25.716,3059.8252842661,2.624672,0,0.19133530796,0,0,-0.223694,222.1, 0, 0,0,0,1024,1024,1024,1024,221.5,-89.9,100,4.269,4.258,4.258,4.242,4.25,4.241,3.831,82.4,11,AutoTakeoff,
37.7328308,-120.0946852,3060.1533682661,2.952756,0,0.184692591212,4800,2018-05-13 18:29:47,15,0,25.716,3060.1533682661,2.952756,0,0.19133530796,0,0,0,222.1, 0, 0,0,0,1024,1024,1024,1024,221.5,-90,100,4.269,4.258,4.258,4.242,4.25,4.241,3.831,82.4,6,P-GPS,
37.7328308,-120.0946851,3060.1533682661,2.952756,0,0.18242454652,4910,2018-05-13 18:29:47,15,0,25.716,3060.1533682661,2.952756,0,0.19133530796,0,0,0,222.1, 0, 0.1,0,0,1024,1024,1024,1024,221.5,-89.9,100,4.269,4.258,4.258,4.242,4.25,4.241,3.831,82.4,14,Waypoint,
37.7328308,-120.094685,3060.1533682661,2.952756,0,0.184692591212,5000,2018-05-13 18:29:47,15,0,24.974,3060.1533682661,2.952756,0,0.19133530796,0,0,0,222.2, 0, 0.5,0,0,1024,1024,1024,1024,221.5,-89.9,100,4.127,4.137,4.153,4.155,4.177,4.138,13.312,82.4,14,Waypoint,
37.7328307,-120.0946849,3060.4814522661,3.28084,0,0.15693570056,5200,2018-05-13 18:29:47,14,0,24.974,3060.4814522661,3.28084,0,0.19133530796,0,0,0,222.2, 0.3, 1,0,0,1024,1024,1024,1024,221.5,-89.9,100,4.127,4.137,4.153,4.155,4.177,4.138,13.312,82.4,14,Waypoint,
37.7328307,-120.0946849,3060.4814522661,3.28084,0,0.15693570056,5310,2018-05-13 18:29:48,14,0,24.974,3060.4814522661,3.28084,0,0.19133530796,0,0,0,222.2, 0.4, 0.9,0,0,1024,1024,1024,1024,221.5,-89.9,100,4.127,4.137,4.153,4.155,4.177,4.138,13.312,82.4,14,Waypoint,
37.7328307,-120.0946849,3060.8095362661,3.608924,0,0.15693570056,5400,2018-05-13 18:29:48,14,0,24.974,3060.8095362661,3.608924,0,0.19133530796,0,0,-0.223694,222.2, 0.4, 0.7,0,0,1024,1024,1024,1024,221.5,-89.9,100,4.127,4.137,4.153,4.155,4.177,4.138,13.312,82.4,14,Waypoint,
37.7328307,-120.0946849,3060.8095362661,3.608924,0,0.15693570056,5500,2018-05-13 18:29:48,14,0,24.974,3060.8095362661,3.608924,0,0.19133530796,0,0,-0.223694,222.2, 0.4, 0.6,0,0,1024,1024,1024,1024,221.5,-89.9,100,4.127,4.137,4.153,4.155,4.177,4.138,13.312,82.4,14,Waypoint,
37.7328307,-120.0946848,3061.1376202661,3.937008,0,0.16968176396,5610,2018-05-13 18:29:48,15,0,24.974,3061.1376202661,3.937008,0,0.19133530796,0,0,-0.223694,222.2, 0.3, 0.5,0,0,1024,1024,1024,1024,221.5,-89.9,100,4.127,4.137,4.153,4.155,4.177,4.138,13.312,82.4,14,Waypoint,
37.7328308,-120.0946847,3061.4657042661,4.265092,0,0.215871397984,5700,2018-05-13 18:29:48,15,0,24.974,3061.4657042661,4.265092,0,0.215871397984,0,0,-0.223694,222.1, 0.2, 0.5,0,0,1024,1024,1024,1024,221.5,-90,100,4.127,4.137,4.153,4.155,4.177,4.138,13.312,82.4,14,Waypoint,
37.7328308,-120.0946846,3061.7937882661,4.593176,0,0.232581044188,5800,2018-05-13 18:29:48,15,0,24.974,3061.7937882661,4.593176,0,0.232581044188,0,0,-0.223694,222.1, 0, 0.5,0,0,1024,1024,1024,1024,221.5,-90,100,4.127,4.137,4.153,4.155,4.177,4.138,13.312,82.4,14,Waypoint,
37.7328308,-120.0946845,3062.4499562661,5.249344,0,0.2515009923,6000,2018-05-13 18:29:48,15,0,24.802,3062.4499562661,5.249344,0,0.2515009923,0,0,-0.447388,222.1, 0, 0.5,0,0,1024,1024,1024,1024,221.5,-89.9,98,4.126,4.078,4.119,4.114,4.14,4.124,14.861,82.4,14,Waypoint,
37.7328308,-120.0946844,3062.7780402661,5.577428,0,0.2721702843,6100,2018-05-13 18:29:48,15,0,24.802,3062.7780402661,5.577428,0,0.2721702843,0,0,-0.447388,222.1, 0, 0.7,0,0,1024,1024,1024,1024,221.5,-90,98,4.126,4.078,4.119,4.114,4.14,4.124,14.861,82.4,14,Waypoint,
37.7328308,-120.0946842,3063.4342082661,6.233596,0,0.317364183384,6200,2018-05-13 18:29:48,15,0,24.802,3063.4342082661,6.233596,0,0.317364183384,0,0,-0.447388,222.1, -0.1, 0.8,0,0,1024,1024,1024,1024,221.5,-90,98,4.126,4.078,4.119,4.114,4.14,4.124,14.861,82.4,14,Waypoint,
37.7328308,-120.0946841,3064.0903762661,6.889764,0,0.34137796368,6300,2018-05-13 18:29:49,16,0,24.802,3064.0903762661,6.889764,0,0.34137796368,0,0,-0.447388,222.1, -0.2, 1,0,0,1024,1024,1024,1024,221.5,-89.9,98,4.126,4.078,4.119,4.114,4.14,4.124,14.861,82.4,14,Waypoint,
37.7328308,-120.094684,3065.0746282661,7.874016,0,0.3660925314,6400,2018-05-13 18:29:49,16,0,24.802,3065.0746282661,7.874016,0,0.3660925314,0,0,-0.447388,222.1, -0.3, 1,0,0,1024,1024,1024,1024,221.5,-89.9,98,4.126,4.078,4.119,4.114,4.14,4.124,14.861,82.4,14,Waypoint,
37.7328309,-120.094684,3065.7307962661,8.530184,0,0.38557415932,6500,2018-05-13 18:29:49,15,0,24.802,3065.7307962661,8.530184,0,0.38557415932,0,0,-0.671082,222.1, -0.2, 0.9,0,0,1024,1024,1024,1024,221.5,-89.9,98,4.126,4.078,4.119,4.114,4.14,4.124,14.861,82.4,14,Waypoint,
37.7328309,-120.0946841,3066.7150482661,9.514436,0,0.36219161264,6600,2018-05-13 18:29:49,15,0,24.802,3066.7150482661,9.514436,0,0.38557415932,0,0,-0.671082,222.1, 0, 0.7,0,0,1024,1024,1024,1024,221.5,-89.9,98,4.126,4.078,4.119,4.114,4.14,4.124,14.861,82.4,14,Waypoint,
37.7328309,-120.0946842,3069.9958882661,12.795276,0,0.33965224184,6820,2018-05-13 18:29:49,15,0,24.802,3069.9958882661,12.795276,0,0.38557415932,0,0,-0.671082,222.2, 0.3, 0.3,0,0,1024,1024,1024,1024,221.5,-89.9,98,4.126,4.078,4.119,4.114,4.14,4.124,14.861,82.4,14,Waypoint,
37.7328309,-120.0946842,3069.9958882661,12.795276,0,0.33965224184,6900,2018-05-13 18:29:49,15,0,24.802,3069.9958882661,12.795276,0,0.38557415932,0,0,-0.671082,222.2, 0.3, 0.3,0,0,1024,1024,1024,1024,221.5,-89.9,98,4.126,4.078,4.119,4.114,4.14,4.124,14.861,82.4,14,Waypoint,
37.7328311,-120.0946843,3070.9801402661,13.779528,0,0.372129277,7000,2018-05-13 18:29:49,15,0,24.292,3070.9801402661,13.779528,0,0.38557415932,0,0,-0.671082,222.2, 0.2, 0.3,0,0,1024,1024,1024,1024,221.5,-89.9,98,4.045,4.027,4.012,4.021,4.063,4.031,21.235,82.4,14,Waypoint,
37.7328311,-120.0946844,3071.9643922661,14.76378,0,0.3549540796,7100,2018-05-13 18:29:49,15,0,24.292,3071.9643922661,14.76378,0,0.38557415932,0,0,-0.671082,222.2, 0, 0,0,0,1024,1024,1024,1024,221.5,-89.9,98,4.045,4.027,4.012,4.021,4.063,4.031,21.235,82.4,14,Waypoint,
37.7328311,-120.0946845,3073.2767282661,16.076116,0,0.33936352792,7200,2018-05-13 18:29:49,15,0,24.292,3073.2767282661,16.076116,0,0.38557415932,0,0,-0.671082,222.3, 0, -0.1,0,0,1024,1024,1024,1024,221.5,-89.9,98,4.045,4.027,4.012,4.021,4.063,4.031,21.235,82.4,14,Waypoint,
37.732831,-120.0946846,3074.2609802661,17.060368,0,0.29332842146,7300,2018-05-13 18:29:50,15,0,24.292,3074.2609802661,17.060368,0,0.38557415932,0,0,-0.671082,222.3, 0, -0.1,0,0,1024,1024,1024,1024,221.5,-89.9,98,4.045,4.027,4.012,4.021,4.063,4.031,21.235,82.4,14,Waypoint,
37.732831,-120.0946847,3075.2452322661,18.04462,0,0.280264444664,7400,2018-05-13 18:29:50,15,0,24.292,3075.2452322661,18.04462,0,0.38557415932,0,0,-0.671082,222.4, 0.2, 0,0,0,1024,1024,1024,1024,221.5,-89.9,98,4.045,4.027,4.012,4.021,4.063,4.031,21.235,82.4,14,Waypoint,
37.7328309,-120.0946848,3077.5418202661,20.341208,0,0.235403878924,7510,2018-05-13 18:29:50,16,0,24.292,3077.5418202661,20.341208,0,0.38557415932,0,0,-0.671082,222.2, 0.6, 0.4,0,0,1024,1024,1024,1024,221.5,-89.9,98,4.045,4.027,4.012,4.021,4.063,4.031,21.235,82.4,14,Waypoint,
37.7328309,-120.0946847,3078.5260722661,21.32546,0,0.247473433116,7700,2018-05-13 18:29:50,17,0,24.292,3078.5260722661,21.32546,0,0.38557415932,0,0,-0.671082,221.9, 0.8, 0.5,0,0,1024,1024,1024,1024,221.5,-89.9,98,4.045,4.027,4.012,4.021,4.063,4.031,21.235,82.4,14,Waypoint,
37.732831,-120.0946845,3080.8226602661,23.622048,0,0.308545613548,7820,2018-05-13 18:29:50,16,0,24.292,3080.8226602661,23.622048,0,0.38557415932,0,0,-0.671082,221.8, 0, 0.6,0,0,1024,1024,1024,1024,221.5,-90,98,4.045,4.027,4.012,4.021,4.063,4.031,21.235,82.4,14,Waypoint,
37.732831,-120.0946845,3080.8226602661,23.622048,0,0.308545613548,7900,2018-05-13 18:29:50,16,0,24.292,3080.8226602661,23.622048,0,0.38557415932,0,0,-0.671082,221.8, 0, 0.6,0,0,1024,1024,1024,1024,221.5,-90,98,4.045,4.027,4.012,4.021,4.063,4.031,21.235,82.4,14,Waypoint,
37.732831,-120.0946844,3081.8069122661,24.6063,0,0.32561352748,8000,2018-05-13 18:29:50,16,0,24.232,3081.8069122661,24.6063,0,0.38557415932,0,0,-0.671082,221.8, -0.3, 0.7,0,0,1024,1024,1024,1024,221.5,-90,98,4.045,4.027,4.012,4.021,4.063,4.031,20.504,82.4,14,Waypoint,
37.7328311,-120.0946844,3083.1192482661,25.918636,0,0.3549540796,8110,2018-05-13 18:29:50,15,0,24.232,3083.1192482661,25.918636,0,0.38557415932,0,0,-0.671082,221.8, -0.5, 0.7,0,0,1024,1024,1024,1024,221.5,-90,98,4.045,4.027,4.012,4.021,4.063,4.031,20.504,82.4,14,Waypoint,
37.7328311,-120.0946842,3084.1035002661,26.902888,0,0.39068570804,8200,2018-05-13 18:29:50,15,0,24.232,3084.1035002661,26.902888,0,0.39068570804,0,0,-0.671082,221.8, -0.6, 0.7,0,0,1024,1024,1024,1024,221.5,-90,98,4.045,4.027,4.012,4.021,4.063,4.031,20.504,82.4,14,Waypoint,
37.7328311,-120.0946841,3085.0877522661,27.88714,0,0.410433084,8300,2018-05-13 18:29:51,16,0,24.232,3085.0877522661,27.88714,0,0.410433084,0,0,-0.671082,221.8, -0.8, 0.6,0,0,1024,1024,1024,1024,221.5,-90,98,4.045,4.027,4.012,4.021,4.063,4.031,20.504,82.4,14,Waypoint,
37.7328311,-120.094684,3086.0720042661,28.871392,0,0.43120736288,8500,2018-05-13 18:29:51,16,0,24.232,3086.0720042661,28.871392,0,0.43120736288,0,0,-0.671082,221.9, -0.8, 0.4,0,0,1024,1024,1024,1024,221.5,-90,98,4.045,4.027,4.012,4.021,4.063,4.031,20.504,82.4,14,Waypoint,
37.7328312,-120.0946838,3087.0562562661,29.855644,0,0.49853348052,8600,2018-05-13 18:29:51,15,0,24.232,3087.0562562661,29.855644,0,0.49853348052,0,0,-0.671082,222, -0.8, 0.2,0,0,1024,1024,1024,1024,221.5,-90,98,4.045,4.027,4.012,4.021,4.063,4.031,20.504,82.4,14,Waypoint,
37.7328312,-120.0946836,3088.3685922661,31.16798,0,0.54328741896,8800,2018-05-13 18:29:51,15,0,24.232,3088.3685922661,31.16798,0,0.54328741896,0,0,-0.671082,222.1, -0.8, 0.3,0,0,1024,1024,1024,1024,221.5,-90,98,4.045,4.027,4.012,4.021,4.063,4.031,20.504,82.4,14,Waypoint,
37.7328312,-120.0946834,3089.3528442661,32.152232,0,0.59029529448,8910,2018-05-13 18:29:51,16,0,24.232,3089.3528442661,32.152232,0,0.59029529448,0,0,-0.671082,222.2, -0.9, 0.4,0,0,1024,1024,1024,1024,221.5,-90,98,4.045,4.027,4.012,4.021,4.063,4.031,20.504,82.4,14,Waypoint,
37.7328312,-120.0946833,3090.3370962661,33.136484,0,0.61448164696,9000,2018-05-13 18:29:51,16,0,24.232,3090.3370962661,33.136484,0,0.61448164696,0,0,-0.671082,222.2, -1, 0.7,0,0,1024,1024,1024,1024,221.5,-90,98,4.046,4.044,4.037,4.043,4.064,4.05,20.504,82.4,14,Waypoint,
37.7328312,-120.0946832,3093.2898522661,36.08924,0,0.6390584194,9120,2018-05-13 18:29:51,17,0,24.232,3093.2898522661,36.08924,0,0.6390584194,0,0,-0.671082,222, -0.8, 0.9,0,0,1024,1024,1024,1024,221.5,-90,98,4.046,4.044,4.037,4.043,4.064,4.05,20.504,82.4,14,Waypoint,
37.7328312,-120.0946832,3093.2898522661,36.08924,0,0.6390584194,9200,2018-05-13 18:29:51,17,0,24.232,3093.2898522661,36.08924,0,0.6390584194,0,0,-0.671082,222, -0.8, 0.9,0,0,1024,1024,1024,1024,221.5,-90,98,4.046,4.044,4.037,4.043,4.064,4.05,20.504,82.4,14,Waypoint,
37.7328313,-120.0946831,3095.5864402661,38.385828,0,0.6827592082,9300,2018-05-13 18:29:52,16,0,24.232,3095.5864402661,38.385828,0,0.6827592082,0,0,-0.671082,222.1, -0.8, 0.5,0,0,1024,1024,1024,1024,221.5,-89.9,98,4.046,4.044,4.037,4.043,4.064,4.05,20.504,82.4,14,Waypoint,
37.7328312,-120.0946832,3097.5549442661,40.354332,0,0.6390584194,9400,2018-05-13 18:29:52,18,0,24.232,3097.5549442661,40.354332,0,0.6827592082,0,0,-0.671082,222.4, -0.2, 0.5,0,0,1024,1024,1024,1024,221.5,-89.9,98,4.046,4.044,4.037,4.043,4.064,4.05,20.504,82.4,14,Waypoint,
37.7328312,-120.0946833,3098.5391962661,41.338584,0.223694,0.61448164696,9500,2018-05-13 18:29:52,18,0,24.232,3098.5391962661,41.338584,0.223694,0.6827592082,0,0,-0.671082,222.5, 0, 0.4,0,0,1024,1024,1024,1024,221.5,-89.9,98,4.046,4.044,4.037,4.043,4.064,4.05,20.504,82.4,14,Waypoint,
37.7328313,-120.0946834,3099.5234482661,42.322836,0.223694,0.61134188308,9600,2018-05-13 18:29:52,16,0,24.232,3099.5234482661,42.322836,0.223694,0.6827592082,0,0,-0.671082,222.5, 0, 0.4,0,0,1024,1024,1024,1024,221.5,-89.9,98,4.046,4.044,4.037,4.043,4.064,4.05,20.504,82.4,14,Waypoint,
37.7328313,-120.0946835,3100.5077002661,43.307088,0.223694,0.58844161988,9700,2018-05-13 18:29:52,16,0,24.232,3100.5077002661,43.307088,0.223694,0.6827592082,0,0,-0.671082,222.5, 0, 0,0,0,1024,1024,1024,1024,221.5,-89.9,98,4.046,4.044,4.037,4.043,4.064,4.05,20.504,82.4,14,Waypoint,
37.7328314,-120.0946836,3101.4919522661,44.29134,0.223694,0.59025920524,9800,2018-05-13 18:29:52,17,0,24.232,3101.4919522661,44.29134,0.223694,0.6827592082,0,0,-0.671082,222.4, 0, -0.2,0,0,1024,1024,1024,1024,221.5,-90,98,4.046,4.044,4.037,4.043,4.064,4.05,20.504,82.4,14,Waypoint,
37.7328313,-120.0946836,3102.4762042661,45.275592,0,0.56608597612,9900,2018-05-13 18:29:52,17,0,24.232,3102.4762042661,45.275592,0.223694,0.6827592082,0,0,-0.671082,222.4, -0.1, -0.4,0,0,1024,1024,1024,1024,221.5,-90,98,4.046,4.044,4.037,4.043,4.064,4.05,20.504,82.4,14,Waypoint,
37.7328314,-120.0946837,3103.4604562661,46.259844,0,0.5694389946,10000,2018-05-13 18:29:52,18,0,24.395,3103.4604562661,46.259844,0.223694,0.6827592082,0,0,-0.671082,222.4, 0, -0.1,0,0,1024,1024,1024,1024,221.5,-89.9,98,4.076,4.058,4.057,4.058,4.087,4.07,17.734,82.4,14,Waypoint,
37.7328314,-120.0946838,3104.4447082661,47.244096,0,0.5493438496,10100,2018-05-13 18:29:52,18,0,24.395,3104.4447082661,47.244096,0.223694,0.6827592082,0,0,-0.671082,222.4, 0, 0,0,0,1024,1024,1024,1024,221.5,-89.9,98,4.076,4.058,4.057,4.058,4.087,4.07,17.734,82.4,14,Waypoint,
37.7328314,-120.0946839,3105.4289602661,48.228348,0,0.53006235292,10200,2018-05-13 18:29:52,18,0,24.395,3105.4289602661,48.228348,0.223694,0.6827592082,0,0,-0.671082,222.2, 0.2, 0.1,0,0,1024,1024,1024,1024,221.5,-89.9,98,4.076,4.058,4.057,4.058,4.087,4.07,17.734,82.4,14,Waypoint,
37.7328313,-120.094684,3106.4132122661,49.2126,0,0.48359253516,10300,2018-05-13 18:29:53,18,0,24.395,3106.4132122661,49.2126,0.223694,0.6827592082,0,0,-0.671082,222.1, 0.4, 0,0,0,1024,1024,1024,1024,221.5,-89.9,98,4.076,4.058,4.057,4.058,4.087,4.07,17.734,82.4,14,Waypoint,
37.7328313,-120.0946841,3107.3974642661,50.196852,0,0.46516077604,10400,2018-05-13 18:29:53,18,0,24.395,3107.3974642661,50.196852,0.223694,0.6827592082,0,0,-0.671082,222, 0.5, 0,0,0,1024,1024,1024,1024,221.5,-89.9,98,4.076,4.058,4.057,4.058,4.087,4.07,17.734,82.4,14,Waypoint,
37.7328313,-120.0946842,3108.3817162661,51.181104,0,0.44783466,10500,2018-05-13 18:29:53,18,0,24.395,3108.3817162661,51.181104,0.223694,0.6827592082,0,0,-0.671082,221.9, 0.3, 0,0,0,1024,1024,1024,1024,221.5,-89.9,98,4.076,4.058,4.057,4.058,4.087,4.07,17.734,82.4,14,Waypoint,
37.7328313,-120.0946842,3109.3659682661,52.165356,0,0.44783466,10600,2018-05-13 18:29:53,17,0,24.395,3109.3659682661,52.165356,0.223694,0.6827592082,0,0,-0.671082,221.9, 0.2, 0.1,0,0,1024,1024,1024,1024,221.5,-90,98,4.076,4.058,4.057,4.058,4.087,4.07,17.734,82.4,14,Waypoint,
37.7328313,-120.0946843,3110.3502202661,53.149608,0,0.4317421398,10700,2018-05-13 18:29:53,17,0,24.395,3110.3502202661,53.149608,0.223694,0.6827592082,0,0,-0.671082,221.9, 0, 0,0,0,1024,1024,1024,1024,221.5,-90,98,4.076,4.058,4.057,4.058,4.087,4.07,17.734,82.4,14,Waypoint,
37.7328312,-120.0946844,3111.3344722661,54.13386,0,0.3855151042,10800,2018-05-13 18:29:53,17,0,24.395,3111.3344722661,54.13386,0.223694,0.6827592082,0,0,-0.671082,222, 0, 0.1,0,0,1024,1024,1024,1024,221.5,-89.9,98,4.076,4.058,4.057,4.058,4.087,4.07,17.734,82.4,14,Waypoint,
37.7328312,-120.0946845,3112.3187242661,55.118112,0,0.3712106418,11000,2018-05-13 18:29:53,17,0,24.438,3112.3187242661,55.118112,0.223694,0.6827592082,0,0,-0.671082,222.1, 0.1, 0.1,0,0,1024,1024,1024,1024,221.5,-89.9,98,4.082,4.064,4.065,4.074,4.095,4.073,16.769,82.4,14,Waypoint,
37.7328312,-120.0946846,3113.3029762661,56.102364,0,0.3586614288,11100,2018-05-13 18:29:53,18,0,24.438,3113.3029762661,56.102364,0.223694,0.6827592082,0,0,-0.671082,222.2, 0.2, 0.1,0,0,1024,1024,1024,1024,221.5,-89.9,98,4.082,4.064,4.065,4.074,4.095,4.073,16.769,82.4,14,Waypoint,
37.7328312,-120.0946846,3114.2872282661,57.086616,0,0.3586614288,11200,2018-05-13 18:29:53,18,0,24.438,3114.2872282661,57.086616,0.223694,0.6827592082,0,0,-0.671082,222.3, 0.4, 0.1,0,0,1024,1024,1024,1024,221.5,-89.9,98,4.082,4.064,4.065,4.074,4.095,4.073,16.769,82.4,14,Waypoint,
37.7328313,-120.0946846,3115.2714802661,58.070868,0,0.3923392514,11300,2018-05-13 18:29:54,18,0,24.438,3115.2714802661,58.070868,0.223694,0.6827592082,0,0,-0.671082,222.3, 0.3, -0.1,0,0,1024,1024,1024,1024,221.5,-89.9,98,4.082,4.064,4.065,4.074,4.095,4.073,16.769,82.4,14,Waypoint,
37.7328313,-120.0946847,3117.2399842661,60.039372,0,0.38267061592,11400,2018-05-13 18:29:54,19,0,24.438,3117.2399842661,60.039372,0.223694,0.6827592082,0,0,-0.671082,222, 0.3, 0,0,0,1024,1024,1024,1024,221.5,-89.9,98,4.082,4.064,4.065,4.074,4.095,4.073,16.769,82.4,14,Waypoint,
37.7328313,-120.0946847,3118.2242362661,61.023624,0,0.38267061592,11500,2018-05-13 18:29:54,19,0,24.438,3118.2242362661,61.023624,0.223694,0.6827592082,0,0,-0.671082,221.8, 0.3, 0,0,0,1024,1024,1024,1024,221.5,-89.9,98,4.082,4.064,4.065,4.074,4.095,4.073,16.769,82.4,14,Waypoint,
37.7328313,-120.0946847,3119.2084882661,62.007876,0,0.38267061592,11600,2018-05-13 18:29:54,19,0,24.438,3119.2084882661,62.007876,0.223694,0.6827592082,0,0,-0.671082,221.6, 0.2, 0,0,0,1024,1024,1024,1024,221.5,-89.9,98,4.082,4.064,4.065,4.074,4.095,4.073,16.769,82.4,14,Waypoint,
37.7328313,-120.0946848,3120.1927402661,62.992128,0,0.37497704612,11700,2018-05-13 18:29:54,19,0,24.438,3120.1927402661,62.992128,0.223694,0.6827592082,0,0,-0.671082,221.6, 0, 0.2,0,0,1024,1024,1024,1024,221.5,-90,98,4.082,4.064,4.065,4.074,4.095,4.073,16.769,82.4,14,Waypoint,
37.7328313,-120.0946848,3121.1769922661,63.97638,0,0.37497704612,11800,2018-05-13 18:29:54,19,0,24.438,3121.1769922661,63.97638,0.223694,0.6827592082,0,0,-0.671082,221.7, -0.1, 0.1,0,0,1024,1024,1024,1024,221.5,-90,98,4.082,4.064,4.065,4.074,4.095,4.073,16.769,82.4,14,Waypoint,
37.7328313,-120.0946848,3122.1612442661,64.960632,0,0.37497704612,11900,2018-05-13 18:29:54,19,0,24.438,3122.1612442661,64.960632,0.223694,0.6827592082,0,0,-0.671082,221.9, -0.3, 0,0,0,1024,1024,1024,1024,221.5,-90,98,4.082,4.064,4.065,4.074,4.095,4.073,16.769,82.4,14,Waypoint,
37.7328314,-120.0946848,3123.1454962661,65.944884,0,0.4105643176,12000,2018-05-13 18:29:54,19,0,24.394,3123.1454962661,65.944884,0.223694,0.6827592082,0,0,-0.671082,222.2, -0.2, 0,0,0,1024,1024,1024,1024,221.5,-90,98,4.069,4.059,4.048,4.067,4.088,4.069,16.658,82.4,14,Waypoint,
37.7328314,-120.0946849,3124.1297482661,66.929136,0,0.4054626114,12100,2018-05-13 18:29:54,19,0,24.394,3124.1297482661,66.929136,0.223694,0.6827592082,0,0,-0.671082,222.4, 0, -0.2,0,0,1024,1024,1024,1024,221.5,-89.9,98,4.069,4.059,4.048,4.067,4.088,4.069,16.658,82.4,14,Waypoint,
37.7328314,-120.094685,3125.1140002661,67.913388,0,0.40236877928,12200,2018-05-13 18:29:54,19,0,24.394,3125.1140002661,67.913388,0.223694,0.6827592082,0,0,-0.671082,222.6, 0.2, -0.3,0,0,1024,1024,1024,1024,221.5,-89.9,98,4.069,4.059,4.048,4.067,4.088,4.069,16.658,82.4,14,Waypoint,
37.7328314,-120.0946851,3125.7701682661,68.569556,0,0.40133531468,12300,2018-05-13 18:29:55,19,0,24.394,3125.7701682661,68.569556,0.223694,0.6827592082,0,0,-0.671082,222.7, 0.3, -0.4,0,0,1024,1024,1024,1024,221.5,-89.9,98,4.069,4.059,4.048,4.067,4.088,4.069,16.658,82.4,14,Waypoint,
37.7328314,-120.0946851,3126.7544202661,69.553808,0,0.40133531468,12400,2018-05-13 18:29:55,19,0,24.394,3126.7544202661,69.553808,0.223694,0.6827592082,0,0,-0.671082,222.6, 0.5, -0.4,0,0,1024,1024,1024,1024,221.5,-89.9,98,4.069,4.059,4.048,4.067,4.088,4.069,16.658,82.4,14,Waypoint,
37.7328314,-120.0946852,3127.7386722661,70.53806,0,0.40236877928,12500,2018-05-13 18:29:55,19,0,24.394,3127.7386722661,70.53806,0.223694,0.6827592082,0,0,-0.671082,222.4, 0.5, -0.3,0,0,1024,1024,1024,1024,221.5,-89.9,98,4.069,4.059,4.048,4.067,4.088,4.069,16.658,82.4,14,Waypoint,
37.7328314,-120.0946852,3128.7229242661,71.522312,0,0.40236877928,12600,2018-05-13 18:29:55,19,0,24.394,3128.7229242661,71.522312,0.223694,0.6827592082,0,0,-0.671082,222.3, 0.6, -0.4,0,0,1024,1024,1024,1024,221.5,-89.9,98,4.069,4.059,4.048,4.067,4.088,4.069,16.658,82.4,14,Waypoint,
37.7328315,-120.0946853,3129.7071762661,72.506564,0,0.44160762568,12700,2018-05-13 18:29:55,19,0,24.394,3129.7071762661,72.506564,0.223694,0.6827592082,0,0,-0.671082,222.3, 0.6, -0.4,0,0,1024,1024,1024,1024,221.5,-89.9,98,4.069,4.059,4.048,4.067,4.088,4.069,16.658,82.4,14,Waypoint,
37.7328315,-120.0946853,3130.6914282661,73.490816,0,0.44160762568,12800,2018-05-13 18:29:55,19,0,24.394,3130.6914282661,73.490816,0.223694,0.6827592082,0,0,-0.671082,222.3, 0.6, -0.3,0,0,1024,1024,1024,1024,221.5,-89.9,98,4.069,4.059,4.048,4.067,4.088,4.069,16.658,82.4,14,Waypoint,
37.7328315,-120.0946853,3132.6599322661,75.45932,0,0.44160762568,13020,2018-05-13 18:29:55,19,0,24.322,3132.6599322661,75.45932,0.223694,0.6827592082,0,0,-0.671082,222.3, 0.3, -0.3,0,0,1024,1024,1024,1024,221.5,-89.9,98,4.062,4.045,4.037,4.049,4.075,4.05,17.484,82.4,14,Waypoint,
37.7328316,-120.0946853,3134.6284362661,77.427824,0,0.47780185256,13110,2018-05-13 18:29:55,19,0,24.322,3134.6284362661,77.427824,0.223694,0.6827592082,0,0,-0.671082,222.2, 0, -0.2,0,0,1024,1024,1024,1024,221.5,-90,98,4.062,4.045,4.037,4.049,4.075,4.05,17.484,82.4,14,Waypoint,
37.7328316,-120.0946853,3136.5969402661,79.396328,0,0.47780185256,13400,2018-05-13 18:29:56,19,0,24.322,3136.5969402661,79.396328,0.223694,0.6827592082,0,0,-0.671082,222.1, 0, -0.7,0,0,1024,1024,1024,1024,221.5,-89.9,98,4.062,4.045,4.037,4.049,4.075,4.05,17.484,82.4,14,Waypoint,
37.7328317,-120.0946853,3137.5811922661,80.38058,0,0.51403873036,13500,2018-05-13 18:29:56,19,0,24.322,3137.5811922661,80.38058,0.223694,0.6827592082,0,0,-0.671082,222.1, 0, -0.8,0,0,1024,1024,1024,1024,221.5,-89.9,98,4.062,4.045,4.037,4.049,4.075,4.05,17.484,82.4,14,Waypoint,
37.7328317,-120.0946853,3138.8935282661,81.692916,0,0.51403873036,13600,2018-05-13 18:29:56,20,0,24.322,3138.8935282661,81.692916,0.223694,0.6827592082,0,0,-0.671082,222.1, 0, -0.6,0,0,1024,1024,1024,1024,221.5,-89.9,98,4.062,4.045,4.037,4.049,4.075,4.05,17.484,82.4,14,Waypoint,
37.7328317,-120.0946852,3139.5496962661,82.349084,0,0.51160434708,13700,2018-05-13 18:29:56,20,0,24.322,3139.5496962661,82.349084,0.223694,0.6827592082,0,0,-0.671082,222.2, 0, -0.2,0,0,1024,1024,1024,1024,221.5,-90,98,4.062,4.045,4.037,4.049,4.075,4.05,17.484,82.4,14,Waypoint,
37.7328316,-120.0946852,3140.5339482661,83.333336,0,0.4751804614,13800,2018-05-13 18:29:56,20,0,24.322,3140.5339482661,83.333336,0.223694,0.6827592082,0,0,-0.671082,222.3, 0, 0.1,0,0,1024,1024,1024,1024,221.5,-89.9,98,4.062,4.045,4.037,4.049,4.075,4.05,17.484,82.4,14,Waypoint,
37.7328316,-120.0946852,3141.5182002661,84.317588,0,0.4751804614,13900,2018-05-13 18:29:56,20,0,24.322,3141.5182002661,84.317588,0.223694,0.6827592082,0,0,-0.671082,222.4, 0, 0.4,0,0,1024,1024,1024,1024,221.5,-89.9,98,4.062,4.045,4.037,4.049,4.075,4.05,17.484,82.4,14,Waypoint,
37.7328316,-120.0946851,3142.5024522661,85.30184,0,0.47430447712,14000,2018-05-13 18:29:56,20,0,24.306,3142.5024522661,85.30184,0.223694,0.6827592082,0,0,-0.671082,222.5, 0.1, 0.5,0,0,1024,1024,1024,1024,221.5,-89.9,98,4.06,4.043,4.034,4.045,4.073,4.05,17.59,82.4,14,Waypoint,
37.7328316,-120.0946851,3143.4867042661,86.286092,0,0.47430447712,14100,2018-05-13 18:29:56,20,0,24.306,3143.4867042661,86.286092,0.223694,0.6827592082,0,0,-0.671082,222.6, 0.2, 0.5,0,0,1024,1024,1024,1024,221.5,-89.9,98,4.06,4.043,4.034,4.045,4.073,4.05,17.59,82.4,14,Waypoint,
37.7328316,-120.0946851,3144.4709562661,87.270344,0,0.47430447712,14200,2018-05-13 18:29:56,20,0,24.306,3144.4709562661,87.270344,0.223694,0.6827592082,0,0,-0.671082,222.6, 0.2, 0.4,0,0,1024,1024,1024,1024,221.5,-90,98,4.06,4.043,4.034,4.045,4.073,4.05,17.59,82.4,14,Waypoint,
37.7328316,-120.094685,3145.4552082661,88.254596,0,0.4751804614,14300,2018-05-13 18:29:57,20,0,24.306,3145.4552082661,88.254596,0.223694,0.6827592082,0,0,-0.671082,222.6, 0, 0.2,0,0,1024,1024,1024,1024,221.5,-90,98,4.06,4.043,4.034,4.045,4.073,4.05,17.59,82.4,14,Waypoint,
37.7328316,-120.094685,3146.4394602661,89.238848,0,0.4751804614,14400,2018-05-13 18:29:57,20,0,24.306,3146.4394602661,89.238848,0.223694,0.6827592082,0,0,-0.671082,222.5, 0, 0.1,0,0,1024,1024,1024,1024,221.5,-90,98,4.06,4.043,4.034,4.045,4.073,4.05,17.59,82.4,14,Waypoint,
37.7328316,-120.094685,3147.4237122661,90.2231,0,0.4751804614,14500,2018-05-13 18:29:57,20,0,24.306,3147.4237122661,90.2231,0.223694,0.6827592082,0,0,-0.671082,222.4, 0, 0.1,0,0,1024,1024,1024,1024,221.5,-89.9,98,4.06,4.043,4.034,4.045,4.073,4.05,17.59,82.4,14,Waypoint,
37.7328315,-120.094685,3148.4079642661,91.207352,0,0.43876969908,14600,2018-05-13 18:29:57,20,0,24.306,3148.4079642661,91.207352,0.223694,0.6827592082,0,0,-0.671082,222.3, 0.2, 0,0,0,1024,1024,1024,1024,221.5,-89.9,98,4.06,4.043,4.034,4.045,4.073,4.05,17.59,82.4,14,Waypoint,
37.7328315,-120.094685,3149.3922162661,92.191604,0,0.43876969908,14800,2018-05-13 18:29:57,20,0,24.306,3149.3922162661,92.191604,0.223694,0.6827592082,0,0,-0.671082,222.2, 0.5, 0.1,0,0,1024,1024,1024,1024,221.5,-89.9,98,4.06,4.043,4.034,4.045,4.073,4.05,17.59,82.4,14,Waypoint,
37.7328315,-120.0946849,3150.0483842661,92.847772,0,0.44160762568,14900,2018-05-13 18:29:57,20,0,24.306,3150.0483842661,92.847772,0.223694,0.6827592082,0,0,-0.671082,222, 0.5, 0.1,0,0,1024,1024,1024,1024,221.5,-89.9,98,4.06,4.043,4.034,4.045,4.073,4.05,17.59,82.4,14,Waypoint,
37.7328315,-120.0946849,3151.0326362661,93.832024,0,0.44160762568,15000,2018-05-13 18:29:57,20,0,24.252,3151.0326362661,93.832024,0.223694,0.6827592082,0,0,-0.671082,221.8, 0.6, 0.1,0,0,1024,1024,1024,1024,221.5,-89.9,98,4.06,4.043,4.034,4.045,4.073,4.05,17.809,82.4,14,Waypoint,
37.7328314,-120.0946849,3153.0011402661,95.800528,0,0.4054626114,15100,2018-05-13 18:29:57,20,0,24.252,3153.0011402661,95.800528,0.223694,0.6827592082,0,0,-0.671082,221.4, 0.3, 0,0,0,1024,1024,1024,1024,221.5,-89.9,98,4.06,4.043,4.034,4.045,4.073,4.05,17.809,82.4,14,Waypoint,
37.7328314,-120.0946848,3153.9853922661,96.78478,0,0.4105643176,15200,2018-05-13 18:29:57,20,0,24.252,3153.9853922661,96.78478,0.223694,0.6827592082,0,0,-0.671082,221.4, 0.1, 0.3,0,0,1024,1024,1024,1024,221.5,-90,98,4.06,4.043,4.034,4.045,4.073,4.05,17.809,82.4,14,Waypoint,
37.7328314,-120.0946848,3154.9696442661,97.769032,0,0.4105643176,15300,2018-05-13 18:29:58,20,0,24.252,3154.9696442661,97.769032,0.223694,0.6827592082,0,0,-0.671082,221.5, 0, 0.6,0,0,1024,1024,1024,1024,221.5,-90,98,4.06,4.043,4.034,4.045,4.073,4.05,17.809,82.4,14,Waypoint,
37.7328313,-120.0946847,3155.9538962661,98.753284,0,0.38267061592,15400,2018-05-13 18:29:58,20,0,24.252,3155.9538962661,98.753284,0.223694,0.6827592082,0,0,-0.671082,221.7, 0.1, 0.8,0,0,1024,1024,1024,1024,221.5,-89.9,98,4.06,4.043,4.034,4.045,4.073,4.05,17.809,82.4,14,Waypoint,
37.7328313,-120.0946847,3156.9381482661,99.737536,0,0.38267061592,15500,2018-05-13 18:29:58,20,0,24.252,3156.9381482661,99.737536,0.223694,0.6827592082,0,0,-0.671082,222, 0.3, 0.8,0,0,1024,1024,1024,1024,221.5,-89.9,98,4.06,4.043,4.034,4.045,4.073,4.05,17.809,82.4,14,Waypoint,
37.7328313,-120.0946846,3158.2504842661,101.049872,0,0.3923392514,15600,2018-05-13 18:29:58,20,0,24.252,3158.2504842661,101.049872,0.223694,0.6827592082,0,0,-0.671082,222.2, 0.3, 0.8,0,0,1024,1024,1024,1024,221.5,-89.9,98,4.06,4.043,4.034,4.045,4.073,4.05,17.809,82.4,14,Waypoint,
37.7328313,-120.0946846,3159.2347362661,102.034124,0,0.3923392514,15700,2018-05-13 18:29:58,20,0,24.252,3159.2347362661,102.034124,0.223694,0.6827592082,0,0,-0.671082,222.1, -0.2, 0.7,0,0,1024,1024,1024,1024,221.5,-90,98,4.06,4.043,4.034,4.045,4.073,4.05,17.809,82.4,14,Waypoint,
37.7328313,-120.0946846,3160.2189882661,103.018376,0,0.3923392514,15800,2018-05-13 18:29:58,20,0,24.252,3160.2189882661,103.018376,0.223694,0.6827592082,0,0,-0.671082,221.6, -0.6, 0.3,0,0,1024,1024,1024,1024,221.5,-90,98,4.06,4.043,4.034,4.045,4.073,4.05,17.809,82.4,14,Waypoint,
37.7328313,-120.0946845,3161.5313242661,104.330712,0,0.40384187644,15900,2018-05-13 18:29:58,20,0,24.252,3161.5313242661,104.330712,0.223694,0.6827592082,0,0,-0.671082,220.8, -0.8, 0.1,0,0,1024,1024,1024,1024,221.5,-90,98,4.06,4.043,4.034,4.045,4.073,4.05,17.809,82.4,14,Waypoint,
37.7328313,-120.0946845,3162.5155762661,105.314964,0,0.40384187644,16000,2018-05-13 18:29:58,20,0,24.159,3162.5155762661,105.314964,0.223694,0.6827592082,0,0,-0.671082,220, -0.6, 0.2,0,0,1024,1024,1024,1024,221.5,-90,97,4.027,4.012,4.012,4.009,4.059,4.026,18.316,82.4,14,Waypoint,
37.7328312,-120.0946843,3164.4840802661,107.283468,0.223694,0.40138452728,16200,2018-05-13 18:29:58,20,0,24.159,3164.4840802661,107.283468,0.223694,0.6827592082,0,0,-0.671082,220.1, -0.5, 1.7,0,0,1024,1024,1024,1024,221.5,-89.9,97,4.027,4.012,4.012,4.009,4.059,4.026,18.316,82.4,14,Waypoint,
37.7328312,-120.0946843,3165.4683322661,108.26772,0.223694,0.40138452728,16300,2018-05-13 18:29:59,20,0,24.159,3165.4683322661,108.26772,0.223694,0.6827592082,0,0,-0.671082,220.8, -0.2, 2.3,0,0,1024,1024,1024,1024,221.5,-89.9,97,4.027,4.012,4.012,4.009,4.059,4.026,18.316,82.4,14,Waypoint,
37.7328311,-120.0946843,3166.4525842661,109.251972,0.223694,0.372129277,16400,2018-05-13 18:29:59,20,0,24.159,3166.4525842661,109.251972,0.223694,0.6827592082,0,0,-0.671082,221.7, -0.1, 2.7,0,0,1024,1024,1024,1024,221.5,-89.9,97,4.027,4.012,4.012,4.009,4.059,4.026,18.316,82.4,14,Waypoint,
37.732831,-120.0946843,3167.4368362661,110.236224,0,0.3442585412,16500,2018-05-13 18:29:59,20,0,24.159,3167.4368362661,110.236224,0.223694,0.6827592082,0,0,-0.671082,222.6, 0.1, 2.9,0,0,1024,1024,1024,1024,221.5,-89.9,97,4.027,4.012,4.012,4.009,4.059,4.026,18.316,82.4,14,Waypoint,
37.732831,-120.0946842,3168.4210882661,111.220476,0,0.36423557596,16610,2018-05-13 18:29:59,20,0,24.159,3168.4210882661,111.220476,0.223694,0.6827592082,0,0,-0.671082,223.2, 0.4, 2.6,0,0,1024,1024,1024,1024,221.5,-89.9,97,4.027,4.012,4.012,4.009,4.059,4.026,18.316,82.4,14,Waypoint,
37.7328309,-120.0946842,3169.4053402661,112.204728,0,0.33965224184,16710,2018-05-13 18:29:59,20,0,24.159,3169.4053402661,112.204728,0.223694,0.6827592082,0,0,-0.671082,223.5, 0.5, 2.2,0,0,1024,1024,1024,1024,221.5,-89.9,97,4.027,4.012,4.012,4.009,4.059,4.026,18.316,82.4,14,Waypoint,
37.7328309,-120.0946842,3170.3895922661,113.18898,0,0.33965224184,16810,2018-05-13 18:29:59,20,0,24.159,3170.3895922661,113.18898,0.223694,0.6827592082,0,0,-0.671082,223.6, 0.3, 1.8,0,0,1024,1024,1024,1024,221.5,-89.9,97,4.027,4.012,4.012,4.009,4.059,4.026,18.316,82.4,14,Waypoint,
37.7328309,-120.0946841,3172.3580962661,115.157484,0,0.36219161264,17000,2018-05-13 18:29:59,20,0,24.212,3172.3580962661,115.157484,0.223694,0.6827592082,0,0,-0.671082,223.3, 0.1, 1.4,0,0,1024,1024,1024,1024,221.5,-90,97,4.046,4.027,4.02,4.026,4.053,4.042,18.385,82.4,14,Waypoint,
37.7328309,-120.094684,3173.9985162661,116.797904,0,0.38557415932,17120,2018-05-13 18:29:59,20,0,24.212,3173.9985162661,116.797904,0.223694,0.6827592082,0,0,-0.671082,222.9, 0, 1.8,0,0,1024,1024,1024,1024,221.5,-89.9,97,4.046,4.027,4.02,4.026,4.053,4.042,18.385,82.4,14,Waypoint,
37.7328309,-120.0946839,3174.9827682661,117.782156,0,0.40965552492,17200,2018-05-13 18:29:59,20,0,24.212,3174.9827682661,117.782156,0.223694,0.6827592082,0,0,-0.671082,222.5, -0.1, 1.6,0,0,1024,1024,1024,1024,221.5,-89.9,97,4.046,4.027,4.02,4.026,4.053,4.042,18.385,82.4,14,Waypoint,
37.732831,-120.0946838,3175.9670202661,118.766408,0,0.45380250796,17400,2018-05-13 18:30:00,21,0,24.212,3175.9670202661,118.766408,0.223694,0.6827592082,0,0,-0.671082,222.1, -0.7, 1.2,0,0,1024,1024,1024,1024,221.5,-90,97,4.046,4.027,4.02,4.026,4.053,4.042,18.385,82.4,14,Waypoint,
37.732831,-120.0946838,3176.9512722661,119.75066,0,0.45380250796,17500,2018-05-13 18:30:00,21,0,24.212,3176.9512722661,119.75066,0.223694,0.6827592082,0,0,-0.671082,221.8, -1.4, 1,0,0,1024,1024,1024,1024,221.5,-90,97,4.046,4.027,4.02,4.026,4.053,4.042,18.385,82.4,14,Waypoint,
37.7328311,-120.0946837,3177.6074402661,120.406828,0,0.49838256188,17600,2018-05-13 18:30:00,21,0,24.212,3177.6074402661,120.406828,0.223694,0.6827592082,0,0,-0.671082,221.6, -2.1, 1,0,0,1024,1024,1024,1024,221.5,-90,97,4.046,4.027,4.02,4.026,4.053,4.042,18.385,82.4,14,Waypoint,
37.7328312,-120.0946836,3178.5916922661,121.39108,0,0.54328741896,17700,2018-05-13 18:30:00,21,0,24.212,3178.5916922661,121.39108,0.223694,0.6827592082,0,0,-0.671082,221.6, -2.5, 0.9,0,0,1024,1024,1024,1024,221.5,-90,97,4.046,4.027,4.02,4.026,4.053,4.042,18.385,82.4,14,Waypoint,
37.7328312,-120.0946835,3179.5759442661,122.375332,0,0.56654201288,17800,2018-05-13 18:30:00,21,0,24.212,3179.5759442661,122.375332,0.223694,0.6827592082,0,0,-0.671082,221.8, -2.7, 1,0,0,1024,1024,1024,1024,221.5,-90,97,4.046,4.027,4.02,4.026,4.053,4.042,18.385,82.4,14,Waypoint,
37.7328312,-120.0946834,3180.5601962661,123.359584,0,0.59029529448,17900,2018-05-13 18:30:00,21,0,24.212,3180.5601962661,123.359584,0.223694,0.6827592082,0,0,-0.671082,222.1, -2.6, 1.2,0,0,1024,1024,1024,1024,221.5,-89.9,97,4.046,4.027,4.02,4.026,4.053,4.042,18.385,82.4,14,Waypoint,
37.7328312,-120.0946833,3181.5444482661,124.343836,0,0.61448164696,18000,2018-05-13 18:30:00,21,0,24.212,3181.5444482661,124.343836,0.223694,0.6827592082,0,0,-0.671082,222.3, -2.2, 1.3,0,0,1024,1024,1024,1024,221.5,-89.9,97,4.041,4.027,4.025,4.025,4.051,4.04,16.583,82.4,14,Waypoint,
37.7328312,-120.0946833,3182.5287002661,125.328088,0,0.61448164696,18100,2018-05-13 18:30:00,21,0,24.212,3182.5287002661,125.328088,0.223694,0.6827592082,0,0,-0.671082,222.5, -2, 1.6,0,0,1024,1024,1024,1024,221.5,-89.9,97,4.041,4.027,4.025,4.025,4.051,4.04,16.583,82.4,14,Waypoint,
37.7328313,-120.0946833,3183.5129522661,126.31234,0,0.6347277106,18200,2018-05-13 18:30:00,21,0,24.212,3183.5129522661,126.31234,0.223694,0.6827592082,0,0,-0.671082,222.6, -1.9, 1.8,0,0,1024,1024,1024,1024,221.5,-89.9,97,4.041,4.027,4.025,4.025,4.051,4.04,16.583,82.4,14,Waypoint,
37.7328313,-120.0946833,3184.4972042661,127.296592,0,0.6347277106,18300,2018-05-13 18:30:01,21,0,24.212,3184.4972042661,127.296592,0.223694,0.6827592082,0,0,-0.671082,222.7, -1.8, 1.7,0,0,1024,1024,1024,1024,221.5,-89.9,97,4.041,4.027,4.025,4.025,4.051,4.04,16.583,82.4,14,Waypoint,
37.7328313,-120.0946833,3185.4814562661,128.280844,0,0.6347277106,18400,2018-05-13 18:30:01,21,0,24.212,3185.4814562661,128.280844,0.223694,0.6827592082,0,0,-0.671082,222.7, -1.8, 1.5,0,0,1024,1024,1024,1024,221.5,-89.9,97,4.041,4.027,4.025,4.025,4.051,4.04,16.583,82.4,14,Waypoint,
37.7328313,-120.0946833,3186.4657082661,129.265096,0,0.6347277106,18500,2018-05-13 18:30:01,21,0,24.212,3186.4657082661,129.265096,0.223694,0.6827592082,0,0,-0.671082,222.6, -1.7, 1,0,0,1024,1024,1024,1024,221.5,-89.9,97,4.041,4.027,4.025,4.025,4.051,4.04,16.583,82.4,14,Waypoint,
37.7328314,-120.0946834,3187.4499602661,130.249348,0,0.6337926712,18600,2018-05-13 18:30:01,21,0,24.212,3187.4499602661,130.249348,0.223694,0.6827592082,0,0,-0.671082,222.4, -1.7, 0.7,0,0,1024,1024,1024,1024,221.5,-89.9,97,4.041,4.027,4.025,4.025,4.051,4.04,16.583,82.4,14,Waypoint,
37.7328314,-120.0946834,3188.4342122661,131.2336,0,0.6337926712,18700,2018-05-13 18:30:01,21,0,24.212,3188.4342122661,131.2336,0.223694,0.6827592082,0,0,-0.671082,222.2, -1.8, 0.5,0,0,1024,1024,1024,1024,221.5,-89.9,97,4.041,4.027,4.025,4.025,4.051,4.04,16.583,82.4,14,Waypoint,
37.7328315,-120.0946834,3189.4184642661,132.217852,0,0.65750330188,18800,2018-05-13 18:30:01,21,0,24.212,3189.4184642661,132.217852,0.223694,0.6827592082,0,0,-0.671082,222.1, -1.9, 0.5,0,0,1024,1024,1024,1024,221.5,-89.9,97,4.041,4.027,4.025,4.025,4.051,4.04,16.583,82.4,14,Waypoint,
37.7328315,-120.0946835,3190.7308002661,133.530188,0,0.63626642456,18900,2018-05-13 18:30:01,21,0,24.212,3190.7308002661,133.530188,0.223694,0.6827592082,0,0,-0.671082,222, -1.9, 0.5,0,0,1024,1024,1024,1024,221.5,-89.9,97,4.041,4.027,4.025,4.025,4.051,4.04,16.583,82.4,14,Waypoint,
37.7328315,-120.0946835,3191.7150522661,134.51444,0,0.63626642456,19000,2018-05-13 18:30:01,21,0,24.009,3191.7150522661,134.51444,0.223694,0.6827592082,0,0,-0.671082,222.1, -1.9, 0.5,0,0,1024,1024,1024,1024,221.5,-89.9,97,4.008,3.996,3.995,3.991,4.027,4.009,19.922,82.4,14,Waypoint,
37.7328316,-120.0946835,3192.6993042661,135.498692,0,0.66189962748,19100,2018-05-13 18:30:01,21,0,24.009,3192.6993042661,135.498692,0.223694,0.6827592082,0,0,-0.671082,222.1, -1.9, 0.5,0,0,1024,1024,1024,1024,221.5,-89.9,97,4.008,3.996,3.995,3.991,4.027,4.009,19.922,82.4,14,Waypoint,
37.7328316,-120.0946836,3193.6835562661,136.482944,0,0.64210631976,19200,2018-05-13 18:30:01,21,0,24.009,3193.6835562661,136.482944,0.223694,0.6827592082,0,0,-0.671082,222.1, -2.1, 0.3,0,0,1024,1024,1024,1024,221.5,-89.9,97,4.008,3.996,3.995,3.991,4.027,4.009,19.922,82.4,14,Waypoint,
37.7328316,-120.0946836,3194.6678082661,137.467196,0,0.64210631976,19310,2018-05-13 18:30:02,21,0,24.009,3194.6678082661,137.467196,0.223694,0.6827592082,0,0,-0.671082,222, -2.1, 0.2,0,0,1024,1024,1024,1024,221.5,-89.9,97,4.008,3.996,3.995,3.991,4.027,4.009,19.922,82.4,14,Waypoint,
37.7328316,-120.0946837,3196.6363122661,139.4357,0,0.62302167348,19410,2018-05-13 18:30:02,21,0,24.009,3196.6363122661,139.4357,0.223694,0.6827592082,0,0,-0.671082,222.2, -1.9, 0.6,0,0,1024,1024,1024,1024,221.5,-89.9,97,4.008,3.996,3.995,3.991,4.027,4.009,19.922,82.4,14,Waypoint,
37.7328316,-120.0946838,3197.6205642661,140.419952,0,0.60471130544,19600,2018-05-13 18:30:02,21,0,24.009,3197.6205642661,140.419952,0.223694,0.6827592082,0,0,-0.671082,222.4, -1.7, 0.6,0,0,1024,1024,1024,1024,221.5,-89.9,97,4.008,3.996,3.995,3.991,4.027,4.009,19.922,82.4,14,Waypoint,
37.7328316,-120.0946839,3198.6048162661,141.404204,0,0.58724739412,19700,2018-05-13 18:30:02,21,0,24.009,3198.6048162661,141.404204,0.223694,0.6827592082,0,0,-0.671082,222.5, -1.5, 0.4,0,0,1024,1024,1024,1024,221.5,-89.9,97,4.008,3.996,3.995,3.991,4.027,4.009,19.922,82.4,14,Waypoint,
37.7328316,-120.0946839,3199.5890682661,142.388456,0,0.58724739412,19800,2018-05-13 18:30:02,21,0,24.009,3199.5890682661,142.388456,0.223694,0.6827592082,0,0,-0.671082,222.4, -1.3, 0.1,0,0,1024,1024,1024,1024,221.5,-89.9,97,4.008,3.996,3.995,3.991,4.027,4.009,19.922,82.4,14,Waypoint,
37.7328316,-120.0946839,3200.5733202661,143.372708,0,0.58724739412,19900,2018-05-13 18:30:02,21,0,24.009,3200.5733202661,143.372708,0.223694,0.6827592082,0,0,-0.671082,222.2, -1.5, 0,0,0,1024,1024,1024,1024,221.5,-89.9,97,4.008,3.996,3.995,3.991,4.027,4.009,19.922,82.4,14,Waypoint,
37.7328316,-120.0946839,3201.8856562661,144.685044,0,0.58724739412,20000,2018-05-13 18:30:02,21,0,24.065,3201.8856562661,144.685044,0.223694,0.6827592082,0,0,-0.671082,222, -1.8, 0.1,0,0,1024,1024,1024,1024,221.5,-90,97,4.008,3.996,3.995,3.991,4.027,4.009,18.615,82.4,14,Waypoint,
37.7328316,-120.0946839,3202.8699082661,145.669296,0,0.58724739412,20100,2018-05-13 18:30:02,21,0,24.065,3202.8699082661,145.669296,0.223694,0.6827592082,0,0,-0.671082,221.9, -2.1, 0.5,0,0,1024,1024,1024,1024,221.5,-90,97,4.008,3.996,3.995,3.991,4.027,4.009,18.615,82.4,14,Waypoint,
37.7328317,-120.0946839,3203.8541602661,146.653548,0,0.61708991476,20200,2018-05-13 18:30:02,21,0,24.065,3203.8541602661,146.653548,0.223694,0.6827592082,0,0,-0.671082,221.9, -2.3, 0.7,0,0,1024,1024,1024,1024,221.5,-90,97,4.008,3.996,3.995,3.991,4.027,4.009,18.615,82.4,14,Waypoint,
37.7328317,-120.0946838,3204.8384122661,147.6378,0,0.63373361608,20300,2018-05-13 18:30:03,21,0,24.065,3204.8384122661,147.6378,0.223694,0.6827592082,0,0,-0.671082,222, -2.6, 0.9,0,0,1024,1024,1024,1024,221.5,-90,97,4.008,3.996,3.995,3.991,4.027,4.009,18.615,82.4,14,Waypoint,
37.7328317,-120.0946837,3205.8226642661,148.622052,0,0.65122705496,20400,2018-05-13 18:30:03,21,0,24.065,3205.8226642661,148.622052,0.223694,0.6827592082,0,0,-0.671082,222.2, -2.7, 1.3,0,0,1024,1024,1024,1024,221.5,-90,97,4.008,3.996,3.995,3.991,4.027,4.009,18.615,82.4,14,Waypoint,
37.7328316,-120.0946836,3206.8069162661,149.606304,0,0.64210631976,20500,2018-05-13 18:30:03,21,0,24.065,3206.8069162661,149.606304,0.223694,0.6827592082,0,0,-0.671082,222.2, -2.8, 1.6,0,0,1024,1024,1024,1024,221.5,-90,97,4.008,3.996,3.995,3.991,4.027,4.009,18.615,82.4,14,Waypoint,
37.7328316,-120.0946835,3207.7911682661,150.590556,0,0.66189962748,20600,2018-05-13 18:30:03,21,0,24.065,3207.7911682661,150.590556,0.223694,0.6827592082,0,0,-0.671082,222.2, -3, 2,0,0,1024,1024,1024,1024,221.5,-90,97,4.008,3.996,3.995,3.991,4.027,4.009,18.615,82.4,14,Waypoint,
37.7328317,-120.0946834,3208.7754202661,151.574808,0,0.70818899904,20700,2018-05-13 18:30:03,21,0,24.065,3208.7754202661,151.574808,0.223694,0.70818899904,0,0,-0.671082,222.2, -3.4, 2,0,0,1024,1024,1024,1024,221.5,-90,97,4.008,3.996,3.995,3.991,4.027,4.009,18.615,82.4,14,Waypoint,
37.7328317,-120.0946834,3209.7596722661,152.55906,0,0.70818899904,20810,2018-05-13 18:30:03,21,0,24.065,3209.7596722661,152.55906,0.223694,0.70818899904,0,0,-0.671082,222.1, -3.6, 2,0,0,1024,1024,1024,1024,221.5,-89.9,97,4.008,3.996,3.995,3.991,4.027,4.009,18.615,82.4,14,Waypoint,
37.7328317,-120.0946833,3211.7281762661,154.527564,0,0.72847115192,21000,2018-05-13 18:30:03,21,0,24.065,3211.7281762661,154.527564,0.223694,0.72847115192,0,0,-0.671082,222, -3.2, 2,0,0,1024,1024,1024,1024,221.5,-89.9,97,4.015,4.003,4.002,3.997,4.037,4.018,18.615,82.4,14,Waypoint,
37.7328317,-120.0946832,3212.7124282661,155.511816,0,0.74931760928,21100,2018-05-13 18:30:03,21,0,24.065,3212.7124282661,155.511816,0.223694,0.74931760928,0,0,-0.671082,222, -3.1, 2,0,0,1024,1024,1024,1024,221.5,-89.9,97,4.015,4.003,4.002,3.997,4.037,4.018,18.615,82.4,14,Waypoint,
37.7328317,-120.0946832,3213.6966802661,156.496068,0,0.74931760928,21210,2018-05-13 18:30:03,21,0,24.065,3213.6966802661,156.496068,0.223694,0.74931760928,0,0,-0.671082,222, -2.9, 1.8,0,0,1024,1024,1024,1024,221.5,-89.9,97,4.015,4.003,4.002,3.997,4.037,4.018,18.615,82.4,14,Waypoint,
37.7328317,-120.0946832,3214.6809322661,157.48032,0,0.74931760928,21300,2018-05-13 18:30:04,21,0,24.065,3214.6809322661,157.48032,0.223694,0.74931760928,0,0,-0.671082,222.1, -2.9, 1.7,0,0,1024,1024,1024,1024,221.5,-89.9,97,4.015,4.003,4.002,3.997,4.037,4.018,18.615,82.4,14,Waypoint,
37.7328317,-120.0946832,3215.6651842661,158.464572,0,0.74931760928,21500,2018-05-13 18:30:04,21,0,24.065,3215.6651842661,158.464572,0.223694,0.74931760928,0,0,-0.671082,222.3, -2.8, 1.8,0,0,1024,1024,1024,1024,221.5,-89.9,97,4.015,4.003,4.002,3.997,4.037,4.018,18.615,82.4,14,Waypoint,
37.7328317,-120.0946832,3217.3056042661,160.104992,0,0.74931760928,21600,2018-05-13 18:30:04,21,0,24.065,3217.3056042661,160.104992,0.223694,0.74931760928,0,0,-0.671082,222.2, -2.9, 1.6,0,0,1024,1024,1024,1024,221.5,-89.9,97,4.015,4.003,4.002,3.997,4.037,4.018,18.615,82.4,14,Waypoint,
37.7328317,-120.0946832,3218.2898562661,161.089244,0,0.74931760928,21700,2018-05-13 18:30:04,21,0,24.065,3218.2898562661,161.089244,0.223694,0.74931760928,0,0,-0.671082,222.1, -2.9, 1.4,0,0,1024,1024,1024,1024,221.5,-89.9,97,4.015,4.003,4.002,3.997,4.037,4.018,18.615,82.4,14,Waypoint,
37.7328318,-120.0946832,3219.2741082661,162.073496,0,0.77464897492,21800,2018-05-13 18:30:04,21,0,24.065,3219.2741082661,162.073496,0.223694,0.77464897492,0,0,-0.671082,222.1, -3.2, 1.3,0,0,1024,1024,1024,1024,221.5,-90,97,4.015,4.003,4.002,3.997,4.037,4.018,18.615,82.4,14,Waypoint,
37.7328318,-120.0946832,3220.2583602661,163.057748,0,0.77464897492,21900,2018-05-13 18:30:04,21,0,24.065,3220.2583602661,163.057748,0.223694,0.77464897492,0,0,-0.671082,222.1, -3.4, 1.2,0,0,1024,1024,1024,1024,221.5,-90,97,4.015,4.003,4.002,3.997,4.037,4.018,18.615,82.4,14,Waypoint,
37.7328319,-120.0946832,3221.2426122661,164.042,0,0.80083992064,22000,2018-05-13 18:30:04,21,0,24.056,3221.2426122661,164.042,0.223694,0.80083992064,0,0,-0.671082,222.2, -3.4, 1,0,0,1024,1024,1024,1024,221.5,-90,97,4.012,4.006,3.993,3.998,4.028,4.011,18.811,82.4,14,Waypoint,
37.732832,-120.0946833,3222.2268642661,165.026252,0,0.80899280804,22100,2018-05-13 18:30:04,21,0,24.056,3222.2268642661,165.026252,0.223694,0.80899280804,0,0,-0.671082,222.3, -3.5, 0.7,0,0,1024,1024,1024,1024,221.5,-90,97,4.012,4.006,3.993,3.998,4.028,4.011,18.811,82.4,14,Waypoint,
37.7328321,-120.0946833,3223.2111162661,166.010504,0,0.83729333388,22200,2018-05-13 18:30:04,21,0,24.056,3223.2111162661,166.010504,0.223694,0.83729333388,0,0,-0.671082,222.4, -3.6, 0.5,0,0,1024,1024,1024,1024,221.5,-90,97,4.012,4.006,3.993,3.998,4.028,4.011,18.811,82.4,14,Waypoint,
37.7328321,-120.0946833,3224.1953682661,166.994756,0,0.83729333388,22300,2018-05-13 18:30:05,21,0,24.056,3224.1953682661,166.994756,0.223694,0.83729333388,0,0,-0.671082,222.4, -3.7, 0.2,0,0,1024,1024,1024,1024,221.5,-90,97,4.012,4.006,3.993,3.998,4.028,4.011,18.811,82.4,14,Waypoint,
37.7328322,-120.0946834,3225.1796202661,167.979008,0,0.84921590644,22400,2018-05-13 18:30:05,21,0,24.056,3225.1796202661,167.979008,0.223694,0.84921590644,0,0,-0.671082,222.3, -3.6, 0,0,0,1024,1024,1024,1024,221.5,-89.9,97,4.012,4.006,3.993,3.998,4.028,4.011,18.811,82.4,14,Waypoint,
37.7328323,-120.0946834,3226.1638722661,168.96326,0,0.87925199664,22500,2018-05-13 18:30:05,21,0,24.056,3226.1638722661,168.96326,0.223694,0.87925199664,0,0,-0.671082,222.3, -3.5, -0.1,0,0,1024,1024,1024,1024,221.5,-89.9,97,4.012,4.006,3.993,3.998,4.028,4.011,18.811,82.4,14,Waypoint,
37.7328323,-120.0946835,3227.1481242661,169.947512,0,0.86348756044,22600,2018-05-13 18:30:05,21,0,24.056,3227.1481242661,169.947512,0.223694,0.87925199664,0,0,-0.671082,222.2, -3.5, -0.1,0,0,1024,1024,1024,1024,221.5,-89.9,97,4.012,4.006,3.993,3.998,4.028,4.011,18.811,82.4,14,Waypoint,
37.7328324,-120.0946835,3228.1323762661,170.931764,0,0.89453086852,22700,2018-05-13 18:30:05,21,0,24.056,3228.1323762661,170.931764,0.223694,0.89453086852,0,0,-0.671082,222.1, -3.7, -0.1,0,0,1024,1024,1024,1024,221.5,-89.9,97,4.012,4.006,3.993,3.998,4.028,4.011,18.811,82.4,14,Waypoint,
37.7328324,-120.0946835,3229.1166282661,171.916016,0,0.89453086852,22800,2018-05-13 18:30:05,21,0,24.056,3229.1166282661,171.916016,0.223694,0.89453086852,0,0,-0.671082,222, -3.8, -0.1,0,0,1024,1024,1024,1024,221.5,-90,97,4.012,4.006,3.993,3.998,4.028,4.011,18.811,82.4,14,Waypoint,
37.7328325,-120.0946835,3230.1008802661,172.900268,0,0.92597115824,22900,2018-05-13 18:30:05,21,0,24.056,3230.1008802661,172.900268,0.223694,0.92597115824,0,0,-0.671082,221.9, -4.1, 0,0,0,1024,1024,1024,1024,221.5,-90,97,4.012,4.006,3.993,3.998,4.028,4.011,18.811,82.4,14,Waypoint,
37.7328325,-120.0946835,3231.0851322661,173.88452,0,0.92597115824,23000,2018-05-13 18:30:05,21,0,24.109,3231.0851322661,173.88452,0.223694,0.92597115824,0,0,-0.671082,221.8, -4.2, 0.2,0,0,1024,1024,1024,1024,221.5,-90,97,4.022,4.003,3.997,4.014,4.039,4.02,17.782,82.4,14,Waypoint,
37.7328325,-120.0946835,3232.0693842661,174.868772,0,0.92597115824,23100,2018-05-13 18:30:05,21,0,24.109,3232.0693842661,174.868772,0.223694,0.92597115824,0,0,-0.671082,221.8, -4.2, 0.3,0,0,1024,1024,1024,1024,221.5,-90,97,4.022,4.003,3.997,4.014,4.039,4.02,17.782,82.4,14,Waypoint,
37.7328326,-120.0946836,3233.0536362661,175.853024,0,0.94419950528,23200,2018-05-13 18:30:05,21,0,24.109,3233.0536362661,175.853024,0.223694,0.94419950528,0,0,-0.671082,221.8, -4.2, 0.3,0,0,1024,1024,1024,1024,221.5,-89.9,97,4.022,4.003,3.997,4.014,4.039,4.02,17.782,82.4,14,Waypoint,
37.7328325,-120.0946836,3234.0378882661,176.837276,0,0.91192916304,23300,2018-05-13 18:30:06,21,0,24.109,3234.0378882661,176.837276,0.223694,0.94419950528,0,0,-0.671082,221.8, -4, 0.2,0,0,1024,1024,1024,1024,221.5,-89.9,97,4.022,4.003,3.997,4.014,4.039,4.02,17.782,82.4,14,Waypoint,
37.7328325,-120.0946836,3235.0221402661,177.821528,0,0.91192916304,23400,2018-05-13 18:30:06,21,0,24.109,3235.0221402661,177.821528,0.223694,0.94419950528,0,0,-0.671082,221.9, -3.7, 0.2,0,0,1024,1024,1024,1024,221.5,-89.9,97,4.022,4.003,3.997,4.014,4.039,4.02,17.782,82.4,14,Waypoint,
37.7328325,-120.0946837,3236.0063922661,178.80578,0,0.89859254844,23510,2018-05-13 18:30:06,21,0,24.109,3236.0063922661,178.80578,0.223694,0.94419950528,0,0,-0.671082,222, -3.5, 0.2,0,0,1024,1024,1024,1024,221.5,-89.9,97,4.022,4.003,3.997,4.014,4.039,4.02,17.782,82.4,14,Waypoint,
37.7328324,-120.0946838,3237.9748962661,180.774284,0,0.85308073596,23700,2018-05-13 18:30:06,21,0,24.109,3237.9748962661,180.774284,0.223694,0.94419950528,0,0,-0.671082,222.2, -3.2, 0.3,0,0,1024,1024,1024,1024,221.5,-89.9,97,4.022,4.003,3.997,4.014,4.039,4.02,17.782,82.4,14,Waypoint,
37.7328323,-120.0946838,3238.9591482661,181.758536,0,0.82046918636,23800,2018-05-13 18:30:06,21,0,24.109,3238.9591482661,181.758536,0.223694,0.94419950528,0,0,-0.671082,222.3, -3.2, 0.6,0,0,1024,1024,1024,1024,221.5,-89.9,97,4.022,4.003,3.997,4.014,4.039,4.02,17.782,82.4,14,Waypoint,
37.7328322,-120.0946839,3240.9276522661,183.72704,0,0.77488191456,24000,2018-05-13 18:30:06,21,0,24.041,3240.9276522661,183.72704,0.223694,0.94419950528,0,0,-0.671082,222.3, -3.2, 0.5,0,0,1024,1024,1024,1024,221.5,-89.9,97,4.011,3.997,3.984,3.991,4.026,4.004,18.613,82.4,14,Waypoint,
37.7328322,-120.0946839,3242.8961562661,185.695544,0,0.77488191456,24200,2018-05-13 18:30:06,21,0,24.041,3242.8961562661,185.695544,0.223694,0.94419950528,0,0,-0.671082,222.4, -3.1, 0.9,0,0,1024,1024,1024,1024,221.5,-89.9,97,4.011,3.997,3.984,3.991,4.026,4.004,18.613,82.4,14,Waypoint,
37.7328321,-120.0946839,3243.8804082661,186.679796,0,0.7424212836,24300,2018-05-13 18:30:07,21,0,24.041,3243.8804082661,186.679796,0.223694,0.94419950528,0,0,-0.671082,222.4, -3, 0.9,0,0,1024,1024,1024,1024,221.5,-89.9,97,4.011,3.997,3.984,3.991,4.026,4.004,18.613,82.4,14,Waypoint,
37.7328321,-120.0946839,3244.8646602661,187.664048,0,0.7424212836,24400,2018-05-13 18:30:07,21,0,24.041,3244.8646602661,187.664048,0.223694,0.94419950528,0,0,-0.671082,222.3, -3.1, 0.8,0,0,1024,1024,1024,1024,221.5,-89.9,97,4.011,3.997,3.984,3.991,4.026,4.004,18.613,82.4,14,Waypoint,
37.7328321,-120.094684,3245.8489122661,188.6483,0,0.72940947216,24500,2018-05-13 18:30:07,21,0,24.041,3245.8489122661,188.6483,0.223694,0.94419950528,0,0,-0.671082,222.2, -3.2, 0.7,0,0,1024,1024,1024,1024,221.5,-89.9,97,4.011,3.997,3.984,3.991,4.026,4.004,18.613,82.4,14,Waypoint,
37.7328321,-120.094684,3246.8331642661,189.632552,0,0.72940947216,24600,2018-05-13 18:30:07,21,0,24.041,3246.8331642661,189.632552,0.223694,0.94419950528,0,0,-0.671082,222.1, -3.3, 0.6,0,0,1024,1024,1024,1024,221.5,-89.9,97,4.011,3.997,3.984,3.991,4.026,4.004,18.613,82.4,14,Waypoint,
37.7328321,-120.094684,3248.1455002661,190.944888,0,0.72940947216,24700,2018-05-13 18:30:07,21,0,24.041,3248.1455002661,190.944888,0.223694,0.94419950528,0,0,-0.671082,222.1, -3.6, 0.5,0,0,1024,1024,1024,1024,221.5,-90,97,4.011,3.997,3.984,3.991,4.026,4.004,18.613,82.4,14,Waypoint,
37.7328321,-120.094684,3249.1297522661,191.92914,0,0.72940947216,24800,2018-05-13 18:30:07,22,0,24.041,3249.1297522661,191.92914,0.223694,0.94419950528,0,0,-0.671082,222, -4.1, 0.4,0,0,1024,1024,1024,1024,221.5,-90,97,4.011,3.997,3.984,3.991,4.026,4.004,18.613,82.4,14,Waypoint,
37.7328321,-120.094684,3250.1140042661,192.913392,0,0.72940947216,24900,2018-05-13 18:30:07,22,0,24.041,3250.1140042661,192.913392,0.223694,0.94419950528,0,0,-0.671082,222, -4.2, 0.3,0,0,1024,1024,1024,1024,221.5,-90,97,4.011,3.997,3.984,3.991,4.026,4.004,18.613,82.4,14,Waypoint,
37.7328321,-120.0946841,3252.0825082661,194.881896,0,0.7173228576,25100,2018-05-13 18:30:07,22,0,24.041,3252.0825082661,194.881896,0.223694,0.94419950528,0,0,-0.671082,222, -3.8, 0.3,0,0,1024,1024,1024,1024,221.5,-89.9,97,4.011,3.997,3.984,3.991,4.026,4.004,18.613,82.4,14,Waypoint,
37.7328321,-120.0946841,3252.7386762661,195.538064,0,0.7173228576,25200,2018-05-13 18:30:07,22,0,24.041,3252.7386762661,195.538064,0.223694,0.94419950528,0,0,-0.671082,222, -3.4, 0.2,0,0,1024,1024,1024,1024,221.5,-89.9,97,4.011,3.997,3.984,3.991,4.026,4.004,18.613,82.4,14,Waypoint,
37.7328321,-120.0946842,3253.7229282661,196.522316,0,0.70621065252,25300,2018-05-13 18:30:08,22,0,24.041,3253.7229282661,196.522316,0.223694,0.94419950528,0,0,-0.671082,222.1, -3.3, 0.1,0,0,1024,1024,1024,1024,221.5,-89.9,97,4.011,3.997,3.984,3.991,4.026,4.004,18.613,82.4,14,Waypoint,
37.7328321,-120.0946842,3254.7071802661,197.506568,0,0.70621065252,25400,2018-05-13 18:30:08,22,0,24.041,3254.7071802661,197.506568,0.223694,0.94419950528,0,0,-0.671082,222, -3.2, 0.2,0,0,1024,1024,1024,1024,221.5,-89.9,97,4.011,3.997,3.984,3.991,4.026,4.004,18.613,82.4,14,Waypoint,
37.732832,-120.0946843,3256.6756842661,199.475072,0,0.66180776396,25600,2018-05-13 18:30:08,22,0,24.041,3256.6756842661,199.475072,0.223694,0.94419950528,0,0,-0.671082,221.9, -3.5, 0.3,0,0,1024,1024,1024,1024,221.5,-90,97,4.011,3.997,3.984,3.991,4.026,4.004,18.613,82.4,14,Waypoint,
37.732832,-120.0946843,3257.6599362661,200.459324,0,0.66180776396,25700,2018-05-13 18:30:08,22,0,24.041,3257.6599362661,200.459324,0.223694,0.94419950528,0,0,-0.671082,221.9, -3.7, 0.3,0,0,1024,1024,1024,1024,221.5,-89.9,97,4.011,3.997,3.984,3.991,4.026,4.004,18.613,82.4,14,Waypoint,
37.732832,-120.0946843,3258.6441882661,201.443576,0,0.66180776396,25800,2018-05-13 18:30:08,22,0,24.041,3258.6441882661,201.443576,0.223694,0.94419950528,0,0,-0.671082,221.8, -3.7, 0.4,0,0,1024,1024,1024,1024,221.5,-89.9,97,4.011,3.997,3.984,3.991,4.026,4.004,18.613,82.4,14,Waypoint,
37.7328319,-120.0946843,3260.6126922661,203.41208,0,0.62774280224,26010,2018-05-13 18:30:08,22,0,24.041,3260.6126922661,203.41208,0.223694,0.94419950528,0,0,-0.671082,221.7, -2.6, 0.8,0,0,1024,1024,1024,1024,221.5,-89.9,97,4.024,4.003,3.985,3.993,4.031,4.006,18.003,82.4,14,Waypoint,
37.7328317,-120.0946842,3263.5654482661,206.364836,0,0.5730151102,26200,2018-05-13 18:30:08,22,0,24.041,3263.5654482661,206.364836,0.223694,0.94419950528,0,0,-0.671082,222.1, -3.3, 1.4,0,0,1024,1024,1024,1024,221.5,-90,97,4.024,4.003,3.985,3.993,4.031,4.006,18.003,82.4,14,Waypoint,
37.7328317,-120.0946842,3264.5497002661,207.349088,0,0.5730151102,26400,2018-05-13 18:30:09,22,0,24.041,3264.5497002661,207.349088,0.223694,0.94419950528,0,0,-0.671082,222.3, -3.5, 1.5,0,0,1024,1024,1024,1024,221.5,-90,97,4.024,4.003,3.985,3.993,4.031,4.006,18.003,82.4,14,Waypoint,
37.7328317,-120.0946841,3265.5339522661,208.33334,0,0.58665684292,26500,2018-05-13 18:30:09,22,0,24.041,3265.5339522661,208.33334,0.223694,0.94419950528,0,0,-0.671082,222.5, -3.6, 1.5,0,0,1024,1024,1024,1024,221.5,-90,97,4.024,4.003,3.985,3.993,4.031,4.006,18.003,82.4,14,Waypoint,
37.7328316,-120.0946841,3266.5182042661,209.317592,0,0.55518046396,26600,2018-05-13 18:30:09,22,0,24.041,3266.5182042661,209.317592,0.223694,0.94419950528,0,0,-0.671082,222.6, -3.5, 1.6,0,0,1024,1024,1024,1024,221.5,-90,97,4.024,4.003,3.985,3.993,4.031,4.006,18.003,82.4,14,Waypoint,
37.7328316,-120.094684,3267.5024562661,210.301844,0,0.57070867968,26700,2018-05-13 18:30:09,22,0,24.041,3267.5024562661,210.301844,0.223694,0.94419950528,0,0,-0.671082,222.5, -3.4, 1.5,0,0,1024,1024,1024,1024,221.5,-89.9,97,4.024,4.003,3.985,3.993,4.031,4.006,18.003,82.4,14,Waypoint,
37.7328316,-120.094684,3268.4867082661,211.286096,0,0.57070867968,26800,2018-05-13 18:30:09,22,0,24.041,3268.4867082661,211.286096,0.223694,0.94419950528,0,0,-0.671082,222.5, -3.5, 1.4,0,0,1024,1024,1024,1024,221.5,-89.9,97,4.024,4.003,3.985,3.993,4.031,4.006,18.003,82.4,14,Waypoint,
37.7328315,-120.0946839,3269.4709602661,212.270348,0,0.55819555592,26900,2018-05-13 18:30:09,22,0,24.041,3269.4709602661,212.270348,0.223694,0.94419950528,0,0,-0.671082,222.5, -3.7, 1.3,0,0,1024,1024,1024,1024,221.5,-90,97,4.024,4.003,3.985,3.993,4.031,4.006,18.003,82.4,14,Waypoint,
