Latitude, Longitude, Altitude (m), Time, Sats, Speed (m/s), Range (m), Battery (%), Roll (deg), Pitch (deg), Yaw (deg), Images, HD Signal (%), RC Signal (%), Battery Temp (C), Battery Voltage (mV), Battery Current (mA), Battery Energy (mAh), Battery Capacity (mAh), Battery Discharges, flyState, timestamp (Unix), LastUpdate (ms), radioChannel, Rc_elevator, Rc_aileron, Rc_throttle, Rc_rudder, Rc_gyro, Dronetype, Battery_Cell1 (mV), Battery_Cell2 (mV), Battery_Cell3 (mV), Battery_Cell4 (mV), Battery_Cell5 (mV), Battery_Cell6 (mV), Video, isFlying, elapsedTime (ms), gimbalPitch (deg), gimbalRoll (deg), gimbalYaw (deg), VelocityX (m/s), VelocityY (m/s), VelocityZ (m/s), GroundSmear (cm), App Version, Aircraft Name, Aircraft Firmware, Aircraft Serial Number, Battery Serial Number, Battery Lifetime (%), App_Tip, App_Warning, CurrentFlightStartingIndex, CurrentFlightLastVisitedWaypoint, PreviousFlightEndingWaypointIndex
37.7328473, -120.0946695, 0.000, 12:08:14.366, 15, 0.00, 0.13, 100, -0.100, 0.200, 34.300, 1191, 100, 100, 23, 25599, -2893, 5510, 5510, 10, 11, 1526238494.367, 71, 0, 1024, 1024, 1024, 1024, 0, 6, 4234, 4264, 4308, 4290, 4309, 4278, 0, 1, 2913, -90.000, 0.000, 31.800, 0.000, 0.000, -0.200, 0.0, MapPilot_2.8.1_04242018, Dendroctonus I, 1.3.1.00, 041DDC1887, 1058163200563, 98, DJI_0193.jpg, Starting Mission from Lat/Long: 37.73286/-120.09465 Camera: Zenmuse X3 - Overlap: 90/90 - Active Connection: No, 47, 47, 47
37.7328474, -120.0946697, 0.000, 12:08:14.454, 15, 0.00, 0.14, 100, 0.200, -0.100, 34.500, 1191, 100, 100, 23, 25599, -2893, 5510, 5510, 10, 11, 1526238494.455, 55, 0, 1024, 1024, 1024, 1024, 0, 6, 4234, 4264, 4308, 4290, 4309, 4278, 0, 1, 3001, -90.000, 0.000, 31.900, 0.000, 0.000, -0.300, 0.0, , , , , , 98, , , 47, 47, 47
37.7328474, -120.0946698, 0.000, 12:08:14.554, 15, 0.00, 0.15, 100, 0.400, -0.300, 34.400, 1191, 100, 100, 23, 25662, -3495, 5510, 5510, 10, 11, 1526238494.555, 22, 0, 1024, 1024, 1024, 1024, 0, 6, 4243, 4238, 4257, 4272, 4259, 4243, 0, 1, 3101, -89.900, 0.000, 31.900, 0.000, 0.000, -0.300, 0.0, , , , , , 98, , , 47, 47, 47
37.7328475, -120.0946699, 0.000, 12:08:14.654, 16, 0.00, 0.15, 100, 0.700, 0.000, 34.200, 1191, 100, 100, 23, 25662, -3495, 5510, 5510, 10, 11, 1526238494.655, 38, 0, 1024, 1024, 1024, 1024, 0, 6, 4243, 4238, 4257, 4272, 4259, 4243, 0, 1, 3201, -89.900, 0.000, 32.000, 0.000, 0.000, -0.300, 0.0, , , , , , 98, , , 47, 47, 47
37.7328475, -120.0946700, 0.000, 12:08:14.754, 16, 0.00, 0.16, 100, 0.800, 0.700, 33.900, 1191, 100, 100, 23, 25662, -3495, 5510, 5510, 10, 11, 1526238494.755, 38, 0, 1024, 1024, 1024, 1024, 0, 6, 4243, 4238, 4257, 4272, 4259, 4243, 0, 1, 3301, -89.900, 0.000, 32.000, 0.000, 0.000, -0.300, 0.0, , , , , , 98, , , 47, 47, 47
37.7328476, -120.0946700, 0.000, 12:08:14.854, 17, 0.00, 0.16, 100, 0.700, 0.800, 33.700, 1191, 100, 100, 23, 25662, -3495, 5510, 5510, 10, 11, 1526238494.855, 27, 0, 1024, 1024, 1024, 1024, 0, 6, 4243, 4238, 4257, 4272, 4259, 4243, 0, 1, 3401, -89.900, 0.000, 32.100, 0.000, 0.000, -0.200, 0.0, , , , , , 98, , , 47, 47, 47
37.7328476, -120.0946701, 0.100, 12:08:14.954, 17, 0.00, 0.16, 100, 0.400, 0.900, 33.700, 1191, 100, 100, 23, 25662, -3495, 5510, 5510, 10, 11, 1526238494.955, 19, 0, 1024, 1024, 1024, 1024, 0, 6, 4243, 4238, 4257, 4272, 4259, 4243, 0, 1, 3501, -89.900, 0.000, 32.100, 0.000, 0.000, -0.200, 0.0, , , , , , 98, , , 47, 47, 47
37.7328477, -120.0946701, 0.100, 12:08:15.054, 15, 0.00, 0.17, 100, 0.200, 0.800, 33.800, 1191, 100, 100, 23, 25662, -3495, 5510, 5510, 10, 11, 1526238495.054, 20, 0, 1024, 1024, 1024, 1024, 0, 6, 4243, 4238, 4257, 4272, 4259, 4243, 0, 1, 3600, -89.900, 0.000, 32.100, 0.000, 0.000, -0.300, 0.0, , , , , , 98, , , 47, 47, 47
37.7328477, -120.0946702, 0.100, 12:08:15.154, 15, 0.00, 0.17, 100, 0.000, 0.600, 34.100, 1191, 100, 100, 23, 25662, -3495, 5510, 5510, 10, 11, 1526238495.155, 22, 0, 1024, 1024, 1024, 1024, 0, 6, 4243, 4238, 4257, 4272, 4259, 4243, 0, 1, 3701, -90.000, 0.000, 32.200, 0.000, 0.000, -0.400, 0.0, , , , , , 98, , , 47, 47, 47
37.7328477, -120.0946703, 0.200, 12:08:15.254, 15, 0.00, 0.18, 100, 0.100, 0.500, 34.200, 1191, 100, 100, 23, 25662, -3495, 5510, 5510, 10, 11, 1526238495.255, 21, 0, 1024, 1024, 1024, 1024, 0, 6, 4243, 4238, 4257, 4272, 4259, 4243, 0, 1, 3801, -89.900, 0.000, 32.200, 0.000, 0.000, -0.400, 0.0, , , , , , 98, , , 47, 47, 47
37.7328478, -120.0946704, 0.200, 12:08:15.354, 15, 0.00, 0.19, 100, 0.600, 0.300, 34.400, 1191, 100, 100, 23, 25662, -3495, 5510, 5510, 10, 11, 1526238495.354, 12, 0, 1024, 1024, 1024, 1024, 0, 6, 4243, 4238, 4257, 4272, 4259, 4243, 0, 1, 3901, -90.000, 0.000, 32.200, 0.000, 0.000, -0.400, 0.0, , , , , , 98, , , 47, 47, 47
37.7328478, -120.0946704, 0.300, 12:08:15.453, 15, 0.00, 0.19, 100, 0.700, 0.300, 34.600, 1191, 100, 100, 23, 24640, -12895, 5510, 5510, 10, 11, 1526238495.454, 10, 0, 1024, 1024, 1024, 1024, 0, 6, 4243, 4238, 4257, 4272, 4259, 4243, 0, 1, 4000, -89.900, 0.000, 32.300, 0.000, 0.000, -0.400, 0.0, , , , , , 98, , , 47, 47, 47
37.7328478, -120.0946704, 0.300, 12:08:15.554, 15, 0.00, 0.19, 100, 0.700, 0.300, 34.600, 1191, 100, 100, 23, 24640, -12895, 5510, 5510, 10, 11, 1526238495.555, 110, 0, 1024, 1024, 1024, 1024, 0, 6, 4243, 4238, 4257, 4272, 4259, 4243, 0, 1, 4101, -89.900, 0.000, 32.300, 0.000, 0.000, -0.400, 0.0, , , , , , 98, , , 47, 47, 47
37.7328480, -120.0946706, 0.400, 12:08:15.655, 15, 0.10, 0.21, 100, 0.800, 0.500, 34.800, 1191, 100, 100, 23, 24640, -12895, 5510, 5510, 10, 11, 1526238495.655, 6, 0, 1024, 1024, 1024, 1024, 0, 6, 4243, 4238, 4257, 4272, 4259, 4243, 0, 1, 4202, -89.900, 0.000, 32.300, 0.100, 0.000, -0.600, 0.0, , , , , , 98, , , 47, 47, 47
37.7328481, -120.0946707, 0.500, 12:08:15.758, 15, 0.10, 0.22, 100, 0.700, 0.700, 34.700, 1191, 100, 100, 23, 24640, -12895, 5510, 5510, 10, 11, 1526238495.759, 4, 0, 1024, 1024, 1024, 1024, 0, 6, 4243, 4238, 4257, 4272, 4259, 4243, 0, 1, 4305, -89.900, 0.000, 32.300, 0.100, 0.000, -0.600, 0.0, , , , , , 98, , , 47, 47, 47
37.7328482, -120.0946708, 0.500, 12:08:15.855, 15, 0.10, 0.23, 100, 0.800, 0.900, 34.400, 1191, 100, 100, 23, 24640, -12895, 5510, 5510, 10, 11, 1526238495.856, 4, 0, 1024, 1024, 1024, 1024, 0, 6, 4243, 4238, 4257, 4272, 4259, 4243, 0, 1, 4402, -89.900, 0.000, 32.400, 0.100, 0.000, -0.500, 0.0, , , , , , 98, , , 47, 47, 47
37.7328482, -120.0946708, 0.500, 12:08:15.954, 15, 0.10, 0.23, 100, 0.800, 0.900, 34.400, 1191, 100, 100, 23, 24640, -12895, 5510, 5510, 10, 11, 1526238495.954, 102, 0, 1024, 1024, 1024, 1024, 0, 6, 4243, 4238, 4257, 4272, 4259, 4243, 0, 1, 4501, -89.900, 0.000, 32.400, 0.100, 0.000, -0.500, 0.0, , , , , , 98, , , 47, 47, 47
37.7328484, -120.0946709, 0.600, 12:08:16.054, 15, 0.10, 0.24, 100, 1.200, 1.000, 34.200, 1191, 100, 100, 23, 24640, -12895, 5510, 5510, 10, 11, 1526238496.055, 84, 0, 1024, 1024, 1024, 1024, 0, 6, 4106, 4100, 4113, 4090, 4124, 4095, 0, 1, 4601, -89.900, 0.000, 32.400, 0.100, 0.000, -0.500, 0.0, , , , , , 98, , , 47, 47, 47
37.7328485, -120.0946710, 0.700, 12:08:16.154, 15, 0.10, 0.25, 100, 1.800, 1.100, 33.800, 1191, 100, 100, 23, 24640, -12895, 5510, 5510, 10, 11, 1526238496.155, 91, 0, 1024, 1024, 1024, 1024, 0, 6, 4106, 4100, 4113, 4090, 4124, 4095, 0, 1, 4701, -89.900, 0.000, 32.400, 0.100, 0.000, -0.500, 0.0, , , , , , 98, , , 47, 47, 47
37.7328487, -120.0946711, 0.700, 12:08:16.254, 15, 0.10, 0.27, 100, 2.000, 1.400, 33.600, 1191, 100, 100, 23, 24640, -12895, 5510, 5510, 10, 11, 1526238496.255, 89, 0, 1024, 1024, 1024, 1024, 0, 6, 4106, 4100, 4113, 4090, 4124, 4095, 0, 1, 4801, -89.900, 0.000, 32.400, 0.100, 0.000, -0.500, 0.0, , , , , , 98, , , 47, 47, 47
37.7328489, -120.0946711, 0.800, 12:08:16.354, 14, 0.10, 0.28, 100, 2.400, 2.000, 33.400, 1191, 100, 100, 23, 24640, -12895, 5510, 5510, 10, 11, 1526238496.355, 90, 0, 1024, 1024, 1024, 1024, 0, 6, 4106, 4100, 4113, 4090, 4124, 4095, 0, 1, 4901, -89.900, 0.000, 32.500, 0.100, 0.000, -0.500, 0.0, , , , , , 98, , , 47, 47, 47
37.7328491, -120.0946711, 0.900, 12:08:16.454, 15, 0.10, 0.29, 100, 2.600, 2.700, 33.300, 1191, 100, 100, 23, 24640, -12895, 5510, 5510, 10, 14, 1526238496.455, 78, 0, 1024, 1024, 1024, 1024, 0, 6, 4106, 4100, 4113, 4090, 4124, 4095, 0, 1, 5001, -89.900, 0.000, 32.500, 0.100, 0.000, -0.500, 0.0, , , , , , 98, , , 47, 47, 47
37.7328492, -120.0946712, 1.000, 12:08:16.554, 15, 0.00, 0.30, 100, 2.600, 2.700, 33.600, 1191, 100, 100, 23, 24640, -12895, 5510, 5510, 10, 14, 1526238496.555, 90, 0, 1024, 1024, 1024, 1024, 0, 6, 4106, 4100, 4113, 4090, 4124, 4095, 0, 1, 5101, -89.900, 0.000, 32.500, 0.000, 0.000, -0.300, 0.0, , , , , , 98, , , 47, 47, 47
37.7328493, -120.0946713, 1.000, 12:08:16.654, 16, 0.00, 0.31, 100, 1.700, 2.200, 34.100, 1191, 100, 100, 23, 24640, -12895, 5510, 5510, 10, 14, 1526238496.655, 57, 0, 1024, 1024, 1024, 1024, 0, 6, 4106, 4100, 4113, 4090, 4124, 4095, 0, 1, 5201, -89.900, 0.000, 32.500, 0.000, 0.000, -0.300, 0.0, , , , , , 98, , , 47, 47, 47
37.7328494, -120.0946712, 1.100, 12:08:16.754, 16, 0.00, 0.31, 100, 1.500, 1.200, 34.900, 1191, 100, 100, 23, 24640, -12895, 5510, 5510, 10, 14, 1526238496.755, 57, 0, 1024, 1024, 1024, 1024, 0, 6, 4106, 4100, 4113, 4090, 4124, 4095, 0, 1, 5301, -90.000, 0.000, 32.500, 0.000, 0.000, -0.400, 0.0, , , , , , 98, , , 47, 47, 47
37.7328494, -120.0946713, 1.200, 12:08:16.854, 16, 0.00, 0.32, 100, 1.400, 0.600, 35.900, 1191, 100, 100, 23, 24640, -12895, 5510, 5510, 10, 14, 1526238496.855, 65, 0, 1024, 1024, 1024, 1024, 0, 6, 4106, 4100, 4113, 4090, 4124, 4095, 0, 1, 5401, -90.000, 0.000, 32.600, 0.000, 0.000, -0.400, 0.0, , , , , , 98, , , 47, 47, 47
37.7328495, -120.0946714, 1.200, 12:08:16.954, 16, 0.00, 0.33, 100, 1.600, 0.500, 37.000, 1191, 100, 100, 23, 24640, -12895, 5510, 5510, 10, 14, 1526238496.955, 57, 0, 1024, 1024, 1024, 1024, 0, 6, 4106, 4100, 4113, 4090, 4124, 4095, 0, 1, 5501, -90.000, 0.000, 32.700, 0.000, 0.000, -0.500, 0.0, , , , , , 98, , , 47, 47, 47
37.7328496, -120.0946715, 1.300, 12:08:17.054, 15, 0.00, 0.34, 100, 1.500, 1.000, 38.100, 1191, 100, 100, 23, 24346, -15908, 5510, 5510, 10, 14, 1526238497.055, 54, 0, 1024, 1024, 1024, 1024, 0, 6, 4062, 4054, 4048, 4057, 4079, 4063, 0, 1, 5601, -89.900, 0.000, 32.800, 0.000, 0.000, -0.600, 0.0, , , , , , 98, , , 47, 47, 47
37.7328497, -120.0946715, 1.400, 12:08:17.154, 15, 0.00, 0.35, 100, 1.500, 1.300, 39.200, 1191, 100, 100, 23, 24346, -15908, 5510, 5510, 10, 14, 1526238497.155, 65, 0, 1024, 1024, 1024, 1024, 0, 6, 4062, 4054, 4048, 4057, 4079, 4063, 0, 1, 5701, -89.900, 0.000, 33.100, 0.000, 0.000, -0.700, 0.0, , , , , , 98, , , 47, 47, 47
37.7328497, -120.0946716, 1.500, 12:08:17.254, 15, 0.00, 0.36, 100, 1.200, 1.500, 39.900, 1191, 100, 100, 23, 24346, -15908, 5510, 5510, 10, 14, 1526238497.254, 52, 0, 1024, 1024, 1024, 1024, 0, 6, 4062, 4054, 4048, 4057, 4079, 4063, 0, 1, 5801, -89.900, 0.000, 33.500, 0.000, 0.000, -0.900, 0.0, , , , , , 98, , , 47, 47, 47
37.7328497, -120.0946716, 1.500, 12:08:17.354, 15, 0.00, 0.36, 100, 1.500, 1.600, 40.300, 1191, 100, 100, 23, 24346, -15908, 5510, 5510, 10, 14, 1526238497.355, 41, 0, 1024, 1024, 1024, 1024, 0, 6, 4062, 4054, 4048, 4057, 4079, 4063, 0, 1, 5901, -89.900, 0.000, 33.900, 0.000, 0.000, -1.000, 0.0, , , , , , 98, , , 47, 47, 47
37.7328496, -120.0946716, 1.600, 12:08:17.454, 15, 0.00, 0.36, 100, 1.700, 1.300, 40.100, 1191, 100, 100, 23, 24346, -15908, 5510, 5510, 10, 14, 1526238497.455, 36, 0, 1024, 1024, 1024, 1024, 0, 6, 4062, 4054, 4048, 4057, 4079, 4063, 0, 1, 6001, -90.000, 0.000, 34.600, 0.000, 0.000, -1.200, 0.0, , , , , , 98, , , 47, 47, 47
37.7328496, -120.0946715, 1.800, 12:08:17.554, 15, 0.00, 0.35, 100, 1.700, 1.100, 39.500, 1191, 100, 100, 23, 24346, -15908, 5510, 5510, 10, 14, 1526238497.555, 48, 0, 1024, 1024, 1024, 1024, 0, 6, 4062, 4054, 4048, 4057, 4079, 4063, 0, 1, 6101, -90.000, 0.000, 34.600, 0.000, 0.000, -1.400, 0.0, , , , , , 98, , , 47, 47, 47
37.7328495, -120.0946714, 1.900, 12:08:17.654, 15, 0.14, 0.34, 100, 1.400, 0.700, 38.800, 1191, 100, 100, 23, 24346, -15908, 5510, 5510, 10, 14, 1526238497.655, 33, 0, 1024, 1024, 1024, 1024, 0, 6, 4062, 4054, 4048, 4057, 4079, 4063, 0, 1, 6201, -90.000, 0.000, 35.200, -0.100, 0.100, -1.700, 0.0, , , , , , 98, , , 47, 47, 47
37.7328494, -120.0946713, 2.100, 12:08:17.754, 15, 0.14, 0.32, 100, 0.500, 0.700, 38.400, 1191, 100, 100, 23, 24346, -15908, 5510, 5510, 10, 14, 1526238497.755, 38, 0, 1024, 1024, 1024, 1024, 0, 6, 4062, 4054, 4048, 4057, 4079, 4063, 0, 1, 6301, -89.900, 0.000, 35.500, -0.100, 0.100, -1.900, 0.0, , , , , , 98, , , 47, 47, 47
37.7328493, -120.0946711, 2.300, 12:08:17.854, 15, 0.14, 0.30, 100, -0.800, 1.200, 38.300, 1191, 100, 100, 23, 24346, -15908, 5510, 5510, 10, 14, 1526238497.855, 14, 0, 1024, 1024, 1024, 1024, 0, 6, 4062, 4054, 4048, 4057, 4079, 4063, 0, 1, 6401, -89.900, 0.000, 35.700, -0.100, 0.100, -2.100, 0.0, , , , , , 98, , , 47, 47, 47
37.7328491, -120.0946709, 2.500, 12:08:17.954, 15, 0.14, 0.28, 100, -1.800, 1.500, 38.600, 1191, 100, 100, 23, 24489, -14362, 5510, 5510, 10, 14, 1526238497.955, 19, 0, 1024, 1024, 1024, 1024, 0, 6, 4054, 4086, 4039, 4045, 4055, 4096, 0, 1, 6501, -90.000, 0.000, 35.900, -0.100, 0.100, -2.300, 0.0, , , , , , 98, , , 47, 47, 47
37.7328490, -120.0946708, 2.800, 12:08:18.059, 16, 0.14, 0.26, 100, -2.100, 1.400, 39.100, 1191, 100, 100, 23, 24489, -14362, 5510, 5510, 10, 14, 1526238498.059, 11, 0, 1024, 1024, 1024, 1024, 0, 6, 4054, 4086, 4039, 4045, 4055, 4096, 0, 1, 6606, -90.000, 0.000, 36.100, -0.100, 0.100, -2.500, 0.0, , , , , , 98, , , 47, 47, 47
37.7328489, -120.0946707, 3.000, 12:08:18.154, 16, 0.10, 0.24, 100, -2.000, 0.900, 39.700, 1191, 100, 100, 23, 24489, -14362, 5510, 5510, 10, 14, 1526238498.154, 9, 0, 1024, 1024, 1024, 1024, 0, 6, 4054, 4086, 4039, 4045, 4055, 4096, 0, 1, 6700, -90.000, 0.000, 36.200, 0.000, 0.100, -2.700, 0.0, , , , , , 98, , , 47, 47, 47
37.7328489, -120.0946707, 3.000, 12:08:18.254, 16, 0.10, 0.24, 100, -2.000, 0.900, 39.700, 1191, 100, 100, 23, 24489, -14362, 5510, 5510, 10, 14, 1526238498.255, 110, 0, 1024, 1024, 1024, 1024, 0, 6, 4054, 4086, 4039, 4045, 4055, 4096, 0, 1, 6801, -90.000, 0.000, 36.400, 0.000, 0.100, -2.700, 0.0, , , , , , 98, , , 47, 47, 47
37.7328489, -120.0946707, 3.000, 12:08:18.354, 16, 0.10, 0.24, 100, -2.000, 0.900, 39.700, 1191, 100, 100, 23, 24489, -14362, 5510, 5510, 10, 14, 1526238498.355, 210, 0, 1024, 1024, 1024, 1024, 0, 6, 4054, 4086, 4039, 4045, 4055, 4096, 0, 1, 6901, -90.000, 0.000, 36.400, 0.000, 0.100, -2.700, 0.0, , , , , , 98, , , 47, 47, 47
37.7328485, -120.0946705, 3.900, 12:08:18.455, 16, 0.00, 0.21, 100, -2.100, 0.100, 39.500, 1191, 100, 100, 23, 24489, -14362, 5510, 5510, 10, 14, 1526238498.455, 6, 0, 1024, 1024, 1024, 1024, 0, 6, 4054, 4086, 4039, 4045, 4055, 4096, 0, 1, 7002, -90.000, 0.000, 36.500, 0.000, 0.000, -3.200, 0.0, , , , , , 98, , , 47, 47, 47
37.7328485, -120.0946705, 3.900, 12:08:18.555, 16, 0.00, 0.21, 100, -2.100, 0.100, 39.500, 1191, 100, 100, 23, 24489, -14362, 5510, 5510, 10, 14, 1526238498.556, 106, 0, 1024, 1024, 1024, 1024, 0, 6, 4054, 4086, 4039, 4045, 4055, 4096, 0, 1, 7102, -90.000, 0.000, 36.700, 0.000, 0.000, -3.200, 0.0, , , , , , 98, , , 47, 47, 47
37.7328484, -120.0946704, 4.300, 12:08:18.654, 16, 0.00, 0.20, 100, -2.100, 0.200, 39.100, 1191, 100, 99, 23, 24489, -14362, 5510, 5510, 10, 14, 1526238498.655, 56, 0, 1024, 1024, 1024, 1024, 0, 6, 4054, 4086, 4039, 4045, 4055, 4096, 0, 1, 7201, -90.000, 0.000, 36.800, 0.000, 0.000, -3.300, 0.0, , , , , , 98, , , 47, 47, 47
37.7328483, -120.0946704, 5.000, 12:08:18.754, 16, 0.00, 0.20, 100, -1.900, 0.700, 39.100, 1191, 100, 99, 23, 24489, -14362, 5510, 5510, 10, 14, 1526238498.755, 77, 0, 1024, 1024, 1024, 1024, 0, 6, 4054, 4086, 4039, 4045, 4055, 4096, 0, 1, 7301, -89.900, 0.000, 36.900, 0.000, 0.000, -3.300, 0.0, , , , , , 98, , , 47, 47, 47
37.7328483, -120.0946704, 5.300, 12:08:18.854, 16, 0.00, 0.20, 100, -1.500, 0.600, 39.200, 1191, 100, 99, 23, 24489, -14362, 5510, 5510, 10, 14, 1526238498.855, 79, 0, 1024, 1024, 1024, 1024, 0, 6, 4054, 4086, 4039, 4045, 4055, 4096, 0, 1, 7401, -90.000, 0.000, 37.000, 0.000, 0.000, -3.300, 0.0, , , , , , 98, , , 47, 47, 47
37.7328483, -120.0946705, 5.700, 12:08:18.954, 16, 0.00, 0.21, 100, -1.100, 0.400, 39.300, 1191, 100, 99, 23, 24489, -14362, 5510, 5510, 10, 14, 1526238498.955, 70, 0, 1024, 1024, 1024, 1024, 0, 6, 4054, 4086, 4039, 4045, 4055, 4096, 0, 1, 7501, -90.000, 0.000, 37.100, 0.000, 0.000, -3.300, 0.0, , , , , , 98, , , 47, 47, 47
37.7328483, -120.0946707, 6.000, 12:08:19.054, 16, 0.00, 0.22, 98, -0.700, 0.300, 39.700, 1191, 100, 99, 23, 23836, -21400, 5399, 5510, 10, 14, 1526238499.055, 69, 0, 1024, 1024, 1024, 1024, 0, 6, 3953, 3960, 3964, 3973, 3957, 3981, 0, 1, 7601, -90.000, 0.000, 37.200, 0.000, 0.000, -3.200, 0.0, , , , , , 98, , , 47, 47, 47
37.7328484, -120.0946709, 6.300, 12:08:19.154, 16, 0.00, 0.24, 98, -0.100, 0.300, 39.900, 1191, 100, 99, 23, 23836, -21400, 5399, 5510, 10, 14, 1526238499.155, 69, 0, 1024, 1024, 1024, 1024, 0, 6, 3953, 3960, 3964, 3973, 3957, 3981, 0, 1, 7701, -90.000, 0.000, 37.300, 0.000, 0.000, -3.200, 0.0, , , , , , 98, , , 47, 47, 47
37.7328486, -120.0946711, 6.600, 12:08:19.254, 16, 0.00, 0.26, 98, 0.400, 0.200, 40.000, 1191, 100, 99, 23, 23836, -21400, 5399, 5510, 10, 14, 1526238499.255, 49, 0, 1024, 1024, 1024, 1024, 0, 6, 3953, 3960, 3964, 3973, 3957, 3981, 0, 1, 7801, -90.000, 0.000, 37.400, 0.000, 0.000, -3.200, 0.0, , , , , , 98, , , 47, 47, 47
37.7328488, -120.0946712, 7.000, 12:08:19.354, 16, 0.10, 0.28, 98, 0.800, 0.400, 40.000, 1191, 100, 99, 23, 23836, -21400, 5399, 5510, 10, 14, 1526238499.355, 51, 0, 1024, 1024, 1024, 1024, 0, 6, 3953, 3960, 3964, 3973, 3957, 3981, 0, 1, 7901, -90.000, 0.000, 37.400, 0.100, 0.000, -3.200, 0.0, , , , , , 98, , , 47, 47, 47
37.7328490, -120.0946713, 7.300, 12:08:19.454, 17, 0.10, 0.30, 98, 1.200, 0.600, 40.000, 1191, 100, 99, 23, 23836, -21400, 5399, 5510, 10, 14, 1526238499.455, 53, 0, 1024, 1024, 1024, 1024, 0, 6, 3953, 3960, 3964, 3973, 3957, 3981, 0, 1, 8001, -89.900, 0.000, 37.500, 0.100, 0.000, -3.200, 0.0, , , , , , 98, , , 47, 47, 47
37.7328491, -120.0946715, 7.600, 12:08:19.554, 17, 0.10, 0.32, 98, 1.500, 1.000, 40.000, 1191, 100, 99, 23, 23836, -21400, 5399, 5510, 10, 14, 1526238499.555, 28, 0, 1024, 1024, 1024, 1024, 0, 6, 3953, 3960, 3964, 3973, 3957, 3981, 0, 1, 8101, -89.900, 0.000, 37.600, 0.100, 0.000, -3.200, 0.0, , , , , , 98, , , 47, 47, 47
37.7328493, -120.0946715, 8.000, 12:08:19.654, 17, 0.00, 0.33, 98, 1.600, 1.300, 40.000, 1191, 100, 99, 23, 23836, -21400, 5399, 5510, 10, 14, 1526238499.655, 59, 0, 1024, 1024, 1024, 1024, 0, 6, 3953, 3960, 3964, 3973, 3957, 3981, 0, 1, 8201, -89.900, 0.000, 37.600, 0.000, 0.000, -3.200, 0.0, , , , , , 98, , , 47, 47, 47
37.7328494, -120.0946714, 8.300, 12:08:19.754, 17, 0.00, 0.33, 98, 1.300, 1.500, 40.000, 1191, 100, 99, 23, 23836, -21400, 5399, 5510, 10, 14, 1526238499.755, 37, 0, 1024, 1024, 1024, 1024, 0, 6, 3953, 3960, 3964, 3973, 3957, 3981, 0, 1, 8301, -89.900, 0.000, 37.700, 0.000, 0.000, -3.300, 0.0, , , , , , 98, , , 47, 47, 47
37.7328494, -120.0946714, 8.600, 12:08:19.854, 17, 0.00, 0.33, 98, 0.800, 1.600, 39.900, 1191, 100, 99, 23, 23836, -21400, 5399, 5510, 10, 14, 1526238499.855, 41, 0, 1024, 1024, 1024, 1024, 0, 6, 3953, 3960, 3964, 3973, 3957, 3981, 0, 1, 8401, -89.900, 0.000, 37.800, 0.000, 0.000, -3.200, 0.0, , , , , , 98, , , 47, 47, 47
37.7328495, -120.0946714, 8.900, 12:08:19.954, 17, 0.00, 0.33, 98, 0.300, 1.500, 39.900, 1191, 100, 99, 23, 23836, -21400, 5399, 5510, 10, 14, 1526238499.955, 31, 0, 1024, 1024, 1024, 1024, 0, 6, 3953, 3960, 3964, 3973, 3957, 3981, 0, 1, 8501, -89.900, 0.000, 37.800, 0.000, 0.000, -3.200, 0.0, , , , , , 98, , , 47, 47, 47
37.7328495, -120.0946713, 9.300, 12:08:20.054, 17, 0.00, 0.33, 98, 0.000, 1.400, 39.900, 1191, 100, 100, 23, 23638, -18779, 5399, 5510, 10, 14, 1526238500.054, 46, 0, 1024, 1024, 1024, 1024, 0, 6, 3981, 3979, 3959, 3953, 3977, 3957, 0, 1, 8601, -89.900, 0.000, 37.900, 0.000, 0.000, -3.100, 0.0, , , , , , 98, , , 47, 47, 47
37.7328495, -120.0946713, 9.600, 12:08:20.154, 17, 0.00, 0.33, 98, 0.000, 1.400, 40.000, 1191, 100, 100, 23, 23638, -18779, 5399, 5510, 10, 14, 1526238500.155, 18, 0, 1024, 1024, 1024, 1024, 0, 6, 3981, 3979, 3959, 3953, 3977, 3957, 0, 1, 8701, -89.900, 0.000, 38.000, 0.000, 0.000, -3.100, 0.0, , , , , , 98, , , 47, 47, 47
37.7328495, -120.0946713, 9.600, 12:08:20.254, 17, 0.00, 0.33, 98, 0.000, 1.400, 40.000, 1191, 100, 100, 23, 23638, -18779, 5399, 5510, 10, 14, 1526238500.255, 118, 0, 1024, 1024, 1024, 1024, 0, 6, 3981, 3979, 3959, 3953, 3977, 3957, 0, 1, 8801, -89.900, 0.000, 38.000, 0.000, 0.000, -3.100, 0.0, , , , , , 98, , , 47, 47, 47
37.7328495, -120.0946713, 10.200, 12:08:20.354, 16, 0.00, 0.33, 98, -0.300, 1.300, 40.100, 1191, 100, 100, 23, 23638, -18779, 5399, 5510, 10, 14, 1526238500.355, 38, 0, 1024, 1024, 1024, 1024, 0, 6, 3981, 3979, 3959, 3953, 3977, 3957, 0, 1, 8901, -89.900, 0.000, 38.100, 0.000, 0.000, -3.100, 0.0, , , , , , 98, , , 47, 47, 47
37.7328496, -120.0946714, 10.500, 12:08:20.454, 16, 0.00, 0.34, 98, -0.300, 1.200, 40.100, 1191, 100, 100, 23, 23638, -18779, 5399, 5510, 10, 14, 1526238500.455, 5, 0, 1024, 1024, 1024, 1024, 0, 6, 3981, 3979, 3959, 3953, 3977, 3957, 0, 1, 9001, -89.900, 0.000, 38.100, 0.000, 0.000, -3.100, 0.0, , , , , , 98, , , 47, 47, 47
37.7328496, -120.0946714, 10.900, 12:08:20.562, 16, 0.00, 0.34, 98, -0.200, 1.400, 40.000, 1191, 100, 100, 23, 23638, -18779, 5399, 5510, 10, 14, 1526238500.563, 4, 0, 1024, 1024, 1024, 1024, 0, 6, 3981, 3979, 3959, 3953, 3977, 3957, 0, 1, 9109, -89.900, 0.000, 38.100, 0.000, 0.000, -3.100, 0.0, , , , , , 98, , , 47, 47, 47
37.7328496, -120.0946714, 10.900, 12:08:20.653, 16, 0.00, 0.34, 98, -0.200, 1.400, 40.000, 1191, 100, 100, 23, 23638, -18779, 5399, 5510, 10, 14, 1526238500.654, 95, 0, 1024, 1024, 1024, 1024, 0, 6, 3981, 3979, 3959, 3953, 3977, 3957, 0, 1, 9200, -89.900, 0.000, 38.100, 0.000, 0.000, -3.100, 0.0, , , , , , 98, , , 47, 47, 47
37.7328498, -120.0946715, 11.500, 12:08:20.756, 17, 0.00, 0.36, 98, -0.200, 1.700, 39.800, 1191, 100, 100, 23, 23638, -18779, 5399, 5510, 10, 14, 1526238500.757, 4, 0, 1024, 1024, 1024, 1024, 0, 6, 3981, 3979, 3959, 3953, 3977, 3957, 0, 1, 9303, -89.900, 0.000, 38.200, 0.000, 0.000, -3.100, 0.0, , , , , , 98, , , 47, 47, 47
37.7328498, -120.0946714, 11.900, 12:08:20.854, 17, 0.00, 0.35, 98, -0.300, 1.700, 39.600, 1191, 100, 100, 23, 23638, -18779, 5399, 5510, 10, 14, 1526238500.855, 7, 0, 1024, 1024, 1024, 1024, 0, 6, 3981, 3979, 3959, 3953, 3977, 3957, 0, 1, 9401, -89.900, 0.000, 38.300, 0.000, 0.000, -3.100, 0.0, , , , , , 98, , , 47, 47, 47
37.7328498, -120.0946714, 11.900, 12:08:20.954, 17, 0.00, 0.35, 98, -0.300, 1.700, 39.600, 1191, 100, 100, 23, 23638, -18779, 5399, 5510, 10, 14, 1526238500.955, 107, 0, 1024, 1024, 1024, 1024, 0, 6, 3981, 3979, 3959, 3953, 3977, 3957, 0, 1, 9501, -89.900, 0.000, 38.300, 0.000, 0.000, -3.100, 0.0, , , , , , 98, , , 47, 47, 47
37.7328497, -120.0946713, 12.200, 12:08:21.054, 17, 0.10, 0.34, 98, -0.700, 1.600, 39.500, 1191, 100, 100, 23, 23967, -17905, 5399, 5510, 10, 14, 1526238501.055, 78, 0, 1024, 1024, 1024, 1024, 0, 6, 3981, 3979, 3959, 3953, 3977, 3957, 0, 1, 9601, -89.900, 0.000, 38.300, 0.000, 0.100, -3.000, 0.0, , , , , , 98, , , 47, 47, 47
37.7328497, -120.0946712, 12.500, 12:08:21.154, 17, 0.10, 0.33, 98, -1.300, 1.600, 39.500, 1191, 100, 100, 23, 23967, -17905, 5399, 5510, 10, 14, 1526238501.155, 81, 0, 1024, 1024, 1024, 1024, 0, 6, 3981, 3979, 3959, 3953, 3977, 3957, 0, 1, 9701, -89.900, 0.000, 38.300, 0.000, 0.100, -3.000, 0.0, , , , , , 98, , , 47, 47, 47
37.7328497, -120.0946711, 12.800, 12:08:21.254, 17, 0.10, 0.33, 98, -1.500, 1.600, 39.600, 1191, 100, 100, 23, 23967, -17905, 5399, 5510, 10, 14, 1526238501.255, 96, 0, 1024, 1024, 1024, 1024, 0, 6, 3981, 3979, 3959, 3953, 3977, 3957, 0, 1, 9801, -89.900, 0.000, 38.400, 0.000, 0.100, -2.900, 0.0, , , , , , 98, , , 47, 47, 47
37.7328496, -120.0946709, 13.400, 12:08:21.353, 18, 0.10, 0.31, 98, -2.200, 1.700, 39.900, 1191, 100, 100, 23, 23967, -17905, 5399, 5510, 10, 14, 1526238501.354, 49, 0, 1024, 1024, 1024, 1024, 0, 6, 3981, 3979, 3959, 3953, 3977, 3957, 0, 1, 9900, -89.900, 0.000, 38.400, 0.000, 0.100, -3.000, 0.0, , , , , , 98, , , 47, 47, 47
37.7328495, -120.0946708, 13.700, 12:08:21.454, 18, 0.10, 0.29, 98, -2.500, 1.600, 40.000, 1191, 100, 100, 23, 23967, -17905, 5399, 5510, 10, 14, 1526238501.455, 49, 0, 1024, 1024, 1024, 1024, 0, 6, 3981, 3979, 3959, 3953, 3977, 3957, 0, 1, 10001, -89.900, 0.000, 38.400, 0.000, 0.100, -2.900, 0.0, , , , , , 98, , , 47, 47, 47
37.7328495, -120.0946707, 14.000, 12:08:21.554, 18, 0.10, 0.28, 98, -2.700, 1.700, 40.100, 1191, 100, 100, 23, 23967, -17905, 5399, 5510, 10, 14, 1526238501.555, 59, 0, 1024, 1024, 1024, 1024, 0, 6, 3989, 3979, 3998, 3994, 4013, 3985, 0, 1, 10101, -89.900, 0.000, 38.400, 0.000, 0.100, -2.900, 0.0, , , , , , 98, , , 47, 47, 47
37.7328495, -120.0946707, 14.300, 12:08:21.654, 18, 0.10, 0.28, 98, -2.600, 1.700, 40.000, 1191, 100, 99, 23, 23967, -17905, 5399, 5510, 10, 14, 1526238501.654, 53, 0, 1024, 1024, 1024, 1024, 0, 6, 3989, 3979, 3998, 3994, 4013, 3985, 0, 1, 10201, -89.900, 0.000, 38.500, 0.000, 0.100, -2.900, 0.0, , , , , , 98, , , 47, 47, 47
37.7328496, -120.0946706, 14.600, 12:08:21.754, 18, 0.00, 0.29, 98, -2.100, 1.800, 39.900, 1191, 100, 99, 23, 23967, -17905, 5399, 5510, 10, 14, 1526238501.755, 22, 0, 1024, 1024, 1024, 1024, 0, 6, 3989, 3979, 3998, 3994, 4013, 3985, 0, 1, 10301, -89.900, 0.000, 38.500, 0.000, 0.000, -2.900, 0.0, , , , , , 98, , , 47, 47, 47
37.7328496, -120.0946706, 14.900, 12:08:21.854, 18, 0.00, 0.29, 98, -1.500, 2.000, 39.700, 1191, 100, 99, 23, 23967, -17905, 5399, 5510, 10, 14, 1526238501.855, 37, 0, 1024, 1024, 1024, 1024, 0, 6, 3989, 3979, 3998, 3994, 4013, 3985, 0, 1, 10401, -89.900, 0.000, 38.500, 0.000, 0.000, -3.000, 0.0, , , , , , 98, , , 47, 47, 47
37.7328496, -120.0946705, 15.200, 12:08:21.954, 18, 0.00, 0.28, 98, -1.500, 2.300, 39.600, 1191, 100, 99, 23, 23967, -17905, 5399, 5510, 10, 14, 1526238501.954, 38, 0, 1024, 1024, 1024, 1024, 0, 6, 3989, 3979, 3998, 3994, 4013, 3985, 0, 1, 10500, -89.900, 0.000, 38.600, 0.000, 0.000, -2.900, 0.0, , , , , , 98, , , 47, 47, 47
37.7328496, -120.0946705, 15.500, 12:08:22.054, 18, 0.00, 0.28, 98, -1.500, 2.200, 39.500, 1191, 100, 99, 23, 23967, -17905, 5399, 5510, 10, 14, 1526238502.055, 24, 0, 1024, 1024, 1024, 1024, 0, 6, 3989, 3979, 3998, 3994, 4013, 3985, 0, 1, 10601, -89.900, 0.000, 38.600, 0.000, 0.000, -2.900, 0.0, , , , , , 98, , , 47, 47, 47
37.7328496, -120.0946704, 15.800, 12:08:22.154, 18, 0.00, 0.27, 98, -1.900, 2.000, 39.400, 1191, 100, 99, 23, 23967, -17905, 5399, 5510, 10, 14, 1526238502.155, 25, 0, 1024, 1024, 1024, 1024, 0, 6, 3989, 3979, 3998, 3994, 4013, 3985, 0, 1, 10701, -89.900, 0.000, 38.600, 0.000, 0.000, -2.900, 0.0, , , , , , 98, , , 47, 47, 47
37.7328495, -120.0946704, 16.100, 12:08:22.254, 18, 0.00, 0.27, 98, -2.100, 1.900, 39.400, 1191, 100, 99, 23, 23967, -17905, 5399, 5510, 10, 14, 1526238502.255, 29, 0, 1024, 1024, 1024, 1024, 0, 6, 3989, 3979, 3998, 3994, 4013, 3985, 0, 1, 10801, -89.900, 0.000, 38.700, 0.000, 0.000, -3.000, 0.0, , , , , , 98, , , 47, 47, 47
37.7328495, -120.0946703, 16.400, 12:08:22.355, 18, 0.00, 0.26, 98, -2.400, 1.800, 39.500, 1191, 100, 99, 23, 23967, -17905, 5399, 5510, 10, 14, 1526238502.357, 35, 0, 1024, 1024, 1024, 1024, 0, 6, 3989, 3979, 3998, 3994, 4013, 3985, 0, 1, 10904, -89.900, 0.000, 38.700, 0.000, 0.000, -3.000, 0.0, , , , , , 98, , , 47, 47, 47
37.7328494, -120.0946702, 16.700, 12:08:22.454, 18, 0.10, 0.25, 98, -2.500, 1.800, 39.700, 1191, 100, 99, 23, 23940, -18203, 5399, 5510, 10, 14, 1526238502.455, 34, 0, 1024, 1024, 1024, 1024, 0, 6, 3989, 3973, 3985, 3983, 4004, 3997, 0, 1, 11001, -89.900, 0.000, 38.700, 0.000, 0.100, -3.000, 0.0, , , , , , 98, , , 47, 47, 47
37.7328494, -120.0946701, 17.000, 12:08:22.577, 18, 0.10, 0.24, 98, -2.600, 1.900, 39.900, 1191, 100, 99, 23, 23940, -18203, 5399, 5510, 10, 14, 1526238502.578, 11, 0, 1024, 1024, 1024, 1024, 0, 6, 3989, 3973, 3985, 3983, 4004, 3997, 0, 1, 11124, -89.900, 0.000, 38.700, 0.000, 0.100, -3.000, 0.0, , , , , , 98, , , 47, 47, 47
37.7328494, -120.0946701, 17.300, 12:08:22.654, 18, 0.00, 0.24, 98, -2.500, 2.100, 40.100, 1191, 100, 99, 23, 23940, -18203, 5399, 5510, 10, 14, 1526238502.655, 7, 0, 1024, 1024, 1024, 1024, 0, 6, 3989, 3973, 3985, 3983, 4004, 3997, 0, 1, 11201, -89.900, 0.000, 38.700, 0.000, 0.000, -3.000, 0.0, , , , , , 98, , , 47, 47, 47
37.7328494, -120.0946701, 17.600, 12:08:22.754, 18, 0.00, 0.24, 98, -2.300, 2.200, 40.200, 1191, 100, 99, 23, 23940, -18203, 5399, 5510, 10, 14, 1526238502.755, 18, 0, 1024, 1024, 1024, 1024, 0, 6, 3989, 3973, 3985, 3983, 4004, 3997, 0, 1, 11301, -89.900, 0.000, 38.800, 0.000, 0.000, -2.900, 0.0, , , , , , 98, , , 47, 47, 47
37.7328494, -120.0946701, 17.600, 12:08:22.854, 18, 0.00, 0.24, 98, -2.300, 2.200, 40.200, 1191, 100, 99, 23, 23940, -18203, 5399, 5510, 10, 14, 1526238502.855, 118, 0, 1024, 1024, 1024, 1024, 0, 6, 3989, 3973, 3985, 3983, 4004, 3997, 0, 1, 11402, -89.900, 0.000, 38.800, 0.000, 0.000, -2.900, 0.0, , , , , , 98, , , 47, 47, 47
37.7328494, -120.0946700, 18.200, 12:08:22.954, 19, 0.00, 0.23, 98, -2.100, 2.400, 40.200, 1191, 100, 99, 23, 23940, -18203, 5399, 5510, 10, 14, 1526238502.955, 15, 0, 1024, 1024, 1024, 1024, 0, 6, 3989, 3973, 3985, 3983, 4004, 3997, 0, 1, 11501, -89.900, 0.000, 38.800, 0.000, 0.000, -2.900, 0.0, , , , , , 98, , , 47, 47, 47
37.7328494, -120.0946700, 18.200, 12:08:23.054, 19, 0.00, 0.23, 98, -2.100, 2.400, 40.200, 1191, 100, 99, 23, 23940, -18203, 5399, 5510, 10, 14, 1526238503.055, 115, 0, 1024, 1024, 1024, 1024, 0, 6, 3989, 3973, 3985, 3983, 4004, 3997, 0, 1, 11601, -89.900, 0.000, 38.800, 0.000, 0.000, -2.900, 0.0, , , , , , 98, , , 47, 47, 47
37.7328494, -120.0946700, 18.500, 12:08:23.154, 19, 0.00, 0.23, 98, -1.900, 2.500, 40.300, 1191, 100, 99, 23, 23940, -18203, 5399, 5510, 10, 14, 1526238503.154, 75, 0, 1024, 1024, 1024, 1024, 0, 6, 3989, 3973, 3985, 3983, 4004, 3997, 0, 1, 11701, -89.900, 0.000, 38.800, 0.000, 0.000, -2.900, 0.0, , , , , , 98, , , 47, 47, 47
37.7328494, -120.0946700, 18.800, 12:08:23.254, 19, 0.00, 0.23, 98, -1.700, 2.600, 40.300, 1191, 100, 99, 23, 23940, -18203, 5399, 5510, 10, 14, 1526238503.255, 75, 0, 1024, 1024, 1024, 1024, 0, 6, 3989, 3973, 3985, 3983, 4004, 3997, 0, 1, 11801, -89.900, 0.000, 38.800, 0.000, 0.000, -2.900, 0.0, , , , , , 98, , , 47, 47, 47
37.7328494, -120.0946700, 19.100, 12:08:23.354, 19, 0.00, 0.23, 98, -1.800, 2.400, 40.200, 1191, 100, 99, 23, 23940, -18203, 5399, 5510, 10, 14, 1526238503.355, 75, 0, 1024, 1024, 1024, 1024, 0, 6, 3989, 3973, 3985, 3983, 4004, 3997, 0, 1, 11901, -89.900, 0.000, 38.900, 0.000, 0.000, -2.900, 0.0, , , , , , 98, , , 47, 47, 47
37.7328494, -120.0946700, 19.400, 12:08:23.454, 19, 0.00, 0.23, 98, -1.700, 2.200, 40.200, 1191, 100, 99, 23, 23940, -18203, 5399, 5510, 10, 14, 1526238503.455, 75, 0, 1024, 1024, 1024, 1024, 0, 6, 3989, 3973, 3985, 3983, 4004, 3997, 0, 1, 12001, -89.900, 0.000, 38.900, 0.000, 0.000, -2.900, 0.0, , , , , , 98, , , 47, 47, 47
37.7328494, -120.0946700, 19.700, 12:08:23.554, 19, 0.00, 0.23, 98, -1.700, 2.200, 40.200, 1191, 100, 99, 24, 23965, -17825, 5399, 5510, 10, 14, 1526238503.555, 92, 0, 1024, 1024, 1024, 1024, 0, 6, 3991, 3980, 3991, 3989, 4013, 3987, 0, 1, 12101, -89.900, 0.000, 38.900, 0.000, 0.000, -2.900, 0.0, , , , , , 98, , , 47, 47, 47
37.7328493, -120.0946699, 20.300, 12:08:23.654, 19, 0.00, 0.22, 98, -1.900, 2.200, 40.000, 1191, 100, 99, 24, 23965, -17825, 5399, 5510, 10, 14, 1526238503.655, 51, 0, 1024, 1024, 1024, 1024, 0, 6, 3991, 3980, 3991, 3989, 4013, 3987, 0, 1, 12202, -89.900, 0.000, 38.900, 0.000, 0.000, -3.000, 0.0, , , , , , 98, , , 47, 47, 47
37.7328493, -120.0946699, 20.600, 12:08:23.754, 19, 0.00, 0.22, 98, -1.800, 2.100, 39.900, 1191, 100, 99, 24, 23965, -17825, 5399, 5510, 10, 14, 1526238503.755, 68, 0, 1024, 1024, 1024, 1024, 0, 6, 3991, 3980, 3991, 3989, 4013, 3987, 0, 1, 12301, -89.900, 0.000, 38.900, 0.000, 0.000, -3.000, 0.0, , , , , , 98, , , 47, 47, 47
37.7328493, -120.0946699, 20.600, 12:08:23.854, 19, 0.00, 0.22, 98, -1.800, 2.100, 39.900, 1191, 100, 99, 24, 23965, -17825, 5399, 5510, 10, 14, 1526238503.855, 169, 0, 1024, 1024, 1024, 1024, 0, 6, 3991, 3980, 3991, 3989, 4013, 3987, 0, 1, 12401, -90.000, 0.000, 38.900, 0.000, 0.000, -3.000, 0.0, , , , , , 98, , , 47, 47, 47
37.7328493, -120.0946700, 21.200, 12:08:23.954, 19, 0.00, 0.22, 98, -1.800, 1.900, 39.900, 1191, 100, 99, 24, 23965, -17825, 5399, 5510, 10, 14, 1526238503.955, 39, 0, 1024, 1024, 1024, 1024, 0, 6, 3991, 3980, 3991, 3989, 4013, 3987, 0, 1, 12501, -90.000, 0.000, 38.900, 0.000, 0.000, -2.900, 0.0, , , , , , 98, , , 47, 47, 47
37.7328492, -120.0946700, 21.500, 12:08:24.054, 19, 0.00, 0.22, 98, -1.600, 2.200, 40.000, 1191, 100, 99, 24, 23965, -17825, 5399, 5510, 10, 14, 1526238504.055, 57, 0, 1024, 1024, 1024, 1024, 0, 6, 3991, 3980, 3991, 3989, 4013, 3987, 0, 1, 12601, -89.900, 0.000, 39.000, 0.000, 0.000, -3.000, 0.0, , , , , , 98, , , 47, 47, 47
37.7328492, -120.0946701, 21.800, 12:08:24.154, 19, 0.00, 0.22, 98, -1.800, 2.200, 40.000, 1191, 100, 99, 24, 23965, -17825, 5399, 5510, 10, 14, 1526238504.155, 22, 0, 1024, 1024, 1024, 1024, 0, 6, 3991, 3980, 3991, 3989, 4013, 3987, 0, 1, 12701, -89.900, 0.000, 39.000, 0.000, 0.000, -2.900, 0.0, , , , , , 98, , , 47, 47, 47
37.7328492, -120.0946701, 22.100, 12:08:24.254, 19, 0.00, 0.22, 98, -1.900, 2.100, 40.100, 1191, 100, 99, 24, 23965, -17825, 5399, 5510, 10, 14, 1526238504.255, 52, 0, 1024, 1024, 1024, 1024, 0, 6, 3991, 3980, 3991, 3989, 4013, 3987, 0, 1, 12801, -89.900, 0.000, 39.000, 0.000, 0.000, -3.000, 0.0, , , , , , 98, , , 47, 47, 47
37.7328492, -120.0946701, 22.400, 12:08:24.354, 19, 0.00, 0.23, 98, -1.800, 2.200, 40.100, 1191, 100, 99, 24, 23965, -17825, 5399, 5510, 10, 14, 1526238504.354, 44, 0, 1024, 1024, 1024, 1024, 0, 6, 3991, 3980, 3991, 3989, 4013, 3987, 0, 1, 12901, -89.900, 0.000, 39.000, 0.000, 0.000, -2.900, 0.0, , , , , , 98, , , 47, 47, 47
37.7328492, -120.0946701, 22.700, 12:08:24.454, 19, 0.00, 0.23, 98, -1.600, 2.100, 40.100, 1191, 100, 99, 24, 23965, -17825, 5399, 5510, 10, 14, 1526238504.455, 47, 0, 1024, 1024, 1024, 1024, 0, 6, 3991, 3980, 3991, 3989, 4013, 3987, 0, 1, 13001, -89.900, 0.000, 39.000, 0.000, 0.000, -2.900, 0.0, , , , , , 98, , , 47, 47, 47
37.7328492, -120.0946701, 22.900, 12:08:24.554, 19, 0.00, 0.23, 98, -1.600, 2.200, 40.100, 1191, 100, 99, 24, 23914, -17878, 5399, 5510, 10, 14, 1526238504.555, 29, 0, 1024, 1024, 1024, 1024, 0, 6, 3974, 3966, 3998, 3997, 4011, 3992, 0, 1, 13101, -89.900, 0.000, 39.000, 0.000, 0.000, -2.900, 0.0, , , , , , 98, , , 47, 47, 47
37.7328492, -120.0946701, 23.200, 12:08:24.654, 19, 0.00, 0.23, 98, -1.700, 2.200, 40.000, 1191, 100, 99, 24, 23914, -17878, 5399, 5510, 10, 14, 1526238504.655, 44, 0, 1024, 1024, 1024, 1024, 0, 6, 3974, 3966, 3998, 3997, 4011, 3992, 0, 1, 13201, -89.900, 0.000, 39.000, 0.000, 0.000, -2.900, 0.0, , , , , , 98, , , 47, 47, 47
37.7328493, -120.0946701, 23.500, 12:08:24.754, 19, 0.00, 0.23, 98, -1.800, 2.300, 39.900, 1191, 100, 99, 24, 23914, -17878, 5399, 5510, 10, 14, 1526238504.755, 21, 0, 1024, 1024, 1024, 1024, 0, 6, 3974, 3966, 3998, 3997, 4011, 3992, 0, 1, 13301, -89.900, 0.000, 39.100, 0.000, 0.000, -3.000, 0.0, , , , , , 98, , , 47, 47, 47
37.7328493, -120.0946702, 23.800, 12:08:24.854, 19, 0.00, 0.23, 98, -1.600, 2.400, 39.900, 1191, 100, 99, 24, 23914, -17878, 5399, 5510, 10, 14, 1526238504.855, 12, 0, 1024, 1024, 1024, 1024, 0, 6, 3974, 3966, 3998, 3997, 4011, 3992, 0, 1, 13401, -89.900, 0.000, 39.000, 0.000, 0.000, -3.000, 0.0, , , , , , 98, , , 47, 47, 47
37.7328493, -120.0946702, 24.100, 12:08:24.954, 19, 0.00, 0.24, 98, -1.400, 2.500, 39.900, 1191, 100, 99, 24, 23914, -17878, 5399, 5510, 10, 14, 1526238504.955, 16, 0, 1024, 1024, 1024, 1024, 0, 6, 3974, 3966, 3998, 3997, 4011, 3992, 0, 1, 13501, -89.900, 0.000, 39.000, 0.000, 0.000, -3.000, 0.0, , , , , , 98, , , 47, 47, 47
37.7328493, -120.0946703, 24.400, 12:08:25.060, 19, 0.00, 0.24, 98, -1.300, 2.500, 39.900, 1191, 100, 99, 24, 23914, -17878, 5399, 5510, 10, 14, 1526238505.060, 10, 0, 1024, 1024, 1024, 1024, 0, 6, 3974, 3966, 3998, 3997, 4011, 3992, 0, 1, 13607, -89.900, 0.000, 39.000, 0.000, 0.000, -3.000, 0.0, , , , , , 98, , , 47, 47, 47
37.7328493, -120.0946703, 24.700, 12:08:25.154, 19, 0.00, 0.24, 98, -1.300, 2.400, 40.000, 1191, 100, 98, 24, 23914, -17878, 5399, 5510, 10, 14, 1526238505.155, 13, 0, 1024, 1024, 1024, 1024, 0, 6, 3974, 3966, 3998, 3997, 4011, 3992, 0, 1, 13701, -89.900, 0.000, 39.000, 0.000, 0.000, -3.000, 0.0, , , , , , 98, , , 47, 47, 47
37.7328493, -120.0946703, 25.000, 12:08:25.254, 19, 0.00, 0.25, 98, -1.300, 2.300, 40.000, 1191, 100, 98, 24, 23914, -17878, 5399, 5510, 10, 14, 1526238505.254, 14, 0, 1024, 1024, 1024, 1024, 0, 6, 3974, 3966, 3998, 3997, 4011, 3992, 0, 1, 13801, -90.000, 0.000, 39.100, 0.000, 0.000, -3.000, 0.0, , , , , , 98, , , 47, 47, 47
37.7328493, -120.0946704, 25.300, 12:08:25.354, 19, 0.00, 0.25, 98, -1.300, 2.100, 40.100, 1191, 100, 98, 24, 23914, -17878, 5399, 5510, 10, 14, 1526238505.355, 26, 0, 1024, 1024, 1024, 1024, 0, 6, 3974, 3966, 3998, 3997, 4011, 3992, 0, 1, 13901, -90.000, 0.000, 39.000, 0.000, 0.000, -3.000, 0.0, , , , , , 98, , , 47, 47, 47
37.7328493, -120.0946704, 25.600, 12:08:25.453, 19, 0.00, 0.25, 98, -1.300, 2.100, 40.100, 1191, 100, 98, 24, 23911, -17753, 5399, 5510, 10, 14, 1526238505.454, 18, 0, 1024, 1024, 1024, 1024, 0, 6, 3974, 3966, 3998, 3997, 4011, 3992, 0, 1, 14000, -90.000, 0.000, 39.100, 0.000, 0.000, -3.000, 0.0, , , , , , 98, , , 47, 47, 47
37.7328492, -120.0946705, 25.900, 12:08:25.558, 19, 0.00, 0.25, 98, -1.400, 2.100, 40.100, 1191, 100, 98, 24, 23911, -17753, 5399, 5510, 10, 14, 1526238505.558, 8, 0, 1024, 1024, 1024, 1024, 0, 6, 3982, 3961, 3988, 3979, 3994, 3994, 0, 1, 14105, -90.000, 0.000, 39.100, 0.000, 0.000, -3.000, 0.0, , , , , , 98, , , 47, 47, 47
37.7328492, -120.0946705, 25.900, 12:08:25.654, 19, 0.00, 0.25, 98, -1.400, 2.100, 40.100, 1191, 100, 98, 24, 23911, -17753, 5399, 5510, 10, 14, 1526238505.655, 104, 0, 1024, 1024, 1024, 1024, 0, 6, 3982, 3961, 3988, 3979, 3994, 3994, 0, 1, 14201, -90.000, 0.000, 39.100, 0.000, 0.000, -3.000, 0.0, , , , , , 98, , , 47, 47, 47
37.7328493, -120.0946705, 26.200, 12:08:25.754, 19, 0.00, 0.25, 98, -1.400, 2.100, 40.000, 1191, 100, 98, 24, 23911, -17753, 5399, 5510, 10, 14, 1526238505.755, 95, 0, 1024, 1024, 1024, 1024, 0, 6, 3982, 3961, 3988, 3979, 3994, 3994, 0, 1, 14301, -89.900, 0.000, 39.000, 0.000, 0.000, -3.000, 0.0, , , , , , 98, , , 47, 47, 47
37.7328493, -120.0946705, 26.600, 12:08:25.854, 19, 0.00, 0.26, 98, -1.400, 2.200, 39.900, 1191, 100, 98, 24, 23911, -17753, 5399, 5510, 10, 14, 1526238505.855, 88, 0, 1024, 1024, 1024, 1024, 0, 6, 3982, 3961, 3988, 3979, 3994, 3994, 0, 1, 14401, -89.900, 0.000, 39.000, 0.000, 0.000, -3.000, 0.0, , , , , , 98, , , 47, 47, 47
37.7328493, -120.0946705, 26.800, 12:08:25.954, 19, 0.00, 0.26, 98, -1.300, 2.300, 39.900, 1191, 100, 98, 24, 23911, -17753, 5399, 5510, 10, 14, 1526238505.955, 90, 0, 1024, 1024, 1024, 1024, 0, 6, 3982, 3961, 3988, 3979, 3994, 3994, 0, 1, 14501, -89.900, 0.000, 39.000, 0.000, 0.000, -2.900, 0.0, , , , , , 98, , , 47, 47, 47
37.7328493, -120.0946706, 27.500, 12:08:26.054, 19, 0.00, 0.26, 98, -0.900, 2.300, 39.800, 1191, 100, 98, 24, 23911, -17753, 5399, 5510, 10, 14, 1526238506.054, 62, 0, 1024, 1024, 1024, 1024, 0, 6, 3982, 3961, 3988, 3979, 3994, 3994, 0, 1, 14601, -89.900, 0.000, 39.000, 0.000, 0.000, -3.000, 0.0, , , , , , 98, , , 47, 47, 47
37.7328493, -120.0946706, 27.800, 12:08:26.154, 19, 0.00, 0.26, 98, -1.200, 2.100, 39.700, 1191, 100, 98, 24, 23911, -17753, 5399, 5510, 10, 14, 1526238506.155, 45, 0, 1024, 1024, 1024, 1024, 0, 6, 3982, 3961, 3988, 3979, 3994, 3994, 0, 1, 14702, -90.000, 0.000, 39.100, 0.000, 0.000, -2.900, 0.0, , , , , , 98, , , 47, 47, 47
37.7328493, -120.0946705, 28.100, 12:08:26.254, 19, 0.10, 0.26, 98, -1.600, 2.600, 39.700, 1191, 100, 98, 24, 23911, -17753, 5399, 5510, 10, 14, 1526238506.255, 52, 0, 1024, 1024, 1024, 1024, 0, 6, 3982, 3961, 3988, 3979, 3994, 3994, 0, 1, 14801, -89.900, 0.000, 39.100, 0.000, 0.100, -2.900, 0.0, , , , , , 98, , , 47, 47, 47
37.7328493, -120.0946704, 28.300, 12:08:26.356, 19, 0.10, 0.25, 98, -1.900, 2.900, 39.600, 1191, 100, 98, 24, 23911, -17753, 5399, 5510, 10, 14, 1526238506.357, 33, 0, 1024, 1024, 1024, 1024, 0, 6, 3982, 3961, 3988, 3979, 3994, 3994, 0, 1, 14903, -89.900, 0.000, 39.100, 0.000, 0.100, -2.900, 0.0, , , , , , 98, , , 47, 47, 47
37.7328493, -120.0946704, 28.600, 12:08:26.454, 19, 0.10, 0.25, 98, -2.400, 3.000, 39.600, 1191, 100, 98, 24, 23911, -17753, 5399, 5510, 10, 14, 1526238506.455, 35, 0, 1024, 1024, 1024, 1024, 0, 6, 3982, 3961, 3988, 3979, 3994, 3994, 0, 1, 15001, -89.900, 0.000, 39.100, 0.000, 0.100, -2.900, 0.0, , , , , , 98, , , 47, 47, 47
37.7328493, -120.0946703, 29.000, 12:08:26.555, 19, 0.10, 0.24, 98, -2.800, 3.200, 39.600, 1191, 100, 98, 24, 23914, -17474, 5399, 5510, 10, 14, 1526238506.557, 18, 0, 1024, 1024, 1024, 1024, 0, 6, 3982, 3961, 3988, 3979, 3994, 3994, 0, 1, 15104, -89.900, 0.000, 39.100, 0.000, 0.100, -3.000, 0.0, , , , , , 98, , , 47, 47, 47
37.7328493, -120.0946702, 29.300, 12:08:26.654, 19, 0.10, 0.24, 98, -2.700, 3.500, 39.600, 1191, 100, 99, 24, 23914, -17474, 5399, 5510, 10, 14, 1526238506.655, 30, 0, 1024, 1024, 1024, 1024, 0, 6, 3982, 3961, 3988, 3979, 3994, 3994, 0, 1, 15201, -89.900, 0.000, 39.100, 0.000, 0.100, -3.000, 0.0, , , , , , 98, , , 47, 47, 47
37.7328493, -120.0946701, 29.600, 12:08:26.754, 19, 0.00, 0.24, 98, -2.500, 3.900, 39.600, 1191, 100, 99, 24, 23914, -17474, 5399, 5510, 10, 14, 1526238506.754, 31, 0, 1024, 1024, 1024, 1024, 0, 6, 3982, 3961, 3988, 3979, 3994, 3994, 0, 1, 15301, -89.900, 0.000, 39.100, 0.000, 0.000, -3.000, 0.0, , , , , , 98, , , 47, 47, 47
37.7328493, -120.0946700, 29.900, 12:08:26.854, 19, 0.00, 0.23, 98, -2.600, 3.800, 39.600, 1191, 100, 99, 24, 23914, -17474, 5399, 5510, 10, 14, 1526238506.855, 19, 0, 1024, 1024, 1024, 1024, 0, 6, 3982, 3961, 3988, 3979, 3994, 3994, 0, 1, 15401, -89.900, 0.000, 39.100, 0.000, 0.000, -3.100, 0.0, , , , , , 98, , , 47, 47, 47
37.7328493, -120.0946700, 30.200, 12:08:26.957, 19, 0.00, 0.23, 98, -2.600, 3.600, 39.800, 1191, 100, 99, 24, 23914, -17474, 5399, 5510, 10, 14, 1526238506.957, 14, 0, 1024, 1024, 1024, 1024, 0, 6, 3982, 3961, 3988, 3979, 3994, 3994, 0, 1, 15504, -89.900, 0.000, 39.100, 0.000, 0.000, -3.000, 0.0, , , , , , 98, , , 47, 47, 47
37.7328493, -120.0946700, 30.500, 12:08:27.054, 19, 0.00, 0.22, 98, -2.300, 3.300, 39.900, 1191, 100, 100, 24, 23914, -17474, 5399, 5510, 10, 14, 1526238507.055, 19, 0, 1024, 1024, 1024, 1024, 0, 6, 3982, 3961, 3988, 3979, 3994, 3994, 0, 1, 15601, -89.900, 0.000, 39.100, 0.000, 0.000, -2.900, 0.0, , , , , , 98, , , 47, 47, 47
37.7328493, -120.0946700, 30.500, 12:08:27.154, 19, 0.00, 0.22, 98, -2.300, 3.300, 39.900, 1191, 100, 100, 24, 23914, -17474, 5399, 5510, 10, 14, 1526238507.155, 119, 0, 1024, 1024, 1024, 1024, 0, 6, 3975, 3967, 3991, 3979, 3994, 3994, 0, 1, 15701, -89.900, 0.000, 39.100, 0.000, 0.000, -2.900, 0.0, , , , , , 98, , , 47, 47, 47
37.7328492, -120.0946700, 30.800, 12:08:27.254, 19, 0.00, 0.22, 98, -2.400, 3.100, 40.100, 1191, 100, 100, 24, 23914, -17474, 5399, 5510, 10, 14, 1526238507.255, 49, 0, 1024, 1024, 1024, 1024, 0, 6, 3975, 3967, 3991, 3979, 3994, 3994, 0, 1, 15802, -90.000, 0.000, 39.100, 0.000, 0.000, -2.900, 0.0, , , , , , 98, , , 47, 47, 47
37.7328492, -120.0946700, 31.100, 12:08:27.354, 19, 0.00, 0.21, 98, -2.400, 2.700, 40.200, 1191, 100, 100, 24, 23914, -17474, 5399, 5510, 10, 14, 1526238507.355, 83, 0, 1024, 1024, 1024, 1024, 0, 6, 3975, 3967, 3991, 3979, 3994, 3994, 0, 1, 15901, -90.000, 0.000, 39.100, 0.000, 0.000, -2.800, 0.0, , , , , , 98, , , 47, 47, 47
37.7328491, -120.0946700, 31.400, 12:08:27.454, 19, 0.00, 0.21, 98, -2.200, 2.200, 40.300, 1191, 100, 100, 24, 23914, -17474, 5399, 5510, 10, 14, 1526238507.455, 51, 0, 1024, 1024, 1024, 1024, 0, 6, 3975, 3967, 3991, 3979, 3994, 3994, 0, 1, 16001, -90.000, 0.000, 39.100, 0.000, 0.000, -2.800, 0.0, , , , , , 98, , , 47, 47, 47
37.7328490, -120.0946700, 31.700, 12:08:27.554, 19, 0.00, 0.21, 98, -2.300, 1.900, 40.400, 1191, 100, 100, 24, 23914, -17474, 5399, 5510, 10, 14, 1526238507.554, 70, 0, 1024, 1024, 1024, 1024, 0, 6, 3975, 3967, 3991, 3979, 3994, 3994, 0, 1, 16101, -90.000, 0.000, 39.100, 0.000, 0.000, -2.800, 0.0, , , , , , 98, , , 47, 47, 47
37.7328489, -120.0946700, 32.000, 12:08:27.654, 19, 0.00, 0.20, 98, -2.700, 1.800, 40.300, 1191, 100, 100, 24, 23914, -17474, 5399, 5510, 10, 14, 1526238507.655, 79, 0, 1024, 1024, 1024, 1024, 0, 6, 3975, 3967, 3991, 3979, 3994, 3994, 0, 1, 16201, -89.900, 0.000, 39.100, 0.000, 0.000, -2.900, 0.0, , , , , , 98, , , 47, 47, 47
37.7328488, -120.0946700, 32.400, 12:08:27.754, 19, 0.00, 0.19, 98, -2.900, 2.100, 40.300, 1191, 100, 100, 24, 23914, -17474, 5399, 5510, 10, 14, 1526238507.755, 91, 0, 1024, 1024, 1024, 1024, 0, 6, 3975, 3967, 3991, 3979, 3994, 3994, 0, 1, 16301, -90.000, 0.000, 39.100, 0.000, 0.000, -3.100, 0.0, , , , , , 98, , , 47, 47, 47
37.7328487, -120.0946700, 32.700, 12:08:27.854, 19, 0.00, 0.19, 98, -2.900, 2.000, 40.300, 1191, 100, 100, 24, 23914, -17474, 5399, 5510, 10, 14, 1526238507.855, 78, 0, 1024, 1024, 1024, 1024, 0, 6, 3975, 3967, 3991, 3979, 3994, 3994, 0, 1, 16401, -90.000, 0.000, 39.100, 0.000, 0.000, -3.000, 0.0, , , , , , 98, , , 47, 47, 47
37.7328486, -120.0946700, 33.000, 12:08:27.954, 19, 0.10, 0.18, 98, -3.100, 1.500, 40.300, 1191, 100, 100, 24, 23914, -17474, 5399, 5510, 10, 14, 1526238507.954, 72, 0, 1024, 1024, 1024, 1024, 0, 6, 3975, 3967, 3991, 3979, 3994, 3994, 0, 1, 16501, -90.000, 0.000, 39.100, -0.100, 0.000, -2.900, 0.0, , , , , , 98, , , 47, 47, 47
37.7328483, -120.0946700, 33.600, 12:08:28.054, 19, 0.10, 0.17, 98, -3.300, 0.800, 40.400, 1191, 100, 100, 24, 23846, -17987, 5399, 5510, 10, 14, 1526238508.055, 64, 0, 1024, 1024, 1024, 1024, 0, 6, 3966, 3956, 3980, 3975, 3985, 3984, 0, 1, 16601, -90.000, 0.000, 39.100, -0.100, 0.000, -2.900, 0.0, , , , , , 98, , , 47, 47, 47
37.7328483, -120.0946700, 33.600, 12:08:28.154, 19, 0.10, 0.17, 98, -3.300, 0.800, 40.400, 1191, 100, 100, 24, 23846, -17987, 5399, 5510, 10, 14, 1526238508.155, 164, 0, 1024, 1024, 1024, 1024, 0, 6, 3966, 3956, 3980, 3975, 3985, 3984, 0, 1, 16701, -90.000, 0.000, 39.100, -0.100, 0.000, -2.900, 0.0, , , , , , 98, , , 47, 47, 47
37.7328480, -120.0946701, 34.200, 12:08:28.254, 19, 0.10, 0.17, 98, -3.600, 0.300, 40.300, 1191, 100, 100, 24, 23846, -17987, 5399, 5510, 10, 14, 1526238508.255, 34, 0, 1024, 1024, 1024, 1024, 0, 6, 3966, 3956, 3980, 3975, 3985, 3984, 0, 1, 16801, -90.000, 0.000, 39.100, -0.100, 0.000, -2.900, 0.0, , , , , , 98, , , 47, 47, 47
37.7328478, -120.0946701, 34.500, 12:08:28.354, 19, 0.10, 0.17, 98, -3.800, 0.000, 40.300, 1191, 100, 100, 24, 23846, -17987, 5399, 5510, 10, 14, 1526238508.355, 63, 0, 1024, 1024, 1024, 1024, 0, 6, 3966, 3956, 3980, 3975, 3985, 3984, 0, 1, 16901, -90.000, 0.000, 39.100, -0.100, 0.000, -2.900, 0.0, , , , , , 98, , , 47, 47, 47
37.7328477, -120.0946702, 34.800, 12:08:28.454, 19, 0.10, 0.17, 98, -4.000, -0.200, 40.300, 1191, 100, 100, 24, 23846, -17987, 5399, 5510, 10, 14, 1526238508.455, 61, 0, 1024, 1024, 1024, 1024, 0, 6, 3966, 3956, 3980, 3975, 3985, 3984, 0, 1, 17002, -89.900, 0.000, 39.100, -0.100, 0.000, -2.900, 0.0, , , , , , 98, , , 47, 47, 47
37.7328475, -120.0946701, 35.100, 12:08:28.554, 19, 0.10, 0.17, 98, -4.500, -0.300, 40.200, 1191, 100, 100, 24, 23846, -17987, 5399, 5510, 10, 14, 1526238508.555, 33, 0, 1024, 1024, 1024, 1024, 0, 6, 3966, 3956, 3980, 3975, 3985, 3984, 0, 1, 17101, -89.900, 0.000, 39.100, -0.100, 0.000, -2.900, 0.0, , , , , , 98, , , 47, 47, 47
37.7328473, -120.0946701, 35.400, 12:08:28.654, 19, 0.10, 0.18, 98, -5.000, -0.200, 40.200, 1191, 100, 99, 24, 23846, -17987, 5399, 5510, 10, 14, 1526238508.655, 68, 0, 1024, 1024, 1024, 1024, 0, 6, 3966, 3956, 3980, 3975, 3985, 3984, 0, 1, 17201, -89.900, 0.000, 39.100, -0.100, 0.000, -2.900, 0.0, , , , , , 98, , , 47, 47, 47
37.7328471, -120.0946700, 35.700, 12:08:28.754, 19, 0.10, 0.18, 98, -5.400, -0.100, 40.300, 1191, 100, 99, 24, 23846, -17987, 5399, 5510, 10, 14, 1526238508.755, 59, 0, 1024, 1024, 1024, 1024, 0, 6, 3966, 3956, 3980, 3975, 3985, 3984, 0, 1, 17301, -89.900, 0.000, 39.100, -0.100, 0.000, -2.800, 0.0, , , , , , 98, , , 47, 47, 47
37.7328470, -120.0946700, 36.000, 12:08:28.854, 19, 0.00, 0.18, 98, -5.400, 0.000, 40.300, 1191, 100, 99, 24, 23846, -17987, 5399, 5510, 10, 14, 1526238508.855, 53, 0, 1024, 1024, 1024, 1024, 0, 6, 3966, 3956, 3980, 3975, 3985, 3984, 0, 1, 17401, -89.900, 0.000, 39.100, 0.000, 0.000, -2.900, 0.0, , , , , , 98, , , 47, 47, 47
37.7328468, -120.0946700, 36.300, 12:08:28.954, 19, 0.00, 0.19, 98, -5.200, -0.100, 40.300, 1191, 100, 99, 24, 23846, -17987, 5399, 5510, 10, 14, 1526238508.955, 54, 0, 1024, 1024, 1024, 1024, 0, 6, 3966, 3956, 3980, 3975, 3985, 3984, 0, 1, 17501, -90.000, 0.000, 39.100, 0.000, 0.000, -2.800, 0.0, , , , , , 98, , , 47, 47, 47
37.7328467, -120.0946700, 36.600, 12:08:29.054, 19, 0.00, 0.20, 97, -5.000, -0.400, 40.300, 1191, 100, 99, 24, 23710, -19148, 5344, 5510, 10, 14, 1526238509.055, 22, 0, 1024, 1024, 1024, 1024, 0, 6, 3950, 3939, 3947, 3950, 3976, 3954, 0, 1, 17601, -90.000, 0.000, 39.100, 0.000, 0.000, -2.800, 0.0, , , , , , 98, , , 47, 47, 47
37.7328466, -120.0946700, 36.800, 12:08:29.154, 19, 0.00, 0.21, 97, -4.600, -0.600, 40.100, 1191, 100, 99, 24, 23710, -19148, 5344, 5510, 10, 14, 1526238509.155, 29, 0, 1024, 1024, 1024, 1024, 0, 6, 3950, 3939, 3947, 3950, 3976, 3954, 0, 1, 17701, -90.000, 0.000, 39.100, 0.000, 0.000, -2.800, 0.0, , , , , , 98, , , 47, 47, 47
37.7328465, -120.0946700, 37.100, 12:08:29.254, 19, 0.00, 0.21, 97, -4.600, -0.800, 40.000, 1191, 100, 99, 24, 23710, -19148, 5344, 5510, 10, 14, 1526238509.255, 18, 0, 1024, 1024, 1024, 1024, 0, 6, 3950, 3939, 3947, 3950, 3976, 3954, 0, 1, 17801, -90.000, 0.000, 39.100, 0.000, 0.000, -2.800, 0.0, , , , , , 98, , , 47, 47, 47
37.7328465, -120.0946701, 37.400, 12:08:29.354, 19, 0.00, 0.22, 97, -4.400, -0.900, 39.800, 1191, 100, 99, 24, 23710, -19148, 5344, 5510, 10, 14, 1526238509.355, 35, 0, 1024, 1024, 1024, 1024, 0, 6, 3950, 3939, 3947, 3950, 3976, 3954, 0, 1, 17901, -89.900, 0.000, 39.100, 0.000, 0.000, -2.800, 0.0, , , , , , 98, , , 47, 47, 47
37.7328465, -120.0946701, 37.600, 12:08:29.458, 19, 0.00, 0.22, 97, -4.000, -0.800, 39.600, 1191, 100, 99, 24, 23710, -19148, 5344, 5510, 10, 14, 1526238509.458, 5, 0, 1024, 1024, 1024, 1024, 0, 6, 3950, 3939, 3947, 3950, 3976, 3954, 0, 1, 18005, -89.900, 0.000, 39.100, 0.000, 0.000, -2.800, 0.0, , , , , , 98, , , 47, 47, 47
37.7328465, -120.0946701, 37.900, 12:08:29.554, 19, 0.00, 0.22, 97, -3.700, -0.200, 39.400, 1191, 100, 100, 24, 23710, -19148, 5344, 5510, 10, 14, 1526238509.554, 8, 0, 1024, 1024, 1024, 1024, 0, 6, 3950, 3939, 3947, 3950, 3976, 3954, 0, 1, 18101, -89.900, 0.000, 39.100, 0.000, 0.000, -2.900, 0.0, , , , , , 98, , , 47, 47, 47
37.7328465, -120.0946700, 38.200, 12:08:29.654, 19, 0.00, 0.22, 97, -3.900, 0.400, 39.500, 1191, 100, 100, 24, 23710, -19148, 5344, 5510, 10, 14, 1526238509.655, 16, 0, 1024, 1024, 1024, 1024, 0, 6, 3950, 3939, 3947, 3950, 3976, 3954, 0, 1, 18201, -89.900, 0.000, 39.100, 0.000, 0.000, -3.000, 0.0, , , , , , 98, , , 47, 47, 47
37.7328465, -120.0946700, 38.200, 12:08:29.754, 19, 0.00, 0.22, 97, -3.900, 0.400, 39.500, 1191, 100, 100, 24, 23710, -19148, 5344, 5510, 10, 14, 1526238509.755, 117, 0, 1024, 1024, 1024, 1024, 0, 6, 3950, 3939, 3947, 3950, 3976, 3954, 0, 1, 18301, -89.900, 0.000, 39.100, 0.000, 0.000, -3.000, 0.0, , , , , , 98, , , 47, 47, 47
37.7328466, -120.0946700, 38.800, 12:08:29.855, 19, 0.00, 0.21, 97, -4.200, 1.200, 39.600, 1191, 100, 100, 24, 23710, -19148, 5344, 5510, 10, 14, 1526238509.856, 7, 0, 1024, 1024, 1024, 1024, 0, 6, 3950, 3939, 3947, 3950, 3976, 3954, 0, 1, 18402, -89.900, 0.000, 39.100, 0.000, 0.000, -3.000, 0.0, , , , , , 98, , , 47, 47, 47
37.7328466, -120.0946700, 38.800, 12:08:29.954, 19, 0.00, 0.21, 97, -4.200, 1.200, 39.600, 1191, 100, 100, 24, 23710, -19148, 5344, 5510, 10, 14, 1526238509.955, 107, 0, 1024, 1024, 1024, 1024, 0, 6, 3950, 3939, 3947, 3950, 3976, 3954, 0, 1, 18501, -89.900, 0.000, 39.100, 0.000, 0.000, -3.000, 0.0, , , , , , 98, , , 47, 47, 47
37.7328466, -120.0946699, 39.100, 12:08:30.054, 19, 0.00, 0.20, 97, -4.200, 1.300, 39.700, 1191, 100, 100, 24, 23688, -19127, 5344, 5510, 10, 14, 1526238510.055, 73, 0, 1024, 1024, 1024, 1024, 0, 6, 3941, 3930, 3947, 3937, 3963, 3959, 0, 1, 18601, -89.900, 0.000, 39.100, 0.000, 0.000, -3.000, 0.0, , , , , , 98, , , 47, 47, 47
37.7328466, -120.0946699, 39.400, 12:08:30.154, 19, 0.00, 0.20, 97, -4.200, 1.300, 40.000, 1191, 100, 100, 24, 23688, -19127, 5344, 5510, 10, 14, 1526238510.155, 87, 0, 1024, 1024, 1024, 1024, 0, 6, 3941, 3930, 3947, 3937, 3963, 3959, 0, 1, 18701, -89.900, 0.000, 39.100, 0.000, 0.000, -3.000, 0.0, , , , , , 98, , , 47, 47, 47
37.7328467, -120.0946698, 39.600, 12:08:30.254, 19, 0.00, 0.19, 97, -4.100, 1.200, 40.100, 1191, 100, 100, 24, 23688, -19127, 5344, 5510, 10, 14, 1526238510.255, 87, 0, 1024, 1024, 1024, 1024, 0, 6, 3941, 3930, 3947, 3937, 3963, 3959, 0, 1, 18801, -90.000, 0.000, 39.100, 0.000, 0.000, -3.000, 0.0, , , , , , 98, , , 47, 47, 47
37.7328467, -120.0946698, 39.900, 12:08:30.354, 19, 0.00, 0.18, 97, -4.100, 1.000, 40.100, 1191, 100, 100, 24, 23688, -19127, 5344, 5510, 10, 14, 1526238510.355, 89, 0, 1024, 1024, 1024, 1024, 0, 6, 3941, 3930, 3947, 3937, 3963, 3959, 0, 1, 18901, -89.900, 0.000, 39.100, 0.000, 0.000, -3.000, 0.0, , , , , , 98, , , 47, 47, 47
37.7328468, -120.0946698, 40.200, 12:08:30.453, 19, 0.00, 0.18, 97, -4.000, 1.000, 40.100, 1191, 100, 100, 24, 23688, -19127, 5344, 5510, 10, 14, 1526238510.454, 63, 0, 1024, 1024, 1024, 1024, 0, 6, 3941, 3930, 3947, 3937, 3963, 3959, 0, 1, 19000, -89.900, 0.000, 39.100, 0.000, 0.000, -3.100, 0.0, , , , , , 98, , , 47, 47, 47
37.7328470, -120.0946697, 40.800, 12:08:30.554, 19, 0.10, 0.16, 97, -3.900, 1.500, 40.000, 1191, 100, 100, 24, 23688, -19127, 5344, 5510, 10, 14, 1526238510.555, 58, 0, 1024, 1024, 1024, 1024, 0, 6, 3941, 3930, 3947, 3937, 3963, 3959, 0, 1, 19101, -89.900, 0.000, 39.100, 0.100, 0.000, -3.100, 0.0, , , , , , 98, , , 47, 47, 47
37.7328470, -120.0946697, 41.100, 12:08:30.653, 19, 0.00, 0.15, 97, -3.700, 1.500, 40.000, 1191, 100, 100, 24, 23688, -19127, 5344, 5510, 10, 14, 1526238510.654, 59, 0, 1024, 1024, 1024, 1024, 0, 6, 3941, 3930, 3947, 3937, 3963, 3959, 0, 1, 19200, -89.900, 0.000, 39.100, 0.000, 0.000, -3.000, 0.0, , , , , , 98, , , 47, 47, 47
37.7328471, -120.0946697, 41.400, 12:08:30.754, 19, 0.00, 0.15, 97, -3.800, 1.400, 40.100, 1191, 100, 100, 24, 23688, -19127, 5344, 5510, 10, 14, 1526238510.755, 62, 0, 1024, 1024, 1024, 1024, 0, 6, 3941, 3930, 3947, 3937, 3963, 3959, 0, 1, 19301, -89.900, 0.000, 39.100, 0.000, 0.000, -3.000, 0.0, , , , , , 98, , , 47, 47, 47
37.7328472, -120.0946697, 41.700, 12:08:30.854, 19, 0.00, 0.14, 97, -3.700, 1.300, 40.200, 1191, 100, 100, 24, 23688, -19127, 5344, 5510, 10, 14, 1526238510.855, 64, 0, 1024, 1024, 1024, 1024, 0, 6, 3941, 3930, 3947, 3937, 3963, 3959, 0, 1, 19401, -89.900, 0.000, 39.100, 0.000, 0.000, -3.000, 0.0, , , , , , 98, , , 47, 47, 47
37.7328473, -120.0946697, 42.000, 12:08:30.954, 19, 0.00, 0.14, 97, -3.600, 1.300, 40.300, 1191, 100, 100, 24, 23688, -19127, 5344, 5510, 10, 14, 1526238510.955, 55, 0, 1024, 1024, 1024, 1024, 0, 6, 3941, 3930, 3947, 3937, 3963, 3959, 0, 1, 19501, -89.900, 0.000, 39.100, 0.000, 0.000, -3.100, 0.0, , , , , , 98, , , 47, 47, 47
37.7328473, -120.0946697, 42.000, 12:08:31.054, 19, 0.00, 0.14, 97, -3.600, 1.300, 40.300, 1191, 100, 100, 24, 23659, -19260, 5344, 5510, 10, 14, 1526238511.054, 155, 0, 1024, 1024, 1024, 1024, 0, 6, 3941, 3930, 3947, 3937, 3963, 3959, 0, 1, 19601, -89.900, 0.000, 39.100, 0.000, 0.000, -3.100, 0.0, , , , , , 98, , , 47, 47, 47
37.7328474, -120.0946697, 42.600, 12:08:31.154, 19, 0.00, 0.14, 97, -3.800, 1.600, 40.200, 1191, 100, 100, 24, 23659, -19260, 5344, 5510, 10, 14, 1526238511.155, 65, 0, 1024, 1024, 1024, 1024, 0, 6, 3941, 3930, 3947, 3937, 3963, 3959, 0, 1, 19702, -89.900, 0.000, 39.100, 0.000, 0.000, -3.100, 0.0, , , , , , 98, , , 47, 47, 47
37.7328475, -120.0946697, 42.900, 12:08:31.254, 19, 0.00, 0.14, 97, -3.700, 1.500, 40.100, 1191, 100, 100, 24, 23659, -19260, 5344, 5510, 10, 14, 1526238511.255, 51, 0, 1024, 1024, 1024, 1024, 0, 6, 3937, 3932, 3954, 3937, 3965, 3954, 0, 1, 19801, -89.900, 0.000, 39.100, 0.000, 0.000, -3.100, 0.0, , , , , , 98, , , 47, 47, 47
37.7328475, -120.0946698, 43.300, 12:08:31.354, 19, 0.00, 0.14, 97, -3.500, 0.900, 40.100, 1191, 100, 100, 24, 23659, -19260, 5344, 5510, 10, 14, 1526238511.354, 29, 0, 1024, 1024, 1024, 1024, 0, 6, 3937, 3932, 3954, 3937, 3965, 3954, 0, 1, 19901, -90.000, 0.000, 39.100, 0.000, 0.000, -3.100, 0.0, , , , , , 98, , , 47, 47, 47
37.7328476, -120.0946699, 43.600, 12:08:31.454, 19, 0.00, 0.15, 97, -3.100, 0.300, 40.100, 1191, 100, 100, 24, 23659, -19260, 5344, 5510, 10, 14, 1526238511.455, 36, 0, 1024, 1024, 1024, 1024, 0, 6, 3937, 3932, 3954, 3937, 3965, 3954, 0, 1, 20001, -90.000, 0.000, 39.100, 0.000, 0.000, -3.100, 0.0, , , , , , 98, , , 47, 47, 47
37.7328477, -120.0946700, 43.900, 12:08:31.554, 19, 0.00, 0.16, 97, -2.800, 0.200, 40.100, 1191, 100, 100, 24, 23659, -19260, 5344, 5510, 10, 14, 1526238511.554, 14, 0, 1024, 1024, 1024, 1024, 0, 6, 3937, 3932, 3954, 3937, 3965, 3954, 0, 1, 20101, -90.000, 0.000, 39.100, 0.000, 0.000, -3.000, 0.0, , , , , , 98, , , 47, 47, 47
37.7328477, -120.0946701, 44.200, 12:08:31.654, 19, 0.00, 0.17, 97, -2.600, 0.300, 40.000, 1191, 100, 100, 24, 23659, -19260, 5344, 5510, 10, 14, 1526238511.654, 15, 0, 1024, 1024, 1024, 1024, 0, 6, 3937, 3932, 3954, 3937, 3965, 3954, 0, 1, 20201, -89.900, 0.000, 39.100, 0.000, 0.000, -3.000, 0.0, , , , , , 98, , , 47, 47, 47
37.7328478, -120.0946702, 44.500, 12:08:31.754, 19, 0.00, 0.17, 97, -2.500, 0.500, 39.900, 1191, 100, 100, 24, 23659, -19260, 5344, 5510, 10, 14, 1526238511.755, 19, 0, 1024, 1024, 1024, 1024, 0, 6, 3937, 3932, 3954, 3937, 3965, 3954, 0, 1, 20301, -89.900, 0.000, 39.100, 0.000, 0.000, -3.000, 0.0, , , , , , 98, , , 47, 47, 47
37.7328479, -120.0946702, 44.800, 12:08:31.855, 19, 0.00, 0.18, 97, -2.700, 0.900, 39.900, 1191, 100, 100, 24, 23659, -19260, 5344, 5510, 10, 14, 1526238511.856, 12, 0, 1024, 1024, 1024, 1024, 0, 6, 3937, 3932, 3954, 3937, 3965, 3954, 0, 1, 20402, -89.900, 0.000, 39.100, 0.000, 0.000, -3.000, 0.0, , , , , , 98, , , 47, 47, 47
37.7328479, -120.0946702, 45.100, 12:08:31.954, 19, 0.00, 0.18, 97, -2.900, 1.000, 39.900, 1191, 100, 100, 24, 23750, -18049, 5344, 5510, 10, 14, 1526238511.955, 8, 0, 1024, 1024, 1024, 1024, 0, 6, 3937, 3932, 3954, 3937, 3965, 3954, 0, 1, 20501, -90.000, 0.000, 39.100, 0.000, 0.000, -3.000, 0.0, , , , , , 98, , , 47, 47, 47
37.7328480, -120.0946703, 45.400, 12:08:32.055, 19, 0.00, 0.18, 97, -3.200, 0.800, 39.900, 1191, 100, 100, 24, 23750, -18049, 5344, 5510, 10, 14, 1526238512.056, 13, 0, 1024, 1024, 1024, 1024, 0, 6, 3937, 3932, 3954, 3937, 3965, 3954, 0, 1, 20603, -90.000, 0.000, 39.100, 0.000, 0.000, -3.000, 0.0, , , , , , 98, , , 47, 47, 47
37.7328480, -120.0946703, 45.400, 12:08:32.154, 19, 0.00, 0.18, 97, -3.200, 0.800, 39.900, 1191, 100, 100, 24, 23750, -18049, 5344, 5510, 10, 14, 1526238512.155, 112, 0, 1024, 1024, 1024, 1024, 0, 6, 3937, 3932, 3954, 3937, 3965, 3954, 0, 1, 20702, -90.000, 0.000, 39.100, 0.000, 0.000, -3.000, 0.0, , , , , , 98, , , 47, 47, 47
37.7328480, -120.0946703, 46.100, 12:08:32.257, 19, 0.00, 0.18, 97, -3.600, 0.500, 39.900, 1191, 100, 100, 24, 23750, -18049, 5344, 5510, 10, 14, 1526238512.257, 7, 0, 1024, 1024, 1024, 1024, 0, 6, 3937, 3932, 3954, 3937, 3965, 3954, 0, 1, 20804, -89.900, 0.000, 39.100, 0.000, 0.000, -3.000, 0.0, , , , , , 98, , , 47, 47, 47
