latitude,longitude,altitude(feet),ascent(feet),speed(mph),distance(feet),time(millisecond),datetime(utc),satellites,gpslevel,voltage(v),max_altitude(feet),max_ascent(feet),max_speed(mph),max_distance(feet), xSpeed(mph), ySpeed(mph), zSpeed(mph), compass_heading(degrees), pitch(degrees), roll(degrees),isPhoto,isVideo,rc_elevator,rc_aileron,rc_throttle,rc_rudder,gimbal_heading(degrees),gimbal_pitch(degrees),battery_percent,voltageCell1,voltageCell2,voltageCell3,voltageCell4,voltageCell5,voltageCell6,current(A),battery_temperature(f),flycStateRaw,flycState,message
37.7328382,-120.0946514,3056.3379498369,0,0.223694,0,2850,2018-05-13 18:49:38,15,0,0,3056.3379498369,0,0.223694,0,0,0,0,31.4, -0.3, 0.9,1,0,1024,1024,1024,1024,28.6,-90,100,4.297,4.275,4.279,4.282,4.274,4.29,0,78.8,11,AutoTakeoff,DJI_0800.jpg Starting Mission from Lat/Long: 37.73283/-120.09467 Camera: Zenmuse X3 - Overlap: 90/90 - Active Connection: No
37.7328383,-120.0946514,3056.3379498369,0,0.223694,0.036484909304,2900,2018-05-13 18:49:39,15,0,0,3056.3379498369,0,0.223694,0.036484909304,0,0,0,31.8, -0.1, 1,0,0,1024,1024,1024,1024,28.7,-89.9,100,4.297,4.275,4.279,4.282,4.274,4.29,0,78.8,11,AutoTakeoff,
37.7328384,-120.0946514,3056.3379498369,0,0.223694,0.072969818608,3000,2018-05-13 18:49:39,15,0,25.781,3056.3379498369,0,0.223694,0.072969818608,0,0,0,31.9, 0, 0.8,0,0,1024,1024,1024,1024,28.8,-89.9,100,4.297,4.275,4.279,4.282,4.274,4.29,3.264,78.8,11,AutoTakeoff,
37.7328385,-120.0946514,3056.3379498369,0,0.223694,0.109454727912,3100,2018-05-13 18:49:39,14,0,25.781,3056.3379498369,0,0.223694,0.109454727912,0,0,0,31.7, 0.6, 0.4,0,0,1024,1024,1024,1024,28.8,-89.9,100,4.297,4.275,4.279,4.282,4.274,4.29,3.264,78.8,11,AutoTakeoff,
37.7328386,-120.0946512,3056.3379498369,0,0.223694,0.15693570056,3200,2018-05-13 18:49:39,14,0,25.781,3056.3379498369,0,0.223694,0.15693570056,0,0,0,31.4, 0.9, 0.1,0,0,1024,1024,1024,1024,28.8,-89.9,100,4.297,4.275,4.279,4.282,4.274,4.29,3.264,78.8,11,AutoTakeoff,
37.7328387,-120.0946511,3056.6660338369,0.328084,0.223694,0.201921266304,3300,2018-05-13 18:49:39,14,0,25.781,3056.6660338369,0.328084,0.223694,0.201921266304,0,0,0,31.1, 1, 0,0,0,1024,1024,1024,1024,28.9,-89.9,100,4.297,4.275,4.279,4.282,4.274,4.29,3.264,78.8,11,AutoTakeoff,
37.7328388,-120.094651,3056.6660338369,0.328084,0.223694,0.247473433116,3400,2018-05-13 18:49:39,14,0,25.781,3056.6660338369,0.328084,0.223694,0.247473433116,0,0,0,30.8, 1.2, 0,0,0,1024,1024,1024,1024,28.9,-89.9,100,4.297,4.275,4.279,4.282,4.274,4.29,3.264,78.8,11,AutoTakeoff,
37.732839,-120.0946509,3056.9941178369,0.656168,0.223694,0.325589905432,3500,2018-05-13 18:49:39,15,0,25.781,3056.9941178369,0.656168,0.223694,0.325589905432,0,0,0,30.6, 1.2, 0,0,0,1024,1024,1024,1024,29,-89.9,100,4.297,4.275,4.279,4.282,4.274,4.29,3.264,78.8,11,AutoTakeoff,
37.7328391,-120.0946509,3056.9941178369,0.656168,0.223694,0.3586614288,3600,2018-05-13 18:49:39,15,0,25.781,3056.9941178369,0.656168,0.223694,0.3586614288,0,0,0,30.5, 1.4, -0.1,0,0,1024,1024,1024,1024,29,-89.9,100,4.297,4.275,4.279,4.282,4.274,4.29,3.264,78.8,11,AutoTakeoff,
37.7328394,-120.0946506,3057.3222018369,0.984252,0.223694,0.4949475224,3700,2018-05-13 18:49:39,14,0,25.781,3057.3222018369,0.984252,0.223694,0.4949475224,0,0,0,30.5, 2, 0,0,0,1024,1024,1024,1024,29,-89.9,100,4.297,4.275,4.279,4.282,4.274,4.29,3.264,78.8,11,AutoTakeoff,
37.7328396,-120.0946506,3057.6502858369,1.312336,0.223694,0.56052823316,3900,2018-05-13 18:49:39,13,0,25.781,3057.6502858369,1.312336,0.223694,0.56052823316,0,0,0,30.4, 2.9, -0.2,0,0,1024,1024,1024,1024,29.1,-89.9,100,4.297,4.275,4.279,4.282,4.274,4.29,3.264,78.8,11,AutoTakeoff,
37.7328397,-120.0946505,3057.6502858369,1.312336,0,0.60576445508,4000,2018-05-13 18:49:40,13,0,25.017,3057.6502858369,1.312336,0.223694,0.60576445508,0,0,0,30.4, 2.9, 0,0,0,1024,1024,1024,1024,29.1,-89.9,100,4.144,4.151,4.129,4.12,4.121,4.152,11.755,78.8,11,AutoTakeoff,
37.7328398,-120.0946505,3057.9783698369,1.64042,0,0.63891734328,4100,2018-05-13 18:49:40,13,0,25.017,3057.9783698369,1.64042,0.223694,0.63891734328,0,0,-0.223694,30.5, 2.9, 0,0,0,1024,1024,1024,1024,29.2,-89.9,100,4.144,4.151,4.129,4.12,4.121,4.152,11.755,78.8,11,AutoTakeoff,
37.7328399,-120.0946505,3058.3064538369,1.968504,0,0.67241800052,4200,2018-05-13 18:49:40,14,0,25.017,3058.3064538369,1.968504,0.223694,0.67241800052,0,0,-0.223694,30.6, 3, 0,0,0,1024,1024,1024,1024,29.2,-89.9,100,4.144,4.151,4.129,4.12,4.121,4.152,11.755,78.8,11,AutoTakeoff,
37.7328399,-120.0946505,3058.3064538369,1.968504,0,0.67241800052,4300,2018-05-13 18:49:40,14,0,25.017,3058.3064538369,1.968504,0.223694,0.67241800052,0,0,-0.223694,30.6, 3.1, 0,0,0,1024,1024,1024,1024,29.3,-89.9,100,4.144,4.151,4.129,4.12,4.121,4.152,11.755,78.8,11,AutoTakeoff,
37.73284,-120.0946504,3058.6345378369,2.296588,0,0.7173228576,4400,2018-05-13 18:49:40,14,0,25.017,3058.6345378369,2.296588,0.223694,0.7173228576,0,0,-0.223694,30.7, 3.2, 0,0,0,1024,1024,1024,1024,29.3,-89.9,100,4.144,4.151,4.129,4.12,4.121,4.152,11.755,78.8,11,AutoTakeoff,
37.7328402,-120.0946504,3058.6345378369,2.296588,0,0.7846785028,4500,2018-05-13 18:49:40,14,0,25.017,3058.6345378369,2.296588,0.223694,0.7846785028,0,0,-0.223694,30.8, 3.2, 0,0,0,1024,1024,1024,1024,29.3,-89.9,100,4.144,4.151,4.129,4.12,4.121,4.152,11.755,78.8,11,AutoTakeoff,
37.7328402,-120.0946504,3058.9626218369,2.624672,0,0.7846785028,4610,2018-05-13 18:49:40,15,0,25.017,3058.9626218369,2.624672,0.223694,0.7846785028,0,0,-0.223694,30.9, 3.3, 0,0,0,1024,1024,1024,1024,29.3,-89.9,100,4.144,4.151,4.129,4.12,4.121,4.152,11.755,78.8,11,AutoTakeoff,
37.7328402,-120.0946504,3058.9626218369,2.624672,0,0.7846785028,4800,2018-05-13 18:49:40,15,0,25.017,3058.9626218369,2.624672,0.223694,0.7846785028,0,0,0,30.9, 3.4, -0.1,0,0,1024,1024,1024,1024,29.4,-89.9,100,4.144,4.151,4.129,4.12,4.121,4.152,11.755,78.8,11,AutoTakeoff,
37.7328402,-120.0946504,3059.2907058369,2.952756,0,0.7846785028,4900,2018-05-13 18:49:40,15,0,25.017,3059.2907058369,2.952756,0.223694,0.7846785028,0,0,0,30.8, 3.3, 0,0,0,1024,1024,1024,1024,29.4,-89.9,100,4.144,4.151,4.129,4.12,4.121,4.152,11.755,78.8,6,P-GPS,
37.7328402,-120.0946503,3059.2907058369,2.952756,0,0.79574149528,5000,2018-05-13 18:49:41,15,0,24.65,3059.2907058369,2.952756,0.223694,0.79574149528,0,0,0,30.8, 3.2, -0.2,0,0,1024,1024,1024,1024,29.4,-89.9,100,4.09,4.109,4.111,4.1,4.106,4.118,15.136,78.8,14,Waypoint,
37.7328402,-120.0946503,3059.6187898369,3.28084,0,0.79574149528,5100,2018-05-13 18:49:41,16,0,24.65,3059.6187898369,3.28084,0.223694,0.79574149528,0,0,0,30.8, 1.8, -0.6,0,0,1024,1024,1024,1024,29.4,-90,100,4.09,4.109,4.111,4.1,4.106,4.118,15.136,78.8,14,Waypoint,
37.7328402,-120.0946502,3059.6187898369,3.28084,0,0.80768703372,5200,2018-05-13 18:49:41,16,0,24.65,3059.6187898369,3.28084,0.223694,0.80768703372,0,0,0,30.9, 0.7, -0.7,0,0,1024,1024,1024,1024,29.4,-90,100,4.09,4.109,4.111,4.1,4.106,4.118,15.136,78.8,14,Waypoint,
37.7328401,-120.0946502,3059.6187898369,3.28084,0,0.77488191456,5300,2018-05-13 18:49:41,16,0,24.65,3059.6187898369,3.28084,0.223694,0.80768703372,0,0,0,30.9, 0.6, -0.2,0,0,1024,1024,1024,1024,29.5,-89.9,100,4.09,4.109,4.111,4.1,4.106,4.118,15.136,78.8,14,Waypoint,
37.7328402,-120.0946502,3059.9468738369,3.608924,0,0.80768703372,5400,2018-05-13 18:49:41,16,0,24.65,3059.9468738369,3.608924,0.223694,0.80768703372,0,0,-0.223694,30.9, 1, 0,0,0,1024,1024,1024,1024,29.5,-89.9,100,4.09,4.109,4.111,4.1,4.106,4.118,15.136,78.8,14,Waypoint,
37.7328402,-120.0946502,3060.2749578369,3.937008,0,0.80768703372,5500,2018-05-13 18:49:41,14,0,24.65,3060.2749578369,3.937008,0.223694,0.80768703372,0,0,-0.223694,30.8, 1.4, 0,0,0,1024,1024,1024,1024,29.5,-89.9,100,4.09,4.109,4.111,4.1,4.106,4.118,15.136,78.8,14,Waypoint,
37.7328403,-120.0946502,3060.2749578369,3.937008,0,0.84079399016,5600,2018-05-13 18:49:41,14,0,24.65,3060.2749578369,3.937008,0.223694,0.84079399016,0,0,-0.223694,30.8, 1.8, -0.2,0,0,1024,1024,1024,1024,29.5,-89.9,100,4.09,4.109,4.111,4.1,4.106,4.118,15.136,78.8,14,Waypoint,
37.7328403,-120.0946501,3060.6030418369,4.265092,0,0.85308073596,5700,2018-05-13 18:49:41,14,0,24.65,3060.6030418369,4.265092,0.223694,0.85308073596,0,0,-0.223694,30.7, 2.2, -0.5,0,0,1024,1024,1024,1024,29.5,-89.9,100,4.09,4.109,4.111,4.1,4.106,4.118,15.136,78.8,14,Waypoint,
37.7328403,-120.0946501,3060.9311258369,4.593176,0,0.85308073596,5800,2018-05-13 18:49:41,14,0,24.65,3060.9311258369,4.593176,0.223694,0.85308073596,0,0,-0.223694,30.3, 2.4, -0.7,0,0,1024,1024,1024,1024,29.6,-89.9,100,4.09,4.109,4.111,4.1,4.106,4.118,15.136,78.8,14,Waypoint,
37.7328404,-120.0946501,3061.2592098369,4.92126,0,0.88599412284,5900,2018-05-13 18:49:41,15,0,24.65,3061.2592098369,4.92126,0.223694,0.88599412284,0,0,-0.223694,30, 2.4, -0.4,0,0,1024,1024,1024,1024,29.6,-89.9,100,4.09,4.109,4.111,4.1,4.106,4.118,15.136,78.8,14,Waypoint,
37.7328405,-120.0946501,3061.9153778369,5.577428,0,0.91917981944,6000,2018-05-13 18:49:42,15,0,24.592,3061.9153778369,5.577428,0.223694,0.91917981944,0,0,-0.223694,29.8, 2.2, -0.2,0,0,1024,1024,1024,1024,29.6,-89.9,98,4.09,4.109,4.111,4.1,4.106,4.118,15.366,78.8,14,Waypoint,
37.7328406,-120.0946501,3062.2434618369,5.905512,0,0.95260501736,6100,2018-05-13 18:49:42,15,0,24.592,3062.2434618369,5.905512,0.223694,0.95260501736,0,0,-0.447388,29.8, 1.9, 0,0,0,1024,1024,1024,1024,29.6,-89.9,98,4.09,4.109,4.111,4.1,4.106,4.118,15.366,78.8,14,Waypoint,
37.7328406,-120.0946502,3062.8996298369,6.56168,0,0.94161420336,6210,2018-05-13 18:49:42,15,0,24.592,3062.8996298369,6.56168,0.223694,0.95260501736,0,0,-0.447388,30, 1.8, 0.5,0,0,1024,1024,1024,1024,29.6,-89.9,98,4.09,4.109,4.111,4.1,4.106,4.118,15.366,78.8,14,Waypoint,
37.7328407,-120.0946502,3064.2119658369,7.874016,0,0.97563651416,6300,2018-05-13 18:49:42,15,0,24.592,3064.2119658369,7.874016,0.223694,0.97563651416,0,0,-0.447388,30.4, 1.8, 0.9,0,0,1024,1024,1024,1024,29.6,-90,98,4.09,4.109,4.111,4.1,4.106,4.118,15.366,78.8,14,Waypoint,
37.7328408,-120.0946502,3064.8681338369,8.530184,0,1.00982942864,6400,2018-05-13 18:49:42,17,0,24.592,3064.8681338369,8.530184,0.223694,1.00982942864,0,0,-0.671082,30.5, 1.7, 1.1,0,0,1024,1024,1024,1024,29.6,-89.9,98,4.09,4.109,4.111,4.1,4.106,4.118,15.366,78.8,14,Waypoint,
37.7328409,-120.0946503,3065.8523858369,9.514436,0,1.03496722472,6510,2018-05-13 18:49:42,17,0,24.592,3065.8523858369,9.514436,0.223694,1.03496722472,0,0,-0.671082,30.6, 1.7, 1.6,0,0,1024,1024,1024,1024,29.6,-89.9,98,4.09,4.109,4.111,4.1,4.106,4.118,15.366,78.8,14,Waypoint,
37.732841,-120.0946504,3067.8208898369,11.48294,0,1.0615485904,6700,2018-05-13 18:49:42,16,0,24.592,3067.8208898369,11.48294,0.223694,1.0615485904,0,0,-0.671082,30.2, 1.8, 1.5,0,0,1024,1024,1024,1024,29.6,-90,98,4.09,4.109,4.111,4.1,4.106,4.118,15.366,78.8,14,Waypoint,
37.732841,-120.0946505,3068.8051418369,12.467192,0,1.05407155604,6900,2018-05-13 18:49:42,14,0,24.592,3068.8051418369,12.467192,0.223694,1.0615485904,0,0,-0.671082,30, 1.5, 1.2,0,0,1024,1024,1024,1024,29.6,-89.9,98,4.09,4.109,4.111,4.1,4.106,4.118,15.366,78.8,14,Waypoint,
37.7328411,-120.0946507,3070.7736458369,14.435696,0,1.07716866964,7020,2018-05-13 18:49:43,15,0,24.359,3070.7736458369,14.435696,0.223694,1.07716866964,0,0,-0.671082,29.8, 2.1, 0.6,0,0,1024,1024,1024,1024,29.6,-89.9,98,3.989,4.05,4.034,4.041,4.054,4.06,17.932,78.8,14,Waypoint,
37.7328411,-120.0946507,3070.7736458369,14.435696,0,1.07716866964,7100,2018-05-13 18:49:43,15,0,24.359,3070.7736458369,14.435696,0.223694,1.07716866964,0,0,-0.671082,29.8, 2.1, 0.6,0,0,1024,1024,1024,1024,29.6,-89.9,98,3.989,4.05,4.034,4.041,4.054,4.06,17.932,78.8,14,Waypoint,
37.7328411,-120.0946506,3071.7578978369,15.419948,0,1.08295279056,7200,2018-05-13 18:49:43,15,0,24.359,3071.7578978369,15.419948,0.223694,1.08295279056,0,0,-0.671082,29.8, 2.5, 0.4,0,0,1024,1024,1024,1024,29.6,-89.9,98,3.989,4.05,4.034,4.041,4.054,4.06,17.932,78.8,14,Waypoint,
37.7328412,-120.0946506,3073.0702338369,16.732284,0,1.11862536388,7300,2018-05-13 18:49:43,16,0,24.359,3073.0702338369,16.732284,0.223694,1.11862536388,0,0,-0.671082,29.9, 2.8, 0.5,0,0,1024,1024,1024,1024,29.6,-89.9,98,3.989,4.05,4.034,4.041,4.054,4.06,17.932,78.8,14,Waypoint,
37.7328413,-120.0946507,3074.0544858369,17.716536,0,1.14892720212,7400,2018-05-13 18:49:43,16,0,24.359,3074.0544858369,17.716536,0.223694,1.14892720212,0,0,-0.671082,30, 2.8, 0.9,0,0,1024,1024,1024,1024,29.6,-89.9,98,3.989,4.05,4.034,4.041,4.054,4.06,17.932,78.8,14,Waypoint,
37.7328414,-120.0946508,3075.3668218369,19.028872,0,1.18028547084,7500,2018-05-13 18:49:43,15,0,24.359,3075.3668218369,19.028872,0.223694,1.18028547084,0,0,-0.671082,30.1, 3, 1.3,0,0,1024,1024,1024,1024,29.6,-89.9,98,3.989,4.05,4.034,4.041,4.054,4.06,17.932,78.8,14,Waypoint,
37.7328414,-120.0946508,3076.3510738369,20.013124,0,1.18028547084,7600,2018-05-13 18:49:43,15,0,24.359,3076.3510738369,20.013124,0.223694,1.18028547084,0,0,-0.671082,30.2, 3.2, 1.1,0,0,1024,1024,1024,1024,29.6,-89.9,98,3.989,4.05,4.034,4.041,4.054,4.06,17.932,78.8,14,Waypoint,
37.7328415,-120.0946508,3077.6634098369,21.32546,0,1.2163878342,7700,2018-05-13 18:49:43,15,0,24.359,3077.6634098369,21.32546,0.223694,1.2163878342,0,0,-0.671082,30.3, 3.1, 0.8,0,0,1024,1024,1024,1024,29.6,-89.9,98,3.989,4.05,4.034,4.041,4.054,4.06,17.932,78.8,14,Waypoint,
37.7328415,-120.0946507,3078.6476618369,22.309712,0,1.22082681072,7800,2018-05-13 18:49:43,15,0,24.359,3078.6476618369,22.309712,0.223694,1.22082681072,0,0,-0.671082,30.2, 3.1, 0.3,0,0,1024,1024,1024,1024,29.6,-89.9,98,3.989,4.05,4.034,4.041,4.054,4.06,17.932,78.8,14,Waypoint,
37.7328414,-120.0946506,3079.9599978369,23.622048,0,1.19012142916,7900,2018-05-13 18:49:43,16,0,24.359,3079.9599978369,23.622048,0.223694,1.22082681072,0,0,-0.671082,30.1, 2.7, -0.4,0,0,1024,1024,1024,1024,29.6,-89.9,98,3.989,4.05,4.034,4.041,4.054,4.06,17.932,78.8,14,Waypoint,
37.7328414,-120.0946505,3080.9442498369,24.6063,0,1.19605318788,8000,2018-05-13 18:49:44,16,0,23.879,3080.9442498369,24.6063,0.223694,1.22082681072,0,0,-0.671082,30.1, 2.2, -0.6,0,0,1024,1024,1024,1024,29.6,-90,98,3.989,4.05,4.034,4.041,4.054,4.06,23.777,78.8,14,Waypoint,
37.7328413,-120.0946505,3082.2565858369,25.918636,0,1.16046263556,8100,2018-05-13 18:49:44,17,0,23.879,3082.2565858369,25.918636,0.223694,1.22082681072,0,0,-0.671082,30.1, 1.7, -0.7,0,0,1024,1024,1024,1024,29.6,-90,98,3.989,4.05,4.034,4.041,4.054,4.06,23.777,78.8,14,Waypoint,
37.7328412,-120.0946504,3083.2408378369,26.902888,0,1.13194229344,8200,2018-05-13 18:49:44,17,0,23.879,3083.2408378369,26.902888,0.223694,1.22082681072,0,0,-0.671082,30.1, 1.4, -0.7,0,0,1024,1024,1024,1024,29.6,-90,98,3.989,4.05,4.034,4.041,4.054,4.06,23.777,78.8,14,Waypoint,
37.732841,-120.0946503,3084.2250898369,27.88714,0,1.0697506904,8300,2018-05-13 18:49:44,16,0,23.879,3084.2250898369,27.88714,0.223694,1.22082681072,0,0,-0.671082,30, 1.2, -0.8,0,0,1024,1024,1024,1024,29.6,-90,98,3.989,4.05,4.034,4.041,4.054,4.06,23.777,78.8,14,Waypoint,
37.7328409,-120.0946501,3085.5374258369,29.199476,0,1.05409780276,8400,2018-05-13 18:49:44,16,0,23.879,3085.5374258369,29.199476,0.223694,1.22082681072,0,0,-0.671082,29.8, 1.3, -1.4,0,0,1024,1024,1024,1024,29.6,-90,98,3.989,4.05,4.034,4.041,4.054,4.06,23.777,78.8,14,Waypoint,
37.7328408,-120.0946499,3086.5216778369,30.183728,0.223694,1.04268704124,8500,2018-05-13 18:49:44,16,0,23.879,3086.5216778369,30.183728,0.223694,1.22082681072,0,0,-0.671082,29.6, 1.3, -2.1,0,0,1024,1024,1024,1024,29.6,-90,98,3.989,4.05,4.034,4.041,4.054,4.06,23.777,78.8,14,Waypoint,
37.7328407,-120.0946497,3087.5059298369,31.16798,0.223694,1.03565948196,8600,2018-05-13 18:49:44,16,0,23.879,3087.5059298369,31.16798,0.223694,1.22082681072,0,0,-0.671082,29.4, 1.4, -2.6,0,0,1024,1024,1024,1024,29.6,-90,98,3.989,4.05,4.034,4.041,4.054,4.06,23.777,78.8,14,Waypoint,
37.7328406,-120.0946496,3089.4744338369,33.136484,0,1.01809058376,8700,2018-05-13 18:49:44,16,0,23.879,3089.4744338369,33.136484,0.223694,1.22082681072,0,0,-0.671082,29.3, 1.6, -2.7,0,0,1024,1024,1024,1024,29.6,-90,98,3.989,4.05,4.034,4.041,4.054,4.06,23.777,78.8,14,Waypoint,
37.7328405,-120.0946496,3090.4586858369,34.120736,0,0.98688651452,8800,2018-05-13 18:49:44,17,0,23.879,3090.4586858369,34.120736,0.223694,1.22082681072,0,0,-0.671082,29.3, 1.7, -2.3,0,0,1024,1024,1024,1024,29.6,-90,98,3.989,4.05,4.034,4.041,4.054,4.06,23.777,78.8,14,Waypoint,
37.7328405,-120.0946497,3091.4429378369,35.104988,0,0.97201118596,8900,2018-05-13 18:49:44,17,0,23.879,3091.4429378369,35.104988,0.223694,1.22082681072,0,0,-0.671082,29.6, 1.5, -1.7,0,0,1024,1024,1024,1024,29.6,-90,98,3.989,4.05,4.034,4.041,4.054,4.06,23.777,78.8,14,Waypoint,
37.7328405,-120.0946496,3092.7552738369,36.417324,0,0.98688651452,9000,2018-05-13 18:49:45,16,0,24.118,3092.7552738369,36.417324,0.223694,1.22082681072,0,0,-0.671082,29.7, 1, -1.4,0,0,1024,1024,1024,1024,29.6,-90,98,3.954,3.996,3.993,3.977,3.99,4.011,19.651,78.8,14,Waypoint,
37.7328404,-120.0946495,3093.7395258369,37.401576,0,0.97203415184,9110,2018-05-13 18:49:45,16,0,24.118,3093.7395258369,37.401576,0.223694,1.22082681072,0,0,-0.671082,29.7, 0.8, -1.6,0,0,1024,1024,1024,1024,29.6,-90,98,3.954,3.996,3.993,3.977,3.99,4.011,19.651,78.8,14,Waypoint,
37.7328402,-120.0946495,3094.7237778369,38.385828,0,0.91270672212,9200,2018-05-13 18:49:45,17,0,24.118,3094.7237778369,38.385828,0.223694,1.22082681072,0,0,-0.671082,29.7, 0.6, -1.8,0,0,1024,1024,1024,1024,29.6,-90,98,3.954,3.996,3.993,3.977,3.99,4.011,19.651,78.8,14,Waypoint,
37.7328401,-120.0946495,3095.7080298369,39.37008,0,0.8838090834,9310,2018-05-13 18:49:45,17,0,24.118,3095.7080298369,39.37008,0.223694,1.22082681072,0,0,-0.671082,29.7, 0.4, -2,0,0,1024,1024,1024,1024,29.6,-90,98,3.954,3.996,3.993,3.977,3.99,4.011,19.651,78.8,14,Waypoint,
37.73284,-120.0946494,3096.6922818369,40.354332,0,0.874261839,9400,2018-05-13 18:49:45,18,0,24.118,3096.6922818369,40.354332,0.223694,1.22082681072,0,0,-0.671082,29.7, 0.1, -2.1,0,0,1024,1024,1024,1024,29.6,-90,98,3.954,3.996,3.993,3.977,3.99,4.011,19.651,78.8,14,Waypoint,
37.7328399,-120.0946493,3097.6765338369,41.338584,0,0.86711288864,9600,2018-05-13 18:49:45,18,0,24.118,3097.6765338369,41.338584,0.223694,1.22082681072,0,0,-0.671082,29.7, 0, -2.3,0,0,1024,1024,1024,1024,29.6,-90,98,3.954,3.996,3.993,3.977,3.99,4.011,19.651,78.8,14,Waypoint,
37.7328398,-120.0946492,3098.6607858369,42.322836,0,0.86241472576,9700,2018-05-13 18:49:45,17,0,24.118,3098.6607858369,42.322836,0.223694,1.22082681072,0,0,-0.671082,29.7, 0, -2.4,0,0,1024,1024,1024,1024,29.6,-90,98,3.954,3.996,3.993,3.977,3.99,4.011,19.651,78.8,14,Waypoint,
37.7328396,-120.094649,3099.6450378369,43.307088,0,0.8605151194,9800,2018-05-13 18:49:45,17,0,24.118,3099.6450378369,43.307088,0.223694,1.22082681072,0,0,-0.671082,29.8, 0, -2.5,0,0,1024,1024,1024,1024,29.6,-90,98,3.954,3.996,3.993,3.977,3.99,4.011,19.651,78.8,14,Waypoint,
37.7328395,-120.0946489,3100.6292898369,44.29134,0,0.86333336096,9900,2018-05-13 18:49:45,15,0,24.118,3100.6292898369,44.29134,0.223694,1.22082681072,0,0,-0.671082,29.8, 0, -2.6,0,0,1024,1024,1024,1024,29.6,-90,98,3.954,3.996,3.993,3.977,3.99,4.011,19.651,78.8,14,Waypoint,
37.7328394,-120.0946489,3101.6135418369,45.275592,0,0.84383860968,10000,2018-05-13 18:49:46,15,0,24.173,3101.6135418369,45.275592,0.223694,1.22082681072,0,0,-0.671082,29.8, 0, -2.7,0,0,1024,1024,1024,1024,29.6,-90,98,3.998,4.038,4.032,4.015,4.034,4.04,18.327,78.8,14,Waypoint,
37.7328393,-120.0946488,3102.5977938369,46.259844,0,0.85083007972,10100,2018-05-13 18:49:46,17,0,24.173,3102.5977938369,46.259844,0.223694,1.22082681072,0,0,-0.671082,29.8, 0.1, -2.7,0,0,1024,1024,1024,1024,29.6,-90,98,3.998,4.038,4.032,4.015,4.034,4.04,18.327,78.8,14,Waypoint,
37.7328393,-120.0946488,3103.5820458369,47.244096,0,0.85083007972,10200,2018-05-13 18:49:46,17,0,24.173,3103.5820458369,47.244096,0.223694,1.22082681072,0,0,-0.671082,29.8, 0.1, -2.8,0,0,1024,1024,1024,1024,29.6,-90,98,3.998,4.038,4.032,4.015,4.034,4.04,18.327,78.8,14,Waypoint,
37.7328392,-120.0946487,3104.5662978369,48.228348,0,0.86028217976,10300,2018-05-13 18:49:46,18,0,24.173,3104.5662978369,48.228348,0.223694,1.22082681072,0,0,-0.671082,29.8, 0.1, -2.6,0,0,1024,1024,1024,1024,29.6,-90,98,3.998,4.038,4.032,4.015,4.034,4.04,18.327,78.8,14,Waypoint,
37.7328392,-120.0946488,3105.5505498369,49.2126,0,0.83424215268,10400,2018-05-13 18:49:46,18,0,24.173,3105.5505498369,49.2126,0.223694,1.22082681072,0,0,-0.671082,29.8, 0.1, -2.2,0,0,1024,1024,1024,1024,29.6,-90,98,3.998,4.038,4.032,4.015,4.034,4.04,18.327,78.8,14,Waypoint,
37.7328392,-120.0946488,3106.5348018369,50.196852,0,0.83424215268,10500,2018-05-13 18:49:46,18,0,24.173,3106.5348018369,50.196852,0.223694,1.22082681072,0,0,-0.671082,29.7, 0.1, -2,0,0,1024,1024,1024,1024,29.6,-90,98,3.998,4.038,4.032,4.015,4.034,4.04,18.327,78.8,14,Waypoint,
37.7328392,-120.0946488,3107.5190538369,51.181104,0,0.83424215268,10600,2018-05-13 18:49:46,18,0,24.173,3107.5190538369,51.181104,0.223694,1.22082681072,0,0,-0.671082,29.7, 0.1, -1.8,0,0,1024,1024,1024,1024,29.6,-90,98,3.998,4.038,4.032,4.015,4.034,4.04,18.327,78.8,14,Waypoint,
37.7328392,-120.0946488,3108.5033058369,52.165356,0,0.83424215268,10700,2018-05-13 18:49:46,18,0,24.173,3108.5033058369,52.165356,0.223694,1.22082681072,0,0,-0.671082,29.7, 0.2, -1.6,0,0,1024,1024,1024,1024,29.6,-90,98,3.998,4.038,4.032,4.015,4.034,4.04,18.327,78.8,14,Waypoint,
37.7328392,-120.0946488,3109.4875578369,53.149608,0,0.83424215268,10800,2018-05-13 18:49:46,18,0,24.173,3109.4875578369,53.149608,0.223694,1.22082681072,0,0,-0.671082,29.7, 0.4, -1.8,0,0,1024,1024,1024,1024,29.6,-89.9,98,3.998,4.038,4.032,4.015,4.034,4.04,18.327,78.8,14,Waypoint,
37.7328392,-120.0946488,3110.4718098369,54.13386,0,0.83424215268,10900,2018-05-13 18:49:46,17,0,24.173,3110.4718098369,54.13386,0.223694,1.22082681072,0,0,-0.671082,29.6, 0.8, -2.1,0,0,1024,1024,1024,1024,29.6,-89.9,98,3.998,4.038,4.032,4.015,4.034,4.04,18.327,78.8,14,Waypoint,
37.7328392,-120.0946488,3112.4403138369,56.102364,0,0.83424215268,11110,2018-05-13 18:49:47,16,0,24.173,3112.4403138369,56.102364,0.223694,1.22082681072,0,0,-0.671082,29.8, 0.4, -2.2,0,0,1024,1024,1024,1024,29.6,-90,98,3.998,4.038,4.032,4.015,4.034,4.04,18.327,78.8,14,Waypoint,
37.7328392,-120.0946488,3114.4088178369,58.070868,0,0.83424215268,11220,2018-05-13 18:49:47,17,0,24.173,3114.4088178369,58.070868,0.223694,1.22082681072,0,0,-0.671082,30, 0.2, -2.1,0,0,1024,1024,1024,1024,29.6,-90,98,3.998,4.038,4.032,4.015,4.034,4.04,18.327,78.8,14,Waypoint,
37.7328392,-120.094649,3115.3930698369,59.05512,0,0.78274936888,11300,2018-05-13 18:49:47,17,0,24.173,3115.3930698369,59.05512,0.223694,1.22082681072,0,0,-0.671082,30, 0.2, -2.1,0,0,1024,1024,1024,1024,29.6,-89.9,98,3.998,4.038,4.032,4.015,4.034,4.04,18.327,78.8,14,Waypoint,
37.7328393,-120.0946491,3116.3773218369,60.039372,0,0.77557745264,11410,2018-05-13 18:49:47,18,0,24.173,3116.3773218369,60.039372,0.223694,1.22082681072,0,0,-0.671082,29.9, 0.4, -1.9,0,0,1024,1024,1024,1024,29.6,-89.9,98,3.998,4.038,4.032,4.015,4.034,4.04,18.327,78.8,14,Waypoint,
37.7328393,-120.0946492,3117.3615738369,61.023624,0,0.7510334886,11500,2018-05-13 18:49:47,18,0,24.173,3117.3615738369,61.023624,0.223694,1.22082681072,0,0,-0.671082,29.8, 0.5, -1.7,0,0,1024,1024,1024,1024,29.6,-90,98,3.998,4.038,4.032,4.015,4.034,4.04,18.327,78.8,14,Waypoint,
37.7328394,-120.0946493,3119.3300778369,62.992128,0,0.7475722024,11710,2018-05-13 18:49:47,18,0,24.173,3119.3300778369,62.992128,0.223694,1.22082681072,0,0,-0.671082,29.5, 0.5, -1.2,0,0,1024,1024,1024,1024,29.6,-89.9,98,3.998,4.038,4.032,4.015,4.034,4.04,18.327,78.8,14,Waypoint,
37.7328395,-120.0946493,3120.3143298369,63.97638,0,0.76950789864,11900,2018-05-13 18:49:47,17,0,24.173,3120.3143298369,63.97638,0.223694,1.22082681072,0,0,-0.671082,29.4, 0.7, -1.2,0,0,1024,1024,1024,1024,29.6,-89.9,98,3.998,4.038,4.032,4.015,4.034,4.04,18.327,78.8,14,Waypoint,
37.7328395,-120.0946494,3121.2985818369,64.960632,0,0.7469980554,12000,2018-05-13 18:49:48,17,0,24.191,3121.2985818369,64.960632,0.223694,1.22082681072,0,0,-0.671082,29.4, 1, -1.2,0,0,1024,1024,1024,1024,29.6,-89.9,98,3.993,4.036,4.035,4.023,4.035,4.047,17.514,78.8,14,Waypoint,
37.7328396,-120.0946494,3122.2828338369,65.944884,0,0.77067915852,12100,2018-05-13 18:49:48,17,0,24.191,3122.2828338369,65.944884,0.223694,1.22082681072,0,0,-0.671082,29.5, 1.2, -1.5,0,0,1024,1024,1024,1024,29.6,-89.9,98,3.993,4.036,4.035,4.023,4.035,4.047,17.514,78.8,14,Waypoint,
37.7328396,-120.0946494,3122.9390018369,66.601052,0,0.77067915852,12200,2018-05-13 18:49:48,17,0,24.191,3122.9390018369,66.601052,0.223694,1.22082681072,0,0,-0.671082,29.6, 1.4, -1.8,0,0,1024,1024,1024,1024,29.6,-89.9,98,3.993,4.036,4.035,4.023,4.035,4.047,17.514,78.8,14,Waypoint,
37.7328397,-120.0946494,3123.9232538369,67.585304,0,0.79533139028,12300,2018-05-13 18:49:48,18,0,24.191,3123.9232538369,67.585304,0.223694,1.22082681072,0,0,-0.671082,29.7, 1.6, -1.8,0,0,1024,1024,1024,1024,29.6,-89.9,98,3.993,4.036,4.035,4.023,4.035,4.047,17.514,78.8,14,Waypoint,
37.7328397,-120.0946494,3124.9075058369,68.569556,0,0.79533139028,12400,2018-05-13 18:49:48,18,0,24.191,3124.9075058369,68.569556,0.223694,1.22082681072,0,0,-0.671082,29.7, 1.7, -1.8,0,0,1024,1024,1024,1024,29.6,-89.9,98,3.993,4.036,4.035,4.023,4.035,4.047,17.514,78.8,14,Waypoint,
37.7328397,-120.0946493,3125.8917578369,69.553808,0,0.81650921248,12500,2018-05-13 18:49:48,18,0,24.191,3125.8917578369,69.553808,0.223694,1.22082681072,0,0,-0.671082,29.7, 1.8, -2,0,0,1024,1024,1024,1024,29.6,-89.9,98,3.993,4.036,4.035,4.023,4.035,4.047,17.514,78.8,14,Waypoint,
37.7328397,-120.0946493,3126.8760098369,70.53806,0,0.81650921248,12600,2018-05-13 18:49:48,18,0,24.191,3126.8760098369,70.53806,0.223694,1.22082681072,0,0,-0.671082,29.8, 1.7, -2.3,0,0,1024,1024,1024,1024,29.6,-89.9,98,3.993,4.036,4.035,4.023,4.035,4.047,17.514,78.8,14,Waypoint,
37.7328397,-120.0946493,3128.1883458369,71.850396,0,0.81650921248,12700,2018-05-13 18:49:48,18,0,24.191,3128.1883458369,71.850396,0.223694,1.22082681072,0,0,-0.671082,29.9, 1.4, -2.6,0,0,1024,1024,1024,1024,29.6,-89.9,98,3.993,4.036,4.035,4.023,4.035,4.047,17.514,78.8,14,Waypoint,
37.7328397,-120.0946493,3128.8445138369,72.506564,0,0.81650921248,12800,2018-05-13 18:49:48,18,0,24.191,3128.8445138369,72.506564,0.223694,1.22082681072,0,0,-0.671082,30.1, 1.1, -2.7,0,0,1024,1024,1024,1024,29.6,-90,98,3.993,4.036,4.035,4.023,4.035,4.047,17.514,78.8,14,Waypoint,
37.7328397,-120.0946492,3129.8287658369,73.490816,0,0.83814635228,12900,2018-05-13 18:49:48,18,0,24.191,3129.8287658369,73.490816,0.223694,1.22082681072,0,0,-0.671082,30.1, 0.9, -2.9,0,0,1024,1024,1024,1024,29.6,-90,98,3.993,4.036,4.035,4.023,4.035,4.047,17.514,78.8,14,Waypoint,
37.7328397,-120.0946492,3130.8130178369,74.475068,0,0.83814635228,13000,2018-05-13 18:49:49,18,0,24.191,3130.8130178369,74.475068,0.223694,1.22082681072,0,0,-0.671082,30, 0.8, -2.9,0,0,1024,1024,1024,1024,29.6,-90,98,4.005,4.037,4.037,4.02,4.029,4.048,17.514,78.8,14,Waypoint,
37.7328397,-120.0946492,3131.7972698369,75.45932,0,0.83814635228,13100,2018-05-13 18:49:49,18,0,24.191,3131.7972698369,75.45932,0.223694,1.22082681072,0,0,-0.671082,29.9, 1.1, -2.7,0,0,1024,1024,1024,1024,29.6,-89.9,98,4.005,4.037,4.037,4.02,4.029,4.048,17.514,78.8,14,Waypoint,
37.7328397,-120.0946492,3132.7815218369,76.443572,0,0.83814635228,13200,2018-05-13 18:49:49,18,0,24.191,3132.7815218369,76.443572,0.223694,1.22082681072,0,0,-0.671082,29.7, 1.1, -2.8,0,0,1024,1024,1024,1024,29.5,-89.9,98,4.005,4.037,4.037,4.02,4.029,4.048,17.514,78.8,14,Waypoint,
37.7328397,-120.0946492,3134.7500258369,78.412076,0,0.83814635228,13310,2018-05-13 18:49:49,18,0,24.191,3134.7500258369,78.412076,0.223694,1.22082681072,0,0,-0.671082,29.9, 1.3, -3.1,0,0,1024,1024,1024,1024,29.6,-89.9,98,4.005,4.037,4.037,4.02,4.029,4.048,17.514,78.8,14,Waypoint,
37.7328397,-120.0946492,3135.7342778369,79.396328,0,0.83814635228,13400,2018-05-13 18:49:49,17,0,24.191,3135.7342778369,79.396328,0.223694,1.22082681072,0,0,-0.671082,30.1, 0.9, -3.1,0,0,1024,1024,1024,1024,29.6,-89.9,98,4.005,4.037,4.037,4.02,4.029,4.048,17.514,78.8,14,Waypoint,
37.7328398,-120.0946492,3136.7185298369,80.38058,0,0.86241472576,13500,2018-05-13 18:49:49,17,0,24.191,3136.7185298369,80.38058,0.223694,1.22082681072,0,0,-0.671082,30.2, 0.8, -3,0,0,1024,1024,1024,1024,29.6,-90,98,4.005,4.037,4.037,4.02,4.029,4.048,17.514,78.8,14,Waypoint,
37.7328398,-120.0946493,3137.7027818369,81.364832,0,0.84140094556,13600,2018-05-13 18:49:49,18,0,24.191,3137.7027818369,81.364832,0.223694,1.22082681072,0,0,-0.671082,30.3, 1, -2.6,0,0,1024,1024,1024,1024,29.6,-90,98,4.005,4.037,4.037,4.02,4.029,4.048,17.514,78.8,14,Waypoint,
37.7328399,-120.0946494,3139.6712858369,83.333336,0,0.84719818984,13800,2018-05-13 18:49:49,18,0,24.191,3139.6712858369,83.333336,0.223694,1.22082681072,0,0,-0.671082,30.1, 1.3, -2,0,0,1024,1024,1024,1024,29.6,-89.9,98,4.005,4.037,4.037,4.02,4.029,4.048,17.514,78.8,14,Waypoint,
37.73284,-120.0946495,3140.3274538369,83.989504,0,0.85549215336,13900,2018-05-13 18:49:49,18,0,24.191,3140.3274538369,83.989504,0.223694,1.22082681072,0,0,-0.671082,29.8, 1.7, -1.7,0,0,1024,1024,1024,1024,29.5,-89.9,98,4.005,4.037,4.037,4.02,4.029,4.048,17.514,78.8,14,Waypoint,
37.7328402,-120.0946496,3142.2959578369,85.958008,0,0.89566932,14100,2018-05-13 18:49:50,18,0,24.191,3142.2959578369,85.958008,0.223694,1.22082681072,0,0,-0.671082,29.6, 2.3, -1.1,0,0,1024,1024,1024,1024,29.6,-89.9,98,4.005,4.037,4.037,4.02,4.029,4.048,17.514,78.8,14,Waypoint,
37.7328403,-120.0946496,3143.2802098369,86.94226,0,0.92563651256,14300,2018-05-13 18:49:50,18,0,24.191,3143.2802098369,86.94226,0.223694,1.22082681072,0,0,-0.671082,29.5, 2.7, -1.1,0,0,1024,1024,1024,1024,29.5,-89.9,98,4.005,4.037,4.037,4.02,4.029,4.048,17.514,78.8,14,Waypoint,
37.7328404,-120.0946496,3144.2644618369,87.926512,0,0.95605646104,14400,2018-05-13 18:49:50,18,0,24.191,3144.2644618369,87.926512,0.223694,1.22082681072,0,0,-0.671082,29.4, 2.6, -0.9,0,0,1024,1024,1024,1024,29.6,-89.9,98,4.005,4.037,4.037,4.02,4.029,4.048,17.514,78.8,14,Waypoint,
37.7328405,-120.0946497,3145.2487138369,88.910764,0.223694,0.97201118596,14500,2018-05-13 18:49:50,18,0,24.191,3145.2487138369,88.910764,0.223694,1.22082681072,0,0,-0.671082,29.5, 3, -0.9,0,0,1024,1024,1024,1024,29.6,-89.9,98,4.005,4.037,4.037,4.02,4.029,4.048,17.514,78.8,14,Waypoint,
37.7328407,-120.0946496,3146.5610498369,90.2231,0.223694,1.04963586036,14600,2018-05-13 18:49:50,18,0,24.191,3146.5610498369,90.2231,0.223694,1.22082681072,0,0,-0.671082,29.6, 3.3, -0.8,0,0,1024,1024,1024,1024,29.6,-89.9,98,4.005,4.037,4.037,4.02,4.029,4.048,17.514,78.8,14,Waypoint,
37.7328408,-120.0946496,3147.5453018369,91.207352,0,1.08148953592,14710,2018-05-13 18:49:50,18,0,24.191,3147.5453018369,91.207352,0.223694,1.22082681072,0,0,-0.671082,29.8, 4.3, -0.7,0,0,1024,1024,1024,1024,29.6,-89.9,98,4.005,4.037,4.037,4.02,4.029,4.048,17.514,78.8,14,Waypoint,
37.7328409,-120.0946496,3148.5295538369,92.191604,0,1.1136319254,14800,2018-05-13 18:49:50,18,0,24.191,3148.5295538369,92.191604,0.223694,1.22082681072,0,0,-0.671082,30, 4.5, -1.2,0,0,1024,1024,1024,1024,29.6,-89.9,98,4.005,4.037,4.037,4.02,4.029,4.048,17.514,78.8,14,Waypoint,
37.7328409,-120.0946495,3149.8418898369,93.50394,0.223694,1.127378645,14900,2018-05-13 18:49:51,18,0,24.191,3149.8418898369,93.50394,0.223694,1.22082681072,0,0,-0.671082,29.9, 4.2, -2.1,0,0,1024,1024,1024,1024,29.6,-90,98,4.005,4.037,4.037,4.02,4.029,4.048,17.514,78.8,14,Waypoint,
37.732841,-120.0946495,3150.8261418369,94.488192,0.223694,1.15939308172,15000,2018-05-13 18:49:51,18,0,24.134,3150.8261418369,94.488192,0.223694,1.22082681072,0,0,-0.671082,29.8, 3.5, -2.8,0,0,1024,1024,1024,1024,29.6,-90,98,3.999,4.036,4.027,4.014,4.028,4.045,17.227,78.8,14,Waypoint,
37.732841,-120.0946494,3152.1384778369,95.800528,0.223694,1.17331368584,15100,2018-05-13 18:49:51,18,0,24.134,3152.1384778369,95.800528,0.223694,1.22082681072,0,0,-0.671082,29.6, 3, -3.3,0,0,1024,1024,1024,1024,29.6,-90,98,3.999,4.036,4.027,4.014,4.028,4.045,17.227,78.8,14,Waypoint,
37.7328409,-120.0946494,3153.1227298369,96.78478,0.223694,1.14168966908,15200,2018-05-13 18:49:51,18,0,24.134,3153.1227298369,96.78478,0.223694,1.22082681072,0,0,-0.671082,29.5, 2.5, -3.3,0,0,1024,1024,1024,1024,29.5,-90,98,3.999,4.036,4.027,4.014,4.028,4.045,17.227,78.8,14,Waypoint,
37.7328409,-120.0946493,3155.0912338369,98.753284,0.223694,1.15654203176,15400,2018-05-13 18:49:51,18,0,24.134,3155.0912338369,98.753284,0.223694,1.22082681072,0,0,-0.671082,29.6, 1.9, -3.5,0,0,1024,1024,1024,1024,29.5,-90,98,3.999,4.036,4.027,4.014,4.028,4.045,17.227,78.8,14,Waypoint,
37.7328408,-120.0946493,3156.4035698369,100.06562,0.223694,1.12562667644,15500,2018-05-13 18:49:51,18,0,24.134,3156.4035698369,100.06562,0.223694,1.22082681072,0,0,-0.671082,29.8, 1.9, -3.8,0,0,1024,1024,1024,1024,29.6,-90,98,3.999,4.036,4.027,4.014,4.028,4.045,17.227,78.8,14,Waypoint,
37.7328408,-120.0946492,3157.3878218369,101.049872,0.223694,1.1414206402,15600,2018-05-13 18:49:51,18,0,24.134,3157.3878218369,101.049872,0.223694,1.22082681072,0,0,-0.671082,30, 2.2, -4,0,0,1024,1024,1024,1024,29.6,-90,98,3.999,4.036,4.027,4.014,4.028,4.045,17.227,78.8,14,Waypoint,
37.7328406,-120.094649,3159.3563258369,103.018376,0.223694,1.116387831,15700,2018-05-13 18:49:51,18,0,24.134,3159.3563258369,103.018376,0.223694,1.22082681072,0,0,-0.671082,29.9, 2.3, -5.3,0,0,1024,1024,1024,1024,29.5,-90,98,3.999,4.036,4.027,4.014,4.028,4.045,17.227,78.8,14,Waypoint,
37.7328405,-120.0946488,3160.3405778369,104.002628,0.223694,1.12562011476,15900,2018-05-13 18:49:51,18,0,24.134,3160.3405778369,104.002628,0.223694,1.22082681072,0,0,-0.671082,29.8, 2.3, -5.5,0,0,1024,1024,1024,1024,29.6,-90,98,3.999,4.036,4.027,4.014,4.028,4.045,17.227,78.8,14,Waypoint,
37.7328404,-120.0946487,3161.3248298369,104.98688,0.3131716,1.11859255548,16000,2018-05-13 18:49:52,18,0,24.121,3161.3248298369,104.98688,0.3131716,1.22082681072,0,0,-0.671082,29.8, 2.3, -6,0,0,1024,1024,1024,1024,29.6,-90,98,3.998,4.033,4.035,4.017,4.034,4.054,17.21,78.8,14,Waypoint,
37.7328402,-120.0946484,3162.9652498369,106.6273,0.3131716,1.1321686714,16110,2018-05-13 18:49:52,18,0,24.121,3162.9652498369,106.6273,0.3131716,1.22082681072,0,0,-0.671082,30, 2, -6.4,0,0,1024,1024,1024,1024,29.6,-90,98,3.998,4.033,4.035,4.017,4.034,4.054,17.21,78.8,14,Waypoint,
37.7328401,-120.0946483,3163.9495018369,107.611552,0.3131716,1.13167326456,16200,2018-05-13 18:49:52,18,0,24.121,3163.9495018369,107.611552,0.3131716,1.22082681072,0,0,-0.671082,30, 1.9, -6.6,0,0,1024,1024,1024,1024,29.6,-90,98,3.998,4.033,4.035,4.017,4.034,4.054,17.21,78.8,14,Waypoint,
37.7328398,-120.094648,3165.5899218369,109.251972,0.223694,1.14160764808,16400,2018-05-13 18:49:52,18,0,24.121,3165.5899218369,109.251972,0.3131716,1.22082681072,0,0,-0.671082,30.3, 1.5, -6.3,0,0,1024,1024,1024,1024,29.6,-90,98,3.998,4.033,4.035,4.017,4.034,4.054,17.21,78.8,14,Waypoint,
37.7328398,-120.094648,3166.2460898369,109.90814,0,1.14160764808,16550,2018-05-13 18:49:52,18,0,24.121,3166.2460898369,109.90814,0.3131716,1.22082681072,0,0,-0.671082,30.3, 1.3, -5.9,0,0,1024,1024,1024,1024,29.6,-89.9,98,3.998,4.033,4.035,4.017,4.034,4.054,17.21,78.8,14,Waypoint,
37.7328398,-120.094648,3166.9022578369,110.564308,0,1.14160764808,16610,2018-05-13 18:49:52,18,0,24.121,3166.9022578369,110.564308,0.3131716,1.22082681072,0,0,-0.671082,30.2, 1.4, -5.4,0,0,1024,1024,1024,1024,29.6,-90,98,3.998,4.033,4.035,4.017,4.034,4.054,17.21,78.8,14,Waypoint,
37.7328398,-120.0946479,3168.2145938369,111.876644,0,1.16649938116,16800,2018-05-13 18:49:52,18,0,24.121,3168.2145938369,111.876644,0.3131716,1.22082681072,0,0,-0.671082,29.8, 2.7, -4.9,0,0,1024,1024,1024,1024,29.6,-89.9,98,3.998,4.033,4.035,4.017,4.034,4.054,17.21,78.8,14,Waypoint,
37.7328399,-120.0946479,3169.1988458369,112.860896,0,1.18517720328,16910,2018-05-13 18:49:53,18,0,24.121,3169.1988458369,112.860896,0.3131716,1.22082681072,0,0,-0.671082,29.4, 3.6, -4.6,0,0,1024,1024,1024,1024,29.6,-89.9,98,3.998,4.033,4.035,4.017,4.034,4.054,17.21,78.8,14,Waypoint,
37.7328399,-120.0946479,3169.8550138369,113.517064,0,1.18517720328,17100,2018-05-13 18:49:53,18,0,24.121,3169.8550138369,113.517064,0.3131716,1.22082681072,0,0,-0.671082,29.2, 3.9, -4.3,0,0,1024,1024,1024,1024,29.6,-89.9,98,3.998,4.033,4.035,4.017,4.034,4.054,17.21,78.8,14,Waypoint,
37.73284,-120.0946479,3170.8392658369,114.501316,0,1.20467195456,17200,2018-05-13 18:49:53,18,0,24.121,3170.8392658369,114.501316,0.3131716,1.22082681072,0,0,-0.671082,28.9, 3.8, -4.1,0,0,1024,1024,1024,1024,29.6,-89.9,98,3.998,4.033,4.035,4.017,4.034,4.054,17.21,78.8,14,Waypoint,
37.7328401,-120.0946479,3171.8235178369,115.485568,0,1.22494426492,17300,2018-05-13 18:49:53,18,0,24.121,3171.8235178369,115.485568,0.3131716,1.22494426492,0,0,-0.671082,28.7, 3.6, -3.6,0,0,1024,1024,1024,1024,29.5,-89.9,98,3.998,4.033,4.035,4.017,4.034,4.054,17.21,78.8,14,Waypoint,
37.7328401,-120.0946479,3172.8077698369,116.46982,0,1.22494426492,17400,2018-05-13 18:49:53,18,0,24.121,3172.8077698369,116.46982,0.3131716,1.22494426492,0,0,-0.671082,28.7, 3.9, -3.6,0,0,1024,1024,1024,1024,29.6,-89.9,98,3.998,4.033,4.035,4.017,4.034,4.054,17.21,78.8,14,Waypoint,
37.7328401,-120.0946479,3173.7920218369,117.454072,0,1.22494426492,17500,2018-05-13 18:49:53,18,0,24.121,3173.7920218369,117.454072,0.3131716,1.22494426492,0,0,-0.671082,28.8, 3.8, -3.6,0,0,1024,1024,1024,1024,29.6,-89.9,98,3.998,4.033,4.035,4.017,4.034,4.054,17.21,78.8,14,Waypoint,
37.7328401,-120.0946479,3174.7762738369,118.438324,0,1.22494426492,17600,2018-05-13 18:49:53,18,0,24.121,3174.7762738369,118.438324,0.3131716,1.22494426492,0,0,-0.671082,29.3, 3.9, -3.8,0,0,1024,1024,1024,1024,29.6,-89.9,98,3.998,4.033,4.035,4.017,4.034,4.054,17.21,78.8,14,Waypoint,
37.7328402,-120.0946479,3175.7605258369,119.422576,0,1.24595476428,17700,2018-05-13 18:49:53,18,0,24.121,3175.7605258369,119.422576,0.3131716,1.24595476428,0,0,-0.671082,29.7, 3.8, -3.7,0,0,1024,1024,1024,1024,29.6,-89.9,98,3.998,4.033,4.035,4.017,4.034,4.054,17.21,78.8,14,Waypoint,
37.7328402,-120.0946479,3176.7447778369,120.406828,0,1.24595476428,17800,2018-05-13 18:49:53,18,0,24.121,3176.7447778369,120.406828,0.3131716,1.24595476428,0,0,-0.671082,29.8, 3.7, -3.8,0,0,1024,1024,1024,1024,29.6,-89.9,98,3.998,4.033,4.035,4.017,4.034,4.054,17.21,78.8,14,Waypoint,
37.7328402,-120.0946479,3178.0571138369,121.719164,0,1.24595476428,17900,2018-05-13 18:49:53,18,0,24.121,3178.0571138369,121.719164,0.3131716,1.24595476428,0,0,-0.671082,29.5, 3.8, -3.9,0,0,1024,1024,1024,1024,29.6,-89.9,98,3.998,4.033,4.035,4.017,4.034,4.054,17.21,78.8,14,Waypoint,
37.7328402,-120.094648,3179.0413658369,122.703416,0,1.22268376616,18000,2018-05-13 18:49:54,18,0,24.129,3179.0413658369,122.703416,0.3131716,1.24595476428,0,0,-0.671082,29.5, 4.1, -3.9,0,0,1024,1024,1024,1024,29.6,-89.9,97,4.005,4.054,4.038,4.028,4.033,4.063,21.938,78.8,14,Waypoint,
37.7328403,-120.094648,3180.0256178369,123.687668,0,1.24480318944,18100,2018-05-13 18:49:54,18,0,24.129,3180.0256178369,123.687668,0.3131716,1.24595476428,0,0,-0.671082,29.6, 4.1, -3.7,0,0,1024,1024,1024,1024,29.6,-89.9,97,4.005,4.054,4.038,4.028,4.033,4.063,21.938,78.8,14,Waypoint,
37.7328403,-120.094648,3181.0098698369,124.67192,0,1.24480318944,18200,2018-05-13 18:49:54,18,0,24.129,3181.0098698369,124.67192,0.3131716,1.24595476428,0,0,-0.671082,29.7, 4.2, -3.3,0,0,1024,1024,1024,1024,29.6,-89.9,97,4.005,4.054,4.038,4.028,4.033,4.063,21.938,78.8,14,Waypoint,
37.7328403,-120.094648,3183.3064578369,126.968508,0,1.24480318944,18300,2018-05-13 18:49:54,18,0,24.129,3183.3064578369,126.968508,0.3131716,1.24595476428,0,0,-0.671082,29.6, 4.5, -4,0,0,1024,1024,1024,1024,29.6,-89.9,97,4.005,4.054,4.038,4.028,4.033,4.063,21.938,78.8,14,Waypoint,
37.7328403,-120.0946479,3185.6030458369,129.265096,0,1.2676673634,18510,2018-05-13 18:49:54,18,0,24.129,3185.6030458369,129.265096,0.3131716,1.2676673634,0,0,-0.671082,29.7, 4.2, -5,0,0,1024,1024,1024,1024,29.6,-89.9,97,4.005,4.054,4.038,4.028,4.033,4.063,21.938,78.8,14,Waypoint,
37.7328403,-120.0946479,3187.5715498369,131.2336,0,1.2676673634,18700,2018-05-13 18:49:54,18,0,24.129,3187.5715498369,131.2336,0.3131716,1.2676673634,0,0,-0.671082,30.3, 3.7, -4.4,0,0,1024,1024,1024,1024,29.6,-89.9,97,4.005,4.054,4.038,4.028,4.033,4.063,21.938,78.8,14,Waypoint,
37.7328403,-120.0946479,3188.8838858369,132.545936,0,1.2676673634,18800,2018-05-13 18:49:54,18,0,24.129,3188.8838858369,132.545936,0.3131716,1.2676673634,0,0,-0.671082,30.5, 3.9, -4.4,0,0,1024,1024,1024,1024,29.6,-89.9,97,4.005,4.054,4.038,4.028,4.033,4.063,21.938,78.8,14,Waypoint,
37.7328403,-120.0946479,3189.8681378369,133.530188,0,1.2676673634,18900,2018-05-13 18:49:55,18,0,24.129,3189.8681378369,133.530188,0.3131716,1.2676673634,0,0,-0.671082,30.5, 4.5, -4.5,0,0,1024,1024,1024,1024,29.6,-89.9,97,4.005,4.054,4.038,4.028,4.033,4.063,21.938,78.8,14,Waypoint,
37.7328404,-120.0946479,3191.8366418369,135.498692,0.223694,1.29004597304,19100,2018-05-13 18:49:55,18,0,24.129,3191.8366418369,135.498692,0.3131716,1.29004597304,0,0,-0.671082,30, 5.3, -4.8,0,0,1024,1024,1024,1024,29.6,-89.9,97,4.005,4.054,4.038,4.028,4.033,4.063,21.938,78.8,14,Waypoint,
37.7328404,-120.0946479,3192.8208938369,136.482944,0.223694,1.29004597304,19210,2018-05-13 18:49:55,18,0,24.129,3192.8208938369,136.482944,0.3131716,1.29004597304,0,0,-0.671082,29.7, 5.4, -5,0,0,1024,1024,1024,1024,29.6,-89.9,97,4.005,4.054,4.038,4.028,4.033,4.063,21.938,78.8,14,Waypoint,
37.7328405,-120.0946479,3193.8051458369,137.467196,0.223694,1.3130577848,19400,2018-05-13 18:49:55,18,0,24.129,3193.8051458369,137.467196,0.3131716,1.3130577848,0,0,-0.671082,29.4, 5.3, -5,0,0,1024,1024,1024,1024,29.5,-89.9,97,4.005,4.054,4.038,4.028,4.033,4.063,21.938,78.8,14,Waypoint,
37.7328406,-120.0946478,3195.1174818369,138.779532,0.223694,1.35860240568,19500,2018-05-13 18:49:55,18,0,24.129,3195.1174818369,138.779532,0.3131716,1.35860240568,0,0,-0.671082,29.2, 5.3, -5.3,0,0,1024,1024,1024,1024,29.5,-89.9,97,4.005,4.054,4.038,4.028,4.033,4.063,21.938,78.8,14,Waypoint,
37.7328406,-120.0946478,3196.1017338369,139.763784,0.223694,1.35860240568,19600,2018-05-13 18:49:55,18,0,24.129,3196.1017338369,139.763784,0.3131716,1.35860240568,0,0,-0.671082,29.1, 5.3, -5.5,0,0,1024,1024,1024,1024,29.5,-89.9,97,4.005,4.054,4.038,4.028,4.033,4.063,21.938,78.8,14,Waypoint,
37.7328406,-120.0946477,3197.0859858369,140.748036,0.223694,1.3807907266,19700,2018-05-13 18:49:55,18,0,24.129,3197.0859858369,140.748036,0.3131716,1.3807907266,0,0,-0.671082,29.1, 5.5, -5.9,0,0,1024,1024,1024,1024,29.6,-89.9,97,4.005,4.054,4.038,4.028,4.033,4.063,21.938,78.8,14,Waypoint,
37.7328406,-120.0946476,3198.0702378369,141.732288,0.223694,1.40322182968,19800,2018-05-13 18:49:55,18,0,24.129,3198.0702378369,141.732288,0.3131716,1.40322182968,0,0,-0.671082,29.3, 5.5, -6.2,0,0,1024,1024,1024,1024,29.5,-89.9,97,4.005,4.054,4.038,4.028,4.033,4.063,21.938,78.8,14,Waypoint,
37.7328407,-120.0946475,3199.0544898369,142.71654,0.223694,1.448572881,19900,2018-05-13 18:49:55,18,0,24.129,3199.0544898369,142.71654,0.3131716,1.448572881,0,0,-0.671082,29.4, 5.7, -6.4,0,0,1024,1024,1024,1024,29.6,-89.9,97,4.005,4.054,4.038,4.028,4.033,4.063,21.938,78.8,14,Waypoint,
37.7328407,-120.0946475,3200.0387418369,143.700792,0.223694,1.448572881,20000,2018-05-13 18:49:56,18,0,24.08,3200.0387418369,143.700792,0.3131716,1.448572881,0,0,-0.671082,29.4, 6, -6.3,0,0,1024,1024,1024,1024,29.5,-89.9,97,3.986,4.008,4.017,4.004,4.017,4.035,16.974,78.8,14,Waypoint,
37.7328407,-120.0946475,3201.3510778369,145.013128,0,1.448572881,20100,2018-05-13 18:49:56,18,0,24.08,3201.3510778369,145.013128,0.3131716,1.448572881,0,0,-0.671082,29.4, 5.9, -6,0,0,1024,1024,1024,1024,29.5,-89.9,97,3.986,4.008,4.017,4.004,4.017,4.035,16.974,78.8,14,Waypoint,
37.7328407,-120.0946475,3202.3353298369,145.99738,0,1.448572881,20200,2018-05-13 18:49:56,18,0,24.08,3202.3353298369,145.99738,0.3131716,1.448572881,0,0,-0.671082,29.4, 5.7, -5.7,0,0,1024,1024,1024,1024,29.5,-89.9,97,3.986,4.008,4.017,4.004,4.017,4.035,16.974,78.8,14,Waypoint,
37.7328407,-120.0946475,3203.3195818369,146.981632,0,1.448572881,20300,2018-05-13 18:49:56,18,0,24.08,3203.3195818369,146.981632,0.3131716,1.448572881,0,0,-0.671082,29.4, 5.4, -5.5,0,0,1024,1024,1024,1024,29.5,-89.9,97,3.986,4.008,4.017,4.004,4.017,4.035,16.974,78.8,14,Waypoint,
37.7328407,-120.0946475,3204.6319178369,148.293968,0,1.448572881,20400,2018-05-13 18:49:56,18,0,24.08,3204.6319178369,148.293968,0.3131716,1.448572881,0,0,-0.671082,29.5, 5.2, -5.3,0,0,1024,1024,1024,1024,29.5,-89.9,97,3.986,4.008,4.017,4.004,4.017,4.035,16.974,78.8,14,Waypoint,
37.7328407,-120.0946475,3205.6161698369,149.27822,0,1.448572881,20500,2018-05-13 18:49:56,18,0,24.08,3205.6161698369,149.27822,0.3131716,1.448572881,0,0,-0.671082,29.6, 5, -5.5,0,0,1024,1024,1024,1024,29.5,-90,97,3.986,4.008,4.017,4.004,4.017,4.035,16.974,78.8,14,Waypoint,
37.7328407,-120.0946475,3206.6004218369,150.262472,0,1.448572881,20600,2018-05-13 18:49:56,18,0,24.08,3206.6004218369,150.262472,0.3131716,1.448572881,0,0,-0.671082,29.7, 4.9, -5.4,0,0,1024,1024,1024,1024,29.5,-89.9,97,3.986,4.008,4.017,4.004,4.017,4.035,16.974,78.8,14,Waypoint,
37.7328407,-120.0946475,3207.5846738369,151.246724,0,1.448572881,20700,2018-05-13 18:49:56,18,0,24.08,3207.5846738369,151.246724,0.3131716,1.448572881,0,0,-0.671082,29.8, 4.8, -5.2,0,0,1024,1024,1024,1024,29.6,-90,97,3.986,4.008,4.017,4.004,4.017,4.035,16.974,78.8,14,Waypoint,
37.7328406,-120.0946476,3208.5689258369,152.230976,0,1.40322182968,20800,2018-05-13 18:49:56,18,0,24.08,3208.5689258369,152.230976,0.3131716,1.448572881,0,0,-0.671082,29.8, 4.7, -5.3,0,0,1024,1024,1024,1024,29.6,-90,97,3.986,4.008,4.017,4.004,4.017,4.035,16.974,78.8,14,Waypoint,
37.7328406,-120.0946476,3210.5374298369,154.19948,0,1.40322182968,20900,2018-05-13 18:49:56,18,0,24.08,3210.5374298369,154.19948,0.3131716,1.448572881,0,0,-0.671082,29.8, 4.8, -5.2,0,0,1024,1024,1024,1024,29.5,-89.9,97,3.986,4.008,4.017,4.004,4.017,4.035,16.974,78.8,14,Waypoint,
37.7328406,-120.0946476,3211.5216818369,155.183732,0,1.40322182968,21000,2018-05-13 18:49:57,18,0,24.13,3211.5216818369,155.183732,0.3131716,1.448572881,0,0,-0.671082,29.8, 4.6, -5.3,0,0,1024,1024,1024,1024,29.6,-89.9,97,3.998,4.02,4.028,4.021,4.027,4.039,16.097,78.8,14,Waypoint,
37.7328405,-120.0946477,3212.5059338369,156.167984,0,1.35794623768,21100,2018-05-13 18:49:57,18,0,24.13,3212.5059338369,156.167984,0.3131716,1.448572881,0,0,-0.671082,29.7, 4.5, -5.2,0,0,1024,1024,1024,1024,29.5,-90,97,3.998,4.02,4.028,4.021,4.027,4.039,16.097,78.8,14,Waypoint,
37.7328405,-120.0946477,3213.4901858369,157.152236,0,1.35794623768,21200,2018-05-13 18:49:57,18,0,24.13,3213.4901858369,157.152236,0.3131716,1.448572881,0,0,-0.671082,29.5, 4.5, -5.2,0,0,1024,1024,1024,1024,29.5,-90,97,3.998,4.02,4.028,4.021,4.027,4.039,16.097,78.8,14,Waypoint,
37.7328404,-120.0946478,3214.4744378369,158.136488,0,1.31275922836,21300,2018-05-13 18:49:57,18,0,24.13,3214.4744378369,158.136488,0.3131716,1.448572881,0,0,-0.671082,29.4, 4.4, -5.2,0,0,1024,1024,1024,1024,29.5,-90,97,3.998,4.02,4.028,4.021,4.027,4.039,16.097,78.8,14,Waypoint,
37.7328404,-120.0946478,3215.4586898369,159.12074,0,1.31275922836,21400,2018-05-13 18:49:57,18,0,24.13,3215.4586898369,159.12074,0.3131716,1.448572881,0,0,-0.671082,29.4, 4.2, -5.1,0,0,1024,1024,1024,1024,29.5,-90,97,3.998,4.02,4.028,4.021,4.027,4.039,16.097,78.8,14,Waypoint,
37.7328403,-120.0946479,3216.4429418369,160.104992,0,1.2676673634,21510,2018-05-13 18:49:57,18,0,24.13,3216.4429418369,160.104992,0.3131716,1.448572881,0,0,-0.671082,29.4, 4, -5.1,0,0,1024,1024,1024,1024,29.5,-90,97,3.998,4.02,4.028,4.021,4.027,4.039,16.097,78.8,14,Waypoint,
37.7328403,-120.0946479,3216.4429418369,160.104992,0,1.2676673634,21600,2018-05-13 18:49:57,18,0,24.13,3216.4429418369,160.104992,0.3131716,1.448572881,0,0,-0.671082,29.4, 4, -5.1,0,0,1024,1024,1024,1024,29.5,-90,97,3.998,4.02,4.028,4.021,4.027,4.039,16.097,78.8,14,Waypoint,
37.7328403,-120.094648,3218.4114458369,162.073496,0,1.24480318944,21700,2018-05-13 18:49:57,18,0,24.13,3218.4114458369,162.073496,0.3131716,1.448572881,0,0,-0.671082,29.6, 4.1, -5,0,0,1024,1024,1024,1024,29.5,-89.9,97,3.998,4.02,4.028,4.021,4.027,4.039,16.097,78.8,14,Waypoint,
37.7328402,-120.094648,3219.3956978369,163.057748,0,1.22268376616,21810,2018-05-13 18:49:57,18,0,24.13,3219.3956978369,163.057748,0.3131716,1.448572881,0,0,-0.671082,29.6, 4, -4.9,0,0,1024,1024,1024,1024,29.5,-90,97,3.998,4.02,4.028,4.021,4.027,4.039,16.097,78.8,14,Waypoint,
37.7328402,-120.0946481,3220.3799498369,164.042,0,1.1996555502,21900,2018-05-13 18:49:58,18,0,24.13,3220.3799498369,164.042,0.3131716,1.448572881,0,0,-0.671082,29.7, 3.8, -4.8,0,0,1024,1024,1024,1024,29.6,-90,97,3.998,4.02,4.028,4.021,4.027,4.039,16.097,78.8,14,Waypoint,
37.7328401,-120.0946482,3221.3642018369,165.026252,0,1.15461617868,22010,2018-05-13 18:49:58,18,0,24.123,3221.3642018369,165.026252,0.3131716,1.448572881,0,0,-0.671082,29.7, 3.3, -4.9,0,0,1024,1024,1024,1024,29.6,-90,97,4.003,4.032,4.036,4.012,4.025,4.045,16.046,80.6,14,Waypoint,
37.73284,-120.0946483,3222.3484538369,166.010504,0,1.10969819824,22200,2018-05-13 18:49:58,18,0,24.123,3222.3484538369,166.010504,0.3131716,1.448572881,0,0,-0.671082,29.8, 2.6, -5.1,0,0,1024,1024,1024,1024,29.6,-90,97,4.003,4.032,4.036,4.012,4.025,4.045,16.046,80.6,14,Waypoint,
37.7328399,-120.0946484,3223.0046218369,166.666672,0,1.06491801308,22300,2018-05-13 18:49:58,18,0,24.123,3223.0046218369,166.666672,0.3131716,1.448572881,0,0,-0.671082,29.8, 2.4, -4.9,0,0,1024,1024,1024,1024,29.6,-89.9,97,4.003,4.032,4.036,4.012,4.025,4.045,16.046,80.6,14,Waypoint,
37.7328398,-120.0946485,3223.9888738369,167.650924,0,1.0202920274,22400,2018-05-13 18:49:58,18,0,24.123,3223.9888738369,167.650924,0.3131716,1.448572881,0,0,-0.671082,29.7, 2.8, -4.5,0,0,1024,1024,1024,1024,29.6,-89.9,97,4.003,4.032,4.036,4.012,4.025,4.045,16.046,80.6,14,Waypoint,
37.7328398,-120.0946486,3224.9731258369,168.635176,0,0.99676512376,22500,2018-05-13 18:49:58,18,0,24.123,3224.9731258369,168.635176,0.3131716,1.448572881,0,0,-0.671082,29.7, 2.9, -4.5,0,0,1024,1024,1024,1024,29.6,-89.9,97,4.003,4.032,4.036,4.012,4.025,4.045,16.046,80.6,14,Waypoint,
37.7328398,-120.0946487,3225.9573778369,169.619428,0,0.9735236532,22600,2018-05-13 18:49:58,18,0,24.123,3225.9573778369,169.619428,0.3131716,1.448572881,0,0,-0.671082,29.8, 2.8, -4.6,0,0,1024,1024,1024,1024,29.6,-90,97,4.003,4.032,4.036,4.012,4.025,4.045,16.046,80.6,14,Waypoint,
37.7328397,-120.0946488,3226.9416298369,170.60368,0,0.92862863864,22700,2018-05-13 18:49:58,18,0,24.123,3226.9416298369,170.60368,0.3131716,1.448572881,0,0,-0.671082,30, 2.9, -4.5,0,0,1024,1024,1024,1024,29.6,-89.9,97,4.003,4.032,4.036,4.012,4.025,4.045,16.046,80.6,14,Waypoint,
37.7328397,-120.0946489,3227.9258818369,171.587932,0,0.90547575076,22800,2018-05-13 18:49:58,18,0,24.123,3227.9258818369,171.587932,0.3131716,1.448572881,0,0,-0.671082,30.1, 2.9, -4.1,0,0,1024,1024,1024,1024,29.6,-89.9,97,4.003,4.032,4.036,4.012,4.025,4.045,16.046,80.6,14,Waypoint,
37.7328397,-120.0946489,3228.9101338369,172.572184,0,0.90547575076,22900,2018-05-13 18:49:58,18,0,24.123,3228.9101338369,172.572184,0.3131716,1.448572881,0,0,-0.671082,30, 3, -3.9,0,0,1024,1024,1024,1024,29.6,-90,97,4.003,4.032,4.036,4.012,4.025,4.045,16.046,80.6,14,Waypoint,
37.7328396,-120.094649,3229.5663018369,173.228352,0,0.8605151194,23000,2018-05-13 18:49:59,18,0,24.015,3229.5663018369,173.228352,0.3131716,1.448572881,0,0,-0.671082,29.9, 3, -4,0,0,1024,1024,1024,1024,29.6,-90,97,4.003,4.032,4.036,4.012,4.025,4.045,17.214,80.6,14,Waypoint,
37.7328396,-120.0946491,3230.5505538369,174.212604,0,0.83747049924,23100,2018-05-13 18:49:59,18,0,24.015,3230.5505538369,174.212604,0.3131716,1.448572881,0,0,-0.671082,29.9, 2.8, -4.1,0,0,1024,1024,1024,1024,29.6,-90,97,4.003,4.032,4.036,4.012,4.025,4.045,17.214,80.6,14,Waypoint,
37.7328396,-120.0946492,3231.5348058369,175.196856,0,0.81479333316,23200,2018-05-13 18:49:59,18,0,24.015,3231.5348058369,175.196856,0.3131716,1.448572881,0,0,-0.671082,29.7, 2.4, -4,0,0,1024,1024,1024,1024,29.5,-90,97,4.003,4.032,4.036,4.012,4.025,4.045,17.214,80.6,14,Waypoint,
37.7328395,-120.0946493,3233.5033098369,177.16536,0,0.76950789864,23300,2018-05-13 18:49:59,18,0,24.015,3233.5033098369,177.16536,0.3131716,1.448572881,0,0,-0.671082,29.3, 2.8, -4,0,0,1024,1024,1024,1024,29.6,-89.9,97,4.003,4.032,4.036,4.012,4.025,4.045,17.214,80.6,14,Waypoint,
37.7328395,-120.0946495,3235.1437298369,178.80578,0,0.72493768724,23500,2018-05-13 18:49:59,18,0,24.015,3235.1437298369,178.80578,0.3131716,1.448572881,0,0,-0.671082,29.3, 3, -3.5,0,0,1024,1024,1024,1024,29.6,-90,97,4.003,4.032,4.036,4.012,4.025,4.045,17.214,80.6,14,Waypoint,
37.7328394,-120.0946496,3237.4403178369,181.102368,0,0.67930120284,23700,2018-05-13 18:49:59,18,0,24.015,3237.4403178369,181.102368,0.3131716,1.448572881,0,0,-0.671082,29.5, 3.1, -4.1,0,0,1024,1024,1024,1024,29.6,-89.9,97,4.003,4.032,4.036,4.012,4.025,4.045,17.214,80.6,14,Waypoint,
37.7328394,-120.0946496,3238.0964858369,181.758536,0,0.67930120284,23800,2018-05-13 18:49:59,18,0,24.015,3238.0964858369,181.758536,0.3131716,1.448572881,0,0,-0.671082,29.6, 3, -4.5,0,0,1024,1024,1024,1024,29.6,-89.9,97,4.003,4.032,4.036,4.012,4.025,4.045,17.214,80.6,14,Waypoint,
37.7328394,-120.0946497,3239.0807378369,182.742788,0,0.65750330188,23900,2018-05-13 18:49:59,18,0,24.015,3239.0807378369,182.742788,0.3131716,1.448572881,0,0,-0.671082,29.8, 2.7, -4.4,0,0,1024,1024,1024,1024,29.6,-90,97,4.003,4.032,4.036,4.012,4.025,4.045,17.214,80.6,14,Waypoint,
37.7328394,-120.0946497,3240.0649898369,183.72704,0,0.65750330188,24010,2018-05-13 18:50:00,18,0,24.015,3240.0649898369,183.72704,0.3131716,1.448572881,0,0,-0.671082,29.9, 2.6, -4.3,0,0,1024,1024,1024,1024,29.6,-90,97,3.974,4.001,4.007,3.979,3.994,4.02,17.214,80.6,14,Waypoint,
37.7328394,-120.0946498,3241.0492418369,184.711292,0,0.63626642456,24110,2018-05-13 18:50:00,18,0,24.015,3241.0492418369,184.711292,0.3131716,1.448572881,0,0,-0.671082,30, 3.3, -3.9,0,0,1024,1024,1024,1024,29.6,-89.9,97,3.974,4.001,4.007,3.979,3.994,4.02,17.214,80.6,14,Waypoint,
37.7328394,-120.0946498,3241.0492418369,184.711292,0,0.63626642456,24200,2018-05-13 18:50:00,18,0,24.015,3241.0492418369,184.711292,0.3131716,1.448572881,0,0,-0.671082,30, 3.3, -3.9,0,0,1024,1024,1024,1024,29.6,-89.9,97,3.974,4.001,4.007,3.979,3.994,4.02,17.214,80.6,14,Waypoint,
37.7328394,-120.0946498,3242.0334938369,185.695544,0,0.63626642456,24300,2018-05-13 18:50:00,18,0,24.015,3242.0334938369,185.695544,0.3131716,1.448572881,0,0,-0.671082,30.1, 3.7, -3.6,0,0,1024,1024,1024,1024,29.6,-89.9,97,3.974,4.001,4.007,3.979,3.994,4.02,17.214,80.6,14,Waypoint,
37.7328395,-120.0946499,3244.3300818369,187.992132,0,0.64210631976,24400,2018-05-13 18:50:00,18,0,24.015,3244.3300818369,187.992132,0.3131716,1.448572881,0,0,-0.671082,30.2, 3.7, -3.3,0,0,1024,1024,1024,1024,29.6,-89.9,97,3.974,4.001,4.007,3.979,3.994,4.02,17.214,80.6,14,Waypoint,
37.7328395,-120.09465,3245.3143338369,188.976384,0,0.62302167348,24610,2018-05-13 18:50:00,18,0,24.015,3245.3143338369,188.976384,0.3131716,1.448572881,0,0,-0.671082,30.3, 3.9, -3.6,0,0,1024,1024,1024,1024,29.6,-89.9,97,3.974,4.001,4.007,3.979,3.994,4.02,17.214,80.6,14,Waypoint,
37.7328395,-120.09465,3246.6266698369,190.28872,0,0.62302167348,24700,2018-05-13 18:50:00,18,0,24.015,3246.6266698369,190.28872,0.3131716,1.448572881,0,0,-0.671082,30.4, 4, -3.6,0,0,1024,1024,1024,1024,29.6,-89.9,97,3.974,4.001,4.007,3.979,3.994,4.02,17.214,80.6,14,Waypoint,
37.7328395,-120.0946499,3247.6109218369,191.272972,0,0.64210631976,24800,2018-05-13 18:50:00,18,0,24.015,3247.6109218369,191.272972,0.3131716,1.448572881,0,0,-0.671082,30.1, 4, -3.6,0,0,1024,1024,1024,1024,29.6,-89.9,97,3.974,4.001,4.007,3.979,3.994,4.02,17.214,80.6,14,Waypoint,
37.7328395,-120.0946499,3248.9232578369,192.585308,0,0.64210631976,24900,2018-05-13 18:50:01,18,0,24.015,3248.9232578369,192.585308,0.3131716,1.448572881,0,0,-0.671082,29.8, 3.7, -4,0,0,1024,1024,1024,1024,29.6,-90,97,3.974,4.001,4.007,3.979,3.994,4.02,17.214,80.6,14,Waypoint,
37.7328394,-120.0946499,3249.9075098369,193.56956,0,0.615649626,25000,2018-05-13 18:50:01,18,0,23.839,3249.9075098369,193.56956,0.3131716,1.448572881,0,0,-0.671082,29.7, 3.1, -4.4,0,0,1024,1024,1024,1024,29.6,-90,97,3.942,3.981,3.985,3.951,3.978,3.998,19.146,80.6,14,Waypoint,
37.7328393,-120.0946499,3250.8917618369,194.553812,0,0.59025920524,25100,2018-05-13 18:50:01,18,0,23.839,3250.8917618369,194.553812,0.3131716,1.448572881,0,0,-0.671082,29.6, 2.5, -4.7,0,0,1024,1024,1024,1024,29.6,-90,97,3.942,3.981,3.985,3.951,3.978,3.998,19.146,80.6,14,Waypoint,
37.7328392,-120.09465,3252.2040978369,195.866148,0,0.5443405686,25200,2018-05-13 18:50:01,18,0,23.839,3252.2040978369,195.866148,0.3131716,1.448572881,0,0,-0.671082,29.5, 1.8, -4.9,0,0,1024,1024,1024,1024,29.6,-90,97,3.942,3.981,3.985,3.951,3.978,3.998,19.146,80.6,14,Waypoint,
37.7328391,-120.09465,3253.1883498369,196.8504,0,0.52059056784,25300,2018-05-13 18:50:01,18,0,23.839,3253.1883498369,196.8504,0.3131716,1.448572881,0,0,-0.671082,29.4, 1.4, -4.7,0,0,1024,1024,1024,1024,29.6,-90,97,3.942,3.981,3.985,3.951,3.978,3.998,19.146,80.6,14,Waypoint,
37.732839,-120.0946501,3254.1726018369,197.834652,0,0.4752952908,25400,2018-05-13 18:50:01,18,0,23.839,3254.1726018369,197.834652,0.3131716,1.448572881,0,0,-0.671082,29.4, 1.2, -4.3,0,0,1024,1024,1024,1024,29.6,-90,97,3.942,3.981,3.985,3.951,3.978,3.998,19.146,80.6,14,Waypoint,
37.7328389,-120.0946502,3255.1568538369,198.818904,0,0.43025920012,25500,2018-05-13 18:50:01,18,0,23.839,3255.1568538369,198.818904,0.3131716,1.448572881,0,0,-0.671082,29.6, 0.9, -4.2,0,0,1024,1024,1024,1024,29.6,-90,97,3.942,3.981,3.985,3.951,3.978,3.998,19.146,80.6,14,Waypoint,
37.7328388,-120.0946503,3255.8130218369,199.475072,0,0.38557415932,25620,2018-05-13 18:50:01,18,0,23.839,3255.8130218369,199.475072,0.3131716,1.448572881,0,0,-0.671082,29.7, 0.7, -4.1,0,0,1024,1024,1024,1024,29.6,-90,97,3.942,3.981,3.985,3.951,3.978,3.998,19.146,80.6,14,Waypoint,
37.7328387,-120.0946504,3256.7972738369,200.459324,0,0.34137796368,25700,2018-05-13 18:50:01,18,0,23.839,3256.7972738369,200.459324,0.3131716,1.448572881,0,0,-0.671082,29.8, 0.5, -3.9,0,0,1024,1024,1024,1024,29.6,-90,97,3.942,3.981,3.985,3.951,3.978,3.998,19.146,80.6,14,Waypoint,
37.7328386,-120.0946506,3258.4376938369,202.099744,0,0.273103027112,25800,2018-05-13 18:50:01,18,0,23.839,3258.4376938369,202.099744,0.3131716,1.448572881,0,0,-0.671082,30, 0.4, -3.7,0,0,1024,1024,1024,1024,29.6,-89.9,97,3.942,3.981,3.985,3.951,3.978,3.998,19.146,80.6,14,Waypoint,
37.7328385,-120.0946508,3259.4219458369,203.083996,0,0.204827434376,25900,2018-05-13 18:50:01,18,0,23.839,3259.4219458369,203.083996,0.3131716,1.448572881,0,0,-0.671082,29.9, 0.3, -3.6,0,0,1024,1024,1024,1024,29.6,-90,97,3.942,3.981,3.985,3.951,3.978,3.998,19.146,80.6,14,Waypoint,
37.7328385,-120.0946509,3260.0781138369,203.740164,0,0.181095478236,26000,2018-05-13 18:50:02,18,0,23.873,3260.0781138369,203.740164,0.3131716,1.448572881,0,0,-0.671082,29.9, 0.2, -3.5,0,0,1024,1024,1024,1024,29.6,-90,97,3.956,3.978,3.996,3.976,3.986,4.006,18.506,80.6,14,Waypoint,
37.7328385,-120.094651,3262.0466178369,205.708668,0,0.159066278056,26220,2018-05-13 18:50:02,18,0,23.873,3262.0466178369,205.708668,0.3131716,1.448572881,0,0,-0.671082,29.9, 0.6, -3.4,0,0,1024,1024,1024,1024,29.6,-89.9,97,3.956,3.978,3.996,3.976,3.986,4.006,18.506,80.6,14,Waypoint,
37.7328385,-120.0946511,3262.7027858369,206.364836,0,0.139548560896,26300,2018-05-13 18:50:02,18,0,23.873,3262.7027858369,206.364836,0.3131716,1.448572881,0,0,-0.671082,29.9, 0.7, -3,0,0,1024,1024,1024,1024,29.6,-89.9,97,3.956,3.978,3.996,3.976,3.986,4.006,18.506,80.6,14,Waypoint,
37.7328385,-120.0946512,3263.6870378369,207.349088,0,0.1237368806,26500,2018-05-13 18:50:02,18,0,23.873,3263.6870378369,207.349088,0.3131716,1.448572881,0,0,-0.671082,30, 0.7, -2.8,0,0,1024,1024,1024,1024,29.6,-90,97,3.956,3.978,3.996,3.976,3.986,4.006,18.506,80.6,14,Waypoint,
