Latitude, Longitude, Altitude (m), Time, Sats, Speed (m/s), Range (m), Battery (%), Roll (deg), Pitch (deg), Yaw (deg), Images, HD Signal (%), RC Signal (%), Battery Temp (C), Battery Voltage (mV), Battery Current (mA), Battery Energy (mAh), Battery Capacity (mAh), Battery Discharges, flyState, timestamp (Unix), LastUpdate (ms), radioChannel, Rc_elevator, Rc_aileron, Rc_throttle, Rc_rudder, Rc_gyro, Dronetype, Battery_Cell1 (mV), Battery_Cell2 (mV), Battery_Cell3 (mV), Battery_Cell4 (mV), Battery_Cell5 (mV), Battery_Cell6 (mV), Video, isFlying, elapsedTime (ms), gimbalPitch (deg), gimbalRoll (deg), gimbalYaw (deg), VelocityX (m/s), VelocityY (m/s), VelocityZ (m/s), GroundSmear (cm), App Version, Aircraft Name, Aircraft Firmware, Aircraft Serial Number, Battery Serial Number, Battery Lifetime (%), App_Tip, App_Warning, CurrentFlightStartingIndex, CurrentFlightLastVisitedWaypoint, PreviousFlightEndingWaypointIndex
37.7328203, -120.0946498, 0.000, 12:30:22.553, 16, 0.00, 0.04, 100, -0.900, 1.200, 33.700, 1577, 100, 100, 22, 25465, -3989, 5491, 5491, 11, 11, 1526239822.553, 97, 0, 1024, 1024, 1024, 1024, 0, 6, 4259, 4272, 4260, 4282, 4249, 4251, 0, 1, 2802, -89.900, 0.000, 32.300, 0.000, 0.000, 0.000, 0.0, MapPilot_2.8.1_04242018, Dendroctonus I, 1.3.1.00, 041DDC1887, 1058163200445, 98, DJI_0581.jpg, Starting Mission from Lat/Long: 37.73282/-120.09465 Camera: Zenmuse X3 - Overlap: 90/90 - Active Connection: No, 63, 63, 63
37.7328203, -120.0946499, 0.000, 12:30:22.652, 16, 0.00, 0.05, 100, -0.200, 1.100, 33.900, 1577, 100, 100, 22, 25465, -3989, 5491, 5491, 11, 11, 1526239822.653, 97, 0, 1024, 1024, 1024, 1024, 0, 6, 4259, 4272, 4260, 4282, 4249, 4251, 0, 1, 2901, -89.900, 0.000, 32.300, 0.000, 0.000, -0.100, 0.0, , , , , , 98, , , 63, 63, 63
37.7328203, -120.0946500, 0.000, 12:30:22.752, 16, 0.00, 0.05, 100, 0.200, 0.600, 33.900, 1577, 100, 100, 22, 25465, -3989, 5491, 5491, 11, 11, 1526239822.753, 86, 0, 1024, 1024, 1024, 1024, 0, 6, 4259, 4272, 4260, 4282, 4249, 4251, 0, 1, 3001, -90.000, 0.000, 32.300, 0.000, 0.000, -0.200, 0.0, , , , , , 98, , , 63, 63, 63
37.7328203, -120.0946501, 0.000, 12:30:22.852, 16, 0.00, 0.06, 100, 0.500, 0.000, 33.800, 1577, 100, 100, 22, 25465, -3989, 5491, 5491, 11, 11, 1526239822.853, 79, 0, 1024, 1024, 1024, 1024, 0, 6, 4259, 4272, 4260, 4282, 4249, 4251, 0, 1, 3101, -90.000, 0.000, 32.300, 0.000, 0.000, -0.200, 0.0, , , , , , 98, , , 63, 63, 63
37.7328203, -120.0946502, 0.000, 12:30:22.952, 16, 0.00, 0.07, 100, 0.900, -0.600, 33.700, 1577, 100, 100, 22, 25465, -3989, 5491, 5491, 11, 11, 1526239822.953, 56, 0, 1024, 1024, 1024, 1024, 0, 6, 4259, 4272, 4260, 4282, 4249, 4251, 0, 1, 3201, -90.000, 0.000, 32.300, 0.000, 0.000, -0.200, 0.0, , , , , , 98, , , 63, 63, 63
37.7328202, -120.0946503, 0.000, 12:30:23.052, 16, 0.00, 0.07, 100, 1.000, -0.500, 33.600, 1577, 100, 100, 22, 25465, -3989, 5491, 5491, 11, 11, 1526239823.053, 66, 0, 1024, 1024, 1024, 1024, 0, 6, 4259, 4272, 4260, 4282, 4249, 4251, 0, 1, 3301, -90.000, 0.000, 32.400, 0.000, 0.000, -0.300, 0.0, , , , , , 98, , , 63, 63, 63
37.7328202, -120.0946502, 0.000, 12:30:23.152, 16, 0.00, 0.07, 100, 0.600, -0.400, 33.500, 1577, 100, 100, 22, 25465, -3989, 5491, 5491, 11, 11, 1526239823.153, 65, 0, 1024, 1024, 1024, 1024, 0, 6, 4259, 4272, 4260, 4282, 4249, 4251, 0, 1, 3401, -89.900, 0.000, 32.400, 0.000, 0.000, -0.300, 0.0, , , , , , 98, , , 63, 63, 63
37.7328201, -120.0946502, 0.100, 12:30:23.252, 16, 0.00, 0.06, 100, 0.000, -0.200, 33.400, 1577, 100, 100, 22, 25465, -3989, 5491, 5491, 11, 11, 1526239823.252, 38, 0, 1024, 1024, 1024, 1024, 0, 6, 4259, 4272, 4260, 4282, 4249, 4251, 0, 1, 3501, -89.900, 0.000, 32.400, 0.000, 0.000, -0.400, 0.0, , , , , , 98, , , 63, 63, 63
37.7328201, -120.0946502, 0.100, 12:30:23.352, 16, 0.00, 0.06, 100, -0.400, 0.000, 33.400, 1577, 100, 100, 22, 25465, -3989, 5491, 5491, 11, 11, 1526239823.353, 49, 0, 1024, 1024, 1024, 1024, 0, 6, 4259, 4272, 4260, 4282, 4249, 4251, 0, 1, 3601, -90.000, 0.000, 32.400, 0.000, 0.000, -0.400, 0.0, , , , , , 98, , , 63, 63, 63
37.7328201, -120.0946502, 0.200, 12:30:23.452, 16, 0.00, 0.06, 100, -0.600, 0.000, 33.400, 1577, 100, 100, 22, 25465, -3989, 5491, 5491, 11, 11, 1526239823.453, 30, 0, 1024, 1024, 1024, 1024, 0, 6, 4259, 4272, 4260, 4282, 4249, 4251, 0, 1, 3701, -89.900, 0.000, 32.400, 0.000, 0.000, -0.400, 0.0, , , , , , 98, , , 63, 63, 63
37.7328200, -120.0946501, 0.200, 12:30:23.551, 16, 0.00, 0.06, 100, -0.400, 0.300, 33.400, 1577, 100, 100, 22, 25224, -6659, 5491, 5491, 11, 11, 1526239823.552, 43, 0, 1024, 1024, 1024, 1024, 0, 6, 4200, 4134, 4144, 4164, 4175, 4171, 0, 1, 3800, -89.900, 0.000, 32.500, 0.000, 0.000, -0.400, 0.0, , , , , , 98, , , 63, 63, 63
37.7328200, -120.0946500, 0.300, 12:30:23.652, 15, 0.00, 0.05, 100, -0.600, 0.400, 33.500, 1577, 100, 100, 22, 25224, -6659, 5491, 5491, 11, 11, 1526239823.653, 43, 0, 1024, 1024, 1024, 1024, 0, 6, 4200, 4134, 4144, 4164, 4175, 4171, 0, 1, 3902, -89.900, 0.000, 32.500, 0.000, 0.000, -0.500, 0.0, , , , , , 98, , , 63, 63, 63
37.7328200, -120.0946500, 0.300, 12:30:23.752, 15, 0.00, 0.04, 100, -0.800, 0.300, 33.500, 1577, 100, 100, 22, 25224, -6659, 5491, 5491, 11, 11, 1526239823.753, 19, 0, 1024, 1024, 1024, 1024, 0, 6, 4200, 4134, 4144, 4164, 4175, 4171, 0, 1, 4001, -89.900, 0.000, 32.500, 0.000, 0.000, -0.500, 0.0, , , , , , 98, , , 63, 63, 63
37.7328201, -120.0946499, 0.400, 12:30:23.852, 16, 0.00, 0.04, 100, -0.900, 0.300, 33.600, 1577, 100, 100, 22, 25224, -6659, 5491, 5491, 11, 11, 1526239823.853, 32, 0, 1024, 1024, 1024, 1024, 0, 6, 4200, 4134, 4144, 4164, 4175, 4171, 0, 1, 4101, -90.000, 0.000, 32.500, 0.000, 0.000, -0.500, 0.0, , , , , , 98, , , 63, 63, 63
37.7328200, -120.0946498, 0.500, 12:30:23.952, 16, 0.00, 0.03, 100, -1.100, 0.300, 33.900, 1577, 100, 100, 22, 25224, -6659, 5491, 5491, 11, 11, 1526239823.953, 8, 0, 1024, 1024, 1024, 1024, 0, 6, 4200, 4134, 4144, 4164, 4175, 4171, 0, 1, 4201, -90.000, 0.000, 32.500, 0.000, 0.000, -0.400, 0.0, , , , , , 98, , , 63, 63, 63
37.7328201, -120.0946497, 0.500, 12:30:24.052, 16, 0.00, 0.02, 100, -1.100, 0.300, 33.900, 1577, 100, 100, 22, 25224, -6659, 5491, 5491, 11, 11, 1526239824.053, 20, 0, 1024, 1024, 1024, 1024, 0, 6, 4200, 4134, 4144, 4164, 4175, 4171, 0, 1, 4301, -90.000, 0.000, 32.500, 0.000, 0.000, -0.400, 0.0, , , , , , 98, , , 63, 63, 63
37.7328201, -120.0946497, 0.600, 12:30:24.152, 16, 0.00, 0.02, 100, -0.900, 0.400, 33.900, 1577, 100, 100, 22, 25224, -6659, 5491, 5491, 11, 11, 1526239824.153, 6, 0, 1024, 1024, 1024, 1024, 0, 6, 4200, 4134, 4144, 4164, 4175, 4171, 0, 1, 4401, -89.900, 0.000, 32.600, 0.000, 0.000, -0.400, 0.0, , , , , , 98, , , 63, 63, 63
37.7328201, -120.0946496, 0.600, 12:30:24.252, 16, 0.00, 0.01, 100, -0.900, 0.400, 33.800, 1577, 100, 100, 22, 25224, -6659, 5491, 5491, 11, 11, 1526239824.253, 17, 0, 1024, 1024, 1024, 1024, 0, 6, 4200, 4134, 4144, 4164, 4175, 4171, 0, 1, 4501, -89.900, 0.000, 32.600, 0.000, 0.000, -0.500, 0.0, , , , , , 98, , , 63, 63, 63
37.7328201, -120.0946496, 0.700, 12:30:24.352, 16, 0.00, 0.01, 100, -0.900, 0.400, 33.700, 1577, 100, 100, 22, 25224, -6659, 5491, 5491, 11, 11, 1526239824.353, 19, 0, 1024, 1024, 1024, 1024, 0, 6, 4200, 4134, 4144, 4164, 4175, 4171, 0, 1, 4601, -89.900, 0.000, 32.600, 0.000, 0.000, -0.500, 0.0, , , , , , 98, , , 63, 63, 63
37.7328201, -120.0946495, 0.800, 12:30:24.453, 16, 0.00, 0.00, 100, -0.900, 0.500, 33.700, 1577, 100, 100, 22, 25224, -6659, 5491, 5491, 11, 11, 1526239824.453, 8, 0, 1024, 1024, 1024, 1024, 0, 6, 4200, 4134, 4144, 4164, 4175, 4171, 0, 1, 4702, -89.900, 0.000, 32.600, 0.000, 0.000, -0.500, 0.0, , , , , , 98, , , 63, 63, 63
37.7328201, -120.0946494, 0.800, 12:30:24.555, 16, 0.00, 0.00, 100, -0.800, 0.600, 33.600, 1577, 100, 100, 22, 24281, -16184, 5491, 5491, 11, 11, 1526239824.555, 10, 0, 1024, 1024, 1024, 1024, 0, 6, 4200, 4134, 4144, 4164, 4175, 4171, 0, 1, 4803, -89.900, 0.000, 32.600, 0.000, 0.000, -0.500, 0.0, , , , , , 98, , , 63, 63, 63
37.7328201, -120.0946494, 0.800, 12:30:24.652, 16, 0.00, 0.00, 100, -0.800, 0.600, 33.600, 1577, 100, 100, 22, 24281, -16184, 5491, 5491, 11, 11, 1526239824.653, 108, 0, 1024, 1024, 1024, 1024, 0, 6, 4053, 4037, 4020, 4039, 4060, 4057, 0, 1, 4901, -89.900, 0.000, 32.600, 0.000, 0.000, -0.500, 0.0, , , , , , 98, , , 63, 63, 63
37.7328201, -120.0946494, 0.900, 12:30:24.752, 16, 0.00, 0.01, 100, -0.800, 0.700, 33.600, 1577, 100, 100, 22, 24281, -16184, 5491, 5491, 11, 6, 1526239824.753, 90, 0, 1024, 1024, 1024, 1024, 0, 6, 4053, 4037, 4020, 4039, 4060, 4057, 0, 1, 5001, -89.900, 0.000, 32.600, 0.000, 0.000, -0.400, 0.0, , , , , , 98, , , 63, 63, 63
37.7328202, -120.0946493, 0.900, 12:30:24.852, 16, 0.00, 0.01, 100, -0.800, 0.700, 33.500, 1577, 100, 100, 22, 24281, -16184, 5491, 5491, 11, 14, 1526239824.853, 88, 0, 1024, 1024, 1024, 1024, 0, 6, 4053, 4037, 4020, 4039, 4060, 4057, 0, 1, 5101, -89.900, 0.000, 32.600, 0.000, 0.000, -0.400, 0.0, , , , , , 98, , , 63, 63, 63
37.7328202, -120.0946493, 0.900, 12:30:24.952, 16, 0.00, 0.02, 100, -0.700, 0.900, 33.400, 1577, 100, 100, 22, 24281, -16184, 5491, 5491, 11, 14, 1526239824.953, 94, 0, 1024, 1024, 1024, 1024, 0, 6, 4053, 4037, 4020, 4039, 4060, 4057, 0, 1, 5201, -89.900, 0.000, 32.600, 0.000, 0.000, -0.300, 0.0, , , , , , 98, , , 63, 63, 63
37.7328202, -120.0946492, 1.000, 12:30:25.052, 16, 0.00, 0.03, 100, -0.500, 0.900, 33.300, 1577, 100, 100, 22, 24281, -16184, 5491, 5491, 11, 14, 1526239825.052, 70, 0, 1024, 1024, 1024, 1024, 0, 6, 4053, 4037, 4020, 4039, 4060, 4057, 0, 1, 5300, -89.900, 0.000, 32.600, 0.000, 0.000, -0.300, 0.0, , , , , , 98, , , 63, 63, 63
37.7328202, -120.0946492, 1.000, 12:30:25.153, 16, 0.00, 0.03, 100, -0.600, 1.000, 33.300, 1577, 100, 100, 22, 24281, -16184, 5491, 5491, 11, 14, 1526239825.153, 59, 0, 1024, 1024, 1024, 1024, 0, 6, 4053, 4037, 4020, 4039, 4060, 4057, 0, 1, 5402, -89.900, 0.000, 32.600, 0.000, 0.000, -0.200, 0.0, , , , , , 98, , , 63, 63, 63
37.7328203, -120.0946491, 1.000, 12:30:25.252, 16, 0.00, 0.04, 100, -0.600, 0.900, 33.400, 1577, 100, 100, 22, 24281, -16184, 5491, 5491, 11, 14, 1526239825.253, 72, 0, 1024, 1024, 1024, 1024, 0, 6, 4053, 4037, 4020, 4039, 4060, 4057, 0, 1, 5501, -89.900, 0.000, 32.600, 0.000, 0.000, -0.300, 0.0, , , , , , 98, , , 63, 63, 63
37.7328203, -120.0946490, 1.100, 12:30:25.353, 16, 0.00, 0.04, 100, -0.600, 0.900, 33.400, 1577, 100, 100, 22, 24281, -16184, 5491, 5491, 11, 14, 1526239825.353, 77, 0, 1024, 1024, 1024, 1024, 0, 6, 4053, 4037, 4020, 4039, 4060, 4057, 0, 1, 5602, -89.900, 0.000, 32.600, 0.000, 0.000, -0.500, 0.0, , , , , , 98, , , 63, 63, 63
37.7328203, -120.0946490, 1.200, 12:30:25.452, 16, 0.00, 0.05, 100, -0.600, 0.800, 33.500, 1577, 100, 100, 22, 24281, -16184, 5491, 5491, 11, 14, 1526239825.453, 69, 0, 1024, 1024, 1024, 1024, 0, 6, 4053, 4037, 4020, 4039, 4060, 4057, 0, 1, 5701, -89.900, 0.000, 32.600, 0.000, 0.000, -0.700, 0.0, , , , , , 98, , , 63, 63, 63
37.7328203, -120.0946489, 1.200, 12:30:25.552, 16, 0.00, 0.06, 100, -0.700, 0.800, 33.500, 1577, 100, 100, 22, 24189, -15889, 5491, 5491, 11, 14, 1526239825.553, 80, 0, 1024, 1024, 1024, 1024, 0, 6, 4033, 4017, 4001, 4016, 4054, 4033, 0, 1, 5801, -89.900, 0.000, 32.600, 0.000, 0.000, -0.800, 0.0, , , , , , 98, , , 63, 63, 63
37.7328203, -120.0946488, 1.300, 12:30:25.652, 15, 0.00, 0.06, 100, -0.800, 0.900, 33.500, 1577, 100, 100, 22, 24189, -15889, 5491, 5491, 11, 14, 1526239825.653, 59, 0, 1024, 1024, 1024, 1024, 0, 6, 4033, 4017, 4001, 4016, 4054, 4033, 0, 1, 5901, -89.900, 0.000, 32.600, 0.000, 0.000, -1.000, 0.0, , , , , , 98, , , 63, 63, 63
37.7328203, -120.0946488, 1.400, 12:30:25.752, 15, 0.00, 0.07, 100, -0.800, 0.900, 33.600, 1577, 100, 100, 22, 24189, -15889, 5491, 5491, 11, 14, 1526239825.753, 69, 0, 1024, 1024, 1024, 1024, 0, 6, 4033, 4017, 4001, 4016, 4054, 4033, 0, 1, 6001, -89.900, 0.000, 32.600, 0.000, 0.000, -1.200, 0.0, , , , , , 98, , , 63, 63, 63
37.7328203, -120.0946487, 1.600, 12:30:25.852, 15, 0.00, 0.07, 100, -0.900, 0.800, 33.700, 1577, 100, 100, 22, 24189, -15889, 5491, 5491, 11, 14, 1526239825.853, 49, 0, 1024, 1024, 1024, 1024, 0, 6, 4033, 4017, 4001, 4016, 4054, 4033, 0, 1, 6101, -89.900, 0.000, 32.600, 0.000, 0.000, -1.400, 0.0, , , , , , 98, , , 63, 63, 63
37.7328202, -120.0946486, 1.700, 12:30:25.952, 15, 0.00, 0.08, 100, -1.100, 0.800, 33.800, 1577, 100, 100, 22, 24189, -15889, 5491, 5491, 11, 14, 1526239825.954, 42, 0, 1024, 1024, 1024, 1024, 0, 6, 4033, 4017, 4001, 4016, 4054, 4033, 0, 1, 6202, -90.000, 0.000, 32.600, 0.000, 0.000, -1.600, 0.0, , , , , , 98, , , 63, 63, 63
37.7328202, -120.0946485, 1.900, 12:30:26.052, 15, 0.00, 0.09, 100, -1.300, 0.700, 33.900, 1577, 100, 100, 22, 24189, -15889, 5491, 5491, 11, 14, 1526239826.053, 48, 0, 1024, 1024, 1024, 1024, 0, 6, 4033, 4017, 4001, 4016, 4054, 4033, 0, 1, 6301, -90.000, 0.000, 32.600, 0.000, 0.000, -1.800, 0.0, , , , , , 98, , , 63, 63, 63
37.7328202, -120.0946484, 2.100, 12:30:26.152, 15, 0.00, 0.09, 100, -1.300, 0.800, 33.900, 1577, 100, 100, 22, 24189, -15889, 5491, 5491, 11, 14, 1526239826.153, 25, 0, 1024, 1024, 1024, 1024, 0, 6, 4033, 4017, 4001, 4016, 4054, 4033, 0, 1, 6401, -90.000, 0.000, 32.600, 0.000, 0.000, -2.000, 0.0, , , , , , 98, , , 63, 63, 63
37.7328202, -120.0946484, 2.300, 12:30:26.252, 16, 0.00, 0.10, 100, -1.100, 0.800, 34.000, 1577, 100, 100, 22, 24189, -15889, 5491, 5491, 11, 14, 1526239826.253, 51, 0, 1024, 1024, 1024, 1024, 0, 6, 4033, 4017, 4001, 4016, 4054, 4033, 0, 1, 6502, -90.000, 0.000, 32.600, 0.000, 0.000, -2.200, 0.0, , , , , , 98, , , 63, 63, 63
37.7328201, -120.0946483, 2.600, 12:30:26.352, 16, 0.00, 0.10, 100, -0.900, 0.700, 34.000, 1577, 100, 100, 22, 24189, -15889, 5491, 5491, 11, 14, 1526239826.353, 18, 0, 1024, 1024, 1024, 1024, 0, 6, 4033, 4017, 4001, 4016, 4054, 4033, 0, 1, 6601, -90.000, 0.000, 32.600, 0.000, 0.000, -2.500, 0.0, , , , , , 98, , , 63, 63, 63
37.7328200, -120.0946483, 2.900, 12:30:26.452, 16, 0.00, 0.10, 100, -1.000, 0.400, 33.900, 1577, 100, 100, 22, 24189, -15889, 5491, 5491, 11, 14, 1526239826.453, 19, 0, 1024, 1024, 1024, 1024, 0, 6, 4033, 4017, 4001, 4016, 4054, 4033, 0, 1, 6701, -90.000, 0.000, 32.600, 0.000, 0.000, -2.800, 0.0, , , , , , 98, , , 63, 63, 63
37.7328200, -120.0946483, 3.200, 12:30:26.551, 16, 0.00, 0.10, 100, -1.100, 0.200, 33.800, 1577, 100, 100, 22, 24387, -21863, 5491, 5491, 11, 14, 1526239826.552, 30, 0, 1024, 1024, 1024, 1024, 0, 6, 3913, 3913, 3986, 3999, 4004, 4006, 0, 1, 6800, -90.000, 0.000, 32.600, 0.000, 0.000, -2.900, 0.0, , , , , , 98, , , 63, 63, 63
37.7328199, -120.0946484, 3.500, 12:30:26.655, 17, 0.00, 0.10, 100, -1.100, 0.000, 33.700, 1577, 100, 100, 22, 24387, -21863, 5491, 5491, 11, 14, 1526239826.656, 14, 0, 1024, 1024, 1024, 1024, 0, 6, 3913, 3913, 3986, 3999, 4004, 4006, 0, 1, 6904, -90.000, 0.000, 32.600, 0.000, 0.000, -3.100, 0.0, , , , , , 98, , , 63, 63, 63
37.7328199, -120.0946484, 4.200, 12:30:26.751, 17, 0.00, 0.10, 100, -0.900, 0.000, 33.600, 1577, 100, 100, 22, 24387, -21863, 5491, 5491, 11, 14, 1526239826.752, 17, 0, 1024, 1024, 1024, 1024, 0, 6, 3913, 3913, 3986, 3999, 4004, 4006, 0, 1, 7000, -90.000, 0.000, 32.600, 0.000, 0.000, -3.100, 0.0, , , , , , 98, , , 63, 63, 63
37.7328199, -120.0946485, 4.500, 12:30:26.853, 17, 0.00, 0.09, 100, -0.800, 0.000, 33.600, 1577, 100, 100, 22, 24387, -21863, 5491, 5491, 11, 14, 1526239826.854, 6, 0, 1024, 1024, 1024, 1024, 0, 6, 3913, 3913, 3986, 3999, 4004, 4006, 0, 1, 7102, -90.000, 0.000, 32.600, 0.000, 0.000, -3.200, 0.0, , , , , , 98, , , 63, 63, 63
37.7328199, -120.0946485, 4.800, 12:30:26.958, 17, 0.00, 0.08, 100, -0.500, 0.100, 33.600, 1577, 100, 100, 22, 24387, -21863, 5491, 5491, 11, 14, 1526239826.959, 10, 0, 1024, 1024, 1024, 1024, 0, 6, 3913, 3913, 3986, 3999, 4004, 4006, 0, 1, 7207, -90.000, 0.000, 32.600, 0.000, 0.000, -3.100, 0.0, , , , , , 98, , , 63, 63, 63
37.7328201, -120.0946487, 5.100, 12:30:27.070, 17, 0.00, 0.07, 100, -0.200, 0.400, 33.500, 1577, 100, 100, 22, 24387, -21863, 5491, 5491, 11, 14, 1526239827.070, 7, 0, 1024, 1024, 1024, 1024, 0, 6, 3913, 3913, 3986, 3999, 4004, 4006, 0, 1, 7318, -89.900, 0.000, 32.600, 0.000, 0.000, -3.200, 0.0, , , , , , 98, , , 63, 63, 63
37.7328201, -120.0946487, 5.100, 12:30:27.152, 17, 0.00, 0.07, 100, -0.200, 0.400, 33.500, 1577, 100, 100, 22, 24387, -21863, 5491, 5491, 11, 14, 1526239827.153, 90, 0, 1024, 1024, 1024, 1024, 0, 6, 3913, 3913, 3986, 3999, 4004, 4006, 0, 1, 7401, -89.900, 0.000, 32.600, 0.000, 0.000, -3.200, 0.0, , , , , , 98, , , 63, 63, 63
37.7328202, -120.0946487, 5.500, 12:30:27.251, 17, 0.00, 0.07, 100, 0.100, 0.700, 33.500, 1577, 100, 100, 22, 24387, -21863, 5491, 5491, 11, 14, 1526239827.252, 86, 0, 1024, 1024, 1024, 1024, 0, 6, 3913, 3913, 3986, 3999, 4004, 4006, 0, 1, 7500, -89.900, 0.000, 32.600, 0.000, 0.000, -3.200, 0.0, , , , , , 98, , , 63, 63, 63
37.7328203, -120.0946487, 5.800, 12:30:27.352, 17, 0.00, 0.07, 100, 0.100, 0.900, 33.500, 1577, 100, 100, 22, 24387, -21863, 5491, 5491, 11, 14, 1526239827.352, 80, 0, 1024, 1024, 1024, 1024, 0, 6, 3913, 3913, 3986, 3999, 4004, 4006, 0, 1, 7601, -89.900, 0.000, 32.600, 0.000, 0.000, -3.200, 0.0, , , , , , 98, , , 63, 63, 63
37.7328203, -120.0946487, 6.100, 12:30:27.452, 17, 0.00, 0.07, 100, -0.300, 0.900, 33.500, 1577, 100, 100, 22, 24387, -21863, 5491, 5491, 11, 14, 1526239827.453, 80, 0, 1024, 1024, 1024, 1024, 0, 6, 3913, 3913, 3986, 3999, 4004, 4006, 0, 1, 7701, -89.900, 0.000, 32.600, 0.000, 0.000, -3.200, 0.0, , , , , , 98, , , 63, 63, 63
37.7328204, -120.0946488, 6.500, 12:30:27.552, 17, 0.00, 0.07, 100, -0.500, 0.700, 33.500, 1577, 100, 100, 22, 23608, -20430, 5491, 5491, 11, 14, 1526239827.553, 65, 0, 1024, 1024, 1024, 1024, 0, 6, 3913, 3913, 3986, 3999, 4004, 4006, 0, 1, 7801, -90.000, 0.000, 32.600, 0.000, 0.000, -3.200, 0.0, , , , , , 98, , , 63, 63, 63
37.7328205, -120.0946489, 6.800, 12:30:27.652, 17, 0.00, 0.07, 100, -0.300, 0.500, 33.500, 1577, 100, 100, 22, 23608, -20430, 5491, 5491, 11, 14, 1526239827.652, 82, 0, 1024, 1024, 1024, 1024, 0, 6, 3913, 3913, 3986, 3999, 4004, 4006, 0, 1, 7900, -90.000, 0.000, 32.600, 0.000, 0.000, -3.200, 0.0, , , , , , 98, , , 63, 63, 63
37.7328206, -120.0946490, 7.100, 12:30:27.752, 17, 0.00, 0.07, 100, 0.000, 0.500, 33.400, 1577, 100, 100, 22, 23608, -20430, 5491, 5491, 11, 14, 1526239827.753, 57, 0, 1024, 1024, 1024, 1024, 0, 6, 3913, 3913, 3986, 3999, 4004, 4006, 0, 1, 8001, -90.000, 0.000, 32.600, 0.000, 0.000, -3.100, 0.0, , , , , , 98, , , 63, 63, 63
37.7328207, -120.0946491, 7.400, 12:30:27.852, 17, 0.00, 0.07, 100, 0.300, 0.400, 33.200, 1577, 100, 100, 22, 23608, -20430, 5491, 5491, 11, 14, 1526239827.853, 80, 0, 1024, 1024, 1024, 1024, 0, 6, 3913, 3913, 3986, 3999, 4004, 4006, 0, 1, 8101, -90.000, 0.000, 32.600, 0.000, 0.000, -3.100, 0.0, , , , , , 98, , , 63, 63, 63
37.7328207, -120.0946491, 7.800, 12:30:27.952, 17, 0.00, 0.08, 100, 0.400, 0.500, 33.100, 1577, 100, 100, 22, 23608, -20430, 5491, 5491, 11, 14, 1526239827.953, 59, 0, 1024, 1024, 1024, 1024, 0, 6, 3913, 3913, 3986, 3999, 4004, 4006, 0, 1, 8202, -90.000, 0.000, 32.600, 0.000, 0.000, -3.100, 0.0, , , , , , 98, , , 63, 63, 63
37.7328208, -120.0946491, 8.100, 12:30:28.052, 16, 0.00, 0.08, 98, 0.400, 0.600, 33.100, 1577, 100, 100, 22, 23608, -20430, 5381, 5491, 11, 14, 1526239828.053, 72, 0, 1024, 1024, 1024, 1024, 0, 6, 3943, 3927, 3923, 3935, 3982, 3928, 0, 1, 8301, -89.900, 0.000, 32.600, 0.000, 0.000, -3.100, 0.0, , , , , , 98, , , 63, 63, 63
37.7328208, -120.0946491, 8.400, 12:30:28.152, 16, 0.00, 0.09, 98, 0.400, 0.700, 33.100, 1577, 100, 100, 22, 23608, -20430, 5381, 5491, 11, 14, 1526239828.153, 42, 0, 1024, 1024, 1024, 1024, 0, 6, 3943, 3927, 3923, 3935, 3982, 3928, 0, 1, 8401, -89.900, 0.000, 32.600, 0.000, 0.000, -3.100, 0.0, , , , , , 98, , , 63, 63, 63
37.7328209, -120.0946492, 8.800, 12:30:28.252, 17, 0.00, 0.09, 98, 0.200, 0.800, 33.200, 1577, 100, 100, 22, 23608, -20430, 5381, 5491, 11, 14, 1526239828.253, 49, 0, 1024, 1024, 1024, 1024, 0, 6, 3943, 3927, 3923, 3935, 3982, 3928, 0, 1, 8501, -89.900, 0.000, 32.600, 0.000, 0.000, -3.100, 0.0, , , , , , 98, , , 63, 63, 63
37.7328210, -120.0946492, 9.100, 12:30:28.352, 17, 0.00, 0.10, 98, 0.000, 0.900, 33.400, 1577, 100, 100, 22, 23608, -20430, 5381, 5491, 11, 14, 1526239828.353, 54, 0, 1024, 1024, 1024, 1024, 0, 6, 3943, 3927, 3923, 3935, 3982, 3928, 0, 1, 8601, -89.900, 0.000, 32.600, 0.000, 0.000, -3.100, 0.0, , , , , , 98, , , 63, 63, 63
37.7328210, -120.0946493, 9.400, 12:30:28.452, 16, 0.00, 0.11, 98, 0.000, 0.900, 33.500, 1577, 100, 100, 22, 23608, -20430, 5381, 5491, 11, 14, 1526239828.453, 47, 0, 1024, 1024, 1024, 1024, 0, 6, 3943, 3927, 3923, 3935, 3982, 3928, 0, 1, 8701, -89.900, 0.000, 32.600, 0.000, 0.000, -3.100, 0.0, , , , , , 98, , , 63, 63, 63
37.7328211, -120.0946493, 9.700, 12:30:28.552, 16, 0.00, 0.11, 98, 0.100, 0.900, 33.600, 1577, 100, 100, 23, 23608, -20430, 5381, 5491, 11, 14, 1526239828.553, 42, 0, 1024, 1024, 1024, 1024, 0, 6, 3943, 3927, 3923, 3935, 3982, 3928, 0, 1, 8801, -89.900, 0.000, 32.600, 0.000, 0.000, -3.100, 0.0, , , , , , 98, , , 63, 63, 63
37.7328212, -120.0946494, 10.000, 12:30:28.652, 16, 0.00, 0.12, 98, 0.300, 0.800, 33.500, 1577, 100, 100, 23, 23608, -20430, 5381, 5491, 11, 14, 1526239828.653, 47, 0, 1024, 1024, 1024, 1024, 0, 6, 3943, 3927, 3923, 3935, 3982, 3928, 0, 1, 8902, -89.900, 0.000, 32.600, 0.000, 0.000, -3.100, 0.0, , , , , , 98, , , 63, 63, 63
37.7328212, -120.0946494, 10.300, 12:30:28.752, 16, 0.00, 0.13, 98, 0.500, 0.900, 33.500, 1577, 100, 100, 23, 23608, -20430, 5381, 5491, 11, 14, 1526239828.753, 36, 0, 1024, 1024, 1024, 1024, 0, 6, 3943, 3927, 3923, 3935, 3982, 3928, 0, 1, 9001, -89.900, 0.000, 32.600, 0.000, 0.000, -3.000, 0.0, , , , , , 98, , , 63, 63, 63
37.7328213, -120.0946494, 10.700, 12:30:28.852, 18, 0.00, 0.13, 98, 0.500, 0.900, 33.400, 1577, 100, 100, 23, 23608, -20430, 5381, 5491, 11, 14, 1526239828.854, 38, 0, 1024, 1024, 1024, 1024, 0, 6, 3943, 3927, 3923, 3935, 3982, 3928, 0, 1, 9102, -89.900, 0.000, 32.600, 0.000, 0.000, -3.000, 0.0, , , , , , 98, , , 63, 63, 63
37.7328213, -120.0946494, 11.000, 12:30:28.953, 18, 0.00, 0.13, 98, 0.300, 0.900, 33.300, 1577, 100, 100, 23, 23608, -20430, 5381, 5491, 11, 14, 1526239828.953, 18, 0, 1024, 1024, 1024, 1024, 0, 6, 3943, 3927, 3923, 3935, 3982, 3928, 0, 1, 9201, -89.900, 0.000, 32.600, 0.000, 0.000, -3.100, 0.0, , , , , , 98, , , 63, 63, 63
37.7328213, -120.0946494, 11.300, 12:30:29.052, 18, 0.00, 0.13, 98, 0.100, 0.800, 33.300, 1577, 100, 100, 23, 23757, -18245, 5381, 5491, 11, 14, 1526239829.053, 21, 0, 1024, 1024, 1024, 1024, 0, 6, 3967, 3951, 3942, 3954, 3995, 3971, 0, 1, 9301, -89.900, 0.000, 32.600, 0.000, 0.000, -3.000, 0.0, , , , , , 98, , , 63, 63, 63
37.7328213, -120.0946494, 11.600, 12:30:29.166, 18, 0.00, 0.13, 98, 0.000, 0.600, 33.200, 1577, 100, 100, 23, 23757, -18245, 5381, 5491, 11, 14, 1526239829.166, 9, 0, 1024, 1024, 1024, 1024, 0, 6, 3967, 3951, 3942, 3954, 3995, 3971, 0, 1, 9415, -89.900, 0.000, 32.600, 0.000, 0.000, -3.000, 0.0, , , , , , 98, , , 63, 63, 63
37.7328213, -120.0946495, 12.200, 12:30:29.259, 18, 0.00, 0.13, 98, -0.100, 0.400, 33.200, 1577, 100, 100, 23, 23757, -18245, 5381, 5491, 11, 14, 1526239829.259, 8, 0, 1024, 1024, 1024, 1024, 0, 6, 3967, 3951, 3942, 3954, 3995, 3971, 0, 1, 9507, -90.000, 0.000, 32.600, 0.000, 0.000, -2.900, 0.0, , , , , , 98, , , 63, 63, 63
37.7328212, -120.0946495, 12.500, 12:30:29.354, 18, 0.00, 0.13, 98, 0.000, 0.400, 33.100, 1577, 100, 100, 23, 23757, -18245, 5381, 5491, 11, 14, 1526239829.355, 6, 0, 1024, 1024, 1024, 1024, 0, 6, 3967, 3951, 3942, 3954, 3995, 3971, 0, 1, 9603, -90.000, 0.000, 32.600, 0.000, 0.000, -2.900, 0.0, , , , , , 98, , , 63, 63, 63
37.7328212, -120.0946495, 12.800, 12:30:29.452, 18, 0.00, 0.13, 98, 0.000, 0.300, 33.100, 1577, 100, 100, 23, 23757, -18245, 5381, 5491, 11, 14, 1526239829.453, 6, 0, 1024, 1024, 1024, 1024, 0, 6, 3967, 3951, 3942, 3954, 3995, 3971, 0, 1, 9701, -90.000, 0.000, 32.600, 0.000, 0.000, -3.000, 0.0, , , , , , 98, , , 63, 63, 63
37.7328212, -120.0946495, 13.100, 12:30:29.552, 18, 0.00, 0.12, 98, 0.100, 0.400, 33.100, 1577, 100, 100, 23, 23757, -18245, 5381, 5491, 11, 14, 1526239829.553, 10, 0, 1024, 1024, 1024, 1024, 0, 6, 3967, 3951, 3942, 3954, 3995, 3971, 0, 1, 9802, -90.000, 0.000, 32.600, 0.000, 0.000, -3.000, 0.0, , , , , , 98, , , 63, 63, 63
37.7328212, -120.0946495, 13.100, 12:30:29.652, 18, 0.00, 0.12, 98, 0.100, 0.400, 33.100, 1577, 100, 100, 23, 23757, -18245, 5381, 5491, 11, 14, 1526239829.653, 110, 0, 1024, 1024, 1024, 1024, 0, 6, 3967, 3951, 3942, 3954, 3995, 3971, 0, 1, 9901, -90.000, 0.000, 32.600, 0.000, 0.000, -3.000, 0.0, , , , , , 98, , , 63, 63, 63
37.7328212, -120.0946495, 13.400, 12:30:29.752, 18, 0.00, 0.12, 98, 0.300, 0.600, 33.000, 1577, 100, 100, 23, 23757, -18245, 5381, 5491, 11, 14, 1526239829.753, 89, 0, 1024, 1024, 1024, 1024, 0, 6, 3967, 3951, 3942, 3954, 3995, 3971, 0, 1, 10001, -89.900, 0.000, 32.600, 0.000, 0.000, -3.000, 0.0, , , , , , 98, , , 63, 63, 63
37.7328212, -120.0946495, 13.700, 12:30:29.852, 18, 0.00, 0.12, 98, 0.300, 0.700, 33.000, 1577, 100, 100, 23, 23757, -18245, 5381, 5491, 11, 14, 1526239829.853, 76, 0, 1024, 1024, 1024, 1024, 0, 6, 3967, 3951, 3942, 3954, 3995, 3971, 0, 1, 10101, -89.900, 0.000, 32.600, 0.000, 0.000, -3.000, 0.0, , , , , , 98, , , 63, 63, 63
37.7328212, -120.0946496, 14.000, 12:30:29.953, 18, 0.00, 0.12, 98, 0.100, 0.800, 33.000, 1577, 100, 100, 23, 23757, -18245, 5381, 5491, 11, 14, 1526239829.954, 72, 0, 1024, 1024, 1024, 1024, 0, 6, 3967, 3951, 3942, 3954, 3995, 3971, 0, 1, 10202, -89.900, 0.000, 32.600, 0.000, 0.000, -3.000, 0.0, , , , , , 98, , , 63, 63, 63
37.7328212, -120.0946496, 14.300, 12:30:30.052, 18, 0.00, 0.12, 98, -0.100, 0.700, 33.100, 1577, 100, 100, 23, 23791, -17950, 5381, 5491, 11, 14, 1526239830.054, 57, 0, 1024, 1024, 1024, 1024, 0, 6, 3967, 3951, 3942, 3954, 3995, 3971, 0, 1, 10302, -89.900, 0.000, 32.600, 0.000, 0.000, -3.000, 0.0, , , , , , 98, , , 63, 63, 63
37.7328211, -120.0946495, 14.600, 12:30:30.157, 18, 0.00, 0.12, 98, -0.500, 0.700, 33.300, 1577, 100, 100, 23, 23791, -17950, 5381, 5491, 11, 14, 1526239830.157, 10, 0, 1024, 1024, 1024, 1024, 0, 6, 3967, 3951, 3942, 3954, 3995, 3971, 0, 1, 10405, -89.900, 0.000, 32.600, 0.000, 0.000, -3.000, 0.0, , , , , , 98, , , 63, 63, 63
37.7328211, -120.0946494, 14.900, 12:30:30.252, 18, 0.00, 0.11, 98, -0.800, 0.700, 33.500, 1577, 100, 100, 23, 23791, -17950, 5381, 5491, 11, 14, 1526239830.253, 40, 0, 1024, 1024, 1024, 1024, 0, 6, 3967, 3951, 3942, 3954, 3995, 3971, 0, 1, 10501, -89.900, 0.000, 32.600, 0.000, 0.000, -3.000, 0.0, , , , , , 98, , , 63, 63, 63
37.7328210, -120.0946494, 15.300, 12:30:30.352, 18, 0.00, 0.10, 98, -1.000, 0.700, 33.700, 1577, 100, 100, 23, 23791, -17950, 5381, 5491, 11, 14, 1526239830.353, 18, 0, 1024, 1024, 1024, 1024, 0, 6, 3968, 3951, 3940, 3960, 3994, 3972, 0, 1, 10601, -89.900, 0.000, 32.600, 0.000, 0.000, -3.000, 0.0, , , , , , 98, , , 63, 63, 63
37.7328210, -120.0946494, 15.600, 12:30:30.452, 18, 0.00, 0.10, 98, -0.900, 0.700, 33.800, 1577, 100, 100, 23, 23791, -17950, 5381, 5491, 11, 14, 1526239830.453, 32, 0, 1024, 1024, 1024, 1024, 0, 6, 3968, 3951, 3940, 3960, 3994, 3972, 0, 1, 10701, -90.000, 0.000, 32.600, 0.000, 0.000, -3.000, 0.0, , , , , , 98, , , 63, 63, 63
37.7328210, -120.0946493, 16.200, 12:30:30.552, 18, 0.00, 0.10, 98, -0.600, 0.800, 33.800, 1577, 100, 100, 23, 23791, -17950, 5381, 5491, 11, 14, 1526239830.553, 18, 0, 1024, 1024, 1024, 1024, 0, 6, 3968, 3951, 3940, 3960, 3994, 3972, 0, 1, 10801, -89.900, 0.000, 32.600, 0.000, 0.000, -2.900, 0.0, , , , , , 98, , , 63, 63, 63
37.7328210, -120.0946493, 16.200, 12:30:30.652, 18, 0.00, 0.10, 98, -0.600, 0.800, 33.800, 1577, 100, 100, 23, 23791, -17950, 5381, 5491, 11, 14, 1526239830.653, 118, 0, 1024, 1024, 1024, 1024, 0, 6, 3968, 3951, 3940, 3960, 3994, 3972, 0, 1, 10901, -89.900, 0.000, 32.600, 0.000, 0.000, -2.900, 0.0, , , , , , 98, , , 63, 63, 63
37.7328210, -120.0946494, 16.700, 12:30:30.758, 18, 0.00, 0.10, 98, -0.500, 1.000, 33.700, 1577, 100, 100, 23, 23791, -17950, 5381, 5491, 11, 14, 1526239830.760, 9, 0, 1024, 1024, 1024, 1024, 0, 6, 3968, 3951, 3940, 3960, 3994, 3972, 0, 1, 11008, -89.900, 0.000, 32.600, 0.000, 0.000, -2.900, 0.0, , , , , , 98, , , 63, 63, 63
37.7328210, -120.0946494, 16.700, 12:30:30.852, 18, 0.00, 0.10, 98, -0.500, 1.000, 33.700, 1577, 100, 100, 23, 23791, -17950, 5381, 5491, 11, 14, 1526239830.852, 101, 0, 1024, 1024, 1024, 1024, 0, 6, 3968, 3951, 3940, 3960, 3994, 3972, 0, 1, 11100, -89.900, 0.000, 32.600, 0.000, 0.000, -2.900, 0.0, , , , , , 98, , , 63, 63, 63
37.7328209, -120.0946494, 17.000, 12:30:30.952, 18, 0.00, 0.09, 98, -0.400, 1.000, 33.700, 1577, 100, 100, 23, 23791, -17950, 5381, 5491, 11, 14, 1526239830.953, 90, 0, 1024, 1024, 1024, 1024, 0, 6, 3968, 3951, 3940, 3960, 3994, 3972, 0, 1, 11201, -89.900, 0.000, 32.600, 0.000, 0.000, -2.900, 0.0, , , , , , 98, , , 63, 63, 63
37.7328209, -120.0946495, 17.300, 12:30:31.052, 18, 0.00, 0.09, 98, -0.300, 0.800, 33.700, 1577, 100, 100, 23, 23791, -17950, 5381, 5491, 11, 14, 1526239831.053, 87, 0, 1024, 1024, 1024, 1024, 0, 6, 3968, 3951, 3940, 3960, 3994, 3972, 0, 1, 11301, -89.900, 0.000, 32.600, 0.000, 0.000, -2.900, 0.0, , , , , , 98, , , 63, 63, 63
37.7328209, -120.0946495, 17.600, 12:30:31.152, 18, 0.00, 0.09, 98, -0.200, 0.600, 33.600, 1577, 100, 100, 23, 23761, -18086, 5381, 5491, 11, 14, 1526239831.153, 59, 0, 1024, 1024, 1024, 1024, 0, 6, 3965, 3945, 3936, 3960, 3987, 3966, 0, 1, 11401, -90.000, 0.000, 32.600, 0.000, 0.000, -3.000, 0.0, , , , , , 98, , , 63, 63, 63
37.7328209, -120.0946495, 17.900, 12:30:31.252, 18, 0.00, 0.09, 98, -0.100, 0.500, 33.500, 1577, 100, 100, 23, 23761, -18086, 5381, 5491, 11, 14, 1526239831.253, 83, 0, 1024, 1024, 1024, 1024, 0, 6, 3965, 3945, 3936, 3960, 3987, 3966, 0, 1, 11501, -90.000, 0.000, 32.600, 0.000, 0.000, -3.000, 0.0, , , , , , 98, , , 63, 63, 63
37.7328208, -120.0946496, 18.200, 12:30:31.352, 18, 0.00, 0.08, 98, 0.000, 0.500, 33.400, 1577, 100, 100, 23, 23761, -18086, 5381, 5491, 11, 14, 1526239831.353, 88, 0, 1024, 1024, 1024, 1024, 0, 6, 3965, 3945, 3936, 3960, 3987, 3966, 0, 1, 11601, -90.000, 0.000, 32.600, 0.000, 0.000, -3.000, 0.0, , , , , , 98, , , 63, 63, 63
37.7328208, -120.0946496, 18.500, 12:30:31.452, 18, 0.00, 0.08, 98, 0.000, 0.500, 33.400, 1577, 100, 100, 23, 23761, -18086, 5381, 5491, 11, 14, 1526239831.452, 84, 0, 1024, 1024, 1024, 1024, 0, 6, 3965, 3945, 3936, 3960, 3987, 3966, 0, 1, 11701, -90.000, 0.000, 32.600, 0.000, 0.000, -3.000, 0.0, , , , , , 98, , , 63, 63, 63
37.7328208, -120.0946497, 18.900, 12:30:31.552, 18, 0.00, 0.08, 98, -0.100, 0.600, 33.400, 1577, 100, 100, 23, 23761, -18086, 5381, 5491, 11, 14, 1526239831.553, 77, 0, 1024, 1024, 1024, 1024, 0, 6, 3965, 3945, 3936, 3960, 3987, 3966, 0, 1, 11801, -89.900, 0.000, 32.600, 0.000, 0.000, -3.000, 0.0, , , , , , 98, , , 63, 63, 63
37.7328208, -120.0946497, 19.200, 12:30:31.652, 18, 0.00, 0.08, 98, 0.000, 0.700, 33.400, 1577, 100, 100, 23, 23761, -18086, 5381, 5491, 11, 14, 1526239831.653, 54, 0, 1024, 1024, 1024, 1024, 0, 6, 3965, 3945, 3936, 3960, 3987, 3966, 0, 1, 11901, -89.900, 0.000, 32.600, 0.000, 0.000, -3.000, 0.0, , , , , , 98, , , 63, 63, 63
37.7328208, -120.0946497, 19.500, 12:30:31.752, 18, 0.00, 0.08, 98, 0.100, 0.700, 33.400, 1577, 100, 100, 23, 23761, -18086, 5381, 5491, 11, 14, 1526239831.752, 66, 0, 1024, 1024, 1024, 1024, 0, 6, 3965, 3945, 3936, 3960, 3987, 3966, 0, 1, 12001, -89.900, 0.000, 32.600, 0.000, 0.000, -3.000, 0.0, , , , , , 98, , , 63, 63, 63
37.7328207, -120.0946498, 19.800, 12:30:31.852, 18, 0.00, 0.08, 98, 0.100, 0.600, 33.400, 1577, 100, 100, 23, 23761, -18086, 5381, 5491, 11, 14, 1526239831.853, 66, 0, 1024, 1024, 1024, 1024, 0, 6, 3965, 3945, 3936, 3960, 3987, 3966, 0, 1, 12101, -90.000, 0.000, 32.600, 0.000, 0.000, -3.000, 0.0, , , , , , 98, , , 63, 63, 63
37.7328207, -120.0946498, 20.100, 12:30:31.952, 18, 0.00, 0.07, 98, 0.000, 0.300, 33.400, 1577, 100, 100, 23, 23761, -18086, 5381, 5491, 11, 14, 1526239831.953, 67, 0, 1024, 1024, 1024, 1024, 0, 6, 3965, 3945, 3936, 3960, 3987, 3966, 0, 1, 12201, -90.000, 0.000, 32.600, 0.000, 0.000, -3.000, 0.0, , , , , , 98, , , 63, 63, 63
37.7328207, -120.0946499, 20.400, 12:30:32.052, 18, 0.00, 0.07, 98, 0.000, 0.200, 33.400, 1577, 100, 100, 23, 23702, -18024, 5381, 5491, 11, 14, 1526239832.053, 36, 0, 1024, 1024, 1024, 1024, 0, 6, 3965, 3945, 3936, 3960, 3987, 3966, 0, 1, 12301, -90.000, 0.000, 32.600, 0.000, 0.000, -3.000, 0.0, , , , , , 98, , , 63, 63, 63
37.7328207, -120.0946499, 20.700, 12:30:32.154, 18, 0.00, 0.07, 98, 0.000, 0.300, 33.400, 1577, 100, 100, 23, 23702, -18024, 5381, 5491, 11, 14, 1526239832.155, 11, 0, 1024, 1024, 1024, 1024, 0, 6, 3957, 3949, 3923, 3947, 3978, 3965, 0, 1, 12403, -90.000, 0.000, 32.600, 0.000, 0.000, -3.000, 0.0, , , , , , 98, , , 63, 63, 63
37.7328206, -120.0946499, 21.100, 12:30:32.252, 18, 0.00, 0.07, 98, 0.000, 0.300, 33.400, 1577, 100, 100, 23, 23702, -18024, 5381, 5491, 11, 14, 1526239832.253, 21, 0, 1024, 1024, 1024, 1024, 0, 6, 3957, 3949, 3923, 3947, 3978, 3965, 0, 1, 12501, -90.000, 0.000, 32.600, 0.000, 0.000, -3.000, 0.0, , , , , , 98, , , 63, 63, 63
37.7328206, -120.0946500, 21.400, 12:30:32.353, 18, 0.00, 0.07, 98, 0.000, 0.500, 33.400, 1577, 100, 100, 23, 23702, -18024, 5381, 5491, 11, 14, 1526239832.353, 38, 0, 1024, 1024, 1024, 1024, 0, 6, 3957, 3949, 3923, 3947, 3978, 3965, 0, 1, 12601, -90.000, 0.000, 32.600, 0.000, 0.000, -2.900, 0.0, , , , , , 98, , , 63, 63, 63
37.7328206, -120.0946500, 21.600, 12:30:32.452, 18, 0.00, 0.07, 98, 0.000, 0.700, 33.400, 1577, 100, 100, 23, 23702, -18024, 5381, 5491, 11, 14, 1526239832.453, 27, 0, 1024, 1024, 1024, 1024, 0, 6, 3957, 3949, 3923, 3947, 3978, 3965, 0, 1, 12701, -89.900, 0.000, 32.600, 0.000, 0.000, -2.900, 0.0, , , , , , 98, , , 63, 63, 63
37.7328206, -120.0946500, 22.000, 12:30:32.552, 18, 0.00, 0.07, 98, 0.000, 0.600, 33.400, 1577, 100, 100, 23, 23702, -18024, 5381, 5491, 11, 14, 1526239832.553, 39, 0, 1024, 1024, 1024, 1024, 0, 6, 3957, 3949, 3923, 3947, 3978, 3965, 0, 1, 12801, -90.000, 0.000, 32.600, 0.000, 0.000, -3.000, 0.0, , , , , , 98, , , 63, 63, 63
37.7328206, -120.0946500, 22.300, 12:30:32.652, 18, 0.00, 0.07, 98, -0.300, 0.600, 33.500, 1577, 100, 99, 23, 23702, -18024, 5381, 5491, 11, 14, 1526239832.653, 36, 0, 1024, 1024, 1024, 1024, 0, 6, 3957, 3949, 3923, 3947, 3978, 3965, 0, 1, 12901, -89.900, 0.000, 32.600, 0.000, 0.000, -2.900, 0.0, , , , , , 98, , , 63, 63, 63
37.7328206, -120.0946500, 22.300, 12:30:32.752, 18, 0.00, 0.07, 98, -0.300, 0.600, 33.500, 1577, 100, 99, 23, 23702, -18024, 5381, 5491, 11, 14, 1526239832.753, 136, 0, 1024, 1024, 1024, 1024, 0, 6, 3957, 3949, 3923, 3947, 3978, 3965, 0, 1, 13002, -89.900, 0.000, 32.600, 0.000, 0.000, -2.900, 0.0, , , , , , 98, , , 63, 63, 63
37.7328205, -120.0946501, 22.900, 12:30:32.853, 18, 0.00, 0.07, 98, -0.400, 0.800, 33.700, 1577, 100, 99, 23, 23702, -18024, 5381, 5491, 11, 14, 1526239832.854, 5, 0, 1024, 1024, 1024, 1024, 0, 6, 3957, 3949, 3923, 3947, 3978, 3965, 0, 1, 13102, -89.900, 0.000, 32.600, 0.000, 0.000, -2.900, 0.0, , , , , , 98, , , 63, 63, 63
37.7328205, -120.0946501, 23.500, 12:30:32.964, 18, 0.00, 0.07, 98, 0.200, 0.800, 33.800, 1577, 100, 99, 23, 23702, -18024, 5381, 5491, 11, 14, 1526239832.965, 11, 0, 1024, 1024, 1024, 1024, 0, 6, 3957, 3949, 3923, 3947, 3978, 3965, 0, 1, 13213, -89.900, 0.000, 32.600, 0.000, 0.000, -2.900, 0.0, , , , , , 98, , , 63, 63, 63
37.7328205, -120.0946500, 23.800, 12:30:33.076, 18, 0.00, 0.06, 98, 0.300, 0.900, 33.700, 1577, 100, 97, 23, 23796, -17067, 5381, 5491, 11, 14, 1526239833.077, 13, 0, 1024, 1024, 1024, 1024, 0, 6, 3957, 3949, 3923, 3947, 3978, 3965, 0, 1, 13325, -89.900, 0.000, 32.600, 0.000, 0.000, -2.900, 0.0, , , , , , 98, , , 63, 63, 63
37.7328205, -120.0946500, 23.800, 12:30:33.152, 18, 0.00, 0.06, 98, 0.300, 0.900, 33.700, 1577, 100, 97, 23, 23796, -17067, 5381, 5491, 11, 14, 1526239833.153, 89, 0, 1024, 1024, 1024, 1024, 0, 6, 3957, 3949, 3923, 3947, 3978, 3965, 0, 1, 13401, -89.900, 0.000, 32.600, 0.000, 0.000, -2.900, 0.0, , , , , , 98, , , 63, 63, 63
37.7328204, -120.0946499, 24.400, 12:30:33.252, 18, 0.10, 0.05, 98, -0.600, 0.900, 33.300, 1577, 100, 97, 23, 23796, -17067, 5381, 5491, 11, 14, 1526239833.253, 5, 0, 1024, 1024, 1024, 1024, 0, 6, 3957, 3949, 3923, 3947, 3978, 3965, 0, 1, 13501, -90.000, 0.000, 32.600, 0.000, 0.100, -2.900, 0.0, , , , , , 98, , , 63, 63, 63
37.7328204, -120.0946499, 24.400, 12:30:33.351, 18, 0.10, 0.05, 98, -0.600, 0.900, 33.300, 1577, 100, 97, 23, 23796, -17067, 5381, 5491, 11, 14, 1526239833.352, 104, 0, 1024, 1024, 1024, 1024, 0, 6, 3957, 3949, 3923, 3947, 3978, 3965, 0, 1, 13600, -90.000, 0.000, 32.600, 0.000, 0.100, -2.900, 0.0, , , , , , 98, , , 63, 63, 63
37.7328203, -120.0946497, 24.700, 12:30:33.452, 18, 0.10, 0.03, 98, -1.500, 0.700, 33.100, 1577, 100, 97, 23, 23796, -17067, 5381, 5491, 11, 14, 1526239833.453, 98, 0, 1024, 1024, 1024, 1024, 0, 6, 3957, 3949, 3923, 3947, 3978, 3965, 0, 1, 13701, -90.000, 0.000, 32.600, 0.000, 0.100, -2.900, 0.0, , , , , , 98, , , 63, 63, 63
37.7328202, -120.0946496, 25.000, 12:30:33.552, 18, 0.10, 0.02, 98, -2.200, 0.600, 32.900, 1577, 100, 97, 23, 23796, -17067, 5381, 5491, 11, 14, 1526239833.553, 77, 0, 1024, 1024, 1024, 1024, 0, 6, 3973, 3956, 3947, 3964, 4002, 3967, 0, 1, 13801, -90.000, 0.000, 32.600, 0.000, 0.100, -2.900, 0.0, , , , , , 98, , , 63, 63, 63
37.7328202, -120.0946495, 25.300, 12:30:33.652, 18, 0.10, 0.01, 98, -2.500, 0.700, 32.800, 1577, 100, 94, 23, 23796, -17067, 5381, 5491, 11, 14, 1526239833.653, 79, 0, 1024, 1024, 1024, 1024, 0, 6, 3973, 3956, 3947, 3964, 4002, 3967, 0, 1, 13901, -90.000, 0.000, 32.600, 0.000, 0.100, -2.900, 0.0, , , , , , 98, , , 63, 63, 63
37.7328201, -120.0946494, 25.600, 12:30:33.752, 18, 0.10, 0.01, 98, -2.600, 0.900, 32.800, 1577, 100, 94, 23, 23796, -17067, 5381, 5491, 11, 14, 1526239833.753, 56, 0, 1024, 1024, 1024, 1024, 0, 6, 3973, 3956, 3947, 3964, 4002, 3967, 0, 1, 14001, -89.900, 0.000, 32.600, 0.000, 0.100, -2.900, 0.0, , , , , , 98, , , 63, 63, 63
37.7328201, -120.0946493, 25.900, 12:30:33.852, 18, 0.10, 0.02, 98, -2.400, 1.100, 32.800, 1577, 100, 94, 23, 23796, -17067, 5381, 5491, 11, 14, 1526239833.853, 82, 0, 1024, 1024, 1024, 1024, 0, 6, 3973, 3956, 3947, 3964, 4002, 3967, 0, 1, 14101, -89.900, 0.000, 32.600, 0.000, 0.100, -2.900, 0.0, , , , , , 98, , , 63, 63, 63
37.7328201, -120.0946492, 26.100, 12:30:33.952, 18, 0.10, 0.03, 98, -2.200, 1.500, 32.900, 1577, 100, 94, 23, 23796, -17067, 5381, 5491, 11, 14, 1526239833.953, 59, 0, 1024, 1024, 1024, 1024, 0, 6, 3973, 3956, 3947, 3964, 4002, 3967, 0, 1, 14201, -89.900, 0.000, 32.600, 0.000, 0.100, -2.800, 0.0, , , , , , 98, , , 63, 63, 63
37.7328201, -120.0946491, 26.400, 12:30:34.053, 18, 0.10, 0.04, 98, -2.100, 1.800, 32.900, 1577, 100, 94, 23, 23796, -17067, 5381, 5491, 11, 14, 1526239834.053, 65, 0, 1024, 1024, 1024, 1024, 0, 6, 3973, 3956, 3947, 3964, 4002, 3967, 0, 1, 14301, -89.900, 0.000, 32.600, 0.000, 0.100, -2.800, 0.0, , , , , , 98, , , 63, 63, 63
37.7328201, -120.0946489, 26.700, 12:30:34.152, 18, 0.10, 0.05, 98, -2.400, 1.900, 32.800, 1577, 100, 94, 23, 23796, -17067, 5381, 5491, 11, 14, 1526239834.153, 62, 0, 1024, 1024, 1024, 1024, 0, 6, 3973, 3956, 3947, 3964, 4002, 3967, 0, 1, 14401, -89.900, 0.000, 32.600, 0.000, 0.100, -2.900, 0.0, , , , , , 98, , , 63, 63, 63
37.7328201, -120.0946488, 27.000, 12:30:34.253, 18, 0.10, 0.06, 98, -2.700, 2.100, 32.800, 1577, 100, 94, 23, 23796, -17067, 5381, 5491, 11, 14, 1526239834.253, 64, 0, 1024, 1024, 1024, 1024, 0, 6, 3973, 3956, 3947, 3964, 4002, 3967, 0, 1, 14501, -89.900, 0.000, 32.600, 0.000, 0.100, -2.800, 0.0, , , , , , 98, , , 63, 63, 63
37.7328200, -120.0946487, 27.300, 12:30:34.352, 18, 0.10, 0.07, 98, -3.000, 2.100, 32.800, 1577, 100, 94, 23, 23796, -17067, 5381, 5491, 11, 14, 1526239834.353, 66, 0, 1024, 1024, 1024, 1024, 0, 6, 3973, 3956, 3947, 3964, 4002, 3967, 0, 1, 14601, -89.900, 0.000, 32.600, 0.000, 0.100, -2.800, 0.0, , , , , , 98, , , 63, 63, 63
37.7328200, -120.0946485, 27.500, 12:30:34.452, 18, 0.10, 0.08, 98, -3.100, 1.900, 33.000, 1577, 100, 94, 23, 23796, -17067, 5381, 5491, 11, 14, 1526239834.453, 56, 0, 1024, 1024, 1024, 1024, 0, 6, 3973, 3956, 3947, 3964, 4002, 3967, 0, 1, 14701, -89.900, 0.000, 32.600, 0.000, 0.100, -2.800, 0.0, , , , , , 98, , , 63, 63, 63
37.7328200, -120.0946485, 27.800, 12:30:34.552, 18, 0.00, 0.09, 98, -2.900, 1.500, 33.100, 1577, 100, 94, 23, 23796, -16779, 5381, 5491, 11, 14, 1526239834.553, 38, 0, 1024, 1024, 1024, 1024, 0, 6, 3975, 3953, 3942, 3965, 3999, 3967, 0, 1, 14801, -89.900, 0.000, 32.600, 0.000, 0.000, -3.000, 0.0, , , , , , 98, , , 63, 63, 63
37.7328199, -120.0946484, 28.100, 12:30:34.652, 18, 0.00, 0.10, 98, -2.800, 1.000, 33.300, 1577, 100, 96, 23, 23796, -16779, 5381, 5491, 11, 14, 1526239834.653, 31, 0, 1024, 1024, 1024, 1024, 0, 6, 3975, 3953, 3942, 3965, 3999, 3967, 0, 1, 14901, -90.000, 0.000, 32.600, 0.000, 0.000, -2.900, 0.0, , , , , , 98, , , 63, 63, 63
37.7328198, -120.0946483, 28.400, 12:30:34.752, 18, 0.00, 0.11, 98, -2.900, 0.600, 33.500, 1577, 100, 96, 23, 23796, -16779, 5381, 5491, 11, 14, 1526239834.753, 56, 0, 1024, 1024, 1024, 1024, 0, 6, 3975, 3953, 3942, 3965, 3999, 3967, 0, 1, 15001, -90.000, 0.000, 32.600, 0.000, 0.000, -2.900, 0.0, , , , , , 98, , , 63, 63, 63
37.7328197, -120.0946482, 28.700, 12:30:34.852, 18, 0.00, 0.12, 98, -3.000, 0.500, 33.600, 1577, 100, 96, 23, 23796, -16779, 5381, 5491, 11, 14, 1526239834.853, 34, 0, 1024, 1024, 1024, 1024, 0, 6, 3975, 3953, 3942, 3965, 3999, 3967, 0, 1, 15101, -90.000, 0.000, 32.600, 0.000, 0.000, -2.900, 0.0, , , , , , 98, , , 63, 63, 63
37.7328197, -120.0946481, 29.000, 12:30:34.952, 18, 0.10, 0.13, 98, -3.200, 0.600, 33.500, 1577, 100, 96, 23, 23796, -16779, 5381, 5491, 11, 14, 1526239834.953, 49, 0, 1024, 1024, 1024, 1024, 0, 6, 3975, 3953, 3942, 3965, 3999, 3967, 0, 1, 15201, -90.000, 0.000, 32.600, 0.000, 0.100, -2.900, 0.0, , , , , , 98, , , 63, 63, 63
37.7328196, -120.0946480, 29.300, 12:30:35.052, 18, 0.10, 0.14, 98, -3.400, 1.000, 33.400, 1577, 100, 96, 23, 23796, -16779, 5381, 5491, 11, 14, 1526239835.053, 30, 0, 1024, 1024, 1024, 1024, 0, 6, 3975, 3953, 3942, 3965, 3999, 3967, 0, 1, 15301, -90.000, 0.000, 32.600, 0.000, 0.100, -3.000, 0.0, , , , , , 98, , , 63, 63, 63
37.7328196, -120.0946479, 29.600, 12:30:35.168, 18, 0.10, 0.15, 98, -3.900, 1.000, 33.500, 1577, 100, 96, 23, 23796, -16779, 5381, 5491, 11, 14, 1526239835.168, 4, 0, 1024, 1024, 1024, 1024, 0, 6, 3975, 3953, 3942, 3965, 3999, 3967, 0, 1, 15416, -90.000, 0.000, 32.600, 0.000, 0.100, -3.000, 0.0, , , , , , 98, , , 63, 63, 63
37.7328195, -120.0946478, 29.900, 12:30:35.252, 18, 0.10, 0.16, 98, -4.300, 1.000, 33.600, 1577, 100, 97, 23, 23796, -16779, 5381, 5491, 11, 14, 1526239835.253, 31, 0, 1024, 1024, 1024, 1024, 0, 6, 3975, 3953, 3942, 3965, 3999, 3967, 0, 1, 15501, -89.900, 0.000, 32.600, 0.000, 0.100, -2.900, 0.0, , , , , , 98, , , 63, 63, 63
37.7328194, -120.0946476, 30.200, 12:30:35.352, 18, 0.10, 0.18, 98, -4.600, 1.300, 33.600, 1577, 100, 97, 23, 23796, -16779, 5381, 5491, 11, 14, 1526239835.353, 21, 0, 1024, 1024, 1024, 1024, 0, 6, 3975, 3953, 3942, 3965, 3999, 3967, 0, 1, 15601, -89.900, 0.000, 32.600, 0.000, 0.100, -2.900, 0.0, , , , , , 98, , , 63, 63, 63
37.7328194, -120.0946476, 30.200, 12:30:35.452, 18, 0.10, 0.18, 98, -4.600, 1.300, 33.600, 1577, 100, 97, 23, 23796, -16779, 5381, 5491, 11, 14, 1526239835.453, 121, 0, 1024, 1024, 1024, 1024, 0, 6, 3975, 3953, 3942, 3965, 3999, 3967, 0, 1, 15701, -89.900, 0.000, 32.600, 0.000, 0.100, -2.900, 0.0, , , , , , 98, , , 63, 63, 63
37.7328192, -120.0946473, 31.100, 12:30:35.564, 18, 0.10, 0.22, 98, -5.400, 0.900, 33.600, 1577, 100, 94, 23, 23747, -17005, 5381, 5491, 11, 14, 1526239835.565, 11, 0, 1024, 1024, 1024, 1024, 0, 6, 3975, 3953, 3942, 3965, 3999, 3967, 0, 1, 15813, -90.000, 0.000, 32.600, 0.000, 0.100, -2.900, 0.0, , , , , , 98, , , 63, 63, 63
37.7328191, -120.0946472, 31.400, 12:30:35.652, 18, 0.10, 0.23, 98, -5.500, 0.800, 33.700, 1577, 100, 94, 23, 23747, -17005, 5381, 5491, 11, 14, 1526239835.653, 17, 0, 1024, 1024, 1024, 1024, 0, 6, 3964, 3948, 3927, 3941, 3980, 3970, 0, 1, 15901, -90.000, 0.000, 32.600, 0.000, 0.100, -2.800, 0.0, , , , , , 98, , , 63, 63, 63
37.7328191, -120.0946472, 31.400, 12:30:35.752, 18, 0.10, 0.23, 98, -5.500, 0.800, 33.700, 1577, 100, 94, 23, 23747, -17005, 5381, 5491, 11, 14, 1526239835.753, 117, 0, 1024, 1024, 1024, 1024, 0, 6, 3964, 3948, 3927, 3941, 3980, 3970, 0, 1, 16001, -90.000, 0.000, 32.600, 0.000, 0.100, -2.800, 0.0, , , , , , 98, , , 63, 63, 63
37.7328190, -120.0946471, 31.700, 12:30:35.852, 18, 0.10, 0.24, 98, -5.600, 0.900, 33.700, 1577, 100, 94, 23, 23747, -17005, 5381, 5491, 11, 14, 1526239835.853, 79, 0, 1024, 1024, 1024, 1024, 0, 6, 3964, 3948, 3927, 3941, 3980, 3970, 0, 1, 16101, -90.000, 0.000, 32.600, 0.000, 0.100, -2.900, 0.0, , , , , , 98, , , 63, 63, 63
37.7328190, -120.0946470, 32.000, 12:30:35.952, 18, 0.00, 0.25, 98, -5.500, 1.000, 33.600, 1577, 100, 94, 23, 23747, -17005, 5381, 5491, 11, 14, 1526239835.953, 93, 0, 1024, 1024, 1024, 1024, 0, 6, 3964, 3948, 3927, 3941, 3980, 3970, 0, 1, 16201, -90.000, 0.000, 32.600, 0.000, 0.000, -2.900, 0.0, , , , , , 98, , , 63, 63, 63
37.7328190, -120.0946469, 32.600, 12:30:36.063, 18, 0.00, 0.26, 98, -5.200, 1.400, 33.600, 1577, 100, 90, 23, 23747, -17005, 5381, 5491, 11, 14, 1526239836.064, 10, 0, 1024, 1024, 1024, 1024, 0, 6, 3964, 3948, 3927, 3941, 3980, 3970, 0, 1, 16312, -89.900, 0.000, 32.600, 0.000, 0.000, -2.800, 0.0, , , , , , 98, , , 63, 63, 63
37.7328190, -120.0946469, 32.600, 12:30:36.152, 18, 0.00, 0.26, 98, -5.200, 1.400, 33.600, 1577, 100, 90, 23, 23747, -17005, 5381, 5491, 11, 14, 1526239836.153, 99, 0, 1024, 1024, 1024, 1024, 0, 6, 3964, 3948, 3927, 3941, 3980, 3970, 0, 1, 16401, -89.900, 0.000, 32.600, 0.000, 0.000, -2.800, 0.0, , , , , , 98, , , 63, 63, 63
37.7328190, -120.0946468, 32.800, 12:30:36.252, 18, 0.00, 0.26, 98, -5.000, 1.500, 33.600, 1577, 100, 90, 23, 23747, -17005, 5381, 5491, 11, 14, 1526239836.253, 54, 0, 1024, 1024, 1024, 1024, 0, 6, 3964, 3948, 3927, 3941, 3980, 3970, 0, 1, 16501, -89.900, 0.000, 32.600, 0.000, 0.000, -2.700, 0.0, , , , , , 98, , , 63, 63, 63
37.7328190, -120.0946468, 33.100, 12:30:36.352, 18, 0.00, 0.27, 98, -4.800, 1.500, 33.500, 1577, 100, 90, 23, 23747, -17005, 5381, 5491, 11, 14, 1526239836.353, 87, 0, 1024, 1024, 1024, 1024, 0, 6, 3964, 3948, 3927, 3941, 3980, 3970, 0, 1, 16601, -89.900, 0.000, 32.600, 0.000, 0.000, -2.800, 0.0, , , , , , 98, , , 63, 63, 63
37.7328190, -120.0946468, 33.400, 12:30:36.452, 18, 0.00, 0.27, 98, -4.800, 1.500, 33.300, 1577, 100, 90, 23, 23747, -17005, 5381, 5491, 11, 14, 1526239836.453, 69, 0, 1024, 1024, 1024, 1024, 0, 6, 3964, 3948, 3927, 3941, 3980, 3970, 0, 1, 16701, -89.900, 0.000, 32.600, 0.000, 0.000, -2.900, 0.0, , , , , , 98, , , 63, 63, 63
37.7328190, -120.0946468, 33.600, 12:30:36.552, 18, 0.00, 0.27, 98, -4.600, 1.400, 33.200, 1577, 100, 90, 23, 23726, -17434, 5381, 5491, 11, 14, 1526239836.553, 57, 0, 1024, 1024, 1024, 1024, 0, 6, 3961, 3949, 3921, 3946, 3977, 3954, 0, 1, 16801, -89.900, 0.000, 32.600, 0.000, 0.000, -2.900, 0.0, , , , , , 98, , , 63, 63, 63
37.7328190, -120.0946468, 33.900, 12:30:36.652, 18, 0.00, 0.26, 98, -4.400, 1.300, 33.200, 1577, 100, 93, 23, 23726, -17434, 5381, 5491, 11, 14, 1526239836.653, 71, 0, 1024, 1024, 1024, 1024, 0, 6, 3961, 3949, 3921, 3946, 3977, 3954, 0, 1, 16901, -89.900, 0.000, 32.600, 0.000, 0.000, -2.900, 0.0, , , , , , 98, , , 63, 63, 63
37.7328190, -120.0946469, 34.200, 12:30:36.752, 18, 0.00, 0.26, 98, -4.200, 1.300, 33.200, 1577, 100, 93, 23, 23726, -17434, 5381, 5491, 11, 14, 1526239836.753, 65, 0, 1024, 1024, 1024, 1024, 0, 6, 3961, 3949, 3921, 3946, 3977, 3954, 0, 1, 17001, -89.900, 0.000, 32.600, 0.000, 0.000, -2.900, 0.0, , , , , , 98, , , 63, 63, 63
37.7328190, -120.0946469, 34.500, 12:30:36.852, 18, 0.00, 0.26, 98, -4.200, 1.400, 33.300, 1577, 100, 93, 23, 23726, -17434, 5381, 5491, 11, 14, 1526239836.853, 57, 0, 1024, 1024, 1024, 1024, 0, 6, 3961, 3949, 3921, 3946, 3977, 3954, 0, 1, 17101, -89.900, 0.000, 32.600, 0.000, 0.000, -2.900, 0.0, , , , , , 98, , , 63, 63, 63
37.7328191, -120.0946469, 34.700, 12:30:36.952, 18, 0.00, 0.26, 98, -4.200, 1.600, 33.200, 1577, 100, 93, 23, 23726, -17434, 5381, 5491, 11, 14, 1526239836.953, 51, 0, 1024, 1024, 1024, 1024, 0, 6, 3961, 3949, 3921, 3946, 3977, 3954, 0, 1, 17201, -89.900, 0.000, 32.600, 0.000, 0.000, -2.900, 0.0, , , , , , 98, , , 63, 63, 63
37.7328191, -120.0946469, 35.000, 12:30:37.052, 18, 0.00, 0.25, 98, -4.100, 1.800, 33.200, 1577, 100, 93, 23, 23726, -17434, 5381, 5491, 11, 14, 1526239837.053, 39, 0, 1024, 1024, 1024, 1024, 0, 6, 3961, 3949, 3921, 3946, 3977, 3954, 0, 1, 17301, -89.900, 0.000, 32.600, 0.000, 0.000, -3.000, 0.0, , , , , , 98, , , 63, 63, 63
37.7328191, -120.0946469, 35.300, 12:30:37.152, 18, 0.00, 0.25, 98, -4.300, 2.000, 33.100, 1577, 100, 92, 23, 23726, -17434, 5381, 5491, 11, 14, 1526239837.153, 41, 0, 1024, 1024, 1024, 1024, 0, 6, 3961, 3949, 3921, 3946, 3977, 3954, 0, 1, 17401, -89.900, 0.000, 32.600, 0.000, 0.000, -3.100, 0.0, , , , , , 98, , , 63, 63, 63
37.7328192, -120.0946469, 35.600, 12:30:37.252, 18, 0.00, 0.25, 98, -4.400, 2.100, 33.100, 1577, 100, 92, 23, 23726, -17434, 5381, 5491, 11, 14, 1526239837.253, 21, 0, 1024, 1024, 1024, 1024, 0, 6, 3961, 3949, 3921, 3946, 3977, 3954, 0, 1, 17501, -89.900, 0.000, 32.600, 0.000, 0.000, -3.100, 0.0, , , , , , 98, , , 63, 63, 63
37.7328192, -120.0946468, 35.900, 12:30:37.352, 18, 0.00, 0.25, 98, -4.600, 2.300, 33.100, 1577, 100, 92, 23, 23726, -17434, 5381, 5491, 11, 14, 1526239837.353, 51, 0, 1024, 1024, 1024, 1024, 0, 6, 3961, 3949, 3921, 3946, 3977, 3954, 0, 1, 17601, -89.900, 0.000, 32.600, 0.000, 0.000, -3.200, 0.0, , , , , , 98, , , 63, 63, 63
37.7328192, -120.0946468, 36.300, 12:30:37.452, 18, 0.00, 0.25, 98, -4.900, 2.400, 33.200, 1577, 100, 92, 23, 23726, -17434, 5381, 5491, 11, 14, 1526239837.453, 52, 0, 1024, 1024, 1024, 1024, 0, 6, 3961, 3949, 3921, 3946, 3977, 3954, 0, 1, 17701, -89.900, 0.000, 32.600, 0.000, 0.000, -3.100, 0.0, , , , , , 98, , , 63, 63, 63
37.7328193, -120.0946467, 36.600, 12:30:37.552, 18, 0.00, 0.26, 98, -5.200, 2.500, 33.300, 1577, 100, 92, 23, 23389, -20272, 5381, 5491, 11, 14, 1526239837.553, 15, 0, 1024, 1024, 1024, 1024, 0, 6, 3961, 3949, 3921, 3946, 3977, 3954, 0, 1, 17801, -89.900, 0.000, 32.700, 0.000, 0.000, -3.100, 0.0, , , , , , 98, , , 63, 63, 63
37.7328194, -120.0946466, 37.100, 12:30:37.652, 18, 0.10, 0.27, 98, -5.200, 3.100, 33.200, 1577, 100, 96, 23, 23389, -20272, 5381, 5491, 11, 14, 1526239837.653, 7, 0, 1024, 1024, 1024, 1024, 0, 6, 3961, 3949, 3921, 3946, 3977, 3954, 0, 1, 17901, -89.900, 0.000, 32.600, 0.000, 0.100, -3.000, 0.0, , , , , , 98, , , 63, 63, 63
37.7328194, -120.0946466, 37.100, 12:30:37.752, 18, 0.10, 0.27, 98, -5.200, 3.100, 33.200, 1577, 100, 96, 23, 23389, -20272, 5381, 5491, 11, 14, 1526239837.753, 107, 0, 1024, 1024, 1024, 1024, 0, 6, 3898, 3885, 3871, 3897, 3926, 3906, 0, 1, 18001, -89.900, 0.000, 32.700, 0.000, 0.100, -3.000, 0.0, , , , , , 98, , , 63, 63, 63
37.7328194, -120.0946465, 37.800, 12:30:37.854, 18, 0.10, 0.28, 98, -6.200, 3.400, 33.300, 1577, 100, 96, 23, 23389, -20272, 5381, 5491, 11, 14, 1526239837.854, 6, 0, 1024, 1024, 1024, 1024, 0, 6, 3898, 3885, 3871, 3897, 3926, 3906, 0, 1, 18102, -89.900, 0.000, 32.600, 0.000, 0.100, -3.200, 0.0, , , , , , 98, , , 63, 63, 63
37.7328194, -120.0946465, 37.800, 12:30:37.952, 18, 0.10, 0.28, 98, -6.200, 3.400, 33.300, 1577, 100, 96, 23, 23389, -20272, 5381, 5491, 11, 14, 1526239837.953, 105, 0, 1024, 1024, 1024, 1024, 0, 6, 3898, 3885, 3871, 3897, 3926, 3906, 0, 1, 18201, -89.900, 0.000, 32.600, 0.000, 0.100, -3.200, 0.0, , , , , , 98, , , 63, 63, 63
37.7328195, -120.0946464, 38.400, 12:30:38.052, 18, 0.00, 0.28, 98, -5.900, 3.100, 33.400, 1577, 100, 97, 23, 23389, -20272, 5381, 5491, 11, 14, 1526239838.052, 7, 0, 1024, 1024, 1024, 1024, 0, 6, 3898, 3885, 3871, 3897, 3926, 3906, 0, 1, 18300, -89.900, 0.000, 32.700, 0.000, 0.000, -3.100, 0.0, , , , , , 98, , , 63, 63, 63
37.7328195, -120.0946464, 38.700, 12:30:38.169, 18, 0.00, 0.28, 98, -5.400, 2.900, 33.500, 1577, 100, 97, 23, 23389, -20272, 5381, 5491, 11, 14, 1526239838.169, 6, 0, 1024, 1024, 1024, 1024, 0, 6, 3898, 3885, 3871, 3897, 3926, 3906, 0, 1, 18418, -89.900, 0.000, 32.600, 0.000, 0.000, -3.000, 0.0, , , , , , 98, , , 63, 63, 63
37.7328195, -120.0946464, 38.700, 12:30:38.252, 18, 0.00, 0.28, 98, -5.400, 2.900, 33.500, 1577, 100, 97, 23, 23389, -20272, 5381, 5491, 11, 14, 1526239838.253, 89, 0, 1024, 1024, 1024, 1024, 0, 6, 3898, 3885, 3871, 3897, 3926, 3906, 0, 1, 18501, -89.900, 0.000, 32.600, 0.000, 0.000, -3.000, 0.0, , , , , , 98, , , 63, 63, 63
37.7328195, -120.0946464, 39.100, 12:30:38.352, 18, 0.00, 0.28, 98, -5.200, 2.600, 33.500, 1577, 100, 97, 23, 23389, -20272, 5381, 5491, 11, 14, 1526239838.352, 66, 0, 1024, 1024, 1024, 1024, 0, 6, 3898, 3885, 3871, 3897, 3926, 3906, 0, 1, 18600, -89.900, 0.000, 32.700, 0.000, 0.000, -3.000, 0.0, , , , , , 98, , , 63, 63, 63
37.7328195, -120.0946464, 39.400, 12:30:38.452, 18, 0.00, 0.28, 98, -5.000, 2.200, 33.700, 1577, 100, 97, 23, 23389, -20272, 5381, 5491, 11, 14, 1526239838.453, 80, 0, 1024, 1024, 1024, 1024, 0, 6, 3898, 3885, 3871, 3897, 3926, 3906, 0, 1, 18701, -90.000, 0.000, 32.600, 0.000, 0.000, -3.100, 0.0, , , , , , 98, , , 63, 63, 63
37.7328195, -120.0946464, 39.700, 12:30:38.552, 18, 0.00, 0.27, 98, -5.300, 1.900, 33.700, 1577, 100, 97, 23, 23341, -20919, 5381, 5491, 11, 14, 1526239838.553, 83, 0, 1024, 1024, 1024, 1024, 0, 6, 3898, 3885, 3871, 3897, 3926, 3906, 0, 1, 18802, -90.000, 0.000, 32.700, 0.000, 0.000, -3.000, 0.0, , , , , , 98, , , 63, 63, 63
37.7328195, -120.0946464, 39.700, 12:30:38.652, 18, 0.00, 0.27, 98, -5.300, 1.900, 33.700, 1577, 100, 100, 23, 23341, -20919, 5381, 5491, 11, 14, 1526239838.653, 182, 0, 1024, 1024, 1024, 1024, 0, 6, 3898, 3885, 3871, 3897, 3926, 3906, 0, 1, 18901, -90.000, 0.000, 32.700, 0.000, 0.000, -3.000, 0.0, , , , , , 98, , , 63, 63, 63
37.7328196, -120.0946465, 40.300, 12:30:38.752, 18, 0.00, 0.27, 98, -5.700, 1.800, 33.500, 1577, 100, 100, 23, 23341, -20919, 5381, 5491, 11, 14, 1526239838.753, 64, 0, 1024, 1024, 1024, 1024, 0, 6, 3898, 3885, 3871, 3897, 3926, 3906, 0, 1, 19001, -89.900, 0.000, 32.600, 0.000, 0.000, -3.000, 0.0, , , , , , 98, , , 63, 63, 63
37.7328197, -120.0946465, 40.600, 12:30:38.852, 18, 0.00, 0.27, 98, -5.800, 2.400, 33.300, 1577, 100, 100, 23, 23341, -20919, 5381, 5491, 11, 14, 1526239838.853, 54, 0, 1024, 1024, 1024, 1024, 0, 6, 3898, 3885, 3871, 3897, 3926, 3906, 0, 1, 19101, -89.900, 0.000, 32.600, 0.000, 0.000, -3.000, 0.0, , , , , , 98, , , 63, 63, 63
37.7328197, -120.0946464, 40.900, 12:30:38.952, 18, 0.00, 0.27, 98, -5.300, 2.900, 33.200, 1577, 100, 100, 23, 23341, -20919, 5381, 5491, 11, 14, 1526239838.953, 67, 0, 1024, 1024, 1024, 1024, 0, 6, 3898, 3885, 3871, 3897, 3926, 3906, 0, 1, 19201, -89.900, 0.000, 32.600, 0.000, 0.000, -2.900, 0.0, , , , , , 98, , , 63, 63, 63
37.7328197, -120.0946464, 41.200, 12:30:39.052, 18, 0.00, 0.27, 98, -5.000, 3.200, 33.100, 1577, 100, 100, 23, 23341, -20919, 5381, 5491, 11, 14, 1526239839.052, 69, 0, 1024, 1024, 1024, 1024, 0, 6, 3896, 3888, 3870, 3887, 3929, 3904, 0, 1, 19300, -89.900, 0.000, 32.600, 0.000, 0.000, -2.900, 0.0, , , , , , 98, , , 63, 63, 63
37.7328198, -120.0946465, 41.500, 12:30:39.152, 18, 0.00, 0.27, 98, -4.800, 3.200, 33.000, 1577, 100, 99, 23, 23341, -20919, 5381, 5491, 11, 14, 1526239839.153, 57, 0, 1024, 1024, 1024, 1024, 0, 6, 3896, 3888, 3870, 3887, 3929, 3904, 0, 1, 19401, -89.900, 0.000, 32.600, 0.000, 0.000, -2.900, 0.0, , , , , , 98, , , 63, 63, 63
37.7328199, -120.0946465, 41.800, 12:30:39.252, 18, 0.00, 0.27, 98, -4.800, 3.200, 32.900, 1577, 100, 99, 23, 23341, -20919, 5381, 5491, 11, 14, 1526239839.253, 42, 0, 1024, 1024, 1024, 1024, 0, 6, 3896, 3888, 3870, 3887, 3929, 3904, 0, 1, 19501, -89.900, 0.000, 32.600, 0.000, 0.000, -3.000, 0.0, , , , , , 98, , , 63, 63, 63
37.7328199, -120.0946465, 42.100, 12:30:39.352, 18, 0.00, 0.27, 98, -4.900, 3.300, 33.000, 1577, 100, 99, 23, 23341, -20919, 5381, 5491, 11, 14, 1526239839.353, 18, 0, 1024, 1024, 1024, 1024, 0, 6, 3896, 3888, 3870, 3887, 3929, 3904, 0, 1, 19601, -89.900, 0.000, 32.600, 0.000, 0.000, -3.000, 0.0, , , , , , 98, , , 63, 63, 63
37.7328199, -120.0946465, 42.400, 12:30:39.452, 18, 0.00, 0.27, 98, -5.300, 3.200, 33.000, 1577, 100, 99, 23, 23341, -20919, 5381, 5491, 11, 14, 1526239839.453, 23, 0, 1024, 1024, 1024, 1024, 0, 6, 3896, 3888, 3870, 3887, 3929, 3904, 0, 1, 19701, -89.900, 0.000, 32.600, 0.000, 0.000, -3.000, 0.0, , , , , , 98, , , 63, 63, 63
37.7328199, -120.0946465, 42.700, 12:30:39.552, 18, 0.00, 0.26, 98, -5.300, 3.300, 33.100, 1577, 100, 99, 23, 23341, -20919, 5381, 5491, 11, 14, 1526239839.553, 27, 0, 1024, 1024, 1024, 1024, 0, 6, 3896, 3888, 3870, 3887, 3929, 3904, 0, 1, 19801, -89.900, 0.000, 32.600, 0.000, 0.000, -3.100, 0.0, , , , , , 98, , , 63, 63, 63
37.7328200, -120.0946466, 43.000, 12:30:39.652, 18, 0.00, 0.26, 98, -5.200, 3.200, 33.200, 1577, 100, 99, 23, 23341, -20919, 5381, 5491, 11, 14, 1526239839.653, 30, 0, 1024, 1024, 1024, 1024, 0, 6, 3896, 3888, 3870, 3887, 3929, 3904, 0, 1, 19901, -89.900, 0.000, 32.600, 0.000, 0.000, -3.100, 0.0, , , , , , 98, , , 63, 63, 63
37.7328200, -120.0946466, 43.300, 12:30:39.752, 18, 0.00, 0.25, 98, -4.900, 3.100, 33.300, 1577, 100, 99, 23, 23341, -20919, 5381, 5491, 11, 14, 1526239839.753, 13, 0, 1024, 1024, 1024, 1024, 0, 6, 3896, 3888, 3870, 3887, 3929, 3904, 0, 1, 20001, -89.900, 0.000, 32.600, 0.000, 0.000, -3.100, 0.0, , , , , , 98, , , 63, 63, 63
37.7328200, -120.0946468, 44.000, 12:30:39.852, 18, 0.00, 0.24, 98, -4.400, 2.900, 33.700, 1577, 100, 99, 23, 23341, -20919, 5381, 5491, 11, 14, 1526239839.853, 23, 0, 1024, 1024, 1024, 1024, 0, 6, 3896, 3888, 3870, 3887, 3929, 3904, 0, 1, 20101, -89.900, 0.000, 32.600, 0.000, 0.000, -3.100, 0.0, , , , , , 98, , , 63, 63, 63
37.7328200, -120.0946468, 44.000, 12:30:39.952, 18, 0.00, 0.24, 98, -4.400, 2.900, 33.700, 1577, 100, 99, 23, 23341, -20919, 5381, 5491, 11, 14, 1526239839.953, 123, 0, 1024, 1024, 1024, 1024, 0, 6, 3896, 3888, 3870, 3887, 3929, 3904, 0, 1, 20201, -89.900, 0.000, 32.600, 0.000, 0.000, -3.100, 0.0, , , , , , 98, , , 63, 63, 63
37.7328201, -120.0946468, 44.300, 12:30:40.053, 18, 0.00, 0.23, 98, -4.600, 2.700, 33.900, 1577, 100, 99, 23, 23341, -20919, 5381, 5491, 11, 14, 1526239840.053, 95, 0, 1024, 1024, 1024, 1024, 0, 6, 3896, 3888, 3870, 3887, 3929, 3904, 0, 1, 20301, -90.000, 0.000, 32.700, 0.000, 0.000, -3.100, 0.0, , , , , , 98, , , 63, 63, 63
37.7328200, -120.0946469, 45.000, 12:30:40.152, 18, 0.00, 0.22, 97, -5.400, 2.300, 33.700, 1577, 100, 98, 23, 23292, -22117, 5326, 5491, 11, 14, 1526239840.153, 6, 0, 1024, 1024, 1024, 1024, 0, 6, 3868, 3853, 3848, 3878, 3903, 3895, 0, 1, 20401, -90.000, 0.000, 32.700, 0.000, 0.000, -3.000, 0.0, , , , , , 98, , , 63, 63, 63
37.7328200, -120.0946469, 45.000, 12:30:40.252, 18, 0.00, 0.22, 97, -5.400, 2.300, 33.700, 1577, 100, 98, 23, 23292, -22117, 5326, 5491, 11, 14, 1526239840.253, 106, 0, 1024, 1024, 1024, 1024, 0, 6, 3868, 3853, 3848, 3878, 3903, 3895, 0, 1, 20501, -90.000, 0.000, 32.700, 0.000, 0.000, -3.000, 0.0, , , , , , 98, , , 63, 63, 63
37.7328200, -120.0946469, 45.600, 12:30:40.358, 18, 0.00, 0.22, 97, -5.600, 2.400, 33.300, 1577, 100, 98, 23, 23292, -22117, 5326, 5491, 11, 14, 1526239840.359, 5, 0, 1024, 1024, 1024, 1024, 0, 6, 3868, 3853, 3848, 3878, 3903, 3895, 0, 1, 20607, -89.900, 0.000, 32.600, 0.000, 0.000, -3.000, 0.0, , , , , , 98, , , 63, 63, 63
37.7328200, -120.0946469, 45.900, 12:30:40.456, 18, 0.00, 0.22, 97, -5.600, 2.400, 33.200, 1577, 100, 98, 23, 23292, -22117, 5326, 5491, 11, 14, 1526239840.457, 5, 0, 1024, 1024, 1024, 1024, 0, 6, 3868, 3853, 3848, 3878, 3903, 3895, 0, 1, 20705, -90.000, 0.000, 32.600, 0.000, 0.000, -3.000, 0.0, , , , , , 98, , , 63, 63, 63
