Latitude, Longitude, Altitude (m), Time, Sats, Speed (m/s), Range (m), Battery (%), Roll (deg), Pitch (deg), Yaw (deg), Images, HD Signal (%), RC Signal (%), Battery Temp (C), Battery Voltage (mV), Battery Current (mA), Battery Energy (mAh), Battery Capacity (mAh), Battery Discharges, flyState, timestamp (Unix), LastUpdate (ms), radioChannel, Rc_elevator, Rc_aileron, Rc_throttle, Rc_rudder, Rc_gyro, Dronetype, Battery_Cell1 (mV), Battery_Cell2 (mV), Battery_Cell3 (mV), Battery_Cell4 (mV), Battery_Cell5 (mV), Battery_Cell6 (mV), Video, isFlying, elapsedTime (ms), gimbalPitch (deg), gimbalRoll (deg), gimbalYaw (deg), VelocityX (m/s), VelocityY (m/s), VelocityZ (m/s), GroundSmear (cm), App Version, Aircraft Name, Aircraft Firmware, Aircraft Serial Number, Battery Serial Number, Battery Lifetime (%), App_Tip, App_Warning, CurrentFlightStartingIndex, CurrentFlightLastVisitedWaypoint, PreviousFlightEndingWaypointIndex
38.2001767, -120.0382903, 0.000, 10:32:08.444, 13, 0.00, 0.03, 93, -0.200, 0.400, -31.700, 4, 100, 100, 19, 25040, -3256, 5159, 5548, 8, 11, 1526146328.444, 48, 0, 1024, 1024, 1024, 1024, 0, 6, 4185, 4192, 4147, 4157, 4168, 4164, 0, 1, 3227, -89.900, 0.000, -30.800, 0.000, 0.000, -0.200, 0.0, MapPilot_2.8.1_04242018, Dendroctonus I, 1.3.1.00, 041DDC1887, 1058163200468, 98, DJI_0442.jpg, Starting Mission from Lat/Long: 38.20017/-120.03829 Camera: Zenmuse X3 - Overlap: 90/90 - Active Connection: No, 53, 53, 53
38.2001767, -120.0382903, 0.000, 10:32:08.518, 13, 0.00, 0.03, 93, -0.200, 0.400, -31.700, 4, 100, 100, 19, 25040, -3256, 5159, 5548, 8, 11, 1526146328.519, 123, 0, 1024, 1024, 1024, 1024, 0, 6, 4185, 4192, 4147, 4157, 4168, 4164, 0, 1, 3302, -89.900, 0.000, -30.800, 0.000, 0.000, -0.200, 0.0, , , , , , 98, , , 53, 53, 53
38.2001766, -120.0382904, 0.000, 10:32:08.617, 13, 0.00, 0.05, 93, 0.800, 0.200, -31.400, 4, 100, 100, 19, 25040, -3256, 5159, 5548, 8, 11, 1526146328.618, 7, 0, 1024, 1024, 1024, 1024, 0, 6, 4185, 4192, 4147, 4157, 4168, 4164, 0, 1, 3401, -89.900, 0.000, -30.800, 0.000, 0.000, -0.400, 0.0, , , , , , 98, , , 53, 53, 53
38.2001765, -120.0382905, 0.000, 10:32:08.717, 13, 0.00, 0.06, 93, 1.000, 0.400, -31.400, 4, 100, 100, 19, 25040, -3256, 5159, 5548, 8, 11, 1526146328.718, 13, 0, 1024, 1024, 1024, 1024, 0, 6, 4185, 4192, 4147, 4157, 4168, 4164, 0, 1, 3501, -89.900, 0.000, -30.800, 0.000, 0.000, -0.500, 0.0, , , , , , 98, , , 53, 53, 53
38.2001765, -120.0382906, 0.100, 10:32:08.817, 12, 0.00, 0.07, 93, 0.700, 0.300, -31.600, 4, 100, 100, 19, 25040, -3256, 5159, 5548, 8, 11, 1526146328.818, 11, 0, 1024, 1024, 1024, 1024, 0, 6, 4185, 4192, 4147, 4157, 4168, 4164, 0, 1, 3601, -89.900, 0.000, -30.800, 0.000, 0.000, -0.500, 0.0, , , , , , 98, , , 53, 53, 53
38.2001764, -120.0382907, 0.100, 10:32:08.918, 12, 0.00, 0.08, 93, 0.300, 0.100, -31.700, 4, 100, 100, 19, 25040, -3256, 5159, 5548, 8, 11, 1526146328.918, 16, 0, 1024, 1024, 1024, 1024, 0, 6, 4185, 4192, 4147, 4157, 4168, 4164, 0, 1, 3701, -90.000, 0.000, -30.800, 0.000, 0.000, -0.500, 0.0, , , , , , 98, , , 53, 53, 53
38.2001764, -120.0382907, 0.200, 10:32:09.018, 12, 0.00, 0.08, 93, 0.300, 0.000, -31.900, 4, 100, 100, 19, 25040, -3256, 5159, 5548, 8, 11, 1526146329.019, 5, 0, 1024, 1024, 1024, 1024, 0, 6, 4185, 4192, 4147, 4157, 4168, 4164, 0, 1, 3802, -90.000, 0.000, -30.800, 0.000, 0.000, -0.500, 0.0, , , , , , 98, , , 53, 53, 53
38.2001763, -120.0382907, 0.200, 10:32:09.129, 12, 0.00, 0.09, 93, 0.400, 0.000, -32.000, 4, 100, 100, 19, 25040, -3256, 5159, 5548, 8, 11, 1526146329.130, 13, 0, 1024, 1024, 1024, 1024, 0, 6, 4185, 4192, 4147, 4157, 4168, 4164, 0, 1, 3912, -89.900, 0.000, -30.800, 0.000, 0.000, -0.400, 0.0, , , , , , 98, , , 53, 53, 53
38.2001763, -120.0382907, 0.200, 10:32:09.218, 12, 0.00, 0.09, 93, 0.400, 0.000, -32.000, 4, 100, 100, 19, 25040, -3256, 5159, 5548, 8, 11, 1526146329.218, 102, 0, 1024, 1024, 1024, 1024, 0, 6, 4185, 4192, 4147, 4157, 4168, 4164, 0, 1, 4001, -89.900, 0.000, -30.800, 0.000, 0.000, -0.400, 0.0, , , , , , 98, , , 53, 53, 53
38.2001763, -120.0382907, 0.300, 10:32:09.318, 12, 0.00, 0.09, 93, 0.400, 0.000, -32.000, 4, 100, 100, 19, 25040, -3256, 5159, 5548, 8, 11, 1526146329.318, 89, 0, 1024, 1024, 1024, 1024, 0, 6, 4185, 4192, 4147, 4157, 4168, 4164, 0, 1, 4101, -89.900, 0.000, -30.800, 0.000, 0.000, -0.400, 0.0, , , , , , 98, , , 53, 53, 53
38.2001763, -120.0382908, 0.300, 10:32:09.418, 12, 0.00, 0.10, 93, 0.400, 0.000, -32.000, 4, 100, 100, 19, 24054, -9722, 5159, 5548, 8, 11, 1526146329.419, 80, 0, 1024, 1024, 1024, 1024, 0, 6, 4005, 3988, 4001, 3944, 3972, 3981, 0, 1, 4201, -90.000, 0.000, -30.800, 0.000, 0.000, -0.400, 0.0, , , , , , 98, , , 53, 53, 53
38.2001762, -120.0382908, 0.400, 10:32:09.518, 12, 0.00, 0.10, 93, 0.500, -0.200, -32.000, 4, 100, 100, 19, 24054, -9722, 5159, 5548, 8, 11, 1526146329.518, 81, 0, 1024, 1024, 1024, 1024, 0, 6, 4005, 3988, 4001, 3944, 3972, 3981, 0, 1, 4301, -90.000, 0.000, -30.800, 0.000, 0.000, -0.400, 0.0, , , , , , 98, , , 53, 53, 53
38.2001761, -120.0382907, 0.400, 10:32:09.618, 12, 0.00, 0.10, 93, 0.700, -0.300, -32.000, 4, 100, 100, 19, 24054, -9722, 5159, 5548, 8, 11, 1526146329.618, 66, 0, 1024, 1024, 1024, 1024, 0, 6, 4005, 3988, 4001, 3944, 3972, 3981, 0, 1, 4401, -90.000, 0.000, -30.800, 0.000, 0.000, -0.500, 0.0, , , , , , 98, , , 53, 53, 53
38.2001761, -120.0382907, 0.600, 10:32:09.717, 11, 0.00, 0.11, 93, 0.600, -0.700, -31.900, 4, 100, 100, 19, 24054, -9722, 5159, 5548, 8, 11, 1526146329.718, 59, 0, 1024, 1024, 1024, 1024, 0, 6, 4005, 3988, 4001, 3944, 3972, 3981, 0, 1, 4501, -90.000, 0.000, -30.800, 0.000, 0.000, -0.400, 0.0, , , , , , 98, , , 53, 53, 53
38.2001761, -120.0382907, 0.600, 10:32:09.818, 11, 0.00, 0.11, 93, 0.500, -0.400, -31.900, 4, 100, 100, 19, 24054, -9722, 5159, 5548, 8, 11, 1526146329.819, 69, 0, 1024, 1024, 1024, 1024, 0, 6, 4005, 3988, 4001, 3944, 3972, 3981, 0, 1, 4602, -89.900, 0.000, -30.800, 0.000, 0.000, -0.500, 0.0, , , , , , 98, , , 53, 53, 53
38.2001760, -120.0382907, 0.700, 10:32:09.918, 11, 0.00, 0.11, 93, 0.400, -0.200, -31.800, 4, 100, 100, 19, 24054, -9722, 5159, 5548, 8, 11, 1526146329.919, 73, 0, 1024, 1024, 1024, 1024, 0, 6, 4005, 3988, 4001, 3944, 3972, 3981, 0, 1, 4701, -89.900, 0.000, -30.800, 0.000, 0.000, -0.500, 0.0, , , , , , 98, , , 53, 53, 53
38.2001760, -120.0382907, 0.700, 10:32:10.018, 11, 0.00, 0.11, 93, 0.300, -0.200, -31.700, 4, 100, 100, 19, 24054, -9722, 5159, 5548, 8, 11, 1526146330.018, 72, 0, 1024, 1024, 1024, 1024, 0, 6, 4005, 3988, 4001, 3944, 3972, 3981, 0, 1, 4801, -90.000, 0.000, -30.800, 0.000, 0.000, -0.500, 0.0, , , , , , 98, , , 53, 53, 53
38.2001760, -120.0382907, 0.800, 10:32:10.118, 11, 0.00, 0.12, 93, 0.200, -0.300, -31.600, 4, 100, 100, 19, 24054, -9722, 5159, 5548, 8, 11, 1526146330.118, 68, 0, 1024, 1024, 1024, 1024, 0, 6, 4005, 3988, 4001, 3944, 3972, 3981, 0, 1, 4901, -90.000, 0.000, -30.800, 0.000, 0.000, -0.400, 0.0, , , , , , 98, , , 53, 53, 53
38.2001760, -120.0382907, 0.800, 10:32:10.217, 11, 0.00, 0.12, 93, 0.300, -0.400, -31.600, 4, 100, 100, 19, 24054, -9722, 5159, 5548, 8, 11, 1526146330.218, 64, 0, 1024, 1024, 1024, 1024, 0, 6, 4005, 3988, 4001, 3944, 3972, 3981, 0, 1, 5000, -90.000, 0.000, -30.800, 0.000, 0.000, -0.400, 0.0, , , , , , 98, , , 53, 53, 53
38.2001760, -120.0382907, 0.900, 10:32:10.317, 11, 0.00, 0.11, 93, 0.300, -0.500, -31.600, 4, 100, 100, 19, 24054, -9722, 5159, 5548, 8, 6, 1526146330.317, 46, 0, 1024, 1024, 1024, 1024, 0, 6, 4005, 3988, 4001, 3944, 3972, 3981, 0, 1, 5100, -90.000, 0.000, -30.800, 0.000, 0.000, -0.400, 0.0, , , , , , 98, , , 53, 53, 53
38.2001760, -120.0382906, 0.900, 10:32:10.417, 11, 0.00, 0.11, 93, 0.100, -0.400, -31.700, 4, 100, 100, 19, 23119, -16977, 5159, 5548, 8, 14, 1526146330.417, 45, 0, 1024, 1024, 1024, 1024, 0, 6, 3849, 3840, 3845, 3854, 3841, 3868, 0, 1, 5200, -90.000, 0.000, -30.800, 0.000, 0.000, -0.400, 0.0, , , , , , 98, , , 53, 53, 53
38.2001760, -120.0382906, 0.900, 10:32:10.518, 11, 0.00, 0.11, 93, -0.100, -0.300, -31.700, 4, 100, 100, 19, 23119, -16977, 5159, 5548, 8, 14, 1526146330.519, 25, 0, 1024, 1024, 1024, 1024, 0, 6, 3849, 3840, 3845, 3854, 3841, 3868, 0, 1, 5301, -89.900, 0.000, -30.800, 0.000, 0.000, -0.200, 0.0, , , , , , 98, , , 53, 53, 53
38.2001760, -120.0382906, 1.000, 10:32:10.617, 11, 0.00, 0.11, 93, -0.200, -0.100, -31.800, 4, 100, 100, 19, 23119, -16977, 5159, 5548, 8, 14, 1526146330.617, 23, 0, 1024, 1024, 1024, 1024, 0, 6, 3849, 3840, 3845, 3854, 3841, 3868, 0, 1, 5400, -89.900, 0.000, -30.800, 0.000, 0.000, -0.200, 0.0, , , , , , 98, , , 53, 53, 53
38.2001761, -120.0382906, 1.000, 10:32:10.717, 11, 0.00, 0.10, 93, -0.200, 0.000, -31.900, 4, 100, 100, 19, 23119, -16977, 5159, 5548, 8, 14, 1526146330.718, 25, 0, 1024, 1024, 1024, 1024, 0, 6, 3849, 3840, 3845, 3854, 3841, 3868, 0, 1, 5500, -89.900, 0.000, -30.800, 0.000, 0.000, -0.200, 0.0, , , , , , 98, , , 53, 53, 53
38.2001761, -120.0382905, 1.000, 10:32:10.817, 11, 0.00, 0.10, 93, -0.200, 0.000, -31.900, 4, 100, 100, 19, 23119, -16977, 5159, 5548, 8, 14, 1526146330.818, 17, 0, 1024, 1024, 1024, 1024, 0, 6, 3849, 3840, 3845, 3854, 3841, 3868, 0, 1, 5600, -89.900, 0.000, -30.800, 0.000, 0.000, -0.300, 0.0, , , , , , 98, , , 53, 53, 53
38.2001761, -120.0382906, 1.100, 10:32:10.918, 11, 0.00, 0.11, 93, -0.200, 0.000, -31.900, 4, 100, 100, 19, 23119, -16977, 5159, 5548, 8, 14, 1526146330.918, 27, 0, 1024, 1024, 1024, 1024, 0, 6, 3849, 3840, 3845, 3854, 3841, 3868, 0, 1, 5701, -89.900, 0.000, -30.800, 0.000, 0.000, -0.400, 0.0, , , , , , 98, , , 53, 53, 53
38.2001761, -120.0382907, 1.100, 10:32:11.017, 11, 0.00, 0.11, 93, -0.100, 0.000, -31.900, 4, 100, 100, 19, 23119, -16977, 5159, 5548, 8, 14, 1526146331.017, 21, 0, 1024, 1024, 1024, 1024, 0, 6, 3849, 3840, 3845, 3854, 3841, 3868, 0, 1, 5800, -89.900, 0.000, -30.800, 0.000, 0.000, -0.600, 0.0, , , , , , 98, , , 53, 53, 53
38.2001761, -120.0382906, 1.200, 10:32:11.117, 11, 0.00, 0.10, 93, 0.000, 0.000, -31.800, 4, 100, 100, 19, 23119, -16977, 5159, 5548, 8, 14, 1526146331.118, 10, 0, 1024, 1024, 1024, 1024, 0, 6, 3849, 3840, 3845, 3854, 3841, 3868, 0, 1, 5901, -89.900, 0.000, -30.800, 0.000, 0.000, -0.800, 0.0, , , , , , 98, , , 53, 53, 53
38.2001761, -120.0382906, 1.300, 10:32:11.217, 10, 0.00, 0.10, 93, 0.000, 0.000, -31.700, 4, 100, 100, 19, 23119, -16977, 5159, 5548, 8, 14, 1526146331.218, 8, 0, 1024, 1024, 1024, 1024, 0, 6, 3849, 3840, 3845, 3854, 3841, 3868, 0, 1, 6000, -90.000, 0.000, -30.800, 0.000, 0.000, -1.000, 0.0, , , , , , 98, , , 53, 53, 53
38.2001761, -120.0382906, 1.400, 10:32:11.319, 10, 0.00, 0.10, 93, -0.200, 0.000, -31.600, 4, 100, 100, 19, 22976, -17066, 5159, 5548, 8, 14, 1526146331.319, 6, 0, 1024, 1024, 1024, 1024, 0, 6, 3849, 3840, 3845, 3854, 3841, 3868, 0, 1, 6102, -89.900, 0.000, -30.800, 0.000, 0.000, -1.200, 0.0, , , , , , 98, , , 53, 53, 53
38.2001761, -120.0382906, 1.400, 10:32:11.417, 10, 0.00, 0.10, 93, -0.200, 0.000, -31.600, 4, 100, 100, 19, 22976, -17066, 5159, 5548, 8, 14, 1526146331.417, 105, 0, 1024, 1024, 1024, 1024, 0, 6, 3823, 3821, 3805, 3831, 3839, 3842, 0, 1, 6200, -89.900, 0.000, -30.800, 0.000, 0.000, -1.200, 0.0, , , , , , 98, , , 53, 53, 53
38.2001761, -120.0382906, 1.500, 10:32:11.518, 13, 0.00, 0.10, 93, -0.200, 0.000, -31.500, 4, 100, 100, 19, 22976, -17066, 5159, 5548, 8, 14, 1526146331.518, 94, 0, 1024, 1024, 1024, 1024, 0, 6, 3823, 3821, 3805, 3831, 3839, 3842, 0, 1, 6301, -89.900, 0.000, -30.800, 0.000, 0.000, -1.400, 0.0, , , , , , 98, , , 53, 53, 53
38.2001761, -120.0382905, 1.700, 10:32:11.618, 13, 0.00, 0.09, 93, -0.200, 0.100, -31.500, 4, 100, 100, 19, 22976, -17066, 5159, 5548, 8, 14, 1526146331.618, 61, 0, 1024, 1024, 1024, 1024, 0, 6, 3823, 3821, 3805, 3831, 3839, 3842, 0, 1, 6401, -89.900, 0.000, -30.800, 0.000, 0.000, -1.600, 0.0, , , , , , 98, , , 53, 53, 53
38.2001763, -120.0382904, 2.000, 10:32:11.718, 12, 0.00, 0.07, 93, -0.400, 0.200, -31.300, 4, 100, 100, 19, 22976, -17066, 5159, 5548, 8, 14, 1526146331.719, 66, 0, 1024, 1024, 1024, 1024, 0, 6, 3823, 3821, 3805, 3831, 3839, 3842, 0, 1, 6501, -89.900, 0.000, -30.800, 0.000, 0.000, -2.000, 0.0, , , , , , 98, , , 53, 53, 53
38.2001764, -120.0382904, 2.300, 10:32:11.817, 12, 0.00, 0.07, 93, -0.600, 0.400, -31.300, 4, 100, 100, 19, 22976, -17066, 5159, 5548, 8, 14, 1526146331.818, 82, 0, 1024, 1024, 1024, 1024, 0, 6, 3823, 3821, 3805, 3831, 3839, 3842, 0, 1, 6600, -89.900, 0.000, -30.800, 0.000, 0.000, -2.200, 0.0, , , , , , 98, , , 53, 53, 53
38.2001763, -120.0382903, 2.500, 10:32:11.917, 12, 0.00, 0.07, 93, -0.500, 0.400, -31.400, 4, 100, 100, 19, 22976, -17066, 5159, 5548, 8, 14, 1526146331.918, 50, 0, 1024, 1024, 1024, 1024, 0, 6, 3823, 3821, 3805, 3831, 3839, 3842, 0, 1, 6701, -89.900, 0.000, -30.800, 0.000, 0.000, -2.500, 0.0, , , , , , 98, , , 53, 53, 53
38.2001763, -120.0382903, 2.800, 10:32:12.018, 13, 0.00, 0.07, 93, -0.400, 0.100, -31.500, 4, 100, 100, 19, 22976, -17066, 5159, 5548, 8, 14, 1526146332.019, 44, 0, 1024, 1024, 1024, 1024, 0, 6, 3823, 3821, 3805, 3831, 3839, 3842, 0, 1, 6802, -90.000, 0.000, -30.800, 0.000, 0.000, -2.800, 0.0, , , , , , 98, , , 53, 53, 53
38.2001763, -120.0382902, 3.100, 10:32:12.118, 13, 0.00, 0.07, 93, -0.200, -0.200, -31.500, 4, 100, 100, 19, 22976, -17066, 5159, 5548, 8, 14, 1526146332.119, 52, 0, 1024, 1024, 1024, 1024, 0, 6, 3823, 3821, 3805, 3831, 3839, 3842, 0, 1, 6901, -90.000, 0.000, -30.800, 0.000, 0.000, -2.900, 0.0, , , , , , 98, , , 53, 53, 53
38.2001764, -120.0382901, 3.400, 10:32:12.217, 12, 0.00, 0.06, 93, -0.300, -0.200, -31.400, 4, 100, 100, 19, 22976, -17066, 5159, 5548, 8, 14, 1526146332.217, 52, 0, 1024, 1024, 1024, 1024, 0, 6, 3823, 3821, 3805, 3831, 3839, 3842, 0, 1, 7000, -90.000, 0.000, -30.800, 0.000, 0.000, -3.100, 0.0, , , , , , 98, , , 53, 53, 53
38.2001764, -120.0382900, 3.700, 10:32:12.318, 12, 0.00, 0.06, 93, -0.400, -0.300, -31.300, 4, 100, 100, 19, 22976, -17066, 5159, 5548, 8, 14, 1526146332.318, 53, 0, 1024, 1024, 1024, 1024, 0, 6, 3823, 3821, 3805, 3831, 3839, 3842, 0, 1, 7101, -90.000, 0.000, -30.800, 0.000, 0.000, -3.100, 0.0, , , , , , 98, , , 53, 53, 53
38.2001764, -120.0382898, 4.000, 10:32:12.418, 12, 0.00, 0.06, 93, -0.600, -0.400, -31.300, 4, 100, 100, 19, 22699, -25660, 5159, 5548, 8, 14, 1526146332.418, 58, 0, 1024, 1024, 1024, 1024, 0, 6, 3663, 3669, 3746, 3765, 3739, 3764, 0, 1, 7201, -90.000, 0.000, -30.800, 0.000, 0.000, -3.200, 0.0, , , , , , 98, , , 53, 53, 53
38.2001765, -120.0382897, 4.400, 10:32:12.518, 12, 0.00, 0.05, 93, -0.900, -0.500, -31.200, 4, 100, 100, 19, 22699, -25660, 5159, 5548, 8, 14, 1526146332.518, 30, 0, 1024, 1024, 1024, 1024, 0, 6, 3663, 3669, 3746, 3765, 3739, 3764, 0, 1, 7301, -90.000, 0.000, -30.800, 0.000, 0.000, -3.300, 0.0, , , , , , 98, , , 53, 53, 53
38.2001765, -120.0382896, 4.700, 10:32:12.618, 13, 0.00, 0.05, 93, -0.900, -0.400, -31.300, 4, 100, 100, 19, 22699, -25660, 5159, 5548, 8, 14, 1526146332.618, 21, 0, 1024, 1024, 1024, 1024, 0, 6, 3663, 3669, 3746, 3765, 3739, 3764, 0, 1, 7401, -90.000, 0.000, -30.800, 0.000, 0.000, -3.300, 0.0, , , , , , 98, , , 53, 53, 53
38.2001765, -120.0382896, 5.100, 10:32:12.717, 13, 0.00, 0.06, 93, -0.800, -0.300, -31.300, 4, 100, 100, 19, 22699, -25660, 5159, 5548, 8, 14, 1526146332.717, 23, 0, 1024, 1024, 1024, 1024, 0, 6, 3663, 3669, 3746, 3765, 3739, 3764, 0, 1, 7500, -90.000, 0.000, -30.800, 0.000, 0.000, -3.400, 0.0, , , , , , 98, , , 53, 53, 53
38.2001766, -120.0382895, 5.400, 10:32:12.818, 13, 0.00, 0.06, 93, -0.900, -0.200, -31.500, 4, 100, 100, 19, 22699, -25660, 5159, 5548, 8, 14, 1526146332.818, 25, 0, 1024, 1024, 1024, 1024, 0, 6, 3663, 3669, 3746, 3765, 3739, 3764, 0, 1, 7601, -89.900, 0.000, -30.800, 0.000, 0.000, -3.300, 0.0, , , , , , 98, , , 53, 53, 53
38.2001766, -120.0382893, 5.800, 10:32:12.918, 13, 0.00, 0.07, 93, -1.200, -0.100, -31.700, 4, 100, 100, 19, 22699, -25660, 5159, 5548, 8, 14, 1526146332.918, 20, 0, 1024, 1024, 1024, 1024, 0, 6, 3663, 3669, 3746, 3765, 3739, 3764, 0, 1, 7701, -89.900, 0.000, -30.800, 0.000, 0.000, -3.300, 0.0, , , , , , 98, , , 53, 53, 53
38.2001766, -120.0382891, 6.100, 10:32:13.017, 12, 0.00, 0.08, 93, -1.300, -0.200, -31.800, 4, 100, 100, 19, 22699, -25660, 5159, 5548, 8, 14, 1526146333.018, 12, 0, 1024, 1024, 1024, 1024, 0, 6, 3663, 3669, 3746, 3765, 3739, 3764, 0, 1, 7800, -90.000, 0.000, -30.800, 0.000, 0.000, -3.300, 0.0, , , , , , 98, , , 53, 53, 53
38.2001767, -120.0382891, 6.500, 10:32:13.132, 12, 0.00, 0.09, 93, -1.400, -0.200, -31.900, 4, 100, 100, 19, 22699, -25660, 5159, 5548, 8, 14, 1526146333.133, 14, 0, 1024, 1024, 1024, 1024, 0, 6, 3663, 3669, 3746, 3765, 3739, 3764, 0, 1, 7916, -90.000, 0.000, -30.800, 0.000, 0.000, -3.300, 0.0, , , , , , 98, , , 53, 53, 53
38.2001767, -120.0382890, 6.800, 10:32:13.218, 13, 0.00, 0.09, 93, -1.500, -0.200, -31.900, 4, 100, 100, 19, 22699, -25660, 5159, 5548, 8, 14, 1526146333.218, 6, 0, 1024, 1024, 1024, 1024, 0, 6, 3663, 3669, 3746, 3765, 3739, 3764, 0, 1, 8001, -90.000, 0.000, -30.800, 0.000, 0.000, -3.300, 0.0, , , , , , 98, , , 53, 53, 53
38.2001767, -120.0382890, 7.200, 10:32:13.318, 13, 0.00, 0.09, 93, -1.400, -0.200, -31.900, 4, 100, 100, 19, 22387, -20546, 5159, 5548, 8, 14, 1526146333.319, 8, 0, 1024, 1024, 1024, 1024, 0, 6, 3663, 3669, 3746, 3765, 3739, 3764, 0, 1, 8101, -90.000, 0.000, -30.800, 0.000, 0.000, -3.200, 0.0, , , , , , 98, , , 53, 53, 53
38.2001767, -120.0382890, 7.500, 10:32:13.427, 13, 0.00, 0.09, 93, -1.200, -0.200, -31.900, 4, 100, 100, 19, 22387, -20546, 5159, 5548, 8, 14, 1526146333.428, 13, 0, 1024, 1024, 1024, 1024, 0, 6, 3663, 3669, 3746, 3765, 3739, 3764, 0, 1, 8210, -90.000, 0.000, -30.800, 0.000, 0.000, -3.200, 0.0, , , , , , 98, , , 53, 53, 53
38.2001767, -120.0382890, 7.500, 10:32:13.517, 13, 0.00, 0.09, 93, -1.200, -0.200, -31.900, 4, 100, 100, 19, 22387, -20546, 5159, 5548, 8, 14, 1526146333.518, 103, 0, 1024, 1024, 1024, 1024, 0, 6, 3663, 3669, 3746, 3765, 3739, 3764, 0, 1, 8300, -90.000, 0.000, -30.800, 0.000, 0.000, -3.200, 0.0, , , , , , 98, , , 53, 53, 53
38.2001767, -120.0382890, 7.800, 10:32:13.617, 13, 0.00, 0.09, 93, -0.900, -0.200, -32.000, 4, 100, 100, 19, 22387, -20546, 5159, 5548, 8, 14, 1526146333.618, 64, 0, 1024, 1024, 1024, 1024, 0, 6, 3663, 3669, 3746, 3765, 3739, 3764, 0, 1, 8400, -90.000, 0.000, -30.800, 0.000, 0.000, -3.200, 0.0, , , , , , 98, , , 53, 53, 53
38.2001767, -120.0382891, 8.200, 10:32:13.717, 13, 0.00, 0.08, 93, -0.700, 0.000, -31.900, 4, 100, 100, 19, 22387, -20546, 5159, 5548, 8, 14, 1526146333.718, 89, 0, 1024, 1024, 1024, 1024, 0, 6, 3663, 3669, 3746, 3765, 3739, 3764, 0, 1, 8501, -89.900, 0.000, -30.800, 0.000, 0.000, -3.100, 0.0, , , , , , 98, , , 53, 53, 53
38.2001767, -120.0382891, 8.500, 10:32:13.817, 13, 0.00, 0.08, 93, -0.600, 0.000, -31.900, 4, 100, 100, 19, 22387, -20546, 5159, 5548, 8, 14, 1526146333.818, 81, 0, 1024, 1024, 1024, 1024, 0, 6, 3663, 3669, 3746, 3765, 3739, 3764, 0, 1, 8601, -89.900, 0.000, -30.800, 0.000, 0.000, -3.200, 0.0, , , , , , 98, , , 53, 53, 53
38.2001766, -120.0382892, 8.800, 10:32:13.918, 13, 0.00, 0.08, 93, -0.500, 0.100, -31.800, 4, 100, 100, 19, 22387, -20546, 5159, 5548, 8, 14, 1526146333.918, 72, 0, 1024, 1024, 1024, 1024, 0, 6, 3729, 3735, 3727, 3740, 3660, 3713, 0, 1, 8701, -89.900, 0.000, -30.800, 0.000, 0.000, -3.100, 0.0, , , , , , 98, , , 53, 53, 53
38.2001766, -120.0382893, 9.500, 10:32:14.018, 13, 0.00, 0.07, 93, -0.400, 0.100, -31.800, 4, 100, 100, 19, 22387, -20546, 5159, 5548, 8, 14, 1526146334.018, 80, 0, 1024, 1024, 1024, 1024, 0, 6, 3729, 3735, 3727, 3740, 3660, 3713, 0, 1, 8801, -89.900, 0.000, -30.800, 0.000, 0.000, -3.000, 0.0, , , , , , 98, , , 53, 53, 53
38.2001766, -120.0382895, 9.800, 10:32:14.118, 13, 0.00, 0.06, 93, -0.300, 0.000, -31.800, 4, 100, 100, 19, 22387, -20546, 5159, 5548, 8, 14, 1526146334.119, 70, 0, 1024, 1024, 1024, 1024, 0, 6, 3729, 3735, 3727, 3740, 3660, 3713, 0, 1, 8901, -90.000, 0.000, -30.800, 0.000, 0.000, -3.000, 0.0, , , , , , 98, , , 53, 53, 53
38.2001766, -120.0382896, 10.100, 10:32:14.217, 13, 0.00, 0.05, 93, -0.300, 0.000, -31.800, 4, 100, 100, 19, 22387, -20546, 5159, 5548, 8, 14, 1526146334.218, 51, 0, 1024, 1024, 1024, 1024, 0, 6, 3729, 3735, 3727, 3740, 3660, 3713, 0, 1, 9000, -90.000, 0.000, -30.800, 0.000, 0.000, -3.000, 0.0, , , , , , 98, , , 53, 53, 53
38.2001766, -120.0382897, 10.400, 10:32:14.318, 13, 0.00, 0.04, 93, -0.200, 0.000, -31.800, 4, 100, 100, 19, 22387, -20546, 5159, 5548, 8, 14, 1526146334.319, 40, 0, 1024, 1024, 1024, 1024, 0, 6, 3729, 3735, 3727, 3740, 3660, 3713, 0, 1, 9101, -89.900, 0.000, -30.800, 0.000, 0.000, -3.000, 0.0, , , , , , 98, , , 53, 53, 53
38.2001766, -120.0382898, 10.700, 10:32:14.417, 13, 0.00, 0.04, 93, -0.200, 0.000, -31.800, 4, 100, 100, 19, 22387, -20546, 5159, 5548, 8, 14, 1526146334.418, 30, 0, 1024, 1024, 1024, 1024, 0, 6, 3729, 3735, 3727, 3740, 3660, 3713, 0, 1, 9200, -90.000, 0.000, -30.800, 0.000, 0.000, -3.000, 0.0, , , , , , 98, , , 53, 53, 53
38.2001766, -120.0382899, 11.000, 10:32:14.518, 13, 0.00, 0.04, 93, 0.000, 0.000, -31.900, 4, 100, 100, 19, 22387, -20546, 5159, 5548, 8, 14, 1526146334.518, 25, 0, 1024, 1024, 1024, 1024, 0, 6, 3729, 3735, 3727, 3740, 3660, 3713, 0, 1, 9301, -89.900, 0.000, -30.800, 0.000, 0.000, -3.000, 0.0, , , , , , 98, , , 53, 53, 53
38.2001765, -120.0382900, 11.400, 10:32:14.618, 12, 0.00, 0.04, 93, 0.000, 0.100, -31.900, 4, 100, 100, 19, 22387, -20546, 5159, 5548, 8, 14, 1526146334.619, 47, 0, 1024, 1024, 1024, 1024, 0, 6, 3729, 3735, 3727, 3740, 3660, 3713, 0, 1, 9402, -89.900, 0.000, -30.800, 0.000, 0.000, -3.000, 0.0, , , , , , 98, , , 53, 53, 53
38.2001764, -120.0382902, 11.700, 10:32:14.718, 12, 0.00, 0.05, 93, 0.000, 0.200, -31.800, 4, 100, 100, 19, 22387, -20546, 5159, 5548, 8, 14, 1526146334.719, 39, 0, 1024, 1024, 1024, 1024, 0, 6, 3729, 3735, 3727, 3740, 3660, 3713, 0, 1, 9501, -89.900, 0.000, -30.800, 0.000, 0.000, -3.000, 0.0, , , , , , 98, , , 53, 53, 53
38.2001764, -120.0382903, 12.000, 10:32:14.817, 13, 0.00, 0.06, 93, 0.300, 0.100, -31.700, 4, 100, 100, 19, 22387, -20546, 5159, 5548, 8, 14, 1526146334.818, 31, 0, 1024, 1024, 1024, 1024, 0, 6, 3729, 3735, 3727, 3740, 3660, 3713, 0, 1, 9601, -90.000, 0.000, -30.800, 0.000, 0.000, -3.000, 0.0, , , , , , 98, , , 53, 53, 53
38.2001764, -120.0382904, 12.300, 10:32:14.918, 13, 0.00, 0.07, 93, 0.500, 0.000, -31.600, 4, 100, 98, 19, 22387, -20546, 5159, 5548, 8, 14, 1526146334.918, 20, 0, 1024, 1024, 1024, 1024, 0, 6, 3729, 3735, 3727, 3740, 3660, 3713, 0, 1, 9701, -90.000, 0.000, -30.800, 0.000, 0.000, -3.000, 0.0, , , , , , 98, , , 53, 53, 53
38.2001764, -120.0382904, 12.300, 10:32:15.018, 13, 0.00, 0.07, 93, 0.500, 0.000, -31.600, 4, 100, 98, 19, 22387, -20546, 5159, 5548, 8, 14, 1526146335.018, 120, 0, 1024, 1024, 1024, 1024, 0, 6, 3729, 3735, 3727, 3740, 3660, 3713, 0, 1, 9801, -89.900, 0.000, -30.800, 0.000, 0.000, -3.000, 0.0, , , , , , 98, , , 53, 53, 53
38.2001764, -120.0382904, 12.300, 10:32:15.118, 13, 0.00, 0.07, 93, 0.500, 0.000, -31.600, 4, 100, 98, 19, 22387, -20546, 5159, 5548, 8, 14, 1526146335.118, 220, 0, 1024, 1024, 1024, 1024, 0, 6, 3729, 3735, 3727, 3740, 3660, 3713, 0, 1, 9901, -89.900, 0.000, -30.800, 0.000, 0.000, -3.000, 0.0, , , , , , 98, , , 53, 53, 53
38.2001764, -120.0382905, 13.200, 10:32:15.218, 13, 0.00, 0.07, 93, 0.000, 0.000, -31.500, 4, 100, 98, 19, 22387, -20546, 5159, 5548, 8, 14, 1526146335.218, 4, 0, 1024, 1024, 1024, 1024, 0, 6, 3729, 3735, 3727, 3740, 3660, 3713, 0, 1, 10001, -90.000, 0.000, -30.800, 0.000, 0.000, -2.900, 0.0, , , , , , 98, , , 53, 53, 53
38.2001764, -120.0382905, 13.500, 10:32:15.317, 13, 0.00, 0.07, 93, -0.400, 0.000, -31.600, 4, 100, 98, 19, 22539, -18944, 5159, 5548, 8, 14, 1526146335.319, 11, 0, 1024, 1024, 1024, 1024, 0, 6, 3757, 3737, 3741, 3762, 3764, 3778, 0, 1, 10102, -90.000, 0.000, -30.800, 0.000, 0.000, -2.900, 0.0, , , , , , 98, , , 53, 53, 53
38.2001763, -120.0382905, 13.800, 10:32:15.418, 13, 0.00, 0.07, 93, -0.600, -0.100, -31.600, 4, 100, 97, 19, 22539, -18944, 5159, 5548, 8, 14, 1526146335.419, 23, 0, 1024, 1024, 1024, 1024, 0, 6, 3757, 3737, 3741, 3762, 3764, 3778, 0, 1, 10201, -90.000, 0.000, -30.800, 0.000, 0.000, -2.900, 0.0, , , , , , 98, , , 53, 53, 53
38.2001763, -120.0382905, 14.100, 10:32:15.518, 13, 0.00, 0.08, 93, -0.700, -0.300, -31.700, 4, 100, 97, 19, 22539, -18944, 5159, 5548, 8, 14, 1526146335.518, 11, 0, 1024, 1024, 1024, 1024, 0, 6, 3757, 3737, 3741, 3762, 3764, 3778, 0, 1, 10301, -90.000, 0.000, -30.800, 0.000, 0.000, -3.000, 0.0, , , , , , 98, , , 53, 53, 53
38.2001763, -120.0382905, 14.400, 10:32:15.635, 13, 0.00, 0.08, 93, -0.700, -0.300, -31.700, 4, 100, 97, 19, 22539, -18944, 5159, 5548, 8, 14, 1526146335.636, 4, 0, 1024, 1024, 1024, 1024, 0, 6, 3757, 3737, 3741, 3762, 3764, 3778, 0, 1, 10419, -90.000, 0.000, -30.800, 0.000, 0.000, -2.900, 0.0, , , , , , 98, , , 53, 53, 53
38.2001763, -120.0382905, 14.400, 10:32:15.718, 13, 0.00, 0.08, 93, -0.700, -0.300, -31.700, 4, 100, 97, 19, 22539, -18944, 5159, 5548, 8, 14, 1526146335.718, 87, 0, 1024, 1024, 1024, 1024, 0, 6, 3757, 3737, 3741, 3762, 3764, 3778, 0, 1, 10501, -90.000, 0.000, -30.800, 0.000, 0.000, -2.900, 0.0, , , , , , 98, , , 53, 53, 53
38.2001762, -120.0382906, 14.700, 10:32:15.817, 13, 0.00, 0.09, 93, -0.400, -0.300, -31.700, 4, 100, 97, 19, 22539, -18944, 5159, 5548, 8, 14, 1526146335.818, 90, 0, 1024, 1024, 1024, 1024, 0, 6, 3757, 3737, 3741, 3762, 3764, 3778, 0, 1, 10601, -90.000, 0.000, -30.800, 0.000, 0.000, -2.900, 0.0, , , , , , 98, , , 53, 53, 53
38.2001762, -120.0382906, 15.000, 10:32:15.917, 13, 0.00, 0.09, 93, -0.200, -0.200, -31.700, 4, 100, 97, 19, 22475, -19434, 5104, 5548, 8, 14, 1526146335.918, 80, 0, 1024, 1024, 1024, 1024, 0, 6, 3735, 3735, 3722, 3747, 3747, 3766, 0, 1, 10700, -90.000, 0.000, -30.800, 0.000, 0.000, -2.900, 0.0, , , , , , 98, , , 53, 53, 53
38.2001762, -120.0382905, 15.600, 10:32:16.018, 13, 0.00, 0.09, 93, -0.100, -0.300, -31.700, 4, 100, 97, 19, 22475, -19434, 5104, 5548, 8, 14, 1526146336.019, 67, 0, 1024, 1024, 1024, 1024, 0, 6, 3735, 3735, 3722, 3747, 3747, 3766, 0, 1, 10801, -90.000, 0.000, -30.800, 0.000, 0.000, -2.800, 0.0, , , , , , 98, , , 53, 53, 53
38.2001762, -120.0382904, 15.900, 10:32:16.118, 13, 0.00, 0.08, 93, -0.300, -0.400, -31.700, 4, 100, 97, 19, 22475, -19434, 5104, 5548, 8, 14, 1526146336.118, 82, 0, 1024, 1024, 1024, 1024, 0, 6, 3735, 3735, 3722, 3747, 3747, 3766, 0, 1, 10901, -90.000, 0.000, -30.800, 0.000, 0.000, -2.900, 0.0, , , , , , 98, , , 53, 53, 53
38.2001762, -120.0382904, 16.200, 10:32:16.218, 13, 0.00, 0.08, 93, -0.400, -0.300, -31.800, 4, 100, 97, 19, 22475, -19434, 5104, 5548, 8, 14, 1526146336.219, 84, 0, 1024, 1024, 1024, 1024, 0, 6, 3735, 3735, 3722, 3747, 3747, 3766, 0, 1, 11001, -90.000, 0.000, -30.800, 0.000, 0.000, -2.900, 0.0, , , , , , 98, , , 53, 53, 53
38.2001762, -120.0382904, 16.500, 10:32:16.317, 13, 0.00, 0.08, 93, -0.500, -0.300, -31.800, 4, 100, 97, 19, 22475, -19434, 5104, 5548, 8, 14, 1526146336.318, 85, 0, 1024, 1024, 1024, 1024, 0, 6, 3735, 3735, 3722, 3747, 3747, 3766, 0, 1, 11101, -90.000, 0.000, -30.800, 0.000, 0.000, -2.900, 0.0, , , , , , 98, , , 53, 53, 53
38.2001762, -120.0382904, 16.800, 10:32:16.418, 13, 0.00, 0.08, 92, -0.500, -0.200, -31.800, 4, 100, 97, 19, 22475, -19434, 5104, 5548, 8, 14, 1526146336.418, 58, 0, 1024, 1024, 1024, 1024, 0, 6, 3735, 3735, 3722, 3747, 3747, 3766, 0, 1, 11201, -90.000, 0.000, -30.800, 0.000, 0.000, -2.900, 0.0, , , , , , 98, , , 53, 53, 53
38.2001762, -120.0382904, 17.100, 10:32:16.518, 13, 0.00, 0.08, 92, -0.400, -0.200, -31.800, 4, 100, 98, 19, 22475, -19434, 5104, 5548, 8, 14, 1526146336.518, 42, 0, 1024, 1024, 1024, 1024, 0, 6, 3735, 3735, 3722, 3747, 3747, 3766, 0, 1, 11301, -90.000, 0.000, -30.800, 0.000, 0.000, -2.900, 0.0, , , , , , 98, , , 53, 53, 53
38.2001762, -120.0382904, 17.100, 10:32:16.618, 13, 0.00, 0.08, 92, -0.400, -0.200, -31.800, 4, 100, 98, 19, 22475, -19434, 5104, 5548, 8, 14, 1526146336.618, 142, 0, 1024, 1024, 1024, 1024, 0, 6, 3735, 3735, 3722, 3747, 3747, 3766, 0, 1, 11401, -90.000, 0.000, -30.800, 0.000, 0.000, -2.900, 0.0, , , , , , 98, , , 53, 53, 53
38.2001763, -120.0382903, 17.700, 10:32:16.718, 13, 0.00, 0.07, 92, -0.300, -0.100, -31.900, 4, 100, 98, 19, 22475, -19434, 5104, 5548, 8, 14, 1526146336.719, 34, 0, 1024, 1024, 1024, 1024, 0, 6, 3735, 3735, 3722, 3747, 3747, 3766, 0, 1, 11501, -90.000, 0.000, -30.800, 0.000, 0.000, -2.900, 0.0, , , , , , 98, , , 53, 53, 53
38.2001763, -120.0382902, 18.000, 10:32:16.818, 13, 0.00, 0.07, 92, -0.400, -0.100, -31.900, 4, 100, 98, 19, 22475, -19434, 5104, 5548, 8, 14, 1526146336.818, 37, 0, 1024, 1024, 1024, 1024, 0, 6, 3735, 3735, 3722, 3747, 3747, 3766, 0, 1, 11601, -90.000, 0.000, -30.800, 0.000, 0.000, -2.900, 0.0, , , , , , 98, , , 53, 53, 53
38.2001763, -120.0382902, 18.300, 10:32:16.918, 13, 0.00, 0.06, 92, -0.600, -0.100, -32.000, 4, 100, 92, 19, 22420, -19534, 5104, 5548, 8, 14, 1526146336.918, 44, 0, 1024, 1024, 1024, 1024, 0, 6, 3732, 3710, 3720, 3740, 3735, 3758, 0, 1, 11701, -90.000, 0.000, -30.900, 0.000, 0.000, -2.900, 0.0, , , , , , 98, , , 53, 53, 53
38.2001763, -120.0382902, 18.300, 10:32:17.018, 13, 0.00, 0.06, 92, -0.600, -0.100, -32.000, 4, 100, 92, 19, 22420, -19534, 5104, 5548, 8, 14, 1526146337.018, 144, 0, 1024, 1024, 1024, 1024, 0, 6, 3732, 3710, 3720, 3740, 3735, 3758, 0, 1, 11801, -89.900, 0.000, -30.800, 0.000, 0.000, -2.900, 0.0, , , , , , 98, , , 53, 53, 53
38.2001763, -120.0382902, 18.300, 10:32:17.118, 13, 0.00, 0.06, 92, -0.600, -0.100, -32.000, 4, 100, 92, 19, 22420, -19534, 5104, 5548, 8, 14, 1526146337.119, 244, 0, 1024, 1024, 1024, 1024, 0, 6, 3732, 3710, 3720, 3740, 3735, 3758, 0, 1, 11901, -89.900, 0.000, -30.800, 0.000, 0.000, -2.900, 0.0, , , , , , 98, , , 53, 53, 53
38.2001764, -120.0382900, 19.100, 10:32:17.218, 13, 0.00, 0.06, 92, -0.900, 0.300, -32.000, 4, 100, 92, 19, 22420, -19534, 5104, 5548, 8, 14, 1526146337.218, 23, 0, 1024, 1024, 1024, 1024, 0, 6, 3732, 3710, 3720, 3740, 3735, 3758, 0, 1, 12001, -89.900, 0.000, -30.800, 0.000, 0.000, -2.900, 0.0, , , , , , 98, , , 53, 53, 53
38.2001764, -120.0382900, 19.400, 10:32:17.318, 13, 0.00, 0.06, 92, -0.900, 0.200, -31.900, 4, 100, 92, 19, 22420, -19534, 5104, 5548, 8, 14, 1526146337.320, 39, 0, 1024, 1024, 1024, 1024, 0, 6, 3732, 3710, 3720, 3740, 3735, 3758, 0, 1, 12102, -89.900, 0.000, -30.800, 0.000, 0.000, -2.900, 0.0, , , , , , 98, , , 53, 53, 53
38.2001764, -120.0382899, 19.700, 10:32:17.418, 13, 0.00, 0.06, 92, -0.700, -0.100, -31.700, 4, 100, 89, 19, 22420, -19534, 5104, 5548, 8, 14, 1526146337.418, 24, 0, 1024, 1024, 1024, 1024, 0, 6, 3732, 3710, 3720, 3740, 3735, 3758, 0, 1, 12201, -90.000, 0.000, -30.800, 0.000, 0.000, -3.000, 0.0, , , , , , 98, , , 53, 53, 53
38.2001764, -120.0382899, 20.000, 10:32:17.518, 13, 0.00, 0.06, 92, -0.500, -0.400, -31.600, 4, 100, 89, 19, 22420, -19534, 5104, 5548, 8, 14, 1526146337.520, 23, 0, 1024, 1024, 1024, 1024, 0, 6, 3732, 3710, 3720, 3740, 3735, 3758, 0, 1, 12303, -90.000, 0.000, -30.800, 0.000, 0.000, -3.000, 0.0, , , , , , 98, , , 53, 53, 53
38.2001764, -120.0382899, 20.000, 10:32:17.618, 13, 0.00, 0.06, 92, -0.500, -0.400, -31.600, 4, 100, 89, 19, 22420, -19534, 5104, 5548, 8, 14, 1526146337.618, 121, 0, 1024, 1024, 1024, 1024, 0, 6, 3732, 3710, 3720, 3740, 3735, 3758, 0, 1, 12401, -90.000, 0.000, -30.800, 0.000, 0.000, -3.000, 0.0, , , , , , 98, , , 53, 53, 53
38.2001764, -120.0382899, 20.000, 10:32:17.718, 13, 0.00, 0.06, 92, -0.500, -0.400, -31.600, 4, 100, 89, 19, 22420, -19534, 5104, 5548, 8, 14, 1526146337.718, 221, 0, 1024, 1024, 1024, 1024, 0, 6, 3732, 3710, 3720, 3740, 3735, 3758, 0, 1, 12501, -90.000, 0.000, -30.800, 0.000, 0.000, -3.000, 0.0, , , , , , 98, , , 53, 53, 53
38.2001763, -120.0382897, 20.900, 10:32:17.818, 13, 0.00, 0.07, 92, -0.500, -0.700, -31.500, 4, 100, 89, 20, 22374, -19752, 5104, 5548, 8, 14, 1526146337.818, 26, 0, 1024, 1024, 1024, 1024, 0, 6, 3732, 3710, 3720, 3740, 3735, 3758, 0, 1, 12601, -90.000, 0.000, -30.800, 0.000, 0.000, -2.900, 0.0, , , , , , 98, , , 53, 53, 53
38.2001763, -120.0382897, 20.900, 10:32:17.918, 13, 0.00, 0.07, 92, -0.500, -0.700, -31.500, 4, 100, 89, 20, 22374, -19752, 5104, 5548, 8, 14, 1526146337.918, 127, 0, 1024, 1024, 1024, 1024, 0, 6, 3732, 3710, 3720, 3740, 3735, 3758, 0, 1, 12701, -90.000, 0.000, -30.800, 0.000, 0.000, -2.900, 0.0, , , , , , 98, , , 53, 53, 53
38.2001764, -120.0382897, 21.500, 10:32:18.022, 13, 0.00, 0.06, 92, -0.800, -0.200, -31.600, 4, 100, 87, 20, 22374, -19752, 5104, 5548, 8, 14, 1526146338.023, 4, 0, 1024, 1024, 1024, 1024, 0, 6, 3732, 3710, 3720, 3740, 3735, 3758, 0, 1, 12805, -89.900, 0.000, -30.800, 0.000, 0.000, -2.900, 0.0, , , , , , 98, , , 53, 53, 53
38.2001764, -120.0382897, 21.500, 10:32:18.118, 13, 0.00, 0.06, 92, -0.800, -0.200, -31.600, 4, 100, 87, 20, 22374, -19752, 5104, 5548, 8, 14, 1526146338.118, 100, 0, 1024, 1024, 1024, 1024, 0, 6, 3732, 3710, 3720, 3740, 3735, 3758, 0, 1, 12901, -89.900, 0.000, -30.800, 0.000, 0.000, -2.900, 0.0, , , , , , 98, , , 53, 53, 53
38.2001765, -120.0382896, 21.800, 10:32:18.217, 13, 0.00, 0.06, 92, -0.800, 0.000, -31.600, 4, 100, 87, 20, 22374, -19752, 5104, 5548, 8, 14, 1526146338.217, 84, 0, 1024, 1024, 1024, 1024, 0, 6, 3732, 3710, 3720, 3740, 3735, 3758, 0, 1, 13000, -89.900, 0.000, -30.800, 0.000, 0.000, -2.900, 0.0, , , , , , 98, , , 53, 53, 53
38.2001765, -120.0382896, 22.100, 10:32:18.318, 14, 0.00, 0.05, 92, -0.800, 0.300, -31.600, 4, 100, 87, 20, 22374, -19752, 5104, 5548, 8, 14, 1526146338.318, 97, 0, 1024, 1024, 1024, 1024, 0, 6, 3732, 3710, 3720, 3740, 3735, 3758, 0, 1, 13101, -89.900, 0.000, -30.800, 0.000, 0.000, -2.900, 0.0, , , , , , 98, , , 53, 53, 53
38.2001766, -120.0382895, 22.700, 10:32:18.417, 14, 0.00, 0.05, 92, -0.900, 0.200, -31.700, 4, 100, 87, 20, 22374, -19752, 5104, 5548, 8, 14, 1526146338.417, 82, 0, 1024, 1024, 1024, 1024, 0, 6, 3732, 3710, 3720, 3740, 3735, 3758, 0, 1, 13200, -89.900, 0.000, -30.800, 0.000, 0.000, -2.900, 0.0, , , , , , 98, , , 53, 53, 53
38.2001766, -120.0382895, 23.000, 10:32:18.518, 14, 0.00, 0.05, 92, -0.700, 0.100, -31.700, 4, 100, 90, 20, 22374, -19752, 5104, 5548, 8, 14, 1526146338.518, 83, 0, 1024, 1024, 1024, 1024, 0, 6, 3732, 3710, 3720, 3740, 3735, 3758, 0, 1, 13301, -90.000, 0.000, -30.800, 0.000, 0.000, -2.900, 0.0, , , , , , 98, , , 53, 53, 53
38.2001766, -120.0382896, 23.300, 10:32:18.618, 14, 0.00, 0.05, 92, -0.700, 0.000, -31.700, 4, 100, 90, 20, 22374, -19752, 5104, 5548, 8, 14, 1526146338.618, 81, 0, 1024, 1024, 1024, 1024, 0, 6, 3732, 3710, 3720, 3740, 3735, 3758, 0, 1, 13401, -89.900, 0.000, -30.800, 0.000, 0.000, -2.900, 0.0, , , , , , 98, , , 53, 53, 53
38.2001766, -120.0382896, 23.600, 10:32:18.718, 14, 0.00, 0.05, 92, -0.600, 0.000, -31.700, 4, 100, 90, 20, 22374, -19752, 5104, 5548, 8, 14, 1526146338.718, 73, 0, 1024, 1024, 1024, 1024, 0, 6, 3732, 3710, 3720, 3740, 3735, 3758, 0, 1, 13501, -89.900, 0.000, -30.800, 0.000, 0.000, -2.900, 0.0, , , , , , 98, , , 53, 53, 53
38.2001766, -120.0382896, 23.900, 10:32:18.817, 14, 0.00, 0.05, 92, -0.500, 0.000, -31.700, 4, 100, 90, 20, 22374, -19752, 5104, 5548, 8, 14, 1526146338.818, 75, 0, 1024, 1024, 1024, 1024, 0, 6, 3732, 3710, 3720, 3740, 3735, 3758, 0, 1, 13601, -89.900, 0.000, -30.800, 0.000, 0.000, -2.900, 0.0, , , , , , 98, , , 53, 53, 53
38.2001766, -120.0382896, 24.200, 10:32:18.918, 14, 0.00, 0.05, 92, -0.500, 0.000, -31.700, 4, 100, 90, 20, 22294, -20020, 5104, 5548, 8, 14, 1526146338.919, 55, 0, 1024, 1024, 1024, 1024, 0, 6, 3697, 3700, 3691, 3721, 3708, 3752, 0, 1, 13701, -90.000, 0.000, -30.800, 0.000, 0.000, -2.900, 0.0, , , , , , 98, , , 53, 53, 53
38.2001767, -120.0382895, 24.500, 10:32:19.018, 14, 0.00, 0.05, 92, -0.600, -0.100, -31.700, 4, 100, 91, 20, 22294, -20020, 5104, 5548, 8, 14, 1526146339.018, 51, 0, 1024, 1024, 1024, 1024, 0, 6, 3697, 3700, 3691, 3721, 3708, 3752, 0, 1, 13801, -90.000, 0.000, -30.800, 0.000, 0.000, -2.900, 0.0, , , , , , 98, , , 53, 53, 53
38.2001767, -120.0382895, 24.800, 10:32:19.118, 14, 0.00, 0.05, 92, -0.600, -0.100, -31.700, 4, 100, 91, 20, 22294, -20020, 5104, 5548, 8, 14, 1526146339.118, 51, 0, 1024, 1024, 1024, 1024, 0, 6, 3697, 3700, 3691, 3721, 3708, 3752, 0, 1, 13901, -90.000, 0.000, -30.800, 0.000, 0.000, -2.900, 0.0, , , , , , 98, , , 53, 53, 53
38.2001767, -120.0382895, 25.100, 10:32:19.218, 15, 0.00, 0.05, 92, -0.700, -0.100, -31.800, 4, 100, 91, 20, 22294, -20020, 5104, 5548, 8, 14, 1526146339.218, 62, 0, 1024, 1024, 1024, 1024, 0, 6, 3697, 3700, 3691, 3721, 3708, 3752, 0, 1, 14001, -90.000, 0.000, -30.800, 0.000, 0.000, -3.000, 0.0, , , , , , 98, , , 53, 53, 53
38.2001767, -120.0382895, 25.400, 10:32:19.318, 15, 0.00, 0.05, 92, -0.800, -0.100, -31.900, 4, 100, 91, 20, 22294, -20020, 5104, 5548, 8, 14, 1526146339.318, 52, 0, 1024, 1024, 1024, 1024, 0, 6, 3697, 3700, 3691, 3721, 3708, 3752, 0, 1, 14101, -90.000, 0.000, -30.800, 0.000, 0.000, -2.900, 0.0, , , , , , 98, , , 53, 53, 53
38.2001767, -120.0382895, 25.700, 10:32:19.418, 16, 0.00, 0.05, 92, -0.900, -0.100, -32.000, 4, 100, 91, 20, 22294, -20020, 5104, 5548, 8, 14, 1526146339.419, 31, 0, 1024, 1024, 1024, 1024, 0, 6, 3697, 3700, 3691, 3721, 3708, 3752, 0, 1, 14201, -90.000, 0.000, -30.800, 0.000, 0.000, -3.000, 0.0, , , , , , 98, , , 53, 53, 53
38.2001768, -120.0382895, 26.000, 10:32:19.518, 16, 0.00, 0.05, 92, -1.000, -0.200, -32.000, 4, 100, 91, 20, 22294, -20020, 5104, 5548, 8, 14, 1526146339.518, 49, 0, 1024, 1024, 1024, 1024, 0, 6, 3697, 3700, 3691, 3721, 3708, 3752, 0, 1, 14301, -90.000, 0.000, -30.800, 0.000, 0.000, -3.000, 0.0, , , , , , 98, , , 53, 53, 53
38.2001768, -120.0382895, 26.300, 10:32:19.618, 16, 0.00, 0.05, 92, -1.000, 0.000, -32.100, 4, 100, 91, 20, 22294, -20020, 5104, 5548, 8, 14, 1526146339.619, 23, 0, 1024, 1024, 1024, 1024, 0, 6, 3697, 3700, 3691, 3721, 3708, 3752, 0, 1, 14401, -89.900, 0.000, -30.800, 0.000, 0.000, -3.000, 0.0, , , , , , 98, , , 53, 53, 53
38.2001768, -120.0382895, 26.600, 10:32:19.718, 16, 0.00, 0.05, 92, -0.900, 0.100, -32.100, 4, 100, 91, 20, 22294, -20020, 5104, 5548, 8, 14, 1526146339.718, 43, 0, 1024, 1024, 1024, 1024, 0, 6, 3697, 3700, 3691, 3721, 3708, 3752, 0, 1, 14501, -89.900, 0.000, -30.800, 0.000, 0.000, -3.000, 0.0, , , , , , 98, , , 53, 53, 53
38.2001767, -120.0382895, 26.900, 10:32:19.817, 16, 0.00, 0.05, 92, -0.800, 0.100, -32.000, 4, 100, 91, 20, 22215, -20713, 5104, 5548, 8, 14, 1526146339.818, 20, 0, 1024, 1024, 1024, 1024, 0, 6, 3697, 3700, 3691, 3721, 3708, 3752, 0, 1, 14600, -89.900, 0.000, -30.800, 0.000, 0.000, -3.000, 0.0, , , , , , 98, , , 53, 53, 53
38.2001767, -120.0382895, 27.200, 10:32:19.937, 16, 0.00, 0.05, 92, -0.800, 0.000, -31.800, 4, 100, 91, 20, 22215, -20713, 5104, 5548, 8, 14, 1526146339.938, 12, 0, 1024, 1024, 1024, 1024, 0, 6, 3697, 3700, 3691, 3721, 3708, 3752, 0, 1, 14721, -90.000, 0.000, -30.800, 0.000, 0.000, -2.900, 0.0, , , , , , 98, , , 53, 53, 53
38.2001767, -120.0382895, 27.500, 10:32:20.018, 16, 0.00, 0.05, 92, -0.800, -0.200, -31.700, 4, 100, 91, 20, 22215, -20713, 5104, 5548, 8, 14, 1526146340.018, 31, 0, 1024, 1024, 1024, 1024, 0, 6, 3697, 3700, 3691, 3721, 3708, 3752, 0, 1, 14801, -90.000, 0.000, -30.800, 0.000, 0.000, -3.000, 0.0, , , , , , 98, , , 53, 53, 53
38.2001767, -120.0382895, 27.500, 10:32:20.118, 16, 0.00, 0.05, 92, -0.800, -0.200, -31.700, 4, 100, 91, 20, 22215, -20713, 5104, 5548, 8, 14, 1526146340.118, 131, 0, 1024, 1024, 1024, 1024, 0, 6, 3697, 3700, 3691, 3721, 3708, 3752, 0, 1, 14901, -90.000, 0.000, -30.800, 0.000, 0.000, -3.000, 0.0, , , , , , 98, , , 53, 53, 53
38.2001766, -120.0382895, 28.100, 10:32:20.232, 16, 0.00, 0.05, 92, -0.700, -0.500, -31.600, 4, 100, 91, 20, 22215, -20713, 5104, 5548, 8, 14, 1526146340.233, 16, 0, 1024, 1024, 1024, 1024, 0, 6, 3697, 3700, 3691, 3721, 3708, 3752, 0, 1, 15016, -90.000, 0.000, -30.800, 0.000, 0.000, -3.000, 0.0, , , , , , 98, , , 53, 53, 53
38.2001766, -120.0382896, 28.400, 10:32:20.318, 16, 0.00, 0.05, 92, -0.700, -0.500, -31.600, 4, 100, 91, 20, 22215, -20713, 5104, 5548, 8, 14, 1526146340.318, 18, 0, 1024, 1024, 1024, 1024, 0, 6, 3694, 3689, 3686, 3713, 3702, 3731, 0, 1, 15101, -90.000, 0.000, -30.800, 0.000, 0.000, -3.000, 0.0, , , , , , 98, , , 53, 53, 53
38.2001766, -120.0382896, 28.400, 10:32:20.418, 16, 0.00, 0.05, 92, -0.700, -0.500, -31.600, 4, 100, 91, 20, 22215, -20713, 5104, 5548, 8, 14, 1526146340.418, 118, 0, 1024, 1024, 1024, 1024, 0, 6, 3694, 3689, 3686, 3713, 3702, 3731, 0, 1, 15201, -90.000, 0.000, -30.800, 0.000, 0.000, -3.000, 0.0, , , , , , 98, , , 53, 53, 53
38.2001766, -120.0382896, 28.800, 10:32:20.518, 17, 0.00, 0.05, 92, -0.600, -0.600, -31.500, 4, 100, 93, 20, 22215, -20713, 5104, 5548, 8, 14, 1526146340.518, 95, 0, 1024, 1024, 1024, 1024, 0, 6, 3694, 3689, 3686, 3713, 3702, 3731, 0, 1, 15301, -90.000, 0.000, -30.800, 0.000, 0.000, -3.000, 0.0, , , , , , 98, , , 53, 53, 53
38.2001765, -120.0382896, 29.100, 10:32:20.618, 17, 0.00, 0.05, 92, -0.200, -0.600, -31.500, 4, 100, 93, 20, 22215, -20713, 5104, 5548, 8, 14, 1526146340.619, 98, 0, 1024, 1024, 1024, 1024, 0, 6, 3694, 3689, 3686, 3713, 3702, 3731, 0, 1, 15401, -90.000, 0.000, -30.800, 0.000, 0.000, -3.000, 0.0, , , , , , 98, , , 53, 53, 53
38.2001765, -120.0382897, 29.400, 10:32:20.720, 17, 0.00, 0.05, 92, -0.100, -0.500, -31.500, 4, 100, 93, 20, 22215, -20713, 5104, 5548, 8, 14, 1526146340.721, 83, 0, 1024, 1024, 1024, 1024, 0, 6, 3694, 3689, 3686, 3713, 3702, 3731, 0, 1, 15504, -90.000, 0.000, -30.800, 0.000, 0.000, -2.900, 0.0, , , , , , 98, , , 53, 53, 53
38.2001765, -120.0382897, 29.400, 10:32:20.818, 17, 0.00, 0.05, 92, -0.100, -0.500, -31.500, 4, 100, 93, 20, 22215, -20713, 5104, 5548, 8, 14, 1526146340.819, 181, 0, 1024, 1024, 1024, 1024, 0, 6, 3694, 3689, 3686, 3713, 3702, 3731, 0, 1, 15602, -90.000, 0.000, -30.800, 0.000, 0.000, -2.900, 0.0, , , , , , 98, , , 53, 53, 53
38.2001765, -120.0382897, 29.700, 10:32:20.918, 17, 0.00, 0.05, 92, 0.000, -0.300, -31.500, 4, 100, 93, 20, 22215, -20713, 5104, 5548, 8, 14, 1526146340.918, 32, 0, 1024, 1024, 1024, 1024, 0, 6, 3694, 3689, 3686, 3713, 3702, 3731, 0, 1, 15701, -89.900, 0.000, -30.800, 0.000, 0.000, -2.900, 0.0, , , , , , 98, , , 53, 53, 53
38.2001765, -120.0382897, 29.700, 10:32:21.068, 17, 0.00, 0.05, 92, 0.000, -0.300, -31.500, 4, 100, 93, 20, 22215, -20713, 5104, 5548, 8, 14, 1526146341.069, 183, 0, 1024, 1024, 1024, 1024, 0, 6, 3694, 3689, 3686, 3713, 3702, 3731, 0, 1, 15852, -89.900, 0.000, -30.800, 0.000, 0.000, -2.900, 0.0, , , , , , 98, , , 53, 53, 53
38.2001765, -120.0382897, 29.700, 10:32:21.118, 17, 0.00, 0.05, 92, 0.000, -0.300, -31.500, 4, 100, 93, 20, 22215, -20713, 5104, 5548, 8, 14, 1526146341.118, 232, 0, 1024, 1024, 1024, 1024, 0, 6, 3694, 3689, 3686, 3713, 3702, 3731, 0, 1, 15901, -89.900, 0.000, -30.800, 0.000, 0.000, -2.900, 0.0, , , , , , 98, , , 53, 53, 53
38.2001765, -120.0382897, 29.700, 10:32:21.217, 17, 0.00, 0.05, 92, 0.000, -0.300, -31.500, 4, 100, 93, 20, 22215, -20713, 5104, 5548, 8, 14, 1526146341.218, 332, 0, 1024, 1024, 1024, 1024, 0, 6, 3694, 3689, 3686, 3713, 3702, 3731, 0, 1, 16001, -89.900, 0.000, -30.800, 0.000, 0.000, -2.900, 0.0, , , , , , 98, , , 53, 53, 53
38.2001765, -120.0382897, 29.700, 10:32:21.323, 17, 0.00, 0.05, 92, 0.000, -0.300, -31.500, 4, 100, 93, 20, 22215, -20713, 5104, 5548, 8, 14, 1526146341.324, 438, 0, 1024, 1024, 1024, 1024, 0, 6, 3694, 3689, 3686, 3713, 3702, 3731, 0, 1, 16107, -89.900, 0.000, -30.800, 0.000, 0.000, -2.900, 0.0, , , , , , 98, , , 53, 53, 53
38.2001765, -120.0382897, 29.700, 10:32:21.419, 17, 0.00, 0.05, 92, 0.000, -0.300, -31.500, 4, 100, 93, 20, 22215, -20713, 5104, 5548, 8, 14, 1526146341.419, 533, 0, 1024, 1024, 1024, 1024, 0, 6, 3694, 3689, 3686, 3713, 3702, 3731, 0, 1, 16202, -89.900, 0.000, -30.800, 0.000, 0.000, -2.900, 0.0, , , , , , 98, , , 53, 53, 53
38.2001765, -120.0382897, 29.700, 10:32:21.526, 17, 0.00, 0.05, 92, 0.000, -0.300, -31.500, 4, 100, 93, 20, 22215, -20713, 5104, 5548, 8, 14, 1526146341.527, 641, 0, 1024, 1024, 1024, 1024, 0, 6, 3694, 3689, 3686, 3713, 3702, 3731, 0, 1, 16309, -89.900, 0.000, -30.800, 0.000, 0.000, -2.900, 0.0, , , , , , 98, , , 53, 53, 53
38.2001764, -120.0382898, 30.300, 10:32:21.622, 17, 0.00, 0.05, 92, -0.200, -0.100, -31.600, 4, 100, 92, 20, 22215, -20713, 5104, 5548, 8, 14, 1526146341.622, 80, 0, 1024, 1024, 1024, 1024, 0, 6, 3694, 3689, 3686, 3713, 3702, 3731, 0, 1, 16405, -90.000, 0.000, -30.800, 0.000, 0.000, -3.000, 0.0, , , , , , 98, , , 53, 53, 53
38.2001764, -120.0382898, 30.300, 10:32:21.727, 17, 0.00, 0.05, 92, -0.200, -0.100, -31.600, 4, 100, 92, 20, 22215, -20713, 5104, 5548, 8, 14, 1526146341.728, 186, 0, 1024, 1024, 1024, 1024, 0, 6, 3694, 3689, 3686, 3713, 3702, 3731, 0, 1, 16511, -90.000, 0.000, -30.800, 0.000, 0.000, -3.000, 0.0, , , , , , 98, , , 53, 53, 53
38.2001764, -120.0382898, 30.300, 10:32:21.829, 17, 0.00, 0.05, 92, -0.200, -0.100, -31.600, 4, 100, 92, 20, 22215, -20713, 5104, 5548, 8, 14, 1526146341.829, 287, 0, 1024, 1024, 1024, 1024, 0, 6, 3694, 3689, 3686, 3713, 3702, 3731, 0, 1, 16612, -90.000, 0.000, -30.800, 0.000, 0.000, -3.000, 0.0, , , , , , 98, , , 53, 53, 53
38.2001764, -120.0382898, 30.300, 10:32:21.919, 17, 0.00, 0.05, 92, -0.200, -0.100, -31.600, 4, 100, 92, 20, 22215, -20713, 5104, 5548, 8, 14, 1526146341.920, 378, 0, 1024, 1024, 1024, 1024, 0, 6, 3694, 3689, 3686, 3713, 3702, 3731, 0, 1, 16703, -90.000, 0.000, -30.800, 0.000, 0.000, -3.000, 0.0, , , , , , 98, , , 53, 53, 53
38.2001764, -120.0382898, 30.300, 10:32:22.018, 17, 0.00, 0.05, 92, -0.200, -0.100, -31.600, 4, 100, 92, 20, 22215, -20713, 5104, 5548, 8, 14, 1526146342.019, 477, 0, 1024, 1024, 1024, 1024, 0, 6, 3694, 3689, 3686, 3713, 3702, 3731, 0, 1, 16802, -90.000, 0.000, -30.800, 0.000, 0.000, -3.000, 0.0, , , , , , 98, , , 53, 53, 53
38.2001764, -120.0382898, 30.600, 10:32:22.129, 17, 0.00, 0.05, 92, -0.300, -0.100, -31.600, 4, 100, 92, 20, 22215, -20713, 5104, 5548, 8, 14, 1526146342.130, 12, 0, 1024, 1024, 1024, 1024, 0, 6, 3694, 3689, 3686, 3713, 3702, 3731, 0, 1, 16912, -90.000, 0.000, -30.800, 0.000, 0.000, -2.900, 0.0, , , , , , 98, , , 53, 53, 53
38.2001764, -120.0382898, 31.500, 10:32:22.233, 17, 0.00, 0.06, 92, -0.100, -0.400, -31.200, 4, 100, 92, 20, 22215, -20713, 5104, 5548, 8, 14, 1526146342.234, 5, 0, 1024, 1024, 1024, 1024, 0, 6, 3694, 3689, 3686, 3713, 3702, 3731, 0, 1, 17017, -90.000, 0.000, -30.800, 0.000, 0.000, -2.900, 0.0, , , , , , 98, , , 53, 53, 53
38.2001764, -120.0382898, 31.500, 10:32:22.327, 17, 0.00, 0.06, 92, -0.100, -0.400, -31.200, 4, 100, 92, 20, 22215, -20713, 5104, 5548, 8, 14, 1526146342.328, 99, 0, 1024, 1024, 1024, 1024, 0, 6, 3694, 3689, 3686, 3713, 3702, 3731, 0, 1, 17111, -90.000, 0.000, -30.800, 0.000, 0.000, -2.900, 0.0, , , , , , 98, , , 53, 53, 53
38.2001764, -120.0382898, 31.500, 10:32:22.419, 17, 0.00, 0.06, 92, -0.100, -0.400, -31.200, 4, 100, 92, 20, 22215, -20713, 5104, 5548, 8, 14, 1526146342.419, 190, 0, 1024, 1024, 1024, 1024, 0, 6, 3694, 3689, 3686, 3713, 3702, 3731, 0, 1, 17202, -90.000, 0.000, -30.800, 0.000, 0.000, -2.900, 0.0, , , , , , 98, , , 53, 53, 53
38.2001764, -120.0382898, 31.500, 10:32:22.537, 17, 0.00, 0.06, 92, -0.100, -0.400, -31.200, 4, 100, 92, 20, 22215, -20713, 5104, 5548, 8, 14, 1526146342.538, 309, 0, 1024, 1024, 1024, 1024, 0, 6, 3694, 3689, 3686, 3713, 3702, 3731, 0, 1, 17320, -90.000, 0.000, -30.800, 0.000, 0.000, -2.900, 0.0, , , , , , 98, , , 53, 53, 53
38.2001764, -120.0382898, 31.500, 10:32:22.617, 17, 0.00, 0.06, 92, -0.100, -0.400, -31.200, 4, 100, 92, 20, 22215, -20713, 5104, 5548, 8, 14, 1526146342.618, 389, 0, 1024, 1024, 1024, 1024, 0, 6, 3694, 3689, 3686, 3713, 3702, 3731, 0, 1, 17400, -90.000, 0.000, -30.800, 0.000, 0.000, -2.900, 0.0, , , , , , 98, , , 53, 53, 53
38.2001764, -120.0382897, 32.400, 10:32:22.717, 17, 0.00, 0.06, 92, -0.500, -0.600, -31.100, 4, 100, 92, 20, 22215, -20713, 5104, 5548, 8, 14, 1526146342.717, 57, 0, 1024, 1024, 1024, 1024, 0, 6, 3694, 3689, 3686, 3713, 3702, 3731, 0, 1, 17500, -90.000, 0.000, -30.800, 0.000, 0.000, -3.000, 0.0, , , , , , 98, , , 53, 53, 53
38.2001764, -120.0382897, 32.400, 10:32:22.818, 17, 0.00, 0.06, 92, -0.500, -0.600, -31.100, 4, 100, 92, 20, 22215, -20713, 5104, 5548, 8, 14, 1526146342.818, 157, 0, 1024, 1024, 1024, 1024, 0, 6, 3694, 3689, 3686, 3713, 3702, 3731, 0, 1, 17601, -90.000, 0.000, -30.800, 0.000, 0.000, -3.000, 0.0, , , , , , 98, , , 53, 53, 53
38.2001762, -120.0382898, 34.100, 10:32:22.918, 17, 0.00, 0.08, 92, -0.300, -0.800, -32.700, 4, 100, 95, 20, 22215, -20713, 5104, 5548, 8, 14, 1526146342.920, 6, 0, 1024, 1024, 1024, 1024, 0, 6, 3694, 3689, 3686, 3713, 3702, 3731, 0, 1, 17702, -90.000, 0.000, -30.800, 0.000, 0.000, -2.900, 0.0, , , , , , 98, , , 53, 53, 53
38.2001762, -120.0382898, 34.100, 10:32:23.018, 17, 0.00, 0.08, 92, -0.300, -0.800, -32.700, 4, 100, 95, 20, 22215, -20713, 5104, 5548, 8, 14, 1526146343.019, 106, 0, 1024, 1024, 1024, 1024, 0, 6, 3694, 3689, 3686, 3713, 3702, 3731, 0, 1, 17802, -90.000, 0.000, -30.800, 0.000, 0.000, -2.900, 0.0, , , , , , 98, , , 53, 53, 53
38.2001762, -120.0382898, 34.700, 10:32:23.130, 17, 0.00, 0.07, 92, -0.200, -0.600, -32.600, 4, 100, 95, 20, 22289, -19299, 5104, 5548, 8, 14, 1526146343.130, 16, 0, 1024, 1024, 1024, 1024, 0, 6, 3694, 3689, 3686, 3713, 3702, 3731, 0, 1, 17913, -89.900, 0.000, -30.800, 0.000, 0.000, -3.000, 0.0, , , , , , 98, , , 53, 53, 53
38.2001762, -120.0382898, 34.700, 10:32:23.221, 17, 0.00, 0.07, 92, -0.200, -0.600, -32.600, 4, 100, 95, 20, 22289, -19299, 5104, 5548, 8, 14, 1526146343.221, 107, 0, 1024, 1024, 1024, 1024, 0, 6, 3694, 3689, 3686, 3713, 3702, 3731, 0, 1, 18004, -89.900, 0.000, -30.800, 0.000, 0.000, -3.000, 0.0, , , , , , 98, , , 53, 53, 53
38.2001762, -120.0382898, 34.700, 10:32:23.318, 17, 0.00, 0.07, 92, -0.200, -0.600, -32.600, 4, 100, 95, 20, 22289, -19299, 5104, 5548, 8, 14, 1526146343.318, 205, 0, 1024, 1024, 1024, 1024, 0, 6, 3701, 3706, 3697, 3712, 3712, 3754, 0, 1, 18101, -89.900, 0.000, -30.800, 0.000, 0.000, -3.000, 0.0, , , , , , 98, , , 53, 53, 53
38.2001764, -120.0382899, 35.600, 10:32:23.418, 17, 0.00, 0.06, 92, -0.700, 0.700, -32.500, 4, 100, 95, 20, 22289, -19299, 5104, 5548, 8, 14, 1526146343.418, 58, 0, 1024, 1024, 1024, 1024, 0, 6, 3701, 3706, 3697, 3712, 3712, 3754, 0, 1, 18201, -89.900, 0.000, -30.800, 0.000, 0.000, -3.000, 0.0, , , , , , 98, , , 53, 53, 53
38.2001764, -120.0382899, 35.600, 10:32:23.518, 17, 0.00, 0.06, 92, -0.700, 0.700, -32.500, 4, 100, 95, 20, 22289, -19299, 5104, 5548, 8, 14, 1526146343.518, 158, 0, 1024, 1024, 1024, 1024, 0, 6, 3701, 3706, 3697, 3712, 3712, 3754, 0, 1, 18301, -89.900, 0.000, -30.800, 0.000, 0.000, -3.000, 0.0, , , , , , 98, , , 53, 53, 53
38.2001764, -120.0382900, 36.600, 10:32:23.618, 17, 0.00, 0.05, 92, -0.800, -0.100, -32.300, 4, 100, 95, 20, 22289, -19299, 5104, 5548, 8, 14, 1526146343.618, 27, 0, 1024, 1024, 1024, 1024, 0, 6, 3701, 3706, 3697, 3712, 3712, 3754, 0, 1, 18401, -89.900, 0.000, -30.800, 0.000, 0.000, -3.000, 0.0, , , , , , 98, , , 53, 53, 53
38.2001767, -120.0382902, 38.400, 10:32:23.718, 17, 0.00, 0.02, 92, -0.700, 0.700, -30.800, 4, 100, 95, 20, 22289, -19299, 5104, 5548, 8, 14, 1526146343.718, 29, 0, 1024, 1024, 1024, 1024, 0, 6, 3701, 3706, 3697, 3712, 3712, 3754, 0, 1, 18501, -89.900, 0.000, -30.800, 0.000, 0.000, -3.000, 0.0, , , , , , 98, , , 53, 53, 53
38.2001767, -120.0382902, 38.400, 10:32:23.818, 17, 0.00, 0.02, 92, -0.700, 0.700, -30.800, 4, 100, 95, 20, 22289, -19299, 5104, 5548, 8, 14, 1526146343.818, 129, 0, 1024, 1024, 1024, 1024, 0, 6, 3701, 3706, 3697, 3712, 3712, 3754, 0, 1, 18601, -89.900, 0.000, -30.800, 0.000, 0.000, -3.000, 0.0, , , , , , 98, , , 53, 53, 53
38.2001768, -120.0382902, 38.700, 10:32:23.918, 17, 0.00, 0.02, 92, -0.900, 1.000, -30.900, 4, 100, 95, 20, 22289, -19299, 5104, 5548, 8, 14, 1526146343.918, 66, 0, 1024, 1024, 1024, 1024, 0, 6, 3701, 3706, 3697, 3712, 3712, 3754, 0, 1, 18701, -89.900, 0.000, -30.800, 0.000, 0.000, -2.900, 0.0, , , , , , 98, , , 53, 53, 53
38.2001769, -120.0382902, 38.900, 10:32:24.018, 17, 0.00, 0.02, 92, -1.200, 1.200, -31.100, 4, 100, 95, 20, 22249, -19544, 5104, 5548, 8, 14, 1526146344.018, 80, 0, 1024, 1024, 1024, 1024, 0, 6, 3699, 3704, 3699, 3710, 3716, 3730, 0, 1, 18801, -89.900, 0.000, -30.800, 0.000, 0.000, -2.800, 0.0, , , , , , 98, , , 53, 53, 53
38.2001769, -120.0382902, 38.900, 10:32:24.118, 17, 0.00, 0.02, 92, -1.200, 1.200, -31.100, 4, 100, 95, 20, 22249, -19544, 5104, 5548, 8, 14, 1526146344.118, 180, 0, 1024, 1024, 1024, 1024, 0, 6, 3699, 3704, 3699, 3710, 3716, 3730, 0, 1, 18901, -89.900, 0.000, -30.800, 0.000, 0.000, -2.800, 0.0, , , , , , 98, , , 53, 53, 53
38.2001769, -120.0382902, 38.900, 10:32:24.218, 17, 0.00, 0.02, 92, -1.200, 1.200, -31.100, 4, 100, 95, 20, 22249, -19544, 5104, 5548, 8, 14, 1526146344.218, 280, 0, 1024, 1024, 1024, 1024, 0, 6, 3699, 3704, 3699, 3710, 3716, 3730, 0, 1, 19001, -89.900, 0.000, -30.800, 0.000, 0.000, -2.800, 0.0, , , , , , 98, , , 53, 53, 53
38.2001769, -120.0382902, 38.900, 10:32:24.318, 17, 0.00, 0.02, 92, -1.200, 1.200, -31.100, 4, 100, 95, 20, 22249, -19544, 5104, 5548, 8, 14, 1526146344.318, 380, 0, 1024, 1024, 1024, 1024, 0, 6, 3699, 3704, 3699, 3710, 3716, 3730, 0, 1, 19101, -89.900, 0.000, -30.800, 0.000, 0.000, -2.800, 0.0, , , , , , 98, , , 53, 53, 53
38.2001770, -120.0382902, 39.200, 10:32:24.418, 17, 0.00, 0.02, 92, -1.000, 1.400, -31.300, 4, 100, 92, 20, 22249, -19544, 5104, 5548, 8, 14, 1526146344.418, 81, 0, 1024, 1024, 1024, 1024, 0, 6, 3699, 3704, 3699, 3710, 3716, 3730, 0, 1, 19201, -89.900, 0.000, -30.800, 0.000, 0.000, -2.900, 0.0, , , , , , 98, , , 53, 53, 53
38.2001772, -120.0382903, 39.800, 10:32:24.518, 17, 0.00, 0.04, 92, -0.800, 2.300, -31.500, 4, 100, 92, 20, 22249, -19544, 5104, 5548, 8, 14, 1526146344.518, 38, 0, 1024, 1024, 1024, 1024, 0, 6, 3699, 3704, 3699, 3710, 3716, 3730, 0, 1, 19301, -89.900, 0.000, -30.800, 0.000, 0.000, -2.900, 0.0, , , , , , 98, , , 53, 53, 53
38.2001772, -120.0382903, 39.800, 10:32:24.618, 17, 0.00, 0.04, 92, -0.800, 2.300, -31.500, 4, 100, 92, 20, 22249, -19544, 5104, 5548, 8, 14, 1526146344.618, 138, 0, 1024, 1024, 1024, 1024, 0, 6, 3699, 3704, 3699, 3710, 3716, 3730, 0, 1, 19401, -89.900, 0.000, -30.800, 0.000, 0.000, -2.900, 0.0, , , , , , 98, , , 53, 53, 53
38.2001772, -120.0382903, 39.800, 10:32:24.717, 17, 0.00, 0.04, 92, -0.800, 2.300, -31.500, 4, 100, 92, 20, 22249, -19544, 5104, 5548, 8, 14, 1526146344.717, 237, 0, 1024, 1024, 1024, 1024, 0, 6, 3699, 3704, 3699, 3710, 3716, 3730, 0, 1, 19500, -89.900, 0.000, -30.800, 0.000, 0.000, -2.900, 0.0, , , , , , 98, , , 53, 53, 53
38.2001774, -120.0382903, 40.900, 10:32:24.818, 17, 0.00, 0.06, 92, -1.100, 1.600, -31.400, 4, 100, 88, 20, 22352, -18145, 5104, 5548, 8, 14, 1526146344.818, 8, 0, 1024, 1024, 1024, 1024, 0, 6, 3721, 3716, 3719, 3733, 3739, 3749, 0, 1, 19601, -89.900, 0.000, -30.800, 0.000, 0.000, -3.000, 0.0, , , , , , 98, , , 53, 53, 53
38.2001774, -120.0382903, 40.900, 10:32:24.918, 17, 0.00, 0.06, 92, -1.100, 1.600, -31.400, 4, 100, 88, 20, 22352, -18145, 5104, 5548, 8, 14, 1526146344.918, 108, 0, 1024, 1024, 1024, 1024, 0, 6, 3721, 3716, 3719, 3733, 3739, 3749, 0, 1, 19701, -89.900, 0.000, -30.800, 0.000, 0.000, -3.000, 0.0, , , , , , 98, , , 53, 53, 53
38.2001774, -120.0382903, 41.200, 10:32:25.018, 17, 0.00, 0.07, 92, -1.300, 1.200, -31.400, 4, 100, 88, 20, 22352, -18145, 5104, 5548, 8, 14, 1526146345.018, 17, 0, 1024, 1024, 1024, 1024, 0, 6, 3721, 3716, 3719, 3733, 3739, 3749, 0, 1, 19801, -90.000, 0.000, -30.800, 0.000, 0.000, -3.000, 0.0, , , , , , 98, , , 53, 53, 53
38.2001774, -120.0382903, 41.200, 10:32:25.182, 17, 0.00, 0.07, 92, -1.300, 1.200, -31.400, 4, 100, 88, 20, 22352, -18145, 5104, 5548, 8, 14, 1526146345.183, 181, 0, 1024, 1024, 1024, 1024, 0, 6, 3721, 3716, 3719, 3733, 3739, 3749, 0, 1, 19965, -90.000, 0.000, -30.800, 0.000, 0.000, -3.000, 0.0, , , , , , 98, , , 53, 53, 53
38.2001775, -120.0382903, 41.800, 10:32:25.217, 17, 0.00, 0.07, 92, -1.300, 1.500, -31.600, 4, 100, 88, 20, 22352, -18145, 5104, 5548, 8, 14, 1526146345.218, 13, 0, 1024, 1024, 1024, 1024, 0, 6, 3721, 3716, 3719, 3733, 3739, 3749, 0, 1, 20000, -89.900, 0.000, -30.800, 0.000, 0.000, -3.000, 0.0, , , , , , 98, , , 53, 53, 53
38.2001775, -120.0382902, 42.700, 10:32:25.317, 17, 0.00, 0.07, 92, -1.400, 1.200, -31.500, 4, 100, 88, 20, 22352, -18145, 5104, 5548, 8, 14, 1526146345.318, 14, 0, 1024, 1024, 1024, 1024, 0, 6, 3721, 3716, 3719, 3733, 3739, 3749, 0, 1, 20100, -89.900, 0.000, -30.800, 0.000, 0.000, -3.000, 0.0, , , , , , 98, , , 53, 53, 53
38.2001775, -120.0382902, 42.700, 10:32:25.418, 17, 0.00, 0.07, 92, -1.400, 1.200, -31.500, 4, 100, 88, 20, 22352, -18145, 5104, 5548, 8, 14, 1526146345.418, 114, 0, 1024, 1024, 1024, 1024, 0, 6, 3721, 3716, 3719, 3733, 3739, 3749, 0, 1, 20201, -89.900, 0.000, -30.800, 0.000, 0.000, -3.000, 0.0, , , , , , 98, , , 53, 53, 53
38.2001775, -120.0382901, 43.300, 10:32:25.518, 17, 0.00, 0.07, 92, -1.300, 0.800, -31.500, 4, 100, 88, 20, 22352, -18145, 5104, 5548, 8, 14, 1526146345.518, 20, 0, 1024, 1024, 1024, 1024, 0, 6, 3721, 3716, 3719, 3733, 3739, 3749, 0, 1, 20301, -90.000, 0.000, -30.800, 0.000, 0.000, -3.000, 0.0, , , , , , 98, , , 53, 53, 53
38.2001775, -120.0382901, 43.600, 10:32:25.618, 17, 0.00, 0.07, 92, -1.600, 0.600, -31.700, 4, 100, 88, 20, 22360, -18276, 5104, 5548, 8, 14, 1526146345.618, 56, 0, 1024, 1024, 1024, 1024, 0, 6, 3721, 3716, 3719, 3733, 3739, 3749, 0, 1, 20401, -90.000, 0.000, -30.800, 0.000, 0.000, -3.100, 0.0, , , , , , 98, , , 53, 53, 53
38.2001775, -120.0382901, 43.900, 10:32:25.718, 17, 0.00, 0.07, 92, -1.800, 0.400, -32.000, 4, 100, 88, 20, 22360, -18276, 5104, 5548, 8, 14, 1526146345.718, 31, 0, 1024, 1024, 1024, 1024, 0, 6, 3721, 3716, 3719, 3733, 3739, 3749, 0, 1, 20501, -90.000, 0.000, -30.800, 0.000, 0.000, -3.100, 0.0, , , , , , 98, , , 53, 53, 53
38.2001775, -120.0382901, 43.900, 10:32:25.818, 17, 0.00, 0.07, 92, -1.800, 0.400, -32.000, 4, 100, 88, 20, 22360, -18276, 5104, 5548, 8, 14, 1526146345.818, 131, 0, 1024, 1024, 1024, 1024, 0, 6, 3721, 3716, 3719, 3733, 3739, 3749, 0, 1, 20601, -90.000, 0.000, -30.800, 0.000, 0.000, -3.100, 0.0, , , , , , 98, , , 53, 53, 53
38.2001774, -120.0382901, 44.500, 10:32:25.918, 17, 0.00, 0.06, 92, -1.600, 0.600, -32.600, 4, 100, 88, 20, 22360, -18276, 5104, 5548, 8, 14, 1526146345.918, 3, 0, 1024, 1024, 1024, 1024, 0, 6, 3721, 3716, 3719, 3733, 3739, 3749, 0, 1, 20701, -90.000, 0.000, -30.900, 0.000, 0.000, -3.000, 0.0, , , , , , 98, , , 53, 53, 53
38.2001774, -120.0382901, 44.900, 10:32:26.018, 17, 0.00, 0.05, 92, -1.600, 0.700, -32.800, 4, 100, 88, 20, 22360, -18276, 5104, 5548, 8, 14, 1526146346.018, 48, 0, 1024, 1024, 1024, 1024, 0, 6, 3721, 3713, 3713, 3729, 3728, 3752, 0, 1, 20801, -90.000, 0.000, -30.800, 0.000, 0.000, -3.000, 0.0, , , , , , 98, , , 53, 53, 53
38.2001774, -120.0382901, 44.900, 10:32:26.118, 17, 0.00, 0.05, 92, -1.600, 0.700, -32.800, 4, 100, 88, 20, 22360, -18276, 5104, 5548, 8, 14, 1526146346.118, 148, 0, 1024, 1024, 1024, 1024, 0, 6, 3721, 3713, 3713, 3729, 3728, 3752, 0, 1, 20901, -90.000, 0.000, -30.800, 0.000, 0.000, -3.000, 0.0, , , , , , 98, , , 53, 53, 53
38.2001774, -120.0382901, 45.100, 10:32:26.218, 17, 0.00, 0.05, 92, -1.500, 0.500, -32.900, 4, 100, 88, 20, 22360, -18276, 5104, 5548, 8, 14, 1526146346.218, 45, 0, 1024, 1024, 1024, 1024, 0, 6, 3721, 3713, 3713, 3729, 3728, 3752, 0, 1, 21001, -90.000, 0.000, -30.800, 0.000, 0.000, -3.000, 0.0, , , , , , 98, , , 53, 53, 53
38.2001774, -120.0382901, 45.100, 10:32:26.317, 17, 0.00, 0.05, 92, -1.500, 0.500, -32.900, 4, 100, 88, 20, 22360, -18276, 5104, 5548, 8, 14, 1526146346.318, 145, 0, 1024, 1024, 1024, 1024, 0, 6, 3721, 3713, 3713, 3729, 3728, 3752, 0, 1, 21100, -90.000, 0.000, -30.800, 0.000, 0.000, -3.000, 0.0, , , , , , 98, , , 53, 53, 53
38.2001773, -120.0382901, 45.800, 10:32:26.417, 17, 0.00, 0.05, 92, -1.200, 0.500, -32.700, 4, 100, 88, 20, 22360, -18276, 5104, 5548, 8, 14, 1526146346.417, 19, 0, 1024, 1024, 1024, 1024, 0, 6, 3721, 3713, 3713, 3729, 3728, 3752, 0, 1, 21200, -90.000, 0.000, -30.900, 0.000, 0.000, -3.000, 0.0, , , , , , 98, , , 53, 53, 53
