Latitude, Longitude, Altitude (m), Time, Sats, Speed (m/s), Range (m), Battery (%), Roll (deg), Pitch (deg), Yaw (deg), Images, HD Signal (%), RC Signal (%), Battery Temp (C), Battery Voltage (mV), Battery Current (mA), Battery Energy (mAh), Battery Capacity (mAh), Battery Discharges, flyState, timestamp (Unix), LastUpdate (ms), radioChannel, Rc_elevator, Rc_aileron, Rc_throttle, Rc_rudder, Rc_gyro, Dronetype, Battery_Cell1 (mV), Battery_Cell2 (mV), Battery_Cell3 (mV), Battery_Cell4 (mV), Battery_Cell5 (mV), Battery_Cell6 (mV), Video, isFlying, elapsedTime (ms), gimbalPitch (deg), gimbalRoll (deg), gimbalYaw (deg), VelocityX (m/s), VelocityY (m/s), VelocityZ (m/s), GroundSmear (cm), App Version, Aircraft Name, Aircraft Firmware, Aircraft Serial Number, Battery Serial Number, Battery Lifetime (%), App_Tip, App_Warning, CurrentFlightStartingIndex, CurrentFlightLastVisitedWaypoint, PreviousFlightEndingWaypointIndex
38.1754124, -120.0595596, 0.000, 13:03:32.517, 14, 0.00, 0.05, 98, -2.000, 1.400, 73.700, 2, 100, 100, 21, 25476, -3386, 5381, 5491, 11, 11, 1526155412.518, 153, 0, 1024, 1024, 1024, 1024, 0, 6, 4221, 4202, 4257, 4240, 4230, 4162, 0, 1, 3119, -89.900, 0.000, 75.000, 0.000, 0.000, -0.100, 0.0, MapPilot_2.8.1_04242018, Dendroctonus I, 1.3.1.00, 041DDC1887, 1058163200445, 98, DJI_0001.jpg, Starting Mission from Lat/Long: 38.17540/-120.05969 Camera: Zenmuse X3 - Overlap: 90/90 - Active Connection: No, 0, 0, 0
38.1754127, -120.0595600, 0.000, 13:03:32.598, 14, 0.14, 0.10, 98, -0.400, 0.200, 73.900, 2, 100, 100, 21, 25476, -3386, 5381, 5491, 11, 11, 1526155412.598, 25, 0, 1024, 1024, 1024, 1024, 0, 6, 4221, 4202, 4257, 4240, 4230, 4162, 0, 1, 3200, -90.000, 0.000, 75.000, 0.100, -0.100, -0.300, 0.0, , , , , , 98, , , 0, 0, 0
38.1754129, -120.0595602, 0.000, 13:03:32.698, 14, 0.14, 0.13, 98, 0.800, -0.300, 74.000, 2, 100, 100, 21, 25476, -3386, 5381, 5491, 11, 11, 1526155412.699, 9, 0, 1024, 1024, 1024, 1024, 0, 6, 4221, 4202, 4257, 4240, 4230, 4162, 0, 1, 3301, -90.000, 0.000, 74.900, 0.100, -0.100, -0.300, 0.0, , , , , , 98, , , 0, 0, 0
38.1754129, -120.0595602, 0.000, 13:03:32.799, 14, 0.14, 0.13, 98, 0.800, -0.300, 74.000, 2, 100, 100, 21, 25476, -3386, 5381, 5491, 11, 11, 1526155412.799, 109, 0, 1024, 1024, 1024, 1024, 0, 6, 4221, 4202, 4257, 4240, 4230, 4162, 0, 1, 3401, -90.000, 0.000, 74.900, 0.100, -0.100, -0.300, 0.0, , , , , , 98, , , 0, 0, 0
38.1754131, -120.0595604, 0.000, 13:03:32.898, 14, 0.22, 0.16, 98, 1.700, -0.900, 74.100, 2, 100, 100, 21, 25476, -3386, 5381, 5491, 11, 11, 1526155412.898, 90, 0, 1024, 1024, 1024, 1024, 0, 6, 4221, 4202, 4257, 4240, 4230, 4162, 0, 1, 3500, -90.000, 0.000, 74.900, 0.200, -0.100, -0.300, 0.0, , , , , , 98, , , 0, 0, 0
38.1754133, -120.0595607, 0.000, 13:03:32.999, 14, 0.22, 0.19, 98, 2.300, -1.200, 74.200, 2, 100, 100, 21, 25476, -3386, 5381, 5491, 11, 11, 1526155412.999, 93, 0, 1024, 1024, 1024, 1024, 0, 6, 4221, 4202, 4257, 4240, 4230, 4162, 0, 1, 3601, -90.000, 0.000, 74.900, 0.200, -0.100, -0.300, 0.0, , , , , , 98, , , 0, 0, 0
38.1754135, -120.0595609, 0.000, 13:03:33.098, 14, 0.14, 0.21, 98, 2.700, -1.500, 74.200, 2, 100, 100, 21, 25476, -3386, 5381, 5491, 11, 11, 1526155413.098, 93, 0, 1024, 1024, 1024, 1024, 0, 6, 4221, 4202, 4257, 4240, 4230, 4162, 0, 1, 3700, -89.900, 0.000, 74.900, 0.100, -0.100, -0.400, 0.0, , , , , , 98, , , 0, 0, 0
38.1754137, -120.0595611, 0.100, 13:03:33.198, 14, 0.10, 0.25, 98, 2.000, -0.800, 73.800, 2, 100, 100, 21, 25476, -3386, 5381, 5491, 11, 11, 1526155413.199, 10, 0, 1024, 1024, 1024, 1024, 0, 6, 4221, 4202, 4257, 4240, 4230, 4162, 0, 1, 3801, -89.900, 0.000, 74.900, 0.100, 0.000, -0.300, 0.0, , , , , , 98, , , 0, 0, 0
38.1754137, -120.0595611, 0.100, 13:03:33.299, 14, 0.10, 0.25, 98, 2.000, -0.800, 73.800, 2, 100, 100, 21, 25476, -3386, 5381, 5491, 11, 11, 1526155413.299, 111, 0, 1024, 1024, 1024, 1024, 0, 6, 4221, 4202, 4257, 4240, 4230, 4162, 0, 1, 3901, -89.900, 0.000, 74.900, 0.100, 0.000, -0.300, 0.0, , , , , , 98, , , 0, 0, 0
38.1754139, -120.0595612, 0.100, 13:03:33.399, 14, 0.10, 0.27, 98, 1.700, -0.300, 73.500, 2, 100, 100, 21, 25246, -15868, 5381, 5491, 11, 11, 1526155413.399, 93, 0, 1024, 1024, 1024, 1024, 0, 6, 4015, 3997, 4076, 4125, 4136, 4136, 0, 1, 4001, -89.900, 0.000, 74.900, 0.100, 0.000, -0.300, 0.0, , , , , , 98, , , 0, 0, 0
38.1754140, -120.0595613, 0.200, 13:03:33.499, 14, 0.10, 0.28, 98, 1.400, 0.000, 73.400, 2, 100, 100, 21, 25246, -15868, 5381, 5491, 11, 11, 1526155413.499, 92, 0, 1024, 1024, 1024, 1024, 0, 6, 4015, 3997, 4076, 4125, 4136, 4136, 0, 1, 4101, -89.900, 0.000, 74.800, 0.100, 0.000, -0.300, 0.0, , , , , , 98, , , 0, 0, 0
38.1754141, -120.0595613, 0.200, 13:03:33.599, 14, 0.10, 0.30, 98, 1.300, 0.100, 73.400, 2, 100, 100, 21, 25246, -15868, 5381, 5491, 11, 11, 1526155413.599, 92, 0, 1024, 1024, 1024, 1024, 0, 6, 4015, 3997, 4076, 4125, 4136, 4136, 0, 1, 4201, -89.900, 0.000, 74.800, 0.100, 0.000, -0.500, 0.0, , , , , , 98, , , 0, 0, 0
38.1754142, -120.0595614, 0.300, 13:03:33.699, 14, 0.00, 0.31, 98, 1.500, 0.000, 73.400, 2, 100, 100, 21, 25246, -15868, 5381, 5491, 11, 11, 1526155413.699, 85, 0, 1024, 1024, 1024, 1024, 0, 6, 4015, 3997, 4076, 4125, 4136, 4136, 0, 1, 4301, -89.900, 0.000, 74.800, 0.000, 0.000, -0.500, 0.0, , , , , , 98, , , 0, 0, 0
38.1754143, -120.0595614, 0.300, 13:03:33.798, 14, 0.00, 0.32, 98, 1.400, 0.000, 73.300, 2, 100, 100, 21, 25246, -15868, 5381, 5491, 11, 11, 1526155413.799, 79, 0, 1024, 1024, 1024, 1024, 0, 6, 4015, 3997, 4076, 4125, 4136, 4136, 0, 1, 4401, -89.900, 0.000, 74.800, 0.000, 0.000, -0.500, 0.0, , , , , , 98, , , 0, 0, 0
38.1754144, -120.0595614, 0.400, 13:03:33.899, 14, 0.00, 0.33, 98, 0.900, 0.100, 73.200, 2, 100, 100, 21, 25246, -15868, 5381, 5491, 11, 11, 1526155413.899, 70, 0, 1024, 1024, 1024, 1024, 0, 6, 4015, 3997, 4076, 4125, 4136, 4136, 0, 1, 4501, -89.900, 0.000, 74.800, 0.000, 0.000, -0.500, 0.0, , , , , , 98, , , 0, 0, 0
38.1754145, -120.0595614, 0.400, 13:03:33.998, 14, 0.00, 0.34, 98, 0.800, 0.100, 73.400, 2, 100, 100, 21, 25246, -15868, 5381, 5491, 11, 11, 1526155413.998, 57, 0, 1024, 1024, 1024, 1024, 0, 6, 4015, 3997, 4076, 4125, 4136, 4136, 0, 1, 4600, -89.900, 0.000, 74.800, 0.000, 0.000, -0.400, 0.0, , , , , , 98, , , 0, 0, 0
38.1754148, -120.0595615, 0.500, 13:03:34.098, 14, 0.00, 0.36, 98, 1.000, 0.000, 74.100, 2, 100, 100, 21, 25246, -15868, 5381, 5491, 11, 11, 1526155414.098, 64, 0, 1024, 1024, 1024, 1024, 0, 6, 4015, 3997, 4076, 4125, 4136, 4136, 0, 1, 4700, -89.900, 0.000, 74.800, 0.000, 0.000, -0.500, 0.0, , , , , , 98, , , 0, 0, 0
38.1754148, -120.0595615, 0.600, 13:03:34.199, 14, 0.00, 0.37, 98, 1.600, 0.000, 74.500, 2, 100, 100, 21, 25246, -15868, 5381, 5491, 11, 11, 1526155414.199, 71, 0, 1024, 1024, 1024, 1024, 0, 6, 4015, 3997, 4076, 4125, 4136, 4136, 0, 1, 4801, -89.900, 0.000, 74.800, 0.000, 0.000, -0.500, 0.0, , , , , , 98, , , 0, 0, 0
38.1754149, -120.0595615, 0.600, 13:03:34.299, 13, 0.00, 0.38, 98, 2.100, 0.000, 74.900, 2, 100, 100, 21, 25246, -15868, 5381, 5491, 11, 11, 1526155414.300, 63, 0, 1024, 1024, 1024, 1024, 0, 6, 4015, 3997, 4076, 4125, 4136, 4136, 0, 1, 4901, -89.900, 0.000, 74.800, 0.000, 0.000, -0.500, 0.0, , , , , , 98, , , 0, 0, 0
38.1754151, -120.0595616, 0.700, 13:03:34.399, 13, 0.00, 0.39, 98, 2.600, 0.100, 75.100, 2, 100, 100, 21, 23818, -16929, 5381, 5491, 11, 11, 1526155414.399, 30, 0, 1024, 1024, 1024, 1024, 0, 6, 3973, 3971, 3941, 3975, 4024, 4018, 0, 1, 5001, -89.900, 0.000, 74.800, 0.000, 0.000, -0.500, 0.0, , , , , , 98, , , 0, 0, 0
38.1754152, -120.0595616, 0.700, 13:03:34.499, 13, 0.00, 0.41, 98, 2.800, 0.200, 75.000, 2, 100, 100, 21, 23818, -16929, 5381, 5491, 11, 11, 1526155414.499, 35, 0, 1024, 1024, 1024, 1024, 0, 6, 3973, 3971, 3941, 3975, 4024, 4018, 0, 1, 5101, -89.900, 0.000, 74.800, 0.000, 0.000, -0.400, 0.0, , , , , , 98, , , 0, 0, 0
38.1754152, -120.0595616, 0.800, 13:03:34.599, 13, 0.00, 0.40, 98, 2.600, 0.100, 74.600, 2, 100, 100, 21, 23818, -16929, 5381, 5491, 11, 11, 1526155414.599, 35, 0, 1024, 1024, 1024, 1024, 0, 6, 3973, 3971, 3941, 3975, 4024, 4018, 0, 1, 5201, -89.900, 0.000, 74.800, 0.000, 0.000, -0.500, 0.0, , , , , , 98, , , 0, 0, 0
38.1754151, -120.0595615, 0.800, 13:03:34.699, 14, 0.00, 0.40, 98, 2.300, 0.200, 74.100, 2, 100, 100, 21, 23818, -16929, 5381, 5491, 11, 11, 1526155414.699, 39, 0, 1024, 1024, 1024, 1024, 0, 6, 3973, 3971, 3941, 3975, 4024, 4018, 0, 1, 5301, -89.900, 0.000, 74.800, 0.000, 0.000, -0.500, 0.0, , , , , , 98, , , 0, 0, 0
38.1754151, -120.0595615, 0.900, 13:03:34.798, 14, 0.00, 0.40, 98, 1.700, 0.300, 73.700, 2, 100, 100, 21, 23818, -16929, 5381, 5491, 11, 14, 1526155414.798, 38, 0, 1024, 1024, 1024, 1024, 0, 6, 3973, 3971, 3941, 3975, 4024, 4018, 0, 1, 5400, -89.900, 0.000, 74.800, 0.000, 0.000, -0.500, 0.0, , , , , , 98, , , 0, 0, 0
38.1754151, -120.0595615, 0.900, 13:03:34.898, 14, 0.10, 0.39, 98, 1.300, 0.300, 73.400, 2, 100, 100, 21, 23818, -16929, 5381, 5491, 11, 14, 1526155414.898, 24, 0, 1024, 1024, 1024, 1024, 0, 6, 3973, 3971, 3941, 3975, 4024, 4018, 0, 1, 5500, -90.000, 0.000, 74.800, -0.100, 0.000, -0.400, 0.0, , , , , , 98, , , 0, 0, 0
38.1754150, -120.0595615, 1.000, 13:03:34.998, 14, 0.00, 0.39, 98, -0.300, -0.100, 73.200, 2, 100, 100, 21, 23818, -16929, 5381, 5491, 11, 14, 1526155414.998, 20, 0, 1024, 1024, 1024, 1024, 0, 6, 3973, 3971, 3941, 3975, 4024, 4018, 0, 1, 5600, -90.000, 0.000, 74.700, 0.000, 0.000, -0.200, 0.0, , , , , , 98, , , 0, 0, 0
38.1754150, -120.0595616, 1.000, 13:03:35.098, 14, 0.00, 0.39, 98, -1.200, -0.500, 73.400, 2, 100, 100, 21, 23818, -16929, 5381, 5491, 11, 14, 1526155415.099, 10, 0, 1024, 1024, 1024, 1024, 0, 6, 3973, 3971, 3941, 3975, 4024, 4018, 0, 1, 5701, -90.000, 0.000, 74.700, 0.000, 0.000, -0.200, 0.0, , , , , , 98, , , 0, 0, 0
38.1754150, -120.0595616, 1.000, 13:03:35.199, 14, 0.00, 0.39, 98, -1.200, -0.900, 73.900, 2, 100, 100, 21, 23818, -16929, 5381, 5491, 11, 14, 1526155415.199, 15, 0, 1024, 1024, 1024, 1024, 0, 6, 3973, 3971, 3941, 3975, 4024, 4018, 0, 1, 5801, -89.900, 0.000, 74.700, 0.000, 0.000, -0.200, 0.0, , , , , , 98, , , 0, 0, 0
38.1754150, -120.0595617, 1.100, 13:03:35.299, 14, 0.00, 0.39, 98, -0.400, -0.800, 74.600, 2, 100, 100, 21, 23814, -16380, 5381, 5491, 11, 14, 1526155415.299, 17, 0, 1024, 1024, 1024, 1024, 0, 6, 3976, 3960, 3939, 3961, 3999, 3974, 0, 1, 5901, -89.900, 0.000, 74.700, 0.000, 0.000, -0.400, 0.0, , , , , , 98, , , 0, 0, 0
38.1754150, -120.0595617, 1.100, 13:03:35.399, 14, 0.00, 0.39, 98, -0.400, -0.800, 74.600, 2, 100, 100, 21, 23814, -16380, 5381, 5491, 11, 14, 1526155415.399, 117, 0, 1024, 1024, 1024, 1024, 0, 6, 3976, 3960, 3939, 3961, 3999, 3974, 0, 1, 6001, -89.900, 0.000, 74.700, 0.000, 0.000, -0.400, 0.0, , , , , , 98, , , 0, 0, 0
38.1754150, -120.0595618, 1.100, 13:03:35.499, 14, 0.00, 0.40, 98, 0.300, -0.400, 75.400, 2, 100, 100, 21, 23814, -16380, 5381, 5491, 11, 14, 1526155415.499, 85, 0, 1024, 1024, 1024, 1024, 0, 6, 3976, 3960, 3939, 3961, 3999, 3974, 0, 1, 6101, -89.900, 0.000, 74.700, 0.000, 0.000, -0.600, 0.0, , , , , , 98, , , 0, 0, 0
38.1754151, -120.0595619, 1.200, 13:03:35.599, 14, 0.00, 0.41, 98, 0.800, -0.400, 76.100, 2, 100, 100, 21, 23814, -16380, 5381, 5491, 11, 14, 1526155415.599, 86, 0, 1024, 1024, 1024, 1024, 0, 6, 3976, 3960, 3939, 3961, 3999, 3974, 0, 1, 6201, -89.900, 0.000, 74.700, 0.000, 0.000, -0.600, 0.0, , , , , , 98, , , 0, 0, 0
38.1754151, -120.0595620, 1.200, 13:03:35.699, 14, 0.00, 0.42, 98, 1.100, -0.300, 76.800, 2, 100, 100, 21, 23814, -16380, 5381, 5491, 11, 14, 1526155415.700, 76, 0, 1024, 1024, 1024, 1024, 0, 6, 3976, 3960, 3939, 3961, 3999, 3974, 0, 1, 6301, -89.900, 0.000, 74.800, 0.000, 0.000, -0.800, 0.0, , , , , , 98, , , 0, 0, 0
38.1754152, -120.0595620, 1.300, 13:03:35.799, 14, 0.00, 0.43, 98, 1.000, -0.300, 77.600, 2, 100, 100, 21, 23814, -16380, 5381, 5491, 11, 14, 1526155415.799, 81, 0, 1024, 1024, 1024, 1024, 0, 6, 3976, 3960, 3939, 3961, 3999, 3974, 0, 1, 6401, -89.900, 0.000, 74.900, 0.000, 0.000, -0.900, 0.0, , , , , , 98, , , 0, 0, 0
38.1754152, -120.0595621, 1.500, 13:03:35.899, 14, 0.00, 0.43, 98, 0.200, -0.700, 78.700, 2, 100, 100, 21, 23814, -16380, 5381, 5491, 11, 14, 1526155415.899, 67, 0, 1024, 1024, 1024, 1024, 0, 6, 3976, 3960, 3939, 3961, 3999, 3974, 0, 1, 6501, -90.000, 0.000, 75.000, 0.000, 0.000, -1.500, 0.0, , , , , , 98, , , 0, 0, 0
38.1754152, -120.0595621, 1.500, 13:03:35.999, 14, 0.00, 0.43, 98, 0.200, -0.700, 78.700, 2, 100, 100, 21, 23814, -16380, 5381, 5491, 11, 14, 1526155415.999, 167, 0, 1024, 1024, 1024, 1024, 0, 6, 3976, 3960, 3939, 3961, 3999, 3974, 0, 1, 6601, -90.000, 0.000, 75.100, 0.000, 0.000, -1.500, 0.0, , , , , , 98, , , 0, 0, 0
38.1754152, -120.0595622, 1.900, 13:03:36.099, 13, 0.00, 0.44, 98, 0.200, -1.200, 79.100, 2, 100, 100, 21, 23814, -16380, 5381, 5491, 11, 14, 1526155416.099, 76, 0, 1024, 1024, 1024, 1024, 0, 6, 3976, 3960, 3939, 3961, 3999, 3974, 0, 1, 6701, -90.000, 0.000, 75.200, 0.000, 0.000, -2.000, 0.0, , , , , , 98, , , 0, 0, 0
38.1754152, -120.0595622, 2.100, 13:03:36.198, 13, 0.00, 0.43, 98, 0.700, -0.900, 78.800, 2, 100, 100, 21, 23814, -16380, 5381, 5491, 11, 14, 1526155416.198, 50, 0, 1024, 1024, 1024, 1024, 0, 6, 3976, 3960, 3939, 3961, 3999, 3974, 0, 1, 6800, -89.900, 0.000, 75.300, 0.000, 0.000, -2.200, 0.0, , , , , , 98, , , 0, 0, 0
38.1754152, -120.0595622, 2.400, 13:03:36.299, 14, 0.00, 0.43, 98, 0.900, -1.200, 78.300, 2, 100, 100, 21, 23490, -19111, 5381, 5491, 11, 14, 1526155416.299, 50, 0, 1024, 1024, 1024, 1024, 0, 6, 3976, 3960, 3939, 3961, 3999, 3974, 0, 1, 6901, -90.000, 0.000, 75.400, 0.000, 0.000, -2.400, 0.0, , , , , , 98, , , 0, 0, 0
38.1754152, -120.0595621, 2.600, 13:03:36.399, 14, 0.00, 0.44, 98, 1.300, -0.800, 77.800, 2, 100, 100, 21, 23490, -19111, 5381, 5491, 11, 14, 1526155416.399, 38, 0, 1024, 1024, 1024, 1024, 0, 6, 3976, 3960, 3939, 3961, 3999, 3974, 0, 1, 7001, -89.900, 0.000, 75.500, 0.000, 0.000, -2.600, 0.0, , , , , , 98, , , 0, 0, 0
38.1754153, -120.0595621, 2.800, 13:03:36.499, 14, 0.00, 0.44, 98, 1.500, 0.000, 77.300, 2, 100, 100, 21, 23490, -19111, 5381, 5491, 11, 14, 1526155416.500, 41, 0, 1024, 1024, 1024, 1024, 0, 6, 3976, 3960, 3939, 3961, 3999, 3974, 0, 1, 7101, -89.900, 0.000, 75.600, 0.000, 0.000, -2.700, 0.0, , , , , , 98, , , 0, 0, 0
38.1754154, -120.0595620, 3.100, 13:03:36.598, 14, 0.10, 0.45, 98, 1.500, 0.600, 77.000, 2, 100, 100, 21, 23490, -19111, 5381, 5491, 11, 14, 1526155416.599, 39, 0, 1024, 1024, 1024, 1024, 0, 6, 3976, 3960, 3939, 3961, 3999, 3974, 0, 1, 7200, -89.900, 0.000, 75.800, 0.000, 0.100, -2.900, 0.0, , , , , , 98, , , 0, 0, 0
38.1754155, -120.0595618, 3.400, 13:03:36.699, 14, 0.10, 0.45, 98, 1.700, 1.600, 77.100, 2, 100, 100, 21, 23490, -19111, 5381, 5491, 11, 14, 1526155416.699, 29, 0, 1024, 1024, 1024, 1024, 0, 6, 3976, 3960, 3939, 3961, 3999, 3974, 0, 1, 7301, -89.900, 0.000, 75.800, 0.000, 0.100, -3.100, 0.0, , , , , , 98, , , 0, 0, 0
38.1754156, -120.0595617, 3.800, 13:03:36.798, 14, 0.00, 0.45, 98, 1.900, 2.000, 77.000, 2, 100, 100, 21, 23490, -19111, 5381, 5491, 11, 14, 1526155416.798, 9, 0, 1024, 1024, 1024, 1024, 0, 6, 3976, 3960, 3939, 3961, 3999, 3974, 0, 1, 7400, -89.900, 0.000, 75.800, 0.000, 0.000, -3.300, 0.0, , , , , , 98, , , 0, 0, 0
38.1754156, -120.0595616, 4.100, 13:03:36.898, 14, 0.00, 0.44, 98, 1.700, 1.700, 77.000, 2, 100, 100, 21, 23490, -19111, 5381, 5491, 11, 14, 1526155416.899, 4, 0, 1024, 1024, 1024, 1024, 0, 6, 3868, 3843, 3854, 3893, 3929, 3850, 0, 1, 7501, -89.900, 0.000, 75.900, 0.000, 0.000, -3.300, 0.0, , , , , , 98, , , 0, 0, 0
38.1754155, -120.0595616, 4.400, 13:03:36.999, 14, 0.00, 0.44, 98, 1.400, 1.300, 77.100, 2, 100, 100, 21, 23490, -19111, 5381, 5491, 11, 14, 1526155416.999, 31, 0, 1024, 1024, 1024, 1024, 0, 6, 3868, 3843, 3854, 3893, 3929, 3850, 0, 1, 7601, -89.900, 0.000, 76.100, 0.000, 0.000, -3.300, 0.0, , , , , , 98, , , 0, 0, 0
38.1754156, -120.0595616, 4.800, 13:03:37.101, 14, 0.00, 0.44, 98, 1.200, 1.000, 77.300, 2, 100, 100, 21, 23490, -19111, 5381, 5491, 11, 14, 1526155417.101, 8, 0, 1024, 1024, 1024, 1024, 0, 6, 3868, 3843, 3854, 3893, 3929, 3850, 0, 1, 7703, -89.900, 0.000, 76.100, 0.000, 0.000, -3.300, 0.0, , , , , , 98, , , 0, 0, 0
38.1754156, -120.0595616, 4.800, 13:03:37.199, 14, 0.00, 0.44, 98, 1.200, 1.000, 77.300, 2, 100, 100, 21, 23490, -19111, 5381, 5491, 11, 14, 1526155417.199, 106, 0, 1024, 1024, 1024, 1024, 0, 6, 3868, 3843, 3854, 3893, 3929, 3850, 0, 1, 7801, -90.000, 0.000, 76.100, 0.000, 0.000, -3.300, 0.0, , , , , , 98, , , 0, 0, 0
38.1754157, -120.0595617, 5.500, 13:03:37.302, 14, 0.00, 0.46, 98, 1.400, 0.300, 78.000, 2, 100, 100, 21, 23490, -19111, 5381, 5491, 11, 14, 1526155417.302, 5, 0, 1024, 1024, 1024, 1024, 0, 6, 3868, 3843, 3854, 3893, 3929, 3850, 0, 1, 7904, -89.900, 0.000, 76.200, 0.000, 0.000, -3.300, 0.0, , , , , , 98, , , 0, 0, 0
38.1754157, -120.0595617, 5.500, 13:03:37.398, 14, 0.00, 0.46, 98, 1.400, 0.300, 78.000, 2, 100, 100, 21, 23490, -19111, 5381, 5491, 11, 14, 1526155417.399, 102, 0, 1024, 1024, 1024, 1024, 0, 6, 3868, 3843, 3854, 3893, 3929, 3850, 0, 1, 8001, -89.900, 0.000, 76.200, 0.000, 0.000, -3.300, 0.0, , , , , , 98, , , 0, 0, 0
38.1754158, -120.0595616, 6.100, 13:03:37.501, 14, 0.00, 0.47, 98, 1.700, 0.700, 78.500, 2, 100, 100, 21, 23490, -19111, 5381, 5491, 11, 14, 1526155417.501, 4, 0, 1024, 1024, 1024, 1024, 0, 6, 3868, 3843, 3854, 3893, 3929, 3850, 0, 1, 8103, -89.900, 0.000, 76.300, 0.000, 0.000, -3.400, 0.0, , , , , , 98, , , 0, 0, 0
38.1754158, -120.0595616, 6.100, 13:03:37.599, 14, 0.00, 0.47, 98, 1.700, 0.700, 78.500, 2, 100, 100, 21, 23490, -19111, 5381, 5491, 11, 14, 1526155417.599, 102, 0, 1024, 1024, 1024, 1024, 0, 6, 3868, 3843, 3854, 3893, 3929, 3850, 0, 1, 8201, -89.900, 0.000, 76.300, 0.000, 0.000, -3.400, 0.0, , , , , , 98, , , 0, 0, 0
38.1754158, -120.0595616, 6.500, 13:03:37.698, 14, 0.00, 0.47, 98, 2.400, 0.700, 78.500, 2, 100, 100, 21, 23490, -19111, 5381, 5491, 11, 14, 1526155417.698, 90, 0, 1024, 1024, 1024, 1024, 0, 6, 3868, 3843, 3854, 3893, 3929, 3850, 0, 1, 8300, -90.000, 0.000, 76.400, 0.000, 0.000, -3.400, 0.0, , , , , , 98, , , 0, 0, 0
38.1754159, -120.0595616, 6.900, 13:03:37.798, 13, 0.00, 0.48, 98, 2.600, 0.400, 78.400, 2, 100, 100, 21, 23490, -19111, 5381, 5491, 11, 14, 1526155417.798, 88, 0, 1024, 1024, 1024, 1024, 0, 6, 3868, 3843, 3854, 3893, 3929, 3850, 0, 1, 8400, -89.900, 0.000, 76.400, 0.000, 0.000, -3.400, 0.0, , , , , , 98, , , 0, 0, 0
38.1754160, -120.0595617, 7.200, 13:03:37.898, 13, 0.00, 0.49, 98, 2.600, 0.400, 78.400, 2, 100, 99, 21, 22999, -24821, 5381, 5491, 11, 14, 1526155417.899, 91, 0, 1024, 1024, 1024, 1024, 0, 6, 3832, 3827, 3799, 3822, 3868, 3871, 0, 1, 8500, -90.000, 0.000, 76.500, 0.000, 0.000, -3.200, 0.0, , , , , , 98, , , 0, 0, 0
38.1754161, -120.0595617, 7.500, 13:03:37.999, 13, 0.00, 0.50, 98, 2.500, 0.300, 78.300, 2, 100, 99, 21, 22999, -24821, 5381, 5491, 11, 14, 1526155417.999, 75, 0, 1024, 1024, 1024, 1024, 0, 6, 3832, 3827, 3799, 3822, 3868, 3871, 0, 1, 8601, -89.900, 0.000, 76.500, 0.000, 0.000, -3.200, 0.0, , , , , , 98, , , 0, 0, 0
38.1754162, -120.0595617, 7.900, 13:03:38.099, 13, 0.00, 0.51, 98, 2.700, 0.700, 78.400, 2, 100, 99, 21, 22999, -24821, 5381, 5491, 11, 14, 1526155418.099, 90, 0, 1024, 1024, 1024, 1024, 0, 6, 3832, 3827, 3799, 3822, 3868, 3871, 0, 1, 8701, -89.900, 0.000, 76.500, 0.000, 0.000, -3.200, 0.0, , , , , , 98, , , 0, 0, 0
38.1754164, -120.0595616, 8.500, 13:03:38.199, 14, 0.00, 0.53, 98, 2.800, 0.700, 78.600, 2, 100, 99, 21, 22999, -24821, 5381, 5491, 11, 14, 1526155418.199, 50, 0, 1024, 1024, 1024, 1024, 0, 6, 3832, 3827, 3799, 3822, 3868, 3871, 0, 1, 8801, -89.900, 0.000, 76.500, 0.000, 0.000, -3.100, 0.0, , , , , , 98, , , 0, 0, 0
38.1754165, -120.0595615, 8.800, 13:03:38.298, 14, 0.00, 0.53, 98, 3.000, 1.000, 78.600, 2, 100, 99, 21, 22999, -24821, 5381, 5491, 11, 14, 1526155418.298, 63, 0, 1024, 1024, 1024, 1024, 0, 6, 3832, 3827, 3799, 3822, 3868, 3871, 0, 1, 8900, -89.900, 0.000, 76.600, 0.000, 0.000, -3.100, 0.0, , , , , , 98, , , 0, 0, 0
38.1754165, -120.0595612, 9.100, 13:03:38.399, 14, 0.00, 0.52, 98, 3.100, 1.500, 78.500, 2, 100, 95, 21, 22999, -24821, 5381, 5491, 11, 14, 1526155418.399, 71, 0, 1024, 1024, 1024, 1024, 0, 6, 3832, 3827, 3799, 3822, 3868, 3871, 0, 1, 9001, -89.900, 0.000, 76.600, 0.000, 0.000, -3.000, 0.0, , , , , , 98, , , 0, 0, 0
38.1754164, -120.0595607, 9.400, 13:03:38.498, 14, 0.10, 0.50, 98, 2.900, 1.900, 78.600, 2, 100, 95, 21, 22999, -24821, 5381, 5491, 11, 14, 1526155418.498, 57, 0, 1024, 1024, 1024, 1024, 0, 6, 3832, 3827, 3799, 3822, 3868, 3871, 0, 1, 9100, -89.900, 0.000, 76.700, 0.000, 0.100, -3.000, 0.0, , , , , , 98, , , 0, 0, 0
38.1754160, -120.0595599, 9.800, 13:03:38.599, 14, 0.10, 0.45, 98, 2.300, 2.500, 78.700, 2, 100, 95, 21, 22999, -24821, 5381, 5491, 11, 14, 1526155418.599, 49, 0, 1024, 1024, 1024, 1024, 0, 6, 3832, 3827, 3799, 3822, 3868, 3871, 0, 1, 9201, -89.900, 0.000, 76.700, 0.000, 0.100, -3.100, 0.0, , , , , , 98, , , 0, 0, 0
38.1754157, -120.0595591, 10.100, 13:03:38.699, 14, 0.20, 0.41, 98, 1.100, 3.600, 78.800, 2, 100, 95, 21, 22999, -24821, 5381, 5491, 11, 14, 1526155418.699, 25, 0, 1024, 1024, 1024, 1024, 0, 6, 3832, 3827, 3799, 3822, 3868, 3871, 0, 1, 9301, -89.900, 0.000, 76.700, 0.000, 0.200, -3.100, 0.0, , , , , , 98, , , 0, 0, 0
38.1754157, -120.0595590, 10.400, 13:03:38.799, 14, 0.10, 0.41, 98, 0.300, 4.000, 78.700, 2, 100, 95, 21, 23389, -19503, 5381, 5491, 11, 14, 1526155418.799, 29, 0, 1024, 1024, 1024, 1024, 0, 6, 3900, 3889, 3870, 3897, 3930, 3911, 0, 1, 9401, -89.900, 0.000, 76.800, 0.000, 0.100, -3.100, 0.0, , , , , , 98, , , 0, 0, 0
38.1754158, -120.0595590, 10.700, 13:03:38.899, 14, 0.00, 0.43, 98, 0.500, 3.800, 78.600, 2, 100, 95, 21, 23389, -19503, 5381, 5491, 11, 14, 1526155418.899, 45, 0, 1024, 1024, 1024, 1024, 0, 6, 3900, 3889, 3870, 3897, 3930, 3911, 0, 1, 9501, -89.900, 0.000, 76.800, 0.000, 0.000, -3.100, 0.0, , , , , , 98, , , 0, 0, 0
38.1754160, -120.0595591, 11.000, 13:03:38.999, 14, 0.00, 0.45, 98, 1.200, 3.400, 78.500, 2, 100, 95, 21, 23389, -19503, 5381, 5491, 11, 14, 1526155418.999, 25, 0, 1024, 1024, 1024, 1024, 0, 6, 3900, 3889, 3870, 3897, 3930, 3911, 0, 1, 9601, -89.900, 0.000, 76.800, 0.000, 0.000, -3.100, 0.0, , , , , , 98, , , 0, 0, 0
38.1754162, -120.0595593, 11.300, 13:03:39.098, 14, 0.10, 0.47, 98, 2.300, 2.800, 78.300, 2, 100, 95, 21, 23389, -19503, 5381, 5491, 11, 14, 1526155419.098, 20, 0, 1024, 1024, 1024, 1024, 0, 6, 3900, 3889, 3870, 3897, 3930, 3911, 0, 1, 9700, -90.000, 0.000, 76.900, 0.100, 0.000, -3.000, 0.0, , , , , , 98, , , 0, 0, 0
38.1754162, -120.0595593, 11.300, 13:03:39.198, 14, 0.10, 0.47, 98, 2.300, 2.800, 78.300, 2, 100, 95, 21, 23389, -19503, 5381, 5491, 11, 14, 1526155419.199, 121, 0, 1024, 1024, 1024, 1024, 0, 6, 3900, 3889, 3870, 3897, 3930, 3911, 0, 1, 9801, -90.000, 0.000, 76.900, 0.100, 0.000, -3.000, 0.0, , , , , , 98, , , 0, 0, 0
38.1754164, -120.0595594, 11.600, 13:03:39.299, 14, 0.10, 0.48, 98, 3.700, 1.900, 78.200, 2, 100, 95, 21, 23389, -19503, 5381, 5491, 11, 14, 1526155419.299, 83, 0, 1024, 1024, 1024, 1024, 0, 6, 3900, 3889, 3870, 3897, 3930, 3911, 0, 1, 9901, -90.000, 0.000, 76.900, 0.100, 0.000, -3.000, 0.0, , , , , , 98, , , 0, 0, 0
38.1754165, -120.0595596, 11.900, 13:03:39.398, 14, 0.00, 0.50, 98, 4.200, 1.400, 78.200, 2, 100, 95, 21, 23389, -19503, 5381, 5491, 11, 14, 1526155419.399, 97, 0, 1024, 1024, 1024, 1024, 0, 6, 3900, 3889, 3870, 3897, 3930, 3911, 0, 1, 10000, -90.000, 0.000, 76.900, 0.000, 0.000, -3.100, 0.0, , , , , , 98, , , 0, 0, 0
38.1754168, -120.0595602, 12.500, 13:03:39.502, 13, 0.10, 0.54, 98, 4.500, 0.500, 78.100, 2, 100, 95, 21, 23389, -19503, 5381, 5491, 11, 14, 1526155419.503, 5, 0, 1024, 1024, 1024, 1024, 0, 6, 3900, 3889, 3870, 3897, 3930, 3911, 0, 1, 10105, -90.000, 0.000, 77.000, 0.000, -0.100, -3.000, 0.0, , , , , , 98, , , 0, 0, 0
38.1754169, -120.0595603, 12.800, 13:03:39.604, 13, 0.00, 0.55, 98, 4.400, 0.300, 78.100, 2, 100, 95, 21, 23389, -19503, 5381, 5491, 11, 14, 1526155419.605, 6, 0, 1024, 1024, 1024, 1024, 0, 6, 3900, 3889, 3870, 3897, 3930, 3911, 0, 1, 10207, -89.900, 0.000, 77.000, 0.000, 0.000, -3.000, 0.0, , , , , , 98, , , 0, 0, 0
38.1754169, -120.0595603, 12.800, 13:03:39.698, 13, 0.00, 0.55, 98, 4.400, 0.300, 78.100, 2, 100, 95, 21, 23389, -19503, 5381, 5491, 11, 14, 1526155419.698, 100, 0, 1024, 1024, 1024, 1024, 0, 6, 3900, 3889, 3870, 3897, 3930, 3911, 0, 1, 10300, -89.900, 0.000, 77.000, 0.000, 0.000, -3.000, 0.0, , , , , , 98, , , 0, 0, 0
38.1754168, -120.0595604, 13.400, 13:03:39.799, 14, 0.00, 0.54, 98, 3.200, 0.900, 78.200, 2, 100, 95, 21, 23389, -19503, 5381, 5491, 11, 14, 1526155419.799, 8, 0, 1024, 1024, 1024, 1024, 0, 6, 3900, 3889, 3870, 3897, 3930, 3911, 0, 1, 10401, -89.900, 0.000, 77.000, 0.000, 0.000, -3.000, 0.0, , , , , , 98, , , 0, 0, 0
38.1754168, -120.0595604, 13.400, 13:03:39.899, 14, 0.00, 0.54, 98, 3.200, 0.900, 78.200, 2, 100, 95, 21, 23389, -19503, 5381, 5491, 11, 14, 1526155419.899, 108, 0, 1024, 1024, 1024, 1024, 0, 6, 3900, 3889, 3870, 3897, 3930, 3911, 0, 1, 10501, -89.900, 0.000, 77.000, 0.000, 0.000, -3.000, 0.0, , , , , , 98, , , 0, 0, 0
38.1754168, -120.0595604, 13.400, 13:03:39.998, 14, 0.00, 0.54, 98, 3.200, 0.900, 78.200, 2, 100, 95, 21, 23389, -19503, 5381, 5491, 11, 14, 1526155419.999, 207, 0, 1024, 1024, 1024, 1024, 0, 6, 3900, 3889, 3870, 3897, 3930, 3911, 0, 1, 10601, -89.900, 0.000, 77.100, 0.000, 0.000, -3.000, 0.0, , , , , , 98, , , 0, 0, 0
38.1754167, -120.0595604, 14.000, 13:03:40.099, 14, 0.10, 0.53, 98, 2.300, 1.500, 78.100, 2, 100, 95, 21, 23389, -19503, 5381, 5491, 11, 14, 1526155420.099, 69, 0, 1024, 1024, 1024, 1024, 0, 6, 3900, 3889, 3870, 3897, 3930, 3911, 0, 1, 10701, -89.900, 0.000, 77.100, -0.100, 0.000, -3.000, 0.0, , , , , , 98, , , 0, 0, 0
38.1754166, -120.0595604, 14.300, 13:03:40.199, 14, 0.10, 0.52, 98, 1.400, 1.800, 78.100, 2, 100, 95, 21, 23389, -19503, 5381, 5491, 11, 14, 1526155420.199, 23, 0, 1024, 1024, 1024, 1024, 0, 6, 3900, 3889, 3870, 3897, 3930, 3911, 0, 1, 10801, -89.900, 0.000, 77.100, -0.100, 0.000, -3.000, 0.0, , , , , , 98, , , 0, 0, 0
38.1754165, -120.0595606, 15.000, 13:03:40.298, 13, 0.10, 0.51, 98, 0.000, 2.100, 78.300, 2, 100, 95, 21, 23389, -19503, 5381, 5491, 11, 14, 1526155420.298, 50, 0, 1024, 1024, 1024, 1024, 0, 6, 3900, 3889, 3870, 3897, 3930, 3911, 0, 1, 10900, -89.900, 0.000, 77.100, -0.100, 0.000, -3.100, 0.0, , , , , , 98, , , 0, 0, 0
38.1754164, -120.0595607, 15.300, 13:03:40.398, 13, 0.00, 0.51, 97, 0.400, 1.500, 78.500, 2, 100, 97, 21, 23333, -19315, 5326, 5491, 11, 14, 1526155420.398, 52, 0, 1024, 1024, 1024, 1024, 0, 6, 3900, 3889, 3870, 3897, 3930, 3911, 0, 1, 11000, -90.000, 0.000, 77.100, 0.000, 0.000, -3.100, 0.0, , , , , , 98, , , 0, 0, 0
38.1754164, -120.0595609, 15.600, 13:03:40.498, 14, 0.00, 0.51, 97, 0.800, 0.900, 78.500, 2, 100, 97, 21, 23333, -19315, 5326, 5491, 11, 14, 1526155420.499, 35, 0, 1024, 1024, 1024, 1024, 0, 6, 3900, 3889, 3870, 3897, 3930, 3911, 0, 1, 11100, -89.900, 0.000, 77.200, 0.000, 0.000, -3.100, 0.0, , , , , , 98, , , 0, 0, 0
38.1754164, -120.0595611, 15.900, 13:03:40.599, 14, 0.00, 0.52, 97, 1.200, 0.400, 78.400, 2, 100, 97, 21, 23333, -19315, 5326, 5491, 11, 14, 1526155420.599, 47, 0, 1024, 1024, 1024, 1024, 0, 6, 3900, 3889, 3870, 3897, 3930, 3911, 0, 1, 11201, -90.000, 0.000, 77.200, 0.000, 0.000, -3.100, 0.0, , , , , , 98, , , 0, 0, 0
38.1754164, -120.0595611, 15.900, 13:03:40.698, 14, 0.00, 0.52, 97, 1.200, 0.400, 78.400, 2, 100, 97, 21, 23333, -19315, 5326, 5491, 11, 14, 1526155420.699, 146, 0, 1024, 1024, 1024, 1024, 0, 6, 3889, 3884, 3853, 3880, 3922, 3904, 0, 1, 11300, -90.000, 0.000, 77.200, 0.000, 0.000, -3.100, 0.0, , , , , , 98, , , 0, 0, 0
38.1754166, -120.0595615, 16.500, 13:03:40.798, 14, 0.00, 0.54, 97, 2.400, -0.100, 78.100, 2, 100, 97, 21, 23328, -18968, 5326, 5491, 11, 14, 1526155420.798, 49, 0, 1024, 1024, 1024, 1024, 0, 6, 3889, 3884, 3853, 3880, 3922, 3904, 0, 1, 11400, -89.900, 0.000, 77.200, 0.000, 0.000, -3.000, 0.0, , , , , , 98, , , 0, 0, 0
38.1754166, -120.0595616, 16.900, 13:03:40.898, 14, 0.00, 0.55, 97, 2.900, 0.100, 78.000, 2, 100, 98, 21, 23328, -18968, 5326, 5491, 11, 14, 1526155420.899, 29, 0, 1024, 1024, 1024, 1024, 0, 6, 3895, 3879, 3852, 3882, 3921, 3899, 0, 1, 11501, -89.900, 0.000, 77.200, 0.000, 0.000, -3.000, 0.0, , , , , , 98, , , 0, 0, 0
38.1754166, -120.0595615, 17.200, 13:03:40.998, 14, 0.00, 0.55, 97, 3.100, 0.300, 77.900, 2, 100, 98, 21, 23328, -18968, 5326, 5491, 11, 14, 1526155420.999, 36, 0, 1024, 1024, 1024, 1024, 0, 6, 3895, 3879, 3852, 3882, 3921, 3899, 0, 1, 11601, -89.900, 0.000, 77.200, 0.000, 0.000, -3.000, 0.0, , , , , , 98, , , 0, 0, 0
38.1754166, -120.0595615, 17.400, 13:03:41.098, 14, 0.00, 0.55, 97, 2.800, 0.600, 78.000, 2, 100, 98, 21, 23328, -18968, 5326, 5491, 11, 14, 1526155421.098, 35, 0, 1024, 1024, 1024, 1024, 0, 6, 3895, 3879, 3852, 3882, 3921, 3899, 0, 1, 11700, -89.900, 0.000, 77.300, 0.000, 0.000, -2.900, 0.0, , , , , , 98, , , 0, 0, 0
38.1754166, -120.0595614, 17.700, 13:03:41.212, 14, 0.10, 0.54, 97, 2.000, 1.300, 78.200, 2, 100, 98, 21, 23328, -18968, 5326, 5491, 11, 14, 1526155421.213, 5, 0, 1024, 1024, 1024, 1024, 0, 6, 3895, 3879, 3852, 3882, 3921, 3899, 0, 1, 11815, -89.900, 0.000, 77.300, 0.000, 0.100, -2.800, 0.0, , , , , , 98, , , 0, 0, 0
38.1754165, -120.0595612, 18.000, 13:03:41.298, 14, 0.10, 0.52, 97, 1.200, 2.400, 78.400, 2, 100, 98, 21, 23328, -18968, 5326, 5491, 11, 14, 1526155421.298, 41, 0, 1024, 1024, 1024, 1024, 0, 6, 3895, 3879, 3852, 3882, 3921, 3899, 0, 1, 11900, -89.900, 0.000, 77.300, 0.000, 0.100, -2.900, 0.0, , , , , , 98, , , 0, 0, 0
38.1754164, -120.0595611, 18.300, 13:03:41.398, 14, 0.10, 0.52, 97, 0.700, 3.100, 78.400, 2, 100, 96, 21, 23328, -18968, 5326, 5491, 11, 14, 1526155421.398, 21, 0, 1024, 1024, 1024, 1024, 0, 6, 3895, 3879, 3852, 3882, 3921, 3899, 0, 1, 12000, -89.900, 0.000, 77.300, 0.000, 0.100, -3.000, 0.0, , , , , , 98, , , 0, 0, 0
38.1754164, -120.0595610, 18.600, 13:03:41.499, 14, 0.10, 0.51, 97, 0.500, 3.500, 78.400, 2, 100, 96, 21, 23328, -18968, 5326, 5491, 11, 14, 1526155421.500, 36, 0, 1024, 1024, 1024, 1024, 0, 6, 3895, 3879, 3852, 3882, 3921, 3899, 0, 1, 12102, -89.900, 0.000, 77.300, 0.000, 0.100, -3.000, 0.0, , , , , , 98, , , 0, 0, 0
38.1754164, -120.0595608, 19.000, 13:03:41.602, 14, 0.10, 0.50, 97, 0.600, 3.700, 78.400, 2, 100, 96, 21, 23328, -18968, 5326, 5491, 11, 14, 1526155421.603, 5, 0, 1024, 1024, 1024, 1024, 0, 6, 3895, 3879, 3852, 3882, 3921, 3899, 0, 1, 12205, -89.900, 0.000, 77.300, 0.000, 0.100, -3.000, 0.0, , , , , , 98, , , 0, 0, 0
38.1754163, -120.0595607, 19.300, 13:03:41.699, 14, 0.10, 0.49, 97, 0.800, 3.900, 78.400, 2, 100, 96, 21, 23328, -18968, 5326, 5491, 11, 14, 1526155421.700, 20, 0, 1024, 1024, 1024, 1024, 0, 6, 3895, 3879, 3852, 3882, 3921, 3899, 0, 1, 12301, -89.900, 0.000, 77.300, 0.000, 0.100, -3.000, 0.0, , , , , , 98, , , 0, 0, 0
38.1754163, -120.0595607, 19.300, 13:03:41.798, 14, 0.10, 0.49, 97, 0.800, 3.900, 78.400, 2, 100, 96, 21, 23328, -18968, 5326, 5491, 11, 14, 1526155421.799, 118, 0, 1024, 1024, 1024, 1024, 0, 6, 3895, 3879, 3852, 3882, 3921, 3899, 0, 1, 12400, -89.900, 0.000, 77.300, 0.000, 0.100, -3.000, 0.0, , , , , , 98, , , 0, 0, 0
38.1754163, -120.0595607, 19.300, 13:03:41.898, 14, 0.10, 0.49, 97, 0.800, 3.900, 78.400, 2, 100, 96, 21, 23425, -17867, 5326, 5491, 11, 14, 1526155421.898, 218, 0, 1024, 1024, 1024, 1024, 0, 6, 3895, 3879, 3852, 3882, 3921, 3899, 0, 1, 12500, -89.900, 0.000, 77.300, 0.000, 0.100, -3.000, 0.0, , , , , , 98, , , 0, 0, 0
38.1754163, -120.0595605, 19.900, 13:03:41.999, 14, 0.00, 0.48, 97, 0.800, 3.700, 78.500, 2, 100, 97, 21, 23425, -17867, 5326, 5491, 11, 14, 1526155421.999, 94, 0, 1024, 1024, 1024, 1024, 0, 6, 3895, 3879, 3852, 3882, 3921, 3899, 0, 1, 12601, -89.900, 0.000, 77.400, 0.000, 0.000, -2.900, 0.0, , , , , , 98, , , 0, 0, 0
38.1754163, -120.0595606, 20.200, 13:03:42.099, 14, 0.00, 0.49, 97, 1.000, 3.400, 78.600, 2, 100, 97, 21, 23425, -17867, 5326, 5491, 11, 14, 1526155422.099, 80, 0, 1024, 1024, 1024, 1024, 0, 6, 3895, 3879, 3852, 3882, 3921, 3899, 0, 1, 12701, -90.000, 0.000, 77.400, 0.000, 0.000, -2.900, 0.0, , , , , , 98, , , 0, 0, 0
38.1754163, -120.0595606, 20.400, 13:03:42.198, 14, 0.00, 0.49, 97, 1.300, 3.000, 78.600, 2, 100, 97, 21, 23425, -17867, 5326, 5491, 11, 14, 1526155422.198, 88, 0, 1024, 1024, 1024, 1024, 0, 6, 3895, 3879, 3852, 3882, 3921, 3899, 0, 1, 12800, -89.900, 0.000, 77.400, 0.000, 0.000, -2.800, 0.0, , , , , , 98, , , 0, 0, 0
38.1754162, -120.0595606, 20.700, 13:03:42.298, 14, 0.00, 0.48, 97, 1.400, 2.700, 78.600, 2, 100, 97, 21, 23425, -17867, 5326, 5491, 11, 14, 1526155422.298, 93, 0, 1024, 1024, 1024, 1024, 0, 6, 3895, 3879, 3852, 3882, 3921, 3899, 0, 1, 12900, -89.900, 0.000, 77.400, 0.000, 0.000, -2.800, 0.0, , , , , , 98, , , 0, 0, 0
38.1754162, -120.0595606, 21.000, 13:03:42.398, 14, 0.00, 0.48, 97, 1.400, 2.600, 78.600, 2, 100, 97, 21, 23425, -17867, 5326, 5491, 11, 14, 1526155422.399, 59, 0, 1024, 1024, 1024, 1024, 0, 6, 3909, 3892, 3871, 3898, 3936, 3908, 0, 1, 13001, -89.900, 0.000, 77.400, 0.000, 0.000, -2.800, 0.0, , , , , , 98, , , 0, 0, 0
38.1754161, -120.0595603, 21.600, 13:03:42.498, 14, 0.10, 0.46, 97, 0.300, 3.400, 78.800, 2, 100, 97, 21, 23425, -17867, 5326, 5491, 11, 14, 1526155422.498, 48, 0, 1024, 1024, 1024, 1024, 0, 6, 3909, 3892, 3871, 3898, 3936, 3908, 0, 1, 13100, -89.900, 0.000, 77.400, 0.000, 0.100, -2.900, 0.0, , , , , , 98, , , 0, 0, 0
38.1754161, -120.0595603, 21.600, 13:03:42.598, 14, 0.10, 0.46, 97, 0.300, 3.400, 78.800, 2, 100, 97, 21, 23425, -17867, 5326, 5491, 11, 14, 1526155422.598, 148, 0, 1024, 1024, 1024, 1024, 0, 6, 3909, 3892, 3871, 3898, 3936, 3908, 0, 1, 13200, -89.900, 0.000, 77.400, 0.000, 0.100, -2.900, 0.0, , , , , , 98, , , 0, 0, 0
38.1754159, -120.0595600, 22.200, 13:03:42.699, 14, 0.10, 0.44, 97, 0.000, 4.200, 78.900, 2, 100, 97, 21, 23425, -17867, 5326, 5491, 11, 14, 1526155422.699, 48, 0, 1024, 1024, 1024, 1024, 0, 6, 3909, 3892, 3871, 3898, 3936, 3908, 0, 1, 13301, -89.900, 0.000, 77.400, 0.000, 0.100, -2.900, 0.0, , , , , , 98, , , 0, 0, 0
38.1754159, -120.0595598, 22.600, 13:03:42.799, 14, 0.10, 0.43, 97, -0.100, 4.500, 78.900, 2, 100, 97, 21, 23425, -17867, 5326, 5491, 11, 14, 1526155422.799, 56, 0, 1024, 1024, 1024, 1024, 0, 6, 3909, 3892, 3871, 3898, 3936, 3908, 0, 1, 13401, -89.900, 0.000, 77.400, 0.000, 0.100, -2.900, 0.0, , , , , , 98, , , 0, 0, 0
38.1754158, -120.0595596, 22.900, 13:03:42.899, 14, 0.10, 0.42, 97, -0.100, 4.900, 78.900, 2, 100, 100, 21, 23425, -17867, 5326, 5491, 11, 14, 1526155422.899, 53, 0, 1024, 1024, 1024, 1024, 0, 6, 3909, 3892, 3871, 3898, 3936, 3908, 0, 1, 13501, -89.900, 0.000, 77.400, 0.000, 0.100, -2.800, 0.0, , , , , , 98, , , 0, 0, 0
38.1754158, -120.0595595, 23.200, 13:03:42.998, 14, 0.10, 0.43, 97, 0.000, 5.300, 78.900, 2, 100, 100, 21, 23425, -17867, 5326, 5491, 11, 14, 1526155422.998, 65, 0, 1024, 1024, 1024, 1024, 0, 6, 3909, 3892, 3871, 3898, 3936, 3908, 0, 1, 13600, -89.900, 0.000, 77.400, 0.000, 0.100, -2.900, 0.0, , , , , , 98, , , 0, 0, 0
38.1754159, -120.0595594, 23.500, 13:03:43.098, 14, 0.10, 0.43, 97, 0.600, 5.400, 78.900, 2, 100, 100, 21, 23425, -17867, 5326, 5491, 11, 14, 1526155423.099, 32, 0, 1024, 1024, 1024, 1024, 0, 6, 3909, 3892, 3871, 3898, 3936, 3908, 0, 1, 13701, -89.900, 0.000, 77.400, 0.000, 0.100, -2.800, 0.0, , , , , , 98, , , 0, 0, 0
38.1754159, -120.0595592, 23.800, 13:03:43.199, 14, 0.10, 0.43, 97, 1.300, 5.600, 78.800, 2, 100, 100, 21, 23425, -17867, 5326, 5491, 11, 14, 1526155423.199, 23, 0, 1024, 1024, 1024, 1024, 0, 6, 3909, 3892, 3871, 3898, 3936, 3908, 0, 1, 13801, -89.900, 0.000, 77.400, 0.000, 0.100, -2.800, 0.0, , , , , , 98, , , 0, 0, 0
38.1754159, -120.0595590, 24.100, 13:03:43.299, 14, 0.10, 0.43, 97, 1.700, 5.600, 78.700, 2, 100, 100, 21, 23379, -18497, 5326, 5491, 11, 14, 1526155423.299, 22, 0, 1024, 1024, 1024, 1024, 0, 6, 3893, 3879, 3852, 3887, 3925, 3900, 0, 1, 13901, -89.900, 0.000, 77.400, 0.000, 0.100, -2.900, 0.0, , , , , , 98, , , 0, 0, 0
38.1754158, -120.0595588, 24.400, 13:03:43.399, 14, 0.10, 0.42, 97, 0.800, 5.800, 78.300, 2, 100, 99, 21, 23379, -18497, 5326, 5491, 11, 14, 1526155423.399, 29, 0, 1024, 1024, 1024, 1024, 0, 6, 3893, 3879, 3852, 3887, 3925, 3900, 0, 1, 14001, -89.900, 0.000, 77.400, 0.000, 0.100, -3.000, 0.0, , , , , , 98, , , 0, 0, 0
38.1754157, -120.0595587, 24.800, 13:03:43.498, 14, 0.14, 0.42, 97, -0.300, 5.900, 77.900, 2, 100, 99, 21, 23379, -18497, 5326, 5491, 11, 14, 1526155423.499, 32, 0, 1024, 1024, 1024, 1024, 0, 6, 3893, 3879, 3852, 3887, 3925, 3900, 0, 1, 14100, -89.900, 0.000, 77.400, -0.100, 0.100, -3.000, 0.0, , , , , , 98, , , 0, 0, 0
38.1754156, -120.0595587, 25.100, 13:03:43.598, 14, 0.10, 0.40, 97, -1.100, 5.800, 77.500, 2, 100, 99, 21, 23379, -18497, 5326, 5491, 11, 14, 1526155423.598, 36, 0, 1024, 1024, 1024, 1024, 0, 6, 3893, 3879, 3852, 3887, 3925, 3900, 0, 1, 14200, -89.900, 0.000, 77.500, -0.100, 0.000, -3.000, 0.0, , , , , , 98, , , 0, 0, 0
38.1754154, -120.0595587, 25.400, 13:03:43.708, 14, 0.10, 0.38, 97, -1.600, 5.200, 77.300, 2, 100, 99, 21, 23379, -18497, 5326, 5491, 11, 14, 1526155423.708, 8, 0, 1024, 1024, 1024, 1024, 0, 6, 3893, 3879, 3852, 3887, 3925, 3900, 0, 1, 14310, -90.000, 0.000, 77.500, -0.100, 0.000, -2.900, 0.0, , , , , , 98, , , 0, 0, 0
38.1754153, -120.0595587, 25.700, 13:03:43.802, 14, 0.10, 0.37, 97, -2.000, 4.500, 77.200, 2, 100, 99, 21, 23379, -18497, 5326, 5491, 11, 14, 1526155423.802, 6, 0, 1024, 1024, 1024, 1024, 0, 6, 3893, 3879, 3852, 3887, 3925, 3900, 0, 1, 14404, -89.900, 0.000, 77.500, -0.100, 0.000, -2.900, 0.0, , , , , , 98, , , 0, 0, 0
38.1754152, -120.0595587, 26.000, 13:03:43.899, 14, 0.10, 0.35, 97, -2.000, 4.400, 77.300, 2, 100, 98, 21, 23379, -18497, 5326, 5491, 11, 14, 1526155423.899, 30, 0, 1024, 1024, 1024, 1024, 0, 6, 3893, 3879, 3852, 3887, 3925, 3900, 0, 1, 14501, -89.900, 0.000, 77.500, -0.100, 0.000, -2.800, 0.0, , , , , , 98, , , 0, 0, 0
38.1754150, -120.0595588, 26.300, 13:03:43.998, 14, 0.10, 0.34, 97, -2.400, 4.300, 77.700, 2, 100, 98, 21, 23379, -18497, 5326, 5491, 11, 14, 1526155423.998, 9, 0, 1024, 1024, 1024, 1024, 0, 6, 3893, 3879, 3852, 3887, 3925, 3900, 0, 1, 14600, -90.000, 0.000, 77.500, -0.100, 0.000, -2.800, 0.0, , , , , , 98, , , 0, 0, 0
38.1754149, -120.0595588, 26.600, 13:03:44.098, 14, 0.00, 0.32, 97, -2.500, 3.700, 78.200, 2, 100, 98, 21, 23379, -18497, 5326, 5491, 11, 14, 1526155424.099, 15, 0, 1024, 1024, 1024, 1024, 0, 6, 3893, 3879, 3852, 3887, 3925, 3900, 0, 1, 14701, -90.000, 0.000, 77.500, 0.000, 0.000, -2.700, 0.0, , , , , , 98, , , 0, 0, 0
38.1754149, -120.0595589, 26.900, 13:03:44.200, 14, 0.00, 0.32, 97, -1.800, 3.300, 78.600, 2, 100, 98, 21, 23379, -18497, 5326, 5491, 11, 14, 1526155424.201, 8, 0, 1024, 1024, 1024, 1024, 0, 6, 3893, 3879, 3852, 3887, 3925, 3900, 0, 1, 14802, -89.900, 0.000, 77.500, 0.000, 0.000, -2.800, 0.0, , , , , , 98, , , 0, 0, 0
38.1754149, -120.0595590, 27.100, 13:03:44.310, 14, 0.00, 0.32, 97, -1.100, 3.300, 78.700, 2, 100, 98, 22, 22997, -22499, 5326, 5491, 11, 14, 1526155424.310, 7, 0, 1024, 1024, 1024, 1024, 0, 6, 3893, 3879, 3852, 3887, 3925, 3900, 0, 1, 14912, -90.000, 0.000, 77.500, 0.000, 0.000, -2.700, 0.0, , , , , , 98, , , 0, 0, 0
38.1754149, -120.0595590, 27.400, 13:03:44.409, 14, 0.00, 0.32, 97, -0.700, 3.400, 78.500, 2, 100, 98, 22, 22997, -22499, 5326, 5491, 11, 14, 1526155424.410, 12, 0, 1024, 1024, 1024, 1024, 0, 6, 3829, 3814, 3800, 3820, 3860, 3837, 0, 1, 15012, -90.000, 0.000, 77.500, 0.000, 0.000, -2.800, 0.0, , , , , , 98, , , 0, 0, 0
38.1754149, -120.0595590, 27.400, 13:03:44.498, 14, 0.00, 0.32, 97, -0.700, 3.400, 78.500, 2, 100, 98, 22, 22997, -22499, 5326, 5491, 11, 14, 1526155424.498, 101, 0, 1024, 1024, 1024, 1024, 0, 6, 3829, 3814, 3800, 3820, 3860, 3837, 0, 1, 15100, -89.900, 0.000, 77.500, 0.000, 0.000, -2.800, 0.0, , , , , , 98, , , 0, 0, 0
38.1754149, -120.0595590, 27.700, 13:03:44.599, 14, 0.00, 0.33, 97, -0.500, 3.700, 78.200, 2, 100, 98, 22, 22997, -22499, 5326, 5491, 11, 14, 1526155424.599, 96, 0, 1024, 1024, 1024, 1024, 0, 6, 3829, 3814, 3800, 3820, 3860, 3837, 0, 1, 15201, -89.900, 0.000, 77.500, 0.000, 0.000, -2.800, 0.0, , , , , , 98, , , 0, 0, 0
38.1754149, -120.0595590, 28.000, 13:03:44.699, 14, 0.00, 0.33, 97, 0.000, 3.900, 78.000, 2, 100, 98, 22, 22997, -22499, 5326, 5491, 11, 14, 1526155424.699, 77, 0, 1024, 1024, 1024, 1024, 0, 6, 3829, 3814, 3800, 3820, 3860, 3837, 0, 1, 15301, -89.900, 0.000, 77.500, 0.000, 0.000, -2.800, 0.0, , , , , , 98, , , 0, 0, 0
38.1754149, -120.0595590, 28.300, 13:03:44.799, 14, 0.00, 0.32, 97, 0.300, 4.000, 77.800, 2, 100, 98, 22, 22997, -22499, 5326, 5491, 11, 14, 1526155424.800, 77, 0, 1024, 1024, 1024, 1024, 0, 6, 3829, 3814, 3800, 3820, 3860, 3837, 0, 1, 15401, -89.900, 0.000, 77.500, 0.000, 0.000, -2.900, 0.0, , , , , , 98, , , 0, 0, 0
38.1754148, -120.0595590, 28.900, 13:03:44.899, 14, 0.00, 0.31, 97, -1.100, 4.500, 77.600, 2, 100, 99, 22, 22997, -22499, 5326, 5491, 11, 14, 1526155424.899, 73, 0, 1024, 1024, 1024, 1024, 0, 6, 3829, 3814, 3800, 3820, 3860, 3837, 0, 1, 15501, -89.900, 0.000, 77.500, 0.000, 0.000, -2.800, 0.0, , , , , , 98, , , 0, 0, 0
38.1754148, -120.0595590, 28.900, 13:03:44.998, 14, 0.00, 0.31, 97, -1.100, 4.500, 77.600, 2, 100, 99, 22, 22997, -22499, 5326, 5491, 11, 14, 1526155424.998, 173, 0, 1024, 1024, 1024, 1024, 0, 6, 3829, 3814, 3800, 3820, 3860, 3837, 0, 1, 15600, -90.000, 0.000, 77.500, 0.000, 0.000, -2.800, 0.0, , , , , , 98, , , 0, 0, 0
38.1754146, -120.0595591, 29.400, 13:03:45.099, 14, 0.00, 0.29, 97, -1.700, 3.700, 77.700, 2, 100, 99, 22, 22997, -22499, 5326, 5491, 11, 14, 1526155425.099, 66, 0, 1024, 1024, 1024, 1024, 0, 6, 3829, 3814, 3800, 3820, 3860, 3837, 0, 1, 15701, -90.000, 0.000, 77.500, 0.000, 0.000, -2.900, 0.0, , , , , , 98, , , 0, 0, 0
38.1754146, -120.0595591, 29.700, 13:03:45.199, 14, 0.00, 0.28, 97, -1.700, 3.700, 77.900, 2, 100, 99, 22, 22997, -22499, 5326, 5491, 11, 14, 1526155425.199, 56, 0, 1024, 1024, 1024, 1024, 0, 6, 3829, 3814, 3800, 3820, 3860, 3837, 0, 1, 15801, -89.900, 0.000, 77.500, 0.000, 0.000, -3.000, 0.0, , , , , , 98, , , 0, 0, 0
38.1754145, -120.0595592, 30.100, 13:03:45.298, 14, 0.00, 0.27, 97, -2.000, 3.900, 78.200, 2, 100, 99, 22, 22997, -22499, 5326, 5491, 11, 14, 1526155425.299, 8, 0, 1024, 1024, 1024, 1024, 0, 6, 3829, 3814, 3800, 3820, 3860, 3837, 0, 1, 15900, -89.900, 0.000, 77.500, 0.000, 0.000, -3.100, 0.0, , , , , , 98, , , 0, 0, 0
38.1754144, -120.0595592, 30.400, 13:03:45.398, 14, 0.00, 0.26, 97, -2.000, 4.000, 78.600, 2, 100, 97, 22, 22953, -22576, 5326, 5491, 11, 14, 1526155425.398, 63, 0, 1024, 1024, 1024, 1024, 0, 6, 3814, 3804, 3794, 3818, 3852, 3826, 0, 1, 16000, -89.900, 0.000, 77.500, 0.000, 0.000, -3.100, 0.0, , , , , , 98, , , 0, 0, 0
38.1754143, -120.0595592, 30.700, 13:03:45.499, 14, 0.00, 0.26, 97, -1.800, 3.900, 78.900, 2, 100, 97, 22, 22953, -22576, 5326, 5491, 11, 14, 1526155425.499, 54, 0, 1024, 1024, 1024, 1024, 0, 6, 3814, 3804, 3794, 3818, 3852, 3826, 0, 1, 16101, -90.000, 0.000, 77.500, 0.000, 0.000, -3.000, 0.0, , , , , , 98, , , 0, 0, 0
38.1754143, -120.0595592, 31.000, 13:03:45.598, 14, 0.00, 0.25, 97, -1.700, 3.800, 79.100, 2, 100, 97, 22, 22953, -22576, 5326, 5491, 11, 14, 1526155425.598, 48, 0, 1024, 1024, 1024, 1024, 0, 6, 3814, 3804, 3794, 3818, 3852, 3826, 0, 1, 16200, -89.900, 0.000, 77.500, 0.000, 0.000, -2.900, 0.0, , , , , , 98, , , 0, 0, 0
38.1754142, -120.0595592, 31.300, 13:03:45.699, 14, 0.00, 0.24, 97, -1.800, 3.600, 79.100, 2, 100, 97, 22, 22953, -22576, 5326, 5491, 11, 14, 1526155425.699, 36, 0, 1024, 1024, 1024, 1024, 0, 6, 3814, 3804, 3794, 3818, 3852, 3826, 0, 1, 16301, -89.900, 0.000, 77.500, 0.000, 0.000, -2.900, 0.0, , , , , , 98, , , 0, 0, 0
38.1754141, -120.0595592, 31.600, 13:03:45.798, 14, 0.00, 0.24, 97, -1.900, 3.500, 79.000, 2, 100, 97, 22, 22953, -22576, 5326, 5491, 11, 14, 1526155425.798, 35, 0, 1024, 1024, 1024, 1024, 0, 6, 3814, 3804, 3794, 3818, 3852, 3826, 0, 1, 16400, -90.000, 0.000, 77.500, 0.000, 0.000, -2.900, 0.0, , , , , , 98, , , 0, 0, 0
38.1754141, -120.0595592, 31.900, 13:03:45.899, 14, 0.00, 0.23, 97, -2.200, 3.400, 78.900, 2, 100, 96, 22, 22953, -22576, 5326, 5491, 11, 14, 1526155425.899, 16, 0, 1024, 1024, 1024, 1024, 0, 6, 3814, 3804, 3794, 3818, 3852, 3826, 0, 1, 16501, -90.000, 0.000, 77.500, 0.000, 0.000, -2.900, 0.0, , , , , , 98, , , 0, 0, 0
38.1754140, -120.0595593, 32.200, 13:03:45.998, 14, 0.00, 0.22, 97, -2.500, 3.200, 78.600, 2, 100, 96, 22, 22953, -22576, 5326, 5491, 11, 14, 1526155425.999, 32, 0, 1024, 1024, 1024, 1024, 0, 6, 3814, 3804, 3794, 3818, 3852, 3826, 0, 1, 16600, -89.900, 0.000, 77.500, 0.000, 0.000, -2.900, 0.0, , , , , , 98, , , 0, 0, 0
38.1754139, -120.0595593, 32.500, 13:03:46.099, 14, 0.00, 0.21, 97, -2.400, 3.200, 78.400, 2, 100, 96, 22, 22953, -22576, 5326, 5491, 11, 14, 1526155426.099, 37, 0, 1024, 1024, 1024, 1024, 0, 6, 3814, 3804, 3794, 3818, 3852, 3826, 0, 1, 16701, -90.000, 0.000, 77.500, 0.000, 0.000, -3.000, 0.0, , , , , , 98, , , 0, 0, 0
38.1754139, -120.0595593, 32.800, 13:03:46.199, 14, 0.00, 0.21, 97, -2.500, 3.100, 78.200, 2, 100, 96, 22, 22953, -22576, 5326, 5491, 11, 14, 1526155426.199, 30, 0, 1024, 1024, 1024, 1024, 0, 6, 3814, 3804, 3794, 3818, 3852, 3826, 0, 1, 16801, -90.000, 0.000, 77.500, 0.000, 0.000, -2.900, 0.0, , , , , , 98, , , 0, 0, 0
38.1754139, -120.0595594, 33.200, 13:03:46.311, 14, 0.00, 0.21, 97, -2.700, 3.000, 78.200, 2, 100, 96, 22, 22778, -23537, 5326, 5491, 11, 14, 1526155426.312, 5, 0, 1024, 1024, 1024, 1024, 0, 6, 3814, 3804, 3794, 3818, 3852, 3826, 0, 1, 16914, -90.000, 0.000, 77.500, 0.000, 0.000, -2.900, 0.0, , , , , , 98, , , 0, 0, 0
38.1754139, -120.0595594, 33.500, 13:03:46.406, 14, 0.00, 0.21, 97, -2.500, 2.900, 78.200, 2, 100, 97, 22, 22778, -23537, 5326, 5491, 11, 14, 1526155426.407, 13, 0, 1024, 1024, 1024, 1024, 0, 6, 3792, 3770, 3751, 3768, 3829, 3801, 0, 1, 17009, -90.000, 0.000, 77.500, 0.000, 0.000, -2.900, 0.0, , , , , , 98, , , 0, 0, 0
38.1754139, -120.0595594, 33.700, 13:03:46.498, 14, 0.00, 0.21, 97, -2.200, 2.800, 78.200, 2, 100, 97, 22, 22778, -23537, 5326, 5491, 11, 14, 1526155426.499, 11, 0, 1024, 1024, 1024, 1024, 0, 6, 3792, 3770, 3751, 3768, 3829, 3801, 0, 1, 17101, -89.900, 0.000, 77.500, 0.000, 0.000, -2.800, 0.0, , , , , , 98, , , 0, 0, 0
38.1754139, -120.0595594, 34.000, 13:03:46.599, 14, 0.00, 0.21, 97, -2.000, 3.000, 78.200, 2, 100, 97, 22, 22778, -23537, 5326, 5491, 11, 14, 1526155426.599, 15, 0, 1024, 1024, 1024, 1024, 0, 6, 3792, 3770, 3751, 3768, 3829, 3801, 0, 1, 17201, -89.900, 0.000, 77.500, 0.000, 0.000, -2.800, 0.0, , , , , , 98, , , 0, 0, 0
38.1754139, -120.0595594, 34.300, 13:03:46.699, 14, 0.00, 0.20, 97, -1.900, 3.300, 78.100, 2, 100, 97, 22, 22778, -23537, 5326, 5491, 11, 14, 1526155426.699, 20, 0, 1024, 1024, 1024, 1024, 0, 6, 3792, 3770, 3751, 3768, 3829, 3801, 0, 1, 17301, -89.900, 0.000, 77.500, 0.000, 0.000, -2.900, 0.0, , , , , , 98, , , 0, 0, 0
38.1754138, -120.0595594, 34.600, 13:03:46.798, 14, 0.00, 0.20, 97, -2.000, 3.500, 78.100, 2, 100, 97, 22, 22778, -23537, 5326, 5491, 11, 14, 1526155426.799, 12, 0, 1024, 1024, 1024, 1024, 0, 6, 3792, 3770, 3751, 3768, 3829, 3801, 0, 1, 17401, -89.900, 0.000, 77.500, 0.000, 0.000, -2.900, 0.0, , , , , , 98, , , 0, 0, 0
38.1754138, -120.0595594, 34.600, 13:03:46.898, 14, 0.00, 0.20, 97, -2.000, 3.500, 78.100, 2, 100, 97, 22, 22778, -23537, 5326, 5491, 11, 14, 1526155426.898, 112, 0, 1024, 1024, 1024, 1024, 0, 6, 3792, 3770, 3751, 3768, 3829, 3801, 0, 1, 17500, -89.900, 0.000, 77.500, 0.000, 0.000, -2.900, 0.0, , , , , , 98, , , 0, 0, 0
38.1754138, -120.0595593, 34.900, 13:03:46.999, 14, 0.00, 0.20, 97, -2.200, 3.600, 78.000, 2, 100, 98, 22, 22778, -23537, 5326, 5491, 11, 14, 1526155426.999, 78, 0, 1024, 1024, 1024, 1024, 0, 6, 3792, 3770, 3751, 3768, 3829, 3801, 0, 1, 17601, -89.900, 0.000, 77.500, 0.000, 0.000, -2.900, 0.0, , , , , , 98, , , 0, 0, 0
38.1754138, -120.0595593, 35.200, 13:03:47.099, 14, 0.00, 0.20, 97, -2.400, 3.700, 78.000, 2, 100, 98, 22, 22778, -23537, 5326, 5491, 11, 14, 1526155427.099, 89, 0, 1024, 1024, 1024, 1024, 0, 6, 3792, 3770, 3751, 3768, 3829, 3801, 0, 1, 17701, -89.900, 0.000, 77.500, 0.000, 0.000, -2.900, 0.0, , , , , , 98, , , 0, 0, 0
38.1754137, -120.0595592, 35.500, 13:03:47.199, 14, 0.00, 0.19, 97, -2.700, 3.900, 78.200, 2, 100, 98, 22, 22778, -23537, 5326, 5491, 11, 14, 1526155427.200, 73, 0, 1024, 1024, 1024, 1024, 0, 6, 3792, 3770, 3751, 3768, 3829, 3801, 0, 1, 17802, -89.900, 0.000, 77.500, 0.000, 0.000, -2.900, 0.0, , , , , , 98, , , 0, 0, 0
38.1754137, -120.0595592, 35.800, 13:03:47.298, 14, 0.00, 0.18, 97, -3.100, 4.000, 78.300, 2, 100, 98, 22, 22778, -23537, 5326, 5491, 11, 14, 1526155427.299, 74, 0, 1024, 1024, 1024, 1024, 0, 6, 3792, 3770, 3751, 3768, 3829, 3801, 0, 1, 17900, -89.900, 0.000, 77.500, 0.000, 0.000, -2.900, 0.0, , , , , , 98, , , 0, 0, 0
38.1754136, -120.0595591, 36.000, 13:03:47.398, 14, 0.00, 0.18, 97, -3.300, 4.200, 78.400, 2, 100, 99, 22, 22660, -23858, 5326, 5491, 11, 14, 1526155427.399, 36, 0, 1024, 1024, 1024, 1024, 0, 6, 3792, 3770, 3751, 3768, 3829, 3801, 0, 1, 18001, -89.900, 0.000, 77.500, 0.000, 0.000, -2.800, 0.0, , , , , , 98, , , 0, 0, 0
38.1754136, -120.0595590, 36.300, 13:03:47.499, 14, 0.00, 0.18, 97, -3.400, 4.300, 78.700, 2, 100, 99, 22, 22660, -23858, 5326, 5491, 11, 14, 1526155427.499, 78, 0, 1024, 1024, 1024, 1024, 0, 6, 3792, 3770, 3751, 3768, 3829, 3801, 0, 1, 18101, -89.900, 0.000, 77.500, 0.000, 0.000, -2.900, 0.0, , , , , , 98, , , 0, 0, 0
38.1754137, -120.0595589, 36.900, 13:03:47.599, 14, 0.00, 0.19, 97, -1.500, 4.800, 79.100, 2, 100, 99, 22, 22660, -23858, 5326, 5491, 11, 14, 1526155427.599, 76, 0, 1024, 1024, 1024, 1024, 0, 6, 3792, 3770, 3751, 3768, 3829, 3801, 0, 1, 18201, -89.900, 0.000, 77.500, 0.000, 0.000, -3.000, 0.0, , , , , , 98, , , 0, 0, 0
38.1754138, -120.0595589, 37.200, 13:03:47.699, 14, 0.00, 0.20, 97, -1.200, 4.900, 79.100, 2, 100, 99, 22, 22660, -23858, 5326, 5491, 11, 14, 1526155427.699, 70, 0, 1024, 1024, 1024, 1024, 0, 6, 3792, 3770, 3751, 3768, 3829, 3801, 0, 1, 18301, -89.900, 0.000, 77.500, 0.000, 0.000, -3.100, 0.0, , , , , , 98, , , 0, 0, 0
38.1754138, -120.0595589, 37.200, 13:03:47.799, 14, 0.00, 0.20, 97, -1.200, 4.900, 79.100, 2, 100, 99, 22, 22660, -23858, 5326, 5491, 11, 14, 1526155427.799, 170, 0, 1024, 1024, 1024, 1024, 0, 6, 3792, 3770, 3751, 3768, 3829, 3801, 0, 1, 18401, -89.900, 0.000, 77.500, 0.000, 0.000, -3.100, 0.0, , , , , , 98, , , 0, 0, 0
38.1754139, -120.0595590, 37.800, 13:03:47.899, 14, 0.00, 0.21, 97, -1.200, 4.300, 78.900, 2, 100, 97, 22, 22660, -23858, 5326, 5491, 11, 14, 1526155427.899, 61, 0, 1024, 1024, 1024, 1024, 0, 6, 3780, 3762, 3750, 3777, 3815, 3794, 0, 1, 18501, -89.900, 0.000, 77.500, 0.000, 0.000, -3.000, 0.0, , , , , , 98, , , 0, 0, 0
38.1754139, -120.0595590, 37.800, 13:03:47.998, 14, 0.00, 0.21, 97, -1.200, 4.300, 78.900, 2, 100, 97, 22, 22660, -23858, 5326, 5491, 11, 14, 1526155427.998, 160, 0, 1024, 1024, 1024, 1024, 0, 6, 3780, 3762, 3750, 3777, 3815, 3794, 0, 1, 18600, -89.900, 0.000, 77.500, 0.000, 0.000, -3.000, 0.0, , , , , , 98, , , 0, 0, 0
38.1754141, -120.0595591, 38.400, 13:03:48.099, 14, 0.00, 0.24, 97, -0.600, 3.900, 78.600, 2, 100, 97, 22, 22660, -23858, 5326, 5491, 11, 14, 1526155428.099, 58, 0, 1024, 1024, 1024, 1024, 0, 6, 3780, 3762, 3750, 3777, 3815, 3794, 0, 1, 18701, -89.900, 0.000, 77.500, 0.000, 0.000, -3.100, 0.0, , , , , , 98, , , 0, 0, 0
38.1754142, -120.0595591, 38.800, 13:03:48.199, 14, 0.00, 0.24, 97, -0.400, 3.800, 78.400, 2, 100, 97, 22, 22660, -23858, 5326, 5491, 11, 14, 1526155428.199, 48, 0, 1024, 1024, 1024, 1024, 0, 6, 3780, 3762, 3750, 3777, 3815, 3794, 0, 1, 18801, -89.900, 0.000, 77.500, 0.000, 0.000, -3.100, 0.0, , , , , , 98, , , 0, 0, 0
38.1754143, -120.0595592, 39.000, 13:03:48.299, 14, 0.00, 0.25, 97, -0.400, 3.700, 78.300, 2, 100, 97, 22, 22660, -23858, 5326, 5491, 11, 14, 1526155428.301, 29, 0, 1024, 1024, 1024, 1024, 0, 6, 3780, 3762, 3750, 3777, 3815, 3794, 0, 1, 18902, -89.900, 0.000, 77.500, 0.000, 0.000, -3.000, 0.0, , , , , , 98, , , 0, 0, 0
38.1754144, -120.0595591, 39.400, 13:03:48.399, 14, 0.00, 0.26, 97, -0.300, 4.000, 78.300, 2, 100, 94, 22, 22660, -23858, 5326, 5491, 11, 14, 1526155428.400, 25, 0, 1024, 1024, 1024, 1024, 0, 6, 3780, 3762, 3750, 3777, 3815, 3794, 0, 1, 19002, -89.900, 0.000, 77.500, 0.000, 0.000, -3.100, 0.0, , , , , , 98, , , 0, 0, 0
38.1754145, -120.0595591, 39.700, 13:03:48.499, 14, 0.00, 0.28, 97, -0.200, 4.400, 78.300, 2, 100, 94, 22, 22660, -23858, 5326, 5491, 11, 14, 1526155428.499, 38, 0, 1024, 1024, 1024, 1024, 0, 6, 3780, 3762, 3750, 3777, 3815, 3794, 0, 1, 19101, -89.900, 0.000, 77.500, 0.000, 0.000, -3.100, 0.0, , , , , , 98, , , 0, 0, 0
38.1754145, -120.0595591, 39.700, 13:03:48.598, 14, 0.00, 0.28, 97, -0.200, 4.400, 78.300, 2, 100, 94, 22, 22660, -23858, 5326, 5491, 11, 14, 1526155428.598, 137, 0, 1024, 1024, 1024, 1024, 0, 6, 3780, 3762, 3750, 3777, 3815, 3794, 0, 1, 19200, -89.900, 0.000, 77.500, 0.000, 0.000, -3.100, 0.0, , , , , , 98, , , 0, 0, 0
38.1754147, -120.0595591, 40.300, 13:03:48.698, 14, 0.00, 0.30, 97, 0.100, 4.700, 78.500, 2, 100, 94, 22, 22660, -23858, 5326, 5491, 11, 14, 1526155428.699, 7, 0, 1024, 1024, 1024, 1024, 0, 6, 3780, 3762, 3750, 3777, 3815, 3794, 0, 1, 19300, -89.900, 0.000, 77.500, 0.000, 0.000, -3.100, 0.0, , , , , , 98, , , 0, 0, 0
38.1754149, -120.0595591, 40.600, 13:03:48.799, 14, 0.00, 0.32, 97, 0.500, 4.600, 78.600, 2, 100, 94, 22, 22779, -22809, 5326, 5491, 11, 14, 1526155428.799, 22, 0, 1024, 1024, 1024, 1024, 0, 6, 3796, 3776, 3792, 3805, 3853, 3804, 0, 1, 19401, -89.900, 0.000, 77.500, 0.000, 0.000, -3.100, 0.0, , , , , , 98, , , 0, 0, 0
38.1754150, -120.0595591, 40.900, 13:03:48.911, 14, 0.00, 0.33, 97, 1.000, 4.500, 78.600, 2, 100, 95, 22, 22779, -22809, 5326, 5491, 11, 14, 1526155428.911, 12, 0, 1024, 1024, 1024, 1024, 0, 6, 3796, 3776, 3792, 3805, 3853, 3804, 0, 1, 19513, -89.900, 0.000, 77.500, 0.000, 0.000, -3.000, 0.0, , , , , , 98, , , 0, 0, 0
38.1754151, -120.0595591, 41.200, 13:03:48.998, 14, 0.00, 0.35, 97, 1.100, 4.700, 78.700, 2, 100, 95, 22, 22779, -22809, 5326, 5491, 11, 14, 1526155428.999, 10, 0, 1024, 1024, 1024, 1024, 0, 6, 3796, 3776, 3792, 3805, 3853, 3804, 0, 1, 19601, -89.900, 0.000, 77.500, 0.000, 0.000, -3.000, 0.0, , , , , , 98, , , 0, 0, 0
38.1754152, -120.0595591, 41.500, 13:03:49.122, 14, 0.00, 0.36, 97, 1.200, 4.500, 78.600, 2, 100, 95, 22, 22779, -22809, 5326, 5491, 11, 14, 1526155429.123, 24, 0, 1024, 1024, 1024, 1024, 0, 6, 3796, 3776, 3792, 3805, 3853, 3804, 0, 1, 19725, -89.900, 0.000, 77.500, 0.000, 0.000, -3.000, 0.0, , , , , , 98, , , 0, 0, 0
38.1754153, -120.0595591, 41.800, 13:03:49.198, 14, 0.00, 0.37, 97, 0.900, 4.700, 78.500, 2, 100, 95, 22, 22779, -22809, 5326, 5491, 11, 14, 1526155429.199, 14, 0, 1024, 1024, 1024, 1024, 0, 6, 3796, 3776, 3792, 3805, 3853, 3804, 0, 1, 19801, -89.900, 0.000, 77.500, 0.000, 0.000, -3.000, 0.0, , , , , , 98, , , 0, 0, 0
38.1754154, -120.0595590, 42.100, 13:03:49.298, 14, 0.00, 0.37, 97, 0.800, 5.100, 78.400, 2, 100, 95, 22, 22779, -22809, 5326, 5491, 11, 14, 1526155429.299, 9, 0, 1024, 1024, 1024, 1024, 0, 6, 3796, 3776, 3792, 3805, 3853, 3804, 0, 1, 19901, -89.900, 0.000, 77.500, 0.000, 0.000, -2.900, 0.0, , , , , , 98, , , 0, 0, 0
38.1754154, -120.0595590, 42.100, 13:03:49.399, 14, 0.00, 0.37, 97, 0.800, 5.100, 78.400, 2, 100, 97, 22, 22779, -22809, 5326, 5491, 11, 14, 1526155429.400, 110, 0, 1024, 1024, 1024, 1024, 0, 6, 3796, 3776, 3792, 3805, 3853, 3804, 0, 1, 20002, -89.900, 0.000, 77.500, 0.000, 0.000, -2.900, 0.0, , , , , , 98, , , 0, 0, 0
38.1754155, -120.0595590, 42.400, 13:03:49.499, 14, 0.00, 0.38, 97, 0.500, 5.300, 78.500, 2, 100, 97, 22, 22779, -22809, 5326, 5491, 11, 14, 1526155429.499, 97, 0, 1024, 1024, 1024, 1024, 0, 6, 3796, 3776, 3792, 3805, 3853, 3804, 0, 1, 20101, -89.900, 0.000, 77.500, 0.000, 0.000, -2.900, 0.0, , , , , , 98, , , 0, 0, 0
38.1754155, -120.0595589, 42.700, 13:03:49.598, 14, 0.00, 0.39, 97, 0.200, 5.500, 78.500, 2, 100, 97, 22, 22779, -22809, 5326, 5491, 11, 14, 1526155429.598, 75, 0, 1024, 1024, 1024, 1024, 0, 6, 3796, 3776, 3792, 3805, 3853, 3804, 0, 1, 20200, -89.900, 0.000, 77.500, 0.000, 0.000, -2.900, 0.0, , , , , , 98, , , 0, 0, 0
38.1754156, -120.0595588, 43.000, 13:03:49.698, 14, 0.00, 0.40, 97, 0.100, 5.600, 78.500, 2, 100, 97, 22, 22779, -22809, 5326, 5491, 11, 14, 1526155429.698, 80, 0, 1024, 1024, 1024, 1024, 0, 6, 3796, 3776, 3792, 3805, 3853, 3804, 0, 1, 20300, -89.900, 0.000, 77.500, 0.000, 0.000, -2.800, 0.0, , , , , , 98, , , 0, 0, 0
38.1754157, -120.0595587, 43.300, 13:03:49.799, 14, 0.00, 0.42, 97, 0.600, 5.700, 78.500, 2, 100, 97, 22, 22779, -22809, 5326, 5491, 11, 14, 1526155429.799, 73, 0, 1024, 1024, 1024, 1024, 0, 6, 3796, 3776, 3792, 3805, 3853, 3804, 0, 1, 20401, -89.900, 0.000, 77.500, 0.000, 0.000, -2.800, 0.0, , , , , , 98, , , 0, 0, 0
38.1754160, -120.0595585, 43.800, 13:03:49.899, 14, 0.00, 0.45, 97, 1.400, 6.800, 78.500, 2, 100, 98, 22, 22998, -19202, 5271, 5491, 11, 14, 1526155429.899, 70, 0, 1024, 1024, 1024, 1024, 0, 6, 3850, 3832, 3810, 3837, 3872, 3846, 0, 1, 20501, -89.900, 0.000, 77.500, 0.000, 0.000, -2.900, 0.0, , , , , , 98, , , 0, 0, 0
38.1754160, -120.0595585, 43.800, 13:03:49.999, 14, 0.00, 0.45, 97, 1.400, 6.800, 78.500, 2, 100, 98, 22, 22998, -19202, 5271, 5491, 11, 14, 1526155430.000, 171, 0, 1024, 1024, 1024, 1024, 0, 6, 3850, 3832, 3810, 3837, 3872, 3846, 0, 1, 20601, -89.900, 0.000, 77.500, 0.000, 0.000, -2.900, 0.0, , , , , , 98, , , 0, 0, 0
38.1754163, -120.0595583, 44.400, 13:03:50.099, 14, 0.00, 0.48, 97, 1.600, 7.100, 78.300, 2, 100, 98, 22, 22998, -19202, 5271, 5491, 11, 14, 1526155430.099, 67, 0, 1024, 1024, 1024, 1024, 0, 6, 3850, 3832, 3810, 3837, 3872, 3846, 0, 1, 20701, -89.900, 0.000, 77.500, 0.000, 0.000, -3.000, 0.0, , , , , , 98, , , 0, 0, 0
38.1754163, -120.0595582, 44.700, 13:03:50.198, 14, 0.00, 0.49, 97, 1.400, 7.100, 78.100, 2, 100, 98, 22, 22998, -19202, 5271, 5491, 11, 14, 1526155430.199, 48, 0, 1024, 1024, 1024, 1024, 0, 6, 3850, 3832, 3810, 3837, 3872, 3846, 0, 1, 20801, -89.900, 0.000, 77.500, 0.000, 0.000, -3.000, 0.0, , , , , , 98, , , 0, 0, 0
38.1754164, -120.0595581, 45.000, 13:03:50.299, 14, 0.00, 0.49, 96, 1.300, 7.600, 78.000, 2, 100, 98, 22, 22998, -19202, 5271, 5491, 11, 14, 1526155430.299, 52, 0, 1024, 1024, 1024, 1024, 0, 6, 3850, 3832, 3810, 3837, 3872, 3846, 0, 1, 20901, -89.900, 0.000, 77.500, 0.000, 0.000, -3.000, 0.0, , , , , , 98, , , 0, 0, 0
38.1754164, -120.0595581, 45.300, 13:03:50.399, 14, 0.00, 0.50, 96, 1.400, 7.800, 77.800, 2, 100, 98, 22, 22998, -19202, 5271, 5491, 11, 14, 1526155430.399, 68, 0, 1024, 1024, 1024, 1024, 0, 6, 3850, 3832, 3810, 3837, 3872, 3846, 0, 1, 21001, -89.900, 0.000, 77.500, 0.000, 0.000, -3.100, 0.0, , , , , , 98, , , 0, 0, 0
38.1754164, -120.0595581, 45.300, 13:03:50.499, 14, 0.00, 0.50, 96, 1.400, 7.800, 77.800, 2, 100, 98, 22, 22998, -19202, 5271, 5491, 11, 14, 1526155430.499, 169, 0, 1024, 1024, 1024, 1024, 0, 6, 3850, 3832, 3810, 3837, 3872, 3846, 0, 1, 21101, -89.900, 0.000, 77.500, 0.000, 0.000, -3.100, 0.0, , , , , , 98, , , 0, 0, 0
38.1754165, -120.0595581, 45.900, 13:03:50.607, 14, 0.00, 0.50, 96, 1.400, 7.100, 78.100, 2, 100, 98, 22, 22998, -19202, 5271, 5491, 11, 14, 1526155430.610, 11, 0, 1024, 1024, 1024, 1024, 0, 6, 3850, 3832, 3810, 3837, 3872, 3846, 0, 1, 21212, -90.000, 0.000, 77.500, 0.000, 0.000, -2.900, 0.0, , , , , , 98, , , 0, 0, 0
38.1754165, -120.0595581, 45.900, 13:03:50.698, 14, 0.00, 0.50, 96, 1.400, 7.100, 78.100, 2, 100, 98, 22, 22998, -19202, 5271, 5491, 11, 14, 1526155430.699, 100, 0, 1024, 1024, 1024, 1024, 0, 6, 3850, 3832, 3810, 3837, 3872, 3846, 0, 1, 21300, -90.000, 0.000, 77.500, 0.000, 0.000, -2.900, 0.0, , , , , , 98, , , 0, 0, 0
