Latitude, Longitude, Altitude (m), Time, Sats, Speed (m/s), Range (m), Battery (%), Roll (deg), Pitch (deg), Yaw (deg), Images, HD Signal (%), RC Signal (%), Battery Temp (C), Battery Voltage (mV), Battery Current (mA), Battery Energy (mAh), Battery Capacity (mAh), Battery Discharges, flyState, timestamp (Unix), LastUpdate (ms), radioChannel, Rc_elevator, Rc_aileron, Rc_throttle, Rc_rudder, Rc_gyro, Dronetype, Battery_Cell1 (mV), Battery_Cell2 (mV), Battery_Cell3 (mV), Battery_Cell4 (mV), Battery_Cell5 (mV), Battery_Cell6 (mV), Video, isFlying, elapsedTime (ms), gimbalPitch (deg), gimbalRoll (deg), gimbalYaw (deg), VelocityX (m/s), VelocityY (m/s), VelocityZ (m/s), GroundSmear (cm), App Version, Aircraft Name, Aircraft Firmware, Aircraft Serial Number, Battery Serial Number, Battery Lifetime (%), App_Tip, App_Warning, CurrentFlightStartingIndex, CurrentFlightLastVisitedWaypoint, PreviousFlightEndingWaypointIndex
38.1754064, -120.0595488, 0.000, 14:16:01.424, 14, 0.00, 0.04, 100, -0.700, 0.100, 63.200, 1407, 100, 100, 23, 25937, -1290, 5434, 5434, 14, 11, 1526159761.425, 59, 0, 1024, 1024, 1024, 1024, 0, 6, 4316, 4324, 4324, 4327, 4319, 4323, 0, 1, 3031, -90.000, 0.000, 63.500, 0.000, 0.000, -0.100, 0.0, MapPilot_2.8.1_04242018, Dendroctonus I, 1.3.1.00, 041DDC1887, 1058171200140, 97, DJI_0412.jpg, Starting Mission from Lat/Long: 38.17541/-120.05955 Camera: Zenmuse X3 - Overlap: 90/90 - Active Connection: No, 49, 49, 49
38.1754064, -120.0595488, 0.000, 14:16:01.494, 14, 0.00, 0.04, 100, -0.700, 0.000, 63.300, 1407, 100, 100, 23, 25791, -4070, 5434, 5434, 14, 11, 1526159761.495, 58, 0, 1024, 1024, 1024, 1024, 0, 6, 4281, 4303, 4294, 4318, 4282, 4314, 0, 1, 3101, -89.900, 0.000, 63.500, 0.000, 0.000, -0.200, 0.0, , , , , , 97, , , 49, 49, 49
38.1754065, -120.0595488, 0.000, 14:16:01.594, 14, 0.00, 0.05, 100, -0.100, 0.000, 63.400, 1407, 100, 100, 23, 25791, -4070, 5434, 5434, 14, 11, 1526159761.594, 46, 0, 1024, 1024, 1024, 1024, 0, 6, 4281, 4303, 4294, 4318, 4282, 4314, 0, 1, 3200, -90.000, 0.000, 63.500, 0.000, 0.000, -0.200, 0.0, , , , , , 97, , , 49, 49, 49
38.1754065, -120.0595489, 0.100, 14:16:01.694, 14, 0.00, 0.05, 100, 0.400, 0.000, 63.400, 1407, 100, 100, 23, 25791, -4070, 5434, 5434, 14, 11, 1526159761.694, 36, 0, 1024, 1024, 1024, 1024, 0, 6, 4281, 4303, 4294, 4318, 4282, 4314, 0, 1, 3300, -89.900, 0.000, 63.500, 0.000, 0.000, -0.300, 0.0, , , , , , 97, , , 49, 49, 49
38.1754066, -120.0595489, 0.100, 14:16:01.794, 14, 0.00, 0.06, 100, 0.500, 0.200, 63.500, 1407, 100, 100, 23, 25791, -4070, 5434, 5434, 14, 11, 1526159761.794, 8, 0, 1024, 1024, 1024, 1024, 0, 6, 4281, 4303, 4294, 4318, 4282, 4314, 0, 1, 3400, -89.900, 0.000, 63.500, 0.000, 0.000, -0.400, 0.0, , , , , , 97, , , 49, 49, 49
38.1754066, -120.0595489, 0.100, 14:16:01.894, 14, 0.00, 0.06, 100, 0.500, 0.200, 63.500, 1407, 100, 100, 23, 25791, -4070, 5434, 5434, 14, 11, 1526159761.894, 108, 0, 1024, 1024, 1024, 1024, 0, 6, 4281, 4303, 4294, 4318, 4282, 4314, 0, 1, 3500, -89.900, 0.000, 63.500, 0.000, 0.000, -0.400, 0.0, , , , , , 97, , , 49, 49, 49
38.1754067, -120.0595488, 0.200, 14:16:01.994, 14, 0.00, 0.07, 100, 0.000, 0.000, 63.400, 1407, 100, 100, 23, 25791, -4070, 5434, 5434, 14, 11, 1526159761.994, 13, 0, 1024, 1024, 1024, 1024, 0, 6, 4281, 4303, 4294, 4318, 4282, 4314, 0, 1, 3600, -89.900, 0.000, 63.500, 0.000, 0.000, -0.400, 0.0, , , , , , 97, , , 49, 49, 49
38.1754067, -120.0595488, 0.300, 14:16:02.094, 14, 0.00, 0.07, 100, 0.000, 0.100, 63.300, 1407, 100, 100, 23, 25791, -4070, 5434, 5434, 14, 11, 1526159762.094, 36, 0, 1024, 1024, 1024, 1024, 0, 6, 4281, 4303, 4294, 4318, 4282, 4314, 0, 1, 3701, -89.900, 0.000, 63.500, 0.000, 0.000, -0.400, 0.0, , , , , , 97, , , 49, 49, 49
38.1754068, -120.0595487, 0.300, 14:16:02.194, 13, 0.00, 0.07, 100, -0.200, 0.300, 63.100, 1407, 100, 100, 23, 25791, -4070, 5434, 5434, 14, 11, 1526159762.194, 27, 0, 1024, 1024, 1024, 1024, 0, 6, 4281, 4303, 4294, 4318, 4282, 4314, 0, 1, 3801, -89.900, 0.000, 63.500, 0.000, 0.000, -0.400, 0.0, , , , , , 97, , , 49, 49, 49
38.1754068, -120.0595486, 0.400, 14:16:02.294, 13, 0.00, 0.07, 100, -0.500, 0.400, 63.000, 1407, 100, 100, 23, 25791, -4070, 5434, 5434, 14, 11, 1526159762.294, 19, 0, 1024, 1024, 1024, 1024, 0, 6, 4281, 4303, 4294, 4318, 4282, 4314, 0, 1, 3900, -89.900, 0.000, 63.500, 0.000, 0.000, -0.400, 0.0, , , , , , 97, , , 49, 49, 49
38.1754068, -120.0595486, 0.400, 14:16:02.394, 13, 0.00, 0.08, 100, -0.700, 0.400, 62.900, 1407, 100, 100, 23, 24909, -9908, 5325, 5434, 14, 11, 1526159762.394, 17, 0, 1024, 1024, 1024, 1024, 0, 6, 4281, 4303, 4294, 4318, 4282, 4314, 0, 1, 4000, -89.900, 0.000, 63.500, 0.000, 0.000, -0.400, 0.0, , , , , , 97, , , 49, 49, 49
38.1754068, -120.0595486, 0.400, 14:16:02.494, 13, 0.00, 0.08, 100, -0.700, 0.400, 62.900, 1407, 100, 100, 23, 24909, -9908, 5325, 5434, 14, 11, 1526159762.494, 116, 0, 1024, 1024, 1024, 1024, 0, 6, 4111, 4171, 4143, 4169, 4087, 4124, 0, 1, 4100, -89.900, 0.000, 63.500, 0.000, 0.000, -0.400, 0.0, , , , , , 97, , , 49, 49, 49
38.1754069, -120.0595486, 0.500, 14:16:02.594, 13, 0.00, 0.09, 100, -0.400, 0.400, 62.700, 1407, 100, 100, 23, 24909, -9908, 5325, 5434, 14, 11, 1526159762.594, 86, 0, 1024, 1024, 1024, 1024, 0, 6, 4111, 4171, 4143, 4169, 4087, 4124, 0, 1, 4201, -89.900, 0.000, 63.500, 0.000, 0.000, -0.400, 0.0, , , , , , 97, , , 49, 49, 49
38.1754070, -120.0595485, 0.500, 14:16:02.694, 14, 0.00, 0.10, 100, -0.100, 0.600, 62.600, 1407, 100, 100, 23, 24909, -9908, 5325, 5434, 14, 11, 1526159762.694, 97, 0, 1024, 1024, 1024, 1024, 0, 6, 4111, 4171, 4143, 4169, 4087, 4124, 0, 1, 4300, -89.900, 0.000, 63.500, 0.000, 0.000, -0.400, 0.0, , , , , , 97, , , 49, 49, 49
38.1754071, -120.0595484, 0.600, 14:16:02.800, 14, 0.00, 0.11, 98, 0.400, 0.800, 62.600, 1407, 100, 100, 23, 24909, -9908, 5325, 5434, 14, 11, 1526159762.800, 7, 0, 1024, 1024, 1024, 1024, 0, 6, 4111, 4171, 4143, 4169, 4087, 4124, 0, 1, 4406, -89.900, 0.000, 63.500, 0.000, 0.000, -0.500, 0.0, , , , , , 97, , , 49, 49, 49
38.1754071, -120.0595484, 0.600, 14:16:02.894, 14, 0.00, 0.11, 98, 0.400, 0.800, 62.600, 1407, 100, 100, 23, 24909, -9908, 5325, 5434, 14, 11, 1526159762.894, 101, 0, 1024, 1024, 1024, 1024, 0, 6, 4111, 4171, 4143, 4169, 4087, 4124, 0, 1, 4501, -89.900, 0.000, 63.500, 0.000, 0.000, -0.500, 0.0, , , , , , 97, , , 49, 49, 49
38.1754071, -120.0595483, 0.700, 14:16:02.994, 14, 0.00, 0.11, 98, 0.500, 0.800, 62.800, 1407, 100, 100, 23, 24909, -9908, 5325, 5434, 14, 11, 1526159762.994, 91, 0, 1024, 1024, 1024, 1024, 0, 6, 4111, 4171, 4143, 4169, 4087, 4124, 0, 1, 4600, -89.900, 0.000, 63.500, 0.000, 0.000, -0.500, 0.0, , , , , , 97, , , 49, 49, 49
38.1754071, -120.0595482, 0.800, 14:16:03.094, 14, 0.00, 0.12, 98, 0.500, 1.000, 63.100, 1407, 100, 100, 23, 24909, -9908, 5325, 5434, 14, 11, 1526159763.094, 82, 0, 1024, 1024, 1024, 1024, 0, 6, 4111, 4171, 4143, 4169, 4087, 4124, 0, 1, 4700, -89.900, 0.000, 63.500, 0.000, 0.000, -0.400, 0.0, , , , , , 97, , , 49, 49, 49
38.1754071, -120.0595480, 0.800, 14:16:03.194, 14, 0.00, 0.13, 98, 0.400, 1.300, 63.500, 1407, 100, 100, 23, 24909, -9908, 5325, 5434, 14, 11, 1526159763.194, 61, 0, 1024, 1024, 1024, 1024, 0, 6, 4111, 4171, 4143, 4169, 4087, 4124, 0, 1, 4800, -89.900, 0.000, 63.500, 0.000, 0.000, -0.500, 0.0, , , , , , 97, , , 49, 49, 49
38.1754072, -120.0595478, 0.900, 14:16:03.294, 13, 0.00, 0.13, 98, 0.200, 1.700, 63.700, 1407, 100, 100, 23, 24909, -9908, 5325, 5434, 14, 6, 1526159763.294, 89, 0, 1024, 1024, 1024, 1024, 0, 6, 4111, 4171, 4143, 4169, 4087, 4124, 0, 1, 4900, -89.900, 0.000, 63.500, 0.000, 0.000, -0.500, 0.0, , , , , , 97, , , 49, 49, 49
38.1754072, -120.0595478, 0.900, 14:16:03.394, 13, 0.00, 0.14, 98, 0.000, 1.900, 64.000, 1407, 100, 100, 23, 24525, -16450, 5325, 5434, 14, 14, 1526159763.394, 92, 0, 1024, 1024, 1024, 1024, 0, 6, 4111, 4171, 4143, 4169, 4087, 4124, 0, 1, 5001, -89.900, 0.000, 63.500, 0.000, 0.000, -0.400, 0.0, , , , , , 97, , , 49, 49, 49
38.1754072, -120.0595477, 1.000, 14:16:03.494, 13, 0.00, 0.14, 98, -0.300, 1.600, 64.200, 1407, 100, 100, 23, 24525, -16450, 5325, 5434, 14, 14, 1526159763.494, 70, 0, 1024, 1024, 1024, 1024, 0, 6, 4067, 4098, 4079, 4089, 4063, 4088, 0, 1, 5100, -89.900, 0.000, 63.500, 0.000, 0.000, -0.300, 0.0, , , , , , 97, , , 49, 49, 49
38.1754072, -120.0595476, 1.000, 14:16:03.595, 13, 0.00, 0.15, 98, -0.700, 1.300, 64.600, 1407, 100, 100, 23, 24525, -16450, 5325, 5434, 14, 14, 1526159763.596, 88, 0, 1024, 1024, 1024, 1024, 0, 6, 4067, 4098, 4079, 4089, 4063, 4088, 0, 1, 5202, -89.900, 0.000, 63.500, 0.000, 0.000, -0.200, 0.0, , , , , , 97, , , 49, 49, 49
38.1754072, -120.0595475, 1.100, 14:16:03.694, 13, 0.00, 0.15, 98, -0.600, 1.100, 64.800, 1407, 100, 100, 23, 24525, -16450, 5325, 5434, 14, 14, 1526159763.694, 81, 0, 1024, 1024, 1024, 1024, 0, 6, 4067, 4098, 4079, 4089, 4063, 4088, 0, 1, 5300, -90.000, 0.000, 63.500, 0.000, 0.000, -0.300, 0.0, , , , , , 97, , , 49, 49, 49
38.1754072, -120.0595474, 1.100, 14:16:03.794, 13, 0.00, 0.16, 98, -0.400, 1.100, 65.000, 1407, 100, 100, 23, 24525, -16450, 5325, 5434, 14, 14, 1526159763.794, 48, 0, 1024, 1024, 1024, 1024, 0, 6, 4067, 4098, 4079, 4089, 4063, 4088, 0, 1, 5400, -89.900, 0.000, 63.500, 0.000, 0.000, -0.400, 0.0, , , , , , 97, , , 49, 49, 49
38.1754072, -120.0595474, 1.200, 14:16:03.894, 13, 0.00, 0.16, 98, -0.200, 1.000, 65.300, 1407, 100, 100, 23, 24525, -16450, 5325, 5434, 14, 14, 1526159763.894, 54, 0, 1024, 1024, 1024, 1024, 0, 6, 4067, 4098, 4079, 4089, 4063, 4088, 0, 1, 5500, -89.900, 0.000, 63.500, 0.000, 0.000, -0.500, 0.0, , , , , , 97, , , 49, 49, 49
38.1754072, -120.0595473, 1.300, 14:16:03.994, 13, 0.00, 0.16, 98, 0.000, 0.900, 65.500, 1407, 100, 100, 23, 24525, -16450, 5325, 5434, 14, 14, 1526159763.994, 57, 0, 1024, 1024, 1024, 1024, 0, 6, 4067, 4098, 4079, 4089, 4063, 4088, 0, 1, 5600, -90.000, 0.000, 63.600, 0.000, 0.000, -0.600, 0.0, , , , , , 97, , , 49, 49, 49
38.1754073, -120.0595473, 1.300, 14:16:04.094, 13, 0.00, 0.17, 98, 0.000, 0.900, 65.700, 1407, 100, 100, 23, 24525, -16450, 5325, 5434, 14, 14, 1526159764.094, 38, 0, 1024, 1024, 1024, 1024, 0, 6, 4067, 4098, 4079, 4089, 4063, 4088, 0, 1, 5700, -89.900, 0.000, 63.600, 0.000, 0.000, -0.700, 0.0, , , , , , 97, , , 49, 49, 49
38.1754073, -120.0595472, 1.400, 14:16:04.194, 13, 0.00, 0.18, 98, 0.300, 1.000, 65.800, 1407, 100, 100, 23, 24525, -16450, 5325, 5434, 14, 14, 1526159764.194, 55, 0, 1024, 1024, 1024, 1024, 0, 6, 4067, 4098, 4079, 4089, 4063, 4088, 0, 1, 5801, -89.900, 0.000, 63.600, 0.000, 0.000, -0.900, 0.0, , , , , , 97, , , 49, 49, 49
38.1754074, -120.0595472, 1.500, 14:16:04.294, 14, 0.00, 0.19, 98, 0.500, 1.200, 65.800, 1407, 100, 100, 23, 24525, -16450, 5325, 5434, 14, 14, 1526159764.294, 47, 0, 1024, 1024, 1024, 1024, 0, 6, 4067, 4098, 4079, 4089, 4063, 4088, 0, 1, 5900, -89.900, 0.000, 63.700, 0.000, 0.000, -1.200, 0.0, , , , , , 97, , , 49, 49, 49
38.1754075, -120.0595471, 1.600, 14:16:04.394, 14, 0.00, 0.20, 98, 0.300, 1.400, 65.900, 1407, 100, 100, 23, 24377, -18750, 5325, 5434, 14, 14, 1526159764.394, 39, 0, 1024, 1024, 1024, 1024, 0, 6, 4067, 4098, 4079, 4089, 4063, 4088, 0, 1, 6001, -89.900, 0.000, 63.700, 0.000, 0.000, -1.400, 0.0, , , , , , 97, , , 49, 49, 49
38.1754076, -120.0595470, 1.800, 14:16:04.494, 14, 0.00, 0.21, 98, 0.200, 1.500, 65.900, 1407, 100, 100, 23, 24377, -18750, 5325, 5434, 14, 14, 1526159764.494, 53, 0, 1024, 1024, 1024, 1024, 0, 6, 4067, 4098, 4079, 4089, 4063, 4088, 0, 1, 6100, -89.900, 0.000, 63.800, 0.000, 0.000, -1.600, 0.0, , , , , , 97, , , 49, 49, 49
38.1754077, -120.0595469, 2.000, 14:16:04.594, 14, 0.00, 0.23, 98, 0.200, 1.600, 65.700, 1407, 100, 100, 23, 24377, -18750, 5325, 5434, 14, 14, 1526159764.594, 53, 0, 1024, 1024, 1024, 1024, 0, 6, 4067, 4098, 4079, 4089, 4063, 4088, 0, 1, 6200, -89.900, 0.000, 63.800, 0.000, 0.000, -1.800, 0.0, , , , , , 97, , , 49, 49, 49
38.1754081, -120.0595467, 2.400, 14:16:04.694, 14, 0.00, 0.28, 98, 0.700, 1.900, 65.500, 1407, 100, 100, 23, 24377, -18750, 5325, 5434, 14, 14, 1526159764.694, 5, 0, 1024, 1024, 1024, 1024, 0, 6, 4067, 4098, 4079, 4089, 4063, 4088, 0, 1, 6301, -89.900, 0.000, 63.800, 0.000, 0.000, -2.300, 0.0, , , , , , 97, , , 49, 49, 49
38.1754084, -120.0595466, 2.600, 14:16:04.794, 14, 0.00, 0.31, 98, 1.200, 2.300, 65.300, 1407, 100, 100, 23, 24377, -18750, 5325, 5434, 14, 14, 1526159764.794, 25, 0, 1024, 1024, 1024, 1024, 0, 6, 4067, 4098, 4079, 4089, 4063, 4088, 0, 1, 6401, -89.900, 0.000, 63.900, 0.000, 0.000, -2.500, 0.0, , , , , , 97, , , 49, 49, 49
38.1754086, -120.0595465, 2.900, 14:16:04.894, 14, 0.00, 0.33, 98, 1.600, 2.700, 65.100, 1407, 100, 100, 23, 24377, -18750, 5325, 5434, 14, 14, 1526159764.894, 14, 0, 1024, 1024, 1024, 1024, 0, 6, 4067, 4098, 4079, 4089, 4063, 4088, 0, 1, 6500, -89.900, 0.000, 63.900, 0.000, 0.000, -2.700, 0.0, , , , , , 97, , , 49, 49, 49
38.1754089, -120.0595464, 3.200, 14:16:04.995, 14, 0.00, 0.36, 98, 1.900, 2.900, 64.900, 1407, 100, 100, 23, 24377, -18750, 5325, 5434, 14, 14, 1526159764.996, 6, 0, 1024, 1024, 1024, 1024, 0, 6, 3983, 3997, 4072, 4074, 4046, 4072, 0, 1, 6602, -89.900, 0.000, 63.900, 0.000, 0.000, -3.000, 0.0, , , , , , 97, , , 49, 49, 49
38.1754091, -120.0595464, 3.500, 14:16:05.094, 14, 0.00, 0.39, 98, 2.100, 3.000, 64.800, 1407, 100, 100, 23, 24377, -18750, 5325, 5434, 14, 14, 1526159765.094, 19, 0, 1024, 1024, 1024, 1024, 0, 6, 3983, 3997, 4072, 4074, 4046, 4072, 0, 1, 6701, -89.900, 0.000, 64.000, 0.000, 0.000, -3.100, 0.0, , , , , , 97, , , 49, 49, 49
38.1754093, -120.0595464, 3.900, 14:16:05.194, 14, 0.00, 0.41, 98, 2.000, 3.000, 64.700, 1407, 100, 100, 23, 24377, -18750, 5325, 5434, 14, 14, 1526159765.194, 19, 0, 1024, 1024, 1024, 1024, 0, 6, 3983, 3997, 4072, 4074, 4046, 4072, 0, 1, 6800, -89.900, 0.000, 64.000, 0.000, 0.000, -3.200, 0.0, , , , , , 97, , , 49, 49, 49
38.1754094, -120.0595463, 4.200, 14:16:05.299, 14, 0.00, 0.42, 98, 1.600, 2.900, 64.800, 1407, 100, 100, 23, 24377, -18750, 5325, 5434, 14, 14, 1526159765.299, 5, 0, 1024, 1024, 1024, 1024, 0, 6, 3983, 3997, 4072, 4074, 4046, 4072, 0, 1, 6905, -89.900, 0.000, 64.000, 0.000, 0.000, -3.200, 0.0, , , , , , 97, , , 49, 49, 49
38.1754094, -120.0595463, 4.200, 14:16:05.394, 14, 0.00, 0.42, 98, 1.600, 2.900, 64.800, 1407, 100, 100, 23, 24377, -18750, 5325, 5434, 14, 14, 1526159765.394, 100, 0, 1024, 1024, 1024, 1024, 0, 6, 3983, 3997, 4072, 4074, 4046, 4072, 0, 1, 7001, -89.900, 0.000, 64.000, 0.000, 0.000, -3.200, 0.0, , , , , , 97, , , 49, 49, 49
38.1754095, -120.0595463, 4.600, 14:16:05.494, 14, 0.00, 0.43, 98, 1.300, 2.700, 64.900, 1407, 100, 100, 23, 24377, -18750, 5325, 5434, 14, 14, 1526159765.494, 92, 0, 1024, 1024, 1024, 1024, 0, 6, 3983, 3997, 4072, 4074, 4046, 4072, 0, 1, 7100, -89.900, 0.000, 64.000, 0.000, 0.000, -3.200, 0.0, , , , , , 97, , , 49, 49, 49
38.1754096, -120.0595463, 4.900, 14:16:05.594, 14, 0.00, 0.44, 98, 1.300, 2.600, 65.000, 1407, 100, 100, 23, 24377, -18750, 5325, 5434, 14, 14, 1526159765.594, 84, 0, 1024, 1024, 1024, 1024, 0, 6, 3983, 3997, 4072, 4074, 4046, 4072, 0, 1, 7201, -89.900, 0.000, 64.100, 0.000, 0.000, -3.200, 0.0, , , , , , 97, , , 49, 49, 49
38.1754096, -120.0595464, 5.300, 14:16:05.694, 14, 0.00, 0.44, 98, 1.400, 2.400, 65.100, 1407, 100, 100, 23, 24377, -18750, 5325, 5434, 14, 14, 1526159765.694, 85, 0, 1024, 1024, 1024, 1024, 0, 6, 3983, 3997, 4072, 4074, 4046, 4072, 0, 1, 7300, -89.900, 0.000, 64.100, 0.000, 0.000, -3.200, 0.0, , , , , , 97, , , 49, 49, 49
38.1754095, -120.0595463, 5.600, 14:16:05.794, 14, 0.10, 0.43, 98, 1.200, 2.200, 65.200, 1407, 100, 100, 23, 24377, -18750, 5325, 5434, 14, 14, 1526159765.795, 98, 0, 1024, 1024, 1024, 1024, 0, 6, 3983, 3997, 4072, 4074, 4046, 4072, 0, 1, 7401, -90.000, 0.000, 64.100, -0.100, 0.000, -3.200, 0.0, , , , , , 97, , , 49, 49, 49
38.1754094, -120.0595464, 5.900, 14:16:05.894, 14, 0.10, 0.41, 98, 0.700, 1.700, 65.200, 1407, 100, 100, 23, 24377, -18750, 5325, 5434, 14, 14, 1526159765.894, 70, 0, 1024, 1024, 1024, 1024, 0, 6, 3983, 3997, 4072, 4074, 4046, 4072, 0, 1, 7501, -89.900, 0.000, 64.100, -0.100, 0.000, -3.200, 0.0, , , , , , 97, , , 49, 49, 49
38.1754092, -120.0595464, 6.300, 14:16:05.994, 14, 0.10, 0.39, 98, 0.100, 1.400, 65.400, 1407, 100, 100, 23, 23603, -23989, 5325, 5434, 14, 14, 1526159765.994, 73, 0, 1024, 1024, 1024, 1024, 0, 6, 3905, 3946, 3959, 3973, 3949, 3980, 0, 1, 7600, -90.000, 0.000, 64.200, -0.100, 0.000, -3.200, 0.0, , , , , , 97, , , 49, 49, 49
38.1754089, -120.0595464, 6.600, 14:16:06.094, 14, 0.10, 0.37, 98, -0.400, 1.200, 65.500, 1407, 100, 100, 23, 23603, -23989, 5325, 5434, 14, 14, 1526159766.095, 59, 0, 1024, 1024, 1024, 1024, 0, 6, 3905, 3946, 3959, 3973, 3949, 3980, 0, 1, 7701, -90.000, 0.000, 64.200, -0.100, 0.000, -3.200, 0.0, , , , , , 97, , , 49, 49, 49
38.1754087, -120.0595464, 6.900, 14:16:06.194, 14, 0.10, 0.34, 98, -0.800, 1.300, 65.700, 1407, 100, 100, 23, 23603, -23989, 5325, 5434, 14, 14, 1526159766.194, 64, 0, 1024, 1024, 1024, 1024, 0, 6, 3905, 3946, 3959, 3973, 3949, 3980, 0, 1, 7801, -89.900, 0.000, 64.200, -0.100, 0.000, -3.200, 0.0, , , , , , 97, , , 49, 49, 49
38.1754084, -120.0595464, 7.300, 14:16:06.294, 14, 0.10, 0.32, 98, -1.100, 1.400, 65.800, 1407, 100, 100, 23, 23603, -23989, 5325, 5434, 14, 14, 1526159766.294, 79, 0, 1024, 1024, 1024, 1024, 0, 6, 3905, 3946, 3959, 3973, 3949, 3980, 0, 1, 7901, -89.900, 0.000, 64.200, -0.100, 0.000, -3.100, 0.0, , , , , , 97, , , 49, 49, 49
38.1754081, -120.0595464, 7.600, 14:16:06.394, 14, 0.10, 0.29, 98, -1.500, 1.400, 65.900, 1407, 100, 100, 23, 23603, -23989, 5325, 5434, 14, 14, 1526159766.394, 65, 0, 1024, 1024, 1024, 1024, 0, 6, 3905, 3946, 3959, 3973, 3949, 3980, 0, 1, 8000, -90.000, 0.000, 64.200, -0.100, 0.000, -3.100, 0.0, , , , , , 97, , , 49, 49, 49
38.1754079, -120.0595464, 7.900, 14:16:06.494, 14, 0.10, 0.27, 98, -1.900, 1.300, 65.900, 1407, 100, 100, 23, 23603, -23989, 5325, 5434, 14, 14, 1526159766.494, 59, 0, 1024, 1024, 1024, 1024, 0, 6, 3905, 3946, 3959, 3973, 3949, 3980, 0, 1, 8100, -90.000, 0.000, 64.200, -0.100, 0.000, -3.100, 0.0, , , , , , 97, , , 49, 49, 49
38.1754076, -120.0595464, 8.200, 14:16:06.594, 14, 0.10, 0.25, 98, -2.000, 1.000, 65.900, 1407, 100, 100, 23, 23603, -23989, 5325, 5434, 14, 14, 1526159766.594, 62, 0, 1024, 1024, 1024, 1024, 0, 6, 3905, 3946, 3959, 3973, 3949, 3980, 0, 1, 8201, -89.900, 0.000, 64.300, -0.100, 0.000, -3.000, 0.0, , , , , , 97, , , 49, 49, 49
38.1754074, -120.0595465, 8.600, 14:16:06.694, 14, 0.10, 0.23, 98, -2.000, 0.800, 65.800, 1407, 100, 100, 23, 23603, -23989, 5325, 5434, 14, 14, 1526159766.694, 52, 0, 1024, 1024, 1024, 1024, 0, 6, 3905, 3946, 3959, 3973, 3949, 3980, 0, 1, 8300, -90.000, 0.000, 64.300, -0.100, 0.000, -3.000, 0.0, , , , , , 97, , , 49, 49, 49
38.1754071, -120.0595466, 8.900, 14:16:06.794, 14, 0.10, 0.21, 98, -2.000, 0.500, 65.700, 1407, 100, 100, 23, 23603, -23989, 5325, 5434, 14, 14, 1526159766.794, 35, 0, 1024, 1024, 1024, 1024, 0, 6, 3905, 3946, 3959, 3973, 3949, 3980, 0, 1, 8401, -90.000, 0.000, 64.300, -0.100, 0.000, -3.000, 0.0, , , , , , 97, , , 49, 49, 49
38.1754069, -120.0595466, 9.200, 14:16:06.894, 14, 0.10, 0.20, 98, -2.000, 0.300, 65.700, 1407, 100, 100, 23, 23955, -18722, 5325, 5434, 14, 14, 1526159766.895, 32, 0, 1024, 1024, 1024, 1024, 0, 6, 3971, 3996, 4004, 4015, 3985, 4007, 0, 1, 8501, -90.000, 0.000, 64.300, -0.100, 0.000, -3.100, 0.0, , , , , , 97, , , 49, 49, 49
38.1754064, -120.0595466, 9.800, 14:16:06.997, 14, 0.00, 0.18, 98, -2.100, 0.400, 65.600, 1407, 100, 100, 23, 23955, -18722, 5325, 5434, 14, 14, 1526159766.998, 4, 0, 1024, 1024, 1024, 1024, 0, 6, 3971, 3996, 4004, 4015, 3985, 4007, 0, 1, 8604, -90.000, 0.000, 64.300, 0.000, 0.000, -3.000, 0.0, , , , , , 97, , , 49, 49, 49
38.1754064, -120.0595466, 9.800, 14:16:07.094, 14, 0.00, 0.18, 98, -2.100, 0.400, 65.600, 1407, 100, 100, 23, 23955, -18722, 5325, 5434, 14, 14, 1526159767.094, 101, 0, 1024, 1024, 1024, 1024, 0, 6, 3971, 3996, 4004, 4015, 3985, 4007, 0, 1, 8701, -90.000, 0.000, 64.300, 0.000, 0.000, -3.000, 0.0, , , , , , 97, , , 49, 49, 49
38.1754060, -120.0595466, 10.500, 14:16:07.194, 14, 0.00, 0.17, 98, -1.800, 0.800, 65.500, 1407, 100, 100, 23, 23955, -18722, 5325, 5434, 14, 14, 1526159767.195, 14, 0, 1024, 1024, 1024, 1024, 0, 6, 3971, 3996, 4004, 4015, 3985, 4007, 0, 1, 8801, -89.900, 0.000, 64.400, 0.000, 0.000, -3.000, 0.0, , , , , , 97, , , 49, 49, 49
38.1754059, -120.0595466, 10.800, 14:16:07.294, 14, 0.00, 0.18, 98, -1.500, 1.100, 65.400, 1407, 100, 100, 23, 23955, -18722, 5325, 5434, 14, 14, 1526159767.295, 30, 0, 1024, 1024, 1024, 1024, 0, 6, 3971, 3996, 4004, 4015, 3985, 4007, 0, 1, 8901, -89.900, 0.000, 64.400, 0.000, 0.000, -3.000, 0.0, , , , , , 97, , , 49, 49, 49
38.1754058, -120.0595466, 11.100, 14:16:07.394, 14, 0.00, 0.18, 98, -1.400, 1.400, 65.400, 1407, 100, 100, 23, 23955, -18722, 5325, 5434, 14, 14, 1526159767.395, 5, 0, 1024, 1024, 1024, 1024, 0, 6, 3971, 3996, 4004, 4015, 3985, 4007, 0, 1, 9001, -89.900, 0.000, 64.400, 0.000, 0.000, -3.000, 0.0, , , , , , 97, , , 49, 49, 49
38.1754057, -120.0595465, 11.400, 14:16:07.494, 14, 0.00, 0.19, 98, -1.500, 1.500, 65.400, 1407, 100, 100, 23, 23955, -18722, 5325, 5434, 14, 14, 1526159767.495, 10, 0, 1024, 1024, 1024, 1024, 0, 6, 3971, 3996, 4004, 4015, 3985, 4007, 0, 1, 9101, -89.900, 0.000, 64.400, 0.000, 0.000, -3.000, 0.0, , , , , , 97, , , 49, 49, 49
38.1754057, -120.0595465, 11.400, 14:16:07.594, 14, 0.00, 0.19, 98, -1.500, 1.500, 65.400, 1407, 100, 100, 23, 23955, -18722, 5325, 5434, 14, 14, 1526159767.594, 109, 0, 1024, 1024, 1024, 1024, 0, 6, 3971, 3996, 4004, 4015, 3985, 4007, 0, 1, 9201, -89.900, 0.000, 64.400, 0.000, 0.000, -3.000, 0.0, , , , , , 97, , , 49, 49, 49
38.1754056, -120.0595466, 11.700, 14:16:07.694, 14, 0.00, 0.19, 98, -1.500, 1.500, 65.400, 1407, 100, 100, 23, 23955, -18722, 5325, 5434, 14, 14, 1526159767.694, 94, 0, 1024, 1024, 1024, 1024, 0, 6, 3971, 3996, 4004, 4015, 3985, 4007, 0, 1, 9300, -89.900, 0.000, 64.400, 0.000, 0.000, -3.100, 0.0, , , , , , 97, , , 49, 49, 49
38.1754056, -120.0595466, 12.000, 14:16:07.794, 14, 0.00, 0.19, 98, -1.300, 1.400, 65.500, 1407, 100, 100, 23, 23955, -18722, 5325, 5434, 14, 14, 1526159767.794, 66, 0, 1024, 1024, 1024, 1024, 0, 6, 3971, 3996, 4004, 4015, 3985, 4007, 0, 1, 9400, -89.900, 0.000, 64.400, 0.000, 0.000, -3.000, 0.0, , , , , , 97, , , 49, 49, 49
38.1754055, -120.0595466, 12.300, 14:16:07.894, 14, 0.00, 0.18, 98, -1.100, 1.400, 65.500, 1407, 100, 100, 23, 23938, -19339, 5325, 5434, 14, 14, 1526159767.894, 96, 0, 1024, 1024, 1024, 1024, 0, 6, 3961, 3989, 3996, 4008, 3975, 3999, 0, 1, 9501, -90.000, 0.000, 64.500, 0.000, 0.000, -3.000, 0.0, , , , , , 97, , , 49, 49, 49
38.1754055, -120.0595467, 12.600, 14:16:07.994, 14, 0.00, 0.18, 98, -1.000, 1.200, 65.600, 1407, 100, 100, 23, 23938, -19339, 5325, 5434, 14, 14, 1526159767.994, 64, 0, 1024, 1024, 1024, 1024, 0, 6, 3961, 3989, 3996, 4008, 3975, 3999, 0, 1, 9601, -90.000, 0.000, 64.500, 0.000, 0.000, -2.900, 0.0, , , , , , 97, , , 49, 49, 49
38.1754055, -120.0595466, 13.000, 14:16:08.094, 14, 0.00, 0.18, 98, -0.900, 1.200, 65.600, 1407, 100, 100, 23, 23938, -19339, 5325, 5434, 14, 14, 1526159768.094, 55, 0, 1024, 1024, 1024, 1024, 0, 6, 3961, 3989, 3996, 4008, 3975, 3999, 0, 1, 9700, -90.000, 0.000, 64.500, 0.000, 0.000, -3.000, 0.0, , , , , , 97, , , 49, 49, 49
38.1754055, -120.0595466, 13.300, 14:16:08.194, 14, 0.00, 0.19, 98, -0.800, 1.300, 65.500, 1407, 100, 100, 23, 23938, -19339, 5325, 5434, 14, 14, 1526159768.194, 80, 0, 1024, 1024, 1024, 1024, 0, 6, 3961, 3989, 3996, 4008, 3975, 3999, 0, 1, 9801, -89.900, 0.000, 64.500, 0.000, 0.000, -2.900, 0.0, , , , , , 97, , , 49, 49, 49
38.1754055, -120.0595466, 13.600, 14:16:08.294, 14, 0.00, 0.19, 98, -0.600, 1.400, 65.500, 1407, 100, 100, 23, 23938, -19339, 5325, 5434, 14, 14, 1526159768.294, 79, 0, 1024, 1024, 1024, 1024, 0, 6, 3961, 3989, 3996, 4008, 3975, 3999, 0, 1, 9901, -89.900, 0.000, 64.500, 0.000, 0.000, -3.000, 0.0, , , , , , 97, , , 49, 49, 49
38.1754055, -120.0595467, 13.900, 14:16:08.394, 14, 0.00, 0.18, 98, -0.600, 1.400, 65.500, 1407, 100, 100, 23, 23938, -19339, 5325, 5434, 14, 14, 1526159768.395, 44, 0, 1024, 1024, 1024, 1024, 0, 6, 3961, 3989, 3996, 4008, 3975, 3999, 0, 1, 10001, -89.900, 0.000, 64.500, 0.000, 0.000, -3.000, 0.0, , , , , , 97, , , 49, 49, 49
38.1754056, -120.0595467, 14.200, 14:16:08.494, 14, 0.10, 0.18, 98, -0.500, 1.400, 65.500, 1407, 100, 100, 23, 23938, -19339, 5325, 5434, 14, 14, 1526159768.494, 46, 0, 1024, 1024, 1024, 1024, 0, 6, 3961, 3989, 3996, 4008, 3975, 3999, 0, 1, 10100, -89.900, 0.000, 64.500, 0.100, 0.000, -2.900, 0.0, , , , , , 97, , , 49, 49, 49
38.1754056, -120.0595466, 14.500, 14:16:08.594, 14, 0.10, 0.18, 98, -0.300, 1.600, 65.500, 1407, 100, 100, 23, 23938, -19339, 5325, 5434, 14, 14, 1526159768.594, 50, 0, 1024, 1024, 1024, 1024, 0, 6, 3961, 3989, 3996, 4008, 3975, 3999, 0, 1, 10201, -89.900, 0.000, 64.500, 0.100, 0.000, -2.900, 0.0, , , , , , 97, , , 49, 49, 49
38.1754057, -120.0595467, 14.800, 14:16:08.694, 14, 0.10, 0.18, 98, -0.200, 1.700, 65.500, 1407, 100, 100, 23, 23938, -19339, 5325, 5434, 14, 14, 1526159768.695, 42, 0, 1024, 1024, 1024, 1024, 0, 6, 3961, 3989, 3996, 4008, 3975, 3999, 0, 1, 10301, -89.900, 0.000, 64.500, 0.100, 0.000, -2.900, 0.0, , , , , , 97, , , 49, 49, 49
38.1754057, -120.0595467, 15.100, 14:16:08.794, 14, 0.10, 0.17, 98, -0.300, 1.700, 65.400, 1407, 100, 100, 23, 23938, -19339, 5325, 5434, 14, 14, 1526159768.794, 45, 0, 1024, 1024, 1024, 1024, 0, 6, 3961, 3989, 3996, 4008, 3975, 3999, 0, 1, 10400, -89.900, 0.000, 64.500, 0.100, 0.000, -2.900, 0.0, , , , , , 97, , , 49, 49, 49
38.1754058, -120.0595468, 15.400, 14:16:08.894, 13, 0.10, 0.17, 98, -0.400, 1.600, 65.300, 1407, 100, 100, 23, 23919, -18984, 5325, 5434, 14, 14, 1526159768.894, 49, 0, 1024, 1024, 1024, 1024, 0, 6, 3962, 3981, 3997, 4006, 3973, 3991, 0, 1, 10501, -89.900, 0.000, 64.500, 0.100, 0.000, -2.900, 0.0, , , , , , 97, , , 49, 49, 49
38.1754060, -120.0595468, 16.000, 14:16:09.009, 14, 0.10, 0.16, 98, -0.100, 1.500, 65.300, 1407, 100, 100, 23, 23919, -18984, 5325, 5434, 14, 14, 1526159769.010, 5, 0, 1024, 1024, 1024, 1024, 0, 6, 3962, 3981, 3997, 4006, 3973, 3991, 0, 1, 10616, -90.000, 0.000, 64.500, 0.100, 0.000, -2.900, 0.0, , , , , , 97, , , 49, 49, 49
38.1754061, -120.0595469, 16.300, 14:16:09.094, 14, 0.10, 0.15, 98, 0.100, 1.400, 65.400, 1407, 100, 100, 23, 23919, -18984, 5325, 5434, 14, 14, 1526159769.094, 43, 0, 1024, 1024, 1024, 1024, 0, 6, 3962, 3981, 3997, 4006, 3973, 3991, 0, 1, 10700, -89.900, 0.000, 64.500, 0.100, 0.000, -2.900, 0.0, , , , , , 97, , , 49, 49, 49
38.1754062, -120.0595469, 16.600, 14:16:09.194, 13, 0.10, 0.15, 98, 0.300, 1.300, 65.600, 1407, 100, 100, 23, 23919, -18984, 5325, 5434, 14, 14, 1526159769.194, 35, 0, 1024, 1024, 1024, 1024, 0, 6, 3962, 3981, 3997, 4006, 3973, 3991, 0, 1, 10800, -90.000, 0.000, 64.500, 0.100, 0.000, -2.900, 0.0, , , , , , 97, , , 49, 49, 49
38.1754063, -120.0595470, 16.900, 14:16:09.294, 13, 0.10, 0.14, 98, 0.500, 1.300, 65.700, 1407, 100, 100, 23, 23919, -18984, 5325, 5434, 14, 14, 1526159769.294, 23, 0, 1024, 1024, 1024, 1024, 0, 6, 3962, 3981, 3997, 4006, 3973, 3991, 0, 1, 10900, -90.000, 0.000, 64.500, 0.100, 0.000, -2.900, 0.0, , , , , , 97, , , 49, 49, 49
38.1754064, -120.0595470, 17.200, 14:16:09.394, 14, 0.00, 0.14, 98, 0.400, 1.300, 65.700, 1407, 100, 100, 23, 23919, -18984, 5325, 5434, 14, 14, 1526159769.394, 12, 0, 1024, 1024, 1024, 1024, 0, 6, 3962, 3981, 3997, 4006, 3973, 3991, 0, 1, 11001, -89.900, 0.000, 64.500, 0.000, 0.000, -2.900, 0.0, , , , , , 97, , , 49, 49, 49
38.1754065, -120.0595470, 17.500, 14:16:09.494, 14, 0.00, 0.14, 98, 0.200, 1.200, 65.700, 1407, 100, 98, 23, 23919, -18984, 5325, 5434, 14, 14, 1526159769.494, 8, 0, 1024, 1024, 1024, 1024, 0, 6, 3962, 3981, 3997, 4006, 3973, 3991, 0, 1, 11100, -90.000, 0.000, 64.500, 0.000, 0.000, -2.900, 0.0, , , , , , 97, , , 49, 49, 49
38.1754066, -120.0595471, 17.800, 14:16:09.594, 14, 0.00, 0.15, 98, 0.100, 1.200, 65.700, 1407, 100, 98, 23, 23919, -18984, 5325, 5434, 14, 14, 1526159769.594, 15, 0, 1024, 1024, 1024, 1024, 0, 6, 3962, 3981, 3997, 4006, 3973, 3991, 0, 1, 11201, -89.900, 0.000, 64.500, 0.000, 0.000, -2.900, 0.0, , , , , , 97, , , 49, 49, 49
38.1754067, -120.0595471, 18.100, 14:16:09.696, 14, 0.00, 0.15, 98, 0.100, 1.300, 65.700, 1407, 100, 98, 23, 23919, -18984, 5325, 5434, 14, 14, 1526159769.697, 5, 0, 1024, 1024, 1024, 1024, 0, 6, 3962, 3981, 3997, 4006, 3973, 3991, 0, 1, 11303, -89.900, 0.000, 64.500, 0.000, 0.000, -2.900, 0.0, , , , , , 97, , , 49, 49, 49
38.1754067, -120.0595471, 18.100, 14:16:09.794, 14, 0.00, 0.15, 98, 0.100, 1.300, 65.700, 1407, 100, 98, 23, 23919, -18984, 5325, 5434, 14, 14, 1526159769.795, 103, 0, 1024, 1024, 1024, 1024, 0, 6, 3962, 3981, 3997, 4006, 3973, 3991, 0, 1, 11401, -89.900, 0.000, 64.500, 0.000, 0.000, -2.900, 0.0, , , , , , 97, , , 49, 49, 49
38.1754068, -120.0595471, 18.400, 14:16:09.894, 14, 0.00, 0.15, 98, 0.200, 1.500, 65.700, 1407, 100, 98, 23, 23919, -18984, 5325, 5434, 14, 14, 1526159769.894, 94, 0, 1024, 1024, 1024, 1024, 0, 6, 3962, 3981, 3997, 4006, 3973, 3991, 0, 1, 11501, -89.900, 0.000, 64.500, 0.000, 0.000, -2.800, 0.0, , , , , , 97, , , 49, 49, 49
38.1754070, -120.0595472, 18.700, 14:16:09.994, 14, 0.00, 0.16, 98, 0.500, 1.700, 65.700, 1407, 100, 97, 23, 23925, -18494, 5325, 5434, 14, 14, 1526159769.994, 89, 0, 1024, 1024, 1024, 1024, 0, 6, 3962, 3981, 3997, 4006, 3973, 3991, 0, 1, 11600, -89.900, 0.000, 64.500, 0.000, 0.000, -2.900, 0.0, , , , , , 97, , , 49, 49, 49
38.1754071, -120.0595472, 19.000, 14:16:10.094, 14, 0.00, 0.17, 98, 0.700, 1.800, 65.600, 1407, 100, 97, 23, 23925, -18494, 5325, 5434, 14, 14, 1526159770.094, 61, 0, 1024, 1024, 1024, 1024, 0, 6, 3962, 3981, 3997, 4006, 3973, 3991, 0, 1, 11701, -89.900, 0.000, 64.500, 0.000, 0.000, -2.900, 0.0, , , , , , 97, , , 49, 49, 49
38.1754072, -120.0595472, 19.300, 14:16:10.194, 14, 0.00, 0.17, 98, 0.800, 1.700, 65.600, 1407, 100, 97, 23, 23925, -18494, 5325, 5434, 14, 14, 1526159770.195, 88, 0, 1024, 1024, 1024, 1024, 0, 6, 3962, 3981, 3997, 4006, 3973, 3991, 0, 1, 11801, -89.900, 0.000, 64.500, 0.000, 0.000, -2.900, 0.0, , , , , , 97, , , 49, 49, 49
38.1754073, -120.0595472, 19.600, 14:16:10.318, 14, 0.00, 0.18, 98, 0.900, 1.600, 65.600, 1407, 100, 97, 23, 23925, -18494, 5325, 5434, 14, 14, 1526159770.318, 97, 0, 1024, 1024, 1024, 1024, 0, 6, 3962, 3981, 3997, 4006, 3973, 3991, 0, 1, 11924, -89.900, 0.000, 64.500, 0.000, 0.000, -2.900, 0.0, , , , , , 97, , , 49, 49, 49
38.1754074, -120.0595473, 19.900, 14:16:10.394, 14, 0.00, 0.19, 98, 1.000, 1.600, 65.500, 1407, 100, 97, 23, 23925, -18494, 5325, 5434, 14, 14, 1526159770.395, 28, 0, 1024, 1024, 1024, 1024, 0, 6, 3962, 3981, 3997, 4006, 3973, 3991, 0, 1, 12001, -89.900, 0.000, 64.500, 0.000, 0.000, -3.000, 0.0, , , , , , 97, , , 49, 49, 49
38.1754075, -120.0595473, 20.200, 14:16:10.539, 15, 0.00, 0.19, 98, 1.200, 1.500, 65.400, 1407, 100, 98, 23, 23925, -18494, 5325, 5434, 14, 14, 1526159770.541, 15, 0, 1024, 1024, 1024, 1024, 0, 6, 3962, 3981, 3997, 4006, 3973, 3991, 0, 1, 12147, -89.900, 0.000, 64.500, 0.000, 0.000, -2.900, 0.0, , , , , , 97, , , 49, 49, 49
38.1754076, -120.0595474, 20.500, 14:16:10.594, 15, 0.00, 0.20, 98, 1.100, 1.400, 65.300, 1407, 100, 98, 23, 23925, -18494, 5325, 5434, 14, 14, 1526159770.595, 19, 0, 1024, 1024, 1024, 1024, 0, 6, 3962, 3981, 3997, 4006, 3973, 3991, 0, 1, 12201, -90.000, 0.000, 64.500, 0.000, 0.000, -2.900, 0.0, , , , , , 97, , , 49, 49, 49
38.1754077, -120.0595474, 20.800, 14:16:10.694, 14, 0.00, 0.21, 98, 1.100, 1.400, 65.200, 1407, 100, 98, 23, 23925, -18494, 5325, 5434, 14, 14, 1526159770.694, 39, 0, 1024, 1024, 1024, 1024, 0, 6, 3962, 3981, 3997, 4006, 3973, 3991, 0, 1, 12301, -89.900, 0.000, 64.500, 0.000, 0.000, -2.900, 0.0, , , , , , 97, , , 49, 49, 49
38.1754078, -120.0595474, 21.100, 14:16:10.794, 14, 0.00, 0.21, 98, 1.000, 1.400, 65.200, 1407, 100, 98, 23, 23925, -18494, 5325, 5434, 14, 14, 1526159770.795, 64, 0, 1024, 1024, 1024, 1024, 0, 6, 3959, 3983, 4001, 4005, 3978, 3995, 0, 1, 12401, -89.900, 0.000, 64.500, 0.000, 0.000, -2.900, 0.0, , , , , , 97, , , 49, 49, 49
38.1754078, -120.0595474, 21.400, 14:16:10.894, 15, 0.00, 0.22, 98, 1.000, 1.500, 65.300, 1407, 100, 98, 23, 23925, -18494, 5325, 5434, 14, 14, 1526159770.895, 49, 0, 1024, 1024, 1024, 1024, 0, 6, 3959, 3983, 4001, 4005, 3978, 3995, 0, 1, 12501, -89.900, 0.000, 64.500, 0.000, 0.000, -2.900, 0.0, , , , , , 97, , , 49, 49, 49
38.1754079, -120.0595475, 21.700, 14:16:10.994, 15, 0.00, 0.22, 98, 1.000, 1.600, 65.300, 1407, 100, 99, 23, 23925, -18494, 5325, 5434, 14, 14, 1526159770.995, 36, 0, 1024, 1024, 1024, 1024, 0, 6, 3959, 3983, 4001, 4005, 3978, 3995, 0, 1, 12601, -89.900, 0.000, 64.500, 0.000, 0.000, -2.900, 0.0, , , , , , 97, , , 49, 49, 49
38.1754080, -120.0595475, 22.000, 14:16:11.094, 14, 0.00, 0.23, 98, 1.000, 1.600, 65.400, 1407, 100, 99, 23, 23925, -18494, 5325, 5434, 14, 14, 1526159771.095, 18, 0, 1024, 1024, 1024, 1024, 0, 6, 3959, 3983, 4001, 4005, 3978, 3995, 0, 1, 12701, -89.900, 0.000, 64.500, 0.000, 0.000, -2.900, 0.0, , , , , , 97, , , 49, 49, 49
38.1754081, -120.0595475, 22.300, 14:16:11.198, 14, 0.00, 0.24, 98, 0.800, 1.600, 65.400, 1407, 100, 99, 23, 23925, -18494, 5325, 5434, 14, 14, 1526159771.198, 10, 0, 1024, 1024, 1024, 1024, 0, 6, 3959, 3983, 4001, 4005, 3978, 3995, 0, 1, 12805, -89.900, 0.000, 64.500, 0.000, 0.000, -2.800, 0.0, , , , , , 97, , , 49, 49, 49
38.1754081, -120.0595475, 22.300, 14:16:11.294, 14, 0.00, 0.24, 98, 0.800, 1.600, 65.400, 1407, 100, 99, 23, 23925, -18494, 5325, 5434, 14, 14, 1526159771.295, 106, 0, 1024, 1024, 1024, 1024, 0, 6, 3959, 3983, 4001, 4005, 3978, 3995, 0, 1, 12901, -89.900, 0.000, 64.500, 0.000, 0.000, -2.800, 0.0, , , , , , 97, , , 49, 49, 49
38.1754081, -120.0595475, 22.900, 14:16:11.394, 14, 0.00, 0.24, 98, 0.700, 1.800, 65.400, 1407, 100, 99, 23, 23895, -18511, 5325, 5434, 14, 14, 1526159771.395, 32, 0, 1024, 1024, 1024, 1024, 0, 6, 3959, 3983, 4001, 4005, 3978, 3995, 0, 1, 13001, -89.900, 0.000, 64.500, 0.000, 0.000, -2.900, 0.0, , , , , , 97, , , 49, 49, 49
38.1754081, -120.0595475, 23.200, 14:16:11.495, 14, 0.00, 0.24, 98, 0.600, 1.800, 65.400, 1407, 100, 95, 23, 23895, -18511, 5325, 5434, 14, 14, 1526159771.496, 25, 0, 1024, 1024, 1024, 1024, 0, 6, 3961, 3986, 3990, 4000, 3965, 3996, 0, 1, 13102, -89.900, 0.000, 64.500, 0.000, 0.000, -2.900, 0.0, , , , , , 97, , , 49, 49, 49
38.1754081, -120.0595475, 23.500, 14:16:11.594, 14, 0.00, 0.24, 98, 0.400, 1.800, 65.400, 1407, 100, 95, 23, 23895, -18511, 5325, 5434, 14, 14, 1526159771.595, 23, 0, 1024, 1024, 1024, 1024, 0, 6, 3961, 3986, 3990, 4000, 3965, 3996, 0, 1, 13201, -89.900, 0.000, 64.500, 0.000, 0.000, -2.900, 0.0, , , , , , 97, , , 49, 49, 49
38.1754081, -120.0595475, 24.100, 14:16:11.694, 15, 0.00, 0.24, 98, 0.100, 1.500, 65.400, 1407, 100, 95, 23, 23895, -18511, 5325, 5434, 14, 14, 1526159771.695, 14, 0, 1024, 1024, 1024, 1024, 0, 6, 3961, 3986, 3990, 4000, 3965, 3996, 0, 1, 13301, -90.000, 0.000, 64.500, 0.000, 0.000, -3.000, 0.0, , , , , , 97, , , 49, 49, 49
38.1754081, -120.0595475, 24.400, 14:16:11.794, 15, 0.00, 0.24, 98, 0.300, 1.400, 65.500, 1407, 100, 95, 23, 23895, -18511, 5325, 5434, 14, 14, 1526159771.795, 17, 0, 1024, 1024, 1024, 1024, 0, 6, 3961, 3986, 3990, 4000, 3965, 3996, 0, 1, 13401, -90.000, 0.000, 64.500, 0.000, 0.000, -2.900, 0.0, , , , , , 97, , , 49, 49, 49
38.1754081, -120.0595475, 24.700, 14:16:11.894, 15, 0.00, 0.24, 98, 0.300, 1.300, 65.500, 1407, 100, 95, 23, 23895, -18511, 5325, 5434, 14, 14, 1526159771.896, 17, 0, 1024, 1024, 1024, 1024, 0, 6, 3961, 3986, 3990, 4000, 3965, 3996, 0, 1, 13502, -90.000, 0.000, 64.500, 0.000, 0.000, -2.900, 0.0, , , , , , 97, , , 49, 49, 49
38.1754081, -120.0595475, 25.000, 14:16:12.002, 15, 0.00, 0.24, 98, 0.300, 1.400, 65.500, 1407, 100, 96, 23, 23895, -18511, 5325, 5434, 14, 14, 1526159772.003, 6, 0, 1024, 1024, 1024, 1024, 0, 6, 3961, 3986, 3990, 4000, 3965, 3996, 0, 1, 13609, -89.900, 0.000, 64.500, 0.000, 0.000, -2.900, 0.0, , , , , , 97, , , 49, 49, 49
38.1754081, -120.0595475, 25.300, 14:16:12.119, 15, 0.00, 0.24, 98, 0.300, 1.400, 65.500, 1407, 100, 96, 23, 23895, -18511, 5325, 5434, 14, 14, 1526159772.124, 17, 0, 1024, 1024, 1024, 1024, 0, 6, 3961, 3986, 3990, 4000, 3965, 3996, 0, 1, 13731, -89.900, 0.000, 64.500, 0.000, 0.000, -2.900, 0.0, , , , , , 97, , , 49, 49, 49
38.1754081, -120.0595475, 25.600, 14:16:12.194, 15, 0.00, 0.24, 98, 0.100, 1.500, 65.600, 1407, 100, 96, 23, 23895, -18511, 5325, 5434, 14, 14, 1526159772.194, 14, 0, 1024, 1024, 1024, 1024, 0, 6, 3961, 3986, 3990, 4000, 3965, 3996, 0, 1, 13800, -89.900, 0.000, 64.500, 0.000, 0.000, -2.800, 0.0, , , , , , 97, , , 49, 49, 49
38.1754081, -120.0595475, 25.600, 14:16:12.294, 15, 0.00, 0.24, 98, 0.100, 1.500, 65.600, 1407, 100, 96, 23, 23895, -18511, 5325, 5434, 14, 14, 1526159772.294, 114, 0, 1024, 1024, 1024, 1024, 0, 6, 3961, 3986, 3990, 4000, 3965, 3996, 0, 1, 13900, -89.900, 0.000, 64.500, 0.000, 0.000, -2.800, 0.0, , , , , , 97, , , 49, 49, 49
38.1754080, -120.0595475, 26.200, 14:16:12.399, 15, 0.00, 0.23, 98, 0.000, 1.600, 65.700, 1407, 100, 96, 24, 23961, -17494, 5325, 5434, 14, 14, 1526159772.399, 11, 0, 1024, 1024, 1024, 1024, 0, 6, 3961, 3986, 3990, 4000, 3965, 3996, 0, 1, 14006, -89.900, 0.000, 64.500, 0.000, 0.000, -2.900, 0.0, , , , , , 97, , , 49, 49, 49
38.1754080, -120.0595475, 26.200, 14:16:12.494, 15, 0.00, 0.23, 98, 0.000, 1.600, 65.700, 1407, 100, 93, 24, 23961, -17494, 5325, 5434, 14, 14, 1526159772.494, 106, 0, 1024, 1024, 1024, 1024, 0, 6, 3956, 3993, 3995, 4013, 3976, 3998, 0, 1, 14101, -89.900, 0.000, 64.500, 0.000, 0.000, -2.900, 0.0, , , , , , 97, , , 49, 49, 49
38.1754079, -120.0595475, 26.500, 14:16:12.594, 15, 0.00, 0.23, 98, -0.100, 1.600, 65.700, 1407, 100, 93, 24, 23961, -17494, 5325, 5434, 14, 14, 1526159772.594, 97, 0, 1024, 1024, 1024, 1024, 0, 6, 3956, 3993, 3995, 4013, 3976, 3998, 0, 1, 14200, -89.900, 0.000, 64.500, 0.000, 0.000, -2.900, 0.0, , , , , , 97, , , 49, 49, 49
38.1754079, -120.0595474, 26.700, 14:16:12.694, 15, 0.00, 0.22, 98, -0.300, 1.500, 65.700, 1407, 100, 93, 24, 23961, -17494, 5325, 5434, 14, 14, 1526159772.694, 97, 0, 1024, 1024, 1024, 1024, 0, 6, 3956, 3993, 3995, 4013, 3976, 3998, 0, 1, 14301, -90.000, 0.000, 64.500, 0.000, 0.000, -2.900, 0.0, , , , , , 97, , , 49, 49, 49
38.1754079, -120.0595475, 27.000, 14:16:12.794, 15, 0.00, 0.22, 98, -0.300, 1.400, 65.600, 1407, 100, 93, 24, 23961, -17494, 5325, 5434, 14, 14, 1526159772.794, 84, 0, 1024, 1024, 1024, 1024, 0, 6, 3956, 3993, 3995, 4013, 3976, 3998, 0, 1, 14400, -89.900, 0.000, 64.500, 0.000, 0.000, -2.900, 0.0, , , , , , 97, , , 49, 49, 49
38.1754078, -120.0595475, 27.300, 14:16:12.894, 15, 0.00, 0.22, 98, -0.300, 1.300, 65.500, 1407, 100, 93, 24, 23961, -17494, 5325, 5434, 14, 14, 1526159772.894, 93, 0, 1024, 1024, 1024, 1024, 0, 6, 3956, 3993, 3995, 4013, 3976, 3998, 0, 1, 14500, -90.000, 0.000, 64.500, 0.000, 0.000, -2.900, 0.0, , , , , , 97, , , 49, 49, 49
38.1754078, -120.0595475, 27.600, 14:16:12.994, 15, 0.00, 0.21, 98, -0.300, 1.400, 65.400, 1407, 100, 97, 24, 23961, -17494, 5325, 5434, 14, 14, 1526159772.995, 97, 0, 1024, 1024, 1024, 1024, 0, 6, 3956, 3993, 3995, 4013, 3976, 3998, 0, 1, 14601, -90.000, 0.000, 64.500, 0.000, 0.000, -2.900, 0.0, , , , , , 97, , , 49, 49, 49
38.1754078, -120.0595475, 27.900, 14:16:13.094, 15, 0.00, 0.21, 98, -0.300, 1.400, 65.300, 1407, 100, 97, 24, 23961, -17494, 5325, 5434, 14, 14, 1526159773.095, 87, 0, 1024, 1024, 1024, 1024, 0, 6, 3956, 3993, 3995, 4013, 3976, 3998, 0, 1, 14701, -90.000, 0.000, 64.500, 0.000, 0.000, -2.900, 0.0, , , , , , 97, , , 49, 49, 49
38.1754078, -120.0595475, 28.200, 14:16:13.194, 15, 0.00, 0.21, 98, -0.300, 1.500, 65.200, 1407, 100, 97, 24, 23961, -17494, 5325, 5434, 14, 14, 1526159773.195, 35, 0, 1024, 1024, 1024, 1024, 0, 6, 3956, 3993, 3995, 4013, 3976, 3998, 0, 1, 14801, -89.900, 0.000, 64.500, 0.000, 0.000, -2.900, 0.0, , , , , , 97, , , 49, 49, 49
38.1754078, -120.0595474, 28.500, 14:16:13.294, 15, 0.00, 0.21, 98, -0.200, 1.600, 65.200, 1407, 100, 97, 24, 23961, -17494, 5325, 5434, 14, 14, 1526159773.295, 78, 0, 1024, 1024, 1024, 1024, 0, 6, 3956, 3993, 3995, 4013, 3976, 3998, 0, 1, 14901, -89.900, 0.000, 64.500, 0.000, 0.000, -2.900, 0.0, , , , , , 97, , , 49, 49, 49
38.1754077, -120.0595474, 28.800, 14:16:13.394, 15, 0.00, 0.21, 98, -0.100, 1.700, 65.200, 1407, 100, 97, 24, 23950, -17441, 5270, 5434, 14, 14, 1526159773.394, 50, 0, 1024, 1024, 1024, 1024, 0, 6, 3956, 3993, 3995, 4013, 3976, 3998, 0, 1, 15001, -89.900, 0.000, 64.500, 0.000, 0.000, -2.900, 0.0, , , , , , 97, , , 49, 49, 49
38.1754077, -120.0595474, 29.100, 14:16:13.494, 15, 0.00, 0.20, 98, 0.000, 1.800, 65.300, 1407, 100, 97, 24, 23950, -17441, 5270, 5434, 14, 14, 1526159773.495, 53, 0, 1024, 1024, 1024, 1024, 0, 6, 3966, 3988, 3999, 4011, 3973, 4009, 0, 1, 15101, -89.900, 0.000, 64.500, 0.000, 0.000, -2.800, 0.0, , , , , , 97, , , 49, 49, 49
38.1754076, -120.0595474, 29.400, 14:16:13.594, 15, 0.00, 0.20, 98, -0.100, 1.800, 65.400, 1407, 100, 97, 24, 23950, -17441, 5270, 5434, 14, 14, 1526159773.595, 40, 0, 1024, 1024, 1024, 1024, 0, 6, 3966, 3988, 3999, 4011, 3973, 4009, 0, 1, 15201, -89.900, 0.000, 64.500, 0.000, 0.000, -2.900, 0.0, , , , , , 97, , , 49, 49, 49
38.1754076, -120.0595474, 29.700, 14:16:13.694, 15, 0.00, 0.19, 98, -0.100, 1.600, 65.500, 1407, 100, 97, 24, 23950, -17441, 5270, 5434, 14, 14, 1526159773.696, 40, 0, 1024, 1024, 1024, 1024, 0, 6, 3966, 3988, 3999, 4011, 3973, 4009, 0, 1, 15302, -89.900, 0.000, 64.500, 0.000, 0.000, -2.900, 0.0, , , , , , 97, , , 49, 49, 49
38.1754075, -120.0595474, 30.000, 14:16:13.794, 15, 0.00, 0.19, 98, -0.200, 1.600, 65.600, 1407, 100, 97, 24, 23950, -17441, 5270, 5434, 14, 14, 1526159773.794, 41, 0, 1024, 1024, 1024, 1024, 0, 6, 3966, 3988, 3999, 4011, 3973, 4009, 0, 1, 15401, -89.900, 0.000, 64.500, 0.000, 0.000, -3.000, 0.0, , , , , , 97, , , 49, 49, 49
38.1754075, -120.0595474, 30.300, 14:16:13.894, 15, 0.00, 0.18, 97, -0.200, 1.500, 65.600, 1407, 100, 97, 24, 23950, -17441, 5270, 5434, 14, 14, 1526159773.895, 29, 0, 1024, 1024, 1024, 1024, 0, 6, 3966, 3988, 3999, 4011, 3973, 4009, 0, 1, 15501, -89.900, 0.000, 64.500, 0.000, 0.000, -3.000, 0.0, , , , , , 97, , , 49, 49, 49
38.1754075, -120.0595475, 30.600, 14:16:14.008, 15, 0.00, 0.18, 97, -0.300, 1.300, 65.600, 1407, 100, 97, 24, 23950, -17441, 5270, 5434, 14, 14, 1526159774.009, 18, 0, 1024, 1024, 1024, 1024, 0, 6, 3966, 3988, 3999, 4011, 3973, 4009, 0, 1, 15615, -90.000, 0.000, 64.500, 0.000, 0.000, -3.000, 0.0, , , , , , 97, , , 49, 49, 49
38.1754074, -120.0595475, 30.900, 14:16:14.095, 15, 0.00, 0.17, 97, -0.300, 1.100, 65.700, 1407, 100, 97, 24, 23950, -17441, 5270, 5434, 14, 14, 1526159774.096, 14, 0, 1024, 1024, 1024, 1024, 0, 6, 3966, 3988, 3999, 4011, 3973, 4009, 0, 1, 15703, -90.000, 0.000, 64.500, 0.000, 0.000, -2.900, 0.0, , , , , , 97, , , 49, 49, 49
38.1754072, -120.0595475, 31.200, 14:16:14.211, 15, 0.00, 0.16, 97, -0.400, 0.900, 65.700, 1407, 100, 97, 24, 23950, -17441, 5270, 5434, 14, 14, 1526159774.212, 11, 0, 1024, 1024, 1024, 1024, 0, 6, 3966, 3988, 3999, 4011, 3973, 4009, 0, 1, 15818, -90.000, 0.000, 64.500, 0.000, 0.000, -2.800, 0.0, , , , , , 97, , , 49, 49, 49
38.1754072, -120.0595475, 31.800, 14:16:14.294, 15, 0.00, 0.15, 97, -0.700, 1.000, 65.700, 1407, 100, 97, 24, 23950, -17441, 5270, 5434, 14, 14, 1526159774.295, 11, 0, 1024, 1024, 1024, 1024, 0, 6, 3966, 3988, 3999, 4011, 3973, 4009, 0, 1, 15901, -90.000, 0.000, 64.500, 0.000, 0.000, -2.900, 0.0, , , , , , 97, , , 49, 49, 49
38.1754071, -120.0595474, 32.100, 14:16:14.399, 16, 0.00, 0.15, 97, -0.600, 1.200, 65.800, 1407, 100, 97, 24, 23919, -17648, 5270, 5434, 14, 14, 1526159774.399, 20, 0, 1024, 1024, 1024, 1024, 0, 6, 3951, 3979, 3992, 4010, 3967, 3990, 0, 1, 16005, -89.900, 0.000, 64.500, 0.000, 0.000, -3.000, 0.0, , , , , , 97, , , 49, 49, 49
38.1754071, -120.0595474, 32.100, 14:16:14.494, 16, 0.00, 0.15, 97, -0.600, 1.200, 65.800, 1407, 100, 97, 24, 23919, -17648, 5270, 5434, 14, 14, 1526159774.496, 116, 0, 1024, 1024, 1024, 1024, 0, 6, 3951, 3979, 3992, 4010, 3967, 3990, 0, 1, 16102, -89.900, 0.000, 64.500, 0.000, 0.000, -3.000, 0.0, , , , , , 97, , , 49, 49, 49
38.1754071, -120.0595474, 32.400, 14:16:14.594, 16, 0.00, 0.15, 97, -0.400, 1.300, 65.800, 1407, 100, 96, 24, 23919, -17648, 5270, 5434, 14, 14, 1526159774.595, 91, 0, 1024, 1024, 1024, 1024, 0, 6, 3951, 3979, 3992, 4010, 3967, 3990, 0, 1, 16201, -89.900, 0.000, 64.500, 0.000, 0.000, -2.900, 0.0, , , , , , 97, , , 49, 49, 49
38.1754070, -120.0595474, 32.900, 14:16:14.700, 16, 0.00, 0.15, 97, -0.400, 1.500, 65.700, 1407, 100, 96, 24, 23919, -17648, 5270, 5434, 14, 14, 1526159774.700, 7, 0, 1024, 1024, 1024, 1024, 0, 6, 3951, 3979, 3992, 4010, 3967, 3990, 0, 1, 16307, -89.900, 0.000, 64.500, 0.000, 0.000, -2.900, 0.0, , , , , , 97, , , 49, 49, 49
38.1754070, -120.0595474, 32.900, 14:16:14.794, 16, 0.00, 0.15, 97, -0.400, 1.500, 65.700, 1407, 100, 96, 24, 23919, -17648, 5270, 5434, 14, 14, 1526159774.795, 101, 0, 1024, 1024, 1024, 1024, 0, 6, 3951, 3979, 3992, 4010, 3967, 3990, 0, 1, 16401, -89.900, 0.000, 64.500, 0.000, 0.000, -2.900, 0.0, , , , , , 97, , , 49, 49, 49
38.1754070, -120.0595473, 33.200, 14:16:14.894, 15, 0.00, 0.15, 97, -0.500, 1.400, 65.600, 1407, 100, 96, 24, 23919, -17648, 5270, 5434, 14, 14, 1526159774.894, 97, 0, 1024, 1024, 1024, 1024, 0, 6, 3951, 3979, 3992, 4010, 3967, 3990, 0, 1, 16501, -89.900, 0.000, 64.500, 0.000, 0.000, -2.900, 0.0, , , , , , 97, , , 49, 49, 49
38.1754070, -120.0595473, 33.500, 14:16:14.994, 15, 0.00, 0.15, 97, -0.400, 1.400, 65.600, 1407, 100, 96, 24, 23919, -17648, 5270, 5434, 14, 14, 1526159774.994, 80, 0, 1024, 1024, 1024, 1024, 0, 6, 3951, 3979, 3992, 4010, 3967, 3990, 0, 1, 16601, -89.900, 0.000, 64.500, 0.000, 0.000, -2.900, 0.0, , , , , , 97, , , 49, 49, 49
38.1754070, -120.0595472, 33.800, 14:16:15.094, 15, 0.00, 0.15, 97, -0.300, 1.600, 65.500, 1407, 100, 96, 24, 23919, -17648, 5270, 5434, 14, 14, 1526159775.095, 91, 0, 1024, 1024, 1024, 1024, 0, 6, 3951, 3979, 3992, 4010, 3967, 3990, 0, 1, 16701, -89.900, 0.000, 64.500, 0.000, 0.000, -2.900, 0.0, , , , , , 97, , , 49, 49, 49
38.1754070, -120.0595471, 34.100, 14:16:15.194, 15, 0.00, 0.16, 97, -0.200, 1.900, 65.400, 1407, 100, 96, 24, 23919, -17648, 5270, 5434, 14, 14, 1526159775.195, 37, 0, 1024, 1024, 1024, 1024, 0, 6, 3951, 3979, 3992, 4010, 3967, 3990, 0, 1, 16801, -89.900, 0.000, 64.500, 0.000, 0.000, -3.000, 0.0, , , , , , 97, , , 49, 49, 49
38.1754070, -120.0595471, 34.400, 14:16:15.294, 16, 0.00, 0.16, 97, -0.200, 2.000, 65.500, 1407, 100, 96, 24, 23919, -17648, 5270, 5434, 14, 14, 1526159775.294, 93, 0, 1024, 1024, 1024, 1024, 0, 6, 3951, 3979, 3992, 4010, 3967, 3990, 0, 1, 16900, -89.900, 0.000, 64.500, 0.000, 0.000, -2.900, 0.0, , , , , , 97, , , 49, 49, 49
38.1754070, -120.0595470, 34.700, 14:16:15.394, 16, 0.00, 0.17, 97, -0.500, 2.400, 65.600, 1407, 100, 96, 24, 23892, -17972, 5270, 5434, 14, 14, 1526159775.395, 96, 0, 1024, 1024, 1024, 1024, 0, 6, 3951, 3979, 3992, 4010, 3967, 3990, 0, 1, 17001, -89.900, 0.000, 64.500, 0.000, 0.000, -3.000, 0.0, , , , , , 97, , , 49, 49, 49
38.1754070, -120.0595469, 35.000, 14:16:15.494, 16, 0.00, 0.18, 97, -0.500, 2.500, 65.700, 1407, 100, 96, 24, 23892, -17972, 5270, 5434, 14, 14, 1526159775.494, 97, 0, 1024, 1024, 1024, 1024, 0, 6, 3951, 3979, 3992, 4010, 3967, 3990, 0, 1, 17100, -89.900, 0.000, 64.500, 0.000, 0.000, -3.000, 0.0, , , , , , 97, , , 49, 49, 49
38.1754070, -120.0595469, 35.000, 14:16:15.594, 16, 0.00, 0.18, 97, -0.500, 2.500, 65.700, 1407, 100, 96, 24, 23892, -17972, 5270, 5434, 14, 14, 1526159775.595, 197, 0, 1024, 1024, 1024, 1024, 0, 6, 3951, 3979, 3992, 4010, 3967, 3990, 0, 1, 17201, -89.900, 0.000, 64.500, 0.000, 0.000, -3.000, 0.0, , , , , , 97, , , 49, 49, 49
38.1754070, -120.0595467, 35.600, 14:16:15.694, 16, 0.10, 0.20, 97, -0.300, 2.700, 65.800, 1407, 100, 96, 24, 23892, -17972, 5270, 5434, 14, 14, 1526159775.694, 92, 0, 1024, 1024, 1024, 1024, 0, 6, 3951, 3979, 3992, 4010, 3967, 3990, 0, 1, 17301, -89.900, 0.000, 64.500, 0.000, 0.100, -3.000, 0.0, , , , , , 97, , , 49, 49, 49
38.1754071, -120.0595465, 35.900, 14:16:15.794, 16, 0.10, 0.21, 97, -0.200, 3.500, 65.600, 1407, 100, 96, 24, 23892, -17972, 5270, 5434, 14, 14, 1526159775.794, 60, 0, 1024, 1024, 1024, 1024, 0, 6, 3951, 3979, 3992, 4010, 3967, 3990, 0, 1, 17401, -89.900, 0.000, 64.500, 0.000, 0.100, -3.000, 0.0, , , , , , 97, , , 49, 49, 49
38.1754071, -120.0595464, 36.200, 14:16:15.894, 16, 0.10, 0.23, 97, -0.100, 4.000, 65.400, 1407, 100, 96, 24, 23892, -17972, 5270, 5434, 14, 14, 1526159775.895, 73, 0, 1024, 1024, 1024, 1024, 0, 6, 3942, 3979, 3982, 4001, 3961, 3984, 0, 1, 17501, -89.900, 0.000, 64.500, 0.000, 0.100, -3.100, 0.0, , , , , , 97, , , 49, 49, 49
38.1754072, -120.0595462, 36.500, 14:16:15.994, 16, 0.10, 0.24, 97, -0.300, 4.300, 65.400, 1407, 100, 96, 24, 23892, -17972, 5270, 5434, 14, 14, 1526159775.994, 66, 0, 1024, 1024, 1024, 1024, 0, 6, 3942, 3979, 3982, 4001, 3961, 3984, 0, 1, 17600, -89.900, 0.000, 64.500, 0.000, 0.100, -3.100, 0.0, , , , , , 97, , , 49, 49, 49
38.1754072, -120.0595460, 36.900, 14:16:16.094, 16, 0.10, 0.26, 97, -0.200, 4.500, 65.300, 1407, 100, 96, 24, 23892, -17972, 5270, 5434, 14, 14, 1526159776.094, 44, 0, 1024, 1024, 1024, 1024, 0, 6, 3942, 3979, 3982, 4001, 3961, 3984, 0, 1, 17701, -89.900, 0.000, 64.500, 0.000, 0.100, -3.000, 0.0, , , , , , 97, , , 49, 49, 49
38.1754073, -120.0595458, 37.200, 14:16:16.194, 16, 0.10, 0.28, 97, -0.200, 4.900, 65.400, 1407, 100, 96, 24, 23892, -17972, 5270, 5434, 14, 14, 1526159776.195, 41, 0, 1024, 1024, 1024, 1024, 0, 6, 3942, 3979, 3982, 4001, 3961, 3984, 0, 1, 17801, -89.900, 0.000, 64.500, 0.000, 0.100, -3.000, 0.0, , , , , , 97, , , 49, 49, 49
38.1754073, -120.0595458, 37.200, 14:16:16.294, 16, 0.10, 0.28, 97, -0.200, 4.900, 65.400, 1407, 100, 96, 24, 23892, -17972, 5270, 5434, 14, 14, 1526159776.294, 140, 0, 1024, 1024, 1024, 1024, 0, 6, 3942, 3979, 3982, 4001, 3961, 3984, 0, 1, 17901, -89.900, 0.000, 64.500, 0.000, 0.100, -3.000, 0.0, , , , , , 97, , , 49, 49, 49
38.1754073, -120.0595454, 37.800, 14:16:16.394, 16, 0.10, 0.31, 97, -0.600, 5.400, 65.600, 1407, 100, 96, 24, 23892, -17972, 5270, 5434, 14, 14, 1526159776.395, 33, 0, 1024, 1024, 1024, 1024, 0, 6, 3942, 3979, 3982, 4001, 3961, 3984, 0, 1, 18001, -89.900, 0.000, 64.500, 0.000, 0.100, -3.000, 0.0, , , , , , 97, , , 49, 49, 49
38.1754074, -120.0595453, 38.100, 14:16:16.494, 16, 0.00, 0.32, 97, -0.700, 5.400, 65.700, 1407, 100, 96, 24, 23892, -17972, 5270, 5434, 14, 14, 1526159776.495, 56, 0, 1024, 1024, 1024, 1024, 0, 6, 3942, 3979, 3982, 4001, 3961, 3984, 0, 1, 18102, -89.900, 0.000, 64.600, 0.000, 0.000, -3.000, 0.0, , , , , , 97, , , 49, 49, 49
38.1754074, -120.0595451, 38.700, 14:16:16.594, 16, 0.00, 0.34, 97, -0.600, 5.200, 65.500, 1407, 100, 96, 24, 23892, -17972, 5270, 5434, 14, 14, 1526159776.595, 29, 0, 1024, 1024, 1024, 1024, 0, 6, 3942, 3979, 3982, 4001, 3961, 3984, 0, 1, 18201, -89.900, 0.000, 64.500, 0.000, 0.000, -3.000, 0.0, , , , , , 97, , , 49, 49, 49
38.1754074, -120.0595450, 39.000, 14:16:16.694, 16, 0.00, 0.35, 97, -0.900, 5.500, 65.500, 1407, 100, 96, 24, 23892, -17972, 5270, 5434, 14, 14, 1526159776.696, 32, 0, 1024, 1024, 1024, 1024, 0, 6, 3942, 3979, 3982, 4001, 3961, 3984, 0, 1, 18302, -89.900, 0.000, 64.600, 0.000, 0.000, -2.900, 0.0, , , , , , 97, , , 49, 49, 49
38.1754074, -120.0595450, 39.000, 14:16:16.795, 16, 0.00, 0.35, 97, -0.900, 5.500, 65.500, 1407, 100, 96, 24, 23892, -17972, 5270, 5434, 14, 14, 1526159776.796, 133, 0, 1024, 1024, 1024, 1024, 0, 6, 3942, 3979, 3982, 4001, 3961, 3984, 0, 1, 18402, -89.900, 0.000, 64.600, 0.000, 0.000, -2.900, 0.0, , , , , , 97, , , 49, 49, 49
38.1754075, -120.0595447, 39.600, 14:16:16.908, 16, 0.10, 0.38, 97, -0.600, 5.800, 65.500, 1407, 100, 96, 24, 23806, -18270, 5270, 5434, 14, 14, 1526159776.909, 13, 0, 1024, 1024, 1024, 1024, 0, 6, 3942, 3979, 3982, 4001, 3961, 3984, 0, 1, 18515, -89.900, 0.000, 64.600, 0.000, 0.100, -2.800, 0.0, , , , , , 97, , , 49, 49, 49
38.1754075, -120.0595445, 39.900, 14:16:17.001, 16, 0.10, 0.39, 97, -0.900, 6.200, 65.600, 1407, 100, 97, 24, 23806, -18270, 5270, 5434, 14, 14, 1526159777.002, 4, 0, 1024, 1024, 1024, 1024, 0, 6, 3945, 3963, 3971, 3986, 3945, 3974, 0, 1, 18608, -89.900, 0.000, 64.600, 0.000, 0.100, -2.800, 0.0, , , , , , 97, , , 49, 49, 49
38.1754075, -120.0595444, 40.200, 14:16:17.104, 16, 0.00, 0.40, 97, -1.300, 6.300, 65.700, 1407, 100, 97, 24, 23806, -18270, 5270, 5434, 14, 14, 1526159777.104, 8, 0, 1024, 1024, 1024, 1024, 0, 6, 3945, 3963, 3971, 3986, 3945, 3974, 0, 1, 18710, -89.900, 0.000, 64.600, 0.000, 0.000, -2.900, 0.0, , , , , , 97, , , 49, 49, 49
38.1754076, -120.0595443, 40.500, 14:16:17.217, 16, 0.00, 0.41, 97, -1.400, 6.400, 65.800, 1407, 100, 97, 24, 23806, -18270, 5270, 5434, 14, 14, 1526159777.218, 7, 0, 1024, 1024, 1024, 1024, 0, 6, 3945, 3963, 3971, 3986, 3945, 3974, 0, 1, 18824, -89.900, 0.000, 64.600, 0.000, 0.000, -2.800, 0.0, , , , , , 97, , , 49, 49, 49
38.1754076, -120.0595443, 40.500, 14:16:17.294, 16, 0.00, 0.41, 97, -1.400, 6.400, 65.800, 1407, 100, 97, 24, 23806, -18270, 5270, 5434, 14, 14, 1526159777.295, 85, 0, 1024, 1024, 1024, 1024, 0, 6, 3945, 3963, 3971, 3986, 3945, 3974, 0, 1, 18902, -89.900, 0.000, 64.600, 0.000, 0.000, -2.800, 0.0, , , , , , 97, , , 49, 49, 49
38.1754077, -120.0595440, 41.100, 14:16:17.401, 16, 0.00, 0.44, 97, -0.500, 6.800, 65.700, 1407, 100, 97, 24, 23806, -18270, 5270, 5434, 14, 14, 1526159777.401, 5, 0, 1024, 1024, 1024, 1024, 0, 6, 3945, 3963, 3971, 3986, 3945, 3974, 0, 1, 19007, -89.900, 0.000, 64.600, 0.000, 0.000, -2.900, 0.0, , , , , , 97, , , 49, 49, 49
38.1754077, -120.0595440, 41.100, 14:16:17.495, 16, 0.00, 0.44, 97, -0.500, 6.800, 65.700, 1407, 100, 99, 24, 23806, -18270, 5270, 5434, 14, 14, 1526159777.495, 99, 0, 1024, 1024, 1024, 1024, 0, 6, 3945, 3963, 3971, 3986, 3945, 3974, 0, 1, 19101, -89.900, 0.000, 64.600, 0.000, 0.000, -2.900, 0.0, , , , , , 97, , , 49, 49, 49
38.1754078, -120.0595439, 41.400, 14:16:17.594, 16, 0.00, 0.45, 97, -0.300, 6.900, 65.600, 1407, 100, 99, 24, 23806, -18270, 5270, 5434, 14, 14, 1526159777.594, 96, 0, 1024, 1024, 1024, 1024, 0, 6, 3945, 3963, 3971, 3986, 3945, 3974, 0, 1, 19201, -89.900, 0.000, 64.600, 0.000, 0.000, -2.800, 0.0, , , , , , 97, , , 49, 49, 49
38.1754079, -120.0595438, 41.600, 14:16:17.694, 16, 0.00, 0.46, 97, -0.200, 6.900, 65.600, 1407, 100, 99, 24, 23806, -18270, 5270, 5434, 14, 14, 1526159777.695, 64, 0, 1024, 1024, 1024, 1024, 0, 6, 3945, 3963, 3971, 3986, 3945, 3974, 0, 1, 19301, -89.900, 0.000, 64.600, 0.000, 0.000, -2.800, 0.0, , , , , , 97, , , 49, 49, 49
38.1754079, -120.0595438, 41.900, 14:16:17.794, 16, 0.00, 0.47, 97, -0.100, 6.700, 65.700, 1407, 100, 99, 24, 23806, -18270, 5270, 5434, 14, 14, 1526159777.796, 65, 0, 1024, 1024, 1024, 1024, 0, 6, 3945, 3963, 3971, 3986, 3945, 3974, 0, 1, 19403, -90.000, 0.000, 64.600, 0.000, 0.000, -2.800, 0.0, , , , , , 97, , , 49, 49, 49
38.1754079, -120.0595438, 42.200, 14:16:17.894, 16, 0.00, 0.47, 97, -0.300, 6.400, 65.700, 1407, 100, 99, 24, 23715, -18812, 5270, 5434, 14, 14, 1526159777.895, 66, 0, 1024, 1024, 1024, 1024, 0, 6, 3937, 3945, 3966, 3969, 3931, 3980, 0, 1, 19502, -90.000, 0.000, 64.600, 0.000, 0.000, -2.900, 0.0, , , , , , 97, , , 49, 49, 49
38.1754080, -120.0595438, 42.500, 14:16:17.994, 16, 0.00, 0.47, 97, -0.300, 6.200, 65.600, 1407, 100, 99, 24, 23715, -18812, 5270, 5434, 14, 14, 1526159777.995, 66, 0, 1024, 1024, 1024, 1024, 0, 6, 3937, 3945, 3966, 3969, 3931, 3980, 0, 1, 19601, -90.000, 0.000, 64.600, 0.000, 0.000, -2.900, 0.0, , , , , , 97, , , 49, 49, 49
38.1754080, -120.0595438, 42.800, 14:16:18.094, 16, 0.00, 0.47, 97, -0.400, 6.000, 65.500, 1407, 100, 99, 24, 23715, -18812, 5270, 5434, 14, 14, 1526159778.095, 85, 0, 1024, 1024, 1024, 1024, 0, 6, 3937, 3945, 3966, 3969, 3931, 3980, 0, 1, 19701, -90.000, 0.000, 64.600, 0.000, 0.000, -2.900, 0.0, , , , , , 97, , , 49, 49, 49
38.1754080, -120.0595439, 43.100, 14:16:18.194, 16, 0.00, 0.46, 97, -0.800, 5.700, 65.500, 1407, 100, 99, 24, 23715, -18812, 5270, 5434, 14, 14, 1526159778.195, 33, 0, 1024, 1024, 1024, 1024, 0, 6, 3937, 3945, 3966, 3969, 3931, 3980, 0, 1, 19801, -90.000, 0.000, 64.600, 0.000, 0.000, -2.900, 0.0, , , , , , 97, , , 49, 49, 49
38.1754080, -120.0595439, 43.400, 14:16:18.294, 16, 0.00, 0.46, 97, -1.000, 5.800, 65.600, 1407, 100, 99, 24, 23715, -18812, 5270, 5434, 14, 14, 1526159778.295, 52, 0, 1024, 1024, 1024, 1024, 0, 6, 3937, 3945, 3966, 3969, 3931, 3980, 0, 1, 19901, -89.900, 0.000, 64.600, 0.000, 0.000, -2.900, 0.0, , , , , , 97, , , 49, 49, 49
38.1754080, -120.0595440, 43.700, 14:16:18.394, 16, 0.00, 0.46, 97, -0.300, 5.800, 65.500, 1407, 100, 99, 24, 23715, -18812, 5270, 5434, 14, 14, 1526159778.395, 19, 0, 1024, 1024, 1024, 1024, 0, 6, 3937, 3945, 3966, 3969, 3931, 3980, 0, 1, 20001, -90.000, 0.000, 64.600, 0.000, 0.000, -2.900, 0.0, , , , , , 97, , , 49, 49, 49
38.1754081, -120.0595440, 44.000, 14:16:18.494, 16, 0.00, 0.46, 97, 0.100, 5.700, 65.400, 1407, 100, 99, 24, 23715, -18812, 5270, 5434, 14, 14, 1526159778.496, 54, 0, 1024, 1024, 1024, 1024, 0, 6, 3937, 3945, 3966, 3969, 3931, 3980, 0, 1, 20102, -89.900, 0.000, 64.600, 0.000, 0.000, -2.900, 0.0, , , , , , 97, , , 49, 49, 49
38.1754082, -120.0595441, 44.300, 14:16:18.594, 16, 0.00, 0.45, 97, 0.400, 5.600, 65.400, 1407, 100, 99, 24, 23715, -18812, 5270, 5434, 14, 14, 1526159778.594, 48, 0, 1024, 1024, 1024, 1024, 0, 6, 3937, 3945, 3966, 3969, 3931, 3980, 0, 1, 20200, -90.000, 0.000, 64.600, 0.000, 0.000, -2.900, 0.0, , , , , , 97, , , 49, 49, 49
38.1754082, -120.0595442, 44.500, 14:16:18.694, 16, 0.00, 0.45, 97, 0.300, 5.400, 65.300, 1407, 100, 99, 24, 23715, -18812, 5270, 5434, 14, 14, 1526159778.695, 33, 0, 1024, 1024, 1024, 1024, 0, 6, 3937, 3945, 3966, 3969, 3931, 3980, 0, 1, 20301, -90.000, 0.000, 64.600, 0.000, 0.000, -2.800, 0.0, , , , , , 97, , , 49, 49, 49
38.1754082, -120.0595442, 44.800, 14:16:18.794, 16, 0.00, 0.45, 97, -0.500, 5.200, 65.300, 1407, 100, 99, 24, 23715, -18812, 5270, 5434, 14, 14, 1526159778.795, 32, 0, 1024, 1024, 1024, 1024, 0, 6, 3937, 3945, 3966, 3969, 3931, 3980, 0, 1, 20401, -90.000, 0.000, 64.600, 0.000, 0.000, -2.800, 0.0, , , , , , 97, , , 49, 49, 49
38.1754082, -120.0595443, 45.100, 14:16:18.894, 16, 0.00, 0.45, 97, -0.200, 4.900, 65.400, 1407, 100, 99, 24, 23455, -22126, 5270, 5434, 14, 14, 1526159778.895, 32, 0, 1024, 1024, 1024, 1024, 0, 6, 3937, 3945, 3966, 3969, 3931, 3980, 0, 1, 20501, -90.000, 0.000, 64.600, 0.000, 0.000, -2.900, 0.0, , , , , , 97, , , 49, 49, 49
38.1754082, -120.0595443, 45.400, 14:16:18.994, 16, 0.00, 0.44, 97, 0.800, 5.500, 65.500, 1407, 100, 99, 24, 23455, -22126, 5270, 5434, 14, 14, 1526159778.995, 17, 0, 1024, 1024, 1024, 1024, 0, 6, 3879, 3904, 3921, 3935, 3885, 3918, 0, 1, 20601, -89.900, 0.000, 64.600, 0.000, 0.000, -3.100, 0.0, , , , , , 97, , , 49, 49, 49
38.1754083, -120.0595444, 45.700, 14:16:19.096, 16, 0.00, 0.44, 97, 1.900, 6.300, 65.300, 1407, 100, 99, 24, 23455, -22126, 5270, 5434, 14, 14, 1526159779.096, 41, 0, 1024, 1024, 1024, 1024, 0, 6, 3879, 3904, 3921, 3935, 3885, 3918, 0, 1, 20703, -89.900, 0.000, 64.600, 0.000, 0.000, -3.100, 0.0, , , , , , 97, , , 49, 49, 49
38.1754084, -120.0595446, 46.400, 14:16:19.200, 16, 0.00, 0.43, 97, 0.800, 5.600, 65.300, 1407, 100, 99, 24, 23455, -22126, 5270, 5434, 14, 14, 1526159779.201, 19, 0, 1024, 1024, 1024, 1024, 0, 6, 3879, 3904, 3921, 3935, 3885, 3918, 0, 1, 20807, -89.900, 0.000, 64.600, 0.000, 0.000, -3.100, 0.0, , , , , , 97, , , 49, 49, 49
38.1754083, -120.0595446, 46.700, 14:16:19.294, 16, 0.00, 0.43, 97, 0.000, 4.900, 65.200, 1407, 100, 99, 24, 23455, -22126, 5270, 5434, 14, 14, 1526159779.295, 43, 0, 1024, 1024, 1024, 1024, 0, 6, 3879, 3904, 3921, 3935, 3885, 3918, 0, 1, 20902, -90.000, 0.000, 64.600, 0.000, 0.000, -3.100, 0.0, , , , , , 97, , , 49, 49, 49
