Latitude, Longitude, Altitude (m), Time, Sats, Speed (m/s), Range (m), Battery (%), Roll (deg), Pitch (deg), Yaw (deg), Images, HD Signal (%), RC Signal (%), Battery Temp (C), Battery Voltage (mV), Battery Current (mA), Battery Energy (mAh), Battery Capacity (mAh), Battery Discharges, flyState, timestamp (Unix), LastUpdate (ms), radioChannel, Rc_elevator, Rc_aileron, Rc_throttle, Rc_rudder, Rc_gyro, Dronetype, Battery_Cell1 (mV), Battery_Cell2 (mV), Battery_Cell3 (mV), Battery_Cell4 (mV), Battery_Cell5 (mV), Battery_Cell6 (mV), Video, isFlying, elapsedTime (ms), gimbalPitch (deg), gimbalRoll (deg), gimbalYaw (deg), VelocityX (m/s), VelocityY (m/s), VelocityZ (m/s), GroundSmear (cm), App Version, Aircraft Name, Aircraft Firmware, Aircraft Serial Number, Battery Serial Number, Battery Lifetime (%), App_Tip, App_Warning, CurrentFlightStartingIndex, CurrentFlightLastVisitedWaypoint, PreviousFlightEndingWaypointIndex
38.1754066, -120.0595464, 0.000, 14:35:07.099, 13, 0.00, 0.14, 93, -0.900, 0.000, 62.900, 1743, 100, 100, 23, 25412, -4945, 4868, 5235, 11, 11, 1526160907.100, 52, 0, 1024, 1024, 1024, 1024, 0, 6, 4276, 4231, 4166, 4231, 4266, 4257, 0, 1, 3008, -90.000, 0.000, 62.000, 0.000, 0.000, 0.000, 0.0, MapPilot_2.8.1_04242018, Dendroctonus I, 1.3.1.00, 041DDC1887, 1058171200154, 98, DJI_0748.jpg, Starting Mission from Lat/Long: 38.17542/-120.05954 Camera: Zenmuse X3 - Overlap: 90/90 - Active Connection: No, 61, 61, 61
38.1754066, -120.0595464, 0.000, 14:35:07.199, 13, 0.00, 0.14, 93, -1.400, -0.200, 62.900, 1743, 100, 100, 23, 25412, -4945, 4868, 5235, 11, 11, 1526160907.199, 12, 0, 1024, 1024, 1024, 1024, 0, 6, 4276, 4231, 4166, 4231, 4266, 4257, 0, 1, 3108, -89.900, 0.000, 62.000, 0.000, 0.000, -0.200, 0.0, , , , , , 98, , , 61, 61, 61
38.1754067, -120.0595464, 0.000, 14:35:07.295, 13, 0.00, 0.13, 93, -0.300, -0.200, 62.900, 1743, 100, 100, 23, 25412, -4945, 4868, 5235, 11, 11, 1526160907.295, 33, 0, 1024, 1024, 1024, 1024, 0, 6, 4276, 4231, 4166, 4231, 4266, 4257, 0, 1, 3204, -89.900, 0.000, 62.000, 0.000, 0.000, -0.300, 0.0, , , , , , 98, , , 61, 61, 61
38.1754067, -120.0595464, 0.000, 14:35:07.394, 13, 0.00, 0.13, 93, 0.500, -0.200, 62.900, 1743, 100, 100, 23, 25412, -4945, 4868, 5235, 11, 11, 1526160907.395, 22, 0, 1024, 1024, 1024, 1024, 0, 6, 4276, 4231, 4166, 4231, 4266, 4257, 0, 1, 3304, -89.900, 0.000, 62.000, 0.000, 0.000, -0.400, 0.0, , , , , , 98, , , 61, 61, 61
38.1754068, -120.0595464, 0.100, 14:35:07.494, 13, 0.10, 0.12, 93, 0.800, 0.000, 62.900, 1743, 100, 100, 23, 25412, -4945, 4868, 5235, 11, 11, 1526160907.495, 19, 0, 1024, 1024, 1024, 1024, 0, 6, 4276, 4231, 4166, 4231, 4266, 4257, 0, 1, 3404, -89.900, 0.000, 62.000, 0.100, 0.000, -0.400, 0.0, , , , , , 98, , , 61, 61, 61
38.1754069, -120.0595464, 0.100, 14:35:07.592, 13, 0.10, 0.11, 93, 0.800, 0.000, 62.900, 1743, 100, 100, 23, 25332, -4241, 4868, 5235, 11, 11, 1526160907.593, 30, 0, 1024, 1024, 1024, 1024, 0, 6, 4179, 4179, 4193, 4171, 4210, 4144, 0, 1, 3501, -89.900, 0.000, 62.000, 0.100, 0.000, -0.400, 0.0, , , , , , 98, , , 61, 61, 61
38.1754071, -120.0595463, 0.200, 14:35:07.692, 12, 0.10, 0.08, 93, 0.600, 1.000, 62.900, 1743, 100, 100, 23, 25332, -4241, 4868, 5235, 11, 11, 1526160907.692, 12, 0, 1024, 1024, 1024, 1024, 0, 6, 4179, 4179, 4193, 4171, 4210, 4144, 0, 1, 3601, -89.900, 0.000, 62.000, 0.100, 0.000, -0.400, 0.0, , , , , , 98, , , 61, 61, 61
38.1754072, -120.0595462, 0.200, 14:35:07.794, 11, 0.10, 0.07, 93, 0.500, 1.300, 63.000, 1743, 100, 100, 23, 25332, -4241, 4868, 5235, 11, 11, 1526160907.796, 15, 0, 1024, 1024, 1024, 1024, 0, 6, 4179, 4179, 4193, 4171, 4210, 4144, 0, 1, 3704, -89.900, 0.000, 62.000, 0.100, 0.000, -0.400, 0.0, , , , , , 98, , , 61, 61, 61
38.1754073, -120.0595461, 0.300, 14:35:07.904, 11, 0.10, 0.07, 93, 0.500, 1.100, 63.200, 1743, 100, 100, 23, 25332, -4241, 4868, 5235, 11, 11, 1526160907.905, 9, 0, 1024, 1024, 1024, 1024, 0, 6, 4179, 4179, 4193, 4171, 4210, 4144, 0, 1, 3814, -89.900, 0.000, 62.000, 0.100, 0.000, -0.400, 0.0, , , , , , 98, , , 61, 61, 61
38.1754074, -120.0595461, 0.300, 14:35:07.994, 12, 0.10, 0.06, 93, 0.500, 1.000, 63.300, 1743, 100, 100, 23, 25332, -4241, 4868, 5235, 11, 11, 1526160907.995, 18, 0, 1024, 1024, 1024, 1024, 0, 6, 4179, 4179, 4193, 4171, 4210, 4144, 0, 1, 3904, -89.900, 0.000, 62.000, 0.100, 0.000, -0.400, 0.0, , , , , , 98, , , 61, 61, 61
38.1754074, -120.0595460, 0.400, 14:35:08.093, 12, 0.10, 0.06, 93, 0.700, 1.000, 63.400, 1743, 100, 100, 23, 25332, -4241, 4868, 5235, 11, 11, 1526160908.093, 9, 0, 1024, 1024, 1024, 1024, 0, 6, 4179, 4179, 4193, 4171, 4210, 4144, 0, 1, 4002, -89.900, 0.000, 62.000, 0.100, 0.000, -0.400, 0.0, , , , , , 98, , , 61, 61, 61
38.1754074, -120.0595460, 0.400, 14:35:08.200, 12, 0.00, 0.06, 93, 0.900, 1.100, 63.400, 1743, 100, 100, 23, 25332, -4241, 4868, 5235, 11, 11, 1526160908.200, 3, 0, 1024, 1024, 1024, 1024, 0, 6, 4179, 4179, 4193, 4171, 4210, 4144, 0, 1, 4109, -89.900, 0.000, 62.000, 0.000, 0.000, -0.500, 0.0, , , , , , 98, , , 61, 61, 61
38.1754075, -120.0595460, 0.500, 14:35:08.293, 12, 0.00, 0.06, 93, 0.900, 1.100, 63.400, 1743, 100, 100, 23, 25332, -4241, 4868, 5235, 11, 11, 1526160908.293, 13, 0, 1024, 1024, 1024, 1024, 0, 6, 4179, 4179, 4193, 4171, 4210, 4144, 0, 1, 4202, -89.900, 0.000, 62.000, 0.000, 0.000, -0.500, 0.0, , , , , , 98, , , 61, 61, 61
38.1754075, -120.0595460, 0.500, 14:35:08.403, 12, 0.00, 0.05, 93, 1.000, 1.100, 63.300, 1743, 100, 100, 23, 25332, -4241, 4868, 5235, 11, 11, 1526160908.403, 9, 0, 1024, 1024, 1024, 1024, 0, 6, 4179, 4179, 4193, 4171, 4210, 4144, 0, 1, 4312, -89.900, 0.000, 62.000, 0.000, 0.000, -0.500, 0.0, , , , , , 98, , , 61, 61, 61
38.1754076, -120.0595460, 0.600, 14:35:08.504, 12, 0.00, 0.05, 93, 1.100, 1.100, 63.200, 1743, 100, 100, 23, 24209, -14673, 4763, 5235, 11, 11, 1526160908.504, 5, 0, 1024, 1024, 1024, 1024, 0, 6, 4179, 4179, 4193, 4171, 4210, 4144, 0, 1, 4413, -89.900, 0.000, 62.000, 0.000, 0.000, -0.500, 0.0, , , , , , 98, , , 61, 61, 61
38.1754076, -120.0595460, 0.600, 14:35:08.594, 12, 0.00, 0.05, 93, 1.100, 1.100, 63.200, 1743, 100, 100, 23, 24209, -14673, 4763, 5235, 11, 11, 1526160908.594, 96, 0, 1024, 1024, 1024, 1024, 0, 6, 4024, 4031, 4046, 4024, 4043, 4034, 0, 1, 4503, -89.900, 0.000, 62.000, 0.000, 0.000, -0.500, 0.0, , , , , , 98, , , 61, 61, 61
38.1754076, -120.0595460, 0.700, 14:35:08.694, 12, 0.00, 0.05, 93, 1.300, 1.200, 63.100, 1743, 100, 100, 23, 24209, -14673, 4763, 5235, 11, 11, 1526160908.695, 79, 0, 1024, 1024, 1024, 1024, 0, 6, 4024, 4031, 4046, 4024, 4043, 4034, 0, 1, 4604, -89.900, 0.000, 62.000, 0.000, 0.000, -0.500, 0.0, , , , , , 98, , , 61, 61, 61
38.1754077, -120.0595460, 0.700, 14:35:08.794, 12, 0.00, 0.04, 93, 1.400, 1.200, 62.900, 1743, 100, 100, 23, 24209, -14673, 4763, 5235, 11, 11, 1526160908.794, 79, 0, 1024, 1024, 1024, 1024, 0, 6, 4024, 4031, 4046, 4024, 4043, 4034, 0, 1, 4703, -89.900, 0.000, 62.000, 0.000, 0.000, -0.400, 0.0, , , , , , 98, , , 61, 61, 61
38.1754077, -120.0595460, 0.800, 14:35:08.895, 13, 0.00, 0.04, 93, 1.500, 1.100, 62.600, 1743, 100, 100, 23, 24209, -14673, 4763, 5235, 11, 11, 1526160908.896, 75, 0, 1024, 1024, 1024, 1024, 0, 6, 4024, 4031, 4046, 4024, 4043, 4034, 0, 1, 4805, -89.900, 0.000, 62.000, 0.000, 0.000, -0.500, 0.0, , , , , , 98, , , 61, 61, 61
38.1754077, -120.0595460, 0.800, 14:35:08.994, 13, 0.00, 0.04, 93, 1.500, 1.000, 62.300, 1743, 100, 100, 23, 24209, -14673, 4763, 5235, 11, 11, 1526160908.995, 75, 0, 1024, 1024, 1024, 1024, 0, 6, 4024, 4031, 4046, 4024, 4043, 4034, 0, 1, 4903, -89.900, 0.000, 62.000, 0.000, 0.000, -0.500, 0.0, , , , , , 98, , , 61, 61, 61
38.1754077, -120.0595459, 0.900, 14:35:09.094, 13, 0.00, 0.05, 91, 1.400, 1.100, 62.200, 1743, 100, 100, 23, 24209, -14673, 4763, 5235, 11, 6, 1526160909.095, 78, 0, 1024, 1024, 1024, 1024, 0, 6, 4024, 4031, 4046, 4024, 4043, 4034, 0, 1, 5004, -89.900, 0.000, 62.000, 0.000, 0.000, -0.400, 0.0, , , , , , 98, , , 61, 61, 61
38.1754077, -120.0595459, 0.900, 14:35:09.193, 13, 0.00, 0.05, 91, 1.200, 1.200, 62.000, 1743, 100, 100, 23, 24209, -14673, 4763, 5235, 11, 14, 1526160909.193, 45, 0, 1024, 1024, 1024, 1024, 0, 6, 4024, 4031, 4046, 4024, 4043, 4034, 0, 1, 5102, -89.900, 0.000, 62.000, 0.000, 0.000, -0.400, 0.0, , , , , , 98, , , 61, 61, 61
38.1754077, -120.0595459, 1.000, 14:35:09.292, 13, 0.00, 0.05, 91, 0.900, 1.000, 61.800, 1743, 100, 100, 23, 24209, -14673, 4763, 5235, 11, 14, 1526160909.292, 51, 0, 1024, 1024, 1024, 1024, 0, 6, 4024, 4031, 4046, 4024, 4043, 4034, 0, 1, 5201, -89.900, 0.000, 62.000, 0.000, 0.000, -0.300, 0.0, , , , , , 98, , , 61, 61, 61
38.1754077, -120.0595459, 1.000, 14:35:09.392, 13, 0.00, 0.05, 91, 0.600, 0.700, 61.400, 1743, 100, 100, 23, 24209, -14673, 4763, 5235, 11, 14, 1526160909.392, 76, 0, 1024, 1024, 1024, 1024, 0, 6, 4024, 4031, 4046, 4024, 4043, 4034, 0, 1, 5301, -89.900, 0.000, 62.000, 0.000, 0.000, -0.200, 0.0, , , , , , 98, , , 61, 61, 61
38.1754077, -120.0595459, 1.000, 14:35:09.492, 14, 0.00, 0.05, 91, 0.500, 0.500, 61.000, 1743, 100, 100, 23, 24209, -14673, 4763, 5235, 11, 14, 1526160909.492, 57, 0, 1024, 1024, 1024, 1024, 0, 6, 4024, 4031, 4046, 4024, 4043, 4034, 0, 1, 5401, -90.000, 0.000, 62.000, 0.000, 0.000, -0.200, 0.0, , , , , , 98, , , 61, 61, 61
38.1754077, -120.0595459, 1.000, 14:35:09.592, 14, 0.00, 0.05, 91, 0.700, 0.300, 60.500, 1743, 100, 100, 23, 24027, -16566, 4763, 5235, 11, 14, 1526160909.593, 64, 0, 1024, 1024, 1024, 1024, 0, 6, 4024, 4031, 4046, 4024, 4043, 4034, 0, 1, 5502, -90.000, 0.000, 62.000, 0.000, 0.000, -0.300, 0.0, , , , , , 98, , , 61, 61, 61
38.1754077, -120.0595460, 1.100, 14:35:09.692, 14, 0.00, 0.05, 91, 1.000, 0.200, 60.000, 1743, 100, 95, 23, 24027, -16566, 4763, 5235, 11, 14, 1526160909.692, 52, 0, 1024, 1024, 1024, 1024, 0, 6, 4024, 4031, 4046, 4024, 4043, 4034, 0, 1, 5601, -90.000, 0.000, 62.000, 0.000, 0.000, -0.500, 0.0, , , , , , 98, , , 61, 61, 61
38.1754077, -120.0595460, 1.200, 14:35:09.792, 14, 0.00, 0.05, 91, 1.100, 0.200, 59.500, 1743, 100, 95, 23, 24027, -16566, 4763, 5235, 11, 14, 1526160909.792, 54, 0, 1024, 1024, 1024, 1024, 0, 6, 4024, 4031, 4046, 4024, 4043, 4034, 0, 1, 5701, -90.000, 0.000, 61.900, 0.000, 0.000, -0.700, 0.0, , , , , , 98, , , 61, 61, 61
38.1754076, -120.0595459, 1.200, 14:35:09.892, 13, 0.00, 0.05, 91, 1.000, 0.300, 59.000, 1743, 100, 95, 23, 24027, -16566, 4763, 5235, 11, 14, 1526160909.893, 57, 0, 1024, 1024, 1024, 1024, 0, 6, 4024, 4031, 4046, 4024, 4043, 4034, 0, 1, 5802, -90.000, 0.000, 61.800, 0.000, 0.000, -0.800, 0.0, , , , , , 98, , , 61, 61, 61
38.1754076, -120.0595459, 1.300, 14:35:09.992, 13, 0.00, 0.05, 91, 0.800, 0.500, 58.500, 1743, 100, 95, 23, 24027, -16566, 4763, 5235, 11, 14, 1526160909.993, 33, 0, 1024, 1024, 1024, 1024, 0, 6, 4024, 4031, 4046, 4024, 4043, 4034, 0, 1, 5902, -89.900, 0.000, 61.800, 0.000, 0.000, -1.000, 0.0, , , , , , 98, , , 61, 61, 61
38.1754076, -120.0595458, 1.400, 14:35:10.093, 14, 0.00, 0.06, 91, 0.600, 0.800, 58.200, 1743, 100, 95, 23, 24027, -16566, 4763, 5235, 11, 14, 1526160910.094, 12, 0, 1024, 1024, 1024, 1024, 0, 6, 4024, 4031, 4046, 4024, 4043, 4034, 0, 1, 6003, -89.900, 0.000, 61.600, 0.000, 0.000, -1.100, 0.0, , , , , , 98, , , 61, 61, 61
38.1754077, -120.0595456, 1.700, 14:35:10.198, 13, 0.00, 0.07, 91, 0.800, 1.200, 58.200, 1743, 100, 95, 23, 24027, -16566, 4763, 5235, 11, 14, 1526160910.198, 6, 0, 1024, 1024, 1024, 1024, 0, 6, 3986, 4006, 4013, 3997, 3997, 4005, 0, 1, 6107, -89.900, 0.000, 61.500, 0.000, 0.000, -1.600, 0.0, , , , , , 98, , , 61, 61, 61
38.1754077, -120.0595456, 1.700, 14:35:10.292, 13, 0.00, 0.07, 91, 0.800, 1.200, 58.200, 1743, 100, 95, 23, 24027, -16566, 4763, 5235, 11, 14, 1526160910.292, 100, 0, 1024, 1024, 1024, 1024, 0, 6, 3986, 4006, 4013, 3997, 3997, 4005, 0, 1, 6201, -89.900, 0.000, 61.400, 0.000, 0.000, -1.600, 0.0, , , , , , 98, , , 61, 61, 61
38.1754080, -120.0595455, 2.100, 14:35:10.392, 13, 0.00, 0.09, 91, 1.700, 1.000, 59.100, 1743, 100, 95, 23, 24027, -16566, 4763, 5235, 11, 14, 1526160910.393, 15, 0, 1024, 1024, 1024, 1024, 0, 6, 3986, 4006, 4013, 3997, 3997, 4005, 0, 1, 6302, -89.900, 0.000, 61.300, 0.000, 0.000, -2.100, 0.0, , , , , , 98, , , 61, 61, 61
38.1754082, -120.0595454, 2.400, 14:35:10.499, 13, 0.00, 0.10, 91, 1.800, 0.900, 59.300, 1743, 100, 95, 23, 24027, -16566, 4763, 5235, 11, 14, 1526160910.499, 5, 0, 1024, 1024, 1024, 1024, 0, 6, 3986, 4006, 4013, 3997, 3997, 4005, 0, 1, 6408, -89.900, 0.000, 61.200, 0.000, 0.000, -2.400, 0.0, , , , , , 98, , , 61, 61, 61
38.1754084, -120.0595453, 2.600, 14:35:10.592, 13, 0.00, 0.12, 91, 2.000, 1.000, 59.500, 1743, 100, 95, 23, 24027, -16566, 4763, 5235, 11, 14, 1526160910.592, 29, 0, 1024, 1024, 1024, 1024, 0, 6, 3986, 4006, 4013, 3997, 3997, 4005, 0, 1, 6501, -89.900, 0.000, 61.100, 0.000, 0.000, -2.500, 0.0, , , , , , 98, , , 61, 61, 61
38.1754084, -120.0595453, 2.600, 14:35:10.691, 13, 0.00, 0.12, 91, 2.000, 1.000, 59.500, 1743, 100, 95, 23, 24027, -16566, 4763, 5235, 11, 14, 1526160910.692, 128, 0, 1024, 1024, 1024, 1024, 0, 6, 3986, 4006, 4013, 3997, 3997, 4005, 0, 1, 6600, -89.900, 0.000, 61.100, 0.000, 0.000, -2.500, 0.0, , , , , , 98, , , 61, 61, 61
38.1754089, -120.0595452, 3.200, 14:35:10.800, 13, 0.10, 0.16, 91, 2.700, 1.400, 59.300, 1743, 100, 95, 23, 24027, -16566, 4763, 5235, 11, 14, 1526160910.801, 14, 0, 1024, 1024, 1024, 1024, 0, 6, 3986, 4006, 4013, 3997, 3997, 4005, 0, 1, 6710, -89.900, 0.000, 60.900, 0.100, 0.000, -3.000, 0.0, , , , , , 98, , , 61, 61, 61
38.1754092, -120.0595452, 3.500, 14:35:10.903, 13, 0.10, 0.18, 91, 3.000, 1.600, 59.100, 1743, 100, 95, 23, 24027, -16566, 4763, 5235, 11, 14, 1526160910.903, 5, 0, 1024, 1024, 1024, 1024, 0, 6, 3986, 4006, 4013, 3997, 3997, 4005, 0, 1, 6812, -89.900, 0.000, 60.800, 0.100, 0.000, -3.100, 0.0, , , , , , 98, , , 61, 61, 61
38.1754094, -120.0595452, 3.800, 14:35:10.991, 13, 0.00, 0.21, 91, 3.100, 1.900, 58.900, 1743, 100, 95, 23, 24027, -16566, 4763, 5235, 11, 14, 1526160910.992, 6, 0, 1024, 1024, 1024, 1024, 0, 6, 3986, 4006, 4013, 3997, 3997, 4005, 0, 1, 6901, -89.900, 0.000, 60.700, 0.000, 0.000, -3.200, 0.0, , , , , , 98, , , 61, 61, 61
38.1754097, -120.0595452, 4.200, 14:35:11.104, 13, 0.00, 0.23, 91, 3.100, 2.100, 58.700, 1743, 100, 95, 23, 23948, -17035, 4763, 5235, 11, 14, 1526160911.104, 10, 0, 1024, 1024, 1024, 1024, 0, 6, 3986, 4006, 4013, 3997, 3997, 4005, 0, 1, 7013, -89.900, 0.000, 60.600, 0.000, 0.000, -3.200, 0.0, , , , , , 98, , , 61, 61, 61
38.1754098, -120.0595452, 4.500, 14:35:11.198, 13, 0.00, 0.24, 91, 3.100, 2.100, 58.600, 1743, 100, 100, 23, 23948, -17035, 4763, 5235, 11, 14, 1526160911.198, 7, 0, 1024, 1024, 1024, 1024, 0, 6, 3940, 3980, 3958, 3969, 3952, 3956, 0, 1, 7107, -89.900, 0.000, 60.600, 0.000, 0.000, -3.200, 0.0, , , , , , 98, , , 61, 61, 61
38.1754098, -120.0595452, 4.500, 14:35:11.292, 13, 0.00, 0.24, 91, 3.100, 2.100, 58.600, 1743, 100, 100, 23, 23948, -17035, 4763, 5235, 11, 14, 1526160911.293, 102, 0, 1024, 1024, 1024, 1024, 0, 6, 3940, 3980, 3958, 3969, 3952, 3956, 0, 1, 7201, -89.900, 0.000, 60.500, 0.000, 0.000, -3.200, 0.0, , , , , , 98, , , 61, 61, 61
38.1754099, -120.0595452, 4.800, 14:35:11.393, 13, 0.00, 0.25, 91, 2.800, 2.100, 58.400, 1743, 100, 100, 23, 23948, -17035, 4763, 5235, 11, 14, 1526160911.393, 82, 0, 1024, 1024, 1024, 1024, 0, 6, 3940, 3980, 3958, 3969, 3952, 3956, 0, 1, 7302, -89.900, 0.000, 60.400, 0.000, 0.000, -3.200, 0.0, , , , , , 98, , , 61, 61, 61
38.1754099, -120.0595451, 5.200, 14:35:11.492, 13, 0.00, 0.26, 91, 2.600, 2.100, 58.300, 1743, 100, 100, 23, 23948, -17035, 4763, 5235, 11, 14, 1526160911.493, 81, 0, 1024, 1024, 1024, 1024, 0, 6, 3940, 3980, 3958, 3969, 3952, 3956, 0, 1, 7401, -89.900, 0.000, 60.400, 0.000, 0.000, -3.200, 0.0, , , , , , 98, , , 61, 61, 61
38.1754099, -120.0595451, 5.500, 14:35:11.592, 13, 0.00, 0.26, 91, 2.300, 1.900, 58.200, 1743, 100, 100, 23, 23948, -17035, 4763, 5235, 11, 14, 1526160911.593, 71, 0, 1024, 1024, 1024, 1024, 0, 6, 3940, 3980, 3958, 3969, 3952, 3956, 0, 1, 7501, -89.900, 0.000, 60.300, 0.000, 0.000, -3.200, 0.0, , , , , , 98, , , 61, 61, 61
38.1754099, -120.0595451, 5.800, 14:35:11.692, 14, 0.00, 0.26, 91, 2.200, 1.800, 58.100, 1743, 100, 98, 23, 23948, -17035, 4763, 5235, 11, 14, 1526160911.692, 59, 0, 1024, 1024, 1024, 1024, 0, 6, 3940, 3980, 3958, 3969, 3952, 3956, 0, 1, 7601, -89.900, 0.000, 60.300, 0.000, 0.000, -3.100, 0.0, , , , , , 98, , , 61, 61, 61
38.1754098, -120.0595451, 6.200, 14:35:11.792, 14, 0.00, 0.25, 91, 2.000, 1.700, 58.100, 1743, 100, 98, 23, 23948, -17035, 4763, 5235, 11, 14, 1526160911.792, 61, 0, 1024, 1024, 1024, 1024, 0, 6, 3940, 3980, 3958, 3969, 3952, 3956, 0, 1, 7701, -89.900, 0.000, 60.200, 0.000, 0.000, -3.100, 0.0, , , , , , 98, , , 61, 61, 61
38.1754097, -120.0595452, 6.500, 14:35:11.892, 14, 0.00, 0.23, 91, 1.800, 1.600, 58.200, 1743, 100, 98, 23, 23948, -17035, 4763, 5235, 11, 14, 1526160911.892, 67, 0, 1024, 1024, 1024, 1024, 0, 6, 3940, 3980, 3958, 3969, 3952, 3956, 0, 1, 7801, -89.900, 0.000, 60.200, 0.000, 0.000, -3.200, 0.0, , , , , , 98, , , 61, 61, 61
38.1754095, -120.0595453, 6.800, 14:35:11.991, 14, 0.00, 0.21, 91, 1.600, 1.300, 58.200, 1743, 100, 98, 23, 23948, -17035, 4763, 5235, 11, 14, 1526160911.992, 52, 0, 1024, 1024, 1024, 1024, 0, 6, 3940, 3980, 3958, 3969, 3952, 3956, 0, 1, 7901, -89.900, 0.000, 60.100, 0.000, 0.000, -3.200, 0.0, , , , , , 98, , , 61, 61, 61
38.1754093, -120.0595454, 7.100, 14:35:12.092, 14, 0.10, 0.19, 91, 1.500, 1.000, 58.400, 1743, 100, 98, 23, 23217, -24124, 4763, 5235, 11, 14, 1526160912.093, 68, 0, 1024, 1024, 1024, 1024, 0, 6, 3876, 3901, 3912, 3888, 3885, 3906, 0, 1, 8002, -89.900, 0.000, 60.100, -0.100, 0.000, -3.100, 0.0, , , , , , 98, , , 61, 61, 61
38.1754091, -120.0595454, 7.500, 14:35:12.192, 14, 0.10, 0.16, 91, 1.200, 0.600, 58.500, 1743, 100, 98, 23, 23217, -24124, 4763, 5235, 11, 14, 1526160912.192, 48, 0, 1024, 1024, 1024, 1024, 0, 6, 3876, 3901, 3912, 3888, 3885, 3906, 0, 1, 8101, -90.000, 0.000, 60.000, -0.100, 0.000, -3.200, 0.0, , , , , , 98, , , 61, 61, 61
38.1754088, -120.0595455, 7.800, 14:35:12.292, 13, 0.10, 0.14, 91, 0.900, 0.200, 58.600, 1743, 100, 98, 23, 23217, -24124, 4763, 5235, 11, 14, 1526160912.292, 45, 0, 1024, 1024, 1024, 1024, 0, 6, 3876, 3901, 3912, 3888, 3885, 3906, 0, 1, 8201, -90.000, 0.000, 60.000, -0.100, 0.000, -3.200, 0.0, , , , , , 98, , , 61, 61, 61
38.1754086, -120.0595456, 8.100, 14:35:12.392, 13, 0.10, 0.11, 91, 0.700, 0.000, 58.700, 1743, 100, 98, 23, 23217, -24124, 4763, 5235, 11, 14, 1526160912.393, 62, 0, 1024, 1024, 1024, 1024, 0, 6, 3876, 3901, 3912, 3888, 3885, 3906, 0, 1, 8302, -90.000, 0.000, 60.000, -0.100, 0.000, -3.200, 0.0, , , , , , 98, , , 61, 61, 61
38.1754084, -120.0595457, 8.500, 14:35:12.492, 12, 0.10, 0.09, 91, 0.500, -0.100, 58.700, 1743, 100, 98, 23, 23217, -24124, 4763, 5235, 11, 14, 1526160912.493, 34, 0, 1024, 1024, 1024, 1024, 0, 6, 3876, 3901, 3912, 3888, 3885, 3906, 0, 1, 8402, -90.000, 0.000, 59.900, -0.100, 0.000, -3.200, 0.0, , , , , , 98, , , 61, 61, 61
38.1754081, -120.0595458, 8.800, 14:35:12.592, 12, 0.00, 0.07, 91, 0.300, -0.100, 58.700, 1743, 100, 98, 23, 23217, -24124, 4763, 5235, 11, 14, 1526160912.592, 36, 0, 1024, 1024, 1024, 1024, 0, 6, 3876, 3901, 3912, 3888, 3885, 3906, 0, 1, 8501, -90.000, 0.000, 59.900, 0.000, 0.000, -3.100, 0.0, , , , , , 98, , , 61, 61, 61
38.1754078, -120.0595459, 9.100, 14:35:12.692, 13, 0.00, 0.05, 91, 0.300, 0.000, 58.600, 1743, 100, 98, 23, 23217, -24124, 4763, 5235, 11, 14, 1526160912.692, 38, 0, 1024, 1024, 1024, 1024, 0, 6, 3876, 3901, 3912, 3888, 3885, 3906, 0, 1, 8601, -90.000, 0.000, 59.900, 0.000, 0.000, -3.100, 0.0, , , , , , 98, , , 61, 61, 61
38.1754075, -120.0595459, 9.400, 14:35:12.794, 13, 0.10, 0.06, 91, 0.200, 0.000, 58.400, 1743, 100, 98, 23, 23217, -24124, 4763, 5235, 11, 14, 1526160912.795, 5, 0, 1024, 1024, 1024, 1024, 0, 6, 3876, 3901, 3912, 3888, 3885, 3906, 0, 1, 8703, -90.000, 0.000, 59.900, -0.100, 0.000, -3.100, 0.0, , , , , , 98, , , 61, 61, 61
38.1754070, -120.0595462, 10.100, 14:35:12.899, 14, 0.00, 0.10, 91, -0.100, -0.200, 58.100, 1743, 100, 98, 23, 23217, -24124, 4763, 5235, 11, 14, 1526160912.899, 4, 0, 1024, 1024, 1024, 1024, 0, 6, 3876, 3901, 3912, 3888, 3885, 3906, 0, 1, 8808, -90.000, 0.000, 59.800, 0.000, 0.000, -3.000, 0.0, , , , , , 98, , , 61, 61, 61
38.1754070, -120.0595462, 10.100, 14:35:12.991, 14, 0.00, 0.10, 91, -0.100, -0.200, 58.100, 1743, 100, 98, 23, 23217, -24124, 4763, 5235, 11, 14, 1526160912.992, 96, 0, 1024, 1024, 1024, 1024, 0, 6, 3876, 3901, 3912, 3888, 3885, 3906, 0, 1, 8901, -90.000, 0.000, 59.800, 0.000, 0.000, -3.000, 0.0, , , , , , 98, , , 61, 61, 61
38.1754067, -120.0595463, 10.400, 14:35:13.098, 15, 0.00, 0.13, 91, -0.200, -0.400, 58.100, 1743, 100, 98, 23, 23217, -24124, 4763, 5235, 11, 14, 1526160913.098, 11, 0, 1024, 1024, 1024, 1024, 0, 6, 3876, 3901, 3912, 3888, 3885, 3906, 0, 1, 9007, -90.000, 0.000, 59.800, 0.000, 0.000, -3.100, 0.0, , , , , , 98, , , 61, 61, 61
38.1754065, -120.0595464, 10.700, 14:35:13.192, 15, 0.00, 0.15, 91, -0.100, -0.700, 58.200, 1743, 100, 99, 23, 23540, -19322, 4763, 5235, 11, 14, 1526160913.193, 91, 0, 1024, 1024, 1024, 1024, 0, 6, 3917, 3932, 3937, 3922, 3913, 3935, 0, 1, 9101, -90.000, 0.000, 59.700, 0.000, 0.000, -3.000, 0.0, , , , , , 98, , , 61, 61, 61
38.1754060, -120.0595465, 11.300, 14:35:13.293, 15, 0.00, 0.20, 91, -0.300, -0.900, 58.100, 1743, 100, 99, 23, 23540, -19322, 4763, 5235, 11, 14, 1526160913.294, 4, 0, 1024, 1024, 1024, 1024, 0, 6, 3917, 3932, 3937, 3922, 3913, 3935, 0, 1, 9203, -90.000, 0.000, 59.700, 0.000, 0.000, -3.000, 0.0, , , , , , 98, , , 61, 61, 61
38.1754058, -120.0595466, 11.700, 14:35:13.398, 14, 0.00, 0.23, 91, -0.500, -0.900, 57.800, 1743, 100, 99, 23, 23540, -19322, 4763, 5235, 11, 14, 1526160913.398, 8, 0, 1024, 1024, 1024, 1024, 0, 6, 3917, 3932, 3937, 3922, 3913, 3935, 0, 1, 9307, -90.000, 0.000, 59.700, 0.000, 0.000, -3.000, 0.0, , , , , , 98, , , 61, 61, 61
38.1754055, -120.0595467, 12.000, 14:35:13.497, 14, 0.00, 0.26, 91, -0.500, -1.100, 57.600, 1743, 100, 99, 23, 23540, -19322, 4763, 5235, 11, 14, 1526160913.497, 11, 0, 1024, 1024, 1024, 1024, 0, 6, 3917, 3932, 3937, 3922, 3913, 3935, 0, 1, 9406, -89.900, 0.000, 59.600, 0.000, 0.000, -3.000, 0.0, , , , , , 98, , , 61, 61, 61
38.1754054, -120.0595468, 12.300, 14:35:13.594, 13, 0.00, 0.27, 91, -0.300, -1.300, 57.600, 1743, 100, 99, 23, 23540, -19322, 4763, 5235, 11, 14, 1526160913.594, 13, 0, 1024, 1024, 1024, 1024, 0, 6, 3917, 3932, 3937, 3922, 3913, 3935, 0, 1, 9503, -89.900, 0.000, 59.600, 0.000, 0.000, -3.000, 0.0, , , , , , 98, , , 61, 61, 61
38.1754054, -120.0595469, 12.600, 14:35:13.691, 13, 0.00, 0.28, 91, 0.000, -1.400, 57.700, 1743, 100, 98, 23, 23540, -19322, 4763, 5235, 11, 14, 1526160913.692, 10, 0, 1024, 1024, 1024, 1024, 0, 6, 3917, 3932, 3937, 3922, 3913, 3935, 0, 1, 9601, -89.900, 0.000, 59.600, 0.000, 0.000, -3.000, 0.0, , , , , , 98, , , 61, 61, 61
38.1754053, -120.0595470, 12.900, 14:35:13.803, 14, 0.10, 0.29, 91, 0.400, -1.300, 57.800, 1743, 100, 98, 23, 23540, -19322, 4763, 5235, 11, 14, 1526160913.804, 10, 0, 1024, 1024, 1024, 1024, 0, 6, 3917, 3932, 3937, 3922, 3913, 3935, 0, 1, 9713, -89.900, 0.000, 59.500, 0.100, 0.000, -3.000, 0.0, , , , , , 98, , , 61, 61, 61
38.1754053, -120.0595470, 12.900, 14:35:13.892, 14, 0.10, 0.29, 91, 0.400, -1.300, 57.800, 1743, 100, 98, 23, 23540, -19322, 4763, 5235, 11, 14, 1526160913.893, 99, 0, 1024, 1024, 1024, 1024, 0, 6, 3917, 3932, 3937, 3922, 3913, 3935, 0, 1, 9802, -89.900, 0.000, 59.500, 0.100, 0.000, -3.000, 0.0, , , , , , 98, , , 61, 61, 61
38.1754053, -120.0595470, 13.200, 14:35:13.992, 14, 0.10, 0.29, 91, 0.500, -1.100, 58.000, 1743, 100, 98, 23, 23540, -19322, 4763, 5235, 11, 14, 1526160913.992, 72, 0, 1024, 1024, 1024, 1024, 0, 6, 3917, 3932, 3937, 3922, 3913, 3935, 0, 1, 9901, -89.900, 0.000, 59.500, 0.100, 0.000, -2.900, 0.0, , , , , , 98, , , 61, 61, 61
38.1754053, -120.0595470, 13.500, 14:35:14.092, 14, 0.10, 0.29, 91, 0.700, -0.900, 58.200, 1743, 100, 98, 23, 23540, -19322, 4763, 5235, 11, 14, 1526160914.092, 96, 0, 1024, 1024, 1024, 1024, 0, 6, 3917, 3932, 3937, 3922, 3913, 3935, 0, 1, 10001, -89.900, 0.000, 59.500, 0.100, 0.000, -2.900, 0.0, , , , , , 98, , , 61, 61, 61
38.1754053, -120.0595470, 13.800, 14:35:14.192, 14, 0.10, 0.29, 91, 0.900, -0.700, 58.500, 1743, 100, 98, 23, 23667, -17831, 4763, 5235, 11, 14, 1526160914.192, 71, 0, 1024, 1024, 1024, 1024, 0, 6, 3927, 3956, 3952, 3939, 3934, 3951, 0, 1, 10101, -89.900, 0.000, 59.500, 0.100, 0.000, -2.900, 0.0, , , , , , 98, , , 61, 61, 61
38.1754053, -120.0595470, 14.100, 14:35:14.292, 14, 0.10, 0.28, 91, 1.200, -0.400, 58.600, 1743, 100, 98, 23, 23667, -17831, 4763, 5235, 11, 14, 1526160914.292, 68, 0, 1024, 1024, 1024, 1024, 0, 6, 3927, 3956, 3952, 3939, 3934, 3951, 0, 1, 10201, -89.900, 0.000, 59.500, 0.100, 0.000, -2.900, 0.0, , , , , , 98, , , 61, 61, 61
38.1754054, -120.0595470, 14.500, 14:35:14.392, 14, 0.10, 0.28, 91, 1.500, -0.100, 58.800, 1743, 100, 98, 23, 23667, -17831, 4763, 5235, 11, 14, 1526160914.393, 59, 0, 1024, 1024, 1024, 1024, 0, 6, 3927, 3956, 3952, 3939, 3934, 3951, 0, 1, 10302, -89.900, 0.000, 59.500, 0.100, 0.000, -2.900, 0.0, , , , , , 98, , , 61, 61, 61
38.1754054, -120.0595470, 14.800, 14:35:14.492, 14, 0.10, 0.27, 91, 1.600, 0.100, 58.800, 1743, 100, 98, 23, 23667, -17831, 4763, 5235, 11, 14, 1526160914.492, 62, 0, 1024, 1024, 1024, 1024, 0, 6, 3927, 3956, 3952, 3939, 3934, 3951, 0, 1, 10401, -89.900, 0.000, 59.400, 0.100, 0.000, -3.000, 0.0, , , , , , 98, , , 61, 61, 61
38.1754054, -120.0595469, 15.100, 14:35:14.592, 14, 0.10, 0.27, 91, 1.400, 0.200, 58.800, 1743, 100, 98, 23, 23667, -17831, 4763, 5235, 11, 14, 1526160914.593, 63, 0, 1024, 1024, 1024, 1024, 0, 6, 3927, 3956, 3952, 3939, 3934, 3951, 0, 1, 10501, -89.900, 0.000, 59.400, 0.100, 0.000, -3.000, 0.0, , , , , , 98, , , 61, 61, 61
38.1754055, -120.0595469, 15.400, 14:35:14.692, 14, 0.10, 0.27, 91, 1.000, 0.300, 58.700, 1743, 100, 98, 23, 23667, -17831, 4763, 5235, 11, 14, 1526160914.692, 72, 0, 1024, 1024, 1024, 1024, 0, 6, 3927, 3956, 3952, 3939, 3934, 3951, 0, 1, 10601, -89.900, 0.000, 59.400, 0.100, 0.000, -2.900, 0.0, , , , , , 98, , , 61, 61, 61
38.1754055, -120.0595468, 15.700, 14:35:14.792, 14, 0.10, 0.26, 91, 0.800, 0.400, 58.500, 1743, 100, 98, 23, 23667, -17831, 4763, 5235, 11, 14, 1526160914.793, 62, 0, 1024, 1024, 1024, 1024, 0, 6, 3927, 3956, 3952, 3939, 3934, 3951, 0, 1, 10701, -89.900, 0.000, 59.400, 0.100, 0.000, -2.900, 0.0, , , , , , 98, , , 61, 61, 61
38.1754056, -120.0595468, 16.000, 14:35:14.892, 14, 0.10, 0.25, 91, 0.700, 0.400, 58.300, 1743, 100, 98, 23, 23667, -17831, 4763, 5235, 11, 14, 1526160914.893, 43, 0, 1024, 1024, 1024, 1024, 0, 6, 3927, 3956, 3952, 3939, 3934, 3951, 0, 1, 10802, -89.900, 0.000, 59.400, 0.100, 0.000, -2.900, 0.0, , , , , , 98, , , 61, 61, 61
38.1754057, -120.0595467, 16.300, 14:35:14.992, 14, 0.10, 0.24, 91, 0.700, 0.500, 58.000, 1743, 100, 98, 23, 23667, -17831, 4763, 5235, 11, 14, 1526160914.993, 18, 0, 1024, 1024, 1024, 1024, 0, 6, 3927, 3956, 3952, 3939, 3934, 3951, 0, 1, 10901, -89.900, 0.000, 59.300, 0.100, 0.000, -2.800, 0.0, , , , , , 98, , , 61, 61, 61
38.1754058, -120.0595467, 16.600, 14:35:15.092, 15, 0.10, 0.23, 91, 0.700, 0.600, 57.700, 1743, 100, 98, 23, 23695, -17760, 4763, 5235, 11, 14, 1526160915.092, 38, 0, 1024, 1024, 1024, 1024, 0, 6, 3927, 3956, 3952, 3939, 3934, 3951, 0, 1, 11001, -89.900, 0.000, 59.300, 0.100, 0.000, -2.800, 0.0, , , , , , 98, , , 61, 61, 61
38.1754058, -120.0595466, 16.900, 14:35:15.192, 15, 0.10, 0.23, 91, 0.500, 0.600, 57.500, 1743, 100, 99, 23, 23695, -17760, 4763, 5235, 11, 14, 1526160915.192, 42, 0, 1024, 1024, 1024, 1024, 0, 6, 3927, 3956, 3952, 3939, 3934, 3951, 0, 1, 11101, -89.900, 0.000, 59.300, 0.100, 0.000, -2.900, 0.0, , , , , , 98, , , 61, 61, 61
38.1754059, -120.0595465, 17.200, 14:35:15.291, 15, 0.10, 0.22, 91, 0.300, 0.700, 57.400, 1743, 100, 99, 23, 23695, -17760, 4763, 5235, 11, 14, 1526160915.293, 41, 0, 1024, 1024, 1024, 1024, 0, 6, 3927, 3956, 3952, 3939, 3934, 3951, 0, 1, 11202, -89.900, 0.000, 59.300, 0.100, 0.000, -2.900, 0.0, , , , , , 98, , , 61, 61, 61
38.1754060, -120.0595465, 17.500, 14:35:15.392, 15, 0.10, 0.21, 91, 0.500, 0.600, 57.200, 1743, 100, 99, 23, 23695, -17760, 4763, 5235, 11, 14, 1526160915.392, 21, 0, 1024, 1024, 1024, 1024, 0, 6, 3927, 3956, 3952, 3939, 3934, 3951, 0, 1, 11301, -89.900, 0.000, 59.300, 0.100, 0.000, -2.800, 0.0, , , , , , 98, , , 61, 61, 61
38.1754061, -120.0595465, 17.800, 14:35:15.492, 15, 0.10, 0.19, 91, 0.800, 0.500, 57.200, 1743, 100, 99, 23, 23695, -17760, 4763, 5235, 11, 14, 1526160915.493, 36, 0, 1024, 1024, 1024, 1024, 0, 6, 3927, 3956, 3952, 3939, 3934, 3951, 0, 1, 11402, -89.900, 0.000, 59.300, 0.100, 0.000, -2.800, 0.0, , , , , , 98, , , 61, 61, 61
38.1754064, -120.0595464, 18.400, 14:35:15.591, 15, 0.10, 0.16, 91, 1.100, 0.700, 57.300, 1743, 100, 99, 23, 23695, -17760, 4763, 5235, 11, 14, 1526160915.592, 33, 0, 1024, 1024, 1024, 1024, 0, 6, 3938, 3948, 3955, 3942, 3935, 3948, 0, 1, 11501, -89.900, 0.000, 59.200, 0.100, 0.000, -2.900, 0.0, , , , , , 98, , , 61, 61, 61
38.1754066, -120.0595464, 18.700, 14:35:15.692, 15, 0.10, 0.14, 91, 1.500, 1.000, 57.500, 1743, 100, 100, 23, 23695, -17760, 4763, 5235, 11, 14, 1526160915.692, 11, 0, 1024, 1024, 1024, 1024, 0, 6, 3938, 3948, 3955, 3942, 3935, 3948, 0, 1, 11601, -89.900, 0.000, 59.200, 0.100, 0.000, -2.900, 0.0, , , , , , 98, , , 61, 61, 61
38.1754068, -120.0595464, 19.000, 14:35:15.792, 15, 0.10, 0.12, 91, 1.700, 1.000, 57.700, 1743, 100, 100, 23, 23695, -17760, 4763, 5235, 11, 14, 1526160915.792, 28, 0, 1024, 1024, 1024, 1024, 0, 6, 3938, 3948, 3955, 3942, 3935, 3948, 0, 1, 11701, -89.900, 0.000, 59.200, 0.100, 0.000, -2.900, 0.0, , , , , , 98, , , 61, 61, 61
38.1754069, -120.0595463, 19.300, 14:35:15.892, 15, 0.10, 0.11, 91, 1.900, 1.100, 57.900, 1743, 100, 100, 23, 23695, -17760, 4763, 5235, 11, 14, 1526160915.893, 18, 0, 1024, 1024, 1024, 1024, 0, 6, 3938, 3948, 3955, 3942, 3935, 3948, 0, 1, 11801, -89.900, 0.000, 59.200, 0.100, 0.000, -2.900, 0.0, , , , , , 98, , , 61, 61, 61
38.1754069, -120.0595463, 19.300, 14:35:15.992, 15, 0.10, 0.11, 91, 1.900, 1.100, 57.900, 1743, 100, 100, 23, 23695, -17760, 4763, 5235, 11, 14, 1526160915.992, 118, 0, 1024, 1024, 1024, 1024, 0, 6, 3938, 3948, 3955, 3942, 3935, 3948, 0, 1, 11901, -89.900, 0.000, 59.200, 0.100, 0.000, -2.900, 0.0, , , , , , 98, , , 61, 61, 61
38.1754070, -120.0595462, 19.500, 14:35:16.092, 14, 0.10, 0.10, 91, 1.700, 1.100, 58.100, 1743, 100, 100, 23, 23695, -17760, 4763, 5235, 11, 14, 1526160916.093, 92, 0, 1024, 1024, 1024, 1024, 0, 6, 3938, 3948, 3955, 3942, 3935, 3948, 0, 1, 12001, -89.900, 0.000, 59.200, 0.100, 0.000, -2.900, 0.0, , , , , , 98, , , 61, 61, 61
38.1754073, -120.0595460, 20.100, 14:35:16.191, 15, 0.10, 0.07, 91, 1.300, 1.200, 58.500, 1743, 100, 100, 23, 23695, -17760, 4763, 5235, 11, 14, 1526160916.192, 12, 0, 1024, 1024, 1024, 1024, 0, 6, 3938, 3948, 3955, 3942, 3935, 3948, 0, 1, 12101, -89.900, 0.000, 59.200, 0.100, 0.000, -2.900, 0.0, , , , , , 98, , , 61, 61, 61
38.1754073, -120.0595460, 20.100, 14:35:16.292, 15, 0.10, 0.07, 91, 1.300, 1.200, 58.500, 1743, 100, 100, 23, 23695, -17760, 4763, 5235, 11, 14, 1526160916.292, 112, 0, 1024, 1024, 1024, 1024, 0, 6, 3938, 3948, 3955, 3942, 3935, 3948, 0, 1, 12201, -89.900, 0.000, 59.200, 0.100, 0.000, -2.900, 0.0, , , , , , 98, , , 61, 61, 61
38.1754075, -120.0595459, 20.700, 14:35:16.391, 15, 0.10, 0.06, 91, 1.300, 1.300, 58.600, 1743, 100, 100, 23, 23695, -17760, 4763, 5235, 11, 14, 1526160916.392, 10, 0, 1024, 1024, 1024, 1024, 0, 6, 3938, 3948, 3955, 3942, 3935, 3948, 0, 1, 12301, -89.900, 0.000, 59.200, 0.100, 0.000, -2.900, 0.0, , , , , , 98, , , 61, 61, 61
38.1754075, -120.0595459, 20.700, 14:35:16.492, 15, 0.10, 0.06, 91, 1.300, 1.300, 58.600, 1743, 100, 100, 23, 23695, -17760, 4763, 5235, 11, 14, 1526160916.493, 111, 0, 1024, 1024, 1024, 1024, 0, 6, 3938, 3948, 3955, 3942, 3935, 3948, 0, 1, 12402, -89.900, 0.000, 59.200, 0.100, 0.000, -2.900, 0.0, , , , , , 98, , , 61, 61, 61
38.1754077, -120.0595459, 21.000, 14:35:16.592, 15, 0.10, 0.05, 91, 1.400, 1.400, 58.500, 1743, 100, 100, 23, 23677, -17031, 4763, 5235, 11, 14, 1526160916.592, 92, 0, 1024, 1024, 1024, 1024, 0, 6, 3932, 3950, 3959, 3947, 3935, 3962, 0, 1, 12501, -89.900, 0.000, 59.100, 0.100, 0.000, -2.900, 0.0, , , , , , 98, , , 61, 61, 61
38.1754078, -120.0595458, 21.300, 14:35:16.692, 15, 0.10, 0.05, 91, 1.600, 1.500, 58.500, 1743, 100, 96, 23, 23677, -17031, 4763, 5235, 11, 14, 1526160916.693, 81, 0, 1024, 1024, 1024, 1024, 0, 6, 3932, 3950, 3959, 3947, 3935, 3962, 0, 1, 12602, -89.900, 0.000, 59.100, 0.100, 0.000, -2.900, 0.0, , , , , , 98, , , 61, 61, 61
38.1754079, -120.0595458, 21.600, 14:35:16.792, 15, 0.00, 0.06, 91, 1.900, 1.400, 58.400, 1743, 100, 96, 23, 23677, -17031, 4763, 5235, 11, 14, 1526160916.792, 66, 0, 1024, 1024, 1024, 1024, 0, 6, 3932, 3950, 3959, 3947, 3935, 3962, 0, 1, 12701, -89.900, 0.000, 59.100, 0.000, 0.000, -2.900, 0.0, , , , , , 98, , , 61, 61, 61
38.1754080, -120.0595458, 21.900, 14:35:16.892, 15, 0.00, 0.06, 91, 1.800, 1.200, 58.200, 1743, 100, 96, 23, 23677, -17031, 4763, 5235, 11, 14, 1526160916.892, 71, 0, 1024, 1024, 1024, 1024, 0, 6, 3932, 3950, 3959, 3947, 3935, 3962, 0, 1, 12801, -89.900, 0.000, 59.100, 0.000, 0.000, -2.900, 0.0, , , , , , 98, , , 61, 61, 61
38.1754081, -120.0595458, 22.200, 14:35:16.992, 15, 0.00, 0.07, 91, 1.700, 1.200, 58.100, 1743, 100, 96, 23, 23677, -17031, 4763, 5235, 11, 14, 1526160916.993, 82, 0, 1024, 1024, 1024, 1024, 0, 6, 3932, 3950, 3959, 3947, 3935, 3962, 0, 1, 12902, -89.900, 0.000, 59.100, 0.000, 0.000, -2.900, 0.0, , , , , , 98, , , 61, 61, 61
38.1754082, -120.0595457, 22.500, 14:35:17.092, 15, 0.00, 0.07, 91, 1.800, 1.200, 58.000, 1743, 100, 96, 23, 23677, -17031, 4763, 5235, 11, 14, 1526160917.093, 82, 0, 1024, 1024, 1024, 1024, 0, 6, 3932, 3950, 3959, 3947, 3935, 3962, 0, 1, 13002, -89.900, 0.000, 59.100, 0.000, 0.000, -2.900, 0.0, , , , , , 98, , , 61, 61, 61
38.1754082, -120.0595457, 22.700, 14:35:17.191, 15, 0.00, 0.08, 91, 1.700, 1.300, 58.000, 1743, 100, 95, 23, 23677, -17031, 4763, 5235, 11, 14, 1526160917.192, 66, 0, 1024, 1024, 1024, 1024, 0, 6, 3932, 3950, 3959, 3947, 3935, 3962, 0, 1, 13101, -89.900, 0.000, 59.100, 0.000, 0.000, -2.900, 0.0, , , , , , 98, , , 61, 61, 61
38.1754083, -120.0595456, 23.000, 14:35:17.292, 15, 0.00, 0.09, 91, 1.600, 1.400, 58.100, 1743, 100, 95, 23, 23677, -17031, 4763, 5235, 11, 14, 1526160917.292, 79, 0, 1024, 1024, 1024, 1024, 0, 6, 3932, 3950, 3959, 3947, 3935, 3962, 0, 1, 13201, -89.900, 0.000, 59.100, 0.000, 0.000, -3.000, 0.0, , , , , , 98, , , 61, 61, 61
38.1754084, -120.0595456, 23.300, 14:35:17.392, 15, 0.00, 0.10, 91, 1.600, 1.600, 58.200, 1743, 100, 95, 23, 23677, -17031, 4763, 5235, 11, 14, 1526160917.392, 51, 0, 1024, 1024, 1024, 1024, 0, 6, 3932, 3950, 3959, 3947, 3935, 3962, 0, 1, 13301, -89.900, 0.000, 59.100, 0.000, 0.000, -2.900, 0.0, , , , , , 98, , , 61, 61, 61
38.1754084, -120.0595456, 23.300, 14:35:17.492, 15, 0.00, 0.10, 91, 1.600, 1.600, 58.200, 1743, 100, 95, 23, 23677, -17031, 4763, 5235, 11, 14, 1526160917.493, 152, 0, 1024, 1024, 1024, 1024, 0, 6, 3932, 3950, 3959, 3947, 3935, 3962, 0, 1, 13402, -89.900, 0.000, 59.100, 0.000, 0.000, -2.900, 0.0, , , , , , 98, , , 61, 61, 61
38.1754085, -120.0595455, 23.900, 14:35:17.592, 14, 0.00, 0.11, 91, 1.200, 1.900, 58.300, 1743, 100, 95, 24, 23686, -17137, 4763, 5235, 11, 14, 1526160917.592, 54, 0, 1024, 1024, 1024, 1024, 0, 6, 3936, 3948, 3961, 3946, 3938, 3955, 0, 1, 13501, -89.900, 0.000, 59.100, 0.000, 0.000, -3.000, 0.0, , , , , , 98, , , 61, 61, 61
38.1754086, -120.0595455, 24.200, 14:35:17.692, 15, 0.00, 0.12, 91, 1.100, 1.700, 58.400, 1743, 100, 93, 24, 23686, -17137, 4763, 5235, 11, 14, 1526160917.692, 50, 0, 1024, 1024, 1024, 1024, 0, 6, 3936, 3948, 3961, 3946, 3938, 3955, 0, 1, 13601, -89.900, 0.000, 59.100, 0.000, 0.000, -3.000, 0.0, , , , , , 98, , , 61, 61, 61
38.1754086, -120.0595454, 24.600, 14:35:17.792, 15, 0.00, 0.12, 91, 1.000, 1.500, 58.400, 1743, 100, 93, 24, 23686, -17137, 4763, 5235, 11, 14, 1526160917.792, 39, 0, 1024, 1024, 1024, 1024, 0, 6, 3936, 3948, 3961, 3946, 3938, 3955, 0, 1, 13701, -89.900, 0.000, 59.100, 0.000, 0.000, -3.100, 0.0, , , , , , 98, , , 61, 61, 61
38.1754086, -120.0595454, 24.900, 14:35:17.892, 15, 0.00, 0.13, 91, 1.100, 1.400, 58.400, 1743, 100, 93, 24, 23686, -17137, 4763, 5235, 11, 14, 1526160917.893, 44, 0, 1024, 1024, 1024, 1024, 0, 6, 3936, 3948, 3961, 3946, 3938, 3955, 0, 1, 13802, -89.900, 0.000, 59.100, 0.000, 0.000, -3.100, 0.0, , , , , , 98, , , 61, 61, 61
38.1754086, -120.0595453, 25.200, 14:35:17.992, 15, 0.00, 0.13, 91, 1.200, 1.500, 58.300, 1743, 100, 93, 24, 23686, -17137, 4763, 5235, 11, 14, 1526160917.992, 53, 0, 1024, 1024, 1024, 1024, 0, 6, 3936, 3948, 3961, 3946, 3938, 3955, 0, 1, 13901, -89.900, 0.000, 59.100, 0.000, 0.000, -3.100, 0.0, , , , , , 98, , , 61, 61, 61
38.1754086, -120.0595453, 25.500, 14:35:18.106, 15, 0.00, 0.13, 91, 1.400, 1.500, 58.200, 1743, 100, 93, 24, 23686, -17137, 4763, 5235, 11, 14, 1526160918.106, 9, 0, 1024, 1024, 1024, 1024, 0, 6, 3936, 3948, 3961, 3946, 3938, 3955, 0, 1, 14015, -89.900, 0.000, 59.100, 0.000, 0.000, -3.000, 0.0, , , , , , 98, , , 61, 61, 61
38.1754086, -120.0595452, 25.900, 14:35:18.192, 15, 0.00, 0.14, 91, 1.200, 1.600, 58.100, 1743, 100, 95, 24, 23686, -17137, 4763, 5235, 11, 14, 1526160918.193, 17, 0, 1024, 1024, 1024, 1024, 0, 6, 3936, 3948, 3961, 3946, 3938, 3955, 0, 1, 14102, -89.900, 0.000, 59.100, 0.000, 0.000, -3.000, 0.0, , , , , , 98, , , 61, 61, 61
38.1754086, -120.0595453, 26.200, 14:35:18.292, 15, 0.00, 0.14, 91, 1.200, 1.700, 58.200, 1743, 100, 95, 24, 23686, -17137, 4763, 5235, 11, 14, 1526160918.292, 20, 0, 1024, 1024, 1024, 1024, 0, 6, 3936, 3948, 3961, 3946, 3938, 3955, 0, 1, 14201, -89.900, 0.000, 59.100, 0.000, 0.000, -2.900, 0.0, , , , , , 98, , , 61, 61, 61
38.1754086, -120.0595454, 26.500, 14:35:18.391, 15, 0.00, 0.13, 91, 1.000, 1.500, 58.400, 1743, 100, 95, 24, 23686, -17137, 4763, 5235, 11, 14, 1526160918.392, 13, 0, 1024, 1024, 1024, 1024, 0, 6, 3936, 3948, 3961, 3946, 3938, 3955, 0, 1, 14301, -89.900, 0.000, 59.100, 0.000, 0.000, -2.900, 0.0, , , , , , 98, , , 61, 61, 61
38.1754085, -120.0595454, 27.100, 14:35:18.491, 15, 0.00, 0.12, 91, 0.700, 1.300, 58.600, 1743, 100, 95, 24, 23686, -17137, 4763, 5235, 11, 14, 1526160918.493, 9, 0, 1024, 1024, 1024, 1024, 0, 6, 3936, 3948, 3961, 3946, 3938, 3955, 0, 1, 14402, -89.900, 0.000, 59.100, 0.000, 0.000, -2.900, 0.0, , , , , , 98, , , 61, 61, 61
38.1754085, -120.0595454, 27.400, 14:35:18.602, 14, 0.00, 0.11, 91, 0.500, 1.200, 58.500, 1743, 100, 95, 24, 23678, -16945, 4711, 5235, 11, 14, 1526160918.602, 11, 0, 1024, 1024, 1024, 1024, 0, 6, 3936, 3948, 3961, 3946, 3938, 3955, 0, 1, 14511, -89.900, 0.000, 59.100, 0.000, 0.000, -2.900, 0.0, , , , , , 98, , , 61, 61, 61
38.1754084, -120.0595455, 27.700, 14:35:18.692, 14, 0.00, 0.10, 91, 0.300, 1.100, 58.400, 1743, 100, 95, 24, 23678, -16945, 4711, 5235, 11, 14, 1526160918.692, 5, 0, 1024, 1024, 1024, 1024, 0, 6, 3943, 3946, 3954, 3945, 3938, 3952, 0, 1, 14601, -89.900, 0.000, 59.100, 0.000, 0.000, -2.900, 0.0, , , , , , 98, , , 61, 61, 61
38.1754083, -120.0595455, 28.000, 14:35:18.797, 14, 0.00, 0.09, 91, 0.200, 1.100, 58.300, 1743, 100, 95, 24, 23678, -16945, 4711, 5235, 11, 14, 1526160918.798, 12, 0, 1024, 1024, 1024, 1024, 0, 6, 3943, 3946, 3954, 3945, 3938, 3952, 0, 1, 14706, -89.900, 0.000, 59.100, 0.000, 0.000, -2.800, 0.0, , , , , , 98, , , 61, 61, 61
38.1754082, -120.0595456, 28.200, 14:35:18.901, 14, 0.00, 0.09, 91, 0.200, 1.100, 58.100, 1743, 100, 95, 24, 23678, -16945, 4711, 5235, 11, 14, 1526160918.901, 8, 0, 1024, 1024, 1024, 1024, 0, 6, 3943, 3946, 3954, 3945, 3938, 3952, 0, 1, 14810, -89.900, 0.000, 59.100, 0.000, 0.000, -2.800, 0.0, , , , , , 98, , , 61, 61, 61
38.1754082, -120.0595456, 28.500, 14:35:19.009, 15, 0.00, 0.09, 91, 0.200, 0.800, 57.800, 1743, 100, 95, 24, 23678, -16945, 4711, 5235, 11, 14, 1526160919.010, 8, 0, 1024, 1024, 1024, 1024, 0, 6, 3943, 3946, 3954, 3945, 3938, 3952, 0, 1, 14919, -89.900, 0.000, 59.100, 0.000, 0.000, -2.800, 0.0, , , , , , 98, , , 61, 61, 61
38.1754082, -120.0595456, 28.500, 14:35:19.095, 15, 0.00, 0.09, 90, 0.200, 0.800, 57.800, 1743, 100, 95, 24, 23678, -16945, 4711, 5235, 11, 14, 1526160919.095, 93, 0, 1024, 1024, 1024, 1024, 0, 6, 3943, 3946, 3954, 3945, 3938, 3952, 0, 1, 15004, -89.900, 0.000, 59.100, 0.000, 0.000, -2.800, 0.0, , , , , , 98, , , 61, 61, 61
38.1754081, -120.0595455, 29.100, 14:35:19.205, 15, 0.00, 0.09, 90, 0.000, 0.900, 57.100, 1743, 100, 98, 24, 23678, -16945, 4711, 5235, 11, 14, 1526160919.205, 8, 0, 1024, 1024, 1024, 1024, 0, 6, 3943, 3946, 3954, 3945, 3938, 3952, 0, 1, 15114, -89.900, 0.000, 59.100, 0.000, 0.000, -2.900, 0.0, , , , , , 98, , , 61, 61, 61
38.1754081, -120.0595455, 29.100, 14:35:19.295, 15, 0.00, 0.09, 90, 0.000, 0.900, 57.100, 1743, 100, 98, 24, 23678, -16945, 4711, 5235, 11, 14, 1526160919.296, 99, 0, 1024, 1024, 1024, 1024, 0, 6, 3943, 3946, 3954, 3945, 3938, 3952, 0, 1, 15205, -89.900, 0.000, 59.100, 0.000, 0.000, -2.900, 0.0, , , , , , 98, , , 61, 61, 61
38.1754080, -120.0595456, 29.400, 14:35:19.395, 15, 0.00, 0.08, 90, -0.200, 1.300, 56.900, 1743, 100, 98, 24, 23678, -16945, 4711, 5235, 11, 14, 1526160919.396, 80, 0, 1024, 1024, 1024, 1024, 0, 6, 3943, 3946, 3954, 3945, 3938, 3952, 0, 1, 15304, -89.900, 0.000, 59.100, 0.000, 0.000, -2.900, 0.0, , , , , , 98, , , 61, 61, 61
38.1754080, -120.0595456, 29.700, 14:35:19.495, 15, 0.00, 0.08, 90, -0.400, 1.600, 57.100, 1743, 100, 98, 24, 23678, -16945, 4711, 5235, 11, 14, 1526160919.495, 63, 0, 1024, 1024, 1024, 1024, 0, 6, 3943, 3946, 3954, 3945, 3938, 3952, 0, 1, 15404, -89.900, 0.000, 59.100, 0.000, 0.000, -2.900, 0.0, , , , , , 98, , , 61, 61, 61
38.1754079, -120.0595455, 30.000, 14:35:19.593, 15, 0.00, 0.08, 90, -0.500, 1.800, 57.500, 1743, 100, 98, 24, 23760, -15505, 4711, 5235, 11, 14, 1526160919.594, 80, 0, 1024, 1024, 1024, 1024, 0, 6, 3947, 3961, 3970, 3961, 3939, 3963, 0, 1, 15502, -89.900, 0.000, 59.100, 0.000, 0.000, -2.900, 0.0, , , , , , 98, , , 61, 61, 61
38.1754079, -120.0595455, 30.300, 14:35:19.695, 15, 0.00, 0.08, 90, -0.400, 1.800, 58.000, 1743, 100, 98, 24, 23760, -15505, 4711, 5235, 11, 14, 1526160919.695, 80, 0, 1024, 1024, 1024, 1024, 0, 6, 3947, 3961, 3970, 3961, 3939, 3963, 0, 1, 15604, -89.900, 0.000, 59.100, 0.000, 0.000, -2.800, 0.0, , , , , , 98, , , 61, 61, 61
38.1754079, -120.0595455, 30.600, 14:35:19.796, 15, 0.00, 0.08, 90, -0.300, 1.700, 58.500, 1743, 100, 98, 24, 23760, -15505, 4711, 5235, 11, 14, 1526160919.797, 78, 0, 1024, 1024, 1024, 1024, 0, 6, 3947, 3961, 3970, 3961, 3939, 3963, 0, 1, 15706, -89.900, 0.000, 59.100, 0.000, 0.000, -2.800, 0.0, , , , , , 98, , , 61, 61, 61
38.1754080, -120.0595455, 30.900, 14:35:19.894, 15, 0.00, 0.08, 90, 0.000, 1.600, 58.800, 1743, 100, 98, 24, 23760, -15505, 4711, 5235, 11, 14, 1526160919.895, 79, 0, 1024, 1024, 1024, 1024, 0, 6, 3947, 3961, 3970, 3961, 3939, 3963, 0, 1, 15804, -89.900, 0.000, 59.100, 0.000, 0.000, -2.800, 0.0, , , , , , 98, , , 61, 61, 61
38.1754080, -120.0595455, 31.200, 14:35:19.996, 15, 0.00, 0.08, 90, 0.700, 1.500, 59.100, 1743, 100, 98, 24, 23760, -15505, 4711, 5235, 11, 14, 1526160919.996, 48, 0, 1024, 1024, 1024, 1024, 0, 6, 3947, 3961, 3970, 3961, 3939, 3963, 0, 1, 15905, -89.900, 0.000, 59.100, 0.000, 0.000, -2.900, 0.0, , , , , , 98, , , 61, 61, 61
38.1754081, -120.0595456, 31.500, 14:35:20.095, 14, 0.00, 0.08, 90, 1.400, 1.600, 59.100, 1743, 100, 98, 24, 23760, -15505, 4711, 5235, 11, 14, 1526160920.096, 34, 0, 1024, 1024, 1024, 1024, 0, 6, 3947, 3961, 3970, 3961, 3939, 3963, 0, 1, 16004, -89.900, 0.000, 59.100, 0.000, 0.000, -2.900, 0.0, , , , , , 98, , , 61, 61, 61
38.1754081, -120.0595456, 31.800, 14:35:20.195, 14, 0.00, 0.08, 90, 1.700, 1.300, 59.100, 1743, 100, 98, 24, 23760, -15505, 4711, 5235, 11, 14, 1526160920.196, 15, 0, 1024, 1024, 1024, 1024, 0, 6, 3947, 3961, 3970, 3961, 3939, 3963, 0, 1, 16104, -89.900, 0.000, 59.100, 0.000, 0.000, -2.900, 0.0, , , , , , 98, , , 61, 61, 61
38.1754081, -120.0595457, 32.100, 14:35:20.296, 14, 0.00, 0.07, 90, 1.200, 1.200, 59.000, 1743, 100, 98, 24, 23760, -15505, 4711, 5235, 11, 14, 1526160920.297, 52, 0, 1024, 1024, 1024, 1024, 0, 6, 3947, 3961, 3970, 3961, 3939, 3963, 0, 1, 16206, -89.900, 0.000, 59.100, 0.000, 0.000, -2.900, 0.0, , , , , , 98, , , 61, 61, 61
38.1754081, -120.0595457, 32.400, 14:35:20.395, 14, 0.00, 0.07, 90, 1.100, 1.200, 58.800, 1743, 100, 98, 24, 23760, -15505, 4711, 5235, 11, 14, 1526160920.396, 31, 0, 1024, 1024, 1024, 1024, 0, 6, 3947, 3961, 3970, 3961, 3939, 3963, 0, 1, 16305, -89.900, 0.000, 59.100, 0.000, 0.000, -2.800, 0.0, , , , , , 98, , , 61, 61, 61
38.1754081, -120.0595457, 32.600, 14:35:20.496, 15, 0.00, 0.07, 90, 1.300, 1.300, 58.400, 1743, 100, 98, 24, 23760, -15505, 4711, 5235, 11, 14, 1526160920.497, 47, 0, 1024, 1024, 1024, 1024, 0, 6, 3947, 3961, 3970, 3961, 3939, 3963, 0, 1, 16405, -89.900, 0.000, 59.100, 0.000, 0.000, -2.900, 0.0, , , , , , 98, , , 61, 61, 61
38.1754081, -120.0595458, 32.900, 14:35:20.594, 15, 0.00, 0.06, 90, 1.300, 1.200, 58.100, 1743, 100, 98, 24, 23644, -16938, 4711, 5235, 11, 14, 1526160920.596, 49, 0, 1024, 1024, 1024, 1024, 0, 6, 3947, 3961, 3970, 3961, 3939, 3963, 0, 1, 16504, -89.900, 0.000, 59.100, 0.000, 0.000, -2.900, 0.0, , , , , , 98, , , 61, 61, 61
38.1754081, -120.0595459, 33.200, 14:35:20.696, 15, 0.00, 0.06, 90, 1.200, 1.000, 57.800, 1743, 100, 98, 24, 23644, -16938, 4711, 5235, 11, 14, 1526160920.697, 50, 0, 1024, 1024, 1024, 1024, 0, 6, 3947, 3961, 3970, 3961, 3939, 3963, 0, 1, 16606, -90.000, 0.000, 59.100, 0.000, 0.000, -2.900, 0.0, , , , , , 98, , , 61, 61, 61
38.1754081, -120.0595460, 33.500, 14:35:20.792, 15, 0.00, 0.05, 90, 1.300, 0.700, 57.500, 1743, 100, 98, 24, 23644, -16938, 4711, 5235, 11, 14, 1526160920.793, 15, 0, 1024, 1024, 1024, 1024, 0, 6, 3947, 3961, 3970, 3961, 3939, 3963, 0, 1, 16702, -90.000, 0.000, 59.100, 0.000, 0.000, -2.900, 0.0, , , , , , 98, , , 61, 61, 61
38.1754081, -120.0595460, 33.800, 14:35:20.910, 15, 0.00, 0.05, 90, 1.300, 0.500, 57.400, 1743, 100, 98, 24, 23644, -16938, 4711, 5235, 11, 14, 1526160920.911, 18, 0, 1024, 1024, 1024, 1024, 0, 6, 3947, 3961, 3970, 3961, 3939, 3963, 0, 1, 16820, -90.000, 0.000, 59.100, 0.000, 0.000, -3.000, 0.0, , , , , , 98, , , 61, 61, 61
38.1754081, -120.0595460, 34.400, 14:35:21.013, 15, 0.00, 0.05, 90, 1.100, 0.700, 57.500, 1743, 100, 98, 24, 23644, -16938, 4711, 5235, 11, 14, 1526160921.013, 8, 0, 1024, 1024, 1024, 1024, 0, 6, 3947, 3961, 3970, 3961, 3939, 3963, 0, 1, 16922, -89.900, 0.000, 59.100, 0.000, 0.000, -3.000, 0.0, , , , , , 98, , , 61, 61, 61
38.1754082, -120.0595460, 34.700, 14:35:21.093, 15, 0.00, 0.05, 90, 0.800, 1.100, 57.500, 1743, 100, 98, 24, 23644, -16938, 4711, 5235, 11, 14, 1526160921.095, 23, 0, 1024, 1024, 1024, 1024, 0, 6, 3947, 3961, 3970, 3961, 3939, 3963, 0, 1, 17004, -89.900, 0.000, 59.100, 0.000, 0.000, -3.000, 0.0, , , , , , 98, , , 61, 61, 61
38.1754082, -120.0595460, 35.000, 14:35:21.192, 15, 0.00, 0.05, 90, 1.000, 1.400, 57.500, 1743, 100, 98, 24, 23644, -16938, 4711, 5235, 11, 14, 1526160921.193, 29, 0, 1024, 1024, 1024, 1024, 0, 6, 3925, 3940, 3944, 3932, 3923, 3946, 0, 1, 17101, -89.900, 0.000, 59.100, 0.000, 0.000, -3.000, 0.0, , , , , , 98, , , 61, 61, 61
38.1754082, -120.0595460, 35.000, 14:35:21.292, 15, 0.00, 0.05, 90, 1.000, 1.400, 57.500, 1743, 100, 98, 24, 23644, -16938, 4711, 5235, 11, 14, 1526160921.293, 129, 0, 1024, 1024, 1024, 1024, 0, 6, 3925, 3940, 3944, 3932, 3923, 3946, 0, 1, 17201, -89.900, 0.000, 59.100, 0.000, 0.000, -3.000, 0.0, , , , , , 98, , , 61, 61, 61
38.1754082, -120.0595460, 35.300, 14:35:21.391, 15, 0.00, 0.05, 90, 0.800, 1.600, 57.600, 1743, 100, 98, 24, 23644, -16938, 4711, 5235, 11, 14, 1526160921.392, 89, 0, 1024, 1024, 1024, 1024, 0, 6, 3925, 3940, 3944, 3932, 3923, 3946, 0, 1, 17301, -89.900, 0.000, 59.100, 0.000, 0.000, -3.000, 0.0, , , , , , 98, , , 61, 61, 61
38.1754082, -120.0595460, 35.600, 14:35:21.492, 15, 0.00, 0.05, 90, 0.600, 1.800, 57.800, 1743, 100, 98, 24, 23644, -16938, 4711, 5235, 11, 14, 1526160921.493, 95, 0, 1024, 1024, 1024, 1024, 0, 6, 3925, 3940, 3944, 3932, 3923, 3946, 0, 1, 17402, -89.900, 0.000, 59.100, 0.000, 0.000, -3.000, 0.0, , , , , , 98, , , 61, 61, 61
38.1754081, -120.0595459, 35.900, 14:35:21.592, 15, 0.00, 0.05, 90, 0.400, 1.900, 57.900, 1743, 100, 98, 24, 23644, -16938, 4711, 5235, 11, 14, 1526160921.592, 87, 0, 1024, 1024, 1024, 1024, 0, 6, 3925, 3940, 3944, 3932, 3923, 3946, 0, 1, 17501, -89.900, 0.000, 59.100, 0.000, 0.000, -3.000, 0.0, , , , , , 98, , , 61, 61, 61
38.1754081, -120.0595459, 36.300, 14:35:21.692, 15, 0.00, 0.05, 90, 0.200, 1.900, 57.900, 1743, 100, 98, 24, 23644, -16938, 4711, 5235, 11, 14, 1526160921.692, 91, 0, 1024, 1024, 1024, 1024, 0, 6, 3925, 3940, 3944, 3932, 3923, 3946, 0, 1, 17601, -89.900, 0.000, 59.100, 0.000, 0.000, -3.100, 0.0, , , , , , 98, , , 61, 61, 61
38.1754081, -120.0595459, 36.600, 14:35:21.792, 15, 0.00, 0.06, 90, 0.400, 1.800, 57.800, 1743, 100, 99, 24, 23644, -16938, 4711, 5235, 11, 14, 1526160921.793, 89, 0, 1024, 1024, 1024, 1024, 0, 6, 3925, 3940, 3944, 3932, 3923, 3946, 0, 1, 17701, -89.900, 0.000, 59.100, 0.000, 0.000, -3.100, 0.0, , , , , , 98, , , 61, 61, 61
38.1754081, -120.0595459, 36.900, 14:35:21.892, 15, 0.00, 0.06, 90, 0.400, 1.900, 57.800, 1743, 100, 99, 24, 23644, -16938, 4711, 5235, 11, 14, 1526160921.893, 80, 0, 1024, 1024, 1024, 1024, 0, 6, 3925, 3940, 3944, 3932, 3923, 3946, 0, 1, 17802, -89.900, 0.000, 59.100, 0.000, 0.000, -2.900, 0.0, , , , , , 98, , , 61, 61, 61
38.1754081, -120.0595458, 37.200, 14:35:21.992, 15, 0.00, 0.06, 90, 0.100, 1.900, 57.900, 1743, 100, 99, 24, 23644, -16938, 4711, 5235, 11, 14, 1526160921.993, 77, 0, 1024, 1024, 1024, 1024, 0, 6, 3925, 3940, 3944, 3932, 3923, 3946, 0, 1, 17901, -89.900, 0.000, 59.100, 0.000, 0.000, -2.900, 0.0, , , , , , 98, , , 61, 61, 61
38.1754080, -120.0595457, 37.500, 14:35:22.092, 15, 0.00, 0.07, 90, -0.100, 1.900, 58.100, 1743, 100, 99, 24, 23550, -17431, 4711, 5235, 11, 14, 1526160922.092, 48, 0, 1024, 1024, 1024, 1024, 0, 6, 3919, 3932, 3940, 3921, 3913, 3934, 0, 1, 18001, -89.900, 0.000, 59.100, 0.000, 0.000, -2.900, 0.0, , , , , , 98, , , 61, 61, 61
38.1754079, -120.0595457, 37.800, 14:35:22.192, 15, 0.00, 0.07, 90, -0.400, 2.000, 58.400, 1743, 100, 98, 24, 23550, -17431, 4711, 5235, 11, 14, 1526160922.193, 51, 0, 1024, 1024, 1024, 1024, 0, 6, 3919, 3932, 3940, 3921, 3913, 3934, 0, 1, 18101, -89.900, 0.000, 59.100, 0.000, 0.000, -2.900, 0.0, , , , , , 98, , , 61, 61, 61
38.1754079, -120.0595456, 38.100, 14:35:22.292, 15, 0.00, 0.07, 90, -0.700, 1.800, 58.600, 1743, 100, 98, 24, 23550, -17431, 4711, 5235, 11, 14, 1526160922.293, 92, 0, 1024, 1024, 1024, 1024, 0, 6, 3919, 3932, 3940, 3921, 3913, 3934, 0, 1, 18201, -89.900, 0.000, 59.100, 0.000, 0.000, -2.800, 0.0, , , , , , 98, , , 61, 61, 61
38.1754078, -120.0595455, 38.400, 14:35:22.392, 15, 0.00, 0.08, 90, -1.000, 1.700, 58.700, 1743, 100, 98, 24, 23550, -17431, 4711, 5235, 11, 14, 1526160922.393, 48, 0, 1024, 1024, 1024, 1024, 0, 6, 3919, 3932, 3940, 3921, 3913, 3934, 0, 1, 18301, -89.900, 0.000, 59.100, 0.000, 0.000, -2.900, 0.0, , , , , , 98, , , 61, 61, 61
38.1754078, -120.0595455, 38.600, 14:35:22.492, 15, 0.00, 0.09, 90, -1.000, 1.700, 58.800, 1743, 100, 98, 24, 23550, -17431, 4711, 5235, 11, 14, 1526160922.493, 62, 0, 1024, 1024, 1024, 1024, 0, 6, 3919, 3932, 3940, 3921, 3913, 3934, 0, 1, 18401, -89.900, 0.000, 59.100, 0.000, 0.000, -2.900, 0.0, , , , , , 98, , , 61, 61, 61
38.1754078, -120.0595455, 38.600, 14:35:22.592, 15, 0.00, 0.09, 90, -1.000, 1.700, 58.800, 1743, 100, 98, 24, 23550, -17431, 4711, 5235, 11, 14, 1526160922.593, 162, 0, 1024, 1024, 1024, 1024, 0, 6, 3919, 3932, 3940, 3921, 3913, 3934, 0, 1, 18501, -89.900, 0.000, 59.100, 0.000, 0.000, -2.900, 0.0, , , , , , 98, , , 61, 61, 61
38.1754077, -120.0595454, 39.200, 14:35:22.692, 15, 0.00, 0.10, 90, -0.500, 2.000, 58.600, 1743, 100, 97, 24, 23550, -17431, 4711, 5235, 11, 14, 1526160922.693, 50, 0, 1024, 1024, 1024, 1024, 0, 6, 3919, 3932, 3940, 3921, 3913, 3934, 0, 1, 18602, -89.900, 0.000, 59.100, 0.000, 0.000, -2.900, 0.0, , , , , , 98, , , 61, 61, 61
38.1754077, -120.0595453, 39.500, 14:35:22.791, 15, 0.00, 0.10, 90, -0.300, 2.300, 58.500, 1743, 100, 97, 24, 23550, -17431, 4711, 5235, 11, 14, 1526160922.792, 52, 0, 1024, 1024, 1024, 1024, 0, 6, 3919, 3932, 3940, 3921, 3913, 3934, 0, 1, 18701, -89.900, 0.000, 59.100, 0.000, 0.000, -2.900, 0.0, , , , , , 98, , , 61, 61, 61
38.1754077, -120.0595452, 39.800, 14:35:22.892, 15, 0.00, 0.11, 90, -0.100, 2.500, 58.300, 1743, 100, 97, 24, 23550, -17431, 4711, 5235, 11, 14, 1526160922.892, 42, 0, 1024, 1024, 1024, 1024, 0, 6, 3919, 3932, 3940, 3921, 3913, 3934, 0, 1, 18801, -89.900, 0.000, 59.100, 0.000, 0.000, -2.900, 0.0, , , , , , 98, , , 61, 61, 61
38.1754076, -120.0595451, 40.100, 14:35:22.992, 15, 0.00, 0.12, 90, -0.300, 2.600, 58.200, 1743, 100, 97, 24, 23550, -17431, 4711, 5235, 11, 14, 1526160922.992, 30, 0, 1024, 1024, 1024, 1024, 0, 6, 3919, 3932, 3940, 3921, 3913, 3934, 0, 1, 18901, -89.900, 0.000, 59.100, 0.000, 0.000, -2.800, 0.0, , , , , , 98, , , 61, 61, 61
38.1754076, -120.0595451, 40.100, 14:35:23.092, 15, 0.00, 0.12, 90, -0.300, 2.600, 58.200, 1743, 100, 97, 24, 23550, -17431, 4711, 5235, 11, 14, 1526160923.093, 130, 0, 1024, 1024, 1024, 1024, 0, 6, 3919, 3932, 3940, 3921, 3913, 3934, 0, 1, 19002, -89.900, 0.000, 59.100, 0.000, 0.000, -2.800, 0.0, , , , , , 98, , , 61, 61, 61
38.1754075, -120.0595449, 40.600, 14:35:23.195, 15, 0.00, 0.14, 90, -1.200, 2.500, 58.100, 1743, 100, 97, 24, 23694, -15501, 4711, 5235, 11, 14, 1526160923.196, 9, 0, 1024, 1024, 1024, 1024, 0, 6, 3928, 3960, 3958, 3951, 3936, 3962, 0, 1, 19105, -89.900, 0.000, 59.100, 0.000, 0.000, -2.900, 0.0, , , , , , 98, , , 61, 61, 61
38.1754074, -120.0595449, 41.200, 14:35:23.292, 15, 0.00, 0.15, 90, -1.700, 2.200, 58.000, 1743, 100, 97, 24, 23694, -15501, 4711, 5235, 11, 14, 1526160923.292, 24, 0, 1024, 1024, 1024, 1024, 0, 6, 3928, 3960, 3958, 3951, 3936, 3962, 0, 1, 19201, -89.900, 0.000, 59.100, 0.000, 0.000, -2.900, 0.0, , , , , , 98, , , 61, 61, 61
38.1754074, -120.0595449, 41.200, 14:35:23.392, 15, 0.00, 0.15, 90, -1.700, 2.200, 58.000, 1743, 100, 97, 24, 23694, -15501, 4711, 5235, 11, 14, 1526160923.392, 124, 0, 1024, 1024, 1024, 1024, 0, 6, 3928, 3960, 3958, 3951, 3936, 3962, 0, 1, 19301, -89.900, 0.000, 59.100, 0.000, 0.000, -2.900, 0.0, , , , , , 98, , , 61, 61, 61
38.1754073, -120.0595448, 41.800, 14:35:23.495, 15, 0.00, 0.16, 90, -1.400, 2.000, 58.000, 1743, 100, 97, 24, 23694, -15501, 4711, 5235, 11, 14, 1526160923.495, 3, 0, 1024, 1024, 1024, 1024, 0, 6, 3928, 3960, 3958, 3951, 3936, 3962, 0, 1, 19404, -89.900, 0.000, 59.100, 0.000, 0.000, -3.000, 0.0, , , , , , 98, , , 61, 61, 61
38.1754073, -120.0595448, 41.800, 14:35:23.592, 15, 0.00, 0.16, 90, -1.400, 2.000, 58.000, 1743, 100, 97, 24, 23694, -15501, 4711, 5235, 11, 14, 1526160923.592, 101, 0, 1024, 1024, 1024, 1024, 0, 6, 3928, 3960, 3958, 3951, 3936, 3962, 0, 1, 19501, -89.900, 0.000, 59.100, 0.000, 0.000, -3.000, 0.0, , , , , , 98, , , 61, 61, 61
38.1754072, -120.0595447, 42.400, 14:35:23.694, 15, 0.00, 0.16, 90, -1.500, 2.000, 58.100, 1743, 100, 97, 24, 23694, -15501, 4711, 5235, 11, 14, 1526160923.695, 3, 0, 1024, 1024, 1024, 1024, 0, 6, 3928, 3960, 3958, 3951, 3936, 3962, 0, 1, 19603, -89.900, 0.000, 59.100, 0.000, 0.000, -2.900, 0.0, , , , , , 98, , , 61, 61, 61
38.1754072, -120.0595447, 42.400, 14:35:23.791, 15, 0.00, 0.16, 90, -1.500, 2.000, 58.100, 1743, 100, 97, 24, 23694, -15501, 4711, 5235, 11, 14, 1526160923.792, 100, 0, 1024, 1024, 1024, 1024, 0, 6, 3928, 3960, 3958, 3951, 3936, 3962, 0, 1, 19700, -89.900, 0.000, 59.100, 0.000, 0.000, -2.900, 0.0, , , , , , 98, , , 61, 61, 61
38.1754072, -120.0595447, 42.700, 14:35:23.892, 15, 0.00, 0.17, 90, -1.600, 1.800, 58.300, 1743, 100, 97, 24, 23694, -15501, 4711, 5235, 11, 14, 1526160923.892, 89, 0, 1024, 1024, 1024, 1024, 0, 6, 3928, 3960, 3958, 3951, 3936, 3962, 0, 1, 19801, -89.900, 0.000, 59.100, 0.000, 0.000, -3.000, 0.0, , , , , , 98, , , 61, 61, 61
38.1754072, -120.0595447, 43.000, 14:35:23.992, 15, 0.00, 0.17, 90, -1.400, 1.700, 58.400, 1743, 100, 97, 24, 23694, -15501, 4711, 5235, 11, 14, 1526160923.993, 83, 0, 1024, 1024, 1024, 1024, 0, 6, 3928, 3960, 3958, 3951, 3936, 3962, 0, 1, 19902, -89.900, 0.000, 59.100, 0.000, 0.000, -3.000, 0.0, , , , , , 98, , , 61, 61, 61
38.1754072, -120.0595447, 43.300, 14:35:24.092, 15, 0.00, 0.17, 90, -1.000, 1.800, 58.400, 1743, 100, 97, 24, 23694, -15501, 4711, 5235, 11, 14, 1526160924.093, 80, 0, 1024, 1024, 1024, 1024, 0, 6, 3928, 3960, 3958, 3951, 3936, 3962, 0, 1, 20001, -89.900, 0.000, 59.100, 0.000, 0.000, -2.900, 0.0, , , , , , 98, , , 61, 61, 61
38.1754072, -120.0595448, 43.600, 14:35:24.192, 15, 0.00, 0.16, 90, -0.900, 1.800, 58.400, 1743, 100, 99, 24, 23633, -16487, 4711, 5235, 11, 14, 1526160924.192, 36, 0, 1024, 1024, 1024, 1024, 0, 6, 3928, 3960, 3958, 3951, 3936, 3962, 0, 1, 20101, -89.900, 0.000, 59.100, 0.000, 0.000, -3.000, 0.0, , , , , , 98, , , 61, 61, 61
38.1754072, -120.0595448, 43.900, 14:35:24.292, 15, 0.00, 0.16, 90, -0.800, 1.800, 58.400, 1743, 100, 99, 24, 23633, -16487, 4711, 5235, 11, 14, 1526160924.292, 59, 0, 1024, 1024, 1024, 1024, 0, 6, 3915, 3943, 3944, 3936, 3922, 3943, 0, 1, 20201, -89.900, 0.000, 59.100, 0.000, 0.000, -3.000, 0.0, , , , , , 98, , , 61, 61, 61
38.1754072, -120.0595448, 44.200, 14:35:24.392, 15, 0.00, 0.16, 90, -0.800, 1.800, 58.300, 1743, 100, 99, 24, 23633, -16487, 4711, 5235, 11, 14, 1526160924.392, 37, 0, 1024, 1024, 1024, 1024, 0, 6, 3915, 3943, 3944, 3936, 3922, 3943, 0, 1, 20301, -89.900, 0.000, 59.100, 0.000, 0.000, -3.000, 0.0, , , , , , 98, , , 61, 61, 61
38.1754073, -120.0595448, 44.500, 14:35:24.492, 15, 0.00, 0.16, 90, -0.800, 1.700, 58.400, 1743, 100, 99, 24, 23633, -16487, 4711, 5235, 11, 14, 1526160924.492, 51, 0, 1024, 1024, 1024, 1024, 0, 6, 3915, 3943, 3944, 3936, 3922, 3943, 0, 1, 20401, -90.000, 0.000, 59.100, 0.000, 0.000, -3.000, 0.0, , , , , , 98, , , 61, 61, 61
38.1754073, -120.0595448, 44.800, 14:35:24.592, 15, 0.00, 0.16, 90, -0.900, 1.700, 58.400, 1743, 100, 99, 24, 23633, -16487, 4711, 5235, 11, 14, 1526160924.593, 55, 0, 1024, 1024, 1024, 1024, 0, 6, 3915, 3943, 3944, 3936, 3922, 3943, 0, 1, 20501, -89.900, 0.000, 59.100, 0.000, 0.000, -3.000, 0.0, , , , , , 98, , , 61, 61, 61
38.1754073, -120.0595448, 45.100, 14:35:24.692, 15, 0.00, 0.16, 90, -0.800, 1.800, 58.300, 1743, 100, 98, 24, 23633, -16487, 4711, 5235, 11, 14, 1526160924.692, 58, 0, 1024, 1024, 1024, 1024, 0, 6, 3915, 3943, 3944, 3936, 3922, 3943, 0, 1, 20601, -89.900, 0.000, 59.100, 0.000, 0.000, -3.100, 0.0, , , , , , 98, , , 61, 61, 61
38.1754073, -120.0595449, 45.400, 14:35:24.792, 15, 0.00, 0.15, 90, -0.800, 1.800, 58.100, 1743, 100, 98, 24, 23633, -16487, 4711, 5235, 11, 14, 1526160924.792, 64, 0, 1024, 1024, 1024, 1024, 0, 6, 3915, 3943, 3944, 3936, 3922, 3943, 0, 1, 20701, -89.900, 0.000, 59.100, 0.000, 0.000, -3.000, 0.0, , , , , , 98, , , 61, 61, 61
38.1754073, -120.0595449, 45.700, 14:35:24.892, 15, 0.00, 0.15, 90, -0.900, 1.900, 58.000, 1743, 100, 98, 24, 23633, -16487, 4711, 5235, 11, 14, 1526160924.893, 56, 0, 1024, 1024, 1024, 1024, 0, 6, 3915, 3943, 3944, 3936, 3922, 3943, 0, 1, 20801, -89.900, 0.000, 59.100, 0.000, 0.000, -3.000, 0.0, , , , , , 98, , , 61, 61, 61
38.1754073, -120.0595449, 46.000, 14:35:24.992, 15, 0.00, 0.15, 90, -0.900, 2.000, 57.800, 1743, 100, 98, 24, 23633, -16487, 4711, 5235, 11, 14, 1526160924.993, 33, 0, 1024, 1024, 1024, 1024, 0, 6, 3915, 3943, 3944, 3936, 3922, 3943, 0, 1, 20901, -89.900, 0.000, 59.100, 0.000, 0.000, -3.000, 0.0, , , , , , 98, , , 61, 61, 61
