Latitude, Longitude, Altitude (m), Time, Sats, Speed (m/s), Range (m), Battery (%), Roll (deg), Pitch (deg), Yaw (deg), Images, HD Signal (%), RC Signal (%), Battery Temp (C), Battery Voltage (mV), Battery Current (mA), Battery Energy (mAh), Battery Capacity (mAh), Battery Discharges, flyState, timestamp (Unix), LastUpdate (ms), radioChannel, Rc_elevator, Rc_aileron, Rc_throttle, Rc_rudder, Rc_gyro, Dronetype, Battery_Cell1 (mV), Battery_Cell2 (mV), Battery_Cell3 (mV), Battery_Cell4 (mV), Battery_Cell5 (mV), Battery_Cell6 (mV), Video, isFlying, elapsedTime (ms), gimbalPitch (deg), gimbalRoll (deg), gimbalYaw (deg), VelocityX (m/s), VelocityY (m/s), VelocityZ (m/s), GroundSmear (cm), App Version, Aircraft Name, Aircraft Firmware, Aircraft Serial Number, Battery Serial Number, Battery Lifetime (%), App_Tip, App_Warning, CurrentFlightStartingIndex, CurrentFlightLastVisitedWaypoint, PreviousFlightEndingWaypointIndex
38.2001616, -120.0382942, 0.000, 09:38:12.851, 11, 0.00, 0.03, 98, 0.600, 0.400, -31.600, 686, 100, 100, 20, 25503, -3532, 5362, 5472, 12, 11, 1526143092.851, 93, 0, 1024, 1024, 1024, 1024, 0, 6, 4191, 4250, 4234, 4272, 4184, 4264, 0, 1, 2933, -89.900, 0.000, -31.400, 0.000, 0.000, -0.100, 0.0, MapPilot_2.8.1_04242018, Dendroctonus I, 1.3.1.00, 041DDC1887, 1058163200459, 97, DJI_0687.jpg, Starting Mission from Lat/Long: 38.20014/-120.03828 Camera: Zenmuse X3 - Overlap: 90/90 - Active Connection: No, 25, 25, 25
38.2001616, -120.0382942, 0.000, 09:38:12.918, 11, 0.00, 0.03, 98, 0.400, 0.500, -31.500, 686, 100, 100, 20, 25503, -3532, 5362, 5472, 12, 11, 1526143092.919, 50, 0, 1024, 1024, 1024, 1024, 0, 6, 4191, 4250, 4234, 4272, 4184, 4264, 0, 1, 3000, -89.900, 0.000, -31.400, 0.000, 0.000, -0.200, 0.0, , , , , , 97, , , 25, 25, 25
38.2001616, -120.0382942, 0.000, 09:38:13.019, 11, 0.00, 0.03, 98, 0.000, 0.500, -31.500, 686, 100, 100, 20, 25503, -3532, 5362, 5472, 12, 11, 1526143093.019, 54, 0, 1024, 1024, 1024, 1024, 0, 6, 4191, 4250, 4234, 4272, 4184, 4264, 0, 1, 3101, -89.900, 0.000, -31.400, 0.000, 0.000, -0.300, 0.0, , , , , , 97, , , 25, 25, 25
38.2001616, -120.0382942, 0.000, 09:38:13.119, 11, 0.00, 0.03, 98, -0.200, 0.200, -31.500, 686, 100, 100, 20, 25503, -3532, 5362, 5472, 12, 11, 1526143093.119, 50, 0, 1024, 1024, 1024, 1024, 0, 6, 4191, 4250, 4234, 4272, 4184, 4264, 0, 1, 3201, -89.900, 0.000, -31.400, 0.000, 0.000, -0.300, 0.0, , , , , , 97, , , 25, 25, 25
38.2001616, -120.0382943, 0.100, 09:38:13.218, 11, 0.00, 0.03, 98, -0.100, 0.200, -31.600, 686, 100, 100, 20, 25503, -3532, 5362, 5472, 12, 11, 1526143093.218, 55, 0, 1024, 1024, 1024, 1024, 0, 6, 4191, 4250, 4234, 4272, 4184, 4264, 0, 1, 3300, -89.900, 0.000, -31.400, 0.000, 0.000, -0.300, 0.0, , , , , , 97, , , 25, 25, 25
38.2001615, -120.0382943, 0.100, 09:38:13.319, 11, 0.00, 0.03, 98, 0.000, 0.200, -31.700, 686, 100, 100, 20, 24271, -13003, 5362, 5472, 12, 11, 1526143093.319, 59, 0, 1024, 1024, 1024, 1024, 0, 6, 4191, 4250, 4234, 4272, 4184, 4264, 0, 1, 3401, -90.000, 0.000, -31.400, 0.000, 0.000, -0.300, 0.0, , , , , , 97, , , 25, 25, 25
38.2001615, -120.0382944, 0.100, 09:38:13.419, 11, 0.00, 0.04, 98, 0.200, 0.100, -31.800, 686, 100, 100, 20, 24271, -13003, 5362, 5472, 12, 11, 1526143093.419, 47, 0, 1024, 1024, 1024, 1024, 0, 6, 4191, 4250, 4234, 4272, 4184, 4264, 0, 1, 3501, -89.900, 0.000, -31.400, 0.000, 0.000, -0.400, 0.0, , , , , , 97, , , 25, 25, 25
38.2001616, -120.0382944, 0.200, 09:38:13.519, 11, 0.00, 0.04, 98, 0.300, 0.100, -31.800, 686, 100, 100, 20, 24271, -13003, 5362, 5472, 12, 11, 1526143093.519, 39, 0, 1024, 1024, 1024, 1024, 0, 6, 4191, 4250, 4234, 4272, 4184, 4264, 0, 1, 3601, -89.900, 0.000, -31.400, 0.000, 0.000, -0.400, 0.0, , , , , , 97, , , 25, 25, 25
38.2001616, -120.0382945, 0.200, 09:38:13.619, 10, 0.00, 0.05, 98, 0.400, 0.200, -31.900, 686, 100, 100, 20, 24271, -13003, 5362, 5472, 12, 11, 1526143093.619, 42, 0, 1024, 1024, 1024, 1024, 0, 6, 4191, 4250, 4234, 4272, 4184, 4264, 0, 1, 3701, -89.900, 0.000, -31.400, 0.000, 0.000, -0.400, 0.0, , , , , , 97, , , 25, 25, 25
38.2001615, -120.0382945, 0.300, 09:38:13.719, 10, 0.00, 0.05, 98, 0.400, 0.200, -31.900, 686, 100, 100, 20, 24271, -13003, 5362, 5472, 12, 11, 1526143093.719, 35, 0, 1024, 1024, 1024, 1024, 0, 6, 4017, 4061, 4018, 4044, 4225, 4222, 0, 1, 3801, -89.900, 0.000, -31.400, 0.000, 0.000, -0.400, 0.0, , , , , , 97, , , 25, 25, 25
38.2001615, -120.0382945, 0.300, 09:38:13.818, 10, 0.00, 0.05, 98, 0.700, 0.100, -31.900, 686, 100, 100, 20, 24271, -13003, 5362, 5472, 12, 11, 1526143093.818, 35, 0, 1024, 1024, 1024, 1024, 0, 6, 4017, 4061, 4018, 4044, 4225, 4222, 0, 1, 3900, -89.900, 0.000, -31.400, 0.000, 0.000, -0.400, 0.0, , , , , , 97, , , 25, 25, 25
38.2001616, -120.0382945, 0.400, 09:38:13.918, 10, 0.00, 0.05, 98, 0.700, 0.200, -31.800, 686, 100, 100, 20, 24271, -13003, 5362, 5472, 12, 11, 1526143093.919, 15, 0, 1024, 1024, 1024, 1024, 0, 6, 4017, 4061, 4018, 4044, 4225, 4222, 0, 1, 4001, -89.900, 0.000, -31.400, 0.000, 0.000, -0.400, 0.0, , , , , , 97, , , 25, 25, 25
38.2001616, -120.0382945, 0.400, 09:38:14.019, 12, 0.00, 0.05, 98, 0.600, 0.200, -31.700, 686, 100, 100, 20, 24271, -13003, 5362, 5472, 12, 11, 1526143094.019, 19, 0, 1024, 1024, 1024, 1024, 0, 6, 4017, 4061, 4018, 4044, 4225, 4222, 0, 1, 4101, -89.900, 0.000, -31.400, 0.000, 0.000, -0.400, 0.0, , , , , , 97, , , 25, 25, 25
38.2001616, -120.0382945, 0.400, 09:38:14.118, 12, 0.00, 0.05, 98, 0.600, 0.200, -31.700, 686, 100, 100, 20, 24271, -13003, 5362, 5472, 12, 11, 1526143094.119, 119, 0, 1024, 1024, 1024, 1024, 0, 6, 4017, 4061, 4018, 4044, 4225, 4222, 0, 1, 4201, -89.900, 0.000, -31.400, 0.000, 0.000, -0.400, 0.0, , , , , , 97, , , 25, 25, 25
38.2001616, -120.0382944, 0.600, 09:38:14.218, 12, 0.00, 0.04, 98, 0.400, 0.000, -31.600, 686, 100, 100, 20, 24271, -13003, 5362, 5472, 12, 11, 1526143094.219, 14, 0, 1024, 1024, 1024, 1024, 0, 6, 4017, 4061, 4018, 4044, 4225, 4222, 0, 1, 4301, -89.900, 0.000, -31.400, 0.000, 0.000, -0.400, 0.0, , , , , , 97, , , 25, 25, 25
38.2001616, -120.0382944, 0.600, 09:38:14.318, 12, 0.00, 0.04, 98, 0.200, 0.000, -31.600, 686, 100, 100, 20, 24271, -13003, 5362, 5472, 12, 11, 1526143094.319, 14, 0, 1024, 1024, 1024, 1024, 0, 6, 4017, 4061, 4018, 4044, 4225, 4222, 0, 1, 4401, -89.900, 0.000, -31.400, 0.000, 0.000, -0.400, 0.0, , , , , , 97, , , 25, 25, 25
38.2001616, -120.0382944, 0.600, 09:38:14.418, 12, 0.00, 0.04, 98, 0.200, 0.000, -31.600, 686, 100, 100, 20, 24271, -13003, 5362, 5472, 12, 11, 1526143094.419, 114, 0, 1024, 1024, 1024, 1024, 0, 6, 4017, 4061, 4018, 4044, 4225, 4222, 0, 1, 4501, -89.900, 0.000, -31.400, 0.000, 0.000, -0.400, 0.0, , , , , , 97, , , 25, 25, 25
38.2001616, -120.0382943, 0.600, 09:38:14.519, 13, 0.00, 0.04, 98, 0.200, 0.000, -31.600, 686, 100, 100, 20, 24271, -13003, 5362, 5472, 12, 11, 1526143094.519, 84, 0, 1024, 1024, 1024, 1024, 0, 6, 4017, 4061, 4018, 4044, 4225, 4222, 0, 1, 4601, -89.900, 0.000, -31.400, 0.000, 0.000, -0.400, 0.0, , , , , , 97, , , 25, 25, 25
38.2001616, -120.0382943, 0.700, 09:38:14.619, 13, 0.00, 0.04, 98, 0.100, 0.100, -31.600, 686, 100, 100, 20, 24271, -13003, 5362, 5472, 12, 11, 1526143094.620, 79, 0, 1024, 1024, 1024, 1024, 0, 6, 4017, 4061, 4018, 4044, 4225, 4222, 0, 1, 4702, -89.900, 0.000, -31.400, 0.000, 0.000, -0.400, 0.0, , , , , , 97, , , 25, 25, 25
38.2001615, -120.0382943, 0.800, 09:38:14.719, 11, 0.00, 0.03, 98, 0.100, 0.100, -31.500, 686, 100, 100, 20, 24271, -13003, 5362, 5472, 12, 11, 1526143094.719, 83, 0, 1024, 1024, 1024, 1024, 0, 6, 4017, 4061, 4018, 4044, 4225, 4222, 0, 1, 4801, -89.900, 0.000, -31.400, 0.000, 0.000, -0.500, 0.0, , , , , , 97, , , 25, 25, 25
38.2001616, -120.0382942, 0.900, 09:38:14.819, 11, 0.00, 0.03, 98, 0.000, 0.100, -31.500, 686, 100, 100, 20, 23966, -16048, 5362, 5472, 12, 6, 1526143094.819, 57, 0, 1024, 1024, 1024, 1024, 0, 6, 3969, 4003, 3994, 3985, 3990, 4011, 0, 1, 4901, -89.900, 0.000, -31.400, 0.000, 0.000, -0.500, 0.0, , , , , , 97, , , 25, 25, 25
38.2001616, -120.0382942, 0.900, 09:38:14.919, 11, 0.00, 0.03, 98, 0.000, 0.100, -31.500, 686, 100, 100, 20, 23966, -16048, 5362, 5472, 12, 14, 1526143094.919, 85, 0, 1024, 1024, 1024, 1024, 0, 6, 3969, 4003, 3994, 3985, 3990, 4011, 0, 1, 5001, -89.900, 0.000, -31.400, 0.000, 0.000, -0.400, 0.0, , , , , , 97, , , 25, 25, 25
38.2001616, -120.0382942, 1.000, 09:38:15.019, 11, 0.00, 0.03, 98, 0.100, 0.000, -31.400, 686, 100, 100, 20, 23966, -16048, 5362, 5472, 12, 14, 1526143095.020, 89, 0, 1024, 1024, 1024, 1024, 0, 6, 3969, 4003, 3994, 3985, 3990, 4011, 0, 1, 5101, -89.900, 0.000, -31.400, 0.000, 0.000, -0.300, 0.0, , , , , , 97, , , 25, 25, 25
38.2001616, -120.0382942, 1.000, 09:38:15.119, 11, 0.00, 0.03, 98, 0.200, 0.000, -31.400, 686, 100, 100, 20, 23966, -16048, 5362, 5472, 12, 14, 1526143095.119, 69, 0, 1024, 1024, 1024, 1024, 0, 6, 3969, 4003, 3994, 3985, 3990, 4011, 0, 1, 5201, -89.900, 0.000, -31.400, 0.000, 0.000, -0.200, 0.0, , , , , , 97, , , 25, 25, 25
38.2001616, -120.0382942, 1.000, 09:38:15.219, 12, 0.00, 0.03, 98, 0.300, 0.000, -31.400, 686, 100, 100, 20, 23966, -16048, 5362, 5472, 12, 14, 1526143095.219, 70, 0, 1024, 1024, 1024, 1024, 0, 6, 3969, 4003, 3994, 3985, 3990, 4011, 0, 1, 5301, -89.900, 0.000, -31.400, 0.000, 0.000, -0.200, 0.0, , , , , , 97, , , 25, 25, 25
38.2001616, -120.0382942, 1.000, 09:38:15.319, 12, 0.00, 0.03, 98, 0.300, 0.000, -31.400, 686, 100, 100, 20, 23966, -16048, 5362, 5472, 12, 14, 1526143095.319, 64, 0, 1024, 1024, 1024, 1024, 0, 6, 3969, 4003, 3994, 3985, 3990, 4011, 0, 1, 5401, -89.900, 0.000, -31.400, 0.000, 0.000, -0.300, 0.0, , , , , , 97, , , 25, 25, 25
38.2001615, -120.0382942, 1.100, 09:38:15.419, 13, 0.00, 0.03, 98, 0.300, 0.000, -31.300, 686, 100, 100, 20, 23966, -16048, 5362, 5472, 12, 14, 1526143095.419, 50, 0, 1024, 1024, 1024, 1024, 0, 6, 3969, 4003, 3994, 3985, 3990, 4011, 0, 1, 5501, -89.900, 0.000, -31.400, 0.000, 0.000, -0.400, 0.0, , , , , , 97, , , 25, 25, 25
38.2001615, -120.0382941, 1.100, 09:38:15.519, 13, 0.00, 0.02, 98, 0.400, 0.000, -31.300, 686, 100, 100, 20, 23966, -16048, 5362, 5472, 12, 14, 1526143095.519, 63, 0, 1024, 1024, 1024, 1024, 0, 6, 3969, 4003, 3994, 3985, 3990, 4011, 0, 1, 5601, -89.900, 0.000, -31.400, 0.000, 0.000, -0.600, 0.0, , , , , , 97, , , 25, 25, 25
38.2001615, -120.0382941, 1.200, 09:38:15.619, 14, 0.00, 0.02, 98, 0.400, 0.000, -31.300, 686, 100, 100, 20, 23966, -16048, 5362, 5472, 12, 14, 1526143095.619, 57, 0, 1024, 1024, 1024, 1024, 0, 6, 3969, 4003, 3994, 3985, 3990, 4011, 0, 1, 5701, -89.900, 0.000, -31.400, 0.000, 0.000, -0.800, 0.0, , , , , , 97, , , 25, 25, 25
38.2001615, -120.0382940, 1.300, 09:38:15.718, 14, 0.00, 0.02, 98, 0.300, 0.000, -31.200, 686, 100, 100, 20, 23966, -16048, 5362, 5472, 12, 14, 1526143095.718, 34, 0, 1024, 1024, 1024, 1024, 0, 6, 3969, 4003, 3994, 3985, 3990, 4011, 0, 1, 5800, -89.900, 0.000, -31.400, 0.000, 0.000, -1.000, 0.0, , , , , , 97, , , 25, 25, 25
38.2001615, -120.0382940, 1.400, 09:38:15.818, 13, 0.00, 0.02, 98, 0.100, 0.000, -31.100, 686, 100, 100, 20, 23916, -16407, 5362, 5472, 12, 14, 1526143095.819, 48, 0, 1024, 1024, 1024, 1024, 0, 6, 3957, 3982, 4016, 3972, 4060, 3997, 0, 1, 5901, -89.900, 0.000, -31.400, 0.000, 0.000, -1.200, 0.0, , , , , , 97, , , 25, 25, 25
38.2001615, -120.0382940, 1.600, 09:38:15.919, 13, 0.00, 0.02, 98, 0.000, 0.000, -31.000, 686, 100, 100, 20, 23916, -16407, 5362, 5472, 12, 14, 1526143095.919, 42, 0, 1024, 1024, 1024, 1024, 0, 6, 3957, 3982, 4016, 3972, 4060, 3997, 0, 1, 6001, -90.000, 0.000, -31.400, 0.000, 0.000, -1.400, 0.0, , , , , , 97, , , 25, 25, 25
38.2001615, -120.0382940, 1.800, 09:38:16.019, 13, 0.00, 0.01, 98, 0.100, 0.000, -31.000, 686, 100, 100, 20, 23916, -16407, 5362, 5472, 12, 14, 1526143096.019, 19, 0, 1024, 1024, 1024, 1024, 0, 6, 3957, 3982, 4016, 3972, 4060, 3997, 0, 1, 6101, -90.000, 0.000, -31.400, 0.000, 0.000, -1.700, 0.0, , , , , , 97, , , 25, 25, 25
38.2001615, -120.0382938, 2.000, 09:38:16.119, 13, 0.00, 0.02, 98, 0.200, 0.000, -31.000, 686, 100, 100, 20, 23916, -16407, 5362, 5472, 12, 14, 1526143096.119, 38, 0, 1024, 1024, 1024, 1024, 0, 6, 3957, 3982, 4016, 3972, 4060, 3997, 0, 1, 6201, -89.900, 0.000, -31.400, 0.000, 0.000, -1.900, 0.0, , , , , , 97, , , 25, 25, 25
38.2001616, -120.0382937, 2.200, 09:38:16.219, 13, 0.00, 0.04, 98, 0.100, 0.000, -31.000, 686, 100, 100, 20, 23916, -16407, 5362, 5472, 12, 14, 1526143096.219, 47, 0, 1024, 1024, 1024, 1024, 0, 6, 3957, 3982, 4016, 3972, 4060, 3997, 0, 1, 6301, -89.900, 0.000, -31.400, 0.000, 0.000, -2.000, 0.0, , , , , , 97, , , 25, 25, 25
38.2001616, -120.0382936, 2.400, 09:38:16.318, 13, 0.00, 0.05, 98, 0.000, 0.000, -31.100, 686, 100, 100, 20, 23916, -16407, 5362, 5472, 12, 14, 1526143096.318, 8, 0, 1024, 1024, 1024, 1024, 0, 6, 3957, 3982, 4016, 3972, 4060, 3997, 0, 1, 6400, -89.900, 0.000, -31.400, 0.000, 0.000, -2.200, 0.0, , , , , , 97, , , 25, 25, 25
38.2001616, -120.0382935, 2.600, 09:38:16.418, 13, 0.00, 0.06, 98, -0.200, -0.100, -31.200, 686, 100, 100, 20, 23916, -16407, 5362, 5472, 12, 14, 1526143096.419, 26, 0, 1024, 1024, 1024, 1024, 0, 6, 3957, 3982, 4016, 3972, 4060, 3997, 0, 1, 6501, -90.000, 0.000, -31.400, 0.000, 0.000, -2.500, 0.0, , , , , , 97, , , 25, 25, 25
38.2001617, -120.0382933, 2.900, 09:38:16.522, 13, 0.00, 0.07, 98, -0.400, -0.100, -31.300, 686, 100, 100, 20, 23916, -16407, 5362, 5472, 12, 14, 1526143096.522, 4, 0, 1024, 1024, 1024, 1024, 0, 6, 3957, 3982, 4016, 3972, 4060, 3997, 0, 1, 6604, -90.000, 0.000, -31.400, 0.000, 0.000, -2.800, 0.0, , , , , , 97, , , 25, 25, 25
38.2001617, -120.0382931, 3.200, 09:38:16.623, 12, 0.00, 0.09, 98, -0.600, -0.200, -31.400, 686, 100, 100, 20, 23916, -16407, 5362, 5472, 12, 14, 1526143096.623, 6, 0, 1024, 1024, 1024, 1024, 0, 6, 3957, 3982, 4016, 3972, 4060, 3997, 0, 1, 6705, -90.000, 0.000, -31.400, 0.000, 0.000, -2.900, 0.0, , , , , , 97, , , 25, 25, 25
38.2001618, -120.0382930, 3.500, 09:38:16.719, 12, 0.00, 0.11, 98, -0.700, -0.200, -31.600, 686, 100, 100, 20, 23421, -20595, 5362, 5472, 12, 14, 1526143096.720, 7, 0, 1024, 1024, 1024, 1024, 0, 6, 3957, 3982, 4016, 3972, 4060, 3997, 0, 1, 6801, -89.900, 0.000, -31.400, 0.000, 0.000, -3.000, 0.0, , , , , , 97, , , 25, 25, 25
38.2001619, -120.0382928, 3.900, 09:38:16.818, 11, 0.00, 0.13, 98, -0.900, -0.200, -31.700, 686, 100, 100, 20, 23421, -20595, 5362, 5472, 12, 14, 1526143096.819, 12, 0, 1024, 1024, 1024, 1024, 0, 6, 3880, 3909, 3902, 3871, 3893, 3908, 0, 1, 6900, -89.900, 0.000, -31.400, 0.000, 0.000, -3.100, 0.0, , , , , , 97, , , 25, 25, 25
38.2001620, -120.0382926, 4.200, 09:38:16.923, 11, 0.00, 0.15, 98, -1.100, 0.000, -31.700, 686, 100, 100, 20, 23421, -20595, 5362, 5472, 12, 14, 1526143096.924, 5, 0, 1024, 1024, 1024, 1024, 0, 6, 3880, 3909, 3902, 3871, 3893, 3908, 0, 1, 7005, -89.900, 0.000, -31.400, 0.000, 0.000, -3.200, 0.0, , , , , , 97, , , 25, 25, 25
38.2001620, -120.0382926, 4.200, 09:38:17.019, 11, 0.00, 0.15, 98, -1.100, 0.000, -31.700, 686, 100, 100, 20, 23421, -20595, 5362, 5472, 12, 14, 1526143097.019, 100, 0, 1024, 1024, 1024, 1024, 0, 6, 3880, 3909, 3902, 3871, 3893, 3908, 0, 1, 7101, -89.900, 0.000, -31.400, 0.000, 0.000, -3.200, 0.0, , , , , , 97, , , 25, 25, 25
38.2001622, -120.0382924, 4.500, 09:38:17.118, 11, 0.00, 0.17, 98, -1.300, 0.100, -31.800, 686, 100, 100, 20, 23421, -20595, 5362, 5472, 12, 14, 1526143097.119, 94, 0, 1024, 1024, 1024, 1024, 0, 6, 3880, 3909, 3902, 3871, 3893, 3908, 0, 1, 7200, -89.900, 0.000, -31.400, 0.000, 0.000, -3.200, 0.0, , , , , , 97, , , 25, 25, 25
38.2001624, -120.0382923, 5.200, 09:38:17.219, 14, 0.00, 0.19, 98, -1.600, 0.300, -31.900, 686, 100, 100, 20, 23421, -20595, 5362, 5472, 12, 14, 1526143097.220, 5, 0, 1024, 1024, 1024, 1024, 0, 6, 3880, 3909, 3902, 3871, 3893, 3908, 0, 1, 7302, -89.900, 0.000, -31.400, 0.000, 0.000, -3.200, 0.0, , , , , , 97, , , 25, 25, 25
38.2001624, -120.0382923, 5.200, 09:38:17.319, 14, 0.00, 0.19, 98, -1.600, 0.300, -31.900, 686, 100, 100, 20, 23421, -20595, 5362, 5472, 12, 14, 1526143097.319, 105, 0, 1024, 1024, 1024, 1024, 0, 6, 3880, 3909, 3902, 3871, 3893, 3908, 0, 1, 7401, -89.900, 0.000, -31.400, 0.000, 0.000, -3.200, 0.0, , , , , , 97, , , 25, 25, 25
38.2001624, -120.0382922, 5.600, 09:38:17.419, 14, 0.00, 0.20, 98, -1.500, 0.300, -31.900, 686, 100, 100, 20, 23421, -20595, 5362, 5472, 12, 14, 1526143097.419, 78, 0, 1024, 1024, 1024, 1024, 0, 6, 3880, 3909, 3902, 3871, 3893, 3908, 0, 1, 7501, -89.900, 0.000, -31.400, 0.000, 0.000, -3.200, 0.0, , , , , , 97, , , 25, 25, 25
38.2001624, -120.0382921, 5.900, 09:38:17.519, 13, 0.00, 0.20, 98, -1.400, 0.100, -31.800, 686, 100, 100, 20, 23421, -20595, 5362, 5472, 12, 14, 1526143097.520, 87, 0, 1024, 1024, 1024, 1024, 0, 6, 3880, 3909, 3902, 3871, 3893, 3908, 0, 1, 7601, -90.000, 0.000, -31.400, 0.000, 0.000, -3.200, 0.0, , , , , , 97, , , 25, 25, 25
38.2001624, -120.0382920, 6.200, 09:38:17.618, 13, 0.00, 0.21, 98, -1.200, 0.000, -31.600, 686, 100, 100, 20, 23421, -20595, 5362, 5472, 12, 14, 1526143097.618, 85, 0, 1024, 1024, 1024, 1024, 0, 6, 3880, 3909, 3902, 3871, 3893, 3908, 0, 1, 7700, -90.000, 0.000, -31.400, 0.000, 0.000, -3.200, 0.0, , , , , , 97, , , 25, 25, 25
38.2001624, -120.0382920, 6.200, 09:38:17.718, 13, 0.00, 0.21, 98, -1.200, 0.000, -31.600, 686, 100, 100, 20, 23421, -20595, 5362, 5472, 12, 14, 1526143097.718, 185, 0, 1024, 1024, 1024, 1024, 0, 6, 3880, 3909, 3902, 3871, 3893, 3908, 0, 1, 7800, -90.000, 0.000, -31.400, 0.000, 0.000, -3.200, 0.0, , , , , , 97, , , 25, 25, 25
38.2001621, -120.0382922, 7.300, 09:38:17.819, 12, 0.00, 0.18, 98, -0.300, -0.500, -31.300, 686, 100, 97, 20, 23231, -22630, 5362, 5472, 12, 14, 1526143097.819, 57, 0, 1024, 1024, 1024, 1024, 0, 6, 3846, 3895, 3866, 3866, 3887, 3925, 0, 1, 7901, -90.000, 0.000, -31.400, 0.000, 0.000, -3.100, 0.0, , , , , , 97, , , 25, 25, 25
38.2001620, -120.0382924, 7.600, 09:38:17.918, 12, 0.10, 0.16, 98, 0.100, -0.600, -31.400, 686, 100, 97, 20, 23231, -22630, 5362, 5472, 12, 14, 1526143097.919, 64, 0, 1024, 1024, 1024, 1024, 0, 6, 3846, 3895, 3866, 3866, 3887, 3925, 0, 1, 8001, -90.000, 0.000, -31.400, 0.000, -0.100, -3.100, 0.0, , , , , , 97, , , 25, 25, 25
38.2001618, -120.0382926, 7.900, 09:38:18.019, 12, 0.10, 0.14, 98, 0.500, -0.700, -31.400, 686, 100, 97, 20, 23231, -22630, 5362, 5472, 12, 14, 1526143098.019, 81, 0, 1024, 1024, 1024, 1024, 0, 6, 3846, 3895, 3866, 3866, 3887, 3925, 0, 1, 8101, -90.000, 0.000, -31.400, 0.000, -0.100, -3.100, 0.1, , , , , , 97, , , 25, 25, 25
38.2001617, -120.0382927, 8.200, 09:38:18.118, 12, 0.00, 0.12, 98, 0.700, -0.900, -31.400, 686, 100, 97, 20, 23231, -22630, 5362, 5472, 12, 14, 1526143098.119, 74, 0, 1024, 1024, 1024, 1024, 0, 6, 3846, 3895, 3866, 3866, 3887, 3925, 0, 1, 8201, -90.000, 0.000, -31.400, 0.000, 0.000, -3.100, 0.0, , , , , , 97, , , 25, 25, 25
38.2001615, -120.0382928, 8.600, 09:38:18.219, 13, 0.00, 0.11, 98, 0.700, -1.000, -31.300, 686, 100, 97, 20, 23231, -22630, 5362, 5472, 12, 14, 1526143098.220, 71, 0, 1024, 1024, 1024, 1024, 0, 6, 3846, 3895, 3866, 3866, 3887, 3925, 0, 1, 8302, -90.000, 0.000, -31.400, 0.000, 0.000, -3.100, 0.0, , , , , , 97, , , 25, 25, 25
38.2001613, -120.0382930, 8.900, 09:38:18.319, 13, 0.00, 0.09, 98, 0.600, -1.200, -31.300, 686, 100, 97, 20, 23231, -22630, 5362, 5472, 12, 14, 1526143098.320, 66, 0, 1024, 1024, 1024, 1024, 0, 6, 3846, 3895, 3866, 3866, 3887, 3925, 0, 1, 8402, -90.000, 0.000, -31.400, 0.000, 0.000, -3.100, 0.0, , , , , , 97, , , 25, 25, 25
38.2001612, -120.0382932, 9.200, 09:38:18.419, 13, 0.00, 0.07, 98, 0.900, -1.200, -31.300, 686, 100, 97, 20, 23231, -22630, 5362, 5472, 12, 14, 1526143098.420, 27, 0, 1024, 1024, 1024, 1024, 0, 6, 3846, 3895, 3866, 3866, 3887, 3925, 0, 1, 8502, -90.000, 0.000, -31.400, 0.000, 0.000, -3.000, 0.0, , , , , , 97, , , 25, 25, 25
38.2001611, -120.0382932, 9.600, 09:38:18.518, 13, 0.00, 0.07, 98, 1.200, -1.100, -31.300, 686, 100, 97, 20, 23231, -22630, 5362, 5472, 12, 14, 1526143098.519, 48, 0, 1024, 1024, 1024, 1024, 0, 6, 3846, 3895, 3866, 3866, 3887, 3925, 0, 1, 8601, -90.000, 0.000, -31.400, 0.000, 0.000, -3.000, 0.0, , , , , , 97, , , 25, 25, 25
38.2001611, -120.0382933, 9.900, 09:38:18.619, 14, 0.00, 0.07, 98, 1.000, -1.000, -31.300, 686, 100, 97, 20, 23231, -22630, 5362, 5472, 12, 14, 1526143098.620, 39, 0, 1024, 1024, 1024, 1024, 0, 6, 3846, 3895, 3866, 3866, 3887, 3925, 0, 1, 8701, -90.000, 0.000, -31.400, 0.000, 0.000, -3.000, 0.0, , , , , , 97, , , 25, 25, 25
38.2001610, -120.0382933, 10.200, 09:38:18.719, 14, 0.00, 0.07, 98, 0.700, -0.800, -31.400, 686, 100, 97, 20, 23504, -18403, 5362, 5472, 12, 14, 1526143098.720, 43, 0, 1024, 1024, 1024, 1024, 0, 6, 3846, 3895, 3866, 3866, 3887, 3925, 0, 1, 8802, -89.900, 0.000, -31.400, 0.000, 0.000, -3.000, 0.0, , , , , , 97, , , 25, 25, 25
38.2001610, -120.0382933, 10.500, 09:38:18.818, 14, 0.00, 0.07, 98, 0.200, -0.600, -31.600, 686, 100, 97, 20, 23504, -18403, 5362, 5472, 12, 14, 1526143098.819, 43, 0, 1024, 1024, 1024, 1024, 0, 6, 3846, 3895, 3866, 3866, 3887, 3925, 0, 1, 8901, -89.900, 0.000, -31.400, 0.000, 0.000, -2.900, 0.0, , , , , , 97, , , 25, 25, 25
38.2001610, -120.0382933, 10.800, 09:38:18.919, 14, 0.00, 0.08, 98, -0.100, -0.600, -31.700, 686, 100, 97, 20, 23504, -18403, 5362, 5472, 12, 14, 1526143098.920, 43, 0, 1024, 1024, 1024, 1024, 0, 6, 3846, 3895, 3866, 3866, 3887, 3925, 0, 1, 9002, -90.000, 0.000, -31.400, 0.000, 0.000, -2.900, 0.0, , , , , , 97, , , 25, 25, 25
38.2001609, -120.0382933, 11.100, 09:38:19.019, 14, 0.00, 0.08, 98, -0.200, -0.600, -31.700, 686, 100, 97, 20, 23504, -18403, 5362, 5472, 12, 14, 1526143099.020, 16, 0, 1024, 1024, 1024, 1024, 0, 6, 3846, 3895, 3866, 3866, 3887, 3925, 0, 1, 9102, -90.000, 0.000, -31.400, 0.000, 0.000, -2.900, 0.0, , , , , , 97, , , 25, 25, 25
38.2001608, -120.0382934, 11.400, 09:38:19.119, 14, 0.00, 0.08, 98, -0.200, -0.700, -31.700, 686, 100, 97, 20, 23504, -18403, 5362, 5472, 12, 14, 1526143099.120, 38, 0, 1024, 1024, 1024, 1024, 0, 6, 3846, 3895, 3866, 3866, 3887, 3925, 0, 1, 9202, -90.000, 0.000, -31.400, 0.000, 0.000, -2.900, 0.0, , , , , , 97, , , 25, 25, 25
38.2001608, -120.0382934, 11.700, 09:38:19.219, 14, 0.00, 0.08, 98, 0.000, -0.700, -31.700, 686, 100, 97, 20, 23504, -18403, 5362, 5472, 12, 14, 1526143099.220, 27, 0, 1024, 1024, 1024, 1024, 0, 6, 3846, 3895, 3866, 3866, 3887, 3925, 0, 1, 9302, -90.000, 0.000, -31.400, 0.000, 0.000, -2.900, 0.0, , , , , , 97, , , 25, 25, 25
38.2001608, -120.0382935, 12.000, 09:38:19.326, 14, 0.00, 0.08, 98, 0.300, -0.800, -31.600, 686, 100, 99, 20, 23504, -18403, 5362, 5472, 12, 14, 1526143099.326, 12, 0, 1024, 1024, 1024, 1024, 0, 6, 3846, 3895, 3866, 3866, 3887, 3925, 0, 1, 9408, -90.000, 0.000, -31.400, 0.000, 0.000, -2.900, 0.0, , , , , , 97, , , 25, 25, 25
38.2001608, -120.0382936, 12.300, 09:38:19.429, 14, 0.00, 0.07, 98, 0.500, -0.800, -31.600, 686, 100, 99, 20, 23504, -18403, 5362, 5472, 12, 14, 1526143099.432, 11, 0, 1024, 1024, 1024, 1024, 0, 6, 3846, 3895, 3866, 3866, 3887, 3925, 0, 1, 9514, -89.900, 0.000, -31.400, 0.000, 0.000, -2.900, 0.0, , , , , , 97, , , 25, 25, 25
38.2001608, -120.0382936, 12.300, 09:38:19.519, 14, 0.00, 0.07, 98, 0.500, -0.800, -31.600, 686, 100, 99, 20, 23504, -18403, 5362, 5472, 12, 14, 1526143099.520, 99, 0, 1024, 1024, 1024, 1024, 0, 6, 3846, 3895, 3866, 3866, 3887, 3925, 0, 1, 9602, -89.900, 0.000, -31.400, 0.000, 0.000, -2.900, 0.0, , , , , , 97, , , 25, 25, 25
38.2001607, -120.0382936, 12.900, 09:38:19.620, 13, 0.00, 0.08, 98, 0.600, -0.700, -31.600, 686, 100, 99, 20, 23504, -18403, 5362, 5472, 12, 14, 1526143099.621, 19, 0, 1024, 1024, 1024, 1024, 0, 6, 3846, 3895, 3866, 3866, 3887, 3925, 0, 1, 9703, -90.000, 0.000, -31.400, 0.000, 0.000, -2.900, 0.0, , , , , , 97, , , 25, 25, 25
38.2001607, -120.0382936, 12.900, 09:38:19.719, 13, 0.00, 0.08, 98, 0.600, -0.700, -31.600, 686, 100, 99, 20, 23504, -18403, 5362, 5472, 12, 14, 1526143099.720, 118, 0, 1024, 1024, 1024, 1024, 0, 6, 3846, 3895, 3866, 3866, 3887, 3925, 0, 1, 9802, -90.000, 0.000, -31.400, 0.000, 0.000, -2.900, 0.0, , , , , , 97, , , 25, 25, 25
38.2001607, -120.0382937, 13.200, 09:38:19.819, 13, 0.00, 0.08, 98, 0.700, -0.700, -31.600, 686, 100, 99, 20, 23504, -18403, 5362, 5472, 12, 14, 1526143099.820, 85, 0, 1024, 1024, 1024, 1024, 0, 6, 3888, 3928, 3917, 3910, 3933, 3939, 0, 1, 9902, -89.900, 0.000, -31.400, 0.000, 0.000, -3.000, 0.0, , , , , , 97, , , 25, 25, 25
38.2001607, -120.0382937, 13.500, 09:38:19.919, 14, 0.00, 0.08, 98, 0.600, -0.500, -31.600, 686, 100, 99, 20, 23504, -18403, 5362, 5472, 12, 14, 1526143099.920, 97, 0, 1024, 1024, 1024, 1024, 0, 6, 3888, 3928, 3917, 3910, 3933, 3939, 0, 1, 10002, -89.900, 0.000, -31.400, 0.000, 0.000, -2.900, 0.0, , , , , , 97, , , 25, 25, 25
38.2001608, -120.0382937, 13.800, 09:38:20.019, 14, 0.00, 0.07, 98, 0.600, -0.300, -31.600, 686, 100, 99, 20, 23504, -18403, 5362, 5472, 12, 14, 1526143100.020, 77, 0, 1024, 1024, 1024, 1024, 0, 6, 3888, 3928, 3917, 3910, 3933, 3939, 0, 1, 10101, -89.900, 0.000, -31.400, 0.000, 0.000, -2.900, 0.0, , , , , , 97, , , 25, 25, 25
38.2001608, -120.0382938, 14.100, 09:38:20.119, 14, 0.00, 0.06, 98, 0.500, 0.000, -31.500, 686, 100, 99, 20, 23504, -18403, 5362, 5472, 12, 14, 1526143100.120, 65, 0, 1024, 1024, 1024, 1024, 0, 6, 3888, 3928, 3917, 3910, 3933, 3939, 0, 1, 10202, -89.900, 0.000, -31.400, 0.000, 0.000, -2.900, 0.0, , , , , , 97, , , 25, 25, 25
38.2001609, -120.0382938, 14.700, 09:38:20.219, 14, 0.00, 0.06, 98, 0.000, 0.000, -31.500, 686, 100, 99, 20, 23504, -18403, 5362, 5472, 12, 14, 1526143100.220, 56, 0, 1024, 1024, 1024, 1024, 0, 6, 3888, 3928, 3917, 3910, 3933, 3939, 0, 1, 10302, -89.900, 0.000, -31.400, 0.000, 0.000, -2.900, 0.0, , , , , , 97, , , 25, 25, 25
38.2001609, -120.0382938, 15.000, 09:38:20.319, 14, 0.00, 0.06, 98, 0.000, -0.100, -31.400, 686, 100, 99, 20, 23533, -17974, 5362, 5472, 12, 14, 1526143100.319, 70, 0, 1024, 1024, 1024, 1024, 0, 6, 3892, 3930, 3930, 3906, 3923, 3945, 0, 1, 10401, -90.000, 0.000, -31.400, 0.000, 0.000, -2.900, 0.0, , , , , , 97, , , 25, 25, 25
38.2001609, -120.0382938, 15.000, 09:38:20.418, 14, 0.00, 0.06, 98, 0.000, -0.100, -31.400, 686, 100, 99, 20, 23533, -17974, 5362, 5472, 12, 14, 1526143100.419, 169, 0, 1024, 1024, 1024, 1024, 0, 6, 3892, 3930, 3930, 3906, 3923, 3945, 0, 1, 10501, -90.000, 0.000, -31.400, 0.000, 0.000, -2.900, 0.0, , , , , , 97, , , 25, 25, 25
38.2001609, -120.0382937, 15.600, 09:38:20.519, 14, 0.00, 0.05, 98, -0.100, -0.400, -31.400, 686, 100, 99, 20, 23533, -17974, 5362, 5472, 12, 14, 1526143100.519, 48, 0, 1024, 1024, 1024, 1024, 0, 6, 3892, 3930, 3930, 3906, 3923, 3945, 0, 1, 10601, -90.000, 0.000, -31.400, 0.000, 0.000, -2.900, 0.0, , , , , , 97, , , 25, 25, 25
38.2001610, -120.0382937, 15.900, 09:38:20.618, 14, 0.00, 0.05, 98, -0.100, -0.300, -31.400, 686, 100, 99, 20, 23533, -17974, 5362, 5472, 12, 14, 1526143100.619, 69, 0, 1024, 1024, 1024, 1024, 0, 6, 3892, 3930, 3930, 3906, 3923, 3945, 0, 1, 10701, -90.000, 0.000, -31.400, 0.000, 0.000, -2.900, 0.0, , , , , , 97, , , 25, 25, 25
38.2001611, -120.0382936, 16.200, 09:38:20.718, 14, 0.00, 0.05, 98, -0.200, -0.200, -31.300, 686, 100, 99, 20, 23533, -17974, 5362, 5472, 12, 14, 1526143100.719, 67, 0, 1024, 1024, 1024, 1024, 0, 6, 3892, 3930, 3930, 3906, 3923, 3945, 0, 1, 10801, -89.900, 0.000, -31.400, 0.000, 0.000, -2.800, 0.0, , , , , , 97, , , 25, 25, 25
38.2001611, -120.0382936, 16.500, 09:38:20.819, 14, 0.00, 0.05, 98, -0.400, 0.000, -31.300, 686, 100, 100, 20, 23533, -17974, 5362, 5472, 12, 14, 1526143100.819, 39, 0, 1024, 1024, 1024, 1024, 0, 6, 3892, 3930, 3930, 3906, 3923, 3945, 0, 1, 10901, -89.900, 0.000, -31.400, 0.000, 0.000, -2.900, 0.0, , , , , , 97, , , 25, 25, 25
38.2001611, -120.0382935, 16.800, 09:38:20.919, 14, 0.00, 0.05, 98, -0.400, -0.100, -31.300, 686, 100, 100, 20, 23533, -17974, 5362, 5472, 12, 14, 1526143100.919, 40, 0, 1024, 1024, 1024, 1024, 0, 6, 3892, 3930, 3930, 3906, 3923, 3945, 0, 1, 11001, -89.900, 0.000, -31.400, 0.000, 0.000, -2.900, 0.0, , , , , , 97, , , 25, 25, 25
38.2001611, -120.0382935, 17.100, 09:38:21.019, 14, 0.00, 0.05, 98, -0.300, -0.200, -31.300, 686, 100, 100, 20, 23533, -17974, 5362, 5472, 12, 14, 1526143101.019, 43, 0, 1024, 1024, 1024, 1024, 0, 6, 3892, 3930, 3930, 3906, 3923, 3945, 0, 1, 11101, -89.900, 0.000, -31.400, 0.000, 0.000, -3.000, 0.0, , , , , , 97, , , 25, 25, 25
38.2001612, -120.0382936, 17.400, 09:38:21.119, 14, 0.00, 0.04, 98, -0.200, -0.200, -31.400, 686, 100, 100, 20, 23533, -17974, 5362, 5472, 12, 14, 1526143101.119, 44, 0, 1024, 1024, 1024, 1024, 0, 6, 3892, 3930, 3930, 3906, 3923, 3945, 0, 1, 11201, -89.900, 0.000, -31.400, 0.000, 0.000, -3.000, 0.0, , , , , , 97, , , 25, 25, 25
38.2001612, -120.0382936, 17.700, 09:38:21.218, 15, 0.00, 0.04, 98, 0.000, -0.200, -31.400, 686, 100, 100, 21, 23535, -18042, 5362, 5472, 12, 14, 1526143101.218, 12, 0, 1024, 1024, 1024, 1024, 0, 6, 3890, 3922, 3919, 3903, 3921, 3946, 0, 1, 11300, -89.900, 0.000, -31.400, 0.000, 0.000, -2.900, 0.0, , , , , , 97, , , 25, 25, 25
38.2001612, -120.0382937, 18.000, 09:38:21.319, 15, 0.00, 0.03, 98, 0.100, -0.100, -31.400, 686, 100, 98, 21, 23535, -18042, 5362, 5472, 12, 14, 1526143101.320, 31, 0, 1024, 1024, 1024, 1024, 0, 6, 3890, 3922, 3919, 3903, 3921, 3946, 0, 1, 11402, -89.900, 0.000, -31.400, 0.000, 0.000, -2.800, 0.0, , , , , , 97, , , 25, 25, 25
38.2001612, -120.0382937, 18.300, 09:38:21.434, 14, 0.00, 0.03, 98, 0.300, -0.100, -31.400, 686, 100, 98, 21, 23535, -18042, 5362, 5472, 12, 14, 1526143101.434, 8, 0, 1024, 1024, 1024, 1024, 0, 6, 3890, 3922, 3919, 3903, 3921, 3946, 0, 1, 11516, -89.900, 0.000, -31.400, 0.000, 0.000, -2.900, 0.0, , , , , , 97, , , 25, 25, 25
38.2001613, -120.0382938, 18.600, 09:38:21.519, 14, 0.00, 0.03, 98, 0.500, 0.000, -31.500, 686, 100, 98, 21, 23535, -18042, 5362, 5472, 12, 14, 1526143101.520, 25, 0, 1024, 1024, 1024, 1024, 0, 6, 3890, 3922, 3919, 3903, 3921, 3946, 0, 1, 11602, -89.900, 0.000, -31.400, 0.000, 0.000, -2.900, 0.0, , , , , , 97, , , 25, 25, 25
38.2001613, -120.0382938, 18.900, 09:38:21.619, 14, 0.00, 0.02, 98, 0.400, 0.000, -31.600, 686, 100, 98, 21, 23535, -18042, 5362, 5472, 12, 14, 1526143101.619, 12, 0, 1024, 1024, 1024, 1024, 0, 6, 3890, 3922, 3919, 3903, 3921, 3946, 0, 1, 11701, -89.900, 0.000, -31.400, 0.000, 0.000, -2.900, 0.0, , , , , , 97, , , 25, 25, 25
38.2001613, -120.0382938, 18.900, 09:38:21.719, 14, 0.00, 0.02, 98, 0.400, 0.000, -31.600, 686, 100, 98, 21, 23535, -18042, 5362, 5472, 12, 14, 1526143101.719, 112, 0, 1024, 1024, 1024, 1024, 0, 6, 3890, 3922, 3919, 3903, 3921, 3946, 0, 1, 11801, -89.900, 0.000, -31.400, 0.000, 0.000, -2.900, 0.0, , , , , , 97, , , 25, 25, 25
38.2001613, -120.0382937, 19.200, 09:38:21.819, 14, 0.00, 0.03, 98, 0.200, 0.000, -31.600, 686, 100, 98, 21, 23535, -18042, 5362, 5472, 12, 14, 1526143101.819, 92, 0, 1024, 1024, 1024, 1024, 0, 6, 3890, 3922, 3919, 3903, 3921, 3946, 0, 1, 11901, -89.900, 0.000, -31.400, 0.000, 0.000, -2.900, 0.0, , , , , , 97, , , 25, 25, 25
38.2001614, -120.0382936, 19.500, 09:38:21.919, 14, 0.00, 0.03, 98, 0.000, -0.100, -31.700, 686, 100, 98, 21, 23535, -18042, 5362, 5472, 12, 14, 1526143101.919, 80, 0, 1024, 1024, 1024, 1024, 0, 6, 3890, 3922, 3919, 3903, 3921, 3946, 0, 1, 12001, -90.000, 0.000, -31.400, 0.000, 0.000, -2.900, 0.0, , , , , , 97, , , 25, 25, 25
38.2001614, -120.0382936, 19.800, 09:38:22.018, 14, 0.00, 0.04, 98, -0.300, -0.200, -31.700, 686, 100, 98, 21, 23535, -18042, 5362, 5472, 12, 14, 1526143102.019, 93, 0, 1024, 1024, 1024, 1024, 0, 6, 3890, 3922, 3919, 3903, 3921, 3946, 0, 1, 12101, -89.900, 0.000, -31.400, 0.000, 0.000, -3.000, 0.0, , , , , , 97, , , 25, 25, 25
38.2001614, -120.0382936, 20.100, 09:38:22.119, 14, 0.00, 0.04, 98, -0.300, -0.200, -31.600, 686, 100, 98, 21, 23535, -18042, 5362, 5472, 12, 14, 1526143102.120, 95, 0, 1024, 1024, 1024, 1024, 0, 6, 3890, 3922, 3919, 3903, 3921, 3946, 0, 1, 12201, -90.000, 0.000, -31.400, 0.000, 0.000, -3.000, 0.0, , , , , , 97, , , 25, 25, 25
38.2001614, -120.0382934, 20.700, 09:38:22.224, 14, 0.00, 0.05, 98, -0.400, -0.400, -31.500, 686, 100, 98, 21, 23445, -18192, 5362, 5472, 12, 14, 1526143102.225, 5, 0, 1024, 1024, 1024, 1024, 0, 6, 3890, 3922, 3919, 3903, 3921, 3946, 0, 1, 12307, -90.000, 0.000, -31.400, 0.000, 0.000, -2.900, 0.0, , , , , , 97, , , 25, 25, 25
38.2001614, -120.0382934, 20.700, 09:38:22.318, 14, 0.00, 0.05, 98, -0.400, -0.400, -31.500, 686, 100, 98, 21, 23445, -18192, 5362, 5472, 12, 14, 1526143102.319, 99, 0, 1024, 1024, 1024, 1024, 0, 6, 3886, 3921, 3917, 3900, 3919, 3937, 0, 1, 12401, -90.000, 0.000, -31.400, 0.000, 0.000, -2.900, 0.0, , , , , , 97, , , 25, 25, 25
38.2001614, -120.0382934, 21.000, 09:38:22.419, 14, 0.00, 0.06, 98, -0.300, -0.500, -31.400, 686, 100, 99, 21, 23445, -18192, 5362, 5472, 12, 14, 1526143102.419, 84, 0, 1024, 1024, 1024, 1024, 0, 6, 3886, 3921, 3917, 3900, 3919, 3937, 0, 1, 12501, -90.000, 0.000, -31.400, 0.000, 0.000, -2.800, 0.0, , , , , , 97, , , 25, 25, 25
38.2001615, -120.0382933, 21.600, 09:38:22.519, 15, 0.00, 0.07, 98, -0.400, -0.500, -31.400, 686, 100, 99, 21, 23445, -18192, 5362, 5472, 12, 14, 1526143102.519, 51, 0, 1024, 1024, 1024, 1024, 0, 6, 3886, 3921, 3917, 3900, 3919, 3937, 0, 1, 12601, -89.900, 0.000, -31.400, 0.000, 0.000, -2.900, 0.0, , , , , , 97, , , 25, 25, 25
38.2001615, -120.0382932, 21.900, 09:38:22.619, 15, 0.00, 0.07, 98, -0.300, -0.400, -31.400, 686, 100, 99, 21, 23445, -18192, 5362, 5472, 12, 14, 1526143102.619, 61, 0, 1024, 1024, 1024, 1024, 0, 6, 3886, 3921, 3917, 3900, 3919, 3937, 0, 1, 12701, -89.900, 0.000, -31.400, 0.000, 0.000, -2.900, 0.0, , , , , , 97, , , 25, 25, 25
38.2001616, -120.0382932, 22.200, 09:38:22.718, 15, 0.00, 0.08, 98, -0.300, -0.200, -31.400, 686, 100, 99, 21, 23445, -18192, 5362, 5472, 12, 14, 1526143102.718, 62, 0, 1024, 1024, 1024, 1024, 0, 6, 3886, 3921, 3917, 3900, 3919, 3937, 0, 1, 12800, -89.900, 0.000, -31.400, 0.000, 0.000, -2.900, 0.0, , , , , , 97, , , 25, 25, 25
38.2001616, -120.0382932, 22.500, 09:38:22.819, 15, 0.00, 0.08, 98, -0.300, -0.200, -31.300, 686, 100, 100, 21, 23445, -18192, 5362, 5472, 12, 14, 1526143102.819, 83, 0, 1024, 1024, 1024, 1024, 0, 6, 3886, 3921, 3917, 3900, 3919, 3937, 0, 1, 12901, -89.900, 0.000, -31.400, 0.000, 0.000, -2.900, 0.0, , , , , , 97, , , 25, 25, 25
38.2001616, -120.0382932, 22.800, 09:38:22.919, 15, 0.00, 0.08, 98, -0.100, -0.300, -31.300, 686, 100, 100, 21, 23445, -18192, 5362, 5472, 12, 14, 1526143102.919, 66, 0, 1024, 1024, 1024, 1024, 0, 6, 3886, 3921, 3917, 3900, 3919, 3937, 0, 1, 13001, -89.900, 0.000, -31.400, 0.000, 0.000, -2.900, 0.0, , , , , , 97, , , 25, 25, 25
38.2001616, -120.0382932, 23.100, 09:38:23.019, 16, 0.00, 0.08, 98, -0.100, -0.400, -31.400, 686, 100, 100, 21, 23445, -18192, 5362, 5472, 12, 14, 1526143103.019, 67, 0, 1024, 1024, 1024, 1024, 0, 6, 3886, 3921, 3917, 3900, 3919, 3937, 0, 1, 13101, -90.000, 0.000, -31.400, 0.000, 0.000, -2.900, 0.0, , , , , , 97, , , 25, 25, 25
38.2001616, -120.0382932, 23.400, 09:38:23.119, 16, 0.00, 0.08, 98, -0.100, -0.400, -31.500, 686, 100, 100, 21, 23445, -18192, 5362, 5472, 12, 14, 1526143103.119, 41, 0, 1024, 1024, 1024, 1024, 0, 6, 3886, 3921, 3917, 3900, 3919, 3937, 0, 1, 13201, -90.000, 0.000, -31.400, 0.000, 0.000, -2.900, 0.0, , , , , , 97, , , 25, 25, 25
38.2001617, -120.0382932, 23.700, 09:38:23.219, 16, 0.00, 0.08, 98, 0.000, -0.400, -31.500, 686, 100, 100, 21, 23445, -18192, 5362, 5472, 12, 14, 1526143103.219, 62, 0, 1024, 1024, 1024, 1024, 0, 6, 3886, 3921, 3917, 3900, 3919, 3937, 0, 1, 13301, -90.000, 0.000, -31.400, 0.000, 0.000, -3.000, 0.0, , , , , , 97, , , 25, 25, 25
38.2001617, -120.0382932, 24.000, 09:38:23.318, 16, 0.00, 0.08, 98, 0.000, -0.300, -31.500, 686, 100, 100, 21, 23472, -18071, 5307, 5472, 12, 14, 1526143103.319, 41, 0, 1024, 1024, 1024, 1024, 0, 6, 3886, 3921, 3917, 3900, 3919, 3937, 0, 1, 13401, -89.900, 0.000, -31.400, 0.000, 0.000, -3.000, 0.0, , , , , , 97, , , 25, 25, 25
38.2001617, -120.0382933, 24.300, 09:38:23.418, 15, 0.00, 0.08, 98, 0.100, -0.100, -31.500, 686, 100, 100, 21, 23472, -18071, 5307, 5472, 12, 14, 1526143103.419, 33, 0, 1024, 1024, 1024, 1024, 0, 6, 3881, 3924, 3907, 3892, 3912, 3938, 0, 1, 13500, -89.900, 0.000, -31.400, 0.000, 0.000, -3.000, 0.0, , , , , , 97, , , 25, 25, 25
38.2001617, -120.0382932, 24.600, 09:38:23.518, 15, 0.00, 0.08, 98, 0.100, 0.000, -31.500, 686, 100, 100, 21, 23472, -18071, 5307, 5472, 12, 14, 1526143103.518, 55, 0, 1024, 1024, 1024, 1024, 0, 6, 3881, 3924, 3907, 3892, 3912, 3938, 0, 1, 13600, -89.900, 0.000, -31.400, 0.000, 0.000, -2.900, 0.0, , , , , , 97, , , 25, 25, 25
38.2001617, -120.0382932, 24.900, 09:38:23.619, 16, 0.00, 0.08, 98, 0.000, 0.100, -31.600, 686, 100, 100, 21, 23472, -18071, 5307, 5472, 12, 14, 1526143103.619, 62, 0, 1024, 1024, 1024, 1024, 0, 6, 3881, 3924, 3907, 3892, 3912, 3938, 0, 1, 13701, -89.900, 0.000, -31.400, 0.000, 0.000, -2.900, 0.0, , , , , , 97, , , 25, 25, 25
38.2001617, -120.0382932, 25.200, 09:38:23.718, 16, 0.00, 0.08, 97, 0.000, 0.000, -31.600, 686, 100, 100, 21, 23472, -18071, 5307, 5472, 12, 14, 1526143103.719, 51, 0, 1024, 1024, 1024, 1024, 0, 6, 3881, 3924, 3907, 3892, 3912, 3938, 0, 1, 13801, -90.000, 0.000, -31.400, 0.000, 0.000, -2.900, 0.0, , , , , , 97, , , 25, 25, 25
38.2001617, -120.0382932, 25.500, 09:38:23.819, 15, 0.00, 0.08, 97, 0.100, -0.100, -31.600, 686, 100, 100, 21, 23472, -18071, 5307, 5472, 12, 14, 1526143103.819, 44, 0, 1024, 1024, 1024, 1024, 0, 6, 3881, 3924, 3907, 3892, 3912, 3938, 0, 1, 13901, -90.000, 0.000, -31.400, 0.000, 0.000, -2.900, 0.0, , , , , , 97, , , 25, 25, 25
38.2001617, -120.0382932, 25.800, 09:38:23.918, 15, 0.00, 0.08, 97, 0.100, -0.300, -31.500, 686, 100, 100, 21, 23472, -18071, 5307, 5472, 12, 14, 1526143103.919, 45, 0, 1024, 1024, 1024, 1024, 0, 6, 3881, 3924, 3907, 3892, 3912, 3938, 0, 1, 14001, -90.000, 0.000, -31.400, 0.000, 0.000, -2.900, 0.0, , , , , , 97, , , 25, 25, 25
38.2001617, -120.0382932, 26.100, 09:38:24.018, 16, 0.00, 0.08, 97, 0.000, -0.400, -31.500, 686, 100, 100, 21, 23472, -18071, 5307, 5472, 12, 14, 1526143104.019, 22, 0, 1024, 1024, 1024, 1024, 0, 6, 3881, 3924, 3907, 3892, 3912, 3938, 0, 1, 14101, -90.000, 0.000, -31.400, 0.000, 0.000, -2.900, 0.0, , , , , , 97, , , 25, 25, 25
38.2001617, -120.0382932, 26.400, 09:38:24.119, 16, 0.00, 0.09, 97, 0.000, -0.500, -31.500, 686, 100, 100, 21, 23472, -18071, 5307, 5472, 12, 14, 1526143104.120, 23, 0, 1024, 1024, 1024, 1024, 0, 6, 3881, 3924, 3907, 3892, 3912, 3938, 0, 1, 14202, -90.000, 0.000, -31.400, 0.000, 0.000, -2.900, 0.0, , , , , , 97, , , 25, 25, 25
38.2001617, -120.0382931, 26.700, 09:38:24.219, 16, 0.00, 0.09, 97, -0.200, -0.600, -31.400, 686, 100, 100, 21, 23435, -18255, 5307, 5472, 12, 14, 1526143104.219, 7, 0, 1024, 1024, 1024, 1024, 0, 6, 3881, 3924, 3907, 3892, 3912, 3938, 0, 1, 14301, -90.000, 0.000, -31.400, 0.000, 0.000, -2.900, 0.0, , , , , , 97, , , 25, 25, 25
38.2001618, -120.0382931, 26.900, 09:38:24.318, 16, 0.00, 0.09, 97, -0.200, -0.500, -31.400, 686, 100, 100, 21, 23435, -18255, 5307, 5472, 12, 14, 1526143104.319, 21, 0, 1024, 1024, 1024, 1024, 0, 6, 3881, 3924, 3907, 3892, 3912, 3938, 0, 1, 14401, -89.900, 0.000, -31.400, 0.000, 0.000, -2.900, 0.0, , , , , , 97, , , 25, 25, 25
38.2001618, -120.0382931, 26.900, 09:38:24.419, 16, 0.00, 0.09, 97, -0.200, -0.500, -31.400, 686, 100, 100, 21, 23435, -18255, 5307, 5472, 12, 14, 1526143104.419, 121, 0, 1024, 1024, 1024, 1024, 0, 6, 3881, 3924, 3907, 3892, 3912, 3938, 0, 1, 14501, -89.900, 0.000, -31.400, 0.000, 0.000, -2.900, 0.0, , , , , , 97, , , 25, 25, 25
38.2001618, -120.0382931, 27.500, 09:38:24.519, 15, 0.00, 0.09, 97, -0.200, -0.200, -31.400, 686, 100, 100, 21, 23435, -18255, 5307, 5472, 12, 14, 1526143104.520, 5, 0, 1024, 1024, 1024, 1024, 0, 6, 3881, 3924, 3907, 3892, 3912, 3938, 0, 1, 14602, -89.900, 0.000, -31.400, 0.000, 0.000, -2.900, 0.0, , , , , , 97, , , 25, 25, 25
38.2001618, -120.0382931, 27.500, 09:38:24.618, 15, 0.00, 0.09, 97, -0.200, -0.200, -31.400, 686, 100, 100, 21, 23435, -18255, 5307, 5472, 12, 14, 1526143104.619, 104, 0, 1024, 1024, 1024, 1024, 0, 6, 3881, 3924, 3907, 3892, 3912, 3938, 0, 1, 14701, -89.900, 0.000, -31.400, 0.000, 0.000, -2.900, 0.0, , , , , , 97, , , 25, 25, 25
38.2001618, -120.0382932, 27.900, 09:38:24.719, 15, 0.00, 0.09, 97, -0.100, -0.100, -31.500, 686, 100, 100, 21, 23435, -18255, 5307, 5472, 12, 14, 1526143104.719, 82, 0, 1024, 1024, 1024, 1024, 0, 6, 3881, 3924, 3907, 3892, 3912, 3938, 0, 1, 14801, -89.900, 0.000, -31.400, 0.000, 0.000, -3.000, 0.0, , , , , , 97, , , 25, 25, 25
38.2001618, -120.0382931, 28.100, 09:38:24.819, 15, 0.00, 0.10, 97, -0.100, 0.000, -31.500, 686, 100, 100, 21, 23435, -18255, 5307, 5472, 12, 14, 1526143104.819, 82, 0, 1024, 1024, 1024, 1024, 0, 6, 3884, 3916, 3903, 3888, 3904, 3939, 0, 1, 14901, -89.900, 0.000, -31.400, 0.000, 0.000, -2.900, 0.0, , , , , , 97, , , 25, 25, 25
38.2001618, -120.0382931, 28.400, 09:38:24.919, 16, 0.00, 0.10, 97, -0.100, 0.000, -31.500, 686, 100, 98, 21, 23435, -18255, 5307, 5472, 12, 14, 1526143104.919, 82, 0, 1024, 1024, 1024, 1024, 0, 6, 3884, 3916, 3903, 3888, 3904, 3939, 0, 1, 15001, -89.900, 0.000, -31.400, 0.000, 0.000, -2.900, 0.0, , , , , , 97, , , 25, 25, 25
38.2001618, -120.0382931, 29.000, 09:38:25.019, 16, 0.00, 0.10, 97, -0.200, -0.100, -31.500, 686, 100, 98, 21, 23435, -18255, 5307, 5472, 12, 14, 1526143105.019, 73, 0, 1024, 1024, 1024, 1024, 0, 6, 3884, 3916, 3903, 3888, 3904, 3939, 0, 1, 15101, -89.900, 0.000, -31.400, 0.000, 0.000, -2.900, 0.0, , , , , , 97, , , 25, 25, 25
38.2001618, -120.0382930, 29.300, 09:38:25.118, 16, 0.00, 0.10, 97, -0.100, -0.100, -31.600, 686, 100, 98, 21, 23435, -18255, 5307, 5472, 12, 14, 1526143105.119, 76, 0, 1024, 1024, 1024, 1024, 0, 6, 3884, 3916, 3903, 3888, 3904, 3939, 0, 1, 15200, -90.000, 0.000, -31.400, 0.000, 0.000, -2.900, 0.0, , , , , , 97, , , 25, 25, 25
38.2001619, -120.0382930, 29.600, 09:38:25.218, 16, 0.00, 0.11, 97, -0.300, -0.200, -31.600, 686, 100, 98, 21, 23435, -18255, 5307, 5472, 12, 14, 1526143105.218, 57, 0, 1024, 1024, 1024, 1024, 0, 6, 3884, 3916, 3903, 3888, 3904, 3939, 0, 1, 15300, -89.900, 0.000, -31.400, 0.000, 0.000, -2.900, 0.0, , , , , , 97, , , 25, 25, 25
38.2001618, -120.0382930, 29.900, 09:38:25.320, 16, 0.00, 0.11, 97, -0.400, -0.300, -31.500, 686, 100, 98, 21, 23435, -18255, 5307, 5472, 12, 14, 1526143105.321, 74, 0, 1024, 1024, 1024, 1024, 0, 6, 3884, 3916, 3903, 3888, 3904, 3939, 0, 1, 15403, -89.900, 0.000, -31.400, 0.000, 0.000, -2.900, 0.0, , , , , , 97, , , 25, 25, 25
38.2001618, -120.0382929, 30.200, 09:38:25.419, 16, 0.00, 0.11, 97, -0.400, -0.300, -31.500, 686, 100, 98, 21, 23435, -18255, 5307, 5472, 12, 14, 1526143105.419, 36, 0, 1024, 1024, 1024, 1024, 0, 6, 3884, 3916, 3903, 3888, 3904, 3939, 0, 1, 15501, -90.000, 0.000, -31.400, 0.000, 0.000, -3.000, 0.0, , , , , , 97, , , 25, 25, 25
38.2001618, -120.0382929, 30.500, 09:38:25.518, 16, 0.00, 0.11, 97, -0.200, -0.200, -31.400, 686, 100, 98, 21, 23435, -18255, 5307, 5472, 12, 14, 1526143105.519, 47, 0, 1024, 1024, 1024, 1024, 0, 6, 3884, 3916, 3903, 3888, 3904, 3939, 0, 1, 15600, -89.900, 0.000, -31.400, 0.000, 0.000, -2.900, 0.0, , , , , , 97, , , 25, 25, 25
38.2001619, -120.0382929, 30.800, 09:38:25.618, 16, 0.00, 0.11, 97, -0.200, -0.100, -31.400, 686, 100, 98, 21, 23435, -18255, 5307, 5472, 12, 14, 1526143105.618, 48, 0, 1024, 1024, 1024, 1024, 0, 6, 3884, 3916, 3903, 3888, 3904, 3939, 0, 1, 15700, -89.900, 0.000, -31.400, 0.000, 0.000, -2.900, 0.0, , , , , , 97, , , 25, 25, 25
38.2001618, -120.0382929, 31.100, 09:38:25.719, 16, 0.00, 0.11, 97, -0.200, -0.100, -31.400, 686, 100, 98, 21, 23435, -18255, 5307, 5472, 12, 14, 1526143105.720, 60, 0, 1024, 1024, 1024, 1024, 0, 6, 3884, 3916, 3903, 3888, 3904, 3939, 0, 1, 15801, -89.900, 0.000, -31.400, 0.000, 0.000, -2.900, 0.0, , , , , , 97, , , 25, 25, 25
38.2001618, -120.0382929, 31.400, 09:38:25.819, 16, 0.00, 0.11, 97, -0.200, -0.200, -31.400, 686, 100, 98, 21, 23424, -18390, 5307, 5472, 12, 14, 1526143105.819, 45, 0, 1024, 1024, 1024, 1024, 0, 6, 3868, 3900, 3893, 3883, 3899, 3914, 0, 1, 15901, -89.900, 0.000, -31.400, 0.000, 0.000, -3.000, 0.0, , , , , , 97, , , 25, 25, 25
38.2001618, -120.0382929, 31.700, 09:38:25.919, 16, 0.00, 0.11, 97, -0.200, -0.200, -31.300, 686, 100, 98, 21, 23424, -18390, 5307, 5472, 12, 14, 1526143105.919, 34, 0, 1024, 1024, 1024, 1024, 0, 6, 3868, 3900, 3893, 3883, 3899, 3914, 0, 1, 16001, -90.000, 0.000, -31.400, 0.000, 0.000, -3.000, 0.0, , , , , , 97, , , 25, 25, 25
38.2001618, -120.0382929, 31.700, 09:38:26.019, 16, 0.00, 0.11, 97, -0.200, -0.200, -31.300, 686, 100, 98, 21, 23424, -18390, 5307, 5472, 12, 14, 1526143106.019, 134, 0, 1024, 1024, 1024, 1024, 0, 6, 3868, 3900, 3893, 3883, 3899, 3914, 0, 1, 16101, -90.000, 0.000, -31.400, 0.000, 0.000, -3.000, 0.0, , , , , , 97, , , 25, 25, 25
38.2001617, -120.0382929, 32.300, 09:38:26.118, 16, 0.00, 0.11, 97, 0.000, -0.200, -31.300, 686, 100, 98, 21, 23424, -18390, 5307, 5472, 12, 14, 1526143106.119, 19, 0, 1024, 1024, 1024, 1024, 0, 6, 3868, 3900, 3893, 3883, 3899, 3914, 0, 1, 16201, -89.900, 0.000, -31.400, 0.000, 0.000, -2.900, 0.0, , , , , , 97, , , 25, 25, 25
38.2001617, -120.0382929, 32.600, 09:38:26.218, 16, 0.00, 0.11, 97, -0.100, -0.300, -31.300, 686, 100, 98, 21, 23424, -18390, 5307, 5472, 12, 14, 1526143106.219, 18, 0, 1024, 1024, 1024, 1024, 0, 6, 3868, 3900, 3893, 3883, 3899, 3914, 0, 1, 16300, -90.000, 0.000, -31.400, 0.000, 0.000, -2.900, 0.0, , , , , , 97, , , 25, 25, 25
38.2001617, -120.0382929, 32.900, 09:38:26.319, 16, 0.00, 0.11, 97, -0.200, -0.200, -31.400, 686, 100, 100, 21, 23424, -18390, 5307, 5472, 12, 14, 1526143106.319, 29, 0, 1024, 1024, 1024, 1024, 0, 6, 3868, 3900, 3893, 3883, 3899, 3914, 0, 1, 16401, -89.900, 0.000, -31.400, 0.000, 0.000, -3.000, 0.0, , , , , , 97, , , 25, 25, 25
38.2001617, -120.0382929, 32.900, 09:38:26.419, 16, 0.00, 0.11, 97, -0.200, -0.200, -31.400, 686, 100, 100, 21, 23424, -18390, 5307, 5472, 12, 14, 1526143106.419, 129, 0, 1024, 1024, 1024, 1024, 0, 6, 3868, 3900, 3893, 3883, 3899, 3914, 0, 1, 16501, -89.900, 0.000, -31.400, 0.000, 0.000, -3.000, 0.0, , , , , , 97, , , 25, 25, 25
38.2001617, -120.0382929, 33.500, 09:38:26.537, 16, 0.00, 0.10, 97, -0.100, -0.200, -31.400, 686, 100, 100, 21, 23424, -18390, 5307, 5472, 12, 14, 1526143106.538, 9, 0, 1024, 1024, 1024, 1024, 0, 6, 3868, 3900, 3893, 3883, 3899, 3914, 0, 1, 16619, -89.900, 0.000, -31.400, 0.000, 0.000, -3.000, 0.0, , , , , , 97, , , 25, 25, 25
38.2001617, -120.0382929, 33.800, 09:38:26.621, 16, 0.00, 0.10, 97, 0.000, -0.200, -31.400, 686, 100, 100, 21, 23424, -18390, 5307, 5472, 12, 14, 1526143106.622, 8, 0, 1024, 1024, 1024, 1024, 0, 6, 3868, 3900, 3893, 3883, 3899, 3914, 0, 1, 16704, -89.900, 0.000, -31.400, 0.000, 0.000, -2.900, 0.0, , , , , , 97, , , 25, 25, 25
38.2001617, -120.0382929, 33.800, 09:38:26.718, 16, 0.00, 0.10, 97, 0.000, -0.200, -31.400, 686, 100, 100, 21, 23424, -18390, 5307, 5472, 12, 14, 1526143106.719, 105, 0, 1024, 1024, 1024, 1024, 0, 6, 3868, 3900, 3893, 3883, 3899, 3914, 0, 1, 16801, -89.900, 0.000, -31.400, 0.000, 0.000, -2.900, 0.0, , , , , , 97, , , 25, 25, 25
38.2001617, -120.0382929, 34.100, 09:38:26.819, 16, 0.00, 0.10, 97, -0.100, -0.100, -31.400, 686, 100, 100, 21, 23337, -18333, 5307, 5472, 12, 14, 1526143106.819, 93, 0, 1024, 1024, 1024, 1024, 0, 6, 3861, 3897, 3895, 3879, 3895, 3914, 0, 1, 16901, -89.900, 0.000, -31.400, 0.000, 0.000, -2.900, 0.0, , , , , , 97, , , 25, 25, 25
38.2001617, -120.0382929, 34.400, 09:38:26.918, 16, 0.00, 0.10, 97, -0.200, 0.000, -31.400, 686, 100, 100, 21, 23337, -18333, 5307, 5472, 12, 14, 1526143106.919, 93, 0, 1024, 1024, 1024, 1024, 0, 6, 3861, 3897, 3895, 3879, 3895, 3914, 0, 1, 17001, -89.900, 0.000, -31.400, 0.000, 0.000, -3.000, 0.0, , , , , , 97, , , 25, 25, 25
38.2001617, -120.0382929, 35.000, 09:38:27.018, 16, 0.00, 0.10, 97, -0.200, 0.000, -31.500, 686, 100, 100, 21, 23337, -18333, 5307, 5472, 12, 14, 1526143107.018, 78, 0, 1024, 1024, 1024, 1024, 0, 6, 3861, 3897, 3895, 3879, 3895, 3914, 0, 1, 17100, -89.900, 0.000, -31.400, 0.000, 0.000, -3.000, 0.0, , , , , , 97, , , 25, 25, 25
38.2001617, -120.0382929, 35.300, 09:38:27.119, 16, 0.00, 0.10, 97, -0.300, 0.000, -31.500, 686, 100, 100, 21, 23337, -18333, 5307, 5472, 12, 14, 1526143107.119, 79, 0, 1024, 1024, 1024, 1024, 0, 6, 3861, 3897, 3895, 3879, 3895, 3914, 0, 1, 17201, -89.900, 0.000, -31.400, 0.000, 0.000, -3.000, 0.0, , , , , , 97, , , 25, 25, 25
38.2001617, -120.0382929, 35.300, 09:38:27.219, 16, 0.00, 0.10, 97, -0.300, 0.000, -31.500, 686, 100, 100, 21, 23337, -18333, 5307, 5472, 12, 14, 1526143107.219, 179, 0, 1024, 1024, 1024, 1024, 0, 6, 3861, 3897, 3895, 3879, 3895, 3914, 0, 1, 17301, -89.900, 0.000, -31.400, 0.000, 0.000, -3.000, 0.0, , , , , , 97, , , 25, 25, 25
38.2001616, -120.0382929, 35.900, 09:38:27.319, 16, 0.00, 0.10, 97, -0.200, -0.300, -31.500, 686, 100, 100, 21, 23337, -18333, 5307, 5472, 12, 14, 1526143107.319, 58, 0, 1024, 1024, 1024, 1024, 0, 6, 3861, 3897, 3895, 3879, 3895, 3914, 0, 1, 17401, -90.000, 0.000, -31.400, 0.000, 0.000, -2.900, 0.0, , , , , , 97, , , 25, 25, 25
38.2001616, -120.0382929, 36.200, 09:38:27.419, 16, 0.00, 0.10, 97, -0.300, -0.400, -31.600, 686, 100, 100, 21, 23337, -18333, 5307, 5472, 12, 14, 1526143107.419, 61, 0, 1024, 1024, 1024, 1024, 0, 6, 3861, 3897, 3895, 3879, 3895, 3914, 0, 1, 17501, -90.000, 0.000, -31.400, 0.000, 0.000, -3.000, 0.0, , , , , , 97, , , 25, 25, 25
38.2001616, -120.0382929, 36.500, 09:38:27.518, 16, 0.00, 0.10, 97, -0.300, -0.400, -31.600, 686, 100, 100, 21, 23337, -18333, 5307, 5472, 12, 14, 1526143107.519, 46, 0, 1024, 1024, 1024, 1024, 0, 6, 3861, 3897, 3895, 3879, 3895, 3914, 0, 1, 17601, -90.000, 0.000, -31.400, 0.000, 0.000, -2.900, 0.0, , , , , , 97, , , 25, 25, 25
38.2001615, -120.0382929, 36.800, 09:38:27.619, 16, 0.00, 0.10, 97, -0.300, -0.400, -31.600, 686, 100, 100, 21, 23337, -18333, 5307, 5472, 12, 14, 1526143107.619, 63, 0, 1024, 1024, 1024, 1024, 0, 6, 3861, 3897, 3895, 3879, 3895, 3914, 0, 1, 17701, -90.000, 0.000, -31.400, 0.000, 0.000, -3.000, 0.0, , , , , , 97, , , 25, 25, 25
38.2001614, -120.0382930, 37.100, 09:38:27.718, 16, 0.00, 0.09, 97, -0.100, -0.500, -31.600, 686, 100, 100, 21, 23337, -18333, 5307, 5472, 12, 14, 1526143107.719, 49, 0, 1024, 1024, 1024, 1024, 0, 6, 3861, 3897, 3895, 3879, 3895, 3914, 0, 1, 17801, -90.000, 0.000, -31.400, 0.000, 0.000, -3.000, 0.0, , , , , , 97, , , 25, 25, 25
38.2001614, -120.0382930, 37.400, 09:38:27.818, 16, 0.00, 0.09, 97, 0.000, -0.700, -31.600, 686, 100, 100, 21, 23302, -18546, 5307, 5472, 12, 14, 1526143107.819, 49, 0, 1024, 1024, 1024, 1024, 0, 6, 3856, 3896, 3889, 3872, 3890, 3915, 0, 1, 17901, -90.000, 0.000, -31.400, 0.000, 0.000, -3.000, 0.0, , , , , , 97, , , 25, 25, 25
38.2001613, -120.0382930, 37.700, 09:38:27.918, 16, 0.00, 0.09, 97, 0.200, -0.800, -31.600, 686, 100, 100, 21, 23302, -18546, 5307, 5472, 12, 14, 1526143107.919, 25, 0, 1024, 1024, 1024, 1024, 0, 6, 3856, 3896, 3889, 3872, 3890, 3915, 0, 1, 18001, -90.000, 0.000, -31.400, 0.000, 0.000, -3.000, 0.0, , , , , , 97, , , 25, 25, 25
38.2001613, -120.0382930, 38.000, 09:38:28.019, 16, 0.00, 0.09, 97, 0.200, -0.700, -31.500, 686, 100, 100, 21, 23302, -18546, 5307, 5472, 12, 14, 1526143108.019, 44, 0, 1024, 1024, 1024, 1024, 0, 6, 3856, 3896, 3889, 3872, 3890, 3915, 0, 1, 18101, -89.900, 0.000, -31.400, 0.000, 0.000, -3.000, 0.0, , , , , , 97, , , 25, 25, 25
38.2001612, -120.0382930, 38.300, 09:38:28.123, 16, 0.00, 0.09, 97, 0.100, -0.600, -31.400, 686, 100, 100, 21, 23302, -18546, 5307, 5472, 12, 14, 1526143108.123, 10, 0, 1024, 1024, 1024, 1024, 0, 6, 3856, 3896, 3889, 3872, 3890, 3915, 0, 1, 18205, -89.900, 0.000, -31.400, 0.000, 0.000, -2.900, 0.0, , , , , , 97, , , 25, 25, 25
38.2001612, -120.0382930, 38.300, 09:38:28.218, 16, 0.00, 0.09, 97, 0.100, -0.600, -31.400, 686, 100, 100, 21, 23302, -18546, 5307, 5472, 12, 14, 1526143108.219, 105, 0, 1024, 1024, 1024, 1024, 0, 6, 3856, 3896, 3889, 3872, 3890, 3915, 0, 1, 18301, -89.900, 0.000, -31.400, 0.000, 0.000, -2.900, 0.0, , , , , , 97, , , 25, 25, 25
38.2001612, -120.0382930, 39.000, 09:38:28.318, 16, 0.00, 0.09, 97, 0.200, -0.400, -31.300, 686, 100, 99, 21, 23302, -18546, 5307, 5472, 12, 14, 1526143108.319, 25, 0, 1024, 1024, 1024, 1024, 0, 6, 3856, 3896, 3889, 3872, 3890, 3915, 0, 1, 18401, -89.900, 0.000, -31.400, 0.000, 0.000, -3.000, 0.0, , , , , , 97, , , 25, 25, 25
38.2001612, -120.0382930, 39.300, 09:38:28.418, 16, 0.00, 0.09, 97, 0.100, -0.400, -31.300, 686, 100, 99, 21, 23302, -18546, 5307, 5472, 12, 14, 1526143108.419, 26, 0, 1024, 1024, 1024, 1024, 0, 6, 3856, 3896, 3889, 3872, 3890, 3915, 0, 1, 18501, -90.000, 0.000, -31.400, 0.000, 0.000, -2.900, 0.0, , , , , , 97, , , 25, 25, 25
38.2001612, -120.0382931, 39.500, 09:38:28.519, 16, 0.00, 0.09, 97, 0.100, -0.500, -31.300, 686, 100, 99, 21, 23302, -18546, 5307, 5472, 12, 14, 1526143108.519, 19, 0, 1024, 1024, 1024, 1024, 0, 6, 3856, 3896, 3889, 3872, 3890, 3915, 0, 1, 18601, -89.900, 0.000, -31.400, 0.000, 0.000, -2.900, 0.0, , , , , , 97, , , 25, 25, 25
38.2001611, -120.0382931, 39.800, 09:38:28.618, 16, 0.00, 0.08, 97, 0.000, -0.500, -31.300, 686, 100, 99, 21, 23302, -18546, 5307, 5472, 12, 14, 1526143108.618, 8, 0, 1024, 1024, 1024, 1024, 0, 6, 3856, 3896, 3889, 3872, 3890, 3915, 0, 1, 18700, -90.000, 0.000, -31.400, 0.000, 0.000, -2.900, 0.0, , , , , , 97, , , 25, 25, 25
38.2001611, -120.0382931, 40.100, 09:38:28.719, 16, 0.00, 0.09, 97, 0.000, -0.600, -31.300, 686, 100, 99, 21, 23302, -18546, 5307, 5472, 12, 14, 1526143108.719, 5, 0, 1024, 1024, 1024, 1024, 0, 6, 3856, 3896, 3889, 3872, 3890, 3915, 0, 1, 18801, -90.000, 0.000, -31.400, 0.000, 0.000, -2.900, 0.0, , , , , , 97, , , 25, 25, 25
38.2001611, -120.0382931, 40.100, 09:38:28.818, 16, 0.00, 0.09, 97, 0.000, -0.600, -31.300, 686, 100, 99, 21, 23301, -18198, 5307, 5472, 12, 14, 1526143108.819, 105, 0, 1024, 1024, 1024, 1024, 0, 6, 3858, 3889, 3892, 3863, 3892, 3916, 0, 1, 18901, -90.000, 0.000, -31.400, 0.000, 0.000, -2.900, 0.0, , , , , , 97, , , 25, 25, 25
38.2001611, -120.0382930, 40.700, 09:38:28.918, 16, 0.00, 0.09, 97, 0.000, -0.600, -31.500, 686, 100, 99, 21, 23301, -18198, 5307, 5472, 12, 14, 1526143108.919, 14, 0, 1024, 1024, 1024, 1024, 0, 6, 3858, 3889, 3892, 3863, 3892, 3916, 0, 1, 19001, -90.000, 0.000, -31.400, 0.000, 0.000, -3.000, 0.0, , , , , , 97, , , 25, 25, 25
38.2001611, -120.0382930, 40.700, 09:38:29.019, 16, 0.00, 0.09, 97, 0.000, -0.600, -31.500, 686, 100, 99, 21, 23301, -18198, 5307, 5472, 12, 14, 1526143109.019, 115, 0, 1024, 1024, 1024, 1024, 0, 6, 3858, 3889, 3892, 3863, 3892, 3916, 0, 1, 19101, -90.000, 0.000, -31.400, 0.000, 0.000, -3.000, 0.0, , , , , , 97, , , 25, 25, 25
38.2001611, -120.0382931, 41.000, 09:38:29.119, 16, 0.00, 0.09, 97, 0.000, -0.600, -31.500, 686, 100, 99, 21, 23301, -18198, 5307, 5472, 12, 14, 1526143109.119, 81, 0, 1024, 1024, 1024, 1024, 0, 6, 3858, 3889, 3892, 3863, 3892, 3916, 0, 1, 19201, -90.000, 0.000, -31.400, 0.000, 0.000, -2.900, 0.0, , , , , , 97, , , 25, 25, 25
38.2001611, -120.0382931, 41.300, 09:38:29.218, 16, 0.00, 0.09, 97, 0.000, -0.500, -31.500, 686, 100, 99, 21, 23301, -18198, 5307, 5472, 12, 14, 1526143109.219, 67, 0, 1024, 1024, 1024, 1024, 0, 6, 3858, 3889, 3892, 3863, 3892, 3916, 0, 1, 19300, -89.900, 0.000, -31.400, 0.000, 0.000, -3.000, 0.0, , , , , , 97, , , 25, 25, 25
38.2001612, -120.0382931, 41.900, 09:38:29.318, 16, 0.00, 0.08, 97, -0.100, -0.300, -31.500, 686, 100, 99, 21, 23301, -18198, 5307, 5472, 12, 14, 1526143109.319, 66, 0, 1024, 1024, 1024, 1024, 0, 6, 3858, 3889, 3892, 3863, 3892, 3916, 0, 1, 19400, -89.900, 0.000, -31.400, 0.000, 0.000, -2.900, 0.0, , , , , , 97, , , 25, 25, 25
38.2001612, -120.0382931, 42.200, 09:38:29.419, 16, 0.00, 0.08, 97, -0.100, -0.200, -31.400, 686, 100, 99, 21, 23301, -18198, 5307, 5472, 12, 14, 1526143109.419, 80, 0, 1024, 1024, 1024, 1024, 0, 6, 3858, 3889, 3892, 3863, 3892, 3916, 0, 1, 19501, -89.900, 0.000, -31.400, 0.000, 0.000, -2.900, 0.0, , , , , , 97, , , 25, 25, 25
38.2001612, -120.0382931, 42.200, 09:38:29.518, 16, 0.00, 0.08, 97, -0.100, -0.200, -31.400, 686, 100, 99, 21, 23301, -18198, 5307, 5472, 12, 14, 1526143109.519, 180, 0, 1024, 1024, 1024, 1024, 0, 6, 3858, 3889, 3892, 3863, 3892, 3916, 0, 1, 19601, -89.900, 0.000, -31.400, 0.000, 0.000, -2.900, 0.0, , , , , , 97, , , 25, 25, 25
38.2001612, -120.0382932, 42.800, 09:38:29.618, 16, 0.00, 0.07, 97, 0.100, -0.200, -31.400, 686, 100, 99, 21, 23301, -18198, 5307, 5472, 12, 14, 1526143109.619, 88, 0, 1024, 1024, 1024, 1024, 0, 6, 3858, 3889, 3892, 3863, 3892, 3916, 0, 1, 19701, -89.900, 0.000, -31.400, 0.000, 0.000, -3.000, 0.0, , , , , , 97, , , 25, 25, 25
38.2001612, -120.0382933, 43.100, 09:38:29.719, 16, 0.00, 0.07, 97, 0.200, -0.300, -31.300, 686, 100, 99, 21, 23301, -18198, 5307, 5472, 12, 14, 1526143109.719, 39, 0, 1024, 1024, 1024, 1024, 0, 6, 3858, 3889, 3892, 3863, 3892, 3916, 0, 1, 19801, -89.900, 0.000, -31.400, 0.000, 0.000, -3.000, 0.0, , , , , , 97, , , 25, 25, 25
38.2001612, -120.0382933, 43.400, 09:38:29.819, 16, 0.00, 0.06, 97, 0.200, -0.300, -31.300, 686, 100, 86, 21, 23274, -18409, 5307, 5472, 12, 14, 1526143109.819, 53, 0, 1024, 1024, 1024, 1024, 0, 6, 3858, 3889, 3892, 3863, 3892, 3916, 0, 1, 19901, -89.900, 0.000, -31.400, 0.000, 0.000, -2.900, 0.0, , , , , , 97, , , 25, 25, 25
38.2001612, -120.0382933, 43.700, 09:38:29.919, 16, 0.00, 0.06, 97, 0.200, -0.300, -31.300, 686, 100, 86, 21, 23274, -18409, 5307, 5472, 12, 14, 1526143109.919, 54, 0, 1024, 1024, 1024, 1024, 0, 6, 3858, 3889, 3892, 3863, 3892, 3916, 0, 1, 20001, -89.900, 0.000, -31.400, 0.000, 0.000, -2.900, 0.0, , , , , , 97, , , 25, 25, 25
38.2001612, -120.0382933, 44.000, 09:38:30.019, 16, 0.00, 0.06, 97, 0.200, -0.200, -31.300, 686, 100, 86, 21, 23274, -18409, 5307, 5472, 12, 14, 1526143110.020, 33, 0, 1024, 1024, 1024, 1024, 0, 6, 3858, 3889, 3892, 3863, 3892, 3916, 0, 1, 20101, -89.900, 0.000, -31.400, 0.000, 0.000, -3.000, 0.0, , , , , , 97, , , 25, 25, 25
38.2001613, -120.0382934, 44.300, 09:38:30.118, 16, 0.00, 0.06, 97, 0.200, -0.200, -31.300, 686, 100, 86, 21, 23274, -18409, 5307, 5472, 12, 14, 1526143110.119, 45, 0, 1024, 1024, 1024, 1024, 0, 6, 3858, 3889, 3892, 3863, 3892, 3916, 0, 1, 20201, -89.900, 0.000, -31.400, 0.000, 0.000, -3.000, 0.0, , , , , , 97, , , 25, 25, 25
38.2001613, -120.0382934, 44.600, 09:38:30.218, 16, 0.00, 0.06, 97, 0.200, -0.100, -31.400, 686, 100, 86, 21, 23274, -18409, 5307, 5472, 12, 14, 1526143110.219, 23, 0, 1024, 1024, 1024, 1024, 0, 6, 3858, 3889, 3892, 3863, 3892, 3916, 0, 1, 20301, -89.900, 0.000, -31.400, 0.000, 0.000, -2.900, 0.0, , , , , , 97, , , 25, 25, 25
38.2001614, -120.0382934, 44.900, 09:38:30.319, 16, 0.00, 0.05, 97, 0.100, -0.100, -31.500, 686, 100, 86, 21, 23274, -18409, 5307, 5472, 12, 14, 1526143110.319, 46, 0, 1024, 1024, 1024, 1024, 0, 6, 3848, 3887, 3887, 3857, 3883, 3901, 0, 1, 20401, -89.900, 0.000, -31.400, 0.000, 0.000, -3.000, 0.0, , , , , , 97, , , 25, 25, 25
38.2001614, -120.0382934, 45.200, 09:38:30.418, 16, 0.00, 0.05, 97, 0.000, 0.000, -31.500, 686, 100, 86, 21, 23274, -18409, 5307, 5472, 12, 14, 1526143110.419, 49, 0, 1024, 1024, 1024, 1024, 0, 6, 3848, 3887, 3887, 3857, 3883, 3901, 0, 1, 20501, -89.900, 0.000, -31.400, 0.000, 0.000, -3.000, 0.0, , , , , , 97, , , 25, 25, 25
38.2001614, -120.0382934, 45.500, 09:38:30.519, 16, 0.00, 0.05, 97, 0.000, 0.000, -31.500, 686, 100, 86, 21, 23274, -18409, 5307, 5472, 12, 14, 1526143110.520, 41, 0, 1024, 1024, 1024, 1024, 0, 6, 3848, 3887, 3887, 3857, 3883, 3901, 0, 1, 20602, -89.900, 0.000, -31.400, 0.000, 0.000, -3.000, 0.0, , , , , , 97, , , 25, 25, 25
38.2001614, -120.0382934, 45.800, 09:38:30.618, 16, 0.00, 0.06, 97, -0.100, 0.100, -31.500, 686, 100, 86, 21, 23274, -18409, 5307, 5472, 12, 14, 1526143110.619, 32, 0, 1024, 1024, 1024, 1024, 0, 6, 3848, 3887, 3887, 3857, 3883, 3901, 0, 1, 20701, -89.900, 0.000, -31.400, 0.000, 0.000, -2.900, 0.0, , , , , , 97, , , 25, 25, 25
