latitude,longitude,altitude(feet),ascent(feet),speed(mph),distance(feet),time(millisecond),datetime(utc),satellites,gpslevel,voltage(v),max_altitude(feet),max_ascent(feet),max_speed(mph),max_distance(feet), xSpeed(mph), ySpeed(mph), zSpeed(mph), compass_heading(degrees), pitch(degrees), roll(degrees),isPhoto,isVideo,rc_elevator,rc_aileron,rc_throttle,rc_rudder,gimbal_heading(degrees),gimbal_pitch(degrees),battery_percent,voltageCell1,voltageCell2,voltageCell3,voltageCell4,voltageCell5,voltageCell6,current(A),battery_temperature(f),flycStateRaw,flycState,message
38.1754106,-120.0595524,4961.7754904697,0,0,0,3300,2018-05-12 20:15:21,12,0,0,4961.7754904697,0,0,0,0,0,0,67.3, 0.1, -0.3,1,0,1024,1024,1024,1024,0,0,100,3.975,3.965,3.988,3.988,3.985,3.974,0,68,11,AutoTakeoff,
38.1754106,-120.0595525,4961.7754904697,0,0,0.0286816282144,3400,2018-05-12 20:15:21,12,0,0,4961.7754904697,0,0,0.0286816282144,0,0,0,67.5, 0, -0.2,0,0,1024,1024,1024,1024,0,0,100,3.975,3.965,3.988,3.988,3.985,3.974,0,68,11,AutoTakeoff,
38.1754107,-120.0595526,4961.7754904697,0,0,0.067982941808,3500,2018-05-12 20:15:21,12,0,0,4961.7754904697,0,0,0.067982941808,0,0,0,67.6, -0.5, -0.1,0,0,1024,1024,1024,1024,0,0,100,3.975,3.965,3.988,3.988,3.985,3.974,0,68,11,AutoTakeoff,
38.1754108,-120.0595527,4962.1035744697,0.328084,0,0.1128198855,3600,2018-05-12 20:15:21,12,0,0,4962.1035744697,0.328084,0,0.1128198855,0,0,0,67.6, -0.8, 0.2,0,0,1024,1024,1024,1024,0,0,100,3.975,3.965,3.988,3.988,3.985,3.974,0,68,11,AutoTakeoff,
38.1754108,-120.0595527,4962.1035744697,0.328084,0,0.1128198855,3700,2018-05-12 20:15:21,11,0,0,4962.1035744697,0.328084,0,0.1128198855,0,0,0,67.6, -0.8, 0.8,0,0,1024,1024,1024,1024,0,0,100,3.975,3.965,3.988,3.988,3.985,3.974,0,68,11,AutoTakeoff,
38.175411,-120.0595528,4962.4316584697,0.656168,0.223694,0.185635504628,3800,2018-05-12 20:15:21,11,0,0,4962.4316584697,0.656168,0.223694,0.185635504628,0,0,0,67.6, -0.7, 0.8,0,0,1024,1024,1024,1024,0,0,100,3.975,3.965,3.988,3.988,3.985,3.974,0,68,11,AutoTakeoff,
38.1754111,-120.0595529,4962.4316584697,0.656168,0.223694,0.232044626848,3900,2018-05-12 20:15:21,13,0,0,4962.4316584697,0.656168,0.223694,0.232044626848,0,0,0,67.5, -0.3, 0.4,0,0,1024,1024,1024,1024,0,0,100,3.975,3.965,3.988,3.988,3.985,3.974,0,68,11,AutoTakeoff,
38.1754112,-120.0595529,4962.7597424697,0.984252,0.223694,0.261700795776,4100,2018-05-12 20:15:21,13,0,0,4962.7597424697,0.984252,0.223694,0.261700795776,0,0,0,67.2, 0.2, 0.4,0,0,1024,1024,1024,1024,0,0,100,3.975,3.965,3.988,3.988,3.985,3.974,0,68,11,AutoTakeoff,
38.1754113,-120.0595528,4962.7597424697,0.984252,0.223694,0.279979667752,4200,2018-05-12 20:15:21,13,0,0,4962.7597424697,0.984252,0.223694,0.279979667752,0,0,0,67, 0.5, 0.7,0,0,1024,1024,1024,1024,0,0,100,3.975,3.965,3.988,3.988,3.985,3.974,0,68,11,AutoTakeoff,
38.1754114,-120.0595529,4962.7597424697,0.984252,0.223694,0.325207031404,4300,2018-05-12 20:15:22,13,0,0,4962.7597424697,0.984252,0.223694,0.325207031404,0,0,-0.223694,66.8, 0.5, 1.1,0,0,1024,1024,1024,1024,0,0,100,3.975,3.965,3.988,3.988,3.985,3.974,0,68,11,AutoTakeoff,
38.1754116,-120.059553,4963.0878264697,1.312336,0.223694,0.40339896304,4400,2018-05-12 20:15:22,12,0,0,4963.0878264697,1.312336,0.223694,0.40339896304,0,0,-0.223694,66.6, 0.3, 1.6,0,0,1024,1024,1024,1024,0,0,100,3.975,3.965,3.988,3.988,3.985,3.974,0,68,11,AutoTakeoff,
38.1754116,-120.0595531,4963.4159104697,1.64042,0.223694,0.41644358288,4500,2018-05-12 20:15:22,12,0,0,4963.4159104697,1.64042,0.223694,0.41644358288,0,0,-0.223694,66.5, 0.1, 1.6,0,0,1024,1024,1024,1024,0,0,100,3.975,3.965,3.988,3.988,3.985,3.974,0,68,11,AutoTakeoff,
38.1754117,-120.0595531,4963.4159104697,1.64042,0,0.4487532952,4600,2018-05-12 20:15:22,12,0,0,4963.4159104697,1.64042,0.223694,0.4487532952,0,0,0,66.4, 0.1, 1.8,0,0,1024,1024,1024,1024,0,0,100,3.975,3.965,3.988,3.988,3.985,3.974,0,68,11,AutoTakeoff,
38.1754117,-120.0595531,4963.7439944697,1.968504,0,0.4487532952,4700,2018-05-12 20:15:22,12,0,0,4963.7439944697,1.968504,0.223694,0.4487532952,0,0,0,66.4, 0.1, 1.8,0,0,1024,1024,1024,1024,0,0,100,3.975,3.965,3.988,3.988,3.985,3.974,0,68,11,AutoTakeoff,
38.1754118,-120.0595531,4963.7439944697,1.968504,0,0.48165683956,4800,2018-05-12 20:15:22,13,0,0,4963.7439944697,1.968504,0.223694,0.48165683956,0,0,0,66.4, 0.3, 2.2,0,0,1024,1024,1024,1024,0,0,100,3.975,3.965,3.988,3.988,3.985,3.974,0,68,11,AutoTakeoff,
38.1754118,-120.0595531,4963.7439944697,1.968504,0,0.48165683956,4900,2018-05-12 20:15:22,13,0,0,4963.7439944697,1.968504,0.223694,0.48165683956,0,0,0,66.3, 0.3, 2,0,0,1024,1024,1024,1024,0,0,100,3.975,3.965,3.988,3.988,3.985,3.974,0,68,11,AutoTakeoff,
38.1754118,-120.059553,4964.0720784697,2.296588,0,0.47042652424,5000,2018-05-12 20:15:22,12,0,23.995,4964.0720784697,2.296588,0.223694,0.48165683956,0,0,0,66.2, 0.4, 1.8,0,0,1024,1024,1024,1024,0,0,100,3.975,3.965,3.988,3.988,3.985,3.974,14.179,68,11,AutoTakeoff,
38.1754119,-120.059553,4964.0720784697,2.296588,0,0.50455710276,5100,2018-05-12 20:15:22,12,0,23.995,4964.0720784697,2.296588,0.223694,0.50455710276,0,0,0,66.2, 0.3, 1.9,0,0,1024,1024,1024,1024,0,0,100,3.975,3.965,3.988,3.988,3.985,3.974,14.179,68,11,AutoTakeoff,
38.1754119,-120.0595529,4964.4001624697,2.624672,0,0.49551182688,5200,2018-05-12 20:15:22,12,0,23.995,4964.4001624697,2.624672,0.223694,0.50455710276,0,0,0,66.4, 0.4, 1.9,0,0,1024,1024,1024,1024,0,0,100,3.975,3.965,3.988,3.988,3.985,3.974,14.179,68,11,AutoTakeoff,
38.1754119,-120.0595528,4964.4001624697,2.624672,0,0.48798229908,5300,2018-05-12 20:15:23,12,0,23.995,4964.4001624697,2.624672,0.223694,0.50455710276,0,0,-0.223694,66.6, 0.7, 1.9,0,0,1024,1024,1024,1024,0,0,100,3.975,3.965,3.988,3.988,3.985,3.974,14.179,68,11,AutoTakeoff,
38.1754119,-120.0595528,4964.7282464697,2.952756,0,0.48798229908,5400,2018-05-12 20:15:23,13,0,23.995,4964.7282464697,2.952756,0.223694,0.50455710276,0,0,-0.223694,66.9, 1, 1.7,0,0,1024,1024,1024,1024,0,0,100,3.975,3.965,3.988,3.988,3.985,3.974,14.179,68,11,AutoTakeoff,
38.1754119,-120.0595527,4964.7282464697,2.952756,0,0.48204725952,5500,2018-05-12 20:15:23,13,0,23.995,4964.7282464697,2.952756,0.223694,0.50455710276,0,0,-0.223694,67.2, 0.8, 1.7,0,0,1024,1024,1024,1024,0,0,100,3.975,3.965,3.988,3.988,3.985,3.974,14.179,68,14,Waypoint,
38.1754119,-120.0595526,4965.0563304697,3.28084,0,0.47775920164,5600,2018-05-12 20:15:23,13,0,23.995,4965.0563304697,3.28084,0.223694,0.50455710276,0,0,0,67.4, 0.9, 1.6,0,0,1024,1024,1024,1024,0,0,100,3.975,3.965,3.988,3.988,3.985,3.974,14.179,68,14,Waypoint,
38.1754119,-120.0595526,4965.0563304697,3.28084,0,0.47775920164,5700,2018-05-12 20:15:23,13,0,23.995,4965.0563304697,3.28084,0.223694,0.50455710276,0,0,0,67.5, 0.8, 1,0,0,1024,1024,1024,1024,0,0,100,3.975,3.965,3.988,3.988,3.985,3.974,14.179,68,14,Waypoint,
38.1754118,-120.0595525,4965.0563304697,3.28084,0,0.43875657572,5800,2018-05-12 20:15:23,12,0,23.995,4965.0563304697,3.28084,0.223694,0.50455710276,0,0,0,67.6, 0.4, 0.5,0,0,1024,1024,1024,1024,0,0,100,3.975,3.965,3.988,3.988,3.985,3.974,14.179,68,14,Waypoint,
38.1754118,-120.0595525,4965.3844144697,3.608924,0,0.43875657572,5900,2018-05-12 20:15:23,12,0,23.995,4965.3844144697,3.608924,0.223694,0.50455710276,0,0,0,67.7, 0, 0.3,0,0,1024,1024,1024,1024,0,0,100,3.975,3.965,3.988,3.988,3.985,3.974,14.179,68,14,Waypoint,
38.1754119,-120.0595525,4965.3844144697,3.608924,0,0.47517061888,6000,2018-05-12 20:15:23,12,0,23.623,4965.3844144697,3.608924,0.223694,0.50455710276,0,0,-0.223694,68, 0.3, 0.4,0,0,1024,1024,1024,1024,0,0,100,3.915,3.919,3.928,3.935,3.952,3.921,16.441,68,14,Waypoint,
38.175412,-120.0595524,4965.7124984697,3.937008,0,0.51079069876,6100,2018-05-12 20:15:23,12,0,23.623,4965.7124984697,3.937008,0.223694,0.51079069876,0,0,-0.223694,68.3, 0.8, 0.6,0,0,1024,1024,1024,1024,0,0,100,3.915,3.919,3.928,3.935,3.952,3.921,16.441,68,14,Waypoint,
38.175412,-120.0595524,4965.7124984697,3.937008,0,0.51079069876,6200,2018-05-12 20:15:23,12,0,23.623,4965.7124984697,3.937008,0.223694,0.51079069876,0,0,-0.223694,68.8, 1.2, 0.8,0,0,1024,1024,1024,1024,0,0,100,3.915,3.919,3.928,3.935,3.952,3.921,16.441,68,14,Waypoint,
38.1754121,-120.0595524,4966.0405824697,4.265092,0,0.54727363956,6300,2018-05-12 20:15:24,13,0,23.623,4966.0405824697,4.265092,0.223694,0.54727363956,0,0,-0.223694,69, 1.1, 0.9,0,0,1024,1024,1024,1024,0,0,100,3.915,3.919,3.928,3.935,3.952,3.921,16.441,68,14,Waypoint,
38.1754121,-120.0595524,4966.6967504697,4.92126,0,0.54727363956,6410,2018-05-12 20:15:24,13,0,23.623,4966.6967504697,4.92126,0.223694,0.54727363956,0,0,-0.447388,69.1, 1, 0.6,0,0,1024,1024,1024,1024,0,0,100,3.915,3.919,3.928,3.935,3.952,3.921,16.441,68,14,Waypoint,
38.1754122,-120.0595524,4967.0248344697,5.249344,0,0.5837598612,6600,2018-05-12 20:15:24,14,0,23.623,4967.0248344697,5.249344,0.223694,0.5837598612,0,0,-0.447388,69.1, 0.4, 0.7,0,0,1024,1024,1024,1024,0,0,100,3.915,3.919,3.928,3.935,3.952,3.921,16.441,68,14,Waypoint,
38.1754122,-120.0595524,4967.6810024697,5.905512,0,0.5837598612,6700,2018-05-12 20:15:24,14,0,23.623,4967.6810024697,5.905512,0.223694,0.5837598612,0,0,-0.447388,69.2, 0.1, 1.1,0,0,1024,1024,1024,1024,0,0,100,3.915,3.919,3.928,3.935,3.952,3.921,16.441,68,14,Waypoint,
38.1754122,-120.0595524,4968.3371704697,6.56168,0,0.5837598612,6800,2018-05-12 20:15:24,13,0,23.623,4968.3371704697,6.56168,0.223694,0.5837598612,0,0,-0.447388,69, 0.2, 1.4,0,0,1024,1024,1024,1024,0,0,100,3.915,3.919,3.928,3.935,3.952,3.921,16.441,68,14,Waypoint,
38.1754124,-120.0595524,4968.9933384697,7.217848,0.223694,0.65672902364,6900,2018-05-12 20:15:24,13,0,23.623,4968.9933384697,7.217848,0.223694,0.65672902364,0,0,-0.447388,68.7, 0.5, 2,0,0,1024,1024,1024,1024,0,0,100,3.915,3.919,3.928,3.935,3.952,3.921,16.441,68,14,Waypoint,
38.1754126,-120.0595523,4969.6495064697,7.874016,0.223694,0.73026249056,7000,2018-05-12 20:15:24,13,0,23.5,4969.6495064697,7.874016,0.223694,0.73026249056,0,0,-0.671082,68.3, 1, 2.6,0,0,1024,1024,1024,1024,0,0,100,3.902,3.905,3.915,3.92,3.941,3.909,16.829,68,14,Waypoint,
38.1754126,-120.0595523,4970.6337584697,8.858268,0,0.73026249056,7100,2018-05-12 20:15:24,13,0,23.5,4970.6337584697,8.858268,0.223694,0.73026249056,0,0,-0.671082,68.1, 1.4, 2.9,0,0,1024,1024,1024,1024,0,0,100,3.902,3.905,3.915,3.92,3.941,3.909,16.829,68,14,Waypoint,
38.1754126,-120.0595522,4971.6180104697,9.84252,0,0.73194884232,7200,2018-05-12 20:15:24,13,0,23.5,4971.6180104697,9.84252,0.223694,0.73194884232,0,0,-0.671082,68.1, 1.5, 2.7,0,0,1024,1024,1024,1024,0,0,100,3.902,3.905,3.915,3.92,3.941,3.909,16.829,68,14,Waypoint,
38.1754127,-120.0595521,4972.6022624697,10.826772,0,0.77100068084,7300,2018-05-12 20:15:25,13,0,23.5,4972.6022624697,10.826772,0.223694,0.77100068084,0,0,-0.671082,68.3, 1.5, 2.2,0,0,1024,1024,1024,1024,0,0,100,3.902,3.905,3.915,3.92,3.941,3.909,16.829,68,14,Waypoint,
38.1754127,-120.059552,4973.9145984697,12.139108,0,0.77472443424,7400,2018-05-12 20:15:25,14,0,23.5,4973.9145984697,12.139108,0.223694,0.77472443424,0,0,-0.671082,68.5, 1.7, 2.1,0,0,1024,1024,1024,1024,0,0,100,3.902,3.905,3.915,3.92,3.941,3.909,16.829,68,14,Waypoint,
38.1754128,-120.0595521,4974.8988504697,13.12336,0,0.8072670862,7500,2018-05-12 20:15:25,14,0,23.5,4974.8988504697,13.12336,0.223694,0.8072670862,0,0,-0.671082,68.6, 1.6, 2.2,0,0,1024,1024,1024,1024,0,0,100,3.902,3.905,3.915,3.92,3.941,3.909,16.829,68,14,Waypoint,
38.1754129,-120.0595521,4975.8831024697,14.107612,0,0.8435531766,7600,2018-05-12 20:15:25,13,0,23.5,4975.8831024697,14.107612,0.223694,0.8435531766,0,0,-0.671082,68.8, 1.2, 2.3,0,0,1024,1024,1024,1024,0,0,100,3.902,3.905,3.915,3.92,3.941,3.909,16.829,68,14,Waypoint,
38.1754129,-120.059552,4976.8673544697,15.091864,0,0.84695868852,7700,2018-05-12 20:15:25,13,0,23.5,4976.8673544697,15.091864,0.223694,0.84695868852,0,0,-0.671082,68.9, 1.2, 2.2,0,0,1024,1024,1024,1024,0,0,100,3.902,3.905,3.915,3.92,3.941,3.909,16.829,68,14,Waypoint,
38.1754129,-120.0595519,4978.1796904697,16.4042,0,0.85131892488,7800,2018-05-12 20:15:25,13,0,23.5,4978.1796904697,16.4042,0.223694,0.85131892488,0,0,-0.671082,69.1, 1.4, 1.9,0,0,1024,1024,1024,1024,0,0,100,3.902,3.905,3.915,3.92,3.941,3.909,16.829,68,14,Waypoint,
38.1754129,-120.059552,4979.1639424697,17.388452,0,0.84695868852,7900,2018-05-12 20:15:25,13,0,23.5,4979.1639424697,17.388452,0.223694,0.85131892488,0,0,-0.671082,69.2, 1.7, 1.6,0,0,1024,1024,1024,1024,0,0,100,3.902,3.905,3.915,3.92,3.941,3.909,16.829,68,14,Waypoint,
38.175413,-120.059552,4980.1481944697,18.372704,0,0.88312338784,8010,2018-05-12 20:15:25,13,0,23.259,4980.1481944697,18.372704,0.223694,0.88312338784,0,0,-0.671082,69.2, 1.7, 1.1,0,0,1024,1024,1024,1024,0,0,98,3.835,3.834,3.838,3.854,3.876,3.836,18.424,68,14,Waypoint,
38.175413,-120.0595519,4982.4447824697,20.669292,0,0.887303178,8100,2018-05-12 20:15:25,13,0,23.259,4982.4447824697,20.669292,0.223694,0.887303178,0,0,-0.671082,69.2, 1.8, 1.2,0,0,1024,1024,1024,1024,0,0,98,3.835,3.834,3.838,3.854,3.876,3.836,18.424,68,14,Waypoint,
38.1754131,-120.0595518,4983.4290344697,21.653544,0,0.9282152528,8200,2018-05-12 20:15:25,13,0,23.259,4983.4290344697,21.653544,0.223694,0.9282152528,0,0,-0.671082,69.2, 1.9, 1.2,0,0,1024,1024,1024,1024,0,0,98,3.835,3.834,3.838,3.854,3.876,3.836,18.424,68,14,Waypoint,
38.1754131,-120.0595518,4984.7413704697,22.96588,0,0.9282152528,8310,2018-05-12 20:15:26,13,0,23.259,4984.7413704697,22.96588,0.223694,0.9282152528,0,0,-0.671082,69.2, 1.9, 1.3,0,0,1024,1024,1024,1024,0,0,98,3.835,3.834,3.838,3.854,3.876,3.836,18.424,68,14,Waypoint,
38.1754131,-120.0595518,4985.7256224697,23.950132,0,0.9282152528,8400,2018-05-12 20:15:26,13,0,23.259,4985.7256224697,23.950132,0.223694,0.9282152528,0,0,-0.671082,69.2, 1.9, 1.6,0,0,1024,1024,1024,1024,0,0,98,3.835,3.834,3.838,3.854,3.876,3.836,18.424,68,14,Waypoint,
38.1754131,-120.0595518,4986.7098744697,24.934384,0,0.9282152528,8600,2018-05-12 20:15:26,13,0,23.259,4986.7098744697,24.934384,0.223694,0.9282152528,0,0,-0.671082,69.2, 1.9, 1.7,0,0,1024,1024,1024,1024,0,0,98,3.835,3.834,3.838,3.854,3.876,3.836,18.424,68,14,Waypoint,
38.1754131,-120.0595518,4988.0222104697,26.24672,0,0.9282152528,8700,2018-05-12 20:15:26,13,0,23.259,4988.0222104697,26.24672,0.223694,0.9282152528,0,0,-0.671082,69.2, 1.9, 1.6,0,0,1024,1024,1024,1024,0,0,98,3.835,3.834,3.838,3.854,3.876,3.836,18.424,68,14,Waypoint,
38.175413,-120.0595518,4989.0064624697,27.230972,0,0.89238848,8800,2018-05-12 20:15:26,13,0,23.259,4989.0064624697,27.230972,0.223694,0.9282152528,0,0,-0.671082,69.1, 1.8, 1.5,0,0,1024,1024,1024,1024,0,0,98,3.835,3.834,3.838,3.854,3.876,3.836,18.424,68,14,Waypoint,
38.1754129,-120.0595518,4989.9907144697,28.215224,0,0.85661748148,8900,2018-05-12 20:15:26,13,0,23.259,4989.9907144697,28.215224,0.223694,0.9282152528,0,0,-0.671082,69, 1.7, 1.2,0,0,1024,1024,1024,1024,0,0,98,3.835,3.834,3.838,3.854,3.876,3.836,18.424,68,14,Waypoint,
38.1754129,-120.0595518,4990.9749664697,29.199476,0,0.85661748148,9000,2018-05-12 20:15:26,13,0,22.827,4990.9749664697,29.199476,0.223694,0.9282152528,0,0,-0.671082,68.9, 1.6, 1,0,0,1024,1024,1024,1024,0,0,98,3.79,3.793,3.806,3.814,3.837,3.804,24.115,68,14,Waypoint,
38.1754128,-120.0595517,4992.2873024697,30.511812,0,0.82739832044,9100,2018-05-12 20:15:26,13,0,22.827,4992.2873024697,30.511812,0.223694,0.9282152528,0,0,-0.671082,68.8, 1.2, 1,0,0,1024,1024,1024,1024,0,0,98,3.79,3.793,3.806,3.814,3.837,3.804,24.115,68,14,Waypoint,
38.1754128,-120.0595517,4993.2715544697,31.496064,0,0.82739832044,9200,2018-05-12 20:15:26,13,0,22.827,4993.2715544697,31.496064,0.223694,0.9282152528,0,0,-0.671082,68.7, 1.3, 0.6,0,0,1024,1024,1024,1024,0,0,98,3.79,3.793,3.806,3.814,3.837,3.804,24.115,68,14,Waypoint,
38.1754127,-120.0595516,4994.2558064697,32.480316,0,0.7998031752,9300,2018-05-12 20:15:27,13,0,22.827,4994.2558064697,32.480316,0.223694,0.9282152528,0,0,-0.671082,68.7, 1.4, 0.3,0,0,1024,1024,1024,1024,0,0,98,3.79,3.793,3.806,3.814,3.837,3.804,24.115,68,14,Waypoint,
38.1754127,-120.0595516,4995.5681424697,33.792652,0,0.7998031752,9400,2018-05-12 20:15:27,14,0,22.827,4995.5681424697,33.792652,0.223694,0.9282152528,0,0,-0.671082,68.7, 1.5, 0.6,0,0,1024,1024,1024,1024,0,0,98,3.79,3.793,3.806,3.814,3.837,3.804,24.115,68,14,Waypoint,
38.1754126,-120.0595517,4996.5523944697,34.776904,0,0.75681432868,9500,2018-05-12 20:15:27,14,0,22.827,4996.5523944697,34.776904,0.223694,0.9282152528,0,0,-0.671082,68.7, 1.5, 0.8,0,0,1024,1024,1024,1024,0,0,98,3.79,3.793,3.806,3.814,3.837,3.804,24.115,68,14,Waypoint,
38.1754125,-120.0595517,4997.5366464697,35.761156,0,0.721702779,9600,2018-05-12 20:15:27,14,0,22.827,4997.5366464697,35.761156,0.223694,0.9282152528,0,0,-0.671082,68.7, 1.4, 0.8,0,0,1024,1024,1024,1024,0,0,98,3.79,3.793,3.806,3.814,3.837,3.804,24.115,68,14,Waypoint,
38.1754124,-120.0595517,4998.5208984697,36.745408,0,0.68673230544,9700,2018-05-12 20:15:27,14,0,22.827,4998.5208984697,36.745408,0.223694,0.9282152528,0,0,-0.671082,68.7, 1.2, 0.7,0,0,1024,1024,1024,1024,0,0,98,3.79,3.793,3.806,3.814,3.837,3.804,24.115,68,14,Waypoint,
38.1754123,-120.0595518,5000.4894024697,38.713912,0,0.64367456128,9800,2018-05-12 20:15:27,15,0,22.827,5000.4894024697,38.713912,0.223694,0.9282152528,0,0,-0.671082,68.9, 0.7, 0.4,0,0,1024,1024,1024,1024,0,0,98,3.79,3.793,3.806,3.814,3.837,3.804,24.115,68,14,Waypoint,
38.1754122,-120.0595519,5002.7859904697,41.0105,0,0.6011155048,10000,2018-05-12 20:15:27,15,0,22.937,5002.7859904697,41.0105,0.223694,0.9282152528,0,0,-0.671082,69, 0.6, 1,0,0,1024,1024,1024,1024,0,0,98,3.812,3.823,3.819,3.821,3.848,3.819,20.677,68,14,Waypoint,
38.1754121,-120.0595519,5003.7702424697,41.994752,0,0.56575133044,10110,2018-05-12 20:15:27,14,0,22.937,5003.7702424697,41.994752,0.223694,0.9282152528,0,0,-0.671082,68.9, 0.7, 1.1,0,0,1024,1024,1024,1024,0,0,98,3.812,3.823,3.819,3.821,3.848,3.819,20.677,68,14,Waypoint,
38.1754121,-120.0595519,5004.7544944697,42.979004,0,0.56575133044,10200,2018-05-12 20:15:27,14,0,22.937,5004.7544944697,42.979004,0.223694,0.9282152528,0,0,-0.671082,68.8, 0.6, 0.8,0,0,1024,1024,1024,1024,0,0,98,3.812,3.823,3.819,3.821,3.848,3.819,20.677,68,14,Waypoint,
38.1754121,-120.0595519,5005.7387464697,43.963256,0,0.56575133044,10310,2018-05-12 20:15:28,14,0,22.937,5005.7387464697,43.963256,0.223694,0.9282152528,0,0,-0.671082,68.6, 0.6, 0.6,0,0,1024,1024,1024,1024,0,0,98,3.812,3.823,3.819,3.821,3.848,3.819,20.677,68,14,Waypoint,
38.1754121,-120.0595519,5006.7229984697,44.947508,0,0.56575133044,10400,2018-05-12 20:15:28,14,0,22.937,5006.7229984697,44.947508,0.223694,0.9282152528,0,0,-0.671082,68.5, 1, 0.5,0,0,1024,1024,1024,1024,0,0,98,3.812,3.823,3.819,3.821,3.848,3.819,20.677,68,14,Waypoint,
38.175412,-120.0595519,5007.7072504697,45.93176,0,0.53053807472,10500,2018-05-12 20:15:28,15,0,22.937,5007.7072504697,45.93176,0.223694,0.9282152528,0,0,-0.671082,68.6, 1.5, 0.7,0,0,1024,1024,1024,1024,0,0,98,3.812,3.823,3.819,3.821,3.848,3.819,20.677,68,14,Waypoint,
38.175412,-120.0595519,5008.6915024697,46.916012,0,0.53053807472,10700,2018-05-12 20:15:28,15,0,22.937,5008.6915024697,46.916012,0.223694,0.9282152528,0,0,-0.671082,68.7, 1.8, 0.8,0,0,1024,1024,1024,1024,0,0,98,3.812,3.823,3.819,3.821,3.848,3.819,20.677,68,14,Waypoint,
38.175412,-120.0595519,5009.6757544697,47.900264,0,0.53053807472,10800,2018-05-12 20:15:28,15,0,22.937,5009.6757544697,47.900264,0.223694,0.9282152528,0,0,-0.671082,68.9, 1.8, 0.6,0,0,1024,1024,1024,1024,0,0,98,3.812,3.823,3.819,3.821,3.848,3.819,20.677,68,14,Waypoint,
38.175412,-120.0595518,5010.6600064697,48.884516,0,0.53899936108,10900,2018-05-12 20:15:28,15,0,22.937,5010.6600064697,48.884516,0.223694,0.9282152528,0,0,-0.671082,69, 1.9, 0.5,0,0,1024,1024,1024,1024,0,0,98,3.812,3.823,3.819,3.821,3.848,3.819,20.677,68,14,Waypoint,
38.1754119,-120.0595518,5011.6442584697,49.868768,0,0.50455710276,11000,2018-05-12 20:15:28,16,0,22.954,5011.6442584697,49.868768,0.223694,0.9282152528,0,0,-0.671082,69, 1.8, 0.3,0,0,1024,1024,1024,1024,0,0,98,3.816,3.811,3.827,3.832,3.856,3.813,20.015,68,14,Waypoint,
38.1754119,-120.0595518,5012.6285104697,50.85302,0,0.50455710276,11100,2018-05-12 20:15:28,16,0,22.954,5012.6285104697,50.85302,0.223694,0.9282152528,0,0,-0.671082,69, 1.8, 0.4,0,0,1024,1024,1024,1024,0,0,98,3.816,3.811,3.827,3.832,3.856,3.813,20.015,68,14,Waypoint,
38.1754119,-120.0595518,5013.6127624697,51.837272,0,0.50455710276,11200,2018-05-12 20:15:28,15,0,22.954,5013.6127624697,51.837272,0.223694,0.9282152528,0,0,-0.671082,68.9, 1.7, 0.6,0,0,1024,1024,1024,1024,0,0,98,3.816,3.811,3.827,3.832,3.856,3.813,20.015,68,14,Waypoint,
38.1754119,-120.0595517,5014.5970144697,52.821524,0,0.51504594824,11300,2018-05-12 20:15:29,15,0,22.954,5014.5970144697,52.821524,0.223694,0.9282152528,0,0,-0.671082,68.9, 1.7, 0.5,0,0,1024,1024,1024,1024,0,0,98,3.816,3.811,3.827,3.832,3.856,3.813,20.015,68,14,Waypoint,
38.1754119,-120.0595517,5015.5812664697,53.805776,0,0.51504594824,11400,2018-05-12 20:15:29,15,0,22.954,5015.5812664697,53.805776,0.223694,0.9282152528,0,0,-0.671082,68.8, 1.8, 0.4,0,0,1024,1024,1024,1024,0,0,98,3.816,3.811,3.827,3.832,3.856,3.813,20.015,68,14,Waypoint,
38.1754119,-120.0595517,5016.5655184697,54.790028,0,0.51504594824,11500,2018-05-12 20:15:29,15,0,22.954,5016.5655184697,54.790028,0.223694,0.9282152528,0,0,-0.671082,68.7, 1.8, 0.5,0,0,1024,1024,1024,1024,0,0,98,3.816,3.811,3.827,3.832,3.856,3.813,20.015,68,14,Waypoint,
38.1754118,-120.0595518,5017.5497704697,55.77428,0,0.47042652424,11600,2018-05-12 20:15:29,16,0,22.954,5017.5497704697,55.77428,0.223694,0.9282152528,0,0,-0.671082,68.6, 1.7, 0.6,0,0,1024,1024,1024,1024,0,0,98,3.816,3.811,3.827,3.832,3.856,3.813,20.015,68,14,Waypoint,
38.1754118,-120.0595518,5018.5340224697,56.758532,0,0.47042652424,11700,2018-05-12 20:15:29,16,0,22.954,5018.5340224697,56.758532,0.223694,0.9282152528,0,0,-0.671082,68.6, 1.7, 0.5,0,0,1024,1024,1024,1024,0,0,98,3.816,3.811,3.827,3.832,3.856,3.813,20.015,68,14,Waypoint,
38.1754117,-120.0595519,5019.5182744697,57.742784,0,0.42618767768,11800,2018-05-12 20:15:29,16,0,22.954,5019.5182744697,57.742784,0.223694,0.9282152528,0,0,-0.671082,68.7, 1.4, 0.3,0,0,1024,1024,1024,1024,0,0,98,3.816,3.811,3.827,3.832,3.856,3.813,20.015,68,14,Waypoint,
38.1754116,-120.0595518,5020.5025264697,58.727036,0,0.40339896304,11900,2018-05-12 20:15:29,16,0,22.954,5020.5025264697,58.727036,0.223694,0.9282152528,0,0,-0.671082,68.8, 1.2, 0,0,0,1024,1024,1024,1024,0,0,98,3.816,3.811,3.827,3.832,3.856,3.813,20.015,68,14,Waypoint,
38.1754115,-120.0595518,5022.4710304697,60.69554,0,0.37072507748,12000,2018-05-12 20:15:29,16,0,22.895,5022.4710304697,60.69554,0.223694,0.9282152528,0,0,-0.671082,68.9, 1.2, -0.6,0,0,1024,1024,1024,1024,0,0,98,3.797,3.807,3.82,3.822,3.851,3.804,20.37,68,14,Waypoint,
38.1754114,-120.0595518,5023.4552824697,61.679792,0,0.33883531268,12420,2018-05-12 20:15:30,16,0,22.895,5023.4552824697,61.679792,0.223694,0.9282152528,0,0,-0.671082,69, 1.2, -0.6,0,0,1024,1024,1024,1024,0,0,98,3.797,3.807,3.82,3.822,3.851,3.804,20.37,68,14,Waypoint,
38.1754114,-120.0595518,5025.4237864697,63.648296,0,0.33883531268,12910,2018-05-12 20:15:30,16,0,22.895,5025.4237864697,63.648296,0.223694,0.9282152528,0,0,-0.671082,69.2, 1, -0.4,0,0,1024,1024,1024,1024,0,0,98,3.797,3.807,3.82,3.822,3.851,3.804,20.37,68,14,Waypoint,
38.1754113,-120.0595519,5030.6731304697,68.89764,0,0.292903224596,13200,2018-05-12 20:15:30,16,0,22.895,5030.6731304697,68.89764,0.223694,0.9282152528,0,0,-0.671082,68.7, 1.2, 0.3,0,0,1024,1024,1024,1024,0,0,98,3.797,3.807,3.82,3.822,3.851,3.804,20.37,68,14,Waypoint,
38.1754112,-120.0595519,5033.6258864697,71.850396,0,0.261700795776,13400,2018-05-12 20:15:31,16,0,22.895,5033.6258864697,71.850396,0.223694,0.9282152528,0,0,-0.671082,68.7, 1.1, -0.5,0,0,1024,1024,1024,1024,0,0,98,3.797,3.807,3.82,3.822,3.851,3.804,20.37,68,14,Waypoint,
38.1754112,-120.0595519,5034.6101384697,72.834648,0,0.261700795776,13500,2018-05-12 20:15:31,16,0,22.895,5034.6101384697,72.834648,0.223694,0.9282152528,0,0,-0.671082,68.7, 1.2, -0.4,0,0,1024,1024,1024,1024,0,0,98,3.797,3.807,3.82,3.822,3.851,3.804,20.37,68,14,Waypoint,
38.1754112,-120.0595519,5035.5943904697,73.8189,0,0.261700795776,13610,2018-05-12 20:15:31,14,0,22.895,5035.5943904697,73.8189,0.223694,0.9282152528,0,0,-0.671082,68.9, 1.2, -0.3,0,0,1024,1024,1024,1024,0,0,98,3.797,3.807,3.82,3.822,3.851,3.804,20.37,68,14,Waypoint,
38.1754112,-120.0595519,5037.5628944697,75.787404,0,0.261700795776,14010,2018-05-12 20:15:31,15,0,22.961,5037.5628944697,75.787404,0.223694,0.9282152528,0,0,-0.671082,69, 1.2, 0,0,0,1024,1024,1024,1024,0,0,98,3.814,3.823,3.827,3.84,3.863,3.82,19.289,68,14,Waypoint,
38.1754112,-120.0595519,5038.2190624697,76.443572,0,0.261700795776,14100,2018-05-12 20:15:31,15,0,22.961,5038.2190624697,76.443572,0.223694,0.9282152528,0,0,-0.671082,69, 1.2, 0,0,0,1024,1024,1024,1024,0,0,98,3.814,3.823,3.827,3.84,3.863,3.82,19.289,68,14,Waypoint,
38.1754112,-120.0595521,5042.1560704697,80.38058,0,0.235212934036,14400,2018-05-12 20:15:32,16,0,22.961,5042.1560704697,80.38058,0.223694,0.9282152528,0,0,-0.671082,68.8, 0.7, 0,0,0,1024,1024,1024,1024,0,0,98,3.814,3.823,3.827,3.84,3.863,3.82,19.289,68,14,Waypoint,
38.1754113,-120.0595521,5043.7964904697,82.021,0,0.26949968054,14610,2018-05-12 20:15:32,16,0,22.961,5043.7964904697,82.021,0.223694,0.9282152528,0,0,-0.671082,68.8, 0.8, 0,0,0,1024,1024,1024,1024,0,0,98,3.814,3.823,3.827,3.84,3.863,3.82,19.289,68,14,Waypoint,
38.1754113,-120.059552,5044.7807424697,83.005252,0,0.279979667752,14710,2018-05-12 20:15:32,16,0,22.961,5044.7807424697,83.005252,0.223694,0.9282152528,0,0,-0.671082,68.8, 0.9, -0.2,0,0,1024,1024,1024,1024,0,0,98,3.814,3.823,3.827,3.84,3.863,3.82,19.289,68,14,Waypoint,
38.1754114,-120.0595519,5046.7492464697,84.973756,0,0.325207031404,15000,2018-05-12 20:15:32,16,0,23.069,5046.7492464697,84.973756,0.223694,0.9282152528,0,0,-0.671082,68.9, 1.5, -0.3,0,0,1024,1024,1024,1024,0,0,98,3.851,3.843,3.856,3.86,3.877,3.845,17.88,68,14,Waypoint,
38.1754114,-120.0595519,5047.7334984697,85.958008,0,0.325207031404,15110,2018-05-12 20:15:32,16,0,23.069,5047.7334984697,85.958008,0.223694,0.9282152528,0,0,-0.671082,68.9, 1.9, -0.1,0,0,1024,1024,1024,1024,0,0,98,3.851,3.843,3.856,3.86,3.877,3.845,17.88,68,14,Waypoint,
38.1754115,-120.0595516,5051.3424224697,89.566932,0,0.400590564,15310,2018-05-12 20:15:33,16,0,23.069,5051.3424224697,89.566932,0.223694,0.9282152528,0,0,-0.671082,68.8, 2.7, 0.1,0,0,1024,1024,1024,1024,0,0,98,3.851,3.843,3.856,3.86,3.877,3.845,17.88,68,14,Waypoint,
38.1754115,-120.0595515,5052.6547584697,90.879268,0,0.41768045956,15500,2018-05-12 20:15:33,16,0,23.069,5052.6547584697,90.879268,0.223694,0.9282152528,0,0,-0.671082,69, 2.7, -0.3,0,0,1024,1024,1024,1024,0,0,98,3.851,3.843,3.856,3.86,3.877,3.845,17.88,68,14,Waypoint,
38.1754116,-120.0595515,5055.6075144697,93.832024,0,0.446932429,15620,2018-05-12 20:15:33,16,0,23.069,5055.6075144697,93.832024,0.223694,0.9282152528,0,0,-0.671082,69.5, 2.5, -0.1,0,0,1024,1024,1024,1024,0,0,98,3.851,3.843,3.856,3.86,3.877,3.845,17.88,68,14,Waypoint,
38.1754117,-120.0595514,5056.5917664697,94.816276,0,0.49328741736,15820,2018-05-12 20:15:33,16,0,23.069,5056.5917664697,94.816276,0.223694,0.9282152528,0,0,-0.671082,69.5, 2.4, 0,0,0,1024,1024,1024,1024,0,0,98,3.851,3.843,3.856,3.86,3.877,3.845,17.88,68,14,Waypoint,
38.1754117,-120.0595514,5057.5760184697,95.800528,0,0.49328741736,16040,2018-05-12 20:15:33,16,0,23.048,5057.5760184697,95.800528,0.223694,0.9282152528,0,0,-0.671082,69.4, 2.2, 0.1,0,0,1024,1024,1024,1024,0,0,98,3.83,3.833,3.832,3.838,3.854,3.823,18.489,68,14,Waypoint,
38.1754117,-120.0595514,5057.5760184697,95.800528,0,0.49328741736,16110,2018-05-12 20:15:33,16,0,23.048,5057.5760184697,95.800528,0.223694,0.9282152528,0,0,-0.671082,69.4, 2.2, 0.1,0,0,1024,1024,1024,1024,0,0,98,3.83,3.833,3.832,3.838,3.854,3.823,18.489,68,14,Waypoint,
38.1754117,-120.0595514,5058.8883544697,97.112864,0,0.49328741736,16210,2018-05-12 20:15:33,16,0,23.048,5058.8883544697,97.112864,0.223694,0.9282152528,0,0,-0.671082,69.2, 2.1, 0,0,0,1024,1024,1024,1024,0,0,98,3.83,3.833,3.832,3.838,3.854,3.823,18.489,68,14,Waypoint,
38.1754116,-120.0595515,5060.8568584697,99.081368,0,0.446932429,16330,2018-05-12 20:15:34,16,0,23.048,5060.8568584697,99.081368,0.223694,0.9282152528,0,0,-0.671082,68.9, 1.6, -0.4,0,0,1024,1024,1024,1024,0,0,98,3.83,3.833,3.832,3.838,3.854,3.823,18.489,68,14,Waypoint,
38.1754116,-120.0595515,5060.8568584697,99.081368,0,0.446932429,16410,2018-05-12 20:15:34,16,0,23.048,5060.8568584697,99.081368,0.223694,0.9282152528,0,0,-0.671082,68.9, 1.6, -0.4,0,0,1024,1024,1024,1024,0,0,98,3.83,3.833,3.832,3.838,3.854,3.823,18.489,68,14,Waypoint,
38.1754115,-120.0595515,5063.8096144697,102.034124,0,0.41768045956,16700,2018-05-12 20:15:34,16,0,23.048,5063.8096144697,102.034124,0.223694,0.9282152528,0,0,-0.671082,69, 0.7, -0.7,0,0,1024,1024,1024,1024,0,0,98,3.83,3.833,3.832,3.838,3.854,3.823,18.489,68,14,Waypoint,
38.1754115,-120.0595515,5064.7938664697,103.018376,0,0.41768045956,16800,2018-05-12 20:15:34,16,0,23.048,5064.7938664697,103.018376,0.223694,0.9282152528,0,0,-0.671082,69, 0.6, -0.9,0,0,1024,1024,1024,1024,0,0,98,3.83,3.833,3.832,3.838,3.854,3.823,18.489,68,14,Waypoint,
38.1754115,-120.0595516,5065.7781184697,104.002628,0,0.400590564,16900,2018-05-12 20:15:34,16,0,23.048,5065.7781184697,104.002628,0.223694,0.9282152528,0,0,-0.671082,69.1, 0.8, -0.5,0,0,1024,1024,1024,1024,0,0,98,3.83,3.833,3.832,3.838,3.854,3.823,18.489,68,14,Waypoint,
38.1754116,-120.0595516,5066.7623704697,104.98688,0,0.4310039508,17000,2018-05-12 20:15:34,16,0,23.048,5066.7623704697,104.98688,0.223694,0.9282152528,0,0,-0.671082,69.1, 1.2, -0.4,0,0,1024,1024,1024,1024,0,0,98,3.83,3.833,3.832,3.838,3.854,3.823,18.489,68,14,Waypoint,
38.1754117,-120.0595518,5069.7151264697,107.939636,0,0.43667324232,17100,2018-05-12 20:15:34,16,0,23.048,5069.7151264697,107.939636,0.223694,0.9282152528,0,0,-0.671082,68.8, 0.8, 0.8,0,0,1024,1024,1024,1024,0,0,98,3.83,3.833,3.832,3.838,3.854,3.823,18.489,68,14,Waypoint,
38.1754119,-120.0595517,5072.6678824697,110.892392,0,0.51504594824,17300,2018-05-12 20:15:35,16,0,23.048,5072.6678824697,110.892392,0.223694,0.9282152528,0,0,-0.671082,68.9, 2.1, 0.5,0,0,1024,1024,1024,1024,0,0,98,3.83,3.833,3.832,3.838,3.854,3.823,18.489,68,14,Waypoint,
38.175412,-120.0595517,5073.6521344697,111.876644,0,0.54882875772,17400,2018-05-12 20:15:35,16,0,23.048,5073.6521344697,111.876644,0.223694,0.9282152528,0,0,-0.671082,69, 2.4, 0.6,0,0,1024,1024,1024,1024,0,0,98,3.83,3.833,3.832,3.838,3.854,3.823,18.489,68,14,Waypoint,
38.1754121,-120.0595517,5075.6206384697,113.845148,0,0.5829396512,17600,2018-05-12 20:15:35,16,0,23.048,5075.6206384697,113.845148,0.223694,0.9282152528,0,0,-0.671082,69.1, 2.8, 0.8,0,0,1024,1024,1024,1024,0,0,98,3.83,3.833,3.832,3.838,3.854,3.823,18.489,68,14,Waypoint,
38.1754122,-120.0595517,5077.2610584697,115.485568,0,0.61731957356,17700,2018-05-12 20:15:35,16,0,23.048,5077.2610584697,115.485568,0.223694,0.9282152528,0,0,-0.671082,69.1, 2.3, 0.8,0,0,1024,1024,1024,1024,0,0,98,3.83,3.833,3.832,3.838,3.854,3.823,18.489,68,14,Waypoint,
38.1754122,-120.0595517,5078.2453104697,116.46982,0,0.61731957356,17800,2018-05-12 20:15:35,16,0,23.048,5078.2453104697,116.46982,0.223694,0.9282152528,0,0,-0.671082,69.1, 1.9, 0.7,0,0,1024,1024,1024,1024,0,0,98,3.83,3.833,3.832,3.838,3.854,3.823,18.489,68,14,Waypoint,
38.1754123,-120.0595518,5079.2295624697,117.454072,0,0.64367456128,17900,2018-05-12 20:15:35,16,0,23.048,5079.2295624697,117.454072,0.223694,0.9282152528,0,0,-0.671082,69.2, 1.8, 1,0,0,1024,1024,1024,1024,0,0,98,3.83,3.833,3.832,3.838,3.854,3.823,18.489,68,14,Waypoint,
38.1754124,-120.0595518,5080.8699824697,119.094492,0,0.67890094036,18000,2018-05-12 20:15:35,16,0,22.736,5080.8699824697,119.094492,0.223694,0.9282152528,0,0,-0.671082,69, 1.8, 1.1,0,0,1024,1024,1024,1024,0,0,97,3.776,3.782,3.786,3.79,3.804,3.771,20.417,68,14,Waypoint,
38.1754125,-120.0595518,5081.8542344697,120.078744,0,0.7142552722,18200,2018-05-12 20:15:35,16,0,22.736,5081.8542344697,120.078744,0.223694,0.9282152528,0,0,-0.671082,69.2, 2.3, 0.7,0,0,1024,1024,1024,1024,0,0,97,3.776,3.782,3.786,3.79,3.804,3.771,20.417,68,14,Waypoint,
38.1754125,-120.0595518,5082.8384864697,121.062996,0,0.7142552722,18300,2018-05-12 20:15:36,16,0,22.736,5082.8384864697,121.062996,0.223694,0.9282152528,0,0,-0.671082,69.3, 2.3, 0.5,0,0,1024,1024,1024,1024,0,0,97,3.776,3.782,3.786,3.79,3.804,3.771,20.417,68,14,Waypoint,
38.1754125,-120.0595518,5083.8227384697,122.047248,0,0.7142552722,18400,2018-05-12 20:15:36,16,0,22.736,5083.8227384697,122.047248,0.223694,0.9282152528,0,0,-0.671082,69.3, 2.4, 0.9,0,0,1024,1024,1024,1024,0,0,97,3.776,3.782,3.786,3.79,3.804,3.771,20.417,68,14,Waypoint,
38.1754125,-120.0595519,5084.8069904697,123.0315,0,0.70789372344,18500,2018-05-12 20:15:36,16,0,22.736,5084.8069904697,123.0315,0.223694,0.9282152528,0,0,-0.671082,69.2, 2.1, 1.2,0,0,1024,1024,1024,1024,0,0,97,3.776,3.782,3.786,3.79,3.804,3.771,20.417,68,14,Waypoint,
38.1754125,-120.0595519,5086.1193264697,124.343836,0,0.70789372344,18600,2018-05-12 20:15:36,16,0,22.736,5086.1193264697,124.343836,0.223694,0.9282152528,0,0,-0.671082,69, 1.8, 1,0,0,1024,1024,1024,1024,0,0,97,3.776,3.782,3.786,3.79,3.804,3.771,20.417,68,14,Waypoint,
38.1754125,-120.0595519,5087.1035784697,125.328088,0,0.70789372344,18700,2018-05-12 20:15:36,16,0,22.736,5087.1035784697,125.328088,0.223694,0.9282152528,0,0,-0.671082,68.9, 1.1, 0.8,0,0,1024,1024,1024,1024,0,0,97,3.776,3.782,3.786,3.79,3.804,3.771,20.417,68,14,Waypoint,
38.1754125,-120.0595519,5088.0878304697,126.31234,0,0.70789372344,18800,2018-05-12 20:15:36,16,0,22.736,5088.0878304697,126.31234,0.223694,0.9282152528,0,0,-0.671082,69, 1.3, 1.1,0,0,1024,1024,1024,1024,0,0,97,3.776,3.782,3.786,3.79,3.804,3.771,20.417,68,14,Waypoint,
38.1754126,-120.0595519,5089.0720824697,127.296592,0,0.74365816028,18900,2018-05-12 20:15:36,16,0,22.736,5089.0720824697,127.296592,0.223694,0.9282152528,0,0,-0.671082,69.1, 1.7, 1.3,0,0,1024,1024,1024,1024,0,0,97,3.776,3.782,3.786,3.79,3.804,3.771,20.417,68,14,Waypoint,
38.1754126,-120.0595518,5090.0563344697,128.280844,0,0.74971787176,19000,2018-05-12 20:15:36,16,0,22.532,5090.0563344697,128.280844,0.223694,0.9282152528,0,0,-0.671082,69.1, 2.4, 0.8,0,0,1024,1024,1024,1024,0,0,97,3.736,3.753,3.752,3.766,3.788,3.747,22.729,68,14,Waypoint,
38.1754126,-120.0595518,5091.0405864697,129.265096,0,0.74971787176,19100,2018-05-12 20:15:36,16,0,22.532,5091.0405864697,129.265096,0.223694,0.9282152528,0,0,-0.671082,69.1, 2.9, 0.3,0,0,1024,1024,1024,1024,0,0,97,3.736,3.753,3.752,3.766,3.788,3.747,22.729,68,14,Waypoint,
38.1754126,-120.0595517,5092.0248384697,130.249348,0,0.75681432868,19210,2018-05-12 20:15:36,16,0,22.532,5092.0248384697,130.249348,0.223694,0.9282152528,0,0,-0.671082,69.1, 3, 0.1,0,0,1024,1024,1024,1024,0,0,97,3.736,3.753,3.752,3.766,3.788,3.747,22.729,68,14,Waypoint,
38.1754126,-120.0595517,5093.9933424697,132.217852,0,0.75681432868,19410,2018-05-12 20:15:37,16,0,22.532,5093.9933424697,132.217852,0.223694,0.9282152528,0,0,-0.671082,69.3, 2.6, 0.7,0,0,1024,1024,1024,1024,0,0,97,3.736,3.753,3.752,3.766,3.788,3.747,22.729,68,14,Waypoint,
38.1754126,-120.0595518,5095.9618464697,134.186356,0,0.74971787176,20110,2018-05-12 20:15:37,16,0,22.532,5095.9618464697,134.186356,0.223694,0.9282152528,0,0,-0.671082,69.2, 1.8, 1.8,0,0,1024,1024,1024,1024,0,0,97,3.736,3.753,3.752,3.766,3.788,3.747,22.729,68,14,Waypoint,
38.1754126,-120.0595519,5096.9460984697,135.170608,0,0.74365816028,20210,2018-05-12 20:15:37,16,0,22.532,5096.9460984697,135.170608,0.223694,0.9282152528,0,0,-0.671082,69.1, 1.4, 1.6,0,0,1024,1024,1024,1024,0,0,97,3.736,3.753,3.752,3.766,3.788,3.747,22.729,68,14,Waypoint,
38.1754126,-120.059552,5098.9146024697,137.139112,0,0.73866144096,20400,2018-05-12 20:15:38,16,0,22.532,5098.9146024697,137.139112,0.223694,0.9282152528,0,0,-0.671082,69.2, 1, 0.9,0,0,1024,1024,1024,1024,0,0,97,3.736,3.753,3.752,3.766,3.788,3.747,22.729,68,14,Waypoint,
38.1754127,-120.0595519,5103.5077784697,141.732288,0,0.77948821392,20510,2018-05-12 20:15:38,16,0,22.532,5103.5077784697,141.732288,0.223694,0.9282152528,0,0,-0.671082,69.1, 2, 2.4,0,0,1024,1024,1024,1024,0,0,97,3.736,3.753,3.752,3.766,3.788,3.747,22.729,68,14,Waypoint,
38.1754127,-120.0595519,5105.4762824697,143.700792,0,0.77948821392,20700,2018-05-12 20:15:38,16,0,22.532,5105.4762824697,143.700792,0.223694,0.9282152528,0,0,-0.671082,68.8, 2.2, 1.4,0,0,1024,1024,1024,1024,0,0,97,3.736,3.753,3.752,3.766,3.788,3.747,22.729,68,14,Waypoint,
38.1754126,-120.0595519,5106.4605344697,144.685044,0,0.74365816028,20800,2018-05-12 20:15:38,16,0,22.532,5106.4605344697,144.685044,0.223694,0.9282152528,0,0,-0.671082,68.6, 2.3, 0.9,0,0,1024,1024,1024,1024,0,0,97,3.736,3.753,3.752,3.766,3.788,3.747,22.729,68,14,Waypoint,
38.1754125,-120.0595518,5108.4290384697,146.653548,0,0.7142552722,20900,2018-05-12 20:15:38,16,0,22.532,5108.4290384697,146.653548,0.223694,0.9282152528,0,0,-0.671082,68.4, 2.6, 0,0,0,1024,1024,1024,1024,0,0,97,3.736,3.753,3.752,3.766,3.788,3.747,22.729,68,14,Waypoint,
38.1754125,-120.0595518,5109.4132904697,147.6378,0,0.7142552722,21000,2018-05-12 20:15:38,16,0,22.335,5109.4132904697,147.6378,0.223694,0.9282152528,0,0,-0.671082,68.4, 2.6, -0.4,0,0,1024,1024,1024,1024,0,0,97,3.702,3.711,3.726,3.73,3.753,3.697,23.689,69.8,14,Waypoint,
38.1754124,-120.0595518,5110.3975424697,148.622052,0,0.67890094036,21100,2018-05-12 20:15:38,16,0,22.335,5110.3975424697,148.622052,0.223694,0.9282152528,0,0,-0.671082,68.4, 2.5, -0.3,0,0,1024,1024,1024,1024,0,0,97,3.702,3.711,3.726,3.73,3.753,3.697,23.689,69.8,14,Waypoint,
38.1754124,-120.0595518,5111.3817944697,149.606304,0,0.67890094036,21200,2018-05-12 20:15:38,16,0,22.335,5111.3817944697,149.606304,0.223694,0.9282152528,0,0,-0.671082,68.4, 2.5, -0.2,0,0,1024,1024,1024,1024,0,0,97,3.702,3.711,3.726,3.73,3.753,3.697,23.689,69.8,14,Waypoint,
38.1754123,-120.0595518,5112.3660464697,150.590556,0,0.64367456128,21300,2018-05-12 20:15:39,16,0,22.335,5112.3660464697,150.590556,0.223694,0.9282152528,0,0,-0.671082,68.4, 2.1, -0.1,0,0,1024,1024,1024,1024,0,0,97,3.702,3.711,3.726,3.73,3.753,3.697,23.689,69.8,14,Waypoint,
38.1754123,-120.0595518,5113.6783824697,151.902892,0,0.64367456128,21400,2018-05-12 20:15:39,16,0,22.335,5113.6783824697,151.902892,0.223694,0.9282152528,0,0,-0.671082,68.6, 1.5, 0.5,0,0,1024,1024,1024,1024,0,0,97,3.702,3.711,3.726,3.73,3.753,3.697,23.689,69.8,14,Waypoint,
38.1754123,-120.0595518,5114.6626344697,152.887144,0,0.64367456128,21500,2018-05-12 20:15:39,16,0,22.335,5114.6626344697,152.887144,0.223694,0.9282152528,0,0,-0.671082,68.8, 1.4, 0.9,0,0,1024,1024,1024,1024,0,0,97,3.702,3.711,3.726,3.73,3.753,3.697,23.689,69.8,14,Waypoint,
38.1754123,-120.0595519,5115.6468864697,153.871396,0,0.63660763192,21600,2018-05-12 20:15:39,16,0,22.335,5115.6468864697,153.871396,0.223694,0.9282152528,0,0,-0.671082,69, 1.6, 0.8,0,0,1024,1024,1024,1024,0,0,97,3.702,3.711,3.726,3.73,3.753,3.697,23.689,69.8,14,Waypoint,
38.1754123,-120.0595519,5116.6311384697,154.855648,0,0.63660763192,21700,2018-05-12 20:15:39,16,0,22.335,5116.6311384697,154.855648,0.223694,0.9282152528,0,0,-0.671082,69.2, 1.8, 0.7,0,0,1024,1024,1024,1024,0,0,97,3.702,3.711,3.726,3.73,3.753,3.697,23.689,69.8,14,Waypoint,
38.1754122,-120.0595519,5118.5996424697,156.824152,0,0.6011155048,21800,2018-05-12 20:15:39,16,0,22.335,5118.5996424697,156.824152,0.223694,0.9282152528,0,0,-0.671082,69.5, 1.8, 1.1,0,0,1024,1024,1024,1024,0,0,97,3.702,3.711,3.726,3.73,3.753,3.697,23.689,69.8,14,Waypoint,
38.1754122,-120.059552,5119.9119784697,158.136488,0,0.59492455972,21900,2018-05-12 20:15:39,16,0,22.335,5119.9119784697,158.136488,0.223694,0.9282152528,0,0,-0.671082,69.7, 1.4, 1,0,0,1024,1024,1024,1024,0,0,97,3.702,3.711,3.726,3.73,3.753,3.697,23.689,69.8,14,Waypoint,
38.1754122,-120.0595521,5121.8804824697,160.104992,0,0.59006563568,22110,2018-05-12 20:15:39,16,0,22.335,5121.8804824697,160.104992,0.223694,0.9282152528,0,0,-0.671082,70, 1.2, 0.8,0,0,1024,1024,1024,1024,0,0,97,3.702,3.711,3.726,3.73,3.753,3.697,23.689,69.8,14,Waypoint,
38.1754122,-120.0595522,5122.8647344697,161.089244,0,0.58657154108,22200,2018-05-12 20:15:39,16,0,22.335,5122.8647344697,161.089244,0.223694,0.9282152528,0,0,-0.671082,70, 1.4, 0.1,0,0,1024,1024,1024,1024,0,0,97,3.702,3.711,3.726,3.73,3.753,3.697,23.689,69.8,14,Waypoint,
38.1754122,-120.0595522,5123.8489864697,162.073496,0,0.58657154108,22300,2018-05-12 20:15:40,16,0,22.335,5123.8489864697,162.073496,0.223694,0.9282152528,0,0,-0.671082,69.7, 1.5, 0.2,0,0,1024,1024,1024,1024,0,0,97,3.702,3.711,3.726,3.73,3.753,3.697,23.689,69.8,14,Waypoint,
38.1754122,-120.0595523,5124.8332384697,163.057748,0,0.58446196096,22410,2018-05-12 20:15:40,16,0,22.335,5124.8332384697,163.057748,0.223694,0.9282152528,0,0,-0.671082,69.5, 1.2, 0.8,0,0,1024,1024,1024,1024,0,0,97,3.702,3.711,3.726,3.73,3.753,3.697,23.689,69.8,14,Waypoint,
38.1754122,-120.0595525,5125.8174904697,164.042,0,0.58446196096,22600,2018-05-12 20:15:40,16,0,22.335,5125.8174904697,164.042,0.223694,0.9282152528,0,0,-0.671082,69, 1.1, 1.4,0,0,1024,1024,1024,1024,0,0,97,3.702,3.711,3.726,3.73,3.753,3.697,23.689,69.8,14,Waypoint,
38.1754123,-120.0595526,5126.8017424697,165.026252,0,0.62289043988,22700,2018-05-12 20:15:40,16,0,22.335,5126.8017424697,165.026252,0.223694,0.9282152528,0,0,-0.671082,68.6, 0.9, 1.8,0,0,1024,1024,1024,1024,0,0,97,3.702,3.711,3.726,3.73,3.753,3.697,23.689,69.8,14,Waypoint,
38.1754123,-120.0595527,5128.7702464697,166.994756,0,0.62618440324,22900,2018-05-12 20:15:40,16,0,22.335,5128.7702464697,166.994756,0.223694,0.9282152528,0,0,-0.671082,68.2, 0.4, 1.9,0,0,1024,1024,1024,1024,0,0,97,3.702,3.711,3.726,3.73,3.753,3.697,23.689,69.8,14,Waypoint,
38.1754123,-120.0595527,5129.7544984697,167.979008,0,0.62618440324,23000,2018-05-12 20:15:40,16,0,22.226,5129.7544984697,167.979008,0.223694,0.9282152528,0,0,-0.671082,68.1, 0.5, 1.6,0,0,1024,1024,1024,1024,0,0,97,3.691,3.699,3.723,3.719,3.74,3.71,24.227,69.8,14,Waypoint,
38.1754123,-120.0595527,5130.7387504697,168.96326,0,0.62618440324,23100,2018-05-12 20:15:40,16,0,22.226,5130.7387504697,168.96326,0.223694,0.9282152528,0,0,-0.671082,68.2, 1.2, 1.4,0,0,1024,1024,1024,1024,0,0,97,3.691,3.699,3.723,3.719,3.74,3.71,24.227,69.8,14,Waypoint,
38.1754124,-120.0595527,5132.3791704697,170.60368,0,0.66234254088,23300,2018-05-12 20:15:41,16,0,22.226,5132.3791704697,170.60368,0.223694,0.9282152528,0,0,-0.671082,68.8, 2, 1.1,0,0,1024,1024,1024,1024,0,0,97,3.691,3.699,3.723,3.719,3.74,3.71,24.227,69.8,14,Waypoint,
38.1754125,-120.0595527,5133.3634224697,171.587932,0,0.69853348692,23400,2018-05-12 20:15:41,16,0,22.226,5133.3634224697,171.587932,0.223694,0.9282152528,0,0,-0.671082,69.2, 2.1, 1.3,0,0,1024,1024,1024,1024,0,0,97,3.691,3.699,3.723,3.719,3.74,3.71,24.227,69.8,14,Waypoint,
38.1754126,-120.0595527,5134.3476744697,172.572184,0,0.73475396052,23500,2018-05-12 20:15:41,16,0,22.226,5134.3476744697,172.572184,0.223694,0.9282152528,0,0,-0.671082,69.4, 2.1, 1.8,0,0,1024,1024,1024,1024,0,0,97,3.691,3.699,3.723,3.719,3.74,3.71,24.227,69.8,14,Waypoint,
38.1754126,-120.0595528,5135.3319264697,173.556436,0,0.73866144096,23600,2018-05-12 20:15:41,16,0,22.226,5135.3319264697,173.556436,0.223694,0.9282152528,0,0,-0.671082,69.6, 1.8, 2.1,0,0,1024,1024,1024,1024,0,0,97,3.691,3.699,3.723,3.719,3.74,3.71,24.227,69.8,14,Waypoint,
38.1754127,-120.0595529,5136.3161784697,174.540688,0,0.77948821392,23700,2018-05-12 20:15:41,16,0,22.226,5136.3161784697,174.540688,0.223694,0.9282152528,0,0,-0.671082,69.6, 1.6, 2.5,0,0,1024,1024,1024,1024,0,0,97,3.691,3.699,3.723,3.719,3.74,3.71,24.227,69.8,14,Waypoint,
38.1754128,-120.059553,5138.2846824697,176.509192,0,0.82090881892,23800,2018-05-12 20:15:41,16,0,22.226,5138.2846824697,176.509192,0.223694,0.9282152528,0,0,-0.671082,69.3, 1.4, 2.8,0,0,1024,1024,1024,1024,0,0,97,3.691,3.699,3.723,3.719,3.74,3.71,24.227,69.8,14,Waypoint,
38.1754129,-120.059553,5139.2689344697,177.493444,0,0.85661748148,23900,2018-05-12 20:15:41,16,0,22.226,5139.2689344697,177.493444,0.223694,0.9282152528,0,0,-0.671082,69.1, 1.4, 2.7,0,0,1024,1024,1024,1024,0,0,97,3.691,3.699,3.723,3.719,3.74,3.71,24.227,69.8,14,Waypoint,
38.1754129,-120.0595531,5140.2531864697,178.477696,0,0.86283795412,24000,2018-05-12 20:15:41,16,0,22.352,5140.2531864697,178.477696,0.223694,0.9282152528,0,0,-0.671082,69.2, 1.4, 2.6,0,0,1024,1024,1024,1024,0,0,97,3.691,3.699,3.723,3.719,3.74,3.71,22.315,69.8,14,Waypoint,
38.175413,-120.0595531,5141.2374384697,179.461948,0,0.8983596088,24100,2018-05-12 20:15:41,16,0,22.352,5141.2374384697,179.461948,0.223694,0.9282152528,0,0,-0.671082,69.2, 1.5, 2.5,0,0,1024,1024,1024,1024,0,0,97,3.691,3.699,3.723,3.719,3.74,3.71,22.315,69.8,14,Waypoint,
38.175413,-120.0595531,5142.2216904697,180.4462,0,0.8983596088,24200,2018-05-12 20:15:41,16,0,22.352,5142.2216904697,180.4462,0.223694,0.9282152528,0,0,-0.671082,69.2, 1.7, 2.4,0,0,1024,1024,1024,1024,0,0,97,3.691,3.699,3.723,3.719,3.74,3.71,22.315,69.8,14,Waypoint,
38.1754131,-120.0595531,5143.2059424697,181.430452,0,0.93396000364,24300,2018-05-12 20:15:42,16,0,22.352,5143.2059424697,181.430452,0.223694,0.93396000364,0,0,-0.671082,69.1, 2, 2.5,0,0,1024,1024,1024,1024,0,0,97,3.691,3.699,3.723,3.719,3.74,3.71,22.315,69.8,14,Waypoint,
38.1754131,-120.0595531,5144.1901944697,182.414704,0,0.93396000364,24410,2018-05-12 20:15:42,16,0,22.352,5144.1901944697,182.414704,0.223694,0.93396000364,0,0,-0.671082,68.9, 2.1, 2.7,0,0,1024,1024,1024,1024,0,0,97,3.691,3.699,3.723,3.719,3.74,3.71,22.315,69.8,14,Waypoint,
38.1754132,-120.0595531,5145.1744464697,183.398956,0,0.96962273444,24600,2018-05-12 20:15:42,16,0,22.352,5145.1744464697,183.398956,0.223694,0.96962273444,0,0,-0.671082,68.7, 1.9, 3,0,0,1024,1024,1024,1024,0,0,97,3.691,3.699,3.723,3.719,3.74,3.71,22.315,69.8,14,Waypoint,
38.1754132,-120.0595532,5146.1586984697,184.383208,0,0.97596459816,24700,2018-05-12 20:15:42,16,0,22.352,5146.1586984697,184.383208,0.223694,0.97596459816,0,0,-0.671082,68.5, 2, 2.7,0,0,1024,1024,1024,1024,0,0,97,3.691,3.699,3.723,3.719,3.74,3.71,22.315,69.8,14,Waypoint,
38.1754132,-120.0595532,5147.1429504697,185.36746,0,0.97596459816,24800,2018-05-12 20:15:42,16,0,22.352,5147.1429504697,185.36746,0.223694,0.97596459816,0,0,-0.671082,68.4, 1.8, 2.3,0,0,1024,1024,1024,1024,0,0,97,3.691,3.699,3.723,3.719,3.74,3.71,22.315,69.8,14,Waypoint,
38.1754131,-120.0595532,5148.1272024697,186.351712,0,0.94054136868,24900,2018-05-12 20:15:42,16,0,22.352,5148.1272024697,186.351712,0.223694,0.97596459816,0,0,-0.671082,68.5, 1.8, 2.1,0,0,1024,1024,1024,1024,0,0,97,3.691,3.699,3.723,3.719,3.74,3.71,22.315,69.8,14,Waypoint,
38.1754131,-120.0595532,5149.1114544697,187.335964,0,0.94054136868,25000,2018-05-12 20:15:42,17,0,22.352,5149.1114544697,187.335964,0.223694,0.97596459816,0,0,-0.671082,68.7, 1.6, 1.9,0,0,1024,1024,1024,1024,0,0,97,3.703,3.714,3.734,3.737,3.75,3.722,22.315,69.8,14,Waypoint,
38.1754131,-120.0595532,5150.0957064697,188.320216,0,0.94054136868,25100,2018-05-12 20:15:42,17,0,22.352,5150.0957064697,188.320216,0.223694,0.97596459816,0,0,-0.671082,68.9, 1.3, 1.7,0,0,1024,1024,1024,1024,0,0,97,3.703,3.714,3.734,3.737,3.75,3.722,22.315,69.8,14,Waypoint,
38.175413,-120.0595532,5151.4080424697,189.632552,0,0.90520344104,25200,2018-05-12 20:15:42,17,0,22.352,5151.4080424697,189.632552,0.223694,0.97596459816,0,0,-0.671082,69.1, 1.2, 1.6,0,0,1024,1024,1024,1024,0,0,97,3.703,3.714,3.734,3.737,3.75,3.722,22.315,69.8,14,Waypoint,
38.175413,-120.0595533,5152.3922944697,190.616804,0,0.91289373,25300,2018-05-12 20:15:43,17,0,22.352,5152.3922944697,190.616804,0.223694,0.97596459816,0,0,-0.671082,69.2, 0.9, 1.6,0,0,1024,1024,1024,1024,0,0,97,3.703,3.714,3.734,3.737,3.75,3.722,22.315,69.8,14,Waypoint,
38.175413,-120.0595534,5153.3765464697,191.601056,0,0.92141407148,25400,2018-05-12 20:15:43,17,0,22.352,5153.3765464697,191.601056,0.223694,0.97596459816,0,0,-0.671082,69.1, 0.6, 2,0,0,1024,1024,1024,1024,0,0,97,3.703,3.714,3.734,3.737,3.75,3.722,22.315,69.8,14,Waypoint,
38.175413,-120.0595534,5154.3607984697,192.585308,0,0.92141407148,25500,2018-05-12 20:15:43,17,0,22.352,5154.3607984697,192.585308,0.223694,0.97596459816,0,0,-0.671082,69.1, 0.3, 2.5,0,0,1024,1024,1024,1024,0,0,97,3.703,3.714,3.734,3.737,3.75,3.722,22.315,69.8,14,Waypoint,
38.175413,-120.0595535,5155.3450504697,193.56956,0,0.9307414996,25600,2018-05-12 20:15:43,17,0,22.352,5155.3450504697,193.56956,0.223694,0.97596459816,0,0,-0.671082,68.8, 0.3, 2.6,0,0,1024,1024,1024,1024,0,0,97,3.703,3.714,3.734,3.737,3.75,3.722,22.315,69.8,14,Waypoint,
38.1754131,-120.0595536,5156.3293024697,194.553812,0,0.97489832516,25700,2018-05-12 20:15:43,17,0,22.352,5156.3293024697,194.553812,0.223694,0.97596459816,0,0,-0.671082,68.8, 0.4, 2.5,0,0,1024,1024,1024,1024,0,0,97,3.703,3.714,3.734,3.737,3.75,3.722,22.315,69.8,14,Waypoint,
38.1754131,-120.0595536,5157.3135544697,195.538064,0,0.97489832516,25800,2018-05-12 20:15:43,17,0,22.352,5157.3135544697,195.538064,0.223694,0.97596459816,0,0,-0.671082,68.7, 0.8, 2.2,0,0,1024,1024,1024,1024,0,0,97,3.703,3.714,3.734,3.737,3.75,3.722,22.315,69.8,14,Waypoint,
38.1754132,-120.0595536,5158.2978064697,196.522316,0,1.00911748636,25910,2018-05-12 20:15:43,17,0,22.352,5158.2978064697,196.522316,0.223694,1.00911748636,0,0,-0.671082,68.7, 1, 2.9,0,0,1024,1024,1024,1024,0,0,97,3.703,3.714,3.734,3.737,3.75,3.722,22.315,69.8,14,Waypoint,
38.1754132,-120.0595536,5159.2820584697,197.506568,0,1.00911748636,26000,2018-05-12 20:15:43,17,0,22.393,5159.2820584697,197.506568,0.223694,1.00911748636,0,0,-0.671082,68.8, 1.3, 3.1,0,0,1024,1024,1024,1024,0,0,97,3.71,3.727,3.741,3.743,3.767,3.716,22.316,69.8,14,Waypoint,
38.1754132,-120.0595536,5160.2663104697,198.49082,0,1.00911748636,26100,2018-05-12 20:15:43,17,0,22.393,5160.2663104697,198.49082,0.223694,1.00911748636,0,0,-0.671082,68.9, 1.4, 3,0,0,1024,1024,1024,1024,0,0,97,3.71,3.727,3.741,3.743,3.767,3.716,22.316,69.8,14,Waypoint,
38.1754133,-120.0595536,5162.5628984697,200.787408,0,1.0434875662,26200,2018-05-12 20:15:43,17,0,22.393,5162.5628984697,200.787408,0.223694,1.0434875662,0,0,-0.671082,69.1, 1.4, 3.1,0,0,1024,1024,1024,1024,0,0,97,3.71,3.727,3.741,3.743,3.767,3.716,22.316,69.8,14,Waypoint,
38.1754133,-120.0595536,5163.5471504697,201.77166,0,1.0434875662,26300,2018-05-12 20:15:44,17,0,22.393,5163.5471504697,201.77166,0.223694,1.0434875662,0,0,-0.671082,69, 1.6, 3.5,0,0,1024,1024,1024,1024,0,0,97,3.71,3.727,3.741,3.743,3.767,3.716,22.316,69.8,14,Waypoint,
38.1754134,-120.0595536,5164.5314024697,202.755912,0,1.07799872216,26500,2018-05-12 20:15:44,17,0,22.393,5164.5314024697,202.755912,0.223694,1.07799872216,0,0,-0.671082,68.8, 1.6, 3.9,0,0,1024,1024,1024,1024,0,0,97,3.71,3.727,3.741,3.743,3.767,3.716,22.316,69.8,14,Waypoint,
38.1754135,-120.0595536,5166.4999064697,204.724416,0,1.11263455004,26600,2018-05-12 20:15:44,17,0,22.393,5166.4999064697,204.724416,0.223694,1.11263455004,0,0,-0.671082,68.6, 1.3, 4.1,0,0,1024,1024,1024,1024,0,0,97,3.71,3.727,3.741,3.743,3.767,3.716,22.316,69.8,14,Waypoint,
38.1754135,-120.0595536,5167.4841584697,205.708668,0,1.11263455004,26700,2018-05-12 20:15:44,18,0,22.393,5167.4841584697,205.708668,0.223694,1.11263455004,0,0,-0.671082,68.6, 1, 4,0,0,1024,1024,1024,1024,0,0,97,3.71,3.727,3.741,3.743,3.767,3.716,22.316,69.8,14,Waypoint,
38.1754135,-120.0595536,5169.1245784697,207.349088,0,1.11263455004,26900,2018-05-12 20:15:44,18,0,22.393,5169.1245784697,207.349088,0.223694,1.11263455004,0,0,-0.671082,69.1, 0.9, 3.5,0,0,1024,1024,1024,1024,0,0,97,3.71,3.727,3.741,3.743,3.767,3.716,22.316,69.8,14,Waypoint,
38.1754135,-120.0595535,5170.1088304697,208.33334,0,1.1041010852,27000,2018-05-12 20:15:44,18,0,22.438,5170.1088304697,208.33334,0.223694,1.11263455004,0,0,-0.671082,69.3, 1.1, 3.3,0,0,1024,1024,1024,1024,0,0,96,3.722,3.738,3.742,3.751,3.778,3.733,21.339,69.8,14,Waypoint,
38.1754135,-120.0595535,5171.0930824697,209.317592,0,1.1041010852,27110,2018-05-12 20:15:44,18,0,22.438,5171.0930824697,209.317592,0.223694,1.11263455004,0,0,-0.671082,69.4, 1.3, 3,0,0,1024,1024,1024,1024,0,0,96,3.722,3.738,3.742,3.751,3.778,3.733,21.339,69.8,14,Waypoint,
38.1754135,-120.0595535,5172.0773344697,210.301844,0,1.1041010852,27200,2018-05-12 20:15:44,18,0,22.438,5172.0773344697,210.301844,0.223694,1.11263455004,0,0,-0.671082,69.2, 1.5, 3.1,0,0,1024,1024,1024,1024,0,0,96,3.722,3.738,3.742,3.751,3.778,3.733,21.339,69.8,14,Waypoint,
38.1754135,-120.0595534,5172.7335024697,210.958012,0,1.09625003508,27400,2018-05-12 20:15:45,18,0,22.438,5172.7335024697,210.958012,0.223694,1.11263455004,0,0,-0.671082,68.8, 1.8, 3.2,0,0,1024,1024,1024,1024,0,0,96,3.722,3.738,3.742,3.751,3.778,3.733,21.339,69.8,14,Waypoint,
38.1754135,-120.0595534,5173.7177544697,211.942264,0,1.09625003508,27500,2018-05-12 20:15:45,18,0,22.438,5173.7177544697,211.942264,0.223694,1.11263455004,0,0,-0.671082,68.4, 1.9, 3.5,0,0,1024,1024,1024,1024,0,0,96,3.722,3.738,3.742,3.751,3.778,3.733,21.339,69.8,14,Waypoint,
38.1754135,-120.0595534,5174.7020064697,212.926516,0,1.09625003508,27600,2018-05-12 20:15:45,18,0,22.438,5174.7020064697,212.926516,0.223694,1.11263455004,0,0,-0.671082,68.1, 1.6, 3.7,0,0,1024,1024,1024,1024,0,0,96,3.722,3.738,3.742,3.751,3.778,3.733,21.339,69.8,14,Waypoint,
38.1754135,-120.0595533,5175.6862584697,213.910768,0,1.08909780388,27700,2018-05-12 20:15:45,18,0,22.438,5175.6862584697,213.910768,0.223694,1.11263455004,0,0,-0.671082,68.1, 1.4, 3.6,0,0,1024,1024,1024,1024,0,0,96,3.722,3.738,3.742,3.751,3.778,3.733,21.339,69.8,14,Waypoint,
38.1754135,-120.0595532,5177.6547624697,215.879272,0,1.08265751496,27900,2018-05-12 20:15:45,18,0,22.438,5177.6547624697,215.879272,0.223694,1.11263455004,0,0,-0.671082,68.8, 1.7, 2.1,0,0,1024,1024,1024,1024,0,0,96,3.722,3.738,3.742,3.751,3.778,3.733,21.339,69.8,14,Waypoint,
38.1754134,-120.0595531,5178.6390144697,216.863524,0,1.04111879972,28000,2018-05-12 20:15:45,18,0,22.559,5178.6390144697,216.863524,0.223694,1.11263455004,0,0,-0.671082,69.1, 2.2, 2.4,0,0,1024,1024,1024,1024,0,0,96,3.747,3.762,3.759,3.765,3.791,3.753,19.869,69.8,14,Waypoint,
38.1754134,-120.059553,5179.6232664697,217.847776,0,1.03597116176,28100,2018-05-12 20:15:45,18,0,22.559,5179.6232664697,217.847776,0.223694,1.11263455004,0,0,-0.671082,69.3, 2.7, 2.7,0,0,1024,1024,1024,1024,0,0,96,3.747,3.762,3.759,3.765,3.791,3.753,19.869,69.8,14,Waypoint,
38.1754134,-120.0595529,5180.6075184697,218.832028,0,1.0315945212,28200,2018-05-12 20:15:45,18,0,22.559,5180.6075184697,218.832028,0.223694,1.11263455004,0,0,-0.671082,69.5, 2.6, 3,0,0,1024,1024,1024,1024,0,0,96,3.747,3.762,3.759,3.765,3.791,3.753,19.869,69.8,14,Waypoint,
38.1754134,-120.0595528,5181.5917704697,219.81628,0,1.02799872056,28300,2018-05-12 20:15:46,18,0,22.559,5181.5917704697,219.81628,0.223694,1.11263455004,0,0,-0.671082,69.4, 2.6, 3.3,0,0,1024,1024,1024,1024,0,0,96,3.747,3.762,3.759,3.765,3.791,3.753,19.869,69.8,14,Waypoint,
38.1754134,-120.0595527,5182.5760224697,220.800532,0,1.0251968832,28400,2018-05-12 20:15:46,18,0,22.559,5182.5760224697,220.800532,0.223694,1.11263455004,0,0,-0.671082,69.3, 2.9, 3.1,0,0,1024,1024,1024,1024,0,0,96,3.747,3.762,3.759,3.765,3.791,3.753,19.869,69.8,14,Waypoint,
38.1754134,-120.0595526,5183.5602744697,221.784784,0,1.02318900912,28500,2018-05-12 20:15:46,18,0,22.559,5183.5602744697,221.784784,0.223694,1.11263455004,0,0,-0.671082,69, 2.9, 2.8,0,0,1024,1024,1024,1024,0,0,96,3.747,3.762,3.759,3.765,3.791,3.753,19.869,69.8,14,Waypoint,
38.1754134,-120.0595525,5184.5445264697,222.769036,0,1.02198166,28600,2018-05-12 20:15:46,18,0,22.559,5184.5445264697,222.769036,0.223694,1.11263455004,0,0,-0.671082,68.9, 2.7, 2.6,0,0,1024,1024,1024,1024,0,0,96,3.747,3.762,3.759,3.765,3.791,3.753,19.869,69.8,14,Waypoint,
38.1754134,-120.0595524,5185.5287784697,223.753288,0,1.02157811668,28700,2018-05-12 20:15:46,18,0,22.559,5185.5287784697,223.753288,0.223694,1.11263455004,0,0,-0.671082,68.9, 2.9, 3,0,0,1024,1024,1024,1024,0,0,96,3.747,3.762,3.759,3.765,3.791,3.753,19.869,69.8,14,Waypoint,
38.1754135,-120.0595522,5187.4972824697,225.721792,0,1.05961617564,28800,2018-05-12 20:15:46,18,0,22.559,5187.4972824697,225.721792,0.223694,1.11263455004,0,0,-0.671082,69, 3.6, 3.5,0,0,1024,1024,1024,1024,0,0,96,3.747,3.762,3.759,3.765,3.791,3.753,19.869,69.8,14,Waypoint,
38.1754136,-120.0595521,5188.4815344697,226.706044,0,1.09792654432,28900,2018-05-12 20:15:46,18,0,22.559,5188.4815344697,226.706044,0.223694,1.11263455004,0,0,-0.671082,69.2, 3.6, 3.6,0,0,1024,1024,1024,1024,0,0,96,3.747,3.762,3.759,3.765,3.791,3.753,19.869,69.8,14,Waypoint,
38.1754136,-120.0595521,5189.4657864697,227.690296,0,1.09792654432,29000,2018-05-12 20:15:46,18,0,22.673,5189.4657864697,227.690296,0.223694,1.11263455004,0,0,-0.671082,69.3, 3.7, 3.6,0,0,1024,1024,1024,1024,0,0,96,3.763,3.771,3.778,3.779,3.804,3.772,18.653,71.6,14,Waypoint,
38.1754136,-120.059552,5190.7781224697,229.002632,0,1.10054465464,29100,2018-05-12 20:15:46,18,0,22.673,5190.7781224697,229.002632,0.223694,1.11263455004,0,0,-0.671082,69.2, 3.9, 3.8,0,0,1024,1024,1024,1024,0,0,96,3.763,3.771,3.778,3.779,3.804,3.772,18.653,71.6,14,Waypoint,
38.1754137,-120.059552,5191.7623744697,229.986884,0,1.13683730672,29200,2018-05-12 20:15:46,18,0,22.673,5191.7623744697,229.986884,0.223694,1.13683730672,0,0,-0.671082,69.1, 3.9, 3.9,0,0,1024,1024,1024,1024,0,0,96,3.763,3.771,3.778,3.779,3.804,3.772,18.653,71.6,14,Waypoint,
38.1754137,-120.059552,5192.7466264697,230.971136,0,1.13683730672,29400,2018-05-12 20:15:47,18,0,22.673,5192.7466264697,230.971136,0.223694,1.13683730672,0,0,-0.671082,69, 3.7, 3.9,0,0,1024,1024,1024,1024,0,0,96,3.763,3.771,3.778,3.779,3.804,3.772,18.653,71.6,14,Waypoint,
38.1754137,-120.0595519,5194.7151304697,232.93964,0,1.14008861916,29500,2018-05-12 20:15:47,18,0,22.673,5194.7151304697,232.93964,0.223694,1.14008861916,0,0,-0.671082,68.8, 3.5, 3.9,0,0,1024,1024,1024,1024,0,0,96,3.763,3.771,3.778,3.779,3.804,3.772,18.653,71.6,14,Waypoint,
38.1754137,-120.059552,5195.6993824697,233.923892,0,1.13683730672,29700,2018-05-12 20:15:47,18,0,22.673,5195.6993824697,233.923892,0.223694,1.14008861916,0,0,-0.671082,68.7, 3, 3.4,0,0,1024,1024,1024,1024,0,0,96,3.763,3.771,3.778,3.779,3.804,3.772,18.653,71.6,14,Waypoint,
38.1754136,-120.059552,5196.6836344697,234.908144,0,1.10054465464,29800,2018-05-12 20:15:47,18,0,22.673,5196.6836344697,234.908144,0.223694,1.14008861916,0,0,-0.671082,68.7, 2.4, 2.8,0,0,1024,1024,1024,1024,0,0,96,3.763,3.771,3.778,3.779,3.804,3.772,18.653,71.6,14,Waypoint,
38.1754136,-120.0595521,5197.3398024697,235.564312,0,1.09792654432,29900,2018-05-12 20:15:47,18,0,22.673,5197.3398024697,235.564312,0.223694,1.14008861916,0,0,-0.671082,68.9, 1.9, 2.6,0,0,1024,1024,1024,1024,0,0,96,3.763,3.771,3.778,3.779,3.804,3.772,18.653,71.6,14,Waypoint,
38.1754135,-120.0595522,5198.3240544697,236.548564,0,1.05961617564,30000,2018-05-12 20:15:47,18,0,22.705,5198.3240544697,236.548564,0.223694,1.14008861916,0,0,-0.671082,69.1, 2, 2.2,0,0,1024,1024,1024,1024,0,0,96,3.764,3.78,3.785,3.793,3.814,3.774,19.028,71.6,14,Waypoint,
38.1754135,-120.0595522,5199.3083064697,237.532816,0,1.05961617564,30100,2018-05-12 20:15:47,18,0,22.705,5199.3083064697,237.532816,0.223694,1.14008861916,0,0,-0.671082,69.3, 2.1, 2.3,0,0,1024,1024,1024,1024,0,0,96,3.764,3.78,3.785,3.793,3.814,3.774,19.028,71.6,14,Waypoint,
38.1754134,-120.0595522,5200.2925584697,238.517068,0,1.02318900912,30200,2018-05-12 20:15:47,18,0,22.705,5200.2925584697,238.517068,0.223694,1.14008861916,0,0,-0.671082,69.6, 2, 2.3,0,0,1024,1024,1024,1024,0,0,96,3.764,3.78,3.785,3.793,3.814,3.774,19.028,71.6,14,Waypoint,
38.1754134,-120.0595523,5201.2768104697,239.50132,0,1.02198166,30300,2018-05-12 20:15:48,18,0,22.705,5201.2768104697,239.50132,0.223694,1.14008861916,0,0,-0.671082,69.9, 2.1, 2.5,0,0,1024,1024,1024,1024,0,0,96,3.764,3.78,3.785,3.793,3.814,3.774,19.028,71.6,14,Waypoint,
38.1754134,-120.0595523,5202.2610624697,240.485572,0,1.02198166,30400,2018-05-12 20:15:48,18,0,22.705,5202.2610624697,240.485572,0.223694,1.14008861916,0,0,-0.671082,69.9, 2.1, 2.8,0,0,1024,1024,1024,1024,0,0,96,3.764,3.78,3.785,3.793,3.814,3.774,19.028,71.6,14,Waypoint,
