Latitude, Longitude, Altitude (m), Time, Sats, Speed (m/s), Range (m), Battery (%), Roll (deg), Pitch (deg), Yaw (deg), Images, HD Signal (%), RC Signal (%), Battery Temp (C), Battery Voltage (mV), Battery Current (mA), Battery Energy (mAh), Battery Capacity (mAh), Battery Discharges, flyState, timestamp (Unix), LastUpdate (ms), radioChannel, Rc_elevator, Rc_aileron, Rc_throttle, Rc_rudder, Rc_gyro, Dronetype, Battery_Cell1 (mV), Battery_Cell2 (mV), Battery_Cell3 (mV), Battery_Cell4 (mV), Battery_Cell5 (mV), Battery_Cell6 (mV), Video, isFlying, elapsedTime (ms), gimbalPitch (deg), gimbalRoll (deg), gimbalYaw (deg), VelocityX (m/s), VelocityY (m/s), VelocityZ (m/s), GroundSmear (cm), App Version, Aircraft Name, Aircraft Firmware, Aircraft Serial Number, Battery Serial Number, Battery Lifetime (%), App_Tip, App_Warning, CurrentFlightStartingIndex, CurrentFlightLastVisitedWaypoint, PreviousFlightEndingWaypointIndex
38.2001165, -120.0383167, 0.000, 09:19:56.426, 12, 0.00, 0.17, 100, 0.300, 0.300, -35.400, 330, 100, 100, 16, 25484, -3390, 5510, 5510, 10, 11, 1526141996.427, 128, 0, 1024, 1024, 1024, 1024, 0, 6, 4262, 4260, 4233, 4233, 4263, 4247, 0, 1, 3021, -89.900, 0.000, -34.600, 0.000, 0.000, -0.300, 0.0, MapPilot_2.8.1_04242018, Dendroctonus I, 1.3.1.00, 041DDC1887, 1058171200279, 98, DJI_0329.jpg, Starting Mission from Lat/Long: 38.20011/-120.03832 Camera: Zenmuse X3 - Overlap: 90/90 - Active Connection: No, 11, 11, 11
38.2001165, -120.0383167, 0.000, 09:19:56.508, 12, 0.00, 0.18, 100, 0.000, 0.500, -35.300, 330, 100, 100, 16, 25484, -3390, 5510, 5510, 10, 11, 1526141996.509, 49, 0, 1024, 1024, 1024, 1024, 0, 6, 4262, 4260, 4233, 4233, 4263, 4247, 0, 1, 3103, -89.900, 0.000, -34.600, 0.000, 0.000, -0.400, 0.0, , , , , , 98, , , 11, 11, 11
38.2001165, -120.0383167, 0.100, 09:19:56.614, 12, 0.00, 0.18, 100, 0.000, 0.500, -35.300, 330, 100, 99, 16, 25484, -3390, 5510, 5510, 10, 11, 1526141996.614, 54, 0, 1024, 1024, 1024, 1024, 0, 6, 4262, 4260, 4233, 4233, 4263, 4247, 0, 1, 3208, -89.900, 0.000, -34.600, 0.000, 0.000, -0.400, 0.0, , , , , , 98, , , 11, 11, 11
38.2001165, -120.0383167, 0.100, 09:19:56.706, 12, 0.00, 0.18, 100, 0.000, 0.500, -35.300, 330, 100, 99, 16, 25484, -3390, 5510, 5510, 10, 11, 1526141996.707, 147, 0, 1024, 1024, 1024, 1024, 0, 6, 4262, 4260, 4233, 4233, 4263, 4247, 0, 1, 3301, -89.900, 0.000, -34.600, 0.000, 0.000, -0.400, 0.0, , , , , , 98, , , 11, 11, 11
38.2001166, -120.0383167, 0.200, 09:19:56.811, 12, 0.00, 0.18, 100, 0.200, 0.100, -35.200, 330, 100, 99, 16, 25484, -3390, 5510, 5510, 10, 11, 1526141996.812, 13, 0, 1024, 1024, 1024, 1024, 0, 6, 4262, 4260, 4233, 4233, 4263, 4247, 0, 1, 3406, -89.900, 0.000, -34.600, 0.000, 0.000, -0.400, 0.0, , , , , , 98, , , 11, 11, 11
38.2001166, -120.0383167, 0.200, 09:19:56.906, 12, 0.00, 0.18, 100, 0.200, 0.100, -35.200, 330, 100, 99, 16, 25484, -3390, 5510, 5510, 10, 11, 1526141996.907, 108, 0, 1024, 1024, 1024, 1024, 0, 6, 4262, 4260, 4233, 4233, 4263, 4247, 0, 1, 3501, -89.900, 0.000, -34.600, 0.000, 0.000, -0.400, 0.0, , , , , , 98, , , 11, 11, 11
38.2001166, -120.0383168, 0.200, 09:19:57.007, 11, 0.00, 0.18, 100, 0.400, 0.000, -35.200, 330, 100, 99, 16, 25484, -3390, 5510, 5510, 10, 11, 1526141997.008, 31, 0, 1024, 1024, 1024, 1024, 0, 6, 4262, 4260, 4233, 4233, 4263, 4247, 0, 1, 3602, -89.900, 0.000, -34.600, 0.000, 0.000, -0.400, 0.0, , , , , , 98, , , 11, 11, 11
38.2001166, -120.0383168, 0.200, 09:19:57.107, 11, 0.00, 0.18, 100, 0.400, 0.000, -35.200, 330, 100, 99, 16, 25484, -3390, 5510, 5510, 10, 11, 1526141997.107, 131, 0, 1024, 1024, 1024, 1024, 0, 6, 4262, 4260, 4233, 4233, 4263, 4247, 0, 1, 3701, -89.900, 0.000, -34.600, 0.000, 0.000, -0.400, 0.0, , , , , , 98, , , 11, 11, 11
38.2001166, -120.0383168, 0.200, 09:19:57.210, 11, 0.00, 0.18, 100, 0.400, 0.000, -35.200, 330, 100, 99, 16, 25484, -3390, 5510, 5510, 10, 11, 1526141997.210, 234, 0, 1024, 1024, 1024, 1024, 0, 6, 4262, 4260, 4233, 4233, 4263, 4247, 0, 1, 3804, -89.900, 0.000, -34.600, 0.000, 0.000, -0.400, 0.0, , , , , , 98, , , 11, 11, 11
38.2001166, -120.0383168, 0.400, 09:19:57.307, 11, 0.00, 0.18, 100, 0.600, 0.000, -35.200, 330, 100, 95, 16, 24766, -9504, 5510, 5510, 10, 11, 1526141997.308, 65, 0, 1024, 1024, 1024, 1024, 0, 6, 4109, 4133, 4100, 4089, 4113, 4070, 0, 1, 3902, -89.900, 0.000, -34.600, 0.000, 0.000, -0.500, 0.0, , , , , , 98, , , 11, 11, 11
38.2001167, -120.0383169, 0.400, 09:19:57.406, 11, 0.00, 0.18, 100, 0.500, 0.200, -35.200, 330, 100, 95, 16, 24766, -9504, 5510, 5510, 10, 11, 1526141997.407, 80, 0, 1024, 1024, 1024, 1024, 0, 6, 4109, 4133, 4100, 4089, 4113, 4070, 0, 1, 4001, -89.900, 0.000, -34.600, 0.000, 0.000, -0.500, 0.0, , , , , , 98, , , 11, 11, 11
38.2001168, -120.0383169, 0.500, 09:19:57.508, 10, 0.00, 0.19, 100, 0.500, 0.400, -35.100, 330, 100, 95, 16, 24766, -9504, 5510, 5510, 10, 11, 1526141997.509, 35, 0, 1024, 1024, 1024, 1024, 0, 6, 4109, 4133, 4100, 4089, 4113, 4070, 0, 1, 4103, -89.900, 0.000, -34.600, 0.000, 0.000, -0.500, 0.0, , , , , , 98, , , 11, 11, 11
38.2001168, -120.0383169, 0.500, 09:19:57.607, 10, 0.00, 0.19, 100, 0.600, 0.400, -35.100, 330, 100, 95, 16, 24766, -9504, 5510, 5510, 10, 11, 1526141997.608, 48, 0, 1024, 1024, 1024, 1024, 0, 6, 4109, 4133, 4100, 4089, 4113, 4070, 0, 1, 4202, -89.900, 0.000, -34.600, 0.000, 0.000, -0.500, 0.0, , , , , , 98, , , 11, 11, 11
38.2001169, -120.0383169, 0.600, 09:19:57.712, 10, 0.00, 0.21, 100, 0.300, 0.500, -35.100, 330, 100, 95, 16, 24766, -9504, 5510, 5510, 10, 11, 1526141997.713, 13, 0, 1024, 1024, 1024, 1024, 0, 6, 4109, 4133, 4100, 4089, 4113, 4070, 0, 1, 4307, -89.900, 0.000, -34.600, 0.000, 0.000, -0.500, 0.0, , , , , , 98, , , 11, 11, 11
38.2001170, -120.0383169, 0.700, 09:19:57.807, 11, 0.00, 0.21, 100, 0.200, 0.600, -35.100, 330, 100, 96, 16, 24766, -9504, 5510, 5510, 10, 11, 1526141997.807, 12, 0, 1024, 1024, 1024, 1024, 0, 6, 4109, 4133, 4100, 4089, 4113, 4070, 0, 1, 4401, -89.900, 0.000, -34.600, 0.000, 0.000, -0.500, 0.0, , , , , , 98, , , 11, 11, 11
38.2001170, -120.0383169, 0.700, 09:19:57.907, 11, 0.00, 0.21, 100, 0.200, 0.600, -35.100, 330, 100, 96, 16, 24766, -9504, 5510, 5510, 10, 11, 1526141997.907, 112, 0, 1024, 1024, 1024, 1024, 0, 6, 4109, 4133, 4100, 4089, 4113, 4070, 0, 1, 4502, -89.900, 0.000, -34.600, 0.000, 0.000, -0.500, 0.0, , , , , , 98, , , 11, 11, 11
38.2001170, -120.0383169, 0.700, 09:19:58.007, 11, 0.00, 0.21, 100, 0.200, 0.600, -35.100, 330, 100, 96, 16, 24766, -9504, 5510, 5510, 10, 11, 1526141998.008, 213, 0, 1024, 1024, 1024, 1024, 0, 6, 4109, 4133, 4100, 4089, 4113, 4070, 0, 1, 4602, -89.900, 0.000, -34.600, 0.000, 0.000, -0.500, 0.0, , , , , , 98, , , 11, 11, 11
38.2001172, -120.0383168, 0.800, 09:19:58.107, 11, 0.00, 0.24, 100, 0.000, 0.700, -35.200, 330, 100, 96, 16, 24766, -9504, 5510, 5510, 10, 11, 1526141998.107, 58, 0, 1024, 1024, 1024, 1024, 0, 6, 4109, 4133, 4100, 4089, 4113, 4070, 0, 1, 4701, -89.900, 0.000, -34.600, 0.000, 0.000, -0.400, 0.0, , , , , , 98, , , 11, 11, 11
38.2001172, -120.0383168, 0.900, 09:19:58.206, 11, 0.00, 0.24, 100, 0.000, 0.800, -35.200, 330, 100, 96, 16, 24766, -9504, 5510, 5510, 10, 14, 1526141998.207, 10, 0, 1024, 1024, 1024, 1024, 0, 6, 4109, 4133, 4100, 4089, 4113, 4070, 0, 1, 4801, -89.900, 0.000, -34.600, 0.000, 0.000, -0.400, 0.0, , , , , , 98, , , 11, 11, 11
38.2001172, -120.0383168, 0.900, 09:19:58.307, 11, 0.00, 0.24, 100, 0.000, 0.600, -35.200, 330, 100, 96, 16, 23810, -17039, 5510, 5510, 10, 14, 1526141998.307, 61, 0, 1024, 1024, 1024, 1024, 0, 6, 3973, 3939, 3940, 3956, 3983, 3963, 0, 1, 4901, -89.900, 0.000, -34.600, 0.000, 0.000, -0.300, 0.0, , , , , , 98, , , 11, 11, 11
38.2001172, -120.0383168, 1.000, 09:19:58.406, 12, 0.00, 0.24, 100, 0.300, 0.300, -35.200, 330, 100, 96, 16, 23810, -17039, 5510, 5510, 10, 14, 1526141998.406, 18, 0, 1024, 1024, 1024, 1024, 0, 6, 3973, 3939, 3940, 3956, 3983, 3963, 0, 1, 5000, -89.900, 0.000, -34.600, 0.000, 0.000, -0.200, 0.0, , , , , , 98, , , 11, 11, 11
38.2001172, -120.0383168, 1.000, 09:19:58.506, 12, 0.00, 0.23, 100, 0.500, 0.300, -35.100, 330, 100, 96, 16, 23810, -17039, 5510, 5510, 10, 14, 1526141998.506, 35, 0, 1024, 1024, 1024, 1024, 0, 6, 3973, 3939, 3940, 3956, 3983, 3963, 0, 1, 5101, -89.900, 0.000, -34.600, 0.000, 0.000, -0.300, 0.0, , , , , , 98, , , 11, 11, 11
38.2001173, -120.0383166, 1.100, 09:19:58.607, 12, 0.00, 0.25, 100, 0.500, 0.300, -35.100, 330, 100, 96, 16, 23810, -17039, 5510, 5510, 10, 14, 1526141998.607, 35, 0, 1024, 1024, 1024, 1024, 0, 6, 3973, 3939, 3940, 3956, 3983, 3963, 0, 1, 5201, -89.900, 0.000, -34.600, 0.000, 0.000, -0.500, 0.0, , , , , , 98, , , 11, 11, 11
38.2001173, -120.0383166, 1.200, 09:19:58.707, 13, 0.00, 0.26, 100, 0.200, 0.400, -35.100, 330, 100, 100, 16, 23810, -17039, 5510, 5510, 10, 14, 1526141998.707, 33, 0, 1024, 1024, 1024, 1024, 0, 6, 3973, 3939, 3940, 3956, 3983, 3963, 0, 1, 5301, -89.900, 0.000, -34.600, 0.000, 0.000, -0.700, 0.0, , , , , , 98, , , 11, 11, 11
38.2001174, -120.0383165, 1.300, 09:19:58.807, 13, 0.00, 0.26, 100, 0.000, 0.500, -35.100, 330, 100, 100, 16, 23810, -17039, 5510, 5510, 10, 14, 1526141998.807, 48, 0, 1024, 1024, 1024, 1024, 0, 6, 3973, 3939, 3940, 3956, 3983, 3963, 0, 1, 5401, -89.900, 0.000, -34.600, 0.000, 0.000, -0.800, 0.0, , , , , , 98, , , 11, 11, 11
38.2001174, -120.0383165, 1.400, 09:19:58.907, 13, 0.00, 0.27, 100, 0.000, 0.500, -35.100, 330, 100, 100, 16, 23810, -17039, 5510, 5510, 10, 14, 1526141998.907, 75, 0, 1024, 1024, 1024, 1024, 0, 6, 3973, 3939, 3940, 3956, 3983, 3963, 0, 1, 5501, -89.900, 0.000, -34.600, 0.000, 0.000, -1.100, 0.0, , , , , , 98, , , 11, 11, 11
38.2001174, -120.0383164, 1.500, 09:19:59.007, 13, 0.00, 0.28, 100, -0.100, 0.500, -35.100, 330, 100, 100, 16, 23810, -17039, 5510, 5510, 10, 14, 1526141999.007, 71, 0, 1024, 1024, 1024, 1024, 0, 6, 3973, 3939, 3940, 3956, 3983, 3963, 0, 1, 5601, -89.900, 0.000, -34.600, 0.000, 0.000, -1.200, 0.0, , , , , , 98, , , 11, 11, 11
38.2001175, -120.0383163, 1.700, 09:19:59.106, 11, 0.00, 0.29, 100, -0.200, 0.400, -35.100, 330, 100, 100, 16, 23652, -16377, 5510, 5510, 10, 14, 1526141999.106, 87, 0, 1024, 1024, 1024, 1024, 0, 6, 3947, 3944, 3922, 3935, 3961, 3944, 0, 1, 5701, -89.900, 0.000, -34.600, 0.000, 0.000, -1.500, 0.0, , , , , , 98, , , 11, 11, 11
38.2001175, -120.0383163, 1.800, 09:19:59.207, 11, 0.00, 0.29, 100, -0.300, 0.400, -35.200, 330, 100, 100, 16, 23652, -16377, 5510, 5510, 10, 14, 1526141999.207, 36, 0, 1024, 1024, 1024, 1024, 0, 6, 3947, 3944, 3922, 3935, 3961, 3944, 0, 1, 5801, -89.900, 0.000, -34.600, 0.000, 0.000, -1.700, 0.0, , , , , , 98, , , 11, 11, 11
38.2001176, -120.0383164, 2.000, 09:19:59.307, 11, 0.00, 0.29, 100, -0.200, 0.500, -35.200, 330, 100, 100, 16, 23652, -16377, 5510, 5510, 10, 14, 1526141999.307, 56, 0, 1024, 1024, 1024, 1024, 0, 6, 3947, 3944, 3922, 3935, 3961, 3944, 0, 1, 5901, -89.900, 0.000, -34.600, 0.000, 0.000, -1.800, 0.0, , , , , , 98, , , 11, 11, 11
38.2001177, -120.0383165, 2.200, 09:19:59.407, 11, 0.00, 0.29, 100, 0.000, 0.700, -35.200, 330, 100, 100, 16, 23652, -16377, 5510, 5510, 10, 14, 1526141999.407, 93, 0, 1024, 1024, 1024, 1024, 0, 6, 3947, 3944, 3922, 3935, 3961, 3944, 0, 1, 6001, -89.900, 0.000, -34.600, 0.000, 0.000, -2.200, 0.0, , , , , , 98, , , 11, 11, 11
38.2001176, -120.0383166, 2.500, 09:19:59.507, 9, 0.00, 0.29, 100, 0.200, 0.800, -35.300, 330, 100, 100, 16, 23652, -16377, 5510, 5510, 10, 14, 1526141999.507, 83, 0, 1024, 1024, 1024, 1024, 0, 6, 3947, 3944, 3922, 3935, 3961, 3944, 0, 1, 6101, -89.900, 0.000, -34.600, 0.000, 0.000, -2.300, 0.0, , , , , , 98, , , 11, 11, 11
38.2001175, -120.0383170, 2.800, 09:19:59.607, 9, 0.00, 0.26, 100, 0.600, 0.900, -35.300, 330, 100, 100, 16, 23652, -16377, 5510, 5510, 10, 14, 1526141999.607, 51, 0, 1024, 1024, 1024, 1024, 0, 6, 3947, 3944, 3922, 3935, 3961, 3944, 0, 1, 6201, -89.900, 0.000, -34.600, 0.000, 0.000, -2.700, 0.0, , , , , , 98, , , 11, 11, 11
38.2001173, -120.0383172, 3.100, 09:19:59.707, 11, 0.00, 0.23, 100, 1.300, 0.800, -35.300, 330, 100, 100, 16, 23652, -16377, 5510, 5510, 10, 14, 1526141999.707, 47, 0, 1024, 1024, 1024, 1024, 0, 6, 3947, 3944, 3922, 3935, 3961, 3944, 0, 1, 6301, -89.900, 0.000, -34.600, 0.000, 0.000, -2.800, 0.0, , , , , , 98, , , 11, 11, 11
38.2001172, -120.0383173, 3.400, 09:19:59.807, 11, 0.00, 0.22, 100, 1.700, 0.500, -35.300, 330, 100, 100, 16, 23652, -16377, 5510, 5510, 10, 14, 1526141999.807, 49, 0, 1024, 1024, 1024, 1024, 0, 6, 3947, 3944, 3922, 3935, 3961, 3944, 0, 1, 6401, -89.900, 0.000, -34.600, 0.000, 0.000, -2.900, 0.0, , , , , , 98, , , 11, 11, 11
38.2001169, -120.0383178, 4.000, 09:19:59.907, 12, 0.00, 0.17, 100, 1.900, 0.500, -35.300, 330, 100, 100, 16, 23652, -16377, 5510, 5510, 10, 14, 1526141999.907, 55, 0, 1024, 1024, 1024, 1024, 0, 6, 3947, 3944, 3922, 3935, 3961, 3944, 0, 1, 6501, -89.900, 0.000, -34.600, 0.000, 0.000, -3.100, 0.0, , , , , , 98, , , 11, 11, 11
38.2001167, -120.0383180, 4.400, 09:20:00.006, 11, 0.00, 0.15, 100, 2.200, 0.400, -35.300, 330, 100, 100, 16, 23009, -22342, 5510, 5510, 10, 14, 1526142000.007, 51, 0, 1024, 1024, 1024, 1024, 0, 6, 3947, 3944, 3922, 3935, 3961, 3944, 0, 1, 6601, -89.900, 0.000, -34.600, 0.000, 0.000, -3.200, 0.0, , , , , , 98, , , 11, 11, 11
38.2001167, -120.0383181, 4.700, 09:20:00.106, 11, 0.00, 0.16, 100, 2.300, 0.300, -35.300, 330, 100, 100, 16, 23009, -22342, 5510, 5510, 10, 14, 1526142000.107, 40, 0, 1024, 1024, 1024, 1024, 0, 6, 3947, 3944, 3922, 3935, 3961, 3944, 0, 1, 6701, -89.900, 0.000, -34.600, 0.000, 0.000, -3.200, 0.0, , , , , , 98, , , 11, 11, 11
38.2001169, -120.0383181, 5.000, 09:20:00.206, 11, 0.00, 0.17, 100, 2.000, 0.400, -35.400, 330, 100, 100, 16, 23009, -22342, 5510, 5510, 10, 14, 1526142000.206, 40, 0, 1024, 1024, 1024, 1024, 0, 6, 3947, 3944, 3922, 3935, 3961, 3944, 0, 1, 6800, -89.900, 0.000, -34.600, 0.000, 0.000, -3.200, 0.0, , , , , , 98, , , 11, 11, 11
38.2001171, -120.0383178, 5.400, 09:20:00.307, 11, 0.00, 0.20, 100, 1.400, 0.700, -35.400, 330, 100, 100, 16, 23009, -22342, 5510, 5510, 10, 14, 1526142000.307, 28, 0, 1024, 1024, 1024, 1024, 0, 6, 3947, 3944, 3922, 3935, 3961, 3944, 0, 1, 6901, -89.900, 0.000, -34.600, 0.000, 0.000, -3.200, 0.0, , , , , , 98, , , 11, 11, 11
38.2001174, -120.0383175, 5.700, 09:20:00.407, 12, 0.00, 0.23, 100, 0.400, 0.800, -35.300, 330, 100, 100, 16, 23009, -22342, 5510, 5510, 10, 14, 1526142000.408, 30, 0, 1024, 1024, 1024, 1024, 0, 6, 3947, 3944, 3922, 3935, 3961, 3944, 0, 1, 7002, -89.900, 0.000, -34.600, 0.000, 0.000, -3.200, 0.0, , , , , , 98, , , 11, 11, 11
38.2001176, -120.0383172, 6.100, 09:20:00.519, 12, 0.00, 0.27, 98, -0.600, 1.000, -35.300, 330, 100, 100, 16, 23009, -22342, 5399, 5510, 10, 14, 1526142000.520, 11, 0, 1024, 1024, 1024, 1024, 0, 6, 3947, 3944, 3922, 3935, 3961, 3944, 0, 1, 7114, -89.900, 0.000, -34.600, 0.000, 0.000, -3.200, 0.0, , , , , , 98, , , 11, 11, 11
38.2001178, -120.0383169, 6.400, 09:20:00.612, 13, 0.00, 0.30, 98, -1.500, 0.900, -35.300, 330, 100, 100, 16, 23009, -22342, 5399, 5510, 10, 14, 1526142000.613, 8, 0, 1024, 1024, 1024, 1024, 0, 6, 3849, 3815, 3798, 3808, 3829, 3827, 0, 1, 7207, -89.900, 0.000, -34.600, 0.000, 0.000, -3.100, 0.0, , , , , , 98, , , 11, 11, 11
38.2001180, -120.0383166, 6.800, 09:20:00.707, 13, 0.00, 0.32, 98, -1.900, 0.700, -35.300, 330, 100, 100, 16, 23009, -22342, 5399, 5510, 10, 14, 1526142000.707, 17, 0, 1024, 1024, 1024, 1024, 0, 6, 3849, 3815, 3798, 3808, 3829, 3827, 0, 1, 7301, -89.900, 0.000, -34.600, 0.000, 0.000, -3.200, 0.0, , , , , , 98, , , 11, 11, 11
38.2001181, -120.0383163, 7.100, 09:20:00.806, 12, 0.00, 0.35, 98, -1.900, 0.500, -35.300, 330, 100, 100, 16, 23009, -22342, 5399, 5510, 10, 14, 1526142000.807, 17, 0, 1024, 1024, 1024, 1024, 0, 6, 3849, 3815, 3798, 3808, 3829, 3827, 0, 1, 7401, -89.900, 0.000, -34.600, 0.000, 0.000, -3.100, 0.0, , , , , , 98, , , 11, 11, 11
38.2001182, -120.0383160, 7.400, 09:20:00.906, 12, 0.00, 0.37, 98, -1.700, 0.300, -35.200, 330, 100, 100, 16, 23009, -22342, 5399, 5510, 10, 14, 1526142000.907, 12, 0, 1024, 1024, 1024, 1024, 0, 6, 3849, 3815, 3798, 3808, 3829, 3827, 0, 1, 7501, -90.000, 0.000, -34.600, 0.000, 0.000, -3.100, 0.0, , , , , , 98, , , 11, 11, 11
38.2001183, -120.0383157, 7.700, 09:20:01.007, 11, 0.00, 0.39, 98, -1.400, 0.000, -35.200, 330, 100, 100, 16, 23009, -22342, 5399, 5510, 10, 14, 1526142001.007, 17, 0, 1024, 1024, 1024, 1024, 0, 6, 3849, 3815, 3798, 3808, 3829, 3827, 0, 1, 7601, -90.000, 0.000, -34.600, 0.000, 0.000, -3.100, 0.0, , , , , , 98, , , 11, 11, 11
38.2001184, -120.0383154, 8.100, 09:20:01.110, 11, 0.00, 0.41, 98, -1.400, -0.100, -35.100, 330, 100, 100, 16, 23009, -22342, 5399, 5510, 10, 14, 1526142001.111, 9, 0, 1024, 1024, 1024, 1024, 0, 6, 3849, 3815, 3798, 3808, 3829, 3827, 0, 1, 7705, -90.000, 0.000, -34.600, 0.000, 0.000, -3.100, 0.0, , , , , , 98, , , 11, 11, 11
38.2001184, -120.0383152, 8.400, 09:20:01.207, 10, 0.00, 0.43, 98, -1.500, -0.300, -35.100, 330, 100, 100, 16, 23009, -22342, 5399, 5510, 10, 14, 1526142001.207, 7, 0, 1024, 1024, 1024, 1024, 0, 6, 3849, 3815, 3798, 3808, 3829, 3827, 0, 1, 7801, -90.000, 0.000, -34.600, 0.000, 0.000, -3.100, 0.0, , , , , , 98, , , 11, 11, 11
38.2001184, -120.0383150, 8.700, 09:20:01.307, 10, 0.00, 0.44, 98, -1.500, -0.300, -35.100, 330, 100, 100, 16, 23009, -22342, 5399, 5510, 10, 14, 1526142001.308, 16, 0, 1024, 1024, 1024, 1024, 0, 6, 3849, 3815, 3798, 3808, 3829, 3827, 0, 1, 7902, -90.000, 0.000, -34.600, 0.000, 0.000, -3.000, 0.0, , , , , , 98, , , 11, 11, 11
38.2001184, -120.0383148, 9.100, 09:20:01.408, 11, 0.00, 0.45, 98, -1.400, -0.300, -35.200, 330, 100, 100, 16, 23009, -22342, 5399, 5510, 10, 14, 1526142001.408, 5, 0, 1024, 1024, 1024, 1024, 0, 6, 3849, 3815, 3798, 3808, 3829, 3827, 0, 1, 8002, -90.000, 0.000, -34.600, 0.000, 0.000, -3.000, 0.0, , , , , , 98, , , 11, 11, 11
38.2001184, -120.0383148, 9.100, 09:20:01.507, 11, 0.00, 0.45, 98, -1.400, -0.300, -35.200, 330, 100, 100, 16, 23009, -22342, 5399, 5510, 10, 14, 1526142001.507, 104, 0, 1024, 1024, 1024, 1024, 0, 6, 3849, 3815, 3798, 3808, 3829, 3827, 0, 1, 8101, -90.000, 0.000, -34.600, 0.000, 0.000, -3.000, 0.0, , , , , , 98, , , 11, 11, 11
38.2001184, -120.0383148, 9.400, 09:20:01.607, 11, 0.00, 0.45, 98, -1.200, -0.400, -35.200, 330, 100, 100, 16, 22817, -24071, 5399, 5510, 10, 14, 1526142001.607, 93, 0, 1024, 1024, 1024, 1024, 0, 6, 3834, 3805, 3798, 3808, 3845, 3828, 0, 1, 8201, -90.000, 0.000, -34.600, 0.000, 0.000, -3.000, 0.0, , , , , , 98, , , 11, 11, 11
38.2001184, -120.0383147, 9.700, 09:20:01.706, 11, 0.00, 0.45, 98, -0.900, -0.300, -35.300, 330, 100, 100, 16, 22817, -24071, 5399, 5510, 10, 14, 1526142001.707, 80, 0, 1024, 1024, 1024, 1024, 0, 6, 3834, 3805, 3798, 3808, 3845, 3828, 0, 1, 8301, -90.000, 0.000, -34.600, 0.000, 0.000, -3.000, 0.0, , , , , , 98, , , 11, 11, 11
38.2001183, -120.0383145, 10.000, 09:20:01.806, 11, 0.00, 0.46, 98, -0.700, -0.400, -35.300, 330, 100, 100, 16, 22817, -24071, 5399, 5510, 10, 14, 1526142001.806, 95, 0, 1024, 1024, 1024, 1024, 0, 6, 3834, 3805, 3798, 3808, 3845, 3828, 0, 1, 8400, -90.000, 0.000, -34.600, 0.000, 0.000, -3.000, 0.0, , , , , , 98, , , 11, 11, 11
38.2001183, -120.0383144, 10.300, 09:20:01.907, 12, 0.00, 0.46, 98, -0.700, -0.600, -35.400, 330, 100, 100, 16, 22817, -24071, 5399, 5510, 10, 14, 1526142001.907, 97, 0, 1024, 1024, 1024, 1024, 0, 6, 3834, 3805, 3798, 3808, 3845, 3828, 0, 1, 8501, -90.000, 0.000, -34.600, 0.000, 0.000, -3.000, 0.0, , , , , , 98, , , 11, 11, 11
38.2001183, -120.0383143, 10.600, 09:20:02.007, 12, 0.00, 0.47, 98, -0.800, -0.800, -35.400, 330, 100, 100, 16, 22817, -24071, 5399, 5510, 10, 14, 1526142002.007, 96, 0, 1024, 1024, 1024, 1024, 0, 6, 3834, 3805, 3798, 3808, 3845, 3828, 0, 1, 8601, -90.000, 0.000, -34.600, 0.000, 0.000, -2.900, 0.0, , , , , , 98, , , 11, 11, 11
38.2001183, -120.0383142, 10.900, 09:20:02.106, 11, 0.00, 0.47, 98, -0.900, -0.700, -35.400, 330, 100, 99, 16, 22817, -24071, 5399, 5510, 10, 14, 1526142002.107, 65, 0, 1024, 1024, 1024, 1024, 0, 6, 3834, 3805, 3798, 3808, 3845, 3828, 0, 1, 8701, -89.900, 0.000, -34.600, 0.000, 0.000, -2.900, 0.0, , , , , , 98, , , 11, 11, 11
38.2001183, -120.0383142, 11.200, 09:20:02.207, 11, 0.00, 0.47, 98, -0.800, -0.600, -35.400, 330, 100, 99, 16, 22817, -24071, 5399, 5510, 10, 14, 1526142002.207, 68, 0, 1024, 1024, 1024, 1024, 0, 6, 3834, 3805, 3798, 3808, 3845, 3828, 0, 1, 8801, -89.900, 0.000, -34.600, 0.000, 0.000, -2.900, 0.0, , , , , , 98, , , 11, 11, 11
38.2001182, -120.0383142, 11.500, 09:20:02.307, 10, 0.10, 0.47, 98, -0.600, -0.400, -35.400, 330, 100, 99, 16, 22817, -24071, 5399, 5510, 10, 14, 1526142002.307, 87, 0, 1024, 1024, 1024, 1024, 0, 6, 3834, 3805, 3798, 3808, 3845, 3828, 0, 1, 8901, -89.900, 0.000, -34.600, 0.000, -0.100, -2.900, 0.1, , , , , , 98, , , 11, 11, 11
38.2001181, -120.0383141, 11.800, 09:20:02.407, 10, 0.00, 0.47, 98, -0.500, -0.300, -35.400, 330, 100, 99, 16, 22817, -24071, 5399, 5510, 10, 14, 1526142002.407, 51, 0, 1024, 1024, 1024, 1024, 0, 6, 3834, 3805, 3798, 3808, 3845, 3828, 0, 1, 9001, -90.000, 0.000, -34.600, 0.000, 0.000, -2.900, 0.0, , , , , , 98, , , 11, 11, 11
38.2001181, -120.0383141, 12.100, 09:20:02.507, 11, 0.00, 0.47, 98, -0.400, -0.400, -35.400, 330, 100, 99, 16, 23131, -18607, 5399, 5510, 10, 14, 1526142002.507, 65, 0, 1024, 1024, 1024, 1024, 0, 6, 3884, 3840, 3850, 3843, 3879, 3874, 0, 1, 9101, -89.900, 0.000, -34.600, 0.000, 0.000, -2.900, 0.0, , , , , , 98, , , 11, 11, 11
38.2001180, -120.0383141, 12.400, 09:20:02.607, 11, 0.10, 0.46, 98, -0.400, -0.600, -35.300, 330, 100, 98, 16, 23131, -18607, 5399, 5510, 10, 14, 1526142002.607, 39, 0, 1025, 1024, 1024, 1024, 0, 6, 3884, 3840, 3850, 3843, 3879, 3874, 0, 1, 9201, -89.900, 0.000, -34.600, 0.000, -0.100, -2.900, 0.1, , , , , , 98, , , 11, 11, 11
38.2001180, -120.0383141, 13.000, 09:20:02.707, 13, 0.10, 0.45, 98, -0.300, -0.600, -35.200, 330, 100, 98, 16, 23131, -18607, 5399, 5510, 10, 14, 1526142002.707, 29, 0, 1028, 1024, 1024, 1024, 0, 6, 3884, 3840, 3850, 3843, 3879, 3874, 0, 1, 9301, -90.000, 0.000, -34.600, 0.000, -0.100, -2.900, 0.1, , , , , , 98, , , 11, 11, 11
38.2001180, -120.0383141, 13.000, 09:20:02.807, 13, 0.10, 0.45, 98, -0.300, -0.600, -35.200, 330, 100, 98, 16, 23131, -18607, 5399, 5510, 10, 14, 1526142002.807, 129, 0, 1028, 1024, 1024, 1024, 0, 6, 3884, 3840, 3850, 3843, 3879, 3874, 0, 1, 9401, -90.000, 0.000, -34.600, 0.000, -0.100, -2.900, 0.1, , , , , , 98, , , 11, 11, 11
38.2001178, -120.0383143, 13.600, 09:20:02.906, 12, 0.10, 0.43, 98, 0.000, -0.500, -35.100, 330, 100, 98, 16, 23131, -18607, 5399, 5510, 10, 14, 1526142002.907, 44, 0, 1027, 1024, 1024, 1024, 0, 6, 3884, 3840, 3850, 3843, 3879, 3874, 0, 1, 9501, -89.900, 0.000, -34.600, 0.000, -0.100, -2.900, 0.1, , , , , , 98, , , 11, 11, 11
38.2001177, -120.0383144, 13.900, 09:20:03.007, 12, 0.10, 0.42, 98, 0.300, -0.400, -35.100, 330, 100, 98, 16, 23131, -18607, 5399, 5510, 10, 14, 1526142003.007, 47, 0, 1031, 1024, 1024, 1024, 0, 6, 3884, 3840, 3850, 3843, 3879, 3874, 0, 1, 9601, -90.000, 0.000, -34.600, 0.000, -0.100, -2.800, 0.1, , , , , , 98, , , 11, 11, 11
38.2001177, -120.0383145, 14.200, 09:20:03.107, 12, 0.10, 0.41, 98, 0.400, -0.500, -35.100, 330, 100, 98, 16, 23131, -18607, 5399, 5510, 10, 14, 1526142003.107, 49, 0, 1033, 1024, 1024, 1024, 0, 6, 3884, 3840, 3850, 3843, 3879, 3874, 0, 1, 9701, -90.000, 0.000, -34.600, 0.000, -0.100, -2.900, 0.1, , , , , , 98, , , 11, 11, 11
38.2001177, -120.0383145, 14.500, 09:20:03.206, 12, 0.10, 0.41, 98, 0.400, -0.500, -35.100, 330, 100, 98, 16, 23131, -18607, 5399, 5510, 10, 14, 1526142003.207, 12, 0, 1033, 1024, 1024, 1024, 0, 6, 3884, 3840, 3850, 3843, 3879, 3874, 0, 1, 9801, -90.000, 0.000, -34.600, 0.000, -0.100, -2.900, 0.1, , , , , , 98, , , 11, 11, 11
38.2001177, -120.0383145, 14.800, 09:20:03.306, 12, 0.10, 0.41, 98, 0.200, -0.400, -35.100, 330, 100, 98, 16, 23131, -18607, 5399, 5510, 10, 14, 1526142003.307, 34, 0, 1031, 1024, 1024, 1024, 0, 6, 3884, 3840, 3850, 3843, 3879, 3874, 0, 1, 9901, -89.900, 0.000, -34.600, 0.000, -0.100, -2.900, 0.1, , , , , , 98, , , 11, 11, 11
38.2001177, -120.0383146, 15.100, 09:20:03.407, 12, 0.10, 0.40, 98, 0.000, -0.300, -35.100, 330, 100, 98, 16, 23131, -18607, 5399, 5510, 10, 14, 1526142003.407, 26, 0, 1024, 1024, 1024, 1024, 0, 6, 3884, 3840, 3850, 3843, 3879, 3874, 0, 1, 10001, -89.900, 0.000, -34.600, 0.000, -0.100, -2.900, 0.1, , , , , , 98, , , 11, 11, 11
38.2001177, -120.0383147, 15.400, 09:20:03.507, 12, 0.10, 0.40, 98, -0.100, -0.200, -35.100, 330, 100, 98, 16, 23129, -18899, 5399, 5510, 10, 14, 1526142003.507, 15, 0, 1024, 1024, 1024, 1024, 0, 6, 3884, 3840, 3850, 3843, 3879, 3874, 0, 1, 10101, -89.900, 0.000, -34.600, 0.000, -0.100, -2.900, 0.1, , , , , , 98, , , 11, 11, 11
38.2001177, -120.0383147, 15.400, 09:20:03.607, 12, 0.10, 0.40, 98, -0.100, -0.200, -35.100, 330, 100, 98, 16, 23129, -18899, 5399, 5510, 10, 14, 1526142003.607, 115, 0, 1024, 1024, 1024, 1024, 0, 6, 3873, 3836, 3837, 3842, 3888, 3877, 0, 1, 10201, -89.900, 0.000, -34.600, 0.000, -0.100, -2.900, 0.1, , , , , , 98, , , 11, 11, 11
38.2001177, -120.0383150, 16.000, 09:20:03.713, 12, 0.10, 0.38, 98, 0.000, 0.100, -35.200, 330, 100, 99, 16, 23129, -18899, 5399, 5510, 10, 14, 1526142003.713, 5, 0, 1024, 1024, 1024, 1024, 0, 6, 3873, 3836, 3837, 3842, 3888, 3877, 0, 1, 10307, -89.900, 0.000, -34.600, 0.000, -0.100, -2.900, 0.1, , , , , , 98, , , 11, 11, 11
38.2001177, -120.0383151, 16.300, 09:20:03.807, 12, 0.10, 0.37, 98, 0.200, 0.300, -35.200, 330, 100, 99, 16, 23129, -18899, 5399, 5510, 10, 14, 1526142003.807, 17, 0, 1024, 1024, 1024, 1024, 0, 6, 3873, 3836, 3837, 3842, 3888, 3877, 0, 1, 10401, -89.900, 0.000, -34.600, 0.000, -0.100, -2.900, 0.1, , , , , , 98, , , 11, 11, 11
38.2001178, -120.0383152, 16.600, 09:20:03.907, 12, 0.10, 0.37, 98, 0.400, 0.400, -35.200, 330, 100, 99, 16, 23129, -18899, 5399, 5510, 10, 14, 1526142003.907, 18, 0, 1024, 1024, 1024, 1024, 0, 6, 3873, 3836, 3837, 3842, 3888, 3877, 0, 1, 10501, -89.900, 0.000, -34.600, 0.000, -0.100, -2.900, 0.1, , , , , , 98, , , 11, 11, 11
38.2001178, -120.0383153, 16.900, 09:20:04.007, 13, 0.10, 0.36, 98, 0.400, 0.300, -35.200, 330, 100, 98, 16, 23129, -18899, 5399, 5510, 10, 14, 1526142004.007, 19, 0, 1024, 1024, 1024, 1024, 0, 6, 3873, 3836, 3837, 3842, 3888, 3877, 0, 1, 10601, -89.900, 0.000, -34.600, 0.000, -0.100, -2.900, 0.1, , , , , , 98, , , 11, 11, 11
38.2001177, -120.0383154, 17.200, 09:20:04.111, 13, 0.10, 0.35, 98, 0.300, 0.300, -35.200, 330, 100, 98, 16, 23129, -18899, 5399, 5510, 10, 14, 1526142004.111, 7, 0, 1024, 1024, 1024, 1024, 0, 6, 3873, 3836, 3837, 3842, 3888, 3877, 0, 1, 10705, -89.900, 0.000, -34.600, 0.000, -0.100, -2.900, 0.1, , , , , , 98, , , 11, 11, 11
38.2001177, -120.0383156, 17.500, 09:20:04.210, 12, 0.10, 0.34, 98, 0.300, 0.200, -35.200, 330, 100, 98, 16, 23129, -18899, 5399, 5510, 10, 14, 1526142004.211, 5, 0, 1024, 1024, 1024, 1024, 0, 6, 3873, 3836, 3837, 3842, 3888, 3877, 0, 1, 10805, -89.900, 0.000, -34.600, 0.000, -0.100, -2.900, 0.1, , , , , , 98, , , 11, 11, 11
38.2001177, -120.0383156, 17.500, 09:20:04.307, 12, 0.10, 0.34, 98, 0.300, 0.200, -35.200, 330, 100, 98, 16, 23129, -18899, 5399, 5510, 10, 14, 1526142004.307, 101, 0, 1024, 1024, 1024, 1024, 0, 6, 3873, 3836, 3837, 3842, 3888, 3877, 0, 1, 10901, -89.900, 0.000, -34.600, 0.000, -0.100, -2.900, 0.1, , , , , , 98, , , 11, 11, 11
38.2001177, -120.0383157, 17.800, 09:20:04.407, 12, 0.10, 0.33, 98, 0.400, 0.100, -35.200, 330, 100, 98, 16, 23129, -18899, 5399, 5510, 10, 14, 1526142004.407, 98, 0, 1024, 1024, 1024, 1024, 0, 6, 3873, 3836, 3837, 3842, 3888, 3877, 0, 1, 11001, -89.900, 0.000, -34.600, 0.000, -0.100, -2.900, 0.1, , , , , , 98, , , 11, 11, 11
38.2001177, -120.0383158, 18.100, 09:20:04.507, 12, 0.10, 0.33, 98, 0.500, 0.200, -35.200, 330, 100, 98, 16, 23129, -18899, 5399, 5510, 10, 14, 1526142004.507, 75, 0, 1024, 1024, 1024, 1024, 0, 6, 3873, 3836, 3837, 3842, 3888, 3877, 0, 1, 11101, -89.900, 0.000, -34.600, 0.000, -0.100, -2.900, 0.1, , , , , , 98, , , 11, 11, 11
38.2001177, -120.0383158, 18.400, 09:20:04.606, 12, 0.00, 0.33, 98, 0.500, 0.300, -35.200, 330, 100, 98, 16, 23076, -18893, 5399, 5510, 10, 14, 1526142004.606, 90, 0, 1024, 1024, 1024, 1024, 0, 6, 3852, 3829, 3823, 3838, 3871, 3846, 0, 1, 11200, -89.900, 0.000, -34.600, 0.000, 0.000, -2.900, 0.0, , , , , , 98, , , 11, 11, 11
38.2001177, -120.0383159, 18.700, 09:20:04.706, 13, 0.00, 0.32, 98, 0.400, 0.200, -35.300, 330, 100, 98, 16, 23076, -18893, 5399, 5510, 10, 14, 1526142004.706, 91, 0, 1024, 1024, 1024, 1024, 0, 6, 3852, 3829, 3823, 3838, 3871, 3846, 0, 1, 11300, -89.900, 0.000, -34.600, 0.000, 0.000, -2.900, 0.0, , , , , , 98, , , 11, 11, 11
38.2001177, -120.0383159, 18.700, 09:20:04.807, 13, 0.00, 0.32, 98, 0.400, 0.200, -35.300, 330, 100, 98, 16, 23076, -18893, 5399, 5510, 10, 14, 1526142004.807, 192, 0, 1024, 1024, 1024, 1024, 0, 6, 3852, 3829, 3823, 3838, 3871, 3846, 0, 1, 11401, -90.000, 0.000, -34.600, 0.000, 0.000, -2.900, 0.0, , , , , , 98, , , 11, 11, 11
38.2001177, -120.0383161, 19.300, 09:20:04.907, 12, 0.00, 0.31, 98, 0.200, 0.000, -35.500, 330, 100, 98, 16, 23076, -18893, 5399, 5510, 10, 14, 1526142004.907, 37, 0, 1024, 1024, 1024, 1024, 0, 6, 3852, 3829, 3823, 3838, 3871, 3846, 0, 1, 11501, -89.900, 0.000, -34.600, 0.000, 0.000, -2.900, 0.0, , , , , , 98, , , 11, 11, 11
38.2001177, -120.0383161, 19.600, 09:20:05.006, 12, 0.00, 0.32, 98, 0.200, 0.100, -35.500, 330, 100, 98, 16, 23076, -18893, 5399, 5510, 10, 14, 1526142005.007, 47, 0, 1024, 1024, 1024, 1024, 0, 6, 3852, 3829, 3823, 3838, 3871, 3846, 0, 1, 11601, -89.900, 0.000, -34.600, 0.000, 0.000, -2.900, 0.0, , , , , , 98, , , 11, 11, 11
38.2001177, -120.0383161, 19.900, 09:20:05.107, 13, 0.00, 0.32, 98, 0.200, 0.100, -35.400, 330, 100, 99, 16, 23076, -18893, 5399, 5510, 10, 14, 1526142005.107, 71, 0, 1024, 1024, 1024, 1024, 0, 6, 3852, 3829, 3823, 3838, 3871, 3846, 0, 1, 11701, -90.000, 0.000, -34.600, 0.000, 0.000, -3.000, 0.0, , , , , , 98, , , 11, 11, 11
38.2001177, -120.0383162, 20.500, 09:20:05.207, 14, 0.00, 0.31, 98, 0.200, 0.000, -35.300, 330, 100, 99, 16, 23076, -18893, 5399, 5510, 10, 14, 1526142005.208, 43, 0, 1024, 1024, 1024, 1024, 0, 6, 3852, 3829, 3823, 3838, 3871, 3846, 0, 1, 11802, -90.000, 0.000, -34.600, 0.000, 0.000, -3.000, 0.0, , , , , , 98, , , 11, 11, 11
38.2001178, -120.0383162, 20.800, 09:20:05.307, 14, 0.00, 0.32, 98, 0.300, 0.000, -35.300, 330, 100, 99, 16, 23076, -18893, 5399, 5510, 10, 14, 1526142005.307, 58, 0, 1024, 1024, 1024, 1024, 0, 6, 3852, 3829, 3823, 3838, 3871, 3846, 0, 1, 11901, -90.000, 0.000, -34.600, 0.000, 0.000, -2.900, 0.0, , , , , , 98, , , 11, 11, 11
38.2001178, -120.0383162, 21.100, 09:20:05.407, 15, 0.00, 0.32, 98, 0.400, 0.000, -35.300, 330, 100, 99, 16, 23076, -18893, 5399, 5510, 10, 14, 1526142005.407, 62, 0, 1024, 1024, 1024, 1024, 0, 6, 3852, 3829, 3823, 3838, 3871, 3846, 0, 1, 12001, -89.900, 0.000, -34.600, 0.000, 0.000, -3.000, 0.0, , , , , , 98, , , 11, 11, 11
38.2001178, -120.0383162, 21.400, 09:20:05.506, 15, 0.00, 0.32, 98, 0.300, 0.000, -35.200, 330, 100, 99, 16, 23060, -18978, 5399, 5510, 10, 14, 1526142005.507, 31, 0, 1024, 1024, 1024, 1024, 0, 6, 3852, 3829, 3823, 3838, 3871, 3846, 0, 1, 12101, -89.900, 0.000, -34.600, 0.000, 0.000, -3.000, 0.0, , , , , , 98, , , 11, 11, 11
38.2001178, -120.0383163, 21.700, 09:20:05.607, 15, 0.00, 0.32, 98, 0.100, 0.100, -35.200, 330, 100, 100, 16, 23060, -18978, 5399, 5510, 10, 14, 1526142005.607, 39, 0, 1024, 1024, 1024, 1024, 0, 6, 3852, 3829, 3823, 3838, 3871, 3846, 0, 1, 12201, -89.900, 0.000, -34.600, 0.000, 0.000, -2.900, 0.0, , , , , , 98, , , 11, 11, 11
38.2001178, -120.0383163, 22.000, 09:20:05.707, 15, 0.00, 0.32, 98, 0.100, 0.000, -35.300, 330, 100, 100, 16, 23060, -18978, 5399, 5510, 10, 14, 1526142005.708, 46, 0, 1024, 1024, 1024, 1024, 0, 6, 3852, 3829, 3823, 3838, 3871, 3846, 0, 1, 12302, -90.000, 0.000, -34.600, 0.000, 0.000, -2.900, 0.0, , , , , , 98, , , 11, 11, 11
38.2001178, -120.0383163, 22.300, 09:20:05.807, 16, 0.00, 0.32, 98, 0.100, 0.000, -35.300, 330, 100, 100, 16, 23060, -18978, 5399, 5510, 10, 14, 1526142005.807, 24, 0, 1024, 1024, 1024, 1024, 0, 6, 3852, 3829, 3823, 3838, 3871, 3846, 0, 1, 12401, -90.000, 0.000, -34.600, 0.000, 0.000, -2.900, 0.0, , , , , , 98, , , 11, 11, 11
38.2001178, -120.0383162, 22.600, 09:20:05.907, 16, 0.00, 0.32, 98, 0.200, 0.000, -35.400, 330, 100, 100, 16, 23060, -18978, 5399, 5510, 10, 14, 1526142005.907, 30, 0, 1024, 1024, 1024, 1024, 0, 6, 3852, 3829, 3823, 3838, 3871, 3846, 0, 1, 12501, -89.900, 0.000, -34.600, 0.000, 0.000, -2.900, 0.0, , , , , , 98, , , 11, 11, 11
38.2001178, -120.0383162, 22.900, 09:20:06.009, 16, 0.00, 0.32, 98, 0.100, 0.100, -35.400, 330, 100, 100, 16, 23060, -18978, 5399, 5510, 10, 14, 1526142006.010, 5, 0, 1024, 1024, 1024, 1024, 0, 6, 3852, 3829, 3823, 3838, 3871, 3846, 0, 1, 12604, -89.900, 0.000, -34.600, 0.000, 0.000, -2.900, 0.0, , , , , , 98, , , 11, 11, 11
38.2001178, -120.0383162, 23.200, 09:20:06.107, 16, 0.00, 0.32, 98, 0.000, 0.100, -35.300, 330, 100, 99, 16, 23060, -18978, 5399, 5510, 10, 14, 1526142006.107, 17, 0, 1024, 1024, 1024, 1024, 0, 6, 3858, 3829, 3817, 3833, 3867, 3855, 0, 1, 12701, -89.900, 0.000, -34.600, 0.000, 0.000, -3.000, 0.0, , , , , , 98, , , 11, 11, 11
38.2001179, -120.0383162, 23.500, 09:20:06.214, 16, 0.00, 0.32, 98, 0.000, 0.100, -35.300, 330, 100, 99, 16, 23060, -18978, 5399, 5510, 10, 14, 1526142006.214, 9, 0, 1024, 1024, 1024, 1024, 0, 6, 3858, 3829, 3817, 3833, 3867, 3855, 0, 1, 12808, -89.900, 0.000, -34.600, 0.000, 0.000, -2.800, 0.0, , , , , , 98, , , 11, 11, 11
38.2001179, -120.0383162, 23.800, 09:20:06.310, 16, 0.00, 0.33, 98, 0.000, 0.000, -35.200, 330, 100, 99, 16, 23060, -18978, 5399, 5510, 10, 14, 1526142006.311, 5, 0, 1024, 1024, 1024, 1024, 0, 6, 3858, 3829, 3817, 3833, 3867, 3855, 0, 1, 12905, -90.000, 0.000, -34.600, 0.000, 0.000, -2.800, 0.0, , , , , , 98, , , 11, 11, 11
38.2001179, -120.0383162, 24.100, 09:20:06.407, 16, 0.00, 0.33, 98, 0.000, 0.000, -35.100, 330, 100, 99, 16, 23060, -18978, 5399, 5510, 10, 14, 1526142006.407, 6, 0, 1024, 1024, 1024, 1024, 0, 6, 3858, 3829, 3817, 3833, 3867, 3855, 0, 1, 13001, -90.000, 0.000, -34.600, 0.000, 0.000, -2.900, 0.0, , , , , , 98, , , 11, 11, 11
38.2001179, -120.0383162, 24.100, 09:20:06.506, 16, 0.00, 0.33, 98, 0.000, 0.000, -35.100, 330, 100, 99, 16, 23060, -18978, 5399, 5510, 10, 14, 1526142006.506, 105, 0, 1024, 1024, 1024, 1024, 0, 6, 3858, 3829, 3817, 3833, 3867, 3855, 0, 1, 13100, -90.000, 0.000, -34.600, 0.000, 0.000, -2.900, 0.0, , , , , , 98, , , 11, 11, 11
38.2001180, -120.0383161, 24.700, 09:20:06.606, 16, 0.00, 0.34, 98, 0.000, -0.100, -35.000, 330, 100, 98, 16, 23060, -18978, 5399, 5510, 10, 14, 1526142006.607, 14, 0, 1024, 1024, 1024, 1024, 0, 6, 3858, 3829, 3817, 3833, 3867, 3855, 0, 1, 13201, -90.000, 0.000, -34.600, 0.000, 0.000, -2.900, 0.0, , , , , , 98, , , 11, 11, 11
38.2001180, -120.0383161, 24.700, 09:20:06.707, 16, 0.00, 0.34, 98, 0.000, -0.100, -35.000, 330, 100, 98, 16, 23060, -18978, 5399, 5510, 10, 14, 1526142006.707, 114, 0, 1024, 1024, 1024, 1024, 0, 6, 3858, 3829, 3817, 3833, 3867, 3855, 0, 1, 13301, -90.000, 0.000, -34.600, 0.000, 0.000, -2.900, 0.0, , , , , , 98, , , 11, 11, 11
38.2001179, -120.0383161, 25.300, 09:20:06.819, 16, 0.00, 0.34, 98, 0.200, 0.000, -35.100, 330, 100, 98, 16, 23060, -18978, 5399, 5510, 10, 14, 1526142006.820, 5, 0, 1024, 1024, 1024, 1024, 0, 6, 3858, 3829, 3817, 3833, 3867, 3855, 0, 1, 13414, -89.900, 0.000, -34.600, 0.000, 0.000, -2.900, 0.0, , , , , , 98, , , 11, 11, 11
38.2001179, -120.0383161, 25.300, 09:20:06.907, 16, 0.00, 0.34, 98, 0.200, 0.000, -35.100, 330, 100, 98, 16, 23060, -18978, 5399, 5510, 10, 14, 1526142006.907, 92, 0, 1024, 1024, 1024, 1024, 0, 6, 3858, 3829, 3817, 3833, 3867, 3855, 0, 1, 13501, -89.900, 0.000, -34.600, 0.000, 0.000, -2.900, 0.0, , , , , , 98, , , 11, 11, 11
38.2001180, -120.0383161, 25.500, 09:20:07.007, 16, 0.00, 0.34, 98, 0.200, 0.000, -35.200, 330, 100, 98, 16, 23068, -18246, 5399, 5510, 10, 14, 1526142007.007, 79, 0, 1024, 1024, 1024, 1024, 0, 6, 3861, 3824, 3821, 3835, 3874, 3857, 0, 1, 13601, -89.900, 0.000, -34.600, 0.000, 0.000, -2.900, 0.0, , , , , , 98, , , 11, 11, 11
38.2001180, -120.0383160, 25.900, 09:20:07.107, 16, 0.00, 0.35, 98, 0.000, 0.000, -35.300, 330, 100, 99, 16, 23068, -18246, 5399, 5510, 10, 14, 1526142007.107, 81, 0, 1024, 1024, 1024, 1024, 0, 6, 3861, 3824, 3821, 3835, 3874, 3857, 0, 1, 13701, -89.900, 0.000, -34.600, 0.000, 0.000, -3.000, 0.0, , , , , , 98, , , 11, 11, 11
38.2001180, -120.0383159, 26.200, 09:20:07.207, 16, 0.00, 0.35, 98, 0.000, 0.000, -35.300, 330, 100, 99, 16, 23068, -18246, 5399, 5510, 10, 14, 1526142007.208, 44, 0, 1024, 1024, 1024, 1024, 0, 6, 3861, 3824, 3821, 3835, 3874, 3857, 0, 1, 13802, -89.900, 0.000, -34.600, 0.000, 0.000, -3.000, 0.0, , , , , , 98, , , 11, 11, 11
38.2001180, -120.0383159, 26.500, 09:20:07.307, 16, 0.00, 0.35, 98, 0.000, 0.000, -35.200, 330, 100, 99, 16, 23068, -18246, 5399, 5510, 10, 14, 1526142007.307, 68, 0, 1024, 1024, 1024, 1024, 0, 6, 3861, 3824, 3821, 3835, 3874, 3857, 0, 1, 13901, -90.000, 0.000, -34.600, 0.000, 0.000, -2.900, 0.0, , , , , , 98, , , 11, 11, 11
38.2001180, -120.0383158, 27.100, 09:20:07.407, 16, 0.00, 0.36, 98, 0.000, -0.200, -35.100, 330, 100, 99, 16, 23068, -18246, 5399, 5510, 10, 14, 1526142007.407, 60, 0, 1024, 1024, 1024, 1024, 0, 6, 3861, 3824, 3821, 3835, 3874, 3857, 0, 1, 14001, -90.000, 0.000, -34.600, 0.000, 0.000, -3.000, 0.0, , , , , , 98, , , 11, 11, 11
38.2001180, -120.0383157, 27.400, 09:20:07.507, 16, 0.00, 0.36, 98, 0.000, -0.200, -35.100, 330, 100, 99, 16, 23068, -18246, 5399, 5510, 10, 14, 1526142007.507, 56, 0, 1024, 1024, 1024, 1024, 0, 6, 3861, 3824, 3821, 3835, 3874, 3857, 0, 1, 14101, -90.000, 0.000, -34.600, 0.000, 0.000, -2.900, 0.0, , , , , , 98, , , 11, 11, 11
38.2001180, -120.0383157, 27.700, 09:20:07.607, 16, 0.00, 0.37, 98, 0.000, -0.200, -35.100, 330, 100, 98, 16, 23068, -18246, 5399, 5510, 10, 14, 1526142007.607, 57, 0, 1024, 1024, 1024, 1024, 0, 6, 3861, 3824, 3821, 3835, 3874, 3857, 0, 1, 14201, -90.000, 0.000, -34.600, 0.000, 0.000, -2.900, 0.0, , , , , , 98, , , 11, 11, 11
38.2001180, -120.0383156, 27.900, 09:20:07.706, 16, 0.00, 0.37, 98, 0.000, -0.300, -35.100, 330, 100, 98, 16, 23068, -18246, 5399, 5510, 10, 14, 1526142007.707, 46, 0, 1024, 1024, 1024, 1024, 0, 6, 3861, 3824, 3821, 3835, 3874, 3857, 0, 1, 14301, -90.000, 0.000, -34.600, 0.000, 0.000, -2.900, 0.0, , , , , , 98, , , 11, 11, 11
38.2001181, -120.0383156, 28.200, 09:20:07.807, 17, 0.00, 0.37, 98, 0.000, -0.200, -35.200, 330, 100, 98, 16, 23068, -18246, 5399, 5510, 10, 14, 1526142007.807, 41, 0, 1024, 1024, 1024, 1024, 0, 6, 3861, 3824, 3821, 3835, 3874, 3857, 0, 1, 14401, -89.900, 0.000, -34.600, 0.000, 0.000, -3.000, 0.0, , , , , , 98, , , 11, 11, 11
38.2001181, -120.0383155, 28.500, 09:20:07.907, 17, 0.00, 0.38, 98, 0.000, -0.200, -35.200, 330, 100, 98, 16, 23068, -18246, 5399, 5510, 10, 14, 1526142007.907, 33, 0, 1024, 1024, 1024, 1024, 0, 6, 3861, 3824, 3821, 3835, 3874, 3857, 0, 1, 14501, -89.900, 0.000, -34.600, 0.000, 0.000, -2.900, 0.0, , , , , , 98, , , 11, 11, 11
38.2001181, -120.0383155, 28.800, 09:20:08.007, 17, 0.00, 0.39, 98, -0.100, -0.100, -35.200, 330, 100, 98, 16, 23015, -18738, 5399, 5510, 10, 14, 1526142008.007, 24, 0, 1024, 1024, 1024, 1024, 0, 6, 3861, 3824, 3821, 3835, 3874, 3857, 0, 1, 14601, -89.900, 0.000, -34.600, 0.000, 0.000, -2.900, 0.0, , , , , , 98, , , 11, 11, 11
38.2001181, -120.0383154, 29.100, 09:20:08.106, 17, 0.00, 0.39, 98, -0.200, -0.100, -35.200, 330, 100, 97, 16, 23015, -18738, 5399, 5510, 10, 14, 1526142008.107, 10, 0, 1024, 1024, 1024, 1024, 0, 6, 3848, 3819, 3814, 3825, 3867, 3845, 0, 1, 14701, -89.900, 0.000, -34.600, 0.000, 0.000, -2.900, 0.0, , , , , , 98, , , 11, 11, 11
38.2001181, -120.0383153, 29.400, 09:20:08.206, 16, 0.00, 0.39, 98, -0.300, 0.000, -35.200, 330, 100, 97, 16, 23015, -18738, 5399, 5510, 10, 14, 1526142008.207, 25, 0, 1024, 1024, 1024, 1024, 0, 6, 3848, 3819, 3814, 3825, 3867, 3845, 0, 1, 14801, -89.900, 0.000, -34.600, 0.000, 0.000, -2.900, 0.0, , , , , , 98, , , 11, 11, 11
38.2001182, -120.0383153, 29.700, 09:20:08.307, 16, 0.00, 0.40, 98, -0.200, -0.100, -35.200, 330, 100, 97, 16, 23015, -18738, 5399, 5510, 10, 14, 1526142008.307, 24, 0, 1024, 1024, 1024, 1024, 0, 6, 3848, 3819, 3814, 3825, 3867, 3845, 0, 1, 14901, -89.900, 0.000, -34.600, 0.000, 0.000, -2.900, 0.0, , , , , , 98, , , 11, 11, 11
38.2001182, -120.0383152, 30.000, 09:20:08.407, 17, 0.00, 0.40, 98, -0.300, -0.100, -35.200, 330, 100, 97, 16, 23015, -18738, 5399, 5510, 10, 14, 1526142008.407, 16, 0, 1024, 1024, 1024, 1024, 0, 6, 3848, 3819, 3814, 3825, 3867, 3845, 0, 1, 15001, -89.900, 0.000, -34.600, 0.000, 0.000, -2.900, 0.0, , , , , , 98, , , 11, 11, 11
38.2001182, -120.0383152, 30.000, 09:20:08.508, 17, 0.00, 0.40, 98, -0.300, -0.100, -35.200, 330, 100, 97, 16, 23015, -18738, 5399, 5510, 10, 14, 1526142008.508, 116, 0, 1024, 1024, 1024, 1024, 0, 6, 3848, 3819, 3814, 3825, 3867, 3845, 0, 1, 15102, -90.000, 0.000, -34.600, 0.000, 0.000, -2.900, 0.0, , , , , , 98, , , 11, 11, 11
38.2001182, -120.0383152, 30.600, 09:20:08.607, 17, 0.00, 0.41, 98, -0.200, -0.100, -35.200, 330, 100, 96, 16, 23015, -18738, 5399, 5510, 10, 14, 1526142008.608, 26, 0, 1024, 1024, 1024, 1024, 0, 6, 3848, 3819, 3814, 3825, 3867, 3845, 0, 1, 15202, -89.900, 0.000, -34.600, 0.000, 0.000, -2.900, 0.0, , , , , , 98, , , 11, 11, 11
38.2001182, -120.0383152, 30.900, 09:20:08.707, 17, 0.00, 0.41, 98, -0.100, -0.100, -35.200, 330, 100, 96, 16, 23015, -18738, 5399, 5510, 10, 14, 1526142008.708, 13, 0, 1024, 1024, 1024, 1024, 0, 6, 3848, 3819, 3814, 3825, 3867, 3845, 0, 1, 15302, -89.900, 0.000, -34.600, 0.000, 0.000, -3.000, 0.0, , , , , , 98, , , 11, 11, 11
38.2001182, -120.0383152, 30.900, 09:20:08.807, 17, 0.00, 0.41, 98, -0.100, -0.100, -35.200, 330, 100, 96, 16, 23015, -18738, 5399, 5510, 10, 14, 1526142008.808, 113, 0, 1024, 1024, 1024, 1024, 0, 6, 3848, 3819, 3814, 3825, 3867, 3845, 0, 1, 15402, -89.900, 0.000, -34.600, 0.000, 0.000, -3.000, 0.0, , , , , , 98, , , 11, 11, 11
38.2001182, -120.0383151, 31.500, 09:20:08.907, 17, 0.00, 0.41, 98, -0.100, 0.000, -35.200, 330, 100, 96, 16, 23015, -18738, 5399, 5510, 10, 14, 1526142008.907, 14, 0, 1024, 1024, 1024, 1024, 0, 6, 3848, 3819, 3814, 3825, 3867, 3845, 0, 1, 15501, -89.900, 0.000, -34.600, 0.000, 0.000, -3.000, 0.0, , , , , , 98, , , 11, 11, 11
38.2001182, -120.0383151, 31.500, 09:20:09.007, 17, 0.00, 0.41, 98, -0.100, 0.000, -35.200, 330, 100, 96, 16, 23015, -18738, 5399, 5510, 10, 14, 1526142009.007, 114, 0, 1024, 1024, 1024, 1024, 0, 6, 3848, 3819, 3814, 3825, 3867, 3845, 0, 1, 15601, -89.900, 0.000, -34.600, 0.000, 0.000, -3.000, 0.0, , , , , , 98, , , 11, 11, 11
38.2001182, -120.0383151, 31.800, 09:20:09.107, 17, 0.00, 0.41, 98, -0.200, -0.100, -35.200, 330, 100, 99, 16, 23002, -18709, 5399, 5510, 10, 14, 1526142009.107, 80, 0, 1024, 1024, 1024, 1024, 0, 6, 3853, 3820, 3817, 3811, 3860, 3837, 0, 1, 15701, -90.000, 0.000, -34.600, 0.000, 0.000, -3.000, 0.0, , , , , , 98, , , 11, 11, 11
38.2001182, -120.0383151, 32.100, 09:20:09.207, 17, 0.00, 0.41, 98, -0.200, -0.100, -35.300, 330, 100, 99, 16, 23002, -18709, 5399, 5510, 10, 14, 1526142009.207, 65, 0, 1024, 1024, 1024, 1024, 0, 6, 3853, 3820, 3817, 3811, 3860, 3837, 0, 1, 15801, -90.000, 0.000, -34.600, 0.000, 0.000, -3.000, 0.0, , , , , , 98, , , 11, 11, 11
38.2001182, -120.0383151, 32.400, 09:20:09.307, 17, 0.00, 0.41, 98, -0.200, -0.100, -35.300, 330, 100, 99, 16, 23002, -18709, 5399, 5510, 10, 14, 1526142009.307, 88, 0, 1024, 1024, 1024, 1024, 0, 6, 3853, 3820, 3817, 3811, 3860, 3837, 0, 1, 15901, -89.900, 0.000, -34.600, 0.000, 0.000, -2.900, 0.0, , , , , , 98, , , 11, 11, 11
38.2001182, -120.0383151, 32.700, 09:20:09.407, 17, 0.10, 0.41, 98, -0.100, -0.100, -35.300, 330, 100, 99, 16, 23002, -18709, 5399, 5510, 10, 14, 1526142009.407, 91, 0, 1024, 1024, 1024, 1024, 0, 6, 3853, 3820, 3817, 3811, 3860, 3837, 0, 1, 16001, -90.000, 0.000, -34.600, 0.000, -0.100, -3.000, 0.0, , , , , , 98, , , 11, 11, 11
38.2001181, -120.0383151, 33.100, 09:20:09.507, 17, 0.10, 0.41, 98, 0.000, -0.100, -35.200, 330, 100, 99, 16, 23002, -18709, 5399, 5510, 10, 14, 1526142009.507, 67, 0, 1024, 1024, 1024, 1024, 0, 6, 3853, 3820, 3817, 3811, 3860, 3837, 0, 1, 16101, -89.900, 0.000, -34.600, 0.000, -0.100, -3.000, 0.0, , , , , , 98, , , 11, 11, 11
38.2001181, -120.0383151, 33.400, 09:20:09.607, 17, 0.10, 0.41, 98, 0.100, -0.100, -35.200, 330, 100, 99, 16, 23002, -18709, 5399, 5510, 10, 14, 1526142009.607, 82, 0, 1024, 1024, 1024, 1024, 0, 6, 3853, 3820, 3817, 3811, 3860, 3837, 0, 1, 16201, -89.900, 0.000, -34.600, 0.000, -0.100, -3.000, 0.0, , , , , , 98, , , 11, 11, 11
38.2001181, -120.0383151, 33.700, 09:20:09.707, 17, 0.10, 0.40, 98, 0.300, -0.100, -35.100, 330, 100, 99, 16, 23002, -18709, 5399, 5510, 10, 14, 1526142009.707, 74, 0, 1024, 1024, 1024, 1024, 0, 6, 3853, 3820, 3817, 3811, 3860, 3837, 0, 1, 16301, -89.900, 0.000, -34.600, 0.000, -0.100, -3.000, 0.0, , , , , , 98, , , 11, 11, 11
38.2001181, -120.0383151, 34.000, 09:20:09.806, 17, 0.10, 0.40, 98, 0.400, 0.000, -35.200, 330, 100, 99, 16, 23002, -18709, 5399, 5510, 10, 14, 1526142009.807, 78, 0, 1024, 1024, 1024, 1024, 0, 6, 3853, 3820, 3817, 3811, 3860, 3837, 0, 1, 16401, -89.900, 0.000, -34.600, 0.000, -0.100, -2.900, 0.0, , , , , , 98, , , 11, 11, 11
38.2001181, -120.0383151, 34.300, 09:20:09.906, 17, 0.10, 0.40, 98, 0.400, 0.000, -35.200, 330, 100, 99, 16, 23002, -18709, 5399, 5510, 10, 14, 1526142009.907, 42, 0, 1024, 1024, 1024, 1024, 0, 6, 3853, 3820, 3817, 3811, 3860, 3837, 0, 1, 16501, -89.900, 0.000, -34.600, 0.000, -0.100, -2.900, 0.0, , , , , , 98, , , 11, 11, 11
38.2001181, -120.0383151, 34.800, 09:20:10.007, 17, 0.10, 0.40, 98, 0.400, 0.000, -35.400, 330, 100, 99, 16, 23002, -18709, 5399, 5510, 10, 14, 1526142010.007, 70, 0, 1024, 1024, 1024, 1024, 0, 6, 3853, 3820, 3817, 3811, 3860, 3837, 0, 1, 16601, -89.900, 0.000, -34.600, 0.000, -0.100, -2.900, 0.0, , , , , , 98, , , 11, 11, 11
38.2001181, -120.0383151, 35.100, 09:20:10.107, 17, 0.00, 0.40, 98, 0.300, 0.100, -35.400, 330, 100, 93, 16, 23002, -18709, 5399, 5510, 10, 14, 1526142010.107, 55, 0, 1024, 1024, 1024, 1024, 0, 6, 3853, 3820, 3817, 3811, 3860, 3837, 0, 1, 16701, -89.900, 0.000, -34.600, 0.000, 0.000, -2.900, 0.0, , , , , , 98, , , 11, 11, 11
38.2001181, -120.0383151, 35.400, 09:20:10.207, 17, 0.00, 0.41, 98, 0.100, 0.200, -35.400, 330, 100, 93, 16, 23002, -18709, 5399, 5510, 10, 14, 1526142010.207, 41, 0, 1024, 1024, 1024, 1024, 0, 6, 3853, 3820, 3817, 3811, 3860, 3837, 0, 1, 16801, -89.900, 0.000, -34.600, 0.000, 0.000, -3.000, 0.0, , , , , , 98, , , 11, 11, 11
38.2001181, -120.0383151, 35.700, 09:20:10.307, 17, 0.00, 0.41, 98, 0.000, 0.200, -35.400, 330, 100, 93, 16, 23002, -18709, 5399, 5510, 10, 14, 1526142010.307, 31, 0, 1024, 1024, 1024, 1024, 0, 6, 3853, 3820, 3817, 3811, 3860, 3837, 0, 1, 16901, -89.900, 0.000, -34.600, 0.000, 0.000, -3.000, 0.0, , , , , , 98, , , 11, 11, 11
38.2001181, -120.0383151, 36.000, 09:20:10.406, 17, 0.00, 0.40, 98, 0.000, 0.100, -35.300, 330, 100, 93, 16, 23002, -18709, 5399, 5510, 10, 14, 1526142010.407, 45, 0, 1024, 1024, 1024, 1024, 0, 6, 3853, 3820, 3817, 3811, 3860, 3837, 0, 1, 17001, -89.900, 0.000, -34.600, 0.000, 0.000, -3.000, 0.0, , , , , , 98, , , 11, 11, 11
38.2001181, -120.0383151, 36.300, 09:20:10.507, 17, 0.00, 0.40, 97, 0.000, 0.000, -35.200, 330, 100, 93, 16, 22959, -18642, 5344, 5510, 10, 14, 1526142010.507, 43, 0, 1024, 1024, 1024, 1024, 0, 6, 3839, 3805, 3813, 3819, 3873, 3829, 0, 1, 17101, -90.000, 0.000, -34.600, 0.000, 0.000, -3.000, 0.0, , , , , , 98, , , 11, 11, 11
38.2001181, -120.0383151, 36.600, 09:20:10.607, 17, 0.00, 0.40, 97, 0.000, 0.000, -35.100, 330, 100, 94, 16, 22959, -18642, 5344, 5510, 10, 14, 1526142010.608, 10, 0, 1024, 1024, 1024, 1024, 0, 6, 3839, 3805, 3813, 3819, 3873, 3829, 0, 1, 17202, -89.900, 0.000, -34.600, 0.000, 0.000, -3.000, 0.0, , , , , , 98, , , 11, 11, 11
38.2001180, -120.0383151, 36.900, 09:20:10.707, 17, 0.00, 0.40, 97, 0.200, -0.100, -35.000, 330, 100, 94, 16, 22959, -18642, 5344, 5510, 10, 14, 1526142010.707, 4, 0, 1024, 1024, 1024, 1024, 0, 6, 3839, 3805, 3813, 3819, 3873, 3829, 0, 1, 17301, -90.000, 0.000, -34.600, 0.000, 0.000, -3.000, 0.0, , , , , , 98, , , 11, 11, 11
38.2001180, -120.0383152, 37.200, 09:20:10.807, 17, 0.00, 0.39, 97, 0.400, -0.300, -34.900, 330, 100, 94, 16, 22959, -18642, 5344, 5510, 10, 14, 1526142010.807, 31, 0, 1024, 1024, 1024, 1024, 0, 6, 3839, 3805, 3813, 3819, 3873, 3829, 0, 1, 17401, -90.000, 0.000, -34.600, 0.000, 0.000, -3.000, 0.0, , , , , , 98, , , 11, 11, 11
38.2001180, -120.0383151, 37.500, 09:20:10.913, 17, 0.00, 0.39, 97, 0.600, -0.400, -34.900, 330, 100, 94, 16, 22959, -18642, 5344, 5510, 10, 14, 1526142010.913, 6, 0, 1024, 1024, 1024, 1024, 0, 6, 3839, 3805, 3813, 3819, 3873, 3829, 0, 1, 17507, -89.900, 0.000, -34.600, 0.000, 0.000, -2.900, 0.0, , , , , , 98, , , 11, 11, 11
38.2001179, -120.0383151, 37.800, 09:20:11.013, 17, 0.00, 0.39, 97, 0.500, -0.400, -34.900, 330, 100, 95, 17, 22957, -18434, 5344, 5510, 10, 14, 1526142011.014, 14, 0, 1024, 1024, 1024, 1024, 0, 6, 3839, 3805, 3813, 3819, 3873, 3829, 0, 1, 17608, -89.900, 0.000, -34.600, 0.000, 0.000, -3.000, 0.0, , , , , , 98, , , 11, 11, 11
38.2001179, -120.0383152, 38.200, 09:20:11.110, 17, 0.00, 0.39, 97, 0.400, -0.300, -35.000, 330, 100, 95, 17, 22957, -18434, 5344, 5510, 10, 14, 1526142011.110, 10, 0, 1024, 1024, 1024, 1024, 0, 6, 3839, 3805, 3813, 3819, 3873, 3829, 0, 1, 17704, -90.000, 0.000, -34.600, 0.000, 0.000, -3.000, 0.0, , , , , , 98, , , 11, 11, 11
38.2001179, -120.0383152, 38.500, 09:20:11.207, 17, 0.00, 0.38, 97, 0.300, -0.400, -35.100, 330, 100, 95, 17, 22957, -18434, 5344, 5510, 10, 14, 1526142011.208, 11, 0, 1024, 1024, 1024, 1024, 0, 6, 3839, 3805, 3813, 3819, 3873, 3829, 0, 1, 17802, -90.000, 0.000, -34.600, 0.000, 0.000, -3.000, 0.0, , , , , , 98, , , 11, 11, 11
38.2001179, -120.0383152, 38.500, 09:20:11.307, 17, 0.00, 0.38, 97, 0.300, -0.400, -35.100, 330, 100, 95, 17, 22957, -18434, 5344, 5510, 10, 14, 1526142011.307, 111, 0, 1024, 1024, 1024, 1024, 0, 6, 3839, 3805, 3813, 3819, 3873, 3829, 0, 1, 17901, -90.000, 0.000, -34.600, 0.000, 0.000, -3.000, 0.0, , , , , , 98, , , 11, 11, 11
38.2001179, -120.0383152, 39.100, 09:20:11.407, 17, 0.00, 0.38, 97, 0.100, -0.300, -35.300, 330, 100, 95, 17, 22957, -18434, 5344, 5510, 10, 14, 1526142011.408, 4, 0, 1024, 1024, 1024, 1024, 0, 6, 3839, 3805, 3813, 3819, 3873, 3829, 0, 1, 18002, -89.900, 0.000, -34.600, 0.000, 0.000, -3.000, 0.0, , , , , , 98, , , 11, 11, 11
38.2001179, -120.0383152, 39.100, 09:20:11.506, 17, 0.00, 0.38, 97, 0.100, -0.300, -35.300, 330, 100, 95, 17, 22957, -18434, 5344, 5510, 10, 14, 1526142011.506, 103, 0, 1024, 1024, 1024, 1024, 0, 6, 3839, 3805, 3813, 3819, 3873, 3829, 0, 1, 18100, -89.900, 0.000, -34.600, 0.000, 0.000, -3.000, 0.0, , , , , , 98, , , 11, 11, 11
38.2001179, -120.0383152, 39.300, 09:20:11.606, 17, 0.00, 0.38, 97, 0.200, -0.200, -35.400, 330, 100, 100, 17, 22957, -18434, 5344, 5510, 10, 14, 1526142011.606, 93, 0, 1024, 1024, 1024, 1024, 0, 6, 3834, 3800, 3807, 3808, 3859, 3830, 0, 1, 18201, -89.900, 0.000, -34.600, 0.000, 0.000, -2.900, 0.0, , , , , , 98, , , 11, 11, 11
38.2001179, -120.0383152, 39.700, 09:20:11.706, 17, 0.00, 0.38, 97, 0.100, -0.100, -35.500, 330, 100, 100, 17, 22957, -18434, 5344, 5510, 10, 14, 1526142011.707, 68, 0, 1024, 1024, 1024, 1024, 0, 6, 3834, 3800, 3807, 3808, 3859, 3830, 0, 1, 18301, -89.900, 0.000, -34.600, 0.000, 0.000, -3.000, 0.0, , , , , , 98, , , 11, 11, 11
38.2001180, -120.0383152, 40.000, 09:20:11.807, 17, 0.00, 0.39, 97, 0.200, 0.000, -35.500, 330, 100, 100, 17, 22957, -18434, 5344, 5510, 10, 14, 1526142011.807, 71, 0, 1024, 1024, 1024, 1024, 0, 6, 3834, 3800, 3807, 3808, 3859, 3830, 0, 1, 18401, -89.900, 0.000, -34.600, 0.000, 0.000, -2.900, 0.0, , , , , , 98, , , 11, 11, 11
38.2001180, -120.0383152, 40.300, 09:20:11.907, 17, 0.00, 0.39, 97, 0.200, 0.100, -35.500, 330, 100, 100, 17, 22957, -18434, 5344, 5510, 10, 14, 1526142011.907, 74, 0, 1024, 1024, 1024, 1024, 0, 6, 3834, 3800, 3807, 3808, 3859, 3830, 0, 1, 18501, -89.900, 0.000, -34.600, 0.000, 0.000, -3.000, 0.0, , , , , , 98, , , 11, 11, 11
38.2001180, -120.0383152, 40.600, 09:20:12.007, 17, 0.00, 0.39, 97, 0.200, 0.100, -35.400, 330, 100, 100, 17, 22957, -18434, 5344, 5510, 10, 14, 1526142012.007, 59, 0, 1024, 1024, 1024, 1024, 0, 6, 3834, 3800, 3807, 3808, 3859, 3830, 0, 1, 18601, -89.900, 0.000, -34.600, 0.000, 0.000, -3.000, 0.0, , , , , , 98, , , 11, 11, 11
38.2001181, -120.0383153, 40.900, 09:20:12.107, 17, 0.00, 0.39, 97, 0.100, 0.100, -35.300, 330, 100, 98, 17, 22957, -18434, 5344, 5510, 10, 14, 1526142012.107, 74, 0, 1024, 1024, 1024, 1024, 0, 6, 3834, 3800, 3807, 3808, 3859, 3830, 0, 1, 18701, -90.000, 0.000, -34.600, 0.000, 0.000, -3.000, 0.0, , , , , , 98, , , 11, 11, 11
38.2001181, -120.0383152, 41.500, 09:20:12.207, 17, 0.00, 0.40, 97, 0.100, 0.000, -35.200, 330, 100, 98, 17, 22957, -18434, 5344, 5510, 10, 14, 1526142012.207, 48, 0, 1024, 1024, 1024, 1024, 0, 6, 3834, 3800, 3807, 3808, 3859, 3830, 0, 1, 18801, -89.900, 0.000, -34.600, 0.000, 0.000, -2.900, 0.0, , , , , , 98, , , 11, 11, 11
38.2001182, -120.0383152, 41.800, 09:20:12.307, 17, 0.00, 0.40, 97, 0.000, 0.000, -35.200, 330, 100, 98, 17, 22957, -18434, 5344, 5510, 10, 14, 1526142012.307, 65, 0, 1024, 1024, 1024, 1024, 0, 6, 3834, 3800, 3807, 3808, 3859, 3830, 0, 1, 18901, -90.000, 0.000, -34.600, 0.000, 0.000, -2.900, 0.0, , , , , , 98, , , 11, 11, 11
38.2001182, -120.0383152, 42.100, 09:20:12.407, 17, 0.00, 0.40, 97, -0.100, -0.100, -35.200, 330, 100, 98, 17, 22957, -18434, 5344, 5510, 10, 14, 1526142012.408, 45, 0, 1024, 1024, 1024, 1024, 0, 6, 3834, 3800, 3807, 3808, 3859, 3830, 0, 1, 19002, -89.900, 0.000, -34.600, 0.000, 0.000, -2.900, 0.0, , , , , , 98, , , 11, 11, 11
38.2001182, -120.0383152, 42.400, 09:20:12.506, 17, 0.00, 0.40, 97, -0.100, -0.200, -35.200, 330, 100, 98, 17, 22977, -18223, 5344, 5510, 10, 14, 1526142012.507, 41, 0, 1024, 1024, 1024, 1024, 0, 6, 3840, 3804, 3812, 3813, 3866, 3832, 0, 1, 19101, -90.000, 0.000, -34.600, 0.000, 0.000, -2.900, 0.0, , , , , , 98, , , 11, 11, 11
38.2001182, -120.0383153, 42.700, 09:20:12.607, 17, 0.00, 0.40, 97, -0.100, -0.200, -35.200, 330, 100, 98, 17, 22977, -18223, 5344, 5510, 10, 14, 1526142012.607, 58, 0, 1024, 1024, 1024, 1024, 0, 6, 3840, 3804, 3812, 3813, 3866, 3832, 0, 1, 19201, -90.000, 0.000, -34.600, 0.000, 0.000, -3.000, 0.0, , , , , , 98, , , 11, 11, 11
38.2001182, -120.0383153, 43.000, 09:20:12.706, 17, 0.00, 0.40, 97, 0.000, -0.100, -35.200, 330, 100, 98, 17, 22977, -18223, 5344, 5510, 10, 14, 1526142012.707, 34, 0, 1024, 1024, 1024, 1024, 0, 6, 3840, 3804, 3812, 3813, 3866, 3832, 0, 1, 19301, -89.900, 0.000, -34.600, 0.000, 0.000, -2.900, 0.0, , , , , , 98, , , 11, 11, 11
38.2001182, -120.0383153, 43.300, 09:20:12.807, 17, 0.00, 0.40, 97, 0.000, 0.000, -35.200, 330, 100, 98, 17, 22977, -18223, 5344, 5510, 10, 14, 1526142012.807, 36, 0, 1024, 1024, 1024, 1024, 0, 6, 3840, 3804, 3812, 3813, 3866, 3832, 0, 1, 19401, -89.900, 0.000, -34.600, 0.000, 0.000, -3.000, 0.0, , , , , , 98, , , 11, 11, 11
38.2001183, -120.0383153, 43.600, 09:20:12.906, 17, 0.10, 0.41, 97, 0.200, 0.000, -35.200, 330, 100, 98, 17, 22977, -18223, 5344, 5510, 10, 14, 1526142012.907, 32, 0, 1024, 1024, 1024, 1024, 0, 6, 3840, 3804, 3812, 3813, 3866, 3832, 0, 1, 19501, -89.900, 0.000, -34.600, 0.000, -0.100, -2.900, 0.1, , , , , , 98, , , 11, 11, 11
38.2001183, -120.0383153, 43.900, 09:20:13.007, 17, 0.00, 0.41, 97, 0.200, 0.000, -35.200, 330, 100, 98, 17, 22977, -18223, 5344, 5510, 10, 14, 1526142013.008, 18, 0, 1024, 1024, 1024, 1024, 0, 6, 3840, 3804, 3812, 3813, 3866, 3832, 0, 1, 19602, -89.900, 0.000, -34.600, 0.000, 0.000, -2.900, 0.0, , , , , , 98, , , 11, 11, 11
38.2001183, -120.0383153, 44.200, 09:20:13.107, 17, 0.00, 0.40, 97, 0.100, 0.000, -35.300, 330, 100, 93, 17, 22977, -18223, 5344, 5510, 10, 14, 1526142013.107, 18, 0, 1024, 1024, 1024, 1024, 0, 6, 3840, 3804, 3812, 3813, 3866, 3832, 0, 1, 19701, -90.000, 0.000, -34.600, 0.000, 0.000, -2.900, 0.0, , , , , , 98, , , 11, 11, 11
38.2001183, -120.0383154, 44.500, 09:20:13.207, 17, 0.00, 0.40, 97, 0.100, -0.100, -35.400, 330, 100, 93, 17, 22977, -18223, 5344, 5510, 10, 14, 1526142013.207, 34, 0, 1024, 1024, 1024, 1024, 0, 6, 3840, 3804, 3812, 3813, 3866, 3832, 0, 1, 19801, -90.000, 0.000, -34.600, 0.000, 0.000, -3.000, 0.0, , , , , , 98, , , 11, 11, 11
38.2001183, -120.0383154, 44.800, 09:20:13.306, 17, 0.00, 0.40, 97, 0.200, -0.100, -35.400, 330, 100, 93, 17, 22977, -18223, 5344, 5510, 10, 14, 1526142013.307, 31, 0, 1024, 1024, 1024, 1024, 0, 6, 3840, 3804, 3812, 3813, 3866, 3832, 0, 1, 19901, -89.900, 0.000, -34.600, 0.000, 0.000, -3.000, 0.0, , , , , , 98, , , 11, 11, 11
38.2001183, -120.0383154, 45.100, 09:20:13.407, 17, 0.10, 0.40, 97, 0.300, -0.300, -35.400, 330, 100, 93, 17, 22977, -18223, 5344, 5510, 10, 14, 1526142013.408, 21, 0, 1024, 1024, 1024, 1024, 0, 6, 3840, 3804, 3812, 3813, 3866, 3832, 0, 1, 20002, -90.000, 0.000, -34.600, 0.000, -0.100, -2.800, 0.1, , , , , , 98, , , 11, 11, 11
38.2001183, -120.0383154, 45.400, 09:20:13.507, 17, 0.10, 0.40, 97, 0.500, -0.300, -35.400, 330, 100, 92, 17, 22948, -18218, 5344, 5510, 10, 14, 1526142013.507, 27, 0, 1024, 1024, 1024, 1024, 0, 6, 3840, 3804, 3812, 3813, 3866, 3832, 0, 1, 20101, -90.000, 0.000, -34.600, 0.000, -0.100, -2.900, 0.1, , , , , , 98, , , 11, 11, 11
38.2001183, -120.0383154, 45.700, 09:20:13.607, 17, 0.00, 0.40, 97, 0.500, -0.400, -35.400, 330, 100, 92, 17, 22948, -18218, 5344, 5510, 10, 14, 1526142013.607, 11, 0, 1024, 1024, 1024, 1024, 0, 6, 3840, 3809, 3796, 3809, 3849, 3831, 0, 1, 20202, -90.000, 0.000, -34.600, 0.000, 0.000, -2.900, 0.0, , , , , , 98, , , 11, 11, 11
38.2001183, -120.0383154, 45.700, 09:20:13.706, 17, 0.00, 0.40, 97, 0.500, -0.400, -35.400, 330, 100, 92, 17, 22948, -18218, 5344, 5510, 10, 14, 1526142013.707, 110, 0, 1024, 1024, 1024, 1024, 0, 6, 3840, 3809, 3796, 3809, 3849, 3831, 0, 1, 20301, -90.000, 0.000, -34.600, 0.000, 0.000, -2.900, 0.0, , , , , , 98, , , 11, 11, 11
38.2001183, -120.0383154, 46.000, 09:20:13.806, 17, 0.00, 0.40, 97, 0.500, -0.200, -35.500, 330, 100, 92, 17, 22948, -18218, 5344, 5510, 10, 14, 1526142013.806, 97, 0, 1024, 1024, 1024, 1024, 0, 6, 3840, 3809, 3796, 3809, 3849, 3831, 0, 1, 20400, -89.900, 0.000, -34.600, 0.000, 0.000, -2.900, 0.0, , , , , , 98, , , 11, 11, 11
38.2001183, -120.0383154, 46.300, 09:20:13.907, 17, 0.00, 0.41, 97, 0.400, 0.000, -35.600, 330, 100, 92, 17, 22948, -18218, 5344, 5510, 10, 14, 1526142013.907, 98, 0, 1024, 1024, 1024, 1024, 0, 6, 3840, 3809, 3796, 3809, 3849, 3831, 0, 1, 20501, -89.900, 0.000, -34.600, 0.000, 0.000, -2.900, 0.0, , , , , , 98, , , 11, 11, 11
38.2001184, -120.0383154, 46.600, 09:20:14.007, 17, 0.00, 0.41, 97, 0.200, 0.300, -35.600, 330, 100, 92, 17, 22948, -18218, 5344, 5510, 10, 14, 1526142014.008, 83, 0, 1024, 1024, 1024, 1024, 0, 6, 3840, 3809, 3796, 3809, 3849, 3831, 0, 1, 20602, -89.900, 0.000, -34.600, 0.000, 0.000, -2.900, 0.0, , , , , , 98, , , 11, 11, 11
38.2001184, -120.0383155, 46.800, 09:20:14.107, 17, 0.00, 0.41, 97, 0.300, 0.500, -35.500, 330, 100, 93, 17, 22948, -18218, 5344, 5510, 10, 14, 1526142014.107, 85, 0, 1024, 1024, 1024, 1024, 0, 6, 3840, 3809, 3796, 3809, 3849, 3831, 0, 1, 20701, -89.900, 0.000, -34.600, 0.000, 0.000, -2.900, 0.0, , , , , , 98, , , 11, 11, 11
38.2001184, -120.0383155, 46.800, 09:20:14.207, 17, 0.00, 0.41, 97, 0.300, 0.500, -35.500, 330, 100, 93, 17, 22948, -18218, 5344, 5510, 10, 14, 1526142014.207, 185, 0, 1024, 1024, 1024, 1024, 0, 6, 3840, 3809, 3796, 3809, 3849, 3831, 0, 1, 20801, -89.900, 0.000, -34.600, 0.000, 0.000, -2.900, 0.0, , , , , , 98, , , 11, 11, 11
