Latitude, Longitude, Altitude (m), Time, Sats, Speed (m/s), Range (m), Battery (%), Roll (deg), Pitch (deg), Yaw (deg), Images, HD Signal (%), RC Signal (%), Battery Temp (C), Battery Voltage (mV), Battery Current (mA), Battery Energy (mAh), Battery Capacity (mAh), Battery Discharges, flyState, timestamp (Unix), LastUpdate (ms), radioChannel, Rc_elevator, Rc_aileron, Rc_throttle, Rc_rudder, Rc_gyro, Dronetype, Battery_Cell1 (mV), Battery_Cell2 (mV), Battery_Cell3 (mV), Battery_Cell4 (mV), Battery_Cell5 (mV), Battery_Cell6 (mV), Video, isFlying, elapsedTime (ms), gimbalPitch (deg), gimbalRoll (deg), gimbalYaw (deg), VelocityX (m/s), VelocityY (m/s), VelocityZ (m/s), GroundSmear (cm), App Version, Aircraft Name, Aircraft Firmware, Aircraft Serial Number, Battery Serial Number, Battery Lifetime (%), App_Tip, App_Warning, CurrentFlightStartingIndex, CurrentFlightLastVisitedWaypoint, PreviousFlightEndingWaypointIndex
38.1754063, -120.0595433, 0.000, 13:57:35.284, 13, 0.00, 0.02, 98, -1.600, 1.500, 66.800, 1036, 100, 100, 24, 25599, -3932, 5325, 5434, 14, 11, 1526158655.285, 71, 0, 1024, 1024, 1024, 1024, 0, 6, 4299, 4304, 4300, 4313, 4315, 4300, 0, 1, 3032, -89.900, 0.000, 65.800, 0.000, 0.000, -0.100, 0.0, MapPilot_2.8.1_04242018, Dendroctonus I, 1.3.1.00, 041DDC1887, 1058163200505, 97, DJI_0042.jpg, Starting Mission from Lat/Long: 38.17541/-120.05955 Camera: Zenmuse X3 - Overlap: 90/90 - Active Connection: No, 37, 37, 37
38.1754063, -120.0595434, 0.000, 13:57:35.352, 13, 0.10, 0.03, 98, -0.700, 0.900, 66.800, 1036, 100, 100, 24, 25599, -3932, 5325, 5434, 14, 11, 1526158655.353, 51, 0, 1024, 1024, 1024, 1024, 0, 6, 4254, 4270, 4291, 4293, 4308, 4262, 0, 1, 3100, -90.000, 0.000, 65.800, 0.000, -0.100, -0.300, 0.0, , , , , , 97, , , 37, 37, 37
38.1754063, -120.0595435, 0.000, 13:57:35.453, 13, 0.10, 0.04, 98, -0.200, 0.100, 66.700, 1036, 100, 100, 24, 25599, -3932, 5325, 5434, 14, 11, 1526158655.453, 44, 0, 1024, 1024, 1024, 1024, 0, 6, 4254, 4270, 4291, 4293, 4308, 4262, 0, 1, 3200, -90.000, 0.000, 65.900, 0.000, -0.100, -0.300, 0.0, , , , , , 97, , , 37, 37, 37
38.1754063, -120.0595436, 0.100, 13:57:35.553, 13, 0.00, 0.05, 98, 0.000, -0.200, 66.700, 1036, 100, 100, 24, 25599, -3932, 5325, 5434, 14, 11, 1526158655.556, 48, 0, 1024, 1024, 1024, 1024, 0, 6, 4254, 4270, 4291, 4293, 4308, 4262, 0, 1, 3303, -90.000, 0.000, 65.900, 0.000, 0.000, -0.300, 0.0, , , , , , 97, , , 37, 37, 37
38.1754063, -120.0595437, 0.100, 13:57:35.653, 13, 0.00, 0.06, 98, -0.300, -0.100, 66.700, 1036, 100, 100, 24, 25599, -3932, 5325, 5434, 14, 11, 1526158655.653, 36, 0, 1024, 1024, 1024, 1024, 0, 6, 4254, 4270, 4291, 4293, 4308, 4262, 0, 1, 3400, -90.000, 0.000, 65.900, 0.000, 0.000, -0.300, 0.0, , , , , , 97, , , 37, 37, 37
38.1754063, -120.0595437, 0.200, 13:57:35.752, 13, 0.00, 0.06, 98, -0.100, -0.200, 66.800, 1036, 100, 100, 24, 25599, -3932, 5325, 5434, 14, 11, 1526158655.753, 10, 0, 1024, 1024, 1024, 1024, 0, 6, 4254, 4270, 4291, 4293, 4308, 4262, 0, 1, 3500, -90.000, 0.000, 65.900, 0.000, 0.000, -0.300, 0.0, , , , , , 97, , , 37, 37, 37
38.1754064, -120.0595437, 0.200, 13:57:35.853, 13, 0.00, 0.06, 98, 0.100, -0.500, 66.900, 1036, 100, 100, 24, 25599, -3932, 5325, 5434, 14, 11, 1526158655.853, 48, 0, 1024, 1024, 1024, 1024, 0, 6, 4254, 4270, 4291, 4293, 4308, 4262, 0, 1, 3601, -90.000, 0.000, 65.900, 0.000, 0.000, -0.400, 0.0, , , , , , 97, , , 37, 37, 37
38.1754064, -120.0595437, 0.300, 13:57:35.953, 13, 0.00, 0.06, 98, 0.100, -0.500, 66.900, 1036, 100, 100, 24, 25599, -3932, 5325, 5434, 14, 11, 1526158655.953, 18, 0, 1024, 1024, 1024, 1024, 0, 6, 4254, 4270, 4291, 4293, 4308, 4262, 0, 1, 3700, -90.000, 0.000, 65.900, 0.000, 0.000, -0.400, 0.0, , , , , , 97, , , 37, 37, 37
38.1754064, -120.0595437, 0.300, 13:57:36.052, 13, 0.00, 0.06, 98, 0.100, -0.100, 67.000, 1036, 100, 100, 24, 25599, -3932, 5325, 5434, 14, 11, 1526158656.053, 17, 0, 1024, 1024, 1024, 1024, 0, 6, 4254, 4270, 4291, 4293, 4308, 4262, 0, 1, 3800, -90.000, 0.000, 65.900, 0.000, 0.000, -0.500, 0.0, , , , , , 97, , , 37, 37, 37
38.1754064, -120.0595437, 0.400, 13:57:36.153, 13, 0.00, 0.05, 98, 0.000, 0.100, 67.100, 1036, 100, 100, 24, 25599, -3932, 5325, 5434, 14, 11, 1526158656.153, 5, 0, 1024, 1024, 1024, 1024, 0, 6, 4254, 4270, 4291, 4293, 4308, 4262, 0, 1, 3901, -89.900, 0.000, 65.900, 0.000, 0.000, -0.500, 0.0, , , , , , 97, , , 37, 37, 37
38.1754064, -120.0595436, 0.400, 13:57:36.252, 13, 0.00, 0.05, 98, 0.000, 0.300, 67.100, 1036, 100, 100, 24, 25599, -3932, 5325, 5434, 14, 11, 1526158656.253, 6, 0, 1024, 1024, 1024, 1024, 0, 6, 4254, 4270, 4291, 4293, 4308, 4262, 0, 1, 4000, -89.900, 0.000, 65.900, 0.000, 0.000, -0.400, 0.0, , , , , , 97, , , 37, 37, 37
38.1754064, -120.0595436, 0.400, 13:57:36.353, 13, 0.00, 0.05, 98, 0.000, 0.300, 67.100, 1036, 100, 100, 24, 25599, -3932, 5325, 5434, 14, 11, 1526158656.355, 108, 0, 1024, 1024, 1024, 1024, 0, 6, 4254, 4270, 4291, 4293, 4308, 4262, 0, 1, 4102, -89.900, 0.000, 65.900, 0.000, 0.000, -0.400, 0.0, , , , , , 97, , , 37, 37, 37
38.1754064, -120.0595435, 0.500, 13:57:36.458, 12, 0.00, 0.04, 98, -0.300, 0.300, 67.100, 1036, 100, 100, 24, 24837, -11027, 5325, 5434, 14, 11, 1526158656.459, 14, 0, 1024, 1024, 1024, 1024, 0, 6, 4113, 4112, 4079, 4119, 4113, 4099, 0, 1, 4206, -90.000, 0.000, 65.900, 0.000, 0.000, -0.500, 0.0, , , , , , 97, , , 37, 37, 37
38.1754064, -120.0595434, 0.600, 13:57:36.553, 12, 0.00, 0.03, 98, -0.500, 0.400, 67.100, 1036, 100, 100, 24, 24837, -11027, 5325, 5434, 14, 11, 1526158656.553, 9, 0, 1024, 1024, 1024, 1024, 0, 6, 4113, 4112, 4079, 4119, 4113, 4099, 0, 1, 4300, -89.900, 0.000, 65.900, 0.000, 0.000, -0.500, 0.0, , , , , , 97, , , 37, 37, 37
38.1754064, -120.0595434, 0.600, 13:57:36.653, 12, 0.00, 0.03, 98, -0.500, 0.400, 67.100, 1036, 100, 100, 24, 24837, -11027, 5325, 5434, 14, 11, 1526158656.653, 109, 0, 1024, 1024, 1024, 1024, 0, 6, 4113, 4112, 4079, 4119, 4113, 4099, 0, 1, 4400, -89.900, 0.000, 65.900, 0.000, 0.000, -0.500, 0.0, , , , , , 97, , , 37, 37, 37
38.1754064, -120.0595433, 0.700, 13:57:36.756, 12, 0.00, 0.03, 98, -0.500, 0.800, 66.900, 1036, 100, 100, 24, 24837, -11027, 5325, 5434, 14, 11, 1526158656.757, 5, 0, 1024, 1024, 1024, 1024, 0, 6, 4113, 4112, 4079, 4119, 4113, 4099, 0, 1, 4504, -89.900, 0.000, 65.900, 0.000, 0.000, -0.500, 0.0, , , , , , 97, , , 37, 37, 37
38.1754064, -120.0595433, 0.700, 13:57:36.853, 12, 0.00, 0.03, 98, -0.500, 0.800, 66.900, 1036, 100, 100, 24, 24837, -11027, 5325, 5434, 14, 11, 1526158656.855, 103, 0, 1024, 1024, 1024, 1024, 0, 6, 4113, 4112, 4079, 4119, 4113, 4099, 0, 1, 4602, -89.900, 0.000, 65.900, 0.000, 0.000, -0.500, 0.0, , , , , , 97, , , 37, 37, 37
38.1754064, -120.0595432, 0.800, 13:57:36.953, 13, 0.00, 0.03, 98, -0.300, 0.900, 66.900, 1036, 100, 100, 24, 24837, -11027, 5325, 5434, 14, 11, 1526158656.953, 70, 0, 1024, 1024, 1024, 1024, 0, 6, 4113, 4112, 4079, 4119, 4113, 4099, 0, 1, 4701, -89.900, 0.000, 65.900, 0.000, 0.000, -0.500, 0.0, , , , , , 97, , , 37, 37, 37
38.1754065, -120.0595432, 0.900, 13:57:37.053, 13, 0.00, 0.03, 98, -0.100, 1.000, 66.900, 1036, 100, 100, 24, 24837, -11027, 5325, 5434, 14, 6, 1526158657.053, 69, 0, 1024, 1024, 1024, 1024, 0, 6, 4113, 4112, 4079, 4119, 4113, 4099, 0, 1, 4801, -89.900, 0.000, 65.900, 0.000, 0.000, -0.500, 0.0, , , , , , 97, , , 37, 37, 37
38.1754065, -120.0595430, 1.000, 13:57:37.153, 13, 0.00, 0.03, 98, -0.100, 1.300, 66.800, 1036, 100, 100, 24, 24837, -11027, 5325, 5434, 14, 14, 1526158657.153, 68, 0, 1024, 1024, 1024, 1024, 0, 6, 4113, 4112, 4079, 4119, 4113, 4099, 0, 1, 4900, -89.900, 0.000, 65.900, 0.000, 0.000, -0.300, 0.0, , , , , , 97, , , 37, 37, 37
38.1754065, -120.0595430, 1.000, 13:57:37.252, 13, 0.00, 0.03, 98, -0.100, 1.300, 66.800, 1036, 100, 100, 24, 24837, -11027, 5325, 5434, 14, 14, 1526158657.253, 167, 0, 1024, 1024, 1024, 1024, 0, 6, 4113, 4112, 4079, 4119, 4113, 4099, 0, 1, 5000, -89.900, 0.000, 65.900, 0.000, 0.000, -0.300, 0.0, , , , , , 97, , , 37, 37, 37
38.1754064, -120.0595429, 1.100, 13:57:37.353, 13, 0.00, 0.03, 98, -0.500, 1.000, 66.800, 1036, 100, 100, 24, 24837, -11027, 5325, 5434, 14, 14, 1526158657.353, 51, 0, 1024, 1024, 1024, 1024, 0, 6, 4113, 4112, 4079, 4119, 4113, 4099, 0, 1, 5100, -89.900, 0.000, 65.900, 0.000, 0.000, -0.300, 0.0, , , , , , 97, , , 37, 37, 37
38.1754064, -120.0595428, 1.100, 13:57:37.453, 13, 0.00, 0.03, 98, -0.500, 0.800, 66.900, 1036, 100, 100, 24, 24187, -17143, 5325, 5434, 14, 14, 1526158657.453, 72, 0, 1024, 1024, 1024, 1024, 0, 6, 4012, 4016, 4018, 4055, 4058, 4022, 0, 1, 5200, -90.000, 0.000, 65.900, 0.000, 0.000, -0.400, 0.0, , , , , , 97, , , 37, 37, 37
38.1754064, -120.0595428, 1.200, 13:57:37.553, 13, 0.00, 0.03, 98, -0.300, 0.800, 67.000, 1036, 100, 100, 24, 24187, -17143, 5325, 5434, 14, 14, 1526158657.553, 48, 0, 1024, 1024, 1024, 1024, 0, 6, 4012, 4016, 4018, 4055, 4058, 4022, 0, 1, 5300, -89.900, 0.000, 65.900, 0.000, 0.000, -0.500, 0.0, , , , , , 97, , , 37, 37, 37
38.1754064, -120.0595427, 1.300, 13:57:37.653, 13, 0.00, 0.03, 98, -0.200, 0.900, 67.100, 1036, 100, 100, 24, 24187, -17143, 5325, 5434, 14, 14, 1526158657.653, 33, 0, 1024, 1024, 1024, 1024, 0, 6, 4012, 4016, 4018, 4055, 4058, 4022, 0, 1, 5401, -89.900, 0.000, 65.900, 0.000, 0.000, -0.600, 0.0, , , , , , 97, , , 37, 37, 37
38.1754064, -120.0595428, 1.300, 13:57:37.752, 13, 0.00, 0.03, 98, -0.300, 0.900, 67.200, 1036, 100, 100, 24, 24187, -17143, 5325, 5434, 14, 14, 1526158657.753, 21, 0, 1024, 1024, 1024, 1024, 0, 6, 4012, 4016, 4018, 4055, 4058, 4022, 0, 1, 5500, -90.000, 0.000, 65.900, 0.000, 0.000, -0.800, 0.0, , , , , , 97, , , 37, 37, 37
38.1754064, -120.0595427, 1.400, 13:57:37.853, 13, 0.00, 0.04, 98, -0.500, 0.600, 67.300, 1036, 100, 100, 24, 24187, -17143, 5325, 5434, 14, 14, 1526158657.853, 43, 0, 1024, 1024, 1024, 1024, 0, 6, 4012, 4016, 4018, 4055, 4058, 4022, 0, 1, 5600, -90.000, 0.000, 65.900, 0.000, 0.000, -1.000, 0.0, , , , , , 97, , , 37, 37, 37
38.1754064, -120.0595427, 1.600, 13:57:37.953, 13, 0.00, 0.04, 98, -0.500, 0.600, 67.300, 1036, 100, 100, 24, 24187, -17143, 5325, 5434, 14, 14, 1526158657.953, 41, 0, 1024, 1024, 1024, 1024, 0, 6, 4012, 4016, 4018, 4055, 4058, 4022, 0, 1, 5701, -90.000, 0.000, 65.900, 0.000, 0.000, -1.200, 0.0, , , , , , 97, , , 37, 37, 37
38.1754065, -120.0595426, 1.700, 13:57:38.053, 13, 0.00, 0.05, 98, -0.300, 0.700, 67.300, 1036, 100, 100, 24, 24187, -17143, 5325, 5434, 14, 14, 1526158658.053, 47, 0, 1024, 1024, 1024, 1024, 0, 6, 4012, 4016, 4018, 4055, 4058, 4022, 0, 1, 5801, -89.900, 0.000, 65.900, 0.000, 0.000, -1.400, 0.0, , , , , , 97, , , 37, 37, 37
38.1754065, -120.0595426, 1.900, 13:57:38.153, 13, 0.00, 0.05, 98, -0.100, 0.900, 67.200, 1036, 100, 100, 24, 24187, -17143, 5325, 5434, 14, 14, 1526158658.153, 10, 0, 1024, 1024, 1024, 1024, 0, 6, 4012, 4016, 4018, 4055, 4058, 4022, 0, 1, 5901, -90.000, 0.000, 65.900, 0.000, 0.000, -1.500, 0.0, , , , , , 97, , , 37, 37, 37
38.1754066, -120.0595426, 2.100, 13:57:38.258, 13, 0.00, 0.06, 98, -0.100, 0.800, 67.200, 1036, 100, 100, 24, 24187, -17143, 5325, 5434, 14, 14, 1526158658.258, 8, 0, 1024, 1024, 1024, 1024, 0, 6, 4012, 4016, 4018, 4055, 4058, 4022, 0, 1, 6006, -90.000, 0.000, 65.900, 0.000, 0.000, -1.700, 0.0, , , , , , 97, , , 37, 37, 37
38.1754067, -120.0595426, 2.300, 13:57:38.353, 13, 0.00, 0.07, 98, 0.000, 0.800, 67.000, 1036, 100, 100, 24, 24260, -15722, 5325, 5434, 14, 14, 1526158658.353, 9, 0, 1024, 1024, 1024, 1024, 0, 6, 4012, 4016, 4018, 4055, 4058, 4022, 0, 1, 6101, -90.000, 0.000, 65.900, 0.000, 0.000, -2.000, 0.0, , , , , , 97, , , 37, 37, 37
38.1754068, -120.0595425, 2.500, 13:57:38.452, 13, 0.00, 0.08, 98, 0.100, 0.900, 67.000, 1036, 100, 100, 24, 24260, -15722, 5325, 5434, 14, 14, 1526158658.453, 23, 0, 1024, 1024, 1024, 1024, 0, 6, 4075, 4054, 4008, 4032, 4036, 4002, 0, 1, 6200, -89.900, 0.000, 65.900, 0.000, 0.000, -2.300, 0.0, , , , , , 97, , , 37, 37, 37
38.1754068, -120.0595425, 2.500, 13:57:38.553, 13, 0.00, 0.08, 98, 0.100, 0.900, 67.000, 1036, 100, 100, 24, 24260, -15722, 5325, 5434, 14, 14, 1526158658.553, 124, 0, 1024, 1024, 1024, 1024, 0, 6, 4075, 4054, 4008, 4032, 4036, 4002, 0, 1, 6300, -89.900, 0.000, 65.900, 0.000, 0.000, -2.300, 0.0, , , , , , 97, , , 37, 37, 37
38.1754069, -120.0595421, 3.000, 13:57:38.663, 13, 0.00, 0.12, 98, 0.200, 1.300, 66.900, 1036, 100, 100, 24, 24260, -15722, 5325, 5434, 14, 14, 1526158658.664, 10, 0, 1024, 1024, 1024, 1024, 0, 6, 4075, 4054, 4008, 4032, 4036, 4002, 0, 1, 6411, -89.900, 0.000, 65.900, 0.000, 0.000, -2.600, 0.0, , , , , , 97, , , 37, 37, 37
38.1754069, -120.0595421, 3.000, 13:57:38.752, 13, 0.00, 0.12, 98, 0.200, 1.300, 66.900, 1036, 100, 100, 24, 24260, -15722, 5325, 5434, 14, 14, 1526158658.753, 99, 0, 1024, 1024, 1024, 1024, 0, 6, 4075, 4054, 4008, 4032, 4036, 4002, 0, 1, 6500, -89.900, 0.000, 65.900, 0.000, 0.000, -2.600, 0.0, , , , , , 97, , , 37, 37, 37
38.1754072, -120.0595417, 3.600, 13:57:38.853, 13, 0.00, 0.16, 98, 0.000, 2.300, 66.700, 1036, 100, 100, 24, 24260, -15722, 5325, 5434, 14, 14, 1526158658.853, 6, 0, 1024, 1024, 1024, 1024, 0, 6, 4075, 4054, 4008, 4032, 4036, 4002, 0, 1, 6600, -89.900, 0.000, 65.900, 0.000, 0.000, -3.000, 0.0, , , , , , 97, , , 37, 37, 37
38.1754072, -120.0595417, 3.600, 13:57:38.953, 13, 0.00, 0.16, 98, 0.000, 2.300, 66.700, 1036, 100, 100, 24, 24260, -15722, 5325, 5434, 14, 14, 1526158658.953, 106, 0, 1024, 1024, 1024, 1024, 0, 6, 4075, 4054, 4008, 4032, 4036, 4002, 0, 1, 6701, -89.900, 0.000, 65.900, 0.000, 0.000, -3.000, 0.0, , , , , , 97, , , 37, 37, 37
38.1754072, -120.0595417, 3.900, 13:57:39.053, 13, 0.00, 0.17, 98, 0.000, 2.500, 66.600, 1036, 100, 99, 24, 24260, -15722, 5325, 5434, 14, 14, 1526158659.053, 81, 0, 1024, 1024, 1024, 1024, 0, 6, 4075, 4054, 4008, 4032, 4036, 4002, 0, 1, 6801, -89.900, 0.000, 65.900, 0.000, 0.000, -3.100, 0.0, , , , , , 97, , , 37, 37, 37
38.1754074, -120.0595416, 4.300, 13:57:39.153, 13, 0.00, 0.18, 98, 0.300, 2.200, 66.600, 1036, 100, 99, 24, 24260, -15722, 5325, 5434, 14, 14, 1526158659.153, 71, 0, 1024, 1024, 1024, 1024, 0, 6, 4075, 4054, 4008, 4032, 4036, 4002, 0, 1, 6901, -89.900, 0.000, 65.900, 0.000, 0.000, -3.100, 0.0, , , , , , 97, , , 37, 37, 37
38.1754075, -120.0595416, 4.600, 13:57:39.253, 13, 0.00, 0.19, 98, 0.600, 2.100, 66.600, 1036, 100, 99, 24, 24260, -15722, 5325, 5434, 14, 14, 1526158659.253, 80, 0, 1024, 1024, 1024, 1024, 0, 6, 4075, 4054, 4008, 4032, 4036, 4002, 0, 1, 7000, -89.900, 0.000, 65.900, 0.000, 0.000, -3.100, 0.0, , , , , , 97, , , 37, 37, 37
38.1754077, -120.0595413, 5.300, 13:57:39.353, 13, 0.00, 0.23, 98, 1.000, 2.300, 66.800, 1036, 100, 99, 24, 24260, -15722, 5325, 5434, 14, 14, 1526158659.354, 63, 0, 1024, 1024, 1024, 1024, 0, 6, 4075, 4054, 4008, 4032, 4036, 4002, 0, 1, 7101, -89.900, 0.000, 65.900, 0.000, 0.000, -3.100, 0.0, , , , , , 97, , , 37, 37, 37
38.1754078, -120.0595413, 5.600, 13:57:39.453, 13, 0.00, 0.23, 98, 1.000, 2.400, 66.900, 1036, 100, 99, 24, 23606, -21851, 5325, 5434, 14, 14, 1526158659.454, 72, 0, 1024, 1024, 1024, 1024, 0, 6, 3916, 3924, 3903, 3949, 3939, 3902, 0, 1, 7201, -89.900, 0.000, 65.900, 0.000, 0.000, -3.100, 0.0, , , , , , 97, , , 37, 37, 37
38.1754078, -120.0595413, 5.900, 13:57:39.553, 13, 0.00, 0.23, 98, 0.800, 2.300, 66.900, 1036, 100, 99, 24, 23606, -21851, 5325, 5434, 14, 14, 1526158659.554, 75, 0, 1024, 1024, 1024, 1024, 0, 6, 3916, 3924, 3903, 3949, 3939, 3902, 0, 1, 7301, -89.900, 0.000, 65.900, 0.000, 0.000, -3.100, 0.0, , , , , , 97, , , 37, 37, 37
38.1754078, -120.0595413, 6.300, 13:57:39.653, 13, 0.00, 0.23, 98, 0.800, 2.300, 66.900, 1036, 100, 99, 24, 23606, -21851, 5325, 5434, 14, 14, 1526158659.653, 46, 0, 1024, 1024, 1024, 1024, 0, 6, 3916, 3924, 3903, 3949, 3939, 3902, 0, 1, 7400, -89.900, 0.000, 65.900, 0.000, 0.000, -3.200, 0.0, , , , , , 97, , , 37, 37, 37
38.1754077, -120.0595413, 6.600, 13:57:39.752, 13, 0.00, 0.23, 98, 0.500, 2.200, 66.800, 1036, 100, 99, 24, 23606, -21851, 5325, 5434, 14, 14, 1526158659.753, 55, 0, 1024, 1024, 1024, 1024, 0, 6, 3916, 3924, 3903, 3949, 3939, 3902, 0, 1, 7500, -89.900, 0.000, 65.900, 0.000, 0.000, -3.200, 0.0, , , , , , 97, , , 37, 37, 37
38.1754076, -120.0595414, 6.900, 13:57:39.853, 13, 0.00, 0.21, 98, 0.100, 2.200, 66.700, 1036, 100, 99, 24, 23606, -21851, 5325, 5434, 14, 14, 1526158659.854, 61, 0, 1024, 1024, 1024, 1024, 0, 6, 3916, 3924, 3903, 3949, 3939, 3902, 0, 1, 7601, -89.900, 0.000, 65.900, 0.000, 0.000, -3.100, 0.0, , , , , , 97, , , 37, 37, 37
38.1754074, -120.0595414, 7.300, 13:57:39.953, 13, 0.10, 0.20, 98, -0.500, 2.000, 66.700, 1036, 100, 99, 24, 23606, -21851, 5325, 5434, 14, 14, 1526158659.953, 47, 0, 1024, 1024, 1024, 1024, 0, 6, 3916, 3924, 3903, 3949, 3939, 3902, 0, 1, 7700, -90.000, 0.000, 65.900, -0.100, 0.000, -3.100, 0.0, , , , , , 97, , , 37, 37, 37
38.1754073, -120.0595415, 7.600, 13:57:40.053, 13, 0.10, 0.18, 98, -1.200, 1.700, 66.700, 1036, 100, 99, 24, 23606, -21851, 5325, 5434, 14, 14, 1526158660.053, 51, 0, 1024, 1024, 1024, 1024, 0, 6, 3916, 3924, 3903, 3949, 3939, 3902, 0, 1, 7800, -89.900, 0.000, 65.900, -0.100, 0.000, -3.100, 0.0, , , , , , 97, , , 37, 37, 37
38.1754071, -120.0595415, 7.900, 13:57:40.153, 13, 0.00, 0.17, 98, -1.300, 1.400, 66.700, 1036, 100, 99, 24, 23606, -21851, 5325, 5434, 14, 14, 1526158660.154, 26, 0, 1024, 1024, 1024, 1024, 0, 6, 3916, 3924, 3903, 3949, 3939, 3902, 0, 1, 7901, -90.000, 0.000, 65.900, 0.000, 0.000, -3.100, 0.0, , , , , , 97, , , 37, 37, 37
38.1754070, -120.0595416, 8.300, 13:57:40.252, 13, 0.00, 0.15, 98, -0.900, 1.000, 66.800, 1036, 100, 99, 24, 23606, -21851, 5325, 5434, 14, 14, 1526158660.253, 27, 0, 1024, 1024, 1024, 1024, 0, 6, 3916, 3924, 3903, 3949, 3939, 3902, 0, 1, 8000, -90.000, 0.000, 65.900, 0.000, 0.000, -3.100, 0.0, , , , , , 97, , , 37, 37, 37
38.1754069, -120.0595417, 8.600, 13:57:40.353, 13, 0.00, 0.14, 98, -0.400, 0.600, 66.800, 1036, 100, 99, 24, 23658, -20680, 5325, 5434, 14, 14, 1526158660.353, 16, 0, 1024, 1024, 1024, 1024, 0, 6, 3916, 3924, 3903, 3949, 3939, 3902, 0, 1, 8101, -90.000, 0.000, 65.900, 0.000, 0.000, -3.000, 0.0, , , , , , 97, , , 37, 37, 37
38.1754068, -120.0595419, 8.900, 13:57:40.453, 13, 0.00, 0.12, 98, 0.000, 0.300, 66.800, 1036, 100, 100, 24, 23658, -20680, 5325, 5434, 14, 14, 1526158660.453, 25, 0, 1024, 1024, 1024, 1024, 0, 6, 3916, 3924, 3903, 3949, 3939, 3902, 0, 1, 8200, -90.000, 0.000, 65.900, 0.000, 0.000, -3.000, 0.0, , , , , , 97, , , 37, 37, 37
38.1754066, -120.0595421, 9.200, 13:57:40.553, 13, 0.00, 0.10, 98, 0.000, 0.100, 66.800, 1036, 100, 100, 24, 23658, -20680, 5325, 5434, 14, 14, 1526158660.553, 30, 0, 1024, 1024, 1024, 1024, 0, 6, 3916, 3924, 3903, 3949, 3939, 3902, 0, 1, 8300, -90.000, 0.000, 65.900, 0.000, 0.000, -3.000, 0.0, , , , , , 97, , , 37, 37, 37
38.1754066, -120.0595423, 9.600, 13:57:40.669, 13, 0.00, 0.08, 98, 0.100, 0.300, 66.900, 1036, 100, 100, 24, 23658, -20680, 5325, 5434, 14, 14, 1526158660.670, 11, 0, 1024, 1024, 1024, 1024, 0, 6, 3916, 3924, 3903, 3949, 3939, 3902, 0, 1, 8417, -90.000, 0.000, 65.900, 0.000, 0.000, -3.000, 0.0, , , , , , 97, , , 37, 37, 37
38.1754066, -120.0595425, 9.900, 13:57:40.761, 13, 0.00, 0.06, 98, 0.200, 0.400, 66.900, 1036, 100, 100, 24, 23658, -20680, 5325, 5434, 14, 14, 1526158660.762, 8, 0, 1024, 1024, 1024, 1024, 0, 6, 3916, 3924, 3903, 3949, 3939, 3902, 0, 1, 8509, -90.000, 0.000, 65.900, 0.000, 0.000, -3.000, 0.0, , , , , , 97, , , 37, 37, 37
38.1754065, -120.0595426, 10.200, 13:57:40.853, 13, 0.00, 0.05, 98, 0.400, 0.100, 66.900, 1036, 100, 100, 24, 23658, -20680, 5325, 5434, 14, 14, 1526158660.853, 12, 0, 1024, 1024, 1024, 1024, 0, 6, 3916, 3924, 3903, 3949, 3939, 3902, 0, 1, 8600, -90.000, 0.000, 65.900, 0.000, 0.000, -3.000, 0.0, , , , , , 97, , , 37, 37, 37
38.1754064, -120.0595427, 10.600, 13:57:40.953, 13, 0.00, 0.03, 98, 0.100, -0.400, 67.100, 1036, 100, 100, 24, 23658, -20680, 5325, 5434, 14, 14, 1526158660.954, 16, 0, 1024, 1024, 1024, 1024, 0, 6, 3913, 3929, 3933, 3981, 3970, 3939, 0, 1, 8701, -90.000, 0.000, 65.900, 0.000, 0.000, -2.900, 0.0, , , , , , 97, , , 37, 37, 37
38.1754064, -120.0595427, 10.600, 13:57:41.052, 13, 0.00, 0.03, 98, 0.100, -0.400, 67.100, 1036, 100, 100, 24, 23658, -20680, 5325, 5434, 14, 14, 1526158661.053, 116, 0, 1024, 1024, 1024, 1024, 0, 6, 3913, 3929, 3933, 3981, 3970, 3939, 0, 1, 8800, -90.000, 0.000, 65.900, 0.000, 0.000, -2.900, 0.0, , , , , , 97, , , 37, 37, 37
38.1754063, -120.0595429, 10.900, 13:57:41.153, 13, 0.00, 0.02, 98, 0.000, -0.400, 67.200, 1036, 100, 100, 24, 23658, -20680, 5325, 5434, 14, 14, 1526158661.153, 96, 0, 1024, 1024, 1024, 1024, 0, 6, 3913, 3929, 3933, 3981, 3970, 3939, 0, 1, 8900, -90.000, 0.000, 65.900, 0.000, 0.000, -2.900, 0.0, , , , , , 97, , , 37, 37, 37
38.1754063, -120.0595431, 11.200, 13:57:41.252, 13, 0.00, 0.01, 98, 0.100, 0.000, 67.200, 1036, 100, 100, 24, 23658, -20680, 5325, 5434, 14, 14, 1526158661.253, 92, 0, 1024, 1024, 1024, 1024, 0, 6, 3913, 3929, 3933, 3981, 3970, 3939, 0, 1, 9000, -90.000, 0.000, 65.900, 0.000, 0.000, -2.800, 0.0, , , , , , 97, , , 37, 37, 37
38.1754063, -120.0595433, 11.800, 13:57:41.353, 13, 0.00, 0.02, 98, 0.700, 0.200, 67.000, 1036, 100, 100, 24, 23658, -20680, 5325, 5434, 14, 14, 1526158661.354, 74, 0, 1024, 1024, 1024, 1024, 0, 6, 3913, 3929, 3933, 3981, 3970, 3939, 0, 1, 9101, -90.000, 0.000, 65.900, 0.000, 0.000, -2.800, 0.0, , , , , , 97, , , 37, 37, 37
38.1754063, -120.0595433, 11.800, 13:57:41.453, 13, 0.00, 0.02, 98, 0.700, 0.200, 67.000, 1036, 100, 100, 24, 23658, -20680, 5325, 5434, 14, 14, 1526158661.454, 175, 0, 1024, 1024, 1024, 1024, 0, 6, 3913, 3929, 3933, 3981, 3970, 3939, 0, 1, 9201, -90.000, 0.000, 65.900, 0.000, 0.000, -2.800, 0.0, , , , , , 97, , , 37, 37, 37
38.1754062, -120.0595433, 12.000, 13:57:41.553, 13, 0.00, 0.02, 98, 0.600, 0.500, 66.900, 1036, 100, 100, 24, 23658, -20680, 5325, 5434, 14, 14, 1526158661.553, 76, 0, 1024, 1024, 1024, 1024, 0, 6, 3913, 3929, 3933, 3981, 3970, 3939, 0, 1, 9300, -89.900, 0.000, 65.900, 0.000, 0.000, -2.800, 0.0, , , , , , 97, , , 37, 37, 37
38.1754062, -120.0595433, 12.300, 13:57:41.653, 13, 0.00, 0.02, 98, 0.200, 0.800, 66.800, 1036, 100, 100, 24, 23658, -20680, 5325, 5434, 14, 14, 1526158661.653, 77, 0, 1024, 1024, 1024, 1024, 0, 6, 3913, 3929, 3933, 3981, 3970, 3939, 0, 1, 9400, -89.900, 0.000, 65.900, 0.000, 0.000, -2.800, 0.0, , , , , , 97, , , 37, 37, 37
38.1754062, -120.0595432, 12.900, 13:57:41.752, 13, 0.00, 0.01, 98, -0.100, 1.500, 66.700, 1036, 100, 100, 24, 23658, -20680, 5325, 5434, 14, 14, 1526158661.753, 41, 0, 1024, 1024, 1024, 1024, 0, 6, 3913, 3929, 3933, 3981, 3970, 3939, 0, 1, 9500, -89.900, 0.000, 65.900, 0.000, 0.000, -2.900, 0.0, , , , , , 97, , , 37, 37, 37
38.1754062, -120.0595432, 13.200, 13:57:41.853, 14, 0.00, 0.01, 98, 0.100, 1.900, 66.700, 1036, 100, 100, 24, 23658, -20680, 5325, 5434, 14, 14, 1526158661.853, 52, 0, 1024, 1024, 1024, 1024, 0, 6, 3913, 3929, 3933, 3981, 3970, 3939, 0, 1, 9601, -89.900, 0.000, 65.900, 0.000, 0.000, -2.900, 0.0, , , , , , 97, , , 37, 37, 37
38.1754062, -120.0595432, 13.500, 13:57:41.953, 14, 0.00, 0.01, 98, 0.400, 2.000, 66.700, 1036, 100, 98, 24, 23722, -18460, 5325, 5434, 14, 14, 1526158661.953, 67, 0, 1024, 1024, 1024, 1024, 0, 6, 3928, 3941, 3939, 3984, 3983, 3944, 0, 1, 9701, -89.900, 0.000, 65.900, 0.000, 0.000, -3.000, 0.0, , , , , , 97, , , 37, 37, 37
38.1754062, -120.0595431, 13.800, 13:57:42.053, 14, 0.00, 0.00, 98, 0.000, 2.200, 66.600, 1036, 100, 98, 24, 23722, -18460, 5325, 5434, 14, 14, 1526158662.053, 70, 0, 1024, 1024, 1024, 1024, 0, 6, 3928, 3941, 3939, 3984, 3983, 3944, 0, 1, 9800, -89.900, 0.000, 65.900, 0.000, 0.000, -2.900, 0.0, , , , , , 97, , , 37, 37, 37
38.1754062, -120.0595430, 14.100, 13:57:42.153, 14, 0.00, 0.01, 98, -0.100, 2.000, 66.500, 1036, 100, 98, 24, 23722, -18460, 5325, 5434, 14, 14, 1526158662.153, 35, 0, 1024, 1024, 1024, 1024, 0, 6, 3928, 3941, 3939, 3984, 3983, 3944, 0, 1, 9901, -89.900, 0.000, 65.900, 0.000, 0.000, -2.900, 0.0, , , , , , 97, , , 37, 37, 37
38.1754062, -120.0595430, 14.400, 13:57:42.252, 14, 0.00, 0.01, 98, -0.200, 2.000, 66.500, 1036, 100, 98, 24, 23722, -18460, 5325, 5434, 14, 14, 1526158662.253, 38, 0, 1024, 1024, 1024, 1024, 0, 6, 3928, 3941, 3939, 3984, 3983, 3944, 0, 1, 10000, -89.900, 0.000, 65.900, 0.000, 0.000, -2.900, 0.0, , , , , , 97, , , 37, 37, 37
38.1754063, -120.0595430, 14.700, 13:57:42.353, 14, 0.00, 0.02, 98, -0.100, 2.300, 66.400, 1036, 100, 98, 24, 23722, -18460, 5325, 5434, 14, 14, 1526158662.353, 45, 0, 1024, 1024, 1024, 1024, 0, 6, 3928, 3941, 3939, 3984, 3983, 3944, 0, 1, 10101, -89.900, 0.000, 65.900, 0.000, 0.000, -3.000, 0.0, , , , , , 97, , , 37, 37, 37
38.1754064, -120.0595429, 15.000, 13:57:42.453, 14, 0.00, 0.03, 98, 0.100, 2.400, 66.300, 1036, 100, 98, 24, 23722, -18460, 5325, 5434, 14, 14, 1526158662.454, 29, 0, 1024, 1024, 1024, 1024, 0, 6, 3928, 3941, 3939, 3984, 3983, 3944, 0, 1, 10201, -89.900, 0.000, 65.900, 0.000, 0.000, -3.000, 0.0, , , , , , 97, , , 37, 37, 37
38.1754065, -120.0595428, 15.400, 13:57:42.553, 14, 0.00, 0.03, 98, 0.300, 2.500, 66.300, 1036, 100, 98, 24, 23722, -18460, 5325, 5434, 14, 14, 1526158662.553, 22, 0, 1024, 1024, 1024, 1024, 0, 6, 3928, 3941, 3939, 3984, 3983, 3944, 0, 1, 10300, -89.900, 0.000, 65.900, 0.000, 0.000, -3.000, 0.0, , , , , , 97, , , 37, 37, 37
38.1754065, -120.0595427, 15.600, 13:57:42.658, 14, 0.00, 0.04, 98, 0.000, 2.500, 66.400, 1036, 100, 98, 24, 23722, -18460, 5325, 5434, 14, 14, 1526158662.658, 11, 0, 1024, 1024, 1024, 1024, 0, 6, 3928, 3941, 3939, 3984, 3983, 3944, 0, 1, 10406, -89.900, 0.000, 65.900, 0.000, 0.000, -2.900, 0.0, , , , , , 97, , , 37, 37, 37
38.1754065, -120.0595426, 15.900, 13:57:42.752, 14, 0.10, 0.05, 98, -0.300, 2.500, 66.500, 1036, 100, 98, 24, 23722, -18460, 5325, 5434, 14, 14, 1526158662.753, 21, 0, 1024, 1024, 1024, 1024, 0, 6, 3928, 3941, 3939, 3984, 3983, 3944, 0, 1, 10500, -89.900, 0.000, 65.900, 0.000, 0.100, -2.900, 0.0, , , , , , 97, , , 37, 37, 37
38.1754065, -120.0595425, 16.200, 13:57:42.853, 14, 0.00, 0.06, 98, -0.600, 2.600, 66.600, 1036, 100, 98, 24, 23629, -19709, 5325, 5434, 14, 14, 1526158662.853, 17, 0, 1024, 1024, 1024, 1024, 0, 6, 3928, 3941, 3939, 3984, 3983, 3944, 0, 1, 10600, -89.900, 0.000, 65.900, 0.000, 0.000, -2.900, 0.0, , , , , , 97, , , 37, 37, 37
38.1754066, -120.0595424, 16.600, 13:57:42.959, 14, 0.00, 0.07, 98, -0.600, 2.800, 66.700, 1036, 100, 98, 24, 23629, -19709, 5325, 5434, 14, 14, 1526158662.960, 11, 0, 1024, 1024, 1024, 1024, 0, 6, 3914, 3928, 3915, 3963, 3969, 3914, 0, 1, 10707, -89.900, 0.000, 65.900, 0.000, 0.000, -2.900, 0.0, , , , , , 97, , , 37, 37, 37
38.1754066, -120.0595423, 16.900, 13:57:43.054, 14, 0.00, 0.08, 98, -0.400, 2.700, 66.800, 1036, 100, 98, 24, 23629, -19709, 5325, 5434, 14, 14, 1526158663.055, 6, 0, 1024, 1024, 1024, 1024, 0, 6, 3914, 3928, 3915, 3963, 3969, 3914, 0, 1, 10802, -89.900, 0.000, 65.900, 0.000, 0.000, -2.900, 0.0, , , , , , 97, , , 37, 37, 37
38.1754066, -120.0595423, 16.900, 13:57:43.153, 14, 0.00, 0.08, 98, -0.400, 2.700, 66.800, 1036, 100, 98, 24, 23629, -19709, 5325, 5434, 14, 14, 1526158663.153, 104, 0, 1024, 1024, 1024, 1024, 0, 6, 3914, 3928, 3915, 3963, 3969, 3914, 0, 1, 10900, -89.900, 0.000, 65.900, 0.000, 0.000, -2.900, 0.0, , , , , , 97, , , 37, 37, 37
38.1754066, -120.0595422, 17.200, 13:57:43.252, 14, 0.00, 0.09, 98, -0.100, 2.800, 66.900, 1036, 100, 98, 24, 23629, -19709, 5325, 5434, 14, 14, 1526158663.253, 71, 0, 1024, 1024, 1024, 1024, 0, 6, 3914, 3928, 3915, 3963, 3969, 3914, 0, 1, 11000, -89.900, 0.000, 65.900, 0.000, 0.000, -2.900, 0.0, , , , , , 97, , , 37, 37, 37
38.1754067, -120.0595422, 17.500, 13:57:43.353, 14, 0.00, 0.09, 98, -0.100, 2.300, 66.800, 1036, 100, 98, 24, 23629, -19709, 5325, 5434, 14, 14, 1526158663.353, 89, 0, 1024, 1024, 1024, 1024, 0, 6, 3914, 3928, 3915, 3963, 3969, 3914, 0, 1, 11100, -89.900, 0.000, 65.900, 0.000, 0.000, -2.900, 0.0, , , , , , 97, , , 37, 37, 37
38.1754067, -120.0595422, 17.800, 13:57:43.453, 14, 0.00, 0.09, 98, 0.000, 2.300, 66.900, 1036, 100, 98, 24, 23629, -19709, 5325, 5434, 14, 14, 1526158663.453, 73, 0, 1024, 1024, 1024, 1024, 0, 6, 3914, 3928, 3915, 3963, 3969, 3914, 0, 1, 11201, -89.900, 0.000, 65.900, 0.000, 0.000, -2.800, 0.0, , , , , , 97, , , 37, 37, 37
38.1754067, -120.0595422, 18.000, 13:57:43.553, 14, 0.00, 0.10, 98, -0.100, 2.200, 66.900, 1036, 100, 100, 24, 23629, -19709, 5325, 5434, 14, 14, 1526158663.553, 72, 0, 1024, 1024, 1024, 1024, 0, 6, 3914, 3928, 3915, 3963, 3969, 3914, 0, 1, 11301, -89.900, 0.000, 65.900, 0.000, 0.000, -2.800, 0.0, , , , , , 97, , , 37, 37, 37
38.1754067, -120.0595421, 18.300, 13:57:43.653, 14, 0.00, 0.10, 98, -0.100, 2.300, 67.100, 1036, 100, 100, 24, 23629, -19709, 5325, 5434, 14, 14, 1526158663.653, 74, 0, 1024, 1024, 1024, 1024, 0, 6, 3914, 3928, 3915, 3963, 3969, 3914, 0, 1, 11401, -89.900, 0.000, 65.900, 0.000, 0.000, -2.800, 0.0, , , , , , 97, , , 37, 37, 37
38.1754067, -120.0595421, 18.600, 13:57:43.752, 14, 0.00, 0.10, 98, 0.000, 2.400, 67.100, 1036, 100, 100, 24, 23629, -19709, 5325, 5434, 14, 14, 1526158663.753, 58, 0, 1024, 1024, 1024, 1024, 0, 6, 3914, 3928, 3915, 3963, 3969, 3914, 0, 1, 11501, -89.900, 0.000, 65.800, 0.000, 0.000, -2.800, 0.0, , , , , , 97, , , 37, 37, 37
38.1754068, -120.0595420, 18.900, 13:57:43.853, 14, 0.00, 0.11, 98, -0.100, 2.400, 67.100, 1036, 100, 100, 24, 23629, -19709, 5325, 5434, 14, 14, 1526158663.853, 85, 0, 1024, 1024, 1024, 1024, 0, 6, 3914, 3928, 3915, 3963, 3969, 3914, 0, 1, 11600, -89.900, 0.000, 65.900, 0.000, 0.000, -2.800, 0.0, , , , , , 97, , , 37, 37, 37
38.1754068, -120.0595420, 19.200, 13:57:43.953, 14, 0.00, 0.11, 98, -0.300, 2.300, 67.000, 1036, 100, 100, 24, 23658, -18643, 5325, 5434, 14, 14, 1526158663.953, 87, 0, 1024, 1024, 1024, 1024, 0, 6, 3915, 3920, 3927, 3973, 3967, 3942, 0, 1, 11700, -89.900, 0.000, 65.900, 0.000, 0.000, -2.800, 0.0, , , , , , 97, , , 37, 37, 37
38.1754067, -120.0595419, 19.700, 13:57:44.053, 14, 0.00, 0.12, 98, -0.800, 2.100, 66.800, 1036, 100, 100, 24, 23658, -18643, 5325, 5434, 14, 14, 1526158664.053, 54, 0, 1024, 1024, 1024, 1024, 0, 6, 3915, 3920, 3927, 3973, 3967, 3942, 0, 1, 11801, -89.900, 0.000, 65.900, 0.000, 0.000, -2.800, 0.0, , , , , , 97, , , 37, 37, 37
38.1754067, -120.0595418, 20.000, 13:57:44.156, 14, 0.00, 0.12, 98, -0.900, 2.200, 66.700, 1036, 100, 100, 24, 23658, -18643, 5325, 5434, 14, 14, 1526158664.158, 11, 0, 1024, 1024, 1024, 1024, 0, 6, 3915, 3920, 3927, 3973, 3967, 3942, 0, 1, 11905, -89.900, 0.000, 65.900, 0.000, 0.000, -2.900, 0.0, , , , , , 97, , , 37, 37, 37
38.1754067, -120.0595418, 20.000, 13:57:44.252, 14, 0.00, 0.12, 98, -0.900, 2.200, 66.700, 1036, 100, 100, 24, 23658, -18643, 5325, 5434, 14, 14, 1526158664.253, 105, 0, 1024, 1024, 1024, 1024, 0, 6, 3915, 3920, 3927, 3973, 3967, 3942, 0, 1, 12000, -89.900, 0.000, 65.900, 0.000, 0.000, -2.900, 0.0, , , , , , 97, , , 37, 37, 37
38.1754067, -120.0595417, 20.600, 13:57:44.353, 14, 0.00, 0.13, 98, -0.500, 2.600, 66.600, 1036, 100, 100, 24, 23658, -18643, 5325, 5434, 14, 14, 1526158664.353, 52, 0, 1024, 1024, 1024, 1024, 0, 6, 3915, 3920, 3927, 3973, 3967, 3942, 0, 1, 12100, -89.900, 0.000, 65.900, 0.000, 0.000, -2.900, 0.0, , , , , , 97, , , 37, 37, 37
38.1754067, -120.0595417, 20.900, 13:57:44.453, 14, 0.00, 0.14, 98, -0.500, 3.000, 66.600, 1036, 100, 100, 24, 23658, -18643, 5325, 5434, 14, 14, 1526158664.453, 40, 0, 1024, 1024, 1024, 1024, 0, 6, 3915, 3920, 3927, 3973, 3967, 3942, 0, 1, 12201, -89.900, 0.000, 65.900, 0.000, 0.000, -2.900, 0.0, , , , , , 97, , , 37, 37, 37
38.1754068, -120.0595416, 21.200, 13:57:44.553, 14, 0.00, 0.15, 98, -0.300, 2.900, 66.500, 1036, 100, 100, 24, 23658, -18643, 5325, 5434, 14, 14, 1526158664.553, 51, 0, 1024, 1024, 1024, 1024, 0, 6, 3915, 3920, 3927, 3973, 3967, 3942, 0, 1, 12301, -89.900, 0.000, 65.900, 0.000, 0.000, -2.900, 0.0, , , , , , 97, , , 37, 37, 37
38.1754068, -120.0595415, 21.500, 13:57:44.653, 14, 0.00, 0.16, 98, 0.200, 3.100, 66.300, 1036, 100, 100, 24, 23658, -18643, 5325, 5434, 14, 14, 1526158664.653, 21, 0, 1024, 1024, 1024, 1024, 0, 6, 3915, 3920, 3927, 3973, 3967, 3942, 0, 1, 12400, -89.900, 0.000, 65.900, 0.000, 0.000, -3.000, 0.0, , , , , , 97, , , 37, 37, 37
38.1754068, -120.0595414, 21.800, 13:57:44.753, 14, 0.00, 0.16, 98, 0.100, 3.000, 66.100, 1036, 100, 100, 24, 23658, -18643, 5325, 5434, 14, 14, 1526158664.753, 25, 0, 1024, 1024, 1024, 1024, 0, 6, 3915, 3920, 3927, 3973, 3967, 3942, 0, 1, 12501, -89.900, 0.000, 65.900, 0.000, 0.000, -3.100, 0.0, , , , , , 97, , , 37, 37, 37
38.1754068, -120.0595413, 22.100, 13:57:44.853, 14, 0.00, 0.17, 98, -0.300, 2.900, 66.100, 1036, 100, 100, 24, 23517, -20193, 5270, 5434, 14, 14, 1526158664.853, 24, 0, 1024, 1024, 1024, 1024, 0, 6, 3896, 3894, 3899, 3949, 3942, 3896, 0, 1, 12601, -89.900, 0.000, 65.900, 0.000, 0.000, -3.100, 0.0, , , , , , 97, , , 37, 37, 37
38.1754068, -120.0595412, 22.500, 13:57:44.953, 14, 0.00, 0.17, 98, -0.900, 2.900, 66.300, 1036, 100, 100, 24, 23517, -20193, 5270, 5434, 14, 14, 1526158664.953, 35, 0, 1024, 1024, 1024, 1024, 0, 6, 3896, 3894, 3899, 3949, 3942, 3896, 0, 1, 12701, -89.900, 0.000, 65.900, 0.000, 0.000, -3.000, 0.0, , , , , , 97, , , 37, 37, 37
38.1754068, -120.0595412, 22.800, 13:57:45.053, 14, 0.00, 0.18, 98, -1.700, 3.000, 66.600, 1036, 100, 100, 24, 23517, -20193, 5270, 5434, 14, 14, 1526158665.053, 35, 0, 1024, 1024, 1024, 1024, 0, 6, 3896, 3894, 3899, 3949, 3942, 3896, 0, 1, 12800, -89.900, 0.000, 65.900, 0.000, 0.000, -2.900, 0.0, , , , , , 97, , , 37, 37, 37
38.1754068, -120.0595411, 23.100, 13:57:45.162, 14, 0.00, 0.18, 98, -2.100, 2.900, 66.900, 1036, 100, 100, 24, 23517, -20193, 5270, 5434, 14, 14, 1526158665.162, 10, 0, 1024, 1024, 1024, 1024, 0, 6, 3896, 3894, 3899, 3949, 3942, 3896, 0, 1, 12909, -90.000, 0.000, 65.900, 0.000, 0.000, -2.900, 0.0, , , , , , 97, , , 37, 37, 37
38.1754068, -120.0595411, 23.400, 13:57:45.253, 14, 0.00, 0.18, 98, -2.000, 2.400, 67.000, 1036, 100, 100, 24, 23517, -20193, 5270, 5434, 14, 14, 1526158665.253, 6, 0, 1024, 1024, 1024, 1024, 0, 6, 3896, 3894, 3899, 3949, 3942, 3896, 0, 1, 13000, -89.900, 0.000, 65.900, 0.000, 0.000, -2.900, 0.0, , , , , , 97, , , 37, 37, 37
38.1754068, -120.0595411, 23.700, 13:57:45.353, 14, 0.00, 0.19, 98, -1.900, 2.700, 66.900, 1036, 100, 100, 24, 23517, -20193, 5270, 5434, 14, 14, 1526158665.353, 23, 0, 1024, 1024, 1024, 1024, 0, 6, 3896, 3894, 3899, 3949, 3942, 3896, 0, 1, 13100, -89.900, 0.000, 65.900, 0.000, 0.000, -2.900, 0.0, , , , , , 97, , , 37, 37, 37
38.1754068, -120.0595410, 23.900, 13:57:45.453, 14, 0.00, 0.19, 98, -1.100, 3.200, 66.800, 1036, 100, 100, 24, 23517, -20193, 5270, 5434, 14, 14, 1526158665.453, 22, 0, 1024, 1024, 1024, 1024, 0, 6, 3896, 3894, 3899, 3949, 3942, 3896, 0, 1, 13200, -89.900, 0.000, 65.900, 0.000, 0.000, -2.900, 0.0, , , , , , 97, , , 37, 37, 37
38.1754068, -120.0595410, 24.300, 13:57:45.553, 14, 0.00, 0.19, 98, -0.600, 3.500, 66.700, 1036, 100, 100, 24, 23517, -20193, 5270, 5434, 14, 14, 1526158665.553, 22, 0, 1024, 1024, 1024, 1024, 0, 6, 3896, 3894, 3899, 3949, 3942, 3896, 0, 1, 13301, -89.900, 0.000, 65.900, 0.000, 0.000, -2.900, 0.0, , , , , , 97, , , 37, 37, 37
38.1754068, -120.0595410, 24.600, 13:57:45.672, 14, 0.00, 0.19, 98, -0.600, 3.400, 66.900, 1036, 100, 100, 24, 23517, -20193, 5270, 5434, 14, 14, 1526158665.672, 15, 0, 1024, 1024, 1024, 1024, 0, 6, 3896, 3894, 3899, 3949, 3942, 3896, 0, 1, 13419, -89.900, 0.000, 65.900, 0.000, 0.000, -3.000, 0.0, , , , , , 97, , , 37, 37, 37
38.1754068, -120.0595410, 24.900, 13:57:45.755, 14, 0.00, 0.19, 98, -0.900, 2.900, 67.200, 1036, 100, 100, 24, 23517, -20193, 5270, 5434, 14, 14, 1526158665.756, 7, 0, 1024, 1024, 1024, 1024, 0, 6, 3896, 3894, 3899, 3949, 3942, 3896, 0, 1, 13503, -90.000, 0.000, 65.900, 0.000, 0.000, -2.900, 0.0, , , , , , 97, , , 37, 37, 37
38.1754068, -120.0595410, 25.100, 13:57:45.857, 14, 0.00, 0.19, 97, -0.900, 2.600, 67.300, 1036, 100, 100, 24, 23419, -20759, 5270, 5434, 14, 14, 1526158665.857, 8, 0, 1024, 1024, 1024, 1024, 0, 6, 3896, 3894, 3899, 3949, 3942, 3896, 0, 1, 13604, -89.900, 0.000, 65.900, 0.000, 0.000, -2.900, 0.0, , , , , , 97, , , 37, 37, 37
38.1754068, -120.0595410, 25.100, 13:57:45.953, 14, 0.00, 0.19, 97, -0.900, 2.600, 67.300, 1036, 100, 100, 24, 23419, -20759, 5270, 5434, 14, 14, 1526158665.954, 105, 0, 1024, 1024, 1024, 1024, 0, 6, 3896, 3894, 3899, 3949, 3942, 3896, 0, 1, 13701, -89.900, 0.000, 65.900, 0.000, 0.000, -2.900, 0.0, , , , , , 97, , , 37, 37, 37
38.1754068, -120.0595410, 25.400, 13:57:46.053, 14, 0.00, 0.20, 97, -0.800, 2.700, 67.300, 1036, 100, 100, 24, 23419, -20759, 5270, 5434, 14, 14, 1526158666.053, 71, 0, 1024, 1024, 1024, 1024, 0, 6, 3896, 3894, 3899, 3949, 3942, 3896, 0, 1, 13800, -89.900, 0.000, 65.900, 0.000, 0.000, -2.900, 0.0, , , , , , 97, , , 37, 37, 37
38.1754068, -120.0595409, 25.700, 13:57:46.153, 14, 0.00, 0.20, 97, -0.700, 3.100, 67.300, 1036, 100, 100, 24, 23419, -20759, 5270, 5434, 14, 14, 1526158666.153, 94, 0, 1024, 1024, 1024, 1024, 0, 6, 3896, 3894, 3899, 3949, 3942, 3896, 0, 1, 13901, -89.900, 0.000, 65.900, 0.000, 0.000, -3.000, 0.0, , , , , , 97, , , 37, 37, 37
38.1754069, -120.0595409, 26.000, 13:57:46.252, 14, 0.00, 0.20, 97, -0.700, 3.500, 67.100, 1036, 100, 100, 24, 23419, -20759, 5270, 5434, 14, 14, 1526158666.253, 56, 0, 1024, 1024, 1024, 1024, 0, 6, 3896, 3894, 3899, 3949, 3942, 3896, 0, 1, 14000, -89.900, 0.000, 65.900, 0.000, 0.000, -3.000, 0.0, , , , , , 97, , , 37, 37, 37
38.1754069, -120.0595409, 26.300, 13:57:46.353, 14, 0.00, 0.21, 97, -0.700, 3.700, 67.000, 1036, 100, 100, 24, 23419, -20759, 5270, 5434, 14, 14, 1526158666.353, 60, 0, 1024, 1024, 1024, 1024, 0, 6, 3896, 3894, 3899, 3949, 3942, 3896, 0, 1, 14101, -89.900, 0.000, 65.900, 0.000, 0.000, -3.000, 0.0, , , , , , 97, , , 37, 37, 37
38.1754069, -120.0595409, 26.600, 13:57:46.453, 14, 0.00, 0.21, 97, -0.500, 3.800, 66.900, 1036, 100, 100, 24, 23419, -20759, 5270, 5434, 14, 14, 1526158666.453, 38, 0, 1024, 1024, 1024, 1024, 0, 6, 3893, 3897, 3899, 3950, 3943, 3903, 0, 1, 14200, -89.900, 0.000, 65.900, 0.000, 0.000, -3.000, 0.0, , , , , , 97, , , 37, 37, 37
38.1754069, -120.0595409, 26.600, 13:57:46.553, 14, 0.00, 0.21, 97, -0.500, 3.800, 66.900, 1036, 100, 100, 24, 23419, -20759, 5270, 5434, 14, 14, 1526158666.553, 139, 0, 1024, 1024, 1024, 1024, 0, 6, 3893, 3897, 3899, 3950, 3943, 3903, 0, 1, 14300, -89.900, 0.000, 65.900, 0.000, 0.000, -3.000, 0.0, , , , , , 97, , , 37, 37, 37
38.1754069, -120.0595408, 26.900, 13:57:46.653, 14, 0.00, 0.21, 97, -0.600, 3.700, 66.900, 1036, 100, 99, 24, 23419, -20759, 5270, 5434, 14, 14, 1526158666.653, 41, 0, 1024, 1024, 1024, 1024, 0, 6, 3893, 3897, 3899, 3950, 3943, 3903, 0, 1, 14401, -89.900, 0.000, 65.900, 0.000, 0.000, -3.100, 0.0, , , , , , 97, , , 37, 37, 37
38.1754070, -120.0595409, 27.500, 13:57:46.752, 14, 0.00, 0.21, 97, -0.500, 3.500, 67.000, 1036, 100, 99, 24, 23419, -20759, 5270, 5434, 14, 14, 1526158666.753, 65, 0, 1024, 1024, 1024, 1024, 0, 6, 3893, 3897, 3899, 3950, 3943, 3903, 0, 1, 14500, -89.900, 0.000, 65.900, 0.000, 0.000, -3.000, 0.0, , , , , , 97, , , 37, 37, 37
38.1754071, -120.0595410, 27.800, 13:57:46.853, 14, 0.00, 0.21, 97, 0.000, 3.300, 67.100, 1036, 100, 99, 24, 23419, -20759, 5270, 5434, 14, 14, 1526158666.853, 73, 0, 1024, 1024, 1024, 1024, 0, 6, 3893, 3897, 3899, 3950, 3943, 3903, 0, 1, 14601, -90.000, 0.000, 65.900, 0.000, 0.000, -3.000, 0.0, , , , , , 97, , , 37, 37, 37
38.1754072, -120.0595411, 28.100, 13:57:46.953, 14, 0.10, 0.20, 97, 0.500, 3.000, 67.200, 1036, 100, 99, 24, 23419, -20759, 5270, 5434, 14, 14, 1526158666.953, 89, 0, 1024, 1024, 1024, 1024, 0, 6, 3893, 3897, 3899, 3950, 3943, 3903, 0, 1, 14701, -90.000, 0.000, 65.900, 0.000, -0.100, -2.900, 0.0, , , , , , 97, , , 37, 37, 37
38.1754073, -120.0595413, 28.400, 13:57:47.053, 14, 0.10, 0.20, 97, 0.700, 2.700, 67.300, 1036, 100, 99, 24, 23419, -20759, 5270, 5434, 14, 14, 1526158667.054, 73, 0, 1024, 1024, 1024, 1024, 0, 6, 3893, 3897, 3899, 3950, 3943, 3903, 0, 1, 14801, -90.000, 0.000, 65.900, 0.000, -0.100, -2.900, 0.0, , , , , , 97, , , 37, 37, 37
38.1754074, -120.0595414, 28.700, 13:57:47.153, 14, 0.10, 0.19, 97, 1.000, 2.400, 67.300, 1036, 100, 99, 24, 23419, -20759, 5270, 5434, 14, 14, 1526158667.153, 96, 0, 1024, 1024, 1024, 1024, 0, 6, 3893, 3897, 3899, 3950, 3943, 3903, 0, 1, 14901, -90.000, 0.000, 65.900, 0.000, -0.100, -2.900, 0.0, , , , , , 97, , , 37, 37, 37
38.1754074, -120.0595416, 29.000, 13:57:47.253, 14, 0.10, 0.19, 97, 1.100, 2.000, 67.400, 1036, 100, 99, 24, 23419, -20759, 5270, 5434, 14, 14, 1526158667.254, 73, 0, 1024, 1024, 1024, 1024, 0, 6, 3893, 3897, 3899, 3950, 3943, 3903, 0, 1, 15001, -90.000, 0.000, 65.900, 0.000, -0.100, -2.900, 0.0, , , , , , 97, , , 37, 37, 37
38.1754074, -120.0595416, 29.000, 13:57:47.353, 14, 0.10, 0.19, 97, 1.100, 2.000, 67.400, 1036, 100, 99, 24, 23419, -20759, 5270, 5434, 14, 14, 1526158667.353, 173, 0, 1024, 1024, 1024, 1024, 0, 6, 3893, 3897, 3899, 3950, 3943, 3903, 0, 1, 15101, -90.000, 0.000, 65.900, 0.000, -0.100, -2.900, 0.0, , , , , , 97, , , 37, 37, 37
38.1754075, -120.0595419, 29.600, 13:57:47.453, 14, 0.00, 0.18, 97, 1.300, 1.800, 67.400, 1036, 100, 99, 24, 23355, -21334, 5270, 5434, 14, 14, 1526158667.454, 27, 0, 1024, 1024, 1024, 1024, 0, 6, 3893, 3897, 3899, 3950, 3943, 3903, 0, 1, 15201, -90.000, 0.000, 65.900, 0.000, 0.000, -3.000, 0.0, , , , , , 97, , , 37, 37, 37
38.1754075, -120.0595419, 29.600, 13:57:47.553, 14, 0.00, 0.18, 97, 1.300, 1.800, 67.400, 1036, 100, 99, 24, 23355, -21334, 5270, 5434, 14, 14, 1526158667.553, 126, 0, 1024, 1024, 1024, 1024, 0, 6, 3893, 3897, 3899, 3950, 3943, 3903, 0, 1, 15301, -90.000, 0.000, 65.900, 0.000, 0.000, -3.000, 0.0, , , , , , 97, , , 37, 37, 37
38.1754076, -120.0595421, 30.200, 13:57:47.653, 14, 0.00, 0.17, 97, 1.400, 1.500, 67.100, 1036, 100, 99, 24, 23355, -21334, 5270, 5434, 14, 14, 1526158667.653, 7, 0, 1024, 1024, 1024, 1024, 0, 6, 3873, 3882, 3876, 3928, 3942, 3879, 0, 1, 15400, -90.000, 0.000, 65.900, 0.000, 0.000, -2.900, 0.0, , , , , , 97, , , 37, 37, 37
38.1754076, -120.0595421, 30.200, 13:57:47.753, 14, 0.00, 0.17, 97, 1.400, 1.500, 67.100, 1036, 100, 99, 24, 23355, -21334, 5270, 5434, 14, 14, 1526158667.753, 107, 0, 1024, 1024, 1024, 1024, 0, 6, 3873, 3882, 3876, 3928, 3942, 3879, 0, 1, 15500, -90.000, 0.000, 65.900, 0.000, 0.000, -2.900, 0.0, , , , , , 97, , , 37, 37, 37
38.1754076, -120.0595422, 30.500, 13:57:47.853, 14, 0.00, 0.17, 97, 0.900, 1.700, 66.900, 1036, 100, 99, 24, 23355, -21334, 5270, 5434, 14, 14, 1526158667.853, 77, 0, 1024, 1024, 1024, 1024, 0, 6, 3873, 3882, 3876, 3928, 3942, 3879, 0, 1, 15601, -90.000, 0.000, 65.900, 0.000, 0.000, -3.000, 0.0, , , , , , 97, , , 37, 37, 37
38.1754076, -120.0595423, 31.100, 13:57:47.956, 14, 0.00, 0.16, 97, 0.800, 2.400, 66.600, 1036, 100, 99, 24, 23355, -21334, 5270, 5434, 14, 14, 1526158667.956, 11, 0, 1024, 1024, 1024, 1024, 0, 6, 3873, 3882, 3876, 3928, 3942, 3879, 0, 1, 15704, -89.900, 0.000, 65.900, 0.000, 0.000, -3.000, 0.0, , , , , , 97, , , 37, 37, 37
38.1754076, -120.0595423, 31.100, 13:57:48.053, 14, 0.00, 0.16, 97, 0.800, 2.400, 66.600, 1036, 100, 99, 24, 23355, -21334, 5270, 5434, 14, 14, 1526158668.053, 108, 0, 1024, 1024, 1024, 1024, 0, 6, 3873, 3882, 3876, 3928, 3942, 3879, 0, 1, 15800, -89.900, 0.000, 65.900, 0.000, 0.000, -3.000, 0.0, , , , , , 97, , , 37, 37, 37
38.1754076, -120.0595423, 31.400, 13:57:48.153, 14, 0.00, 0.16, 97, 0.600, 2.600, 66.700, 1036, 100, 100, 24, 23355, -21334, 5270, 5434, 14, 14, 1526158668.153, 86, 0, 1024, 1024, 1024, 1024, 0, 6, 3873, 3882, 3876, 3928, 3942, 3879, 0, 1, 15901, -89.900, 0.000, 65.900, 0.000, 0.000, -3.000, 0.0, , , , , , 97, , , 37, 37, 37
38.1754075, -120.0595423, 31.700, 13:57:48.253, 14, 0.00, 0.16, 97, 0.200, 2.600, 66.800, 1036, 100, 100, 24, 23355, -21334, 5270, 5434, 14, 14, 1526158668.253, 58, 0, 1024, 1024, 1024, 1024, 0, 6, 3873, 3882, 3876, 3928, 3942, 3879, 0, 1, 16000, -90.000, 0.000, 65.900, 0.000, 0.000, -3.000, 0.0, , , , , , 97, , , 37, 37, 37
38.1754074, -120.0595423, 32.300, 13:57:48.353, 14, 0.00, 0.15, 97, -0.400, 2.500, 66.700, 1036, 100, 100, 24, 23355, -21334, 5270, 5434, 14, 14, 1526158668.354, 28, 0, 1024, 1024, 1024, 1024, 0, 6, 3873, 3882, 3876, 3928, 3942, 3879, 0, 1, 16101, -90.000, 0.000, 65.900, 0.000, 0.000, -3.000, 0.0, , , , , , 97, , , 37, 37, 37
38.1754074, -120.0595424, 32.600, 13:57:48.453, 14, 0.00, 0.14, 97, -0.700, 2.400, 66.700, 1036, 100, 100, 24, 23475, -19402, 5270, 5434, 14, 14, 1526158668.453, 28, 0, 1024, 1024, 1024, 1024, 0, 6, 3900, 3900, 3888, 3945, 3940, 3889, 0, 1, 16200, -90.000, 0.000, 65.900, 0.000, 0.000, -3.000, 0.0, , , , , , 97, , , 37, 37, 37
38.1754073, -120.0595424, 32.900, 13:57:48.553, 14, 0.00, 0.14, 97, -0.600, 2.200, 66.700, 1036, 100, 100, 24, 23475, -19402, 5270, 5434, 14, 14, 1526158668.553, 66, 0, 1024, 1024, 1024, 1024, 0, 6, 3900, 3900, 3888, 3945, 3940, 3889, 0, 1, 16301, -90.000, 0.000, 65.900, 0.000, 0.000, -3.000, 0.0, , , , , , 97, , , 37, 37, 37
38.1754073, -120.0595425, 33.200, 13:57:48.653, 14, 0.00, 0.13, 97, -0.500, 2.400, 66.700, 1036, 100, 100, 24, 23475, -19402, 5270, 5434, 14, 14, 1526158668.653, 70, 0, 1024, 1024, 1024, 1024, 0, 6, 3900, 3900, 3888, 3945, 3940, 3889, 0, 1, 16401, -90.000, 0.000, 65.900, 0.000, 0.000, -3.000, 0.0, , , , , , 97, , , 37, 37, 37
38.1754073, -120.0595425, 33.200, 13:57:48.753, 14, 0.00, 0.13, 97, -0.500, 2.400, 66.700, 1036, 100, 100, 24, 23475, -19402, 5270, 5434, 14, 14, 1526158668.753, 170, 0, 1024, 1024, 1024, 1024, 0, 6, 3900, 3900, 3888, 3945, 3940, 3889, 0, 1, 16501, -90.000, 0.000, 65.900, 0.000, 0.000, -3.000, 0.0, , , , , , 97, , , 37, 37, 37
38.1754072, -120.0595426, 33.800, 13:57:48.853, 14, 0.00, 0.11, 97, -0.600, 2.200, 66.800, 1036, 100, 100, 24, 23475, -19402, 5270, 5434, 14, 14, 1526158668.853, 68, 0, 1024, 1024, 1024, 1024, 0, 6, 3900, 3900, 3888, 3945, 3940, 3889, 0, 1, 16601, -90.000, 0.000, 65.900, 0.000, 0.000, -3.100, 0.0, , , , , , 97, , , 37, 37, 37
38.1754071, -120.0595426, 34.100, 13:57:48.953, 14, 0.00, 0.11, 97, -0.700, 2.100, 66.900, 1036, 100, 100, 24, 23475, -19402, 5270, 5434, 14, 14, 1526158668.953, 68, 0, 1024, 1024, 1024, 1024, 0, 6, 3900, 3900, 3888, 3945, 3940, 3889, 0, 1, 16700, -90.000, 0.000, 65.900, 0.000, 0.000, -3.100, 0.0, , , , , , 97, , , 37, 37, 37
38.1754071, -120.0595427, 34.400, 13:57:49.053, 14, 0.00, 0.10, 97, -0.400, 2.000, 66.900, 1036, 100, 99, 24, 23475, -19402, 5270, 5434, 14, 14, 1526158669.053, 67, 0, 1024, 1024, 1024, 1024, 0, 6, 3900, 3900, 3888, 3945, 3940, 3889, 0, 1, 16801, -90.000, 0.000, 65.900, 0.000, 0.000, -3.000, 0.0, , , , , , 97, , , 37, 37, 37
38.1754071, -120.0595428, 35.100, 13:57:49.153, 14, 0.00, 0.10, 97, -0.200, 2.000, 67.000, 1036, 100, 99, 24, 23475, -19402, 5270, 5434, 14, 14, 1526158669.153, 75, 0, 1024, 1024, 1024, 1024, 0, 6, 3900, 3900, 3888, 3945, 3940, 3889, 0, 1, 16901, -90.000, 0.000, 65.900, 0.000, 0.000, -3.100, 0.0, , , , , , 97, , , 37, 37, 37
38.1754071, -120.0595428, 35.400, 13:57:49.253, 14, 0.00, 0.10, 97, -0.200, 2.200, 67.000, 1036, 100, 99, 24, 23475, -19402, 5270, 5434, 14, 14, 1526158669.253, 57, 0, 1024, 1024, 1024, 1024, 0, 6, 3900, 3900, 3888, 3945, 3940, 3889, 0, 1, 17000, -89.900, 0.000, 65.900, 0.000, 0.000, -3.000, 0.0, , , , , , 97, , , 37, 37, 37
38.1754071, -120.0595429, 35.700, 13:57:49.353, 14, 0.00, 0.10, 97, -0.200, 2.100, 67.000, 1036, 100, 99, 24, 23442, -19881, 5270, 5434, 14, 14, 1526158669.353, 60, 0, 1024, 1024, 1024, 1024, 0, 6, 3892, 3888, 3894, 3936, 3933, 3899, 0, 1, 17101, -90.000, 0.000, 65.900, 0.000, 0.000, -3.000, 0.0, , , , , , 97, , , 37, 37, 37
38.1754071, -120.0595429, 36.000, 13:57:49.453, 14, 0.00, 0.10, 97, -0.100, 2.100, 66.900, 1036, 100, 99, 24, 23442, -19881, 5270, 5434, 14, 14, 1526158669.453, 52, 0, 1024, 1024, 1024, 1024, 0, 6, 3892, 3888, 3894, 3936, 3933, 3899, 0, 1, 17201, -89.900, 0.000, 65.900, 0.000, 0.000, -3.000, 0.0, , , , , , 97, , , 37, 37, 37
38.1754071, -120.0595429, 36.300, 13:57:49.553, 14, 0.00, 0.10, 97, 0.000, 2.400, 66.900, 1036, 100, 99, 24, 23442, -19881, 5270, 5434, 14, 14, 1526158669.553, 29, 0, 1024, 1024, 1024, 1024, 0, 6, 3892, 3888, 3894, 3936, 3933, 3899, 0, 1, 17300, -89.900, 0.000, 65.900, 0.000, 0.000, -2.900, 0.0, , , , , , 97, , , 37, 37, 37
38.1754071, -120.0595429, 36.600, 13:57:49.653, 14, 0.00, 0.10, 97, 0.100, 2.400, 66.800, 1036, 100, 99, 24, 23442, -19881, 5270, 5434, 14, 14, 1526158669.653, 56, 0, 1024, 1024, 1024, 1024, 0, 6, 3892, 3888, 3894, 3936, 3933, 3899, 0, 1, 17401, -89.900, 0.000, 65.900, 0.000, 0.000, -3.000, 0.0, , , , , , 97, , , 37, 37, 37
38.1754071, -120.0595430, 36.900, 13:57:49.753, 14, 0.00, 0.10, 97, 0.100, 2.600, 66.800, 1036, 100, 99, 24, 23442, -19881, 5270, 5434, 14, 14, 1526158669.753, 25, 0, 1024, 1024, 1024, 1024, 0, 6, 3892, 3888, 3894, 3936, 3933, 3899, 0, 1, 17500, -89.900, 0.000, 65.900, 0.000, 0.000, -3.000, 0.0, , , , , , 97, , , 37, 37, 37
38.1754071, -120.0595430, 37.200, 13:57:49.853, 14, 0.00, 0.09, 97, 0.100, 2.700, 66.800, 1036, 100, 99, 24, 23442, -19881, 5270, 5434, 14, 14, 1526158669.853, 21, 0, 1024, 1024, 1024, 1024, 0, 6, 3892, 3888, 3894, 3936, 3933, 3899, 0, 1, 17601, -89.900, 0.000, 65.900, 0.000, 0.000, -3.000, 0.0, , , , , , 97, , , 37, 37, 37
38.1754070, -120.0595430, 37.500, 13:57:49.953, 14, 0.00, 0.09, 97, 0.000, 2.600, 66.800, 1036, 100, 96, 24, 23442, -19881, 5270, 5434, 14, 14, 1526158669.953, 37, 0, 1024, 1024, 1024, 1024, 0, 6, 3892, 3888, 3894, 3936, 3933, 3899, 0, 1, 17700, -89.900, 0.000, 65.900, 0.000, 0.000, -2.900, 0.0, , , , , , 97, , , 37, 37, 37
38.1754070, -120.0595430, 37.800, 13:57:50.053, 14, 0.00, 0.09, 97, -0.200, 2.500, 66.900, 1036, 100, 96, 24, 23442, -19881, 5270, 5434, 14, 14, 1526158670.053, 37, 0, 1024, 1024, 1024, 1024, 0, 6, 3892, 3888, 3894, 3936, 3933, 3899, 0, 1, 17801, -90.000, 0.000, 65.900, 0.000, 0.000, -3.000, 0.0, , , , , , 97, , , 37, 37, 37
38.1754070, -120.0595430, 38.100, 13:57:50.153, 14, 0.00, 0.08, 97, -0.600, 2.400, 66.900, 1036, 100, 96, 24, 23442, -19881, 5270, 5434, 14, 14, 1526158670.153, 7, 0, 1024, 1024, 1024, 1024, 0, 6, 3892, 3888, 3894, 3936, 3933, 3899, 0, 1, 17900, -90.000, 0.000, 65.900, 0.000, 0.000, -2.900, 0.0, , , , , , 97, , , 37, 37, 37
38.1754069, -120.0595430, 38.400, 13:57:50.253, 14, 0.00, 0.08, 97, -0.800, 2.200, 66.700, 1036, 100, 96, 24, 23442, -19881, 5270, 5434, 14, 14, 1526158670.253, 27, 0, 1024, 1024, 1024, 1024, 0, 6, 3892, 3888, 3894, 3936, 3933, 3899, 0, 1, 18000, -90.000, 0.000, 65.900, 0.000, 0.000, -2.900, 0.0, , , , , , 97, , , 37, 37, 37
38.1754069, -120.0595431, 38.700, 13:57:50.354, 14, 0.00, 0.08, 97, -0.400, 2.300, 66.600, 1036, 100, 96, 24, 23442, -19881, 5270, 5434, 14, 14, 1526158670.354, 6, 0, 1024, 1024, 1024, 1024, 0, 6, 3892, 3888, 3894, 3936, 3933, 3899, 0, 1, 18102, -89.900, 0.000, 65.900, 0.000, 0.000, -2.900, 0.0, , , , , , 97, , , 37, 37, 37
38.1754069, -120.0595431, 39.000, 13:57:50.457, 14, 0.00, 0.07, 97, -0.100, 2.400, 66.500, 1036, 100, 97, 24, 23518, -18227, 5270, 5434, 14, 14, 1526158670.458, 11, 0, 1024, 1024, 1024, 1024, 0, 6, 3899, 3901, 3912, 3943, 3951, 3918, 0, 1, 18205, -90.000, 0.000, 65.900, 0.000, 0.000, -2.900, 0.0, , , , , , 97, , , 37, 37, 37
38.1754069, -120.0595431, 39.300, 13:57:50.553, 14, 0.00, 0.07, 97, -0.100, 2.400, 66.400, 1036, 100, 97, 24, 23518, -18227, 5270, 5434, 14, 14, 1526158670.554, 6, 0, 1024, 1024, 1024, 1024, 0, 6, 3899, 3901, 3912, 3943, 3951, 3918, 0, 1, 18301, -90.000, 0.000, 65.900, 0.000, 0.000, -2.900, 0.0, , , , , , 97, , , 37, 37, 37
38.1754069, -120.0595430, 39.600, 13:57:50.665, 14, 0.00, 0.07, 97, -0.100, 2.200, 66.400, 1036, 100, 97, 24, 23518, -18227, 5270, 5434, 14, 14, 1526158670.666, 16, 0, 1024, 1024, 1024, 1024, 0, 6, 3899, 3901, 3912, 3943, 3951, 3918, 0, 1, 18413, -90.000, 0.000, 65.900, 0.000, 0.000, -3.000, 0.0, , , , , , 97, , , 37, 37, 37
38.1754069, -120.0595430, 39.900, 13:57:50.760, 14, 0.00, 0.08, 97, 0.000, 2.100, 66.600, 1036, 100, 97, 24, 23518, -18227, 5270, 5434, 14, 14, 1526158670.761, 8, 0, 1024, 1024, 1024, 1024, 0, 6, 3899, 3901, 3912, 3943, 3951, 3918, 0, 1, 18508, -89.900, 0.000, 65.900, 0.000, 0.000, -3.000, 0.0, , , , , , 97, , , 37, 37, 37
38.1754069, -120.0595430, 40.200, 13:57:50.859, 14, 0.00, 0.08, 97, 0.000, 2.600, 66.700, 1036, 100, 97, 24, 23518, -18227, 5270, 5434, 14, 14, 1526158670.860, 6, 0, 1024, 1024, 1024, 1024, 0, 6, 3899, 3901, 3912, 3943, 3951, 3918, 0, 1, 18607, -89.900, 0.000, 65.900, 0.000, 0.000, -3.000, 0.0, , , , , , 97, , , 37, 37, 37
38.1754069, -120.0595430, 40.200, 13:57:50.953, 14, 0.00, 0.08, 97, 0.000, 2.600, 66.700, 1036, 100, 97, 24, 23518, -18227, 5270, 5434, 14, 14, 1526158670.953, 100, 0, 1024, 1024, 1024, 1024, 0, 6, 3899, 3901, 3912, 3943, 3951, 3918, 0, 1, 18701, -89.900, 0.000, 65.900, 0.000, 0.000, -3.000, 0.0, , , , , , 97, , , 37, 37, 37
38.1754069, -120.0595429, 40.500, 13:57:51.053, 14, 0.00, 0.08, 97, -0.100, 2.900, 66.800, 1036, 100, 95, 24, 23518, -18227, 5270, 5434, 14, 14, 1526158671.054, 87, 0, 1024, 1024, 1024, 1024, 0, 6, 3899, 3901, 3912, 3943, 3951, 3918, 0, 1, 18801, -89.900, 0.000, 65.900, 0.000, 0.000, -2.900, 0.0, , , , , , 97, , , 37, 37, 37
38.1754069, -120.0595429, 40.800, 13:57:51.153, 14, 0.00, 0.08, 97, -0.100, 2.900, 66.800, 1036, 100, 95, 24, 23518, -18227, 5270, 5434, 14, 14, 1526158671.153, 90, 0, 1024, 1024, 1024, 1024, 0, 6, 3899, 3901, 3912, 3943, 3951, 3918, 0, 1, 18901, -89.900, 0.000, 65.900, 0.000, 0.000, -2.900, 0.0, , , , , , 97, , , 37, 37, 37
38.1754070, -120.0595428, 41.100, 13:57:51.253, 14, 0.00, 0.08, 97, -0.100, 3.100, 66.900, 1036, 100, 95, 24, 23518, -18227, 5270, 5434, 14, 14, 1526158671.253, 92, 0, 1024, 1024, 1024, 1024, 0, 6, 3899, 3901, 3912, 3943, 3951, 3918, 0, 1, 19000, -89.900, 0.000, 65.900, 0.000, 0.000, -3.000, 0.0, , , , , , 97, , , 37, 37, 37
38.1754070, -120.0595427, 41.400, 13:57:51.353, 14, 0.00, 0.09, 97, 0.000, 3.300, 66.800, 1036, 100, 95, 24, 23518, -18227, 5270, 5434, 14, 14, 1526158671.353, 92, 0, 1024, 1024, 1024, 1024, 0, 6, 3899, 3901, 3912, 3943, 3951, 3918, 0, 1, 19101, -89.900, 0.000, 65.900, 0.000, 0.000, -3.100, 0.0, , , , , , 97, , , 37, 37, 37
38.1754070, -120.0595426, 41.800, 13:57:51.453, 14, 0.00, 0.10, 97, 0.000, 3.700, 66.700, 1036, 100, 95, 24, 23532, -18133, 5270, 5434, 14, 14, 1526158671.454, 95, 0, 1024, 1024, 1024, 1024, 0, 6, 3899, 3901, 3912, 3943, 3951, 3918, 0, 1, 19201, -89.900, 0.000, 65.900, 0.000, 0.000, -3.200, 0.0, , , , , , 97, , , 37, 37, 37
38.1754071, -120.0595425, 42.100, 13:57:51.553, 14, 0.10, 0.10, 97, -0.100, 3.900, 66.600, 1036, 100, 98, 24, 23532, -18133, 5270, 5434, 14, 14, 1526158671.553, 60, 0, 1024, 1024, 1024, 1024, 0, 6, 3899, 3901, 3912, 3943, 3951, 3918, 0, 1, 19300, -89.900, 0.000, 65.900, 0.000, 0.100, -3.200, 0.0, , , , , , 97, , , 37, 37, 37
38.1754071, -120.0595424, 42.500, 13:57:51.653, 14, 0.00, 0.11, 97, -0.300, 4.400, 66.600, 1036, 100, 98, 24, 23532, -18133, 5270, 5434, 14, 14, 1526158671.653, 61, 0, 1024, 1024, 1024, 1024, 0, 6, 3899, 3901, 3912, 3943, 3951, 3918, 0, 1, 19400, -89.900, 0.000, 65.900, 0.000, 0.000, -3.100, 0.0, , , , , , 97, , , 37, 37, 37
38.1754072, -120.0595422, 43.100, 13:57:51.753, 14, 0.00, 0.13, 97, -0.400, 4.700, 66.900, 1036, 100, 98, 24, 23532, -18133, 5270, 5434, 14, 14, 1526158671.753, 34, 0, 1024, 1024, 1024, 1024, 0, 6, 3899, 3901, 3912, 3943, 3951, 3918, 0, 1, 19500, -89.900, 0.000, 65.900, 0.000, 0.000, -2.800, 0.0, , , , , , 97, , , 37, 37, 37
38.1754072, -120.0595421, 43.300, 13:57:51.853, 14, 0.00, 0.14, 97, -0.500, 4.200, 67.100, 1036, 100, 98, 24, 23532, -18133, 5270, 5434, 14, 14, 1526158671.853, 61, 0, 1024, 1024, 1024, 1024, 0, 6, 3899, 3901, 3912, 3943, 3951, 3918, 0, 1, 19601, -90.000, 0.000, 65.900, 0.000, 0.000, -2.700, 0.0, , , , , , 97, , , 37, 37, 37
38.1754072, -120.0595420, 43.600, 13:57:51.953, 14, 0.00, 0.14, 97, -0.300, 3.800, 67.400, 1036, 100, 98, 24, 23532, -18133, 5270, 5434, 14, 14, 1526158671.953, 61, 0, 1024, 1024, 1024, 1024, 0, 6, 3896, 3902, 3905, 3951, 3950, 3906, 0, 1, 19700, -90.000, 0.000, 65.900, 0.000, 0.000, -2.700, 0.0, , , , , , 97, , , 37, 37, 37
38.1754073, -120.0595420, 43.900, 13:57:52.053, 14, 0.00, 0.15, 97, -0.200, 3.300, 67.800, 1036, 100, 97, 24, 23532, -18133, 5270, 5434, 14, 14, 1526158672.053, 70, 0, 1024, 1024, 1024, 1024, 0, 6, 3896, 3902, 3905, 3951, 3950, 3906, 0, 1, 19801, -89.900, 0.000, 65.900, 0.000, 0.000, -2.700, 0.0, , , , , , 97, , , 37, 37, 37
38.1754074, -120.0595421, 44.200, 13:57:52.153, 14, 0.00, 0.16, 97, 0.300, 3.600, 68.000, 1036, 100, 97, 24, 23532, -18133, 5270, 5434, 14, 14, 1526158672.153, 22, 0, 1024, 1024, 1024, 1024, 0, 6, 3896, 3902, 3905, 3951, 3950, 3906, 0, 1, 19901, -89.900, 0.000, 65.900, 0.000, 0.000, -2.700, 0.0, , , , , , 97, , , 37, 37, 37
38.1754075, -120.0595421, 44.400, 13:57:52.253, 14, 0.00, 0.16, 97, 1.400, 3.400, 68.100, 1036, 100, 97, 24, 23532, -18133, 5270, 5434, 14, 14, 1526158672.253, 37, 0, 1024, 1024, 1024, 1024, 0, 6, 3896, 3902, 3905, 3951, 3950, 3906, 0, 1, 20000, -90.000, 0.000, 65.900, 0.000, 0.000, -2.700, 0.0, , , , , , 97, , , 37, 37, 37
38.1754076, -120.0595421, 44.700, 13:57:52.353, 14, 0.00, 0.17, 97, 2.000, 3.100, 67.800, 1036, 100, 97, 25, 23532, -18133, 5270, 5434, 14, 14, 1526158672.353, 37, 0, 1024, 1024, 1024, 1024, 0, 6, 3896, 3902, 3905, 3951, 3950, 3906, 0, 1, 20100, -89.900, 0.000, 65.900, 0.000, 0.000, -2.700, 0.0, , , , , , 97, , , 37, 37, 37
38.1754077, -120.0595421, 44.900, 13:57:52.454, 14, 0.00, 0.18, 97, 2.500, 3.600, 67.000, 1036, 100, 99, 25, 23532, -18133, 5270, 5434, 14, 14, 1526158672.454, 14, 0, 1024, 1024, 1024, 1024, 0, 6, 3896, 3902, 3905, 3951, 3950, 3906, 0, 1, 20202, -89.900, 0.000, 65.900, 0.000, 0.000, -2.700, 0.0, , , , , , 97, , , 37, 37, 37
38.1754077, -120.0595421, 45.200, 13:57:52.553, 14, 0.00, 0.19, 97, 2.200, 3.600, 66.300, 1036, 100, 99, 25, 23532, -18133, 5270, 5434, 14, 14, 1526158672.553, 54, 0, 1024, 1024, 1024, 1024, 0, 6, 3896, 3902, 3905, 3951, 3950, 3906, 0, 1, 20301, -90.000, 0.000, 65.900, 0.000, 0.000, -2.800, 0.0, , , , , , 97, , , 37, 37, 37
38.1754078, -120.0595421, 45.500, 13:57:52.653, 14, 0.00, 0.19, 97, 1.800, 3.400, 65.900, 1036, 100, 99, 25, 23532, -18133, 5270, 5434, 14, 14, 1526158672.653, 18, 0, 1024, 1024, 1024, 1024, 0, 6, 3896, 3902, 3905, 3951, 3950, 3906, 0, 1, 20401, -90.000, 0.000, 65.900, 0.000, 0.000, -2.800, 0.0, , , , , , 97, , , 37, 37, 37
38.1754078, -120.0595422, 45.800, 13:57:52.753, 14, 0.00, 0.19, 97, 1.500, 3.200, 65.900, 1036, 100, 99, 25, 23532, -18133, 5270, 5434, 14, 14, 1526158672.753, 17, 0, 1024, 1024, 1024, 1024, 0, 6, 3896, 3902, 3905, 3951, 3950, 3906, 0, 1, 20500, -89.900, 0.000, 65.900, 0.000, 0.000, -2.900, 0.0, , , , , , 97, , , 37, 37, 37
38.1754078, -120.0595421, 46.100, 13:57:52.853, 14, 0.00, 0.20, 97, 1.200, 3.300, 66.100, 1036, 100, 99, 25, 23584, -17415, 5270, 5434, 14, 14, 1526158672.853, 27, 0, 1024, 1024, 1024, 1024, 0, 6, 3931, 3936, 3940, 3979, 3982, 3944, 0, 1, 20601, -89.900, 0.000, 65.900, 0.000, 0.000, -3.000, 0.0, , , , , , 97, , , 37, 37, 37
38.1754079, -120.0595420, 46.300, 13:57:52.953, 14, 0.00, 0.21, 97, 1.000, 3.700, 66.200, 1036, 100, 97, 25, 23584, -17415, 5270, 5434, 14, 14, 1526158672.953, 32, 0, 1024, 1024, 1024, 1024, 0, 6, 3931, 3936, 3940, 3979, 3982, 3944, 0, 1, 20701, -89.900, 0.000, 65.900, 0.000, 0.000, -3.000, 0.0, , , , , , 97, , , 37, 37, 37
38.1754079, -120.0595420, 46.300, 13:57:53.053, 14, 0.00, 0.21, 97, 1.000, 3.700, 66.200, 1036, 100, 97, 25, 23584, -17415, 5270, 5434, 14, 14, 1526158673.053, 132, 0, 1024, 1024, 1024, 1024, 0, 6, 3931, 3936, 3940, 3979, 3982, 3944, 0, 1, 20801, -89.900, 0.000, 65.900, 0.000, 0.000, -3.000, 0.0, , , , , , 97, , , 37, 37, 37
38.1754079, -120.0595418, 46.900, 13:57:53.153, 14, 0.00, 0.22, 97, 0.200, 5.000, 66.600, 1036, 100, 97, 25, 23584, -17415, 5270, 5434, 14, 14, 1526158673.153, 25, 0, 1024, 1024, 1024, 1024, 0, 6, 3931, 3936, 3940, 3979, 3982, 3944, 0, 1, 20901, -89.900, 0.000, 65.900, 0.000, 0.000, -3.000, 0.0, , , , , , 97, , , 37, 37, 37
