Latitude, Longitude, Altitude (m), Time, Sats, Speed (m/s), Range (m), Battery (%), Roll (deg), Pitch (deg), Yaw (deg), Images, HD Signal (%), RC Signal (%), Battery Temp (C), Battery Voltage (mV), Battery Current (mA), Battery Energy (mAh), Battery Capacity (mAh), Battery Discharges, flyState, timestamp (Unix), LastUpdate (ms), radioChannel, Rc_elevator, Rc_aileron, Rc_throttle, Rc_rudder, Rc_gyro, Dronetype, Battery_Cell1 (mV), Battery_Cell2 (mV), Battery_Cell3 (mV), Battery_Cell4 (mV), Battery_Cell5 (mV), Battery_Cell6 (mV), Video, isFlying, elapsedTime (ms), gimbalPitch (deg), gimbalRoll (deg), gimbalYaw (deg), VelocityX (m/s), VelocityY (m/s), VelocityZ (m/s), GroundSmear (cm), App Version, Aircraft Name, Aircraft Firmware, Aircraft Serial Number, Battery Serial Number, Battery Lifetime (%), App_Tip, App_Warning, CurrentFlightStartingIndex, CurrentFlightLastVisitedWaypoint, PreviousFlightEndingWaypointIndex
38.1754105, -120.0595523, -0.100, 13:15:20.491, 12, 0.00, 0.03, 100, -1.100, 0.200, 67.000, 177, 100, 100, 20, 25139, -2841, 5472, 5472, 12, 11, 1526156120.492, 150, 0, 1024, 1024, 1024, 1024, 0, 6, 4253, 4211, 4237, 4181, 4248, 4131, 0, 1, 3221, 0.000, 0.000, 0.000, 0.000, 0.000, -0.100, 0.0, MapPilot_2.8.1_04242018, Dendroctonus I, 1.3.1.00, 041DDC1887, 1058163200627, 97, DJI_0184.jpg, Starting Mission from Lat/Long: 38.17541/-120.05955 Camera: Zenmuse X3 - Overlap: 90/90 - Active Connection: No, 7, 7, 7
38.1754106, -120.0595524, 0.000, 13:15:20.571, 12, 0.00, 0.04, 100, -0.300, 0.100, 67.300, 177, 100, 100, 20, 25177, -4339, 5472, 5472, 12, 11, 1526156120.572, 33, 0, 1024, 1024, 1024, 1024, 0, 6, 4150, 4146, 4164, 4177, 4186, 4137, 0, 1, 3301, 0.000, 0.000, 0.000, 0.000, 0.000, -0.400, 0.0, , , , , , 97, , , 7, 7, 7
38.1754106, -120.0595525, 0.000, 13:15:20.671, 12, 0.00, 0.04, 100, -0.200, 0.000, 67.500, 177, 100, 100, 20, 25177, -4339, 5472, 5472, 12, 11, 1526156120.671, 35, 0, 1024, 1024, 1024, 1024, 0, 6, 4150, 4146, 4164, 4177, 4186, 4137, 0, 1, 3401, 0.000, 0.000, 0.000, 0.000, 0.000, -0.400, 0.0, , , , , , 97, , , 7, 7, 7
38.1754107, -120.0595526, 0.000, 13:15:20.771, 12, 0.00, 0.06, 100, -0.100, -0.500, 67.600, 177, 100, 100, 20, 25177, -4339, 5472, 5472, 12, 11, 1526156120.772, 24, 0, 1024, 1024, 1024, 1024, 0, 6, 4150, 4146, 4164, 4177, 4186, 4137, 0, 1, 3501, 0.000, 0.000, 0.000, 0.000, 0.000, -0.400, 0.0, , , , , , 97, , , 7, 7, 7
38.1754108, -120.0595527, 0.100, 13:15:20.871, 12, 0.00, 0.07, 100, 0.200, -0.800, 67.600, 177, 100, 100, 20, 25177, -4339, 5472, 5472, 12, 11, 1526156120.872, 25, 0, 1024, 1024, 1024, 1024, 0, 6, 4150, 4146, 4164, 4177, 4186, 4137, 0, 1, 3601, 0.000, 0.000, 0.000, 0.000, 0.000, -0.400, 0.0, , , , , , 97, , , 7, 7, 7
38.1754108, -120.0595527, 0.100, 13:15:20.971, 11, 0.00, 0.07, 100, 0.800, -0.800, 67.600, 177, 100, 100, 20, 25177, -4339, 5472, 5472, 12, 11, 1526156120.971, 19, 0, 1024, 1024, 1024, 1024, 0, 6, 4150, 4146, 4164, 4177, 4186, 4137, 0, 1, 3701, 0.000, 0.000, 0.000, 0.000, 0.000, -0.400, 0.0, , , , , , 97, , , 7, 7, 7
38.1754110, -120.0595528, 0.200, 13:15:21.070, 11, 0.10, 0.09, 100, 0.800, -0.700, 67.600, 177, 100, 100, 20, 25177, -4339, 5472, 5472, 12, 11, 1526156121.071, 33, 0, 1024, 1024, 1024, 1024, 0, 6, 4150, 4146, 4164, 4177, 4186, 4137, 0, 1, 3800, 0.000, 0.000, 0.000, 0.100, 0.000, -0.400, 0.0, , , , , , 97, , , 7, 7, 7
38.1754111, -120.0595529, 0.200, 13:15:21.171, 13, 0.10, 0.10, 100, 0.400, -0.300, 67.500, 177, 100, 100, 20, 25177, -4339, 5472, 5472, 12, 11, 1526156121.172, 9, 0, 1024, 1024, 1024, 1024, 0, 6, 4150, 4146, 4164, 4177, 4186, 4137, 0, 1, 3901, 0.000, 0.000, 0.000, 0.100, 0.000, -0.400, 0.0, , , , , , 97, , , 7, 7, 7
38.1754111, -120.0595529, 0.200, 13:15:21.271, 13, 0.10, 0.10, 100, 0.400, -0.300, 67.500, 177, 100, 100, 20, 25177, -4339, 5472, 5472, 12, 11, 1526156121.272, 110, 0, 1024, 1024, 1024, 1024, 0, 6, 4150, 4146, 4164, 4177, 4186, 4137, 0, 1, 4002, 0.000, 0.000, 0.000, 0.100, 0.000, -0.400, 0.0, , , , , , 97, , , 7, 7, 7
38.1754112, -120.0595529, 0.300, 13:15:21.371, 13, 0.10, 0.10, 100, 0.400, 0.200, 67.200, 177, 100, 100, 20, 25177, -4339, 5472, 5472, 12, 11, 1526156121.371, 87, 0, 1024, 1024, 1024, 1024, 0, 6, 4150, 4146, 4164, 4177, 4186, 4137, 0, 1, 4101, 0.000, 0.000, 0.000, 0.100, 0.000, -0.400, 0.0, , , , , , 97, , , 7, 7, 7
38.1754113, -120.0595528, 0.300, 13:15:21.471, 13, 0.10, 0.11, 100, 0.700, 0.500, 67.000, 177, 100, 100, 20, 23995, -14179, 5472, 5472, 12, 11, 1526156121.471, 90, 0, 1024, 1024, 1024, 1024, 0, 6, 3975, 3965, 3988, 3988, 3985, 3974, 0, 1, 4201, 0.000, 0.000, 0.000, 0.100, 0.000, -0.400, 0.0, , , , , , 97, , , 7, 7, 7
38.1754114, -120.0595529, 0.300, 13:15:21.571, 13, 0.10, 0.13, 100, 1.100, 0.500, 66.800, 177, 100, 100, 20, 23995, -14179, 5472, 5472, 12, 11, 1526156121.571, 78, 0, 1024, 1024, 1024, 1024, 0, 6, 3975, 3965, 3988, 3988, 3985, 3974, 0, 1, 4301, 0.000, 0.000, 0.000, 0.100, 0.000, -0.500, 0.0, , , , , , 97, , , 7, 7, 7
38.1754116, -120.0595530, 0.400, 13:15:21.671, 12, 0.10, 0.14, 100, 1.600, 0.300, 66.600, 177, 100, 100, 20, 23995, -14179, 5472, 5472, 12, 11, 1526156121.672, 89, 0, 1024, 1024, 1024, 1024, 0, 6, 3975, 3965, 3988, 3988, 3985, 3974, 0, 1, 4401, 0.000, 0.000, 0.000, 0.100, 0.000, -0.500, 0.0, , , , , , 97, , , 7, 7, 7
38.1754116, -120.0595531, 0.500, 13:15:21.771, 12, 0.10, 0.15, 100, 1.600, 0.100, 66.500, 177, 100, 100, 20, 23995, -14179, 5472, 5472, 12, 11, 1526156121.771, 85, 0, 1024, 1024, 1024, 1024, 0, 6, 3975, 3965, 3988, 3988, 3985, 3974, 0, 1, 4501, 0.000, 0.000, 0.000, 0.100, 0.000, -0.500, 0.0, , , , , , 97, , , 7, 7, 7
38.1754117, -120.0595531, 0.500, 13:15:21.870, 12, 0.00, 0.16, 100, 1.800, 0.100, 66.400, 177, 100, 100, 20, 23995, -14179, 5472, 5472, 12, 11, 1526156121.871, 90, 0, 1024, 1024, 1024, 1024, 0, 6, 3975, 3965, 3988, 3988, 3985, 3974, 0, 1, 4601, 0.000, 0.000, 0.000, 0.000, 0.000, -0.400, 0.0, , , , , , 97, , , 7, 7, 7
38.1754117, -120.0595531, 0.600, 13:15:21.971, 12, 0.00, 0.16, 100, 1.800, 0.100, 66.400, 177, 100, 100, 20, 23995, -14179, 5472, 5472, 12, 11, 1526156121.972, 81, 0, 1024, 1024, 1024, 1024, 0, 6, 3975, 3965, 3988, 3988, 3985, 3974, 0, 1, 4701, 0.000, 0.000, 0.000, 0.000, 0.000, -0.400, 0.0, , , , , , 97, , , 7, 7, 7
38.1754118, -120.0595531, 0.600, 13:15:22.071, 13, 0.00, 0.17, 100, 2.200, 0.300, 66.400, 177, 100, 100, 20, 23995, -14179, 5472, 5472, 12, 11, 1526156122.071, 71, 0, 1024, 1024, 1024, 1024, 0, 6, 3975, 3965, 3988, 3988, 3985, 3974, 0, 1, 4801, 0.000, 0.000, 0.000, 0.000, 0.000, -0.400, 0.0, , , , , , 97, , , 7, 7, 7
38.1754118, -120.0595531, 0.600, 13:15:22.171, 13, 0.00, 0.17, 100, 2.000, 0.300, 66.300, 177, 100, 100, 20, 23995, -14179, 5472, 5472, 12, 11, 1526156122.172, 74, 0, 1024, 1024, 1024, 1024, 0, 6, 3975, 3965, 3988, 3988, 3985, 3974, 0, 1, 4901, 0.000, 0.000, 0.000, 0.000, 0.000, -0.400, 0.0, , , , , , 97, , , 7, 7, 7
38.1754118, -120.0595530, 0.700, 13:15:22.271, 12, 0.00, 0.16, 100, 1.800, 0.400, 66.200, 177, 100, 100, 20, 23995, -14179, 5472, 5472, 12, 11, 1526156122.272, 62, 0, 1024, 1024, 1024, 1024, 0, 6, 3975, 3965, 3988, 3988, 3985, 3974, 0, 1, 5002, 0.000, 0.000, 0.000, 0.000, 0.000, -0.400, 0.0, , , , , , 97, , , 7, 7, 7
38.1754119, -120.0595530, 0.700, 13:15:22.371, 12, 0.00, 0.17, 100, 1.900, 0.300, 66.200, 177, 100, 100, 20, 23623, -16441, 5472, 5472, 12, 11, 1526156122.372, 64, 0, 1024, 1024, 1024, 1024, 0, 6, 3915, 3919, 3928, 3935, 3952, 3921, 0, 1, 5102, 0.000, 0.000, 0.000, 0.000, 0.000, -0.400, 0.0, , , , , , 97, , , 7, 7, 7
38.1754119, -120.0595529, 0.800, 13:15:22.471, 12, 0.00, 0.17, 100, 1.900, 0.400, 66.400, 177, 100, 100, 20, 23623, -16441, 5472, 5472, 12, 11, 1526156122.472, 62, 0, 1024, 1024, 1024, 1024, 0, 6, 3915, 3919, 3928, 3935, 3952, 3921, 0, 1, 5201, 0.000, 0.000, 0.000, 0.000, 0.000, -0.400, 0.0, , , , , , 97, , , 7, 7, 7
38.1754119, -120.0595528, 0.800, 13:15:22.571, 12, 0.00, 0.17, 100, 1.900, 0.700, 66.600, 177, 100, 100, 20, 23623, -16441, 5472, 5472, 12, 11, 1526156122.572, 65, 0, 1024, 1024, 1024, 1024, 0, 6, 3915, 3919, 3928, 3935, 3952, 3921, 0, 1, 5302, 0.000, 0.000, 0.000, 0.000, 0.000, -0.500, 0.0, , , , , , 97, , , 7, 7, 7
38.1754119, -120.0595528, 0.900, 13:15:22.671, 13, 0.00, 0.16, 100, 1.700, 1.000, 66.900, 177, 100, 100, 20, 23623, -16441, 5472, 5472, 12, 11, 1526156122.672, 30, 0, 1024, 1024, 1024, 1024, 0, 6, 3915, 3919, 3928, 3935, 3952, 3921, 0, 1, 5402, 0.000, 0.000, 0.000, 0.000, 0.000, -0.500, 0.0, , , , , , 97, , , 7, 7, 7
38.1754119, -120.0595527, 0.900, 13:15:22.771, 13, 0.00, 0.16, 100, 1.700, 0.800, 67.200, 177, 100, 100, 20, 23623, -16441, 5472, 5472, 12, 14, 1526156122.772, 31, 0, 1024, 1024, 1024, 1024, 0, 6, 3915, 3919, 3928, 3935, 3952, 3921, 0, 1, 5501, 0.000, 0.000, 0.000, 0.000, 0.000, -0.500, 0.0, , , , , , 97, , , 7, 7, 7
38.1754119, -120.0595526, 1.000, 13:15:22.871, 13, 0.00, 0.16, 100, 1.600, 0.900, 67.400, 177, 100, 100, 20, 23623, -16441, 5472, 5472, 12, 14, 1526156122.872, 33, 0, 1024, 1024, 1024, 1024, 0, 6, 3915, 3919, 3928, 3935, 3952, 3921, 0, 1, 5601, 0.000, 0.000, 0.000, 0.000, 0.000, -0.400, 0.0, , , , , , 97, , , 7, 7, 7
38.1754119, -120.0595526, 1.000, 13:15:22.971, 13, 0.00, 0.16, 100, 1.000, 0.800, 67.500, 177, 100, 100, 20, 23623, -16441, 5472, 5472, 12, 14, 1526156122.972, 35, 0, 1024, 1024, 1024, 1024, 0, 6, 3915, 3919, 3928, 3935, 3952, 3921, 0, 1, 5701, 0.000, 0.000, 0.000, 0.000, 0.000, -0.300, 0.0, , , , , , 97, , , 7, 7, 7
38.1754118, -120.0595525, 1.000, 13:15:23.071, 12, 0.00, 0.15, 100, 0.500, 0.400, 67.600, 177, 100, 100, 20, 23623, -16441, 5472, 5472, 12, 14, 1526156123.072, 16, 0, 1024, 1024, 1024, 1024, 0, 6, 3915, 3919, 3928, 3935, 3952, 3921, 0, 1, 5801, 0.000, 0.000, 0.000, 0.000, 0.000, -0.300, 0.0, , , , , , 97, , , 7, 7, 7
38.1754118, -120.0595525, 1.100, 13:15:23.171, 12, 0.00, 0.15, 100, 0.300, 0.000, 67.700, 177, 100, 100, 20, 23623, -16441, 5472, 5472, 12, 14, 1526156123.172, 35, 0, 1024, 1024, 1024, 1024, 0, 6, 3915, 3919, 3928, 3935, 3952, 3921, 0, 1, 5902, 0.000, 0.000, 0.000, 0.000, 0.000, -0.300, 0.0, , , , , , 97, , , 7, 7, 7
38.1754119, -120.0595525, 1.100, 13:15:23.271, 12, 0.00, 0.15, 100, 0.400, 0.300, 68.000, 177, 100, 100, 20, 23623, -16441, 5472, 5472, 12, 14, 1526156123.272, 37, 0, 1024, 1024, 1024, 1024, 0, 6, 3915, 3919, 3928, 3935, 3952, 3921, 0, 1, 6001, 0.000, 0.000, 0.000, 0.000, 0.000, -0.600, 0.0, , , , , , 97, , , 7, 7, 7
38.1754120, -120.0595524, 1.200, 13:15:23.374, 12, 0.00, 0.16, 100, 0.600, 0.800, 68.300, 177, 100, 100, 20, 23500, -16829, 5362, 5472, 12, 14, 1526156123.375, 14, 0, 1024, 1024, 1024, 1024, 0, 6, 3915, 3919, 3928, 3935, 3952, 3921, 0, 1, 6104, 0.000, 0.000, 0.000, 0.000, 0.000, -0.800, 0.0, , , , , , 97, , , 7, 7, 7
38.1754120, -120.0595524, 1.200, 13:15:23.471, 12, 0.00, 0.17, 100, 0.800, 1.200, 68.800, 177, 100, 100, 20, 23500, -16829, 5362, 5472, 12, 14, 1526156123.472, 10, 0, 1024, 1024, 1024, 1024, 0, 6, 3902, 3905, 3915, 3920, 3941, 3909, 0, 1, 6201, 0.000, 0.000, 0.000, 0.000, 0.000, -0.900, 0.0, , , , , , 97, , , 7, 7, 7
38.1754121, -120.0595524, 1.300, 13:15:23.571, 13, 0.00, 0.17, 100, 0.900, 1.100, 69.000, 177, 100, 100, 20, 23500, -16829, 5362, 5472, 12, 14, 1526156123.572, 7, 0, 1024, 1024, 1024, 1024, 0, 6, 3902, 3905, 3915, 3920, 3941, 3909, 0, 1, 6301, 0.000, 0.000, 0.000, 0.000, 0.000, -1.100, 0.0, , , , , , 97, , , 7, 7, 7
38.1754121, -120.0595524, 1.500, 13:15:23.676, 13, 0.00, 0.18, 100, 0.600, 1.000, 69.100, 177, 100, 100, 20, 23500, -16829, 5362, 5472, 12, 14, 1526156123.677, 5, 0, 1024, 1024, 1024, 1024, 0, 6, 3902, 3905, 3915, 3920, 3941, 3909, 0, 1, 6406, 0.000, 0.000, 0.000, 0.000, 0.000, -1.500, 0.0, , , , , , 97, , , 7, 7, 7
38.1754121, -120.0595524, 1.500, 13:15:23.771, 13, 0.00, 0.18, 100, 0.600, 1.000, 69.100, 177, 100, 100, 20, 23500, -16829, 5362, 5472, 12, 14, 1526156123.772, 100, 0, 1024, 1024, 1024, 1024, 0, 6, 3902, 3905, 3915, 3920, 3941, 3909, 0, 1, 6501, 0.000, 0.000, 0.000, 0.000, 0.000, -1.500, 0.0, , , , , , 97, , , 7, 7, 7
38.1754122, -120.0595524, 1.600, 13:15:23.871, 14, 0.00, 0.18, 100, 0.700, 0.400, 69.100, 177, 100, 100, 20, 23500, -16829, 5362, 5472, 12, 14, 1526156123.871, 90, 0, 1024, 1024, 1024, 1024, 0, 6, 3902, 3905, 3915, 3920, 3941, 3909, 0, 1, 6601, 0.000, 0.000, 0.000, 0.000, 0.000, -1.600, 0.0, , , , , , 97, , , 7, 7, 7
38.1754122, -120.0595524, 1.800, 13:15:23.971, 14, 0.00, 0.18, 100, 1.100, 0.100, 69.200, 177, 100, 100, 20, 23500, -16829, 5362, 5472, 12, 14, 1526156123.972, 81, 0, 1024, 1024, 1024, 1024, 0, 6, 3902, 3905, 3915, 3920, 3941, 3909, 0, 1, 6702, 0.000, 0.000, 0.000, 0.000, 0.000, -1.800, 0.0, , , , , , 97, , , 7, 7, 7
38.1754122, -120.0595524, 2.000, 13:15:24.071, 13, 0.00, 0.19, 100, 1.400, 0.200, 69.000, 177, 100, 100, 20, 23500, -16829, 5362, 5472, 12, 14, 1526156124.072, 85, 0, 1024, 1024, 1024, 1024, 0, 6, 3902, 3905, 3915, 3920, 3941, 3909, 0, 1, 6801, 0.000, 0.000, 0.000, 0.000, 0.000, -2.000, 0.0, , , , , , 97, , , 7, 7, 7
38.1754124, -120.0595524, 2.200, 13:15:24.171, 13, 0.10, 0.21, 100, 2.000, 0.500, 68.700, 177, 100, 100, 20, 23500, -16829, 5362, 5472, 12, 14, 1526156124.171, 74, 0, 1024, 1024, 1024, 1024, 0, 6, 3902, 3905, 3915, 3920, 3941, 3909, 0, 1, 6901, 0.000, 0.000, 0.000, 0.100, 0.000, -2.300, 0.0, , , , , , 97, , , 7, 7, 7
38.1754126, -120.0595523, 2.400, 13:15:24.271, 13, 0.10, 0.22, 100, 2.600, 1.000, 68.300, 177, 100, 100, 20, 23500, -16829, 5362, 5472, 12, 14, 1526156124.272, 73, 0, 1024, 1024, 1024, 1024, 0, 6, 3902, 3905, 3915, 3920, 3941, 3909, 0, 1, 7001, 0.000, 0.000, 0.000, 0.100, 0.000, -2.500, 0.0, , , , , , 97, , , 7, 7, 7
38.1754126, -120.0595523, 2.700, 13:15:24.371, 13, 0.00, 0.23, 100, 2.900, 1.400, 68.100, 177, 100, 100, 20, 23500, -16829, 5362, 5472, 12, 14, 1526156124.371, 73, 0, 1024, 1024, 1024, 1024, 0, 6, 3902, 3905, 3915, 3920, 3941, 3909, 0, 1, 7101, 0.000, 0.000, 0.000, 0.000, 0.000, -2.700, 0.0, , , , , , 97, , , 7, 7, 7
38.1754126, -120.0595522, 3.000, 13:15:24.471, 13, 0.00, 0.23, 98, 2.700, 1.500, 68.100, 177, 100, 100, 20, 23259, -18424, 5362, 5472, 12, 14, 1526156124.472, 61, 0, 1024, 1024, 1024, 1024, 0, 6, 3902, 3905, 3915, 3920, 3941, 3909, 0, 1, 7202, 0.000, 0.000, 0.000, 0.000, 0.000, -3.000, 0.0, , , , , , 97, , , 7, 7, 7
38.1754127, -120.0595521, 3.300, 13:15:24.571, 13, 0.00, 0.23, 98, 2.200, 1.500, 68.300, 177, 100, 100, 20, 23259, -18424, 5362, 5472, 12, 14, 1526156124.571, 64, 0, 1024, 1024, 1024, 1024, 0, 6, 3902, 3905, 3915, 3920, 3941, 3909, 0, 1, 7301, 0.000, 0.000, 0.000, 0.000, 0.000, -3.100, 0.0, , , , , , 97, , , 7, 7, 7
38.1754127, -120.0595520, 3.700, 13:15:24.671, 14, 0.00, 0.24, 98, 2.100, 1.700, 68.500, 177, 100, 100, 20, 23259, -18424, 5362, 5472, 12, 14, 1526156124.672, 26, 0, 1024, 1024, 1024, 1024, 0, 6, 3902, 3905, 3915, 3920, 3941, 3909, 0, 1, 7401, 0.000, 0.000, 0.000, 0.000, 0.000, -3.200, 0.0, , , , , , 97, , , 7, 7, 7
38.1754128, -120.0595521, 4.000, 13:15:24.771, 14, 0.00, 0.25, 98, 2.200, 1.600, 68.600, 177, 100, 100, 20, 23259, -18424, 5362, 5472, 12, 14, 1526156124.771, 45, 0, 1024, 1024, 1024, 1024, 0, 6, 3902, 3905, 3915, 3920, 3941, 3909, 0, 1, 7501, 0.000, 0.000, 0.000, 0.000, 0.000, -3.200, 0.0, , , , , , 97, , , 7, 7, 7
38.1754129, -120.0595521, 4.300, 13:15:24.871, 13, 0.00, 0.26, 98, 2.300, 1.200, 68.800, 177, 100, 100, 20, 23259, -18424, 5362, 5472, 12, 14, 1526156124.872, 44, 0, 1024, 1024, 1024, 1024, 0, 6, 3835, 3834, 3838, 3854, 3876, 3836, 0, 1, 7601, 0.000, 0.000, 0.000, 0.000, 0.000, -3.200, 0.0, , , , , , 97, , , 7, 7, 7
38.1754129, -120.0595520, 4.600, 13:15:24.971, 13, 0.00, 0.26, 98, 2.200, 1.200, 68.900, 177, 100, 100, 20, 23259, -18424, 5362, 5472, 12, 14, 1526156124.971, 45, 0, 1024, 1024, 1024, 1024, 0, 6, 3835, 3834, 3838, 3854, 3876, 3836, 0, 1, 7701, 0.000, 0.000, 0.000, 0.000, 0.000, -3.200, 0.0, , , , , , 97, , , 7, 7, 7
38.1754129, -120.0595519, 5.000, 13:15:25.071, 13, 0.00, 0.26, 98, 1.900, 1.400, 69.100, 177, 100, 100, 20, 23259, -18424, 5362, 5472, 12, 14, 1526156125.072, 37, 0, 1024, 1024, 1024, 1024, 0, 6, 3835, 3834, 3838, 3854, 3876, 3836, 0, 1, 7801, 0.000, 0.000, 0.000, 0.000, 0.000, -3.200, 0.0, , , , , , 97, , , 7, 7, 7
38.1754129, -120.0595520, 5.300, 13:15:25.171, 13, 0.00, 0.26, 98, 1.600, 1.700, 69.200, 177, 100, 100, 20, 23259, -18424, 5362, 5472, 12, 14, 1526156125.172, 33, 0, 1024, 1024, 1024, 1024, 0, 6, 3835, 3834, 3838, 3854, 3876, 3836, 0, 1, 7901, 0.000, 0.000, 0.000, 0.000, 0.000, -3.200, 0.0, , , , , , 97, , , 7, 7, 7
38.1754130, -120.0595520, 5.600, 13:15:25.275, 13, 0.00, 0.27, 98, 1.100, 1.700, 69.200, 177, 100, 100, 20, 23259, -18424, 5362, 5472, 12, 14, 1526156125.275, 5, 0, 1024, 1024, 1024, 1024, 0, 6, 3835, 3834, 3838, 3854, 3876, 3836, 0, 1, 8005, 0.000, 0.000, 0.000, 0.000, 0.000, -3.200, 0.0, , , , , , 97, , , 7, 7, 7
38.1754130, -120.0595519, 6.300, 13:15:25.371, 13, 0.00, 0.27, 98, 1.200, 1.800, 69.200, 177, 100, 100, 20, 23259, -18424, 5362, 5472, 12, 14, 1526156125.372, 16, 0, 1024, 1024, 1024, 1024, 0, 6, 3835, 3834, 3838, 3854, 3876, 3836, 0, 1, 8101, 0.000, 0.000, 0.000, 0.000, 0.000, -3.200, 0.0, , , , , , 97, , , 7, 7, 7
38.1754131, -120.0595518, 6.600, 13:15:25.471, 13, 0.00, 0.28, 98, 1.200, 1.900, 69.200, 177, 100, 100, 20, 23259, -18424, 5362, 5472, 12, 14, 1526156125.472, 20, 0, 1024, 1024, 1024, 1024, 0, 6, 3835, 3834, 3838, 3854, 3876, 3836, 0, 1, 8201, 0.000, 0.000, 0.000, 0.000, 0.000, -3.200, 0.0, , , , , , 97, , , 7, 7, 7
38.1754131, -120.0595518, 7.000, 13:15:25.585, 13, 0.00, 0.28, 98, 1.300, 1.900, 69.200, 177, 100, 100, 20, 23259, -18424, 5362, 5472, 12, 14, 1526156125.585, 7, 0, 1024, 1024, 1024, 1024, 0, 6, 3835, 3834, 3838, 3854, 3876, 3836, 0, 1, 8315, 0.000, 0.000, 0.000, 0.000, 0.000, -3.200, 0.0, , , , , , 97, , , 7, 7, 7
38.1754131, -120.0595518, 7.300, 13:15:25.671, 13, 0.00, 0.28, 98, 1.600, 1.900, 69.200, 177, 100, 100, 20, 23259, -18424, 5362, 5472, 12, 14, 1526156125.671, 11, 0, 1024, 1024, 1024, 1024, 0, 6, 3835, 3834, 3838, 3854, 3876, 3836, 0, 1, 8401, 0.000, 0.000, 0.000, 0.000, 0.000, -3.200, 0.0, , , , , , 97, , , 7, 7, 7
38.1754131, -120.0595518, 7.300, 13:15:25.771, 13, 0.00, 0.28, 98, 1.600, 1.900, 69.200, 177, 100, 100, 20, 23259, -18424, 5362, 5472, 12, 14, 1526156125.771, 110, 0, 1024, 1024, 1024, 1024, 0, 6, 3835, 3834, 3838, 3854, 3876, 3836, 0, 1, 8501, 0.000, 0.000, 0.000, 0.000, 0.000, -3.200, 0.0, , , , , , 97, , , 7, 7, 7
38.1754131, -120.0595518, 7.600, 13:15:25.871, 13, 0.00, 0.28, 98, 1.700, 1.900, 69.200, 177, 100, 100, 20, 23259, -18424, 5362, 5472, 12, 14, 1526156125.872, 84, 0, 1024, 1024, 1024, 1024, 0, 6, 3835, 3834, 3838, 3854, 3876, 3836, 0, 1, 8601, 0.000, 0.000, 0.000, 0.000, 0.000, -3.200, 0.0, , , , , , 97, , , 7, 7, 7
38.1754131, -120.0595518, 8.000, 13:15:25.971, 13, 0.00, 0.28, 98, 1.600, 1.900, 69.200, 177, 100, 100, 20, 22827, -24115, 5362, 5472, 12, 14, 1526156125.971, 91, 0, 1024, 1024, 1024, 1024, 0, 6, 3790, 3793, 3806, 3814, 3837, 3804, 0, 1, 8701, 0.000, 0.000, 0.000, 0.000, 0.000, -3.200, 0.0, , , , , , 97, , , 7, 7, 7
38.1754130, -120.0595518, 8.300, 13:15:26.070, 13, 0.00, 0.27, 98, 1.500, 1.800, 69.100, 177, 100, 100, 20, 22827, -24115, 5362, 5472, 12, 14, 1526156126.071, 82, 0, 1024, 1024, 1024, 1024, 0, 6, 3790, 3793, 3806, 3814, 3837, 3804, 0, 1, 8800, 0.000, 0.000, 0.000, 0.000, 0.000, -3.200, 0.0, , , , , , 97, , , 7, 7, 7
38.1754129, -120.0595518, 8.600, 13:15:26.171, 13, 0.00, 0.27, 98, 1.200, 1.700, 69.000, 177, 100, 100, 20, 22827, -24115, 5362, 5472, 12, 14, 1526156126.171, 76, 0, 1024, 1024, 1024, 1024, 0, 6, 3790, 3793, 3806, 3814, 3837, 3804, 0, 1, 8901, 0.000, 0.000, 0.000, 0.000, 0.000, -3.100, 0.0, , , , , , 97, , , 7, 7, 7
38.1754129, -120.0595518, 8.900, 13:15:26.271, 13, 0.00, 0.26, 98, 1.000, 1.600, 68.900, 177, 100, 100, 20, 22827, -24115, 5362, 5472, 12, 14, 1526156126.272, 80, 0, 1024, 1024, 1024, 1024, 0, 6, 3790, 3793, 3806, 3814, 3837, 3804, 0, 1, 9001, 0.000, 0.000, 0.000, 0.000, 0.000, -3.100, 0.0, , , , , , 97, , , 7, 7, 7
38.1754128, -120.0595517, 9.300, 13:15:26.371, 13, 0.00, 0.25, 98, 1.000, 1.200, 68.800, 177, 100, 100, 20, 22827, -24115, 5362, 5472, 12, 14, 1526156126.372, 68, 0, 1024, 1024, 1024, 1024, 0, 6, 3790, 3793, 3806, 3814, 3837, 3804, 0, 1, 9101, 0.000, 0.000, 0.000, 0.000, 0.000, -3.100, 0.0, , , , , , 97, , , 7, 7, 7
38.1754128, -120.0595517, 9.600, 13:15:26.471, 13, 0.00, 0.25, 98, 0.600, 1.300, 68.700, 177, 100, 100, 20, 22827, -24115, 5362, 5472, 12, 14, 1526156126.472, 44, 0, 1024, 1024, 1024, 1024, 0, 6, 3790, 3793, 3806, 3814, 3837, 3804, 0, 1, 9201, 0.000, 0.000, 0.000, 0.000, 0.000, -3.100, 0.0, , , , , , 97, , , 7, 7, 7
38.1754127, -120.0595516, 9.900, 13:15:26.571, 13, 0.00, 0.24, 98, 0.300, 1.400, 68.700, 177, 100, 100, 20, 22827, -24115, 5362, 5472, 12, 14, 1526156126.572, 46, 0, 1024, 1024, 1024, 1024, 0, 6, 3790, 3793, 3806, 3814, 3837, 3804, 0, 1, 9301, 0.000, 0.000, 0.000, 0.000, 0.000, -3.100, 0.0, , , , , , 97, , , 7, 7, 7
38.1754127, -120.0595516, 10.300, 13:15:26.671, 14, 0.00, 0.23, 98, 0.600, 1.500, 68.700, 177, 100, 100, 20, 22827, -24115, 5362, 5472, 12, 14, 1526156126.672, 31, 0, 1024, 1024, 1024, 1024, 0, 6, 3790, 3793, 3806, 3814, 3837, 3804, 0, 1, 9401, 0.000, 0.000, 0.000, 0.000, 0.000, -3.100, 0.0, , , , , , 97, , , 7, 7, 7
38.1754126, -120.0595517, 10.600, 13:15:26.771, 14, 0.00, 0.22, 98, 0.800, 1.500, 68.700, 177, 100, 100, 20, 22827, -24115, 5362, 5472, 12, 14, 1526156126.772, 24, 0, 1024, 1024, 1024, 1024, 0, 6, 3790, 3793, 3806, 3814, 3837, 3804, 0, 1, 9501, 0.000, 0.000, 0.000, 0.000, 0.000, -3.100, 0.0, , , , , , 97, , , 7, 7, 7
38.1754125, -120.0595517, 10.900, 13:15:26.871, 14, 0.00, 0.22, 98, 0.800, 1.400, 68.700, 177, 100, 100, 20, 22937, -20677, 5362, 5472, 12, 14, 1526156126.872, 43, 0, 1024, 1024, 1024, 1024, 0, 6, 3790, 3793, 3806, 3814, 3837, 3804, 0, 1, 9601, 0.000, 0.000, 0.000, 0.000, 0.000, -3.000, 0.0, , , , , , 97, , , 7, 7, 7
38.1754124, -120.0595517, 11.200, 13:15:26.971, 14, 0.00, 0.21, 98, 0.700, 1.200, 68.700, 177, 100, 100, 20, 22937, -20677, 5362, 5472, 12, 14, 1526156126.972, 52, 0, 1024, 1024, 1024, 1024, 0, 6, 3812, 3823, 3819, 3821, 3848, 3819, 0, 1, 9701, 0.000, 0.000, 0.000, 0.000, 0.000, -3.000, 0.0, , , , , , 97, , , 7, 7, 7
38.1754123, -120.0595518, 11.800, 13:15:27.071, 15, 0.00, 0.19, 98, 0.400, 0.700, 68.900, 177, 100, 100, 20, 22937, -20677, 5362, 5472, 12, 14, 1526156127.071, 34, 0, 1024, 1024, 1024, 1024, 0, 6, 3812, 3823, 3819, 3821, 3848, 3819, 0, 1, 9801, 0.000, 0.000, 0.000, 0.000, 0.000, -3.000, 0.0, , , , , , 97, , , 7, 7, 7
38.1754123, -120.0595518, 11.800, 13:15:27.171, 15, 0.00, 0.19, 98, 0.400, 0.700, 68.900, 177, 100, 100, 20, 22937, -20677, 5362, 5472, 12, 14, 1526156127.171, 134, 0, 1024, 1024, 1024, 1024, 0, 6, 3812, 3823, 3819, 3821, 3848, 3819, 0, 1, 9901, 0.000, 0.000, 0.000, 0.000, 0.000, -3.000, 0.0, , , , , , 97, , , 7, 7, 7
38.1754122, -120.0595519, 12.500, 13:15:27.271, 15, 0.00, 0.18, 98, 1.000, 0.600, 69.000, 177, 100, 100, 20, 22937, -20677, 5362, 5472, 12, 14, 1526156127.272, 39, 0, 1024, 1024, 1024, 1024, 0, 6, 3812, 3823, 3819, 3821, 3848, 3819, 0, 1, 10001, 0.000, 0.000, 0.000, 0.000, 0.000, -3.000, 0.0, , , , , , 97, , , 7, 7, 7
38.1754121, -120.0595519, 12.800, 13:15:27.379, 14, 0.00, 0.17, 98, 1.100, 0.700, 68.900, 177, 100, 100, 20, 22937, -20677, 5362, 5472, 12, 14, 1526156127.379, 12, 0, 1024, 1024, 1024, 1024, 0, 6, 3812, 3823, 3819, 3821, 3848, 3819, 0, 1, 10109, 0.000, 0.000, 0.000, 0.000, 0.000, -2.900, 0.0, , , , , , 97, , , 7, 7, 7
38.1754121, -120.0595519, 13.100, 13:15:27.471, 14, 0.00, 0.17, 98, 0.800, 0.600, 68.800, 177, 100, 96, 20, 22937, -20677, 5362, 5472, 12, 14, 1526156127.471, 14, 0, 1024, 1024, 1024, 1024, 0, 6, 3812, 3823, 3819, 3821, 3848, 3819, 0, 1, 10201, 0.000, 0.000, 0.000, 0.000, 0.000, -2.900, 0.0, , , , , , 97, , , 7, 7, 7
38.1754121, -120.0595519, 13.400, 13:15:27.577, 14, 0.00, 0.17, 98, 0.600, 0.600, 68.600, 177, 100, 96, 20, 22937, -20677, 5362, 5472, 12, 14, 1526156127.578, 6, 0, 1024, 1024, 1024, 1024, 0, 6, 3812, 3823, 3819, 3821, 3848, 3819, 0, 1, 10308, 0.000, 0.000, 0.000, 0.000, 0.000, -3.000, 0.0, , , , , , 97, , , 7, 7, 7
38.1754121, -120.0595519, 13.700, 13:15:27.671, 14, 0.00, 0.17, 98, 0.500, 1.000, 68.500, 177, 100, 96, 20, 22937, -20677, 5362, 5472, 12, 14, 1526156127.671, 19, 0, 1024, 1024, 1024, 1024, 0, 6, 3812, 3823, 3819, 3821, 3848, 3819, 0, 1, 10401, 0.000, 0.000, 0.000, 0.000, 0.000, -2.900, 0.0, , , , , , 97, , , 7, 7, 7
38.1754120, -120.0595519, 14.000, 13:15:27.771, 15, 0.00, 0.16, 98, 0.700, 1.500, 68.600, 177, 100, 96, 20, 22937, -20677, 5362, 5472, 12, 14, 1526156127.771, 9, 0, 1024, 1024, 1024, 1024, 0, 6, 3812, 3823, 3819, 3821, 3848, 3819, 0, 1, 10501, 0.000, 0.000, 0.000, 0.000, 0.000, -3.000, 0.0, , , , , , 97, , , 7, 7, 7
38.1754120, -120.0595519, 14.000, 13:15:27.871, 15, 0.00, 0.16, 98, 0.700, 1.500, 68.600, 177, 100, 96, 20, 22937, -20677, 5362, 5472, 12, 14, 1526156127.871, 109, 0, 1024, 1024, 1024, 1024, 0, 6, 3812, 3823, 3819, 3821, 3848, 3819, 0, 1, 10601, 0.000, 0.000, 0.000, 0.000, 0.000, -3.000, 0.0, , , , , , 97, , , 7, 7, 7
38.1754120, -120.0595519, 14.300, 13:15:27.971, 15, 0.00, 0.16, 98, 0.800, 1.800, 68.700, 177, 100, 96, 20, 22954, -20015, 5362, 5472, 12, 14, 1526156127.974, 87, 0, 1024, 1024, 1024, 1024, 0, 6, 3816, 3811, 3827, 3832, 3856, 3813, 0, 1, 10703, 0.000, 0.000, 0.000, 0.000, 0.000, -2.900, 0.0, , , , , , 97, , , 7, 7, 7
38.1754120, -120.0595519, 14.600, 13:15:28.071, 15, 0.00, 0.16, 98, 0.600, 1.800, 68.900, 177, 100, 96, 20, 22954, -20015, 5362, 5472, 12, 14, 1526156128.072, 84, 0, 1024, 1024, 1024, 1024, 0, 6, 3816, 3811, 3827, 3832, 3856, 3813, 0, 1, 10802, 0.000, 0.000, 0.000, 0.000, 0.000, -3.000, 0.0, , , , , , 97, , , 7, 7, 7
38.1754120, -120.0595518, 14.900, 13:15:28.171, 15, 0.00, 0.15, 98, 0.500, 1.900, 69.000, 177, 100, 96, 20, 22954, -20015, 5362, 5472, 12, 14, 1526156128.172, 86, 0, 1024, 1024, 1024, 1024, 0, 6, 3816, 3811, 3827, 3832, 3856, 3813, 0, 1, 10901, 0.000, 0.000, 0.000, 0.000, 0.000, -3.000, 0.0, , , , , , 97, , , 7, 7, 7
38.1754119, -120.0595518, 15.200, 13:15:28.270, 16, 0.00, 0.15, 98, 0.300, 1.800, 69.000, 177, 100, 96, 20, 22954, -20015, 5362, 5472, 12, 14, 1526156128.271, 72, 0, 1024, 1024, 1024, 1024, 0, 6, 3816, 3811, 3827, 3832, 3856, 3813, 0, 1, 11001, 0.000, 0.000, 0.000, 0.000, 0.000, -2.900, 0.0, , , , , , 97, , , 7, 7, 7
38.1754119, -120.0595518, 15.500, 13:15:28.371, 16, 0.00, 0.15, 98, 0.400, 1.800, 69.000, 177, 100, 96, 20, 22954, -20015, 5362, 5472, 12, 14, 1526156128.371, 61, 0, 1024, 1024, 1024, 1024, 0, 6, 3816, 3811, 3827, 3832, 3856, 3813, 0, 1, 11101, 0.000, 0.000, 0.000, 0.000, 0.000, -2.900, 0.0, , , , , , 97, , , 7, 7, 7
38.1754119, -120.0595518, 15.800, 13:15:28.471, 15, 0.00, 0.15, 98, 0.600, 1.700, 68.900, 177, 100, 96, 20, 22954, -20015, 5362, 5472, 12, 14, 1526156128.471, 65, 0, 1024, 1024, 1024, 1024, 0, 6, 3816, 3811, 3827, 3832, 3856, 3813, 0, 1, 11201, 0.000, 0.000, 0.000, 0.000, 0.000, -2.900, 0.0, , , , , , 97, , , 7, 7, 7
38.1754119, -120.0595517, 16.100, 13:15:28.571, 15, 0.00, 0.15, 98, 0.500, 1.700, 68.900, 177, 100, 95, 20, 22954, -20015, 5362, 5472, 12, 14, 1526156128.572, 51, 0, 1024, 1024, 1024, 1024, 0, 6, 3816, 3811, 3827, 3832, 3856, 3813, 0, 1, 11301, 0.000, 0.000, 0.000, 0.000, 0.000, -3.000, 0.0, , , , , , 97, , , 7, 7, 7
38.1754119, -120.0595517, 16.400, 13:15:28.671, 15, 0.00, 0.15, 98, 0.400, 1.800, 68.800, 177, 100, 95, 20, 22954, -20015, 5362, 5472, 12, 14, 1526156128.671, 53, 0, 1024, 1024, 1024, 1024, 0, 6, 3816, 3811, 3827, 3832, 3856, 3813, 0, 1, 11401, 0.000, 0.000, 0.000, 0.000, 0.000, -3.000, 0.0, , , , , , 97, , , 7, 7, 7
38.1754119, -120.0595517, 16.700, 13:15:28.771, 15, 0.00, 0.15, 98, 0.500, 1.800, 68.700, 177, 100, 95, 20, 22954, -20015, 5362, 5472, 12, 14, 1526156128.772, 68, 0, 1024, 1024, 1024, 1024, 0, 6, 3816, 3811, 3827, 3832, 3856, 3813, 0, 1, 11501, 0.000, 0.000, 0.000, 0.000, 0.000, -3.000, 0.0, , , , , , 97, , , 7, 7, 7
38.1754118, -120.0595518, 17.000, 13:15:28.871, 16, 0.00, 0.14, 98, 0.600, 1.700, 68.600, 177, 100, 95, 20, 22895, -20370, 5362, 5472, 12, 14, 1526156128.871, 62, 0, 1024, 1024, 1024, 1024, 0, 6, 3797, 3807, 3820, 3822, 3851, 3804, 0, 1, 11601, 0.000, 0.000, 0.000, 0.000, 0.000, -3.000, 0.0, , , , , , 97, , , 7, 7, 7
38.1754118, -120.0595518, 17.300, 13:15:28.971, 16, 0.00, 0.13, 98, 0.500, 1.700, 68.600, 177, 100, 99, 20, 22895, -20370, 5362, 5472, 12, 14, 1526156128.972, 42, 0, 1024, 1024, 1024, 1024, 0, 6, 3797, 3807, 3820, 3822, 3851, 3804, 0, 1, 11701, 0.000, 0.000, 0.000, 0.000, 0.000, -3.000, 0.0, , , , , , 97, , , 7, 7, 7
38.1754117, -120.0595519, 17.600, 13:15:29.071, 16, 0.00, 0.13, 98, 0.300, 1.400, 68.700, 177, 100, 99, 20, 22895, -20370, 5362, 5472, 12, 14, 1526156129.071, 42, 0, 1024, 1024, 1024, 1024, 0, 6, 3797, 3807, 3820, 3822, 3851, 3804, 0, 1, 11801, 0.000, 0.000, 0.000, 0.000, 0.000, -3.000, 0.0, , , , , , 97, , , 7, 7, 7
38.1754116, -120.0595518, 17.900, 13:15:29.175, 16, 0.00, 0.12, 98, 0.000, 1.200, 68.800, 177, 100, 99, 20, 22895, -20370, 5362, 5472, 12, 14, 1526156129.176, 5, 0, 1024, 1024, 1024, 1024, 0, 6, 3797, 3807, 3820, 3822, 3851, 3804, 0, 1, 11905, 0.000, 0.000, 0.000, 0.000, 0.000, -3.000, 0.0, , , , , , 97, , , 7, 7, 7
38.1754115, -120.0595518, 18.500, 13:15:29.271, 16, 0.00, 0.10, 98, -0.600, 1.200, 68.900, 177, 100, 99, 20, 22895, -20370, 5362, 5472, 12, 14, 1526156129.271, 28, 0, 1024, 1024, 1024, 1024, 0, 6, 3797, 3807, 3820, 3822, 3851, 3804, 0, 1, 12001, 0.000, 0.000, 0.000, 0.000, 0.000, -3.000, 0.0, , , , , , 97, , , 7, 7, 7
38.1754115, -120.0595518, 18.500, 13:15:29.380, 16, 0.00, 0.10, 98, -0.600, 1.200, 68.900, 177, 100, 99, 20, 22895, -20370, 5362, 5472, 12, 14, 1526156129.382, 139, 0, 1024, 1024, 1024, 1024, 0, 6, 3797, 3807, 3820, 3822, 3851, 3804, 0, 1, 12112, 0.000, 0.000, 0.000, 0.000, 0.000, -3.000, 0.0, , , , , , 97, , , 7, 7, 7
38.1754115, -120.0595518, 18.500, 13:15:29.479, 16, 0.00, 0.10, 98, -0.600, 1.200, 68.900, 177, 100, 99, 20, 22895, -20370, 5362, 5472, 12, 14, 1526156129.481, 238, 0, 1024, 1024, 1024, 1024, 0, 6, 3797, 3807, 3820, 3822, 3851, 3804, 0, 1, 12211, 0.000, 0.000, 0.000, 0.000, 0.000, -3.000, 0.0, , , , , , 97, , , 7, 7, 7
38.1754115, -120.0595518, 18.500, 13:15:29.590, 16, 0.00, 0.10, 98, -0.600, 1.200, 68.900, 177, 100, 99, 20, 22895, -20370, 5362, 5472, 12, 14, 1526156129.591, 347, 0, 1024, 1024, 1024, 1024, 0, 6, 3797, 3807, 3820, 3822, 3851, 3804, 0, 1, 12320, 0.000, 0.000, 0.000, 0.000, 0.000, -3.000, 0.0, , , , , , 97, , , 7, 7, 7
38.1754114, -120.0595518, 18.800, 13:15:29.692, 16, 0.00, 0.10, 98, -0.600, 1.200, 69.000, 177, 100, 99, 20, 22895, -20370, 5362, 5472, 12, 14, 1526156129.692, 91, 0, 1024, 1024, 1024, 1024, 0, 6, 3797, 3807, 3820, 3822, 3851, 3804, 0, 1, 12422, 0.000, 0.000, 0.000, 0.000, 0.000, -3.000, 0.0, , , , , , 97, , , 7, 7, 7
38.1754114, -120.0595518, 18.800, 13:15:29.838, 16, 0.00, 0.10, 98, -0.600, 1.200, 69.000, 177, 100, 99, 20, 22895, -20370, 5362, 5472, 12, 14, 1526156129.839, 237, 0, 1024, 1024, 1024, 1024, 0, 6, 3797, 3807, 3820, 3822, 3851, 3804, 0, 1, 12569, 0.000, 0.000, 0.000, 0.000, 0.000, -3.000, 0.0, , , , , , 97, , , 7, 7, 7
38.1754114, -120.0595518, 18.800, 13:15:29.881, 16, 0.00, 0.10, 98, -0.600, 1.200, 69.000, 177, 100, 99, 20, 22895, -20370, 5362, 5472, 12, 14, 1526156129.882, 280, 0, 1024, 1024, 1024, 1024, 0, 6, 3797, 3807, 3820, 3822, 3851, 3804, 0, 1, 12612, 0.000, 0.000, 0.000, 0.000, 0.000, -3.000, 0.0, , , , , , 97, , , 7, 7, 7
38.1754114, -120.0595518, 18.800, 13:15:29.982, 16, 0.00, 0.10, 98, -0.600, 1.200, 69.000, 177, 100, 99, 20, 22895, -20370, 5362, 5472, 12, 14, 1526156129.983, 381, 0, 1024, 1024, 1024, 1024, 0, 6, 3797, 3807, 3820, 3822, 3851, 3804, 0, 1, 12712, 0.000, 0.000, 0.000, 0.000, 0.000, -3.000, 0.0, , , , , , 97, , , 7, 7, 7
38.1754114, -120.0595518, 19.400, 13:15:30.178, 16, 0.00, 0.09, 98, -0.400, 1.000, 69.200, 177, 100, 98, 20, 22895, -20370, 5362, 5472, 12, 14, 1526156130.178, 10, 0, 1024, 1024, 1024, 1024, 0, 6, 3797, 3807, 3820, 3822, 3851, 3804, 0, 1, 12908, 0.000, 0.000, 0.000, 0.000, 0.000, -2.900, 0.0, , , , , , 97, , , 7, 7, 7
38.1754114, -120.0595518, 19.400, 13:15:30.272, 16, 0.00, 0.09, 98, -0.400, 1.000, 69.200, 177, 100, 98, 20, 22895, -20370, 5362, 5472, 12, 14, 1526156130.273, 105, 0, 1024, 1024, 1024, 1024, 0, 6, 3797, 3807, 3820, 3822, 3851, 3804, 0, 1, 13003, 0.000, 0.000, 0.000, 0.000, 0.000, -2.900, 0.0, , , , , , 97, , , 7, 7, 7
38.1754114, -120.0595518, 19.400, 13:15:30.371, 16, 0.00, 0.09, 98, -0.400, 1.000, 69.200, 177, 100, 98, 20, 22895, -20370, 5362, 5472, 12, 14, 1526156130.372, 203, 0, 1024, 1024, 1024, 1024, 0, 6, 3797, 3807, 3820, 3822, 3851, 3804, 0, 1, 13101, 0.000, 0.000, 0.000, 0.000, 0.000, -2.900, 0.0, , , , , , 97, , , 7, 7, 7
38.1754113, -120.0595519, 21.000, 13:15:30.472, 16, 0.00, 0.08, 98, 0.300, 1.200, 68.700, 177, 100, 98, 20, 22895, -20370, 5362, 5472, 12, 14, 1526156130.472, 47, 0, 1024, 1024, 1024, 1024, 0, 6, 3797, 3807, 3820, 3822, 3851, 3804, 0, 1, 13202, 0.000, 0.000, 0.000, 0.000, 0.000, -3.100, 0.0, , , , , , 97, , , 7, 7, 7
38.1754113, -120.0595519, 21.000, 13:15:30.570, 16, 0.00, 0.08, 98, 0.300, 1.200, 68.700, 177, 100, 98, 20, 22895, -20370, 5362, 5472, 12, 14, 1526156130.571, 146, 0, 1024, 1024, 1024, 1024, 0, 6, 3797, 3807, 3820, 3822, 3851, 3804, 0, 1, 13301, 0.000, 0.000, 0.000, 0.000, 0.000, -3.100, 0.0, , , , , , 97, , , 7, 7, 7
38.1754112, -120.0595519, 21.900, 13:15:30.674, 16, 0.00, 0.07, 98, -0.500, 1.100, 68.700, 177, 100, 98, 20, 22961, -19289, 5362, 5472, 12, 14, 1526156130.675, 16, 0, 1024, 1024, 1024, 1024, 0, 6, 3797, 3807, 3820, 3822, 3851, 3804, 0, 1, 13404, 0.000, 0.000, 0.000, 0.000, 0.000, -3.000, 0.0, , , , , , 97, , , 7, 7, 7
38.1754112, -120.0595519, 22.200, 13:15:30.771, 16, 0.00, 0.07, 98, -0.400, 1.200, 68.700, 177, 100, 99, 20, 22961, -19289, 5362, 5472, 12, 14, 1526156130.772, 33, 0, 1024, 1024, 1024, 1024, 0, 6, 3814, 3823, 3827, 3840, 3863, 3820, 0, 1, 13502, 0.000, 0.000, 0.000, 0.000, 0.000, -2.900, 0.0, , , , , , 97, , , 7, 7, 7
38.1754112, -120.0595519, 22.500, 13:15:30.875, 14, 0.00, 0.07, 98, -0.300, 1.200, 68.900, 177, 100, 99, 20, 22961, -19289, 5362, 5472, 12, 14, 1526156130.876, 48, 0, 1024, 1024, 1024, 1024, 0, 6, 3814, 3823, 3827, 3840, 3863, 3820, 0, 1, 13605, 0.000, 0.000, 0.000, 0.000, 0.000, -2.900, 0.0, , , , , , 97, , , 7, 7, 7
38.1754112, -120.0595519, 22.500, 13:15:30.974, 14, 0.00, 0.07, 98, -0.300, 1.200, 68.900, 177, 100, 99, 20, 22961, -19289, 5362, 5472, 12, 14, 1526156130.976, 148, 0, 1024, 1024, 1024, 1024, 0, 6, 3814, 3823, 3827, 3840, 3863, 3820, 0, 1, 13705, 0.000, 0.000, 0.000, 0.000, 0.000, -2.900, 0.0, , , , , , 97, , , 7, 7, 7
38.1754112, -120.0595519, 22.500, 13:15:31.074, 14, 0.00, 0.07, 98, -0.300, 1.200, 68.900, 177, 100, 99, 20, 22961, -19289, 5362, 5472, 12, 14, 1526156131.074, 246, 0, 1024, 1024, 1024, 1024, 0, 6, 3814, 3823, 3827, 3840, 3863, 3820, 0, 1, 13804, 0.000, 0.000, 0.000, 0.000, 0.000, -2.900, 0.0, , , , , , 97, , , 7, 7, 7
38.1754112, -120.0595519, 22.500, 13:15:31.178, 14, 0.00, 0.07, 98, -0.300, 1.200, 68.900, 177, 100, 99, 20, 22961, -19289, 5362, 5472, 12, 14, 1526156131.179, 351, 0, 1024, 1024, 1024, 1024, 0, 6, 3814, 3823, 3827, 3840, 3863, 3820, 0, 1, 13909, 0.000, 0.000, 0.000, 0.000, 0.000, -2.900, 0.0, , , , , , 97, , , 7, 7, 7
38.1754112, -120.0595519, 23.100, 13:15:31.276, 15, 0.00, 0.07, 98, 0.000, 1.200, 69.000, 177, 100, 99, 20, 22961, -19289, 5362, 5472, 12, 14, 1526156131.277, 15, 0, 1024, 1024, 1024, 1024, 0, 6, 3814, 3823, 3827, 3840, 3863, 3820, 0, 1, 14006, 0.000, 0.000, 0.000, 0.000, 0.000, -2.800, 0.0, , , , , , 97, , , 7, 7, 7
38.1754112, -120.0595519, 23.300, 13:15:31.373, 15, 0.00, 0.07, 98, 0.000, 1.200, 69.000, 177, 100, 99, 20, 22961, -19289, 5362, 5472, 12, 14, 1526156131.375, 31, 0, 1024, 1024, 1024, 1024, 0, 6, 3814, 3823, 3827, 3840, 3863, 3820, 0, 1, 14104, 0.000, 0.000, 0.000, 0.000, 0.000, -2.800, 0.0, , , , , , 97, , , 7, 7, 7
38.1754112, -120.0595519, 23.300, 13:15:31.471, 15, 0.00, 0.07, 98, 0.000, 1.200, 69.000, 177, 100, 99, 20, 22961, -19289, 5362, 5472, 12, 14, 1526156131.473, 129, 0, 1024, 1024, 1024, 1024, 0, 6, 3814, 3823, 3827, 3840, 3863, 3820, 0, 1, 14202, 0.000, 0.000, 0.000, 0.000, 0.000, -2.800, 0.0, , , , , , 97, , , 7, 7, 7
38.1754112, -120.0595519, 23.300, 13:15:31.577, 15, 0.00, 0.07, 98, 0.000, 1.200, 69.000, 177, 100, 99, 20, 22961, -19289, 5362, 5472, 12, 14, 1526156131.577, 234, 0, 1024, 1024, 1024, 1024, 0, 6, 3814, 3823, 3827, 3840, 3863, 3820, 0, 1, 14307, 0.000, 0.000, 0.000, 0.000, 0.000, -2.800, 0.0, , , , , , 97, , , 7, 7, 7
38.1754112, -120.0595521, 24.500, 13:15:31.675, 16, 0.00, 0.08, 98, 0.000, 0.700, 68.800, 177, 100, 99, 20, 22961, -19289, 5362, 5472, 12, 14, 1526156131.675, 10, 0, 1024, 1024, 1024, 1024, 0, 6, 3814, 3823, 3827, 3840, 3863, 3820, 0, 1, 14405, 0.000, 0.000, 0.000, 0.000, 0.000, -2.900, 0.0, , , , , , 97, , , 7, 7, 7
38.1754112, -120.0595521, 24.500, 13:15:31.783, 16, 0.00, 0.08, 98, 0.000, 0.700, 68.800, 177, 100, 99, 20, 22961, -19289, 5362, 5472, 12, 14, 1526156131.783, 118, 0, 1024, 1024, 1024, 1024, 0, 6, 3814, 3823, 3827, 3840, 3863, 3820, 0, 1, 14513, 0.000, 0.000, 0.000, 0.000, 0.000, -2.900, 0.0, , , , , , 97, , , 7, 7, 7
38.1754113, -120.0595521, 25.000, 13:15:31.883, 16, 0.00, 0.08, 98, 0.000, 0.800, 68.800, 177, 100, 100, 20, 23069, -17880, 5362, 5472, 12, 14, 1526156131.883, 24, 0, 1024, 1024, 1024, 1024, 0, 6, 3814, 3823, 3827, 3840, 3863, 3820, 0, 1, 14613, 0.000, 0.000, 0.000, 0.000, 0.000, -2.900, 0.0, , , , , , 97, , , 7, 7, 7
38.1754113, -120.0595520, 25.300, 13:15:31.976, 16, 0.00, 0.08, 98, -0.200, 0.900, 68.800, 177, 100, 100, 20, 23069, -17880, 5362, 5472, 12, 14, 1526156131.976, 10, 0, 1024, 1024, 1024, 1024, 0, 6, 3851, 3843, 3856, 3860, 3877, 3845, 0, 1, 14706, 0.000, 0.000, 0.000, 0.000, 0.000, -2.900, 0.0, , , , , , 97, , , 7, 7, 7
38.1754113, -120.0595520, 25.300, 13:15:32.082, 16, 0.00, 0.08, 98, -0.200, 0.900, 68.800, 177, 100, 100, 20, 23069, -17880, 5362, 5472, 12, 14, 1526156132.083, 117, 0, 1024, 1024, 1024, 1024, 0, 6, 3851, 3843, 3856, 3860, 3877, 3845, 0, 1, 14813, 0.000, 0.000, 0.000, 0.000, 0.000, -2.900, 0.0, , , , , , 97, , , 7, 7, 7
38.1754113, -120.0595520, 25.300, 13:15:32.176, 16, 0.00, 0.08, 98, -0.200, 0.900, 68.800, 177, 100, 100, 20, 23069, -17880, 5362, 5472, 12, 14, 1526156132.177, 211, 0, 1024, 1024, 1024, 1024, 0, 6, 3851, 3843, 3856, 3860, 3877, 3845, 0, 1, 14906, 0.000, 0.000, 0.000, 0.000, 0.000, -2.900, 0.0, , , , , , 97, , , 7, 7, 7
38.1754114, -120.0595519, 25.900, 13:15:32.272, 16, 0.00, 0.09, 98, -0.300, 1.500, 68.900, 177, 100, 100, 20, 23069, -17880, 5362, 5472, 12, 14, 1526156132.273, 12, 0, 1024, 1024, 1024, 1024, 0, 6, 3851, 3843, 3856, 3860, 3877, 3845, 0, 1, 15002, 0.000, 0.000, 0.000, 0.000, 0.000, -2.900, 0.0, , , , , , 97, , , 7, 7, 7
38.1754114, -120.0595519, 26.200, 13:15:32.382, 16, 0.00, 0.09, 98, -0.100, 1.900, 68.900, 177, 100, 100, 20, 23069, -17880, 5362, 5472, 12, 14, 1526156132.382, 32, 0, 1024, 1024, 1024, 1024, 0, 6, 3851, 3843, 3856, 3860, 3877, 3845, 0, 1, 15112, 0.000, 0.000, 0.000, 0.000, 0.000, -2.900, 0.0, , , , , , 97, , , 7, 7, 7
38.1754114, -120.0595519, 26.200, 13:15:32.477, 16, 0.00, 0.09, 98, -0.100, 1.900, 68.900, 177, 100, 100, 20, 23069, -17880, 5362, 5472, 12, 14, 1526156132.479, 129, 0, 1024, 1024, 1024, 1024, 0, 6, 3851, 3843, 3856, 3860, 3877, 3845, 0, 1, 15209, 0.000, 0.000, 0.000, 0.000, 0.000, -2.900, 0.0, , , , , , 97, , , 7, 7, 7
38.1754115, -120.0595516, 27.300, 13:15:32.581, 16, 0.00, 0.11, 98, 0.100, 2.700, 68.800, 177, 100, 100, 20, 23069, -17880, 5362, 5472, 12, 14, 1526156132.582, 30, 0, 1024, 1024, 1024, 1024, 0, 6, 3851, 3843, 3856, 3860, 3877, 3845, 0, 1, 15312, 0.000, 0.000, 0.000, 0.000, 0.000, -2.900, 0.0, , , , , , 97, , , 7, 7, 7
38.1754115, -120.0595516, 27.300, 13:15:32.673, 16, 0.00, 0.11, 98, 0.100, 2.700, 68.800, 177, 100, 100, 20, 23048, -18489, 5362, 5472, 12, 14, 1526156132.673, 121, 0, 1024, 1024, 1024, 1024, 0, 6, 3851, 3843, 3856, 3860, 3877, 3845, 0, 1, 15403, 0.000, 0.000, 0.000, 0.000, 0.000, -2.900, 0.0, , , , , , 97, , , 7, 7, 7
38.1754115, -120.0595515, 27.700, 13:15:32.772, 16, 0.00, 0.11, 98, -0.300, 2.700, 69.000, 177, 100, 100, 20, 23048, -18489, 5362, 5472, 12, 14, 1526156132.773, 96, 0, 1024, 1024, 1024, 1024, 0, 6, 3830, 3833, 3832, 3838, 3854, 3823, 0, 1, 15502, 0.000, 0.000, 0.000, 0.000, 0.000, -3.000, 0.0, , , , , , 97, , , 7, 7, 7
38.1754116, -120.0595515, 28.600, 13:15:32.892, 16, 0.00, 0.13, 98, -0.100, 2.500, 69.500, 177, 100, 100, 20, 23048, -18489, 5362, 5472, 12, 14, 1526156132.892, 11, 0, 1024, 1024, 1024, 1024, 0, 6, 3830, 3833, 3832, 3838, 3854, 3823, 0, 1, 15622, 0.000, 0.000, 0.000, 0.000, 0.000, -3.000, 0.0, , , , , , 97, , , 7, 7, 7
38.1754116, -120.0595515, 28.600, 13:15:32.983, 16, 0.00, 0.13, 98, -0.100, 2.500, 69.500, 177, 100, 100, 20, 23048, -18489, 5362, 5472, 12, 14, 1526156132.983, 102, 0, 1024, 1024, 1024, 1024, 0, 6, 3830, 3833, 3832, 3838, 3854, 3823, 0, 1, 15713, 0.000, 0.000, 0.000, 0.000, 0.000, -3.000, 0.0, , , , , , 97, , , 7, 7, 7
38.1754117, -120.0595514, 28.900, 13:15:33.083, 16, 0.00, 0.13, 98, 0.000, 2.400, 69.500, 177, 100, 100, 20, 23048, -18489, 5362, 5472, 12, 14, 1526156133.088, 23, 0, 1024, 1024, 1024, 1024, 0, 6, 3830, 3833, 3832, 3838, 3854, 3823, 0, 1, 15818, 0.000, 0.000, 0.000, 0.000, 0.000, -3.000, 0.0, , , , , , 97, , , 7, 7, 7
38.1754117, -120.0595514, 28.900, 13:15:33.178, 16, 0.00, 0.13, 98, 0.000, 2.400, 69.500, 177, 100, 100, 20, 23048, -18489, 5362, 5472, 12, 14, 1526156133.182, 117, 0, 1024, 1024, 1024, 1024, 0, 6, 3830, 3833, 3832, 3838, 3854, 3823, 0, 1, 15911, 0.000, 0.000, 0.000, 0.000, 0.000, -3.000, 0.0, , , , , , 97, , , 7, 7, 7
38.1754117, -120.0595514, 29.200, 13:15:33.311, 16, 0.00, 0.13, 98, 0.100, 2.200, 69.400, 177, 100, 100, 20, 23048, -18489, 5362, 5472, 12, 14, 1526156133.312, 5, 0, 1024, 1024, 1024, 1024, 0, 6, 3830, 3833, 3832, 3838, 3854, 3823, 0, 1, 16041, 0.000, 0.000, 0.000, 0.000, 0.000, -2.900, 0.0, , , , , , 97, , , 7, 7, 7
38.1754117, -120.0595514, 29.200, 13:15:33.374, 16, 0.00, 0.13, 98, 0.100, 2.200, 69.400, 177, 100, 100, 20, 23048, -18489, 5362, 5472, 12, 14, 1526156133.375, 68, 0, 1024, 1024, 1024, 1024, 0, 6, 3830, 3833, 3832, 3838, 3854, 3823, 0, 1, 16105, 0.000, 0.000, 0.000, 0.000, 0.000, -2.900, 0.0, , , , , , 97, , , 7, 7, 7
38.1754117, -120.0595514, 29.600, 13:15:33.476, 16, 0.00, 0.13, 98, 0.000, 2.100, 69.200, 177, 100, 98, 20, 23048, -18489, 5362, 5472, 12, 14, 1526156133.477, 65, 0, 1024, 1024, 1024, 1024, 0, 6, 3830, 3833, 3832, 3838, 3854, 3823, 0, 1, 16206, 0.000, 0.000, 0.000, 0.000, 0.000, -3.000, 0.0, , , , , , 97, , , 7, 7, 7
38.1754116, -120.0595515, 30.200, 13:15:33.599, 16, 0.00, 0.13, 98, -0.400, 1.600, 68.900, 177, 100, 98, 20, 23048, -18489, 5362, 5472, 12, 14, 1526156133.602, 20, 0, 1024, 1024, 1024, 1024, 0, 6, 3830, 3833, 3832, 3838, 3854, 3823, 0, 1, 16331, 0.000, 0.000, 0.000, 0.000, 0.000, -2.900, 0.0, , , , , , 97, , , 7, 7, 7
38.1754116, -120.0595515, 30.200, 13:15:33.674, 16, 0.00, 0.13, 98, -0.400, 1.600, 68.900, 177, 100, 98, 20, 23048, -18489, 5362, 5472, 12, 14, 1526156133.677, 95, 0, 1024, 1024, 1024, 1024, 0, 6, 3830, 3833, 3832, 3838, 3854, 3823, 0, 1, 16406, 0.000, 0.000, 0.000, 0.000, 0.000, -2.900, 0.0, , , , , , 97, , , 7, 7, 7
38.1754116, -120.0595515, 30.200, 13:15:33.773, 16, 0.00, 0.13, 98, -0.400, 1.600, 68.900, 177, 100, 98, 20, 23048, -18489, 5362, 5472, 12, 14, 1526156133.773, 192, 0, 1024, 1024, 1024, 1024, 0, 6, 3830, 3833, 3832, 3838, 3854, 3823, 0, 1, 16503, 0.000, 0.000, 0.000, 0.000, 0.000, -2.900, 0.0, , , , , , 97, , , 7, 7, 7
38.1754116, -120.0595515, 30.200, 13:15:33.889, 16, 0.00, 0.13, 98, -0.400, 1.600, 68.900, 177, 100, 98, 20, 23048, -18489, 5362, 5472, 12, 14, 1526156133.890, 308, 0, 1024, 1024, 1024, 1024, 0, 6, 3830, 3833, 3832, 3838, 3854, 3823, 0, 1, 16619, 0.000, 0.000, 0.000, 0.000, 0.000, -2.900, 0.0, , , , , , 97, , , 7, 7, 7
38.1754115, -120.0595515, 31.100, 13:15:33.971, 16, 0.00, 0.11, 98, -0.700, 0.700, 69.000, 177, 100, 99, 20, 23048, -18489, 5362, 5472, 12, 14, 1526156133.972, 55, 0, 1024, 1024, 1024, 1024, 0, 6, 3830, 3833, 3832, 3838, 3854, 3823, 0, 1, 16701, 0.000, 0.000, 0.000, 0.000, 0.000, -2.800, 0.0, , , , , , 97, , , 7, 7, 7
38.1754115, -120.0595515, 31.400, 13:15:34.071, 16, 0.00, 0.11, 98, -0.900, 0.600, 69.000, 177, 100, 99, 20, 23048, -18489, 5362, 5472, 12, 14, 1526156134.072, 46, 0, 1024, 1024, 1024, 1024, 0, 6, 3830, 3833, 3832, 3838, 3854, 3823, 0, 1, 16802, 0.000, 0.000, 0.000, 0.000, 0.000, -2.900, 0.0, , , , , , 97, , , 7, 7, 7
38.1754115, -120.0595516, 31.700, 13:15:34.171, 16, 0.00, 0.11, 98, -0.500, 0.800, 69.100, 177, 100, 99, 20, 23048, -18489, 5362, 5472, 12, 14, 1526156134.171, 95, 0, 1024, 1024, 1024, 1024, 0, 6, 3830, 3833, 3832, 3838, 3854, 3823, 0, 1, 16901, 0.000, 0.000, 0.000, 0.000, 0.000, -2.900, 0.0, , , , , , 97, , , 7, 7, 7
38.1754116, -120.0595516, 32.000, 13:15:34.272, 16, 0.00, 0.11, 98, -0.400, 1.200, 69.100, 177, 100, 99, 20, 23048, -18489, 5362, 5472, 12, 14, 1526156134.272, 42, 0, 1024, 1024, 1024, 1024, 0, 6, 3830, 3833, 3832, 3838, 3854, 3823, 0, 1, 17002, 0.000, 0.000, 0.000, 0.000, 0.000, -2.900, 0.0, , , , , , 97, , , 7, 7, 7
38.1754117, -120.0595518, 32.900, 13:15:34.371, 16, 0.00, 0.13, 98, 0.800, 0.800, 68.800, 177, 100, 99, 20, 23048, -18489, 5362, 5472, 12, 14, 1526156134.371, 8, 0, 1024, 1024, 1024, 1024, 0, 6, 3830, 3833, 3832, 3838, 3854, 3823, 0, 1, 17101, 0.000, 0.000, 0.000, 0.000, 0.000, -2.900, 0.0, , , , , , 97, , , 7, 7, 7
38.1754117, -120.0595518, 32.900, 13:15:34.471, 16, 0.00, 0.13, 98, 0.800, 0.800, 68.800, 177, 100, 99, 20, 23048, -18489, 5362, 5472, 12, 14, 1526156134.472, 108, 0, 1024, 1024, 1024, 1024, 0, 6, 3830, 3833, 3832, 3838, 3854, 3823, 0, 1, 17202, 0.000, 0.000, 0.000, 0.000, 0.000, -2.900, 0.0, , , , , , 97, , , 7, 7, 7
38.1754119, -120.0595517, 33.800, 13:15:34.571, 16, 0.00, 0.15, 97, 0.500, 2.100, 68.900, 177, 100, 99, 20, 22736, -20417, 5307, 5472, 12, 14, 1526156134.572, 27, 0, 1024, 1024, 1024, 1024, 0, 6, 3830, 3833, 3832, 3838, 3854, 3823, 0, 1, 17302, 0.000, 0.000, 0.000, 0.000, 0.000, -2.900, 0.0, , , , , , 97, , , 7, 7, 7
38.1754120, -120.0595517, 34.100, 13:15:34.672, 16, 0.00, 0.16, 97, 0.600, 2.400, 69.000, 177, 100, 100, 20, 22736, -20417, 5307, 5472, 12, 14, 1526156134.672, 44, 0, 1024, 1024, 1024, 1024, 0, 6, 3776, 3782, 3786, 3790, 3804, 3771, 0, 1, 17402, 0.000, 0.000, 0.000, 0.000, 0.000, -2.900, 0.0, , , , , , 97, , , 7, 7, 7
38.1754120, -120.0595517, 34.100, 13:15:34.771, 16, 0.00, 0.16, 97, 0.600, 2.400, 69.000, 177, 100, 100, 20, 22736, -20417, 5307, 5472, 12, 14, 1526156134.772, 144, 0, 1024, 1024, 1024, 1024, 0, 6, 3776, 3782, 3786, 3790, 3804, 3771, 0, 1, 17501, 0.000, 0.000, 0.000, 0.000, 0.000, -2.900, 0.0, , , , , , 97, , , 7, 7, 7
38.1754121, -120.0595517, 34.700, 13:15:34.871, 16, 0.00, 0.17, 97, 0.800, 2.800, 69.100, 177, 100, 100, 20, 22736, -20417, 5307, 5472, 12, 14, 1526156134.871, 86, 0, 1024, 1024, 1024, 1024, 0, 6, 3776, 3782, 3786, 3790, 3804, 3771, 0, 1, 17601, 0.000, 0.000, 0.000, 0.000, 0.000, -2.800, 0.0, , , , , , 97, , , 7, 7, 7
38.1754122, -120.0595517, 35.200, 13:15:34.971, 16, 0.00, 0.18, 97, 0.800, 2.300, 69.100, 177, 100, 100, 20, 22736, -20417, 5307, 5472, 12, 14, 1526156134.972, 8, 0, 1024, 1024, 1024, 1024, 0, 6, 3776, 3782, 3786, 3790, 3804, 3771, 0, 1, 17701, 0.000, 0.000, 0.000, 0.000, 0.000, -2.800, 0.0, , , , , , 97, , , 7, 7, 7
38.1754122, -120.0595517, 35.500, 13:15:35.071, 16, 0.00, 0.19, 97, 0.700, 1.900, 69.100, 177, 100, 99, 20, 22736, -20417, 5307, 5472, 12, 14, 1526156135.072, 64, 0, 1024, 1024, 1024, 1024, 0, 6, 3776, 3782, 3786, 3790, 3804, 3771, 0, 1, 17802, 0.000, 0.000, 0.000, 0.000, 0.000, -2.800, 0.0, , , , , , 97, , , 7, 7, 7
38.1754123, -120.0595518, 35.800, 13:15:35.171, 16, 0.00, 0.19, 97, 1.000, 1.800, 69.200, 177, 100, 99, 20, 22736, -20417, 5307, 5472, 12, 14, 1526156135.172, 93, 0, 1024, 1024, 1024, 1024, 0, 6, 3776, 3782, 3786, 3790, 3804, 3771, 0, 1, 17901, 0.000, 0.000, 0.000, 0.000, 0.000, -2.800, 0.0, , , , , , 97, , , 7, 7, 7
38.1754124, -120.0595518, 36.300, 13:15:35.272, 16, 0.00, 0.20, 97, 1.100, 1.800, 69.000, 177, 100, 99, 20, 22736, -20417, 5307, 5472, 12, 14, 1526156135.273, 6, 0, 1024, 1024, 1024, 1024, 0, 6, 3776, 3782, 3786, 3790, 3804, 3771, 0, 1, 18002, 0.000, 0.000, 0.000, 0.000, 0.000, -2.800, 0.0, , , , , , 97, , , 7, 7, 7
38.1754124, -120.0595518, 36.300, 13:15:35.371, 16, 0.00, 0.20, 97, 1.100, 1.800, 69.000, 177, 100, 99, 20, 22736, -20417, 5307, 5472, 12, 14, 1526156135.372, 105, 0, 1024, 1024, 1024, 1024, 0, 6, 3776, 3782, 3786, 3790, 3804, 3771, 0, 1, 18101, 0.000, 0.000, 0.000, 0.000, 0.000, -2.800, 0.0, , , , , , 97, , , 7, 7, 7
38.1754125, -120.0595518, 36.600, 13:15:35.471, 16, 0.00, 0.21, 97, 0.700, 2.300, 69.200, 177, 100, 99, 20, 22532, -22729, 5307, 5472, 12, 14, 1526156135.472, 68, 0, 1024, 1024, 1024, 1024, 0, 6, 3776, 3782, 3786, 3790, 3804, 3771, 0, 1, 18202, 0.000, 0.000, 0.000, 0.000, 0.000, -2.900, 0.0, , , , , , 97, , , 7, 7, 7
38.1754125, -120.0595518, 36.900, 13:15:35.571, 16, 0.00, 0.21, 97, 0.500, 2.300, 69.300, 177, 100, 99, 20, 22532, -22729, 5307, 5472, 12, 14, 1526156135.572, 78, 0, 1024, 1024, 1024, 1024, 0, 6, 3776, 3782, 3786, 3790, 3804, 3771, 0, 1, 18302, 0.000, 0.000, 0.000, 0.000, 0.000, -3.000, 0.0, , , , , , 97, , , 7, 7, 7
38.1754125, -120.0595518, 37.200, 13:15:35.671, 16, 0.00, 0.21, 97, 0.900, 2.400, 69.300, 177, 100, 99, 20, 22532, -22729, 5307, 5472, 12, 14, 1526156135.672, 91, 0, 1024, 1024, 1024, 1024, 0, 6, 3776, 3782, 3786, 3790, 3804, 3771, 0, 1, 18402, 0.000, 0.000, 0.000, 0.000, 0.000, -3.000, 0.0, , , , , , 97, , , 7, 7, 7
38.1754125, -120.0595519, 37.500, 13:15:35.771, 16, 0.00, 0.22, 97, 1.200, 2.100, 69.200, 177, 100, 99, 20, 22532, -22729, 5307, 5472, 12, 14, 1526156135.772, 81, 0, 1024, 1024, 1024, 1024, 0, 6, 3776, 3782, 3786, 3790, 3804, 3771, 0, 1, 18501, 0.000, 0.000, 0.000, 0.000, 0.000, -2.900, 0.0, , , , , , 97, , , 7, 7, 7
38.1754125, -120.0595519, 37.900, 13:15:35.871, 16, 0.00, 0.22, 97, 1.000, 1.800, 69.000, 177, 100, 99, 20, 22532, -22729, 5307, 5472, 12, 14, 1526156135.872, 56, 0, 1024, 1024, 1024, 1024, 0, 6, 3776, 3782, 3786, 3790, 3804, 3771, 0, 1, 18601, 0.000, 0.000, 0.000, 0.000, 0.000, -3.100, 0.0, , , , , , 97, , , 7, 7, 7
38.1754125, -120.0595519, 38.200, 13:15:35.971, 16, 0.00, 0.22, 97, 0.800, 1.100, 68.900, 177, 100, 99, 20, 22532, -22729, 5307, 5472, 12, 14, 1526156135.972, 56, 0, 1024, 1024, 1024, 1024, 0, 6, 3736, 3753, 3752, 3766, 3788, 3747, 0, 1, 18701, 0.000, 0.000, 0.000, 0.000, 0.000, -3.000, 0.0, , , , , , 97, , , 7, 7, 7
38.1754125, -120.0595519, 38.500, 13:15:36.071, 16, 0.00, 0.22, 97, 1.100, 1.300, 69.000, 177, 100, 99, 20, 22532, -22729, 5307, 5472, 12, 14, 1526156136.072, 44, 0, 1024, 1024, 1024, 1024, 0, 6, 3736, 3753, 3752, 3766, 3788, 3747, 0, 1, 18801, 0.000, 0.000, 0.000, 0.000, 0.000, -3.000, 0.0, , , , , , 97, , , 7, 7, 7
38.1754126, -120.0595519, 38.800, 13:15:36.171, 16, 0.00, 0.22, 97, 1.300, 1.700, 69.100, 177, 100, 99, 20, 22532, -22729, 5307, 5472, 12, 14, 1526156136.172, 43, 0, 1024, 1024, 1024, 1024, 0, 6, 3736, 3753, 3752, 3766, 3788, 3747, 0, 1, 18901, 0.000, 0.000, 0.000, 0.000, 0.000, -3.000, 0.0, , , , , , 97, , , 7, 7, 7
38.1754126, -120.0595518, 39.100, 13:15:36.271, 16, 0.00, 0.23, 97, 0.800, 2.400, 69.100, 177, 100, 99, 20, 22532, -22729, 5307, 5472, 12, 14, 1526156136.271, 61, 0, 1024, 1024, 1024, 1024, 0, 6, 3736, 3753, 3752, 3766, 3788, 3747, 0, 1, 19001, 0.000, 0.000, 0.000, 0.000, 0.000, -3.000, 0.0, , , , , , 97, , , 7, 7, 7
38.1754126, -120.0595518, 39.400, 13:15:36.372, 16, 0.00, 0.23, 97, 0.300, 2.900, 69.100, 177, 100, 99, 21, 22532, -22729, 5307, 5472, 12, 14, 1526156136.372, 41, 0, 1024, 1024, 1024, 1024, 0, 6, 3736, 3753, 3752, 3766, 3788, 3747, 0, 1, 19102, 0.000, 0.000, 0.000, 0.000, 0.000, -3.000, 0.0, , , , , , 97, , , 7, 7, 7
38.1754126, -120.0595517, 39.700, 13:15:36.483, 16, 0.00, 0.23, 97, 0.100, 3.000, 69.100, 177, 100, 100, 21, 22532, -22729, 5307, 5472, 12, 14, 1526156136.483, 43, 0, 1024, 1024, 1024, 1024, 0, 6, 3736, 3753, 3752, 3766, 3788, 3747, 0, 1, 19213, 0.000, 0.000, 0.000, 0.000, 0.000, -3.000, 0.0, , , , , , 97, , , 7, 7, 7
38.1754126, -120.0595517, 39.700, 13:15:36.587, 16, 0.00, 0.23, 97, 0.100, 3.000, 69.100, 177, 100, 100, 21, 22532, -22729, 5307, 5472, 12, 14, 1526156136.589, 149, 0, 1024, 1024, 1024, 1024, 0, 6, 3736, 3753, 3752, 3766, 3788, 3747, 0, 1, 19319, 0.000, 0.000, 0.000, 0.000, 0.000, -3.000, 0.0, , , , , , 97, , , 7, 7, 7
38.1754126, -120.0595517, 40.300, 13:15:36.676, 16, 0.00, 0.23, 97, 0.700, 2.600, 69.300, 177, 100, 100, 21, 22532, -22729, 5307, 5472, 12, 14, 1526156136.677, 35, 0, 1024, 1024, 1024, 1024, 0, 6, 3736, 3753, 3752, 3766, 3788, 3747, 0, 1, 19406, 0.000, 0.000, 0.000, 0.000, 0.000, -2.900, 0.0, , , , , , 97, , , 7, 7, 7
38.1754126, -120.0595517, 40.300, 13:15:36.778, 16, 0.00, 0.23, 97, 0.700, 2.600, 69.300, 177, 100, 100, 21, 22532, -22729, 5307, 5472, 12, 14, 1526156136.781, 139, 0, 1024, 1024, 1024, 1024, 0, 6, 3736, 3753, 3752, 3766, 3788, 3747, 0, 1, 19511, 0.000, 0.000, 0.000, 0.000, 0.000, -2.900, 0.0, , , , , , 97, , , 7, 7, 7
38.1754126, -120.0595517, 40.300, 13:15:36.943, 16, 0.00, 0.23, 97, 0.700, 2.600, 69.300, 177, 100, 100, 21, 22532, -22729, 5307, 5472, 12, 14, 1526156136.943, 301, 0, 1024, 1024, 1024, 1024, 0, 6, 3736, 3753, 3752, 3766, 3788, 3747, 0, 1, 19673, 0.000, 0.000, 0.000, 0.000, 0.000, -2.900, 0.0, , , , , , 97, , , 7, 7, 7
38.1754126, -120.0595517, 40.300, 13:15:36.981, 16, 0.00, 0.23, 97, 0.700, 2.600, 69.300, 177, 100, 100, 21, 22532, -22729, 5307, 5472, 12, 14, 1526156136.981, 340, 0, 1024, 1024, 1024, 1024, 0, 6, 3736, 3753, 3752, 3766, 3788, 3747, 0, 1, 19711, 0.000, 0.000, 0.000, 0.000, 0.000, -2.900, 0.0, , , , , , 97, , , 7, 7, 7
38.1754126, -120.0595517, 40.300, 13:15:37.092, 16, 0.00, 0.23, 97, 0.700, 2.600, 69.300, 177, 100, 100, 21, 22532, -22729, 5307, 5472, 12, 14, 1526156137.093, 451, 0, 1024, 1024, 1024, 1024, 0, 6, 3736, 3753, 3752, 3766, 3788, 3747, 0, 1, 19823, 0.000, 0.000, 0.000, 0.000, 0.000, -2.900, 0.0, , , , , , 97, , , 7, 7, 7
38.1754126, -120.0595517, 40.300, 13:15:37.181, 16, 0.00, 0.23, 97, 0.700, 2.600, 69.300, 177, 100, 100, 21, 22532, -22729, 5307, 5472, 12, 14, 1526156137.181, 540, 0, 1024, 1024, 1024, 1024, 0, 6, 3736, 3753, 3752, 3766, 3788, 3747, 0, 1, 19911, 0.000, 0.000, 0.000, 0.000, 0.000, -2.900, 0.0, , , , , , 97, , , 7, 7, 7
38.1754126, -120.0595517, 40.300, 13:15:37.277, 16, 0.00, 0.23, 97, 0.700, 2.600, 69.300, 177, 100, 100, 21, 22532, -22729, 5307, 5472, 12, 14, 1526156137.278, 636, 0, 1024, 1024, 1024, 1024, 0, 6, 3736, 3753, 3752, 3766, 3788, 3747, 0, 1, 20007, 0.000, 0.000, 0.000, 0.000, 0.000, -2.900, 0.0, , , , , , 97, , , 7, 7, 7
38.1754126, -120.0595518, 40.900, 13:15:37.376, 16, 0.00, 0.23, 97, 1.800, 1.800, 69.200, 177, 100, 100, 21, 22532, -22729, 5307, 5472, 12, 14, 1526156137.377, 45, 0, 1024, 1024, 1024, 1024, 0, 6, 3736, 3753, 3752, 3766, 3788, 3747, 0, 1, 20107, 0.000, 0.000, 0.000, 0.000, 0.000, -2.900, 0.0, , , , , , 97, , , 7, 7, 7
38.1754126, -120.0595519, 41.200, 13:15:37.476, 16, 0.00, 0.23, 97, 1.600, 1.400, 69.100, 177, 100, 100, 21, 22396, -23433, 5307, 5472, 12, 14, 1526156137.477, 33, 0, 1024, 1024, 1024, 1024, 0, 6, 3736, 3753, 3752, 3766, 3788, 3747, 0, 1, 20206, 0.000, 0.000, 0.000, 0.000, 0.000, -2.900, 0.0, , , , , , 97, , , 7, 7, 7
38.1754126, -120.0595519, 41.200, 13:15:37.571, 16, 0.00, 0.23, 97, 1.600, 1.400, 69.100, 177, 100, 100, 21, 22396, -23433, 5307, 5472, 12, 14, 1526156137.572, 128, 0, 1024, 1024, 1024, 1024, 0, 6, 3736, 3753, 3752, 3766, 3788, 3747, 0, 1, 20301, 0.000, 0.000, 0.000, 0.000, 0.000, -2.900, 0.0, , , , , , 97, , , 7, 7, 7
38.1754126, -120.0595520, 41.800, 13:15:37.671, 16, 0.00, 0.23, 97, 0.900, 1.000, 69.200, 177, 100, 100, 21, 22396, -23433, 5307, 5472, 12, 14, 1526156137.671, 97, 0, 1024, 1024, 1024, 1024, 0, 6, 3736, 3753, 3752, 3766, 3788, 3747, 0, 1, 20401, 0.000, 0.000, 0.000, 0.000, 0.000, -2.900, 0.0, , , , , , 97, , , 7, 7, 7
38.1754127, -120.0595519, 43.200, 13:15:37.776, 16, 0.00, 0.24, 97, 2.400, 2.000, 69.100, 177, 100, 99, 21, 22396, -23433, 5307, 5472, 12, 14, 1526156137.776, 6, 0, 1024, 1024, 1024, 1024, 0, 6, 3713, 3718, 3730, 3728, 3758, 3711, 0, 1, 20506, 0.000, 0.000, 0.000, 0.000, 0.000, -2.900, 0.0, , , , , , 97, , , 7, 7, 7
38.1754127, -120.0595519, 43.200, 13:15:37.871, 16, 0.00, 0.24, 97, 2.400, 2.000, 69.100, 177, 100, 99, 21, 22396, -23433, 5307, 5472, 12, 14, 1526156137.872, 101, 0, 1024, 1024, 1024, 1024, 0, 6, 3713, 3718, 3730, 3728, 3758, 3711, 0, 1, 20601, 0.000, 0.000, 0.000, 0.000, 0.000, -2.900, 0.0, , , , , , 97, , , 7, 7, 7
38.1754127, -120.0595519, 43.800, 13:15:37.972, 16, 0.00, 0.23, 97, 1.400, 2.200, 68.800, 177, 100, 99, 21, 22396, -23433, 5307, 5472, 12, 14, 1526156137.972, 27, 0, 1024, 1024, 1024, 1024, 0, 6, 3713, 3718, 3730, 3728, 3758, 3711, 0, 1, 20702, 0.000, 0.000, 0.000, 0.000, 0.000, -2.900, 0.0, , , , , , 97, , , 7, 7, 7
38.1754126, -120.0595519, 44.100, 13:15:38.071, 16, 0.00, 0.23, 97, 0.900, 2.300, 68.600, 177, 100, 99, 21, 22335, -23689, 5307, 5472, 12, 14, 1526156138.072, 84, 0, 1024, 1024, 1024, 1024, 0, 6, 3702, 3711, 3726, 3730, 3753, 3697, 0, 1, 20802, 0.000, 0.000, 0.000, 0.000, 0.000, -2.900, 0.0, , , , , , 97, , , 7, 7, 7
38.1754125, -120.0595518, 44.700, 13:15:38.171, 16, 0.00, 0.22, 97, 0.000, 2.600, 68.400, 177, 100, 99, 21, 22335, -23689, 5307, 5472, 12, 14, 1526156138.172, 48, 0, 1024, 1024, 1024, 1024, 0, 6, 3702, 3711, 3726, 3730, 3753, 3697, 0, 1, 20901, 0.000, 0.000, 0.000, 0.000, 0.000, -3.000, 0.0, , , , , , 97, , , 7, 7, 7
38.1754125, -120.0595518, 45.000, 13:15:38.271, 16, 0.00, 0.21, 97, -0.400, 2.600, 68.400, 177, 100, 99, 21, 22335, -23689, 5307, 5472, 12, 14, 1526156138.271, 89, 0, 1024, 1024, 1024, 1024, 0, 6, 3702, 3711, 3726, 3730, 3753, 3697, 0, 1, 21001, 0.000, 0.000, 0.000, 0.000, 0.000, -3.000, 0.0, , , , , , 97, , , 7, 7, 7
38.1754124, -120.0595518, 45.300, 13:15:38.371, 16, 0.00, 0.21, 97, -0.300, 2.500, 68.400, 177, 100, 99, 21, 22335, -23689, 5307, 5472, 12, 14, 1526156138.373, 55, 0, 1024, 1024, 1024, 1024, 0, 6, 3702, 3711, 3726, 3730, 3753, 3697, 0, 1, 21102, 0.000, 0.000, 0.000, 0.000, 0.000, -3.100, 0.0, , , , , , 97, , , 7, 7, 7
38.1754124, -120.0595518, 45.600, 13:15:38.471, 16, 0.00, 0.20, 97, -0.200, 2.500, 68.400, 177, 100, 97, 21, 22335, -23689, 5307, 5472, 12, 14, 1526156138.471, 67, 0, 1024, 1024, 1024, 1024, 0, 6, 3702, 3711, 3726, 3730, 3753, 3697, 0, 1, 21201, 0.000, 0.000, 0.000, 0.000, 0.000, -3.100, 0.0, , , , , , 97, , , 7, 7, 7
38.1754123, -120.0595518, 45.900, 13:15:38.571, 16, 0.00, 0.20, 97, -0.100, 2.100, 68.400, 177, 100, 97, 21, 22335, -23689, 5307, 5472, 12, 14, 1526156138.572, 34, 0, 1024, 1024, 1024, 1024, 0, 6, 3702, 3711, 3726, 3730, 3753, 3697, 0, 1, 21301, 0.000, 0.000, 0.000, 0.000, 0.000, -3.100, 0.0, , , , , , 97, , , 7, 7, 7
38.1754123, -120.0595518, 46.300, 13:15:38.671, 16, 0.00, 0.19, 97, 0.500, 1.500, 68.600, 177, 100, 97, 21, 22335, -23689, 5307, 5472, 12, 14, 1526156138.672, 63, 0, 1024, 1024, 1024, 1024, 0, 6, 3702, 3711, 3726, 3730, 3753, 3697, 0, 1, 21402, 0.000, 0.000, 0.000, 0.000, 0.000, -3.200, 0.0, , , , , , 97, , , 7, 7, 7
38.1754123, -120.0595518, 46.600, 13:15:38.771, 16, 0.00, 0.19, 97, 0.900, 1.400, 68.800, 177, 100, 97, 21, 22335, -23689, 5307, 5472, 12, 14, 1526156138.772, 44, 0, 1024, 1024, 1024, 1024, 0, 6, 3702, 3711, 3726, 3730, 3753, 3697, 0, 1, 21502, 0.000, 0.000, 0.000, 0.000, 0.000, -3.200, 0.0, , , , , , 97, , , 7, 7, 7
38.1754123, -120.0595519, 46.900, 13:15:38.871, 16, 0.00, 0.19, 97, 0.800, 1.600, 69.000, 177, 100, 97, 21, 22177, -25273, 5307, 5472, 12, 14, 1526156138.872, 37, 0, 1024, 1024, 1024, 1024, 0, 6, 3667, 3686, 3695, 3705, 3724, 3674, 0, 1, 21601, 0.000, 0.000, 0.000, 0.000, 0.000, -3.100, 0.0, , , , , , 97, , , 7, 7, 7
