latitude,longitude,altitude(feet),ascent(feet),speed(mph),distance(feet),time(millisecond),datetime(utc),satellites,gpslevel,voltage(v),max_altitude(feet),max_ascent(feet),max_speed(mph),max_distance(feet), xSpeed(mph), ySpeed(mph), zSpeed(mph), compass_heading(degrees), pitch(degrees), roll(degrees),isPhoto,isVideo,rc_elevator,rc_aileron,rc_throttle,rc_rudder,gimbal_heading(degrees),gimbal_pitch(degrees),battery_percent,voltageCell1,voltageCell2,voltageCell3,voltageCell4,voltageCell5,voltageCell6,current(A),battery_temperature(f),flycStateRaw,flycState,message
38.1754127,-120.05956,4961.8664025461,0,0.3131716,0,3200,2018-05-12 20:03:33,14,0,0,4961.8664025461,0,0.3131716,0,0,0,0,73.9, 0.2, -0.4,1,0,1024,1024,1024,1024,75,-90,98,4.015,3.997,4.076,4.125,4.136,4.136,0,69.8,11,AutoTakeoff,
38.1754129,-120.0595602,4961.8664025461,0,0.3131716,0.092817916356,3300,2018-05-12 20:03:33,14,0,0,4961.8664025461,0,0.3131716,0.092817916356,0,0,0,74, -0.3, 0.8,0,0,1024,1024,1024,1024,74.9,-90,98,4.015,3.997,4.076,4.125,4.136,4.136,0,69.8,11,AutoTakeoff,
38.1754131,-120.0595604,4961.8664025461,0,0.4921268,0.185635504628,3500,2018-05-12 20:03:33,14,0,0,4961.8664025461,0,0.4921268,0.185635504628,0,0,0,74.1, -0.9, 1.7,0,0,1024,1024,1024,1024,74.9,-90,98,4.015,3.997,4.076,4.125,4.136,4.136,0,69.8,11,AutoTakeoff,
38.1754133,-120.0595607,4961.8664025461,0,0.4921268,0.297036426828,3600,2018-05-12 20:03:33,14,0,0,4961.8664025461,0,0.4921268,0.297036426828,0,0,0,74.2, -1.2, 2.3,0,0,1024,1024,1024,1024,74.9,-90,98,4.015,3.997,4.076,4.125,4.136,4.136,0,69.8,11,AutoTakeoff,
38.1754135,-120.0595609,4961.8664025461,0,0.3131716,0.3896489626,3700,2018-05-12 20:03:33,14,0,0,4961.8664025461,0,0.4921268,0.3896489626,0,0,0,74.2, -1.5, 2.7,0,0,1024,1024,1024,1024,74.9,-89.9,98,4.015,3.997,4.076,4.125,4.136,4.136,0,69.8,11,AutoTakeoff,
38.1754137,-120.0595611,4962.1944865461,0.328084,0.223694,0.48234253512,3800,2018-05-12 20:03:33,14,0,0,4962.1944865461,0.328084,0.4921268,0.48234253512,0,0,0,73.8, -0.8, 2,0,0,1024,1024,1024,1024,74.9,-89.9,98,4.015,3.997,4.076,4.125,4.136,4.136,0,69.8,11,AutoTakeoff,
38.1754139,-120.0595612,4962.1944865461,0.328084,0.223694,0.5569061858,4000,2018-05-12 20:03:33,14,0,25.246,4962.1944865461,0.328084,0.4921268,0.5569061858,0,0,0,73.5, -0.3, 1.7,0,0,1024,1024,1024,1024,74.9,-89.9,98,4.015,3.997,4.076,4.125,4.136,4.136,15.868,69.8,11,AutoTakeoff,
38.175414,-120.0595613,4962.5225705461,0.656168,0.223694,0.60331694844,4100,2018-05-12 20:03:33,14,0,25.246,4962.5225705461,0.656168,0.4921268,0.60331694844,0,0,0,73.4, 0, 1.4,0,0,1024,1024,1024,1024,74.8,-89.9,98,4.015,3.997,4.076,4.125,4.136,4.136,15.868,69.8,11,AutoTakeoff,
38.1754141,-120.0595613,4962.5225705461,0.656168,0.223694,0.63240159504,4200,2018-05-12 20:03:34,14,0,25.246,4962.5225705461,0.656168,0.4921268,0.63240159504,0,0,-0.223694,73.4, 0.1, 1.3,0,0,1024,1024,1024,1024,74.8,-89.9,98,4.015,3.997,4.076,4.125,4.136,4.136,15.868,69.8,11,AutoTakeoff,
38.1754142,-120.0595614,4962.8506545461,0.984252,0,0.67878283012,4300,2018-05-12 20:03:34,14,0,25.246,4962.8506545461,0.984252,0.4921268,0.67878283012,0,0,-0.223694,73.4, 0, 1.5,0,0,1024,1024,1024,1024,74.8,-89.9,98,4.015,3.997,4.076,4.125,4.136,4.136,15.868,69.8,11,AutoTakeoff,
38.1754143,-120.0595614,4962.8506545461,0.984252,0,0.70852692556,4400,2018-05-12 20:03:34,14,0,25.246,4962.8506545461,0.984252,0.4921268,0.70852692556,0,0,-0.223694,73.3, 0, 1.4,0,0,1024,1024,1024,1024,74.8,-89.9,98,4.015,3.997,4.076,4.125,4.136,4.136,15.868,69.8,11,AutoTakeoff,
38.1754144,-120.0595614,4963.1787385461,1.312336,0,0.7388779764,4500,2018-05-12 20:03:34,14,0,25.246,4963.1787385461,1.312336,0.4921268,0.7388779764,0,0,-0.223694,73.2, 0.1, 0.9,0,0,1024,1024,1024,1024,74.8,-89.9,98,4.015,3.997,4.076,4.125,4.136,4.136,15.868,69.8,11,AutoTakeoff,
38.1754145,-120.0595614,4963.1787385461,1.312336,0,0.76976052332,4600,2018-05-12 20:03:34,14,0,25.246,4963.1787385461,1.312336,0.4921268,0.76976052332,0,0,0,73.4, 0.1, 0.8,0,0,1024,1024,1024,1024,74.8,-89.9,98,4.015,3.997,4.076,4.125,4.136,4.136,15.868,69.8,11,AutoTakeoff,
38.1754148,-120.0595615,4963.5068225461,1.64042,0,0.87871065804,4700,2018-05-12 20:03:34,14,0,25.246,4963.5068225461,1.64042,0.4921268,0.87871065804,0,0,-0.223694,74.1, 0, 1,0,0,1024,1024,1024,1024,74.8,-89.9,98,4.015,3.997,4.076,4.125,4.136,4.136,15.868,69.8,11,AutoTakeoff,
38.1754148,-120.0595615,4963.8349065461,1.968504,0,0.87871065804,4800,2018-05-12 20:03:34,14,0,25.246,4963.8349065461,1.968504,0.4921268,0.87871065804,0,0,-0.223694,74.5, 0, 1.6,0,0,1024,1024,1024,1024,74.8,-89.9,98,4.015,3.997,4.076,4.125,4.136,4.136,15.868,69.8,11,AutoTakeoff,
38.1754149,-120.0595615,4963.8349065461,1.968504,0,0.91069884804,4900,2018-05-12 20:03:34,13,0,25.246,4963.8349065461,1.968504,0.4921268,0.91069884804,0,0,-0.223694,74.9, 0, 2.1,0,0,1024,1024,1024,1024,74.8,-89.9,98,4.015,3.997,4.076,4.125,4.136,4.136,15.868,69.8,11,AutoTakeoff,
38.1754151,-120.0595616,4964.1629905461,2.296588,0,0.98860239384,5000,2018-05-12 20:03:34,13,0,23.818,4964.1629905461,2.296588,0.4921268,0.98860239384,0,0,-0.223694,75.1, 0.1, 2.6,0,0,1024,1024,1024,1024,74.8,-89.9,98,3.973,3.971,3.941,3.975,4.024,4.018,16.929,69.8,11,AutoTakeoff,
38.1754152,-120.0595616,4964.1629905461,2.296588,0,1.02105974396,5100,2018-05-12 20:03:34,13,0,23.818,4964.1629905461,2.296588,0.4921268,1.02105974396,0,0,0,75, 0.2, 2.8,0,0,1024,1024,1024,1024,74.8,-89.9,98,3.973,3.971,3.941,3.975,4.024,4.018,16.929,69.8,11,AutoTakeoff,
38.1754152,-120.0595616,4964.4910745461,2.624672,0,1.02105974396,5200,2018-05-12 20:03:35,13,0,23.818,4964.4910745461,2.624672,0.4921268,1.02105974396,0,0,-0.223694,74.6, 0.1, 2.6,0,0,1024,1024,1024,1024,74.8,-89.9,98,3.973,3.971,3.941,3.975,4.024,4.018,16.929,69.8,11,AutoTakeoff,
38.1754151,-120.0595615,4964.4910745461,2.624672,0,0.97562010996,5300,2018-05-12 20:03:35,14,0,23.818,4964.4910745461,2.624672,0.4921268,1.02105974396,0,0,-0.223694,74.1, 0.2, 2.3,0,0,1024,1024,1024,1024,74.8,-89.9,98,3.973,3.971,3.941,3.975,4.024,4.018,16.929,69.8,11,AutoTakeoff,
38.1754151,-120.0595615,4964.8191585461,2.952756,0,0.97562010996,5400,2018-05-12 20:03:35,14,0,23.818,4964.8191585461,2.952756,0.4921268,1.02105974396,0,0,-0.223694,73.7, 0.3, 1.7,0,0,1024,1024,1024,1024,74.8,-89.9,98,3.973,3.971,3.941,3.975,4.024,4.018,16.929,69.8,14,Waypoint,
38.1754151,-120.0595615,4964.8191585461,2.952756,0.223694,0.97562010996,5500,2018-05-12 20:03:35,14,0,23.818,4964.8191585461,2.952756,0.4921268,1.02105974396,0,0,0,73.4, 0.3, 1.3,0,0,1024,1024,1024,1024,74.8,-90,98,3.973,3.971,3.941,3.975,4.024,4.018,16.929,69.8,14,Waypoint,
38.175415,-120.0595615,4965.1472425461,3.28084,0,0.9430118412,5600,2018-05-12 20:03:35,14,0,23.818,4965.1472425461,3.28084,0.4921268,1.02105974396,0,0,0,73.2, -0.1, -0.3,0,0,1024,1024,1024,1024,74.7,-90,98,3.973,3.971,3.941,3.975,4.024,4.018,16.929,69.8,14,Waypoint,
38.175415,-120.0595616,4965.1472425461,3.28084,0,0.95643703848,5700,2018-05-12 20:03:35,14,0,23.818,4965.1472425461,3.28084,0.4921268,1.02105974396,0,0,0,73.4, -0.5, -1.2,0,0,1024,1024,1024,1024,74.7,-90,98,3.973,3.971,3.941,3.975,4.024,4.018,16.929,69.8,14,Waypoint,
38.175415,-120.0595616,4965.1472425461,3.28084,0,0.95643703848,5800,2018-05-12 20:03:35,14,0,23.818,4965.1472425461,3.28084,0.4921268,1.02105974396,0,0,0,73.9, -0.9, -1.2,0,0,1024,1024,1024,1024,74.7,-89.9,98,3.973,3.971,3.941,3.975,4.024,4.018,16.929,69.8,14,Waypoint,
38.175415,-120.0595617,4965.4753265461,3.608924,0,0.97052496544,5900,2018-05-12 20:03:35,14,0,23.818,4965.4753265461,3.608924,0.4921268,1.02105974396,0,0,0,74.6, -0.8, -0.4,0,0,1024,1024,1024,1024,74.7,-89.9,98,3.973,3.971,3.941,3.975,4.024,4.018,16.929,69.8,14,Waypoint,
38.175415,-120.0595618,4965.4753265461,3.608924,0,0.98524609452,6100,2018-05-12 20:03:35,14,0,23.818,4965.4753265461,3.608924,0.4921268,1.02105974396,0,0,-0.223694,75.4, -0.4, 0.3,0,0,1024,1024,1024,1024,74.7,-89.9,98,3.973,3.971,3.941,3.975,4.024,4.018,16.929,69.8,14,Waypoint,
38.1754151,-120.0595619,4965.8034105461,3.937008,0,1.0313648624,6200,2018-05-12 20:03:36,14,0,23.818,4965.8034105461,3.937008,0.4921268,1.0313648624,0,0,-0.223694,76.1, -0.4, 0.8,0,0,1024,1024,1024,1024,74.7,-89.9,98,3.973,3.971,3.941,3.975,4.024,4.018,16.929,69.8,14,Waypoint,
38.1754151,-120.059562,4965.8034105461,3.937008,0,1.04680449544,6300,2018-05-12 20:03:36,14,0,23.818,4965.8034105461,3.937008,0.4921268,1.04680449544,0,0,-0.223694,76.8, -0.3, 1.1,0,0,1024,1024,1024,1024,74.8,-89.9,98,3.973,3.971,3.941,3.975,4.024,4.018,16.929,69.8,14,Waypoint,
38.1754152,-120.059562,4966.1314945461,4.265092,0,1.07750659616,6400,2018-05-12 20:03:36,14,0,23.818,4966.1314945461,4.265092,0.4921268,1.07750659616,0,0,-0.223694,77.6, -0.3, 1,0,0,1024,1024,1024,1024,74.9,-89.9,98,3.973,3.971,3.941,3.975,4.024,4.018,16.929,69.8,14,Waypoint,
38.1754152,-120.0595621,4966.7876625461,4.92126,0,1.09304793524,6500,2018-05-12 20:03:36,14,0,23.818,4966.7876625461,4.92126,0.4921268,1.09304793524,0,0,-0.447388,78.7, -0.7, 0.2,0,0,1024,1024,1024,1024,75,-90,98,3.973,3.971,3.941,3.975,4.024,4.018,16.929,69.8,14,Waypoint,
38.1754152,-120.0595622,4968.0999985461,6.233596,0,1.10911092788,6700,2018-05-12 20:03:36,13,0,23.818,4968.0999985461,6.233596,0.4921268,1.10911092788,0,0,-0.447388,79.1, -1.2, 0.2,0,0,1024,1024,1024,1024,75.2,-90,98,3.973,3.971,3.941,3.975,4.024,4.018,16.929,69.8,14,Waypoint,
38.1754152,-120.0595622,4968.7561665461,6.889764,0,1.10911092788,6800,2018-05-12 20:03:36,13,0,23.818,4968.7561665461,6.889764,0.4921268,1.10911092788,0,0,-0.447388,78.8, -0.9, 0.7,0,0,1024,1024,1024,1024,75.3,-89.9,98,3.973,3.971,3.941,3.975,4.024,4.018,16.929,69.8,14,Waypoint,
38.1754152,-120.0595622,4969.7404185461,7.874016,0,1.10911092788,6900,2018-05-12 20:03:36,14,0,23.818,4969.7404185461,7.874016,0.4921268,1.10911092788,0,0,-0.447388,78.3, -1.2, 0.9,0,0,1024,1024,1024,1024,75.4,-90,98,3.973,3.971,3.941,3.975,4.024,4.018,16.929,69.8,14,Waypoint,
38.1754152,-120.0595621,4970.3965865461,8.530184,0,1.09304793524,7000,2018-05-12 20:03:36,14,0,23.49,4970.3965865461,8.530184,0.4921268,1.10911092788,0,0,-0.671082,77.8, -0.8, 1.3,0,0,1024,1024,1024,1024,75.5,-89.9,98,3.976,3.96,3.939,3.961,3.999,3.974,19.111,69.8,14,Waypoint,
38.1754153,-120.0595621,4971.0527545461,9.186352,0,1.1236712958,7100,2018-05-12 20:03:37,14,0,23.49,4971.0527545461,9.186352,0.4921268,1.1236712958,0,0,-0.671082,77.3, 0, 1.5,0,0,1024,1024,1024,1024,75.6,-89.9,98,3.976,3.96,3.939,3.961,3.999,3.974,19.111,69.8,14,Waypoint,
38.1754154,-120.059562,4972.0370065461,10.170604,0.223694,1.13994098136,7200,2018-05-12 20:03:37,14,0,23.49,4972.0370065461,10.170604,0.4921268,1.13994098136,0,0,-0.671082,77, 0.6, 1.5,0,0,1024,1024,1024,1024,75.8,-89.9,98,3.976,3.96,3.939,3.961,3.999,3.974,19.111,69.8,14,Waypoint,
38.1754155,-120.0595618,4973.0212585461,11.154856,0.223694,1.1446194592,7300,2018-05-12 20:03:37,14,0,23.49,4973.0212585461,11.154856,0.4921268,1.1446194592,0,0,-0.671082,77.1, 1.6, 1.7,0,0,1024,1024,1024,1024,75.8,-89.9,98,3.976,3.96,3.939,3.961,3.999,3.974,19.111,69.8,14,Waypoint,
38.1754156,-120.0595617,4974.3335945461,12.467192,0,1.16500659896,7400,2018-05-12 20:03:37,14,0,23.49,4974.3335945461,12.467192,0.4921268,1.16500659896,0,0,-0.671082,77, 2, 1.9,0,0,1024,1024,1024,1024,75.8,-89.9,98,3.976,3.96,3.939,3.961,3.999,3.974,19.111,69.8,14,Waypoint,
38.1754156,-120.0595616,4975.3178465461,13.451444,0,1.153297281,7500,2018-05-12 20:03:37,14,0,23.49,4975.3178465461,13.451444,0.4921268,1.16500659896,0,0,-0.671082,77, 1.7, 1.7,0,0,1024,1024,1024,1024,75.9,-89.9,98,3.976,3.96,3.939,3.961,3.999,3.974,19.111,69.8,14,Waypoint,
38.1754155,-120.0595616,4976.3020985461,14.435696,0,1.11991801484,7600,2018-05-12 20:03:37,14,0,23.49,4976.3020985461,14.435696,0.4921268,1.16500659896,0,0,-0.671082,77.1, 1.3, 1.4,0,0,1024,1024,1024,1024,76.1,-89.9,98,3.976,3.96,3.939,3.961,3.999,3.974,19.111,69.8,14,Waypoint,
38.1754156,-120.0595616,4977.6144345461,15.748032,0,1.153297281,7700,2018-05-12 20:03:37,14,0,23.49,4977.6144345461,15.748032,0.4921268,1.16500659896,0,0,-0.671082,77.3, 1, 1.2,0,0,1024,1024,1024,1024,76.1,-89.9,98,3.976,3.96,3.939,3.961,3.999,3.974,19.111,69.8,14,Waypoint,
38.1754157,-120.0595617,4979.9110225461,18.04462,0,1.19823822732,7900,2018-05-12 20:03:37,14,0,23.49,4979.9110225461,18.04462,0.4921268,1.19823822732,0,0,-0.671082,78, 0.3, 1.4,0,0,1024,1024,1024,1024,76.2,-89.9,98,3.976,3.96,3.939,3.961,3.999,3.974,19.111,69.8,14,Waypoint,
38.1754158,-120.0595616,4981.8795265461,20.013124,0,1.2205873094,8100,2018-05-12 20:03:38,14,0,23.49,4981.8795265461,20.013124,0.4921268,1.2205873094,0,0,-0.671082,78.5, 0.7, 1.7,0,0,1024,1024,1024,1024,76.3,-89.9,98,3.976,3.96,3.939,3.961,3.999,3.974,19.111,69.8,14,Waypoint,
38.1754158,-120.0595616,4983.1918625461,21.32546,0,1.2205873094,8300,2018-05-12 20:03:38,14,0,23.49,4983.1918625461,21.32546,0.4921268,1.2205873094,0,0,-0.671082,78.5, 0.7, 2.4,0,0,1024,1024,1024,1024,76.4,-90,98,3.976,3.96,3.939,3.961,3.999,3.974,19.111,69.8,14,Waypoint,
38.1754159,-120.0595616,4984.5041985461,22.637796,0,1.25446854408,8400,2018-05-12 20:03:38,13,0,23.49,4984.5041985461,22.637796,0.4921268,1.25446854408,0,0,-0.671082,78.4, 0.4, 2.6,0,0,1024,1024,1024,1024,76.4,-89.9,98,3.976,3.96,3.939,3.961,3.999,3.974,19.111,69.8,14,Waypoint,
38.175416,-120.0595617,4985.4884505461,23.622048,0,1.29898626204,8500,2018-05-12 20:03:38,13,0,23.49,4985.4884505461,23.622048,0.4921268,1.29898626204,0,0,-0.671082,78.4, 0.4, 2.6,0,0,1024,1024,1024,1024,76.5,-90,98,3.976,3.96,3.939,3.961,3.999,3.974,19.111,69.8,14,Waypoint,
38.1754161,-120.0595617,4986.4727025461,24.6063,0,1.3328740584,8600,2018-05-12 20:03:38,13,0,23.49,4986.4727025461,24.6063,0.4921268,1.3328740584,0,0,-0.671082,78.3, 0.3, 2.5,0,0,1024,1024,1024,1024,76.5,-89.9,98,3.976,3.96,3.939,3.961,3.999,3.974,19.111,69.8,14,Waypoint,
38.1754162,-120.0595617,4987.7850385461,25.918636,0,1.3668963692,8700,2018-05-12 20:03:38,13,0,23.49,4987.7850385461,25.918636,0.4921268,1.3668963692,0,0,-0.671082,78.4, 0.7, 2.7,0,0,1024,1024,1024,1024,76.5,-89.9,98,3.976,3.96,3.939,3.961,3.999,3.974,19.111,69.8,14,Waypoint,
38.1754164,-120.0595616,4989.7535425461,27.88714,0,1.42581369392,8800,2018-05-12 20:03:38,14,0,23.49,4989.7535425461,27.88714,0.4921268,1.42581369392,0,0,-0.671082,78.6, 0.7, 2.8,0,0,1024,1024,1024,1024,76.5,-89.9,98,3.976,3.96,3.939,3.961,3.999,3.974,19.111,69.8,14,Waypoint,
38.1754165,-120.0595615,4990.7377945461,28.871392,0,1.45164702808,8900,2018-05-12 20:03:38,14,0,23.49,4990.7377945461,28.871392,0.4921268,1.45164702808,0,0,-0.671082,78.6, 1, 3,0,0,1024,1024,1024,1024,76.6,-89.9,98,3.976,3.96,3.939,3.961,3.999,3.974,19.111,69.8,14,Waypoint,
38.1754165,-120.0595612,4991.7220465461,29.855644,0,1.4285105444,9000,2018-05-12 20:03:38,14,0,22.999,4991.7220465461,29.855644,0.4921268,1.45164702808,0,0,-0.671082,78.5, 1.5, 3.1,0,0,1024,1024,1024,1024,76.6,-89.9,98,3.832,3.827,3.799,3.822,3.868,3.871,24.821,69.8,14,Waypoint,
38.1754164,-120.0595607,4992.7062985461,30.839896,0.223694,1.36479006992,9100,2018-05-12 20:03:38,14,0,22.999,4992.7062985461,30.839896,0.4921268,1.45164702808,0,0,-0.671082,78.6, 1.9, 2.9,0,0,1024,1024,1024,1024,76.7,-89.9,98,3.832,3.827,3.799,3.822,3.868,3.871,24.821,69.8,14,Waypoint,
38.175416,-120.0595599,4994.0186345461,32.152232,0.223694,1.20434387056,9200,2018-05-12 20:03:39,14,0,22.999,4994.0186345461,32.152232,0.4921268,1.45164702808,0,0,-0.671082,78.7, 2.5, 2.3,0,0,1024,1024,1024,1024,76.7,-89.9,98,3.832,3.827,3.799,3.822,3.868,3.871,24.821,69.8,14,Waypoint,
38.1754157,-120.0595591,4995.0028865461,33.136484,0.447388,1.1245735268,9300,2018-05-12 20:03:39,14,0,22.999,4995.0028865461,33.136484,0.4921268,1.45164702808,0,0,-0.671082,78.8, 3.6, 1.1,0,0,1024,1024,1024,1024,76.7,-89.9,98,3.832,3.827,3.799,3.822,3.868,3.871,24.821,69.8,14,Waypoint,
38.1754157,-120.059559,4995.9871385461,34.120736,0.223694,1.13150266088,9400,2018-05-12 20:03:39,14,0,22.999,4995.9871385461,34.120736,0.4921268,1.45164702808,0,0,-0.671082,78.7, 4, 0.3,0,0,1024,1024,1024,1024,76.8,-89.9,98,3.832,3.827,3.799,3.822,3.868,3.871,24.821,69.8,14,Waypoint,
38.1754158,-120.059559,4996.9713905461,35.104988,0,1.16683402684,9500,2018-05-12 20:03:39,14,0,22.999,4996.9713905461,35.104988,0.4921268,1.45164702808,0,0,-0.671082,78.6, 3.8, 0.5,0,0,1024,1024,1024,1024,76.8,-89.9,98,3.832,3.827,3.799,3.822,3.868,3.871,24.821,69.8,14,Waypoint,
38.175416,-120.0595591,4997.9556425461,36.08924,0,1.2313648688,9600,2018-05-12 20:03:39,14,0,22.999,4997.9556425461,36.08924,0.4921268,1.45164702808,0,0,-0.671082,78.5, 3.4, 1.2,0,0,1024,1024,1024,1024,76.8,-89.9,98,3.832,3.827,3.799,3.822,3.868,3.871,24.821,69.8,14,Waypoint,
38.1754162,-120.0595593,4998.9398945461,37.073492,0.223694,1.29266080252,9700,2018-05-12 20:03:39,14,0,22.999,4998.9398945461,37.073492,0.4921268,1.45164702808,0,0,-0.671082,78.3, 2.8, 2.3,0,0,1024,1024,1024,1024,76.9,-90,98,3.832,3.827,3.799,3.822,3.868,3.871,24.821,69.8,14,Waypoint,
38.1754164,-120.0595594,4999.9241465461,38.057744,0.223694,1.36086618528,9900,2018-05-12 20:03:39,14,0,22.999,4999.9241465461,38.057744,0.4921268,1.45164702808,0,0,-0.671082,78.2, 1.9, 3.7,0,0,1024,1024,1024,1024,76.9,-90,98,3.832,3.827,3.799,3.822,3.868,3.871,24.821,69.8,14,Waypoint,
38.1754165,-120.0595596,5000.9083985461,39.041996,0,1.39116802352,10000,2018-05-12 20:03:39,14,0,23.389,5000.9083985461,39.041996,0.4921268,1.45164702808,0,0,-0.671082,78.2, 1.4, 4.2,0,0,1024,1024,1024,1024,76.9,-90,98,3.9,3.889,3.87,3.897,3.93,3.911,19.503,69.8,14,Waypoint,
38.1754168,-120.0595602,5002.8769025461,41.0105,0.223694,1.4969816752,10110,2018-05-12 20:03:40,13,0,23.389,5002.8769025461,41.0105,0.4921268,1.4969816752,0,0,-0.671082,78.1, 0.5, 4.5,0,0,1024,1024,1024,1024,77,-90,98,3.9,3.889,3.87,3.897,3.93,3.911,19.503,69.8,14,Waypoint,
38.1754169,-120.0595603,5003.8611545461,41.994752,0,1.53478023284,10210,2018-05-12 20:03:40,13,0,23.389,5003.8611545461,41.994752,0.4921268,1.53478023284,0,0,-0.671082,78.1, 0.3, 4.4,0,0,1024,1024,1024,1024,77,-89.9,98,3.9,3.889,3.87,3.897,3.93,3.911,19.503,69.8,14,Waypoint,
38.1754168,-120.0595604,5005.8296585461,43.963256,0,1.50027563856,10400,2018-05-12 20:03:40,14,0,23.389,5005.8296585461,43.963256,0.4921268,1.53478023284,0,0,-0.671082,78.2, 0.9, 3.2,0,0,1024,1024,1024,1024,77,-89.9,98,3.9,3.889,3.87,3.897,3.93,3.911,19.503,69.8,14,Waypoint,
38.1754167,-120.0595604,5007.7981625461,45.93176,0.223694,1.46390096548,10700,2018-05-12 20:03:40,14,0,23.389,5007.7981625461,45.93176,0.4921268,1.53478023284,0,0,-0.671082,78.1, 1.5, 2.3,0,0,1024,1024,1024,1024,77.1,-89.9,98,3.9,3.889,3.87,3.897,3.93,3.911,19.503,69.8,14,Waypoint,
38.1754166,-120.0595604,5008.7824145461,46.916012,0.223694,1.42752957324,10800,2018-05-12 20:03:40,14,0,23.389,5008.7824145461,46.916012,0.4921268,1.53478023284,0,0,-0.671082,78.1, 1.8, 1.4,0,0,1024,1024,1024,1024,77.1,-89.9,98,3.9,3.889,3.87,3.897,3.93,3.911,19.503,69.8,14,Waypoint,
38.1754165,-120.0595606,5011.0790025461,49.2126,0.223694,1.39706697384,10900,2018-05-12 20:03:40,13,0,23.389,5011.0790025461,49.2126,0.4921268,1.53478023284,0,0,-0.671082,78.3, 2.1, 0,0,0,1024,1024,1024,1024,77.1,-89.9,98,3.9,3.889,3.87,3.897,3.93,3.911,19.503,69.8,14,Waypoint,
38.1754164,-120.0595607,5012.0632545461,50.196852,0,1.36479006992,11000,2018-05-12 20:03:40,13,0,23.333,5012.0632545461,50.196852,0.4921268,1.53478023284,0,0,-0.671082,78.5, 1.5, 0.4,0,0,1024,1024,1024,1024,77.1,-90,97,3.9,3.889,3.87,3.897,3.93,3.911,19.315,69.8,14,Waypoint,
38.1754164,-120.0595609,5013.0475065461,51.181104,0,1.37440293112,11100,2018-05-12 20:03:40,14,0,23.333,5013.0475065461,51.181104,0.4921268,1.53478023284,0,0,-0.671082,78.5, 0.9, 0.8,0,0,1024,1024,1024,1024,77.2,-89.9,97,3.9,3.889,3.87,3.897,3.93,3.911,19.315,69.8,14,Waypoint,
38.1754164,-120.0595611,5014.0317585461,52.165356,0,1.386318942,11200,2018-05-12 20:03:41,14,0,23.333,5014.0317585461,52.165356,0.4921268,1.53478023284,0,0,-0.671082,78.4, 0.4, 1.2,0,0,1024,1024,1024,1024,77.2,-90,97,3.9,3.889,3.87,3.897,3.93,3.911,19.315,69.8,14,Waypoint,
38.1754166,-120.0595615,5016.0002625461,54.13386,0,1.4865321998,11400,2018-05-12 20:03:41,14,0,23.333,5016.0002625461,54.13386,0.4921268,1.53478023284,0,0,-0.671082,78.1, -0.1, 2.4,0,0,1024,1024,1024,1024,77.2,-89.9,97,3.9,3.889,3.87,3.897,3.93,3.911,19.315,69.8,14,Waypoint,
38.1754166,-120.0595616,5017.3125985461,55.446196,0,1.49508534968,11500,2018-05-12 20:03:41,14,0,23.333,5017.3125985461,55.446196,0.4921268,1.53478023284,0,0,-0.671082,78, 0.1, 2.9,0,0,1024,1024,1024,1024,77.2,-89.9,97,3.9,3.889,3.87,3.897,3.93,3.911,19.315,69.8,14,Waypoint,
38.1754166,-120.0595615,5018.2968505461,56.430448,0,1.4865321998,11600,2018-05-12 20:03:41,14,0,23.333,5018.2968505461,56.430448,0.4921268,1.53478023284,0,0,-0.671082,77.9, 0.3, 3.1,0,0,1024,1024,1024,1024,77.2,-89.9,97,3.9,3.889,3.87,3.897,3.93,3.911,19.315,69.8,14,Waypoint,
38.1754166,-120.0595615,5018.9530185461,57.086616,0,1.4865321998,11700,2018-05-12 20:03:41,14,0,23.333,5018.9530185461,57.086616,0.4921268,1.53478023284,0,0,-0.671082,78, 0.6, 2.8,0,0,1024,1024,1024,1024,77.3,-89.9,97,3.9,3.889,3.87,3.897,3.93,3.911,19.315,69.8,14,Waypoint,
38.1754166,-120.0595614,5019.9372705461,58.070868,0.223694,1.47848429928,11810,2018-05-12 20:03:41,14,0,23.333,5019.9372705461,58.070868,0.4921268,1.53478023284,0,0,-0.671082,78.2, 1.3, 2,0,0,1024,1024,1024,1024,77.3,-89.9,97,3.9,3.889,3.87,3.897,3.93,3.911,19.315,69.8,14,Waypoint,
38.1754165,-120.0595612,5020.9215225461,59.05512,0.223694,1.4285105444,11900,2018-05-12 20:03:41,14,0,23.333,5020.9215225461,59.05512,0.4921268,1.53478023284,0,0,-0.671082,78.4, 2.4, 1.2,0,0,1024,1024,1024,1024,77.3,-89.9,97,3.9,3.889,3.87,3.897,3.93,3.911,19.315,69.8,14,Waypoint,
38.1754164,-120.0595611,5021.9057745461,60.039372,0.223694,1.386318942,12000,2018-05-12 20:03:41,14,0,23.328,5021.9057745461,60.039372,0.4921268,1.53478023284,0,0,-0.671082,78.4, 3.1, 0.7,0,0,1024,1024,1024,1024,77.3,-89.9,97,3.895,3.879,3.852,3.882,3.921,3.899,18.968,69.8,14,Waypoint,
38.1754164,-120.059561,5022.8900265461,61.023624,0.223694,1.38007550348,12100,2018-05-12 20:03:42,14,0,23.328,5022.8900265461,61.023624,0.4921268,1.53478023284,0,0,-0.671082,78.4, 3.5, 0.5,0,0,1024,1024,1024,1024,77.3,-89.9,97,3.895,3.879,3.852,3.882,3.921,3.899,18.968,69.8,14,Waypoint,
38.1754164,-120.0595608,5024.2023625461,62.33596,0.223694,1.36930450576,12210,2018-05-12 20:03:42,14,0,23.328,5024.2023625461,62.33596,0.4921268,1.53478023284,0,0,-0.671082,78.4, 3.7, 0.6,0,0,1024,1024,1024,1024,77.3,-89.9,97,3.895,3.879,3.852,3.882,3.921,3.899,18.968,69.8,14,Waypoint,
38.1754163,-120.0595607,5025.1866145461,63.320212,0.223694,1.32871395328,12300,2018-05-12 20:03:42,14,0,23.328,5025.1866145461,63.320212,0.4921268,1.53478023284,0,0,-0.671082,78.4, 3.9, 0.8,0,0,1024,1024,1024,1024,77.3,-89.9,97,3.895,3.879,3.852,3.882,3.921,3.899,18.968,69.8,14,Waypoint,
38.1754163,-120.0595605,5027.1551185461,65.288716,0,1.32126316564,12600,2018-05-12 20:03:42,14,0,23.328,5027.1551185461,65.288716,0.4921268,1.53478023284,0,0,-0.671082,78.5, 3.7, 0.8,0,0,1024,1024,1024,1024,77.4,-89.9,97,3.895,3.879,3.852,3.882,3.921,3.899,18.968,69.8,14,Waypoint,
38.1754163,-120.0595606,5028.1393705461,66.272968,0,1.32468508176,12700,2018-05-12 20:03:42,14,0,23.328,5028.1393705461,66.272968,0.4921268,1.53478023284,0,0,-0.671082,78.6, 3.4, 1,0,0,1024,1024,1024,1024,77.4,-90,97,3.895,3.879,3.852,3.882,3.921,3.899,18.968,69.8,14,Waypoint,
38.1754163,-120.0595606,5028.7955385461,66.929136,0,1.32468508176,12800,2018-05-12 20:03:42,14,0,23.328,5028.7955385461,66.929136,0.4921268,1.53478023284,0,0,-0.671082,78.6, 3, 1.3,0,0,1024,1024,1024,1024,77.4,-89.9,97,3.895,3.879,3.852,3.882,3.921,3.899,18.968,69.8,14,Waypoint,
38.1754162,-120.0595606,5029.7797905461,67.913388,0,1.2885171016,12900,2018-05-12 20:03:42,14,0,23.328,5029.7797905461,67.913388,0.4921268,1.53478023284,0,0,-0.671082,78.6, 2.7, 1.4,0,0,1024,1024,1024,1024,77.4,-89.9,97,3.895,3.879,3.852,3.882,3.921,3.899,18.968,69.8,14,Waypoint,
38.1754162,-120.0595606,5030.7640425461,68.89764,0,1.2885171016,13000,2018-05-12 20:03:42,14,0,23.425,5030.7640425461,68.89764,0.4921268,1.53478023284,0,0,-0.671082,78.6, 2.6, 1.4,0,0,1024,1024,1024,1024,77.4,-89.9,97,3.909,3.892,3.871,3.898,3.936,3.908,17.867,69.8,14,Waypoint,
38.1754161,-120.0595603,5032.7325465461,70.866144,0.223694,1.24346788756,13100,2018-05-12 20:03:42,14,0,23.425,5032.7325465461,70.866144,0.4921268,1.53478023284,0,0,-0.671082,78.8, 3.4, 0.3,0,0,1024,1024,1024,1024,77.4,-89.9,97,3.909,3.892,3.871,3.898,3.936,3.908,17.867,69.8,14,Waypoint,
38.1754159,-120.05956,5034.7010505461,72.834648,0.223694,1.1675197224,13300,2018-05-12 20:03:43,14,0,23.425,5034.7010505461,72.834648,0.4921268,1.53478023284,0,0,-0.671082,78.9, 4.2, 0,0,0,1024,1024,1024,1024,77.4,-89.9,97,3.909,3.892,3.871,3.898,3.936,3.908,17.867,69.8,14,Waypoint,
38.1754159,-120.0595598,5036.0133865461,74.146984,0.223694,1.16892720276,13400,2018-05-12 20:03:43,14,0,23.425,5036.0133865461,74.146984,0.4921268,1.53478023284,0,0,-0.671082,78.9, 4.5, -0.1,0,0,1024,1024,1024,1024,77.4,-89.9,97,3.909,3.892,3.871,3.898,3.936,3.908,17.867,69.8,14,Waypoint,
38.1754158,-120.0595596,5036.9976385461,75.131236,0.223694,1.13683730672,13500,2018-05-12 20:03:43,14,0,23.425,5036.9976385461,75.131236,0.4921268,1.53478023284,0,0,-0.671082,78.9, 4.9, -0.1,0,0,1024,1024,1024,1024,77.4,-89.9,97,3.909,3.892,3.871,3.898,3.936,3.908,17.867,69.8,14,Waypoint,
38.1754158,-120.0595595,5037.9818905461,76.115488,0.223694,1.14008861916,13600,2018-05-12 20:03:43,14,0,23.425,5037.9818905461,76.115488,0.4921268,1.53478023284,0,0,-0.671082,78.9, 5.3, 0,0,0,1024,1024,1024,1024,77.4,-89.9,97,3.909,3.892,3.871,3.898,3.936,3.908,17.867,69.8,14,Waypoint,
38.1754159,-120.0595594,5038.9661425461,77.09974,0.223694,1.18013127136,13700,2018-05-12 20:03:43,14,0,23.425,5038.9661425461,77.09974,0.4921268,1.53478023284,0,0,-0.671082,78.9, 5.4, 0.6,0,0,1024,1024,1024,1024,77.4,-89.9,97,3.909,3.892,3.871,3.898,3.936,3.908,17.867,69.8,14,Waypoint,
38.1754159,-120.0595592,5039.9503945461,78.083992,0.223694,1.18985240028,13800,2018-05-12 20:03:43,14,0,23.425,5039.9503945461,78.083992,0.4921268,1.53478023284,0,0,-0.671082,78.8, 5.6, 1.3,0,0,1024,1024,1024,1024,77.4,-89.9,97,3.909,3.892,3.871,3.898,3.936,3.908,17.867,69.8,14,Waypoint,
38.1754159,-120.059559,5040.9346465461,79.068244,0.223694,1.2022310096,13900,2018-05-12 20:03:43,14,0,23.425,5040.9346465461,79.068244,0.4921268,1.53478023284,0,0,-0.671082,78.7, 5.6, 1.7,0,0,1024,1024,1024,1024,77.4,-89.9,97,3.909,3.892,3.871,3.898,3.936,3.908,17.867,69.8,14,Waypoint,
38.1754158,-120.0595588,5041.9188985461,80.052496,0.223694,1.18224085148,14000,2018-05-12 20:03:43,14,0,23.379,5041.9188985461,80.052496,0.4921268,1.53478023284,0,0,-0.671082,78.3, 5.8, 0.8,0,0,1024,1024,1024,1024,77.4,-89.9,97,3.893,3.879,3.852,3.887,3.925,3.9,18.497,69.8,14,Waypoint,
38.1754157,-120.0595587,5043.2312345461,81.364832,0.3131716,1.15631237296,14100,2018-05-12 20:03:43,14,0,23.379,5043.2312345461,81.364832,0.4921268,1.53478023284,0,0,-0.671082,77.9, 5.9, -0.3,0,0,1024,1024,1024,1024,77.4,-89.9,97,3.893,3.879,3.852,3.887,3.925,3.9,18.497,69.8,14,Waypoint,
38.1754156,-120.0595587,5044.2154865461,82.349084,0.223694,1.12184058708,14200,2018-05-12 20:03:44,14,0,23.379,5044.2154865461,82.349084,0.4921268,1.53478023284,0,0,-0.671082,77.5, 5.8, -1.1,0,0,1024,1024,1024,1024,77.5,-89.9,97,3.893,3.879,3.852,3.887,3.925,3.9,18.497,69.8,14,Waypoint,
38.1754154,-120.0595587,5045.1997385461,83.333336,0.223694,1.0532972778,14310,2018-05-12 20:03:44,14,0,23.379,5045.1997385461,83.333336,0.4921268,1.53478023284,0,0,-0.671082,77.3, 5.2, -1.6,0,0,1024,1024,1024,1024,77.5,-90,97,3.893,3.879,3.852,3.887,3.925,3.9,18.497,69.8,14,Waypoint,
38.1754153,-120.0595587,5046.1839905461,84.317588,0.223694,1.01925528196,14400,2018-05-12 20:03:44,14,0,23.379,5046.1839905461,84.317588,0.4921268,1.53478023284,0,0,-0.671082,77.2, 4.5, -2,0,0,1024,1024,1024,1024,77.5,-89.9,97,3.893,3.879,3.852,3.887,3.925,3.9,18.497,69.8,14,Waypoint,
38.1754152,-120.0595587,5047.1682425461,85.30184,0.223694,0.98539045148,14500,2018-05-12 20:03:44,14,0,23.379,5047.1682425461,85.30184,0.4921268,1.53478023284,0,0,-0.671082,77.3, 4.4, -2,0,0,1024,1024,1024,1024,77.5,-89.9,97,3.893,3.879,3.852,3.887,3.925,3.9,18.497,69.8,14,Waypoint,
38.175415,-120.0595588,5048.1524945461,86.286092,0.223694,0.90699477968,14600,2018-05-12 20:03:44,14,0,23.379,5048.1524945461,86.286092,0.4921268,1.53478023284,0,0,-0.671082,77.7, 4.3, -2.4,0,0,1024,1024,1024,1024,77.5,-90,97,3.893,3.879,3.852,3.887,3.925,3.9,18.497,69.8,14,Waypoint,
38.1754149,-120.0595588,5049.1367465461,87.270344,0,0.87334648464,14700,2018-05-12 20:03:44,14,0,23.379,5049.1367465461,87.270344,0.4921268,1.53478023284,0,0,-0.671082,78.2, 3.7, -2.5,0,0,1024,1024,1024,1024,77.5,-90,97,3.893,3.879,3.852,3.887,3.925,3.9,18.497,69.8,14,Waypoint,
38.1754149,-120.0595589,5050.1209985461,88.254596,0,0.86244753416,14800,2018-05-12 20:03:44,14,0,23.379,5050.1209985461,88.254596,0.4921268,1.53478023284,0,0,-0.671082,78.6, 3.3, -1.8,0,0,1024,1024,1024,1024,77.5,-89.9,97,3.893,3.879,3.852,3.887,3.925,3.9,18.497,69.8,14,Waypoint,
38.1754149,-120.059559,5050.7771665461,88.910764,0,0.85237207452,14910,2018-05-12 20:03:44,14,0,23.379,5050.7771665461,88.910764,0.4921268,1.53478023284,0,0,-0.671082,78.7, 3.3, -1.1,0,0,1024,1024,1024,1024,77.5,-90,97,3.893,3.879,3.852,3.887,3.925,3.9,18.497,69.8,14,Waypoint,
38.1754149,-120.059559,5051.7614185461,89.895016,0,0.85237207452,15010,2018-05-12 20:03:44,14,0,22.997,5051.7614185461,89.895016,0.4921268,1.53478023284,0,0,-0.671082,78.5, 3.4, -0.7,0,0,1024,1024,1024,1024,77.5,-90,97,3.829,3.814,3.8,3.82,3.86,3.837,22.499,71.6,14,Waypoint,
38.1754149,-120.059559,5052.7456705461,90.879268,0,0.85237207452,15200,2018-05-12 20:03:45,14,0,22.997,5052.7456705461,90.879268,0.4921268,1.53478023284,0,0,-0.671082,78.2, 3.7, -0.5,0,0,1024,1024,1024,1024,77.5,-89.9,97,3.829,3.814,3.8,3.82,3.86,3.837,22.499,71.6,14,Waypoint,
38.1754149,-120.059559,5053.7299225461,91.86352,0,0.85237207452,15300,2018-05-12 20:03:45,14,0,22.997,5053.7299225461,91.86352,0.4921268,1.53478023284,0,0,-0.671082,78, 3.9, 0,0,0,1024,1024,1024,1024,77.5,-89.9,97,3.829,3.814,3.8,3.82,3.86,3.837,22.499,71.6,14,Waypoint,
38.1754149,-120.059559,5054.7141745461,92.847772,0,0.85237207452,15400,2018-05-12 20:03:45,14,0,22.997,5054.7141745461,92.847772,0.4921268,1.53478023284,0,0,-0.671082,77.8, 4, 0.3,0,0,1024,1024,1024,1024,77.5,-89.9,97,3.829,3.814,3.8,3.82,3.86,3.837,22.499,71.6,14,Waypoint,
38.1754148,-120.059559,5056.6826785461,94.816276,0,0.81810698156,15500,2018-05-12 20:03:45,14,0,22.997,5056.6826785461,94.816276,0.4921268,1.53478023284,0,0,-0.671082,77.6, 4.5, -1.1,0,0,1024,1024,1024,1024,77.5,-89.9,97,3.829,3.814,3.8,3.82,3.86,3.837,22.499,71.6,14,Waypoint,
38.1754146,-120.0595591,5058.3230985461,96.456696,0,0.7397145906,15700,2018-05-12 20:03:45,14,0,22.997,5058.3230985461,96.456696,0.4921268,1.53478023284,0,0,-0.671082,77.7, 3.7, -1.7,0,0,1024,1024,1024,1024,77.5,-90,97,3.829,3.814,3.8,3.82,3.86,3.837,22.499,71.6,14,Waypoint,
38.1754146,-120.0595591,5059.3073505461,97.440948,0,0.7397145906,15800,2018-05-12 20:03:45,14,0,22.997,5059.3073505461,97.440948,0.4921268,1.53478023284,0,0,-0.671082,77.9, 3.7, -1.7,0,0,1024,1024,1024,1024,77.5,-89.9,97,3.829,3.814,3.8,3.82,3.86,3.837,22.499,71.6,14,Waypoint,
38.1754145,-120.0595592,5060.6196865461,98.753284,0,0.69565947108,15900,2018-05-12 20:03:45,14,0,22.997,5060.6196865461,98.753284,0.4921268,1.53478023284,0,0,-0.671082,78.2, 3.9, -2,0,0,1024,1024,1024,1024,77.5,-89.9,97,3.829,3.814,3.8,3.82,3.86,3.837,22.499,71.6,14,Waypoint,
38.1754144,-120.0595592,5061.6039385461,99.737536,0,0.66132548048,16000,2018-05-12 20:03:45,14,0,22.953,5061.6039385461,99.737536,0.4921268,1.53478023284,0,0,-0.671082,78.6, 4, -2,0,0,1024,1024,1024,1024,77.5,-89.9,97,3.814,3.804,3.794,3.818,3.852,3.826,22.576,71.6,14,Waypoint,
38.1754143,-120.0595592,5062.5881905461,100.721788,0,0.62723427204,16100,2018-05-12 20:03:45,14,0,22.953,5062.5881905461,100.721788,0.4921268,1.53478023284,0,0,-0.671082,78.9, 3.9, -1.8,0,0,1024,1024,1024,1024,77.5,-90,97,3.814,3.804,3.794,3.818,3.852,3.826,22.576,71.6,14,Waypoint,
38.1754143,-120.0595592,5063.5724425461,101.70604,0,0.62723427204,16200,2018-05-12 20:03:46,14,0,22.953,5063.5724425461,101.70604,0.4921268,1.53478023284,0,0,-0.671082,79.1, 3.8, -1.7,0,0,1024,1024,1024,1024,77.5,-89.9,97,3.814,3.804,3.794,3.818,3.852,3.826,22.576,71.6,14,Waypoint,
38.1754142,-120.0595592,5064.5566945461,102.690292,0,0.59342849668,16300,2018-05-12 20:03:46,14,0,22.953,5064.5566945461,102.690292,0.4921268,1.53478023284,0,0,-0.671082,79.1, 3.6, -1.8,0,0,1024,1024,1024,1024,77.5,-89.9,97,3.814,3.804,3.794,3.818,3.852,3.826,22.576,71.6,14,Waypoint,
38.1754141,-120.0595592,5065.5409465461,103.674544,0,0.55996064784,16400,2018-05-12 20:03:46,14,0,22.953,5065.5409465461,103.674544,0.4921268,1.53478023284,0,0,-0.671082,79, 3.5, -1.9,0,0,1024,1024,1024,1024,77.5,-90,97,3.814,3.804,3.794,3.818,3.852,3.826,22.576,71.6,14,Waypoint,
38.1754141,-120.0595592,5066.5251985461,104.658796,0,0.55996064784,16500,2018-05-12 20:03:46,14,0,22.953,5066.5251985461,104.658796,0.4921268,1.53478023284,0,0,-0.671082,78.9, 3.4, -2.2,0,0,1024,1024,1024,1024,77.5,-90,97,3.814,3.804,3.794,3.818,3.852,3.826,22.576,71.6,14,Waypoint,
38.175414,-120.0595593,5067.5094505461,105.643048,0,0.51504594824,16600,2018-05-12 20:03:46,14,0,22.953,5067.5094505461,105.643048,0.4921268,1.53478023284,0,0,-0.671082,78.6, 3.2, -2.5,0,0,1024,1024,1024,1024,77.5,-89.9,97,3.814,3.804,3.794,3.818,3.852,3.826,22.576,71.6,14,Waypoint,
38.1754139,-120.0595593,5068.4937025461,106.6273,0,0.48165683956,16700,2018-05-12 20:03:46,14,0,22.953,5068.4937025461,106.6273,0.4921268,1.53478023284,0,0,-0.671082,78.4, 3.2, -2.4,0,0,1024,1024,1024,1024,77.5,-90,97,3.814,3.804,3.794,3.818,3.852,3.826,22.576,71.6,14,Waypoint,
38.1754139,-120.0595593,5069.4779545461,107.611552,0,0.48165683956,16800,2018-05-12 20:03:46,14,0,22.953,5069.4779545461,107.611552,0.4921268,1.53478023284,0,0,-0.671082,78.2, 3.1, -2.5,0,0,1024,1024,1024,1024,77.5,-90,97,3.814,3.804,3.794,3.818,3.852,3.826,22.576,71.6,14,Waypoint,
38.1754139,-120.0595594,5070.7902905461,108.923888,0,0.47042652424,16910,2018-05-12 20:03:46,14,0,22.953,5070.7902905461,108.923888,0.4921268,1.53478023284,0,0,-0.671082,78.2, 3, -2.7,0,0,1024,1024,1024,1024,77.5,-90,97,3.814,3.804,3.794,3.818,3.852,3.826,22.576,71.6,14,Waypoint,
38.1754139,-120.0595594,5071.7745425461,109.90814,0,0.47042652424,17010,2018-05-12 20:03:46,14,0,22.778,5071.7745425461,109.90814,0.4921268,1.53478023284,0,0,-0.671082,78.2, 2.9, -2.5,0,0,1024,1024,1024,1024,77.5,-90,97,3.792,3.77,3.751,3.768,3.829,3.801,23.537,71.6,14,Waypoint,
38.1754139,-120.0595594,5072.4307105461,110.564308,0,0.47042652424,17100,2018-05-12 20:03:46,14,0,22.778,5072.4307105461,110.564308,0.4921268,1.53478023284,0,0,-0.671082,78.2, 2.8, -2.2,0,0,1024,1024,1024,1024,77.5,-89.9,97,3.792,3.77,3.751,3.768,3.829,3.801,23.537,71.6,14,Waypoint,
38.1754139,-120.0595594,5073.4149625461,111.54856,0,0.47042652424,17200,2018-05-12 20:03:47,14,0,22.778,5073.4149625461,111.54856,0.4921268,1.53478023284,0,0,-0.671082,78.2, 3, -2,0,0,1024,1024,1024,1024,77.5,-89.9,97,3.792,3.77,3.751,3.768,3.829,3.801,23.537,71.6,14,Waypoint,
38.1754139,-120.0595594,5074.3992145461,112.532812,0,0.47042652424,17300,2018-05-12 20:03:47,14,0,22.778,5074.3992145461,112.532812,0.4921268,1.53478023284,0,0,-0.671082,78.1, 3.3, -1.9,0,0,1024,1024,1024,1024,77.5,-89.9,97,3.792,3.77,3.751,3.768,3.829,3.801,23.537,71.6,14,Waypoint,
38.1754138,-120.0595594,5075.3834665461,113.517064,0,0.43667324232,17400,2018-05-12 20:03:47,14,0,22.778,5075.3834665461,113.517064,0.4921268,1.53478023284,0,0,-0.671082,78.1, 3.5, -2,0,0,1024,1024,1024,1024,77.5,-89.9,97,3.792,3.77,3.751,3.768,3.829,3.801,23.537,71.6,14,Waypoint,
38.1754138,-120.0595593,5076.3677185461,114.501316,0,0.4487532952,17600,2018-05-12 20:03:47,14,0,22.778,5076.3677185461,114.501316,0.4921268,1.53478023284,0,0,-0.671082,78, 3.6, -2.2,0,0,1024,1024,1024,1024,77.5,-89.9,97,3.792,3.77,3.751,3.768,3.829,3.801,23.537,71.6,14,Waypoint,
38.1754138,-120.0595593,5077.3519705461,115.485568,0,0.4487532952,17700,2018-05-12 20:03:47,14,0,22.778,5077.3519705461,115.485568,0.4921268,1.53478023284,0,0,-0.671082,78, 3.7, -2.4,0,0,1024,1024,1024,1024,77.5,-89.9,97,3.792,3.77,3.751,3.768,3.829,3.801,23.537,71.6,14,Waypoint,
38.1754137,-120.0595592,5078.3362225461,116.46982,0,0.4310039508,17800,2018-05-12 20:03:47,14,0,22.778,5078.3362225461,116.46982,0.4921268,1.53478023284,0,0,-0.671082,78.2, 3.9, -2.7,0,0,1024,1024,1024,1024,77.5,-89.9,97,3.792,3.77,3.751,3.768,3.829,3.801,23.537,71.6,14,Waypoint,
38.1754137,-120.0595592,5079.3204745461,117.454072,0,0.4310039508,17900,2018-05-12 20:03:47,14,0,22.778,5079.3204745461,117.454072,0.4921268,1.53478023284,0,0,-0.671082,78.3, 4, -3.1,0,0,1024,1024,1024,1024,77.5,-89.9,97,3.792,3.77,3.751,3.768,3.829,3.801,23.537,71.6,14,Waypoint,
38.1754136,-120.0595591,5079.9766425461,118.11024,0,0.41768045956,18000,2018-05-12 20:03:47,14,0,22.66,5079.9766425461,118.11024,0.4921268,1.53478023284,0,0,-0.671082,78.4, 4.2, -3.3,0,0,1024,1024,1024,1024,77.5,-89.9,97,3.792,3.77,3.751,3.768,3.829,3.801,23.858,71.6,14,Waypoint,
38.1754136,-120.059559,5080.9608945461,119.094492,0,0.4359908276,18100,2018-05-12 20:03:47,14,0,22.66,5080.9608945461,119.094492,0.4921268,1.53478023284,0,0,-0.671082,78.7, 4.3, -3.4,0,0,1024,1024,1024,1024,77.5,-89.9,97,3.792,3.77,3.751,3.768,3.829,3.801,23.858,71.6,14,Waypoint,
38.1754137,-120.0595589,5082.9293985461,121.062996,0,0.48234253512,18200,2018-05-12 20:03:48,14,0,22.66,5082.9293985461,121.062996,0.4921268,1.53478023284,0,0,-0.671082,79.1, 4.8, -1.5,0,0,1024,1024,1024,1024,77.5,-89.9,97,3.792,3.77,3.751,3.768,3.829,3.801,23.858,71.6,14,Waypoint,
38.1754138,-120.0595589,5083.9136505461,122.047248,0,0.510498704,18300,2018-05-12 20:03:48,14,0,22.66,5083.9136505461,122.047248,0.4921268,1.53478023284,0,0,-0.671082,79.1, 4.9, -1.2,0,0,1024,1024,1024,1024,77.5,-89.9,97,3.792,3.77,3.751,3.768,3.829,3.801,23.858,71.6,14,Waypoint,
38.1754139,-120.059559,5085.8821545461,124.015752,0,0.52340224772,18500,2018-05-12 20:03:48,14,0,22.66,5085.8821545461,124.015752,0.4921268,1.53478023284,0,0,-0.671082,78.9, 4.3, -1.2,0,0,1024,1024,1024,1024,77.5,-89.9,97,3.792,3.77,3.751,3.768,3.829,3.801,23.858,71.6,14,Waypoint,
38.1754141,-120.0595591,5087.8506585461,125.984256,0,0.5723097296,18700,2018-05-12 20:03:48,14,0,22.66,5087.8506585461,125.984256,0.4921268,1.53478023284,0,0,-0.671082,78.6, 3.9, -0.6,0,0,1024,1024,1024,1024,77.5,-89.9,97,3.792,3.77,3.751,3.768,3.829,3.801,23.858,71.6,14,Waypoint,
38.1754142,-120.0595591,5089.1629945461,127.296592,0,0.60509844456,18800,2018-05-12 20:03:48,14,0,22.66,5089.1629945461,127.296592,0.4921268,1.53478023284,0,0,-0.671082,78.4, 3.8, -0.4,0,0,1024,1024,1024,1024,77.5,-89.9,97,3.792,3.77,3.751,3.768,3.829,3.801,23.858,71.6,14,Waypoint,
38.1754143,-120.0595592,5089.8191625461,127.95276,0,0.62723427204,18900,2018-05-12 20:03:48,14,0,22.66,5089.8191625461,127.95276,0.4921268,1.53478023284,0,0,-0.671082,78.3, 3.7, -0.4,0,0,1024,1024,1024,1024,77.5,-89.9,97,3.792,3.77,3.751,3.768,3.829,3.801,23.858,71.6,14,Waypoint,
38.1754144,-120.0595591,5091.1314985461,129.265096,0,0.67181432596,19000,2018-05-12 20:03:48,14,0,22.66,5091.1314985461,129.265096,0.4921268,1.53478023284,0,0,-0.671082,78.3, 4, -0.3,0,0,1024,1024,1024,1024,77.5,-89.9,97,3.78,3.762,3.75,3.777,3.815,3.794,23.858,71.6,14,Waypoint,
38.1754145,-120.0595591,5092.1157505461,130.249348,0,0.70563978636,19100,2018-05-12 20:03:48,14,0,22.66,5092.1157505461,130.249348,0.4921268,1.53478023284,0,0,-0.671082,78.3, 4.4, -0.2,0,0,1024,1024,1024,1024,77.5,-89.9,97,3.78,3.762,3.75,3.777,3.815,3.794,23.858,71.6,14,Waypoint,
38.1754147,-120.0595591,5094.0842545461,132.217852,0,0.77401249196,19300,2018-05-12 20:03:49,14,0,22.66,5094.0842545461,132.217852,0.4921268,1.53478023284,0,0,-0.671082,78.5, 4.7, 0.1,0,0,1024,1024,1024,1024,77.5,-89.9,97,3.78,3.762,3.75,3.777,3.815,3.794,23.858,71.6,14,Waypoint,
38.1754149,-120.0595591,5095.0685065461,133.202104,0,0.84315619496,19400,2018-05-12 20:03:49,14,0,22.66,5095.0685065461,133.202104,0.4921268,1.53478023284,0,0,-0.671082,78.6, 4.6, 0.5,0,0,1024,1024,1024,1024,77.5,-89.9,97,3.78,3.762,3.75,3.777,3.815,3.794,23.858,71.6,14,Waypoint,
38.175415,-120.0595591,5096.0527585461,134.186356,0,0.87795934568,19510,2018-05-12 20:03:49,14,0,22.66,5096.0527585461,134.186356,0.4921268,1.53478023284,0,0,-0.671082,78.6, 4.5, 1,0,0,1024,1024,1024,1024,77.5,-89.9,97,3.78,3.762,3.75,3.777,3.815,3.794,23.858,71.6,14,Waypoint,
38.1754151,-120.0595591,5097.0370105461,135.170608,0,0.91289373,19600,2018-05-12 20:03:49,14,0,22.66,5097.0370105461,135.170608,0.4921268,1.53478023284,0,0,-0.671082,78.7, 4.7, 1.1,0,0,1024,1024,1024,1024,77.5,-89.9,97,3.78,3.762,3.75,3.777,3.815,3.794,23.858,71.6,14,Waypoint,
38.1754152,-120.0595591,5098.0212625461,136.15486,0,0.94794622456,19730,2018-05-12 20:03:49,14,0,22.66,5098.0212625461,136.15486,0.4921268,1.53478023284,0,0,-0.671082,78.6, 4.5, 1.2,0,0,1024,1024,1024,1024,77.5,-89.9,97,3.78,3.762,3.75,3.777,3.815,3.794,23.858,71.6,14,Waypoint,
38.1754153,-120.0595591,5099.0055145461,137.139112,0,0.983103706,19800,2018-05-12 20:03:49,14,0,22.66,5099.0055145461,137.139112,0.4921268,1.53478023284,0,0,-0.671082,78.5, 4.7, 0.9,0,0,1024,1024,1024,1024,77.5,-89.9,97,3.78,3.762,3.75,3.777,3.815,3.794,23.858,71.6,14,Waypoint,
38.1754154,-120.059559,5099.9897665461,138.123364,0,1.02599740816,19900,2018-05-12 20:03:49,14,0,22.66,5099.9897665461,138.123364,0.4921268,1.53478023284,0,0,-0.671082,78.4, 5.1, 0.8,0,0,1024,1024,1024,1024,77.5,-89.9,97,3.78,3.762,3.75,3.777,3.815,3.794,23.858,71.6,14,Waypoint,
38.1754155,-120.059559,5100.9740185461,139.107616,0,1.06107614944,20100,2018-05-12 20:03:49,14,0,22.66,5100.9740185461,139.107616,0.4921268,1.53478023284,0,0,-0.671082,78.5, 5.3, 0.5,0,0,1024,1024,1024,1024,77.5,-89.9,97,3.78,3.762,3.75,3.777,3.815,3.794,23.858,71.6,14,Waypoint,
38.1754155,-120.0595589,5101.9582705461,140.091868,0,1.06918638592,20200,2018-05-12 20:03:50,14,0,22.66,5101.9582705461,140.091868,0.4921268,1.53478023284,0,0,-0.671082,78.5, 5.5, 0.2,0,0,1024,1024,1024,1024,77.5,-89.9,97,3.78,3.762,3.75,3.777,3.815,3.794,23.858,71.6,14,Waypoint,
38.1754156,-120.0595588,5102.9425225461,141.07612,0,1.11263455004,20300,2018-05-12 20:03:50,14,0,22.66,5102.9425225461,141.07612,0.4921268,1.53478023284,0,0,-0.671082,78.5, 5.6, 0.1,0,0,1024,1024,1024,1024,77.5,-89.9,97,3.78,3.762,3.75,3.777,3.815,3.794,23.858,71.6,14,Waypoint,
38.1754157,-120.0595587,5103.9267745461,142.060372,0,1.15631237296,20400,2018-05-12 20:03:50,14,0,22.66,5103.9267745461,142.060372,0.4921268,1.53478023284,0,0,-0.671082,78.5, 5.7, 0.6,0,0,1024,1024,1024,1024,77.5,-89.9,97,3.78,3.762,3.75,3.777,3.815,3.794,23.858,71.6,14,Waypoint,
38.175416,-120.0595585,5105.5671945461,143.700792,0,1.2785597522,20500,2018-05-12 20:03:50,14,0,22.66,5105.5671945461,143.700792,0.4921268,1.53478023284,0,0,-0.671082,78.5, 6.8, 1.4,0,0,1024,1024,1024,1024,77.5,-89.9,97,3.78,3.762,3.75,3.777,3.815,3.794,23.858,71.6,14,Waypoint,
38.1754163,-120.0595583,5107.5356985461,145.669296,0,1.40104007108,20700,2018-05-12 20:03:50,14,0,22.66,5107.5356985461,145.669296,0.4921268,1.53478023284,0,0,-0.671082,78.3, 7.1, 1.6,0,0,1024,1024,1024,1024,77.5,-89.9,97,3.78,3.762,3.75,3.777,3.815,3.794,23.858,71.6,14,Waypoint,
38.1754163,-120.0595582,5108.5199505461,146.653548,0,1.41127957272,20800,2018-05-12 20:03:50,14,0,22.66,5108.5199505461,146.653548,0.4921268,1.53478023284,0,0,-0.671082,78.1, 7.1, 1.4,0,0,1024,1024,1024,1024,77.5,-89.9,97,3.78,3.762,3.75,3.777,3.815,3.794,23.858,71.6,14,Waypoint,
38.1754164,-120.0595581,5109.5042025461,147.6378,0,1.45578744816,20900,2018-05-12 20:03:50,14,0,22.66,5109.5042025461,147.6378,0.4921268,1.53478023284,0,0,-0.671082,78, 7.6, 1.3,0,0,1024,1024,1024,1024,77.5,-89.9,97,3.78,3.762,3.75,3.777,3.815,3.794,23.858,71.6,14,Waypoint,
38.1754164,-120.0595581,5110.4884545461,148.622052,0,1.45578744816,21000,2018-05-12 20:03:50,14,0,22.998,5110.4884545461,148.622052,0.4921268,1.53478023284,0,0,-0.671082,77.8, 7.8, 1.4,0,0,1024,1024,1024,1024,77.5,-89.9,96,3.85,3.832,3.81,3.837,3.872,3.846,19.202,71.6,14,Waypoint,
38.1754165,-120.0595581,5112.4569585461,150.590556,0,1.4896818062,21210,2018-05-12 20:03:51,14,0,22.998,5112.4569585461,150.590556,0.4921268,1.53478023284,0,0,-0.671082,78.1, 7.1, 1.4,0,0,1024,1024,1024,1024,77.5,-90,96,3.85,3.832,3.81,3.837,3.872,3.846,19.202,71.6,14,Waypoint,
38.1754164,-120.0595582,5114.4254625461,152.55906,0,1.44529532184,21400,2018-05-12 20:03:51,14,0,22.998,5114.4254625461,152.55906,0.4921268,1.53478023284,0,0,-0.671082,78.6, 6.2, 0.6,0,0,1024,1024,1024,1024,77.5,-90,96,3.85,3.832,3.81,3.837,3.872,3.846,19.202,71.6,14,Waypoint,
38.1754164,-120.0595582,5115.4097145461,153.543312,0,1.44529532184,21500,2018-05-12 20:03:51,14,0,22.998,5115.4097145461,153.543312,0.4921268,1.53478023284,0,0,-0.671082,78.6, 6.1, -0.3,0,0,1024,1024,1024,1024,77.5,-90,96,3.85,3.832,3.81,3.837,3.872,3.846,19.202,71.6,14,Waypoint,
38.1754163,-120.0595583,5116.3939665461,154.527564,0,1.40104007108,21600,2018-05-12 20:03:51,14,0,22.998,5116.3939665461,154.527564,0.4921268,1.53478023284,0,0,-0.671082,78.6, 5.9, -0.8,0,0,1024,1024,1024,1024,77.5,-90,96,3.85,3.832,3.81,3.837,3.872,3.846,19.202,71.6,14,Waypoint,
38.1754163,-120.0595583,5117.3782185461,155.511816,0,1.40104007108,21700,2018-05-12 20:03:51,14,0,22.998,5117.3782185461,155.511816,0.4921268,1.53478023284,0,0,-0.671082,78.5, 5.6, -0.5,0,0,1024,1024,1024,1024,77.5,-90,96,3.85,3.832,3.81,3.837,3.872,3.846,19.202,71.6,14,Waypoint,
38.1754163,-120.0595583,5118.3624705461,156.496068,0,1.40104007108,21800,2018-05-12 20:03:51,14,0,22.998,5118.3624705461,156.496068,0.4921268,1.53478023284,0,0,-0.671082,78.5, 5.9, 0,0,0,1024,1024,1024,1024,77.5,-89.9,96,3.85,3.832,3.81,3.837,3.872,3.846,19.202,71.6,14,Waypoint,
38.1754163,-120.0595583,5119.3467225461,157.48032,0,1.40104007108,21900,2018-05-12 20:03:51,14,0,22.998,5119.3467225461,157.48032,0.4921268,1.53478023284,0,0,-0.671082,78.4, 6.5, 0.2,0,0,1024,1024,1024,1024,77.5,-89.9,96,3.85,3.832,3.81,3.837,3.872,3.846,19.202,71.6,14,Waypoint,
38.1754163,-120.0595582,5121.3152265461,159.448824,0,1.41127957272,22100,2018-05-12 20:03:52,14,0,22.998,5121.3152265461,159.448824,0.4921268,1.53478023284,0,0,-0.671082,78.5, 7.2, 0,0,0,1024,1024,1024,1024,77.5,-89.9,96,3.85,3.832,3.81,3.837,3.872,3.846,19.202,71.6,14,Waypoint,
38.1754162,-120.059558,5123.2837305461,161.417328,0,1.39989833876,22320,2018-05-12 20:03:52,14,0,22.998,5123.2837305461,161.417328,0.4921268,1.53478023284,0,0,-0.671082,78.5, 7.3, -0.3,0,0,1024,1024,1024,1024,77.5,-89.9,96,3.85,3.832,3.81,3.837,3.872,3.846,19.202,71.6,14,Waypoint,
38.1754162,-120.059558,5123.2837305461,161.417328,0,1.39989833876,22400,2018-05-12 20:03:52,14,0,22.998,5123.2837305461,161.417328,0.4921268,1.53478023284,0,0,-0.671082,78.5, 7.3, -0.3,0,0,1024,1024,1024,1024,77.5,-89.9,96,3.85,3.832,3.81,3.837,3.872,3.846,19.202,71.6,14,Waypoint,
38.1754162,-120.0595579,5124.2679825461,162.40158,0,1.4118930898,22500,2018-05-12 20:03:52,14,0,22.998,5124.2679825461,162.40158,0.4921268,1.53478023284,0,0,-0.671082,78.5, 7.7, -0.3,0,0,1024,1024,1024,1024,77.5,-89.9,96,3.85,3.832,3.81,3.837,3.872,3.846,19.202,71.6,14,Waypoint,
38.1754162,-120.0595578,5124.9241505461,163.057748,0,1.42436356264,22600,2018-05-12 20:03:52,14,0,22.998,5124.9241505461,163.057748,0.4921268,1.53478023284,0,0,-0.671082,78.5, 8, -0.5,0,0,1024,1024,1024,1024,77.5,-89.9,96,3.85,3.832,3.81,3.837,3.872,3.846,19.202,71.6,14,Waypoint,
38.1754162,-120.0595578,5125.9084025461,164.042,0,1.42436356264,22700,2018-05-12 20:03:52,14,0,22.998,5125.9084025461,164.042,0.4921268,1.53478023284,0,0,-0.671082,78.5, 7.9, -0.4,0,0,1024,1024,1024,1024,77.5,-89.9,96,3.85,3.832,3.81,3.837,3.872,3.846,19.202,71.6,14,Waypoint,
38.1754162,-120.0595577,5127.8769065461,166.010504,0,1.43729991476,22800,2018-05-12 20:03:52,14,0,22.998,5127.8769065461,166.010504,0.4921268,1.53478023284,0,0,-0.671082,78.5, 7.7, 0.6,0,0,1024,1024,1024,1024,77.5,-89.9,96,3.85,3.832,3.81,3.837,3.872,3.846,19.202,71.6,14,Waypoint,
38.1754162,-120.0595578,5128.8611585461,166.994756,0,1.42436356264,22900,2018-05-12 20:03:52,14,0,22.998,5128.8611585461,166.994756,0.4921268,1.53478023284,0,0,-0.671082,78.5, 7.4, 0.7,0,0,1024,1024,1024,1024,77.5,-89.9,96,3.85,3.832,3.81,3.837,3.872,3.846,19.202,71.6,14,Waypoint,
38.1754162,-120.0595579,5130.8296625461,168.96326,0,1.4118930898,23100,2018-05-12 20:03:52,14,0,22.998,5130.8296625461,168.96326,0.4921268,1.53478023284,0,0,-0.671082,78.6, 7.2, 0.3,0,0,1024,1024,1024,1024,77.5,-89.9,96,3.85,3.832,3.81,3.837,3.872,3.846,19.202,71.6,14,Waypoint,
38.1754162,-120.0595579,5131.4858305461,169.619428,0,1.4118930898,23200,2018-05-12 20:03:53,14,0,22.998,5131.4858305461,169.619428,0.4921268,1.53478023284,0,0,-0.671082,78.5, 7, 0,0,0,1024,1024,1024,1024,77.5,-89.9,96,3.85,3.832,3.81,3.837,3.872,3.846,19.202,71.6,14,Waypoint,
38.1754161,-120.059558,5132.4700825461,170.60368,0,1.3666995188,23300,2018-05-12 20:03:53,14,0,22.998,5132.4700825461,170.60368,0.4921268,1.53478023284,0,0,-0.671082,78.5, 6.9, -0.3,0,0,1024,1024,1024,1024,77.5,-90,96,3.85,3.832,3.81,3.837,3.872,3.846,19.202,71.6,14,Waypoint,
38.1754161,-120.059558,5133.4543345461,171.587932,0,1.3666995188,23400,2018-05-12 20:03:53,14,0,22.998,5133.4543345461,171.587932,0.4921268,1.53478023284,0,0,-0.671082,78.4, 6.8, -0.2,0,0,1024,1024,1024,1024,77.5,-89.9,96,3.85,3.832,3.81,3.837,3.872,3.846,19.202,71.6,14,Waypoint,
38.1754161,-120.0595581,5134.4385865461,172.572184,0,1.35491146068,23500,2018-05-12 20:03:53,14,0,22.998,5134.4385865461,172.572184,0.4921268,1.53478023284,0,0,-0.671082,78.4, 6.8, 0.1,0,0,1024,1024,1024,1024,77.5,-89.9,96,3.85,3.832,3.81,3.837,3.872,3.846,19.202,71.6,14,Waypoint,
38.1754162,-120.0595581,5135.4228385461,173.556436,0,1.38839243288,23600,2018-05-12 20:03:53,14,0,22.998,5135.4228385461,173.556436,0.4921268,1.53478023284,0,0,-0.671082,78.3, 6.8, 0.3,0,0,1024,1024,1024,1024,77.5,-89.9,96,3.85,3.832,3.81,3.837,3.872,3.846,19.202,71.6,14,Waypoint,
38.1754163,-120.0595581,5136.4070905461,174.540688,0,1.42202104288,23700,2018-05-12 20:03:53,14,0,22.998,5136.4070905461,174.540688,0.4921268,1.53478023284,0,0,-0.671082,78.3, 7.2, 0.5,0,0,1024,1024,1024,1024,77.5,-89.9,96,3.85,3.832,3.81,3.837,3.872,3.846,19.202,71.6,14,Waypoint,
38.1754163,-120.0595581,5137.3913425461,175.52494,0,1.42202104288,23800,2018-05-12 20:03:53,14,0,22.998,5137.3913425461,175.52494,0.4921268,1.53478023284,0,0,-0.671082,78.4, 7.3, 0.7,0,0,1024,1024,1024,1024,77.5,-89.9,96,3.85,3.832,3.81,3.837,3.872,3.846,19.202,71.6,14,Waypoint,
38.1754164,-120.0595582,5138.3755945461,176.509192,0,1.44529532184,23900,2018-05-12 20:03:53,14,0,22.998,5138.3755945461,176.509192,0.4921268,1.53478023284,0,0,-0.671082,78.5, 7.2, 0.9,0,0,1024,1024,1024,1024,77.5,-89.9,96,3.85,3.832,3.81,3.837,3.872,3.846,19.202,71.6,14,Waypoint,
38.1754164,-120.0595583,5139.3598465461,177.493444,0,1.4353018832,24000,2018-05-12 20:03:53,14,0,22.976,5139.3598465461,177.493444,0.4921268,1.53478023284,0,0,-0.671082,78.5, 6.8, 0.9,0,0,1024,1024,1024,1024,77.5,-89.9,96,3.808,3.806,3.773,3.807,3.849,3.815,19.891,71.6,14,Waypoint,
38.1754165,-120.0595583,5140.3440985461,178.477696,0,1.4696686822,24100,2018-05-12 20:03:54,14,0,22.976,5140.3440985461,178.477696,0.4921268,1.53478023284,0,0,-0.671082,78.4, 6.4, 0.9,0,0,1024,1024,1024,1024,77.5,-89.9,96,3.808,3.806,3.773,3.807,3.849,3.815,19.891,71.6,14,Waypoint,
38.1754166,-120.0595584,5141.3283505461,179.461948,0,1.49508534968,24300,2018-05-12 20:03:54,14,0,22.976,5141.3283505461,179.461948,0.4921268,1.53478023284,0,0,-0.671082,78.4, 6.3, 1,0,0,1024,1024,1024,1024,77.5,-89.9,96,3.808,3.806,3.773,3.807,3.849,3.815,19.891,71.6,14,Waypoint,
38.1754166,-120.0595585,5142.3126025461,180.4462,0,1.4865321998,24400,2018-05-12 20:03:54,14,0,22.976,5142.3126025461,180.4462,0.4921268,1.53478023284,0,0,-0.671082,78.3, 6.7, 1.2,0,0,1024,1024,1024,1024,77.5,-89.9,96,3.808,3.806,3.773,3.807,3.849,3.815,19.891,71.6,14,Waypoint,
38.1754167,-120.0595587,5144.6091905461,182.742788,0,1.50627629492,24510,2018-05-12 20:03:54,14,0,22.976,5144.6091905461,182.742788,0.4921268,1.53478023284,0,0,-0.671082,78.3, 6.8, 1.2,0,0,1024,1024,1024,1024,77.5,-89.9,96,3.808,3.806,3.773,3.807,3.849,3.815,19.891,71.6,14,Waypoint,
38.1754167,-120.0595588,5145.5934425461,183.72704,0,1.49943246268,24700,2018-05-12 20:03:54,14,0,22.976,5145.5934425461,183.72704,0.4921268,1.53478023284,0,0,-0.671082,78.3, 6.7, 1.4,0,0,1024,1024,1024,1024,77.5,-90,96,3.808,3.806,3.773,3.807,3.849,3.815,19.891,71.6,14,Waypoint,
38.1754168,-120.0595588,5146.5776945461,184.711292,0,1.53496724072,24800,2018-05-12 20:03:54,14,0,22.976,5146.5776945461,184.711292,0.4921268,1.53496724072,0,0,-0.671082,78.3, 6.2, 1.6,0,0,1024,1024,1024,1024,77.5,-89.9,96,3.808,3.806,3.773,3.807,3.849,3.815,19.891,71.6,14,Waypoint,
38.1754168,-120.0595589,5147.5619465461,185.695544,0,1.52879269984,24900,2018-05-12 20:03:54,14,0,22.976,5147.5619465461,185.695544,0.4921268,1.53496724072,0,0,-0.671082,78.1, 6.1, 2.1,0,0,1024,1024,1024,1024,77.5,-89.9,96,3.808,3.806,3.773,3.807,3.849,3.815,19.891,71.6,14,Waypoint,
38.1754168,-120.059559,5149.5304505461,187.664048,0,1.52312997,25000,2018-05-12 20:03:54,14,0,22.729,5149.5304505461,187.664048,0.4921268,1.53496724072,0,0,-0.671082,77.9, 6.3, 1.6,0,0,1024,1024,1024,1024,77.5,-89.9,96,3.787,3.778,3.754,3.78,3.829,3.798,22.324,73.4,14,Waypoint,
38.1754168,-120.0595591,5150.8427865461,188.976384,0.223694,1.51799217456,25100,2018-05-12 20:03:54,14,0,22.729,5150.8427865461,188.976384,0.4921268,1.53496724072,0,0,-0.671082,78, 6.4, 0.8,0,0,1024,1024,1024,1024,77.5,-89.9,96,3.787,3.778,3.754,3.78,3.829,3.798,22.324,73.4,14,Waypoint,
38.1754167,-120.0595591,5151.8270385461,189.960636,0.223694,1.48205057236,25200,2018-05-12 20:03:55,14,0,22.729,5151.8270385461,189.960636,0.4921268,1.53496724072,0,0,-0.671082,78.2, 6.4, 0.2,0,0,1024,1024,1024,1024,77.5,-89.9,96,3.787,3.778,3.754,3.78,3.829,3.798,22.324,73.4,14,Waypoint,
38.1754166,-120.0595591,5152.8112905461,190.944888,0.223694,1.44613849772,25300,2018-05-12 20:03:55,14,0,22.729,5152.8112905461,190.944888,0.4921268,1.53496724072,0,0,-0.671082,78.4, 6.5, -0.1,0,0,1024,1024,1024,1024,77.5,-89.9,96,3.787,3.778,3.754,3.78,3.829,3.798,22.324,73.4,14,Waypoint,
38.1754165,-120.0595591,5153.7955425461,191.92914,0.223694,1.4102526698,25400,2018-05-12 20:03:55,14,0,22.729,5153.7955425461,191.92914,0.4921268,1.53496724072,0,0,-0.671082,78.5, 6.5, -0.4,0,0,1024,1024,1024,1024,77.5,-89.9,96,3.787,3.778,3.754,3.78,3.829,3.798,22.324,73.4,14,Waypoint,
38.1754164,-120.0595591,5154.7797945461,192.913392,0.223694,1.37440293112,25500,2018-05-12 20:03:55,14,0,22.729,5154.7797945461,192.913392,0.4921268,1.53496724072,0,0,-0.671082,78.6, 6.3, -0.5,0,0,1024,1024,1024,1024,77.5,-89.9,96,3.787,3.778,3.754,3.78,3.829,3.798,22.324,73.4,14,Waypoint,
38.1754163,-120.0595592,5155.7640465461,193.897644,0.223694,1.3333497802,25600,2018-05-12 20:03:55,14,0,22.729,5155.7640465461,193.897644,0.4921268,1.53496724072,0,0,-0.671082,78.6, 6.1, -0.6,0,0,1024,1024,1024,1024,77.5,-90,96,3.787,3.778,3.754,3.78,3.829,3.798,22.324,73.4,14,Waypoint,
38.1754162,-120.0595592,5156.7482985461,194.881896,0.223694,1.2974245822,25700,2018-05-12 20:03:55,14,0,22.729,5156.7482985461,194.881896,0.4921268,1.53496724072,0,0,-0.671082,78.8, 6, -0.5,0,0,1024,1024,1024,1024,77.5,-90,96,3.787,3.778,3.754,3.78,3.829,3.798,22.324,73.4,14,Waypoint,
38.1754161,-120.0595592,5157.7325505461,195.866148,0,1.26152891176,25800,2018-05-12 20:03:55,14,0,22.729,5157.7325505461,195.866148,0.4921268,1.53496724072,0,0,-0.671082,78.9, 5.9, -0.3,0,0,1024,1024,1024,1024,77.5,-89.9,96,3.787,3.778,3.754,3.78,3.829,3.798,22.324,73.4,14,Waypoint,
38.1754161,-120.0595593,5158.7168025461,196.8504,0,1.25663061764,25900,2018-05-12 20:03:55,14,0,22.729,5158.7168025461,196.8504,0.4921268,1.53496724072,0,0,-0.671082,79, 6.1, -0.1,0,0,1024,1024,1024,1024,77.5,-89.9,96,3.787,3.778,3.754,3.78,3.829,3.798,22.324,73.4,14,Waypoint,
38.1754161,-120.0595593,5160.0291385461,198.162736,0,1.25663061764,26000,2018-05-12 20:03:55,14,0,22.725,5160.0291385461,198.162736,0.4921268,1.53496724072,0,0,-0.671082,78.9, 6, -0.1,0,0,1024,1024,1024,1024,77.5,-90,96,3.79,3.779,3.752,3.791,3.838,3.792,21.922,73.4,14,Waypoint,
38.175416,-120.0595593,5161.0133905461,199.146988,0,1.22062667948,26100,2018-05-12 20:03:56,14,0,22.725,5161.0133905461,199.146988,0.4921268,1.53496724072,0,0,-0.671082,78.8, 5.9, -0.4,0,0,1024,1024,1024,1024,77.5,-90,96,3.79,3.779,3.752,3.791,3.838,3.792,21.922,73.4,14,Waypoint,
38.1754159,-120.0595594,5161.9976425461,200.13124,0,1.18013127136,26200,2018-05-12 20:03:56,14,0,22.725,5161.9976425461,200.13124,0.4921268,1.53496724072,0,0,-0.671082,78.6, 5.8, -0.5,0,0,1024,1024,1024,1024,77.5,-90,96,3.79,3.779,3.752,3.791,3.838,3.792,21.922,73.4,14,Waypoint,
38.1754159,-120.0595595,5162.9818945461,201.115492,0,1.17629268856,26300,2018-05-12 20:03:56,14,0,22.725,5162.9818945461,201.115492,0.4921268,1.53496724072,0,0,-0.671082,78.6, 5.6, -0.5,0,0,1024,1024,1024,1024,77.5,-90,96,3.79,3.779,3.752,3.791,3.838,3.792,21.922,73.4,14,Waypoint,
38.1754158,-120.0595595,5163.9661465461,202.099744,0,1.14008861916,26410,2018-05-12 20:03:56,14,0,22.725,5163.9661465461,202.099744,0.4921268,1.53496724072,0,0,-0.671082,78.4, 5.6, -0.4,0,0,1024,1024,1024,1024,77.5,-90,96,3.79,3.779,3.752,3.791,3.838,3.792,21.922,73.4,14,Waypoint,
38.1754158,-120.0595595,5163.9661465461,202.099744,0,1.14008861916,26500,2018-05-12 20:03:56,14,0,22.725,5163.9661465461,202.099744,0.4921268,1.53496724072,0,0,-0.671082,78.4, 5.6, -0.4,0,0,1024,1024,1024,1024,77.5,-89.9,96,3.79,3.779,3.752,3.791,3.838,3.792,21.922,73.4,14,Waypoint,
38.1754158,-120.0595596,5165.9346505461,204.068248,0,1.13683730672,26600,2018-05-12 20:03:56,14,0,22.725,5165.9346505461,204.068248,0.4921268,1.53496724072,0,0,-0.671082,78.4, 5.7, 0,0,0,1024,1024,1024,1024,77.5,-89.9,96,3.79,3.779,3.752,3.791,3.838,3.792,21.922,73.4,14,Waypoint,
38.1754157,-120.0595596,5167.9031545461,206.036752,0,1.10054465464,26800,2018-05-12 20:03:56,14,0,22.725,5167.9031545461,206.036752,0.4921268,1.53496724072,0,0,-0.671082,78.6, 5.7, 0.1,0,0,1024,1024,1024,1024,77.5,-89.9,96,3.79,3.779,3.752,3.791,3.838,3.792,21.922,73.4,14,Waypoint,
38.1754157,-120.0595597,5168.8874065461,207.021004,0,1.09792654432,27000,2018-05-12 20:03:56,14,0,22.842,5168.8874065461,207.021004,0.4921268,1.53496724072,0,0,-0.671082,78.6, 5.6, 0,0,0,1024,1024,1024,1024,77.5,-89.9,96,3.805,3.797,3.78,3.79,3.842,3.805,20.428,73.4,14,Waypoint,
38.1754156,-120.0595598,5171.8401625461,209.97376,0,1.05961617564,27200,2018-05-12 20:03:57,14,0,22.842,5171.8401625461,209.97376,0.4921268,1.53496724072,0,0,-0.671082,78.4, 5.3, 0,0,0,1024,1024,1024,1024,77.5,-90,96,3.805,3.797,3.78,3.79,3.842,3.805,20.428,73.4,14,Waypoint,
38.1754156,-120.0595599,5172.8244145461,210.958012,0,1.05845147744,27300,2018-05-12 20:03:57,14,0,22.842,5172.8244145461,210.958012,0.4921268,1.53496724072,0,0,-0.671082,78.3, 5.2, 0,0,0,1024,1024,1024,1024,77.5,-90,96,3.805,3.797,3.78,3.79,3.842,3.805,20.428,73.4,14,Waypoint,
38.1754156,-120.0595599,5174.1367505461,212.270348,0,1.05845147744,27400,2018-05-12 20:03:57,14,0,22.842,5174.1367505461,212.270348,0.4921268,1.53496724072,0,0,-0.671082,78.3, 5.4, 0.2,0,0,1024,1024,1024,1024,77.5,-89.9,96,3.805,3.797,3.78,3.79,3.842,3.805,20.428,73.4,14,Waypoint,
38.1754156,-120.0595599,5175.1210025461,213.2546,0,1.05845147744,27500,2018-05-12 20:03:57,14,0,22.842,5175.1210025461,213.2546,0.4921268,1.53496724072,0,0,-0.671082,78.1, 5.6, 0.1,0,0,1024,1024,1024,1024,77.5,-89.9,96,3.805,3.797,3.78,3.79,3.842,3.805,20.428,73.4,14,Waypoint,
38.1754156,-120.0595599,5176.1052545461,214.238852,0,1.05845147744,27600,2018-05-12 20:03:57,14,0,22.842,5176.1052545461,214.238852,0.4921268,1.53496724072,0,0,-0.671082,78, 5.5, 0.2,0,0,1024,1024,1024,1024,77.5,-89.9,96,3.805,3.797,3.78,3.79,3.842,3.805,20.428,73.4,14,Waypoint,
