latitude,longitude,altitude(feet),ascent(feet),speed(mph),distance(feet),time(millisecond),datetime(utc),satellites,gpslevel,voltage(v),max_altitude(feet),max_ascent(feet),max_speed(mph),max_distance(feet), xSpeed(mph), ySpeed(mph), zSpeed(mph), compass_heading(degrees), pitch(degrees), roll(degrees),isPhoto,isVideo,rc_elevator,rc_aileron,rc_throttle,rc_rudder,gimbal_heading(degrees),gimbal_pitch(degrees),battery_percent,voltageCell1,voltageCell2,voltageCell3,voltageCell4,voltageCell5,voltageCell6,current(A),battery_temperature(f),flycStateRaw,flycState,message
38.2001616,-120.0382942,5271.427994145,0,0,0,2930,2018-05-12 16:38:13,11,0,0,5271.427994145,0,0,0,0,0,0,328.4, 0.4, 0.6,1,0,1024,1024,1024,1024,328.6,-89.9,98,4.191,4.25,4.234,4.272,4.184,4.264,0,68,11,AutoTakeoff,DJI_0687.jpg Starting Mission from Lat/Long: 38.20014/-120.03828 Camera: Zenmuse X3 - Overlap: 90/90 - Active Connection: No
38.2001616,-120.0382942,5271.427994145,0,0,0,3000,2018-05-12 16:38:13,11,0,25.503,5271.427994145,0,0,0,0,0,0,328.5, 0.5, 0.4,0,0,1024,1024,1024,1024,328.6,-89.9,98,4.191,4.25,4.234,4.272,4.184,4.264,3.532,68,11,AutoTakeoff,
38.2001616,-120.0382942,5271.427994145,0,0,0,3100,2018-05-12 16:38:13,11,0,25.503,5271.427994145,0,0,0,0,0,0,328.5, 0.5, 0,0,0,1024,1024,1024,1024,328.6,-89.9,98,4.191,4.25,4.234,4.272,4.184,4.264,3.532,68,11,AutoTakeoff,
38.2001616,-120.0382942,5271.427994145,0,0,0,3200,2018-05-12 16:38:13,11,0,25.503,5271.427994145,0,0,0,0,0,0,328.5, 0.2, -0.2,0,0,1024,1024,1024,1024,328.6,-89.9,98,4.191,4.25,4.234,4.272,4.184,4.264,3.532,68,11,AutoTakeoff,
38.2001616,-120.0382943,5271.756078145,0.328084,0,0.0286718841196,3300,2018-05-12 16:38:13,11,0,25.503,5271.756078145,0.328084,0,0.0286718841196,0,0,0,328.4, 0.2, -0.1,0,0,1024,1024,1024,1024,328.6,-89.9,98,4.191,4.25,4.234,4.272,4.184,4.264,3.532,68,11,AutoTakeoff,
38.2001615,-120.0382943,5271.756078145,0.328084,0,0.046402888624,3400,2018-05-12 16:38:13,11,0,25.503,5271.756078145,0.328084,0,0.046402888624,0,0,0,328.3, 0.2, 0,0,0,1024,1024,1024,1024,328.6,-90,98,4.191,4.25,4.234,4.272,4.184,4.264,3.532,68,11,AutoTakeoff,
38.2001615,-120.0382944,5271.756078145,0.328084,0,0.067966537608,3500,2018-05-12 16:38:13,11,0,25.503,5271.756078145,0.328084,0,0.067966537608,0,0,0,328.2, 0.1, 0.2,0,0,1024,1024,1024,1024,328.6,-89.9,98,4.191,4.25,4.234,4.272,4.184,4.264,3.532,68,11,AutoTakeoff,
38.2001616,-120.0382944,5272.084162145,0.656168,0,0.057343833856,3600,2018-05-12 16:38:14,11,0,25.503,5272.084162145,0.656168,0,0.067966537608,0,0,0,328.2, 0.1, 0.3,0,0,1024,1024,1024,1024,328.6,-89.9,98,4.191,4.25,4.234,4.272,4.184,4.264,3.532,68,11,AutoTakeoff,
38.2001616,-120.0382945,5272.084162145,0.656168,0,0.086015750784,3700,2018-05-12 16:38:14,10,0,25.503,5272.084162145,0.656168,0,0.086015750784,0,0,0,328.1, 0.2, 0.4,0,0,1024,1024,1024,1024,328.6,-89.9,98,4.191,4.25,4.234,4.272,4.184,4.264,3.532,68,11,AutoTakeoff,
38.2001615,-120.0382945,5272.412246145,0.984252,0,0.093433730024,3800,2018-05-12 16:38:14,10,0,25.503,5272.412246145,0.984252,0,0.093433730024,0,0,0,328.1, 0.2, 0.4,0,0,1024,1024,1024,1024,328.6,-89.9,98,4.191,4.25,4.234,4.272,4.184,4.264,3.532,68,11,AutoTakeoff,
38.2001615,-120.0382945,5272.412246145,0.984252,0,0.093433730024,3900,2018-05-12 16:38:14,10,0,25.503,5272.412246145,0.984252,0,0.093433730024,0,0,0,328.1, 0.1, 0.7,0,0,1024,1024,1024,1024,328.6,-89.9,98,4.191,4.25,4.234,4.272,4.184,4.264,3.532,68,11,AutoTakeoff,
38.2001616,-120.0382945,5272.740330145,1.312336,0,0.086015750784,4000,2018-05-12 16:38:14,10,0,24.271,5272.740330145,1.312336,0,0.093433730024,0,0,0,328.2, 0.2, 0.7,0,0,1024,1024,1024,1024,328.6,-89.9,98,4.017,4.061,4.018,4.044,4.225,4.222,13.003,68,11,AutoTakeoff,
38.2001616,-120.0382945,5272.740330145,1.312336,0,0.086015750784,4100,2018-05-12 16:38:14,12,0,24.271,5272.740330145,1.312336,0,0.093433730024,0,0,0,328.3, 0.2, 0.6,0,0,1024,1024,1024,1024,328.6,-89.9,98,4.017,4.061,4.018,4.044,4.225,4.222,13.003,68,11,AutoTakeoff,
38.2001616,-120.0382944,5273.396498145,1.968504,0,0.057343833856,4300,2018-05-12 16:38:14,12,0,24.271,5273.396498145,1.968504,0,0.093433730024,0,0,0,328.4, 0, 0.4,0,0,1024,1024,1024,1024,328.6,-89.9,98,4.017,4.061,4.018,4.044,4.225,4.222,13.003,68,11,AutoTakeoff,
38.2001616,-120.0382944,5273.396498145,1.968504,0,0.057343833856,4400,2018-05-12 16:38:14,12,0,24.271,5273.396498145,1.968504,0,0.093433730024,0,0,0,328.4, 0, 0.2,0,0,1024,1024,1024,1024,328.6,-89.9,98,4.017,4.061,4.018,4.044,4.225,4.222,13.003,68,11,AutoTakeoff,
38.2001616,-120.0382943,5273.396498145,1.968504,0,0.0286718841196,4600,2018-05-12 16:38:15,13,0,24.271,5273.396498145,1.968504,0,0.093433730024,0,0,0,328.4, 0, 0.2,0,0,1024,1024,1024,1024,328.6,-89.9,98,4.017,4.061,4.018,4.044,4.225,4.222,13.003,68,11,AutoTakeoff,
38.2001616,-120.0382943,5273.724582145,2.296588,0,0.0286718841196,4700,2018-05-12 16:38:15,13,0,24.271,5273.724582145,2.296588,0,0.093433730024,0,0,0,328.4, 0.1, 0.1,0,0,1024,1024,1024,1024,328.6,-89.9,98,4.017,4.061,4.018,4.044,4.225,4.222,13.003,68,11,AutoTakeoff,
38.2001615,-120.0382943,5274.052666145,2.624672,0,0.046402888624,4800,2018-05-12 16:38:15,11,0,24.271,5274.052666145,2.624672,0,0.093433730024,0,0,-0.223694,328.5, 0.1, 0.1,0,0,1024,1024,1024,1024,328.6,-89.9,98,4.017,4.061,4.018,4.044,4.225,4.222,13.003,68,11,AutoTakeoff,
38.2001616,-120.0382942,5274.380750145,2.952756,0,0,4900,2018-05-12 16:38:15,11,0,24.271,5274.380750145,2.952756,0,0.093433730024,0,0,-0.223694,328.5, 0.1, 0,0,0,1024,1024,1024,1024,328.6,-89.9,98,4.017,4.061,4.018,4.044,4.225,4.222,13.003,68,6,P-GPS,
38.2001616,-120.0382942,5274.380750145,2.952756,0,0,5000,2018-05-12 16:38:15,11,0,23.966,5274.380750145,2.952756,0,0.093433730024,0,0,0,328.5, 0.1, 0,0,0,1024,1024,1024,1024,328.6,-89.9,98,3.969,4.003,3.994,3.985,3.99,4.011,16.048,68,14,Waypoint,
38.2001616,-120.0382942,5274.708834145,3.28084,0,0,5100,2018-05-12 16:38:15,11,0,23.966,5274.708834145,3.28084,0,0.093433730024,0,0,0,328.6, 0, 0.1,0,0,1024,1024,1024,1024,328.6,-89.9,98,3.969,4.003,3.994,3.985,3.99,4.011,16.048,68,14,Waypoint,
38.2001616,-120.0382942,5274.708834145,3.28084,0,0,5200,2018-05-12 16:38:15,11,0,23.966,5274.708834145,3.28084,0,0.093433730024,0,0,0,328.6, 0, 0.2,0,0,1024,1024,1024,1024,328.6,-89.9,98,3.969,4.003,3.994,3.985,3.99,4.011,16.048,68,14,Waypoint,
38.2001616,-120.0382942,5274.708834145,3.28084,0,0,5300,2018-05-12 16:38:15,12,0,23.966,5274.708834145,3.28084,0,0.093433730024,0,0,0,328.6, 0, 0.3,0,0,1024,1024,1024,1024,328.6,-89.9,98,3.969,4.003,3.994,3.985,3.99,4.011,16.048,68,14,Waypoint,
38.2001616,-120.0382942,5274.708834145,3.28084,0,0,5400,2018-05-12 16:38:15,12,0,23.966,5274.708834145,3.28084,0,0.093433730024,0,0,0,328.6, 0, 0.3,0,0,1024,1024,1024,1024,328.6,-89.9,98,3.969,4.003,3.994,3.985,3.99,4.011,16.048,68,14,Waypoint,
38.2001615,-120.0382942,5275.036918145,3.608924,0,0.036484909304,5500,2018-05-12 16:38:15,13,0,23.966,5275.036918145,3.608924,0,0.093433730024,0,0,0,328.7, 0, 0.3,0,0,1024,1024,1024,1024,328.6,-89.9,98,3.969,4.003,3.994,3.985,3.99,4.011,16.048,68,14,Waypoint,
38.2001615,-120.0382941,5275.036918145,3.608924,0,0.046402888624,5600,2018-05-12 16:38:16,13,0,23.966,5275.036918145,3.608924,0,0.093433730024,0,0,-0.223694,328.7, 0, 0.4,0,0,1024,1024,1024,1024,328.6,-89.9,98,3.969,4.003,3.994,3.985,3.99,4.011,16.048,68,14,Waypoint,
38.2001615,-120.0382941,5275.365002145,3.937008,0,0.046402888624,5700,2018-05-12 16:38:16,14,0,23.966,5275.365002145,3.937008,0,0.093433730024,0,0,-0.223694,328.7, 0, 0.4,0,0,1024,1024,1024,1024,328.6,-89.9,98,3.969,4.003,3.994,3.985,3.99,4.011,16.048,68,14,Waypoint,
38.2001615,-120.038294,5275.693086145,4.265092,0,0.067966537608,5800,2018-05-12 16:38:16,14,0,23.966,5275.693086145,4.265092,0,0.093433730024,0,0,-0.223694,328.8, 0, 0.3,0,0,1024,1024,1024,1024,328.6,-89.9,98,3.969,4.003,3.994,3.985,3.99,4.011,16.048,68,14,Waypoint,
38.2001615,-120.038294,5276.021170145,4.593176,0,0.067966537608,5900,2018-05-12 16:38:16,13,0,23.966,5276.021170145,4.593176,0,0.093433730024,0,0,-0.223694,328.9, 0, 0.1,0,0,1024,1024,1024,1024,328.6,-89.9,98,3.969,4.003,3.994,3.985,3.99,4.011,16.048,68,14,Waypoint,
38.2001615,-120.038294,5276.677338145,5.249344,0,0.067966537608,6000,2018-05-12 16:38:16,13,0,23.916,5276.677338145,5.249344,0,0.093433730024,0,0,-0.223694,329, 0, 0,0,0,1024,1024,1024,1024,328.6,-90,98,3.957,3.982,4.016,3.972,4.06,3.997,16.407,68,14,Waypoint,
38.2001615,-120.038294,5277.333506145,5.905512,0,0.067966537608,6100,2018-05-12 16:38:16,13,0,23.916,5277.333506145,5.905512,0,0.093433730024,0,0,-0.447388,329, 0, 0.1,0,0,1024,1024,1024,1024,328.6,-90,98,3.957,3.982,4.016,3.972,4.06,3.997,16.407,68,14,Waypoint,
38.2001615,-120.0382938,5277.989674145,6.56168,0,0.12035105372,6200,2018-05-12 16:38:16,13,0,23.916,5277.989674145,6.56168,0,0.12035105372,0,0,-0.447388,329, 0, 0.2,0,0,1024,1024,1024,1024,328.6,-89.9,98,3.957,3.982,4.016,3.972,4.06,3.997,16.407,68,14,Waypoint,
38.2001616,-120.0382937,5278.645842145,7.217848,0,0.143359256556,6300,2018-05-12 16:38:16,13,0,23.916,5278.645842145,7.217848,0,0.143359256556,0,0,-0.447388,329, 0, 0.1,0,0,1024,1024,1024,1024,328.6,-89.9,98,3.957,3.982,4.016,3.972,4.06,3.997,16.407,68,14,Waypoint,
38.2001616,-120.0382936,5279.302010145,7.874016,0,0.172031173484,6400,2018-05-12 16:38:16,13,0,23.916,5279.302010145,7.874016,0,0.172031173484,0,0,-0.447388,328.9, 0, 0,0,0,1024,1024,1024,1024,328.6,-89.9,98,3.957,3.982,4.016,3.972,4.06,3.997,16.407,68,14,Waypoint,
38.2001616,-120.0382935,5279.958178145,8.530184,0,0.200703090412,6500,2018-05-12 16:38:16,13,0,23.916,5279.958178145,8.530184,0,0.200703090412,0,0,-0.671082,328.8, -0.1, -0.2,0,0,1024,1024,1024,1024,328.6,-90,98,3.957,3.982,4.016,3.972,4.06,3.997,16.407,68,14,Waypoint,
38.2001617,-120.0382933,5280.942430145,9.514436,0,0.2606135254,6600,2018-05-12 16:38:17,13,0,23.916,5280.942430145,9.514436,0,0.2606135254,0,0,-0.671082,328.7, -0.1, -0.4,0,0,1024,1024,1024,1024,328.6,-90,98,3.957,3.982,4.016,3.972,4.06,3.997,16.407,68,14,Waypoint,
38.2001617,-120.0382931,5281.926682145,10.498688,0,0.317494104648,6710,2018-05-12 16:38:17,12,0,23.916,5281.926682145,10.498688,0,0.317494104648,0,0,-0.671082,328.6, -0.2, -0.6,0,0,1024,1024,1024,1024,328.6,-90,98,3.957,3.982,4.016,3.972,4.06,3.997,16.407,68,14,Waypoint,
38.2001618,-120.038293,5282.910934145,11.48294,0,0.35171589052,6800,2018-05-12 16:38:17,12,0,23.916,5282.910934145,11.48294,0,0.35171589052,0,0,-0.671082,328.4, -0.2, -0.7,0,0,1024,1024,1024,1024,328.6,-89.9,98,3.957,3.982,4.016,3.972,4.06,3.997,16.407,68,14,Waypoint,
38.2001619,-120.0382928,5284.223270145,12.795276,0,0.41606300544,6900,2018-05-12 16:38:17,11,0,23.916,5284.223270145,12.795276,0,0.41606300544,0,0,-0.671082,328.3, -0.2, -0.9,0,0,1024,1024,1024,1024,328.6,-89.9,98,3.957,3.982,4.016,3.972,4.06,3.997,16.407,68,14,Waypoint,
38.200162,-120.0382926,5285.207522145,13.779528,0,0.48140421488,7000,2018-05-12 16:38:17,11,0,23.421,5285.207522145,13.779528,0,0.48140421488,0,0,-0.671082,328.3, 0, -1.1,0,0,1024,1024,1024,1024,328.6,-89.9,98,3.88,3.909,3.902,3.871,3.893,3.908,20.595,68,14,Waypoint,
38.2001622,-120.0382924,5286.191774145,14.76378,0,0.56060041164,7200,2018-05-12 16:38:17,11,0,23.421,5286.191774145,14.76378,0,0.56060041164,0,0,-0.671082,328.2, 0.1, -1.3,0,0,1024,1024,1024,1024,328.6,-89.9,98,3.88,3.909,3.902,3.871,3.893,3.908,20.595,68,14,Waypoint,
38.2001624,-120.0382923,5288.488362145,17.060368,0,0.61803151584,7300,2018-05-12 16:38:17,14,0,23.421,5288.488362145,17.060368,0,0.61803151584,0,0,-0.671082,328.1, 0.3, -1.6,0,0,1024,1024,1024,1024,328.6,-89.9,98,3.88,3.909,3.902,3.871,3.893,3.908,20.595,68,14,Waypoint,
38.2001624,-120.0382922,5289.800698145,18.372704,0,0.64344818332,7500,2018-05-12 16:38:17,14,0,23.421,5289.800698145,18.372704,0,0.64344818332,0,0,-0.671082,328.1, 0.3, -1.5,0,0,1024,1024,1024,1024,328.6,-89.9,98,3.88,3.909,3.902,3.871,3.893,3.908,20.595,68,14,Waypoint,
38.2001624,-120.0382921,5290.784950145,19.356956,0,0.669127318,7600,2018-05-12 16:38:18,13,0,23.421,5290.784950145,19.356956,0,0.669127318,0,0,-0.671082,328.2, 0.1, -1.4,0,0,1024,1024,1024,1024,328.6,-90,98,3.88,3.909,3.902,3.871,3.893,3.908,20.595,68,14,Waypoint,
38.2001624,-120.038292,5291.769202145,20.341208,0,0.69503939232,7700,2018-05-12 16:38:18,13,0,23.421,5291.769202145,20.341208,0,0.69503939232,0,0,-0.671082,328.4, 0, -1.2,0,0,1024,1024,1024,1024,328.6,-90,98,3.88,3.909,3.902,3.871,3.893,3.908,20.595,68,14,Waypoint,
38.2001621,-120.0382922,5295.378126145,23.950132,0,0.6017552686,7900,2018-05-12 16:38:18,12,0,23.421,5295.378126145,23.950132,0,0.69503939232,0,0,-0.671082,328.7, -0.5, -0.3,0,0,1024,1024,1024,1024,328.6,-90,98,3.88,3.909,3.902,3.871,3.893,3.908,20.595,68,14,Waypoint,
38.200162,-120.0382924,5296.362378145,24.934384,0.223694,0.53633203816,8000,2018-05-12 16:38:18,12,0,23.231,5296.362378145,24.934384,0.223694,0.69503939232,0,0,-0.671082,328.6, -0.6, 0.1,0,0,1024,1024,1024,1024,328.6,-90,98,3.846,3.895,3.866,3.866,3.887,3.925,22.63,68,14,Waypoint,
38.2001618,-120.0382926,5297.346630145,25.918636,0.223694,0.4645177314,8100,2018-05-12 16:38:18,12,0,23.231,5297.346630145,25.918636,0.223694,0.69503939232,0,0,-0.671082,328.6, -0.7, 0.5,0,0,1024,1024,1024,1024,328.6,-90,98,3.846,3.895,3.866,3.866,3.887,3.925,22.63,68,14,Waypoint,
38.2001617,-120.0382927,5298.330882145,26.902888,0,0.43162402956,8200,2018-05-12 16:38:18,12,0,23.231,5298.330882145,26.902888,0.223694,0.69503939232,0,0,-0.671082,328.6, -0.9, 0.7,0,0,1024,1024,1024,1024,328.6,-90,98,3.846,3.895,3.866,3.866,3.887,3.925,22.63,68,14,Waypoint,
38.2001615,-120.0382928,5299.643218145,28.215224,0,0.40306103652,8300,2018-05-12 16:38:18,13,0,23.231,5299.643218145,28.215224,0.223694,0.69503939232,0,0,-0.671082,328.7, -1, 0.7,0,0,1024,1024,1024,1024,328.6,-90,98,3.846,3.895,3.866,3.866,3.887,3.925,22.63,68,14,Waypoint,
38.2001613,-120.038293,5300.627470145,29.199476,0,0.36105316116,8400,2018-05-12 16:38:18,13,0,23.231,5300.627470145,29.199476,0.223694,0.69503939232,0,0,-0.671082,328.7, -1.2, 0.6,0,0,1024,1024,1024,1024,328.6,-90,98,3.846,3.895,3.866,3.866,3.887,3.925,22.63,68,14,Waypoint,
38.2001612,-120.0382932,5301.611722145,30.183728,0,0.321723763576,8500,2018-05-12 16:38:18,13,0,23.231,5301.611722145,30.183728,0.223694,0.69503939232,0,0,-0.671082,328.7, -1.2, 0.9,0,0,1024,1024,1024,1024,328.6,-90,98,3.846,3.895,3.866,3.866,3.887,3.925,22.63,68,14,Waypoint,
38.2001611,-120.0382932,5302.924058145,31.496064,0,0.33983268804,8600,2018-05-12 16:38:19,13,0,23.231,5302.924058145,31.496064,0.223694,0.69503939232,0,0,-0.671082,328.7, -1.1, 1.2,0,0,1024,1024,1024,1024,328.6,-90,98,3.846,3.895,3.866,3.866,3.887,3.925,22.63,68,14,Waypoint,
38.2001611,-120.0382933,5303.908310145,32.480316,0,0.316017398564,8700,2018-05-12 16:38:19,14,0,23.231,5303.908310145,32.480316,0.223694,0.69503939232,0,0,-0.671082,328.7, -1, 1,0,0,1024,1024,1024,1024,328.6,-90,98,3.846,3.895,3.866,3.866,3.887,3.925,22.63,68,14,Waypoint,
38.200161,-120.0382933,5304.892562145,33.464568,0,0.33839239928,8800,2018-05-12 16:38:19,14,0,23.231,5304.892562145,33.464568,0.223694,0.69503939232,0,0,-0.671082,328.6, -0.8, 0.7,0,0,1024,1024,1024,1024,328.6,-89.9,98,3.846,3.895,3.866,3.866,3.887,3.925,22.63,68,14,Waypoint,
38.200161,-120.0382933,5305.876814145,34.44882,0,0.33839239928,8900,2018-05-12 16:38:19,14,0,23.231,5305.876814145,34.44882,0.223694,0.69503939232,0,0,-0.671082,328.4, -0.6, 0.2,0,0,1024,1024,1024,1024,328.6,-89.9,98,3.846,3.895,3.866,3.866,3.887,3.925,22.63,68,14,Waypoint,
38.200161,-120.0382933,5306.861066145,35.433072,0,0.33839239928,9000,2018-05-12 16:38:19,14,0,23.504,5306.861066145,35.433072,0.223694,0.69503939232,0,0,-0.671082,328.3, -0.6, -0.1,0,0,1024,1024,1024,1024,328.6,-90,98,3.846,3.895,3.866,3.866,3.887,3.925,18.403,68,14,Waypoint,
38.2001609,-120.0382933,5307.845318145,36.417324,0,0.36306431608,9100,2018-05-12 16:38:19,14,0,23.504,5307.845318145,36.417324,0.223694,0.69503939232,0,0,-0.671082,328.3, -0.6, -0.2,0,0,1024,1024,1024,1024,328.6,-90,98,3.846,3.895,3.866,3.866,3.887,3.925,18.403,68,14,Waypoint,
38.2001608,-120.0382934,5308.829570145,37.401576,0,0.37122376516,9200,2018-05-12 16:38:19,14,0,23.504,5308.829570145,37.401576,0.223694,0.69503939232,0,0,-0.671082,328.3, -0.7, -0.2,0,0,1024,1024,1024,1024,328.6,-90,98,3.846,3.895,3.866,3.866,3.887,3.925,18.403,68,14,Waypoint,
38.2001608,-120.0382934,5309.813822145,38.385828,0,0.37122376516,9300,2018-05-12 16:38:19,14,0,23.504,5309.813822145,38.385828,0.223694,0.69503939232,0,0,-0.671082,328.3, -0.7, 0,0,0,1024,1024,1024,1024,328.6,-90,98,3.846,3.895,3.866,3.866,3.887,3.925,18.403,68,14,Waypoint,
38.2001608,-120.0382935,5310.798074145,39.37008,0,0.35422573312,9410,2018-05-12 16:38:19,14,0,23.504,5310.798074145,39.37008,0.223694,0.69503939232,0,0,-0.671082,328.4, -0.8, 0.3,0,0,1024,1024,1024,1024,328.6,-90,98,3.846,3.895,3.866,3.866,3.887,3.925,18.403,68,14,Waypoint,
38.2001608,-120.0382936,5311.782326145,40.354332,0,0.33880578512,9510,2018-05-12 16:38:19,14,0,23.504,5311.782326145,40.354332,0.223694,0.69503939232,0,0,-0.671082,328.4, -0.8, 0.5,0,0,1024,1024,1024,1024,328.6,-89.9,98,3.846,3.895,3.866,3.866,3.887,3.925,18.403,68,14,Waypoint,
38.2001608,-120.0382936,5311.782326145,40.354332,0,0.33880578512,9600,2018-05-12 16:38:20,14,0,23.504,5311.782326145,40.354332,0.223694,0.69503939232,0,0,-0.671082,328.4, -0.8, 0.5,0,0,1024,1024,1024,1024,328.6,-89.9,98,3.846,3.895,3.866,3.866,3.887,3.925,18.403,68,14,Waypoint,
38.2001607,-120.0382936,5313.750830145,42.322836,0,0.37069883076,9700,2018-05-12 16:38:20,13,0,23.504,5313.750830145,42.322836,0.223694,0.69503939232,0,0,-0.671082,328.4, -0.7, 0.6,0,0,1024,1024,1024,1024,328.6,-90,98,3.846,3.895,3.866,3.866,3.887,3.925,18.403,68,14,Waypoint,
38.2001607,-120.0382937,5314.735082145,43.307088,0,0.35829397472,9900,2018-05-12 16:38:20,13,0,23.504,5314.735082145,43.307088,0.223694,0.69503939232,0,0,-0.671082,328.4, -0.7, 0.7,0,0,1024,1024,1024,1024,328.6,-89.9,98,3.846,3.895,3.866,3.866,3.887,3.925,18.403,68,14,Waypoint,
38.2001607,-120.0382937,5315.719334145,44.29134,0,0.35829397472,10000,2018-05-12 16:38:20,14,0,23.504,5315.719334145,44.29134,0.223694,0.69503939232,0,0,-0.671082,328.4, -0.5, 0.6,0,0,1024,1024,1024,1024,328.6,-89.9,98,3.888,3.928,3.917,3.91,3.933,3.939,18.403,68,14,Waypoint,
38.2001608,-120.0382937,5316.703586145,45.275592,0,0.32518537786,10100,2018-05-12 16:38:20,14,0,23.504,5316.703586145,45.275592,0.223694,0.69503939232,0,0,-0.671082,328.4, -0.3, 0.6,0,0,1024,1024,1024,1024,328.6,-89.9,98,3.888,3.928,3.917,3.91,3.933,3.939,18.403,68,14,Waypoint,
38.2001608,-120.0382938,5317.687838145,46.259844,0,0.313603028408,10200,2018-05-12 16:38:20,14,0,23.504,5317.687838145,46.259844,0.223694,0.69503939232,0,0,-0.671082,328.5, 0, 0.5,0,0,1024,1024,1024,1024,328.6,-89.9,98,3.888,3.928,3.917,3.91,3.933,3.939,18.403,68,14,Waypoint,
38.2001609,-120.0382938,5319.656342145,48.228348,0,0.279963591636,10300,2018-05-12 16:38:20,14,0,23.504,5319.656342145,48.228348,0.223694,0.69503939232,0,0,-0.671082,328.5, 0, 0,0,0,1024,1024,1024,1024,328.6,-89.9,98,3.888,3.928,3.917,3.91,3.933,3.939,18.403,68,14,Waypoint,
38.2001609,-120.0382938,5320.640594145,49.2126,0,0.279963591636,10400,2018-05-12 16:38:20,14,0,23.504,5320.640594145,49.2126,0.223694,0.69503939232,0,0,-0.671082,328.6, -0.1, 0,0,0,1024,1024,1024,1024,328.6,-90,98,3.888,3.928,3.917,3.91,3.933,3.939,18.403,68,14,Waypoint,
38.2001609,-120.0382937,5322.609098145,51.181104,0,0.292879274464,10600,2018-05-12 16:38:21,14,0,23.504,5322.609098145,51.181104,0.223694,0.69503939232,0,0,-0.671082,328.6, -0.4, -0.1,0,0,1024,1024,1024,1024,328.6,-90,98,3.888,3.928,3.917,3.91,3.933,3.939,18.403,68,14,Waypoint,
38.200161,-120.0382937,5323.593350145,52.165356,0,0.261674220972,10700,2018-05-12 16:38:21,14,0,23.504,5323.593350145,52.165356,0.223694,0.69503939232,0,0,-0.671082,328.6, -0.3, -0.1,0,0,1024,1024,1024,1024,328.6,-90,98,3.888,3.928,3.917,3.91,3.933,3.939,18.403,68,14,Waypoint,
38.2001611,-120.0382936,5324.577602145,53.149608,0,0.250746071016,10800,2018-05-12 16:38:21,14,0,23.504,5324.577602145,53.149608,0.223694,0.69503939232,0,0,-0.671082,328.7, -0.2, -0.2,0,0,1024,1024,1024,1024,328.6,-89.9,98,3.888,3.928,3.917,3.91,3.933,3.939,18.403,68,14,Waypoint,
38.2001611,-120.0382936,5325.561854145,54.13386,0,0.250746071016,10900,2018-05-12 16:38:21,14,0,23.504,5325.561854145,54.13386,0.223694,0.69503939232,0,0,-0.671082,328.7, 0, -0.4,0,0,1024,1024,1024,1024,328.6,-89.9,98,3.888,3.928,3.917,3.91,3.933,3.939,18.403,68,14,Waypoint,
38.2001611,-120.0382935,5326.546106145,55.118112,0,0.27122048112,11000,2018-05-12 16:38:21,14,0,23.533,5326.546106145,55.118112,0.223694,0.69503939232,0,0,-0.671082,328.7, -0.1, -0.4,0,0,1024,1024,1024,1024,328.6,-89.9,98,3.892,3.93,3.93,3.906,3.923,3.945,17.974,68,14,Waypoint,
38.2001611,-120.0382935,5327.530358145,56.102364,0,0.27122048112,11100,2018-05-12 16:38:21,14,0,23.533,5327.530358145,56.102364,0.223694,0.69503939232,0,0,-0.671082,328.7, -0.2, -0.3,0,0,1024,1024,1024,1024,328.6,-89.9,98,3.892,3.93,3.93,3.906,3.923,3.945,17.974,68,14,Waypoint,
38.2001612,-120.0382936,5328.514610145,57.086616,0,0.225595151576,11200,2018-05-12 16:38:21,14,0,23.533,5328.514610145,57.086616,0.223694,0.69503939232,0,0,-0.671082,328.6, -0.2, -0.2,0,0,1024,1024,1024,1024,328.6,-89.9,98,3.892,3.93,3.93,3.906,3.923,3.945,17.974,68,14,Waypoint,
38.2001612,-120.0382936,5329.498862145,58.070868,0,0.225595151576,11300,2018-05-12 16:38:21,15,0,23.533,5329.498862145,58.070868,0.223694,0.69503939232,0,0,-0.671082,328.6, -0.2, 0,0,0,1024,1024,1024,1024,328.6,-89.9,98,3.892,3.93,3.93,3.906,3.923,3.945,17.974,68,14,Waypoint,
38.2001612,-120.0382937,5330.483114145,59.05512,0,0.20457349736,11400,2018-05-12 16:38:21,15,0,23.533,5330.483114145,59.05512,0.223694,0.69503939232,0,0,-0.671082,328.6, -0.1, 0.1,0,0,1024,1024,1024,1024,328.6,-89.9,98,3.892,3.93,3.93,3.906,3.923,3.945,17.974,68,14,Waypoint,
38.2001612,-120.0382937,5331.467366145,60.039372,0,0.20457349736,11520,2018-05-12 16:38:21,14,0,23.533,5331.467366145,60.039372,0.223694,0.69503939232,0,0,-0.671082,328.6, -0.1, 0.3,0,0,1024,1024,1024,1024,328.6,-89.9,98,3.892,3.93,3.93,3.906,3.923,3.945,17.974,68,14,Waypoint,
38.2001613,-120.0382938,5332.451618145,61.023624,0,0.158535766228,11600,2018-05-12 16:38:22,14,0,23.533,5332.451618145,61.023624,0.223694,0.69503939232,0,0,-0.671082,328.5, 0, 0.5,0,0,1024,1024,1024,1024,328.6,-89.9,98,3.892,3.93,3.93,3.906,3.923,3.945,17.974,68,14,Waypoint,
38.2001613,-120.0382938,5333.435870145,62.007876,0,0.158535766228,11700,2018-05-12 16:38:22,14,0,23.533,5333.435870145,62.007876,0.223694,0.69503939232,0,0,-0.671082,328.4, 0, 0.4,0,0,1024,1024,1024,1024,328.6,-89.9,98,3.892,3.93,3.93,3.906,3.923,3.945,17.974,68,14,Waypoint,
38.2001613,-120.0382937,5334.420122145,62.992128,0,0.180367131756,11900,2018-05-12 16:38:22,14,0,23.533,5334.420122145,62.992128,0.223694,0.69503939232,0,0,-0.671082,328.4, 0, 0.2,0,0,1024,1024,1024,1024,328.6,-89.9,98,3.892,3.93,3.93,3.906,3.923,3.945,17.974,68,14,Waypoint,
38.2001614,-120.0382936,5335.404374145,63.97638,0,0.186867131964,12000,2018-05-12 16:38:22,14,0,23.535,5335.404374145,63.97638,0.223694,0.69503939232,0,0,-0.671082,328.3, -0.1, 0,0,0,1024,1024,1024,1024,328.6,-90,98,3.89,3.922,3.919,3.903,3.921,3.946,18.042,69.8,14,Waypoint,
38.2001614,-120.0382936,5336.388626145,64.960632,0,0.186867131964,12100,2018-05-12 16:38:22,14,0,23.535,5336.388626145,64.960632,0.223694,0.69503939232,0,0,-0.671082,328.3, -0.2, -0.3,0,0,1024,1024,1024,1024,328.6,-89.9,98,3.89,3.922,3.919,3.903,3.921,3.946,18.042,69.8,14,Waypoint,
38.2001614,-120.0382936,5337.372878145,65.944884,0,0.186867131964,12200,2018-05-12 16:38:22,14,0,23.535,5337.372878145,65.944884,0.223694,0.69503939232,0,0,-0.671082,328.4, -0.2, -0.3,0,0,1024,1024,1024,1024,328.6,-90,98,3.89,3.922,3.919,3.903,3.921,3.946,18.042,69.8,14,Waypoint,
38.2001614,-120.0382934,5339.341382145,67.913388,0,0.24070210744,12310,2018-05-12 16:38:22,14,0,23.535,5339.341382145,67.913388,0.223694,0.69503939232,0,0,-0.671082,328.5, -0.4, -0.4,0,0,1024,1024,1024,1024,328.6,-90,98,3.89,3.922,3.919,3.903,3.921,3.946,18.042,69.8,14,Waypoint,
38.2001614,-120.0382934,5339.341382145,67.913388,0,0.24070210744,12400,2018-05-12 16:38:22,14,0,23.535,5339.341382145,67.913388,0.223694,0.69503939232,0,0,-0.671082,328.5, -0.4, -0.4,0,0,1024,1024,1024,1024,328.6,-90,98,3.89,3.922,3.919,3.903,3.921,3.946,18.042,69.8,14,Waypoint,
38.2001614,-120.0382934,5340.325634145,68.89764,0,0.24070210744,12500,2018-05-12 16:38:22,14,0,23.535,5340.325634145,68.89764,0.223694,0.69503939232,0,0,-0.671082,328.6, -0.5, -0.3,0,0,1024,1024,1024,1024,328.6,-90,98,3.89,3.922,3.919,3.903,3.921,3.946,18.042,69.8,14,Waypoint,
38.2001615,-120.0382933,5342.294138145,70.866144,0,0.2606135254,12600,2018-05-12 16:38:23,15,0,23.535,5342.294138145,70.866144,0.223694,0.69503939232,0,0,-0.671082,328.6, -0.5, -0.4,0,0,1024,1024,1024,1024,328.6,-89.9,98,3.89,3.922,3.919,3.903,3.921,3.946,18.042,69.8,14,Waypoint,
38.2001615,-120.0382932,5343.278390145,71.850396,0,0.289030849144,12700,2018-05-12 16:38:23,15,0,23.535,5343.278390145,71.850396,0.223694,0.69503939232,0,0,-0.671082,328.6, -0.4, -0.3,0,0,1024,1024,1024,1024,328.6,-89.9,98,3.89,3.922,3.919,3.903,3.921,3.946,18.042,69.8,14,Waypoint,
38.2001616,-120.0382932,5344.262642145,72.834648,0,0.286718841196,12800,2018-05-12 16:38:23,15,0,23.535,5344.262642145,72.834648,0.223694,0.69503939232,0,0,-0.671082,328.6, -0.2, -0.3,0,0,1024,1024,1024,1024,328.6,-89.9,98,3.89,3.922,3.919,3.903,3.921,3.946,18.042,69.8,14,Waypoint,
38.2001616,-120.0382932,5345.246894145,73.8189,0,0.286718841196,12900,2018-05-12 16:38:23,15,0,23.535,5345.246894145,73.8189,0.223694,0.69503939232,0,0,-0.671082,328.7, -0.2, -0.3,0,0,1024,1024,1024,1024,328.6,-89.9,98,3.89,3.922,3.919,3.903,3.921,3.946,18.042,69.8,14,Waypoint,
38.2001616,-120.0382932,5346.231146145,74.803152,0,0.286718841196,13000,2018-05-12 16:38:23,15,0,23.445,5346.231146145,74.803152,0.223694,0.69503939232,0,0,-0.671082,328.7, -0.3, -0.1,0,0,1024,1024,1024,1024,328.6,-89.9,98,3.886,3.921,3.917,3.9,3.919,3.937,18.192,69.8,14,Waypoint,
38.2001616,-120.0382932,5347.215398145,75.787404,0,0.286718841196,13100,2018-05-12 16:38:23,16,0,23.445,5347.215398145,75.787404,0.223694,0.69503939232,0,0,-0.671082,328.6, -0.4, -0.1,0,0,1024,1024,1024,1024,328.6,-90,98,3.886,3.921,3.917,3.9,3.919,3.937,18.192,69.8,14,Waypoint,
38.2001616,-120.0382932,5348.199650145,76.771656,0,0.286718841196,13200,2018-05-12 16:38:23,16,0,23.445,5348.199650145,76.771656,0.223694,0.69503939232,0,0,-0.671082,328.5, -0.4, -0.1,0,0,1024,1024,1024,1024,328.6,-90,98,3.886,3.921,3.917,3.9,3.919,3.937,18.192,69.8,14,Waypoint,
38.2001617,-120.0382932,5349.183902145,77.755908,0,0.289030849144,13300,2018-05-12 16:38:23,16,0,23.445,5349.183902145,77.755908,0.223694,0.69503939232,0,0,-0.671082,328.5, -0.4, 0,0,0,1024,1024,1024,1024,328.6,-90,98,3.886,3.921,3.917,3.9,3.919,3.937,18.192,69.8,14,Waypoint,
38.2001617,-120.0382932,5350.168154145,78.74016,0,0.289030849144,13400,2018-05-12 16:38:23,16,0,23.445,5350.168154145,78.74016,0.223694,0.69503939232,0,0,-0.671082,328.5, -0.3, 0,0,0,1024,1024,1024,1024,328.6,-89.9,98,3.886,3.921,3.917,3.9,3.919,3.937,18.192,69.8,14,Waypoint,
38.2001617,-120.0382933,5351.152406145,79.724412,0,0.2606135254,13500,2018-05-12 16:38:23,15,0,23.445,5351.152406145,79.724412,0.223694,0.69503939232,0,0,-0.671082,328.5, -0.1, 0.1,0,0,1024,1024,1024,1024,328.6,-89.9,98,3.886,3.921,3.917,3.9,3.919,3.937,18.192,69.8,14,Waypoint,
38.2001617,-120.0382932,5352.136658145,80.708664,0,0.289030849144,13600,2018-05-12 16:38:24,15,0,23.445,5352.136658145,80.708664,0.223694,0.69503939232,0,0,-0.671082,328.5, 0, 0.1,0,0,1024,1024,1024,1024,328.6,-89.9,98,3.886,3.921,3.917,3.9,3.919,3.937,18.192,69.8,14,Waypoint,
38.2001617,-120.0382932,5353.120910145,81.692916,0,0.289030849144,13700,2018-05-12 16:38:24,16,0,23.445,5353.120910145,81.692916,0.223694,0.69503939232,0,0,-0.671082,328.4, 0.1, 0,0,0,1024,1024,1024,1024,328.6,-89.9,98,3.886,3.921,3.917,3.9,3.919,3.937,18.192,69.8,14,Waypoint,
38.2001617,-120.0382932,5354.105162145,82.677168,0,0.289030849144,13800,2018-05-12 16:38:24,16,0,23.445,5354.105162145,82.677168,0.223694,0.69503939232,0,0,-0.671082,328.4, 0, 0,0,0,1024,1024,1024,1024,328.6,-90,98,3.886,3.921,3.917,3.9,3.919,3.937,18.192,69.8,14,Waypoint,
38.2001617,-120.0382932,5355.089414145,83.66142,0,0.289030849144,13900,2018-05-12 16:38:24,15,0,23.445,5355.089414145,83.66142,0.223694,0.69503939232,0,0,-0.671082,328.4, -0.1, 0.1,0,0,1024,1024,1024,1024,328.6,-90,98,3.886,3.921,3.917,3.9,3.919,3.937,18.192,69.8,14,Waypoint,
38.2001617,-120.0382932,5356.073666145,84.645672,0,0.289030849144,14000,2018-05-12 16:38:24,15,0,23.472,5356.073666145,84.645672,0.223694,0.69503939232,0,0,-0.671082,328.5, -0.3, 0.1,0,0,1024,1024,1024,1024,328.6,-90,97,3.881,3.924,3.907,3.892,3.912,3.938,18.071,69.8,14,Waypoint,
38.2001617,-120.0382932,5357.057918145,85.629924,0,0.289030849144,14100,2018-05-12 16:38:24,16,0,23.472,5357.057918145,85.629924,0.223694,0.69503939232,0,0,-0.671082,328.5, -0.4, 0,0,0,1024,1024,1024,1024,328.6,-90,97,3.881,3.924,3.907,3.892,3.912,3.938,18.071,69.8,14,Waypoint,
38.2001617,-120.0382932,5358.042170145,86.614176,0,0.289030849144,14200,2018-05-12 16:38:24,16,0,23.472,5358.042170145,86.614176,0.223694,0.69503939232,0,0,-0.671082,328.5, -0.5, 0,0,0,1024,1024,1024,1024,328.6,-90,97,3.881,3.924,3.907,3.892,3.912,3.938,18.071,69.8,14,Waypoint,
38.2001617,-120.0382931,5359.026422145,87.598428,0,0.317494104648,14300,2018-05-12 16:38:24,16,0,23.472,5359.026422145,87.598428,0.223694,0.69503939232,0,0,-0.671082,328.6, -0.6, -0.2,0,0,1024,1024,1024,1024,328.6,-90,97,3.881,3.924,3.907,3.892,3.912,3.938,18.071,69.8,14,Waypoint,
38.2001618,-120.0382931,5359.682590145,88.254596,0,0.323721795136,14400,2018-05-12 16:38:24,16,0,23.472,5359.682590145,88.254596,0.223694,0.69503939232,0,0,-0.671082,328.6, -0.5, -0.2,0,0,1024,1024,1024,1024,328.6,-89.9,97,3.881,3.924,3.907,3.892,3.912,3.938,18.071,69.8,14,Waypoint,
38.2001618,-120.0382931,5361.651094145,90.2231,0,0.323721795136,14600,2018-05-12 16:38:25,15,0,23.472,5361.651094145,90.2231,0.223694,0.69503939232,0,0,-0.671082,328.6, -0.2, -0.2,0,0,1024,1024,1024,1024,328.6,-89.9,97,3.881,3.924,3.907,3.892,3.912,3.938,18.071,69.8,14,Waypoint,
38.2001618,-120.0382932,5362.963430145,91.535436,0,0.295858605268,14800,2018-05-12 16:38:25,15,0,23.472,5362.963430145,91.535436,0.223694,0.69503939232,0,0,-0.671082,328.5, -0.1, -0.1,0,0,1024,1024,1024,1024,328.6,-89.9,97,3.881,3.924,3.907,3.892,3.912,3.938,18.071,69.8,14,Waypoint,
38.2001618,-120.0382931,5363.619598145,92.191604,0,0.323721795136,14900,2018-05-12 16:38:25,15,0,23.472,5363.619598145,92.191604,0.223694,0.69503939232,0,0,-0.671082,328.5, 0, -0.1,0,0,1024,1024,1024,1024,328.6,-89.9,97,3.881,3.924,3.907,3.892,3.912,3.938,18.071,69.8,14,Waypoint,
38.2001618,-120.0382931,5364.603850145,93.175856,0,0.323721795136,15000,2018-05-12 16:38:25,16,0,23.435,5364.603850145,93.175856,0.223694,0.69503939232,0,0,-0.671082,328.5, 0, -0.1,0,0,1024,1024,1024,1024,328.6,-89.9,97,3.884,3.916,3.903,3.888,3.904,3.939,18.255,69.8,14,Waypoint,
38.2001618,-120.0382931,5366.572354145,95.14436,0,0.323721795136,15100,2018-05-12 16:38:25,16,0,23.435,5366.572354145,95.14436,0.223694,0.69503939232,0,0,-0.671082,328.5, -0.1, -0.2,0,0,1024,1024,1024,1024,328.6,-89.9,97,3.884,3.916,3.903,3.888,3.904,3.939,18.255,69.8,14,Waypoint,
38.2001618,-120.038293,5367.556606145,96.128612,0,0.35171589052,15200,2018-05-12 16:38:25,16,0,23.435,5367.556606145,96.128612,0.223694,0.69503939232,0,0,-0.671082,328.4, -0.1, -0.1,0,0,1024,1024,1024,1024,328.6,-90,97,3.884,3.916,3.903,3.888,3.904,3.939,18.255,69.8,14,Waypoint,
38.2001619,-120.038293,5368.540858145,97.112864,0,0.36105316116,15300,2018-05-12 16:38:25,16,0,23.435,5368.540858145,97.112864,0.223694,0.69503939232,0,0,-0.671082,328.4, -0.2, -0.3,0,0,1024,1024,1024,1024,328.6,-89.9,97,3.884,3.916,3.903,3.888,3.904,3.939,18.255,69.8,14,Waypoint,
38.2001618,-120.038293,5369.525110145,98.097116,0,0.35171589052,15400,2018-05-12 16:38:25,16,0,23.435,5369.525110145,98.097116,0.223694,0.69503939232,0,0,-0.671082,328.5, -0.3, -0.4,0,0,1024,1024,1024,1024,328.6,-89.9,97,3.884,3.916,3.903,3.888,3.904,3.939,18.255,69.8,14,Waypoint,
38.2001618,-120.0382929,5370.509362145,99.081368,0,0.37980972344,15500,2018-05-12 16:38:25,16,0,23.435,5370.509362145,99.081368,0.223694,0.69503939232,0,0,-0.671082,328.5, -0.3, -0.4,0,0,1024,1024,1024,1024,328.6,-90,97,3.884,3.916,3.903,3.888,3.904,3.939,18.255,69.8,14,Waypoint,
38.2001618,-120.0382929,5371.493614145,100.06562,0,0.37980972344,15600,2018-05-12 16:38:26,16,0,23.435,5371.493614145,100.06562,0.223694,0.69503939232,0,0,-0.671082,328.6, -0.2, -0.2,0,0,1024,1024,1024,1024,328.6,-89.9,97,3.884,3.916,3.903,3.888,3.904,3.939,18.255,69.8,14,Waypoint,
38.2001619,-120.0382929,5372.477866145,101.049872,0,0.38847442188,15700,2018-05-12 16:38:26,16,0,23.435,5372.477866145,101.049872,0.223694,0.69503939232,0,0,-0.671082,328.6, -0.1, -0.2,0,0,1024,1024,1024,1024,328.6,-89.9,97,3.884,3.916,3.903,3.888,3.904,3.939,18.255,69.8,14,Waypoint,
38.2001618,-120.0382929,5373.462118145,102.034124,0,0.37980972344,15800,2018-05-12 16:38:26,16,0,23.435,5373.462118145,102.034124,0.223694,0.69503939232,0,0,-0.671082,328.6, -0.1, -0.2,0,0,1024,1024,1024,1024,328.6,-89.9,97,3.884,3.916,3.903,3.888,3.904,3.939,18.255,69.8,14,Waypoint,
38.2001618,-120.0382929,5374.446370145,103.018376,0,0.37980972344,15900,2018-05-12 16:38:26,16,0,23.435,5374.446370145,103.018376,0.223694,0.69503939232,0,0,-0.671082,328.6, -0.2, -0.2,0,0,1024,1024,1024,1024,328.6,-89.9,97,3.884,3.916,3.903,3.888,3.904,3.939,18.255,69.8,14,Waypoint,
38.2001618,-120.0382929,5375.430622145,104.002628,0,0.37980972344,16000,2018-05-12 16:38:26,16,0,23.424,5375.430622145,104.002628,0.223694,0.69503939232,0,0,-0.671082,328.7, -0.2, -0.2,0,0,1024,1024,1024,1024,328.6,-90,97,3.868,3.9,3.893,3.883,3.899,3.914,18.39,69.8,14,Waypoint,
38.2001617,-120.0382929,5377.399126145,105.971132,0,0.37451444768,16200,2018-05-12 16:38:26,16,0,23.424,5377.399126145,105.971132,0.223694,0.69503939232,0,0,-0.671082,328.7, -0.2, 0,0,0,1024,1024,1024,1024,328.6,-89.9,97,3.868,3.9,3.893,3.883,3.899,3.914,18.39,69.8,14,Waypoint,
38.2001617,-120.0382929,5378.383378145,106.955384,0,0.37451444768,16300,2018-05-12 16:38:26,16,0,23.424,5378.383378145,106.955384,0.223694,0.69503939232,0,0,-0.671082,328.7, -0.3, -0.1,0,0,1024,1024,1024,1024,328.6,-90,97,3.868,3.9,3.893,3.883,3.899,3.914,18.39,69.8,14,Waypoint,
38.2001617,-120.0382929,5379.367630145,107.939636,0,0.37451444768,16400,2018-05-12 16:38:26,16,0,23.424,5379.367630145,107.939636,0.223694,0.69503939232,0,0,-0.671082,328.6, -0.2, -0.2,0,0,1024,1024,1024,1024,328.6,-89.9,97,3.868,3.9,3.893,3.883,3.899,3.914,18.39,69.8,14,Waypoint,
38.2001617,-120.0382929,5381.336134145,109.90814,0,0.37451444768,16620,2018-05-12 16:38:27,16,0,23.424,5381.336134145,109.90814,0.223694,0.69503939232,0,0,-0.671082,328.6, -0.2, -0.1,0,0,1024,1024,1024,1024,328.6,-89.9,97,3.868,3.9,3.893,3.883,3.899,3.914,18.39,69.8,14,Waypoint,
38.2001617,-120.0382929,5382.320386145,110.892392,0,0.37451444768,16700,2018-05-12 16:38:27,16,0,23.424,5382.320386145,110.892392,0.223694,0.69503939232,0,0,-0.671082,328.6, -0.2, 0,0,0,1024,1024,1024,1024,328.6,-89.9,97,3.868,3.9,3.893,3.883,3.899,3.914,18.39,69.8,14,Waypoint,
38.2001617,-120.0382929,5383.304638145,111.876644,0,0.37451444768,16900,2018-05-12 16:38:27,16,0,23.424,5383.304638145,111.876644,0.223694,0.69503939232,0,0,-0.671082,328.6, -0.1, -0.1,0,0,1024,1024,1024,1024,328.6,-89.9,97,3.868,3.9,3.893,3.883,3.899,3.914,18.39,69.8,14,Waypoint,
38.2001617,-120.0382929,5384.288890145,112.860896,0,0.37451444768,17000,2018-05-12 16:38:27,16,0,23.337,5384.288890145,112.860896,0.223694,0.69503939232,0,0,-0.671082,328.6, 0, -0.2,0,0,1024,1024,1024,1024,328.6,-89.9,97,3.861,3.897,3.895,3.879,3.895,3.914,18.333,69.8,14,Waypoint,
38.2001617,-120.0382929,5386.257394145,114.8294,0,0.37451444768,17100,2018-05-12 16:38:27,16,0,23.337,5386.257394145,114.8294,0.223694,0.69503939232,0,0,-0.671082,328.5, 0, -0.2,0,0,1024,1024,1024,1024,328.6,-89.9,97,3.861,3.897,3.895,3.879,3.895,3.914,18.333,69.8,14,Waypoint,
38.2001617,-120.0382929,5387.241646145,115.813652,0,0.37451444768,17200,2018-05-12 16:38:27,16,0,23.337,5387.241646145,115.813652,0.223694,0.69503939232,0,0,-0.671082,328.5, 0, -0.3,0,0,1024,1024,1024,1024,328.6,-89.9,97,3.861,3.897,3.895,3.879,3.895,3.914,18.333,69.8,14,Waypoint,
38.2001616,-120.0382929,5389.210150145,117.782156,0,0.37273295156,17400,2018-05-12 16:38:27,16,0,23.337,5389.210150145,117.782156,0.223694,0.69503939232,0,0,-0.671082,328.5, -0.3, -0.2,0,0,1024,1024,1024,1024,328.6,-90,97,3.861,3.897,3.895,3.879,3.895,3.914,18.333,69.8,14,Waypoint,
38.2001616,-120.0382929,5390.194402145,118.766408,0,0.37273295156,17500,2018-05-12 16:38:27,16,0,23.337,5390.194402145,118.766408,0.223694,0.69503939232,0,0,-0.671082,328.4, -0.4, -0.3,0,0,1024,1024,1024,1024,328.6,-90,97,3.861,3.897,3.895,3.879,3.895,3.914,18.333,69.8,14,Waypoint,
38.2001616,-120.0382929,5391.178654145,119.75066,0,0.37273295156,17600,2018-05-12 16:38:28,16,0,23.337,5391.178654145,119.75066,0.223694,0.69503939232,0,0,-0.671082,328.4, -0.4, -0.3,0,0,1024,1024,1024,1024,328.6,-90,97,3.861,3.897,3.895,3.879,3.895,3.914,18.333,69.8,14,Waypoint,
38.2001615,-120.0382929,5392.162906145,120.734912,0,0.37451444768,17700,2018-05-12 16:38:28,16,0,23.337,5392.162906145,120.734912,0.223694,0.69503939232,0,0,-0.671082,328.4, -0.4, -0.3,0,0,1024,1024,1024,1024,328.6,-90,97,3.861,3.897,3.895,3.879,3.895,3.914,18.333,69.8,14,Waypoint,
38.2001614,-120.038293,5393.147158145,121.719164,0,0.35171589052,17800,2018-05-12 16:38:28,16,0,23.337,5393.147158145,121.719164,0.223694,0.69503939232,0,0,-0.671082,328.4, -0.5, -0.1,0,0,1024,1024,1024,1024,328.6,-90,97,3.861,3.897,3.895,3.879,3.895,3.914,18.333,69.8,14,Waypoint,
38.2001614,-120.038293,5394.131410145,122.703416,0,0.35171589052,17900,2018-05-12 16:38:28,16,0,23.337,5394.131410145,122.703416,0.223694,0.69503939232,0,0,-0.671082,328.4, -0.7, 0,0,0,1024,1024,1024,1024,328.6,-90,97,3.861,3.897,3.895,3.879,3.895,3.914,18.333,69.8,14,Waypoint,
38.2001613,-120.038293,5395.115662145,123.687668,0,0.36105316116,18000,2018-05-12 16:38:28,16,0,23.302,5395.115662145,123.687668,0.223694,0.69503939232,0,0,-0.671082,328.4, -0.8, 0.2,0,0,1024,1024,1024,1024,328.6,-90,97,3.856,3.896,3.889,3.872,3.89,3.915,18.546,69.8,14,Waypoint,
38.2001613,-120.038293,5396.099914145,124.67192,0,0.36105316116,18100,2018-05-12 16:38:28,16,0,23.302,5396.099914145,124.67192,0.223694,0.69503939232,0,0,-0.671082,328.5, -0.7, 0.2,0,0,1024,1024,1024,1024,328.6,-89.9,97,3.856,3.896,3.889,3.872,3.89,3.915,18.546,69.8,14,Waypoint,
38.2001612,-120.038293,5397.084166145,125.656172,0,0.37373360776,18200,2018-05-12 16:38:28,16,0,23.302,5397.084166145,125.656172,0.223694,0.69503939232,0,0,-0.671082,328.6, -0.6, 0.1,0,0,1024,1024,1024,1024,328.6,-89.9,97,3.856,3.896,3.889,3.872,3.89,3.915,18.546,69.8,14,Waypoint,
38.2001612,-120.038293,5399.380754145,127.95276,0,0.37373360776,18400,2018-05-12 16:38:28,16,0,23.302,5399.380754145,127.95276,0.223694,0.69503939232,0,0,-0.671082,328.7, -0.4, 0.2,0,0,1024,1024,1024,1024,328.6,-89.9,97,3.856,3.896,3.889,3.872,3.89,3.915,18.546,69.8,14,Waypoint,
38.2001612,-120.038293,5400.365006145,128.937012,0,0.37373360776,18500,2018-05-12 16:38:28,16,0,23.302,5400.365006145,128.937012,0.223694,0.69503939232,0,0,-0.671082,328.7, -0.4, 0.1,0,0,1024,1024,1024,1024,328.6,-90,97,3.856,3.896,3.889,3.872,3.89,3.915,18.546,69.8,14,Waypoint,
38.2001612,-120.0382931,5401.021174145,129.59318,0,0.34751969616,18600,2018-05-12 16:38:29,16,0,23.302,5401.021174145,129.59318,0.223694,0.69503939232,0,0,-0.671082,328.7, -0.5, 0.1,0,0,1024,1024,1024,1024,328.6,-89.9,97,3.856,3.896,3.889,3.872,3.89,3.915,18.546,69.8,14,Waypoint,
38.2001611,-120.0382931,5402.005426145,130.577432,0,0.36435040536,18700,2018-05-12 16:38:29,16,0,23.302,5402.005426145,130.577432,0.223694,0.69503939232,0,0,-0.671082,328.7, -0.5, 0,0,0,1024,1024,1024,1024,328.6,-90,97,3.856,3.896,3.889,3.872,3.89,3.915,18.546,69.8,14,Waypoint,
38.2001611,-120.0382931,5402.989678145,131.561684,0,0.36435040536,18800,2018-05-12 16:38:29,16,0,23.302,5402.989678145,131.561684,0.223694,0.69503939232,0,0,-0.671082,328.7, -0.6, 0,0,0,1024,1024,1024,1024,328.6,-90,97,3.856,3.896,3.889,3.872,3.89,3.915,18.546,69.8,14,Waypoint,
38.2001611,-120.038293,5404.958182145,133.530188,0,0.38943242716,19000,2018-05-12 16:38:29,16,0,23.301,5404.958182145,133.530188,0.223694,0.69503939232,0,0,-0.671082,328.5, -0.6, 0,0,0,1024,1024,1024,1024,328.6,-90,97,3.858,3.889,3.892,3.863,3.892,3.916,18.198,69.8,14,Waypoint,
38.2001611,-120.0382931,5405.942434145,134.51444,0,0.36435040536,19200,2018-05-12 16:38:29,16,0,23.301,5405.942434145,134.51444,0.223694,0.69503939232,0,0,-0.671082,328.5, -0.6, 0,0,0,1024,1024,1024,1024,328.6,-90,97,3.858,3.889,3.892,3.863,3.892,3.916,18.198,69.8,14,Waypoint,
38.2001611,-120.0382931,5406.926686145,135.498692,0,0.36435040536,19300,2018-05-12 16:38:29,16,0,23.301,5406.926686145,135.498692,0.223694,0.69503939232,0,0,-0.671082,328.5, -0.5, 0,0,0,1024,1024,1024,1024,328.6,-89.9,97,3.858,3.889,3.892,3.863,3.892,3.916,18.198,69.8,14,Waypoint,
38.2001612,-120.0382931,5408.895190145,137.467196,0,0.34751969616,19400,2018-05-12 16:38:29,16,0,23.301,5408.895190145,137.467196,0.223694,0.69503939232,0,0,-0.671082,328.5, -0.3, -0.1,0,0,1024,1024,1024,1024,328.6,-89.9,97,3.858,3.889,3.892,3.863,3.892,3.916,18.198,69.8,14,Waypoint,
38.2001612,-120.0382931,5409.879442145,138.451448,0,0.34751969616,19500,2018-05-12 16:38:29,16,0,23.301,5409.879442145,138.451448,0.223694,0.69503939232,0,0,-0.671082,328.6, -0.2, -0.1,0,0,1024,1024,1024,1024,328.6,-89.9,97,3.858,3.889,3.892,3.863,3.892,3.916,18.198,69.8,14,Waypoint,
38.2001612,-120.0382932,5411.847946145,140.419952,0,0.321723763576,19700,2018-05-12 16:38:30,16,0,23.301,5411.847946145,140.419952,0.223694,0.69503939232,0,0,-0.671082,328.6, -0.2, 0.1,0,0,1024,1024,1024,1024,328.6,-89.9,97,3.858,3.889,3.892,3.863,3.892,3.916,18.198,69.8,14,Waypoint,
38.2001612,-120.0382933,5412.832198145,141.404204,0,0.2964567024,19800,2018-05-12 16:38:30,16,0,23.301,5412.832198145,141.404204,0.223694,0.69503939232,0,0,-0.671082,328.7, -0.3, 0.2,0,0,1024,1024,1024,1024,328.6,-89.9,97,3.858,3.889,3.892,3.863,3.892,3.916,18.198,69.8,14,Waypoint,
38.2001612,-120.0382933,5413.816450145,142.388456,0,0.2964567024,19900,2018-05-12 16:38:30,16,0,23.301,5413.816450145,142.388456,0.223694,0.69503939232,0,0,-0.671082,328.7, -0.3, 0.2,0,0,1024,1024,1024,1024,328.6,-89.9,97,3.858,3.889,3.892,3.863,3.892,3.916,18.198,69.8,14,Waypoint,
38.2001612,-120.0382933,5414.800702145,143.372708,0,0.2964567024,20000,2018-05-12 16:38:30,16,0,23.274,5414.800702145,143.372708,0.223694,0.69503939232,0,0,-0.671082,328.7, -0.3, 0.2,0,0,1024,1024,1024,1024,328.6,-89.9,97,3.858,3.889,3.892,3.863,3.892,3.916,18.409,69.8,14,Waypoint,
38.2001612,-120.0382933,5415.784954145,144.35696,0,0.2964567024,20100,2018-05-12 16:38:30,16,0,23.274,5415.784954145,144.35696,0.223694,0.69503939232,0,0,-0.671082,328.7, -0.2, 0.2,0,0,1024,1024,1024,1024,328.6,-89.9,97,3.858,3.889,3.892,3.863,3.892,3.916,18.409,69.8,14,Waypoint,
38.2001613,-120.0382934,5416.769206145,145.341212,0,0.25415191102,20200,2018-05-12 16:38:30,16,0,23.274,5416.769206145,145.341212,0.223694,0.69503939232,0,0,-0.671082,328.7, -0.2, 0.2,0,0,1024,1024,1024,1024,328.6,-89.9,97,3.858,3.889,3.892,3.863,3.892,3.916,18.409,69.8,14,Waypoint,
38.2001613,-120.0382934,5417.753458145,146.325464,0,0.25415191102,20300,2018-05-12 16:38:30,16,0,23.274,5417.753458145,146.325464,0.223694,0.69503939232,0,0,-0.671082,328.6, -0.1, 0.2,0,0,1024,1024,1024,1024,328.6,-89.9,97,3.858,3.889,3.892,3.863,3.892,3.916,18.409,69.8,14,Waypoint,
38.2001614,-120.0382934,5418.737710145,147.309716,0,0.24070210744,20400,2018-05-12 16:38:30,16,0,23.274,5418.737710145,147.309716,0.223694,0.69503939232,0,0,-0.671082,328.5, -0.1, 0.1,0,0,1024,1024,1024,1024,328.6,-89.9,97,3.858,3.889,3.892,3.863,3.892,3.916,18.409,69.8,14,Waypoint,
38.2001614,-120.0382934,5419.721962145,148.293968,0,0.24070210744,20500,2018-05-12 16:38:30,16,0,23.274,5419.721962145,148.293968,0.223694,0.69503939232,0,0,-0.671082,328.5, 0, 0,0,0,1024,1024,1024,1024,328.6,-89.9,97,3.858,3.889,3.892,3.863,3.892,3.916,18.409,69.8,14,Waypoint,
38.2001614,-120.0382934,5420.706214145,149.27822,0,0.24070210744,20600,2018-05-12 16:38:31,16,0,23.274,5420.706214145,149.27822,0.223694,0.69503939232,0,0,-0.671082,328.5, 0, 0,0,0,1024,1024,1024,1024,328.6,-89.9,97,3.858,3.889,3.892,3.863,3.892,3.916,18.409,69.8,14,Waypoint,
38.2001614,-120.0382934,5421.690466145,150.262472,0,0.24070210744,20700,2018-05-12 16:38:31,16,0,23.274,5421.690466145,150.262472,0.223694,0.69503939232,0,0,-0.671082,328.5, 0.1, -0.1,0,0,1024,1024,1024,1024,328.6,-89.9,97,3.858,3.889,3.892,3.863,3.892,3.916,18.409,69.8,14,Waypoint,
38.2001615,-120.0382934,5422.674718145,151.246724,0,0.232258537616,20800,2018-05-12 16:38:31,16,0,23.274,5422.674718145,151.246724,0.223694,0.69503939232,0,0,-0.671082,328.5, 0.1, -0.1,0,0,1024,1024,1024,1024,328.6,-89.9,97,3.858,3.889,3.892,3.863,3.892,3.916,18.409,69.8,14,Waypoint,
38.2001615,-120.0382934,5423.658970145,152.230976,0,0.232258537616,20900,2018-05-12 16:38:31,16,0,23.274,5423.658970145,152.230976,0.223694,0.69503939232,0,0,-0.671082,328.5, 0.1, -0.2,0,0,1024,1024,1024,1024,328.6,-89.9,97,3.858,3.889,3.892,3.863,3.892,3.916,18.409,69.8,14,Waypoint,
38.2001616,-120.0382934,5424.643222145,153.215228,0,0.22937500734,21000,2018-05-12 16:38:31,16,0,23.274,5424.643222145,153.215228,0.223694,0.69503939232,0,0,-0.671082,328.5, 0.1, -0.2,0,0,1024,1024,1024,1024,328.6,-89.9,97,3.848,3.887,3.887,3.857,3.883,3.901,18.409,69.8,14,Waypoint,
38.2001616,-120.0382934,5425.627474145,154.19948,0,0.22937500734,21110,2018-05-12 16:38:31,16,0,23.274,5425.627474145,154.19948,0.223694,0.69503939232,0,0,-0.671082,328.6, 0.2, -0.1,0,0,1024,1024,1024,1024,328.6,-89.9,97,3.848,3.887,3.887,3.857,3.883,3.901,18.409,69.8,14,Waypoint,
38.2001616,-120.0382934,5425.627474145,154.19948,0,0.22937500734,21200,2018-05-12 16:38:31,16,0,23.274,5425.627474145,154.19948,0.223694,0.69503939232,0,0,-0.671082,328.6, 0.2, -0.1,0,0,1024,1024,1024,1024,328.6,-89.9,97,3.848,3.887,3.887,3.857,3.883,3.901,18.409,69.8,14,Waypoint,
38.2001616,-120.0382934,5427.595978145,156.167984,0,0.22937500734,21300,2018-05-12 16:38:31,16,0,23.274,5427.595978145,156.167984,0.223694,0.69503939232,0,0,-0.671082,328.4, 0.1, -0.1,0,0,1024,1024,1024,1024,328.6,-89.9,97,3.848,3.887,3.887,3.857,3.883,3.901,18.409,69.8,14,Waypoint,
38.2001617,-120.0382934,5428.580230145,157.152236,0,0.232258537616,21410,2018-05-12 16:38:31,16,0,23.274,5428.580230145,157.152236,0.223694,0.69503939232,0,0,-0.671082,328.4, 0.1, -0.1,0,0,1024,1024,1024,1024,328.6,-89.9,97,3.848,3.887,3.887,3.857,3.883,3.901,18.409,69.8,14,Waypoint,
38.2001617,-120.0382934,5429.564482145,158.136488,0,0.232258537616,21500,2018-05-12 16:38:31,16,0,23.274,5429.564482145,158.136488,0.223694,0.69503939232,0,0,-0.671082,328.3, 0.2, -0.2,0,0,1024,1024,1024,1024,328.6,-89.9,97,3.848,3.887,3.887,3.857,3.883,3.901,18.409,69.8,14,Waypoint,
38.2001617,-120.0382934,5430.548734145,159.12074,0,0.232258537616,21610,2018-05-12 16:38:32,16,0,23.274,5430.548734145,159.12074,0.223694,0.69503939232,0,0,-0.671082,328.3, 0.2, -0.2,0,0,1024,1024,1024,1024,328.6,-89.9,97,3.848,3.887,3.887,3.857,3.883,3.901,18.409,69.8,14,Waypoint,
38.2001617,-120.0382934,5431.532986145,160.104992,0,0.232258537616,21800,2018-05-12 16:38:32,16,0,23.274,5431.532986145,160.104992,0.223694,0.69503939232,0,0,-0.671082,328.3, 0.2, -0.2,0,0,1024,1024,1024,1024,328.6,-89.9,97,3.848,3.887,3.887,3.857,3.883,3.901,18.409,69.8,14,Waypoint,
38.2001617,-120.0382934,5432.517238145,161.089244,0,0.232258537616,21900,2018-05-12 16:38:32,16,0,23.274,5432.517238145,161.089244,0.223694,0.69503939232,0,0,-0.671082,328.3, 0.2, -0.1,0,0,1024,1024,1024,1024,328.6,-89.9,97,3.848,3.887,3.887,3.857,3.883,3.901,18.409,69.8,14,Waypoint,
38.2001618,-120.0382935,5434.485742145,163.057748,0,0.21355643728,22000,2018-05-12 16:38:32,16,0,23.264,5434.485742145,163.057748,0.223694,0.69503939232,0,0,-0.671082,328.4, 0.2, -0.1,0,0,1024,1024,1024,1024,328.6,-89.9,97,3.851,3.894,3.877,3.858,3.886,3.895,18.475,69.8,14,Waypoint,
38.2001617,-120.0382934,5435.469994145,164.042,0,0.232258537616,22200,2018-05-12 16:38:32,16,0,23.264,5435.469994145,164.042,0.223694,0.69503939232,0,0,-0.671082,328.5, 0.2, -0.1,0,0,1024,1024,1024,1024,328.6,-89.9,97,3.851,3.894,3.877,3.858,3.886,3.895,18.475,69.8,14,Waypoint,
38.2001617,-120.0382934,5437.438498145,166.010504,0,0.232258537616,22300,2018-05-12 16:38:32,16,0,23.264,5437.438498145,166.010504,0.223694,0.69503939232,0,0,-0.671082,328.7, 0, 0,0,0,1024,1024,1024,1024,328.6,-89.9,97,3.851,3.894,3.877,3.858,3.886,3.895,18.475,69.8,14,Waypoint,
38.2001617,-120.0382934,5438.422750145,166.994756,0,0.232258537616,22400,2018-05-12 16:38:32,16,0,23.264,5438.422750145,166.994756,0.223694,0.69503939232,0,0,-0.671082,328.9, 0, 0,0,0,1024,1024,1024,1024,328.6,-90,97,3.851,3.894,3.877,3.858,3.886,3.895,18.475,69.8,14,Waypoint,
38.2001617,-120.0382934,5439.407002145,167.979008,0,0.232258537616,22500,2018-05-12 16:38:32,16,0,23.264,5439.407002145,167.979008,0.223694,0.69503939232,0,0,-0.671082,329, -0.1, 0,0,0,1024,1024,1024,1024,328.6,-90,97,3.851,3.894,3.877,3.858,3.886,3.895,18.475,69.8,14,Waypoint,
38.2001617,-120.0382934,5440.391254145,168.96326,0,0.232258537616,22600,2018-05-12 16:38:33,16,0,23.264,5440.391254145,168.96326,0.223694,0.69503939232,0,0,-0.671082,329.1, -0.2, 0,0,0,1024,1024,1024,1024,328.6,-90,97,3.851,3.894,3.877,3.858,3.886,3.895,18.475,69.8,14,Waypoint,
38.2001617,-120.0382933,5441.375506145,169.947512,0,0.2606135254,22700,2018-05-12 16:38:33,16,0,23.264,5441.375506145,169.947512,0.223694,0.69503939232,0,0,-0.671082,329, -0.2, 0,0,0,1024,1024,1024,1024,328.6,-90,97,3.851,3.894,3.877,3.858,3.886,3.895,18.475,69.8,14,Waypoint,
38.2001616,-120.0382933,5442.359758145,170.931764,0,0.258046924268,22800,2018-05-12 16:38:33,16,0,23.264,5442.359758145,170.931764,0.223694,0.69503939232,0,0,-0.671082,328.9, -0.2, -0.1,0,0,1024,1024,1024,1024,328.6,-90,97,3.851,3.894,3.877,3.858,3.886,3.895,18.475,69.8,14,Waypoint,
38.2001616,-120.0382933,5443.344010145,171.916016,0,0.258046924268,22900,2018-05-12 16:38:33,16,0,23.264,5443.344010145,171.916016,0.223694,0.69503939232,0,0,-0.671082,328.7, -0.2, -0.3,0,0,1024,1024,1024,1024,328.6,-90,97,3.851,3.894,3.877,3.858,3.886,3.895,18.475,69.8,14,Waypoint,
38.2001616,-120.0382933,5444.328262145,172.900268,0,0.258046924268,23000,2018-05-12 16:38:33,16,0,23.262,5444.328262145,172.900268,0.223694,0.69503939232,0,0,-0.671082,328.6, -0.2, -0.3,0,0,1024,1024,1024,1024,328.6,-90,97,3.848,3.888,3.884,3.865,3.878,3.891,18.316,69.8,14,Waypoint,
38.2001616,-120.0382933,5445.312514145,173.88452,0,0.258046924268,23100,2018-05-12 16:38:33,16,0,23.262,5445.312514145,173.88452,0.223694,0.69503939232,0,0,-0.671082,328.5, -0.2, -0.2,0,0,1024,1024,1024,1024,328.6,-90,97,3.848,3.888,3.884,3.865,3.878,3.891,18.316,69.8,14,Waypoint,
38.2001615,-120.0382933,5446.296766145,174.868772,0,0.2606135254,23200,2018-05-12 16:38:33,16,0,23.262,5446.296766145,174.868772,0.223694,0.69503939232,0,0,-0.671082,328.5, -0.2, -0.1,0,0,1024,1024,1024,1024,328.6,-90,97,3.848,3.888,3.884,3.865,3.878,3.891,18.316,69.8,14,Waypoint,
38.2001615,-120.0382933,5447.281018145,175.853024,0,0.2606135254,23300,2018-05-12 16:38:33,16,0,23.262,5447.281018145,175.853024,0.223694,0.69503939232,0,0,-0.671082,328.5, -0.3, -0.1,0,0,1024,1024,1024,1024,328.6,-90,97,3.848,3.888,3.884,3.865,3.878,3.891,18.316,69.8,14,Waypoint,
38.2001615,-120.0382932,5448.265270145,176.837276,0,0.289030849144,23400,2018-05-12 16:38:33,16,0,23.262,5448.265270145,176.837276,0.223694,0.69503939232,0,0,-0.671082,328.5, -0.3, -0.1,0,0,1024,1024,1024,1024,328.6,-90,97,3.848,3.888,3.884,3.865,3.878,3.891,18.316,69.8,14,Waypoint,
38.2001615,-120.0382932,5449.577606145,178.149612,0,0.289030849144,23500,2018-05-12 16:38:33,16,0,23.262,5449.577606145,178.149612,0.223694,0.69503939232,0,0,-0.671082,328.5, -0.3, -0.2,0,0,1024,1024,1024,1024,328.6,-90,97,3.848,3.888,3.884,3.865,3.878,3.891,18.316,69.8,14,Waypoint,
38.2001615,-120.0382932,5450.233774145,178.80578,0,0.289030849144,23600,2018-05-12 16:38:34,16,0,23.262,5450.233774145,178.80578,0.223694,0.69503939232,0,0,-0.671082,328.5, -0.4, -0.3,0,0,1024,1024,1024,1024,328.6,-90,97,3.848,3.888,3.884,3.865,3.878,3.891,18.316,69.8,14,Waypoint,
38.2001615,-120.0382931,5451.218026145,179.790032,0,0.317494104648,23700,2018-05-12 16:38:34,16,0,23.262,5451.218026145,179.790032,0.223694,0.69503939232,0,0,-0.671082,328.5, -0.4, -0.4,0,0,1024,1024,1024,1024,328.6,-89.9,97,3.848,3.888,3.884,3.865,3.878,3.891,18.316,69.8,14,Waypoint,
38.2001615,-120.0382931,5452.202278145,180.774284,0,0.317494104648,23800,2018-05-12 16:38:34,16,0,23.262,5452.202278145,180.774284,0.223694,0.69503939232,0,0,-0.671082,328.4, -0.3, -0.5,0,0,1024,1024,1024,1024,328.6,-90,97,3.848,3.888,3.884,3.865,3.878,3.891,18.316,69.8,14,Waypoint,
38.2001614,-120.038293,5453.186530145,181.758536,0,0.35171589052,23930,2018-05-12 16:38:34,16,0,23.262,5453.186530145,181.758536,0.223694,0.69503939232,0,0,-0.671082,328.5, -0.4, -0.5,0,0,1024,1024,1024,1024,328.6,-90,97,3.848,3.888,3.884,3.865,3.878,3.891,18.316,69.8,14,Waypoint,
38.2001614,-120.038293,5454.170782145,182.742788,0,0.35171589052,24000,2018-05-12 16:38:34,16,0,23.246,5454.170782145,182.742788,0.223694,0.69503939232,0,0,-0.671082,328.5, -0.6, -0.4,0,0,1024,1024,1024,1024,328.6,-90,97,3.844,3.898,3.874,3.853,3.889,3.896,18.126,69.8,14,Waypoint,
38.2001614,-120.038293,5455.155034145,183.72704,0,0.35171589052,24100,2018-05-12 16:38:34,16,0,23.246,5455.155034145,183.72704,0.223694,0.69503939232,0,0,-0.671082,328.5, -0.5, -0.3,0,0,1024,1024,1024,1024,328.6,-90,97,3.844,3.898,3.874,3.853,3.889,3.896,18.126,69.8,14,Waypoint,
38.2001614,-120.038293,5456.139286145,184.711292,0,0.35171589052,24210,2018-05-12 16:38:34,16,0,23.246,5456.139286145,184.711292,0.223694,0.69503939232,0,0,-0.671082,328.5, -0.4, -0.3,0,0,1024,1024,1024,1024,328.6,-90,97,3.844,3.898,3.874,3.853,3.889,3.896,18.126,69.8,14,Waypoint,
38.2001614,-120.038293,5457.123538145,185.695544,0,0.35171589052,24400,2018-05-12 16:38:34,16,0,23.246,5457.123538145,185.695544,0.223694,0.69503939232,0,0,-0.671082,328.5, -0.4, -0.3,0,0,1024,1024,1024,1024,328.6,-90,97,3.844,3.898,3.874,3.853,3.889,3.896,18.126,69.8,14,Waypoint,
38.2001614,-120.0382929,5458.107790145,186.679796,0,0.37980972344,24500,2018-05-12 16:38:34,16,0,23.246,5458.107790145,186.679796,0.223694,0.69503939232,0,0,-0.671082,328.5, -0.5, -0.3,0,0,1024,1024,1024,1024,328.6,-90,97,3.844,3.898,3.874,3.853,3.889,3.896,18.126,69.8,14,Waypoint,
38.2001614,-120.0382929,5460.076294145,188.6483,0,0.37980972344,24600,2018-05-12 16:38:35,16,0,23.246,5460.076294145,188.6483,0.223694,0.69503939232,0,0,-0.671082,328.5, -0.5, -0.4,0,0,1024,1024,1024,1024,328.6,-89.9,97,3.844,3.898,3.874,3.853,3.889,3.896,18.126,69.8,14,Waypoint,
38.2001614,-120.0382929,5461.060546145,189.632552,0,0.37980972344,24700,2018-05-12 16:38:35,16,0,23.246,5461.060546145,189.632552,0.223694,0.69503939232,0,0,-0.671082,328.5, -0.3, -0.4,0,0,1024,1024,1024,1024,328.6,-89.9,97,3.844,3.898,3.874,3.853,3.889,3.896,18.126,69.8,14,Waypoint,
38.2001614,-120.0382929,5462.044798145,190.616804,0,0.37980972344,24800,2018-05-12 16:38:35,16,0,23.246,5462.044798145,190.616804,0.223694,0.69503939232,0,0,-0.671082,328.5, -0.2, -0.4,0,0,1024,1024,1024,1024,328.6,-89.9,97,3.844,3.898,3.874,3.853,3.889,3.896,18.126,69.8,14,Waypoint,
38.2001614,-120.0382929,5463.029050145,191.601056,0,0.37980972344,24900,2018-05-12 16:38:35,16,0,23.246,5463.029050145,191.601056,0.223694,0.69503939232,0,0,-0.671082,328.5, -0.2, -0.3,0,0,1024,1024,1024,1024,328.6,-89.9,97,3.844,3.898,3.874,3.853,3.889,3.896,18.126,69.8,14,Waypoint,
38.2001614,-120.038293,5464.013302145,192.585308,0,0.35171589052,25000,2018-05-12 16:38:35,16,0,23.259,5464.013302145,192.585308,0.223694,0.69503939232,0,0,-0.671082,328.6, -0.1, -0.2,0,0,1024,1024,1024,1024,328.6,-89.9,96,3.843,3.885,3.887,3.857,3.887,3.898,17.866,71.6,14,Waypoint,
38.2001614,-120.038293,5464.997554145,193.56956,0,0.35171589052,25100,2018-05-12 16:38:35,16,0,23.259,5464.997554145,193.56956,0.223694,0.69503939232,0,0,-0.671082,328.6, -0.2, 0,0,0,1024,1024,1024,1024,328.6,-89.9,96,3.843,3.885,3.887,3.857,3.887,3.898,17.866,71.6,14,Waypoint,
38.2001614,-120.038293,5465.981806145,194.553812,0,0.35171589052,25200,2018-05-12 16:38:35,16,0,23.259,5465.981806145,194.553812,0.223694,0.69503939232,0,0,-0.671082,328.6, -0.2, 0,0,0,1024,1024,1024,1024,328.6,-90,96,3.843,3.885,3.887,3.857,3.887,3.898,17.866,71.6,14,Waypoint,
38.2001615,-120.038293,5466.966058145,195.538064,0,0.34599082472,25300,2018-05-12 16:38:35,16,0,23.259,5466.966058145,195.538064,0.223694,0.69503939232,0,0,-0.671082,328.5, -0.1, -0.1,0,0,1024,1024,1024,1024,328.6,-89.9,96,3.843,3.885,3.887,3.857,3.887,3.898,17.866,71.6,14,Waypoint,
38.2001615,-120.038293,5467.950310145,196.522316,0,0.34599082472,25400,2018-05-12 16:38:35,16,0,23.259,5467.950310145,196.522316,0.223694,0.69503939232,0,0,-0.671082,328.5, -0.2, -0.2,0,0,1024,1024,1024,1024,328.6,-90,96,3.843,3.885,3.887,3.857,3.887,3.898,17.866,71.6,14,Waypoint,
38.2001615,-120.038293,5468.934562145,197.506568,0,0.34599082472,25500,2018-05-12 16:38:35,16,0,23.259,5468.934562145,197.506568,0.223694,0.69503939232,0,0,-0.671082,328.5, -0.2, -0.3,0,0,1024,1024,1024,1024,328.6,-89.9,96,3.843,3.885,3.887,3.857,3.887,3.898,17.866,71.6,14,Waypoint,
38.2001615,-120.038293,5469.918814145,198.49082,0,0.34599082472,25600,2018-05-12 16:38:36,16,0,23.259,5469.918814145,198.49082,0.223694,0.69503939232,0,0,-0.671082,328.5, -0.2, -0.4,0,0,1024,1024,1024,1024,328.6,-89.9,96,3.843,3.885,3.887,3.857,3.887,3.898,17.866,71.6,14,Waypoint,
38.2001615,-120.038293,5470.903066145,199.475072,0,0.34599082472,25700,2018-05-12 16:38:36,16,0,23.259,5470.903066145,199.475072,0.223694,0.69503939232,0,0,-0.671082,328.5, -0.2, -0.4,0,0,1024,1024,1024,1024,328.6,-89.9,96,3.843,3.885,3.887,3.857,3.887,3.898,17.866,71.6,14,Waypoint,
38.2001615,-120.038293,5471.887318145,200.459324,0,0.34599082472,25800,2018-05-12 16:38:36,16,0,23.259,5471.887318145,200.459324,0.223694,0.69503939232,0,0,-0.671082,328.6, -0.1, -0.4,0,0,1024,1024,1024,1024,328.6,-89.9,96,3.843,3.885,3.887,3.857,3.887,3.898,17.866,71.6,14,Waypoint,
38.2001615,-120.038293,5472.871570145,201.443576,0,0.34599082472,25910,2018-05-12 16:38:36,16,0,23.259,5472.871570145,201.443576,0.223694,0.69503939232,0,0,-0.671082,328.6, -0.1, -0.4,0,0,1024,1024,1024,1024,328.6,-89.9,96,3.843,3.885,3.887,3.857,3.887,3.898,17.866,71.6,14,Waypoint,
38.2001616,-120.038293,5473.855822145,202.427828,0,0.3440616908,26000,2018-05-12 16:38:36,16,0,23.259,5473.855822145,202.427828,0.223694,0.69503939232,0,0,-0.671082,328.6, 0, -0.5,0,0,1024,1024,1024,1024,328.6,-89.9,96,3.85,3.887,3.882,3.859,3.876,3.912,17.906,71.6,14,Waypoint,
38.2001616,-120.0382931,5474.840074145,203.41208,0,0.315390758124,26100,2018-05-12 16:38:36,16,0,23.259,5474.840074145,203.41208,0.223694,0.69503939232,0,0,-0.671082,328.5, 0, -0.5,0,0,1024,1024,1024,1024,328.6,-89.9,96,3.85,3.887,3.882,3.859,3.876,3.912,17.906,71.6,14,Waypoint,
38.2001616,-120.0382931,5476.808578145,205.380584,0,0.315390758124,26300,2018-05-12 16:38:36,16,0,23.259,5476.808578145,205.380584,0.223694,0.69503939232,0,0,-0.671082,328.4, -0.1, -0.3,0,0,1024,1024,1024,1024,328.6,-89.9,96,3.85,3.887,3.882,3.859,3.876,3.912,17.906,71.6,14,Waypoint,
38.2001616,-120.0382931,5477.792830145,206.364836,0,0.315390758124,26410,2018-05-12 16:38:36,16,0,23.259,5477.792830145,206.364836,0.223694,0.69503939232,0,0,-0.671082,328.4, -0.1, -0.4,0,0,1024,1024,1024,1024,328.6,-90,96,3.85,3.887,3.882,3.859,3.876,3.912,17.906,71.6,14,Waypoint,
