latitude,longitude,altitude(feet),ascent(feet),speed(mph),distance(feet),time(millisecond),datetime(utc),satellites,gpslevel,voltage(v),max_altitude(feet),max_ascent(feet),max_speed(mph),max_distance(feet), xSpeed(mph), ySpeed(mph), zSpeed(mph), compass_heading(degrees), pitch(degrees), roll(degrees),isPhoto,isVideo,rc_elevator,rc_aileron,rc_throttle,rc_rudder,gimbal_heading(degrees),gimbal_pitch(degrees),battery_percent,voltageCell1,voltageCell2,voltageCell3,voltageCell4,voltageCell5,voltageCell6,current(A),battery_temperature(f),flycStateRaw,flycState,message
37.2865712,-119.5625788,4499.3468595303,0,0.223694,0,3200,2018-04-11 20:46:57,14,0,0,4499.3468595303,0,0.223694,0,0,0,0,321.1, -0.2, -0.3,1,0,1024,1024,1024,1024,317.4,-89.9,100,4.044,4.018,4.06,4.079,0,0,0,68,11,AutoTakeoff,
37.2865711,-119.5625789,4499.3468595303,0,0.223694,0.046623689156,3300,2018-04-11 20:46:57,14,0,0,4499.3468595303,0,0.223694,0.046623689156,0,0,0,321, 0, 0.2,0,0,1024,1024,1025,1024,317.5,-89.9,100,4.044,4.018,4.06,4.079,0,0,0,68,11,AutoTakeoff,
37.286571,-119.5625791,4499.3468595303,0,0.223694,0.113614504948,3400,2018-04-11 20:46:57,18,0,0,4499.3468595303,0,0.223694,0.113614504948,0,0,0,320.8, 0, 0.6,0,0,1024,1024,1025,1024,317.6,-89.9,100,4.044,4.018,4.06,4.079,0,0,0,68,11,AutoTakeoff,
37.286571,-119.5625794,4499.3468595303,0,0.223694,0.188835964048,3500,2018-04-11 20:46:57,18,0,0,4499.3468595303,0,0.223694,0.188835964048,0,0,0,320.6, 0.2, 1,0,0,1024,1024,1025,1024,317.7,-89.9,100,4.044,4.018,4.06,4.079,0,0,0,68,11,AutoTakeoff,
37.2865709,-119.5625796,4499.6749435303,0.328084,0.223694,0.256726058084,3600,2018-04-11 20:46:57,18,0,0,4499.6749435303,0.328084,0.223694,0.256726058084,0,0,0,320.4, 0.4, 1.6,0,0,1024,1024,1025,1024,317.8,-89.9,100,4.044,4.018,4.06,4.079,0,0,0,68,11,AutoTakeoff,
37.286571,-119.56258,4499.6749435303,0.328084,0.223694,0.35589568068,3700,2018-04-11 20:46:57,18,0,0,4499.6749435303,0.328084,0.223694,0.35589568068,0,0,0,320.1, 1.3, 1.6,0,0,1024,1024,1025,1024,318,-89.9,100,4.044,4.018,4.06,4.079,0,0,0,68,11,AutoTakeoff,
37.2865709,-119.5625802,4500.0030275303,0.656168,0.223694,0.42087271688,3800,2018-04-11 20:46:57,18,0,0,4500.0030275303,0.656168,0.223694,0.42087271688,0,0,0,320, 1.4, 1.6,0,0,1024,1024,1025,1024,318.1,-89.9,100,4.044,4.018,4.06,4.079,0,0,0,68,11,AutoTakeoff,
37.2865709,-119.5625804,4500.0030275303,0.656168,0.223694,0.47717193128,3900,2018-04-11 20:46:57,16,0,0,4500.0030275303,0.656168,0.223694,0.47717193128,0,0,0,320, 1.4, 1.5,0,0,1024,1024,1025,1024,318.2,-89.9,100,4.044,4.018,4.06,4.079,0,0,0,68,11,AutoTakeoff,
37.2865709,-119.5625805,4500.3311115303,0.984252,0.223694,0.50546917628,4000,2018-04-11 20:46:58,16,0,24.342,4500.3311115303,0.984252,0.223694,0.50546917628,0,0,0,319.9, 1.2, 1.5,0,0,1024,1024,1024,1024,318.2,-89.9,100,4.044,4.018,4.06,4.079,0,0,10.523,68,11,AutoTakeoff,
37.286571,-119.5625806,4500.3311115303,0.984252,0.223694,0.5275754762,4100,2018-04-11 20:46:58,17,0,24.342,4500.3311115303,0.984252,0.223694,0.5275754762,0,0,0,320, 0.9, 1.2,0,0,1024,1024,1025,1024,318.3,-89.9,100,4.044,4.018,4.06,4.079,0,0,10.523,68,11,AutoTakeoff,
37.286571,-119.5625808,4500.6591955303,1.312336,0.223694,0.58512797148,4200,2018-04-11 20:46:58,17,0,24.342,4500.6591955303,1.312336,0.223694,0.58512797148,0,0,0,320.1, 1, 1.1,0,0,1024,1024,1025,1024,318.3,-89.9,100,4.044,4.018,4.06,4.079,0,0,10.523,68,11,AutoTakeoff,
37.286571,-119.5625809,4500.6591955303,1.312336,0.223694,0.61394030836,4300,2018-04-11 20:46:58,18,0,24.342,4500.6591955303,1.312336,0.223694,0.61394030836,0,0,0,320.2, 0.9, 1,0,0,1024,1024,1025,1024,318.4,-89.9,100,4.044,4.018,4.06,4.079,0,0,10.523,68,11,AutoTakeoff,
37.286571,-119.5625811,4500.9872795303,1.64042,0.223694,0.6716207564,4400,2018-04-11 20:46:58,18,0,24.342,4500.9872795303,1.64042,0.223694,0.6716207564,0,0,0,320.4, 1, 1.1,0,0,1024,1024,1025,1024,318.4,-89.9,100,4.044,4.018,4.06,4.079,0,0,10.523,68,11,AutoTakeoff,
37.2865711,-119.5625813,4500.9872795303,1.64042,0.223694,0.72661747732,4500,2018-04-11 20:46:58,18,0,24.342,4500.9872795303,1.64042,0.223694,0.72661747732,0,0,0,320.6, 1.2, 1.1,0,0,1024,1024,1025,1024,318.5,-89.9,100,4.044,4.018,4.06,4.079,0,0,10.523,68,11,AutoTakeoff,
37.2865711,-119.5625814,4501.3153635303,1.968504,0.223694,0.7556102604,4600,2018-04-11 20:46:58,18,0,24.342,4501.3153635303,1.968504,0.223694,0.7556102604,0,0,-0.223694,320.8, 1.3, 1.1,0,0,1024,1024,1025,1024,318.5,-89.9,100,4.044,4.018,4.06,4.079,0,0,10.523,68,11,AutoTakeoff,
37.2865711,-119.5625818,4501.6434475303,2.296588,0.223694,0.8716043586,4700,2018-04-11 20:46:58,18,0,24.342,4501.6434475303,2.296588,0.223694,0.8716043586,0,0,-0.223694,320.9, 1.5, 1.4,0,0,1024,1024,1025,1024,318.6,-89.9,100,4.044,4.018,4.06,4.079,0,0,10.523,68,11,AutoTakeoff,
37.2865712,-119.5625819,4501.6434475303,2.296588,0.223694,0.8998687952,4900,2018-04-11 20:46:58,18,0,24.342,4501.6434475303,2.296588,0.223694,0.8998687952,0,0,-0.223694,320.9, 1.7, 1.6,0,0,1024,1024,1025,1024,318.6,-89.9,100,4.044,4.018,4.06,4.079,0,0,10.523,68,11,AutoTakeoff,
37.2865711,-119.5625821,4501.9715315303,2.624672,0.223694,0.95861879708,5000,2018-04-11 20:46:59,18,0,23.932,4501.9715315303,2.624672,0.223694,0.95861879708,0,0,-0.223694,320.9, 1.9, 1.8,0,0,1024,1024,1025,1024,318.7,-89.9,100,3.984,3.966,3.992,3.992,0,0,16.474,68,11,AutoTakeoff,
37.2865711,-119.5625822,4501.9715315303,2.624672,0,0.98762470352,5100,2018-04-11 20:46:59,19,0,23.932,4501.9715315303,2.624672,0.223694,0.98762470352,0,0,0,320.9, 1.9, 2,0,0,1024,1024,1025,1024,318.7,-89.9,100,3.984,3.966,3.992,3.992,0,0,16.474,68,11,AutoTakeoff,
37.2865712,-119.5625824,4502.2996155303,2.952756,0,1.04500659512,5300,2018-04-11 20:46:59,18,0,23.932,4502.2996155303,2.952756,0.223694,1.04500659512,0,0,0,320.8, 2, 2.2,0,0,1024,1024,1025,1024,318.8,-89.9,100,3.984,3.966,3.992,3.992,0,0,16.474,68,14,Waypoint,
37.2865712,-119.5625824,4502.2996155303,2.952756,0,1.04500659512,5400,2018-04-11 20:46:59,18,0,23.932,4502.2996155303,2.952756,0.223694,1.04500659512,0,0,0,320.8, 1.6, 1.8,0,0,1024,1024,1025,1024,318.8,-89.9,100,3.984,3.966,3.992,3.992,0,0,16.474,68,14,Waypoint,
37.2865712,-119.5625824,4502.6276995303,3.28084,0,1.04500659512,5500,2018-04-11 20:46:59,17,0,23.932,4502.6276995303,3.28084,0.223694,1.04500659512,0,0,0,320.9, 1, 1.3,0,0,1024,1024,1025,1024,318.9,-90,100,3.984,3.966,3.992,3.992,0,0,16.474,68,14,Waypoint,
37.2865712,-119.5625824,4502.6276995303,3.28084,0,1.04500659512,5600,2018-04-11 20:46:59,17,0,23.932,4502.6276995303,3.28084,0.223694,1.04500659512,0,0,0,320.9, 0.7, 0.9,0,0,1024,1024,1025,1024,318.9,-90,100,3.984,3.966,3.992,3.992,0,0,16.474,68,14,Waypoint,
37.2865713,-119.5625825,4502.6276995303,3.28084,0,1.0746555462,5700,2018-04-11 20:46:59,17,0,23.932,4502.6276995303,3.28084,0.223694,1.0746555462,0,0,0,320.9, 0.8, 0.7,0,0,1024,1024,1025,1024,318.9,-90,100,3.984,3.966,3.992,3.992,0,0,16.474,68,14,Waypoint,
37.2865713,-119.5625825,4502.9557835303,3.608924,0,1.0746555462,5800,2018-04-11 20:46:59,17,0,23.932,4502.9557835303,3.608924,0.223694,1.0746555462,0,0,0,321, 1.1, 0.6,0,0,1024,1024,1025,1024,319,-89.9,100,3.984,3.966,3.992,3.992,0,0,16.474,68,14,Waypoint,
37.2865712,-119.5625825,4502.9557835303,3.608924,0,1.07403546744,5900,2018-04-11 20:46:59,17,0,23.932,4502.9557835303,3.608924,0.223694,1.0746555462,0,0,-0.223694,321, 1.1, 0.8,0,0,1024,1024,1025,1024,319,-89.9,100,3.984,3.966,3.992,3.992,0,0,16.474,68,14,Waypoint,
37.2865712,-119.5625825,4503.2838675303,3.937008,0,1.07403546744,6000,2018-04-11 20:47:00,17,0,23.845,4503.2838675303,3.937008,0.223694,1.0746555462,0,0,-0.223694,321.1, 1, 1,0,0,1024,1024,1025,1024,319,-90,100,3.984,3.966,3.992,3.992,0,0,16.592,68,14,Waypoint,
37.2865713,-119.5625826,4503.6119515303,4.265092,0,1.10366801432,6100,2018-04-11 20:47:00,17,0,23.845,4503.6119515303,4.265092,0.223694,1.10366801432,0,0,-0.223694,321.1, 0.9, 1.2,0,0,1024,1024,1025,1024,319.1,-90,100,3.984,3.966,3.992,3.992,0,0,16.592,68,14,Waypoint,
37.2865713,-119.5625826,4503.9400355303,4.593176,0,1.10366801432,6200,2018-04-11 20:47:00,17,0,23.845,4503.9400355303,4.593176,0.223694,1.10366801432,0,0,-0.223694,321.1, 0.9, 1.3,0,0,1024,1024,1025,1024,319.1,-90,100,3.984,3.966,3.992,3.992,0,0,16.592,68,14,Waypoint,
37.2865713,-119.5625826,4504.2681195303,4.92126,0,1.10366801432,6300,2018-04-11 20:47:00,17,0,23.845,4504.2681195303,4.92126,0.223694,1.10366801432,0,0,-0.223694,321.1, 0.8, 1.2,0,0,1024,1024,1025,1024,319.2,-89.9,100,3.984,3.966,3.992,3.992,0,0,16.592,68,14,Waypoint,
37.2865714,-119.5625826,4504.9242875303,5.577428,0,1.10547575716,6400,2018-04-11 20:47:00,17,0,23.845,4504.9242875303,5.577428,0.223694,1.10547575716,0,0,-0.447388,321, 0.7, 1.2,0,0,1024,1024,1025,1024,319.2,-89.9,100,3.984,3.966,3.992,3.992,0,0,16.592,68,14,Waypoint,
37.2865716,-119.5625827,4505.5804555303,6.233596,0,1.14146001028,6500,2018-04-11 20:47:00,18,0,23.845,4505.5804555303,6.233596,0.223694,1.14146001028,0,0,-0.447388,320.9, 0.9, 1.3,0,0,1024,1024,1025,1024,319.2,-89.9,100,3.984,3.966,3.992,3.992,0,0,16.592,68,14,Waypoint,
37.2865719,-119.562583,4506.8927915303,7.545932,0,1.24563980364,6800,2018-04-11 20:47:00,17,0,23.845,4506.8927915303,7.545932,0.223694,1.24563980364,0,0,-0.447388,320.8, 1.8, 1.3,0,0,1024,1024,1025,1024,319.3,-89.9,100,3.984,3.966,3.992,3.992,0,0,16.592,68,14,Waypoint,
37.2865726,-119.562583,4509.8455475303,10.498688,0,1.32185371684,6910,2018-04-11 20:47:00,17,0,23.845,4509.8455475303,10.498688,0.223694,1.32185371684,0,0,-0.671082,320.8, 2.4, 1,0,0,1024,1024,1025,1024,319.3,-89.9,100,3.984,3.966,3.992,3.992,0,0,16.592,68,14,Waypoint,
37.2865728,-119.5625829,4510.8297995303,11.48294,0,1.32560371696,7100,2018-04-11 20:47:01,19,0,23.845,4510.8297995303,11.48294,0.223694,1.32560371696,0,0,-0.671082,320.8, 2.5, 0.7,0,0,1024,1024,1025,1024,319.3,-89.9,100,3.984,3.966,3.992,3.992,0,0,16.592,68,14,Waypoint,
37.286573,-119.5625828,4511.8140515303,12.467192,0,1.33397642064,7200,2018-04-11 20:47:01,19,0,23.845,4511.8140515303,12.467192,0.223694,1.33397642064,0,0,-0.671082,320.7, 2.5, 0.3,0,0,1024,1024,1025,1024,319.4,-89.9,100,3.984,3.966,3.992,3.992,0,0,16.592,68,14,Waypoint,
37.2865732,-119.5625827,4513.1263875303,13.779528,0,1.3468832452,7300,2018-04-11 20:47:01,18,0,23.845,4513.1263875303,13.779528,0.223694,1.3468832452,0,0,-0.671082,320.5, 2.5, 0,0,0,1024,1024,1025,1024,319.4,-89.9,100,3.984,3.966,3.992,3.992,0,0,16.592,68,14,Waypoint,
37.2865733,-119.5625826,4514.1106395303,14.76378,0,1.34305122408,7400,2018-04-11 20:47:01,18,0,23.845,4514.1106395303,14.76378,0.223694,1.3468832452,0,0,-0.671082,320.5, 2.3, -0.3,0,0,1024,1024,1025,1024,319.4,-89.9,100,3.984,3.966,3.992,3.992,0,0,16.592,68,14,Waypoint,
37.2865734,-119.5625825,4515.0948915303,15.748032,0,1.3408300954,7500,2018-04-11 20:47:01,19,0,23.845,4515.0948915303,15.748032,0.223694,1.3468832452,0,0,-0.671082,320.5, 2, -0.3,0,0,1024,1024,1025,1024,319.4,-89.9,100,3.984,3.966,3.992,3.992,0,0,16.592,68,14,Waypoint,
37.2865735,-119.5625823,4516.4072275303,17.060368,0,1.31772313928,7600,2018-04-11 20:47:01,19,0,23.845,4516.4072275303,17.060368,0.223694,1.3468832452,0,0,-0.671082,320.7, 1.9, -0.4,0,0,1024,1024,1025,1024,319.5,-89.9,100,3.984,3.966,3.992,3.992,0,0,16.592,68,14,Waypoint,
37.2865735,-119.5625822,4517.3914795303,18.04462,0,1.2954724824,7700,2018-04-11 20:47:01,19,0,23.845,4517.3914795303,18.04462,0.223694,1.3468832452,0,0,-0.671082,320.9, 1.7, -0.5,0,0,1024,1024,1025,1024,319.5,-89.9,100,3.984,3.966,3.992,3.992,0,0,16.592,68,14,Waypoint,
37.2865735,-119.5625821,4518.3757315303,19.028872,0,1.27349741608,7800,2018-04-11 20:47:01,19,0,23.845,4518.3757315303,19.028872,0.223694,1.3468832452,0,0,-0.671082,321.1, 1.4, -0.6,0,0,1024,1024,1025,1024,319.5,-89.9,100,3.984,3.966,3.992,3.992,0,0,16.592,68,14,Waypoint,
37.2865735,-119.5625821,4519.3599835303,20.013124,0,1.27349741608,7900,2018-04-11 20:47:01,20,0,23.845,4519.3599835303,20.013124,0.223694,1.3468832452,0,0,-0.671082,321.2, 1.5, -0.4,0,0,1024,1024,1025,1024,319.5,-89.9,100,3.984,3.966,3.992,3.992,0,0,16.592,68,14,Waypoint,
37.2865734,-119.5625821,4520.6723195303,21.32546,0.223694,1.24975725784,8000,2018-04-11 20:47:02,20,0,23.521,4520.6723195303,21.32546,0.223694,1.3468832452,0,0,-0.671082,321.3, 1.7, 0,0,0,1024,1024,1025,1024,319.5,-89.9,100,3.925,3.868,3.899,3.893,0,0,18.657,68,14,Waypoint,
37.2865733,-119.5625822,4521.6565715303,22.309712,0.223694,1.24944557804,8100,2018-04-11 20:47:02,19,0,23.521,4521.6565715303,22.309712,0.223694,1.3468832452,0,0,-0.671082,321.3, 1.8, 0.4,0,0,1024,1024,1025,1024,319.6,-89.9,100,3.925,3.868,3.899,3.893,0,0,18.657,68,14,Waypoint,
37.2865731,-119.5625823,4522.6408235303,23.293964,0.223694,1.22994426508,8200,2018-04-11 20:47:02,19,0,23.521,4522.6408235303,23.293964,0.223694,1.3468832452,0,0,-0.671082,321.2, 1.7, 0.9,0,0,1024,1024,1025,1024,319.6,-89.9,100,3.925,3.868,3.899,3.893,0,0,18.657,68,14,Waypoint,
37.286573,-119.5625824,4523.9531595303,24.6063,0.223694,1.23423232296,8300,2018-04-11 20:47:02,20,0,23.521,4523.9531595303,24.6063,0.223694,1.3468832452,0,0,-0.671082,321.2, 1.6, 1.5,0,0,1024,1024,1025,1024,319.6,-89.9,100,3.925,3.868,3.899,3.893,0,0,18.657,68,14,Waypoint,
37.2865729,-119.5625824,4524.9374115303,25.590552,0.223694,1.21521329348,8400,2018-04-11 20:47:02,20,0,23.521,4524.9374115303,25.590552,0.223694,1.3468832452,0,0,-0.671082,321, 1.6, 1.8,0,0,1024,1024,1025,1024,319.6,-89.9,100,3.925,3.868,3.899,3.893,0,0,18.657,68,14,Waypoint,
37.2865728,-119.5625825,4525.9216635303,26.574804,0.223694,1.22242786064,8500,2018-04-11 20:47:02,18,0,23.521,4525.9216635303,26.574804,0.223694,1.3468832452,0,0,-0.671082,320.8, 1.6, 2.1,0,0,1024,1024,1025,1024,319.6,-89.9,100,3.925,3.868,3.899,3.893,0,0,18.657,68,14,Waypoint,
37.2865726,-119.5625826,4526.9059155303,27.559056,0.223694,1.21558730924,8600,2018-04-11 20:47:02,18,0,23.521,4526.9059155303,27.559056,0.223694,1.3468832452,0,0,-0.671082,320.7, 1.5, 2.2,0,0,1024,1024,1025,1024,319.7,-89.9,100,3.925,3.868,3.899,3.893,0,0,18.657,68,14,Waypoint,
37.2865724,-119.5625826,4528.2182515303,28.871392,0.223694,1.18677497236,8700,2018-04-11 20:47:02,20,0,23.521,4528.2182515303,28.871392,0.223694,1.3468832452,0,0,-0.671082,320.6, 1.1, 2.1,0,0,1024,1024,1025,1024,319.7,-89.9,100,3.925,3.868,3.899,3.893,0,0,18.657,68,14,Waypoint,
37.2865722,-119.5625827,4529.2025035303,29.855644,0.223694,1.18943245276,8800,2018-04-11 20:47:02,20,0,23.521,4529.2025035303,29.855644,0.223694,1.3468832452,0,0,-0.671082,320.5, 0.8, 2,0,0,1024,1024,1025,1024,319.7,-90,100,3.925,3.868,3.899,3.893,0,0,18.657,68,14,Waypoint,
37.2865721,-119.5625827,4530.1867555303,30.839896,0.223694,1.17875003772,8900,2018-04-11 20:47:02,20,0,23.521,4530.1867555303,30.839896,0.223694,1.3468832452,0,0,-0.671082,320.6, 0.7, 1.9,0,0,1024,1024,1025,1024,319.7,-89.9,100,3.925,3.868,3.899,3.893,0,0,18.657,68,14,Waypoint,
37.2865717,-119.562583,4533.4675955303,34.120736,0,1.23274938328,9120,2018-04-11 20:47:03,20,0,23.521,4533.4675955303,34.120736,0.223694,1.3468832452,0,0,-0.671082,320.8, 1.1, 2,0,0,1024,1024,1025,1024,319.7,-89.9,100,3.925,3.868,3.899,3.893,0,0,18.657,68,14,Waypoint,
37.2865717,-119.562583,4533.4675955303,34.120736,0,1.23274938328,9200,2018-04-11 20:47:03,20,0,23.521,4533.4675955303,34.120736,0.223694,1.3468832452,0,0,-0.671082,320.8, 1.1, 2,0,0,1024,1024,1025,1024,319.7,-89.9,100,3.925,3.868,3.899,3.893,0,0,18.657,68,14,Waypoint,
37.2865716,-119.5625831,4534.4518475303,35.104988,0,1.25670607696,9300,2018-04-11 20:47:03,21,0,23.521,4534.4518475303,35.104988,0.223694,1.3468832452,0,0,-0.671082,320.8, 1.2, 2,0,0,1024,1024,1025,1024,319.7,-89.9,100,3.925,3.868,3.899,3.893,0,0,18.657,68,14,Waypoint,
37.2865715,-119.5625832,4535.4360995303,36.08924,0,1.28191277068,9400,2018-04-11 20:47:03,21,0,23.521,4535.4360995303,36.08924,0.223694,1.3468832452,0,0,-0.671082,320.8, 1.3, 2.2,0,0,1024,1024,1025,1024,319.7,-89.9,100,3.925,3.868,3.899,3.893,0,0,18.657,68,14,Waypoint,
37.2865714,-119.5625833,4536.4203515303,37.073492,0,1.30829728596,9500,2018-04-11 20:47:03,20,0,23.521,4536.4203515303,37.073492,0.223694,1.3468832452,0,0,-0.671082,320.8, 1.3, 2.4,0,0,1024,1024,1025,1024,319.8,-89.9,100,3.925,3.868,3.899,3.893,0,0,18.657,68,14,Waypoint,
37.2865713,-119.5625834,4537.4046035303,38.057744,0,1.33578416348,9600,2018-04-11 20:47:03,20,0,23.521,4537.4046035303,38.057744,0.223694,1.3468832452,0,0,-0.671082,320.7, 1.4, 2.4,0,0,1024,1024,1025,1024,319.8,-89.9,100,3.925,3.868,3.899,3.893,0,0,18.657,68,14,Waypoint,
37.2865713,-119.5625834,4538.3888555303,39.041996,0,1.33578416348,9700,2018-04-11 20:47:03,20,0,23.521,4538.3888555303,39.041996,0.223694,1.3468832452,0,0,-0.671082,320.7, 1.4, 2.2,0,0,1024,1024,1025,1024,319.8,-89.9,100,3.925,3.868,3.899,3.893,0,0,18.657,68,14,Waypoint,
37.2865712,-119.5625834,4539.3731075303,40.026248,0,1.33528875664,9800,2018-04-11 20:47:03,20,0,23.521,4539.3731075303,40.026248,0.223694,1.3468832452,0,0,-0.671082,320.8, 1.3, 1.9,0,0,1024,1024,1025,1024,319.8,-89.9,100,3.925,3.868,3.899,3.893,0,0,18.657,68,14,Waypoint,
37.2865712,-119.5625834,4540.3573595303,41.0105,0,1.33528875664,9900,2018-04-11 20:47:03,19,0,23.521,4540.3573595303,41.0105,0.223694,1.3468832452,0,0,-0.671082,320.8, 1.3, 1.6,0,0,1024,1024,1025,1024,319.8,-89.9,100,3.925,3.868,3.899,3.893,0,0,18.657,68,14,Waypoint,
37.2865712,-119.5625834,4541.3416115303,41.994752,0,1.33528875664,10000,2018-04-11 20:47:04,19,0,23.447,4541.3416115303,41.994752,0.223694,1.3468832452,0,0,-0.671082,320.9, 1.5, 1.3,0,0,1024,1024,1024,1024,319.8,-89.9,98,3.906,3.891,3.919,3.903,0,0,18.372,68,14,Waypoint,
37.2865713,-119.5625834,4542.3258635303,42.979004,0,1.33578416348,10100,2018-04-11 20:47:04,19,0,23.447,4542.3258635303,42.979004,0.223694,1.3468832452,0,0,-0.671082,321, 1.7, 1.1,0,0,1024,1024,1025,1024,319.8,-89.9,98,3.906,3.891,3.919,3.903,0,0,18.372,68,14,Waypoint,
37.2865713,-119.5625835,4543.3101155303,43.963256,0,1.36480319328,10200,2018-04-11 20:47:04,19,0,23.447,4543.3101155303,43.963256,0.223694,1.36480319328,0,0,-0.671082,321, 1.9, 0.9,0,0,1024,1024,1025,1024,319.8,-89.9,98,3.906,3.891,3.919,3.903,0,0,18.372,68,14,Waypoint,
37.2865714,-119.5625835,4544.2943675303,44.947508,0,1.36626644792,10300,2018-04-11 20:47:04,20,0,23.447,4544.2943675303,44.947508,0.223694,1.36626644792,0,0,-0.671082,321.1, 2.1, 0.9,0,0,1024,1024,1025,1024,319.8,-89.9,98,3.906,3.891,3.919,3.903,0,0,18.372,68,14,Waypoint,
37.2865714,-119.5625835,4545.2786195303,45.93176,0,1.36626644792,10400,2018-04-11 20:47:04,20,0,23.447,4545.2786195303,45.93176,0.223694,1.36626644792,0,0,-0.671082,321, 2.2, 1,0,0,1024,1024,1025,1024,319.8,-89.9,98,3.906,3.891,3.919,3.903,0,0,18.372,68,14,Waypoint,
37.2865714,-119.5625835,4546.2628715303,46.916012,0,1.36626644792,10500,2018-04-11 20:47:04,20,0,23.447,4546.2628715303,46.916012,0.223694,1.36626644792,0,0,-0.671082,321.1, 2.1, 0.9,0,0,1024,1024,1025,1024,319.8,-89.9,98,3.906,3.891,3.919,3.903,0,0,18.372,68,14,Waypoint,
37.2865715,-119.5625835,4547.2471235303,47.900264,0,1.36869755036,10600,2018-04-11 20:47:04,20,0,23.447,4547.2471235303,47.900264,0.223694,1.36869755036,0,0,-0.671082,321.2, 2.2, 0.9,0,0,1024,1024,1025,1024,319.8,-89.9,98,3.906,3.891,3.919,3.903,0,0,18.372,68,14,Waypoint,
37.2865716,-119.5625834,4548.2313755303,48.884516,0,1.34323823196,10700,2018-04-11 20:47:04,20,0,23.447,4548.2313755303,48.884516,0.223694,1.36869755036,0,0,-0.671082,321.3, 2.1, 1,0,0,1024,1024,1025,1024,319.8,-89.9,98,3.906,3.891,3.919,3.903,0,0,18.372,68,14,Waypoint,
37.2865716,-119.5625835,4549.2156275303,49.868768,0,1.37209978144,10900,2018-04-11 20:47:04,20,0,23.447,4549.2156275303,49.868768,0.223694,1.37209978144,0,0,-0.671082,321.3, 2.4, 1.5,0,0,1024,1024,1025,1024,319.8,-89.9,98,3.906,3.891,3.919,3.903,0,0,18.372,68,14,Waypoint,
37.2865716,-119.5625835,4550.1998795303,50.85302,0,1.37209978144,11000,2018-04-11 20:47:05,20,0,23.509,4550.1998795303,50.85302,0.223694,1.37209978144,0,0,-0.671082,321.2, 2.7, 1.7,0,0,1024,1024,1025,1024,319.8,-89.9,98,3.907,3.895,3.919,3.907,0,0,17.92,68,14,Waypoint,
37.2865717,-119.5625836,4551.5122155303,52.165356,0,1.4052329846,11100,2018-04-11 20:47:05,20,0,23.509,4551.5122155303,52.165356,0.223694,1.4052329846,0,0,-0.671082,321.1, 2.9, 1.9,0,0,1024,1024,1025,1024,319.8,-89.9,98,3.907,3.895,3.919,3.907,0,0,17.92,68,14,Waypoint,
37.2865718,-119.5625837,4553.4807195303,54.13386,0,1.43911750012,11200,2018-04-11 20:47:05,20,0,23.509,4553.4807195303,54.13386,0.223694,1.43911750012,0,0,-0.671082,320.5, 2.7, 2.3,0,0,1024,1024,1025,1024,319.8,-89.9,98,3.907,3.895,3.919,3.907,0,0,17.92,68,14,Waypoint,
37.2865719,-119.5625837,4555.4492235303,56.102364,0,1.44511815648,11400,2018-04-11 20:47:05,20,0,23.509,4555.4492235303,56.102364,0.223694,1.44511815648,0,0,-0.671082,320.2, 2.8, 1.6,0,0,1024,1024,1025,1024,319.8,-89.9,98,3.907,3.895,3.919,3.907,0,0,17.92,68,14,Waypoint,
37.286572,-119.5625837,4556.4334755303,57.086616,0,1.45201120132,11500,2018-04-11 20:47:05,20,0,23.509,4556.4334755303,57.086616,0.223694,1.45201120132,0,0,-0.671082,320.2, 2.9, 0.9,0,0,1024,1024,1025,1024,319.8,-89.9,98,3.907,3.895,3.919,3.907,0,0,17.92,68,14,Waypoint,
37.2865721,-119.5625837,4557.4177275303,58.070868,0,1.45978023044,11600,2018-04-11 20:47:05,20,0,23.509,4557.4177275303,58.070868,0.223694,1.45978023044,0,0,-0.671082,320.2, 3, 0.9,0,0,1024,1024,1025,1024,319.8,-89.9,98,3.907,3.895,3.919,3.907,0,0,17.92,68,14,Waypoint,
37.2865722,-119.5625837,4558.4019795303,59.05512,0,1.46841868216,11700,2018-04-11 20:47:05,20,0,23.509,4558.4019795303,59.05512,0.223694,1.46841868216,0,0,-0.671082,320.5, 3.2, 1,0,0,1024,1024,1025,1024,319.8,-89.9,98,3.907,3.895,3.919,3.907,0,0,17.92,68,14,Waypoint,
37.2865723,-119.5625837,4559.3862315303,60.039372,0,1.47790687144,11800,2018-04-11 20:47:05,20,0,23.509,4559.3862315303,60.039372,0.223694,1.47790687144,0,0,-0.671082,320.8, 3.6, 1.2,0,0,1024,1024,1025,1024,319.8,-89.9,98,3.907,3.895,3.919,3.907,0,0,17.92,68,14,Waypoint,
37.2865725,-119.5625838,4561.3547355303,62.007876,0,1.52693246356,12000,2018-04-11 20:47:06,20,0,23.396,4561.3547355303,62.007876,0.223694,1.52693246356,0,0,-0.671082,321.5, 4.3, 1.5,0,0,1024,1024,1024,1024,319.8,-89.9,98,3.907,3.895,3.919,3.907,0,0,18.724,68,14,Waypoint,
37.2865728,-119.562584,4563.3232395303,63.97638,0,1.61840228276,12200,2018-04-11 20:47:06,20,0,23.396,4563.3232395303,63.97638,0.223694,1.61840228276,0,0,-0.671082,321.8, 4.7, 1.8,0,0,1024,1024,1025,1024,319.8,-89.9,98,3.907,3.895,3.919,3.907,0,0,18.724,68,14,Waypoint,
37.2865729,-119.562584,4564.3074915303,64.960632,0,1.63191934356,12300,2018-04-11 20:47:06,20,0,23.396,4564.3074915303,64.960632,0.223694,1.63191934356,0,0,-0.671082,321.8, 4.8, 1.8,0,0,1024,1024,1025,1024,319.8,-89.9,98,3.907,3.895,3.919,3.907,0,0,18.724,68,14,Waypoint,
37.2865731,-119.5625842,4566.2759955303,66.929136,0,1.71395346692,12500,2018-04-11 20:47:06,20,0,23.396,4566.2759955303,66.929136,0.223694,1.71395346692,0,0,-0.671082,321.6, 5.2, 1.9,0,0,1024,1024,1025,1024,319.8,-89.9,98,3.907,3.895,3.919,3.907,0,0,18.724,68,14,Waypoint,
37.2865732,-119.5625843,4567.2602475303,67.913388,0,1.75539047612,12600,2018-04-11 20:47:06,20,0,23.396,4567.2602475303,67.913388,0.223694,1.75539047612,0,0,-0.671082,321.5, 5.3, 1.9,0,0,1024,1024,1025,1024,319.8,-89.9,98,3.907,3.895,3.919,3.907,0,0,18.724,68,14,Waypoint,
37.2865733,-119.5625844,4568.2444995303,68.89764,0,1.79708339084,12700,2018-04-11 20:47:06,20,0,23.396,4568.2444995303,68.89764,0.223694,1.79708339084,0,0,-0.671082,321.3, 5.3, 1.9,0,0,1024,1024,1025,1024,319.8,-89.9,98,3.907,3.895,3.919,3.907,0,0,18.724,68,14,Waypoint,
37.2865734,-119.5625844,4569.2287515303,69.881892,0,1.81293969056,12800,2018-04-11 20:47:06,20,0,23.396,4569.2287515303,69.881892,0.223694,1.81293969056,0,0,-0.671082,321.2, 5.4, 2,0,0,1024,1024,1025,1024,319.8,-89.9,98,3.907,3.895,3.919,3.907,0,0,18.724,68,14,Waypoint,
37.2865734,-119.5625845,4570.2130035303,70.866144,0,1.83901252604,12900,2018-04-11 20:47:06,20,0,23.396,4570.2130035303,70.866144,0.223694,1.83901252604,0,0,-0.671082,321.1, 5.5, 2.2,0,0,1024,1024,1025,1024,319.8,-89.9,98,3.907,3.895,3.919,3.907,0,0,18.724,68,14,Waypoint,
37.2865736,-119.5625846,4572.1815075303,72.834648,0,1.89771659616,13110,2018-04-11 20:47:07,21,0,23.396,4572.1815075303,72.834648,0.223694,1.89771659616,0,0,-0.671082,320.9, 4.9, 2,0,0,1024,1024,1025,1024,319.8,-89.9,98,3.907,3.895,3.919,3.907,0,0,18.724,68,14,Waypoint,
37.2865736,-119.5625846,4573.1657595303,73.8189,0,1.89771659616,13200,2018-04-11 20:47:07,21,0,23.396,4573.1657595303,73.8189,0.223694,1.89771659616,0,0,-0.671082,320.8, 4.8, 1.7,0,0,1024,1024,1025,1024,319.8,-89.9,98,3.907,3.895,3.919,3.907,0,0,18.724,68,14,Waypoint,
37.2865737,-119.5625846,4574.1500115303,74.803152,0,1.91482617676,13300,2018-04-11 20:47:07,21,0,23.396,4574.1500115303,74.803152,0.223694,1.91482617676,0,0,-0.671082,320.8, 4.7, 1.7,0,0,1024,1024,1025,1024,319.8,-89.9,98,3.907,3.895,3.919,3.907,0,0,18.724,68,14,Waypoint,
37.2865737,-119.5625846,4575.1342635303,75.787404,0,1.91482617676,13500,2018-04-11 20:47:07,21,0,23.396,4575.1342635303,75.787404,0.223694,1.91482617676,0,0,-0.671082,320.8, 4.8, 1.7,0,0,1024,1024,1025,1024,319.8,-89.9,98,3.907,3.895,3.919,3.907,0,0,18.724,68,14,Waypoint,
37.2865737,-119.5625846,4577.1027675303,77.755908,0,1.91482617676,13600,2018-04-11 20:47:07,21,0,23.396,4577.1027675303,77.755908,0.223694,1.91482617676,0,0,-0.671082,320.8, 4.5, 2,0,0,1024,1024,1025,1024,319.8,-89.9,98,3.907,3.895,3.919,3.907,0,0,18.724,68,14,Waypoint,
37.2865737,-119.5625846,4579.0712715303,79.724412,0,1.91482617676,13710,2018-04-11 20:47:07,21,0,23.396,4579.0712715303,79.724412,0.223694,1.91482617676,0,0,-0.671082,320.9, 4.4, 2,0,0,1024,1024,1025,1024,319.8,-89.9,98,3.907,3.895,3.919,3.907,0,0,18.724,68,14,Waypoint,
37.2865737,-119.5625845,4580.0555235303,80.708664,0,1.889353735,13900,2018-04-11 20:47:07,21,0,23.396,4580.0555235303,80.708664,0.223694,1.91482617676,0,0,-0.671082,320.9, 4.4, 2,0,0,1024,1024,1025,1024,319.8,-89.9,98,3.907,3.895,3.919,3.907,0,0,18.724,68,14,Waypoint,
37.2865737,-119.5625845,4581.0397755303,81.692916,0.223694,1.889353735,14000,2018-04-11 20:47:08,21,0,23.332,4581.0397755303,81.692916,0.223694,1.91482617676,0,0,-0.671082,321, 4.4, 2,0,0,1024,1024,1025,1024,319.8,-89.9,98,3.879,3.86,3.881,3.881,0,0,18.46,68,14,Waypoint,
37.2865737,-119.5625845,4582.0240275303,82.677168,0.223694,1.889353735,14100,2018-04-11 20:47:08,21,0,23.332,4582.0240275303,82.677168,0.223694,1.91482617676,0,0,-0.671082,321, 4.3, 2,0,0,1024,1024,1025,1024,319.8,-89.9,98,3.879,3.86,3.881,3.881,0,0,18.46,68,14,Waypoint,
37.2865736,-119.5625845,4583.0082795303,83.66142,0.223694,1.87201121476,14200,2018-04-11 20:47:08,21,0,23.332,4583.0082795303,83.66142,0.223694,1.91482617676,0,0,-0.671082,320.9, 4.3, 2,0,0,1024,1024,1025,1024,319.8,-89.9,98,3.879,3.86,3.881,3.881,0,0,18.46,68,14,Waypoint,
37.2865736,-119.5625845,4583.9925315303,84.645672,0.223694,1.87201121476,14300,2018-04-11 20:47:08,21,0,23.332,4583.9925315303,84.645672,0.223694,1.91482617676,0,0,-0.671082,320.8, 4.3, 2.1,0,0,1024,1024,1025,1024,319.8,-89.9,98,3.879,3.86,3.881,3.881,0,0,18.46,68,14,Waypoint,
37.2865736,-119.5625844,4584.9767835303,85.629924,0.223694,1.84640425856,14400,2018-04-11 20:47:08,21,0,23.332,4584.9767835303,85.629924,0.223694,1.91482617676,0,0,-0.671082,320.8, 4.2, 2,0,0,1024,1024,1025,1024,319.8,-89.9,98,3.879,3.86,3.881,3.881,0,0,18.46,68,14,Waypoint,
37.2865735,-119.5625844,4585.9610355303,86.614176,0.223694,1.82938326064,14500,2018-04-11 20:47:08,21,0,23.332,4585.9610355303,86.614176,0.223694,1.91482617676,0,0,-0.671082,320.8, 4.1, 2,0,0,1024,1024,1025,1024,319.8,-89.9,98,3.879,3.86,3.881,3.881,0,0,18.46,68,14,Waypoint,
37.2865735,-119.5625844,4586.9452875303,87.598428,0.223694,1.82938326064,14600,2018-04-11 20:47:08,21,0,23.332,4586.9452875303,87.598428,0.223694,1.91482617676,0,0,-0.671082,320.8, 4.1, 2,0,0,1024,1024,1025,1024,319.8,-89.9,98,3.879,3.86,3.881,3.881,0,0,18.46,68,14,Waypoint,
37.2865734,-119.5625843,4587.9295395303,88.58268,0.223694,1.78695543776,14700,2018-04-11 20:47:08,21,0,23.332,4587.9295395303,88.58268,0.223694,1.91482617676,0,0,-0.671082,320.8, 4, 2.1,0,0,1024,1024,1025,1024,319.8,-89.9,98,3.879,3.86,3.881,3.881,0,0,18.46,68,14,Waypoint,
37.2865734,-119.5625843,4588.9137915303,89.566932,0.223694,1.78695543776,14800,2018-04-11 20:47:08,21,0,23.332,4588.9137915303,89.566932,0.223694,1.91482617676,0,0,-0.671082,320.8, 3.9, 2.1,0,0,1024,1024,1025,1024,319.8,-89.9,98,3.879,3.86,3.881,3.881,0,0,18.46,68,14,Waypoint,
37.2865734,-119.5625843,4589.8980435303,90.551184,0.223694,1.78695543776,14900,2018-04-11 20:47:08,22,0,23.332,4589.8980435303,90.551184,0.223694,1.91482617676,0,0,-0.671082,320.9, 3.9, 2.1,0,0,1024,1024,1025,1024,319.8,-89.9,98,3.879,3.86,3.881,3.881,0,0,18.46,68,14,Waypoint,
37.2865734,-119.5625843,4590.8822955303,91.535436,0,1.78695543776,15000,2018-04-11 20:47:09,22,0,23.271,4590.8822955303,91.535436,0.223694,1.91482617676,0,0,-0.671082,320.9, 4, 2.2,0,0,1024,1024,1025,1024,319.8,-90,98,3.864,3.851,3.874,3.87,0,0,18.907,68,14,Waypoint,
37.2865733,-119.5625843,4591.8665475303,92.519688,0,1.77086947924,15100,2018-04-11 20:47:09,22,0,23.271,4591.8665475303,92.519688,0.223694,1.91482617676,0,0,-0.671082,321, 4.1, 2.2,0,0,1024,1024,1025,1024,319.8,-89.9,98,3.864,3.851,3.874,3.87,0,0,18.907,68,14,Waypoint,
37.2865733,-119.5625842,4592.8507995303,93.50394,0,1.74474415032,15200,2018-04-11 20:47:09,22,0,23.271,4592.8507995303,93.50394,0.223694,1.91482617676,0,0,-0.671082,321, 4.2, 2.1,0,0,1024,1024,1025,1024,319.8,-89.9,98,3.864,3.851,3.874,3.87,0,0,18.907,68,14,Waypoint,
37.2865733,-119.5625842,4593.8350515303,94.488192,0,1.74474415032,15300,2018-04-11 20:47:09,22,0,23.271,4593.8350515303,94.488192,0.223694,1.91482617676,0,0,-0.671082,321, 4.3, 2.1,0,0,1024,1024,1025,1024,319.8,-89.9,98,3.864,3.851,3.874,3.87,0,0,18.907,68,14,Waypoint,
37.2865733,-119.5625842,4594.8193035303,95.472444,0,1.74474415032,15400,2018-04-11 20:47:09,22,0,23.271,4594.8193035303,95.472444,0.223694,1.91482617676,0,0,-0.671082,321, 4.4, 2.1,0,0,1024,1024,1025,1024,319.8,-89.9,98,3.864,3.851,3.874,3.87,0,0,18.907,68,14,Waypoint,
37.2865733,-119.5625842,4595.8035555303,96.456696,0,1.74474415032,15500,2018-04-11 20:47:09,22,0,23.271,4595.8035555303,96.456696,0.223694,1.91482617676,0,0,-0.671082,321, 4.5, 2.1,0,0,1024,1024,1025,1024,319.8,-89.9,98,3.864,3.851,3.874,3.87,0,0,18.907,68,14,Waypoint,
37.2865733,-119.5625841,4596.7878075303,97.440948,0,1.71871068492,15600,2018-04-11 20:47:09,22,0,23.271,4596.7878075303,97.440948,0.223694,1.91482617676,0,0,-0.671082,321, 4.5, 2.2,0,0,1024,1024,1025,1024,319.8,-89.9,98,3.864,3.851,3.874,3.87,0,0,18.907,68,14,Waypoint,
37.2865733,-119.5625841,4597.7720595303,98.4252,0,1.71871068492,15720,2018-04-11 20:47:09,22,0,23.271,4597.7720595303,98.4252,0.223694,1.91482617676,0,0,-0.671082,321, 4.4, 2,0,0,1024,1024,1025,1024,319.8,-89.9,98,3.864,3.851,3.874,3.87,0,0,18.907,68,14,Waypoint,
37.2865732,-119.5625841,4598.4282275303,99.081368,0,1.70275924084,15800,2018-04-11 20:47:09,22,0,23.271,4598.4282275303,99.081368,0.223694,1.91482617676,0,0,-0.671082,321, 4.4, 1.9,0,0,1024,1024,1025,1024,319.8,-89.9,98,3.864,3.851,3.874,3.87,0,0,18.907,68,14,Waypoint,
37.2865731,-119.5625841,4600.3967315303,101.049872,0.223694,1.68744756056,16000,2018-04-11 20:47:10,22,0,23.199,4600.3967315303,101.049872,0.223694,1.91482617676,0,0,-0.671082,321, 4.3, 2.3,0,0,1024,1024,1025,1024,319.8,-89.9,98,3.867,3.854,3.874,3.864,0,0,19.433,68,14,Waypoint,
37.2865731,-119.5625841,4601.3809835303,102.034124,0.223694,1.68744756056,16100,2018-04-11 20:47:10,22,0,23.199,4601.3809835303,102.034124,0.223694,1.91482617676,0,0,-0.671082,321, 4.3, 2.6,0,0,1024,1024,1025,1024,319.8,-89.9,98,3.867,3.854,3.874,3.864,0,0,19.433,68,14,Waypoint,
37.286573,-119.5625841,4602.3652355303,103.018376,0.223694,1.67278876744,16200,2018-04-11 20:47:10,22,0,23.199,4602.3652355303,103.018376,0.223694,1.91482617676,0,0,-0.671082,321, 4.2, 2.7,0,0,1024,1024,1025,1024,319.8,-89.9,98,3.867,3.854,3.874,3.864,0,0,19.433,68,14,Waypoint,
37.286573,-119.5625841,4603.3494875303,104.002628,0.223694,1.67278876744,16300,2018-04-11 20:47:10,22,0,23.199,4603.3494875303,104.002628,0.223694,1.91482617676,0,0,-0.671082,321.1, 4, 2.9,0,0,1024,1024,1024,1024,319.8,-90,98,3.867,3.854,3.874,3.864,0,0,19.433,68,14,Waypoint,
37.286573,-119.5625841,4604.3337395303,104.98688,0,1.67278876744,16400,2018-04-11 20:47:10,22,0,23.199,4604.3337395303,104.98688,0.223694,1.91482617676,0,0,-0.671082,321.1, 4, 2.8,0,0,1024,1024,1025,1024,319.8,-89.9,98,3.867,3.854,3.874,3.864,0,0,19.433,68,14,Waypoint,
37.2865729,-119.5625841,4606.3022435303,106.955384,0,1.65880582736,16510,2018-04-11 20:47:10,22,0,23.199,4606.3022435303,106.955384,0.223694,1.91482617676,0,0,-0.671082,320.9, 4.3, 2.6,0,0,1024,1024,1025,1024,319.8,-89.9,98,3.867,3.854,3.874,3.864,0,0,19.433,68,14,Waypoint,
37.2865729,-119.5625841,4607.2864955303,107.939636,0,1.65880582736,16700,2018-04-11 20:47:10,22,0,23.199,4607.2864955303,107.939636,0.223694,1.91482617676,0,0,-0.671082,320.8, 4.3, 2.6,0,0,1024,1024,1025,1024,319.8,-89.9,98,3.867,3.854,3.874,3.864,0,0,19.433,68,14,Waypoint,
37.2865729,-119.562584,4608.2707475303,108.923888,0,1.63191934356,16800,2018-04-11 20:47:10,22,0,23.199,4608.2707475303,108.923888,0.223694,1.91482617676,0,0,-0.671082,320.8, 4.4, 2.6,0,0,1024,1024,1025,1024,319.8,-89.9,98,3.867,3.854,3.874,3.864,0,0,19.433,68,14,Waypoint,
37.2865729,-119.562584,4609.2549995303,109.90814,0,1.63191934356,16900,2018-04-11 20:47:10,22,0,23.199,4609.2549995303,109.90814,0.223694,1.91482617676,0,0,-0.671082,320.8, 4.4, 2.5,0,0,1024,1024,1025,1024,319.8,-89.9,98,3.867,3.854,3.874,3.864,0,0,19.433,68,14,Waypoint,
37.2865728,-119.5625839,4610.2392515303,110.892392,0,1.59136488032,17000,2018-04-11 20:47:11,22,0,23.142,4610.2392515303,110.892392,0.223694,1.91482617676,0,0,-0.671082,320.7, 4.2, 2.4,0,0,1024,1024,1025,1024,319.8,-90,98,3.867,3.854,3.874,3.864,0,0,19.583,68,14,Waypoint,
37.2865728,-119.5625838,4611.2235035303,111.876644,0,1.56439637552,17100,2018-04-11 20:47:11,22,0,23.142,4611.2235035303,111.876644,0.223694,1.91482617676,0,0,-0.671082,320.7, 4, 2.3,0,0,1024,1024,1025,1024,319.8,-89.9,98,3.867,3.854,3.874,3.864,0,0,19.583,68,14,Waypoint,
37.2865728,-119.5625838,4612.2077555303,112.860896,0,1.56439637552,17200,2018-04-11 20:47:11,22,0,23.142,4612.2077555303,112.860896,0.223694,1.91482617676,0,0,-0.671082,320.7, 4, 2.2,0,0,1024,1024,1025,1024,319.8,-89.9,98,3.867,3.854,3.874,3.864,0,0,19.583,68,14,Waypoint,
37.2865728,-119.5625837,4613.1920075303,113.845148,0,1.53750333004,17300,2018-04-11 20:47:11,22,0,23.142,4613.1920075303,113.845148,0.223694,1.91482617676,0,0,-0.671082,320.8, 4.1, 2,0,0,1024,1024,1025,1024,319.8,-89.9,98,3.867,3.854,3.874,3.864,0,0,19.583,68,14,Waypoint,
37.2865728,-119.5625836,4614.5043435303,115.157484,0,1.51068902472,17400,2018-04-11 20:47:11,22,0,23.142,4614.5043435303,115.157484,0.223694,1.91482617676,0,0,-0.671082,320.8, 4.4, 1.7,0,0,1024,1024,1025,1024,319.8,-89.9,98,3.867,3.854,3.874,3.864,0,0,19.583,68,14,Waypoint,
37.2865728,-119.5625836,4615.4885955303,116.141736,0,1.51068902472,17500,2018-04-11 20:47:11,22,0,23.142,4615.4885955303,116.141736,0.223694,1.91482617676,0,0,-0.671082,320.8, 4.5, 1.6,0,0,1024,1024,1025,1024,319.8,-89.9,98,3.867,3.854,3.874,3.864,0,0,19.583,68,14,Waypoint,
37.2865728,-119.5625835,4616.4728475303,117.125988,0,1.4839567404,17600,2018-04-11 20:47:11,22,0,23.142,4616.4728475303,117.125988,0.223694,1.91482617676,0,0,-0.671082,320.9, 4.4, 1.6,0,0,1024,1024,1025,1024,319.8,-89.9,98,3.867,3.854,3.874,3.864,0,0,19.583,68,14,Waypoint,
37.2865728,-119.5625835,4617.4570995303,118.11024,0,1.4839567404,17700,2018-04-11 20:47:11,22,0,23.142,4617.4570995303,118.11024,0.223694,1.91482617676,0,0,-0.671082,320.9, 4.4, 2.1,0,0,1024,1024,1025,1024,319.8,-89.9,98,3.867,3.854,3.874,3.864,0,0,19.583,68,14,Waypoint,
37.2865728,-119.5625835,4618.4413515303,119.094492,0,1.4839567404,17800,2018-04-11 20:47:11,22,0,23.142,4618.4413515303,119.094492,0.223694,1.91482617676,0,0,-0.671082,321, 4.5, 2.3,0,0,1024,1024,1025,1024,319.8,-89.9,98,3.867,3.854,3.874,3.864,0,0,19.583,68,14,Waypoint,
37.2865728,-119.5625835,4619.4256035303,120.078744,0,1.4839567404,17900,2018-04-11 20:47:11,22,0,23.142,4619.4256035303,120.078744,0.223694,1.91482617676,0,0,-0.671082,321, 4.6, 2.4,0,0,1024,1024,1025,1024,319.8,-89.9,98,3.867,3.854,3.874,3.864,0,0,19.583,68,14,Waypoint,
37.2865728,-119.5625835,4620.4098555303,121.062996,0,1.4839567404,18000,2018-04-11 20:47:12,22,0,23.142,4620.4098555303,121.062996,0.223694,1.91482617676,0,0,-0.671082,321, 4.6, 2.4,0,0,1024,1024,1025,1024,319.8,-89.9,98,3.85,3.833,3.853,3.858,0,0,19.583,69.8,14,Waypoint,
37.2865728,-119.5625835,4621.3941075303,122.047248,0,1.4839567404,18100,2018-04-11 20:47:12,22,0,23.142,4621.3941075303,122.047248,0.223694,1.91482617676,0,0,-0.671082,321, 4.5, 2.3,0,0,1024,1024,1025,1024,319.8,-89.9,98,3.85,3.833,3.853,3.858,0,0,19.583,69.8,14,Waypoint,
37.2865728,-119.5625835,4622.3783595303,123.0315,0,1.4839567404,18200,2018-04-11 20:47:12,22,0,23.142,4622.3783595303,123.0315,0.223694,1.91482617676,0,0,-0.671082,321, 4.4, 2.3,0,0,1024,1024,1025,1024,319.8,-89.9,98,3.85,3.833,3.853,3.858,0,0,19.583,69.8,14,Waypoint,
37.2865727,-119.5625835,4623.3626115303,124.015752,0,1.46998692368,18300,2018-04-11 20:47:12,22,0,23.142,4623.3626115303,124.015752,0.223694,1.91482617676,0,0,-0.671082,320.9, 4.2, 2.3,0,0,1024,1024,1025,1024,319.8,-89.9,98,3.85,3.833,3.853,3.858,0,0,19.583,69.8,14,Waypoint,
37.2865727,-119.5625834,4624.3468635303,125.000004,0,1.44308731652,18400,2018-04-11 20:47:12,22,0,23.142,4624.3468635303,125.000004,0.223694,1.91482617676,0,0,-0.671082,320.9, 4.2, 2.2,0,0,1024,1024,1025,1024,319.8,-90,98,3.85,3.833,3.853,3.858,0,0,19.583,69.8,14,Waypoint,
37.2865727,-119.5625834,4625.3311155303,125.984256,0,1.44308731652,18500,2018-04-11 20:47:12,22,0,23.142,4625.3311155303,125.984256,0.223694,1.91482617676,0,0,-0.671082,320.8, 4.1, 2.2,0,0,1024,1024,1025,1024,319.8,-89.9,98,3.85,3.833,3.853,3.858,0,0,19.583,69.8,14,Waypoint,
37.2865727,-119.5625833,4627.2996195303,127.95276,0,1.41626973036,18700,2018-04-11 20:47:12,22,0,23.142,4627.2996195303,127.95276,0.223694,1.91482617676,0,0,-0.671082,320.9, 4, 2.3,0,0,1024,1024,1025,1024,319.8,-89.9,98,3.85,3.833,3.853,3.858,0,0,19.583,69.8,14,Waypoint,
37.2865726,-119.5625833,4629.2681235303,129.921264,0,1.4025755042,18810,2018-04-11 20:47:12,22,0,23.142,4629.2681235303,129.921264,0.223694,1.91482617676,0,0,-0.671082,320.9, 4.2, 2.3,0,0,1024,1024,1025,1024,319.8,-89.9,98,3.85,3.833,3.853,3.858,0,0,19.583,69.8,14,Waypoint,
37.2865726,-119.5625833,4630.2523755303,130.905516,0,1.4025755042,19000,2018-04-11 20:47:13,22,0,23.187,4630.2523755303,130.905516,0.223694,1.91482617676,0,0,-0.671082,320.9, 4.2, 2.4,0,0,1024,1024,1025,1024,319.8,-90,97,3.848,3.844,3.865,3.858,0,0,19.669,69.8,14,Waypoint,
37.2865726,-119.5625833,4631.2366275303,131.889768,0,1.4025755042,19100,2018-04-11 20:47:13,22,0,23.187,4631.2366275303,131.889768,0.223694,1.91482617676,0,0,-0.671082,320.9, 4.2, 2.5,0,0,1024,1024,1025,1024,319.8,-89.9,97,3.848,3.844,3.865,3.858,0,0,19.669,69.8,14,Waypoint,
37.2865726,-119.5625833,4631.8927955303,132.545936,0,1.4025755042,19200,2018-04-11 20:47:13,22,0,23.187,4631.8927955303,132.545936,0.223694,1.91482617676,0,0,-0.671082,320.8, 4.3, 2.5,0,0,1024,1024,1025,1024,319.8,-89.9,97,3.848,3.844,3.865,3.858,0,0,19.669,69.8,14,Waypoint,
37.2865725,-119.5625832,4633.8612995303,134.51444,0,1.36245411184,19400,2018-04-11 20:47:13,22,0,23.187,4633.8612995303,134.51444,0.223694,1.91482617676,0,0,-0.671082,320.9, 4, 2.3,0,0,1024,1024,1025,1024,319.8,-89.9,97,3.848,3.844,3.865,3.858,0,0,19.669,69.8,14,Waypoint,
37.2865725,-119.5625832,4634.8455515303,135.498692,0,1.36245411184,19500,2018-04-11 20:47:13,22,0,23.187,4634.8455515303,135.498692,0.223694,1.91482617676,0,0,-0.671082,320.9, 4, 2.4,0,0,1024,1024,1025,1024,319.8,-89.9,97,3.848,3.844,3.865,3.858,0,0,19.669,69.8,14,Waypoint,
37.2865725,-119.5625832,4635.8298035303,136.482944,0,1.36245411184,19600,2018-04-11 20:47:13,22,0,23.187,4635.8298035303,136.482944,0.223694,1.91482617676,0,0,-0.671082,320.8, 3.9, 2.4,0,0,1024,1024,1024,1024,319.8,-90,97,3.848,3.844,3.865,3.858,0,0,19.669,69.8,14,Waypoint,
37.2865725,-119.5625832,4636.8140555303,137.467196,0,1.36245411184,19700,2018-04-11 20:47:13,22,0,23.187,4636.8140555303,137.467196,0.223694,1.91482617676,0,0,-0.671082,320.8, 3.7, 2.3,0,0,1024,1024,1025,1024,319.8,-90,97,3.848,3.844,3.865,3.858,0,0,19.669,69.8,14,Waypoint,
37.2865725,-119.5625831,4638.7825595303,139.4357,0,1.33528219496,19900,2018-04-11 20:47:13,22,0,23.187,4638.7825595303,139.4357,0.223694,1.91482617676,0,0,-0.671082,320.9, 3.2, 2.2,0,0,1024,1024,1025,1024,319.8,-89.9,97,3.848,3.844,3.865,3.858,0,0,19.669,69.8,14,Waypoint,
37.2865725,-119.5625831,4639.7668115303,140.419952,0,1.33528219496,20020,2018-04-11 20:47:14,22,0,23.217,4639.7668115303,140.419952,0.223694,1.91482617676,0,0,-0.671082,321, 3.7, 2,0,0,1024,1024,1025,1024,319.8,-89.9,97,3.856,3.849,3.859,3.858,0,0,18.743,69.8,14,Waypoint,
37.2865725,-119.5625831,4640.7510635303,141.404204,0,1.33528219496,20100,2018-04-11 20:47:14,22,0,23.217,4640.7510635303,141.404204,0.223694,1.91482617676,0,0,-0.671082,321.1, 4.1, 2.2,0,0,1024,1024,1025,1024,319.8,-89.9,97,3.856,3.849,3.859,3.858,0,0,18.743,69.8,14,Waypoint,
37.2865725,-119.5625832,4641.7353155303,142.388456,0,1.36245411184,20200,2018-04-11 20:47:14,22,0,23.217,4641.7353155303,142.388456,0.223694,1.91482617676,0,0,-0.671082,321.1, 4.4, 2.4,0,0,1024,1024,1025,1024,319.8,-89.9,97,3.856,3.849,3.859,3.858,0,0,18.743,69.8,14,Waypoint,
37.2865726,-119.5625833,4643.7038195303,144.35696,0,1.4025755042,20400,2018-04-11 20:47:14,22,0,23.217,4643.7038195303,144.35696,0.223694,1.91482617676,0,0,-0.671082,321.1, 4.9, 2.4,0,0,1024,1024,1025,1024,319.8,-89.9,97,3.856,3.849,3.859,3.858,0,0,18.743,69.8,14,Waypoint,
37.2865726,-119.5625833,4644.6880715303,145.341212,0,1.4025755042,20510,2018-04-11 20:47:14,22,0,23.217,4644.6880715303,145.341212,0.223694,1.91482617676,0,0,-0.671082,321.1, 5.2, 2.5,0,0,1024,1024,1025,1024,319.8,-89.9,97,3.856,3.849,3.859,3.858,0,0,18.743,69.8,14,Waypoint,
37.2865727,-119.5625833,4647.6408275303,148.293968,0,1.41626973036,20700,2018-04-11 20:47:14,22,0,23.217,4647.6408275303,148.293968,0.223694,1.91482617676,0,0,-0.671082,320.9, 5.1, 2.4,0,0,1024,1024,1025,1024,319.8,-89.9,97,3.856,3.849,3.859,3.858,0,0,18.743,69.8,14,Waypoint,
37.2865728,-119.5625833,4648.6250795303,149.27822,0,1.43076448148,20800,2018-04-11 20:47:14,22,0,23.217,4648.6250795303,149.27822,0.223694,1.91482617676,0,0,-0.671082,320.9, 4.8, 2.3,0,0,1024,1024,1024,1024,319.8,-89.9,97,3.856,3.849,3.859,3.858,0,0,18.743,69.8,14,Waypoint,
37.2865728,-119.5625833,4649.6093315303,150.262472,0,1.43076448148,20910,2018-04-11 20:47:14,22,0,23.217,4649.6093315303,150.262472,0.223694,1.91482617676,0,0,-0.671082,320.8, 4.5, 2,0,0,1024,1024,1025,1024,319.8,-89.9,97,3.856,3.849,3.859,3.858,0,0,18.743,69.8,14,Waypoint,
37.2865728,-119.5625832,4650.5935835303,151.246724,0,1.4043143494,21000,2018-04-11 20:47:15,22,0,23.136,4650.5935835303,151.246724,0.223694,1.91482617676,0,0,-0.671082,320.7, 4.4, 1.7,0,0,1024,1024,1025,1024,319.8,-89.9,97,3.852,3.827,3.85,3.842,0,0,19.475,69.8,14,Waypoint,
37.2865729,-119.5625832,4651.5778355303,152.230976,0,1.419865531,21200,2018-04-11 20:47:15,22,0,23.136,4651.5778355303,152.230976,0.223694,1.91482617676,0,0,-0.671082,320.7, 4.4, 1.5,0,0,1024,1024,1025,1024,319.8,-89.9,97,3.852,3.827,3.85,3.842,0,0,19.475,69.8,14,Waypoint,
37.2865729,-119.5625832,4652.5620875303,153.215228,0,1.419865531,21300,2018-04-11 20:47:15,22,0,23.136,4652.5620875303,153.215228,0.223694,1.91482617676,0,0,-0.671082,320.7, 4.6, 1.5,0,0,1024,1024,1025,1024,319.8,-89.9,97,3.852,3.827,3.85,3.842,0,0,19.475,69.8,14,Waypoint,
37.2865729,-119.5625832,4653.5463395303,154.19948,0,1.419865531,21400,2018-04-11 20:47:15,22,0,23.136,4653.5463395303,154.19948,0.223694,1.91482617676,0,0,-0.671082,320.8, 4.8, 1.7,0,0,1024,1024,1025,1024,319.8,-89.9,97,3.852,3.827,3.85,3.842,0,0,19.475,69.8,14,Waypoint,
37.2865729,-119.5625832,4654.5305915303,155.183732,0,1.419865531,21500,2018-04-11 20:47:15,22,0,23.136,4654.5305915303,155.183732,0.223694,1.91482617676,0,0,-0.671082,320.9, 4.9, 2,0,0,1024,1024,1025,1024,319.8,-89.9,97,3.852,3.827,3.85,3.842,0,0,19.475,69.8,14,Waypoint,
37.2865729,-119.5625832,4655.5148435303,156.167984,0,1.419865531,21600,2018-04-11 20:47:15,22,0,23.136,4655.5148435303,156.167984,0.223694,1.91482617676,0,0,-0.671082,320.9, 5, 2.3,0,0,1024,1024,1025,1024,319.8,-89.9,97,3.852,3.827,3.85,3.842,0,0,19.475,69.8,14,Waypoint,
37.2865729,-119.5625832,4656.4990955303,157.152236,0,1.419865531,21700,2018-04-11 20:47:15,22,0,23.136,4656.4990955303,157.152236,0.223694,1.91482617676,0,0,-0.671082,320.9, 5.1, 2.4,0,0,1024,1024,1025,1024,319.8,-89.9,97,3.852,3.827,3.85,3.842,0,0,19.475,69.8,14,Waypoint,
37.2865729,-119.5625833,4657.8114315303,158.464572,0,1.44603351084,21800,2018-04-11 20:47:15,22,0,23.136,4657.8114315303,158.464572,0.223694,1.91482617676,0,0,-0.671082,320.8, 5.1, 2.5,0,0,1024,1024,1025,1024,319.8,-89.9,97,3.852,3.827,3.85,3.842,0,0,19.475,69.8,14,Waypoint,
37.2865729,-119.5625833,4658.7956835303,159.448824,0,1.44603351084,21900,2018-04-11 20:47:15,22,0,23.136,4658.7956835303,159.448824,0.223694,1.91482617676,0,0,-0.671082,320.8, 5.1, 2.6,0,0,1024,1024,1024,1024,319.8,-89.9,97,3.852,3.827,3.85,3.842,0,0,19.475,69.8,14,Waypoint,
37.2865729,-119.5625833,4659.7799355303,160.433076,0,1.44603351084,22000,2018-04-11 20:47:16,22,0,23.007,4659.7799355303,160.433076,0.223694,1.91482617676,0,0,-0.671082,320.8, 5, 2.6,0,0,1024,1024,1025,1024,319.8,-89.9,97,3.826,3.81,3.833,3.832,0,0,20.564,69.8,14,Waypoint,
37.2865729,-119.5625834,4660.4361035303,161.089244,0,1.4723097584,22100,2018-04-11 20:47:16,22,0,23.007,4660.4361035303,161.089244,0.223694,1.91482617676,0,0,-0.671082,320.9, 4.9, 2.5,0,0,1024,1024,1025,1024,319.8,-89.9,97,3.826,3.81,3.833,3.832,0,0,20.564,69.8,14,Waypoint,
37.2865729,-119.5625834,4661.4203555303,162.073496,0,1.4723097584,22200,2018-04-11 20:47:16,22,0,23.007,4661.4203555303,162.073496,0.223694,1.91482617676,0,0,-0.671082,320.9, 4.7, 2.3,0,0,1024,1024,1025,1024,319.8,-89.9,97,3.826,3.81,3.833,3.832,0,0,20.564,69.8,14,Waypoint,
37.2865729,-119.5625834,4662.4046075303,163.057748,0,1.4723097584,22300,2018-04-11 20:47:16,22,0,23.007,4662.4046075303,163.057748,0.223694,1.91482617676,0,0,-0.671082,321, 4.7, 2.2,0,0,1024,1024,1025,1024,319.8,-89.9,97,3.826,3.81,3.833,3.832,0,0,20.564,69.8,14,Waypoint,
37.2865729,-119.5625834,4663.3888595303,164.042,0,1.4723097584,22400,2018-04-11 20:47:16,22,0,23.007,4663.3888595303,164.042,0.223694,1.91482617676,0,0,-0.671082,321, 4.6, 2.2,0,0,1024,1024,1025,1024,319.8,-89.9,97,3.826,3.81,3.833,3.832,0,0,20.564,69.8,14,Waypoint,
37.2865728,-119.5625833,4664.7011955303,165.354336,0,1.43076448148,22500,2018-04-11 20:47:16,22,0,23.007,4664.7011955303,165.354336,0.223694,1.91482617676,0,0,-0.671082,321, 4.6, 2.2,0,0,1024,1024,1025,1024,319.8,-89.9,97,3.826,3.81,3.833,3.832,0,0,20.564,69.8,14,Waypoint,
37.2865728,-119.5625833,4665.3573635303,166.010504,0,1.43076448148,22600,2018-04-11 20:47:16,22,0,23.007,4665.3573635303,166.010504,0.223694,1.91482617676,0,0,-0.671082,320.9, 4.7, 2.2,0,0,1024,1024,1024,1024,319.8,-89.9,97,3.826,3.81,3.833,3.832,0,0,20.564,69.8,14,Waypoint,
37.2865728,-119.5625833,4666.3416155303,166.994756,0,1.43076448148,22700,2018-04-11 20:47:16,22,0,23.007,4666.3416155303,166.994756,0.223694,1.91482617676,0,0,-0.671082,320.9, 4.6, 2.1,0,0,1024,1024,1025,1024,319.8,-89.9,97,3.826,3.81,3.833,3.832,0,0,20.564,69.8,14,Waypoint,
37.2865728,-119.5625833,4667.3258675303,167.979008,0,1.43076448148,22800,2018-04-11 20:47:16,22,0,23.007,4667.3258675303,167.979008,0.223694,1.91482617676,0,0,-0.671082,321, 4.6, 2.1,0,0,1024,1024,1025,1024,319.8,-89.9,97,3.826,3.81,3.833,3.832,0,0,20.564,69.8,14,Waypoint,
37.2865728,-119.5625833,4668.6382035303,169.291344,0,1.43076448148,22900,2018-04-11 20:47:16,22,0,23.007,4668.6382035303,169.291344,0.223694,1.91482617676,0,0,-0.671082,321, 4.6, 2.1,0,0,1024,1024,1024,1024,319.8,-89.9,97,3.826,3.81,3.833,3.832,0,0,20.564,69.8,14,Waypoint,
37.2865727,-119.5625833,4670.6067075303,171.259848,0,1.41626973036,23110,2018-04-11 20:47:17,22,0,23.007,4670.6067075303,171.259848,0.223694,1.91482617676,0,0,-0.671082,320.9, 4.5, 2.2,0,0,1024,1024,1025,1024,319.8,-89.9,97,3.826,3.81,3.833,3.832,0,0,20.564,69.8,14,Waypoint,
37.2865727,-119.5625833,4671.2628755303,171.916016,0,1.41626973036,23200,2018-04-11 20:47:17,22,0,23.007,4671.2628755303,171.916016,0.223694,1.91482617676,0,0,-0.671082,320.9, 4.4, 2.2,0,0,1024,1024,1025,1024,319.8,-90,97,3.826,3.81,3.833,3.832,0,0,20.564,69.8,14,Waypoint,
37.2865726,-119.5625833,4672.2471275303,172.900268,0,1.4025755042,23300,2018-04-11 20:47:17,22,0,23.007,4672.2471275303,172.900268,0.223694,1.91482617676,0,0,-0.671082,320.9, 4.1, 2.3,0,0,1024,1024,1025,1024,319.8,-90,97,3.826,3.81,3.833,3.832,0,0,20.564,69.8,14,Waypoint,
37.2865725,-119.5625832,4674.2156315303,174.868772,0,1.36245411184,23400,2018-04-11 20:47:17,22,0,23.007,4674.2156315303,174.868772,0.223694,1.91482617676,0,0,-0.671082,321, 4.2, 2.2,0,0,1024,1024,1025,1024,319.8,-89.9,97,3.826,3.81,3.833,3.832,0,0,20.564,69.8,14,Waypoint,
37.2865725,-119.5625832,4675.1998835303,175.853024,0,1.36245411184,23500,2018-04-11 20:47:17,22,0,23.007,4675.1998835303,175.853024,0.223694,1.91482617676,0,0,-0.671082,320.9, 4.2, 2.1,0,0,1024,1024,1025,1024,319.8,-89.9,97,3.826,3.81,3.833,3.832,0,0,20.564,69.8,14,Waypoint,
37.2865725,-119.5625832,4676.1841355303,176.837276,0,1.36245411184,23700,2018-04-11 20:47:17,22,0,23.007,4676.1841355303,176.837276,0.223694,1.91482617676,0,0,-0.671082,320.8, 4.2, 2.2,0,0,1024,1024,1025,1024,319.8,-89.9,97,3.826,3.81,3.833,3.832,0,0,20.564,69.8,14,Waypoint,
37.2865725,-119.5625831,4677.4964715303,178.149612,0,1.33528219496,23800,2018-04-11 20:47:17,22,0,23.007,4677.4964715303,178.149612,0.223694,1.91482617676,0,0,-0.671082,320.8, 4.1, 2.1,0,0,1024,1024,1025,1024,319.8,-90,97,3.826,3.81,3.833,3.832,0,0,20.564,69.8,14,Waypoint,
37.2865724,-119.5625831,4679.1368915303,179.790032,0,1.32276250952,24000,2018-04-11 20:47:18,22,0,23.012,4679.1368915303,179.790032,0.223694,1.91482617676,0,0,-0.671082,320.8, 4.2, 2.1,0,0,1024,1024,1025,1024,319.8,-89.9,97,3.818,3.815,3.836,3.832,0,0,20.098,69.8,14,Waypoint,
37.2865724,-119.5625831,4680.1211435303,180.774284,0,1.32276250952,24100,2018-04-11 20:47:18,22,0,23.012,4680.1211435303,180.774284,0.223694,1.91482617676,0,0,-0.671082,320.8, 4.3, 2.1,0,0,1024,1024,1025,1024,319.8,-89.9,97,3.818,3.815,3.836,3.832,0,0,20.098,69.8,14,Waypoint,
37.2865724,-119.5625831,4681.1053955303,181.758536,0,1.32276250952,24200,2018-04-11 20:47:18,22,0,23.012,4681.1053955303,181.758536,0.223694,1.91482617676,0,0,-0.671082,320.8, 4.3, 2.2,0,0,1024,1024,1025,1024,319.8,-89.9,97,3.818,3.815,3.836,3.832,0,0,20.098,69.8,14,Waypoint,
37.2865723,-119.5625831,4682.0896475303,182.742788,0,1.3111384934,24300,2018-04-11 20:47:18,22,0,23.012,4682.0896475303,182.742788,0.223694,1.91482617676,0,0,-0.671082,320.8, 4.3, 2.4,0,0,1024,1024,1025,1024,319.8,-89.9,97,3.818,3.815,3.836,3.832,0,0,20.098,69.8,14,Waypoint,
37.2865723,-119.5625831,4683.0738995303,183.72704,0,1.3111384934,24400,2018-04-11 20:47:18,22,0,23.012,4683.0738995303,183.72704,0.223694,1.91482617676,0,0,-0.671082,320.8, 4.3, 2.6,0,0,1024,1024,1025,1024,319.8,-89.9,97,3.818,3.815,3.836,3.832,0,0,20.098,69.8,14,Waypoint,
37.2865723,-119.5625831,4684.0581515303,184.711292,0,1.3111384934,24500,2018-04-11 20:47:18,22,0,23.012,4684.0581515303,184.711292,0.223694,1.91482617676,0,0,-0.671082,320.8, 4.2, 2.7,0,0,1024,1024,1025,1024,319.8,-89.9,97,3.818,3.815,3.836,3.832,0,0,20.098,69.8,14,Waypoint,
37.2865722,-119.5625831,4685.0424035303,185.695544,0,1.30043311248,24600,2018-04-11 20:47:18,22,0,23.012,4685.0424035303,185.695544,0.223694,1.91482617676,0,0,-0.671082,320.8, 4.2, 2.7,0,0,1024,1024,1025,1024,319.8,-89.9,97,3.818,3.815,3.836,3.832,0,0,20.098,69.8,14,Waypoint,
37.2865722,-119.5625831,4687.0109075303,187.664048,0,1.30043311248,24800,2018-04-11 20:47:18,22,0,23.012,4687.0109075303,187.664048,0.223694,1.91482617676,0,0,-0.671082,320.9, 4, 2.7,0,0,1024,1024,1025,1024,319.8,-89.9,97,3.818,3.815,3.836,3.832,0,0,20.098,69.8,14,Waypoint,
37.2865722,-119.5625831,4687.9951595303,188.6483,0,1.30043311248,24900,2018-04-11 20:47:18,22,0,23.012,4687.9951595303,188.6483,0.223694,1.91482617676,0,0,-0.671082,320.9, 4.1, 2.7,0,0,1024,1024,1025,1024,319.8,-89.9,97,3.818,3.815,3.836,3.832,0,0,20.098,69.8,14,Waypoint,
37.2865722,-119.562583,4688.9794115303,189.632552,0,1.27259846592,25000,2018-04-11 20:47:19,22,0,23.011,4688.9794115303,189.632552,0.223694,1.91482617676,0,0,-0.671082,321, 4.3, 2.5,0,0,1024,1024,1025,1024,319.8,-89.9,97,3.827,3.811,3.833,3.83,0,0,19.777,69.8,14,Waypoint,
37.2865722,-119.562583,4689.9636635303,190.616804,0,1.27259846592,25100,2018-04-11 20:47:19,22,0,23.011,4689.9636635303,190.616804,0.223694,1.91482617676,0,0,-0.671082,321, 4.3, 2.3,0,0,1024,1024,1025,1024,319.8,-89.9,97,3.827,3.811,3.833,3.83,0,0,19.777,69.8,14,Waypoint,
37.2865722,-119.562583,4690.9479155303,191.601056,0,1.27259846592,25200,2018-04-11 20:47:19,22,0,23.011,4690.9479155303,191.601056,0.223694,1.91482617676,0,0,-0.671082,321.1, 4.3, 2.4,0,0,1024,1024,1025,1024,319.8,-89.9,97,3.827,3.811,3.833,3.83,0,0,19.777,69.8,14,Waypoint,
37.2865722,-119.562583,4691.9321675303,192.585308,0,1.27259846592,25300,2018-04-11 20:47:19,22,0,23.011,4691.9321675303,192.585308,0.223694,1.91482617676,0,0,-0.671082,321.1, 4.2, 2.4,0,0,1024,1024,1025,1024,319.8,-89.9,97,3.827,3.811,3.833,3.83,0,0,19.777,69.8,14,Waypoint,
37.2865722,-119.562583,4693.5725875303,194.225728,0,1.27259846592,25500,2018-04-11 20:47:19,22,0,23.011,4693.5725875303,194.225728,0.223694,1.91482617676,0,0,-0.671082,321.1, 4.5, 2.3,0,0,1024,1024,1025,1024,319.8,-89.9,97,3.827,3.811,3.833,3.83,0,0,19.777,69.8,14,Waypoint,
37.2865722,-119.562583,4694.5568395303,195.20998,0,1.27259846592,25600,2018-04-11 20:47:19,22,0,23.011,4694.5568395303,195.20998,0.223694,1.91482617676,0,0,-0.671082,321, 4.4, 2.3,0,0,1024,1024,1025,1024,319.8,-89.9,97,3.827,3.811,3.833,3.83,0,0,19.777,69.8,14,Waypoint,
37.2865722,-119.5625829,4695.8691755303,196.522316,0,1.2448163128,25700,2018-04-11 20:47:19,22,0,23.011,4695.8691755303,196.522316,0.223694,1.91482617676,0,0,-0.671082,320.9, 4.5, 2.4,0,0,1024,1024,1025,1024,319.8,-89.9,97,3.827,3.811,3.833,3.83,0,0,19.777,69.8,14,Waypoint,
37.2865722,-119.5625829,4696.8534275303,197.506568,0,1.2448163128,25800,2018-04-11 20:47:19,22,0,23.011,4696.8534275303,197.506568,0.223694,1.91482617676,0,0,-0.671082,320.8, 4.5, 2.3,0,0,1024,1024,1025,1024,319.8,-89.9,97,3.827,3.811,3.833,3.83,0,0,19.777,69.8,14,Waypoint,
37.2865722,-119.5625829,4698.8219315303,199.475072,0,1.2448163128,25910,2018-04-11 20:47:19,22,0,23.011,4698.8219315303,199.475072,0.223694,1.91482617676,0,0,-0.671082,320.7, 4.5, 2.4,0,0,1024,1024,1024,1024,319.8,-89.9,97,3.827,3.811,3.833,3.83,0,0,19.777,69.8,14,Waypoint,
37.2865722,-119.5625829,4700.7904355303,201.443576,0,1.2448163128,26110,2018-04-11 20:47:20,22,0,23.011,4700.7904355303,201.443576,0.223694,1.91482617676,0,0,-0.671082,320.7, 4.4, 2.4,0,0,1024,1024,1025,1024,319.8,-89.9,97,3.827,3.811,3.833,3.83,0,0,19.777,69.8,14,Waypoint,
37.2865722,-119.5625829,4700.7904355303,201.443576,0,1.2448163128,26200,2018-04-11 20:47:20,22,0,23.011,4700.7904355303,201.443576,0.223694,1.91482617676,0,0,-0.671082,320.7, 4.4, 2.4,0,0,1024,1024,1025,1024,319.8,-89.9,97,3.827,3.811,3.833,3.83,0,0,19.777,69.8,14,Waypoint,
37.2865722,-119.5625829,4701.7746875303,202.427828,0,1.2448163128,26300,2018-04-11 20:47:20,22,0,23.011,4701.7746875303,202.427828,0.223694,1.91482617676,0,0,-0.671082,320.8, 4.4, 2.5,0,0,1024,1024,1025,1024,319.8,-89.9,97,3.827,3.811,3.833,3.83,0,0,19.777,69.8,14,Waypoint,
37.2865722,-119.5625829,4702.7589395303,203.41208,0,1.2448163128,26400,2018-04-11 20:47:20,22,0,23.011,4702.7589395303,203.41208,0.223694,1.91482617676,0,0,-0.671082,320.8, 4.5, 2.5,0,0,1024,1024,1025,1024,319.8,-89.9,97,3.827,3.811,3.833,3.83,0,0,19.777,69.8,14,Waypoint,
37.2865722,-119.5625829,4703.7431915303,204.396332,0,1.2448163128,26500,2018-04-11 20:47:20,22,0,23.011,4703.7431915303,204.396332,0.223694,1.91482617676,0,0,-0.671082,320.8, 4.7, 2.4,0,0,1024,1024,1025,1024,319.8,-89.9,97,3.827,3.811,3.833,3.83,0,0,19.777,69.8,14,Waypoint,
37.2865723,-119.562583,4704.7274435303,205.380584,0,1.28353350564,26600,2018-04-11 20:47:20,22,0,23.011,4704.7274435303,205.380584,0.223694,1.91482617676,0,0,-0.671082,320.9, 4.8, 2.4,0,0,1024,1024,1024,1024,319.8,-89.9,97,3.827,3.811,3.833,3.83,0,0,19.777,69.8,14,Waypoint,
37.2865723,-119.562583,4705.7116955303,206.364836,0,1.28353350564,26700,2018-04-11 20:47:20,22,0,23.011,4705.7116955303,206.364836,0.223694,1.91482617676,0,0,-0.671082,320.9, 4.8, 2.4,0,0,1024,1024,1025,1024,319.8,-89.9,97,3.827,3.811,3.833,3.83,0,0,19.777,69.8,14,Waypoint,
37.2865723,-119.562583,4706.6959475303,207.349088,0,1.28353350564,26800,2018-04-11 20:47:20,22,0,23.011,4706.6959475303,207.349088,0.223694,1.91482617676,0,0,-0.671082,320.9, 4.7, 2.3,0,0,1024,1024,1025,1024,319.8,-89.9,97,3.827,3.811,3.833,3.83,0,0,19.777,69.8,14,Waypoint,
37.2865723,-119.5625831,4707.6801995303,208.33334,0,1.3111384934,26900,2018-04-11 20:47:20,22,0,23.011,4707.6801995303,208.33334,0.223694,1.91482617676,0,0,-0.671082,320.9, 4.5, 2.5,0,0,1024,1024,1025,1024,319.8,-89.9,97,3.827,3.811,3.833,3.83,0,0,19.777,69.8,14,Waypoint,
37.2865723,-119.5625831,4708.6644515303,209.317592,0,1.3111384934,27000,2018-04-11 20:47:21,22,0,23.029,4708.6644515303,209.317592,0.223694,1.91482617676,0,0,-0.671082,321, 4.7, 2.8,0,0,1024,1024,1025,1024,319.8,-89.9,97,3.834,3.815,3.826,3.831,0,0,19.661,69.8,14,Waypoint,
37.2865723,-119.5625831,4709.6487035303,210.301844,0,1.3111384934,27100,2018-04-11 20:47:21,22,0,23.029,4709.6487035303,210.301844,0.223694,1.91482617676,0,0,-0.671082,321, 4.9, 3,0,0,1024,1024,1025,1024,319.8,-89.9,97,3.834,3.815,3.826,3.831,0,0,19.661,69.8,14,Waypoint,
37.2865723,-119.5625832,4710.6329555303,211.286096,0,1.33880253628,27200,2018-04-11 20:47:21,22,0,23.029,4710.6329555303,211.286096,0.223694,1.91482617676,0,0,-0.671082,321, 5.1, 3,0,0,1024,1024,1025,1024,319.8,-89.9,97,3.834,3.815,3.826,3.831,0,0,19.661,69.8,14,Waypoint,
37.2865723,-119.5625832,4711.6172075303,212.270348,0,1.33880253628,27300,2018-04-11 20:47:21,22,0,23.029,4711.6172075303,212.270348,0.223694,1.91482617676,0,0,-0.671082,321, 5.2, 3,0,0,1024,1024,1025,1024,319.8,-89.9,97,3.834,3.815,3.826,3.831,0,0,19.661,69.8,14,Waypoint,
37.2865723,-119.5625832,4712.6014595303,213.2546,0,1.33880253628,27400,2018-04-11 20:47:21,22,0,23.029,4712.6014595303,213.2546,0.223694,1.91482617676,0,0,-0.671082,321, 5.3, 2.8,0,0,1024,1024,1024,1024,319.8,-89.9,97,3.834,3.815,3.826,3.831,0,0,19.661,69.8,14,Waypoint,
37.2865724,-119.5625832,4713.5857115303,214.238852,0,1.35018705108,27500,2018-04-11 20:47:21,22,0,23.029,4713.5857115303,214.238852,0.223694,1.91482617676,0,0,-0.671082,321, 5.3, 2.5,0,0,1024,1024,1025,1024,319.8,-89.9,97,3.834,3.815,3.826,3.831,0,0,19.661,69.8,14,Waypoint,
37.2865724,-119.5625832,4715.5542155303,216.207356,0,1.35018705108,27710,2018-04-11 20:47:21,22,0,23.029,4715.5542155303,216.207356,0.223694,1.91482617676,0,0,-0.671082,321, 5.3, 2.1,0,0,1024,1024,1025,1024,319.8,-89.9,97,3.834,3.815,3.826,3.831,0,0,19.661,69.8,14,Waypoint,
37.2865724,-119.5625832,4716.5384675303,217.191608,0,1.35018705108,27800,2018-04-11 20:47:21,22,0,23.029,4716.5384675303,217.191608,0.223694,1.91482617676,0,0,-0.671082,320.9, 5.3, 2.2,0,0,1024,1024,1025,1024,319.8,-89.9,97,3.834,3.815,3.826,3.831,0,0,19.661,69.8,14,Waypoint,
37.2865724,-119.5625832,4717.5227195303,218.17586,0,1.35018705108,27900,2018-04-11 20:47:21,22,0,23.029,4717.5227195303,218.17586,0.223694,1.91482617676,0,0,-0.671082,320.9, 5.1, 2.4,0,0,1024,1024,1025,1024,319.8,-89.9,97,3.834,3.815,3.826,3.831,0,0,19.661,69.8,14,Waypoint,
