Latitude, Longitude, Altitude (m), Time, Sats, Speed (m/s), Range (m), Battery (%), Roll (deg), Pitch (deg), Yaw (deg), Images, HD Signal (%), RC Signal (%), Battery Temp (C), Battery Voltage (mV), Battery Current (mA), Battery Energy (mAh), Battery Capacity (mAh), Battery Discharges, flyState, timestamp (Unix), LastUpdate (ms), radioChannel, Rc_elevator, Rc_aileron, Rc_throttle, Rc_rudder, Rc_gyro, Dronetype, Battery_Cell1 (mV), Battery_Cell2 (mV), Battery_Cell3 (mV), Battery_Cell4 (mV), Battery_Cell5 (mV), Battery_Cell6 (mV), Video, isFlying, elapsedTime (ms), gimbalPitch (deg), gimbalRoll (deg), gimbalYaw (deg), VelocityX (m/s), VelocityY (m/s), VelocityZ (m/s), GroundSmear (cm), App Version, Aircraft Name, Aircraft Firmware, Aircraft Serial Number, Battery Serial Number, Battery Lifetime (%), App_Tip, App_Warning, CurrentFlightStartingIndex, CurrentFlightLastVisitedWaypoint, PreviousFlightEndingWaypointIndex
37.2865881, -119.5625621, 0.000, 14:06:17.493, 17, 0.00, 0.03, 98, -0.800, 0.000, -43.900, 442, 100, 100, 21, 25096, -5098, 5492, 5605, 5, 11, 1523480777.494, 99, 0, 1024, 1024, 1024, 1024, 0, 6, 4289, 4233, 4312, 4310, 4318, 4310, 0, 1, 3055, -90.000, 0.000, -45.100, 0.000, 0.000, -0.100, 0.0, MapPilot_2.7.4_02272018, Dendroctonus I, 1.3.1.00, 041DDC1887, 1058171200149, 99, DJI_0701.jpg, Starting Mission from Lat/Long: 37.28659/-119.56255 Camera: Zenmuse X3 - Overlap: 90/90 - Active Connection: Yes, 21, 21, 21
37.2865880, -119.5625624, 0.000, 14:06:17.539, 17, 0.10, 0.03, 98, 0.000, 0.000, -44.100, 442, 100, 100, 21, 25096, -5098, 5492, 5605, 5, 11, 1523480777.540, 36, 0, 1024, 1024, 1024, 1024, 0, 6, 4289, 4233, 4312, 4310, 4318, 4310, 0, 1, 3101, -89.900, 0.000, -45.100, 0.000, -0.100, -0.300, 0.0, , , , , , 99, , , 21, 21, 21
37.2865880, -119.5625626, 0.100, 14:06:17.639, 17, 0.10, 0.04, 98, 0.200, 0.100, -44.000, 442, 100, 100, 21, 25096, -5098, 5492, 5605, 5, 11, 1523480777.640, 43, 0, 1024, 1024, 1024, 1024, 0, 6, 4289, 4233, 4312, 4310, 4318, 4310, 0, 1, 3201, -89.900, 0.000, -45.100, 0.000, -0.100, -0.400, 0.0, , , , , , 99, , , 21, 21, 21
37.2865879, -119.5625627, 0.100, 14:06:17.739, 17, 0.10, 0.05, 98, 0.300, 0.400, -43.900, 442, 100, 100, 21, 25096, -5098, 5492, 5605, 5, 11, 1523480777.739, 35, 0, 1024, 1024, 1024, 1024, 0, 6, 4289, 4233, 4312, 4310, 4318, 4310, 0, 1, 3301, -89.900, 0.000, -45.100, 0.000, -0.100, -0.400, 0.0, , , , , , 99, , , 21, 21, 21
37.2865879, -119.5625629, 0.200, 14:06:17.839, 17, 0.10, 0.07, 98, 0.600, 0.700, -44.000, 442, 100, 100, 21, 25096, -5098, 5492, 5605, 5, 11, 1523480777.840, 50, 0, 1024, 1024, 1024, 1024, 0, 6, 4172, 4156, 4199, 4169, 4218, 4294, 0, 1, 3401, -89.900, 0.000, -45.000, 0.000, -0.100, -0.300, 0.0, , , , , , 99, , , 21, 21, 21
37.2865878, -119.5625632, 0.200, 14:06:17.939, 17, 0.10, 0.09, 98, 1.300, 0.900, -44.000, 442, 100, 100, 21, 25096, -5098, 5492, 5605, 5, 11, 1523480777.940, 22, 0, 1024, 1024, 1024, 1024, 0, 6, 4172, 4156, 4199, 4169, 4218, 4294, 0, 1, 3501, -89.900, 0.000, -45.000, 0.000, -0.100, -0.400, 0.0, , , , , , 99, , , 21, 21, 21
37.2865877, -119.5625633, 0.300, 14:06:18.039, 17, 0.10, 0.10, 98, 1.700, 0.800, -44.000, 442, 100, 100, 21, 25096, -5098, 5492, 5605, 5, 11, 1523480778.040, 23, 0, 1024, 1024, 1024, 1024, 0, 6, 4172, 4156, 4199, 4169, 4218, 4294, 0, 1, 3601, -89.900, 0.000, -45.000, 0.000, -0.100, -0.400, 0.0, , , , , , 99, , , 21, 21, 21
37.2865877, -119.5625635, 0.300, 14:06:18.145, 17, 0.10, 0.12, 98, 1.700, 0.800, -44.000, 442, 100, 100, 21, 25096, -5098, 5492, 5605, 5, 11, 1523480778.145, 15, 0, 1024, 1024, 1024, 1024, 0, 6, 4172, 4156, 4199, 4169, 4218, 4294, 0, 1, 3706, -89.900, 0.000, -45.000, 0.000, -0.100, -0.400, 0.0, , , , , , 99, , , 21, 21, 21
37.2865876, -119.5625636, 0.400, 14:06:18.239, 16, 0.10, 0.13, 98, 1.500, 0.700, -44.000, 442, 100, 100, 21, 25096, -5098, 5492, 5605, 5, 11, 1523480778.239, 18, 0, 1024, 1024, 1024, 1024, 0, 6, 4172, 4156, 4199, 4169, 4218, 4294, 0, 1, 3800, -89.900, 0.000, -45.000, 0.000, -0.100, -0.400, 0.0, , , , , , 99, , , 21, 21, 21
37.2865875, -119.5625638, 0.400, 14:06:18.339, 16, 0.10, 0.15, 98, 1.400, 0.600, -44.000, 442, 100, 100, 21, 25096, -5098, 5492, 5605, 5, 11, 1523480778.339, 22, 0, 1024, 1024, 1024, 1024, 0, 6, 4172, 4156, 4199, 4169, 4218, 4294, 0, 1, 3900, -89.900, 0.000, -45.000, 0.000, -0.100, -0.400, 0.0, , , , , , 99, , , 21, 21, 21
37.2865875, -119.5625640, 0.500, 14:06:18.439, 15, 0.10, 0.16, 98, 1.400, 0.500, -44.000, 442, 100, 100, 21, 25096, -5098, 5492, 5605, 5, 11, 1523480778.440, 24, 0, 1024, 1024, 1024, 1024, 0, 6, 4172, 4156, 4199, 4169, 4218, 4294, 0, 1, 4001, -89.900, 0.000, -44.900, 0.000, -0.100, -0.300, 0.0, , , , , , 99, , , 21, 21, 21
37.2865875, -119.5625641, 0.500, 14:06:18.539, 15, 0.10, 0.18, 98, 1.600, 0.400, -44.100, 442, 100, 100, 21, 25096, -5098, 5492, 5605, 5, 11, 1523480778.539, 9, 0, 1024, 1024, 1024, 1024, 0, 6, 4172, 4156, 4199, 4169, 4218, 4294, 0, 1, 4100, -89.900, 0.000, -44.900, 0.000, -0.100, -0.400, 0.0, , , , , , 99, , , 21, 21, 21
37.2865875, -119.5625641, 0.500, 14:06:18.639, 15, 0.10, 0.18, 98, 1.600, 0.400, -44.100, 442, 100, 100, 21, 25096, -5098, 5492, 5605, 5, 11, 1523480778.640, 109, 0, 1024, 1024, 1024, 1024, 0, 6, 4172, 4156, 4199, 4169, 4218, 4294, 0, 1, 4201, -89.900, 0.000, -44.900, 0.000, -0.100, -0.400, 0.0, , , , , , 99, , , 21, 21, 21
37.2865874, -119.5625643, 0.500, 14:06:18.739, 16, 0.10, 0.20, 98, 1.700, 0.500, -44.100, 442, 100, 100, 21, 25096, -5098, 5492, 5605, 5, 11, 1523480778.740, 86, 0, 1024, 1024, 1024, 1024, 0, 6, 4172, 4156, 4199, 4169, 4218, 4294, 0, 1, 4301, -89.900, 0.000, -44.900, 0.000, -0.100, -0.400, 0.0, , , , , , 99, , , 21, 21, 21
37.2865873, -119.5625647, 0.700, 14:06:18.845, 14, 0.00, 0.23, 98, 2.000, 0.700, -44.300, 442, 100, 100, 21, 24312, -15361, 5492, 5605, 5, 11, 1523480778.846, 11, 0, 1024, 1024, 1024, 1024, 0, 6, 4172, 4156, 4199, 4169, 4218, 4294, 0, 1, 4407, -89.900, 0.000, -44.900, 0.000, 0.000, -0.500, 0.0, , , , , , 99, , , 21, 21, 21
37.2865873, -119.5625647, 0.700, 14:06:18.939, 14, 0.00, 0.23, 98, 2.000, 0.700, -44.300, 442, 100, 100, 21, 24312, -15361, 5492, 5605, 5, 11, 1523480778.940, 105, 0, 1024, 1024, 1024, 1024, 0, 6, 4039, 4031, 4080, 4050, 4050, 4045, 0, 1, 4501, -89.900, 0.000, -44.900, 0.000, 0.000, -0.500, 0.0, , , , , , 99, , , 21, 21, 21
37.2865873, -119.5625648, 0.700, 14:06:19.039, 14, 0.00, 0.25, 98, 1.900, 0.800, -44.200, 442, 100, 100, 21, 24312, -15361, 5492, 5605, 5, 11, 1523480779.039, 85, 0, 1024, 1024, 1024, 1024, 0, 6, 4039, 4031, 4080, 4050, 4050, 4045, 0, 1, 4600, -89.900, 0.000, -44.900, 0.000, 0.000, -0.500, 0.0, , , , , , 99, , , 21, 21, 21
37.2865873, -119.5625650, 0.800, 14:06:19.139, 15, 0.00, 0.26, 98, 1.900, 0.900, -44.000, 442, 100, 100, 21, 24312, -15361, 5492, 5605, 5, 11, 1523480779.139, 64, 0, 1024, 1024, 1024, 1024, 0, 6, 4039, 4031, 4080, 4050, 4050, 4045, 0, 1, 4700, -89.900, 0.000, -44.900, 0.000, 0.000, -0.400, 0.0, , , , , , 99, , , 21, 21, 21
37.2865873, -119.5625651, 0.800, 14:06:19.239, 15, 0.00, 0.27, 98, 2.000, 1.000, -43.800, 442, 100, 100, 21, 24312, -15361, 5492, 5605, 5, 11, 1523480779.239, 68, 0, 1024, 1024, 1024, 1024, 0, 6, 4039, 4031, 4080, 4050, 4050, 4045, 0, 1, 4801, -89.900, 0.000, -44.900, 0.000, 0.000, -0.400, 0.0, , , , , , 99, , , 21, 21, 21
37.2865873, -119.5625652, 0.900, 14:06:19.339, 14, 0.00, 0.28, 98, 2.100, 1.200, -43.600, 442, 100, 100, 21, 24312, -15361, 5492, 5605, 5, 14, 1523480779.340, 73, 0, 1024, 1024, 1024, 1024, 0, 6, 4039, 4031, 4080, 4050, 4050, 4045, 0, 1, 4901, -89.900, 0.000, -44.900, 0.000, 0.000, -0.500, 0.0, , , , , , 99, , , 21, 21, 21
37.2865872, -119.5625654, 0.900, 14:06:19.439, 14, 0.00, 0.29, 98, 2.300, 1.300, -43.600, 442, 100, 100, 21, 24312, -15361, 5492, 5605, 5, 14, 1523480779.439, 65, 0, 1024, 1024, 1024, 1024, 0, 6, 4039, 4031, 4080, 4050, 4050, 4045, 0, 1, 5000, -89.900, 0.000, -44.900, 0.000, 0.000, -0.400, 0.0, , , , , , 99, , , 21, 21, 21
37.2865872, -119.5625655, 1.000, 14:06:19.539, 17, 0.00, 0.30, 98, 1.700, 0.800, -43.500, 442, 100, 100, 21, 24312, -15361, 5492, 5605, 5, 14, 1523480779.539, 66, 0, 1024, 1024, 1024, 1024, 0, 6, 4039, 4031, 4080, 4050, 4050, 4045, 0, 1, 5100, -90.000, 0.000, -44.800, 0.000, 0.000, -0.200, 0.0, , , , , , 99, , , 21, 21, 21
37.2865872, -119.5625656, 1.000, 14:06:19.639, 17, 0.00, 0.32, 98, 1.400, 0.400, -43.600, 442, 100, 100, 21, 24312, -15361, 5492, 5605, 5, 14, 1523480779.640, 67, 0, 1024, 1024, 1024, 1024, 0, 6, 4039, 4031, 4080, 4050, 4050, 4045, 0, 1, 5201, -90.000, 0.000, -44.800, 0.000, 0.000, -0.200, 0.0, , , , , , 99, , , 21, 21, 21
37.2865872, -119.5625657, 1.100, 14:06:19.739, 16, 0.00, 0.33, 98, 1.400, 0.300, -43.600, 442, 100, 100, 21, 24312, -15361, 5492, 5605, 5, 14, 1523480779.739, 72, 0, 1024, 1024, 1024, 1024, 0, 6, 4039, 4031, 4080, 4050, 4050, 4045, 0, 1, 5300, -89.900, 0.000, -44.800, 0.000, 0.000, -0.300, 0.0, , , , , , 99, , , 21, 21, 21
37.2865872, -119.5625659, 1.100, 14:06:19.839, 17, 0.00, 0.34, 98, 1.500, 0.600, -43.600, 442, 100, 100, 21, 24125, -16625, 5492, 5605, 5, 14, 1523480779.840, 40, 0, 1024, 1024, 1024, 1024, 0, 6, 3997, 4005, 4033, 4029, 4043, 4013, 0, 1, 5401, -89.900, 0.000, -44.800, 0.000, 0.000, -0.500, 0.0, , , , , , 99, , , 21, 21, 21
37.2865871, -119.5625660, 1.200, 14:06:19.939, 17, 0.00, 0.35, 98, 1.500, 0.700, -43.600, 442, 100, 100, 21, 24125, -16625, 5492, 5605, 5, 14, 1523480779.940, 30, 0, 1024, 1024, 1024, 1024, 0, 6, 3997, 4005, 4033, 4029, 4043, 4013, 0, 1, 5501, -89.900, 0.000, -44.800, 0.000, 0.000, -0.800, 0.0, , , , , , 99, , , 21, 21, 21
37.2865870, -119.5625661, 1.300, 14:06:20.039, 16, 0.00, 0.36, 98, 1.600, 0.500, -43.600, 442, 100, 100, 21, 24125, -16625, 5492, 5605, 5, 14, 1523480780.039, 20, 0, 1024, 1024, 1024, 1024, 0, 6, 3997, 4005, 4033, 4029, 4043, 4013, 0, 1, 5600, -89.900, 0.000, -44.800, 0.000, 0.000, -0.900, 0.0, , , , , , 99, , , 21, 21, 21
37.2865871, -119.5625663, 1.400, 14:06:20.141, 16, 0.00, 0.37, 98, 1.600, 0.500, -43.600, 442, 100, 100, 21, 24125, -16625, 5492, 5605, 5, 14, 1523480780.142, 11, 0, 1024, 1024, 1024, 1024, 0, 6, 3997, 4005, 4033, 4029, 4043, 4013, 0, 1, 5703, -90.000, 0.000, -44.700, 0.000, 0.000, -1.100, 0.0, , , , , , 99, , , 21, 21, 21
37.2865871, -119.5625664, 1.600, 14:06:20.239, 15, 0.00, 0.39, 98, 1.700, 0.800, -43.500, 442, 100, 100, 21, 24125, -16625, 5492, 5605, 5, 14, 1523480780.240, 27, 0, 1024, 1024, 1024, 1024, 0, 6, 3997, 4005, 4033, 4029, 4043, 4013, 0, 1, 5801, -89.900, 0.000, -44.700, 0.000, 0.000, -1.300, 0.0, , , , , , 99, , , 21, 21, 21
37.2865870, -119.5625665, 1.700, 14:06:20.339, 15, 0.00, 0.40, 98, 1.700, 1.000, -43.400, 442, 100, 100, 21, 24125, -16625, 5492, 5605, 5, 14, 1523480780.340, 30, 0, 1024, 1024, 1024, 1024, 0, 6, 3997, 4005, 4033, 4029, 4043, 4013, 0, 1, 5901, -89.900, 0.000, -44.700, 0.000, 0.000, -1.500, 0.0, , , , , , 99, , , 21, 21, 21
37.2865870, -119.5625666, 1.900, 14:06:20.439, 16, 0.00, 0.41, 98, 1.700, 1.000, -43.200, 442, 100, 100, 21, 24125, -16625, 5492, 5605, 5, 14, 1523480780.440, 31, 0, 1024, 1024, 1024, 1024, 0, 6, 3997, 4005, 4033, 4029, 4043, 4013, 0, 1, 6001, -89.900, 0.000, -44.700, 0.000, 0.000, -1.800, 0.0, , , , , , 99, , , 21, 21, 21
37.2865870, -119.5625667, 2.100, 14:06:20.539, 16, 0.00, 0.41, 98, 1.900, 0.700, -43.100, 442, 100, 100, 21, 24125, -16625, 5492, 5605, 5, 14, 1523480780.539, 33, 0, 1024, 1024, 1024, 1024, 0, 6, 3997, 4005, 4033, 4029, 4043, 4013, 0, 1, 6100, -90.000, 0.000, -44.700, 0.000, 0.000, -1.900, 0.0, , , , , , 99, , , 21, 21, 21
37.2865870, -119.5625667, 2.300, 14:06:20.649, 15, 0.00, 0.42, 98, 2.000, 0.600, -43.100, 442, 100, 100, 21, 24125, -16625, 5492, 5605, 5, 14, 1523480780.649, 9, 0, 1024, 1024, 1024, 1024, 0, 6, 3997, 4005, 4033, 4029, 4043, 4013, 0, 1, 6210, -90.000, 0.000, -44.700, 0.000, 0.000, -2.100, 0.0, , , , , , 99, , , 21, 21, 21
37.2865870, -119.5625668, 2.600, 14:06:20.739, 15, 0.00, 0.42, 98, 2.200, 0.500, -43.200, 442, 100, 100, 21, 24125, -16625, 5492, 5605, 5, 14, 1523480780.739, 25, 0, 1024, 1024, 1024, 1024, 0, 6, 3997, 4005, 4033, 4029, 4043, 4013, 0, 1, 6300, -89.900, 0.000, -44.700, 0.000, 0.000, -2.200, 0.0, , , , , , 99, , , 21, 21, 21
37.2865870, -119.5625668, 2.600, 14:06:20.839, 15, 0.00, 0.42, 98, 2.200, 0.500, -43.200, 442, 100, 100, 21, 24125, -16625, 5492, 5605, 5, 14, 1523480780.839, 125, 0, 1024, 1024, 1024, 1024, 0, 6, 3997, 4005, 4033, 4029, 4043, 4013, 0, 1, 6400, -89.900, 0.000, -44.700, 0.000, 0.000, -2.200, 0.0, , , , , , 99, , , 21, 21, 21
37.2865870, -119.5625669, 2.800, 14:06:20.939, 16, 0.00, 0.44, 98, 2.300, 0.500, -43.200, 442, 100, 100, 21, 23899, -17884, 5492, 5605, 5, 14, 1523480780.939, 77, 0, 1024, 1024, 1024, 1024, 0, 6, 3952, 3965, 3994, 3985, 3985, 3967, 0, 1, 6500, -90.000, 0.000, -44.600, 0.000, 0.000, -2.500, 0.0, , , , , , 99, , , 21, 21, 21
37.2865869, -119.5625671, 3.100, 14:06:21.039, 16, 0.00, 0.45, 98, 2.500, 0.500, -43.300, 442, 100, 100, 21, 23899, -17884, 5492, 5605, 5, 14, 1523480781.039, 82, 0, 1024, 1024, 1024, 1024, 0, 6, 3952, 3965, 3994, 3985, 3985, 3967, 0, 1, 6600, -89.900, 0.000, -44.600, 0.000, 0.000, -2.700, 0.0, , , , , , 99, , , 21, 21, 21
37.2865868, -119.5625672, 3.400, 14:06:21.139, 16, 0.00, 0.47, 98, 2.900, 0.800, -43.400, 442, 100, 100, 21, 23899, -17884, 5492, 5605, 5, 14, 1523480781.140, 61, 0, 1024, 1024, 1024, 1024, 0, 6, 3952, 3965, 3994, 3985, 3985, 3967, 0, 1, 6701, -89.900, 0.000, -44.600, 0.000, 0.000, -3.000, 0.0, , , , , , 99, , , 21, 21, 21
37.2865867, -119.5625673, 3.700, 14:06:21.239, 16, 0.00, 0.47, 98, 3.000, 1.100, -43.500, 442, 100, 100, 21, 23899, -17884, 5492, 5605, 5, 14, 1523480781.240, 58, 0, 1024, 1024, 1024, 1024, 0, 6, 3952, 3965, 3994, 3985, 3985, 3967, 0, 1, 6801, -89.900, 0.000, -44.600, 0.000, 0.000, -3.000, 0.0, , , , , , 99, , , 21, 21, 21
37.2865867, -119.5625673, 4.000, 14:06:21.339, 16, 0.00, 0.47, 98, 3.100, 0.900, -43.600, 442, 100, 100, 21, 23899, -17884, 5492, 5605, 5, 14, 1523480781.339, 77, 0, 1024, 1024, 1024, 1024, 0, 6, 3952, 3965, 3994, 3985, 3985, 3967, 0, 1, 6900, -89.900, 0.000, -44.600, 0.000, 0.000, -3.100, 0.0, , , , , , 99, , , 21, 21, 21
37.2865868, -119.5625672, 4.300, 14:06:21.439, 16, 0.00, 0.46, 98, 2.700, 0.800, -43.800, 442, 100, 100, 21, 23899, -17884, 5492, 5605, 5, 14, 1523480781.440, 83, 0, 1024, 1024, 1024, 1024, 0, 6, 3952, 3965, 3994, 3985, 3985, 3967, 0, 1, 7001, -89.900, 0.000, -44.600, 0.000, 0.000, -3.200, 0.0, , , , , , 99, , , 21, 21, 21
37.2865869, -119.5625671, 4.700, 14:06:21.539, 17, 0.00, 0.45, 98, 2.100, 0.800, -43.800, 442, 100, 100, 21, 23899, -17884, 5492, 5605, 5, 14, 1523480781.539, 85, 0, 1024, 1024, 1024, 1024, 0, 6, 3952, 3965, 3994, 3985, 3985, 3967, 0, 1, 7100, -89.900, 0.000, -44.600, 0.000, 0.000, -3.100, 0.0, , , , , , 99, , , 21, 21, 21
37.2865869, -119.5625669, 5.000, 14:06:21.639, 17, 0.00, 0.44, 98, 1.600, 0.700, -43.800, 442, 100, 100, 21, 23899, -17884, 5492, 5605, 5, 14, 1523480781.640, 74, 0, 1024, 1024, 1024, 1024, 0, 6, 3952, 3965, 3994, 3985, 3985, 3967, 0, 1, 7201, -89.900, 0.000, -44.600, 0.000, 0.000, -3.100, 0.0, , , , , , 99, , , 21, 21, 21
37.2865870, -119.5625668, 5.300, 14:06:21.739, 17, 0.00, 0.43, 98, 1.300, 0.400, -43.800, 442, 100, 100, 21, 23899, -17884, 5492, 5605, 5, 14, 1523480781.739, 75, 0, 1024, 1024, 1024, 1024, 0, 6, 3952, 3965, 3994, 3985, 3985, 3967, 0, 1, 7300, -89.900, 0.000, -44.600, 0.000, 0.000, -3.100, 0.0, , , , , , 99, , , 21, 21, 21
37.2865871, -119.5625667, 5.600, 14:06:21.839, 17, 0.00, 0.41, 98, 1.000, 0.400, -43.700, 442, 100, 100, 21, 23366, -23573, 5492, 5605, 5, 14, 1523480781.839, 68, 0, 1024, 1024, 1024, 1024, 0, 6, 3874, 3866, 3920, 3919, 3908, 3921, 0, 1, 7400, -89.900, 0.000, -44.600, 0.000, 0.000, -3.200, 0.0, , , , , , 99, , , 21, 21, 21
37.2865872, -119.5625666, 6.000, 14:06:21.939, 16, 0.00, 0.40, 98, 0.900, 0.600, -43.600, 442, 100, 100, 21, 23366, -23573, 5492, 5605, 5, 14, 1523480781.941, 44, 0, 1024, 1024, 1024, 1024, 0, 6, 3874, 3866, 3920, 3919, 3908, 3921, 0, 1, 7502, -89.900, 0.000, -44.600, 0.000, 0.000, -3.200, 0.0, , , , , , 99, , , 21, 21, 21
37.2865872, -119.5625666, 6.300, 14:06:22.039, 16, 0.00, 0.40, 98, 0.800, 0.800, -43.500, 442, 100, 100, 21, 23366, -23573, 5492, 5605, 5, 14, 1523480782.039, 52, 0, 1024, 1024, 1024, 1024, 0, 6, 3874, 3866, 3920, 3919, 3908, 3921, 0, 1, 7600, -89.900, 0.000, -44.600, 0.000, 0.000, -3.200, 0.0, , , , , , 99, , , 21, 21, 21
37.2865874, -119.5625664, 7.000, 14:06:22.139, 17, 0.00, 0.38, 98, 0.700, 0.800, -43.400, 442, 100, 100, 21, 23366, -23573, 5492, 5605, 5, 14, 1523480782.140, 39, 0, 1024, 1024, 1024, 1024, 0, 6, 3874, 3866, 3920, 3919, 3908, 3921, 0, 1, 7701, -89.900, 0.000, -44.600, 0.000, 0.000, -3.100, 0.0, , , , , , 99, , , 21, 21, 21
37.2865875, -119.5625663, 7.300, 14:06:22.239, 18, 0.00, 0.37, 98, 0.600, 0.700, -43.400, 442, 100, 100, 21, 23366, -23573, 5492, 5605, 5, 14, 1523480782.240, 43, 0, 1024, 1024, 1024, 1024, 0, 6, 3874, 3866, 3920, 3919, 3908, 3921, 0, 1, 7801, -89.900, 0.000, -44.600, 0.000, 0.000, -3.200, 0.0, , , , , , 99, , , 21, 21, 21
37.2865875, -119.5625663, 7.600, 14:06:22.339, 18, 0.00, 0.37, 98, 0.500, 0.600, -43.400, 442, 100, 100, 21, 23366, -23573, 5492, 5605, 5, 14, 1523480782.340, 39, 0, 1024, 1024, 1024, 1024, 0, 6, 3874, 3866, 3920, 3919, 3908, 3921, 0, 1, 7901, -89.900, 0.000, -44.600, 0.000, 0.000, -3.200, 0.0, , , , , , 99, , , 21, 21, 21
37.2865876, -119.5625664, 8.000, 14:06:22.439, 17, 0.00, 0.37, 98, 0.700, 0.600, -43.400, 442, 100, 100, 21, 23366, -23573, 5492, 5605, 5, 14, 1523480782.440, 41, 0, 1024, 1024, 1024, 1024, 0, 6, 3874, 3866, 3920, 3919, 3908, 3921, 0, 1, 8001, -90.000, 0.000, -44.600, 0.000, 0.000, -3.200, 0.0, , , , , , 99, , , 21, 21, 21
37.2865876, -119.5625664, 8.300, 14:06:22.539, 17, 0.00, 0.38, 98, 1.000, 1.000, -43.300, 442, 100, 100, 21, 23366, -23573, 5492, 5605, 5, 14, 1523480782.540, 40, 0, 1024, 1024, 1024, 1024, 0, 6, 3874, 3866, 3920, 3919, 3908, 3921, 0, 1, 8101, -89.900, 0.000, -44.600, 0.000, 0.000, -3.100, 0.0, , , , , , 99, , , 21, 21, 21
37.2865877, -119.5625665, 8.600, 14:06:22.639, 17, 0.00, 0.38, 98, 1.300, 1.300, -43.300, 442, 100, 100, 21, 23366, -23573, 5492, 5605, 5, 14, 1523480782.640, 34, 0, 1024, 1024, 1024, 1024, 0, 6, 3874, 3866, 3920, 3919, 3908, 3921, 0, 1, 8201, -89.900, 0.000, -44.600, 0.000, 0.000, -3.100, 0.0, , , , , , 99, , , 21, 21, 21
37.2865877, -119.5625666, 8.900, 14:06:22.740, 17, 0.00, 0.39, 98, 1.500, 1.400, -43.300, 442, 100, 100, 21, 23366, -23573, 5492, 5605, 5, 14, 1523480782.741, 11, 0, 1024, 1024, 1024, 1024, 0, 6, 3874, 3866, 3920, 3919, 3908, 3921, 0, 1, 8302, -89.900, 0.000, -44.600, 0.000, 0.000, -3.000, 0.0, , , , , , 99, , , 21, 21, 21
37.2865877, -119.5625666, 9.300, 14:06:22.841, 18, 0.00, 0.40, 98, 1.700, 1.400, -43.300, 442, 100, 100, 21, 23668, -18877, 5492, 5605, 5, 14, 1523480782.842, 16, 0, 1024, 1024, 1024, 1024, 0, 6, 3874, 3866, 3920, 3919, 3908, 3921, 0, 1, 8403, -89.900, 0.000, -44.600, 0.000, 0.000, -3.000, 0.0, , , , , , 99, , , 21, 21, 21
37.2865877, -119.5625667, 9.600, 14:06:22.939, 18, 0.00, 0.40, 98, 1.600, 1.200, -43.300, 442, 100, 100, 21, 23668, -18877, 5492, 5605, 5, 14, 1523480782.939, 15, 0, 1024, 1024, 1024, 1024, 0, 6, 3874, 3866, 3920, 3919, 3908, 3921, 0, 1, 8500, -89.900, 0.000, -44.600, 0.000, 0.000, -3.000, 0.0, , , , , , 99, , , 21, 21, 21
37.2865878, -119.5625667, 9.900, 14:06:23.039, 18, 0.00, 0.41, 98, 1.700, 1.200, -43.300, 442, 100, 100, 21, 23668, -18877, 5492, 5605, 5, 14, 1523480783.040, 32, 0, 1024, 1024, 1024, 1024, 0, 6, 3874, 3866, 3920, 3919, 3908, 3921, 0, 1, 8601, -89.900, 0.000, -44.600, 0.000, 0.000, -3.000, 0.0, , , , , , 99, , , 21, 21, 21
37.2865879, -119.5625668, 10.200, 14:06:23.153, 18, 0.00, 0.41, 98, 1.800, 1.600, -43.200, 442, 100, 100, 21, 23668, -18877, 5492, 5605, 5, 14, 1523480783.154, 11, 0, 1024, 1024, 1024, 1024, 0, 6, 3874, 3866, 3920, 3919, 3908, 3921, 0, 1, 8715, -89.900, 0.000, -44.600, 0.000, 0.000, -3.000, 0.0, , , , , , 99, , , 21, 21, 21
37.2865879, -119.5625668, 10.200, 14:06:23.239, 18, 0.00, 0.41, 98, 1.800, 1.600, -43.200, 442, 100, 100, 21, 23668, -18877, 5492, 5605, 5, 14, 1523480783.240, 96, 0, 1024, 1024, 1024, 1024, 0, 6, 3874, 3866, 3920, 3919, 3908, 3921, 0, 1, 8801, -89.900, 0.000, -44.600, 0.000, 0.000, -3.000, 0.0, , , , , , 99, , , 21, 21, 21
37.2865880, -119.5625669, 10.800, 14:06:23.342, 16, 0.00, 0.42, 98, 1.200, 2.200, -43.400, 442, 100, 100, 21, 23668, -18877, 5492, 5605, 5, 14, 1523480783.343, 10, 0, 1024, 1024, 1024, 1024, 0, 6, 3919, 3930, 3958, 3963, 3974, 3955, 0, 1, 8904, -89.900, 0.000, -44.600, 0.000, 0.000, -3.000, 0.0, , , , , , 99, , , 21, 21, 21
37.2865880, -119.5625669, 10.800, 14:06:23.439, 16, 0.00, 0.42, 98, 1.200, 2.200, -43.400, 442, 100, 100, 21, 23668, -18877, 5492, 5605, 5, 14, 1523480783.440, 108, 0, 1024, 1024, 1024, 1024, 0, 6, 3919, 3930, 3958, 3963, 3974, 3955, 0, 1, 9001, -89.900, 0.000, -44.600, 0.000, 0.000, -3.000, 0.0, , , , , , 99, , , 21, 21, 21
37.2865881, -119.5625670, 11.200, 14:06:23.539, 18, 0.00, 0.43, 98, 1.300, 2.500, -43.500, 442, 100, 100, 21, 23668, -18877, 5492, 5605, 5, 14, 1523480783.540, 91, 0, 1024, 1024, 1024, 1024, 0, 6, 3919, 3930, 3958, 3963, 3974, 3955, 0, 1, 9101, -89.900, 0.000, -44.600, 0.000, 0.000, -3.000, 0.0, , , , , , 99, , , 21, 21, 21
37.2865882, -119.5625671, 11.500, 14:06:23.639, 18, 0.00, 0.44, 98, 1.100, 2.900, -43.500, 442, 100, 100, 21, 23668, -18877, 5492, 5605, 5, 14, 1523480783.640, 96, 0, 1024, 1024, 1024, 1024, 0, 6, 3919, 3930, 3958, 3963, 3974, 3955, 0, 1, 9201, -89.900, 0.000, -44.600, 0.000, 0.000, -2.900, 0.0, , , , , , 99, , , 21, 21, 21
37.2865883, -119.5625671, 11.800, 14:06:23.739, 17, 0.00, 0.44, 98, 1.000, 3.200, -43.600, 442, 100, 100, 21, 23668, -18877, 5492, 5605, 5, 14, 1523480783.740, 87, 0, 1024, 1024, 1024, 1024, 0, 6, 3919, 3930, 3958, 3963, 3974, 3955, 0, 1, 9301, -89.900, 0.000, -44.600, 0.000, 0.000, -2.900, 0.0, , , , , , 99, , , 21, 21, 21
37.2865885, -119.5625671, 12.100, 14:06:23.839, 17, 0.00, 0.45, 98, 1.000, 3.400, -43.600, 442, 100, 100, 21, 23668, -18877, 5492, 5605, 5, 14, 1523480783.840, 80, 0, 1024, 1024, 1024, 1024, 0, 6, 3919, 3930, 3958, 3963, 3974, 3955, 0, 1, 9401, -89.900, 0.000, -44.600, 0.000, 0.000, -2.900, 0.0, , , , , , 99, , , 21, 21, 21
37.2865886, -119.5625671, 12.400, 14:06:23.939, 17, 0.00, 0.45, 98, 0.400, 3.400, -43.600, 442, 100, 100, 21, 23668, -18877, 5492, 5605, 5, 14, 1523480783.940, 69, 0, 1024, 1024, 1024, 1024, 0, 6, 3919, 3930, 3958, 3963, 3974, 3955, 0, 1, 9501, -89.900, 0.000, -44.600, 0.000, 0.000, -2.900, 0.0, , , , , , 99, , , 21, 21, 21
37.2865886, -119.5625671, 12.700, 14:06:24.039, 17, 0.00, 0.45, 98, 0.200, 3.100, -43.500, 442, 100, 100, 21, 23668, -18877, 5492, 5605, 5, 14, 1523480784.040, 73, 0, 1024, 1024, 1024, 1024, 0, 6, 3919, 3930, 3958, 3963, 3974, 3955, 0, 1, 9601, -89.900, 0.000, -44.600, 0.000, 0.000, -2.900, 0.0, , , , , , 99, , , 21, 21, 21
37.2865886, -119.5625672, 13.000, 14:06:24.139, 18, 0.00, 0.45, 98, 0.400, 3.000, -43.500, 442, 100, 100, 21, 23668, -18877, 5492, 5605, 5, 14, 1523480784.139, 88, 0, 1024, 1024, 1024, 1024, 0, 6, 3919, 3930, 3958, 3963, 3974, 3955, 0, 1, 9700, -89.900, 0.000, -44.600, 0.000, 0.000, -2.900, 0.0, , , , , , 99, , , 21, 21, 21
37.2865886, -119.5625672, 13.300, 14:06:24.239, 18, 0.00, 0.45, 98, 0.800, 2.800, -43.400, 442, 100, 100, 21, 23668, -18877, 5492, 5605, 5, 14, 1523480784.239, 74, 0, 1024, 1024, 1024, 1024, 0, 6, 3919, 3930, 3958, 3963, 3974, 3955, 0, 1, 9800, -89.900, 0.000, -44.600, 0.000, 0.000, -2.900, 0.0, , , , , , 99, , , 21, 21, 21
37.2865886, -119.5625673, 13.600, 14:06:24.339, 19, 0.00, 0.46, 98, 1.400, 2.300, -43.300, 442, 100, 100, 21, 23748, -18121, 5492, 5605, 5, 14, 1523480784.340, 50, 0, 1024, 1024, 1024, 1024, 0, 6, 3929, 3930, 3983, 3956, 3977, 3954, 0, 1, 9901, -89.900, 0.000, -44.600, 0.000, 0.000, -3.000, 0.0, , , , , , 99, , , 21, 21, 21
37.2865887, -119.5625673, 13.900, 14:06:24.439, 19, 0.00, 0.47, 98, 1.100, 2.400, -43.000, 442, 100, 99, 21, 23748, -18121, 5492, 5605, 5, 14, 1523480784.440, 52, 0, 1024, 1024, 1024, 1024, 0, 6, 3929, 3930, 3983, 3956, 3977, 3954, 0, 1, 10001, -89.900, 0.000, -44.600, 0.000, 0.000, -2.900, 0.0, , , , , , 99, , , 21, 21, 21
37.2865887, -119.5625674, 14.200, 14:06:24.539, 18, 0.00, 0.47, 98, 0.900, 2.900, -42.600, 442, 100, 99, 21, 23748, -18121, 5492, 5605, 5, 14, 1523480784.540, 49, 0, 1024, 1024, 1024, 1024, 0, 6, 3929, 3930, 3983, 3956, 3977, 3954, 0, 1, 10101, -89.900, 0.000, -44.600, 0.000, 0.000, -2.900, 0.0, , , , , , 99, , , 21, 21, 21
37.2865888, -119.5625675, 14.500, 14:06:24.639, 18, 0.00, 0.48, 98, 1.100, 3.700, -42.400, 442, 100, 99, 21, 23748, -18121, 5492, 5605, 5, 14, 1523480784.639, 57, 0, 1024, 1024, 1024, 1024, 0, 6, 3929, 3930, 3983, 3956, 3977, 3954, 0, 1, 10201, -89.900, 0.000, -44.600, 0.000, 0.000, -2.900, 0.0, , , , , , 99, , , 21, 21, 21
37.2865889, -119.5625675, 14.800, 14:06:24.739, 19, 0.00, 0.49, 98, 1.200, 4.600, -42.600, 442, 100, 99, 21, 23748, -18121, 5492, 5605, 5, 14, 1523480784.740, 63, 0, 1024, 1024, 1024, 1024, 0, 6, 3929, 3930, 3983, 3956, 3977, 3954, 0, 1, 10301, -89.900, 0.000, -44.600, 0.000, 0.000, -2.800, 0.0, , , , , , 99, , , 21, 21, 21
37.2865889, -119.5625676, 15.100, 14:06:24.839, 19, 0.00, 0.49, 98, 1.200, 4.700, -42.900, 442, 100, 99, 21, 23748, -18121, 5492, 5605, 5, 14, 1523480784.840, 54, 0, 1024, 1024, 1024, 1024, 0, 6, 3929, 3930, 3983, 3956, 3977, 3954, 0, 1, 10401, -89.900, 0.000, -44.600, 0.000, 0.000, -2.900, 0.0, , , , , , 99, , , 21, 21, 21
37.2865890, -119.5625677, 15.700, 14:06:24.939, 19, 0.00, 0.51, 98, 1.100, 4.700, -43.400, 442, 100, 99, 21, 23748, -18121, 5492, 5605, 5, 14, 1523480784.940, 46, 0, 1024, 1024, 1024, 1024, 0, 6, 3929, 3930, 3983, 3956, 3977, 3954, 0, 1, 10501, -89.900, 0.000, -44.600, 0.000, 0.000, -2.900, 0.0, , , , , , 99, , , 21, 21, 21
37.2865891, -119.5625677, 16.000, 14:06:25.039, 19, 0.00, 0.51, 98, 1.000, 4.800, -43.500, 442, 100, 99, 21, 23748, -18121, 5492, 5605, 5, 14, 1523480785.040, 31, 0, 1024, 1024, 1024, 1024, 0, 6, 3929, 3930, 3983, 3956, 3977, 3954, 0, 1, 10601, -89.900, 0.000, -44.600, 0.000, 0.000, -2.800, 0.0, , , , , , 99, , , 21, 21, 21
37.2865891, -119.5625677, 16.300, 14:06:25.139, 19, 0.00, 0.51, 98, 1.100, 4.600, -43.600, 442, 100, 99, 21, 23748, -18121, 5492, 5605, 5, 14, 1523480785.139, 23, 0, 1024, 1024, 1024, 1024, 0, 6, 3929, 3930, 3983, 3956, 3977, 3954, 0, 1, 10701, -89.900, 0.000, -44.600, 0.000, 0.000, -2.800, 0.0, , , , , , 99, , , 21, 21, 21
37.2865892, -119.5625678, 16.600, 14:06:25.249, 19, 0.00, 0.52, 98, 1.300, 4.500, -43.500, 442, 100, 99, 21, 23659, -18837, 5492, 5605, 5, 14, 1523480785.249, 4, 0, 1024, 1024, 1024, 1024, 0, 6, 3929, 3930, 3983, 3956, 3977, 3954, 0, 1, 10811, -89.900, 0.000, -44.600, 0.000, 0.000, -2.800, 0.0, , , , , , 99, , , 21, 21, 21
37.2865892, -119.5625679, 16.900, 14:06:25.344, 19, 0.00, 0.53, 98, 1.600, 4.600, -43.300, 442, 100, 97, 21, 23659, -18837, 5492, 5605, 5, 14, 1523480785.345, 13, 0, 1024, 1024, 1024, 1024, 0, 6, 3925, 3911, 3963, 3931, 3956, 3942, 0, 1, 10906, -89.900, 0.000, -44.600, 0.000, 0.000, -2.800, 0.0, , , , , , 99, , , 21, 21, 21
37.2865892, -119.5625680, 17.200, 14:06:25.439, 19, 0.00, 0.54, 98, 1.700, 4.600, -43.200, 442, 100, 97, 21, 23659, -18837, 5492, 5605, 5, 14, 1523480785.439, 7, 0, 1024, 1024, 1024, 1024, 0, 6, 3925, 3911, 3963, 3931, 3956, 3942, 0, 1, 11000, -89.900, 0.000, -44.600, 0.000, 0.000, -2.800, 0.0, , , , , , 99, , , 21, 21, 21
37.2865892, -119.5625680, 17.200, 14:06:25.539, 19, 0.00, 0.54, 98, 1.700, 4.600, -43.200, 442, 100, 97, 21, 23659, -18837, 5492, 5605, 5, 14, 1523480785.539, 107, 0, 1024, 1024, 1024, 1024, 0, 6, 3925, 3911, 3963, 3931, 3956, 3942, 0, 1, 11101, -89.900, 0.000, -44.600, 0.000, 0.000, -2.800, 0.0, , , , , , 99, , , 21, 21, 21
37.2865893, -119.5625680, 17.400, 14:06:25.639, 19, 0.00, 0.54, 98, 1.600, 4.700, -43.200, 442, 100, 97, 21, 23659, -18837, 5492, 5605, 5, 14, 1523480785.639, 97, 0, 1024, 1024, 1024, 1024, 0, 6, 3925, 3911, 3963, 3931, 3956, 3942, 0, 1, 11200, -89.900, 0.000, -44.600, 0.000, 0.000, -2.800, 0.0, , , , , , 99, , , 21, 21, 21
37.2865894, -119.5625681, 17.700, 14:06:25.739, 19, 0.00, 0.55, 98, 1.400, 4.900, -43.300, 442, 100, 97, 21, 23659, -18837, 5492, 5605, 5, 14, 1523480785.740, 89, 0, 1024, 1024, 1024, 1024, 0, 6, 3925, 3911, 3963, 3931, 3956, 3942, 0, 1, 11301, -89.900, 0.000, -44.600, 0.000, 0.000, -2.900, 0.0, , , , , , 99, , , 21, 21, 21
37.2865894, -119.5625681, 18.000, 14:06:25.839, 19, 0.00, 0.56, 98, 1.000, 5.300, -43.200, 442, 100, 97, 21, 23659, -18837, 5492, 5605, 5, 14, 1523480785.840, 89, 0, 1024, 1024, 1024, 1024, 0, 6, 3925, 3911, 3963, 3931, 3956, 3942, 0, 1, 11401, -89.900, 0.000, -44.600, 0.000, 0.000, -2.800, 0.0, , , , , , 99, , , 21, 21, 21
37.2865895, -119.5625682, 18.300, 14:06:25.939, 19, 0.00, 0.56, 98, 0.500, 5.500, -43.200, 442, 100, 97, 21, 23659, -18837, 5492, 5605, 5, 14, 1523480785.940, 87, 0, 1024, 1024, 1024, 1024, 0, 6, 3925, 3911, 3963, 3931, 3956, 3942, 0, 1, 11501, -89.900, 0.000, -44.600, 0.000, 0.000, -2.900, 0.0, , , , , , 99, , , 21, 21, 21
37.2865895, -119.5625682, 18.600, 14:06:26.039, 19, 0.00, 0.57, 98, 1.000, 5.600, -43.300, 442, 100, 97, 21, 23659, -18837, 5492, 5605, 5, 14, 1523480786.040, 85, 0, 1024, 1024, 1024, 1024, 0, 6, 3925, 3911, 3963, 3931, 3956, 3942, 0, 1, 11601, -89.900, 0.000, -44.600, 0.000, 0.000, -3.000, 0.0, , , , , , 99, , , 21, 21, 21
37.2865895, -119.5625682, 19.000, 14:06:26.139, 19, 0.00, 0.57, 98, 1.400, 5.400, -43.400, 442, 100, 97, 21, 23659, -18837, 5492, 5605, 5, 14, 1523480786.140, 74, 0, 1024, 1024, 1024, 1024, 0, 6, 3925, 3911, 3963, 3931, 3956, 3942, 0, 1, 11701, -90.000, 0.000, -44.600, 0.000, 0.000, -3.000, 0.0, , , , , , 99, , , 21, 21, 21
37.2865896, -119.5625682, 19.300, 14:06:26.239, 19, 0.00, 0.57, 98, 1.400, 5.100, -43.400, 442, 100, 97, 21, 23659, -18837, 5492, 5605, 5, 14, 1523480786.240, 81, 0, 1024, 1024, 1024, 1024, 0, 6, 3925, 3911, 3963, 3931, 3956, 3942, 0, 1, 11801, -89.900, 0.000, -44.600, 0.000, 0.000, -3.000, 0.0, , , , , , 99, , , 21, 21, 21
37.2865896, -119.5625682, 19.600, 14:06:26.339, 19, 0.00, 0.56, 98, 1.200, 4.900, -43.200, 442, 100, 97, 21, 23586, -19229, 5492, 5605, 5, 14, 1523480786.340, 69, 0, 1024, 1024, 1024, 1024, 0, 6, 3925, 3911, 3963, 3931, 3956, 3942, 0, 1, 11901, -89.900, 0.000, -44.600, 0.000, 0.000, -3.000, 0.0, , , , , , 99, , , 21, 21, 21
37.2865896, -119.5625681, 19.900, 14:06:26.439, 19, 0.00, 0.56, 98, 1.000, 4.800, -43.100, 442, 100, 97, 21, 23586, -19229, 5492, 5605, 5, 14, 1523480786.440, 72, 0, 1024, 1024, 1024, 1024, 0, 6, 3925, 3911, 3963, 3931, 3956, 3942, 0, 1, 12001, -89.900, 0.000, -44.600, 0.000, 0.000, -2.900, 0.0, , , , , , 99, , , 21, 21, 21
37.2865896, -119.5625681, 20.200, 14:06:26.539, 19, 0.00, 0.55, 98, 1.300, 4.300, -43.000, 442, 100, 97, 21, 23586, -19229, 5492, 5605, 5, 14, 1523480786.540, 49, 0, 1024, 1024, 1024, 1024, 0, 6, 3925, 3911, 3963, 3931, 3956, 3942, 0, 1, 12101, -90.000, 0.000, -44.600, 0.000, 0.000, -3.000, 0.0, , , , , , 99, , , 21, 21, 21
37.2865895, -119.5625680, 20.500, 14:06:26.639, 19, 0.00, 0.55, 98, 1.600, 4.200, -43.100, 442, 100, 97, 21, 23586, -19229, 5492, 5605, 5, 14, 1523480786.640, 45, 0, 1024, 1024, 1024, 1024, 0, 6, 3925, 3911, 3963, 3931, 3956, 3942, 0, 1, 12201, -90.000, 0.000, -44.600, 0.000, 0.000, -3.100, 0.0, , , , , , 99, , , 21, 21, 21
37.2865895, -119.5625680, 20.500, 14:06:26.739, 19, 0.00, 0.55, 98, 1.600, 4.200, -43.100, 442, 100, 97, 21, 23586, -19229, 5492, 5605, 5, 14, 1523480786.741, 146, 0, 1024, 1024, 1024, 1024, 0, 6, 3925, 3911, 3963, 3931, 3956, 3942, 0, 1, 12302, -89.900, 0.000, -44.600, 0.000, 0.000, -3.100, 0.0, , , , , , 99, , , 21, 21, 21
37.2865895, -119.5625679, 21.200, 14:06:26.839, 19, 0.00, 0.54, 98, 1.200, 4.400, -43.600, 442, 100, 97, 21, 23586, -19229, 5492, 5605, 5, 14, 1523480786.840, 62, 0, 1024, 1024, 1024, 1024, 0, 6, 3925, 3911, 3963, 3931, 3956, 3942, 0, 1, 12401, -89.900, 0.000, -44.600, 0.000, 0.000, -3.100, 0.0, , , , , , 99, , , 21, 21, 21
37.2865895, -119.5625679, 21.500, 14:06:26.939, 19, 0.00, 0.54, 98, 0.900, 5.100, -43.900, 442, 100, 94, 21, 23586, -19229, 5492, 5605, 5, 14, 1523480786.939, 37, 0, 1024, 1024, 1024, 1024, 0, 6, 3925, 3911, 3963, 3931, 3956, 3942, 0, 1, 12501, -89.900, 0.000, -44.600, 0.000, 0.000, -3.000, 0.0, , , , , , 99, , , 21, 21, 21
37.2865896, -119.5625678, 22.100, 14:06:27.039, 19, 0.00, 0.53, 98, 0.500, 5.100, -43.900, 442, 100, 94, 21, 23586, -19229, 5492, 5605, 5, 14, 1523480787.040, 44, 0, 1024, 1024, 1024, 1024, 0, 6, 3925, 3911, 3963, 3931, 3956, 3942, 0, 1, 12601, -89.900, 0.000, -44.600, 0.000, 0.000, -3.000, 0.0, , , , , , 99, , , 21, 21, 21
37.2865896, -119.5625678, 22.400, 14:06:27.139, 19, 0.00, 0.53, 98, 1.000, 5.200, -43.900, 442, 100, 94, 21, 23586, -19229, 5492, 5605, 5, 14, 1523480787.139, 45, 0, 1024, 1024, 1024, 1024, 0, 6, 3925, 3911, 3963, 3931, 3956, 3942, 0, 1, 12700, -89.900, 0.000, -44.600, 0.000, 0.000, -2.900, 0.0, , , , , , 99, , , 21, 21, 21
37.2865896, -119.5625678, 22.700, 14:06:27.239, 19, 0.00, 0.53, 98, 1.400, 5.500, -43.900, 442, 100, 94, 21, 23586, -19229, 5492, 5605, 5, 14, 1523480787.240, 22, 0, 1024, 1024, 1024, 1024, 0, 6, 3925, 3911, 3963, 3931, 3956, 3942, 0, 1, 12801, -89.900, 0.000, -44.600, 0.000, 0.000, -2.800, 0.0, , , , , , 99, , , 21, 21, 21
37.2865896, -119.5625679, 23.000, 14:06:27.339, 19, 0.00, 0.54, 98, 1.600, 5.800, -43.900, 442, 100, 95, 21, 23366, -21707, 5436, 5605, 5, 14, 1523480787.340, 24, 0, 1024, 1024, 1024, 1024, 0, 6, 3925, 3911, 3963, 3931, 3956, 3942, 0, 1, 12901, -89.900, 0.000, -44.600, 0.000, 0.000, -2.700, 0.0, , , , , , 99, , , 21, 21, 21
37.2865896, -119.5625679, 23.300, 14:06:27.439, 19, 0.00, 0.55, 98, 1.400, 6.000, -43.900, 442, 100, 95, 21, 23366, -21707, 5436, 5605, 5, 14, 1523480787.440, 43, 0, 1024, 1024, 1024, 1024, 0, 6, 3877, 3866, 3915, 3888, 3929, 3903, 0, 1, 13001, -89.900, 0.000, -44.600, 0.000, 0.000, -2.800, 0.0, , , , , , 99, , , 21, 21, 21
37.2865896, -119.5625680, 23.600, 14:06:27.539, 19, 0.00, 0.55, 98, 1.300, 6.200, -44.000, 442, 100, 95, 21, 23366, -21707, 5436, 5605, 5, 14, 1523480787.540, 37, 0, 1024, 1024, 1024, 1024, 0, 6, 3877, 3866, 3915, 3888, 3929, 3903, 0, 1, 13101, -89.900, 0.000, -44.600, 0.000, 0.000, -2.800, 0.0, , , , , , 99, , , 21, 21, 21
37.2865897, -119.5625680, 23.900, 14:06:27.639, 19, 0.00, 0.55, 98, 1.300, 6.200, -44.100, 442, 100, 95, 21, 23366, -21707, 5436, 5605, 5, 14, 1523480787.640, 36, 0, 1024, 1024, 1024, 1024, 0, 6, 3877, 3866, 3915, 3888, 3929, 3903, 0, 1, 13201, -89.900, 0.000, -44.600, 0.000, 0.000, -2.800, 0.0, , , , , , 99, , , 21, 21, 21
37.2865897, -119.5625680, 24.200, 14:06:27.739, 19, 0.00, 0.56, 98, 1.400, 6.100, -44.200, 442, 100, 95, 21, 23366, -21707, 5436, 5605, 5, 14, 1523480787.739, 17, 0, 1024, 1024, 1024, 1024, 0, 6, 3877, 3866, 3915, 3888, 3929, 3903, 0, 1, 13301, -89.900, 0.000, -44.600, 0.000, 0.000, -2.800, 0.0, , , , , , 99, , , 21, 21, 21
37.2865897, -119.5625680, 24.400, 14:06:27.848, 19, 0.00, 0.56, 97, 1.200, 6.000, -44.100, 442, 100, 96, 21, 23366, -21707, 5436, 5605, 5, 14, 1523480787.848, 16, 0, 1024, 1024, 1024, 1024, 0, 6, 3877, 3866, 3915, 3888, 3929, 3903, 0, 1, 13409, -89.900, 0.000, -44.600, 0.000, 0.000, -2.800, 0.0, , , , , , 99, , , 21, 21, 21
37.2865897, -119.5625680, 24.700, 14:06:27.939, 19, 0.00, 0.56, 97, 1.000, 6.100, -44.000, 442, 100, 96, 21, 23366, -21707, 5436, 5605, 5, 14, 1523480787.940, 11, 0, 1024, 1024, 1024, 1024, 0, 6, 3877, 3866, 3915, 3888, 3929, 3903, 0, 1, 13501, -89.900, 0.000, -44.600, 0.000, 0.000, -2.800, 0.0, , , , , , 99, , , 21, 21, 21
37.2865897, -119.5625680, 24.700, 14:06:28.039, 19, 0.00, 0.56, 97, 1.000, 6.100, -44.000, 442, 100, 96, 21, 23366, -21707, 5436, 5605, 5, 14, 1523480788.039, 110, 0, 1024, 1024, 1024, 1024, 0, 6, 3877, 3866, 3915, 3888, 3929, 3903, 0, 1, 13600, -89.900, 0.000, -44.600, 0.000, 0.000, -2.800, 0.0, , , , , , 99, , , 21, 21, 21
37.2865897, -119.5625681, 25.000, 14:06:28.139, 19, 0.00, 0.56, 97, 1.200, 6.000, -43.900, 442, 100, 96, 21, 23366, -21707, 5436, 5605, 5, 14, 1523480788.139, 98, 0, 1024, 1024, 1024, 1024, 0, 6, 3877, 3866, 3915, 3888, 3929, 3903, 0, 1, 13701, -89.900, 0.000, -44.600, 0.000, 0.000, -2.800, 0.0, , , , , , 99, , , 21, 21, 21
37.2865896, -119.5625681, 25.600, 14:06:28.246, 19, 0.00, 0.56, 97, 1.400, 5.900, -43.600, 442, 100, 96, 21, 23564, -18481, 5436, 5605, 5, 14, 1523480788.246, 6, 0, 1024, 1024, 1024, 1024, 0, 6, 3877, 3866, 3915, 3888, 3929, 3903, 0, 1, 13807, -89.900, 0.000, -44.600, 0.000, 0.000, -2.900, 0.0, , , , , , 99, , , 21, 21, 21
37.2865896, -119.5625681, 25.600, 14:06:28.339, 19, 0.00, 0.56, 97, 1.400, 5.900, -43.600, 442, 100, 96, 21, 23564, -18481, 5436, 5605, 5, 14, 1523480788.340, 100, 0, 1024, 1024, 1024, 1024, 0, 6, 3877, 3866, 3915, 3888, 3929, 3903, 0, 1, 13901, -89.900, 0.000, -44.600, 0.000, 0.000, -2.900, 0.0, , , , , , 99, , , 21, 21, 21
37.2865896, -119.5625680, 25.900, 14:06:28.443, 19, 0.00, 0.55, 97, 1.700, 5.800, -43.500, 442, 100, 97, 21, 23564, -18481, 5436, 5605, 5, 14, 1523480788.443, 54, 0, 1024, 1024, 1024, 1024, 0, 6, 3877, 3866, 3915, 3888, 3929, 3903, 0, 1, 14004, -89.900, 0.000, -44.600, 0.000, 0.000, -2.900, 0.0, , , , , , 99, , , 21, 21, 21
37.2865895, -119.5625680, 26.200, 14:06:28.541, 19, 0.00, 0.55, 97, 1.600, 5.800, -43.400, 442, 100, 97, 21, 23564, -18481, 5436, 5605, 5, 14, 1523480788.542, 81, 0, 1024, 1024, 1024, 1024, 0, 6, 3901, 3909, 3950, 3927, 3943, 3918, 0, 1, 14103, -89.900, 0.000, -44.600, 0.000, 0.000, -2.800, 0.0, , , , , , 99, , , 21, 21, 21
37.2865895, -119.5625680, 26.500, 14:06:28.639, 19, 0.00, 0.55, 97, 1.400, 5.600, -43.300, 442, 100, 97, 21, 23564, -18481, 5436, 5605, 5, 14, 1523480788.640, 77, 0, 1024, 1024, 1024, 1024, 0, 6, 3901, 3909, 3950, 3927, 3943, 3918, 0, 1, 14201, -90.000, 0.000, -44.600, 0.000, 0.000, -3.000, 0.0, , , , , , 99, , , 21, 21, 21
37.2865895, -119.5625680, 26.800, 14:06:28.740, 19, 0.00, 0.55, 97, 1.300, 5.300, -43.300, 442, 100, 97, 21, 23564, -18481, 5436, 5605, 5, 14, 1523480788.741, 77, 0, 1024, 1024, 1024, 1024, 0, 6, 3901, 3909, 3950, 3927, 3943, 3918, 0, 1, 14302, -89.900, 0.000, -44.600, 0.000, 0.000, -3.000, 0.0, , , , , , 99, , , 21, 21, 21
37.2865895, -119.5625680, 27.100, 14:06:28.839, 19, 0.00, 0.54, 97, 1.500, 5.400, -43.400, 442, 100, 97, 21, 23564, -18481, 5436, 5605, 5, 14, 1523480788.840, 80, 0, 1024, 1024, 1024, 1024, 0, 6, 3901, 3909, 3950, 3927, 3943, 3918, 0, 1, 14401, -89.900, 0.000, -44.600, 0.000, 0.000, -3.000, 0.0, , , , , , 99, , , 21, 21, 21
37.2865894, -119.5625679, 27.400, 14:06:28.940, 19, 0.00, 0.54, 97, 1.600, 5.500, -43.400, 442, 100, 96, 21, 23564, -18481, 5436, 5605, 5, 14, 1523480788.941, 66, 0, 1024, 1024, 1024, 1024, 0, 6, 3901, 3909, 3950, 3927, 3943, 3918, 0, 1, 14502, -89.900, 0.000, -44.600, 0.000, 0.000, -3.000, 0.0, , , , , , 99, , , 21, 21, 21
37.2865894, -119.5625679, 27.700, 14:06:29.042, 19, 0.00, 0.54, 97, 1.600, 5.700, -43.500, 442, 100, 96, 21, 23564, -18481, 5436, 5605, 5, 14, 1523480789.043, 69, 0, 1024, 1024, 1024, 1024, 0, 6, 3901, 3909, 3950, 3927, 3943, 3918, 0, 1, 14604, -89.900, 0.000, -44.600, 0.000, 0.000, -2.900, 0.0, , , , , , 99, , , 21, 21, 21
37.2865894, -119.5625679, 28.000, 14:06:29.139, 19, 0.00, 0.53, 97, 1.500, 5.600, -43.600, 442, 100, 96, 21, 23564, -18481, 5436, 5605, 5, 14, 1523480789.140, 75, 0, 1024, 1024, 1024, 1024, 0, 6, 3901, 3909, 3950, 3927, 3943, 3918, 0, 1, 14701, -89.900, 0.000, -44.600, 0.000, 0.000, -2.900, 0.0, , , , , , 99, , , 21, 21, 21
37.2865894, -119.5625679, 28.300, 14:06:29.240, 19, 0.00, 0.53, 97, 1.400, 5.500, -43.600, 442, 100, 96, 21, 23564, -18481, 5436, 5605, 5, 14, 1523480789.241, 31, 0, 1024, 1024, 1024, 1024, 0, 6, 3901, 3909, 3950, 3927, 3943, 3918, 0, 1, 14802, -89.900, 0.000, -44.600, 0.000, 0.000, -2.900, 0.0, , , , , , 99, , , 21, 21, 21
37.2865894, -119.5625678, 28.600, 14:06:29.341, 19, 0.00, 0.53, 97, 1.300, 5.500, -43.600, 442, 100, 96, 21, 23369, -20616, 5436, 5605, 5, 14, 1523480789.343, 35, 0, 1024, 1024, 1024, 1024, 0, 6, 3901, 3909, 3950, 3927, 3943, 3918, 0, 1, 14904, -90.000, 0.000, -44.600, 0.000, 0.000, -2.900, 0.0, , , , , , 99, , , 21, 21, 21
37.2865894, -119.5625678, 29.200, 14:06:29.462, 19, 0.00, 0.52, 97, 1.300, 5.400, -43.400, 442, 100, 94, 21, 23369, -20616, 5436, 5605, 5, 14, 1523480789.463, 13, 0, 1024, 1024, 1024, 1024, 0, 6, 3901, 3909, 3950, 3927, 3943, 3918, 0, 1, 15024, -89.900, 0.000, -44.600, 0.000, 0.000, -3.000, 0.0, , , , , , 99, , , 21, 21, 21
37.2865894, -119.5625678, 29.200, 14:06:29.539, 19, 0.00, 0.52, 97, 1.300, 5.400, -43.400, 442, 100, 94, 21, 23369, -20616, 5436, 5605, 5, 14, 1523480789.539, 90, 0, 1024, 1024, 1024, 1024, 0, 6, 3901, 3909, 3950, 3927, 3943, 3918, 0, 1, 15101, -89.900, 0.000, -44.600, 0.000, 0.000, -3.000, 0.0, , , , , , 99, , , 21, 21, 21
37.2865893, -119.5625678, 29.500, 14:06:29.641, 19, 0.00, 0.52, 97, 1.400, 5.500, -43.400, 442, 100, 94, 21, 23369, -20616, 5436, 5605, 5, 14, 1523480789.641, 30, 0, 1024, 1024, 1024, 1024, 0, 6, 3901, 3909, 3950, 3927, 3943, 3918, 0, 1, 15203, -89.900, 0.000, -44.600, 0.000, 0.000, -2.900, 0.0, , , , , , 99, , , 21, 21, 21
37.2865893, -119.5625678, 29.800, 14:06:29.739, 19, 0.00, 0.52, 97, 1.300, 5.600, -43.400, 442, 100, 94, 21, 23369, -20616, 5436, 5605, 5, 14, 1523480789.740, 62, 0, 1024, 1024, 1024, 1024, 0, 6, 3901, 3909, 3950, 3927, 3943, 3918, 0, 1, 15301, -89.900, 0.000, -44.600, 0.000, 0.000, -3.000, 0.0, , , , , , 99, , , 21, 21, 21
37.2865893, -119.5625678, 30.100, 14:06:29.850, 19, 0.00, 0.52, 97, 1.500, 5.900, -43.500, 442, 100, 94, 21, 23369, -20616, 5436, 5605, 5, 14, 1523480789.850, 10, 0, 1024, 1024, 1024, 1024, 0, 6, 3901, 3909, 3950, 3927, 3943, 3918, 0, 1, 15411, -89.900, 0.000, -44.600, 0.000, 0.000, -2.900, 0.0, , , , , , 99, , , 21, 21, 21
37.2865893, -119.5625678, 30.400, 14:06:29.944, 19, 0.00, 0.52, 97, 1.800, 5.900, -43.700, 442, 100, 97, 21, 23369, -20616, 5436, 5605, 5, 14, 1523480789.945, 20, 0, 1024, 1024, 1024, 1024, 0, 6, 3901, 3909, 3950, 3927, 3943, 3918, 0, 1, 15506, -89.900, 0.000, -44.600, 0.000, 0.000, -2.900, 0.0, , , , , , 99, , , 21, 21, 21
37.2865893, -119.5625678, 30.400, 14:06:30.042, 19, 0.00, 0.52, 97, 1.800, 5.900, -43.700, 442, 100, 97, 21, 23369, -20616, 5436, 5605, 5, 14, 1523480790.043, 118, 0, 1024, 1024, 1024, 1024, 0, 6, 3901, 3909, 3950, 3927, 3943, 3918, 0, 1, 15604, -89.900, 0.000, -44.600, 0.000, 0.000, -2.900, 0.0, , , , , , 99, , , 21, 21, 21
37.2865893, -119.5625678, 30.700, 14:06:30.139, 19, 0.00, 0.53, 97, 1.600, 5.800, -43.700, 442, 100, 97, 21, 23369, -20616, 5436, 5605, 5, 14, 1523480790.140, 80, 0, 1024, 1024, 1024, 1024, 0, 6, 3901, 3909, 3950, 3927, 3943, 3918, 0, 1, 15701, -89.900, 0.000, -44.600, 0.000, 0.000, -2.900, 0.0, , , , , , 99, , , 21, 21, 21
37.2865893, -119.5625678, 31.000, 14:06:30.241, 19, 0.00, 0.52, 97, 1.400, 5.600, -43.500, 442, 100, 97, 21, 23369, -20616, 5436, 5605, 5, 14, 1523480790.242, 70, 0, 1024, 1024, 1024, 1024, 0, 6, 3873, 3872, 3914, 3889, 3923, 3901, 0, 1, 15803, -89.900, 0.000, -44.600, 0.000, 0.000, -3.000, 0.0, , , , , , 99, , , 21, 21, 21
37.2865893, -119.5625678, 31.300, 14:06:30.343, 19, 0.00, 0.52, 97, 1.300, 5.600, -43.400, 442, 100, 97, 21, 23369, -20616, 5436, 5605, 5, 14, 1523480790.343, 12, 0, 1024, 1024, 1024, 1024, 0, 6, 3873, 3872, 3914, 3889, 3923, 3901, 0, 1, 15904, -89.900, 0.000, -44.600, 0.000, 0.000, -2.900, 0.0, , , , , , 99, , , 21, 21, 21
37.2865893, -119.5625677, 31.600, 14:06:30.440, 19, 0.00, 0.52, 97, 1.300, 5.700, -43.400, 442, 100, 97, 21, 23369, -20616, 5436, 5605, 5, 14, 1523480790.440, 53, 0, 1024, 1024, 1024, 1024, 0, 6, 3873, 3872, 3914, 3889, 3923, 3901, 0, 1, 16001, -89.900, 0.000, -44.600, 0.000, 0.000, -2.900, 0.0, , , , , , 99, , , 21, 21, 21
37.2865893, -119.5625677, 31.900, 14:06:30.540, 19, 0.00, 0.52, 97, 1.300, 5.600, -43.400, 442, 100, 97, 21, 23369, -20616, 5436, 5605, 5, 14, 1523480790.541, 50, 0, 1024, 1024, 1024, 1024, 0, 6, 3873, 3872, 3914, 3889, 3923, 3901, 0, 1, 16102, -89.900, 0.000, -44.600, 0.000, 0.000, -3.000, 0.0, , , , , , 99, , , 21, 21, 21
37.2865893, -119.5625677, 31.900, 14:06:30.640, 19, 0.00, 0.52, 97, 1.300, 5.600, -43.400, 442, 100, 97, 21, 23369, -20616, 5436, 5605, 5, 14, 1523480790.641, 150, 0, 1024, 1024, 1024, 1024, 0, 6, 3873, 3872, 3914, 3889, 3923, 3901, 0, 1, 16202, -89.900, 0.000, -44.600, 0.000, 0.000, -3.000, 0.0, , , , , , 99, , , 21, 21, 21
37.2865892, -119.5625677, 32.500, 14:06:30.741, 19, 0.00, 0.51, 97, 1.500, 5.700, -43.400, 442, 100, 97, 21, 23369, -20616, 5436, 5605, 5, 14, 1523480790.742, 17, 0, 1024, 1024, 1024, 1024, 0, 6, 3873, 3872, 3914, 3889, 3923, 3901, 0, 1, 16303, -89.900, 0.000, -44.600, 0.000, 0.000, -2.900, 0.0, , , , , , 99, , , 21, 21, 21
37.2865892, -119.5625677, 32.900, 14:06:30.845, 19, 0.00, 0.51, 97, 1.600, 5.600, -43.500, 442, 100, 97, 21, 23369, -20616, 5436, 5605, 5, 14, 1523480790.845, 9, 0, 1024, 1024, 1024, 1024, 0, 6, 3873, 3872, 3914, 3889, 3923, 3901, 0, 1, 16406, -89.900, 0.000, -44.600, 0.000, 0.000, -3.000, 0.0, , , , , , 99, , , 21, 21, 21
37.2865892, -119.5625677, 32.900, 14:06:30.939, 19, 0.00, 0.51, 97, 1.600, 5.600, -43.500, 442, 100, 97, 21, 23369, -20616, 5436, 5605, 5, 14, 1523480790.940, 103, 0, 1024, 1024, 1024, 1024, 0, 6, 3873, 3872, 3914, 3889, 3923, 3901, 0, 1, 16501, -89.900, 0.000, -44.600, 0.000, 0.000, -3.000, 0.0, , , , , , 99, , , 21, 21, 21
37.2865892, -119.5625677, 33.200, 14:06:31.041, 19, 0.00, 0.51, 97, 1.600, 5.400, -43.500, 442, 100, 97, 21, 23403, -19591, 5436, 5605, 5, 14, 1523480791.042, 48, 0, 1024, 1024, 1024, 1024, 0, 6, 3873, 3872, 3914, 3889, 3923, 3901, 0, 1, 16603, -90.000, 0.000, -44.600, 0.000, 0.000, -3.000, 0.0, , , , , , 99, , , 21, 21, 21
37.2865891, -119.5625676, 33.500, 14:06:31.140, 19, 0.00, 0.51, 97, 1.600, 5.400, -43.600, 442, 100, 99, 21, 23403, -19591, 5436, 5605, 5, 14, 1523480791.141, 82, 0, 1024, 1024, 1024, 1024, 0, 6, 3878, 3868, 3921, 3905, 3930, 3898, 0, 1, 16702, -89.900, 0.000, -44.600, 0.000, 0.000, -2.900, 0.0, , , , , , 99, , , 21, 21, 21
37.2865891, -119.5625676, 33.800, 14:06:31.241, 19, 0.00, 0.50, 97, 1.500, 5.400, -43.800, 442, 100, 99, 21, 23403, -19591, 5436, 5605, 5, 14, 1523480791.242, 15, 0, 1024, 1024, 1024, 1024, 0, 6, 3878, 3868, 3921, 3905, 3930, 3898, 0, 1, 16803, -90.000, 0.000, -44.600, 0.000, 0.000, -2.900, 0.0, , , , , , 99, , , 21, 21, 21
37.2865891, -119.5625676, 34.100, 14:06:31.345, 19, 0.00, 0.50, 97, 1.200, 5.200, -43.800, 442, 100, 99, 21, 23403, -19591, 5436, 5605, 5, 14, 1523480791.346, 12, 0, 1024, 1024, 1024, 1024, 0, 6, 3878, 3868, 3921, 3905, 3930, 3898, 0, 1, 16907, -90.000, 0.000, -44.600, 0.000, 0.000, -2.900, 0.0, , , , , , 99, , , 21, 21, 21
37.2865891, -119.5625676, 34.100, 14:06:31.439, 19, 0.00, 0.50, 97, 1.200, 5.200, -43.800, 442, 100, 99, 21, 23403, -19591, 5436, 5605, 5, 14, 1523480791.440, 106, 0, 1024, 1024, 1024, 1024, 0, 6, 3878, 3868, 3921, 3905, 3930, 3898, 0, 1, 17001, -90.000, 0.000, -44.600, 0.000, 0.000, -2.900, 0.0, , , , , , 99, , , 21, 21, 21
37.2865891, -119.5625675, 34.400, 14:06:31.539, 19, 0.00, 0.50, 97, 0.900, 5.200, -43.800, 442, 100, 99, 21, 23403, -19591, 5436, 5605, 5, 14, 1523480791.540, 82, 0, 1024, 1024, 1024, 1024, 0, 6, 3878, 3868, 3921, 3905, 3930, 3898, 0, 1, 17101, -89.900, 0.000, -44.600, 0.000, 0.000, -2.800, 0.0, , , , , , 99, , , 21, 21, 21
37.2865892, -119.5625675, 35.000, 14:06:31.639, 19, 0.00, 0.49, 97, 0.600, 5.600, -43.700, 442, 100, 99, 21, 23403, -19591, 5436, 5605, 5, 14, 1523480791.640, 65, 0, 1024, 1024, 1024, 1024, 0, 6, 3878, 3868, 3921, 3905, 3930, 3898, 0, 1, 17201, -89.900, 0.000, -44.600, 0.000, 0.000, -2.900, 0.0, , , , , , 99, , , 21, 21, 21
37.2865892, -119.5625674, 35.200, 14:06:31.741, 19, 0.00, 0.49, 97, 0.500, 5.700, -43.500, 442, 100, 99, 21, 23403, -19591, 5436, 5605, 5, 14, 1523480791.742, 46, 0, 1024, 1024, 1024, 1024, 0, 6, 3878, 3868, 3921, 3905, 3930, 3898, 0, 1, 17303, -89.900, 0.000, -44.600, 0.000, 0.000, -2.800, 0.0, , , , , , 99, , , 21, 21, 21
37.2865892, -119.5625674, 35.500, 14:06:31.839, 19, 0.00, 0.49, 97, 0.500, 5.800, -43.400, 442, 100, 99, 21, 23403, -19591, 5436, 5605, 5, 14, 1523480791.839, 64, 0, 1024, 1024, 1024, 1024, 0, 6, 3878, 3868, 3921, 3905, 3930, 3898, 0, 1, 17401, -89.900, 0.000, -44.600, 0.000, 0.000, -2.800, 0.0, , , , , , 99, , , 21, 21, 21
37.2865892, -119.5625675, 36.400, 14:06:31.945, 19, 0.00, 0.50, 97, 1.100, 5.700, -43.300, 442, 100, 99, 22, 23432, -18813, 5436, 5605, 5, 14, 1523480791.945, 20, 0, 1024, 1024, 1024, 1024, 0, 6, 3878, 3868, 3921, 3905, 3930, 3898, 0, 1, 17506, -89.900, 0.000, -44.600, 0.000, 0.000, -2.800, 0.0, , , , , , 99, , , 21, 21, 21
37.2865892, -119.5625675, 36.400, 14:06:32.040, 19, 0.00, 0.50, 97, 1.100, 5.700, -43.300, 442, 100, 99, 22, 23432, -18813, 5436, 5605, 5, 14, 1523480792.040, 116, 0, 1024, 1024, 1024, 1024, 0, 6, 3871, 3883, 3930, 3913, 3945, 3908, 0, 1, 17601, -89.900, 0.000, -44.600, 0.000, 0.000, -2.800, 0.0, , , , , , 99, , , 21, 21, 21
37.2865892, -119.5625675, 36.700, 14:06:32.141, 19, 0.00, 0.50, 97, 1.300, 5.800, -43.400, 442, 100, 99, 22, 23432, -18813, 5436, 5605, 5, 14, 1523480792.142, 78, 0, 1024, 1024, 1024, 1024, 0, 6, 3871, 3883, 3930, 3913, 3945, 3908, 0, 1, 17703, -89.900, 0.000, -44.600, 0.000, 0.000, -2.900, 0.0, , , , , , 99, , , 21, 21, 21
37.2865892, -119.5625675, 37.000, 14:06:32.239, 19, 0.00, 0.50, 97, 1.400, 6.000, -43.500, 442, 100, 99, 22, 23432, -18813, 5436, 5605, 5, 14, 1523480792.240, 25, 0, 1024, 1024, 1024, 1024, 0, 6, 3871, 3883, 3930, 3913, 3945, 3908, 0, 1, 17801, -89.900, 0.000, -44.600, 0.000, 0.000, -2.900, 0.0, , , , , , 99, , , 21, 21, 21
37.2865892, -119.5625676, 37.600, 14:06:32.339, 19, 0.00, 0.50, 97, 1.400, 6.000, -43.500, 442, 100, 99, 22, 23432, -18813, 5436, 5605, 5, 14, 1523480792.339, 16, 0, 1024, 1024, 1024, 1024, 0, 6, 3871, 3883, 3930, 3913, 3945, 3908, 0, 1, 17900, -89.900, 0.000, -44.600, 0.000, 0.000, -2.900, 0.0, , , , , , 99, , , 21, 21, 21
37.2865892, -119.5625676, 37.600, 14:06:32.439, 19, 0.00, 0.50, 97, 1.400, 6.000, -43.500, 442, 100, 99, 22, 23432, -18813, 5436, 5605, 5, 14, 1523480792.440, 116, 0, 1024, 1024, 1024, 1024, 0, 6, 3871, 3883, 3930, 3913, 3945, 3908, 0, 1, 18001, -89.900, 0.000, -44.600, 0.000, 0.000, -2.900, 0.0, , , , , , 99, , , 21, 21, 21
37.2865892, -119.5625676, 38.200, 14:06:32.552, 19, 0.00, 0.51, 97, 1.400, 6.400, -43.600, 442, 100, 98, 22, 23432, -18813, 5436, 5605, 5, 14, 1523480792.552, 4, 0, 1024, 1024, 1024, 1024, 0, 6, 3871, 3883, 3930, 3913, 3945, 3908, 0, 1, 18113, -89.900, 0.000, -44.600, 0.000, 0.000, -2.900, 0.0, , , , , , 99, , , 21, 21, 21
37.2865892, -119.5625677, 38.800, 14:06:32.639, 19, 0.00, 0.51, 97, 1.200, 6.500, -43.600, 442, 100, 98, 22, 23432, -18813, 5436, 5605, 5, 14, 1523480792.640, 18, 0, 1024, 1024, 1024, 1024, 0, 6, 3871, 3883, 3930, 3913, 3945, 3908, 0, 1, 18201, -89.900, 0.000, -44.600, 0.000, 0.000, -2.900, 0.0, , , , , , 99, , , 21, 21, 21
37.2865892, -119.5625677, 39.100, 14:06:32.739, 19, 0.00, 0.52, 97, 1.300, 6.500, -43.600, 442, 100, 98, 22, 23432, -18813, 5436, 5605, 5, 14, 1523480792.740, 16, 0, 1024, 1024, 1024, 1024, 0, 6, 3871, 3883, 3930, 3913, 3945, 3908, 0, 1, 18301, -89.900, 0.000, -44.600, 0.000, 0.000, -2.900, 0.0, , , , , , 99, , , 21, 21, 21
37.2865892, -119.5625678, 39.300, 14:06:32.839, 19, 0.00, 0.52, 97, 1.500, 6.500, -43.600, 442, 100, 98, 22, 23416, -18868, 5436, 5605, 5, 14, 1523480792.840, 24, 0, 1024, 1024, 1024, 1024, 0, 6, 3871, 3883, 3930, 3913, 3945, 3908, 0, 1, 18401, -89.900, 0.000, -44.600, 0.000, 0.000, -2.900, 0.0, , , , , , 99, , , 21, 21, 21
37.2865892, -119.5625678, 39.600, 14:06:32.946, 19, 0.00, 0.52, 97, 1.700, 6.600, -43.600, 442, 100, 98, 22, 23416, -18868, 5436, 5605, 5, 14, 1523480792.947, 6, 0, 1024, 1024, 1024, 1024, 0, 6, 3878, 3875, 3918, 3905, 3927, 3896, 0, 1, 18508, -89.900, 0.000, -44.600, 0.000, 0.000, -2.900, 0.0, , , , , , 99, , , 21, 21, 21
37.2865892, -119.5625679, 39.900, 14:06:33.039, 19, 0.00, 0.53, 97, 1.500, 6.600, -43.600, 442, 100, 98, 22, 23416, -18868, 5436, 5605, 5, 14, 1523480793.040, 4, 0, 1024, 1024, 1024, 1024, 0, 6, 3878, 3875, 3918, 3905, 3927, 3896, 0, 1, 18601, -89.900, 0.000, -44.600, 0.000, 0.000, -2.900, 0.0, , , , , , 99, , , 21, 21, 21
37.2865892, -119.5625679, 39.900, 14:06:33.139, 19, 0.00, 0.53, 97, 1.500, 6.600, -43.600, 442, 100, 98, 22, 23416, -18868, 5436, 5605, 5, 14, 1523480793.140, 104, 0, 1024, 1024, 1024, 1024, 0, 6, 3878, 3875, 3918, 3905, 3927, 3896, 0, 1, 18701, -89.900, 0.000, -44.600, 0.000, 0.000, -2.900, 0.0, , , , , , 99, , , 21, 21, 21
37.2865892, -119.5625679, 40.200, 14:06:33.239, 19, 0.00, 0.53, 97, 1.500, 6.700, -43.600, 442, 100, 98, 22, 23416, -18868, 5436, 5605, 5, 14, 1523480793.240, 90, 0, 1024, 1024, 1024, 1024, 0, 6, 3878, 3875, 3918, 3905, 3927, 3896, 0, 1, 18801, -89.900, 0.000, -44.600, 0.000, 0.000, -2.900, 0.0, , , , , , 99, , , 21, 21, 21
37.2865892, -119.5625679, 40.200, 14:06:33.339, 19, 0.00, 0.53, 97, 1.500, 6.700, -43.600, 442, 100, 98, 22, 23416, -18868, 5436, 5605, 5, 14, 1523480793.340, 190, 0, 1024, 1024, 1024, 1024, 0, 6, 3878, 3875, 3918, 3905, 3927, 3896, 0, 1, 18901, -89.900, 0.000, -44.600, 0.000, 0.000, -2.900, 0.0, , , , , , 99, , , 21, 21, 21
37.2865892, -119.5625679, 41.100, 14:06:33.444, 19, 0.00, 0.52, 97, 1.500, 6.100, -43.600, 442, 100, 98, 22, 23416, -18868, 5436, 5605, 5, 14, 1523480793.444, 5, 0, 1024, 1024, 1024, 1024, 0, 6, 3878, 3875, 3918, 3905, 3927, 3896, 0, 1, 19005, -90.000, 0.000, -44.600, 0.000, 0.000, -2.800, 0.0, , , , , , 99, , , 21, 21, 21
37.2865892, -119.5625679, 41.100, 14:06:33.539, 19, 0.00, 0.52, 97, 1.500, 6.100, -43.600, 442, 100, 98, 22, 23416, -18868, 5436, 5605, 5, 14, 1523480793.540, 100, 0, 1024, 1024, 1024, 1024, 0, 6, 3878, 3875, 3918, 3905, 3927, 3896, 0, 1, 19101, -90.000, 0.000, -44.600, 0.000, 0.000, -2.800, 0.0, , , , , , 99, , , 21, 21, 21
37.2865892, -119.5625678, 41.400, 14:06:33.639, 19, 0.00, 0.52, 97, 1.300, 5.900, -43.500, 442, 100, 98, 22, 23416, -18868, 5436, 5605, 5, 14, 1523480793.640, 62, 0, 1024, 1024, 1024, 1024, 0, 6, 3878, 3875, 3918, 3905, 3927, 3896, 0, 1, 19201, -89.900, 0.000, -44.600, 0.000, 0.000, -2.900, 0.0, , , , , , 99, , , 21, 21, 21
37.2865891, -119.5625678, 41.700, 14:06:33.739, 19, 0.00, 0.52, 97, 1.300, 5.900, -43.300, 442, 100, 98, 22, 23416, -18868, 5436, 5605, 5, 14, 1523480793.740, 67, 0, 1024, 1024, 1024, 1024, 0, 6, 3878, 3875, 3918, 3905, 3927, 3896, 0, 1, 19301, -90.000, 0.000, -44.600, 0.000, 0.000, -3.000, 0.0, , , , , , 99, , , 21, 21, 21
37.2865891, -119.5625678, 42.000, 14:06:33.839, 19, 0.00, 0.51, 97, 1.400, 5.900, -43.200, 442, 100, 98, 22, 23318, -20394, 5436, 5605, 5, 14, 1523480793.840, 69, 0, 1024, 1024, 1024, 1024, 0, 6, 3878, 3875, 3918, 3905, 3927, 3896, 0, 1, 19401, -90.000, 0.000, -44.600, 0.000, 0.000, -3.000, 0.0, , , , , , 99, , , 21, 21, 21
37.2865891, -119.5625677, 42.300, 14:06:33.939, 19, 0.00, 0.51, 97, 1.300, 5.900, -43.100, 442, 100, 98, 22, 23318, -20394, 5436, 5605, 5, 14, 1523480793.940, 67, 0, 1024, 1024, 1024, 1024, 0, 6, 3855, 3844, 3910, 3880, 3915, 3875, 0, 1, 19501, -90.000, 0.000, -44.600, 0.000, 0.000, -3.000, 0.0, , , , , , 99, , , 21, 21, 21
37.2865891, -119.5625677, 42.300, 14:06:34.039, 19, 0.00, 0.51, 97, 1.300, 5.900, -43.100, 442, 100, 98, 22, 23318, -20394, 5436, 5605, 5, 14, 1523480794.040, 166, 0, 1024, 1024, 1024, 1024, 0, 6, 3855, 3844, 3910, 3880, 3915, 3875, 0, 1, 19601, -90.000, 0.000, -44.600, 0.000, 0.000, -3.000, 0.0, , , , , , 99, , , 21, 21, 21
37.2865890, -119.5625676, 42.900, 14:06:34.139, 19, 0.00, 0.50, 97, 1.300, 5.500, -43.200, 442, 100, 98, 22, 23318, -20394, 5436, 5605, 5, 14, 1523480794.140, 55, 0, 1024, 1024, 1024, 1024, 0, 6, 3855, 3844, 3910, 3880, 3915, 3875, 0, 1, 19701, -90.000, 0.000, -44.600, 0.000, 0.000, -3.000, 0.0, , , , , , 99, , , 21, 21, 21
37.2865889, -119.5625676, 43.200, 14:06:34.239, 19, 0.00, 0.49, 97, 1.200, 5.500, -43.300, 442, 100, 98, 22, 23318, -20394, 5436, 5605, 5, 14, 1523480794.239, 80, 0, 1024, 1024, 1024, 1024, 0, 6, 3855, 3844, 3910, 3880, 3915, 3875, 0, 1, 19801, -89.900, 0.000, -44.600, 0.000, 0.000, -3.000, 0.0, , , , , , 99, , , 21, 21, 21
37.2865889, -119.5625675, 43.500, 14:06:34.339, 19, 0.00, 0.49, 97, 1.000, 5.700, -43.500, 442, 100, 98, 22, 23318, -20394, 5436, 5605, 5, 14, 1523480794.339, 82, 0, 1024, 1024, 1024, 1024, 0, 6, 3855, 3844, 3910, 3880, 3915, 3875, 0, 1, 19901, -89.900, 0.000, -44.600, 0.000, 0.000, -3.000, 0.0, , , , , , 99, , , 21, 21, 21
37.2865889, -119.5625675, 43.800, 14:06:34.439, 19, 0.00, 0.49, 97, 0.900, 5.900, -43.600, 442, 100, 96, 22, 23318, -20394, 5436, 5605, 5, 14, 1523480794.441, 41, 0, 1024, 1024, 1024, 1024, 0, 6, 3855, 3844, 3910, 3880, 3915, 3875, 0, 1, 20002, -89.900, 0.000, -44.600, 0.000, 0.000, -2.900, 0.0, , , , , , 99, , , 21, 21, 21
37.2865889, -119.5625674, 44.200, 14:06:34.539, 19, 0.00, 0.48, 97, 0.800, 6.000, -43.700, 442, 100, 96, 22, 23318, -20394, 5436, 5605, 5, 14, 1523480794.540, 41, 0, 1024, 1024, 1024, 1024, 0, 6, 3855, 3844, 3910, 3880, 3915, 3875, 0, 1, 20101, -89.900, 0.000, -44.600, 0.000, 0.000, -3.000, 0.0, , , , , , 99, , , 21, 21, 21
37.2865889, -119.5625673, 44.700, 14:06:34.639, 19, 0.00, 0.47, 97, 0.800, 5.800, -43.500, 442, 100, 96, 22, 23318, -20394, 5436, 5605, 5, 14, 1523480794.640, 54, 0, 1024, 1024, 1024, 1024, 0, 6, 3855, 3844, 3910, 3880, 3915, 3875, 0, 1, 20201, -89.900, 0.000, -44.600, 0.000, 0.000, -2.900, 0.0, , , , , , 99, , , 21, 21, 21
37.2865889, -119.5625673, 44.700, 14:06:34.739, 19, 0.00, 0.47, 97, 0.800, 5.800, -43.500, 442, 100, 96, 22, 23318, -20394, 5436, 5605, 5, 14, 1523480794.740, 154, 0, 1024, 1024, 1024, 1024, 0, 6, 3855, 3844, 3910, 3880, 3915, 3875, 0, 1, 20301, -89.900, 0.000, -44.600, 0.000, 0.000, -2.900, 0.0, , , , , , 99, , , 21, 21, 21
37.2865889, -119.5625672, 45.400, 14:06:34.839, 19, 0.00, 0.46, 97, 0.700, 5.900, -43.200, 442, 100, 92, 22, 23221, -20394, 5436, 5605, 5, 14, 1523480794.840, 16, 0, 1024, 1024, 1024, 1024, 0, 6, 3855, 3844, 3910, 3880, 3915, 3875, 0, 1, 20401, -89.900, 0.000, -44.600, 0.000, 0.000, -3.000, 0.0, , , , , , 99, , , 21, 21, 21
37.2865889, -119.5625672, 45.700, 14:06:34.939, 19, 0.00, 0.46, 97, 0.700, 5.800, -43.200, 442, 100, 92, 22, 23221, -20394, 5436, 5605, 5, 14, 1523480794.940, 44, 0, 1024, 1024, 1024, 1024, 0, 6, 3855, 3844, 3910, 3880, 3915, 3875, 0, 1, 20501, -89.900, 0.000, -44.600, 0.000, 0.000, -3.000, 0.0, , , , , , 99, , , 21, 21, 21
37.2865889, -119.5625671, 46.000, 14:06:35.039, 19, 0.00, 0.45, 97, 0.800, 5.700, -43.200, 442, 100, 92, 22, 23221, -20394, 5436, 5605, 5, 14, 1523480795.039, 10, 0, 1024, 1024, 1024, 1024, 0, 6, 3855, 3844, 3910, 3880, 3915, 3875, 0, 1, 20600, -90.000, 0.000, -44.600, 0.000, 0.000, -2.900, 0.0, , , , , , 99, , , 21, 21, 21
37.2865888, -119.5625671, 46.200, 14:06:35.139, 19, 0.00, 0.45, 97, 1.000, 5.600, -43.400, 442, 100, 92, 22, 23221, -20394, 5436, 5605, 5, 14, 1523480795.140, 13, 0, 1024, 1024, 1024, 1024, 0, 6, 3855, 3844, 3910, 3880, 3915, 3875, 0, 1, 20701, -90.000, 0.000, -44.600, 0.000, 0.000, -2.900, 0.0, , , , , , 99, , , 21, 21, 21
37.2865888, -119.5625671, 46.500, 14:06:35.239, 19, 0.00, 0.44, 97, 1.100, 5.600, -43.500, 442, 100, 92, 22, 23221, -20394, 5436, 5605, 5, 14, 1523480795.240, 23, 0, 1024, 1024, 1024, 1024, 0, 6, 3853, 3833, 3900, 3872, 3892, 3872, 0, 1, 20801, -90.000, 0.000, -44.600, 0.000, 0.000, -2.900, 0.0, , , , , , 99, , , 21, 21, 21
37.2865887, -119.5625670, 46.800, 14:06:35.339, 19, 0.00, 0.44, 97, 1.200, 5.500, -43.700, 442, 100, 90, 22, 23221, -20394, 5436, 5605, 5, 14, 1523480795.340, 11, 0, 1024, 1024, 1024, 1024, 0, 6, 3853, 3833, 3900, 3872, 3892, 3872, 0, 1, 20901, -90.000, 0.000, -44.600, 0.000, 0.000, -2.900, 0.0, , , , , , 99, , , 21, 21, 21
