Latitude, Longitude, Altitude (m), Time, Sats, Speed (m/s), Range (m), Battery (%), Roll (deg), Pitch (deg), Yaw (deg), Images, HD Signal (%), RC Signal (%), Battery Temp (C), Battery Voltage (mV), Battery Current (mA), Battery Energy (mAh), Battery Capacity (mAh), Battery Discharges, flyState, timestamp (Unix), LastUpdate (ms), radioChannel, Rc_elevator, Rc_aileron, Rc_throttle, Rc_rudder, Rc_gyro, Dronetype, Battery_Cell1 (mV), Battery_Cell2 (mV), Battery_Cell3 (mV), Battery_Cell4 (mV), Battery_Cell5 (mV), Battery_Cell6 (mV), Video, isFlying, elapsedTime (ms), gimbalPitch (deg), gimbalRoll (deg), gimbalYaw (deg), VelocityX (m/s), VelocityY (m/s), VelocityZ (m/s), GroundSmear (cm), App Version, Aircraft Name, Aircraft Firmware, Aircraft Serial Number, Battery Serial Number, Battery Lifetime (%), App_Tip, App_Warning, CurrentFlightStartingIndex, CurrentFlightLastVisitedWaypoint, PreviousFlightEndingWaypointIndex
37.2865984, -119.5625719, 0.000, 12:56:38.959, 14, 0.00, 0.08, 97, -0.400, 0.700, -44.200, 2, 100, 100, 20, 25529, -4189, 5399, 5567, 7, 11, 1523476598.959, 157, 0, 1024, 1024, 1025, 1024, 0, 6, 4211, 4209, 4203, 4278, 4256, 4248, 0, 1, 2995, -89.900, 0.000, -44.400, 0.000, 0.000, 0.000, 0.0, MapPilot_2.7.4_02272018, Dendroctonus I, 1.3.1.00, 041DDC1887, 1058171200161, 99, DJI_0001.jpg, Starting Mission from Lat/Long: 37.28661/-119.56258 Camera: Zenmuse X3 - Overlap: 90/90 - Active Connection: Yes, 0, 0, 0
37.2865984, -119.5625719, 0.000, 12:56:38.964, 14, 0.00, 0.08, 97, -0.400, 0.700, -44.200, 2, 100, 100, 20, 25529, -4189, 5399, 5567, 7, 11, 1523476598.965, 162, 0, 1024, 1024, 1025, 1024, 0, 6, 4211, 4209, 4203, 4278, 4256, 4248, 0, 1, 3001, -89.900, 0.000, -44.400, 0.000, 0.000, 0.000, 0.0, , , , , , 99, , , 0, 0, 0
37.2865984, -119.5625719, 0.000, 12:56:39.064, 14, 0.00, 0.08, 97, 0.200, 0.200, -44.100, 2, 100, 100, 20, 25529, -4189, 5399, 5567, 7, 11, 1523476599.064, 64, 0, 1024, 1024, 1024, 1024, 0, 6, 4211, 4209, 4203, 4278, 4256, 4248, 0, 1, 3100, -90.000, 0.000, -44.400, 0.000, 0.000, -0.200, 0.0, , , , , , 99, , , 0, 0, 0
37.2865985, -119.5625719, 0.000, 12:56:39.164, 14, 0.00, 0.09, 97, 0.000, -0.200, -44.000, 2, 100, 100, 20, 25529, -4189, 5399, 5567, 7, 11, 1523476599.165, 30, 0, 1024, 1024, 1025, 1024, 0, 6, 4211, 4209, 4203, 4278, 4256, 4248, 0, 1, 3201, -90.000, 0.000, -44.400, 0.000, 0.000, -0.300, 0.0, , , , , , 99, , , 0, 0, 0
37.2865985, -119.5625719, 0.000, 12:56:39.264, 14, 0.00, 0.09, 97, 0.100, 0.000, -44.000, 2, 100, 100, 20, 25529, -4189, 5399, 5567, 7, 11, 1523476599.265, 54, 0, 1024, 1024, 1024, 1024, 0, 6, 4211, 4209, 4203, 4278, 4256, 4248, 0, 1, 3301, -89.900, 0.000, -44.400, 0.000, 0.000, -0.300, 0.0, , , , , , 99, , , 0, 0, 0
37.2865986, -119.5625719, 0.000, 12:56:39.364, 15, 0.00, 0.11, 97, -0.100, 0.500, -44.000, 2, 100, 100, 20, 24132, -14478, 5399, 5567, 7, 11, 1523476599.364, 42, 0, 1024, 1024, 1025, 1024, 0, 6, 4211, 4209, 4203, 4278, 4256, 4248, 0, 1, 3400, -89.900, 0.000, -44.400, 0.000, 0.000, -0.300, 0.0, , , , , , 99, , , 0, 0, 0
37.2865987, -119.5625720, 0.100, 12:56:39.464, 16, 0.00, 0.12, 97, -0.500, 0.800, -44.000, 2, 100, 100, 20, 24132, -14478, 5399, 5567, 7, 11, 1523476599.465, 41, 0, 1024, 1024, 1024, 1024, 0, 6, 4211, 4209, 4203, 4278, 4256, 4248, 0, 1, 3501, -89.900, 0.000, -44.400, 0.000, 0.000, -0.300, 0.0, , , , , , 99, , , 0, 0, 0
37.2865988, -119.5625720, 0.100, 12:56:39.564, 16, 0.00, 0.13, 97, -0.900, 0.700, -43.900, 2, 100, 100, 20, 24132, -14478, 5399, 5567, 7, 11, 1523476599.565, 24, 0, 1024, 1024, 1024, 1024, 0, 6, 4211, 4209, 4203, 4278, 4256, 4248, 0, 1, 3601, -90.000, 0.000, -44.400, 0.000, 0.000, -0.400, 0.0, , , , , , 99, , , 0, 0, 0
37.2865989, -119.5625719, 0.200, 12:56:39.664, 14, 0.00, 0.14, 97, -1.100, 0.500, -43.800, 2, 100, 100, 20, 24132, -14478, 5399, 5567, 7, 11, 1523476599.665, 27, 0, 1024, 1024, 1025, 1024, 0, 6, 4211, 4209, 4203, 4278, 4256, 4248, 0, 1, 3701, -90.000, 0.000, -44.400, 0.000, 0.000, -0.400, 0.0, , , , , , 99, , , 0, 0, 0
37.2865990, -119.5625719, 0.200, 12:56:39.764, 14, 0.00, 0.15, 97, -1.200, 0.400, -43.800, 2, 100, 100, 20, 24132, -14478, 5399, 5567, 7, 11, 1523476599.765, 20, 0, 1024, 1024, 1025, 1024, 0, 6, 4211, 4209, 4203, 4278, 4256, 4248, 0, 1, 3801, -89.900, 0.000, -44.400, 0.000, 0.000, -0.400, 0.0, , , , , , 99, , , 0, 0, 0
37.2865991, -119.5625719, 0.300, 12:56:39.864, 14, 0.00, 0.16, 97, -1.200, 0.400, -43.700, 2, 100, 100, 20, 24132, -14478, 5399, 5567, 7, 11, 1523476599.865, 22, 0, 1024, 1024, 1024, 1024, 0, 6, 4004, 4020, 4012, 4036, 4058, 4170, 0, 1, 3901, -89.900, 0.000, -44.400, 0.000, 0.000, -0.400, 0.0, , , , , , 99, , , 0, 0, 0
37.2865993, -119.5625720, 0.300, 12:56:39.964, 14, 0.10, 0.17, 97, -1.100, 0.700, -43.500, 2, 100, 100, 20, 24132, -14478, 5399, 5567, 7, 11, 1523476599.965, 26, 0, 1024, 1024, 1025, 1024, 0, 6, 4004, 4020, 4012, 4036, 4058, 4170, 0, 1, 4001, -89.900, 0.000, -44.400, 0.100, 0.000, -0.400, 0.0, , , , , , 99, , , 0, 0, 0
37.2865994, -119.5625720, 0.300, 12:56:40.064, 15, 0.10, 0.19, 97, -1.200, 1.000, -43.400, 2, 100, 100, 20, 24132, -14478, 5399, 5567, 7, 11, 1523476600.065, 30, 0, 1024, 1024, 1025, 1024, 0, 6, 4004, 4020, 4012, 4036, 4058, 4170, 0, 1, 4101, -89.900, 0.000, -44.400, 0.100, 0.000, -0.500, 0.0, , , , , , 99, , , 0, 0, 0
37.2865994, -119.5625720, 0.300, 12:56:40.164, 15, 0.10, 0.19, 97, -1.200, 1.000, -43.400, 2, 100, 100, 20, 24132, -14478, 5399, 5567, 7, 11, 1523476600.165, 130, 0, 1024, 1024, 1025, 1024, 0, 6, 4004, 4020, 4012, 4036, 4058, 4170, 0, 1, 4201, -89.900, 0.000, -44.400, 0.100, 0.000, -0.500, 0.0, , , , , , 99, , , 0, 0, 0
37.2865997, -119.5625720, 0.500, 12:56:40.264, 15, 0.10, 0.22, 97, -1.300, 1.500, -43.600, 2, 100, 100, 20, 24132, -14478, 5399, 5567, 7, 11, 1523476600.265, 5, 0, 1024, 1024, 1025, 1024, 0, 6, 4004, 4020, 4012, 4036, 4058, 4170, 0, 1, 4301, -89.900, 0.000, -44.400, 0.100, 0.000, -0.500, 0.0, , , , , , 99, , , 0, 0, 0
37.2865998, -119.5625720, 0.500, 12:56:40.364, 15, 0.00, 0.23, 97, -1.500, 1.500, -43.700, 2, 100, 100, 20, 24132, -14478, 5399, 5567, 7, 11, 1523476600.364, 13, 0, 1024, 1024, 1025, 1024, 0, 6, 4004, 4020, 4012, 4036, 4058, 4170, 0, 1, 4401, -89.900, 0.000, -44.400, 0.000, 0.000, -0.500, 0.0, , , , , , 99, , , 0, 0, 0
37.2865999, -119.5625720, 0.600, 12:56:40.466, 16, 0.00, 0.24, 97, -1.700, 1.500, -43.800, 2, 100, 100, 20, 24132, -14478, 5399, 5567, 7, 11, 1523476600.467, 6, 0, 1024, 1024, 1024, 1024, 0, 6, 4004, 4020, 4012, 4036, 4058, 4170, 0, 1, 4503, -89.900, 0.000, -44.400, 0.000, 0.000, -0.500, 0.0, , , , , , 99, , , 0, 0, 0
37.2865999, -119.5625720, 0.600, 12:56:40.564, 16, 0.00, 0.24, 97, -1.700, 1.500, -43.800, 2, 100, 100, 20, 24132, -14478, 5399, 5567, 7, 11, 1523476600.565, 104, 0, 1024, 1024, 1024, 1024, 0, 6, 4004, 4020, 4012, 4036, 4058, 4170, 0, 1, 4601, -89.900, 0.000, -44.400, 0.000, 0.000, -0.500, 0.0, , , , , , 99, , , 0, 0, 0
37.2866000, -119.5625719, 0.700, 12:56:40.664, 16, 0.00, 0.26, 97, -1.800, 1.700, -43.800, 2, 100, 100, 20, 24132, -14478, 5399, 5567, 7, 11, 1523476600.665, 91, 0, 1024, 1024, 1024, 1024, 0, 6, 4004, 4020, 4012, 4036, 4058, 4170, 0, 1, 4701, -89.900, 0.000, -44.400, 0.000, 0.000, -0.500, 0.0, , , , , , 99, , , 0, 0, 0
37.2866001, -119.5625718, 0.700, 12:56:40.764, 15, 0.00, 0.27, 97, -1.800, 1.800, -43.900, 2, 100, 100, 20, 24132, -14478, 5399, 5567, 7, 11, 1523476600.765, 92, 0, 1024, 1024, 1025, 1024, 0, 6, 4004, 4020, 4012, 4036, 4058, 4170, 0, 1, 4801, -89.900, 0.000, -44.400, 0.000, 0.000, -0.600, 0.0, , , , , , 99, , , 0, 0, 0
37.2866002, -119.5625717, 0.800, 12:56:40.864, 15, 0.00, 0.28, 97, -2.100, 1.600, -44.200, 2, 100, 100, 20, 24132, -14478, 5399, 5567, 7, 11, 1523476600.865, 96, 0, 1024, 1024, 1025, 1024, 0, 6, 4004, 4020, 4012, 4036, 4058, 4170, 0, 1, 4901, -89.900, 0.000, -44.400, 0.000, 0.000, -0.600, 0.0, , , , , , 99, , , 0, 0, 0
37.2866004, -119.5625716, 0.900, 12:56:40.964, 14, 0.00, 0.30, 97, -2.400, 1.600, -44.400, 2, 100, 100, 20, 23935, -16343, 5399, 5567, 7, 11, 1523476600.965, 88, 0, 1024, 1024, 1025, 1024, 0, 6, 3978, 3995, 3968, 3996, 4001, 3993, 0, 1, 5001, -89.900, 0.000, -44.400, 0.000, 0.000, -0.500, 0.0, , , , , , 99, , , 0, 0, 0
37.2866007, -119.5625715, 1.000, 12:56:41.064, 16, 0.00, 0.33, 97, -3.000, 1.300, -44.700, 2, 100, 100, 20, 23935, -16343, 5399, 5567, 7, 14, 1523476601.065, 53, 0, 1024, 1024, 1024, 1024, 0, 6, 3978, 3995, 3968, 3996, 4001, 3993, 0, 1, 5101, -89.900, 0.000, -44.400, 0.000, 0.000, -0.400, 0.0, , , , , , 99, , , 0, 0, 0
37.2866008, -119.5625714, 1.000, 12:56:41.164, 16, 0.00, 0.35, 97, -2.900, 0.800, -44.700, 2, 100, 100, 20, 23935, -16343, 5399, 5567, 7, 14, 1523476601.165, 86, 0, 1024, 1024, 1024, 1024, 0, 6, 3978, 3995, 3968, 3996, 4001, 3993, 0, 1, 5201, -90.000, 0.000, -44.400, 0.000, 0.000, -0.300, 0.0, , , , , , 99, , , 0, 0, 0
37.2866010, -119.5625713, 1.100, 12:56:41.264, 16, 0.00, 0.37, 97, -2.700, 0.600, -44.800, 2, 100, 100, 20, 23935, -16343, 5399, 5567, 7, 14, 1523476601.265, 51, 0, 1024, 1024, 1024, 1024, 0, 6, 3978, 3995, 3968, 3996, 4001, 3993, 0, 1, 5301, -90.000, 0.000, -44.400, 0.000, 0.000, -0.300, 0.0, , , , , , 99, , , 0, 0, 0
37.2866011, -119.5625711, 1.100, 12:56:41.364, 16, 0.00, 0.39, 97, -2.600, 0.700, -44.800, 2, 100, 100, 20, 23935, -16343, 5399, 5567, 7, 14, 1523476601.365, 68, 0, 1024, 1024, 1025, 1024, 0, 6, 3978, 3995, 3968, 3996, 4001, 3993, 0, 1, 5401, -90.000, 0.000, -44.400, 0.000, 0.000, -0.300, 0.0, , , , , , 99, , , 0, 0, 0
37.2866012, -119.5625711, 1.100, 12:56:41.464, 14, 0.00, 0.39, 97, -2.600, 0.900, -44.900, 2, 100, 100, 20, 23935, -16343, 5399, 5567, 7, 14, 1523476601.465, 18, 0, 1024, 1024, 1025, 1024, 0, 6, 3978, 3995, 3968, 3996, 4001, 3993, 0, 1, 5501, -89.900, 0.000, -44.400, 0.000, 0.000, -0.300, 0.0, , , , , , 99, , , 0, 0, 0
37.2866012, -119.5625711, 1.200, 12:56:41.564, 14, 0.00, 0.39, 97, -2.500, 1.100, -44.800, 2, 100, 100, 20, 23935, -16343, 5399, 5567, 7, 14, 1523476601.565, 69, 0, 1024, 1024, 1025, 1024, 0, 6, 3978, 3995, 3968, 3996, 4001, 3993, 0, 1, 5601, -89.900, 0.000, -44.400, 0.000, 0.000, -0.500, 0.0, , , , , , 99, , , 0, 0, 0
37.2866012, -119.5625711, 1.300, 12:56:41.664, 14, 0.00, 0.40, 97, -2.100, 1.000, -44.800, 2, 100, 100, 20, 23935, -16343, 5399, 5567, 7, 14, 1523476601.664, 9, 0, 1024, 1024, 1025, 1024, 0, 6, 3978, 3995, 3968, 3996, 4001, 3993, 0, 1, 5700, -89.900, 0.000, -44.400, 0.000, 0.000, -0.800, 0.0, , , , , , 99, , , 0, 0, 0
37.2866013, -119.5625710, 1.400, 12:56:41.764, 14, 0.00, 0.41, 97, -2.000, 0.800, -44.900, 2, 100, 100, 20, 23935, -16343, 5399, 5567, 7, 14, 1523476601.765, 58, 0, 1024, 1024, 1025, 1024, 0, 6, 3978, 3995, 3968, 3996, 4001, 3993, 0, 1, 5801, -90.000, 0.000, -44.400, 0.000, 0.000, -0.900, 0.0, , , , , , 99, , , 0, 0, 0
37.2866014, -119.5625710, 1.500, 12:56:41.864, 16, 0.00, 0.42, 97, -1.900, 0.700, -45.000, 2, 100, 100, 20, 24004, -14301, 5344, 5567, 7, 14, 1523476601.865, 27, 0, 1024, 1024, 1025, 1024, 0, 6, 3985, 3996, 3982, 4072, 4028, 3989, 0, 1, 5901, -90.000, 0.000, -44.400, 0.000, 0.000, -1.200, 0.0, , , , , , 99, , , 0, 0, 0
37.2866015, -119.5625710, 1.600, 12:56:41.964, 16, 0.00, 0.44, 97, -2.100, 0.700, -45.000, 2, 100, 100, 20, 24004, -14301, 5344, 5567, 7, 14, 1523476601.965, 16, 0, 1024, 1024, 1025, 1024, 0, 6, 3985, 3996, 3982, 4072, 4028, 3989, 0, 1, 6001, -90.000, 0.000, -44.400, 0.000, 0.000, -1.400, 0.0, , , , , , 99, , , 0, 0, 0
37.2866017, -119.5625709, 1.800, 12:56:42.067, 16, 0.00, 0.46, 97, -2.300, 0.700, -45.100, 2, 100, 100, 20, 24004, -14301, 5344, 5567, 7, 14, 1523476602.068, 3, 0, 1024, 1024, 1025, 1024, 0, 6, 3985, 3996, 3982, 4072, 4028, 3989, 0, 1, 6104, -90.000, 0.000, -44.400, 0.000, 0.000, -1.600, 0.0, , , , , , 99, , , 0, 0, 0
37.2866019, -119.5625708, 1.900, 12:56:42.164, 16, 0.00, 0.48, 97, -2.400, 0.900, -45.100, 2, 100, 100, 20, 24004, -14301, 5344, 5567, 7, 14, 1523476602.164, 12, 0, 1024, 1024, 1024, 1024, 0, 6, 3985, 3996, 3982, 4072, 4028, 3989, 0, 1, 6201, -89.900, 0.000, -44.400, 0.000, 0.000, -1.700, 0.0, , , , , , 99, , , 0, 0, 0
37.2866021, -119.5625709, 2.100, 12:56:42.264, 15, 0.00, 0.50, 97, -2.600, 1.400, -45.100, 2, 100, 100, 20, 24004, -14301, 5344, 5567, 7, 14, 1523476602.264, 23, 0, 1024, 1024, 1025, 1024, 0, 6, 3985, 3996, 3982, 4072, 4028, 3989, 0, 1, 6301, -89.900, 0.000, -44.400, 0.000, 0.000, -2.000, 0.0, , , , , , 99, , , 0, 0, 0
37.2866022, -119.5625711, 2.300, 12:56:42.364, 15, 0.00, 0.51, 97, -2.700, 1.700, -45.100, 2, 100, 100, 20, 24004, -14301, 5344, 5567, 7, 14, 1523476602.364, 26, 0, 1024, 1024, 1025, 1024, 0, 6, 3985, 3996, 3982, 4072, 4028, 3989, 0, 1, 6400, -89.900, 0.000, -44.400, 0.000, 0.000, -2.200, 0.0, , , , , , 99, , , 0, 0, 0
37.2866023, -119.5625712, 2.600, 12:56:42.464, 17, 0.00, 0.52, 97, -2.700, 1.900, -45.100, 2, 100, 100, 20, 24004, -14301, 5344, 5567, 7, 14, 1523476602.465, 6, 0, 1024, 1024, 1025, 1024, 0, 6, 3985, 3996, 3982, 4072, 4028, 3989, 0, 1, 6501, -89.900, 0.000, -44.400, 0.000, 0.000, -2.500, 0.0, , , , , , 99, , , 0, 0, 0
37.2866024, -119.5625712, 2.900, 12:56:42.564, 17, 0.00, 0.53, 97, -2.600, 2.100, -45.100, 2, 100, 100, 20, 24004, -14301, 5344, 5567, 7, 14, 1523476602.564, 23, 0, 1024, 1024, 1025, 1024, 0, 6, 3985, 3996, 3982, 4072, 4028, 3989, 0, 1, 6600, -90.000, 0.000, -44.400, 0.000, 0.000, -2.700, 0.0, , , , , , 99, , , 0, 0, 0
37.2866026, -119.5625712, 3.100, 12:56:42.664, 17, 0.00, 0.55, 97, -2.500, 1.800, -45.000, 2, 100, 100, 20, 24004, -14301, 5344, 5567, 7, 14, 1523476602.665, 23, 0, 1024, 1024, 1024, 1024, 0, 6, 3985, 3996, 3982, 4072, 4028, 3989, 0, 1, 6701, -89.900, 0.000, -44.400, 0.000, 0.000, -2.800, 0.0, , , , , , 99, , , 0, 0, 0
37.2866028, -119.5625711, 3.400, 12:56:42.764, 17, 0.00, 0.57, 97, -2.700, 1.700, -44.900, 2, 100, 100, 20, 24004, -14301, 5344, 5567, 7, 14, 1523476602.764, 4, 0, 1024, 1024, 1024, 1024, 0, 6, 3985, 3996, 3982, 4072, 4028, 3989, 0, 1, 6800, -89.900, 0.000, -44.400, 0.000, 0.000, -2.900, 0.0, , , , , , 99, , , 0, 0, 0
37.2866029, -119.5625711, 3.700, 12:56:42.864, 15, 0.00, 0.59, 96, -2.900, 1.800, -45.000, 2, 100, 100, 20, 23448, -21051, 5344, 5567, 7, 14, 1523476602.865, 16, 0, 1024, 1024, 1025, 1024, 0, 6, 3985, 3996, 3982, 4072, 4028, 3989, 0, 1, 6901, -89.900, 0.000, -44.400, 0.000, 0.000, -3.000, 0.0, , , , , , 99, , , 0, 0, 0
37.2866029, -119.5625711, 3.700, 12:56:42.964, 15, 0.00, 0.59, 96, -2.900, 1.800, -45.000, 2, 100, 100, 20, 23448, -21051, 5344, 5567, 7, 14, 1523476602.965, 116, 0, 1024, 1024, 1025, 1024, 0, 6, 3892, 3912, 3886, 3898, 3897, 3891, 0, 1, 7001, -89.900, 0.000, -44.400, 0.000, 0.000, -3.000, 0.0, , , , , , 99, , , 0, 0, 0
37.2866029, -119.5625711, 3.700, 12:56:43.064, 15, 0.00, 0.59, 96, -2.900, 1.800, -45.000, 2, 100, 100, 20, 23448, -21051, 5344, 5567, 7, 14, 1523476603.065, 216, 0, 1024, 1024, 1025, 1024, 0, 6, 3892, 3912, 3886, 3898, 3897, 3891, 0, 1, 7101, -89.900, 0.000, -44.400, 0.000, 0.000, -3.000, 0.0, , , , , , 99, , , 0, 0, 0
37.2866030, -119.5625713, 4.400, 12:56:43.164, 16, 0.00, 0.59, 96, -2.700, 1.900, -45.100, 2, 100, 100, 20, 23448, -21051, 5344, 5567, 7, 14, 1523476603.165, 92, 0, 1024, 1024, 1025, 1024, 0, 6, 3892, 3912, 3886, 3898, 3897, 3891, 0, 1, 7201, -89.900, 0.000, -44.400, 0.000, 0.000, -3.200, 0.0, , , , , , 99, , , 0, 0, 0
37.2866031, -119.5625717, 5.100, 12:56:43.264, 17, 0.00, 0.60, 96, -1.800, 2.300, -45.100, 2, 100, 100, 20, 23448, -21051, 5344, 5567, 7, 14, 1523476603.264, 63, 0, 1024, 1024, 1025, 1024, 0, 6, 3892, 3912, 3886, 3898, 3897, 3891, 0, 1, 7301, -89.900, 0.000, -44.400, 0.000, 0.000, -3.300, 0.0, , , , , , 99, , , 0, 0, 0
37.2866031, -119.5625717, 5.100, 12:56:43.364, 17, 0.00, 0.60, 96, -1.800, 2.300, -45.100, 2, 100, 100, 20, 23448, -21051, 5344, 5567, 7, 14, 1523476603.366, 164, 0, 1024, 1024, 1025, 1024, 0, 6, 3892, 3912, 3886, 3898, 3897, 3891, 0, 1, 7402, -89.900, 0.000, -44.400, 0.000, 0.000, -3.300, 0.0, , , , , , 99, , , 0, 0, 0
37.2866031, -119.5625718, 5.800, 12:56:43.464, 15, 0.10, 0.60, 96, -1.200, 2.500, -44.800, 2, 100, 100, 20, 23448, -21051, 5344, 5567, 7, 14, 1523476603.465, 67, 0, 1024, 1024, 1025, 1024, 0, 6, 3892, 3912, 3886, 3898, 3897, 3891, 0, 1, 7501, -89.900, 0.000, -44.400, -0.100, 0.000, -3.200, 0.0, , , , , , 99, , , 0, 0, 0
37.2866030, -119.5625717, 6.100, 12:56:43.564, 15, 0.10, 0.59, 96, -1.300, 2.100, -44.700, 2, 100, 100, 20, 23448, -21051, 5344, 5567, 7, 14, 1523476603.565, 79, 0, 1024, 1024, 1025, 1024, 0, 6, 3892, 3912, 3886, 3898, 3897, 3891, 0, 1, 7601, -89.900, 0.000, -44.400, -0.100, 0.000, -3.200, 0.0, , , , , , 99, , , 0, 0, 0
37.2866030, -119.5625717, 6.100, 12:56:43.664, 15, 0.10, 0.59, 96, -1.300, 2.100, -44.700, 2, 100, 100, 20, 23448, -21051, 5344, 5567, 7, 14, 1523476603.665, 179, 0, 1024, 1024, 1024, 1024, 0, 6, 3892, 3912, 3886, 3898, 3897, 3891, 0, 1, 7701, -90.000, 0.000, -44.400, -0.100, 0.000, -3.200, 0.0, , , , , , 99, , , 0, 0, 0
37.2866030, -119.5625716, 6.800, 12:56:43.764, 16, 0.10, 0.59, 96, -1.900, 1.000, -44.700, 2, 100, 100, 20, 23448, -21051, 5344, 5567, 7, 14, 1523476603.765, 53, 0, 1024, 1024, 1025, 1024, 0, 6, 3892, 3912, 3886, 3898, 3897, 3891, 0, 1, 7801, -90.000, 0.000, -44.400, -0.100, 0.000, -3.100, 0.0, , , , , , 99, , , 0, 0, 0
37.2866030, -119.5625715, 7.100, 12:56:43.864, 16, 0.10, 0.59, 96, -2.100, 1.000, -44.700, 2, 100, 100, 20, 23206, -22377, 5344, 5567, 7, 14, 1523476603.865, 54, 0, 1024, 1024, 1025, 1024, 0, 6, 3862, 3883, 3848, 3895, 3903, 3881, 0, 1, 7901, -90.000, 0.000, -44.400, -0.100, 0.000, -3.200, 0.0, , , , , , 99, , , 0, 0, 0
37.2866030, -119.5625714, 7.400, 12:56:43.964, 16, 0.10, 0.59, 96, -2.400, 0.900, -44.600, 2, 100, 100, 20, 23206, -22377, 5344, 5567, 7, 14, 1523476603.965, 54, 0, 1024, 1024, 1025, 1024, 0, 6, 3862, 3883, 3848, 3895, 3903, 3881, 0, 1, 8001, -90.000, 0.000, -44.400, -0.100, 0.000, -3.200, 0.0, , , , , , 99, , , 0, 0, 0
37.2866029, -119.5625713, 7.800, 12:56:44.064, 16, 0.10, 0.58, 96, -2.600, 0.800, -44.700, 2, 100, 100, 20, 23206, -22377, 5344, 5567, 7, 14, 1523476604.064, 54, 0, 1024, 1024, 1024, 1024, 0, 6, 3862, 3883, 3848, 3895, 3903, 3881, 0, 1, 8101, -90.000, 0.000, -44.400, -0.100, 0.000, -3.200, 0.0, , , , , , 99, , , 0, 0, 0
37.2866028, -119.5625713, 8.100, 12:56:44.164, 16, 0.10, 0.57, 96, -2.400, 0.700, -44.700, 2, 100, 100, 20, 23206, -22377, 5344, 5567, 7, 14, 1523476604.165, 41, 0, 1024, 1024, 1025, 1024, 0, 6, 3862, 3883, 3848, 3895, 3903, 3881, 0, 1, 8201, -90.000, 0.000, -44.400, -0.100, 0.000, -3.100, 0.0, , , , , , 99, , , 0, 0, 0
37.2866026, -119.5625712, 8.400, 12:56:44.264, 16, 0.10, 0.55, 96, -2.000, 0.800, -44.700, 2, 100, 100, 20, 23206, -22377, 5344, 5567, 7, 14, 1523476604.265, 50, 0, 1024, 1024, 1024, 1024, 0, 6, 3862, 3883, 3848, 3895, 3903, 3881, 0, 1, 8301, -90.000, 0.000, -44.400, -0.100, 0.000, -3.000, 0.0, , , , , , 99, , , 0, 0, 0
37.2866025, -119.5625712, 8.700, 12:56:44.364, 16, 0.10, 0.53, 96, -1.400, 0.700, -44.700, 2, 100, 100, 20, 23206, -22377, 5344, 5567, 7, 14, 1523476604.365, 39, 0, 1024, 1024, 1024, 1024, 0, 6, 3862, 3883, 3848, 3895, 3903, 3881, 0, 1, 8401, -90.000, 0.000, -44.400, -0.100, 0.000, -3.100, 0.0, , , , , , 99, , , 0, 0, 0
37.2866023, -119.5625713, 9.000, 12:56:44.464, 17, 0.10, 0.51, 96, -0.900, 0.700, -44.800, 2, 100, 100, 20, 23206, -22377, 5344, 5567, 7, 14, 1523476604.465, 54, 0, 1024, 1024, 1024, 1024, 0, 6, 3862, 3883, 3848, 3895, 3903, 3881, 0, 1, 8501, -90.000, 0.000, -44.400, -0.100, 0.000, -3.100, 0.0, , , , , , 99, , , 0, 0, 0
37.2866021, -119.5625713, 9.400, 12:56:44.564, 17, 0.10, 0.49, 96, -0.700, 0.400, -45.000, 2, 100, 100, 20, 23206, -22377, 5344, 5567, 7, 14, 1523476604.564, 33, 0, 1024, 1024, 1025, 1024, 0, 6, 3862, 3883, 3848, 3895, 3903, 3881, 0, 1, 8600, -90.000, 0.000, -44.400, -0.100, 0.000, -3.100, 0.0, , , , , , 99, , , 0, 0, 0
37.2866019, -119.5625713, 9.700, 12:56:44.664, 17, 0.10, 0.48, 96, -0.800, 0.400, -45.100, 2, 100, 100, 20, 23206, -22377, 5344, 5567, 7, 14, 1523476604.665, 50, 0, 1024, 1024, 1025, 1024, 0, 6, 3862, 3883, 3848, 3895, 3903, 3881, 0, 1, 8701, -90.000, 0.000, -44.400, -0.100, 0.000, -3.100, 0.0, , , , , , 99, , , 0, 0, 0
37.2866018, -119.5625712, 10.000, 12:56:44.764, 17, 0.10, 0.46, 96, -0.800, 0.400, -45.000, 2, 100, 100, 20, 23206, -22377, 5344, 5567, 7, 14, 1523476604.765, 30, 0, 1024, 1024, 1024, 1024, 0, 6, 3862, 3883, 3848, 3895, 3903, 3881, 0, 1, 8801, -90.000, 0.000, -44.400, -0.100, 0.000, -3.100, 0.0, , , , , , 99, , , 0, 0, 0
37.2866016, -119.5625711, 10.300, 12:56:44.864, 17, 0.10, 0.44, 96, -1.100, 0.000, -44.800, 2, 100, 100, 20, 23439, -18716, 5344, 5567, 7, 14, 1523476604.865, 8, 0, 1024, 1024, 1025, 1024, 0, 6, 3862, 3883, 3848, 3895, 3903, 3881, 0, 1, 8901, -90.000, 0.000, -44.400, -0.100, 0.000, -3.000, 0.0, , , , , , 99, , , 0, 0, 0
37.2866014, -119.5625711, 10.700, 12:56:44.964, 17, 0.10, 0.42, 96, -1.000, -0.400, -44.700, 2, 100, 100, 20, 23439, -18716, 5344, 5567, 7, 14, 1523476604.965, 13, 0, 1024, 1024, 1024, 1024, 0, 6, 3862, 3883, 3848, 3895, 3903, 3881, 0, 1, 9001, -90.000, 0.000, -44.400, -0.100, 0.000, -2.900, 0.0, , , , , , 99, , , 0, 0, 0
37.2866012, -119.5625710, 10.900, 12:56:45.064, 17, 0.10, 0.40, 96, -0.800, -0.700, -44.600, 2, 100, 100, 20, 23439, -18716, 5344, 5567, 7, 14, 1523476605.065, 14, 0, 1024, 1024, 1025, 1024, 0, 6, 3862, 3883, 3848, 3895, 3903, 3881, 0, 1, 9101, -90.000, 0.000, -44.400, -0.100, 0.000, -2.900, 0.0, , , , , , 99, , , 0, 0, 0
37.2866010, -119.5625709, 11.300, 12:56:45.184, 17, 0.10, 0.38, 96, -0.600, -1.000, -44.600, 2, 100, 100, 20, 23439, -18716, 5344, 5567, 7, 14, 1523476605.184, 5, 0, 1024, 1024, 1025, 1024, 0, 6, 3862, 3883, 3848, 3895, 3903, 3881, 0, 1, 9221, -90.000, 0.000, -44.400, -0.100, 0.000, -3.000, 0.0, , , , , , 99, , , 0, 0, 0
37.2866008, -119.5625709, 11.600, 12:56:45.264, 16, 0.10, 0.36, 96, -0.400, -1.200, -44.500, 2, 100, 100, 20, 23439, -18716, 5344, 5567, 7, 14, 1523476605.265, 5, 0, 1024, 1024, 1024, 1024, 0, 6, 3862, 3883, 3848, 3895, 3903, 3881, 0, 1, 9301, -90.000, 0.000, -44.400, -0.100, 0.000, -3.000, 0.0, , , , , , 99, , , 0, 0, 0
37.2866008, -119.5625709, 11.600, 12:56:45.364, 16, 0.10, 0.36, 96, -0.400, -1.200, -44.500, 2, 100, 100, 20, 23439, -18716, 5344, 5567, 7, 14, 1523476605.365, 105, 0, 1024, 1024, 1024, 1024, 0, 6, 3862, 3883, 3848, 3895, 3903, 3881, 0, 1, 9401, -90.000, 0.000, -44.400, -0.100, 0.000, -3.000, 0.0, , , , , , 99, , , 0, 0, 0
37.2866006, -119.5625709, 11.900, 12:56:45.464, 16, 0.10, 0.34, 96, -0.200, -1.300, -44.500, 2, 100, 100, 20, 23439, -18716, 5344, 5567, 7, 14, 1523476605.465, 81, 0, 1024, 1024, 1024, 1024, 0, 6, 3899, 3916, 3890, 3924, 3922, 3899, 0, 1, 9501, -89.900, 0.000, -44.400, -0.100, 0.000, -3.100, 0.0, , , , , , 99, , , 0, 0, 0
37.2866005, -119.5625710, 12.200, 12:56:45.564, 16, 0.10, 0.32, 96, 0.400, -1.300, -44.400, 2, 100, 100, 20, 23439, -18716, 5344, 5567, 7, 14, 1523476605.565, 83, 0, 1024, 1024, 1024, 1024, 0, 6, 3899, 3916, 3890, 3924, 3922, 3899, 0, 1, 9601, -89.900, 0.000, -44.400, -0.100, 0.000, -3.000, 0.0, , , , , , 99, , , 0, 0, 0
37.2866004, -119.5625711, 12.600, 12:56:45.664, 16, 0.00, 0.31, 96, 0.600, -1.100, -44.300, 2, 100, 100, 20, 23439, -18716, 5344, 5567, 7, 14, 1523476605.665, 74, 0, 1024, 1024, 1024, 1024, 0, 6, 3899, 3916, 3890, 3924, 3922, 3899, 0, 1, 9701, -89.900, 0.000, -44.400, 0.000, 0.000, -3.000, 0.0, , , , , , 99, , , 0, 0, 0
37.2866003, -119.5625712, 12.900, 12:56:45.764, 16, 0.00, 0.30, 96, 0.500, -0.600, -44.100, 2, 100, 100, 20, 23439, -18716, 5344, 5567, 7, 14, 1523476605.765, 87, 0, 1024, 1024, 1024, 1024, 0, 6, 3899, 3916, 3890, 3924, 3922, 3899, 0, 1, 9801, -89.900, 0.000, -44.400, 0.000, 0.000, -2.900, 0.0, , , , , , 99, , , 0, 0, 0
37.2866003, -119.5625713, 13.200, 12:56:45.864, 16, 0.00, 0.29, 96, 0.300, 0.000, -44.100, 2, 100, 100, 20, 23439, -18716, 5344, 5567, 7, 14, 1523476605.865, 65, 0, 1024, 1024, 1024, 1024, 0, 6, 3899, 3916, 3890, 3924, 3922, 3899, 0, 1, 9901, -89.900, 0.000, -44.400, 0.000, 0.000, -3.000, 0.0, , , , , , 99, , , 0, 0, 0
37.2866003, -119.5625713, 13.900, 12:56:45.964, 16, 0.00, 0.29, 96, -1.200, 0.200, -44.600, 2, 100, 99, 20, 23439, -18716, 5344, 5567, 7, 14, 1523476605.965, 63, 0, 1024, 1024, 1024, 1024, 0, 6, 3899, 3916, 3890, 3924, 3922, 3899, 0, 1, 10001, -89.900, 0.000, -44.400, 0.000, 0.000, -2.900, 0.0, , , , , , 99, , , 0, 0, 0
37.2866003, -119.5625713, 14.200, 12:56:46.064, 16, 0.00, 0.30, 96, -1.500, 0.300, -45.000, 2, 100, 99, 20, 23439, -18716, 5344, 5567, 7, 14, 1523476606.065, 64, 0, 1024, 1024, 1024, 1024, 0, 6, 3899, 3916, 3890, 3924, 3922, 3899, 0, 1, 10101, -89.900, 0.000, -44.400, 0.000, 0.000, -2.900, 0.0, , , , , , 99, , , 0, 0, 0
37.2866004, -119.5625712, 14.500, 12:56:46.164, 16, 0.00, 0.30, 96, -1.400, 0.600, -45.300, 2, 100, 99, 20, 23439, -18716, 5344, 5567, 7, 14, 1523476606.165, 54, 0, 1024, 1024, 1024, 1024, 0, 6, 3899, 3916, 3890, 3924, 3922, 3899, 0, 1, 10201, -89.900, 0.000, -44.400, 0.000, 0.000, -2.900, 0.0, , , , , , 99, , , 0, 0, 0
37.2866004, -119.5625712, 14.800, 12:56:46.264, 16, 0.00, 0.31, 96, -1.600, 0.800, -45.500, 2, 100, 99, 20, 23439, -18716, 5344, 5567, 7, 14, 1523476606.265, 68, 0, 1024, 1024, 1024, 1024, 0, 6, 3899, 3916, 3890, 3924, 3922, 3899, 0, 1, 10301, -89.900, 0.000, -44.400, 0.000, 0.000, -2.900, 0.0, , , , , , 99, , , 0, 0, 0
37.2866004, -119.5625712, 15.100, 12:56:46.364, 16, 0.00, 0.31, 96, -1.800, 1.000, -45.500, 2, 100, 99, 20, 23428, -19081, 5344, 5567, 7, 14, 1523476606.365, 45, 0, 1024, 1024, 1025, 1024, 0, 6, 3893, 3906, 3866, 3894, 3910, 3885, 0, 1, 10401, -89.900, 0.000, -44.400, 0.000, 0.000, -2.900, 0.0, , , , , , 99, , , 0, 0, 0
37.2866005, -119.5625712, 15.400, 12:56:46.464, 16, 0.00, 0.32, 96, -1.800, 1.000, -45.300, 2, 100, 99, 20, 23428, -19081, 5344, 5567, 7, 14, 1523476606.465, 46, 0, 1024, 1024, 1024, 1024, 0, 6, 3893, 3906, 3866, 3894, 3910, 3885, 0, 1, 10501, -89.900, 0.000, -44.400, 0.000, 0.000, -2.900, 0.0, , , , , , 99, , , 0, 0, 0
37.2866005, -119.5625712, 15.700, 12:56:46.564, 16, 0.00, 0.32, 96, -2.000, 1.000, -44.900, 2, 100, 99, 20, 23428, -19081, 5344, 5567, 7, 14, 1523476606.565, 52, 0, 1024, 1024, 1025, 1024, 0, 6, 3893, 3906, 3866, 3894, 3910, 3885, 0, 1, 10601, -89.900, 0.000, -44.400, 0.000, 0.000, -2.900, 0.0, , , , , , 99, , , 0, 0, 0
37.2866006, -119.5625712, 16.000, 12:56:46.664, 16, 0.00, 0.33, 96, -2.100, 0.600, -44.600, 2, 100, 99, 20, 23428, -19081, 5344, 5567, 7, 14, 1523476606.665, 53, 0, 1024, 1024, 1025, 1024, 0, 6, 3893, 3906, 3866, 3894, 3910, 3885, 0, 1, 10701, -90.000, 0.000, -44.400, 0.000, 0.000, -2.900, 0.0, , , , , , 99, , , 0, 0, 0
37.2866006, -119.5625712, 16.300, 12:56:46.764, 16, 0.00, 0.33, 96, -2.500, 0.400, -44.200, 2, 100, 99, 20, 23428, -19081, 5344, 5567, 7, 14, 1523476606.765, 47, 0, 1024, 1024, 1025, 1024, 0, 6, 3893, 3906, 3866, 3894, 3910, 3885, 0, 1, 10801, -90.000, 0.000, -44.400, 0.000, 0.000, -2.900, 0.0, , , , , , 99, , , 0, 0, 0
37.2866007, -119.5625711, 16.600, 12:56:46.864, 16, 0.00, 0.35, 96, -2.900, 0.500, -44.000, 2, 100, 99, 20, 23428, -19081, 5344, 5567, 7, 14, 1523476606.865, 22, 0, 1024, 1024, 1024, 1024, 0, 6, 3893, 3906, 3866, 3894, 3910, 3885, 0, 1, 10901, -89.900, 0.000, -44.400, 0.000, 0.000, -2.900, 0.0, , , , , , 99, , , 0, 0, 0
37.2866009, -119.5625710, 16.900, 12:56:46.964, 16, 0.10, 0.36, 96, -3.300, 0.700, -44.100, 2, 100, 99, 20, 23428, -19081, 5344, 5567, 7, 14, 1523476606.965, 29, 0, 1024, 1024, 1024, 1024, 0, 6, 3893, 3906, 3866, 3894, 3910, 3885, 0, 1, 11001, -89.900, 0.000, -44.400, 0.100, 0.000, -2.900, 0.0, , , , , , 99, , , 0, 0, 0
37.2866010, -119.5625710, 17.200, 12:56:47.064, 16, 0.10, 0.38, 96, -3.500, 1.000, -44.200, 2, 100, 99, 20, 23428, -19081, 5344, 5567, 7, 14, 1523476607.065, 29, 0, 1024, 1024, 1024, 1024, 0, 6, 3893, 3906, 3866, 3894, 3910, 3885, 0, 1, 11101, -89.900, 0.000, -44.400, 0.100, 0.000, -2.700, 0.0, , , , , , 99, , , 0, 0, 0
37.2866011, -119.5625711, 17.500, 12:56:47.164, 16, 0.00, 0.38, 96, -3.300, 1.300, -44.400, 2, 100, 99, 20, 23428, -19081, 5344, 5567, 7, 14, 1523476607.165, 5, 0, 1024, 1024, 1024, 1024, 0, 6, 3893, 3906, 3866, 3894, 3910, 3885, 0, 1, 11201, -89.900, 0.000, -44.400, 0.000, 0.000, -2.800, 0.0, , , , , , 99, , , 0, 0, 0
37.2866012, -119.5625711, 17.800, 12:56:47.264, 16, 0.00, 0.39, 96, -3.000, 1.700, -44.500, 2, 100, 99, 20, 23428, -19081, 5344, 5567, 7, 14, 1523476607.264, 23, 0, 1024, 1024, 1025, 1024, 0, 6, 3893, 3906, 3866, 3894, 3910, 3885, 0, 1, 11300, -89.900, 0.000, -44.400, 0.000, 0.000, -2.800, 0.0, , , , , , 99, , , 0, 0, 0
37.2866013, -119.5625710, 18.100, 12:56:47.368, 16, 0.00, 0.41, 96, -2.700, 1.800, -44.500, 2, 100, 99, 20, 23428, -19081, 5344, 5567, 7, 14, 1523476607.369, 7, 0, 1024, 1024, 1025, 1024, 0, 6, 3893, 3906, 3866, 3894, 3910, 3885, 0, 1, 11405, -89.900, 0.000, -44.400, 0.000, 0.000, -2.800, 0.0, , , , , , 99, , , 0, 0, 0
37.2866014, -119.5625710, 18.300, 12:56:47.468, 16, 0.00, 0.42, 96, -2.700, 1.800, -44.500, 2, 100, 100, 20, 23405, -18840, 5344, 5567, 7, 14, 1523476607.468, 17, 0, 1024, 1024, 1024, 1024, 0, 6, 3893, 3906, 3866, 3894, 3910, 3885, 0, 1, 11504, -89.900, 0.000, -44.400, 0.000, 0.000, -2.800, 0.0, , , , , , 99, , , 0, 0, 0
37.2866014, -119.5625710, 18.300, 12:56:47.564, 16, 0.00, 0.42, 96, -2.700, 1.800, -44.500, 2, 100, 100, 20, 23405, -18840, 5344, 5567, 7, 14, 1523476607.565, 114, 0, 1024, 1024, 1024, 1024, 0, 6, 3894, 3905, 3876, 3913, 3915, 3886, 0, 1, 11601, -89.900, 0.000, -44.400, 0.000, 0.000, -2.800, 0.0, , , , , , 99, , , 0, 0, 0
37.2866015, -119.5625710, 18.600, 12:56:47.664, 16, 0.00, 0.43, 96, -2.900, 1.600, -44.400, 2, 100, 100, 20, 23405, -18840, 5344, 5567, 7, 14, 1523476607.665, 97, 0, 1024, 1024, 1024, 1024, 0, 6, 3894, 3905, 3876, 3913, 3915, 3886, 0, 1, 11701, -89.900, 0.000, -44.400, 0.000, 0.000, -2.800, 0.0, , , , , , 99, , , 0, 0, 0
37.2866016, -119.5625710, 18.900, 12:56:47.764, 16, 0.00, 0.44, 96, -3.000, 1.300, -44.500, 2, 100, 100, 20, 23405, -18840, 5344, 5567, 7, 14, 1523476607.765, 97, 0, 1024, 1024, 1024, 1024, 0, 6, 3894, 3905, 3876, 3913, 3915, 3886, 0, 1, 11801, -89.900, 0.000, -44.400, 0.000, 0.000, -2.800, 0.0, , , , , , 99, , , 0, 0, 0
37.2866017, -119.5625710, 19.200, 12:56:47.864, 16, 0.00, 0.45, 96, -3.200, 1.300, -44.500, 2, 100, 100, 20, 23405, -18840, 5344, 5567, 7, 14, 1523476607.865, 66, 0, 1024, 1024, 1024, 1024, 0, 6, 3894, 3905, 3876, 3913, 3915, 3886, 0, 1, 11901, -89.900, 0.000, -44.400, 0.000, 0.000, -2.800, 0.0, , , , , , 99, , , 0, 0, 0
37.2866018, -119.5625709, 19.800, 12:56:47.964, 16, 0.00, 0.47, 96, -3.300, 1.300, -44.700, 2, 100, 100, 20, 23405, -18840, 5344, 5567, 7, 14, 1523476607.965, 51, 0, 1024, 1024, 1024, 1024, 0, 6, 3894, 3905, 3876, 3913, 3915, 3886, 0, 1, 12001, -89.900, 0.000, -44.400, 0.000, 0.000, -2.800, 0.0, , , , , , 99, , , 0, 0, 0
37.2866019, -119.5625708, 20.000, 12:56:48.064, 16, 0.00, 0.48, 96, -3.300, 1.200, -44.800, 2, 100, 100, 20, 23405, -18840, 5344, 5567, 7, 14, 1523476608.065, 75, 0, 1024, 1024, 1025, 1024, 0, 6, 3894, 3905, 3876, 3913, 3915, 3886, 0, 1, 12101, -89.900, 0.000, -44.400, 0.000, 0.000, -2.800, 0.0, , , , , , 99, , , 0, 0, 0
37.2866020, -119.5625708, 20.300, 12:56:48.164, 16, 0.00, 0.49, 96, -3.500, 1.200, -44.800, 2, 100, 100, 20, 23405, -18840, 5344, 5567, 7, 14, 1523476608.165, 63, 0, 1024, 1024, 1024, 1024, 0, 6, 3894, 3905, 3876, 3913, 3915, 3886, 0, 1, 12201, -89.900, 0.000, -44.400, 0.000, 0.000, -2.800, 0.0, , , , , , 99, , , 0, 0, 0
37.2866020, -119.5625708, 20.300, 12:56:48.264, 16, 0.00, 0.49, 96, -3.500, 1.200, -44.800, 2, 100, 100, 20, 23405, -18840, 5344, 5567, 7, 14, 1523476608.265, 163, 0, 1024, 1024, 1024, 1024, 0, 6, 3894, 3905, 3876, 3913, 3915, 3886, 0, 1, 12301, -89.900, 0.000, -44.400, 0.000, 0.000, -2.800, 0.0, , , , , , 99, , , 0, 0, 0
37.2866022, -119.5625706, 20.900, 12:56:48.364, 16, 0.00, 0.51, 96, -3.400, 1.000, -44.700, 2, 100, 100, 20, 23405, -18840, 5344, 5567, 7, 14, 1523476608.365, 51, 0, 1024, 1024, 1025, 1024, 0, 6, 3894, 3905, 3876, 3913, 3915, 3886, 0, 1, 12401, -89.900, 0.000, -44.400, 0.000, 0.000, -2.800, 0.0, , , , , , 99, , , 0, 0, 0
37.2866022, -119.5625706, 21.200, 12:56:48.464, 17, 0.00, 0.51, 96, -3.400, 1.100, -44.700, 2, 100, 100, 20, 23402, -18358, 5344, 5567, 7, 14, 1523476608.465, 62, 0, 1024, 1024, 1024, 1024, 0, 6, 3875, 3885, 3881, 3888, 3902, 3887, 0, 1, 12501, -89.900, 0.000, -44.400, 0.000, 0.000, -2.900, 0.0, , , , , , 99, , , 0, 0, 0
37.2866022, -119.5625706, 21.500, 12:56:48.564, 17, 0.00, 0.52, 96, -3.300, 1.200, -44.700, 2, 100, 100, 20, 23402, -18358, 5344, 5567, 7, 14, 1523476608.565, 37, 0, 1024, 1024, 1025, 1024, 0, 6, 3875, 3885, 3881, 3888, 3902, 3887, 0, 1, 12601, -89.900, 0.000, -44.400, 0.000, 0.000, -2.900, 0.0, , , , , , 99, , , 0, 0, 0
37.2866022, -119.5625706, 21.500, 12:56:48.664, 17, 0.00, 0.52, 96, -3.300, 1.200, -44.700, 2, 100, 100, 20, 23402, -18358, 5344, 5567, 7, 14, 1523476608.665, 137, 0, 1024, 1024, 1024, 1024, 0, 6, 3875, 3885, 3881, 3888, 3902, 3887, 0, 1, 12701, -89.900, 0.000, -44.400, 0.000, 0.000, -2.900, 0.0, , , , , , 99, , , 0, 0, 0
37.2866023, -119.5625706, 22.100, 12:56:48.764, 17, 0.00, 0.52, 96, -3.000, 1.100, -44.700, 2, 100, 100, 20, 23402, -18358, 5344, 5567, 7, 14, 1523476608.765, 14, 0, 1024, 1024, 1025, 1024, 0, 6, 3875, 3885, 3881, 3888, 3902, 3887, 0, 1, 12801, -89.900, 0.000, -44.400, 0.000, 0.000, -2.900, 0.0, , , , , , 99, , , 0, 0, 0
37.2866023, -119.5625706, 22.400, 12:56:48.864, 17, 0.00, 0.52, 96, -3.000, 1.000, -44.700, 2, 100, 100, 20, 23402, -18358, 5344, 5567, 7, 14, 1523476608.865, 31, 0, 1024, 1024, 1024, 1024, 0, 6, 3875, 3885, 3881, 3888, 3902, 3887, 0, 1, 12901, -89.900, 0.000, -44.400, 0.000, 0.000, -3.000, 0.0, , , , , , 99, , , 0, 0, 0
37.2866023, -119.5625705, 22.700, 12:56:48.964, 17, 0.00, 0.53, 96, -3.000, 1.100, -44.600, 2, 100, 100, 20, 23402, -18358, 5344, 5567, 7, 14, 1523476608.965, 50, 0, 1024, 1024, 1025, 1024, 0, 6, 3875, 3885, 3881, 3888, 3902, 3887, 0, 1, 13001, -89.900, 0.000, -44.400, 0.000, 0.000, -2.900, 0.0, , , , , , 99, , , 0, 0, 0
37.2866023, -119.5625705, 23.000, 12:56:49.064, 17, 0.00, 0.53, 96, -3.200, 1.100, -44.600, 2, 100, 100, 20, 23402, -18358, 5344, 5567, 7, 14, 1523476609.064, 38, 0, 1024, 1024, 1025, 1024, 0, 6, 3875, 3885, 3881, 3888, 3902, 3887, 0, 1, 13100, -89.900, 0.000, -44.400, 0.000, 0.000, -3.000, 0.0, , , , , , 99, , , 0, 0, 0
37.2866023, -119.5625705, 23.300, 12:56:49.164, 17, 0.00, 0.53, 96, -3.200, 1.100, -44.600, 2, 100, 100, 20, 23402, -18358, 5344, 5567, 7, 14, 1523476609.164, 9, 0, 1024, 1024, 1025, 1024, 0, 6, 3875, 3885, 3881, 3888, 3902, 3887, 0, 1, 13200, -89.900, 0.000, -44.400, 0.000, 0.000, -3.000, 0.0, , , , , , 99, , , 0, 0, 0
37.2866023, -119.5625705, 23.600, 12:56:49.264, 17, 0.00, 0.53, 96, -3.200, 1.100, -44.600, 2, 100, 100, 20, 23402, -18358, 5344, 5567, 7, 14, 1523476609.265, 15, 0, 1024, 1024, 1024, 1024, 0, 6, 3875, 3885, 3881, 3888, 3902, 3887, 0, 1, 13301, -90.000, 0.000, -44.400, 0.000, 0.000, -2.900, 0.0, , , , , , 99, , , 0, 0, 0
37.2866023, -119.5625705, 23.800, 12:56:49.364, 17, 0.00, 0.53, 96, -3.100, 0.900, -44.700, 2, 100, 100, 20, 23228, -19874, 5344, 5567, 7, 14, 1523476609.365, 21, 0, 1024, 1024, 1025, 1024, 0, 6, 3863, 3870, 3849, 3878, 3884, 3861, 0, 1, 13401, -90.000, 0.000, -44.400, 0.000, 0.000, -2.900, 0.0, , , , , , 99, , , 0, 0, 0
37.2866022, -119.5625705, 24.100, 12:56:49.474, 17, 0.00, 0.52, 96, -3.000, 0.700, -44.700, 2, 100, 98, 20, 23228, -19874, 5344, 5567, 7, 14, 1523476609.474, 14, 0, 1024, 1024, 1025, 1024, 0, 6, 3863, 3870, 3849, 3878, 3884, 3861, 0, 1, 13511, -90.000, 0.000, -44.400, 0.000, 0.000, -3.000, 0.0, , , , , , 99, , , 0, 0, 0
37.2866022, -119.5625704, 24.400, 12:56:49.564, 17, 0.00, 0.52, 96, -2.900, 0.600, -44.800, 2, 100, 98, 20, 23228, -19874, 5344, 5567, 7, 14, 1523476609.564, 6, 0, 1024, 1024, 1024, 1024, 0, 6, 3863, 3870, 3849, 3878, 3884, 3861, 0, 1, 13600, -90.000, 0.000, -44.400, 0.000, 0.000, -3.000, 0.0, , , , , , 99, , , 0, 0, 0
37.2866022, -119.5625704, 24.800, 12:56:49.671, 17, 0.00, 0.51, 96, -2.800, 0.500, -44.800, 2, 100, 98, 20, 23228, -19874, 5344, 5567, 7, 14, 1523476609.672, 8, 0, 1024, 1024, 1025, 1024, 0, 6, 3863, 3870, 3849, 3878, 3884, 3861, 0, 1, 13708, -90.000, 0.000, -44.400, 0.000, 0.000, -3.000, 0.0, , , , , , 99, , , 0, 0, 0
37.2866021, -119.5625704, 25.100, 12:56:49.764, 17, 0.00, 0.51, 96, -2.800, 0.400, -44.800, 2, 100, 98, 20, 23228, -19874, 5344, 5567, 7, 14, 1523476609.765, 15, 0, 1024, 1024, 1024, 1024, 0, 6, 3863, 3870, 3849, 3878, 3884, 3861, 0, 1, 13801, -90.000, 0.000, -44.400, 0.000, 0.000, -3.000, 0.0, , , , , , 99, , , 0, 0, 0
37.2866021, -119.5625704, 25.100, 12:56:49.864, 17, 0.00, 0.51, 96, -2.800, 0.400, -44.800, 2, 100, 98, 20, 23228, -19874, 5344, 5567, 7, 14, 1523476609.865, 115, 0, 1024, 1024, 1024, 1024, 0, 6, 3863, 3870, 3849, 3878, 3884, 3861, 0, 1, 13901, -90.000, 0.000, -44.400, 0.000, 0.000, -3.000, 0.0, , , , , , 99, , , 0, 0, 0
37.2866021, -119.5625704, 25.100, 12:56:49.964, 17, 0.00, 0.51, 96, -2.800, 0.400, -44.800, 2, 100, 98, 20, 23228, -19874, 5344, 5567, 7, 14, 1523476609.965, 215, 0, 1024, 1024, 1024, 1024, 0, 6, 3863, 3870, 3849, 3878, 3884, 3861, 0, 1, 14001, -90.000, 0.000, -44.400, 0.000, 0.000, -3.000, 0.0, , , , , , 99, , , 0, 0, 0
37.2866020, -119.5625703, 25.700, 12:56:50.064, 17, 0.00, 0.50, 96, -3.000, 0.400, -44.700, 2, 100, 97, 20, 23228, -19874, 5344, 5567, 7, 14, 1523476610.065, 55, 0, 1024, 1024, 1025, 1024, 0, 6, 3863, 3870, 3849, 3878, 3884, 3861, 0, 1, 14101, -90.000, 0.000, -44.400, 0.000, 0.000, -3.000, 0.0, , , , , , 99, , , 0, 0, 0
37.2866020, -119.5625703, 26.000, 12:56:50.164, 17, 0.00, 0.50, 96, -2.900, 0.300, -44.600, 2, 100, 97, 20, 23228, -19874, 5344, 5567, 7, 14, 1523476610.165, 76, 0, 1024, 1024, 1024, 1024, 0, 6, 3863, 3870, 3849, 3878, 3884, 3861, 0, 1, 14201, -90.000, 0.000, -44.400, 0.000, 0.000, -3.000, 0.0, , , , , , 99, , , 0, 0, 0
37.2866019, -119.5625702, 26.600, 12:56:50.264, 17, 0.00, 0.49, 96, -2.800, 0.200, -44.400, 2, 100, 97, 20, 23228, -19874, 5344, 5567, 7, 14, 1523476610.265, 57, 0, 1024, 1024, 1024, 1024, 0, 6, 3863, 3870, 3849, 3878, 3884, 3861, 0, 1, 14301, -90.000, 0.000, -44.400, 0.000, 0.000, -3.000, 0.0, , , , , , 99, , , 0, 0, 0
37.2866018, -119.5625702, 26.900, 12:56:50.364, 17, 0.00, 0.49, 96, -2.800, 0.000, -44.300, 2, 100, 97, 20, 23228, -19874, 5344, 5567, 7, 14, 1523476610.365, 45, 0, 1024, 1024, 1025, 1024, 0, 6, 3863, 3870, 3849, 3878, 3884, 3861, 0, 1, 14401, -90.000, 0.000, -44.400, 0.000, 0.000, -3.000, 0.0, , , , , , 99, , , 0, 0, 0
37.2866018, -119.5625702, 27.200, 12:56:50.464, 17, 0.00, 0.48, 96, -2.700, 0.000, -44.200, 2, 100, 95, 20, 23209, -19891, 5344, 5567, 7, 14, 1523476610.465, 45, 0, 1024, 1024, 1024, 1024, 0, 6, 3863, 3870, 3849, 3878, 3884, 3861, 0, 1, 14501, -89.900, 0.000, -44.400, 0.000, 0.000, -3.000, 0.0, , , , , , 99, , , 0, 0, 0
37.2866018, -119.5625702, 27.500, 12:56:50.564, 17, 0.00, 0.48, 96, -2.800, 0.000, -44.200, 2, 100, 95, 20, 23209, -19891, 5344, 5567, 7, 14, 1523476610.565, 61, 0, 1024, 1024, 1025, 1024, 0, 6, 3863, 3870, 3849, 3878, 3884, 3861, 0, 1, 14601, -90.000, 0.000, -44.400, 0.000, 0.000, -3.000, 0.0, , , , , , 99, , , 0, 0, 0
37.2866018, -119.5625702, 27.500, 12:56:50.664, 17, 0.00, 0.48, 96, -2.800, 0.000, -44.200, 2, 100, 95, 20, 23209, -19891, 5344, 5567, 7, 14, 1523476610.665, 161, 0, 1024, 1024, 1025, 1024, 0, 6, 3863, 3870, 3849, 3878, 3884, 3861, 0, 1, 14701, -89.900, 0.000, -44.400, 0.000, 0.000, -3.000, 0.0, , , , , , 99, , , 0, 0, 0
37.2866017, -119.5625702, 28.100, 12:56:50.764, 17, 0.00, 0.47, 96, -2.900, 0.300, -44.200, 2, 100, 95, 20, 23209, -19891, 5344, 5567, 7, 14, 1523476610.765, 48, 0, 1024, 1024, 1025, 1024, 0, 6, 3863, 3870, 3849, 3878, 3884, 3861, 0, 1, 14801, -90.000, 0.000, -44.400, 0.000, 0.000, -3.000, 0.0, , , , , , 99, , , 0, 0, 0
37.2866017, -119.5625702, 28.400, 12:56:50.864, 17, 0.00, 0.47, 96, -3.000, 0.300, -44.400, 2, 100, 95, 20, 23209, -19891, 5344, 5567, 7, 14, 1523476610.865, 47, 0, 1024, 1024, 1024, 1024, 0, 6, 3863, 3870, 3849, 3878, 3884, 3861, 0, 1, 14901, -89.900, 0.000, -44.400, 0.000, 0.000, -3.000, 0.0, , , , , , 99, , , 0, 0, 0
37.2866017, -119.5625701, 28.700, 12:56:50.964, 17, 0.00, 0.47, 96, -3.000, 0.100, -44.600, 2, 100, 94, 20, 23209, -19891, 5344, 5567, 7, 14, 1523476610.965, 55, 0, 1024, 1024, 1025, 1024, 0, 6, 3863, 3870, 3849, 3878, 3884, 3861, 0, 1, 15001, -90.000, 0.000, -44.400, 0.000, 0.000, -3.000, 0.0, , , , , , 99, , , 0, 0, 0
37.2866016, -119.5625701, 29.000, 12:56:51.064, 17, 0.00, 0.47, 96, -3.100, 0.000, -44.800, 2, 100, 94, 20, 23209, -19891, 5344, 5567, 7, 14, 1523476611.065, 36, 0, 1024, 1024, 1025, 1024, 0, 6, 3863, 3870, 3849, 3878, 3884, 3861, 0, 1, 15101, -90.000, 0.000, -44.400, 0.000, 0.000, -3.000, 0.0, , , , , , 99, , , 0, 0, 0
37.2866016, -119.5625701, 29.000, 12:56:51.164, 17, 0.00, 0.47, 96, -3.100, 0.000, -44.800, 2, 100, 94, 20, 23209, -19891, 5344, 5567, 7, 14, 1523476611.165, 136, 0, 1024, 1024, 1025, 1024, 0, 6, 3863, 3870, 3849, 3878, 3884, 3861, 0, 1, 15201, -90.000, 0.000, -44.400, 0.000, 0.000, -3.000, 0.0, , , , , , 99, , , 0, 0, 0
37.2866015, -119.5625701, 29.600, 12:56:51.264, 17, 0.00, 0.46, 96, -2.900, 0.100, -44.900, 2, 100, 94, 20, 23209, -19891, 5344, 5567, 7, 14, 1523476611.265, 34, 0, 1024, 1024, 1025, 1024, 0, 6, 3863, 3870, 3849, 3878, 3884, 3861, 0, 1, 15301, -89.900, 0.000, -44.400, 0.000, 0.000, -3.000, 0.0, , , , , , 99, , , 0, 0, 0
37.2866015, -119.5625701, 29.600, 12:56:51.364, 17, 0.00, 0.46, 96, -2.900, 0.100, -44.900, 2, 100, 94, 20, 23209, -19891, 5344, 5567, 7, 14, 1523476611.364, 133, 0, 1024, 1024, 1025, 1024, 0, 6, 3863, 3870, 3849, 3878, 3884, 3861, 0, 1, 15400, -89.900, 0.000, -44.400, 0.000, 0.000, -3.000, 0.0, , , , , , 99, , , 0, 0, 0
37.2866015, -119.5625702, 30.300, 12:56:51.464, 17, 0.00, 0.45, 96, -2.900, 0.200, -45.000, 2, 100, 94, 20, 23209, -19891, 5344, 5567, 7, 14, 1523476611.464, 15, 0, 1024, 1024, 1025, 1024, 0, 6, 3863, 3870, 3849, 3878, 3884, 3861, 0, 1, 15500, -90.000, 0.000, -44.400, 0.000, 0.000, -2.900, 0.0, , , , , , 99, , , 0, 0, 0
37.2866015, -119.5625702, 30.600, 12:56:51.564, 17, 0.00, 0.45, 96, -2.700, 0.300, -45.000, 2, 100, 94, 20, 23209, -19891, 5344, 5567, 7, 14, 1523476611.565, 18, 0, 1024, 1024, 1024, 1024, 0, 6, 3863, 3870, 3849, 3878, 3884, 3861, 0, 1, 15601, -90.000, 0.000, -44.400, 0.000, 0.000, -2.900, 0.0, , , , , , 99, , , 0, 0, 0
37.2866015, -119.5625702, 30.900, 12:56:51.664, 17, 0.00, 0.45, 96, -2.900, 0.400, -44.900, 2, 100, 94, 20, 23209, -19891, 5344, 5567, 7, 14, 1523476611.665, 29, 0, 1024, 1024, 1025, 1024, 0, 6, 3863, 3870, 3849, 3878, 3884, 3861, 0, 1, 15701, -90.000, 0.000, -44.400, 0.000, 0.000, -2.800, 0.0, , , , , , 99, , , 0, 0, 0
37.2866015, -119.5625702, 31.100, 12:56:51.764, 17, 0.00, 0.45, 96, -3.000, 0.500, -44.900, 2, 100, 94, 20, 23209, -19891, 5344, 5567, 7, 14, 1523476611.764, 4, 0, 1024, 1024, 1025, 1024, 0, 6, 3863, 3870, 3849, 3878, 3884, 3861, 0, 1, 15800, -89.900, 0.000, -44.400, 0.000, 0.000, -2.900, 0.0, , , , , , 99, , , 0, 0, 0
37.2866015, -119.5625702, 31.400, 12:56:51.864, 17, 0.00, 0.45, 96, -3.100, 0.600, -44.800, 2, 100, 94, 20, 23209, -19891, 5344, 5567, 7, 14, 1523476611.865, 13, 0, 1024, 1024, 1024, 1024, 0, 6, 3863, 3870, 3849, 3878, 3884, 3861, 0, 1, 15901, -89.900, 0.000, -44.400, 0.000, 0.000, -2.900, 0.0, , , , , , 99, , , 0, 0, 0
37.2866015, -119.5625702, 31.700, 12:56:51.964, 17, 0.00, 0.45, 96, -3.200, 0.700, -44.800, 2, 100, 95, 20, 23209, -19891, 5344, 5567, 7, 14, 1523476611.965, 16, 0, 1024, 1024, 1025, 1024, 0, 6, 3863, 3870, 3849, 3878, 3884, 3861, 0, 1, 16001, -89.900, 0.000, -44.400, 0.000, 0.000, -2.800, 0.0, , , , , , 99, , , 0, 0, 0
37.2866016, -119.5625702, 32.000, 12:56:52.064, 17, 0.00, 0.46, 96, -3.500, 0.600, -44.700, 2, 100, 95, 20, 23209, -19891, 5344, 5567, 7, 14, 1523476612.064, 6, 0, 1024, 1024, 1025, 1024, 0, 6, 3863, 3870, 3849, 3878, 3884, 3861, 0, 1, 16101, -89.900, 0.000, -44.400, 0.000, 0.000, -2.900, 0.0, , , , , , 99, , , 0, 0, 0
37.2866016, -119.5625702, 32.000, 12:56:52.164, 17, 0.00, 0.46, 96, -3.500, 0.600, -44.700, 2, 100, 95, 20, 23209, -19891, 5344, 5567, 7, 14, 1523476612.165, 106, 0, 1024, 1024, 1025, 1024, 0, 6, 3863, 3870, 3849, 3878, 3884, 3861, 0, 1, 16201, -89.900, 0.000, -44.400, 0.000, 0.000, -2.900, 0.0, , , , , , 99, , , 0, 0, 0
37.2866017, -119.5625701, 32.600, 12:56:52.264, 17, 0.00, 0.47, 96, -3.800, 0.600, -44.600, 2, 100, 95, 20, 23209, -19891, 5344, 5567, 7, 14, 1523476612.264, 5, 0, 1024, 1024, 1025, 1024, 0, 6, 3863, 3870, 3849, 3878, 3884, 3861, 0, 1, 16301, -90.000, 0.000, -44.400, 0.000, 0.000, -3.000, 0.0, , , , , , 99, , , 0, 0, 0
37.2866017, -119.5625701, 32.600, 12:56:52.364, 17, 0.00, 0.47, 96, -3.800, 0.600, -44.600, 2, 100, 95, 20, 23209, -19891, 5344, 5567, 7, 14, 1523476612.365, 105, 0, 1024, 1024, 1025, 1024, 0, 6, 3863, 3870, 3849, 3878, 3884, 3861, 0, 1, 16401, -90.000, 0.000, -44.400, 0.000, 0.000, -3.000, 0.0, , , , , , 99, , , 0, 0, 0
37.2866017, -119.5625701, 32.900, 12:56:52.464, 17, 0.00, 0.47, 96, -4.000, 0.500, -44.600, 2, 100, 96, 20, 23201, -18535, 5288, 5567, 7, 14, 1523476612.465, 70, 0, 1024, 1024, 1024, 1024, 0, 6, 3869, 3884, 3853, 3880, 3887, 3861, 0, 1, 16501, -90.000, 0.000, -44.400, 0.000, 0.000, -2.900, 0.0, , , , , , 99, , , 0, 0, 0
37.2866017, -119.5625702, 33.500, 12:56:52.564, 17, 0.00, 0.48, 96, -4.000, 0.500, -44.600, 2, 100, 96, 20, 23201, -18535, 5288, 5567, 7, 14, 1523476612.565, 21, 0, 1024, 1024, 1024, 1024, 0, 6, 3869, 3884, 3853, 3880, 3887, 3861, 0, 1, 16601, -89.900, 0.000, -44.400, 0.000, 0.000, -2.900, 0.0, , , , , , 99, , , 0, 0, 0
37.2866018, -119.5625702, 33.800, 12:56:52.664, 17, 0.00, 0.48, 96, -3.700, 0.800, -44.500, 2, 100, 96, 20, 23201, -18535, 5288, 5567, 7, 14, 1523476612.665, 76, 0, 1024, 1024, 1025, 1024, 0, 6, 3869, 3884, 3853, 3880, 3887, 3861, 0, 1, 16701, -89.900, 0.000, -44.400, 0.000, 0.000, -2.800, 0.0, , , , , , 99, , , 0, 0, 0
37.2866018, -119.5625703, 34.100, 12:56:52.764, 17, 0.00, 0.48, 96, -3.200, 1.200, -44.500, 2, 100, 96, 20, 23201, -18535, 5288, 5567, 7, 14, 1523476612.765, 78, 0, 1024, 1024, 1025, 1024, 0, 6, 3869, 3884, 3853, 3880, 3887, 3861, 0, 1, 16801, -89.900, 0.000, -44.400, 0.000, 0.000, -2.900, 0.0, , , , , , 99, , , 0, 0, 0
37.2866018, -119.5625703, 34.100, 12:56:52.864, 17, 0.00, 0.48, 96, -3.200, 1.200, -44.500, 2, 100, 96, 20, 23201, -18535, 5288, 5567, 7, 14, 1523476612.865, 177, 0, 1024, 1024, 1025, 1024, 0, 6, 3869, 3884, 3853, 3880, 3887, 3861, 0, 1, 16901, -89.900, 0.000, -44.400, 0.000, 0.000, -2.900, 0.0, , , , , , 99, , , 0, 0, 0
37.2866019, -119.5625705, 34.700, 12:56:52.964, 17, 0.00, 0.48, 96, -3.000, 1.500, -44.500, 2, 100, 93, 20, 23201, -18535, 5288, 5567, 7, 14, 1523476612.965, 53, 0, 1024, 1024, 1024, 1024, 0, 6, 3869, 3884, 3853, 3880, 3887, 3861, 0, 1, 17001, -89.900, 0.000, -44.400, 0.000, 0.000, -2.900, 0.0, , , , , , 99, , , 0, 0, 0
37.2866019, -119.5625705, 35.000, 12:56:53.065, 17, 0.00, 0.48, 96, -3.100, 1.400, -44.600, 2, 100, 93, 20, 23201, -18535, 5288, 5567, 7, 14, 1523476613.066, 5, 0, 1024, 1024, 1024, 1024, 0, 6, 3869, 3884, 3853, 3880, 3887, 3861, 0, 1, 17102, -89.900, 0.000, -44.400, 0.000, 0.000, -2.800, 0.0, , , , , , 99, , , 0, 0, 0
37.2866019, -119.5625706, 35.300, 12:56:53.164, 17, 0.00, 0.48, 96, -3.100, 1.100, -44.600, 2, 100, 93, 20, 23201, -18535, 5288, 5567, 7, 14, 1523476613.165, 42, 0, 1024, 1024, 1024, 1024, 0, 6, 3869, 3884, 3853, 3880, 3887, 3861, 0, 1, 17201, -90.000, 0.000, -44.400, 0.000, 0.000, -2.900, 0.0, , , , , , 99, , , 0, 0, 0
37.2866019, -119.5625706, 35.600, 12:56:53.264, 17, 0.00, 0.48, 96, -3.000, 1.000, -44.700, 2, 100, 93, 20, 23201, -18535, 5288, 5567, 7, 14, 1523476613.264, 19, 0, 1024, 1024, 1024, 1024, 0, 6, 3869, 3884, 3853, 3880, 3887, 3861, 0, 1, 17301, -90.000, 0.000, -44.400, 0.000, 0.000, -2.800, 0.0, , , , , , 99, , , 0, 0, 0
37.2866019, -119.5625707, 35.800, 12:56:53.364, 17, 0.00, 0.48, 95, -2.800, 0.800, -44.700, 2, 100, 93, 20, 23176, -19145, 5288, 5567, 7, 14, 1523476613.365, 27, 0, 1024, 1024, 1024, 1024, 0, 6, 3842, 3865, 3833, 3869, 3870, 3862, 0, 1, 17401, -90.000, 0.000, -44.400, 0.000, 0.000, -2.900, 0.0, , , , , , 99, , , 0, 0, 0
37.2866018, -119.5625708, 36.100, 12:56:53.467, 17, 0.00, 0.47, 95, -2.700, 0.800, -44.800, 2, 100, 96, 20, 23176, -19145, 5288, 5567, 7, 14, 1523476613.467, 11, 0, 1024, 1024, 1025, 1024, 0, 6, 3842, 3865, 3833, 3869, 3870, 3862, 0, 1, 17504, -89.900, 0.000, -44.400, 0.000, 0.000, -2.900, 0.0, , , , , , 99, , , 0, 0, 0
37.2866018, -119.5625708, 36.400, 12:56:53.564, 17, 0.00, 0.47, 95, -2.600, 0.900, -44.700, 2, 100, 96, 20, 23176, -19145, 5288, 5567, 7, 14, 1523476613.565, 27, 0, 1024, 1024, 1024, 1024, 0, 6, 3842, 3865, 3833, 3869, 3870, 3862, 0, 1, 17601, -89.900, 0.000, -44.400, 0.000, 0.000, -2.900, 0.0, , , , , , 99, , , 0, 0, 0
37.2866018, -119.5625709, 36.700, 12:56:53.664, 17, 0.00, 0.47, 95, -2.600, 0.900, -44.600, 2, 100, 96, 20, 23176, -19145, 5288, 5567, 7, 14, 1523476613.665, 28, 0, 1024, 1024, 1025, 1024, 0, 6, 3842, 3865, 3833, 3869, 3870, 3862, 0, 1, 17701, -89.900, 0.000, -44.400, 0.000, 0.000, -2.900, 0.0, , , , , , 99, , , 0, 0, 0
37.2866018, -119.5625709, 36.700, 12:56:53.764, 17, 0.00, 0.47, 95, -2.600, 0.900, -44.600, 2, 100, 96, 20, 23176, -19145, 5288, 5567, 7, 14, 1523476613.765, 128, 0, 1024, 1024, 1025, 1024, 0, 6, 3842, 3865, 3833, 3869, 3870, 3862, 0, 1, 17801, -89.900, 0.000, -44.400, 0.000, 0.000, -2.900, 0.0, , , , , , 99, , , 0, 0, 0
37.2866018, -119.5625711, 37.300, 12:56:53.869, 17, 0.00, 0.46, 95, -2.300, 0.900, -44.500, 2, 100, 96, 20, 23176, -19145, 5288, 5567, 7, 14, 1523476613.870, 6, 0, 1024, 1024, 1025, 1024, 0, 6, 3842, 3865, 3833, 3869, 3870, 3862, 0, 1, 17906, -89.900, 0.000, -44.400, 0.000, 0.000, -3.000, 0.0, , , , , , 99, , , 0, 0, 0
37.2866018, -119.5625711, 37.300, 12:56:53.964, 17, 0.00, 0.46, 95, -2.300, 0.900, -44.500, 2, 100, 97, 20, 23010, -20166, 5288, 5567, 7, 14, 1523476613.965, 100, 0, 1024, 1024, 1025, 1024, 0, 6, 3842, 3865, 3833, 3869, 3870, 3862, 0, 1, 18001, -89.900, 0.000, -44.400, 0.000, 0.000, -3.000, 0.0, , , , , , 99, , , 0, 0, 0
37.2866018, -119.5625711, 37.600, 12:56:54.064, 17, 0.00, 0.46, 95, -2.400, 1.000, -44.500, 2, 100, 97, 20, 23010, -20166, 5288, 5567, 7, 14, 1523476614.065, 52, 0, 1024, 1024, 1025, 1024, 0, 6, 3821, 3838, 3813, 3856, 3854, 3826, 0, 1, 18101, -89.900, 0.000, -44.400, 0.000, 0.000, -3.000, 0.0, , , , , , 99, , , 0, 0, 0
37.2866018, -119.5625712, 37.900, 12:56:54.164, 17, 0.00, 0.46, 95, -2.300, 1.100, -44.500, 2, 100, 97, 20, 23010, -20166, 5288, 5567, 7, 14, 1523476614.165, 90, 0, 1024, 1024, 1024, 1024, 0, 6, 3821, 3838, 3813, 3856, 3854, 3826, 0, 1, 18201, -89.900, 0.000, -44.400, 0.000, 0.000, -3.000, 0.0, , , , , , 99, , , 0, 0, 0
37.2866018, -119.5625713, 38.200, 12:56:54.264, 17, 0.00, 0.47, 95, -2.200, 1.200, -44.600, 2, 100, 97, 20, 23010, -20166, 5288, 5567, 7, 14, 1523476614.265, 79, 0, 1024, 1024, 1025, 1024, 0, 6, 3821, 3838, 3813, 3856, 3854, 3826, 0, 1, 18301, -89.900, 0.000, -44.400, 0.000, 0.000, -3.000, 0.0, , , , , , 99, , , 0, 0, 0
37.2866019, -119.5625713, 38.500, 12:56:54.364, 17, 0.00, 0.47, 95, -2.300, 1.200, -44.600, 2, 100, 97, 20, 23010, -20166, 5288, 5567, 7, 14, 1523476614.365, 80, 0, 1024, 1024, 1025, 1024, 0, 6, 3821, 3838, 3813, 3856, 3854, 3826, 0, 1, 18401, -89.900, 0.000, -44.400, 0.000, 0.000, -3.000, 0.0, , , , , , 99, , , 0, 0, 0
37.2866018, -119.5625714, 38.800, 12:56:54.464, 17, 0.00, 0.46, 95, -2.500, 1.200, -44.700, 2, 100, 100, 20, 23010, -20166, 5288, 5567, 7, 14, 1523476614.465, 92, 0, 1024, 1024, 1024, 1024, 0, 6, 3821, 3838, 3813, 3856, 3854, 3826, 0, 1, 18501, -89.900, 0.000, -44.400, 0.000, 0.000, -3.000, 0.0, , , , , , 99, , , 0, 0, 0
37.2866018, -119.5625714, 38.800, 12:56:54.564, 17, 0.00, 0.46, 95, -2.500, 1.200, -44.700, 2, 100, 100, 20, 23010, -20166, 5288, 5567, 7, 14, 1523476614.564, 191, 0, 1024, 1024, 1024, 1024, 0, 6, 3821, 3838, 3813, 3856, 3854, 3826, 0, 1, 18600, -89.900, 0.000, -44.400, 0.000, 0.000, -3.000, 0.0, , , , , , 99, , , 0, 0, 0
37.2866019, -119.5625715, 39.800, 12:56:54.664, 17, 0.00, 0.47, 95, -2.700, 1.200, -44.800, 2, 100, 100, 20, 23010, -20166, 5288, 5567, 7, 14, 1523476614.665, 39, 0, 1024, 1024, 1025, 1024, 0, 6, 3821, 3838, 3813, 3856, 3854, 3826, 0, 1, 18701, -89.900, 0.000, -44.400, 0.000, 0.000, -3.000, 0.0, , , , , , 99, , , 0, 0, 0
37.2866019, -119.5625715, 40.100, 12:56:54.764, 17, 0.00, 0.47, 95, -2.800, 1.200, -44.800, 2, 100, 100, 20, 23010, -20166, 5288, 5567, 7, 14, 1523476614.765, 71, 0, 1024, 1024, 1024, 1024, 0, 6, 3821, 3838, 3813, 3856, 3854, 3826, 0, 1, 18801, -89.900, 0.000, -44.400, 0.000, 0.000, -3.000, 0.0, , , , , , 99, , , 0, 0, 0
37.2866019, -119.5625715, 40.400, 12:56:54.864, 17, 0.00, 0.47, 95, -2.800, 1.300, -44.800, 2, 100, 100, 20, 23010, -20166, 5288, 5567, 7, 14, 1523476614.865, 66, 0, 1024, 1024, 1024, 1024, 0, 6, 3821, 3838, 3813, 3856, 3854, 3826, 0, 1, 18901, -89.900, 0.000, -44.400, 0.000, 0.000, -3.000, 0.0, , , , , , 99, , , 0, 0, 0
37.2866019, -119.5625715, 40.400, 12:56:54.964, 17, 0.00, 0.47, 95, -2.800, 1.300, -44.800, 2, 100, 100, 21, 22989, -20859, 5288, 5567, 7, 14, 1523476614.965, 166, 0, 1024, 1024, 1025, 1024, 0, 6, 3821, 3838, 3813, 3856, 3854, 3826, 0, 1, 19001, -89.900, 0.000, -44.400, 0.000, 0.000, -3.000, 0.0, , , , , , 99, , , 0, 0, 0
37.2866020, -119.5625716, 41.000, 12:56:55.064, 17, 0.00, 0.48, 95, -3.000, 1.600, -44.700, 2, 100, 99, 21, 22989, -20859, 5288, 5567, 7, 14, 1523476615.065, 50, 0, 1024, 1024, 1025, 1024, 0, 6, 3821, 3838, 3813, 3856, 3854, 3826, 0, 1, 19101, -89.900, 0.000, -44.400, 0.000, 0.000, -2.900, 0.0, , , , , , 99, , , 0, 0, 0
37.2866020, -119.5625717, 41.300, 12:56:55.164, 17, 0.00, 0.48, 95, -3.100, 1.600, -44.700, 2, 100, 99, 21, 22989, -20859, 5288, 5567, 7, 14, 1523476615.165, 55, 0, 1024, 1024, 1025, 1024, 0, 6, 3821, 3831, 3810, 3847, 3854, 3827, 0, 1, 19201, -89.900, 0.000, -44.400, 0.000, 0.000, -2.900, 0.0, , , , , , 99, , , 0, 0, 0
37.2866020, -119.5625717, 41.600, 12:56:55.264, 17, 0.00, 0.48, 95, -3.000, 1.600, -44.700, 2, 100, 99, 21, 22989, -20859, 5288, 5567, 7, 14, 1523476615.265, 69, 0, 1024, 1024, 1024, 1024, 0, 6, 3821, 3831, 3810, 3847, 3854, 3827, 0, 1, 19301, -89.900, 0.000, -44.400, 0.000, 0.000, -3.000, 0.0, , , , , , 99, , , 0, 0, 0
37.2866020, -119.5625717, 41.900, 12:56:55.364, 17, 0.00, 0.48, 95, -3.000, 1.600, -44.700, 2, 100, 99, 21, 22989, -20859, 5288, 5567, 7, 14, 1523476615.365, 46, 0, 1024, 1024, 1025, 1024, 0, 6, 3821, 3831, 3810, 3847, 3854, 3827, 0, 1, 19401, -89.900, 0.000, -44.400, 0.000, 0.000, -2.900, 0.0, , , , , , 99, , , 0, 0, 0
37.2866020, -119.5625717, 42.200, 12:56:55.464, 17, 0.00, 0.48, 95, -3.100, 1.600, -44.700, 2, 100, 98, 21, 22989, -20859, 5288, 5567, 7, 14, 1523476615.465, 53, 0, 1024, 1024, 1025, 1024, 0, 6, 3821, 3831, 3810, 3847, 3854, 3827, 0, 1, 19501, -89.900, 0.000, -44.400, 0.000, 0.000, -2.900, 0.0, , , , , , 99, , , 0, 0, 0
37.2866020, -119.5625717, 42.200, 12:56:55.564, 17, 0.00, 0.48, 95, -3.100, 1.600, -44.700, 2, 100, 98, 21, 22989, -20859, 5288, 5567, 7, 14, 1523476615.565, 153, 0, 1024, 1024, 1024, 1024, 0, 6, 3821, 3831, 3810, 3847, 3854, 3827, 0, 1, 19601, -89.900, 0.000, -44.400, 0.000, 0.000, -2.900, 0.0, , , , , , 99, , , 0, 0, 0
37.2866020, -119.5625717, 42.800, 12:56:55.670, 17, 0.00, 0.48, 95, -3.000, 1.600, -44.600, 2, 100, 98, 21, 22989, -20859, 5288, 5567, 7, 14, 1523476615.670, 9, 0, 1024, 1024, 1024, 1024, 0, 6, 3821, 3831, 3810, 3847, 3854, 3827, 0, 1, 19706, -89.900, 0.000, -44.400, 0.000, 0.000, -2.900, 0.0, , , , , , 99, , , 0, 0, 0
37.2866020, -119.5625717, 42.800, 12:56:55.764, 17, 0.00, 0.48, 95, -3.000, 1.600, -44.600, 2, 100, 98, 21, 22989, -20859, 5288, 5567, 7, 14, 1523476615.765, 103, 0, 1024, 1024, 1024, 1024, 0, 6, 3821, 3831, 3810, 3847, 3854, 3827, 0, 1, 19801, -89.900, 0.000, -44.400, 0.000, 0.000, -2.900, 0.0, , , , , , 99, , , 0, 0, 0
37.2866019, -119.5625716, 43.400, 12:56:55.865, 17, 0.00, 0.47, 95, -3.000, 1.400, -44.500, 2, 100, 98, 21, 22989, -20859, 5288, 5567, 7, 14, 1523476615.865, 5, 0, 1024, 1024, 1024, 1024, 0, 6, 3821, 3831, 3810, 3847, 3854, 3827, 0, 1, 19901, -89.900, 0.000, -44.400, 0.000, 0.000, -2.900, 0.0, , , , , , 99, , , 0, 0, 0
37.2866019, -119.5625715, 43.700, 12:56:55.968, 17, 0.00, 0.47, 95, -3.000, 1.100, -44.500, 2, 100, 99, 21, 23022, -19701, 5288, 5567, 7, 14, 1523476615.968, 14, 0, 1024, 1024, 1024, 1024, 0, 6, 3821, 3831, 3810, 3847, 3854, 3827, 0, 1, 20005, -90.000, 0.000, -44.400, 0.000, 0.000, -2.800, 0.0, , , , , , 99, , , 0, 0, 0
37.2866019, -119.5625715, 43.700, 12:56:56.064, 17, 0.00, 0.47, 95, -3.000, 1.100, -44.500, 2, 100, 99, 21, 23022, -19701, 5288, 5567, 7, 14, 1523476616.065, 110, 0, 1024, 1024, 1024, 1024, 0, 6, 3821, 3831, 3810, 3847, 3854, 3827, 0, 1, 20101, -90.000, 0.000, -44.400, 0.000, 0.000, -2.800, 0.0, , , , , , 99, , , 0, 0, 0
37.2866019, -119.5625715, 44.300, 12:56:56.164, 17, 0.00, 0.46, 95, -2.900, 0.600, -44.700, 2, 100, 99, 21, 23022, -19701, 5288, 5567, 7, 14, 1523476616.165, 16, 0, 1024, 1024, 1024, 1024, 0, 6, 3821, 3831, 3810, 3847, 3854, 3827, 0, 1, 20201, -90.000, 0.000, -44.400, 0.000, 0.000, -2.900, 0.0, , , , , , 99, , , 0, 0, 0
37.2866019, -119.5625715, 44.300, 12:56:56.264, 17, 0.00, 0.46, 95, -2.900, 0.600, -44.700, 2, 100, 99, 21, 23022, -19701, 5288, 5567, 7, 14, 1523476616.265, 116, 0, 1024, 1024, 1024, 1024, 0, 6, 3821, 3831, 3810, 3847, 3854, 3827, 0, 1, 20301, -90.000, 0.000, -44.400, 0.000, 0.000, -2.900, 0.0, , , , , , 99, , , 0, 0, 0
37.2866018, -119.5625714, 44.600, 12:56:56.364, 17, 0.00, 0.46, 95, -3.000, 0.700, -44.900, 2, 100, 99, 21, 23022, -19701, 5288, 5567, 7, 14, 1523476616.364, 95, 0, 1024, 1024, 1025, 1024, 0, 6, 3821, 3831, 3810, 3847, 3854, 3827, 0, 1, 20400, -90.000, 0.000, -44.400, 0.000, 0.000, -2.900, 0.0, , , , , , 99, , , 0, 0, 0
37.2866018, -119.5625713, 45.200, 12:56:56.464, 17, 0.00, 0.46, 95, -3.100, 0.900, -44.900, 2, 100, 99, 21, 23022, -19701, 5288, 5567, 7, 14, 1523476616.465, 13, 0, 1024, 1024, 1025, 1024, 0, 6, 3824, 3840, 3820, 3854, 3857, 3828, 0, 1, 20501, -89.900, 0.000, -44.400, 0.000, 0.000, -2.900, 0.0, , , , , , 99, , , 0, 0, 0
37.2866018, -119.5625713, 45.200, 12:56:56.564, 17, 0.00, 0.46, 95, -3.100, 0.900, -44.900, 2, 100, 99, 21, 23022, -19701, 5288, 5567, 7, 14, 1523476616.564, 113, 0, 1024, 1024, 1025, 1024, 0, 6, 3824, 3840, 3820, 3854, 3857, 3828, 0, 1, 20601, -89.900, 0.000, -44.400, 0.000, 0.000, -2.900, 0.0, , , , , , 99, , , 0, 0, 0
37.2866018, -119.5625713, 45.200, 12:56:56.664, 17, 0.00, 0.46, 95, -3.100, 0.900, -44.900, 2, 100, 99, 21, 23022, -19701, 5288, 5567, 7, 14, 1523476616.665, 213, 0, 1024, 1024, 1025, 1024, 0, 6, 3824, 3840, 3820, 3854, 3857, 3828, 0, 1, 20701, -89.900, 0.000, -44.400, 0.000, 0.000, -2.900, 0.0, , , , , , 99, , , 0, 0, 0
37.2866018, -119.5625713, 45.800, 12:56:56.764, 17, 0.00, 0.46, 95, -3.000, 1.100, -44.800, 2, 100, 99, 21, 23022, -19701, 5288, 5567, 7, 14, 1523476616.764, 85, 0, 1024, 1024, 1025, 1024, 0, 6, 3824, 3840, 3820, 3854, 3857, 3828, 0, 1, 20801, -89.900, 0.000, -44.400, 0.000, 0.000, -2.900, 0.0, , , , , , 99, , , 0, 0, 0
37.2866017, -119.5625713, 46.100, 12:56:56.864, 17, 0.00, 0.45, 95, -3.000, 1.200, -44.700, 2, 100, 99, 21, 23022, -19701, 5288, 5567, 7, 14, 1523476616.865, 63, 0, 1024, 1024, 1025, 1024, 0, 6, 3824, 3840, 3820, 3854, 3857, 3828, 0, 1, 20901, -89.900, 0.000, -44.400, 0.000, 0.000, -2.900, 0.0, , , , , , 99, , , 0, 0, 0
37.2866017, -119.5625713, 46.400, 12:56:56.964, 17, 0.00, 0.45, 95, -2.800, 1.300, -44.700, 2, 100, 99, 21, 23022, -19701, 5288, 5567, 7, 14, 1523476616.965, 62, 0, 1024, 1024, 1025, 1024, 0, 6, 3824, 3840, 3820, 3854, 3857, 3828, 0, 1, 21001, -89.900, 0.000, -44.400, 0.000, 0.000, -3.000, 0.0, , , , , , 99, , , 0, 0, 0
