Latitude, Longitude, Altitude (m), Time, Sats, Speed (m/s), Range (m), Battery (%), Roll (deg), Pitch (deg), Yaw (deg), Images, HD Signal (%), RC Signal (%), Battery Temp (C), Battery Voltage (mV), Battery Current (mA), Battery Energy (mAh), Battery Capacity (mAh), Battery Discharges, flyState, timestamp (Unix), LastUpdate (ms), radioChannel, Rc_elevator, Rc_aileron, Rc_throttle, Rc_rudder, Rc_gyro, Dronetype, Battery_Cell1 (mV), Battery_Cell2 (mV), Battery_Cell3 (mV), Battery_Cell4 (mV), Battery_Cell5 (mV), Battery_Cell6 (mV), Video, isFlying, elapsedTime (ms), gimbalPitch (deg), gimbalRoll (deg), gimbalYaw (deg), VelocityX (m/s), VelocityY (m/s), VelocityZ (m/s), GroundSmear (cm), App Version, Aircraft Name, Aircraft Firmware, Aircraft Serial Number, Battery Serial Number, Battery Lifetime (%), App_Tip, App_Warning, CurrentFlightStartingIndex, CurrentFlightLastVisitedWaypoint, PreviousFlightEndingWaypointIndex
37.2865712, -119.5625786, 0.000, 13:46:56.623, 16, 0.10, 0.03, 100, -1.400, -0.200, -39.100, 227, 100, 100, 20, 25429, -2976, 5605, 5605, 5, 11, 1523479616.623, 119, 0, 1024, 1024, 1025, 1024, 0, 6, 4258, 4270, 4196, 4282, 4298, 4278, 0, 1, 3088, -89.900, 0.000, -42.700, 0.000, -0.100, -0.100, 0.0, MapPilot_2.7.4_02272018, Dendroctonus I, 1.3.1.00, 041DDC1887, 1058163200563, 99, DJI_0486.jpg, Starting Mission from Lat/Long: 37.28657/-119.56258 Camera: Zenmuse X3 - Overlap: 90/90 - Active Connection: Yes, 11, 11, 11
37.2865712, -119.5625786, 0.000, 13:46:56.635, 16, 0.10, 0.03, 100, -1.400, -0.200, -39.100, 227, 100, 100, 20, 25429, -2976, 5605, 5605, 5, 11, 1523479616.636, 132, 0, 1024, 1024, 1025, 1024, 0, 6, 4258, 4270, 4196, 4282, 4298, 4278, 0, 1, 3101, -89.900, 0.000, -42.700, 0.000, -0.100, -0.100, 0.0, , , , , , 99, , , 11, 11, 11
37.2865712, -119.5625788, 0.000, 13:46:56.735, 14, 0.10, 0.02, 100, -0.300, -0.200, -38.900, 227, 100, 100, 20, 25429, -2976, 5605, 5605, 5, 11, 1523479616.736, 37, 0, 1024, 1024, 1024, 1024, 0, 6, 4244, 4210, 4245, 4221, 4264, 4205, 0, 1, 3201, -89.900, 0.000, -42.600, 0.000, -0.100, -0.200, 0.0, , , , , , 99, , , 11, 11, 11
37.2865711, -119.5625789, 0.000, 13:46:56.835, 14, 0.10, 0.01, 100, 0.200, 0.000, -39.000, 227, 100, 100, 20, 25429, -2976, 5605, 5605, 5, 11, 1523479616.836, 64, 0, 1024, 1024, 1025, 1024, 0, 6, 4244, 4210, 4245, 4221, 4264, 4205, 0, 1, 3301, -89.900, 0.000, -42.500, 0.000, -0.100, -0.300, 0.0, , , , , , 99, , , 11, 11, 11
37.2865710, -119.5625791, 0.000, 13:46:56.935, 18, 0.10, 0.03, 100, 0.600, 0.000, -39.200, 227, 100, 100, 20, 25429, -2976, 5605, 5605, 5, 11, 1523479616.936, 50, 0, 1024, 1024, 1025, 1024, 0, 6, 4244, 4210, 4245, 4221, 4264, 4205, 0, 1, 3401, -89.900, 0.000, -42.400, 0.000, -0.100, -0.300, 0.0, , , , , , 99, , , 11, 11, 11
37.2865710, -119.5625794, 0.000, 13:46:57.035, 18, 0.10, 0.04, 100, 1.000, 0.200, -39.400, 227, 100, 100, 20, 25429, -2976, 5605, 5605, 5, 11, 1523479617.036, 60, 0, 1024, 1024, 1025, 1024, 0, 6, 4244, 4210, 4245, 4221, 4264, 4205, 0, 1, 3501, -89.900, 0.000, -42.300, 0.000, -0.100, -0.400, 0.0, , , , , , 99, , , 11, 11, 11
37.2865709, -119.5625796, 0.100, 13:46:57.135, 18, 0.10, 0.06, 100, 1.600, 0.400, -39.600, 227, 100, 100, 20, 25429, -2976, 5605, 5605, 5, 11, 1523479617.137, 62, 0, 1024, 1024, 1025, 1024, 0, 6, 4244, 4210, 4245, 4221, 4264, 4205, 0, 1, 3602, -89.900, 0.000, -42.200, 0.000, -0.100, -0.400, 0.0, , , , , , 99, , , 11, 11, 11
37.2865710, -119.5625800, 0.100, 13:46:57.234, 18, 0.10, 0.10, 100, 1.600, 1.300, -39.900, 227, 100, 100, 20, 25429, -2976, 5605, 5605, 5, 11, 1523479617.235, 9, 0, 1024, 1024, 1025, 1024, 0, 6, 4244, 4210, 4245, 4221, 4264, 4205, 0, 1, 3700, -89.900, 0.000, -42.000, 0.000, -0.100, -0.400, 0.0, , , , , , 99, , , 11, 11, 11
37.2865709, -119.5625802, 0.200, 13:46:57.335, 18, 0.10, 0.12, 100, 1.600, 1.400, -40.000, 227, 100, 100, 20, 25429, -2976, 5605, 5605, 5, 11, 1523479617.335, 23, 0, 1024, 1024, 1025, 1024, 0, 6, 4244, 4210, 4245, 4221, 4264, 4205, 0, 1, 3801, -89.900, 0.000, -41.900, 0.000, -0.100, -0.400, 0.0, , , , , , 99, , , 11, 11, 11
37.2865709, -119.5625804, 0.200, 13:46:57.435, 16, 0.10, 0.14, 100, 1.500, 1.400, -40.000, 227, 100, 100, 20, 24342, -10523, 5605, 5605, 5, 11, 1523479617.436, 52, 0, 1024, 1024, 1025, 1024, 0, 6, 4044, 4018, 4060, 4079, 4089, 4035, 0, 1, 3901, -89.900, 0.000, -41.800, 0.000, -0.100, -0.400, 0.0, , , , , , 99, , , 11, 11, 11
37.2865709, -119.5625805, 0.300, 13:46:57.535, 16, 0.10, 0.15, 100, 1.500, 1.200, -40.100, 227, 100, 100, 20, 24342, -10523, 5605, 5605, 5, 11, 1523479617.536, 30, 0, 1024, 1024, 1024, 1024, 0, 6, 4044, 4018, 4060, 4079, 4089, 4035, 0, 1, 4001, -89.900, 0.000, -41.800, 0.000, -0.100, -0.400, 0.0, , , , , , 99, , , 11, 11, 11
37.2865710, -119.5625806, 0.300, 13:46:57.635, 17, 0.10, 0.16, 100, 1.200, 0.900, -40.000, 227, 100, 100, 20, 24342, -10523, 5605, 5605, 5, 11, 1523479617.635, 28, 0, 1024, 1024, 1025, 1024, 0, 6, 4044, 4018, 4060, 4079, 4089, 4035, 0, 1, 4101, -89.900, 0.000, -41.700, 0.000, -0.100, -0.400, 0.0, , , , , , 99, , , 11, 11, 11
37.2865710, -119.5625808, 0.400, 13:46:57.736, 17, 0.10, 0.17, 100, 1.100, 1.000, -39.900, 227, 100, 100, 20, 24342, -10523, 5605, 5605, 5, 11, 1523479617.736, 11, 0, 1024, 1024, 1025, 1024, 0, 6, 4044, 4018, 4060, 4079, 4089, 4035, 0, 1, 4201, -89.900, 0.000, -41.700, 0.000, -0.100, -0.400, 0.0, , , , , , 99, , , 11, 11, 11
37.2865710, -119.5625809, 0.400, 13:46:57.835, 18, 0.10, 0.19, 100, 1.000, 0.900, -39.800, 227, 100, 100, 20, 24342, -10523, 5605, 5605, 5, 11, 1523479617.836, 14, 0, 1024, 1024, 1025, 1024, 0, 6, 4044, 4018, 4060, 4079, 4089, 4035, 0, 1, 4301, -89.900, 0.000, -41.600, 0.000, -0.100, -0.400, 0.0, , , , , , 99, , , 11, 11, 11
37.2865710, -119.5625811, 0.500, 13:46:57.935, 18, 0.10, 0.20, 100, 1.100, 1.000, -39.600, 227, 100, 100, 20, 24342, -10523, 5605, 5605, 5, 11, 1523479617.936, 19, 0, 1024, 1024, 1025, 1024, 0, 6, 4044, 4018, 4060, 4079, 4089, 4035, 0, 1, 4401, -89.900, 0.000, -41.600, 0.000, -0.100, -0.400, 0.0, , , , , , 99, , , 11, 11, 11
37.2865711, -119.5625813, 0.500, 13:46:58.035, 18, 0.10, 0.22, 100, 1.100, 1.200, -39.400, 227, 100, 100, 20, 24342, -10523, 5605, 5605, 5, 11, 1523479618.036, 23, 0, 1024, 1024, 1025, 1024, 0, 6, 4044, 4018, 4060, 4079, 4089, 4035, 0, 1, 4501, -89.900, 0.000, -41.500, 0.000, -0.100, -0.400, 0.0, , , , , , 99, , , 11, 11, 11
37.2865711, -119.5625814, 0.600, 13:46:58.136, 18, 0.10, 0.23, 100, 1.100, 1.300, -39.200, 227, 100, 100, 20, 24342, -10523, 5605, 5605, 5, 11, 1523479618.136, 5, 0, 1024, 1024, 1025, 1024, 0, 6, 4044, 4018, 4060, 4079, 4089, 4035, 0, 1, 4601, -89.900, 0.000, -41.500, 0.000, -0.100, -0.500, 0.0, , , , , , 99, , , 11, 11, 11
37.2865711, -119.5625818, 0.700, 13:46:58.235, 18, 0.10, 0.26, 100, 1.400, 1.500, -39.100, 227, 100, 100, 20, 24342, -10523, 5605, 5605, 5, 11, 1523479618.236, 16, 0, 1024, 1024, 1025, 1024, 0, 6, 4044, 4018, 4060, 4079, 4089, 4035, 0, 1, 4701, -89.900, 0.000, -41.400, 0.000, -0.100, -0.500, 0.0, , , , , , 99, , , 11, 11, 11
37.2865711, -119.5625818, 0.700, 13:46:58.335, 18, 0.10, 0.26, 100, 1.400, 1.500, -39.100, 227, 100, 100, 20, 24342, -10523, 5605, 5605, 5, 11, 1523479618.336, 115, 0, 1024, 1024, 1025, 1024, 0, 6, 4044, 4018, 4060, 4079, 4089, 4035, 0, 1, 4801, -89.900, 0.000, -41.400, 0.000, -0.100, -0.500, 0.0, , , , , , 99, , , 11, 11, 11
37.2865712, -119.5625819, 0.700, 13:46:58.435, 18, 0.10, 0.27, 100, 1.600, 1.700, -39.100, 227, 100, 100, 20, 24342, -10523, 5605, 5605, 5, 11, 1523479618.436, 82, 0, 1024, 1024, 1025, 1024, 0, 6, 4044, 4018, 4060, 4079, 4089, 4035, 0, 1, 4901, -89.900, 0.000, -41.400, 0.000, -0.100, -0.500, 0.0, , , , , , 99, , , 11, 11, 11
37.2865711, -119.5625821, 0.800, 13:46:58.537, 18, 0.10, 0.29, 100, 1.800, 1.900, -39.100, 227, 100, 100, 20, 23932, -16474, 5605, 5605, 5, 11, 1523479618.537, 88, 0, 1024, 1024, 1025, 1024, 0, 6, 3984, 3966, 3992, 3992, 3994, 3989, 0, 1, 5002, -89.900, 0.000, -41.300, 0.000, -0.100, -0.500, 0.0, , , , , , 99, , , 11, 11, 11
37.2865711, -119.5625822, 0.800, 13:46:58.635, 19, 0.00, 0.30, 100, 2.000, 1.900, -39.100, 227, 100, 100, 20, 23932, -16474, 5605, 5605, 5, 11, 1523479618.636, 79, 0, 1024, 1024, 1025, 1024, 0, 6, 3984, 3966, 3992, 3992, 3994, 3989, 0, 1, 5101, -89.900, 0.000, -41.300, 0.000, 0.000, -0.400, 0.0, , , , , , 99, , , 11, 11, 11
37.2865711, -119.5625822, 0.800, 13:46:58.735, 19, 0.00, 0.30, 100, 2.000, 1.900, -39.100, 227, 100, 100, 20, 23932, -16474, 5605, 5605, 5, 11, 1523479618.736, 179, 0, 1024, 1024, 1025, 1024, 0, 6, 3984, 3966, 3992, 3992, 3994, 3989, 0, 1, 5201, -89.900, 0.000, -41.300, 0.000, 0.000, -0.400, 0.0, , , , , , 99, , , 11, 11, 11
37.2865712, -119.5625824, 0.900, 13:46:58.835, 18, 0.00, 0.31, 100, 2.200, 2.000, -39.200, 227, 100, 100, 20, 23932, -16474, 5605, 5605, 5, 14, 1523479618.836, 72, 0, 1024, 1024, 1025, 1024, 0, 6, 3984, 3966, 3992, 3992, 3994, 3989, 0, 1, 5301, -89.900, 0.000, -41.200, 0.000, 0.000, -0.400, 0.0, , , , , , 99, , , 11, 11, 11
37.2865712, -119.5625824, 0.900, 13:46:58.935, 18, 0.00, 0.31, 100, 1.800, 1.600, -39.200, 227, 100, 100, 20, 23932, -16474, 5605, 5605, 5, 14, 1523479618.936, 48, 0, 1024, 1024, 1025, 1024, 0, 6, 3984, 3966, 3992, 3992, 3994, 3989, 0, 1, 5401, -89.900, 0.000, -41.200, 0.000, 0.000, -0.200, 0.0, , , , , , 99, , , 11, 11, 11
37.2865712, -119.5625824, 1.000, 13:46:59.035, 17, 0.00, 0.31, 100, 1.300, 1.000, -39.100, 227, 100, 99, 20, 23932, -16474, 5605, 5605, 5, 14, 1523479619.036, 47, 0, 1024, 1024, 1025, 1024, 0, 6, 3984, 3966, 3992, 3992, 3994, 3989, 0, 1, 5501, -90.000, 0.000, -41.100, 0.000, 0.000, -0.200, 0.0, , , , , , 99, , , 11, 11, 11
37.2865712, -119.5625824, 1.000, 13:46:59.135, 17, 0.00, 0.32, 100, 0.900, 0.700, -39.100, 227, 100, 99, 20, 23932, -16474, 5605, 5605, 5, 14, 1523479619.136, 63, 0, 1024, 1024, 1025, 1024, 0, 6, 3984, 3966, 3992, 3992, 3994, 3989, 0, 1, 5601, -90.000, 0.000, -41.100, 0.000, 0.000, -0.200, 0.0, , , , , , 99, , , 11, 11, 11
37.2865713, -119.5625825, 1.000, 13:46:59.236, 17, 0.00, 0.32, 100, 0.700, 0.800, -39.100, 227, 100, 99, 20, 23932, -16474, 5605, 5605, 5, 14, 1523479619.236, 45, 0, 1024, 1024, 1025, 1024, 0, 6, 3984, 3966, 3992, 3992, 3994, 3989, 0, 1, 5701, -90.000, 0.000, -41.100, 0.000, 0.000, -0.300, 0.0, , , , , , 99, , , 11, 11, 11
37.2865713, -119.5625825, 1.100, 13:46:59.335, 17, 0.00, 0.32, 100, 0.600, 1.100, -39.000, 227, 100, 99, 20, 23932, -16474, 5605, 5605, 5, 14, 1523479619.336, 32, 0, 1024, 1024, 1025, 1024, 0, 6, 3984, 3966, 3992, 3992, 3994, 3989, 0, 1, 5801, -89.900, 0.000, -41.000, 0.000, 0.000, -0.400, 0.0, , , , , , 99, , , 11, 11, 11
37.2865712, -119.5625825, 1.100, 13:46:59.435, 17, 0.00, 0.32, 100, 0.800, 1.100, -39.000, 227, 100, 99, 20, 23845, -16592, 5605, 5605, 5, 14, 1523479619.435, 33, 0, 1024, 1024, 1025, 1024, 0, 6, 3984, 3966, 3992, 3992, 3994, 3989, 0, 1, 5901, -89.900, 0.000, -41.000, 0.000, 0.000, -0.600, 0.0, , , , , , 99, , , 11, 11, 11
37.2865712, -119.5625825, 1.200, 13:46:59.535, 17, 0.00, 0.33, 100, 1.000, 1.000, -38.900, 227, 100, 98, 20, 23845, -16592, 5605, 5605, 5, 14, 1523479619.536, 21, 0, 1024, 1024, 1025, 1024, 0, 6, 3984, 3966, 3992, 3992, 3994, 3989, 0, 1, 6001, -90.000, 0.000, -41.000, 0.000, 0.000, -0.800, 0.0, , , , , , 99, , , 11, 11, 11
37.2865713, -119.5625826, 1.300, 13:46:59.635, 17, 0.00, 0.33, 100, 1.200, 0.900, -38.900, 227, 100, 98, 20, 23845, -16592, 5605, 5605, 5, 14, 1523479619.635, 41, 0, 1024, 1024, 1025, 1024, 0, 6, 3984, 3966, 3992, 3992, 3994, 3989, 0, 1, 6101, -90.000, 0.000, -40.900, 0.000, 0.000, -1.000, 0.0, , , , , , 99, , , 11, 11, 11
37.2865713, -119.5625826, 1.400, 13:46:59.735, 17, 0.00, 0.33, 100, 1.300, 0.900, -38.900, 227, 100, 98, 20, 23845, -16592, 5605, 5605, 5, 14, 1523479619.735, 30, 0, 1024, 1024, 1025, 1024, 0, 6, 3984, 3966, 3992, 3992, 3994, 3989, 0, 1, 6201, -90.000, 0.000, -40.900, 0.000, 0.000, -1.200, 0.0, , , , , , 99, , , 11, 11, 11
37.2865713, -119.5625826, 1.500, 13:46:59.835, 17, 0.00, 0.33, 100, 1.200, 0.800, -38.900, 227, 100, 98, 20, 23845, -16592, 5605, 5605, 5, 14, 1523479619.836, 22, 0, 1024, 1024, 1025, 1024, 0, 6, 3984, 3966, 3992, 3992, 3994, 3989, 0, 1, 6301, -89.900, 0.000, -40.800, 0.000, 0.000, -1.400, 0.0, , , , , , 99, , , 11, 11, 11
37.2865714, -119.5625826, 1.700, 13:46:59.935, 17, 0.00, 0.34, 100, 1.200, 0.700, -39.000, 227, 100, 98, 20, 23845, -16592, 5605, 5605, 5, 14, 1523479619.936, 17, 0, 1024, 1024, 1025, 1024, 0, 6, 3971, 3964, 3970, 3964, 3985, 3982, 0, 1, 6401, -89.900, 0.000, -40.800, 0.000, 0.000, -1.600, 0.0, , , , , , 99, , , 11, 11, 11
37.2865716, -119.5625827, 1.900, 13:47:00.035, 18, 0.00, 0.34, 100, 1.300, 0.900, -39.100, 227, 100, 98, 20, 23845, -16592, 5605, 5605, 5, 14, 1523479620.036, 33, 0, 1024, 1024, 1025, 1024, 0, 6, 3971, 3964, 3970, 3964, 3985, 3982, 0, 1, 6501, -89.900, 0.000, -40.800, 0.000, 0.000, -1.900, 0.0, , , , , , 99, , , 11, 11, 11
37.2865716, -119.5625827, 1.900, 13:47:00.135, 18, 0.00, 0.34, 100, 1.300, 0.900, -39.100, 227, 100, 98, 20, 23845, -16592, 5605, 5605, 5, 14, 1523479620.136, 133, 0, 1024, 1024, 1025, 1024, 0, 6, 3971, 3964, 3970, 3964, 3985, 3982, 0, 1, 6601, -89.900, 0.000, -40.800, 0.000, 0.000, -1.900, 0.0, , , , , , 99, , , 11, 11, 11
37.2865716, -119.5625827, 1.900, 13:47:00.235, 18, 0.00, 0.34, 100, 1.300, 0.900, -39.100, 227, 100, 98, 20, 23845, -16592, 5605, 5605, 5, 14, 1523479620.235, 233, 0, 1024, 1024, 1025, 1024, 0, 6, 3971, 3964, 3970, 3964, 3985, 3982, 0, 1, 6701, -89.900, 0.000, -40.700, 0.000, 0.000, -1.900, 0.0, , , , , , 99, , , 11, 11, 11
37.2865719, -119.5625830, 2.300, 13:47:00.335, 17, 0.00, 0.38, 100, 1.300, 1.800, -39.200, 227, 100, 98, 20, 23845, -16592, 5605, 5605, 5, 14, 1523479620.337, 75, 0, 1024, 1024, 1025, 1024, 0, 6, 3971, 3964, 3970, 3964, 3985, 3982, 0, 1, 6802, -89.900, 0.000, -40.700, 0.000, 0.000, -2.400, 0.0, , , , , , 99, , , 11, 11, 11
37.2865726, -119.5625830, 3.200, 13:47:00.443, 17, 0.00, 0.40, 100, 1.000, 2.400, -39.200, 227, 100, 99, 20, 23845, -16592, 5605, 5605, 5, 14, 1523479620.443, 9, 0, 1024, 1024, 1025, 1024, 0, 6, 3971, 3964, 3970, 3964, 3985, 3982, 0, 1, 6908, -89.900, 0.000, -40.700, 0.000, 0.000, -3.000, 0.0, , , , , , 99, , , 11, 11, 11
37.2865726, -119.5625830, 3.200, 13:47:00.535, 17, 0.00, 0.40, 100, 1.000, 2.400, -39.200, 227, 100, 99, 20, 23845, -16592, 5605, 5605, 5, 14, 1523479620.536, 101, 0, 1024, 1024, 1025, 1024, 0, 6, 3971, 3964, 3970, 3964, 3985, 3982, 0, 1, 7001, -89.900, 0.000, -40.700, 0.000, 0.000, -3.000, 0.0, , , , , , 99, , , 11, 11, 11
37.2865728, -119.5625829, 3.500, 13:47:00.635, 19, 0.00, 0.41, 100, 0.700, 2.500, -39.200, 227, 100, 99, 20, 23845, -16592, 5605, 5605, 5, 14, 1523479620.635, 53, 0, 1024, 1024, 1025, 1024, 0, 6, 3971, 3964, 3970, 3964, 3985, 3982, 0, 1, 7101, -89.900, 0.000, -40.700, 0.000, 0.000, -3.100, 0.0, , , , , , 99, , , 11, 11, 11
37.2865730, -119.5625828, 3.800, 13:47:00.735, 19, 0.00, 0.41, 100, 0.300, 2.500, -39.300, 227, 100, 99, 20, 23845, -16592, 5605, 5605, 5, 14, 1523479620.736, 71, 0, 1024, 1024, 1025, 1024, 0, 6, 3971, 3964, 3970, 3964, 3985, 3982, 0, 1, 7201, -89.900, 0.000, -40.600, 0.000, 0.000, -3.100, 0.0, , , , , , 99, , , 11, 11, 11
37.2865732, -119.5625827, 4.200, 13:47:00.835, 18, 0.00, 0.41, 100, 0.000, 2.500, -39.500, 227, 100, 99, 20, 23845, -16592, 5605, 5605, 5, 14, 1523479620.836, 66, 0, 1024, 1024, 1025, 1024, 0, 6, 3971, 3964, 3970, 3964, 3985, 3982, 0, 1, 7302, -89.900, 0.000, -40.600, 0.000, 0.000, -3.100, 0.0, , , , , , 99, , , 11, 11, 11
37.2865733, -119.5625826, 4.500, 13:47:00.935, 18, 0.00, 0.41, 100, -0.300, 2.300, -39.500, 227, 100, 99, 20, 23521, -18657, 5492, 5605, 5, 14, 1523479620.935, 78, 0, 1024, 1024, 1025, 1024, 0, 6, 3925, 3868, 3899, 3893, 3913, 3891, 0, 1, 7401, -89.900, 0.000, -40.600, 0.000, 0.000, -3.200, 0.0, , , , , , 99, , , 11, 11, 11
37.2865734, -119.5625825, 4.800, 13:47:01.035, 19, 0.00, 0.41, 100, -0.300, 2.000, -39.500, 227, 100, 100, 20, 23521, -18657, 5492, 5605, 5, 14, 1523479621.036, 85, 0, 1024, 1024, 1025, 1024, 0, 6, 3925, 3868, 3899, 3893, 3913, 3891, 0, 1, 7501, -89.900, 0.000, -40.600, 0.000, 0.000, -3.200, 0.0, , , , , , 99, , , 11, 11, 11
37.2865735, -119.5625823, 5.200, 13:47:01.135, 19, 0.00, 0.41, 100, -0.400, 1.900, -39.300, 227, 100, 100, 20, 23521, -18657, 5492, 5605, 5, 14, 1523479621.136, 58, 0, 1024, 1024, 1025, 1024, 0, 6, 3925, 3868, 3899, 3893, 3913, 3891, 0, 1, 7601, -89.900, 0.000, -40.500, 0.000, 0.000, -3.200, 0.0, , , , , , 99, , , 11, 11, 11
37.2865735, -119.5625822, 5.500, 13:47:01.236, 19, 0.00, 0.41, 100, -0.500, 1.700, -39.100, 227, 100, 100, 20, 23521, -18657, 5492, 5605, 5, 14, 1523479621.236, 52, 0, 1024, 1024, 1025, 1024, 0, 6, 3925, 3868, 3899, 3893, 3913, 3891, 0, 1, 7701, -89.900, 0.000, -40.500, 0.000, 0.000, -3.200, 0.0, , , , , , 99, , , 11, 11, 11
37.2865735, -119.5625821, 5.800, 13:47:01.336, 19, 0.00, 0.40, 100, -0.600, 1.400, -38.900, 227, 100, 100, 20, 23521, -18657, 5492, 5605, 5, 14, 1523479621.336, 55, 0, 1024, 1024, 1025, 1024, 0, 6, 3925, 3868, 3899, 3893, 3913, 3891, 0, 1, 7801, -89.900, 0.000, -40.500, 0.000, 0.000, -3.200, 0.0, , , , , , 99, , , 11, 11, 11
37.2865735, -119.5625821, 6.100, 13:47:01.435, 20, 0.00, 0.40, 100, -0.400, 1.500, -38.800, 227, 100, 100, 20, 23521, -18657, 5492, 5605, 5, 14, 1523479621.436, 56, 0, 1024, 1024, 1025, 1024, 0, 6, 3925, 3868, 3899, 3893, 3913, 3891, 0, 1, 7901, -89.900, 0.000, -40.500, 0.000, 0.000, -3.200, 0.0, , , , , , 99, , , 11, 11, 11
37.2865734, -119.5625821, 6.500, 13:47:01.535, 20, 0.10, 0.40, 100, 0.000, 1.700, -38.700, 227, 100, 100, 20, 23521, -18657, 5492, 5605, 5, 14, 1523479621.536, 45, 0, 1024, 1024, 1025, 1024, 0, 6, 3925, 3868, 3899, 3893, 3913, 3891, 0, 1, 8001, -89.900, 0.000, -40.500, -0.100, 0.000, -3.200, 0.0, , , , , , 99, , , 11, 11, 11
37.2865733, -119.5625822, 6.800, 13:47:01.636, 19, 0.10, 0.39, 100, 0.400, 1.800, -38.700, 227, 100, 100, 20, 23521, -18657, 5492, 5605, 5, 14, 1523479621.636, 36, 0, 1024, 1024, 1025, 1024, 0, 6, 3925, 3868, 3899, 3893, 3913, 3891, 0, 1, 8102, -89.900, 0.000, -40.400, -0.100, 0.000, -3.200, 0.0, , , , , , 99, , , 11, 11, 11
37.2865731, -119.5625823, 7.100, 13:47:01.735, 19, 0.10, 0.38, 100, 0.900, 1.700, -38.800, 227, 100, 100, 20, 23521, -18657, 5492, 5605, 5, 14, 1523479621.736, 23, 0, 1024, 1024, 1025, 1024, 0, 6, 3925, 3868, 3899, 3893, 3913, 3891, 0, 1, 8201, -89.900, 0.000, -40.400, -0.100, 0.000, -3.200, 0.0, , , , , , 99, , , 11, 11, 11
37.2865730, -119.5625824, 7.500, 13:47:01.835, 20, 0.10, 0.38, 100, 1.500, 1.600, -38.800, 227, 100, 100, 20, 23521, -18657, 5492, 5605, 5, 14, 1523479621.836, 41, 0, 1024, 1024, 1025, 1024, 0, 6, 3925, 3868, 3899, 3893, 3913, 3891, 0, 1, 8301, -89.900, 0.000, -40.400, -0.100, 0.000, -3.100, 0.0, , , , , , 99, , , 11, 11, 11
37.2865729, -119.5625824, 7.800, 13:47:01.935, 20, 0.10, 0.38, 98, 1.800, 1.600, -39.000, 227, 100, 100, 20, 23075, -23529, 5492, 5605, 5, 14, 1523479621.936, 27, 0, 1024, 1024, 1025, 1024, 0, 6, 3925, 3868, 3899, 3893, 3913, 3891, 0, 1, 8401, -89.900, 0.000, -40.400, -0.100, 0.000, -3.200, 0.0, , , , , , 99, , , 11, 11, 11
37.2865728, -119.5625825, 8.100, 13:47:02.035, 18, 0.10, 0.38, 98, 2.100, 1.600, -39.200, 227, 100, 99, 20, 23075, -23529, 5492, 5605, 5, 14, 1523479622.035, 17, 0, 1024, 1024, 1025, 1024, 0, 6, 3867, 3846, 3868, 3848, 3885, 3883, 0, 1, 8501, -89.900, 0.000, -40.400, -0.100, 0.000, -3.100, 0.0, , , , , , 99, , , 11, 11, 11
37.2865726, -119.5625826, 8.400, 13:47:02.135, 18, 0.10, 0.37, 98, 2.200, 1.500, -39.300, 227, 100, 99, 20, 23075, -23529, 5492, 5605, 5, 14, 1523479622.136, 31, 0, 1024, 1024, 1025, 1024, 0, 6, 3867, 3846, 3868, 3848, 3885, 3883, 0, 1, 8601, -89.900, 0.000, -40.300, -0.100, 0.000, -3.100, 0.0, , , , , , 99, , , 11, 11, 11
37.2865724, -119.5625826, 8.800, 13:47:02.235, 20, 0.10, 0.37, 98, 2.100, 1.100, -39.400, 227, 100, 99, 20, 23075, -23529, 5492, 5605, 5, 14, 1523479622.236, 17, 0, 1024, 1024, 1025, 1024, 0, 6, 3867, 3846, 3868, 3848, 3885, 3883, 0, 1, 8701, -89.900, 0.000, -40.300, -0.100, 0.000, -3.100, 0.0, , , , , , 99, , , 11, 11, 11
37.2865722, -119.5625827, 9.100, 13:47:02.335, 20, 0.10, 0.37, 98, 2.000, 0.800, -39.500, 227, 100, 99, 20, 23075, -23529, 5492, 5605, 5, 14, 1523479622.336, 30, 0, 1024, 1024, 1025, 1024, 0, 6, 3867, 3846, 3868, 3848, 3885, 3883, 0, 1, 8801, -90.000, 0.000, -40.300, -0.100, 0.000, -3.100, 0.0, , , , , , 99, , , 11, 11, 11
37.2865721, -119.5625827, 9.400, 13:47:02.435, 20, 0.10, 0.37, 98, 1.900, 0.700, -39.400, 227, 100, 98, 20, 23075, -23529, 5492, 5605, 5, 14, 1523479622.436, 20, 0, 1024, 1024, 1025, 1024, 0, 6, 3867, 3846, 3868, 3848, 3885, 3883, 0, 1, 8901, -89.900, 0.000, -40.300, -0.100, 0.000, -3.100, 0.0, , , , , , 99, , , 11, 11, 11
37.2865721, -119.5625827, 9.400, 13:47:02.535, 20, 0.10, 0.37, 98, 1.900, 0.700, -39.400, 227, 100, 98, 20, 23075, -23529, 5492, 5605, 5, 14, 1523479622.536, 120, 0, 1024, 1024, 1025, 1024, 0, 6, 3867, 3846, 3868, 3848, 3885, 3883, 0, 1, 9001, -89.900, 0.000, -40.300, -0.100, 0.000, -3.100, 0.0, , , , , , 99, , , 11, 11, 11
37.2865717, -119.5625830, 10.400, 13:47:02.654, 20, 0.00, 0.37, 98, 2.000, 1.100, -39.200, 227, 100, 98, 20, 23075, -23529, 5492, 5605, 5, 14, 1523479622.655, 5, 0, 1024, 1024, 1025, 1024, 0, 6, 3867, 3846, 3868, 3848, 3885, 3883, 0, 1, 9120, -89.900, 0.000, -40.300, 0.000, 0.000, -3.000, 0.0, , , , , , 99, , , 11, 11, 11
37.2865717, -119.5625830, 10.400, 13:47:02.735, 20, 0.00, 0.37, 98, 2.000, 1.100, -39.200, 227, 100, 98, 20, 23075, -23529, 5492, 5605, 5, 14, 1523479622.736, 86, 0, 1024, 1024, 1025, 1024, 0, 6, 3867, 3846, 3868, 3848, 3885, 3883, 0, 1, 9201, -89.900, 0.000, -40.300, 0.000, 0.000, -3.000, 0.0, , , , , , 99, , , 11, 11, 11
37.2865716, -119.5625831, 10.700, 13:47:02.835, 21, 0.00, 0.38, 98, 2.000, 1.200, -39.200, 227, 100, 98, 20, 23075, -23529, 5492, 5605, 5, 14, 1523479622.836, 92, 0, 1024, 1024, 1025, 1024, 0, 6, 3867, 3846, 3868, 3848, 3885, 3883, 0, 1, 9301, -89.900, 0.000, -40.300, 0.000, 0.000, -3.000, 0.0, , , , , , 99, , , 11, 11, 11
37.2865715, -119.5625832, 11.000, 13:47:02.935, 21, 0.00, 0.39, 98, 2.200, 1.300, -39.200, 227, 100, 98, 20, 23447, -18372, 5492, 5605, 5, 14, 1523479622.936, 80, 0, 1024, 1024, 1025, 1024, 0, 6, 3906, 3891, 3919, 3903, 3933, 3921, 0, 1, 9401, -89.900, 0.000, -40.300, 0.000, 0.000, -2.900, 0.0, , , , , , 99, , , 11, 11, 11
37.2865714, -119.5625833, 11.300, 13:47:03.035, 20, 0.00, 0.39, 98, 2.400, 1.300, -39.200, 227, 100, 99, 20, 23447, -18372, 5492, 5605, 5, 14, 1523479623.036, 75, 0, 1024, 1024, 1025, 1024, 0, 6, 3906, 3891, 3919, 3903, 3933, 3921, 0, 1, 9501, -89.900, 0.000, -40.200, 0.000, 0.000, -3.000, 0.0, , , , , , 99, , , 11, 11, 11
37.2865713, -119.5625834, 11.600, 13:47:03.135, 20, 0.00, 0.40, 98, 2.400, 1.400, -39.300, 227, 100, 99, 20, 23447, -18372, 5492, 5605, 5, 14, 1523479623.136, 54, 0, 1024, 1024, 1025, 1024, 0, 6, 3906, 3891, 3919, 3903, 3933, 3921, 0, 1, 9601, -89.900, 0.000, -40.200, 0.000, 0.000, -3.000, 0.0, , , , , , 99, , , 11, 11, 11
37.2865713, -119.5625834, 11.900, 13:47:03.235, 20, 0.00, 0.41, 98, 2.200, 1.400, -39.300, 227, 100, 99, 20, 23447, -18372, 5492, 5605, 5, 14, 1523479623.235, 63, 0, 1024, 1024, 1025, 1024, 0, 6, 3906, 3891, 3919, 3903, 3933, 3921, 0, 1, 9700, -89.900, 0.000, -40.200, 0.000, 0.000, -3.000, 0.0, , , , , , 99, , , 11, 11, 11
37.2865712, -119.5625834, 12.200, 13:47:03.335, 20, 0.00, 0.41, 98, 1.900, 1.300, -39.200, 227, 100, 99, 20, 23447, -18372, 5492, 5605, 5, 14, 1523479623.336, 72, 0, 1024, 1024, 1025, 1024, 0, 6, 3906, 3891, 3919, 3903, 3933, 3921, 0, 1, 9801, -89.900, 0.000, -40.200, 0.000, 0.000, -2.900, 0.0, , , , , , 99, , , 11, 11, 11
37.2865712, -119.5625834, 12.500, 13:47:03.435, 19, 0.00, 0.41, 98, 1.600, 1.300, -39.200, 227, 100, 99, 20, 23447, -18372, 5492, 5605, 5, 14, 1523479623.436, 66, 0, 1024, 1024, 1025, 1024, 0, 6, 3906, 3891, 3919, 3903, 3933, 3921, 0, 1, 9901, -89.900, 0.000, -40.200, 0.000, 0.000, -2.900, 0.0, , , , , , 99, , , 11, 11, 11
37.2865712, -119.5625834, 12.800, 13:47:03.535, 19, 0.00, 0.41, 98, 1.300, 1.500, -39.100, 227, 100, 98, 20, 23447, -18372, 5492, 5605, 5, 14, 1523479623.536, 38, 0, 1024, 1024, 1024, 1024, 0, 6, 3906, 3891, 3919, 3903, 3933, 3921, 0, 1, 10001, -89.900, 0.000, -40.200, 0.000, 0.000, -2.900, 0.0, , , , , , 99, , , 11, 11, 11
37.2865713, -119.5625834, 13.100, 13:47:03.635, 19, 0.00, 0.41, 98, 1.100, 1.700, -39.000, 227, 100, 98, 20, 23447, -18372, 5492, 5605, 5, 14, 1523479623.637, 37, 0, 1024, 1024, 1025, 1024, 0, 6, 3906, 3891, 3919, 3903, 3933, 3921, 0, 1, 10102, -89.900, 0.000, -40.200, 0.000, 0.000, -2.900, 0.0, , , , , , 99, , , 11, 11, 11
37.2865713, -119.5625835, 13.400, 13:47:03.735, 19, 0.00, 0.41, 98, 0.900, 1.900, -39.000, 227, 100, 98, 20, 23447, -18372, 5492, 5605, 5, 14, 1523479623.736, 17, 0, 1024, 1024, 1025, 1024, 0, 6, 3906, 3891, 3919, 3903, 3933, 3921, 0, 1, 10201, -89.900, 0.000, -40.200, 0.000, 0.000, -2.900, 0.0, , , , , , 99, , , 11, 11, 11
37.2865714, -119.5625835, 13.700, 13:47:03.835, 20, 0.00, 0.41, 98, 0.900, 2.100, -38.900, 227, 100, 98, 20, 23447, -18372, 5492, 5605, 5, 14, 1523479623.836, 33, 0, 1024, 1024, 1025, 1024, 0, 6, 3906, 3891, 3919, 3903, 3933, 3921, 0, 1, 10301, -89.900, 0.000, -40.200, 0.000, 0.000, -3.000, 0.0, , , , , , 99, , , 11, 11, 11
37.2865714, -119.5625835, 14.000, 13:47:03.935, 20, 0.00, 0.41, 98, 1.000, 2.200, -39.000, 227, 100, 98, 20, 23509, -17920, 5492, 5605, 5, 14, 1523479623.936, 24, 0, 1024, 1024, 1025, 1024, 0, 6, 3907, 3895, 3919, 3907, 3937, 3930, 0, 1, 10401, -89.900, 0.000, -40.200, 0.000, 0.000, -3.000, 0.0, , , , , , 99, , , 11, 11, 11
37.2865714, -119.5625835, 14.300, 13:47:04.035, 20, 0.00, 0.42, 98, 0.900, 2.100, -38.900, 227, 100, 99, 20, 23509, -17920, 5492, 5605, 5, 14, 1523479624.036, 23, 0, 1024, 1024, 1025, 1024, 0, 6, 3907, 3895, 3919, 3907, 3937, 3930, 0, 1, 10501, -89.900, 0.000, -40.200, 0.000, 0.000, -3.000, 0.0, , , , , , 99, , , 11, 11, 11
37.2865715, -119.5625835, 14.600, 13:47:04.135, 20, 0.00, 0.41, 98, 0.900, 2.200, -38.800, 227, 100, 99, 20, 23509, -17920, 5492, 5605, 5, 14, 1523479624.136, 26, 0, 1024, 1024, 1025, 1024, 0, 6, 3907, 3895, 3919, 3907, 3937, 3930, 0, 1, 10601, -89.900, 0.000, -40.200, 0.000, 0.000, -3.000, 0.0, , , , , , 99, , , 11, 11, 11
37.2865716, -119.5625834, 14.900, 13:47:04.235, 20, 0.00, 0.41, 98, 1.000, 2.100, -38.700, 227, 100, 99, 20, 23509, -17920, 5492, 5605, 5, 14, 1523479624.235, 7, 0, 1024, 1024, 1025, 1024, 0, 6, 3907, 3895, 3919, 3907, 3937, 3930, 0, 1, 10700, -89.900, 0.000, -40.200, 0.000, 0.000, -3.000, 0.0, , , , , , 99, , , 11, 11, 11
37.2865716, -119.5625834, 14.900, 13:47:04.335, 20, 0.00, 0.41, 98, 1.000, 2.100, -38.700, 227, 100, 99, 20, 23509, -17920, 5492, 5605, 5, 14, 1523479624.335, 108, 0, 1024, 1024, 1025, 1024, 0, 6, 3907, 3895, 3919, 3907, 3937, 3930, 0, 1, 10801, -89.900, 0.000, -40.200, 0.000, 0.000, -3.000, 0.0, , , , , , 99, , , 11, 11, 11
37.2865716, -119.5625835, 15.200, 13:47:04.435, 20, 0.00, 0.41, 98, 1.500, 2.400, -38.700, 227, 100, 99, 20, 23509, -17920, 5492, 5605, 5, 14, 1523479624.436, 88, 0, 1024, 1024, 1025, 1024, 0, 6, 3907, 3895, 3919, 3907, 3937, 3930, 0, 1, 10901, -89.900, 0.000, -40.200, 0.000, 0.000, -3.000, 0.0, , , , , , 99, , , 11, 11, 11
37.2865716, -119.5625835, 15.500, 13:47:04.536, 20, 0.00, 0.42, 98, 1.700, 2.700, -38.800, 227, 100, 99, 20, 23509, -17920, 5492, 5605, 5, 14, 1523479624.536, 92, 0, 1024, 1024, 1025, 1024, 0, 6, 3907, 3895, 3919, 3907, 3937, 3930, 0, 1, 11001, -89.900, 0.000, -40.200, 0.000, 0.000, -3.000, 0.0, , , , , , 99, , , 11, 11, 11
37.2865717, -119.5625836, 15.900, 13:47:04.635, 20, 0.00, 0.43, 98, 1.900, 2.900, -38.900, 227, 100, 99, 20, 23509, -17920, 5492, 5605, 5, 14, 1523479624.636, 92, 0, 1024, 1024, 1025, 1024, 0, 6, 3907, 3895, 3919, 3907, 3937, 3930, 0, 1, 11101, -89.900, 0.000, -40.200, 0.000, 0.000, -3.000, 0.0, , , , , , 99, , , 11, 11, 11
37.2865718, -119.5625837, 16.500, 13:47:04.735, 20, 0.00, 0.44, 98, 2.300, 2.700, -39.500, 227, 100, 99, 20, 23509, -17920, 5492, 5605, 5, 14, 1523479624.736, 76, 0, 1024, 1024, 1025, 1024, 0, 6, 3907, 3895, 3919, 3907, 3937, 3930, 0, 1, 11201, -89.900, 0.000, -40.200, 0.000, 0.000, -2.900, 0.0, , , , , , 99, , , 11, 11, 11
37.2865718, -119.5625837, 16.500, 13:47:04.835, 20, 0.00, 0.44, 98, 2.300, 2.700, -39.500, 227, 100, 99, 20, 23509, -17920, 5492, 5605, 5, 14, 1523479624.836, 176, 0, 1024, 1024, 1025, 1024, 0, 6, 3907, 3895, 3919, 3907, 3937, 3930, 0, 1, 11301, -89.900, 0.000, -40.200, 0.000, 0.000, -2.900, 0.0, , , , , , 99, , , 11, 11, 11
37.2865719, -119.5625837, 17.100, 13:47:04.935, 20, 0.00, 0.44, 98, 1.600, 2.800, -39.800, 227, 100, 99, 20, 23396, -18724, 5492, 5605, 5, 14, 1523479624.936, 85, 0, 1024, 1024, 1025, 1024, 0, 6, 3907, 3895, 3919, 3907, 3937, 3930, 0, 1, 11401, -89.900, 0.000, -40.200, 0.000, 0.000, -2.900, 0.0, , , , , , 99, , , 11, 11, 11
37.2865720, -119.5625837, 17.400, 13:47:05.035, 20, 0.00, 0.44, 98, 0.900, 2.900, -39.800, 227, 100, 99, 20, 23396, -18724, 5492, 5605, 5, 14, 1523479625.036, 79, 0, 1024, 1024, 1025, 1024, 0, 6, 3907, 3895, 3919, 3907, 3937, 3930, 0, 1, 11501, -89.900, 0.000, -40.200, 0.000, 0.000, -2.900, 0.0, , , , , , 99, , , 11, 11, 11
37.2865721, -119.5625837, 17.700, 13:47:05.135, 20, 0.00, 0.45, 98, 0.900, 3.000, -39.800, 227, 100, 99, 20, 23396, -18724, 5492, 5605, 5, 14, 1523479625.136, 54, 0, 1024, 1024, 1025, 1024, 0, 6, 3907, 3895, 3919, 3907, 3937, 3930, 0, 1, 11601, -89.900, 0.000, -40.200, 0.000, 0.000, -3.000, 0.0, , , , , , 99, , , 11, 11, 11
37.2865722, -119.5625837, 18.000, 13:47:05.235, 20, 0.00, 0.45, 98, 1.000, 3.200, -39.500, 227, 100, 99, 20, 23396, -18724, 5492, 5605, 5, 14, 1523479625.236, 78, 0, 1024, 1024, 1025, 1024, 0, 6, 3907, 3895, 3919, 3907, 3937, 3930, 0, 1, 11701, -89.900, 0.000, -40.200, 0.000, 0.000, -3.000, 0.0, , , , , , 99, , , 11, 11, 11
37.2865723, -119.5625837, 18.300, 13:47:05.335, 20, 0.00, 0.45, 98, 1.200, 3.600, -39.200, 227, 100, 99, 20, 23396, -18724, 5492, 5605, 5, 14, 1523479625.336, 84, 0, 1024, 1024, 1025, 1024, 0, 6, 3907, 3895, 3919, 3907, 3937, 3930, 0, 1, 11801, -89.900, 0.000, -40.200, 0.000, 0.000, -2.900, 0.0, , , , , , 99, , , 11, 11, 11
37.2865723, -119.5625837, 18.300, 13:47:05.435, 20, 0.00, 0.45, 98, 1.200, 3.600, -39.200, 227, 100, 99, 20, 23396, -18724, 5492, 5605, 5, 14, 1523479625.436, 184, 0, 1024, 1024, 1025, 1024, 0, 6, 3907, 3895, 3919, 3907, 3937, 3930, 0, 1, 11901, -89.900, 0.000, -40.200, 0.000, 0.000, -2.900, 0.0, , , , , , 99, , , 11, 11, 11
37.2865725, -119.5625838, 18.900, 13:47:05.535, 20, 0.00, 0.47, 98, 1.500, 4.300, -38.500, 227, 100, 97, 20, 23396, -18724, 5492, 5605, 5, 14, 1523479625.536, 78, 0, 1024, 1024, 1024, 1024, 0, 6, 3907, 3895, 3919, 3907, 3937, 3930, 0, 1, 12001, -89.900, 0.000, -40.200, 0.000, 0.000, -2.900, 0.0, , , , , , 99, , , 11, 11, 11
37.2865725, -119.5625838, 18.900, 13:47:05.636, 20, 0.00, 0.47, 98, 1.500, 4.300, -38.500, 227, 100, 97, 20, 23396, -18724, 5492, 5605, 5, 14, 1523479625.636, 178, 0, 1024, 1024, 1024, 1024, 0, 6, 3907, 3895, 3919, 3907, 3937, 3930, 0, 1, 12101, -89.900, 0.000, -40.200, 0.000, 0.000, -2.900, 0.0, , , , , , 99, , , 11, 11, 11
37.2865728, -119.5625840, 19.500, 13:47:05.736, 20, 0.00, 0.49, 98, 1.800, 4.700, -38.200, 227, 100, 97, 20, 23396, -18724, 5492, 5605, 5, 14, 1523479625.736, 41, 0, 1024, 1024, 1025, 1024, 0, 6, 3907, 3895, 3919, 3907, 3937, 3930, 0, 1, 12202, -89.900, 0.000, -40.200, 0.000, 0.000, -3.000, 0.0, , , , , , 99, , , 11, 11, 11
37.2865729, -119.5625840, 19.800, 13:47:05.835, 20, 0.00, 0.50, 98, 1.800, 4.800, -38.200, 227, 100, 97, 20, 23396, -18724, 5492, 5605, 5, 14, 1523479625.836, 45, 0, 1024, 1024, 1025, 1024, 0, 6, 3907, 3895, 3919, 3907, 3937, 3930, 0, 1, 12301, -89.900, 0.000, -40.200, 0.000, 0.000, -2.900, 0.0, , , , , , 99, , , 11, 11, 11
37.2865729, -119.5625840, 19.800, 13:47:05.936, 20, 0.00, 0.50, 98, 1.800, 4.800, -38.200, 227, 100, 97, 20, 23396, -18724, 5492, 5605, 5, 14, 1523479625.936, 145, 0, 1024, 1024, 1025, 1024, 0, 6, 3907, 3895, 3919, 3907, 3937, 3930, 0, 1, 12401, -89.900, 0.000, -40.200, 0.000, 0.000, -2.900, 0.0, , , , , , 99, , , 11, 11, 11
37.2865731, -119.5625842, 20.400, 13:47:06.036, 20, 0.00, 0.53, 98, 1.900, 5.200, -38.400, 227, 100, 92, 20, 23396, -18724, 5492, 5605, 5, 14, 1523479626.037, 45, 0, 1024, 1024, 1025, 1024, 0, 6, 3907, 3895, 3919, 3907, 3937, 3930, 0, 1, 12502, -89.900, 0.000, -40.200, 0.000, 0.000, -2.900, 0.0, , , , , , 99, , , 11, 11, 11
37.2865732, -119.5625843, 20.700, 13:47:06.135, 20, 0.00, 0.54, 98, 1.900, 5.300, -38.500, 227, 100, 92, 20, 23396, -18724, 5492, 5605, 5, 14, 1523479626.136, 26, 0, 1024, 1024, 1025, 1024, 0, 6, 3907, 3895, 3919, 3907, 3937, 3930, 0, 1, 12601, -89.900, 0.000, -40.200, 0.000, 0.000, -2.900, 0.0, , , , , , 99, , , 11, 11, 11
37.2865733, -119.5625844, 21.000, 13:47:06.235, 20, 0.00, 0.55, 98, 1.900, 5.300, -38.700, 227, 100, 92, 20, 23396, -18724, 5492, 5605, 5, 14, 1523479626.236, 39, 0, 1024, 1024, 1025, 1024, 0, 6, 3907, 3895, 3919, 3907, 3937, 3930, 0, 1, 12701, -89.900, 0.000, -40.200, 0.000, 0.000, -2.900, 0.0, , , , , , 99, , , 11, 11, 11
37.2865734, -119.5625844, 21.300, 13:47:06.336, 20, 0.00, 0.56, 98, 2.000, 5.400, -38.800, 227, 100, 92, 20, 23396, -18724, 5492, 5605, 5, 14, 1523479626.336, 43, 0, 1024, 1024, 1025, 1024, 0, 6, 3907, 3895, 3919, 3907, 3937, 3930, 0, 1, 12802, -89.900, 0.000, -40.200, 0.000, 0.000, -2.900, 0.0, , , , , , 99, , , 11, 11, 11
37.2865734, -119.5625845, 21.600, 13:47:06.435, 20, 0.00, 0.57, 98, 2.200, 5.500, -38.900, 227, 100, 92, 20, 23336, -18728, 5492, 5605, 5, 14, 1523479626.436, 33, 0, 1024, 1024, 1025, 1024, 0, 6, 3884, 3871, 3896, 3889, 3909, 3914, 0, 1, 12901, -89.900, 0.000, -40.200, 0.000, 0.000, -2.900, 0.0, , , , , , 99, , , 11, 11, 11
37.2865734, -119.5625845, 21.600, 13:47:06.535, 20, 0.00, 0.57, 98, 2.200, 5.500, -38.900, 227, 100, 90, 20, 23336, -18728, 5492, 5605, 5, 14, 1523479626.535, 132, 0, 1024, 1024, 1025, 1024, 0, 6, 3884, 3871, 3896, 3889, 3909, 3914, 0, 1, 13000, -89.900, 0.000, -40.200, 0.000, 0.000, -2.900, 0.0, , , , , , 99, , , 11, 11, 11
37.2865736, -119.5625846, 22.200, 13:47:06.642, 21, 0.00, 0.58, 98, 2.000, 4.900, -39.100, 227, 100, 90, 20, 23336, -18728, 5492, 5605, 5, 14, 1523479626.642, 11, 0, 1024, 1024, 1025, 1024, 0, 6, 3884, 3871, 3896, 3889, 3909, 3914, 0, 1, 13108, -89.900, 0.000, -40.200, 0.000, 0.000, -2.900, 0.0, , , , , , 99, , , 11, 11, 11
37.2865736, -119.5625846, 22.500, 13:47:06.735, 21, 0.00, 0.58, 98, 1.700, 4.800, -39.200, 227, 100, 90, 20, 23336, -18728, 5492, 5605, 5, 14, 1523479626.736, 15, 0, 1024, 1024, 1025, 1024, 0, 6, 3884, 3871, 3896, 3889, 3909, 3914, 0, 1, 13201, -89.900, 0.000, -40.200, 0.000, 0.000, -2.900, 0.0, , , , , , 99, , , 11, 11, 11
37.2865737, -119.5625846, 22.800, 13:47:06.835, 21, 0.00, 0.59, 98, 1.700, 4.700, -39.200, 227, 100, 90, 20, 23336, -18728, 5492, 5605, 5, 14, 1523479626.836, 17, 0, 1024, 1024, 1025, 1024, 0, 6, 3884, 3871, 3896, 3889, 3909, 3914, 0, 1, 13301, -89.900, 0.000, -40.200, 0.000, 0.000, -2.900, 0.0, , , , , , 99, , , 11, 11, 11
37.2865737, -119.5625846, 22.800, 13:47:06.935, 21, 0.00, 0.59, 98, 1.700, 4.700, -39.200, 227, 100, 90, 20, 23336, -18728, 5492, 5605, 5, 14, 1523479626.936, 117, 0, 1024, 1024, 1025, 1024, 0, 6, 3884, 3871, 3896, 3889, 3909, 3914, 0, 1, 13401, -89.900, 0.000, -40.200, 0.000, 0.000, -2.900, 0.0, , , , , , 99, , , 11, 11, 11
37.2865737, -119.5625846, 23.100, 13:47:07.035, 21, 0.00, 0.59, 98, 1.700, 4.800, -39.200, 227, 100, 90, 20, 23336, -18728, 5492, 5605, 5, 14, 1523479627.035, 95, 0, 1024, 1024, 1025, 1024, 0, 6, 3884, 3871, 3896, 3889, 3909, 3914, 0, 1, 13500, -89.900, 0.000, -40.200, 0.000, 0.000, -2.900, 0.0, , , , , , 99, , , 11, 11, 11
37.2865737, -119.5625846, 23.700, 13:47:07.135, 21, 0.00, 0.59, 98, 2.000, 4.500, -39.200, 227, 100, 90, 20, 23336, -18728, 5492, 5605, 5, 14, 1523479627.135, 82, 0, 1024, 1024, 1025, 1024, 0, 6, 3884, 3871, 3896, 3889, 3909, 3914, 0, 1, 13601, -89.900, 0.000, -40.200, 0.000, 0.000, -2.900, 0.0, , , , , , 99, , , 11, 11, 11
37.2865737, -119.5625846, 24.300, 13:47:07.240, 21, 0.00, 0.59, 98, 2.000, 4.400, -39.100, 227, 100, 90, 20, 23336, -18728, 5492, 5605, 5, 14, 1523479627.240, 5, 0, 1024, 1024, 1025, 1024, 0, 6, 3884, 3871, 3896, 3889, 3909, 3914, 0, 1, 13706, -89.900, 0.000, -40.200, 0.000, 0.000, -2.900, 0.0, , , , , , 99, , , 11, 11, 11
37.2865737, -119.5625846, 24.300, 13:47:07.336, 21, 0.00, 0.59, 98, 2.000, 4.400, -39.100, 227, 100, 90, 20, 23336, -18728, 5492, 5605, 5, 14, 1523479627.338, 102, 0, 1024, 1024, 1025, 1024, 0, 6, 3884, 3871, 3896, 3889, 3909, 3914, 0, 1, 13803, -89.900, 0.000, -40.200, 0.000, 0.000, -2.900, 0.0, , , , , , 99, , , 11, 11, 11
37.2865737, -119.5625845, 24.600, 13:47:07.435, 21, 0.00, 0.59, 98, 2.000, 4.400, -39.100, 227, 100, 90, 20, 23332, -18460, 5492, 5605, 5, 14, 1523479627.436, 70, 0, 1024, 1024, 1025, 1024, 0, 6, 3879, 3860, 3881, 3881, 3900, 3906, 0, 1, 13901, -89.900, 0.000, -40.200, 0.000, 0.000, -2.900, 0.0, , , , , , 99, , , 11, 11, 11
37.2865737, -119.5625845, 24.900, 13:47:07.536, 21, 0.10, 0.58, 98, 2.000, 4.400, -39.000, 227, 100, 94, 20, 23332, -18460, 5492, 5605, 5, 14, 1523479627.536, 74, 0, 1024, 1024, 1025, 1024, 0, 6, 3879, 3860, 3881, 3881, 3900, 3906, 0, 1, 14001, -89.900, 0.000, -40.200, -0.100, 0.000, -2.800, 0.0, , , , , , 99, , , 11, 11, 11
37.2865737, -119.5625845, 25.200, 13:47:07.635, 21, 0.10, 0.58, 98, 2.000, 4.300, -39.000, 227, 100, 94, 20, 23332, -18460, 5492, 5605, 5, 14, 1523479627.636, 82, 0, 1024, 1024, 1025, 1024, 0, 6, 3879, 3860, 3881, 3881, 3900, 3906, 0, 1, 14101, -89.900, 0.000, -40.200, -0.100, 0.000, -2.900, 0.0, , , , , , 99, , , 11, 11, 11
37.2865736, -119.5625845, 25.500, 13:47:07.735, 21, 0.10, 0.58, 98, 2.000, 4.300, -39.100, 227, 100, 94, 20, 23332, -18460, 5492, 5605, 5, 14, 1523479627.736, 70, 0, 1024, 1024, 1025, 1024, 0, 6, 3879, 3860, 3881, 3881, 3900, 3906, 0, 1, 14201, -89.900, 0.000, -40.200, -0.100, 0.000, -2.900, 0.0, , , , , , 99, , , 11, 11, 11
37.2865736, -119.5625845, 25.800, 13:47:07.835, 21, 0.10, 0.57, 98, 2.100, 4.300, -39.200, 227, 100, 94, 20, 23332, -18460, 5492, 5605, 5, 14, 1523479627.836, 66, 0, 1024, 1024, 1025, 1024, 0, 6, 3879, 3860, 3881, 3881, 3900, 3906, 0, 1, 14302, -89.900, 0.000, -40.200, -0.100, 0.000, -2.900, 0.0, , , , , , 99, , , 11, 11, 11
37.2865736, -119.5625844, 26.100, 13:47:07.936, 21, 0.10, 0.57, 98, 2.000, 4.200, -39.200, 227, 100, 94, 20, 23332, -18460, 5492, 5605, 5, 14, 1523479627.936, 72, 0, 1024, 1024, 1025, 1024, 0, 6, 3879, 3860, 3881, 3881, 3900, 3906, 0, 1, 14401, -89.900, 0.000, -40.200, -0.100, 0.000, -2.900, 0.0, , , , , , 99, , , 11, 11, 11
37.2865735, -119.5625844, 26.400, 13:47:08.035, 21, 0.10, 0.57, 98, 2.000, 4.100, -39.200, 227, 100, 99, 20, 23332, -18460, 5492, 5605, 5, 14, 1523479628.036, 75, 0, 1024, 1024, 1025, 1024, 0, 6, 3879, 3860, 3881, 3881, 3900, 3906, 0, 1, 14501, -89.900, 0.000, -40.200, -0.100, 0.000, -2.800, 0.0, , , , , , 99, , , 11, 11, 11
37.2865735, -119.5625844, 26.700, 13:47:08.135, 21, 0.10, 0.56, 98, 2.000, 4.100, -39.200, 227, 100, 99, 20, 23332, -18460, 5492, 5605, 5, 14, 1523479628.135, 64, 0, 1024, 1024, 1025, 1024, 0, 6, 3879, 3860, 3881, 3881, 3900, 3906, 0, 1, 14600, -89.900, 0.000, -40.200, -0.100, 0.000, -2.900, 0.0, , , , , , 99, , , 11, 11, 11
37.2865734, -119.5625843, 27.000, 13:47:08.235, 21, 0.10, 0.56, 98, 2.100, 4.000, -39.200, 227, 100, 99, 20, 23332, -18460, 5492, 5605, 5, 14, 1523479628.236, 24, 0, 1024, 1024, 1025, 1024, 0, 6, 3879, 3860, 3881, 3881, 3900, 3906, 0, 1, 14701, -89.900, 0.000, -40.200, -0.100, 0.000, -2.900, 0.0, , , , , , 99, , , 11, 11, 11
37.2865734, -119.5625843, 27.300, 13:47:08.336, 21, 0.10, 0.55, 98, 2.100, 3.900, -39.200, 227, 100, 99, 20, 23332, -18460, 5492, 5605, 5, 14, 1523479628.336, 50, 0, 1024, 1024, 1025, 1024, 0, 6, 3879, 3860, 3881, 3881, 3900, 3906, 0, 1, 14801, -89.900, 0.000, -40.200, -0.100, 0.000, -2.900, 0.0, , , , , , 99, , , 11, 11, 11
37.2865734, -119.5625843, 27.600, 13:47:08.435, 22, 0.10, 0.55, 98, 2.100, 3.900, -39.100, 227, 100, 99, 20, 23271, -18907, 5492, 5605, 5, 14, 1523479628.436, 46, 0, 1024, 1024, 1025, 1024, 0, 6, 3864, 3851, 3874, 3870, 3889, 3894, 0, 1, 14901, -89.900, 0.000, -40.200, -0.100, 0.000, -2.900, 0.0, , , , , , 99, , , 11, 11, 11
37.2865734, -119.5625843, 27.900, 13:47:08.536, 22, 0.00, 0.55, 98, 2.200, 4.000, -39.100, 227, 100, 96, 20, 23271, -18907, 5492, 5605, 5, 14, 1523479628.536, 46, 0, 1024, 1024, 1025, 1024, 0, 6, 3864, 3851, 3874, 3870, 3889, 3894, 0, 1, 15001, -90.000, 0.000, -40.200, 0.000, 0.000, -3.000, 0.0, , , , , , 99, , , 11, 11, 11
37.2865733, -119.5625843, 28.200, 13:47:08.635, 22, 0.00, 0.55, 98, 2.200, 4.100, -39.000, 227, 100, 96, 20, 23271, -18907, 5492, 5605, 5, 14, 1523479628.636, 37, 0, 1024, 1024, 1025, 1024, 0, 6, 3864, 3851, 3874, 3870, 3889, 3894, 0, 1, 15101, -89.900, 0.000, -40.200, 0.000, 0.000, -2.900, 0.0, , , , , , 99, , , 11, 11, 11
37.2865733, -119.5625842, 28.500, 13:47:08.736, 22, 0.00, 0.54, 98, 2.100, 4.200, -39.000, 227, 100, 96, 20, 23271, -18907, 5492, 5605, 5, 14, 1523479628.737, 37, 0, 1024, 1024, 1025, 1024, 0, 6, 3864, 3851, 3874, 3870, 3889, 3894, 0, 1, 15202, -89.900, 0.000, -40.200, 0.000, 0.000, -3.000, 0.0, , , , , , 99, , , 11, 11, 11
37.2865733, -119.5625842, 28.800, 13:47:08.835, 22, 0.00, 0.54, 98, 2.100, 4.300, -39.000, 227, 100, 96, 20, 23271, -18907, 5492, 5605, 5, 14, 1523479628.835, 46, 0, 1024, 1024, 1025, 1024, 0, 6, 3864, 3851, 3874, 3870, 3889, 3894, 0, 1, 15300, -89.900, 0.000, -40.200, 0.000, 0.000, -2.900, 0.0, , , , , , 99, , , 11, 11, 11
37.2865733, -119.5625842, 29.100, 13:47:08.935, 22, 0.00, 0.54, 98, 2.100, 4.400, -39.000, 227, 100, 96, 20, 23271, -18907, 5492, 5605, 5, 14, 1523479628.936, 35, 0, 1024, 1024, 1025, 1024, 0, 6, 3864, 3851, 3874, 3870, 3889, 3894, 0, 1, 15401, -89.900, 0.000, -40.200, 0.000, 0.000, -2.900, 0.0, , , , , , 99, , , 11, 11, 11
37.2865733, -119.5625842, 29.400, 13:47:09.036, 22, 0.00, 0.53, 98, 2.100, 4.500, -39.000, 227, 100, 96, 20, 23271, -18907, 5492, 5605, 5, 14, 1523479629.036, 15, 0, 1024, 1024, 1025, 1024, 0, 6, 3864, 3851, 3874, 3870, 3889, 3894, 0, 1, 15501, -89.900, 0.000, -40.200, 0.000, 0.000, -2.900, 0.0, , , , , , 99, , , 11, 11, 11
37.2865733, -119.5625841, 29.700, 13:47:09.136, 22, 0.00, 0.53, 98, 2.200, 4.500, -39.000, 227, 100, 96, 20, 23271, -18907, 5492, 5605, 5, 14, 1523479629.136, 17, 0, 1024, 1024, 1025, 1024, 0, 6, 3864, 3851, 3874, 3870, 3889, 3894, 0, 1, 15602, -89.900, 0.000, -40.200, 0.000, 0.000, -2.900, 0.0, , , , , , 99, , , 11, 11, 11
37.2865733, -119.5625841, 30.000, 13:47:09.251, 22, 0.00, 0.53, 98, 2.000, 4.400, -39.000, 227, 100, 96, 20, 23271, -18907, 5492, 5605, 5, 14, 1523479629.251, 4, 0, 1024, 1024, 1025, 1024, 0, 6, 3864, 3851, 3874, 3870, 3889, 3894, 0, 1, 15716, -89.900, 0.000, -40.200, 0.000, 0.000, -2.900, 0.0, , , , , , 99, , , 11, 11, 11
37.2865732, -119.5625841, 30.200, 13:47:09.335, 22, 0.00, 0.53, 98, 1.900, 4.400, -39.000, 227, 100, 96, 20, 23271, -18907, 5492, 5605, 5, 14, 1523479629.335, 4, 0, 1024, 1024, 1025, 1024, 0, 6, 3864, 3851, 3874, 3870, 3889, 3894, 0, 1, 15801, -89.900, 0.000, -40.200, 0.000, 0.000, -2.800, 0.0, , , , , , 99, , , 11, 11, 11
37.2865732, -119.5625841, 30.200, 13:47:09.435, 22, 0.00, 0.53, 98, 1.900, 4.400, -39.000, 227, 100, 96, 20, 23271, -18907, 5492, 5605, 5, 14, 1523479629.436, 104, 0, 1024, 1024, 1025, 1024, 0, 6, 3864, 3851, 3874, 3870, 3889, 3894, 0, 1, 15901, -89.900, 0.000, -40.200, 0.000, 0.000, -2.800, 0.0, , , , , , 99, , , 11, 11, 11
37.2865731, -119.5625841, 30.800, 13:47:09.536, 22, 0.10, 0.52, 98, 2.300, 4.300, -39.000, 227, 100, 96, 20, 23199, -19433, 5492, 5605, 5, 14, 1523479629.536, 92, 0, 1024, 1024, 1025, 1024, 0, 6, 3867, 3854, 3874, 3864, 3887, 3874, 0, 1, 16001, -89.900, 0.000, -40.200, -0.100, 0.000, -2.900, 0.0, , , , , , 99, , , 11, 11, 11
37.2865731, -119.5625841, 31.100, 13:47:09.635, 22, 0.10, 0.52, 98, 2.600, 4.300, -39.000, 227, 100, 96, 20, 23199, -19433, 5492, 5605, 5, 14, 1523479629.635, 88, 0, 1024, 1024, 1025, 1024, 0, 6, 3867, 3854, 3874, 3864, 3887, 3874, 0, 1, 16100, -89.900, 0.000, -40.200, -0.100, 0.000, -2.900, 0.0, , , , , , 99, , , 11, 11, 11
37.2865730, -119.5625841, 31.400, 13:47:09.736, 22, 0.10, 0.52, 98, 2.700, 4.200, -39.000, 227, 100, 96, 20, 23199, -19433, 5492, 5605, 5, 14, 1523479629.736, 88, 0, 1024, 1024, 1025, 1024, 0, 6, 3867, 3854, 3874, 3864, 3887, 3874, 0, 1, 16201, -89.900, 0.000, -40.200, -0.100, 0.000, -2.800, 0.0, , , , , , 99, , , 11, 11, 11
37.2865730, -119.5625841, 31.700, 13:47:09.836, 22, 0.10, 0.52, 98, 2.900, 4.000, -38.900, 227, 100, 96, 20, 23199, -19433, 5492, 5605, 5, 14, 1523479629.836, 79, 0, 1024, 1024, 1024, 1024, 0, 6, 3867, 3854, 3874, 3864, 3887, 3874, 0, 1, 16301, -90.000, 0.000, -40.200, -0.100, 0.000, -2.800, 0.0, , , , , , 99, , , 11, 11, 11
37.2865730, -119.5625841, 32.000, 13:47:09.936, 22, 0.00, 0.51, 98, 2.800, 4.000, -38.900, 227, 100, 96, 20, 23199, -19433, 5492, 5605, 5, 14, 1523479629.936, 86, 0, 1024, 1024, 1025, 1024, 0, 6, 3867, 3854, 3874, 3864, 3887, 3874, 0, 1, 16401, -89.900, 0.000, -40.200, 0.000, 0.000, -2.900, 0.0, , , , , , 99, , , 11, 11, 11
37.2865729, -119.5625841, 32.600, 13:47:10.039, 22, 0.00, 0.51, 98, 2.600, 4.300, -39.100, 227, 100, 99, 20, 23199, -19433, 5492, 5605, 5, 14, 1523479630.040, 6, 0, 1024, 1024, 1025, 1024, 0, 6, 3867, 3854, 3874, 3864, 3887, 3874, 0, 1, 16506, -89.900, 0.000, -40.200, 0.000, 0.000, -3.000, 0.0, , , , , , 99, , , 11, 11, 11
37.2865729, -119.5625841, 32.600, 13:47:10.136, 22, 0.00, 0.51, 98, 2.600, 4.300, -39.100, 227, 100, 99, 20, 23199, -19433, 5492, 5605, 5, 14, 1523479630.136, 101, 0, 1024, 1024, 1025, 1024, 0, 6, 3867, 3854, 3874, 3864, 3887, 3874, 0, 1, 16601, -89.900, 0.000, -40.200, 0.000, 0.000, -3.000, 0.0, , , , , , 99, , , 11, 11, 11
37.2865729, -119.5625841, 32.900, 13:47:10.236, 22, 0.00, 0.51, 98, 2.600, 4.300, -39.200, 227, 100, 99, 20, 23199, -19433, 5492, 5605, 5, 14, 1523479630.236, 64, 0, 1024, 1024, 1025, 1024, 0, 6, 3867, 3854, 3874, 3864, 3887, 3874, 0, 1, 16701, -89.900, 0.000, -40.200, 0.000, 0.000, -3.100, 0.0, , , , , , 99, , , 11, 11, 11
37.2865729, -119.5625840, 33.200, 13:47:10.336, 22, 0.00, 0.50, 98, 2.600, 4.400, -39.200, 227, 100, 99, 20, 23199, -19433, 5492, 5605, 5, 14, 1523479630.336, 69, 0, 1024, 1024, 1025, 1024, 0, 6, 3867, 3854, 3874, 3864, 3887, 3874, 0, 1, 16801, -89.900, 0.000, -40.200, 0.000, 0.000, -3.000, 0.0, , , , , , 99, , , 11, 11, 11
37.2865729, -119.5625840, 33.500, 13:47:10.436, 22, 0.00, 0.50, 98, 2.500, 4.400, -39.200, 227, 100, 99, 20, 23142, -19583, 5492, 5605, 5, 14, 1523479630.436, 86, 0, 1024, 1024, 1025, 1024, 0, 6, 3867, 3854, 3874, 3864, 3887, 3874, 0, 1, 16901, -89.900, 0.000, -40.200, 0.000, 0.000, -3.000, 0.0, , , , , , 99, , , 11, 11, 11
37.2865728, -119.5625839, 33.800, 13:47:10.535, 22, 0.00, 0.49, 98, 2.400, 4.200, -39.300, 227, 100, 95, 20, 23142, -19583, 5492, 5605, 5, 14, 1523479630.535, 69, 0, 1024, 1024, 1025, 1024, 0, 6, 3867, 3854, 3874, 3864, 3887, 3874, 0, 1, 17001, -90.000, 0.000, -40.200, 0.000, 0.000, -3.000, 0.0, , , , , , 99, , , 11, 11, 11
37.2865728, -119.5625838, 34.100, 13:47:10.636, 22, 0.00, 0.48, 98, 2.300, 4.000, -39.300, 227, 100, 95, 20, 23142, -19583, 5492, 5605, 5, 14, 1523479630.636, 60, 0, 1024, 1024, 1025, 1024, 0, 6, 3867, 3854, 3874, 3864, 3887, 3874, 0, 1, 17101, -89.900, 0.000, -40.200, 0.000, 0.000, -2.900, 0.0, , , , , , 99, , , 11, 11, 11
37.2865728, -119.5625838, 34.400, 13:47:10.736, 22, 0.00, 0.48, 98, 2.200, 4.000, -39.300, 227, 100, 95, 20, 23142, -19583, 5492, 5605, 5, 14, 1523479630.736, 63, 0, 1024, 1024, 1025, 1024, 0, 6, 3867, 3854, 3874, 3864, 3887, 3874, 0, 1, 17202, -89.900, 0.000, -40.200, 0.000, 0.000, -3.000, 0.0, , , , , , 99, , , 11, 11, 11
37.2865728, -119.5625837, 34.700, 13:47:10.836, 22, 0.00, 0.47, 98, 2.000, 4.100, -39.200, 227, 100, 95, 20, 23142, -19583, 5492, 5605, 5, 14, 1523479630.836, 66, 0, 1024, 1024, 1025, 1024, 0, 6, 3867, 3854, 3874, 3864, 3887, 3874, 0, 1, 17301, -89.900, 0.000, -40.200, 0.000, 0.000, -3.000, 0.0, , , , , , 99, , , 11, 11, 11
37.2865728, -119.5625836, 35.100, 13:47:10.935, 22, 0.00, 0.47, 98, 1.700, 4.400, -39.200, 227, 100, 95, 20, 23142, -19583, 5436, 5605, 5, 14, 1523479630.936, 50, 0, 1024, 1024, 1025, 1024, 0, 6, 3850, 3833, 3853, 3858, 3876, 3871, 0, 1, 17401, -89.900, 0.000, -40.200, 0.000, 0.000, -3.000, 0.0, , , , , , 99, , , 11, 11, 11
37.2865728, -119.5625836, 35.400, 13:47:11.036, 22, 0.00, 0.47, 98, 1.600, 4.500, -39.200, 227, 100, 94, 20, 23142, -19583, 5436, 5605, 5, 14, 1523479631.036, 36, 0, 1024, 1024, 1025, 1024, 0, 6, 3850, 3833, 3853, 3858, 3876, 3871, 0, 1, 17501, -89.900, 0.000, -40.200, 0.000, 0.000, -3.000, 0.0, , , , , , 99, , , 11, 11, 11
37.2865728, -119.5625835, 35.700, 13:47:11.135, 22, 0.00, 0.46, 98, 1.600, 4.400, -39.100, 227, 100, 94, 20, 23142, -19583, 5436, 5605, 5, 14, 1523479631.136, 29, 0, 1024, 1024, 1025, 1024, 0, 6, 3850, 3833, 3853, 3858, 3876, 3871, 0, 1, 17601, -89.900, 0.000, -40.200, 0.000, 0.000, -3.000, 0.0, , , , , , 99, , , 11, 11, 11
37.2865728, -119.5625835, 36.000, 13:47:11.236, 22, 0.00, 0.46, 98, 2.100, 4.400, -39.100, 227, 100, 94, 20, 23142, -19583, 5436, 5605, 5, 14, 1523479631.236, 23, 0, 1024, 1024, 1025, 1024, 0, 6, 3850, 3833, 3853, 3858, 3876, 3871, 0, 1, 17701, -89.900, 0.000, -40.200, 0.000, 0.000, -3.000, 0.0, , , , , , 99, , , 11, 11, 11
37.2865728, -119.5625835, 36.300, 13:47:11.336, 22, 0.00, 0.46, 98, 2.300, 4.500, -39.000, 227, 100, 94, 20, 23142, -19583, 5436, 5605, 5, 14, 1523479631.336, 39, 0, 1024, 1024, 1025, 1024, 0, 6, 3850, 3833, 3853, 3858, 3876, 3871, 0, 1, 17801, -89.900, 0.000, -40.200, 0.000, 0.000, -3.000, 0.0, , , , , , 99, , , 11, 11, 11
37.2865728, -119.5625835, 36.600, 13:47:11.436, 22, 0.00, 0.46, 98, 2.400, 4.600, -39.000, 227, 100, 94, 21, 23142, -19583, 5436, 5605, 5, 14, 1523479631.436, 33, 0, 1024, 1024, 1025, 1024, 0, 6, 3850, 3833, 3853, 3858, 3876, 3871, 0, 1, 17902, -89.900, 0.000, -40.200, 0.000, 0.000, -2.900, 0.0, , , , , , 99, , , 11, 11, 11
37.2865728, -119.5625835, 36.900, 13:47:11.536, 22, 0.00, 0.46, 98, 2.400, 4.600, -39.000, 227, 100, 94, 21, 23142, -19583, 5436, 5605, 5, 14, 1523479631.536, 34, 0, 1024, 1024, 1025, 1024, 0, 6, 3850, 3833, 3853, 3858, 3876, 3871, 0, 1, 18001, -89.900, 0.000, -40.200, 0.000, 0.000, -2.900, 0.0, , , , , , 99, , , 11, 11, 11
37.2865728, -119.5625835, 37.200, 13:47:11.635, 22, 0.00, 0.46, 98, 2.300, 4.500, -39.000, 227, 100, 94, 21, 23142, -19583, 5436, 5605, 5, 14, 1523479631.636, 39, 0, 1024, 1024, 1025, 1024, 0, 6, 3850, 3833, 3853, 3858, 3876, 3871, 0, 1, 18101, -89.900, 0.000, -40.200, 0.000, 0.000, -2.900, 0.0, , , , , , 99, , , 11, 11, 11
37.2865728, -119.5625835, 37.500, 13:47:11.739, 22, 0.00, 0.45, 98, 2.300, 4.400, -39.000, 227, 100, 94, 21, 23142, -19583, 5436, 5605, 5, 14, 1523479631.739, 5, 0, 1024, 1024, 1025, 1024, 0, 6, 3850, 3833, 3853, 3858, 3876, 3871, 0, 1, 18205, -89.900, 0.000, -40.200, 0.000, 0.000, -2.900, 0.0, , , , , , 99, , , 11, 11, 11
37.2865727, -119.5625835, 37.800, 13:47:11.838, 22, 0.00, 0.45, 98, 2.300, 4.200, -39.100, 227, 100, 94, 21, 23142, -19583, 5436, 5605, 5, 14, 1523479631.838, 4, 0, 1024, 1024, 1025, 1024, 0, 6, 3850, 3833, 3853, 3858, 3876, 3871, 0, 1, 18303, -89.900, 0.000, -40.200, 0.000, 0.000, -2.900, 0.0, , , , , , 99, , , 11, 11, 11
37.2865727, -119.5625834, 38.100, 13:47:11.937, 22, 0.00, 0.45, 97, 2.200, 4.200, -39.100, 227, 100, 94, 21, 23187, -19669, 5436, 5605, 5, 14, 1523479631.938, 7, 0, 1024, 1024, 1025, 1024, 0, 6, 3850, 3833, 3853, 3858, 3876, 3871, 0, 1, 18403, -90.000, 0.000, -40.200, 0.000, 0.000, -3.000, 0.0, , , , , , 99, , , 11, 11, 11
37.2865727, -119.5625834, 38.400, 13:47:12.036, 22, 0.00, 0.44, 97, 2.200, 4.100, -39.200, 227, 100, 96, 21, 23187, -19669, 5436, 5605, 5, 14, 1523479632.037, 10, 0, 1024, 1024, 1025, 1024, 0, 6, 3848, 3844, 3865, 3858, 3883, 3876, 0, 1, 18502, -89.900, 0.000, -40.200, 0.000, 0.000, -2.900, 0.0, , , , , , 99, , , 11, 11, 11
37.2865727, -119.5625834, 38.400, 13:47:12.136, 22, 0.00, 0.44, 97, 2.200, 4.100, -39.200, 227, 100, 96, 21, 23187, -19669, 5436, 5605, 5, 14, 1523479632.136, 109, 0, 1024, 1024, 1025, 1024, 0, 6, 3848, 3844, 3865, 3858, 3883, 3876, 0, 1, 18601, -89.900, 0.000, -40.200, 0.000, 0.000, -2.900, 0.0, , , , , , 99, , , 11, 11, 11
37.2865727, -119.5625833, 39.000, 13:47:12.236, 22, 0.00, 0.44, 97, 2.300, 4.000, -39.100, 227, 100, 96, 21, 23187, -19669, 5436, 5605, 5, 14, 1523479632.236, 74, 0, 1024, 1024, 1025, 1024, 0, 6, 3848, 3844, 3865, 3858, 3883, 3876, 0, 1, 18701, -89.900, 0.000, -40.200, 0.000, 0.000, -2.900, 0.0, , , , , , 99, , , 11, 11, 11
37.2865726, -119.5625833, 39.600, 13:47:12.341, 22, 0.00, 0.43, 97, 2.300, 4.200, -39.100, 227, 100, 96, 21, 23187, -19669, 5436, 5605, 5, 14, 1523479632.342, 5, 0, 1024, 1024, 1025, 1024, 0, 6, 3848, 3844, 3865, 3858, 3883, 3876, 0, 1, 18807, -89.900, 0.000, -40.200, 0.000, 0.000, -2.900, 0.0, , , , , , 99, , , 11, 11, 11
37.2865726, -119.5625833, 39.600, 13:47:12.436, 22, 0.00, 0.43, 97, 2.300, 4.200, -39.100, 227, 100, 96, 21, 23187, -19669, 5436, 5605, 5, 14, 1523479632.437, 100, 0, 1024, 1024, 1025, 1024, 0, 6, 3848, 3844, 3865, 3858, 3883, 3876, 0, 1, 18902, -89.900, 0.000, -40.200, 0.000, 0.000, -2.900, 0.0, , , , , , 99, , , 11, 11, 11
37.2865726, -119.5625833, 39.900, 13:47:12.536, 22, 0.00, 0.43, 97, 2.400, 4.200, -39.100, 227, 100, 96, 21, 23187, -19669, 5436, 5605, 5, 14, 1523479632.536, 76, 0, 1024, 1024, 1025, 1024, 0, 6, 3848, 3844, 3865, 3858, 3883, 3876, 0, 1, 19001, -90.000, 0.000, -40.200, 0.000, 0.000, -2.900, 0.0, , , , , , 99, , , 11, 11, 11
37.2865726, -119.5625833, 40.200, 13:47:12.636, 22, 0.00, 0.43, 97, 2.500, 4.200, -39.100, 227, 100, 96, 21, 23187, -19669, 5436, 5605, 5, 14, 1523479632.638, 86, 0, 1024, 1024, 1025, 1024, 0, 6, 3848, 3844, 3865, 3858, 3883, 3876, 0, 1, 19103, -89.900, 0.000, -40.200, 0.000, 0.000, -2.900, 0.0, , , , , , 99, , , 11, 11, 11
37.2865726, -119.5625833, 40.400, 13:47:12.736, 22, 0.00, 0.43, 97, 2.500, 4.300, -39.200, 227, 100, 96, 21, 23187, -19669, 5436, 5605, 5, 14, 1523479632.736, 77, 0, 1024, 1024, 1025, 1024, 0, 6, 3848, 3844, 3865, 3858, 3883, 3876, 0, 1, 19201, -89.900, 0.000, -40.200, 0.000, 0.000, -2.900, 0.0, , , , , , 99, , , 11, 11, 11
37.2865726, -119.5625833, 40.400, 13:47:12.836, 22, 0.00, 0.43, 97, 2.500, 4.300, -39.200, 227, 100, 96, 21, 23187, -19669, 5436, 5605, 5, 14, 1523479632.836, 177, 0, 1024, 1024, 1025, 1024, 0, 6, 3848, 3844, 3865, 3858, 3883, 3876, 0, 1, 19302, -89.900, 0.000, -40.200, 0.000, 0.000, -2.900, 0.0, , , , , , 99, , , 11, 11, 11
37.2865725, -119.5625832, 41.000, 13:47:12.936, 22, 0.00, 0.42, 97, 2.300, 4.000, -39.100, 227, 100, 96, 21, 23217, -18743, 5436, 5605, 5, 14, 1523479632.936, 65, 0, 1024, 1024, 1025, 1024, 0, 6, 3856, 3849, 3859, 3858, 3887, 3870, 0, 1, 19401, -89.900, 0.000, -40.200, 0.000, 0.000, -2.900, 0.0, , , , , , 99, , , 11, 11, 11
37.2865725, -119.5625832, 41.300, 13:47:13.036, 22, 0.00, 0.42, 97, 2.400, 4.000, -39.100, 227, 100, 96, 21, 23217, -18743, 5436, 5605, 5, 14, 1523479633.036, 70, 0, 1024, 1024, 1025, 1024, 0, 6, 3856, 3849, 3859, 3858, 3887, 3870, 0, 1, 19501, -89.900, 0.000, -40.200, 0.000, 0.000, -2.800, 0.0, , , , , , 99, , , 11, 11, 11
37.2865725, -119.5625832, 41.600, 13:47:13.136, 22, 0.00, 0.42, 97, 2.400, 3.900, -39.200, 227, 100, 96, 21, 23217, -18743, 5436, 5605, 5, 14, 1523479633.136, 61, 0, 1024, 1024, 1024, 1024, 0, 6, 3856, 3849, 3859, 3858, 3887, 3870, 0, 1, 19601, -90.000, 0.000, -40.200, 0.000, 0.000, -2.900, 0.0, , , , , , 99, , , 11, 11, 11
37.2865725, -119.5625832, 41.900, 13:47:13.236, 22, 0.00, 0.42, 97, 2.300, 3.700, -39.200, 227, 100, 96, 21, 23217, -18743, 5436, 5605, 5, 14, 1523479633.236, 50, 0, 1024, 1024, 1025, 1024, 0, 6, 3856, 3849, 3859, 3858, 3887, 3870, 0, 1, 19701, -90.000, 0.000, -40.200, 0.000, 0.000, -2.900, 0.0, , , , , , 99, , , 11, 11, 11
37.2865725, -119.5625832, 41.900, 13:47:13.335, 22, 0.00, 0.42, 97, 2.300, 3.700, -39.200, 227, 100, 96, 21, 23217, -18743, 5436, 5605, 5, 14, 1523479633.335, 150, 0, 1024, 1024, 1025, 1024, 0, 6, 3856, 3849, 3859, 3858, 3887, 3870, 0, 1, 19801, -90.000, 0.000, -40.200, 0.000, 0.000, -2.900, 0.0, , , , , , 99, , , 11, 11, 11
37.2865725, -119.5625831, 42.500, 13:47:13.435, 22, 0.00, 0.41, 97, 2.200, 3.200, -39.100, 227, 100, 96, 21, 23217, -18743, 5436, 5605, 5, 14, 1523479633.435, 15, 0, 1024, 1024, 1025, 1024, 0, 6, 3856, 3849, 3859, 3858, 3887, 3870, 0, 1, 19901, -89.900, 0.000, -40.200, 0.000, 0.000, -2.900, 0.0, , , , , , 99, , , 11, 11, 11
37.2865725, -119.5625831, 42.800, 13:47:13.551, 22, 0.00, 0.41, 97, 2.000, 3.700, -39.000, 227, 100, 95, 21, 23217, -18743, 5436, 5605, 5, 14, 1523479633.551, 15, 0, 1024, 1024, 1025, 1024, 0, 6, 3856, 3849, 3859, 3858, 3887, 3870, 0, 1, 20016, -89.900, 0.000, -40.200, 0.000, 0.000, -2.900, 0.0, , , , , , 99, , , 11, 11, 11
37.2865725, -119.5625831, 43.100, 13:47:13.636, 22, 0.00, 0.41, 97, 2.200, 4.100, -38.900, 227, 100, 95, 21, 23217, -18743, 5436, 5605, 5, 14, 1523479633.636, 17, 0, 1024, 1024, 1025, 1024, 0, 6, 3856, 3849, 3859, 3858, 3887, 3870, 0, 1, 20101, -89.900, 0.000, -40.200, 0.000, 0.000, -3.000, 0.0, , , , , , 99, , , 11, 11, 11
37.2865725, -119.5625832, 43.400, 13:47:13.735, 22, 0.00, 0.42, 97, 2.400, 4.400, -38.900, 227, 100, 95, 21, 23217, -18743, 5436, 5605, 5, 14, 1523479633.736, 32, 0, 1024, 1024, 1025, 1024, 0, 6, 3856, 3849, 3859, 3858, 3887, 3870, 0, 1, 20201, -89.900, 0.000, -40.200, 0.000, 0.000, -3.000, 0.0, , , , , , 99, , , 11, 11, 11
37.2865725, -119.5625832, 43.400, 13:47:13.836, 22, 0.00, 0.42, 97, 2.400, 4.400, -38.900, 227, 100, 95, 21, 23217, -18743, 5436, 5605, 5, 14, 1523479633.836, 132, 0, 1024, 1024, 1025, 1024, 0, 6, 3856, 3849, 3859, 3858, 3887, 3870, 0, 1, 20301, -89.900, 0.000, -40.200, 0.000, 0.000, -3.000, 0.0, , , , , , 99, , , 11, 11, 11
37.2865726, -119.5625833, 44.000, 13:47:13.936, 22, 0.00, 0.43, 97, 2.400, 4.900, -38.900, 227, 100, 91, 21, 23136, -19475, 5436, 5605, 5, 14, 1523479633.936, 18, 0, 1024, 1024, 1025, 1024, 0, 6, 3852, 3827, 3850, 3842, 3862, 3863, 0, 1, 20401, -89.900, 0.000, -40.200, 0.000, 0.000, -3.000, 0.0, , , , , , 99, , , 11, 11, 11
37.2865726, -119.5625833, 44.300, 13:47:14.040, 22, 0.00, 0.43, 97, 2.500, 5.200, -38.900, 227, 100, 91, 21, 23136, -19475, 5436, 5605, 5, 14, 1523479634.041, 9, 0, 1024, 1024, 1025, 1024, 0, 6, 3852, 3827, 3850, 3842, 3862, 3863, 0, 1, 20506, -89.900, 0.000, -40.200, 0.000, 0.000, -3.000, 0.0, , , , , , 99, , , 11, 11, 11
37.2865726, -119.5625833, 44.300, 13:47:14.136, 22, 0.00, 0.43, 97, 2.500, 5.200, -38.900, 227, 100, 91, 21, 23136, -19475, 5436, 5605, 5, 14, 1523479634.136, 105, 0, 1024, 1024, 1024, 1024, 0, 6, 3852, 3827, 3850, 3842, 3862, 3863, 0, 1, 20601, -89.900, 0.000, -40.200, 0.000, 0.000, -3.000, 0.0, , , , , , 99, , , 11, 11, 11
37.2865727, -119.5625833, 45.200, 13:47:14.235, 22, 0.00, 0.44, 97, 2.400, 5.100, -39.100, 227, 100, 91, 21, 23136, -19475, 5436, 5605, 5, 14, 1523479634.235, 6, 0, 1024, 1024, 1025, 1024, 0, 6, 3852, 3827, 3850, 3842, 3862, 3863, 0, 1, 20700, -89.900, 0.000, -40.200, 0.000, 0.000, -2.900, 0.0, , , , , , 99, , , 11, 11, 11
37.2865728, -119.5625833, 45.500, 13:47:14.335, 22, 0.00, 0.44, 97, 2.300, 4.800, -39.100, 227, 100, 91, 21, 23136, -19475, 5436, 5605, 5, 14, 1523479634.336, 11, 0, 1024, 1024, 1024, 1024, 0, 6, 3852, 3827, 3850, 3842, 3862, 3863, 0, 1, 20801, -89.900, 0.000, -40.200, 0.000, 0.000, -2.800, 0.0, , , , , , 99, , , 11, 11, 11
37.2865728, -119.5625833, 45.800, 13:47:14.447, 22, 0.00, 0.44, 97, 2.000, 4.500, -39.200, 227, 100, 94, 21, 23136, -19475, 5436, 5605, 5, 14, 1523479634.448, 12, 0, 1024, 1024, 1025, 1024, 0, 6, 3852, 3827, 3850, 3842, 3862, 3863, 0, 1, 20913, -89.900, 0.000, -40.200, 0.000, 0.000, -2.900, 0.0, , , , , , 99, , , 11, 11, 11
