latitude,longitude,altitude(feet),ascent(feet),speed(mph),distance(feet),time(millisecond),datetime(utc),satellites,gpslevel,voltage(v),max_altitude(feet),max_ascent(feet),max_speed(mph),max_distance(feet), xSpeed(mph), ySpeed(mph), zSpeed(mph), compass_heading(degrees), pitch(degrees), roll(degrees),isPhoto,isVideo,rc_elevator,rc_aileron,rc_throttle,rc_rudder,gimbal_heading(degrees),gimbal_pitch(degrees),battery_percent,voltageCell1,voltageCell2,voltageCell3,voltageCell4,voltageCell5,voltageCell6,current(A),battery_temperature(f),flycStateRaw,flycState,message
37.2865881,-119.5625621,4499.1181780925,0,0,0,3060,2018-04-11 21:06:17,17,0,0,4499.1181780925,0,0,0,0,0,0,316.1, 0, -0.8,1,0,1024,1024,1024,1024,314.9,-90,98,4.172,4.156,4.199,4.169,0,0,0,69.8,11,AutoTakeoff,DJI_0701.jpg Starting Mission from Lat/Long: 37.28659/-119.56255 Camera: Zenmuse X3 - Overlap: 90/90 - Active Connection: Yes
37.286588,-119.5625624,4499.1181780925,0,0.223694,0.094417982024,3100,2018-04-11 21:06:18,17,0,0,4499.1181780925,0,0.223694,0.094417982024,0,0,0,315.9, 0, 0,0,0,1024,1024,1024,1024,314.9,-89.9,98,4.172,4.156,4.199,4.169,0,0,0,69.8,11,AutoTakeoff,
37.286588,-119.5625626,4499.4462620925,0.328084,0.223694,0.1496555166,3200,2018-04-11 21:06:18,17,0,0,4499.4462620925,0.328084,0.223694,0.1496555166,0,0,0,316, 0.1, 0.2,0,0,1024,1024,1024,1024,314.9,-89.9,98,4.172,4.156,4.199,4.169,0,0,0,69.8,11,AutoTakeoff,
37.2865879,-119.5625627,4499.4462620925,0.328084,0.223694,0.188835964048,3300,2018-04-11 21:06:18,17,0,0,4499.4462620925,0.328084,0.223694,0.188835964048,0,0,0,316.1, 0.4, 0.3,0,0,1024,1024,1024,1024,314.9,-89.9,98,4.172,4.156,4.199,4.169,0,0,0,69.8,11,AutoTakeoff,
37.2865879,-119.5625629,4499.7743460925,0.656168,0.223694,0.243418314876,3400,2018-04-11 21:06:18,17,0,0,4499.7743460925,0.656168,0.223694,0.243418314876,0,0,0,316, 0.7, 0.6,0,0,1024,1024,1024,1024,315,-89.9,98,4.172,4.156,4.199,4.169,0,0,0,69.8,11,AutoTakeoff,
37.2865878,-119.5625632,4499.7743460925,0.656168,0.223694,0.33754594256,3500,2018-04-11 21:06:18,17,0,0,4499.7743460925,0.656168,0.223694,0.33754594256,0,0,0,316, 0.9, 1.3,0,0,1024,1024,1024,1024,315,-89.9,98,4.172,4.156,4.199,4.169,0,0,0,69.8,11,AutoTakeoff,
37.2865877,-119.5625633,4500.1024300925,0.984252,0.223694,0.37767061576,3600,2018-04-11 21:06:18,17,0,0,4500.1024300925,0.984252,0.223694,0.37767061576,0,0,0,316, 0.8, 1.7,0,0,1024,1024,1024,1024,315,-89.9,98,4.172,4.156,4.199,4.169,0,0,0,69.8,11,AutoTakeoff,
37.2865877,-119.5625635,4500.1024300925,0.984252,0.223694,0.43180119492,3710,2018-04-11 21:06:18,17,0,0,4500.1024300925,0.984252,0.223694,0.43180119492,0,0,0,316, 0.8, 1.7,0,0,1024,1024,1024,1024,315,-89.9,98,4.172,4.156,4.199,4.169,0,0,0,69.8,11,AutoTakeoff,
37.2865876,-119.5625636,4500.4305140925,1.312336,0.223694,0.47208991012,3800,2018-04-11 21:06:18,16,0,0,4500.4305140925,1.312336,0.223694,0.47208991012,0,0,0,316, 0.7, 1.5,0,0,1024,1024,1024,1024,315,-89.9,98,4.172,4.156,4.199,4.169,0,0,0,69.8,11,AutoTakeoff,
37.2865875,-119.5625638,4500.4305140925,1.312336,0.223694,0.53985237948,3900,2018-04-11 21:06:18,16,0,0,4500.4305140925,1.312336,0.223694,0.53985237948,0,0,0,316, 0.6, 1.4,0,0,1024,1024,1024,1024,315,-89.9,98,4.172,4.156,4.199,4.169,0,0,0,69.8,11,AutoTakeoff,
37.2865875,-119.562564,4500.7585980925,1.64042,0.223694,0.59338584576,4000,2018-04-11 21:06:18,15,0,25.096,4500.7585980925,1.64042,0.223694,0.59338584576,0,0,0,316, 0.5, 1.4,0,0,1024,1024,1024,1024,315.1,-89.9,98,4.172,4.156,4.199,4.169,0,0,5.098,69.8,11,AutoTakeoff,
37.2865875,-119.5625641,4500.7585980925,1.64042,0.223694,0.62045933744,4100,2018-04-11 21:06:19,15,0,25.096,4500.7585980925,1.64042,0.223694,0.62045933744,0,0,0,315.9, 0.4, 1.6,0,0,1024,1024,1024,1024,315.1,-89.9,98,4.172,4.156,4.199,4.169,0,0,5.098,69.8,11,AutoTakeoff,
37.2865874,-119.5625643,4500.7585980925,1.64042,0.223694,0.68779201676,4300,2018-04-11 21:06:19,16,0,25.096,4500.7585980925,1.64042,0.223694,0.68779201676,0,0,0,315.9, 0.5, 1.7,0,0,1024,1024,1024,1024,315.1,-89.9,98,4.172,4.156,4.199,4.169,0,0,5.098,69.8,11,AutoTakeoff,
37.2865873,-119.5625647,4501.4147660925,2.296588,0,0.8092027818,4410,2018-04-11 21:06:19,14,0,25.096,4501.4147660925,2.296588,0.223694,0.8092027818,0,0,-0.223694,315.7, 0.7, 2,0,0,1024,1024,1024,1024,315.1,-89.9,98,4.172,4.156,4.199,4.169,0,0,5.098,69.8,11,AutoTakeoff,
37.2865873,-119.5625648,4501.4147660925,2.296588,0,0.83634189028,4600,2018-04-11 21:06:19,14,0,25.096,4501.4147660925,2.296588,0.223694,0.83634189028,0,0,-0.223694,315.8, 0.8, 1.9,0,0,1024,1024,1024,1024,315.1,-89.9,98,4.172,4.156,4.199,4.169,0,0,5.098,69.8,11,AutoTakeoff,
37.2865873,-119.562565,4501.7428500925,2.624672,0,0.8909777188,4700,2018-04-11 21:06:19,15,0,25.096,4501.7428500925,2.624672,0.223694,0.8909777188,0,0,0,316, 0.9, 1.9,0,0,1024,1024,1024,1024,315.1,-89.9,98,4.172,4.156,4.199,4.169,0,0,5.098,69.8,11,AutoTakeoff,
37.2865873,-119.5625651,4501.7428500925,2.624672,0,0.91845147296,4800,2018-04-11 21:06:19,15,0,25.096,4501.7428500925,2.624672,0.223694,0.91845147296,0,0,0,316.2, 1, 2,0,0,1024,1024,1024,1024,315.1,-89.9,98,4.172,4.156,4.199,4.169,0,0,5.098,69.8,11,AutoTakeoff,
37.2865873,-119.5625652,4502.0709340925,2.952756,0,0.94602037148,4900,2018-04-11 21:06:19,14,0,25.096,4502.0709340925,2.952756,0.223694,0.94602037148,0,0,-0.223694,316.4, 1.2, 2.1,0,0,1024,1024,1024,1024,315.1,-89.9,98,4.172,4.156,4.199,4.169,0,0,5.098,69.8,14,Waypoint,
37.2865872,-119.5625654,4502.0709340925,2.952756,0,1.01264110852,5000,2018-04-11 21:06:19,14,0,24.312,4502.0709340925,2.952756,0.223694,1.01264110852,0,0,0,316.4, 1.3, 2.3,0,0,1024,1024,1024,1024,315.1,-89.9,98,4.039,4.031,4.08,4.05,0,0,15.361,69.8,14,Waypoint,
37.2865872,-119.5625655,4502.3990180925,3.28084,0,1.0401411094,5100,2018-04-11 21:06:20,17,0,24.312,4502.3990180925,3.28084,0.223694,1.0401411094,0,0,0,316.5, 0.8, 1.7,0,0,1024,1024,1024,1024,315.2,-90,98,4.039,4.031,4.08,4.05,0,0,15.361,69.8,14,Waypoint,
37.2865872,-119.5625656,4502.3990180925,3.28084,0,1.06772641212,5200,2018-04-11 21:06:20,17,0,24.312,4502.3990180925,3.28084,0.223694,1.06772641212,0,0,0,316.4, 0.4, 1.4,0,0,1024,1024,1024,1024,315.2,-90,98,4.039,4.031,4.08,4.05,0,0,15.361,69.8,14,Waypoint,
37.2865872,-119.5625657,4502.7271020925,3.608924,0,1.09538389332,5300,2018-04-11 21:06:20,16,0,24.312,4502.7271020925,3.608924,0.223694,1.09538389332,0,0,0,316.4, 0.3, 1.4,0,0,1024,1024,1024,1024,315.2,-89.9,98,4.039,4.031,4.08,4.05,0,0,15.361,69.8,14,Waypoint,
37.2865872,-119.5625659,4502.7271020925,3.608924,0,1.15089898696,5400,2018-04-11 21:06:20,17,0,24.312,4502.7271020925,3.608924,0.223694,1.15089898696,0,0,-0.223694,316.4, 0.6, 1.5,0,0,1024,1024,1024,1024,315.2,-89.9,98,4.039,4.031,4.08,4.05,0,0,15.361,69.8,14,Waypoint,
37.2865871,-119.562566,4503.0551860925,3.937008,0,1.18942917192,5500,2018-04-11 21:06:20,17,0,24.312,4503.0551860925,3.937008,0.223694,1.18942917192,0,0,-0.223694,316.4, 0.7, 1.5,0,0,1024,1024,1024,1024,315.2,-89.9,98,4.039,4.031,4.08,4.05,0,0,15.361,69.8,14,Waypoint,
37.286587,-119.5625661,4503.3832700925,4.265092,0,1.22852366136,5600,2018-04-11 21:06:20,16,0,24.312,4503.3832700925,4.265092,0.223694,1.22852366136,0,0,-0.223694,316.4, 0.5, 1.6,0,0,1024,1024,1024,1024,315.2,-89.9,98,4.039,4.031,4.08,4.05,0,0,15.361,69.8,14,Waypoint,
37.2865871,-119.5625663,4503.7113540925,4.593176,0,1.27259846592,5700,2018-04-11 21:06:20,16,0,24.312,4503.7113540925,4.593176,0.223694,1.27259846592,0,0,-0.223694,316.4, 0.5, 1.6,0,0,1024,1024,1024,1024,315.3,-90,98,4.039,4.031,4.08,4.05,0,0,15.361,69.8,14,Waypoint,
37.2865871,-119.5625664,4504.3675220925,5.249344,0,1.30043311248,5800,2018-04-11 21:06:20,15,0,24.312,4504.3675220925,5.249344,0.223694,1.30043311248,0,0,-0.223694,316.5, 0.8, 1.7,0,0,1024,1024,1024,1024,315.3,-89.9,98,4.039,4.031,4.08,4.05,0,0,15.361,69.8,14,Waypoint,
37.286587,-119.5625665,4504.6956060925,5.577428,0,1.33880253628,5900,2018-04-11 21:06:20,15,0,24.312,4504.6956060925,5.577428,0.223694,1.33880253628,0,0,-0.447388,316.6, 1, 1.7,0,0,1024,1024,1024,1024,315.3,-89.9,98,4.039,4.031,4.08,4.05,0,0,15.361,69.8,14,Waypoint,
37.286587,-119.5625666,4505.3517740925,6.233596,0,1.36652235344,6000,2018-04-11 21:06:20,16,0,24.125,4505.3517740925,6.233596,0.223694,1.36652235344,0,0,-0.447388,316.8, 1, 1.7,0,0,1024,1024,1024,1024,315.3,-89.9,98,3.997,4.005,4.033,4.029,0,0,16.625,69.8,14,Waypoint,
37.286587,-119.5625667,4506.0079420925,6.889764,0,1.39429466404,6100,2018-04-11 21:06:21,16,0,24.125,4506.0079420925,6.889764,0.223694,1.39429466404,0,0,-0.447388,316.9, 0.7, 1.9,0,0,1024,1024,1024,1024,315.3,-90,98,3.997,4.005,4.033,4.029,0,0,16.625,69.8,14,Waypoint,
37.286587,-119.5625667,4506.6641100925,7.545932,0,1.39429466404,6210,2018-04-11 21:06:21,15,0,24.125,4506.6641100925,7.545932,0.223694,1.39429466404,0,0,-0.447388,316.9, 0.6, 2,0,0,1024,1024,1024,1024,315.3,-90,98,3.997,4.005,4.033,4.029,0,0,16.625,69.8,14,Waypoint,
37.286587,-119.5625668,4507.6483620925,8.530184,0,1.42211946808,6300,2018-04-11 21:06:21,15,0,24.125,4507.6483620925,8.530184,0.223694,1.42211946808,0,0,-0.447388,316.8, 0.5, 2.2,0,0,1024,1024,1024,1024,315.3,-89.9,98,3.997,4.005,4.033,4.029,0,0,16.625,69.8,14,Waypoint,
37.286587,-119.5625669,4508.3045300925,9.186352,0,1.44999020388,6500,2018-04-11 21:06:21,16,0,24.125,4508.3045300925,9.186352,0.223694,1.44999020388,0,0,-0.671082,316.8, 0.5, 2.3,0,0,1024,1024,1024,1024,315.4,-90,98,3.997,4.005,4.033,4.029,0,0,16.625,69.8,14,Waypoint,
37.2865869,-119.5625671,4509.2887820925,10.170604,0,1.51599742384,6600,2018-04-11 21:06:21,16,0,24.125,4509.2887820925,10.170604,0.223694,1.51599742384,0,0,-0.671082,316.7, 0.5, 2.5,0,0,1024,1024,1024,1024,315.4,-89.9,98,3.997,4.005,4.033,4.029,0,0,16.625,69.8,14,Waypoint,
37.2865868,-119.5625672,4510.2730340925,11.154856,0,1.55455057468,6700,2018-04-11 21:06:21,16,0,24.125,4510.2730340925,11.154856,0.223694,1.55455057468,0,0,-0.671082,316.6, 0.8, 2.9,0,0,1024,1024,1024,1024,315.4,-89.9,98,3.997,4.005,4.033,4.029,0,0,16.625,69.8,14,Waypoint,
37.2865867,-119.5625673,4511.2572860925,12.139108,0,1.5935367964,6800,2018-04-11 21:06:21,16,0,24.125,4511.2572860925,12.139108,0.223694,1.5935367964,0,0,-0.671082,316.5, 1.1, 3,0,0,1024,1024,1024,1024,315.4,-89.9,98,3.997,4.005,4.033,4.029,0,0,16.625,69.8,14,Waypoint,
37.2865867,-119.5625673,4512.2415380925,13.12336,0,1.5935367964,6900,2018-04-11 21:06:21,16,0,24.125,4512.2415380925,13.12336,0.223694,1.5935367964,0,0,-0.671082,316.4, 0.9, 3.1,0,0,1024,1024,1024,1024,315.4,-89.9,98,3.997,4.005,4.033,4.029,0,0,16.625,69.8,14,Waypoint,
37.2865868,-119.5625672,4513.2257900925,14.107612,0,1.55455057468,7000,2018-04-11 21:06:21,16,0,23.899,4513.2257900925,14.107612,0.223694,1.5935367964,0,0,-0.671082,316.2, 0.8, 2.7,0,0,1024,1024,1024,1024,315.4,-89.9,98,3.952,3.965,3.994,3.985,0,0,17.884,69.8,14,Waypoint,
37.2865869,-119.5625671,4514.5381260925,15.419948,0,1.51599742384,7100,2018-04-11 21:06:22,17,0,23.899,4514.5381260925,15.419948,0.223694,1.5935367964,0,0,-0.671082,316.2, 0.8, 2.1,0,0,1024,1024,1024,1024,315.4,-89.9,98,3.952,3.965,3.994,3.985,0,0,17.884,69.8,14,Waypoint,
37.2865869,-119.5625669,4515.5223780925,16.4042,0,1.46051185776,7200,2018-04-11 21:06:22,17,0,23.899,4515.5223780925,16.4042,0.223694,1.5935367964,0,0,-0.671082,316.2, 0.7, 1.6,0,0,1024,1024,1024,1024,315.4,-89.9,98,3.952,3.965,3.994,3.985,0,0,17.884,69.8,14,Waypoint,
37.286587,-119.5625668,4516.5066300925,17.388452,0,1.42211946808,7300,2018-04-11 21:06:22,17,0,23.899,4516.5066300925,17.388452,0.223694,1.5935367964,0,0,-0.671082,316.2, 0.4, 1.3,0,0,1024,1024,1024,1024,315.4,-89.9,98,3.952,3.965,3.994,3.985,0,0,17.884,69.8,14,Waypoint,
37.2865871,-119.5625667,4517.4908820925,18.372704,0,1.3842356086,7400,2018-04-11 21:06:22,17,0,23.899,4517.4908820925,18.372704,0.223694,1.5935367964,0,0,-0.671082,316.3, 0.4, 1,0,0,1024,1024,1024,1024,315.4,-89.9,98,3.952,3.965,3.994,3.985,0,0,17.884,69.8,14,Waypoint,
37.2865872,-119.5625666,4518.8032180925,19.68504,0,1.3468996494,7500,2018-04-11 21:06:22,16,0,23.899,4518.8032180925,19.68504,0.223694,1.5935367964,0,0,-0.671082,316.4, 0.6, 0.9,0,0,1024,1024,1024,1024,315.4,-89.9,98,3.952,3.965,3.994,3.985,0,0,17.884,69.8,14,Waypoint,
37.2865872,-119.5625666,4519.7874700925,20.669292,0,1.3468996494,7600,2018-04-11 21:06:22,16,0,23.899,4519.7874700925,20.669292,0.223694,1.5935367964,0,0,-0.671082,316.5, 0.8, 0.8,0,0,1024,1024,1024,1024,315.4,-89.9,98,3.952,3.965,3.994,3.985,0,0,17.884,69.8,14,Waypoint,
37.2865874,-119.5625664,4522.0840580925,22.96588,0,1.27406172056,7700,2018-04-11 21:06:22,17,0,23.899,4522.0840580925,22.96588,0.223694,1.5935367964,0,0,-0.671082,316.6, 0.8, 0.7,0,0,1024,1024,1024,1024,315.4,-89.9,98,3.952,3.965,3.994,3.985,0,0,17.884,69.8,14,Waypoint,
37.2865875,-119.5625663,4523.0683100925,23.950132,0,1.23867129948,7800,2018-04-11 21:06:22,18,0,23.899,4523.0683100925,23.950132,0.223694,1.5935367964,0,0,-0.671082,316.6, 0.7, 0.6,0,0,1024,1024,1024,1024,315.4,-89.9,98,3.952,3.965,3.994,3.985,0,0,17.884,69.8,14,Waypoint,
37.2865875,-119.5625663,4524.0525620925,24.934384,0,1.23867129948,7900,2018-04-11 21:06:22,18,0,23.899,4524.0525620925,24.934384,0.223694,1.5935367964,0,0,-0.671082,316.6, 0.6, 0.5,0,0,1024,1024,1024,1024,315.4,-89.9,98,3.952,3.965,3.994,3.985,0,0,17.884,69.8,14,Waypoint,
37.2865876,-119.5625664,4525.3648980925,26.24672,0,1.26146329496,8000,2018-04-11 21:06:22,17,0,23.366,4525.3648980925,26.24672,0.223694,1.5935367964,0,0,-0.671082,316.6, 0.6, 0.7,0,0,1024,1024,1024,1024,315.4,-90,98,3.874,3.866,3.92,3.919,0,0,23.573,69.8,14,Waypoint,
37.2865876,-119.5625664,4526.3491500925,27.230972,0,1.26146329496,8100,2018-04-11 21:06:23,17,0,23.366,4526.3491500925,27.230972,0.223694,1.5935367964,0,0,-0.671082,316.7, 1, 1,0,0,1024,1024,1024,1024,315.4,-89.9,98,3.874,3.866,3.92,3.919,0,0,23.573,69.8,14,Waypoint,
37.2865877,-119.5625665,4527.3334020925,28.215224,0,1.28554137972,8200,2018-04-11 21:06:23,17,0,23.366,4527.3334020925,28.215224,0.223694,1.5935367964,0,0,-0.671082,316.7, 1.3, 1.3,0,0,1024,1024,1024,1024,315.4,-89.9,98,3.874,3.866,3.92,3.919,0,0,23.573,69.8,14,Waypoint,
37.2865877,-119.5625666,4528.3176540925,29.199476,0,1.314386525,8300,2018-04-11 21:06:23,17,0,23.366,4528.3176540925,29.199476,0.223694,1.5935367964,0,0,-0.671082,316.7, 1.4, 1.5,0,0,1024,1024,1024,1024,315.4,-89.9,98,3.874,3.866,3.92,3.919,0,0,23.573,69.8,14,Waypoint,
37.2865877,-119.5625666,4529.6299900925,30.511812,0,1.314386525,8400,2018-04-11 21:06:23,18,0,23.366,4529.6299900925,30.511812,0.223694,1.5935367964,0,0,-0.671082,316.7, 1.4, 1.7,0,0,1024,1024,1024,1024,315.4,-89.9,98,3.874,3.866,3.92,3.919,0,0,23.573,69.8,14,Waypoint,
37.2865877,-119.5625667,4530.6142420925,31.496064,0,1.34323823196,8500,2018-04-11 21:06:23,18,0,23.366,4530.6142420925,31.496064,0.223694,1.5935367964,0,0,-0.671082,316.7, 1.2, 1.6,0,0,1024,1024,1024,1024,315.4,-89.9,98,3.874,3.866,3.92,3.919,0,0,23.573,69.8,14,Waypoint,
37.2865878,-119.5625667,4531.5984940925,32.480316,0,1.33976710324,8600,2018-04-11 21:06:23,18,0,23.366,4531.5984940925,32.480316,0.223694,1.5935367964,0,0,-0.671082,316.7, 1.2, 1.7,0,0,1024,1024,1024,1024,315.4,-89.9,98,3.874,3.866,3.92,3.919,0,0,23.573,69.8,14,Waypoint,
37.2865879,-119.5625668,4532.5827460925,33.464568,0,1.36626644792,8710,2018-04-11 21:06:23,18,0,23.366,4532.5827460925,33.464568,0.223694,1.5935367964,0,0,-0.671082,316.8, 1.6, 1.8,0,0,1024,1024,1024,1024,315.4,-89.9,98,3.874,3.866,3.92,3.919,0,0,23.573,69.8,14,Waypoint,
37.2865879,-119.5625668,4532.5827460925,33.464568,0,1.36626644792,8800,2018-04-11 21:06:23,18,0,23.366,4532.5827460925,33.464568,0.223694,1.5935367964,0,0,-0.671082,316.8, 1.6, 1.8,0,0,1024,1024,1024,1024,315.4,-89.9,98,3.874,3.866,3.92,3.919,0,0,23.573,69.8,14,Waypoint,
37.286588,-119.5625669,4534.5512500925,35.433072,0,1.39381894224,8900,2018-04-11 21:06:23,16,0,23.366,4534.5512500925,35.433072,0.223694,1.5935367964,0,0,-0.671082,316.6, 2.2, 1.2,0,0,1024,1024,1024,1024,315.4,-89.9,98,3.874,3.866,3.92,3.919,0,0,23.573,69.8,14,Waypoint,
37.2865881,-119.562567,4535.8635860925,36.745408,0,1.42237209276,9100,2018-04-11 21:06:24,18,0,23.366,4535.8635860925,36.745408,0.223694,1.5935367964,0,0,-0.671082,316.5, 2.5, 1.3,0,0,1024,1024,1024,1024,315.4,-89.9,98,3.874,3.866,3.92,3.919,0,0,23.573,69.8,14,Waypoint,
37.2865882,-119.5625671,4536.8478380925,37.72966,0,1.45185700184,9200,2018-04-11 21:06:24,18,0,23.366,4536.8478380925,37.72966,0.223694,1.5935367964,0,0,-0.671082,316.5, 2.9, 1.1,0,0,1024,1024,1024,1024,315.4,-89.9,98,3.874,3.866,3.92,3.919,0,0,23.573,69.8,14,Waypoint,
37.2865883,-119.5625671,4537.8320900925,38.713912,0,1.4532316738,9300,2018-04-11 21:06:24,17,0,23.366,4537.8320900925,38.713912,0.223694,1.5935367964,0,0,-0.671082,316.4, 3.2, 1,0,0,1024,1024,1024,1024,315.4,-89.9,98,3.874,3.866,3.92,3.919,0,0,23.573,69.8,14,Waypoint,
37.2865885,-119.5625671,4538.8163420925,39.698164,0,1.45871723828,9400,2018-04-11 21:06:24,17,0,23.366,4538.8163420925,39.698164,0.223694,1.5935367964,0,0,-0.671082,316.4, 3.4, 1,0,0,1024,1024,1024,1024,315.4,-89.9,98,3.874,3.866,3.92,3.919,0,0,23.573,69.8,14,Waypoint,
37.2865886,-119.5625671,4539.8005940925,40.682416,0,1.46281828828,9500,2018-04-11 21:06:24,17,0,23.366,4539.8005940925,40.682416,0.223694,1.5935367964,0,0,-0.671082,316.4, 3.4, 0.4,0,0,1024,1024,1024,1024,315.4,-89.9,98,3.874,3.866,3.92,3.919,0,0,23.573,69.8,14,Waypoint,
37.2865886,-119.5625671,4540.7848460925,41.666668,0,1.46281828828,9600,2018-04-11 21:06:24,17,0,23.366,4540.7848460925,41.666668,0.223694,1.5935367964,0,0,-0.671082,316.5, 3.1, 0.2,0,0,1024,1024,1024,1024,315.4,-89.9,98,3.874,3.866,3.92,3.919,0,0,23.573,69.8,14,Waypoint,
37.2865886,-119.5625672,4541.7690980925,42.65092,0,1.49162406348,9700,2018-04-11 21:06:24,18,0,23.366,4541.7690980925,42.65092,0.223694,1.5935367964,0,0,-0.671082,316.5, 3, 0.4,0,0,1024,1024,1024,1024,315.4,-89.9,98,3.874,3.866,3.92,3.919,0,0,23.573,69.8,14,Waypoint,
37.2865886,-119.5625672,4542.7533500925,43.635172,0,1.49162406348,9800,2018-04-11 21:06:24,18,0,23.366,4542.7533500925,43.635172,0.223694,1.5935367964,0,0,-0.671082,316.6, 2.8, 0.8,0,0,1024,1024,1024,1024,315.4,-89.9,98,3.874,3.866,3.92,3.919,0,0,23.573,69.8,14,Waypoint,
37.2865886,-119.5625673,4543.7376020925,44.619424,0,1.5204396812,9900,2018-04-11 21:06:24,19,0,23.366,4543.7376020925,44.619424,0.223694,1.5935367964,0,0,-0.671082,316.7, 2.3, 1.4,0,0,1024,1024,1024,1024,315.4,-89.9,98,3.874,3.866,3.92,3.919,0,0,23.573,69.8,14,Waypoint,
37.2865887,-119.5625673,4544.7218540925,45.603676,0,1.5252461118,10000,2018-04-11 21:06:24,19,0,23.748,4544.7218540925,45.603676,0.223694,1.5935367964,0,0,-0.671082,317, 2.4, 1.1,0,0,1024,1024,1024,1024,315.4,-89.9,98,3.929,3.93,3.983,3.956,0,0,18.121,69.8,14,Waypoint,
37.2865887,-119.5625674,4545.7061060925,46.587928,0,1.55397970852,10100,2018-04-11 21:06:25,18,0,23.748,4545.7061060925,46.587928,0.223694,1.5935367964,0,0,-0.671082,317.4, 2.9, 0.9,0,0,1024,1024,1024,1024,315.4,-89.9,98,3.929,3.93,3.983,3.956,0,0,18.121,69.8,14,Waypoint,
37.2865888,-119.5625675,4546.6903580925,47.57218,0,1.58817918468,10200,2018-04-11 21:06:25,18,0,23.748,4546.6903580925,47.57218,0.223694,1.5935367964,0,0,-0.671082,317.6, 3.7, 1.1,0,0,1024,1024,1024,1024,315.4,-89.9,98,3.929,3.93,3.983,3.956,0,0,18.121,69.8,14,Waypoint,
37.2865889,-119.5625675,4547.6746100925,48.556432,0,1.5944554316,10300,2018-04-11 21:06:25,19,0,23.748,4547.6746100925,48.556432,0.223694,1.5944554316,0,0,-0.671082,317.4, 4.6, 1.2,0,0,1024,1024,1024,1024,315.4,-89.9,98,3.929,3.93,3.983,3.956,0,0,18.121,69.8,14,Waypoint,
37.2865889,-119.5625676,4548.6588620925,49.540684,0,1.6229987396,10400,2018-04-11 21:06:25,19,0,23.748,4548.6588620925,49.540684,0.223694,1.6229987396,0,0,-0.671082,317.1, 4.7, 1.2,0,0,1024,1024,1024,1024,315.4,-89.9,98,3.929,3.93,3.983,3.956,0,0,18.121,69.8,14,Waypoint,
37.286589,-119.5625677,4550.6273660925,51.509188,0,1.6583990032,10500,2018-04-11 21:06:25,19,0,23.748,4550.6273660925,51.509188,0.223694,1.6583990032,0,0,-0.671082,316.6, 4.7, 1.1,0,0,1024,1024,1024,1024,315.4,-89.9,98,3.929,3.93,3.983,3.956,0,0,18.121,69.8,14,Waypoint,
37.2865891,-119.5625677,4551.6116180925,52.49344,0,1.66600727116,10600,2018-04-11 21:06:25,19,0,23.748,4551.6116180925,52.49344,0.223694,1.66600727116,0,0,-0.671082,316.5, 4.8, 1,0,0,1024,1024,1024,1024,315.4,-89.9,98,3.929,3.93,3.983,3.956,0,0,18.121,69.8,14,Waypoint,
37.2865891,-119.5625677,4552.5958700925,53.477692,0,1.66600727116,10700,2018-04-11 21:06:25,19,0,23.748,4552.5958700925,53.477692,0.223694,1.66600727116,0,0,-0.671082,316.4, 4.6, 1.1,0,0,1024,1024,1024,1024,315.4,-89.9,98,3.929,3.93,3.983,3.956,0,0,18.121,69.8,14,Waypoint,
37.2865892,-119.5625678,4553.5801220925,54.461944,0,1.70257223296,10810,2018-04-11 21:06:25,19,0,23.748,4553.5801220925,54.461944,0.223694,1.70257223296,0,0,-0.671082,316.5, 4.5, 1.3,0,0,1024,1024,1024,1024,315.4,-89.9,98,3.929,3.93,3.983,3.956,0,0,18.121,69.8,14,Waypoint,
37.2865892,-119.5625679,4554.5643740925,55.446196,0,1.73079729948,10910,2018-04-11 21:06:25,19,0,23.748,4554.5643740925,55.446196,0.223694,1.73079729948,0,0,-0.671082,316.7, 4.6, 1.6,0,0,1024,1024,1024,1024,315.4,-89.9,98,3.929,3.93,3.983,3.956,0,0,18.121,69.8,14,Waypoint,
37.2865892,-119.562568,4555.5486260925,56.430448,0,1.75904533188,11000,2018-04-11 21:06:25,19,0,23.659,4555.5486260925,56.430448,0.223694,1.75904533188,0,0,-0.671082,316.8, 4.6, 1.7,0,0,1024,1024,1024,1024,315.4,-89.9,98,3.925,3.911,3.963,3.931,0,0,18.837,69.8,14,Waypoint,
37.2865893,-119.562568,4556.2047940925,57.086616,0,1.76772643452,11200,2018-04-11 21:06:26,19,0,23.659,4556.2047940925,57.086616,0.223694,1.76772643452,0,0,-0.671082,316.8, 4.7, 1.6,0,0,1024,1024,1024,1024,315.4,-89.9,98,3.925,3.911,3.963,3.931,0,0,18.837,69.8,14,Waypoint,
37.2865894,-119.5625681,4557.1890460925,58.070868,0,1.80510504464,11300,2018-04-11 21:06:26,19,0,23.659,4557.1890460925,58.070868,0.223694,1.80510504464,0,0,-0.671082,316.7, 4.9, 1.4,0,0,1024,1024,1024,1024,315.4,-89.9,98,3.925,3.911,3.963,3.931,0,0,18.837,69.8,14,Waypoint,
37.2865894,-119.5625681,4558.1732980925,59.05512,0,1.80510504464,11400,2018-04-11 21:06:26,19,0,23.659,4558.1732980925,59.05512,0.223694,1.80510504464,0,0,-0.671082,316.8, 5.3, 1,0,0,1024,1024,1024,1024,315.4,-89.9,98,3.925,3.911,3.963,3.931,0,0,18.837,69.8,14,Waypoint,
37.2865895,-119.5625682,4559.1575500925,60.039372,0,1.84290688312,11500,2018-04-11 21:06:26,19,0,23.659,4559.1575500925,60.039372,0.223694,1.84290688312,0,0,-0.671082,316.8, 5.5, 0.5,0,0,1024,1024,1024,1024,315.4,-89.9,98,3.925,3.911,3.963,3.931,0,0,18.837,69.8,14,Waypoint,
37.2865895,-119.5625682,4560.1418020925,61.023624,0,1.84290688312,11600,2018-04-11 21:06:26,19,0,23.659,4560.1418020925,61.023624,0.223694,1.84290688312,0,0,-0.671082,316.7, 5.6, 1,0,0,1024,1024,1024,1024,315.4,-89.9,98,3.925,3.911,3.963,3.931,0,0,18.837,69.8,14,Waypoint,
37.2865895,-119.5625682,4561.4541380925,62.33596,0,1.84290688312,11700,2018-04-11 21:06:26,19,0,23.659,4561.4541380925,62.33596,0.223694,1.84290688312,0,0,-0.671082,316.6, 5.4, 1.4,0,0,1024,1024,1024,1024,315.4,-90,98,3.925,3.911,3.963,3.931,0,0,18.837,69.8,14,Waypoint,
37.2865896,-119.5625682,4562.4383900925,63.320212,0,1.85334979684,11800,2018-04-11 21:06:26,19,0,23.659,4562.4383900925,63.320212,0.223694,1.85334979684,0,0,-0.671082,316.6, 5.1, 1.4,0,0,1024,1024,1024,1024,315.4,-89.9,98,3.925,3.911,3.963,3.931,0,0,18.837,69.8,14,Waypoint,
37.2865896,-119.5625682,4563.4226420925,64.304464,0,1.85334979684,11900,2018-04-11 21:06:26,19,0,23.659,4563.4226420925,64.304464,0.223694,1.85334979684,0,0,-0.671082,316.8, 4.9, 1.2,0,0,1024,1024,1024,1024,315.4,-89.9,98,3.925,3.911,3.963,3.931,0,0,18.837,69.8,14,Waypoint,
37.2865896,-119.5625681,4564.4068940925,65.288716,0,1.82563654136,12000,2018-04-11 21:06:26,19,0,23.586,4564.4068940925,65.288716,0.223694,1.85334979684,0,0,-0.671082,316.9, 4.8, 1,0,0,1024,1024,1024,1024,315.4,-89.9,98,3.925,3.911,3.963,3.931,0,0,19.229,69.8,14,Waypoint,
37.2865896,-119.5625681,4565.3911460925,66.272968,0,1.82563654136,12100,2018-04-11 21:06:27,19,0,23.586,4565.3911460925,66.272968,0.223694,1.85334979684,0,0,-0.671082,317, 4.3, 1.3,0,0,1024,1024,1024,1024,315.4,-90,98,3.925,3.911,3.963,3.931,0,0,19.229,69.8,14,Waypoint,
37.2865895,-119.562568,4566.3753980925,67.25722,0,1.78719821992,12200,2018-04-11 21:06:27,19,0,23.586,4566.3753980925,67.25722,0.223694,1.85334979684,0,0,-0.671082,316.9, 4.2, 1.6,0,0,1024,1024,1024,1024,315.4,-90,98,3.925,3.911,3.963,3.931,0,0,19.229,69.8,14,Waypoint,
37.2865895,-119.5625679,4568.6719860925,69.553808,0,1.7593996626,12400,2018-04-11 21:06:27,19,0,23.586,4568.6719860925,69.553808,0.223694,1.85334979684,0,0,-0.671082,316.4, 4.4, 1.2,0,0,1024,1024,1024,1024,315.4,-89.9,98,3.925,3.911,3.963,3.931,0,0,19.229,69.8,14,Waypoint,
37.2865895,-119.5625679,4569.6562380925,70.53806,0,1.7593996626,12500,2018-04-11 21:06:27,19,0,23.586,4569.6562380925,70.53806,0.223694,1.85334979684,0,0,-0.671082,316.1, 5.1, 0.9,0,0,1024,1024,1024,1024,315.4,-89.9,98,3.925,3.911,3.963,3.931,0,0,19.229,69.8,14,Waypoint,
37.2865896,-119.5625678,4571.6247420925,72.506564,0,1.74275596128,12600,2018-04-11 21:06:27,19,0,23.586,4571.6247420925,72.506564,0.223694,1.85334979684,0,0,-0.671082,316.1, 5.1, 0.5,0,0,1024,1024,1024,1024,315.4,-89.9,98,3.925,3.911,3.963,3.931,0,0,19.229,69.8,14,Waypoint,
37.2865896,-119.5625678,4572.6089940925,73.490816,0,1.74275596128,12700,2018-04-11 21:06:27,19,0,23.586,4572.6089940925,73.490816,0.223694,1.85334979684,0,0,-0.671082,316.1, 5.2, 1,0,0,1024,1024,1024,1024,315.4,-89.9,98,3.925,3.911,3.963,3.931,0,0,19.229,69.8,14,Waypoint,
37.2865896,-119.5625678,4573.5932460925,74.475068,0,1.74275596128,12800,2018-04-11 21:06:27,19,0,23.586,4573.5932460925,74.475068,0.223694,1.85334979684,0,0,-0.671082,316.1, 5.5, 1.4,0,0,1024,1024,1024,1024,315.4,-89.9,98,3.925,3.911,3.963,3.931,0,0,19.229,69.8,14,Waypoint,
37.2865896,-119.5625679,4574.5774980925,75.45932,0,1.77033798316,12900,2018-04-11 21:06:27,19,0,23.586,4574.5774980925,75.45932,0.223694,1.85334979684,0,0,-0.671082,316.1, 5.8, 1.6,0,0,1024,1024,1024,1024,315.4,-89.9,98,3.925,3.911,3.963,3.931,0,0,19.229,69.8,14,Waypoint,
37.2865896,-119.5625679,4575.5617500925,76.443572,0,1.77033798316,13000,2018-04-11 21:06:27,19,0,23.366,4575.5617500925,76.443572,0.223694,1.85334979684,0,0,-0.671082,316.1, 6, 1.4,0,0,1024,1024,1024,1024,315.4,-89.9,98,3.877,3.866,3.915,3.888,0,0,21.707,69.8,14,Waypoint,
37.2865896,-119.562568,4576.5460020925,77.427824,0,1.7979659368,13100,2018-04-11 21:06:28,19,0,23.366,4576.5460020925,77.427824,0.223694,1.85334979684,0,0,-0.671082,316, 6.2, 1.3,0,0,1024,1024,1024,1024,315.4,-89.9,98,3.877,3.866,3.915,3.888,0,0,21.707,69.8,14,Waypoint,
37.2865897,-119.562568,4577.5302540925,78.412076,0,1.80940622588,13200,2018-04-11 21:06:28,19,0,23.366,4577.5302540925,78.412076,0.223694,1.85334979684,0,0,-0.671082,315.9, 6.2, 1.3,0,0,1024,1024,1024,1024,315.4,-89.9,98,3.877,3.866,3.915,3.888,0,0,21.707,69.8,14,Waypoint,
37.2865897,-119.562568,4578.5145060925,79.396328,0,1.80940622588,13300,2018-04-11 21:06:28,19,0,23.366,4578.5145060925,79.396328,0.223694,1.85334979684,0,0,-0.671082,315.8, 6.1, 1.4,0,0,1024,1024,1024,1024,315.4,-89.9,98,3.877,3.866,3.915,3.888,0,0,21.707,69.8,14,Waypoint,
37.2865897,-119.562568,4579.1706740925,80.052496,0,1.80940622588,13410,2018-04-11 21:06:28,19,0,23.366,4579.1706740925,80.052496,0.223694,1.85334979684,0,0,-0.671082,315.9, 6, 1.2,0,0,1024,1024,1024,1024,315.4,-89.9,98,3.877,3.866,3.915,3.888,0,0,21.707,69.8,14,Waypoint,
37.2865897,-119.562568,4580.1549260925,81.036748,0,1.80940622588,13500,2018-04-11 21:06:28,19,0,23.366,4580.1549260925,81.036748,0.223694,1.85334979684,0,0,-0.671082,316, 6.1, 1,0,0,1024,1024,1024,1024,315.4,-89.9,98,3.877,3.866,3.915,3.888,0,0,21.707,69.8,14,Waypoint,
37.2865897,-119.5625681,4581.1391780925,82.021,0,1.83690622676,13700,2018-04-11 21:06:28,19,0,23.366,4581.1391780925,82.021,0.223694,1.85334979684,0,0,-0.671082,316.1, 6, 1.2,0,0,1024,1024,1024,1024,315.4,-89.9,98,3.877,3.866,3.915,3.888,0,0,21.707,69.8,14,Waypoint,
37.2865896,-119.5625681,4583.1076820925,83.989504,0,1.82563654136,13810,2018-04-11 21:06:28,19,0,23.366,4583.1076820925,83.989504,0.223694,1.85334979684,0,0,-0.671082,316.4, 5.9, 1.4,0,0,1024,1024,1024,1024,315.4,-89.9,98,3.877,3.866,3.915,3.888,0,0,21.707,69.8,14,Waypoint,
37.2865896,-119.562568,4584.0919340925,84.973756,0,1.7979659368,14000,2018-04-11 21:06:28,19,0,23.564,4584.0919340925,84.973756,0.223694,1.85334979684,0,0,-0.671082,316.5, 5.8, 1.7,0,0,1024,1024,1024,1024,315.4,-89.9,97,3.877,3.866,3.915,3.888,0,0,18.481,69.8,14,Waypoint,
37.2865895,-119.562568,4585.0761860925,85.958008,0,1.78719821992,14100,2018-04-11 21:06:29,19,0,23.564,4585.0761860925,85.958008,0.223694,1.85334979684,0,0,-0.671082,316.6, 5.8, 1.6,0,0,1024,1024,1024,1024,315.4,-89.9,97,3.877,3.866,3.915,3.888,0,0,18.481,69.8,14,Waypoint,
37.2865895,-119.562568,4586.0604380925,86.94226,0,1.78719821992,14200,2018-04-11 21:06:29,19,0,23.564,4586.0604380925,86.94226,0.223694,1.85334979684,0,0,-0.671082,316.7, 5.6, 1.4,0,0,1024,1024,1024,1024,315.4,-90,97,3.877,3.866,3.915,3.888,0,0,18.481,69.8,14,Waypoint,
37.2865895,-119.562568,4587.0446900925,87.926512,0,1.78719821992,14300,2018-04-11 21:06:29,19,0,23.564,4587.0446900925,87.926512,0.223694,1.85334979684,0,0,-0.671082,316.7, 5.3, 1.3,0,0,1024,1024,1024,1024,315.4,-89.9,97,3.877,3.866,3.915,3.888,0,0,18.481,69.8,14,Waypoint,
37.2865895,-119.562568,4588.0289420925,88.910764,0,1.78719821992,14400,2018-04-11 21:06:29,19,0,23.564,4588.0289420925,88.910764,0.223694,1.85334979684,0,0,-0.671082,316.6, 5.4, 1.5,0,0,1024,1024,1024,1024,315.4,-89.9,97,3.877,3.866,3.915,3.888,0,0,18.481,69.8,14,Waypoint,
37.2865894,-119.5625679,4589.0131940925,89.895016,0,1.74915688012,14500,2018-04-11 21:06:29,19,0,23.564,4589.0131940925,89.895016,0.223694,1.85334979684,0,0,-0.671082,316.6, 5.5, 1.6,0,0,1024,1024,1024,1024,315.4,-89.9,97,3.877,3.866,3.915,3.888,0,0,18.481,69.8,14,Waypoint,
37.2865894,-119.5625679,4589.9974460925,90.879268,0,1.74915688012,14600,2018-04-11 21:06:29,19,0,23.564,4589.9974460925,90.879268,0.223694,1.85334979684,0,0,-0.671082,316.5, 5.7, 1.6,0,0,1024,1024,1024,1024,315.4,-89.9,97,3.877,3.866,3.915,3.888,0,0,18.481,69.8,14,Waypoint,
37.2865894,-119.5625679,4590.9816980925,91.86352,0,1.74915688012,14700,2018-04-11 21:06:29,19,0,23.564,4590.9816980925,91.86352,0.223694,1.85334979684,0,0,-0.671082,316.4, 5.6, 1.5,0,0,1024,1024,1024,1024,315.4,-89.9,97,3.877,3.866,3.915,3.888,0,0,18.481,69.8,14,Waypoint,
37.2865894,-119.5625679,4591.9659500925,92.847772,0,1.74915688012,14800,2018-04-11 21:06:29,19,0,23.564,4591.9659500925,92.847772,0.223694,1.85334979684,0,0,-0.671082,316.4, 5.5, 1.4,0,0,1024,1024,1024,1024,315.4,-89.9,97,3.877,3.866,3.915,3.888,0,0,18.481,69.8,14,Waypoint,
37.2865894,-119.5625678,4592.9502020925,93.832024,0,1.72123365088,14900,2018-04-11 21:06:29,19,0,23.564,4592.9502020925,93.832024,0.223694,1.85334979684,0,0,-0.671082,316.4, 5.5, 1.3,0,0,1024,1024,1024,1024,315.4,-90,97,3.877,3.866,3.915,3.888,0,0,18.481,69.8,14,Waypoint,
37.2865894,-119.5625678,4594.9187060925,95.800528,0,1.72123365088,15020,2018-04-11 21:06:29,19,0,23.369,4594.9187060925,95.800528,0.223694,1.85334979684,0,0,-0.671082,316.6, 5.4, 1.3,0,0,1024,1024,1024,1024,315.4,-89.9,97,3.901,3.909,3.95,3.927,0,0,20.616,69.8,14,Waypoint,
37.2865894,-119.5625678,4594.9187060925,95.800528,0,1.72123365088,15100,2018-04-11 21:06:30,19,0,23.369,4594.9187060925,95.800528,0.223694,1.85334979684,0,0,-0.671082,316.6, 5.4, 1.3,0,0,1024,1024,1024,1024,315.4,-89.9,97,3.901,3.909,3.95,3.927,0,0,20.616,69.8,14,Waypoint,
37.2865893,-119.5625678,4595.9029580925,96.78478,0,1.71153876868,15200,2018-04-11 21:06:30,19,0,23.369,4595.9029580925,96.78478,0.223694,1.85334979684,0,0,-0.671082,316.6, 5.5, 1.4,0,0,1024,1024,1024,1024,315.4,-89.9,97,3.901,3.909,3.95,3.927,0,0,20.616,69.8,14,Waypoint,
37.2865893,-119.5625678,4596.8872100925,97.769032,0,1.71153876868,15300,2018-04-11 21:06:30,19,0,23.369,4596.8872100925,97.769032,0.223694,1.85334979684,0,0,-0.671082,316.6, 5.6, 1.3,0,0,1024,1024,1024,1024,315.4,-89.9,97,3.901,3.909,3.95,3.927,0,0,20.616,69.8,14,Waypoint,
37.2865893,-119.5625678,4597.8714620925,98.753284,0,1.71153876868,15410,2018-04-11 21:06:30,19,0,23.369,4597.8714620925,98.753284,0.223694,1.85334979684,0,0,-0.671082,316.5, 5.9, 1.5,0,0,1024,1024,1024,1024,315.4,-89.9,97,3.901,3.909,3.95,3.927,0,0,20.616,69.8,14,Waypoint,
37.2865893,-119.5625678,4598.8557140925,99.737536,0,1.71153876868,15510,2018-04-11 21:06:30,19,0,23.369,4598.8557140925,99.737536,0.223694,1.85334979684,0,0,-0.671082,316.3, 5.9, 1.8,0,0,1024,1024,1024,1024,315.4,-89.9,97,3.901,3.909,3.95,3.927,0,0,20.616,69.8,14,Waypoint,
37.2865893,-119.5625678,4599.8399660925,100.721788,0,1.71153876868,15700,2018-04-11 21:06:30,19,0,23.369,4599.8399660925,100.721788,0.223694,1.85334979684,0,0,-0.671082,316.3, 5.8, 1.6,0,0,1024,1024,1024,1024,315.4,-89.9,97,3.901,3.909,3.95,3.927,0,0,20.616,69.8,14,Waypoint,
37.2865893,-119.5625678,4600.8242180925,101.70604,0,1.71153876868,15800,2018-04-11 21:06:30,19,0,23.369,4600.8242180925,101.70604,0.223694,1.85334979684,0,0,-0.671082,316.5, 5.6, 1.4,0,0,1024,1024,1024,1024,315.4,-89.9,97,3.901,3.909,3.95,3.927,0,0,20.616,69.8,14,Waypoint,
37.2865893,-119.5625678,4601.8084700925,102.690292,0,1.71153876868,15900,2018-04-11 21:06:30,19,0,23.369,4601.8084700925,102.690292,0.223694,1.85334979684,0,0,-0.671082,316.6, 5.6, 1.3,0,0,1024,1024,1024,1024,315.4,-89.9,97,3.901,3.909,3.95,3.927,0,0,20.616,69.8,14,Waypoint,
37.2865893,-119.5625677,4602.7927220925,103.674544,0,1.68349414836,16000,2018-04-11 21:06:30,19,0,23.369,4602.7927220925,103.674544,0.223694,1.85334979684,0,0,-0.671082,316.6, 5.7, 1.3,0,0,1024,1024,1024,1024,315.4,-89.9,97,3.873,3.872,3.914,3.889,0,0,20.616,69.8,14,Waypoint,
37.2865893,-119.5625677,4603.7769740925,104.658796,0,1.68349414836,16100,2018-04-11 21:06:31,19,0,23.369,4603.7769740925,104.658796,0.223694,1.85334979684,0,0,-0.671082,316.6, 5.6, 1.3,0,0,1024,1024,1024,1024,315.4,-89.9,97,3.873,3.872,3.914,3.889,0,0,20.616,69.8,14,Waypoint,
37.2865892,-119.5625677,4605.7454780925,106.6273,0,1.674376694,16300,2018-04-11 21:06:31,19,0,23.369,4605.7454780925,106.6273,0.223694,1.85334979684,0,0,-0.671082,316.6, 5.7, 1.5,0,0,1024,1024,1024,1024,315.4,-89.9,97,3.873,3.872,3.914,3.889,0,0,20.616,69.8,14,Waypoint,
37.2865892,-119.5625677,4607.0578140925,107.939636,0,1.674376694,16410,2018-04-11 21:06:31,19,0,23.369,4607.0578140925,107.939636,0.223694,1.85334979684,0,0,-0.671082,316.5, 5.6, 1.6,0,0,1024,1024,1024,1024,315.4,-89.9,97,3.873,3.872,3.914,3.889,0,0,20.616,69.8,14,Waypoint,
37.2865892,-119.5625677,4608.0420660925,108.923888,0,1.674376694,16600,2018-04-11 21:06:31,19,0,23.369,4608.0420660925,108.923888,0.223694,1.85334979684,0,0,-0.671082,316.5, 5.4, 1.6,0,0,1024,1024,1024,1024,315.4,-90,97,3.873,3.872,3.914,3.889,0,0,20.616,69.8,14,Waypoint,
37.2865891,-119.5625676,4609.0263180925,109.90814,0,1.6376969028,16700,2018-04-11 21:06:31,19,0,23.369,4609.0263180925,109.90814,0.223694,1.85334979684,0,0,-0.671082,316.4, 5.4, 1.6,0,0,1024,1024,1024,1024,315.4,-89.9,97,3.873,3.872,3.914,3.889,0,0,20.616,69.8,14,Waypoint,
37.2865891,-119.5625676,4610.0105700925,110.892392,0,1.6376969028,16800,2018-04-11 21:06:31,19,0,23.369,4610.0105700925,110.892392,0.223694,1.85334979684,0,0,-0.671082,316.2, 5.4, 1.5,0,0,1024,1024,1024,1024,315.4,-90,97,3.873,3.872,3.914,3.889,0,0,20.616,69.8,14,Waypoint,
37.2865891,-119.5625676,4610.9948220925,111.876644,0,1.6376969028,16910,2018-04-11 21:06:31,19,0,23.369,4610.9948220925,111.876644,0.223694,1.85334979684,0,0,-0.671082,316.2, 5.2, 1.2,0,0,1024,1024,1024,1024,315.4,-90,97,3.873,3.872,3.914,3.889,0,0,20.616,69.8,14,Waypoint,
37.2865891,-119.5625675,4611.9790740925,112.860896,0,1.60941278116,17100,2018-04-11 21:06:32,19,0,23.369,4611.9790740925,112.860896,0.223694,1.85334979684,0,0,-0.671082,316.2, 5.2, 0.9,0,0,1024,1024,1024,1024,315.4,-89.9,97,3.873,3.872,3.914,3.889,0,0,20.616,69.8,14,Waypoint,
37.2865892,-119.5625675,4613.9475780925,114.8294,0,1.61807419876,17200,2018-04-11 21:06:32,19,0,23.369,4613.9475780925,114.8294,0.223694,1.85334979684,0,0,-0.671082,316.3, 5.6, 0.6,0,0,1024,1024,1024,1024,315.4,-89.9,97,3.873,3.872,3.914,3.889,0,0,20.616,69.8,14,Waypoint,
37.2865892,-119.5625674,4614.6037460925,115.485568,0,1.58996724248,17300,2018-04-11 21:06:32,19,0,23.369,4614.6037460925,115.485568,0.223694,1.85334979684,0,0,-0.671082,316.5, 5.7, 0.5,0,0,1024,1024,1024,1024,315.4,-89.9,97,3.873,3.872,3.914,3.889,0,0,20.616,69.8,14,Waypoint,
37.2865892,-119.5625674,4615.5879980925,116.46982,0,1.58996724248,17400,2018-04-11 21:06:32,19,0,23.369,4615.5879980925,116.46982,0.223694,1.85334979684,0,0,-0.671082,316.6, 5.8, 0.5,0,0,1024,1024,1024,1024,315.4,-89.9,97,3.873,3.872,3.914,3.889,0,0,20.616,69.8,14,Waypoint,
37.2865892,-119.5625675,4618.5407540925,119.422576,0,1.61807419876,17510,2018-04-11 21:06:32,19,0,23.369,4618.5407540925,119.422576,0.223694,1.85334979684,0,0,-0.671082,316.7, 5.7, 1.1,0,0,1024,1024,1024,1024,315.4,-89.9,97,3.873,3.872,3.914,3.889,0,0,20.616,69.8,14,Waypoint,
37.2865892,-119.5625675,4619.5250060925,120.406828,0,1.61807419876,17700,2018-04-11 21:06:32,19,0,23.369,4619.5250060925,120.406828,0.223694,1.85334979684,0,0,-0.671082,316.6, 5.8, 1.3,0,0,1024,1024,1024,1024,315.4,-89.9,97,3.873,3.872,3.914,3.889,0,0,20.616,69.8,14,Waypoint,
37.2865892,-119.5625675,4620.5092580925,121.39108,0,1.61807419876,17800,2018-04-11 21:06:32,19,0,23.369,4620.5092580925,121.39108,0.223694,1.85334979684,0,0,-0.671082,316.5, 6, 1.4,0,0,1024,1024,1024,1024,315.4,-89.9,97,3.873,3.872,3.914,3.889,0,0,20.616,69.8,14,Waypoint,
37.2865892,-119.5625676,4622.4777620925,123.359584,0,1.6462106826,17900,2018-04-11 21:06:32,19,0,23.369,4622.4777620925,123.359584,0.223694,1.85334979684,0,0,-0.671082,316.5, 6, 1.4,0,0,1024,1024,1024,1024,315.4,-89.9,97,3.873,3.872,3.914,3.889,0,0,20.616,69.8,14,Waypoint,
37.2865892,-119.5625676,4624.4462660925,125.328088,0,1.6462106826,18110,2018-04-11 21:06:33,19,0,23.369,4624.4462660925,125.328088,0.223694,1.85334979684,0,0,-0.671082,316.4, 6.4, 1.4,0,0,1024,1024,1024,1024,315.4,-89.9,97,3.873,3.872,3.914,3.889,0,0,20.616,69.8,14,Waypoint,
37.2865892,-119.5625677,4626.4147700925,127.296592,0,1.674376694,18200,2018-04-11 21:06:33,19,0,23.369,4626.4147700925,127.296592,0.223694,1.85334979684,0,0,-0.671082,316.4, 6.5, 1.2,0,0,1024,1024,1024,1024,315.4,-89.9,97,3.873,3.872,3.914,3.889,0,0,20.616,69.8,14,Waypoint,
37.2865892,-119.5625677,4627.3990220925,128.280844,0,1.674376694,18300,2018-04-11 21:06:33,19,0,23.369,4627.3990220925,128.280844,0.223694,1.85334979684,0,0,-0.671082,316.4, 6.5, 1.3,0,0,1024,1024,1024,1024,315.4,-89.9,97,3.873,3.872,3.914,3.889,0,0,20.616,69.8,14,Waypoint,
37.2865892,-119.5625678,4628.0551900925,128.937012,0,1.70257223296,18400,2018-04-11 21:06:33,19,0,23.369,4628.0551900925,128.937012,0.223694,1.85334979684,0,0,-0.671082,316.4, 6.5, 1.5,0,0,1024,1024,1024,1024,315.4,-89.9,97,3.873,3.872,3.914,3.889,0,0,20.616,69.8,14,Waypoint,
37.2865892,-119.5625678,4629.0394420925,129.921264,0,1.70257223296,18510,2018-04-11 21:06:33,19,0,23.369,4629.0394420925,129.921264,0.223694,1.85334979684,0,0,-0.671082,316.4, 6.6, 1.7,0,0,1024,1024,1024,1024,315.4,-89.9,97,3.873,3.872,3.914,3.889,0,0,20.616,69.8,14,Waypoint,
37.2865892,-119.5625679,4630.0236940925,130.905516,0,1.73079729948,18600,2018-04-11 21:06:33,19,0,23.369,4630.0236940925,130.905516,0.223694,1.85334979684,0,0,-0.671082,316.4, 6.6, 1.5,0,0,1024,1024,1024,1024,315.4,-89.9,97,3.873,3.872,3.914,3.889,0,0,20.616,69.8,14,Waypoint,
37.2865892,-119.5625679,4631.0079460925,131.889768,0,1.73079729948,18800,2018-04-11 21:06:33,19,0,23.369,4631.0079460925,131.889768,0.223694,1.85334979684,0,0,-0.671082,316.4, 6.7, 1.5,0,0,1024,1024,1024,1024,315.4,-89.9,97,3.873,3.872,3.914,3.889,0,0,20.616,69.8,14,Waypoint,
37.2865892,-119.5625679,4633.9607020925,134.842524,0,1.73079729948,19000,2018-04-11 21:06:33,19,0,23.416,4633.9607020925,134.842524,0.223694,1.85334979684,0,0,-0.671082,316.4, 6.1, 1.5,0,0,1024,1024,1024,1024,315.4,-90,97,3.878,3.875,3.918,3.905,0,0,18.868,71.6,14,Waypoint,
37.2865892,-119.5625678,4634.9449540925,135.826776,0,1.70257223296,19200,2018-04-11 21:06:34,19,0,23.416,4634.9449540925,135.826776,0.223694,1.85334979684,0,0,-0.671082,316.5, 5.9, 1.3,0,0,1024,1024,1024,1024,315.4,-89.9,97,3.878,3.875,3.918,3.905,0,0,18.868,71.6,14,Waypoint,
37.2865891,-119.5625678,4635.9292060925,136.811028,0,1.69434388624,19300,2018-04-11 21:06:34,19,0,23.416,4635.9292060925,136.811028,0.223694,1.85334979684,0,0,-0.671082,316.7, 5.9, 1.3,0,0,1024,1024,1024,1024,315.4,-90,97,3.878,3.875,3.918,3.905,0,0,18.868,71.6,14,Waypoint,
37.2865891,-119.5625678,4636.9134580925,137.79528,0,1.69434388624,19400,2018-04-11 21:06:34,19,0,23.416,4636.9134580925,137.79528,0.223694,1.85334979684,0,0,-0.671082,316.8, 5.9, 1.4,0,0,1024,1024,1024,1024,315.4,-90,97,3.878,3.875,3.918,3.905,0,0,18.868,71.6,14,Waypoint,
37.2865891,-119.5625677,4637.8977100925,138.779532,0,1.66600727116,19500,2018-04-11 21:06:34,19,0,23.416,4637.8977100925,138.779532,0.223694,1.85334979684,0,0,-0.671082,316.9, 5.9, 1.3,0,0,1024,1024,1024,1024,315.4,-90,97,3.878,3.875,3.918,3.905,0,0,18.868,71.6,14,Waypoint,
37.286589,-119.5625676,4639.8662140925,140.748036,0,1.62995740124,19700,2018-04-11 21:06:34,19,0,23.416,4639.8662140925,140.748036,0.223694,1.85334979684,0,0,-0.671082,316.8, 5.5, 1.3,0,0,1024,1024,1024,1024,315.4,-90,97,3.878,3.875,3.918,3.905,0,0,18.868,71.6,14,Waypoint,
37.2865889,-119.5625676,4640.8504660925,141.732288,0,1.6229987396,19800,2018-04-11 21:06:34,19,0,23.416,4640.8504660925,141.732288,0.223694,1.85334979684,0,0,-0.671082,316.7, 5.5, 1.2,0,0,1024,1024,1024,1024,315.4,-89.9,97,3.878,3.875,3.918,3.905,0,0,18.868,71.6,14,Waypoint,
37.2865889,-119.5625675,4641.8347180925,142.71654,0,1.5944554316,19900,2018-04-11 21:06:34,19,0,23.416,4641.8347180925,142.71654,0.223694,1.85334979684,0,0,-0.671082,316.5, 5.7, 1,0,0,1024,1024,1024,1024,315.4,-89.9,97,3.878,3.875,3.918,3.905,0,0,18.868,71.6,14,Waypoint,
37.2865889,-119.5625675,4642.8189700925,143.700792,0,1.5944554316,20000,2018-04-11 21:06:34,19,0,23.318,4642.8189700925,143.700792,0.223694,1.85334979684,0,0,-0.671082,316.4, 5.9, 0.9,0,0,1024,1024,1024,1024,315.4,-89.9,97,3.855,3.844,3.91,3.88,0,0,20.394,71.6,14,Waypoint,
37.2865889,-119.5625674,4644.1313060925,145.013128,0,1.56592524696,20100,2018-04-11 21:06:35,19,0,23.318,4644.1313060925,145.013128,0.223694,1.85334979684,0,0,-0.671082,316.3, 6, 0.8,0,0,1024,1024,1024,1024,315.4,-89.9,97,3.855,3.844,3.91,3.88,0,0,20.394,71.6,14,Waypoint,
37.2865889,-119.5625673,4645.7717260925,146.653548,0,1.53741474736,20200,2018-04-11 21:06:35,19,0,23.318,4645.7717260925,146.653548,0.223694,1.85334979684,0,0,-0.671082,316.5, 5.8, 0.8,0,0,1024,1024,1024,1024,315.4,-89.9,97,3.855,3.844,3.91,3.88,0,0,20.394,71.6,14,Waypoint,
37.2865889,-119.5625672,4648.0683140925,148.950136,0,1.50892721364,20400,2018-04-11 21:06:35,19,0,23.318,4648.0683140925,148.950136,0.223694,1.85334979684,0,0,-0.671082,316.8, 5.9, 0.7,0,0,1024,1024,1024,1024,315.4,-89.9,97,3.855,3.844,3.91,3.88,0,0,20.394,71.6,14,Waypoint,
37.2865889,-119.5625672,4649.0525660925,149.934388,0,1.50892721364,20500,2018-04-11 21:06:35,19,0,23.318,4649.0525660925,149.934388,0.223694,1.85334979684,0,0,-0.671082,316.8, 5.8, 0.7,0,0,1024,1024,1024,1024,315.4,-89.9,97,3.855,3.844,3.91,3.88,0,0,20.394,71.6,14,Waypoint,
37.2865889,-119.5625671,4650.0368180925,150.91864,0,1.48045608412,20600,2018-04-11 21:06:35,19,0,23.318,4650.0368180925,150.91864,0.223694,1.85334979684,0,0,-0.671082,316.8, 5.7, 0.8,0,0,1024,1024,1024,1024,315.4,-90,97,3.855,3.844,3.91,3.88,0,0,20.394,71.6,14,Waypoint,
37.2865888,-119.5625671,4650.6929860925,151.574808,0,1.47369755372,20700,2018-04-11 21:06:35,19,0,23.318,4650.6929860925,151.574808,0.223694,1.85334979684,0,0,-0.671082,316.6, 5.6, 1,0,0,1024,1024,1024,1024,315.4,-90,97,3.855,3.844,3.91,3.88,0,0,20.394,71.6,14,Waypoint,
37.2865888,-119.5625671,4651.6772380925,152.55906,0,1.47369755372,20800,2018-04-11 21:06:35,19,0,23.318,4651.6772380925,152.55906,0.223694,1.85334979684,0,0,-0.671082,316.5, 5.6, 1.1,0,0,1024,1024,1024,1024,315.4,-90,97,3.855,3.844,3.91,3.88,0,0,20.394,71.6,14,Waypoint,
37.2865887,-119.562567,4652.6614900925,153.543312,0,1.43911750012,20900,2018-04-11 21:06:35,19,0,23.318,4652.6614900925,153.543312,0.223694,1.85334979684,0,0,-0.671082,316.3, 5.5, 1.2,0,0,1024,1024,1024,1024,315.4,-90,97,3.855,3.844,3.91,3.88,0,0,20.394,71.6,14,Waypoint,
37.2865887,-119.562567,4653.6457420925,154.527564,0,1.43911750012,21000,2018-04-11 21:06:35,19,0,23.221,4653.6457420925,154.527564,0.223694,1.85334979684,0,0,-0.671082,316.2, 5.6, 1.3,0,0,1024,1024,1024,1024,315.4,-89.9,97,3.853,3.833,3.9,3.872,0,0,20.394,71.6,14,Waypoint,
37.2865886,-119.5625669,4655.9423300925,156.824152,0,1.4052329846,21200,2018-04-11 21:06:36,19,0,23.221,4655.9423300925,156.824152,0.223694,1.85334979684,0,0,-0.671082,316.2, 6, 1.5,0,0,1024,1024,1024,1024,315.4,-89.9,97,3.853,3.833,3.9,3.872,0,0,20.394,71.6,14,Waypoint,
37.2865886,-119.5625669,4656.9265820925,157.808404,0,1.4052329846,21400,2018-04-11 21:06:36,19,0,23.221,4656.9265820925,157.808404,0.223694,1.85334979684,0,0,-0.671082,316.2, 5.9, 1.2,0,0,1024,1024,1024,1024,315.4,-90,97,3.853,3.833,3.9,3.872,0,0,20.394,71.6,14,Waypoint,
37.2865885,-119.5625668,4657.9108340925,158.792656,0,1.37209978144,21500,2018-04-11 21:06:36,19,0,23.221,4657.9108340925,158.792656,0.223694,1.85334979684,0,0,-0.671082,316.3, 5.9, 1.1,0,0,1024,1024,1024,1024,315.4,-90,97,3.853,3.833,3.9,3.872,0,0,20.394,71.6,14,Waypoint,
37.2865885,-119.5625668,4658.8950860925,159.776908,0,1.37209978144,21600,2018-04-11 21:06:36,19,0,23.221,4658.8950860925,159.776908,0.223694,1.85334979684,0,0,-0.671082,316.3, 6, 1.1,0,0,1024,1024,1024,1024,315.4,-90,97,3.853,3.833,3.9,3.872,0,0,20.394,71.6,14,Waypoint,
37.2865885,-119.5625667,4659.8793380925,160.76116,0,1.34323823196,21700,2018-04-11 21:06:36,19,0,23.221,4659.8793380925,160.76116,0.223694,1.85334979684,0,0,-0.671082,316.4, 5.7, 1.1,0,0,1024,1024,1024,1024,315.4,-90,97,3.853,3.833,3.9,3.872,0,0,20.394,71.6,14,Waypoint,
37.2865884,-119.5625667,4660.8635900925,161.745412,0,1.33976710324,21800,2018-04-11 21:06:36,19,0,23.221,4660.8635900925,161.745412,0.223694,1.85334979684,0,0,-0.671082,316.4, 5.5, 1.1,0,0,1024,1024,1024,1024,315.4,-90,97,3.853,3.833,3.9,3.872,0,0,20.394,71.6,14,Waypoint,
37.2865884,-119.5625666,4661.8478420925,162.729664,0,1.31083665612,21900,2018-04-11 21:06:36,19,0,23.221,4661.8478420925,162.729664,0.223694,1.85334979684,0,0,-0.671082,316.5, 5.4, 1,0,0,1024,1024,1024,1024,315.4,-90,97,3.853,3.833,3.9,3.872,0,0,20.394,71.6,14,Waypoint,
37.2865884,-119.5625666,4662.8320940925,163.713916,0,1.31083665612,22000,2018-04-11 21:06:36,19,0,23.164,4662.8320940925,163.713916,0.223694,1.85334979684,0,0,-0.671082,316.5, 5.3, 1.2,0,0,1024,1024,1024,1024,315.4,-90,97,3.839,3.835,3.881,3.856,0,0,20.479,71.6,14,Waypoint,
37.2865883,-119.5625666,4663.8163460925,164.698168,0,1.30829400512,22100,2018-04-11 21:06:37,19,0,23.164,4663.8163460925,164.698168,0.223694,1.85334979684,0,0,-0.671082,316.5, 5.3, 1.3,0,0,1024,1024,1024,1024,315.4,-90,97,3.839,3.835,3.881,3.856,0,0,20.479,71.6,14,Waypoint,
37.2865883,-119.5625665,4664.8005980925,165.68242,0,1.2793143454,22200,2018-04-11 21:06:37,19,0,23.164,4664.8005980925,165.68242,0.223694,1.85334979684,0,0,-0.671082,316.5, 5.4, 1.3,0,0,1024,1024,1024,1024,315.4,-90,97,3.839,3.835,3.881,3.856,0,0,20.479,71.6,14,Waypoint,
37.2865883,-119.5625665,4665.7848500925,166.666672,0,1.2793143454,22300,2018-04-11 21:06:37,19,0,23.164,4665.7848500925,166.666672,0.223694,1.85334979684,0,0,-0.671082,316.5, 5.4, 1.1,0,0,1024,1024,1024,1024,315.4,-89.9,97,3.839,3.835,3.881,3.856,0,0,20.479,71.6,14,Waypoint,
37.2865883,-119.5625665,4666.7691020925,167.650924,0,1.2793143454,22400,2018-04-11 21:06:37,19,0,23.164,4666.7691020925,167.650924,0.223694,1.85334979684,0,0,-0.671082,316.4, 5.4, 1,0,0,1024,1024,1024,1024,315.4,-90,97,3.839,3.835,3.881,3.856,0,0,20.479,71.6,14,Waypoint,
37.2865883,-119.5625665,4667.7533540925,168.635176,0,1.2793143454,22500,2018-04-11 21:06:37,19,0,23.164,4667.7533540925,168.635176,0.223694,1.85334979684,0,0,-0.671082,316.4, 5.5, 1,0,0,1024,1024,1024,1024,315.4,-89.9,97,3.839,3.835,3.881,3.856,0,0,20.479,71.6,14,Waypoint,
37.2865884,-119.5625665,4669.7218580925,170.60368,0,1.28191277068,22600,2018-04-11 21:06:37,19,0,23.164,4669.7218580925,170.60368,0.223694,1.85334979684,0,0,-0.671082,316.3, 5.9, 1,0,0,1024,1024,1024,1024,315.4,-89.9,97,3.839,3.835,3.881,3.856,0,0,20.479,71.6,14,Waypoint,
37.2865884,-119.5625665,4670.7061100925,171.587932,0,1.28191277068,22700,2018-04-11 21:06:37,19,0,23.164,4670.7061100925,171.587932,0.223694,1.85334979684,0,0,-0.671082,316.3, 5.9, 0.9,0,0,1024,1024,1024,1024,315.4,-89.9,97,3.839,3.835,3.881,3.856,0,0,20.479,71.6,14,Waypoint,
37.2865884,-119.5625665,4671.6903620925,172.572184,0,1.28191277068,22800,2018-04-11 21:06:37,19,0,23.164,4671.6903620925,172.572184,0.223694,1.85334979684,0,0,-0.671082,316.3, 6.2, 0.8,0,0,1024,1024,1024,1024,315.4,-89.9,97,3.839,3.835,3.881,3.856,0,0,20.479,71.6,14,Waypoint,
37.2865885,-119.5625665,4672.6746140925,173.556436,0,1.28554137972,22900,2018-04-11 21:06:37,19,0,23.164,4672.6746140925,173.556436,0.223694,1.85334979684,0,0,-0.671082,316.4, 6.3, 0.8,0,0,1024,1024,1024,1024,315.4,-89.9,97,3.839,3.835,3.881,3.856,0,0,20.479,71.6,14,Waypoint,
37.2865885,-119.5625665,4673.6588660925,174.540688,0,1.28554137972,23000,2018-04-11 21:06:37,19,0,23.221,4673.6588660925,174.540688,0.223694,1.85334979684,0,0,-0.671082,316.5, 6.4, 0.7,0,0,1024,1024,1024,1024,315.4,-89.9,97,3.84,3.848,3.889,3.875,0,0,19.442,71.6,14,Waypoint,
37.2865885,-119.5625665,4674.6431180925,175.52494,0,1.28554137972,23100,2018-04-11 21:06:38,19,0,23.221,4674.6431180925,175.52494,0.223694,1.85334979684,0,0,-0.671082,316.6, 6.4, 0.7,0,0,1024,1024,1024,1024,315.4,-89.9,97,3.84,3.848,3.889,3.875,0,0,19.442,71.6,14,Waypoint,
37.2865886,-119.5625665,4675.6273700925,176.509192,0,1.29019361084,23200,2018-04-11 21:06:38,19,0,23.221,4675.6273700925,176.509192,0.223694,1.85334979684,0,0,-0.671082,316.6, 6.3, 0.6,0,0,1024,1024,1024,1024,315.4,-89.9,97,3.84,3.848,3.889,3.875,0,0,19.442,71.6,14,Waypoint,
37.2865886,-119.5625665,4676.6116220925,177.493444,0,1.29019361084,23320,2018-04-11 21:06:38,19,0,23.221,4676.6116220925,177.493444,0.223694,1.85334979684,0,0,-0.671082,316.5, 6.2, 0.7,0,0,1024,1024,1024,1024,315.4,-89.9,97,3.84,3.848,3.889,3.875,0,0,19.442,71.6,14,Waypoint,
37.2865886,-119.5625665,4676.6116220925,177.493444,0,1.29019361084,23400,2018-04-11 21:06:38,19,0,23.221,4676.6116220925,177.493444,0.223694,1.85334979684,0,0,-0.671082,316.5, 6.2, 0.7,0,0,1024,1024,1024,1024,315.4,-89.9,97,3.84,3.848,3.889,3.875,0,0,19.442,71.6,14,Waypoint,
37.2865886,-119.5625665,4677.5958740925,178.477696,0,1.29019361084,23500,2018-04-11 21:06:38,19,0,23.221,4677.5958740925,178.477696,0.223694,1.85334979684,0,0,-0.671082,316.5, 6.1, 0.8,0,0,1024,1024,1024,1024,315.4,-89.9,97,3.84,3.848,3.889,3.875,0,0,19.442,71.6,14,Waypoint,
37.2865885,-119.5625665,4678.5801260925,179.461948,0,1.28554137972,23600,2018-04-11 21:06:38,19,0,23.221,4678.5801260925,179.461948,0.223694,1.85334979684,0,0,-0.671082,316.5, 6, 1,0,0,1024,1024,1024,1024,315.4,-89.9,97,3.84,3.848,3.889,3.875,0,0,19.442,71.6,14,Waypoint,
37.2865885,-119.5625664,4679.5643780925,180.4462,0,1.25670607696,23700,2018-04-11 21:06:38,19,0,23.221,4679.5643780925,180.4462,0.223694,1.85334979684,0,0,-0.671082,316.5, 6, 1.1,0,0,1024,1024,1024,1024,315.4,-90,97,3.84,3.848,3.889,3.875,0,0,19.442,71.6,14,Waypoint,
37.2865885,-119.5625664,4680.5486300925,181.430452,0,1.25670607696,23800,2018-04-11 21:06:38,19,0,23.221,4680.5486300925,181.430452,0.223694,1.85334979684,0,0,-0.671082,316.5, 5.9, 0.9,0,0,1024,1024,1024,1024,315.4,-90,97,3.84,3.848,3.889,3.875,0,0,19.442,71.6,14,Waypoint,
37.2865885,-119.5625663,4682.5171340925,183.398956,0,1.22787733588,23900,2018-04-11 21:06:38,19,0,23.221,4682.5171340925,183.398956,0.223694,1.85334979684,0,0,-0.671082,316.4, 5.6, 0.7,0,0,1024,1024,1024,1024,315.4,-90,97,3.84,3.848,3.889,3.875,0,0,19.442,71.6,14,Waypoint,
37.2865885,-119.5625663,4683.5013860925,184.383208,0,1.22787733588,24100,2018-04-11 21:06:39,19,0,23.221,4683.5013860925,184.383208,0.223694,1.85334979684,0,0,-0.671082,316.5, 5.5, 0.6,0,0,1024,1024,1024,1024,315.4,-90,97,3.84,3.848,3.889,3.875,0,0,19.442,71.6,14,Waypoint,
37.2865885,-119.5625662,4684.4856380925,185.36746,0,1.19906171816,24200,2018-04-11 21:06:39,19,0,23.221,4684.4856380925,185.36746,0.223694,1.85334979684,0,0,-0.671082,316.5, 5.5, 0.5,0,0,1024,1024,1024,1024,315.4,-90,97,3.84,3.848,3.889,3.875,0,0,19.442,71.6,14,Waypoint,
37.2865885,-119.5625662,4685.4698900925,186.351712,0,1.19906171816,24300,2018-04-11 21:06:39,19,0,23.221,4685.4698900925,186.351712,0.223694,1.85334979684,0,0,-0.671082,316.5, 5.3, 0.5,0,0,1024,1024,1024,1024,315.4,-89.9,97,3.84,3.848,3.889,3.875,0,0,19.442,71.6,14,Waypoint,
37.2865885,-119.5625662,4686.4541420925,187.335964,0,1.19906171816,24400,2018-04-11 21:06:39,19,0,23.221,4686.4541420925,187.335964,0.223694,1.85334979684,0,0,-0.671082,316.5, 5.4, 0.6,0,0,1024,1024,1024,1024,315.4,-90,97,3.84,3.848,3.889,3.875,0,0,19.442,71.6,14,Waypoint,
37.2865885,-119.5625662,4687.4383940925,188.320216,0,1.19906171816,24500,2018-04-11 21:06:39,19,0,23.221,4687.4383940925,188.320216,0.223694,1.85334979684,0,0,-0.671082,316.5, 5.5, 0.8,0,0,1024,1024,1024,1024,315.4,-89.9,97,3.84,3.848,3.889,3.875,0,0,19.442,71.6,14,Waypoint,
37.2865885,-119.5625662,4688.0945620925,188.976384,0,1.19906171816,24600,2018-04-11 21:06:39,19,0,23.221,4688.0945620925,188.976384,0.223694,1.85334979684,0,0,-0.671082,316.5, 5.6, 0.9,0,0,1024,1024,1024,1024,315.4,-89.9,97,3.84,3.848,3.889,3.875,0,0,19.442,71.6,14,Waypoint,
37.2865885,-119.5625662,4689.0788140925,189.960636,0,1.19906171816,24700,2018-04-11 21:06:39,19,0,23.221,4689.0788140925,189.960636,0.223694,1.85334979684,0,0,-0.671082,316.5, 5.5, 0.9,0,0,1024,1024,1024,1024,315.4,-89.9,97,3.84,3.848,3.889,3.875,0,0,19.442,71.6,14,Waypoint,
37.2865885,-119.5625662,4690.0630660925,190.944888,0,1.19906171816,24800,2018-04-11 21:06:39,19,0,23.221,4690.0630660925,190.944888,0.223694,1.85334979684,0,0,-0.671082,316.5, 5.4, 1.1,0,0,1024,1024,1024,1024,315.4,-89.9,97,3.84,3.848,3.889,3.875,0,0,19.442,71.6,14,Waypoint,
37.2865885,-119.5625662,4691.0473180925,191.92914,0,1.19906171816,24900,2018-04-11 21:06:39,19,0,23.221,4691.0473180925,191.92914,0.223694,1.85334979684,0,0,-0.671082,316.7, 5.5, 1.2,0,0,1024,1024,1024,1024,315.4,-89.9,97,3.84,3.848,3.889,3.875,0,0,19.442,71.6,14,Waypoint,
37.2865885,-119.5625662,4693.0158220925,193.897644,0,1.19906171816,25000,2018-04-11 21:06:39,19,0,23.203,4693.0158220925,193.897644,0.223694,1.85334979684,0,0,-0.671082,316.8, 5.5, 1.2,0,0,1024,1024,1024,1024,315.4,-89.9,96,3.834,3.843,3.893,3.871,0,0,19.706,71.6,14,Waypoint,
37.2865884,-119.5625662,4694.6562420925,195.538064,0,1.19517064192,25200,2018-04-11 21:06:40,19,0,23.203,4694.6562420925,195.538064,0.223694,1.85334979684,0,0,-0.671082,316.9, 5.3, 1,0,0,1024,1024,1024,1024,315.4,-90,96,3.834,3.843,3.893,3.871,0,0,19.706,71.6,14,Waypoint,
37.2865884,-119.5625662,4695.9685780925,196.8504,0,1.19517064192,25300,2018-04-11 21:06:40,19,0,23.203,4695.9685780925,196.8504,0.223694,1.85334979684,0,0,-0.671082,316.8, 5.5, 0.9,0,0,1024,1024,1024,1024,315.4,-89.9,96,3.834,3.843,3.893,3.871,0,0,19.706,71.6,14,Waypoint,
37.2865884,-119.5625663,4696.9528300925,197.834652,0,1.22407812316,25400,2018-04-11 21:06:40,19,0,23.203,4696.9528300925,197.834652,0.223694,1.85334979684,0,0,-0.671082,316.7, 5.7, 1,0,0,1024,1024,1024,1024,315.4,-89.9,96,3.834,3.843,3.893,3.871,0,0,19.706,71.6,14,Waypoint,
37.2865884,-119.5625663,4697.9370820925,198.818904,0,1.22407812316,25500,2018-04-11 21:06:40,19,0,23.203,4697.9370820925,198.818904,0.223694,1.85334979684,0,0,-0.671082,316.6, 5.9, 1.1,0,0,1024,1024,1024,1024,315.4,-89.9,96,3.834,3.843,3.893,3.871,0,0,19.706,71.6,14,Waypoint,
37.2865884,-119.5625662,4698.9213340925,199.803156,0,1.19517064192,25600,2018-04-11 21:06:40,19,0,23.203,4698.9213340925,199.803156,0.223694,1.85334979684,0,0,-0.671082,316.5, 5.8, 1.1,0,0,1024,1024,1024,1024,315.4,-89.9,96,3.834,3.843,3.893,3.871,0,0,19.706,71.6,14,Waypoint,
37.2865884,-119.5625662,4699.9055860925,200.787408,0,1.19517064192,25700,2018-04-11 21:06:40,19,0,23.203,4699.9055860925,200.787408,0.223694,1.85334979684,0,0,-0.671082,316.4, 5.7, 1.2,0,0,1024,1024,1024,1024,315.4,-89.9,96,3.834,3.843,3.893,3.871,0,0,19.706,71.6,14,Waypoint,
37.2865884,-119.5625662,4700.8898380925,201.77166,0,1.19517064192,25800,2018-04-11 21:06:40,19,0,23.203,4700.8898380925,201.77166,0.223694,1.85334979684,0,0,-0.671082,316.3, 5.7, 1.1,0,0,1024,1024,1024,1024,315.4,-89.9,96,3.834,3.843,3.893,3.871,0,0,19.706,71.6,14,Waypoint,
37.2865884,-119.5625662,4701.8740900925,202.755912,0,1.19517064192,25900,2018-04-11 21:06:40,19,0,23.203,4701.8740900925,202.755912,0.223694,1.85334979684,0,0,-0.671082,316.2, 5.7, 1,0,0,1024,1024,1024,1024,315.4,-89.9,96,3.834,3.843,3.893,3.871,0,0,19.706,71.6,14,Waypoint,
37.2865884,-119.5625662,4702.5302580925,203.41208,0,1.19517064192,26000,2018-04-11 21:06:40,19,0,23.072,4702.5302580925,203.41208,0.223694,1.85334979684,0,0,-0.671082,316.2, 5.5, 1,0,0,1024,1024,1024,1024,315.4,-90,96,3.834,3.843,3.893,3.871,0,0,20.959,71.6,14,Waypoint,
37.2865883,-119.5625662,4703.5145100925,204.396332,0,1.19238192792,26100,2018-04-11 21:06:41,19,0,23.072,4703.5145100925,204.396332,0.223694,1.85334979684,0,0,-0.671082,316.3, 5.4, 1.3,0,0,1024,1024,1024,1024,315.4,-90,96,3.834,3.843,3.893,3.871,0,0,20.959,71.6,14,Waypoint,
37.2865883,-119.5625661,4705.8110980925,206.69292,0,1.16340882988,26310,2018-04-11 21:06:41,19,0,23.072,4705.8110980925,206.69292,0.223694,1.85334979684,0,0,-0.671082,316.5, 5.5, 1.7,0,0,1024,1024,1024,1024,315.4,-89.9,96,3.834,3.843,3.893,3.871,0,0,20.959,71.6,14,Waypoint,
37.2865883,-119.5625661,4706.7953500925,207.677172,0,1.16340882988,26410,2018-04-11 21:06:41,19,0,23.072,4706.7953500925,207.677172,0.223694,1.85334979684,0,0,-0.671082,316.6, 5.4, 1.4,0,0,1024,1024,1024,1024,315.4,-89.9,96,3.834,3.843,3.893,3.871,0,0,20.959,71.6,14,Waypoint,
37.2865883,-119.562566,4707.7796020925,208.661424,0,1.13443901268,26600,2018-04-11 21:06:41,19,0,23.072,4707.7796020925,208.661424,0.223694,1.85334979684,0,0,-0.671082,316.6, 5, 0.9,0,0,1024,1024,1024,1024,315.4,-90,96,3.834,3.843,3.893,3.871,0,0,20.959,71.6,14,Waypoint,
37.2865883,-119.5625659,4708.7638540925,209.645676,0,1.10547247632,26700,2018-04-11 21:06:41,19,0,23.072,4708.7638540925,209.645676,0.223694,1.85334979684,0,0,-0.671082,316.6, 4.7, 0.4,0,0,1024,1024,1024,1024,315.4,-90,96,3.834,3.843,3.893,3.871,0,0,20.959,71.6,14,Waypoint,
37.2865883,-119.5625659,4709.7481060925,210.629928,0,1.10547247632,26800,2018-04-11 21:06:41,19,0,23.072,4709.7481060925,210.629928,0.223694,1.85334979684,0,0,-0.671082,316.7, 4.9, 0.3,0,0,1024,1024,1024,1024,315.4,-89.9,96,3.834,3.843,3.893,3.871,0,0,20.959,71.6,14,Waypoint,
37.2865882,-119.5625658,4711.7166100925,212.598432,0,1.0746555462,26910,2018-04-11 21:06:41,19,0,23.072,4711.7166100925,212.598432,0.223694,1.85334979684,0,0,-0.671082,316.6, 5.2, 0.6,0,0,1024,1024,1024,1024,315.4,-89.9,96,3.834,3.843,3.893,3.871,0,0,20.959,71.6,14,Waypoint,
37.2865882,-119.5625658,4713.6851140925,214.566936,0,1.0746555462,27200,2018-04-11 21:06:42,19,0,23.072,4713.6851140925,214.566936,0.223694,1.85334979684,0,0,-0.671082,316.5, 5.6, 0.9,0,0,1024,1024,1024,1024,315.4,-89.9,96,3.834,3.843,3.893,3.871,0,0,20.959,71.6,14,Waypoint,
37.2865882,-119.5625658,4714.6693660925,215.551188,0,1.0746555462,27300,2018-04-11 21:06:42,19,0,23.072,4714.6693660925,215.551188,0.223694,1.85334979684,0,0,-0.671082,316.6, 5.4, 1,0,0,1024,1024,1024,1024,315.4,-89.9,96,3.834,3.843,3.893,3.871,0,0,20.959,71.6,14,Waypoint,
37.2865882,-119.5625658,4716.9659540925,217.847776,0,1.0746555462,27500,2018-04-11 21:06:42,19,0,23.072,4716.9659540925,217.847776,0.223694,1.85334979684,0,0,-0.671082,316.7, 5.6, 1.4,0,0,1024,1024,1024,1024,315.4,-89.9,96,3.834,3.843,3.893,3.871,0,0,20.959,71.6,14,Waypoint,
