Latitude, Longitude, Altitude (m), Time, Sats, Speed (m/s), Range (m), Battery (%), Roll (deg), Pitch (deg), Yaw (deg), Images, HD Signal (%), RC Signal (%), Battery Temp (C), Battery Voltage (mV), Battery Current (mA), Battery Energy (mAh), Battery Capacity (mAh), Battery Discharges, flyState, timestamp (Unix), LastUpdate (ms), radioChannel, Rc_elevator, Rc_aileron, Rc_throttle, Rc_rudder, Rc_gyro, Dronetype, Battery_Cell1 (mV), Battery_Cell2 (mV), Battery_Cell3 (mV), Battery_Cell4 (mV), Battery_Cell5 (mV), Battery_Cell6 (mV), Video, isFlying, elapsedTime (ms), gimbalPitch (deg), gimbalRoll (deg), gimbalYaw (deg), VelocityX (m/s), VelocityY (m/s), VelocityZ (m/s), GroundSmear (cm), App Version, Aircraft Name, Aircraft Firmware, Aircraft Serial Number, Battery Serial Number, Battery Lifetime (%), App_Tip, App_Warning, CurrentFlightStartingIndex, CurrentFlightLastVisitedWaypoint, PreviousFlightEndingWaypointIndex
37.2865881, -119.5625609, 0.000, 13:16:36.203, 16, 0.00, 0.08, 93, -0.800, -0.100, -42.500, 228, 100, 100, 19, 25627, -3036, 5141, 5529, 9, 11, 1523477796.204, 146, 0, 1024, 1024, 1024, 1024, 0, 6, 4288, 4263, 4263, 4287, 4281, 4258, 0, 1, 3014, -89.900, 0.000, -43.500, 0.000, 0.000, -0.100, 0.0, MapPilot_2.7.4_02272018, Dendroctonus I, 1.3.1.00, 041DDC1887, 1058171200140, 98, DJI_0227.jpg, Starting Mission from Lat/Long: 37.28658/-119.56255 Camera: Zenmuse X3 - Overlap: 90/90 - Active Connection: Yes, 11, 11, 11
37.2865882, -119.5625611, 0.000, 13:16:36.303, 16, 0.00, 0.10, 93, 0.500, 0.000, -42.500, 228, 100, 100, 19, 25493, -4509, 5141, 5529, 9, 11, 1523477796.303, 12, 0, 1024, 1024, 1024, 1024, 0, 6, 4233, 4259, 4209, 4219, 4219, 4223, 0, 1, 3114, -89.900, 0.000, -43.500, 0.000, 0.000, -0.300, 0.0, , , , , , 98, , , 11, 11, 11
37.2865882, -119.5625611, 0.000, 13:16:36.390, 16, 0.00, 0.10, 93, 0.500, 0.000, -42.500, 228, 100, 100, 19, 25493, -4509, 5141, 5529, 9, 11, 1523477796.391, 100, 0, 1024, 1024, 1024, 1024, 0, 6, 4233, 4259, 4209, 4219, 4219, 4223, 0, 1, 3201, -89.900, 0.000, -43.500, 0.000, 0.000, -0.300, 0.0, , , , , , 98, , , 11, 11, 11
37.2865883, -119.5625614, 0.100, 13:16:36.490, 16, 0.10, 0.12, 93, 0.500, 0.400, -42.600, 228, 100, 100, 19, 25493, -4509, 5141, 5529, 9, 11, 1523477796.491, 41, 0, 1024, 1024, 1024, 1024, 0, 6, 4233, 4259, 4209, 4219, 4219, 4223, 0, 1, 3301, -89.900, 0.000, -43.500, 0.100, 0.000, -0.400, 0.0, , , , , , 98, , , 11, 11, 11
37.2865884, -119.5625615, 0.100, 13:16:36.590, 16, 0.10, 0.14, 93, 0.100, 0.600, -42.700, 228, 100, 100, 19, 25493, -4509, 5141, 5529, 9, 11, 1523477796.590, 41, 0, 1024, 1024, 1024, 1024, 0, 6, 4233, 4259, 4209, 4219, 4219, 4223, 0, 1, 3401, -89.900, 0.000, -43.500, 0.100, 0.000, -0.400, 0.0, , , , , , 98, , , 11, 11, 11
37.2865886, -119.5625616, 0.200, 13:16:36.690, 17, 0.10, 0.15, 93, -0.200, 0.900, -42.700, 228, 100, 100, 19, 25493, -4509, 5141, 5529, 9, 11, 1523477796.692, 29, 0, 1024, 1024, 1024, 1024, 0, 6, 4233, 4259, 4209, 4219, 4219, 4223, 0, 1, 3502, -89.900, 0.000, -43.500, 0.100, 0.000, -0.400, 0.0, , , , , , 98, , , 11, 11, 11
37.2865888, -119.5625616, 0.200, 13:16:36.789, 17, 0.10, 0.17, 93, -0.800, 1.100, -42.700, 228, 100, 100, 19, 25493, -4509, 5141, 5529, 9, 11, 1523477796.790, 7, 0, 1024, 1024, 1024, 1024, 0, 6, 4233, 4259, 4209, 4219, 4219, 4223, 0, 1, 3600, -89.900, 0.000, -43.500, 0.100, 0.000, -0.400, 0.0, , , , , , 98, , , 11, 11, 11
37.2865889, -119.5625617, 0.300, 13:16:36.890, 16, 0.10, 0.19, 93, -1.100, 1.200, -42.700, 228, 100, 100, 19, 25493, -4509, 5141, 5529, 9, 11, 1523477796.891, 22, 0, 1024, 1024, 1024, 1024, 0, 6, 4233, 4259, 4209, 4219, 4219, 4223, 0, 1, 3701, -89.900, 0.000, -43.500, 0.100, 0.000, -0.400, 0.0, , , , , , 98, , , 11, 11, 11
37.2865891, -119.5625618, 0.300, 13:16:36.990, 16, 0.10, 0.20, 93, -1.100, 1.500, -42.600, 228, 100, 100, 19, 25493, -4509, 5141, 5529, 9, 11, 1523477796.990, 21, 0, 1024, 1024, 1024, 1024, 0, 6, 4233, 4259, 4209, 4219, 4219, 4223, 0, 1, 3801, -89.900, 0.000, -43.500, 0.100, 0.000, -0.400, 0.0, , , , , , 98, , , 11, 11, 11
37.2865892, -119.5625619, 0.400, 13:16:37.090, 16, 0.10, 0.22, 93, -1.200, 1.700, -42.600, 228, 100, 100, 19, 25493, -4509, 5141, 5529, 9, 11, 1523477797.091, 24, 0, 1024, 1024, 1024, 1024, 0, 6, 4233, 4259, 4209, 4219, 4219, 4223, 0, 1, 3901, -89.900, 0.000, -43.500, 0.100, 0.000, -0.400, 0.0, , , , , , 98, , , 11, 11, 11
37.2865893, -119.5625620, 0.400, 13:16:37.190, 16, 0.10, 0.24, 93, -1.200, 2.100, -42.500, 228, 100, 100, 19, 24404, -14388, 5141, 5529, 9, 11, 1523477797.191, 11, 0, 1024, 1024, 1024, 1024, 0, 6, 4233, 4259, 4209, 4219, 4219, 4223, 0, 1, 4001, -89.900, 0.000, -43.500, 0.100, 0.000, -0.400, 0.0, , , , , , 98, , , 11, 11, 11
37.2865894, -119.5625621, 0.500, 13:16:37.290, 17, 0.10, 0.25, 93, -1.200, 2.400, -42.500, 228, 100, 100, 19, 24404, -14388, 5141, 5529, 9, 11, 1523477797.291, 16, 0, 1024, 1024, 1024, 1024, 0, 6, 4041, 4024, 4042, 4056, 4028, 4061, 0, 1, 4101, -89.900, 0.000, -43.500, 0.100, 0.000, -0.400, 0.0, , , , , , 98, , , 11, 11, 11
37.2865894, -119.5625621, 0.500, 13:16:37.390, 17, 0.00, 0.25, 93, -1.100, 2.600, -42.400, 228, 100, 100, 19, 24404, -14388, 5141, 5529, 9, 11, 1523477797.391, 16, 0, 1024, 1024, 1024, 1024, 0, 6, 4041, 4024, 4042, 4056, 4028, 4061, 0, 1, 4201, -89.900, 0.000, -43.500, 0.000, 0.000, -0.500, 0.0, , , , , , 98, , , 11, 11, 11
37.2865894, -119.5625621, 0.500, 13:16:37.490, 17, 0.00, 0.25, 93, -1.100, 2.600, -42.400, 228, 100, 100, 19, 24404, -14388, 5141, 5529, 9, 11, 1523477797.491, 116, 0, 1024, 1024, 1024, 1024, 0, 6, 4041, 4024, 4042, 4056, 4028, 4061, 0, 1, 4301, -89.900, 0.000, -43.500, 0.000, 0.000, -0.500, 0.0, , , , , , 98, , , 11, 11, 11
37.2865896, -119.5625623, 0.600, 13:16:37.592, 17, 0.00, 0.27, 93, -0.900, 2.400, -42.400, 228, 100, 100, 19, 24404, -14388, 5141, 5529, 9, 11, 1523477797.593, 5, 0, 1024, 1024, 1024, 1024, 0, 6, 4041, 4024, 4042, 4056, 4028, 4061, 0, 1, 4403, -89.900, 0.000, -43.500, 0.000, 0.000, -0.500, 0.0, , , , , , 98, , , 11, 11, 11
37.2865896, -119.5625623, 0.600, 13:16:37.690, 17, 0.00, 0.27, 93, -0.900, 2.400, -42.400, 228, 100, 100, 19, 24404, -14388, 5141, 5529, 9, 11, 1523477797.691, 103, 0, 1024, 1024, 1024, 1024, 0, 6, 4041, 4024, 4042, 4056, 4028, 4061, 0, 1, 4501, -89.900, 0.000, -43.500, 0.000, 0.000, -0.500, 0.0, , , , , , 98, , , 11, 11, 11
37.2865896, -119.5625623, 0.700, 13:16:37.790, 17, 0.00, 0.28, 93, -0.800, 2.300, -42.400, 228, 100, 100, 19, 24404, -14388, 5141, 5529, 9, 11, 1523477797.791, 23, 0, 1024, 1024, 1024, 1024, 0, 6, 4041, 4024, 4042, 4056, 4028, 4061, 0, 1, 4601, -89.900, 0.000, -43.500, 0.000, 0.000, -0.500, 0.0, , , , , , 98, , , 11, 11, 11
37.2865896, -119.5625623, 0.800, 13:16:37.890, 17, 0.00, 0.27, 93, -0.800, 2.200, -42.400, 228, 100, 100, 19, 24404, -14388, 5141, 5529, 9, 11, 1523477797.891, 49, 0, 1024, 1024, 1024, 1024, 0, 6, 4041, 4024, 4042, 4056, 4028, 4061, 0, 1, 4701, -89.900, 0.000, -43.500, 0.000, 0.000, -0.400, 0.0, , , , , , 98, , , 11, 11, 11
37.2865896, -119.5625622, 0.800, 13:16:37.990, 17, 0.00, 0.27, 93, -0.800, 1.900, -42.600, 228, 100, 100, 19, 24404, -14388, 5141, 5529, 9, 11, 1523477797.991, 81, 0, 1024, 1024, 1024, 1024, 0, 6, 4041, 4024, 4042, 4056, 4028, 4061, 0, 1, 4801, -89.900, 0.000, -43.500, 0.000, 0.000, -0.400, 0.0, , , , , , 98, , , 11, 11, 11
37.2865896, -119.5625622, 0.900, 13:16:38.090, 17, 0.00, 0.27, 93, -0.800, 1.800, -42.600, 228, 100, 100, 19, 24404, -14388, 5141, 5529, 9, 14, 1523477798.091, 23, 0, 1024, 1024, 1024, 1024, 0, 6, 4041, 4024, 4042, 4056, 4028, 4061, 0, 1, 4901, -89.900, 0.000, -43.500, 0.000, 0.000, -0.400, 0.0, , , , , , 98, , , 11, 11, 11
37.2865896, -119.5625621, 0.900, 13:16:38.190, 17, 0.00, 0.27, 93, -0.900, 1.600, -42.600, 228, 100, 100, 19, 24404, -14388, 5141, 5529, 9, 14, 1523477798.190, 10, 0, 1024, 1024, 1024, 1024, 0, 6, 4041, 4024, 4042, 4056, 4028, 4061, 0, 1, 5001, -89.900, 0.000, -43.500, 0.000, 0.000, -0.300, 0.0, , , , , , 98, , , 11, 11, 11
37.2865896, -119.5625621, 0.900, 13:16:38.290, 17, 0.00, 0.27, 93, -0.900, 1.600, -42.600, 228, 100, 100, 19, 24404, -14388, 5141, 5529, 9, 14, 1523477798.291, 110, 0, 1024, 1024, 1024, 1024, 0, 6, 4041, 4024, 4042, 4056, 4028, 4061, 0, 1, 5101, -89.900, 0.000, -43.500, 0.000, 0.000, -0.300, 0.0, , , , , , 98, , , 11, 11, 11
37.2865896, -119.5625621, 1.000, 13:16:38.390, 17, 0.00, 0.27, 93, -0.900, 0.300, -42.500, 228, 100, 100, 19, 24062, -16108, 5141, 5529, 9, 14, 1523477798.390, 12, 0, 1024, 1024, 1024, 1024, 0, 6, 4041, 4024, 4042, 4056, 4028, 4061, 0, 1, 5201, -90.000, 0.000, -43.400, 0.000, 0.000, -0.200, 0.0, , , , , , 98, , , 11, 11, 11
37.2865896, -119.5625622, 1.000, 13:16:38.490, 17, 0.00, 0.26, 93, -0.700, -0.100, -42.300, 228, 100, 100, 19, 24062, -16108, 5141, 5529, 9, 14, 1523477798.492, 30, 0, 1024, 1024, 1024, 1024, 0, 6, 4041, 4024, 4042, 4056, 4028, 4061, 0, 1, 5302, -90.000, 0.000, -43.400, 0.000, 0.000, -0.300, 0.0, , , , , , 98, , , 11, 11, 11
37.2865896, -119.5625621, 1.100, 13:16:38.590, 17, 0.00, 0.27, 93, -0.700, 0.000, -42.200, 228, 100, 100, 19, 24062, -16108, 5141, 5529, 9, 14, 1523477798.591, 67, 0, 1024, 1024, 1024, 1024, 0, 6, 3996, 4000, 3998, 4009, 3990, 4009, 0, 1, 5402, -90.000, 0.000, -43.500, 0.000, 0.000, -0.400, 0.0, , , , , , 98, , , 11, 11, 11
37.2865897, -119.5625621, 1.200, 13:16:38.698, 17, 0.00, 0.27, 93, -0.900, 0.600, -42.000, 228, 100, 100, 19, 24062, -16108, 5141, 5529, 9, 14, 1523477798.698, 8, 0, 1024, 1024, 1024, 1024, 0, 6, 3996, 4000, 3998, 4009, 3990, 4009, 0, 1, 5509, -89.900, 0.000, -43.500, 0.000, 0.000, -0.600, 0.0, , , , , , 98, , , 11, 11, 11
37.2865897, -119.5625622, 1.200, 13:16:38.790, 17, 0.00, 0.28, 93, -0.900, 0.900, -42.000, 228, 100, 100, 19, 24062, -16108, 5141, 5529, 9, 14, 1523477798.791, 21, 0, 1024, 1024, 1024, 1024, 0, 6, 3996, 4000, 3998, 4009, 3990, 4009, 0, 1, 5601, -89.900, 0.000, -43.500, 0.000, 0.000, -0.700, 0.0, , , , , , 98, , , 11, 11, 11
37.2865898, -119.5625622, 1.300, 13:16:38.890, 17, 0.00, 0.28, 93, -0.900, 1.000, -42.100, 228, 100, 100, 19, 24062, -16108, 5141, 5529, 9, 14, 1523477798.891, 51, 0, 1024, 1024, 1024, 1024, 0, 6, 3996, 4000, 3998, 4009, 3990, 4009, 0, 1, 5701, -89.900, 0.000, -43.500, 0.000, 0.000, -0.900, 0.0, , , , , , 98, , , 11, 11, 11
37.2865898, -119.5625622, 1.300, 13:16:38.990, 17, 0.00, 0.28, 93, -0.900, 1.000, -42.100, 228, 100, 100, 19, 24062, -16108, 5141, 5529, 9, 14, 1523477798.991, 150, 0, 1024, 1024, 1024, 1024, 0, 6, 3996, 4000, 3998, 4009, 3990, 4009, 0, 1, 5801, -89.900, 0.000, -43.500, 0.000, 0.000, -0.900, 0.0, , , , , , 98, , , 11, 11, 11
37.2865899, -119.5625622, 1.400, 13:16:39.101, 17, 0.00, 0.29, 93, -1.000, 1.200, -42.200, 228, 100, 100, 19, 24062, -16108, 5141, 5529, 9, 14, 1523477799.102, 6, 0, 1024, 1024, 1024, 1024, 0, 6, 3996, 4000, 3998, 4009, 3990, 4009, 0, 1, 5912, -89.900, 0.000, -43.500, 0.000, 0.000, -1.100, 0.0, , , , , , 98, , , 11, 11, 11
37.2865899, -119.5625622, 1.400, 13:16:39.190, 17, 0.00, 0.29, 93, -1.000, 1.200, -42.200, 228, 100, 100, 19, 24062, -16108, 5141, 5529, 9, 14, 1523477799.191, 95, 0, 1024, 1024, 1024, 1024, 0, 6, 3996, 4000, 3998, 4009, 3990, 4009, 0, 1, 6001, -89.900, 0.000, -43.500, 0.000, 0.000, -1.100, 0.0, , , , , , 98, , , 11, 11, 11
37.2865900, -119.5625622, 1.600, 13:16:39.290, 17, 0.00, 0.30, 93, -1.200, 1.400, -42.400, 228, 100, 100, 19, 24062, -16108, 5141, 5529, 9, 14, 1523477799.291, 92, 0, 1024, 1024, 1024, 1024, 0, 6, 3996, 4000, 3998, 4009, 3990, 4009, 0, 1, 6101, -89.900, 0.000, -43.500, 0.000, 0.000, -1.300, 0.0, , , , , , 98, , , 11, 11, 11
37.2865901, -119.5625622, 1.700, 13:16:39.390, 17, 0.00, 0.31, 93, -1.400, 1.400, -42.600, 228, 100, 100, 19, 23937, -15539, 5141, 5529, 9, 14, 1523477799.391, 82, 0, 1024, 1024, 1024, 1024, 0, 6, 3970, 4073, 3974, 3985, 3975, 4014, 0, 1, 6201, -89.900, 0.000, -43.400, 0.000, 0.000, -1.500, 0.0, , , , , , 98, , , 11, 11, 11
37.2865902, -119.5625622, 1.900, 13:16:39.490, 17, 0.00, 0.32, 93, -1.300, 1.400, -42.600, 228, 100, 100, 19, 23937, -15539, 5141, 5529, 9, 14, 1523477799.491, 79, 0, 1024, 1024, 1024, 1024, 0, 6, 3970, 4073, 3974, 3985, 3975, 4014, 0, 1, 6302, -89.900, 0.000, -43.400, 0.000, 0.000, -1.700, 0.0, , , , , , 98, , , 11, 11, 11
37.2865903, -119.5625623, 2.300, 13:16:39.598, 17, 0.00, 0.34, 93, -1.100, 1.100, -42.800, 228, 100, 100, 19, 23937, -15539, 5141, 5529, 9, 14, 1523477799.599, 14, 0, 1024, 1024, 1024, 1024, 0, 6, 3970, 4073, 3974, 3985, 3975, 4014, 0, 1, 6409, -90.000, 0.000, -43.400, 0.000, 0.000, -2.200, 0.0, , , , , , 98, , , 11, 11, 11
37.2865904, -119.5625624, 2.500, 13:16:39.690, 17, 0.00, 0.35, 93, -1.000, 1.000, -42.800, 228, 100, 100, 19, 23937, -15539, 5141, 5529, 9, 14, 1523477799.691, 56, 0, 1024, 1024, 1024, 1024, 0, 6, 3970, 4073, 3974, 3985, 3975, 4014, 0, 1, 6501, -89.900, 0.000, -43.400, 0.000, 0.000, -2.400, 0.0, , , , , , 98, , , 11, 11, 11
37.2865905, -119.5625624, 2.800, 13:16:39.790, 18, 0.00, 0.36, 93, -1.000, 1.200, -42.700, 228, 100, 100, 19, 23937, -15539, 5141, 5529, 9, 14, 1523477799.791, 91, 0, 1024, 1024, 1024, 1024, 0, 6, 3970, 4073, 3974, 3985, 3975, 4014, 0, 1, 6601, -89.900, 0.000, -43.400, 0.000, 0.000, -2.600, 0.0, , , , , , 98, , , 11, 11, 11
37.2865906, -119.5625624, 3.100, 13:16:39.890, 18, 0.00, 0.37, 93, -1.200, 1.300, -42.600, 228, 100, 100, 19, 23937, -15539, 5141, 5529, 9, 14, 1523477799.891, 78, 0, 1024, 1024, 1024, 1024, 0, 6, 3970, 4073, 3974, 3985, 3975, 4014, 0, 1, 6701, -89.900, 0.000, -43.400, 0.000, 0.000, -2.800, 0.0, , , , , , 98, , , 11, 11, 11
37.2865908, -119.5625624, 3.400, 13:16:39.991, 18, 0.00, 0.38, 93, -1.500, 1.400, -42.400, 228, 100, 100, 19, 23937, -15539, 5141, 5529, 9, 14, 1523477799.991, 12, 0, 1024, 1024, 1024, 1024, 0, 6, 3970, 4073, 3974, 3985, 3975, 4014, 0, 1, 6802, -89.900, 0.000, -43.400, 0.000, 0.000, -2.900, 0.0, , , , , , 98, , , 11, 11, 11
37.2865909, -119.5625625, 3.700, 13:16:40.090, 18, 0.00, 0.40, 93, -1.800, 1.400, -42.200, 228, 100, 100, 19, 23937, -15539, 5141, 5529, 9, 14, 1523477800.091, 57, 0, 1024, 1024, 1024, 1024, 0, 6, 3970, 4073, 3974, 3985, 3975, 4014, 0, 1, 6901, -89.900, 0.000, -43.300, 0.000, 0.000, -3.100, 0.0, , , , , , 98, , , 11, 11, 11
37.2865910, -119.5625626, 4.000, 13:16:40.190, 18, 0.00, 0.41, 93, -1.600, 1.500, -42.000, 228, 100, 100, 19, 23937, -15539, 5141, 5529, 9, 14, 1523477800.191, 74, 0, 1024, 1024, 1024, 1024, 0, 6, 3970, 4073, 3974, 3985, 3975, 4014, 0, 1, 7001, -89.900, 0.000, -43.300, 0.000, 0.000, -3.100, 0.0, , , , , , 98, , , 11, 11, 11
37.2865912, -119.5625628, 4.700, 13:16:40.290, 19, 0.00, 0.44, 93, -1.000, 2.100, -42.100, 228, 100, 100, 19, 23502, -21774, 5141, 5529, 9, 14, 1523477800.291, 90, 0, 1024, 1024, 1024, 1024, 0, 6, 3970, 4073, 3974, 3985, 3975, 4014, 0, 1, 7101, -89.900, 0.000, -43.300, 0.000, 0.000, -3.200, 0.0, , , , , , 98, , , 11, 11, 11
37.2865913, -119.5625630, 5.000, 13:16:40.390, 19, 0.00, 0.46, 93, -0.800, 2.300, -42.100, 228, 100, 100, 19, 23502, -21774, 5141, 5529, 9, 14, 1523477800.391, 72, 0, 1024, 1024, 1024, 1024, 0, 6, 3970, 4073, 3974, 3985, 3975, 4014, 0, 1, 7201, -89.900, 0.000, -43.300, 0.000, 0.000, -3.200, 0.0, , , , , , 98, , , 11, 11, 11
37.2865913, -119.5625630, 5.400, 13:16:40.490, 18, 0.00, 0.46, 93, -0.800, 2.400, -42.300, 228, 100, 100, 19, 23502, -21774, 5141, 5529, 9, 14, 1523477800.491, 70, 0, 1024, 1024, 1024, 1024, 0, 6, 3970, 4073, 3974, 3985, 3975, 4014, 0, 1, 7301, -89.900, 0.000, -43.300, 0.000, 0.000, -3.200, 0.0, , , , , , 98, , , 11, 11, 11
37.2865913, -119.5625630, 5.400, 13:16:40.590, 18, 0.00, 0.46, 93, -0.800, 2.400, -42.300, 228, 100, 100, 19, 23502, -21774, 5141, 5529, 9, 14, 1523477800.591, 170, 0, 1024, 1024, 1024, 1024, 0, 6, 3970, 4073, 3974, 3985, 3975, 4014, 0, 1, 7401, -89.900, 0.000, -43.300, 0.000, 0.000, -3.200, 0.0, , , , , , 98, , , 11, 11, 11
37.2865913, -119.5625630, 6.000, 13:16:40.690, 18, 0.00, 0.46, 93, -1.000, 2.200, -42.800, 228, 100, 100, 19, 23502, -21774, 5141, 5529, 9, 14, 1523477800.691, 45, 0, 1024, 1024, 1024, 1024, 0, 6, 3970, 4073, 3974, 3985, 3975, 4014, 0, 1, 7501, -89.900, 0.000, -43.300, 0.000, 0.000, -3.100, 0.0, , , , , , 98, , , 11, 11, 11
37.2865913, -119.5625630, 6.400, 13:16:40.790, 18, 0.00, 0.46, 93, -0.900, 2.000, -43.000, 228, 100, 100, 19, 23502, -21774, 5141, 5529, 9, 14, 1523477800.791, 47, 0, 1024, 1024, 1024, 1024, 0, 6, 3970, 4073, 3974, 3985, 3975, 4014, 0, 1, 7601, -89.900, 0.000, -43.300, 0.000, 0.000, -3.100, 0.0, , , , , , 98, , , 11, 11, 11
37.2865912, -119.5625631, 6.700, 13:16:40.890, 17, 0.00, 0.46, 93, -0.700, 1.900, -43.100, 228, 100, 100, 19, 23502, -21774, 5141, 5529, 9, 14, 1523477800.891, 42, 0, 1024, 1024, 1024, 1024, 0, 6, 3863, 3905, 3889, 3902, 3885, 3905, 0, 1, 7702, -89.900, 0.000, -43.300, 0.000, 0.000, -3.100, 0.0, , , , , , 98, , , 11, 11, 11
37.2865911, -119.5625631, 7.000, 13:16:40.990, 17, 0.00, 0.45, 93, -0.500, 1.500, -43.100, 228, 100, 100, 19, 23502, -21774, 5141, 5529, 9, 14, 1523477800.991, 44, 0, 1024, 1024, 1024, 1024, 0, 6, 3863, 3905, 3889, 3902, 3885, 3905, 0, 1, 7801, -89.900, 0.000, -43.300, 0.000, 0.000, -3.100, 0.0, , , , , , 98, , , 11, 11, 11
37.2865910, -119.5625630, 7.300, 13:16:41.091, 18, 0.00, 0.44, 93, -0.200, 1.300, -43.000, 228, 100, 100, 19, 23502, -21774, 5141, 5529, 9, 14, 1523477801.092, 50, 0, 1024, 1024, 1024, 1024, 0, 6, 3863, 3905, 3889, 3902, 3885, 3905, 0, 1, 7902, -90.000, 0.000, -43.300, 0.000, 0.000, -3.200, 0.0, , , , , , 98, , , 11, 11, 11
37.2865910, -119.5625629, 7.700, 13:16:41.190, 18, 0.00, 0.42, 93, -0.500, 1.000, -42.800, 228, 100, 100, 19, 23502, -21774, 5141, 5529, 9, 14, 1523477801.192, 43, 0, 1024, 1024, 1024, 1024, 0, 6, 3863, 3905, 3889, 3902, 3885, 3905, 0, 1, 8002, -90.000, 0.000, -43.300, 0.000, 0.000, -3.200, 0.0, , , , , , 98, , , 11, 11, 11
37.2865909, -119.5625628, 8.000, 13:16:41.290, 17, 0.00, 0.41, 93, -1.100, 0.800, -42.500, 228, 100, 100, 19, 23502, -21774, 5141, 5529, 9, 14, 1523477801.291, 8, 0, 1024, 1024, 1024, 1024, 0, 6, 3863, 3905, 3889, 3902, 3885, 3905, 0, 1, 8101, -90.000, 0.000, -43.300, 0.000, 0.000, -3.200, 0.0, , , , , , 98, , , 11, 11, 11
37.2865907, -119.5625627, 8.300, 13:16:41.390, 17, 0.00, 0.39, 93, -1.300, 0.600, -42.200, 228, 100, 100, 19, 23502, -21774, 5141, 5529, 9, 14, 1523477801.391, 35, 0, 1024, 1024, 1024, 1024, 0, 6, 3863, 3905, 3889, 3902, 3885, 3905, 0, 1, 8202, -90.000, 0.000, -43.300, 0.000, 0.000, -3.200, 0.0, , , , , , 98, , , 11, 11, 11
37.2865906, -119.5625627, 8.700, 13:16:41.490, 17, 0.00, 0.38, 93, -1.300, 0.800, -41.900, 228, 100, 100, 19, 23502, -21774, 5141, 5529, 9, 14, 1523477801.491, 25, 0, 1024, 1024, 1024, 1024, 0, 6, 3863, 3905, 3889, 3902, 3885, 3905, 0, 1, 8301, -90.000, 0.000, -43.300, 0.000, 0.000, -3.100, 0.0, , , , , , 98, , , 11, 11, 11
37.2865904, -119.5625626, 9.000, 13:16:41.590, 17, 0.00, 0.36, 93, -1.000, 0.900, -41.700, 228, 100, 100, 19, 23502, -21774, 5141, 5529, 9, 14, 1523477801.591, 28, 0, 1024, 1024, 1024, 1024, 0, 6, 3863, 3905, 3889, 3902, 3885, 3905, 0, 1, 8401, -90.000, 0.000, -43.300, 0.000, 0.000, -3.100, 0.0, , , , , , 98, , , 11, 11, 11
37.2865903, -119.5625626, 9.300, 13:16:41.690, 17, 0.00, 0.35, 93, -0.800, 0.700, -41.600, 228, 100, 100, 19, 23378, -20761, 5141, 5529, 9, 14, 1523477801.691, 38, 0, 1024, 1024, 1024, 1024, 0, 6, 3872, 3897, 3914, 3924, 3889, 3928, 0, 1, 8502, -90.000, 0.000, -43.300, 0.000, 0.000, -3.100, 0.0, , , , , , 98, , , 11, 11, 11
37.2865901, -119.5625625, 9.600, 13:16:41.801, 17, 0.10, 0.33, 93, -0.600, 0.400, -41.600, 228, 100, 100, 19, 23378, -20761, 5141, 5529, 9, 14, 1523477801.801, 13, 0, 1024, 1024, 1024, 1024, 0, 6, 3872, 3897, 3914, 3924, 3889, 3928, 0, 1, 8612, -90.000, 0.000, -43.300, -0.100, 0.000, -3.000, 0.0, , , , , , 98, , , 11, 11, 11
37.2865899, -119.5625624, 10.000, 13:16:41.890, 16, 0.10, 0.31, 93, -0.400, 0.100, -41.600, 228, 100, 100, 19, 23378, -20761, 5141, 5529, 9, 14, 1523477801.892, 15, 0, 1024, 1024, 1024, 1024, 0, 6, 3872, 3897, 3914, 3924, 3889, 3928, 0, 1, 8702, -90.000, 0.000, -43.300, -0.100, 0.000, -3.100, 0.0, , , , , , 98, , , 11, 11, 11
37.2865897, -119.5625623, 10.300, 13:16:41.995, 16, 0.10, 0.28, 93, -0.200, -0.200, -41.800, 228, 100, 100, 19, 23378, -20761, 5141, 5529, 9, 14, 1523477801.995, 7, 0, 1024, 1024, 1024, 1024, 0, 6, 3872, 3897, 3914, 3924, 3889, 3928, 0, 1, 8806, -90.000, 0.000, -43.300, -0.100, 0.000, -3.000, 0.0, , , , , , 98, , , 11, 11, 11
37.2865895, -119.5625623, 10.600, 13:16:42.090, 17, 0.10, 0.26, 93, 0.100, -0.700, -42.100, 228, 100, 100, 19, 23378, -20761, 5141, 5529, 9, 14, 1523477802.091, 18, 0, 1024, 1024, 1024, 1024, 0, 6, 3872, 3897, 3914, 3924, 3889, 3928, 0, 1, 8901, -90.000, 0.000, -43.300, -0.100, 0.000, -3.000, 0.0, , , , , , 98, , , 11, 11, 11
37.2865895, -119.5625623, 10.600, 13:16:42.190, 17, 0.10, 0.26, 93, 0.100, -0.700, -42.100, 228, 100, 100, 19, 23378, -20761, 5141, 5529, 9, 14, 1523477802.190, 118, 0, 1024, 1024, 1024, 1024, 0, 6, 3872, 3897, 3914, 3924, 3889, 3928, 0, 1, 9000, -90.000, 0.000, -43.300, -0.100, 0.000, -3.000, 0.0, , , , , , 98, , , 11, 11, 11
37.2865893, -119.5625623, 10.900, 13:16:42.290, 17, 0.10, 0.25, 93, 0.300, -1.200, -42.300, 228, 100, 100, 19, 23378, -20761, 5141, 5529, 9, 14, 1523477802.291, 97, 0, 1024, 1024, 1024, 1024, 0, 6, 3872, 3897, 3914, 3924, 3889, 3928, 0, 1, 9101, -90.000, 0.000, -43.300, -0.100, 0.000, -2.900, 0.0, , , , , , 98, , , 11, 11, 11
37.2865889, -119.5625622, 11.800, 13:16:42.403, 17, 0.00, 0.22, 93, 0.000, -0.500, -42.700, 228, 100, 100, 19, 23378, -20761, 5141, 5529, 9, 14, 1523477802.404, 16, 0, 1024, 1024, 1024, 1024, 0, 6, 3872, 3897, 3914, 3924, 3889, 3928, 0, 1, 9214, -90.000, 0.000, -43.300, 0.000, 0.000, -2.900, 0.0, , , , , , 98, , , 11, 11, 11
37.2865889, -119.5625622, 11.800, 13:16:42.490, 17, 0.00, 0.22, 93, 0.000, -0.500, -42.700, 228, 100, 100, 19, 23378, -20761, 5141, 5529, 9, 14, 1523477802.491, 103, 0, 1024, 1024, 1024, 1024, 0, 6, 3872, 3897, 3914, 3924, 3889, 3928, 0, 1, 9301, -90.000, 0.000, -43.300, 0.000, 0.000, -2.900, 0.0, , , , , , 98, , , 11, 11, 11
37.2865888, -119.5625622, 12.100, 13:16:42.590, 17, 0.00, 0.22, 93, 0.000, -0.300, -42.600, 228, 100, 100, 19, 23378, -20761, 5141, 5529, 9, 14, 1523477802.591, 91, 0, 1024, 1024, 1024, 1024, 0, 6, 3872, 3897, 3914, 3924, 3889, 3928, 0, 1, 9401, -90.000, 0.000, -43.300, 0.000, 0.000, -2.900, 0.0, , , , , , 98, , , 11, 11, 11
37.2865887, -119.5625622, 12.400, 13:16:42.690, 17, 0.00, 0.21, 93, 0.000, -0.300, -42.500, 228, 100, 100, 19, 23378, -20761, 5141, 5529, 9, 14, 1523477802.691, 88, 0, 1024, 1024, 1024, 1024, 0, 6, 3872, 3897, 3914, 3924, 3889, 3928, 0, 1, 9501, -90.000, 0.000, -43.300, 0.000, 0.000, -2.900, 0.0, , , , , , 98, , , 11, 11, 11
37.2865886, -119.5625622, 12.800, 13:16:42.790, 17, 0.00, 0.20, 93, 0.000, -0.300, -42.500, 228, 100, 100, 19, 23491, -18880, 5141, 5529, 9, 14, 1523477802.791, 74, 0, 1024, 1024, 1024, 1024, 0, 6, 3897, 3930, 3930, 3938, 3899, 3937, 0, 1, 9601, -90.000, 0.000, -43.300, 0.000, 0.000, -2.900, 0.0, , , , , , 98, , , 11, 11, 11
37.2865886, -119.5625622, 13.100, 13:16:42.890, 17, 0.00, 0.20, 93, 0.000, -0.500, -42.400, 228, 100, 100, 19, 23491, -18880, 5141, 5529, 9, 14, 1523477802.891, 58, 0, 1024, 1024, 1024, 1024, 0, 6, 3897, 3930, 3930, 3938, 3899, 3937, 0, 1, 9701, -89.900, 0.000, -43.300, 0.000, 0.000, -2.900, 0.0, , , , , , 98, , , 11, 11, 11
37.2865885, -119.5625622, 13.400, 13:16:42.990, 17, 0.00, 0.20, 93, -0.200, -0.400, -42.400, 228, 100, 100, 19, 23491, -18880, 5141, 5529, 9, 14, 1523477802.991, 37, 0, 1024, 1024, 1024, 1024, 0, 6, 3897, 3930, 3930, 3938, 3899, 3937, 0, 1, 9801, -89.900, 0.000, -43.300, 0.000, 0.000, -2.900, 0.0, , , , , , 98, , , 11, 11, 11
37.2865885, -119.5625622, 13.700, 13:16:43.090, 17, 0.00, 0.20, 93, -0.100, 0.000, -42.200, 228, 100, 100, 19, 23491, -18880, 5141, 5529, 9, 14, 1523477803.091, 55, 0, 1024, 1024, 1024, 1024, 0, 6, 3897, 3930, 3930, 3938, 3899, 3937, 0, 1, 9901, -89.900, 0.000, -43.300, 0.000, 0.000, -2.900, 0.0, , , , , , 98, , , 11, 11, 11
37.2865885, -119.5625622, 14.000, 13:16:43.190, 17, 0.00, 0.20, 93, -0.200, 0.300, -42.200, 228, 100, 100, 19, 23491, -18880, 5141, 5529, 9, 14, 1523477803.190, 51, 0, 1024, 1024, 1024, 1024, 0, 6, 3897, 3930, 3930, 3938, 3899, 3937, 0, 1, 10001, -89.900, 0.000, -43.300, 0.000, 0.000, -3.000, 0.0, , , , , , 98, , , 11, 11, 11
37.2865886, -119.5625622, 14.300, 13:16:43.291, 17, 0.10, 0.20, 93, 0.000, 0.700, -42.300, 228, 100, 99, 19, 23491, -18880, 5141, 5529, 9, 14, 1523477803.291, 51, 0, 1024, 1024, 1024, 1024, 0, 6, 3897, 3930, 3930, 3938, 3899, 3937, 0, 1, 10101, -89.900, 0.000, -43.300, 0.100, 0.000, -3.000, 0.0, , , , , , 98, , , 11, 11, 11
37.2865886, -119.5625622, 14.600, 13:16:43.390, 17, 0.10, 0.20, 93, -0.400, 1.200, -42.400, 228, 100, 99, 19, 23491, -18880, 5141, 5529, 9, 14, 1523477803.391, 53, 0, 1024, 1024, 1024, 1024, 0, 6, 3897, 3930, 3930, 3938, 3899, 3937, 0, 1, 10201, -89.900, 0.000, -43.300, 0.100, 0.000, -3.000, 0.0, , , , , , 98, , , 11, 11, 11
37.2865887, -119.5625622, 14.900, 13:16:43.490, 17, 0.10, 0.21, 93, -0.800, 1.800, -42.500, 228, 100, 99, 19, 23491, -18880, 5141, 5529, 9, 14, 1523477803.491, 54, 0, 1024, 1024, 1024, 1024, 0, 6, 3897, 3930, 3930, 3938, 3899, 3937, 0, 1, 10301, -89.900, 0.000, -43.300, 0.100, 0.000, -3.100, 0.0, , , , , , 98, , , 11, 11, 11
37.2865887, -119.5625622, 14.900, 13:16:43.590, 17, 0.10, 0.21, 93, -0.800, 1.800, -42.500, 228, 100, 99, 19, 23491, -18880, 5141, 5529, 9, 14, 1523477803.591, 155, 0, 1024, 1024, 1024, 1024, 0, 6, 3897, 3930, 3930, 3938, 3899, 3937, 0, 1, 10401, -89.900, 0.000, -43.300, 0.100, 0.000, -3.100, 0.0, , , , , , 98, , , 11, 11, 11
37.2865890, -119.5625622, 15.600, 13:16:43.690, 18, 0.14, 0.22, 93, -1.900, 1.700, -42.500, 228, 100, 99, 19, 23532, -19750, 5086, 5529, 9, 14, 1523477803.691, 27, 0, 1024, 1024, 1024, 1024, 0, 6, 3876, 3906, 3903, 3917, 3883, 3914, 0, 1, 10501, -89.900, 0.000, -43.300, 0.100, 0.100, -3.200, 0.0, , , , , , 98, , , 11, 11, 11
37.2865892, -119.5625620, 16.000, 13:16:43.790, 18, 0.22, 0.23, 93, -2.900, 1.300, -42.500, 228, 100, 99, 19, 23532, -19750, 5086, 5529, 9, 14, 1523477803.791, 21, 0, 1024, 1024, 1024, 1024, 0, 6, 3876, 3906, 3903, 3917, 3883, 3914, 0, 1, 10601, -90.000, 0.000, -43.300, 0.200, 0.100, -3.200, 0.1, , , , , , 98, , , 11, 11, 11
37.2865894, -119.5625619, 16.400, 13:16:43.890, 17, 0.22, 0.24, 93, -3.800, 1.100, -42.500, 228, 100, 99, 19, 23532, -19750, 5086, 5529, 9, 14, 1523477803.891, 22, 0, 1024, 1024, 1024, 1024, 0, 6, 3876, 3906, 3903, 3917, 3883, 3914, 0, 1, 10701, -89.900, 0.000, -43.300, 0.200, 0.100, -3.100, 0.1, , , , , , 98, , , 11, 11, 11
37.2865896, -119.5625618, 16.700, 13:16:43.990, 17, 0.14, 0.24, 93, -4.400, 1.600, -42.400, 228, 100, 99, 19, 23532, -19750, 5086, 5529, 9, 14, 1523477803.991, 24, 0, 1024, 1024, 1024, 1024, 0, 6, 3876, 3906, 3903, 3917, 3883, 3914, 0, 1, 10801, -89.900, 0.000, -43.300, 0.100, 0.100, -2.900, 0.0, , , , , , 98, , , 11, 11, 11
37.2865897, -119.5625617, 17.000, 13:16:44.090, 18, 0.14, 0.25, 93, -4.600, 2.100, -42.300, 228, 100, 99, 19, 23532, -19750, 5086, 5529, 9, 14, 1523477804.090, 10, 0, 1024, 1024, 1024, 1024, 0, 6, 3876, 3906, 3903, 3917, 3883, 3914, 0, 1, 10900, -89.900, 0.000, -43.300, 0.100, 0.100, -2.900, 0.0, , , , , , 98, , , 11, 11, 11
37.2865898, -119.5625615, 17.300, 13:16:44.190, 18, 0.14, 0.25, 93, -4.800, 1.800, -42.200, 228, 100, 99, 19, 23532, -19750, 5086, 5529, 9, 14, 1523477804.191, 30, 0, 1024, 1024, 1024, 1024, 0, 6, 3876, 3906, 3903, 3917, 3883, 3914, 0, 1, 11001, -89.900, 0.000, -43.300, 0.100, 0.100, -2.800, 0.0, , , , , , 98, , , 11, 11, 11
37.2865899, -119.5625614, 17.600, 13:16:44.290, 18, 0.10, 0.25, 93, -4.600, 1.100, -42.000, 228, 100, 99, 19, 23532, -19750, 5086, 5529, 9, 14, 1523477804.290, 13, 0, 1024, 1024, 1024, 1024, 0, 6, 3876, 3906, 3903, 3917, 3883, 3914, 0, 1, 11100, -90.000, 0.000, -43.300, 0.000, 0.100, -2.600, 0.0, , , , , , 98, , , 11, 11, 11
37.2865900, -119.5625612, 17.800, 13:16:44.390, 18, 0.10, 0.25, 93, -4.600, 0.500, -41.600, 228, 100, 99, 19, 23532, -19750, 5086, 5529, 9, 14, 1523477804.391, 17, 0, 1024, 1024, 1024, 1024, 0, 6, 3876, 3906, 3903, 3917, 3883, 3914, 0, 1, 11201, -90.000, 0.000, -43.300, 0.000, 0.100, -2.600, 0.0, , , , , , 98, , , 11, 11, 11
37.2865900, -119.5625612, 17.800, 13:16:44.490, 18, 0.10, 0.25, 93, -4.600, 0.500, -41.600, 228, 100, 99, 19, 23532, -19750, 5086, 5529, 9, 14, 1523477804.491, 117, 0, 1024, 1024, 1024, 1024, 0, 6, 3876, 3906, 3903, 3917, 3883, 3914, 0, 1, 11301, -90.000, 0.000, -43.300, 0.000, 0.100, -2.600, 0.0, , , , , , 98, , , 11, 11, 11
37.2865900, -119.5625612, 17.800, 13:16:44.590, 18, 0.10, 0.25, 93, -4.600, 0.500, -41.600, 228, 100, 99, 19, 23532, -19750, 5086, 5529, 9, 14, 1523477804.591, 217, 0, 1024, 1024, 1024, 1024, 0, 6, 3876, 3906, 3903, 3917, 3883, 3914, 0, 1, 11401, -90.000, 0.000, -43.300, 0.000, 0.100, -2.600, 0.0, , , , , , 98, , , 11, 11, 11
37.2865900, -119.5625610, 18.300, 13:16:44.690, 18, 0.00, 0.25, 93, -4.200, -1.100, -41.000, 228, 100, 99, 19, 23532, -19750, 5086, 5529, 9, 14, 1523477804.691, 67, 0, 1024, 1024, 1024, 1024, 0, 6, 3876, 3906, 3903, 3917, 3883, 3914, 0, 1, 11502, -90.000, 0.000, -43.300, 0.000, 0.000, -2.500, 0.0, , , , , , 98, , , 11, 11, 11
37.2865902, -119.5625609, 18.800, 13:16:44.790, 18, 0.00, 0.27, 93, -3.400, -0.900, -42.000, 228, 100, 99, 19, 23652, -16748, 5086, 5529, 9, 14, 1523477804.791, 84, 0, 1024, 1024, 1024, 1024, 0, 6, 3894, 3940, 3928, 3941, 3920, 3927, 0, 1, 11601, -89.900, 0.000, -43.300, 0.000, 0.000, -2.500, 0.0, , , , , , 98, , , 11, 11, 11
37.2865902, -119.5625609, 18.800, 13:16:44.890, 18, 0.00, 0.27, 93, -3.400, -0.900, -42.000, 228, 100, 99, 19, 23652, -16748, 5086, 5529, 9, 14, 1523477804.890, 183, 0, 1024, 1024, 1024, 1024, 0, 6, 3894, 3940, 3928, 3941, 3920, 3927, 0, 1, 11701, -89.900, 0.000, -43.300, 0.000, 0.000, -2.500, 0.0, , , , , , 98, , , 11, 11, 11
37.2865905, -119.5625610, 19.300, 13:16:44.990, 18, 0.10, 0.30, 93, -3.000, 1.200, -43.100, 228, 100, 99, 19, 23652, -16748, 5086, 5529, 9, 14, 1523477804.991, 71, 0, 1024, 1024, 1024, 1024, 0, 6, 3894, 3940, 3928, 3941, 3920, 3927, 0, 1, 11801, -89.900, 0.000, -43.300, 0.100, 0.000, -2.700, 0.0, , , , , , 98, , , 11, 11, 11
37.2865905, -119.5625610, 19.300, 13:16:45.090, 18, 0.10, 0.30, 93, -3.000, 1.200, -43.100, 228, 100, 99, 19, 23652, -16748, 5086, 5529, 9, 14, 1523477805.091, 171, 0, 1024, 1024, 1024, 1024, 0, 6, 3894, 3940, 3928, 3941, 3920, 3927, 0, 1, 11901, -89.900, 0.000, -43.300, 0.100, 0.000, -2.700, 0.0, , , , , , 98, , , 11, 11, 11
37.2865908, -119.5625613, 19.800, 13:16:45.190, 18, 0.10, 0.35, 93, -2.800, 2.300, -43.500, 228, 100, 99, 19, 23652, -16748, 5086, 5529, 9, 14, 1523477805.191, 20, 0, 1024, 1024, 1024, 1024, 0, 6, 3894, 3940, 3928, 3941, 3920, 3927, 0, 1, 12001, -89.900, 0.000, -43.300, 0.100, 0.000, -2.800, 0.0, , , , , , 98, , , 11, 11, 11
37.2865910, -119.5625614, 20.000, 13:16:45.290, 18, 0.00, 0.37, 93, -2.400, 2.700, -43.500, 228, 100, 98, 19, 23652, -16748, 5086, 5529, 9, 14, 1523477805.291, 71, 0, 1024, 1024, 1024, 1024, 0, 6, 3894, 3940, 3928, 3941, 3920, 3927, 0, 1, 12101, -89.900, 0.000, -43.300, 0.000, 0.000, -2.800, 0.0, , , , , , 98, , , 11, 11, 11
37.2865912, -119.5625615, 20.300, 13:16:45.390, 18, 0.00, 0.39, 93, -2.500, 2.900, -43.300, 228, 100, 98, 19, 23652, -16748, 5086, 5529, 9, 14, 1523477805.391, 50, 0, 1024, 1024, 1024, 1024, 0, 6, 3894, 3940, 3928, 3941, 3920, 3927, 0, 1, 12201, -89.900, 0.000, -43.300, 0.000, 0.000, -2.900, 0.0, , , , , , 98, , , 11, 11, 11
37.2865913, -119.5625615, 20.600, 13:16:45.490, 18, 0.00, 0.40, 93, -3.000, 2.800, -43.100, 228, 100, 98, 19, 23652, -16748, 5086, 5529, 9, 14, 1523477805.491, 54, 0, 1024, 1024, 1024, 1024, 0, 6, 3894, 3940, 3928, 3941, 3920, 3927, 0, 1, 12301, -90.000, 0.000, -43.300, 0.000, 0.000, -3.000, 0.0, , , , , , 98, , , 11, 11, 11
37.2865915, -119.5625616, 20.900, 13:16:45.590, 18, 0.00, 0.42, 93, -3.500, 2.600, -42.800, 228, 100, 98, 19, 23652, -16748, 5086, 5529, 9, 14, 1523477805.591, 59, 0, 1024, 1024, 1024, 1024, 0, 6, 3894, 3940, 3928, 3941, 3920, 3927, 0, 1, 12401, -90.000, 0.000, -43.300, 0.000, 0.000, -3.000, 0.0, , , , , , 98, , , 11, 11, 11
37.2865916, -119.5625616, 21.200, 13:16:45.690, 18, 0.00, 0.44, 93, -3.400, 2.400, -42.500, 228, 100, 98, 19, 23652, -16748, 5086, 5529, 9, 14, 1523477805.691, 48, 0, 1024, 1024, 1024, 1024, 0, 6, 3894, 3940, 3928, 3941, 3920, 3927, 0, 1, 12501, -89.900, 0.000, -43.300, 0.000, 0.000, -3.000, 0.0, , , , , , 98, , , 11, 11, 11
37.2865917, -119.5625617, 21.500, 13:16:45.790, 18, 0.00, 0.45, 92, -3.000, 2.400, -42.200, 228, 100, 98, 19, 23236, -21415, 5086, 5529, 9, 14, 1523477805.790, 56, 0, 1024, 1024, 1024, 1024, 0, 6, 3894, 3940, 3928, 3941, 3920, 3927, 0, 1, 12600, -89.900, 0.000, -43.300, 0.000, 0.000, -3.000, 0.0, , , , , , 98, , , 11, 11, 11
37.2865917, -119.5625618, 21.800, 13:16:45.890, 19, 0.00, 0.46, 92, -2.700, 2.300, -42.000, 228, 100, 98, 19, 23236, -21415, 5086, 5529, 9, 14, 1523477805.891, 50, 0, 1024, 1024, 1024, 1024, 0, 6, 3894, 3940, 3928, 3941, 3920, 3927, 0, 1, 12702, -89.900, 0.000, -43.300, 0.000, 0.000, -3.000, 0.0, , , , , , 98, , , 11, 11, 11
37.2865918, -119.5625619, 22.100, 13:16:45.990, 19, 0.00, 0.46, 92, -2.900, 2.200, -41.900, 228, 100, 98, 19, 23236, -21415, 5086, 5529, 9, 14, 1523477805.991, 54, 0, 1024, 1024, 1024, 1024, 0, 6, 3894, 3940, 3928, 3941, 3920, 3927, 0, 1, 12802, -90.000, 0.000, -43.300, 0.000, 0.000, -3.100, 0.0, , , , , , 98, , , 11, 11, 11
37.2865918, -119.5625619, 22.400, 13:16:46.090, 19, 0.00, 0.47, 92, -2.600, 2.200, -41.800, 228, 100, 98, 19, 23236, -21415, 5086, 5529, 9, 14, 1523477806.091, 38, 0, 1024, 1024, 1024, 1024, 0, 6, 3894, 3940, 3928, 3941, 3920, 3927, 0, 1, 12901, -90.000, 0.000, -43.300, 0.000, 0.000, -3.100, 0.0, , , , , , 98, , , 11, 11, 11
37.2865918, -119.5625620, 22.700, 13:16:46.190, 19, 0.00, 0.47, 92, -2.300, 2.100, -41.900, 228, 100, 98, 19, 23236, -21415, 5086, 5529, 9, 14, 1523477806.191, 42, 0, 1024, 1024, 1024, 1024, 0, 6, 3830, 3869, 3874, 3889, 3843, 3888, 0, 1, 13001, -89.900, 0.000, -43.300, 0.000, 0.000, -3.100, 0.0, , , , , , 98, , , 11, 11, 11
37.2865918, -119.5625620, 23.000, 13:16:46.290, 19, 0.00, 0.47, 92, -2.500, 2.000, -42.000, 228, 100, 98, 19, 23236, -21415, 5086, 5529, 9, 14, 1523477806.291, 31, 0, 1024, 1024, 1024, 1024, 0, 6, 3830, 3869, 3874, 3889, 3843, 3888, 0, 1, 13101, -89.900, 0.000, -43.300, 0.000, 0.000, -3.100, 0.0, , , , , , 98, , , 11, 11, 11
37.2865918, -119.5625621, 23.300, 13:16:46.390, 19, 0.00, 0.47, 92, -2.600, 1.900, -42.200, 228, 100, 98, 19, 23236, -21415, 5086, 5529, 9, 14, 1523477806.391, 44, 0, 1024, 1024, 1024, 1024, 0, 6, 3830, 3869, 3874, 3889, 3843, 3888, 0, 1, 13201, -90.000, 0.000, -43.300, 0.000, 0.000, -3.100, 0.0, , , , , , 98, , , 11, 11, 11
37.2865917, -119.5625621, 23.600, 13:16:46.490, 19, 0.00, 0.47, 92, -2.600, 1.800, -42.300, 228, 100, 98, 19, 23236, -21415, 5086, 5529, 9, 14, 1523477806.491, 18, 0, 1024, 1024, 1024, 1024, 0, 6, 3830, 3869, 3874, 3889, 3843, 3888, 0, 1, 13301, -90.000, 0.000, -43.300, 0.000, 0.000, -3.000, 0.0, , , , , , 98, , , 11, 11, 11
37.2865917, -119.5625621, 23.600, 13:16:46.590, 19, 0.00, 0.47, 92, -2.600, 1.800, -42.300, 228, 100, 98, 19, 23236, -21415, 5086, 5529, 9, 14, 1523477806.591, 118, 0, 1024, 1024, 1024, 1024, 0, 6, 3830, 3869, 3874, 3889, 3843, 3888, 0, 1, 13402, -90.000, 0.000, -43.300, 0.000, 0.000, -3.000, 0.0, , , , , , 98, , , 11, 11, 11
37.2865916, -119.5625622, 24.200, 13:16:46.690, 19, 0.00, 0.46, 92, -2.000, 1.600, -42.500, 228, 100, 98, 19, 23236, -21415, 5086, 5529, 9, 14, 1523477806.691, 12, 0, 1024, 1024, 1024, 1024, 0, 6, 3830, 3869, 3874, 3889, 3843, 3888, 0, 1, 13502, -90.000, 0.000, -43.300, 0.000, 0.000, -3.000, 0.0, , , , , , 98, , , 11, 11, 11
37.2865915, -119.5625623, 24.500, 13:16:46.790, 19, 0.00, 0.45, 92, -1.800, 1.500, -42.600, 228, 100, 98, 19, 23236, -21415, 5086, 5529, 9, 14, 1523477806.790, 12, 0, 1024, 1024, 1024, 1024, 0, 6, 3830, 3869, 3874, 3889, 3843, 3888, 0, 1, 13600, -90.000, 0.000, -43.300, 0.000, 0.000, -3.100, 0.0, , , , , , 98, , , 11, 11, 11
37.2865915, -119.5625623, 24.500, 13:16:46.890, 19, 0.00, 0.45, 92, -1.800, 1.500, -42.600, 228, 100, 98, 19, 23236, -21415, 5086, 5529, 9, 14, 1523477806.891, 113, 0, 1024, 1024, 1024, 1024, 0, 6, 3830, 3869, 3874, 3889, 3843, 3888, 0, 1, 13701, -90.000, 0.000, -43.300, 0.000, 0.000, -3.100, 0.0, , , , , , 98, , , 11, 11, 11
37.2865915, -119.5625623, 24.500, 13:16:46.990, 19, 0.00, 0.45, 92, -1.800, 1.500, -42.600, 228, 100, 98, 19, 23236, -21415, 5086, 5529, 9, 14, 1523477806.991, 213, 0, 1024, 1024, 1024, 1024, 0, 6, 3830, 3869, 3874, 3889, 3843, 3888, 0, 1, 13801, -90.000, 0.000, -43.300, 0.000, 0.000, -3.100, 0.0, , , , , , 98, , , 11, 11, 11
37.2865912, -119.5625623, 25.500, 13:16:47.090, 20, 0.00, 0.42, 92, -2.600, 0.600, -42.400, 228, 100, 98, 19, 23236, -21415, 5086, 5529, 9, 14, 1523477807.091, 11, 0, 1024, 1024, 1024, 1024, 0, 6, 3830, 3869, 3874, 3889, 3843, 3888, 0, 1, 13901, -90.000, 0.000, -43.300, 0.000, 0.000, -3.100, 0.0, , , , , , 98, , , 11, 11, 11
37.2865912, -119.5625623, 25.500, 13:16:47.190, 20, 0.00, 0.42, 92, -2.600, 0.600, -42.400, 228, 100, 98, 19, 23236, -21415, 5086, 5529, 9, 14, 1523477807.191, 111, 0, 1024, 1024, 1024, 1024, 0, 6, 3830, 3869, 3874, 3889, 3843, 3888, 0, 1, 14001, -90.000, 0.000, -43.300, 0.000, 0.000, -3.100, 0.0, , , , , , 98, , , 11, 11, 11
37.2865911, -119.5625623, 25.800, 13:16:47.290, 20, 0.00, 0.41, 92, -2.400, 0.600, -42.100, 228, 100, 98, 19, 23225, -20343, 5086, 5529, 9, 14, 1523477807.291, 75, 0, 1024, 1024, 1024, 1024, 0, 6, 3847, 3876, 3877, 3893, 3855, 3893, 0, 1, 14101, -90.000, 0.000, -43.300, 0.000, 0.000, -3.100, 0.0, , , , , , 98, , , 11, 11, 11
37.2865909, -119.5625623, 26.400, 13:16:47.390, 20, 0.00, 0.39, 92, -2.200, 0.300, -41.900, 228, 100, 96, 19, 23225, -20343, 5086, 5529, 9, 14, 1523477807.390, 62, 0, 1024, 1024, 1024, 1024, 0, 6, 3847, 3876, 3877, 3893, 3855, 3893, 0, 1, 14201, -90.000, 0.000, -43.300, 0.000, 0.000, -3.000, 0.0, , , , , , 98, , , 11, 11, 11
37.2865907, -119.5625623, 26.700, 13:16:47.491, 20, 0.10, 0.38, 92, -1.900, 0.200, -42.100, 228, 100, 96, 19, 23225, -20343, 5086, 5529, 9, 14, 1523477807.492, 63, 0, 1024, 1024, 1024, 1024, 0, 6, 3847, 3876, 3877, 3893, 3855, 3893, 0, 1, 14302, -90.000, 0.000, -43.300, -0.100, 0.000, -2.900, 0.0, , , , , , 98, , , 11, 11, 11
37.2865907, -119.5625623, 26.700, 13:16:47.590, 20, 0.10, 0.38, 92, -1.900, 0.200, -42.100, 228, 100, 96, 19, 23225, -20343, 5086, 5529, 9, 14, 1523477807.591, 163, 0, 1024, 1024, 1024, 1024, 0, 6, 3847, 3876, 3877, 3893, 3855, 3893, 0, 1, 14401, -90.000, 0.000, -43.300, -0.100, 0.000, -2.900, 0.0, , , , , , 98, , , 11, 11, 11
37.2865904, -119.5625625, 27.300, 13:16:47.690, 20, 0.00, 0.36, 92, -0.800, 0.500, -42.500, 228, 100, 96, 19, 23225, -20343, 5086, 5529, 9, 14, 1523477807.690, 70, 0, 1024, 1024, 1024, 1024, 0, 6, 3847, 3876, 3877, 3893, 3855, 3893, 0, 1, 14500, -90.000, 0.000, -43.300, 0.000, 0.000, -2.900, 0.0, , , , , , 98, , , 11, 11, 11
37.2865903, -119.5625625, 27.600, 13:16:47.790, 20, 0.00, 0.35, 92, -0.900, 0.600, -42.600, 228, 100, 95, 19, 23225, -20343, 5086, 5529, 9, 14, 1523477807.791, 76, 0, 1024, 1024, 1024, 1024, 0, 6, 3847, 3876, 3877, 3893, 3855, 3893, 0, 1, 14601, -90.000, 0.000, -43.300, 0.000, 0.000, -2.900, 0.0, , , , , , 98, , , 11, 11, 11
37.2865903, -119.5625625, 27.600, 13:16:47.890, 20, 0.00, 0.35, 92, -0.900, 0.600, -42.600, 228, 100, 95, 19, 23225, -20343, 5086, 5529, 9, 14, 1523477807.891, 176, 0, 1024, 1024, 1024, 1024, 0, 6, 3847, 3876, 3877, 3893, 3855, 3893, 0, 1, 14701, -90.000, 0.000, -43.300, 0.000, 0.000, -2.900, 0.0, , , , , , 98, , , 11, 11, 11
37.2865901, -119.5625626, 28.200, 13:16:47.990, 20, 0.00, 0.33, 92, -1.100, 0.500, -42.500, 228, 100, 95, 19, 23225, -20343, 5086, 5529, 9, 14, 1523477807.991, 58, 0, 1024, 1024, 1024, 1024, 0, 6, 3847, 3876, 3877, 3893, 3855, 3893, 0, 1, 14801, -90.000, 0.000, -43.300, 0.000, 0.000, -3.000, 0.0, , , , , , 98, , , 11, 11, 11
37.2865901, -119.5625626, 28.200, 13:16:48.090, 20, 0.00, 0.33, 92, -1.100, 0.500, -42.500, 228, 100, 95, 19, 23225, -20343, 5086, 5529, 9, 14, 1523477808.091, 158, 0, 1024, 1024, 1024, 1024, 0, 6, 3847, 3876, 3877, 3893, 3855, 3893, 0, 1, 14901, -89.900, 0.000, -43.300, 0.000, 0.000, -3.000, 0.0, , , , , , 98, , , 11, 11, 11
37.2865899, -119.5625626, 28.800, 13:16:48.190, 20, 0.00, 0.32, 92, -0.500, 0.600, -42.300, 228, 100, 95, 20, 23238, -19910, 5086, 5529, 9, 14, 1523477808.191, 30, 0, 1024, 1024, 1024, 1024, 0, 6, 3847, 3876, 3877, 3893, 3855, 3893, 0, 1, 15001, -89.900, 0.000, -43.300, 0.000, 0.000, -3.000, 0.0, , , , , , 98, , , 11, 11, 11
37.2865898, -119.5625626, 29.100, 13:16:48.290, 20, 0.00, 0.31, 92, -0.800, 0.700, -42.300, 228, 100, 94, 20, 23238, -19910, 5086, 5529, 9, 14, 1523477808.291, 33, 0, 1024, 1024, 1024, 1024, 0, 6, 3855, 3879, 3884, 3894, 3862, 3891, 0, 1, 15101, -89.900, 0.000, -43.300, 0.000, 0.000, -3.100, 0.0, , , , , , 98, , , 11, 11, 11
37.2865898, -119.5625626, 29.500, 13:16:48.390, 20, 0.00, 0.31, 92, -1.300, 0.600, -42.100, 228, 100, 94, 20, 23238, -19910, 5086, 5529, 9, 14, 1523477808.391, 35, 0, 1024, 1024, 1024, 1024, 0, 6, 3855, 3879, 3884, 3894, 3862, 3891, 0, 1, 15201, -90.000, 0.000, -43.300, 0.000, 0.000, -3.100, 0.0, , , , , , 98, , , 11, 11, 11
37.2865897, -119.5625626, 29.800, 13:16:48.490, 20, 0.00, 0.30, 92, -1.600, 0.500, -42.100, 228, 100, 94, 20, 23238, -19910, 5086, 5529, 9, 14, 1523477808.491, 39, 0, 1024, 1024, 1024, 1024, 0, 6, 3855, 3879, 3884, 3894, 3862, 3891, 0, 1, 15301, -90.000, 0.000, -43.300, 0.000, 0.000, -3.100, 0.0, , , , , , 98, , , 11, 11, 11
37.2865896, -119.5625625, 30.100, 13:16:48.590, 20, 0.00, 0.29, 92, -2.100, 0.400, -42.100, 228, 100, 94, 20, 23238, -19910, 5086, 5529, 9, 14, 1523477808.591, 11, 0, 1024, 1024, 1024, 1024, 0, 6, 3855, 3879, 3884, 3894, 3862, 3891, 0, 1, 15401, -90.000, 0.000, -43.300, 0.000, 0.000, -3.100, 0.0, , , , , , 98, , , 11, 11, 11
37.2865896, -119.5625625, 30.400, 13:16:48.690, 20, 0.00, 0.29, 92, -2.300, 0.200, -42.200, 228, 100, 94, 20, 23238, -19910, 5086, 5529, 9, 14, 1523477808.691, 21, 0, 1024, 1024, 1024, 1024, 0, 6, 3855, 3879, 3884, 3894, 3862, 3891, 0, 1, 15501, -90.000, 0.000, -43.300, 0.000, 0.000, -3.100, 0.0, , , , , , 98, , , 11, 11, 11
37.2865896, -119.5625625, 30.800, 13:16:48.790, 20, 0.00, 0.29, 92, -2.600, 0.100, -42.300, 228, 100, 95, 20, 23238, -19910, 5086, 5529, 9, 14, 1523477808.791, 20, 0, 1024, 1024, 1024, 1024, 0, 6, 3855, 3879, 3884, 3894, 3862, 3891, 0, 1, 15601, -90.000, 0.000, -43.300, 0.000, 0.000, -3.000, 0.0, , , , , , 98, , , 11, 11, 11
37.2865896, -119.5625624, 31.100, 13:16:48.890, 20, 0.00, 0.28, 92, -2.500, 0.400, -42.400, 228, 100, 95, 20, 23238, -19910, 5086, 5529, 9, 14, 1523477808.891, 9, 0, 1024, 1024, 1024, 1024, 0, 6, 3855, 3879, 3884, 3894, 3862, 3891, 0, 1, 15701, -90.000, 0.000, -43.300, 0.000, 0.000, -3.000, 0.0, , , , , , 98, , , 11, 11, 11
37.2865895, -119.5625624, 31.400, 13:16:48.990, 20, 0.00, 0.28, 92, -2.200, 0.600, -42.500, 228, 100, 95, 20, 23238, -19910, 5086, 5529, 9, 14, 1523477808.991, 5, 0, 1024, 1024, 1024, 1024, 0, 6, 3855, 3879, 3884, 3894, 3862, 3891, 0, 1, 15801, -89.900, 0.000, -43.300, 0.000, 0.000, -2.900, 0.0, , , , , , 98, , , 11, 11, 11
37.2865895, -119.5625624, 31.700, 13:16:49.090, 20, 0.00, 0.27, 92, -2.000, 0.600, -42.700, 228, 100, 95, 20, 23238, -19910, 5086, 5529, 9, 14, 1523477809.091, 7, 0, 1024, 1024, 1024, 1024, 0, 6, 3855, 3879, 3884, 3894, 3862, 3891, 0, 1, 15901, -89.900, 0.000, -43.300, 0.000, 0.000, -2.900, 0.0, , , , , , 98, , , 11, 11, 11
37.2865895, -119.5625624, 32.000, 13:16:49.189, 20, 0.00, 0.28, 92, -2.000, 0.700, -42.900, 228, 100, 95, 20, 23115, -21198, 5086, 5529, 9, 14, 1523477809.190, 6, 0, 1024, 1024, 1024, 1024, 0, 6, 3855, 3879, 3884, 3894, 3862, 3891, 0, 1, 16000, -89.900, 0.000, -43.300, 0.000, 0.000, -2.900, 0.0, , , , , , 98, , , 11, 11, 11
37.2865895, -119.5625624, 32.200, 13:16:49.292, 20, 0.00, 0.27, 92, -2.100, 0.800, -43.000, 228, 100, 97, 20, 23115, -21198, 5086, 5529, 9, 14, 1523477809.292, 10, 0, 1024, 1024, 1024, 1024, 0, 6, 3816, 3849, 3870, 3886, 3826, 3872, 0, 1, 16103, -89.900, 0.000, -43.300, 0.000, 0.000, -2.900, 0.0, , , , , , 98, , , 11, 11, 11
37.2865895, -119.5625624, 32.200, 13:16:49.390, 20, 0.00, 0.27, 92, -2.100, 0.800, -43.000, 228, 100, 97, 20, 23115, -21198, 5086, 5529, 9, 14, 1523477809.391, 109, 0, 1024, 1024, 1024, 1024, 0, 6, 3816, 3849, 3870, 3886, 3826, 3872, 0, 1, 16201, -89.900, 0.000, -43.300, 0.000, 0.000, -2.900, 0.0, , , , , , 98, , , 11, 11, 11
37.2865894, -119.5625625, 33.100, 13:16:49.510, 20, 0.00, 0.27, 92, -1.500, 1.000, -42.700, 228, 100, 97, 20, 23115, -21198, 5086, 5529, 9, 14, 1523477809.511, 4, 0, 1024, 1024, 1024, 1024, 0, 6, 3816, 3849, 3870, 3886, 3826, 3872, 0, 1, 16321, -89.900, 0.000, -43.200, 0.000, 0.000, -2.900, 0.0, , , , , , 98, , , 11, 11, 11
37.2865894, -119.5625625, 33.100, 13:16:49.590, 20, 0.00, 0.27, 92, -1.500, 1.000, -42.700, 228, 100, 97, 20, 23115, -21198, 5086, 5529, 9, 14, 1523477809.591, 84, 0, 1024, 1024, 1024, 1024, 0, 6, 3816, 3849, 3870, 3886, 3826, 3872, 0, 1, 16401, -89.900, 0.000, -43.200, 0.000, 0.000, -2.900, 0.0, , , , , , 98, , , 11, 11, 11
37.2865894, -119.5625625, 33.400, 13:16:49.690, 20, 0.00, 0.27, 92, -1.200, 1.000, -42.400, 228, 100, 97, 20, 23115, -21198, 5086, 5529, 9, 14, 1523477809.690, 69, 0, 1024, 1024, 1024, 1024, 0, 6, 3816, 3849, 3870, 3886, 3826, 3872, 0, 1, 16500, -89.900, 0.000, -43.300, 0.000, 0.000, -2.900, 0.0, , , , , , 98, , , 11, 11, 11
37.2865893, -119.5625626, 33.700, 13:16:49.790, 20, 0.00, 0.27, 92, -0.900, 0.900, -42.100, 228, 100, 97, 20, 23115, -21198, 5086, 5529, 9, 14, 1523477809.791, 83, 0, 1024, 1024, 1024, 1024, 0, 6, 3816, 3849, 3870, 3886, 3826, 3872, 0, 1, 16601, -90.000, 0.000, -43.300, 0.000, 0.000, -2.900, 0.0, , , , , , 98, , , 11, 11, 11
37.2865893, -119.5625626, 34.000, 13:16:49.890, 20, 0.00, 0.27, 92, -0.800, 0.800, -41.800, 228, 100, 97, 20, 23115, -21198, 5086, 5529, 9, 14, 1523477809.891, 82, 0, 1024, 1024, 1024, 1024, 0, 6, 3816, 3849, 3870, 3886, 3826, 3872, 0, 1, 16701, -90.000, 0.000, -43.300, 0.000, 0.000, -3.000, 0.0, , , , , , 98, , , 11, 11, 11
37.2865893, -119.5625626, 34.300, 13:16:49.990, 20, 0.00, 0.27, 92, -0.800, 0.700, -41.700, 228, 100, 97, 20, 23115, -21198, 5086, 5529, 9, 14, 1523477809.991, 74, 0, 1024, 1024, 1024, 1024, 0, 6, 3816, 3849, 3870, 3886, 3826, 3872, 0, 1, 16801, -90.000, 0.000, -43.300, 0.000, 0.000, -3.000, 0.0, , , , , , 98, , , 11, 11, 11
37.2865892, -119.5625626, 34.600, 13:16:50.090, 20, 0.00, 0.27, 92, -0.900, 0.600, -41.800, 228, 100, 97, 20, 23115, -21198, 5086, 5529, 9, 14, 1523477810.091, 56, 0, 1024, 1024, 1024, 1024, 0, 6, 3816, 3849, 3870, 3886, 3826, 3872, 0, 1, 16901, -90.000, 0.000, -43.300, 0.000, 0.000, -3.000, 0.0, , , , , , 98, , , 11, 11, 11
37.2865893, -119.5625626, 34.900, 13:16:50.191, 20, 0.00, 0.27, 92, -1.100, 0.600, -41.900, 228, 100, 97, 20, 23115, -21198, 5086, 5529, 9, 14, 1523477810.191, 3, 0, 1024, 1024, 1024, 1024, 0, 6, 3816, 3849, 3870, 3886, 3826, 3872, 0, 1, 17002, -90.000, 0.000, -43.300, 0.000, 0.000, -3.000, 0.0, , , , , , 98, , , 11, 11, 11
37.2865893, -119.5625625, 35.200, 13:16:50.290, 20, 0.00, 0.27, 92, -1.300, 0.600, -42.000, 228, 100, 97, 20, 23186, -19810, 5086, 5529, 9, 14, 1523477810.291, 52, 0, 1024, 1024, 1024, 1024, 0, 6, 3837, 3859, 3862, 3881, 3841, 3870, 0, 1, 17101, -90.000, 0.000, -43.300, 0.000, 0.000, -3.000, 0.0, , , , , , 98, , , 11, 11, 11
37.2865893, -119.5625625, 35.500, 13:16:50.390, 20, 0.00, 0.26, 92, -1.600, 0.800, -42.000, 228, 100, 97, 20, 23186, -19810, 5086, 5529, 9, 14, 1523477810.391, 68, 0, 1024, 1024, 1024, 1024, 0, 6, 3837, 3859, 3862, 3881, 3841, 3870, 0, 1, 17201, -89.900, 0.000, -43.300, 0.000, 0.000, -3.000, 0.0, , , , , , 98, , , 11, 11, 11
37.2865893, -119.5625625, 35.800, 13:16:50.490, 20, 0.00, 0.26, 92, -1.500, 0.900, -41.800, 228, 100, 97, 20, 23186, -19810, 5086, 5529, 9, 14, 1523477810.490, 60, 0, 1024, 1024, 1024, 1024, 0, 6, 3837, 3859, 3862, 3881, 3841, 3870, 0, 1, 17300, -89.900, 0.000, -43.300, 0.000, 0.000, -3.000, 0.0, , , , , , 98, , , 11, 11, 11
37.2865893, -119.5625624, 36.100, 13:16:50.590, 20, 0.00, 0.26, 92, -1.500, 0.800, -41.700, 228, 100, 97, 20, 23186, -19810, 5086, 5529, 9, 14, 1523477810.591, 30, 0, 1024, 1024, 1024, 1024, 0, 6, 3837, 3859, 3862, 3881, 3841, 3870, 0, 1, 17401, -89.900, 0.000, -43.300, 0.000, 0.000, -3.000, 0.0, , , , , , 98, , , 11, 11, 11
37.2865893, -119.5625624, 36.100, 13:16:50.689, 20, 0.00, 0.26, 92, -1.500, 0.800, -41.700, 228, 100, 97, 20, 23186, -19810, 5086, 5529, 9, 14, 1523477810.690, 129, 0, 1024, 1024, 1024, 1024, 0, 6, 3837, 3859, 3862, 3881, 3841, 3870, 0, 1, 17500, -89.900, 0.000, -43.300, 0.000, 0.000, -3.000, 0.0, , , , , , 98, , , 11, 11, 11
37.2865893, -119.5625624, 36.400, 13:16:50.790, 20, 0.00, 0.26, 92, -1.500, 0.400, -41.600, 228, 100, 97, 20, 23186, -19810, 5086, 5529, 9, 14, 1523477810.791, 93, 0, 1024, 1024, 1024, 1024, 0, 6, 3837, 3859, 3862, 3881, 3841, 3870, 0, 1, 17601, -90.000, 0.000, -43.300, 0.000, 0.000, -3.000, 0.0, , , , , , 98, , , 11, 11, 11
37.2865893, -119.5625624, 36.700, 13:16:50.890, 20, 0.00, 0.26, 92, -1.400, 0.200, -41.700, 228, 100, 97, 20, 23186, -19810, 5086, 5529, 9, 14, 1523477810.891, 94, 0, 1024, 1024, 1024, 1024, 0, 6, 3837, 3859, 3862, 3881, 3841, 3870, 0, 1, 17701, -90.000, 0.000, -43.300, 0.000, 0.000, -2.900, 0.0, , , , , , 98, , , 11, 11, 11
37.2865893, -119.5625625, 37.000, 13:16:50.990, 20, 0.00, 0.26, 92, -1.300, 0.300, -41.900, 228, 100, 97, 20, 23186, -19810, 5086, 5529, 9, 14, 1523477810.991, 43, 0, 1024, 1024, 1024, 1024, 0, 6, 3837, 3859, 3862, 3881, 3841, 3870, 0, 1, 17801, -90.000, 0.000, -43.300, 0.000, 0.000, -2.900, 0.0, , , , , , 98, , , 11, 11, 11
37.2865893, -119.5625625, 37.300, 13:16:51.089, 20, 0.00, 0.27, 92, -0.800, 0.400, -42.200, 228, 100, 97, 20, 23186, -19810, 5086, 5529, 9, 14, 1523477811.090, 82, 0, 1024, 1024, 1024, 1024, 0, 6, 3837, 3859, 3862, 3881, 3841, 3870, 0, 1, 17900, -89.900, 0.000, -43.300, 0.000, 0.000, -3.000, 0.0, , , , , , 98, , , 11, 11, 11
37.2865893, -119.5625625, 37.300, 13:16:51.189, 20, 0.00, 0.27, 92, -0.800, 0.400, -42.200, 228, 100, 97, 20, 23186, -19810, 5086, 5529, 9, 14, 1523477811.190, 183, 0, 1024, 1024, 1024, 1024, 0, 6, 3837, 3859, 3862, 3881, 3841, 3870, 0, 1, 18001, -89.900, 0.000, -43.300, 0.000, 0.000, -3.000, 0.0, , , , , , 98, , , 11, 11, 11
37.2865893, -119.5625626, 37.600, 13:16:51.290, 20, 0.00, 0.27, 92, -0.700, 0.500, -42.500, 228, 100, 97, 20, 23186, -19810, 5086, 5529, 9, 14, 1523477811.291, 66, 0, 1024, 1024, 1024, 1024, 0, 6, 3837, 3859, 3862, 3881, 3841, 3870, 0, 1, 18101, -89.900, 0.000, -43.300, 0.000, 0.000, -3.000, 0.0, , , , , , 98, , , 11, 11, 11
37.2865893, -119.5625627, 38.500, 13:16:51.391, 20, 0.00, 0.28, 92, -0.900, 0.900, -42.700, 228, 100, 98, 20, 23186, -19810, 5086, 5529, 9, 14, 1523477811.391, 18, 0, 1024, 1024, 1024, 1024, 0, 6, 3837, 3859, 3862, 3881, 3841, 3870, 0, 1, 18202, -89.900, 0.000, -43.300, 0.000, 0.000, -3.000, 0.0, , , , , , 98, , , 11, 11, 11
37.2865893, -119.5625627, 38.500, 13:16:51.490, 20, 0.00, 0.28, 92, -0.900, 0.900, -42.700, 228, 100, 98, 20, 23186, -19810, 5086, 5529, 9, 14, 1523477811.490, 117, 0, 1024, 1024, 1024, 1024, 0, 6, 3837, 3859, 3862, 3881, 3841, 3870, 0, 1, 18300, -89.900, 0.000, -43.300, 0.000, 0.000, -3.000, 0.0, , , , , , 98, , , 11, 11, 11
37.2865893, -119.5625627, 38.500, 13:16:51.590, 20, 0.00, 0.28, 92, -0.900, 0.900, -42.700, 228, 100, 98, 20, 23186, -19810, 5086, 5529, 9, 14, 1523477811.590, 217, 0, 1024, 1024, 1024, 1024, 0, 6, 3837, 3859, 3862, 3881, 3841, 3870, 0, 1, 18400, -89.900, 0.000, -43.300, 0.000, 0.000, -3.000, 0.0, , , , , , 98, , , 11, 11, 11
37.2865893, -119.5625629, 39.100, 13:16:51.691, 20, 0.00, 0.30, 92, -0.600, 1.000, -42.400, 228, 100, 98, 20, 23186, -19810, 5086, 5529, 9, 14, 1523477811.691, 3, 0, 1024, 1024, 1024, 1024, 0, 6, 3837, 3859, 3862, 3881, 3841, 3870, 0, 1, 18502, -89.900, 0.000, -43.300, 0.000, 0.000, -2.900, 0.0, , , , , , 98, , , 11, 11, 11
37.2865893, -119.5625629, 39.100, 13:16:51.789, 20, 0.00, 0.30, 92, -0.600, 1.000, -42.400, 228, 100, 98, 20, 23186, -19810, 5086, 5529, 9, 14, 1523477811.790, 102, 0, 1024, 1024, 1024, 1024, 0, 6, 3837, 3859, 3862, 3881, 3841, 3870, 0, 1, 18600, -89.900, 0.000, -43.300, 0.000, 0.000, -2.900, 0.0, , , , , , 98, , , 11, 11, 11
37.2865894, -119.5625630, 39.400, 13:16:51.896, 20, 0.00, 0.31, 92, -0.400, 1.300, -42.300, 228, 100, 98, 20, 23186, -19810, 5086, 5529, 9, 14, 1523477811.896, 4, 0, 1024, 1024, 1024, 1024, 0, 6, 3837, 3859, 3862, 3881, 3841, 3870, 0, 1, 18706, -89.900, 0.000, -43.300, 0.000, 0.000, -2.900, 0.0, , , , , , 98, , , 11, 11, 11
37.2865894, -119.5625631, 39.700, 13:16:51.989, 20, 0.00, 0.32, 92, -0.300, 1.800, -42.400, 228, 100, 96, 20, 23107, -20479, 5086, 5529, 9, 14, 1523477811.990, 59, 0, 1024, 1024, 1024, 1024, 0, 6, 3837, 3859, 3862, 3881, 3841, 3870, 0, 1, 18800, -89.900, 0.000, -43.300, 0.000, 0.000, -2.900, 0.0, , , , , , 98, , , 11, 11, 11
37.2865894, -119.5625631, 39.700, 13:16:52.090, 20, 0.00, 0.32, 92, -0.300, 1.800, -42.400, 228, 100, 96, 20, 23107, -20479, 5086, 5529, 9, 14, 1523477812.091, 160, 0, 1024, 1024, 1024, 1024, 0, 6, 3825, 3852, 3865, 3879, 3832, 3867, 0, 1, 18901, -89.900, 0.000, -43.300, 0.000, 0.000, -2.900, 0.0, , , , , , 98, , , 11, 11, 11
37.2865894, -119.5625631, 39.700, 13:16:52.190, 20, 0.00, 0.32, 92, -0.300, 1.800, -42.400, 228, 100, 96, 20, 23107, -20479, 5086, 5529, 9, 14, 1523477812.190, 259, 0, 1024, 1024, 1024, 1024, 0, 6, 3825, 3852, 3865, 3879, 3832, 3867, 0, 1, 19000, -89.900, 0.000, -43.300, 0.000, 0.000, -2.900, 0.0, , , , , , 98, , , 11, 11, 11
37.2865895, -119.5625634, 40.600, 13:16:52.290, 20, 0.00, 0.34, 92, -0.400, 1.800, -42.600, 228, 100, 96, 20, 23107, -20479, 5086, 5529, 9, 14, 1523477812.291, 53, 0, 1024, 1024, 1024, 1024, 0, 6, 3825, 3852, 3865, 3879, 3832, 3867, 0, 1, 19101, -89.900, 0.000, -43.300, 0.000, 0.000, -3.000, 0.0, , , , , , 98, , , 11, 11, 11
37.2865895, -119.5625634, 40.900, 13:16:52.389, 20, 0.00, 0.35, 92, -0.400, 2.000, -42.600, 228, 100, 96, 20, 23107, -20479, 5086, 5529, 9, 14, 1523477812.390, 81, 0, 1024, 1024, 1024, 1024, 0, 6, 3825, 3852, 3865, 3879, 3832, 3867, 0, 1, 19200, -89.900, 0.000, -43.300, 0.000, 0.000, -3.000, 0.0, , , , , , 98, , , 11, 11, 11
37.2865895, -119.5625635, 41.200, 13:16:52.490, 20, 0.00, 0.35, 92, -0.500, 1.900, -42.600, 228, 100, 96, 20, 23107, -20479, 5086, 5529, 9, 14, 1523477812.490, 69, 0, 1024, 1024, 1024, 1024, 0, 6, 3825, 3852, 3865, 3879, 3832, 3867, 0, 1, 19300, -89.900, 0.000, -43.300, 0.000, 0.000, -3.000, 0.0, , , , , , 98, , , 11, 11, 11
37.2865897, -119.5625638, 42.100, 13:16:52.590, 20, 0.00, 0.38, 92, -0.300, 2.300, -42.600, 228, 100, 96, 20, 23107, -20479, 5086, 5529, 9, 14, 1523477812.591, 9, 0, 1024, 1024, 1024, 1024, 0, 6, 3825, 3852, 3865, 3879, 3832, 3867, 0, 1, 19401, -89.900, 0.000, -43.300, 0.000, 0.000, -3.100, 0.0, , , , , , 98, , , 11, 11, 11
37.2865897, -119.5625638, 42.100, 13:16:52.690, 20, 0.00, 0.38, 92, -0.300, 2.300, -42.600, 228, 100, 96, 20, 23107, -20479, 5086, 5529, 9, 14, 1523477812.690, 108, 0, 1024, 1024, 1024, 1024, 0, 6, 3825, 3852, 3865, 3879, 3832, 3867, 0, 1, 19500, -89.900, 0.000, -43.300, 0.000, 0.000, -3.100, 0.0, , , , , , 98, , , 11, 11, 11
37.2865898, -119.5625639, 42.700, 13:16:52.802, 20, 0.10, 0.40, 92, -1.000, 3.100, -42.500, 228, 100, 96, 20, 23166, -19754, 5086, 5529, 9, 14, 1523477812.803, 14, 0, 1024, 1024, 1024, 1024, 0, 6, 3825, 3852, 3865, 3879, 3832, 3867, 0, 1, 19613, -89.900, 0.000, -43.300, 0.100, 0.000, -2.900, 0.0, , , , , , 98, , , 11, 11, 11
37.2865899, -119.5625640, 43.000, 13:16:52.898, 20, 0.10, 0.41, 92, -1.000, 3.300, -42.500, 228, 100, 99, 20, 23166, -19754, 5086, 5529, 9, 14, 1523477812.898, 5, 0, 1024, 1024, 1024, 1024, 0, 6, 3832, 3862, 3863, 3878, 3839, 3865, 0, 1, 19709, -89.900, 0.000, -43.300, 0.100, 0.000, -2.900, 0.0, , , , , , 98, , , 11, 11, 11
37.2865900, -119.5625641, 43.300, 13:16:52.990, 20, 0.10, 0.43, 92, -0.800, 3.600, -42.600, 228, 100, 99, 20, 23166, -19754, 5086, 5529, 9, 14, 1523477812.991, 27, 0, 1024, 1024, 1024, 1024, 0, 6, 3832, 3862, 3863, 3878, 3839, 3865, 0, 1, 19801, -89.900, 0.000, -43.300, 0.100, 0.000, -2.900, 0.0, , , , , , 98, , , 11, 11, 11
37.2865901, -119.5625642, 43.600, 13:16:53.090, 20, 0.10, 0.44, 92, -0.900, 3.900, -42.600, 228, 100, 99, 20, 23166, -19754, 5086, 5529, 9, 14, 1523477813.091, 28, 0, 1024, 1024, 1024, 1024, 0, 6, 3832, 3862, 3863, 3878, 3839, 3865, 0, 1, 19901, -89.900, 0.000, -43.300, 0.100, 0.000, -2.900, 0.0, , , , , , 98, , , 11, 11, 11
37.2865901, -119.5625643, 43.900, 13:16:53.190, 20, 0.10, 0.45, 92, -1.000, 4.100, -42.600, 228, 100, 99, 20, 23166, -19754, 5086, 5529, 9, 14, 1523477813.190, 15, 0, 1024, 1024, 1024, 1024, 0, 6, 3832, 3862, 3863, 3878, 3839, 3865, 0, 1, 20000, -89.900, 0.000, -43.300, 0.100, 0.000, -2.900, 0.0, , , , , , 98, , , 11, 11, 11
37.2865902, -119.5625644, 44.200, 13:16:53.290, 20, 0.10, 0.46, 92, -1.100, 4.400, -42.500, 228, 100, 98, 20, 23166, -19754, 5086, 5529, 9, 14, 1523477813.290, 23, 0, 1024, 1024, 1024, 1024, 0, 6, 3832, 3862, 3863, 3878, 3839, 3865, 0, 1, 20100, -89.900, 0.000, -43.300, 0.100, 0.000, -3.000, 0.0, , , , , , 98, , , 11, 11, 11
37.2865903, -119.5625644, 44.500, 13:16:53.390, 20, 0.00, 0.47, 92, -1.200, 4.600, -42.300, 228, 100, 98, 20, 23166, -19754, 5086, 5529, 9, 14, 1523477813.390, 13, 0, 1024, 1024, 1024, 1024, 0, 6, 3832, 3862, 3863, 3878, 3839, 3865, 0, 1, 20200, -89.900, 0.000, -43.300, 0.000, 0.000, -3.000, 0.0, , , , , , 98, , , 11, 11, 11
37.2865904, -119.5625645, 44.800, 13:16:53.490, 20, 0.00, 0.48, 92, -1.300, 4.600, -42.100, 228, 100, 98, 20, 23166, -19754, 5086, 5529, 9, 14, 1523477813.491, 29, 0, 1024, 1024, 1024, 1024, 0, 6, 3832, 3862, 3863, 3878, 3839, 3865, 0, 1, 20301, -89.900, 0.000, -43.300, 0.000, 0.000, -2.900, 0.0, , , , , , 98, , , 11, 11, 11
37.2865905, -119.5625646, 45.100, 13:16:53.590, 20, 0.00, 0.50, 92, -1.200, 4.600, -41.900, 228, 100, 98, 20, 23166, -19754, 5086, 5529, 9, 14, 1523477813.591, 22, 0, 1024, 1024, 1024, 1024, 0, 6, 3832, 3862, 3863, 3878, 3839, 3865, 0, 1, 20401, -90.000, 0.000, -43.300, 0.000, 0.000, -2.900, 0.0, , , , , , 98, , , 11, 11, 11
37.2865905, -119.5625646, 45.100, 13:16:53.690, 20, 0.00, 0.50, 92, -1.200, 4.600, -41.900, 228, 100, 98, 20, 23166, -19754, 5086, 5529, 9, 14, 1523477813.690, 122, 0, 1024, 1024, 1024, 1024, 0, 6, 3832, 3862, 3863, 3878, 3839, 3865, 0, 1, 20501, -90.000, 0.000, -43.300, 0.000, 0.000, -2.900, 0.0, , , , , , 98, , , 11, 11, 11
37.2865906, -119.5625647, 45.400, 13:16:53.790, 20, 0.00, 0.51, 92, -1.200, 4.600, -41.800, 228, 100, 98, 20, 23077, -20371, 5086, 5529, 9, 14, 1523477813.790, 96, 0, 1024, 1024, 1024, 1024, 0, 6, 3810, 3852, 3867, 3883, 3825, 3876, 0, 1, 20600, -89.900, 0.000, -43.300, 0.000, 0.000, -2.900, 0.0, , , , , , 98, , , 11, 11, 11
37.2865908, -119.5625649, 46.000, 13:16:53.910, 20, 0.00, 0.53, 92, -0.800, 4.900, -42.000, 228, 100, 98, 20, 23077, -20371, 5086, 5529, 9, 14, 1523477813.910, 4, 0, 1024, 1024, 1024, 1024, 0, 6, 3810, 3852, 3867, 3883, 3825, 3876, 0, 1, 20721, -89.900, 0.000, -43.300, 0.000, 0.000, -2.900, 0.0, , , , , , 98, , , 11, 11, 11
37.2865908, -119.5625649, 46.300, 13:16:53.992, 20, 0.00, 0.54, 92, -0.700, 4.900, -42.100, 228, 100, 98, 20, 23077, -20371, 5086, 5529, 9, 14, 1523477813.993, 5, 0, 1024, 1024, 1024, 1024, 0, 6, 3810, 3852, 3867, 3883, 3825, 3876, 0, 1, 20803, -89.900, 0.000, -43.300, 0.000, 0.000, -2.900, 0.0, , , , , , 98, , , 11, 11, 11
37.2865908, -119.5625649, 46.300, 13:16:54.090, 20, 0.00, 0.54, 92, -0.700, 4.900, -42.100, 228, 100, 98, 20, 23077, -20371, 5086, 5529, 9, 14, 1523477814.091, 103, 0, 1024, 1024, 1024, 1024, 0, 6, 3810, 3852, 3867, 3883, 3825, 3876, 0, 1, 20901, -90.000, 0.000, -43.300, 0.000, 0.000, -2.900, 0.0, , , , , , 98, , , 11, 11, 11
