latitude,longitude,altitude(feet),ascent(feet),speed(mph),distance(feet),time(millisecond),datetime(utc),satellites,gpslevel,voltage(v),max_altitude(feet),max_ascent(feet),max_speed(mph),max_distance(feet), xSpeed(mph), ySpeed(mph), zSpeed(mph), compass_heading(degrees), pitch(degrees), roll(degrees),isPhoto,isVideo,rc_elevator,rc_aileron,rc_throttle,rc_rudder,gimbal_heading(degrees),gimbal_pitch(degrees),battery_percent,voltageCell1,voltageCell2,voltageCell3,voltageCell4,voltageCell5,voltageCell6,current(A),battery_temperature(f),flycStateRaw,flycState,message
37.2865877,-119.5625555,4499.0849369497,0,0,0,3030,2018-04-11 21:45:06,16,0,25.596,4499.0849369497,0,0,0,0,0,0,311.4, 0, 0.3,1,0,1024,1024,1024,1024,310.5,-89.9,100,4.218,4.22,4.219,4.257,0,0,3.605,73.4,11,AutoTakeoff,DJI_0175.jpg Starting Mission from Lat/Long: 37.28659/-119.56255 Camera: Zenmuse X3 - Overlap: 90/90 - Active Connection: Yes
37.2865878,-119.5625554,4499.0849369497,0,0,0.046623689156,3100,2018-04-11 21:45:06,16,0,25.596,4499.0849369497,0,0,0.046623689156,0,0,0,311.6, 0.3, 0,0,0,1024,1024,1025,1024,310.5,-89.9,100,4.218,4.22,4.219,4.257,0,0,3.605,73.4,11,AutoTakeoff,
37.2865879,-119.5625553,4499.4130209497,0.328084,0.223694,0.093247378312,3200,2018-04-11 21:45:06,16,0,25.596,4499.4130209497,0.328084,0.223694,0.093247378312,0,0,0,311.6, 0, -0.3,0,0,1024,1024,1025,1024,310.5,-90,100,4.218,4.22,4.219,4.257,0,0,3.605,73.4,11,AutoTakeoff,
37.286588,-119.5625552,4499.4130209497,0.328084,0.223694,0.139871395552,3300,2018-04-11 21:45:06,16,0,25.596,4499.4130209497,0.328084,0.223694,0.139871395552,0,0,0,311.6, 0, -0.4,0,0,1024,1024,1025,1024,310.5,-89.9,100,4.218,4.22,4.219,4.257,0,0,3.605,73.4,11,AutoTakeoff,
37.2865881,-119.5625549,4499.7411049497,0.656168,0.3131716,0.227228681812,3500,2018-04-11 21:45:07,16,0,25.596,4499.7411049497,0.656168,0.3131716,0.227228681812,0,0,0,311.6, 0, -0.9,0,0,1024,1024,1024,1024,310.5,-89.9,100,4.218,4.22,4.219,4.257,0,0,3.605,73.4,11,AutoTakeoff,
37.2865882,-119.5625548,4499.7411049497,0.656168,0.3131716,0.273070218712,3700,2018-04-11 21:45:07,13,0,25.596,4499.7411049497,0.656168,0.3131716,0.273070218712,0,0,0,311.6, 0.1, -1.3,0,0,1024,1024,1025,1024,310.5,-89.9,100,4.218,4.22,4.219,4.257,0,0,3.605,73.4,11,AutoTakeoff,
37.2865883,-119.5625546,4500.0691889497,0.984252,0.3131716,0.34084318676,3800,2018-04-11 21:45:07,13,0,25.596,4500.0691889497,0.984252,0.3131716,0.34084318676,0,0,0,311.6, 0.2, -1.7,0,0,1024,1024,1025,1024,310.5,-89.9,100,4.218,4.22,4.219,4.257,0,0,3.605,73.4,11,AutoTakeoff,
37.2865884,-119.5625543,4500.0691889497,0.984252,0.223694,0.43192914768,3910,2018-04-11 21:45:07,13,0,25.596,4500.0691889497,0.984252,0.3131716,0.43192914768,0,0,-0.223694,311.6, 0.2, -2.4,0,0,1024,1024,1025,1024,310.5,-89.9,100,4.218,4.22,4.219,4.257,0,0,3.605,73.4,11,AutoTakeoff,
37.2865885,-119.5625541,4500.3972729497,1.312336,0.223694,0.50034778504,4010,2018-04-11 21:45:07,14,0,24.605,4500.3972729497,1.312336,0.3131716,0.50034778504,0,0,-0.223694,311.6, -0.1, -2.5,0,0,1024,1024,1025,1024,310.5,-90,100,4.024,4.066,4.033,4.095,0,0,12.806,73.4,11,AutoTakeoff,
37.2865886,-119.5625537,4500.7253569497,1.64042,0.223694,0.61711616148,4300,2018-04-11 21:45:07,15,0,24.605,4500.7253569497,1.64042,0.3131716,0.61711616148,0,0,-0.223694,311.5, -0.6, -2.9,0,0,1024,1024,1025,1024,310.5,-90,100,4.024,4.066,4.033,4.095,0,0,12.806,73.4,11,AutoTakeoff,
37.2865887,-119.5625536,4501.0534409497,1.968504,0.223694,0.66128939124,4400,2018-04-11 21:45:07,15,0,24.605,4501.0534409497,1.968504,0.3131716,0.66128939124,0,0,-0.223694,311.6, -0.8, -3.2,0,0,1024,1024,1025,1024,310.5,-89.9,100,4.024,4.066,4.033,4.095,0,0,12.806,73.4,11,AutoTakeoff,
37.2865888,-119.5625535,4501.3815249497,2.296588,0,0.7057743008,4500,2018-04-11 21:45:08,16,0,24.605,4501.3815249497,2.296588,0.3131716,0.7057743008,0,0,-0.223694,311.6, -0.8, -3.2,0,0,1024,1024,1025,1024,310.5,-90,100,4.024,4.066,4.033,4.095,0,0,12.806,73.4,11,AutoTakeoff,
37.2865889,-119.5625534,4501.3815249497,2.296588,0,0.75052167756,4600,2018-04-11 21:45:08,16,0,24.605,4501.3815249497,2.296588,0.3131716,0.75052167756,0,0,-0.223694,311.6, -0.8, -3.5,0,0,1024,1024,1025,1024,310.5,-89.9,100,4.024,4.066,4.033,4.095,0,0,12.806,73.4,11,AutoTakeoff,
37.286589,-119.5625533,4501.7096089497,2.624672,0,0.79548230892,4700,2018-04-11 21:45:08,18,0,24.605,4501.7096089497,2.624672,0.3131716,0.79548230892,0,0,-0.223694,311.7, -0.7, -3.5,0,0,1024,1024,1024,1024,310.5,-89.9,100,4.024,4.066,4.033,4.095,0,0,12.806,73.4,11,AutoTakeoff,
37.286589,-119.5625532,4502.0376929497,2.952756,0,0.81896984248,4800,2018-04-11 21:45:08,18,0,24.605,4502.0376929497,2.952756,0.3131716,0.81896984248,0,0,-0.223694,311.7, -0.6, -3.3,0,0,1024,1024,1025,1024,310.5,-89.9,100,4.024,4.066,4.033,4.095,0,0,12.806,73.4,6,P-GPS,
37.2865891,-119.5625532,4502.3657769497,3.28084,0,0.84062666732,4900,2018-04-11 21:45:08,15,0,24.605,4502.3657769497,3.28084,0.3131716,0.84062666732,0,0,-0.223694,311.6, -0.3, -3.3,0,0,1024,1024,1025,1024,310.5,-89.9,100,4.024,4.066,4.033,4.095,0,0,12.806,73.4,14,Waypoint,
37.2865891,-119.5625531,4502.3657769497,3.28084,0,0.8638615762,5000,2018-04-11 21:45:08,15,0,24.199,4502.3657769497,3.28084,0.3131716,0.8638615762,0,0,0,311.6, 0.1, -2.2,0,0,1024,1024,1025,1024,310.5,-89.9,100,4.024,4.066,4.033,4.095,0,0,15.695,73.4,14,Waypoint,
37.2865892,-119.562553,4502.6938609497,3.608924,0,0.90892719444,5100,2018-04-11 21:45:08,16,0,24.199,4502.6938609497,3.608924,0.3131716,0.90892719444,0,0,0,311.5, 0.3, -1.6,0,0,1024,1024,1025,1024,310.5,-89.9,100,4.024,4.066,4.033,4.095,0,0,15.695,73.4,14,Waypoint,
37.2865893,-119.562553,4503.0219449497,3.937008,0,0.93135173584,5200,2018-04-11 21:45:08,16,0,24.199,4503.0219449497,3.937008,0.3131716,0.93135173584,0,0,0,311.4, 0.1, -1.4,0,0,1024,1024,1025,1024,310.5,-90,100,4.024,4.066,4.033,4.095,0,0,15.695,73.4,14,Waypoint,
37.2865894,-119.5625528,4503.0219449497,3.937008,0,0.99948822096,5300,2018-04-11 21:45:08,16,0,24.199,4503.0219449497,3.937008,0.3131716,0.99948822096,0,0,0,311.3, -0.2, -2,0,0,1024,1024,1025,1024,310.5,-89.9,100,4.024,4.066,4.033,4.095,0,0,15.695,73.4,14,Waypoint,
37.2865896,-119.5625527,4503.3500289497,4.265092,0,1.06825134652,5400,2018-04-11 21:45:08,16,0,24.199,4503.3500289497,4.265092,0.3131716,1.06825134652,0,0,0,311.2, -0.1, -2.5,0,0,1024,1024,1025,1024,310.5,-90,100,4.024,4.066,4.033,4.095,0,0,15.695,73.4,14,Waypoint,
37.2865897,-119.5625525,4503.3500289497,4.265092,0,1.13614176864,5500,2018-04-11 21:45:09,15,0,24.199,4503.3500289497,4.265092,0.3131716,1.13614176864,0,0,-0.223694,311.3, -0.2, -2.8,0,0,1024,1024,1025,1024,310.5,-89.9,100,4.024,4.066,4.033,4.095,0,0,15.695,73.4,14,Waypoint,
37.2865899,-119.5625523,4503.6781129497,4.593176,0,1.22765095792,5600,2018-04-11 21:45:09,15,0,24.199,4503.6781129497,4.593176,0.3131716,1.22765095792,0,0,-0.223694,311.5, -0.1, -2.9,0,0,1024,1024,1025,1024,310.5,-90,100,4.024,4.066,4.033,4.095,0,0,15.695,73.4,14,Waypoint,
37.2865901,-119.5625521,4504.6623649497,5.577428,0,1.31939964852,5700,2018-04-11 21:45:09,14,0,24.199,4504.6623649497,5.577428,0.3131716,1.31939964852,0,0,-0.223694,311.6, -0.4, -3.3,0,0,1024,1024,1025,1024,310.5,-89.9,100,4.024,4.066,4.033,4.095,0,0,15.695,73.4,14,Waypoint,
37.2865901,-119.562552,4504.9904489497,5.905512,0,1.34125332376,5800,2018-04-11 21:45:09,16,0,24.199,4504.9904489497,5.905512,0.3131716,1.34125332376,0,0,-0.223694,311.6, -0.3, -3.2,0,0,1024,1024,1025,1024,310.5,-90,100,4.024,4.066,4.033,4.095,0,0,15.695,73.4,14,Waypoint,
37.2865901,-119.5625519,4505.6466169497,6.56168,0,1.36337274704,5900,2018-04-11 21:45:09,16,0,24.199,4505.6466169497,6.56168,0.3131716,1.36337274704,0,0,-0.447388,311.6, -0.3, -3,0,0,1024,1024,1025,1024,310.6,-89.9,100,4.024,4.066,4.033,4.095,0,0,15.695,73.4,14,Waypoint,
37.2865901,-119.5625519,4505.9747009497,6.889764,0,1.36337274704,6000,2018-04-11 21:45:09,17,0,24.199,4505.9747009497,6.889764,0.3131716,1.36337274704,0,0,-0.447388,311.5, -0.3, -2.8,0,0,1024,1024,1025,1024,310.6,-89.9,100,4.006,4.025,4.01,4.058,0,0,15.695,73.4,14,Waypoint,
37.2865901,-119.5625518,4506.6308689497,7.545932,0,1.38574807584,6200,2018-04-11 21:45:09,17,0,24.199,4506.6308689497,7.545932,0.3131716,1.38574807584,0,0,-0.447388,311.6, -0.3, -3,0,0,1024,1024,1025,1024,310.6,-89.9,100,4.006,4.025,4.01,4.058,0,0,15.695,73.4,14,Waypoint,
37.2865901,-119.5625517,4507.2870369497,8.2021,0,1.4083661868,6300,2018-04-11 21:45:09,16,0,24.199,4507.2870369497,8.2021,0.3131716,1.4083661868,0,0,-0.447388,311.7, -0.4, -3.3,0,0,1024,1024,1025,1024,310.6,-90,100,4.006,4.025,4.01,4.058,0,0,15.695,73.4,14,Waypoint,
37.2865901,-119.5625517,4507.9432049497,8.858268,0,1.4083661868,6400,2018-04-11 21:45:09,16,0,24.199,4507.9432049497,8.858268,0.3131716,1.4083661868,0,0,-0.447388,311.8, -0.5, -3.3,0,0,1024,1024,1025,1024,310.6,-90,100,4.006,4.025,4.01,4.058,0,0,15.695,73.4,14,Waypoint,
37.28659,-119.5625516,4508.5993729497,9.514436,0,1.4091863968,6500,2018-04-11 21:45:10,17,0,24.199,4508.5993729497,9.514436,0.3131716,1.4091863968,0,0,-0.671082,311.8, -0.7, -3,0,0,1024,1024,1025,1024,310.6,-90,100,4.006,4.025,4.01,4.058,0,0,15.695,73.4,14,Waypoint,
37.2865899,-119.5625516,4509.5836249497,10.498688,0,1.38776907328,6600,2018-04-11 21:45:10,17,0,24.199,4509.5836249497,10.498688,0.3131716,1.4091863968,0,0,-0.671082,311.7, -0.8, -2.7,0,0,1024,1024,1025,1024,310.6,-90,100,4.006,4.025,4.01,4.058,0,0,15.695,73.4,14,Waypoint,
37.2865898,-119.5625515,4510.5678769497,11.48294,0,1.39112865344,6700,2018-04-11 21:45:10,15,0,24.199,4510.5678769497,11.48294,0.3131716,1.4091863968,0,0,-0.671082,311.6, -1, -2.3,0,0,1024,1024,1025,1024,310.6,-90,100,4.006,4.025,4.01,4.058,0,0,15.695,73.4,14,Waypoint,
37.2865898,-119.5625516,4511.2240449497,12.139108,0,1.36699151356,6800,2018-04-11 21:45:10,15,0,24.199,4511.2240449497,12.139108,0.3131716,1.4091863968,0,0,-0.671082,311.4, -1, -1.9,0,0,1024,1024,1025,1024,310.6,-90,100,4.006,4.025,4.01,4.058,0,0,15.695,73.4,14,Waypoint,
37.2865898,-119.5625517,4512.5363809497,13.451444,0,1.34305122408,6900,2018-04-11 21:45:10,17,0,24.199,4512.5363809497,13.451444,0.3131716,1.4091863968,0,0,-0.671082,311.2, -0.9, -1.5,0,0,1024,1024,1025,1024,310.6,-89.9,100,4.006,4.025,4.01,4.058,0,0,15.695,73.4,14,Waypoint,
37.2865898,-119.5625519,4513.5206329497,14.435696,0.223694,1.29579072388,7000,2018-04-11 21:45:10,17,0,24.269,4513.5206329497,14.435696,0.3131716,1.4091863968,0,0,-0.671082,311.1, -0.4, -1.3,0,0,1024,1024,1025,1024,310.6,-89.9,98,4.014,4.003,4.107,4.09,0,0,13.735,73.4,14,Waypoint,
37.2865898,-119.5625519,4514.5048849497,15.419948,0.223694,1.29579072388,7100,2018-04-11 21:45:10,17,0,24.269,4514.5048849497,15.419948,0.3131716,1.4091863968,0,0,-0.671082,311, 0.1, -1.1,0,0,1024,1024,1024,1024,310.6,-89.9,98,4.014,4.003,4.107,4.09,0,0,13.735,73.4,14,Waypoint,
37.2865899,-119.5625519,4515.8172209497,16.732284,0,1.31769361172,7200,2018-04-11 21:45:10,17,0,24.269,4515.8172209497,16.732284,0.3131716,1.4091863968,0,0,-0.671082,311.1, 0.5, -1.1,0,0,1024,1024,1025,1024,310.6,-89.9,98,4.014,4.003,4.107,4.09,0,0,13.735,73.4,14,Waypoint,
37.2865899,-119.5625519,4516.8014729497,17.716536,0,1.31769361172,7300,2018-04-11 21:45:10,17,0,24.269,4516.8014729497,17.716536,0.3131716,1.4091863968,0,0,-0.671082,311.2, 0.5, -1,0,0,1024,1024,1025,1024,310.6,-89.9,98,4.014,4.003,4.107,4.09,0,0,13.735,73.4,14,Waypoint,
37.2865899,-119.562552,4520.0823129497,20.997376,0,1.29479334852,7600,2018-04-11 21:45:11,16,0,24.269,4520.0823129497,20.997376,0.3131716,1.4091863968,0,0,-0.671082,311.2, 0.2, -1,0,0,1024,1024,1025,1024,310.6,-89.9,98,4.014,4.003,4.107,4.09,0,0,13.735,73.4,14,Waypoint,
37.2865899,-119.562552,4521.0665649497,21.981628,0,1.29479334852,7700,2018-04-11 21:45:11,17,0,24.269,4521.0665649497,21.981628,0.3131716,1.4091863968,0,0,-0.671082,311.3, 0.2, -1.1,0,0,1024,1024,1025,1024,310.6,-89.9,98,4.014,4.003,4.107,4.09,0,0,13.735,73.4,14,Waypoint,
37.28659,-119.562552,4523.3631529497,24.278216,0,1.31772313928,7800,2018-04-11 21:45:11,17,0,24.269,4523.3631529497,24.278216,0.3131716,1.4091863968,0,0,-0.671082,311.3, 0.4, -0.8,0,0,1024,1024,1025,1024,310.6,-89.9,98,4.014,4.003,4.107,4.09,0,0,13.735,73.4,14,Waypoint,
37.28659,-119.562552,4524.6754889497,25.590552,0,1.31772313928,7900,2018-04-11 21:45:11,17,0,24.269,4524.6754889497,25.590552,0.3131716,1.4091863968,0,0,-0.671082,311.3, 0.6, -0.9,0,0,1024,1024,1025,1024,310.6,-89.9,98,4.014,4.003,4.107,4.09,0,0,13.735,73.4,14,Waypoint,
37.2865901,-119.562552,4525.6597409497,26.574804,0,1.34125332376,8000,2018-04-11 21:45:11,17,0,23.762,4525.6597409497,26.574804,0.3131716,1.4091863968,0,0,-0.671082,311.4, 0.4, -1.1,0,0,1024,1024,1025,1024,310.6,-89.9,98,3.908,3.905,3.929,3.971,0,0,20.182,73.4,14,Waypoint,
37.2865902,-119.5625521,4526.9720769497,27.88714,0,1.34389111912,8200,2018-04-11 21:45:11,17,0,23.762,4526.9720769497,27.88714,0.3131716,1.4091863968,0,0,-0.671082,311.5, 0.4, -1.2,0,0,1024,1024,1025,1024,310.6,-89.9,98,3.908,3.905,3.929,3.971,0,0,20.182,73.4,14,Waypoint,
37.2865902,-119.562552,4529.2686649497,30.183728,0,1.36535109356,8300,2018-04-11 21:45:11,18,0,23.762,4529.2686649497,30.183728,0.3131716,1.4091863968,0,0,-0.671082,311.5, 0.4, -1.6,0,0,1024,1024,1024,1024,310.6,-89.9,98,3.908,3.905,3.929,3.971,0,0,20.182,73.4,14,Waypoint,
37.2865903,-119.5625519,4530.2529169497,31.16798,0,1.41134518952,8500,2018-04-11 21:45:12,18,0,23.762,4530.2529169497,31.16798,0.3131716,1.41134518952,0,0,-0.671082,311.5, 0, -1.8,0,0,1024,1024,1025,1024,310.6,-89.9,98,3.908,3.905,3.929,3.971,0,0,20.182,73.4,14,Waypoint,
37.2865904,-119.5625519,4531.5652529497,32.480316,0,1.4361220932,8600,2018-04-11 21:45:12,18,0,23.762,4531.5652529497,32.480316,0.3131716,1.4361220932,0,0,-0.671082,311.5, -0.1, -2.1,0,0,1024,1024,1025,1024,310.6,-89.9,98,3.908,3.905,3.929,3.971,0,0,20.182,73.4,14,Waypoint,
37.2865905,-119.5625519,4532.5495049497,33.464568,0,1.46139112288,8700,2018-04-11 21:45:12,18,0,23.762,4532.5495049497,33.464568,0.3131716,1.46139112288,0,0,-0.671082,311.6, 0, -2.3,0,0,1024,1024,1025,1024,310.6,-89.9,98,3.908,3.905,3.929,3.971,0,0,20.182,73.4,14,Waypoint,
37.2865906,-119.5625519,4533.5337569497,34.44882,0,1.487122751,8800,2018-04-11 21:45:12,18,0,23.762,4533.5337569497,34.44882,0.3131716,1.487122751,0,0,-0.671082,311.6, 0.2, -2.3,0,0,1024,1024,1025,1024,310.6,-89.9,98,3.908,3.905,3.929,3.971,0,0,20.182,73.4,14,Waypoint,
37.2865907,-119.5625519,4534.8460929497,35.761156,0,1.51330057336,8900,2018-04-11 21:45:12,18,0,23.762,4534.8460929497,35.761156,0.3131716,1.51330057336,0,0,-0.671082,311.6, 0.7, -2.5,0,0,1024,1024,1025,1024,310.6,-89.9,98,3.908,3.905,3.929,3.971,0,0,20.182,73.4,14,Waypoint,
37.2865908,-119.5625519,4535.8303449497,36.745408,0,1.5398950624,9000,2018-04-11 21:45:12,18,0,23.363,4535.8303449497,36.745408,0.3131716,1.5398950624,0,0,-0.671082,311.5, 1, -2.7,0,0,1024,1024,1025,1024,310.6,-89.9,98,3.882,3.909,3.887,3.946,0,0,24.197,73.4,14,Waypoint,
37.2865909,-119.5625519,4536.8145969497,37.72966,0,1.56688653308,9100,2018-04-11 21:45:12,18,0,23.363,4536.8145969497,37.72966,0.3131716,1.56688653308,0,0,-0.671082,311.4, 1, -2.7,0,0,1024,1024,1025,1024,310.6,-89.9,98,3.882,3.909,3.887,3.946,0,0,24.197,73.4,14,Waypoint,
37.286591,-119.5625519,4537.7988489497,38.713912,0,1.5942585812,9200,2018-04-11 21:45:12,18,0,23.363,4537.7988489497,38.713912,0.3131716,1.5942585812,0,0,-0.671082,311.2, 1.1, -3.1,0,0,1024,1024,1025,1024,310.6,-89.9,98,3.882,3.909,3.887,3.946,0,0,24.197,73.4,14,Waypoint,
37.2865911,-119.5625518,4538.7831009497,39.698164,0,1.64084322836,9300,2018-04-11 21:45:12,18,0,23.363,4538.7831009497,39.698164,0.3131716,1.64084322836,0,0,-0.671082,311.2, 0.7, -3.3,0,0,1024,1024,1024,1024,310.6,-89.9,98,3.882,3.909,3.887,3.946,0,0,24.197,73.4,14,Waypoint,
37.2865912,-119.5625517,4539.7673529497,40.682416,0,1.68742787552,9400,2018-04-11 21:45:12,18,0,23.363,4539.7673529497,40.682416,0.3131716,1.68742787552,0,0,-0.671082,311.2, 0.5, -3.3,0,0,1024,1024,1025,1024,310.6,-89.9,98,3.882,3.909,3.887,3.946,0,0,24.197,73.4,14,Waypoint,
37.2865913,-119.5625517,4540.7516049497,41.666668,0,1.71520346696,9500,2018-04-11 21:45:13,18,0,23.363,4540.7516049497,41.666668,0.3131716,1.71520346696,0,0,-0.671082,311.3, 0.4, -3.6,0,0,1024,1024,1025,1024,310.6,-89.9,98,3.882,3.909,3.887,3.946,0,0,24.197,73.4,14,Waypoint,
37.2865914,-119.5625516,4542.0639409497,42.979004,0,1.76181108,9600,2018-04-11 21:45:13,18,0,23.363,4542.0639409497,42.979004,0.3131716,1.76181108,0,0,-0.671082,311.6, 0.6, -3.9,0,0,1024,1024,1025,1024,310.6,-89.9,98,3.882,3.909,3.887,3.946,0,0,24.197,73.4,14,Waypoint,
37.2865915,-119.5625516,4543.0481929497,43.963256,0,1.78991803628,9700,2018-04-11 21:45:13,18,0,23.363,4543.0481929497,43.963256,0.3131716,1.78991803628,0,0,-0.671082,311.6, 0.8, -4,0,0,1024,1024,1025,1024,310.6,-89.9,98,3.882,3.909,3.887,3.946,0,0,24.197,73.4,14,Waypoint,
37.2865916,-119.5625515,4544.0324449497,44.947508,0,1.83653877268,9800,2018-04-11 21:45:13,18,0,23.363,4544.0324449497,44.947508,0.3131716,1.83653877268,0,0,-0.671082,311.6, 1, -4.4,0,0,1024,1024,1025,1024,310.6,-89.9,98,3.882,3.909,3.887,3.946,0,0,24.197,73.4,14,Waypoint,
37.2865917,-119.5625514,4545.0166969497,45.93176,0,1.88315950908,9900,2018-04-11 21:45:13,18,0,23.363,4545.0166969497,45.93176,0.3131716,1.88315950908,0,0,-0.671082,311.5, 1.1, -4.5,0,0,1024,1024,1025,1024,310.6,-89.9,98,3.882,3.909,3.887,3.946,0,0,24.197,73.4,14,Waypoint,
37.2865919,-119.5625512,4546.9852009497,47.900264,0,1.97640098188,10000,2018-04-11 21:45:13,18,0,23.688,4546.9852009497,47.900264,0.3131716,1.97640098188,0,0,-0.671082,311.6, 0.6, -5.5,0,0,1024,1024,1025,1024,310.6,-89.9,98,3.926,3.933,3.929,3.979,0,0,17.922,73.4,14,Waypoint,
37.286592,-119.5625511,4548.2975369497,49.2126,0,2.02302171828,10100,2018-04-11 21:45:13,18,0,23.688,4548.2975369497,49.2126,0.3131716,2.02302171828,0,0,-0.671082,311.7, 0.4, -5.8,0,0,1024,1024,1025,1024,310.7,-89.9,98,3.926,3.933,3.929,3.979,0,0,17.922,73.4,14,Waypoint,
37.2865921,-119.562551,4549.2817889497,50.196852,0,2.06964245468,10200,2018-04-11 21:45:13,18,0,23.688,4549.2817889497,50.196852,0.3131716,2.06964245468,0,0,-0.671082,311.9, 0.2, -6,0,0,1024,1024,1025,1024,310.6,-90,98,3.926,3.933,3.929,3.979,0,0,17.922,73.4,14,Waypoint,
37.2865922,-119.5625508,4550.2660409497,51.181104,0,2.13469823104,10300,2018-04-11 21:45:13,18,0,23.688,4550.2660409497,51.181104,0.3131716,2.13469823104,0,0,-0.671082,311.9, 0.3, -6.2,0,0,1024,1024,1025,1024,310.6,-90,98,3.926,3.933,3.929,3.979,0,0,17.922,73.4,14,Waypoint,
37.2865923,-119.5625506,4550.9222089497,51.837272,0,2.199967262,10500,2018-04-11 21:45:14,18,0,23.688,4550.9222089497,51.837272,0.3131716,2.199967262,0,0,-0.671082,311.9, 0.3, -6.4,0,0,1024,1024,1025,1024,310.6,-89.9,98,3.926,3.933,3.929,3.979,0,0,17.922,73.4,14,Waypoint,
37.2865924,-119.5625506,4551.9064609497,52.821524,0,2.22792658048,10600,2018-04-11 21:45:14,18,0,23.688,4551.9064609497,52.821524,0.3131716,2.22792658048,0,0,-0.671082,311.9, 0.4, -6.6,0,0,1024,1024,1025,1024,310.6,-89.9,98,3.926,3.933,3.929,3.979,0,0,17.922,73.4,14,Waypoint,
37.2865925,-119.5625505,4552.8907129497,53.805776,0,2.2745407552,10700,2018-04-11 21:45:14,18,0,23.688,4552.8907129497,53.805776,0.3131716,2.2745407552,0,0,-0.671082,311.9, 0.4, -6.7,0,0,1024,1024,1025,1024,310.6,-89.9,98,3.926,3.933,3.929,3.979,0,0,17.922,73.4,14,Waypoint,
37.2865925,-119.5625504,4553.5468809497,54.461944,0,2.29317264556,10800,2018-04-11 21:45:14,18,0,23.688,4553.5468809497,54.461944,0.3131716,2.29317264556,0,0,-0.671082,311.9, 0.1, -6.8,0,0,1024,1024,1025,1024,310.6,-90,98,3.926,3.933,3.929,3.979,0,0,17.922,73.4,14,Waypoint,
37.2865926,-119.5625504,4554.5311329497,55.446196,0,2.32115492992,10900,2018-04-11 21:45:14,18,0,23.688,4554.5311329497,55.446196,0.3131716,2.32115492992,0,0,-0.671082,311.7, 0.1, -6.4,0,0,1024,1024,1025,1024,310.6,-89.9,98,3.926,3.933,3.929,3.979,0,0,17.922,73.4,14,Waypoint,
37.2865925,-119.5625504,4555.1873009497,56.102364,0.223694,2.29317264556,11000,2018-04-11 21:45:14,18,0,23.79,4555.1873009497,56.102364,0.3131716,2.32115492992,0,0,-0.671082,311.5, 0.3, -5.7,0,0,1024,1024,1025,1024,310.7,-89.9,98,3.936,3.951,3.944,4.005,0,0,17.037,73.4,14,Waypoint,
37.2865925,-119.5625506,4556.1715529497,57.086616,0.223694,2.25612868112,11120,2018-04-11 21:45:14,18,0,23.79,4556.1715529497,57.086616,0.3131716,2.32115492992,0,0,-0.671082,311.2, 1, -5,0,0,1024,1024,1025,1024,310.7,-89.9,98,3.936,3.951,3.944,4.005,0,0,17.037,73.4,14,Waypoint,
37.2865925,-119.5625506,4556.1715529497,57.086616,0.223694,2.25612868112,11200,2018-04-11 21:45:14,18,0,23.79,4556.1715529497,57.086616,0.3131716,2.32115492992,0,0,-0.671082,311.2, 1, -5,0,0,1024,1024,1025,1024,310.7,-89.9,98,3.936,3.951,3.944,4.005,0,0,17.037,73.4,14,Waypoint,
37.2865924,-119.5625507,4557.1558049497,58.070868,0.3131716,2.20950466388,11300,2018-04-11 21:45:14,18,0,23.79,4557.1558049497,58.070868,0.3131716,2.32115492992,0,0,-0.671082,311, 1.5, -4.4,0,0,1024,1024,1025,1024,310.7,-89.9,98,3.936,3.951,3.944,4.005,0,0,17.037,73.4,14,Waypoint,
37.2865923,-119.5625509,4557.8119729497,58.727036,0.3131716,2.14469166968,11400,2018-04-11 21:45:14,18,0,23.79,4557.8119729497,58.727036,0.3131716,2.32115492992,0,0,-0.671082,311, 1.9, -3.7,0,0,1024,1024,1025,1024,310.7,-89.9,98,3.936,3.951,3.944,4.005,0,0,17.037,73.4,14,Waypoint,
37.2865922,-119.5625511,4558.7962249497,59.711288,0.3131716,2.08012145764,11500,2018-04-11 21:45:15,18,0,23.79,4558.7962249497,59.711288,0.3131716,2.32115492992,0,0,-0.671082,311.1, 2, -3,0,0,1024,1024,1025,1024,310.7,-89.9,98,3.936,3.951,3.944,4.005,0,0,17.037,73.4,14,Waypoint,
37.286592,-119.5625513,4559.7804769497,60.69554,0.3131716,1.98687998484,11600,2018-04-11 21:45:15,18,0,23.79,4559.7804769497,60.69554,0.3131716,2.32115492992,0,0,-0.671082,311.1, 2, -2.7,0,0,1024,1024,1025,1024,310.7,-89.9,98,3.936,3.951,3.944,4.005,0,0,17.037,73.4,14,Waypoint,
37.2865919,-119.5625515,4560.7647289497,61.679792,0.3131716,1.9225886442,11700,2018-04-11 21:45:15,18,0,23.79,4560.7647289497,61.679792,0.3131716,2.32115492992,0,0,-0.671082,311.2, 2.1, -2.5,0,0,1024,1024,1025,1024,310.7,-89.9,98,3.936,3.951,3.944,4.005,0,0,17.037,73.4,14,Waypoint,
37.2865918,-119.5625516,4561.7489809497,62.664044,0.3131716,1.87597775032,11900,2018-04-11 21:45:15,18,0,23.79,4561.7489809497,62.664044,0.3131716,2.32115492992,0,0,-0.671082,311.2, 1.9, -2.6,0,0,1024,1024,1025,1024,310.7,-89.9,98,3.936,3.951,3.944,4.005,0,0,17.037,73.4,14,Waypoint,
37.2865917,-119.5625516,4562.7332329497,63.648296,0.223694,1.84701777564,12000,2018-04-11 21:45:15,18,0,23.651,4562.7332329497,63.648296,0.3131716,2.32115492992,0,0,-0.671082,311.3, 1.5, -3.1,0,0,1024,1024,1025,1024,310.7,-89.9,98,3.936,3.951,3.944,4.005,0,0,18.63,73.4,14,Waypoint,
37.2865917,-119.5625517,4563.7174849497,64.632548,0.223694,1.82937013728,12100,2018-04-11 21:45:15,18,0,23.651,4563.7174849497,64.632548,0.3131716,2.32115492992,0,0,-0.671082,311.5, 1.1, -3.3,0,0,1024,1024,1025,1024,310.7,-89.9,98,3.936,3.951,3.944,4.005,0,0,18.63,73.4,14,Waypoint,
37.2865916,-119.5625517,4564.7017369497,65.6168,0.223694,1.80039703924,12200,2018-04-11 21:45:15,18,0,23.651,4564.7017369497,65.6168,0.3131716,2.32115492992,0,0,-0.671082,311.6, 1, -3.5,0,0,1024,1024,1025,1024,310.7,-89.9,98,3.936,3.951,3.944,4.005,0,0,18.63,73.4,14,Waypoint,
37.2865915,-119.5625517,4565.6859889497,66.601052,0,1.7717028126,12310,2018-04-11 21:45:15,18,0,23.651,4565.6859889497,66.601052,0.3131716,2.32115492992,0,0,-0.671082,311.7, 0.9, -3.7,0,0,1024,1024,1025,1024,310.7,-89.9,98,3.936,3.951,3.944,4.005,0,0,18.63,73.4,14,Waypoint,
37.2865914,-119.5625518,4566.6702409497,67.585304,0,1.72507879536,12400,2018-04-11 21:45:15,18,0,23.651,4566.6702409497,67.585304,0.3131716,2.32115492992,0,0,-0.671082,311.7, 0.8, -3.7,0,0,1024,1024,1025,1024,310.7,-89.9,98,3.936,3.951,3.944,4.005,0,0,18.63,73.4,14,Waypoint,
37.2865914,-119.5625518,4567.6544929497,68.569556,0,1.72507879536,12500,2018-04-11 21:45:16,18,0,23.651,4567.6544929497,68.569556,0.3131716,2.32115492992,0,0,-0.671082,311.5, 0.9, -3.4,0,0,1024,1024,1024,1024,310.7,-89.9,98,3.936,3.951,3.944,4.005,0,0,18.63,73.4,14,Waypoint,
37.2865912,-119.5625521,4572.5757529497,73.490816,0,1.61391737448,12710,2018-04-11 21:45:16,18,0,23.651,4572.5757529497,73.490816,0.3131716,2.32115492992,0,0,-0.671082,311.2, 1.9, -3.3,0,0,1024,1024,1025,1024,310.7,-89.9,98,3.936,3.951,3.944,4.005,0,0,18.63,73.4,14,Waypoint,
37.2865912,-119.5625522,4574.5442569497,75.45932,0,1.59633207208,12900,2018-04-11 21:45:16,18,0,23.651,4574.5442569497,75.45932,0.3131716,2.32115492992,0,0,-0.671082,311.4, 2.2, -3.6,0,0,1024,1024,1025,1024,310.7,-89.9,98,3.936,3.951,3.944,4.005,0,0,18.63,73.4,14,Waypoint,
37.2865912,-119.5625522,4575.5285089497,76.443572,0,1.59633207208,13000,2018-04-11 21:45:16,18,0,23.301,4575.5285089497,76.443572,0.3131716,2.32115492992,0,0,-0.671082,311.5, 2.4, -4,0,0,1024,1024,1025,1024,310.7,-89.9,98,3.856,3.876,3.857,3.915,0,0,21.964,73.4,14,Waypoint,
37.2865912,-119.5625522,4576.5127609497,77.427824,0,1.59633207208,13200,2018-04-11 21:45:16,18,0,23.301,4576.5127609497,77.427824,0.3131716,2.32115492992,0,0,-0.671082,311.7, 2.3, -4.3,0,0,1024,1024,1025,1024,310.7,-89.9,98,3.856,3.876,3.857,3.915,0,0,21.964,73.4,14,Waypoint,
37.2865912,-119.5625522,4577.4970129497,78.412076,0,1.59633207208,13300,2018-04-11 21:45:16,18,0,23.301,4577.4970129497,78.412076,0.3131716,2.32115492992,0,0,-0.671082,311.7, 2, -4.3,0,0,1024,1024,1025,1024,310.7,-89.9,98,3.856,3.876,3.857,3.915,0,0,21.964,73.4,14,Waypoint,
37.2865912,-119.5625523,4578.8093489497,79.724412,0,1.5790846962,13400,2018-04-11 21:45:16,18,0,23.301,4578.8093489497,79.724412,0.3131716,2.32115492992,0,0,-0.671082,311.6, 2, -4.3,0,0,1024,1024,1025,1024,310.7,-89.9,98,3.856,3.876,3.857,3.915,0,0,21.964,73.4,14,Waypoint,
37.2865912,-119.5625523,4579.7936009497,80.708664,0,1.5790846962,13500,2018-04-11 21:45:17,18,0,23.301,4579.7936009497,80.708664,0.3131716,2.32115492992,0,0,-0.671082,311.6, 2, -4.1,0,0,1024,1024,1024,1024,310.7,-89.9,98,3.856,3.876,3.857,3.915,0,0,21.964,73.4,14,Waypoint,
37.2865912,-119.5625523,4580.7778529497,81.692916,0,1.5790846962,13600,2018-04-11 21:45:17,18,0,23.301,4580.7778529497,81.692916,0.3131716,2.32115492992,0,0,-0.671082,311.6, 1.8, -3.8,0,0,1024,1024,1025,1024,310.7,-89.9,98,3.856,3.876,3.857,3.915,0,0,21.964,73.4,14,Waypoint,
37.2865912,-119.5625523,4581.7621049497,82.677168,0,1.5790846962,13700,2018-04-11 21:45:17,18,0,23.301,4581.7621049497,82.677168,0.3131716,2.32115492992,0,0,-0.671082,311.7, 1.9, -3.7,0,0,1024,1024,1025,1024,310.7,-89.9,98,3.856,3.876,3.857,3.915,0,0,21.964,73.4,14,Waypoint,
37.2865911,-119.5625524,4582.7463569497,83.66142,0,1.53250661072,13800,2018-04-11 21:45:17,18,0,23.301,4582.7463569497,83.66142,0.3131716,2.32115492992,0,0,-0.671082,311.7, 1.8, -4,0,0,1024,1024,1025,1024,310.7,-89.9,98,3.856,3.876,3.857,3.915,0,0,21.964,73.4,14,Waypoint,
37.2865911,-119.5625524,4583.7306089497,84.645672,0,1.53250661072,13900,2018-04-11 21:45:17,18,0,23.301,4583.7306089497,84.645672,0.3131716,2.32115492992,0,0,-0.671082,311.8, 1.9, -3.8,0,0,1024,1024,1025,1024,310.7,-89.9,98,3.856,3.876,3.857,3.915,0,0,21.964,73.4,14,Waypoint,
37.2865911,-119.5625524,4584.7148609497,85.629924,0,1.53250661072,14000,2018-04-11 21:45:17,18,0,23.276,4584.7148609497,85.629924,0.3131716,2.32115492992,0,0,-0.671082,311.8, 1.7, -3.7,0,0,1024,1024,1025,1024,310.7,-89.9,98,3.851,3.86,3.859,3.923,0,0,21.73,73.4,14,Waypoint,
37.2865911,-119.5625524,4585.6991129497,86.614176,0,1.53250661072,14100,2018-04-11 21:45:17,18,0,23.276,4585.6991129497,86.614176,0.3131716,2.32115492992,0,0,-0.671082,311.7, 1.9, -3.6,0,0,1024,1024,1025,1024,310.7,-89.9,98,3.851,3.86,3.859,3.923,0,0,21.73,73.4,14,Waypoint,
37.2865911,-119.5625524,4587.6676169497,88.58268,0,1.53250661072,14300,2018-04-11 21:45:17,18,0,23.276,4587.6676169497,88.58268,0.3131716,2.32115492992,0,0,-0.671082,311.2, 2, -3.4,0,0,1024,1024,1025,1024,310.7,-89.9,98,3.851,3.86,3.859,3.923,0,0,21.73,73.4,14,Waypoint,
37.2865912,-119.5625524,4588.6518689497,89.566932,0,1.56218508936,14400,2018-04-11 21:45:17,18,0,23.276,4588.6518689497,89.566932,0.3131716,2.32115492992,0,0,-0.671082,311.1, 2.1, -3.3,0,0,1024,1024,1025,1024,310.7,-89.9,98,3.851,3.86,3.859,3.923,0,0,21.73,73.4,14,Waypoint,
37.2865912,-119.5625524,4589.6361209497,90.551184,0,1.56218508936,14500,2018-04-11 21:45:18,18,0,23.276,4589.6361209497,90.551184,0.3131716,2.32115492992,0,0,-0.671082,311, 2.2, -3.8,0,0,1024,1024,1025,1024,310.7,-89.9,98,3.851,3.86,3.859,3.923,0,0,21.73,73.4,14,Waypoint,
37.2865912,-119.5625524,4590.6203729497,91.535436,0,1.56218508936,14600,2018-04-11 21:45:18,18,0,23.276,4590.6203729497,91.535436,0.3131716,2.32115492992,0,0,-0.671082,311, 2.3, -4.1,0,0,1024,1024,1025,1024,310.7,-89.9,98,3.851,3.86,3.859,3.923,0,0,21.73,73.4,14,Waypoint,
37.2865913,-119.5625524,4591.9327089497,92.847772,0,1.59214572024,14700,2018-04-11 21:45:18,18,0,23.276,4591.9327089497,92.847772,0.3131716,2.32115492992,0,0,-0.671082,311, 2.6, -4.1,0,0,1024,1024,1025,1024,310.7,-89.9,98,3.851,3.86,3.859,3.923,0,0,21.73,73.4,14,Waypoint,
37.2865913,-119.5625524,4592.9169609497,93.832024,0,1.59214572024,14900,2018-04-11 21:45:18,18,0,23.276,4592.9169609497,93.832024,0.3131716,2.32115492992,0,0,-0.671082,311, 3, -3.9,0,0,1024,1024,1025,1024,310.7,-89.9,98,3.851,3.86,3.859,3.923,0,0,21.73,73.4,14,Waypoint,
37.2865914,-119.5625524,4594.8854649497,95.800528,0,1.62237538,15000,2018-04-11 21:45:18,18,0,23.359,4594.8854649497,95.800528,0.3131716,2.32115492992,0,0,-0.671082,311.1, 3.1, -4.5,0,0,1024,1024,1025,1024,310.7,-89.9,98,3.873,3.879,3.877,3.923,0,0,20.301,73.4,14,Waypoint,
37.2865915,-119.5625523,4595.5416329497,96.456696,0,1.66884191692,15100,2018-04-11 21:45:18,18,0,23.359,4595.5416329497,96.456696,0.3131716,2.32115492992,0,0,-0.671082,311.2, 2.8, -5.1,0,0,1024,1024,1025,1024,310.7,-89.9,98,3.873,3.879,3.877,3.923,0,0,20.301,73.4,14,Waypoint,
37.2865916,-119.5625522,4596.5258849497,97.440948,0,1.71531173468,15300,2018-04-11 21:45:18,18,0,23.359,4596.5258849497,97.440948,0.3131716,2.32115492992,0,0,-0.671082,311.2, 2.7, -5.5,0,0,1024,1024,1025,1024,310.7,-89.9,98,3.873,3.879,3.877,3.923,0,0,20.301,73.4,14,Waypoint,
37.2865918,-119.5625521,4597.5101369497,98.4252,0,1.79213260328,15400,2018-04-11 21:45:18,18,0,23.359,4597.5101369497,98.4252,0.3131716,2.32115492992,0,0,-0.671082,311.3, 2.7, -5.8,0,0,1024,1024,1025,1024,310.7,-89.9,98,3.873,3.879,3.877,3.923,0,0,20.301,73.4,14,Waypoint,
37.2865919,-119.5625521,4598.4943889497,99.409452,0,1.82269690872,15510,2018-04-11 21:45:19,18,0,23.359,4598.4943889497,99.409452,0.3131716,2.32115492992,0,0,-0.671082,311.4, 2.9, -5.7,0,0,1024,1024,1025,1024,310.7,-89.9,98,3.873,3.879,3.877,3.923,0,0,20.301,73.4,14,Waypoint,
37.286592,-119.562552,4599.4786409497,100.393704,0,1.869094548,15600,2018-04-11 21:45:19,18,0,23.359,4599.4786409497,100.393704,0.3131716,2.32115492992,0,0,-0.671082,311.3, 3.4, -5.6,0,0,1024,1024,1025,1024,310.8,-89.9,98,3.873,3.879,3.877,3.923,0,0,20.301,73.4,14,Waypoint,
37.286592,-119.562552,4600.4628929497,101.377956,0,1.869094548,15700,2018-04-11 21:45:19,18,0,23.359,4600.4628929497,101.377956,0.3131716,2.32115492992,0,0,-0.671082,311.3, 3.5, -5.5,0,0,1024,1024,1025,1024,310.8,-89.9,98,3.873,3.879,3.877,3.923,0,0,20.301,73.4,14,Waypoint,
37.2865921,-119.562552,4601.4471449497,102.362208,0,1.89982289544,15800,2018-04-11 21:45:19,18,0,23.359,4601.4471449497,102.362208,0.3131716,2.32115492992,0,0,-0.671082,311.4, 3.6, -5.4,0,0,1024,1024,1024,1024,310.8,-89.9,98,3.873,3.879,3.877,3.923,0,0,20.301,73.4,14,Waypoint,
37.2865921,-119.5625519,4602.4313969497,103.34646,0,1.9155020298,16000,2018-04-11 21:45:19,18,0,23.285,4602.4313969497,103.34646,0.3131716,2.32115492992,0,0,-0.671082,311.5, 3.4, -5.3,0,0,1024,1024,1025,1024,310.8,-89.9,98,3.855,3.868,3.85,3.913,0,0,20.659,73.4,14,Waypoint,
37.2865921,-119.5625519,4603.4156489497,104.330712,0,1.9155020298,16100,2018-04-11 21:45:19,18,0,23.285,4603.4156489497,104.330712,0.3131716,2.32115492992,0,0,-0.671082,311.6, 3.1, -5.2,0,0,1024,1024,1025,1024,310.8,-89.9,98,3.855,3.868,3.85,3.913,0,0,20.659,73.4,14,Waypoint,
37.2865921,-119.5625519,4605.3841529497,106.299216,0,1.9155020298,16300,2018-04-11 21:45:19,18,0,23.285,4605.3841529497,106.299216,0.3131716,2.32115492992,0,0,-0.671082,311.6, 2.8, -4.9,0,0,1024,1024,1025,1024,310.8,-89.9,98,3.855,3.868,3.85,3.913,0,0,20.659,73.4,14,Waypoint,
37.286592,-119.5625519,4607.3526569497,108.26772,0,1.88502958788,16400,2018-04-11 21:45:19,18,0,23.285,4607.3526569497,108.26772,0.3131716,2.32115492992,0,0,-0.671082,311.6, 2.9, -4.4,0,0,1024,1024,1025,1024,310.8,-89.9,98,3.855,3.868,3.85,3.913,0,0,20.659,73.4,14,Waypoint,
37.286592,-119.5625519,4608.3369089497,109.251972,0,1.88502958788,16500,2018-04-11 21:45:20,18,0,23.285,4608.3369089497,109.251972,0.3131716,2.32115492992,0,0,-0.671082,311.6, 2.9, -4.3,0,0,1024,1024,1025,1024,310.8,-89.9,98,3.855,3.868,3.85,3.913,0,0,20.659,73.4,14,Waypoint,
37.286592,-119.562552,4609.3211609497,110.236224,0,1.869094548,16600,2018-04-11 21:45:20,18,0,23.285,4609.3211609497,110.236224,0.3131716,2.32115492992,0,0,-0.671082,311.6, 3, -4.2,0,0,1024,1024,1025,1024,310.8,-89.9,98,3.855,3.868,3.85,3.913,0,0,20.659,73.4,14,Waypoint,
37.2865919,-119.562552,4610.3054129497,111.220476,0,1.83857617432,16700,2018-04-11 21:45:20,18,0,23.285,4610.3054129497,111.220476,0.3131716,2.32115492992,0,0,-0.671082,311.6, 3, -4.3,0,0,1024,1024,1025,1024,310.8,-89.9,98,3.855,3.868,3.85,3.913,0,0,20.659,73.4,14,Waypoint,
37.2865919,-119.562552,4611.2896649497,112.204728,0,1.83857617432,16800,2018-04-11 21:45:20,18,0,23.285,4611.2896649497,112.204728,0.3131716,2.32115492992,0,0,-0.671082,311.6, 3.1, -4.5,0,0,1024,1024,1025,1024,310.8,-89.9,98,3.855,3.868,3.85,3.913,0,0,20.659,73.4,14,Waypoint,
37.2865919,-119.562552,4613.2581689497,114.173232,0,1.83857617432,16900,2018-04-11 21:45:20,18,0,23.285,4613.2581689497,114.173232,0.3131716,2.32115492992,0,0,-0.671082,311.5, 2.8, -4.7,0,0,1024,1024,1025,1024,310.8,-89.9,98,3.855,3.868,3.85,3.913,0,0,20.659,73.4,14,Waypoint,
37.2865919,-119.5625521,4614.2424209497,115.157484,0,1.82269690872,17000,2018-04-11 21:45:20,18,0,23.222,4614.2424209497,115.157484,0.3131716,2.32115492992,0,0,-0.671082,311.5, 2.9, -4.5,0,0,1024,1024,1025,1024,310.8,-89.9,97,3.855,3.868,3.85,3.913,0,0,21.688,73.4,14,Waypoint,
37.2865918,-119.5625521,4616.2109249497,117.125988,0,1.79213260328,17100,2018-04-11 21:45:20,18,0,23.222,4616.2109249497,117.125988,0.3131716,2.32115492992,0,0,-0.671082,311.4, 3, -4.4,0,0,1024,1024,1025,1024,310.8,-89.9,97,3.855,3.868,3.85,3.913,0,0,21.688,73.4,14,Waypoint,
37.2865917,-119.5625522,4618.5075129497,119.422576,0,1.74569559392,17330,2018-04-11 21:45:20,18,0,23.222,4618.5075129497,119.422576,0.3131716,2.32115492992,0,0,-0.671082,311.4, 2.8, -4,0,0,1024,1024,1025,1024,310.8,-89.9,97,3.855,3.868,3.85,3.913,0,0,21.688,73.4,14,Waypoint,
37.2865917,-119.5625522,4619.4917649497,120.406828,0,1.74569559392,17400,2018-04-11 21:45:20,18,0,23.222,4619.4917649497,120.406828,0.3131716,2.32115492992,0,0,-0.671082,311.4, 2.8, -4,0,0,1024,1024,1025,1024,310.8,-89.9,97,3.855,3.868,3.85,3.913,0,0,21.688,73.4,14,Waypoint,
37.2865916,-119.5625523,4620.4760169497,121.39108,0,1.69927170792,17510,2018-04-11 21:45:21,18,0,23.222,4620.4760169497,121.39108,0.3131716,2.32115492992,0,0,-0.671082,311.5, 3, -4,0,0,1024,1024,1025,1024,310.8,-89.9,97,3.855,3.868,3.85,3.913,0,0,21.688,73.4,14,Waypoint,
37.2865916,-119.5625523,4621.1321849497,122.047248,0,1.69927170792,17610,2018-04-11 21:45:21,18,0,23.222,4621.1321849497,122.047248,0.3131716,2.32115492992,0,0,-0.671082,311.5, 3.1, -4,0,0,1024,1024,1025,1024,310.7,-89.9,97,3.855,3.868,3.85,3.913,0,0,21.688,73.4,14,Waypoint,
37.2865916,-119.5625524,4622.4445209497,123.359584,0,1.6835794502,17700,2018-04-11 21:45:21,18,0,23.222,4622.4445209497,123.359584,0.3131716,2.32115492992,0,0,-0.671082,311.4, 3.1, -4.2,0,0,1024,1024,1025,1024,310.8,-89.9,97,3.855,3.868,3.85,3.913,0,0,21.688,73.4,14,Waypoint,
37.2865915,-119.5625524,4623.4287729497,124.343836,0,1.65285766444,17800,2018-04-11 21:45:21,18,0,23.222,4623.4287729497,124.343836,0.3131716,2.32115492992,0,0,-0.671082,311.4, 2.9, -4.2,0,0,1024,1024,1025,1024,310.8,-89.9,97,3.855,3.868,3.85,3.913,0,0,21.688,73.4,14,Waypoint,
37.2865914,-119.5625525,4625.3972769497,126.31234,0,1.60645674432,18000,2018-04-11 21:45:21,18,0,23.222,4625.3972769497,126.31234,0.3131716,2.32115492992,0,0,-0.671082,311.5, 2.8, -4,0,0,1024,1024,1025,1024,310.8,-89.9,97,3.845,3.848,3.846,3.904,0,0,21.688,73.4,14,Waypoint,
37.2865914,-119.5625526,4626.3815289497,127.296592,0,1.59090884356,18100,2018-04-11 21:45:21,18,0,23.222,4626.3815289497,127.296592,0.3131716,2.32115492992,0,0,-0.671082,311.6, 3, -3.8,0,0,1024,1024,1025,1024,310.8,-89.9,97,3.845,3.848,3.846,3.904,0,0,21.688,73.4,14,Waypoint,
37.2865913,-119.5625526,4627.3657809497,128.280844,0,1.56006894756,18300,2018-04-11 21:45:21,18,0,23.222,4627.3657809497,128.280844,0.3131716,2.32115492992,0,0,-0.671082,311.6, 3, -3.6,0,0,1024,1024,1025,1024,310.8,-89.9,97,3.845,3.848,3.846,3.904,0,0,21.688,73.4,14,Waypoint,
37.2865912,-119.5625526,4628.3500329497,129.265096,0,1.5294783954,18400,2018-04-11 21:45:21,18,0,23.222,4628.3500329497,129.265096,0.3131716,2.32115492992,0,0,-0.671082,311.6, 2.9, -3.5,0,0,1024,1024,1025,1024,310.7,-89.9,97,3.845,3.848,3.846,3.904,0,0,21.688,73.4,14,Waypoint,
37.2865912,-119.5625527,4629.3342849497,130.249348,0,1.513697555,18500,2018-04-11 21:45:22,18,0,23.222,4629.3342849497,130.249348,0.3131716,2.32115492992,0,0,-0.671082,311.5, 2.8, -3.4,0,0,1024,1024,1025,1024,310.7,-89.9,97,3.845,3.848,3.846,3.904,0,0,21.688,73.4,14,Waypoint,
37.2865911,-119.5625527,4630.3185369497,131.2336,0,1.48304794772,18600,2018-04-11 21:45:22,18,0,23.222,4630.3185369497,131.2336,0.3131716,2.32115492992,0,0,-0.671082,311.5, 2.8, -3.4,0,0,1024,1024,1025,1024,310.8,-89.9,97,3.845,3.848,3.846,3.904,0,0,21.688,73.4,14,Waypoint,
37.286591,-119.5625527,4631.3027889497,132.217852,0,1.45266736932,18700,2018-04-11 21:45:22,18,0,23.222,4631.3027889497,132.217852,0.3131716,2.32115492992,0,0,-0.671082,311.5, 2.8, -3.4,0,0,1024,1024,1025,1024,310.8,-89.9,97,3.845,3.848,3.846,3.904,0,0,21.688,73.4,14,Waypoint,
37.286591,-119.5625528,4631.9589569497,132.87402,0,1.43662734256,18800,2018-04-11 21:45:22,18,0,23.222,4631.9589569497,132.87402,0.3131716,2.32115492992,0,0,-0.671082,311.4, 2.7, -3.6,0,0,1024,1024,1025,1024,310.8,-89.9,97,3.845,3.848,3.846,3.904,0,0,21.688,73.4,14,Waypoint,
37.2865909,-119.5625528,4633.9274609497,134.842524,0,1.40619098988,19000,2018-04-11 21:45:22,18,0,23.16,4633.9274609497,134.842524,0.3131716,2.32115492992,0,0,-0.671082,311.4, 2.9, -3.6,0,0,1024,1024,1025,1024,310.8,-89.9,97,3.842,3.849,3.835,3.89,0,0,21.785,73.4,14,Waypoint,
37.2865909,-119.5625529,4634.9117129497,135.826776,0,1.39021986076,19100,2018-04-11 21:45:22,18,0,23.16,4634.9117129497,135.826776,0.3131716,2.32115492992,0,0,-0.671082,311.4, 2.9, -3.7,0,0,1024,1024,1025,1024,310.8,-89.9,97,3.842,3.849,3.835,3.89,0,0,21.785,73.4,14,Waypoint,
37.2865908,-119.5625529,4635.8959649497,136.811028,0,1.35972445296,19200,2018-04-11 21:45:22,18,0,23.16,4635.8959649497,136.811028,0.3131716,2.32115492992,0,0,-0.671082,311.5, 3, -3.4,0,0,1024,1024,1025,1024,310.8,-89.9,97,3.842,3.849,3.835,3.89,0,0,21.785,73.4,14,Waypoint,
37.2865908,-119.5625529,4636.8802169497,137.79528,0,1.35972445296,19300,2018-04-11 21:45:22,18,0,23.16,4636.8802169497,137.79528,0.3131716,2.32115492992,0,0,-0.671082,311.6, 2.9, -3.4,0,0,1024,1024,1025,1024,310.8,-89.9,97,3.842,3.849,3.835,3.89,0,0,21.785,73.4,14,Waypoint,
37.2865907,-119.562553,4637.8644689497,138.779532,0,1.31326775856,19400,2018-04-11 21:45:22,18,0,23.16,4637.8644689497,138.779532,0.3131716,2.32115492992,0,0,-0.671082,311.6, 2.7, -3.3,0,0,1024,1024,1025,1024,310.8,-89.9,97,3.842,3.849,3.835,3.89,0,0,21.785,73.4,14,Waypoint,
37.2865906,-119.562553,4639.1768049497,140.091868,0,1.28301841376,19500,2018-04-11 21:45:23,18,0,23.16,4639.1768049497,140.091868,0.3131716,2.32115492992,0,0,-0.671082,311.6, 2.7, -3.2,0,0,1024,1024,1025,1024,310.8,-89.9,97,3.842,3.849,3.835,3.89,0,0,21.785,73.4,14,Waypoint,
37.2865906,-119.562553,4640.1610569497,141.07612,0,1.28301841376,19600,2018-04-11 21:45:23,18,0,23.16,4640.1610569497,141.07612,0.3131716,2.32115492992,0,0,-0.671082,311.5, 2.6, -3.2,0,0,1024,1024,1025,1024,310.8,-89.9,97,3.842,3.849,3.835,3.89,0,0,21.785,73.4,14,Waypoint,
37.2865905,-119.5625531,4642.1295609497,143.044624,0,1.2365157876,19700,2018-04-11 21:45:23,18,0,23.16,4642.1295609497,143.044624,0.3131716,2.32115492992,0,0,-0.671082,311.5, 2.7, -3,0,0,1024,1024,1025,1024,310.8,-89.9,97,3.842,3.849,3.835,3.89,0,0,21.785,73.4,14,Waypoint,
37.2865904,-119.5625532,4644.0980649497,145.013128,0,1.19002300396,19900,2018-04-11 21:45:23,18,0,23.16,4644.0980649497,145.013128,0.3131716,2.32115492992,0,0,-0.671082,311.6, 2.9, -2.9,0,0,1024,1024,1025,1024,310.8,-89.9,97,3.842,3.849,3.835,3.89,0,0,21.785,73.4,14,Waypoint,
37.2865904,-119.5625532,4645.0823169497,145.99738,0,1.19002300396,20000,2018-04-11 21:45:23,18,0,23.126,4645.0823169497,145.99738,0.3131716,2.32115492992,0,0,-0.671082,311.6, 2.9, -2.9,0,0,1024,1024,1025,1024,310.8,-89.9,97,3.84,3.843,3.824,3.881,0,0,21.928,73.4,14,Waypoint,
37.2865904,-119.5625533,4646.0665689497,146.981632,0,1.1739829772,20100,2018-04-11 21:45:23,18,0,23.126,4646.0665689497,146.981632,0.3131716,2.32115492992,0,0,-0.671082,311.6, 2.7, -3,0,0,1024,1024,1025,1024,310.7,-89.9,97,3.84,3.843,3.824,3.881,0,0,21.928,73.4,14,Waypoint,
37.2865903,-119.5625533,4647.0508209497,147.965884,0,1.14354334368,20200,2018-04-11 21:45:23,18,0,23.126,4647.0508209497,147.965884,0.3131716,2.32115492992,0,0,-0.671082,311.7, 2.7, -3,0,0,1024,1024,1025,1024,310.8,-89.9,97,3.84,3.843,3.824,3.881,0,0,21.928,73.4,14,Waypoint,
37.2865903,-119.5625533,4648.0350729497,148.950136,0,1.14354334368,20300,2018-04-11 21:45:23,18,0,23.126,4648.0350729497,148.950136,0.3131716,2.32115492992,0,0,-0.671082,311.8, 2.7, -2.9,0,0,1024,1024,1025,1024,310.7,-89.9,97,3.84,3.843,3.824,3.881,0,0,21.928,73.4,14,Waypoint,
37.2865903,-119.5625533,4649.0193249497,149.934388,0,1.14354334368,20410,2018-04-11 21:45:23,18,0,23.126,4649.0193249497,149.934388,0.3131716,2.32115492992,0,0,-0.671082,311.8, 2.5, -2.7,0,0,1024,1024,1025,1024,310.8,-89.9,97,3.84,3.843,3.824,3.881,0,0,21.928,73.4,14,Waypoint,
37.2865903,-119.5625534,4650.0035769497,150.91864,0,1.12758861876,20600,2018-04-11 21:45:24,18,0,23.126,4650.0035769497,150.91864,0.3131716,2.32115492992,0,0,-0.671082,311.8, 2.6, -2.7,0,0,1024,1024,1025,1024,310.8,-89.9,97,3.84,3.843,3.824,3.881,0,0,21.928,73.4,14,Waypoint,
37.2865903,-119.5625534,4650.9878289497,151.902892,0,1.12758861876,20700,2018-04-11 21:45:24,18,0,23.126,4650.9878289497,151.902892,0.3131716,2.32115492992,0,0,-0.671082,311.8, 2.7, -2.6,0,0,1024,1024,1025,1024,310.8,-89.9,97,3.84,3.843,3.824,3.881,0,0,21.928,73.4,14,Waypoint,
37.2865902,-119.5625534,4652.9563329497,153.871396,0,1.09707024508,20900,2018-04-11 21:45:24,18,0,23.126,4652.9563329497,153.871396,0.3131716,2.32115492992,0,0,-0.671082,311.6, 2.9, -2.6,0,0,1024,1024,1025,1024,310.8,-89.9,97,3.84,3.843,3.824,3.881,0,0,21.928,73.4,14,Waypoint,
37.2865902,-119.5625535,4654.9248369497,155.8399,0,1.08121066452,21100,2018-04-11 21:45:24,18,0,23.126,4654.9248369497,155.8399,0.3131716,2.32115492992,0,0,-0.671082,311.5, 2.9, -2.9,0,0,1024,1024,1025,1024,310.8,-89.9,97,3.84,3.843,3.824,3.881,0,0,21.928,73.4,14,Waypoint,
37.2865902,-119.5625535,4655.9090889497,156.824152,0,1.08121066452,21200,2018-04-11 21:45:24,18,0,23.126,4655.9090889497,156.824152,0.3131716,2.32115492992,0,0,-0.671082,311.5, 2.8, -3,0,0,1024,1024,1025,1024,310.8,-89.9,97,3.84,3.843,3.824,3.881,0,0,21.928,73.4,14,Waypoint,
37.2865903,-119.5625534,4657.8775929497,158.792656,0,1.12758861876,21400,2018-04-11 21:45:24,18,0,23.126,4657.8775929497,158.792656,0.3131716,2.32115492992,0,0,-0.671082,311.6, 2.9, -3,0,0,1024,1024,1025,1024,310.8,-89.9,97,3.84,3.843,3.824,3.881,0,0,21.928,73.4,14,Waypoint,
37.2865903,-119.5625534,4658.8618449497,159.776908,0,1.12758861876,21500,2018-04-11 21:45:25,18,0,23.126,4658.8618449497,159.776908,0.3131716,2.32115492992,0,0,-0.671082,311.6, 2.9, -3.1,0,0,1024,1024,1025,1024,310.8,-89.9,97,3.84,3.843,3.824,3.881,0,0,21.928,73.4,14,Waypoint,
37.2865903,-119.5625534,4659.8460969497,160.76116,0,1.12758861876,21600,2018-04-11 21:45:25,18,0,23.126,4659.8460969497,160.76116,0.3131716,2.32115492992,0,0,-0.671082,311.6, 2.9, -3.1,0,0,1024,1024,1025,1024,310.8,-89.9,97,3.84,3.843,3.824,3.881,0,0,21.928,73.4,14,Waypoint,
37.2865903,-119.5625534,4661.8146009497,162.729664,0,1.12758861876,21800,2018-04-11 21:45:25,18,0,23.126,4661.8146009497,162.729664,0.3131716,2.32115492992,0,0,-0.671082,311.7, 2.9, -3,0,0,1024,1024,1025,1024,310.8,-89.9,97,3.84,3.843,3.824,3.881,0,0,21.928,73.4,14,Waypoint,
37.2865903,-119.5625534,4662.7988529497,163.713916,0,1.12758861876,21900,2018-04-11 21:45:25,18,0,23.126,4662.7988529497,163.713916,0.3131716,2.32115492992,0,0,-0.671082,311.7, 2.6, -3,0,0,1024,1024,1025,1024,310.8,-90,97,3.84,3.843,3.824,3.881,0,0,21.928,73.4,14,Waypoint,
37.2865902,-119.5625534,4664.7673569497,165.68242,0,1.09707024508,22100,2018-04-11 21:45:25,18,0,23.126,4664.7673569497,165.68242,0.3131716,2.32115492992,0,0,-0.671082,311.9, 2.2, -2.6,0,0,1024,1024,1025,1024,310.8,-89.9,97,3.84,3.843,3.824,3.881,0,0,21.928,73.4,14,Waypoint,
37.2865902,-119.5625535,4666.7358609497,167.650924,0,1.08121066452,22200,2018-04-11 21:45:25,18,0,23.126,4666.7358609497,167.650924,0.3131716,2.32115492992,0,0,-0.671082,311.8, 2.9, -2,0,0,1024,1024,1025,1024,310.8,-89.9,97,3.84,3.843,3.824,3.881,0,0,21.928,73.4,14,Waypoint,
37.2865902,-119.5625535,4667.7201129497,168.635176,0,1.08121066452,22300,2018-04-11 21:45:25,18,0,23.126,4667.7201129497,168.635176,0.3131716,2.32115492992,0,0,-0.671082,311.8, 3.3, -1.7,0,0,1024,1024,1025,1024,310.8,-89.9,97,3.84,3.843,3.824,3.881,0,0,21.928,73.4,14,Waypoint,
37.2865903,-119.5625536,4668.7043649497,169.619428,0,1.09729006136,22400,2018-04-11 21:45:25,18,0,23.126,4668.7043649497,169.619428,0.3131716,2.32115492992,0,0,-0.671082,311.6, 3.8, -1.7,0,0,1024,1024,1025,1024,310.8,-89.9,97,3.84,3.843,3.824,3.881,0,0,21.928,73.4,14,Waypoint,
37.2865903,-119.5625536,4669.6886169497,170.60368,0,1.09729006136,22500,2018-04-11 21:45:26,18,0,23.126,4669.6886169497,170.60368,0.3131716,2.32115492992,0,0,-0.671082,311.5, 4.1, -1.8,0,0,1024,1024,1025,1024,310.8,-89.9,97,3.84,3.843,3.824,3.881,0,0,21.928,73.4,14,Waypoint,
37.2865903,-119.5625537,4670.3447849497,171.259848,0,1.0829888798,22600,2018-04-11 21:45:26,18,0,23.126,4670.3447849497,171.259848,0.3131716,2.32115492992,0,0,-0.671082,311.4, 4.2, -2.2,0,0,1024,1024,1025,1024,310.8,-89.9,97,3.84,3.843,3.824,3.881,0,0,21.928,73.4,14,Waypoint,
37.2865903,-119.5625536,4671.6571209497,172.572184,0,1.09729006136,22800,2018-04-11 21:45:26,18,0,23.126,4671.6571209497,172.572184,0.3131716,2.32115492992,0,0,-0.671082,311.3, 4, -2.4,0,0,1024,1024,1025,1024,310.8,-89.9,97,3.84,3.843,3.824,3.881,0,0,21.928,73.4,14,Waypoint,
37.2865903,-119.5625536,4672.6413729497,173.556436,0,1.09729006136,22900,2018-04-11 21:45:26,18,0,23.126,4672.6413729497,173.556436,0.3131716,2.32115492992,0,0,-0.671082,311.3, 3.7, -2.8,0,0,1024,1024,1025,1024,310.8,-89.9,97,3.84,3.843,3.824,3.881,0,0,21.928,73.4,14,Waypoint,
37.2865903,-119.5625535,4673.6256249497,174.540688,0,1.11216210908,23000,2018-04-11 21:45:26,18,0,23.089,4673.6256249497,174.540688,0.3131716,2.32115492992,0,0,-0.671082,311.4, 3.3, -3.2,0,0,1024,1024,1025,1024,310.8,-90,97,3.828,3.833,3.818,3.878,0,0,21.419,73.4,14,Waypoint,
37.2865903,-119.5625535,4674.6098769497,175.52494,0,1.11216210908,23100,2018-04-11 21:45:26,18,0,23.089,4674.6098769497,175.52494,0.3131716,2.32115492992,0,0,-0.671082,311.4, 3.2, -3.3,0,0,1024,1024,1025,1024,310.8,-90,97,3.828,3.833,3.818,3.878,0,0,21.419,73.4,14,Waypoint,
37.2865903,-119.5625534,4675.5941289497,176.509192,0,1.12758861876,23200,2018-04-11 21:45:26,18,0,23.089,4675.5941289497,176.509192,0.3131716,2.32115492992,0,0,-0.671082,311.3, 3.1, -3.3,0,0,1024,1024,1025,1024,310.8,-89.9,97,3.828,3.833,3.818,3.878,0,0,21.419,73.4,14,Waypoint,
37.2865903,-119.5625534,4676.5783809497,177.493444,0,1.12758861876,23300,2018-04-11 21:45:26,18,0,23.089,4676.5783809497,177.493444,0.3131716,2.32115492992,0,0,-0.671082,311.3, 3.1, -3,0,0,1024,1024,1025,1024,310.8,-89.9,97,3.828,3.833,3.818,3.878,0,0,21.419,73.4,14,Waypoint,
37.2865902,-119.5625534,4677.5626329497,178.477696,0,1.09707024508,23400,2018-04-11 21:45:26,18,0,23.089,4677.5626329497,178.477696,0.3131716,2.32115492992,0,0,-0.671082,311.4, 3.1, -2.5,0,0,1024,1024,1025,1024,310.7,-89.9,97,3.828,3.833,3.818,3.878,0,0,21.419,73.4,14,Waypoint,
37.2865902,-119.5625534,4678.5468849497,179.461948,0,1.09707024508,23500,2018-04-11 21:45:27,18,0,23.089,4678.5468849497,179.461948,0.3131716,2.32115492992,0,0,-0.671082,311.5, 3, -2.2,0,0,1024,1024,1025,1024,310.8,-89.9,97,3.828,3.833,3.818,3.878,0,0,21.419,73.4,14,Waypoint,
37.2865901,-119.5625534,4679.5311369497,180.4462,0,1.066929168,23600,2018-04-11 21:45:27,18,0,23.089,4679.5311369497,180.4462,0.3131716,2.32115492992,0,0,-0.671082,311.6, 2.9, -2,0,0,1024,1024,1025,1024,310.8,-90,97,3.828,3.833,3.818,3.878,0,0,21.419,73.4,14,Waypoint,
37.2865901,-119.5625534,4680.5153889497,181.430452,0,1.066929168,23700,2018-04-11 21:45:27,18,0,23.089,4680.5153889497,181.430452,0.3131716,2.32115492992,0,0,-0.671082,311.6, 2.7, -2.1,0,0,1024,1024,1025,1024,310.8,-90,97,3.828,3.833,3.818,3.878,0,0,21.419,73.4,14,Waypoint,
37.2865901,-119.5625533,4681.4996409497,182.414704,0,1.0837762814,23800,2018-04-11 21:45:27,18,0,23.089,4681.4996409497,182.414704,0.3131716,2.32115492992,0,0,-0.671082,311.7, 2.5, -2.6,0,0,1024,1024,1025,1024,310.8,-90,97,3.828,3.833,3.818,3.878,0,0,21.419,73.4,14,Waypoint,
37.2865901,-119.5625533,4682.4838929497,183.398956,0,1.0837762814,23900,2018-04-11 21:45:27,18,0,23.089,4682.4838929497,183.398956,0.3131716,2.32115492992,0,0,-0.671082,311.8, 2.5, -2.9,0,0,1024,1024,1025,1024,310.8,-89.9,97,3.828,3.833,3.818,3.878,0,0,21.419,73.4,14,Waypoint,
37.2865901,-119.5625533,4683.4681449497,184.383208,0,1.0837762814,24000,2018-04-11 21:45:27,18,0,23.063,4683.4681449497,184.383208,0.3131716,2.32115492992,0,0,-0.671082,311.8, 2.7, -2.7,0,0,1024,1024,1024,1024,310.8,-89.9,97,3.809,3.825,3.827,3.882,0,0,21.348,73.4,14,Waypoint,
37.28659,-119.5625533,4684.4523969497,185.36746,0,1.05451775028,24100,2018-04-11 21:45:27,18,0,23.063,4684.4523969497,185.36746,0.3131716,2.32115492992,0,0,-0.671082,311.8, 3, -2.3,0,0,1024,1024,1024,1024,310.8,-89.9,97,3.809,3.825,3.827,3.882,0,0,21.348,73.4,14,Waypoint,
37.28659,-119.5625533,4685.4366489497,186.351712,0,1.05451775028,24200,2018-04-11 21:45:27,18,0,23.063,4685.4366489497,186.351712,0.3131716,2.32115492992,0,0,-0.671082,311.8, 3, -1.9,0,0,1024,1024,1025,1024,310.8,-89.9,97,3.809,3.825,3.827,3.882,0,0,21.348,73.4,14,Waypoint,
37.2865899,-119.5625534,4686.4209009497,187.335964,0,1.0079068564,24300,2018-04-11 21:45:27,18,0,23.063,4686.4209009497,187.335964,0.3131716,2.32115492992,0,0,-0.671082,311.8, 3.1, -1.6,0,0,1024,1024,1025,1024,310.8,-89.9,97,3.809,3.825,3.827,3.882,0,0,21.348,73.4,14,Waypoint,
37.2865899,-119.5625535,4689.3736569497,190.28872,0,0.99062011044,24600,2018-04-11 21:45:28,18,0,23.063,4689.3736569497,190.28872,0.3131716,2.32115492992,0,0,-0.671082,311.6, 3.1, -2.2,0,0,1024,1024,1025,1024,310.7,-89.9,97,3.809,3.825,3.827,3.882,0,0,21.348,73.4,14,Waypoint,
37.2865899,-119.5625535,4690.3579089497,191.272972,0,0.99062011044,24710,2018-04-11 21:45:28,18,0,23.063,4690.3579089497,191.272972,0.3131716,2.32115492992,0,0,-0.671082,311.5, 3.5, -2.4,0,0,1024,1024,1025,1024,310.7,-89.9,97,3.809,3.825,3.827,3.882,0,0,21.348,73.4,14,Waypoint,
37.28659,-119.5625535,4691.3421609497,192.257224,0,1.0204068568,24800,2018-04-11 21:45:28,18,0,23.063,4691.3421609497,192.257224,0.3131716,2.32115492992,0,0,-0.671082,311.4, 3.6, -2.6,0,0,1024,1024,1024,1024,310.8,-89.9,97,3.809,3.825,3.827,3.882,0,0,21.348,73.4,14,Waypoint,
37.28659,-119.5625534,4692.3264129497,193.241476,0,1.03719491508,24910,2018-04-11 21:45:28,18,0,23.063,4692.3264129497,193.241476,0.3131716,2.32115492992,0,0,-0.671082,311.3, 3.4, -3,0,0,1024,1024,1024,1024,310.8,-89.9,97,3.809,3.825,3.827,3.882,0,0,21.348,73.4,14,Waypoint,
37.2865901,-119.5625534,4694.2949169497,195.20998,0,1.066929168,25000,2018-04-11 21:45:28,18,0,23.145,4694.2949169497,195.20998,0.3131716,2.32115492992,0,0,-0.671082,311.1, 3.4, -3.2,0,0,1024,1024,1025,1024,310.8,-89.9,97,3.833,3.844,3.833,3.896,0,0,19.993,75.2,14,Waypoint,
37.2865901,-119.5625534,4695.2791689497,196.194232,0,1.066929168,25200,2018-04-11 21:45:28,18,0,23.145,4695.2791689497,196.194232,0.3131716,2.32115492992,0,0,-0.671082,311, 3.6, -3.1,0,0,1024,1024,1025,1024,310.8,-89.9,97,3.833,3.844,3.833,3.896,0,0,19.993,75.2,14,Waypoint,
37.2865901,-119.5625533,4696.2634209497,197.178484,0,1.0837762814,25300,2018-04-11 21:45:28,18,0,23.145,4696.2634209497,197.178484,0.3131716,2.32115492992,0,0,-0.671082,311, 3.5, -3.3,0,0,1024,1024,1025,1024,310.8,-89.9,97,3.833,3.844,3.833,3.896,0,0,19.993,75.2,14,Waypoint,
37.2865902,-119.5625533,4697.2476729497,198.162736,0,1.11346132172,25400,2018-04-11 21:45:28,18,0,23.145,4697.2476729497,198.162736,0.3131716,2.32115492992,0,0,-0.671082,311.1, 3.2, -3.5,0,0,1024,1024,1025,1024,310.8,-89.9,97,3.833,3.844,3.833,3.896,0,0,19.993,75.2,14,Waypoint,
37.2865902,-119.5625532,4698.2319249497,199.146988,0,1.13036092856,25500,2018-04-11 21:45:29,18,0,23.145,4698.2319249497,199.146988,0.3131716,2.32115492992,0,0,-0.671082,311.3, 3.1, -3.5,0,0,1024,1024,1025,1024,310.8,-89.9,97,3.833,3.844,3.833,3.896,0,0,19.993,75.2,14,Waypoint,
37.2865902,-119.5625532,4699.2161769497,200.13124,0,1.13036092856,25600,2018-04-11 21:45:29,18,0,23.145,4699.2161769497,200.13124,0.3131716,2.32115492992,0,0,-0.671082,311.5, 2.9, -3.3,0,0,1024,1024,1025,1024,310.8,-89.9,97,3.833,3.844,3.833,3.896,0,0,19.993,75.2,14,Waypoint,
37.2865902,-119.5625532,4700.2004289497,201.115492,0,1.13036092856,25700,2018-04-11 21:45:29,18,0,23.145,4700.2004289497,201.115492,0.3131716,2.32115492992,0,0,-0.671082,311.6, 2.7, -3.1,0,0,1024,1024,1025,1024,310.8,-89.9,97,3.833,3.844,3.833,3.896,0,0,19.993,75.2,14,Waypoint,
37.2865902,-119.5625531,4700.8565969497,201.77166,0,1.14774609972,25800,2018-04-11 21:45:29,18,0,23.145,4700.8565969497,201.77166,0.3131716,2.32115492992,0,0,-0.671082,311.6, 2.6, -3.1,0,0,1024,1024,1025,1024,310.8,-90,97,3.833,3.844,3.833,3.896,0,0,19.993,75.2,14,Waypoint,
37.2865902,-119.5625531,4702.8251009497,203.740164,0,1.14774609972,26000,2018-04-11 21:45:29,18,0,23.132,4702.8251009497,203.740164,0.3131716,2.32115492992,0,0,-0.671082,311.6, 2.8, -2.8,0,0,1024,1024,1025,1024,310.7,-89.9,97,3.827,3.848,3.832,3.898,0,0,20.301,75.2,14,Waypoint,
37.2865902,-119.562553,4703.8093529497,204.724416,0,1.16559386932,26100,2018-04-11 21:45:29,18,0,23.132,4703.8093529497,204.724416,0.3131716,2.32115492992,0,0,-0.671082,311.6, 2.8, -3.2,0,0,1024,1024,1025,1024,310.8,-90,97,3.827,3.848,3.832,3.898,0,0,20.301,75.2,14,Waypoint,
37.2865902,-119.562553,4704.7936049497,205.708668,0,1.16559386932,26200,2018-04-11 21:45:29,18,0,23.132,4704.7936049497,205.708668,0.3131716,2.32115492992,0,0,-0.671082,311.5, 2.7, -3.5,0,0,1024,1024,1025,1024,310.8,-90,97,3.827,3.848,3.832,3.898,0,0,20.301,75.2,14,Waypoint,
37.2865902,-119.5625529,4705.7778569497,206.69292,0,1.18388455232,26300,2018-04-11 21:45:29,18,0,23.132,4705.7778569497,206.69292,0.3131716,2.32115492992,0,0,-0.671082,311.5, 2.5, -3.3,0,0,1024,1024,1025,1024,310.8,-89.9,97,3.827,3.848,3.832,3.898,0,0,20.301,75.2,14,Waypoint,
37.2865902,-119.5625528,4706.7621089497,207.677172,0,1.20259846368,26400,2018-04-11 21:45:29,18,0,23.132,4706.7621089497,207.677172,0.3131716,2.32115492992,0,0,-0.671082,311.4, 2.5, -3.2,0,0,1024,1024,1025,1024,310.8,-89.9,97,3.827,3.848,3.832,3.898,0,0,20.301,75.2,14,Waypoint,
37.2865902,-119.5625528,4707.7463609497,208.661424,0,1.20259846368,26500,2018-04-11 21:45:30,18,0,23.132,4707.7463609497,208.661424,0.3131716,2.32115492992,0,0,-0.671082,311.5, 2.5, -3,0,0,1024,1024,1025,1024,310.8,-89.9,97,3.827,3.848,3.832,3.898,0,0,20.301,75.2,14,Waypoint,
37.2865902,-119.5625527,4709.7148649497,210.629928,0,1.22171591836,26700,2018-04-11 21:45:30,18,0,23.132,4709.7148649497,210.629928,0.3131716,2.32115492992,0,0,-0.671082,311.6, 2.6, -3.4,0,0,1024,1024,1025,1024,310.8,-89.9,97,3.827,3.848,3.832,3.898,0,0,20.301,75.2,14,Waypoint,
37.2865903,-119.5625526,4710.6991169497,211.61418,0,1.26826775712,26800,2018-04-11 21:45:30,18,0,23.132,4710.6991169497,211.61418,0.3131716,2.32115492992,0,0,-0.671082,311.7, 2.5, -3.6,0,0,1024,1024,1025,1024,310.8,-89.9,97,3.827,3.848,3.832,3.898,0,0,20.301,75.2,14,Waypoint,
37.2865903,-119.5625525,4712.6676209497,213.582684,0,1.28771985748,26900,2018-04-11 21:45:30,18,0,23.132,4712.6676209497,213.582684,0.3131716,2.32115492992,0,0,-0.671082,311.6, 2.6, -3.8,0,0,1024,1024,1025,1024,310.8,-89.9,97,3.827,3.848,3.832,3.898,0,0,20.301,75.2,14,Waypoint,
37.2865903,-119.5625525,4713.6518729497,214.566936,0,1.28771985748,27000,2018-04-11 21:45:30,18,0,23.086,4713.6518729497,214.566936,0.3131716,2.32115492992,0,0,-0.671082,311.4, 2.8, -3.5,0,0,1024,1024,1025,1024,310.8,-89.9,96,3.827,3.833,3.818,3.889,0,0,20.22,75.2,14,Waypoint,
37.2865904,-119.5625525,4714.6361249497,215.551188,0,1.31482615756,27100,2018-04-11 21:45:30,18,0,23.086,4714.6361249497,215.551188,0.3131716,2.32115492992,0,0,-0.671082,311.3, 3.2, -3.6,0,0,1024,1024,1025,1024,310.8,-89.9,96,3.827,3.833,3.818,3.889,0,0,20.22,75.2,14,Waypoint,
37.2865904,-119.5625524,4715.6203769497,216.53544,0,1.33422904532,27200,2018-04-11 21:45:30,18,0,23.086,4715.6203769497,216.53544,0.3131716,2.32115492992,0,0,-0.671082,311.3, 3.3, -3.8,0,0,1024,1024,1025,1024,310.8,-89.9,96,3.827,3.833,3.818,3.889,0,0,20.22,75.2,14,Waypoint,
37.2865904,-119.5625524,4716.6046289497,217.519692,0,1.33422904532,27320,2018-04-11 21:45:30,18,0,23.086,4716.6046289497,217.519692,0.3131716,2.32115492992,0,0,-0.671082,311.3, 3.3, -4.1,0,0,1024,1024,1025,1024,310.8,-89.9,96,3.827,3.833,3.818,3.889,0,0,20.22,75.2,14,Waypoint,
37.2865904,-119.5625524,4717.5888809497,218.503944,0,1.33422904532,27410,2018-04-11 21:45:30,18,0,23.086,4717.5888809497,218.503944,0.3131716,2.32115492992,0,0,-0.671082,311.4, 3.3, -4.2,0,0,1024,1024,1025,1024,310.8,-89.9,96,3.827,3.833,3.818,3.889,0,0,20.22,75.2,14,Waypoint,
37.2865904,-119.5625524,4719.5573849497,220.472448,0,1.33422904532,27600,2018-04-11 21:45:31,18,0,23.086,4719.5573849497,220.472448,0.3131716,2.32115492992,0,0,-0.671082,311.5, 3.1, -3.7,0,0,1024,1024,1025,1024,310.8,-89.9,96,3.827,3.833,3.818,3.889,0,0,20.22,75.2,14,Waypoint,
37.2865904,-119.5625524,4720.5416369497,221.4567,0,1.33422904532,27800,2018-04-11 21:45:31,18,0,23.086,4720.5416369497,221.4567,0.3131716,2.32115492992,0,0,-0.671082,311.4, 2.9, -3.8,0,0,1024,1024,1025,1024,310.8,-90,96,3.827,3.833,3.818,3.889,0,0,20.22,75.2,14,Waypoint,
37.2865904,-119.5625523,4721.5258889497,222.440952,0,1.35397642128,27900,2018-04-11 21:45:31,18,0,23.086,4721.5258889497,222.440952,0.3131716,2.32115492992,0,0,-0.671082,311.5, 2.8, -3.8,0,0,1024,1024,1025,1024,310.8,-90,96,3.827,3.833,3.818,3.889,0,0,20.22,75.2,14,Waypoint,
37.2865903,-119.5625523,4722.5101409497,223.425204,0,1.32766736532,28000,2018-04-11 21:45:31,18,0,23.054,4722.5101409497,223.425204,0.3131716,2.32115492992,0,0,-0.671082,311.6, 2.9, -3.5,0,0,1024,1024,1025,1024,310.8,-89.9,96,3.827,3.833,3.818,3.889,0,0,21.05,75.2,14,Waypoint,
37.2865902,-119.5625523,4724.4786449497,225.393708,0,1.30185043536,28200,2018-04-11 21:45:31,18,0,23.054,4724.4786449497,225.393708,0.3131716,2.32115492992,0,0,-0.671082,311.7, 2.7, -3.2,0,0,1024,1024,1025,1024,310.8,-89.9,96,3.827,3.833,3.818,3.889,0,0,21.05,75.2,14,Waypoint,
37.2865902,-119.5625524,4725.4628969497,226.37796,0,1.2812992536,28300,2018-04-11 21:45:31,18,0,23.054,4725.4628969497,226.37796,0.3131716,2.32115492992,0,0,-0.671082,311.6, 2.4, -3.1,0,0,1024,1024,1025,1024,310.8,-89.9,96,3.827,3.833,3.818,3.889,0,0,21.05,75.2,14,Waypoint,
