latitude,longitude,altitude(feet),ascent(feet),speed(mph),distance(feet),time(millisecond),datetime(utc),satellites,gpslevel,voltage(v),max_altitude(feet),max_ascent(feet),max_speed(mph),max_distance(feet), xSpeed(mph), ySpeed(mph), zSpeed(mph), compass_heading(degrees), pitch(degrees), roll(degrees),isPhoto,isVideo,rc_elevator,rc_aileron,rc_throttle,rc_rudder,gimbal_heading(degrees),gimbal_pitch(degrees),battery_percent,voltageCell1,voltageCell2,voltageCell3,voltageCell4,voltageCell5,voltageCell6,current(A),battery_temperature(f),flycStateRaw,flycState,message
37.2865825,-119.5625672,4499.1954730425,0,0,0,3000,2018-04-11 22:01:10,17,0,25.575,4499.1954730425,0,0,0,0,0,0,311.9, -0.4, -0.7,1,0,1024,1024,1026,1024,309.2,-89.9,100,4.268,4.263,4.224,4.275,0,0,3.879,80.6,11,AutoTakeoff,DJI_0413.jpg Starting Mission from Lat/Long: 37.28658/-119.56257 Camera: Zenmuse X3 - Overlap: 90/90 - Active Connection: Yes
37.2865826,-119.5625672,4499.1954730425,0,0,0.036484909304,3100,2018-04-11 22:01:10,17,0,25.575,4499.1954730425,0,0,0.036484909304,0,0,0,312.1, -0.2, 0,0,0,1024,1024,1026,1024,309.2,-89.9,100,4.268,4.263,4.224,4.275,0,0,3.879,80.6,11,AutoTakeoff,
37.2865826,-119.5625673,4499.1954730425,0,0,0.046623689156,3200,2018-04-11 22:01:10,17,0,25.575,4499.1954730425,0,0,0.046623689156,0,0,0,312.2, 0.1, 0.4,0,0,1024,1024,1026,1024,309.3,-89.9,100,4.268,4.263,4.224,4.275,0,0,3.879,80.6,11,AutoTakeoff,
37.2865826,-119.5625673,4499.1954730425,0,0,0.046623689156,3300,2018-04-11 22:01:10,17,0,25.575,4499.1954730425,0,0,0.046623689156,0,0,0,312.1, 0.5, 0.2,0,0,1024,1024,1026,1024,309.4,-89.9,100,4.268,4.263,4.224,4.275,0,0,3.879,80.6,11,AutoTakeoff,
37.2865827,-119.5625673,4499.1954730425,0,0,0.07853182666,3400,2018-04-11 22:01:10,17,0,25.575,4499.1954730425,0,0,0.07853182666,0,0,0,312.1, 0.5, -0.1,0,0,1024,1024,1026,1024,309.4,-89.9,100,4.268,4.263,4.224,4.275,0,0,3.879,80.6,11,AutoTakeoff,
37.2865828,-119.5625674,4499.1954730425,0,0,0.123898626012,3500,2018-04-11 22:01:10,16,0,25.575,4499.1954730425,0,0,0.123898626012,0,0,0,312, 0.4, -0.5,0,0,1024,1024,1026,1024,309.5,-89.9,100,4.268,4.263,4.224,4.275,0,0,3.879,80.6,11,AutoTakeoff,
37.2865828,-119.5625674,4499.5235570425,0.328084,0,0.123898626012,3600,2018-04-11 22:01:11,16,0,25.575,4499.5235570425,0.328084,0,0.123898626012,0,0,0,311.9, 0.8, -0.5,0,0,1024,1024,1026,1024,309.5,-89.9,100,4.268,4.263,4.224,4.275,0,0,3.879,80.6,11,AutoTakeoff,
37.2865829,-119.5625674,4499.5235570425,0.328084,0,0.157063325236,3700,2018-04-11 22:01:11,16,0,25.575,4499.5235570425,0.328084,0,0.157063325236,0,0,0,311.9, 0.9, -0.8,0,0,1024,1024,1026,1024,309.5,-89.9,100,4.268,4.263,4.224,4.275,0,0,3.879,80.6,11,AutoTakeoff,
37.286583,-119.5625674,4499.8516410425,0.656168,0,0.191439966756,3800,2018-04-11 22:01:11,16,0,25.575,4499.8516410425,0.656168,0,0.191439966756,0,0,0,311.9, 1.1, -1.2,0,0,1024,1024,1026,1024,309.6,-89.9,100,4.268,4.263,4.224,4.275,0,0,3.879,80.6,11,AutoTakeoff,
37.2865831,-119.5625675,4499.8516410425,0.656168,0,0.235595151896,3900,2018-04-11 22:01:11,15,0,25.575,4499.8516410425,0.656168,0,0.235595151896,0,0,0,312, 1, -1.1,0,0,1024,1024,1025,1024,309.6,-89.9,100,4.268,4.263,4.224,4.275,0,0,3.879,80.6,11,AutoTakeoff,
37.2865831,-119.5625676,4500.1797250425,0.984252,0,0.247797252024,4000,2018-04-11 22:01:11,15,0,25.344,4500.1797250425,0.984252,0,0.247797252024,0,0,0,312, 1, -0.9,0,0,1024,1024,1026,1024,309.7,-89.9,100,4.208,4.219,4.231,4.183,0,0,6.447,80.6,11,AutoTakeoff,
37.2865831,-119.5625676,4500.5078090425,1.312336,0,0.247797252024,4110,2018-04-11 22:01:11,16,0,25.344,4500.5078090425,1.312336,0,0.247797252024,0,0,-0.223694,311.8, 0.9, -0.7,0,0,1024,1024,1026,1024,309.7,-89.9,100,4.208,4.219,4.231,4.183,0,0,6.447,80.6,11,AutoTakeoff,
37.2865833,-119.5625676,4500.5078090425,1.312336,0,0.314126650472,4300,2018-04-11 22:01:11,16,0,25.344,4500.5078090425,1.312336,0,0.314126650472,0,0,-0.223694,311.6, 0.7, -0.9,0,0,1024,1024,1026,1024,309.8,-89.9,100,4.208,4.219,4.231,4.183,0,0,6.447,80.6,11,AutoTakeoff,
37.2865835,-119.5625674,4501.1639770425,1.968504,0,0.3694389882,4500,2018-04-11 22:01:11,16,0,25.344,4501.1639770425,1.968504,0,0.3694389882,0,0,-0.223694,311.3, 0.5, -1.2,0,0,1024,1024,1026,1024,309.8,-89.9,100,4.208,4.219,4.231,4.183,0,0,6.447,80.6,11,AutoTakeoff,
37.2865836,-119.5625674,4501.1639770425,1.968504,0.223694,0.405511824,4600,2018-04-11 22:01:12,15,0,25.344,4501.1639770425,1.968504,0.223694,0.405511824,0,0,-0.223694,311.2, 0.6, -1.5,0,0,1024,1024,1026,1024,309.9,-89.9,100,4.208,4.219,4.231,4.183,0,0,6.447,80.6,11,AutoTakeoff,
37.2865837,-119.5625674,4501.4920610425,2.296588,0,0.4416502766,4700,2018-04-11 22:01:12,15,0,25.344,4501.4920610425,2.296588,0.223694,0.4416502766,0,0,-0.223694,311.2, 0.9, -1.6,0,0,1024,1024,1026,1024,309.9,-89.9,100,4.208,4.219,4.231,4.183,0,0,6.447,80.6,11,AutoTakeoff,
37.2865839,-119.5625673,4501.8201450425,2.624672,0,0.5116141896,4800,2018-04-11 22:01:12,15,0,25.344,4501.8201450425,2.624672,0.223694,0.5116141896,0,0,-0.223694,311.3, 1.3, -1.9,0,0,1024,1024,1026,1024,309.9,-89.9,100,4.208,4.219,4.231,4.183,0,0,6.447,80.6,11,AutoTakeoff,
37.2865839,-119.5625673,4502.1482290425,2.952756,0,0.5116141896,5000,2018-04-11 22:01:12,14,0,24.643,4502.1482290425,2.952756,0.223694,0.5116141896,0,0,-0.223694,311.4, 1.3, -2.1,0,0,1024,1024,1026,1024,310,-89.9,100,4.09,4.117,4.099,4.084,0,0,15.951,80.6,14,Waypoint,
37.286584,-119.5625672,4502.4763130425,3.28084,0,0.54727363956,5100,2018-04-11 22:01:12,14,0,24.643,4502.4763130425,3.28084,0.223694,0.54727363956,0,0,0,311.4, 0.6, -1.5,0,0,1024,1024,1026,1024,310,-89.9,100,4.09,4.117,4.099,4.084,0,0,15.951,80.6,14,Waypoint,
37.2865839,-119.5625672,4502.8043970425,3.608924,0,0.51079069876,5200,2018-04-11 22:01:12,14,0,24.643,4502.8043970425,3.608924,0.223694,0.54727363956,0,0,0,311.4, 0.1, -1.3,0,0,1024,1024,1026,1024,310,-90,100,4.09,4.117,4.099,4.084,0,0,15.951,80.6,14,Waypoint,
37.286584,-119.5625672,4502.8043970425,3.608924,0,0.54727363956,5300,2018-04-11 22:01:12,14,0,24.643,4502.8043970425,3.608924,0.223694,0.54727363956,0,0,0,311.4, 0.2, -1.2,0,0,1024,1024,1026,1024,310,-90,100,4.09,4.117,4.099,4.084,0,0,15.951,80.6,14,Waypoint,
37.2865843,-119.5625672,4503.1324810425,3.937008,0.223694,0.65672902364,5400,2018-04-11 22:01:12,14,0,24.643,4503.1324810425,3.937008,0.223694,0.65672902364,0,0,0,311.4, 0.7, -1.4,0,0,1024,1024,1026,1024,310.1,-89.9,100,4.09,4.117,4.099,4.084,0,0,15.951,80.6,14,Waypoint,
37.2865844,-119.5625672,4503.4605650425,4.265092,0.223694,0.69321524528,5500,2018-04-11 22:01:12,16,0,24.643,4503.4605650425,4.265092,0.223694,0.69321524528,0,0,-0.223694,311.4, 1.1, -1.5,0,0,1024,1024,1026,1024,310.1,-89.9,100,4.09,4.117,4.099,4.084,0,0,15.951,80.6,14,Waypoint,
37.2865845,-119.5625672,4503.7886490425,4.593176,0.223694,0.72969818608,5600,2018-04-11 22:01:13,16,0,24.643,4503.7886490425,4.593176,0.223694,0.72969818608,0,0,-0.223694,311.3, 1.4, -1.4,0,0,1024,1024,1026,1024,310.1,-89.9,100,4.09,4.117,4.099,4.084,0,0,15.951,80.6,14,Waypoint,
37.2865846,-119.5625672,4504.1167330425,4.92126,0,0.76618440772,5700,2018-04-11 22:01:13,15,0,24.643,4504.1167330425,4.92126,0.223694,0.76618440772,0,0,-0.223694,311.2, 1.4, -1.6,0,0,1024,1024,1026,1024,310.1,-89.9,100,4.09,4.117,4.099,4.084,0,0,15.951,80.6,14,Waypoint,
37.2865847,-119.5625672,4504.7729010425,5.577428,0,0.80266734852,5800,2018-04-11 22:01:13,15,0,24.643,4504.7729010425,5.577428,0.223694,0.80266734852,0,0,-0.223694,311, 1.2, -1.9,0,0,1024,1024,1026,1024,310.1,-89.9,100,4.09,4.117,4.099,4.084,0,0,15.951,80.6,14,Waypoint,
37.2865848,-119.5625672,4505.1009850425,5.905512,0,0.83915357016,5900,2018-04-11 22:01:13,15,0,24.643,4505.1009850425,5.905512,0.223694,0.83915357016,0,0,-0.223694,310.7, 1.2, -2,0,0,1024,1024,1026,1024,310.1,-89.9,100,4.09,4.117,4.099,4.084,0,0,15.951,80.6,14,Waypoint,
37.2865848,-119.5625672,4505.7571530425,6.56168,0,0.83915357016,6000,2018-04-11 22:01:13,15,0,24.508,4505.7571530425,6.56168,0.223694,0.83915357016,0,0,-0.223694,310.5, 1.2, -1.8,0,0,1024,1024,1026,1024,310.1,-89.9,100,4.059,4.09,4.09,4.078,0,0,16.116,80.6,14,Waypoint,
37.2865849,-119.5625672,4506.4133210425,7.217848,0,0.8756397918,6100,2018-04-11 22:01:13,16,0,24.508,4506.4133210425,7.217848,0.223694,0.8756397918,0,0,-0.447388,310.4, 1.2, -1.7,0,0,1024,1024,1026,1024,310.1,-89.9,100,4.059,4.09,4.09,4.078,0,0,16.116,80.6,14,Waypoint,
37.286585,-119.5625672,4507.7256570425,8.530184,0,0.9121227326,6300,2018-04-11 22:01:13,16,0,24.508,4507.7256570425,8.530184,0.223694,0.9121227326,0,0,-0.447388,310.5, 0.9, -1.7,0,0,1024,1024,1026,1024,310.1,-89.9,100,4.059,4.09,4.09,4.078,0,0,16.116,80.6,14,Waypoint,
37.286585,-119.5625673,4508.7099090425,9.514436,0,0.91258533104,6400,2018-04-11 22:01:13,16,0,24.508,4508.7099090425,9.514436,0.223694,0.91258533104,0,0,-0.447388,310.6, 1, -1.7,0,0,1024,1024,1026,1024,310.1,-89.9,100,4.059,4.09,4.09,4.078,0,0,16.116,80.6,14,Waypoint,
37.286585,-119.5625673,4509.3660770425,10.170604,0,0.91258533104,6500,2018-04-11 22:01:13,16,0,24.508,4509.3660770425,10.170604,0.223694,0.91258533104,0,0,-0.447388,310.7, 1.1, -1.4,0,0,1024,1024,1026,1024,310.1,-89.9,100,4.059,4.09,4.09,4.078,0,0,16.116,80.6,14,Waypoint,
37.2865851,-119.5625672,4511.3345810425,12.139108,0,0.94860895424,6710,2018-04-11 22:01:14,17,0,24.508,4511.3345810425,12.139108,0.223694,0.94860895424,0,0,-0.671082,310.5, 1, -1.7,0,0,1024,1024,1026,1024,310.1,-89.9,100,4.059,4.09,4.09,4.078,0,0,16.116,80.6,14,Waypoint,
37.2865851,-119.5625672,4512.3188330425,13.12336,0,0.94860895424,6810,2018-04-11 22:01:14,17,0,24.508,4512.3188330425,13.12336,0.223694,0.94860895424,0,0,-0.671082,310.4, 1.1, -1.8,0,0,1024,1024,1026,1024,310.1,-89.9,100,4.059,4.09,4.09,4.078,0,0,16.116,80.6,14,Waypoint,
37.2865852,-119.5625672,4513.6311690425,14.435696,0,0.98509189504,6900,2018-04-11 22:01:14,16,0,24.508,4513.6311690425,14.435696,0.223694,0.98509189504,0,0,-0.671082,310.3, 1.1, -1.8,0,0,1024,1024,1026,1024,310.1,-89.9,100,4.059,4.09,4.09,4.078,0,0,16.116,80.6,14,Waypoint,
37.2865852,-119.5625672,4514.6154210425,15.419948,0,0.98509189504,7100,2018-04-11 22:01:14,16,0,24.508,4514.6154210425,15.419948,0.223694,0.98509189504,0,0,-0.671082,310.3, 1.2, -1.7,0,0,1024,1024,1026,1024,310.1,-89.9,100,4.059,4.09,4.09,4.078,0,0,16.116,80.6,14,Waypoint,
37.2865852,-119.5625672,4515.5996730425,16.4042,0,0.98509189504,7200,2018-04-11 22:01:14,16,0,24.508,4515.5996730425,16.4042,0.223694,0.98509189504,0,0,-0.671082,310.3, 1.1, -1.6,0,0,1024,1024,1026,1024,310.1,-89.9,100,4.059,4.09,4.09,4.078,0,0,16.116,80.6,14,Waypoint,
37.2865852,-119.5625671,4516.9120090425,17.716536,0,0.98552168508,7300,2018-04-11 22:01:14,16,0,24.508,4516.9120090425,17.716536,0.223694,0.98552168508,0,0,-0.671082,310.5, 0.9, -1.5,0,0,1024,1024,1026,1024,310.1,-90,100,4.059,4.09,4.09,4.078,0,0,16.116,80.6,14,Waypoint,
37.2865852,-119.5625671,4518.8805130425,19.68504,0,0.98552168508,7400,2018-04-11 22:01:14,17,0,24.508,4518.8805130425,19.68504,0.223694,0.98552168508,0,0,-0.671082,310.7, 0.8, -1.1,0,0,1024,1024,1026,1024,310.1,-89.9,100,4.059,4.09,4.09,4.078,0,0,16.116,80.6,14,Waypoint,
37.2865852,-119.5625672,4520.1928490425,20.997376,0,0.98509189504,7500,2018-04-11 22:01:14,16,0,24.508,4520.1928490425,20.997376,0.223694,0.98552168508,0,0,-0.671082,310.8, 0.8, -1.1,0,0,1024,1024,1026,1024,310.1,-89.9,100,4.059,4.09,4.09,4.078,0,0,16.116,80.6,14,Waypoint,
37.2865852,-119.5625673,4521.5051850425,22.309712,0,0.98552168508,7600,2018-04-11 22:01:15,16,0,24.508,4521.5051850425,22.309712,0.223694,0.98552168508,0,0,-0.671082,310.8, 0.9, -0.9,0,0,1024,1024,1026,1024,310.1,-89.9,100,4.059,4.09,4.09,4.078,0,0,16.116,80.6,14,Waypoint,
37.2865852,-119.5625674,4522.4894370425,23.293964,0,0.98680121268,7700,2018-04-11 22:01:15,18,0,24.508,4522.4894370425,23.293964,0.223694,0.98680121268,0,0,-0.671082,310.8, 1, -0.7,0,0,1024,1024,1026,1024,310.1,-89.9,100,4.059,4.09,4.09,4.078,0,0,16.116,80.6,14,Waypoint,
37.2865853,-119.5625674,4523.4736890425,24.278216,0,1.02322509836,7800,2018-04-11 22:01:15,18,0,24.508,4523.4736890425,24.278216,0.223694,1.02322509836,0,0,-0.671082,310.9, 1.2, -0.5,0,0,1024,1024,1026,1024,310.1,-89.9,100,4.059,4.09,4.09,4.078,0,0,16.116,80.6,14,Waypoint,
37.2865854,-119.5625673,4524.7860250425,25.590552,0,1.05846131996,7900,2018-04-11 22:01:15,18,0,24.508,4524.7860250425,25.590552,0.223694,1.05846131996,0,0,-0.671082,310.9, 1.4, -0.7,0,0,1024,1024,1026,1024,310.1,-89.9,100,4.059,4.09,4.09,4.078,0,0,16.116,80.6,14,Waypoint,
37.2865854,-119.5625672,4525.7702770425,26.574804,0,1.05806433832,8000,2018-04-11 22:01:15,18,0,23.941,4525.7702770425,26.574804,0.223694,1.05846131996,0,0,-0.671082,310.9, 1.4, -1,0,0,1024,1024,1026,1024,310.1,-89.9,100,3.946,3.986,3.994,3.97,0,0,22.831,80.6,14,Waypoint,
37.2865854,-119.5625672,4526.7545290425,27.559056,0,1.05806433832,8100,2018-04-11 22:01:15,17,0,23.941,4526.7545290425,27.559056,0.223694,1.05846131996,0,0,-0.671082,310.8, 1.1, -1.4,0,0,1024,1024,1026,1024,310.1,-89.9,100,3.946,3.986,3.994,3.97,0,0,22.831,80.6,14,Waypoint,
37.2865855,-119.5625672,4528.0668650425,28.871392,0,1.09454727912,8200,2018-04-11 22:01:15,17,0,23.941,4528.0668650425,28.871392,0.223694,1.09454727912,0,0,-0.671082,310.7, 1, -1.6,0,0,1024,1024,1026,1024,310.1,-89.9,100,3.946,3.986,3.994,3.97,0,0,22.831,80.6,14,Waypoint,
37.2865855,-119.5625672,4529.0511170425,29.855644,0,1.09454727912,8300,2018-04-11 22:01:15,16,0,23.941,4529.0511170425,29.855644,0.223694,1.09454727912,0,0,-0.671082,310.6, 1.2, -1.5,0,0,1024,1024,1026,1024,310.1,-89.9,100,3.946,3.986,3.994,3.97,0,0,22.831,80.6,14,Waypoint,
37.2865856,-119.5625673,4530.0353690425,30.839896,0,1.13140423568,8400,2018-04-11 22:01:15,16,0,23.941,4530.0353690425,30.839896,0.223694,1.13140423568,0,0,-0.671082,310.4, 1.3, -1.5,0,0,1024,1024,1026,1024,310.1,-89.9,100,3.946,3.986,3.994,3.97,0,0,22.831,80.6,14,Waypoint,
37.2865856,-119.5625673,4531.0196210425,31.824148,0,1.13140423568,8500,2018-04-11 22:01:15,17,0,23.941,4531.0196210425,31.824148,0.223694,1.13140423568,0,0,-0.671082,310.3, 1.1, -1.2,0,0,1024,1024,1026,1024,310.1,-89.9,100,3.946,3.986,3.994,3.97,0,0,22.831,80.6,14,Waypoint,
37.2865857,-119.5625672,4532.3319570425,33.136484,0,1.1675197224,8600,2018-04-11 22:01:16,17,0,23.941,4532.3319570425,33.136484,0.223694,1.1675197224,0,0,-0.671082,310.1, 0.9, -1.1,0,0,1024,1024,1026,1024,310.1,-89.9,100,3.946,3.986,3.994,3.97,0,0,22.831,80.6,14,Waypoint,
37.2865857,-119.5625671,4533.3162090425,34.120736,0,1.16787733396,8700,2018-04-11 22:01:16,17,0,23.941,4533.3162090425,34.120736,0.223694,1.16787733396,0,0,-0.671082,310.1, 0.9, -1.7,0,0,1024,1024,1026,1024,310.1,-90,100,3.946,3.986,3.994,3.97,0,0,22.831,80.6,14,Waypoint,
37.2865858,-119.5625672,4534.3004610425,35.104988,0,1.2040026632,8800,2018-04-11 22:01:16,17,0,23.941,4534.3004610425,35.104988,0.223694,1.2040026632,0,0,-0.671082,310.2, 1, -1.9,0,0,1024,1024,1026,1024,310.1,-89.9,100,3.946,3.986,3.994,3.97,0,0,22.831,80.6,14,Waypoint,
37.2865859,-119.5625672,4535.2847130425,36.08924,0,1.24048888484,8900,2018-04-11 22:01:16,16,0,23.941,4535.2847130425,36.08924,0.223694,1.24048888484,0,0,-0.671082,310.2, 1.3, -2,0,0,1024,1024,1026,1024,310.1,-89.9,100,3.946,3.986,3.994,3.97,0,0,22.831,80.6,14,Waypoint,
37.286586,-119.5625672,4536.2689650425,37.073492,0,1.27697182564,9000,2018-04-11 22:01:16,16,0,24.088,4536.2689650425,37.073492,0.223694,1.27697182564,0,0,-0.671082,310.2, 2.1, -2.2,0,0,1024,1024,1026,1024,310.1,-89.9,100,3.984,4.03,4.036,4.008,0,0,18.908,80.6,14,Waypoint,
37.2865861,-119.5625672,4537.2532170425,38.057744,0,1.31345804728,9200,2018-04-11 22:01:16,16,0,24.088,4537.2532170425,38.057744,0.223694,1.31345804728,0,0,-0.671082,310, 2.9, -2.2,0,0,1024,1024,1026,1024,310.1,-89.9,100,3.984,4.03,4.036,4.008,0,0,18.908,80.6,14,Waypoint,
37.2865862,-119.5625673,4538.5655530425,39.37008,0,1.35025594872,9300,2018-04-11 22:01:16,16,0,24.088,4538.5655530425,39.37008,0.223694,1.35025594872,0,0,-0.671082,309.8, 3.5, -2,0,0,1024,1024,1026,1024,310.1,-89.9,100,3.984,4.03,4.036,4.008,0,0,18.908,80.6,14,Waypoint,
37.2865864,-119.5625673,4539.5498050425,40.354332,0,1.42320870696,9400,2018-04-11 22:01:16,18,0,24.088,4539.5498050425,40.354332,0.223694,1.42320870696,0,0,-0.671082,309.8, 3.9, -2.8,0,0,1024,1024,1026,1024,310.1,-89.9,100,3.984,4.03,4.036,4.008,0,0,18.908,80.6,14,Waypoint,
37.2865865,-119.5625672,4540.8621410425,41.666668,0,1.45939637216,9500,2018-04-11 22:01:16,18,0,24.088,4540.8621410425,41.666668,0.223694,1.45939637216,0,0,-0.671082,310, 3.6, -3.6,0,0,1024,1024,1026,1024,310.1,-89.9,100,3.984,4.03,4.036,4.008,0,0,18.908,80.6,14,Waypoint,
37.2865867,-119.5625669,4542.8306450425,43.635172,0,1.53483928796,9600,2018-04-11 22:01:17,18,0,24.088,4542.8306450425,43.635172,0.223694,1.53483928796,0,0,-0.671082,310.7, 2.4, -4.2,0,0,1024,1024,1026,1024,310.1,-90,100,3.984,4.03,4.036,4.008,0,0,18.908,80.6,14,Waypoint,
37.2865868,-119.5625668,4543.8148970425,44.619424,0,1.57314309496,9800,2018-04-11 22:01:17,18,0,24.088,4543.8148970425,44.619424,0.223694,1.57314309496,0,0,-0.671082,310.8, 2.2, -4.2,0,0,1024,1024,1026,1024,310.1,-90,100,3.984,4.03,4.036,4.008,0,0,18.908,80.6,14,Waypoint,
37.2865869,-119.5625666,4545.7834010425,46.587928,0,1.61475726952,9900,2018-04-11 22:01:17,17,0,24.088,4545.7834010425,46.587928,0.223694,1.61475726952,0,0,-0.671082,311.1, 1.6, -4.5,0,0,1024,1024,1026,1024,310.1,-90,100,3.984,4.03,4.036,4.008,0,0,18.908,80.6,14,Waypoint,
37.286587,-119.5625666,4546.7676530425,47.57218,0,1.6510335174,10000,2018-04-11 22:01:17,17,0,24.084,4546.7676530425,47.57218,0.223694,1.6510335174,0,0,-0.671082,311.1, 1.6, -4.2,0,0,1024,1024,1026,1024,310.1,-90,98,3.983,4.029,4.016,4.003,0,0,19.292,80.6,14,Waypoint,
37.286587,-119.5625666,4547.7519050425,48.556432,0,1.6510335174,10100,2018-04-11 22:01:17,17,0,24.084,4547.7519050425,48.556432,0.223694,1.6510335174,0,0,-0.671082,311.1, 1.9, -4.3,0,0,1024,1024,1026,1024,310.1,-89.9,98,3.983,4.029,4.016,4.003,0,0,19.292,80.6,14,Waypoint,
37.286587,-119.5625666,4548.7361570425,49.540684,0,1.6510335174,10200,2018-04-11 22:01:17,17,0,24.084,4548.7361570425,49.540684,0.223694,1.6510335174,0,0,-0.671082,310.9, 2.3, -4.1,0,0,1024,1024,1026,1024,310.1,-89.9,98,3.983,4.029,4.016,4.003,0,0,19.292,80.6,14,Waypoint,
37.286587,-119.5625666,4549.7204090425,50.524936,0,1.6510335174,10300,2018-04-11 22:01:17,18,0,24.084,4549.7204090425,50.524936,0.223694,1.6510335174,0,0,-0.671082,310.8, 2.6, -4,0,0,1024,1024,1026,1024,310.1,-89.9,98,3.983,4.029,4.016,4.003,0,0,19.292,80.6,14,Waypoint,
37.286587,-119.5625665,4550.7046610425,51.509188,0,1.6543471658,10400,2018-04-11 22:01:17,18,0,24.084,4550.7046610425,51.509188,0.223694,1.6543471658,0,0,-0.671082,310.6, 2.6, -4.3,0,0,1024,1024,1026,1024,310.1,-89.9,98,3.983,4.029,4.016,4.003,0,0,19.292,80.6,14,Waypoint,
37.286587,-119.5625666,4551.6889130425,52.49344,0,1.6510335174,10500,2018-04-11 22:01:17,18,0,24.084,4551.6889130425,52.49344,0.223694,1.6543471658,0,0,-0.671082,310.4, 2.6, -4.3,0,0,1024,1024,1026,1024,310.1,-89.9,98,3.983,4.029,4.016,4.003,0,0,19.292,80.6,14,Waypoint,
37.286587,-119.5625666,4552.6731650425,53.477692,0,1.6510335174,10600,2018-04-11 22:01:18,18,0,24.084,4552.6731650425,53.477692,0.223694,1.6543471658,0,0,-0.671082,310.3, 2.4, -4.1,0,0,1024,1024,1026,1024,310.1,-89.9,98,3.983,4.029,4.016,4.003,0,0,19.292,80.6,14,Waypoint,
37.286587,-119.5625666,4553.3293330425,54.13386,0,1.6510335174,10710,2018-04-11 22:01:18,18,0,24.084,4553.3293330425,54.13386,0.223694,1.6543471658,0,0,-0.671082,310.4, 2.2, -3.8,0,0,1024,1024,1026,1024,310.1,-89.9,98,3.983,4.029,4.016,4.003,0,0,19.292,80.6,14,Waypoint,
37.286587,-119.5625666,4554.3135850425,55.118112,0,1.6510335174,10800,2018-04-11 22:01:18,18,0,24.084,4554.3135850425,55.118112,0.223694,1.6543471658,0,0,-0.671082,310.4, 2.2, -3.7,0,0,1024,1024,1026,1024,310.1,-89.9,98,3.983,4.029,4.016,4.003,0,0,19.292,80.6,14,Waypoint,
37.2865869,-119.5625666,4555.2978370425,56.102364,0,1.61475726952,10900,2018-04-11 22:01:18,18,0,24.084,4555.2978370425,56.102364,0.223694,1.6543471658,0,0,-0.671082,310.5, 2.1, -3.5,0,0,1024,1024,1026,1024,310.1,-89.9,98,3.983,4.029,4.016,4.003,0,0,19.292,80.6,14,Waypoint,
37.2865869,-119.5625666,4556.2820890425,57.086616,0,1.61475726952,11000,2018-04-11 22:01:18,18,0,24.185,4556.2820890425,57.086616,0.223694,1.6543471658,0,0,-0.671082,310.5, 2, -3.4,0,0,1024,1024,1026,1024,310.1,-90,98,3.979,4.032,4.043,4.033,0,0,17.575,80.6,14,Waypoint,
37.2865868,-119.5625665,4556.9382570425,57.742784,0,1.5819554312,11100,2018-04-11 22:01:18,16,0,24.185,4556.9382570425,57.742784,0.223694,1.6543471658,0,0,-0.671082,310.6, 1.7, -3.8,0,0,1024,1024,1026,1024,310.1,-90,98,3.979,4.032,4.043,4.033,0,0,17.575,80.6,14,Waypoint,
37.2865868,-119.5625664,4557.9225090425,58.727036,0,1.58594493264,11300,2018-04-11 22:01:18,16,0,24.185,4557.9225090425,58.727036,0.223694,1.6543471658,0,0,-0.671082,310.5, 1.2, -4.4,0,0,1024,1024,1026,1024,310.1,-90,98,3.979,4.032,4.043,4.033,0,0,17.575,80.6,14,Waypoint,
37.2865868,-119.5625663,4558.9067610425,59.711288,0.223694,1.59045608764,11400,2018-04-11 22:01:18,18,0,24.185,4558.9067610425,59.711288,0.223694,1.6543471658,0,0,-0.671082,310.5, 0.7, -4.4,0,0,1024,1024,1026,1024,310.1,-90,98,3.979,4.032,4.043,4.033,0,0,17.575,80.6,14,Waypoint,
37.2865867,-119.5625662,4559.8910130425,60.69554,0.223694,1.55961947248,11500,2018-04-11 22:01:18,18,0,24.185,4559.8910130425,60.69554,0.223694,1.6543471658,0,0,-0.671082,310.7, 0.4, -4.2,0,0,1024,1024,1026,1024,310.1,-89.9,98,3.979,4.032,4.043,4.033,0,0,17.575,80.6,14,Waypoint,
37.2865866,-119.5625661,4560.8752650425,61.679792,0.223694,1.52958338228,11600,2018-04-11 22:01:19,18,0,24.185,4560.8752650425,61.679792,0.223694,1.6543471658,0,0,-0.671082,311, 0.5, -3.7,0,0,1024,1024,1025,1024,310.1,-90,98,3.979,4.032,4.043,4.033,0,0,17.575,80.6,14,Waypoint,
37.2865864,-119.5625662,4562.5156850425,63.320212,0.223694,1.45222117508,11800,2018-04-11 22:01:19,18,0,24.185,4562.5156850425,63.320212,0.223694,1.6543471658,0,0,-0.671082,311.2, 0.8, -3,0,0,1024,1024,1026,1024,310.1,-89.9,98,3.979,4.032,4.043,4.033,0,0,17.575,80.6,14,Waypoint,
37.2865862,-119.5625663,4564.4841890425,65.288716,0.223694,1.37499020148,11900,2018-04-11 22:01:19,18,0,24.185,4564.4841890425,65.288716,0.223694,1.6543471658,0,0,-0.671082,311.1, 1, -2.5,0,0,1024,1024,1026,1024,310.1,-89.9,98,3.979,4.032,4.043,4.033,0,0,17.575,80.6,14,Waypoint,
37.2865861,-119.5625663,4565.4684410425,66.272968,0.223694,1.33918639456,12000,2018-04-11 22:01:19,18,0,24.198,4565.4684410425,66.272968,0.223694,1.6543471658,0,0,-0.671082,310.8, 1.2, -2.4,0,0,1024,1024,1026,1024,310.1,-89.9,98,3.996,4.039,4.047,4.02,0,0,17.319,80.6,14,Waypoint,
37.2865861,-119.5625664,4566.4526930425,67.25722,0,1.33382878284,12100,2018-04-11 22:01:19,18,0,24.198,4566.4526930425,67.25722,0.223694,1.6543471658,0,0,-0.671082,310.6, 1.6, -2.3,0,0,1024,1024,1026,1024,310.1,-89.9,98,3.996,4.039,4.047,4.02,0,0,17.319,80.6,14,Waypoint,
37.286586,-119.5625665,4567.4369450425,68.241472,0,1.29303809912,12200,2018-04-11 22:01:19,18,0,24.198,4567.4369450425,68.241472,0.223694,1.6543471658,0,0,-0.671082,310.4, 1.9, -2.4,0,0,1024,1024,1026,1024,310.1,-89.9,98,3.996,4.039,4.047,4.02,0,0,17.319,80.6,14,Waypoint,
37.2865859,-119.5625665,4568.4211970425,69.225724,0,1.2570210376,12300,2018-04-11 22:01:19,18,0,24.198,4568.4211970425,69.225724,0.223694,1.6543471658,0,0,-0.671082,310.2, 2, -2.5,0,0,1024,1024,1026,1024,310.1,-89.9,98,3.996,4.039,4.047,4.02,0,0,17.319,80.6,14,Waypoint,
37.2865859,-119.5625665,4570.3897010425,71.194228,0,1.2570210376,12500,2018-04-11 22:01:19,18,0,24.198,4570.3897010425,71.194228,0.223694,1.6543471658,0,0,-0.671082,310.1, 1.9, -3.7,0,0,1024,1024,1026,1024,310.1,-89.9,98,3.996,4.039,4.047,4.02,0,0,17.319,80.6,14,Waypoint,
37.2865859,-119.5625664,4571.3739530425,72.17848,0,1.26203744196,12600,2018-04-11 22:01:20,18,0,24.198,4571.3739530425,72.17848,0.223694,1.6543471658,0,0,-0.671082,310.2, 1.8, -4,0,0,1024,1024,1026,1024,310.1,-89.9,98,3.996,4.039,4.047,4.02,0,0,17.319,80.6,14,Waypoint,
37.2865858,-119.5625663,4572.3582050425,73.162732,0,1.2320210368,12700,2018-04-11 22:01:20,18,0,24.198,4572.3582050425,73.162732,0.223694,1.6543471658,0,0,-0.671082,310.3, 1.3, -4.2,0,0,1024,1024,1026,1024,310.1,-89.9,98,3.996,4.039,4.047,4.02,0,0,17.319,80.6,14,Waypoint,
37.2865858,-119.5625662,4573.3424570425,74.146984,0,1.2385006958,12800,2018-04-11 22:01:20,18,0,24.198,4573.3424570425,74.146984,0.223694,1.6543471658,0,0,-0.671082,310.5, 0.7, -4.2,0,0,1024,1024,1026,1024,310.1,-90,98,3.996,4.039,4.047,4.02,0,0,17.319,80.6,14,Waypoint,
37.2865858,-119.5625662,4574.3267090425,75.131236,0,1.2385006958,12900,2018-04-11 22:01:20,18,0,24.198,4574.3267090425,75.131236,0.223694,1.6543471658,0,0,-0.671082,310.6, 0.2, -4.4,0,0,1024,1024,1026,1024,310.1,-90,98,3.996,4.039,4.047,4.02,0,0,17.319,80.6,14,Waypoint,
37.2865858,-119.5625661,4575.3109610425,76.115488,0,1.24562339944,13000,2018-04-11 22:01:20,18,0,24.105,4575.3109610425,76.115488,0.223694,1.6543471658,0,0,-0.671082,310.6, 0.4, -4.6,0,0,1024,1024,1026,1024,310.1,-90,98,3.996,4.039,4.047,4.02,0,0,17.305,80.6,14,Waypoint,
37.2865858,-119.5625661,4576.2952130425,77.09974,0,1.24562339944,13100,2018-04-11 22:01:20,18,0,24.105,4576.2952130425,77.09974,0.223694,1.6543471658,0,0,-0.671082,310.6, 1.1, -4.5,0,0,1024,1024,1026,1024,310.1,-89.9,98,3.996,4.039,4.047,4.02,0,0,17.305,80.6,14,Waypoint,
37.2865858,-119.5625661,4577.2794650425,78.083992,0,1.24562339944,13200,2018-04-11 22:01:20,18,0,24.105,4577.2794650425,78.083992,0.223694,1.6543471658,0,0,-0.671082,310.6, 1.6, -4.1,0,0,1024,1024,1026,1024,310.1,-89.9,98,3.996,4.039,4.047,4.02,0,0,17.305,80.6,14,Waypoint,
37.2865858,-119.5625661,4578.2637170425,79.068244,0,1.24562339944,13300,2018-04-11 22:01:20,18,0,24.105,4578.2637170425,79.068244,0.223694,1.6543471658,0,0,-0.671082,310.6, 2.1, -4.3,0,0,1024,1024,1026,1024,310.1,-89.9,98,3.996,4.039,4.047,4.02,0,0,17.305,80.6,14,Waypoint,
37.2865858,-119.5625661,4579.2479690425,80.052496,0,1.24562339944,13400,2018-04-11 22:01:20,18,0,24.105,4579.2479690425,80.052496,0.223694,1.6543471658,0,0,-0.671082,310.5, 2.5, -4.2,0,0,1024,1024,1026,1024,310.1,-89.9,98,3.996,4.039,4.047,4.02,0,0,17.305,80.6,14,Waypoint,
37.2865859,-119.5625661,4580.2322210425,81.036748,0,1.28092523784,13500,2018-04-11 22:01:20,18,0,24.105,4580.2322210425,81.036748,0.223694,1.6543471658,0,0,-0.671082,310.6, 2.6, -3.9,0,0,1024,1024,1026,1024,310.1,-89.9,98,3.996,4.039,4.047,4.02,0,0,17.305,80.6,14,Waypoint,
37.2865859,-119.5625661,4582.5288090425,83.333336,0,1.28092523784,13700,2018-04-11 22:01:21,18,0,24.105,4582.5288090425,83.333336,0.223694,1.6543471658,0,0,-0.671082,310.5, 1.9, -4.5,0,0,1024,1024,1026,1024,310.1,-90,98,3.996,4.039,4.047,4.02,0,0,17.305,80.6,14,Waypoint,
37.2865859,-119.562566,4583.5130610425,84.317588,0,1.288467889,13900,2018-04-11 22:01:21,18,0,24.105,4583.5130610425,84.317588,0.223694,1.6543471658,0,0,-0.671082,310.2, 1.2, -5.2,0,0,1024,1024,1026,1024,310.1,-90,98,3.996,4.039,4.047,4.02,0,0,17.305,80.6,14,Waypoint,
37.2865859,-119.5625657,4585.4815650425,86.286092,0,1.31468508144,14100,2018-04-11 22:01:21,18,0,24.105,4585.4815650425,86.286092,0.223694,1.6543471658,0,0,-0.671082,310.2, 0.6, -5.6,0,0,1024,1024,1026,1024,310.1,-89.9,98,3.996,4.039,4.047,4.02,0,0,17.305,80.6,14,Waypoint,
37.2865859,-119.5625656,4586.4658170425,87.270344,0,1.32458337572,14200,2018-04-11 22:01:21,18,0,24.105,4586.4658170425,87.270344,0.223694,1.6543471658,0,0,-0.671082,310.5, 0.4, -5.3,0,0,1024,1024,1026,1024,310.1,-90,98,3.996,4.039,4.047,4.02,0,0,17.305,80.6,14,Waypoint,
37.2865859,-119.5625655,4587.4500690425,88.254596,0,1.3350394128,14300,2018-04-11 22:01:21,18,0,24.105,4587.4500690425,88.254596,0.223694,1.6543471658,0,0,-0.671082,310.9, 0.4, -5,0,0,1024,1024,1026,1024,310.1,-89.9,98,3.996,4.039,4.047,4.02,0,0,17.305,80.6,14,Waypoint,
37.2865859,-119.5625652,4589.4185730425,90.2231,0.223694,1.3696194664,14400,2018-04-11 22:01:21,18,0,24.105,4589.4185730425,90.2231,0.223694,1.6543471658,0,0,-0.671082,311.4, 0.3, -5.7,0,0,1024,1024,1026,1024,310.1,-90,98,3.996,4.039,4.047,4.02,0,0,17.305,80.6,14,Waypoint,
37.2865859,-119.562565,4590.4028250425,91.207352,0.223694,1.39521986092,14600,2018-04-11 22:01:22,18,0,24.105,4590.4028250425,91.207352,0.223694,1.6543471658,0,0,-0.671082,311.6, -0.4, -6.1,0,0,1024,1024,1026,1024,310.1,-89.9,98,3.996,4.039,4.047,4.02,0,0,17.305,80.6,14,Waypoint,
37.2865858,-119.5625649,4591.3870770425,92.191604,0.223694,1.37672576584,14700,2018-04-11 22:01:22,18,0,24.105,4591.3870770425,92.191604,0.223694,1.6543471658,0,0,-0.671082,311.6, -0.8, -6.3,0,0,1024,1024,1026,1024,310.1,-89.9,98,3.996,4.039,4.047,4.02,0,0,17.305,80.6,14,Waypoint,
37.2865857,-119.5625646,4593.0274970425,93.832024,0,1.39021986076,14800,2018-04-11 22:01:22,18,0,24.105,4593.0274970425,93.832024,0.223694,1.6543471658,0,0,-0.671082,311.5, -1.2, -6,0,0,1024,1024,1026,1024,310.1,-89.9,98,3.996,4.039,4.047,4.02,0,0,17.305,80.6,14,Waypoint,
37.2865857,-119.5625645,4593.6836650425,94.488192,0,1.40619098988,14900,2018-04-11 22:01:22,18,0,24.105,4593.6836650425,94.488192,0.223694,1.6543471658,0,0,-0.671082,311.3, -1.2, -5.8,0,0,1024,1024,1026,1024,310.1,-89.9,98,3.996,4.039,4.047,4.02,0,0,17.305,80.6,14,Waypoint,
37.2865856,-119.5625645,4594.6679170425,95.472444,0,1.37604663196,15000,2018-04-11 22:01:22,18,0,24.051,4594.6679170425,95.472444,0.223694,1.6543471658,0,0,-0.671082,311.1, -1.1, -5.6,0,0,1024,1024,1026,1024,310.1,-89.9,98,3.973,4.012,4.021,4,0,0,17.985,80.6,14,Waypoint,
37.2865856,-119.5625645,4595.3240850425,96.128612,0,1.37604663196,15100,2018-04-11 22:01:22,18,0,24.051,4595.3240850425,96.128612,0.223694,1.6543471658,0,0,-0.671082,310.8, -1, -5.2,0,0,1024,1024,1026,1024,310.1,-89.9,98,3.973,4.012,4.021,4,0,0,17.985,80.6,14,Waypoint,
37.2865855,-119.5625645,4596.3083370425,97.112864,0,1.34622051552,15200,2018-04-11 22:01:22,18,0,24.051,4596.3083370425,97.112864,0.223694,1.6543471658,0,0,-0.671082,310.4, -0.2, -5,0,0,1024,1024,1026,1024,310.1,-89.9,98,3.973,4.012,4.021,4,0,0,17.985,80.6,14,Waypoint,
37.2865855,-119.5625645,4597.2925890425,98.097116,0,1.34622051552,15300,2018-04-11 22:01:22,18,0,24.051,4597.2925890425,98.097116,0.223694,1.6543471658,0,0,-0.671082,310, 0, -4.7,0,0,1024,1024,1026,1024,310.1,-89.9,98,3.973,4.012,4.021,4,0,0,17.985,80.6,14,Waypoint,
37.2865854,-119.5625646,4598.2768410425,99.081368,0,1.29965883424,15400,2018-04-11 22:01:22,18,0,24.051,4598.2768410425,99.081368,0.223694,1.6543471658,0,0,-0.671082,309.8, -0.1, -4.6,0,0,1024,1024,1026,1024,310.1,-89.9,98,3.973,4.012,4.021,4,0,0,17.985,80.6,14,Waypoint,
37.2865854,-119.5625646,4599.2610930425,100.06562,0,1.29965883424,15500,2018-04-11 22:01:22,18,0,24.051,4599.2610930425,100.06562,0.223694,1.6543471658,0,0,-0.671082,309.9, -0.5, -4.7,0,0,1024,1024,1026,1024,310.1,-90,98,3.973,4.012,4.021,4,0,0,17.985,80.6,14,Waypoint,
37.2865854,-119.5625646,4600.2453450425,101.049872,0,1.29965883424,15600,2018-04-11 22:01:23,18,0,24.051,4600.2453450425,101.049872,0.223694,1.6543471658,0,0,-0.671082,310.1, -0.7, -5.2,0,0,1024,1024,1026,1024,310.1,-89.9,98,3.973,4.012,4.021,4,0,0,17.985,80.6,14,Waypoint,
37.2865854,-119.5625646,4601.2295970425,102.034124,0,1.29965883424,15700,2018-04-11 22:01:23,18,0,24.051,4601.2295970425,102.034124,0.223694,1.6543471658,0,0,-0.671082,310.3, -0.6, -5.6,0,0,1024,1024,1026,1024,310.1,-89.9,98,3.973,4.012,4.021,4,0,0,17.985,80.6,14,Waypoint,
37.2865854,-119.5625646,4602.2138490425,103.018376,0,1.29965883424,15800,2018-04-11 22:01:23,18,0,24.051,4602.2138490425,103.018376,0.223694,1.6543471658,0,0,-0.671082,310.7, -0.2, -6,0,0,1024,1024,1026,1024,310.1,-89.9,98,3.973,4.012,4.021,4,0,0,17.985,80.6,14,Waypoint,
37.2865854,-119.5625647,4603.1981010425,104.002628,0,1.28301841376,15900,2018-04-11 22:01:23,18,0,24.051,4603.1981010425,104.002628,0.223694,1.6543471658,0,0,-0.671082,311.1, -0.1, -6.1,0,0,1024,1024,1026,1024,310.1,-89.9,98,3.973,4.012,4.021,4,0,0,17.985,80.6,14,Waypoint,
37.2865854,-119.5625647,4604.1823530425,104.98688,0,1.28301841376,16000,2018-04-11 22:01:23,18,0,24.07,4604.1823530425,104.98688,0.223694,1.6543471658,0,0,-0.671082,311.4, 0, -5.8,0,0,1024,1024,1026,1024,310.1,-89.9,98,3.98,4.013,4.012,3.994,0,0,17.168,80.6,14,Waypoint,
37.2865854,-119.5625648,4605.1666050425,105.971132,0,1.26682746836,16100,2018-04-11 22:01:23,18,0,24.07,4605.1666050425,105.971132,0.223694,1.6543471658,0,0,-0.671082,311.4, 0.2, -5.6,0,0,1024,1024,1026,1024,310.1,-89.9,98,3.98,4.013,4.012,3.994,0,0,17.168,80.6,14,Waypoint,
37.2865855,-119.5625648,4606.1508570425,106.955384,0,1.29745410976,16200,2018-04-11 22:01:23,18,0,24.07,4606.1508570425,106.955384,0.223694,1.6543471658,0,0,-0.671082,311.3, 0.6, -5.5,0,0,1024,1024,1026,1024,310.1,-89.9,98,3.98,4.013,4.012,3.994,0,0,17.168,80.6,14,Waypoint,
37.2865856,-119.5625649,4607.1351090425,107.939636,0,1.3133858688,16400,2018-04-11 22:01:23,18,0,24.07,4607.1351090425,107.939636,0.223694,1.6543471658,0,0,-0.671082,311.1, 0.9, -5.5,0,0,1024,1024,1026,1024,310.1,-89.9,98,3.98,4.013,4.012,3.994,0,0,17.168,80.6,14,Waypoint,
37.2865857,-119.5625649,4608.1193610425,108.923888,0,1.34493442624,16500,2018-04-11 22:01:23,18,0,24.07,4608.1193610425,108.923888,0.223694,1.6543471658,0,0,-0.671082,311, 1.2, -5.8,0,0,1024,1024,1026,1024,310.1,-89.9,98,3.98,4.013,4.012,3.994,0,0,17.168,80.6,14,Waypoint,
37.2865858,-119.562565,4609.1036130425,109.90814,0,1.36288390188,16600,2018-04-11 22:01:24,18,0,24.07,4609.1036130425,109.90814,0.223694,1.6543471658,0,0,-0.671082,310.9, 1.7, -6.2,0,0,1024,1024,1026,1024,310.1,-89.9,98,3.98,4.013,4.012,3.994,0,0,17.168,80.6,14,Waypoint,
37.2865859,-119.562565,4610.0878650425,110.892392,0,1.39521986092,16700,2018-04-11 22:01:24,18,0,24.07,4610.0878650425,110.892392,0.223694,1.6543471658,0,0,-0.671082,310.8, 2, -6.4,0,0,1024,1024,1026,1024,310.1,-89.9,98,3.98,4.013,4.012,3.994,0,0,17.168,80.6,14,Waypoint,
37.286586,-119.562565,4611.0721170425,111.876644,0,1.4277559512,16800,2018-04-11 22:01:24,18,0,24.07,4611.0721170425,111.876644,0.223694,1.6543471658,0,0,-0.671082,310.8, 2, -6.7,0,0,1024,1024,1026,1024,310.1,-89.9,98,3.98,4.013,4.012,3.994,0,0,17.168,80.6,14,Waypoint,
37.2865863,-119.562565,4613.0406210425,113.845148,0,1.52643705672,16900,2018-04-11 22:01:24,18,0,24.07,4613.0406210425,113.845148,0.223694,1.6543471658,0,0,-0.671082,310.5, 1.6, -7,0,0,1024,1024,1026,1024,310.1,-89.9,98,3.98,4.013,4.012,3.994,0,0,17.168,80.6,14,Waypoint,
37.2865864,-119.5625649,4614.3529570425,115.157484,0,1.57175858048,17000,2018-04-11 22:01:24,18,0,23.918,4614.3529570425,115.157484,0.223694,1.6543471658,0,0,-0.671082,310.6, 1.3, -7.2,0,0,1024,1024,1026,1024,310.1,-89.9,98,3.948,3.985,3.994,3.979,0,0,20.065,80.6,14,Waypoint,
37.2865864,-119.5625649,4615.3372090425,116.141736,0,1.57175858048,17100,2018-04-11 22:01:24,18,0,23.918,4615.3372090425,116.141736,0.223694,1.6543471658,0,0,-0.671082,310.5, 1.2, -7.4,0,0,1024,1024,1026,1024,310.1,-89.9,98,3.948,3.985,3.994,3.979,0,0,20.065,80.6,14,Waypoint,
37.2865865,-119.5625649,4616.3214610425,117.125988,0,1.60486553692,17200,2018-04-11 22:01:24,18,0,23.918,4616.3214610425,117.125988,0.223694,1.6543471658,0,0,-0.671082,310.5, 1.5, -7.3,0,0,1024,1024,1026,1024,310.1,-89.9,98,3.948,3.985,3.994,3.979,0,0,20.065,80.6,14,Waypoint,
37.2865866,-119.562565,4617.3057130425,118.11024,0,1.62649611504,17300,2018-04-11 22:01:24,18,0,23.918,4617.3057130425,118.11024,0.223694,1.6543471658,0,0,-0.671082,310.5, 1.6, -7,0,0,1024,1024,1026,1024,310.1,-89.9,98,3.948,3.985,3.994,3.979,0,0,20.065,80.6,14,Waypoint,
37.2865866,-119.562565,4618.2899650425,119.094492,0,1.62649611504,17400,2018-04-11 22:01:24,18,0,23.918,4618.2899650425,119.094492,0.223694,1.6543471658,0,0,-0.671082,310.4, 1.6, -6.7,0,0,1024,1024,1026,1024,310.1,-89.9,98,3.948,3.985,3.994,3.979,0,0,20.065,80.6,14,Waypoint,
37.2865867,-119.562565,4619.2742170425,120.078744,0,1.66011488252,17500,2018-04-11 22:01:24,18,0,23.918,4619.2742170425,120.078744,0.223694,1.66011488252,0,0,-0.671082,310.4, 1.5, -6.4,0,0,1024,1024,1026,1024,310.1,-89.9,98,3.948,3.985,3.994,3.979,0,0,20.065,80.6,14,Waypoint,
37.2865867,-119.5625651,4620.2584690425,121.062996,0,1.64916671944,17600,2018-04-11 22:01:25,18,0,23.918,4620.2584690425,121.062996,0.223694,1.66011488252,0,0,-0.671082,310.3, 1.7, -6.2,0,0,1024,1024,1026,1024,310.1,-89.9,98,3.948,3.985,3.994,3.979,0,0,20.065,80.6,14,Waypoint,
37.2865867,-119.5625652,4621.2427210425,122.047248,0,1.63865818892,17700,2018-04-11 22:01:25,18,0,23.918,4621.2427210425,122.047248,0.223694,1.66011488252,0,0,-0.671082,310.3, 1.8, -6,0,0,1024,1024,1026,1024,310.1,-89.9,98,3.948,3.985,3.994,3.979,0,0,20.065,80.6,14,Waypoint,
37.2865867,-119.5625652,4622.2269730425,123.0315,0,1.63865818892,17800,2018-04-11 22:01:25,18,0,23.918,4622.2269730425,123.0315,0.223694,1.66011488252,0,0,-0.671082,310.4, 1.7, -5.9,0,0,1024,1024,1026,1024,310.1,-89.9,98,3.948,3.985,3.994,3.979,0,0,20.065,80.6,14,Waypoint,
37.2865867,-119.5625653,4623.2112250425,124.015752,0,1.62859913348,17900,2018-04-11 22:01:25,18,0,23.918,4623.2112250425,124.015752,0.223694,1.66011488252,0,0,-0.671082,310.4, 1.7, -6,0,0,1024,1024,1026,1024,310.1,-89.9,98,3.948,3.985,3.994,3.979,0,0,20.065,80.6,14,Waypoint,
37.2865867,-119.5625653,4624.1954770425,125.000004,0,1.62859913348,18000,2018-04-11 22:01:25,18,0,23.901,4624.1954770425,125.000004,0.223694,1.66011488252,0,0,-0.671082,310.4, 1.7, -6.2,0,0,1024,1024,1026,1024,310.1,-89.9,98,3.953,3.993,3.985,3.969,0,0,19.315,80.6,14,Waypoint,
37.2865867,-119.5625653,4626.1639810425,126.968508,0,1.62859913348,18200,2018-04-11 22:01:25,18,0,23.901,4626.1639810425,126.968508,0.223694,1.66011488252,0,0,-0.671082,310.5, 1.5, -6.4,0,0,1024,1024,1026,1024,310.1,-89.9,98,3.953,3.993,3.985,3.969,0,0,19.315,80.6,14,Waypoint,
37.2865867,-119.5625654,4627.1482330425,127.95276,0,1.61899939564,18300,2018-04-11 22:01:25,18,0,23.901,4627.1482330425,127.95276,0.223694,1.66011488252,0,0,-0.671082,310.4, 1.5, -6.3,0,0,1024,1024,1026,1024,310.1,-89.9,98,3.953,3.993,3.985,3.969,0,0,19.315,80.6,14,Waypoint,
37.2865867,-119.5625654,4628.1324850425,128.937012,0,1.61899939564,18400,2018-04-11 22:01:25,18,0,23.901,4628.1324850425,128.937012,0.223694,1.66011488252,0,0,-0.671082,310.4, 1.4, -6.2,0,0,1024,1024,1026,1024,310.1,-89.9,98,3.953,3.993,3.985,3.969,0,0,19.315,80.6,14,Waypoint,
37.2865867,-119.5625655,4629.1167370425,129.921264,0,1.60986553708,18500,2018-04-11 22:01:25,18,0,23.901,4629.1167370425,129.921264,0.223694,1.66011488252,0,0,-0.671082,310.4, 1.6, -5.5,0,0,1024,1024,1026,1024,310.1,-89.9,98,3.953,3.993,3.985,3.969,0,0,19.315,80.6,14,Waypoint,
37.2865866,-119.5625656,4630.1009890425,130.905516,0.223694,1.56632550944,18600,2018-04-11 22:01:26,18,0,23.901,4630.1009890425,130.905516,0.223694,1.66011488252,0,0,-0.671082,310.4, 1.6, -5.3,0,0,1024,1024,1026,1024,310.1,-89.9,98,3.953,3.993,3.985,3.969,0,0,19.315,80.6,14,Waypoint,
37.2865865,-119.5625656,4631.0852410425,131.889768,0.223694,1.53151907788,18800,2018-04-11 22:01:26,18,0,23.901,4631.0852410425,131.889768,0.223694,1.66011488252,0,0,-0.671082,310.5, 1.4, -5.1,0,0,1024,1024,1026,1024,310.1,-89.9,98,3.953,3.993,3.985,3.969,0,0,19.315,80.6,14,Waypoint,
37.2865865,-119.5625657,4632.0694930425,132.87402,0,1.52296920884,18900,2018-04-11 22:01:26,18,0,23.901,4632.0694930425,132.87402,0.223694,1.66011488252,0,0,-0.671082,310.6, 1.3, -5.1,0,0,1024,1024,1026,1024,310.1,-89.9,98,3.953,3.993,3.985,3.969,0,0,19.315,80.6,14,Waypoint,
37.2865864,-119.5625657,4633.0537450425,133.858272,0,1.4880413862,19000,2018-04-11 22:01:26,18,0,23.882,4633.0537450425,133.858272,0.223694,1.66011488252,0,0,-0.671082,310.7, 1.2, -5.2,0,0,1024,1024,1026,1024,310.1,-89.9,98,3.953,3.99,3.98,3.969,0,0,19.129,80.6,14,Waypoint,
37.2865864,-119.5625658,4634.0379970425,134.842524,0,1.47980975864,19100,2018-04-11 22:01:26,18,0,23.882,4634.0379970425,134.842524,0.223694,1.66011488252,0,0,-0.671082,310.7, 1.1, -5.3,0,0,1024,1024,1026,1024,310.1,-89.9,98,3.953,3.99,3.98,3.969,0,0,19.129,80.6,14,Waypoint,
37.2865863,-119.5625658,4635.0222490425,135.826776,0,1.44476054492,19200,2018-04-11 22:01:26,18,0,23.882,4635.0222490425,135.826776,0.223694,1.66011488252,0,0,-0.671082,310.6, 1.1, -5.4,0,0,1024,1024,1026,1024,310.1,-89.9,98,3.953,3.99,3.98,3.969,0,0,19.129,80.6,14,Waypoint,
37.2865863,-119.5625659,4637.3188370425,138.123364,0,1.43686684388,19300,2018-04-11 22:01:26,18,0,23.882,4637.3188370425,138.123364,0.223694,1.66011488252,0,0,-0.671082,310.6, 1.4, -5.1,0,0,1024,1024,1026,1024,310.1,-89.9,98,3.953,3.99,3.98,3.969,0,0,19.129,80.6,14,Waypoint,
37.2865862,-119.562566,4638.3030890425,139.107616,0,1.3941601496,19400,2018-04-11 22:01:26,18,0,23.882,4638.3030890425,139.107616,0.223694,1.66011488252,0,0,-0.671082,310.6, 1.5, -5,0,0,1024,1024,1026,1024,310.1,-89.9,98,3.953,3.99,3.98,3.969,0,0,19.129,80.6,14,Waypoint,
37.2865862,-119.5625661,4639.2873410425,140.091868,0,1.38719164544,19500,2018-04-11 22:01:26,18,0,23.882,4639.2873410425,140.091868,0.223694,1.66011488252,0,0,-0.671082,310.6, 1.6, -4.9,0,0,1024,1024,1026,1024,310.1,-89.9,98,3.953,3.99,3.98,3.969,0,0,19.129,80.6,14,Waypoint,
37.2865862,-119.5625661,4640.2715930425,141.07612,0,1.38719164544,19600,2018-04-11 22:01:27,18,0,23.882,4640.2715930425,141.07612,0.223694,1.66011488252,0,0,-0.671082,310.6, 1.6, -4.9,0,0,1024,1024,1026,1024,310.1,-89.9,98,3.953,3.99,3.98,3.969,0,0,19.129,80.6,14,Waypoint,
37.2865861,-119.5625662,4642.2400970425,143.044624,0,1.34515096168,19800,2018-04-11 22:01:27,18,0,23.882,4642.2400970425,143.044624,0.223694,1.66011488252,0,0,-0.671082,310.5, 1.6, -4.8,0,0,1024,1024,1026,1024,310.1,-89.9,98,3.953,3.99,3.98,3.969,0,0,19.129,80.6,14,Waypoint,
37.286586,-119.5625662,4643.2243490425,144.028876,0,1.30955056684,19900,2018-04-11 22:01:27,18,0,23.882,4643.2243490425,144.028876,0.223694,1.66011488252,0,0,-0.671082,310.6, 1.5, -4.9,0,0,1024,1024,1026,1024,310.1,-89.9,98,3.953,3.99,3.98,3.969,0,0,19.129,80.6,14,Waypoint,
37.286586,-119.5625662,4644.2086010425,145.013128,0.223694,1.30955056684,20000,2018-04-11 22:01:27,18,0,23.831,4644.2086010425,145.013128,0.223694,1.66011488252,0,0,-0.671082,310.7, 1.3, -4.7,0,0,1024,1024,1026,1024,310.1,-89.9,98,3.946,3.978,3.979,3.964,0,0,19.685,80.6,14,Waypoint,
37.2865859,-119.5625662,4645.1928530425,145.99738,0.223694,1.2739993846,20100,2018-04-11 22:01:27,18,0,23.831,4645.1928530425,145.99738,0.223694,1.66011488252,0,0,-0.671082,310.7, 1.1, -4.4,0,0,1024,1024,1026,1024,310.1,-89.9,98,3.946,3.978,3.979,3.964,0,0,19.685,80.6,14,Waypoint,
37.2865859,-119.5625662,4646.1771050425,146.981632,0,1.2739993846,20200,2018-04-11 22:01:27,18,0,23.831,4646.1771050425,146.981632,0.223694,1.66011488252,0,0,-0.671082,310.6, 1, -4.3,0,0,1024,1024,1026,1024,310.1,-89.9,98,3.946,3.978,3.979,3.964,0,0,19.685,80.6,14,Waypoint,
37.2865858,-119.5625662,4647.1613570425,147.965884,0,1.2385006958,20300,2018-04-11 22:01:27,18,0,23.831,4647.1613570425,147.965884,0.223694,1.66011488252,0,0,-0.671082,310.6, 1, -4.6,0,0,1024,1024,1026,1024,310.1,-89.9,98,3.946,3.978,3.979,3.964,0,0,19.685,80.6,14,Waypoint,
37.2865858,-119.5625662,4648.1456090425,148.950136,0,1.2385006958,20400,2018-04-11 22:01:27,18,0,23.831,4648.1456090425,148.950136,0.223694,1.66011488252,0,0,-0.671082,310.5, 1.1, -4.9,0,0,1024,1024,1026,1024,310.1,-89.9,98,3.946,3.978,3.979,3.964,0,0,19.685,80.6,14,Waypoint,
37.2865858,-119.5625662,4649.1298610425,149.934388,0,1.2385006958,20500,2018-04-11 22:01:27,18,0,23.831,4649.1298610425,149.934388,0.223694,1.66011488252,0,0,-0.671082,310.5, 1.1, -5,0,0,1024,1024,1026,1024,310.1,-89.9,98,3.946,3.978,3.979,3.964,0,0,19.685,80.6,14,Waypoint,
37.2865858,-119.5625662,4650.1141130425,150.91864,0,1.2385006958,20600,2018-04-11 22:01:28,18,0,23.831,4650.1141130425,150.91864,0.223694,1.66011488252,0,0,-0.671082,310.4, 1.2, -5.1,0,0,1024,1024,1026,1024,310.1,-89.9,98,3.946,3.978,3.979,3.964,0,0,19.685,80.6,14,Waypoint,
37.2865857,-119.5625662,4651.0983650425,151.902892,0,1.20306434296,20700,2018-04-11 22:01:28,18,0,23.831,4651.0983650425,151.902892,0.223694,1.66011488252,0,0,-0.671082,310.5, 1.1, -5.1,0,0,1024,1024,1026,1024,310.1,-89.9,98,3.946,3.978,3.979,3.964,0,0,19.685,80.6,14,Waypoint,
37.2865857,-119.5625662,4652.0826170425,152.887144,0,1.20306434296,20800,2018-04-11 22:01:28,18,0,23.831,4652.0826170425,152.887144,0.223694,1.66011488252,0,0,-0.671082,310.5, 1, -5,0,0,1024,1024,1026,1024,310.1,-89.9,98,3.946,3.978,3.979,3.964,0,0,19.685,80.6,14,Waypoint,
37.2865856,-119.5625662,4653.0668690425,153.871396,0,1.16769032608,20900,2018-04-11 22:01:28,18,0,23.831,4653.0668690425,153.871396,0.223694,1.66011488252,0,0,-0.671082,310.5, 1, -4.8,0,0,1024,1024,1026,1024,310.1,-89.9,98,3.946,3.978,3.979,3.964,0,0,19.685,80.6,14,Waypoint,
37.2865855,-119.5625662,4654.0511210425,154.855648,0.223694,1.13238520684,21000,2018-04-11 22:01:28,18,0,23.772,4654.0511210425,154.855648,0.223694,1.66011488252,0,0,-0.671082,310.5, 0.9, -4.6,0,0,1024,1024,1026,1024,310.1,-89.9,97,3.928,3.97,3.967,3.945,0,0,20.014,80.6,14,Waypoint,
37.2865855,-119.5625662,4655.0353730425,155.8399,0,1.13238520684,21100,2018-04-11 22:01:28,18,0,23.772,4655.0353730425,155.8399,0.223694,1.66011488252,0,0,-0.671082,310.5, 0.8, -4.6,0,0,1024,1024,1026,1024,310.1,-89.9,97,3.928,3.97,3.967,3.945,0,0,20.014,80.6,14,Waypoint,
37.2865854,-119.5625662,4656.0196250425,156.824152,0,1.09715882776,21200,2018-04-11 22:01:28,18,0,23.772,4656.0196250425,156.824152,0.223694,1.66011488252,0,0,-0.671082,310.5, 0.7, -4.6,0,0,1024,1024,1026,1024,310.1,-89.9,97,3.928,3.97,3.967,3.945,0,0,20.014,80.6,14,Waypoint,
37.2865853,-119.5625662,4657.0038770425,157.808404,0,1.06201775052,21400,2018-04-11 22:01:28,18,0,23.772,4657.0038770425,157.808404,0.223694,1.66011488252,0,0,-0.671082,310.6, 0.5, -4.5,0,0,1024,1024,1026,1024,310.1,-89.9,97,3.928,3.97,3.967,3.945,0,0,20.014,80.6,14,Waypoint,
37.2865853,-119.5625662,4657.9881290425,158.792656,0,1.06201775052,21500,2018-04-11 22:01:28,18,0,23.772,4657.9881290425,158.792656,0.223694,1.66011488252,0,0,-0.671082,310.6, 0.5, -4.6,0,0,1024,1024,1026,1024,310.1,-89.9,97,3.928,3.97,3.967,3.945,0,0,20.014,80.6,14,Waypoint,
37.2865852,-119.5625662,4658.9723810425,159.776908,0,1.02697181764,21600,2018-04-11 22:01:29,18,0,23.772,4658.9723810425,159.776908,0.223694,1.66011488252,0,0,-0.671082,310.6, 0.2, -4.6,0,0,1024,1024,1026,1024,310.1,-89.9,97,3.928,3.97,3.967,3.945,0,0,20.014,80.6,14,Waypoint,
37.2865851,-119.5625662,4659.9566330425,160.76116,0,0.9920275908,21700,2018-04-11 22:01:29,18,0,23.772,4659.9566330425,160.76116,0.223694,1.66011488252,0,0,-0.671082,310.5, 0.1, -4.5,0,0,1024,1024,1026,1024,310.1,-89.9,97,3.928,3.97,3.967,3.945,0,0,20.014,80.6,14,Waypoint,
37.286585,-119.5625661,4661.9251370425,162.729664,0,0.96639766872,21800,2018-04-11 22:01:29,18,0,23.772,4661.9251370425,162.729664,0.223694,1.66011488252,0,0,-0.671082,310.5, 0.2, -4.5,0,0,1024,1024,1026,1024,310.1,-89.9,97,3.928,3.97,3.967,3.945,0,0,20.014,80.6,14,Waypoint,
37.286585,-119.5625661,4662.9093890425,163.713916,0,0.96639766872,21900,2018-04-11 22:01:29,18,0,23.772,4662.9093890425,163.713916,0.223694,1.66011488252,0,0,-0.671082,310.5, 0.2, -4.5,0,0,1024,1024,1026,1024,310.1,-89.9,97,3.928,3.97,3.967,3.945,0,0,20.014,80.6,14,Waypoint,
37.286585,-119.5625661,4663.8936410425,164.698168,0,0.96639766872,22000,2018-04-11 22:01:29,18,0,23.707,4663.8936410425,164.698168,0.223694,1.66011488252,0,0,-0.671082,310.5, 0.4, -4.7,0,0,1024,1024,1026,1024,310.1,-89.9,97,3.917,3.963,3.956,3.947,0,0,20.633,80.6,14,Waypoint,
37.286585,-119.5625661,4664.8778930425,165.68242,0,0.96639766872,22100,2018-04-11 22:01:29,18,0,23.707,4664.8778930425,165.68242,0.223694,1.66011488252,0,0,-0.671082,310.4, 0.6, -4.7,0,0,1024,1024,1026,1024,310.1,-89.9,97,3.917,3.963,3.956,3.947,0,0,20.633,80.6,14,Waypoint,
37.286585,-119.5625661,4665.8621450425,166.666672,0,0.96639766872,22200,2018-04-11 22:01:29,18,0,23.707,4665.8621450425,166.666672,0.223694,1.66011488252,0,0,-0.671082,310.4, 1, -4.9,0,0,1024,1024,1026,1024,310.1,-89.9,97,3.917,3.963,3.956,3.947,0,0,20.633,80.6,14,Waypoint,
37.2865851,-119.5625661,4666.8463970425,167.650924,0,1.00090882468,22300,2018-04-11 22:01:29,18,0,23.707,4666.8463970425,167.650924,0.223694,1.66011488252,0,0,-0.671082,310.4, 1.1, -5.2,0,0,1024,1024,1026,1024,310.1,-89.9,97,3.917,3.963,3.956,3.947,0,0,20.633,80.6,14,Waypoint,
37.2865851,-119.562566,4667.8306490425,168.635176,0,1.01054137092,22400,2018-04-11 22:01:29,18,0,23.707,4667.8306490425,168.635176,0.223694,1.66011488252,0,0,-0.671082,310.6, 1.2, -5.3,0,0,1024,1024,1026,1024,310.1,-89.9,97,3.917,3.963,3.956,3.947,0,0,20.633,80.6,14,Waypoint,
37.2865851,-119.562566,4668.8149010425,169.619428,0,1.01054137092,22500,2018-04-11 22:01:29,18,0,23.707,4668.8149010425,169.619428,0.223694,1.66011488252,0,0,-0.671082,310.7, 1.1, -5.7,0,0,1024,1024,1026,1024,310.1,-89.9,97,3.917,3.963,3.956,3.947,0,0,20.633,80.6,14,Waypoint,
37.2865851,-119.562566,4669.7991530425,170.60368,0,1.01054137092,22600,2018-04-11 22:01:30,18,0,23.707,4669.7991530425,170.60368,0.223694,1.66011488252,0,0,-0.671082,310.8, 0.9, -5.9,0,0,1024,1024,1026,1024,310.1,-89.9,97,3.917,3.963,3.956,3.947,0,0,20.633,80.6,14,Waypoint,
37.2865852,-119.5625659,4670.7834050425,171.587932,0,1.05489832772,22700,2018-04-11 22:01:30,18,0,23.707,4670.7834050425,171.587932,0.223694,1.66011488252,0,0,-0.671082,310.9, 0.9, -5.7,0,0,1024,1024,1026,1024,310.1,-89.9,97,3.917,3.963,3.956,3.947,0,0,20.633,80.6,14,Waypoint,
37.2865852,-119.5625659,4671.4395730425,172.2441,0,1.05489832772,22800,2018-04-11 22:01:30,18,0,23.707,4671.4395730425,172.2441,0.223694,1.66011488252,0,0,-0.671082,310.9, 1, -5.5,0,0,1024,1024,1026,1024,310.1,-89.9,97,3.917,3.963,3.956,3.947,0,0,20.633,80.6,14,Waypoint,
37.2865852,-119.5625659,4672.4238250425,173.228352,0,1.05489832772,22900,2018-04-11 22:01:30,18,0,23.707,4672.4238250425,173.228352,0.223694,1.66011488252,0,0,-0.671082,310.9, 1.2, -5.6,0,0,1024,1024,1026,1024,310.1,-89.9,97,3.917,3.963,3.956,3.947,0,0,20.633,80.6,14,Waypoint,
37.2865852,-119.562566,4674.3923290425,175.196856,0,1.044865519,23200,2018-04-11 22:01:30,18,0,23.707,4674.3923290425,175.196856,0.223694,1.66011488252,0,0,-0.671082,310.7, 1.5, -5.4,0,0,1024,1024,1026,1024,310.1,-89.9,97,3.917,3.963,3.956,3.947,0,0,20.633,80.6,14,Waypoint,
37.2865853,-119.562566,4676.3608330425,177.16536,0,1.07933402404,23310,2018-04-11 22:01:30,18,0,23.707,4676.3608330425,177.16536,0.223694,1.66011488252,0,0,-0.671082,310.5, 1.6, -5.4,0,0,1024,1024,1026,1024,310.1,-89.9,97,3.917,3.963,3.956,3.947,0,0,20.633,80.6,14,Waypoint,
37.2865853,-119.562566,4677.3450850425,178.149612,0,1.07933402404,23400,2018-04-11 22:01:30,18,0,23.707,4677.3450850425,178.149612,0.223694,1.66011488252,0,0,-0.671082,310.5, 1.5, -5.4,0,0,1024,1024,1026,1024,310.1,-89.9,97,3.917,3.963,3.956,3.947,0,0,20.633,80.6,14,Waypoint,
37.2865853,-119.562566,4678.3293370425,179.133864,0,1.07933402404,23510,2018-04-11 22:01:30,18,0,23.707,4678.3293370425,179.133864,0.223694,1.66011488252,0,0,-0.671082,310.5, 1.6, -5.7,0,0,1024,1024,1026,1024,310.1,-89.9,97,3.917,3.963,3.956,3.947,0,0,20.633,80.6,14,Waypoint,
37.2865853,-119.562566,4678.3293370425,179.133864,0,1.07933402404,23600,2018-04-11 22:01:31,18,0,23.707,4678.3293370425,179.133864,0.223694,1.66011488252,0,0,-0.671082,310.5, 1.6, -5.7,0,0,1024,1024,1026,1024,310.1,-89.9,97,3.917,3.963,3.956,3.947,0,0,20.633,80.6,14,Waypoint,
37.2865853,-119.5625659,4679.3135890425,180.118116,0,1.08904859128,23700,2018-04-11 22:01:31,18,0,23.707,4679.3135890425,180.118116,0.223694,1.66011488252,0,0,-0.671082,310.5, 1.5, -6.1,0,0,1024,1024,1026,1024,310.1,-89.9,97,3.917,3.963,3.956,3.947,0,0,20.633,80.6,14,Waypoint,
37.2865854,-119.5625659,4680.2978410425,181.102368,0,1.1233432118,23800,2018-04-11 22:01:31,18,0,23.707,4680.2978410425,181.102368,0.223694,1.66011488252,0,0,-0.671082,310.5, 1.3, -6.4,0,0,1024,1024,1026,1024,310.1,-89.9,97,3.917,3.963,3.956,3.947,0,0,20.633,80.6,14,Waypoint,
37.2865854,-119.5625658,4681.2820930425,182.08662,0,1.13342523312,23900,2018-04-11 22:01:31,18,0,23.707,4681.2820930425,182.08662,0.223694,1.66011488252,0,0,-0.671082,310.6, 1, -6.3,0,0,1024,1024,1026,1024,310.1,-89.9,97,3.917,3.963,3.956,3.947,0,0,20.633,80.6,14,Waypoint,
37.2865855,-119.5625657,4683.2505970425,184.055124,0,1.17797575948,24000,2018-04-11 22:01:31,18,0,23.62,4683.2505970425,184.055124,0.223694,1.66011488252,0,0,-0.671082,310.7, 0.8, -6.5,0,0,1024,1024,1026,1024,310.1,-89.9,97,3.911,3.952,3.957,3.938,0,0,21.329,82.4,14,Waypoint,
37.2865855,-119.5625656,4684.2348490425,185.039376,0,1.18901250524,24100,2018-04-11 22:01:31,18,0,23.62,4684.2348490425,185.039376,0.223694,1.66011488252,0,0,-0.671082,310.7, 0.7, -6.2,0,0,1024,1024,1026,1024,310.1,-89.9,97,3.911,3.952,3.957,3.938,0,0,21.329,82.4,14,Waypoint,
37.2865855,-119.5625656,4685.2191010425,186.023628,0,1.18901250524,24200,2018-04-11 22:01:31,18,0,23.62,4685.2191010425,186.023628,0.223694,1.66011488252,0,0,-0.671082,310.8, 0.8, -6.3,0,0,1024,1024,1026,1024,310.1,-89.9,97,3.911,3.952,3.957,3.938,0,0,21.329,82.4,14,Waypoint,
37.2865855,-119.5625656,4686.2033530425,187.00788,0,1.18901250524,24300,2018-04-11 22:01:31,18,0,23.62,4686.2033530425,187.00788,0.223694,1.66011488252,0,0,-0.671082,310.8, 0.9, -6.3,0,0,1024,1024,1026,1024,310.1,-89.9,97,3.911,3.952,3.957,3.938,0,0,21.329,82.4,14,Waypoint,
37.2865855,-119.5625656,4687.1876050425,187.992132,0,1.18901250524,24400,2018-04-11 22:01:31,18,0,23.62,4687.1876050425,187.992132,0.223694,1.66011488252,0,0,-0.671082,310.8, 1.1, -6.2,0,0,1024,1024,1026,1024,310.1,-89.9,97,3.911,3.952,3.957,3.938,0,0,21.329,82.4,14,Waypoint,
37.2865856,-119.5625656,4688.4999410425,189.304468,0,1.22268048532,24500,2018-04-11 22:01:31,18,0,23.62,4688.4999410425,189.304468,0.223694,1.66011488252,0,0,-0.671082,310.8, 1.4, -6.3,0,0,1024,1024,1026,1024,310.1,-89.9,97,3.911,3.952,3.957,3.938,0,0,21.329,82.4,14,Waypoint,
37.2865856,-119.5625657,4689.4841930425,190.28872,0,1.21195213852,24600,2018-04-11 22:01:32,18,0,23.62,4689.4841930425,190.28872,0.223694,1.66011488252,0,0,-0.671082,310.7, 1.7, -6.4,0,0,1024,1024,1026,1024,310.1,-89.9,97,3.911,3.952,3.957,3.938,0,0,21.329,82.4,14,Waypoint,
37.2865857,-119.5625657,4690.4684450425,191.272972,0,1.24606959368,24700,2018-04-11 22:01:32,18,0,23.62,4690.4684450425,191.272972,0.223694,1.66011488252,0,0,-0.671082,310.6, 1.9, -6.5,0,0,1024,1024,1026,1024,310.1,-89.9,97,3.911,3.952,3.957,3.938,0,0,21.329,82.4,14,Waypoint,
37.2865858,-119.5625657,4691.4526970425,192.257224,0,1.28031828244,24800,2018-04-11 22:01:32,18,0,23.62,4691.4526970425,192.257224,0.223694,1.66011488252,0,0,-0.671082,310.5, 2, -6.5,0,0,1024,1024,1026,1024,310.1,-89.9,97,3.911,3.952,3.957,3.938,0,0,21.329,82.4,14,Waypoint,
37.2865858,-119.5625658,4692.4369490425,193.241476,0,1.27073822964,24900,2018-04-11 22:01:32,18,0,23.62,4692.4369490425,193.241476,0.223694,1.66011488252,0,0,-0.671082,310.5, 2.1, -6.6,0,0,1024,1024,1026,1024,310.1,-89.9,97,3.911,3.952,3.957,3.938,0,0,21.329,82.4,14,Waypoint,
37.2865859,-119.5625658,4693.4212010425,194.225728,0,1.30536093416,25000,2018-04-11 22:01:32,18,0,23.62,4693.4212010425,194.225728,0.223694,1.66011488252,0,0,-0.671082,310.5, 2.2, -6.9,0,0,1024,1024,1026,1024,310.1,-89.9,97,3.9,3.948,3.937,3.932,0,0,21.329,82.4,14,Waypoint,
37.286586,-119.5625658,4694.4054530425,195.20998,0,1.34007878304,25100,2018-04-11 22:01:32,18,0,23.62,4694.4054530425,195.20998,0.223694,1.66011488252,0,0,-0.671082,310.5, 2.2, -7,0,0,1024,1024,1026,1024,310.1,-89.9,97,3.9,3.948,3.937,3.932,0,0,21.329,82.4,14,Waypoint,
37.2865861,-119.5625658,4695.3897050425,196.194232,0,1.37489177628,25200,2018-04-11 22:01:32,18,0,23.62,4695.3897050425,196.194232,0.223694,1.66011488252,0,0,-0.671082,310.5, 2.1, -7,0,0,1024,1024,1026,1024,310.1,-89.9,97,3.9,3.948,3.937,3.932,0,0,21.329,82.4,14,Waypoint,
37.2865861,-119.5625658,4696.3739570425,197.178484,0,1.37489177628,25300,2018-04-11 22:01:32,18,0,23.62,4696.3739570425,197.178484,0.223694,1.66011488252,0,0,-0.671082,310.4, 2.2, -6.8,0,0,1024,1024,1026,1024,310.1,-89.9,97,3.9,3.948,3.937,3.932,0,0,21.329,82.4,14,Waypoint,
37.2865862,-119.5625658,4697.0301250425,197.834652,0,1.40978679052,25400,2018-04-11 22:01:32,18,0,23.62,4697.0301250425,197.834652,0.223694,1.66011488252,0,0,-0.671082,310.3, 2.2, -6.5,0,0,1024,1024,1026,1024,310.1,-89.9,97,3.9,3.948,3.937,3.932,0,0,21.329,82.4,14,Waypoint,
37.2865862,-119.5625658,4698.0143770425,198.818904,0,1.40978679052,25500,2018-04-11 22:01:32,18,0,23.62,4698.0143770425,198.818904,0.223694,1.66011488252,0,0,-0.671082,310.2, 2.3, -6.5,0,0,1024,1024,1026,1024,310.1,-89.9,97,3.9,3.948,3.937,3.932,0,0,21.329,82.4,14,Waypoint,
37.2865863,-119.5625658,4698.9986290425,199.803156,0,1.44476054492,25600,2018-04-11 22:01:33,18,0,23.62,4698.9986290425,199.803156,0.223694,1.66011488252,0,0,-0.671082,310.2, 2.2, -6.8,0,0,1024,1024,1026,1024,310.1,-89.9,97,3.9,3.948,3.937,3.932,0,0,21.329,82.4,14,Waypoint,
37.2865863,-119.5625658,4699.9828810425,200.787408,0,1.44476054492,25710,2018-04-11 22:01:33,18,0,23.62,4699.9828810425,200.787408,0.223694,1.66011488252,0,0,-0.671082,310.3, 2, -6.9,0,0,1024,1024,1026,1024,310.1,-89.9,97,3.9,3.948,3.937,3.932,0,0,21.329,82.4,14,Waypoint,
37.2865863,-119.5625657,4700.9671330425,201.77166,0,1.45319230372,25800,2018-04-11 22:01:33,18,0,23.62,4700.9671330425,201.77166,0.223694,1.66011488252,0,0,-0.671082,310.4, 1.9, -6.9,0,0,1024,1024,1026,1024,310.1,-89.9,97,3.9,3.948,3.937,3.932,0,0,21.329,82.4,14,Waypoint,
37.2865864,-119.5625657,4701.9513850425,202.755912,0,1.4880413862,26000,2018-04-11 22:01:33,18,0,23.62,4701.9513850425,202.755912,0.223694,1.66011488252,0,0,-0.671082,310.4, 1.8, -6.9,0,0,1024,1024,1026,1024,310.1,-89.9,97,3.911,3.948,3.942,3.928,0,0,20.943,82.4,14,Waypoint,
37.2865864,-119.5625657,4702.9356370425,203.740164,0,1.4880413862,26100,2018-04-11 22:01:33,18,0,23.62,4702.9356370425,203.740164,0.223694,1.66011488252,0,0,-0.671082,310.5, 1.7, -7,0,0,1024,1024,1026,1024,310.1,-89.9,97,3.911,3.948,3.942,3.928,0,0,20.943,82.4,14,Waypoint,
37.2865864,-119.5625657,4703.9198890425,204.724416,0,1.4880413862,26200,2018-04-11 22:01:33,18,0,23.62,4703.9198890425,204.724416,0.223694,1.66011488252,0,0,-0.671082,310.5, 1.7, -7,0,0,1024,1024,1026,1024,310.1,-89.9,97,3.911,3.948,3.942,3.928,0,0,20.943,82.4,14,Waypoint,
37.2865864,-119.5625657,4704.9041410425,205.708668,0,1.4880413862,26300,2018-04-11 22:01:33,18,0,23.62,4704.9041410425,205.708668,0.223694,1.66011488252,0,0,-0.671082,310.5, 1.7, -6.9,0,0,1024,1024,1026,1024,310.1,-89.9,97,3.911,3.948,3.942,3.928,0,0,20.943,82.4,14,Waypoint,
37.2865863,-119.5625657,4706.5445610425,207.349088,0,1.45319230372,26400,2018-04-11 22:01:33,18,0,23.62,4706.5445610425,207.349088,0.223694,1.66011488252,0,0,-0.671082,310.7, 1.6, -6.6,0,0,1024,1024,1026,1024,310.1,-89.9,97,3.911,3.948,3.942,3.928,0,0,20.943,82.4,14,Waypoint,
37.2865863,-119.5625658,4707.5288130425,208.33334,0,1.44476054492,26600,2018-04-11 22:01:34,18,0,23.62,4707.5288130425,208.33334,0.223694,1.66011488252,0,0,-0.671082,310.7, 1.6, -6.4,0,0,1024,1024,1026,1024,310.1,-89.9,97,3.911,3.948,3.942,3.928,0,0,20.943,82.4,14,Waypoint,
37.2865863,-119.5625658,4709.4973170425,210.301844,0,1.44476054492,26700,2018-04-11 22:01:34,18,0,23.62,4709.4973170425,210.301844,0.223694,1.66011488252,0,0,-0.671082,310.6, 1.7, -6.3,0,0,1024,1024,1026,1024,310.1,-89.9,97,3.911,3.948,3.942,3.928,0,0,20.943,82.4,14,Waypoint,
37.2865863,-119.5625658,4710.4815690425,211.286096,0,1.44476054492,26800,2018-04-11 22:01:34,18,0,23.62,4710.4815690425,211.286096,0.223694,1.66011488252,0,0,-0.671082,310.5, 1.9, -6.6,0,0,1024,1024,1026,1024,310.1,-89.9,97,3.911,3.948,3.942,3.928,0,0,20.943,82.4,14,Waypoint,
37.2865863,-119.5625658,4711.4658210425,212.270348,0,1.44476054492,26900,2018-04-11 22:01:34,18,0,23.62,4711.4658210425,212.270348,0.223694,1.66011488252,0,0,-0.671082,310.5, 2, -6.7,0,0,1024,1024,1026,1024,310.1,-89.9,97,3.911,3.948,3.942,3.928,0,0,20.943,82.4,14,Waypoint,
37.2865863,-119.5625659,4712.4500730425,213.2546,0,1.43686684388,27000,2018-04-11 22:01:34,18,0,23.746,4712.4500730425,213.2546,0.223694,1.66011488252,0,0,-0.671082,310.5, 2, -6.4,0,0,1024,1024,1026,1024,310.1,-89.9,97,3.929,3.962,3.967,3.954,0,0,18.944,82.4,14,Waypoint,
