latitude,longitude,altitude(feet),ascent(feet),speed(mph),distance(feet),time(millisecond),datetime(utc),satellites,gpslevel,voltage(v),max_altitude(feet),max_ascent(feet),max_speed(mph),max_distance(feet), xSpeed(mph), ySpeed(mph), zSpeed(mph), compass_heading(degrees), pitch(degrees), roll(degrees),isPhoto,isVideo,rc_elevator,rc_aileron,rc_throttle,rc_rudder,gimbal_heading(degrees),gimbal_pitch(degrees),battery_percent,voltageCell1,voltageCell2,voltageCell3,voltageCell4,voltageCell5,voltageCell6,current(A),battery_temperature(f),flycStateRaw,flycState,message
37.2865835,-119.5625755,4499.2319179255,0,0.223694,0,3170,2018-04-11 20:30:59,16,0,0,4499.2319179255,0,0.223694,0,0,0,0,312.9, -0.3, -0.3,1,0,1024,1024,1024,1024,313.4,-89.9,94,4.163,4.181,4.192,4.191,0,0,0,69.8,11,AutoTakeoff,DJI_0262.jpg Starting Mission from Lat/Long: 37.28658/-119.56258 Camera: Zenmuse X3 - Overlap: 90/90 - Active Connection: Yes
37.2865835,-119.5625755,4499.2319179255,0,0.223694,0,3200,2018-04-11 20:30:59,16,0,0,4499.2319179255,0,0.223694,0,0,0,0,312.9, -0.3, -0.3,0,0,1024,1024,1024,1024,313.4,-89.9,94,4.163,4.181,4.192,4.191,0,0,0,69.8,11,AutoTakeoff,
37.2865835,-119.5625757,4499.2319179255,0,0.223694,0.05805610422,3310,2018-04-11 20:31:00,16,0,0,4499.2319179255,0,0.223694,0.05805610422,0,0,0,312.9, 0.2, -0.1,0,0,1024,1024,1024,1024,313.4,-89.9,94,4.163,4.181,4.192,4.191,0,0,0,69.8,11,AutoTakeoff,
37.2865835,-119.5625762,4499.5600019255,0.328084,0.223694,0.203195872644,3400,2018-04-11 20:31:00,17,0,0,4499.5600019255,0.328084,0.223694,0.203195872644,0,0,0,312.9, 1.2, 0.7,0,0,1024,1024,1024,1024,313.4,-89.9,94,4.163,4.181,4.192,4.191,0,0,0,69.8,11,AutoTakeoff,
37.2865835,-119.5625764,4499.8880859255,0.656168,0.223694,0.26125164878,3500,2018-04-11 20:31:00,17,0,0,4499.8880859255,0.656168,0.223694,0.26125164878,0,0,0,313, 1.5, 1.1,0,0,1024,1024,1024,1024,313.4,-89.9,94,4.163,4.181,4.192,4.191,0,0,0,69.8,11,AutoTakeoff,
37.2865835,-119.5625766,4499.8880859255,0.656168,0.223694,0.319307753,3600,2018-04-11 20:31:00,17,0,0,4499.8880859255,0.656168,0.223694,0.319307753,0,0,0,313.1, 1.5, 1.3,0,0,1024,1024,1024,1024,313.4,-89.9,94,4.163,4.181,4.192,4.191,0,0,0,69.8,11,AutoTakeoff,
37.2865835,-119.5625768,4500.2161699255,0.984252,0.223694,0.3773622168,3700,2018-04-11 20:31:00,17,0,0,4500.2161699255,0.984252,0.223694,0.3773622168,0,0,0,313.2, 1.4, 1.3,0,0,1024,1024,1024,1024,313.4,-89.9,94,4.163,4.181,4.192,4.191,0,0,0,69.8,11,AutoTakeoff,
37.2865835,-119.562577,4500.2161699255,0.984252,0.223694,0.43541996144,3800,2018-04-11 20:31:00,16,0,0,4500.2161699255,0.984252,0.223694,0.43541996144,0,0,0,313.2, 1.2, 1.3,0,0,1024,1024,1024,1024,313.4,-89.9,94,4.163,4.181,4.192,4.191,0,0,0,69.8,11,AutoTakeoff,
37.2865835,-119.5625773,4500.5442539255,1.312336,0.223694,0.52250329756,4000,2018-04-11 20:31:00,16,0,24.305,4500.5442539255,1.312336,0.223694,0.52250329756,0,0,0,313.4, 0.8, 1.3,0,0,1024,1024,1024,1024,313.4,-89.9,94,4.163,4.181,4.192,4.191,0,0,12.989,69.8,11,AutoTakeoff,
37.2865835,-119.5625775,4500.5442539255,1.312336,0.223694,0.5805610422,4100,2018-04-11 20:31:00,16,0,24.305,4500.5442539255,1.312336,0.223694,0.5805610422,0,0,0,313.4, 0.8, 1.2,0,0,1024,1024,1024,1024,313.4,-89.9,94,4.163,4.181,4.192,4.191,0,0,12.989,69.8,11,AutoTakeoff,
37.2865836,-119.5625776,4500.8723379255,1.64042,0.223694,0.6106791534,4200,2018-04-11 20:31:00,16,0,24.305,4500.8723379255,1.64042,0.223694,0.6106791534,0,0,-0.223694,313.4, 0.9, 1.2,0,0,1024,1024,1024,1024,313.4,-89.9,94,4.163,4.181,4.192,4.191,0,0,12.989,69.8,11,AutoTakeoff,
37.2865836,-119.5625778,4500.8723379255,1.64042,0.223694,0.66863847284,4300,2018-04-11 20:31:01,16,0,24.305,4500.8723379255,1.64042,0.223694,0.66863847284,0,0,-0.223694,313.4, 1.1, 1.2,0,0,1024,1024,1024,1024,313.4,-89.9,94,4.163,4.181,4.192,4.191,0,0,12.989,69.8,11,AutoTakeoff,
37.2865836,-119.5625779,4501.2004219255,1.968504,0,0.69762469424,4400,2018-04-11 20:31:01,16,0,24.305,4501.2004219255,1.968504,0.223694,0.69762469424,0,0,-0.223694,313.4, 1.2, 1.1,0,0,1024,1024,1024,1024,313.4,-89.9,94,4.163,4.181,4.192,4.191,0,0,12.989,69.8,11,AutoTakeoff,
37.2865837,-119.562578,4501.5285059255,2.296588,0,0.72936025956,4600,2018-04-11 20:31:01,16,0,24.305,4501.5285059255,2.296588,0.223694,0.72936025956,0,0,-0.223694,313.5, 1.3, 1.2,0,0,1024,1024,1024,1024,313.4,-89.9,94,4.163,4.181,4.192,4.191,0,0,12.989,69.8,11,AutoTakeoff,
37.2865837,-119.5625781,4501.5285059255,2.296588,0,0.75824805576,4700,2018-04-11 20:31:01,16,0,24.305,4501.5285059255,2.296588,0.223694,0.75824805576,0,0,-0.223694,313.7, 1.4, 1.2,0,0,1024,1024,1024,1024,313.4,-89.9,94,4.163,4.181,4.192,4.191,0,0,12.989,69.8,11,AutoTakeoff,
37.2865838,-119.5625782,4501.8565899255,2.624672,0,0.79136157388,4800,2018-04-11 20:31:01,16,0,24.305,4501.8565899255,2.624672,0.223694,0.79136157388,0,0,-0.223694,313.8, 1.7, 1.2,0,0,1024,1024,1024,1024,313.4,-89.9,94,4.163,4.181,4.192,4.191,0,0,12.989,69.8,11,AutoTakeoff,
37.2865839,-119.5625784,4501.8565899255,2.624672,0,0.85436682524,4900,2018-04-11 20:31:01,16,0,24.305,4501.8565899255,2.624672,0.223694,0.85436682524,0,0,0,313.9, 1.9, 1.1,0,0,1024,1024,1024,1024,313.4,-89.9,94,4.163,4.181,4.192,4.191,0,0,12.989,69.8,11,AutoTakeoff,
37.286584,-119.5625785,4502.1846739255,2.952756,0,0.88974084212,5000,2018-04-11 20:31:01,16,0,24.305,4502.1846739255,2.952756,0.223694,0.88974084212,0,0,0,313.9, 2, 1,0,0,1024,1024,1024,1024,313.4,-89.9,94,3.956,4.006,3.991,4.017,0,0,12.989,69.8,14,Waypoint,
37.286584,-119.5625786,4502.1846739255,2.952756,0,0.91817260156,5100,2018-04-11 20:31:01,16,0,24.305,4502.1846739255,2.952756,0.223694,0.91817260156,0,0,0,313.9, 2.1, 0.9,0,0,1024,1024,1024,1024,313.4,-89.9,94,3.956,4.006,3.991,4.017,0,0,12.989,69.8,14,Waypoint,
37.286584,-119.5625786,4502.5127579255,3.28084,0,0.91817260156,5200,2018-04-11 20:31:01,16,0,24.305,4502.5127579255,3.28084,0.223694,0.91817260156,0,0,0,314, 1.3, 0.3,0,0,1024,1024,1024,1024,313.4,-90,94,3.956,4.006,3.991,4.017,0,0,12.989,69.8,14,Waypoint,
37.286584,-119.5625787,4502.5127579255,3.28084,0,0.94664045024,5300,2018-04-11 20:31:02,16,0,24.305,4502.5127579255,3.28084,0.223694,0.94664045024,0,0,0,314, 0.9, 0.1,0,0,1024,1024,1024,1024,313.4,-90,94,3.956,4.006,3.991,4.017,0,0,12.989,69.8,14,Waypoint,
37.286584,-119.5625789,4502.5127579255,3.28084,0,1.00366801112,5400,2018-04-11 20:31:02,16,0,24.305,4502.5127579255,3.28084,0.223694,1.00366801112,0,0,0,313.9, 0.7, 0.2,0,0,1024,1024,1024,1024,313.4,-90,94,3.956,4.006,3.991,4.017,0,0,12.989,69.8,14,Waypoint,
37.286584,-119.562579,4502.8408419255,3.608924,0,1.03222772332,5500,2018-04-11 20:31:02,18,0,24.305,4502.8408419255,3.608924,0.223694,1.03222772332,0,0,0,313.9, 0.6, 0.6,0,0,1024,1024,1024,1024,313.4,-90,94,3.956,4.006,3.991,4.017,0,0,12.989,69.8,14,Waypoint,
37.2865839,-119.562579,4502.8408419255,3.608924,0,1.02640751316,5600,2018-04-11 20:31:02,18,0,24.305,4502.8408419255,3.608924,0.223694,1.03222772332,0,0,-0.223694,313.8, 0.7, 1.1,0,0,1024,1024,1024,1024,313.4,-90,94,3.956,4.006,3.991,4.017,0,0,12.989,69.8,14,Waypoint,
37.2865839,-119.5625792,4503.1689259255,3.937008,0,1.08390423416,5700,2018-04-11 20:31:02,17,0,24.305,4503.1689259255,3.937008,0.223694,1.08390423416,0,0,-0.223694,313.7, 0.7, 1.6,0,0,1024,1024,1024,1024,313.4,-90,94,3.956,4.006,3.991,4.017,0,0,12.989,69.8,14,Waypoint,
37.2865839,-119.5625794,4503.4970099255,4.265092,0,1.14146001028,5800,2018-04-11 20:31:02,17,0,24.305,4503.4970099255,4.265092,0.223694,1.14146001028,0,0,-0.223694,313.7, 0.9, 1.8,0,0,1024,1024,1024,1024,313.4,-90,94,3.956,4.006,3.991,4.017,0,0,12.989,69.8,14,Waypoint,
37.286584,-119.5625795,4504.1531779255,4.92126,0,1.17536093,5900,2018-04-11 20:31:02,18,0,24.305,4504.1531779255,4.92126,0.223694,1.17536093,0,0,-0.223694,313.8, 1.1, 1.5,0,0,1024,1024,1024,1024,313.4,-89.9,94,3.956,4.006,3.991,4.017,0,0,12.989,69.8,14,Waypoint,
37.2865842,-119.5625797,4505.4655139255,6.233596,0,1.24563980364,6100,2018-04-11 20:31:02,18,0,24.305,4505.4655139255,6.233596,0.223694,1.24563980364,0,0,-0.447388,314.2, 1.5, 0.9,0,0,1024,1024,1024,1024,313.4,-89.9,94,3.956,4.006,3.991,4.017,0,0,12.989,69.8,14,Waypoint,
37.2865843,-119.5625797,4506.1216819255,6.889764,0,1.25362864904,6200,2018-04-11 20:31:02,16,0,24.305,4506.1216819255,6.889764,0.223694,1.25362864904,0,0,-0.447388,314.2, 1.6, 0.9,0,0,1024,1024,1024,1024,313.4,-89.9,94,3.956,4.006,3.991,4.017,0,0,12.989,69.8,14,Waypoint,
37.2865844,-119.5625797,4506.7778499255,7.545932,0,1.26262143148,6300,2018-04-11 20:31:03,16,0,24.305,4506.7778499255,7.545932,0.223694,1.26262143148,0,0,-0.447388,314.2, 1.7, 0.9,0,0,1024,1024,1024,1024,313.4,-89.9,94,3.956,4.006,3.991,4.017,0,0,12.989,69.8,14,Waypoint,
37.2865845,-119.5625797,4507.4340179255,8.2021,0,1.27259846592,6400,2018-04-11 20:31:03,17,0,24.305,4507.4340179255,8.2021,0.223694,1.27259846592,0,0,-0.447388,314.2, 1.7, 0.9,0,0,1024,1024,1024,1024,313.4,-89.9,94,3.956,4.006,3.991,4.017,0,0,12.989,69.8,14,Waypoint,
37.2865847,-119.5625797,4508.4182699255,9.186352,0,1.29540358476,6500,2018-04-11 20:31:03,17,0,24.305,4508.4182699255,9.186352,0.223694,1.29540358476,0,0,-0.671082,314.1, 1.5, 0.9,0,0,1024,1024,1024,1024,313.4,-89.9,94,3.956,4.006,3.991,4.017,0,0,12.989,69.8,14,Waypoint,
37.286585,-119.5625796,4510.3867739255,11.154856,0,1.30994754848,6710,2018-04-11 20:31:03,17,0,24.305,4510.3867739255,11.154856,0.223694,1.30994754848,0,0,-0.671082,314.2, 1.5, 0.9,0,0,1024,1024,1024,1024,313.4,-89.9,94,3.956,4.006,3.991,4.017,0,0,12.989,69.8,14,Waypoint,
37.2865853,-119.5625796,4512.3552779255,13.12336,0,1.3593176288,6900,2018-04-11 20:31:03,18,0,24.305,4512.3552779255,13.12336,0.223694,1.3593176288,0,0,-0.671082,314.3, 1.7, 0.4,0,0,1024,1024,1024,1024,313.4,-89.9,94,3.956,4.006,3.991,4.017,0,0,12.989,69.8,14,Waypoint,
37.2865855,-119.5625796,4513.6676139255,14.435696,0,1.39603350924,7010,2018-04-11 20:31:03,18,0,23.807,4513.6676139255,14.435696,0.223694,1.39603350924,0,0,-0.671082,314.3, 1.9, 0.3,0,0,1024,1024,1024,1024,313.4,-89.9,94,3.972,3.963,3.97,3.931,0,0,15.956,69.8,14,Waypoint,
37.2865856,-119.5625795,4514.6518659255,15.419948,0,1.39112865344,7100,2018-04-11 20:31:03,18,0,23.807,4514.6518659255,15.419948,0.223694,1.39603350924,0,0,-0.671082,314.3, 2, 0,0,0,1024,1024,1024,1024,313.4,-89.9,94,3.972,3.963,3.97,3.931,0,0,15.956,69.8,14,Waypoint,
37.2865857,-119.5625795,4515.6361179255,16.4042,0,1.41155188244,7200,2018-04-11 20:31:03,18,0,23.807,4515.6361179255,16.4042,0.223694,1.41155188244,0,0,-0.671082,314.3, 1.9, 0,0,0,1024,1024,1024,1024,313.4,-89.9,94,3.972,3.963,3.97,3.931,0,0,15.956,69.8,14,Waypoint,
37.2865859,-119.5625794,4517.9327059255,18.700788,0,1.43121395656,7400,2018-04-11 20:31:04,17,0,23.807,4517.9327059255,18.700788,0.223694,1.43121395656,0,0,-0.671082,314.2, 1.8, -0.1,0,0,1024,1024,1024,1024,313.4,-89.9,94,3.972,3.963,3.97,3.931,0,0,15.956,69.8,14,Waypoint,
37.286586,-119.5625794,4518.9169579255,19.68504,0,1.453822225,7600,2018-04-11 20:31:04,17,0,23.807,4518.9169579255,19.68504,0.223694,1.453822225,0,0,-0.671082,314.2, 1.9, 0,0,0,1024,1024,1024,1024,313.4,-89.9,94,3.972,3.963,3.97,3.931,0,0,15.956,69.8,14,Waypoint,
37.286586,-119.5625794,4519.9012099255,20.669292,0,1.453822225,7700,2018-04-11 20:31:04,16,0,23.807,4519.9012099255,20.669292,0.223694,1.453822225,0,0,-0.671082,314.1, 1.9, 0,0,0,1024,1024,1024,1024,313.4,-89.9,94,3.972,3.963,3.97,3.931,0,0,15.956,69.8,14,Waypoint,
37.286586,-119.5625795,4521.2135459255,21.981628,0,1.47653876116,7800,2018-04-11 20:31:04,16,0,23.807,4521.2135459255,21.981628,0.223694,1.47653876116,0,0,-0.671082,314.1, 2, 0.1,0,0,1024,1024,1024,1024,313.4,-89.9,94,3.972,3.963,3.97,3.931,0,0,15.956,69.8,14,Waypoint,
37.2865859,-119.5625796,4522.1977979255,22.96588,0,1.47756238324,7900,2018-04-11 20:31:04,18,0,23.807,4522.1977979255,22.96588,0.223694,1.47756238324,0,0,-0.671082,314.1, 1.9, 0.3,0,0,1024,1024,1024,1024,313.4,-89.9,94,3.972,3.963,3.97,3.931,0,0,15.956,69.8,14,Waypoint,
37.2865858,-119.5625797,4523.1820499255,23.950132,0.223694,1.48005582164,8000,2018-04-11 20:31:04,18,0,23.043,4523.1820499255,23.950132,0.223694,1.48005582164,0,0,-0.671082,314.1, 1.9, 0.8,0,0,1024,1024,1024,1024,313.4,-89.9,94,3.812,3.868,3.837,3.851,0,0,22.576,69.8,14,Waypoint,
37.2865857,-119.5625798,4524.4943859255,25.262468,0.223694,1.48400923384,8100,2018-04-11 20:31:04,17,0,23.043,4524.4943859255,25.262468,0.223694,1.48400923384,0,0,-0.671082,314, 1.8, 1.2,0,0,1024,1024,1024,1024,313.4,-89.9,94,3.812,3.868,3.837,3.851,0,0,22.576,69.8,14,Waypoint,
37.2865856,-119.5625798,4525.4786379255,26.24672,0.223694,1.4645997844,8200,2018-04-11 20:31:04,17,0,23.043,4525.4786379255,26.24672,0.223694,1.48400923384,0,0,-0.671082,314, 1.8, 1.5,0,0,1024,1024,1024,1024,313.4,-89.9,94,3.812,3.868,3.837,3.851,0,0,22.576,69.8,14,Waypoint,
37.2865854,-119.5625799,4526.4628899255,27.230972,0.223694,1.45322511212,8300,2018-04-11 20:31:05,16,0,23.043,4526.4628899255,27.230972,0.223694,1.48400923384,0,0,-0.671082,314, 1.8, 1.5,0,0,1024,1024,1024,1024,313.4,-89.9,94,3.812,3.868,3.837,3.851,0,0,22.576,69.8,14,Waypoint,
37.2865853,-119.5625801,4527.7752259255,28.543308,0.223694,1.48804794788,8400,2018-04-11 20:31:05,16,0,23.043,4527.7752259255,28.543308,0.223694,1.48804794788,0,0,-0.671082,314, 1.8, 1.8,0,0,1024,1024,1024,1024,313.4,-89.9,94,3.812,3.868,3.837,3.851,0,0,22.576,69.8,14,Waypoint,
37.286585,-119.5625801,4529.7437299255,30.511812,0.223694,1.44308731652,8500,2018-04-11 20:31:05,16,0,23.043,4529.7437299255,30.511812,0.223694,1.48804794788,0,0,-0.671082,314, 1.5, 2.2,0,0,1024,1024,1024,1024,313.4,-90,94,3.812,3.868,3.837,3.851,0,0,22.576,69.8,14,Waypoint,
37.2865848,-119.5625802,4531.0560659255,31.824148,0.223694,1.44440949504,8600,2018-04-11 20:31:05,15,0,23.043,4531.0560659255,31.824148,0.223694,1.48804794788,0,0,-0.671082,314, 1.3, 2,0,0,1024,1024,1024,1024,313.4,-90,94,3.812,3.868,3.837,3.851,0,0,22.576,69.8,14,Waypoint,
37.2865846,-119.5625802,4532.0403179255,32.8084,0.223694,1.42211946808,8700,2018-04-11 20:31:05,15,0,23.043,4532.0403179255,32.8084,0.223694,1.48804794788,0,0,-0.671082,314, 0.9, 2,0,0,1024,1024,1024,1024,313.4,-90,94,3.812,3.868,3.837,3.851,0,0,22.576,69.8,14,Waypoint,
37.2865844,-119.5625803,4533.0245699255,33.792652,0.223694,1.431512513,8800,2018-04-11 20:31:05,17,0,23.043,4533.0245699255,33.792652,0.223694,1.48804794788,0,0,-0.671082,313.9, 0.6, 2.1,0,0,1024,1024,1024,1024,313.4,-90,94,3.812,3.868,3.837,3.851,0,0,22.576,69.8,14,Waypoint,
37.2865843,-119.5625803,4534.0088219255,34.776904,0.223694,1.42358600356,9000,2018-04-11 20:31:05,17,0,23.082,4534.0088219255,34.776904,0.223694,1.48804794788,0,0,-0.671082,313.9, 0.5, 2.1,0,0,1024,1024,1024,1024,313.4,-90,94,3.813,3.86,3.863,3.865,0,0,22.576,69.8,14,Waypoint,
37.286584,-119.5625805,4535.9773259255,36.745408,0,1.46281828828,9100,2018-04-11 20:31:05,17,0,23.082,4535.9773259255,36.745408,0.223694,1.48804794788,0,0,-0.671082,314, 0.6, 2.3,0,0,1024,1024,1024,1024,313.4,-89.9,94,3.813,3.86,3.863,3.865,0,0,22.576,69.8,14,Waypoint,
37.2865838,-119.5625806,4536.9615779255,37.72966,0,1.48446855144,9300,2018-04-11 20:31:06,18,0,23.082,4536.9615779255,37.72966,0.223694,1.48804794788,0,0,-0.671082,314, 0.8, 2.4,0,0,1024,1024,1024,1024,313.4,-89.9,94,3.813,3.86,3.863,3.865,0,0,22.576,69.8,14,Waypoint,
37.2865837,-119.5625806,4537.9458299255,38.713912,0,1.48222445688,9400,2018-04-11 20:31:06,18,0,23.082,4537.9458299255,38.713912,0.223694,1.48804794788,0,0,-0.671082,314, 1.1, 2.5,0,0,1024,1024,1024,1024,313.4,-89.9,94,3.813,3.86,3.863,3.865,0,0,22.576,69.8,14,Waypoint,
37.2865836,-119.5625807,4538.9300819255,39.698164,0,1.50989506144,9500,2018-04-11 20:31:06,17,0,23.082,4538.9300819255,39.698164,0.223694,1.50989506144,0,0,-0.671082,314, 1.2, 2.4,0,0,1024,1024,1024,1024,313.4,-89.9,94,3.813,3.86,3.863,3.865,0,0,22.576,69.8,14,Waypoint,
37.2865835,-119.5625808,4539.9143339255,40.682416,0,1.5384843012,9600,2018-04-11 20:31:06,17,0,23.082,4539.9143339255,40.682416,0.223694,1.5384843012,0,0,-0.671082,314, 1.1, 2.4,0,0,1024,1024,1024,1024,313.4,-89.9,94,3.813,3.86,3.863,3.865,0,0,22.576,69.8,14,Waypoint,
37.2865835,-119.5625808,4540.8985859255,41.666668,0,1.5384843012,9700,2018-04-11 20:31:06,15,0,23.082,4540.8985859255,41.666668,0.223694,1.5384843012,0,0,-0.671082,314, 1.2, 2.2,0,0,1024,1024,1024,1024,313.4,-89.9,94,3.813,3.86,3.863,3.865,0,0,22.576,69.8,14,Waypoint,
37.2865835,-119.5625808,4541.8828379255,42.65092,0,1.5384843012,9800,2018-04-11 20:31:06,15,0,23.082,4541.8828379255,42.65092,0.223694,1.5384843012,0,0,-0.671082,314, 1.4, 2.1,0,0,1024,1024,1024,1024,313.4,-89.9,94,3.813,3.86,3.863,3.865,0,0,22.576,69.8,14,Waypoint,
37.2865835,-119.5625807,4542.8670899255,43.635172,0,1.50945542888,9900,2018-04-11 20:31:06,17,0,23.082,4542.8670899255,43.635172,0.223694,1.5384843012,0,0,-0.671082,313.9, 1.6, 1.9,0,0,1024,1024,1024,1024,313.4,-89.9,94,3.813,3.86,3.863,3.865,0,0,22.576,69.8,14,Waypoint,
37.2865836,-119.5625807,4543.8513419255,44.619424,0,1.50989506144,10000,2018-04-11 20:31:06,17,0,23.299,4543.8513419255,44.619424,0.223694,1.5384843012,0,0,-0.671082,314, 1.8, 1.5,0,0,1024,1024,1024,1024,313.4,-89.9,94,3.834,3.872,3.893,3.887,0,0,18.995,69.8,14,Waypoint,
37.2865836,-119.5625806,4544.8355939255,45.603676,0,1.48087603164,10100,2018-04-11 20:31:06,17,0,23.299,4544.8355939255,45.603676,0.223694,1.5384843012,0,0,-0.671082,314.2, 2, 0.9,0,0,1024,1024,1024,1024,313.4,-89.9,94,3.834,3.872,3.893,3.887,0,0,18.995,69.8,14,Waypoint,
37.2865836,-119.5625805,4545.8198459255,46.587928,0,1.45185700184,10200,2018-04-11 20:31:06,17,0,23.299,4545.8198459255,46.587928,0.223694,1.5384843012,0,0,-0.671082,314.4, 1.8, 0.4,0,0,1024,1024,1024,1024,313.4,-90,94,3.834,3.872,3.893,3.887,0,0,18.995,69.8,14,Waypoint,
37.2865836,-119.5625805,4546.8040979255,47.57218,0,1.45185700184,10300,2018-04-11 20:31:07,18,0,23.299,4546.8040979255,47.57218,0.223694,1.5384843012,0,0,-0.671082,314.5, 1.3, 0.4,0,0,1024,1024,1024,1024,313.4,-90,94,3.834,3.872,3.893,3.887,0,0,18.995,69.8,14,Waypoint,
37.2865836,-119.5625804,4547.7883499255,48.556432,0,1.42283797204,10400,2018-04-11 20:31:07,18,0,23.299,4547.7883499255,48.556432,0.223694,1.5384843012,0,0,-0.671082,314.6, 0.7, 0.5,0,0,1024,1024,1024,1024,313.4,-90,94,3.834,3.872,3.893,3.887,0,0,18.995,69.8,14,Waypoint,
37.2865836,-119.5625804,4548.7726019255,49.540684,0,1.42283797204,10500,2018-04-11 20:31:07,17,0,23.299,4548.7726019255,49.540684,0.223694,1.5384843012,0,0,-0.671082,314.6, 0.8, 1,0,0,1024,1024,1024,1024,313.4,-90,94,3.834,3.872,3.893,3.887,0,0,18.995,69.8,14,Waypoint,
37.2865837,-119.5625804,4549.7568539255,50.524936,0,1.42424217156,10600,2018-04-11 20:31:07,17,0,23.299,4549.7568539255,50.524936,0.223694,1.5384843012,0,0,-0.671082,314.6, 1.2, 1.5,0,0,1024,1024,1024,1024,313.4,-89.9,94,3.834,3.872,3.893,3.887,0,0,18.995,69.8,14,Waypoint,
37.2865838,-119.5625804,4550.7411059255,51.509188,0,1.4265748488,10700,2018-04-11 20:31:07,19,0,23.299,4550.7411059255,51.509188,0.223694,1.5384843012,0,0,-0.671082,314.6, 1.6, 1.9,0,0,1024,1024,1024,1024,313.4,-89.9,94,3.834,3.872,3.893,3.887,0,0,18.995,69.8,14,Waypoint,
37.2865839,-119.5625805,4553.0376939255,53.805776,0,1.45871723828,10800,2018-04-11 20:31:07,18,0,23.299,4553.0376939255,53.805776,0.223694,1.5384843012,0,0,-0.671082,314.1, 2.5, 2.2,0,0,1024,1024,1024,1024,313.4,-89.9,94,3.834,3.872,3.893,3.887,0,0,18.995,69.8,14,Waypoint,
37.286584,-119.5625806,4554.0219459255,54.790028,0,1.49162406348,10900,2018-04-11 20:31:07,18,0,23.299,4554.0219459255,54.790028,0.223694,1.5384843012,0,0,-0.671082,313.8, 3.3, 2,0,0,1024,1024,1024,1024,313.4,-89.9,94,3.834,3.872,3.893,3.887,0,0,18.995,69.8,14,Waypoint,
37.2865843,-119.5625806,4555.9904499255,56.758532,0,1.50892721364,11100,2018-04-11 20:31:07,17,0,23.299,4555.9904499255,56.758532,0.223694,1.5384843012,0,0,-0.671082,313.7, 3.8, 0.6,0,0,1024,1024,1024,1024,313.4,-89.9,94,3.834,3.872,3.893,3.887,0,0,18.995,69.8,14,Waypoint,
37.2865845,-119.5625807,4556.9747019255,57.742784,0,1.55292327804,11200,2018-04-11 20:31:07,19,0,23.299,4556.9747019255,57.742784,0.223694,1.55292327804,0,0,-0.671082,313.9, 3.8, 0.6,0,0,1024,1024,1024,1024,313.4,-89.9,94,3.834,3.872,3.893,3.887,0,0,18.995,69.8,14,Waypoint,
37.2865847,-119.5625809,4558.9432059255,59.711288,0,1.62750661376,11410,2018-04-11 20:31:08,18,0,23.299,4558.9432059255,59.711288,0.223694,1.62750661376,0,0,-0.671082,314.3, 4.5, 1.6,0,0,1024,1024,1024,1024,313.4,-89.9,94,3.834,3.872,3.893,3.887,0,0,18.995,69.8,14,Waypoint,
37.2865849,-119.562581,4559.9274579255,60.69554,0.223694,1.67625989616,11500,2018-04-11 20:31:08,18,0,23.299,4559.9274579255,60.69554,0.223694,1.67625989616,0,0,-0.671082,314.4, 4.8, 1.9,0,0,1024,1024,1024,1024,313.4,-89.9,94,3.834,3.872,3.893,3.887,0,0,18.995,69.8,14,Waypoint,
37.286585,-119.5625812,4560.9117099255,61.679792,0.223694,1.74275596128,11600,2018-04-11 20:31:08,19,0,23.299,4560.9117099255,61.679792,0.223694,1.74275596128,0,0,-0.671082,314.4, 5.2, 2,0,0,1024,1024,1024,1024,313.4,-89.9,94,3.834,3.872,3.893,3.887,0,0,18.995,69.8,14,Waypoint,
37.2865851,-119.5625814,4561.8959619255,62.664044,0.223694,1.80940622588,11710,2018-04-11 20:31:08,19,0,23.299,4561.8959619255,62.664044,0.223694,1.80940622588,0,0,-0.671082,314.4, 5.6, 2.1,0,0,1024,1024,1024,1024,313.4,-89.9,94,3.834,3.872,3.893,3.887,0,0,18.995,69.8,14,Waypoint,
37.2865853,-119.5625815,4562.8802139255,63.648296,0,1.86138129316,11800,2018-04-11 20:31:08,19,0,23.299,4562.8802139255,63.648296,0.223694,1.86138129316,0,0,-0.671082,314.4, 5.7, 2.2,0,0,1024,1024,1024,1024,313.4,-89.9,94,3.834,3.872,3.893,3.887,0,0,18.995,69.8,14,Waypoint,
37.2865854,-119.5625816,4563.8644659255,64.632548,0,1.90156502148,11910,2018-04-11 20:31:08,19,0,23.299,4563.8644659255,64.632548,0.223694,1.90156502148,0,0,-0.671082,314.4, 5.8, 2.3,0,0,1024,1024,1024,1024,313.4,-89.9,94,3.834,3.872,3.893,3.887,0,0,18.995,69.8,14,Waypoint,
37.2865855,-119.5625817,4564.8487179255,65.6168,0,1.94203746372,12100,2018-04-11 20:31:08,18,0,23.299,4564.8487179255,65.6168,0.223694,1.94203746372,0,0,-0.671082,314.4, 5.8, 2.4,0,0,1024,1024,1024,1024,313.4,-89.9,94,3.834,3.872,3.893,3.887,0,0,18.995,69.8,14,Waypoint,
37.2865856,-119.5625818,4565.8329699255,66.601052,0,1.98277893484,12200,2018-04-11 20:31:08,18,0,23.299,4565.8329699255,66.601052,0.223694,1.98277893484,0,0,-0.671082,314.3, 5.9, 2.5,0,0,1024,1024,1024,1024,313.4,-89.9,94,3.834,3.872,3.893,3.887,0,0,18.995,69.8,14,Waypoint,
37.2865857,-119.5625819,4566.8172219255,67.585304,0,2.02377303064,12300,2018-04-11 20:31:09,18,0,23.299,4566.8172219255,67.585304,0.223694,2.02377303064,0,0,-0.671082,314.2, 6, 2.5,0,0,1024,1024,1024,1024,313.4,-89.9,94,3.834,3.872,3.893,3.887,0,0,18.995,69.8,14,Waypoint,
37.2865857,-119.562582,4567.8014739255,68.569556,0,2.05045282152,12400,2018-04-11 20:31:09,18,0,23.299,4567.8014739255,68.569556,0.223694,2.05045282152,0,0,-0.671082,314.1, 6, 2.2,0,0,1024,1024,1024,1024,313.4,-89.9,94,3.834,3.872,3.893,3.887,0,0,18.995,69.8,14,Waypoint,
37.2865858,-119.5625821,4568.7857259255,69.553808,0,2.09156502756,12500,2018-04-11 20:31:09,19,0,23.299,4568.7857259255,69.553808,0.223694,2.09156502756,0,0,-0.671082,314.1, 6, 2.1,0,0,1024,1024,1024,1024,313.4,-89.9,94,3.834,3.872,3.893,3.887,0,0,18.995,69.8,14,Waypoint,
37.2865859,-119.5625821,4569.7699779255,70.53806,0,2.10646988368,12600,2018-04-11 20:31:09,19,0,23.299,4569.7699779255,70.53806,0.223694,2.10646988368,0,0,-0.671082,314.1, 5.7, 2,0,0,1024,1024,1024,1024,313.4,-89.9,94,3.834,3.872,3.893,3.887,0,0,18.995,69.8,14,Waypoint,
37.286586,-119.5625822,4570.7542299255,71.522312,0,2.14813983252,12700,2018-04-11 20:31:09,19,0,23.299,4570.7542299255,71.522312,0.223694,2.14813983252,0,0,-0.671082,314.1, 5.5, 1.8,0,0,1024,1024,1024,1024,313.4,-90,94,3.834,3.872,3.893,3.887,0,0,18.995,69.8,14,Waypoint,
37.286586,-119.5625823,4571.7384819255,72.506564,0,2.17445545016,12800,2018-04-11 20:31:09,19,0,23.299,4571.7384819255,72.506564,0.223694,2.17445545016,0,0,-0.671082,314.2, 5.4, 2.1,0,0,1024,1024,1024,1024,313.4,-89.9,94,3.834,3.872,3.893,3.887,0,0,18.995,69.8,14,Waypoint,
37.286586,-119.5625823,4572.7227339255,73.490816,0,2.17445545016,12900,2018-04-11 20:31:09,19,0,23.299,4572.7227339255,73.490816,0.223694,2.17445545016,0,0,-0.671082,314.2, 5.6, 2.4,0,0,1024,1024,1024,1024,313.4,-89.9,94,3.834,3.872,3.893,3.887,0,0,18.995,69.8,14,Waypoint,
37.286586,-119.5625824,4573.7069859255,74.475068,0,2.20083996544,13000,2018-04-11 20:31:09,19,0,23.028,4573.7069859255,74.475068,0.223694,2.20083996544,0,0,-0.671082,314.2, 5.6, 2.7,0,0,1024,1024,1024,1024,313.4,-90,93,3.809,3.854,3.839,3.836,0,0,19.742,69.8,14,Waypoint,
37.286586,-119.5625824,4574.6912379255,75.45932,0,2.20083996544,13100,2018-04-11 20:31:09,19,0,23.028,4574.6912379255,75.45932,0.223694,2.20083996544,0,0,-0.671082,314.1, 5.4, 2.9,0,0,1024,1024,1024,1024,313.4,-90,93,3.809,3.854,3.839,3.836,0,0,19.742,69.8,14,Waypoint,
37.286586,-119.5625825,4575.6754899255,76.443572,0,2.22729009752,13200,2018-04-11 20:31:09,19,0,23.028,4575.6754899255,76.443572,0.223694,2.22729009752,0,0,-0.671082,314.1, 5.2, 2.9,0,0,1024,1024,1024,1024,313.4,-90,93,3.809,3.854,3.839,3.836,0,0,19.742,69.8,14,Waypoint,
37.286586,-119.5625825,4577.6439939255,78.412076,0,2.22729009752,13300,2018-04-11 20:31:10,19,0,23.028,4577.6439939255,78.412076,0.223694,2.22729009752,0,0,-0.671082,314, 4.9, 2.5,0,0,1024,1024,1024,1024,313.4,-90,93,3.809,3.854,3.839,3.836,0,0,19.742,69.8,14,Waypoint,
37.2865859,-119.5625825,4578.6282459255,79.396328,0,2.212598496,13400,2018-04-11 20:31:10,19,0,23.028,4578.6282459255,79.396328,0.223694,2.22729009752,0,0,-0.671082,314, 4.9, 2.5,0,0,1024,1024,1024,1024,313.4,-90,93,3.809,3.854,3.839,3.836,0,0,19.742,69.8,14,Waypoint,
37.2865859,-119.5625825,4579.6124979255,80.38058,0,2.212598496,13500,2018-04-11 20:31:10,19,0,23.028,4579.6124979255,80.38058,0.223694,2.22729009752,0,0,-0.671082,314, 4.7, 2.6,0,0,1024,1024,1024,1024,313.4,-90,93,3.809,3.854,3.839,3.836,0,0,19.742,69.8,14,Waypoint,
37.2865859,-119.5625825,4580.5967499255,81.364832,0,2.212598496,13600,2018-04-11 20:31:10,19,0,23.028,4580.5967499255,81.364832,0.223694,2.22729009752,0,0,-0.671082,314.1, 4.7, 2.6,0,0,1024,1024,1024,1024,313.4,-90,93,3.809,3.854,3.839,3.836,0,0,19.742,69.8,14,Waypoint,
37.2865859,-119.5625825,4581.5810019255,82.349084,0,2.212598496,13700,2018-04-11 20:31:10,19,0,23.028,4581.5810019255,82.349084,0.223694,2.22729009752,0,0,-0.671082,314.1, 4.6, 2.7,0,0,1024,1024,1024,1024,313.4,-90,93,3.809,3.854,3.839,3.836,0,0,19.742,69.8,14,Waypoint,
37.2865858,-119.5625825,4582.5652539255,83.333336,0,2.19841542468,13800,2018-04-11 20:31:10,19,0,23.028,4582.5652539255,83.333336,0.223694,2.22729009752,0,0,-0.671082,314.1, 4.7, 2.7,0,0,1024,1024,1024,1024,313.4,-89.9,93,3.809,3.854,3.839,3.836,0,0,19.742,69.8,14,Waypoint,
37.2865858,-119.5625824,4583.5495059255,84.317588,0,2.17161424272,13910,2018-04-11 20:31:10,19,0,23.028,4583.5495059255,84.317588,0.223694,2.22729009752,0,0,-0.671082,314.1, 4.9, 2.6,0,0,1024,1024,1024,1024,313.4,-89.9,93,3.809,3.854,3.839,3.836,0,0,19.742,69.8,14,Waypoint,
37.2865858,-119.5625824,4584.5337579255,85.30184,0,2.17161424272,14000,2018-04-11 20:31:10,19,0,23.006,4584.5337579255,85.30184,0.223694,2.22729009752,0,0,-0.671082,314.1, 4.8, 2.6,0,0,1024,1024,1024,1024,313.4,-90,93,3.794,3.844,3.843,3.842,0,0,20.103,69.8,14,Waypoint,
37.2865858,-119.5625824,4585.5180099255,86.286092,0,2.17161424272,14120,2018-04-11 20:31:10,19,0,23.006,4585.5180099255,86.286092,0.223694,2.22729009752,0,0,-0.671082,314, 4.7, 2.5,0,0,1024,1024,1024,1024,313.4,-90,93,3.794,3.844,3.843,3.842,0,0,20.103,69.8,14,Waypoint,
37.2865857,-119.5625824,4586.1741779255,86.94226,0,2.15777894044,14220,2018-04-11 20:31:10,19,0,23.006,4586.1741779255,86.94226,0.223694,2.22729009752,0,0,-0.671082,314.1, 4.7, 2.4,0,0,1024,1024,1024,1024,313.4,-90,93,3.794,3.844,3.843,3.842,0,0,20.103,69.8,14,Waypoint,
37.2865857,-119.5625823,4587.1584299255,87.926512,0,2.13085964824,14400,2018-04-11 20:31:11,19,0,23.006,4587.1584299255,87.926512,0.223694,2.22729009752,0,0,-0.671082,314.1, 4.5, 2.5,0,0,1024,1024,1024,1024,313.4,-90,93,3.794,3.844,3.843,3.842,0,0,20.103,69.8,14,Waypoint,
37.2865857,-119.5625823,4588.4707659255,89.238848,0,2.13085964824,14500,2018-04-11 20:31:11,19,0,23.006,4588.4707659255,89.238848,0.223694,2.22729009752,0,0,-0.671082,314.1, 4.6, 2.4,0,0,1024,1024,1024,1024,313.4,-89.9,93,3.794,3.844,3.843,3.842,0,0,20.103,69.8,14,Waypoint,
37.2865856,-119.5625824,4589.4550179255,90.2231,0,2.14447513424,14600,2018-04-11 20:31:11,19,0,23.006,4589.4550179255,90.2231,0.223694,2.22729009752,0,0,-0.671082,314.1, 4.9, 2.8,0,0,1024,1024,1024,1024,313.4,-89.9,93,3.794,3.844,3.843,3.842,0,0,20.103,69.8,14,Waypoint,
37.2865856,-119.5625824,4590.4392699255,91.207352,0,2.14447513424,14700,2018-04-11 20:31:11,19,0,23.006,4590.4392699255,91.207352,0.223694,2.22729009752,0,0,-0.671082,314.1, 4.9, 2.9,0,0,1024,1024,1024,1024,313.4,-89.9,93,3.794,3.844,3.843,3.842,0,0,20.103,69.8,14,Waypoint,
37.2865856,-119.5625824,4591.4235219255,92.191604,0,2.14447513424,14800,2018-04-11 20:31:11,19,0,23.006,4591.4235219255,92.191604,0.223694,2.22729009752,0,0,-0.671082,314.1, 5, 2.9,0,0,1024,1024,1024,1024,313.4,-89.9,93,3.794,3.844,3.843,3.842,0,0,20.103,69.8,14,Waypoint,
37.2865855,-119.5625824,4592.0796899255,92.847772,0,2.1317093858,14900,2018-04-11 20:31:11,19,0,23.006,4592.0796899255,92.847772,0.223694,2.22729009752,0,0,-0.671082,314, 5.1, 2.5,0,0,1024,1024,1024,1024,313.4,-89.9,93,3.794,3.844,3.843,3.842,0,0,20.103,69.8,14,Waypoint,
37.2865855,-119.5625824,4593.0639419255,93.832024,0,2.1317093858,15000,2018-04-11 20:31:11,19,0,23.042,4593.0639419255,93.832024,0.223694,2.22729009752,0,0,-0.671082,314, 5.1, 2.1,0,0,1024,1024,1024,1024,313.4,-89.9,93,3.794,3.844,3.843,3.842,0,0,19.697,69.8,14,Waypoint,
37.2865855,-119.5625823,4594.0481939255,94.816276,0,2.10445872876,15100,2018-04-11 20:31:11,19,0,23.042,4594.0481939255,94.816276,0.223694,2.22729009752,0,0,-0.671082,313.9, 5.4, 2,0,0,1024,1024,1024,1024,313.4,-89.9,93,3.794,3.844,3.843,3.842,0,0,19.697,69.8,14,Waypoint,
37.2865855,-119.5625823,4595.0324459255,95.800528,0,2.10445872876,15200,2018-04-11 20:31:11,19,0,23.042,4595.0324459255,95.800528,0.223694,2.22729009752,0,0,-0.671082,313.8, 5.3, 1.7,0,0,1024,1024,1024,1024,313.4,-90,93,3.794,3.844,3.843,3.842,0,0,19.697,69.8,14,Waypoint,
37.2865854,-119.5625822,4596.0166979255,96.78478,0,2.06472447552,15300,2018-04-11 20:31:12,19,0,23.042,4596.0166979255,96.78478,0.223694,2.22729009752,0,0,-0.671082,313.8, 5.1, 1.8,0,0,1024,1024,1024,1024,313.4,-89.9,93,3.794,3.844,3.843,3.842,0,0,19.697,69.8,14,Waypoint,
37.2865853,-119.5625822,4597.0009499255,97.769032,0,2.05276253288,15400,2018-04-11 20:31:12,19,0,23.042,4597.0009499255,97.769032,0.223694,2.22729009752,0,0,-0.671082,313.6, 5.1, 2.4,0,0,1024,1024,1024,1024,313.4,-90,93,3.794,3.844,3.843,3.842,0,0,19.697,69.8,14,Waypoint,
37.2865853,-119.5625821,4597.9852019255,98.753284,0.223694,2.0252789362,15500,2018-04-11 20:31:12,19,0,23.042,4597.9852019255,98.753284,0.223694,2.22729009752,0,0,-0.671082,313.4, 5, 3.2,0,0,1024,1024,1024,1024,313.4,-90,93,3.794,3.844,3.843,3.842,0,0,19.697,69.8,14,Waypoint,
37.2865851,-119.562582,4599.9537059255,100.721788,0,1.97505911832,15600,2018-04-11 20:31:12,19,0,23.042,4599.9537059255,100.721788,0.223694,2.22729009752,0,0,-0.671082,313.7, 4.1, 3.2,0,0,1024,1024,1024,1024,313.4,-90,93,3.794,3.844,3.843,3.842,0,0,19.697,69.8,14,Waypoint,
37.286585,-119.5625819,4601.2660419255,102.034124,0,1.93672250292,15700,2018-04-11 20:31:12,19,0,23.042,4601.2660419255,102.034124,0.223694,2.22729009752,0,0,-0.671082,314.1, 4.2, 3.3,0,0,1024,1024,1024,1024,313.4,-89.9,93,3.794,3.844,3.843,3.842,0,0,19.697,69.8,14,Waypoint,
37.286585,-119.5625819,4602.2502939255,103.018376,0,1.93672250292,15800,2018-04-11 20:31:12,20,0,23.042,4602.2502939255,103.018376,0.223694,2.22729009752,0,0,-0.671082,314.3, 4.2, 3.4,0,0,1024,1024,1024,1024,313.4,-90,93,3.794,3.844,3.843,3.842,0,0,19.697,69.8,14,Waypoint,
37.2865849,-119.5625818,4603.2345459255,104.002628,0,1.89875662244,15900,2018-04-11 20:31:12,20,0,23.042,4603.2345459255,104.002628,0.223694,2.22729009752,0,0,-0.671082,314.4, 4.3, 3.7,0,0,1024,1024,1024,1024,313.4,-89.9,93,3.794,3.844,3.843,3.842,0,0,19.697,69.8,14,Waypoint,
37.2865849,-119.5625817,4604.2187979255,104.98688,0,1.870816989,16000,2018-04-11 20:31:12,20,0,23.042,4604.2187979255,104.98688,0.223694,2.22729009752,0,0,-0.671082,314.4, 4.4, 3.4,0,0,1024,1024,1024,1024,313.4,-89.9,93,3.82,3.854,3.841,3.837,0,0,19.697,69.8,14,Waypoint,
37.2865849,-119.5625816,4605.2030499255,105.971132,0,1.84290688312,16100,2018-04-11 20:31:12,20,0,23.042,4605.2030499255,105.971132,0.223694,2.22729009752,0,0,-0.671082,314.5, 4.6, 2.8,0,0,1024,1024,1024,1024,313.4,-89.9,93,3.82,3.854,3.841,3.837,0,0,19.697,69.8,14,Waypoint,
37.2865848,-119.5625816,4606.1873019255,106.955384,0,1.83312997992,16200,2018-04-11 20:31:12,20,0,23.042,4606.1873019255,106.955384,0.223694,2.22729009752,0,0,-0.671082,314.5, 4.5, 2.7,0,0,1024,1024,1024,1024,313.4,-90,93,3.82,3.854,3.841,3.837,0,0,19.697,69.8,14,Waypoint,
37.2865848,-119.5625815,4607.1715539255,107.939636,0,1.80510504464,16300,2018-04-11 20:31:13,20,0,23.042,4607.1715539255,107.939636,0.223694,2.22729009752,0,0,-0.671082,314.5, 4.1, 2.7,0,0,1024,1024,1024,1024,313.4,-90,93,3.82,3.854,3.841,3.837,0,0,19.697,69.8,14,Waypoint,
37.2865847,-119.5625814,4608.1558059255,108.923888,0,1.76772643452,16400,2018-04-11 20:31:13,20,0,23.042,4608.1558059255,108.923888,0.223694,2.22729009752,0,0,-0.671082,314.4, 3.9, 2.9,0,0,1024,1024,1024,1024,313.4,-90,93,3.82,3.854,3.841,3.837,0,0,19.697,69.8,14,Waypoint,
37.2865847,-119.5625813,4609.1400579255,109.90814,0,1.73961947824,16500,2018-04-11 20:31:13,20,0,23.042,4609.1400579255,109.90814,0.223694,2.22729009752,0,0,-0.671082,314.2, 3.8, 3.2,0,0,1024,1024,1024,1024,313.4,-90,93,3.82,3.854,3.841,3.837,0,0,19.697,69.8,14,Waypoint,
37.2865846,-119.5625812,4610.1243099255,110.892392,0,1.70257223296,16700,2018-04-11 20:31:13,20,0,23.042,4610.1243099255,110.892392,0.223694,2.22729009752,0,0,-0.671082,314.1, 3.6, 3.3,0,0,1024,1024,1024,1024,313.4,-90,93,3.82,3.854,3.841,3.837,0,0,19.697,69.8,14,Waypoint,
37.2865846,-119.5625812,4611.1085619255,111.876644,0,1.70257223296,16800,2018-04-11 20:31:13,20,0,23.042,4611.1085619255,111.876644,0.223694,2.22729009752,0,0,-0.671082,314.1, 3.8, 3,0,0,1024,1024,1024,1024,313.4,-90,93,3.82,3.854,3.841,3.837,0,0,19.697,69.8,14,Waypoint,
37.2865846,-119.5625811,4611.7647299255,112.532812,0,1.674376694,16900,2018-04-11 20:31:13,20,0,23.042,4611.7647299255,112.532812,0.223694,2.22729009752,0,0,-0.671082,314.1, 3.8, 2.6,0,0,1024,1024,1024,1024,313.4,-90,93,3.82,3.854,3.841,3.837,0,0,19.697,69.8,14,Waypoint,
37.2865847,-119.562581,4612.7489819255,113.517064,0,1.65548233644,17000,2018-04-11 20:31:13,20,0,22.878,4612.7489819255,113.517064,0.223694,2.22729009752,0,0,-0.671082,314.1, 3.8, 2.5,0,0,1024,1024,1024,1024,313.4,-90,93,3.778,3.842,3.817,3.814,0,0,20.265,69.8,14,Waypoint,
37.2865847,-119.5625808,4614.7174859255,115.485568,0,1.59956698032,17200,2018-04-11 20:31:13,20,0,22.878,4614.7174859255,115.485568,0.223694,2.22729009752,0,0,-0.671082,314.1, 3.7, 2.6,0,0,1024,1024,1024,1024,313.4,-90,93,3.778,3.842,3.817,3.814,0,0,20.265,69.8,14,Waypoint,
37.2865847,-119.5625808,4615.3736539255,116.141736,0,1.59956698032,17300,2018-04-11 20:31:14,19,0,22.878,4615.3736539255,116.141736,0.223694,2.22729009752,0,0,-0.671082,314.1, 4, 2.7,0,0,1024,1024,1024,1024,313.4,-90,93,3.778,3.842,3.817,3.814,0,0,20.265,69.8,14,Waypoint,
37.2865848,-119.5625807,4617.3421579255,118.11024,0,1.5822178984,17500,2018-04-11 20:31:14,20,0,22.878,4617.3421579255,118.11024,0.223694,2.22729009752,0,0,-0.671082,314, 4.5, 2.8,0,0,1024,1024,1024,1024,313.4,-89.9,93,3.778,3.842,3.817,3.814,0,0,20.265,69.8,14,Waypoint,
37.2865849,-119.5625806,4618.3264099255,119.094492,0,1.56606960392,17600,2018-04-11 20:31:14,20,0,22.878,4618.3264099255,119.094492,0.223694,2.22729009752,0,0,-0.671082,313.8, 4.8, 2.5,0,0,1024,1024,1024,1024,313.4,-89.9,93,3.778,3.842,3.817,3.814,0,0,20.265,69.8,14,Waypoint,
37.286585,-119.5625805,4619.6387459255,120.406828,0,1.55115162444,17700,2018-04-11 20:31:14,19,0,22.878,4619.6387459255,120.406828,0.223694,2.22729009752,0,0,-0.671082,313.6, 5.1, 2.5,0,0,1024,1024,1024,1024,313.4,-89.9,93,3.778,3.842,3.817,3.814,0,0,20.265,69.8,14,Waypoint,
37.2865851,-119.5625804,4620.6229979255,121.39108,0,1.53750333004,17800,2018-04-11 20:31:14,19,0,22.878,4620.6229979255,121.39108,0.223694,2.22729009752,0,0,-0.671082,313.5, 5.1, 2.3,0,0,1024,1024,1024,1024,313.4,-89.9,93,3.778,3.842,3.817,3.814,0,0,20.265,69.8,14,Waypoint,
37.2865852,-119.5625803,4621.6072499255,122.375332,0,1.52515752912,17900,2018-04-11 20:31:14,19,0,22.878,4621.6072499255,122.375332,0.223694,2.22729009752,0,0,-0.671082,313.5, 5.2, 1.7,0,0,1024,1024,1024,1024,313.4,-89.9,93,3.778,3.842,3.817,3.814,0,0,20.265,69.8,14,Waypoint,
37.2865853,-119.5625803,4622.5915019255,123.359584,0,1.54035766084,18000,2018-04-11 20:31:14,19,0,22.982,4622.5915019255,123.359584,0.223694,2.22729009752,0,0,-0.671082,313.5, 5.2, 1.3,0,0,1024,1024,1024,1024,313.4,-89.9,93,3.796,3.848,3.819,3.818,0,0,19.129,69.8,14,Waypoint,
37.2865854,-119.5625802,4623.5757539255,124.343836,0,1.53032813296,18100,2018-04-11 20:31:14,20,0,22.982,4623.5757539255,124.343836,0.223694,2.22729009752,0,0,-0.671082,313.6, 5.1, 1.5,0,0,1024,1024,1024,1024,313.4,-89.9,93,3.796,3.848,3.819,3.818,0,0,19.129,69.8,14,Waypoint,
37.2865854,-119.5625801,4624.8880899255,125.656172,0,1.50450464132,18200,2018-04-11 20:31:14,20,0,22.982,4624.8880899255,125.656172,0.223694,2.22729009752,0,0,-0.671082,313.8, 5.3, 1.5,0,0,1024,1024,1024,1024,313.4,-89.9,93,3.796,3.848,3.819,3.818,0,0,19.129,69.8,14,Waypoint,
37.2865855,-119.5625801,4625.8723419255,126.640424,0,1.52166015368,18300,2018-04-11 20:31:15,19,0,22.982,4625.8723419255,126.640424,0.223694,2.22729009752,0,0,-0.671082,313.9, 5.3, 1.5,0,0,1024,1024,1024,1024,313.4,-89.9,93,3.796,3.848,3.819,3.818,0,0,19.129,69.8,14,Waypoint,
37.2865856,-119.56258,4627.8408459255,128.608928,0,1.51437996972,18400,2018-04-11 20:31:15,20,0,22.982,4627.8408459255,128.608928,0.223694,2.22729009752,0,0,-0.671082,314.1, 5, 1.5,0,0,1024,1024,1024,1024,313.4,-89.9,93,3.796,3.848,3.819,3.818,0,0,19.129,69.8,14,Waypoint,
37.2865856,-119.5625799,4628.8250979255,129.59318,0,1.48941605816,18500,2018-04-11 20:31:15,20,0,22.982,4628.8250979255,129.59318,0.223694,2.22729009752,0,0,-0.671082,314.1, 4.6, 1.3,0,0,1024,1024,1024,1024,313.4,-90,93,3.796,3.848,3.819,3.818,0,0,19.129,69.8,14,Waypoint,
37.2865856,-119.5625799,4629.8093499255,130.577432,0,1.48941605816,18600,2018-04-11 20:31:15,20,0,22.982,4629.8093499255,130.577432,0.223694,2.22729009752,0,0,-0.671082,314, 4.6, 1.3,0,0,1024,1024,1024,1024,313.4,-89.9,93,3.796,3.848,3.819,3.818,0,0,19.129,69.8,14,Waypoint,
37.2865856,-119.5625799,4630.7936019255,131.561684,0,1.48941605816,18700,2018-04-11 20:31:15,20,0,22.982,4630.7936019255,131.561684,0.223694,2.22729009752,0,0,-0.671082,313.8, 5, 1.7,0,0,1024,1024,1024,1024,313.4,-89.9,93,3.796,3.848,3.819,3.818,0,0,19.129,69.8,14,Waypoint,
37.2865856,-119.5625798,4631.7778539255,132.545936,0,1.4645997844,18800,2018-04-11 20:31:15,20,0,22.982,4631.7778539255,132.545936,0.223694,2.22729009752,0,0,-0.671082,313.6, 5.3, 1.7,0,0,1024,1024,1024,1024,313.4,-89.9,93,3.796,3.848,3.819,3.818,0,0,19.129,69.8,14,Waypoint,
37.2865856,-119.5625798,4632.7621059255,133.530188,0,1.4645997844,19000,2018-04-11 20:31:15,20,0,22.694,4632.7621059255,133.530188,0.223694,2.22729009752,0,0,-0.671082,313.4, 5.1, 1.4,0,0,1024,1024,1024,1024,313.4,-89.9,93,3.753,3.809,3.782,3.777,0,0,21.711,69.8,14,Waypoint,
37.2865856,-119.5625797,4635.0586939255,135.826776,0,1.43994099096,19110,2018-04-11 20:31:15,20,0,22.694,4635.0586939255,135.826776,0.223694,2.22729009752,0,0,-0.671082,313.2, 5.1, 1.3,0,0,1024,1024,1024,1024,313.4,-89.9,93,3.753,3.809,3.782,3.777,0,0,21.711,69.8,14,Waypoint,
37.2865856,-119.5625797,4636.0429459255,136.811028,0,1.43994099096,19210,2018-04-11 20:31:15,20,0,22.694,4636.0429459255,136.811028,0.223694,2.22729009752,0,0,-0.671082,313.1, 5.1, 1.3,0,0,1024,1024,1024,1024,313.4,-89.9,93,3.753,3.809,3.782,3.777,0,0,21.711,69.8,14,Waypoint,
37.2865856,-119.5625797,4636.0429459255,136.811028,0,1.43994099096,19310,2018-04-11 20:31:16,20,0,22.694,4636.0429459255,136.811028,0.223694,2.22729009752,0,0,-0.671082,313.1, 5.1, 1.3,0,0,1024,1024,1024,1024,313.4,-89.9,93,3.753,3.809,3.782,3.777,0,0,21.711,69.8,14,Waypoint,
37.2865857,-119.5625797,4637.0271979255,137.79528,0,1.4596785244,19410,2018-04-11 20:31:16,20,0,22.694,4637.0271979255,137.79528,0.223694,2.22729009752,0,0,-0.671082,313, 4.9, 1.3,0,0,1024,1024,1024,1024,313.4,-90,93,3.753,3.809,3.782,3.777,0,0,21.711,69.8,14,Waypoint,
37.2865856,-119.5625797,4638.0114499255,138.779532,0,1.43994099096,19510,2018-04-11 20:31:16,20,0,22.694,4638.0114499255,138.779532,0.223694,2.22729009752,0,0,-0.671082,312.9, 5, 1.3,0,0,1024,1024,1024,1024,313.4,-90,93,3.753,3.809,3.782,3.777,0,0,21.711,69.8,14,Waypoint,
37.2865856,-119.5625797,4638.9957019255,139.763784,0,1.43994099096,19610,2018-04-11 20:31:16,20,0,22.694,4638.9957019255,139.763784,0.223694,2.22729009752,0,0,-0.671082,312.8, 5, 0.8,0,0,1024,1024,1024,1024,313.4,-89.9,93,3.753,3.809,3.782,3.777,0,0,21.711,69.8,14,Waypoint,
37.2865856,-119.5625797,4639.9799539255,140.748036,0,1.43994099096,19710,2018-04-11 20:31:16,20,0,22.694,4639.9799539255,140.748036,0.223694,2.22729009752,0,0,-0.671082,312.9, 4.7, 1,0,0,1024,1024,1024,1024,313.4,-89.9,93,3.753,3.809,3.782,3.777,0,0,21.711,69.8,14,Waypoint,
37.2865856,-119.5625797,4640.9642059255,141.732288,0,1.43994099096,19810,2018-04-11 20:31:16,20,0,22.694,4640.9642059255,141.732288,0.223694,2.22729009752,0,0,-0.671082,313.2, 4.6, 1.4,0,0,1024,1024,1024,1024,313.4,-89.9,93,3.753,3.809,3.782,3.777,0,0,21.711,69.8,14,Waypoint,
37.2865856,-119.5625797,4641.9484579255,142.71654,0,1.43994099096,20010,2018-04-11 20:31:16,20,0,22.881,4641.9484579255,142.71654,0.223694,2.22729009752,0,0,-0.671082,313.6, 4.8, 1.7,0,0,1024,1024,1024,1024,313.4,-89.9,93,3.795,3.834,3.82,3.82,0,0,19.473,69.8,14,Waypoint,
37.2865856,-119.5625797,4642.9327099255,143.700792,0,1.43994099096,20210,2018-04-11 20:31:16,20,0,22.881,4642.9327099255,143.700792,0.223694,2.22729009752,0,0,-0.671082,314, 4.9, 1.7,0,0,1024,1024,1024,1024,313.4,-90,93,3.795,3.834,3.82,3.82,0,0,19.473,69.8,14,Waypoint,
37.2865855,-119.5625797,4643.9169619255,144.685044,0,1.42086290636,20310,2018-04-11 20:31:17,20,0,22.881,4643.9169619255,144.685044,0.223694,2.22729009752,0,0,-0.671082,314.3, 4.7, 1.5,0,0,1024,1024,1024,1024,313.4,-90,93,3.795,3.834,3.82,3.82,0,0,19.473,69.8,14,Waypoint,
37.2865855,-119.5625798,4644.9012139255,145.669296,0,1.44584650296,20410,2018-04-11 20:31:17,20,0,22.881,4644.9012139255,145.669296,0.223694,2.22729009752,0,0,-0.671082,314.6, 4.4, 1.4,0,0,1024,1024,1024,1024,313.4,-89.9,93,3.795,3.834,3.82,3.82,0,0,19.473,69.8,14,Waypoint,
37.2865855,-119.5625798,4645.8854659255,146.653548,0,1.44584650296,20500,2018-04-11 20:31:17,20,0,22.881,4645.8854659255,146.653548,0.223694,2.22729009752,0,0,-0.671082,314.6, 4.6, 1.9,0,0,1024,1024,1024,1024,313.4,-89.9,93,3.795,3.834,3.82,3.82,0,0,19.473,69.8,14,Waypoint,
37.2865855,-119.5625799,4646.8697179255,147.6378,0,1.47097773736,20610,2018-04-11 20:31:17,20,0,22.881,4646.8697179255,147.6378,0.223694,2.22729009752,0,0,-0.671082,314.6, 4.9, 2.2,0,0,1024,1024,1024,1024,313.4,-89.9,93,3.795,3.834,3.82,3.82,0,0,19.473,69.8,14,Waypoint,
37.2865854,-119.5625802,4648.8382219255,149.606304,0,1.53032813296,20810,2018-04-11 20:31:17,20,0,22.881,4648.8382219255,149.606304,0.223694,2.22729009752,0,0,-0.671082,314.4, 5.4, 3,0,0,1024,1024,1024,1024,313.4,-89.9,93,3.795,3.834,3.82,3.82,0,0,19.473,69.8,14,Waypoint,
37.2865854,-119.5625802,4648.8382219255,149.606304,0,1.53032813296,20910,2018-04-11 20:31:17,20,0,22.881,4648.8382219255,149.606304,0.223694,2.22729009752,0,0,-0.671082,314.4, 5.4, 3,0,0,1024,1024,1024,1024,313.4,-89.9,93,3.795,3.834,3.82,3.82,0,0,19.473,69.8,14,Waypoint,
37.2865854,-119.5625803,4649.8224739255,150.590556,0,1.55626317316,21020,2018-04-11 20:31:17,19,0,22.972,4649.8224739255,150.590556,0.223694,2.22729009752,0,0,-0.671082,314.3, 5.8, 3.5,0,0,1024,1024,1024,1024,313.4,-89.9,93,3.795,3.834,3.82,3.82,0,0,18.384,69.8,14,Waypoint,
37.2865853,-119.5625805,4651.4628939255,152.230976,0,1.59306435544,21110,2018-04-11 20:31:17,19,0,22.972,4651.4628939255,152.230976,0.223694,2.22729009752,0,0,-0.671082,314.2, 6.2, 3.7,0,0,1024,1024,1024,1024,313.4,-89.9,93,3.795,3.834,3.82,3.82,0,0,18.384,69.8,14,Waypoint,
37.2865853,-119.5625806,4652.4471459255,153.215228,0,1.6195538576,21210,2018-04-11 20:31:17,19,0,22.972,4652.4471459255,153.215228,0.223694,2.22729009752,0,0,-0.671082,314.2, 6, 3.4,0,0,1024,1024,1024,1024,313.4,-89.9,93,3.795,3.834,3.82,3.82,0,0,18.384,69.8,14,Waypoint,
37.2865853,-119.5625807,4653.4313979255,154.19948,0,1.64613194244,21300,2018-04-11 20:31:18,19,0,22.972,4653.4313979255,154.19948,0.223694,2.22729009752,0,0,-0.671082,314.2, 5.6, 3.1,0,0,1024,1024,1024,1024,313.4,-90,93,3.795,3.834,3.82,3.82,0,0,18.384,69.8,14,Waypoint,
37.2865853,-119.5625807,4654.0875659255,154.855648,0,1.64613194244,21410,2018-04-11 20:31:18,19,0,22.972,4654.0875659255,154.855648,0.223694,2.22729009752,0,0,-0.671082,314.2, 5.4, 3.2,0,0,1024,1024,1024,1024,313.4,-89.9,93,3.795,3.834,3.82,3.82,0,0,18.384,69.8,14,Waypoint,
37.2865852,-119.5625809,4656.0560699255,156.824152,0,1.6857612088,21500,2018-04-11 20:31:18,19,0,22.972,4656.0560699255,156.824152,0.223694,2.22729009752,0,0,-0.671082,314, 5.5, 3.7,0,0,1024,1024,1024,1024,313.4,-89.9,93,3.795,3.834,3.82,3.82,0,0,18.384,69.8,14,Waypoint,
37.2865852,-119.5625809,4657.0403219255,157.808404,0,1.6857612088,21610,2018-04-11 20:31:18,19,0,22.972,4657.0403219255,157.808404,0.223694,2.22729009752,0,0,-0.671082,313.9, 5.8, 4.1,0,0,1024,1024,1024,1024,313.4,-89.9,93,3.795,3.834,3.82,3.82,0,0,18.384,69.8,14,Waypoint,
37.2865852,-119.562581,4658.0245739255,158.792656,0,1.71278548788,21710,2018-04-11 20:31:18,19,0,22.972,4658.0245739255,158.792656,0.223694,2.22729009752,0,0,-0.671082,313.7, 5.8, 3.9,0,0,1024,1024,1024,1024,313.4,-89.9,93,3.795,3.834,3.82,3.82,0,0,18.384,69.8,14,Waypoint,
37.2865852,-119.5625811,4659.0088259255,159.776908,0,1.73987538376,21800,2018-04-11 20:31:18,19,0,22.972,4659.0088259255,159.776908,0.223694,2.22729009752,0,0,-0.671082,313.4, 5.9, 3.7,0,0,1024,1024,1024,1024,313.4,-89.9,93,3.795,3.834,3.82,3.82,0,0,18.384,69.8,14,Waypoint,
37.2865852,-119.5625811,4659.9930779255,160.76116,0,1.73987538376,21910,2018-04-11 20:31:18,19,0,22.972,4659.9930779255,160.76116,0.223694,2.22729009752,0,0,-0.671082,313.2, 6, 3.5,0,0,1024,1024,1024,1024,313.4,-89.9,93,3.795,3.834,3.82,3.82,0,0,18.384,69.8,14,Waypoint,
37.2865853,-119.5625811,4661.9615819255,162.729664,0,1.7532152792,22010,2018-04-11 20:31:18,19,0,23.032,4661.9615819255,162.729664,0.223694,2.22729009752,0,0,-0.671082,313.5, 6.3, 2.3,0,0,1024,1024,1024,1024,313.4,-89.9,92,3.804,3.855,3.843,3.83,0,0,17.323,71.6,14,Waypoint,
37.2865855,-119.5625811,4663.9300859255,164.698168,0,1.78183404652,22100,2018-04-11 20:31:18,19,0,23.032,4663.9300859255,164.698168,0.223694,2.22729009752,0,0,-0.671082,314.1, 6.3, 1.5,0,0,1024,1024,1024,1024,313.4,-89.9,92,3.804,3.855,3.843,3.83,0,0,17.323,71.6,14,Waypoint,
37.2865855,-119.5625809,4665.8985899255,166.666672,0,1.72903220756,22300,2018-04-11 20:31:19,19,0,23.032,4665.8985899255,166.666672,0.223694,2.22729009752,0,0,-0.671082,314.3, 6.1, 1.2,0,0,1024,1024,1024,1024,313.4,-90,92,3.804,3.855,3.843,3.83,0,0,17.323,71.6,14,Waypoint,
37.2865855,-119.5625809,4666.8828419255,167.650924,0,1.72903220756,22400,2018-04-11 20:31:19,19,0,23.032,4666.8828419255,167.650924,0.223694,2.22729009752,0,0,-0.671082,314.6, 5.8, 0.9,0,0,1024,1024,1024,1024,313.4,-90,92,3.804,3.855,3.843,3.83,0,0,17.323,71.6,14,Waypoint,
37.2865855,-119.5625808,4667.8670939255,168.635176,0,1.70275924084,22500,2018-04-11 20:31:19,19,0,23.032,4667.8670939255,168.635176,0.223694,2.22729009752,0,0,-0.671082,314.6, 5.5, 0.9,0,0,1024,1024,1024,1024,313.4,-90,92,3.804,3.855,3.843,3.83,0,0,17.323,71.6,14,Waypoint,
37.2865855,-119.5625807,4668.8513459255,169.619428,0,1.67657813764,22600,2018-04-11 20:31:19,19,0,23.032,4668.8513459255,169.619428,0.223694,2.22729009752,0,0,-0.671082,314.7, 5.4, 1.3,0,0,1024,1024,1024,1024,313.4,-90,92,3.804,3.855,3.843,3.83,0,0,17.323,71.6,14,Waypoint,
37.2865855,-119.5625807,4669.8355979255,170.60368,0,1.67657813764,22700,2018-04-11 20:31:19,19,0,23.032,4669.8355979255,170.60368,0.223694,2.22729009752,0,0,-0.671082,314.7, 5.1, 1.3,0,0,1024,1024,1024,1024,313.4,-90,92,3.804,3.855,3.843,3.83,0,0,17.323,71.6,14,Waypoint,
37.2865855,-119.5625807,4670.8198499255,171.587932,0,1.67657813764,22900,2018-04-11 20:31:19,19,0,23.032,4670.8198499255,171.587932,0.223694,2.22729009752,0,0,-0.671082,314.6, 5.7, 1.7,0,0,1024,1024,1024,1024,313.4,-89.9,92,3.804,3.855,3.843,3.83,0,0,17.323,71.6,14,Waypoint,
37.2865854,-119.5625808,4672.7883539255,173.556436,0,1.68744756056,23000,2018-04-11 20:31:19,19,0,22.935,4672.7883539255,173.556436,0.223694,2.22729009752,0,0,-0.671082,314.3, 5.8, 3,0,0,1024,1024,1024,1024,313.4,-89.9,92,3.817,3.858,3.848,3.843,0,0,17.359,71.6,14,Waypoint,
37.2865854,-119.5625809,4673.7726059255,174.540688,0,1.71395346692,23100,2018-04-11 20:31:19,19,0,22.935,4673.7726059255,174.540688,0.223694,2.22729009752,0,0,-0.671082,314.1, 6.1, 3.1,0,0,1024,1024,1024,1024,313.4,-89.9,92,3.817,3.858,3.848,3.843,0,0,17.359,71.6,14,Waypoint,
37.2865854,-119.5625809,4674.7568579255,175.52494,0,1.71395346692,23300,2018-04-11 20:31:20,19,0,22.935,4674.7568579255,175.52494,0.223694,2.22729009752,0,0,-0.671082,313.8, 6.5, 2.9,0,0,1024,1024,1024,1024,313.4,-89.9,92,3.817,3.858,3.848,3.843,0,0,17.359,71.6,14,Waypoint,
37.2865854,-119.5625809,4675.7411099255,176.509192,0,1.71395346692,23400,2018-04-11 20:31:20,19,0,22.935,4675.7411099255,176.509192,0.223694,2.22729009752,0,0,-0.671082,313.7, 6.8, 2.7,0,0,1024,1024,1024,1024,313.4,-89.9,92,3.817,3.858,3.848,3.843,0,0,17.359,71.6,14,Waypoint,
37.2865854,-119.5625809,4676.7253619255,177.493444,0,1.71395346692,23500,2018-04-11 20:31:20,19,0,22.935,4676.7253619255,177.493444,0.223694,2.22729009752,0,0,-0.671082,313.6, 7, 2.5,0,0,1024,1024,1024,1024,313.4,-89.9,92,3.817,3.858,3.848,3.843,0,0,17.359,71.6,14,Waypoint,
37.2865854,-119.5625809,4677.7096139255,178.477696,0,1.71395346692,23600,2018-04-11 20:31:20,19,0,22.935,4677.7096139255,178.477696,0.223694,2.22729009752,0,0,-0.671082,313.7, 6.8, 2.5,0,0,1024,1024,1024,1024,313.4,-89.9,92,3.817,3.858,3.848,3.843,0,0,17.359,71.6,14,Waypoint,
37.2865854,-119.562581,4678.3657819255,179.133864,0,1.74054139428,23700,2018-04-11 20:31:20,19,0,22.935,4678.3657819255,179.133864,0.223694,2.22729009752,0,0,-0.671082,313.8, 6.7, 2.7,0,0,1024,1024,1024,1024,313.4,-89.9,92,3.817,3.858,3.848,3.843,0,0,17.359,71.6,14,Waypoint,
37.2865854,-119.562581,4679.3500339255,180.118116,0,1.74054139428,23800,2018-04-11 20:31:20,19,0,22.935,4679.3500339255,180.118116,0.223694,2.22729009752,0,0,-0.671082,314, 6.7, 2.9,0,0,1024,1024,1024,1024,313.4,-89.9,92,3.817,3.858,3.848,3.843,0,0,17.359,71.6,14,Waypoint,
37.2865853,-119.5625811,4680.3342859255,181.102368,0,1.7532152792,23900,2018-04-11 20:31:20,19,0,22.935,4680.3342859255,181.102368,0.223694,2.22729009752,0,0,-0.671082,314.2, 6.7, 3.2,0,0,1024,1024,1024,1024,313.4,-89.9,92,3.817,3.858,3.848,3.843,0,0,17.359,71.6,14,Waypoint,
37.2865853,-119.5625811,4681.3185379255,182.08662,0,1.7532152792,24000,2018-04-11 20:31:20,19,0,22.935,4681.3185379255,182.08662,0.223694,2.22729009752,0,0,-0.671082,314.3, 6.6, 3.6,0,0,1024,1024,1024,1024,313.4,-89.9,92,3.811,3.858,3.834,3.819,0,0,17.359,71.6,14,Waypoint,
37.2865852,-119.5625812,4683.2870419255,184.055124,0,1.7670276156,24200,2018-04-11 20:31:20,19,0,22.935,4683.2870419255,184.055124,0.223694,2.22729009752,0,0,-0.671082,314.5, 6.6, 3.8,0,0,1024,1024,1024,1024,313.4,-90,92,3.811,3.858,3.834,3.819,0,0,17.359,71.6,14,Waypoint,
37.2865851,-119.5625812,4686.2397979255,187.00788,0,1.75455386192,24400,2018-04-11 20:31:21,19,0,22.935,4686.2397979255,187.00788,0.223694,2.22729009752,0,0,-0.671082,314.4, 6.4, 3.6,0,0,1024,1024,1024,1024,313.4,-89.9,92,3.811,3.858,3.834,3.819,0,0,17.359,71.6,14,Waypoint,
37.2865851,-119.5625812,4686.8959659255,187.664048,0,1.75455386192,24500,2018-04-11 20:31:21,19,0,22.935,4686.8959659255,187.664048,0.223694,2.22729009752,0,0,-0.671082,314.4, 6.5, 3.4,0,0,1024,1024,1024,1024,313.4,-89.9,92,3.811,3.858,3.834,3.819,0,0,17.359,71.6,14,Waypoint,
37.2865851,-119.5625812,4687.8802179255,188.6483,0,1.75455386192,24600,2018-04-11 20:31:21,19,0,22.935,4687.8802179255,188.6483,0.223694,2.22729009752,0,0,-0.671082,314.3, 6.6, 3.4,0,0,1024,1024,1024,1024,313.4,-89.9,92,3.811,3.858,3.834,3.819,0,0,17.359,71.6,14,Waypoint,
37.2865851,-119.5625812,4689.1925539255,189.960636,0,1.75455386192,24700,2018-04-11 20:31:21,19,0,22.935,4689.1925539255,189.960636,0.223694,2.22729009752,0,0,-0.671082,314.2, 6.6, 3.3,0,0,1024,1024,1024,1024,313.4,-89.9,92,3.811,3.858,3.834,3.819,0,0,17.359,71.6,14,Waypoint,
37.2865851,-119.5625812,4690.1768059255,190.944888,0,1.75455386192,24800,2018-04-11 20:31:21,19,0,22.935,4690.1768059255,190.944888,0.223694,2.22729009752,0,0,-0.671082,314, 6.8, 3.4,0,0,1024,1024,1024,1024,313.4,-89.9,92,3.811,3.858,3.834,3.819,0,0,17.359,71.6,14,Waypoint,
37.2865851,-119.5625812,4691.1610579255,191.92914,0,1.75455386192,24900,2018-04-11 20:31:21,19,0,22.935,4691.1610579255,191.92914,0.223694,2.22729009752,0,0,-0.671082,313.8, 6.9, 3.3,0,0,1024,1024,1024,1024,313.4,-89.9,92,3.811,3.858,3.834,3.819,0,0,17.359,71.6,14,Waypoint,
37.2865852,-119.5625812,4692.1453099255,192.913392,0,1.7670276156,25000,2018-04-11 20:31:21,19,0,22.942,4692.1453099255,192.913392,0.223694,2.22729009752,0,0,-0.671082,313.7, 7.2, 3.3,0,0,1024,1024,1024,1024,313.4,-89.9,92,3.804,3.846,3.822,3.822,0,0,18.638,71.6,14,Waypoint,
37.2865852,-119.5625812,4693.4576459255,194.225728,0,1.7670276156,25100,2018-04-11 20:31:21,19,0,22.942,4693.4576459255,194.225728,0.223694,2.22729009752,0,0,-0.671082,313.6, 7.2, 3.3,0,0,1024,1024,1024,1024,313.4,-90,92,3.804,3.846,3.822,3.822,0,0,18.638,71.6,14,Waypoint,
37.2865852,-119.5625812,4694.4418979255,195.20998,0,1.7670276156,25300,2018-04-11 20:31:22,19,0,22.942,4694.4418979255,195.20998,0.223694,2.22729009752,0,0,-0.671082,313.6, 7, 3.3,0,0,1024,1024,1024,1024,313.4,-90,92,3.804,3.846,3.822,3.822,0,0,18.638,71.6,14,Waypoint,
37.2865852,-119.5625812,4695.4261499255,196.194232,0,1.7670276156,25400,2018-04-11 20:31:22,19,0,22.942,4695.4261499255,196.194232,0.223694,2.22729009752,0,0,-0.671082,313.7, 6.8, 3.3,0,0,1024,1024,1024,1024,313.4,-89.9,92,3.804,3.846,3.822,3.822,0,0,18.638,71.6,14,Waypoint,
37.2865851,-119.5625811,4696.4104019255,197.178484,0,1.72720806052,25500,2018-04-11 20:31:22,19,0,22.942,4696.4104019255,197.178484,0.223694,2.22729009752,0,0,-0.671082,313.7, 6.7, 3.1,0,0,1024,1024,1024,1024,313.4,-89.9,92,3.804,3.846,3.822,3.822,0,0,18.638,71.6,14,Waypoint,
37.2865851,-119.5625811,4697.3946539255,198.162736,0,1.72720806052,25600,2018-04-11 20:31:22,19,0,22.942,4697.3946539255,198.162736,0.223694,2.22729009752,0,0,-0.671082,313.8, 6.5, 3,0,0,1024,1024,1024,1024,313.4,-90,92,3.804,3.846,3.822,3.822,0,0,18.638,71.6,14,Waypoint,
37.2865851,-119.5625811,4698.3789059255,199.146988,0,1.72720806052,25700,2018-04-11 20:31:22,19,0,22.942,4698.3789059255,199.146988,0.223694,2.22729009752,0,0,-0.671082,313.9, 6.4, 2.9,0,0,1024,1024,1024,1024,313.4,-90,92,3.804,3.846,3.822,3.822,0,0,18.638,71.6,14,Waypoint,
37.286585,-119.562581,4700.6754939255,201.443576,0,1.68773299364,25900,2018-04-11 20:31:22,19,0,22.942,4700.6754939255,201.443576,0.223694,2.22729009752,0,0,-0.671082,314, 6.4, 2.9,0,0,1024,1024,1024,1024,313.4,-89.9,92,3.804,3.846,3.822,3.822,0,0,18.638,71.6,14,Waypoint,
37.286585,-119.5625809,4701.6597459255,202.427828,0,1.6603018904,26000,2018-04-11 20:31:22,19,0,23.134,4701.6597459255,202.427828,0.223694,2.22729009752,0,0,-0.671082,314, 6.4, 3.2,0,0,1024,1024,1024,1024,313.4,-89.9,92,3.804,3.846,3.822,3.822,0,0,17.218,71.6,14,Waypoint,
37.286585,-119.5625809,4702.6439979255,203.41208,0,1.6603018904,26100,2018-04-11 20:31:22,19,0,23.134,4702.6439979255,203.41208,0.223694,2.22729009752,0,0,-0.671082,314, 6.5, 3.4,0,0,1024,1024,1024,1024,313.4,-90,92,3.804,3.846,3.822,3.822,0,0,17.218,71.6,14,Waypoint,
37.286585,-119.5625809,4703.9563339255,204.724416,0,1.6603018904,26200,2018-04-11 20:31:22,19,0,23.134,4703.9563339255,204.724416,0.223694,2.22729009752,0,0,-0.671082,313.9, 6.4, 3.1,0,0,1024,1024,1024,1024,313.4,-89.9,92,3.804,3.846,3.822,3.822,0,0,17.218,71.6,14,Waypoint,
37.286585,-119.5625808,4704.6125019255,205.380584,0,1.6329232806,26300,2018-04-11 20:31:23,19,0,23.134,4704.6125019255,205.380584,0.223694,2.22729009752,0,0,-0.671082,313.8, 6.5, 3,0,0,1024,1024,1024,1024,313.4,-90,92,3.804,3.846,3.822,3.822,0,0,17.218,71.6,14,Waypoint,
37.286585,-119.5625808,4705.5967539255,206.364836,0,1.6329232806,26400,2018-04-11 20:31:23,19,0,23.134,4705.5967539255,206.364836,0.223694,2.22729009752,0,0,-0.671082,313.7, 6.4, 3,0,0,1024,1024,1024,1024,313.4,-90,92,3.804,3.846,3.822,3.822,0,0,17.218,71.6,14,Waypoint,
37.286585,-119.5625807,4706.5810059255,207.349088,0,1.60560372592,26500,2018-04-11 20:31:23,19,0,23.134,4706.5810059255,207.349088,0.223694,2.22729009752,0,0,-0.671082,313.7, 6.3, 3.1,0,0,1024,1024,1024,1024,313.4,-90,92,3.804,3.846,3.822,3.822,0,0,17.218,71.6,14,Waypoint,
37.286585,-119.5625807,4707.5652579255,208.33334,0,1.60560372592,26600,2018-04-11 20:31:23,19,0,23.134,4707.5652579255,208.33334,0.223694,2.22729009752,0,0,-0.671082,313.7, 6.2, 3,0,0,1024,1024,1024,1024,313.4,-90,92,3.804,3.846,3.822,3.822,0,0,17.218,71.6,14,Waypoint,
37.2865851,-119.5625807,4709.5337619255,210.301844,0,1.61840228276,26800,2018-04-11 20:31:23,19,0,23.134,4709.5337619255,210.301844,0.223694,2.22729009752,0,0,-0.671082,313.9, 6.6, 2.7,0,0,1024,1024,1024,1024,313.4,-90,92,3.804,3.846,3.822,3.822,0,0,17.218,71.6,14,Waypoint,
37.2865853,-119.5625805,4712.1584339255,212.926516,0,1.59306435544,27010,2018-04-11 20:31:23,19,0,23.134,4712.1584339255,212.926516,0.223694,2.22729009752,0,0,-0.671082,314.2, 7, 2.5,0,0,1024,1024,1024,1024,313.4,-89.9,92,3.845,3.871,3.846,3.86,0,0,17.218,71.6,14,Waypoint,
37.2865853,-119.5625805,4713.1426859255,213.910768,0,1.59306435544,27110,2018-04-11 20:31:23,19,0,23.134,4713.1426859255,213.910768,0.223694,2.22729009752,0,0,-0.671082,314.2, 6.7, 2.3,0,0,1024,1024,1024,1024,313.4,-90,92,3.845,3.871,3.846,3.86,0,0,17.218,71.6,14,Waypoint,
37.2865854,-119.5625804,4714.1269379255,214.89502,0,1.58230320024,27300,2018-04-11 20:31:24,19,0,23.134,4714.1269379255,214.89502,0.223694,2.22729009752,0,0,-0.671082,314.1, 6.7, 2.2,0,0,1024,1024,1024,1024,313.4,-89.9,92,3.845,3.871,3.846,3.86,0,0,17.218,71.6,14,Waypoint,
37.2865855,-119.5625803,4715.1111899255,215.879272,0,1.5728511002,27400,2018-04-11 20:31:24,19,0,23.134,4715.1111899255,215.879272,0.223694,2.22729009752,0,0,-0.671082,314.1, 6.7, 1.9,0,0,1024,1024,1024,1024,313.4,-89.9,92,3.845,3.871,3.846,3.86,0,0,17.218,71.6,14,Waypoint,
37.2865855,-119.5625803,4716.0954419255,216.863524,0,1.5728511002,27500,2018-04-11 20:31:24,19,0,23.134,4716.0954419255,216.863524,0.223694,2.22729009752,0,0,-0.671082,314.2, 6.7, 1.6,0,0,1024,1024,1024,1024,313.4,-89.9,92,3.845,3.871,3.846,3.86,0,0,17.218,71.6,14,Waypoint,
37.2865856,-119.5625801,4718.0639459255,218.832028,0,1.53948823824,27610,2018-04-11 20:31:24,19,0,23.134,4718.0639459255,218.832028,0.223694,2.22729009752,0,0,-0.671082,314.3, 6.6, 1.8,0,0,1024,1024,1024,1024,313.4,-90,92,3.845,3.871,3.846,3.86,0,0,17.218,71.6,14,Waypoint,
37.2865856,-119.5625801,4718.0639459255,218.832028,0,1.53948823824,27700,2018-04-11 20:31:24,19,0,23.134,4718.0639459255,218.832028,0.223694,2.22729009752,0,0,-0.671082,314.3, 6.6, 1.8,0,0,1024,1024,1024,1024,313.4,-90,92,3.845,3.871,3.846,3.86,0,0,17.218,71.6,14,Waypoint,
