Latitude, Longitude, Altitude (m), Time, Sats, Speed (m/s), Range (m), Battery (%), Roll (deg), Pitch (deg), Yaw (deg), Images, HD Signal (%), RC Signal (%), Battery Temp (C), Battery Voltage (mV), Battery Current (mA), Battery Energy (mAh), Battery Capacity (mAh), Battery Discharges, flyState, timestamp (Unix), LastUpdate (ms), radioChannel, Rc_elevator, Rc_aileron, Rc_throttle, Rc_rudder, Rc_gyro, Dronetype, Battery_Cell1 (mV), Battery_Cell2 (mV), Battery_Cell3 (mV), Battery_Cell4 (mV), Battery_Cell5 (mV), Battery_Cell6 (mV), Video, isFlying, elapsedTime (ms), gimbalPitch (deg), gimbalRoll (deg), gimbalYaw (deg), VelocityX (m/s), VelocityY (m/s), VelocityZ (m/s), GroundSmear (cm), App Version, Aircraft Name, Aircraft Firmware, Aircraft Serial Number, Battery Serial Number, Battery Lifetime (%), App_Tip, App_Warning, CurrentFlightStartingIndex, CurrentFlightLastVisitedWaypoint, PreviousFlightEndingWaypointIndex
35.7013547, -118.5808856, -0.100, 09:55:49.340, 9, 0.00, 0.14, 70, -0.300, 1.600, -67.700, 2, 100, 100, 35, 24146, -3333, 3684, 5263, 23, 11, 1530809749.340, 76, 0, 1024, 1024, 1024, 1024, 0, 6, 4018, 4010, 4008, 4015, 4019, 4006, 0, 1, 3200, -89.900, 0.000, -68.300, 0.000, 0.000, -0.100, 0.0, MapPilot_2.8.1_04242018, Dendroctonus I, 1.3.1.00, 041DDC1887, 1058163200505, 95, DJI_0002.jpg, Starting Mission from Lat/Long: 35.70134/-118.58088 Camera: Zenmuse X3 - Overlap: 90/90 - Active Connection: No, 0, 0, 1
35.7013547, -118.5808856, -0.100, 09:55:49.441, 9, 0.00, 0.15, 70, 0.000, 1.800, -67.800, 2, 100, 100, 35, 24146, -3333, 3684, 5263, 23, 11, 1530809749.441, 68, 0, 1024, 1024, 1024, 1024, 0, 6, 4018, 4010, 4008, 4015, 4019, 4006, 0, 1, 3301, -89.900, 0.000, -68.300, 0.000, 0.000, -0.300, 0.0, , , , , , 95, , , 0, 0, 1
35.7013547, -118.5808855, 0.000, 09:55:49.541, 9, 0.00, 0.15, 70, 0.400, 1.100, -67.800, 2, 100, 100, 35, 24146, -3333, 3684, 5263, 23, 11, 1530809749.541, 69, 0, 1024, 1024, 1024, 1024, 0, 6, 4018, 4010, 4008, 4015, 4019, 4006, 0, 1, 3401, -90.000, 0.000, -68.300, 0.000, 0.000, -0.600, 0.0, , , , , , 95, , , 0, 0, 1
35.7013547, -118.5808855, 0.000, 09:55:49.641, 9, 0.00, 0.15, 70, 0.400, 0.500, -67.800, 2, 100, 100, 35, 24146, -3333, 3684, 5263, 23, 11, 1530809749.641, 74, 0, 1024, 1024, 1024, 1024, 0, 6, 4018, 4010, 4008, 4015, 4019, 4006, 0, 1, 3501, -89.900, 0.000, -68.300, 0.000, 0.000, -0.600, 0.0, , , , , , 95, , , 0, 0, 1
35.7013547, -118.5808854, 0.000, 09:55:49.741, 9, 0.00, 0.15, 70, 0.200, 0.000, -67.800, 2, 100, 100, 35, 24146, -3333, 3684, 5263, 23, 11, 1530809749.741, 65, 0, 1024, 1024, 1024, 1024, 0, 6, 4018, 4010, 4008, 4015, 4019, 4006, 0, 1, 3601, -89.900, 0.000, -68.300, 0.000, 0.000, -0.500, 0.0, , , , , , 95, , , 0, 0, 1
35.7013546, -118.5808854, 0.100, 09:55:49.840, 9, 0.00, 0.14, 70, 0.100, 0.000, -67.800, 2, 100, 100, 35, 24146, -3333, 3684, 5263, 23, 11, 1530809749.840, 66, 0, 1024, 1024, 1024, 1024, 0, 6, 4018, 4010, 4008, 4015, 4019, 4006, 0, 1, 3700, -90.000, 0.000, -68.300, 0.000, 0.000, -0.500, 0.0, , , , , , 95, , , 0, 0, 1
35.7013545, -118.5808853, 0.100, 09:55:49.940, 9, 0.10, 0.13, 70, 0.200, 0.000, -67.700, 2, 100, 100, 35, 24146, -3333, 3684, 5263, 23, 11, 1530809749.941, 70, 0, 1024, 1024, 1024, 1024, 0, 6, 4018, 4010, 4008, 4015, 4019, 4006, 0, 1, 3800, -89.900, 0.000, -68.300, -0.100, 0.000, -0.400, 0.0, , , , , , 95, , , 0, 0, 1
35.7013545, -118.5808853, 0.200, 09:55:50.040, 9, 0.10, 0.13, 70, 0.400, -0.100, -67.600, 2, 100, 100, 35, 24146, -3333, 3684, 5263, 23, 11, 1530809750.040, 61, 0, 1024, 1024, 1024, 1024, 0, 6, 4018, 4010, 4008, 4015, 4019, 4006, 0, 1, 3900, -89.900, 0.000, -68.300, -0.100, 0.000, -0.400, 0.0, , , , , , 95, , , 0, 0, 1
35.7013544, -118.5808853, 0.200, 09:55:50.141, 9, 0.10, 0.12, 70, 0.600, -0.400, -67.700, 2, 100, 100, 35, 24146, -3333, 3684, 5263, 23, 11, 1530809750.141, 42, 0, 1024, 1024, 1024, 1024, 0, 6, 4018, 4010, 4008, 4015, 4019, 4006, 0, 1, 4001, -90.000, 0.000, -68.300, -0.100, 0.000, -0.400, 0.0, , , , , , 95, , , 0, 0, 1
35.7013544, -118.5808853, 0.300, 09:55:50.241, 9, 0.10, 0.12, 70, 0.600, -0.500, -67.700, 2, 100, 100, 35, 24146, -3333, 3684, 5263, 23, 11, 1530809750.241, 34, 0, 1024, 1024, 1024, 1024, 0, 6, 4018, 4010, 4008, 4015, 4019, 4006, 0, 1, 4100, -89.900, 0.000, -68.300, -0.100, 0.000, -0.300, 0.0, , , , , , 95, , , 0, 0, 1
35.7013544, -118.5808853, 0.300, 09:55:50.341, 9, 0.10, 0.11, 70, 0.600, -0.300, -67.800, 2, 100, 100, 35, 23389, -14556, 3684, 5263, 23, 11, 1530809750.341, 35, 0, 1024, 1024, 1024, 1024, 0, 6, 4018, 4010, 4008, 4015, 4019, 4006, 0, 1, 4201, -89.900, 0.000, -68.300, -0.100, 0.000, -0.300, 0.0, , , , , , 95, , , 0, 0, 1
35.7013543, -118.5808854, 0.400, 09:55:50.441, 10, 0.00, 0.10, 70, 0.400, -0.400, -67.800, 2, 100, 100, 35, 23389, -14556, 3684, 5263, 23, 11, 1530809750.441, 46, 0, 1024, 1024, 1024, 1024, 0, 6, 4018, 4010, 4008, 4015, 4019, 4006, 0, 1, 4300, -89.900, 0.000, -68.300, 0.000, 0.000, -0.400, 0.0, , , , , , 95, , , 0, 0, 1
35.7013543, -118.5808855, 0.500, 09:55:50.541, 10, 0.00, 0.10, 70, 0.600, 0.000, -67.700, 2, 100, 100, 35, 23389, -14556, 3684, 5263, 23, 11, 1530809750.541, 32, 0, 1024, 1024, 1024, 1024, 0, 6, 4018, 4010, 4008, 4015, 4019, 4006, 0, 1, 4401, -89.900, 0.000, -68.300, 0.000, 0.000, -0.400, 0.0, , , , , , 95, , , 0, 0, 1
35.7013542, -118.5808855, 0.500, 09:55:50.641, 10, 0.00, 0.10, 70, 1.100, 0.300, -67.600, 2, 100, 100, 35, 23389, -14556, 3684, 5263, 23, 11, 1530809750.641, 15, 0, 1024, 1024, 1024, 1024, 0, 6, 4018, 4010, 4008, 4015, 4019, 4006, 0, 1, 4500, -89.900, 0.000, -68.300, 0.000, 0.000, -0.400, 0.0, , , , , , 95, , , 0, 0, 1
35.7013542, -118.5808856, 0.500, 09:55:50.741, 10, 0.00, 0.09, 70, 1.300, 0.100, -67.500, 2, 100, 100, 35, 23389, -14556, 3684, 5263, 23, 11, 1530809750.741, 28, 0, 1024, 1024, 1024, 1024, 0, 6, 4018, 4010, 4008, 4015, 4019, 4006, 0, 1, 4601, -89.900, 0.000, -68.300, 0.000, 0.000, -0.400, 0.0, , , , , , 95, , , 0, 0, 1
35.7013542, -118.5808857, 0.600, 09:55:50.840, 10, 0.00, 0.09, 70, 1.200, 0.000, -67.500, 2, 100, 100, 35, 23389, -14556, 3684, 5263, 23, 11, 1530809750.840, 31, 0, 1024, 1024, 1024, 1024, 0, 6, 3890, 3897, 3880, 3892, 3922, 3889, 0, 1, 4700, -89.900, 0.000, -68.300, 0.000, 0.000, -0.400, 0.0, , , , , , 95, , , 0, 0, 1
35.7013542, -118.5808857, 0.600, 09:55:50.941, 10, 0.00, 0.09, 70, 1.000, 0.000, -67.400, 2, 100, 100, 35, 23389, -14556, 3684, 5263, 23, 11, 1530809750.941, 10, 0, 1024, 1024, 1024, 1024, 0, 6, 3890, 3897, 3880, 3892, 3922, 3889, 0, 1, 4801, -89.900, 0.000, -68.300, 0.000, 0.000, -0.400, 0.0, , , , , , 95, , , 0, 0, 1
35.7013542, -118.5808857, 0.700, 09:55:51.042, 10, 0.00, 0.09, 70, 1.300, 0.000, -67.300, 2, 100, 100, 35, 23389, -14556, 3684, 5263, 23, 11, 1530809751.043, 3, 0, 1024, 1024, 1024, 1024, 0, 6, 3890, 3897, 3880, 3892, 3922, 3889, 0, 1, 4902, -89.900, 0.000, -68.300, 0.000, 0.000, -0.400, 0.0, , , , , , 95, , , 0, 0, 1
35.7013542, -118.5808857, 0.700, 09:55:51.141, 10, 0.00, 0.09, 70, 1.300, 0.000, -67.300, 2, 100, 100, 35, 23389, -14556, 3684, 5263, 23, 11, 1530809751.141, 102, 0, 1024, 1024, 1024, 1024, 0, 6, 3890, 3897, 3880, 3892, 3922, 3889, 0, 1, 5001, -89.900, 0.000, -68.300, 0.000, 0.000, -0.400, 0.0, , , , , , 95, , , 0, 0, 1
35.7013543, -118.5808858, 0.700, 09:55:51.240, 10, 0.00, 0.10, 70, 1.300, -0.100, -67.400, 2, 100, 100, 35, 23389, -14556, 3684, 5263, 23, 11, 1530809751.240, 91, 0, 1024, 1024, 1024, 1024, 0, 6, 3890, 3897, 3880, 3892, 3922, 3889, 0, 1, 5100, -89.900, 0.000, -68.300, 0.000, 0.000, -0.500, 0.0, , , , , , 95, , , 0, 0, 1
35.7013543, -118.5808860, 0.800, 09:55:51.341, 10, 0.00, 0.10, 70, 1.100, 0.200, -67.400, 2, 100, 100, 35, 23389, -14556, 3684, 5263, 23, 11, 1530809751.341, 5, 0, 1024, 1024, 1024, 1024, 0, 6, 3890, 3897, 3880, 3892, 3922, 3889, 0, 1, 5200, -89.900, 0.000, -68.300, 0.000, 0.000, -0.500, 0.0, , , , , , 95, , , 0, 0, 1
35.7013543, -118.5808860, 0.800, 09:55:51.440, 10, 0.00, 0.10, 70, 1.100, 0.200, -67.400, 2, 100, 100, 35, 23389, -14556, 3684, 5263, 23, 11, 1530809751.440, 105, 0, 1024, 1024, 1024, 1024, 0, 6, 3890, 3897, 3880, 3892, 3922, 3889, 0, 1, 5300, -89.900, 0.000, -68.300, 0.000, 0.000, -0.500, 0.0, , , , , , 95, , , 0, 0, 1
35.7013544, -118.5808863, 0.900, 09:55:51.541, 11, 0.00, 0.12, 70, 0.800, 0.500, -67.600, 2, 100, 100, 35, 23389, -14556, 3684, 5263, 23, 14, 1530809751.542, 1, 0, 1024, 1024, 1024, 1024, 0, 6, 3890, 3897, 3880, 3892, 3922, 3889, 0, 1, 5401, -89.900, 0.000, -68.300, 0.000, 0.000, -0.300, 0.0, , , , , , 95, , , 0, 0, 1
35.7013544, -118.5808863, 0.900, 09:55:51.641, 11, 0.00, 0.12, 70, 0.800, 0.500, -67.600, 2, 100, 100, 35, 23389, -14556, 3684, 5263, 23, 14, 1530809751.641, 101, 0, 1024, 1024, 1024, 1024, 0, 6, 3890, 3897, 3880, 3892, 3922, 3889, 0, 1, 5500, -89.900, 0.000, -68.300, 0.000, 0.000, -0.300, 0.0, , , , , , 95, , , 0, 0, 1
35.7013545, -118.5808863, 0.900, 09:55:51.740, 11, 0.00, 0.13, 70, 0.600, 0.800, -67.600, 2, 100, 100, 35, 23389, -14556, 3684, 5263, 23, 14, 1530809751.740, 77, 0, 1024, 1024, 1024, 1024, 0, 6, 3890, 3897, 3880, 3892, 3922, 3889, 0, 1, 5600, -89.900, 0.000, -68.300, 0.000, 0.000, -0.200, 0.0, , , , , , 95, , , 0, 0, 1
35.7013546, -118.5808864, 1.000, 09:55:51.840, 11, 0.00, 0.15, 70, 0.500, 0.900, -67.700, 2, 100, 100, 35, 23229, -16774, 3684, 5263, 23, 14, 1530809751.840, 82, 0, 1024, 1024, 1024, 1024, 0, 6, 3857, 3872, 3859, 3880, 3890, 3853, 0, 1, 5700, -89.900, 0.000, -68.300, 0.000, 0.000, -0.200, 0.0, , , , , , 95, , , 0, 0, 1
35.7013547, -118.5808865, 1.000, 09:55:51.940, 11, 0.00, 0.16, 70, 0.200, 0.900, -67.700, 2, 100, 100, 35, 23229, -16774, 3684, 5263, 23, 14, 1530809751.940, 74, 0, 1024, 1024, 1024, 1024, 0, 6, 3857, 3872, 3859, 3880, 3890, 3853, 0, 1, 5800, -89.900, 0.000, -68.300, 0.000, 0.000, -0.300, 0.0, , , , , , 95, , , 0, 0, 1
35.7013548, -118.5808865, 1.000, 09:55:52.041, 11, 0.00, 0.17, 70, 0.100, 1.000, -67.700, 2, 100, 100, 35, 23229, -16774, 3684, 5263, 23, 14, 1530809752.041, 79, 0, 1024, 1024, 1024, 1024, 0, 6, 3857, 3872, 3859, 3880, 3890, 3853, 0, 1, 5901, -89.900, 0.000, -68.300, 0.000, 0.000, -0.300, 0.0, , , , , , 95, , , 0, 0, 1
35.7013549, -118.5808866, 1.000, 09:55:52.140, 11, 0.00, 0.18, 70, 0.000, 0.900, -67.700, 2, 100, 100, 35, 23229, -16774, 3684, 5263, 23, 14, 1530809752.140, 82, 0, 1024, 1024, 1024, 1024, 0, 6, 3857, 3872, 3859, 3880, 3890, 3853, 0, 1, 6000, -89.900, 0.000, -68.300, 0.000, 0.000, -0.500, 0.0, , , , , , 95, , , 0, 0, 1
35.7013550, -118.5808866, 1.100, 09:55:52.240, 11, 0.00, 0.19, 70, 0.000, 0.800, -67.600, 2, 100, 100, 35, 23229, -16774, 3684, 5263, 23, 14, 1530809752.240, 76, 0, 1024, 1024, 1024, 1024, 0, 6, 3857, 3872, 3859, 3880, 3890, 3853, 0, 1, 6100, -89.900, 0.000, -68.300, 0.000, 0.000, -0.600, 0.0, , , , , , 95, , , 0, 0, 1
35.7013550, -118.5808867, 1.100, 09:55:52.341, 11, 0.00, 0.20, 70, 0.200, 0.800, -67.500, 2, 100, 100, 35, 23229, -16774, 3684, 5263, 23, 14, 1530809752.341, 46, 0, 1024, 1024, 1024, 1024, 0, 6, 3857, 3872, 3859, 3880, 3890, 3853, 0, 1, 6200, -89.900, 0.000, -68.300, 0.000, 0.000, -0.800, 0.0, , , , , , 95, , , 0, 0, 1
35.7013550, -118.5808867, 1.200, 09:55:52.441, 11, 0.00, 0.20, 70, 0.400, 1.000, -67.500, 2, 100, 100, 35, 23229, -16774, 3684, 5263, 23, 14, 1530809752.441, 47, 0, 1024, 1024, 1024, 1024, 0, 6, 3857, 3872, 3859, 3880, 3890, 3853, 0, 1, 6300, -89.900, 0.000, -68.300, 0.000, 0.000, -1.000, 0.0, , , , , , 95, , , 0, 0, 1
35.7013551, -118.5808868, 1.300, 09:55:52.541, 11, 0.00, 0.20, 70, 0.500, 1.200, -67.500, 2, 100, 100, 35, 23229, -16774, 3684, 5263, 23, 14, 1530809752.541, 52, 0, 1024, 1024, 1024, 1024, 0, 6, 3857, 3872, 3859, 3880, 3890, 3853, 0, 1, 6400, -89.900, 0.000, -68.300, 0.000, 0.000, -1.200, 0.0, , , , , , 95, , , 0, 0, 1
35.7013551, -118.5808868, 1.400, 09:55:52.640, 10, 0.00, 0.21, 70, 0.500, 1.300, -67.400, 2, 100, 100, 35, 23229, -16774, 3684, 5263, 23, 14, 1530809752.640, 32, 0, 1024, 1024, 1024, 1024, 0, 6, 3857, 3872, 3859, 3880, 3890, 3853, 0, 1, 6500, -89.900, 0.000, -68.300, 0.000, 0.000, -1.500, 0.0, , , , , , 95, , , 0, 0, 1
35.7013551, -118.5808867, 1.600, 09:55:52.741, 10, 0.00, 0.21, 70, 0.200, 1.000, -67.300, 2, 100, 100, 35, 23229, -16774, 3684, 5263, 23, 14, 1530809752.741, 47, 0, 1024, 1024, 1024, 1024, 0, 6, 3857, 3872, 3859, 3880, 3890, 3853, 0, 1, 6600, -89.900, 0.000, -68.300, 0.000, 0.000, -1.800, 0.0, , , , , , 95, , , 0, 0, 1
35.7013550, -118.5808867, 1.900, 09:55:52.841, 11, 0.00, 0.20, 70, 0.000, 0.600, -67.200, 2, 100, 100, 35, 23227, -16986, 3631, 5263, 23, 14, 1530809752.841, 32, 0, 1024, 1024, 1024, 1024, 0, 6, 3878, 3860, 3877, 3869, 3880, 3834, 0, 1, 6700, -90.000, 0.000, -68.300, 0.000, 0.000, -2.200, 0.0, , , , , , 95, , , 0, 0, 1
35.7013550, -118.5808867, 2.200, 09:55:52.941, 10, 0.00, 0.19, 70, 0.100, 0.500, -67.200, 2, 100, 100, 35, 23227, -16986, 3631, 5263, 23, 14, 1530809752.941, 27, 0, 1024, 1024, 1024, 1024, 0, 6, 3878, 3860, 3877, 3869, 3880, 3834, 0, 1, 6800, -90.000, 0.000, -68.300, 0.000, 0.000, -2.500, 0.0, , , , , , 95, , , 0, 0, 1
35.7013550, -118.5808866, 2.400, 09:55:53.040, 10, 0.00, 0.19, 70, 0.400, 0.400, -67.300, 2, 100, 100, 35, 23227, -16986, 3631, 5263, 23, 14, 1530809753.040, 28, 0, 1024, 1024, 1024, 1024, 0, 6, 3878, 3860, 3877, 3869, 3880, 3834, 0, 1, 6900, -90.000, 0.000, -68.300, 0.000, 0.000, -2.800, 0.0, , , , , , 95, , , 0, 0, 1
35.7013550, -118.5808865, 2.700, 09:55:53.141, 10, 0.00, 0.19, 70, 0.300, 0.100, -67.400, 2, 100, 100, 35, 23227, -16986, 3631, 5263, 23, 14, 1530809753.141, 20, 0, 1024, 1024, 1024, 1024, 0, 6, 3878, 3860, 3877, 3869, 3880, 3834, 0, 1, 7000, -90.000, 0.000, -68.300, 0.000, 0.000, -3.000, 0.0, , , , , , 95, , , 0, 0, 1
35.7013549, -118.5808863, 3.100, 09:55:53.241, 10, 0.00, 0.18, 70, 0.100, -0.100, -67.500, 2, 100, 100, 35, 23227, -16986, 3631, 5263, 23, 14, 1530809753.241, 23, 0, 1024, 1024, 1024, 1024, 0, 6, 3878, 3860, 3877, 3869, 3880, 3834, 0, 1, 7100, -90.000, 0.000, -68.300, 0.000, 0.000, -3.200, 0.0, , , , , , 95, , , 0, 0, 1
35.7013549, -118.5808862, 3.400, 09:55:53.341, 10, 0.00, 0.17, 70, 0.100, -0.600, -67.500, 2, 100, 100, 35, 23227, -16986, 3631, 5263, 23, 14, 1530809753.341, 28, 0, 1024, 1024, 1024, 1024, 0, 6, 3878, 3860, 3877, 3869, 3880, 3834, 0, 1, 7200, -90.000, 0.000, -68.300, 0.000, 0.000, -3.300, 0.0, , , , , , 95, , , 0, 0, 1
35.7013549, -118.5808862, 3.700, 09:55:53.441, 10, 0.00, 0.17, 70, 0.200, -0.700, -67.500, 2, 100, 100, 35, 23227, -16986, 3631, 5263, 23, 14, 1530809753.441, 20, 0, 1024, 1024, 1024, 1024, 0, 6, 3878, 3860, 3877, 3869, 3880, 3834, 0, 1, 7300, -90.000, 0.000, -68.300, 0.000, 0.000, -3.300, 0.0, , , , , , 95, , , 0, 0, 1
35.7013549, -118.5808862, 4.100, 09:55:53.552, 10, 0.00, 0.17, 70, 0.300, -0.400, -67.500, 2, 100, 100, 35, 23227, -16986, 3631, 5263, 23, 14, 1530809753.552, 4, 0, 1024, 1024, 1024, 1024, 0, 6, 3878, 3860, 3877, 3869, 3880, 3834, 0, 1, 7411, -89.900, 0.000, -68.300, 0.000, 0.000, -3.400, 0.0, , , , , , 95, , , 0, 0, 1
35.7013549, -118.5808861, 4.400, 09:55:53.640, 10, 0.00, 0.17, 70, 0.300, -0.100, -67.500, 2, 100, 100, 35, 23227, -16986, 3631, 5263, 23, 14, 1530809753.641, 17, 0, 1024, 1024, 1024, 1024, 0, 6, 3878, 3860, 3877, 3869, 3880, 3834, 0, 1, 7500, -89.900, 0.000, -68.300, 0.000, 0.000, -3.400, 0.0, , , , , , 95, , , 0, 0, 1
35.7013549, -118.5808861, 4.400, 09:55:53.741, 10, 0.00, 0.17, 70, 0.300, -0.100, -67.500, 2, 100, 100, 35, 23227, -16986, 3631, 5263, 23, 14, 1530809753.741, 117, 0, 1024, 1024, 1024, 1024, 0, 6, 3878, 3860, 3877, 3869, 3880, 3834, 0, 1, 7600, -89.900, 0.000, -68.300, 0.000, 0.000, -3.400, 0.0, , , , , , 95, , , 0, 0, 1
35.7013549, -118.5808860, 4.800, 09:55:53.840, 10, 0.00, 0.16, 70, 0.300, 0.000, -67.500, 2, 100, 100, 35, 23227, -16986, 3631, 5263, 23, 14, 1530809753.841, 98, 0, 1024, 1024, 1024, 1024, 0, 6, 3878, 3860, 3877, 3869, 3880, 3834, 0, 1, 7700, -89.900, 0.000, -68.300, 0.000, 0.000, -3.300, 0.0, , , , , , 95, , , 0, 0, 1
35.7013548, -118.5808860, 5.100, 09:55:53.941, 10, 0.00, 0.16, 69, 0.400, 0.000, -67.500, 2, 100, 100, 35, 22699, -22383, 3631, 5263, 23, 14, 1530809753.941, 89, 0, 1024, 1024, 1024, 1024, 0, 6, 3759, 3786, 3765, 3816, 3799, 3750, 0, 1, 7800, -89.900, 0.000, -68.300, 0.000, 0.000, -3.300, 0.0, , , , , , 95, , , 0, 0, 1
35.7013549, -118.5808860, 5.400, 09:55:54.040, 10, 0.00, 0.16, 69, 0.400, 0.000, -67.500, 2, 100, 100, 35, 22699, -22383, 3631, 5263, 23, 14, 1530809754.041, 93, 0, 1024, 1024, 1024, 1024, 0, 6, 3759, 3786, 3765, 3816, 3799, 3750, 0, 1, 7900, -89.900, 0.000, -68.300, 0.000, 0.000, -3.200, 0.0, , , , , , 95, , , 0, 0, 1
35.7013549, -118.5808861, 5.800, 09:55:54.140, 10, 0.00, 0.17, 69, 0.300, 0.000, -67.500, 2, 100, 100, 35, 22699, -22383, 3631, 5263, 23, 14, 1530809754.141, 97, 0, 1024, 1024, 1024, 1024, 0, 6, 3759, 3786, 3765, 3816, 3799, 3750, 0, 1, 8000, -89.900, 0.000, -68.300, 0.000, 0.000, -3.200, 0.0, , , , , , 95, , , 0, 0, 1
35.7013549, -118.5808862, 6.100, 09:55:54.241, 9, 0.00, 0.17, 69, 0.200, 0.100, -67.500, 2, 100, 100, 35, 22699, -22383, 3631, 5263, 23, 14, 1530809754.241, 91, 0, 1024, 1024, 1024, 1024, 0, 6, 3759, 3786, 3765, 3816, 3799, 3750, 0, 1, 8100, -89.900, 0.000, -68.300, 0.000, 0.000, -3.200, 0.0, , , , , , 95, , , 0, 0, 1
35.7013550, -118.5808862, 6.400, 09:55:54.340, 9, 0.00, 0.18, 69, 0.000, 0.400, -67.500, 2, 100, 100, 35, 22699, -22383, 3631, 5263, 23, 14, 1530809754.341, 92, 0, 1024, 1024, 1024, 1024, 0, 6, 3759, 3786, 3765, 3816, 3799, 3750, 0, 1, 8200, -89.900, 0.000, -68.300, 0.000, 0.000, -3.300, 0.0, , , , , , 95, , , 0, 0, 1
35.7013551, -118.5808863, 6.800, 09:55:54.440, 10, 0.00, 0.19, 69, -0.100, 0.600, -67.400, 2, 100, 100, 35, 22699, -22383, 3631, 5263, 23, 14, 1530809754.441, 92, 0, 1024, 1024, 1024, 1024, 0, 6, 3759, 3786, 3765, 3816, 3799, 3750, 0, 1, 8300, -89.900, 0.000, -68.300, 0.000, 0.000, -3.300, 0.0, , , , , , 95, , , 0, 0, 1
35.7013552, -118.5808864, 7.100, 09:55:54.540, 10, 0.00, 0.20, 69, 0.000, 0.800, -67.300, 2, 100, 100, 35, 22699, -22383, 3631, 5263, 23, 14, 1530809754.540, 57, 0, 1024, 1024, 1024, 1024, 0, 6, 3759, 3786, 3765, 3816, 3799, 3750, 0, 1, 8400, -89.900, 0.000, -68.300, 0.000, 0.000, -3.300, 0.0, , , , , , 95, , , 0, 0, 1
35.7013552, -118.5808865, 7.400, 09:55:54.640, 13, 0.00, 0.21, 69, 0.100, 1.000, -67.300, 2, 100, 100, 35, 22699, -22383, 3631, 5263, 23, 14, 1530809754.640, 73, 0, 1024, 1024, 1024, 1024, 0, 6, 3759, 3786, 3765, 3816, 3799, 3750, 0, 1, 8500, -89.900, 0.000, -68.300, 0.000, 0.000, -3.300, 0.0, , , , , , 95, , , 0, 0, 1
35.7013553, -118.5808866, 7.800, 09:55:54.740, 13, 0.00, 0.23, 69, 0.200, 1.100, -67.400, 2, 100, 100, 35, 22699, -22383, 3631, 5263, 23, 14, 1530809754.741, 61, 0, 1024, 1024, 1024, 1024, 0, 6, 3759, 3786, 3765, 3816, 3799, 3750, 0, 1, 8600, -89.900, 0.000, -68.300, 0.000, 0.000, -3.300, 0.0, , , , , , 95, , , 0, 0, 1
35.7013554, -118.5808867, 8.100, 09:55:54.840, 11, 0.00, 0.24, 69, 0.200, 1.200, -67.500, 2, 100, 100, 35, 22669, -23482, 3631, 5263, 23, 14, 1530809754.841, 63, 0, 1024, 1024, 1024, 1024, 0, 6, 3772, 3788, 3781, 3807, 3802, 3778, 0, 1, 8700, -89.900, 0.000, -68.300, 0.000, 0.000, -3.300, 0.0, , , , , , 95, , , 0, 0, 1
35.7013555, -118.5808868, 8.400, 09:55:54.940, 11, 0.00, 0.25, 69, 0.000, 1.300, -67.600, 2, 100, 100, 35, 22669, -23482, 3631, 5263, 23, 14, 1530809754.941, 42, 0, 1024, 1024, 1024, 1024, 0, 6, 3772, 3788, 3781, 3807, 3802, 3778, 0, 1, 8800, -89.900, 0.000, -68.300, 0.000, 0.000, -3.200, 0.0, , , , , , 95, , , 0, 0, 1
35.7013555, -118.5808869, 8.800, 09:55:55.040, 13, 0.00, 0.26, 69, -0.100, 1.300, -67.600, 2, 100, 100, 35, 22669, -23482, 3631, 5263, 23, 14, 1530809755.041, 57, 0, 1024, 1024, 1024, 1024, 0, 6, 3772, 3788, 3781, 3807, 3802, 3778, 0, 1, 8900, -89.900, 0.000, -68.300, 0.000, 0.000, -3.100, 0.0, , , , , , 95, , , 0, 0, 1
35.7013556, -118.5808871, 9.100, 09:55:55.140, 13, 0.00, 0.27, 69, -0.100, 1.300, -67.700, 2, 100, 100, 35, 22669, -23482, 3631, 5263, 23, 14, 1530809755.141, 52, 0, 1024, 1024, 1024, 1024, 0, 6, 3772, 3788, 3781, 3807, 3802, 3778, 0, 1, 9000, -89.900, 0.000, -68.300, 0.000, 0.000, -3.200, 0.0, , , , , , 95, , , 0, 0, 1
35.7013556, -118.5808872, 9.400, 09:55:55.240, 12, 0.00, 0.28, 69, 0.000, 1.300, -67.700, 2, 100, 100, 35, 22669, -23482, 3631, 5263, 23, 14, 1530809755.240, 55, 0, 1024, 1024, 1024, 1024, 0, 6, 3772, 3788, 3781, 3807, 3802, 3778, 0, 1, 9100, -89.900, 0.000, -68.300, 0.000, 0.000, -3.100, 0.0, , , , , , 95, , , 0, 0, 1
35.7013557, -118.5808873, 9.700, 09:55:55.340, 12, 0.00, 0.29, 69, 0.000, 1.400, -67.800, 2, 100, 100, 35, 22669, -23482, 3631, 5263, 23, 14, 1530809755.340, 36, 0, 1024, 1024, 1024, 1024, 0, 6, 3772, 3788, 3781, 3807, 3802, 3778, 0, 1, 9200, -89.900, 0.000, -68.300, 0.000, 0.000, -3.200, 0.0, , , , , , 95, , , 0, 0, 1
35.7013557, -118.5808875, 10.100, 09:55:55.440, 12, 0.00, 0.29, 69, 0.100, 1.500, -67.800, 2, 100, 100, 35, 22669, -23482, 3631, 5263, 23, 14, 1530809755.441, 42, 0, 1024, 1024, 1024, 1024, 0, 6, 3772, 3788, 3781, 3807, 3802, 3778, 0, 1, 9300, -89.900, 0.000, -68.300, 0.000, 0.000, -3.100, 0.0, , , , , , 95, , , 0, 0, 1
35.7013557, -118.5808876, 10.400, 09:55:55.540, 12, 0.00, 0.30, 69, 0.200, 1.600, -67.700, 2, 100, 100, 35, 22669, -23482, 3631, 5263, 23, 14, 1530809755.541, 46, 0, 1024, 1024, 1024, 1024, 0, 6, 3772, 3788, 3781, 3807, 3802, 3778, 0, 1, 9400, -89.900, 0.000, -68.300, 0.000, 0.000, -3.000, 0.0, , , , , , 95, , , 0, 0, 1
35.7013556, -118.5808878, 10.700, 09:55:55.640, 13, 0.00, 0.31, 69, 0.300, 1.700, -67.700, 2, 100, 100, 35, 22669, -23482, 3631, 5263, 23, 14, 1530809755.640, 40, 0, 1024, 1024, 1024, 1024, 0, 6, 3772, 3788, 3781, 3807, 3802, 3778, 0, 1, 9500, -89.900, 0.000, -68.300, 0.000, 0.000, -3.000, 0.0, , , , , , 95, , , 0, 0, 1
35.7013557, -118.5808878, 11.000, 09:55:55.740, 13, 0.00, 0.31, 69, 0.400, 1.700, -67.600, 2, 100, 100, 35, 22669, -23482, 3631, 5263, 23, 14, 1530809755.741, 41, 0, 1024, 1024, 1024, 1024, 0, 6, 3772, 3788, 3781, 3807, 3802, 3778, 0, 1, 9600, -89.900, 0.000, -68.300, 0.000, 0.000, -3.000, 0.0, , , , , , 95, , , 0, 0, 1
35.7013557, -118.5808879, 11.600, 09:55:55.840, 13, 0.00, 0.32, 69, 0.300, 1.400, -67.600, 2, 100, 100, 35, 22779, -20327, 3631, 5263, 23, 14, 1530809755.841, 31, 0, 1024, 1024, 1024, 1024, 0, 6, 3772, 3788, 3781, 3807, 3802, 3778, 0, 1, 9700, -89.900, 0.000, -68.300, 0.000, 0.000, -3.100, 0.0, , , , , , 95, , , 0, 0, 1
35.7013557, -118.5808880, 11.900, 09:55:55.940, 13, 0.00, 0.33, 69, 0.200, 1.300, -67.500, 2, 100, 100, 35, 22779, -20327, 3631, 5263, 23, 14, 1530809755.941, 41, 0, 1024, 1024, 1024, 1024, 0, 6, 3772, 3788, 3781, 3807, 3802, 3778, 0, 1, 9800, -89.900, 0.000, -68.300, 0.000, 0.000, -3.100, 0.0, , , , , , 95, , , 0, 0, 1
35.7013557, -118.5808881, 12.200, 09:55:56.040, 13, 0.00, 0.33, 69, 0.100, 1.200, -67.500, 2, 100, 100, 35, 22779, -20327, 3631, 5263, 23, 14, 1530809756.040, 5, 0, 1024, 1024, 1024, 1024, 0, 6, 3772, 3788, 3781, 3807, 3802, 3778, 0, 1, 9899, -89.900, 0.000, -68.300, 0.000, 0.000, -3.000, 0.0, , , , , , 95, , , 0, 0, 1
35.7013557, -118.5808881, 12.500, 09:55:56.140, 13, 0.00, 0.33, 69, 0.200, 1.200, -67.500, 2, 100, 100, 35, 22779, -20327, 3631, 5263, 23, 14, 1530809756.141, 10, 0, 1024, 1024, 1024, 1024, 0, 6, 3772, 3788, 3781, 3807, 3802, 3778, 0, 1, 10000, -89.900, 0.000, -68.300, 0.000, 0.000, -3.000, 0.0, , , , , , 95, , , 0, 0, 1
35.7013557, -118.5808881, 12.800, 09:55:56.240, 13, 0.00, 0.33, 69, 0.300, 1.300, -67.500, 2, 100, 100, 35, 22779, -20327, 3631, 5263, 23, 14, 1530809756.241, 17, 0, 1024, 1024, 1024, 1024, 0, 6, 3788, 3801, 3790, 3824, 3822, 3788, 0, 1, 10100, -89.900, 0.000, -68.300, 0.000, 0.000, -3.000, 0.0, , , , , , 95, , , 0, 0, 1
35.7013557, -118.5808881, 13.100, 09:55:56.340, 13, 0.00, 0.33, 69, 0.300, 1.300, -67.500, 2, 100, 100, 35, 22779, -20327, 3631, 5263, 23, 14, 1530809756.340, 9, 0, 1024, 1024, 1024, 1024, 0, 6, 3788, 3801, 3790, 3824, 3822, 3788, 0, 1, 10199, -89.900, 0.000, -68.300, 0.000, 0.000, -3.000, 0.0, , , , , , 95, , , 0, 0, 1
35.7013557, -118.5808881, 13.400, 09:55:56.440, 13, 0.00, 0.33, 69, 0.500, 1.100, -67.400, 2, 100, 100, 35, 22779, -20327, 3631, 5263, 23, 14, 1530809756.441, 6, 0, 1024, 1024, 1024, 1024, 0, 6, 3788, 3801, 3790, 3824, 3822, 3788, 0, 1, 10300, -89.900, 0.000, -68.300, 0.000, 0.000, -3.000, 0.0, , , , , , 95, , , 0, 0, 1
35.7013557, -118.5808881, 13.700, 09:55:56.545, 14, 0.00, 0.33, 69, 0.600, 1.100, -67.400, 2, 100, 100, 35, 22779, -20327, 3631, 5263, 23, 14, 1530809756.545, 5, 0, 1024, 1024, 1024, 1024, 0, 6, 3788, 3801, 3790, 3824, 3822, 3788, 0, 1, 10405, -89.900, 0.000, -68.300, 0.000, 0.000, -3.000, 0.0, , , , , , 95, , , 0, 0, 1
35.7013556, -118.5808881, 14.000, 09:55:56.640, 14, 0.00, 0.33, 69, 0.500, 1.000, -67.400, 2, 100, 100, 35, 22779, -20327, 3631, 5263, 23, 14, 1530809756.640, 6, 0, 1024, 1024, 1024, 1024, 0, 6, 3788, 3801, 3790, 3824, 3822, 3788, 0, 1, 10500, -89.900, 0.000, -68.300, 0.000, 0.000, -3.000, 0.0, , , , , , 95, , , 0, 0, 1
35.7013556, -118.5808881, 14.000, 09:55:56.740, 14, 0.00, 0.33, 69, 0.500, 1.000, -67.400, 2, 100, 100, 35, 22779, -20327, 3631, 5263, 23, 14, 1530809756.740, 106, 0, 1024, 1024, 1024, 1024, 0, 6, 3788, 3801, 3790, 3824, 3822, 3788, 0, 1, 10600, -89.900, 0.000, -68.300, 0.000, 0.000, -3.000, 0.0, , , , , , 95, , , 0, 0, 1
35.7013556, -118.5808881, 14.300, 09:55:56.840, 14, 0.00, 0.32, 69, 0.300, 0.900, -67.500, 2, 100, 100, 35, 22779, -20327, 3631, 5263, 23, 14, 1530809756.840, 67, 0, 1024, 1024, 1024, 1024, 0, 6, 3788, 3801, 3790, 3824, 3822, 3788, 0, 1, 10700, -89.900, 0.000, -68.300, 0.000, 0.000, -3.100, 0.0, , , , , , 95, , , 0, 0, 1
35.7013556, -118.5808880, 14.600, 09:55:56.940, 14, 0.00, 0.32, 69, 0.300, 0.900, -67.500, 2, 100, 100, 35, 22779, -20327, 3631, 5263, 23, 14, 1530809756.940, 82, 0, 1024, 1024, 1024, 1024, 0, 6, 3788, 3801, 3790, 3824, 3822, 3788, 0, 1, 10800, -89.900, 0.000, -68.300, 0.000, 0.000, -3.000, 0.0, , , , , , 95, , , 0, 0, 1
35.7013556, -118.5808880, 15.000, 09:55:57.040, 15, 0.00, 0.31, 69, 0.300, 0.800, -67.500, 2, 100, 100, 35, 22779, -20327, 3631, 5263, 23, 14, 1530809757.040, 84, 0, 1024, 1024, 1024, 1024, 0, 6, 3788, 3801, 3790, 3824, 3822, 3788, 0, 1, 10900, -89.900, 0.000, -68.300, 0.000, 0.000, -3.000, 0.0, , , , , , 95, , , 0, 0, 1
35.7013555, -118.5808879, 15.300, 09:55:57.140, 15, 0.00, 0.30, 69, 0.400, 0.700, -67.600, 2, 100, 100, 35, 22779, -20327, 3631, 5263, 23, 14, 1530809757.140, 84, 0, 1024, 1024, 1024, 1024, 0, 6, 3788, 3801, 3790, 3824, 3822, 3788, 0, 1, 11000, -89.900, 0.000, -68.300, 0.000, 0.000, -3.000, 0.0, , , , , , 95, , , 0, 0, 1
35.7013555, -118.5808879, 15.600, 09:55:57.240, 15, 0.10, 0.30, 69, 0.500, 0.600, -67.600, 2, 100, 100, 35, 22779, -20327, 3631, 5263, 23, 14, 1530809757.240, 76, 0, 1024, 1024, 1024, 1024, 0, 6, 3788, 3801, 3790, 3824, 3822, 3788, 0, 1, 11100, -89.900, 0.000, -68.300, 0.000, 0.100, -3.000, 0.0, , , , , , 95, , , 0, 0, 1
35.7013554, -118.5808878, 15.900, 09:55:57.340, 15, 0.10, 0.29, 69, 0.400, 0.400, -67.700, 2, 100, 100, 35, 22739, -20017, 3631, 5263, 23, 14, 1530809757.341, 80, 0, 1024, 1024, 1024, 1024, 0, 6, 3768, 3789, 3785, 3812, 3813, 3781, 0, 1, 11200, -89.900, 0.000, -68.300, 0.000, 0.100, -3.000, 0.0, , , , , , 95, , , 0, 0, 1
35.7013554, -118.5808878, 16.200, 09:55:57.440, 16, 0.10, 0.29, 69, 0.200, 0.300, -67.700, 2, 100, 100, 35, 22739, -20017, 3631, 5263, 23, 14, 1530809757.440, 70, 0, 1024, 1024, 1024, 1024, 0, 6, 3768, 3789, 3785, 3812, 3813, 3781, 0, 1, 11300, -89.900, 0.000, -68.300, 0.000, 0.100, -3.000, 0.0, , , , , , 95, , , 0, 0, 1
35.7013554, -118.5808877, 16.500, 09:55:57.540, 16, 0.10, 0.28, 69, 0.100, 0.200, -67.700, 2, 100, 100, 35, 22739, -20017, 3631, 5263, 23, 14, 1530809757.540, 69, 0, 1024, 1024, 1024, 1024, 0, 6, 3768, 3789, 3785, 3812, 3813, 3781, 0, 1, 11400, -89.900, 0.000, -68.300, -0.100, 0.000, -3.000, 0.0, , , , , , 95, , , 0, 0, 1
35.7013553, -118.5808876, 16.800, 09:55:57.640, 17, 0.10, 0.27, 69, 0.000, 0.200, -67.600, 2, 100, 100, 35, 22739, -20017, 3631, 5263, 23, 14, 1530809757.640, 26, 0, 1024, 1024, 1024, 1024, 0, 6, 3768, 3789, 3785, 3812, 3813, 3781, 0, 1, 11500, -89.900, 0.000, -68.300, -0.100, 0.000, -3.000, 0.0, , , , , , 95, , , 0, 0, 1
35.7013552, -118.5808875, 17.100, 09:55:57.740, 17, 0.10, 0.26, 69, 0.200, 0.200, -67.600, 2, 100, 100, 35, 22739, -20017, 3631, 5263, 23, 14, 1530809757.741, 52, 0, 1024, 1024, 1024, 1024, 0, 6, 3768, 3789, 3785, 3812, 3813, 3781, 0, 1, 11600, -89.900, 0.000, -68.300, -0.100, 0.000, -2.900, 0.0, , , , , , 95, , , 0, 0, 1
35.7013551, -118.5808874, 17.700, 09:55:57.840, 17, 0.10, 0.24, 69, 0.900, 0.100, -67.600, 2, 100, 100, 35, 22739, -20017, 3631, 5263, 23, 14, 1530809757.840, 43, 0, 1024, 1024, 1024, 1024, 0, 6, 3768, 3789, 3785, 3812, 3813, 3781, 0, 1, 11700, -89.900, 0.000, -68.300, -0.100, 0.000, -2.900, 0.0, , , , , , 95, , , 0, 0, 1
35.7013551, -118.5808874, 17.700, 09:55:57.940, 17, 0.10, 0.24, 69, 0.900, 0.100, -67.600, 2, 100, 100, 35, 22739, -20017, 3631, 5263, 23, 14, 1530809757.940, 142, 0, 1024, 1024, 1024, 1024, 0, 6, 3768, 3789, 3785, 3812, 3813, 3781, 0, 1, 11799, -89.900, 0.000, -68.300, -0.100, 0.000, -2.900, 0.0, , , , , , 95, , , 0, 0, 1
35.7013550, -118.5808873, 18.300, 09:55:58.039, 17, 0.00, 0.23, 69, 1.200, 0.300, -67.500, 2, 100, 100, 35, 22739, -20017, 3631, 5263, 23, 14, 1530809758.039, 33, 0, 1024, 1024, 1024, 1024, 0, 6, 3768, 3789, 3785, 3812, 3813, 3781, 0, 1, 11899, -89.900, 0.000, -68.300, 0.000, 0.000, -2.900, 0.0, , , , , , 95, , , 0, 0, 1
35.7013550, -118.5808873, 18.300, 09:55:58.140, 17, 0.00, 0.23, 69, 1.200, 0.300, -67.500, 2, 100, 100, 35, 22739, -20017, 3631, 5263, 23, 14, 1530809758.140, 134, 0, 1024, 1024, 1024, 1024, 0, 6, 3768, 3789, 3785, 3812, 3813, 3781, 0, 1, 12000, -89.900, 0.000, -68.300, 0.000, 0.000, -2.900, 0.0, , , , , , 95, , , 0, 0, 1
35.7013549, -118.5808873, 18.900, 09:55:58.240, 17, 0.00, 0.21, 69, 0.900, 0.400, -67.400, 2, 100, 100, 35, 22739, -20017, 3631, 5263, 23, 14, 1530809758.240, 40, 0, 1024, 1024, 1024, 1024, 0, 6, 3768, 3789, 3785, 3812, 3813, 3781, 0, 1, 12100, -89.900, 0.000, -68.300, 0.000, 0.000, -3.000, 0.0, , , , , , 95, , , 0, 0, 1
35.7013548, -118.5808873, 19.200, 09:55:58.340, 17, 0.00, 0.21, 69, 0.900, 0.300, -67.400, 2, 100, 100, 36, 22703, -20396, 3631, 5263, 23, 14, 1530809758.340, 12, 0, 1024, 1024, 1024, 1024, 0, 6, 3762, 3776, 3779, 3798, 3808, 3772, 0, 1, 12200, -89.900, 0.000, -68.300, 0.000, 0.000, -3.000, 0.0, , , , , , 95, , , 0, 0, 1
35.7013548, -118.5808873, 19.200, 09:55:58.439, 17, 0.00, 0.21, 69, 0.900, 0.300, -67.400, 2, 100, 100, 36, 22703, -20396, 3631, 5263, 23, 14, 1530809758.439, 111, 0, 1024, 1024, 1024, 1024, 0, 6, 3762, 3776, 3779, 3798, 3808, 3772, 0, 1, 12299, -89.900, 0.000, -68.300, 0.000, 0.000, -3.000, 0.0, , , , , , 95, , , 0, 0, 1
35.7013547, -118.5808872, 19.800, 09:55:58.541, 17, 0.00, 0.20, 69, 0.700, 0.300, -67.300, 2, 100, 100, 36, 22703, -20396, 3631, 5263, 23, 14, 1530809758.541, 4, 0, 1024, 1024, 1024, 1024, 0, 6, 3762, 3776, 3779, 3798, 3808, 3772, 0, 1, 12401, -89.900, 0.000, -68.300, 0.000, 0.000, -2.900, 0.0, , , , , , 95, , , 0, 0, 1
35.7013547, -118.5808871, 20.100, 09:55:58.640, 17, 0.00, 0.19, 69, 0.900, 0.200, -67.400, 2, 100, 100, 36, 22703, -20396, 3631, 5263, 23, 14, 1530809758.640, 8, 0, 1024, 1024, 1024, 1024, 0, 6, 3762, 3776, 3779, 3798, 3808, 3772, 0, 1, 12500, -89.900, 0.000, -68.300, 0.000, 0.000, -2.900, 0.0, , , , , , 95, , , 0, 0, 1
35.7013547, -118.5808870, 20.400, 09:55:58.739, 17, 0.00, 0.18, 69, 1.000, 0.000, -67.400, 2, 100, 100, 36, 22703, -20396, 3631, 5263, 23, 14, 1530809758.739, 3, 0, 1024, 1024, 1024, 1024, 0, 6, 3762, 3776, 3779, 3798, 3808, 3772, 0, 1, 12599, -89.900, 0.000, -68.300, 0.000, 0.000, -2.900, 0.0, , , , , , 95, , , 0, 0, 1
35.7013547, -118.5808870, 20.400, 09:55:58.840, 17, 0.00, 0.18, 69, 1.000, 0.000, -67.400, 2, 100, 100, 36, 22703, -20396, 3631, 5263, 23, 14, 1530809758.841, 104, 0, 1024, 1024, 1024, 1024, 0, 6, 3762, 3776, 3779, 3798, 3808, 3772, 0, 1, 12700, -89.900, 0.000, -68.300, 0.000, 0.000, -2.900, 0.0, , , , , , 95, , , 0, 0, 1
35.7013546, -118.5808870, 20.700, 09:55:58.940, 17, 0.00, 0.17, 69, 1.200, -0.100, -67.600, 2, 100, 100, 36, 22703, -20396, 3631, 5263, 23, 14, 1530809758.940, 92, 0, 1024, 1024, 1024, 1024, 0, 6, 3762, 3776, 3779, 3798, 3808, 3772, 0, 1, 12800, -90.000, 0.000, -68.300, 0.000, 0.000, -2.900, 0.0, , , , , , 95, , , 0, 0, 1
35.7013546, -118.5808869, 21.000, 09:55:59.040, 17, 0.00, 0.16, 69, 1.300, -0.200, -67.700, 2, 100, 100, 36, 22703, -20396, 3631, 5263, 23, 14, 1530809759.040, 92, 0, 1024, 1024, 1024, 1024, 0, 6, 3762, 3776, 3779, 3798, 3808, 3772, 0, 1, 12900, -90.000, 0.000, -68.300, 0.000, 0.000, -3.000, 0.0, , , , , , 95, , , 0, 0, 1
35.7013545, -118.5808869, 21.300, 09:55:59.140, 17, 0.00, 0.16, 69, 1.300, -0.100, -67.700, 2, 100, 100, 36, 22703, -20396, 3631, 5263, 23, 14, 1530809759.140, 86, 0, 1024, 1024, 1024, 1024, 0, 6, 3762, 3776, 3779, 3798, 3808, 3772, 0, 1, 13000, -89.900, 0.000, -68.300, 0.000, 0.000, -3.000, 0.0, , , , , , 95, , , 0, 0, 1
35.7013545, -118.5808868, 21.600, 09:55:59.240, 17, 0.00, 0.15, 69, 1.100, 0.000, -67.800, 2, 100, 100, 36, 22703, -20396, 3631, 5263, 23, 14, 1530809759.240, 92, 0, 1024, 1024, 1024, 1024, 0, 6, 3762, 3776, 3779, 3798, 3808, 3772, 0, 1, 13100, -89.900, 0.000, -68.300, 0.000, 0.000, -2.900, 0.0, , , , , , 95, , , 0, 0, 1
35.7013545, -118.5808868, 21.900, 09:55:59.340, 17, 0.00, 0.15, 69, 1.100, 0.000, -67.900, 2, 100, 100, 36, 22607, -21168, 3631, 5263, 23, 14, 1530809759.340, 87, 0, 1024, 1024, 1024, 1024, 0, 6, 3746, 3765, 3772, 3781, 3784, 3749, 0, 1, 13200, -89.900, 0.000, -68.300, 0.000, 0.000, -3.000, 0.0, , , , , , 95, , , 0, 0, 1
35.7013545, -118.5808867, 22.100, 09:55:59.440, 17, 0.00, 0.15, 69, 1.000, 0.000, -67.900, 2, 100, 100, 36, 22607, -21168, 3631, 5263, 23, 14, 1530809759.440, 90, 0, 1024, 1024, 1024, 1024, 0, 6, 3746, 3765, 3772, 3781, 3784, 3749, 0, 1, 13300, -89.900, 0.000, -68.300, 0.000, 0.000, -2.900, 0.0, , , , , , 95, , , 0, 0, 1
35.7013545, -118.5808867, 22.400, 09:55:59.540, 17, 0.00, 0.14, 69, 0.800, 0.000, -67.900, 2, 100, 100, 36, 22607, -21168, 3631, 5263, 23, 14, 1530809759.540, 72, 0, 1024, 1024, 1024, 1024, 0, 6, 3746, 3765, 3772, 3781, 3784, 3749, 0, 1, 13400, -89.900, 0.000, -68.300, 0.000, 0.000, -3.000, 0.0, , , , , , 95, , , 0, 0, 1
35.7013545, -118.5808866, 22.700, 09:55:59.640, 18, 0.00, 0.14, 69, 0.700, 0.100, -67.800, 2, 100, 100, 36, 22607, -21168, 3631, 5263, 23, 14, 1530809759.640, 52, 0, 1024, 1024, 1024, 1024, 0, 6, 3746, 3765, 3772, 3781, 3784, 3749, 0, 1, 13500, -89.900, 0.000, -68.300, 0.000, 0.000, -3.000, 0.0, , , , , , 95, , , 0, 0, 1
35.7013544, -118.5808866, 23.000, 09:55:59.740, 18, 0.00, 0.14, 69, 0.500, 0.200, -67.700, 2, 100, 100, 36, 22607, -21168, 3631, 5263, 23, 14, 1530809759.740, 76, 0, 1024, 1024, 1024, 1024, 0, 6, 3746, 3765, 3772, 3781, 3784, 3749, 0, 1, 13600, -89.900, 0.000, -68.300, 0.000, 0.000, -2.900, 0.0, , , , , , 95, , , 0, 0, 1
35.7013544, -118.5808866, 23.300, 09:55:59.840, 18, 0.00, 0.13, 69, 0.500, 0.200, -67.700, 2, 100, 100, 36, 22607, -21168, 3631, 5263, 23, 14, 1530809759.840, 59, 0, 1024, 1024, 1024, 1024, 0, 6, 3746, 3765, 3772, 3781, 3784, 3749, 0, 1, 13700, -89.900, 0.000, -68.300, 0.000, 0.000, -3.000, 0.0, , , , , , 95, , , 0, 0, 1
35.7013544, -118.5808866, 23.600, 09:55:59.940, 18, 0.00, 0.13, 69, 0.700, 0.200, -67.700, 2, 100, 99, 36, 22607, -21168, 3631, 5263, 23, 14, 1530809759.940, 53, 0, 1024, 1024, 1024, 1024, 0, 6, 3746, 3765, 3772, 3781, 3784, 3749, 0, 1, 13800, -89.900, 0.000, -68.300, 0.000, 0.000, -3.000, 0.0, , , , , , 95, , , 0, 0, 1
35.7013544, -118.5808866, 24.000, 09:56:00.040, 18, 0.00, 0.13, 69, 0.900, 0.200, -67.600, 2, 100, 99, 36, 22607, -21168, 3631, 5263, 23, 14, 1530809760.040, 50, 0, 1024, 1024, 1024, 1024, 0, 6, 3746, 3765, 3772, 3781, 3784, 3749, 0, 1, 13900, -89.900, 0.000, -68.300, 0.000, 0.000, -3.000, 0.0, , , , , , 95, , , 0, 0, 1
35.7013544, -118.5808866, 24.300, 09:56:00.140, 18, 0.00, 0.13, 69, 1.100, 0.200, -67.600, 2, 100, 99, 36, 22607, -21168, 3631, 5263, 23, 14, 1530809760.141, 43, 0, 1024, 1024, 1024, 1024, 0, 6, 3746, 3765, 3772, 3781, 3784, 3749, 0, 1, 14000, -89.900, 0.000, -68.300, 0.000, 0.000, -3.100, 0.0, , , , , , 95, , , 0, 0, 1
35.7013545, -118.5808865, 24.900, 09:56:00.240, 18, 0.00, 0.14, 69, 0.900, 0.300, -67.600, 2, 100, 99, 36, 22607, -21168, 3631, 5263, 23, 14, 1530809760.240, 20, 0, 1024, 1024, 1024, 1024, 0, 6, 3746, 3765, 3772, 3781, 3784, 3749, 0, 1, 14100, -89.900, 0.000, -68.300, 0.000, 0.000, -3.000, 0.0, , , , , , 95, , , 0, 0, 1
35.7013545, -118.5808865, 24.900, 09:56:00.339, 18, 0.00, 0.14, 69, 0.900, 0.300, -67.600, 2, 100, 99, 36, 22569, -21457, 3631, 5263, 23, 14, 1530809760.339, 119, 0, 1024, 1024, 1024, 1024, 0, 6, 3746, 3765, 3772, 3781, 3784, 3749, 0, 1, 14199, -89.900, 0.000, -68.300, 0.000, 0.000, -3.000, 0.0, , , , , , 95, , , 0, 0, 1
35.7013545, -118.5808865, 25.500, 09:56:00.440, 18, 0.00, 0.14, 69, 0.300, 0.400, -67.500, 2, 100, 97, 36, 22569, -21457, 3631, 5263, 23, 14, 1530809760.440, 30, 0, 1024, 1024, 1024, 1024, 0, 6, 3743, 3757, 3760, 3783, 3776, 3750, 0, 1, 14300, -89.900, 0.000, -68.300, 0.000, 0.000, -3.100, 0.0, , , , , , 95, , , 0, 0, 1
35.7013545, -118.5808866, 25.800, 09:56:00.539, 18, 0.00, 0.15, 69, 0.400, 0.300, -67.500, 2, 100, 97, 36, 22569, -21457, 3631, 5263, 23, 14, 1530809760.540, 36, 0, 1024, 1024, 1024, 1024, 0, 6, 3743, 3757, 3760, 3783, 3776, 3750, 0, 1, 14399, -89.900, 0.000, -68.300, 0.000, 0.000, -3.000, 0.0, , , , , , 95, , , 0, 0, 1
35.7013546, -118.5808866, 26.100, 09:56:00.640, 18, 0.00, 0.15, 69, 0.500, 0.300, -67.500, 2, 100, 97, 36, 22569, -21457, 3631, 5263, 23, 14, 1530809760.640, 2, 0, 1024, 1024, 1024, 1024, 0, 6, 3743, 3757, 3760, 3783, 3776, 3750, 0, 1, 14500, -89.900, 0.000, -68.300, 0.000, 0.000, -3.000, 0.0, , , , , , 95, , , 0, 0, 1
35.7013546, -118.5808866, 26.400, 09:56:00.739, 18, 0.00, 0.15, 69, 0.500, 0.300, -67.400, 2, 100, 97, 36, 22569, -21457, 3631, 5263, 23, 14, 1530809760.740, 11, 0, 1024, 1024, 1024, 1024, 0, 6, 3743, 3757, 3760, 3783, 3776, 3750, 0, 1, 14599, -89.900, 0.000, -68.300, 0.000, 0.000, -2.900, 0.0, , , , , , 95, , , 0, 0, 1
35.7013546, -118.5808866, 26.400, 09:56:00.840, 18, 0.00, 0.15, 69, 0.500, 0.300, -67.400, 2, 100, 97, 36, 22569, -21457, 3631, 5263, 23, 14, 1530809760.840, 112, 0, 1024, 1024, 1024, 1024, 0, 6, 3743, 3757, 3760, 3783, 3776, 3750, 0, 1, 14700, -89.900, 0.000, -68.300, 0.000, 0.000, -2.900, 0.0, , , , , , 95, , , 0, 0, 1
35.7013546, -118.5808866, 26.700, 09:56:00.940, 18, 0.00, 0.15, 69, 0.700, 0.400, -67.400, 2, 100, 97, 36, 22569, -21457, 3631, 5263, 23, 14, 1530809760.940, 92, 0, 1024, 1024, 1024, 1024, 0, 6, 3743, 3757, 3760, 3783, 3776, 3750, 0, 1, 14800, -89.900, 0.000, -68.300, 0.000, 0.000, -3.000, 0.0, , , , , , 95, , , 0, 0, 1
35.7013546, -118.5808865, 27.300, 09:56:01.040, 18, 0.00, 0.15, 69, 0.600, 0.300, -67.500, 2, 100, 97, 36, 22569, -21457, 3631, 5263, 23, 14, 1530809761.040, 10, 0, 1024, 1024, 1024, 1024, 0, 6, 3743, 3757, 3760, 3783, 3776, 3750, 0, 1, 14900, -89.900, 0.000, -68.300, 0.000, 0.000, -2.900, 0.0, , , , , , 95, , , 0, 0, 1
35.7013546, -118.5808865, 27.300, 09:56:01.140, 18, 0.00, 0.15, 69, 0.600, 0.300, -67.500, 2, 100, 97, 36, 22569, -21457, 3631, 5263, 23, 14, 1530809761.140, 110, 0, 1024, 1024, 1024, 1024, 0, 6, 3743, 3757, 3760, 3783, 3776, 3750, 0, 1, 15000, -89.900, 0.000, -68.300, 0.000, 0.000, -2.900, 0.0, , , , , , 95, , , 0, 0, 1
35.7013546, -118.5808865, 27.600, 09:56:01.240, 18, 0.00, 0.15, 69, 0.500, 0.200, -67.600, 2, 100, 97, 36, 22569, -21457, 3631, 5263, 23, 14, 1530809761.240, 88, 0, 1024, 1024, 1024, 1024, 0, 6, 3743, 3757, 3760, 3783, 3776, 3750, 0, 1, 15100, -89.900, 0.000, -68.300, 0.000, 0.000, -2.900, 0.0, , , , , , 95, , , 0, 0, 1
35.7013546, -118.5808866, 27.900, 09:56:01.340, 18, 0.00, 0.15, 69, 0.600, 0.300, -67.600, 2, 100, 97, 36, 22575, -20918, 3631, 5263, 23, 14, 1530809761.340, 93, 0, 1024, 1024, 1024, 1024, 0, 6, 3743, 3757, 3760, 3783, 3776, 3750, 0, 1, 15200, -89.900, 0.000, -68.300, 0.000, 0.000, -2.900, 0.0, , , , , , 95, , , 0, 0, 1
35.7013546, -118.5808866, 27.900, 09:56:01.440, 18, 0.00, 0.15, 69, 0.600, 0.300, -67.600, 2, 100, 94, 36, 22575, -20918, 3631, 5263, 23, 14, 1530809761.440, 193, 0, 1024, 1024, 1024, 1024, 0, 6, 3743, 3757, 3760, 3783, 3776, 3750, 0, 1, 15300, -89.900, 0.000, -68.300, 0.000, 0.000, -2.900, 0.0, , , , , , 95, , , 0, 0, 1
35.7013546, -118.5808866, 28.500, 09:56:01.540, 18, 0.00, 0.15, 69, 0.700, 0.500, -67.700, 2, 100, 94, 36, 22575, -20918, 3631, 5263, 23, 14, 1530809761.540, 83, 0, 1024, 1024, 1024, 1024, 0, 6, 3743, 3757, 3760, 3783, 3776, 3750, 0, 1, 15400, -89.900, 0.000, -68.300, 0.000, 0.000, -3.000, 0.0, , , , , , 95, , , 0, 0, 1
35.7013546, -118.5808866, 28.800, 09:56:01.640, 18, 0.00, 0.15, 69, 0.600, 0.500, -67.700, 2, 100, 94, 36, 22575, -20918, 3631, 5263, 23, 14, 1530809761.640, 88, 0, 1024, 1024, 1024, 1024, 0, 6, 3743, 3757, 3760, 3783, 3776, 3750, 0, 1, 15500, -89.900, 0.000, -68.300, 0.000, 0.000, -3.000, 0.0, , , , , , 95, , , 0, 0, 1
35.7013546, -118.5808866, 29.100, 09:56:01.740, 18, 0.00, 0.15, 69, 0.800, 0.500, -67.600, 2, 100, 94, 36, 22575, -20918, 3631, 5263, 23, 14, 1530809761.740, 80, 0, 1024, 1024, 1024, 1024, 0, 6, 3743, 3757, 3760, 3783, 3776, 3750, 0, 1, 15600, -89.900, 0.000, -68.300, 0.000, 0.000, -3.000, 0.0, , , , , , 95, , , 0, 0, 1
35.7013546, -118.5808866, 29.400, 09:56:01.840, 18, 0.00, 0.15, 68, 0.800, 0.500, -67.600, 2, 100, 94, 36, 22575, -20918, 3578, 5263, 23, 14, 1530809761.840, 47, 0, 1024, 1024, 1024, 1024, 0, 6, 3741, 3763, 3754, 3784, 3781, 3746, 0, 1, 15700, -89.900, 0.000, -68.300, 0.000, 0.000, -3.000, 0.0, , , , , , 95, , , 0, 0, 1
35.7013546, -118.5808866, 29.700, 09:56:01.940, 18, 0.00, 0.15, 68, 0.900, 0.300, -67.500, 2, 100, 96, 36, 22575, -20918, 3578, 5263, 23, 14, 1530809761.940, 63, 0, 1024, 1024, 1024, 1024, 0, 6, 3741, 3763, 3754, 3784, 3781, 3746, 0, 1, 15800, -90.000, 0.000, -68.300, 0.000, 0.000, -3.000, 0.0, , , , , , 95, , , 0, 0, 1
35.7013546, -118.5808866, 30.000, 09:56:02.039, 18, 0.00, 0.15, 68, 1.000, 0.100, -67.500, 2, 100, 96, 36, 22575, -20918, 3578, 5263, 23, 14, 1530809762.040, 65, 0, 1024, 1024, 1024, 1024, 0, 6, 3741, 3763, 3754, 3784, 3781, 3746, 0, 1, 15899, -90.000, 0.000, -68.300, 0.000, 0.000, -2.900, 0.0, , , , , , 95, , , 0, 0, 1
35.7013545, -118.5808866, 30.300, 09:56:02.140, 18, 0.00, 0.15, 68, 1.000, 0.000, -67.500, 2, 100, 96, 36, 22575, -20918, 3578, 5263, 23, 14, 1530809762.140, 44, 0, 1024, 1024, 1024, 1024, 0, 6, 3741, 3763, 3754, 3784, 3781, 3746, 0, 1, 16000, -89.900, 0.000, -68.300, 0.000, 0.000, -2.900, 0.0, , , , , , 95, , , 0, 0, 1
35.7013545, -118.5808866, 30.600, 09:56:02.240, 18, 0.00, 0.15, 68, 0.900, 0.000, -67.600, 2, 100, 96, 36, 22575, -20918, 3578, 5263, 23, 14, 1530809762.240, 46, 0, 1024, 1024, 1024, 1024, 0, 6, 3741, 3763, 3754, 3784, 3781, 3746, 0, 1, 16100, -89.900, 0.000, -68.300, 0.000, 0.000, -3.000, 0.0, , , , , , 95, , , 0, 0, 1
35.7013545, -118.5808866, 30.900, 09:56:02.340, 18, 0.00, 0.15, 68, 1.000, 0.000, -67.600, 2, 100, 96, 36, 22575, -20918, 3578, 5263, 23, 14, 1530809762.340, 56, 0, 1024, 1024, 1024, 1024, 0, 6, 3741, 3763, 3754, 3784, 3781, 3746, 0, 1, 16200, -89.900, 0.000, -68.300, 0.000, 0.000, -3.000, 0.0, , , , , , 95, , , 0, 0, 1
35.7013545, -118.5808866, 31.200, 09:56:02.440, 18, 0.00, 0.15, 68, 0.900, 0.000, -67.600, 2, 100, 98, 36, 22575, -20918, 3578, 5263, 23, 14, 1530809762.440, 36, 0, 1024, 1024, 1024, 1024, 0, 6, 3741, 3763, 3754, 3784, 3781, 3746, 0, 1, 16300, -89.900, 0.000, -68.300, 0.000, 0.000, -3.000, 0.0, , , , , , 95, , , 0, 0, 1
35.7013545, -118.5808867, 31.500, 09:56:02.540, 18, 0.00, 0.14, 68, 0.900, 0.100, -67.600, 2, 100, 98, 36, 22575, -20918, 3578, 5263, 23, 14, 1530809762.540, 55, 0, 1024, 1024, 1024, 1024, 0, 6, 3741, 3763, 3754, 3784, 3781, 3746, 0, 1, 16400, -89.900, 0.000, -68.300, 0.000, 0.000, -2.900, 0.0, , , , , , 95, , , 0, 0, 1
35.7013545, -118.5808867, 31.800, 09:56:02.640, 18, 0.00, 0.14, 68, 0.900, 0.300, -67.500, 2, 100, 98, 36, 22575, -20918, 3578, 5263, 23, 14, 1530809762.640, 47, 0, 1024, 1024, 1024, 1024, 0, 6, 3741, 3763, 3754, 3784, 3781, 3746, 0, 1, 16500, -89.900, 0.000, -68.300, 0.000, 0.000, -2.900, 0.0, , , , , , 95, , , 0, 0, 1
35.7013544, -118.5808868, 32.400, 09:56:02.740, 18, 0.00, 0.15, 68, 1.100, 0.500, -67.500, 2, 100, 98, 36, 22575, -20918, 3578, 5263, 23, 14, 1530809762.740, 38, 0, 1024, 1024, 1024, 1024, 0, 6, 3741, 3763, 3754, 3784, 3781, 3746, 0, 1, 16600, -89.900, 0.000, -68.300, 0.000, 0.000, -3.000, 0.0, , , , , , 95, , , 0, 0, 1
35.7013544, -118.5808868, 32.700, 09:56:02.840, 18, 0.00, 0.15, 68, 1.000, 0.600, -67.400, 2, 100, 98, 36, 22548, -20867, 3578, 5263, 23, 14, 1530809762.840, 40, 0, 1024, 1024, 1024, 1024, 0, 6, 3739, 3756, 3753, 3778, 3781, 3744, 0, 1, 16700, -89.900, 0.000, -68.300, 0.000, 0.000, -3.000, 0.0, , , , , , 95, , , 0, 0, 1
35.7013544, -118.5808868, 32.700, 09:56:02.940, 18, 0.00, 0.15, 68, 1.000, 0.600, -67.400, 2, 100, 100, 36, 22548, -20867, 3578, 5263, 23, 14, 1530809762.940, 139, 0, 1024, 1024, 1024, 1024, 0, 6, 3739, 3756, 3753, 3778, 3781, 3744, 0, 1, 16800, -89.900, 0.000, -68.300, 0.000, 0.000, -3.000, 0.0, , , , , , 95, , , 0, 0, 1
35.7013544, -118.5808869, 33.300, 09:56:03.041, 18, 0.00, 0.15, 68, 1.200, 0.500, -67.500, 2, 100, 100, 36, 22548, -20867, 3578, 5263, 23, 14, 1530809763.042, 22, 0, 1024, 1024, 1024, 1024, 0, 6, 3739, 3756, 3753, 3778, 3781, 3744, 0, 1, 16901, -89.900, 0.000, -68.300, 0.000, 0.000, -3.000, 0.0, , , , , , 95, , , 0, 0, 1
35.7013544, -118.5808869, 33.300, 09:56:03.140, 18, 0.00, 0.15, 68, 1.200, 0.500, -67.500, 2, 100, 100, 36, 22548, -20867, 3578, 5263, 23, 14, 1530809763.140, 120, 0, 1024, 1024, 1024, 1024, 0, 6, 3739, 3756, 3753, 3778, 3781, 3744, 0, 1, 17000, -89.900, 0.000, -68.300, 0.000, 0.000, -3.000, 0.0, , , , , , 95, , , 0, 0, 1
35.7013544, -118.5808869, 33.700, 09:56:03.240, 18, 0.00, 0.15, 68, 1.300, 0.300, -67.500, 2, 100, 100, 36, 22548, -20867, 3578, 5263, 23, 14, 1530809763.240, 18, 0, 1024, 1024, 1024, 1024, 0, 6, 3739, 3756, 3753, 3778, 3781, 3744, 0, 1, 17100, -89.900, 0.000, -68.300, 0.000, 0.000, -3.000, 0.0, , , , , , 95, , , 0, 0, 1
35.7013543, -118.5808870, 34.200, 09:56:03.340, 18, 0.00, 0.15, 68, 1.300, 0.600, -67.600, 2, 100, 100, 36, 22548, -20867, 3578, 5263, 23, 14, 1530809763.340, 19, 0, 1024, 1024, 1024, 1024, 0, 6, 3739, 3756, 3753, 3778, 3781, 3744, 0, 1, 17200, -89.900, 0.000, -68.300, 0.000, 0.000, -2.900, 0.0, , , , , , 95, , , 0, 0, 1
35.7013543, -118.5808871, 34.500, 09:56:03.440, 18, 0.00, 0.15, 68, 1.400, 0.600, -67.600, 2, 100, 97, 36, 22548, -20867, 3578, 5263, 23, 14, 1530809763.440, 11, 0, 1024, 1024, 1024, 1024, 0, 6, 3739, 3756, 3753, 3778, 3781, 3744, 0, 1, 17300, -89.900, 0.000, -68.300, 0.000, 0.000, -2.900, 0.0, , , , , , 95, , , 0, 0, 1
35.7013543, -118.5808871, 34.500, 09:56:03.540, 18, 0.00, 0.15, 68, 1.400, 0.600, -67.600, 2, 100, 97, 36, 22548, -20867, 3578, 5263, 23, 14, 1530809763.540, 111, 0, 1024, 1024, 1024, 1024, 0, 6, 3739, 3756, 3753, 3778, 3781, 3744, 0, 1, 17400, -89.900, 0.000, -68.300, 0.000, 0.000, -2.900, 0.0, , , , , , 95, , , 0, 0, 1
35.7013543, -118.5808871, 34.500, 09:56:03.640, 18, 0.00, 0.15, 68, 1.400, 0.600, -67.600, 2, 100, 97, 36, 22548, -20867, 3578, 5263, 23, 14, 1530809763.640, 211, 0, 1024, 1024, 1024, 1024, 0, 6, 3739, 3756, 3753, 3778, 3781, 3744, 0, 1, 17500, -89.900, 0.000, -68.300, 0.000, 0.000, -2.900, 0.0, , , , , , 95, , , 0, 0, 1
35.7013542, -118.5808871, 35.100, 09:56:03.740, 18, 0.00, 0.15, 68, 1.300, 0.600, -67.700, 2, 100, 97, 36, 22548, -20867, 3578, 5263, 23, 14, 1530809763.740, 79, 0, 1024, 1024, 1024, 1024, 0, 6, 3739, 3756, 3753, 3778, 3781, 3744, 0, 1, 17600, -89.900, 0.000, -68.300, 0.000, 0.000, -2.900, 0.0, , , , , , 95, , , 0, 0, 1
35.7013542, -118.5808871, 35.400, 09:56:03.840, 18, 0.00, 0.15, 68, 1.200, 0.500, -67.700, 2, 100, 97, 36, 22536, -20878, 3578, 5263, 23, 14, 1530809763.840, 93, 0, 1024, 1024, 1024, 1024, 0, 6, 3732, 3743, 3754, 3764, 3780, 3740, 0, 1, 17700, -89.900, 0.000, -68.300, 0.000, 0.000, -3.000, 0.0, , , , , , 95, , , 0, 0, 1
35.7013542, -118.5808871, 35.700, 09:56:03.940, 18, 0.00, 0.15, 68, 1.100, 0.300, -67.700, 2, 100, 97, 36, 22536, -20878, 3578, 5263, 23, 14, 1530809763.940, 94, 0, 1024, 1024, 1024, 1024, 0, 6, 3732, 3743, 3754, 3764, 3780, 3740, 0, 1, 17799, -89.900, 0.000, -68.300, 0.000, 0.000, -3.000, 0.0, , , , , , 95, , , 0, 0, 1
35.7013542, -118.5808872, 36.000, 09:56:04.040, 18, 0.00, 0.15, 68, 1.100, 0.200, -67.700, 2, 100, 97, 36, 22536, -20878, 3578, 5263, 23, 14, 1530809764.040, 56, 0, 1024, 1024, 1024, 1024, 0, 6, 3732, 3743, 3754, 3764, 3780, 3740, 0, 1, 17900, -89.900, 0.000, -68.300, 0.000, 0.000, -3.000, 0.0, , , , , , 95, , , 0, 0, 1
35.7013541, -118.5808872, 36.300, 09:56:04.140, 18, 0.00, 0.15, 68, 1.200, 0.200, -67.700, 2, 100, 97, 36, 22536, -20878, 3578, 5263, 23, 14, 1530809764.140, 78, 0, 1024, 1024, 1024, 1024, 0, 6, 3732, 3743, 3754, 3764, 3780, 3740, 0, 1, 18000, -89.900, 0.000, -68.300, 0.000, 0.000, -3.000, 0.0, , , , , , 95, , , 0, 0, 1
35.7013541, -118.5808872, 36.300, 09:56:04.240, 18, 0.00, 0.15, 68, 1.200, 0.200, -67.700, 2, 100, 97, 36, 22536, -20878, 3578, 5263, 23, 14, 1530809764.240, 178, 0, 1024, 1024, 1024, 1024, 0, 6, 3732, 3743, 3754, 3764, 3780, 3740, 0, 1, 18099, -89.900, 0.000, -68.300, 0.000, 0.000, -3.000, 0.0, , , , , , 95, , , 0, 0, 1
35.7013541, -118.5808873, 37.000, 09:56:04.340, 19, 0.00, 0.15, 68, 1.500, 0.400, -67.500, 2, 100, 97, 36, 22536, -20878, 3578, 5263, 23, 14, 1530809764.340, 45, 0, 1024, 1024, 1024, 1024, 0, 6, 3732, 3743, 3754, 3764, 3780, 3740, 0, 1, 18200, -89.900, 0.000, -68.300, 0.000, 0.000, -3.000, 0.0, , , , , , 95, , , 0, 0, 1
35.7013541, -118.5808873, 37.000, 09:56:04.440, 19, 0.00, 0.15, 68, 1.500, 0.400, -67.500, 2, 100, 97, 36, 22536, -20878, 3578, 5263, 23, 14, 1530809764.440, 144, 0, 1024, 1024, 1024, 1024, 0, 6, 3732, 3743, 3754, 3764, 3780, 3740, 0, 1, 18299, -89.900, 0.000, -68.300, 0.000, 0.000, -3.000, 0.0, , , , , , 95, , , 0, 0, 1
35.7013540, -118.5808873, 37.600, 09:56:04.540, 19, 0.00, 0.16, 68, 1.800, 0.700, -67.400, 2, 100, 97, 36, 22536, -20878, 3578, 5263, 23, 14, 1530809764.540, 59, 0, 1024, 1024, 1024, 1024, 0, 6, 3732, 3743, 3754, 3764, 3780, 3740, 0, 1, 18400, -89.900, 0.000, -68.300, 0.000, 0.000, -3.000, 0.0, , , , , , 95, , , 0, 0, 1
35.7013540, -118.5808874, 37.900, 09:56:04.640, 19, 0.00, 0.16, 68, 1.700, 0.700, -67.400, 2, 100, 97, 36, 22536, -20878, 3578, 5263, 23, 14, 1530809764.640, 62, 0, 1024, 1024, 1024, 1024, 0, 6, 3732, 3743, 3754, 3764, 3780, 3740, 0, 1, 18500, -89.900, 0.000, -68.300, 0.000, 0.000, -3.000, 0.0, , , , , , 95, , , 0, 0, 1
35.7013540, -118.5808874, 38.200, 09:56:04.740, 19, 0.00, 0.16, 68, 1.500, 0.900, -67.400, 2, 100, 97, 36, 22536, -20878, 3578, 5263, 23, 14, 1530809764.740, 26, 0, 1024, 1024, 1024, 1024, 0, 6, 3732, 3743, 3754, 3764, 3780, 3740, 0, 1, 18600, -89.900, 0.000, -68.300, 0.000, 0.000, -2.900, 0.0, , , , , , 95, , , 0, 0, 1
35.7013540, -118.5808874, 38.500, 09:56:04.840, 19, 0.00, 0.16, 68, 1.200, 0.800, -67.500, 2, 100, 97, 36, 22536, -20878, 3578, 5263, 23, 14, 1530809764.840, 54, 0, 1024, 1024, 1024, 1024, 0, 6, 3732, 3743, 3754, 3764, 3780, 3740, 0, 1, 18700, -89.900, 0.000, -68.300, 0.000, 0.000, -2.900, 0.0, , , , , , 95, , , 0, 0, 1
35.7013540, -118.5808874, 38.800, 09:56:04.940, 19, 0.00, 0.16, 68, 1.100, 0.700, -67.600, 2, 100, 98, 36, 22536, -20878, 3578, 5263, 23, 14, 1530809764.940, 48, 0, 1024, 1024, 1024, 1024, 0, 6, 3732, 3743, 3754, 3764, 3780, 3740, 0, 1, 18800, -89.900, 0.000, -68.300, 0.000, 0.000, -2.900, 0.0, , , , , , 95, , , 0, 0, 1
35.7013539, -118.5808874, 39.100, 09:56:05.040, 19, 0.00, 0.16, 68, 1.200, 0.400, -67.700, 2, 100, 98, 36, 22536, -20878, 3578, 5263, 23, 14, 1530809765.041, 27, 0, 1024, 1024, 1024, 1024, 0, 6, 3732, 3743, 3754, 3764, 3780, 3740, 0, 1, 18900, -90.000, 0.000, -68.300, 0.000, 0.000, -2.900, 0.0, , , , , , 95, , , 0, 0, 1
35.7013538, -118.5808874, 39.700, 09:56:05.140, 19, 0.00, 0.15, 68, 1.900, 0.000, -67.600, 2, 100, 98, 36, 22536, -20878, 3578, 5263, 23, 14, 1530809765.140, 16, 0, 1024, 1024, 1024, 1024, 0, 6, 3732, 3743, 3754, 3764, 3780, 3740, 0, 1, 19000, -90.000, 0.000, -68.300, 0.000, 0.000, -3.000, 0.0, , , , , , 95, , , 0, 0, 1
35.7013538, -118.5808874, 39.700, 09:56:05.240, 19, 0.00, 0.15, 68, 1.900, 0.000, -67.600, 2, 100, 98, 36, 22536, -20878, 3578, 5263, 23, 14, 1530809765.240, 116, 0, 1024, 1024, 1024, 1024, 0, 6, 3732, 3743, 3754, 3764, 3780, 3740, 0, 1, 19100, -90.000, 0.000, -68.300, 0.000, 0.000, -3.000, 0.0, , , , , , 95, , , 0, 0, 1
35.7013537, -118.5808873, 40.300, 09:56:05.340, 19, 0.00, 0.14, 68, 1.900, -0.100, -67.400, 2, 100, 98, 36, 22504, -20799, 3578, 5263, 23, 14, 1530809765.340, 17, 0, 1024, 1024, 1024, 1024, 0, 6, 3729, 3745, 3747, 3772, 3779, 3732, 0, 1, 19200, -89.900, 0.000, -68.300, 0.000, 0.000, -3.000, 0.0, , , , , , 95, , , 0, 0, 1
35.7013537, -118.5808873, 40.300, 09:56:05.440, 19, 0.00, 0.14, 68, 1.900, -0.100, -67.400, 2, 100, 97, 36, 22504, -20799, 3578, 5263, 23, 14, 1530809765.440, 117, 0, 1024, 1024, 1024, 1024, 0, 6, 3729, 3745, 3747, 3772, 3779, 3732, 0, 1, 19300, -89.900, 0.000, -68.300, 0.000, 0.000, -3.000, 0.0, , , , , , 95, , , 0, 0, 1
35.7013537, -118.5808873, 40.900, 09:56:05.540, 19, 0.00, 0.14, 68, 1.800, 0.000, -67.500, 2, 100, 97, 36, 22504, -20799, 3578, 5263, 23, 14, 1530809765.540, 16, 0, 1024, 1024, 1024, 1024, 0, 6, 3729, 3745, 3747, 3772, 3779, 3732, 0, 1, 19400, -89.900, 0.000, -68.300, 0.000, 0.000, -3.000, 0.0, , , , , , 95, , , 0, 0, 1
35.7013536, -118.5808873, 41.200, 09:56:05.640, 19, 0.00, 0.14, 68, 1.800, 0.000, -67.700, 2, 100, 97, 36, 22504, -20799, 3578, 5263, 23, 14, 1530809765.640, 9, 0, 1024, 1024, 1024, 1024, 0, 6, 3729, 3745, 3747, 3772, 3779, 3732, 0, 1, 19500, -89.900, 0.000, -68.300, 0.000, 0.000, -2.900, 0.0, , , , , , 95, , , 0, 0, 1
35.7013536, -118.5808873, 41.200, 09:56:05.740, 19, 0.00, 0.14, 68, 1.800, 0.000, -67.700, 2, 100, 97, 36, 22504, -20799, 3578, 5263, 23, 14, 1530809765.740, 109, 0, 1024, 1024, 1024, 1024, 0, 6, 3729, 3745, 3747, 3772, 3779, 3732, 0, 1, 19600, -89.900, 0.000, -68.300, 0.000, 0.000, -2.900, 0.0, , , , , , 95, , , 0, 0, 1
35.7013536, -118.5808873, 41.500, 09:56:05.840, 19, 0.00, 0.14, 68, 1.800, 0.000, -67.800, 2, 100, 97, 36, 22504, -20799, 3578, 5263, 23, 14, 1530809765.840, 94, 0, 1024, 1024, 1024, 1024, 0, 6, 3729, 3745, 3747, 3772, 3779, 3732, 0, 1, 19700, -89.900, 0.000, -68.300, 0.000, 0.000, -3.000, 0.0, , , , , , 95, , , 0, 0, 1
35.7013536, -118.5808873, 41.800, 09:56:05.940, 19, 0.00, 0.14, 68, 1.800, 0.100, -67.800, 2, 100, 97, 36, 22504, -20799, 3578, 5263, 23, 14, 1530809765.940, 97, 0, 1024, 1024, 1024, 1024, 0, 6, 3729, 3745, 3747, 3772, 3779, 3732, 0, 1, 19799, -89.900, 0.000, -68.300, 0.000, 0.000, -3.000, 0.0, , , , , , 95, , , 0, 0, 1
35.7013536, -118.5808873, 42.100, 09:56:06.041, 19, 0.00, 0.14, 68, 1.800, 0.200, -67.800, 2, 100, 97, 36, 22504, -20799, 3578, 5263, 23, 14, 1530809766.041, 98, 0, 1024, 1024, 1024, 1024, 0, 6, 3729, 3745, 3747, 3772, 3779, 3732, 0, 1, 19900, -89.900, 0.000, -68.300, 0.000, 0.000, -2.900, 0.0, , , , , , 95, , , 0, 0, 1
35.7013537, -118.5808872, 42.700, 09:56:06.147, 19, 0.00, 0.14, 68, 1.500, 0.200, -67.800, 2, 100, 97, 36, 22504, -20799, 3578, 5263, 23, 14, 1530809766.148, 2, 0, 1024, 1024, 1024, 1024, 0, 6, 3729, 3745, 3747, 3772, 3779, 3732, 0, 1, 20007, -89.900, 0.000, -68.300, 0.000, 0.000, -2.900, 0.0, , , , , , 95, , , 0, 0, 1
35.7013537, -118.5808872, 42.700, 09:56:06.239, 19, 0.00, 0.14, 68, 1.500, 0.200, -67.800, 2, 100, 97, 36, 22504, -20799, 3578, 5263, 23, 14, 1530809766.239, 94, 0, 1024, 1024, 1024, 1024, 0, 6, 3729, 3745, 3747, 3772, 3779, 3732, 0, 1, 20099, -89.900, 0.000, -68.300, 0.000, 0.000, -2.900, 0.0, , , , , , 95, , , 0, 0, 1
35.7013537, -118.5808872, 43.000, 09:56:06.340, 19, 0.00, 0.14, 68, 1.500, 0.300, -67.700, 2, 100, 97, 36, 22504, -20799, 3578, 5263, 23, 14, 1530809766.340, 79, 0, 1024, 1024, 1024, 1024, 0, 6, 3729, 3745, 3747, 3772, 3779, 3732, 0, 1, 20200, -89.900, 0.000, -68.300, 0.000, 0.000, -2.900, 0.0, , , , , , 95, , , 0, 0, 1
35.7013537, -118.5808872, 43.300, 09:56:06.440, 19, 0.00, 0.14, 68, 1.500, 0.400, -67.600, 2, 100, 98, 36, 22553, -19900, 3578, 5263, 23, 14, 1530809766.440, 95, 0, 1024, 1024, 1024, 1024, 0, 6, 3734, 3756, 3742, 3782, 3781, 3745, 0, 1, 20299, -89.900, 0.000, -68.300, 0.000, 0.000, -2.900, 0.0, , , , , , 95, , , 0, 0, 1
35.7013537, -118.5808872, 43.600, 09:56:06.540, 19, 0.00, 0.14, 68, 1.500, 0.500, -67.600, 2, 100, 98, 36, 22553, -19900, 3578, 5263, 23, 14, 1530809766.540, 62, 0, 1024, 1024, 1024, 1024, 0, 6, 3734, 3756, 3742, 3782, 3781, 3745, 0, 1, 20400, -89.900, 0.000, -68.300, 0.000, 0.000, -2.900, 0.0, , , , , , 95, , , 0, 0, 1
35.7013537, -118.5808872, 43.900, 09:56:06.640, 19, 0.00, 0.14, 68, 1.600, 0.500, -67.600, 2, 100, 98, 36, 22553, -19900, 3578, 5263, 23, 14, 1530809766.640, 64, 0, 1024, 1024, 1024, 1024, 0, 6, 3734, 3756, 3742, 3782, 3781, 3745, 0, 1, 20500, -89.900, 0.000, -68.300, 0.000, 0.000, -3.000, 0.0, , , , , , 95, , , 0, 0, 1
35.7013537, -118.5808872, 43.900, 09:56:06.740, 19, 0.00, 0.14, 68, 1.600, 0.500, -67.600, 2, 100, 98, 36, 22553, -19900, 3578, 5263, 23, 14, 1530809766.740, 164, 0, 1024, 1024, 1024, 1024, 0, 6, 3734, 3756, 3742, 3782, 3781, 3745, 0, 1, 20600, -89.900, 0.000, -68.300, 0.000, 0.000, -3.000, 0.0, , , , , , 95, , , 0, 0, 1
35.7013536, -118.5808872, 44.500, 09:56:06.840, 19, 0.00, 0.13, 68, 1.600, 0.100, -67.700, 2, 100, 98, 36, 22553, -19894, 3578, 5263, 23, 14, 1530809766.840, 73, 0, 1024, 1024, 1024, 1024, 0, 6, 3734, 3756, 3742, 3782, 3781, 3745, 0, 1, 20699, -90.000, 0.000, -68.300, 0.000, 0.000, -2.900, 0.0, , , , , , 95, , , 0, 0, 1
35.7013537, -118.5808872, 44.800, 09:56:06.939, 19, 0.00, 0.13, 68, 1.500, 0.000, -67.700, 2, 100, 98, 36, 22553, -19894, 3578, 5263, 23, 14, 1530809766.939, 73, 0, 1024, 1024, 1024, 1024, 0, 6, 3734, 3756, 3742, 3782, 3781, 3745, 0, 1, 20799, -90.000, 0.000, -68.300, 0.000, 0.000, -2.900, 0.0, , , , , , 95, , , 0, 0, 1
35.7013537, -118.5808872, 45.000, 09:56:07.040, 19, 0.00, 0.13, 68, 1.400, 0.000, -67.700, 2, 100, 98, 36, 22553, -19894, 3578, 5263, 23, 14, 1530809767.040, 56, 0, 1024, 1024, 1024, 1024, 0, 6, 3734, 3756, 3742, 3782, 3781, 3745, 0, 1, 20900, -89.900, 0.000, -68.300, 0.000, 0.000, -2.900, 0.0, , , , , , 95, , , 0, 0, 1
35.7013537, -118.5808871, 45.300, 09:56:07.140, 19, 0.00, 0.13, 68, 1.400, 0.000, -67.700, 2, 100, 98, 36, 22553, -19894, 3578, 5263, 23, 14, 1530809767.140, 52, 0, 1024, 1024, 1024, 1024, 0, 6, 3734, 3756, 3742, 3782, 3781, 3745, 0, 1, 20999, -90.000, 0.000, -68.300, 0.000, 0.000, -2.900, 0.0, , , , , , 95, , , 0, 0, 1
35.7013537, -118.5808871, 45.600, 09:56:07.240, 19, 0.00, 0.12, 68, 1.400, -0.300, -67.600, 2, 100, 98, 36, 22553, -19894, 3578, 5263, 23, 14, 1530809767.240, 19, 0, 1024, 1024, 1024, 1024, 0, 6, 3734, 3756, 3742, 3782, 3781, 3745, 0, 1, 21099, -90.000, 0.000, -68.300, 0.000, 0.000, -3.000, 0.0, , , , , , 95, , , 0, 0, 1
35.7013537, -118.5808871, 45.900, 09:56:07.340, 19, 0.00, 0.12, 68, 1.500, -0.400, -67.400, 2, 100, 98, 36, 22553, -19894, 3578, 5263, 23, 14, 1530809767.340, 24, 0, 1024, 1024, 1024, 1024, 0, 6, 3740, 3755, 3756, 3775, 3786, 3743, 0, 1, 21199, -89.900, 0.000, -68.300, 0.000, 0.000, -2.900, 0.0, , , , , , 95, , , 0, 0, 1
35.7013537, -118.5808871, 46.500, 09:56:07.440, 19, 0.00, 0.12, 68, 1.700, 0.100, -67.200, 2, 100, 99, 36, 22553, -19894, 3578, 5263, 23, 14, 1530809767.440, 23, 0, 1024, 1024, 1024, 1024, 0, 6, 3740, 3755, 3756, 3775, 3786, 3743, 0, 1, 21300, -89.900, 0.000, -68.300, 0.000, 0.000, -3.000, 0.0, , , , , , 95, , , 0, 0, 1
