Latitude, Longitude, Altitude (m), Time, Sats, Speed (m/s), Range (m), Battery (%), Roll (deg), Pitch (deg), Yaw (deg), Images, HD Signal (%), RC Signal (%), Battery Temp (C), Battery Voltage (mV), Battery Current (mA), Battery Energy (mAh), Battery Capacity (mAh), Battery Discharges, flyState, timestamp (Unix), LastUpdate (ms), radioChannel, Rc_elevator, Rc_aileron, Rc_throttle, Rc_rudder, Rc_gyro, Dronetype, Battery_Cell1 (mV), Battery_Cell2 (mV), Battery_Cell3 (mV), Battery_Cell4 (mV), Battery_Cell5 (mV), Battery_Cell6 (mV), Video, isFlying, elapsedTime (ms), gimbalPitch (deg), gimbalRoll (deg), gimbalYaw (deg), VelocityX (m/s), VelocityY (m/s), VelocityZ (m/s), GroundSmear (cm), App Version, Aircraft Name, Aircraft Firmware, Aircraft Serial Number, Battery Serial Number, Battery Lifetime (%), App_Tip, App_Warning, CurrentFlightStartingIndex, CurrentFlightLastVisitedWaypoint, PreviousFlightEndingWaypointIndex
38.0861071, -120.2285710, 0.000, 10:40:20.815, 12, 0.00, 0.02, 96, 0.800, 0.700, -79.900, 1937, 100, 100, 16, 25499, -2881, 4219, 4395, 7, 11, 1525974020.816, 39, 0, 1024, 1024, 1024, 1024, 0, 6, 4260, 4268, 4210, 4215, 4291, 4271, 0, 1, 2811, -89.900, 0.000, -78.900, 0.000, 0.000, 0.000, 0.0, MapPilot_2.8.1_04242018, Dendroctonus I, 1.3.1.00, 041DDC1887, 9971171300641, 99, DJI_0935.jpg, Starting Mission from Lat/Long: 38.08610/-120.22858 Camera: Zenmuse X3 - Overlap: 90/90 - Active Connection: No, 89, 89, 89
38.0861071, -120.2285709, 0.000, 10:40:20.913, 12, 0.00, 0.03, 96, 0.000, 1.300, -79.900, 1937, 100, 100, 16, 25499, -2881, 4219, 4395, 7, 11, 1525974020.913, 13, 0, 1024, 1024, 1024, 1024, 0, 6, 4260, 4268, 4210, 4215, 4291, 4271, 0, 1, 2908, -89.900, 0.000, -78.900, 0.000, 0.000, -0.200, 0.0, , , , , , 99, , , 89, 89, 89
38.0861071, -120.2285709, 0.000, 10:40:21.006, 12, 0.00, 0.03, 96, 0.000, 1.300, -79.900, 1937, 100, 100, 16, 25499, -2881, 4219, 4395, 7, 11, 1525974021.007, 106, 0, 1024, 1024, 1024, 1024, 0, 6, 4260, 4268, 4210, 4215, 4291, 4271, 0, 1, 3001, -89.900, 0.000, -78.900, 0.000, 0.000, -0.200, 0.0, , , , , , 99, , , 89, 89, 89
38.0861071, -120.2285709, 0.000, 10:40:21.105, 12, 0.00, 0.03, 96, 0.000, 1.300, -79.900, 1937, 100, 100, 16, 25499, -2881, 4219, 4395, 7, 11, 1525974021.106, 205, 0, 1024, 1024, 1024, 1024, 0, 6, 4260, 4268, 4210, 4215, 4291, 4271, 0, 1, 3101, -89.900, 0.000, -78.900, 0.000, 0.000, -0.200, 0.0, , , , , , 99, , , 89, 89, 89
38.0861072, -120.2285708, 0.000, 10:40:21.206, 12, 0.00, 0.04, 96, 0.000, 0.600, -79.700, 1937, 100, 100, 16, 25499, -2881, 4219, 4395, 7, 11, 1525974021.206, 84, 0, 1024, 1024, 1024, 1024, 0, 6, 4260, 4268, 4210, 4215, 4291, 4271, 0, 1, 3201, -90.000, 0.000, -78.900, 0.000, 0.000, -0.400, 0.0, , , , , , 99, , , 89, 89, 89
38.0861072, -120.2285707, 0.100, 10:40:21.306, 12, 0.00, 0.06, 96, -0.300, 0.000, -79.600, 1937, 100, 100, 16, 25462, -3098, 4219, 4395, 7, 11, 1525974021.307, 11, 0, 1024, 1024, 1024, 1024, 0, 6, 4240, 4243, 4243, 4234, 4256, 4208, 0, 1, 3302, -90.000, 0.000, -78.900, 0.000, 0.000, -0.400, 0.0, , , , , , 99, , , 89, 89, 89
38.0861072, -120.2285707, 0.100, 10:40:21.406, 12, 0.00, 0.06, 96, -0.300, 0.000, -79.600, 1937, 100, 100, 16, 25462, -3098, 4219, 4395, 7, 11, 1525974021.407, 111, 0, 1024, 1024, 1024, 1024, 0, 6, 4240, 4243, 4243, 4234, 4256, 4208, 0, 1, 3402, -90.000, 0.000, -78.900, 0.000, 0.000, -0.400, 0.0, , , , , , 99, , , 89, 89, 89
38.0861073, -120.2285704, 0.200, 10:40:21.513, 12, 0.00, 0.08, 96, 0.100, 0.000, -79.600, 1937, 100, 100, 16, 25462, -3098, 4219, 4395, 7, 11, 1525974021.514, 7, 0, 1024, 1024, 1024, 1024, 0, 6, 4240, 4243, 4243, 4234, 4256, 4208, 0, 1, 3509, -90.000, 0.000, -78.900, 0.000, 0.000, -0.500, 0.0, , , , , , 99, , , 89, 89, 89
38.0861073, -120.2285704, 0.200, 10:40:21.606, 12, 0.00, 0.08, 96, 0.100, 0.000, -79.600, 1937, 100, 100, 16, 25462, -3098, 4219, 4395, 7, 11, 1525974021.606, 99, 0, 1024, 1024, 1024, 1024, 0, 6, 4240, 4243, 4243, 4234, 4256, 4208, 0, 1, 3601, -90.000, 0.000, -78.900, 0.000, 0.000, -0.500, 0.0, , , , , , 99, , , 89, 89, 89
38.0861073, -120.2285703, 0.200, 10:40:21.707, 12, 0.00, 0.08, 96, 0.400, -0.500, -79.600, 1937, 100, 100, 16, 25462, -3098, 4219, 4395, 7, 11, 1525974021.708, 91, 0, 1024, 1024, 1024, 1024, 0, 6, 4240, 4243, 4243, 4234, 4256, 4208, 0, 1, 3703, -90.000, 0.000, -78.900, 0.000, 0.000, -0.400, 0.0, , , , , , 99, , , 89, 89, 89
38.0861073, -120.2285702, 0.300, 10:40:21.806, 12, 0.00, 0.09, 96, 0.400, -0.900, -79.700, 1937, 100, 100, 16, 25462, -3098, 4219, 4395, 7, 11, 1525974021.808, 71, 0, 1024, 1024, 1024, 1024, 0, 6, 4240, 4243, 4243, 4234, 4256, 4208, 0, 1, 3803, -90.000, 0.000, -78.900, 0.000, 0.000, -0.400, 0.0, , , , , , 99, , , 89, 89, 89
38.0861073, -120.2285701, 0.300, 10:40:21.906, 8, 0.00, 0.10, 96, 0.500, -1.000, -79.800, 1937, 100, 100, 16, 25462, -3098, 4219, 4395, 7, 11, 1525974021.907, 94, 0, 1024, 1024, 1024, 1024, 0, 6, 4240, 4243, 4243, 4234, 4256, 4208, 0, 1, 3902, -90.000, 0.000, -78.900, 0.000, 0.000, -0.400, 0.0, , , , , , 99, , , 89, 89, 89
38.0861073, -120.2285700, 0.400, 10:40:22.006, 8, 0.00, 0.11, 96, 0.300, -1.100, -80.000, 1937, 100, 100, 16, 25462, -3098, 4219, 4395, 7, 11, 1525974022.008, 72, 0, 1024, 1024, 1024, 1024, 0, 6, 4240, 4243, 4243, 4234, 4256, 4208, 0, 1, 4003, -90.000, 0.000, -78.900, 0.000, 0.000, -0.500, 0.0, , , , , , 99, , , 89, 89, 89
38.0861073, -120.2285699, 0.400, 10:40:22.105, 10, 0.00, 0.12, 96, 0.200, -1.100, -80.100, 1937, 100, 100, 16, 25462, -3098, 4219, 4395, 7, 11, 1525974022.107, 76, 0, 1024, 1024, 1024, 1024, 0, 6, 4240, 4243, 4243, 4234, 4256, 4208, 0, 1, 4102, -90.000, 0.000, -78.900, 0.000, 0.000, -0.400, 0.0, , , , , , 99, , , 89, 89, 89
38.0861073, -120.2285698, 0.500, 10:40:22.206, 10, 0.00, 0.12, 96, 0.400, -0.900, -80.100, 1937, 100, 100, 16, 24285, -15719, 4219, 4395, 7, 11, 1525974022.207, 60, 0, 1024, 1024, 1024, 1024, 0, 6, 4240, 4243, 4243, 4234, 4256, 4208, 0, 1, 4202, -89.900, 0.000, -78.900, 0.000, 0.000, -0.500, 0.0, , , , , , 99, , , 89, 89, 89
38.0861073, -120.2285698, 0.600, 10:40:22.305, 12, 0.00, 0.12, 96, 0.500, -0.900, -80.100, 1937, 100, 100, 16, 24285, -15719, 4219, 4395, 7, 11, 1525974022.305, 70, 0, 1024, 1024, 1024, 1024, 0, 6, 4240, 4243, 4243, 4234, 4256, 4208, 0, 1, 4300, -90.000, 0.000, -78.900, 0.000, 0.000, -0.500, 0.0, , , , , , 99, , , 89, 89, 89
38.0861073, -120.2285698, 0.600, 10:40:22.406, 12, 0.00, 0.13, 96, 0.400, -1.000, -80.100, 1937, 100, 100, 16, 24285, -15719, 4219, 4395, 7, 11, 1525974022.406, 69, 0, 1024, 1024, 1024, 1024, 0, 6, 4240, 4243, 4243, 4234, 4256, 4208, 0, 1, 4401, -90.000, 0.000, -78.900, 0.000, 0.000, -0.400, 0.0, , , , , , 99, , , 89, 89, 89
38.0861072, -120.2285698, 0.700, 10:40:22.506, 11, 0.00, 0.12, 96, 0.400, -1.000, -80.100, 1937, 100, 100, 16, 24285, -15719, 4219, 4395, 7, 11, 1525974022.507, 61, 0, 1024, 1024, 1024, 1024, 0, 6, 4240, 4243, 4243, 4234, 4256, 4208, 0, 1, 4501, -90.000, 0.000, -78.900, 0.000, 0.000, -0.500, 0.0, , , , , , 99, , , 89, 89, 89
38.0861071, -120.2285698, 0.700, 10:40:22.606, 11, 0.00, 0.12, 96, 0.500, -0.800, -80.100, 1937, 100, 100, 16, 24285, -15719, 4219, 4395, 7, 11, 1525974022.606, 67, 0, 1024, 1024, 1024, 1024, 0, 6, 4240, 4243, 4243, 4234, 4256, 4208, 0, 1, 4601, -89.900, 0.000, -78.900, 0.000, 0.000, -0.500, 0.0, , , , , , 99, , , 89, 89, 89
38.0861070, -120.2285698, 0.800, 10:40:22.706, 11, 0.00, 0.12, 96, 0.500, -0.900, -80.000, 1937, 100, 100, 16, 24285, -15719, 4219, 4395, 7, 11, 1525974022.708, 69, 0, 1024, 1024, 1024, 1024, 0, 6, 3997, 4000, 4047, 4043, 4030, 4040, 0, 1, 4702, -90.000, 0.000, -78.900, 0.000, 0.000, -0.500, 0.0, , , , , , 99, , , 89, 89, 89
38.0861070, -120.2285698, 0.800, 10:40:22.806, 11, 0.00, 0.12, 96, 0.700, -0.800, -79.900, 1937, 100, 100, 16, 24285, -15719, 4219, 4395, 7, 11, 1525974022.808, 47, 0, 1024, 1024, 1024, 1024, 0, 6, 3997, 4000, 4047, 4043, 4030, 4040, 0, 1, 4803, -89.900, 0.000, -78.900, 0.000, 0.000, -0.400, 0.0, , , , , , 99, , , 89, 89, 89
38.0861069, -120.2285697, 0.900, 10:40:22.906, 13, 0.00, 0.12, 96, 0.800, -0.800, -79.700, 1937, 100, 100, 16, 24285, -15719, 4219, 4395, 7, 14, 1525974022.908, 39, 0, 1024, 1024, 1024, 1024, 0, 6, 3997, 4000, 4047, 4043, 4030, 4040, 0, 1, 4903, -89.900, 0.000, -78.900, 0.000, 0.000, -0.400, 0.0, , , , , , 99, , , 89, 89, 89
38.0861069, -120.2285696, 0.900, 10:40:23.006, 13, 0.00, 0.13, 96, 0.900, -0.900, -79.600, 1937, 100, 100, 16, 24285, -15719, 4219, 4395, 7, 14, 1525974023.007, 33, 0, 1024, 1024, 1024, 1024, 0, 6, 3997, 4000, 4047, 4043, 4030, 4040, 0, 1, 5001, -89.900, 0.000, -78.900, 0.000, 0.000, -0.300, 0.0, , , , , , 99, , , 89, 89, 89
38.0861068, -120.2285696, 1.000, 10:40:23.106, 12, 0.00, 0.13, 96, 1.200, -0.700, -79.500, 1937, 100, 100, 16, 24285, -15719, 4219, 4395, 7, 14, 1525974023.106, 34, 0, 1024, 1024, 1024, 1024, 0, 6, 3997, 4000, 4047, 4043, 4030, 4040, 0, 1, 5101, -89.900, 0.000, -78.900, 0.000, 0.000, -0.200, 0.0, , , , , , 99, , , 89, 89, 89
38.0861068, -120.2285696, 1.000, 10:40:23.206, 12, 0.00, 0.13, 96, 1.200, -0.400, -79.400, 1937, 100, 100, 16, 24285, -15719, 4219, 4395, 7, 14, 1525974023.207, 39, 0, 1024, 1024, 1024, 1024, 0, 6, 3997, 4000, 4047, 4043, 4030, 4040, 0, 1, 5202, -89.900, 0.000, -78.900, 0.000, 0.000, -0.200, 0.0, , , , , , 99, , , 89, 89, 89
38.0861068, -120.2285696, 1.000, 10:40:23.306, 12, 0.00, 0.14, 96, 0.900, -0.400, -79.400, 1937, 100, 100, 16, 24285, -15719, 4219, 4395, 7, 14, 1525974023.308, 26, 0, 1024, 1024, 1024, 1024, 0, 6, 3997, 4000, 4047, 4043, 4030, 4040, 0, 1, 5303, -90.000, 0.000, -78.900, 0.000, 0.000, -0.300, 0.0, , , , , , 99, , , 89, 89, 89
38.0861068, -120.2285696, 1.100, 10:40:23.406, 12, 0.00, 0.14, 96, 0.500, -0.400, -79.300, 1937, 100, 100, 16, 24285, -15719, 4219, 4395, 7, 14, 1525974023.406, 24, 0, 1024, 1024, 1024, 1024, 0, 6, 3997, 4000, 4047, 4043, 4030, 4040, 0, 1, 5401, -89.900, 0.000, -78.900, 0.000, 0.000, -0.300, 0.0, , , , , , 99, , , 89, 89, 89
38.0861066, -120.2285696, 1.200, 10:40:23.516, 12, 0.00, 0.14, 96, 0.700, -0.400, -79.400, 1937, 100, 100, 16, 24285, -15719, 4219, 4395, 7, 14, 1525974023.517, 6, 0, 1024, 1024, 1024, 1024, 0, 6, 3997, 4000, 4047, 4043, 4030, 4040, 0, 1, 5512, -90.000, 0.000, -78.900, 0.000, 0.000, -0.700, 0.0, , , , , , 99, , , 89, 89, 89
38.0861066, -120.2285696, 1.200, 10:40:23.606, 12, 0.00, 0.14, 96, 0.700, -0.400, -79.400, 1937, 100, 100, 16, 24285, -15719, 4219, 4395, 7, 14, 1525974023.606, 95, 0, 1024, 1024, 1024, 1024, 0, 6, 3997, 4000, 4047, 4043, 4030, 4040, 0, 1, 5601, -90.000, 0.000, -78.900, 0.000, 0.000, -0.700, 0.0, , , , , , 99, , , 89, 89, 89
38.0861066, -120.2285696, 1.300, 10:40:23.713, 12, 0.00, 0.14, 96, 0.500, -0.600, -79.600, 1937, 100, 100, 16, 23952, -14656, 4219, 4395, 7, 14, 1525974023.713, 7, 0, 1024, 1024, 1024, 1024, 0, 6, 3997, 4000, 4047, 4043, 4030, 4040, 0, 1, 5708, -90.000, 0.000, -78.900, 0.000, 0.000, -1.000, 0.0, , , , , , 99, , , 89, 89, 89
38.0861066, -120.2285696, 1.600, 10:40:23.809, 12, 0.00, 0.14, 96, 0.700, -0.600, -79.800, 1937, 100, 100, 16, 23952, -14656, 4219, 4395, 7, 14, 1525974023.809, 4, 0, 1024, 1024, 1024, 1024, 0, 6, 3988, 3982, 4000, 3998, 4001, 3994, 0, 1, 5804, -89.900, 0.000, -78.900, 0.000, 0.000, -1.400, 0.0, , , , , , 99, , , 89, 89, 89
38.0861066, -120.2285696, 1.700, 10:40:23.917, 12, 0.00, 0.14, 96, 0.600, -0.500, -79.800, 1937, 100, 100, 16, 23952, -14656, 4219, 4395, 7, 14, 1525974023.917, 9, 0, 1024, 1024, 1024, 1024, 0, 6, 3988, 3982, 4000, 3998, 4001, 3994, 0, 1, 5912, -89.900, 0.000, -78.900, 0.000, 0.000, -1.500, 0.0, , , , , , 99, , , 89, 89, 89
38.0861066, -120.2285696, 1.700, 10:40:24.006, 12, 0.00, 0.14, 96, 0.600, -0.500, -79.800, 1937, 100, 100, 16, 23952, -14656, 4219, 4395, 7, 14, 1525974024.006, 98, 0, 1024, 1024, 1024, 1024, 0, 6, 3988, 3982, 4000, 3998, 4001, 3994, 0, 1, 6001, -89.900, 0.000, -78.900, 0.000, 0.000, -1.500, 0.0, , , , , , 99, , , 89, 89, 89
38.0861068, -120.2285695, 1.900, 10:40:24.106, 10, 0.00, 0.15, 96, 0.500, -0.500, -79.800, 1937, 100, 100, 16, 23952, -14656, 4219, 4395, 7, 14, 1525974024.106, 80, 0, 1024, 1024, 1024, 1024, 0, 6, 3988, 3982, 4000, 3998, 4001, 3994, 0, 1, 6101, -90.000, 0.000, -78.900, 0.000, 0.000, -1.700, 0.0, , , , , , 99, , , 89, 89, 89
38.0861070, -120.2285693, 2.300, 10:40:24.214, 11, 0.00, 0.16, 96, 0.000, -0.900, -79.800, 1937, 100, 100, 16, 23952, -14656, 4219, 4395, 7, 14, 1525974024.214, 10, 0, 1024, 1024, 1024, 1024, 0, 6, 3988, 3982, 4000, 3998, 4001, 3994, 0, 1, 6209, -89.900, 0.000, -78.900, 0.000, 0.000, -2.100, 0.0, , , , , , 99, , , 89, 89, 89
38.0861070, -120.2285693, 2.300, 10:40:24.307, 11, 0.00, 0.16, 96, 0.000, -0.900, -79.800, 1937, 100, 100, 16, 23952, -14656, 4219, 4395, 7, 14, 1525974024.309, 105, 0, 1024, 1024, 1024, 1024, 0, 6, 3988, 3982, 4000, 3998, 4001, 3994, 0, 1, 6304, -89.900, 0.000, -78.900, 0.000, 0.000, -2.100, 0.0, , , , , , 99, , , 89, 89, 89
38.0861070, -120.2285692, 2.500, 10:40:24.406, 11, 0.00, 0.17, 96, -0.100, -0.800, -79.800, 1937, 100, 100, 16, 23952, -14656, 4219, 4395, 7, 14, 1525974024.407, 76, 0, 1024, 1024, 1024, 1024, 0, 6, 3988, 3982, 4000, 3998, 4001, 3994, 0, 1, 6401, -89.900, 0.000, -78.900, 0.000, 0.000, -2.300, 0.0, , , , , , 99, , , 89, 89, 89
38.0861069, -120.2285692, 2.800, 10:40:24.506, 11, 0.00, 0.17, 96, 0.000, -0.700, -79.800, 1937, 100, 100, 16, 23952, -14656, 4219, 4395, 7, 14, 1525974024.507, 77, 0, 1024, 1024, 1024, 1024, 0, 6, 3988, 3982, 4000, 3998, 4001, 3994, 0, 1, 6501, -89.900, 0.000, -78.900, 0.000, 0.000, -2.600, 0.0, , , , , , 99, , , 89, 89, 89
38.0861067, -120.2285692, 3.100, 10:40:24.606, 11, 0.00, 0.17, 96, 0.400, -0.400, -79.800, 1937, 100, 100, 16, 23952, -14656, 4219, 4395, 7, 14, 1525974024.606, 55, 0, 1024, 1024, 1024, 1024, 0, 6, 3988, 3982, 4000, 3998, 4001, 3994, 0, 1, 6601, -89.900, 0.000, -78.900, 0.000, 0.000, -2.900, 0.0, , , , , , 99, , , 89, 89, 89
38.0861066, -120.2285691, 3.400, 10:40:24.705, 10, 0.00, 0.18, 96, 0.900, -0.200, -79.800, 1937, 100, 100, 16, 23482, -20665, 4219, 4395, 7, 14, 1525974024.705, 58, 0, 1024, 1024, 1024, 1024, 0, 6, 3894, 3894, 3936, 3902, 3882, 3895, 0, 1, 6700, -89.900, 0.000, -78.900, 0.000, 0.000, -3.000, 0.0, , , , , , 99, , , 89, 89, 89
38.0861066, -120.2285689, 3.700, 10:40:24.806, 10, 0.00, 0.20, 96, 1.300, -0.200, -79.800, 1937, 100, 100, 16, 23482, -20665, 4219, 4395, 7, 14, 1525974024.806, 59, 0, 1024, 1024, 1024, 1024, 0, 6, 3894, 3894, 3936, 3902, 3882, 3895, 0, 1, 6801, -89.900, 0.000, -78.900, 0.000, 0.000, -3.100, 0.0, , , , , , 99, , , 89, 89, 89
38.0861067, -120.2285688, 4.000, 10:40:24.907, 8, 0.00, 0.21, 96, 1.300, -0.500, -79.800, 1937, 100, 100, 16, 23482, -20665, 4219, 4395, 7, 14, 1525974024.908, 58, 0, 1024, 1024, 1024, 1024, 0, 6, 3894, 3894, 3936, 3902, 3882, 3895, 0, 1, 6903, -89.900, 0.000, -78.900, 0.000, 0.000, -3.100, 0.0, , , , , , 99, , , 89, 89, 89
38.0861068, -120.2285686, 4.400, 10:40:25.006, 8, 0.00, 0.23, 96, 1.000, -0.600, -79.700, 1937, 100, 100, 16, 23482, -20665, 4219, 4395, 7, 14, 1525974025.006, 57, 0, 1024, 1024, 1024, 1024, 0, 6, 3894, 3894, 3936, 3902, 3882, 3895, 0, 1, 7001, -90.000, 0.000, -78.900, 0.000, 0.000, -3.100, 0.0, , , , , , 99, , , 89, 89, 89
38.0861068, -120.2285685, 4.700, 10:40:25.105, 12, 0.00, 0.23, 96, 0.500, -0.900, -79.500, 1937, 100, 100, 16, 23482, -20665, 4219, 4395, 7, 14, 1525974025.106, 61, 0, 1024, 1024, 1024, 1024, 0, 6, 3894, 3894, 3936, 3902, 3882, 3895, 0, 1, 7101, -90.000, 0.000, -78.900, 0.000, 0.000, -3.100, 0.0, , , , , , 99, , , 89, 89, 89
38.0861067, -120.2285684, 5.000, 10:40:25.205, 12, 0.00, 0.24, 96, 0.200, -1.100, -79.400, 1937, 100, 100, 16, 23482, -20665, 4219, 4395, 7, 14, 1525974025.206, 36, 0, 1024, 1024, 1024, 1024, 0, 6, 3894, 3894, 3936, 3902, 3882, 3895, 0, 1, 7201, -90.000, 0.000, -78.900, 0.000, 0.000, -3.200, 0.0, , , , , , 99, , , 89, 89, 89
38.0861068, -120.2285684, 5.400, 10:40:25.306, 12, 0.00, 0.24, 96, 0.300, -1.100, -79.400, 1937, 100, 100, 16, 23482, -20665, 4219, 4395, 7, 14, 1525974025.307, 39, 0, 1024, 1024, 1024, 1024, 0, 6, 3894, 3894, 3936, 3902, 3882, 3895, 0, 1, 7301, -89.900, 0.000, -78.900, 0.000, 0.000, -3.200, 0.0, , , , , , 99, , , 89, 89, 89
38.0861068, -120.2285685, 5.700, 10:40:25.406, 12, 0.00, 0.23, 96, 0.400, -0.800, -79.400, 1937, 100, 100, 16, 23482, -20665, 4219, 4395, 7, 14, 1525974025.408, 46, 0, 1024, 1024, 1024, 1024, 0, 6, 3894, 3894, 3936, 3902, 3882, 3895, 0, 1, 7403, -89.900, 0.000, -78.900, 0.000, 0.000, -3.200, 0.0, , , , , , 99, , , 89, 89, 89
38.0861068, -120.2285686, 6.100, 10:40:25.519, 14, 0.00, 0.23, 96, 0.400, -0.500, -79.500, 1937, 100, 100, 16, 23482, -20665, 4219, 4395, 7, 14, 1525974025.519, 7, 0, 1024, 1024, 1024, 1024, 0, 6, 3894, 3894, 3936, 3902, 3882, 3895, 0, 1, 7514, -89.900, 0.000, -78.900, 0.000, 0.000, -3.200, 0.0, , , , , , 99, , , 89, 89, 89
38.0861068, -120.2285687, 6.400, 10:40:25.606, 14, 0.00, 0.22, 96, 0.500, -0.100, -79.500, 1937, 100, 100, 16, 23482, -20665, 4219, 4395, 7, 14, 1525974025.607, 37, 0, 1024, 1024, 1024, 1024, 0, 6, 3894, 3894, 3936, 3902, 3882, 3895, 0, 1, 7602, -89.900, 0.000, -78.900, 0.000, 0.000, -3.200, 0.0, , , , , , 99, , , 89, 89, 89
38.0861066, -120.2285688, 6.700, 10:40:25.710, 15, 0.00, 0.21, 96, 0.600, -0.100, -79.600, 1937, 100, 100, 16, 23273, -21739, 4219, 4395, 7, 14, 1525974025.711, 11, 0, 1024, 1024, 1024, 1024, 0, 6, 3894, 3894, 3936, 3902, 3882, 3895, 0, 1, 7706, -89.900, 0.000, -78.900, 0.000, 0.000, -3.100, 0.0, , , , , , 99, , , 89, 89, 89
38.0861064, -120.2285690, 7.100, 10:40:25.806, 15, 0.00, 0.20, 96, 0.800, -0.100, -79.600, 1937, 100, 100, 16, 23273, -21739, 4219, 4395, 7, 14, 1525974025.809, 25, 0, 1024, 1024, 1024, 1024, 0, 6, 3867, 3885, 3886, 3892, 3892, 3900, 0, 1, 7804, -89.900, 0.000, -78.900, 0.000, 0.000, -3.100, 0.0, , , , , , 99, , , 89, 89, 89
38.0861064, -120.2285691, 7.400, 10:40:25.906, 13, 0.00, 0.18, 96, 1.400, 0.200, -79.700, 1937, 100, 100, 16, 23273, -21739, 4219, 4395, 7, 14, 1525974025.907, 19, 0, 1024, 1024, 1024, 1024, 0, 6, 3867, 3885, 3886, 3892, 3892, 3900, 0, 1, 7901, -89.900, 0.000, -78.900, 0.000, 0.000, -3.100, 0.0, , , , , , 99, , , 89, 89, 89
38.0861064, -120.2285695, 8.100, 10:40:26.021, 14, 0.00, 0.15, 96, 1.400, 0.900, -79.700, 1937, 100, 100, 16, 23273, -21739, 4219, 4395, 7, 14, 1525974026.022, 7, 0, 1024, 1024, 1024, 1024, 0, 6, 3867, 3885, 3886, 3892, 3892, 3900, 0, 1, 8016, -89.900, 0.000, -78.900, 0.000, 0.000, -3.100, 0.0, , , , , , 99, , , 89, 89, 89
38.0861064, -120.2285697, 8.400, 10:40:26.127, 14, 0.00, 0.14, 96, 1.300, 0.900, -79.300, 1937, 100, 100, 16, 23273, -21739, 4219, 4395, 7, 14, 1525974026.128, 32, 0, 1024, 1024, 1024, 1024, 0, 6, 3867, 3885, 3886, 3892, 3892, 3900, 0, 1, 8123, -89.900, 0.000, -78.900, 0.000, 0.000, -3.100, 0.0, , , , , , 99, , , 89, 89, 89
38.0861064, -120.2285697, 8.400, 10:40:26.206, 14, 0.00, 0.14, 96, 1.300, 0.900, -79.300, 1937, 100, 100, 16, 23273, -21739, 4219, 4395, 7, 14, 1525974026.207, 110, 0, 1024, 1024, 1024, 1024, 0, 6, 3867, 3885, 3886, 3892, 3892, 3900, 0, 1, 8201, -89.900, 0.000, -78.900, 0.000, 0.000, -3.100, 0.0, , , , , , 99, , , 89, 89, 89
38.0861063, -120.2285698, 8.700, 10:40:26.306, 12, 0.00, 0.13, 96, 1.100, 0.800, -79.100, 1937, 100, 100, 16, 23273, -21739, 4219, 4395, 7, 14, 1525974026.307, 81, 0, 1024, 1024, 1024, 1024, 0, 6, 3867, 3885, 3886, 3892, 3892, 3900, 0, 1, 8302, -89.900, 0.000, -78.900, 0.000, 0.000, -3.100, 0.0, , , , , , 99, , , 89, 89, 89
38.0861063, -120.2285699, 9.100, 10:40:26.406, 12, 0.00, 0.13, 96, 0.500, 0.900, -79.200, 1937, 100, 100, 16, 23273, -21739, 4219, 4395, 7, 14, 1525974026.407, 68, 0, 1024, 1024, 1024, 1024, 0, 6, 3867, 3885, 3886, 3892, 3892, 3900, 0, 1, 8402, -89.900, 0.000, -78.900, 0.000, 0.000, -3.000, 0.0, , , , , , 99, , , 89, 89, 89
38.0861065, -120.2285701, 9.400, 10:40:26.506, 12, 0.00, 0.10, 96, 0.200, 0.800, -79.400, 1937, 100, 100, 16, 23273, -21739, 4219, 4395, 7, 14, 1525974026.507, 37, 0, 1024, 1024, 1024, 1024, 0, 6, 3867, 3885, 3886, 3892, 3892, 3900, 0, 1, 8501, -89.900, 0.000, -78.900, 0.000, 0.000, -3.000, 0.0, , , , , , 99, , , 89, 89, 89
38.0861068, -120.2285703, 9.700, 10:40:26.606, 12, 0.10, 0.08, 96, -0.300, 0.600, -79.600, 1937, 100, 100, 16, 23273, -21739, 4219, 4395, 7, 14, 1525974026.607, 37, 0, 1024, 1024, 1024, 1024, 0, 6, 3867, 3885, 3886, 3892, 3892, 3900, 0, 1, 8602, -89.900, 0.000, -78.900, 0.100, 0.000, -2.900, 0.0, , , , , , 99, , , 89, 89, 89
38.0861070, -120.2285704, 10.000, 10:40:26.709, 14, 0.10, 0.06, 96, -0.900, 0.700, -79.700, 1937, 100, 100, 16, 23455, -18277, 4175, 4395, 7, 14, 1525974026.709, 5, 0, 1024, 1024, 1024, 1024, 0, 6, 3867, 3885, 3886, 3892, 3892, 3900, 0, 1, 8704, -89.900, 0.000, -78.900, 0.100, 0.000, -3.000, 0.0, , , , , , 99, , , 89, 89, 89
38.0861072, -120.2285706, 10.300, 10:40:26.806, 14, 0.10, 0.06, 96, -1.300, 0.700, -79.800, 1937, 100, 100, 16, 23455, -18277, 4175, 4395, 7, 14, 1525974026.807, 25, 0, 1024, 1024, 1024, 1024, 0, 6, 3867, 3885, 3886, 3892, 3892, 3900, 0, 1, 8801, -89.900, 0.000, -78.900, 0.100, 0.000, -3.000, 0.0, , , , , , 99, , , 89, 89, 89
38.0861072, -120.2285706, 10.300, 10:40:26.906, 14, 0.10, 0.06, 96, -1.300, 0.700, -79.800, 1937, 100, 100, 16, 23455, -18277, 4175, 4395, 7, 14, 1525974026.907, 125, 0, 1024, 1024, 1024, 1024, 0, 6, 3867, 3885, 3886, 3892, 3892, 3900, 0, 1, 8901, -89.900, 0.000, -78.900, 0.100, 0.000, -3.000, 0.0, , , , , , 99, , , 89, 89, 89
38.0861073, -120.2285706, 10.600, 10:40:27.006, 12, 0.00, 0.06, 96, -1.300, 0.800, -79.800, 1937, 100, 100, 16, 23455, -18277, 4175, 4395, 7, 14, 1525974027.007, 68, 0, 1024, 1024, 1024, 1024, 0, 6, 3902, 3904, 3914, 3911, 3917, 3908, 0, 1, 9001, -89.900, 0.000, -78.900, 0.000, 0.000, -3.000, 0.0, , , , , , 99, , , 89, 89, 89
38.0861072, -120.2285707, 10.900, 10:40:27.106, 12, 0.00, 0.05, 96, -1.100, 0.800, -79.900, 1937, 100, 100, 16, 23455, -18277, 4175, 4395, 7, 14, 1525974027.107, 37, 0, 1024, 1024, 1024, 1024, 0, 6, 3902, 3904, 3914, 3911, 3917, 3908, 0, 1, 9101, -89.900, 0.000, -78.900, 0.000, 0.000, -3.000, 0.0, , , , , , 99, , , 89, 89, 89
38.0861073, -120.2285708, 11.200, 10:40:27.206, 13, 0.00, 0.05, 96, -0.700, 0.700, -79.800, 1937, 100, 100, 16, 23455, -18277, 4175, 4395, 7, 14, 1525974027.207, 16, 0, 1024, 1024, 1024, 1024, 0, 6, 3902, 3904, 3914, 3911, 3917, 3908, 0, 1, 9202, -89.900, 0.000, -78.900, 0.000, 0.000, -3.000, 0.0, , , , , , 99, , , 89, 89, 89
38.0861073, -120.2285709, 11.500, 10:40:27.306, 13, 0.00, 0.05, 95, -0.300, 0.600, -79.800, 1937, 100, 100, 16, 23455, -18277, 4175, 4395, 7, 14, 1525974027.308, 45, 0, 1024, 1024, 1024, 1024, 0, 6, 3902, 3904, 3914, 3911, 3917, 3908, 0, 1, 9303, -89.900, 0.000, -78.900, 0.000, 0.000, -3.000, 0.0, , , , , , 99, , , 89, 89, 89
38.0861072, -120.2285709, 11.900, 10:40:27.406, 13, 0.00, 0.04, 95, -0.200, 0.500, -79.700, 1937, 100, 99, 16, 23455, -18277, 4175, 4395, 7, 14, 1525974027.407, 80, 0, 1024, 1024, 1024, 1024, 0, 6, 3902, 3904, 3914, 3911, 3917, 3908, 0, 1, 9402, -89.900, 0.000, -78.900, 0.000, 0.000, -3.000, 0.0, , , , , , 99, , , 89, 89, 89
38.0861070, -120.2285708, 12.500, 10:40:27.506, 12, 0.00, 0.03, 95, 0.000, 0.000, -79.700, 1937, 100, 99, 16, 23455, -18277, 4175, 4395, 7, 14, 1525974027.508, 28, 0, 1024, 1024, 1024, 1024, 0, 6, 3902, 3904, 3914, 3911, 3917, 3908, 0, 1, 9503, -89.900, 0.000, -78.900, 0.000, 0.000, -2.900, 0.0, , , , , , 99, , , 89, 89, 89
38.0861070, -120.2285708, 12.800, 10:40:27.606, 12, 0.00, 0.03, 95, 0.200, -0.200, -79.700, 1937, 100, 99, 16, 23455, -18277, 4175, 4395, 7, 14, 1525974027.606, 28, 0, 1024, 1024, 1024, 1024, 0, 6, 3902, 3904, 3914, 3911, 3917, 3908, 0, 1, 9601, -90.000, 0.000, -78.900, 0.000, 0.000, -2.900, 0.0, , , , , , 99, , , 89, 89, 89
38.0861069, -120.2285708, 13.100, 10:40:27.706, 12, 0.00, 0.03, 95, 0.600, -0.500, -79.700, 1937, 100, 99, 16, 23479, -17941, 4175, 4395, 7, 14, 1525974027.707, 44, 0, 1024, 1024, 1024, 1024, 0, 6, 3902, 3904, 3914, 3911, 3917, 3908, 0, 1, 9701, -90.000, 0.000, -78.900, 0.000, 0.000, -2.900, 0.0, , , , , , 99, , , 89, 89, 89
38.0861068, -120.2285707, 13.400, 10:40:27.806, 12, 0.00, 0.04, 95, 0.700, -0.600, -79.800, 1937, 100, 99, 16, 23479, -17941, 4175, 4395, 7, 14, 1525974027.807, 23, 0, 1024, 1024, 1024, 1024, 0, 6, 3902, 3904, 3914, 3911, 3917, 3908, 0, 1, 9802, -90.000, 0.000, -78.900, 0.000, 0.000, -2.900, 0.0, , , , , , 99, , , 89, 89, 89
38.0861069, -120.2285707, 13.700, 10:40:27.906, 14, 0.00, 0.04, 95, 0.600, -0.600, -79.900, 1937, 100, 99, 16, 23479, -17941, 4175, 4395, 7, 14, 1525974027.906, 26, 0, 1024, 1024, 1024, 1024, 0, 6, 3902, 3904, 3914, 3911, 3917, 3908, 0, 1, 9901, -89.900, 0.000, -78.900, 0.000, 0.000, -3.000, 0.0, , , , , , 99, , , 89, 89, 89
38.0861069, -120.2285707, 14.000, 10:40:28.006, 14, 0.00, 0.04, 95, 0.400, -0.300, -80.000, 1937, 100, 99, 16, 23479, -17941, 4175, 4395, 7, 14, 1525974028.007, 25, 0, 1024, 1024, 1024, 1024, 0, 6, 3902, 3904, 3914, 3911, 3917, 3908, 0, 1, 10001, -89.900, 0.000, -78.900, 0.000, 0.000, -2.900, 0.0, , , , , , 99, , , 89, 89, 89
38.0861069, -120.2285707, 14.000, 10:40:28.106, 14, 0.00, 0.04, 95, 0.400, -0.300, -80.000, 1937, 100, 99, 16, 23479, -17941, 4175, 4395, 7, 14, 1525974028.107, 125, 0, 1024, 1024, 1024, 1024, 0, 6, 3902, 3904, 3914, 3911, 3917, 3908, 0, 1, 10101, -89.900, 0.000, -78.900, 0.000, 0.000, -2.900, 0.0, , , , , , 99, , , 89, 89, 89
38.0861069, -120.2285708, 14.600, 10:40:28.206, 14, 0.00, 0.03, 95, 0.000, 0.300, -80.200, 1937, 100, 99, 16, 23479, -17941, 4175, 4395, 7, 14, 1525974028.206, 6, 0, 1024, 1024, 1024, 1024, 0, 6, 3902, 3904, 3914, 3911, 3917, 3908, 0, 1, 10201, -89.900, 0.000, -78.900, 0.000, 0.000, -2.900, 0.0, , , , , , 99, , , 89, 89, 89
38.0861069, -120.2285709, 15.200, 10:40:28.313, 14, 0.00, 0.02, 95, 0.100, 1.100, -80.000, 1937, 100, 99, 16, 23479, -17941, 4175, 4395, 7, 14, 1525974028.314, 9, 0, 1024, 1024, 1024, 1024, 0, 6, 3906, 3908, 3923, 3919, 3919, 3923, 0, 1, 10309, -89.900, 0.000, -78.900, 0.000, 0.000, -2.900, 0.0, , , , , , 99, , , 89, 89, 89
38.0861069, -120.2285709, 15.200, 10:40:28.406, 14, 0.00, 0.02, 95, 0.100, 1.100, -80.000, 1937, 100, 99, 16, 23479, -17941, 4175, 4395, 7, 14, 1525974028.407, 101, 0, 1024, 1024, 1024, 1024, 0, 6, 3906, 3908, 3923, 3919, 3919, 3923, 0, 1, 10401, -89.900, 0.000, -78.900, 0.000, 0.000, -2.900, 0.0, , , , , , 99, , , 89, 89, 89
38.0861069, -120.2285710, 15.800, 10:40:28.522, 12, 0.00, 0.01, 95, 0.200, 1.200, -79.800, 1937, 100, 99, 16, 23479, -17941, 4175, 4395, 7, 14, 1525974028.522, 9, 0, 1024, 1024, 1024, 1024, 0, 6, 3906, 3908, 3923, 3919, 3919, 3923, 0, 1, 10517, -89.900, 0.000, -78.900, 0.000, 0.000, -2.900, 0.0, , , , , , 99, , , 89, 89, 89
38.0861069, -120.2285710, 16.100, 10:40:28.605, 14, 0.00, 0.01, 95, 0.300, 1.000, -79.700, 1937, 100, 99, 16, 23479, -17941, 4175, 4395, 7, 14, 1525974028.605, 10, 0, 1024, 1024, 1024, 1024, 0, 6, 3906, 3908, 3923, 3919, 3919, 3923, 0, 1, 10600, -89.900, 0.000, -78.900, 0.000, 0.000, -2.900, 0.0, , , , , , 99, , , 89, 89, 89
38.0861070, -120.2285710, 16.400, 10:40:28.706, 14, 0.00, 0.01, 95, 0.300, 0.700, -79.500, 1937, 100, 98, 16, 23479, -17941, 4175, 4395, 7, 14, 1525974028.707, 15, 0, 1024, 1024, 1024, 1024, 0, 6, 3906, 3908, 3923, 3919, 3919, 3923, 0, 1, 10701, -89.900, 0.000, -78.900, 0.000, 0.000, -2.900, 0.0, , , , , , 99, , , 89, 89, 89
38.0861070, -120.2285710, 16.400, 10:40:28.806, 14, 0.00, 0.01, 95, 0.300, 0.700, -79.500, 1937, 100, 98, 16, 23479, -17941, 4175, 4395, 7, 14, 1525974028.806, 115, 0, 1024, 1024, 1024, 1024, 0, 6, 3906, 3908, 3923, 3919, 3919, 3923, 0, 1, 10801, -89.900, 0.000, -78.900, 0.000, 0.000, -2.900, 0.0, , , , , , 99, , , 89, 89, 89
38.0861069, -120.2285709, 16.600, 10:40:28.906, 13, 0.00, 0.02, 95, 0.300, 0.700, -79.400, 1937, 100, 98, 16, 23479, -17941, 4175, 4395, 7, 14, 1525974028.907, 55, 0, 1024, 1024, 1024, 1024, 0, 6, 3906, 3908, 3923, 3919, 3919, 3923, 0, 1, 10901, -89.900, 0.000, -78.900, 0.000, 0.000, -2.800, 0.0, , , , , , 99, , , 89, 89, 89
38.0861069, -120.2285708, 16.900, 10:40:29.006, 13, 0.00, 0.03, 95, 0.300, 0.500, -79.400, 1937, 100, 98, 16, 23479, -17941, 4175, 4395, 7, 14, 1525974029.006, 92, 0, 1024, 1024, 1024, 1024, 0, 6, 3906, 3908, 3923, 3919, 3919, 3923, 0, 1, 11001, -89.900, 0.000, -78.900, 0.000, 0.000, -2.900, 0.0, , , , , , 99, , , 89, 89, 89
38.0861068, -120.2285707, 17.200, 10:40:29.106, 12, 0.00, 0.04, 95, 0.400, 0.100, -79.400, 1937, 100, 98, 16, 23479, -17941, 4175, 4395, 7, 14, 1525974029.106, 71, 0, 1024, 1024, 1024, 1024, 0, 6, 3906, 3908, 3923, 3919, 3919, 3923, 0, 1, 11101, -90.000, 0.000, -78.900, 0.000, 0.000, -2.900, 0.0, , , , , , 99, , , 89, 89, 89
38.0861068, -120.2285706, 17.500, 10:40:29.206, 12, 0.00, 0.05, 95, 0.600, -0.100, -79.500, 1937, 100, 98, 16, 23462, -17446, 4175, 4395, 7, 14, 1525974029.206, 58, 0, 1024, 1024, 1024, 1024, 0, 6, 3898, 3904, 3928, 3916, 3920, 3905, 0, 1, 11201, -90.000, 0.000, -78.900, 0.000, 0.000, -3.000, 0.0, , , , , , 99, , , 89, 89, 89
38.0861068, -120.2285705, 17.800, 10:40:29.306, 13, 0.00, 0.06, 95, 0.600, -0.600, -79.500, 1937, 100, 96, 16, 23462, -17446, 4175, 4395, 7, 14, 1525974029.306, 74, 0, 1024, 1024, 1024, 1024, 0, 6, 3898, 3904, 3928, 3916, 3920, 3905, 0, 1, 11301, -90.000, 0.000, -78.900, 0.000, 0.000, -2.900, 0.0, , , , , , 99, , , 89, 89, 89
38.0861068, -120.2285703, 18.200, 10:40:29.406, 13, 0.00, 0.07, 95, 0.600, -0.900, -79.500, 1937, 100, 96, 16, 23462, -17446, 4175, 4395, 7, 14, 1525974029.406, 70, 0, 1024, 1024, 1024, 1024, 0, 6, 3898, 3904, 3928, 3916, 3920, 3905, 0, 1, 11401, -90.000, 0.000, -78.900, 0.000, 0.000, -3.000, 0.0, , , , , , 99, , , 89, 89, 89
38.0861068, -120.2285702, 18.500, 10:40:29.506, 13, 0.00, 0.08, 95, 0.600, -0.900, -79.500, 1937, 100, 96, 16, 23462, -17446, 4175, 4395, 7, 14, 1525974029.507, 72, 0, 1024, 1024, 1024, 1024, 0, 6, 3898, 3904, 3928, 3916, 3920, 3905, 0, 1, 11502, -90.000, 0.000, -78.900, 0.000, 0.000, -3.000, 0.0, , , , , , 99, , , 89, 89, 89
38.0861069, -120.2285700, 18.800, 10:40:29.605, 13, 0.00, 0.10, 95, 0.500, -0.700, -79.500, 1937, 100, 96, 16, 23462, -17446, 4175, 4395, 7, 14, 1525974029.606, 44, 0, 1024, 1024, 1024, 1024, 0, 6, 3898, 3904, 3928, 3916, 3920, 3905, 0, 1, 11601, -90.000, 0.000, -78.900, 0.000, 0.000, -2.900, 0.0, , , , , , 99, , , 89, 89, 89
38.0861069, -120.2285699, 19.100, 10:40:29.706, 13, 0.00, 0.10, 95, 0.500, -0.500, -79.400, 1937, 100, 96, 16, 23462, -17446, 4175, 4395, 7, 14, 1525974029.707, 61, 0, 1024, 1024, 1024, 1024, 0, 6, 3898, 3904, 3928, 3916, 3920, 3905, 0, 1, 11702, -90.000, 0.000, -78.900, 0.000, 0.000, -3.000, 0.0, , , , , , 99, , , 89, 89, 89
38.0861069, -120.2285699, 19.400, 10:40:29.806, 13, 0.00, 0.11, 95, 0.400, -0.500, -79.300, 1937, 100, 97, 16, 23462, -17446, 4175, 4395, 7, 14, 1525974029.807, 65, 0, 1024, 1024, 1024, 1024, 0, 6, 3898, 3904, 3928, 3916, 3920, 3905, 0, 1, 11801, -89.900, 0.000, -78.900, 0.000, 0.000, -2.900, 0.0, , , , , , 99, , , 89, 89, 89
38.0861070, -120.2285698, 19.700, 10:40:29.906, 14, 0.00, 0.12, 95, 0.300, -0.400, -79.300, 1937, 100, 97, 16, 23462, -17446, 4175, 4395, 7, 14, 1525974029.906, 21, 0, 1024, 1024, 1024, 1024, 0, 6, 3898, 3904, 3928, 3916, 3920, 3905, 0, 1, 11901, -89.900, 0.000, -78.900, 0.000, 0.000, -2.900, 0.0, , , , , , 99, , , 89, 89, 89
38.0861070, -120.2285697, 20.000, 10:40:30.006, 14, 0.00, 0.12, 95, 0.300, -0.300, -79.400, 1937, 100, 97, 16, 23462, -17446, 4175, 4395, 7, 14, 1525974030.006, 37, 0, 1024, 1024, 1024, 1024, 0, 6, 3898, 3904, 3928, 3916, 3920, 3905, 0, 1, 12001, -89.900, 0.000, -78.900, 0.000, 0.000, -2.900, 0.0, , , , , , 99, , , 89, 89, 89
38.0861070, -120.2285696, 20.300, 10:40:30.106, 12, 0.00, 0.14, 95, 0.400, -0.300, -79.500, 1937, 100, 97, 16, 23462, -17446, 4175, 4395, 7, 14, 1525974030.106, 53, 0, 1024, 1024, 1024, 1024, 0, 6, 3898, 3904, 3928, 3916, 3920, 3905, 0, 1, 12101, -90.000, 0.000, -78.900, 0.000, 0.000, -2.800, 0.0, , , , , , 99, , , 89, 89, 89
38.0861070, -120.2285696, 20.300, 10:40:30.206, 12, 0.00, 0.14, 95, 0.400, -0.300, -79.500, 1937, 100, 97, 16, 23435, -17695, 4175, 4395, 7, 14, 1525974030.206, 153, 0, 1024, 1024, 1024, 1024, 0, 6, 3898, 3904, 3928, 3916, 3920, 3905, 0, 1, 12201, -90.000, 0.000, -78.900, 0.000, 0.000, -2.800, 0.0, , , , , , 99, , , 89, 89, 89
38.0861070, -120.2285693, 20.900, 10:40:30.306, 14, 0.00, 0.16, 95, 0.100, -0.900, -79.600, 1937, 100, 96, 16, 23435, -17695, 4175, 4395, 7, 14, 1525974030.306, 27, 0, 1024, 1024, 1024, 1024, 0, 6, 3898, 3904, 3928, 3916, 3920, 3905, 0, 1, 12301, -90.000, 0.000, -78.900, 0.000, 0.000, -2.900, 0.0, , , , , , 99, , , 89, 89, 89
38.0861070, -120.2285693, 21.200, 10:40:30.406, 14, 0.00, 0.16, 95, 0.100, -1.200, -79.600, 1937, 100, 96, 16, 23435, -17695, 4175, 4395, 7, 14, 1525974030.406, 15, 0, 1024, 1024, 1024, 1024, 0, 6, 3889, 3902, 3917, 3920, 3907, 3905, 0, 1, 12401, -90.000, 0.000, -78.900, 0.000, 0.000, -2.900, 0.0, , , , , , 99, , , 89, 89, 89
38.0861070, -120.2285692, 21.500, 10:40:30.506, 14, 0.00, 0.17, 95, 0.400, -1.100, -79.700, 1937, 100, 96, 16, 23435, -17695, 4175, 4395, 7, 14, 1525974030.507, 19, 0, 1024, 1024, 1024, 1024, 0, 6, 3889, 3902, 3917, 3920, 3907, 3905, 0, 1, 12501, -90.000, 0.000, -78.900, 0.000, 0.000, -2.900, 0.0, , , , , , 99, , , 89, 89, 89
38.0861070, -120.2285691, 22.100, 10:40:30.621, 14, 0.00, 0.18, 95, 0.900, -0.900, -79.900, 1937, 100, 96, 16, 23435, -17695, 4175, 4395, 7, 14, 1525974030.622, 5, 0, 1024, 1024, 1024, 1024, 0, 6, 3889, 3902, 3917, 3920, 3907, 3905, 0, 1, 12617, -89.900, 0.000, -78.900, 0.000, 0.000, -2.900, 0.0, , , , , , 99, , , 89, 89, 89
38.0861070, -120.2285691, 22.100, 10:40:30.706, 14, 0.00, 0.18, 95, 0.900, -0.900, -79.900, 1937, 100, 96, 16, 23435, -17695, 4175, 4395, 7, 14, 1525974030.706, 89, 0, 1024, 1024, 1024, 1024, 0, 6, 3889, 3902, 3917, 3920, 3907, 3905, 0, 1, 12701, -89.900, 0.000, -78.900, 0.000, 0.000, -2.900, 0.0, , , , , , 99, , , 89, 89, 89
38.0861069, -120.2285691, 22.700, 10:40:30.806, 14, 0.00, 0.18, 95, 1.600, -0.200, -80.000, 1937, 100, 98, 16, 23435, -17695, 4175, 4395, 7, 14, 1525974030.806, 23, 0, 1024, 1024, 1024, 1024, 0, 6, 3889, 3902, 3917, 3920, 3907, 3905, 0, 1, 12801, -89.900, 0.000, -78.900, 0.000, 0.000, -2.900, 0.0, , , , , , 99, , , 89, 89, 89
38.0861069, -120.2285691, 22.700, 10:40:30.906, 14, 0.00, 0.18, 95, 1.600, -0.200, -80.000, 1937, 100, 98, 16, 23435, -17695, 4175, 4395, 7, 14, 1525974030.906, 123, 0, 1024, 1024, 1024, 1024, 0, 6, 3889, 3902, 3917, 3920, 3907, 3905, 0, 1, 12901, -89.900, 0.000, -78.900, 0.000, 0.000, -2.900, 0.0, , , , , , 99, , , 89, 89, 89
38.0861068, -120.2285691, 23.300, 10:40:31.010, 14, 0.00, 0.17, 95, 1.900, 0.200, -79.900, 1937, 100, 98, 16, 23435, -17695, 4175, 4395, 7, 14, 1525974031.010, 5, 0, 1024, 1024, 1024, 1024, 0, 6, 3889, 3902, 3917, 3920, 3907, 3905, 0, 1, 13005, -89.900, 0.000, -78.900, 0.000, 0.000, -2.900, 0.0, , , , , , 99, , , 89, 89, 89
38.0861068, -120.2285691, 23.300, 10:40:31.106, 14, 0.00, 0.17, 95, 1.900, 0.200, -79.900, 1937, 100, 98, 16, 23435, -17695, 4175, 4395, 7, 14, 1525974031.106, 101, 0, 1024, 1024, 1024, 1024, 0, 6, 3889, 3902, 3917, 3920, 3907, 3905, 0, 1, 13101, -89.900, 0.000, -78.900, 0.000, 0.000, -2.900, 0.0, , , , , , 99, , , 89, 89, 89
38.0861068, -120.2285692, 23.500, 10:40:31.206, 14, 0.00, 0.17, 95, 2.200, 0.300, -79.800, 1937, 100, 98, 17, 23447, -17191, 4175, 4395, 7, 14, 1525974031.207, 69, 0, 1024, 1024, 1024, 1024, 0, 6, 3883, 3892, 3917, 3895, 3897, 3901, 0, 1, 13201, -89.900, 0.000, -78.900, 0.000, 0.000, -2.900, 0.0, , , , , , 99, , , 89, 89, 89
38.0861067, -120.2285692, 24.100, 10:40:31.311, 15, 0.00, 0.17, 95, 2.600, 0.300, -79.400, 1937, 100, 97, 17, 23447, -17191, 4175, 4395, 7, 14, 1525974031.312, 8, 0, 1024, 1024, 1024, 1024, 0, 6, 3883, 3892, 3917, 3895, 3897, 3901, 0, 1, 13307, -89.900, 0.000, -78.900, 0.000, 0.000, -3.000, 0.0, , , , , , 99, , , 89, 89, 89
38.0861067, -120.2285692, 24.100, 10:40:31.406, 15, 0.00, 0.17, 95, 2.600, 0.300, -79.400, 1937, 100, 97, 17, 23447, -17191, 4175, 4395, 7, 14, 1525974031.407, 103, 0, 1024, 1024, 1024, 1024, 0, 6, 3883, 3892, 3917, 3895, 3897, 3901, 0, 1, 13402, -89.900, 0.000, -78.900, 0.000, 0.000, -3.000, 0.0, , , , , , 99, , , 89, 89, 89
38.0861067, -120.2285692, 24.400, 10:40:31.506, 15, 0.00, 0.17, 95, 2.300, 0.200, -79.300, 1937, 100, 97, 17, 23447, -17191, 4175, 4395, 7, 14, 1525974031.506, 67, 0, 1024, 1024, 1024, 1024, 0, 6, 3883, 3892, 3917, 3895, 3897, 3901, 0, 1, 13501, -89.900, 0.000, -78.900, 0.000, 0.000, -2.900, 0.0, , , , , , 99, , , 89, 89, 89
38.0861065, -120.2285692, 24.700, 10:40:31.606, 15, 0.00, 0.18, 95, 2.300, 0.200, -79.400, 1937, 100, 97, 17, 23447, -17191, 4175, 4395, 7, 14, 1525974031.606, 67, 0, 1024, 1024, 1024, 1024, 0, 6, 3883, 3892, 3917, 3895, 3897, 3901, 0, 1, 13601, -89.900, 0.000, -78.900, 0.000, 0.000, -2.900, 0.0, , , , , , 99, , , 89, 89, 89
38.0861065, -120.2285692, 25.000, 10:40:31.706, 16, 0.00, 0.18, 95, 2.600, 0.100, -79.400, 1937, 100, 97, 17, 23447, -17191, 4175, 4395, 7, 14, 1525974031.706, 70, 0, 1024, 1024, 1024, 1024, 0, 6, 3883, 3892, 3917, 3895, 3897, 3901, 0, 1, 13701, -89.900, 0.000, -78.900, 0.000, 0.000, -2.900, 0.0, , , , , , 99, , , 89, 89, 89
38.0861065, -120.2285691, 25.300, 10:40:31.806, 16, 0.00, 0.18, 95, 2.400, 0.000, -79.500, 1937, 100, 99, 17, 23447, -17191, 4175, 4395, 7, 14, 1525974031.806, 68, 0, 1024, 1024, 1024, 1024, 0, 6, 3883, 3892, 3917, 3895, 3897, 3901, 0, 1, 13801, -90.000, 0.000, -78.900, 0.000, 0.000, -2.900, 0.0, , , , , , 99, , , 89, 89, 89
38.0861066, -120.2285691, 25.600, 10:40:31.906, 15, 0.00, 0.18, 95, 2.000, -0.100, -79.500, 1937, 100, 99, 17, 23447, -17191, 4175, 4395, 7, 14, 1525974031.906, 63, 0, 1024, 1024, 1024, 1024, 0, 6, 3883, 3892, 3917, 3895, 3897, 3901, 0, 1, 13901, -89.900, 0.000, -78.900, 0.000, 0.000, -2.900, 0.0, , , , , , 99, , , 89, 89, 89
38.0861066, -120.2285692, 25.900, 10:40:32.006, 15, 0.00, 0.18, 95, 1.600, 0.000, -79.500, 1937, 100, 99, 17, 23447, -17191, 4175, 4395, 7, 14, 1525974032.006, 25, 0, 1024, 1024, 1024, 1024, 0, 6, 3883, 3892, 3917, 3895, 3897, 3901, 0, 1, 14001, -89.900, 0.000, -78.900, 0.000, 0.000, -2.900, 0.0, , , , , , 99, , , 89, 89, 89
38.0861066, -120.2285691, 26.200, 10:40:32.106, 16, 0.00, 0.18, 95, 1.200, 0.200, -79.400, 1937, 100, 99, 17, 23447, -17191, 4175, 4395, 7, 14, 1525974032.106, 61, 0, 1024, 1024, 1024, 1024, 0, 6, 3883, 3892, 3917, 3895, 3897, 3901, 0, 1, 14101, -89.900, 0.000, -78.900, 0.000, 0.000, -2.900, 0.0, , , , , , 99, , , 89, 89, 89
38.0861067, -120.2285691, 26.500, 10:40:32.206, 16, 0.00, 0.18, 95, 1.000, 0.200, -79.300, 1937, 100, 99, 17, 23406, -17625, 4175, 4395, 7, 14, 1525974032.207, 51, 0, 1024, 1024, 1024, 1024, 0, 6, 3883, 3899, 3907, 3898, 3904, 3896, 0, 1, 14201, -90.000, 0.000, -78.900, 0.000, 0.000, -2.900, 0.0, , , , , , 99, , , 89, 89, 89
38.0861067, -120.2285690, 26.800, 10:40:32.306, 15, 0.00, 0.18, 95, 0.700, 0.000, -79.300, 1937, 100, 100, 17, 23406, -17625, 4175, 4395, 7, 14, 1525974032.306, 62, 0, 1024, 1024, 1024, 1024, 0, 6, 3883, 3899, 3907, 3898, 3904, 3896, 0, 1, 14301, -90.000, 0.000, -78.900, 0.000, 0.000, -2.900, 0.0, , , , , , 99, , , 89, 89, 89
38.0861068, -120.2285690, 27.100, 10:40:32.406, 15, 0.00, 0.19, 95, 0.500, -0.100, -79.200, 1937, 100, 100, 17, 23406, -17625, 4175, 4395, 7, 14, 1525974032.406, 49, 0, 1024, 1024, 1024, 1024, 0, 6, 3883, 3899, 3907, 3898, 3904, 3896, 0, 1, 14401, -90.000, 0.000, -78.900, 0.000, 0.000, -2.800, 0.0, , , , , , 99, , , 89, 89, 89
38.0861067, -120.2285689, 27.400, 10:40:32.506, 15, 0.00, 0.19, 95, 0.500, -0.400, -79.100, 1937, 100, 100, 17, 23406, -17625, 4175, 4395, 7, 14, 1525974032.506, 44, 0, 1024, 1024, 1024, 1024, 0, 6, 3883, 3899, 3907, 3898, 3904, 3896, 0, 1, 14501, -90.000, 0.000, -78.900, 0.000, 0.000, -2.900, 0.0, , , , , , 99, , , 89, 89, 89
38.0861067, -120.2285689, 27.700, 10:40:32.606, 15, 0.00, 0.20, 95, 0.700, -0.700, -79.200, 1937, 100, 100, 17, 23406, -17625, 4175, 4395, 7, 14, 1525974032.606, 53, 0, 1024, 1024, 1024, 1024, 0, 6, 3883, 3899, 3907, 3898, 3904, 3896, 0, 1, 14601, -90.000, 0.000, -78.900, 0.000, 0.000, -2.900, 0.0, , , , , , 99, , , 89, 89, 89
38.0861067, -120.2285688, 28.000, 10:40:32.706, 14, 0.00, 0.21, 95, 0.800, -1.000, -79.400, 1937, 100, 100, 17, 23406, -17625, 4175, 4395, 7, 14, 1525974032.707, 22, 0, 1024, 1024, 1024, 1024, 0, 6, 3883, 3899, 3907, 3898, 3904, 3896, 0, 1, 14702, -90.000, 0.000, -78.900, 0.000, 0.000, -2.900, 0.0, , , , , , 99, , , 89, 89, 89
38.0861067, -120.2285687, 28.300, 10:40:32.806, 14, 0.00, 0.21, 95, 0.900, -1.200, -79.600, 1937, 100, 100, 17, 23406, -17625, 4175, 4395, 7, 14, 1525974032.806, 22, 0, 1024, 1024, 1024, 1024, 0, 6, 3883, 3899, 3907, 3898, 3904, 3896, 0, 1, 14801, -90.000, 0.000, -78.900, 0.000, 0.000, -2.900, 0.0, , , , , , 99, , , 89, 89, 89
38.0861067, -120.2285686, 28.600, 10:40:32.906, 16, 0.00, 0.22, 95, 1.000, -1.500, -79.800, 1937, 100, 100, 17, 23406, -17625, 4175, 4395, 7, 14, 1525974032.906, 24, 0, 1024, 1024, 1024, 1024, 0, 6, 3883, 3899, 3907, 3898, 3904, 3896, 0, 1, 14901, -90.000, 0.000, -78.900, 0.000, 0.000, -2.900, 0.0, , , , , , 99, , , 89, 89, 89
38.0861067, -120.2285683, 29.200, 10:40:33.011, 14, 0.00, 0.25, 95, 0.900, -2.000, -80.100, 1937, 100, 100, 17, 23406, -17625, 4175, 4395, 7, 14, 1525974033.012, 5, 0, 1024, 1024, 1024, 1024, 0, 6, 3883, 3899, 3907, 3898, 3904, 3896, 0, 1, 15007, -90.000, 0.000, -78.900, 0.000, 0.000, -2.900, 0.0, , , , , , 99, , , 89, 89, 89
38.0861067, -120.2285682, 29.500, 10:40:33.106, 14, 0.00, 0.26, 95, 0.700, -2.100, -80.200, 1937, 100, 100, 17, 23406, -17625, 4175, 4395, 7, 14, 1525974033.106, 28, 0, 1024, 1024, 1024, 1024, 0, 6, 3883, 3899, 3907, 3898, 3904, 3896, 0, 1, 15101, -90.000, 0.000, -78.900, 0.000, 0.000, -2.900, 0.0, , , , , , 99, , , 89, 89, 89
38.0861067, -120.2285682, 29.500, 10:40:33.206, 14, 0.00, 0.26, 95, 0.700, -2.100, -80.200, 1937, 100, 100, 17, 23406, -17625, 4175, 4395, 7, 14, 1525974033.206, 128, 0, 1024, 1024, 1024, 1024, 0, 6, 3883, 3899, 3907, 3898, 3904, 3896, 0, 1, 15201, -90.000, 0.000, -78.900, 0.000, 0.000, -2.900, 0.0, , , , , , 99, , , 89, 89, 89
38.0861067, -120.2285681, 29.800, 10:40:33.306, 15, 0.00, 0.26, 95, 0.600, -2.100, -80.300, 1937, 100, 100, 17, 23308, -17873, 4175, 4395, 7, 14, 1525974033.307, 96, 0, 1024, 1024, 1024, 1024, 0, 6, 3883, 3899, 3907, 3898, 3904, 3896, 0, 1, 15302, -90.000, 0.000, -78.900, 0.000, 0.000, -2.900, 0.0, , , , , , 99, , , 89, 89, 89
38.0861067, -120.2285681, 30.000, 10:40:33.406, 15, 0.00, 0.27, 95, 0.900, -1.900, -80.200, 1937, 100, 99, 17, 23308, -17873, 4175, 4395, 7, 14, 1525974033.406, 91, 0, 1024, 1024, 1024, 1024, 0, 6, 3883, 3899, 3907, 3898, 3904, 3896, 0, 1, 15401, -90.000, 0.000, -78.900, 0.000, 0.000, -2.900, 0.0, , , , , , 99, , , 89, 89, 89
38.0861066, -120.2285680, 30.300, 10:40:33.506, 16, 0.00, 0.28, 95, 1.300, -1.900, -80.200, 1937, 100, 99, 17, 23308, -17873, 4175, 4395, 7, 14, 1525974033.506, 91, 0, 1024, 1024, 1024, 1024, 0, 6, 3883, 3899, 3907, 3898, 3904, 3896, 0, 1, 15501, -90.000, 0.000, -78.900, 0.000, 0.000, -2.900, 0.0, , , , , , 99, , , 89, 89, 89
38.0861066, -120.2285679, 30.600, 10:40:33.606, 16, 0.00, 0.28, 95, 1.400, -1.900, -80.100, 1937, 100, 99, 17, 23308, -17873, 4175, 4395, 7, 14, 1525974033.606, 94, 0, 1024, 1024, 1024, 1024, 0, 6, 3883, 3899, 3907, 3898, 3904, 3896, 0, 1, 15601, -90.000, 0.000, -78.900, 0.000, 0.000, -2.900, 0.0, , , , , , 99, , , 89, 89, 89
38.0861066, -120.2285679, 30.900, 10:40:33.706, 16, 0.00, 0.29, 95, 1.700, -1.600, -80.000, 1937, 100, 99, 17, 23308, -17873, 4175, 4395, 7, 14, 1525974033.706, 86, 0, 1024, 1024, 1024, 1024, 0, 6, 3870, 3874, 3888, 3882, 3878, 3885, 0, 1, 15701, -90.000, 0.000, -78.900, 0.000, 0.000, -3.000, 0.0, , , , , , 99, , , 89, 89, 89
38.0861066, -120.2285678, 31.200, 10:40:33.806, 16, 0.00, 0.29, 95, 1.800, -1.700, -79.800, 1937, 100, 98, 17, 23308, -17873, 4175, 4395, 7, 14, 1525974033.806, 52, 0, 1024, 1024, 1024, 1024, 0, 6, 3870, 3874, 3888, 3882, 3878, 3885, 0, 1, 15801, -90.000, 0.000, -78.900, 0.000, 0.000, -3.000, 0.0, , , , , , 99, , , 89, 89, 89
38.0861066, -120.2285678, 31.500, 10:40:33.906, 16, 0.00, 0.30, 95, 1.600, -2.100, -79.700, 1937, 100, 98, 17, 23308, -17873, 4175, 4395, 7, 14, 1525974033.906, 96, 0, 1024, 1024, 1024, 1024, 0, 6, 3870, 3874, 3888, 3882, 3878, 3885, 0, 1, 15901, -90.000, 0.000, -78.900, 0.000, 0.000, -3.000, 0.0, , , , , , 99, , , 89, 89, 89
38.0861066, -120.2285676, 31.800, 10:40:34.006, 16, 0.00, 0.31, 95, 1.400, -2.400, -79.500, 1937, 100, 98, 17, 23308, -17873, 4175, 4395, 7, 14, 1525974034.006, 72, 0, 1024, 1024, 1024, 1024, 0, 6, 3870, 3874, 3888, 3882, 3878, 3885, 0, 1, 16001, -90.000, 0.000, -78.900, 0.000, 0.000, -3.000, 0.0, , , , , , 99, , , 89, 89, 89
38.0861066, -120.2285675, 32.100, 10:40:34.106, 16, 0.00, 0.32, 95, 1.200, -2.900, -79.400, 1937, 100, 98, 17, 23308, -17873, 4175, 4395, 7, 14, 1525974034.106, 59, 0, 1024, 1024, 1024, 1024, 0, 6, 3870, 3874, 3888, 3882, 3878, 3885, 0, 1, 16101, -90.000, 0.000, -78.900, 0.000, 0.000, -3.000, 0.0, , , , , , 99, , , 89, 89, 89
38.0861066, -120.2285673, 32.400, 10:40:34.206, 16, 0.00, 0.34, 95, 0.800, -3.300, -79.400, 1937, 100, 98, 17, 23308, -17873, 4175, 4395, 7, 14, 1525974034.206, 65, 0, 1024, 1024, 1024, 1024, 0, 6, 3870, 3874, 3888, 3882, 3878, 3885, 0, 1, 16201, -90.000, 0.000, -78.900, 0.000, 0.000, -3.000, 0.0, , , , , , 99, , , 89, 89, 89
38.0861066, -120.2285673, 32.400, 10:40:34.306, 16, 0.00, 0.34, 95, 0.800, -3.300, -79.400, 1937, 100, 96, 17, 23308, -17873, 4175, 4395, 7, 14, 1525974034.306, 165, 0, 1024, 1024, 1024, 1024, 0, 6, 3870, 3874, 3888, 3882, 3878, 3885, 0, 1, 16301, -89.900, 0.000, -78.900, 0.000, 0.000, -3.000, 0.0, , , , , , 99, , , 89, 89, 89
38.0861066, -120.2285671, 33.000, 10:40:34.406, 16, 0.00, 0.36, 95, 0.400, -3.900, -79.500, 1937, 100, 96, 17, 23308, -17873, 4175, 4395, 7, 14, 1525974034.406, 64, 0, 1024, 1024, 1024, 1024, 0, 6, 3870, 3874, 3888, 3882, 3878, 3885, 0, 1, 16401, -89.900, 0.000, -78.900, 0.000, 0.000, -3.000, 0.0, , , , , , 99, , , 89, 89, 89
38.0861066, -120.2285670, 33.400, 10:40:34.506, 15, 0.00, 0.36, 95, 0.600, -3.700, -79.600, 1937, 100, 96, 17, 23308, -17873, 4175, 4395, 7, 14, 1525974034.506, 68, 0, 1024, 1024, 1024, 1024, 0, 6, 3870, 3874, 3888, 3882, 3878, 3885, 0, 1, 16501, -89.900, 0.000, -78.900, 0.000, 0.000, -3.000, 0.0, , , , , , 99, , , 89, 89, 89
38.0861066, -120.2285669, 33.700, 10:40:34.606, 15, 0.00, 0.37, 95, 0.600, -3.700, -79.700, 1937, 100, 96, 17, 23308, -17873, 4175, 4395, 7, 14, 1525974034.606, 45, 0, 1024, 1024, 1024, 1024, 0, 6, 3870, 3874, 3888, 3882, 3878, 3885, 0, 1, 16601, -90.000, 0.000, -78.900, 0.000, 0.000, -3.000, 0.0, , , , , , 99, , , 89, 89, 89
38.0861066, -120.2285668, 34.000, 10:40:34.706, 15, 0.00, 0.38, 95, 0.700, -3.800, -79.700, 1937, 100, 96, 17, 23251, -18581, 4175, 4395, 7, 14, 1525974034.706, 43, 0, 1024, 1024, 1024, 1024, 0, 6, 3861, 3880, 3879, 3876, 3873, 3871, 0, 1, 16701, -89.900, 0.000, -78.900, 0.000, 0.000, -3.000, 0.0, , , , , , 99, , , 89, 89, 89
38.0861066, -120.2285668, 34.300, 10:40:34.806, 15, 0.00, 0.38, 95, 0.900, -3.600, -79.900, 1937, 100, 95, 17, 23251, -18581, 4175, 4395, 7, 14, 1525974034.807, 56, 0, 1024, 1024, 1024, 1024, 0, 6, 3861, 3880, 3879, 3876, 3873, 3871, 0, 1, 16801, -89.900, 0.000, -78.900, 0.000, 0.000, -2.900, 0.0, , , , , , 99, , , 89, 89, 89
38.0861066, -120.2285668, 34.300, 10:40:34.906, 15, 0.00, 0.38, 95, 0.900, -3.600, -79.900, 1937, 100, 95, 17, 23251, -18581, 4175, 4395, 7, 14, 1525974034.906, 156, 0, 1024, 1024, 1024, 1024, 0, 6, 3861, 3880, 3879, 3876, 3873, 3871, 0, 1, 16901, -89.900, 0.000, -78.900, 0.000, 0.000, -2.900, 0.0, , , , , , 99, , , 89, 89, 89
38.0861066, -120.2285667, 34.900, 10:40:35.006, 16, 0.00, 0.39, 95, 1.200, -3.600, -80.000, 1937, 100, 95, 17, 23251, -18581, 4175, 4395, 7, 14, 1525974035.006, 22, 0, 1024, 1024, 1024, 1024, 0, 6, 3861, 3880, 3879, 3876, 3873, 3871, 0, 1, 17001, -89.900, 0.000, -78.900, 0.000, 0.000, -2.900, 0.0, , , , , , 99, , , 89, 89, 89
38.0861066, -120.2285666, 35.200, 10:40:35.106, 16, 0.00, 0.40, 95, 1.400, -3.200, -80.000, 1937, 100, 95, 17, 23251, -18581, 4175, 4395, 7, 14, 1525974035.106, 11, 0, 1024, 1024, 1024, 1024, 0, 6, 3861, 3880, 3879, 3876, 3873, 3871, 0, 1, 17101, -89.900, 0.000, -78.900, 0.000, 0.000, -3.000, 0.0, , , , , , 99, , , 89, 89, 89
38.0861065, -120.2285666, 35.500, 10:40:35.206, 16, 0.00, 0.40, 95, 1.700, -3.200, -79.900, 1937, 100, 95, 17, 23251, -18581, 4175, 4395, 7, 14, 1525974035.207, 23, 0, 1024, 1024, 1024, 1024, 0, 6, 3861, 3880, 3879, 3876, 3873, 3871, 0, 1, 17201, -89.900, 0.000, -78.900, 0.000, 0.000, -2.900, 0.0, , , , , , 99, , , 89, 89, 89
38.0861065, -120.2285666, 35.800, 10:40:35.306, 16, 0.00, 0.40, 95, 1.900, -3.400, -79.800, 1937, 100, 90, 17, 23251, -18581, 4175, 4395, 7, 14, 1525974035.306, 26, 0, 1024, 1024, 1024, 1024, 0, 6, 3861, 3880, 3879, 3876, 3873, 3871, 0, 1, 17301, -89.900, 0.000, -78.900, 0.000, 0.000, -2.900, 0.0, , , , , , 99, , , 89, 89, 89
38.0861065, -120.2285665, 36.100, 10:40:35.406, 16, 0.00, 0.41, 95, 1.700, -3.700, -79.700, 1937, 100, 90, 17, 23251, -18581, 4175, 4395, 7, 14, 1525974035.406, 25, 0, 1024, 1024, 1024, 1024, 0, 6, 3861, 3880, 3879, 3876, 3873, 3871, 0, 1, 17401, -90.000, 0.000, -78.900, 0.000, 0.000, -2.900, 0.0, , , , , , 99, , , 89, 89, 89
38.0861066, -120.2285664, 36.400, 10:40:35.506, 16, 0.00, 0.42, 95, 1.500, -3.900, -79.600, 1937, 100, 90, 17, 23251, -18581, 4175, 4395, 7, 14, 1525974035.506, 26, 0, 1024, 1024, 1024, 1024, 0, 6, 3861, 3880, 3879, 3876, 3873, 3871, 0, 1, 17501, -90.000, 0.000, -78.900, 0.000, 0.000, -3.000, 0.0, , , , , , 99, , , 89, 89, 89
38.0861066, -120.2285663, 36.700, 10:40:35.605, 16, 0.00, 0.42, 95, 1.300, -4.000, -79.600, 1937, 100, 90, 17, 23251, -18581, 4175, 4395, 7, 14, 1525974035.605, 13, 0, 1024, 1024, 1024, 1024, 0, 6, 3861, 3880, 3879, 3876, 3873, 3871, 0, 1, 17600, -90.000, 0.000, -78.900, 0.000, 0.000, -2.900, 0.0, , , , , , 99, , , 89, 89, 89
38.0861067, -120.2285662, 37.300, 10:40:35.717, 16, 0.00, 0.43, 95, 1.100, -4.100, -79.500, 1937, 100, 90, 17, 23233, -18592, 4131, 4395, 7, 14, 1525974035.718, 22, 0, 1024, 1024, 1024, 1024, 0, 6, 3861, 3880, 3879, 3876, 3873, 3871, 0, 1, 17713, -89.900, 0.000, -78.900, 0.000, 0.000, -2.900, 0.0, , , , , , 99, , , 89, 89, 89
38.0861067, -120.2285662, 37.600, 10:40:35.806, 16, 0.00, 0.43, 95, 1.000, -3.800, -79.500, 1937, 100, 94, 17, 23233, -18592, 4131, 4395, 7, 14, 1525974035.806, 12, 0, 1024, 1024, 1024, 1024, 0, 6, 3848, 3852, 3878, 3878, 3872, 3873, 0, 1, 17801, -89.900, 0.000, -78.900, 0.000, 0.000, -2.900, 0.0, , , , , , 99, , , 89, 89, 89
38.0861067, -120.2285662, 37.600, 10:40:35.906, 16, 0.00, 0.43, 95, 1.000, -3.800, -79.500, 1937, 100, 94, 17, 23233, -18592, 4131, 4395, 7, 14, 1525974035.906, 113, 0, 1024, 1024, 1024, 1024, 0, 6, 3848, 3852, 3878, 3878, 3872, 3873, 0, 1, 17901, -89.900, 0.000, -78.900, 0.000, 0.000, -2.900, 0.0, , , , , , 99, , , 89, 89, 89
38.0861068, -120.2285662, 38.100, 10:40:36.006, 16, 0.00, 0.43, 95, 0.700, -3.700, -79.300, 1937, 100, 94, 17, 23233, -18592, 4131, 4395, 7, 14, 1525974036.006, 9, 0, 1024, 1024, 1024, 1024, 0, 6, 3848, 3852, 3878, 3878, 3872, 3873, 0, 1, 18001, -89.900, 0.000, -78.900, 0.000, 0.000, -2.900, 0.0, , , , , , 99, , , 89, 89, 89
38.0861068, -120.2285662, 38.100, 10:40:36.106, 16, 0.00, 0.43, 95, 0.700, -3.700, -79.300, 1937, 100, 94, 17, 23233, -18592, 4131, 4395, 7, 14, 1525974036.106, 109, 0, 1024, 1024, 1024, 1024, 0, 6, 3848, 3852, 3878, 3878, 3872, 3873, 0, 1, 18101, -89.900, 0.000, -78.900, 0.000, 0.000, -2.900, 0.0, , , , , , 99, , , 89, 89, 89
38.0861068, -120.2285663, 38.400, 10:40:36.206, 16, 0.10, 0.42, 95, 0.900, -3.600, -79.200, 1937, 100, 94, 17, 23233, -18592, 4131, 4395, 7, 14, 1525974036.206, 74, 0, 1024, 1024, 1024, 1024, 0, 6, 3848, 3852, 3878, 3878, 3872, 3873, 0, 1, 18201, -89.900, 0.000, -78.900, 0.000, -0.100, -3.000, 0.1, , , , , , 99, , , 89, 89, 89
38.0861068, -120.2285664, 38.700, 10:40:36.306, 16, 0.10, 0.42, 95, 1.000, -3.000, -79.200, 1937, 100, 95, 17, 23233, -18592, 4131, 4395, 7, 14, 1525974036.306, 77, 0, 1024, 1024, 1024, 1024, 0, 6, 3848, 3852, 3878, 3878, 3872, 3873, 0, 1, 18301, -89.900, 0.000, -78.900, 0.000, -0.100, -2.900, 0.1, , , , , , 99, , , 89, 89, 89
38.0861069, -120.2285665, 39.000, 10:40:36.406, 16, 0.10, 0.41, 95, 0.900, -2.600, -79.300, 1937, 100, 95, 17, 23233, -18592, 4131, 4395, 7, 14, 1525974036.406, 91, 0, 1024, 1024, 1024, 1024, 0, 6, 3848, 3852, 3878, 3878, 3872, 3873, 0, 1, 18401, -89.900, 0.000, -78.900, 0.000, -0.100, -2.900, 0.1, , , , , , 99, , , 89, 89, 89
38.0861069, -120.2285665, 39.300, 10:40:36.506, 16, 0.00, 0.40, 95, 0.800, -2.500, -79.500, 1937, 100, 95, 17, 23233, -18592, 4131, 4395, 7, 14, 1525974036.506, 94, 0, 1024, 1024, 1024, 1024, 0, 6, 3848, 3852, 3878, 3878, 3872, 3873, 0, 1, 18501, -89.900, 0.000, -78.900, 0.000, 0.000, -2.900, 0.0, , , , , , 99, , , 89, 89, 89
38.0861070, -120.2285666, 39.600, 10:40:36.606, 16, 0.00, 0.40, 95, 0.600, -2.400, -79.600, 1937, 100, 95, 17, 23233, -18592, 4131, 4395, 7, 14, 1525974036.606, 86, 0, 1024, 1024, 1024, 1024, 0, 6, 3848, 3852, 3878, 3878, 3872, 3873, 0, 1, 18601, -89.900, 0.000, -78.900, 0.000, 0.000, -2.900, 0.0, , , , , , 99, , , 89, 89, 89
38.0861071, -120.2285666, 39.900, 10:40:36.706, 16, 0.00, 0.40, 95, 0.500, -2.500, -79.600, 1937, 100, 95, 17, 23084, -19502, 4131, 4395, 7, 14, 1525974036.706, 75, 0, 1024, 1024, 1024, 1024, 0, 6, 3835, 3835, 3853, 3844, 3863, 3867, 0, 1, 18701, -89.900, 0.000, -78.900, 0.000, 0.000, -2.900, 0.0, , , , , , 99, , , 89, 89, 89
38.0861071, -120.2285667, 40.200, 10:40:36.806, 16, 0.00, 0.39, 95, 0.000, -2.600, -79.600, 1937, 100, 100, 17, 23084, -19502, 4131, 4395, 7, 14, 1525974036.807, 47, 0, 1024, 1024, 1024, 1024, 0, 6, 3835, 3835, 3853, 3844, 3863, 3867, 0, 1, 18801, -89.900, 0.000, -78.900, 0.000, 0.000, -2.900, 0.0, , , , , , 99, , , 89, 89, 89
38.0861072, -120.2285667, 40.500, 10:40:36.906, 16, 0.00, 0.39, 95, -0.200, -2.600, -79.700, 1937, 100, 100, 17, 23084, -19502, 4131, 4395, 7, 14, 1525974036.906, 55, 0, 1024, 1024, 1024, 1024, 0, 6, 3835, 3835, 3853, 3844, 3863, 3867, 0, 1, 18901, -90.000, 0.000, -78.900, 0.000, 0.000, -2.900, 0.0, , , , , , 99, , , 89, 89, 89
38.0861073, -120.2285667, 40.800, 10:40:37.006, 16, 0.00, 0.39, 95, -0.300, -2.700, -79.900, 1937, 100, 100, 17, 23084, -19502, 4131, 4395, 7, 14, 1525974037.006, 28, 0, 1024, 1024, 1024, 1024, 0, 6, 3835, 3835, 3853, 3844, 3863, 3867, 0, 1, 19001, -90.000, 0.000, -78.900, 0.000, 0.000, -2.900, 0.0, , , , , , 99, , , 89, 89, 89
38.0861074, -120.2285667, 41.100, 10:40:37.106, 16, 0.00, 0.39, 95, 0.000, -2.800, -80.000, 1937, 100, 100, 17, 23084, -19502, 4131, 4395, 7, 14, 1525974037.106, 58, 0, 1024, 1024, 1024, 1024, 0, 6, 3835, 3835, 3853, 3844, 3863, 3867, 0, 1, 19101, -89.900, 0.000, -78.900, 0.000, 0.000, -2.900, 0.0, , , , , , 99, , , 89, 89, 89
38.0861074, -120.2285668, 41.400, 10:40:37.206, 16, 0.00, 0.38, 94, 0.200, -2.700, -79.900, 1937, 100, 100, 17, 23084, -19502, 4131, 4395, 7, 14, 1525974037.207, 51, 0, 1024, 1024, 1024, 1024, 0, 6, 3835, 3835, 3853, 3844, 3863, 3867, 0, 1, 19201, -89.900, 0.000, -78.900, 0.000, 0.000, -2.900, 0.0, , , , , , 99, , , 89, 89, 89
38.0861074, -120.2285669, 41.700, 10:40:37.306, 16, 0.00, 0.38, 94, 0.400, -2.900, -79.900, 1937, 100, 100, 17, 23084, -19502, 4131, 4395, 7, 14, 1525974037.306, 33, 0, 1024, 1024, 1024, 1024, 0, 6, 3835, 3835, 3853, 3844, 3863, 3867, 0, 1, 19301, -90.000, 0.000, -78.900, 0.000, 0.000, -3.000, 0.0, , , , , , 99, , , 89, 89, 89
38.0861074, -120.2285669, 42.000, 10:40:37.406, 16, 0.00, 0.38, 94, 0.500, -3.000, -79.800, 1937, 100, 100, 17, 23084, -19502, 4131, 4395, 7, 14, 1525974037.406, 25, 0, 1024, 1024, 1024, 1024, 0, 6, 3835, 3835, 3853, 3844, 3863, 3867, 0, 1, 19401, -90.000, 0.000, -78.900, 0.000, 0.000, -3.000, 0.0, , , , , , 99, , , 89, 89, 89
38.0861074, -120.2285669, 42.300, 10:40:37.506, 16, 0.00, 0.37, 94, 0.500, -3.000, -79.700, 1937, 100, 100, 17, 23084, -19502, 4131, 4395, 7, 14, 1525974037.508, 41, 0, 1024, 1024, 1024, 1024, 0, 6, 3835, 3835, 3853, 3844, 3863, 3867, 0, 1, 19503, -90.000, 0.000, -78.900, 0.000, 0.000, -3.000, 0.0, , , , , , 99, , , 89, 89, 89
38.0861074, -120.2285670, 42.600, 10:40:37.606, 16, 0.00, 0.37, 94, 0.500, -2.800, -79.600, 1937, 100, 100, 17, 23084, -19502, 4131, 4395, 7, 14, 1525974037.606, 41, 0, 1024, 1024, 1024, 1024, 0, 6, 3835, 3835, 3853, 3844, 3863, 3867, 0, 1, 19601, -89.900, 0.000, -78.900, 0.000, 0.000, -2.900, 0.0, , , , , , 99, , , 89, 89, 89
38.0861075, -120.2285671, 42.900, 10:40:37.706, 16, 0.00, 0.36, 94, 0.200, -2.600, -79.500, 1937, 100, 100, 17, 22913, -20674, 4131, 4395, 7, 14, 1525974037.707, 31, 0, 1024, 1024, 1024, 1024, 0, 6, 3805, 3810, 3832, 3833, 3817, 3817, 0, 1, 19701, -89.900, 0.000, -78.900, 0.000, 0.000, -3.000, 0.0, , , , , , 99, , , 89, 89, 89
38.0861076, -120.2285671, 43.200, 10:40:37.806, 16, 0.00, 0.36, 94, -0.100, -2.500, -79.400, 1937, 100, 98, 17, 22913, -20674, 4131, 4395, 7, 14, 1525974037.806, 25, 0, 1024, 1024, 1024, 1024, 0, 6, 3805, 3810, 3832, 3833, 3817, 3817, 0, 1, 19801, -89.900, 0.000, -78.900, 0.000, 0.000, -3.000, 0.0, , , , , , 99, , , 89, 89, 89
38.0861076, -120.2285672, 43.500, 10:40:37.906, 16, 0.00, 0.35, 94, -0.100, -2.300, -79.400, 1937, 100, 98, 17, 22913, -20674, 4131, 4395, 7, 14, 1525974037.907, 20, 0, 1024, 1024, 1024, 1024, 0, 6, 3805, 3810, 3832, 3833, 3817, 3817, 0, 1, 19901, -89.900, 0.000, -78.900, 0.000, 0.000, -3.000, 0.0, , , , , , 99, , , 89, 89, 89
38.0861076, -120.2285672, 43.800, 10:40:38.005, 16, 0.00, 0.35, 94, -0.200, -2.200, -79.400, 1937, 100, 98, 17, 22913, -20674, 4131, 4395, 7, 14, 1525974038.006, 9, 0, 1024, 1024, 1024, 1024, 0, 6, 3805, 3810, 3832, 3833, 3817, 3817, 0, 1, 20001, -89.900, 0.000, -78.900, 0.000, 0.000, -3.000, 0.0, , , , , , 99, , , 89, 89, 89
38.0861077, -120.2285673, 44.400, 10:40:38.112, 16, 0.00, 0.35, 94, 0.000, -2.500, -79.400, 1937, 100, 98, 17, 22913, -20674, 4131, 4395, 7, 14, 1525974038.113, 10, 0, 1024, 1024, 1024, 1024, 0, 6, 3805, 3810, 3832, 3833, 3817, 3817, 0, 1, 20107, -90.000, 0.000, -78.900, 0.000, 0.000, -3.100, 0.0, , , , , , 99, , , 89, 89, 89
38.0861077, -120.2285673, 44.800, 10:40:38.216, 17, 0.00, 0.34, 94, 0.000, -2.700, -79.400, 1937, 100, 97, 17, 22913, -20674, 4131, 4395, 7, 14, 1525974038.217, 11, 0, 1024, 1024, 1024, 1024, 0, 6, 3805, 3810, 3832, 3833, 3817, 3817, 0, 1, 20212, -90.000, 0.000, -78.900, 0.000, 0.000, -3.000, 0.0, , , , , , 99, , , 89, 89, 89
38.0861077, -120.2285673, 44.800, 10:40:38.306, 17, 0.00, 0.34, 94, 0.000, -2.700, -79.400, 1937, 100, 97, 17, 22913, -20674, 4131, 4395, 7, 14, 1525974038.307, 101, 0, 1024, 1024, 1024, 1024, 0, 6, 3805, 3810, 3832, 3833, 3817, 3817, 0, 1, 20302, -90.000, 0.000, -78.900, 0.000, 0.000, -3.000, 0.0, , , , , , 99, , , 89, 89, 89
38.0861077, -120.2285673, 45.100, 10:40:38.406, 17, 0.00, 0.34, 94, 0.000, -2.900, -79.300, 1937, 100, 97, 17, 22913, -20674, 4131, 4395, 7, 14, 1525974038.407, 69, 0, 1024, 1024, 1024, 1024, 0, 6, 3805, 3810, 3832, 3833, 3817, 3817, 0, 1, 20401, -89.900, 0.000, -78.900, 0.000, 0.000, -3.000, 0.0, , , , , , 99, , , 89, 89, 89
38.0861077, -120.2285674, 45.700, 10:40:38.514, 17, 0.00, 0.34, 94, 0.100, -2.800, -79.300, 1937, 100, 97, 17, 22913, -20674, 4131, 4395, 7, 14, 1525974038.515, 4, 0, 1024, 1024, 1024, 1024, 0, 6, 3805, 3810, 3832, 3833, 3817, 3817, 0, 1, 20510, -89.900, 0.000, -78.900, 0.000, 0.000, -3.000, 0.0, , , , , , 99, , , 89, 89, 89
38.0861077, -120.2285674, 45.700, 10:40:38.606, 17, 0.00, 0.34, 94, 0.100, -2.800, -79.300, 1937, 100, 97, 17, 22913, -20674, 4131, 4395, 7, 14, 1525974038.606, 95, 0, 1024, 1024, 1024, 1024, 0, 6, 3805, 3810, 3832, 3833, 3817, 3817, 0, 1, 20601, -89.900, 0.000, -78.900, 0.000, 0.000, -3.000, 0.0, , , , , , 99, , , 89, 89, 89
