latitude,longitude,altitude(feet),ascent(feet),speed(mph),distance(feet),time(millisecond),datetime(utc),satellites,gpslevel,voltage(v),max_altitude(feet),max_ascent(feet),max_speed(mph),max_distance(feet), xSpeed(mph), ySpeed(mph), zSpeed(mph), compass_heading(degrees), pitch(degrees), roll(degrees),isPhoto,isVideo,rc_elevator,rc_aileron,rc_throttle,rc_rudder,gimbal_heading(degrees),gimbal_pitch(degrees),battery_percent,voltageCell1,voltageCell2,voltageCell3,voltageCell4,voltageCell5,voltageCell6,current(A),battery_temperature(f),flycStateRaw,flycState,message
38.0861267,-120.2285425,3871.5670166067,0,0,0,3200,2018-05-10 17:01:04,13,0,0,3871.5670166067,0,0,0,0,0,0,282.8, 1.2, 0.3,1,0,1024,1024,1024,1024,283.3,-89.9,98,4.15,4.086,4.098,4.122,4.109,4.127,0,62.6,11,AutoTakeoff,DJI_0201.jpg Starting Mission from Lat/Long: 38.08611/-120.22856 Camera: Zenmuse X3 - Overlap: 90/90 - Active Connection: No
38.0861268,-120.2285424,3871.5670166067,0,0,0.04643044768,3300,2018-05-10 17:01:04,13,0,0,3871.5670166067,0,0,0.04643044768,0,0,0,283, 0.6, -0.3,0,0,1024,1024,1024,1024,283.3,-90,98,4.15,4.086,4.098,4.122,4.109,4.127,0,62.6,11,AutoTakeoff,
38.0861269,-120.2285423,3871.8951006067,0.328084,0,0.092861223444,3400,2018-05-10 17:01:04,13,0,0,3871.8951006067,0.328084,0,0.092861223444,0,0,0,283.1, 0.3, -0.4,0,0,1024,1024,1024,1024,283.3,-89.9,98,4.15,4.086,4.098,4.122,4.109,4.127,0,62.6,11,AutoTakeoff,
38.086127,-120.2285423,3871.8951006067,0.328084,0,0.123607943588,3500,2018-05-10 17:01:05,13,0,0,3871.8951006067,0.328084,0,0.123607943588,0,0,0,283.1, 0, -0.6,0,0,1024,1024,1024,1024,283.3,-90,98,4.15,4.086,4.098,4.122,4.109,4.127,0,62.6,11,AutoTakeoff,
38.0861271,-120.2285422,3872.2231846067,0.656168,0,0.169470477864,3600,2018-05-10 17:01:05,12,0,0,3872.2231846067,0.656168,0,0.169470477864,0,0,0,283.1, 0, -0.7,0,0,1024,1024,1024,1024,283.3,-89.9,98,4.15,4.086,4.098,4.122,4.109,4.127,0,62.6,11,AutoTakeoff,
38.0861271,-120.2285422,3872.2231846067,0.656168,0,0.169470477864,3700,2018-05-10 17:01:05,12,0,0,3872.2231846067,0.656168,0,0.169470477864,0,0,0,283, 0, -0.3,0,0,1024,1024,1024,1024,283.3,-89.9,98,4.15,4.086,4.098,4.122,4.109,4.127,0,62.6,11,AutoTakeoff,
38.0861272,-120.2285422,3872.5512686067,0.984252,0,0.201744100944,3810,2018-05-10 17:01:05,10,0,0,3872.5512686067,0.984252,0,0.201744100944,0,0,0,282.9, 0, -0.1,0,0,1024,1024,1024,1024,283.3,-90,98,4.15,4.086,4.098,4.122,4.109,4.127,0,62.6,11,AutoTakeoff,
38.0861273,-120.2285422,3872.5512686067,0.984252,0,0.235251647948,4000,2018-05-10 17:01:05,10,0,24.969,3872.5512686067,0.984252,0,0.235251647948,0,0,0,282.7, -0.2, 0,0,0,1024,1024,1024,1024,283.3,-89.9,98,4.15,4.086,4.098,4.122,4.109,4.127,6.314,62.6,11,AutoTakeoff,
38.0861273,-120.2285422,3872.8793526067,1.312336,0,0.235251647948,4100,2018-05-10 17:01:05,10,0,24.969,3872.8793526067,1.312336,0,0.235251647948,0,0,0,282.6, -0.2, -0.1,0,0,1024,1024,1024,1024,283.3,-89.9,98,4.15,4.086,4.098,4.122,4.109,4.127,6.314,62.6,11,AutoTakeoff,
38.0861273,-120.2285421,3872.8793526067,1.312336,0,0.24721621526,4200,2018-05-10 17:01:05,10,0,24.969,3872.8793526067,1.312336,0,0.24721621526,0,0,0,282.5, -0.3, -0.4,0,0,1024,1024,1024,1024,283.3,-89.9,98,4.15,4.086,4.098,4.122,4.109,4.127,6.314,62.6,11,AutoTakeoff,
38.0861274,-120.2285421,3873.2074366067,1.64042,0,0.280037082452,4300,2018-05-10 17:01:05,11,0,24.969,3873.2074366067,1.64042,0,0.280037082452,0,0,-0.223694,282.6, -0.2, -0.6,0,0,1024,1024,1024,1024,283.3,-90,98,4.15,4.086,4.098,4.122,4.109,4.127,6.314,62.6,11,AutoTakeoff,
38.0861274,-120.2285421,3873.2074366067,1.64042,0,0.280037082452,4400,2018-05-10 17:01:05,11,0,24.969,3873.2074366067,1.64042,0,0.280037082452,0,0,-0.223694,282.7, -0.2, -0.6,0,0,1024,1024,1024,1024,283.3,-90,98,4.15,4.086,4.098,4.122,4.109,4.127,6.314,62.6,11,AutoTakeoff,
38.0861274,-120.2285421,3873.5355206067,1.968504,0,0.280037082452,4500,2018-05-10 17:01:06,11,0,24.969,3873.5355206067,1.968504,0,0.280037082452,0,0,-0.223694,282.8, -0.4, -0.6,0,0,1024,1024,1024,1024,283.3,-90,98,4.15,4.086,4.098,4.122,4.109,4.127,6.314,62.6,11,AutoTakeoff,
38.0861273,-120.2285421,3873.8636046067,2.296588,0,0.24721621526,4600,2018-05-10 17:01:06,11,0,24.969,3873.8636046067,2.296588,0,0.280037082452,0,0,0,282.8, -0.3, -0.6,0,0,1024,1024,1024,1024,283.3,-89.9,98,4.15,4.086,4.098,4.122,4.109,4.127,6.314,62.6,11,AutoTakeoff,
38.0861273,-120.2285421,3873.8636046067,2.296588,0,0.24721621526,4700,2018-05-10 17:01:06,11,0,24.969,3873.8636046067,2.296588,0,0.280037082452,0,0,0,282.8, -0.3, -0.5,0,0,1024,1024,1024,1024,283.3,-89.9,98,4.15,4.086,4.098,4.122,4.109,4.127,6.314,62.6,11,AutoTakeoff,
38.0861273,-120.2285421,3873.8636046067,2.296588,0,0.24721621526,4800,2018-05-10 17:01:06,11,0,24.969,3873.8636046067,2.296588,0,0.280037082452,0,0,0,282.8, -0.2, -0.1,0,0,1024,1024,1024,1024,283.3,-89.9,98,4.15,4.086,4.098,4.122,4.109,4.127,6.314,62.6,11,AutoTakeoff,
38.0861272,-120.2285419,3874.1916886067,2.624672,0,0.250930782308,4900,2018-05-10 17:01:06,11,0,24.969,3874.1916886067,2.624672,0,0.280037082452,0,0,0,282.6, -0.6, 0.3,0,0,1024,1024,1024,1024,283.3,-90,98,4.15,4.086,4.098,4.122,4.109,4.127,6.314,62.6,11,AutoTakeoff,
38.0861272,-120.2285418,3874.5197726067,2.952756,0,0.271452764592,5100,2018-05-10 17:01:06,12,0,24.969,3874.5197726067,2.952756,0,0.280037082452,0,0,0,282.3, -0.9, 0.2,0,0,1024,1024,1024,1024,283.3,-90,98,4.15,4.086,4.098,4.122,4.109,4.127,6.314,62.6,14,Waypoint,
38.0861272,-120.2285416,3874.8478566067,3.28084,0,0.316347122984,5300,2018-05-10 17:01:06,12,0,24.969,3874.8478566067,3.28084,0,0.316347122984,0,0,0,282.1, -0.8, 0.9,0,0,1024,1024,1024,1024,283.3,-89.9,98,4.15,4.086,4.098,4.122,4.109,4.127,6.314,62.6,14,Waypoint,
38.0861272,-120.2285416,3874.8478566067,3.28084,0,0.316347122984,5400,2018-05-10 17:01:06,13,0,24.969,3874.8478566067,3.28084,0,0.316347122984,0,0,0,282.2, -0.6, 0.6,0,0,1024,1024,1024,1024,283.3,-89.9,98,4.15,4.086,4.098,4.122,4.109,4.127,6.314,62.6,14,Waypoint,
38.0861272,-120.2285416,3874.8478566067,3.28084,0,0.316347122984,5500,2018-05-10 17:01:07,13,0,24.969,3874.8478566067,3.28084,0,0.316347122984,0,0,0,282.3, -0.6, 0.3,0,0,1024,1024,1024,1024,283.3,-89.9,98,4.15,4.086,4.098,4.122,4.109,4.127,6.314,62.6,14,Waypoint,
38.0861271,-120.2285415,3875.1759406067,3.608924,0,0.322123369888,5600,2018-05-10 17:01:07,12,0,24.969,3875.1759406067,3.608924,0,0.322123369888,0,0,-0.223694,282.4, -0.5, 0.2,0,0,1024,1024,1024,1024,283.3,-89.9,98,4.15,4.086,4.098,4.122,4.109,4.127,6.314,62.6,14,Waypoint,
38.0861271,-120.2285414,3875.1759406067,3.608924,0,0.3479658904,5700,2018-05-10 17:01:07,12,0,24.969,3875.1759406067,3.608924,0,0.3479658904,0,0,-0.223694,282.4, -0.7, 0,0,0,1024,1024,1024,1024,283.3,-90,98,4.15,4.086,4.098,4.122,4.109,4.127,6.314,62.6,14,Waypoint,
38.0861271,-120.2285413,3875.5040246067,3.937008,0,0.3742290146,5800,2018-05-10 17:01:07,13,0,24.969,3875.5040246067,3.937008,0,0.3742290146,0,0,-0.223694,282.4, -0.8, 0,0,0,1024,1024,1024,1024,283.3,-89.9,98,4.15,4.086,4.098,4.122,4.109,4.127,6.314,62.6,14,Waypoint,
38.086127,-120.2285413,3875.8321086067,4.265092,0,0.3615649722,5900,2018-05-10 17:01:07,13,0,24.969,3875.8321086067,4.265092,0,0.3742290146,0,0,-0.223694,282.2, -0.6, 0.4,0,0,1024,1024,1024,1024,283.3,-89.9,98,4.15,4.086,4.098,4.122,4.109,4.127,6.314,62.6,14,Waypoint,
38.086127,-120.2285413,3876.1601926067,4.593176,0,0.3615649722,6000,2018-05-10 17:01:07,11,0,23.599,3876.1601926067,4.593176,0,0.3742290146,0,0,-0.223694,282, -0.3, 0.9,0,0,1024,1024,1024,1024,283.3,-89.9,98,3.927,3.927,3.918,3.947,3.938,3.935,16.375,62.6,14,Waypoint,
38.0861271,-120.2285413,3876.8163606067,5.249344,0,0.3742290146,6120,2018-05-10 17:01:07,11,0,23.599,3876.8163606067,5.249344,0,0.3742290146,0,0,-0.447388,281.8, -0.3, 0.9,0,0,1024,1024,1024,1024,283.2,-89.9,98,3.927,3.927,3.918,3.947,3.938,3.935,16.375,62.6,14,Waypoint,
38.0861272,-120.2285413,3877.4725286067,5.905512,0,0.38990814896,6200,2018-05-10 17:01:07,10,0,23.599,3877.4725286067,5.905512,0,0.38990814896,0,0,-0.447388,281.7, -0.5, 0.5,0,0,1024,1024,1024,1024,283.2,-89.9,98,3.927,3.927,3.918,3.947,3.938,3.935,16.375,62.6,14,Waypoint,
38.0861273,-120.2285414,3877.8006126067,6.233596,0,0.38432415928,6300,2018-05-10 17:01:07,10,0,23.599,3877.8006126067,6.233596,0,0.38990814896,0,0,-0.447388,281.7, -0.6, 0,0,0,1024,1024,1024,1024,283.2,-89.9,98,3.927,3.927,3.918,3.947,3.938,3.935,16.375,62.6,14,Waypoint,
38.0861273,-120.2285414,3878.4567806067,6.889764,0,0.38432415928,6410,2018-05-10 17:01:07,11,0,23.599,3878.4567806067,6.889764,0,0.38990814896,0,0,-0.447388,281.9, -0.5, -0.2,0,0,1024,1024,1024,1024,283.2,-89.9,98,3.927,3.927,3.918,3.947,3.938,3.935,16.375,62.6,14,Waypoint,
38.0861274,-120.2285415,3879.4410326067,7.874016,0,0.38430775508,6510,2018-05-10 17:01:08,11,0,23.599,3879.4410326067,7.874016,0,0.38990814896,0,0,-0.447388,282, -0.3, -0.4,0,0,1024,1024,1024,1024,283.2,-89.9,98,3.927,3.927,3.918,3.947,3.938,3.935,16.375,62.6,14,Waypoint,
38.0861275,-120.2285415,3881.0814526067,9.514436,0,0.40946195536,6700,2018-05-10 17:01:08,14,0,23.599,3881.0814526067,9.514436,0,0.40946195536,0,0,-0.671082,281.9, -0.1, -0.3,0,0,1024,1024,1024,1024,283.1,-89.9,98,3.927,3.927,3.918,3.947,3.938,3.935,16.375,62.6,14,Waypoint,
38.0861275,-120.2285416,3882.0657046067,10.498688,0,0.38985893636,6900,2018-05-10 17:01:08,13,0,23.599,3882.0657046067,10.498688,0,0.40946195536,0,0,-0.671082,281.9, 0, -0.1,0,0,1024,1024,1024,1024,283.1,-89.9,98,3.927,3.927,3.918,3.947,3.938,3.935,16.375,62.6,14,Waypoint,
38.0861275,-120.2285417,3883.0499566067,11.48294,0,0.37144358144,7000,2018-05-10 17:01:08,13,0,23.452,3883.0499566067,11.48294,0,0.40946195536,0,0,-0.671082,281.8, 0, 0,0,0,1024,1024,1024,1024,283.1,-89.9,98,3.898,3.866,3.866,3.884,3.876,3.89,16.757,62.6,14,Waypoint,
38.0861275,-120.2285419,3884.0342086067,12.467192,0,0.33894029956,7100,2018-05-10 17:01:08,14,0,23.452,3884.0342086067,12.467192,0,0.40946195536,0,0,-0.671082,281.7, 0, 0.2,0,0,1024,1024,1024,1024,283.1,-89.9,98,3.898,3.866,3.866,3.884,3.876,3.89,16.757,62.6,14,Waypoint,
38.0861274,-120.2285421,3885.3465446067,13.779528,0,0.280037082452,7200,2018-05-10 17:01:08,14,0,23.452,3885.3465446067,13.779528,0,0.40946195536,0,0,-0.671082,281.7, 0.2, 0.5,0,0,1024,1024,1024,1024,283.1,-89.9,98,3.898,3.866,3.866,3.884,3.876,3.89,16.757,62.6,14,Waypoint,
38.0861271,-120.2285423,3886.3307966067,14.76378,0,0.156834322604,7300,2018-05-10 17:01:08,13,0,23.452,3886.3307966067,14.76378,0,0.40946195536,0,0,-0.671082,281.7, 0.5, 0.8,0,0,1024,1024,1024,1024,283,-89.9,98,3.898,3.866,3.866,3.884,3.876,3.89,16.757,62.6,14,Waypoint,
38.0861268,-120.2285425,3887.6431326067,16.076116,0,0.036484909304,7400,2018-05-10 17:01:08,13,0,23.452,3887.6431326067,16.076116,0,0.40946195536,0,0,-0.671082,281.7, 0.6, 1.3,0,0,1024,1024,1024,1024,283,-89.9,98,3.898,3.866,3.866,3.884,3.876,3.89,16.757,62.6,14,Waypoint,
38.0861265,-120.2285426,3888.6273846067,17.060368,0.223694,0.078417325344,7500,2018-05-10 17:01:09,14,0,23.452,3888.6273846067,17.060368,0.223694,0.40946195536,0,0,-0.671082,281.8, 0.6, 1.8,0,0,1024,1024,1024,1024,283,-89.9,98,3.898,3.866,3.866,3.884,3.876,3.89,16.757,62.6,14,Waypoint,
38.0861263,-120.2285428,3889.9397206067,18.372704,0.223694,0.169470477864,7600,2018-05-10 17:01:09,14,0,23.452,3889.9397206067,18.372704,0.223694,0.40946195536,0,0,-0.671082,281.9, 0.5, 2.3,0,0,1024,1024,1024,1024,283,-89.9,98,3.898,3.866,3.866,3.884,3.876,3.89,16.757,62.6,14,Waypoint,
38.0861256,-120.2285428,3892.2363086067,20.669292,0.223694,0.41047573492,7700,2018-05-10 17:01:09,13,0,23.452,3892.2363086067,20.669292,0.223694,0.41047573492,0,0,-0.671082,282.1, 0.1, 2.9,0,0,1024,1024,1024,1024,283,-89.9,98,3.898,3.866,3.866,3.884,3.876,3.89,16.757,62.6,14,Waypoint,
38.0861254,-120.2285425,3894.2048126067,22.637796,0,0.47430447712,7900,2018-05-10 17:01:09,14,0,23.452,3894.2048126067,22.637796,0.223694,0.47430447712,0,0,-0.671082,282.1, -0.3, 3,0,0,1024,1024,1024,1024,283,-90,98,3.898,3.866,3.866,3.884,3.876,3.89,16.757,62.6,14,Waypoint,
38.0861252,-120.2285424,3895.5171486067,23.950132,0,0.54802823276,8000,2018-05-10 17:01:09,14,0,22.808,3895.5171486067,23.950132,0.223694,0.54802823276,0,0,-0.671082,282.1, -0.6, 2.5,0,0,1024,1024,1024,1024,283,-90,98,3.774,3.789,3.764,3.803,3.788,3.777,23.488,62.6,14,Waypoint,
38.0861251,-120.2285424,3896.5014006067,24.934384,0,0.5844652418,8100,2018-05-10 17:01:09,14,0,22.808,3896.5014006067,24.934384,0.223694,0.5844652418,0,0,-0.671082,282.1, -0.7, 2.2,0,0,1024,1024,1024,1024,282.9,-90,98,3.774,3.789,3.764,3.803,3.788,3.777,23.488,62.6,14,Waypoint,
38.0861251,-120.2285422,3897.4856526067,25.918636,0,0.59008203988,8300,2018-05-10 17:01:09,14,0,22.808,3897.4856526067,25.918636,0.223694,0.59008203988,0,0,-0.671082,282, -0.8, 1.9,0,0,1024,1024,1024,1024,282.9,-90,98,3.774,3.789,3.764,3.803,3.788,3.777,23.488,62.6,14,Waypoint,
38.0861251,-120.228542,3898.7979886067,27.230972,0,0.60115815572,8400,2018-05-10 17:01:09,14,0,22.808,3898.7979886067,27.230972,0.223694,0.60115815572,0,0,-0.671082,281.8, -0.9, 1.6,0,0,1024,1024,1024,1024,282.9,-90,98,3.774,3.789,3.764,3.803,3.788,3.777,23.488,62.6,14,Waypoint,
38.0861252,-120.2285418,3899.7822406067,28.215224,0,0.58302495304,8500,2018-05-10 17:01:10,13,0,22.808,3899.7822406067,28.215224,0.223694,0.60115815572,0,0,-0.671082,281.7, -1, 1.2,0,0,1024,1024,1024,1024,282.9,-90,98,3.774,3.789,3.764,3.803,3.788,3.777,23.488,62.6,14,Waypoint,
38.0861252,-120.2285416,3900.7664926067,29.199476,0,0.605232959,8600,2018-05-10 17:01:10,13,0,22.808,3900.7664926067,29.199476,0.223694,0.605232959,0,0,-0.671082,281.6, -1.1, 0.8,0,0,1024,1024,1024,1024,282.9,-90,98,3.774,3.789,3.764,3.803,3.788,3.777,23.488,62.6,14,Waypoint,
38.0861253,-120.2285413,3901.7507446067,30.183728,0.223694,0.61616143704,8700,2018-05-10 17:01:10,13,0,22.808,3901.7507446067,30.183728,0.223694,0.61616143704,0,0,-0.671082,281.6, -1.4, 0.5,0,0,1024,1024,1024,1024,282.9,-90,98,3.774,3.789,3.764,3.803,3.788,3.777,23.488,62.6,14,Waypoint,
38.0861255,-120.228541,3902.7349966067,31.16798,0.223694,0.61419293304,8900,2018-05-10 17:01:10,13,0,22.808,3902.7349966067,31.16798,0.223694,0.61616143704,0,0,-0.671082,281.6, -1.7, 0.2,0,0,1024,1024,1024,1024,282.9,-90,98,3.774,3.789,3.764,3.803,3.788,3.777,23.488,62.6,14,Waypoint,
38.0861257,-120.2285406,3903.7192486067,32.152232,0.223694,0.6563648504,9000,2018-05-10 17:01:10,14,0,22.951,3903.7192486067,32.152232,0.223694,0.6563648504,0,0,-0.671082,281.6, -2.1, -0.1,0,0,1024,1024,1024,1024,282.9,-90,98,3.837,3.852,3.82,3.864,3.841,3.838,21.108,62.6,14,Waypoint,
38.0861259,-120.2285403,3905.0315846067,33.464568,0.223694,0.69593506164,9100,2018-05-10 17:01:10,14,0,22.951,3905.0315846067,33.464568,0.223694,0.69593506164,0,0,-0.671082,281.7, -2.3, -0.6,0,0,1024,1024,1024,1024,282.9,-90,98,3.837,3.852,3.82,3.864,3.841,3.838,21.108,62.6,14,Waypoint,
38.0861261,-120.22854,3906.0158366067,34.44882,0.223694,0.75055120512,9300,2018-05-10 17:01:10,14,0,22.951,3906.0158366067,34.44882,0.223694,0.75055120512,0,0,-0.671082,281.7, -2.4, -1.1,0,0,1024,1024,1024,1024,282.9,-90,98,3.837,3.852,3.82,3.864,3.841,3.838,21.108,62.6,14,Waypoint,
38.0861263,-120.2285396,3907.0000886067,35.433072,0.223694,0.84547574884,9400,2018-05-10 17:01:10,14,0,22.951,3907.0000886067,35.433072,0.223694,0.84547574884,0,0,-0.671082,281.7, -2.5, -1.6,0,0,1024,1024,1024,1024,282.9,-89.9,98,3.837,3.852,3.82,3.864,3.841,3.838,21.108,62.6,14,Waypoint,
38.0861265,-120.2285392,3907.9843406067,36.417324,0.223694,0.95045606716,9510,2018-05-10 17:01:11,13,0,22.951,3907.9843406067,36.417324,0.223694,0.95045606716,0,0,-0.671082,281.7, -2.5, -1.8,0,0,1024,1024,1024,1024,282.9,-89.9,98,3.837,3.852,3.82,3.864,3.841,3.838,21.108,62.6,14,Waypoint,
38.0861265,-120.2285392,3907.9843406067,36.417324,0.223694,0.95045606716,9600,2018-05-10 17:01:11,13,0,22.951,3907.9843406067,36.417324,0.223694,0.95045606716,0,0,-0.671082,281.7, -2.5, -1.8,0,0,1024,1024,1024,1024,282.9,-90,98,3.837,3.852,3.82,3.864,3.841,3.838,21.108,62.6,14,Waypoint,
38.0861268,-120.2285388,3909.9528446067,38.385828,0,1.06314635948,9700,2018-05-10 17:01:11,13,0,22.951,3909.9528446067,38.385828,0.223694,1.06314635948,0,0,-0.671082,281.8, -2.5, -1.2,0,0,1024,1024,1024,1024,282.9,-90,98,3.837,3.852,3.82,3.864,3.841,3.838,21.108,62.6,14,Waypoint,
38.0861268,-120.2285388,3910.9370966067,39.37008,0,1.06314635948,9800,2018-05-10 17:01:11,13,0,22.951,3910.9370966067,39.37008,0.223694,1.06314635948,0,0,-0.671082,281.9, -2.3, -0.8,0,0,1024,1024,1024,1024,282.9,-89.9,98,3.837,3.852,3.82,3.864,3.841,3.838,21.108,62.6,14,Waypoint,
38.0861269,-120.2285387,3912.2494326067,40.682416,0,1.09367129484,10000,2018-05-10 17:01:11,15,0,23.143,3912.2494326067,40.682416,0.223694,1.09367129484,0,0,-0.671082,282, -2.1, -0.6,0,0,1024,1024,1024,1024,282.9,-89.9,98,3.837,3.852,3.82,3.864,3.841,3.838,18.224,62.6,14,Waypoint,
38.086127,-120.2285386,3913.2336846067,41.666668,0,1.12528874992,10100,2018-05-10 17:01:11,15,0,23.143,3913.2336846067,41.666668,0.223694,1.12528874992,0,0,-0.671082,282, -1.9, -0.7,0,0,1024,1024,1024,1024,282.9,-89.9,98,3.837,3.852,3.82,3.864,3.841,3.838,18.224,62.6,14,Waypoint,
38.0861274,-120.2285383,3915.2021886067,43.635172,0,1.23284780848,10200,2018-05-10 17:01:11,14,0,23.143,3915.2021886067,43.635172,0.223694,1.23284780848,0,0,-0.671082,282, -1.6, -0.9,0,0,1024,1024,1024,1024,282.9,-89.9,98,3.837,3.852,3.82,3.864,3.841,3.838,18.224,62.6,14,Waypoint,
38.0861275,-120.2285382,3917.1706926067,45.603676,0.223694,1.26884518496,10310,2018-05-10 17:01:11,15,0,23.143,3917.1706926067,45.603676,0.223694,1.26884518496,0,0,-0.671082,281.9, -1.5, -1.2,0,0,1024,1024,1024,1024,282.9,-89.9,98,3.837,3.852,3.82,3.864,3.841,3.838,18.224,62.6,14,Waypoint,
38.0861277,-120.2285382,3919.1391966067,47.57218,0.223694,1.28759190472,10400,2018-05-10 17:01:11,14,0,23.143,3919.1391966067,47.57218,0.223694,1.28759190472,0,0,-0.671082,281.8, -1.2, -1,0,0,1024,1024,1024,1024,282.9,-89.9,98,3.837,3.852,3.82,3.864,3.841,3.838,18.224,62.6,14,Waypoint,
38.0861278,-120.2285383,3921.1077006067,49.540684,0.223694,1.27112208792,10510,2018-05-10 17:01:12,14,0,23.143,3921.1077006067,49.540684,0.223694,1.28759190472,0,0,-0.671082,281.7, -1.1, -1,0,0,1024,1024,1024,1024,282.9,-89.9,98,3.837,3.852,3.82,3.864,3.841,3.838,18.224,62.6,14,Waypoint,
38.0861279,-120.2285384,3922.0919526067,50.524936,0.223694,1.25615489584,10600,2018-05-10 17:01:12,13,0,23.143,3922.0919526067,50.524936,0.223694,1.28759190472,0,0,-0.671082,281.8, -1, -0.7,0,0,1024,1024,1024,1024,282.9,-89.9,98,3.837,3.852,3.82,3.864,3.841,3.838,18.224,62.6,14,Waypoint,
38.0861279,-120.2285385,3923.0762046067,51.509188,0.223694,1.22927825456,10700,2018-05-10 17:01:12,13,0,23.143,3923.0762046067,51.509188,0.223694,1.28759190472,0,0,-0.671082,281.8, -0.8, -0.5,0,0,1024,1024,1024,1024,282.9,-89.9,98,3.837,3.852,3.82,3.864,3.841,3.838,18.224,62.6,14,Waypoint,
38.086128,-120.2285387,3924.0604566067,52.49344,0.223694,1.18985568112,10800,2018-05-10 17:01:12,14,0,23.143,3924.0604566067,52.49344,0.223694,1.28759190472,0,0,-0.671082,281.9, -0.6, -0.4,0,0,1024,1024,1024,1024,282.9,-89.9,98,3.837,3.852,3.82,3.864,3.841,3.838,18.224,62.6,14,Waypoint,
38.086128,-120.2285389,3925.0447086067,53.477692,0.223694,1.13741473456,10900,2018-05-10 17:01:12,14,0,23.143,3925.0447086067,53.477692,0.223694,1.28759190472,0,0,-0.671082,281.9, -0.4, -0.4,0,0,1024,1024,1024,1024,282.9,-89.9,98,3.837,3.852,3.82,3.864,3.841,3.838,18.224,62.6,14,Waypoint,
38.086128,-120.2285391,3926.0289606067,54.461944,0.223694,1.08547575652,11000,2018-05-10 17:01:12,13,0,23.117,3926.0289606067,54.461944,0.223694,1.28759190472,0,0,-0.671082,281.8, -0.2, -0.1,0,0,1024,1024,1024,1024,282.9,-89.9,98,3.85,3.852,3.839,3.862,3.865,3.845,18.192,62.6,14,Waypoint,
38.086128,-120.2285392,3927.0132126067,55.446196,0.223694,1.05972116252,11110,2018-05-10 17:01:12,13,0,23.117,3927.0132126067,55.446196,0.223694,1.28759190472,0,0,-0.671082,281.8, 0, 0,0,0,1024,1024,1024,1024,282.9,-89.9,98,3.85,3.852,3.839,3.862,3.865,3.845,18.192,62.6,14,Waypoint,
38.086128,-120.2285394,3927.9974646067,56.430448,0.223694,1.00868769632,11200,2018-05-10 17:01:12,14,0,23.117,3927.9974646067,56.430448,0.223694,1.28759190472,0,0,-0.671082,281.9, 0, 0.1,0,0,1024,1024,1024,1024,282.9,-89.9,98,3.85,3.852,3.839,3.862,3.865,3.845,18.192,62.6,14,Waypoint,
38.0861281,-120.2285395,3928.9817166067,57.4147,0.223694,1.00154530764,11300,2018-05-10 17:01:12,14,0,23.117,3928.9817166067,57.4147,0.223694,1.28759190472,0,0,-0.671082,282, -0.1, 0,0,0,1024,1024,1024,1024,282.9,-89.9,98,3.85,3.852,3.839,3.862,3.865,3.845,18.192,62.6,14,Waypoint,
38.0861281,-120.2285397,3929.9659686067,58.398952,0.223694,0.952591894,11400,2018-05-10 17:01:12,15,0,23.117,3929.9659686067,58.398952,0.223694,1.28759190472,0,0,-0.671082,282.1, 0, -0.1,0,0,1024,1024,1024,1024,282.9,-89.9,98,3.85,3.852,3.839,3.862,3.865,3.845,18.192,62.6,14,Waypoint,
38.0861281,-120.2285398,3930.9502206067,59.383204,0.223694,0.92848100084,11510,2018-05-10 17:01:13,15,0,23.117,3930.9502206067,59.383204,0.223694,1.28759190472,0,0,-0.671082,282.2, 0, -0.3,0,0,1024,1024,1024,1024,282.9,-89.9,98,3.85,3.852,3.839,3.862,3.865,3.845,18.192,62.6,14,Waypoint,
38.0861281,-120.2285398,3930.9502206067,59.383204,0.223694,0.92848100084,11600,2018-05-10 17:01:13,15,0,23.117,3930.9502206067,59.383204,0.223694,1.28759190472,0,0,-0.671082,282.2, 0, -0.3,0,0,1024,1024,1024,1024,282.9,-89.9,98,3.85,3.852,3.839,3.862,3.865,3.845,18.192,62.6,14,Waypoint,
38.0861281,-120.2285401,3932.5906406067,61.023624,0.223694,0.85784779648,11700,2018-05-10 17:01:13,15,0,23.117,3932.5906406067,61.023624,0.223694,1.28759190472,0,0,-0.671082,282.2, 0, -0.6,0,0,1024,1024,1024,1024,282.9,-89.9,98,3.85,3.852,3.839,3.862,3.865,3.845,18.192,62.6,14,Waypoint,
38.086128,-120.2285402,3933.9029766067,62.33596,0.223694,0.81314635148,11900,2018-05-10 17:01:13,14,0,23.117,3933.9029766067,62.33596,0.223694,1.28759190472,0,0,-0.671082,282.2, 0.1, -0.6,0,0,1024,1024,1024,1024,282.9,-89.9,98,3.85,3.852,3.839,3.862,3.865,3.845,18.192,62.6,14,Waypoint,
38.086128,-120.2285404,3934.8872286067,63.320212,0.223694,0.767224434,12000,2018-05-10 17:01:13,14,0,23.117,3934.8872286067,63.320212,0.223694,1.28759190472,0,0,-0.671082,282.1, 0.1, -0.4,0,0,1024,1024,1024,1024,282.9,-89.9,98,3.85,3.852,3.839,3.862,3.865,3.845,18.192,62.6,14,Waypoint,
38.0861279,-120.2285406,3935.8714806067,64.304464,0.223694,0.69956038984,12100,2018-05-10 17:01:13,15,0,23.117,3935.8714806067,64.304464,0.223694,1.28759190472,0,0,-0.671082,282, 0.2, -0.1,0,0,1024,1024,1024,1024,282.9,-89.9,98,3.85,3.852,3.839,3.862,3.865,3.845,18.192,62.6,14,Waypoint,
38.086128,-120.2285407,3936.8557326067,65.288716,0.223694,0.70153545552,12200,2018-05-10 17:01:13,15,0,23.117,3936.8557326067,65.288716,0.223694,1.28759190472,0,0,-0.671082,282, 0.4, 0,0,0,1024,1024,1024,1024,282.9,-89.9,98,3.85,3.852,3.839,3.862,3.865,3.845,18.192,62.6,14,Waypoint,
38.086128,-120.2285409,3937.5119006067,65.944884,0.223694,0.66036091352,12300,2018-05-10 17:01:13,15,0,23.117,3937.5119006067,65.944884,0.223694,1.28759190472,0,0,-0.671082,281.9, 0.5, 0,0,0,1024,1024,1024,1024,282.9,-89.9,98,3.85,3.852,3.839,3.862,3.865,3.845,18.192,62.6,14,Waypoint,
38.0861279,-120.228541,3938.4961526067,66.929136,0.223694,0.61419293304,12400,2018-05-10 17:01:13,15,0,23.117,3938.4961526067,66.929136,0.223694,1.28759190472,0,0,-0.671082,281.8, 0.9, -0.1,0,0,1024,1024,1024,1024,282.8,-89.9,98,3.85,3.852,3.839,3.862,3.865,3.845,18.192,62.6,14,Waypoint,
38.0861279,-120.2285412,3939.8084886067,68.241472,0.223694,0.57537075332,12500,2018-05-10 17:01:14,15,0,23.117,3939.8084886067,68.241472,0.223694,1.28759190472,0,0,-0.671082,281.6, 1.1, -0.3,0,0,1024,1024,1024,1024,282.8,-89.9,98,3.85,3.852,3.839,3.862,3.865,3.845,18.192,62.6,14,Waypoint,
38.0861278,-120.2285413,3940.7927406067,69.225724,0,0.52897967572,12600,2018-05-10 17:01:14,15,0,23.117,3940.7927406067,69.225724,0.223694,1.28759190472,0,0,-0.671082,281.5, 0.8, -0.1,0,0,1024,1024,1024,1024,282.8,-89.9,98,3.85,3.852,3.839,3.862,3.865,3.845,18.192,62.6,14,Waypoint,
38.0861276,-120.2285413,3942.7612446067,71.194228,0,0.47599739056,12700,2018-05-10 17:01:14,14,0,23.117,3942.7612446067,71.194228,0.223694,1.28759190472,0,0,-0.671082,281.6, 0.2, 0.4,0,0,1024,1024,1024,1024,282.9,-89.9,98,3.85,3.852,3.839,3.862,3.865,3.845,18.192,62.6,14,Waypoint,
38.0861275,-120.2285415,3944.4016646067,72.834648,0,0.40946195536,12900,2018-05-10 17:01:14,14,0,23.117,3944.4016646067,72.834648,0.223694,1.28759190472,0,0,-0.671082,282, -0.3, 0.5,0,0,1024,1024,1024,1024,282.9,-90,98,3.85,3.852,3.839,3.862,3.865,3.845,18.192,62.6,14,Waypoint,
38.0861274,-120.2285416,3945.3859166067,73.8189,0,0.36334974916,13000,2018-05-10 17:01:14,14,0,23.048,3945.3859166067,73.8189,0.223694,1.28759190472,0,0,-0.671082,282, -0.4, 0.3,0,0,1024,1024,1024,1024,282.9,-90,97,3.838,3.838,3.822,3.847,3.852,3.832,18.639,62.6,14,Waypoint,
38.0861274,-120.2285416,3946.3701686067,74.803152,0,0.36334974916,13100,2018-05-10 17:01:14,14,0,23.048,3946.3701686067,74.803152,0.223694,1.28759190472,0,0,-0.671082,282, -0.5, 0.4,0,0,1024,1024,1024,1024,282.9,-90,97,3.838,3.838,3.822,3.847,3.852,3.832,18.639,62.6,14,Waypoint,
38.0861273,-120.2285416,3947.3544206067,75.787404,0,0.33870079824,13200,2018-05-10 17:01:14,15,0,23.048,3947.3544206067,75.787404,0.223694,1.28759190472,0,0,-0.671082,281.9, -0.6, 0.5,0,0,1024,1024,1024,1024,282.8,-90,97,3.838,3.838,3.822,3.847,3.852,3.832,18.639,62.6,14,Waypoint,
38.0861272,-120.2285416,3948.3386726067,76.771656,0,0.316347122984,13300,2018-05-10 17:01:14,15,0,23.048,3948.3386726067,76.771656,0.223694,1.28759190472,0,0,-0.671082,281.9, -0.7, 0.4,0,0,1024,1024,1024,1024,282.8,-90,97,3.838,3.838,3.822,3.847,3.852,3.832,18.639,62.6,14,Waypoint,
38.0861271,-120.2285416,3949.3229246067,77.755908,0,0.296808080364,13400,2018-05-10 17:01:14,15,0,23.048,3949.3229246067,77.755908,0.223694,1.28759190472,0,0,-0.671082,281.9, -0.7, 0.6,0,0,1024,1024,1024,1024,282.9,-89.9,97,3.838,3.838,3.822,3.847,3.852,3.832,18.639,62.6,14,Waypoint,
38.0861271,-120.2285416,3950.3071766067,78.74016,0,0.296808080364,13520,2018-05-10 17:01:15,15,0,23.048,3950.3071766067,78.74016,0.223694,1.28759190472,0,0,-0.671082,281.9, -0.7, 0.9,0,0,1024,1024,1024,1024,282.9,-90,97,3.838,3.838,3.822,3.847,3.852,3.832,18.639,62.6,14,Waypoint,
38.086127,-120.2285415,3951.2914286067,79.724412,0,0.30731956364,13600,2018-05-10 17:01:15,16,0,23.048,3951.2914286067,79.724412,0.223694,1.28759190472,0,0,-0.671082,281.9, -0.7, 0.9,0,0,1024,1024,1024,1024,282.8,-89.9,97,3.838,3.838,3.822,3.847,3.852,3.832,18.639,62.6,14,Waypoint,
38.086127,-120.2285415,3952.2756806067,80.708664,0,0.30731956364,13700,2018-05-10 17:01:15,16,0,23.048,3952.2756806067,80.708664,0.223694,1.28759190472,0,0,-0.671082,282, -0.7, 0.8,0,0,1024,1024,1024,1024,282.9,-90,97,3.838,3.838,3.822,3.847,3.852,3.832,18.639,62.6,14,Waypoint,
38.086127,-120.2285414,3953.2599326067,81.692916,0,0.33431103432,13800,2018-05-10 17:01:15,16,0,23.048,3953.2599326067,81.692916,0.223694,1.28759190472,0,0,-0.671082,282, -0.9, 0.5,0,0,1024,1024,1024,1024,282.9,-90,97,3.838,3.838,3.822,3.847,3.852,3.832,18.639,62.6,14,Waypoint,
38.086127,-120.2285413,3954.2441846067,82.677168,0,0.3615649722,13900,2018-05-10 17:01:15,16,0,23.048,3954.2441846067,82.677168,0.223694,1.28759190472,0,0,-0.671082,282, -1, 0.2,0,0,1024,1024,1024,1024,282.8,-90,97,3.838,3.838,3.822,3.847,3.852,3.832,18.639,62.6,14,Waypoint,
38.086127,-120.2285413,3955.2284366067,83.66142,0,0.3615649722,14000,2018-05-10 17:01:15,16,0,23.026,3955.2284366067,83.66142,0.223694,1.28759190472,0,0,-0.671082,282, -1.1, -0.1,0,0,1024,1024,1024,1024,282.8,-90,97,3.84,3.83,3.822,3.847,3.847,3.825,18.787,62.6,14,Waypoint,
38.0861269,-120.2285413,3957.1969406067,85.629924,0,0.35224082492,14200,2018-05-10 17:01:15,16,0,23.026,3957.1969406067,85.629924,0.223694,1.28759190472,0,0,-0.671082,282.1, -1.1, -0.1,0,0,1024,1024,1024,1024,282.9,-90,97,3.84,3.83,3.822,3.847,3.847,3.825,18.787,62.6,14,Waypoint,
38.0861269,-120.2285413,3958.1811926067,86.614176,0,0.35224082492,14310,2018-05-10 17:01:15,16,0,23.026,3958.1811926067,86.614176,0.223694,1.28759190472,0,0,-0.671082,282.1, -1.1, 0.2,0,0,1024,1024,1024,1024,282.9,-89.9,97,3.84,3.83,3.822,3.847,3.847,3.825,18.787,62.6,14,Waypoint,
38.0861269,-120.2285413,3958.1811926067,86.614176,0,0.35224082492,14400,2018-05-10 17:01:15,16,0,23.026,3958.1811926067,86.614176,0.223694,1.28759190472,0,0,-0.671082,282.1, -1.1, 0.2,0,0,1024,1024,1024,1024,282.9,-89.9,97,3.84,3.83,3.822,3.847,3.847,3.825,18.787,62.6,14,Waypoint,
38.0861269,-120.2285413,3959.1654446067,87.598428,0,0.35224082492,14500,2018-05-10 17:01:16,16,0,23.026,3959.1654446067,87.598428,0.223694,1.28759190472,0,0,-0.671082,282, -1, 0.6,0,0,1024,1024,1024,1024,282.8,-89.9,97,3.84,3.83,3.822,3.847,3.847,3.825,18.787,62.6,14,Waypoint,
38.0861269,-120.2285412,3960.1496966067,88.58268,0,0.3803805896,14600,2018-05-10 17:01:16,16,0,23.026,3960.1496966067,88.58268,0.223694,1.28759190472,0,0,-0.671082,281.9, -1, 0.8,0,0,1024,1024,1024,1024,282.9,-90,97,3.84,3.83,3.822,3.847,3.847,3.825,18.787,62.6,14,Waypoint,
38.0861269,-120.2285412,3961.1339486067,89.566932,0,0.3803805896,14700,2018-05-10 17:01:16,16,0,23.026,3961.1339486067,89.566932,0.223694,1.28759190472,0,0,-0.671082,281.8, -0.9, 0.9,0,0,1024,1024,1024,1024,282.8,-89.9,97,3.84,3.83,3.822,3.847,3.847,3.825,18.787,62.6,14,Waypoint,
38.0861268,-120.2285412,3962.1182006067,90.551184,0,0.37509515636,14800,2018-05-10 17:01:16,16,0,23.026,3962.1182006067,90.551184,0.223694,1.28759190472,0,0,-0.671082,281.7, -0.7, 0.6,0,0,1024,1024,1024,1024,282.8,-89.9,97,3.84,3.83,3.822,3.847,3.847,3.825,18.787,62.6,14,Waypoint,
38.0861268,-120.2285412,3963.1024526067,91.535436,0,0.37509515636,14900,2018-05-10 17:01:16,16,0,23.026,3963.1024526067,91.535436,0.223694,1.28759190472,0,0,-0.671082,281.8, -0.7, 0.6,0,0,1024,1024,1024,1024,282.9,-89.9,97,3.84,3.83,3.822,3.847,3.847,3.825,18.787,62.6,14,Waypoint,
38.0861268,-120.2285412,3964.0867046067,92.519688,0,0.37509515636,15000,2018-05-10 17:01:16,16,0,23.026,3964.0867046067,92.519688,0.223694,1.28759190472,0,0,-0.671082,282, -0.8, 0.8,0,0,1024,1024,1024,1024,282.9,-89.9,97,3.812,3.821,3.813,3.851,3.844,3.832,18.787,62.6,14,Waypoint,
38.0861269,-120.2285412,3965.0709566067,93.50394,0,0.3803805896,15100,2018-05-10 17:01:16,16,0,23.026,3965.0709566067,93.50394,0.223694,1.28759190472,0,0,-0.671082,282.2, -0.8, 0.8,0,0,1024,1024,1024,1024,282.9,-89.9,97,3.812,3.821,3.813,3.851,3.844,3.832,18.787,62.6,14,Waypoint,
38.086127,-120.2285411,3967.0394606067,95.472444,0,0.41666668,15200,2018-05-10 17:01:16,16,0,23.026,3967.0394606067,95.472444,0.223694,1.28759190472,0,0,-0.671082,282.2, -1, 0.1,0,0,1024,1024,1024,1024,282.9,-89.9,97,3.812,3.821,3.813,3.851,3.844,3.832,18.787,62.6,14,Waypoint,
38.0861271,-120.2285411,3968.0237126067,96.456696,0,0.42770342576,15300,2018-05-10 17:01:16,16,0,23.026,3968.0237126067,96.456696,0.223694,1.28759190472,0,0,-0.671082,282.2, -1.1, -0.1,0,0,1024,1024,1024,1024,282.9,-90,97,3.812,3.821,3.813,3.851,3.844,3.832,18.787,62.6,14,Waypoint,
38.0861272,-120.2285409,3969.9922166067,98.4252,0,0.4943569712,15500,2018-05-10 17:01:17,16,0,23.026,3969.9922166067,98.4252,0.223694,1.28759190472,0,0,-0.671082,281.9, -0.8, -0.6,0,0,1024,1024,1024,1024,282.8,-89.9,97,3.812,3.821,3.813,3.851,3.844,3.832,18.787,62.6,14,Waypoint,
38.0861272,-120.2285408,3971.9607206067,100.393704,0,0.52115487232,15700,2018-05-10 17:01:17,16,0,23.026,3971.9607206067,100.393704,0.223694,1.28759190472,0,0,-0.671082,281.6, -1.2, -0.4,0,0,1024,1024,1024,1024,282.8,-90,97,3.812,3.821,3.813,3.851,3.844,3.832,18.787,62.6,14,Waypoint,
38.0861272,-120.2285407,3972.9449726067,101.377956,0,0.548146343,15800,2018-05-10 17:01:17,16,0,23.026,3972.9449726067,101.377956,0.223694,1.28759190472,0,0,-0.671082,281.6, -1.6, -0.4,0,0,1024,1024,1024,1024,282.9,-90,97,3.812,3.821,3.813,3.851,3.844,3.832,18.787,62.6,14,Waypoint,
38.0861273,-120.2285406,3973.9292246067,102.362208,0,0.5878937196,15900,2018-05-10 17:01:17,16,0,23.026,3973.9292246067,102.362208,0.223694,1.28759190472,0,0,-0.671082,281.7, -2, -0.4,0,0,1024,1024,1024,1024,282.8,-90,97,3.812,3.821,3.813,3.851,3.844,3.832,18.787,62.6,14,Waypoint,
38.0861273,-120.2285405,3974.9134766067,103.34646,0,0.61463912728,16000,2018-05-10 17:01:17,15,0,22.878,3974.9134766067,103.34646,0.223694,1.28759190472,0,0,-0.671082,281.8, -2.3, -0.1,0,0,1024,1024,1024,1024,282.9,-90,97,3.809,3.811,3.791,3.827,3.83,3.821,18.968,62.6,14,Waypoint,
38.0861273,-120.2285402,3976.8819806067,105.314964,0,0.6958169514,16200,2018-05-10 17:01:17,16,0,22.878,3976.8819806067,105.314964,0.223694,1.28759190472,0,0,-0.671082,281.9, -2.1, 0.3,0,0,1024,1024,1024,1024,282.9,-89.9,97,3.809,3.811,3.791,3.827,3.83,3.821,18.968,62.6,14,Waypoint,
38.0861273,-120.2285401,3977.8662326067,106.299216,0,0.72313322524,16300,2018-05-10 17:01:17,16,0,22.878,3977.8662326067,106.299216,0.223694,1.28759190472,0,0,-0.671082,282, -2.3, 0,0,0,1024,1024,1024,1024,282.9,-90,97,3.809,3.811,3.791,3.827,3.83,3.821,18.968,62.6,14,Waypoint,
38.0861274,-120.22854,3978.8504846067,107.283468,0,0.7619914942,16400,2018-05-10 17:01:17,16,0,22.878,3978.8504846067,107.283468,0.223694,1.28759190472,0,0,-0.671082,282.1, -2.6, -0.1,0,0,1024,1024,1024,1024,282.9,-89.9,97,3.809,3.811,3.791,3.827,3.83,3.821,18.968,62.6,14,Waypoint,
38.0861274,-120.2285398,3979.8347366067,108.26772,0,0.81633204712,16520,2018-05-10 17:01:18,16,0,22.878,3979.8347366067,108.26772,0.223694,1.28759190472,0,0,-0.671082,282.2, -2.9, -0.3,0,0,1024,1024,1024,1024,282.9,-90,97,3.809,3.811,3.791,3.827,3.83,3.821,18.968,62.6,14,Waypoint,
38.0861274,-120.2285398,3979.8347366067,108.26772,0,0.81633204712,16600,2018-05-10 17:01:18,16,0,22.878,3979.8347366067,108.26772,0.223694,1.28759190472,0,0,-0.671082,282.2, -2.9, -0.3,0,0,1024,1024,1024,1024,282.9,-90,97,3.809,3.811,3.791,3.827,3.83,3.821,18.968,62.6,14,Waypoint,
38.0861274,-120.2285397,3980.8189886067,109.251972,0,0.84365488264,16700,2018-05-10 17:01:18,16,0,22.878,3980.8189886067,109.251972,0.223694,1.28759190472,0,0,-0.671082,282.3, -3.3, -0.3,0,0,1024,1024,1024,1024,282.9,-89.9,97,3.809,3.811,3.791,3.827,3.83,3.821,18.968,62.6,14,Waypoint,
38.0861275,-120.2285396,3981.8032406067,110.236224,0,0.88245409648,16800,2018-05-10 17:01:18,16,0,22.878,3981.8032406067,110.236224,0.223694,1.28759190472,0,0,-0.671082,282.3, -3.3, -0.5,0,0,1024,1024,1024,1024,282.9,-89.9,97,3.809,3.811,3.791,3.827,3.83,3.821,18.968,62.6,14,Waypoint,
38.0861275,-120.2285395,3982.7874926067,111.220476,0,0.90960304748,16900,2018-05-10 17:01:18,17,0,22.878,3982.7874926067,111.220476,0.223694,1.28759190472,0,0,-0.671082,282.3, -2.7, -0.7,0,0,1024,1024,1024,1024,282.9,-89.9,97,3.809,3.811,3.791,3.827,3.83,3.821,18.968,62.6,14,Waypoint,
38.0861275,-120.2285395,3983.7717446067,112.204728,0,0.90960304748,17000,2018-05-10 17:01:18,17,0,22.834,3983.7717446067,112.204728,0.223694,1.28759190472,0,0,-0.671082,282.2, -2.4, -0.8,0,0,1024,1024,1024,1024,282.9,-89.9,97,3.802,3.806,3.783,3.823,3.817,3.801,18.857,62.6,14,Waypoint,
38.0861275,-120.2285394,3984.7559966067,113.18898,0,0.93684714284,17100,2018-05-10 17:01:18,17,0,22.834,3984.7559966067,113.18898,0.223694,1.28759190472,0,0,-0.671082,282.2, -2.4, -0.7,0,0,1024,1024,1024,1024,282.9,-89.9,97,3.802,3.806,3.783,3.823,3.817,3.801,18.857,62.6,14,Waypoint,
38.0861276,-120.2285393,3985.7402486067,114.173232,0,0.97583992624,17200,2018-05-10 17:01:18,17,0,22.834,3985.7402486067,114.173232,0.223694,1.28759190472,0,0,-0.671082,282.1, -2.6, -0.7,0,0,1024,1024,1024,1024,282.9,-89.9,97,3.802,3.806,3.783,3.823,3.817,3.801,18.857,62.6,14,Waypoint,
38.0861276,-120.2285392,3986.7245006067,115.157484,0,1.00292982212,17300,2018-05-10 17:01:18,17,0,22.834,3986.7245006067,115.157484,0.223694,1.28759190472,0,0,-0.671082,282, -2.9, -0.9,0,0,1024,1024,1024,1024,282.9,-89.9,97,3.802,3.806,3.783,3.823,3.817,3.801,18.857,62.6,14,Waypoint,
38.0861276,-120.2285391,3988.3649206067,116.797904,0,1.03010501984,17400,2018-05-10 17:01:18,17,0,22.834,3988.3649206067,116.797904,0.223694,1.28759190472,0,0,-0.671082,281.7, -3.3, -1.1,0,0,1024,1024,1024,1024,282.9,-90,97,3.802,3.806,3.783,3.823,3.817,3.801,18.857,62.6,14,Waypoint,
38.0861276,-120.228539,3989.3491726067,117.782156,0,1.0573655194,17500,2018-05-10 17:01:19,17,0,22.834,3989.3491726067,117.782156,0.223694,1.28759190472,0,0,-0.671082,281.6, -3.2, -0.8,0,0,1024,1024,1024,1024,282.9,-89.9,97,3.802,3.806,3.783,3.823,3.817,3.801,18.857,62.6,14,Waypoint,
38.0861276,-120.228539,3990.3334246067,118.766408,0,1.0573655194,17600,2018-05-10 17:01:19,17,0,22.834,3990.3334246067,118.766408,0.223694,1.28759190472,0,0,-0.671082,281.4, -3.1, -0.5,0,0,1024,1024,1024,1024,282.8,-89.9,97,3.802,3.806,3.783,3.823,3.817,3.801,18.857,62.6,14,Waypoint,
38.0861276,-120.2285389,3991.3176766067,119.75066,0,1.08469819744,17700,2018-05-10 17:01:19,17,0,22.834,3991.3176766067,119.75066,0.223694,1.28759190472,0,0,-0.671082,281.3, -3.2, -0.5,0,0,1024,1024,1024,1024,282.8,-89.9,97,3.802,3.806,3.783,3.823,3.817,3.801,18.857,62.6,14,Waypoint,
38.0861275,-120.2285389,3992.3019286067,120.734912,0,1.07421591364,17800,2018-05-10 17:01:19,17,0,22.834,3992.3019286067,120.734912,0.223694,1.28759190472,0,0,-0.671082,281.4, -3, -0.4,0,0,1024,1024,1024,1024,282.8,-89.9,97,3.802,3.806,3.783,3.823,3.817,3.801,18.857,62.6,14,Waypoint,
38.0861275,-120.228539,3993.2861806067,121.719164,0,1.04660764504,17900,2018-05-10 17:01:19,17,0,22.834,3993.2861806067,121.719164,0.223694,1.28759190472,0,0,-0.671082,281.5, -2.6, -0.4,0,0,1024,1024,1024,1024,282.9,-89.9,97,3.802,3.806,3.783,3.823,3.817,3.801,18.857,62.6,14,Waypoint,
38.0861275,-120.228539,3994.2704326067,122.703416,0,1.04660764504,18000,2018-05-10 17:01:19,17,0,22.716,3994.2704326067,122.703416,0.223694,1.28759190472,0,0,-0.671082,281.6, -2.3, -0.4,0,0,1024,1024,1024,1024,282.9,-89.9,97,3.782,3.788,3.759,3.8,3.797,3.781,20.119,62.6,14,Waypoint,
38.0861273,-120.228539,3996.2389366067,124.67192,0,1.02864832688,18210,2018-05-10 17:01:19,17,0,22.716,3996.2389366067,124.67192,0.223694,1.28759190472,0,0,-0.671082,282, -2.5, 0,0,0,1024,1024,1024,1024,282.8,-89.9,97,3.782,3.788,3.759,3.8,3.797,3.781,20.119,62.6,14,Waypoint,
38.0861272,-120.2285391,3997.2231886067,125.656172,0,0.99326446748,18310,2018-05-10 17:01:19,17,0,22.716,3997.2231886067,125.656172,0.223694,1.28759190472,0,0,-0.671082,282.2, -2.6, 0.4,0,0,1024,1024,1024,1024,282.8,-89.9,97,3.782,3.788,3.759,3.8,3.797,3.781,20.119,62.6,14,Waypoint,
38.0861272,-120.2285391,3998.2074406067,126.640424,0,0.99326446748,18410,2018-05-10 17:01:19,16,0,22.716,3998.2074406067,126.640424,0.223694,1.28759190472,0,0,-0.671082,282.2, -2.7, 0.6,0,0,1024,1024,1024,1024,282.9,-89.9,97,3.782,3.788,3.759,3.8,3.797,3.781,20.119,62.6,14,Waypoint,
38.0861271,-120.2285391,4000.1759446067,128.608928,0,0.98721459852,18610,2018-05-10 17:01:20,17,0,22.716,4000.1759446067,128.608928,0.223694,1.28759190472,0,0,-0.671082,282.3, -2.9, 0.2,0,0,1024,1024,1024,1024,282.9,-90,97,3.782,3.788,3.759,3.8,3.797,3.781,20.119,62.6,14,Waypoint,
38.0861271,-120.2285391,4001.1601966067,129.59318,0,0.98721459852,18700,2018-05-10 17:01:20,17,0,22.716,4001.1601966067,129.59318,0.223694,1.28759190472,0,0,-0.671082,282.3, -3.1, 0.1,0,0,1024,1024,1024,1024,282.8,-90,97,3.782,3.788,3.759,3.8,3.797,3.781,20.119,62.6,14,Waypoint,
38.0861271,-120.2285391,4002.1444486067,130.577432,0,0.98721459852,18810,2018-05-10 17:01:20,17,0,22.716,4002.1444486067,130.577432,0.223694,1.28759190472,0,0,-0.671082,282.2, -3.3, 0,0,0,1024,1024,1024,1024,282.8,-90,97,3.782,3.788,3.759,3.8,3.797,3.781,20.119,62.6,14,Waypoint,
38.086127,-120.2285391,4004.1129526067,132.545936,0,0.98248362724,19000,2018-05-10 17:01:20,17,0,22.646,4004.1129526067,132.545936,0.223694,1.28759190472,0,0,-0.671082,282.1, -3.4, -0.1,0,0,1024,1024,1024,1024,282.8,-89.9,97,3.767,3.774,3.748,3.79,3.791,3.774,20.452,62.6,14,Waypoint,
38.086127,-120.228539,4005.0972046067,133.530188,0,1.01102693524,19200,2018-05-10 17:01:20,17,0,22.646,4005.0972046067,133.530188,0.223694,1.28759190472,0,0,-0.671082,281.9, -3.4, 0,0,0,1024,1024,1024,1024,282.8,-90,97,3.767,3.774,3.748,3.79,3.791,3.774,20.452,62.6,14,Waypoint,
38.0861269,-120.228539,4006.0814566067,134.51444,0,1.00772969104,19300,2018-05-10 17:01:20,17,0,22.646,4006.0814566067,134.51444,0.223694,1.28759190472,0,0,-0.671082,281.8, -3.5, 0.2,0,0,1024,1024,1024,1024,282.8,-90,97,3.767,3.774,3.748,3.79,3.791,3.774,20.452,62.6,14,Waypoint,
38.0861268,-120.228539,4008.3780446067,136.811028,0,1.00574806368,19500,2018-05-10 17:01:21,17,0,22.646,4008.3780446067,136.811028,0.223694,1.28759190472,0,0,-0.671082,281.6, -3.8, 0.2,0,0,1024,1024,1024,1024,282.8,-89.9,97,3.767,3.774,3.748,3.79,3.791,3.774,20.452,62.6,14,Waypoint,
38.0861267,-120.2285391,4010.3465486067,138.779532,0,0.97636814148,19600,2018-05-10 17:01:21,17,0,22.646,4010.3465486067,138.779532,0.223694,1.28759190472,0,0,-0.671082,281.5, -3.4, 0.5,0,0,1024,1024,1024,1024,282.8,-89.9,97,3.767,3.774,3.748,3.79,3.791,3.774,20.452,62.6,14,Waypoint,
38.0861266,-120.2285392,4012.3150526067,140.748036,0,0.94835304872,19800,2018-05-10 17:01:21,17,0,22.646,4012.3150526067,140.748036,0.223694,1.28759190472,0,0,-0.671082,281.5, -2.9, 0.6,0,0,1024,1024,1024,1024,282.8,-89.9,97,3.767,3.774,3.748,3.79,3.791,3.774,20.452,62.6,14,Waypoint,
38.0861266,-120.2285393,4013.2993046067,141.732288,0,0.91965882208,19900,2018-05-10 17:01:21,17,0,22.646,4013.2993046067,141.732288,0.223694,1.28759190472,0,0,-0.671082,281.5, -3, 0.7,0,0,1024,1024,1024,1024,282.8,-89.9,97,3.767,3.774,3.748,3.79,3.791,3.774,20.452,62.6,14,Waypoint,
38.0861265,-120.2285394,4014.2835566067,142.71654,0,0.89320540916,20000,2018-05-10 17:01:21,17,0,22.644,4014.2835566067,142.71654,0.223694,1.28759190472,0,0,-0.671082,281.6, -3.1, 1.1,0,0,1024,1024,1024,1024,282.9,-89.9,97,3.768,3.773,3.748,3.79,3.784,3.767,20.2,64.4,14,Waypoint,
38.0861265,-120.2285394,4015.2678086067,143.700792,0,0.89320540916,20100,2018-05-10 17:01:21,17,0,22.644,4015.2678086067,143.700792,0.223694,1.28759190472,0,0,-0.671082,281.6, -2.9, 1.3,0,0,1024,1024,1024,1024,282.9,-89.9,97,3.768,3.773,3.748,3.79,3.784,3.767,20.2,64.4,14,Waypoint,
38.0861265,-120.2285395,4015.9239766067,144.35696,0,0.86458664184,20200,2018-05-10 17:01:21,17,0,22.644,4015.9239766067,144.35696,0.223694,1.28759190472,0,0,-0.671082,281.7, -2.8, 1,0,0,1024,1024,1024,1024,282.9,-90,97,3.768,3.773,3.748,3.79,3.784,3.767,20.2,64.4,14,Waypoint,
38.0861265,-120.2285395,4016.9082286067,145.341212,0,0.86458664184,20300,2018-05-10 17:01:21,17,0,22.644,4016.9082286067,145.341212,0.223694,1.28759190472,0,0,-0.671082,281.7, -3.1, 0.8,0,0,1024,1024,1024,1024,282.8,-89.9,97,3.768,3.773,3.748,3.79,3.784,3.767,20.2,64.4,14,Waypoint,
38.0861264,-120.2285396,4017.8924806067,146.325464,0,0.83994753344,20400,2018-05-10 17:01:21,17,0,22.644,4017.8924806067,146.325464,0.223694,1.28759190472,0,0,-0.671082,281.8, -3.2, 0.7,0,0,1024,1024,1024,1024,282.8,-89.9,97,3.768,3.773,3.748,3.79,3.784,3.767,20.2,64.4,14,Waypoint,
38.0861264,-120.2285396,4018.8767326067,147.309716,0,0.83994753344,20500,2018-05-10 17:01:22,17,0,22.644,4018.8767326067,147.309716,0.223694,1.28759190472,0,0,-0.671082,281.9, -3.1, 0.6,0,0,1024,1024,1024,1024,282.9,-89.9,97,3.768,3.773,3.748,3.79,3.784,3.767,20.2,64.4,14,Waypoint,
38.0861264,-120.2285396,4019.8609846067,148.293968,0,0.83994753344,20630,2018-05-10 17:01:22,17,0,22.644,4019.8609846067,148.293968,0.223694,1.28759190472,0,0,-0.671082,282, -2.9, 0.7,0,0,1024,1024,1024,1024,282.8,-89.9,97,3.768,3.773,3.748,3.79,3.784,3.767,20.2,64.4,14,Waypoint,
38.0861264,-120.2285397,4020.8452366067,149.27822,0,0.8114829656,20700,2018-05-10 17:01:22,17,0,22.644,4020.8452366067,149.27822,0.223694,1.28759190472,0,0,-0.671082,282, -2.9, 0.5,0,0,1024,1024,1024,1024,282.9,-89.9,97,3.768,3.773,3.748,3.79,3.784,3.767,20.2,64.4,14,Waypoint,
38.0861264,-120.2285397,4021.8294886067,150.262472,0,0.8114829656,20800,2018-05-10 17:01:22,17,0,22.644,4021.8294886067,150.262472,0.223694,1.28759190472,0,0,-0.671082,281.9, -3, 0.4,0,0,1024,1024,1024,1024,282.9,-89.9,97,3.768,3.773,3.748,3.79,3.784,3.767,20.2,64.4,14,Waypoint,
38.0861264,-120.2285397,4023.7979926067,152.230976,0,0.8114829656,21000,2018-05-10 17:01:22,17,0,22.614,4023.7979926067,152.230976,0.223694,1.28759190472,0,0,-0.671082,281.7, -3.3, 0.4,0,0,1024,1024,1024,1024,282.9,-89.9,97,3.768,3.773,3.748,3.79,3.784,3.767,20.053,64.4,14,Waypoint,
38.0861264,-120.2285397,4024.7822446067,153.215228,0,0.8114829656,21200,2018-05-10 17:01:22,17,0,22.614,4024.7822446067,153.215228,0.223694,1.28759190472,0,0,-0.671082,281.7, -3.5, 0.4,0,0,1024,1024,1024,1024,282.8,-90,97,3.768,3.773,3.748,3.79,3.784,3.767,20.053,64.4,14,Waypoint,
38.0861264,-120.2285397,4025.7664966067,154.19948,0,0.8114829656,21300,2018-05-10 17:01:22,17,0,22.614,4025.7664966067,154.19948,0.223694,1.28759190472,0,0,-0.671082,281.8, -3.7, 0.5,0,0,1024,1024,1024,1024,282.9,-90,97,3.768,3.773,3.748,3.79,3.784,3.767,20.053,64.4,14,Waypoint,
38.0861264,-120.2285397,4026.7507486067,155.183732,0,0.8114829656,21400,2018-05-10 17:01:22,17,0,22.614,4026.7507486067,155.183732,0.223694,1.28759190472,0,0,-0.671082,281.8, -3.7, 0.5,0,0,1024,1024,1024,1024,282.8,-89.9,97,3.768,3.773,3.748,3.79,3.784,3.767,20.053,64.4,14,Waypoint,
38.0861264,-120.2285396,4027.7350006067,156.167984,0,0.83994753344,21500,2018-05-10 17:01:23,17,0,22.614,4027.7350006067,156.167984,0.223694,1.28759190472,0,0,-0.671082,281.8, -3.6, 0.4,0,0,1024,1024,1024,1024,282.8,-89.9,97,3.768,3.773,3.748,3.79,3.784,3.767,20.053,64.4,14,Waypoint,
38.0861264,-120.2285396,4028.7192526067,157.152236,0,0.83994753344,21600,2018-05-10 17:01:23,17,0,22.614,4028.7192526067,157.152236,0.223694,1.28759190472,0,0,-0.671082,281.9, -3.6, 0.3,0,0,1024,1024,1024,1024,282.8,-89.9,97,3.768,3.773,3.748,3.79,3.784,3.767,20.053,64.4,14,Waypoint,
38.0861264,-120.2285396,4029.7035046067,158.136488,0,0.83994753344,21700,2018-05-10 17:01:23,17,0,22.614,4029.7035046067,158.136488,0.223694,1.28759190472,0,0,-0.671082,281.9, -3.6, 0.2,0,0,1024,1024,1024,1024,282.8,-89.9,97,3.768,3.773,3.748,3.79,3.784,3.767,20.053,64.4,14,Waypoint,
38.0861264,-120.2285396,4030.6877566067,159.12074,0,0.83994753344,21800,2018-05-10 17:01:23,17,0,22.614,4030.6877566067,159.12074,0.223694,1.28759190472,0,0,-0.671082,281.8, -3.5, 0.2,0,0,1024,1024,1024,1024,282.8,-89.9,97,3.768,3.773,3.748,3.79,3.784,3.767,20.053,64.4,14,Waypoint,
38.0861264,-120.2285396,4031.6720086067,160.104992,0,0.83994753344,21900,2018-05-10 17:01:23,17,0,22.614,4031.6720086067,160.104992,0.223694,1.28759190472,0,0,-0.671082,281.7, -3.5, 0,0,0,1024,1024,1024,1024,282.8,-89.9,97,3.768,3.773,3.748,3.79,3.784,3.767,20.053,64.4,14,Waypoint,
38.0861264,-120.2285396,4032.6562606067,161.089244,0,0.83994753344,22000,2018-05-10 17:01:23,17,0,22.614,4032.6562606067,161.089244,0.223694,1.28759190472,0,0,-0.671082,281.6, -3.7, 0.2,0,0,1024,1024,1024,1024,282.9,-89.9,97,3.755,3.763,3.743,3.78,3.787,3.758,20.053,64.4,14,Waypoint,
38.0861263,-120.2285396,4034.6247646067,163.057748,0,0.84547574884,22100,2018-05-10 17:01:23,17,0,22.614,4034.6247646067,163.057748,0.223694,1.28759190472,0,0,-0.671082,281.7, -4, 1,0,0,1024,1024,1024,1024,282.8,-90,97,3.755,3.763,3.743,3.78,3.787,3.758,20.053,64.4,14,Waypoint,
38.0861263,-120.2285396,4035.6090166067,164.042,0,0.84547574884,22200,2018-05-10 17:01:23,17,0,22.614,4035.6090166067,164.042,0.223694,1.28759190472,0,0,-0.671082,281.6, -4, 1.2,0,0,1024,1024,1024,1024,282.8,-90,97,3.755,3.763,3.743,3.78,3.787,3.758,20.053,64.4,14,Waypoint,
38.0861263,-120.2285396,4036.5932686067,165.026252,0,0.84547574884,22300,2018-05-10 17:01:23,17,0,22.614,4036.5932686067,165.026252,0.223694,1.28759190472,0,0,-0.671082,281.6, -3.9, 1.1,0,0,1024,1024,1024,1024,282.8,-89.9,97,3.755,3.763,3.743,3.78,3.787,3.758,20.053,64.4,14,Waypoint,
38.0861263,-120.2285396,4037.5775206067,166.010504,0,0.84547574884,22400,2018-05-10 17:01:23,17,0,22.614,4037.5775206067,166.010504,0.223694,1.28759190472,0,0,-0.671082,281.5, -3.6, 1.1,0,0,1024,1024,1024,1024,282.8,-89.9,97,3.755,3.763,3.743,3.78,3.787,3.758,20.053,64.4,14,Waypoint,
38.0861263,-120.2285396,4038.5617726067,166.994756,0,0.84547574884,22500,2018-05-10 17:01:24,17,0,22.614,4038.5617726067,166.994756,0.223694,1.28759190472,0,0,-0.671082,281.5, -3.5, 1,0,0,1024,1024,1024,1024,282.8,-89.9,97,3.755,3.763,3.743,3.78,3.787,3.758,20.053,64.4,14,Waypoint,
38.0861263,-120.2285397,4039.5460246067,167.979008,0,0.81720475056,22610,2018-05-10 17:01:24,17,0,22.614,4039.5460246067,167.979008,0.223694,1.28759190472,0,0,-0.671082,281.5, -3.2, 0.9,0,0,1024,1024,1024,1024,282.8,-89.9,97,3.755,3.763,3.743,3.78,3.787,3.758,20.053,64.4,14,Waypoint,
38.0861263,-120.2285397,4040.5302766067,168.96326,0,0.81720475056,22700,2018-05-10 17:01:24,17,0,22.614,4040.5302766067,168.96326,0.223694,1.28759190472,0,0,-0.671082,281.5, -3, 1,0,0,1024,1024,1024,1024,282.8,-89.9,97,3.755,3.763,3.743,3.78,3.787,3.758,20.053,64.4,14,Waypoint,
38.0861263,-120.2285398,4041.5145286067,169.947512,0,0.78896656068,22800,2018-05-10 17:01:24,17,0,22.614,4041.5145286067,169.947512,0.223694,1.28759190472,0,0,-0.671082,281.6, -2.8, 1.2,0,0,1024,1024,1024,1024,282.8,-89.9,97,3.755,3.763,3.743,3.78,3.787,3.758,20.053,64.4,14,Waypoint,
38.0861263,-120.2285398,4042.4987806067,170.931764,0,0.78896656068,22900,2018-05-10 17:01:24,17,0,22.614,4042.4987806067,170.931764,0.223694,1.28759190472,0,0,-0.671082,281.6, -2.4, 1.3,0,0,1024,1024,1024,1024,282.8,-89.9,97,3.755,3.763,3.743,3.78,3.787,3.758,20.053,64.4,14,Waypoint,
38.0861262,-120.2285398,4043.4830326067,171.916016,0,0.7965223352,23100,2018-05-10 17:01:24,17,0,22.614,4043.4830326067,171.916016,0.223694,1.28759190472,0,0,-0.671082,281.9, -2.6, 1.2,0,0,1024,1024,1024,1024,282.9,-89.9,97,3.755,3.763,3.743,3.78,3.787,3.758,20.053,64.4,14,Waypoint,
38.0861262,-120.2285399,4044.4672846067,172.900268,0,0.76859910596,23200,2018-05-10 17:01:24,17,0,22.614,4044.4672846067,172.900268,0.223694,1.28759190472,0,0,-0.671082,282.1, -3.1, 1.1,0,0,1024,1024,1024,1024,282.8,-90,97,3.755,3.763,3.743,3.78,3.787,3.758,20.053,64.4,14,Waypoint,
38.0861262,-120.2285398,4045.4515366067,173.88452,0,0.7965223352,23300,2018-05-10 17:01:24,17,0,22.614,4045.4515366067,173.88452,0.223694,1.28759190472,0,0,-0.671082,282.3, -3.5, 1.1,0,0,1024,1024,1024,1024,282.8,-90,97,3.755,3.763,3.743,3.78,3.787,3.758,20.053,64.4,14,Waypoint,
38.0861262,-120.2285398,4046.4357886067,174.868772,0,0.7965223352,23400,2018-05-10 17:01:24,17,0,22.614,4046.4357886067,174.868772,0.223694,1.28759190472,0,0,-0.671082,282.4, -3.7, 1.2,0,0,1024,1024,1024,1024,282.9,-90,97,3.755,3.763,3.743,3.78,3.787,3.758,20.053,64.4,14,Waypoint,
38.0861262,-120.2285397,4047.4200406067,175.853024,0,0.82450133872,23500,2018-05-10 17:01:25,17,0,22.614,4047.4200406067,175.853024,0.223694,1.28759190472,0,0,-0.671082,282.6, -3.8, 1,0,0,1024,1024,1024,1024,282.9,-90,97,3.755,3.763,3.743,3.78,3.787,3.758,20.053,64.4,14,Waypoint,
38.0861263,-120.2285396,4048.4042926067,176.837276,0,0.84547574884,23600,2018-05-10 17:01:25,17,0,22.614,4048.4042926067,176.837276,0.223694,1.28759190472,0,0,-0.671082,282.8, -3.8, 0.6,0,0,1024,1024,1024,1024,282.9,-90,97,3.755,3.763,3.743,3.78,3.787,3.758,20.053,64.4,14,Waypoint,
38.0861263,-120.2285396,4049.3885446067,177.821528,0,0.84547574884,23700,2018-05-10 17:01:25,17,0,22.614,4049.3885446067,177.821528,0.223694,1.28759190472,0,0,-0.671082,282.9, -3.8, 0.3,0,0,1024,1024,1024,1024,282.9,-90,97,3.755,3.763,3.743,3.78,3.787,3.758,20.053,64.4,14,Waypoint,
38.0861264,-120.2285395,4050.3727966067,178.80578,0,0.86842850548,23800,2018-05-10 17:01:25,17,0,22.614,4050.3727966067,178.80578,0.223694,1.28759190472,0,0,-0.671082,282.8, -4.2, 0.1,0,0,1024,1024,1024,1024,282.9,-90,97,3.755,3.763,3.743,3.78,3.787,3.758,20.053,64.4,14,Waypoint,
38.0861264,-120.2285395,4051.3570486067,179.790032,0,0.86842850548,23900,2018-05-10 17:01:25,17,0,22.614,4051.3570486067,179.790032,0.223694,1.28759190472,0,0,-0.671082,282.6, -4.1, 0,0,0,1024,1024,1024,1024,282.8,-90,97,3.755,3.763,3.743,3.78,3.787,3.758,20.053,64.4,14,Waypoint,
38.0861264,-120.2285395,4052.3413006067,180.774284,0,0.86842850548,24000,2018-05-10 17:01:25,17,0,22.551,4052.3413006067,180.774284,0.223694,1.28759190472,0,0,-0.671082,282.3, -3.9, -0.2,0,0,1024,1024,1024,1024,282.8,-90,96,3.746,3.756,3.732,3.781,3.777,3.757,20,64.4,14,Waypoint,
38.0861265,-120.2285396,4053.3255526067,181.758536,0,0.8359744362,24100,2018-05-10 17:01:25,17,0,22.551,4053.3255526067,181.758536,0.223694,1.28759190472,0,0,-0.671082,282, -4, 0,0,0,1024,1024,1024,1024,282.9,-89.9,96,3.746,3.756,3.732,3.781,3.777,3.757,20,64.4,14,Waypoint,
38.0861265,-120.2285396,4054.3098046067,182.742788,0,0.8359744362,24200,2018-05-10 17:01:25,17,0,22.551,4054.3098046067,182.742788,0.223694,1.28759190472,0,0,-0.671082,281.7, -3.7, 0.4,0,0,1024,1024,1024,1024,282.8,-89.9,96,3.746,3.756,3.732,3.781,3.777,3.757,20,64.4,14,Waypoint,
38.0861266,-120.2285396,4056.2783086067,184.711292,0,0.83358270384,24300,2018-05-10 17:01:25,17,0,22.551,4056.2783086067,184.711292,0.223694,1.28759190472,0,0,-0.671082,281.6, -3.4, 0,0,0,1024,1024,1024,1024,282.8,-89.9,96,3.746,3.756,3.732,3.781,3.777,3.757,20,64.4,14,Waypoint,
38.0861268,-120.2285397,4058.5748966067,187.00788,0,0.80489503888,24500,2018-05-10 17:01:26,17,0,22.551,4058.5748966067,187.00788,0.223694,1.28759190472,0,0,-0.671082,281.6, -3.4, -0.7,0,0,1024,1024,1024,1024,282.8,-89.9,96,3.746,3.756,3.732,3.781,3.777,3.757,20,64.4,14,Waypoint,
38.0861269,-120.2285396,4059.5591486067,187.992132,0,0.8359744362,24600,2018-05-10 17:01:26,17,0,22.551,4059.5591486067,187.992132,0.223694,1.28759190472,0,0,-0.671082,281.6, -3.4, -0.7,0,0,1024,1024,1024,1024,282.8,-89.9,96,3.746,3.756,3.732,3.781,3.777,3.757,20,64.4,14,Waypoint,
38.0861269,-120.2285396,4060.5434006067,188.976384,0,0.8359744362,24700,2018-05-10 17:01:26,17,0,22.551,4060.5434006067,188.976384,0.223694,1.28759190472,0,0,-0.671082,281.7, -3.7, -0.7,0,0,1024,1024,1024,1024,282.8,-90,96,3.746,3.756,3.732,3.781,3.777,3.757,20,64.4,14,Waypoint,
38.086127,-120.2285396,4061.5276526067,189.960636,0,0.83994753344,24800,2018-05-10 17:01:26,17,0,22.551,4061.5276526067,189.960636,0.223694,1.28759190472,0,0,-0.671082,282, -4, -0.7,0,0,1024,1024,1024,1024,282.9,-90,96,3.746,3.756,3.732,3.781,3.777,3.757,20,64.4,14,Waypoint,
38.086127,-120.2285395,4062.8399886067,191.272972,0,0.86842850548,24900,2018-05-10 17:01:26,17,0,22.551,4062.8399886067,191.272972,0.223694,1.28759190472,0,0,-0.671082,282.2, -4.1, -0.8,0,0,1024,1024,1024,1024,282.8,-90,96,3.746,3.756,3.732,3.781,3.777,3.757,20,64.4,14,Waypoint,
38.0861271,-120.2285394,4063.8242406067,192.257224,0,0.90210304724,25000,2018-05-10 17:01:26,17,0,22.425,4063.8242406067,192.257224,0.223694,1.28759190472,0,0,-0.671082,282.2, -4.2, -0.9,0,0,1024,1024,1024,1024,282.8,-90,96,3.747,3.752,3.726,3.767,3.77,3.737,20.614,64.4,14,Waypoint,
38.0861272,-120.2285393,4064.8084926067,193.241476,0,0.93686682788,25100,2018-05-10 17:01:26,17,0,22.425,4064.8084926067,193.241476,0.223694,1.28759190472,0,0,-0.671082,282.2, -4.6, -1.1,0,0,1024,1024,1024,1024,282.8,-90,96,3.747,3.752,3.726,3.767,3.77,3.737,20.614,64.4,14,Waypoint,
38.0861272,-120.2285392,4065.7927446067,194.225728,0,0.96504924348,25200,2018-05-10 17:01:26,17,0,22.425,4065.7927446067,194.225728,0.223694,1.28759190472,0,0,-0.671082,282.1, -4.8, -0.8,0,0,1024,1024,1024,1024,282.8,-90,96,3.747,3.752,3.726,3.767,3.77,3.737,20.614,64.4,14,Waypoint,
38.0861273,-120.2285391,4066.7769966067,195.20998,0,1.0006069874,25300,2018-05-10 17:01:26,17,0,22.425,4066.7769966067,195.20998,0.223694,1.28759190472,0,0,-0.671082,281.8, -4.9, -0.7,0,0,1024,1024,1024,1024,282.8,-90,96,3.747,3.752,3.726,3.767,3.77,3.737,20.614,64.4,14,Waypoint,
38.0861273,-120.2285391,4068.0893326067,196.522316,0,1.0006069874,25400,2018-05-10 17:01:26,17,0,22.425,4068.0893326067,196.522316,0.223694,1.28759190472,0,0,-0.671082,281.6, -4.8, -1.5,0,0,1024,1024,1024,1024,282.8,-89.9,96,3.747,3.752,3.726,3.767,3.77,3.737,20.614,64.4,14,Waypoint,
38.0861273,-120.2285391,4069.0735846067,197.506568,0,1.0006069874,25500,2018-05-10 17:01:27,17,0,22.425,4069.0735846067,197.506568,0.223694,1.28759190472,0,0,-0.671082,281.5, -4.7, -1.7,0,0,1024,1024,1024,1024,282.8,-90,96,3.747,3.752,3.726,3.767,3.77,3.737,20.614,64.4,14,Waypoint,
38.0861274,-120.2285391,4070.0578366067,198.49082,0,1.0092191924,25610,2018-05-10 17:01:27,17,0,22.425,4070.0578366067,198.49082,0.223694,1.28759190472,0,0,-0.671082,281.5, -4.7, -1.6,0,0,1024,1024,1024,1024,282.8,-90,96,3.747,3.752,3.726,3.767,3.77,3.737,20.614,64.4,14,Waypoint,
38.0861273,-120.2285391,4071.0420886067,199.475072,0,1.0006069874,25800,2018-05-10 17:01:27,17,0,22.425,4071.0420886067,199.475072,0.223694,1.28759190472,0,0,-0.671082,281.5, -4.5, -1,0,0,1024,1024,1024,1024,282.8,-89.9,96,3.747,3.752,3.726,3.767,3.77,3.737,20.614,64.4,14,Waypoint,
38.0861272,-120.2285391,4073.0105926067,201.443576,0,0.99326446748,25910,2018-05-10 17:01:27,17,0,22.425,4073.0105926067,201.443576,0.223694,1.28759190472,0,0,-0.671082,281.5, -4.6, 0.4,0,0,1024,1024,1024,1024,282.8,-90,96,3.747,3.752,3.726,3.767,3.77,3.737,20.614,64.4,14,Waypoint,
38.0861271,-120.2285391,4073.6667606067,202.099744,0,0.98721459852,26010,2018-05-10 17:01:27,17,0,22.425,4073.6667606067,202.099744,0.223694,1.28759190472,0,0,-0.671082,281.5, -4.3, 0.9,0,0,1024,1024,1024,1024,282.8,-89.9,96,3.747,3.752,3.726,3.767,3.77,3.737,20.614,64.4,14,Waypoint,
38.0861271,-120.2285391,4073.6667606067,202.099744,0,0.98721459852,26100,2018-05-10 17:01:27,17,0,22.425,4073.6667606067,202.099744,0.223694,1.28759190472,0,0,-0.671082,281.5, -4.3, 0.9,0,0,1024,1024,1024,1024,282.8,-90,96,3.747,3.752,3.726,3.767,3.77,3.737,20.614,64.4,14,Waypoint,
38.086127,-120.2285391,4074.6510126067,203.083996,0,0.98248362724,26200,2018-05-10 17:01:27,17,0,22.425,4074.6510126067,203.083996,0.223694,1.28759190472,0,0,-0.671082,281.5, -4.5, 1,0,0,1024,1024,1024,1024,282.8,-90,96,3.747,3.752,3.726,3.767,3.77,3.737,20.614,64.4,14,Waypoint,
38.0861268,-120.2285391,4076.2914326067,204.724416,0,0.9770505562,26400,2018-05-10 17:01:27,17,0,22.425,4076.2914326067,204.724416,0.223694,1.28759190472,0,0,-0.671082,281.6, -4.6, 1.8,0,0,1024,1024,1024,1024,282.8,-89.9,96,3.747,3.752,3.726,3.767,3.77,3.737,20.614,64.4,14,Waypoint,
38.0861267,-120.2285392,4078.2599366067,206.69292,0,0.94765094896,26500,2018-05-10 17:01:28,17,0,22.425,4078.2599366067,206.69292,0.223694,1.28759190472,0,0,-0.671082,281.6, -4, 2.2,0,0,1024,1024,1024,1024,282.8,-89.9,96,3.747,3.752,3.726,3.767,3.77,3.737,20.614,64.4,14,Waypoint,
38.0861265,-120.2285393,4079.9003566067,208.33334,0,0.92182745732,26700,2018-05-10 17:01:28,17,0,22.425,4079.9003566067,208.33334,0.223694,1.28759190472,0,0,-0.671082,280.9, -3.8, 1,0,0,1024,1024,1024,1024,282.8,-90,96,3.747,3.752,3.726,3.767,3.77,3.737,20.614,64.4,14,Waypoint,
38.0861265,-120.2285393,4080.8846086067,209.317592,0,0.92182745732,26800,2018-05-10 17:01:28,17,0,22.425,4080.8846086067,209.317592,0.223694,1.28759190472,0,0,-0.671082,280.9, -4.4, 0.9,0,0,1024,1024,1024,1024,282.8,-90,96,3.747,3.752,3.726,3.767,3.77,3.737,20.614,64.4,14,Waypoint,
38.0861264,-120.2285393,4081.8688606067,210.301844,0,0.92542981964,26900,2018-05-10 17:01:28,17,0,22.425,4081.8688606067,210.301844,0.223694,1.28759190472,0,0,-0.671082,281.2, -4.7, 1.8,0,0,1024,1024,1024,1024,282.8,-90,96,3.747,3.752,3.726,3.767,3.77,3.737,20.614,64.4,14,Waypoint,
38.0861262,-120.2285394,4082.8531126067,211.286096,0.223694,0.90871722068,27000,2018-05-10 17:01:28,17,0,22.669,4082.8531126067,211.286096,0.223694,1.28759190472,0,0,-0.671082,281.4, -4.3, 2.6,0,0,1024,1024,1024,1024,282.8,-90,96,3.781,3.776,3.749,3.79,3.81,3.791,18.32,64.4,14,Waypoint,
38.0861261,-120.2285395,4083.8373646067,212.270348,0,0.8888779812,27100,2018-05-10 17:01:28,17,0,22.669,4083.8373646067,212.270348,0.223694,1.28759190472,0,0,-0.671082,281.8, -4.3, 2.9,0,0,1024,1024,1024,1024,282.8,-89.9,96,3.781,3.776,3.749,3.79,3.81,3.791,18.32,64.4,14,Waypoint,
