Latitude, Longitude, Altitude (m), Time, Sats, Speed (m/s), Range (m), Battery (%), Roll (deg), Pitch (deg), Yaw (deg), Images, HD Signal (%), RC Signal (%), Battery Temp (C), Battery Voltage (mV), Battery Current (mA), Battery Energy (mAh), Battery Capacity (mAh), Battery Discharges, flyState, timestamp (Unix), LastUpdate (ms), radioChannel, Rc_elevator, Rc_aileron, Rc_throttle, Rc_rudder, Rc_gyro, Dronetype, Battery_Cell1 (mV), Battery_Cell2 (mV), Battery_Cell3 (mV), Battery_Cell4 (mV), Battery_Cell5 (mV), Battery_Cell6 (mV), Video, isFlying, elapsedTime (ms), gimbalPitch (deg), gimbalRoll (deg), gimbalYaw (deg), VelocityX (m/s), VelocityY (m/s), VelocityZ (m/s), GroundSmear (cm), App Version, Aircraft Name, Aircraft Firmware, Aircraft Serial Number, Battery Serial Number, Battery Lifetime (%), App_Tip, App_Warning, CurrentFlightStartingIndex, CurrentFlightLastVisitedWaypoint, PreviousFlightEndingWaypointIndex
38.0861238, -120.2285496, 0.000, 09:03:25.541, 11, 0.00, 0.04, 97, -0.100, 0.400, -83.400, 2, 100, 100, 17, 25294, -3933, 5399, 5567, 7, 11, 1525968205.542, 5, 0, 1024, 1024, 1024, 1024, 0, 6, 4231, 4218, 4224, 4261, 4251, 4244, 0, 1, 3117, -89.900, 0.000, -82.900, 0.000, 0.000, -0.200, 0.0, MapPilot_2.8.1_04242018, Dendroctonus I, 1.3.1.00, 041DDC1887, 1058171200149, 99, DJI_0001.jpg, Starting Mission from Lat/Long: 38.08626/-120.22860 Camera: Zenmuse X3 - Overlap: 90/90 - Active Connection: No, 0, 0, 0
38.0861238, -120.2285497, 0.000, 09:03:25.626, 11, 0.00, 0.04, 97, 0.000, 0.600, -83.100, 2, 100, 100, 17, 25294, -3933, 5399, 5567, 7, 11, 1525968205.627, 52, 0, 1024, 1024, 1024, 1024, 0, 6, 4231, 4218, 4224, 4261, 4251, 4244, 0, 1, 3201, -89.900, 0.000, -82.900, 0.000, 0.000, -0.300, 0.0, , , , , , 99, , , 0, 0, 0
38.0861238, -120.2285498, 0.000, 09:03:25.726, 9, 0.00, 0.04, 97, 0.000, 1.000, -83.000, 2, 100, 100, 17, 24750, -6087, 5399, 5567, 7, 11, 1525968205.727, 56, 0, 1024, 1024, 1024, 1024, 0, 6, 4075, 4057, 4053, 4094, 4093, 4078, 0, 1, 3302, -89.900, 0.000, -82.900, 0.000, 0.000, -0.400, 0.0, , , , , , 99, , , 0, 0, 0
38.0861238, -120.2285499, 0.100, 09:03:25.826, 9, 0.00, 0.05, 97, 0.000, 0.900, -82.900, 2, 100, 100, 17, 24750, -6087, 5399, 5567, 7, 11, 1525968205.827, 43, 0, 1024, 1024, 1024, 1024, 0, 6, 4075, 4057, 4053, 4094, 4093, 4078, 0, 1, 3401, -89.900, 0.000, -82.900, 0.000, 0.000, -0.400, 0.0, , , , , , 99, , , 0, 0, 0
38.0861238, -120.2285500, 0.100, 09:03:25.926, 9, 0.00, 0.05, 97, 0.000, 0.600, -83.000, 2, 100, 100, 17, 24750, -6087, 5399, 5567, 7, 11, 1525968205.927, 45, 0, 1024, 1024, 1024, 1024, 0, 6, 4075, 4057, 4053, 4094, 4093, 4078, 0, 1, 3501, -89.900, 0.000, -82.900, 0.000, 0.000, -0.400, 0.0, , , , , , 99, , , 0, 0, 0
38.0861238, -120.2285500, 0.200, 09:03:26.026, 9, 0.00, 0.06, 97, 0.000, 0.400, -83.100, 2, 100, 100, 17, 24750, -6087, 5399, 5567, 7, 11, 1525968206.026, 43, 0, 1024, 1024, 1024, 1024, 0, 6, 4075, 4057, 4053, 4094, 4093, 4078, 0, 1, 3600, -89.900, 0.000, -82.900, 0.000, 0.000, -0.400, 0.0, , , , , , 99, , , 0, 0, 0
38.0861237, -120.2285501, 0.200, 09:03:26.131, 8, 0.00, 0.06, 97, 0.100, 0.400, -83.200, 2, 100, 100, 17, 24750, -6087, 5399, 5567, 7, 11, 1525968206.133, 47, 0, 1024, 1024, 1024, 1024, 0, 6, 4075, 4057, 4053, 4094, 4093, 4078, 0, 1, 3707, -89.900, 0.000, -82.900, 0.000, 0.000, -0.400, 0.0, , , , , , 99, , , 0, 0, 0
38.0861237, -120.2285501, 0.300, 09:03:26.226, 8, 0.00, 0.07, 97, 0.400, 0.600, -83.400, 2, 100, 100, 17, 24750, -6087, 5399, 5567, 7, 11, 1525968206.227, 33, 0, 1024, 1024, 1024, 1024, 0, 6, 4075, 4057, 4053, 4094, 4093, 4078, 0, 1, 3801, -89.900, 0.000, -82.900, 0.000, 0.000, -0.400, 0.0, , , , , , 99, , , 0, 0, 0
38.0861236, -120.2285501, 0.300, 09:03:26.326, 8, 0.00, 0.07, 97, 0.600, 0.400, -83.500, 2, 100, 100, 17, 24750, -6087, 5399, 5567, 7, 11, 1525968206.327, 28, 0, 1024, 1024, 1024, 1024, 0, 6, 4075, 4057, 4053, 4094, 4093, 4078, 0, 1, 3901, -89.900, 0.000, -82.900, 0.000, 0.000, -0.400, 0.0, , , , , , 99, , , 0, 0, 0
38.0861236, -120.2285502, 0.400, 09:03:26.427, 8, 0.00, 0.08, 97, 0.700, 0.300, -83.700, 2, 100, 100, 17, 24750, -6087, 5399, 5567, 7, 11, 1525968206.428, 29, 0, 1024, 1024, 1024, 1024, 0, 6, 4075, 4057, 4053, 4094, 4093, 4078, 0, 1, 4002, -89.900, 0.000, -82.900, 0.000, 0.000, -0.400, 0.0, , , , , , 99, , , 0, 0, 0
38.0861235, -120.2285503, 0.400, 09:03:26.527, 8, 0.00, 0.09, 97, 0.800, 0.200, -83.700, 2, 100, 100, 17, 24750, -6087, 5399, 5567, 7, 11, 1525968206.527, 20, 0, 1024, 1024, 1024, 1024, 0, 6, 4075, 4057, 4053, 4094, 4093, 4078, 0, 1, 4102, -89.900, 0.000, -82.900, 0.000, 0.000, -0.400, 0.0, , , , , , 99, , , 0, 0, 0
38.0861235, -120.2285503, 0.500, 09:03:26.626, 8, 0.00, 0.09, 97, 0.800, 0.100, -83.700, 2, 100, 100, 17, 24750, -6087, 5399, 5567, 7, 11, 1525968206.627, 20, 0, 1024, 1024, 1024, 1024, 0, 6, 4075, 4057, 4053, 4094, 4093, 4078, 0, 1, 4201, -89.900, 0.000, -82.900, 0.000, 0.000, -0.400, 0.0, , , , , , 99, , , 0, 0, 0
38.0861235, -120.2285504, 0.500, 09:03:26.726, 8, 0.00, 0.10, 97, 0.800, 0.300, -83.700, 2, 100, 100, 17, 23779, -15784, 5399, 5567, 7, 11, 1525968206.727, 12, 0, 1024, 1024, 1024, 1024, 0, 6, 4075, 4057, 4053, 4094, 4093, 4078, 0, 1, 4301, -89.900, 0.000, -82.900, 0.000, 0.000, -0.400, 0.0, , , , , , 99, , , 0, 0, 0
38.0861235, -120.2285503, 0.600, 09:03:26.827, 8, 0.00, 0.10, 97, 0.600, 0.400, -83.600, 2, 100, 100, 17, 23779, -15784, 5399, 5567, 7, 11, 1525968206.827, 13, 0, 1024, 1024, 1024, 1024, 0, 6, 4075, 4057, 4053, 4094, 4093, 4078, 0, 1, 4402, -89.900, 0.000, -82.900, 0.000, 0.000, -0.400, 0.0, , , , , , 99, , , 0, 0, 0
38.0861234, -120.2285503, 0.700, 09:03:26.926, 8, 0.00, 0.10, 97, 0.500, 0.200, -83.500, 2, 100, 100, 17, 23779, -15784, 5399, 5567, 7, 11, 1525968206.926, 19, 0, 1024, 1024, 1024, 1024, 0, 6, 4075, 4057, 4053, 4094, 4093, 4078, 0, 1, 4501, -89.900, 0.000, -82.900, 0.000, 0.000, -0.400, 0.0, , , , , , 99, , , 0, 0, 0
38.0861234, -120.2285503, 0.700, 09:03:27.025, 8, 0.00, 0.10, 97, 0.500, 0.200, -83.500, 2, 100, 100, 17, 23779, -15784, 5399, 5567, 7, 11, 1525968207.026, 118, 0, 1024, 1024, 1024, 1024, 0, 6, 4075, 4057, 4053, 4094, 4093, 4078, 0, 1, 4600, -89.900, 0.000, -82.900, 0.000, 0.000, -0.400, 0.0, , , , , , 99, , , 0, 0, 0
38.0861234, -120.2285503, 0.700, 09:03:27.126, 9, 0.00, 0.10, 97, 0.500, 0.100, -83.500, 2, 100, 100, 17, 23779, -15784, 5399, 5567, 7, 11, 1525968207.127, 98, 0, 1024, 1024, 1024, 1024, 0, 6, 4075, 4057, 4053, 4094, 4093, 4078, 0, 1, 4701, -89.900, 0.000, -82.900, 0.000, 0.000, -0.400, 0.0, , , , , , 99, , , 0, 0, 0
38.0861234, -120.2285503, 0.800, 09:03:27.229, 8, 0.00, 0.10, 97, 0.600, 0.100, -83.600, 2, 100, 100, 17, 23779, -15784, 5399, 5567, 7, 11, 1525968207.231, 16, 0, 1024, 1024, 1024, 1024, 0, 6, 4075, 4057, 4053, 4094, 4093, 4078, 0, 1, 4806, -89.900, 0.000, -82.900, 0.000, 0.000, -0.400, 0.0, , , , , , 99, , , 0, 0, 0
38.0861234, -120.2285503, 0.800, 09:03:27.326, 8, 0.00, 0.10, 97, 0.600, 0.100, -83.600, 2, 100, 100, 17, 23779, -15784, 5399, 5567, 7, 11, 1525968207.327, 112, 0, 1024, 1024, 1024, 1024, 0, 6, 4075, 4057, 4053, 4094, 4093, 4078, 0, 1, 4902, -89.900, 0.000, -82.900, 0.000, 0.000, -0.400, 0.0, , , , , , 99, , , 0, 0, 0
38.0861234, -120.2285503, 0.900, 09:03:27.426, 8, 0.00, 0.10, 97, 0.500, 0.100, -83.700, 2, 100, 100, 17, 23779, -15784, 5399, 5567, 7, 6, 1525968207.428, 73, 0, 1024, 1024, 1024, 1024, 0, 6, 3932, 3916, 3961, 3965, 3981, 3961, 0, 1, 5002, -89.900, 0.000, -82.900, 0.000, 0.000, -0.400, 0.0, , , , , , 99, , , 0, 0, 0
38.0861234, -120.2285503, 0.900, 09:03:27.526, 9, 0.00, 0.10, 97, 0.500, 0.000, -83.700, 2, 100, 100, 17, 23779, -15784, 5399, 5567, 7, 14, 1525968207.527, 69, 0, 1024, 1024, 1024, 1024, 0, 6, 3932, 3916, 3961, 3965, 3981, 3961, 0, 1, 5101, -89.900, 0.000, -82.900, 0.000, 0.000, -0.400, 0.0, , , , , , 99, , , 0, 0, 0
38.0861233, -120.2285502, 1.000, 09:03:27.626, 9, 0.00, 0.10, 97, 0.300, -0.200, -83.800, 2, 100, 100, 17, 23779, -15784, 5399, 5567, 7, 14, 1525968207.627, 67, 0, 1024, 1024, 1024, 1024, 0, 6, 3932, 3916, 3961, 3965, 3981, 3961, 0, 1, 5201, -89.900, 0.000, -82.900, 0.000, 0.000, -0.200, 0.0, , , , , , 99, , , 0, 0, 0
38.0861233, -120.2285502, 1.000, 09:03:27.727, 7, 0.00, 0.11, 97, 0.300, -0.400, -83.900, 2, 100, 100, 17, 23779, -15784, 5399, 5567, 7, 14, 1525968207.728, 80, 0, 1024, 1024, 1024, 1024, 0, 6, 3932, 3916, 3961, 3965, 3981, 3961, 0, 1, 5302, -90.000, 0.000, -82.900, 0.000, 0.000, -0.200, 0.0, , , , , , 99, , , 0, 0, 0
38.0861233, -120.2285503, 1.000, 09:03:27.827, 7, 0.00, 0.11, 97, 0.300, -0.400, -83.900, 2, 100, 100, 17, 23779, -15784, 5399, 5567, 7, 14, 1525968207.827, 46, 0, 1024, 1024, 1024, 1024, 0, 6, 3932, 3916, 3961, 3965, 3981, 3961, 0, 1, 5401, -89.900, 0.000, -82.900, 0.000, 0.000, -0.200, 0.0, , , , , , 99, , , 0, 0, 0
38.0861233, -120.2285503, 1.100, 09:03:27.926, 7, 0.00, 0.11, 97, 0.400, -0.200, -83.900, 2, 100, 100, 17, 23779, -15784, 5399, 5567, 7, 14, 1525968207.928, 71, 0, 1024, 1024, 1024, 1024, 0, 6, 3932, 3916, 3961, 3965, 3981, 3961, 0, 1, 5502, -89.900, 0.000, -82.900, 0.000, 0.000, -0.400, 0.0, , , , , , 99, , , 0, 0, 0
38.0861233, -120.2285502, 1.100, 09:03:28.026, 7, 0.00, 0.11, 97, 0.500, -0.100, -83.900, 2, 100, 100, 17, 23779, -15784, 5399, 5567, 7, 14, 1525968208.026, 69, 0, 1024, 1024, 1024, 1024, 0, 6, 3932, 3916, 3961, 3965, 3981, 3961, 0, 1, 5600, -89.900, 0.000, -82.900, 0.000, 0.000, -0.600, 0.0, , , , , , 99, , , 0, 0, 0
38.0861233, -120.2285502, 1.200, 09:03:28.131, 7, 0.00, 0.10, 97, 0.600, 0.000, -83.900, 2, 100, 100, 17, 23779, -15784, 5399, 5567, 7, 14, 1525968208.132, 53, 0, 1024, 1024, 1024, 1024, 0, 6, 3932, 3916, 3961, 3965, 3981, 3961, 0, 1, 5706, -89.900, 0.000, -82.900, 0.000, 0.000, -0.700, 0.0, , , , , , 99, , , 0, 0, 0
38.0861232, -120.2285502, 1.300, 09:03:28.227, 7, 0.00, 0.11, 97, 0.600, 0.000, -83.900, 2, 100, 100, 17, 23505, -16676, 5399, 5567, 7, 14, 1525968208.229, 25, 0, 1024, 1024, 1024, 1024, 0, 6, 3932, 3916, 3961, 3965, 3981, 3961, 0, 1, 5803, -89.900, 0.000, -82.900, 0.000, 0.000, -0.900, 0.0, , , , , , 99, , , 0, 0, 0
38.0861232, -120.2285502, 1.400, 09:03:28.326, 7, 0.00, 0.12, 97, 0.800, 0.000, -83.800, 2, 100, 100, 17, 23505, -16676, 5399, 5567, 7, 14, 1525968208.327, 51, 0, 1024, 1024, 1024, 1024, 0, 6, 3890, 3887, 3927, 3914, 3937, 3917, 0, 1, 5901, -89.900, 0.000, -82.900, 0.000, 0.000, -1.000, 0.0, , , , , , 99, , , 0, 0, 0
38.0861231, -120.2285502, 1.500, 09:03:28.426, 7, 0.00, 0.12, 97, 0.900, -0.100, -83.800, 2, 100, 100, 17, 23505, -16676, 5399, 5567, 7, 14, 1525968208.427, 53, 0, 1024, 1024, 1024, 1024, 0, 6, 3890, 3887, 3927, 3914, 3937, 3917, 0, 1, 6002, -89.900, 0.000, -82.900, 0.000, 0.000, -1.200, 0.0, , , , , , 99, , , 0, 0, 0
38.0861230, -120.2285502, 1.600, 09:03:28.526, 9, 0.00, 0.13, 97, 1.100, -0.100, -83.700, 2, 100, 100, 17, 23505, -16676, 5399, 5567, 7, 14, 1525968208.526, 16, 0, 1024, 1024, 1024, 1024, 0, 6, 3890, 3887, 3927, 3914, 3937, 3917, 0, 1, 6101, -89.900, 0.000, -82.900, 0.000, 0.000, -1.400, 0.0, , , , , , 99, , , 0, 0, 0
38.0861229, -120.2285503, 1.800, 09:03:28.650, 9, 0.00, 0.14, 97, 1.200, 0.000, -83.700, 2, 100, 100, 17, 23505, -16676, 5399, 5567, 7, 14, 1525968208.650, 12, 0, 1024, 1024, 1024, 1024, 0, 6, 3890, 3887, 3927, 3914, 3937, 3917, 0, 1, 6225, -89.900, 0.000, -82.900, 0.000, 0.000, -1.600, 0.0, , , , , , 99, , , 0, 0, 0
38.0861229, -120.2285504, 2.000, 09:03:28.725, 9, 0.00, 0.15, 97, 1.000, 0.200, -83.700, 2, 100, 100, 17, 23505, -16676, 5399, 5567, 7, 14, 1525968208.726, 39, 0, 1024, 1024, 1024, 1024, 0, 6, 3890, 3887, 3927, 3914, 3937, 3917, 0, 1, 6300, -89.900, 0.000, -82.900, 0.000, 0.000, -1.800, 0.0, , , , , , 99, , , 0, 0, 0
38.0861229, -120.2285505, 2.200, 09:03:28.827, 9, 0.00, 0.16, 97, 1.000, 0.400, -83.700, 2, 100, 100, 17, 23505, -16676, 5399, 5567, 7, 14, 1525968208.828, 30, 0, 1024, 1024, 1024, 1024, 0, 6, 3890, 3887, 3927, 3914, 3937, 3917, 0, 1, 6403, -89.900, 0.000, -82.900, 0.000, 0.000, -2.000, 0.0, , , , , , 99, , , 0, 0, 0
38.0861228, -120.2285505, 2.400, 09:03:28.926, 8, 0.00, 0.16, 97, 0.800, 0.500, -83.700, 2, 100, 100, 17, 23505, -16676, 5399, 5567, 7, 14, 1525968208.927, 26, 0, 1024, 1024, 1024, 1024, 0, 6, 3890, 3887, 3927, 3914, 3937, 3917, 0, 1, 6502, -89.900, 0.000, -82.900, 0.000, 0.000, -2.300, 0.0, , , , , , 99, , , 0, 0, 0
38.0861228, -120.2285505, 2.600, 09:03:29.025, 8, 0.00, 0.17, 97, 0.800, 0.500, -83.600, 2, 100, 100, 17, 23505, -16676, 5399, 5567, 7, 14, 1525968209.026, 13, 0, 1024, 1024, 1024, 1024, 0, 6, 3890, 3887, 3927, 3914, 3937, 3917, 0, 1, 6600, -89.900, 0.000, -82.900, 0.000, 0.000, -2.600, 0.0, , , , , , 99, , , 0, 0, 0
38.0861228, -120.2285505, 2.600, 09:03:29.127, 8, 0.00, 0.17, 97, 0.800, 0.500, -83.600, 2, 100, 100, 17, 23505, -16676, 5399, 5567, 7, 14, 1525968209.128, 115, 0, 1024, 1024, 1024, 1024, 0, 6, 3890, 3887, 3927, 3914, 3937, 3917, 0, 1, 6702, -89.900, 0.000, -82.900, 0.000, 0.000, -2.600, 0.0, , , , , , 99, , , 0, 0, 0
38.0861228, -120.2285505, 3.200, 09:03:29.232, 7, 0.00, 0.16, 97, 0.800, 0.100, -83.700, 2, 100, 100, 17, 23505, -16676, 5399, 5567, 7, 14, 1525968209.233, 70, 0, 1024, 1024, 1024, 1024, 0, 6, 3890, 3887, 3927, 3914, 3937, 3917, 0, 1, 6808, -89.900, 0.000, -82.900, 0.000, 0.000, -3.000, 0.0, , , , , , 99, , , 0, 0, 0
38.0861228, -120.2285504, 3.500, 09:03:29.334, 7, 0.00, 0.16, 97, 0.800, 0.000, -83.700, 2, 100, 100, 17, 23388, -16902, 5344, 5567, 7, 14, 1525968209.335, 10, 0, 1024, 1024, 1024, 1024, 0, 6, 3890, 3887, 3927, 3914, 3937, 3917, 0, 1, 6909, -89.900, 0.000, -82.900, 0.000, 0.000, -3.000, 0.0, , , , , , 99, , , 0, 0, 0
38.0861229, -120.2285505, 4.200, 09:03:29.436, 8, 0.00, 0.15, 97, 0.400, 0.000, -83.700, 2, 100, 100, 17, 23388, -16902, 5344, 5567, 7, 14, 1525968209.436, 12, 0, 1024, 1024, 1024, 1024, 0, 6, 3833, 3827, 3871, 3853, 3881, 3921, 0, 1, 7010, -89.900, 0.000, -82.900, 0.000, 0.000, -3.200, 0.0, , , , , , 99, , , 0, 0, 0
38.0861229, -120.2285505, 4.500, 09:03:29.541, 8, 0.00, 0.16, 97, 0.200, 0.000, -83.700, 2, 100, 100, 17, 23388, -16902, 5344, 5567, 7, 14, 1525968209.541, 4, 0, 1024, 1024, 1024, 1024, 0, 6, 3833, 3827, 3871, 3853, 3881, 3921, 0, 1, 7116, -89.900, 0.000, -82.900, 0.000, 0.000, -3.200, 0.0, , , , , , 99, , , 0, 0, 0
38.0861229, -120.2285505, 4.500, 09:03:29.626, 8, 0.00, 0.16, 97, 0.200, 0.000, -83.700, 2, 100, 100, 17, 23388, -16902, 5344, 5567, 7, 14, 1525968209.627, 90, 0, 1024, 1024, 1024, 1024, 0, 6, 3833, 3827, 3871, 3853, 3881, 3921, 0, 1, 7201, -89.900, 0.000, -82.900, 0.000, 0.000, -3.200, 0.0, , , , , , 99, , , 0, 0, 0
38.0861228, -120.2285505, 4.900, 09:03:29.726, 8, 0.00, 0.16, 97, 0.200, 0.100, -83.700, 2, 100, 100, 17, 23388, -16902, 5344, 5567, 7, 14, 1525968209.728, 74, 0, 1024, 1024, 1024, 1024, 0, 6, 3833, 3827, 3871, 3853, 3881, 3921, 0, 1, 7302, -89.900, 0.000, -82.900, 0.000, 0.000, -3.200, 0.0, , , , , , 99, , , 0, 0, 0
38.0861227, -120.2285506, 5.200, 09:03:29.826, 8, 0.00, 0.18, 96, 0.400, 0.300, -83.700, 2, 100, 100, 17, 23388, -16902, 5344, 5567, 7, 14, 1525968209.827, 71, 0, 1024, 1024, 1024, 1024, 0, 6, 3833, 3827, 3871, 3853, 3881, 3921, 0, 1, 7401, -89.900, 0.000, -82.900, 0.000, 0.000, -3.200, 0.0, , , , , , 99, , , 0, 0, 0
38.0861226, -120.2285506, 5.500, 09:03:29.926, 8, 0.00, 0.19, 96, 0.700, 0.400, -83.700, 2, 100, 100, 17, 23388, -16902, 5344, 5567, 7, 14, 1525968209.927, 73, 0, 1024, 1024, 1024, 1024, 0, 6, 3833, 3827, 3871, 3853, 3881, 3921, 0, 1, 7501, -89.900, 0.000, -82.900, 0.000, 0.000, -3.200, 0.0, , , , , , 99, , , 0, 0, 0
38.0861225, -120.2285507, 5.900, 09:03:30.026, 8, 0.00, 0.20, 96, 0.900, 0.600, -83.800, 2, 100, 100, 17, 23388, -16902, 5344, 5567, 7, 14, 1525968210.026, 82, 0, 1024, 1024, 1024, 1024, 0, 6, 3833, 3827, 3871, 3853, 3881, 3921, 0, 1, 7600, -89.900, 0.000, -82.900, 0.000, 0.000, -3.300, 0.0, , , , , , 99, , , 0, 0, 0
38.0861225, -120.2285508, 6.200, 09:03:30.126, 7, 0.00, 0.20, 96, 0.900, 0.800, -83.800, 2, 100, 100, 17, 23388, -16902, 5344, 5567, 7, 14, 1525968210.128, 83, 0, 1024, 1024, 1024, 1024, 0, 6, 3833, 3827, 3871, 3853, 3881, 3921, 0, 1, 7702, -89.900, 0.000, -82.900, 0.000, 0.000, -3.200, 0.0, , , , , , 99, , , 0, 0, 0
38.0861225, -120.2285507, 6.600, 09:03:30.227, 7, 0.00, 0.20, 96, 1.000, 0.700, -83.800, 2, 100, 100, 17, 22724, -23398, 5344, 5567, 7, 14, 1525968210.227, 58, 0, 1024, 1024, 1024, 1024, 0, 6, 3833, 3827, 3871, 3853, 3881, 3921, 0, 1, 7802, -89.900, 0.000, -82.900, 0.000, 0.000, -3.200, 0.0, , , , , , 99, , , 0, 0, 0
38.0861225, -120.2285507, 6.900, 09:03:30.326, 8, 0.00, 0.20, 96, 0.900, 0.300, -83.800, 2, 100, 100, 17, 22724, -23398, 5344, 5567, 7, 14, 1525968210.327, 43, 0, 1024, 1024, 1024, 1024, 0, 6, 3833, 3827, 3871, 3853, 3881, 3921, 0, 1, 7901, -89.900, 0.000, -82.900, 0.000, 0.000, -3.200, 0.0, , , , , , 99, , , 0, 0, 0
38.0861225, -120.2285506, 7.200, 09:03:30.427, 8, 0.00, 0.20, 96, 0.700, 0.100, -83.800, 2, 100, 100, 17, 22724, -23398, 5344, 5567, 7, 14, 1525968210.428, 63, 0, 1024, 1024, 1024, 1024, 0, 6, 3733, 3734, 3779, 3774, 3791, 3790, 0, 1, 8002, -90.000, 0.000, -82.900, 0.000, 0.000, -3.100, 0.0, , , , , , 99, , , 0, 0, 0
38.0861225, -120.2285506, 7.200, 09:03:30.526, 8, 0.00, 0.20, 96, 0.700, 0.100, -83.800, 2, 100, 100, 17, 22724, -23398, 5344, 5567, 7, 14, 1525968210.527, 162, 0, 1024, 1024, 1024, 1024, 0, 6, 3733, 3734, 3779, 3774, 3791, 3790, 0, 1, 8101, -90.000, 0.000, -82.900, 0.000, 0.000, -3.100, 0.0, , , , , , 99, , , 0, 0, 0
38.0861225, -120.2285505, 7.900, 09:03:30.626, 8, 0.00, 0.19, 96, 0.600, 0.000, -83.700, 2, 100, 100, 17, 22724, -23398, 5344, 5567, 7, 14, 1525968210.626, 22, 0, 1024, 1024, 1024, 1024, 0, 6, 3733, 3734, 3779, 3774, 3791, 3790, 0, 1, 8201, -89.900, 0.000, -82.900, 0.000, 0.000, -3.200, 0.0, , , , , , 99, , , 0, 0, 0
38.0861225, -120.2285505, 8.200, 09:03:30.726, 9, 0.00, 0.19, 96, 0.500, 0.000, -83.700, 2, 100, 100, 17, 22724, -23398, 5344, 5567, 7, 14, 1525968210.726, 10, 0, 1024, 1024, 1024, 1024, 0, 6, 3733, 3734, 3779, 3774, 3791, 3790, 0, 1, 8301, -89.900, 0.000, -82.900, 0.000, 0.000, -3.100, 0.0, , , , , , 99, , , 0, 0, 0
38.0861224, -120.2285505, 8.600, 09:03:30.827, 9, 0.00, 0.20, 96, 0.500, 0.100, -83.700, 2, 100, 98, 17, 22724, -23398, 5344, 5567, 7, 14, 1525968210.829, 37, 0, 1024, 1024, 1024, 1024, 0, 6, 3733, 3734, 3779, 3774, 3791, 3790, 0, 1, 8403, -89.900, 0.000, -82.900, 0.000, 0.000, -3.100, 0.0, , , , , , 99, , , 0, 0, 0
38.0861224, -120.2285505, 8.900, 09:03:30.927, 10, 0.00, 0.21, 96, 0.800, 0.200, -83.700, 2, 100, 98, 17, 22724, -23398, 5344, 5567, 7, 14, 1525968210.928, 42, 0, 1024, 1024, 1024, 1024, 0, 6, 3733, 3734, 3779, 3774, 3791, 3790, 0, 1, 8502, -89.900, 0.000, -82.900, 0.000, 0.000, -3.100, 0.0, , , , , , 99, , , 0, 0, 0
38.0861223, -120.2285505, 9.200, 09:03:31.025, 10, 0.00, 0.21, 96, 1.100, 0.300, -83.700, 2, 100, 98, 17, 22724, -23398, 5344, 5567, 7, 14, 1525968211.026, 38, 0, 1024, 1024, 1024, 1024, 0, 6, 3733, 3734, 3779, 3774, 3791, 3790, 0, 1, 8600, -89.900, 0.000, -82.900, 0.000, 0.000, -3.100, 0.0, , , , , , 99, , , 0, 0, 0
38.0861223, -120.2285505, 9.200, 09:03:31.126, 10, 0.00, 0.21, 96, 1.100, 0.300, -83.700, 2, 100, 98, 17, 22724, -23398, 5344, 5567, 7, 14, 1525968211.127, 139, 0, 1024, 1024, 1024, 1024, 0, 6, 3733, 3734, 3779, 3774, 3791, 3790, 0, 1, 8702, -89.900, 0.000, -82.900, 0.000, 0.000, -3.100, 0.0, , , , , , 99, , , 0, 0, 0
38.0861222, -120.2285504, 9.500, 09:03:31.227, 10, 0.00, 0.22, 96, 1.200, 0.200, -83.700, 2, 100, 98, 17, 22724, -23398, 5344, 5567, 7, 14, 1525968211.228, 55, 0, 1024, 1024, 1024, 1024, 0, 6, 3733, 3734, 3779, 3774, 3791, 3790, 0, 1, 8802, -89.900, 0.000, -82.900, 0.000, 0.000, -3.000, 0.0, , , , , , 99, , , 0, 0, 0
38.0861223, -120.2285504, 9.800, 09:03:31.327, 10, 0.00, 0.21, 96, 1.100, 0.100, -83.700, 2, 100, 98, 17, 22869, -20085, 5344, 5567, 7, 14, 1525968211.328, 38, 0, 1024, 1024, 1024, 1024, 0, 6, 3733, 3734, 3779, 3774, 3791, 3790, 0, 1, 8902, -90.000, 0.000, -82.900, 0.000, 0.000, -3.000, 0.0, , , , , , 99, , , 0, 0, 0
38.0861223, -120.2285503, 10.200, 09:03:31.438, 11, 0.00, 0.21, 96, 1.100, 0.000, -83.800, 2, 100, 98, 17, 22869, -20085, 5344, 5567, 7, 14, 1525968211.438, 16, 0, 1024, 1024, 1024, 1024, 0, 6, 3733, 3734, 3779, 3774, 3791, 3790, 0, 1, 9013, -90.000, 0.000, -82.900, 0.000, 0.000, -3.000, 0.0, , , , , , 99, , , 0, 0, 0
38.0861223, -120.2285503, 10.200, 09:03:31.527, 11, 0.00, 0.21, 96, 1.100, 0.000, -83.800, 2, 100, 98, 17, 22869, -20085, 5344, 5567, 7, 14, 1525968211.531, 108, 0, 1024, 1024, 1024, 1024, 0, 6, 3733, 3734, 3779, 3774, 3791, 3790, 0, 1, 9105, -90.000, 0.000, -82.900, 0.000, 0.000, -3.000, 0.0, , , , , , 99, , , 0, 0, 0
38.0861223, -120.2285502, 10.800, 09:03:31.626, 11, 0.00, 0.21, 96, 0.700, 0.000, -83.900, 2, 100, 98, 17, 22869, -20085, 5344, 5567, 7, 14, 1525968211.626, 37, 0, 1024, 1024, 1024, 1024, 0, 6, 3733, 3734, 3779, 3774, 3791, 3790, 0, 1, 9200, -90.000, 0.000, -82.900, 0.000, 0.000, -3.000, 0.0, , , , , , 99, , , 0, 0, 0
38.0861223, -120.2285502, 10.800, 09:03:31.731, 11, 0.00, 0.21, 96, 0.700, 0.000, -83.900, 2, 100, 98, 17, 22869, -20085, 5344, 5567, 7, 14, 1525968211.731, 143, 0, 1024, 1024, 1024, 1024, 0, 6, 3733, 3734, 3779, 3774, 3791, 3790, 0, 1, 9306, -90.000, 0.000, -82.900, 0.000, 0.000, -3.000, 0.0, , , , , , 99, , , 0, 0, 0
38.0861225, -120.2285501, 11.100, 09:03:31.827, 11, 0.00, 0.18, 96, 0.500, 0.000, -83.900, 2, 100, 98, 17, 22869, -20085, 5344, 5567, 7, 14, 1525968211.829, 90, 0, 1024, 1024, 1024, 1024, 0, 6, 3789, 3790, 3844, 3832, 3855, 3823, 0, 1, 9403, -90.000, 0.000, -82.900, 0.000, 0.000, -3.000, 0.0, , , , , , 99, , , 0, 0, 0
38.0861225, -120.2285501, 11.100, 09:03:31.927, 11, 0.00, 0.18, 96, 0.500, 0.000, -83.900, 2, 100, 98, 17, 22869, -20085, 5344, 5567, 7, 14, 1525968211.927, 188, 0, 1024, 1024, 1024, 1024, 0, 6, 3789, 3790, 3844, 3832, 3855, 3823, 0, 1, 9501, -90.000, 0.000, -82.900, 0.000, 0.000, -3.000, 0.0, , , , , , 99, , , 0, 0, 0
38.0861226, -120.2285500, 11.400, 09:03:32.026, 10, 0.00, 0.16, 96, 0.200, -0.100, -83.900, 2, 100, 98, 17, 22869, -20085, 5344, 5567, 7, 14, 1525968212.026, 38, 0, 1024, 1024, 1024, 1024, 0, 6, 3789, 3790, 3844, 3832, 3855, 3823, 0, 1, 9600, -90.000, 0.000, -82.900, 0.000, 0.000, -3.000, 0.0, , , , , , 99, , , 0, 0, 0
38.0861227, -120.2285499, 11.700, 09:03:32.127, 10, 0.00, 0.15, 96, -0.100, -0.200, -83.900, 2, 100, 97, 17, 22869, -20085, 5344, 5567, 7, 14, 1525968212.127, 72, 0, 1024, 1024, 1024, 1024, 0, 6, 3789, 3790, 3844, 3832, 3855, 3823, 0, 1, 9701, -90.000, 0.000, -82.900, 0.000, 0.000, -2.900, 0.0, , , , , , 99, , , 0, 0, 0
38.0861227, -120.2285499, 11.700, 09:03:32.227, 10, 0.00, 0.15, 96, -0.100, -0.200, -83.900, 2, 100, 97, 17, 22869, -20085, 5344, 5567, 7, 14, 1525968212.227, 172, 0, 1024, 1024, 1024, 1024, 0, 6, 3789, 3790, 3844, 3832, 3855, 3823, 0, 1, 9802, -90.000, 0.000, -82.900, 0.000, 0.000, -2.900, 0.0, , , , , , 99, , , 0, 0, 0
38.0861228, -120.2285499, 12.000, 09:03:32.326, 11, 0.00, 0.14, 96, -0.200, -0.200, -83.900, 2, 100, 97, 17, 22869, -20085, 5344, 5567, 7, 14, 1525968212.327, 78, 0, 1024, 1024, 1024, 1024, 0, 6, 3789, 3790, 3844, 3832, 3855, 3823, 0, 1, 9901, -90.000, 0.000, -82.900, 0.000, 0.000, -3.000, 0.0, , , , , , 99, , , 0, 0, 0
38.0861232, -120.2285498, 12.600, 09:03:32.433, 11, 0.00, 0.10, 96, -0.400, 0.000, -83.800, 2, 100, 97, 17, 22869, -20085, 5344, 5567, 7, 14, 1525968212.434, 8, 0, 1024, 1024, 1024, 1024, 0, 6, 3789, 3790, 3844, 3832, 3855, 3823, 0, 1, 10008, -89.900, 0.000, -82.900, 0.000, 0.000, -3.000, 0.0, , , , , , 99, , , 0, 0, 0
38.0861232, -120.2285498, 12.600, 09:03:32.526, 11, 0.00, 0.10, 96, -0.400, 0.000, -83.800, 2, 100, 97, 17, 22869, -20085, 5344, 5567, 7, 14, 1525968212.527, 101, 0, 1024, 1024, 1024, 1024, 0, 6, 3789, 3790, 3844, 3832, 3855, 3823, 0, 1, 10101, -89.900, 0.000, -82.900, 0.000, 0.000, -3.000, 0.0, , , , , , 99, , , 0, 0, 0
38.0861233, -120.2285497, 13.200, 09:03:32.627, 10, 0.00, 0.08, 96, -0.600, 0.000, -83.800, 2, 100, 99, 17, 23011, -18813, 5344, 5567, 7, 14, 1525968212.629, 82, 0, 1024, 1024, 1024, 1024, 0, 6, 3789, 3790, 3844, 3832, 3855, 3823, 0, 1, 10203, -89.900, 0.000, -82.900, 0.000, 0.000, -3.000, 0.0, , , , , , 99, , , 0, 0, 0
38.0861233, -120.2285498, 13.600, 09:03:32.726, 10, 0.00, 0.09, 96, -0.400, 0.100, -83.800, 2, 100, 99, 17, 23011, -18813, 5344, 5567, 7, 14, 1525968212.728, 18, 0, 1024, 1024, 1024, 1024, 0, 6, 3789, 3790, 3844, 3832, 3855, 3823, 0, 1, 10302, -89.900, 0.000, -82.900, 0.000, 0.000, -2.900, 0.0, , , , , , 99, , , 0, 0, 0
38.0861233, -120.2285498, 13.600, 09:03:32.826, 10, 0.00, 0.09, 96, -0.400, 0.100, -83.800, 2, 100, 99, 17, 23011, -18813, 5344, 5567, 7, 14, 1525968212.827, 117, 0, 1024, 1024, 1024, 1024, 0, 6, 3789, 3790, 3844, 3832, 3855, 3823, 0, 1, 10401, -89.900, 0.000, -82.900, 0.000, 0.000, -2.900, 0.0, , , , , , 99, , , 0, 0, 0
38.0861232, -120.2285499, 14.200, 09:03:32.941, 11, 0.00, 0.10, 96, 0.400, 0.600, -83.900, 2, 100, 99, 17, 23011, -18813, 5344, 5567, 7, 14, 1525968212.941, 5, 0, 1024, 1024, 1024, 1024, 0, 6, 3789, 3790, 3844, 3832, 3855, 3823, 0, 1, 10516, -89.900, 0.000, -82.900, 0.000, 0.000, -2.900, 0.0, , , , , , 99, , , 0, 0, 0
38.0861232, -120.2285499, 14.200, 09:03:33.025, 11, 0.00, 0.10, 96, 0.400, 0.600, -83.900, 2, 100, 99, 17, 23011, -18813, 5344, 5567, 7, 14, 1525968213.026, 90, 0, 1024, 1024, 1024, 1024, 0, 6, 3789, 3790, 3844, 3832, 3855, 3823, 0, 1, 10600, -89.900, 0.000, -82.900, 0.000, 0.000, -2.900, 0.0, , , , , , 99, , , 0, 0, 0
38.0861232, -120.2285499, 14.800, 09:03:33.127, 11, 0.00, 0.10, 96, 0.800, 0.500, -84.000, 2, 100, 98, 17, 23011, -18813, 5344, 5567, 7, 14, 1525968213.128, 56, 0, 1024, 1024, 1024, 1024, 0, 6, 3789, 3790, 3844, 3832, 3855, 3823, 0, 1, 10702, -89.900, 0.000, -82.900, 0.000, 0.000, -2.900, 0.0, , , , , , 99, , , 0, 0, 0
38.0861232, -120.2285499, 14.800, 09:03:33.226, 11, 0.00, 0.10, 96, 0.800, 0.500, -84.000, 2, 100, 98, 17, 23011, -18813, 5344, 5567, 7, 14, 1525968213.227, 155, 0, 1024, 1024, 1024, 1024, 0, 6, 3802, 3802, 3854, 3839, 3863, 3834, 0, 1, 10801, -89.900, 0.000, -82.900, 0.000, 0.000, -2.900, 0.0, , , , , , 99, , , 0, 0, 0
38.0861232, -120.2285499, 15.600, 09:03:33.326, 10, 0.00, 0.10, 96, 0.400, 0.200, -83.800, 2, 100, 98, 17, 23011, -18813, 5344, 5567, 7, 14, 1525968213.326, 17, 0, 1024, 1024, 1024, 1024, 0, 6, 3802, 3802, 3854, 3839, 3863, 3834, 0, 1, 10900, -89.900, 0.000, -82.900, 0.000, 0.000, -2.900, 0.0, , , , , , 99, , , 0, 0, 0
38.0861233, -120.2285498, 15.900, 09:03:33.426, 10, 0.00, 0.08, 96, 0.200, 0.100, -83.800, 2, 100, 98, 17, 23011, -18813, 5344, 5567, 7, 14, 1525968213.427, 79, 0, 1024, 1024, 1024, 1024, 0, 6, 3802, 3802, 3854, 3839, 3863, 3834, 0, 1, 11001, -89.900, 0.000, -82.900, 0.000, 0.000, -2.900, 0.0, , , , , , 99, , , 0, 0, 0
38.0861234, -120.2285498, 16.200, 09:03:33.526, 11, 0.00, 0.08, 96, -0.100, 0.000, -83.700, 2, 100, 98, 17, 23011, -18813, 5344, 5567, 7, 14, 1525968213.527, 71, 0, 1024, 1024, 1024, 1024, 0, 6, 3802, 3802, 3854, 3839, 3863, 3834, 0, 1, 11101, -89.900, 0.000, -82.900, 0.000, 0.000, -2.900, 0.0, , , , , , 99, , , 0, 0, 0
38.0861234, -120.2285497, 16.800, 09:03:33.626, 12, 0.00, 0.07, 96, -0.200, 0.000, -83.800, 2, 100, 98, 17, 23011, -18813, 5344, 5567, 7, 14, 1525968213.627, 68, 0, 1024, 1024, 1024, 1024, 0, 6, 3802, 3802, 3854, 3839, 3863, 3834, 0, 1, 11202, -90.000, 0.000, -82.900, 0.000, 0.000, -2.900, 0.0, , , , , , 99, , , 0, 0, 0
38.0861235, -120.2285497, 17.100, 09:03:33.726, 12, 0.00, 0.07, 96, 0.000, -0.100, -83.900, 2, 100, 98, 17, 23011, -18813, 5344, 5567, 7, 14, 1525968213.727, 81, 0, 1024, 1024, 1024, 1024, 0, 6, 3802, 3802, 3854, 3839, 3863, 3834, 0, 1, 11301, -90.000, 0.000, -82.900, 0.000, 0.000, -2.900, 0.0, , , , , , 99, , , 0, 0, 0
38.0861234, -120.2285497, 17.700, 09:03:33.826, 11, 0.00, 0.08, 96, 0.400, 0.000, -84.100, 2, 100, 97, 17, 22949, -19105, 5344, 5567, 7, 14, 1525968213.827, 27, 0, 1024, 1024, 1024, 1024, 0, 6, 3802, 3798, 3841, 3824, 3856, 3828, 0, 1, 11401, -89.900, 0.000, -82.900, 0.000, 0.000, -3.000, 0.0, , , , , , 99, , , 0, 0, 0
38.0861233, -120.2285497, 18.000, 09:03:33.933, 11, 0.00, 0.08, 96, 0.700, 0.000, -84.100, 2, 100, 97, 17, 22949, -19105, 5344, 5567, 7, 14, 1525968213.934, 4, 0, 1024, 1024, 1024, 1024, 0, 6, 3802, 3798, 3841, 3824, 3856, 3828, 0, 1, 11508, -89.900, 0.000, -82.900, 0.000, 0.000, -3.000, 0.0, , , , , , 99, , , 0, 0, 0
38.0861232, -120.2285499, 18.600, 09:03:34.026, 12, 0.00, 0.10, 96, 1.000, 0.500, -83.900, 2, 100, 97, 17, 22949, -19105, 5344, 5567, 7, 14, 1525968214.026, 9, 0, 1024, 1024, 1024, 1024, 0, 6, 3802, 3798, 3841, 3824, 3856, 3828, 0, 1, 11600, -89.900, 0.000, -82.900, 0.000, 0.000, -3.000, 0.0, , , , , , 99, , , 0, 0, 0
38.0861232, -120.2285499, 18.600, 09:03:34.126, 12, 0.00, 0.10, 96, 1.000, 0.500, -83.900, 2, 100, 97, 17, 22949, -19105, 5344, 5567, 7, 14, 1525968214.128, 111, 0, 1024, 1024, 1024, 1024, 0, 6, 3802, 3798, 3841, 3824, 3856, 3828, 0, 1, 11702, -89.900, 0.000, -82.900, 0.000, 0.000, -3.000, 0.0, , , , , , 99, , , 0, 0, 0
38.0861232, -120.2285500, 19.200, 09:03:34.234, 11, 0.00, 0.11, 96, 0.800, 0.800, -83.700, 2, 100, 98, 17, 22949, -19105, 5344, 5567, 7, 14, 1525968214.235, 6, 0, 1024, 1024, 1024, 1024, 0, 6, 3802, 3798, 3841, 3824, 3856, 3828, 0, 1, 11809, -89.900, 0.000, -82.900, 0.000, 0.000, -2.900, 0.0, , , , , , 99, , , 0, 0, 0
38.0861232, -120.2285500, 19.200, 09:03:34.326, 11, 0.00, 0.11, 96, 0.800, 0.800, -83.700, 2, 100, 98, 17, 22949, -19105, 5344, 5567, 7, 14, 1525968214.326, 97, 0, 1024, 1024, 1024, 1024, 0, 6, 3802, 3798, 3841, 3824, 3856, 3828, 0, 1, 11900, -89.900, 0.000, -82.900, 0.000, 0.000, -2.900, 0.0, , , , , , 99, , , 0, 0, 0
38.0861232, -120.2285501, 19.500, 09:03:34.426, 11, 0.00, 0.11, 96, 0.700, 0.800, -83.700, 2, 100, 98, 17, 22949, -19105, 5344, 5567, 7, 14, 1525968214.427, 85, 0, 1024, 1024, 1024, 1024, 0, 6, 3802, 3798, 3841, 3824, 3856, 3828, 0, 1, 12001, -89.900, 0.000, -82.900, 0.000, 0.000, -3.000, 0.0, , , , , , 99, , , 0, 0, 0
38.0861232, -120.2285502, 19.800, 09:03:34.526, 12, 0.00, 0.11, 96, 0.500, 0.800, -83.600, 2, 100, 98, 17, 22949, -19105, 5344, 5567, 7, 14, 1525968214.526, 84, 0, 1024, 1024, 1024, 1024, 0, 6, 3802, 3798, 3841, 3824, 3856, 3828, 0, 1, 12100, -89.900, 0.000, -82.900, 0.000, 0.000, -2.900, 0.0, , , , , , 99, , , 0, 0, 0
38.0861232, -120.2285503, 20.100, 09:03:34.626, 12, 0.00, 0.12, 96, 0.300, 0.800, -83.600, 2, 100, 98, 17, 22949, -19105, 5344, 5567, 7, 14, 1525968214.627, 64, 0, 1024, 1024, 1024, 1024, 0, 6, 3802, 3798, 3841, 3824, 3856, 3828, 0, 1, 12201, -89.900, 0.000, -82.900, 0.000, 0.000, -2.900, 0.0, , , , , , 99, , , 0, 0, 0
38.0861232, -120.2285503, 20.400, 09:03:34.726, 11, 0.00, 0.12, 96, 0.300, 0.800, -83.600, 2, 100, 98, 17, 22949, -19105, 5344, 5567, 7, 14, 1525968214.727, 79, 0, 1024, 1024, 1024, 1024, 0, 6, 3802, 3798, 3841, 3824, 3856, 3828, 0, 1, 12301, -89.900, 0.000, -82.900, 0.000, 0.000, -2.900, 0.0, , , , , , 99, , , 0, 0, 0
38.0861231, -120.2285503, 20.700, 09:03:34.826, 11, 0.00, 0.13, 96, 0.400, 0.700, -83.600, 2, 100, 99, 17, 22935, -19133, 5344, 5567, 7, 14, 1525968214.827, 40, 0, 1024, 1024, 1024, 1024, 0, 6, 3791, 3779, 3836, 3818, 3845, 3818, 0, 1, 12401, -89.900, 0.000, -82.900, 0.000, 0.000, -2.900, 0.0, , , , , , 99, , , 0, 0, 0
38.0861230, -120.2285503, 21.000, 09:03:34.926, 11, 0.00, 0.13, 96, 0.700, 0.500, -83.600, 2, 100, 99, 17, 22935, -19133, 5344, 5567, 7, 14, 1525968214.928, 58, 0, 1024, 1024, 1024, 1024, 0, 6, 3791, 3779, 3836, 3818, 3845, 3818, 0, 1, 12502, -89.900, 0.000, -82.900, 0.000, 0.000, -2.900, 0.0, , , , , , 99, , , 0, 0, 0
38.0861231, -120.2285503, 21.300, 09:03:35.026, 11, 0.00, 0.13, 96, 0.800, 0.400, -83.700, 2, 100, 99, 17, 22935, -19133, 5344, 5567, 7, 14, 1525968215.026, 56, 0, 1024, 1024, 1024, 1024, 0, 6, 3791, 3779, 3836, 3818, 3845, 3818, 0, 1, 12600, -89.900, 0.000, -82.900, 0.000, 0.000, -2.900, 0.0, , , , , , 99, , , 0, 0, 0
38.0861232, -120.2285503, 21.600, 09:03:35.126, 11, 0.00, 0.12, 96, 0.700, 0.400, -83.700, 2, 100, 99, 17, 22935, -19133, 5344, 5567, 7, 14, 1525968215.126, 61, 0, 1024, 1024, 1024, 1024, 0, 6, 3791, 3779, 3836, 3818, 3845, 3818, 0, 1, 12700, -89.900, 0.000, -82.900, 0.000, 0.000, -2.900, 0.0, , , , , , 99, , , 0, 0, 0
38.0861232, -120.2285503, 21.900, 09:03:35.226, 11, 0.00, 0.12, 96, 0.500, 0.400, -83.800, 2, 100, 99, 17, 22935, -19133, 5344, 5567, 7, 14, 1525968215.227, 33, 0, 1024, 1024, 1024, 1024, 0, 6, 3791, 3779, 3836, 3818, 3845, 3818, 0, 1, 12801, -89.900, 0.000, -82.900, 0.000, 0.000, -2.900, 0.0, , , , , , 99, , , 0, 0, 0
38.0861232, -120.2285504, 22.200, 09:03:35.326, 11, 0.00, 0.12, 96, 0.300, 0.600, -83.800, 2, 100, 99, 17, 22935, -19133, 5344, 5567, 7, 14, 1525968215.327, 47, 0, 1024, 1024, 1024, 1024, 0, 6, 3791, 3779, 3836, 3818, 3845, 3818, 0, 1, 12901, -89.900, 0.000, -82.900, 0.000, 0.000, -3.000, 0.0, , , , , , 99, , , 0, 0, 0
38.0861232, -120.2285503, 22.500, 09:03:35.426, 11, 0.00, 0.12, 96, 0.200, 0.600, -83.900, 2, 100, 99, 17, 22935, -19133, 5344, 5567, 7, 14, 1525968215.428, 43, 0, 1024, 1024, 1024, 1024, 0, 6, 3791, 3779, 3836, 3818, 3845, 3818, 0, 1, 13002, -89.900, 0.000, -82.900, 0.000, 0.000, -3.000, 0.0, , , , , , 99, , , 0, 0, 0
38.0861232, -120.2285503, 22.800, 09:03:35.526, 11, 0.00, 0.12, 96, 0.200, 0.500, -83.900, 2, 100, 99, 17, 22935, -19133, 5344, 5567, 7, 14, 1525968215.527, 19, 0, 1024, 1024, 1024, 1024, 0, 6, 3791, 3779, 3836, 3818, 3845, 3818, 0, 1, 13102, -89.900, 0.000, -82.900, 0.000, 0.000, -2.900, 0.0, , , , , , 99, , , 0, 0, 0
38.0861232, -120.2285503, 23.100, 09:03:35.626, 11, 0.00, 0.12, 96, 0.300, 0.400, -84.000, 2, 100, 99, 17, 22935, -19133, 5344, 5567, 7, 14, 1525968215.627, 30, 0, 1024, 1024, 1024, 1024, 0, 6, 3791, 3779, 3836, 3818, 3845, 3818, 0, 1, 13201, -90.000, 0.000, -82.900, 0.000, 0.000, -2.900, 0.0, , , , , , 99, , , 0, 0, 0
38.0861232, -120.2285503, 23.500, 09:03:35.726, 11, 0.00, 0.12, 96, 0.400, 0.300, -84.000, 2, 100, 99, 17, 22881, -19137, 5344, 5567, 7, 14, 1525968215.726, 20, 0, 1024, 1024, 1024, 1024, 0, 6, 3791, 3779, 3836, 3818, 3845, 3818, 0, 1, 13301, -89.900, 0.000, -82.900, 0.000, 0.000, -2.900, 0.0, , , , , , 99, , , 0, 0, 0
38.0861232, -120.2285503, 23.800, 09:03:35.826, 11, 0.00, 0.12, 96, 0.400, 0.300, -84.000, 2, 100, 99, 17, 22881, -19137, 5344, 5567, 7, 14, 1525968215.827, 41, 0, 1024, 1024, 1024, 1024, 0, 6, 3780, 3775, 3833, 3816, 3841, 3814, 0, 1, 13402, -89.900, 0.000, -82.900, 0.000, 0.000, -2.900, 0.0, , , , , , 99, , , 0, 0, 0
38.0861231, -120.2285504, 24.100, 09:03:35.931, 12, 0.00, 0.13, 96, 0.500, 0.300, -84.000, 2, 100, 99, 17, 22881, -19137, 5344, 5567, 7, 14, 1525968215.932, 5, 0, 1024, 1024, 1024, 1024, 0, 6, 3780, 3775, 3833, 3816, 3841, 3814, 0, 1, 13506, -89.900, 0.000, -82.900, 0.000, 0.000, -2.900, 0.0, , , , , , 99, , , 0, 0, 0
38.0861231, -120.2285504, 24.300, 09:03:36.025, 12, 0.00, 0.14, 96, 0.600, 0.400, -83.900, 2, 100, 99, 17, 22881, -19137, 5344, 5567, 7, 14, 1525968216.026, 13, 0, 1024, 1024, 1024, 1024, 0, 6, 3780, 3775, 3833, 3816, 3841, 3814, 0, 1, 13600, -89.900, 0.000, -82.900, 0.000, 0.000, -2.900, 0.0, , , , , , 99, , , 0, 0, 0
38.0861231, -120.2285504, 24.300, 09:03:36.126, 12, 0.00, 0.14, 96, 0.600, 0.400, -83.900, 2, 100, 99, 17, 22881, -19137, 5344, 5567, 7, 14, 1525968216.127, 114, 0, 1024, 1024, 1024, 1024, 0, 6, 3780, 3775, 3833, 3816, 3841, 3814, 0, 1, 13701, -89.900, 0.000, -82.900, 0.000, 0.000, -2.900, 0.0, , , , , , 99, , , 0, 0, 0
38.0861230, -120.2285504, 24.900, 09:03:36.226, 13, 0.00, 0.14, 96, 0.700, 0.600, -83.800, 2, 100, 99, 17, 22881, -19137, 5344, 5567, 7, 14, 1525968216.227, 53, 0, 1024, 1024, 1024, 1024, 0, 6, 3780, 3775, 3833, 3816, 3841, 3814, 0, 1, 13801, -89.900, 0.000, -82.900, 0.000, 0.000, -2.900, 0.0, , , , , , 99, , , 0, 0, 0
38.0861230, -120.2285504, 25.200, 09:03:36.327, 12, 0.00, 0.14, 96, 0.600, 0.700, -83.700, 2, 100, 99, 17, 22881, -19137, 5344, 5567, 7, 14, 1525968216.328, 8, 0, 1024, 1024, 1024, 1024, 0, 6, 3780, 3775, 3833, 3816, 3841, 3814, 0, 1, 13902, -89.900, 0.000, -82.900, 0.000, 0.000, -2.900, 0.0, , , , , , 99, , , 0, 0, 0
38.0861230, -120.2285505, 25.500, 09:03:36.431, 12, 0.00, 0.14, 96, 0.500, 0.600, -83.600, 2, 100, 99, 17, 22881, -19137, 5344, 5567, 7, 14, 1525968216.432, 6, 0, 1024, 1024, 1024, 1024, 0, 6, 3780, 3775, 3833, 3816, 3841, 3814, 0, 1, 14006, -89.900, 0.000, -82.900, 0.000, 0.000, -2.900, 0.0, , , , , , 99, , , 0, 0, 0
38.0861230, -120.2285504, 26.100, 09:03:36.529, 12, 0.00, 0.14, 96, 0.400, 0.500, -83.600, 2, 100, 99, 17, 22881, -19137, 5344, 5567, 7, 14, 1525968216.529, 4, 0, 1024, 1024, 1024, 1024, 0, 6, 3780, 3775, 3833, 3816, 3841, 3814, 0, 1, 14104, -89.900, 0.000, -82.900, 0.000, 0.000, -2.900, 0.0, , , , , , 99, , , 0, 0, 0
38.0861230, -120.2285504, 26.400, 09:03:36.640, 11, 0.00, 0.14, 96, 0.400, 0.300, -83.600, 2, 100, 99, 17, 22881, -19137, 5344, 5567, 7, 14, 1525968216.640, 5, 0, 1024, 1024, 1024, 1024, 0, 6, 3780, 3775, 3833, 3816, 3841, 3814, 0, 1, 14215, -90.000, 0.000, -82.900, 0.000, 0.000, -3.000, 0.0, , , , , , 99, , , 0, 0, 0
38.0861230, -120.2285504, 26.400, 09:03:36.726, 11, 0.00, 0.14, 96, 0.400, 0.300, -83.600, 2, 100, 99, 17, 22881, -19137, 5344, 5567, 7, 14, 1525968216.727, 91, 0, 1024, 1024, 1024, 1024, 0, 6, 3780, 3775, 3833, 3816, 3841, 3814, 0, 1, 14301, -90.000, 0.000, -82.900, 0.000, 0.000, -3.000, 0.0, , , , , , 99, , , 0, 0, 0
38.0861229, -120.2285504, 26.700, 09:03:36.826, 11, 0.00, 0.15, 96, 0.600, 0.200, -83.700, 2, 100, 99, 17, 22844, -19020, 5344, 5567, 7, 14, 1525968216.827, 93, 0, 1024, 1024, 1024, 1024, 0, 6, 3773, 3766, 3824, 3810, 3827, 3810, 0, 1, 14402, -89.900, 0.000, -82.900, 0.000, 0.000, -3.000, 0.0, , , , , , 99, , , 0, 0, 0
38.0861229, -120.2285505, 27.000, 09:03:36.926, 12, 0.00, 0.16, 96, 0.700, 0.300, -83.700, 2, 100, 99, 17, 22844, -19020, 5344, 5567, 7, 14, 1525968216.927, 56, 0, 1024, 1024, 1024, 1024, 0, 6, 3773, 3766, 3824, 3810, 3827, 3810, 0, 1, 14501, -89.900, 0.000, -82.900, 0.000, 0.000, -2.900, 0.0, , , , , , 99, , , 0, 0, 0
38.0861229, -120.2285504, 27.300, 09:03:37.026, 12, 0.00, 0.15, 96, 0.800, 0.400, -83.700, 2, 100, 99, 17, 22844, -19020, 5344, 5567, 7, 14, 1525968217.026, 63, 0, 1024, 1024, 1024, 1024, 0, 6, 3773, 3766, 3824, 3810, 3827, 3810, 0, 1, 14600, -89.900, 0.000, -82.900, 0.000, 0.000, -2.900, 0.0, , , , , , 99, , , 0, 0, 0
38.0861229, -120.2285504, 27.600, 09:03:37.126, 13, 0.00, 0.15, 96, 0.700, 0.500, -83.700, 2, 100, 99, 17, 22844, -19020, 5344, 5567, 7, 14, 1525968217.127, 74, 0, 1024, 1024, 1024, 1024, 0, 6, 3773, 3766, 3824, 3810, 3827, 3810, 0, 1, 14701, -89.900, 0.000, -82.900, 0.000, 0.000, -2.900, 0.0, , , , , , 99, , , 0, 0, 0
38.0861229, -120.2285504, 27.900, 09:03:37.226, 13, 0.00, 0.16, 96, 0.700, 0.400, -83.700, 2, 100, 99, 17, 22844, -19020, 5344, 5567, 7, 14, 1525968217.227, 62, 0, 1024, 1024, 1024, 1024, 0, 6, 3773, 3766, 3824, 3810, 3827, 3810, 0, 1, 14802, -89.900, 0.000, -82.900, 0.000, 0.000, -2.900, 0.0, , , , , , 99, , , 0, 0, 0
38.0861228, -120.2285505, 28.200, 09:03:37.326, 13, 0.00, 0.16, 96, 0.800, 0.500, -83.700, 2, 100, 97, 17, 22844, -19020, 5344, 5567, 7, 14, 1525968217.328, 61, 0, 1024, 1024, 1024, 1024, 0, 6, 3773, 3766, 3824, 3810, 3827, 3810, 0, 1, 14902, -89.900, 0.000, -82.900, 0.000, 0.000, -2.900, 0.0, , , , , , 99, , , 0, 0, 0
38.0861228, -120.2285505, 28.500, 09:03:37.426, 13, 0.00, 0.16, 96, 0.800, 0.600, -83.700, 2, 100, 97, 17, 22844, -19020, 5344, 5567, 7, 14, 1525968217.427, 60, 0, 1024, 1024, 1024, 1024, 0, 6, 3773, 3766, 3824, 3810, 3827, 3810, 0, 1, 15001, -89.900, 0.000, -82.900, 0.000, 0.000, -2.900, 0.0, , , , , , 99, , , 0, 0, 0
38.0861229, -120.2285505, 28.800, 09:03:37.526, 13, 0.00, 0.16, 96, 0.800, 0.600, -83.700, 2, 100, 97, 17, 22844, -19020, 5344, 5567, 7, 14, 1525968217.527, 52, 0, 1024, 1024, 1024, 1024, 0, 6, 3773, 3766, 3824, 3810, 3827, 3810, 0, 1, 15101, -89.900, 0.000, -82.900, 0.000, 0.000, -2.900, 0.0, , , , , , 99, , , 0, 0, 0
38.0861229, -120.2285505, 29.100, 09:03:37.626, 13, 0.00, 0.16, 96, 0.800, 0.600, -83.700, 2, 100, 97, 17, 22844, -19020, 5344, 5567, 7, 14, 1525968217.627, 55, 0, 1024, 1024, 1024, 1024, 0, 6, 3773, 3766, 3824, 3810, 3827, 3810, 0, 1, 15202, -89.900, 0.000, -82.900, 0.000, 0.000, -2.900, 0.0, , , , , , 99, , , 0, 0, 0
38.0861229, -120.2285505, 29.400, 09:03:37.726, 13, 0.00, 0.16, 96, 0.700, 0.600, -83.700, 2, 100, 97, 17, 22824, -19058, 5344, 5567, 7, 14, 1525968217.727, 67, 0, 1024, 1024, 1024, 1024, 0, 6, 3773, 3766, 3824, 3810, 3827, 3810, 0, 1, 15302, -89.900, 0.000, -82.900, 0.000, 0.000, -2.900, 0.0, , , , , , 99, , , 0, 0, 0
38.0861228, -120.2285505, 29.700, 09:03:37.826, 13, 0.00, 0.16, 96, 0.700, 0.600, -83.700, 2, 100, 94, 17, 22824, -19058, 5344, 5567, 7, 14, 1525968217.826, 39, 0, 1024, 1024, 1024, 1024, 0, 6, 3773, 3766, 3824, 3810, 3827, 3810, 0, 1, 15400, -89.900, 0.000, -82.900, 0.000, 0.000, -2.900, 0.0, , , , , , 99, , , 0, 0, 0
38.0861228, -120.2285505, 30.000, 09:03:37.926, 13, 0.00, 0.17, 96, 0.800, 0.500, -83.600, 2, 100, 94, 17, 22824, -19058, 5344, 5567, 7, 14, 1525968217.927, 53, 0, 1024, 1024, 1024, 1024, 0, 6, 3773, 3766, 3824, 3810, 3827, 3810, 0, 1, 15501, -89.900, 0.000, -82.900, 0.000, 0.000, -2.900, 0.0, , , , , , 99, , , 0, 0, 0
38.0861228, -120.2285505, 30.300, 09:03:38.025, 13, 0.00, 0.16, 96, 0.800, 0.500, -83.600, 2, 100, 94, 17, 22824, -19058, 5344, 5567, 7, 14, 1525968218.026, 23, 0, 1024, 1024, 1024, 1024, 0, 6, 3773, 3766, 3824, 3810, 3827, 3810, 0, 1, 15600, -89.900, 0.000, -82.900, 0.000, 0.000, -2.900, 0.0, , , , , , 99, , , 0, 0, 0
38.0861229, -120.2285505, 30.600, 09:03:38.127, 13, 0.00, 0.16, 96, 0.700, 0.500, -83.600, 2, 100, 94, 17, 22824, -19058, 5344, 5567, 7, 14, 1525968218.129, 18, 0, 1024, 1024, 1024, 1024, 0, 6, 3773, 3766, 3824, 3810, 3827, 3810, 0, 1, 15703, -89.900, 0.000, -82.900, 0.000, 0.000, -2.900, 0.0, , , , , , 99, , , 0, 0, 0
38.0861229, -120.2285504, 30.900, 09:03:38.227, 13, 0.00, 0.16, 96, 0.600, 0.400, -83.600, 2, 100, 94, 17, 22824, -19058, 5344, 5567, 7, 14, 1525968218.228, 8, 0, 1024, 1024, 1024, 1024, 0, 6, 3773, 3766, 3824, 3810, 3827, 3810, 0, 1, 15802, -90.000, 0.000, -82.900, 0.000, 0.000, -2.900, 0.0, , , , , , 99, , , 0, 0, 0
38.0861229, -120.2285504, 30.900, 09:03:38.325, 13, 0.00, 0.16, 96, 0.600, 0.400, -83.600, 2, 100, 95, 17, 22824, -19058, 5344, 5567, 7, 14, 1525968218.326, 106, 0, 1024, 1024, 1024, 1024, 0, 6, 3770, 3765, 3827, 3809, 3825, 3803, 0, 1, 15900, -90.000, 0.000, -82.900, 0.000, 0.000, -2.900, 0.0, , , , , , 99, , , 0, 0, 0
38.0861229, -120.2285504, 31.500, 09:03:38.426, 13, 0.00, 0.15, 96, 0.700, 0.200, -83.700, 2, 100, 95, 17, 22824, -19058, 5344, 5567, 7, 14, 1525968218.426, 11, 0, 1024, 1024, 1024, 1024, 0, 6, 3770, 3765, 3827, 3809, 3825, 3803, 0, 1, 16001, -90.000, 0.000, -82.900, 0.000, 0.000, -2.900, 0.0, , , , , , 99, , , 0, 0, 0
38.0861229, -120.2285503, 31.800, 09:03:38.527, 13, 0.00, 0.15, 96, 0.700, 0.200, -83.800, 2, 100, 95, 17, 22824, -19058, 5344, 5567, 7, 14, 1525968218.528, 8, 0, 1024, 1024, 1024, 1024, 0, 6, 3770, 3765, 3827, 3809, 3825, 3803, 0, 1, 16102, -90.000, 0.000, -82.900, 0.000, 0.000, -3.000, 0.0, , , , , , 99, , , 0, 0, 0
38.0861230, -120.2285503, 32.100, 09:03:38.626, 13, 0.00, 0.14, 96, 0.700, 0.100, -83.900, 2, 100, 95, 17, 22824, -19058, 5344, 5567, 7, 14, 1525968218.627, 16, 0, 1024, 1024, 1024, 1024, 0, 6, 3770, 3765, 3827, 3809, 3825, 3803, 0, 1, 16202, -90.000, 0.000, -82.900, 0.000, 0.000, -3.000, 0.0, , , , , , 99, , , 0, 0, 0
38.0861230, -120.2285503, 32.400, 09:03:38.728, 11, 0.00, 0.14, 96, 0.500, 0.100, -83.900, 2, 100, 94, 17, 22824, -19058, 5344, 5567, 7, 14, 1525968218.728, 10, 0, 1024, 1024, 1024, 1024, 0, 6, 3770, 3765, 3827, 3809, 3825, 3803, 0, 1, 16303, -90.000, 0.000, -82.900, 0.000, 0.000, -2.900, 0.0, , , , , , 99, , , 0, 0, 0
38.0861230, -120.2285503, 32.700, 09:03:38.826, 11, 0.00, 0.14, 96, 0.500, 0.000, -84.000, 2, 100, 94, 17, 22824, -19058, 5344, 5567, 7, 14, 1525968218.827, 13, 0, 1024, 1024, 1024, 1024, 0, 6, 3770, 3765, 3827, 3809, 3825, 3803, 0, 1, 16401, -89.900, 0.000, -82.900, 0.000, 0.000, -2.900, 0.0, , , , , , 99, , , 0, 0, 0
38.0861230, -120.2285503, 32.700, 09:03:38.926, 11, 0.00, 0.14, 96, 0.500, 0.000, -84.000, 2, 100, 94, 17, 22824, -19058, 5344, 5567, 7, 14, 1525968218.926, 112, 0, 1024, 1024, 1024, 1024, 0, 6, 3770, 3765, 3827, 3809, 3825, 3803, 0, 1, 16500, -89.900, 0.000, -82.900, 0.000, 0.000, -2.900, 0.0, , , , , , 99, , , 0, 0, 0
38.0861230, -120.2285503, 33.500, 09:03:39.027, 12, 0.00, 0.14, 96, 0.800, 0.300, -83.900, 2, 100, 94, 17, 22824, -19058, 5344, 5567, 7, 14, 1525968219.027, 4, 0, 1024, 1024, 1024, 1024, 0, 6, 3770, 3765, 3827, 3809, 3825, 3803, 0, 1, 16602, -89.900, 0.000, -82.900, 0.000, 0.000, -2.900, 0.0, , , , , , 99, , , 0, 0, 0
38.0861230, -120.2285503, 33.500, 09:03:39.126, 12, 0.00, 0.14, 96, 0.800, 0.300, -83.900, 2, 100, 94, 17, 22824, -19058, 5344, 5567, 7, 14, 1525968219.127, 103, 0, 1024, 1024, 1024, 1024, 0, 6, 3770, 3765, 3827, 3809, 3825, 3803, 0, 1, 16701, -89.900, 0.000, -82.900, 0.000, 0.000, -2.900, 0.0, , , , , , 99, , , 0, 0, 0
38.0861230, -120.2285503, 33.800, 09:03:39.226, 12, 0.00, 0.14, 96, 0.900, 0.300, -83.900, 2, 100, 94, 17, 22824, -19058, 5344, 5567, 7, 14, 1525968219.227, 87, 0, 1024, 1024, 1024, 1024, 0, 6, 3770, 3765, 3827, 3809, 3825, 3803, 0, 1, 16801, -89.900, 0.000, -82.900, 0.000, 0.000, -3.000, 0.0, , , , , , 99, , , 0, 0, 0
38.0861230, -120.2285503, 34.200, 09:03:39.326, 12, 0.00, 0.14, 96, 0.900, 0.400, -83.800, 2, 100, 95, 17, 22739, -19397, 5288, 5567, 7, 14, 1525968219.327, 76, 0, 1024, 1024, 1024, 1024, 0, 6, 3765, 3758, 3815, 3794, 3811, 3788, 0, 1, 16901, -89.900, 0.000, -82.900, 0.000, 0.000, -3.100, 0.0, , , , , , 99, , , 0, 0, 0
38.0861230, -120.2285503, 34.500, 09:03:39.426, 12, 0.00, 0.13, 96, 0.900, 0.400, -83.800, 2, 100, 95, 17, 22739, -19397, 5288, 5567, 7, 14, 1525968219.426, 91, 0, 1024, 1024, 1024, 1024, 0, 6, 3765, 3758, 3815, 3794, 3811, 3788, 0, 1, 17000, -89.900, 0.000, -82.900, 0.000, 0.000, -3.000, 0.0, , , , , , 99, , , 0, 0, 0
38.0861230, -120.2285503, 34.800, 09:03:39.526, 12, 0.00, 0.13, 96, 0.900, 0.400, -83.800, 2, 100, 95, 17, 22739, -19397, 5288, 5567, 7, 14, 1525968219.527, 72, 0, 1024, 1024, 1024, 1024, 0, 6, 3765, 3758, 3815, 3794, 3811, 3788, 0, 1, 17101, -89.900, 0.000, -82.900, 0.000, 0.000, -3.000, 0.0, , , , , , 99, , , 0, 0, 0
38.0861230, -120.2285503, 35.100, 09:03:39.626, 12, 0.00, 0.13, 96, 0.800, 0.400, -83.800, 2, 100, 95, 17, 22739, -19397, 5288, 5567, 7, 14, 1525968219.627, 60, 0, 1024, 1024, 1024, 1024, 0, 6, 3765, 3758, 3815, 3794, 3811, 3788, 0, 1, 17201, -89.900, 0.000, -82.900, 0.000, 0.000, -3.000, 0.0, , , , , , 99, , , 0, 0, 0
38.0861231, -120.2285503, 35.400, 09:03:39.727, 12, 0.00, 0.13, 96, 0.700, 0.400, -83.800, 2, 100, 95, 17, 22739, -19397, 5288, 5567, 7, 14, 1525968219.728, 77, 0, 1024, 1024, 1024, 1024, 0, 6, 3765, 3758, 3815, 3794, 3811, 3788, 0, 1, 17303, -89.900, 0.000, -82.900, 0.000, 0.000, -2.900, 0.0, , , , , , 99, , , 0, 0, 0
38.0861231, -120.2285502, 35.700, 09:03:39.826, 12, 0.00, 0.12, 96, 0.600, 0.400, -83.900, 2, 100, 96, 17, 22739, -19397, 5288, 5567, 7, 14, 1525968219.827, 79, 0, 1024, 1024, 1024, 1024, 0, 6, 3765, 3758, 3815, 3794, 3811, 3788, 0, 1, 17401, -89.900, 0.000, -82.900, 0.000, 0.000, -2.900, 0.0, , , , , , 99, , , 0, 0, 0
38.0861231, -120.2285502, 35.700, 09:03:39.926, 12, 0.00, 0.12, 96, 0.600, 0.400, -83.900, 2, 100, 96, 17, 22739, -19397, 5288, 5567, 7, 14, 1525968219.927, 180, 0, 1024, 1024, 1024, 1024, 0, 6, 3765, 3758, 3815, 3794, 3811, 3788, 0, 1, 17502, -89.900, 0.000, -82.900, 0.000, 0.000, -2.900, 0.0, , , , , , 99, , , 0, 0, 0
38.0861232, -120.2285502, 36.300, 09:03:40.026, 13, 0.00, 0.11, 96, 0.400, 0.400, -83.900, 2, 100, 96, 17, 22739, -19397, 5288, 5567, 7, 14, 1525968220.026, 57, 0, 1024, 1024, 1024, 1024, 0, 6, 3765, 3758, 3815, 3794, 3811, 3788, 0, 1, 17600, -89.900, 0.000, -82.900, 0.000, 0.000, -3.000, 0.0, , , , , , 99, , , 0, 0, 0
38.0861232, -120.2285502, 36.300, 09:03:40.126, 13, 0.00, 0.11, 96, 0.400, 0.400, -83.900, 2, 100, 96, 17, 22739, -19397, 5288, 5567, 7, 14, 1525968220.127, 157, 0, 1024, 1024, 1024, 1024, 0, 6, 3765, 3758, 3815, 3794, 3811, 3788, 0, 1, 17701, -89.900, 0.000, -82.900, 0.000, 0.000, -3.000, 0.0, , , , , , 99, , , 0, 0, 0
38.0861233, -120.2285502, 36.900, 09:03:40.226, 13, 0.00, 0.11, 96, 0.400, 0.400, -83.900, 2, 100, 96, 17, 22743, -19235, 5288, 5567, 7, 14, 1525968220.227, 49, 0, 1024, 1024, 1024, 1024, 0, 6, 3760, 3752, 3815, 3799, 3804, 3796, 0, 1, 17801, -89.900, 0.000, -82.900, 0.000, 0.000, -2.900, 0.0, , , , , , 99, , , 0, 0, 0
38.0861233, -120.2285502, 37.200, 09:03:40.326, 13, 0.00, 0.10, 96, 0.400, 0.300, -83.900, 2, 100, 94, 17, 22743, -19235, 5288, 5567, 7, 14, 1525968220.327, 57, 0, 1024, 1024, 1024, 1024, 0, 6, 3760, 3752, 3815, 3799, 3804, 3796, 0, 1, 17901, -89.900, 0.000, -82.900, 0.000, 0.000, -2.900, 0.0, , , , , , 99, , , 0, 0, 0
38.0861234, -120.2285502, 37.500, 09:03:40.426, 13, 0.00, 0.10, 96, 0.400, 0.300, -83.800, 2, 100, 94, 17, 22743, -19235, 5288, 5567, 7, 14, 1525968220.427, 55, 0, 1024, 1024, 1024, 1024, 0, 6, 3760, 3752, 3815, 3799, 3804, 3796, 0, 1, 18001, -89.900, 0.000, -82.900, 0.000, 0.000, -3.000, 0.0, , , , , , 99, , , 0, 0, 0
38.0861234, -120.2285502, 37.800, 09:03:40.526, 13, 0.00, 0.10, 96, 0.400, 0.300, -83.800, 2, 100, 94, 17, 22743, -19235, 5288, 5567, 7, 14, 1525968220.527, 22, 0, 1024, 1024, 1024, 1024, 0, 6, 3760, 3752, 3815, 3799, 3804, 3796, 0, 1, 18101, -89.900, 0.000, -82.900, 0.000, 0.000, -3.000, 0.0, , , , , , 99, , , 0, 0, 0
38.0861235, -120.2285503, 38.100, 09:03:40.626, 13, 0.00, 0.09, 96, 0.300, 0.300, -83.700, 2, 100, 94, 17, 22743, -19235, 5288, 5567, 7, 14, 1525968220.627, 22, 0, 1024, 1024, 1024, 1024, 0, 6, 3760, 3752, 3815, 3799, 3804, 3796, 0, 1, 18201, -89.900, 0.000, -82.900, 0.000, 0.000, -2.900, 0.0, , , , , , 99, , , 0, 0, 0
38.0861235, -120.2285503, 38.400, 09:03:40.726, 13, 0.00, 0.09, 95, 0.200, 0.400, -83.800, 2, 100, 94, 17, 22743, -19235, 5288, 5567, 7, 14, 1525968220.727, 48, 0, 1024, 1024, 1024, 1024, 0, 6, 3760, 3752, 3815, 3799, 3804, 3796, 0, 1, 18301, -89.900, 0.000, -82.900, 0.000, 0.000, -2.900, 0.0, , , , , , 99, , , 0, 0, 0
38.0861235, -120.2285503, 38.700, 09:03:40.826, 13, 0.00, 0.10, 95, 0.200, 0.600, -83.800, 2, 100, 94, 17, 22743, -19235, 5288, 5567, 7, 14, 1525968220.827, 25, 0, 1024, 1024, 1024, 1024, 0, 6, 3760, 3752, 3815, 3799, 3804, 3796, 0, 1, 18401, -89.900, 0.000, -82.900, 0.000, 0.000, -2.900, 0.0, , , , , , 99, , , 0, 0, 0
38.0861235, -120.2285503, 39.000, 09:03:40.926, 13, 0.00, 0.10, 95, 0.400, 0.700, -83.800, 2, 100, 94, 17, 22743, -19235, 5288, 5567, 7, 14, 1525968220.927, 38, 0, 1024, 1024, 1024, 1024, 0, 6, 3760, 3752, 3815, 3799, 3804, 3796, 0, 1, 18501, -89.900, 0.000, -82.900, 0.000, 0.000, -2.900, 0.0, , , , , , 99, , , 0, 0, 0
38.0861235, -120.2285503, 39.000, 09:03:41.026, 13, 0.00, 0.10, 95, 0.400, 0.700, -83.800, 2, 100, 94, 17, 22743, -19235, 5288, 5567, 7, 14, 1525968221.026, 137, 0, 1024, 1024, 1024, 1024, 0, 6, 3760, 3752, 3815, 3799, 3804, 3796, 0, 1, 18600, -89.900, 0.000, -82.900, 0.000, 0.000, -2.900, 0.0, , , , , , 99, , , 0, 0, 0
38.0861236, -120.2285503, 39.600, 09:03:41.126, 13, 0.00, 0.09, 95, 0.600, 0.700, -83.800, 2, 100, 94, 17, 22743, -19235, 5288, 5567, 7, 14, 1525968221.127, 6, 0, 1024, 1024, 1024, 1024, 0, 6, 3760, 3752, 3815, 3799, 3804, 3796, 0, 1, 18701, -89.900, 0.000, -82.900, 0.000, 0.000, -3.000, 0.0, , , , , , 99, , , 0, 0, 0
38.0861236, -120.2285503, 39.900, 09:03:41.226, 13, 0.00, 0.09, 95, 0.500, 0.600, -83.800, 2, 100, 92, 17, 22743, -19235, 5288, 5567, 7, 14, 1525968221.226, 10, 0, 1024, 1024, 1024, 1024, 0, 6, 3760, 3752, 3815, 3799, 3804, 3796, 0, 1, 18800, -90.000, 0.000, -82.900, 0.000, 0.000, -2.900, 0.0, , , , , , 99, , , 0, 0, 0
38.0861237, -120.2285503, 40.200, 09:03:41.328, 13, 0.00, 0.08, 95, 0.400, 0.400, -83.800, 2, 100, 92, 17, 22743, -19235, 5288, 5567, 7, 14, 1525968221.329, 3, 0, 1024, 1024, 1024, 1024, 0, 6, 3760, 3752, 3815, 3799, 3804, 3796, 0, 1, 18903, -90.000, 0.000, -82.900, 0.000, 0.000, -2.900, 0.0, , , , , , 99, , , 0, 0, 0
38.0861237, -120.2285503, 40.200, 09:03:41.426, 13, 0.00, 0.08, 95, 0.400, 0.400, -83.800, 2, 100, 92, 17, 22743, -19235, 5288, 5567, 7, 14, 1525968221.427, 101, 0, 1024, 1024, 1024, 1024, 0, 6, 3760, 3752, 3815, 3799, 3804, 3796, 0, 1, 19001, -90.000, 0.000, -82.900, 0.000, 0.000, -2.900, 0.0, , , , , , 99, , , 0, 0, 0
38.0861237, -120.2285502, 40.800, 09:03:41.526, 13, 0.00, 0.07, 95, 0.100, 0.300, -83.800, 2, 100, 92, 17, 22743, -19235, 5288, 5567, 7, 14, 1525968221.527, 81, 0, 1024, 1024, 1024, 1024, 0, 6, 3760, 3752, 3815, 3799, 3804, 3796, 0, 1, 19101, -90.000, 0.000, -82.900, 0.000, 0.000, -3.000, 0.0, , , , , , 99, , , 0, 0, 0
38.0861238, -120.2285502, 41.100, 09:03:41.626, 13, 0.00, 0.07, 95, 0.000, 0.200, -83.800, 2, 100, 92, 17, 22743, -19235, 5288, 5567, 7, 14, 1525968221.627, 76, 0, 1024, 1024, 1024, 1024, 0, 6, 3760, 3752, 3815, 3799, 3804, 3796, 0, 1, 19201, -90.000, 0.000, -82.900, 0.000, 0.000, -2.900, 0.0, , , , , , 99, , , 0, 0, 0
38.0861238, -120.2285502, 41.400, 09:03:41.726, 13, 0.00, 0.07, 95, 0.000, 0.200, -83.800, 2, 100, 92, 17, 22743, -19235, 5288, 5567, 7, 14, 1525968221.727, 94, 0, 1024, 1024, 1024, 1024, 0, 6, 3760, 3752, 3815, 3799, 3804, 3796, 0, 1, 19301, -90.000, 0.000, -82.900, 0.000, 0.000, -2.900, 0.0, , , , , , 99, , , 0, 0, 0
38.0861238, -120.2285502, 42.000, 09:03:41.836, 13, 0.00, 0.07, 95, 0.200, 0.500, -83.800, 2, 100, 95, 17, 22741, -18769, 5288, 5567, 7, 14, 1525968221.836, 8, 0, 1024, 1024, 1024, 1024, 0, 6, 3766, 3758, 3812, 3794, 3816, 3787, 0, 1, 19410, -89.900, 0.000, -82.900, 0.000, 0.000, -2.900, 0.0, , , , , , 99, , , 0, 0, 0
38.0861238, -120.2285502, 42.000, 09:03:41.926, 13, 0.00, 0.07, 95, 0.200, 0.500, -83.800, 2, 100, 95, 17, 22741, -18769, 5288, 5567, 7, 14, 1525968221.927, 98, 0, 1024, 1024, 1024, 1024, 0, 6, 3766, 3758, 3812, 3794, 3816, 3787, 0, 1, 19501, -89.900, 0.000, -82.900, 0.000, 0.000, -2.900, 0.0, , , , , , 99, , , 0, 0, 0
38.0861238, -120.2285502, 42.200, 09:03:42.026, 13, 0.00, 0.07, 95, 0.400, 0.500, -83.800, 2, 100, 95, 17, 22741, -18769, 5288, 5567, 7, 14, 1525968222.026, 92, 0, 1024, 1024, 1024, 1024, 0, 6, 3766, 3758, 3812, 3794, 3816, 3787, 0, 1, 19600, -89.900, 0.000, -82.900, 0.000, 0.000, -2.900, 0.0, , , , , , 99, , , 0, 0, 0
38.0861238, -120.2285502, 42.500, 09:03:42.126, 13, 0.00, 0.07, 95, 0.400, 0.600, -83.800, 2, 100, 95, 17, 22741, -18769, 5288, 5567, 7, 14, 1525968222.127, 71, 0, 1024, 1024, 1024, 1024, 0, 6, 3766, 3758, 3812, 3794, 3816, 3787, 0, 1, 19701, -89.900, 0.000, -82.900, 0.000, 0.000, -3.000, 0.0, , , , , , 99, , , 0, 0, 0
38.0861238, -120.2285502, 42.800, 09:03:42.226, 13, 0.00, 0.07, 95, 0.500, 0.700, -83.800, 2, 100, 95, 17, 22741, -18769, 5288, 5567, 7, 14, 1525968222.227, 68, 0, 1024, 1024, 1024, 1024, 0, 6, 3766, 3758, 3812, 3794, 3816, 3787, 0, 1, 19801, -89.900, 0.000, -82.900, 0.000, 0.000, -3.000, 0.0, , , , , , 99, , , 0, 0, 0
38.0861238, -120.2285502, 43.100, 09:03:42.326, 13, 0.00, 0.07, 95, 0.400, 0.800, -83.800, 2, 100, 91, 17, 22710, -18935, 5288, 5567, 7, 14, 1525968222.327, 67, 0, 1024, 1024, 1024, 1024, 0, 6, 3767, 3750, 3807, 3790, 3815, 3785, 0, 1, 19901, -89.900, 0.000, -82.900, 0.000, 0.000, -2.900, 0.0, , , , , , 99, , , 0, 0, 0
38.0861238, -120.2285502, 43.400, 09:03:42.426, 13, 0.00, 0.07, 95, 0.300, 0.700, -83.800, 2, 100, 91, 17, 22710, -18935, 5288, 5567, 7, 14, 1525968222.427, 58, 0, 1024, 1024, 1024, 1024, 0, 6, 3767, 3750, 3807, 3790, 3815, 3785, 0, 1, 20001, -89.900, 0.000, -82.900, 0.000, 0.000, -3.000, 0.0, , , , , , 99, , , 0, 0, 0
38.0861237, -120.2285502, 43.700, 09:03:42.526, 13, 0.00, 0.07, 95, 0.400, 0.600, -83.800, 2, 100, 91, 17, 22710, -18935, 5288, 5567, 7, 14, 1525968222.527, 59, 0, 1024, 1024, 1024, 1024, 0, 6, 3767, 3750, 3807, 3790, 3815, 3785, 0, 1, 20101, -89.900, 0.000, -82.900, 0.000, 0.000, -3.000, 0.0, , , , , , 99, , , 0, 0, 0
38.0861237, -120.2285502, 44.000, 09:03:42.626, 13, 0.00, 0.07, 95, 0.700, 0.300, -83.900, 2, 100, 91, 17, 22710, -18935, 5288, 5567, 7, 14, 1525968222.628, 46, 0, 1024, 1024, 1024, 1024, 0, 6, 3767, 3750, 3807, 3790, 3815, 3785, 0, 1, 20203, -90.000, 0.000, -82.900, 0.000, 0.000, -3.000, 0.0, , , , , , 99, , , 0, 0, 0
38.0861237, -120.2285501, 44.300, 09:03:42.726, 13, 0.00, 0.07, 95, 0.900, 0.100, -83.900, 2, 100, 91, 17, 22710, -18935, 5288, 5567, 7, 14, 1525968222.727, 41, 0, 1024, 1024, 1024, 1024, 0, 6, 3767, 3750, 3807, 3790, 3815, 3785, 0, 1, 20301, -90.000, 0.000, -82.900, 0.000, 0.000, -3.000, 0.0, , , , , , 99, , , 0, 0, 0
38.0861237, -120.2285501, 44.700, 09:03:42.826, 13, 0.00, 0.07, 95, 0.900, 0.000, -84.000, 2, 100, 92, 17, 22710, -18935, 5288, 5567, 7, 14, 1525968222.827, 40, 0, 1024, 1024, 1024, 1024, 0, 6, 3767, 3750, 3807, 3790, 3815, 3785, 0, 1, 20401, -90.000, 0.000, -82.900, 0.000, 0.000, -3.000, 0.0, , , , , , 99, , , 0, 0, 0
38.0861237, -120.2285500, 45.000, 09:03:42.926, 13, 0.00, 0.06, 95, 0.900, -0.100, -84.000, 2, 100, 92, 17, 22710, -18935, 5288, 5567, 7, 14, 1525968222.927, 33, 0, 1024, 1024, 1024, 1024, 0, 6, 3767, 3750, 3807, 3790, 3815, 3785, 0, 1, 20501, -90.000, 0.000, -82.900, 0.000, 0.000, -3.000, 0.0, , , , , , 99, , , 0, 0, 0
38.0861237, -120.2285500, 45.300, 09:03:43.026, 13, 0.00, 0.06, 95, 0.800, -0.100, -83.900, 2, 100, 92, 17, 22710, -18935, 5288, 5567, 7, 14, 1525968223.026, 21, 0, 1024, 1024, 1024, 1024, 0, 6, 3767, 3750, 3807, 3790, 3815, 3785, 0, 1, 20600, -90.000, 0.000, -82.900, 0.000, 0.000, -3.000, 0.0, , , , , , 99, , , 0, 0, 0
38.0861237, -120.2285500, 45.600, 09:03:43.130, 13, 0.00, 0.06, 95, 0.500, 0.000, -83.900, 2, 100, 92, 17, 22710, -18935, 5288, 5567, 7, 14, 1525968223.130, 5, 0, 1024, 1024, 1024, 1024, 0, 6, 3767, 3750, 3807, 3790, 3815, 3785, 0, 1, 20705, -89.900, 0.000, -82.900, 0.000, 0.000, -3.000, 0.0, , , , , , 99, , , 0, 0, 0
38.0861237, -120.2285500, 45.900, 09:03:43.226, 13, 0.00, 0.06, 95, 0.300, 0.200, -83.800, 2, 100, 93, 18, 22660, -19033, 5288, 5567, 7, 14, 1525968223.227, 17, 0, 1024, 1024, 1024, 1024, 0, 6, 3767, 3750, 3807, 3790, 3815, 3785, 0, 1, 20801, -89.900, 0.000, -82.900, 0.000, 0.000, -3.000, 0.0, , , , , , 99, , , 0, 0, 0
38.0861237, -120.2285500, 46.200, 09:03:43.326, 13, 0.00, 0.06, 95, 0.300, 0.300, -83.700, 2, 100, 93, 18, 22660, -19033, 5288, 5567, 7, 14, 1525968223.327, 21, 0, 1024, 1024, 1024, 1024, 0, 6, 3767, 3750, 3807, 3790, 3815, 3785, 0, 1, 20901, -89.900, 0.000, -82.900, 0.000, 0.000, -2.900, 0.0, , , , , , 99, , , 0, 0, 0
38.0861237, -120.2285500, 46.500, 09:03:43.435, 13, 0.00, 0.06, 95, 0.300, 0.400, -83.600, 2, 100, 93, 18, 22660, -19033, 5288, 5567, 7, 14, 1525968223.435, 8, 0, 1024, 1024, 1024, 1024, 0, 6, 3767, 3750, 3807, 3790, 3815, 3785, 0, 1, 21009, -89.900, 0.000, -82.900, 0.000, 0.000, -2.900, 0.0, , , , , , 99, , , 0, 0, 0
38.0861238, -120.2285500, 47.100, 09:03:43.547, 13, 0.00, 0.06, 95, 0.300, 0.500, -83.600, 2, 100, 93, 18, 22660, -19033, 5288, 5567, 7, 14, 1525968223.547, 4, 0, 1024, 1024, 1024, 1024, 0, 6, 3767, 3750, 3807, 3790, 3815, 3785, 0, 1, 21121, -89.900, 0.000, -82.900, 0.000, 0.000, -2.900, 0.0, , , , , , 99, , , 0, 0, 0
38.0861238, -120.2285500, 47.100, 09:03:43.626, 13, 0.00, 0.06, 95, 0.300, 0.500, -83.600, 2, 100, 93, 18, 22660, -19033, 5288, 5567, 7, 14, 1525968223.627, 84, 0, 1024, 1024, 1024, 1024, 0, 6, 3767, 3750, 3807, 3790, 3815, 3785, 0, 1, 21201, -89.900, 0.000, -82.900, 0.000, 0.000, -2.900, 0.0, , , , , , 99, , , 0, 0, 0
38.0861238, -120.2285500, 47.300, 09:03:43.726, 13, 0.00, 0.05, 95, 0.100, 0.600, -83.600, 2, 100, 93, 18, 22660, -19033, 5288, 5567, 7, 14, 1525968223.727, 90, 0, 1024, 1024, 1024, 1024, 0, 6, 3767, 3750, 3807, 3790, 3815, 3785, 0, 1, 21301, -89.900, 0.000, -82.900, 0.000, 0.000, -2.900, 0.0, , , , , , 99, , , 0, 0, 0
