latitude,longitude,altitude(feet),ascent(feet),speed(mph),distance(feet),time(millisecond),datetime(utc),satellites,gpslevel,voltage(v),max_altitude(feet),max_ascent(feet),max_speed(mph),max_distance(feet), xSpeed(mph), ySpeed(mph), zSpeed(mph), compass_heading(degrees), pitch(degrees), roll(degrees),isPhoto,isVideo,rc_elevator,rc_aileron,rc_throttle,rc_rudder,gimbal_heading(degrees),gimbal_pitch(degrees),battery_percent,voltageCell1,voltageCell2,voltageCell3,voltageCell4,voltageCell5,voltageCell6,current(A),battery_temperature(f),flycStateRaw,flycState,message
38.0861238,-120.2285496,3871.443263978,0,0,0,3120,2018-05-10 16:03:26,11,0,0,3871.443263978,0,0,0,0,0,0,276.6, 0.4, -0.1,1,0,1024,1024,1024,1024,277.1,-89.9,97,4.075,4.057,4.053,4.094,4.093,4.078,0,62.6,11,AutoTakeoff,DJI_0001.jpg Starting Mission from Lat/Long: 38.08626/-120.22860 Camera: Zenmuse X3 - Overlap: 90/90 - Active Connection: No
38.0861238,-120.2285497,3871.443263978,0,0,0.0287167332024,3200,2018-05-10 16:03:26,11,0,0,3871.443263978,0,0,0.0287167332024,0,0,0,276.9, 0.6, 0,0,0,1024,1024,1024,1024,277.1,-89.9,97,4.075,4.057,4.053,4.094,4.093,4.078,0,62.6,11,AutoTakeoff,
38.0861238,-120.2285498,3871.443263978,0,0,0.057433400788,3300,2018-05-10 16:03:26,9,0,0,3871.443263978,0,0,0.057433400788,0,0,0,277, 1, 0,0,0,1024,1024,1024,1024,277.1,-89.9,97,4.075,4.057,4.053,4.094,4.093,4.078,0,62.6,11,AutoTakeoff,
38.0861238,-120.2285499,3871.771347978,0.328084,0,0.086150265224,3400,2018-05-10 16:03:26,9,0,0,3871.771347978,0.328084,0,0.086150265224,0,0,0,277.1, 0.9, 0,0,0,1024,1024,1024,1024,277.1,-89.9,97,4.075,4.057,4.053,4.094,4.093,4.078,0,62.6,11,AutoTakeoff,
38.0861238,-120.22855,3871.771347978,0.328084,0,0.114866801576,3500,2018-05-10 16:03:26,9,0,0,3871.771347978,0.328084,0,0.114866801576,0,0,0,277, 0.6, 0,0,0,1024,1024,1024,1024,277.1,-89.9,97,4.075,4.057,4.053,4.094,4.093,4.078,0,62.6,11,AutoTakeoff,
38.0861238,-120.22855,3872.099431978,0.656168,0,0.114866801576,3600,2018-05-10 16:03:26,9,0,0,3872.099431978,0.656168,0,0.114866801576,0,0,0,276.9, 0.4, 0,0,0,1024,1024,1024,1024,277.1,-89.9,97,4.075,4.057,4.053,4.094,4.093,4.078,0,62.6,11,AutoTakeoff,
38.0861237,-120.2285501,3872.099431978,0.656168,0,0.148146658284,3710,2018-05-10 16:03:26,8,0,0,3872.099431978,0.656168,0,0.148146658284,0,0,0,276.8, 0.4, 0.1,0,0,1024,1024,1024,1024,277.1,-89.9,97,4.075,4.057,4.053,4.094,4.093,4.078,0,62.6,11,AutoTakeoff,
38.0861237,-120.2285501,3872.427515978,0.984252,0,0.148146658284,3800,2018-05-10 16:03:26,8,0,0,3872.427515978,0.984252,0,0.148146658284,0,0,0,276.6, 0.6, 0.4,0,0,1024,1024,1024,1024,277.1,-89.9,97,4.075,4.057,4.053,4.094,4.093,4.078,0,62.6,11,AutoTakeoff,
38.0861236,-120.2285501,3872.427515978,0.984252,0,0.161061684944,3900,2018-05-10 16:03:26,8,0,0,3872.427515978,0.984252,0,0.161061684944,0,0,0,276.5, 0.4, 0.6,0,0,1024,1024,1024,1024,277.1,-89.9,97,4.075,4.057,4.053,4.094,4.093,4.078,0,62.6,11,AutoTakeoff,
38.0861236,-120.2285502,3872.755599978,1.312336,0,0.187115163468,4000,2018-05-10 16:03:26,8,0,24.75,3872.755599978,1.312336,0,0.187115163468,0,0,0,276.3, 0.3, 0.7,0,0,1024,1024,1024,1024,277.1,-89.9,97,4.075,4.057,4.053,4.094,4.093,4.078,6.087,62.6,11,AutoTakeoff,
38.0861235,-120.2285503,3872.755599978,1.312336,0,0.228884849844,4100,2018-05-10 16:03:27,8,0,24.75,3872.755599978,1.312336,0,0.228884849844,0,0,0,276.3, 0.2, 0.8,0,0,1024,1024,1024,1024,277.1,-89.9,97,4.075,4.057,4.053,4.094,4.093,4.078,6.087,62.6,11,AutoTakeoff,
38.0861235,-120.2285503,3873.083683978,1.64042,0,0.228884849844,4200,2018-05-10 16:03:27,8,0,24.75,3873.083683978,1.64042,0,0.228884849844,0,0,0,276.3, 0.1, 0.8,0,0,1024,1024,1024,1024,277.1,-89.9,97,4.075,4.057,4.053,4.094,4.093,4.078,6.087,62.6,11,AutoTakeoff,
38.0861235,-120.2285504,3873.083683978,1.64042,0,0.254476058012,4300,2018-05-10 16:03:27,8,0,24.75,3873.083683978,1.64042,0,0.254476058012,0,0,0,276.3, 0.3, 0.8,0,0,1024,1024,1024,1024,277.1,-89.9,97,4.075,4.057,4.053,4.094,4.093,4.078,6.087,62.6,11,AutoTakeoff,
38.0861235,-120.2285503,3873.411767978,1.968504,0,0.228884849844,4400,2018-05-10 16:03:27,8,0,24.75,3873.411767978,1.968504,0,0.254476058012,0,0,0,276.4, 0.4, 0.6,0,0,1024,1024,1024,1024,277.1,-89.9,97,4.075,4.057,4.053,4.094,4.093,4.078,6.087,62.6,11,AutoTakeoff,
38.0861234,-120.2285503,3873.739851978,2.296588,0,0.248407488264,4500,2018-05-10 16:03:27,8,0,24.75,3873.739851978,2.296588,0,0.254476058012,0,0,0,276.5, 0.2, 0.5,0,0,1024,1024,1024,1024,277.1,-89.9,97,4.075,4.057,4.053,4.094,4.093,4.078,6.087,62.6,11,AutoTakeoff,
38.0861234,-120.2285503,3873.739851978,2.296588,0,0.248407488264,4700,2018-05-10 16:03:27,9,0,24.75,3873.739851978,2.296588,0,0.254476058012,0,0,0,276.5, 0.1, 0.5,0,0,1024,1024,1024,1024,277.1,-89.9,97,4.075,4.057,4.053,4.094,4.093,4.078,6.087,62.6,11,AutoTakeoff,
38.0861234,-120.2285503,3874.067935978,2.624672,0,0.248407488264,4810,2018-05-10 16:03:27,8,0,24.75,3874.067935978,2.624672,0,0.254476058012,0,0,0,276.4, 0.1, 0.6,0,0,1024,1024,1024,1024,277.1,-89.9,97,4.075,4.057,4.053,4.094,4.093,4.078,6.087,62.6,11,AutoTakeoff,
38.0861234,-120.2285503,3874.396019978,2.952756,0,0.248407488264,5000,2018-05-10 16:03:27,8,0,23.779,3874.396019978,2.952756,0,0.254476058012,0,0,0,276.3, 0.1, 0.5,0,0,1024,1024,1024,1024,277.1,-89.9,97,3.932,3.916,3.961,3.965,3.981,3.961,15.784,62.6,6,P-GPS,
38.0861234,-120.2285503,3874.396019978,2.952756,0,0.248407488264,5100,2018-05-10 16:03:28,9,0,23.779,3874.396019978,2.952756,0,0.254476058012,0,0,0,276.3, 0, 0.5,0,0,1024,1024,1024,1024,277.1,-89.9,97,3.932,3.916,3.961,3.965,3.981,3.961,15.784,62.6,14,Waypoint,
38.0861233,-120.2285502,3874.724103978,3.28084,0,0.250930782308,5200,2018-05-10 16:03:28,9,0,23.779,3874.724103978,3.28084,0,0.254476058012,0,0,0,276.2, -0.2, 0.3,0,0,1024,1024,1024,1024,277.1,-89.9,97,3.932,3.916,3.961,3.965,3.981,3.961,15.784,62.6,14,Waypoint,
38.0861233,-120.2285502,3874.724103978,3.28084,0,0.250930782308,5300,2018-05-10 16:03:28,7,0,23.779,3874.724103978,3.28084,0,0.254476058012,0,0,0,276.1, -0.4, 0.3,0,0,1024,1024,1024,1024,277.1,-90,97,3.932,3.916,3.961,3.965,3.981,3.961,15.784,62.6,14,Waypoint,
38.0861233,-120.2285503,3874.724103978,3.28084,0,0.271452764592,5400,2018-05-10 16:03:28,7,0,23.779,3874.724103978,3.28084,0,0.271452764592,0,0,0,276.1, -0.4, 0.3,0,0,1024,1024,1024,1024,277.1,-89.9,97,3.932,3.916,3.961,3.965,3.981,3.961,15.784,62.6,14,Waypoint,
38.0861233,-120.2285503,3875.052187978,3.608924,0,0.271452764592,5500,2018-05-10 16:03:28,7,0,23.779,3875.052187978,3.608924,0,0.271452764592,0,0,0,276.1, -0.2, 0.4,0,0,1024,1024,1024,1024,277.1,-89.9,97,3.932,3.916,3.961,3.965,3.981,3.961,15.784,62.6,14,Waypoint,
38.0861233,-120.2285502,3875.052187978,3.608924,0,0.250930782308,5600,2018-05-10 16:03:28,7,0,23.779,3875.052187978,3.608924,0,0.271452764592,0,0,-0.223694,276.1, -0.1, 0.5,0,0,1024,1024,1024,1024,277.1,-89.9,97,3.932,3.916,3.961,3.965,3.981,3.961,15.784,62.6,14,Waypoint,
38.0861233,-120.2285502,3875.380271978,3.937008,0,0.250930782308,5710,2018-05-10 16:03:28,7,0,23.779,3875.380271978,3.937008,0,0.271452764592,0,0,-0.223694,276.1, 0, 0.6,0,0,1024,1024,1024,1024,277.1,-89.9,97,3.932,3.916,3.961,3.965,3.981,3.961,15.784,62.6,14,Waypoint,
38.0861232,-120.2285502,3875.708355978,4.265092,0,0.278583670332,5800,2018-05-10 16:03:28,7,0,23.779,3875.708355978,4.265092,0,0.278583670332,0,0,-0.223694,276.1, 0, 0.6,0,0,1024,1024,1024,1024,277.1,-89.9,97,3.932,3.916,3.961,3.965,3.981,3.961,15.784,62.6,14,Waypoint,
38.0861232,-120.2285502,3876.036439978,4.593176,0,0.278583670332,5900,2018-05-10 16:03:28,7,0,23.779,3876.036439978,4.593176,0,0.278583670332,0,0,-0.223694,276.2, 0, 0.8,0,0,1024,1024,1024,1024,277.1,-89.9,97,3.932,3.916,3.961,3.965,3.981,3.961,15.784,62.6,14,Waypoint,
38.0861231,-120.2285502,3876.364523978,4.92126,0,0.30808071852,6000,2018-05-10 16:03:28,7,0,23.505,3876.364523978,4.92126,0,0.30808071852,0,0,-0.223694,276.2, -0.1, 0.9,0,0,1024,1024,1024,1024,277.1,-89.9,97,3.89,3.887,3.927,3.914,3.937,3.917,16.676,62.6,14,Waypoint,
38.086123,-120.2285502,3876.692607978,5.249344,0,0.33894029956,6100,2018-05-10 16:03:29,9,0,23.505,3876.692607978,5.249344,0,0.33894029956,0,0,-0.223694,276.3, -0.1, 1.1,0,0,1024,1024,1024,1024,277.1,-89.9,97,3.89,3.887,3.927,3.914,3.937,3.917,16.676,62.6,14,Waypoint,
38.0861229,-120.2285503,3877.348775978,5.905512,0,0.385006574,6220,2018-05-10 16:03:29,9,0,23.505,3877.348775978,5.905512,0,0.385006574,0,0,-0.447388,276.3, 0, 1.2,0,0,1024,1024,1024,1024,277.1,-89.9,97,3.89,3.887,3.927,3.914,3.937,3.917,16.676,62.6,14,Waypoint,
38.0861229,-120.2285504,3878.004943978,6.56168,0,0.40075132516,6300,2018-05-10 16:03:29,9,0,23.505,3878.004943978,6.56168,0,0.40075132516,0,0,-0.447388,276.3, 0.2, 1,0,0,1024,1024,1024,1024,277.1,-89.9,97,3.89,3.887,3.927,3.914,3.937,3.917,16.676,62.6,14,Waypoint,
38.0861229,-120.2285505,3878.661111978,7.217848,0,0.41787402912,6400,2018-05-10 16:03:29,9,0,23.505,3878.661111978,7.217848,0,0.41787402912,0,0,-0.447388,276.3, 0.4, 1,0,0,1024,1024,1024,1024,277.1,-89.9,97,3.89,3.887,3.927,3.914,3.937,3.917,16.676,62.6,14,Waypoint,
38.0861228,-120.2285505,3879.317279978,7.874016,0,0.44711615604,6500,2018-05-10 16:03:29,8,0,23.505,3879.317279978,7.874016,0,0.44711615604,0,0,-0.447388,276.3, 0.5, 0.8,0,0,1024,1024,1024,1024,277.1,-89.9,97,3.89,3.887,3.927,3.914,3.937,3.917,16.676,62.6,14,Waypoint,
38.0861228,-120.2285505,3879.973447978,8.530184,0,0.44711615604,6600,2018-05-10 16:03:29,8,0,23.505,3879.973447978,8.530184,0,0.44711615604,0,0,-0.671082,276.4, 0.5, 0.8,0,0,1024,1024,1024,1024,277.1,-89.9,97,3.89,3.887,3.927,3.914,3.937,3.917,16.676,62.6,14,Waypoint,
38.0861228,-120.2285505,3881.941951978,10.498688,0,0.44711615604,6810,2018-05-10 16:03:29,7,0,23.505,3881.941951978,10.498688,0,0.44711615604,0,0,-0.671082,276.3, 0.1, 0.8,0,0,1024,1024,1024,1024,277.1,-89.9,97,3.89,3.887,3.927,3.914,3.937,3.917,16.676,62.6,14,Waypoint,
38.0861228,-120.2285504,3882.926203978,11.48294,0,0.4311515886,6910,2018-05-10 16:03:29,7,0,23.505,3882.926203978,11.48294,0,0.44711615604,0,0,-0.671082,276.3, 0, 0.8,0,0,1024,1024,1024,1024,277.1,-89.9,97,3.89,3.887,3.927,3.914,3.937,3.917,16.676,62.6,14,Waypoint,
38.0861229,-120.2285505,3885.222791978,13.779528,0,0.41787402912,7010,2018-05-10 16:03:29,8,0,23.388,3885.222791978,13.779528,0,0.44711615604,0,0,-0.671082,276.3, 0, 0.4,0,0,1024,1024,1024,1024,277.1,-89.9,97,3.833,3.827,3.871,3.853,3.881,3.921,16.902,62.6,14,Waypoint,
38.0861229,-120.2285505,3886.207043978,14.76378,0,0.41787402912,7120,2018-05-10 16:03:30,8,0,23.388,3886.207043978,14.76378,0,0.44711615604,0,0,-0.671082,276.3, 0, 0.2,0,0,1024,1024,1024,1024,277.1,-89.9,97,3.833,3.827,3.871,3.853,3.881,3.921,16.902,62.6,14,Waypoint,
38.0861229,-120.2285505,3886.207043978,14.76378,0,0.41787402912,7200,2018-05-10 16:03:30,8,0,23.388,3886.207043978,14.76378,0,0.44711615604,0,0,-0.671082,276.3, 0, 0.2,0,0,1024,1024,1024,1024,277.1,-89.9,97,3.833,3.827,3.871,3.853,3.881,3.921,16.902,62.6,14,Waypoint,
38.0861228,-120.2285505,3887.519379978,16.076116,0,0.44711615604,7300,2018-05-10 16:03:30,8,0,23.388,3887.519379978,16.076116,0,0.44711615604,0,0,-0.671082,276.3, 0.1, 0.2,0,0,1024,1024,1024,1024,277.1,-89.9,97,3.833,3.827,3.871,3.853,3.881,3.921,16.902,62.6,14,Waypoint,
38.0861227,-120.2285506,3888.503631978,17.060368,0,0.49349082944,7400,2018-05-10 16:03:30,8,0,23.388,3888.503631978,17.060368,0,0.49349082944,0,0,-0.671082,276.3, 0.3, 0.4,0,0,1024,1024,1024,1024,277.1,-89.9,97,3.833,3.827,3.871,3.853,3.881,3.921,16.902,62.6,14,Waypoint,
38.0861226,-120.2285506,3889.487883978,18.04462,0,0.52359253644,7500,2018-05-10 16:03:30,8,0,23.388,3889.487883978,18.04462,0,0.52359253644,0,0,-0.671082,276.3, 0.4, 0.7,0,0,1024,1024,1024,1024,277.1,-89.9,97,3.833,3.827,3.871,3.853,3.881,3.921,16.902,62.6,14,Waypoint,
38.0861225,-120.2285507,3890.800219978,19.356956,0,0.5698655038,7600,2018-05-10 16:03:30,8,0,23.388,3890.800219978,19.356956,0,0.5698655038,0,0,-0.671082,276.2, 0.6, 0.9,0,0,1024,1024,1024,1024,277.1,-89.9,97,3.833,3.827,3.871,3.853,3.881,3.921,16.902,62.6,14,Waypoint,
38.0861225,-120.2285508,3891.784471978,20.341208,0,0.58627298464,7700,2018-05-10 16:03:30,7,0,23.388,3891.784471978,20.341208,0,0.58627298464,0,0,-0.671082,276.2, 0.8, 0.9,0,0,1024,1024,1024,1024,277.1,-89.9,97,3.833,3.827,3.871,3.853,3.881,3.921,16.902,62.6,14,Waypoint,
38.0861225,-120.2285507,3893.096807978,21.653544,0,0.5698655038,7800,2018-05-10 16:03:30,7,0,23.388,3893.096807978,21.653544,0,0.58627298464,0,0,-0.671082,276.2, 0.7, 1,0,0,1024,1024,1024,1024,277.1,-89.9,97,3.833,3.827,3.871,3.853,3.881,3.921,16.902,62.6,14,Waypoint,
38.0861225,-120.2285507,3894.081059978,22.637796,0,0.5698655038,7900,2018-05-10 16:03:30,8,0,23.388,3894.081059978,22.637796,0,0.58627298464,0,0,-0.671082,276.2, 0.3, 0.9,0,0,1024,1024,1024,1024,277.1,-89.9,97,3.833,3.827,3.871,3.853,3.881,3.921,16.902,62.6,14,Waypoint,
38.0861225,-120.2285506,3895.065311978,23.622048,0,0.55446196,8000,2018-05-10 16:03:30,8,0,22.724,3895.065311978,23.622048,0,0.58627298464,0,0,-0.671082,276.2, 0.1, 0.7,0,0,1024,1024,1024,1024,277.1,-90,96,3.733,3.734,3.779,3.774,3.791,3.79,23.398,62.6,14,Waypoint,
38.0861225,-120.2285505,3897.361899978,25.918636,0,0.54014765508,8200,2018-05-10 16:03:31,8,0,22.724,3897.361899978,25.918636,0,0.58627298464,0,0,-0.671082,276.3, 0, 0.6,0,0,1024,1024,1024,1024,277.1,-89.9,96,3.733,3.734,3.779,3.774,3.791,3.79,23.398,62.6,14,Waypoint,
38.0861225,-120.2285505,3898.346151978,26.902888,0,0.54014765508,8300,2018-05-10 16:03:31,9,0,22.724,3898.346151978,26.902888,0,0.58627298464,0,0,-0.671082,276.3, 0, 0.5,0,0,1024,1024,1024,1024,277.1,-89.9,96,3.733,3.734,3.779,3.774,3.791,3.79,23.398,62.6,14,Waypoint,
38.0861224,-120.2285505,3899.658487978,28.215224,0,0.57245408656,8400,2018-05-10 16:03:31,9,0,22.724,3899.658487978,28.215224,0,0.58627298464,0,0,-0.671082,276.3, 0.1, 0.5,0,0,1024,1024,1024,1024,277.1,-89.9,96,3.733,3.734,3.779,3.774,3.791,3.79,23.398,62.6,14,Waypoint,
38.0861224,-120.2285505,3900.642739978,29.199476,0,0.57245408656,8500,2018-05-10 16:03:31,10,0,22.724,3900.642739978,29.199476,0,0.58627298464,0,0,-0.671082,276.3, 0.2, 0.8,0,0,1024,1024,1024,1024,277.1,-89.9,96,3.733,3.734,3.779,3.774,3.791,3.79,23.398,62.6,14,Waypoint,
38.0861223,-120.2285505,3901.626991978,30.183728,0,0.605232959,8600,2018-05-10 16:03:31,10,0,22.724,3901.626991978,30.183728,0,0.605232959,0,0,-0.671082,276.3, 0.3, 1.1,0,0,1024,1024,1024,1024,277.1,-89.9,96,3.733,3.734,3.779,3.774,3.791,3.79,23.398,62.6,14,Waypoint,
38.0861222,-120.2285504,3902.611243978,31.16798,0,0.62733597808,8800,2018-05-10 16:03:31,10,0,22.724,3902.611243978,31.16798,0,0.62733597808,0,0,-0.671082,276.3, 0.2, 1.2,0,0,1024,1024,1024,1024,277.1,-89.9,96,3.733,3.734,3.779,3.774,3.791,3.79,23.398,62.6,14,Waypoint,
38.0861223,-120.2285504,3903.595495978,32.152232,0,0.5935367644,8900,2018-05-10 16:03:31,10,0,22.724,3903.595495978,32.152232,0,0.62733597808,0,0,-0.671082,276.3, 0.1, 1.1,0,0,1024,1024,1024,1024,277.1,-90,96,3.733,3.734,3.779,3.774,3.791,3.79,23.398,62.6,14,Waypoint,
38.0861223,-120.2285503,3904.907831978,33.464568,0,0.58302495304,9010,2018-05-10 16:03:31,11,0,22.869,3904.907831978,33.464568,0,0.62733597808,0,0,-0.671082,276.2, 0, 1.1,0,0,1024,1024,1024,1024,277.1,-90,96,3.733,3.734,3.779,3.774,3.791,3.79,20.085,62.6,14,Waypoint,
38.0861223,-120.2285502,3906.876335978,35.433072,0,0.57375658004,9200,2018-05-10 16:03:32,11,0,22.869,3906.876335978,35.433072,0,0.62733597808,0,0,-0.671082,276.1, 0, 0.7,0,0,1024,1024,1024,1024,277.1,-90,96,3.733,3.734,3.779,3.774,3.791,3.79,20.085,62.6,14,Waypoint,
38.0861225,-120.2285501,3907.860587978,36.417324,0,0.49556103948,9400,2018-05-10 16:03:32,11,0,22.869,3907.860587978,36.417324,0,0.62733597808,0,0,-0.671082,276.1, 0, 0.5,0,0,1024,1024,1024,1024,277.1,-90,96,3.733,3.734,3.779,3.774,3.791,3.79,20.085,62.6,14,Waypoint,
38.0861226,-120.22855,3908.844839978,37.401576,0,0.45263780976,9600,2018-05-10 16:03:32,10,0,22.869,3908.844839978,37.401576,0,0.62733597808,0,0,-0.671082,276.1, -0.1, 0.2,0,0,1024,1024,1024,1024,277.1,-90,96,3.733,3.734,3.779,3.774,3.791,3.79,20.085,62.6,14,Waypoint,
38.0861227,-120.2285499,3909.829091978,38.385828,0,0.41047573492,9700,2018-05-10 16:03:32,10,0,22.869,3909.829091978,38.385828,0,0.62733597808,0,0,-0.671082,276.1, -0.2, -0.1,0,0,1024,1024,1024,1024,277.1,-90,96,3.733,3.734,3.779,3.774,3.791,3.79,20.085,62.6,14,Waypoint,
38.0861228,-120.2285499,3910.813343978,39.37008,0,0.37488190176,9900,2018-05-10 16:03:32,11,0,22.869,3910.813343978,39.37008,0,0.62733597808,0,0,-0.671082,276.1, -0.2, -0.2,0,0,1024,1024,1024,1024,277.1,-90,96,3.733,3.734,3.779,3.774,3.791,3.79,20.085,62.6,14,Waypoint,
38.0861232,-120.2285498,3912.781847978,41.338584,0,0.226318576796,10010,2018-05-10 16:03:32,11,0,22.869,3912.781847978,41.338584,0,0.62733597808,0,0,-0.671082,276.2, 0, -0.4,0,0,1024,1024,1024,1024,277.1,-89.9,96,3.789,3.79,3.844,3.832,3.855,3.823,20.085,62.6,14,Waypoint,
38.0861233,-120.2285497,3914.750351978,43.307088,0,0.184671265752,10200,2018-05-10 16:03:33,10,0,22.869,3914.750351978,43.307088,0,0.62733597808,0,0,-0.671082,276.2, 0, -0.6,0,0,1024,1024,1024,1024,277.1,-89.9,96,3.789,3.79,3.844,3.832,3.855,3.823,20.085,62.6,14,Waypoint,
38.0861233,-120.2285498,3916.062687978,44.619424,0,0.191251974624,10300,2018-05-10 16:03:33,10,0,22.869,3916.062687978,44.619424,0,0.62733597808,0,0,-0.671082,276.2, 0.1, -0.4,0,0,1024,1024,1024,1024,277.1,-89.9,96,3.789,3.79,3.844,3.832,3.855,3.823,20.085,62.6,14,Waypoint,
38.0861232,-120.2285499,3918.031191978,46.587928,0,0.235251647948,10520,2018-05-10 16:03:33,11,0,22.869,3918.031191978,46.587928,0,0.62733597808,0,0,-0.671082,276.1, 0.6, 0.4,0,0,1024,1024,1024,1024,277.1,-89.9,96,3.789,3.79,3.844,3.832,3.855,3.823,20.085,62.6,14,Waypoint,
38.0861232,-120.2285499,3918.031191978,46.587928,0,0.235251647948,10600,2018-05-10 16:03:33,11,0,22.869,3918.031191978,46.587928,0,0.62733597808,0,0,-0.671082,276.1, 0.6, 0.4,0,0,1024,1024,1024,1024,277.1,-89.9,96,3.789,3.79,3.844,3.832,3.855,3.823,20.085,62.6,14,Waypoint,
38.0861232,-120.2285499,3919.999695978,48.556432,0,0.235251647948,10700,2018-05-10 16:03:33,11,0,22.869,3919.999695978,48.556432,0,0.62733597808,0,0,-0.671082,276, 0.5, 0.8,0,0,1024,1024,1024,1024,277.1,-89.9,96,3.789,3.79,3.844,3.832,3.855,3.823,20.085,62.6,14,Waypoint,
38.0861232,-120.2285499,3922.624367978,51.181104,0,0.235251647948,10900,2018-05-10 16:03:33,10,0,22.869,3922.624367978,51.181104,0,0.62733597808,0,0,-0.671082,276.2, 0.2, 0.4,0,0,1024,1024,1024,1024,277.1,-89.9,96,3.789,3.79,3.844,3.832,3.855,3.823,20.085,62.6,14,Waypoint,
38.0861233,-120.2285498,3923.608619978,52.165356,0,0.191251974624,11000,2018-05-10 16:03:33,10,0,23.011,3923.608619978,52.165356,0,0.62733597808,0,0,-0.671082,276.2, 0.1, 0.2,0,0,1024,1024,1024,1024,277.1,-89.9,96,3.802,3.802,3.854,3.839,3.863,3.834,18.813,62.6,14,Waypoint,
38.0861234,-120.2285498,3924.592871978,53.149608,0,0.156834322604,11100,2018-05-10 16:03:34,11,0,23.011,3924.592871978,53.149608,0,0.62733597808,0,0,-0.671082,276.3, 0, -0.1,0,0,1024,1024,1024,1024,277.1,-89.9,96,3.802,3.802,3.854,3.839,3.863,3.834,18.813,62.6,14,Waypoint,
38.0861234,-120.2285497,3926.561375978,55.118112,0,0.148738193736,11200,2018-05-10 16:03:34,12,0,23.011,3926.561375978,55.118112,0,0.62733597808,0,0,-0.671082,276.2, 0, -0.2,0,0,1024,1024,1024,1024,277.1,-90,96,3.802,3.802,3.854,3.839,3.863,3.834,18.813,62.6,14,Waypoint,
38.0861235,-120.2285497,3927.545627978,56.102364,0,0.113159124356,11300,2018-05-10 16:03:34,12,0,23.011,3927.545627978,56.102364,0,0.62733597808,0,0,-0.671082,276.1, -0.1, 0,0,0,1024,1024,1024,1024,277.1,-90,96,3.802,3.802,3.854,3.839,3.863,3.834,18.813,62.6,14,Waypoint,
38.0861234,-120.2285497,3929.514131978,58.070868,0,0.148738193736,11400,2018-05-10 16:03:34,11,0,23.011,3929.514131978,58.070868,0,0.62733597808,0,0,-0.671082,275.9, 0, 0.4,0,0,1024,1024,1024,1024,277.1,-89.9,96,3.802,3.802,3.854,3.839,3.863,3.834,18.813,62.6,14,Waypoint,
38.0861233,-120.2285497,3930.498383978,59.05512,0,0.184671265752,11510,2018-05-10 16:03:34,11,0,23.011,3930.498383978,59.05512,0,0.62733597808,0,0,-0.671082,275.9, 0, 0.7,0,0,1024,1024,1024,1024,277.1,-89.9,96,3.802,3.802,3.854,3.839,3.863,3.834,18.813,62.6,14,Waypoint,
38.0861232,-120.2285499,3932.466887978,61.023624,0,0.235251647948,11600,2018-05-10 16:03:34,12,0,23.011,3932.466887978,61.023624,0,0.62733597808,0,0,-0.671082,276.1, 0.5, 1,0,0,1024,1024,1024,1024,277.1,-89.9,96,3.802,3.802,3.854,3.839,3.863,3.834,18.813,62.6,14,Waypoint,
38.0861232,-120.22855,3934.435391978,62.992128,0,0.24721621526,11810,2018-05-10 16:03:34,11,0,23.011,3934.435391978,62.992128,0,0.62733597808,0,0,-0.671082,276.3, 0.8, 0.8,0,0,1024,1024,1024,1024,277.1,-89.9,96,3.802,3.802,3.854,3.839,3.863,3.834,18.813,62.6,14,Waypoint,
38.0861232,-120.22855,3934.435391978,62.992128,0,0.24721621526,11900,2018-05-10 16:03:34,11,0,23.011,3934.435391978,62.992128,0,0.62733597808,0,0,-0.671082,276.3, 0.8, 0.8,0,0,1024,1024,1024,1024,277.1,-89.9,96,3.802,3.802,3.854,3.839,3.863,3.834,18.813,62.6,14,Waypoint,
38.0861232,-120.2285501,3935.419643978,63.97638,0,0.261796924388,12000,2018-05-10 16:03:34,11,0,22.949,3935.419643978,63.97638,0,0.62733597808,0,0,-0.671082,276.3, 0.8, 0.7,0,0,1024,1024,1024,1024,277.1,-89.9,96,3.802,3.798,3.841,3.824,3.856,3.828,19.105,62.6,14,Waypoint,
38.0861232,-120.2285502,3936.403895978,64.960632,0,0.278583670332,12100,2018-05-10 16:03:35,12,0,22.949,3936.403895978,64.960632,0,0.62733597808,0,0,-0.671082,276.4, 0.8, 0.5,0,0,1024,1024,1024,1024,277.1,-89.9,96,3.802,3.798,3.841,3.824,3.856,3.828,19.105,62.6,14,Waypoint,
38.0861232,-120.2285503,3937.388147978,65.944884,0,0.297202437332,12200,2018-05-10 16:03:35,12,0,22.949,3937.388147978,65.944884,0,0.62733597808,0,0,-0.671082,276.4, 0.8, 0.3,0,0,1024,1024,1024,1024,277.1,-89.9,96,3.802,3.798,3.841,3.824,3.856,3.828,19.105,62.6,14,Waypoint,
38.0861232,-120.2285503,3938.372399978,66.929136,0,0.297202437332,12300,2018-05-10 16:03:35,11,0,22.949,3938.372399978,66.929136,0,0.62733597808,0,0,-0.671082,276.4, 0.8, 0.3,0,0,1024,1024,1024,1024,277.1,-89.9,96,3.802,3.798,3.841,3.824,3.856,3.828,19.105,62.6,14,Waypoint,
38.0861231,-120.2285503,3939.356651978,67.913388,0,0.325014118012,12400,2018-05-10 16:03:35,11,0,22.949,3939.356651978,67.913388,0,0.62733597808,0,0,-0.671082,276.4, 0.7, 0.4,0,0,1024,1024,1024,1024,277.1,-89.9,96,3.802,3.798,3.841,3.824,3.856,3.828,19.105,62.6,14,Waypoint,
38.086123,-120.2285503,3940.340903978,68.89764,0,0.35440289848,12500,2018-05-10 16:03:35,11,0,22.949,3940.340903978,68.89764,0,0.62733597808,0,0,-0.671082,276.4, 0.5, 0.7,0,0,1024,1024,1024,1024,277.1,-89.9,96,3.802,3.798,3.841,3.824,3.856,3.828,19.105,62.6,14,Waypoint,
38.0861231,-120.2285503,3941.325155978,69.881892,0,0.325014118012,12600,2018-05-10 16:03:35,11,0,22.949,3941.325155978,69.881892,0,0.62733597808,0,0,-0.671082,276.3, 0.4, 0.8,0,0,1024,1024,1024,1024,277.1,-89.9,96,3.802,3.798,3.841,3.824,3.856,3.828,19.105,62.6,14,Waypoint,
38.0861232,-120.2285503,3942.309407978,70.866144,0,0.297202437332,12700,2018-05-10 16:03:35,11,0,22.949,3942.309407978,70.866144,0,0.62733597808,0,0,-0.671082,276.3, 0.4, 0.7,0,0,1024,1024,1024,1024,277.1,-89.9,96,3.802,3.798,3.841,3.824,3.856,3.828,19.105,62.6,14,Waypoint,
38.0861232,-120.2285503,3943.293659978,71.850396,0,0.297202437332,12800,2018-05-10 16:03:35,11,0,22.949,3943.293659978,71.850396,0,0.62733597808,0,0,-0.671082,276.2, 0.4, 0.5,0,0,1024,1024,1024,1024,277.1,-89.9,96,3.802,3.798,3.841,3.824,3.856,3.828,19.105,62.6,14,Waypoint,
38.0861232,-120.2285504,3944.277911978,72.834648,0,0.3173310469,12900,2018-05-10 16:03:35,11,0,22.949,3944.277911978,72.834648,0,0.62733597808,0,0,-0.671082,276.2, 0.6, 0.3,0,0,1024,1024,1024,1024,277.1,-89.9,96,3.802,3.798,3.841,3.824,3.856,3.828,19.105,62.6,14,Waypoint,
38.0861232,-120.2285503,3945.262163978,73.8189,0,0.297202437332,13000,2018-05-10 16:03:35,11,0,22.935,3945.262163978,73.8189,0,0.62733597808,0,0,-0.671082,276.1, 0.6, 0.2,0,0,1024,1024,1024,1024,277.1,-89.9,96,3.791,3.779,3.836,3.818,3.845,3.818,19.133,62.6,14,Waypoint,
38.0861232,-120.2285503,3946.246415978,74.803152,0,0.297202437332,13100,2018-05-10 16:03:36,11,0,22.935,3946.246415978,74.803152,0,0.62733597808,0,0,-0.671082,276.1, 0.5, 0.2,0,0,1024,1024,1024,1024,277.1,-89.9,96,3.791,3.779,3.836,3.818,3.845,3.818,19.133,62.6,14,Waypoint,
38.0861232,-120.2285503,3947.230667978,75.787404,0,0.297202437332,13200,2018-05-10 16:03:36,11,0,22.935,3947.230667978,75.787404,0,0.62733597808,0,0,-0.671082,276, 0.4, 0.3,0,0,1024,1024,1024,1024,277.1,-90,96,3.791,3.779,3.836,3.818,3.845,3.818,19.133,62.6,14,Waypoint,
38.0861232,-120.2285503,3948.543003978,77.09974,0,0.297202437332,13300,2018-05-10 16:03:36,11,0,22.935,3948.543003978,77.09974,0,0.62733597808,0,0,-0.671082,276, 0.3, 0.4,0,0,1024,1024,1024,1024,277.1,-89.9,96,3.791,3.779,3.836,3.818,3.845,3.818,19.133,62.6,14,Waypoint,
38.0861232,-120.2285503,3949.527255978,78.083992,0,0.297202437332,13400,2018-05-10 16:03:36,11,0,22.935,3949.527255978,78.083992,0,0.62733597808,0,0,-0.671082,276, 0.3, 0.4,0,0,1024,1024,1024,1024,277.1,-89.9,96,3.791,3.779,3.836,3.818,3.845,3.818,19.133,62.6,14,Waypoint,
38.0861231,-120.2285504,3950.511507978,79.068244,0,0.34351707136,13510,2018-05-10 16:03:36,12,0,22.935,3950.511507978,79.068244,0,0.62733597808,0,0,-0.671082,276, 0.3, 0.5,0,0,1024,1024,1024,1024,277.1,-89.9,96,3.791,3.779,3.836,3.818,3.845,3.818,19.133,62.6,14,Waypoint,
38.0861231,-120.2285504,3951.167675978,79.724412,0,0.34351707136,13600,2018-05-10 16:03:36,12,0,22.935,3951.167675978,79.724412,0,0.62733597808,0,0,-0.671082,276.1, 0.4, 0.6,0,0,1024,1024,1024,1024,277.1,-89.9,96,3.791,3.779,3.836,3.818,3.845,3.818,19.133,62.6,14,Waypoint,
38.086123,-120.2285504,3953.136179978,81.692916,0,0.37144358144,13800,2018-05-10 16:03:36,13,0,22.935,3953.136179978,81.692916,0,0.62733597808,0,0,-0.671082,276.2, 0.6, 0.7,0,0,1024,1024,1024,1024,277.1,-89.9,96,3.791,3.779,3.836,3.818,3.845,3.818,19.133,62.6,14,Waypoint,
38.086123,-120.2285504,3954.120431978,82.677168,0,0.37144358144,13900,2018-05-10 16:03:36,12,0,22.935,3954.120431978,82.677168,0,0.62733597808,0,0,-0.671082,276.3, 0.7, 0.6,0,0,1024,1024,1024,1024,277.1,-89.9,96,3.791,3.779,3.836,3.818,3.845,3.818,19.133,62.6,14,Waypoint,
38.086123,-120.2285505,3955.104683978,83.66142,0,0.38985893636,14010,2018-05-10 16:03:36,12,0,22.881,3955.104683978,83.66142,0,0.62733597808,0,0,-0.671082,276.4, 0.6, 0.5,0,0,1024,1024,1024,1024,277.1,-89.9,96,3.78,3.775,3.833,3.816,3.841,3.814,19.137,62.6,14,Waypoint,
38.086123,-120.2285504,3957.073187978,85.629924,0,0.37144358144,14100,2018-05-10 16:03:37,12,0,22.881,3957.073187978,85.629924,0,0.62733597808,0,0,-0.671082,276.4, 0.5, 0.4,0,0,1024,1024,1024,1024,277.1,-89.9,96,3.78,3.775,3.833,3.816,3.841,3.814,19.137,62.6,14,Waypoint,
38.086123,-120.2285504,3958.057439978,86.614176,0,0.37144358144,14210,2018-05-10 16:03:37,11,0,22.881,3958.057439978,86.614176,0,0.62733597808,0,0,-0.671082,276.4, 0.3, 0.4,0,0,1024,1024,1024,1024,277.1,-90,96,3.78,3.775,3.833,3.816,3.841,3.814,19.137,62.6,14,Waypoint,
38.086123,-120.2285504,3958.057439978,86.614176,0,0.37144358144,14300,2018-05-10 16:03:37,11,0,22.881,3958.057439978,86.614176,0,0.62733597808,0,0,-0.671082,276.4, 0.3, 0.4,0,0,1024,1024,1024,1024,277.1,-90,96,3.78,3.775,3.833,3.816,3.841,3.814,19.137,62.6,14,Waypoint,
38.0861229,-120.2285504,3959.041691978,87.598428,0,0.40075132516,14400,2018-05-10 16:03:37,11,0,22.881,3959.041691978,87.598428,0,0.62733597808,0,0,-0.671082,276.3, 0.2, 0.6,0,0,1024,1024,1024,1024,277.1,-89.9,96,3.78,3.775,3.833,3.816,3.841,3.814,19.137,62.6,14,Waypoint,
38.0861229,-120.2285505,3960.025943978,88.58268,0,0.41787402912,14500,2018-05-10 16:03:37,12,0,22.881,3960.025943978,88.58268,0,0.62733597808,0,0,-0.671082,276.3, 0.3, 0.7,0,0,1024,1024,1024,1024,277.1,-89.9,96,3.78,3.775,3.833,3.816,3.841,3.814,19.137,62.6,14,Waypoint,
38.0861229,-120.2285504,3961.010195978,89.566932,0,0.40075132516,14600,2018-05-10 16:03:37,12,0,22.881,3961.010195978,89.566932,0,0.62733597808,0,0,-0.671082,276.3, 0.4, 0.8,0,0,1024,1024,1024,1024,277.1,-89.9,96,3.78,3.775,3.833,3.816,3.841,3.814,19.137,62.6,14,Waypoint,
38.0861229,-120.2285504,3961.994447978,90.551184,0,0.40075132516,14700,2018-05-10 16:03:37,13,0,22.881,3961.994447978,90.551184,0,0.62733597808,0,0,-0.671082,276.3, 0.5, 0.7,0,0,1024,1024,1024,1024,277.1,-89.9,96,3.78,3.775,3.833,3.816,3.841,3.814,19.137,62.6,14,Waypoint,
38.0861229,-120.2285504,3962.978699978,91.535436,0,0.40075132516,14800,2018-05-10 16:03:37,13,0,22.881,3962.978699978,91.535436,0,0.62733597808,0,0,-0.671082,276.3, 0.4, 0.7,0,0,1024,1024,1024,1024,277.1,-89.9,96,3.78,3.775,3.833,3.816,3.841,3.814,19.137,62.6,14,Waypoint,
38.0861228,-120.2285505,3963.962951978,92.519688,0,0.44711615604,14900,2018-05-10 16:03:37,13,0,22.881,3963.962951978,92.519688,0,0.62733597808,0,0,-0.671082,276.3, 0.5, 0.8,0,0,1024,1024,1024,1024,277.1,-89.9,96,3.78,3.775,3.833,3.816,3.841,3.814,19.137,62.6,14,Waypoint,
38.0861228,-120.2285505,3964.947203978,93.50394,0,0.44711615604,15000,2018-05-10 16:03:37,13,0,22.844,3964.947203978,93.50394,0,0.62733597808,0,0,-0.671082,276.3, 0.6, 0.8,0,0,1024,1024,1024,1024,277.1,-89.9,96,3.773,3.766,3.824,3.81,3.827,3.81,19.02,62.6,14,Waypoint,
38.0861229,-120.2285505,3965.931455978,94.488192,0,0.41787402912,15100,2018-05-10 16:03:38,13,0,22.844,3965.931455978,94.488192,0,0.62733597808,0,0,-0.671082,276.3, 0.6, 0.8,0,0,1024,1024,1024,1024,277.1,-89.9,96,3.773,3.766,3.824,3.81,3.827,3.81,19.02,62.6,14,Waypoint,
38.0861229,-120.2285505,3966.915707978,95.472444,0,0.41787402912,15200,2018-05-10 16:03:38,13,0,22.844,3966.915707978,95.472444,0,0.62733597808,0,0,-0.671082,276.3, 0.6, 0.8,0,0,1024,1024,1024,1024,277.1,-89.9,96,3.773,3.766,3.824,3.81,3.827,3.81,19.02,62.6,14,Waypoint,
38.0861229,-120.2285505,3967.899959978,96.456696,0,0.41787402912,15300,2018-05-10 16:03:38,13,0,22.844,3967.899959978,96.456696,0,0.62733597808,0,0,-0.671082,276.3, 0.6, 0.7,0,0,1024,1024,1024,1024,277.1,-89.9,96,3.773,3.766,3.824,3.81,3.827,3.81,19.02,62.6,14,Waypoint,
38.0861228,-120.2285505,3968.884211978,97.440948,0,0.44711615604,15400,2018-05-10 16:03:38,13,0,22.844,3968.884211978,97.440948,0,0.62733597808,0,0,-0.671082,276.3, 0.6, 0.7,0,0,1024,1024,1024,1024,277.1,-89.9,96,3.773,3.766,3.824,3.81,3.827,3.81,19.02,62.6,14,Waypoint,
38.0861228,-120.2285505,3969.868463978,98.4252,0,0.44711615604,15500,2018-05-10 16:03:38,13,0,22.844,3969.868463978,98.4252,0,0.62733597808,0,0,-0.671082,276.4, 0.5, 0.8,0,0,1024,1024,1024,1024,277.1,-89.9,96,3.773,3.766,3.824,3.81,3.827,3.81,19.02,62.6,14,Waypoint,
38.0861228,-120.2285505,3970.852715978,99.409452,0,0.44711615604,15600,2018-05-10 16:03:38,13,0,22.844,3970.852715978,99.409452,0,0.62733597808,0,0,-0.671082,276.4, 0.5, 0.8,0,0,1024,1024,1024,1024,277.1,-89.9,96,3.773,3.766,3.824,3.81,3.827,3.81,19.02,62.6,14,Waypoint,
38.0861229,-120.2285505,3971.836967978,100.393704,0,0.41787402912,15700,2018-05-10 16:03:38,13,0,22.844,3971.836967978,100.393704,0,0.62733597808,0,0,-0.671082,276.4, 0.5, 0.7,0,0,1024,1024,1024,1024,277.1,-89.9,96,3.773,3.766,3.824,3.81,3.827,3.81,19.02,62.6,14,Waypoint,
38.0861229,-120.2285504,3972.821219978,101.377956,0,0.40075132516,15800,2018-05-10 16:03:38,13,0,22.844,3972.821219978,101.377956,0,0.62733597808,0,0,-0.671082,276.4, 0.4, 0.6,0,0,1024,1024,1024,1024,277.1,-90,96,3.773,3.766,3.824,3.81,3.827,3.81,19.02,62.6,14,Waypoint,
38.0861229,-120.2285504,3974.789723978,103.34646,0,0.40075132516,16000,2018-05-10 16:03:38,13,0,22.824,3974.789723978,103.34646,0,0.62733597808,0,0,-0.671082,276.3, 0.2, 0.7,0,0,1024,1024,1024,1024,277.1,-90,96,3.77,3.765,3.827,3.809,3.825,3.803,19.058,62.6,14,Waypoint,
38.0861229,-120.2285503,3975.773975978,104.330712,0,0.385006574,16100,2018-05-10 16:03:39,13,0,22.824,3975.773975978,104.330712,0,0.62733597808,0,0,-0.671082,276.2, 0.2, 0.7,0,0,1024,1024,1024,1024,277.1,-90,96,3.77,3.765,3.827,3.809,3.825,3.803,19.058,62.6,14,Waypoint,
38.086123,-120.2285503,3976.758227978,105.314964,0,0.35440289848,16200,2018-05-10 16:03:39,13,0,22.824,3976.758227978,105.314964,0,0.62733597808,0,0,-0.671082,276.1, 0.1, 0.7,0,0,1024,1024,1024,1024,277.1,-90,96,3.77,3.765,3.827,3.809,3.825,3.803,19.058,62.6,14,Waypoint,
38.086123,-120.2285503,3977.742479978,106.299216,0,0.35440289848,16300,2018-05-10 16:03:39,11,0,22.824,3977.742479978,106.299216,0,0.62733597808,0,0,-0.671082,276.1, 0.1, 0.5,0,0,1024,1024,1024,1024,277.1,-90,96,3.77,3.765,3.827,3.809,3.825,3.803,19.058,62.6,14,Waypoint,
38.086123,-120.2285503,3978.726731978,107.283468,0,0.35440289848,16400,2018-05-10 16:03:39,11,0,22.824,3978.726731978,107.283468,0,0.62733597808,0,0,-0.671082,276, 0, 0.5,0,0,1024,1024,1024,1024,277.1,-89.9,96,3.77,3.765,3.827,3.809,3.825,3.803,19.058,62.6,14,Waypoint,
38.086123,-120.2285503,3981.351403978,109.90814,0,0.35440289848,16600,2018-05-10 16:03:39,12,0,22.824,3981.351403978,109.90814,0,0.62733597808,0,0,-0.671082,276.1, 0.3, 0.8,0,0,1024,1024,1024,1024,277.1,-89.9,96,3.77,3.765,3.827,3.809,3.825,3.803,19.058,62.6,14,Waypoint,
38.086123,-120.2285503,3982.335655978,110.892392,0,0.35440289848,16800,2018-05-10 16:03:39,12,0,22.824,3982.335655978,110.892392,0,0.62733597808,0,0,-0.671082,276.1, 0.3, 0.9,0,0,1024,1024,1024,1024,277.1,-89.9,96,3.77,3.765,3.827,3.809,3.825,3.803,19.058,62.6,14,Waypoint,
38.086123,-120.2285503,3983.647991978,112.204728,0,0.35440289848,16900,2018-05-10 16:03:39,12,0,22.824,3983.647991978,112.204728,0,0.62733597808,0,0,-0.671082,276.2, 0.4, 0.9,0,0,1024,1024,1024,1024,277.1,-89.9,96,3.77,3.765,3.827,3.809,3.825,3.803,19.058,62.6,14,Waypoint,
38.086123,-120.2285503,3984.632243978,113.18898,0,0.35440289848,17000,2018-05-10 16:03:39,12,0,22.739,3984.632243978,113.18898,0,0.62733597808,0,0,-0.671082,276.2, 0.4, 0.9,0,0,1024,1024,1024,1024,277.1,-89.9,96,3.765,3.758,3.815,3.794,3.811,3.788,19.397,62.6,14,Waypoint,
38.086123,-120.2285503,3985.616495978,114.173232,0,0.35440289848,17100,2018-05-10 16:03:40,12,0,22.739,3985.616495978,114.173232,0,0.62733597808,0,0,-0.671082,276.2, 0.4, 0.9,0,0,1024,1024,1024,1024,277.1,-89.9,96,3.765,3.758,3.815,3.794,3.811,3.788,19.397,62.6,14,Waypoint,
38.086123,-120.2285503,3986.600747978,115.157484,0,0.35440289848,17200,2018-05-10 16:03:40,12,0,22.739,3986.600747978,115.157484,0,0.62733597808,0,0,-0.671082,276.2, 0.4, 0.8,0,0,1024,1024,1024,1024,277.1,-89.9,96,3.765,3.758,3.815,3.794,3.811,3.788,19.397,62.6,14,Waypoint,
38.0861231,-120.2285503,3987.584999978,116.141736,0,0.325014118012,17300,2018-05-10 16:03:40,12,0,22.739,3987.584999978,116.141736,0,0.62733597808,0,0,-0.671082,276.2, 0.4, 0.7,0,0,1024,1024,1024,1024,277.1,-89.9,96,3.765,3.758,3.815,3.794,3.811,3.788,19.397,62.6,14,Waypoint,
38.0861231,-120.2285502,3988.569251978,117.125988,0,0.30808071852,17400,2018-05-10 16:03:40,12,0,22.739,3988.569251978,117.125988,0,0.62733597808,0,0,-0.671082,276.1, 0.4, 0.6,0,0,1024,1024,1024,1024,277.1,-89.9,96,3.765,3.758,3.815,3.794,3.811,3.788,19.397,62.6,14,Waypoint,
38.0861232,-120.2285502,3990.537755978,119.094492,0,0.278583670332,17600,2018-05-10 16:03:40,13,0,22.739,3990.537755978,119.094492,0,0.62733597808,0,0,-0.671082,276.1, 0.4, 0.4,0,0,1024,1024,1024,1024,277.1,-89.9,96,3.765,3.758,3.815,3.794,3.811,3.788,19.397,62.6,14,Waypoint,
38.0861233,-120.2285502,3992.506259978,121.062996,0,0.250930782308,17800,2018-05-10 16:03:40,13,0,22.739,3992.506259978,121.062996,0,0.62733597808,0,0,-0.671082,276.1, 0.4, 0.4,0,0,1024,1024,1024,1024,277.1,-89.9,96,3.765,3.758,3.815,3.794,3.811,3.788,19.397,62.6,14,Waypoint,
38.0861233,-120.2285502,3993.490511978,122.047248,0,0.250930782308,17900,2018-05-10 16:03:40,13,0,22.739,3993.490511978,122.047248,0,0.62733597808,0,0,-0.671082,276.1, 0.3, 0.4,0,0,1024,1024,1024,1024,277.1,-89.9,96,3.765,3.758,3.815,3.794,3.811,3.788,19.397,62.6,14,Waypoint,
38.0861234,-120.2285502,3994.474763978,123.0315,0,0.22580053216,18000,2018-05-10 16:03:40,13,0,22.743,3994.474763978,123.0315,0,0.62733597808,0,0,-0.671082,276.2, 0.3, 0.4,0,0,1024,1024,1024,1024,277.1,-89.9,96,3.76,3.752,3.815,3.799,3.804,3.796,19.235,62.6,14,Waypoint,
38.0861234,-120.2285502,3995.459015978,124.015752,0,0.22580053216,18100,2018-05-10 16:03:41,13,0,22.743,3995.459015978,124.015752,0,0.62733597808,0,0,-0.671082,276.2, 0.3, 0.4,0,0,1024,1024,1024,1024,277.1,-89.9,96,3.76,3.752,3.815,3.799,3.804,3.796,19.235,62.6,14,Waypoint,
38.0861235,-120.2285503,3996.443267978,125.000004,0,0.228884849844,18200,2018-05-10 16:03:41,13,0,22.743,3996.443267978,125.000004,0,0.62733597808,0,0,-0.671082,276.3, 0.3, 0.3,0,0,1024,1024,1024,1024,277.1,-89.9,96,3.76,3.752,3.815,3.799,3.804,3.796,19.235,62.6,14,Waypoint,
38.0861235,-120.2285503,3997.427519978,125.984256,0,0.228884849844,18300,2018-05-10 16:03:41,13,0,22.743,3997.427519978,125.984256,0,0.62733597808,0,0,-0.671082,276.2, 0.4, 0.2,0,0,1024,1024,1024,1024,277.1,-89.9,96,3.76,3.752,3.815,3.799,3.804,3.796,19.235,62.6,14,Waypoint,
38.0861235,-120.2285503,3998.411771978,126.968508,0,0.228884849844,18400,2018-05-10 16:03:41,13,0,22.743,3998.411771978,126.968508,0,0.62733597808,0,0,-0.671082,276.2, 0.6, 0.2,0,0,1024,1024,1024,1024,277.1,-89.9,96,3.76,3.752,3.815,3.799,3.804,3.796,19.235,62.6,14,Waypoint,
38.0861235,-120.2285503,3999.396023978,127.95276,0,0.228884849844,18500,2018-05-10 16:03:41,13,0,22.743,3999.396023978,127.95276,0,0.62733597808,0,0,-0.671082,276.2, 0.7, 0.4,0,0,1024,1024,1024,1024,277.1,-89.9,96,3.76,3.752,3.815,3.799,3.804,3.796,19.235,62.6,14,Waypoint,
38.0861236,-120.2285503,4001.364527978,129.921264,0,0.213851384796,18700,2018-05-10 16:03:41,13,0,22.743,4001.364527978,129.921264,0,0.62733597808,0,0,-0.671082,276.2, 0.7, 0.6,0,0,1024,1024,1024,1024,277.1,-89.9,96,3.76,3.752,3.815,3.799,3.804,3.796,19.235,62.6,14,Waypoint,
38.0861236,-120.2285503,4002.348779978,130.905516,0,0.213851384796,18800,2018-05-10 16:03:41,13,0,22.743,4002.348779978,130.905516,0,0.62733597808,0,0,-0.671082,276.2, 0.6, 0.5,0,0,1024,1024,1024,1024,277.1,-90,96,3.76,3.752,3.815,3.799,3.804,3.796,19.235,62.6,14,Waypoint,
38.0861237,-120.2285503,4003.333031978,131.889768,0,0.20430118764,18900,2018-05-10 16:03:41,13,0,22.743,4003.333031978,131.889768,0,0.62733597808,0,0,-0.671082,276.2, 0.4, 0.4,0,0,1024,1024,1024,1024,277.1,-90,96,3.76,3.752,3.815,3.799,3.804,3.796,19.235,62.6,14,Waypoint,
38.0861237,-120.2285502,4005.301535978,133.858272,0,0.176120740544,19100,2018-05-10 16:03:42,13,0,22.743,4005.301535978,133.858272,0,0.62733597808,0,0,-0.671082,276.2, 0.3, 0.1,0,0,1024,1024,1024,1024,277.1,-90,96,3.76,3.752,3.815,3.799,3.804,3.796,19.235,62.6,14,Waypoint,
38.0861238,-120.2285502,4006.285787978,134.842524,0,0.172300530448,19200,2018-05-10 16:03:42,13,0,22.743,4006.285787978,134.842524,0,0.62733597808,0,0,-0.671082,276.2, 0.2, 0,0,0,1024,1024,1024,1024,277.1,-90,96,3.76,3.752,3.815,3.799,3.804,3.796,19.235,62.6,14,Waypoint,
38.0861238,-120.2285502,4007.270039978,135.826776,0,0.172300530448,19300,2018-05-10 16:03:42,13,0,22.743,4007.270039978,135.826776,0,0.62733597808,0,0,-0.671082,276.2, 0.2, 0,0,0,1024,1024,1024,1024,277.1,-90,96,3.76,3.752,3.815,3.799,3.804,3.796,19.235,62.6,14,Waypoint,
38.0861238,-120.2285502,4009.238543978,137.79528,0,0.172300530448,19410,2018-05-10 16:03:42,13,0,22.743,4009.238543978,137.79528,0,0.62733597808,0,0,-0.671082,276.2, 0.5, 0.2,0,0,1024,1024,1024,1024,277.1,-89.9,96,3.76,3.752,3.815,3.799,3.804,3.796,19.235,62.6,14,Waypoint,
38.0861238,-120.2285502,4009.238543978,137.79528,0,0.172300530448,19500,2018-05-10 16:03:42,13,0,22.743,4009.238543978,137.79528,0,0.62733597808,0,0,-0.671082,276.2, 0.5, 0.2,0,0,1024,1024,1024,1024,277.1,-89.9,96,3.76,3.752,3.815,3.799,3.804,3.796,19.235,62.6,14,Waypoint,
38.0861238,-120.2285502,4009.894711978,138.451448,0,0.172300530448,19600,2018-05-10 16:03:42,13,0,22.743,4009.894711978,138.451448,0,0.62733597808,0,0,-0.671082,276.2, 0.5, 0.4,0,0,1024,1024,1024,1024,277.1,-89.9,96,3.76,3.752,3.815,3.799,3.804,3.796,19.235,62.6,14,Waypoint,
38.0861238,-120.2285502,4010.878963978,139.4357,0,0.172300530448,19700,2018-05-10 16:03:42,13,0,22.743,4010.878963978,139.4357,0,0.62733597808,0,0,-0.671082,276.2, 0.6, 0.4,0,0,1024,1024,1024,1024,277.1,-89.9,96,3.76,3.752,3.815,3.799,3.804,3.796,19.235,62.6,14,Waypoint,
38.0861238,-120.2285502,4011.863215978,140.419952,0,0.172300530448,19800,2018-05-10 16:03:42,13,0,22.743,4011.863215978,140.419952,0,0.62733597808,0,0,-0.671082,276.2, 0.7, 0.5,0,0,1024,1024,1024,1024,277.1,-89.9,96,3.76,3.752,3.815,3.799,3.804,3.796,19.235,62.6,14,Waypoint,
38.0861238,-120.2285502,4012.847467978,141.404204,0,0.172300530448,19900,2018-05-10 16:03:42,13,0,22.743,4012.847467978,141.404204,0,0.62733597808,0,0,-0.671082,276.2, 0.8, 0.4,0,0,1024,1024,1024,1024,277.1,-89.9,96,3.76,3.752,3.815,3.799,3.804,3.796,19.235,62.6,14,Waypoint,
38.0861238,-120.2285502,4013.831719978,142.388456,0,0.172300530448,20000,2018-05-10 16:03:42,13,0,22.71,4013.831719978,142.388456,0,0.62733597808,0,0,-0.671082,276.2, 0.7, 0.3,0,0,1024,1024,1024,1024,277.1,-89.9,95,3.767,3.75,3.807,3.79,3.815,3.785,18.935,62.6,14,Waypoint,
38.0861237,-120.2285502,4014.815971978,143.372708,0,0.176120740544,20100,2018-05-10 16:03:43,13,0,22.71,4014.815971978,143.372708,0,0.62733597808,0,0,-0.671082,276.2, 0.6, 0.4,0,0,1024,1024,1024,1024,277.1,-89.9,95,3.767,3.75,3.807,3.79,3.815,3.785,18.935,62.6,14,Waypoint,
38.0861237,-120.2285502,4015.800223978,144.35696,0,0.176120740544,20200,2018-05-10 16:03:43,13,0,22.71,4015.800223978,144.35696,0,0.62733597808,0,0,-0.671082,276.1, 0.3, 0.7,0,0,1024,1024,1024,1024,277.1,-90,95,3.767,3.75,3.807,3.79,3.815,3.785,18.935,62.6,14,Waypoint,
38.0861237,-120.2285501,4016.784475978,145.341212,0,0.148146658284,20300,2018-05-10 16:03:43,13,0,22.71,4016.784475978,145.341212,0,0.62733597808,0,0,-0.671082,276.1, 0.1, 0.9,0,0,1024,1024,1024,1024,277.1,-90,95,3.767,3.75,3.807,3.79,3.815,3.785,18.935,62.6,14,Waypoint,
38.0861237,-120.2285501,4018.096811978,146.653548,0,0.148146658284,20400,2018-05-10 16:03:43,13,0,22.71,4018.096811978,146.653548,0,0.62733597808,0,0,-0.671082,276, 0, 0.9,0,0,1024,1024,1024,1024,277.1,-90,95,3.767,3.75,3.807,3.79,3.815,3.785,18.935,62.6,14,Waypoint,
38.0861237,-120.22855,4019.081063978,147.6378,0,0.120521985484,20500,2018-05-10 16:03:43,13,0,22.71,4019.081063978,147.6378,0,0.62733597808,0,0,-0.671082,276, -0.1, 0.9,0,0,1024,1024,1024,1024,277.1,-90,95,3.767,3.75,3.807,3.79,3.815,3.785,18.935,62.6,14,Waypoint,
38.0861237,-120.22855,4020.065315978,148.622052,0,0.120521985484,20600,2018-05-10 16:03:43,13,0,22.71,4020.065315978,148.622052,0,0.62733597808,0,0,-0.671082,276.1, -0.1, 0.8,0,0,1024,1024,1024,1024,277.1,-90,95,3.767,3.75,3.807,3.79,3.815,3.785,18.935,62.6,14,Waypoint,
38.0861237,-120.22855,4021.049567978,149.606304,0,0.120521985484,20700,2018-05-10 16:03:43,13,0,22.71,4021.049567978,149.606304,0,0.62733597808,0,0,-0.671082,276.1, 0, 0.5,0,0,1024,1024,1024,1024,277.1,-89.9,95,3.767,3.75,3.807,3.79,3.815,3.785,18.935,62.6,14,Waypoint,
38.0861237,-120.22855,4022.033819978,150.590556,0,0.120521985484,20800,2018-05-10 16:03:43,13,0,22.71,4022.033819978,150.590556,0,0.62733597808,0,0,-0.671082,276.2, 0.2, 0.3,0,0,1024,1024,1024,1024,277.1,-89.9,95,3.767,3.75,3.807,3.79,3.815,3.785,18.935,62.6,14,Waypoint,
38.0861237,-120.22855,4023.018071978,151.574808,0,0.120521985484,20900,2018-05-10 16:03:43,13,0,22.71,4023.018071978,151.574808,0,0.62733597808,0,0,-0.671082,276.3, 0.3, 0.3,0,0,1024,1024,1024,1024,277.1,-89.9,95,3.767,3.75,3.807,3.79,3.815,3.785,18.935,62.6,14,Waypoint,
38.0861237,-120.22855,4024.002323978,152.55906,0,0.120521985484,21010,2018-05-10 16:03:43,13,0,22.66,4024.002323978,152.55906,0,0.62733597808,0,0,-0.671082,276.4, 0.4, 0.3,0,0,1024,1024,1024,1024,277.1,-89.9,95,3.767,3.75,3.807,3.79,3.815,3.785,19.033,64.4,14,Waypoint,
38.0861238,-120.22855,4025.970827978,154.527564,0,0.114866801576,21120,2018-05-10 16:03:44,13,0,22.66,4025.970827978,154.527564,0,0.62733597808,0,0,-0.671082,276.4, 0.5, 0.3,0,0,1024,1024,1024,1024,277.1,-89.9,95,3.767,3.75,3.807,3.79,3.815,3.785,19.033,64.4,14,Waypoint,
38.0861238,-120.22855,4025.970827978,154.527564,0,0.114866801576,21200,2018-05-10 16:03:44,13,0,22.66,4025.970827978,154.527564,0,0.62733597808,0,0,-0.671082,276.4, 0.5, 0.3,0,0,1024,1024,1024,1024,277.1,-89.9,95,3.767,3.75,3.807,3.79,3.815,3.785,19.033,64.4,14,Waypoint,
38.0861238,-120.22855,4026.626995978,155.183732,0,0.114866801576,21300,2018-05-10 16:03:44,13,0,22.66,4026.626995978,155.183732,0,0.62733597808,0,0,-0.671082,276.4, 0.6, 0.1,0,0,1024,1024,1024,1024,277.1,-89.9,95,3.767,3.75,3.807,3.79,3.815,3.785,19.033,64.4,14,Waypoint,
38.0861239,-120.22855,4028.923583978,157.48032,0,0.120521985484,21410,2018-05-10 16:03:44,13,0,22.66,4028.923583978,157.48032,0,0.62733597808,0,0,-0.671082,276.3, 0.6, -0.1,0,0,1024,1024,1024,1024,277.1,-89.9,95,3.767,3.75,3.807,3.79,3.815,3.785,19.033,64.4,14,Waypoint,
38.0861239,-120.22855,4028.923583978,157.48032,0,0.120521985484,21500,2018-05-10 16:03:44,13,0,22.66,4028.923583978,157.48032,0,0.62733597808,0,0,-0.671082,276.3, 0.6, -0.1,0,0,1024,1024,1024,1024,277.1,-89.9,95,3.767,3.75,3.807,3.79,3.815,3.785,19.033,64.4,14,Waypoint,
38.0861239,-120.2285499,4029.907835978,158.464572,0,0.093557417692,21600,2018-05-10 16:03:44,13,0,22.66,4029.907835978,158.464572,0,0.62733597808,0,0,-0.671082,276.3, 0.3, -0.1,0,0,1024,1024,1024,1024,277.1,-90,95,3.767,3.75,3.807,3.79,3.815,3.785,19.033,64.4,14,Waypoint,
38.0861239,-120.2285499,4030.892087978,159.448824,0,0.093557417692,21700,2018-05-10 16:03:44,13,0,22.66,4030.892087978,159.448824,0,0.62733597808,0,0,-0.671082,276.3, 0.2, 0.1,0,0,1024,1024,1024,1024,277.1,-90,95,3.767,3.75,3.807,3.79,3.815,3.785,19.033,64.4,14,Waypoint,
38.0861239,-120.2285499,4031.876339978,160.433076,0,0.093557417692,21800,2018-05-10 16:03:44,13,0,22.66,4031.876339978,160.433076,0,0.62733597808,0,0,-0.671082,276.2, 0, 0.4,0,0,1024,1024,1024,1024,277.1,-90,95,3.767,3.75,3.807,3.79,3.815,3.785,19.033,64.4,14,Waypoint,
38.0861238,-120.2285499,4032.860591978,161.417328,0,0.086150265224,21900,2018-05-10 16:03:44,13,0,22.66,4032.860591978,161.417328,0,0.62733597808,0,0,-0.671082,276.2, 0, 0.5,0,0,1024,1024,1024,1024,277.1,-90,95,3.767,3.75,3.807,3.79,3.815,3.785,19.033,64.4,14,Waypoint,
38.0861238,-120.2285498,4033.844843978,162.40158,0,0.057433400788,22000,2018-05-10 16:03:44,13,0,22.66,4033.844843978,162.40158,0,0.62733597808,0,0,-0.671082,276.2, 0, 0.4,0,0,1024,1024,1024,1024,277.1,-90,95,3.753,3.745,3.803,3.778,3.803,3.781,19.033,64.4,14,Waypoint,
38.0861238,-120.2285498,4034.829095978,163.385832,0,0.057433400788,22100,2018-05-10 16:03:45,13,0,22.66,4034.829095978,163.385832,0,0.62733597808,0,0,-0.671082,276.2, 0.1, 0.2,0,0,1024,1024,1024,1024,277.1,-89.9,95,3.753,3.745,3.803,3.778,3.803,3.781,19.033,64.4,14,Waypoint,
38.0861238,-120.2285499,4035.813347978,164.370084,0,0.086150265224,22200,2018-05-10 16:03:45,13,0,22.66,4035.813347978,164.370084,0,0.62733597808,0,0,-0.671082,276.3, 0.3, 0.3,0,0,1024,1024,1024,1024,277.1,-89.9,95,3.753,3.745,3.803,3.778,3.803,3.781,19.033,64.4,14,Waypoint,
38.0861238,-120.2285499,4036.797599978,165.354336,0,0.086150265224,22300,2018-05-10 16:03:45,13,0,22.66,4036.797599978,165.354336,0,0.62733597808,0,0,-0.671082,276.3, 0.4, 0.2,0,0,1024,1024,1024,1024,277.1,-89.9,95,3.753,3.745,3.803,3.778,3.803,3.781,19.033,64.4,14,Waypoint,
38.0861238,-120.2285499,4037.453767978,166.010504,0,0.086150265224,22400,2018-05-10 16:03:45,13,0,22.66,4037.453767978,166.010504,0,0.62733597808,0,0,-0.671082,276.3, 0.7, 0.3,0,0,1024,1024,1024,1024,277.1,-89.9,95,3.753,3.745,3.803,3.778,3.803,3.781,19.033,64.4,14,Waypoint,
38.0861238,-120.22855,4038.438019978,166.994756,0,0.114866801576,22500,2018-05-10 16:03:45,13,0,22.66,4038.438019978,166.994756,0,0.62733597808,0,0,-0.671082,276.3, 0.8, 0.5,0,0,1024,1024,1024,1024,277.1,-89.9,95,3.753,3.745,3.803,3.778,3.803,3.781,19.033,64.4,14,Waypoint,
38.0861238,-120.22855,4039.422271978,167.979008,0,0.114866801576,22600,2018-05-10 16:03:45,13,0,22.66,4039.422271978,167.979008,0,0.62733597808,0,0,-0.671082,276.1, 0.9, 0.4,0,0,1024,1024,1024,1024,277.1,-89.9,95,3.753,3.745,3.803,3.778,3.803,3.781,19.033,64.4,14,Waypoint,
38.0861238,-120.22855,4040.406523978,168.96326,0,0.114866801576,22700,2018-05-10 16:03:45,13,0,22.66,4040.406523978,168.96326,0,0.62733597808,0,0,-0.671082,276, 0.8, 0.4,0,0,1024,1024,1024,1024,277.1,-89.9,95,3.753,3.745,3.803,3.778,3.803,3.781,19.033,64.4,14,Waypoint,
38.0861238,-120.22855,4041.390775978,169.947512,0,0.114866801576,22800,2018-05-10 16:03:45,13,0,22.66,4041.390775978,169.947512,0,0.62733597808,0,0,-0.671082,276, 0.8, 0.5,0,0,1024,1024,1024,1024,277.1,-89.9,95,3.753,3.745,3.803,3.778,3.803,3.781,19.033,64.4,14,Waypoint,
38.0861239,-120.22855,4043.359279978,171.916016,0,0.120521985484,23000,2018-05-10 16:03:45,13,0,22.704,4043.359279978,171.916016,0,0.62733597808,0,0,-0.671082,276.3, 0.5, 0.6,0,0,1024,1024,1024,1024,277.1,-90,95,3.758,3.75,3.807,3.779,3.807,3.777,18.722,64.4,14,Waypoint,
38.0861239,-120.2285499,4046.312035978,174.868772,0,0.093557417692,23210,2018-05-10 16:03:46,13,0,22.704,4046.312035978,174.868772,0,0.62733597808,0,0,-0.671082,276.2, 0.1, 0,0,0,1024,1024,1024,1024,277.1,-90,95,3.758,3.75,3.807,3.779,3.807,3.777,18.722,64.4,14,Waypoint,
38.0861239,-120.2285499,4046.312035978,174.868772,0,0.093557417692,23300,2018-05-10 16:03:46,13,0,22.704,4046.312035978,174.868772,0,0.62733597808,0,0,-0.671082,276.2, 0.1, 0,0,0,1024,1024,1024,1024,277.1,-90,95,3.758,3.75,3.807,3.779,3.807,3.777,18.722,64.4,14,Waypoint,
38.086124,-120.2285498,4047.296287978,175.853024,0,0.092861223444,23430,2018-05-10 16:03:46,13,0,22.704,4047.296287978,175.853024,0,0.62733597808,0,0,-0.671082,276.1, 0.1, -0.2,0,0,1024,1024,1024,1024,277.1,-90,95,3.758,3.75,3.807,3.779,3.807,3.777,18.722,64.4,14,Waypoint,
38.086124,-120.2285498,4048.280539978,176.837276,0,0.092861223444,23500,2018-05-10 16:03:46,13,0,22.704,4048.280539978,176.837276,0,0.62733597808,0,0,-0.671082,275.8, 0.1, -0.5,0,0,1024,1024,1024,1024,277.1,-90,95,3.758,3.75,3.807,3.779,3.807,3.777,18.722,64.4,14,Waypoint,
38.086124,-120.2285499,4051.233295978,179.790032,0,0.11290026608,23800,2018-05-10 16:03:46,13,0,22.704,4051.233295978,179.790032,0,0.62733597808,0,0,-0.671082,275.5, 0.1, -0.3,0,0,1024,1024,1024,1024,277.1,-89.9,95,3.758,3.75,3.807,3.779,3.807,3.777,18.722,64.4,14,Waypoint,
38.086124,-120.22855,4053.529883978,182.08662,0,0.136084650024,24000,2018-05-10 16:03:46,13,0,22.664,4053.529883978,182.08662,0,0.62733597808,0,0,-0.671082,275.8, 0.4, 0.2,0,0,1024,1024,1024,1024,277.1,-89.9,95,3.75,3.738,3.802,3.781,3.799,3.776,18.98,64.4,14,Waypoint,
38.0861239,-120.22855,4054.514135978,183.070872,0,0.120521985484,24100,2018-05-10 16:03:47,13,0,22.664,4054.514135978,183.070872,0,0.62733597808,0,0,-0.671082,276, 0.6, 0.4,0,0,1024,1024,1024,1024,277.1,-89.9,95,3.75,3.738,3.802,3.781,3.799,3.776,18.98,64.4,14,Waypoint,
38.0861239,-120.22855,4055.498387978,184.055124,0,0.120521985484,24200,2018-05-10 16:03:47,13,0,22.664,4055.498387978,184.055124,0,0.62733597808,0,0,-0.671082,276.1, 0.5, 0.6,0,0,1024,1024,1024,1024,277.1,-89.9,95,3.75,3.738,3.802,3.781,3.799,3.776,18.98,64.4,14,Waypoint,
38.0861239,-120.22855,4056.482639978,185.039376,0,0.120521985484,24300,2018-05-10 16:03:47,13,0,22.664,4056.482639978,185.039376,0,0.62733597808,0,0,-0.671082,276.2, 0.4, 0.7,0,0,1024,1024,1024,1024,277.1,-89.9,95,3.75,3.738,3.802,3.781,3.799,3.776,18.98,64.4,14,Waypoint,
38.0861239,-120.22855,4057.466891978,186.023628,0,0.120521985484,24400,2018-05-10 16:03:47,13,0,22.664,4057.466891978,186.023628,0,0.62733597808,0,0,-0.671082,276.2, 0.3, 0.9,0,0,1024,1024,1024,1024,277.1,-90,95,3.75,3.738,3.802,3.781,3.799,3.776,18.98,64.4,14,Waypoint,
38.0861238,-120.22855,4058.451143978,187.00788,0,0.114866801576,24500,2018-05-10 16:03:47,13,0,22.664,4058.451143978,187.00788,0,0.62733597808,0,0,-0.671082,276.2, 0.2, 1,0,0,1024,1024,1024,1024,277.1,-90,95,3.75,3.738,3.802,3.781,3.799,3.776,18.98,64.4,14,Waypoint,
38.0861239,-120.22855,4059.435395978,187.992132,0,0.120521985484,24600,2018-05-10 16:03:47,13,0,22.664,4059.435395978,187.992132,0,0.62733597808,0,0,-0.671082,276.2, 0.1, 0.8,0,0,1024,1024,1024,1024,277.1,-89.9,95,3.75,3.738,3.802,3.781,3.799,3.776,18.98,64.4,14,Waypoint,
38.0861239,-120.22855,4060.419647978,188.976384,0,0.120521985484,24700,2018-05-10 16:03:47,13,0,22.664,4060.419647978,188.976384,0,0.62733597808,0,0,-0.671082,276.2, 0.2, 0.6,0,0,1024,1024,1024,1024,277.1,-89.9,95,3.75,3.738,3.802,3.781,3.799,3.776,18.98,64.4,14,Waypoint,
38.0861239,-120.22855,4061.403899978,189.960636,0,0.120521985484,24800,2018-05-10 16:03:47,13,0,22.664,4061.403899978,189.960636,0,0.62733597808,0,0,-0.671082,276.1, 0.1, 0.3,0,0,1024,1024,1024,1024,277.1,-90,95,3.75,3.738,3.802,3.781,3.799,3.776,18.98,64.4,14,Waypoint,
38.0861239,-120.22855,4062.388151978,190.944888,0,0.120521985484,24900,2018-05-10 16:03:47,13,0,22.664,4062.388151978,190.944888,0,0.62733597808,0,0,-0.671082,276.1, 0, 0.2,0,0,1024,1024,1024,1024,277.1,-90,95,3.75,3.738,3.802,3.781,3.799,3.776,18.98,64.4,14,Waypoint,
38.0861239,-120.22855,4063.372403978,191.92914,0,0.120521985484,25000,2018-05-10 16:03:47,13,0,22.582,4063.372403978,191.92914,0,0.62733597808,0,0,-0.671082,276.1, 0, 0.2,0,0,1024,1024,1024,1024,277.1,-90,95,3.738,3.728,3.797,3.775,3.796,3.766,19.491,64.4,14,Waypoint,
38.086124,-120.2285499,4064.356655978,192.913392,0,0.11290026608,25100,2018-05-10 16:03:48,13,0,22.582,4064.356655978,192.913392,0,0.62733597808,0,0,-0.671082,276.1, 0, 0.3,0,0,1024,1024,1024,1024,277.1,-90,95,3.738,3.728,3.797,3.775,3.796,3.766,19.491,64.4,14,Waypoint,
38.086124,-120.2285499,4065.340907978,193.897644,0,0.11290026608,25200,2018-05-10 16:03:48,13,0,22.582,4065.340907978,193.897644,0,0.62733597808,0,0,-0.671082,276.1, 0, 0.3,0,0,1024,1024,1024,1024,277.1,-90,95,3.738,3.728,3.797,3.775,3.796,3.766,19.491,64.4,14,Waypoint,
38.086124,-120.2285499,4066.325159978,194.881896,0,0.11290026608,25300,2018-05-10 16:03:48,13,0,22.582,4066.325159978,194.881896,0,0.62733597808,0,0,-0.671082,276.1, -0.1, 0.3,0,0,1024,1024,1024,1024,277.1,-90,95,3.738,3.728,3.797,3.775,3.796,3.766,19.491,64.4,14,Waypoint,
38.086124,-120.2285499,4067.309411978,195.866148,0,0.11290026608,25400,2018-05-10 16:03:48,13,0,22.582,4067.309411978,195.866148,0,0.62733597808,0,0,-0.671082,276.2, -0.2, 0.3,0,0,1024,1024,1024,1024,277.1,-90,95,3.738,3.728,3.797,3.775,3.796,3.766,19.491,64.4,14,Waypoint,
38.086124,-120.2285499,4068.293663978,196.8504,0,0.11290026608,25500,2018-05-10 16:03:48,13,0,22.582,4068.293663978,196.8504,0,0.62733597808,0,0,-0.671082,276.3, -0.2, 0.2,0,0,1024,1024,1024,1024,277.1,-90,95,3.738,3.728,3.797,3.775,3.796,3.766,19.491,64.4,14,Waypoint,
38.086124,-120.2285499,4070.262167978,198.818904,0,0.11290026608,25600,2018-05-10 16:03:48,13,0,22.582,4070.262167978,198.818904,0,0.62733597808,0,0,-0.671082,276.4, -0.1, 0,0,0,1024,1024,1024,1024,277.1,-89.9,95,3.738,3.728,3.797,3.775,3.796,3.766,19.491,64.4,14,Waypoint,
38.086124,-120.2285499,4072.230671978,200.787408,0,0.11290026608,25900,2018-05-10 16:03:48,13,0,22.582,4072.230671978,200.787408,0,0.62733597808,0,0,-0.671082,276.4, 0, 0.6,0,0,1024,1024,1024,1024,277.1,-89.9,95,3.738,3.728,3.797,3.775,3.796,3.766,19.491,64.4,14,Waypoint,
38.0861239,-120.22855,4074.199175978,202.755912,0,0.120521985484,26100,2018-05-10 16:03:49,13,0,22.582,4074.199175978,202.755912,0,0.62733597808,0,0,-0.671082,276.4, 0.2, 0.9,0,0,1024,1024,1024,1024,277.1,-89.9,95,3.738,3.728,3.797,3.775,3.796,3.766,19.491,64.4,14,Waypoint,
38.0861239,-120.22855,4075.183427978,203.740164,0,0.120521985484,26200,2018-05-10 16:03:49,13,0,22.582,4075.183427978,203.740164,0,0.62733597808,0,0,-0.671082,276.3, 0.3, 0.9,0,0,1024,1024,1024,1024,277.1,-89.9,95,3.738,3.728,3.797,3.775,3.796,3.766,19.491,64.4,14,Waypoint,
38.0861239,-120.22855,4076.167679978,204.724416,0,0.120521985484,26300,2018-05-10 16:03:49,13,0,22.582,4076.167679978,204.724416,0,0.62733597808,0,0,-0.671082,276.3, 0.2, 0.9,0,0,1024,1024,1024,1024,277.1,-89.9,95,3.738,3.728,3.797,3.775,3.796,3.766,19.491,64.4,14,Waypoint,
38.0861239,-120.2285499,4077.151931978,205.708668,0,0.093557417692,26400,2018-05-10 16:03:49,13,0,22.582,4077.151931978,205.708668,0,0.62733597808,0,0,-0.671082,276.3, 0.1, 0.8,0,0,1024,1024,1024,1024,277.1,-90,95,3.738,3.728,3.797,3.775,3.796,3.766,19.491,64.4,14,Waypoint,
38.0861239,-120.2285499,4078.136183978,206.69292,0,0.093557417692,26500,2018-05-10 16:03:49,13,0,22.582,4078.136183978,206.69292,0,0.62733597808,0,0,-0.671082,276.3, -0.1, 0.6,0,0,1024,1024,1024,1024,277.1,-90,95,3.738,3.728,3.797,3.775,3.796,3.766,19.491,64.4,14,Waypoint,
38.086124,-120.2285499,4079.120435978,207.677172,0,0.11290026608,26600,2018-05-10 16:03:49,13,0,22.582,4079.120435978,207.677172,0,0.62733597808,0,0,-0.671082,276.3, -0.2, 0.4,0,0,1024,1024,1024,1024,277.1,-90,95,3.738,3.728,3.797,3.775,3.796,3.766,19.491,64.4,14,Waypoint,
38.086124,-120.2285498,4080.104687978,208.661424,0,0.092861223444,26700,2018-05-10 16:03:49,13,0,22.582,4080.104687978,208.661424,0,0.62733597808,0,0,-0.671082,276.4, -0.2, 0.3,0,0,1024,1024,1024,1024,277.1,-90,95,3.738,3.728,3.797,3.775,3.796,3.766,19.491,64.4,14,Waypoint,
38.086124,-120.2285498,4081.088939978,209.645676,0,0.092861223444,26800,2018-05-10 16:03:49,13,0,22.582,4081.088939978,209.645676,0,0.62733597808,0,0,-0.671082,276.4, -0.2, 0.4,0,0,1024,1024,1024,1024,277.1,-90,95,3.738,3.728,3.797,3.775,3.796,3.766,19.491,64.4,14,Waypoint,
38.086124,-120.2285498,4082.073191978,210.629928,0,0.092861223444,26900,2018-05-10 16:03:49,13,0,22.582,4082.073191978,210.629928,0,0.62733597808,0,0,-0.671082,276.4, -0.1, 0.4,0,0,1024,1024,1024,1024,277.1,-90,95,3.738,3.728,3.797,3.775,3.796,3.766,19.491,64.4,14,Waypoint,
38.086124,-120.2285497,4083.057443978,211.61418,0,0.078417325344,27000,2018-05-10 16:03:49,13,0,22.61,4083.057443978,211.61418,0,0.62733597808,0,0,-0.671082,276.4, -0.1, 0.4,0,0,1024,1024,1024,1024,277.1,-89.9,95,3.755,3.746,3.801,3.774,3.802,3.766,18.238,64.4,14,Waypoint,
38.086124,-120.2285497,4084.041695978,212.598432,0,0.078417325344,27100,2018-05-10 16:03:50,13,0,22.61,4084.041695978,212.598432,0,0.62733597808,0,0,-0.671082,276.3, 0, 0.4,0,0,1024,1024,1024,1024,277.1,-89.9,95,3.755,3.746,3.801,3.774,3.802,3.766,18.238,64.4,14,Waypoint,
38.086124,-120.2285497,4085.025947978,213.582684,0,0.078417325344,27200,2018-05-10 16:03:50,13,0,22.61,4085.025947978,213.582684,0,0.62733597808,0,0,-0.671082,276.2, 0, 0.4,0,0,1024,1024,1024,1024,277.1,-89.9,95,3.755,3.746,3.801,3.774,3.802,3.766,18.238,64.4,14,Waypoint,
38.086124,-120.2285497,4086.010199978,214.566936,0,0.078417325344,27300,2018-05-10 16:03:50,13,0,22.61,4086.010199978,214.566936,0,0.62733597808,0,0,-0.671082,276.2, 0, 0.5,0,0,1024,1024,1024,1024,277.1,-89.9,95,3.755,3.746,3.801,3.774,3.802,3.766,18.238,64.4,14,Waypoint,
38.086124,-120.2285497,4086.994451978,215.551188,0,0.078417325344,27400,2018-05-10 16:03:50,13,0,22.61,4086.994451978,215.551188,0,0.62733597808,0,0,-0.671082,276.1, 0, 0.6,0,0,1024,1024,1024,1024,277.1,-89.9,95,3.755,3.746,3.801,3.774,3.802,3.766,18.238,64.4,14,Waypoint,
38.086124,-120.2285497,4087.978703978,216.53544,0,0.078417325344,27500,2018-05-10 16:03:50,13,0,22.61,4087.978703978,216.53544,0,0.62733597808,0,0,-0.671082,276.1, -0.1, 0.8,0,0,1024,1024,1024,1024,277.1,-90,95,3.755,3.746,3.801,3.774,3.802,3.766,18.238,64.4,14,Waypoint,
38.086124,-120.2285497,4088.962955978,217.519692,0,0.078417325344,27600,2018-05-10 16:03:50,13,0,22.61,4088.962955978,217.519692,0,0.62733597808,0,0,-0.671082,276.2, -0.3, 0.8,0,0,1024,1024,1024,1024,277.1,-90,95,3.755,3.746,3.801,3.774,3.802,3.766,18.238,64.4,14,Waypoint,
38.0861239,-120.2285497,4089.947207978,218.503944,0,0.04643044768,27700,2018-05-10 16:03:50,13,0,22.61,4089.947207978,218.503944,0,0.62733597808,0,0,-0.671082,276.2, -0.3, 0.6,0,0,1024,1024,1024,1024,277.1,-90,95,3.755,3.746,3.801,3.774,3.802,3.766,18.238,64.4,14,Waypoint,
38.086124,-120.2285497,4090.931459978,219.488196,0,0.078417325344,27800,2018-05-10 16:03:50,13,0,22.61,4090.931459978,219.488196,0,0.62733597808,0,0,-0.671082,276.3, -0.3, 0.5,0,0,1024,1024,1024,1024,277.1,-90,95,3.755,3.746,3.801,3.774,3.802,3.766,18.238,64.4,14,Waypoint,
