Latitude, Longitude, Altitude (m), Time, Sats, Speed (m/s), Range (m), Battery (%), Roll (deg), Pitch (deg), Yaw (deg), Images, HD Signal (%), RC Signal (%), Battery Temp (C), Battery Voltage (mV), Battery Current (mA), Battery Energy (mAh), Battery Capacity (mAh), Battery Discharges, flyState, timestamp (Unix), LastUpdate (ms), radioChannel, Rc_elevator, Rc_aileron, Rc_throttle, Rc_rudder, Rc_gyro, Dronetype, Battery_Cell1 (mV), Battery_Cell2 (mV), Battery_Cell3 (mV), Battery_Cell4 (mV), Battery_Cell5 (mV), Battery_Cell6 (mV), Video, isFlying, elapsedTime (ms), gimbalPitch (deg), gimbalRoll (deg), gimbalYaw (deg), VelocityX (m/s), VelocityY (m/s), VelocityZ (m/s), GroundSmear (cm), App Version, Aircraft Name, Aircraft Firmware, Aircraft Serial Number, Battery Serial Number, Battery Lifetime (%), App_Tip, App_Warning, CurrentFlightStartingIndex, CurrentFlightLastVisitedWaypoint, PreviousFlightEndingWaypointIndex
38.0861348, -120.2285387, 0.000, 10:23:12.742, 14, 0.10, 0.12, 98, 0.000, -0.300, -82.800, 1614, 100, 100, 17, 25316, -3872, 5437, 5548, 8, 11, 1525972992.742, 67, 0, 1024, 1024, 1024, 1024, 0, 6, 4264, 4189, 4256, 4219, 4265, 4271, 0, 1, 3331, -89.900, 0.000, -82.100, 0.000, -0.100, -0.100, 0.1, MapPilot_2.8.1_04242018, Dendroctonus I, 1.3.1.00, 041DDC1887, 1058163200563, 98, DJI_0613.jpg, Starting Mission from Lat/Long: 38.08615/-120.22854 Camera: Zenmuse X3 - Overlap: 90/90 - Active Connection: No, 75, 75, 75
38.0861348, -120.2285387, 0.000, 10:23:12.817, 14, 0.10, 0.12, 98, 0.000, -0.300, -82.800, 1614, 100, 100, 17, 25316, -3872, 5437, 5548, 8, 11, 1525972992.818, 142, 0, 1024, 1024, 1024, 1024, 0, 6, 4264, 4189, 4256, 4219, 4265, 4271, 0, 1, 3407, -89.900, 0.000, -82.100, 0.000, -0.100, -0.100, 0.1, , , , , , 98, , , 75, 75, 75
38.0861348, -120.2285388, 0.000, 10:23:12.918, 14, 0.10, 0.12, 98, -0.300, 0.100, -82.800, 1614, 100, 100, 17, 25316, -3872, 5437, 5548, 8, 11, 1525972992.919, 42, 0, 1024, 1024, 1024, 1024, 0, 6, 4264, 4189, 4256, 4219, 4265, 4271, 0, 1, 3508, -89.900, 0.000, -82.100, 0.000, -0.100, -0.300, 0.1, , , , , , 98, , , 75, 75, 75
38.0861348, -120.2285388, 0.000, 10:23:13.016, 14, 0.10, 0.12, 98, -0.300, 0.100, -82.800, 1614, 100, 100, 17, 25316, -3872, 5437, 5548, 8, 11, 1525972993.016, 139, 0, 1024, 1024, 1024, 1024, 0, 6, 4264, 4189, 4256, 4219, 4265, 4271, 0, 1, 3605, -89.900, 0.000, -82.100, 0.000, -0.100, -0.300, 0.1, , , , , , 98, , , 75, 75, 75
38.0861349, -120.2285391, 0.100, 10:23:13.115, 14, 0.10, 0.13, 98, -0.200, 1.000, -83.000, 1614, 100, 100, 17, 25316, -3872, 5437, 5548, 8, 11, 1525972993.116, 23, 0, 1024, 1024, 1024, 1024, 0, 6, 4264, 4189, 4256, 4219, 4265, 4271, 0, 1, 3705, -89.900, 0.000, -82.100, 0.000, -0.100, -0.400, 0.1, , , , , , 98, , , 75, 75, 75
38.0861349, -120.2285391, 0.100, 10:23:13.217, 14, 0.10, 0.13, 98, -0.200, 1.000, -83.000, 1614, 100, 100, 17, 25316, -3872, 5437, 5548, 8, 11, 1525972993.218, 125, 0, 1024, 1024, 1024, 1024, 0, 6, 4264, 4189, 4256, 4219, 4265, 4271, 0, 1, 3806, -89.900, 0.000, -82.100, 0.000, -0.100, -0.400, 0.1, , , , , , 98, , , 75, 75, 75
38.0861348, -120.2285394, 0.100, 10:23:13.316, 14, 0.10, 0.14, 98, -0.700, 1.000, -83.100, 1614, 100, 100, 17, 24911, -4883, 5437, 5548, 8, 11, 1525972993.317, 56, 0, 1024, 1024, 1024, 1024, 0, 6, 4264, 4189, 4256, 4219, 4265, 4271, 0, 1, 3905, -89.900, 0.000, -82.100, 0.000, -0.100, -0.400, 0.1, , , , , , 98, , , 75, 75, 75
38.0861347, -120.2285395, 0.200, 10:23:13.412, 14, 0.00, 0.17, 98, 0.100, 0.900, -83.100, 1614, 100, 100, 17, 24911, -4883, 5437, 5548, 8, 11, 1525972993.412, 4, 0, 1024, 1024, 1024, 1024, 0, 6, 4264, 4189, 4256, 4219, 4265, 4271, 0, 1, 4001, -89.900, 0.000, -82.100, 0.000, 0.000, -0.300, 0.0, , , , , , 98, , , 75, 75, 75
38.0861346, -120.2285396, 0.300, 10:23:13.512, 13, 0.00, 0.18, 98, 0.700, 1.000, -83.000, 1614, 100, 100, 17, 24911, -4883, 5437, 5548, 8, 11, 1525972993.513, 43, 0, 1024, 1024, 1024, 1024, 0, 6, 4264, 4189, 4256, 4219, 4265, 4271, 0, 1, 4102, -89.900, 0.000, -82.100, 0.000, 0.000, -0.400, 0.0, , , , , , 98, , , 75, 75, 75
38.0861345, -120.2285397, 0.300, 10:23:13.612, 13, 0.00, 0.19, 98, 1.000, 1.200, -82.900, 1614, 100, 100, 17, 24911, -4883, 5437, 5548, 8, 11, 1525972993.612, 28, 0, 1024, 1024, 1024, 1024, 0, 6, 4264, 4189, 4256, 4219, 4265, 4271, 0, 1, 4201, -89.900, 0.000, -82.100, 0.000, 0.000, -0.300, 0.0, , , , , , 98, , , 75, 75, 75
38.0861342, -120.2285398, 0.400, 10:23:13.714, 13, 0.00, 0.22, 98, 1.500, 1.000, -82.600, 1614, 100, 100, 17, 24911, -4883, 5437, 5548, 8, 11, 1525972993.714, 6, 0, 1024, 1024, 1024, 1024, 0, 6, 4126, 4149, 4137, 4154, 4163, 4125, 0, 1, 4303, -89.900, 0.000, -82.100, 0.000, 0.000, -0.400, 0.0, , , , , , 98, , , 75, 75, 75
38.0861341, -120.2285398, 0.500, 10:23:13.811, 13, 0.00, 0.23, 98, 1.500, 0.600, -82.500, 1614, 100, 100, 17, 24911, -4883, 5437, 5548, 8, 11, 1525972993.813, 27, 0, 1024, 1024, 1024, 1024, 0, 6, 4126, 4149, 4137, 4154, 4163, 4125, 0, 1, 4401, -89.900, 0.000, -82.100, 0.000, 0.000, -0.400, 0.0, , , , , , 98, , , 75, 75, 75
38.0861341, -120.2285399, 0.500, 10:23:13.913, 13, 0.00, 0.24, 98, 1.600, 0.500, -82.400, 1614, 100, 100, 17, 24911, -4883, 5437, 5548, 8, 11, 1525972993.913, 28, 0, 1024, 1024, 1024, 1024, 0, 6, 4126, 4149, 4137, 4154, 4163, 4125, 0, 1, 4502, -89.900, 0.000, -82.100, 0.000, 0.000, -0.500, 0.0, , , , , , 98, , , 75, 75, 75
38.0861340, -120.2285399, 0.600, 10:23:14.012, 13, 0.00, 0.25, 98, 1.600, 0.500, -82.500, 1614, 100, 100, 17, 24911, -4883, 5437, 5548, 8, 11, 1525972994.013, 58, 0, 1024, 1024, 1024, 1024, 0, 6, 4126, 4149, 4137, 4154, 4163, 4125, 0, 1, 4602, -89.900, 0.000, -82.100, 0.000, 0.000, -0.500, 0.0, , , , , , 98, , , 75, 75, 75
38.0861339, -120.2285399, 0.600, 10:23:14.112, 13, 0.00, 0.25, 98, 1.400, 0.400, -82.500, 1614, 100, 100, 17, 24911, -4883, 5437, 5548, 8, 11, 1525972994.113, 50, 0, 1024, 1024, 1024, 1024, 0, 6, 4126, 4149, 4137, 4154, 4163, 4125, 0, 1, 4702, -89.900, 0.000, -82.100, 0.000, 0.000, -0.400, 0.0, , , , , , 98, , , 75, 75, 75
38.0861338, -120.2285399, 0.700, 10:23:14.213, 15, 0.00, 0.26, 98, 1.300, 0.300, -82.500, 1614, 100, 100, 17, 24911, -4883, 5437, 5548, 8, 11, 1525972994.213, 27, 0, 1024, 1024, 1024, 1024, 0, 6, 4126, 4149, 4137, 4154, 4163, 4125, 0, 1, 4802, -89.900, 0.000, -82.100, 0.000, 0.000, -0.400, 0.0, , , , , , 98, , , 75, 75, 75
38.0861337, -120.2285399, 0.800, 10:23:14.312, 15, 0.00, 0.27, 98, 1.700, 0.300, -82.400, 1614, 100, 100, 17, 24911, -4883, 5437, 5548, 8, 11, 1525972994.313, 54, 0, 1024, 1024, 1024, 1024, 0, 6, 4126, 4149, 4137, 4154, 4163, 4125, 0, 1, 4901, -89.900, 0.000, -82.100, 0.000, 0.000, -0.400, 0.0, , , , , , 98, , , 75, 75, 75
38.0861337, -120.2285398, 0.800, 10:23:14.412, 15, 0.00, 0.28, 98, 1.800, 0.400, -82.400, 1614, 100, 100, 17, 24911, -4883, 5437, 5548, 8, 11, 1525972994.413, 89, 0, 1024, 1024, 1024, 1024, 0, 6, 4126, 4149, 4137, 4154, 4163, 4125, 0, 1, 5002, -89.900, 0.000, -82.100, 0.000, 0.000, -0.400, 0.0, , , , , , 98, , , 75, 75, 75
38.0861336, -120.2285398, 0.900, 10:23:14.511, 15, 0.00, 0.28, 98, 1.800, 0.500, -82.500, 1614, 100, 100, 17, 23830, -16672, 5437, 5548, 8, 6, 1525972994.513, 59, 0, 1024, 1024, 1024, 1024, 0, 6, 3922, 3910, 3946, 3956, 3970, 3976, 0, 1, 5101, -89.900, 0.000, -82.100, 0.000, 0.000, -0.400, 0.0, , , , , , 98, , , 75, 75, 75
38.0861336, -120.2285399, 0.900, 10:23:14.612, 15, 0.00, 0.28, 98, 1.700, 0.400, -82.500, 1614, 100, 100, 17, 23830, -16672, 5437, 5548, 8, 14, 1525972994.613, 59, 0, 1024, 1024, 1024, 1024, 0, 6, 3922, 3910, 3946, 3956, 3970, 3976, 0, 1, 5201, -89.900, 0.000, -82.100, 0.000, 0.000, -0.400, 0.0, , , , , , 98, , , 75, 75, 75
38.0861336, -120.2285398, 1.000, 10:23:14.712, 14, 0.00, 0.28, 98, 0.700, 0.000, -82.500, 1614, 100, 100, 17, 23830, -16672, 5437, 5548, 8, 14, 1525972994.713, 56, 0, 1024, 1024, 1024, 1024, 0, 6, 3922, 3910, 3946, 3956, 3970, 3976, 0, 1, 5302, -90.000, 0.000, -82.100, 0.000, 0.000, -0.300, 0.0, , , , , , 98, , , 75, 75, 75
38.0861336, -120.2285397, 1.000, 10:23:14.825, 14, 0.00, 0.28, 98, 0.000, -0.100, -82.500, 1614, 100, 100, 17, 23830, -16672, 5437, 5548, 8, 14, 1525972994.825, 5, 0, 1024, 1024, 1024, 1024, 0, 6, 3922, 3910, 3946, 3956, 3970, 3976, 0, 1, 5414, -90.000, 0.000, -82.100, 0.000, 0.000, -0.200, 0.0, , , , , , 98, , , 75, 75, 75
38.0861334, -120.2285396, 1.100, 10:23:14.919, 14, 0.00, 0.29, 98, 0.000, -0.500, -82.500, 1614, 100, 100, 17, 23830, -16672, 5437, 5548, 8, 14, 1525972994.919, 12, 0, 1024, 1024, 1024, 1024, 0, 6, 3922, 3910, 3946, 3956, 3970, 3976, 0, 1, 5508, -90.000, 0.000, -82.100, 0.000, 0.000, -0.400, 0.0, , , , , , 98, , , 75, 75, 75
38.0861334, -120.2285396, 1.100, 10:23:15.012, 14, 0.00, 0.29, 98, 0.000, -0.500, -82.500, 1614, 100, 100, 17, 23830, -16672, 5437, 5548, 8, 14, 1525972995.013, 106, 0, 1024, 1024, 1024, 1024, 0, 6, 3922, 3910, 3946, 3956, 3970, 3976, 0, 1, 5602, -90.000, 0.000, -82.100, 0.000, 0.000, -0.400, 0.0, , , , , , 98, , , 75, 75, 75
38.0861334, -120.2285395, 1.100, 10:23:15.118, 14, 0.00, 0.29, 98, 0.200, -0.500, -82.400, 1614, 100, 100, 17, 23830, -16672, 5437, 5548, 8, 14, 1525972995.119, 95, 0, 1024, 1024, 1024, 1024, 0, 6, 3922, 3910, 3946, 3956, 3970, 3976, 0, 1, 5707, -89.900, 0.000, -82.100, 0.000, 0.000, -0.500, 0.0, , , , , , 98, , , 75, 75, 75
38.0861334, -120.2285394, 1.200, 10:23:15.212, 14, 0.00, 0.29, 98, 0.500, -0.500, -82.300, 1614, 100, 100, 17, 23830, -16672, 5437, 5548, 8, 14, 1525972995.213, 37, 0, 1024, 1024, 1024, 1024, 0, 6, 3922, 3910, 3946, 3956, 3970, 3976, 0, 1, 5802, -89.900, 0.000, -82.100, 0.000, 0.000, -0.700, 0.0, , , , , , 98, , , 75, 75, 75
38.0861334, -120.2285394, 1.300, 10:23:15.312, 13, 0.00, 0.29, 98, 0.700, -0.400, -82.200, 1614, 100, 100, 17, 23830, -16672, 5437, 5548, 8, 14, 1525972995.313, 76, 0, 1024, 1024, 1024, 1024, 0, 6, 3922, 3910, 3946, 3956, 3970, 3976, 0, 1, 5902, -89.900, 0.000, -82.100, 0.000, 0.000, -0.800, 0.0, , , , , , 98, , , 75, 75, 75
38.0861333, -120.2285394, 1.500, 10:23:15.412, 14, 0.00, 0.31, 98, 1.000, -0.100, -82.200, 1614, 100, 100, 17, 23830, -16672, 5437, 5548, 8, 14, 1525972995.413, 30, 0, 1024, 1024, 1024, 1024, 0, 6, 3922, 3910, 3946, 3956, 3970, 3976, 0, 1, 6002, -89.900, 0.000, -82.100, 0.000, 0.000, -1.200, 0.0, , , , , , 98, , , 75, 75, 75
38.0861332, -120.2285394, 1.700, 10:23:15.511, 14, 0.00, 0.31, 98, 1.000, 0.000, -82.300, 1614, 100, 100, 17, 23624, -16727, 5437, 5548, 8, 14, 1525972995.512, 18, 0, 1024, 1024, 1024, 1024, 0, 6, 3922, 3910, 3946, 3956, 3970, 3976, 0, 1, 6101, -89.900, 0.000, -82.100, 0.000, 0.000, -1.400, 0.0, , , , , , 98, , , 75, 75, 75
38.0861332, -120.2285394, 1.800, 10:23:15.612, 13, 0.00, 0.31, 98, 1.000, 0.000, -82.300, 1614, 100, 100, 17, 23624, -16727, 5437, 5548, 8, 14, 1525972995.613, 22, 0, 1024, 1024, 1024, 1024, 0, 6, 3891, 3985, 3894, 3934, 3899, 3933, 0, 1, 6202, -89.900, 0.000, -82.100, 0.000, 0.000, -1.700, 0.0, , , , , , 98, , , 75, 75, 75
38.0861333, -120.2285394, 2.000, 10:23:15.711, 13, 0.00, 0.30, 98, 0.800, -0.200, -82.400, 1614, 100, 100, 17, 23624, -16727, 5437, 5548, 8, 14, 1525972995.711, 7, 0, 1024, 1024, 1024, 1024, 0, 6, 3891, 3985, 3894, 3934, 3899, 3933, 0, 1, 6300, -89.900, 0.000, -82.100, 0.000, 0.000, -1.800, 0.0, , , , , , 98, , , 75, 75, 75
38.0861333, -120.2285393, 2.200, 10:23:15.812, 14, 0.00, 0.30, 98, 0.600, -0.100, -82.500, 1614, 100, 100, 17, 23624, -16727, 5437, 5548, 8, 14, 1525972995.812, 27, 0, 1024, 1024, 1024, 1024, 0, 6, 3891, 3985, 3894, 3934, 3899, 3933, 0, 1, 6401, -89.900, 0.000, -82.100, 0.000, 0.000, -2.100, 0.0, , , , , , 98, , , 75, 75, 75
38.0861333, -120.2285393, 2.400, 10:23:15.911, 14, 0.00, 0.30, 98, 0.600, -0.100, -82.500, 1614, 100, 100, 17, 23624, -16727, 5437, 5548, 8, 14, 1525972995.913, 19, 0, 1024, 1024, 1024, 1024, 0, 6, 3891, 3985, 3894, 3934, 3899, 3933, 0, 1, 6502, -89.900, 0.000, -82.100, 0.000, 0.000, -2.300, 0.0, , , , , , 98, , , 75, 75, 75
38.0861333, -120.2285392, 2.700, 10:23:16.012, 13, 0.00, 0.30, 98, 0.600, -0.100, -82.600, 1614, 100, 100, 17, 23624, -16727, 5437, 5548, 8, 14, 1525972996.013, 10, 0, 1024, 1024, 1024, 1024, 0, 6, 3891, 3985, 3894, 3934, 3899, 3933, 0, 1, 6602, -89.900, 0.000, -82.100, 0.000, 0.000, -2.500, 0.0, , , , , , 98, , , 75, 75, 75
38.0861333, -120.2285392, 3.000, 10:23:16.117, 13, 0.00, 0.30, 98, 0.500, -0.200, -82.700, 1614, 100, 100, 17, 23624, -16727, 5437, 5548, 8, 14, 1525972996.117, 8, 0, 1024, 1024, 1024, 1024, 0, 6, 3891, 3985, 3894, 3934, 3899, 3933, 0, 1, 6706, -89.900, 0.000, -82.100, 0.000, 0.000, -2.700, 0.0, , , , , , 98, , , 75, 75, 75
38.0861333, -120.2285392, 3.000, 10:23:16.212, 13, 0.00, 0.30, 98, 0.500, -0.200, -82.700, 1614, 100, 100, 17, 23624, -16727, 5437, 5548, 8, 14, 1525972996.213, 104, 0, 1024, 1024, 1024, 1024, 0, 6, 3891, 3985, 3894, 3934, 3899, 3933, 0, 1, 6802, -89.900, 0.000, -82.100, 0.000, 0.000, -2.700, 0.0, , , , , , 98, , , 75, 75, 75
38.0861332, -120.2285391, 3.600, 10:23:16.312, 13, 0.00, 0.31, 98, 0.400, -0.200, -82.700, 1614, 100, 100, 17, 23624, -16727, 5437, 5548, 8, 14, 1525972996.313, 8, 0, 1024, 1024, 1024, 1024, 0, 6, 3891, 3985, 3894, 3934, 3899, 3933, 0, 1, 6902, -89.900, 0.000, -82.100, 0.000, 0.000, -3.100, 0.0, , , , , , 98, , , 75, 75, 75
38.0861332, -120.2285391, 3.600, 10:23:16.411, 13, 0.00, 0.31, 98, 0.400, -0.200, -82.700, 1614, 100, 100, 17, 23624, -16727, 5437, 5548, 8, 14, 1525972996.411, 106, 0, 1024, 1024, 1024, 1024, 0, 6, 3891, 3985, 3894, 3934, 3899, 3933, 0, 1, 7000, -89.900, 0.000, -82.100, 0.000, 0.000, -3.100, 0.0, , , , , , 98, , , 75, 75, 75
38.0861330, -120.2285391, 3.900, 10:23:16.512, 13, 0.00, 0.32, 98, 0.600, -0.300, -82.700, 1614, 100, 100, 17, 22850, -23532, 5381, 5548, 8, 14, 1525972996.514, 86, 0, 1024, 1024, 1024, 1024, 0, 6, 3794, 3801, 3803, 3774, 3802, 3795, 0, 1, 7103, -89.900, 0.000, -82.100, 0.000, 0.000, -3.100, 0.0, , , , , , 98, , , 75, 75, 75
38.0861328, -120.2285389, 4.300, 10:23:16.612, 13, 0.00, 0.35, 98, 0.900, -0.500, -82.600, 1614, 100, 100, 17, 22850, -23532, 5381, 5548, 8, 14, 1525972996.614, 84, 0, 1024, 1024, 1024, 1024, 0, 6, 3794, 3801, 3803, 3774, 3802, 3795, 0, 1, 7203, -89.900, 0.000, -82.100, 0.000, 0.000, -3.200, 0.0, , , , , , 98, , , 75, 75, 75
38.0861326, -120.2285389, 4.600, 10:23:16.712, 13, 0.00, 0.37, 98, 1.400, -0.600, -82.600, 1614, 100, 100, 17, 22850, -23532, 5381, 5548, 8, 14, 1525972996.713, 58, 0, 1024, 1024, 1024, 1024, 0, 6, 3794, 3801, 3803, 3774, 3802, 3795, 0, 1, 7301, -89.900, 0.000, -82.100, 0.000, 0.000, -3.200, 0.0, , , , , , 98, , , 75, 75, 75
38.0861324, -120.2285389, 4.900, 10:23:16.812, 13, 0.00, 0.39, 98, 1.800, -0.600, -82.500, 1614, 100, 100, 17, 22850, -23532, 5381, 5548, 8, 14, 1525972996.813, 46, 0, 1024, 1024, 1024, 1024, 0, 6, 3794, 3801, 3803, 3774, 3802, 3795, 0, 1, 7402, -89.900, 0.000, -82.100, 0.000, 0.000, -3.200, 0.0, , , , , , 98, , , 75, 75, 75
38.0861322, -120.2285388, 5.300, 10:23:16.912, 14, 0.00, 0.41, 98, 2.100, -0.600, -82.600, 1614, 100, 100, 17, 22850, -23532, 5381, 5548, 8, 14, 1525972996.914, 84, 0, 1024, 1024, 1024, 1024, 0, 6, 3794, 3801, 3803, 3774, 3802, 3795, 0, 1, 7503, -89.900, 0.000, -82.100, 0.000, 0.000, -3.300, 0.0, , , , , , 98, , , 75, 75, 75
38.0861321, -120.2285388, 5.600, 10:23:17.012, 14, 0.00, 0.42, 97, 2.200, -0.600, -82.600, 1614, 100, 100, 17, 22850, -23532, 5381, 5548, 8, 14, 1525972997.013, 70, 0, 1024, 1024, 1024, 1024, 0, 6, 3794, 3801, 3803, 3774, 3802, 3795, 0, 1, 7602, -89.900, 0.000, -82.100, 0.000, 0.000, -3.200, 0.0, , , , , , 98, , , 75, 75, 75
38.0861320, -120.2285388, 6.000, 10:23:17.111, 14, 0.00, 0.43, 97, 1.900, -0.700, -82.500, 1614, 100, 100, 17, 22850, -23532, 5381, 5548, 8, 14, 1525972997.111, 60, 0, 1024, 1024, 1024, 1024, 0, 6, 3794, 3801, 3803, 3774, 3802, 3795, 0, 1, 7700, -89.900, 0.000, -82.100, 0.000, 0.000, -3.200, 0.0, , , , , , 98, , , 75, 75, 75
38.0861321, -120.2285388, 6.300, 10:23:17.212, 14, 0.00, 0.43, 97, 1.600, -0.700, -82.500, 1614, 100, 100, 17, 22850, -23532, 5381, 5548, 8, 14, 1525972997.213, 58, 0, 1024, 1024, 1024, 1024, 0, 6, 3794, 3801, 3803, 3774, 3802, 3795, 0, 1, 7802, -89.900, 0.000, -82.100, 0.000, 0.000, -3.200, 0.0, , , , , , 98, , , 75, 75, 75
38.0861321, -120.2285389, 6.600, 10:23:17.312, 14, 0.00, 0.43, 97, 1.300, -0.500, -82.500, 1614, 100, 100, 17, 22850, -23532, 5381, 5548, 8, 14, 1525972997.312, 55, 0, 1024, 1024, 1024, 1024, 0, 6, 3794, 3801, 3803, 3774, 3802, 3795, 0, 1, 7901, -89.900, 0.000, -82.100, 0.000, 0.000, -3.200, 0.0, , , , , , 98, , , 75, 75, 75
38.0861321, -120.2285391, 7.000, 10:23:17.411, 14, 0.00, 0.43, 97, 1.100, -0.200, -82.400, 1614, 100, 100, 17, 22850, -23532, 5381, 5548, 8, 14, 1525972997.411, 67, 0, 1024, 1024, 1024, 1024, 0, 6, 3794, 3801, 3803, 3774, 3802, 3795, 0, 1, 8000, -89.900, 0.000, -82.100, 0.000, 0.000, -3.100, 0.0, , , , , , 98, , , 75, 75, 75
38.0861321, -120.2285392, 7.300, 10:23:17.512, 13, 0.00, 0.42, 97, 1.000, 0.200, -82.400, 1614, 100, 100, 17, 22940, -20602, 5381, 5548, 8, 14, 1525972997.513, 64, 0, 1024, 1024, 1024, 1024, 0, 6, 3825, 3797, 3831, 3835, 3868, 3844, 0, 1, 8101, -89.900, 0.000, -82.100, 0.000, 0.000, -3.100, 0.0, , , , , , 98, , , 75, 75, 75
38.0861323, -120.2285393, 8.000, 10:23:17.612, 13, 0.10, 0.40, 97, 0.600, 0.700, -82.400, 1614, 100, 100, 17, 22940, -20602, 5381, 5548, 8, 14, 1525972997.613, 53, 0, 1024, 1024, 1024, 1024, 0, 6, 3825, 3797, 3831, 3835, 3868, 3844, 0, 1, 8202, -89.900, 0.000, -82.100, 0.100, 0.000, -3.200, 0.0, , , , , , 98, , , 75, 75, 75
38.0861323, -120.2285393, 8.300, 10:23:17.711, 13, 0.10, 0.40, 97, 0.200, 0.600, -82.400, 1614, 100, 100, 17, 22940, -20602, 5381, 5548, 8, 14, 1525972997.712, 7, 0, 1024, 1024, 1024, 1024, 0, 6, 3825, 3797, 3831, 3835, 3868, 3844, 0, 1, 8300, -89.900, 0.000, -82.100, 0.100, 0.000, -3.100, 0.0, , , , , , 98, , , 75, 75, 75
38.0861324, -120.2285394, 8.700, 10:23:17.811, 14, 0.00, 0.40, 97, 0.200, 0.500, -82.400, 1614, 100, 100, 17, 22940, -20602, 5381, 5548, 8, 14, 1525972997.812, 23, 0, 1024, 1024, 1024, 1024, 0, 6, 3825, 3797, 3831, 3835, 3868, 3844, 0, 1, 8401, -89.900, 0.000, -82.100, 0.000, 0.000, -3.100, 0.0, , , , , , 98, , , 75, 75, 75
38.0861324, -120.2285395, 9.000, 10:23:17.912, 14, 0.00, 0.40, 97, 0.300, 0.400, -82.500, 1614, 100, 100, 17, 22940, -20602, 5381, 5548, 8, 14, 1525972997.913, 24, 0, 1024, 1024, 1024, 1024, 0, 6, 3825, 3797, 3831, 3835, 3868, 3844, 0, 1, 8502, -89.900, 0.000, -82.100, 0.000, 0.000, -3.100, 0.0, , , , , , 98, , , 75, 75, 75
38.0861323, -120.2285395, 9.300, 10:23:18.012, 14, 0.00, 0.41, 97, 0.500, 0.400, -82.500, 1614, 100, 100, 17, 22940, -20602, 5381, 5548, 8, 14, 1525972998.013, 28, 0, 1024, 1024, 1024, 1024, 0, 6, 3825, 3797, 3831, 3835, 3868, 3844, 0, 1, 8602, -89.900, 0.000, -82.100, 0.000, 0.000, -3.000, 0.0, , , , , , 98, , , 75, 75, 75
38.0861322, -120.2285396, 9.600, 10:23:18.111, 14, 0.00, 0.42, 97, 0.800, 0.500, -82.500, 1614, 100, 100, 17, 22940, -20602, 5381, 5548, 8, 14, 1525972998.112, 27, 0, 1024, 1024, 1024, 1024, 0, 6, 3825, 3797, 3831, 3835, 3868, 3844, 0, 1, 8701, -89.900, 0.000, -82.100, 0.000, 0.000, -3.000, 0.0, , , , , , 98, , , 75, 75, 75
38.0861321, -120.2285397, 9.900, 10:23:18.212, 14, 0.00, 0.43, 97, 1.200, 0.600, -82.500, 1614, 100, 100, 17, 22940, -20602, 5381, 5548, 8, 14, 1525972998.212, 23, 0, 1024, 1024, 1024, 1024, 0, 6, 3825, 3797, 3831, 3835, 3868, 3844, 0, 1, 8801, -89.900, 0.000, -82.100, 0.000, 0.000, -2.900, 0.0, , , , , , 98, , , 75, 75, 75
38.0861321, -120.2285398, 10.200, 10:23:18.312, 14, 0.00, 0.43, 97, 1.600, 0.700, -82.500, 1614, 100, 100, 17, 22940, -20602, 5381, 5548, 8, 14, 1525972998.313, 26, 0, 1024, 1024, 1024, 1024, 0, 6, 3825, 3797, 3831, 3835, 3868, 3844, 0, 1, 8901, -89.900, 0.000, -82.100, 0.000, 0.000, -2.900, 0.0, , , , , , 98, , , 75, 75, 75
38.0861321, -120.2285399, 10.600, 10:23:18.412, 13, 0.00, 0.44, 97, 1.500, 0.700, -82.600, 1614, 100, 100, 17, 23156, -18150, 5381, 5548, 8, 14, 1525972998.414, 36, 0, 1024, 1024, 1024, 1024, 0, 6, 3825, 3797, 3831, 3835, 3868, 3844, 0, 1, 9003, -89.900, 0.000, -82.100, 0.000, 0.000, -3.000, 0.0, , , , , , 98, , , 75, 75, 75
38.0861321, -120.2285400, 10.900, 10:23:18.512, 13, 0.00, 0.44, 97, 1.400, 0.800, -82.600, 1614, 100, 100, 17, 23156, -18150, 5381, 5548, 8, 14, 1525972998.513, 22, 0, 1024, 1024, 1024, 1024, 0, 6, 3825, 3797, 3831, 3835, 3868, 3844, 0, 1, 9101, -89.900, 0.000, -82.100, 0.000, 0.000, -3.000, 0.0, , , , , , 98, , , 75, 75, 75
38.0861321, -120.2285400, 11.200, 10:23:18.615, 14, 0.00, 0.44, 97, 1.400, 0.800, -82.600, 1614, 100, 100, 17, 23156, -18150, 5381, 5548, 8, 14, 1525972998.616, 8, 0, 1024, 1024, 1024, 1024, 0, 6, 3825, 3797, 3831, 3835, 3868, 3844, 0, 1, 9205, -89.900, 0.000, -82.100, 0.000, 0.000, -2.900, 0.0, , , , , , 98, , , 75, 75, 75
38.0861321, -120.2285400, 11.200, 10:23:18.712, 14, 0.00, 0.44, 97, 1.400, 0.800, -82.600, 1614, 100, 100, 17, 23156, -18150, 5381, 5548, 8, 14, 1525972998.712, 105, 0, 1024, 1024, 1024, 1024, 0, 6, 3825, 3797, 3831, 3835, 3868, 3844, 0, 1, 9301, -89.900, 0.000, -82.100, 0.000, 0.000, -2.900, 0.0, , , , , , 98, , , 75, 75, 75
38.0861322, -120.2285401, 11.500, 10:23:18.812, 14, 0.00, 0.43, 97, 1.200, 0.800, -82.600, 1614, 100, 100, 17, 23156, -18150, 5381, 5548, 8, 14, 1525972998.812, 76, 0, 1024, 1024, 1024, 1024, 0, 6, 3825, 3797, 3831, 3835, 3868, 3844, 0, 1, 9401, -89.900, 0.000, -82.100, 0.000, 0.000, -3.000, 0.0, , , , , , 98, , , 75, 75, 75
38.0861323, -120.2285402, 11.800, 10:23:18.912, 14, 0.10, 0.42, 97, 0.800, 0.800, -82.600, 1614, 100, 100, 17, 23156, -18150, 5381, 5548, 8, 14, 1525972998.912, 88, 0, 1024, 1024, 1024, 1024, 0, 6, 3825, 3797, 3831, 3835, 3868, 3844, 0, 1, 9501, -89.900, 0.000, -82.100, 0.100, 0.000, -2.900, 0.0, , , , , , 98, , , 75, 75, 75
38.0861324, -120.2285402, 12.100, 10:23:19.012, 14, 0.10, 0.41, 97, 0.400, 0.700, -82.500, 1614, 100, 100, 17, 23156, -18150, 5381, 5548, 8, 14, 1525972999.013, 94, 0, 1024, 1024, 1024, 1024, 0, 6, 3859, 3838, 3859, 3853, 3879, 3870, 0, 1, 9602, -89.900, 0.000, -82.100, 0.100, 0.000, -2.900, 0.0, , , , , , 98, , , 75, 75, 75
38.0861325, -120.2285402, 12.400, 10:23:19.111, 14, 0.10, 0.41, 97, 0.200, 0.600, -82.500, 1614, 100, 100, 17, 23156, -18150, 5381, 5548, 8, 14, 1525972999.111, 90, 0, 1024, 1024, 1024, 1024, 0, 6, 3859, 3838, 3859, 3853, 3879, 3870, 0, 1, 9700, -89.900, 0.000, -82.100, 0.100, 0.000, -2.900, 0.0, , , , , , 98, , , 75, 75, 75
38.0861325, -120.2285402, 12.700, 10:23:19.212, 14, 0.00, 0.41, 97, 0.200, 0.500, -82.500, 1614, 100, 100, 17, 23156, -18150, 5381, 5548, 8, 14, 1525972999.213, 55, 0, 1024, 1024, 1024, 1024, 0, 6, 3859, 3838, 3859, 3853, 3879, 3870, 0, 1, 9802, -89.900, 0.000, -82.100, 0.000, 0.000, -2.900, 0.0, , , , , , 98, , , 75, 75, 75
38.0861326, -120.2285403, 13.000, 10:23:19.312, 14, 0.00, 0.40, 97, 0.300, 0.400, -82.500, 1614, 100, 100, 17, 23156, -18150, 5381, 5548, 8, 14, 1525972999.314, 70, 0, 1024, 1024, 1024, 1024, 0, 6, 3859, 3838, 3859, 3853, 3879, 3870, 0, 1, 9902, -89.900, 0.000, -82.100, 0.000, 0.000, -2.900, 0.0, , , , , , 98, , , 75, 75, 75
38.0861327, -120.2285403, 13.300, 10:23:19.412, 14, 0.00, 0.39, 97, 0.300, 0.400, -82.600, 1614, 100, 100, 17, 23156, -18150, 5381, 5548, 8, 14, 1525972999.413, 37, 0, 1024, 1024, 1024, 1024, 0, 6, 3859, 3838, 3859, 3853, 3879, 3870, 0, 1, 10002, -89.900, 0.000, -82.100, 0.000, 0.000, -2.900, 0.0, , , , , , 98, , , 75, 75, 75
38.0861329, -120.2285404, 13.600, 10:23:19.512, 14, 0.00, 0.38, 97, 0.100, 0.500, -82.600, 1614, 100, 100, 17, 23156, -18150, 5381, 5548, 8, 14, 1525972999.513, 44, 0, 1024, 1024, 1024, 1024, 0, 6, 3859, 3838, 3859, 3853, 3879, 3870, 0, 1, 10101, -89.900, 0.000, -82.100, 0.000, 0.000, -2.900, 0.0, , , , , , 98, , , 75, 75, 75
38.0861329, -120.2285404, 13.600, 10:23:19.612, 14, 0.00, 0.38, 97, 0.100, 0.500, -82.600, 1614, 100, 100, 17, 23156, -18150, 5381, 5548, 8, 14, 1525972999.612, 143, 0, 1024, 1024, 1024, 1024, 0, 6, 3859, 3838, 3859, 3853, 3879, 3870, 0, 1, 10201, -89.900, 0.000, -82.100, 0.000, 0.000, -2.900, 0.0, , , , , , 98, , , 75, 75, 75
38.0861329, -120.2285404, 13.900, 10:23:19.712, 14, 0.00, 0.37, 97, 0.000, 0.600, -82.600, 1614, 100, 100, 17, 23156, -18150, 5381, 5548, 8, 14, 1525972999.712, 68, 0, 1024, 1024, 1024, 1024, 0, 6, 3859, 3838, 3859, 3853, 3879, 3870, 0, 1, 10301, -89.900, 0.000, -82.100, 0.000, 0.000, -2.900, 0.0, , , , , , 98, , , 75, 75, 75
38.0861330, -120.2285404, 14.200, 10:23:19.812, 12, 0.00, 0.37, 97, 0.000, 0.700, -82.600, 1614, 100, 100, 17, 23156, -18150, 5381, 5548, 8, 14, 1525972999.813, 80, 0, 1024, 1024, 1024, 1024, 0, 6, 3859, 3838, 3859, 3853, 3879, 3870, 0, 1, 10402, -89.900, 0.000, -82.100, 0.000, 0.000, -2.900, 0.0, , , , , , 98, , , 75, 75, 75
38.0861330, -120.2285403, 14.500, 10:23:19.912, 12, 0.00, 0.36, 97, 0.000, 0.500, -82.500, 1614, 100, 100, 17, 23156, -18150, 5381, 5548, 8, 14, 1525972999.913, 41, 0, 1024, 1024, 1024, 1024, 0, 6, 3859, 3838, 3859, 3853, 3879, 3870, 0, 1, 10502, -89.900, 0.000, -82.100, 0.000, 0.000, -2.900, 0.0, , , , , , 98, , , 75, 75, 75
38.0861330, -120.2285406, 15.100, 10:23:20.027, 13, 0.00, 0.37, 97, 0.200, 0.200, -82.400, 1614, 100, 100, 17, 23156, -18150, 5381, 5548, 8, 14, 1525973000.028, 11, 0, 1024, 1024, 1024, 1024, 0, 6, 3859, 3838, 3859, 3853, 3879, 3870, 0, 1, 10617, -89.900, 0.000, -82.100, 0.000, 0.000, -2.900, 0.0, , , , , , 98, , , 75, 75, 75
38.0861330, -120.2285406, 15.100, 10:23:20.112, 13, 0.00, 0.37, 97, 0.200, 0.200, -82.400, 1614, 100, 100, 17, 23156, -18150, 5381, 5548, 8, 14, 1525973000.112, 95, 0, 1024, 1024, 1024, 1024, 0, 6, 3859, 3838, 3859, 3853, 3879, 3870, 0, 1, 10701, -89.900, 0.000, -82.100, 0.000, 0.000, -2.900, 0.0, , , , , , 98, , , 75, 75, 75
38.0861330, -120.2285406, 15.400, 10:23:20.212, 13, 0.00, 0.37, 97, 0.400, 0.500, -82.400, 1614, 100, 100, 17, 23158, -17903, 5381, 5548, 8, 14, 1525973000.213, 34, 0, 1024, 1024, 1024, 1024, 0, 6, 3855, 3849, 3861, 3850, 3879, 3869, 0, 1, 10802, -89.900, 0.000, -82.100, 0.000, 0.000, -2.900, 0.0, , , , , , 98, , , 75, 75, 75
38.0861332, -120.2285404, 15.700, 10:23:20.314, 13, 0.00, 0.35, 97, 0.500, 0.500, -82.400, 1614, 100, 100, 17, 23158, -17903, 5381, 5548, 8, 14, 1525973000.314, 4, 0, 1024, 1024, 1024, 1024, 0, 6, 3855, 3849, 3861, 3850, 3879, 3869, 0, 1, 10903, -89.900, 0.000, -82.100, 0.000, 0.000, -2.900, 0.0, , , , , , 98, , , 75, 75, 75
38.0861332, -120.2285404, 15.700, 10:23:20.412, 13, 0.00, 0.35, 97, 0.500, 0.500, -82.400, 1614, 100, 100, 17, 23158, -17903, 5381, 5548, 8, 14, 1525973000.412, 102, 0, 1024, 1024, 1024, 1024, 0, 6, 3855, 3849, 3861, 3850, 3879, 3869, 0, 1, 11001, -89.900, 0.000, -82.100, 0.000, 0.000, -2.900, 0.0, , , , , , 98, , , 75, 75, 75
38.0861332, -120.2285403, 16.000, 10:23:20.512, 14, 0.00, 0.33, 97, 0.300, 0.200, -82.400, 1614, 100, 100, 17, 23158, -17903, 5381, 5548, 8, 14, 1525973000.512, 72, 0, 1024, 1024, 1024, 1024, 0, 6, 3855, 3849, 3861, 3850, 3879, 3869, 0, 1, 11101, -89.900, 0.000, -82.100, 0.000, 0.000, -2.900, 0.0, , , , , , 98, , , 75, 75, 75
38.0861333, -120.2285402, 16.600, 10:23:20.611, 12, 0.00, 0.33, 97, 0.000, -0.100, -82.400, 1614, 100, 100, 17, 23158, -17903, 5381, 5548, 8, 14, 1525973000.612, 25, 0, 1024, 1024, 1024, 1024, 0, 6, 3855, 3849, 3861, 3850, 3879, 3869, 0, 1, 11200, -90.000, 0.000, -82.100, 0.000, 0.000, -2.900, 0.0, , , , , , 98, , , 75, 75, 75
38.0861334, -120.2285401, 16.900, 10:23:20.715, 12, 0.00, 0.32, 97, 0.000, -0.100, -82.500, 1614, 100, 100, 17, 23158, -17903, 5381, 5548, 8, 14, 1525973000.716, 8, 0, 1024, 1024, 1024, 1024, 0, 6, 3855, 3849, 3861, 3850, 3879, 3869, 0, 1, 11305, -89.900, 0.000, -82.100, 0.000, 0.000, -2.900, 0.0, , , , , , 98, , , 75, 75, 75
38.0861334, -120.2285401, 16.900, 10:23:20.812, 12, 0.00, 0.32, 97, 0.000, -0.100, -82.500, 1614, 100, 100, 17, 23158, -17903, 5381, 5548, 8, 14, 1525973000.813, 106, 0, 1024, 1024, 1024, 1024, 0, 6, 3855, 3849, 3861, 3850, 3879, 3869, 0, 1, 11402, -89.900, 0.000, -82.100, 0.000, 0.000, -2.900, 0.0, , , , , , 98, , , 75, 75, 75
38.0861334, -120.2285400, 17.200, 10:23:20.912, 12, 0.00, 0.31, 97, 0.000, -0.100, -82.500, 1614, 100, 100, 17, 23158, -17903, 5381, 5548, 8, 14, 1525973000.913, 91, 0, 1024, 1024, 1024, 1024, 0, 6, 3855, 3849, 3861, 3850, 3879, 3869, 0, 1, 11502, -89.900, 0.000, -82.100, 0.000, 0.000, -2.900, 0.0, , , , , , 98, , , 75, 75, 75
38.0861334, -120.2285400, 17.500, 10:23:21.011, 12, 0.00, 0.31, 97, 0.100, -0.100, -82.600, 1614, 100, 100, 17, 23158, -17903, 5381, 5548, 8, 14, 1525973001.011, 41, 0, 1024, 1024, 1024, 1024, 0, 6, 3855, 3849, 3861, 3850, 3879, 3869, 0, 1, 11600, -89.900, 0.000, -82.100, 0.000, 0.000, -2.900, 0.0, , , , , , 98, , , 75, 75, 75
38.0861334, -120.2285400, 17.800, 10:23:21.112, 15, 0.00, 0.30, 97, 0.200, -0.100, -82.600, 1614, 100, 100, 17, 23158, -17903, 5381, 5548, 8, 14, 1525973001.112, 92, 0, 1024, 1024, 1024, 1024, 0, 6, 3855, 3849, 3861, 3850, 3879, 3869, 0, 1, 11701, -89.900, 0.000, -82.100, 0.000, 0.000, -2.900, 0.0, , , , , , 98, , , 75, 75, 75
38.0861335, -120.2285399, 18.100, 10:23:21.212, 15, 0.00, 0.29, 97, 0.200, -0.100, -82.700, 1614, 100, 100, 17, 23154, -17823, 5381, 5548, 8, 14, 1525973001.212, 42, 0, 1024, 1024, 1024, 1024, 0, 6, 3855, 3849, 3861, 3850, 3879, 3869, 0, 1, 11801, -90.000, 0.000, -82.100, 0.000, 0.000, -2.900, 0.0, , , , , , 98, , , 75, 75, 75
38.0861335, -120.2285398, 18.400, 10:23:21.312, 15, 0.00, 0.29, 97, 0.000, -0.200, -82.700, 1614, 100, 100, 17, 23154, -17823, 5381, 5548, 8, 14, 1525973001.312, 67, 0, 1024, 1024, 1024, 1024, 0, 6, 3861, 3837, 3860, 3850, 3879, 3861, 0, 1, 11901, -90.000, 0.000, -82.100, 0.000, 0.000, -2.900, 0.0, , , , , , 98, , , 75, 75, 75
38.0861335, -120.2285397, 19.000, 10:23:21.412, 14, 0.00, 0.29, 97, 0.000, -0.200, -82.800, 1614, 100, 100, 17, 23154, -17823, 5381, 5548, 8, 14, 1525973001.414, 7, 0, 1024, 1024, 1024, 1024, 0, 6, 3861, 3837, 3860, 3850, 3879, 3861, 0, 1, 12003, -89.900, 0.000, -82.100, 0.000, 0.000, -2.900, 0.0, , , , , , 98, , , 75, 75, 75
38.0861334, -120.2285397, 19.300, 10:23:21.512, 14, 0.00, 0.29, 97, 0.100, -0.200, -82.800, 1614, 100, 100, 17, 23154, -17823, 5381, 5548, 8, 14, 1525973001.514, 44, 0, 1024, 1024, 1024, 1024, 0, 6, 3861, 3837, 3860, 3850, 3879, 3861, 0, 1, 12103, -89.900, 0.000, -82.100, 0.000, 0.000, -2.900, 0.0, , , , , , 98, , , 75, 75, 75
38.0861334, -120.2285397, 19.600, 10:23:21.612, 15, 0.00, 0.29, 97, 0.400, -0.100, -82.700, 1614, 100, 100, 17, 23154, -17823, 5381, 5548, 8, 14, 1525973001.613, 74, 0, 1024, 1024, 1024, 1024, 0, 6, 3861, 3837, 3860, 3850, 3879, 3861, 0, 1, 12202, -89.900, 0.000, -82.100, 0.000, 0.000, -2.900, 0.0, , , , , , 98, , , 75, 75, 75
38.0861335, -120.2285395, 20.200, 10:23:21.712, 14, 0.00, 0.29, 97, 0.400, 0.000, -82.600, 1614, 100, 100, 17, 23154, -17823, 5381, 5548, 8, 14, 1525973001.712, 26, 0, 1024, 1024, 1024, 1024, 0, 6, 3861, 3837, 3860, 3850, 3879, 3861, 0, 1, 12301, -89.900, 0.000, -82.100, 0.000, 0.000, -3.000, 0.0, , , , , , 98, , , 75, 75, 75
38.0861335, -120.2285395, 20.500, 10:23:21.831, 14, 0.00, 0.28, 97, 0.300, 0.000, -82.500, 1614, 100, 100, 17, 23154, -17823, 5381, 5548, 8, 14, 1525973001.832, 5, 0, 1024, 1024, 1024, 1024, 0, 6, 3861, 3837, 3860, 3850, 3879, 3861, 0, 1, 12421, -89.900, 0.000, -82.100, 0.000, 0.000, -2.900, 0.0, , , , , , 98, , , 75, 75, 75
38.0861335, -120.2285394, 20.800, 10:23:21.912, 15, 0.00, 0.28, 97, 0.200, -0.200, -82.400, 1614, 100, 100, 17, 23154, -17823, 5381, 5548, 8, 14, 1525973001.912, 41, 0, 1024, 1024, 1024, 1024, 0, 6, 3861, 3837, 3860, 3850, 3879, 3861, 0, 1, 12501, -90.000, 0.000, -82.100, 0.000, 0.000, -2.900, 0.0, , , , , , 98, , , 75, 75, 75
38.0861335, -120.2285394, 21.100, 10:23:22.012, 15, 0.00, 0.28, 97, 0.100, -0.300, -82.400, 1614, 100, 100, 17, 23125, -17810, 5381, 5548, 8, 14, 1525973002.012, 27, 0, 1024, 1024, 1024, 1024, 0, 6, 3856, 3834, 3855, 3851, 3879, 3862, 0, 1, 12601, -90.000, 0.000, -82.100, 0.000, 0.000, -2.900, 0.0, , , , , , 98, , , 75, 75, 75
38.0861334, -120.2285393, 21.400, 10:23:22.111, 15, 0.00, 0.28, 97, 0.100, -0.400, -82.400, 1614, 100, 100, 17, 23125, -17810, 5381, 5548, 8, 14, 1525973002.111, 43, 0, 1024, 1024, 1024, 1024, 0, 6, 3856, 3834, 3855, 3851, 3879, 3862, 0, 1, 12700, -90.000, 0.000, -82.100, 0.000, 0.000, -2.800, 0.0, , , , , , 98, , , 75, 75, 75
38.0861335, -120.2285391, 22.000, 10:23:22.211, 15, 0.00, 0.27, 97, 0.000, -0.600, -82.500, 1614, 100, 100, 17, 23125, -17810, 5381, 5548, 8, 14, 1525973002.212, 36, 0, 1024, 1024, 1024, 1024, 0, 6, 3856, 3834, 3855, 3851, 3879, 3862, 0, 1, 12801, -90.000, 0.000, -82.100, 0.000, 0.000, -2.900, 0.0, , , , , , 98, , , 75, 75, 75
38.0861335, -120.2285390, 22.300, 10:23:22.312, 15, 0.00, 0.27, 97, 0.000, -0.700, -82.600, 1614, 100, 100, 17, 23125, -17810, 5381, 5548, 8, 14, 1525973002.312, 52, 0, 1024, 1024, 1024, 1024, 0, 6, 3856, 3834, 3855, 3851, 3879, 3862, 0, 1, 12901, -90.000, 0.000, -82.100, 0.000, 0.000, -2.900, 0.0, , , , , , 98, , , 75, 75, 75
38.0861335, -120.2285390, 22.600, 10:23:22.412, 15, 0.00, 0.27, 97, -0.100, -0.700, -82.600, 1614, 100, 100, 17, 23125, -17810, 5381, 5548, 8, 14, 1525973002.412, 55, 0, 1024, 1024, 1024, 1024, 0, 6, 3856, 3834, 3855, 3851, 3879, 3862, 0, 1, 13001, -90.000, 0.000, -82.100, 0.000, 0.000, -2.900, 0.0, , , , , , 98, , , 75, 75, 75
38.0861335, -120.2285389, 22.900, 10:23:22.511, 15, 0.00, 0.27, 97, -0.100, -0.600, -82.600, 1614, 100, 100, 17, 23125, -17810, 5381, 5548, 8, 14, 1525973002.512, 45, 0, 1024, 1024, 1024, 1024, 0, 6, 3856, 3834, 3855, 3851, 3879, 3862, 0, 1, 13101, -89.900, 0.000, -82.100, 0.000, 0.000, -2.900, 0.0, , , , , , 98, , , 75, 75, 75
38.0861334, -120.2285389, 23.200, 10:23:22.611, 15, 0.00, 0.28, 97, 0.000, -0.500, -82.600, 1614, 100, 100, 17, 23125, -17810, 5381, 5548, 8, 14, 1525973002.612, 39, 0, 1024, 1024, 1024, 1024, 0, 6, 3856, 3834, 3855, 3851, 3879, 3862, 0, 1, 13201, -90.000, 0.000, -82.100, 0.000, 0.000, -2.900, 0.0, , , , , , 98, , , 75, 75, 75
38.0861333, -120.2285388, 23.500, 10:23:22.721, 15, 0.00, 0.29, 97, 0.000, -0.400, -82.700, 1614, 100, 100, 17, 23125, -17810, 5381, 5548, 8, 14, 1525973002.721, 6, 0, 1024, 1024, 1024, 1024, 0, 6, 3856, 3834, 3855, 3851, 3879, 3862, 0, 1, 13310, -89.900, 0.000, -82.100, 0.000, 0.000, -2.900, 0.0, , , , , , 98, , , 75, 75, 75
38.0861333, -120.2285388, 23.800, 10:23:22.812, 17, 0.00, 0.29, 97, 0.300, -0.400, -82.700, 1614, 100, 100, 17, 23125, -17810, 5381, 5548, 8, 14, 1525973002.812, 30, 0, 1024, 1024, 1024, 1024, 0, 6, 3856, 3834, 3855, 3851, 3879, 3862, 0, 1, 13401, -90.000, 0.000, -82.100, 0.000, 0.000, -2.900, 0.0, , , , , , 98, , , 75, 75, 75
38.0861332, -120.2285389, 24.100, 10:23:22.912, 17, 0.00, 0.30, 97, 0.500, -0.500, -82.700, 1614, 100, 100, 17, 23149, -17544, 5381, 5548, 8, 14, 1525973002.912, 30, 0, 1024, 1024, 1024, 1024, 0, 6, 3852, 3830, 3860, 3853, 3875, 3862, 0, 1, 13501, -89.900, 0.000, -82.100, 0.000, 0.000, -3.000, 0.0, , , , , , 98, , , 75, 75, 75
38.0861332, -120.2285388, 24.400, 10:23:23.011, 16, 0.00, 0.30, 97, 0.500, -0.500, -82.600, 1614, 100, 99, 17, 23149, -17544, 5381, 5548, 8, 14, 1525973003.011, 15, 0, 1024, 1024, 1024, 1024, 0, 6, 3852, 3830, 3860, 3853, 3875, 3862, 0, 1, 13600, -90.000, 0.000, -82.100, 0.000, 0.000, -2.900, 0.0, , , , , , 98, , , 75, 75, 75
38.0861332, -120.2285388, 24.700, 10:23:23.112, 16, 0.00, 0.30, 97, 0.300, -0.500, -82.500, 1614, 100, 99, 17, 23149, -17544, 5381, 5548, 8, 14, 1525973003.112, 18, 0, 1024, 1024, 1024, 1024, 0, 6, 3852, 3830, 3860, 3853, 3875, 3862, 0, 1, 13701, -89.900, 0.000, -82.100, 0.000, 0.000, -2.900, 0.0, , , , , , 98, , , 75, 75, 75
38.0861331, -120.2285388, 25.000, 10:23:23.215, 15, 0.00, 0.31, 97, 0.100, -0.500, -82.400, 1614, 100, 99, 17, 23149, -17544, 5381, 5548, 8, 14, 1525973003.216, 5, 0, 1024, 1024, 1024, 1024, 0, 6, 3852, 3830, 3860, 3853, 3875, 3862, 0, 1, 13804, -90.000, 0.000, -82.100, 0.000, 0.000, -2.900, 0.0, , , , , , 98, , , 75, 75, 75
38.0861331, -120.2285388, 25.000, 10:23:23.312, 15, 0.00, 0.31, 97, 0.100, -0.500, -82.400, 1614, 100, 99, 17, 23149, -17544, 5381, 5548, 8, 14, 1525973003.312, 101, 0, 1024, 1024, 1024, 1024, 0, 6, 3852, 3830, 3860, 3853, 3875, 3862, 0, 1, 13901, -90.000, 0.000, -82.100, 0.000, 0.000, -2.900, 0.0, , , , , , 98, , , 75, 75, 75
38.0861330, -120.2285388, 25.600, 10:23:23.414, 16, 0.00, 0.32, 97, 0.300, -0.400, -82.400, 1614, 100, 99, 17, 23149, -17544, 5381, 5548, 8, 14, 1525973003.415, 7, 0, 1024, 1024, 1024, 1024, 0, 6, 3852, 3830, 3860, 3853, 3875, 3862, 0, 1, 14004, -89.900, 0.000, -82.100, 0.000, 0.000, -2.800, 0.0, , , , , , 98, , , 75, 75, 75
38.0861330, -120.2285388, 25.900, 10:23:23.521, 16, 0.00, 0.32, 97, 0.400, -0.500, -82.400, 1614, 100, 99, 17, 23149, -17544, 5381, 5548, 8, 14, 1525973003.521, 7, 0, 1024, 1024, 1024, 1024, 0, 6, 3852, 3830, 3860, 3853, 3875, 3862, 0, 1, 14110, -90.000, 0.000, -82.100, 0.000, 0.000, -2.900, 0.0, , , , , , 98, , , 75, 75, 75
38.0861330, -120.2285388, 25.900, 10:23:23.612, 16, 0.00, 0.32, 97, 0.400, -0.500, -82.400, 1614, 100, 99, 17, 23149, -17544, 5381, 5548, 8, 14, 1525973003.614, 100, 0, 1024, 1024, 1024, 1024, 0, 6, 3852, 3830, 3860, 3853, 3875, 3862, 0, 1, 14202, -90.000, 0.000, -82.100, 0.000, 0.000, -2.900, 0.0, , , , , , 98, , , 75, 75, 75
38.0861330, -120.2285388, 26.200, 10:23:23.712, 15, 0.00, 0.33, 97, 0.700, -0.300, -82.400, 1614, 100, 99, 17, 23149, -17544, 5381, 5548, 8, 14, 1525973003.713, 80, 0, 1024, 1024, 1024, 1024, 0, 6, 3852, 3830, 3860, 3853, 3875, 3862, 0, 1, 14302, -89.900, 0.000, -82.100, 0.000, 0.000, -2.900, 0.0, , , , , , 98, , , 75, 75, 75
38.0861329, -120.2285388, 26.500, 10:23:23.812, 15, 0.00, 0.33, 97, 0.800, -0.200, -82.400, 1614, 100, 99, 17, 23149, -17544, 5381, 5548, 8, 14, 1525973003.812, 58, 0, 1024, 1024, 1024, 1024, 0, 6, 3852, 3830, 3860, 3853, 3875, 3862, 0, 1, 14401, -89.900, 0.000, -82.100, 0.000, 0.000, -2.900, 0.0, , , , , , 98, , , 75, 75, 75
38.0861330, -120.2285388, 26.800, 10:23:23.912, 15, 0.00, 0.33, 97, 0.500, -0.200, -82.500, 1614, 100, 99, 17, 23149, -17544, 5381, 5548, 8, 14, 1525973003.912, 80, 0, 1024, 1024, 1024, 1024, 0, 6, 3852, 3830, 3860, 3853, 3875, 3862, 0, 1, 14501, -89.900, 0.000, -82.100, 0.000, 0.000, -2.900, 0.0, , , , , , 98, , , 75, 75, 75
38.0861330, -120.2285388, 27.000, 10:23:24.012, 15, 0.00, 0.33, 97, 0.200, -0.300, -82.500, 1614, 100, 99, 17, 23103, -17675, 5381, 5548, 8, 14, 1525973004.012, 76, 0, 1024, 1024, 1024, 1024, 0, 6, 3852, 3830, 3860, 3853, 3875, 3862, 0, 1, 14601, -90.000, 0.000, -82.100, 0.000, 0.000, -2.900, 0.0, , , , , , 98, , , 75, 75, 75
38.0861330, -120.2285388, 27.300, 10:23:24.112, 15, 0.00, 0.32, 97, 0.000, -0.400, -82.600, 1614, 100, 100, 17, 23103, -17675, 5381, 5548, 8, 14, 1525973004.112, 72, 0, 1024, 1024, 1024, 1024, 0, 6, 3852, 3830, 3860, 3853, 3875, 3862, 0, 1, 14701, -90.000, 0.000, -82.100, 0.000, 0.000, -2.800, 0.0, , , , , , 98, , , 75, 75, 75
38.0861330, -120.2285387, 27.900, 10:23:24.212, 16, 0.00, 0.32, 97, 0.000, -0.500, -82.600, 1614, 100, 100, 17, 23103, -17675, 5381, 5548, 8, 14, 1525973004.212, 36, 0, 1024, 1024, 1024, 1024, 0, 6, 3852, 3830, 3860, 3853, 3875, 3862, 0, 1, 14801, -90.000, 0.000, -82.100, 0.000, 0.000, -2.900, 0.0, , , , , , 98, , , 75, 75, 75
38.0861330, -120.2285387, 27.900, 10:23:24.311, 16, 0.00, 0.32, 97, 0.000, -0.500, -82.600, 1614, 100, 100, 17, 23103, -17675, 5381, 5548, 8, 14, 1525973004.312, 135, 0, 1024, 1024, 1024, 1024, 0, 6, 3852, 3830, 3860, 3853, 3875, 3862, 0, 1, 14900, -90.000, 0.000, -82.100, 0.000, 0.000, -2.900, 0.0, , , , , , 98, , , 75, 75, 75
38.0861330, -120.2285387, 28.200, 10:23:24.412, 16, 0.00, 0.33, 97, -0.100, -0.700, -82.500, 1614, 100, 100, 17, 23103, -17675, 5381, 5548, 8, 14, 1525973004.412, 57, 0, 1024, 1024, 1024, 1024, 0, 6, 3852, 3830, 3860, 3853, 3875, 3862, 0, 1, 15001, -90.000, 0.000, -82.100, 0.000, 0.000, -2.900, 0.0, , , , , , 98, , , 75, 75, 75
38.0861329, -120.2285387, 28.500, 10:23:24.512, 16, 0.00, 0.33, 97, -0.100, -0.900, -82.400, 1614, 100, 100, 17, 23103, -17675, 5381, 5548, 8, 14, 1525973004.512, 55, 0, 1024, 1024, 1024, 1024, 0, 6, 3846, 3832, 3854, 3853, 3875, 3862, 0, 1, 15101, -90.000, 0.000, -82.100, 0.000, 0.000, -2.900, 0.0, , , , , , 98, , , 75, 75, 75
38.0861328, -120.2285387, 29.100, 10:23:24.612, 16, 0.00, 0.34, 97, 0.300, -0.800, -82.300, 1614, 100, 100, 17, 23103, -17675, 5381, 5548, 8, 14, 1525973004.613, 33, 0, 1024, 1024, 1024, 1024, 0, 6, 3846, 3832, 3854, 3853, 3875, 3862, 0, 1, 15201, -89.900, 0.000, -82.100, 0.000, 0.000, -2.900, 0.0, , , , , , 98, , , 75, 75, 75
38.0861328, -120.2285387, 29.400, 10:23:24.712, 16, 0.00, 0.35, 97, 0.700, -0.700, -82.300, 1614, 100, 100, 17, 23103, -17675, 5381, 5548, 8, 14, 1525973004.712, 45, 0, 1024, 1024, 1024, 1024, 0, 6, 3846, 3832, 3854, 3853, 3875, 3862, 0, 1, 15301, -89.900, 0.000, -82.100, 0.000, 0.000, -2.900, 0.0, , , , , , 98, , , 75, 75, 75
38.0861327, -120.2285387, 29.700, 10:23:24.812, 16, 0.00, 0.35, 97, 1.100, -0.600, -82.300, 1614, 100, 100, 17, 23103, -17675, 5381, 5548, 8, 14, 1525973004.812, 25, 0, 1024, 1024, 1024, 1024, 0, 6, 3846, 3832, 3854, 3853, 3875, 3862, 0, 1, 15401, -89.900, 0.000, -82.100, 0.000, 0.000, -2.900, 0.0, , , , , , 98, , , 75, 75, 75
38.0861327, -120.2285387, 30.000, 10:23:24.913, 16, 0.00, 0.36, 97, 1.300, -0.500, -82.500, 1614, 100, 100, 17, 23103, -17675, 5381, 5548, 8, 14, 1525973004.913, 9, 0, 1024, 1024, 1024, 1024, 0, 6, 3846, 3832, 3854, 3853, 3875, 3862, 0, 1, 15502, -89.900, 0.000, -82.100, 0.000, 0.000, -2.900, 0.0, , , , , , 98, , , 75, 75, 75
38.0861326, -120.2285388, 30.300, 10:23:25.012, 17, 0.00, 0.36, 97, 1.200, -0.500, -82.700, 1614, 100, 97, 18, 23028, -18312, 5381, 5548, 8, 14, 1525973005.012, 24, 0, 1024, 1024, 1024, 1024, 0, 6, 3846, 3832, 3854, 3853, 3875, 3862, 0, 1, 15601, -89.900, 0.000, -82.100, 0.000, 0.000, -3.000, 0.0, , , , , , 98, , , 75, 75, 75
38.0861326, -120.2285388, 30.600, 10:23:25.112, 17, 0.00, 0.37, 97, 0.800, -0.600, -82.800, 1614, 100, 97, 18, 23028, -18312, 5381, 5548, 8, 14, 1525973005.112, 15, 0, 1024, 1024, 1024, 1024, 0, 6, 3846, 3832, 3854, 3853, 3875, 3862, 0, 1, 15701, -90.000, 0.000, -82.100, 0.000, 0.000, -2.900, 0.0, , , , , , 98, , , 75, 75, 75
38.0861326, -120.2285388, 30.600, 10:23:25.212, 17, 0.00, 0.37, 97, 0.800, -0.600, -82.800, 1614, 100, 97, 18, 23028, -18312, 5381, 5548, 8, 14, 1525973005.212, 115, 0, 1024, 1024, 1024, 1024, 0, 6, 3846, 3832, 3854, 3853, 3875, 3862, 0, 1, 15801, -90.000, 0.000, -82.100, 0.000, 0.000, -2.900, 0.0, , , , , , 98, , , 75, 75, 75
38.0861326, -120.2285388, 30.900, 10:23:25.312, 17, 0.00, 0.37, 97, 0.700, -0.900, -83.000, 1614, 100, 97, 18, 23028, -18312, 5381, 5548, 8, 14, 1525973005.312, 89, 0, 1024, 1024, 1024, 1024, 0, 6, 3846, 3832, 3854, 3853, 3875, 3862, 0, 1, 15901, -90.000, 0.000, -82.100, 0.000, 0.000, -2.900, 0.0, , , , , , 98, , , 75, 75, 75
38.0861325, -120.2285388, 31.500, 10:23:25.412, 17, 0.00, 0.37, 97, 0.800, -1.000, -83.200, 1614, 100, 97, 18, 23028, -18312, 5381, 5548, 8, 14, 1525973005.413, 5, 0, 1024, 1024, 1024, 1024, 0, 6, 3846, 3832, 3854, 3853, 3875, 3862, 0, 1, 16001, -89.900, 0.000, -82.100, 0.000, 0.000, -3.000, 0.0, , , , , , 98, , , 75, 75, 75
38.0861325, -120.2285389, 31.800, 10:23:25.519, 17, 0.00, 0.37, 97, 0.900, -0.700, -83.100, 1614, 100, 97, 18, 23028, -18312, 5381, 5548, 8, 14, 1525973005.519, 5, 0, 1024, 1024, 1024, 1024, 0, 6, 3827, 3812, 3832, 3826, 3856, 3845, 0, 1, 16108, -89.900, 0.000, -82.100, 0.000, 0.000, -2.900, 0.0, , , , , , 98, , , 75, 75, 75
38.0861325, -120.2285389, 32.100, 10:23:25.620, 17, 0.00, 0.37, 97, 0.900, -0.300, -83.000, 1614, 100, 97, 18, 23028, -18312, 5381, 5548, 8, 14, 1525973005.621, 5, 0, 1024, 1024, 1024, 1024, 0, 6, 3827, 3812, 3832, 3826, 3856, 3845, 0, 1, 16209, -89.900, 0.000, -82.100, 0.000, 0.000, -2.900, 0.0, , , , , , 98, , , 75, 75, 75
38.0861325, -120.2285389, 32.100, 10:23:25.712, 17, 0.00, 0.37, 97, 0.900, -0.300, -83.000, 1614, 100, 97, 18, 23028, -18312, 5381, 5548, 8, 14, 1525973005.712, 96, 0, 1024, 1024, 1024, 1024, 0, 6, 3827, 3812, 3832, 3826, 3856, 3845, 0, 1, 16301, -89.900, 0.000, -82.100, 0.000, 0.000, -2.900, 0.0, , , , , , 98, , , 75, 75, 75
38.0861325, -120.2285390, 32.400, 10:23:25.812, 17, 0.00, 0.38, 97, 0.800, -0.100, -82.900, 1614, 100, 97, 18, 23028, -18312, 5381, 5548, 8, 14, 1525973005.812, 90, 0, 1024, 1024, 1024, 1024, 0, 6, 3827, 3812, 3832, 3826, 3856, 3845, 0, 1, 16401, -89.900, 0.000, -82.100, 0.000, 0.000, -2.900, 0.0, , , , , , 98, , , 75, 75, 75
38.0861325, -120.2285390, 32.700, 10:23:25.912, 17, 0.00, 0.38, 97, 0.600, -0.100, -82.600, 1614, 100, 97, 18, 23028, -18312, 5381, 5548, 8, 14, 1525973005.912, 64, 0, 1024, 1024, 1024, 1024, 0, 6, 3827, 3812, 3832, 3826, 3856, 3845, 0, 1, 16501, -89.900, 0.000, -82.100, 0.000, 0.000, -2.900, 0.0, , , , , , 98, , , 75, 75, 75
38.0861326, -120.2285390, 33.000, 10:23:26.012, 17, 0.00, 0.37, 97, 0.400, -0.200, -82.400, 1614, 100, 97, 18, 23028, -18312, 5381, 5548, 8, 14, 1525973006.012, 93, 0, 1024, 1024, 1024, 1024, 0, 6, 3827, 3812, 3832, 3826, 3856, 3845, 0, 1, 16601, -89.900, 0.000, -82.100, 0.000, 0.000, -2.900, 0.0, , , , , , 98, , , 75, 75, 75
38.0861326, -120.2285390, 33.300, 10:23:26.112, 17, 0.00, 0.37, 97, 0.300, -0.400, -82.300, 1614, 100, 98, 18, 23028, -18312, 5381, 5548, 8, 14, 1525973006.113, 74, 0, 1024, 1024, 1024, 1024, 0, 6, 3827, 3812, 3832, 3826, 3856, 3845, 0, 1, 16701, -90.000, 0.000, -82.100, 0.000, 0.000, -2.900, 0.0, , , , , , 98, , , 75, 75, 75
38.0861326, -120.2285390, 33.600, 10:23:26.212, 17, 0.00, 0.37, 97, 0.200, -0.700, -82.200, 1614, 100, 98, 18, 23028, -18312, 5381, 5548, 8, 14, 1525973006.212, 51, 0, 1024, 1024, 1024, 1024, 0, 6, 3827, 3812, 3832, 3826, 3856, 3845, 0, 1, 16801, -90.000, 0.000, -82.100, 0.000, 0.000, -3.000, 0.0, , , , , , 98, , , 75, 75, 75
38.0861326, -120.2285390, 33.900, 10:23:26.311, 17, 0.00, 0.37, 97, 0.200, -1.100, -82.200, 1614, 100, 98, 18, 23028, -18312, 5381, 5548, 8, 14, 1525973006.312, 52, 0, 1024, 1024, 1024, 1024, 0, 6, 3827, 3812, 3832, 3826, 3856, 3845, 0, 1, 16900, -90.000, 0.000, -82.100, 0.000, 0.000, -2.900, 0.0, , , , , , 98, , , 75, 75, 75
38.0861326, -120.2285390, 34.200, 10:23:26.411, 17, 0.00, 0.37, 97, 0.300, -1.200, -82.200, 1614, 100, 98, 18, 23028, -18312, 5381, 5548, 8, 14, 1525973006.412, 71, 0, 1024, 1024, 1024, 1024, 0, 6, 3827, 3812, 3832, 3826, 3856, 3845, 0, 1, 17001, -90.000, 0.000, -82.100, 0.000, 0.000, -2.900, 0.0, , , , , , 98, , , 75, 75, 75
38.0861326, -120.2285389, 34.500, 10:23:26.512, 17, 0.00, 0.37, 97, 0.200, -1.300, -82.300, 1614, 100, 98, 18, 22995, -17909, 5381, 5548, 8, 14, 1525973006.512, 59, 0, 1024, 1024, 1024, 1024, 0, 6, 3827, 3812, 3832, 3826, 3856, 3845, 0, 1, 17101, -90.000, 0.000, -82.100, 0.000, 0.000, -3.000, 0.0, , , , , , 98, , , 75, 75, 75
38.0861326, -120.2285389, 34.800, 10:23:26.612, 17, 0.00, 0.37, 97, 0.300, -1.300, -82.400, 1614, 100, 99, 18, 22995, -17909, 5381, 5548, 8, 14, 1525973006.612, 54, 0, 1024, 1024, 1024, 1024, 0, 6, 3828, 3817, 3839, 3829, 3859, 3854, 0, 1, 17201, -90.000, 0.000, -82.100, 0.000, 0.000, -2.900, 0.0, , , , , , 98, , , 75, 75, 75
38.0861326, -120.2285389, 35.100, 10:23:26.712, 17, 0.00, 0.37, 97, 0.500, -1.300, -82.400, 1614, 100, 99, 18, 22995, -17909, 5381, 5548, 8, 14, 1525973006.712, 60, 0, 1024, 1024, 1024, 1024, 0, 6, 3828, 3817, 3839, 3829, 3859, 3854, 0, 1, 17301, -89.900, 0.000, -82.100, 0.000, 0.000, -2.900, 0.0, , , , , , 98, , , 75, 75, 75
38.0861326, -120.2285389, 35.400, 10:23:26.812, 17, 0.00, 0.37, 97, 0.700, -1.300, -82.500, 1614, 100, 99, 18, 22995, -17909, 5381, 5548, 8, 14, 1525973006.815, 24, 0, 1024, 1024, 1024, 1024, 0, 6, 3828, 3817, 3839, 3829, 3859, 3854, 0, 1, 17403, -90.000, 0.000, -82.100, 0.000, 0.000, -2.900, 0.0, , , , , , 98, , , 75, 75, 75
38.0861326, -120.2285389, 35.700, 10:23:26.928, 17, 0.00, 0.37, 97, 0.700, -1.300, -82.500, 1614, 100, 99, 18, 22995, -17909, 5381, 5548, 8, 14, 1525973006.928, 5, 0, 1024, 1024, 1024, 1024, 0, 6, 3828, 3817, 3839, 3829, 3859, 3854, 0, 1, 17517, -90.000, 0.000, -82.100, 0.000, 0.000, -3.000, 0.0, , , , , , 98, , , 75, 75, 75
38.0861326, -120.2285389, 36.000, 10:23:27.012, 17, 0.00, 0.37, 97, 0.600, -1.200, -82.500, 1614, 100, 99, 18, 22995, -17909, 5381, 5548, 8, 14, 1525973007.012, 76, 0, 1024, 1024, 1024, 1024, 0, 6, 3828, 3817, 3839, 3829, 3859, 3854, 0, 1, 17601, -89.900, 0.000, -82.100, 0.000, 0.000, -3.000, 0.0, , , , , , 98, , , 75, 75, 75
38.0861325, -120.2285389, 36.300, 10:23:27.112, 17, 0.00, 0.37, 97, 0.500, -1.200, -82.500, 1614, 100, 99, 18, 22995, -17909, 5381, 5548, 8, 14, 1525973007.112, 22, 0, 1024, 1024, 1024, 1024, 0, 6, 3828, 3817, 3839, 3829, 3859, 3854, 0, 1, 17701, -89.900, 0.000, -82.100, 0.000, 0.000, -2.900, 0.0, , , , , , 98, , , 75, 75, 75
38.0861325, -120.2285389, 36.300, 10:23:27.212, 17, 0.00, 0.37, 97, 0.500, -1.200, -82.500, 1614, 100, 99, 18, 22995, -17909, 5381, 5548, 8, 14, 1525973007.212, 122, 0, 1024, 1024, 1024, 1024, 0, 6, 3828, 3817, 3839, 3829, 3859, 3854, 0, 1, 17801, -89.900, 0.000, -82.100, 0.000, 0.000, -2.900, 0.0, , , , , , 98, , , 75, 75, 75
38.0861326, -120.2285389, 36.600, 10:23:27.312, 17, 0.00, 0.37, 97, 0.500, -1.100, -82.400, 1614, 100, 99, 18, 22995, -17909, 5381, 5548, 8, 14, 1525973007.313, 69, 0, 1024, 1024, 1024, 1024, 0, 6, 3828, 3817, 3839, 3829, 3859, 3854, 0, 1, 17901, -89.900, 0.000, -82.100, 0.000, 0.000, -2.900, 0.0, , , , , , 98, , , 75, 75, 75
38.0861326, -120.2285389, 36.900, 10:23:27.412, 17, 0.00, 0.37, 97, 0.500, -1.100, -82.400, 1614, 100, 99, 18, 22995, -17909, 5381, 5548, 8, 14, 1525973007.412, 26, 0, 1024, 1024, 1024, 1024, 0, 6, 3828, 3817, 3839, 3829, 3859, 3854, 0, 1, 18001, -89.900, 0.000, -82.100, 0.000, 0.000, -2.900, 0.0, , , , , , 98, , , 75, 75, 75
38.0861326, -120.2285389, 37.200, 10:23:27.520, 17, 0.00, 0.37, 97, 0.500, -1.100, -82.400, 1614, 100, 99, 18, 22995, -17909, 5381, 5548, 8, 14, 1525973007.520, 8, 0, 1024, 1024, 1024, 1024, 0, 6, 3828, 3817, 3839, 3829, 3859, 3854, 0, 1, 18109, -89.900, 0.000, -82.100, 0.000, 0.000, -2.900, 0.0, , , , , , 98, , , 75, 75, 75
38.0861326, -120.2285389, 37.500, 10:23:27.612, 17, 0.00, 0.37, 97, 0.400, -1.100, -82.300, 1614, 100, 99, 18, 23019, -17806, 5326, 5548, 8, 14, 1525973007.612, 20, 0, 1024, 1024, 1024, 1024, 0, 6, 3828, 3817, 3839, 3829, 3859, 3854, 0, 1, 18201, -89.900, 0.000, -82.100, 0.000, 0.000, -2.900, 0.0, , , , , , 98, , , 75, 75, 75
38.0861326, -120.2285388, 37.800, 10:23:27.725, 17, 0.00, 0.36, 97, 0.200, -1.200, -82.300, 1614, 100, 100, 18, 23019, -17806, 5326, 5548, 8, 14, 1525973007.725, 13, 0, 1024, 1024, 1024, 1024, 0, 6, 3834, 3817, 3835, 3829, 3856, 3840, 0, 1, 18314, -89.900, 0.000, -82.100, 0.000, 0.000, -2.900, 0.0, , , , , , 98, , , 75, 75, 75
38.0861326, -120.2285388, 37.800, 10:23:27.812, 17, 0.00, 0.36, 97, 0.200, -1.200, -82.300, 1614, 100, 100, 18, 23019, -17806, 5326, 5548, 8, 14, 1525973007.812, 100, 0, 1024, 1024, 1024, 1024, 0, 6, 3834, 3817, 3835, 3829, 3856, 3840, 0, 1, 18401, -89.900, 0.000, -82.100, 0.000, 0.000, -2.900, 0.0, , , , , , 98, , , 75, 75, 75
38.0861327, -120.2285388, 38.100, 10:23:27.911, 17, 0.00, 0.36, 97, 0.000, -1.300, -82.300, 1614, 100, 100, 18, 23019, -17806, 5326, 5548, 8, 14, 1525973007.912, 75, 0, 1024, 1024, 1024, 1024, 0, 6, 3834, 3817, 3835, 3829, 3856, 3840, 0, 1, 18501, -90.000, 0.000, -82.100, 0.000, 0.000, -2.900, 0.0, , , , , , 98, , , 75, 75, 75
38.0861327, -120.2285388, 38.400, 10:23:28.012, 17, 0.00, 0.36, 97, 0.000, -1.300, -82.400, 1614, 100, 100, 18, 23019, -17806, 5326, 5548, 8, 14, 1525973008.012, 74, 0, 1024, 1024, 1024, 1024, 0, 6, 3834, 3817, 3835, 3829, 3856, 3840, 0, 1, 18601, -90.000, 0.000, -82.100, 0.000, 0.000, -2.900, 0.0, , , , , , 98, , , 75, 75, 75
38.0861327, -120.2285388, 38.700, 10:23:28.112, 17, 0.00, 0.35, 97, 0.000, -1.600, -82.500, 1614, 100, 100, 18, 23019, -17806, 5326, 5548, 8, 14, 1525973008.112, 53, 0, 1024, 1024, 1024, 1024, 0, 6, 3834, 3817, 3835, 3829, 3856, 3840, 0, 1, 18701, -90.000, 0.000, -82.100, 0.000, 0.000, -3.000, 0.0, , , , , , 98, , , 75, 75, 75
38.0861327, -120.2285388, 38.700, 10:23:28.212, 17, 0.00, 0.35, 97, 0.000, -1.600, -82.500, 1614, 100, 100, 18, 23019, -17806, 5326, 5548, 8, 14, 1525973008.212, 153, 0, 1024, 1024, 1024, 1024, 0, 6, 3834, 3817, 3835, 3829, 3856, 3840, 0, 1, 18801, -90.000, 0.000, -82.100, 0.000, 0.000, -3.000, 0.0, , , , , , 98, , , 75, 75, 75
38.0861327, -120.2285387, 39.600, 10:23:28.312, 17, 0.00, 0.35, 97, 0.100, -1.500, -82.600, 1614, 100, 100, 18, 23019, -17806, 5326, 5548, 8, 14, 1525973008.312, 13, 0, 1024, 1024, 1024, 1024, 0, 6, 3834, 3817, 3835, 3829, 3856, 3840, 0, 1, 18901, -89.900, 0.000, -82.100, 0.000, 0.000, -3.000, 0.0, , , , , , 98, , , 75, 75, 75
38.0861328, -120.2285387, 40.200, 10:23:28.412, 17, 0.00, 0.35, 97, 0.200, -1.500, -82.700, 1614, 100, 100, 18, 23019, -17806, 5326, 5548, 8, 14, 1525973008.412, 27, 0, 1024, 1024, 1024, 1024, 0, 6, 3834, 3817, 3835, 3829, 3856, 3840, 0, 1, 19001, -89.900, 0.000, -82.100, 0.000, 0.000, -2.900, 0.0, , , , , , 98, , , 75, 75, 75
38.0861328, -120.2285387, 40.500, 10:23:28.512, 17, 0.00, 0.35, 96, 0.300, -1.500, -82.700, 1614, 100, 100, 18, 22966, -17796, 5326, 5548, 8, 14, 1525973008.512, 31, 0, 1024, 1024, 1024, 1024, 0, 6, 3834, 3817, 3835, 3829, 3856, 3840, 0, 1, 19101, -89.900, 0.000, -82.100, 0.000, 0.000, -2.900, 0.0, , , , , , 98, , , 75, 75, 75
38.0861328, -120.2285386, 40.800, 10:23:28.612, 17, 0.00, 0.35, 96, 0.400, -1.600, -82.700, 1614, 100, 96, 18, 22966, -17796, 5326, 5548, 8, 14, 1525973008.612, 55, 0, 1024, 1024, 1024, 1024, 0, 6, 3821, 3815, 3825, 3818, 3847, 3832, 0, 1, 19201, -89.900, 0.000, -82.100, 0.000, 0.000, -3.000, 0.0, , , , , , 98, , , 75, 75, 75
38.0861328, -120.2285386, 41.100, 10:23:28.712, 17, 0.00, 0.35, 96, 0.500, -1.600, -82.600, 1614, 100, 96, 18, 22966, -17796, 5326, 5548, 8, 14, 1525973008.713, 85, 0, 1024, 1024, 1024, 1024, 0, 6, 3821, 3815, 3825, 3818, 3847, 3832, 0, 1, 19302, -90.000, 0.000, -82.100, 0.000, 0.000, -3.000, 0.0, , , , , , 98, , , 75, 75, 75
38.0861328, -120.2285385, 41.400, 10:23:28.812, 17, 0.00, 0.35, 96, 0.500, -1.800, -82.500, 1614, 100, 96, 18, 22966, -17796, 5326, 5548, 8, 14, 1525973008.812, 62, 0, 1024, 1024, 1024, 1024, 0, 6, 3821, 3815, 3825, 3818, 3847, 3832, 0, 1, 19401, -90.000, 0.000, -82.100, 0.000, 0.000, -2.900, 0.0, , , , , , 98, , , 75, 75, 75
38.0861328, -120.2285384, 41.700, 10:23:28.912, 17, 0.00, 0.35, 96, 0.400, -2.000, -82.500, 1614, 100, 96, 18, 22966, -17796, 5326, 5548, 8, 14, 1525973008.912, 43, 0, 1024, 1024, 1024, 1024, 0, 6, 3821, 3815, 3825, 3818, 3847, 3832, 0, 1, 19501, -90.000, 0.000, -82.100, 0.000, 0.000, -3.000, 0.0, , , , , , 98, , , 75, 75, 75
38.0861328, -120.2285384, 42.000, 10:23:29.012, 17, 0.00, 0.35, 96, 0.100, -2.200, -82.500, 1614, 100, 96, 18, 22966, -17796, 5326, 5548, 8, 14, 1525973009.012, 55, 0, 1024, 1024, 1024, 1024, 0, 6, 3821, 3815, 3825, 3818, 3847, 3832, 0, 1, 19601, -90.000, 0.000, -82.100, 0.000, 0.000, -2.900, 0.0, , , , , , 98, , , 75, 75, 75
38.0861328, -120.2285384, 42.300, 10:23:29.112, 17, 0.00, 0.35, 96, 0.100, -2.200, -82.600, 1614, 100, 96, 18, 22966, -17796, 5326, 5548, 8, 14, 1525973009.114, 47, 0, 1024, 1024, 1024, 1024, 0, 6, 3821, 3815, 3825, 3818, 3847, 3832, 0, 1, 19703, -89.900, 0.000, -82.100, 0.000, 0.000, -2.900, 0.0, , , , , , 98, , , 75, 75, 75
38.0861328, -120.2285383, 42.900, 10:23:29.212, 17, 0.00, 0.35, 96, 0.800, -2.100, -82.700, 1614, 100, 96, 18, 22966, -17796, 5326, 5548, 8, 14, 1525973009.212, 54, 0, 1024, 1024, 1024, 1024, 0, 6, 3821, 3815, 3825, 3818, 3847, 3832, 0, 1, 19801, -89.900, 0.000, -82.100, 0.000, 0.000, -2.900, 0.0, , , , , , 98, , , 75, 75, 75
38.0861328, -120.2285382, 43.200, 10:23:29.312, 17, 0.00, 0.35, 96, 0.800, -2.200, -82.600, 1614, 100, 96, 18, 22966, -17796, 5326, 5548, 8, 14, 1525973009.313, 24, 0, 1024, 1024, 1024, 1024, 0, 6, 3821, 3815, 3825, 3818, 3847, 3832, 0, 1, 19902, -90.000, 0.000, -82.100, 0.000, 0.000, -2.900, 0.0, , , , , , 98, , , 75, 75, 75
38.0861328, -120.2285381, 43.500, 10:23:29.412, 17, 0.00, 0.35, 96, 0.700, -2.300, -82.600, 1614, 100, 96, 18, 22966, -17796, 5326, 5548, 8, 14, 1525973009.412, 50, 0, 1024, 1024, 1024, 1024, 0, 6, 3821, 3815, 3825, 3818, 3847, 3832, 0, 1, 20001, -89.900, 0.000, -82.100, 0.000, 0.000, -2.900, 0.0, , , , , , 98, , , 75, 75, 75
38.0861328, -120.2285381, 43.800, 10:23:29.512, 17, 0.00, 0.35, 96, 0.500, -2.300, -82.500, 1614, 100, 96, 18, 23002, -18000, 5326, 5548, 8, 14, 1525973009.512, 50, 0, 1024, 1024, 1024, 1024, 0, 6, 3821, 3804, 3823, 3820, 3844, 3833, 0, 1, 20101, -90.000, 0.000, -82.100, 0.000, 0.000, -2.800, 0.0, , , , , , 98, , , 75, 75, 75
38.0861328, -120.2285380, 44.100, 10:23:29.612, 17, 0.00, 0.34, 96, 0.300, -2.400, -82.400, 1614, 100, 96, 18, 23002, -18000, 5326, 5548, 8, 14, 1525973009.612, 22, 0, 1024, 1024, 1024, 1024, 0, 6, 3821, 3804, 3823, 3820, 3844, 3833, 0, 1, 20201, -90.000, 0.000, -82.100, 0.000, 0.000, -2.900, 0.0, , , , , , 98, , , 75, 75, 75
38.0861329, -120.2285380, 44.400, 10:23:29.712, 17, 0.00, 0.34, 96, 0.200, -2.600, -82.400, 1614, 100, 96, 18, 23002, -18000, 5326, 5548, 8, 14, 1525973009.712, 23, 0, 1024, 1024, 1024, 1024, 0, 6, 3821, 3804, 3823, 3820, 3844, 3833, 0, 1, 20301, -89.900, 0.000, -82.100, 0.000, 0.000, -2.900, 0.0, , , , , , 98, , , 75, 75, 75
38.0861329, -120.2285379, 44.700, 10:23:29.811, 17, 0.00, 0.34, 96, 0.300, -2.600, -82.400, 1614, 100, 96, 18, 23002, -18000, 5326, 5548, 8, 14, 1525973009.811, 9, 0, 1024, 1024, 1024, 1024, 0, 6, 3821, 3804, 3823, 3820, 3844, 3833, 0, 1, 20400, -89.900, 0.000, -82.100, 0.000, 0.000, -3.000, 0.0, , , , , , 98, , , 75, 75, 75
38.0861329, -120.2285379, 45.000, 10:23:29.912, 17, 0.00, 0.33, 96, 0.300, -2.400, -82.400, 1614, 100, 96, 18, 23002, -18000, 5326, 5548, 8, 14, 1525973009.914, 24, 0, 1024, 1024, 1024, 1024, 0, 6, 3821, 3804, 3823, 3820, 3844, 3833, 0, 1, 20503, -89.900, 0.000, -82.100, 0.000, 0.000, -2.900, 0.0, , , , , , 98, , , 75, 75, 75
38.0861330, -120.2285378, 45.300, 10:23:30.012, 17, 0.00, 0.33, 96, 0.300, -2.400, -82.400, 1614, 100, 98, 18, 23002, -18000, 5326, 5548, 8, 14, 1525973010.012, 27, 0, 1024, 1024, 1024, 1024, 0, 6, 3821, 3804, 3823, 3820, 3844, 3833, 0, 1, 20601, -89.900, 0.000, -82.100, 0.000, 0.000, -2.900, 0.0, , , , , , 98, , , 75, 75, 75
38.0861330, -120.2285378, 45.600, 10:23:30.113, 17, 0.00, 0.33, 96, 0.300, -2.300, -82.400, 1614, 100, 98, 18, 23002, -18000, 5326, 5548, 8, 14, 1525973010.114, 7, 0, 1024, 1024, 1024, 1024, 0, 6, 3821, 3804, 3823, 3820, 3844, 3833, 0, 1, 20702, -89.900, 0.000, -82.100, 0.000, 0.000, -2.900, 0.0, , , , , , 98, , , 75, 75, 75
38.0861330, -120.2285378, 45.800, 10:23:30.212, 17, 0.00, 0.33, 96, 0.200, -2.300, -82.400, 1614, 100, 98, 18, 23002, -18000, 5326, 5548, 8, 14, 1525973010.212, 19, 0, 1024, 1024, 1024, 1024, 0, 6, 3821, 3804, 3823, 3820, 3844, 3833, 0, 1, 20801, -89.900, 0.000, -82.100, 0.000, 0.000, -2.900, 0.0, , , , , , 98, , , 75, 75, 75
38.0861330, -120.2285378, 45.800, 10:23:30.312, 17, 0.00, 0.33, 96, 0.200, -2.300, -82.400, 1614, 100, 98, 18, 23002, -18000, 5326, 5548, 8, 14, 1525973010.312, 119, 0, 1024, 1024, 1024, 1024, 0, 6, 3821, 3804, 3823, 3820, 3844, 3833, 0, 1, 20901, -89.900, 0.000, -82.100, 0.000, 0.000, -2.900, 0.0, , , , , , 98, , , 75, 75, 75
38.0861330, -120.2285377, 46.200, 10:23:30.412, 17, 0.00, 0.32, 96, 0.200, -2.500, -82.400, 1614, 100, 98, 18, 23002, -18000, 5326, 5548, 8, 14, 1525973010.413, 95, 0, 1024, 1024, 1024, 1024, 0, 6, 3821, 3804, 3823, 3820, 3844, 3833, 0, 1, 21001, -89.900, 0.000, -82.100, 0.000, 0.000, -2.900, 0.0, , , , , , 98, , , 75, 75, 75
38.0861331, -120.2285377, 46.500, 10:23:30.512, 17, 0.00, 0.32, 96, 0.100, -2.600, -82.400, 1614, 100, 98, 18, 22930, -18026, 5326, 5548, 8, 14, 1525973010.512, 95, 0, 1024, 1024, 1024, 1024, 0, 6, 3821, 3804, 3823, 3820, 3844, 3833, 0, 1, 21101, -89.900, 0.000, -82.100, 0.000, 0.000, -3.000, 0.0, , , , , , 98, , , 75, 75, 75
