latitude,longitude,altitude(feet),ascent(feet),speed(mph),distance(feet),time(millisecond),datetime(utc),satellites,gpslevel,voltage(v),max_altitude(feet),max_ascent(feet),max_speed(mph),max_distance(feet), xSpeed(mph), ySpeed(mph), zSpeed(mph), compass_heading(degrees), pitch(degrees), roll(degrees),isPhoto,isVideo,rc_elevator,rc_aileron,rc_throttle,rc_rudder,gimbal_heading(degrees),gimbal_pitch(degrees),battery_percent,voltageCell1,voltageCell2,voltageCell3,voltageCell4,voltageCell5,voltageCell6,current(A),battery_temperature(f),flycStateRaw,flycState,message
38.0861581,-120.2285455,3872.0484093386,0,0,0,3130,2018-05-10 16:43:27,11,0,0,3872.0484093386,0,0,0,0,0,0,280.7, 0.9, -0.7,1,0,1024,1024,1024,1024,280,-89.9,91,3.871,3.865,3.891,3.802,3.842,3.828,0,64.4,11,AutoTakeoff,DJI_0854.jpg Starting Mission from Lat/Long: 38.08617/-120.22854 Camera: Zenmuse X3 - Overlap: 90/90 - Active Connection: No
38.0861581,-120.2285455,3872.0484093386,0,0,0,3210,2018-05-10 16:43:27,12,0,0,3872.0484093386,0,0,0,0,0,0,280.8, 0.8, -0.2,0,0,1024,1024,1024,1024,280,-89.9,91,3.871,3.865,3.891,3.802,3.842,3.828,0,64.4,11,AutoTakeoff,
38.0861581,-120.2285456,3872.3764933386,0.328084,0,0.0287167332024,3300,2018-05-10 16:43:27,12,0,0,3872.3764933386,0.328084,0,0.0287167332024,0,0,0,280.8, 0.5, 0,0,0,1024,1024,1024,1024,280,-89.9,91,3.871,3.865,3.891,3.802,3.842,3.828,0,64.4,11,AutoTakeoff,
38.0861581,-120.2285456,3872.3764933386,0.328084,0,0.0287167332024,3400,2018-05-10 16:43:27,12,0,0,3872.3764933386,0.328084,0,0.0287167332024,0,0,-0.223694,280.8, 0.3, 0.1,0,0,1024,1024,1024,1024,280,-89.9,91,3.871,3.865,3.891,3.802,3.842,3.828,0,64.4,11,AutoTakeoff,
38.086158,-120.2285457,3872.7045773386,0.656168,0,0.068042325012,3600,2018-05-10 16:43:27,12,0,0,3872.7045773386,0.656168,0,0.068042325012,0,0,0,280.4, 0.4, 0,0,0,1024,1024,1024,1024,280,-89.9,91,3.871,3.865,3.891,3.802,3.842,3.828,0,64.4,11,AutoTakeoff,
38.0861579,-120.2285458,3873.0326613386,0.984252,0,0.11290026608,3700,2018-05-10 16:43:27,12,0,0,3873.0326613386,0.984252,0,0.11290026608,0,0,0,280.3, 0.1, 0.3,0,0,1024,1024,1024,1024,280,-89.9,91,3.871,3.865,3.891,3.802,3.842,3.828,0,64.4,11,AutoTakeoff,
38.0861578,-120.2285459,3873.3607453386,1.312336,0,0.158665687492,3800,2018-05-10 16:43:27,12,0,0,3873.3607453386,1.312336,0,0.158665687492,0,0,0,280.1, -0.2, 0.6,0,0,1024,1024,1024,1024,280,-89.9,91,3.871,3.865,3.891,3.802,3.842,3.828,0,64.4,11,AutoTakeoff,
38.0861577,-120.2285459,3873.3607453386,1.312336,0,0.185722446888,4000,2018-05-10 16:43:28,13,0,23.273,3873.3607453386,1.312336,0,0.185722446888,0,0,0,280.1, 0, 0.6,0,0,1024,1024,1024,1024,280,-89.9,91,3.871,3.865,3.891,3.802,3.842,3.828,9.961,64.4,11,AutoTakeoff,
38.0861577,-120.228546,3873.6888293386,1.64042,0,0.204730649596,4100,2018-05-10 16:43:28,13,0,23.273,3873.6888293386,1.64042,0,0.204730649596,0,0,0,280.1, 0, 0.8,0,0,1024,1024,1024,1024,280,-89.9,91,3.871,3.865,3.891,3.802,3.842,3.828,9.961,64.4,11,AutoTakeoff,
38.0861577,-120.228546,3873.6888293386,1.64042,0,0.204730649596,4200,2018-05-10 16:43:28,11,0,23.273,3873.6888293386,1.64042,0,0.204730649596,0,0,-0.223694,280.1, 0.1, 0.6,0,0,1024,1024,1024,1024,280,-89.9,91,3.871,3.865,3.891,3.802,3.842,3.828,9.961,64.4,11,AutoTakeoff,
38.0861576,-120.2285461,3874.0169133386,1.968504,0,0.250930454224,4300,2018-05-10 16:43:28,11,0,23.273,3874.0169133386,1.968504,0,0.250930454224,0,0,-0.223694,280.3, 0.1, 0.5,0,0,1024,1024,1024,1024,280,-89.9,91,3.871,3.865,3.891,3.802,3.842,3.828,9.961,64.4,11,AutoTakeoff,
38.0861576,-120.2285461,3874.0169133386,1.968504,0,0.250930454224,4400,2018-05-10 16:43:28,11,0,23.273,3874.0169133386,1.968504,0,0.250930454224,0,0,0,280.5, 0.1, 0.4,0,0,1024,1024,1024,1024,280,-89.9,91,3.871,3.865,3.891,3.802,3.842,3.828,9.961,64.4,11,AutoTakeoff,
38.0861575,-120.2285462,3874.3449973386,2.296588,0,0.297202437332,4500,2018-05-10 16:43:28,11,0,23.273,3874.3449973386,2.296588,0,0.297202437332,0,0,0,280.7, 0.2, 0.4,0,0,1024,1024,1024,1024,280,-89.9,91,3.871,3.865,3.891,3.802,3.842,3.828,9.961,64.4,11,AutoTakeoff,
38.0861575,-120.2285463,3874.6730813386,2.624672,0,0.3173310469,4600,2018-05-10 16:43:28,10,0,23.273,3874.6730813386,2.624672,0,0.3173310469,0,0,-0.223694,280.9, 0, 0.6,0,0,1024,1024,1024,1024,280,-89.9,91,3.871,3.865,3.891,3.802,3.842,3.828,9.961,64.4,11,AutoTakeoff,
38.0861574,-120.2285464,3874.6730813386,2.624672,0,0.36334974916,4700,2018-05-10 16:43:28,10,0,23.273,3874.6730813386,2.624672,0,0.36334974916,0,0,-0.223694,281, 0.1, 0.9,0,0,1024,1024,1024,1024,280,-89.9,91,3.871,3.865,3.891,3.802,3.842,3.828,9.961,64.4,11,AutoTakeoff,
38.0861573,-120.2285464,3875.0011653386,2.952756,0,0.38985893636,4800,2018-05-10 16:43:28,11,0,23.273,3875.0011653386,2.952756,0,0.38985893636,0,0,-0.223694,281, 0.3, 1.4,0,0,1024,1024,1024,1024,280,-89.9,91,3.871,3.865,3.891,3.802,3.842,3.828,9.961,64.4,11,AutoTakeoff,
38.0861572,-120.2285464,3875.0011653386,2.952756,0,0.41787402912,4900,2018-05-10 16:43:29,11,0,23.273,3875.0011653386,2.952756,0,0.41787402912,0,0,0,280.9, 0.2, 1.6,0,0,1024,1024,1024,1024,280,-89.9,91,3.871,3.865,3.891,3.802,3.842,3.828,9.961,64.4,14,Waypoint,
38.0861571,-120.2285464,3875.0011653386,2.952756,0,0.44711615604,5000,2018-05-10 16:43:29,11,0,22.434,3875.0011653386,2.952756,0,0.44711615604,0,0,0,280.9, 0, 1.6,0,0,1024,1024,1024,1024,280,-89.9,91,3.732,3.735,3.759,3.72,3.715,3.74,17.119,64.4,14,Waypoint,
38.086157,-120.2285464,3875.3292493386,3.28084,0,0.47735237748,5100,2018-05-10 16:43:29,11,0,22.434,3875.3292493386,3.28084,0,0.47735237748,0,0,0,280.8, -0.5, 1.3,0,0,1024,1024,1024,1024,280,-90,91,3.732,3.735,3.759,3.72,3.715,3.74,17.119,64.4,14,Waypoint,
38.086157,-120.2285463,3875.3292493386,3.28084,0,0.462434398,5200,2018-05-10 16:43:29,10,0,22.434,3875.3292493386,3.28084,0,0.47735237748,0,0,0,280.7, -0.7, 0.9,0,0,1024,1024,1024,1024,280,-90,91,3.732,3.735,3.759,3.72,3.715,3.74,17.119,64.4,14,Waypoint,
38.086157,-120.2285463,3875.3292493386,3.28084,0,0.462434398,5300,2018-05-10 16:43:29,10,0,22.434,3875.3292493386,3.28084,0,0.47735237748,0,0,0,280.7, -0.8, 0.7,0,0,1024,1024,1024,1024,280,-89.9,91,3.732,3.735,3.759,3.72,3.715,3.74,17.119,64.4,14,Waypoint,
38.0861569,-120.2285463,3875.3292493386,3.28084,0,0.49443243052,5400,2018-05-10 16:43:29,10,0,22.434,3875.3292493386,3.28084,0,0.49443243052,0,0,0,280.7, -0.7, 0.5,0,0,1024,1024,1024,1024,280,-89.9,91,3.732,3.735,3.759,3.72,3.715,3.74,17.119,64.4,14,Waypoint,
38.0861566,-120.2285464,3875.9854173386,3.937008,0,0.605232959,5610,2018-05-10 16:43:29,10,0,22.434,3875.9854173386,3.937008,0,0.605232959,0,0,-0.223694,280.7, -0.3, 0.9,0,0,1024,1024,1024,1024,280,-89.9,91,3.732,3.735,3.759,3.72,3.715,3.74,17.119,64.4,14,Waypoint,
38.0861566,-120.2285465,3876.3135013386,4.265092,0,0.61804135836,5710,2018-05-10 16:43:29,12,0,22.434,3876.3135013386,4.265092,0,0.61804135836,0,0,-0.223694,280.7, -0.1, 1.1,0,0,1024,1024,1024,1024,280,-89.9,91,3.732,3.735,3.759,3.72,3.715,3.74,17.119,64.4,14,Waypoint,
38.0861565,-120.2285466,3876.6415853386,4.593176,0,0.66374345956,5800,2018-05-10 16:43:29,12,0,22.434,3876.6415853386,4.593176,0,0.66374345956,0,0,-0.223694,280.8, 0.1, 1.2,0,0,1024,1024,1024,1024,280,-89.9,91,3.732,3.735,3.759,3.72,3.715,3.74,17.119,64.4,14,Waypoint,
38.0861564,-120.2285466,3877.2977533386,5.249344,0,0.69604989104,5910,2018-05-10 16:43:30,12,0,22.434,3877.2977533386,5.249344,0,0.69604989104,0,0,-0.447388,280.9, 0.1, 1.4,0,0,1024,1024,1024,1024,280,-89.9,91,3.732,3.735,3.759,3.72,3.715,3.74,17.119,64.4,14,Waypoint,
38.0861564,-120.2285467,3877.9539213386,5.905512,0,0.70954398596,6010,2018-05-10 16:43:30,12,0,22.221,3877.9539213386,5.905512,0,0.70954398596,0,0,-0.447388,280.9, 0, 1.3,0,0,1024,1024,1024,1024,280,-89.9,91,3.694,3.704,3.717,3.701,3.691,3.718,17.439,64.4,14,Waypoint,
38.0861563,-120.2285467,3878.6100893386,6.56168,0,0.74164700536,6110,2018-05-10 16:43:30,11,0,22.221,3878.6100893386,6.56168,0,0.74164700536,0,0,-0.447388,280.9, 0, 1.3,0,0,1024,1024,1024,1024,280,-89.9,91,3.694,3.704,3.717,3.701,3.691,3.718,17.439,64.4,14,Waypoint,
38.0861563,-120.2285467,3878.6100893386,6.56168,0,0.74164700536,6200,2018-05-10 16:43:30,11,0,22.221,3878.6100893386,6.56168,0,0.74164700536,0,0,-0.447388,280.9, 0, 1.3,0,0,1024,1024,1024,1024,280,-89.9,91,3.694,3.704,3.717,3.701,3.691,3.718,17.439,64.4,14,Waypoint,
38.0861563,-120.2285468,3879.2662573386,7.217848,0,0.75541997168,6300,2018-05-10 16:43:30,11,0,22.221,3879.2662573386,7.217848,0,0.75541997168,0,0,-0.447388,280.9, 0.1, 1.2,0,0,1024,1024,1024,1024,280,-89.9,91,3.694,3.704,3.717,3.701,3.691,3.718,17.439,64.4,14,Waypoint,
38.0861562,-120.228547,3880.2505093386,8.2021,0,0.81614503924,6400,2018-05-10 16:43:30,10,0,22.221,3880.2505093386,8.2021,0,0.81614503924,0,0,-0.671082,280.8, 0.3, 1,0,0,1024,1024,1024,1024,280,-89.9,91,3.694,3.704,3.717,3.701,3.691,3.718,17.439,64.4,14,Waypoint,
38.086156,-120.2285473,3880.9066773386,8.858268,0,0.92424215556,6500,2018-05-10 16:43:30,10,0,22.221,3880.9066773386,8.858268,0,0.92424215556,0,0,-0.671082,280.7, 0.4, 1,0,0,1024,1024,1024,1024,280,-89.9,91,3.694,3.704,3.717,3.701,3.691,3.718,17.439,64.4,14,Waypoint,
38.0861559,-120.2285476,3881.8909293386,9.84252,0,1.00396656756,6600,2018-05-10 16:43:30,11,0,22.221,3881.8909293386,9.84252,0,1.00396656756,0,0,-0.671082,280.6, 0.6, 1.3,0,0,1024,1024,1024,1024,280,-89.9,91,3.694,3.704,3.717,3.701,3.691,3.718,17.439,64.4,14,Waypoint,
38.0861557,-120.2285479,3882.8751813386,10.826772,0,1.11433402516,6700,2018-05-10 16:43:30,11,0,22.221,3882.8751813386,10.826772,0,1.11433402516,0,0,-0.671082,280.5, 0.8, 1.7,0,0,1024,1024,1024,1024,280,-89.9,91,3.694,3.704,3.717,3.701,3.691,3.718,17.439,64.4,14,Waypoint,
38.0861555,-120.2285483,3883.8594333386,11.811024,0,1.2435367852,6800,2018-05-10 16:43:30,11,0,22.221,3883.8594333386,11.811024,0,1.2435367852,0,0,-0.671082,280.6, 0.9, 2.1,0,0,1024,1024,1024,1024,280,-89.9,91,3.694,3.704,3.717,3.701,3.691,3.718,17.439,64.4,14,Waypoint,
38.0861553,-120.2285488,3885.1717693386,13.12336,0,1.3934383648,6900,2018-05-10 16:43:31,11,0,22.221,3885.1717693386,13.12336,0,1.3934383648,0,0,-0.671082,280.7, 1.2, 2.6,0,0,1024,1024,1024,1024,280,-89.9,91,3.694,3.704,3.717,3.701,3.691,3.718,17.439,64.4,14,Waypoint,
38.0861552,-120.2285491,3886.1560213386,14.107612,0,1.47927170088,7000,2018-05-10 16:43:31,12,0,21.992,3886.1560213386,14.107612,0,1.47927170088,0,0,-0.671082,280.8, 1.7, 2.7,0,0,1024,1024,1024,1024,280,-89.9,91,3.643,3.633,3.629,3.646,3.61,3.653,19.834,64.4,14,Waypoint,
38.0861551,-120.2285493,3887.1402733386,15.091864,0,1.54558403896,7100,2018-05-10 16:43:31,12,0,21.992,3887.1402733386,15.091864,0,1.54558403896,0,0,-0.671082,281, 2.1, 2.8,0,0,1024,1024,1024,1024,280,-89.9,91,3.643,3.633,3.629,3.646,3.61,3.653,19.834,64.4,14,Waypoint,
38.086155,-120.2285495,3888.4526093386,16.4042,0,1.612040734,7200,2018-05-10 16:43:31,12,0,21.992,3888.4526093386,16.4042,0,1.612040734,0,0,-0.671082,281.1, 2, 2.6,0,0,1024,1024,1024,1024,280,-89.9,91,3.643,3.633,3.629,3.646,3.61,3.653,19.834,64.4,14,Waypoint,
38.0861548,-120.2285494,3889.4368613386,17.388452,0,1.64436028884,7300,2018-05-10 16:43:31,12,0,21.992,3889.4368613386,17.388452,0,1.64436028884,0,0,-0.671082,281.2, 1.6, 2.3,0,0,1024,1024,1024,1024,280,-89.9,91,3.643,3.633,3.629,3.646,3.61,3.653,19.834,64.4,14,Waypoint,
38.0861547,-120.2285495,3890.7491973386,18.700788,0,1.69063653704,7400,2018-05-10 16:43:31,10,0,21.992,3890.7491973386,18.700788,0,1.69063653704,0,0,-0.671082,281.3, 1.1, 2.2,0,0,1024,1024,1024,1024,280,-89.9,91,3.643,3.633,3.629,3.646,3.61,3.653,19.834,64.4,14,Waypoint,
38.0861544,-120.2285496,3891.7334493386,19.68504,0,1.79125005732,7500,2018-05-10 16:43:31,10,0,21.992,3891.7334493386,19.68504,0,1.79125005732,0,0,-0.671082,281.3, 0.8, 2.4,0,0,1024,1024,1024,1024,280,-89.9,91,3.643,3.633,3.629,3.646,3.61,3.653,19.834,64.4,14,Waypoint,
38.0861543,-120.2285497,3894.0300373386,21.981628,0,1.83762473072,7610,2018-05-10 16:43:31,10,0,21.992,3894.0300373386,21.981628,0,1.83762473072,0,0,-0.671082,281.3, 0.7, 3.3,0,0,1024,1024,1024,1024,280,-89.9,91,3.643,3.633,3.629,3.646,3.61,3.653,19.834,64.4,14,Waypoint,
38.0861544,-120.2285496,3895.0142893386,22.96588,0.223694,1.79125005732,7700,2018-05-10 16:43:31,11,0,21.992,3895.0142893386,22.96588,0.223694,1.83762473072,0,0,-0.671082,281.2, 0.7, 3,0,0,1024,1024,1024,1024,280,-89.9,91,3.643,3.633,3.629,3.646,3.61,3.653,19.834,64.4,14,Waypoint,
38.0861547,-120.2285495,3896.3266253386,24.278216,0.3131716,1.69063653704,7800,2018-05-10 16:43:31,11,0,21.992,3896.3266253386,24.278216,0.3131716,1.83762473072,0,0,-0.671082,281.1, 0.9, 2.2,0,0,1024,1024,1024,1024,280,-89.9,91,3.643,3.633,3.629,3.646,3.61,3.653,19.834,64.4,14,Waypoint,
38.0861549,-120.2285493,3897.3108773386,25.262468,0.4921268,1.59809060232,7900,2018-05-10 16:43:32,11,0,21.992,3897.3108773386,25.262468,0.4921268,1.83762473072,0,0,-0.671082,281, 1, 1.3,0,0,1024,1024,1024,1024,280,-89.9,91,3.643,3.633,3.629,3.646,3.61,3.653,19.834,64.4,14,Waypoint,
38.086155,-120.2285491,3898.6232133386,26.574804,0.4921268,1.53231304116,8000,2018-05-10 16:43:32,11,0,21.317,3898.6232133386,26.574804,0.4921268,1.83762473072,0,0,-0.671082,281, 0.9, 0.6,0,0,1024,1024,1024,1024,280,-89.9,91,3.593,3.611,3.578,3.556,3.556,3.603,20.872,64.4,14,Waypoint,
38.0861552,-120.228549,3899.6074653386,27.559056,0.4921268,1.45934715956,8110,2018-05-10 16:43:32,13,0,21.317,3899.6074653386,27.559056,0.4921268,1.83762473072,0,0,-0.671082,281, 0.8, 0.1,0,0,1024,1024,1024,1024,280,-89.9,91,3.593,3.611,3.578,3.556,3.556,3.603,20.872,64.4,14,Waypoint,
38.0861555,-120.2285488,3900.5917173386,28.543308,0.4921268,1.34085962296,8200,2018-05-10 16:43:32,13,0,21.317,3900.5917173386,28.543308,0.4921268,1.83762473072,0,0,-0.671082,281, 0.8, -0.2,0,0,1024,1024,1024,1024,280,-89.9,91,3.593,3.611,3.578,3.556,3.556,3.603,20.872,64.4,14,Waypoint,
38.0861557,-120.2285485,3901.5759693386,29.52756,0.4921268,1.22838258524,8300,2018-05-10 16:43:32,10,0,21.317,3901.5759693386,29.52756,0.4921268,1.83762473072,0,0,-0.671082,280.9, 1, -0.4,0,0,1024,1024,1024,1024,280,-89.9,91,3.593,3.611,3.578,3.556,3.556,3.603,20.872,64.4,14,Waypoint,
38.0861561,-120.2285481,3902.8883053386,30.839896,0.6263432,1.04399281556,8400,2018-05-10 16:43:32,10,0,21.317,3902.8883053386,30.839896,0.6263432,1.83762473072,0,0,-0.671082,280.7, 0.8, -0.7,0,0,1024,1024,1024,1024,280,-89.9,91,3.593,3.611,3.578,3.556,3.556,3.603,20.872,64.4,14,Waypoint,
38.0861564,-120.2285476,3903.8725573386,31.824148,0.6263432,0.86508532952,8600,2018-05-10 16:43:32,11,0,21.317,3903.8725573386,31.824148,0.6263432,1.83762473072,0,0,-0.671082,280.6, 0, -0.9,0,0,1024,1024,1024,1024,280,-90,91,3.593,3.611,3.578,3.556,3.556,3.603,20.872,64.4,14,Waypoint,
38.0861567,-120.2285472,3904.8568093386,32.8084,0.6263432,0.7065617024,8700,2018-05-10 16:43:32,11,0,21.317,3904.8568093386,32.8084,0.6263432,1.83762473072,0,0,-0.671082,280.5, -1.1, -1.6,0,0,1024,1024,1024,1024,280,-90,91,3.593,3.611,3.578,3.556,3.556,3.603,20.872,64.4,14,Waypoint,
38.086157,-120.2285467,3906.1691453386,34.120736,0.4921268,0.52897967572,8800,2018-05-10 16:43:32,12,0,21.317,3906.1691453386,34.120736,0.6263432,1.83762473072,0,0,-0.671082,280.5, -1.9, -2,0,0,1024,1024,1024,1024,280,-89.9,91,3.593,3.611,3.578,3.556,3.556,3.603,20.872,64.4,14,Waypoint,
38.0861574,-120.2285461,3907.1533973386,35.104988,0.4921268,0.30808071852,8900,2018-05-10 16:43:33,12,0,21.317,3907.1533973386,35.104988,0.6263432,1.83762473072,0,0,-0.671082,280.5, -2.6, -2.2,0,0,1024,1024,1024,1024,280,-89.9,91,3.593,3.611,3.578,3.556,3.556,3.603,20.872,64.4,14,Waypoint,
38.0861578,-120.2285456,3908.1376493386,36.08924,0.4921268,0.113159124356,9000,2018-05-10 16:43:33,11,0,21.673,3908.1376493386,36.08924,0.6263432,1.83762473072,0,0,-0.671082,280.5, -2.9, -2.5,0,0,1024,1024,1024,1024,280,-90,91,3.593,3.611,3.578,3.556,3.556,3.603,19.958,64.4,14,Waypoint,
38.086158,-120.2285452,3909.1219013386,37.073492,0.4921268,0.093557417692,9100,2018-05-10 16:43:33,11,0,21.673,3909.1219013386,37.073492,0.6263432,1.83762473072,0,0,-0.671082,280.7, -3.1, -2.5,0,0,1024,1024,1024,1024,280,-89.9,91,3.593,3.611,3.578,3.556,3.556,3.603,19.958,64.4,14,Waypoint,
38.0861582,-120.2285448,3910.4342373386,38.385828,0.223694,0.20430118764,9200,2018-05-10 16:43:33,12,0,21.673,3910.4342373386,38.385828,0.6263432,1.83762473072,0,0,-0.671082,280.7, -3, -2.4,0,0,1024,1024,1024,1024,280,-89.9,91,3.593,3.611,3.578,3.556,3.556,3.603,19.958,64.4,14,Waypoint,
38.0861584,-120.2285445,3911.4184893386,39.37008,0.223694,0.30731956364,9300,2018-05-10 16:43:33,12,0,21.673,3911.4184893386,39.37008,0.6263432,1.83762473072,0,0,-0.671082,280.6, -3, -2.2,0,0,1024,1024,1024,1024,280,-90,91,3.593,3.611,3.578,3.556,3.556,3.603,19.958,64.4,14,Waypoint,
38.0861586,-120.2285438,3913.3869933386,41.338584,0.223694,0.52115487232,9500,2018-05-10 16:43:33,12,0,21.673,3913.3869933386,41.338584,0.6263432,1.83762473072,0,0,-0.671082,280.6, -3.5, -1.7,0,0,1024,1024,1024,1024,280,-90,91,3.593,3.611,3.578,3.556,3.556,3.603,19.958,64.4,14,Waypoint,
38.0861587,-120.2285435,3914.3712453386,42.322836,0.223694,0.61463912728,9600,2018-05-10 16:43:33,13,0,21.673,3914.3712453386,42.322836,0.6263432,1.83762473072,0,0,-0.671082,280.7, -4, -1.5,0,0,1024,1024,1024,1024,280,-89.9,91,3.593,3.611,3.578,3.556,3.556,3.603,19.958,64.4,14,Waypoint,
38.0861588,-120.2285431,3915.3554973386,43.307088,0.223694,0.73500002352,9700,2018-05-10 16:43:33,13,0,21.673,3915.3554973386,43.307088,0.6263432,1.83762473072,0,0,-0.671082,280.8, -4.2, -1,0,0,1024,1024,1024,1024,280,-89.9,91,3.593,3.611,3.578,3.556,3.556,3.603,19.958,64.4,14,Waypoint,
38.0861589,-120.2285428,3916.3397493386,44.29134,0,0.82847115512,9810,2018-05-10 16:43:33,12,0,21.673,3916.3397493386,44.29134,0.6263432,1.83762473072,0,0,-0.671082,281, -4.2, -0.6,0,0,1024,1024,1024,1024,280,-89.9,91,3.593,3.611,3.578,3.556,3.556,3.603,19.958,64.4,14,Waypoint,
38.0861589,-120.2285423,3918.3082533386,46.259844,0,0.96417654004,9910,2018-05-10 16:43:34,11,0,21.673,3918.3082533386,46.259844,0.6263432,1.83762473072,0,0,-0.671082,281.4, -4, -0.6,0,0,1024,1024,1024,1024,280,-89.9,91,3.593,3.611,3.578,3.556,3.556,3.603,19.958,64.4,14,Waypoint,
38.0861588,-120.2285419,3920.2767573386,48.228348,0,1.06488192384,10120,2018-05-10 16:43:34,12,0,21.673,3920.2767573386,48.228348,0.6263432,1.83762473072,0,0,-0.671082,281.5, -3.5, -0.3,0,0,1024,1024,1024,1024,280,-89.9,91,3.593,3.611,3.578,3.556,3.556,3.603,19.958,64.4,14,Waypoint,
38.0861588,-120.2285417,3921.9171773386,49.868768,0,1.12072182064,10310,2018-05-10 16:43:34,12,0,21.673,3921.9171773386,49.868768,0.6263432,1.83762473072,0,0,-0.671082,281.1, -3.7, -0.7,0,0,1024,1024,1024,1024,280,-89.9,91,3.593,3.611,3.578,3.556,3.556,3.603,19.958,64.4,14,Waypoint,
38.0861588,-120.2285417,3922.9014293386,50.85302,0.223694,1.12072182064,10410,2018-05-10 16:43:34,12,0,21.673,3922.9014293386,50.85302,0.6263432,1.83762473072,0,0,-0.671082,281, -3.4, -0.9,0,0,1024,1024,1024,1024,280,-89.9,91,3.593,3.611,3.578,3.556,3.556,3.603,19.958,64.4,14,Waypoint,
38.0861587,-120.2285417,3923.8856813386,51.837272,0.223694,1.1129757574,10520,2018-05-10 16:43:34,11,0,21.673,3923.8856813386,51.837272,0.6263432,1.83762473072,0,0,-0.671082,281.1, -2.9, -1,0,0,1024,1024,1024,1024,280,-89.9,91,3.593,3.611,3.578,3.556,3.556,3.603,19.958,64.4,14,Waypoint,
38.0861586,-120.2285418,3924.8699333386,52.821524,0.223694,1.07806433896,10610,2018-05-10 16:43:34,11,0,21.673,3924.8699333386,52.821524,0.6263432,1.83762473072,0,0,-0.671082,281.1, -2.2, -0.8,0,0,1024,1024,1024,1024,280,-89.9,91,3.593,3.611,3.578,3.556,3.556,3.603,19.958,64.4,14,Waypoint,
38.0861585,-120.2285421,3926.5103533386,54.461944,0.223694,0.98721459852,10910,2018-05-10 16:43:35,12,0,21.673,3926.5103533386,54.461944,0.6263432,1.83762473072,0,0,-0.671082,281.5, -1.4, -0.3,0,0,1024,1024,1024,1024,280,-89.9,91,3.593,3.611,3.578,3.556,3.556,3.603,19.958,64.4,14,Waypoint,
38.0861584,-120.2285423,3927.4946053386,55.446196,0.223694,0.92542981964,11010,2018-05-10 16:43:35,12,0,21.701,3927.4946053386,55.446196,0.6263432,1.83762473072,0,0,-0.671082,281.7, -1.5, -0.4,0,0,1024,1024,1024,1024,280,-89.9,90,3.596,3.614,3.618,3.614,3.591,3.626,19.416,64.4,14,Waypoint,
38.0861583,-120.2285424,3928.4788573386,56.430448,0.223694,0.89320540916,11100,2018-05-10 16:43:35,12,0,21.701,3928.4788573386,56.430448,0.6263432,1.83762473072,0,0,-0.671082,281.7, -1.7, -0.6,0,0,1024,1024,1024,1024,280,-89.9,90,3.596,3.614,3.618,3.614,3.591,3.626,19.416,64.4,14,Waypoint,
38.0861582,-120.2285426,3929.4631093386,57.4147,0.223694,0.83358270384,11200,2018-05-10 16:43:35,13,0,21.701,3929.4631093386,57.4147,0.6263432,1.83762473072,0,0,-0.671082,281.6, -1.9, -0.5,0,0,1024,1024,1024,1024,280,-89.9,90,3.596,3.614,3.618,3.614,3.591,3.626,19.416,64.4,14,Waypoint,
38.086158,-120.2285428,3930.4473613386,58.398952,0.223694,0.77621065476,11300,2018-05-10 16:43:35,13,0,21.701,3930.4473613386,58.398952,0.6263432,1.83762473072,0,0,-0.671082,281.5, -1.5, -0.3,0,0,1024,1024,1024,1024,280,-89.9,90,3.596,3.614,3.618,3.614,3.591,3.626,19.416,64.4,14,Waypoint,
38.0861579,-120.228543,3931.4316133386,59.383204,0.223694,0.72161747716,11400,2018-05-10 16:43:35,12,0,21.701,3931.4316133386,59.383204,0.6263432,1.83762473072,0,0,-0.671082,281.4, -1.2, -0.1,0,0,1024,1024,1024,1024,280,-89.9,90,3.596,3.614,3.618,3.614,3.591,3.626,19.416,64.4,14,Waypoint,
38.086158,-120.2285431,3932.4158653386,60.367456,0.223694,0.69016734492,11500,2018-05-10 16:43:35,12,0,21.701,3932.4158653386,60.367456,0.6263432,1.83762473072,0,0,-0.671082,281.2, -1.4, 0.3,0,0,1024,1024,1024,1024,280,-89.9,90,3.596,3.614,3.618,3.614,3.591,3.626,19.416,64.4,14,Waypoint,
38.0861579,-120.2285432,3933.4001173386,61.351708,0.223694,0.66450461444,11600,2018-05-10 16:43:35,13,0,21.701,3933.4001173386,61.351708,0.6263432,1.83762473072,0,0,-0.671082,281.1, -1.9, 0.4,0,0,1024,1024,1024,1024,280,-89.9,90,3.596,3.614,3.618,3.614,3.591,3.626,19.416,64.4,14,Waypoint,
38.0861578,-120.2285434,3934.3843693386,62.33596,0.223694,0.61290356292,11700,2018-05-10 16:43:35,13,0,21.701,3934.3843693386,62.33596,0.6263432,1.83762473072,0,0,-0.671082,281, -1.9, 0.1,0,0,1024,1024,1024,1024,280,-89.9,90,3.596,3.614,3.618,3.614,3.591,3.626,19.416,64.4,14,Waypoint,
38.0861578,-120.2285435,3935.3686213386,63.320212,0.223694,0.58467193472,11800,2018-05-10 16:43:35,13,0,21.701,3935.3686213386,63.320212,0.6263432,1.83762473072,0,0,-0.671082,280.9, -1.7, 0,0,0,1024,1024,1024,1024,280,-89.9,90,3.596,3.614,3.618,3.614,3.591,3.626,19.416,64.4,14,Waypoint,
38.0861578,-120.2285437,3936.3528733386,64.304464,0.223694,0.5283628778,11900,2018-05-10 16:43:36,13,0,21.701,3936.3528733386,64.304464,0.6263432,1.83762473072,0,0,-0.671082,280.8, -1.3, 0,0,0,1024,1024,1024,1024,280,-89.9,90,3.596,3.614,3.618,3.614,3.591,3.626,19.416,64.4,14,Waypoint,
38.0861578,-120.2285439,3937.3371253386,65.288716,0.223694,0.4723261306,12000,2018-05-10 16:43:36,13,0,21.472,3937.3371253386,65.288716,0.6263432,1.83762473072,0,0,-0.671082,280.9, -0.7, -0.3,0,0,1024,1024,1024,1024,280,-89.9,90,3.556,3.574,3.59,3.577,3.55,3.587,21.916,64.4,14,Waypoint,
38.0861577,-120.2285441,3938.3213773386,66.272968,0.223694,0.42770342576,12100,2018-05-10 16:43:36,13,0,21.472,3938.3213773386,66.272968,0.6263432,1.83762473072,0,0,-0.671082,280.9, -0.6, -0.9,0,0,1024,1024,1024,1024,280,-89.9,90,3.556,3.574,3.59,3.577,3.55,3.587,21.916,64.4,14,Waypoint,
38.0861576,-120.2285442,3939.3056293386,67.25722,0,0.41550526264,12200,2018-05-10 16:43:36,14,0,21.472,3939.3056293386,67.25722,0.6263432,1.83762473072,0,0,-0.671082,280.8, -1, -0.9,0,0,1024,1024,1024,1024,280,-89.9,90,3.556,3.574,3.59,3.577,3.55,3.587,21.916,64.4,14,Waypoint,
38.0861576,-120.2285444,3940.2898813386,68.241472,0,0.36477691456,12300,2018-05-10 16:43:36,14,0,21.472,3940.2898813386,68.241472,0.6263432,1.83762473072,0,0,-0.671082,280.6, -1.3, -0.5,0,0,1024,1024,1024,1024,280,-90,90,3.556,3.574,3.59,3.577,3.55,3.587,21.916,64.4,14,Waypoint,
38.0861575,-120.2285445,3941.2741333386,69.225724,0,0.3610892504,12400,2018-05-10 16:43:36,13,0,21.472,3941.2741333386,69.225724,0.6263432,1.83762473072,0,0,-0.671082,280.6, -1.7, -0.3,0,0,1024,1024,1024,1024,280,-90,90,3.556,3.574,3.59,3.577,3.55,3.587,21.916,64.4,14,Waypoint,
38.0861575,-120.2285446,3942.2583853386,70.209976,0,0.33870079824,12500,2018-05-10 16:43:36,13,0,21.472,3942.2583853386,70.209976,0.6263432,1.83762473072,0,0,-0.671082,280.7, -1.7, 0,0,0,1024,1024,1024,1024,280,-89.9,90,3.556,3.574,3.59,3.577,3.55,3.587,21.916,64.4,14,Waypoint,
38.0861573,-120.2285449,3944.2268893386,72.17848,0,0.33894029956,12600,2018-05-10 16:43:36,14,0,21.472,3944.2268893386,72.17848,0.6263432,1.83762473072,0,0,-0.671082,280.7, -1.5, 0,0,0,1024,1024,1024,1024,280,-89.9,90,3.556,3.574,3.59,3.577,3.55,3.587,21.916,64.4,14,Waypoint,
38.0861573,-120.2285451,3945.2111413386,73.162732,0,0.313668645208,12710,2018-05-10 16:43:36,14,0,21.472,3945.2111413386,73.162732,0.6263432,1.83762473072,0,0,-0.671082,280.7, -1.1, -0.1,0,0,1024,1024,1024,1024,280,-89.9,90,3.556,3.574,3.59,3.577,3.55,3.587,21.916,64.4,14,Waypoint,
38.0861572,-120.2285452,3946.1953933386,74.146984,0,0.33947835732,12800,2018-05-10 16:43:36,14,0,21.472,3946.1953933386,74.146984,0.6263432,1.83762473072,0,0,-0.671082,280.8, -1.3, -0.2,0,0,1024,1024,1024,1024,280,-89.9,90,3.556,3.574,3.59,3.577,3.55,3.587,21.916,64.4,14,Waypoint,
38.0861572,-120.2285453,3947.1796453386,75.131236,0,0.3333497482,12900,2018-05-10 16:43:37,14,0,21.472,3947.1796453386,75.131236,0.6263432,1.83762473072,0,0,-0.671082,280.8, -1.7, -0.3,0,0,1024,1024,1024,1024,280,-89.9,90,3.556,3.574,3.59,3.577,3.55,3.587,21.916,64.4,14,Waypoint,
38.0861571,-120.2285454,3948.1638973386,76.115488,0,0.365977702,13100,2018-05-10 16:43:37,14,0,21.472,3948.1638973386,76.115488,0.6263432,1.83762473072,0,0,-0.671082,280.6, -1.8, -0.4,0,0,1024,1024,1024,1024,280,-90,90,3.556,3.574,3.59,3.577,3.55,3.587,21.916,64.4,14,Waypoint,
38.086157,-120.2285455,3949.4762333386,77.427824,0,0.40133531468,13200,2018-05-10 16:43:37,14,0,21.472,3949.4762333386,77.427824,0.6263432,1.83762473072,0,0,-0.671082,280.5, -2, 0,0,0,1024,1024,1024,1024,280,-89.9,90,3.556,3.574,3.59,3.577,3.55,3.587,21.916,64.4,14,Waypoint,
38.0861569,-120.2285457,3950.4604853386,78.412076,0,0.44157153644,13300,2018-05-10 16:43:37,14,0,21.472,3950.4604853386,78.412076,0.6263432,1.83762473072,0,0,-0.671082,280.5, -1.5, 0.9,0,0,1024,1024,1024,1024,280,-89.9,90,3.556,3.574,3.59,3.577,3.55,3.587,21.916,64.4,14,Waypoint,
38.0861568,-120.2285459,3951.4447373386,79.396328,0.223694,0.48801510748,13400,2018-05-10 16:43:37,14,0,21.472,3951.4447373386,79.396328,0.6263432,1.83762473072,0,0,-0.671082,280.5, -0.5, 1.5,0,0,1024,1024,1024,1024,280,-89.9,90,3.556,3.574,3.59,3.577,3.55,3.587,21.916,64.4,14,Waypoint,
38.0861567,-120.2285461,3953.0851573386,81.036748,0,0.53906825872,13510,2018-05-10 16:43:37,14,0,21.472,3953.0851573386,81.036748,0.6263432,1.83762473072,0,0,-0.671082,280.6, 0.2, 1,0,0,1024,1024,1024,1024,280,-89.9,90,3.556,3.574,3.59,3.577,3.55,3.587,21.916,64.4,14,Waypoint,
38.0861567,-120.2285462,3954.0694093386,82.021,0,0.54892062124,13700,2018-05-10 16:43:37,14,0,21.472,3954.0694093386,82.021,0.6263432,1.83762473072,0,0,-0.671082,280.7, -0.2, 0.4,0,0,1024,1024,1024,1024,280,-89.9,90,3.556,3.574,3.59,3.577,3.55,3.587,21.916,64.4,14,Waypoint,
38.0861566,-120.2285463,3955.0536613386,83.005252,0,0.5935367644,13800,2018-05-10 16:43:37,14,0,21.472,3955.0536613386,83.005252,0.6263432,1.83762473072,0,0,-0.671082,280.7, -0.8, 0.1,0,0,1024,1024,1024,1024,280,-89.9,90,3.556,3.574,3.59,3.577,3.55,3.587,21.916,64.4,14,Waypoint,
38.0861566,-120.2285464,3957.0221653386,84.973756,0,0.605232959,14000,2018-05-10 16:43:38,14,0,21.484,3957.0221653386,84.973756,0.6263432,1.83762473072,0,0,-0.671082,280.8, -0.9, 0.2,0,0,1024,1024,1024,1024,280,-89.9,90,3.574,3.587,3.593,3.579,3.564,3.593,20.852,64.4,14,Waypoint,
38.0861566,-120.2285465,3958.0064173386,85.958008,0,0.61804135836,14100,2018-05-10 16:43:38,14,0,21.484,3958.0064173386,85.958008,0.6263432,1.83762473072,0,0,-0.671082,280.8, -1.1, 0.5,0,0,1024,1024,1024,1024,280,-89.9,90,3.574,3.587,3.593,3.579,3.564,3.593,20.852,64.4,14,Waypoint,
38.0861566,-120.2285465,3958.9906693386,86.94226,0,0.61804135836,14200,2018-05-10 16:43:38,14,0,21.484,3958.9906693386,86.94226,0.6263432,1.83762473072,0,0,-0.671082,280.6, -1.1, 0.5,0,0,1024,1024,1024,1024,280,-89.9,90,3.574,3.587,3.593,3.579,3.564,3.593,20.852,64.4,14,Waypoint,
38.0861565,-120.2285466,3959.9749213386,87.926512,0,0.66374345956,14300,2018-05-10 16:43:38,14,0,21.484,3959.9749213386,87.926512,0.6263432,1.83762473072,0,0,-0.671082,280.5, -0.9, 0.2,0,0,1024,1024,1024,1024,280,-89.9,90,3.574,3.587,3.593,3.579,3.564,3.593,20.852,64.4,14,Waypoint,
38.0861565,-120.2285467,3960.9591733386,88.910764,0,0.67788059912,14400,2018-05-10 16:43:38,14,0,21.484,3960.9591733386,88.910764,0.6263432,1.83762473072,0,0,-0.671082,280.4, -0.4, 0,0,0,1024,1024,1024,1024,280,-89.9,90,3.574,3.587,3.593,3.579,3.564,3.593,20.852,64.4,14,Waypoint,
38.0861566,-120.2285468,3961.9434253386,89.895016,0,0.66247705532,14500,2018-05-10 16:43:38,14,0,21.484,3961.9434253386,89.895016,0.6263432,1.83762473072,0,0,-0.671082,280.4, 0, 0.1,0,0,1024,1024,1024,1024,280,-89.9,90,3.574,3.587,3.593,3.579,3.564,3.593,20.852,64.4,14,Waypoint,
38.0861566,-120.2285469,3962.9276773386,90.879268,0,0.67907154404,14600,2018-05-10 16:43:38,14,0,21.484,3962.9276773386,90.879268,0.6263432,1.83762473072,0,0,-0.671082,280.4, 0.3, 0.4,0,0,1024,1024,1024,1024,280,-89.9,90,3.574,3.587,3.593,3.579,3.564,3.593,20.852,64.4,14,Waypoint,
38.0861565,-120.2285469,3963.9119293386,91.86352,0,0.70880579696,14700,2018-05-10 16:43:38,14,0,21.484,3963.9119293386,91.86352,0.6263432,1.83762473072,0,0,-0.671082,280.3, 0.2, 0.4,0,0,1024,1024,1024,1024,280,-89.9,90,3.574,3.587,3.593,3.579,3.564,3.593,20.852,64.4,14,Waypoint,
38.0861565,-120.2285469,3964.8961813386,92.847772,0,0.70880579696,14800,2018-05-10 16:43:38,14,0,21.484,3964.8961813386,92.847772,0.6263432,1.83762473072,0,0,-0.671082,280.3, -0.2, 0.8,0,0,1024,1024,1024,1024,280,-89.9,90,3.574,3.587,3.593,3.579,3.564,3.593,20.852,64.4,14,Waypoint,
38.0861563,-120.2285468,3966.8646853386,94.816276,0,0.75541997168,14900,2018-05-10 16:43:39,14,0,21.484,3966.8646853386,94.816276,0.6263432,1.83762473072,0,0,-0.671082,280.6, -1.6, 1.5,0,0,1024,1024,1024,1024,280,-90,90,3.574,3.587,3.593,3.579,3.564,3.593,20.852,64.4,14,Waypoint,
38.0861562,-120.2285467,3967.8489373386,95.800528,0,0.77414044472,15100,2018-05-10 16:43:39,14,0,21.484,3967.8489373386,95.800528,0.6263432,1.83762473072,0,0,-0.671082,280.8, -1.9, 1.7,0,0,1024,1024,1024,1024,280,-90,90,3.574,3.587,3.593,3.579,3.564,3.593,20.852,64.4,14,Waypoint,
38.0861562,-120.2285465,3969.8174413386,97.769032,0,0.75034123136,15200,2018-05-10 16:43:39,14,0,21.484,3969.8174413386,97.769032,0.6263432,1.83762473072,0,0,-0.671082,281.1, -1.9, 1.8,0,0,1024,1024,1024,1024,280,-89.9,90,3.574,3.587,3.593,3.579,3.564,3.593,20.852,64.4,14,Waypoint,
38.0861562,-120.2285464,3970.8016933386,98.753284,0,0.73982613916,15300,2018-05-10 16:43:39,14,0,21.484,3970.8016933386,98.753284,0.6263432,1.83762473072,0,0,-0.671082,281.2, -1.9, 1.5,0,0,1024,1024,1024,1024,280,-90,90,3.574,3.587,3.593,3.579,3.564,3.593,20.852,64.4,14,Waypoint,
38.0861562,-120.2285463,3971.7859453386,99.737536,0,0.73028873728,15400,2018-05-10 16:43:39,14,0,21.484,3971.7859453386,99.737536,0.6263432,1.83762473072,0,0,-0.671082,281.2, -1.9, 1.1,0,0,1024,1024,1024,1024,280,-89.9,90,3.574,3.587,3.593,3.579,3.564,3.593,20.852,64.4,14,Waypoint,
38.0861563,-120.2285462,3972.7701973386,100.721788,0,0.68680448392,15510,2018-05-10 16:43:39,15,0,21.484,3972.7701973386,100.721788,0.6263432,1.83762473072,0,0,-0.671082,281.3, -2.1, 0.4,0,0,1024,1024,1024,1024,280,-90,90,3.574,3.587,3.593,3.579,3.564,3.593,20.852,64.4,14,Waypoint,
38.0861563,-120.2285462,3972.7701973386,100.721788,0,0.68680448392,15600,2018-05-10 16:43:39,15,0,21.484,3972.7701973386,100.721788,0.6263432,1.83762473072,0,0,-0.671082,281.3, -2.1, 0.4,0,0,1024,1024,1024,1024,280,-90,90,3.574,3.587,3.593,3.579,3.564,3.593,20.852,64.4,14,Waypoint,
38.0861563,-120.2285461,3973.4263653386,101.377956,0,0.67895671464,15700,2018-05-10 16:43:39,15,0,21.484,3973.4263653386,101.377956,0.6263432,1.83762473072,0,0,-0.671082,281.3, -2.1, -0.2,0,0,1024,1024,1024,1024,280,-90,90,3.574,3.587,3.593,3.579,3.564,3.593,20.852,64.4,14,Waypoint,
38.0861564,-120.228546,3974.7387013386,102.690292,0,0.636647002,15800,2018-05-10 16:43:39,15,0,21.484,3974.7387013386,102.690292,0.6263432,1.83762473072,0,0,-0.671082,281.3, -2.2, -0.5,0,0,1024,1024,1024,1024,280,-89.9,90,3.574,3.587,3.593,3.579,3.564,3.593,20.852,64.4,14,Waypoint,
38.0861564,-120.2285459,3975.7229533386,103.674544,0,0.6307907026,15900,2018-05-10 16:43:40,15,0,21.484,3975.7229533386,103.674544,0.6263432,1.83762473072,0,0,-0.671082,281.2, -2.2, -0.6,0,0,1024,1024,1024,1024,280,-90,90,3.574,3.587,3.593,3.579,3.564,3.593,20.852,64.4,14,Waypoint,
38.0861565,-120.2285457,3976.7072053386,104.658796,0,0.58657810276,16000,2018-05-10 16:43:40,14,0,21.337,3976.7072053386,104.658796,0.6263432,1.83762473072,0,0,-0.671082,281.2, -2.2, -0.4,0,0,1024,1024,1024,1024,280,-89.9,90,3.547,3.553,3.57,3.549,3.533,3.56,21.909,64.4,14,Waypoint,
38.0861565,-120.2285456,3977.3633733386,105.314964,0,0.5844652418,16100,2018-05-10 16:43:40,14,0,21.337,3977.3633733386,105.314964,0.6263432,1.83762473072,0,0,-0.671082,281.2, -2.1, -0.1,0,0,1024,1024,1024,1024,280,-89.9,90,3.547,3.553,3.57,3.549,3.533,3.56,21.909,64.4,14,Waypoint,
38.0861565,-120.2285456,3978.3476253386,106.299216,0,0.5844652418,16200,2018-05-10 16:43:40,16,0,21.337,3978.3476253386,106.299216,0.6263432,1.83762473072,0,0,-0.671082,281.3, -2, -0.3,0,0,1024,1024,1024,1024,280,-89.9,90,3.547,3.553,3.57,3.549,3.533,3.56,21.909,64.4,14,Waypoint,
38.0861565,-120.2285455,3979.3318773386,107.283468,0,0.5837598612,16300,2018-05-10 16:43:40,16,0,21.337,3979.3318773386,107.283468,0.6263432,1.83762473072,0,0,-0.671082,281.4, -1.8, -0.6,0,0,1024,1024,1024,1024,280,-89.9,90,3.547,3.553,3.57,3.549,3.533,3.56,21.909,64.4,14,Waypoint,
38.0861564,-120.2285455,3980.3161293386,108.26772,0,0.620242802,16400,2018-05-10 16:43:40,16,0,21.337,3980.3161293386,108.26772,0.6263432,1.83762473072,0,0,-0.671082,281.5, -1.3, -0.5,0,0,1024,1024,1024,1024,280,-89.9,90,3.547,3.553,3.57,3.549,3.533,3.56,21.909,64.4,14,Waypoint,
38.0861564,-120.2285455,3981.3003813386,109.251972,0,0.620242802,16500,2018-05-10 16:43:40,16,0,21.337,3981.3003813386,109.251972,0.6263432,1.83762473072,0,0,-0.671082,281.6, -1.2, 0.1,0,0,1024,1024,1024,1024,280,-89.9,90,3.547,3.553,3.57,3.549,3.533,3.56,21.909,64.4,14,Waypoint,
38.0861563,-120.2285455,3981.9565493386,109.90814,0,0.65672902364,16600,2018-05-10 16:43:40,16,0,21.337,3981.9565493386,109.90814,0.6263432,1.83762473072,0,0,-0.671082,281.7, -1.2, 0.6,0,0,1024,1024,1024,1024,280,-89.9,90,3.547,3.553,3.57,3.549,3.533,3.56,21.909,64.4,14,Waypoint,
38.0861563,-120.2285455,3982.9408013386,110.892392,0,0.65672902364,16700,2018-05-10 16:43:40,16,0,21.337,3982.9408013386,110.892392,0.6263432,1.83762473072,0,0,-0.671082,281.6, -1.2, 1,0,0,1024,1024,1024,1024,280,-89.9,90,3.547,3.553,3.57,3.549,3.533,3.56,21.909,64.4,14,Waypoint,
38.0861562,-120.2285455,3983.9250533386,111.876644,0,0.69321524528,16800,2018-05-10 16:43:40,15,0,21.337,3983.9250533386,111.876644,0.6263432,1.83762473072,0,0,-0.671082,281.3, -1.5, 1,0,0,1024,1024,1024,1024,280,-89.9,90,3.547,3.553,3.57,3.549,3.533,3.56,21.909,64.4,14,Waypoint,
38.0861562,-120.2285454,3984.9093053386,112.860896,0,0.69380907732,16900,2018-05-10 16:43:41,15,0,21.337,3984.9093053386,112.860896,0.6263432,1.83762473072,0,0,-0.671082,281, -1.6, 0.9,0,0,1024,1024,1024,1024,280,-89.9,90,3.547,3.553,3.57,3.549,3.533,3.56,21.909,64.4,14,Waypoint,
38.0861562,-120.2285454,3986.2216413386,114.173232,0,0.69380907732,17000,2018-05-10 16:43:41,15,0,21.176,3986.2216413386,114.173232,0.6263432,1.83762473072,0,0,-0.671082,280.6, -1.8, 0.9,0,0,1024,1024,1024,1024,280,-90,90,3.516,3.536,3.546,3.524,3.511,3.536,23.031,64.4,14,Waypoint,
38.0861562,-120.2285453,3987.2058933386,115.157484,0,0.69559057344,17100,2018-05-10 16:43:41,15,0,21.176,3987.2058933386,115.157484,0.6263432,1.83762473072,0,0,-0.671082,280.3, -2.5, 0.5,0,0,1024,1024,1024,1024,280,-89.9,90,3.516,3.536,3.546,3.524,3.511,3.536,23.031,64.4,14,Waypoint,
38.0861562,-120.2285452,3988.1901453386,116.141736,0,0.69854661028,17200,2018-05-10 16:43:41,15,0,21.176,3988.1901453386,116.141736,0.6263432,1.83762473072,0,0,-0.671082,280.3, -2.7, 0.5,0,0,1024,1024,1024,1024,280,-90,90,3.516,3.536,3.546,3.524,3.511,3.536,23.031,64.4,14,Waypoint,
38.0861561,-120.2285452,3989.1743973386,117.125988,0,0.73476708388,17300,2018-05-10 16:43:41,15,0,21.176,3989.1743973386,117.125988,0.6263432,1.83762473072,0,0,-0.671082,280.3, -2.6, 0.5,0,0,1024,1024,1024,1024,280,-89.9,90,3.516,3.536,3.546,3.524,3.511,3.536,23.031,64.4,14,Waypoint,
38.086156,-120.2285452,3991.1429013386,119.094492,0,0.77101052336,17400,2018-05-10 16:43:41,16,0,21.176,3991.1429013386,119.094492,0.6263432,1.83762473072,0,0,-0.671082,280.5, -2.4, 1,0,0,1024,1024,1024,1024,280,-89.9,90,3.516,3.536,3.546,3.524,3.511,3.536,23.031,64.4,14,Waypoint,
38.086156,-120.2285452,3992.1271533386,120.078744,0,0.77101052336,17500,2018-05-10 16:43:41,15,0,21.176,3992.1271533386,120.078744,0.6263432,1.83762473072,0,0,-0.671082,280.5, -2.7, 1.2,0,0,1024,1024,1024,1024,280,-90,90,3.516,3.536,3.546,3.524,3.511,3.536,23.031,64.4,14,Waypoint,
38.0861559,-120.2285452,3993.1114053386,121.062996,0,0.80728020956,17600,2018-05-10 16:43:41,15,0,21.176,3993.1114053386,121.062996,0.6263432,1.83762473072,0,0,-0.671082,280.5, -2.8, 1.1,0,0,1024,1024,1024,1024,280,-89.9,90,3.516,3.536,3.546,3.524,3.511,3.536,23.031,64.4,14,Waypoint,
38.0861559,-120.2285452,3994.0956573386,122.047248,0,0.80728020956,17700,2018-05-10 16:43:41,15,0,21.176,3994.0956573386,122.047248,0.6263432,1.83762473072,0,0,-0.671082,280.5, -2.9, 1,0,0,1024,1024,1024,1024,280,-89.9,90,3.516,3.536,3.546,3.524,3.511,3.536,23.031,64.4,14,Waypoint,
38.0861559,-120.2285452,3995.0799093386,123.0315,0,0.80728020956,17810,2018-05-10 16:43:41,15,0,21.176,3995.0799093386,123.0315,0.6263432,1.83762473072,0,0,-0.671082,280.6, -2.8, 1,0,0,1024,1024,1024,1024,280,-89.9,90,3.516,3.536,3.546,3.524,3.511,3.536,23.031,64.4,14,Waypoint,
38.0861559,-120.2285452,3996.0641613386,124.015752,0,0.80728020956,17900,2018-05-10 16:43:42,16,0,21.176,3996.0641613386,124.015752,0.6263432,1.83762473072,0,0,-0.671082,280.9, -2.6, 1.1,0,0,1024,1024,1024,1024,280,-89.9,90,3.516,3.536,3.546,3.524,3.511,3.536,23.031,64.4,14,Waypoint,
38.0861559,-120.2285452,3997.3764973386,125.328088,0,0.80728020956,18000,2018-05-10 16:43:42,16,0,20.988,3997.3764973386,125.328088,0.6263432,1.83762473072,0,0,-0.671082,281, -2.3, 1.1,0,0,1024,1024,1024,1024,280,-89.9,90,3.516,3.536,3.546,3.524,3.511,3.536,24.522,64.4,14,Waypoint,
38.0861559,-120.2285453,3998.3607493386,126.31234,0,0.80472115436,18200,2018-05-10 16:43:42,16,0,20.988,3998.3607493386,126.31234,0.6263432,1.83762473072,0,0,-0.671082,280.9, -2.2, 1.2,0,0,1024,1024,1024,1024,280,-89.9,90,3.516,3.536,3.546,3.524,3.511,3.536,24.522,64.4,14,Waypoint,
38.0861559,-120.2285453,3999.3450013386,127.296592,0,0.80472115436,18300,2018-05-10 16:43:42,16,0,20.988,3999.3450013386,127.296592,0.6263432,1.83762473072,0,0,-0.671082,280.6, -2.1, 0.8,0,0,1024,1024,1024,1024,280,-89.9,90,3.516,3.536,3.546,3.524,3.511,3.536,24.522,64.4,14,Waypoint,
38.0861559,-120.2285454,4000.3292533386,128.280844,0,0.8031824404,18400,2018-05-10 16:43:42,16,0,20.988,4000.3292533386,128.280844,0.6263432,1.83762473072,0,0,-0.671082,280.4, -2.2, 1.1,0,0,1024,1024,1024,1024,280,-89.9,90,3.516,3.536,3.546,3.524,3.511,3.536,24.522,64.4,14,Waypoint,
38.0861559,-120.2285454,4001.3135053386,129.265096,0,0.8031824404,18500,2018-05-10 16:43:42,16,0,20.988,4001.3135053386,129.265096,0.6263432,1.83762473072,0,0,-0.671082,280.3, -1.8, 1.3,0,0,1024,1024,1024,1024,280,-89.9,90,3.516,3.536,3.546,3.524,3.511,3.536,24.522,64.4,14,Waypoint,
38.0861559,-120.2285455,4001.9696733386,129.921264,0,0.80266734852,18600,2018-05-10 16:43:42,16,0,20.988,4001.9696733386,129.921264,0.6263432,1.83762473072,0,0,-0.671082,280.3, -1.4, 1.5,0,0,1024,1024,1024,1024,280,-89.9,90,3.516,3.536,3.546,3.524,3.511,3.536,24.522,64.4,14,Waypoint,
38.0861559,-120.2285455,4002.9539253386,130.905516,0,0.80266734852,18700,2018-05-10 16:43:42,16,0,20.988,4002.9539253386,130.905516,0.6263432,1.83762473072,0,0,-0.671082,280.3, -1.2, 1.5,0,0,1024,1024,1024,1024,280,-89.9,90,3.516,3.536,3.546,3.524,3.511,3.536,24.522,64.4,14,Waypoint,
38.0861559,-120.2285456,4003.9381773386,131.889768,0,0.8031824404,18800,2018-05-10 16:43:42,16,0,20.988,4003.9381773386,131.889768,0.6263432,1.83762473072,0,0,-0.671082,280.4, -1, 1.7,0,0,1024,1024,1024,1024,280,-89.9,90,3.516,3.536,3.546,3.524,3.511,3.536,24.522,64.4,14,Waypoint,
38.0861559,-120.2285457,4004.9224293386,132.87402,0,0.80472115436,18900,2018-05-10 16:43:43,16,0,20.988,4004.9224293386,132.87402,0.6263432,1.83762473072,0,0,-0.671082,280.5, -1, 1.6,0,0,1024,1024,1024,1024,280,-89.9,90,3.516,3.536,3.546,3.524,3.511,3.536,24.522,64.4,14,Waypoint,
38.0861559,-120.2285457,4005.5785973386,133.530188,0,0.80472115436,19000,2018-05-10 16:43:43,16,0,21.285,4005.5785973386,133.530188,0.6263432,1.83762473072,0,0,-0.671082,280.6, -1.1, 1.3,0,0,1024,1024,1024,1024,280,-89.9,89,3.487,3.512,3.514,3.509,3.49,3.512,20.589,64.4,14,Waypoint,
38.0861559,-120.2285457,4006.5628493386,134.51444,0,0.80472115436,19100,2018-05-10 16:43:43,16,0,21.285,4006.5628493386,134.51444,0.6263432,1.83762473072,0,0,-0.671082,280.6, -1.4, 1.3,0,0,1024,1024,1024,1024,280,-89.9,89,3.487,3.512,3.514,3.509,3.49,3.512,20.589,64.4,14,Waypoint,
38.0861559,-120.2285457,4007.5471013386,135.498692,0,0.80472115436,19200,2018-05-10 16:43:43,16,0,21.285,4007.5471013386,135.498692,0.6263432,1.83762473072,0,0,-0.671082,280.6, -1.5, 1.7,0,0,1024,1024,1024,1024,280,-89.9,89,3.487,3.512,3.514,3.509,3.49,3.512,20.589,64.4,14,Waypoint,
38.0861559,-120.2285457,4008.2032693386,136.15486,0,0.80472115436,19300,2018-05-10 16:43:43,16,0,21.285,4008.2032693386,136.15486,0.6263432,1.83762473072,0,0,-0.671082,280.6, -1.6, 1.8,0,0,1024,1024,1024,1024,280,-89.9,89,3.487,3.512,3.514,3.509,3.49,3.512,20.589,64.4,14,Waypoint,
38.0861559,-120.2285457,4009.1875213386,137.139112,0,0.80472115436,19400,2018-05-10 16:43:43,16,0,21.285,4009.1875213386,137.139112,0.6263432,1.83762473072,0,0,-0.671082,280.5, -1.8, 1.8,0,0,1024,1024,1024,1024,280,-89.9,89,3.487,3.512,3.514,3.509,3.49,3.512,20.589,64.4,14,Waypoint,
38.0861559,-120.2285458,4010.1717733386,138.123364,0,0.80728020956,19500,2018-05-10 16:43:43,16,0,21.285,4010.1717733386,138.123364,0.6263432,1.83762473072,0,0,-0.671082,280.4, -1.8, 1.9,0,0,1024,1024,1024,1024,280,-89.9,89,3.487,3.512,3.514,3.509,3.49,3.512,20.589,64.4,14,Waypoint,
38.0861558,-120.2285458,4010.8279413386,138.779532,0,0.84356301912,19600,2018-05-10 16:43:43,16,0,21.285,4010.8279413386,138.779532,0.6263432,1.83762473072,0,0,-0.671082,280.4, -1.7, 2,0,0,1024,1024,1024,1024,280,-89.9,89,3.487,3.512,3.514,3.509,3.49,3.512,20.589,64.4,14,Waypoint,
38.0861558,-120.2285458,4011.8121933386,139.763784,0,0.84356301912,19700,2018-05-10 16:43:43,16,0,21.285,4011.8121933386,139.763784,0.6263432,1.83762473072,0,0,-0.671082,280.6, -1.8, 1.9,0,0,1024,1024,1024,1024,280,-89.9,89,3.487,3.512,3.514,3.509,3.49,3.512,20.589,64.4,14,Waypoint,
38.0861558,-120.2285459,4013.7806973386,141.732288,0,0.84697837356,19800,2018-05-10 16:43:43,16,0,21.285,4013.7806973386,141.732288,0.6263432,1.83762473072,0,0,-0.671082,280.8, -1.3, 2.4,0,0,1024,1024,1024,1024,280,-89.9,89,3.487,3.512,3.514,3.509,3.49,3.512,20.589,64.4,14,Waypoint,
38.0861558,-120.228546,4014.7649493386,142.71654,0,0.85134845244,19900,2018-05-10 16:43:44,16,0,21.285,4014.7649493386,142.71654,0.6263432,1.83762473072,0,0,-0.671082,280.9, -1, 2.5,0,0,1024,1024,1024,1024,280,-89.9,89,3.487,3.512,3.514,3.509,3.49,3.512,20.589,64.4,14,Waypoint,
38.0861558,-120.2285461,4015.7492013386,143.700792,0,0.8566601324,20010,2018-05-10 16:43:44,16,0,21.487,4015.7492013386,143.700792,0.6263432,1.83762473072,0,0,-0.671082,280.9, -0.9, 2.4,0,0,1024,1024,1024,1024,280,-89.9,89,3.541,3.558,3.572,3.553,3.533,3.581,18.257,66.2,14,Waypoint,
38.0861558,-120.2285461,4016.4053693386,144.35696,0,0.8566601324,20100,2018-05-10 16:43:44,16,0,21.487,4016.4053693386,144.35696,0.6263432,1.83762473072,0,0,-0.671082,280.8, -1, 2.2,0,0,1024,1024,1024,1024,280,-89.9,89,3.541,3.558,3.572,3.553,3.533,3.581,18.257,66.2,14,Waypoint,
38.0861557,-120.2285461,4017.3896213386,145.341212,0,0.89243113092,20300,2018-05-10 16:43:44,16,0,21.487,4017.3896213386,145.341212,0.6263432,1.83762473072,0,0,-0.671082,280.8, -1.1, 2.1,0,0,1024,1024,1024,1024,280,-89.9,89,3.541,3.558,3.572,3.553,3.533,3.581,18.257,66.2,14,Waypoint,
38.0861557,-120.2285462,4019.3581253386,147.309716,0,0.89841538308,20400,2018-05-10 16:43:44,16,0,21.487,4019.3581253386,147.309716,0.6263432,1.83762473072,0,0,-0.671082,280.9, -1.3, 3,0,0,1024,1024,1024,1024,280,-89.9,89,3.541,3.558,3.572,3.553,3.533,3.581,18.257,66.2,14,Waypoint,
38.0861556,-120.2285462,4020.3423773386,148.293968,0,0.93401249708,20600,2018-05-10 16:43:44,16,0,21.487,4020.3423773386,148.293968,0.6263432,1.83762473072,0,0,-0.671082,281, -0.9, 3.4,0,0,1024,1024,1024,1024,280,-89.9,89,3.541,3.558,3.572,3.553,3.533,3.581,18.257,66.2,14,Waypoint,
38.0861556,-120.2285462,4023.2951333386,151.246724,0,0.93401249708,20900,2018-05-10 16:43:45,16,0,21.487,4023.2951333386,151.246724,0.6263432,1.83762473072,0,0,-0.671082,280.2, -0.8, 1.7,0,0,1024,1024,1024,1024,280,-90,89,3.541,3.558,3.572,3.553,3.533,3.581,18.257,66.2,14,Waypoint,
38.0861556,-120.2285462,4024.2793853386,152.230976,0,0.93401249708,21000,2018-05-10 16:43:45,16,0,21.487,4024.2793853386,152.230976,0.6263432,1.83762473072,0,0,-0.671082,280.1, -1.8, 1.9,0,0,1024,1024,1024,1024,280,-90,89,3.576,3.587,3.592,3.576,3.551,3.587,18.257,66.2,14,Waypoint,
38.0861555,-120.2285461,4025.5917213386,153.543312,0,0.96413060828,21100,2018-05-10 16:43:45,16,0,21.487,4025.5917213386,153.543312,0.6263432,1.83762473072,0,0,-0.671082,280.2, -2.2, 2.4,0,0,1024,1024,1024,1024,280,-90,89,3.576,3.587,3.592,3.576,3.551,3.587,18.257,66.2,14,Waypoint,
38.0861555,-120.2285461,4026.5759733386,154.527564,0,0.96413060828,21200,2018-05-10 16:43:45,16,0,21.487,4026.5759733386,154.527564,0.6263432,1.83762473072,0,0,-0.671082,280.6, -2.3, 2.6,0,0,1024,1024,1024,1024,280,-90,89,3.576,3.587,3.592,3.576,3.551,3.587,18.257,66.2,14,Waypoint,
38.0861555,-120.228546,4027.5602253386,155.511816,0,0.95941276036,21300,2018-05-10 16:43:45,16,0,21.487,4027.5602253386,155.511816,0.6263432,1.83762473072,0,0,-0.671082,281.1, -2.5, 2.6,0,0,1024,1024,1024,1024,280,-90,89,3.576,3.587,3.592,3.576,3.551,3.587,18.257,66.2,14,Waypoint,
38.0861555,-120.2285459,4028.5444773386,156.496068,0,0.95553808832,21400,2018-05-10 16:43:45,16,0,21.487,4028.5444773386,156.496068,0.6263432,1.83762473072,0,0,-0.671082,281.5, -2.6, 2.5,0,0,1024,1024,1024,1024,280,-90,89,3.576,3.587,3.592,3.576,3.551,3.587,18.257,66.2,14,Waypoint,
38.0861555,-120.2285458,4029.5287293386,157.48032,0,0.95251315384,21500,2018-05-10 16:43:45,16,0,21.487,4029.5287293386,157.48032,0.6263432,1.83762473072,0,0,-0.671082,281.9, -3, 2.2,0,0,1024,1024,1024,1024,280,-90,89,3.576,3.587,3.592,3.576,3.551,3.587,18.257,66.2,14,Waypoint,
38.0861556,-120.2285457,4030.5129813386,158.464572,0.223694,0.91393047544,21600,2018-05-10 16:43:45,16,0,21.487,4030.5129813386,158.464572,0.6263432,1.83762473072,0,0,-0.671082,282.1, -3.4, 1.6,0,0,1024,1024,1024,1024,280,-90,89,3.576,3.587,3.592,3.576,3.551,3.587,18.257,66.2,14,Waypoint,
38.0861557,-120.2285455,4031.4972333386,159.448824,0.223694,0.8756397918,21700,2018-05-10 16:43:45,16,0,21.487,4031.4972333386,159.448824,0.6263432,1.83762473072,0,0,-0.671082,282, -3.5, 1.2,0,0,1024,1024,1024,1024,280,-89.9,89,3.576,3.587,3.592,3.576,3.551,3.587,18.257,66.2,14,Waypoint,
38.0861557,-120.2285455,4032.4814853386,160.433076,0.223694,0.8756397918,21800,2018-05-10 16:43:45,16,0,21.487,4032.4814853386,160.433076,0.6263432,1.83762473072,0,0,-0.671082,281.8, -3.1, 0.9,0,0,1024,1024,1024,1024,280,-89.9,89,3.576,3.587,3.592,3.576,3.551,3.587,18.257,66.2,14,Waypoint,
38.0861558,-120.2285454,4033.7938213386,161.745412,0.223694,0.83964569616,21910,2018-05-10 16:43:46,16,0,21.487,4033.7938213386,161.745412,0.6263432,1.83762473072,0,0,-0.671082,281.5, -2.9, 0.7,0,0,1024,1024,1024,1024,280,-89.9,89,3.576,3.587,3.592,3.576,3.551,3.587,18.257,66.2,14,Waypoint,
38.0861558,-120.2285453,4034.7780733386,162.729664,0.223694,0.84111551248,22000,2018-05-10 16:43:46,16,0,21.379,4034.7780733386,162.729664,0.6263432,1.83762473072,0,0,-0.671082,281.3, -2.9, 0.7,0,0,1024,1024,1024,1024,280,-89.9,89,3.538,3.553,3.579,3.554,3.534,3.571,20.491,66.2,14,Waypoint,
38.0861559,-120.2285452,4036.7465773386,164.698168,0,0.80728020956,22100,2018-05-10 16:43:46,16,0,21.379,4036.7465773386,164.698168,0.6263432,1.83762473072,0,0,-0.671082,280.9, -2.1, 0.9,0,0,1024,1024,1024,1024,280,-89.9,89,3.538,3.553,3.579,3.554,3.534,3.571,20.491,66.2,14,Waypoint,
38.086156,-120.2285451,4037.7308293386,165.68242,0,0.77474740012,22200,2018-05-10 16:43:46,16,0,21.379,4037.7308293386,165.68242,0.6263432,1.83762473072,0,0,-0.671082,281, -2.4, 0.8,0,0,1024,1024,1024,1024,280,-90,89,3.538,3.553,3.579,3.554,3.534,3.571,20.491,66.2,14,Waypoint,
38.086156,-120.2285451,4039.0431653386,166.994756,0,0.77474740012,22310,2018-05-10 16:43:46,16,0,21.379,4039.0431653386,166.994756,0.6263432,1.83762473072,0,0,-0.671082,281.4, -2.9, 0.7,0,0,1024,1024,1024,1024,280,-89.9,89,3.538,3.553,3.579,3.554,3.534,3.571,20.491,66.2,14,Waypoint,
38.0861561,-120.228545,4040.0274173386,167.979008,0.223694,0.74369096868,22400,2018-05-10 16:43:46,16,0,21.379,4040.0274173386,167.979008,0.6263432,1.83762473072,0,0,-0.671082,281.9, -3, 1.1,0,0,1024,1024,1024,1024,280,-90,89,3.538,3.553,3.579,3.554,3.534,3.571,20.491,66.2,14,Waypoint,
38.0861562,-120.228545,4041.0116693386,168.96326,0.223694,0.70792653184,22600,2018-05-10 16:43:46,16,0,21.379,4041.0116693386,168.96326,0.6263432,1.83762473072,0,0,-0.671082,282.1, -3.1, 0.8,0,0,1024,1024,1024,1024,280,-90,89,3.538,3.553,3.579,3.554,3.534,3.571,20.491,66.2,14,Waypoint,
38.0861564,-120.2285448,4043.3082573386,171.259848,0.223694,0.65200461404,22710,2018-05-10 16:43:46,16,0,21.379,4043.3082573386,171.259848,0.6263432,1.83762473072,0,0,-0.671082,281.8, -3.1, -0.5,0,0,1024,1024,1024,1024,280,-90,89,3.538,3.553,3.579,3.554,3.534,3.571,20.491,66.2,14,Waypoint,
38.0861565,-120.2285448,4044.2925093386,172.2441,0.223694,0.61739831372,22900,2018-05-10 16:43:47,16,0,21.379,4044.2925093386,172.2441,0.6263432,1.83762473072,0,0,-0.671082,281.6, -3, -1,0,0,1024,1024,1024,1024,280,-89.9,89,3.538,3.553,3.579,3.554,3.534,3.571,20.491,66.2,14,Waypoint,
38.0861566,-120.2285447,4045.2767613386,173.228352,0.223694,0.5935367644,23000,2018-05-10 16:43:47,16,0,21.344,4045.2767613386,173.228352,0.6263432,1.83762473072,0,0,-0.671082,281.2, -2.8, -1.5,0,0,1024,1024,1024,1024,280,-89.9,89,3.543,3.562,3.565,3.56,3.529,3.567,19.772,66.2,14,Waypoint,
38.0861567,-120.2285447,4046.2610133386,174.212604,0.223694,0.56007547724,23100,2018-05-10 16:43:47,16,0,21.344,4046.2610133386,174.212604,0.6263432,1.83762473072,0,0,-0.671082,280.9, -2.7, -1.6,0,0,1024,1024,1024,1024,280,-89.9,89,3.543,3.562,3.565,3.56,3.529,3.567,19.772,66.2,14,Waypoint,
38.0861567,-120.2285447,4047.2452653386,175.196856,0.223694,0.56007547724,23200,2018-05-10 16:43:47,16,0,21.344,4047.2452653386,175.196856,0.6263432,1.83762473072,0,0,-0.671082,280.6, -2.6, -1,0,0,1024,1024,1024,1024,280,-89.9,89,3.543,3.562,3.565,3.56,3.529,3.567,19.772,66.2,14,Waypoint,
38.0861568,-120.2285446,4048.2295173386,176.181108,0,0.54014765508,23300,2018-05-10 16:43:47,16,0,21.344,4048.2295173386,176.181108,0.6263432,1.83762473072,0,0,-0.671082,280.5, -2.6, -0.6,0,0,1024,1024,1024,1024,280,-89.9,89,3.543,3.562,3.565,3.56,3.529,3.567,19.772,66.2,14,Waypoint,
38.0861569,-120.2285446,4049.2137693386,177.16536,0,0.50841208976,23400,2018-05-10 16:43:47,16,0,21.344,4049.2137693386,177.16536,0.6263432,1.83762473072,0,0,-0.671082,280.6, -2.6, -0.8,0,0,1024,1024,1024,1024,280,-89.9,89,3.543,3.562,3.565,3.56,3.529,3.567,19.772,66.2,14,Waypoint,
38.0861569,-120.2285445,4051.5103573386,179.461948,0,0.52359253644,23600,2018-05-10 16:43:47,16,0,21.344,4051.5103573386,179.461948,0.6263432,1.83762473072,0,0,-0.671082,280.9, -2.9, -0.9,0,0,1024,1024,1024,1024,280,-90,89,3.543,3.562,3.565,3.56,3.529,3.567,19.772,66.2,14,Waypoint,
38.086157,-120.2285445,4052.4946093386,180.4462,0,0.49349082944,23700,2018-05-10 16:43:47,16,0,21.344,4052.4946093386,180.4462,0.6263432,1.83762473072,0,0,-0.671082,281, -2.9, -1.2,0,0,1024,1024,1024,1024,280,-89.9,89,3.543,3.562,3.565,3.56,3.529,3.567,19.772,66.2,14,Waypoint,
38.086157,-120.2285445,4053.4788613386,181.430452,0,0.49349082944,23800,2018-05-10 16:43:47,16,0,21.344,4053.4788613386,181.430452,0.6263432,1.83762473072,0,0,-0.671082,281, -2.7, -1.1,0,0,1024,1024,1024,1024,280,-89.9,89,3.543,3.562,3.565,3.56,3.529,3.567,19.772,66.2,14,Waypoint,
38.0861571,-120.2285445,4054.4631133386,182.414704,0,0.4643044768,23900,2018-05-10 16:43:48,16,0,21.344,4054.4631133386,182.414704,0.6263432,1.83762473072,0,0,-0.671082,280.9, -2.5, -0.8,0,0,1024,1024,1024,1024,280,-89.9,89,3.543,3.562,3.565,3.56,3.529,3.567,19.772,66.2,14,Waypoint,
38.0861571,-120.2285445,4055.4473653386,183.398956,0,0.4643044768,24000,2018-05-10 16:43:48,16,0,21.357,4055.4473653386,183.398956,0.6263432,1.83762473072,0,0,-0.671082,280.7, -2.3, -0.4,0,0,1024,1024,1024,1024,280,-89.9,89,3.554,3.566,3.572,3.561,3.532,3.569,19.78,66.2,14,Waypoint,
38.0861571,-120.2285445,4056.4316173386,184.383208,0,0.4643044768,24100,2018-05-10 16:43:48,16,0,21.357,4056.4316173386,184.383208,0.6263432,1.83762473072,0,0,-0.671082,280.6, -2.2, 0,0,0,1024,1024,1024,1024,280,-89.9,89,3.554,3.566,3.572,3.561,3.532,3.569,19.78,66.2,14,Waypoint,
38.0861572,-120.2285446,4058.4001213386,186.351712,0,0.41787402912,24200,2018-05-10 16:43:48,16,0,21.357,4058.4001213386,186.351712,0.6263432,1.83762473072,0,0,-0.671082,280.7, -1.5, 0,0,0,1024,1024,1024,1024,280,-89.9,89,3.554,3.566,3.572,3.561,3.532,3.569,19.78,66.2,14,Waypoint,
38.0861572,-120.2285447,4059.3843733386,187.335964,0,0.40075132516,24300,2018-05-10 16:43:48,16,0,21.357,4059.3843733386,187.335964,0.6263432,1.83762473072,0,0,-0.671082,280.8, -1.4, -0.3,0,0,1024,1024,1024,1024,280,-89.9,89,3.554,3.566,3.572,3.561,3.532,3.569,19.78,66.2,14,Waypoint,
38.0861573,-120.2285447,4060.3686253386,188.320216,0,0.37144358144,24400,2018-05-10 16:43:48,16,0,21.357,4060.3686253386,188.320216,0.6263432,1.83762473072,0,0,-0.671082,281, -1.3, -0.7,0,0,1024,1024,1024,1024,280,-89.9,89,3.554,3.566,3.572,3.561,3.532,3.569,19.78,66.2,14,Waypoint,
38.0861573,-120.2285448,4061.3528773386,189.304468,0,0.35440289848,24510,2018-05-10 16:43:48,16,0,21.357,4061.3528773386,189.304468,0.6263432,1.83762473072,0,0,-0.671082,281, -1.4, -0.9,0,0,1024,1024,1024,1024,280,-89.9,89,3.554,3.566,3.572,3.561,3.532,3.569,19.78,66.2,14,Waypoint,
38.0861573,-120.2285448,4062.6652133386,190.616804,0,0.35440289848,24600,2018-05-10 16:43:48,16,0,21.357,4062.6652133386,190.616804,0.6263432,1.83762473072,0,0,-0.671082,281, -1.4, -0.8,0,0,1024,1024,1024,1024,280,-89.9,89,3.554,3.566,3.572,3.561,3.532,3.569,19.78,66.2,14,Waypoint,
38.0861573,-120.2285449,4063.6494653386,191.601056,0,0.33894029956,24700,2018-05-10 16:43:48,16,0,21.357,4063.6494653386,191.601056,0.6263432,1.83762473072,0,0,-0.671082,281, -1.4, -0.8,0,0,1024,1024,1024,1024,280,-89.9,89,3.554,3.566,3.572,3.561,3.532,3.569,19.78,66.2,14,Waypoint,
38.0861573,-120.2285449,4064.6337173386,192.585308,0,0.33894029956,24800,2018-05-10 16:43:48,16,0,21.357,4064.6337173386,192.585308,0.6263432,1.83762473072,0,0,-0.671082,280.8, -1.5, -0.7,0,0,1024,1024,1024,1024,280,-89.9,89,3.554,3.566,3.572,3.561,3.532,3.569,19.78,66.2,14,Waypoint,
38.0861573,-120.2285449,4065.6179693386,193.56956,0,0.33894029956,25000,2018-05-10 16:43:49,16,0,21.333,4065.6179693386,193.56956,0.6263432,1.83762473072,0,0,-0.671082,280.7, -1.7, -0.3,0,0,1024,1024,1024,1024,280,-89.9,89,3.546,3.563,3.576,3.552,3.537,3.565,19.767,66.2,14,Waypoint,
38.0861572,-120.228545,4067.5864733386,195.538064,0,0.35838583824,25110,2018-05-10 16:43:49,16,0,21.333,4067.5864733386,195.538064,0.6263432,1.83762473072,0,0,-0.671082,280.6, -1.8, 0.1,0,0,1024,1024,1024,1024,280,-89.9,89,3.546,3.563,3.576,3.552,3.537,3.565,19.767,66.2,14,Waypoint,
38.0861572,-120.228545,4068.5707253386,196.522316,0,0.35838583824,25300,2018-05-10 16:43:49,16,0,21.333,4068.5707253386,196.522316,0.6263432,1.83762473072,0,0,-0.671082,280.6, -1.8, 0,0,0,1024,1024,1024,1024,280,-89.9,89,3.546,3.563,3.576,3.552,3.537,3.565,19.767,66.2,14,Waypoint,
38.0861572,-120.228545,4069.5549773386,197.506568,0,0.35838583824,25400,2018-05-10 16:43:49,16,0,21.333,4069.5549773386,197.506568,0.6263432,1.83762473072,0,0,-0.671082,280.6, -1.8, -0.2,0,0,1024,1024,1024,1024,280,-89.9,89,3.546,3.563,3.576,3.552,3.537,3.565,19.767,66.2,14,Waypoint,
38.0861572,-120.228545,4070.5392293386,198.49082,0,0.35838583824,25500,2018-05-10 16:43:49,16,0,21.333,4070.5392293386,198.49082,0.6263432,1.83762473072,0,0,-0.671082,280.4, -1.5, -0.3,0,0,1024,1024,1024,1024,280,-89.9,89,3.546,3.563,3.576,3.552,3.537,3.565,19.767,66.2,14,Waypoint,
38.0861572,-120.228545,4072.5077333386,200.459324,0,0.35838583824,25700,2018-05-10 16:43:49,16,0,21.333,4072.5077333386,200.459324,0.6263432,1.83762473072,0,0,-0.671082,280.1, -2, -0.4,0,0,1024,1024,1024,1024,280,-90,89,3.546,3.563,3.576,3.552,3.537,3.565,19.767,66.2,14,Waypoint,
38.0861571,-120.228545,4073.4919853386,201.443576,0,0.39208662672,25800,2018-05-10 16:43:49,16,0,21.333,4073.4919853386,201.443576,0.6263432,1.83762473072,0,0,-0.671082,280.1, -2.2, -0.1,0,0,1024,1024,1024,1024,280,-90,89,3.546,3.563,3.576,3.552,3.537,3.565,19.767,66.2,14,Waypoint,
38.086157,-120.228545,4074.4762373386,202.427828,0,0.4262467328,25900,2018-05-10 16:43:50,16,0,21.333,4074.4762373386,202.427828,0.6263432,1.83762473072,0,0,-0.671082,280.3, -2.6, 0.1,0,0,1024,1024,1024,1024,280,-90,89,3.546,3.563,3.576,3.552,3.537,3.565,19.767,66.2,14,Waypoint,
38.086157,-120.228545,4075.4604893386,203.41208,0,0.4262467328,26000,2018-05-10 16:43:50,16,0,21.29,4075.4604893386,203.41208,0.6263432,1.83762473072,0,0,-0.671082,280.6, -2.7, 0.6,0,0,1024,1024,1024,1024,280,-90,89,3.547,3.552,3.567,3.55,3.522,3.558,20.125,66.2,14,Waypoint,
38.0861569,-120.228545,4076.4447413386,204.396332,0,0.4607611696,26100,2018-05-10 16:43:50,16,0,21.29,4076.4447413386,204.396332,0.6263432,1.83762473072,0,0,-0.671082,280.9, -2.8, 1,0,0,1024,1024,1024,1024,280,-89.9,89,3.547,3.552,3.567,3.55,3.522,3.558,20.125,66.2,14,Waypoint,
38.0861568,-120.228545,4077.4289933386,205.380584,0,0.49556103948,26200,2018-05-10 16:43:50,16,0,21.29,4077.4289933386,205.380584,0.6263432,1.83762473072,0,0,-0.671082,281.1, -2.7, 0.9,0,0,1024,1024,1024,1024,280,-90,89,3.547,3.552,3.567,3.55,3.522,3.558,20.125,66.2,14,Waypoint,
38.0861568,-120.228545,4078.4132453386,206.364836,0,0.49556103948,26300,2018-05-10 16:43:50,16,0,21.29,4078.4132453386,206.364836,0.6263432,1.83762473072,0,0,-0.671082,281.2, -2.6, 0.7,0,0,1024,1024,1024,1024,280,-89.9,89,3.547,3.552,3.567,3.55,3.522,3.558,20.125,66.2,14,Waypoint,
38.0861568,-120.2285451,4079.3974973386,207.349088,0,0.48801510748,26400,2018-05-10 16:43:50,16,0,21.29,4079.3974973386,207.349088,0.6263432,1.83762473072,0,0,-0.671082,281.2, -2.3, 0.3,0,0,1024,1024,1024,1024,280,-89.9,89,3.547,3.552,3.567,3.55,3.522,3.558,20.125,66.2,14,Waypoint,
38.0861567,-120.2285452,4080.3817493386,208.33334,0,0.51800198508,26510,2018-05-10 16:43:50,16,0,21.29,4080.3817493386,208.33334,0.6263432,1.83762473072,0,0,-0.671082,281.3, -1.9, 0.1,0,0,1024,1024,1024,1024,280,-89.9,89,3.547,3.552,3.567,3.55,3.522,3.558,20.125,66.2,14,Waypoint,
