Latitude, Longitude, Altitude (m), Time, Sats, Speed (m/s), Range (m), Battery (%), Roll (deg), Pitch (deg), Yaw (deg), Images, HD Signal (%), RC Signal (%), Battery Temp (C), Battery Voltage (mV), Battery Current (mA), Battery Energy (mAh), Battery Capacity (mAh), Battery Discharges, flyState, timestamp (Unix), LastUpdate (ms), radioChannel, Rc_elevator, Rc_aileron, Rc_throttle, Rc_rudder, Rc_gyro, Dronetype, Battery_Cell1 (mV), Battery_Cell2 (mV), Battery_Cell3 (mV), Battery_Cell4 (mV), Battery_Cell5 (mV), Battery_Cell6 (mV), Video, isFlying, elapsedTime (ms), gimbalPitch (deg), gimbalRoll (deg), gimbalYaw (deg), VelocityX (m/s), VelocityY (m/s), VelocityZ (m/s), GroundSmear (cm), App Version, Aircraft Name, Aircraft Firmware, Aircraft Serial Number, Battery Serial Number, Battery Lifetime (%), App_Tip, App_Warning, CurrentFlightStartingIndex, CurrentFlightLastVisitedWaypoint, PreviousFlightEndingWaypointIndex
38.5373954, -120.3487474, 0.000, 16:19:49.117, 11, 0.00, 0.03, 98, 0.000, 0.900, 91.800, 390, 100, 100, 31, 25865, -2808, 5176, 5282, 22, 11, 1531005589.117, 29, 0, 1024, 1024, 1024, 1024, 0, 6, 4319, 4330, 4320, 4287, 4320, 4273, 0, 1, 2923, -90.000, 0.000, 90.400, 0.000, 0.000, 0.000, 0.0, MapPilot_2.8.1_04242018, Dendroctonus I, 1.3.1.00, 041DDC1887, 1058163200459, 95, DJI_0513.jpg, Starting Mission from Lat/Long: 38.53741/-120.34874 Camera: Zenmuse X3 - Overlap: 90/90 - Active Connection: No, 55, 55, 55
38.5373954, -120.3487474, 0.000, 16:19:49.195, 11, 0.00, 0.03, 98, 0.000, 0.900, 91.800, 390, 100, 100, 31, 25865, -2808, 5176, 5282, 22, 11, 1531005589.195, 107, 0, 1024, 1024, 1024, 1024, 0, 6, 4319, 4330, 4320, 4287, 4320, 4273, 0, 1, 3001, -90.000, 0.000, 90.400, 0.000, 0.000, 0.000, 0.0, , , , , , 95, , , 55, 55, 55
38.5373955, -120.3487475, 0.000, 16:19:49.297, 11, 0.10, 0.03, 98, 0.200, 0.500, 92.100, 390, 100, 100, 31, 25865, -2808, 5176, 5282, 22, 11, 1531005589.297, 1, 0, 1024, 1024, 1024, 1024, 0, 6, 4319, 4330, 4320, 4287, 4320, 4273, 0, 1, 3102, -90.000, 0.000, 90.500, 0.100, 0.000, -0.200, 0.0, , , , , , 95, , , 55, 55, 55
38.5373955, -120.3487475, 0.000, 16:19:49.395, 11, 0.10, 0.03, 98, 0.200, 0.500, 92.100, 390, 100, 100, 31, 25865, -2808, 5176, 5282, 22, 11, 1531005589.395, 99, 0, 1024, 1024, 1024, 1024, 0, 6, 4319, 4330, 4320, 4287, 4320, 4273, 0, 1, 3200, -90.000, 0.000, 90.500, 0.100, 0.000, -0.200, 0.0, , , , , , 95, , , 55, 55, 55
38.5373956, -120.3487476, 0.000, 16:19:49.495, 11, 0.10, 0.03, 98, 0.400, 0.100, 92.200, 390, 100, 100, 31, 25872, -3116, 5176, 5282, 22, 11, 1531005589.495, 92, 0, 1024, 1024, 1024, 1024, 0, 6, 4288, 4287, 4299, 4300, 4306, 4304, 0, 1, 3301, -90.000, 0.000, 90.500, 0.100, 0.000, -0.300, 0.0, , , , , , 95, , , 55, 55, 55
38.5373957, -120.3487476, 0.100, 16:19:49.595, 10, 0.10, 0.04, 98, 0.600, -0.100, 92.200, 390, 100, 100, 31, 25872, -3116, 5176, 5282, 22, 11, 1531005589.595, 87, 0, 1024, 1024, 1024, 1024, 0, 6, 4288, 4287, 4299, 4300, 4306, 4304, 0, 1, 3401, -90.000, 0.000, 90.500, 0.100, 0.000, -0.300, 0.0, , , , , , 95, , , 55, 55, 55
38.5373959, -120.3487476, 0.100, 16:19:49.695, 10, 0.10, 0.06, 98, 0.500, -0.200, 92.200, 390, 100, 100, 31, 25872, -3116, 5176, 5282, 22, 11, 1531005589.695, 75, 0, 1024, 1024, 1024, 1024, 0, 6, 4288, 4287, 4299, 4300, 4306, 4304, 0, 1, 3501, -90.000, 0.000, 90.500, 0.100, 0.000, -0.300, 0.0, , , , , , 95, , , 55, 55, 55
38.5373960, -120.3487476, 0.100, 16:19:49.795, 10, 0.10, 0.07, 98, 0.700, -0.200, 92.200, 390, 100, 100, 31, 25872, -3116, 5176, 5282, 22, 11, 1531005589.795, 78, 0, 1024, 1024, 1024, 1024, 0, 6, 4288, 4287, 4299, 4300, 4306, 4304, 0, 1, 3601, -89.900, 0.000, 90.500, 0.100, 0.000, -0.300, 0.0, , , , , , 95, , , 55, 55, 55
38.5373962, -120.3487476, 0.200, 16:19:49.895, 10, 0.10, 0.09, 98, 1.100, -0.300, 92.100, 390, 100, 100, 31, 25872, -3116, 5176, 5282, 22, 11, 1531005589.895, 72, 0, 1024, 1024, 1024, 1024, 0, 6, 4288, 4287, 4299, 4300, 4306, 4304, 0, 1, 3701, -90.000, 0.000, 90.600, 0.100, 0.000, -0.400, 0.0, , , , , , 95, , , 55, 55, 55
38.5373963, -120.3487475, 0.200, 16:19:49.995, 9, 0.10, 0.10, 98, 1.400, -0.200, 92.000, 390, 100, 100, 31, 25872, -3116, 5176, 5282, 22, 11, 1531005589.995, 65, 0, 1024, 1024, 1024, 1024, 0, 6, 4288, 4287, 4299, 4300, 4306, 4304, 0, 1, 3800, -90.000, 0.000, 90.600, 0.100, 0.000, -0.400, 0.0, , , , , , 95, , , 55, 55, 55
38.5373964, -120.3487474, 0.300, 16:19:50.095, 9, 0.10, 0.12, 98, 1.700, 0.000, 91.900, 390, 100, 100, 31, 25872, -3116, 5176, 5282, 22, 11, 1531005590.095, 68, 0, 1024, 1024, 1024, 1024, 0, 6, 4288, 4287, 4299, 4300, 4306, 4304, 0, 1, 3900, -89.900, 0.000, 90.600, 0.100, 0.000, -0.400, 0.0, , , , , , 95, , , 55, 55, 55
38.5373965, -120.3487473, 0.300, 16:19:50.195, 8, 0.10, 0.13, 98, 2.000, 0.200, 91.900, 390, 100, 100, 31, 25872, -3116, 5176, 5282, 22, 11, 1531005590.195, 63, 0, 1024, 1024, 1024, 1024, 0, 6, 4288, 4287, 4299, 4300, 4306, 4304, 0, 1, 4000, -89.900, 0.000, 90.600, 0.100, 0.000, -0.400, 0.0, , , , , , 95, , , 55, 55, 55
38.5373965, -120.3487472, 0.400, 16:19:50.295, 8, 0.00, 0.13, 98, 1.900, 0.300, 91.800, 390, 100, 100, 31, 25872, -3116, 5176, 5282, 22, 11, 1531005590.295, 67, 0, 1024, 1024, 1024, 1024, 0, 6, 4288, 4287, 4299, 4300, 4306, 4304, 0, 1, 4101, -89.900, 0.000, 90.600, 0.000, 0.000, -0.400, 0.0, , , , , , 95, , , 55, 55, 55
38.5373965, -120.3487471, 0.400, 16:19:50.395, 9, 0.00, 0.13, 98, 1.900, 0.600, 91.700, 390, 100, 100, 31, 25872, -3116, 5176, 5282, 22, 11, 1531005590.395, 65, 0, 1024, 1024, 1024, 1024, 0, 6, 4288, 4287, 4299, 4300, 4306, 4304, 0, 1, 4200, -89.900, 0.000, 90.600, 0.000, 0.000, -0.500, 0.0, , , , , , 95, , , 55, 55, 55
38.5373965, -120.3487470, 0.500, 16:19:50.495, 9, 0.00, 0.14, 98, 1.800, 0.700, 91.600, 390, 100, 100, 31, 25024, -14410, 5176, 5282, 22, 11, 1531005590.495, 42, 0, 1024, 1024, 1024, 1024, 0, 6, 4128, 4183, 4163, 4164, 4171, 4162, 0, 1, 4300, -89.900, 0.000, 90.700, 0.000, 0.000, -0.400, 0.0, , , , , , 95, , , 55, 55, 55
38.5373966, -120.3487469, 0.500, 16:19:50.595, 11, 0.00, 0.15, 98, 1.600, 0.900, 91.600, 390, 100, 100, 31, 25024, -14410, 5176, 5282, 22, 11, 1531005590.595, 34, 0, 1024, 1024, 1024, 1024, 0, 6, 4128, 4183, 4163, 4164, 4171, 4162, 0, 1, 4400, -89.900, 0.000, 90.700, 0.000, 0.000, -0.400, 0.0, , , , , , 95, , , 55, 55, 55
38.5373966, -120.3487469, 0.600, 16:19:50.695, 11, 0.00, 0.15, 98, 1.400, 0.900, 91.600, 390, 100, 100, 31, 25024, -14410, 5176, 5282, 22, 11, 1531005590.695, 37, 0, 1024, 1024, 1024, 1024, 0, 6, 4128, 4183, 4163, 4164, 4171, 4162, 0, 1, 4500, -89.900, 0.000, 90.700, 0.000, 0.000, -0.500, 0.0, , , , , , 95, , , 55, 55, 55
38.5373965, -120.3487469, 0.600, 16:19:50.795, 12, 0.00, 0.15, 98, 1.200, 0.900, 91.700, 390, 100, 100, 31, 25024, -14410, 5176, 5282, 22, 11, 1531005590.795, 32, 0, 1024, 1024, 1024, 1024, 0, 6, 4128, 4183, 4163, 4164, 4171, 4162, 0, 1, 4601, -89.900, 0.000, 90.700, 0.000, 0.000, -0.500, 0.0, , , , , , 95, , , 55, 55, 55
38.5373965, -120.3487468, 0.700, 16:19:50.895, 12, 0.00, 0.14, 98, 1.000, 0.700, 91.700, 390, 100, 100, 31, 25024, -14410, 5176, 5282, 22, 11, 1531005590.895, 37, 0, 1024, 1024, 1024, 1024, 0, 6, 4128, 4183, 4163, 4164, 4171, 4162, 0, 1, 4700, -89.900, 0.000, 90.700, 0.000, 0.000, -0.400, 0.0, , , , , , 95, , , 55, 55, 55
38.5373964, -120.3487468, 0.700, 16:19:50.995, 13, 0.00, 0.14, 98, 0.800, 0.700, 91.700, 390, 100, 100, 31, 25024, -14410, 5176, 5282, 22, 11, 1531005590.995, 16, 0, 1024, 1024, 1024, 1024, 0, 6, 4128, 4183, 4163, 4164, 4171, 4162, 0, 1, 4800, -89.900, 0.000, 90.700, 0.000, 0.000, -0.500, 0.0, , , , , , 95, , , 55, 55, 55
38.5373964, -120.3487468, 0.800, 16:19:51.094, 13, 0.00, 0.15, 98, 0.600, 0.700, 91.700, 390, 100, 100, 31, 25024, -14410, 5176, 5282, 22, 11, 1531005591.094, 15, 0, 1024, 1024, 1024, 1024, 0, 6, 4128, 4183, 4163, 4164, 4171, 4162, 0, 1, 4900, -89.900, 0.000, 90.700, 0.000, 0.000, -0.500, 0.0, , , , , , 95, , , 55, 55, 55
38.5373965, -120.3487467, 0.900, 16:19:51.195, 12, 0.00, 0.15, 98, 0.800, 0.800, 91.700, 390, 100, 100, 31, 25024, -14410, 5176, 5282, 22, 11, 1531005591.195, 22, 0, 1024, 1024, 1024, 1024, 0, 6, 4128, 4183, 4163, 4164, 4171, 4162, 0, 1, 5000, -89.900, 0.000, 90.700, 0.000, 0.000, -0.500, 0.0, , , , , , 95, , , 55, 55, 55
38.5373965, -120.3487465, 1.000, 16:19:51.301, 10, 0.00, 0.16, 98, 0.900, 0.700, 91.700, 390, 100, 100, 31, 25024, -14410, 5176, 5282, 22, 14, 1531005591.301, 3, 0, 1024, 1024, 1024, 1024, 0, 6, 4128, 4183, 4163, 4164, 4171, 4162, 0, 1, 5106, -90.000, 0.000, 90.700, 0.000, 0.000, -0.300, 0.0, , , , , , 95, , , 55, 55, 55
38.5373964, -120.3487464, 1.000, 16:19:51.395, 10, 0.00, 0.16, 98, 0.500, 0.600, 91.700, 390, 100, 100, 31, 24863, -16061, 5176, 5282, 22, 14, 1531005591.395, 9, 0, 1024, 1024, 1024, 1024, 0, 6, 4118, 4140, 4140, 4136, 4136, 4146, 0, 1, 5200, -89.900, 0.000, 90.700, 0.000, 0.000, -0.200, 0.0, , , , , , 95, , , 55, 55, 55
38.5373964, -120.3487464, 1.000, 16:19:51.494, 10, 0.00, 0.16, 98, 0.500, 0.600, 91.700, 390, 100, 100, 31, 24863, -16061, 5176, 5282, 22, 14, 1531005591.494, 108, 0, 1024, 1024, 1024, 1024, 0, 6, 4118, 4140, 4140, 4136, 4136, 4146, 0, 1, 5299, -89.900, 0.000, 90.700, 0.000, 0.000, -0.200, 0.0, , , , , , 95, , , 55, 55, 55
38.5373964, -120.3487464, 1.000, 16:19:51.595, 11, 0.00, 0.16, 98, 0.200, 0.700, 91.700, 390, 100, 100, 31, 24863, -16061, 5176, 5282, 22, 14, 1531005591.595, 96, 0, 1024, 1024, 1024, 1024, 0, 6, 4118, 4140, 4140, 4136, 4136, 4146, 0, 1, 5400, -89.900, 0.000, 90.700, 0.000, 0.000, -0.200, 0.0, , , , , , 95, , , 55, 55, 55
38.5373964, -120.3487462, 1.100, 16:19:51.695, 11, 0.00, 0.17, 98, 0.200, 0.900, 91.800, 390, 100, 100, 31, 24863, -16061, 5176, 5282, 22, 14, 1531005591.695, 88, 0, 1024, 1024, 1024, 1024, 0, 6, 4118, 4140, 4140, 4136, 4136, 4146, 0, 1, 5500, -89.900, 0.000, 90.700, 0.000, 0.000, -0.300, 0.0, , , , , , 95, , , 55, 55, 55
38.5373964, -120.3487461, 1.100, 16:19:51.795, 11, 0.00, 0.18, 98, 0.400, 1.000, 91.800, 390, 100, 100, 31, 24863, -16061, 5176, 5282, 22, 14, 1531005591.795, 90, 0, 1024, 1024, 1024, 1024, 0, 6, 4118, 4140, 4140, 4136, 4136, 4146, 0, 1, 5600, -89.900, 0.000, 90.700, 0.000, 0.000, -0.400, 0.0, , , , , , 95, , , 55, 55, 55
38.5373964, -120.3487460, 1.200, 16:19:51.895, 11, 0.00, 0.19, 98, 0.700, 1.200, 91.800, 390, 100, 100, 31, 24863, -16061, 5176, 5282, 22, 14, 1531005591.895, 84, 0, 1024, 1024, 1024, 1024, 0, 6, 4118, 4140, 4140, 4136, 4136, 4146, 0, 1, 5700, -89.900, 0.000, 90.700, 0.000, 0.000, -0.600, 0.0, , , , , , 95, , , 55, 55, 55
38.5373963, -120.3487460, 1.200, 16:19:51.995, 12, 0.00, 0.19, 98, 0.700, 1.200, 91.700, 390, 100, 100, 31, 24863, -16061, 5176, 5282, 22, 14, 1531005591.995, 64, 0, 1024, 1024, 1024, 1024, 0, 6, 4118, 4140, 4140, 4136, 4136, 4146, 0, 1, 5800, -89.900, 0.000, 90.700, 0.000, 0.000, -0.800, 0.0, , , , , , 95, , , 55, 55, 55
38.5373964, -120.3487458, 1.300, 16:19:52.095, 12, 0.00, 0.20, 98, 0.600, 1.300, 91.700, 390, 100, 100, 31, 24863, -16061, 5176, 5282, 22, 14, 1531005592.095, 76, 0, 1024, 1024, 1024, 1024, 0, 6, 4118, 4140, 4140, 4136, 4136, 4146, 0, 1, 5900, -89.900, 0.000, 90.700, 0.000, 0.000, -1.000, 0.0, , , , , , 95, , , 55, 55, 55
38.5373964, -120.3487457, 1.400, 16:19:52.195, 11, 0.00, 0.21, 98, 0.700, 1.300, 91.600, 390, 100, 100, 31, 24863, -16061, 5176, 5282, 22, 14, 1531005592.195, 56, 0, 1024, 1024, 1024, 1024, 0, 6, 4118, 4140, 4140, 4136, 4136, 4146, 0, 1, 6000, -89.900, 0.000, 90.700, 0.000, 0.000, -1.200, 0.0, , , , , , 95, , , 55, 55, 55
38.5373965, -120.3487457, 1.600, 16:19:52.295, 11, 0.00, 0.22, 98, 0.800, 1.200, 91.600, 390, 100, 100, 31, 24863, -16061, 5176, 5282, 22, 14, 1531005592.295, 57, 0, 1024, 1024, 1024, 1024, 0, 6, 4118, 4140, 4140, 4136, 4136, 4146, 0, 1, 6100, -89.900, 0.000, 90.700, 0.000, 0.000, -1.300, 0.0, , , , , , 95, , , 55, 55, 55
38.5373967, -120.3487457, 1.700, 16:19:52.394, 11, 0.00, 0.23, 98, 1.000, 1.200, 91.600, 390, 100, 100, 31, 24863, -16061, 5176, 5282, 22, 14, 1531005592.394, 33, 0, 1024, 1024, 1024, 1024, 0, 6, 4118, 4140, 4140, 4136, 4136, 4146, 0, 1, 6200, -89.900, 0.000, 90.700, 0.000, 0.000, -1.500, 0.0, , , , , , 95, , , 55, 55, 55
38.5373969, -120.3487456, 1.900, 16:19:52.495, 11, 0.00, 0.25, 98, 1.200, 1.000, 91.600, 390, 100, 100, 31, 24760, -19446, 5176, 5282, 22, 14, 1531005592.495, 49, 0, 1024, 1024, 1024, 1024, 0, 6, 4118, 4140, 4140, 4136, 4136, 4146, 0, 1, 6300, -90.000, 0.000, 90.700, 0.000, 0.000, -1.800, 0.0, , , , , , 95, , , 55, 55, 55
38.5373971, -120.3487455, 2.100, 16:19:52.595, 11, 0.00, 0.27, 98, 1.600, 0.900, 91.600, 390, 100, 100, 31, 24760, -19446, 5176, 5282, 22, 14, 1531005592.595, 39, 0, 1024, 1024, 1024, 1024, 0, 6, 4118, 4140, 4140, 4136, 4136, 4146, 0, 1, 6400, -90.000, 0.000, 90.700, 0.000, 0.000, -2.100, 0.0, , , , , , 95, , , 55, 55, 55
38.5373972, -120.3487454, 2.400, 16:19:52.694, 11, 0.00, 0.28, 98, 1.900, 1.000, 91.600, 390, 100, 100, 31, 24760, -19446, 5176, 5282, 22, 14, 1531005592.694, 32, 0, 1024, 1024, 1024, 1024, 0, 6, 4118, 4140, 4140, 4136, 4136, 4146, 0, 1, 6500, -89.900, 0.000, 90.700, 0.000, 0.000, -2.400, 0.0, , , , , , 95, , , 55, 55, 55
38.5373973, -120.3487453, 2.600, 16:19:52.795, 10, 0.00, 0.30, 98, 2.000, 0.900, 91.600, 390, 100, 100, 31, 24760, -19446, 5176, 5282, 22, 14, 1531005592.795, 44, 0, 1024, 1024, 1024, 1024, 0, 6, 4118, 4140, 4140, 4136, 4136, 4146, 0, 1, 6600, -89.900, 0.000, 90.700, 0.000, 0.000, -2.500, 0.0, , , , , , 95, , , 55, 55, 55
38.5373974, -120.3487453, 2.900, 16:19:52.895, 10, 0.00, 0.31, 98, 1.900, 1.100, 91.600, 390, 100, 100, 31, 24760, -19446, 5176, 5282, 22, 14, 1531005592.895, 26, 0, 1024, 1024, 1024, 1024, 0, 6, 4051, 4078, 4133, 4098, 4183, 4125, 0, 1, 6700, -89.900, 0.000, 90.700, 0.000, 0.000, -2.700, 0.0, , , , , , 95, , , 55, 55, 55
38.5373975, -120.3487453, 3.200, 16:19:52.995, 11, 0.00, 0.31, 98, 2.100, 1.100, 91.600, 390, 100, 100, 31, 24760, -19446, 5176, 5282, 22, 14, 1531005592.995, 34, 0, 1024, 1024, 1024, 1024, 0, 6, 4051, 4078, 4133, 4098, 4183, 4125, 0, 1, 6800, -89.900, 0.000, 90.700, 0.000, 0.000, -2.800, 0.0, , , , , , 95, , , 55, 55, 55
38.5373976, -120.3487452, 3.500, 16:19:53.095, 11, 0.00, 0.34, 98, 2.200, 1.100, 91.700, 390, 100, 100, 31, 24760, -19446, 5176, 5282, 22, 14, 1531005593.095, 13, 0, 1024, 1024, 1024, 1024, 0, 6, 4051, 4078, 4133, 4098, 4183, 4125, 0, 1, 6901, -89.900, 0.000, 90.700, 0.000, 0.000, -3.000, 0.0, , , , , , 95, , , 55, 55, 55
38.5373978, -120.3487450, 3.800, 16:19:53.195, 11, 0.00, 0.36, 98, 2.200, 1.200, 91.800, 390, 100, 100, 31, 24760, -19446, 5176, 5282, 22, 14, 1531005593.195, 16, 0, 1024, 1024, 1024, 1024, 0, 6, 4051, 4078, 4133, 4098, 4183, 4125, 0, 1, 7000, -89.900, 0.000, 90.700, 0.000, 0.000, -3.000, 0.0, , , , , , 95, , , 55, 55, 55
38.5373978, -120.3487450, 4.400, 16:19:53.294, 11, 0.00, 0.36, 98, 2.000, 1.600, 91.800, 390, 100, 100, 31, 24760, -19446, 5176, 5282, 22, 14, 1531005593.294, 3, 0, 1024, 1024, 1024, 1024, 0, 6, 4051, 4078, 4133, 4098, 4183, 4125, 0, 1, 7099, -89.900, 0.000, 90.700, 0.000, 0.000, -3.200, 0.0, , , , , , 95, , , 55, 55, 55
38.5373978, -120.3487451, 4.800, 16:19:53.394, 11, 0.00, 0.36, 98, 1.800, 1.500, 91.700, 390, 100, 100, 31, 24760, -19446, 5176, 5282, 22, 14, 1531005593.394, 21, 0, 1024, 1024, 1024, 1024, 0, 6, 4051, 4078, 4133, 4098, 4183, 4125, 0, 1, 7199, -89.900, 0.000, 90.700, 0.000, 0.000, -3.200, 0.0, , , , , , 95, , , 55, 55, 55
38.5373978, -120.3487451, 5.100, 16:19:53.496, 11, 0.00, 0.35, 98, 1.700, 1.300, 91.700, 390, 100, 100, 31, 24760, -19446, 5176, 5282, 22, 14, 1531005593.497, 1, 0, 1024, 1024, 1024, 1024, 0, 6, 4051, 4078, 4133, 4098, 4183, 4125, 0, 1, 7302, -89.900, 0.000, 90.700, 0.000, 0.000, -3.200, 0.0, , , , , , 95, , , 55, 55, 55
38.5373976, -120.3487452, 5.400, 16:19:53.595, 11, 0.00, 0.33, 98, 1.400, 1.000, 91.600, 390, 100, 100, 31, 24760, -19446, 5176, 5282, 22, 14, 1531005593.595, 13, 0, 1024, 1024, 1024, 1024, 0, 6, 4051, 4078, 4133, 4098, 4183, 4125, 0, 1, 7400, -89.900, 0.000, 90.700, 0.000, 0.000, -3.200, 0.0, , , , , , 95, , , 55, 55, 55
38.5373976, -120.3487452, 5.400, 16:19:53.695, 11, 0.00, 0.33, 98, 1.400, 1.000, 91.600, 390, 100, 100, 31, 24760, -19446, 5176, 5282, 22, 14, 1531005593.695, 112, 0, 1024, 1024, 1024, 1024, 0, 6, 4051, 4078, 4133, 4098, 4183, 4125, 0, 1, 7500, -89.900, 0.000, 90.700, 0.000, 0.000, -3.200, 0.0, , , , , , 95, , , 55, 55, 55
38.5373975, -120.3487453, 5.800, 16:19:53.795, 11, 0.00, 0.32, 98, 1.000, 0.800, 91.600, 390, 100, 100, 31, 24760, -19446, 5176, 5282, 22, 14, 1531005593.795, 92, 0, 1024, 1024, 1024, 1024, 0, 6, 4051, 4078, 4133, 4098, 4183, 4125, 0, 1, 7600, -90.000, 0.000, 90.700, 0.000, 0.000, -3.100, 0.0, , , , , , 95, , , 55, 55, 55
38.5373973, -120.3487454, 6.100, 16:19:53.895, 11, 0.00, 0.30, 98, 0.600, 0.600, 91.700, 390, 100, 100, 31, 24760, -19446, 5176, 5282, 22, 14, 1531005593.895, 86, 0, 1024, 1024, 1024, 1024, 0, 6, 4051, 4078, 4133, 4098, 4183, 4125, 0, 1, 7700, -90.000, 0.000, 90.700, 0.000, 0.000, -3.100, 0.0, , , , , , 95, , , 55, 55, 55
38.5373972, -120.3487454, 6.400, 16:19:53.995, 11, 0.00, 0.29, 98, 0.300, 0.500, 91.700, 390, 100, 100, 31, 24186, -23435, 5176, 5282, 22, 14, 1531005593.995, 78, 0, 1024, 1024, 1024, 1024, 0, 6, 4021, 4057, 4046, 4033, 4058, 4085, 0, 1, 7800, -90.000, 0.000, 90.700, 0.000, 0.000, -3.100, 0.0, , , , , , 95, , , 55, 55, 55
38.5373969, -120.3487455, 6.700, 16:19:54.095, 11, 0.00, 0.26, 98, 0.200, 0.500, 91.800, 390, 100, 100, 31, 24186, -23435, 5176, 5282, 22, 14, 1531005594.095, 81, 0, 1024, 1024, 1024, 1024, 0, 6, 4021, 4057, 4046, 4033, 4058, 4085, 0, 1, 7900, -90.000, 0.000, 90.700, 0.000, 0.000, -3.100, 0.0, , , , , , 95, , , 55, 55, 55
38.5373966, -120.3487456, 7.000, 16:19:54.195, 12, 0.10, 0.23, 98, -0.100, 0.600, 91.800, 390, 100, 100, 31, 24186, -23435, 5176, 5282, 22, 14, 1531005594.195, 82, 0, 1024, 1024, 1024, 1024, 0, 6, 4021, 4057, 4046, 4033, 4058, 4085, 0, 1, 8000, -89.900, 0.000, 90.700, -0.100, 0.000, -3.100, 0.0, , , , , , 95, , , 55, 55, 55
38.5373963, -120.3487457, 7.400, 16:19:54.294, 12, 0.10, 0.21, 98, -0.700, 0.600, 91.700, 390, 100, 100, 31, 24186, -23435, 5176, 5282, 22, 14, 1531005594.295, 84, 0, 1024, 1024, 1024, 1024, 0, 6, 4021, 4057, 4046, 4033, 4058, 4085, 0, 1, 8100, -90.000, 0.000, 90.700, -0.100, 0.000, -3.200, 0.0, , , , , , 95, , , 55, 55, 55
38.5373961, -120.3487457, 7.700, 16:19:54.395, 12, 0.00, 0.20, 98, -1.000, 0.600, 91.700, 390, 100, 100, 31, 24186, -23435, 5176, 5282, 22, 14, 1531005594.395, 65, 0, 1024, 1024, 1024, 1024, 0, 6, 4021, 4057, 4046, 4033, 4058, 4085, 0, 1, 8200, -90.000, 0.000, 90.700, 0.000, 0.000, -3.200, 0.0, , , , , , 95, , , 55, 55, 55
38.5373960, -120.3487459, 8.000, 16:19:54.495, 12, 0.00, 0.18, 98, -1.000, 0.500, 91.800, 390, 100, 100, 31, 24186, -23435, 5176, 5282, 22, 14, 1531005594.495, 70, 0, 1024, 1024, 1024, 1024, 0, 6, 4021, 4057, 4046, 4033, 4058, 4085, 0, 1, 8300, -90.000, 0.000, 90.700, 0.000, 0.000, -3.200, 0.0, , , , , , 95, , , 55, 55, 55
38.5373958, -120.3487461, 8.400, 16:19:54.595, 14, 0.00, 0.16, 98, -0.800, 0.300, 91.800, 390, 100, 100, 31, 24186, -23435, 5176, 5282, 22, 14, 1531005594.595, 73, 0, 1024, 1024, 1024, 1024, 0, 6, 4021, 4057, 4046, 4033, 4058, 4085, 0, 1, 8400, -90.000, 0.000, 90.700, 0.000, 0.000, -3.100, 0.0, , , , , , 95, , , 55, 55, 55
38.5373957, -120.3487461, 8.700, 16:19:54.695, 14, 0.00, 0.15, 98, -0.600, 0.100, 91.900, 390, 100, 100, 31, 24186, -23435, 5176, 5282, 22, 14, 1531005594.695, 41, 0, 1024, 1024, 1024, 1024, 0, 6, 4021, 4057, 4046, 4033, 4058, 4085, 0, 1, 8500, -90.000, 0.000, 90.700, 0.000, 0.000, -3.100, 0.0, , , , , , 95, , , 55, 55, 55
38.5373956, -120.3487461, 9.000, 16:19:54.795, 15, 0.00, 0.15, 98, -0.400, 0.000, 91.900, 390, 100, 100, 31, 24186, -23435, 5176, 5282, 22, 14, 1531005594.795, 56, 0, 1024, 1024, 1024, 1024, 0, 6, 4021, 4057, 4046, 4033, 4058, 4085, 0, 1, 8600, -90.000, 0.000, 90.700, 0.000, 0.000, -3.100, 0.0, , , , , , 95, , , 55, 55, 55
38.5373955, -120.3487462, 9.300, 16:19:54.895, 15, 0.00, 0.14, 98, -0.200, 0.000, 91.900, 390, 100, 100, 31, 24186, -23435, 5176, 5282, 22, 14, 1531005594.895, 35, 0, 1024, 1024, 1024, 1024, 0, 6, 4021, 4057, 4046, 4033, 4058, 4085, 0, 1, 8700, -90.000, 0.000, 90.700, 0.000, 0.000, -3.100, 0.0, , , , , , 95, , , 55, 55, 55
38.5373955, -120.3487463, 9.700, 16:19:54.995, 14, 0.00, 0.13, 98, 0.000, 0.200, 91.900, 390, 100, 100, 31, 24375, -19524, 5176, 5282, 22, 14, 1531005594.995, 52, 0, 1024, 1024, 1024, 1024, 0, 6, 4042, 4078, 4066, 4063, 4060, 4088, 0, 1, 8800, -89.900, 0.000, 90.700, 0.000, 0.000, -3.000, 0.0, , , , , , 95, , , 55, 55, 55
38.5373954, -120.3487464, 10.000, 16:19:55.094, 14, 0.00, 0.12, 98, 0.000, 0.300, 91.800, 390, 100, 100, 31, 24375, -19524, 5176, 5282, 22, 14, 1531005595.094, 43, 0, 1024, 1024, 1024, 1024, 0, 6, 4042, 4078, 4066, 4063, 4060, 4088, 0, 1, 8900, -89.900, 0.000, 90.700, 0.000, 0.000, -3.000, 0.0, , , , , , 95, , , 55, 55, 55
38.5373953, -120.3487465, 10.300, 16:19:55.195, 14, 0.00, 0.11, 98, 0.100, 0.300, 91.700, 390, 100, 100, 31, 24375, -19524, 5176, 5282, 22, 14, 1531005595.195, 37, 0, 1024, 1024, 1024, 1024, 0, 6, 4042, 4078, 4066, 4063, 4060, 4088, 0, 1, 9000, -90.000, 0.000, 90.700, 0.000, 0.000, -3.100, 0.0, , , , , , 95, , , 55, 55, 55
38.5373952, -120.3487465, 10.600, 16:19:55.295, 14, 0.00, 0.11, 98, 0.000, 0.300, 91.600, 390, 100, 100, 31, 24375, -19524, 5176, 5282, 22, 14, 1531005595.295, 11, 0, 1024, 1024, 1024, 1024, 0, 6, 4042, 4078, 4066, 4063, 4060, 4088, 0, 1, 9100, -90.000, 0.000, 90.700, 0.000, 0.000, -3.100, 0.0, , , , , , 95, , , 55, 55, 55
38.5373952, -120.3487466, 10.900, 16:19:55.395, 14, 0.00, 0.10, 98, -0.100, 0.000, 91.600, 390, 100, 100, 31, 24375, -19524, 5176, 5282, 22, 14, 1531005595.396, 2, 0, 1024, 1024, 1024, 1024, 0, 6, 4042, 4078, 4066, 4063, 4060, 4088, 0, 1, 9201, -89.900, 0.000, 90.700, 0.000, 0.000, -3.000, 0.0, , , , , , 95, , , 55, 55, 55
38.5373952, -120.3487467, 11.300, 16:19:55.495, 14, 0.00, 0.10, 98, -0.100, 0.000, 91.700, 390, 100, 100, 31, 24375, -19524, 5176, 5282, 22, 14, 1531005595.495, 8, 0, 1024, 1024, 1024, 1024, 0, 6, 4042, 4078, 4066, 4063, 4060, 4088, 0, 1, 9300, -89.900, 0.000, 90.700, 0.000, 0.000, -3.000, 0.0, , , , , , 95, , , 55, 55, 55
38.5373951, -120.3487467, 11.900, 16:19:55.595, 14, 0.00, 0.10, 98, -0.100, 0.300, 92.000, 390, 100, 100, 31, 24375, -19524, 5176, 5282, 22, 14, 1531005595.595, 23, 0, 1024, 1024, 1024, 1024, 0, 6, 4042, 4078, 4066, 4063, 4060, 4088, 0, 1, 9400, -90.000, 0.000, 90.700, 0.000, 0.000, -3.000, 0.0, , , , , , 95, , , 55, 55, 55
38.5373951, -120.3487467, 12.200, 16:19:55.695, 16, 0.00, 0.10, 98, -0.100, 0.500, 92.000, 390, 100, 100, 31, 24375, -19524, 5176, 5282, 22, 14, 1531005595.696, 3, 0, 1024, 1024, 1024, 1024, 0, 6, 4042, 4078, 4066, 4063, 4060, 4088, 0, 1, 9501, -89.900, 0.000, 90.700, 0.000, 0.000, -3.000, 0.0, , , , , , 95, , , 55, 55, 55
38.5373951, -120.3487467, 12.200, 16:19:55.795, 16, 0.00, 0.10, 98, -0.100, 0.500, 92.000, 390, 100, 100, 31, 24375, -19524, 5176, 5282, 22, 14, 1531005595.795, 103, 0, 1024, 1024, 1024, 1024, 0, 6, 4042, 4078, 4066, 4063, 4060, 4088, 0, 1, 9600, -89.900, 0.000, 90.700, 0.000, 0.000, -3.000, 0.0, , , , , , 95, , , 55, 55, 55
38.5373950, -120.3487468, 12.800, 16:19:55.895, 16, 0.00, 0.09, 98, -0.300, 0.600, 92.000, 390, 100, 100, 31, 24417, -18664, 5176, 5282, 22, 14, 1531005595.895, 9, 0, 1024, 1024, 1024, 1024, 0, 6, 4045, 4080, 4077, 4063, 4073, 4087, 0, 1, 9700, -89.900, 0.000, 90.700, 0.000, 0.000, -2.900, 0.0, , , , , , 95, , , 55, 55, 55
38.5373950, -120.3487468, 12.800, 16:19:55.995, 16, 0.00, 0.09, 98, -0.300, 0.600, 92.000, 390, 100, 100, 31, 24417, -18664, 5176, 5282, 22, 14, 1531005595.995, 110, 0, 1024, 1024, 1024, 1024, 0, 6, 4045, 4080, 4077, 4063, 4073, 4087, 0, 1, 9800, -89.900, 0.000, 90.700, 0.000, 0.000, -2.900, 0.0, , , , , , 95, , , 55, 55, 55
38.5373951, -120.3487468, 13.100, 16:19:56.095, 16, 0.00, 0.09, 98, -0.400, 0.500, 91.900, 390, 100, 100, 31, 24417, -18664, 5176, 5282, 22, 14, 1531005596.095, 95, 0, 1024, 1024, 1024, 1024, 0, 6, 4045, 4080, 4077, 4063, 4073, 4087, 0, 1, 9900, -89.900, 0.000, 90.700, 0.000, 0.000, -2.900, 0.0, , , , , , 95, , , 55, 55, 55
38.5373952, -120.3487468, 13.400, 16:19:56.195, 16, 0.10, 0.09, 98, 0.000, 0.400, 91.800, 390, 100, 100, 31, 24417, -18664, 5176, 5282, 22, 14, 1531005596.195, 86, 0, 1024, 1024, 1024, 1024, 0, 6, 4045, 4080, 4077, 4063, 4073, 4087, 0, 1, 10000, -90.000, 0.000, 90.700, 0.100, 0.000, -2.900, 0.0, , , , , , 95, , , 55, 55, 55
38.5373952, -120.3487468, 13.700, 16:19:56.295, 16, 0.10, 0.09, 98, 0.400, 0.300, 91.700, 390, 100, 100, 31, 24417, -18664, 5176, 5282, 22, 14, 1531005596.295, 90, 0, 1024, 1024, 1024, 1024, 0, 6, 4045, 4080, 4077, 4063, 4073, 4087, 0, 1, 10100, -89.900, 0.000, 90.700, 0.100, 0.000, -2.900, 0.0, , , , , , 95, , , 55, 55, 55
38.5373952, -120.3487468, 14.000, 16:19:56.395, 16, 0.00, 0.09, 98, 0.500, 0.500, 91.600, 390, 100, 100, 31, 24417, -18664, 5176, 5282, 22, 14, 1531005596.395, 53, 0, 1024, 1024, 1024, 1024, 0, 6, 4045, 4080, 4077, 4063, 4073, 4087, 0, 1, 10200, -89.900, 0.000, 90.700, 0.000, 0.000, -2.900, 0.0, , , , , , 95, , , 55, 55, 55
38.5373953, -120.3487467, 14.300, 16:19:56.495, 16, 0.10, 0.09, 98, 0.500, 0.700, 91.500, 390, 100, 100, 31, 24417, -18664, 5176, 5282, 22, 14, 1531005596.495, 82, 0, 1024, 1024, 1024, 1024, 0, 6, 4045, 4080, 4077, 4063, 4073, 4087, 0, 1, 10300, -89.900, 0.000, 90.700, 0.100, 0.000, -3.000, 0.0, , , , , , 95, , , 55, 55, 55
38.5373954, -120.3487467, 14.600, 16:19:56.595, 16, 0.10, 0.10, 98, 0.700, 1.000, 91.500, 390, 100, 100, 31, 24417, -18664, 5176, 5282, 22, 14, 1531005596.595, 53, 0, 1024, 1024, 1024, 1024, 0, 6, 4045, 4080, 4077, 4063, 4073, 4087, 0, 1, 10400, -89.900, 0.000, 90.700, 0.100, 0.000, -3.000, 0.0, , , , , , 95, , , 55, 55, 55
38.5373955, -120.3487467, 14.900, 16:19:56.695, 16, 0.10, 0.10, 98, 0.700, 1.000, 91.500, 390, 100, 100, 31, 24417, -18664, 5176, 5282, 22, 14, 1531005596.695, 56, 0, 1024, 1024, 1024, 1024, 0, 6, 4045, 4080, 4077, 4063, 4073, 4087, 0, 1, 10500, -89.900, 0.000, 90.700, 0.100, 0.000, -3.000, 0.0, , , , , , 95, , , 55, 55, 55
38.5373956, -120.3487467, 15.200, 16:19:56.795, 15, 0.10, 0.10, 98, 0.700, 0.900, 91.500, 390, 100, 100, 31, 24417, -18664, 5176, 5282, 22, 14, 1531005596.795, 58, 0, 1024, 1024, 1024, 1024, 0, 6, 4045, 4080, 4077, 4063, 4073, 4087, 0, 1, 10600, -89.900, 0.000, 90.700, 0.100, 0.000, -3.000, 0.0, , , , , , 95, , , 55, 55, 55
38.5373957, -120.3487466, 15.500, 16:19:56.895, 15, 0.10, 0.11, 98, 1.000, 0.800, 91.500, 390, 100, 100, 31, 24417, -18664, 5176, 5282, 22, 14, 1531005596.895, 46, 0, 1024, 1024, 1024, 1024, 0, 6, 4045, 4080, 4077, 4063, 4073, 4087, 0, 1, 10701, -89.900, 0.000, 90.700, 0.100, 0.000, -2.900, 0.0, , , , , , 95, , , 55, 55, 55
38.5373959, -120.3487466, 15.800, 16:19:56.995, 15, 0.10, 0.11, 98, 1.200, 0.800, 91.600, 390, 100, 100, 31, 24374, -18760, 5176, 5282, 22, 14, 1531005596.995, 47, 0, 1024, 1024, 1024, 1024, 0, 6, 4032, 4068, 4067, 4049, 4063, 4076, 0, 1, 10800, -89.900, 0.000, 90.700, 0.100, 0.000, -2.900, 0.0, , , , , , 95, , , 55, 55, 55
38.5373960, -120.3487466, 16.100, 16:19:57.095, 15, 0.10, 0.12, 98, 1.300, 0.900, 91.700, 390, 100, 100, 31, 24374, -18760, 5176, 5282, 22, 14, 1531005597.095, 27, 0, 1024, 1024, 1024, 1024, 0, 6, 4032, 4068, 4067, 4049, 4063, 4076, 0, 1, 10900, -89.900, 0.000, 90.700, 0.100, 0.000, -2.900, 0.0, , , , , , 95, , , 55, 55, 55
38.5373961, -120.3487465, 16.400, 16:19:57.195, 16, 0.00, 0.13, 98, 1.300, 1.100, 91.600, 390, 100, 100, 31, 24374, -18760, 5176, 5282, 22, 14, 1531005597.195, 55, 0, 1024, 1024, 1024, 1024, 0, 6, 4032, 4068, 4067, 4049, 4063, 4076, 0, 1, 11000, -89.900, 0.000, 90.700, 0.000, 0.000, -2.900, 0.0, , , , , , 95, , , 55, 55, 55
38.5373962, -120.3487465, 16.700, 16:19:57.295, 16, 0.00, 0.14, 98, 1.200, 1.200, 91.600, 390, 100, 100, 31, 24374, -18760, 5176, 5282, 22, 14, 1531005597.295, 21, 0, 1024, 1024, 1024, 1024, 0, 6, 4032, 4068, 4067, 4049, 4063, 4076, 0, 1, 11100, -89.900, 0.000, 90.700, 0.000, 0.000, -3.000, 0.0, , , , , , 95, , , 55, 55, 55
38.5373962, -120.3487465, 16.700, 16:19:57.395, 16, 0.00, 0.14, 98, 1.200, 1.200, 91.600, 390, 100, 100, 31, 24374, -18760, 5176, 5282, 22, 14, 1531005597.395, 121, 0, 1024, 1024, 1024, 1024, 0, 6, 4032, 4068, 4067, 4049, 4063, 4076, 0, 1, 11200, -89.900, 0.000, 90.700, 0.000, 0.000, -3.000, 0.0, , , , , , 95, , , 55, 55, 55
38.5373963, -120.3487464, 17.300, 16:19:57.495, 16, 0.00, 0.16, 98, 1.300, 1.100, 91.500, 390, 100, 98, 31, 24374, -18760, 5176, 5282, 22, 14, 1531005597.495, 14, 0, 1024, 1024, 1024, 1024, 0, 6, 4032, 4068, 4067, 4049, 4063, 4076, 0, 1, 11300, -89.900, 0.000, 90.700, 0.000, 0.000, -3.000, 0.0, , , , , , 95, , , 55, 55, 55
38.5373964, -120.3487463, 17.600, 16:19:57.595, 16, 0.00, 0.17, 98, 1.300, 1.100, 91.600, 390, 100, 98, 31, 24374, -18760, 5176, 5282, 22, 14, 1531005597.595, 25, 0, 1024, 1024, 1024, 1024, 0, 6, 4032, 4068, 4067, 4049, 4063, 4076, 0, 1, 11400, -89.900, 0.000, 90.700, 0.000, 0.000, -3.000, 0.0, , , , , , 95, , , 55, 55, 55
38.5373964, -120.3487464, 18.200, 16:19:57.695, 16, 0.00, 0.16, 98, 0.700, 0.700, 91.700, 390, 100, 98, 31, 24374, -18760, 5176, 5282, 22, 14, 1531005597.695, 13, 0, 1024, 1024, 1024, 1024, 0, 6, 4032, 4068, 4067, 4049, 4063, 4076, 0, 1, 11500, -90.000, 0.000, 90.700, 0.000, 0.000, -2.900, 0.0, , , , , , 95, , , 55, 55, 55
38.5373964, -120.3487464, 18.500, 16:19:57.795, 16, 0.00, 0.17, 98, 0.700, 0.500, 91.800, 390, 100, 98, 31, 24374, -18760, 5176, 5282, 22, 14, 1531005597.795, 19, 0, 1024, 1024, 1024, 1024, 0, 6, 4032, 4068, 4067, 4049, 4063, 4076, 0, 1, 11600, -90.000, 0.000, 90.700, 0.000, 0.000, -2.900, 0.0, , , , , , 95, , , 55, 55, 55
38.5373965, -120.3487464, 18.800, 16:19:57.895, 16, 0.00, 0.17, 98, 0.800, 0.500, 91.900, 390, 100, 98, 31, 24365, -18734, 5176, 5282, 22, 14, 1531005597.895, 21, 0, 1024, 1024, 1024, 1024, 0, 6, 4032, 4068, 4067, 4049, 4063, 4076, 0, 1, 11700, -89.900, 0.000, 90.700, 0.000, 0.000, -2.900, 0.0, , , , , , 95, , , 55, 55, 55
38.5373965, -120.3487464, 19.100, 16:19:57.995, 16, 0.00, 0.18, 98, 0.900, 0.500, 91.900, 390, 100, 98, 31, 24365, -18734, 5176, 5282, 22, 14, 1531005597.995, 10, 0, 1024, 1024, 1024, 1024, 0, 6, 4032, 4068, 4067, 4049, 4063, 4076, 0, 1, 11800, -89.900, 0.000, 90.700, 0.000, 0.000, -2.900, 0.0, , , , , , 95, , , 55, 55, 55
38.5373965, -120.3487464, 19.100, 16:19:58.095, 16, 0.00, 0.18, 98, 0.900, 0.500, 91.900, 390, 100, 98, 31, 24365, -18734, 5176, 5282, 22, 14, 1531005598.095, 110, 0, 1024, 1024, 1024, 1024, 0, 6, 4032, 4068, 4067, 4049, 4063, 4076, 0, 1, 11900, -89.900, 0.000, 90.700, 0.000, 0.000, -2.900, 0.0, , , , , , 95, , , 55, 55, 55
38.5373966, -120.3487463, 19.400, 16:19:58.195, 16, 0.00, 0.18, 98, 1.100, 0.600, 91.800, 390, 100, 98, 31, 24365, -18734, 5176, 5282, 22, 14, 1531005598.195, 92, 0, 1024, 1024, 1024, 1024, 0, 6, 4032, 4068, 4067, 4049, 4063, 4076, 0, 1, 12000, -89.900, 0.000, 90.700, 0.000, 0.000, -2.900, 0.0, , , , , , 95, , , 55, 55, 55
38.5373966, -120.3487463, 19.700, 16:19:58.295, 16, 0.00, 0.19, 98, 1.300, 0.700, 91.800, 390, 100, 98, 31, 24365, -18734, 5176, 5282, 22, 14, 1531005598.295, 95, 0, 1024, 1024, 1024, 1024, 0, 6, 4032, 4068, 4067, 4049, 4063, 4076, 0, 1, 12100, -89.900, 0.000, 90.700, 0.000, 0.000, -2.900, 0.0, , , , , , 95, , , 55, 55, 55
38.5373966, -120.3487463, 19.700, 16:19:58.395, 16, 0.00, 0.19, 98, 1.300, 0.700, 91.800, 390, 100, 98, 31, 24365, -18734, 5176, 5282, 22, 14, 1531005598.395, 195, 0, 1024, 1024, 1024, 1024, 0, 6, 4032, 4068, 4067, 4049, 4063, 4076, 0, 1, 12200, -89.900, 0.000, 90.700, 0.000, 0.000, -2.900, 0.0, , , , , , 95, , , 55, 55, 55
38.5373967, -120.3487462, 20.300, 16:19:58.495, 16, 0.00, 0.20, 98, 1.000, 0.900, 91.800, 390, 100, 98, 31, 24365, -18734, 5176, 5282, 22, 14, 1531005598.495, 98, 0, 1024, 1024, 1024, 1024, 0, 6, 4035, 4063, 4065, 4053, 4056, 4082, 0, 1, 12300, -89.900, 0.000, 90.700, 0.000, 0.000, -2.900, 0.0, , , , , , 95, , , 55, 55, 55
38.5373967, -120.3487461, 20.600, 16:19:58.595, 16, 0.00, 0.21, 98, 0.900, 1.000, 91.900, 390, 100, 96, 31, 24365, -18734, 5176, 5282, 22, 14, 1531005598.595, 76, 0, 1024, 1024, 1024, 1024, 0, 6, 4035, 4063, 4065, 4053, 4056, 4082, 0, 1, 12400, -89.900, 0.000, 90.700, 0.000, 0.000, -2.900, 0.0, , , , , , 95, , , 55, 55, 55
38.5373968, -120.3487461, 20.900, 16:19:58.695, 16, 0.00, 0.21, 98, 0.600, 0.900, 91.900, 390, 100, 96, 31, 24365, -18734, 5176, 5282, 22, 14, 1531005598.695, 70, 0, 1024, 1024, 1024, 1024, 0, 6, 4035, 4063, 4065, 4053, 4056, 4082, 0, 1, 12500, -89.900, 0.000, 90.700, 0.000, 0.000, -3.000, 0.0, , , , , , 95, , , 55, 55, 55
38.5373968, -120.3487461, 20.900, 16:19:58.795, 16, 0.00, 0.21, 98, 0.600, 0.900, 91.900, 390, 100, 96, 31, 24365, -18734, 5176, 5282, 22, 14, 1531005598.795, 170, 0, 1024, 1024, 1024, 1024, 0, 6, 4035, 4063, 4065, 4053, 4056, 4082, 0, 1, 12600, -89.900, 0.000, 90.700, 0.000, 0.000, -3.000, 0.0, , , , , , 95, , , 55, 55, 55
38.5373969, -120.3487460, 21.500, 16:19:58.894, 16, 0.00, 0.22, 98, 0.600, 0.500, 92.000, 390, 100, 96, 31, 24365, -18734, 5176, 5282, 22, 14, 1531005598.894, 79, 0, 1024, 1024, 1024, 1024, 0, 6, 4035, 4063, 4065, 4053, 4056, 4082, 0, 1, 12699, -90.000, 0.000, 90.700, 0.000, 0.000, -2.900, 0.0, , , , , , 95, , , 55, 55, 55
38.5373969, -120.3487460, 21.800, 16:19:58.995, 16, 0.00, 0.23, 98, 0.800, 0.700, 91.900, 390, 100, 96, 31, 24365, -18734, 5176, 5282, 22, 14, 1531005598.995, 60, 0, 1024, 1024, 1024, 1024, 0, 6, 4035, 4063, 4065, 4053, 4056, 4082, 0, 1, 12800, -89.900, 0.000, 90.700, 0.000, 0.000, -2.900, 0.0, , , , , , 95, , , 55, 55, 55
38.5373970, -120.3487459, 22.100, 16:19:59.095, 16, 0.00, 0.24, 98, 1.300, 0.900, 92.000, 390, 100, 98, 31, 24365, -18734, 5176, 5282, 22, 14, 1531005599.095, 49, 0, 1024, 1024, 1024, 1024, 0, 6, 4035, 4063, 4065, 4053, 4056, 4082, 0, 1, 12900, -89.900, 0.000, 90.700, 0.000, 0.000, -2.900, 0.0, , , , , , 95, , , 55, 55, 55
38.5373971, -120.3487458, 22.400, 16:19:59.194, 17, 0.00, 0.25, 98, 1.600, 1.600, 92.000, 390, 100, 98, 31, 24365, -18734, 5176, 5282, 22, 14, 1531005599.194, 53, 0, 1024, 1024, 1024, 1024, 0, 6, 4035, 4063, 4065, 4053, 4056, 4082, 0, 1, 12999, -89.900, 0.000, 90.700, 0.000, 0.000, -3.000, 0.0, , , , , , 95, , , 55, 55, 55
38.5373971, -120.3487457, 22.700, 16:19:59.295, 17, 0.00, 0.27, 98, 1.800, 2.200, 91.900, 390, 100, 98, 31, 24365, -18734, 5176, 5282, 22, 14, 1531005599.295, 56, 0, 1024, 1024, 1024, 1024, 0, 6, 4035, 4063, 4065, 4053, 4056, 4082, 0, 1, 13100, -89.900, 0.000, 90.700, 0.000, 0.000, -2.900, 0.0, , , , , , 95, , , 55, 55, 55
38.5373972, -120.3487456, 23.000, 16:19:59.395, 16, 0.00, 0.28, 98, 1.600, 2.200, 91.800, 390, 100, 98, 31, 24365, -18734, 5176, 5282, 22, 14, 1531005599.395, 49, 0, 1024, 1024, 1024, 1024, 0, 6, 4035, 4063, 4065, 4053, 4056, 4082, 0, 1, 13200, -89.900, 0.000, 90.700, 0.000, 0.000, -2.900, 0.0, , , , , , 95, , , 55, 55, 55
38.5373972, -120.3487455, 23.300, 16:19:59.495, 16, 0.00, 0.28, 98, 1.100, 2.000, 91.500, 390, 100, 98, 31, 24349, -18622, 5176, 5282, 22, 14, 1531005599.495, 30, 0, 1024, 1024, 1024, 1024, 0, 6, 4023, 4055, 4071, 4056, 4063, 4073, 0, 1, 13300, -89.900, 0.000, 90.700, 0.000, 0.000, -2.900, 0.0, , , , , , 95, , , 55, 55, 55
38.5373971, -120.3487454, 23.600, 16:19:59.594, 16, 0.00, 0.28, 98, 0.600, 2.000, 91.300, 390, 100, 98, 31, 24349, -18622, 5176, 5282, 22, 14, 1531005599.594, 43, 0, 1024, 1024, 1024, 1024, 0, 6, 4023, 4055, 4071, 4056, 4063, 4073, 0, 1, 13400, -89.900, 0.000, 90.700, 0.000, 0.000, -2.900, 0.0, , , , , , 95, , , 55, 55, 55
38.5373972, -120.3487454, 23.900, 16:19:59.695, 16, 0.00, 0.29, 98, 0.600, 2.000, 91.100, 390, 100, 98, 31, 24349, -18622, 5176, 5282, 22, 14, 1531005599.695, 19, 0, 1024, 1024, 1024, 1024, 0, 6, 4023, 4055, 4071, 4056, 4063, 4073, 0, 1, 13500, -89.900, 0.000, 90.700, 0.000, 0.000, -2.900, 0.0, , , , , , 95, , , 55, 55, 55
38.5373972, -120.3487453, 24.200, 16:19:59.795, 16, 0.00, 0.29, 98, 0.500, 2.000, 91.000, 390, 100, 98, 31, 24349, -18622, 5176, 5282, 22, 14, 1531005599.795, 34, 0, 1024, 1024, 1024, 1024, 0, 6, 4023, 4055, 4071, 4056, 4063, 4073, 0, 1, 13600, -89.900, 0.000, 90.700, 0.000, 0.000, -2.900, 0.0, , , , , , 95, , , 55, 55, 55
38.5373972, -120.3487453, 24.500, 16:19:59.895, 16, 0.00, 0.29, 98, 0.600, 2.000, 91.100, 390, 100, 98, 31, 24349, -18622, 5176, 5282, 22, 14, 1531005599.895, 38, 0, 1024, 1024, 1024, 1024, 0, 6, 4023, 4055, 4071, 4056, 4063, 4073, 0, 1, 13700, -89.900, 0.000, 90.700, 0.000, 0.000, -2.900, 0.0, , , , , , 95, , , 55, 55, 55
38.5373971, -120.3487452, 24.800, 16:19:59.995, 16, 0.00, 0.29, 98, 0.700, 1.800, 91.100, 390, 100, 100, 31, 24349, -18622, 5176, 5282, 22, 14, 1531005599.995, 16, 0, 1024, 1024, 1024, 1024, 0, 6, 4023, 4055, 4071, 4056, 4063, 4073, 0, 1, 13800, -89.900, 0.000, 90.700, 0.000, 0.000, -2.900, 0.0, , , , , , 95, , , 55, 55, 55
38.5373971, -120.3487452, 25.100, 16:20:00.095, 16, 0.00, 0.29, 98, 0.800, 1.700, 91.200, 390, 100, 100, 31, 24349, -18622, 5176, 5282, 22, 14, 1531005600.095, 8, 0, 1024, 1024, 1024, 1024, 0, 6, 4023, 4055, 4071, 4056, 4063, 4073, 0, 1, 13900, -89.900, 0.000, 90.700, 0.000, 0.000, -2.900, 0.0, , , , , , 95, , , 55, 55, 55
38.5373970, -120.3487451, 25.700, 16:20:00.195, 16, 0.00, 0.30, 98, 0.700, 1.900, 91.500, 390, 100, 100, 31, 24349, -18622, 5176, 5282, 22, 14, 1531005600.195, 6, 0, 1024, 1024, 1024, 1024, 0, 6, 4023, 4055, 4071, 4056, 4063, 4073, 0, 1, 14000, -89.900, 0.000, 90.700, 0.000, 0.000, -2.900, 0.0, , , , , , 95, , , 55, 55, 55
38.5373970, -120.3487451, 26.000, 16:20:00.295, 17, 0.00, 0.30, 98, 0.400, 2.100, 91.600, 390, 100, 100, 31, 24349, -18622, 5176, 5282, 22, 14, 1531005600.295, 10, 0, 1024, 1024, 1024, 1024, 0, 6, 4023, 4055, 4071, 4056, 4063, 4073, 0, 1, 14100, -89.900, 0.000, 90.700, 0.000, 0.000, -2.900, 0.0, , , , , , 95, , , 55, 55, 55
38.5373970, -120.3487451, 26.300, 16:20:00.398, 17, 0.00, 0.29, 98, -0.100, 2.000, 91.700, 390, 100, 100, 32, 24312, -18798, 5123, 5282, 22, 14, 1531005600.398, 3, 0, 1024, 1024, 1024, 1024, 0, 6, 4023, 4055, 4071, 4056, 4063, 4073, 0, 1, 14204, -89.900, 0.000, 90.700, 0.000, 0.000, -2.900, 0.0, , , , , , 95, , , 55, 55, 55
38.5373969, -120.3487451, 26.600, 16:20:00.495, 17, 0.00, 0.29, 98, -0.400, 1.900, 91.800, 390, 100, 100, 32, 24312, -18798, 5123, 5282, 22, 14, 1531005600.495, 2, 0, 1024, 1024, 1024, 1024, 0, 6, 4028, 4065, 4064, 4045, 4054, 4077, 0, 1, 14300, -89.900, 0.000, 90.700, 0.000, 0.000, -2.900, 0.0, , , , , , 95, , , 55, 55, 55
38.5373969, -120.3487451, 26.900, 16:20:00.605, 17, 0.00, 0.29, 98, -0.400, 1.800, 91.900, 390, 100, 100, 32, 24312, -18798, 5123, 5282, 22, 14, 1531005600.606, 3, 0, 1024, 1024, 1024, 1024, 0, 6, 4028, 4065, 4064, 4045, 4054, 4077, 0, 1, 14411, -89.900, 0.000, 90.700, 0.000, 0.000, -2.900, 0.0, , , , , , 95, , , 55, 55, 55
38.5373969, -120.3487451, 26.900, 16:20:00.694, 17, 0.00, 0.29, 98, -0.400, 1.800, 91.900, 390, 100, 100, 32, 24312, -18798, 5123, 5282, 22, 14, 1531005600.694, 92, 0, 1024, 1024, 1024, 1024, 0, 6, 4028, 4065, 4064, 4045, 4054, 4077, 0, 1, 14499, -89.900, 0.000, 90.700, 0.000, 0.000, -2.900, 0.0, , , , , , 95, , , 55, 55, 55
38.5373968, -120.3487451, 27.200, 16:20:00.794, 17, 0.00, 0.28, 98, -0.300, 1.500, 91.900, 390, 100, 100, 32, 24312, -18798, 5123, 5282, 22, 14, 1531005600.794, 79, 0, 1024, 1024, 1024, 1024, 0, 6, 4028, 4065, 4064, 4045, 4054, 4077, 0, 1, 14599, -90.000, 0.000, 90.700, 0.000, 0.000, -2.900, 0.0, , , , , , 95, , , 55, 55, 55
38.5373968, -120.3487451, 27.500, 16:20:00.894, 17, 0.00, 0.28, 98, 0.100, 1.500, 91.800, 390, 100, 100, 32, 24312, -18798, 5123, 5282, 22, 14, 1531005600.895, 97, 0, 1024, 1024, 1024, 1024, 0, 6, 4028, 4065, 4064, 4045, 4054, 4077, 0, 1, 14700, -89.900, 0.000, 90.700, 0.000, 0.000, -2.900, 0.0, , , , , , 95, , , 55, 55, 55
38.5373969, -120.3487451, 27.800, 16:20:00.994, 17, 0.00, 0.28, 97, 0.400, 1.400, 91.700, 390, 100, 100, 32, 24312, -18798, 5123, 5282, 22, 14, 1531005600.995, 76, 0, 1024, 1024, 1024, 1024, 0, 6, 4028, 4065, 4064, 4045, 4054, 4077, 0, 1, 14800, -90.000, 0.000, 90.700, 0.000, 0.000, -2.900, 0.0, , , , , , 95, , , 55, 55, 55
38.5373969, -120.3487452, 28.100, 16:20:01.094, 17, 0.00, 0.28, 97, 0.600, 1.400, 91.500, 390, 100, 98, 32, 24312, -18798, 5123, 5282, 22, 14, 1531005601.095, 67, 0, 1024, 1024, 1024, 1024, 0, 6, 4028, 4065, 4064, 4045, 4054, 4077, 0, 1, 14900, -89.900, 0.000, 90.700, 0.000, 0.000, -2.900, 0.0, , , , , , 95, , , 55, 55, 55
38.5373969, -120.3487453, 28.400, 16:20:01.194, 17, 0.00, 0.28, 97, 0.900, 1.300, 91.400, 390, 100, 98, 32, 24312, -18798, 5123, 5282, 22, 14, 1531005601.195, 47, 0, 1024, 1024, 1024, 1024, 0, 6, 4028, 4065, 4064, 4045, 4054, 4077, 0, 1, 15000, -89.900, 0.000, 90.700, 0.000, 0.000, -2.900, 0.0, , , , , , 95, , , 55, 55, 55
38.5373969, -120.3487453, 28.700, 16:20:01.295, 17, 0.00, 0.28, 97, 1.100, 1.100, 91.200, 390, 100, 98, 32, 24312, -18798, 5123, 5282, 22, 14, 1531005601.295, 50, 0, 1024, 1024, 1024, 1024, 0, 6, 4028, 4065, 4064, 4045, 4054, 4077, 0, 1, 15100, -90.000, 0.000, 90.700, 0.000, 0.000, -3.000, 0.0, , , , , , 95, , , 55, 55, 55
38.5373969, -120.3487453, 29.000, 16:20:01.394, 17, 0.00, 0.27, 97, 1.000, 1.100, 91.000, 390, 100, 98, 32, 24312, -18798, 5123, 5282, 22, 14, 1531005601.395, 55, 0, 1024, 1024, 1024, 1024, 0, 6, 4028, 4065, 4064, 4045, 4054, 4077, 0, 1, 15200, -90.000, 0.000, 90.700, 0.000, 0.000, -3.000, 0.0, , , , , , 95, , , 55, 55, 55
38.5373969, -120.3487453, 29.300, 16:20:01.495, 17, 0.00, 0.27, 97, 0.800, 1.000, 90.800, 390, 100, 98, 32, 24258, -19345, 5123, 5282, 22, 14, 1531005601.495, 56, 0, 1024, 1024, 1024, 1024, 0, 6, 4020, 4052, 4051, 4040, 4040, 4063, 0, 1, 15300, -90.000, 0.000, 90.700, 0.000, 0.000, -3.000, 0.0, , , , , , 95, , , 55, 55, 55
38.5373970, -120.3487454, 29.600, 16:20:01.594, 17, 0.00, 0.27, 97, 1.100, 1.000, 90.800, 390, 100, 98, 32, 24258, -19345, 5123, 5282, 22, 14, 1531005601.595, 57, 0, 1024, 1024, 1024, 1024, 0, 6, 4020, 4052, 4051, 4040, 4040, 4063, 0, 1, 15400, -89.900, 0.000, 90.700, 0.000, 0.000, -3.000, 0.0, , , , , , 95, , , 55, 55, 55
38.5373970, -120.3487454, 29.900, 16:20:01.694, 17, 0.00, 0.27, 97, 1.100, 1.100, 90.900, 390, 100, 98, 32, 24258, -19345, 5123, 5282, 22, 14, 1531005601.695, 35, 0, 1024, 1024, 1024, 1024, 0, 6, 4020, 4052, 4051, 4040, 4040, 4063, 0, 1, 15500, -89.900, 0.000, 90.700, 0.000, 0.000, -2.900, 0.0, , , , , , 95, , , 55, 55, 55
38.5373970, -120.3487454, 30.200, 16:20:01.794, 17, 0.00, 0.27, 97, 0.900, 1.200, 91.200, 390, 100, 98, 32, 24258, -19345, 5123, 5282, 22, 14, 1531005601.795, 29, 0, 1024, 1024, 1024, 1024, 0, 6, 4020, 4052, 4051, 4040, 4040, 4063, 0, 1, 15600, -89.900, 0.000, 90.700, 0.000, 0.000, -2.900, 0.0, , , , , , 95, , , 55, 55, 55
38.5373970, -120.3487454, 30.500, 16:20:01.894, 17, 0.00, 0.27, 97, 0.700, 1.200, 91.500, 390, 100, 98, 32, 24258, -19345, 5123, 5282, 22, 14, 1531005601.895, 21, 0, 1024, 1024, 1024, 1024, 0, 6, 4020, 4052, 4051, 4040, 4040, 4063, 0, 1, 15700, -89.900, 0.000, 90.700, 0.000, 0.000, -3.000, 0.0, , , , , , 95, , , 55, 55, 55
38.5373969, -120.3487454, 30.800, 16:20:01.994, 17, 0.00, 0.27, 97, 0.700, 1.200, 91.900, 390, 100, 97, 32, 24258, -19345, 5123, 5282, 22, 14, 1531005601.995, 16, 0, 1024, 1024, 1024, 1024, 0, 6, 4020, 4052, 4051, 4040, 4040, 4063, 0, 1, 15800, -89.900, 0.000, 90.700, 0.000, 0.000, -3.000, 0.0, , , , , , 95, , , 55, 55, 55
38.5373969, -120.3487454, 31.100, 16:20:02.094, 17, 0.00, 0.27, 97, 0.800, 1.200, 92.200, 390, 100, 97, 32, 24258, -19345, 5123, 5282, 22, 14, 1531005602.095, 25, 0, 1024, 1024, 1024, 1024, 0, 6, 4020, 4052, 4051, 4040, 4040, 4063, 0, 1, 15900, -89.900, 0.000, 90.700, 0.000, 0.000, -3.000, 0.0, , , , , , 95, , , 55, 55, 55
38.5373969, -120.3487454, 31.400, 16:20:02.194, 17, 0.00, 0.27, 97, 0.800, 1.400, 92.400, 390, 100, 97, 32, 24258, -19345, 5123, 5282, 22, 14, 1531005602.195, 16, 0, 1024, 1024, 1024, 1024, 0, 6, 4020, 4052, 4051, 4040, 4040, 4063, 0, 1, 16000, -89.900, 0.000, 90.700, 0.000, 0.000, -3.000, 0.0, , , , , , 95, , , 55, 55, 55
38.5373969, -120.3487454, 31.700, 16:20:02.294, 17, 0.00, 0.27, 97, 0.900, 1.700, 92.600, 390, 100, 97, 32, 24258, -19345, 5123, 5282, 22, 14, 1531005602.295, 16, 0, 1024, 1024, 1024, 1024, 0, 6, 4020, 4052, 4051, 4040, 4040, 4063, 0, 1, 16100, -89.900, 0.000, 90.700, 0.000, 0.000, -3.000, 0.0, , , , , , 95, , , 55, 55, 55
38.5373969, -120.3487454, 32.300, 16:20:02.394, 17, 0.00, 0.27, 97, 0.700, 1.900, 92.800, 390, 100, 97, 32, 24247, -18707, 5123, 5282, 22, 14, 1531005602.394, 16, 0, 1024, 1024, 1024, 1024, 0, 6, 4011, 4048, 4053, 4031, 4046, 4063, 0, 1, 16199, -89.900, 0.000, 90.700, 0.000, 0.000, -2.900, 0.0, , , , , , 95, , , 55, 55, 55
38.5373969, -120.3487454, 32.600, 16:20:02.494, 18, 0.00, 0.27, 97, 0.600, 1.800, 92.700, 390, 100, 99, 32, 24247, -18707, 5123, 5282, 22, 14, 1531005602.495, 12, 0, 1024, 1024, 1024, 1024, 0, 6, 4011, 4048, 4053, 4031, 4046, 4063, 0, 1, 16300, -89.900, 0.000, 90.700, 0.000, 0.000, -2.900, 0.0, , , , , , 95, , , 55, 55, 55
38.5373969, -120.3487453, 32.900, 16:20:02.610, 18, 0.00, 0.27, 97, 0.700, 1.600, 92.500, 390, 100, 99, 32, 24247, -18707, 5123, 5282, 22, 14, 1531005602.610, 1, 0, 1024, 1024, 1024, 1024, 0, 6, 4011, 4048, 4053, 4031, 4046, 4063, 0, 1, 16415, -89.900, 0.000, 90.700, 0.000, 0.000, -2.900, 0.0, , , , , , 95, , , 55, 55, 55
38.5373970, -120.3487453, 33.200, 16:20:02.694, 18, 0.00, 0.28, 97, 1.000, 1.600, 92.200, 390, 100, 99, 32, 24247, -18707, 5123, 5282, 22, 14, 1531005602.695, 6, 0, 1024, 1024, 1024, 1024, 0, 6, 4011, 4048, 4053, 4031, 4046, 4063, 0, 1, 16500, -89.900, 0.000, 90.700, 0.000, 0.000, -2.900, 0.0, , , , , , 95, , , 55, 55, 55
38.5373970, -120.3487453, 33.200, 16:20:02.794, 18, 0.00, 0.28, 97, 1.000, 1.600, 92.200, 390, 100, 99, 32, 24247, -18707, 5123, 5282, 22, 14, 1531005602.795, 106, 0, 1024, 1024, 1024, 1024, 0, 6, 4011, 4048, 4053, 4031, 4046, 4063, 0, 1, 16600, -89.900, 0.000, 90.700, 0.000, 0.000, -2.900, 0.0, , , , , , 95, , , 55, 55, 55
38.5373970, -120.3487453, 33.500, 16:20:02.894, 18, 0.00, 0.28, 97, 1.200, 1.800, 91.900, 390, 100, 99, 32, 24247, -18707, 5123, 5282, 22, 14, 1531005602.895, 82, 0, 1024, 1024, 1024, 1024, 0, 6, 4011, 4048, 4053, 4031, 4046, 4063, 0, 1, 16700, -89.900, 0.000, 90.700, 0.000, 0.000, -2.900, 0.0, , , , , , 95, , , 55, 55, 55
38.5373970, -120.3487453, 33.800, 16:20:02.994, 18, 0.00, 0.28, 97, 1.200, 1.900, 91.800, 390, 100, 99, 32, 24247, -18707, 5123, 5282, 22, 14, 1531005602.995, 74, 0, 1024, 1024, 1024, 1024, 0, 6, 4011, 4048, 4053, 4031, 4046, 4063, 0, 1, 16800, -89.900, 0.000, 90.700, 0.000, 0.000, -3.000, 0.0, , , , , , 95, , , 55, 55, 55
38.5373971, -120.3487453, 34.100, 16:20:03.094, 18, 0.00, 0.28, 97, 1.500, 2.100, 91.800, 390, 100, 97, 32, 24247, -18707, 5123, 5282, 22, 14, 1531005603.095, 89, 0, 1024, 1024, 1024, 1024, 0, 6, 4011, 4048, 4053, 4031, 4046, 4063, 0, 1, 16900, -89.900, 0.000, 90.700, 0.000, 0.000, -3.000, 0.0, , , , , , 95, , , 55, 55, 55
38.5373972, -120.3487453, 34.400, 16:20:03.194, 17, 0.00, 0.29, 97, 1.900, 2.100, 91.900, 390, 100, 97, 32, 24247, -18707, 5123, 5282, 22, 14, 1531005603.194, 69, 0, 1024, 1024, 1024, 1024, 0, 6, 4011, 4048, 4053, 4031, 4046, 4063, 0, 1, 16999, -89.900, 0.000, 90.700, 0.000, 0.000, -3.000, 0.0, , , , , , 95, , , 55, 55, 55
38.5373972, -120.3487453, 34.700, 16:20:03.294, 17, 0.00, 0.30, 97, 2.200, 2.000, 91.900, 390, 100, 97, 32, 24247, -18707, 5123, 5282, 22, 14, 1531005603.295, 76, 0, 1024, 1024, 1024, 1024, 0, 6, 4011, 4048, 4053, 4031, 4046, 4063, 0, 1, 17100, -89.900, 0.000, 90.700, 0.000, 0.000, -2.900, 0.0, , , , , , 95, , , 55, 55, 55
38.5373973, -120.3487453, 35.000, 16:20:03.394, 18, 0.00, 0.30, 97, 2.400, 1.900, 91.900, 390, 100, 97, 32, 24247, -18707, 5123, 5282, 22, 14, 1531005603.395, 66, 0, 1024, 1024, 1024, 1024, 0, 6, 4011, 4048, 4053, 4031, 4046, 4063, 0, 1, 17200, -89.900, 0.000, 90.700, 0.000, 0.000, -3.000, 0.0, , , , , , 95, , , 55, 55, 55
38.5373974, -120.3487453, 35.300, 16:20:03.494, 18, 0.00, 0.31, 97, 2.500, 1.900, 92.000, 390, 100, 97, 32, 24320, -18046, 5123, 5282, 22, 14, 1531005603.495, 56, 0, 1024, 1024, 1024, 1024, 0, 6, 4011, 4048, 4053, 4031, 4046, 4063, 0, 1, 17300, -89.900, 0.000, 90.700, 0.000, 0.000, -2.900, 0.0, , , , , , 95, , , 55, 55, 55
38.5373975, -120.3487453, 35.600, 16:20:03.594, 18, 0.00, 0.32, 97, 2.700, 1.900, 92.100, 390, 100, 97, 32, 24320, -18046, 5123, 5282, 22, 14, 1531005603.595, 49, 0, 1024, 1024, 1024, 1024, 0, 6, 4011, 4048, 4053, 4031, 4046, 4063, 0, 1, 17400, -89.900, 0.000, 90.700, 0.000, 0.000, -2.900, 0.0, , , , , , 95, , , 55, 55, 55
38.5373976, -120.3487453, 35.900, 16:20:03.694, 18, 0.00, 0.32, 97, 2.500, 1.900, 92.200, 390, 100, 97, 32, 24320, -18046, 5123, 5282, 22, 14, 1531005603.694, 44, 0, 1024, 1024, 1024, 1024, 0, 6, 4011, 4048, 4053, 4031, 4046, 4063, 0, 1, 17499, -89.900, 0.000, 90.700, 0.000, 0.000, -3.000, 0.0, , , , , , 95, , , 55, 55, 55
38.5373976, -120.3487453, 36.200, 16:20:03.794, 18, 0.00, 0.33, 97, 2.500, 2.100, 92.200, 390, 100, 97, 32, 24320, -18046, 5123, 5282, 22, 14, 1531005603.795, 66, 0, 1024, 1024, 1024, 1024, 0, 6, 4011, 4048, 4053, 4031, 4046, 4063, 0, 1, 17600, -89.900, 0.000, 90.700, 0.000, 0.000, -3.000, 0.0, , , , , , 95, , , 55, 55, 55
38.5373976, -120.3487453, 36.500, 16:20:03.894, 18, 0.00, 0.33, 97, 2.300, 2.100, 92.200, 390, 100, 97, 32, 24320, -18046, 5123, 5282, 22, 14, 1531005603.895, 30, 0, 1024, 1024, 1024, 1024, 0, 6, 4011, 4048, 4053, 4031, 4046, 4063, 0, 1, 17700, -89.900, 0.000, 90.700, 0.000, 0.000, -2.900, 0.0, , , , , , 95, , , 55, 55, 55
38.5373976, -120.3487452, 36.800, 16:20:03.994, 18, 0.00, 0.33, 97, 2.300, 2.200, 92.100, 390, 100, 99, 32, 24320, -18046, 5123, 5282, 22, 14, 1531005603.994, 35, 0, 1024, 1024, 1024, 1024, 0, 6, 4026, 4056, 4060, 4042, 4047, 4064, 0, 1, 17800, -89.900, 0.000, 90.700, 0.000, 0.000, -2.900, 0.0, , , , , , 95, , , 55, 55, 55
38.5373976, -120.3487452, 37.100, 16:20:04.093, 18, 0.00, 0.33, 97, 2.100, 2.200, 92.100, 390, 100, 99, 32, 24320, -18046, 5123, 5282, 22, 14, 1531005604.094, 25, 0, 1024, 1024, 1024, 1024, 0, 6, 4026, 4056, 4060, 4042, 4047, 4064, 0, 1, 17899, -89.900, 0.000, 90.700, 0.000, 0.000, -2.900, 0.0, , , , , , 95, , , 55, 55, 55
38.5373976, -120.3487452, 37.400, 16:20:04.194, 18, 0.00, 0.33, 97, 2.000, 2.200, 92.000, 390, 100, 99, 32, 24320, -18046, 5123, 5282, 22, 14, 1531005604.194, 30, 0, 1024, 1024, 1024, 1024, 0, 6, 4026, 4056, 4060, 4042, 4047, 4064, 0, 1, 18000, -89.900, 0.000, 90.700, 0.000, 0.000, -3.000, 0.0, , , , , , 95, , , 55, 55, 55
38.5373976, -120.3487452, 37.700, 16:20:04.294, 18, 0.00, 0.33, 97, 2.100, 2.300, 91.900, 390, 100, 99, 32, 24320, -18046, 5123, 5282, 22, 14, 1531005604.294, 35, 0, 1024, 1024, 1024, 1024, 0, 6, 4026, 4056, 4060, 4042, 4047, 4064, 0, 1, 18100, -89.900, 0.000, 90.700, 0.000, 0.000, -3.000, 0.0, , , , , , 95, , , 55, 55, 55
38.5373977, -120.3487452, 38.000, 16:20:04.394, 18, 0.00, 0.34, 97, 2.300, 2.500, 91.700, 390, 100, 99, 32, 24320, -18046, 5123, 5282, 22, 14, 1531005604.394, 27, 0, 1024, 1024, 1024, 1024, 0, 6, 4026, 4056, 4060, 4042, 4047, 4064, 0, 1, 18200, -89.900, 0.000, 90.700, 0.000, 0.000, -3.000, 0.0, , , , , , 95, , , 55, 55, 55
38.5373977, -120.3487451, 38.300, 16:20:04.494, 18, 0.00, 0.35, 97, 2.400, 2.700, 91.500, 390, 100, 100, 32, 24320, -18046, 5123, 5282, 22, 14, 1531005604.494, 25, 0, 1024, 1024, 1024, 1024, 0, 6, 4026, 4056, 4060, 4042, 4047, 4064, 0, 1, 18300, -89.900, 0.000, 90.700, 0.000, 0.000, -3.000, 0.0, , , , , , 95, , , 55, 55, 55
38.5373978, -120.3487451, 38.600, 16:20:04.600, 18, 0.00, 0.35, 97, 2.800, 2.600, 91.300, 390, 100, 100, 32, 24320, -18046, 5123, 5282, 22, 14, 1531005604.600, 11, 0, 1024, 1024, 1024, 1024, 0, 6, 4026, 4056, 4060, 4042, 4047, 4064, 0, 1, 18405, -89.900, 0.000, 90.700, 0.000, 0.000, -3.000, 0.0, , , , , , 95, , , 55, 55, 55
38.5373979, -120.3487450, 39.200, 16:20:04.712, 18, 0.00, 0.36, 97, 2.700, 2.600, 91.000, 390, 100, 100, 32, 24320, -18046, 5123, 5282, 22, 14, 1531005604.712, 3, 0, 1024, 1024, 1024, 1024, 0, 6, 4026, 4056, 4060, 4042, 4047, 4064, 0, 1, 18517, -89.900, 0.000, 90.700, 0.000, 0.000, -3.100, 0.0, , , , , , 95, , , 55, 55, 55
38.5373979, -120.3487450, 39.500, 16:20:04.794, 18, 0.00, 0.37, 97, 2.800, 2.900, 91.000, 390, 100, 100, 32, 24320, -18046, 5123, 5282, 22, 14, 1531005604.794, 8, 0, 1024, 1024, 1024, 1024, 0, 6, 4026, 4056, 4060, 4042, 4047, 4064, 0, 1, 18599, -89.900, 0.000, 90.700, 0.000, 0.000, -3.000, 0.0, , , , , , 95, , , 55, 55, 55
38.5373979, -120.3487449, 39.900, 16:20:04.894, 18, 0.00, 0.37, 97, 2.900, 3.200, 91.100, 390, 100, 100, 32, 24317, -17877, 5123, 5282, 22, 14, 1531005604.894, 7, 0, 1024, 1024, 1024, 1024, 0, 6, 4032, 4059, 4059, 4043, 4052, 4071, 0, 1, 18700, -89.900, 0.000, 90.700, 0.000, 0.000, -3.000, 0.0, , , , , , 95, , , 55, 55, 55
38.5373979, -120.3487449, 39.900, 16:20:04.994, 18, 0.00, 0.37, 97, 2.900, 3.200, 91.100, 390, 100, 100, 32, 24317, -17877, 5123, 5282, 22, 14, 1531005604.994, 107, 0, 1024, 1024, 1024, 1024, 0, 6, 4032, 4059, 4059, 4043, 4052, 4071, 0, 1, 18800, -89.900, 0.000, 90.700, 0.000, 0.000, -3.000, 0.0, , , , , , 95, , , 55, 55, 55
38.5373979, -120.3487449, 40.100, 16:20:05.094, 18, 0.00, 0.38, 97, 3.000, 3.400, 91.400, 390, 100, 100, 32, 24317, -17877, 5123, 5282, 22, 14, 1531005605.094, 95, 0, 1024, 1024, 1024, 1024, 0, 6, 4032, 4059, 4059, 4043, 4052, 4071, 0, 1, 18900, -89.900, 0.000, 90.700, 0.000, 0.000, -2.900, 0.0, , , , , , 95, , , 55, 55, 55
38.5373980, -120.3487448, 40.400, 16:20:05.199, 18, 0.00, 0.38, 97, 2.900, 3.500, 91.700, 390, 100, 100, 32, 24317, -17877, 5123, 5282, 22, 14, 1531005605.200, 103, 0, 1024, 1024, 1024, 1024, 0, 6, 4032, 4059, 4059, 4043, 4052, 4071, 0, 1, 19005, -89.900, 0.000, 90.700, 0.000, 0.000, -2.900, 0.0, , , , , , 95, , , 55, 55, 55
38.5373980, -120.3487448, 40.700, 16:20:05.294, 18, 0.00, 0.39, 97, 2.800, 3.700, 92.200, 390, 100, 100, 32, 24317, -17877, 5123, 5282, 22, 14, 1531005605.294, 86, 0, 1024, 1024, 1024, 1024, 0, 6, 4032, 4059, 4059, 4043, 4052, 4071, 0, 1, 19100, -89.900, 0.000, 90.700, 0.000, 0.000, -2.800, 0.0, , , , , , 95, , , 55, 55, 55
38.5373980, -120.3487447, 41.000, 16:20:05.394, 18, 0.00, 0.39, 97, 2.600, 3.700, 92.500, 390, 100, 100, 32, 24317, -17877, 5123, 5282, 22, 14, 1531005605.394, 92, 0, 1024, 1024, 1024, 1024, 0, 6, 4032, 4059, 4059, 4043, 4052, 4071, 0, 1, 19200, -89.900, 0.000, 90.700, 0.000, 0.000, -2.800, 0.0, , , , , , 95, , , 55, 55, 55
38.5373980, -120.3487447, 41.300, 16:20:05.494, 18, 0.00, 0.39, 97, 2.700, 3.500, 92.600, 390, 100, 100, 32, 24317, -17877, 5123, 5282, 22, 14, 1531005605.494, 75, 0, 1024, 1024, 1024, 1024, 0, 6, 4032, 4059, 4059, 4043, 4052, 4071, 0, 1, 19300, -89.900, 0.000, 90.700, 0.000, 0.000, -2.900, 0.0, , , , , , 95, , , 55, 55, 55
38.5373980, -120.3487447, 41.600, 16:20:05.594, 18, 0.00, 0.40, 97, 3.000, 3.200, 92.600, 390, 100, 97, 32, 24317, -17877, 5123, 5282, 22, 14, 1531005605.594, 67, 0, 1024, 1024, 1024, 1024, 0, 6, 4032, 4059, 4059, 4043, 4052, 4071, 0, 1, 19400, -90.000, 0.000, 90.700, 0.000, 0.000, -2.900, 0.0, , , , , , 95, , , 55, 55, 55
38.5373980, -120.3487447, 41.800, 16:20:05.693, 18, 0.00, 0.40, 97, 2.900, 2.800, 92.500, 390, 100, 97, 32, 24317, -17877, 5123, 5282, 22, 14, 1531005605.694, 43, 0, 1024, 1024, 1024, 1024, 0, 6, 4032, 4059, 4059, 4043, 4052, 4071, 0, 1, 19499, -90.000, 0.000, 90.700, 0.000, 0.000, -2.900, 0.0, , , , , , 95, , , 55, 55, 55
38.5373981, -120.3487446, 42.100, 16:20:05.794, 18, 0.00, 0.40, 97, 2.800, 3.100, 92.300, 390, 100, 97, 32, 24317, -17877, 5123, 5282, 22, 14, 1531005605.794, 58, 0, 1024, 1024, 1024, 1024, 0, 6, 4032, 4059, 4059, 4043, 4052, 4071, 0, 1, 19599, -89.900, 0.000, 90.700, 0.000, 0.000, -3.000, 0.0, , , , , , 95, , , 55, 55, 55
38.5373982, -120.3487446, 42.400, 16:20:05.894, 18, 0.00, 0.42, 97, 3.200, 3.500, 92.200, 390, 100, 97, 32, 24317, -17877, 5123, 5282, 22, 14, 1531005605.894, 59, 0, 1024, 1024, 1024, 1024, 0, 6, 4032, 4059, 4059, 4043, 4052, 4071, 0, 1, 19700, -89.900, 0.000, 90.700, 0.000, 0.000, -3.000, 0.0, , , , , , 95, , , 55, 55, 55
38.5373983, -120.3487445, 42.700, 16:20:05.994, 18, 0.00, 0.43, 97, 3.600, 4.100, 92.100, 390, 100, 95, 32, 24319, -16939, 5123, 5282, 22, 14, 1531005605.994, 65, 0, 1024, 1024, 1024, 1024, 0, 6, 4029, 4059, 4061, 4049, 4050, 4071, 0, 1, 19800, -89.900, 0.000, 90.700, 0.000, 0.000, -2.900, 0.0, , , , , , 95, , , 55, 55, 55
38.5373983, -120.3487444, 43.000, 16:20:06.094, 18, 0.00, 0.44, 97, 4.400, 4.400, 92.100, 390, 100, 95, 32, 24319, -16939, 5123, 5282, 22, 14, 1531005606.094, 42, 0, 1024, 1024, 1024, 1024, 0, 6, 4029, 4059, 4061, 4049, 4050, 4071, 0, 1, 19899, -89.900, 0.000, 90.700, 0.000, 0.000, -3.000, 0.0, , , , , , 95, , , 55, 55, 55
38.5373984, -120.3487443, 43.300, 16:20:06.194, 18, 0.00, 0.45, 97, 4.900, 4.200, 92.200, 390, 100, 95, 32, 24319, -16939, 5123, 5282, 22, 14, 1531005606.194, 34, 0, 1024, 1024, 1024, 1024, 0, 6, 4029, 4059, 4061, 4049, 4050, 4071, 0, 1, 20000, -89.900, 0.000, 90.700, 0.000, 0.000, -2.900, 0.0, , , , , , 95, , , 55, 55, 55
38.5373985, -120.3487443, 43.600, 16:20:06.294, 18, 0.00, 0.46, 97, 4.500, 4.000, 92.300, 390, 100, 95, 32, 24319, -16939, 5123, 5282, 22, 14, 1531005606.294, 48, 0, 1024, 1024, 1024, 1024, 0, 6, 4029, 4059, 4061, 4049, 4050, 4071, 0, 1, 20100, -89.900, 0.000, 90.700, 0.000, 0.000, -2.900, 0.0, , , , , , 95, , , 55, 55, 55
38.5373986, -120.3487442, 43.900, 16:20:06.394, 18, 0.00, 0.47, 97, 4.100, 3.900, 92.400, 390, 100, 95, 32, 24319, -16939, 5123, 5282, 22, 14, 1531005606.394, 37, 0, 1024, 1024, 1024, 1024, 0, 6, 4029, 4059, 4061, 4049, 4050, 4071, 0, 1, 20200, -90.000, 0.000, 90.700, 0.000, 0.000, -3.000, 0.0, , , , , , 95, , , 55, 55, 55
38.5373987, -120.3487442, 44.200, 16:20:06.494, 18, 0.00, 0.48, 97, 4.000, 3.700, 92.300, 390, 100, 96, 32, 24319, -16939, 5123, 5282, 22, 14, 1531005606.494, 30, 0, 1024, 1024, 1024, 1024, 0, 6, 4029, 4059, 4061, 4049, 4050, 4071, 0, 1, 20300, -89.900, 0.000, 90.700, 0.000, 0.000, -3.000, 0.0, , , , , , 95, , , 55, 55, 55
38.5373988, -120.3487440, 44.900, 16:20:06.594, 18, 0.00, 0.50, 97, 4.400, 4.500, 91.500, 390, 100, 96, 32, 24319, -16939, 5123, 5282, 22, 14, 1531005606.594, 14, 0, 1024, 1024, 1024, 1024, 0, 6, 4029, 4059, 4061, 4049, 4050, 4071, 0, 1, 20400, -89.900, 0.000, 90.700, 0.000, 0.000, -3.100, 0.0, , , , , , 95, , , 55, 55, 55
38.5373988, -120.3487439, 45.200, 16:20:06.694, 18, 0.00, 0.51, 97, 4.400, 4.900, 91.200, 390, 100, 96, 32, 24319, -16939, 5123, 5282, 22, 14, 1531005606.694, 25, 0, 1024, 1024, 1024, 1024, 0, 6, 4029, 4059, 4061, 4049, 4050, 4071, 0, 1, 20499, -89.900, 0.000, 90.700, 0.000, 0.000, -3.100, 0.0, , , , , , 95, , , 55, 55, 55
38.5373988, -120.3487439, 45.200, 16:20:06.794, 18, 0.00, 0.51, 97, 4.400, 4.900, 91.200, 390, 100, 96, 32, 24319, -16939, 5123, 5282, 22, 14, 1531005606.794, 125, 0, 1024, 1024, 1024, 1024, 0, 6, 4029, 4059, 4061, 4049, 4050, 4071, 0, 1, 20599, -89.900, 0.000, 90.700, 0.000, 0.000, -3.100, 0.0, , , , , , 95, , , 55, 55, 55
38.5373988, -120.3487439, 45.200, 16:20:06.894, 18, 0.00, 0.51, 97, 4.400, 4.900, 91.200, 390, 100, 96, 32, 24319, -16939, 5123, 5282, 22, 14, 1531005606.894, 225, 0, 1024, 1024, 1024, 1024, 0, 6, 4029, 4059, 4061, 4049, 4050, 4071, 0, 1, 20700, -89.900, 0.000, 90.700, 0.000, 0.000, -3.100, 0.0, , , , , , 95, , , 55, 55, 55
38.5373988, -120.3487437, 45.800, 16:20:06.994, 18, 0.00, 0.52, 97, 3.800, 5.500, 91.000, 390, 100, 96, 32, 24285, -17389, 5123, 5282, 22, 14, 1531005606.994, 94, 0, 1024, 1024, 1024, 1024, 0, 6, 4026, 4048, 4062, 4054, 4047, 4060, 0, 1, 20800, -89.900, 0.000, 90.700, 0.000, 0.000, -3.000, 0.0, , , , , , 95, , , 55, 55, 55
38.5373987, -120.3487435, 46.400, 16:20:07.094, 18, 0.00, 0.52, 97, 3.100, 5.600, 91.000, 390, 100, 96, 32, 24285, -17389, 5123, 5282, 22, 14, 1531005607.094, 6, 0, 1024, 1024, 1024, 1024, 0, 6, 4026, 4048, 4062, 4054, 4047, 4060, 0, 1, 20899, -89.900, 0.000, 90.700, 0.000, 0.000, -2.800, 0.0, , , , , , 95, , , 55, 55, 55
